[{"lat":"37.226741561","long":"126.99250427","imageIndex":4,"items":[{"name":"기안말산삼삼계탕","tel":"031-267-7626","addr":"경기도 화성시 배양동 65-137번지","indutype":"일반휴게음식 - 일반한식","category":"restaurant"}]},{"lat":"37.219938494","long":"126.98998143","imageIndex":4,"items":[{"name":"돌담한식부페","tel":"031-233-9322","addr":"경기도 화성시 배양동 69-476번지 1층","indutype":"일반휴게음식 - 일반한식","category":"restaurant"}]},{"lat":"37.223551732","long":"126.9907808","imageIndex":4,"items":[{"name":"막퍼주는집","tel":"031-221-9517","addr":"경기도 화성시 배양동 69-171번지","indutype":"일반휴게음식 - 일반한식","category":"restaurant"},{"name":"황토유황오리","tel":"031-221-9517","addr":"경기도 화성시 배양동 69-171번지","indutype":"일반휴게음식 - 일반한식","category":"restaurant"}]},{"lat":"37.226822688","long":"126.99289863","imageIndex":4,"items":[{"name":"우리동네","tel":"031-222-0285","addr":"경기도 화성시 배양동 62-2번지","indutype":"일반휴게음식 - 일반한식","category":"restaurant"}]},{"lat":"37.219217574","long":"126.98917034","imageIndex":4,"items":[{"name":"우리집닭강정호프","tel":"031-221-7248","addr":"경기도 화성시 배양동 69-304번지","indutype":"일반휴게음식 - 스넥","category":"restaurant"},{"name":"카페(CAFE)집앞","tel":"031-225-5464","addr":"경기도 화성시 배양동 69-304번지","indutype":"일반휴게음식 - 서양음식","category":"restaurant"}]}]