[{"lat":"37.366529844","long":"126.96487278","items":[{"name":"둥이치킨","tel":"031-429-0340","addr":"경기도 안양시 동안구 호성로","category":"일반휴게음식 - 스넥"}]},{"lat":"37.366196415","long":"126.96470362","items":[{"name":"삼성영어해법수학호성학원","tel":"031-457-0505","addr":"경기도 안양시 동안구 호성로","category":"회원제형태 - 학원"},{"name":"엠아이학원","tel":"031-456-0984","addr":"경기도 안양시 동안구 호성로","category":"회원제형태 - 학원"},{"name":"피부이야기","tel":"031-455-9791","addr":"경기도 안양시 동안구 호성로","category":"회원제형태 - 기타4"}]},{"lat":"37.362420654","long":"126.96314777","items":[{"name":"신세계그린마트","tel":"031-429-2080","addr":"경기도 안양시 동안구 호성로","category":"유통업 영리 - 슈퍼마켓"}]},{"lat":"37.36272707","long":"126.96336208","items":[{"name":"옥토끼떡","tel":"031-459-4800","addr":"경기도 안양시 동안구 호성로","category":"음료식품 - 제과점"}]},{"lat":"37.364340109","long":"126.96403854","items":[{"name":"홍짜장","tel":"031-451-2277","addr":"경기도 안양시 동안구 호성로","category":"일반휴게음식 - 중국식"}]}]