[{"lat":"37.822897971","long":"127.15697431","items":[{"name":"(주)대기문구유통","tel":"031-544-8989","addr":"경기도 포천시 소흘읍 이가팔리 440-3번지","category":"서적문구 - 문구용품"},{"name":"대기문구사","tel":"031-544-8989","addr":"경기도 포천시 소흘읍 이가팔리 440-3번지","category":"서적문구 - 문구용품"}]},{"lat":"37.831917192","long":"127.15636831","items":[{"name":"(주)벨푸드","tel":"031-542-3983","addr":"경기도 포천시 소흘읍 이가팔리 241번지","category":"음료식품 - 정육점"}]},{"lat":"37.828758992","long":"127.16008744","items":[{"name":"(주)에스케이플라스틱파렛트","tel":"070-4036-9950","addr":"경기도 포천시 소흘읍 이가팔리 754번지","category":"건축자재 - 기타건축자재"}]},{"lat":"37.826759879","long":"127.15241624","items":[{"name":"IT네트워크","tel":"","addr":"경기도 포천시 소흘읍 이가팔리 310-1번지 송우전화국 4층","category":"용역 서비스 - 기타용역서비스"},{"name":"반푸드","tel":"031-543-5899","addr":"경기도 포천시 소흘읍 이가팔리 310-1번지 4층 KT 구내식당","category":"일반휴게음식 - 위탁급식업"},{"name":"온누리텔레콤","tel":"031-544-8000","addr":"경기도 포천시 소흘읍 이가팔리 310-1번지 1층","category":"사무통신 - 통신기기"}]},{"lat":"37.815226915","long":"127.16002468","items":[{"name":"JSP제이에스파츠","tel":"031-874-5907","addr":"경기도 포천시 소흘읍 이가팔리 968번지 가동","category":"자동차정비 유지 - 자동차부품"}]},{"lat":"37.824758432","long":"127.15347986","items":[{"name":"M통신","tel":"031-543-1906","addr":"경기도 포천시 소흘읍 이가팔리 485-2번지","category":"사무통신 - 통신기기"},{"name":"빵","tel":"","addr":"경기도 포천시 소흘읍 이가팔리 485-2번지 나동 1층","category":"음식 - 제빵"},{"name":"빵","tel":"","addr":"경기도 포천시 소흘읍 이가팔리 485-2번지 나동 1층","category":"음료식품 - 제과점"},{"name":"삼성천막","tel":"031-542-4888","addr":"경기도 포천시 소흘읍 이가팔리 485-2","category":"직물 - 카페트,커튼,천막,지물"},{"name":"알뜰구제cafe","tel":"031-543-1522","addr":"경기도 포천시 소흘읍 이가팔리 485-2번지 2호 상가","category":"의류 - 정장"}]},{"lat":"37.82272842","long":"127.15572459","items":[{"name":"NK furniture","tel":"070-7797-0426","addr":"경기도 포천시 소흘읍 이가팔리 449번지","category":"가구 - 일반가구"}]},{"lat":"37.827146474","long":"127.15305309","items":[{"name":"Natural Box","tel":"031-8080-0062","addr":"경기도 포천시 소흘읍 이가팔리 340-1번지 삼광빌라 302호","category":"회원제형태 - 레져업소"}]},{"lat":"37.823815364","long":"127.15816881","items":[{"name":"PP뱅크","tel":"031-541-5834","addr":"경기도 포천시 소흘읍 이가팔리 418-1","category":"서적문구 - 문구용품"}]},{"lat":"37.823061547","long":"127.15589565","items":[{"name":"SEMATECH","tel":"031-543-4630","addr":"경기도 포천시 소흘읍 이가팔리 441-2,5","category":"자동차정비 유지 - 자동차부품"},{"name":"내가잘가는집","tel":"031-541-9513","addr":"경기도 포천시 소흘읍 이가팔리 441-2번지","category":"일반휴게음식 - 일반한식"}]},{"lat":"37.823116046","long":"127.15555503","items":[{"name":"가구와씽크대공장직판장","tel":"031-543-0400","addr":"경기도 포천시 소흘읍 이가팔리 452-3","category":"가구 - 일반가구"}]},{"lat":"37.825951369","long":"127.15056319","items":[{"name":"가야기프트","tel":"031-2265-4154","addr":"경기도 포천시 소흘읍 이가팔리 321-8","category":"유통업 영리 - 기타유통업"}]},{"lat":"37.824065462","long":"127.15288784","items":[{"name":"갈원중학교","tel":"031-540-2103","addr":"경기도 포천시 소흘읍 이가팔리 487번지 갈월중학교","category":"학원 - 초중고교육기관"}]},{"lat":"37.822835588","long":"127.15645172","items":[{"name":"갈월자동차공업사","tel":"031-541-2832","addr":"경기도 포천시 소흘읍 이가팔리 443","category":"자동차정비 유지 - 자동차정비"}]},{"lat":"37.815952933","long":"127.16280863","items":[{"name":"거구참숯왕갈비","tel":"","addr":"경기도 포천시 소흘읍 이가팔리 26-13번지","category":"일반휴게음식 - 일반한식"},{"name":"서린푸드(농업회사법인 주식회사)","tel":"541-1995","addr":"경기도 포천시 소흘읍 이가팔리 26-13번지","category":"도소매 - 축산물"},{"name":"주식회사 서린푸드","tel":"031-541-1996","addr":"경기도 포천시 소흘읍 이가팔리 26-13번지","category":"음료식품 - 정육점"},{"name":"주식회사서린푸드","tel":"031-541-1996","addr":"경기도 포천시 소흘읍 이가팔리 26-13번지","category":"음료식품 - 정육점"}]},{"lat":"37.818589999","long":"127.15808972","items":[{"name":"건국우유 송우보급소","tel":"031-542-5004","addr":"경기도 포천시 소흘읍 이가팔리 589","category":"음료식품 - 기타음료식품"}]},{"lat":"37.819841843","long":"127.15844442","items":[{"name":"경기전기","tel":"031-544-0664","addr":"경기도 포천시 소흘읍 이가팔리 565-10번지","category":"수리서비스 - 기타수리서비스"},{"name":"고인돌식당","tel":"031-542-4947","addr":"경기도 포천시 소흘읍 이가팔리 565-10","category":"일반휴게음식 - 일반한식"}]},{"lat":"37.823676903","long":"127.16066728","items":[{"name":"경호농장","tel":"031-544-3748","addr":"경기도 포천시 소흘읍 이가팔리 822-1번지","category":"음료식품 - 농·축·수산품"}]},{"lat":"37.824450977","long":"127.15436517","items":[{"name":"고기명가","tel":"543-6786","addr":"경기도 포천시 소흘읍 이가팔리 457-11번지","category":"음식 - 한식"},{"name":"고기명가","tel":"031-543-6786","addr":"경기도 포천시 소흘읍 이가팔리 457-11번지","category":"일반휴게음식 - 일반한식"},{"name":"포유마트","tel":"031-542-5026","addr":"경기도 포천시 소흘읍 이가팔리 457-11번지","category":"유통업 영리 - 슈퍼마켓"}]},{"lat":"37.814559687","long":"127.16042074","items":[{"name":"광영개발","tel":"031-844-9456","addr":"경기도 포천시 소흘읍 이가팔리 971-2번지","category":"문화.취미 - 화원"},{"name":"로또","tel":"031-542-2158","addr":"경기도 포천시 소흘읍 이가팔리 971-2번지 1층","category":"음료식품 - 기타음료식품"}]},{"lat":"37.821284842","long":"127.15731169","items":[{"name":"광일장갑","tel":"031-544-7076","addr":"경기도 포천시 소흘읍 이가팔리 542-5번지","category":"의류 - 기타의류"}]},{"lat":"37.824063894","long":"127.1541145","items":[{"name":"굿타임24시송우점","tel":"031-542-4878","addr":"경기도 포천시 소흘읍 이가팔리 456-6번지 외2필지","category":"유통업 영리 - 편 의 점"},{"name":"씨유이가팔리점","tel":"031-544-1215","addr":"경기도 포천시 소흘읍 이가팔리 456-6번지","category":"유통업 영리 - 편 의 점"},{"name":"튜닝스토리","tel":"031-543-7889","addr":"경기도 포천시 소흘읍 이가팔리 456-6번지","category":"자동차정비 유지 - 카인테리어"},{"name":"효자관","tel":"031-543-2898","addr":"경기도 포천시 소흘읍 이가팔리 456-6번지 1층","category":"일반휴게음식 - 중국식"},{"name":"효자관","tel":"543-2898","addr":"경기도 포천시 소흘읍 이가팔리 456-6번지","category":"음식 - 중식"}]},{"lat":"37.823646404","long":"127.15647612","items":[{"name":"금강","tel":"031-876-5249","addr":"경기도 포천시 소흘읍 이가팔리 461-1번지","category":"전기제품 - 냉열기기"}]},{"lat":"37.826418227","long":"127.15185898","items":[{"name":"능이버섯 백숙","tel":"541-4470","addr":"경기도 포천시 소흘읍 이가팔리 326번지","category":"음식 - 한식"},{"name":"능이버섯백숙","tel":"031-541-4470","addr":"경기도 포천시 소흘읍 이가팔리 326번지","category":"일반휴게음식 - 일반한식"},{"name":"대명천막공사","tel":"031-543-1238","addr":"경기도 포천시 소흘읍 이가팔리 326번지","category":"직물 - 카페트,커튼,천막,지물"},{"name":"헤이 커멍","tel":"542-0773","addr":"경기도 포천시 소흘읍 이가팔리 326번지 B동 1층","category":"음식 - 커피 등"},{"name":"헤이,커멍","tel":"031-542-0773","addr":"경기도 포천시 소흘읍 이가팔리 326번지 B동 1층","category":"일반휴게음식 - 서양음식"}]},{"lat":"37.826060894","long":"127.15650384","items":[{"name":"다빈치","tel":"031-544-4981","addr":"경기도 포천시 소흘읍 이가팔리 361번지","category":"직물 - 카페트,커튼,천막,지물"}]},{"lat":"37.823787396","long":"127.15192184","items":[{"name":"대국이엔씨 주식회사","tel":"031-541-9291","addr":"경기도 포천시 소흘읍 이가팔리 488번지","category":"용역 서비스 - 사무서비스"},{"name":"목스녹스","tel":"543-5555","addr":"경기도 포천시 소흘읍 이가팔리 488번지 1층","category":"음식 - 커피 등"},{"name":"목스녹스","tel":"031-543-5555","addr":"경기도 포천시 소흘읍 이가팔리 488번지 1,2층","category":"일반휴게음식 - 서양음식"},{"name":"무짜렐라","tel":"","addr":"경기도 포천시 소흘읍 이가팔리 488번지 해왕팰리스","category":"의류 - 정장"},{"name":"육향미","tel":"031-542-3277","addr":"경기도 포천시 소흘읍 이가팔리 488번지 1층","category":"일반휴게음식 - 일반한식"},{"name":"육향미","tel":"542-3277","addr":"경기도 포천시 소흘읍 이가팔리 488번지 1층","category":"음식 - 한식"}]},{"lat":"37.816559853","long":"127.16036821","items":[{"name":"대들보주유소","tel":"031-541-8800","addr":"경기도 포천시 소흘읍 이가팔리 929번지","category":"연료판매점 - 현대정유(오일뱅크)"}]},{"lat":"37.823865146","long":"127.15453435","items":[{"name":"대박포차","tel":"","addr":"경기도 포천시 소흘읍 이가팔리 456-4번지","category":"음식 - 한식"},{"name":"대박포차","tel":"031-542-8402","addr":"경기도 포천시 소흘읍 이가팔리 456-4번지","category":"일반휴게음식 - 일반한식"},{"name":"진미진미용실","tel":"031-542-1087","addr":"경기도 포천시 소흘읍 이가팔리 456-4","category":"보건위생 - 미용원"}]},{"lat":"37.826312484","long":"127.14997328","items":[{"name":"대산자원","tel":"031-544-8813","addr":"경기도 포천시 소흘읍 이가팔리 499번지 1층","category":"신변잡화 - 기타잡화"}]},{"lat":"37.820536002","long":"127.15811651","items":[{"name":"대신모타","tel":"031-542-9944","addr":"경기도 포천시 소흘읍 이가팔리 565-7번지","category":"수리서비스 - 기타수리서비스"}]},{"lat":"37.814478861","long":"127.16022751","items":[{"name":"동양철물","tel":"031-542-2521","addr":"경기도 포천시 소흘읍 이가팔리 971-3번지","category":"건축자재 - 목재·석재·철물"}]},{"lat":"37.818643066","long":"127.15883941","items":[{"name":"디디치킨","tel":"031-543-4458","addr":"경기도 포천시 소흘읍 이가팔리 730번지 1층","category":"일반휴게음식 - 스넥"},{"name":"디디치킨","tel":"543-4458","addr":"경기도 포천시 소흘읍 이가팔리 730번지","category":"음식 - 치킨"},{"name":"예전 떡 방앗간","tel":"543-9480","addr":"경기도 포천시 소흘읍 이가팔리 730","category":"제조업 - 떡집"},{"name":"예전떡방앗간","tel":"031-543-9480","addr":"경기도 포천시 소흘읍 이가팔리 730번지 731호","category":"음료식품 - 제과점"},{"name":"유정헤어","tel":"031-542-1342","addr":"경기도 포천시 소흘읍 이가팔리 730","category":"보건위생 - 미용원"},{"name":"유정헤어","tel":"542-1342","addr":"경기도 포천시 소흘읍 이가팔리 730","category":"서비스 - 미용"},{"name":"청해진","tel":"031-541-3471","addr":"경기도 포천시 소흘읍 이가팔리 730번지","category":"일반휴게음식 - 중국식"},{"name":"청해진","tel":"541-34712","addr":"경기도 포천시 소흘읍 이가팔리 730번지","category":"음식 - 중식"}]},{"lat":"37.824982356","long":"127.15450256","items":[{"name":"레이스가구","tel":"031-542-4809","addr":"경기도 포천시 소흘읍 이가팔리 473-2번지","category":"가구 - 일반가구"}]},{"lat":"37.822230218","long":"127.15777932","items":[{"name":"로얄타이","tel":"031-535-0825","addr":"경기도 포천시 소흘읍 이가팔리 545-1번지 2층","category":"일반휴게음식 - 서양음식"},{"name":"유진상사-2","tel":"031-543-0909","addr":"경기도 포천시 소흘읍 이가팔리 545-1번지","category":"주방용구 - 주방용구"},{"name":"치우치우","tel":"031-535-0825","addr":"경기도 포천시 소흘읍 이가팔리 545-1번지 2층","category":"일반휴게음식 - 서양음식"},{"name":"태영","tel":"031-543-4988","addr":"경기도 포천시 소흘읍 이가팔리 545-1","category":"건축자재 - 목재·석재·철물"}]},{"lat":"37.82353749","long":"127.15708922","items":[{"name":"미아트사운드","tel":"031-541-8859","addr":"경기도 포천시 소흘읍 이가팔리 439번지","category":"용역 서비스 - 기타용역서비스"}]},{"lat":"37.82650961","long":"127.15083691","items":[{"name":"믿음인테리어","tel":"031-533-9436","addr":"경기도 포천시 소흘읍 이가팔리 320-5번지","category":"건축자재 - 인테리어전문"}]},{"lat":"37.820815876","long":"127.15767415","items":[{"name":"보문자동차공업사","tel":"031-542-5747","addr":"경기도 포천시 소흘읍 이가팔리 567-1번지","category":"자동차정비 유지 - 자동차정비"}]},{"lat":"37.826723553","long":"127.15264333","items":[{"name":"복권나라","tel":"031-541-1423","addr":"경기도 포천시 소흘읍 이가팔리 309-1번지","category":"음료식품 - 기타음료식품"}]},{"lat":"37.824562247","long":"127.15188933","items":[{"name":"비네코농업회사법인주식회사","tel":"031-543-6516","addr":"경기도 포천시 소흘읍 이가팔리 489-2번지","category":"음료식품 - 기타음료식품"}]},{"lat":"37.826254818","long":"127.15283548","items":[{"name":"산목오토바이","tel":"031-541-7163","addr":"경기도 포천시 소흘읍 이가팔리 490-9번지","category":"자동차판매 - 이륜차판매"}]},{"lat":"37.825147643","long":"127.15206088","items":[{"name":"삼성샷다금속","tel":"031-544-8208","addr":"경기도 포천시 소흘읍 이가팔리 490-15번지 16,492-7","category":"기타 - 기타 전문점"}]},{"lat":"37.82891936","long":"127.15459012","items":[{"name":"삼성숲어린이집[아이행복]","tel":"031-542-9355","addr":"경기도 포천시 소흘읍 이가팔리 381번지","category":"학원 - 유아원"}]},{"lat":"37.821724098","long":"127.15203127","items":[{"name":"삼진기업","tel":"031-541-8532","addr":"경기도 포천시 소흘읍 이가팔리 509-6번지","category":"기타 - 기계공구"}]},{"lat":"37.831282181","long":"127.15967251","items":[{"name":"성심공조설비","tel":"031-541-0337","addr":"경기도 포천시 소흘읍 이가팔리 613-23","category":"용역 서비스 - 기타용역서비스"}]},{"lat":"37.817870455","long":"127.15716829","items":[{"name":"세림자동차 주식회사","tel":"031-544-4980","addr":"경기도 포천시 소흘읍 이가팔리 584번지","category":"자동차판매 - 중고자동차판매"}]},{"lat":"37.824225318","long":"127.1546941","items":[{"name":"송우중고","tel":"031-541-4935","addr":"경기도 포천시 소흘읍 이가팔리 457-8","category":"신변잡화 - 기타잡화"},{"name":"철물만돌이","tel":"541-0904","addr":"경기도 포천시 소흘읍 이가팔리 457-8번지","category":"소매업 - 철물"}]},{"lat":"37.817200868","long":"127.1593588","items":[{"name":"송우축산","tel":"031-543-6786","addr":"경기도 포천시 소흘읍 이가팔리 738-1번지","category":"음료식품 - 정육점"},{"name":"주식회사 시아토건","tel":"031-1111-1111","addr":"경기도 포천시 소흘읍 이가팔리 738-1번지","category":"건축자재 - 기타건축자재"}]},{"lat":"37.821948916","long":"127.1523611","items":[{"name":"수성상사","tel":"031-541-3554","addr":"경기도 포천시 소흘읍 이가팔리 509-2번지","category":"직물 - 옷감·직물"}]},{"lat":"37.81942729","long":"127.15853441","items":[{"name":"수정식당","tel":"031-542-9831","addr":"경기도 포천시 소흘읍 이가팔리 565-6번지 1층","category":"일반휴게음식 - 일반한식"},{"name":"태양초경","tel":"","addr":"경기도 포천시 소흘읍 이가팔리 565-6번지 101호","category":"건축자재 - 목재·석재·철물"}]},{"lat":"37.824866022","long":"127.15388898","items":[{"name":"승머리공간","tel":"031-543-8245","addr":"경기도 포천시 소흘읍 이가팔리 475-2번지","category":"보건위생 - 미용원"},{"name":"엣지미용실","tel":"031-543-7923","addr":"경기도 포천시 소흘읍 이가팔리 475-2번지 1층","category":"보건위생 - 미용원"},{"name":"엣지헤어","tel":"031-866-0058","addr":"경기도 포천시 소흘읍 이가팔리 475-2번지 1층","category":"보건위생 - 미용원"}]},{"lat":"37.821840908","long":"127.15922094","items":[{"name":"아딸농원","tel":"","addr":"경기도 포천시 소흘읍 이가팔리 707-1번지","category":"음료식품 - 농·축·수산품"}]},{"lat":"37.822283871","long":"127.1580861","items":[{"name":"아이해뜰어린이집[아이행복]","tel":"031-544-0211","addr":"경기도 포천시 소흘읍 이가팔리 546-3번지","category":"학원 - 유아원"}]},{"lat":"37.825978753","long":"127.15027929","items":[{"name":"야무진튜닝","tel":"031-541-3397","addr":"경기도 포천시 소흘읍 이가팔리 498-1번지","category":"자동차정비 유지 - 카인테리어"}]},{"lat":"37.825784485","long":"127.15427703","items":[{"name":"에듀키즈","tel":"031-848-7721","addr":"경기도 포천시 소흘읍 이가팔리 472번지","category":"서적문구 - 과학기자재"}]},{"lat":"37.81875945","long":"127.15939616","items":[{"name":"영애농장","tel":"070-8202-6373","addr":"경기도 포천시 소흘읍 이가팔리 728","category":"농업 - 비료,사료,종자"}]},{"lat":"37.818030652","long":"127.15866776","items":[{"name":"올웨이즈","tel":"031-542-3082","addr":"경기도 포천시 소흘읍 이가팔리 735","category":"유통업 영리 - 슈퍼마켓"},{"name":"커피달건이","tel":"031-542-2046","addr":"경기도 포천시 소흘읍 이가팔리 735번지","category":"음료식품 - 기타음료식품"}]},{"lat":"37.825336567","long":"127.15227707","items":[{"name":"옹골지니","tel":"070-7522-7690","addr":"경기도 포천시 소흘읍 이가팔리 490-19번지","category":"음료식품 - 기타음료식품"}]},{"lat":"37.825667829","long":"127.15391333","items":[{"name":"왕뎅이선생","tel":"544-0481","addr":"경기도 포천시 소흘읍 이가팔리 476-5번지","category":"음식 - 한식"}]},{"lat":"37.825920049","long":"127.15394792","items":[{"name":"용현모터스","tel":"031-541-6509","addr":"경기도 포천시 소흘읍 이가팔리 476번지","category":"자동차정비 유지 - 자동차정비"}]},{"lat":"37.821284231","long":"127.15777735","items":[{"name":"위드미포천신탑점","tel":"02-6916-1500","addr":"경기도 포천시 소흘읍 이가팔리 548-1번지","category":"유통업 영리 - 편 의 점"}]},{"lat":"37.817059931","long":"127.16366279","items":[{"name":"유림조경농원","tel":"031-775-7868","addr":"경기도 포천시 소흘읍 이가팔리 59번지","category":"농업 - 비료,사료,종자"}]},{"lat":"37.824144584","long":"127.15442134","items":[{"name":"유진카서비스","tel":"031-541-8257","addr":"경기도 포천시 소흘읍 이가팔리 456-2 외2필지","category":"자동차정비 유지 - 자동차정비"}]},{"lat":"37.824121303","long":"127.15147955","items":[{"name":"유한(UH)","tel":"031-541-0727","addr":"경기도 포천시 소흘읍 이가팔리 503-11번지","category":"전기제품 - 기타전기제품"}]},{"lat":"37.826509295","long":"127.15108679","items":[{"name":"의정부부대찌개.삼겹살","tel":"031-541-0677","addr":"경기도 포천시 소흘읍 이가팔리 320-3번지","category":"일반휴게음식 - 일반한식"},{"name":"현미수제누룽지","tel":"031-796-2554","addr":"경기도 포천시 소흘읍 이가팔리 320-3번지","category":"음료식품 - 기타음료식품"}]},{"lat":"37.820842576","long":"127.15792407","items":[{"name":"이가팔주유소","tel":"031-543-5149","addr":"경기도 포천시 소흘읍 이가팔리 565-1번지","category":"연료판매점 - 주유소"}]},{"lat":"37.816010142","long":"127.16046925","items":[{"name":"정교톱제작","tel":"031-543-7090","addr":"경기도 포천시 소흘읍 이가팔리 929-2번지","category":"회원제형태 - 기타4"}]},{"lat":"37.815365043","long":"127.1644768","items":[{"name":"주식회사 반하우","tel":"031-543-9659","addr":"경기도 포천시 소흘읍 이가팔리 28-1번지","category":"유통업 영리 - 슈퍼마켓"}]},{"lat":"37.820369351","long":"127.15464077","items":[{"name":"주식회사 안새고열","tel":"02-466-8548","addr":"경기도 포천시 소흘읍 이가팔리 526번지 나동","category":"건축자재 - 보일러·펌프·샷시"}]},{"lat":"37.822587732","long":"127.1530325","items":[{"name":"주식회사 와이앤제이글로벌","tel":"070-8803-2224","addr":"경기도 포천시 소흘읍 이가팔리 508-42번지","category":"유통업 영리 - 기타유통업"}]},{"lat":"37.820283588","long":"127.15822956","items":[{"name":"주식회사 착한공기에어웰","tel":"031-852-9321","addr":"경기도 포천시 소흘읍 이가팔리 565-9번지","category":"건축자재 - 기타건축자재"}]},{"lat":"37.820757894","long":"127.15375568","items":[{"name":"주식회사 쾌적한","tel":"031-1800-3204","addr":"경기도 포천시 소흘읍 이가팔리 513번지","category":"전기제품 - 냉열기기"}]},{"lat":"37.823148848","long":"127.15803112","items":[{"name":"진 쥬얼리","tel":"031-796-2554","addr":"경기도 포천시 소흘읍 이가팔리 435-1번지 대경다가구주택 가동 102호","category":"신변잡화 - 액세서리"}]},{"lat":"37.818228347","long":"127.15905432","items":[{"name":"청비닐포장","tel":"031-544-1649","addr":"경기도 포천시 소흘읍 이가팔리 730-4번지","category":"유통업 영리 - 기타유통업"}]},{"lat":"37.8243412506","long":"127.1556143396","items":[{"name":"카페아리","tel":"031-302-6334","addr":"경기도 포천시 소흘읍 이가팔리 459번지 가동 1층","category":"일반휴게음식 - 서양음식"},{"name":"카페아리","tel":"","addr":"경기도 포천시 소흘읍 이가팔리 459번지","category":"음식 - 커피 등"}]},{"lat":"37.824783035","long":"127.15536537","items":[{"name":"패널티코리아(PENALTY KOREA)","tel":"","addr":"경기도 포천시 소흘읍 이가팔리 457-3번지 삼성그랜드빌라 203호","category":"레져용품 - 스포츠·레져용품"}]},{"lat":"37.828335178","long":"127.15347577","items":[{"name":"포근포근 포냥이","tel":"","addr":"경기도 포천시 소흘읍 이가팔리 344-1번지 현대빌라 나동 401호","category":"가구 - 기타가구"}]},{"lat":"37.824780535","long":"127.1572849","items":[{"name":"한울","tel":"031-543-1693","addr":"경기도 포천시 소흘읍 이가팔리 413-1","category":"사무통신 - 기타 사무용품"}]},{"lat":"37.826003924","long":"127.15175593","items":[{"name":"화인메디칼엔지니어링","tel":"031-543-5421","addr":"경기도 포천시 소흘읍 이가팔리 328번지","category":"기타 - 기타 전문점"}]},{"lat":"37.814870474","long":"127.16378297","items":[{"name":"황금은행나무집","tel":"031-543-5850","addr":"경기도 포천시 소흘읍 이가팔리 28-6번지","category":"일반휴게음식 - 일반한식"}]},{"lat":"37.825199461","long":"127.16069324","items":[{"name":"흙향기농원","tel":"031-844-9456","addr":"경기도 포천시 소흘읍 이가팔리 796번지","category":"음료식품 - 기타음료식품"}]},{"lat":"37.814816959","long":"127.16338537","items":[{"name":"희망유통","tel":"031-541-6500","addr":"경기도 포천시 소흘읍 이가팔리 11-10번지","category":"음료식품 - 기타음료식품"}]}]