[{"lat":"37.911240636","long":"126.89450059","items":[{"name":"김미향헤어아트","tel":"031-959-7572","addr":"경기도 파주시 법원읍 웅담리 354-38","category":"보건위생 - 미용원"}]},{"lat":"37.914849526","long":"126.90027228","items":[{"name":"나래씽크","tel":"031-958-9242","addr":"경기도 파주시 법원읍 웅담리 152-19번지","category":"주방용구 - 주방용구"}]},{"lat":"37.922684353","long":"126.89661059","items":[{"name":"뉴메이저스포츠","tel":"031-956-8025","addr":"경기도 파주시 법원읍 웅담리 산121-6번지","category":"레져용품 - 골프용품 전문점"},{"name":"소문 타이거CC점","tel":"02-3785-2567","addr":"경기도 파주시 법원읍 웅담리 산121-6번지","category":"일반휴게음식 - 일반한식"}]},{"lat":"37.922631268","long":"126.89769112","items":[{"name":"대호모터스","tel":"031-959-5385","addr":"경기도 파주시 법원읍 웅담리 105-1번지","category":"자동차정비 유지 - 자동차정비"}]},{"lat":"37.913430756","long":"126.89544124","items":[{"name":"돌가마집","tel":"031-958-1617","addr":"경기도 파주시 법원읍 웅담리 387-6번지","category":"일반휴게음식 - 일반한식"}]},{"lat":"37.911213199","long":"126.89405715","items":[{"name":"두리당구장","tel":"031-959-8088","addr":"경기도 파주시 법원읍 웅담리 347-3번지","category":"레저업소 - 당 구 장"},{"name":"두리두리식당","tel":"031-959-8088","addr":"경기도 파주시 법원읍 웅담리 347-3번지","category":"일반휴게음식 - 일반한식"}]},{"lat":"37.910771691","long":"126.89400094","items":[{"name":"미니스톱 파주웅담점","tel":"031-1577-9621","addr":"경기도 파주시 법원읍 웅담리 347-6번지","category":"유통업 영리 - 편 의 점"},{"name":"행복편의점","tel":"031-958-1608","addr":"경기도 파주시 법원읍 웅담리 347-6번지","category":"유통업 영리 - 슈퍼마켓"}]},{"lat":"37.918242753","long":"126.89658286","items":[{"name":"바베큐하우스","tel":"031-958-4740","addr":"경기도 파주시 법원읍 웅담리 109-43번지","category":"일반휴게음식 - 일반한식"},{"name":"웅담농산물판매소","tel":"031-958-5189","addr":"경기도 파주시 법원읍 웅담리 109-43번지","category":"음료식품 - 농·축·수산품"}]},{"lat":"37.914964783","long":"126.90882388","items":[{"name":"베세토IS","tel":"031-958-3977","addr":"경기도 파주시 법원읍 웅담리 43-1번지","category":"회원제형태 - 학원"}]},{"lat":"37.919323257","long":"126.89591032","items":[{"name":"삼색보양 전골","tel":"031-959-6330","addr":"경기도 파주시 법원읍 웅담리 126-3번지","category":"일반휴게음식 - 일반한식"}]},{"lat":"37.91204264","long":"126.89469273","items":[{"name":"세븐일레븐파주웅담점","tel":"031-1577-0711","addr":"경기도 파주시 법원읍 웅담리 354-24번지","category":"유통업 영리 - 편 의 점"}]},{"lat":"37.911014995","long":"126.89405744","items":[{"name":"아이벗치킨","tel":"031-959-9998","addr":"경기도 파주시 법원읍 웅담리 347-4번지","category":"일반휴게음식 - 스넥"},{"name":"웅담철물","tel":"031-958-1508","addr":"경기도 파주시 법원읍 웅담리 347-4","category":"건축자재 - 목재·석재·철물"},{"name":"장수냉면","tel":"031-958-7190","addr":"경기도 파주시 법원읍 웅담리 347-4번지","category":"일반휴게음식 - 일반한식"}]},{"lat":"37.912520819","long":"126.89544256","items":[{"name":"웅담반점","tel":"031-959-0505","addr":"경기도 파주시 법원읍 웅담리 355-1번지","category":"일반휴게음식 - 일반한식"}]},{"lat":"37.915737287","long":"126.89560847","items":[{"name":"웅담주유소","tel":"031-958-8833","addr":"경기도 파주시 법원읍 웅담리 393-4번지 웅담주유소","category":"연료판매점 - 주유소"}]},{"lat":"37.913854369","long":"126.89563394","items":[{"name":"웅담초등학교병설유치원[아이행복]","tel":"031-958-6529","addr":"경기도 파주시 법원읍 웅담리 387-1번지","category":"학원 - 유치원"}]},{"lat":"37.910852775","long":"126.89400082","items":[{"name":"웅당분식","tel":"031-959-1555","addr":"경기도 파주시 법원읍 웅담리 347-5번지","category":"일반휴게음식 - 일반한식"}]},{"lat":"37.91149256","long":"126.89413634","items":[{"name":"전주식당","tel":"031-958-7474","addr":"경기도 파주시 법원읍 웅담리 346","category":"일반휴게음식 - 일반한식"}]},{"lat":"37.909071245","long":"126.89652783","items":[{"name":"카페201","tel":"031-959-9560","addr":"경기도 파주시 법원읍 웅담리 328-3번지","category":"일반휴게음식 - 서양음식"},{"name":"한아름슈퍼","tel":"031-959-9292","addr":"경기도 파주시 법원읍 웅담리 328-3번지","category":"유통업 영리 - 슈퍼마켓"}]},{"lat":"37.918124058","long":"126.89485441","items":[{"name":"통나무집","tel":"031-958-4740","addr":"경기도 파주시 법원읍 웅담리 산 119","category":"일반휴게음식 - 일반한식"}]},{"lat":"37.911132524","long":"126.89450075","items":[{"name":"한아름식당","tel":"031-959-9292","addr":"경기도 파주시 법원읍 웅담리 354-13번지","category":"일반휴게음식 - 일반한식"}]}]