[{"lat":"37.076089975","long":"126.91430088","items":[{"name":"(주) 윈글라스","tel":"031-357-2107","addr":"경기도 화성시 양감면 요당리 712번지","category":"건축자재 - 유리"},{"name":"(주)토도시스템코리아","tel":"031-000-0000","addr":"경기도 화성시 양감면 요당리 712번지","category":"건축자재 - 기타건축자재"},{"name":"디엘(DL)","tel":"031-354-9862","addr":"경기도 화성시 양감면 요당리 712번지","category":"건축자재 - 기타건축자재"}]},{"lat":"37.067093368","long":"126.93557414","items":[{"name":"(주)몽크로스레져","tel":"","addr":"경기도 화성시 양감면 요당리 130-5번지","category":"레져용품 - 스포츠·레져용품"}]},{"lat":"37.073403162","long":"126.93990919","items":[{"name":"(주)이피엘이디","tel":"031-354-1131","addr":"경기도 화성시 양감면 요당리 3-5번지 2층","category":"건축자재 - 조명기구"}]},{"lat":"37.069981498","long":"126.91524129","items":[{"name":"cafe espresso 편의점","tel":"031-353-6004","addr":"경기도 화성시 양감면 요당리 346-6번지","category":"유통업 영리 - 편 의 점"},{"name":"정통부대찌개","tel":"031-353-6004","addr":"경기도 화성시 양감면 요당리 346-6번지 1층","category":"일반휴게음식 - 일반한식"}]},{"lat":"37.075396283","long":"126.92751507","items":[{"name":"가나종합에너지","tel":"031-366-3233","addr":"경기도 화성시 양감면 요당리 516-24번지","category":"연료판매점 - 기타연료"}]},{"lat":"37.075152522","long":"126.91382966","items":[{"name":"개미천막기업","tel":"031-354-0485","addr":"경기도 화성시 양감면 요당리 712-4번지","category":"직물 - 카페트,커튼,천막,지물"},{"name":"부민건설 주식회사","tel":"031-353-8568","addr":"경기도 화성시 양감면 요당리 712-4번지 2층","category":"용역 서비스 - 기타용역서비스"}]},{"lat":"37.065428087","long":"126.93860024","items":[{"name":"고들한식부페","tel":"","addr":"경기도 화성시 양감면 요당리 110-64번지","category":"일반휴게음식 - 일반한식"}]},{"lat":"37.068177528","long":"126.9127696","items":[{"name":"고잔낚시터식당","tel":"031-353-7878","addr":"경기도 화성시 양감면 요당리 435번지","category":"일반휴게음식 - 일반한식"}]},{"lat":"37.077287331","long":"126.91290502","items":[{"name":"공단매점","tel":"031-353-6197","addr":"경기도 화성시 양감면 요당리 602-1번지 외1필지","category":"유통업 영리 - 슈퍼마켓"},{"name":"세븐일레븐화성요당점","tel":"","addr":"경기도 화성시 양감면 요당리 602-1번지 외1필지","category":"유통업 영리 - 편 의 점"}]},{"lat":"37.074783849","long":"126.92796549","items":[{"name":"대성CH","tel":"031-354-9388","addr":"경기도 화성시 양감면 요당리 516-28번지 1동","category":"기타 - 기계공구"},{"name":"판도코리아","tel":"031-111-1111","addr":"경기도 화성시 양감면 요당리 516-28번지","category":"기타 - 기계공구"}]},{"lat":"37.069340056","long":"126.94118319","items":[{"name":"동원식당","tel":"031-354-3290","addr":"경기도 화성시 양감면 요당리 75-35번지","category":"일반휴게음식 - 위탁급식업"}]},{"lat":"37.071286703","long":"126.94187879","items":[{"name":"동원유리제경","tel":"031-359-9391","addr":"경기도 화성시 양감면 요당리 19-40번지 L동","category":"건축자재 - 유리"}]},{"lat":"37.079116986","long":"126.91357762","items":[{"name":"방일해장국","tel":"031-359-8319","addr":"경기도 화성시 양감면 요당리 594-6번지","category":"일반휴게음식 - 일반한식"}]},{"lat":"37.065454467","long":"126.93740836","items":[{"name":"부일한식뷔페","tel":"031-352-5616","addr":"경기도 화성시 양감면 요당리 110-29번지 1층","category":"일반휴게음식 - 일반한식"}]},{"lat":"37.069842054","long":"126.93638133","items":[{"name":"상수라","tel":"031-353-4942","addr":"경기도 화성시 양감면 요당리 148번지","category":"일반휴게음식 - 일반한식"}]},{"lat":"37.070097421","long":"126.94210463","items":[{"name":"성호테크","tel":"031-353-6722","addr":"경기도 화성시 양감면 요당리 75-27","category":"건축자재 - 목재·석재·철물"}]},{"lat":"37.065121199","long":"126.93763352","items":[{"name":"송원한식부페","tel":"","addr":"경기도 화성시 양감면 요당리 110-54번지","category":"일반휴게음식 - 일반한식"},{"name":"이마트24 양감공단점","tel":"","addr":"경기도 화성시 양감면 요당리 110-54번지","category":"유통업 영리 - 편 의 점"}]},{"lat":"37.066368254","long":"126.91524545","items":[{"name":"승민산업벤딩","tel":"031-8059-6366","addr":"경기도 화성시 양감면 요당리 338-5","category":"기타 - 기계공구"}]},{"lat":"37.066320196","long":"126.93871193","items":[{"name":"승일레져","tel":"031-453-8876","addr":"경기도 화성시 양감면 요당리 110-26","category":"레져용품 - 스포츠·레져용품"}]},{"lat":"37.074592113","long":"126.93907606","items":[{"name":"썬푸드","tel":"031-353-5085","addr":"경기도 화성시 양감면 요당리 5-3번지 1층","category":"일반휴게음식 - 일반한식"}]},{"lat":"37.074951145","long":"126.90973659","items":[{"name":"약공단자동차용품","tel":"031-682-1842","addr":"경기도 화성시 양감면 요당리 618-3번지","category":"자동차정비 유지 - 자동차부품"}]},{"lat":"37.074979791","long":"126.93949181","items":[{"name":"양감월드슈퍼","tel":"031-111-1111","addr":"경기도 화성시 양감면 요당리 2번지","category":"유통업 영리 - 슈퍼마켓"}]},{"lat":"37.0713162","long":"126.91679154","items":[{"name":"요당오리","tel":"031-354-5294","addr":"경기도 화성시 양감면 요당리 422번지","category":"일반휴게음식 - 일반한식"}]},{"lat":"37.075178305","long":"126.94002018","items":[{"name":"우리들한식부페","tel":"031-353-5085","addr":"경기도 화성시 양감면 요당리 1-16번지","category":"일반휴게음식 - 일반한식"}]},{"lat":"37.076592521","long":"126.91160135","items":[{"name":"유일콘크리트","tel":"031-354-2923","addr":"경기도 화성시 양감면 요당리 603-8번지","category":"건축자재 - 기타건축자재"}]},{"lat":"37.074537685","long":"126.93840138","items":[{"name":"정석건축천막","tel":"031-353-8577","addr":"경기도 화성시 양감면 요당리 9-1번지","category":"직물 - 카페트,커튼,천막,지물"}]},{"lat":"37.077423371","long":"126.91407441","items":[{"name":"제일빠우","tel":"031-352-2994","addr":"경기도 화성시 양감면 요당리 587-10번지","category":"용역 서비스 - 기타용역서비스"}]},{"lat":"37.077955723","long":"126.91505218","items":[{"name":"주식회사 엠피엠통상","tel":"070-1111-1111","addr":"경기도 화성시 양감면 요당리 590-1번지","category":"건축자재 - 기타건축자재"}]},{"lat":"37.062624703","long":"126.93662374","items":[{"name":"주식회사 영일우드","tel":"031-686-5902","addr":"경기도 화성시 양감면 요당리 215-28번지","category":"건축자재 - 목재·석재·철물"}]},{"lat":"37.077116088","long":"126.91284899","items":[{"name":"주식회사삼성에프엘티","tel":"031-353-1000","addr":"경기도 화성시 양감면 요당리 602-16번지","category":"기타 - 기계공구"}]},{"lat":"37.075340346","long":"126.93973891","items":[{"name":"청솔자동차","tel":"031-352-0996","addr":"경기도 화성시 양감면 요당리 1-3번지","category":"자동차정비 유지 - 자동차정비"}]},{"lat":"37.078450828","long":"126.91441059","items":[{"name":"큰손한식뷔페","tel":"031-111-1111","addr":"경기도 화성시 양감면 요당리 590-6번지 E동","category":"일반휴게음식 - 위탁급식업"}]},{"lat":"37.069260751","long":"126.91537705","items":[{"name":"팀몬스터","tel":"031-354-9182","addr":"경기도 화성시 양감면 요당리 341-10번지","category":"자동차정비 유지 - 자동차부품"},{"name":"팀몬스터","tel":"070-7725-0406","addr":"경기도 화성시 양감면 요당리 341-10번지 A동 2호","category":"자동차정비 유지 - 자동차부품"},{"name":"현대물류장비","tel":"031-353-5015","addr":"경기도 화성시 양감면 요당리 341-10번지 A동 101호","category":"기타 - 기계공구"}]},{"lat":"37.077062864","long":"126.91396238","items":[{"name":"한일특수","tel":"","addr":"경기도 화성시 양감면 요당리 582-5번지","category":"기타 - 기계공구"}]},{"lat":"37.075234092","long":"126.92751523","items":[{"name":"한일특수가스","tel":"031-354-3266","addr":"경기도 화성시 양감면 요당리 516-22번지","category":"연료판매점 - 기타연료"},{"name":"한일특수가스","tel":"031-354-8780","addr":"경기도 화성시 양감면 요당리 516-22번지","category":"연료판매점 - LPG 취급점"}]},{"lat":"37.075259341","long":"126.93990766","items":[{"name":"행복한식 뷔페","tel":"031-354-8428","addr":"경기도 화성시 양감면 요당리 1-7번지","category":"일반휴게음식 - 일반한식"}]},{"lat":"37.074124706","long":"126.91302121","items":[{"name":"효성천막기업","tel":"031-354-7228","addr":"경기도 화성시 양감면 요당리 490-10번지 A동","category":"직물 - 카페트,커튼,천막,지물"}]},{"lat":"37.066180184","long":"126.91681983","items":[{"name":"흥부산업","tel":"02-859-5151","addr":"경기도 화성시 양감면 요당리 334번지","category":"건축자재 - 목재·석재·철물"}]}]