[{"lat":"37.223853091","long":"126.85957144","items":[{"name":"(주)나라스틸","tel":"031-387-6842","addr":"경기도 화성시 비봉면 양노리 748-6번지 1층","category":"건축자재 - 기타건축자재"},{"name":"금호ENG","tel":"031-357-8468","addr":"경기도 화성시 비봉면 양노리 748-6번지","category":"자동차정비 유지 - 자동차시트·타이어"}]},{"lat":"37.235484729","long":"126.86660392","items":[{"name":"(주)대신건기","tel":"031-356-2748","addr":"경기도 화성시 비봉면 양노리 307-1번지","category":"기타 - 기계공구"},{"name":"고가네감자탕","tel":"031-355-6988","addr":"경기도 화성시 비봉면 양노리 307-1번지","category":"일반휴게음식 - 일반한식"},{"name":"대신","tel":"031-307-3434","addr":"경기도 화성시 비봉면 양노리 307-1번지","category":"문화.취미 - 화원"},{"name":"맛골칼국수","tel":"031-355-1235","addr":"경기도 화성시 비봉면 양노리 307-1번지 기성빌딩","category":"일반휴게음식 - 일반한식"},{"name":"명지대희망태권도체육관","tel":"031-355-0858","addr":"경기도 화성시 비봉면 양노리 307-1번지 202호","category":"학원 - 예·체능계학원"},{"name":"베테랑에어컨","tel":"070-8871-2082","addr":"경기도 화성시 비봉면 양노리 307-1번지 기성빌딩 1층","category":"전기제품 - 냉열기기"},{"name":"정일건기","tel":"031-537-0485","addr":"경기도 화성시 비봉면 양노리 307-1번지 기성빌딩 2층","category":"기타 - 기계공구"},{"name":"포에버호프","tel":"031-356-5659","addr":"경기도 화성시 비봉면 양노리 307-1번지 1층 102호","category":"일반휴게음식 - 주점"}]},{"lat":"37.215407619","long":"126.85730039","items":[{"name":"(주)대영메트리얼","tel":"031-358-0106","addr":"경기도 화성시 비봉면 양노리 707번지 105호","category":"신변잡화 - 기타잡화"},{"name":"씨유화성양노점","tel":"031-898-6568","addr":"경기도 화성시 비봉면 양노리 707번지 1층 101호","category":"유통업 영리 - 편 의 점"}]},{"lat":"37.220407197","long":"126.86382559","items":[{"name":"(주)동신전열","tel":"031-355-0160","addr":"경기도 화성시 비봉면 양노리 732-1","category":"전기제품 - 냉열기기"}]},{"lat":"37.219352763","long":"126.86363599","items":[{"name":"(주)엠이티","tel":"031-8055-8115","addr":"경기도 화성시 비봉면 양노리 732-3번지","category":"전기제품 - 기타전기제품"}]},{"lat":"37.221576682","long":"126.85485484","items":[{"name":"(주)오비탈","tel":"031-356-8720","addr":"경기도 화성시 비봉면 양노리 673-11번지","category":"유통업 영리 - 기타유통업"}]},{"lat":"37.225906104","long":"126.85846332","items":[{"name":"(주)화천MTS","tel":"031-366-8565","addr":"경기도 화성시 비봉면 양노리 687-2번지","category":"기타 - 기계공구"}]},{"lat":"37.236241154","long":"126.86621941","items":[{"name":"GS25비봉스카이점","tel":"","addr":"경기도 화성시 비봉면 양노리 290-4번지 1층 일부","category":"유통업 영리 - 편 의 점"},{"name":"보쌈천하","tel":"031-355-2490","addr":"경기도 화성시 비봉면 양노리 290-4번지 1층","category":"일반휴게음식 - 일반한식"},{"name":"비봉당구클럽","tel":"070-8171-4892","addr":"경기도 화성시 비봉면 양노리 290-4번지 2층","category":"레저업소 - 당 구 장"}]},{"lat":"37.225099522","long":"126.85469021","items":[{"name":"SK네트웍스","tel":"031-357-9893","addr":"경기도 화성시 비봉면 양노리 637-7번지","category":"자동차정비 유지 - 자동차부품"},{"name":"뉴타운충전소","tel":"031-355-2045","addr":"경기도 화성시 비봉면 양노리 637-7번지 840동 637-7호","category":"연료판매점 - SK가스충전소"}]},{"lat":"37.237015355","long":"126.87363327","items":[{"name":"가보자보신탕","tel":"031-355-7201","addr":"경기도 화성시 비봉면 양노리 258번지","category":"일반휴게음식 - 일반한식"}]},{"lat":"37.21791018","long":"126.8706915","items":[{"name":"경은기업","tel":"031-355-6928","addr":"경기도 화성시 비봉면 양노리 757-5번지","category":"자동차정비 유지 - 자동차부품"}]},{"lat":"37.235707451","long":"126.87235081","items":[{"name":"고래밥상","tel":"031-355-6606","addr":"경기도 화성시 비봉면 양노리 264-4","category":"일반휴게음식 - 일반한식"}]},{"lat":"37.236402309","long":"126.87331877","items":[{"name":"고향마을","tel":"031-356-7311","addr":"경기도 화성시 비봉면 양노리 265-6번지","category":"일반휴게음식 - 일반한식"},{"name":"우리사진관","tel":"031-356-0338","addr":"경기도 화성시 비봉면 양노리 265-6번지","category":"광학제품 - 사진관"}]},{"lat":"37.237159336","long":"126.87346398","items":[{"name":"교복문구(GYOBOKMOONGU)","tel":"031-356-9409","addr":"경기도 화성시 비봉면 양노리 261-1번지","category":"의류 - 단체복"}]},{"lat":"37.229346761","long":"126.87290265","items":[{"name":"구름산추어탕 화성점","tel":"031-356-7838","addr":"경기도 화성시 비봉면 양노리 147-3번지","category":"일반휴게음식 - 일반한식"},{"name":"비봉해장국","tel":"031-357-6265","addr":"경기도 화성시 비봉면 양노리 147-3번지 1층","category":"일반휴게음식 - 일반한식"}]},{"lat":"37.235680841","long":"126.86477796","items":[{"name":"그린시티어린이집[아이행복]","tel":"031-355-0959","addr":"경기도 화성시 비봉면 양노리 850번지 천산스카이빌 102동 103호","category":"학원 - 유아원"},{"name":"뷰티네일","tel":"070-8843-5426","addr":"경기도 화성시 비봉면 양노리 850번지 천산스카이빌 102동 1204호","category":"보건위생 - 미용재료"},{"name":"예주중기","tel":"070-5022-4846","addr":"경기도 화성시 비봉면 양노리 850 천산스카이빌 102-504 25/","category":"기타 - 기계공구"}]},{"lat":"37.235573648","long":"126.86557827","items":[{"name":"금강자동차유리","tel":"031-501-9494","addr":"경기도 화성시 비봉면 양노리 301-6번지","category":"자동차정비 유지 - 자동차부품"}]},{"lat":"37.215992565","long":"126.87212566","items":[{"name":"금보종합정비(주)","tel":"031-357-6886","addr":"경기도 화성시 비봉면 양노리 761-2번지","category":"기타 - 기계공구"},{"name":"동원식당","tel":"031-357-4739","addr":"경기도 화성시 비봉면 양노리 761-2번지","category":"일반휴게음식 - 일반한식"}]},{"lat":"37.22538062","long":"126.87985034","items":[{"name":"금성양봉","tel":"031-8058-7979","addr":"경기도 화성시 비봉면 양노리 16","category":"음료식품 - 농·축·수산품"}]},{"lat":"37.224042616","long":"126.85255146","items":[{"name":"길갈식당","tel":"031-355-0124","addr":"경기도 화성시 비봉면 양노리 639-4번지 1층","category":"일반휴게음식 - 위탁급식업"}]},{"lat":"37.23552003","long":"126.86596152","items":[{"name":"김가네칼국수","tel":"031-356-8287","addr":"경기도 화성시 비봉면 양노리 302-2번지","category":"일반휴게음식 - 일반한식"},{"name":"비봉카페 (B-bon CAFE)","tel":"","addr":"경기도 화성시 비봉면 양노리 302-2번지 파크빌 103호","category":"일반휴게음식 - 서양음식"},{"name":"성호왕갈비탕","tel":"031-356-7076","addr":"경기도 화성시 비봉면 양노리 302-2번지","category":"일반휴게음식 - 일반한식"},{"name":"유림상사","tel":"031-8059-4853","addr":"경기도 화성시 비봉면 양노리 302-2번지 파크빌 103호","category":"건축자재 - 페인트"}]},{"lat":"37.235763438","long":"126.86607377","items":[{"name":"꽃내음어린이집[아이행복]","tel":"031-369-7959","addr":"경기도 화성시 비봉면 양노리 301-4번지","category":"학원 - 유아원"}]},{"lat":"37.234992913","long":"126.86210844","items":[{"name":"나무와 나무","tel":"031-355-4971","addr":"경기도 화성시 비봉면 양노리 492-1번지","category":"농업 - 비료,사료,종자"}]},{"lat":"37.236988742","long":"126.87401647","items":[{"name":"나비캣 회성점","tel":"","addr":"경기도 화성시 비봉면 양노리 256-2번지 2층","category":"문화.취미 - 애완동물"},{"name":"매화약국","tel":"031-356-7511","addr":"경기도 화성시 비봉면 양노리 256-2","category":"약국 - 약국"}]},{"lat":"37.219490364","long":"126.85816008","items":[{"name":"나스목공기계","tel":"031-355-9648","addr":"경기도 화성시 비봉면 양노리 713-1번지","category":"기타 - 기계공구"}]},{"lat":"37.226319932","long":"126.85793294","items":[{"name":"남원추어탕,종로해장국","tel":"031-355-5624","addr":"경기도 화성시 비봉면 양노리 631-5번지 외1필지","category":"일반휴게음식 - 일반한식"}]},{"lat":"37.234822932","long":"126.86313424","items":[{"name":"다람쥐할머니","tel":"031-356-7636","addr":"경기도 화성시 비봉면 양노리 471-4번지","category":"일반휴게음식 - 일반한식"},{"name":"밥먹고합시다","tel":"031-366-7848","addr":"경기도 화성시 비봉면 양노리 471-4번지","category":"일반휴게음식 - 일반한식"},{"name":"우녕플라워","tel":"031-355-3693","addr":"경기도 화성시 비봉면 양노리 471-4번지","category":"문화.취미 - 화원"}]},{"lat":"37.236465271","long":"126.87321724","items":[{"name":"다모아","tel":"031-356-0062","addr":"경기도 화성시 비봉면 양노리 265-7번지","category":"일반휴게음식 - 일반한식"},{"name":"샬롬헤어","tel":"031-366-8512","addr":"경기도 화성시 비봉면 양노리 265-7번지","category":"보건위생 - 미용원"},{"name":"인테리어","tel":"031-356-4155","addr":"경기도 화성시 비봉면 양노리 265-7번지","category":"건축자재 - 인테리어전문"},{"name":"황소곱창","tel":"031-356-3930","addr":"경기도 화성시 비봉면 양노리 265-7번지","category":"일반휴게음식 - 일반한식"}]},{"lat":"37.23698814","long":"126.87346427","items":[{"name":"달콤한닭강정비봉점","tel":"031-355-4775","addr":"경기도 화성시 비봉면 양노리 261-3번지","category":"일반휴게음식 - 스넥"}]},{"lat":"37.23540193","long":"126.87310637","items":[{"name":"대우오토바이","tel":"031-355-5530","addr":"경기도 화성시 비봉면 양노리 270-3","category":"수리서비스 - 레져용품수리"}]},{"lat":"37.222766425","long":"126.85515673","items":[{"name":"대일용접","tel":"031-355-3246","addr":"경기도 화성시 비봉면 양노리 672-10번지","category":"기타 - 기계공구"},{"name":"동원테크","tel":"031-355-3246","addr":"경기도 화성시 비봉면 양노리 672-10","category":"기타 - 기계공구"}]},{"lat":"37.236962311","long":"126.87456872","items":[{"name":"대풍기업주식회사","tel":"031-355-9500","addr":"경기도 화성시 비봉면 양노리 255-2번지","category":"사무통신 - 기타 사무용품"}]},{"lat":"37.219292068","long":"126.85810413","items":[{"name":"대흥목공기계","tel":"031-355-9648","addr":"경기도 화성시 비봉면 양노리 713-2","category":"기타 - 기계공구"}]},{"lat":"37.23642917","long":"126.86518229","items":[{"name":"도토리","tel":"031-356-0450","addr":"경기도 화성시 비봉면 양노리 291-1번지 1층","category":"일반휴게음식 - 스넥"}]},{"lat":"37.224402625","long":"126.85949153","items":[{"name":"동해식당","tel":"031-356-0998","addr":"경기도 화성시 비봉면 양노리 749-1","category":"일반휴게음식 - 일반한식"}]},{"lat":"37.22201649","long":"126.86082557","items":[{"name":"드림솔루션","tel":"070-8031-4038","addr":"경기도 화성시 비봉면 양노리 721-1번지","category":"기타 - 기계공구"}]},{"lat":"37.235543352","long":"126.87062691","items":[{"name":"롯데리아 비봉점","tel":"031-111-1111","addr":"경기도 화성시 비봉면 양노리 281-2번지 201동 1층 103호","category":"일반휴게음식 - 서양음식"},{"name":"비비큐(BBQ)비봉점","tel":"031-1588-9282","addr":"경기도 화성시 비봉면 양노리 281-2번지 스타캐슬 201동 102호","category":"일반휴게음식 - 스넥"}]},{"lat":"37.235151633","long":"126.86685244","items":[{"name":"루돌프갤러리","tel":"031-419-4959","addr":"경기도 화성시 비봉면 양노리 307-8번지","category":"가구 - 일반가구"}]},{"lat":"37.224737879","long":"126.85371064","items":[{"name":"리더낚시(남양점)","tel":"031-366-2759","addr":"경기도 화성시 비봉면 양노리 637-8","category":"레져용품 - 스포츠·레져용품"}]},{"lat":"37.236681937","long":"126.87360003","items":[{"name":"맵씨 옷수선","tel":"031-406-8989","addr":"경기도 화성시 비봉면 양노리 254-5번지","category":"수리서비스 - 세탁소"},{"name":"비봉분식","tel":"031-663-0447","addr":"경기도 화성시 비봉면 양노리 254-5번지","category":"일반휴게음식 - 스넥"},{"name":"이삭토스트","tel":"031-357-4150","addr":"경기도 화성시 비봉면 양노리 254-5","category":"일반휴게음식 - 스넥"}]},{"lat":"37.221766096","long":"126.86241471","items":[{"name":"명가한식뷔페","tel":"031-356-9520","addr":"경기도 화성시 비봉면 양노리 723-1번지 1층","category":"일반휴게음식 - 일반한식"}]},{"lat":"37.234976943","long":"126.87174354","items":[{"name":"명성한우촌","tel":"031-366-9252","addr":"경기도 화성시 비봉면 양노리 278번지 가동","category":"일반휴게음식 - 일반한식"}]},{"lat":"37.234986032","long":"126.86391151","items":[{"name":"모녀농원","tel":"031-355-2954","addr":"경기도 화성시 비봉면 양노리 295-2","category":"문화.취미 - 화원"}]},{"lat":"37.222932449","long":"126.85826618","items":[{"name":"문박사","tel":"031-357-8756","addr":"경기도 화성시 비봉면 양노리 701-15번지 1동","category":"건축자재 - 기타건축자재"},{"name":"삼백짬뽕","tel":"031-355-8226","addr":"경기도 화성시 비봉면 양노리 701-15번지","category":"일반휴게음식 - 중국식"},{"name":"풍년한식뷔페","tel":"031-357-0152","addr":"경기도 화성시 비봉면 양노리 701-15번지","category":"일반휴게음식 - 일반한식"}]},{"lat":"37.226048876","long":"126.857325","items":[{"name":"배터리 총판","tel":"031-356-4422","addr":"경기도 화성시 비봉면 양노리 633-4번지","category":"자동차정비 유지 - 자동차부품"}]},{"lat":"37.222655555","long":"126.8529711","items":[{"name":"베스트로","tel":"031-000-0000","addr":"경기도 화성시 비봉면 양노리 656-3번지","category":"건축자재 - 기타건축자재"}]},{"lat":"37.225796628","long":"126.85735929","items":[{"name":"본가갈비탕","tel":"031-356-9266","addr":"경기도 화성시 비봉면 양노리 684번지","category":"일반휴게음식 - 일반한식"}]},{"lat":"37.235208758","long":"126.86954566","items":[{"name":"부라보맥주&바른국밥","tel":"031-355-3848","addr":"경기도 화성시 비봉면 양노리 284-1번지 103,104호","category":"일반휴게음식 - 일반한식"},{"name":"신한주치과","tel":"031-356-6575","addr":"경기도 화성시 비봉면 양노리 284-1번지 204,205호","category":"의원 - 치과의원"},{"name":"한마음의원","tel":"031-355-3582","addr":"경기도 화성시 비봉면 양노리 284-1번지 2층","category":"의원 - 의원"},{"name":"홍삼약초건강원","tel":"070-7420-1345","addr":"경기도 화성시 비봉면 양노리 284-1번지 102호","category":"건강식품 - 기타건강식품"}]},{"lat":"37.237573835","long":"126.87348581","items":[{"name":"비봉고매점","tel":"02-1111-1111","addr":"경기도 화성시 비봉면 양노리 259-3번지","category":"음료식품 - 기타음료식품"}]},{"lat":"37.228823305","long":"126.85671119","items":[{"name":"비봉농원","tel":"031-357-7173","addr":"경기도 화성시 비봉면 양노리 602-1번지","category":"음료식품 - 농·축·수산품"}]},{"lat":"37.22898642","long":"126.85746584","items":[{"name":"비봉손칼국수","tel":"031-356-0722","addr":"경기도 화성시 비봉면 양노리 563번지","category":"일반휴게음식 - 일반한식"}]},{"lat":"37.23601457","long":"126.87304898","items":[{"name":"비봉정육식당","tel":"031-356-0034","addr":"경기도 화성시 비봉면 양노리 266-7번지","category":"일반휴게음식 - 일반한식"}]},{"lat":"37.23673542","long":"126.87307028","items":[{"name":"비봉정육점","tel":"031-356-0034","addr":"경기도 화성시 비봉면 양노리 262번지","category":"음료식품 - 정육점"}]},{"lat":"37.2367988","long":"126.8733519","items":[{"name":"비봉지업사","tel":"031-355-8268","addr":"경기도 화성시 비봉면 양노리 261-8번지","category":"직물 - 카페트,커튼,천막,지물"}]},{"lat":"37.236492634","long":"126.87352147","items":[{"name":"비봉할인마트정육점","tel":"031-356-5633","addr":"경기도 화성시 비봉면 양노리 254-6","category":"유통업 영리 - 슈퍼마켓"}]},{"lat":"37.235210749","long":"126.87132618","items":[{"name":"비봉현대카센타","tel":"031-366-8253","addr":"경기도 화성시 비봉면 양노리 277-1번지","category":"자동차정비 유지 - 자동차정비"},{"name":"초대밥상","tel":"031-356-2345","addr":"경기도 화성시 비봉면 양노리 277-1번지 1층","category":"일반휴게음식 - 일반한식"}]},{"lat":"37.221827611","long":"126.8611076","items":[{"name":"산들계절밥상","tel":"","addr":"경기도 화성시 비봉면 양노리 721-2번지 1층","category":"일반휴게음식 - 일반한식"},{"name":"아이지에이마트 양노공단점","tel":"","addr":"경기도 화성시 비봉면 양노리 721-2번지","category":"유통업 영리 - 편 의 점"}]},{"lat":"37.236104063","long":"126.8645518","items":[{"name":"삼화종합공사","tel":"031-000-0000","addr":"경기도 화성시 비봉면 양노리 291-5번지","category":"용역 서비스 - 기타용역서비스"}]},{"lat":"37.229687622","long":"126.86362826","items":[{"name":"서영이네 두루치기","tel":"031-356-2656","addr":"경기도 화성시 비봉면 양노리 448-2번지 2층","category":"일반휴게음식 - 일반한식"}]},{"lat":"37.225799944","long":"126.85279586","items":[{"name":"선진기획","tel":"031-356-8789","addr":"경기도 화성시 비봉면 양노리 642-5","category":"유통업 영리 - 기타유통업"},{"name":"장수촌","tel":"031-356-8787","addr":"경기도 화성시 비봉면 양노리 642-5번지","category":"일반휴게음식 - 일반한식"},{"name":"한빛코리아","tel":"031-356-9957","addr":"경기도 화성시 비봉면 양노리 642-5번지","category":"주방용구 - 정수기"}]},{"lat":"37.222824668","long":"126.85854807","items":[{"name":"세븐일레븐화성비봉점","tel":"","addr":"경기도 화성시 비봉면 양노리 701-15번지 C동 101호","category":"유통업 영리 - 편 의 점"}]},{"lat":"37.220403556","long":"126.8534375","items":[{"name":"세용산업","tel":"031-355-9771","addr":"경기도 화성시 비봉면 양노리 668-16번지 ***연번지,17","category":"기타 - 기계공구"}]},{"lat":"37.220459218","long":"126.85471055","items":[{"name":"소담","tel":"","addr":"경기도 화성시 비봉면 양노리 669-3번지","category":"음료식품 - 기타음료식품"}]},{"lat":"37.236519209","long":"126.87310446","items":[{"name":"수원포차","tel":"031-355-8571","addr":"경기도 화성시 비봉면 양노리 264-2번지","category":"일반휴게음식 - 일반한식"}]},{"lat":"37.235124317","long":"126.86660457","items":[{"name":"스카이마트","tel":"031-357-0622","addr":"경기도 화성시 비봉면 양노리 307-2","category":"유통업 영리 - 슈퍼마켓"}]},{"lat":"37.234795961","long":"126.87104517","items":[{"name":"시골포차","tel":"031-356-7154","addr":"경기도 화성시 비봉면 양노리 279번지","category":"일반휴게음식 - 주점"},{"name":"중화루","tel":"031-351-0066","addr":"경기도 화성시 비봉면 양노리 279번지","category":"일반휴게음식 - 중국식"}]},{"lat":"37.237151356","long":"126.87441063","items":[{"name":"신당동식당","tel":"031-356-5677","addr":"경기도 화성시 비봉면 양노리 256-6번지 진보상가빌라","category":"일반휴게음식 - 일반한식"},{"name":"카앤피플 화성6호점","tel":"","addr":"경기도 화성시 비봉면 양노리 256-6번지 진보상가빌라 403호","category":"자동차정비 유지 - 세차장"},{"name":"카앤피플 화성6호지점","tel":"","addr":"경기도 화성시 비봉면 양노리 256-6번지 진보상가빌라 403호","category":"자동차정비 유지 - 세차장"}]},{"lat":"37.2364021","long":"126.8731272","items":[{"name":"썬화장품","tel":"031-355-0825","addr":"경기도 화성시 비봉면 양노리 265-8번지","category":"보건위생 - 화장품"}]},{"lat":"37.235326424","long":"126.87001876","items":[{"name":"씨유화성비봉점","tel":"080-080-3663","addr":"경기도 화성시 비봉면 양노리 280-39번지","category":"유통업 영리 - 편 의 점"},{"name":"우리특수레카","tel":"031-356-0473","addr":"경기도 화성시 비봉면 양노리 280-39번지","category":"자동차정비 유지 - 견인서비스"},{"name":"주식회사 제이엔로드","tel":"031-357-2522","addr":"경기도 화성시 비봉면 양노리 280-39번지 204호","category":"건축자재 - 기타건축자재"}]},{"lat":"37.22449188","long":"126.85879277","items":[{"name":"아름기획","tel":"031-355-6844","addr":"경기도 화성시 비봉면 양노리 694번지 201호","category":"기타 - 기타 전문점"},{"name":"양노리식당","tel":"031-356-0365","addr":"경기도 화성시 비봉면 양노리 694번지","category":"일반휴게음식 - 일반한식"}]},{"lat":"37.229211668","long":"126.87295923","items":[{"name":"아이지에이마트 화성비봉점","tel":"031-355-3088","addr":"경기도 화성시 비봉면 양노리 147-2번지","category":"유통업 영리 - 편 의 점"}]},{"lat":"37.224048985","long":"126.8576556","items":[{"name":"알레 (ALLE)","tel":"","addr":"경기도 화성시 비봉면 양노리 700-1번지","category":"신변잡화 - 기타잡화"}]},{"lat":"37.222716576","long":"126.85135976","items":[{"name":"알천지동태탕","tel":"031-357-2519","addr":"경기도 화성시 비봉면 양노리 645-2번지","category":"일반휴게음식 - 일반한식"}]},{"lat":"37.220351326","long":"126.86229339","items":[{"name":"알파도어아카데미","tel":"031-356-4618","addr":"경기도 화성시 비봉면 양노리 723-7번지","category":"건축자재 - 기타건축자재"},{"name":"이노핸즈","tel":"031-480-6636","addr":"경기도 화성시 비봉면 양노리 723-7번지","category":"건축자재 - 기타건축자재"}]},{"lat":"37.234299146","long":"126.86213227","items":[{"name":"애경SUPER","tel":"031-212-5467","addr":"경기도 화성시 비봉면 양노리 489-1","category":"음료식품 - 농·축·수산품"}]},{"lat":"37.217354846","long":"126.85810783","items":[{"name":"애짓다1","tel":"02-451-6300","addr":"경기도 화성시 비봉면 양노리 708-32번지 1층","category":"기타 - 기계공구"},{"name":"윤종합상사","tel":"031-355-9839","addr":"경기도 화성시 비봉면 양노리 708-32번지","category":"건축자재 - 목재·석재·철물"}]},{"lat":"37.226211504","long":"126.85768526","items":[{"name":"양노리순대국","tel":"031-355-6182","addr":"경기도 화성시 비봉면 양노리 632-5번지","category":"일반휴게음식 - 일반한식"}]},{"lat":"37.229769046","long":"126.86390982","items":[{"name":"언덕위우리집","tel":"031-356-2656","addr":"경기도 화성시 비봉면 양노리 448-1","category":"일반휴게음식 - 일반한식"}]},{"lat":"37.228878697","long":"126.85779283","items":[{"name":"엄마부대","tel":"031-357-7179","addr":"경기도 화성시 비봉면 양노리 561번지","category":"일반휴게음식 - 일반한식"}]},{"lat":"37.220739011","long":"126.86249548","items":[{"name":"에너지원플러스","tel":"070-7628-0827","addr":"경기도 화성시 비봉면 양노리 723-18번지 D동","category":"자동차정비 유지 - 윤활유 전문 판매"}]},{"lat":"37.222381835","long":"126.85030131","items":[{"name":"에스씨(SC)중공업","tel":"031-356-9639","addr":"경기도 화성시 비봉면 양노리 646-9번지","category":"자동차정비 유지 - 중장비수리"}]},{"lat":"37.218852043","long":"126.85932177","items":[{"name":"엠제이테크(MJ테크)","tel":"031-357-4730","addr":"경기도 화성시 비봉면 양노리 711-1호 1층","category":"기타 - 기계공구"}]},{"lat":"37.219963494","long":"126.86196737","items":[{"name":"예안산업","tel":"070-7768-4122","addr":"경기도 화성시 비봉면 양노리 723-19번지 (2)","category":"직물 - 기타직물"}]},{"lat":"37.216099843","long":"126.85602597","items":[{"name":"와이 (Y)특장","tel":"031-357-4487","addr":"경기도 화성시 비봉면 양노리 707-5번지","category":"자동차정비 유지 - 자동차정비"}]},{"lat":"37.235264661","long":"126.87119086","items":[{"name":"요거프레소 비봉스타캐슬점","tel":"","addr":"경기도 화성시 비봉면 양노리 280-41번지 스타캐슬 101동 1층 101호","category":"일반휴게음식 - 서양음식"}]},{"lat":"37.236600721","long":"126.87348748","items":[{"name":"우리스넥","tel":"031-355-5461","addr":"경기도 화성시 비봉면 양노리 254-11","category":"일반휴게음식 - 스넥"},{"name":"차수학학원","tel":"031-355-1591","addr":"경기도 화성시 비봉면 양노리 254-11번지 2층","category":"학원 - 보습학원"}]},{"lat":"37.223352797","long":"126.85571895","items":[{"name":"우리집","tel":"03-356-5834","addr":"경기도 화성시 비봉면 양노리 674-1번지","category":"일반휴게음식 - 일반한식"}]},{"lat":"37.222154284","long":"126.85560861","items":[{"name":"원조전주식당","tel":"","addr":"경기도 화성시 비봉면 양노리 673-4번지","category":"일반휴게음식 - 위탁급식업"}]},{"lat":"37.216820481","long":"126.87118912","items":[{"name":"월드모터스","tel":"031-357-6886","addr":"경기도 화성시 비봉면 양노리 760번지 1층","category":"자동차정비 유지 - 자동차정비"},{"name":"현정상사","tel":"","addr":"경기도 화성시 비봉면 양노리 760번지","category":"자동차정비 유지 - 자동차부품"}]},{"lat":"37.221021983","long":"126.85804449","items":[{"name":"이마트24 양노공단점","tel":"031-000-0000","addr":"경기도 화성시 비봉면 양노리 673-50번지 1층104호,105호","category":"유통업 영리 - 편 의 점"},{"name":"행복한밥상","tel":"031-356-3674","addr":"경기도 화성시 비봉면 양노리 673-50번지 1층 일부","category":"일반휴게음식 - 일반한식"}]},{"lat":"37.216658722","long":"126.85621641","items":[{"name":"자연을담은밥상","tel":"","addr":"경기도 화성시 비봉면 양노리 708-13번지 2층","category":"일반휴게음식 - 일반한식"}]},{"lat":"37.229544589","long":"126.85708165","items":[{"name":"전원쌈밥","tel":"031-356-5740","addr":"경기도 화성시 비봉면 양노리 568-2번지","category":"일반휴게음식 - 일반한식"}]},{"lat":"37.236213511","long":"126.8656898","items":[{"name":"제이와이(JY)비봉카닥터","tel":"031-355-8753","addr":"경기도 화성시 비봉면 양노리 810-2번지 1층 101호","category":"자동차정비 유지 - 자동차정비"}]},{"lat":"37.219517342","long":"126.86568624","items":[{"name":"제일자동덮개","tel":"031-355-4428","addr":"경기도 화성시 비봉면 양노리 736-10번지","category":"기타 - 기타 전문점"}]},{"lat":"37.224379554","long":"126.85537893","items":[{"name":"주식회사 더라이크스킨","tel":"02-6053-7676","addr":"경기도 화성시 비봉면 양노리 677-1번지 가동 1층 정우사","category":"보건위생 - 화장품"}]},{"lat":"37.221154445","long":"126.85585843","items":[{"name":"주식회사 엠에스글로벌","tel":"031-416-8927","addr":"경기도 화성시 비봉면 양노리 673-46번지 201호","category":"음료식품 - 기타음료식품"}]},{"lat":"37.235713956","long":"126.87009696","items":[{"name":"주식회사 초이스빈","tel":"031-355-6047","addr":"경기도 화성시 비봉면 양노리 282번지 상민빌딩","category":"음료식품 - 기타음료식품"}]},{"lat":"37.21154929","long":"126.87107436","items":[{"name":"주식회사 테라이엔지","tel":"031-357-6432","addr":"경기도 화성시 비봉면 양노리 789-1번지 2동","category":"기타 - 기계공구"}]},{"lat":"37.224767796","long":"126.85602043","items":[{"name":"주식회사비봉대형공업사","tel":"031-355-3451","addr":"경기도 화성시 비봉면 양노리 679","category":"자동차정비 유지 - 자동차정비"}]},{"lat":"37.222934303","long":"126.85251986","items":[{"name":"중기짱","tel":"0502-088-8888","addr":"경기도 화성시 비봉면 양노리 656","category":"자동차정비 유지 - 자동차부품"}]},{"lat":"37.217684486","long":"126.85507651","items":[{"name":"지이엔지니어링(G. E. Engineering)","tel":"031-475-5460","addr":"경기도 화성시 비봉면 양노리 668-28번지","category":"기타 - 기계공구"}]},{"lat":"37.215659936","long":"126.85732243","items":[{"name":"진명상사","tel":"02-983-5577","addr":"경기도 화성시 비봉면 양노리 707-18번지 101호","category":"기타 - 기계공구"}]},{"lat":"37.235763595","long":"126.866209","items":[{"name":"청송철물건재","tel":"031-357-5481","addr":"경기도 화성시 비봉면 양노리 307-15번지 1층","category":"기타 - 기계공구"}]},{"lat":"37.236825979","long":"126.87348709","items":[{"name":"테이스티하우스","tel":"031-356-7280","addr":"경기도 화성시 비봉면 양노리 261-6","category":"일반휴게음식 - 스넥"}]},{"lat":"37.220408563","long":"126.85745978","items":[{"name":"펌프존","tel":"031-416-3128","addr":"경기도 화성시 비봉면 양노리 673-48번지","category":"기타 - 기계공구"}]},{"lat":"37.227932846","long":"126.86554705","items":[{"name":"평생농장","tel":"070-7725-0406","addr":"경기도 화성시 비봉면 양노리 422","category":"음료식품 - 농·축·수산품"}]},{"lat":"37.235458022","long":"126.8668857","items":[{"name":"푸른부동산 중개","tel":"031-356-8084","addr":"경기도 화성시 비봉면 양노리 307-9번지 1층 103호","category":"용역 서비스 - 부동산 중개·임대"}]},{"lat":"37.235520316","long":"126.86620944","items":[{"name":"프로스펙스","tel":"061-842-1993","addr":"경기도 화성시 비봉면 양노리 307-3번지","category":"레져용품 - 스포츠·레져용품"}]},{"lat":"37.230546205","long":"126.87388095","items":[{"name":"플러스오일","tel":"031-356-3447","addr":"경기도 화성시 비봉면 양노리 155-15번지","category":"자동차정비 유지 - 윤활유 전문 판매"}]},{"lat":"37.231987918","long":"126.87393484","items":[{"name":"한길테크","tel":"031-356-6814","addr":"경기도 화성시 비봉면 양노리 172-1번지","category":"건축자재 - 기타건축자재"}]},{"lat":"37.220521476","long":"126.86141426","items":[{"name":"한흥산업","tel":"031-356-6053","addr":"경기도 화성시 비봉면 양노리 722-16번지","category":"건축자재 - 기타건축자재"}]},{"lat":"37.236294346","long":"126.87346546","items":[{"name":"해피홈","tel":"031-356-6999","addr":"경기도 화성시 비봉면 양노리 265-1번지","category":"일반휴게음식 - 스넥"}]},{"lat":"37.219994798","long":"126.86560651","items":[{"name":"혜인몰드","tel":"070-4109-6868","addr":"경기도 화성시 비봉면 양노리 736번지","category":"기타 - 기계공구"},{"name":"혜인솔루션","tel":"031-352-2011","addr":"경기도 화성시 비봉면 양노리 736번지","category":"기타 - 기계공구"}]},{"lat":"37.224632404","long":"126.85582914","items":[{"name":"화성모터스","tel":"031-223-5214","addr":"경기도 화성시 비봉면 양노리 678번지","category":"자동차정비 유지 - 자동차정비"},{"name":"화성모터스","tel":"031-356-3388","addr":"경기도 화성시 비봉면 양노리 678","category":"자동차정비 유지 - 자동차정비"}]},{"lat":"37.235568267","long":"126.86874492","items":[{"name":"화성시니어클럽 노노카페(서화성농협점)","tel":"031-8059-4349","addr":"경기도 화성시 비봉면 양노리 286번지","category":"일반휴게음식 - 서양음식"}]},{"lat":"37.225770205","long":"126.85785512","items":[{"name":"화성트럭","tel":"031-8077-2220","addr":"경기도 화성시 비봉면 양노리 686번지","category":"자동차판매 - 중고자동차판매"}]},{"lat":"37.222320898","long":"126.85921379","items":[{"name":"화성한식뷔페","tel":"031-352-1673","addr":"경기도 화성시 비봉면 양노리 714-42번지","category":"일반휴게음식 - 일반한식"}]},{"lat":"37.225327398","long":"126.85679681","items":[{"name":"화천기계","tel":"031-366-8320","addr":"경기도 화성시 비봉면 양노리 683","category":"기타 - 기계공구"}]}]