[{"lat":"37.573289795","long":"127.20283607","imageIndex":4,"items":[{"name":"(주)올킹 자작나무갈비 하남 미사점","tel":"031-795-7677","addr":"경기도 하남시 미사동 377-9번지","indutype":"일반휴게음식 - 일반한식","category":"restaurant"}]},{"lat":"37.57561968","long":"127.20498182","imageIndex":4,"items":[{"name":"(주)트루낭","tel":"","addr":"경기도 하남시 미사동 395-5번지","indutype":"일반휴게음식 - 서양음식","category":"restaurant"}]},{"lat":"37.571372817","long":"127.20158579","imageIndex":4,"items":[{"name":"강변칼국수","tel":"031-794-2255","addr":"경기도 하남시 미사동 305-4번지 106호","indutype":"일반휴게음식 - 일반한식","category":"restaurant"},{"name":"성안식당","tel":"031-796-3489","addr":"경기도 하남시 미사동 305-4번지 1층 5호","indutype":"일반휴게음식 - 일반한식","category":"restaurant"}]},{"lat":"37.575593522","long":"127.20447234","imageIndex":4,"items":[{"name":"강변칼국수","tel":"031-753-6455","addr":"경기도 하남시 미사동 394-3번지","indutype":"일반휴게음식 - 일반한식","category":"restaurant"}]},{"lat":"37.569146163","long":"127.20231563","imageIndex":4,"items":[{"name":"고부레","tel":"031-792-4765","addr":"경기도 하남시 미사동 455-1번지","indutype":"일반휴게음식 - 서양음식","category":"restaurant"}]},{"lat":"37.571094769","long":"127.20083797","imageIndex":4,"items":[{"name":"늘풀향기","tel":"031-795-8890","addr":"경기도 하남시 미사동 312번지 1층","indutype":"일반휴게음식 - 일반한식","category":"restaurant"}]},{"lat":"37.575430204","long":"127.20513979","imageIndex":4,"items":[{"name":"리버","tel":"031-791-2991","addr":"경기도 하남시 미사동 395-3번지","indutype":"일반휴게음식 - 서양음식","category":"restaurant"}]},{"lat":"37.570895851","long":"127.20125626","imageIndex":4,"items":[{"name":"만지스커피(MANJI'S COFFEE)","tel":"031-791-9522","addr":"경기도 하남시 미사동 304-11번지 1층","indutype":"일반휴게음식 - 서양음식","category":"restaurant"}]},{"lat":"37.576035888","long":"127.2039528","imageIndex":4,"items":[{"name":"미사강변곤드레밥집","tel":"031-791-2080","addr":"경기도 하남시 미사동 538-9번지 1층","indutype":"일반휴게음식 - 일반한식","category":"restaurant"}]},{"lat":"37.570038245","long":"127.20225009","imageIndex":4,"items":[{"name":"미사동로40번길","tel":"031-794-1928","addr":"경기도 하남시 미사동 438-2번지 2,3층","indutype":"일반휴게음식 - 일반한식","category":"restaurant"}]},{"lat":"37.570842362","long":"127.20091653","imageIndex":4,"items":[{"name":"미사리감자탕","tel":"031-791-1337","addr":"경기도 하남시 미사동 302-5번지 2층","indutype":"일반휴게음식 - 일반한식","category":"restaurant"},{"name":"블랙빈","tel":"031-795-4378","addr":"경기도 하남시 미사동 302-5번지","indutype":"일반휴게음식 - 서양음식","category":"restaurant"}]},{"lat":"37.574289456","long":"127.20308778","imageIndex":4,"items":[{"name":"미사리강변대게","tel":"031-794-2984","addr":"경기도 하남시 미사동 386-1번지 1층","indutype":"일반휴게음식 - 일반한식","category":"restaurant"}]},{"lat":"37.570066305","long":"127.20163892","imageIndex":4,"items":[{"name":"미사리바다해장국","tel":"031-791-8878","addr":"경기도 하남시 미사동 291-5번지","indutype":"일반휴게음식 - 일반한식","category":"restaurant"}]},{"lat":"37.561121631","long":"127.21089593","imageIndex":4,"items":[{"name":"미사리풀하우스","tel":"031-792-1177","addr":"경기도 하남시 미사동 27-3번지","indutype":"일반휴게음식 - 일반한식","category":"restaurant"}]},{"lat":"37.572011709","long":"127.20206292","imageIndex":4,"items":[{"name":"미사본갈비","tel":"031-791-1513","addr":"경기도 하남시 미사동 433-5번지","indutype":"일반휴게음식 - 일반한식","category":"restaurant"}]},{"lat":"37.569064712","long":"127.20253048","imageIndex":4,"items":[{"name":"샘골 민물매운탕","tel":"031-796-8857","addr":"경기도 하남시 미사동 455-2번지","indutype":"일반휴게음식 - 일반한식","category":"restaurant"}]},{"lat":"37.573595992","long":"127.20291613","imageIndex":4,"items":[{"name":"샤뜰레","tel":"031-791-0772","addr":"경기도 하남시 미사동 380-6번지","indutype":"일반휴게음식 - 서양음식","category":"restaurant"},{"name":"청솔향기","tel":"031-796-8857","addr":"경기도 하남시 미사동 380-6번지 1층,2층","indutype":"일반휴게음식 - 일반한식","category":"restaurant"},{"name":"청솔향기","tel":"031-792-8857","addr":"경기도 하남시 미사동 380-6번지","indutype":"일반휴게음식 - 일반한식","category":"restaurant"}]},{"lat":"37.569568416","long":"127.20302987","imageIndex":4,"items":[{"name":"스튜디오카페 스카","tel":"031-795-4324","addr":"경기도 하남시 미사동 451-3번지 1층","indutype":"일반휴게음식 - 서양음식","category":"restaurant"}]},{"lat":"37.571482701","long":"127.20053336","imageIndex":4,"items":[{"name":"시드니","tel":"031-7917-6523","addr":"경기도 하남시 미사동 314번지","indutype":"일반휴게음식 - 서양음식","category":"restaurant"}]},{"lat":"37.572624335","long":"127.20208719","imageIndex":4,"items":[{"name":"신명수산","tel":"031-791-6875","addr":"경기도 하남시 미사동 355-7번지","indutype":"일반휴게음식 - 일식·회집","category":"restaurant"}]},{"lat":"37.571706825","long":"127.20120181","imageIndex":4,"items":[{"name":"야미가미사점","tel":"031-795-1414","addr":"경기도 하남시 미사동 308-5번지 1층","indutype":"일반휴게음식 - 일반한식","category":"restaurant"},{"name":"호남식당","tel":"031-795-4696","addr":"경기도 하남시 미사동 308-5번지 1층","indutype":"일반휴게음식 - 일반한식","category":"restaurant"}]},{"lat":"37.570291873","long":"127.20144709","imageIndex":4,"items":[{"name":"이화정","tel":"031-791-5676","addr":"경기도 하남시 미사동 291-7번지","indutype":"일반휴게음식 - 일반한식","category":"restaurant"}]},{"lat":"37.562343825","long":"127.20753782","imageIndex":4,"items":[{"name":"주식회사 소진담컬쳐","tel":"031-791-4959","addr":"경기도 하남시 미사동 140-4번지 1층","indutype":"일반휴게음식 - 서양음식","category":"restaurant"}]},{"lat":"37.57158966","long":"127.20122414","imageIndex":4,"items":[{"name":"털보네바베큐","tel":"031-791-1025","addr":"경기도 하남시 미사동 309번지 1층","indutype":"일반휴게음식 - 일반한식","category":"restaurant"}]},{"lat":"37.568035467","long":"127.20378414","imageIndex":4,"items":[{"name":"한가람","tel":"031-791-9959","addr":"경기도 하남시 미사동 252번지","indutype":"일반휴게음식 - 일반한식","category":"restaurant"}]},{"lat":"37.570957891","long":"127.20186768","imageIndex":4,"items":[{"name":"한채당","tel":"031-792-8868","addr":"경기도 하남시 미사동 297번지 ,1-2층","indutype":"일반휴게음식 - 일반한식","category":"restaurant"},{"name":"한채당 정원까페","tel":"031-792-8862","addr":"경기도 하남시 미사동 297-1번지 1층","indutype":"일반휴게음식 - 일반한식","category":"restaurant"}]},{"lat":"37.573344562","long":"127.20241738","imageIndex":4,"items":[{"name":"현대횟집","tel":"031-796-2918","addr":"경기도 하남시 미사동 370-1번지 1층","indutype":"일반휴게음식 - 일식·회집","category":"restaurant"}]},{"lat":"37.568648708","long":"127.20344622","imageIndex":4,"items":[{"name":"혜성가든","tel":"031-792-1260","addr":"경기도 하남시 미사동 251-3번지","indutype":"일반휴게음식 - 일반한식","category":"restaurant"},{"name":"혜성식당","tel":"031-792-1260","addr":"경기도 하남시 미사동 251-3 1층","indutype":"일반휴게음식 - 일반한식","category":"restaurant"}]},{"lat":"37.565897191","long":"127.20551017","imageIndex":4,"items":[{"name":"화수목해물요리전문점","tel":"031-796-0027","addr":"경기도 하남시 미사동 205-2번지","indutype":"일반휴게음식 - 일반한식","category":"restaurant"}]},{"lat":"37.568539127","long":"127.20430618","imageIndex":4,"items":[{"name":"후식(whoseek)","tel":"","addr":"경기도 하남시 미사동 468번지 가동 1층","indutype":"일반휴게음식 - 서양음식","category":"restaurant"}]}]