[{"lat":"37.3502870129","long":"126.9735375672","items":[{"name":"(리앙빈)LIANBEAN","tel":"","addr":"경기도 의왕시 오전동 892번지 서해그랑블 1층 170호","category":"일반휴게음식 - 서양음식"},{"name":"H에스테틱","tel":"","addr":"경기도 의왕시 오전동 892번지 서해그랑블 205호","category":"보건위생 - 피부미용실"},{"name":"끌리쥬헤어","tel":"031-453-5520","addr":"경기도 의왕시 오전동 892번지 서해그랑블 2층 222호","category":"보건위생 - 미용원"},{"name":"네일#NAJI","tel":"031-427-0719","addr":"경기도 의왕시 오전동 892번지 서해그랑블 2층 230호","category":"보건위생 - 피부미용실"},{"name":"다홍","tel":"031-344-4240","addr":"경기도 의왕시 오전동 892번지 서해그랑블 101동 2층 221호","category":"의류 - 정장"},{"name":"로핸커피","tel":"031-1111-1111","addr":"경기도 의왕시 오전동 892번지 서해그랑블 2층 228호","category":"일반휴게음식 - 서양음식"},{"name":"배스킨라빈스 의왕서해그랑블점","tel":"031-343-4539","addr":"경기도 의왕시 오전동 892번지 1층 125호,126호","category":"음료식품 - 제과점"},{"name":"뷰티 호텔","tel":"","addr":"경기도 의왕시 오전동 892번지 서해그랑블 2층 220호","category":"보건위생 - 화장품"},{"name":"선옥바지락칼국수","tel":"031-427-0339","addr":"경기도 의왕시 오전동 892번지 서해그랑블 2층 224호","category":"일반휴게음식 - 일반한식"},{"name":"세이프존","tel":"031-427-2587","addr":"경기도 의왕시 오전동 892번지 서해그랑블 2층 247호","category":"보건위생 - 미용원"},{"name":"아리따움 의왕서해그랑블점","tel":"031-291-7823","addr":"경기도 의왕시 오전동 892번지 서해그랑블 106호,145호","category":"보건위생 - 화장품"},{"name":"영희네","tel":"","addr":"경기도 의왕시 오전동 892번지 서해그랑블 1층 150호","category":"일반휴게음식 - 일반한식"},{"name":"이마트24 의왕서해그랑블점","tel":"","addr":"경기도 의왕시 오전동 892번지 서해그랑블 1층 112호","category":"유통업 영리 - 편 의 점"},{"name":"크린에이드","tel":"031-000-0000","addr":"경기도 의왕시 오전동 892번지 서해그랑블 1층","category":"수리서비스 - 세탁소"},{"name":"투썸플레이스 의왕서해그랑블점","tel":"031-456-5566","addr":"경기도 의왕시 오전동 892번지 서해그랑블 1층 124호","category":"일반휴게음식 - 서양음식"},{"name":"하늘약국","tel":"031-429-5824","addr":"경기도 의왕시 오전동 892번지 서해그랑블 2층 237호","category":"약국 - 약국"},{"name":"함박웃음","tel":"070-3545-3303","addr":"경기도 의왕시 오전동 892번지 더스타스퀘어 상가 229호","category":"의류 - 정장"}]},{"lat":"37.3589783589","long":"126.9619192347","items":[{"name":"(주) 은진산업","tel":"031-477-9433","addr":"경기도 의왕시 오전동 124-3번지","category":"전기제품 - 기타전기제품"},{"name":"대승매점","tel":"031-454-8887","addr":"경기도 의왕시 오전동 124-3번지","category":"음료식품 - 기타음료식품"}]},{"lat":"37.3526112224","long":"126.9719226708","items":[{"name":"(주)47컴퍼니","tel":"031-457-7006","addr":"경기도 의왕시 오전동 276-1번지 대덕하이베라스 305호","category":"레저업소 - 헬스클럽"},{"name":"골드볼링장","tel":"031-451-6611","addr":"경기도 의왕시 오전동 276-1번지 대덕하이베라스 4층","category":"레저업소 - 볼 링 장"},{"name":"교촌치킨오전고천점","tel":"031-477-1150","addr":"경기도 의왕시 오전동 276-1번지 대덕하이베라스 114호","category":"일반휴게음식 - 주점"},{"name":"더온필라테스","tel":"031-457-7006","addr":"경기도 의왕시 오전동 276-1번지 대덕하이베라스 305호","category":"레저업소 - 헬스클럽"},{"name":"돈치킨 x 커피 치올라","tel":"031-458-7337","addr":"경기도 의왕시 오전동 276-1번지 대덕하이츠베라스 204호","category":"일반휴게음식 - 서양음식"},{"name":"라이브","tel":"031-429-4688","addr":"경기도 의왕시 오전동 276-1번지 대덕하이베라스 121호","category":"일반휴게음식 - 주점"},{"name":"막회랑 아구찜","tel":"","addr":"경기도 의왕시 오전동 276-1번지 대덕하이베리스 119호","category":"일반휴게음식 - 일반한식"},{"name":"메이저스크린","tel":"031-427-1415","addr":"경기도 의왕시 오전동 276-1번지 대덕하이베라스 5층 501호","category":"레저업소 - 스크린골프"},{"name":"미담은에스텍","tel":"031-458-7992","addr":"경기도 의왕시 오전동 276-1번지 대덕하이베라스303,304","category":"회원제형태 - 기타4"},{"name":"발리안츠코리아","tel":"031-429-0785","addr":"경기도 의왕시 오전동 276-1번지 대덕하이베라스 210,211호","category":"전기제품 - 기타전기제품"},{"name":"부원약국","tel":"031-429-1030","addr":"경기도 의왕시 오전동 276-1번지 대덕하이베라스 301호","category":"약국 - 약국"},{"name":"사람과치과","tel":"031-453-2080","addr":"경기도 의왕시 오전동 276-1번지 대덕하이베라스 301호","category":"의원 - 치과의원"},{"name":"석기정 부대찌개 삼겹살","tel":"031-455-0456","addr":"경기도 의왕시 오전동 276-1번지 대덕하이베라스 201호","category":"일반휴게음식 - 일반한식"},{"name":"솔밭순대","tel":"031-455-0333","addr":"경기도 의왕시 오전동 276-1번지 대덕하이베라스 120호","category":"일반휴게음식 - 일반한식"},{"name":"송월타올","tel":"031-429-6785","addr":"경기도 의왕시 오전동 276-1번지 대덕하이베라스 111호","category":"직물 - 옷감·직물"},{"name":"수참치","tel":"031-454-0998","addr":"경기도 의왕시 오전동 276-1번지 대덕하이베라스 122호","category":"일반휴게음식 - 일반한식"},{"name":"신통치킨","tel":"031-454-8181","addr":"경기도 의왕시 오전동 276-1번지 대덕하이베라스 116호","category":"일반휴게음식 - 스넥"},{"name":"에소르휘트니스","tel":"031-457-2006","addr":"경기도 의왕시 오전동 276-1번지 대덕하이베라스 306동 310호","category":"레저업소 - 헬스클럽"},{"name":"윤어패럴","tel":"301-454-0071","addr":"경기도 의왕시 오전동 276-1번지 대덕하이베라스 1층 109호","category":"의류 - 정장"},{"name":"주주노래연습장","tel":"031-427-6633","addr":"경기도 의왕시 오전동 276-1대덕하이베라스2층205호.206호","category":"레저업소 - 노 래 방"},{"name":"주주당구클럽","tel":"070-8227-1005","addr":"경기도 의왕시 오전동 276-1번지 대덕하이베라스 202호","category":"레저업소 - 당 구 장"},{"name":"주주웨딩홀부페","tel":"031-452-0202","addr":"경기도 의왕시 오전동 276-1번지 대덕하이베라스 5층","category":"일반휴게음식 - 일반한식"},{"name":"카페 얀","tel":"","addr":"경기도 의왕시 오전동 276-1번지 대덕하이베라스 110호","category":"일반휴게음식 - 서양음식"},{"name":"풍년가","tel":"031-426-9297","addr":"경기도 의왕시 오전동 276-1번지 대덕하이베라스 117,118호","category":"일반휴게음식 - 일반한식"},{"name":"항아리보쌈 의왕점","tel":"031-427-1697","addr":"경기도 의왕시 오전동 276-1번지 101,102,103호","category":"일반휴게음식 - 일반한식"},{"name":"호랑이 담배 피던 시절","tel":"031-453-0908","addr":"경기도 의왕시 오전동 276-1번지 대덕하이베라스 1층 113호","category":"기타 - 기타 전문점"}]},{"lat":"37.3527018906","long":"126.9741686805","items":[{"name":"(주)금강전설","tel":"031-459-9847","addr":"경기도 의왕시 오전동 309-12","category":"용역 서비스 - 기타용역서비스"},{"name":"케이엔테크","tel":"031-427-2635","addr":"경기도 의왕시 오전동 309-12번지 2층","category":"기타 - 기타 전문점"}]},{"lat":"37.3592846294","long":"126.9617046028","items":[{"name":"(주)금천종합공구","tel":"031-477-5596","addr":"경기도 의왕시 오전동 40-1번지 1층","category":"기타 - 기계공구"},{"name":"대박나라","tel":"031-453-7841","addr":"경기도 의왕시 오전동 40-1번지 2층","category":"일반휴게음식 - 일반한식"},{"name":"이피전자 광학","tel":"031-477-0799","addr":"경기도 의왕시 오전동 40-1번지 3층","category":"광학제품 - 기타광학제품"}]},{"lat":"37.3555020502","long":"126.9668648682","items":[{"name":"(주)남경텔레콤","tel":"031-429-5701","addr":"경기도 의왕시 오전동 196-5번지 벽산선영테크노피아 1007호","category":"사무통신 - 통신기기"},{"name":"(주)남경텔레콤/원격지","tel":"031-429-5701","addr":"경기도 의왕시 오전동 196-5번지 벽산선영테크노피아 1007호","category":"기타 - 기타 전문점"},{"name":"(주)미래티엘시","tel":"031-459-6117","addr":"경기도 의왕시 오전동 196-5번지 벽산선영테크노피아 501호","category":"사무통신 - 통신기기"},{"name":"RNJ골프존","tel":"031-427-3456","addr":"경기도 의왕시 오전동 196-5번지 3,4층","category":"레저업소 - 골프연습장"},{"name":"뉴비전코리아","tel":"031-914-5984","addr":"경기도 의왕시 오전동 196-5번지 벽산선영테크노피아 1202호","category":"보건위생 - 안경"},{"name":"모닝푸드","tel":"","addr":"경기도 의왕시 오전동 196-5번지 벽산선영테크노피아 A동 1306,1307호","category":"일반휴게음식 - 일반한식"},{"name":"벽산골프","tel":"031-456-2240","addr":"경기도 의왕시 오전동 196-5번지","category":"레저업소 - 골프연습장"},{"name":"세븐일레븐의왕벽산테크노점","tel":"031-1577-0711","addr":"경기도 의왕시 오전동 196-5번지 벽산선영테크노피아 102-1호","category":"유통업 영리 - 편 의 점"},{"name":"세정반도체","tel":"031-427-5535","addr":"경기도 의왕시 오전동 196-5번지 벽산선영테크노피아 807호","category":"기타 - 기타 전문점"},{"name":"에이앤씨","tel":"031-427-0351","addr":"경기도 의왕시 오전동 196-5번지 벽산선임테크노피아 405호","category":"신변잡화 - 기타잡화"},{"name":"원일코스","tel":"031-427-2674","addr":"경기도 의왕시 오전동 196-5번지 벽산선영테크노피아 708호","category":"보건위생 - 화장품"},{"name":"유람선","tel":"031-429-9461","addr":"경기도 의왕시 오전동 196-5번지 벽산선영테크노피아 A동 102-2호","category":"일반휴게음식 - 일반한식"},{"name":"의왕시 장애아 재활치료 교육센터","tel":"031-455-5613","addr":"경기도 의왕시 오전동 196-5번지 벽산선영테크노피아 105호","category":"학원 - 기타 교육기관"},{"name":"의왕시장애아재활치료교육센터","tel":"031-455-5613","addr":"경기도 의왕시 오전동 196-5번지 벽산선영테크노피아 105호","category":"학원 - 기타 교육기관"},{"name":"주식회사 크레코","tel":"031-000-0000","addr":"경기도 의왕시 오전동 196-5번지 벽산선영테크노피아 503호","category":"광학제품 - 기타광학제품"},{"name":"주식회사데코팔","tel":"031-427-3500","addr":"경기도 의왕시 오전동 196-5번지","category":"레저업소 - 골프연습장"},{"name":"지안네이처","tel":"031-000-0000","addr":"경기도 의왕시 오전동 196-5번지 벽산선영테크노피아 A동 405-2호","category":"신변잡화 - 기타잡화"},{"name":"현찬프린팅","tel":"031-429-4704","addr":"경기도 의왕시 오전동 196-5번지 벽산선영테크노피아 A동 201-2호","category":"건축자재 - 인테리어전문"}]},{"lat":"37.3562305423","long":"126.9627334063","items":[{"name":"(주)더바움코리아","tel":"070-4422-2969","addr":"경기도 의왕시 오전동 150-24번지 에이엘티지식산업센터 204호","category":"음료식품 - 기타음료식품"},{"name":"고메이","tel":"031-464-5100","addr":"경기도 의왕시 오전동 150-24번지","category":"일반휴게음식 - 일반한식"},{"name":"손커피연구소","tel":"031-464-5100","addr":"경기도 의왕시 오전동 150-24번지 (주)에이엘티지식산업센터 6층 602호","category":"일반휴게음식 - 서양음식"}]},{"lat":"37.3552585118","long":"126.9660071688","items":[{"name":"(주)모든전자/원격지","tel":"","addr":"경기도 의왕시 오전동 174번지 대현테크노월드 704호","category":"기타 - 기타 전문점"},{"name":"(주)씽크라인","tel":"031-1566-0701","addr":"경기도 의왕시 오전동 174번지 대현테크노월드 906호","category":"주방용구 - 주방용구"},{"name":"GS25의왕현대점","tel":"","addr":"경기도 의왕시 오전동 174번지 대현테크노월드","category":"유통업 영리 - 편 의 점"},{"name":"대현회관","tel":"031-477-3010","addr":"경기도 의왕시 오전동 174번지 대현테크노월드 208,209,210","category":"일반휴게음식 - 일반한식"},{"name":"돈사랑","tel":"031-477-8386","addr":"경기도 의왕시 오전동 174번지 대현테크노월드 1층 108호","category":"일반휴게음식 - 일반한식"},{"name":"랩어스","tel":"031-452-7171","addr":"경기도 의왕시 오전동 174번지 대현테크노월드 504호","category":"서적문구 - 과학기자재"},{"name":"먹거리장터","tel":"031-427-5808","addr":"경기도 의왕시 오전동 174번지 대현테크노월드 지층 1호","category":"일반휴게음식 - 일반한식"},{"name":"모스트레이져","tel":"070-4639-2059","addr":"경기도 의왕시 오전동 174번지 대현테크노월드","category":"사무통신 - 통신기기"},{"name":"삼국지","tel":"031-477-9475","addr":"경기도 의왕시 오전동 174번지 대현테크노월드 106 ,107호9오전동,대현테크노월드","category":"일반휴게음식 - 일반한식"},{"name":"삼도폴리텍 주식회사","tel":"031-451-5642","addr":"경기도 의왕시 오전동 174번지 대현테크노월드 504호","category":"유통업 영리 - 기타유통업"},{"name":"셀프식당","tel":"031-477-3010","addr":"경기도 의왕시 오전동 174번지 209,210호","category":"일반휴게음식 - 일반한식"},{"name":"소비텍주식회사","tel":"031-466-4001","addr":"경기도 의왕시 오전동 174번지 대현테크노월드 706호","category":"기타 - 기타 전문점"},{"name":"우린바이오텍","tel":"031-429-5790","addr":"경기도 의왕시 오전동 174번지 대현테크노월드 903호","category":"건강식품 - 기타건강식품"},{"name":"웰빙명인치과","tel":"031-429-9926","addr":"경기도 의왕시 오전동 174번지 대현테크노월드 207호 대현테크노월드","category":"의원 - 치과의원"},{"name":"주식회사 마스(MAS Co.,Ltd)","tel":"031-427-7949","addr":"경기도 의왕시 오전동 174번지 대현테크노월드 711호","category":"전기제품 - 기타전기제품"},{"name":"주식회사 매스컨","tel":"031-360-8441","addr":"경기도 의왕시 오전동 174번지 대현테크노월드 509호","category":"신변잡화 - 기타잡화"},{"name":"히왓리커피 (의왕본점)","tel":"031-429-3324","addr":"경기도 의왕시 오전동 174번지 대현테크노월드 106호","category":"일반휴게음식 - 서양음식"}]},{"lat":"37.3603391695","long":"126.9627312174","items":[{"name":"(주)뮤제코스메틱","tel":"070-7792-2020","addr":"경기도 의왕시 오전동 35-29번지 중앙빌딩 302호","category":"보건위생 - 화장품"},{"name":"윈도우스토리 의왕점","tel":"031-452-5191","addr":"경기도 의왕시 오전동 35-29번지 중앙빌딩 203호","category":"직물 - 침구·수예점"},{"name":"일룸의왕점","tel":"031-455-5589","addr":"경기도 의왕시 오전동 35-29번지 중앙와이어컷팅 (1층일부)","category":"가구 - 일반가구"},{"name":"팔로모침대,밀란소파,데코라인가구","tel":"031-429-5523","addr":"경기도 의왕시 오전동 35-29번지 중앙빌딩 1층","category":"가구 - 일반가구"}]},{"lat":"37.3554745459","long":"126.9653411252","items":[{"name":"(주)바이옵틱","tel":"031-546-7623","addr":"경기도 의왕시 오전동 172번지 동영벤처텔 402호","category":"사무통신 - 통신기기"},{"name":"(주)울텍","tel":"031-455-4603","addr":"경기도 의왕시 오전동 172번지 동양벤쳐스텔 602호","category":"전기제품 - 기타전기제품"},{"name":"(주)울텍/원격지","tel":"031-455-4603","addr":"경기도 의왕시 오전동 172번지 동영벤쳐스텔 602호","category":"기타 - 기타 전문점"},{"name":"신오오토넷","tel":"070-4366-2377","addr":"경기도 의왕시 오전동 172번지 동영벤처스텔 602호","category":"자동차정비 유지 - 자동차부품"},{"name":"신원정밀/원격지","tel":"031-452-5444","addr":"경기도 의왕시 오전동 172번지 동영벤처스텔 102호","category":"기타 - 기타 전문점"},{"name":"씨유의왕동영벤처스텔점","tel":"031-454-3343","addr":"경기도 의왕시 오전동 172번지 101호,102호","category":"유통업 영리 - 편 의 점"},{"name":"주식회사 넥스텐","tel":"070-4725-6553","addr":"경기도 의왕시 오전동 172번지 동영벤처스텔 7층 701호","category":"전기제품 - 가전제품"},{"name":"주식회사 파노아","tel":"031-427-3322","addr":"경기도 의왕시 오전동 172번지 동영벤처스텔 202호","category":"음료식품 - 기타음료식품"},{"name":"주식회사 파노아","tel":"031-427-3322","addr":"경기도 의왕시 오전동 172번지 동영벤처스텔 202호","category":"음료식품 - 기타음료식품"},{"name":"포바이스","tel":"031-455-1081","addr":"경기도 의왕시 오전동 172번지 동영벤처스텔 702호","category":"전기제품 - 기타전기제품"}]},{"lat":"37.3587531637","long":"126.9620886707","items":[{"name":"(주)발해","tel":"031-456-6984","addr":"경기도 의왕시 오전동 124-4번지 제이콤빌딩 4층","category":"사무통신 - 통신기기"}]},{"lat":"37.3575286031","long":"126.9645386973","items":[{"name":"(주)신진디앤피","tel":"031-455-5615","addr":"경기도 의왕시 오전동 133-2번지","category":"신변잡화 - 기타잡화"}]},{"lat":"37.3538914972","long":"126.9752856250","items":[{"name":"(주)피엘프리모","tel":"031-624-3483","addr":"경기도 의왕시 오전동 358-19","category":"회원제형태 - 기타3"}]},{"lat":"37.3608625424","long":"126.9651126833","items":[{"name":"(주)하영농수산","tel":"070-4025-8520","addr":"경기도 의왕시 오전동 32-42번지 101호","category":"음료식품 - 농·축·수산품"},{"name":"신안유통","tel":"031-469-3779","addr":"경기도 의왕시 오전동 32-42번지 101호","category":"음료식품 - 기타음료식품"}]},{"lat":"37.3597266926","long":"126.9633636560","items":[{"name":"(주)현대리바트앤리빙","tel":"031-457-8489","addr":"경기도 의왕시 오전동 38-8번지 1층","category":"가구 - 일반가구"},{"name":"(주)현대리바트앤리빙","tel":"031-457-8489","addr":"경기도 의왕시 오전동 38-8번지 현대리바트 1층","category":"가구 - 일반가구"},{"name":"미소셀프식당","tel":"031-427-7436","addr":"경기도 의왕시 오전동 38-8번지 지층","category":"일반휴게음식 - 일반한식"}]},{"lat":"37.3555288339","long":"126.9660634720","items":[{"name":"21 Century Beauty(21세기  )","tel":"031-429-7650","addr":"경기도 의왕시 오전동 178-2번지 1층","category":"보건위생 - 화장품"},{"name":"친구네식당","tel":"031-429-5583","addr":"경기도 의왕시 오전동 178-2번지","category":"일반휴게음식 - 일반한식"}]},{"lat":"37.3506122417","long":"126.9772506515","items":[{"name":"APS-Biotech(에이피에스바이오텍)","tel":"031-422-7340","addr":"경기도 의왕시 오전동 373-2번지 상가천지빌딩 401호","category":"서적문구 - 과학기자재"},{"name":"가람교역","tel":"031-429-0692","addr":"경기도 의왕시 오전동 373-2번지 천지빌딩 3층","category":"서적문구 - 과학기자재"},{"name":"가람교역/원격지","tel":"031-429-0692","addr":"경기도 의왕시 오전동 373-2번지 천지빌딩 3층","category":"기타 - 기타 전문점"},{"name":"노블레스","tel":"031-477-7921","addr":"경기도 의왕시 오전동 373-2번지 오전동상가 5층","category":"보건위생 - 의료용품"},{"name":"대원OA","tel":"031-456-8272","addr":"경기도 의왕시 오전동 373-2번지 오전동상가 302호","category":"사무통신 - 사무용 OA기기"},{"name":"돈키우테","tel":"031-477-3392","addr":"경기도 의왕시 오전동 373-2번지 1층","category":"일반휴게음식 - 일반한식"},{"name":"의왕청년회의소","tel":"031-454-2017","addr":"경기도 의왕시 오전동 373-2번지 2층","category":"용역 서비스 - 사무서비스"}]},{"lat":"37.3590614009","long":"126.9680032167","items":[{"name":"E-시마헤어","tel":"031-455-5587","addr":"경기도 의왕시 오전동 104-10번지","category":"보건위생 - 미용원"},{"name":"김밥나라","tel":"031-453-2466","addr":"경기도 의왕시 오전동 104-10번지","category":"일반휴게음식 - 일반한식"},{"name":"동네떡방앗간","tel":"031-452-9667","addr":"경기도 의왕시 오전동 104-10번지 1층 101호","category":"음료식품 - 제과점"},{"name":"맑은침한의원","tel":"031-451-8275","addr":"경기도 의왕시 오전동 104-10번지 202호","category":"의원 - 한의원"},{"name":"비비큐치킨 의왕오전동점","tel":"031-458-1631","addr":"경기도 의왕시 오전동 104-10번지","category":"일반휴게음식 - 주점"},{"name":"유선참치","tel":"031-427-3749","addr":"경기도 의왕시 오전동 104-10번지 1층","category":"일반휴게음식 - 일식·회집"},{"name":"은하통신","tel":"031-459-7979","addr":"경기도 의왕시 오전동 104-10번지 107호","category":"사무통신 - 통신기기"},{"name":"코바코","tel":"031-429-3381","addr":"경기도 의왕시 오전동 104-10번지 108호","category":"일반휴게음식 - 일반한식"}]},{"lat":"37.3584756913","long":"126.9678341748","items":[{"name":"EST복싱다이어트","tel":"02-732-9484","addr":"경기도 의왕시 오전동 839번지 동원빌딩 3층","category":"레저업소 - 헬스클럽"},{"name":"노박치과의원","tel":"031-452-5996","addr":"경기도 의왕시 오전동 839번지 동원빌딩 5층","category":"의원 - 치과의원"},{"name":"명랑시대 쌀 핫도그 의왕오전점","tel":"031-429-4509","addr":"경기도 의왕시 오전동 839번지 동원빌딩 1층","category":"일반휴게음식 - 서양음식"},{"name":"베스킨라빈스의왕오전점","tel":"031-427-8181","addr":"경기도 의왕시 오전동 839동원빌딩1층2호~3호","category":"음료식품 - 제과점"},{"name":"이디야커피 의왕오전점","tel":"031-429-3612","addr":"경기도 의왕시 오전동 839번지 2층","category":"일반휴게음식 - 서양음식"},{"name":"테마노래연습장","tel":"031-477-0609","addr":"경기도 의왕시 오전동 839지하1층","category":"레저업소 - 노 래 방"},{"name":"포토뱅크","tel":"031-429-3004","addr":"경기도 의왕시 오전동 839번지","category":"광학제품 - 사진관"}]},{"lat":"37.3607542354","long":"126.9645370560","items":[{"name":"GEESSI신발편의점","tel":"031-427-8283","addr":"경기도 의왕시 오전동 53-2번지","category":"신변잡화 - 신발"}]},{"lat":"37.3572572001","long":"126.9612880786","items":[{"name":"GS25오전공단점","tel":"","addr":"경기도 의왕시 오전동 150-44번지 1층 101호","category":"유통업 영리 - 편 의 점"}]},{"lat":"37.3543060089","long":"126.9754773507","items":[{"name":"GS25의왕오전점","tel":"","addr":"경기도 의왕시 오전동 851-4번지 1층 상가","category":"유통업 영리 - 편 의 점"},{"name":"바이오스라이프","tel":"070-4227-1280","addr":"경기도 의왕시 오전동 851-4번지 302호","category":"회원제형태 - 건강식품"}]},{"lat":"37.3532237429","long":"126.9712790746","items":[{"name":"GS25의왕행정점","tel":"02-2006-2485","addr":"경기도 의왕시 오전동 843-10번지 1층","category":"유통업 영리 - 편 의 점"},{"name":"예가헤어","tel":"070-4042-9928","addr":"경기도 의왕시 오전동 843-10번지 1층","category":"보건위생 - 미용원"}]},{"lat":"37.3583571805","long":"126.9634546743","items":[{"name":"JBK아로니아","tel":"031-456-1777","addr":"경기도 의왕시 오전동 130-2번지 홍성브레이크 B동","category":"건강식품 - 기타건강식품"}]},{"lat":"37.3645296372","long":"126.9650092491","items":[{"name":"KK휘트니스","tel":"031-429-5552","addr":"경기도 의왕시 오전동 25-10번지 한이프라자 2,3층","category":"레저업소 - 헬스클럽"},{"name":"우리마트","tel":"031-427-8240","addr":"경기도 의왕시 오전동 25-10번지 한이프라자 1층","category":"유통업 영리 - 슈퍼마켓"},{"name":"프라임스터디학원","tel":"031-457-1222","addr":"경기도 의왕시 오전동 25-10번지 한이프라자 6층","category":"학원 - 보습학원"}]},{"lat":"37.3527308245","long":"126.9835366076","items":[{"name":"K플라워","tel":"031-477-4045","addr":"경기도 의왕시 오전동 412-1번지","category":"문화.취미 - 화원"},{"name":"갤러리숲","tel":"031-456-5800","addr":"경기도 의왕시 오전동 412-1","category":"문화.취미 - 화원"},{"name":"꽃마루농원","tel":"031-456-9988","addr":"경기도 의왕시 오전동 412-1","category":"문화.취미 - 화원"},{"name":"호연플라워","tel":"031-466-5782","addr":"경기도 의왕시 오전동 412-1번지 1층","category":"문화.취미 - 화원"}]},{"lat":"37.3546189274","long":"126.9664476729","items":[{"name":"RS TEC","tel":"031-429-3347","addr":"경기도 의왕시 오전동 885번지","category":"기타 - 기계공구"}]},{"lat":"37.3589481116","long":"126.9853410279","items":[{"name":"SUP컴퍼니","tel":"","addr":"경기도 의왕시 오전동 508번지","category":"신변잡화 - 액세서리"}]},{"lat":"37.3588092491","long":"126.9684548367","items":[{"name":"Season i PC방","tel":"070-8802-2544","addr":"경기도 의왕시 오전동 104-2번지 지층","category":"레저업소 - 기타레져업소"},{"name":"구이마을","tel":"031-456-6522","addr":"경기도 의왕시 오전동 104-2번지","category":"일반휴게음식 - 일반한식"},{"name":"아울라커피","tel":"031-3586-5397","addr":"경기도 의왕시 오전동 104-2번지 2층","category":"일반휴게음식 - 서양음식"},{"name":"아이비짐(IB-GYM)","tel":"031-427-1378","addr":"경기도 의왕시 오전동 104-2번지 3층","category":"레저업소 - 헬스클럽"}]},{"lat":"37.3569791980","long":"126.9652049280","items":[{"name":"VIBA(비바산업)","tel":"031-479-3111","addr":"경기도 의왕시 오전동 188-1번지","category":"전기제품 - 기타전기제품"},{"name":"옴니시스템","tel":"031-479-1289","addr":"경기도 의왕시 오전동 188-1번지","category":"전기제품 - 기타전기제품"}]},{"lat":"37.3660614756","long":"126.9653697165","items":[{"name":"ZIN 디자인(인테리어)","tel":"031-427-6623","addr":"경기도 의왕시 오전동 24-2번지","category":"건축자재 - 인테리어전문"},{"name":"기분좋은쿡","tel":"031-429-0034","addr":"경기도 의왕시 오전동 24-2번지 2층","category":"일반휴게음식 - 일반한식"},{"name":"조앤다이어트클럽","tel":"031-429-2240","addr":"경기도 의왕시 오전동 24-2번지 3층","category":"레저업소 - 헬스클럽"},{"name":"크리스탈헤어샵","tel":"031-427-8436","addr":"경기도 의왕시 오전동 24-2번지 102호","category":"보건위생 - 미용원"},{"name":"태란로(커피전문점)","tel":"031-477-7735","addr":"경기도 의왕시 오전동 24-2번지 1층","category":"일반휴게음식 - 서양음식"},{"name":"포미&바비","tel":"031-427-3640","addr":"경기도 의왕시 오전동 24-2번지 지층","category":"일반휴게음식 - 일반한식"}]},{"lat":"37.3549805062","long":"126.9704769604","items":[{"name":"it'-s-미 아름다운피부","tel":"031-453-2465","addr":"경기도 의왕시 오전동 842번지 상가동지하츨005호008호","category":"보건위생 - 화장품"},{"name":"백가네찌게배달","tel":"031-458-8890","addr":"경기도 의왕시 오전동 842","category":"일반휴게음식 - 일반한식"},{"name":"영주스킨케어","tel":"031-429-5019","addr":"경기도 의왕시 오전동 842 풍림상가지층 7호","category":"회원제형태 - 기타4"}]},{"lat":"37.3531968470","long":"126.9717869893","items":[{"name":"with(위드)","tel":"031-477-4709","addr":"경기도 의왕시 오전동 277-32번지 103호","category":"의류 - 기타의류"},{"name":"강아지이발소","tel":"031-344-3926","addr":"경기도 의왕시 오전동 277-32번지 101호","category":"문화.취미 - 애완동물"}]},{"lat":"37.3675301883","long":"126.9655608963","items":[{"name":"가구랜드","tel":"031-454-1882","addr":"경기도 의왕시 오전동 832번지","category":"가구 - 일반가구"},{"name":"대한전통무술진흥재단","tel":"031-451-1929","addr":"경기도 의왕시 오전동 832번지","category":"레저업소 - 헬스클럽"}]},{"lat":"37.3562500701","long":"126.9674514451","items":[{"name":"가나안꽃화원","tel":"031-452-1010","addr":"경기도 의왕시 오전동 205-9번지","category":"문화.취미 - 화원"}]},{"lat":"37.3541975435","long":"126.9740326680","items":[{"name":"가림인테리어","tel":"031-477-0859","addr":"경기도 의왕시 오전동 296번지 명지빌라 401호","category":"건축자재 - 인테리어전문"}]},{"lat":"37.3619897576","long":"126.9682050463","items":[{"name":"가이아 잉글리쉬 (Gaea English)","tel":"","addr":"경기도 의왕시 오전동 100번지 모락산현대아파트","category":"학원 - 기타 교육기관"},{"name":"성심의전","tel":"031-1577-0207","addr":"경기도 의왕시 오전동 100번지 모락산현대아파트","category":"용역 서비스 - 가례서비스업"}]},{"lat":"37.3581692252","long":"126.9674279679","items":[{"name":"감탄떡볶이오전점","tel":"031-427-2209","addr":"경기도 의왕시 오전동 839-3번지 한마음프라자 103호","category":"일반휴게음식 - 스넥"},{"name":"매일찬방","tel":"031-426-0040","addr":"경기도 의왕시 오전동 839-3번지 한마음프라자 101호","category":"음료식품 - 기타음료식품"},{"name":"상하이","tel":"031-429-3737","addr":"경기도 의왕시 오전동 839-3번지 한마음프라자 2층","category":"일반휴게음식 - 중국식"},{"name":"샹떼PC방 의왕오전점","tel":"02-222-2222","addr":"경기도 의왕시 오전동 839-3번지 한마음프라자 지하1층","category":"레저업소 - 기타레져업소"},{"name":"씨유의왕오전점","tel":"031-898-6568","addr":"경기도 의왕시 오전동 839-3번지 상가동 105, 106호","category":"유통업 영리 - 편 의 점"},{"name":"의왕스터디뱅크독서실","tel":"031-455-3323","addr":"경기도 의왕시 오전동 839-3번지 한마음프라자 4,5층","category":"학원 - 독서실"},{"name":"피자스쿨오전점","tel":"031-427-5115","addr":"경기도 의왕시 오전동 839-3번지 한마음프라자 102호","category":"일반휴게음식 - 서양음식"},{"name":"하나치과의원","tel":"031-459-3247","addr":"경기도 의왕시 오전동 839-3번지","category":"의원 - 치과의원"},{"name":"호계보석","tel":"031-455-5320","addr":"경기도 의왕시 오전동 839-3번지 한마음프라자 104호","category":"신변잡화 - 귀금속"}]},{"lat":"37.3601696088","long":"126.9678672504","items":[{"name":"강남청솔어학보습학원","tel":"031-451-5446","addr":"경기도 의왕시 오전동 101-3 201호,202호,501호","category":"학원 - 보습학원"},{"name":"마운틴학원","tel":"","addr":"경기도 의왕시 오전동 101-3번지 5층","category":"학원 - 보습학원"},{"name":"매쓰온 매쓰학원","tel":"031-457-6003","addr":"경기도 의왕시 오전동 101-3번지 301호","category":"학원 - 보습학원"},{"name":"비비씨(BBC)24 휘트니스","tel":"031-451-6006","addr":"경기도 의왕시 오전동 101-3번지 그레이스빌딩 601호","category":"레저업소 - 헬스클럽"},{"name":"신쥴리어드음악학원","tel":"031-455-0557","addr":"경기도 의왕시 오전동 101-3번지 그레이스빌딩 302호","category":"학원 - 예·체능계학원"},{"name":"심쿵부산어묵","tel":"031-451-3332","addr":"경기도 의왕시 오전동 101-3번지 1층 102-1호","category":"일반휴게음식 - 스넥"}]},{"lat":"37.3496128013","long":"126.9806481393","items":[{"name":"개나리식당","tel":"031-454-3963","addr":"경기도 의왕시 오전동 856번지 쌍용상가동 104호","category":"일반휴게음식 - 일반한식"}]},{"lat":"37.3499010988","long":"126.9805013330","items":[{"name":"개나리어린이집[아이행복]","tel":"031-346-6777","addr":"경기도 의왕시 오전동 856번지 개나리아파트","category":"학원 - 유아원"},{"name":"준앤미","tel":"","addr":"경기도 의왕시 오전동 856번지 개나리아파트","category":"용역 서비스 - 사무서비스"}]},{"lat":"37.3682241348","long":"126.9660911351","items":[{"name":"갯마을 의왕직영점","tel":"031-284-7018","addr":"경기도 의왕시 오전동 11-9번지","category":"일반휴게음식 - 일반한식"},{"name":"서일석유(주)열린스타주유소","tel":"031-452-6246","addr":"경기도 의왕시 오전동 11-9번지","category":"연료판매점 - GS주유소"},{"name":"오토오아시스열린스타","tel":"031-453-8576","addr":"경기도 의왕시 오전동 11-9번지","category":"자동차정비 유지 - 자동차정비"}]},{"lat":"37.3529181753","long":"126.9743378986","items":[{"name":"거명","tel":"031-456-0088","addr":"경기도 의왕시 오전동 309-2번지","category":"일반휴게음식 - 중국식"},{"name":"수원화성장례지도사교육원","tel":"031-1600-0197","addr":"경기도 의왕시 오전동 309-2번지 3층 2호","category":"회원제형태 - 학원"},{"name":"종일서적","tel":"070-8726-8836","addr":"경기도 의왕시 오전동 309-2번지 107호,108호","category":"서적문구 - 일반서적"},{"name":"주원종합식품","tel":"031-347-3730","addr":"경기도 의왕시 오전동 309-2번지 1층","category":"음료식품 - 기타음료식품"},{"name":"처갓집양념치킨 오전점","tel":"031-453-9221","addr":"경기도 의왕시 오전동 309-2번지 1층 103호","category":"일반휴게음식 - 스넥"},{"name":"푸른빛이스턴학원","tel":"031-394-0456","addr":"경기도 의왕시 오전동 309-2번지 2층","category":"학원 - 보습학원"},{"name":"한국사회교육원제 A870008지부","tel":"031-453-0316","addr":"경기도 의왕시 오전동 309-2번지 3층 302호","category":"학원 - 기타 교육기관"}]},{"lat":"37.3505031524","long":"126.9731198885","items":[{"name":"건축사사무소녹색","tel":"031-451-2908","addr":"경기도 의왕시 오전동 324-3은용빌딩3층","category":"용역 서비스 - 사무서비스"}]},{"lat":"37.3597813251","long":"126.9651132252","items":[{"name":"경동종합공사(음식물처리기)","tel":"031-453-3751","addr":"경기도 의왕시 오전동 32-22번지 오전상가연립 301호","category":"용역 서비스 - 기타용역서비스"},{"name":"비즐광고기획","tel":"031-429-3344","addr":"경기도 의왕시 오전동 32-22번지 오전상가 108호","category":"용역 서비스 - 종합용역"},{"name":"웰빙주류","tel":"070-7502-7080","addr":"경기도 의왕시 오전동 32-22번지 오전상가 104호","category":"음료식품 - 주류 판매점"},{"name":"평택쌀직판장","tel":"031-457-8383","addr":"경기도 의왕시 오전동 32-22번지","category":"음료식품 - 미곡상"},{"name":"할매부대찌개","tel":"031-459-2768","addr":"경기도 의왕시 오전동 32-22번지 오전상가 109호","category":"일반휴게음식 - 일반한식"},{"name":"형제천막사","tel":"031-456-9885","addr":"경기도 의왕시 오전동 32-22번지","category":"용역 서비스 - 종합용역"}]},{"lat":"37.3624038364","long":"126.9669067219","items":[{"name":"경원열기","tel":"001-0000-0000","addr":"경기도 의왕시 오전동 28대명구름채A202-1103","category":"수리서비스 - 가정용품수리"},{"name":"미래교육","tel":"031-269-7012","addr":"경기도 의왕시 오전동 28번지 대명구름채아파트","category":"서적문구 - 일반서적"}]},{"lat":"37.3527830175","long":"126.9743153764","items":[{"name":"고려엔지니어링","tel":"031-457-3653","addr":"경기도 의왕시 오전동 309-16번지","category":"자동차정비 유지 - 자동차부품"}]},{"lat":"37.3588988041","long":"126.9666262053","items":[{"name":"고백플레르","tel":"","addr":"경기도 의왕시 오전동 838-3번지 국화아파트","category":"문화.취미 - 화원"},{"name":"골목옷집","tel":"031-251-1321","addr":"경기도 의왕시 오전동 838-3번지 국화아파트","category":"회원제형태 - 기타4"}]},{"lat":"37.3593674659","long":"126.9670661988","items":[{"name":"고봉민김밥인의왕오전점","tel":"031-427-0833","addr":"경기도 의왕시 오전동 108번지 현대프라자 1층 118호","category":"일반휴게음식 - 스넥"},{"name":"곱반날 소곱창","tel":"031-427-1912","addr":"경기도 의왕시 오전동 108번지 현대프라자 2층 210호","category":"일반휴게음식 - 일반한식"},{"name":"길튼학원","tel":"031-477-5381","addr":"경기도 의왕시 오전동 108번지 현대프라자 406호","category":"학원 - 보습학원"},{"name":"녹색마을샤브샤브칼국수","tel":"031-459-7474","addr":"경기도 의왕시 오전동 108번지 현대프라자 101동 102호","category":"일반휴게음식 - 일반한식"},{"name":"대웅약국","tel":"031-429-7582","addr":"경기도 의왕시 오전동 108번지 현대프라자 108호","category":"약국 - 약국"},{"name":"머리반장","tel":"031-427-6204","addr":"경기도 의왕시 오전동 108번지 현대프라자 204호","category":"보건위생 - 미용원"},{"name":"메가25","tel":"031-457-0866","addr":"경기도 의왕시 오전동 108번지 현대프라자 111호","category":"유통업 영리 - 슈퍼마켓"},{"name":"미래보청기","tel":"031-427-8276","addr":"경기도 의왕시 오전동 108번지 현대프라자 3층","category":"보건위생 - 의료용품"},{"name":"미래이비인후과의원","tel":"031-427-8275","addr":"경기도 의왕시 오전동 108번지 현대프라자 307호","category":"의원 - 의원"},{"name":"배가족발","tel":"031-427-8575","addr":"경기도 의왕시 오전동 108번지 현대프라자 101,102호","category":"일반휴게음식 - 일반한식"},{"name":"블루클럽(오전점)","tel":"031-455-2507","addr":"경기도 의왕시 오전동 108번지 현대프라자 106호","category":"보건위생 - 미용원"},{"name":"빌리어드잼","tel":"031-459-8899","addr":"경기도 의왕시 오전동 108번지 현대프라자 401호","category":"레저업소 - 당 구 장"},{"name":"빌리어드잼","tel":"031-455-8899","addr":"경기도 의왕시 오전동 108번지 현대프라자 4층 1호","category":"레저업소 - 당 구 장"},{"name":"서울백세안과","tel":"031-455-0595","addr":"경기도 의왕시 오전동 108번지 현대프라자 302호","category":"의원 - 의원"},{"name":"성모정형외과","tel":"031-459-7582","addr":"경기도 의왕시 오전동 108번지 현대프라자 401호","category":"의원 - 의원"},{"name":"엔핫요가","tel":"031-454-6300","addr":"경기도 의왕시 오전동 108번지 현대프라자 503호","category":"레저업소 - 헬스클럽"},{"name":"우리들내과의원","tel":"031-451-8278","addr":"경기도 의왕시 오전동 108번지 현대프라자 305호","category":"의원 - 치과의원"},{"name":"의왕이투스수학학원","tel":"031-427-1400","addr":"경기도 의왕시 오전동 108번지 현대프라자 2층 205호","category":"학원 - 보습학원"},{"name":"의왕지압안마원","tel":"031-444-8533","addr":"경기도 의왕시 오전동 108번지 현대프라자 5층 502호","category":"보건위생 - 안마시술소"},{"name":"이니스프리 의왕오전점","tel":"031-427-0208","addr":"경기도 의왕시 오전동 108번지 현대프라자 113호","category":"보건위생 - 화장품"},{"name":"이대조뼈다귀해장국","tel":"031-477-3368","addr":"경기도 의왕시 오전동 108번지 현대프라자 103호 ,104,105호","category":"일반휴게음식 - 일반한식"},{"name":"인당한의원","tel":"031-477-4063","addr":"경기도 의왕시 오전동 108.3층301호","category":"의원 - 한의원"},{"name":"정관장의왕점","tel":"031-477-2304","addr":"경기도 의왕시 오전동 108번지 현대프라자 109호","category":"건강식품 - 홍삼제품"},{"name":"정관장홍삼의왕전시판매장","tel":"031-477-2304","addr":"경기도 의왕시 오전동 108번지 현대프라자 109호","category":"건강식품 - 홍삼제품"},{"name":"크리스탈스킨케어","tel":"031-429-5070","addr":"경기도 의왕시 오전동 108번지 현대프라자 203호","category":"보건위생 - 피부미용실"},{"name":"플존PC방","tel":"031-000-0000","addr":"경기도 의왕시 오전동 108번지 현대프라자 B01호","category":"수리서비스 - 사무·통신기기수리"},{"name":"해맑은소아과의원","tel":"031-456-7891","addr":"경기도 의왕시 오전동 108번지 현대프라자 306호","category":"의원 - 의원"},{"name":"행복한 정육점","tel":"031-427-8889","addr":"경기도 의왕시 오전동 108번지 현대프라자 115호","category":"음료식품 - 정육점"},{"name":"헤어텐","tel":"031-477-6633","addr":"경기도 의왕시 오전동 108번지 현대프라자 209호","category":"보건위생 - 미용원"},{"name":"현대동물병원","tel":"031-429-0975","addr":"경기도 의왕시 오전동 108번지 현대프라자 107호","category":"기타의료기관 - 동물병원"},{"name":"현대안경","tel":"031-457-4224","addr":"경기도 의왕시 오전동 108번지 현대프라자 117호","category":"보건위생 - 안경"},{"name":"현대프라자약국","tel":"031-427-1255","addr":"경기도 의왕시 오전동 108번지 현대프라자 304호","category":"약국 - 약국"}]},{"lat":"37.3610074785","long":"126.9676185270","items":[{"name":"고창선운사풍천장어","tel":"031-454-2004","addr":"경기도 의왕시 오전동 74-17번지 2층","category":"일반휴게음식 - 일반한식"},{"name":"행복한안경","tel":"031-456-1001","addr":"경기도 의왕시 오전동 74-17번지 1층 2호","category":"보건위생 - 안경"}]},{"lat":"37.3507292776","long":"126.9768104432","items":[{"name":"고천 경희대석사 태권도","tel":"031-458-9165","addr":"경기도 의왕시 오전동 363-2번지 까치빌딩 4층","category":"학원 - 예·체능계학원"},{"name":"동창떡방아간","tel":"031-458-3263","addr":"경기도 의왕시 오전동 363-2번지","category":"음료식품 - 제과점"},{"name":"엘지마트","tel":"031-456-4676","addr":"경기도 의왕시 오전동 363-2번지 까치빌딩 1층","category":"유통업 영리 - 슈퍼마켓"},{"name":"월드필실용음악학원","tel":"031-453-2142","addr":"경기도 의왕시 오전동 363-2번지","category":"학원 - 예·체능계학원"},{"name":"주식회사엘지축산","tel":"031-459-1971","addr":"경기도 의왕시 오전동 363-2번지 까치빌딩","category":"음료식품 - 정육점"}]},{"lat":"37.3499178467","long":"126.9745647598","items":[{"name":"고천닭발","tel":"031-459-1254","addr":"경기도 의왕시 오전동 329-8번지","category":"일반휴게음식 - 주점"}]},{"lat":"37.3501160702","long":"126.9745646853","items":[{"name":"고천사진관","tel":"031-452-4521","addr":"경기도 의왕시 오전동 329-1번지 백운연립","category":"광학제품 - 사진관"},{"name":"꾸레꾸레","tel":"031-456-4022","addr":"경기도 의왕시 오전동 329-1번지 백운연립","category":"일반휴게음식 - 서양음식"},{"name":"돈다랑","tel":"031-429-0996","addr":"경기도 의왕시 오전동 329-1 2층 4호","category":"일반휴게음식 - 일반한식"},{"name":"두리아숯불바베큐치킨","tel":"031-451-2217","addr":"경기도 의왕시 오전동 329-1번지 백운연립 1층 5호","category":"일반휴게음식 - 스넥"},{"name":"이삭토스트","tel":"031-477-8089","addr":"경기도 의왕시 오전동 329-1번지 백운연립","category":"일반휴게음식 - 스넥"},{"name":"재현한복","tel":"031-452-8362","addr":"경기도 의왕시 오전동 329-1번지 백운연립","category":"의류 - 맞춤복점"},{"name":"제주부자돈","tel":"031-452-4757","addr":"경기도 의왕시 오전동 329-1번지 백운연립","category":"일반휴게음식 - 일반한식"},{"name":"충남방앗간","tel":"031-452-8690","addr":"경기도 의왕시 오전동 329-1번지 백운연립","category":"음료식품 - 제과점"}]},{"lat":"37.3526675984","long":"126.9826111175","items":[{"name":"고천중학교","tel":"031-458-8626","addr":"경기도 의왕시 오전동 413번지 고천중학교","category":"학원 - 초중고교육기관"}]},{"lat":"37.3522779901","long":"126.9724758513","items":[{"name":"골프랜드주식회사","tel":"031-454-3500","addr":"경기도 의왕시 오전동 314-26번지 세일카센타 302호","category":"용역 서비스 - 사무서비스"},{"name":"비에이치씨오전고천점","tel":"031-456-8892","addr":"경기도 의왕시 오전동 314-26번지 101,102호","category":"일반휴게음식 - 서양음식"},{"name":"신전떡볶이 오전동점","tel":"031-429-3123","addr":"경기도 의왕시 오전동 314-26번지 세일카센타 103호","category":"일반휴게음식 - 스넥"}]},{"lat":"37.3587551454","long":"126.9683081230","items":[{"name":"곰돌이DC아울렛","tel":"031-459-9947","addr":"경기도 의왕시 오전동 104-3번지 에몬스","category":"신변잡화 - 기타잡화"}]},{"lat":"37.3566114878","long":"126.9710067600","items":[{"name":"곱쌤수학교습소","tel":"031-427-4935","addr":"경기도 의왕시 오전동 849번지 상가동 207호 일부","category":"학원 - 보습학원"},{"name":"다울","tel":"031-427-0634","addr":"경기도 의왕시 오전동 849번지 동백아파트","category":"음료식품 - 제과점"},{"name":"라이스호프","tel":"031-453-5858","addr":"경기도 의왕시 오전동 849동백상가113","category":"일반휴게음식 - 주점"},{"name":"알뜰생활용품코너","tel":"031-458-3162","addr":"경기도 의왕시 오전동 849번지 동백상가 111호","category":"신변잡화 - 기타잡화"},{"name":"엄마손칼국수","tel":"031-383-9300","addr":"경기도 의왕시 오전동 849번지","category":"일반휴게음식 - 스넥"},{"name":"이룸학원","tel":"031-429-4790","addr":"경기도 의왕시 오전동 849번지 304호 305호","category":"회원제형태 - 학원"}]},{"lat":"37.3601147113","long":"126.9651469214","items":[{"name":"공간사랑","tel":"031-405-0487","addr":"경기도 의왕시 오전동 32-77번지","category":"건축자재 - 인테리어전문"},{"name":"피엔제이","tel":"031-458-0083","addr":"경기도 의왕시 오전동 32-77번지 (1층1~2호)","category":"일반휴게음식 - 서양음식"}]},{"lat":"37.3511427679","long":"126.9727020379","items":[{"name":"국회의원 송호창 후원회","tel":"031-429-2628","addr":"경기도 의왕시 오전동 323-3번지 오전빌딩 301호","category":"기타 - 비영리/대상"},{"name":"명륜진사갈비 오전점","tel":"031-456-5794","addr":"경기도 의왕시 오전동 323-3번지 오전빌딩 1층","category":"일반휴게음식 - 일반한식"},{"name":"아방궁당구장","tel":"031-459-3958","addr":"경기도 의왕시 오전동 323-3번지 오전빌딩 202호","category":"레저업소 - 당 구 장"},{"name":"특급노래연습장","tel":"031-429-8392","addr":"경기도 의왕시 오전동 323-3번지","category":"레저업소 - 노 래 방"},{"name":"하나축산","tel":"031-453-6016","addr":"경기도 의왕시 오전동 323-3번지 오전빌딩 1층 101호","category":"음료식품 - 정육점"}]},{"lat":"37.3535573330","long":"126.9720915841","items":[{"name":"굽네치킨","tel":"031-399-5599","addr":"경기도 의왕시 오전동 846-9번지 1층","category":"일반휴게음식 - 주점"}]},{"lat":"37.3497836799","long":"126.9790341578","items":[{"name":"그레이스","tel":"","addr":"경기도 의왕시 오전동 391-2번지 고천다세대 205호","category":"용역 서비스 - 가례서비스업"},{"name":"한국바스디자인","tel":"031-427-6737","addr":"경기도 의왕시 오전동 391-2번지 고천다세대 101호","category":"용역 서비스 - 기타용역서비스"}]},{"lat":"37.3552957682","long":"126.9701382131","items":[{"name":"그린크리닝","tel":"070-8234-2644","addr":"경기도 의왕시 오전동 842번지 목련아파트","category":"용역 서비스 - 종합용역"}]},{"lat":"37.3537823302","long":"126.9711208248","items":[{"name":"근명냉열기","tel":"031-457-0472","addr":"경기도 의왕시 오전동 844-11번지 상가","category":"용역 서비스 - 기타용역서비스"}]},{"lat":"37.3576191712","long":"126.9660060137","items":[{"name":"금륭관","tel":"031-452-4165","addr":"경기도 의왕시 오전동 112-12번지 창금빌딩 104호","category":"일반휴게음식 - 중국식"},{"name":"다인쇄","tel":"031-452-5566","addr":"경기도 의왕시 오전동 112-12번지 창금빌딩 101호","category":"서적문구 - 출판 및 인쇄물"},{"name":"산타나","tel":"031-427-4402","addr":"경기도 의왕시 오전동 112-12번지 창금빌딩 2동 201호","category":"보건위생 - 화장품"},{"name":"신승현1:1개인트레이닝스트듀오","tel":"031-427-7250","addr":"경기도 의왕시 오전동 112-12번지 창금빌딩 B1층","category":"회원제형태 - 레져업소"},{"name":"애플맛나","tel":"031-427-2152","addr":"경기도 의왕시 오전동 112-12번지 창금빌딩 102호","category":"음료식품 - 농·축·수산품"},{"name":"애플맛나(대인농산216.1호)","tel":"031-427-2152","addr":"경기도 의왕시 오전동 112-12번지 102창령빌딩","category":"음료식품 - 농·축·수산품"},{"name":"장수통닭","tel":"","addr":"경기도 의왕시 오전동 112-12번지 창금빌딩 1층","category":"일반휴게음식 - 일반한식"}]},{"lat":"37.3520887185","long":"126.9722501961","items":[{"name":"금성상회","tel":"031-56-0459","addr":"경기도 의왕시 오전동 314-12번지","category":"레져용품 - 스포츠·레져용품"},{"name":"순수시대","tel":"031-427-7512","addr":"경기도 의왕시 오전동 314-12번지 1층 106호","category":"일반휴게음식 - 주점"},{"name":"제일용품","tel":"031-456-0306","addr":"경기도 의왕시 오전동 314-12번지","category":"회원제형태 - 기타3"}]},{"lat":"37.3596463766","long":"126.9657566922","items":[{"name":"금성윤활유상사","tel":"031-458-0234","addr":"경기도 의왕시 오전동 813-31번지 1층","category":"자동차정비 유지 - 자동차정비"}]},{"lat":"37.3492251445","long":"126.9795083527","items":[{"name":"길림성","tel":"031-427-4488","addr":"경기도 의왕시 오전동 388-1번지 민들레베스파트 상가동 201호","category":"일반휴게음식 - 중국식"},{"name":"김현숙의머리만들기","tel":"031-454-1886","addr":"경기도 의왕시 오전동 388-1 이삭상가105","category":"보건위생 - 미용원"},{"name":"민들레마트","tel":"031-429-5857","addr":"경기도 의왕시 오전동 388-1번지 민들레베스파트 상가 101호","category":"유통업 영리 - 슈퍼마켓"},{"name":"바로엔젤테라피","tel":"031-427-8090","addr":"경기도 의왕시 오전동 388-1번지 제상가동 1층 103호","category":"보건위생 - 피부미용실"},{"name":"배드해빗 의왕점","tel":"031-455-6745","addr":"경기도 의왕시 오전동 388-1번지 민들레베스파트 106호","category":"일반휴게음식 - 일반한식"},{"name":"엔피아노학원","tel":"031-453-0386","addr":"경기도 의왕시 오전동 388-1번지 민들레베스파트 상가동 202호","category":"학원 - 예·체능계학원"},{"name":"용인대효예태권도","tel":"031-452-8969","addr":"경기도 의왕시 오전동 388-1번지 민들레베스파트 301 상가동3층","category":"학원 - 예·체능계학원"},{"name":"페이머스치킨","tel":"031-453-9211","addr":"경기도 의왕시 오전동 388-1번지 이삭민들레 상가동 104호","category":"일반휴게음식 - 스넥"}]},{"lat":"37.3574798604","long":"126.9883099517","items":[{"name":"길손식당","tel":"031-52-4724","addr":"경기도 의왕시 오전동 529번지","category":"일반휴게음식 - 일반한식"}]},{"lat":"37.3593951616","long":"126.9693350073","items":[{"name":"김가영헤어클럽","tel":"031-453-3619","addr":"경기도 의왕시 오전동 104-20성원이화2차상가104","category":"보건위생 - 미용원"},{"name":"바실","tel":"031-477-1581","addr":"경기도 의왕시 오전동 104-20번지 성원2차상가 1층","category":"주방용구 - 주방용식기"}]},{"lat":"37.3537019047","long":"126.9737055400","items":[{"name":"김커피","tel":"070-8031-4038","addr":"경기도 의왕시 오전동 288번지","category":"음료식품 - 기타음료식품"},{"name":"대평산업","tel":"031-456-3445","addr":"경기도 의왕시 오전동 288번지","category":"주방용구 - 주방용구"}]},{"lat":"37.3547020318","long":"126.9737051528","items":[{"name":"김포건재","tel":"031-452-1503","addr":"경기도 의왕시 오전동 290-11번지","category":"건축자재 - 건축용 요업제품"},{"name":"수림세라믹","tel":"031-452-1504","addr":"경기도 의왕시 오전동 290-11번지","category":"건축자재 - 건축용 요업제품"}]},{"lat":"37.3561425139","long":"126.9693928912","items":[{"name":"까끌레뽀끌레미용실","tel":"031-459-3516","addr":"경기도 의왕시 오전동 841백합상가111","category":"보건위생 - 미용원"},{"name":"벽산토탈","tel":"031-459-3179","addr":"경기도 의왕시 오전동 841번지 백합상가 113호","category":"직물 - 카페트,커튼,천막,지물"},{"name":"소담음악학원","tel":"031-456-0102","addr":"경기도 의왕시 오전동 841번지 백합상가 202,203,204호","category":"학원 - 예·체능계학원"},{"name":"휴n샵","tel":"070-346-7677","addr":"경기도 의왕시 오전동 841번지 벽산백합상가 지하 7호","category":"보건위생 - 화장품"}]},{"lat":"37.3543958680","long":"126.9744502081","items":[{"name":"까망몽키","tel":"031-461-2703","addr":"경기도 의왕시 오전동 299-4번지 202호","category":"회원제형태 - 기타4"},{"name":"킹카 워시 의왕점","tel":"","addr":"경기도 의왕시 오전동 299-4번지 1층 201호","category":"자동차정비 유지 - 세차장"}]},{"lat":"37.3580888930","long":"126.9700579872","items":[{"name":"꼬마어린이집[아이행복]","tel":"031-477-4837","addr":"경기도 의왕시 오전동 230번지 성원1차이화아파트","category":"학원 - 유아원"}]},{"lat":"37.3599167516","long":"126.9659823139","items":[{"name":"꼼장어세상","tel":"031-454-4729","addr":"경기도 의왕시 오전동 32-115번지","category":"일반휴게음식 - 일반한식"}]},{"lat":"37.3589801283","long":"126.9673937235","items":[{"name":"꽃사랑","tel":"031-456-0880","addr":"경기도 의왕시 오전동 110-1번지","category":"문화.취미 - 화원"}]},{"lat":"37.3578083420","long":"126.9658704720","items":[{"name":"꽃을담다","tel":"031-427-3338","addr":"경기도 의왕시 오전동 118-8번지 1층 5호","category":"문화.취미 - 화원"},{"name":"신성종합상사","tel":"031-453-7368","addr":"경기도 의왕시 오전동 118-8번지","category":"건축자재 - 목재·석재·철물"},{"name":"족발예찬","tel":"031-241-2200","addr":"경기도 의왕시 오전동 118-8번지 1층 1호","category":"일반휴게음식 - 일반한식"},{"name":"홍성.광천 한우직판장","tel":"031-455-1005","addr":"경기도 의왕시 오전동 118-8번지","category":"음료식품 - 정육점"}]},{"lat":"37.3676384233","long":"126.9659220876","items":[{"name":"꿈나무어린이집[아이행복]","tel":"031-456-0788","addr":"경기도 의왕시 오전동 19번지","category":"학원 - 유아원"}]},{"lat":"37.3566473315","long":"126.9702843603","items":[{"name":"꿈동산어린이집[아이행복]","tel":"031-455-4477","addr":"경기도 의왕시 오전동 849번지 동백아파트","category":"학원 - 유아원"},{"name":"씽씽키즈어린이집[아이행복]","tel":"031-456-5301","addr":"경기도 의왕시 오전동 849번지 동백아파트","category":"학원 - 유아원"}]},{"lat":"37.3504138089","long":"126.9763026676","items":[{"name":"꿈모아어린이집[아이행복]","tel":"031-427-6072","addr":"경기도 의왕시 오전동 333번지 목화케이티이자리에 103동 102호","category":"학원 - 유아원"}]},{"lat":"37.3577558526","long":"126.9712884616","items":[{"name":"꿈초롱어린이집[아이행복]","tel":"031-427-5905","addr":"경기도 의왕시 오전동 236-28","category":"학원 - 유아원"}]},{"lat":"37.3581160726","long":"126.9705997743","items":[{"name":"꿈터어린이집[아이행복]","tel":"031-476-2177","addr":"경기도 의왕시 오전동 230번지 성원1차이화아파트","category":"학원 - 유아원"},{"name":"대림피엔씨","tel":"031-454-2894","addr":"경기도 의왕시 오전동 230번지 성원1차이화아파트","category":"주방용구 - 정수기"},{"name":"미래화훼종묘","tel":"031-429-1201","addr":"경기도 의왕시 오전동 230번지 성원1차이화아파트","category":"문화.취미 - 화원"},{"name":"유어로(Your Lo)","tel":"","addr":"경기도 의왕시 오전동 230번지 성원1차이화아파트","category":"신변잡화 - 액세서리"}]},{"lat":"37.3549186811","long":"126.9753981189","items":[{"name":"나는카페 의왕점","tel":"031-427-9212","addr":"경기도 의왕시 오전동 852번지","category":"일반휴게음식 - 스넥"},{"name":"여성회관어린이집[아이행복]","tel":"031-455-6611","addr":"경기도 의왕시 오전동 852번지","category":"학원 - 유아원"},{"name":"의왕도시공사/국민체육센터","tel":"031-8086-7405","addr":"경기도 의왕시 오전동 852번지 의왕도시공사 시설운영팀","category":"레저업소 - 수 영 장"},{"name":"의왕도시공사/여성회관","tel":"031-8086-7405","addr":"경기도 의왕시 오전동 852 의왕도시공사 시설운영팀","category":"문화.취미 - 문화취미기타"},{"name":"의왕시 여성회관 매점","tel":"","addr":"경기도 의왕시 오전동 852번지","category":"음료식품 - 기타음료식품"},{"name":"의왕시청(여성회관)","tel":"031-345-2485","addr":"경기도 의왕시 오전동 852번지","category":"용역 서비스 - 조세서비스"}]},{"lat":"37.3573937259","long":"126.9653966060","items":[{"name":"나포칼국수","tel":"031-457-0704","addr":"경기도 의왕시 오전동 119-7번지","category":"일반휴게음식 - 일반한식"},{"name":"해남식당","tel":"031-429-4903","addr":"경기도 의왕시 오전동 119-7번지","category":"일반휴게음식 - 일반한식"}]},{"lat":"37.3533956066","long":"126.9738975337","items":[{"name":"낙원미용실","tel":"031-452-1695","addr":"경기도 의왕시 오전동 284-2번지","category":"보건위생 - 미용원"}]},{"lat":"37.3530080386","long":"126.9733672072","items":[{"name":"남성냉열프랜트","tel":"031-429-8904","addr":"경기도 의왕시 오전동 283-9번지","category":"전기제품 - 냉열기기"},{"name":"아이티시스템","tel":"070-4229-5110","addr":"경기도 의왕시 오전동 283-9번지 1층","category":"사무통신 - 사무용 OA기기"},{"name":"엄마닭","tel":"031-453-9282","addr":"경기도 의왕시 오전동 283-9번지","category":"일반휴게음식 - 서양음식"},{"name":"중앙시스템","tel":"031-454-5110","addr":"경기도 의왕시 오전동 283-9번지 1층","category":"사무통신 - 사무용 OA기기"}]},{"lat":"37.3491349845","long":"126.9792149412","items":[{"name":"낭만욕실 제작소","tel":"","addr":"경기도 의왕시 오전동 388-1번지 민들레베스파트 102동 901호","category":"건축자재 - 인테리어전문"}]},{"lat":"37.3510348197","long":"126.9733905527","items":[{"name":"네비게이션서비스센터","tel":"031-427-7459","addr":"경기도 의왕시 오전동 324-10번지 덕암빌딩 101호","category":"자동차정비 유지 - 자동차부품"},{"name":"에스비에스 당구장","tel":"031-689-3311","addr":"경기도 의왕시 오전동 324-10번지 덕암빌딩 3층","category":"레저업소 - 당 구 장"},{"name":"조가네 숯불돼지갈비","tel":"031-455-7755","addr":"경기도 의왕시 오전동 324-10번지 덕암빌딩 201호","category":"일반휴게음식 - 일반한식"}]},{"lat":"37.3513140383","long":"126.9730067038","items":[{"name":"네오로하스주식회사","tel":"031-477-3237","addr":"경기도 의왕시 오전동 323-1번지 의왕빌딩 3층","category":"사무통신 - 컴퓨터"},{"name":"우리집밥상","tel":"031-427-1791","addr":"경기도 의왕시 오전동 323-1번지 의왕빌딩 101호","category":"일반휴게음식 - 일반한식"},{"name":"통큰왕만두","tel":"031-429-0979","addr":"경기도 의왕시 오전동 323-1번지 의왕빌딩 1층","category":"일반휴게음식 - 일반한식"},{"name":"페리카나","tel":"031-454-0055","addr":"경기도 의왕시 오전동 323-1번지 의왕빌딩 3호","category":"일반휴게음식 - 스넥"}]},{"lat":"37.3522245919","long":"126.9751733694","items":[{"name":"네오워터","tel":"031-391-0679","addr":"경기도 의왕시 오전동 357","category":"음료식품 - 기타음료식품"}]},{"lat":"37.3512973892","long":"126.9790449653","items":[{"name":"노블아이어린이집[아이행복]","tel":"031-455-1877","addr":"경기도 의왕시 오전동 854번지 무궁화아파트","category":"학원 - 유아원"},{"name":"바센아트(군포)","tel":"031-455-6775","addr":"경기도 의왕시 오전동 854번지 무궁화아파트","category":"회원제형태 - 기타4"}]},{"lat":"37.3569172614","long":"126.9689523422","items":[{"name":"노아어린이집[아이행복]","tel":"031-346-0209","addr":"경기도 의왕시 오전동 841번지 백합아파트","category":"학원 - 유아원"}]},{"lat":"37.3560300246","long":"126.9980284826","items":[{"name":"농군의집","tel":"031-456-0228","addr":"경기도 의왕시 오전동 745번지","category":"일반휴게음식 - 일반한식"}]},{"lat":"37.3620034713","long":"126.9933887041","items":[{"name":"농업회사법인(주)한아름농원","tel":"","addr":"경기도 의왕시 오전동 665-4번지","category":"학원 - 기타 교육기관"}]},{"lat":"37.3580069746","long":"126.9672022950","items":[{"name":"닐리이탈리안비스트로오전동점","tel":"031-427-7580","addr":"경기도 의왕시 오전동 839-4번지 의왕그린프라자 103호","category":"일반휴게음식 - 일반한식"},{"name":"바네통","tel":"031-472-2290","addr":"경기도 의왕시 오전동 839-4번지 의왕그린프라자 106호","category":"음료식품 - 제과점"},{"name":"방방타요","tel":"031-429-8250","addr":"경기도 의왕시 오전동 839-4번지 의왕그린프라자 501,502,503호","category":"레저업소 - 기타레져업소"},{"name":"불닭발동대문엽기떡볶이의왕오전점","tel":"031-456-8592","addr":"경기도 의왕시 오전동 839-4번지 의왕그린프라자 101호","category":"일반휴게음식 - 일반한식"},{"name":"선한지혜학원","tel":"031-451-0828","addr":"경기도 의왕시 오전동 839-4번지 의왕그린프라자 403호","category":"학원 - 보습학원"},{"name":"성토마스의원","tel":"031-458-9560","addr":"경기도 의왕시 오전동 839-4번지 의왕그린프라자 301호","category":"의원 - 의원"},{"name":"슐런코리아","tel":"031-455-4210","addr":"경기도 의왕시 오전동 839-4번지 의왕그린프라자 302,303호","category":"서적문구 - 완구점"},{"name":"시그니처 스페이스","tel":"031-000-0000","addr":"경기도 의왕시 오전동 839-4번지 의왕그린프라자 302,303","category":"용역 서비스 - 사무서비스"},{"name":"아리따움의왕오전점","tel":"031-455-2902","addr":"경기도 의왕시 오전동 839-4번지 의왕그린프라자 104호","category":"보건위생 - 화장품"},{"name":"약사랑온누리약국","tel":"031-457-5577","addr":"경기도 의왕시 오전동 839-4번지 의왕그린프라자 105호","category":"약국 - 약국"},{"name":"오투헤어","tel":"031-458-8164","addr":"경기도 의왕시 오전동 839-4번지 의왕그린프라자 205호","category":"보건위생 - 미용원"},{"name":"월드노래연습장","tel":"031-458-5958","addr":"경기도 의왕시 오전동 839-4,2층201,202,203호","category":"레저업소 - 노 래 방"},{"name":"의왕검도관","tel":"031-455-4210","addr":"경기도 의왕시 오전동 839-4번지 의왕그린프라자 303호","category":"학원 - 예·체능계학원"},{"name":"집밥&국수","tel":"031-427-9976","addr":"경기도 의왕시 오전동 839-4번지 의왕그린프라자 102호","category":"일반휴게음식 - 일반한식"},{"name":"큐미","tel":"031-426-3883","addr":"경기도 의왕시 오전동 839-4번지 의왕그린프라자 204호","category":"보건위생 - 피부미용실"},{"name":"피부의 꿈","tel":"031-451-3866","addr":"경기도 의왕시 오전동 839-4번지 그린프라자 204호","category":"보건위생 - 화장품"},{"name":"한우물독서실","tel":"031-455-1331","addr":"경기도 의왕시 오전동 839-4 4층401호~402호 401","category":"학원 - 독서실"}]},{"lat":"37.3607551843","long":"126.9675847814","items":[{"name":"다예목","tel":"031-483-9955","addr":"경기도 의왕시 오전동 72-15번지 1층","category":"문화.취미 - 민예·공예품"}]},{"lat":"37.3600869961","long":"126.9630586972","items":[{"name":"다우닝가구","tel":"031-447-4121","addr":"경기도 의왕시 오전동 38-15번지 BK빌딩","category":"가구 - 일반가구"},{"name":"시몬스침대 의왕평촌점","tel":"031-429-9016","addr":"경기도 의왕시 오전동 38-15번지 비케이빌딩","category":"가구 - 일반가구"}]},{"lat":"37.3589715656","long":"126.9689175545","items":[{"name":"다인퍼니처","tel":"031-429-2762","addr":"경기도 의왕시 오전동 104-37번지","category":"가구 - 일반가구"},{"name":"대단한포차","tel":"031-427-7710","addr":"경기도 의왕시 오전동 104-37번지 102호","category":"일반휴게음식 - 서양음식"},{"name":"레드쿨헤어","tel":"031-429-6793","addr":"경기도 의왕시 오전동 104-37번지 202호","category":"보건위생 - 미용원"},{"name":"메이플커피(MAPLE COFFEE)","tel":"","addr":"경기도 의왕시 오전동 104-37번지","category":"일반휴게음식 - 서양음식"},{"name":"행복나눔","tel":"031-459-7579","addr":"경기도 의왕시 오전동 104-37번지 204호","category":"의류 - 정장"}]},{"lat":"37.3507291594","long":"126.9762799837","items":[{"name":"닭갈비한마당","tel":"031-427-6096","addr":"경기도 의왕시 오전동 339-1번지 금호장미아파트","category":"일반휴게음식 - 일반한식"}]},{"lat":"37.3586740210","long":"126.9681952846","items":[{"name":"닭이봉닭갈비","tel":"031-452-0952","addr":"경기도 의왕시 오전동 104-4번지","category":"일반휴게음식 - 일반한식"},{"name":"대성안경원","tel":"031-457-9506","addr":"경기도 의왕시 오전동 104-4.1층","category":"보건위생 - 안경"}]},{"lat":"37.3583675226","long":"126.9676761999","items":[{"name":"당구스포션","tel":"031-456-0161","addr":"경기도 의왕시 오전동 839-1 도원빌딩지하1층","category":"레저업소 - 당 구 장"},{"name":"온더데스크 스터디","tel":"031-429-8209","addr":"경기도 의왕시 오전동 839-1번지 도원빌딩 4,5층","category":"용역 서비스 - 사무서비스"},{"name":"온더데스크 의왕센터 (On The Desk 독서실)","tel":"031-429-8209","addr":"경기도 의왕시 오전동 839-1번지 도원빌딩 5층 4","category":"학원 - 독서실"},{"name":"와이에이치(YH)모바일(의왕점)","tel":"031-457-7010","addr":"경기도 의왕시 오전동 839-1번지 도원빌딩","category":"사무통신 - 통신기기"},{"name":"임근식헤어","tel":"031-456-7866","addr":"경기도 의왕시 오전동 839-1번지 도원빌딩 2층","category":"보건위생 - 미용원"},{"name":"초심축산","tel":"070-7796-9663","addr":"경기도 의왕시 오전동 839-1번지 도원빌딩","category":"음료식품 - 정육점"},{"name":"한마음가정의원","tel":"031-455-2355","addr":"경기도 의왕시 오전동 839-1번지 덕성빌딩 2층","category":"의원 - 의원"}]},{"lat":"37.3572228437","long":"126.9663899774","items":[{"name":"대명E.N.G","tel":"031-429-6618","addr":"경기도 의왕시 오전동 214-2번지","category":"의류 - 아동의류"},{"name":"대명E.N.G","tel":"031-429-6618","addr":"경기도 의왕시 오전동 214-2번지","category":"자동차정비 유지 - 자동차부품"}]},{"lat":"37.3515571571","long":"126.9723971366","items":[{"name":"대명상재","tel":"031-435-5420","addr":"경기도 의왕시 오전동 315-48번지 102호","category":"직물 - 카페트,커튼,천막,지물"},{"name":"백광마대","tel":"031-429-5322","addr":"경기도 의왕시 오전동 315-48번지","category":"기타 - 기타 전문점"},{"name":"안양자동차배터리","tel":"031-429-5422","addr":"경기도 의왕시 오전동 315-48번지","category":"자동차정비 유지 - 자동차부품"},{"name":"핑크리지","tel":"070-8711-7015","addr":"경기도 의왕시 오전동 315-48번지 1층 103호","category":"의류 - 정장"}]},{"lat":"37.3593325740","long":"126.9710846226","items":[{"name":"대명세탁","tel":"031-453-9551","addr":"경기도 의왕시 오전동 887 상가 103호","category":"수리서비스 - 세탁소"},{"name":"베이비이안어린이집[아이행복]","tel":"031-343-4882","addr":"경기도 의왕시 오전동 887번지 대명솔채아파트","category":"학원 - 유아원"}]},{"lat":"37.3562859917","long":"126.9670563761","items":[{"name":"대명종합공구","tel":"031-455-4520","addr":"경기도 의왕시 오전동 205-5","category":"기타 - 기계공구"},{"name":"커피101스트릿(의왕테크점)","tel":"070-8802-1012","addr":"경기도 의왕시 오전동 205-5번지 A동 1층","category":"일반휴게음식 - 서양음식"},{"name":"프로카센타세차장","tel":"031-454-1011","addr":"경기도 의왕시 오전동 205-5번지 A동","category":"자동차정비 유지 - 세차장"}]},{"lat":"37.3500259578","long":"126.9745195741","items":[{"name":"대박수산","tel":"031-427-7247","addr":"경기도 의왕시 오전동 329-1번지 백운연립 B동 102호","category":"일반휴게음식 - 일반한식"},{"name":"더 이글루","tel":"070-4010-2164","addr":"경기도 의왕시 오전동 329-1번지 백운연립 B동 2층 5호","category":"일반휴게음식 - 서양음식"},{"name":"동태야 해물아","tel":"031-427-8262","addr":"경기도 의왕시 오전동 329-1번지 백운연립 B동 101호","category":"일반휴게음식 - 일반한식"},{"name":"문갤러리","tel":"031-427-8839","addr":"경기도 의왕시 오전동 329-1번지 백운연립 B동 3호 (오전동)","category":"문화.취미 - 화랑"},{"name":"세컨드 플로어(2nd floor)","tel":"031-429-5100","addr":"경기도 의왕시 오전동 329-1번지 백운연립 B-1","category":"일반휴게음식 - 일반한식"},{"name":"장어세상","tel":"031-457-1691","addr":"경기도 의왕시 오전동 329-1번지 백운연립 B동 3호","category":"일반휴게음식 - 일반한식"}]},{"lat":"37.3575825980","long":"126.9643354966","items":[{"name":"대성금속상사","tel":"031-453-5954","addr":"경기도 의왕시 오전동 133번지 대성금속상사","category":"기타 - 기타 전문점"}]},{"lat":"37.3594201730","long":"126.9628445838","items":[{"name":"대승글로벌 주식회사","tel":"031-346-0720","addr":"경기도 의왕시 오전동 38-16번지 4층","category":"신변잡화 - 기타잡화"}]},{"lat":"37.3598359146","long":"126.9668063582","items":[{"name":"대우사무용가구","tel":"031-455-9102","addr":"경기도 의왕시 오전동 105-17번지","category":"가구 - 일반가구"}]},{"lat":"37.3575838591","long":"126.9684215344","items":[{"name":"대웅건강원","tel":"031-454-6056","addr":"경기도 의왕시 오전동 217-2번지","category":"건강식품 - 기타건강식품"},{"name":"바니헤어","tel":"031-453-1897","addr":"경기도 의왕시 오전동 217-2번지 신안아파트 106호","category":"보건위생 - 미용원"},{"name":"울트라","tel":"031-452-5947","addr":"경기도 의왕시 오전동 217-2번지","category":"의류 - 정장"}]},{"lat":"37.3515303446","long":"126.9732549209","items":[{"name":"대정목재","tel":"031-452-6363","addr":"경기도 의왕시 오전동 348번지","category":"건축자재 - 기타건축자재"},{"name":"새한방역공사","tel":"031-459-3388","addr":"경기도 의왕시 오전동 348번지","category":"용역 서비스 - 종합용역"}]},{"lat":"37.3667555739","long":"126.9663853604","items":[{"name":"더 클린(The Clean)","tel":"070-9852-9080","addr":"경기도 의왕시 오전동 21번지 진달래아파트","category":"자동차정비 유지 - 세차장"},{"name":"리틀해바라기어린이집[아이행복]","tel":"031-427-4914","addr":"경기도 의왕시 오전동 21번지 진달래아파트","category":"학원 - 유아원"},{"name":"삼기냉동플랜트","tel":"032-677-4160","addr":"경기도 의왕시 오전동 21번지 진달래아파트","category":"전기제품 - 냉열기기"}]},{"lat":"37.3591152227","long":"126.9672017702","items":[{"name":"더(The)하라주쿠헤어","tel":"031-454-2201","addr":"경기도 의왕시 오전동 109번지","category":"보건위생 - 미용원"},{"name":"두정쌈밥","tel":"031-429-9020","addr":"경기도 의왕시 오전동 109번지","category":"일반휴게음식 - 일반한식"},{"name":"브릭스어학원","tel":"031-452-0567","addr":"경기도 의왕시 오전동 109번지 205호","category":"학원 - 외국어학원"},{"name":"스킬당구클럽","tel":"031-452-3949","addr":"경기도 의왕시 오전동 109번지 흥명상가 302호 (오전동)","category":"레저업소 - 당 구 장"},{"name":"오전한의원","tel":"031-459-5425","addr":"경기도 의왕시 오전동 109번지 흥명 상가 301호","category":"의원 - 한의원"},{"name":"장혁민의 부대찌개","tel":"031-427-9875","addr":"경기도 의왕시 오전동 109번지 204호","category":"일반휴게음식 - 일반한식"},{"name":"한 잔","tel":"031-427-8838","addr":"경기도 의왕시 오전동 109번지 2층 202호","category":"일반휴게음식 - 주점"},{"name":"한국쇼핑","tel":"031-451-1633","addr":"경기도 의왕시 오전동 109번지","category":"음료식품 - 정육점"}]},{"lat":"37.3534762563","long":"126.9721480511","items":[{"name":"더봄헤어","tel":"031-454-2030","addr":"경기도 의왕시 오전동 846-10번지 1층","category":"보건위생 - 미용원"},{"name":"의왕마트","tel":"031-455-6675","addr":"경기도 의왕시 오전동 846-10번지","category":"유통업 영리 - 슈퍼마켓"}]},{"lat":"37.3585910858","long":"126.9623935223","items":[{"name":"더착한푸드","tel":"031-427-1812","addr":"경기도 의왕시 오전동 124-5번지","category":"일반휴게음식 - 일반한식"}]},{"lat":"37.3588096198","long":"126.9697529086","items":[{"name":"데코라인가구","tel":"031-429-2323","addr":"경기도 의왕시 오전동 231-1번지 2층","category":"가구 - 일반가구"},{"name":"이노센트","tel":"031-429-9963","addr":"경기도 의왕시 오전동 231-1번지","category":"가구 - 일반가구"},{"name":"한빛쇼파","tel":"031-429-2721","addr":"경기도 의왕시 오전동 231-1번지","category":"수리서비스 - 가정용품수리"}]},{"lat":"37.3570572152","long":"126.9989201147","items":[{"name":"도래샘","tel":"031-429-6120","addr":"경기도 의왕시 오전동 751번지","category":"일반휴게음식 - 일반한식"}]},{"lat":"37.3596156558","long":"126.9919216037","items":[{"name":"도래원","tel":"031-429-4777","addr":"경기도 의왕시 오전동 663-14번지","category":"일반휴게음식 - 중국식"}]},{"lat":"37.3519445793","long":"126.9723405471","items":[{"name":"도미노피자 의왕오전점","tel":"031-456-9044","addr":"경기도 의왕시 오전동 315-18번지 1층","category":"일반휴게음식 - 서양음식"},{"name":"호프타운","tel":"031-452-6643","addr":"경기도 의왕시 오전동 315-18번지","category":"일반휴게음식 - 칵테일바"}]},{"lat":"37.3500531725","long":"126.9752983166","items":[{"name":"돈돼지 막창곱창","tel":"031-455-9494","addr":"경기도 의왕시 오전동 333번지 목화케이티이자리에 101동 101호","category":"일반휴게음식 - 일반한식"},{"name":"왔구나 회","tel":"031-429-8822","addr":"경기도 의왕시 오전동 333번지 목화케이티이자리에 101동 1층 105호","category":"일반휴게음식 - 일반한식"},{"name":"주현FLOWER","tel":"031-424-1188","addr":"경기도 의왕시 오전동 333번지 목화케이티이자리에 101동 109호","category":"문화.취미 - 화원"},{"name":"커피하우스","tel":"031-453-5187","addr":"경기도 의왕시 오전동 333번지 목화케이티이자리에 101동 112호","category":"일반휴게음식 - 서양음식"},{"name":"하루하루","tel":"070-4205-3346","addr":"경기도 의왕시 오전동 333번지 목화케이티이자리에 101동 106호","category":"일반휴게음식 - 일반한식"},{"name":"힐링하우스","tel":"031-427-8289","addr":"경기도 의왕시 오전동 333번지 목화케이티이자리에 101동 111호","category":"일반휴게음식 - 일반한식"}]},{"lat":"37.3593055314","long":"126.9710394834","items":[{"name":"동경아트","tel":"031-459-6662","addr":"경기도 의왕시 오전동 887번지 대명솔채아파트","category":"회원제형태 - 기타4"}]},{"lat":"37.3501884629","long":"126.9758964406","items":[{"name":"동네포차","tel":"070-1111-1111","addr":"경기도 의왕시 오전동 333번지 목화케이티이자리에 102동 110호","category":"일반휴게음식 - 일반한식"},{"name":"땅스부대찌개","tel":"031-429-8599","addr":"경기도 의왕시 오전동 333번지 목화케이티이자리에 상가 102동 104호","category":"일반휴게음식 - 일반한식"},{"name":"브링웰피자 의왕오전.고천점","tel":"031-451-0099","addr":"경기도 의왕시 오전동 333번지 케이티이자리에단지 상가 102동 105호","category":"일반휴게음식 - 서양음식"},{"name":"송이샤브샤브칼국수","tel":"031-456-0532","addr":"경기도 의왕시 오전동 333번지 목화케이티이상가 102동 106호 (오전동)","category":"일반휴게음식 - 일반한식"},{"name":"수정약국","tel":"031-427-2944","addr":"경기도 의왕시 오전동 333번지 목화케이티이자리에 102동 111호","category":"약국 - 약국"},{"name":"스마일통신","tel":"031-477-7942","addr":"경기도 의왕시 오전동 333번지 목화케이티이자리에 102동 102호","category":"사무통신 - 통신기기"},{"name":"씨유의왕점","tel":"02-1577-8007","addr":"경기도 의왕시 오전동 333번지 목화케이티이자리에 102동 112호","category":"유통업 영리 - 편 의 점"},{"name":"한상차림","tel":"031-458-6966","addr":"경기도 의왕시 오전동 333번지 목화케이티이자리에 102동 108호","category":"일반휴게음식 - 일반한식"}]},{"lat":"37.3552811811","long":"126.9867527634","items":[{"name":"동반","tel":"031-452-4768","addr":"경기도 의왕시 오전동 476-3번지","category":"일반휴게음식 - 중국식"}]},{"lat":"37.3554584902","long":"126.9721472428","items":[{"name":"동아공종","tel":"031-346-7677","addr":"경기도 의왕시 오전동 849","category":"용역 서비스 - 기타용역서비스"}]},{"lat":"37.3536744503","long":"126.9720351022","items":[{"name":"동양인쇄","tel":"031-427-4646","addr":"경기도 의왕시 오전동 846-8번지","category":"서적문구 - 출판 및 인쇄물"}]},{"lat":"37.3624135503","long":"126.9692997991","items":[{"name":"동해수산","tel":"031-421-5006","addr":"경기도 의왕시 오전동 100번지 모락산현대아파트","category":"음료식품 - 농·축·수산품"},{"name":"블럭아이 오전교육원","tel":"031-346-4620","addr":"경기도 의왕시 오전동 100번지 모락산현대아파트","category":"서적문구 - 완구점"},{"name":"해오름어린이집[아이행복]","tel":"031-347-7373","addr":"경기도 의왕시 오전동 100번지 모락산현대아파트","category":"학원 - 유아원"}]},{"lat":"37.3545038556","long":"126.9738971075","items":[{"name":"두루터","tel":"070-4649-1110","addr":"경기도 의왕시 오전동 291-2번지 우성다세대","category":"일반휴게음식 - 일반한식"}]},{"lat":"37.3586469607","long":"126.9680937090","items":[{"name":"두부장터","tel":"031-477-6565","addr":"경기도 의왕시 오전동 104-47번지","category":"음료식품 - 기타음료식품"},{"name":"로렌","tel":"031-343-5471","addr":"경기도 의왕시 오전동 104-47번지 2층","category":"의류 - 정장"},{"name":"미더스통신","tel":"070-7565-4010","addr":"경기도 의왕시 오전동 104-47번지","category":"사무통신 - 통신기기"},{"name":"보떼화장품","tel":"031-456-5744","addr":"경기도 의왕시 오전동 104-47번지","category":"보건위생 - 화장품"},{"name":"한국인테리어설비","tel":"031-456-0485","addr":"경기도 의왕시 오전동 104-47번지","category":"건축자재 - 인테리어전문"}]},{"lat":"37.3611972417","long":"126.9695148121","items":[{"name":"드림정보","tel":"02-557-0309","addr":"경기도 의왕시 오전동 100번지 모락산현대아파트","category":"회원제형태 - 기타1"}]},{"lat":"37.3593952636","long":"126.9696962127","items":[{"name":"디자인 아르떼","tel":"","addr":"경기도 의왕시 오전동 104-20번지 성원이화아파트","category":"건축자재 - 인테리어전문"}]},{"lat":"37.3596469061","long":"126.9674837112","items":[{"name":"뚜레쥬르 오전중앙점","tel":"031-429-0044","addr":"경기도 의왕시 오전동 104-5번지 1,2호","category":"음료식품 - 제과점"},{"name":"모본 한의원 네트워크","tel":"","addr":"경기도 의왕시 오전동 104-5번지 만주빌딩 2층 1호","category":"보건위생 - 화장품"},{"name":"본죽","tel":"031-427-0660","addr":"경기도 의왕시 오전동 104-5번지 외1필지 6호","category":"일반휴게음식 - 일반한식"},{"name":"사랑마루","tel":"031-454-2425","addr":"경기도 의왕시 오전동 104-5번지 지층 1호","category":"일반휴게음식 - 주점"},{"name":"어바웃샤브","tel":"031-452-9428","addr":"경기도 의왕시 오전동 104-5번지 3층","category":"일반휴게음식 - 일반한식"},{"name":"의왕오케이치과","tel":"","addr":"경기도 의왕시 오전동 104-5번지","category":"의원 - 치과의원"},{"name":"죽엽청객잔","tel":"031-427-2110","addr":"경기도 의왕시 오전동 104-5번지 죽엽청객잔","category":"일반휴게음식 - 중국식"},{"name":"찬스노래연습장","tel":"031-427-8430","addr":"경기도 의왕시 오전동 104-5번지 지하1층","category":"레저업소 - 노 래 방"},{"name":"태린슈즈","tel":"031-427-9651","addr":"경기도 의왕시 오전동 104-5번지 105호","category":"신변잡화 - 제화"},{"name":"텬고","tel":"031-451-1527","addr":"경기도 의왕시 오전동 104-5번지 104호","category":"일반휴게음식 - 스넥"},{"name":"푸른경희한의원","tel":"031-453-0027","addr":"경기도 의왕시 오전동 104-5만주빌딩2-1","category":"의원 - 한의원"}]},{"lat":"37.3543056184","long":"126.9738407492","items":[{"name":"뛰놀GYM","tel":"","addr":"경기도 의왕시 오전동 292번지 외 1필지","category":"학원 - 예·체능계학원"}]},{"lat":"37.3600881745","long":"126.9667272231","items":[{"name":"럭셔리노래연습장","tel":"031-427-3737","addr":"경기도 의왕시 오전동 32-152번지","category":"레저업소 - 노 래 방"},{"name":"아울렛가구","tel":"031-455-3996","addr":"경기도 의왕시 오전동 32-152번지 지하층","category":"가구 - 일반가구"},{"name":"화진식당","tel":"031-429-9291","addr":"경기도 의왕시 오전동 32-152번지","category":"일반휴게음식 - 일반한식"}]},{"lat":"37.3514589569","long":"126.9761668613","items":[{"name":"로뎀나무어린이집[아이행복]","tel":"031-457-4929","addr":"경기도 의왕시 오전동 886번지 의왕모락산동문굿모닝힐아파트","category":"학원 - 유아원"},{"name":"로뎀나무어린이집[아이행복]","tel":"031-427-7586","addr":"경기도 의왕시 오전동 886번지 의왕모락산동문굿모닝힐아파트","category":"학원 - 유아원"}]},{"lat":"37.3511429077","long":"126.9732550732","items":[{"name":"로또복권방","tel":"031-477-4813","addr":"경기도 의왕시 오전동 324-9번지 1층 코너점포","category":"음료식품 - 기타음료식품"}]},{"lat":"37.3580608743","long":"126.9666717583","items":[{"name":"로지카 수학학원","tel":"031-360-3353","addr":"경기도 의왕시 오전동 838-6번지 주원빌딩 401호","category":"학원 - 보습학원"},{"name":"로지카수학학원","tel":"031-360-3353","addr":"경기도 의왕시 오전동 838-6번지 주원빌딩 401호 일부","category":"학원 - 보습학원"},{"name":"의왕예치과의원","tel":"031-429-7528","addr":"경기도 의왕시 오전동 838-6번지 선산빌딩 5층","category":"의원 - 치과의원"},{"name":"이화한의원","tel":"031-451-1505","addr":"경기도 의왕시 오전동 838-6번지","category":"의원 - 한의원"},{"name":"제일신경외과의원","tel":"031-427-7575","addr":"경기도 의왕시 오전동 838-6번지 주원빌딩 3층","category":"의원 - 의원"}]},{"lat":"37.3600344064","long":"126.9676979967","items":[{"name":"롯데리아의왕오전","tel":"031-427-0668","addr":"경기도 의왕시 오전동 101-9번지 1층","category":"일반휴게음식 - 서양음식"},{"name":"백운한우곱창","tel":"031-429-3667","addr":"경기도 의왕시 오전동 101-9번지 2층","category":"일반휴게음식 - 일반한식"},{"name":"펀비어킹 오전동점","tel":"","addr":"경기도 의왕시 오전동 101-9번지 2층 206호","category":"일반휴게음식 - 주점"}]},{"lat":"37.3603930024","long":"126.9620652074","items":[{"name":"루이스 스틸","tel":"031-464-7770","addr":"경기도 의왕시 오전동 37-1번지","category":"자동차정비 유지 - 카인테리어"}]},{"lat":"37.3586120251","long":"126.9720782313","items":[{"name":"리틀이안어린이집[아이행복]","tel":"031-347-5336","addr":"경기도 의왕시 오전동 233번지 신미주해당화아파","category":"학원 - 유아원"}]},{"lat":"37.3503690161","long":"126.9774764606","items":[{"name":"마산아구탕","tel":"031-429-8555","addr":"경기도 의왕시 오전동 377번지 파도회수산","category":"일반휴게음식 - 일반한식"}]},{"lat":"37.3570031057","long":"126.9976672259","items":[{"name":"만들기아저씨","tel":"070-4282-2467","addr":"경기도 의왕시 오전동 742-1번지","category":"신변잡화 - 기념품점"}]},{"lat":"37.3516472790","long":"126.9724761057","items":[{"name":"만물상회","tel":"031-452-4460","addr":"경기도 의왕시 오전동 314-3","category":"회원제형태 - 기타4"}]},{"lat":"37.3505578846","long":"126.9759188810","items":[{"name":"맥시칸치킨","tel":"031-456-3350","addr":"경기도 의왕시 오전동 342-5번지 1층","category":"일반휴게음식 - 스넥"},{"name":"신원빌딩.나빌레라","tel":"031-456-3430","addr":"경기도 의왕시 오전동 342-5번지","category":"일반휴게음식 - 일반한식"},{"name":"종로떡집","tel":"031-459-3634","addr":"경기도 의왕시 오전동 342-5번지 신원빌딩 1층","category":"음료식품 - 제과점"},{"name":"홍가네경정비카센타","tel":"031-56-2777","addr":"경기도 의왕시 오전동 342-5번지","category":"자동차정비 유지 - 자동차정비"}]},{"lat":"37.3603126834","long":"126.9643679636","items":[{"name":"맥캔치킨","tel":"031-454-3171","addr":"경기도 의왕시 오전동 52-1번지 유림상가맥시칸치킨","category":"일반휴게음식 - 일반한식"},{"name":"자매식당","tel":"031-429-3339","addr":"경기도 의왕시 오전동 52-1번지 1층 4호","category":"일반휴게음식 - 일반한식"},{"name":"컴맹컴퓨터","tel":"031-453-3886","addr":"경기도 의왕시 오전동 52-1번지 유림 상가 105호","category":"사무통신 - 컴퓨터"}]},{"lat":"37.3518375272","long":"126.9768100598","items":[{"name":"머리염색전문점","tel":"031-454-3845","addr":"경기도 의왕시 오전동 367-2번지 궁전상가 1층 103호","category":"보건위생 - 화장품"},{"name":"테트리스찜닭 의왕1호점","tel":"070-8885-5959","addr":"경기도 의왕시 오전동 367-2번지 궁전상가 2층 202호","category":"일반휴게음식 - 일반한식"}]},{"lat":"37.3617288115","long":"126.9694129845","items":[{"name":"메모아(Memoire)","tel":"","addr":"경기도 의왕시 오전동 100번지 모락산현대아파트","category":"신변잡화 - 액세서리"},{"name":"포유포유닷컴","tel":"070-4079-6749","addr":"경기도 의왕시 오전동 100번지 모락산현대아파트","category":"회원제형태 - 기타4"}]},{"lat":"37.3613140332","long":"126.9683295248","items":[{"name":"메스로드","tel":"031-346-2569","addr":"경기도 의왕시 오전동 100번지 모락산현대아파트 103동 1904호","category":"회원제형태 - 학원"},{"name":"진서유통","tel":"","addr":"경기도 의왕시 오전동 100번지 모락산현대아파트","category":"음료식품 - 기타음료식품"}]},{"lat":"37.3586726927","long":"126.9639285868","items":[{"name":"멘토링목회연구원","tel":"031-453-0091","addr":"경기도 의왕시 오전동 122-1번지 2층 예전교회","category":"서적문구 - 전문서적"}]},{"lat":"37.3605830938","long":"126.9646951730","items":[{"name":"명성식당","tel":"031-456-6356","addr":"경기도 의왕시 오전동 53-4번지","category":"일반휴게음식 - 일반한식"}]},{"lat":"37.3640615361","long":"126.9663640887","items":[{"name":"모락e해법수학교습소","tel":"031-429-7708","addr":"경기도 의왕시 오전동 27-1번지 해모로 상가 202호","category":"학원 - 보습학원"},{"name":"사랑어린이집[아이행복]","tel":"031-455-1516","addr":"경기도 의왕시 오전동 27-1번지 관리동 1층 (오전동)","category":"학원 - 유아원"},{"name":"석사경희대한진태권도","tel":"031-427-0806","addr":"경기도 의왕시 오전동 27-1번지 한진그랑빌 상가 3층","category":"학원 - 예·체능계학원"},{"name":"신공간미술교습소","tel":"031-452-2532","addr":"경기도 의왕시 오전동 27-1번지 해모로 상가 402호","category":"학원 - 예·체능계학원"},{"name":"양재희수학교습소","tel":"031-344-2400","addr":"경기도 의왕시 오전동 27-1번지 한진로즈힐 204호 상가동","category":"회원제형태 - 학원"},{"name":"이영희벨로뜨헤어","tel":"031-429-4245","addr":"경기도 의왕시 오전동 27-1번지 한진로즈힐 상가동104","category":"보건위생 - 미용원"},{"name":"주은혜음악학원","tel":"031-459-1536","addr":"경기도 의왕시 오전동 27-1번지 한진로즈힐 상가동 401호","category":"학원 - 예·체능계학원"},{"name":"한진마트","tel":"031-427-1011","addr":"경기도 의왕시 오전동 27-1번지 한진로즈힐","category":"유통업 영리 - 슈퍼마켓"},{"name":"한진세탁","tel":"","addr":"경기도 의왕시 오전동 27-1번지 해모로 상가 105호","category":"수리서비스 - 세탁소"}]},{"lat":"37.3698371949","long":"126.9668918829","items":[{"name":"모락고등학교","tel":"031-428-2200","addr":"경기도 의왕시 오전동 산58-10번지","category":"학원 - 초중고교육기관"},{"name":"모락고등학교_수업료","tel":"031-428-2200","addr":"경기도 의왕시 오전동 산58-10번지","category":"학원 - 초중고교육기관"}]},{"lat":"37.3524222104","long":"126.9727015256","items":[{"name":"모락국수","tel":"031-451-4708","addr":"경기도 의왕시 오전동 314-13번지 대성빌딩 1층 101호","category":"일반휴게음식 - 스넥"},{"name":"소리샘노래연습장","tel":"031-455-5877","addr":"경기도 의왕시 오전동 314-13번지","category":"레저업소 - 노 래 방"},{"name":"이브가머리하는곳미용실","tel":"031-454-1404","addr":"경기도 의왕시 오전동 314-13번지 대성빌딩 1층","category":"보건위생 - 미용원"},{"name":"컴퓨터생각","tel":"","addr":"경기도 의왕시 오전동 314-13번지 대성빌딩 1층 102호","category":"수리서비스 - 사무·통신기기수리"},{"name":"후랭크치킨","tel":"031-455-9428","addr":"경기도 의왕시 오전동 314-13번지","category":"일반휴게음식 - 주점"}]},{"lat":"37.3593945780","long":"126.9673370900","items":[{"name":"모락산노래연습장","tel":"031-427-3391","addr":"경기도 의왕시 오전동 108번지 현대프라자 지하 비02","category":"레저업소 - 노 래 방"},{"name":"현대사우나","tel":"031-459-7373","addr":"경기도 의왕시 오전동 108번지 현대프라자 5,6층 501호,601호","category":"보건위생 - 사우나"}]},{"lat":"37.3672514878","long":"126.9675591602","items":[{"name":"모락산휴게소","tel":"031-429-1597","addr":"경기도 의왕시 오전동 17-15번지 지하1층","category":"일반휴게음식 - 일반한식"}]},{"lat":"37.3679722647","long":"126.9674459327","items":[{"name":"모락중학교","tel":"031-477-7091","addr":"경기도 의왕시 오전동 11-4번지 모락중학교","category":"학원 - 초중고교육기관"}]},{"lat":"37.3583960531","long":"126.9731393465","items":[{"name":"모락초등학교","tel":"","addr":"경기도 의왕시 오전동 235번지 모락초등학교","category":"학원 - 초중고교육기관"},{"name":"모락초등학교병설유치원[아이행복]","tel":"031-459-9733","addr":"경기도 의왕시 오전동 235번지 모락초등학교","category":"학원 - 유치원"}]},{"lat":"37.3558354018","long":"126.9667856990","items":[{"name":"모아푸드","tel":"031-451-2838","addr":"경기도 의왕시 오전동 195-3번지 1층","category":"일반휴게음식 - 일반한식"}]},{"lat":"37.3622234081","long":"126.9661730819","items":[{"name":"목림가구","tel":"031-452-5116","addr":"경기도 의왕시 오전동 30-5번지","category":"가구 - 일반가구"},{"name":"우드코","tel":"031-429-4773","addr":"경기도 의왕시 오전동 30-5번지 ,1~5층","category":"가구 - 일반가구"}]},{"lat":"37.3541968487","long":"126.9713125273","items":[{"name":"몸반테라피","tel":"","addr":"경기도 의왕시 오전동 846번지","category":"레저업소 - 헬스클럽"}]},{"lat":"37.3573773262","long":"126.9709161371","items":[{"name":"뮤엠영어 동백점","tel":"070-7644-3048","addr":"경기도 의왕시 오전동 849번지 동백아파트","category":"학원 - 보습학원"},{"name":"아르코발레노","tel":"031-689-4721","addr":"경기도 의왕시 오전동 849번지 동백아파트","category":"의류 - 정장"}]},{"lat":"37.3517013747","long":"126.9726115221","items":[{"name":"뮤지컬","tel":"031-451-3115","addr":"경기도 의왕시 오전동 315-21번지 1층","category":"일반휴게음식 - 칵테일바"}]},{"lat":"37.3533408538","long":"126.9712000182","items":[{"name":"미가데코","tel":"031-455-5155","addr":"경기도 의왕시 오전동 843-9번지 102호","category":"직물 - 카페트,커튼,천막,지물"},{"name":"은혜애찬","tel":"031-452-2321","addr":"경기도 의왕시 오전동 843-9번지 1층","category":"음료식품 - 농·축·수산품"}]},{"lat":"37.3597011512","long":"126.9681045101","items":[{"name":"민 네트워크스 (MIN Networks)","tel":"","addr":"경기도 의왕시 오전동 104번지 매화아파트","category":"수리서비스 - 사무·통신기기수리"},{"name":"에스앤피","tel":"031-456-1798","addr":"경기도 의왕시 오전동 104번지 매화아파트","category":"용역 서비스 - 기타용역서비스"},{"name":"잡동사니","tel":"031-0000-0000","addr":"경기도 의왕시 오전동 104번지 매화아파트","category":"문화.취미 - 화원"}]},{"lat":"37.3526474557","long":"126.9726675754","items":[{"name":"민네일","tel":"031-1111-1111","addr":"경기도 의왕시 오전동 281-18번지 1층","category":"보건위생 - 피부미용실"},{"name":"차니인테리어","tel":"031-429-5614","addr":"경기도 의왕시 오전동 281-18번지 1층","category":"건축자재 - 인테리어전문"},{"name":"찹쌀누룽지","tel":"070-4410-2585","addr":"경기도 의왕시 오전동 281-18번지","category":"음료식품 - 기타음료식품"}]},{"lat":"37.3535300216","long":"126.9710306368","items":[{"name":"민속갈비","tel":"031-452-8871","addr":"경기도 의왕시 오전동 843-7번지","category":"일반휴게음식 - 일반한식"},{"name":"민속노래연습장","tel":"031-454-6659","addr":"경기도 의왕시 오전동 843-7번지","category":"레저업소 - 노 래 방"},{"name":"쫑아네막창","tel":"031-452-8871","addr":"경기도 의왕시 오전동 843-7번지 1층","category":"일반휴게음식 - 일반한식"}]},{"lat":"37.3673500425","long":"126.9657416073","items":[{"name":"민콜렉션","tel":"031-427-9289","addr":"경기도 의왕시 오전동 18번지","category":"의류 - 정장"},{"name":"투존치킨 호계오전점","tel":"031-427-8313","addr":"경기도 의왕시 오전동 18번지","category":"일반휴게음식 - 스넥"}]},{"lat":"37.3569210025","long":"126.9865605283","items":[{"name":"바다향 왕코다리 백운호수점","tel":"031-453-8586","addr":"경기도 의왕시 오전동 525번지","category":"일반휴게음식 - 일반한식"}]},{"lat":"37.3653855713","long":"126.9649185103","items":[{"name":"바디팩토리","tel":"031-454-3322","addr":"경기도 의왕시 오전동 24번지 신원수선화아파트","category":"건강식품 - 기타건강식품"}]},{"lat":"37.3527296534","long":"126.9773627981","items":[{"name":"바우 컴퍼니 Bow company","tel":"","addr":"경기도 의왕시 오전동 853-16번지 1층","category":"보건위생 - 화장품"}]},{"lat":"37.3537827151","long":"126.9725881125","items":[{"name":"바하음악학원","tel":"031-458-5406","addr":"경기도 의왕시 오전동 847-5번지 1층","category":"학원 - 예·체능계학원"}]},{"lat":"37.3505037668","long":"126.9756706009","items":[{"name":"반찬백화점","tel":"031-427-9372","addr":"경기도 의왕시 오전동 342-1번지","category":"음료식품 - 기타음료식품"},{"name":"이지헤어클럽","tel":"031-427-8238","addr":"경기도 의왕시 오전동 342-1번지 1층","category":"보건위생 - 미용원"},{"name":"조명진블랙헤어","tel":"031-455-6909","addr":"경기도 의왕시 오전동 342-1번지 1층","category":"보건위생 - 미용원"}]},{"lat":"37.3537555181","long":"126.9719447744","items":[{"name":"백련관","tel":"031-457-9700","addr":"경기도 의왕시 오전동 846-7번지","category":"일반휴게음식 - 중국식"}]},{"lat":"37.3599165849","long":"126.9654517898","items":[{"name":"뱅크E&C","tel":"070-7168-5872","addr":"경기도 의왕시 오전동 32-103번지 101호","category":"건축자재 - 인테리어전문"}]},{"lat":"37.3582500285","long":"126.9664797800","items":[{"name":"보경짱의 댄스수업 학원","tel":"031-000-0000","addr":"경기도 의왕시 오전동 838-5번지 진양빌딩 3층","category":"학원 - 예·체능계학원"},{"name":"아싸노래연습장","tel":"031-458-1723","addr":"경기도 의왕시 오전동 838-5번지 진양빌딩 지층","category":"레저업소 - 노 래 방"},{"name":"안경박사","tel":"031-453-0453","addr":"경기도 의왕시 오전동 838-5번지 진양빌딩 101호","category":"보건위생 - 안경"},{"name":"의왕동물병원","tel":"031-454-7582","addr":"경기도 의왕시 오전동 838-5번지 진양빌딩 102호","category":"기타의료기관 - 동물병원"}]},{"lat":"37.3571685506","long":"126.9656450395","items":[{"name":"복성원","tel":"031-454-4720","addr":"경기도 의왕시 오전동 211-8번지","category":"일반휴게음식 - 중국식"},{"name":"삼화슈퍼","tel":"031-454-5835","addr":"경기도 의왕시 오전동 211-8","category":"유통업 영리 - 슈퍼마켓"}]},{"lat":"37.3504223614","long":"126.9743388437","items":[{"name":"본인더블랙","tel":"","addr":"경기도 의왕시 오전동 324-6번지","category":"신변잡화 - 액세서리"}]},{"lat":"37.3588903863","long":"126.9686128260","items":[{"name":"봉구비어 의왕오전동점","tel":"","addr":"경기도 의왕시 오전동 104-1번지 2층","category":"일반휴게음식 - 주점"},{"name":"숲속고래미술공작소미술교습소","tel":"031-451-5644","addr":"경기도 의왕시 오전동 104-1번지 2층","category":"학원 - 예·체능계학원"},{"name":"이백일호","tel":"031-427-1877","addr":"경기도 의왕시 오전동 104-1번지 2층","category":"일반휴게음식 - 주점"},{"name":"캘리포니아 레스펍 오전점","tel":"031-452-7007","addr":"경기도 의왕시 오전동 104-1번지","category":"일반휴게음식 - 일반한식"},{"name":"튼튼영어마스터클럽어학원","tel":"031-383-0906","addr":"경기도 의왕시 오전동 104-1번지","category":"학원 - 외국어학원"}]},{"lat":"37.3560056849","long":"126.9639186782","items":[{"name":"부강공업사","tel":"031-459-5864","addr":"경기도 의왕시 오전동 182번지","category":"기타 - 기계공구"},{"name":"예향식당","tel":"031-344-3533","addr":"경기도 의왕시 오전동 182번지 (주)대림소방공사 B동 2층","category":"일반휴게음식 - 일반한식"},{"name":"해맑음식품","tel":"031-427-1277","addr":"경기도 의왕시 오전동 182번지","category":"음료식품 - 기타음료식품"}]},{"lat":"37.3542787414","long":"126.9744728261","items":[{"name":"부부수산","tel":"031-456-5798","addr":"경기도 의왕시 오전동 299-5번지","category":"음료식품 - 농·축·수산품"}]},{"lat":"37.3551730562","long":"126.9867302125","items":[{"name":"부산복","tel":"031-429-8964","addr":"경기도 의왕시 오전동 476-15번지 1층","category":"일반휴게음식 - 일반한식"}]},{"lat":"37.3504496090","long":"126.9752530262","items":[{"name":"부자식당","tel":"031-456-9292","addr":"경기도 의왕시 오전동 344-6번지","category":"일반휴게음식 - 일반한식"},{"name":"윤헤어","tel":"031-427-3722","addr":"경기도 의왕시 오전동 344-6번지 1층","category":"보건위생 - 미용원"}]},{"lat":"37.3547269899","long":"126.9662557422","items":[{"name":"블루윈테크","tel":"031-427-1113","addr":"경기도 의왕시 오전동 884번지","category":"기타 - 기계공구"},{"name":"주식회사 블루윈테크","tel":"031-427-1113","addr":"경기도 의왕시 오전동 884번지","category":"기타 - 기계공구"}]},{"lat":"37.3560876169","long":"126.9665598347","items":[{"name":"비앤제이","tel":"031-689-5558","addr":"경기도 의왕시 오전동 194번지 3층","category":"보건위생 - 의료용품"}]},{"lat":"37.3575283107","long":"126.9636469936","items":[{"name":"비엠테크놀러지주식회사","tel":"031-451-0042","addr":"경기도 의왕시 오전동 132-4번지","category":"보건위생 - 미용재료"}]},{"lat":"37.3533682190","long":"126.9724754115","items":[{"name":"뽀글이네","tel":"031-454-8746","addr":"경기도 의왕시 오전동 278-2번지 1층","category":"일반휴게음식 - 스넥"}]},{"lat":"37.3579801198","long":"126.9677892555","items":[{"name":"뽀뽀뽀어린이집[아이행복]","tel":"031-429-4705","addr":"경기도 의왕시 오전동 216-1번지 신안아파트1단지","category":"학원 - 유아원"},{"name":"앳 홈 (at home)","tel":"031-353-3912","addr":"경기도 의왕시 오전동 216-1번지 신안아파트1단지","category":"건축자재 - 인테리어전문"}]},{"lat":"37.3581689614","long":"126.9665588315","items":[{"name":"뽀샤시(c)피부관리","tel":"031-429-4239","addr":"경기도 의왕시 오전동 838-7번지","category":"회원제형태 - 기타4"}]},{"lat":"37.3581109215","long":"126.9915041860","items":[{"name":"산우물","tel":"031-455-5292","addr":"경기도 의왕시 오전동 654-3번지","category":"일반휴게음식 - 일반한식"}]},{"lat":"37.3586966455","long":"126.9921926390","items":[{"name":"산촌보리밥","tel":"031-452-4964","addr":"경기도 의왕시 오전동 657번지","category":"일반휴게음식 - 일반한식"}]},{"lat":"37.3537285816","long":"126.9723059637","items":[{"name":"삼삼설비","tel":"031-458-3331","addr":"경기도 의왕시 오전동 847-2번지","category":"기타 - 기계공구"}]},{"lat":"37.3620620743","long":"126.9690177540","items":[{"name":"삼삼칠에프에프에프(337FFF)","tel":"","addr":"경기도 의왕시 오전동 100번지 모락산현대아파트","category":"문화.취미 - 민예·공예품"}]},{"lat":"37.3538366830","long":"126.9722269120","items":[{"name":"삼성출판사경기","tel":"031-456-3120","addr":"경기도 의왕시 오전동 847번지","category":"서적문구 - 출판 및 인쇄물"},{"name":"태성서적","tel":"031-453-7685","addr":"경기도 의왕시 오전동 847번지 지층 1호","category":"회원제형태 - 서적"}]},{"lat":"37.3525855514","long":"126.9776450132","items":[{"name":"삼손종합건설","tel":"070-4108-2532","addr":"경기도 의왕시 오전동 853-18번지","category":"건축자재 - 인테리어전문"}]},{"lat":"37.3520628847","long":"126.9772840179","items":[{"name":"삼신하이마트","tel":"","addr":"경기도 의왕시 오전동 산149-3","category":"유통업 영리 - 슈퍼마켓"},{"name":"스타슈퍼","tel":"031-456-6029","addr":"경기도 의왕시 오전동 산149-3번지 삼신9차 상가-2","category":"유통업 영리 - 슈퍼마켓"}]},{"lat":"37.3566184049","long":"126.9640086594","items":[{"name":"삼일공업사","tel":"031-451-2004","addr":"경기도 의왕시 오전동 136-4번지","category":"기타 - 기타 전문점"}]},{"lat":"37.3503955030","long":"126.9750611786","items":[{"name":"삼일정육식당 삼일축산","tel":"031-429-3268","addr":"경기도 의왕시 오전동 335-4번지","category":"일반휴게음식 - 일반한식"}]},{"lat":"37.3610327304","long":"126.9620874367","items":[{"name":"삼흥차유리","tel":"031-455-2114","addr":"경기도 의왕시 오전동 35-6번지","category":"자동차정비 유지 - 자동차부품"},{"name":"이태리명과","tel":"031-452-1488","addr":"경기도 의왕시 오전동 35-6번지 신남빌딩 1호","category":"음료식품 - 제과점"},{"name":"제웅상사","tel":"031-453-4767","addr":"경기도 의왕시 오전동 35-6번지","category":"자동차정비 유지 - 자동차부품"},{"name":"조선집","tel":"031-427-8863","addr":"경기도 의왕시 오전동 35-6번지 2층","category":"일반휴게음식 - 일반한식"},{"name":"클로버홈클리닝","tel":"","addr":"경기도 의왕시 오전동 35-6번지 신남빌딩 102호","category":"용역 서비스 - 종합용역"},{"name":"클로버홈클리닝","tel":"031-453-5140","addr":"경기도 의왕시 오전동 35-6번지 102호","category":"용역 서비스 - 종합용역"}]},{"lat":"37.3535331295","long":"126.9861662244","items":[{"name":"상록수농원","tel":"031-452-1420","addr":"경기도 의왕시 오전동 435-3","category":"문화.취미 - 화원"}]},{"lat":"37.3596462984","long":"126.9655083626","items":[{"name":"상흥테크","tel":"031-453-6743","addr":"경기도 의왕시 오전동 32-121번지","category":"기타 - 기타 전문점"}]},{"lat":"37.3561687013","long":"126.9665372212","items":[{"name":"새마을장갑공장","tel":"031-452-9030","addr":"경기도 의왕시 오전동 190-8번지","category":"신변잡화 - 기타잡화"}]},{"lat":"37.3561068644","long":"126.9708038042","items":[{"name":"샘물그린유통가맹점","tel":"02-2140-8723","addr":"경기도 의왕시 오전동 849번지 동백아파트","category":"유통업 영리 - 기타유통업"},{"name":"한신튜나","tel":"031-459-2421","addr":"경기도 의왕시 오전동 849번지 동백아파트","category":"음료식품 - 농·축·수산품"}]},{"lat":"37.3517035114","long":"126.9826113768","items":[{"name":"서정원예종묘","tel":"031-429-4075","addr":"경기도 의왕시 오전동 408-1번지","category":"농업 - 비료,사료,종자"}]},{"lat":"37.3507015333","long":"126.9737518469","items":[{"name":"서해그랑블 명품수선","tel":"031-429-9449","addr":"경기도 의왕시 오전동 324-4번지 의왕서해그랑블더스타케어상가 1층 223호","category":"수리서비스 - 세탁소"},{"name":"효나소아청소년과의원","tel":"031-427-8263","addr":"경기도 의왕시 오전동 324-4번지 의왕서해그랑블 더 스타스퀘어상가 1동 226,242호","category":"의원 - 의원"}]},{"lat":"37.3585666506","long":"126.9708591949","items":[{"name":"서현교실","tel":"070-4062-4042","addr":"경기도 의왕시 오전동 230번지 성원1차이화아파트","category":"회원제형태 - 학원"}]},{"lat":"37.3533416853","long":"126.9744731794","items":[{"name":"선경인테리어","tel":"031-453-9292","addr":"경기도 의왕시 오전동 309-9번지 대림다세대 B동 301호","category":"건축자재 - 인테리어전문"}]},{"lat":"37.3503058913","long":"126.9772281831","items":[{"name":"선메디칼","tel":"031-456-7125","addr":"경기도 의왕시 오전동 375-12번지","category":"기타의료기관 - 기타의료기관 및 기타"},{"name":"선약국","tel":"031-456-7125","addr":"경기도 의왕시 오전동 375-12번지","category":"약국 - 약국"}]},{"lat":"37.3539444735","long":"126.9709740274","items":[{"name":"선일설비","tel":"031-381-0808","addr":"경기도 의왕시 오전동 844-13번지","category":"주방용구 - 기타주방용구"}]},{"lat":"37.3611688981","long":"126.9651463935","items":[{"name":"선정푸드","tel":"031-427-5553","addr":"경기도 의왕시 오전동 32-140, 외 3필지","category":"일반휴게음식 - 일반한식"}]},{"lat":"37.3581108862","long":"126.9911429867","items":[{"name":"성경만두요리전문점 백운로점","tel":"031-457-2662","addr":"경기도 의왕시 오전동 616-3번지","category":"일반휴게음식 - 일반한식"}]},{"lat":"37.3584492926","long":"126.9700352552","items":[{"name":"성원행복나무어린이집[아이행복]","tel":"031-343-7090","addr":"경기도 의왕시 오전동 230번지 성원1차이화아파트","category":"학원 - 유아원"},{"name":"컴박사","tel":"031-454-4787","addr":"경기도 의왕시 오전동 230 성원상가 202호","category":"수리서비스 - 사무·통신기기수리"}]},{"lat":"37.3657640368","long":"126.9650424945","items":[{"name":"세모네모어린이집[아이행복]","tel":"031-454-7716","addr":"경기도 의왕시 오전동 24번지 신원수선화아파트","category":"학원 - 유아원"}]},{"lat":"37.3608352717","long":"126.9643676965","items":[{"name":"세븐","tel":"031-465-3747","addr":"경기도 의왕시 오전동 53번지 지층","category":"수리서비스 - 사무·통신기기수리"}]},{"lat":"37.3600071348","long":"126.9668965784","items":[{"name":"세븐일레븐.의왕가구거리점","tel":"02-2127-5850","addr":"경기도 의왕시 오전동 32-157번지","category":"유통업 영리 - 편 의 점"},{"name":"춘천바베큐","tel":"031-429-5892","addr":"경기도 의왕시 오전동 32-157번지","category":"일반휴게음식 - 일반한식"}]},{"lat":"37.3501701635","long":"126.9747001005","items":[{"name":"세일카프라자","tel":"031-457-1402","addr":"경기도 의왕시 오전동 334-1번지","category":"자동차정비 유지 - 자동차정비"}]},{"lat":"37.3602495682","long":"126.9642325423","items":[{"name":"세탁나라","tel":"031-454-7982","addr":"경기도 의왕시 오전동 52-1번지 1층 3호","category":"수리서비스 - 세탁소"}]},{"lat":"37.3666111403","long":"126.9655161965","items":[{"name":"소망속기사무소","tel":"031-535-7791","addr":"경기도 의왕시 오전동 21번지 진달래아파트","category":"용역 서비스 - 사무서비스"},{"name":"수나이더연구소","tel":"","addr":"경기도 의왕시 오전동 21번지 진달래아파트","category":"서적문구 - 출판 및 인쇄물"}]},{"lat":"37.3507016024","long":"126.9740340060","items":[{"name":"소호앤노호의왕점","tel":"031-429-7030","addr":"경기도 의왕시 오전동 324-27번지 지하1층 화원코너 (오전동)","category":"문화.취미 - 화원"},{"name":"알로뷰 (ALO View)","tel":"02-1600-5065","addr":"경기도 의왕시 오전동 324-27번지 지하1층","category":"보건위생 - 안경"},{"name":"의왕상쾌한이비인후과의원","tel":"031-429-1515","addr":"경기도 의왕시 오전동 324-27번지 214호","category":"의원 - 의원"},{"name":"의왕종합인테리어","tel":"031-457-0114","addr":"경기도 의왕시 오전동 324-27번지","category":"직물 - 카페트,커튼,천막,지물"}]},{"lat":"37.3585069795","long":"126.9880049895","items":[{"name":"송스마켓","tel":"","addr":"경기도 의왕시 오전동 545번지","category":"건강식품 - 기타건강식품"}]},{"lat":"37.3573938043","long":"126.9656449282","items":[{"name":"스킨호프","tel":"031-459-5924","addr":"경기도 의왕시 오전동 211-3번지","category":"일반휴게음식 - 주점"},{"name":"전주식당","tel":"031-458-9911","addr":"경기도 의왕시 오전동 211-3번지","category":"일반휴게음식 - 일반한식"}]},{"lat":"37.3537281931","long":"126.9708386771","items":[{"name":"스타일커피아이","tel":"02-111-1111","addr":"경기도 의왕시 오전동 843-5번지 1층","category":"일반휴게음식 - 서양음식"}]},{"lat":"37.3653406109","long":"126.9652007470","items":[{"name":"승천상사","tel":"031-458-7988","addr":"경기도 의왕시 오전동 24","category":"유통업 영리 - 기타유통업"}]},{"lat":"37.3540898303","long":"126.9757596012","items":[{"name":"시드트리","tel":"031-422-3572","addr":"경기도 의왕시 오전동 851-9번지 202호","category":"가구 - 기타가구"}]},{"lat":"37.3498378064","long":"126.9793614416","items":[{"name":"시트명가","tel":"031-449-0511","addr":"경기도 의왕시 오전동 390번지 1층","category":"자동차정비 유지 - 자동차시트·타이어"},{"name":"이야기방앗간","tel":"031-452-0623","addr":"경기도 의왕시 오전동 390번지 1층","category":"음료식품 - 제과점"},{"name":"호남사철탕","tel":"031-458-8889","addr":"경기도 의왕시 오전동 390번지 2층","category":"일반휴게음식 - 일반한식"}]},{"lat":"37.3502787646","long":"126.9767880264","items":[{"name":"시티병원 매점","tel":"031-459-6131","addr":"경기도 의왕시 오전동 374-1번지 시티병원 1층 구내매점","category":"음료식품 - 기타음료식품"}]},{"lat":"37.3586656267","long":"126.9703625001","items":[{"name":"신도현진OA","tel":"031-443-5390","addr":"경기도 의왕시 오전동 230번지 성원1차이화아파트","category":"사무통신 - 사무용 OA기기"}]},{"lat":"37.3557539321","long":"126.9655667285","items":[{"name":"신성산업주식회사","tel":"031-457-3001","addr":"경기도 의왕시 오전동 178번지","category":"주방용구 - 기타주방용구"}]},{"lat":"37.3587014378","long":"126.9695384924","items":[{"name":"신세계가구","tel":"031-452-1399","addr":"경기도 의왕시 오전동 231-2번지","category":"가구 - 일반가구"},{"name":"우아미가구","tel":"031-427-0051","addr":"경기도 의왕시 오전동 231-2번지 1층","category":"가구 - 일반가구"}]},{"lat":"37.3576829642","long":"126.9683989142","items":[{"name":"신안어린이집[아이행복]","tel":"031-457-7415","addr":"경기도 의왕시 오전동 217-2번지 신안아파트","category":"학원 - 유아원"},{"name":"태성상사","tel":"031-202-3240","addr":"경기도 의왕시 오전동 217-2번지 신안아파트","category":"회원제형태 - 기타3"},{"name":"하수구 변기막힘 뚫는곳","tel":"070-4642-5642","addr":"경기도 의왕시 오전동 217-2번지 신안아파트","category":"용역 서비스 - 기타용역서비스"}]},{"lat":"37.3576106601","long":"126.9676426913","items":[{"name":"신안칼국수","tel":"031-427-7721","addr":"경기도 의왕시 오전동 216-1번지 신안 상가 101호","category":"일반휴게음식 - 스넥"}]},{"lat":"37.3547271116","long":"126.9666507861","items":[{"name":"신우중기","tel":"031-451-2134","addr":"경기도 의왕시 오전동 789-2번지","category":"수리서비스 - 기타수리서비스"}]},{"lat":"37.3499458354","long":"126.9788986714","items":[{"name":"신일오토","tel":"031-443-8694","addr":"경기도 의왕시 오전동 383-6번지","category":"자동차정비 유지 - 자동차정비"}]},{"lat":"37.3588341495","long":"126.9617838621","items":[{"name":"신진에스엠","tel":"031-459-7270","addr":"경기도 의왕시 오전동 124-2번지","category":"기타 - 기계공구"}]},{"lat":"37.3560866867","long":"126.9636477441","items":[{"name":"신현대자동차정비 주식회사","tel":"031-455-4972","addr":"경기도 의왕시 오전동 150-42","category":"자동차정비 유지 - 자동차정비"}]},{"lat":"37.3606728254","long":"126.9635663414","items":[{"name":"씨앤비에프(C&BF)","tel":"031-455-5554","addr":"경기도 의왕시 오전동 46-1번지 101~103,201호","category":"가구 - 일반가구"},{"name":"채움","tel":"031-477-9330","addr":"경기도 의왕시 오전동 46-1번지","category":"가구 - 일반가구"}]},{"lat":"37.3572846799","long":"126.9625861092","items":[{"name":"씨유의왕오전공단점","tel":"031-898-6568","addr":"경기도 의왕시 오전동 139-11번지 1층","category":"유통업 영리 - 편 의 점"},{"name":"주주한식뷔페","tel":"031-455-7255","addr":"경기도 의왕시 오전동 139-11번지 1층","category":"일반휴게음식 - 일반한식"}]},{"lat":"37.3618638640","long":"126.9690629953","items":[{"name":"씨유의왕현대점","tel":"080-080-3663","addr":"경기도 의왕시 오전동 100번지 모락상가 A상가 106호","category":"유통업 영리 - 편 의 점"},{"name":"주식회사 고릴라짐","tel":"031-395-9600","addr":"경기도 의왕시 오전동 100번지 지하층","category":"레저업소 - 헬스클럽"},{"name":"중앙실업","tel":"031-574-9786","addr":"경기도 의왕시 오전동 100","category":"자동차정비 유지 - 윤활유 전문 판매"}]},{"lat":"37.3586426078","long":"126.9924522605","items":[{"name":"아띠제노스랩","tel":"031-457-9900","addr":"경기도 의왕시 오전동 658-1번지 산너머남촌 1층","category":"일반휴게음식 - 서양음식"}]},{"lat":"37.3643675160","long":"126.9652012337","items":[{"name":"아르디앙","tel":"031-453-3877","addr":"경기도 의왕시 오전동 27번지","category":"가구 - 일반가구"}]},{"lat":"37.3531702271","long":"126.9733897171","items":[{"name":"아름슈퍼","tel":"031-457-5117","addr":"경기도 의왕시 오전동 283-4번지","category":"유통업 영리 - 슈퍼마켓"}]},{"lat":"37.3630705730","long":"126.9668612507","items":[{"name":"아이노리어린이집[아이행복]","tel":"031-455-8246","addr":"경기도 의왕시 오전동 27-1번지 해모로아파트","category":"학원 - 유아원"},{"name":"예지어린이집[아이행복]","tel":"031-477-8274","addr":"경기도 의왕시 오전동 27-1번지 해모로아파트","category":"학원 - 유아원"}]},{"lat":"37.3609803125","long":"126.9671670234","items":[{"name":"아이렌어린이집[아이행복]","tel":"031-347-0031","addr":"경기도 의왕시 오전동 28번지 대명구름채아파트","category":"학원 - 유아원"}]},{"lat":"37.3537275960","long":"126.9687054681","items":[{"name":"아침문구센터","tel":"02-0000-0000","addr":"경기도 의왕시 오전동 260-5번지","category":"서적문구 - 문구용품"},{"name":"아침피앤씨","tel":"031-456-3858","addr":"경기도 의왕시 오전동 260-5번지 3층","category":"사무통신 - 컴퓨터"},{"name":"천장어","tel":"031-429-0170","addr":"경기도 의왕시 오전동 260-5번지 1층","category":"일반휴게음식 - 일반한식"}]},{"lat":"37.3499188821","long":"126.9792824126","items":[{"name":"아침해어린이집[아이행복]","tel":"031-451-1005","addr":"경기도 의왕시 오전동 391-1번지","category":"학원 - 유아원"}]},{"lat":"37.3510624664","long":"126.9759751326","items":[{"name":"아프로디테","tel":"031-429-5015","addr":"경기도 의왕시 오전동 340-5번지 4층","category":"보건위생 - 미용원"}]},{"lat":"37.3580327586","long":"126.9632855321","items":[{"name":"안양모터스","tel":"031-457-8898","addr":"경기도 의왕시 오전동 131-3번지","category":"자동차정비 유지 - 자동차정비"}]},{"lat":"37.3651157362","long":"126.9664087318","items":[{"name":"알로에마임평촌북부지사","tel":"031-381-2360","addr":"경기도 의왕시 오전동 27-1번지 해모로아파트","category":"보건위생 - 화장품"},{"name":"케이엠 인터내셔널","tel":"02-6448-5106","addr":"경기도 의왕시 오전동 27-1번지 해모로아파트","category":"보건위생 - 안경"}]},{"lat":"37.3534219240","long":"126.9711209767","items":[{"name":"알이랑 술이랑","tel":"031-454-7559","addr":"경기도 의왕시 오전동 843-8번지","category":"일반휴게음식 - 일반한식"}]},{"lat":"37.3503142259","long":"126.9742824531","items":[{"name":"애니카랜드 의왕점(세차장)","tel":"031-456-0842","addr":"경기도 의왕시 오전동 324-5번지","category":"자동차정비 유지 - 세차장"}]},{"lat":"37.3602232331","long":"126.9664223878","items":[{"name":"어시장","tel":"031-477-6800","addr":"경기도 의왕시 오전동 32-97번지","category":"일반휴게음식 - 일반한식"}]},{"lat":"37.3609797211","long":"126.9652593673","items":[{"name":"에덴건강원","tel":"031-453-1096","addr":"경기도 의왕시 오전동 32-32번지","category":"건강식품 - 기타건강식품"}]},{"lat":"37.3573403489","long":"126.9676202430","items":[{"name":"에덴농원","tel":"031-9130-4772","addr":"경기도 의왕시 오전동 216-1번지 신안아파트1단지","category":"문화.취미 - 화원"}]},{"lat":"37.3552852609","long":"126.9651154784","items":[{"name":"에버그린가구","tel":"031-454-3639","addr":"경기도 의왕시 오전동 172-1번지","category":"가구 - 일반가구"}]},{"lat":"37.3534491728","long":"126.9719449001","items":[{"name":"에셀커피","tel":"","addr":"경기도 의왕시 오전동 846-11번지 상가 1층","category":"일반휴게음식 - 서양음식"}]},{"lat":"37.3541698842","long":"126.9715608501","items":[{"name":"엘림까페","tel":"031-455-4129","addr":"경기도 의왕시 오전동 846-2번지 1층","category":"일반휴게음식 - 서양음식"}]},{"lat":"37.3587539466","long":"126.9644251981","items":[{"name":"엘지전자(주) 의왕서비스센터","tel":"031-399-5900","addr":"경기도 의왕시 오전동 120번지 LGBESTSH오피스텔","category":"수리서비스 - 가정용품수리"}]},{"lat":"37.3519004623","long":"126.9762005644","items":[{"name":"엠케이핑크(mk pink)","tel":"070-8743-9496","addr":"경기도 의왕시 오전동 886번지 의왕모락산동문굿모닝힐아파트","category":"회원제형태 - 기타1"}]},{"lat":"37.3572958959","long":"126.9696858499","items":[{"name":"열린키즈어린이집[아이행복]","tel":"031-477-5477","addr":"경기도 의왕시 오전동 849번지 동백아파트","category":"학원 - 유아원"}]},{"lat":"37.3528909263","long":"126.9734462599","items":[{"name":"영구크린","tel":"031-466-9934","addr":"경기도 의왕시 오전동 283-12번지 삼성미도아파트(봉선화)","category":"용역 서비스 - 종합용역"}]},{"lat":"37.3536749407","long":"126.9739764339","items":[{"name":"영마트","tel":"031-452-2989","addr":"경기도 의왕시 오전동 286번지","category":"유통업 영리 - 슈퍼마켓"}]},{"lat":"37.3537012600","long":"126.9711998667","items":[{"name":"예은어린이집[아이행복]","tel":"031-429-5720","addr":"경기도 의왕시 오전동 844-10번지","category":"학원 - 유아원"}]},{"lat":"37.3599172341","long":"126.9675625984","items":[{"name":"예일영수학원","tel":"031-429-5353","addr":"경기도 의왕시 오전동 101-4번지 은혜빌딩 3층","category":"회원제형태 - 학원"},{"name":"장보고","tel":"031-453-5010","addr":"경기도 의왕시 오전동 101-4번지","category":"음료식품 - 정육점"},{"name":"창우수학학원","tel":"031-453-4741","addr":"경기도 의왕시 오전동 101-4번지 은혜빌딩 4층","category":"학원 - 보습학원"},{"name":"토종한우전문점","tel":"031-453-5010","addr":"경기도 의왕시 오전동 101-4번지 1층","category":"일반휴게음식 - 일반한식"},{"name":"해물왕찜탕","tel":"031-429-3482","addr":"경기도 의왕시 오전동 101-4번지 2층","category":"일반휴게음식 - 일반한식"}]},{"lat":"37.3576693209","long":"126.9904770982","items":[{"name":"오성다육","tel":"031-451-4700","addr":"경기도 의왕시 오전동 618-7번지","category":"문화.취미 - 화원"},{"name":"오성화훼꽃도매직판장","tel":"031-451-4700","addr":"경기도 의왕시 오전동 618-7","category":"문화.취미 - 화원"}]},{"lat":"37.3510635892","long":"126.9814716202","items":[{"name":"오전꽃농원","tel":"031-453-9800","addr":"경기도 의왕시 오전동 402-2","category":"문화.취미 - 화원"},{"name":"하늘꽃농장","tel":"031-453-4100","addr":"경기도 의왕시 오전동 402-2번지","category":"문화.취미 - 화원"}]},{"lat":"37.3534760873","long":"126.9715047045","items":[{"name":"오전동주민자치위원회","tel":"031-341-1140","addr":"경기도 의왕시 오전동 844-18번지","category":"문화.취미 - 문화취미기타"}]},{"lat":"37.3574798908","long":"126.9885582741","items":[{"name":"오전상회","tel":"","addr":"경기도 의왕시 오전동 613-10번지","category":"유통업 영리 - 슈퍼마켓"}]},{"lat":"37.3536411997","long":"126.9858050225","items":[{"name":"오전주유소","tel":"031-453-0303","addr":"경기도 의왕시 오전동 432-1번지","category":"연료판매점 - GS주유소"}]},{"lat":"37.3545034782","long":"126.9723959449","items":[{"name":"오전초등학교","tel":"031-459-0373","addr":"경기도 의왕시 오전동 848번지 오전초등학교","category":"학원 - 초중고교육기관"},{"name":"오전초등학교병설유치원[아이행복]","tel":"031-459-0373","addr":"경기도 의왕시 오전동 848번지 오전초등학교","category":"학원 - 유치원"}]},{"lat":"37.3540888137","long":"126.9716398919","items":[{"name":"오전카센타","tel":"031-457-8776","addr":"경기도 의왕시 오전동 846-3번지","category":"자동차정비 유지 - 카인테리어"}]},{"lat":"37.3565289431","long":"126.9660065472","items":[{"name":"용수 양봉원","tel":"02-451-3550","addr":"경기도 의왕시 오전동 190-6번지","category":"농업 - 기타농업관련"}]},{"lat":"37.3589782529","long":"126.9616144694","items":[{"name":"우리식당","tel":"031-457-9233","addr":"경기도 의왕시 오전동 124번지 2층","category":"일반휴게음식 - 일반한식"}]},{"lat":"37.3499727454","long":"126.9783117774","items":[{"name":"우리홈마트","tel":"031-477-8945","addr":"경기도 의왕시 오전동 383-2번지 외5필지","category":"유통업 영리 - 슈퍼마켓"}]},{"lat":"37.3579511747","long":"126.9618407809","items":[{"name":"우림카써비스","tel":"031-458-2553","addr":"경기도 의왕시 오전동 128번지","category":"자동차정비 유지 - 세차장"}]},{"lat":"37.3576423449","long":"126.9910076108","items":[{"name":"우성꽃란화원","tel":"031-457-0790","addr":"경기도 의왕시 오전동 618-1","category":"문화.취미 - 화원"}]},{"lat":"37.3532266021","long":"126.9849247502","items":[{"name":"원주추어탕","tel":"031-456-5550","addr":"경기도 의왕시 오전동 421-2번지","category":"일반휴게음식 - 일반한식"}]},{"lat":"37.3575884292","long":"126.9925539931","items":[{"name":"월계수농원","tel":"031-429-0320","addr":"경기도 의왕시 오전동 651","category":"문화.취미 - 화원"}]},{"lat":"37.3507023139","long":"126.9771151844","items":[{"name":"월드당구장","tel":"031-458-0850","addr":"경기도 의왕시 오전동 373-5, 지하층","category":"레저업소 - 당 구 장"},{"name":"주문진생선","tel":"031-427-5492","addr":"경기도 의왕시 오전동 373-5번지","category":"일반휴게음식 - 일반한식"}]},{"lat":"37.3539173604","long":"126.9706692939","items":[{"name":"웹오에이서비스","tel":"02-582-6690","addr":"경기도 의왕시 오전동 843-3번지 101호","category":"사무통신 - 사무용 OA기기"},{"name":"의왕특수렉카","tel":"031-455-6688","addr":"경기도 의왕시 오전동 843-3번지","category":"자동차정비 유지 - 견인서비스"}]},{"lat":"37.3669543040","long":"126.9680672956","items":[{"name":"위드(넥스젠화장품)","tel":"031-459-6319","addr":"경기도 의왕시 오전동 17-1번지 철쭉마을한광샤인빌리지","category":"보건위생 - 화장품"},{"name":"주식회사 한국융합인재교육원","tel":"02-511-8825","addr":"경기도 의왕시 오전동 17-1번지 철쭉마을한광샤인빌리지 202동 203호","category":"서적문구 - 출판 및 인쇄물"}]},{"lat":"37.3602503329","long":"126.9666481307","items":[{"name":"위박사","tel":"031-447-2567","addr":"경기도 의왕시 오전동 67-8번지 용빌딩 109호","category":"일반휴게음식 - 일반한식"}]},{"lat":"37.3578357135","long":"126.9669766273","items":[{"name":"유레카영수전문보습학원","tel":"031-454-0509","addr":"경기도 의왕시 오전동 839-6번지 2층","category":"학원 - 외국어학원"}]},{"lat":"37.3643496743","long":"126.9657656632","items":[{"name":"유한플러스","tel":"031-455-5616","addr":"경기도 의왕시 오전동 27-1번지 해모로아파트","category":"회원제형태 - 기타4"}]},{"lat":"37.3629631400","long":"126.9691979603","items":[{"name":"윤선생골프스쿨","tel":"","addr":"경기도 의왕시 오전동 100번지","category":"레저업소 - 골프연습장"}]},{"lat":"37.3594212533","long":"126.9661744470","items":[{"name":"의왕수산","tel":"031-453-3488","addr":"경기도 의왕시 오전동 838-9번지","category":"일반휴게음식 - 일식·회집"}]},{"lat":"37.3596972464","long":"127.0014145608","items":[{"name":"의왕시청(의왕하늘쉼터)","tel":"031-345-2832","addr":"경기도 의왕시 오전동 710-6번지","category":"용역 서비스 - 가례서비스업"}]},{"lat":"37.3513679786","long":"126.9725326507","items":[{"name":"의왕우체국","tel":"031-452-4205","addr":"경기도 의왕시 오전동 323-7번지","category":"용역 서비스 - 공공요금대행서비스/소"}]},{"lat":"37.3592228749","long":"126.9656778873","items":[{"name":"의왕자동차매매상사","tel":"031-457-6400","addr":"경기도 의왕시 오전동 107-3번지","category":"자동차판매 - 중고자동차판매"}]},{"lat":"37.3515037527","long":"126.9750607695","items":[{"name":"의왕중학교","tel":"031-453-8951","addr":"경기도 의왕시 오전동 350-1번지 의왕중학교","category":"학원 - 초중고교육기관"}]},{"lat":"37.3634493839","long":"126.9681479332","items":[{"name":"의왕초등학교","tel":"031-457-5740","addr":"경기도 의왕시 오전동 27-5번지 의왕초등학교","category":"학원 - 초중고교육기관"}]},{"lat":"37.3575548063","long":"126.9620667446","items":[{"name":"이상기획","tel":"031-452-1077","addr":"경기도 의왕시 오전동 139-2번지 2층 201호","category":"건축자재 - 인테리어전문"},{"name":"캘러웨이 의왕점","tel":"031-454-5519","addr":"경기도 의왕시 오전동 139-2번지,101호","category":"레져용품 - 스포츠·레져용품"},{"name":"파워테크","tel":"031-457-8166","addr":"경기도 의왕시 오전동 139-2번지 1층 103호","category":"자동차정비 유지 - 자동차부품"}]},{"lat":"37.3593958162","long":"126.9717279931","items":[{"name":"이안어린이집[아이행복]","tel":"031-427-5321","addr":"경기도 의왕시 오전동 887번지 대명솔채아파트","category":"학원 - 유아원"}]},{"lat":"37.3534227577","long":"126.9743941414","items":[{"name":"이엠씨텍","tel":"031-422-9606","addr":"경기도 의왕시 오전동 309-1번지 대림다세대 101호","category":"회원제형태 - 기타4"}]},{"lat":"37.3500090553","long":"126.9796435448","items":[{"name":"인덕카센타(세차장)","tel":"031-453-1085","addr":"경기도 의왕시 오전동 399-2번지","category":"자동차정비 유지 - 세차장"},{"name":"인덕카센타(세차장)","tel":"031-453-1085","addr":"경기도 의왕시 오전동 399-2번지","category":"자동차정비 유지 - 세차장"},{"name":"현대오토피아","tel":"031-427-1660","addr":"경기도 의왕시 오전동 399-2번지","category":"자동차정비 유지 - 자동차정비"}]},{"lat":"37.3626931301","long":"126.9702478803","items":[{"name":"인문과 사람","tel":"031-381-0629","addr":"경기도 의왕시 오전동 100번지 모락산현대아파트","category":"서적문구 - 출판 및 인쇄물"}]},{"lat":"37.3591608978","long":"126.9693351116","items":[{"name":"일신OA퍼니처","tel":"031-429-0507","addr":"경기도 의왕시 오전동 104-20번지 성원이화아파트","category":"수리서비스 - 기타수리서비스"}]},{"lat":"37.3601968116","long":"126.9684542028","items":[{"name":"일심메밀향막국수","tel":"031-456-8889","addr":"경기도 의왕시 오전동 100-3번지","category":"일반휴게음식 - 일반한식"},{"name":"토속마을","tel":"031-477-8898","addr":"경기도 의왕시 오전동 100-3번지","category":"일반휴게음식 - 일반한식"}]},{"lat":"37.3572548739","long":"126.9906690514","items":[{"name":"자유화원","tel":"031-451-5595","addr":"경기도 의왕시 오전동 619","category":"문화.취미 - 화원"}]},{"lat":"37.3492255367","long":"126.9815850038","items":[{"name":"자작나무정원 (Birch&garden)","tel":"070-1111-1111","addr":"경기도 의왕시 오전동 393-15번지","category":"문화.취미 - 화원"},{"name":"착한다육이","tel":"031-453-3462","addr":"경기도 의왕시 오전동 393-15","category":"문화.취미 - 화원"},{"name":"창연플라워","tel":"031-1111-111","addr":"경기도 의왕시 오전동 393-15","category":"문화.취미 - 화원"}]},{"lat":"37.3611955407","long":"126.9639498586","items":[{"name":"장수왕족발","tel":"031-458-6820","addr":"경기도 의왕시 오전동 산 83-1","category":"일반휴게음식 - 일반한식"}]},{"lat":"37.3599793704","long":"126.9645600258","items":[{"name":"장인가구 의왕점","tel":"031-429-8006","addr":"경기도 의왕시 오전동 32-168번지","category":"가구 - 일반가구"}]},{"lat":"37.3535848336","long":"126.9739538949","items":[{"name":"재현","tel":"031-381-3671","addr":"경기도 의왕시 오전동 284-1번지","category":"서적문구 - 일반서적"}]},{"lat":"37.3563892968","long":"126.9858043997","items":[{"name":"전라도옛맛손팥칼국수","tel":"031-452-6017","addr":"경기도 의왕시 오전동 484번지","category":"일반휴게음식 - 일반한식"}]},{"lat":"37.3515302478","long":"126.9728711802","items":[{"name":"전원낙지마당","tel":"031-429-3350","addr":"경기도 의왕시 오전동 348-1번지","category":"일반휴게음식 - 일반한식"}]},{"lat":"37.3611149412","long":"126.9654737704","items":[{"name":"전통식품","tel":"","addr":"경기도 의왕시 오전동 32-4번지 장안빌라 1층 202호","category":"음료식품 - 기타음료식품"}]},{"lat":"37.3518647628","long":"126.9777581200","items":[{"name":"정성드림","tel":"031-459-7164","addr":"경기도 의왕시 오전동 산149-3번지 삼신9차아파트","category":"용역 서비스 - 기타용역서비스"}]},{"lat":"37.3582219603","long":"126.9632515702","items":[{"name":"제이비케이아로니아","tel":"031-456-1777","addr":"경기도 의왕시 오전동 130-2번지 1층","category":"건강식품 - 기타건강식품"}]},{"lat":"37.3538365888","long":"126.9718657333","items":[{"name":"조이컴퓨터","tel":"031-477-3677","addr":"경기도 의왕시 오전동 846-6번지 1층","category":"사무통신 - 컴퓨터"}]},{"lat":"37.3666297548","long":"126.9674465642","items":[{"name":"조현보영어과외","tel":"031-381-8876","addr":"경기도 의왕시 오전동 17-8번지 철쭉마을한광샤인빌리지","category":"회원제형태 - 학원"}]},{"lat":"37.3567002062","long":"126.9662322087","items":[{"name":"주식회사 기분좋은날","tel":"031-477-1609","addr":"경기도 의왕시 오전동 209-1번지 지층 전체","category":"유통업 영리 - 기타유통업"}]},{"lat":"37.3605822621","long":"126.9622005590","items":[{"name":"주식회사 루이스모터스","tel":"031-1522-2218","addr":"경기도 의왕시 오전동 36번지","category":"자동차정비 유지 - 자동차부품"}]},{"lat":"37.3565074993","long":"126.9966739832","items":[{"name":"주식회사 태왕금속앙카안전","tel":"031-429-5656","addr":"경기도 의왕시 오전동 737-1,717-7번지","category":"건축자재 - 기타건축자재"}]},{"lat":"37.3591680560","long":"126.9633413737","items":[{"name":"주식회사 퍼스트산업개발","tel":"031-429-0274","addr":"경기도 의왕시 오전동 38-25번지 동인빌딩 401호","category":"용역 서비스 - 기타용역서비스"}]},{"lat":"37.3505845715","long":"126.9744516458","items":[{"name":"주식회사 휴네트윅스","tel":"061-427-6611","addr":"경기도 의왕시 오전동 324-1번지","category":"건축자재 - 목재·석재·철물"}]},{"lat":"37.3536110825","long":"126.9709177345","items":[{"name":"주식회사슈즈브이","tel":"070-4104-9358","addr":"경기도 의왕시 오전동 843-6번지 지층","category":"레져용품 - 스포츠·레져용품"}]},{"lat":"37.3557815928","long":"126.9676209723","items":[{"name":"주식회사의왕모터스","tel":"031-451-3112","addr":"경기도 의왕시 오전동 201번지","category":"자동차정비 유지 - 자동차정비"}]},{"lat":"37.3571949912","long":"126.9638164772","items":[{"name":"주식회사퓨전미디어","tel":"031-427-0202","addr":"경기도 의왕시 오전동 137-6번지","category":"레져용품 - 음반/영상물"}]},{"lat":"37.3500080075","long":"126.9748130238","items":[{"name":"줌바위드베키","tel":"","addr":"경기도 의왕시 오전동 333-7번지 천용빌딩 2층","category":"레저업소 - 헬스클럽"},{"name":"커피베이의왕오전점","tel":"031-451-2766","addr":"경기도 의왕시 오전동 333-7번지 천용빌딩 2층","category":"일반휴게음식 - 서양음식"},{"name":"홀인원골프존스크린","tel":"031-429-8866","addr":"경기도 의왕시 오전동 333-7번지 천용빌딩 4층","category":"회원제형태 - 레져업소"}]},{"lat":"37.3604487140","long":"126.9671672754","items":[{"name":"중앙어린이집[아이행복]","tel":"031-454-0194","addr":"경기도 의왕시 오전동 68-3번지","category":"학원 - 유아원"}]},{"lat":"37.3565022456","long":"126.9670901350","items":[{"name":"중앙합판","tel":"031-399-8988","addr":"경기도 의왕시 오전동 207-1번지","category":"건축자재 - 기타건축자재"}]},{"lat":"37.3539205821","long":"126.9862790069","items":[{"name":"지구촌어린이집[아이행복]","tel":"031-452-0320","addr":"경기도 의왕시 오전동 468-1번지","category":"학원 - 유아원"}]},{"lat":"37.3613683288","long":"126.9691422335","items":[{"name":"짐볼리쉬 (Gymballlish)","tel":"","addr":"경기도 의왕시 오전동 100번지 모락산현대아파트","category":"용역 서비스 - 사무서비스"}]},{"lat":"37.3498647095","long":"126.9787294036","items":[{"name":"참","tel":"031-427-4209","addr":"경기도 의왕시 오전동 383-8번지 1층","category":"일반휴게음식 - 일반한식"}]},{"lat":"37.3600340131","long":"126.9663999038","items":[{"name":"채미용실","tel":"031-453-9667","addr":"경기도 의왕시 오전동 32-17번지 호수다세대 1층 101호","category":"보건위생 - 미용원"}]},{"lat":"37.3572815135","long":"126.9873392776","items":[{"name":"천만애능이버섯","tel":"031-429-5295","addr":"경기도 의왕시 오전동 534번지 A동1층,B동1층","category":"일반휴게음식 - 일반한식"}]},{"lat":"37.3536114729","long":"126.9723963057","items":[{"name":"천사문구완구","tel":"031-452-8764","addr":"경기도 의왕시 오전동 847-3번지","category":"서적문구 - 문구용품"}]},{"lat":"37.3518635083","long":"126.9724195858","items":[{"name":"청파미용실","tel":"031-458-7405","addr":"경기도 의왕시 오전동 315-19번지 102호","category":"보건위생 - 미용원"}]},{"lat":"37.3626654817","long":"126.9680805656","items":[{"name":"최배달","tel":"070-8683-7946","addr":"경기도 의왕시 오전동 100번지 모락산현대아파트","category":"음료식품 - 기타음료식품"}]},{"lat":"37.3677556499","long":"126.9662268310","items":[{"name":"추오정 남원추어탕 의왕점","tel":"031-456-5162","addr":"경기도 의왕시 오전동 11-15번지","category":"일반휴게음식 - 일반한식"},{"name":"커피베이모락점","tel":"031-393-5162","addr":"경기도 의왕시 오전동 11-15번지","category":"일반휴게음식 - 서양음식"}]},{"lat":"37.3671698822","long":"126.9658771621","items":[{"name":"카네트웍","tel":"02-1577-4922","addr":"경기도 의왕시 오전동 21번지 진달래아파트","category":"사무통신 - 컴퓨터"}]},{"lat":"37.3637643056","long":"126.9667028825","items":[{"name":"카렌","tel":"02-1577-0000","addr":"경기도 의왕시 오전동 27-1번지 해모로아파트","category":"의류 - 정장"},{"name":"하나이엔지","tel":"031-453-3396","addr":"경기도 의왕시 오전동 27-1번지 해모로아파트","category":"회원제형태 - 기타4"}]},{"lat":"37.3565483710","long":"126.9708374780","items":[{"name":"카앤스팀","tel":"","addr":"경기도 의왕시 오전동 849번지 동백아파트","category":"자동차정비 유지 - 세차장"}]},{"lat":"37.3561149347","long":"126.9675079445","items":[{"name":"카페굿럭","tel":"070-8682-2783","addr":"경기도 의왕시 오전동 204-4번지 1층","category":"일반휴게음식 - 서양음식"},{"name":"현대세차장","tel":"031-429-8519","addr":"경기도 의왕시 오전동 204-4번지","category":"자동차정비 유지 - 세차장"}]},{"lat":"37.3543419918","long":"126.9752290255","items":[{"name":"카페타로스토리","tel":"031-452-5426","addr":"경기도 의왕시 오전동 851-1번지 가동 1층","category":"일반휴게음식 - 서양음식"}]},{"lat":"37.3583362063","long":"126.9918314898","items":[{"name":"커피볶는자유","tel":"031-453-8856","addr":"경기도 의왕시 오전동 654-1번지","category":"일반휴게음식 - 서양음식"}]},{"lat":"37.3596380669","long":"126.9680593884","items":[{"name":"케이원(K1)필라테스","tel":"031-427-7977","addr":"경기도 의왕시 오전동 104번지 지하1층","category":"레저업소 - 헬스클럽"},{"name":"폰나라이동통신","tel":"031-429-8011","addr":"경기도 의왕시 오전동 104,103","category":"사무통신 - 통신기기"}]},{"lat":"37.3529276356","long":"126.9762679210","items":[{"name":"크린워터","tel":"031-457-4368","addr":"경기도 의왕시 오전동 358-1번지 삼호백조아파트","category":"수리서비스 - 가정용품수리"},{"name":"플러스 디아이디","tel":"070-7719-3219","addr":"경기도 의왕시 오전동 358-1번지 삼호백조아파트","category":"회원제형태 - 기타4"}]},{"lat":"37.3523418392","long":"126.9756699373","items":[{"name":"태바UMC수학교습소","tel":"031-459-5001","addr":"경기도 의왕시 오전동 358-1번지 삼호백조아파트 201호","category":"학원 - 보습학원"}]},{"lat":"37.3602501516","long":"126.9660611653","items":[{"name":"태백시스템","tel":"031-455-2586","addr":"경기도 의왕시 오전동 32-62번지","category":"기타 - 기계공구"}]},{"lat":"37.3539722093","long":"126.9737054353","items":[{"name":"투커피(TO.COFFEE)","tel":"031-429-9378","addr":"경기도 의왕시 오전동 289번지 신광다세대 101호","category":"음료식품 - 기타음료식품"}]},{"lat":"37.3593123833","long":"126.9638379549","items":[{"name":"티카서비스","tel":"070-8991-3819","addr":"경기도 의왕시 오전동 38-10번지","category":"자동차정비 유지 - 자동차정비"}]},{"lat":"37.3596654436","long":"126.9692558730","items":[{"name":"판교외형복원","tel":"070-8637-2238","addr":"경기도 의왕시 오전동 104-20번지 성원이화아파트","category":"자동차정비 유지 - 카인테리어"}]},{"lat":"37.3603048110","long":"126.9680365046","items":[{"name":"팔팔도새기","tel":"","addr":"경기도 의왕시 오전동 101-16번지","category":"일반휴게음식 - 일반한식"}]},{"lat":"37.3593135037","long":"126.9673935665","items":[{"name":"팡팡노리터","tel":"031-451-0080","addr":"경기도 의왕시 오전동 109번지 3층 일부","category":"레저업소 - 기타레져업소"}]},{"lat":"37.3507836880","long":"126.9784469496","items":[{"name":"평산크린세탁","tel":"","addr":"경기도 의왕시 오전동 산148-1번지 1층 제3동상가","category":"수리서비스 - 세탁소"}]},{"lat":"37.3623322057","long":"126.9684193628","items":[{"name":"포토-어필(photo_afeel)","tel":"","addr":"경기도 의왕시 오전동 100번지 모락산현대아파트","category":"광학제품 - 사진관"}]},{"lat":"37.3590329302","long":"126.9634204579","items":[{"name":"프로리","tel":"031-427-6472","addr":"경기도 의왕시 오전동 38-11번지","category":"보건위생 - 화장품"}]},{"lat":"37.3525302745","long":"126.9724757495","items":[{"name":"하나마트","tel":"031-306-0266","addr":"경기도 의왕시 오전동 281-3번지","category":"유통업 영리 - 슈퍼마켓"}]},{"lat":"37.3600335586","long":"126.9649550701","items":[{"name":"하영 종합공사","tel":"031-427-1844","addr":"경기도 의왕시 오전동 32-10번지 1층","category":"건축자재 - 인테리어전문"},{"name":"호정시스템","tel":"","addr":"경기도 의왕시 오전동 32-10번지 1층","category":"전기제품 - 냉열기기"}]},{"lat":"37.3577463014","long":"126.9693244539","items":[{"name":"하은어린이집[아이행복]","tel":"031-477-4133","addr":"경기도 의왕시 오전동 849번지 동백아파트","category":"학원 - 유아원"}]},{"lat":"37.3616560323","long":"126.9670312470","items":[{"name":"한남무역","tel":"02-3418-2587","addr":"경기도 의왕시 오전동 28","category":"회원제형태 - 기타4"}]},{"lat":"37.3518909434","long":"126.9740335508","items":[{"name":"한빛유리상사","tel":"031-388-3106","addr":"경기도 의왕시 오전동 349-1번지","category":"건축자재 - 유리"}]},{"lat":"37.3529175233","long":"126.9717532445","items":[{"name":"한성이엔지(ENG)","tel":"031-456-8723","addr":"경기도 의왕시 오전동 277-27번지 102호","category":"기타 - 기타 전문점"}]},{"lat":"37.3566657263","long":"126.9716726855","items":[{"name":"한울나래","tel":"","addr":"경기도 의왕시 오전동 849번지 동백아파트","category":"학원 - 기타 교육기관"}]},{"lat":"37.3494504164","long":"126.9795985723","items":[{"name":"해든솔어린이집[아이행복]","tel":"031-453-1231","addr":"경기도 의왕시 오전동 388-1번지 민들레베스파트 104동 101호","category":"학원 - 유아원"}]},{"lat":"37.3511971198","long":"126.9738645198","items":[{"name":"행복을 전하는 어린이집[아이행복]","tel":"031-454-0787","addr":"경기도 의왕시 오전동 346-4번지 1층","category":"학원 - 유아원"}]},{"lat":"37.3573624142","long":"126.9859509149","items":[{"name":"행복장작","tel":"070-4248-5429","addr":"경기도 의왕시 오전동 521-1번지","category":"건축자재 - 목재·석재·철물"}]},{"lat":"37.3500620335","long":"126.9746662821","items":[{"name":"현 SILVER","tel":"031-427-8366","addr":"경기도 의왕시 오전동 329-1번지 백운연립 A동 105호","category":"신변잡화 - 액세서리"}]},{"lat":"37.3502792228","long":"126.9789549969","items":[{"name":"황가네 코다리랑 쭈꾸미","tel":"031-465-3000","addr":"경기도 의왕시 오전동 789-8번지 1층","category":"일반휴게음식 - 일반한식"}]},{"lat":"37.3586736401","long":"126.9669197903","items":[{"name":"황소숯불꼼장어","tel":"031-454-5245","addr":"경기도 의왕시 오전동 838-3번지 뉴서울상가 1-5호","category":"일반휴게음식 - 일반한식"}]},{"lat":"37.3592062106","long":"126.9702719657","items":[{"name":"희망나무어린이집[아이행복]","tel":"031-429-3363","addr":"경기도 의왕시 오전동 887번지 대명솔채아파트","category":"학원 - 유아원"}]},{"lat":"37.3593908697","long":"126.9997778547","items":[{"name":"희상수농원","tel":"","addr":"경기도 의왕시 오전동 715번지","category":"문화.취미 - 화원"}]}]