[{"lat":"37.600507226","long":"127.28688743","imageIndex":4,"items":[{"name":"반스비스트로","tel":"033-647-2027","addr":"경기도 남양주시 조안면 시우리 348-8번지","indutype":"일반휴게음식 - 서양음식","category":"restaurant"}]},{"lat":"37.586428752","long":"127.28905302","imageIndex":4,"items":[{"name":"시우리새재골","tel":"031-576-2832","addr":"경기도 남양주시 조안면 시우리 395-10","indutype":"일반휴게음식 - 일반한식","category":"restaurant"}]},{"lat":"37.581844513","long":"127.29930374","imageIndex":4,"items":[{"name":"얼름골","tel":"070-4042-6973","addr":"경기도 남양주시 조안면 시우리 203","indutype":"일반휴게음식 - 스넥","category":"restaurant"}]},{"lat":"37.58803373","long":"127.29224066","imageIndex":4,"items":[{"name":"왕바우집","tel":"031-576-3253","addr":"경기도 남양주시 조안면 시우리 265번지","indutype":"일반휴게음식 - 일반한식","category":"restaurant"}]},{"lat":"37.598205854","long":"127.28474985","imageIndex":4,"items":[{"name":"잣나무집","tel":"031-576-8655","addr":"경기도 남양주시 조안면 시우리 369번지","indutype":"일반휴게음식 - 일반한식","category":"restaurant"}]},{"lat":"37.597615027","long":"127.29063585","imageIndex":4,"items":[{"name":"하늘가든","tel":"031-576-4242","addr":"경기도 남양주시 조안면 시우리 313-3번지","indutype":"일반휴게음식 - 일반한식","category":"restaurant"}]}]