[{"lat":"37.064119519","long":"127.02131054","items":[{"name":"CAFE321(카페321)","tel":"031-111-1111","addr":"경기도 평택시 고덕면 두릉리 173-1번지 1층 1호","category":"일반휴게음식 - 서양음식"},{"name":"육반장","tel":"031-611-0061","addr":"경기도 평택시 고덕면 두릉리 173-1번지","category":"일반휴게음식 - 일반한식"}]},{"lat":"37.067174731","long":"127.01675737","items":[{"name":"CS24","tel":"031-665-7582","addr":"경기도 평택시 고덕면 두릉리 296-6번지","category":"유통업 영리 - 슈퍼마켓"},{"name":"고덕약국","tel":"031-655-7582","addr":"경기도 평택시 고덕면 두릉리 296-6번지","category":"약국 - 약국"},{"name":"펫스토리카페","tel":"","addr":"경기도 평택시 고덕면 두릉리 296-6번지 1층","category":"일반휴게음식 - 서양음식"}]},{"lat":"37.069985783","long":"127.01878192","items":[{"name":"CSI 종합학원","tel":"031-665-0521","addr":"경기도 평택시 고덕면 두릉리 236-4번지 2동","category":"학원 - 외국어학원"}]},{"lat":"37.063461517","long":"127.02272709","items":[{"name":"GS25고덕안재홍로점","tel":"","addr":"경기도 평택시 고덕면 두릉리 164-2번지","category":"유통업 영리 - 편 의 점"},{"name":"다나와부동산공인중개사사무소","tel":"031-666-8886","addr":"경기도 평택시 고덕면 두릉리 164-2번지","category":"용역 서비스 - 부동산 중개·임대"},{"name":"방일해장국고덕점","tel":"031-665-5887","addr":"경기도 평택시 고덕면 두릉리 164-2번지","category":"일반휴게음식 - 일반한식"}]},{"lat":"37.065623799","long":"127.02423434","items":[{"name":"고덕시대로타리클럽","tel":"","addr":"경기도 평택시 고덕면 두릉리 144-4번지 2층","category":"기타 - 비영리/비대상"},{"name":"초원꽃화원","tel":"031-667-1234","addr":"경기도 평택시 고덕면 두릉리 144-4번지","category":"문화.취미 - 화원"}]},{"lat":"37.069481424","long":"127.01692646","items":[{"name":"광동유통(파워)","tel":"","addr":"경기도 평택시 고덕면 두릉리 245-7번지","category":"음료식품 - 기타음료식품"}]},{"lat":"37.063541439","long":"127.02880994","items":[{"name":"대성싱크유통","tel":"031-611-6067","addr":"경기도 평택시 고덕면 두릉리 796-4번지","category":"주방용구 - 주방용구"}]},{"lat":"37.067760502","long":"127.01603784","items":[{"name":"동창식당","tel":"031-662-5595","addr":"경기도 평택시 고덕면 두릉리 297-1","category":"일반휴게음식 - 일반한식"}]},{"lat":"37.067093596","long":"127.01709468","items":[{"name":"라프네 애견미용실","tel":"","addr":"경기도 평택시 고덕면 두릉리 296-4번지","category":"문화.취미 - 애완동물"}]},{"lat":"37.067733348","long":"127.0170948","items":[{"name":"삼보티에스 (주)","tel":"031-611-1959","addr":"경기도 평택시 고덕면 두릉리 254-4번지","category":"기타 - 기계공구"}]},{"lat":"37.065038357","long":"127.02281745","items":[{"name":"삼우고시텔","tel":"","addr":"경기도 평택시 고덕면 두릉리 188-4번지 외 1필지","category":"학원 - 독서실"}]},{"lat":"37.071318987","long":"127.02128979","items":[{"name":"수원상회","tel":"031-666-6901","addr":"경기도 평택시 고덕면 두릉리 224-1번지","category":"음료식품 - 기타음료식품"}]},{"lat":"37.070120651","long":"127.02081723","items":[{"name":"에스엠배관용접학원","tel":"070-7576-2970","addr":"경기도 평택시 고덕면 두릉리 222-4번지","category":"학원 - 기능학원"}]},{"lat":"37.057064902","long":"127.01617091","items":[{"name":"종덕초등학교","tel":"031-667-4537","addr":"경기도 평택시 고덕면 두릉리 608-1번지","category":"학원 - 초중고교육기관"},{"name":"종덕초등학교_수업료","tel":"031-667-4537","addr":"경기도 평택시 고덕면 두릉리 608-1번지","category":"학원 - 초중고교육기관"},{"name":"종덕초등학교병설유치원[아이행복]","tel":"031-668-5593","addr":"경기도 평택시 고덕면 두릉리 608-1번지","category":"학원 - 유치원"}]},{"lat":"37.066453944","long":"127.01622876","items":[{"name":"주식회사 늘품","tel":"031-665-7562","addr":"경기도 평택시 고덕면 두릉리 302번지","category":"용역 서비스 - 종합용역"}]},{"lat":"37.066454047","long":"127.01528426","items":[{"name":"카페나무와 신성","tel":"031-663-0116","addr":"경기도 평택시 고덕면 두릉리 299번지","category":"일반휴게음식 - 서양음식"}]},{"lat":"37.057515162","long":"127.01839706","items":[{"name":"툇마루","tel":"031-665-6767","addr":"경기도 평택시 고덕면 두릉리 642-1번지","category":"일반휴게음식 - 일반한식"}]},{"lat":"37.068265016","long":"127.01673508","items":[{"name":"편백사랑","tel":"070-4184-8301","addr":"경기도 평택시 고덕면 두릉리 253-4번지","category":"회원제형태 - 기타4"}]},{"lat":"37.066066232","long":"127.01834258","items":[{"name":"프리덤알브이","tel":"031-667-3369","addr":"경기도 평택시 고덕면 두릉리 305번지 외1필지 B동","category":"레져용품 - 스포츠·레져용품"}]},{"lat":"37.063344488","long":"127.02206368","items":[{"name":"현대만물","tel":"031-666-2343","addr":"경기도 평택시 고덕면 두릉리 168번지","category":"의류 - 기타의류"}]},{"lat":"37.064488962","long":"127.02125441","items":[{"name":"혜인셔터","tel":"031-665-7051","addr":"경기도 평택시 고덕면 두릉리 191-1번지","category":"건축자재 - 기타건축자재"}]}]