[{"lat":"37.381084405","long":"126.86193744","items":[{"name":"260도씨","tel":"","addr":"경기도 시흥시 조남동 711-1번지 로얄팰리스4차 107호","category":"음식점업 - 제빵"},{"name":"홍루이젠 목감신도시점","tel":"031-411-5085","addr":"경기도 시흥시 조남동 711-1번지 로얄팰리스4차 1층 105호","category":"음식점업 - 휴게음식점"}]},{"lat":"37.373417052","long":"126.8547715","items":[{"name":"365조은약국","tel":"031-403-1178","addr":"경기도 시흥시 조남동 677번지 골든프라자 101호","category":"보건업 - 약국"},{"name":"뮤엠영어셀파우등생학원","tel":"","addr":"경기도 시흥시 조남동 677번지 골든프라자 301호","category":"교육서비스업 - 보습학원"}]},{"lat":"37.382107332","long":"126.85843529","items":[{"name":"E카마트신성카센터","tel":"031-405-7896","addr":"경기도 시흥시 조남동 178-14번지 중앙그린타운","category":"개인서비스업 - 자동차정비"},{"name":"이카마트(e-카마트)","tel":"","addr":"경기도 시흥시 조남동 178-14번지 중앙그린타운 1층 102호","category":"개인서비스업 - 자동차정비"}]},{"lat":"37.383027679","long":"126.85951748","items":[{"name":"GREEN PC방","tel":"","addr":"경기도 시흥시 조남동 169-31번지 2층","category":"개인서비스업 - PC방"},{"name":"옥이네식당","tel":"","addr":"경기도 시흥시 조남동 169-31번지","category":"음식점업 - 한식"},{"name":"한게임 당구클럽","tel":"","addr":"경기도 시흥시 조남동 169-31번지 지하","category":"스포츠및여가관련서비스업 - 당구장"}]},{"lat":"37.377530591","long":"126.85154565","items":[{"name":"㈜나눔스마트","tel":"031-318-8844","addr":"경기도 시흥시 조남동 659번지 101, 201, 202, 204호","category":"음식점업 - 카페"},{"name":"나이스가이시흥목감점","tel":"","addr":"경기도 시흥시 조남동 659번지 더 드림 1층 102호","category":"개인서비스업 - 미용업"},{"name":"드림골프","tel":"031-475-5599","addr":"경기도 시흥시 조남동 659번지 더드림 601호","category":"개인서비스업 - 스크린골프장"},{"name":"땅스부대찌개","tel":"031-483-8599","addr":"경기도 시흥시 조남동 659번지 더드림 109호","category":"음식점업 - 한식"},{"name":"브이스타짐","tel":"","addr":"경기도 시흥시 조남동 659번지 701호~706호(더드림)","category":"개인서비스업 - 헬스,요가"},{"name":"서울미소치과","tel":"031-503-3377","addr":"경기도 시흥시 조남동 659번지 더 드림 303~304호","category":"보건업 - 치과의원"},{"name":"스타일(star1)","tel":"","addr":"경기도 시흥시 조남동 659번지 더 드림 1층 103호","category":"소매업 - 의류"},{"name":"영구스까사맘피자앤커피 목감점","tel":"031-401-0988","addr":"경기도 시흥시 조남동 659번지 더 드림 1층 110호","category":"음식점업 - 피자, 커피"},{"name":"토방닭한마리","tel":"","addr":"경기도 시흥시 조남동 659번지 더드림 204호","category":"음식점업 - 음식점"},{"name":"프레리키즈카페","tel":"031-411-0099","addr":"경기도 시흥시 조남동 659번지 401~404호","category":"개인서비스업 - 실내놀이터"},{"name":"헤어북카페세이프존","tel":"031-411-4177","addr":"경기도 시흥시 조남동 659번지 더드림 205호","category":"개인서비스업 - 미용"}]},{"lat":"37.383801695","long":"126.85881595","items":[{"name":"가위로마법처럼","tel":"031-317-4321","addr":"경기도 시흥시 조남동 169번지 삼호아파트 상가 1층 103호","category":"개인서비스업 - 미용"},{"name":"동해칼국수","tel":"031-403-4325","addr":"경기도 시흥시 조남동 169번지 삼호아파트 상가 101호","category":"음식점업 - 한식"}]},{"lat":"37.377529911","long":"126.85101501","items":[{"name":"강정구의피자생각 목감점","tel":"031-414-8599","addr":"경기도 시흥시 조남동 652번지 다인로얄팰리스6차 1층 101호","category":"음식점업 - 피자"},{"name":"미시들의수다","tel":"","addr":"경기도 시흥시 조남동 652번지 다인로얄팰리스6차 1층 112호","category":"소매업 - 의류"},{"name":"참치앤스시","tel":"031-402-5058","addr":"경기도 시흥시 조남동 652번지 다인로얄팰리스5차 상가 110호","category":"음식점업 - 한식"}]},{"lat":"37.381057966","long":"126.86243429","items":[{"name":"경희대 라이온킹 태권도","tel":"031-414-0258","addr":"경기도 시흥시 조남동 712-3번지 메트로타워-2 5층 504호","category":"교육서비스업 - 태권도"},{"name":"와이3 복싱클럽","tel":"031-411-1282","addr":"경기도 시흥시 조남동 712-3번지 메트로타워-2 302호","category":"스포츠및여가관련서비스업 - 체육도장"},{"name":"주식회사 이루어짐 목감2호점","tel":"","addr":"경기도 시흥시 조남동 712-3번지 메트로타워-2 4층","category":"스포츠및여가관련서비스업 - 체력단련장"}]},{"lat":"37.380857313","long":"126.8604023","items":[{"name":"고백(GOBAKE)","tel":"031-503-5004","addr":"경기도 시흥시 조남동 707-1번지 이지움더테라스 109호","category":"음식점업 - 제과"},{"name":"꾹이네닭요리","tel":"031-410-8215","addr":"경기도 시흥시 조남동 707-1번지 이지움 더테라스 2층 202호","category":"음식점업 - 한식"},{"name":"목감시티동물병원","tel":"031-504-7559","addr":"경기도 시흥시 조남동 707-1번지 이지움더테라스1차 1층","category":"보건업 - 수의업"},{"name":"비비에스테틱","tel":"031-503-3661","addr":"경기도 시흥시 조남동 707-1번지 이지움 더테라스 2층 213호","category":"개인서비스업 - 피부미용"},{"name":"소담","tel":"031-504-9299","addr":"경기도 시흥시 조남동 707-1번지 2층 225,226호","category":"음식점업 - 한식"},{"name":"슈가클로리스","tel":"031-503-1414","addr":"경기도 시흥시 조남동 707-1번지 목감역이지움더테라스 212호","category":"소매업 - 꽃소매"},{"name":"식객","tel":"","addr":"경기도 시흥시 조남동 707-1번지 목감역이지움더테라스 2층 224호","category":"음식점업 - 한식"},{"name":"정든닭발 목감점","tel":"031-503-0304","addr":"경기도 시흥시 조남동 707-1번지 목감역이지움더테라스 2층 209호","category":"음식점업 - 한식, 닭발"},{"name":"한가득족발","tel":"031-503-3335","addr":"경기도 시흥시 조남동 707-1번지 이지움 더테라스 217호","category":"음식점업 - 한식"}]},{"lat":"37.377890633","long":"126.85126267","items":[{"name":"고수컷","tel":"","addr":"경기도 시흥시 조남동 652-2번지 태진레이크타운 1층 114호","category":"개인서비스업 - 미용업"},{"name":"고수케이크","tel":"","addr":"경기도 시흥시 조남동 652-2번지 태진레이크타운 1층 114호","category":"음식점업 - 제과점"}]},{"lat":"37.385135709","long":"126.85924248","items":[{"name":"고향슈퍼","tel":"031-403-1812","addr":"경기도 시흥시 조남동 171-18번지","category":"소매업 - 슈퍼마켓"},{"name":"백가네명태이야기","tel":"031-411-0332","addr":"경기도 시흥시 조남동 171-18번지 가야상가 101호","category":"음식점업 - 한식"},{"name":"예가체프104","tel":"","addr":"경기도 시흥시 조남동 171-18번지 가야상가 104호","category":"음식점업 - 커피,음료"},{"name":"장미헤어샵","tel":"031-405-5241","addr":"경기도 시흥시 조남동 171-18번지","category":"개인서비스업 - 미용업"},{"name":"장원족발","tel":"031-404-9295","addr":"경기도 시흥시 조남동 171-18번지 가야상가 상가동 1층 2호","category":"음식점업 - 한식"}]},{"lat":"37.376607209","long":"126.84818302","items":[{"name":"국가대표 과일촌 목감점","tel":"","addr":"경기도 시흥시 조남동 660번지 호반베르디움더레이크 418동 101호","category":"소매업 - 농수산물"},{"name":"뚱이네","tel":"","addr":"경기도 시흥시 조남동 660번지 호반베르디움 더 레이크 418동 1층 110호","category":"음식점업 - 기타 주점업"},{"name":"사계절맛찬","tel":"031-411-2252","addr":"경기도 시흥시 조남동 660번지 호반2차 상가 107호","category":"소매업 - 반찬가게"}]},{"lat":"37.385974522","long":"126.85996354","items":[{"name":"김용순 전통식품","tel":"031-405-5604","addr":"경기도 시흥시 조남동 171-9번지","category":"소매업 - 반찬류"},{"name":"땅스 부대찌개","tel":"031-401-8599","addr":"경기도 시흥시 조남동 171-9번지 102호","category":"제조업 - 즉석조리식품"},{"name":"욜로치킨앤 수제탕수육","tel":"031-405-9982","addr":"경기도 시흥시 조남동 171-9번지","category":"음식점업 - 일반음식점"}]},{"lat":"37.386136772","long":"126.86001969","items":[{"name":"나라면김밥","tel":"031-403-9877","addr":"경기도 시흥시 조남동 171-7번지","category":"음식점업 - 분식"},{"name":"초원상사","tel":"031-405-7705","addr":"경기도 시흥시 조남동 171-7번지","category":"소매업 - 벽지, 바닥재, 인테리어"}]},{"lat":"37.373002757","long":"126.85490779","items":[{"name":"나봄","tel":"031-401-0729","addr":"경기도 시흥시 조남동 677-2번지 1층 108호","category":"음식점업 - 카페"},{"name":"왕순이주먹밥김밥","tel":"","addr":"경기도 시흥시 조남동 677-2번지 109호","category":"음식점업 - 음식"},{"name":"피자마루 목감중앙점","tel":"031-475-1082","addr":"경기도 시흥시 조남동 677-2번지 중앙프라자 110호","category":"음식점업 - 피자"}]},{"lat":"37.378054386","long":"126.852493","items":[{"name":"내고향왕만두 목감점","tel":"","addr":"경기도 시흥시 조남동 652-6번지 1층 104호","category":"음식점업 - 만두,찐빵"},{"name":"베스트골드(BEST골드)","tel":"031-402-7572","addr":"경기도 시흥시 조남동 652-6번지 센타프라자 105호","category":"소매업 - 귀금속"},{"name":"이바돔감자탕 목감신도시점","tel":"","addr":"경기도 시흥시 조남동 652-6번지 센터프라자2 2층 201~4호","category":"음식점업 - 한식"},{"name":"조남시그니처독서실","tel":"","addr":"경기도 시흥시 조남동 652-6번지 704~6호","category":"개인서비스업 - 독서실"},{"name":"카페론(CAF? RON)","tel":"031-401-8464","addr":"경기도 시흥시 조남동 652-6번지 센타프라자2 1층 109호","category":"음식점업 - 커피"},{"name":"코다리집밥","tel":"","addr":"경기도 시흥시 조남동 652-6번지 센타프라자 2층 206호","category":"음식점업 - 한식"},{"name":"태산갈비김치전골","tel":"031-401-7688","addr":"경기도 시흥시 조남동 652-6번지 센터프라자 2층 205호","category":"음식점업 - 감자탕"}]},{"lat":"37.376031906","long":"126.87165643","items":[{"name":"내쇼날산업","tel":"031-485-1440","addr":"경기도 시흥시 조남동 99-2번지","category":"소매업 - 산업용품"}]},{"lat":"37.373613656","long":"126.85348408","items":[{"name":"네일은맑음","tel":"031-402-0706","addr":"경기도 시흥시 조남동 676번지 신안인스빌 2층 202호","category":"개인서비스업 - 네일아트"},{"name":"돌체 바이올린 교습소","tel":"031-405-0811","addr":"경기도 시흥시 조남동 676번지 신안인스빌단지 상가 201호","category":"교육서비스업 - 바이올린"},{"name":"비타민 충전소","tel":"","addr":"경기도 시흥시 조남동 676번지 신안인스빌 상가 101호","category":"소매업 - 과일"},{"name":"엘림 음악 교습소","tel":"","addr":"경기도 시흥시 조남동 676번지 신안인스빌 203호","category":"교육서비스업 - 음악교습소"}]},{"lat":"37.377857281","long":"126.85337404","items":[{"name":"놀부부대찌개&철판구이 시흥목감점","tel":"031-410-8100","addr":"경기도 시흥시 조남동 657번지 키움프라자 2층 208호","category":"음식점업 - 일반음식점"},{"name":"마구와 당구장","tel":"","addr":"경기도 시흥시 조남동 657번지 키움프라자 601~3호","category":"개인서비스업 - 당구장"},{"name":"맛닭꼬(목감점)","tel":"031-405-2292","addr":"경기도 시흥시 조남동 657번지 키움프라자 115호","category":"음식점업 - 치킨"},{"name":"목감바른치과의원","tel":"031-481-9975","addr":"경기도 시흥시 조남동 657번지 키움프라자 305호","category":"보건업 - 치과"},{"name":"목감주짓수","tel":"","addr":"경기도 시흥시 조남동 657번지 403호","category":"교육서비스업 - 주짓수"},{"name":"복드림떡","tel":"031-487-0707","addr":"경기도 시흥시 조남동 657번지 1층 113호","category":"소매업 - 떡류"},{"name":"소아벨라(SOAVELA)","tel":"031-405-2468","addr":"경기도 시흥시 조남동 657번지 키움프라자 1층","category":"소매업 - 14k/18k 귀금속"},{"name":"아이조아키즈카페","tel":"031-401-9721","addr":"경기도 시흥시 조남동 657번지 4층 401,402호","category":"음식점업 - 키즈카페"},{"name":"이보영의 토킹클럽 시흥목감 학원","tel":"","addr":"경기도 시흥시 조남동 657번지 키움프라자 4층 406호","category":"교육서비스업 - 영어학원"},{"name":"정가네닭갈비막창","tel":"","addr":"경기도 시흥시 조남동 657번지 키움프라자 1층 105호","category":"음식점업 - 한식"},{"name":"초밥의 진수","tel":"031-410-3495","addr":"경기도 시흥시 조남동 657번지 114호","category":"음식점업 - 초밥"},{"name":"키움약국","tel":"031-485-5006","addr":"경기도 시흥시 조남동 657번지 키움프라자 1층 116호","category":"보건업 - 약국"},{"name":"탑(TOP)점핑다이어트클럽","tel":"031-401-2070","addr":"경기도 시흥시 조남동 657번지 키움프라자 6층 605호","category":"스포츠및여가관련서비스업 - 건강기능식"},{"name":"택이네조개전골","tel":"031-411-7577","addr":"경기도 시흥시 조남동 657번지 205호","category":"음식점업 - 한식"},{"name":"품격있는 돼지","tel":"","addr":"경기도 시흥시 조남동 657번지 2층 201호","category":"음식점업 - 한식"},{"name":"품격있는곱창","tel":"","addr":"경기도 시흥시 조남동 657번지 1층 101호","category":"음식점업 - 한식"}]},{"lat":"37.378253624","long":"126.85329422","items":[{"name":"달콤아이스크림 할인점","tel":"","addr":"경기도 시흥시 조남동 654번지 더클래스투 1층 101호","category":"소매업 - 아이스크림"},{"name":"더나은약국","tel":"031-503-3177","addr":"경기도 시흥시 조남동 654번지 더클래스투 104-1호","category":"보건업 - 양약,의약품,의류기기"},{"name":"베델헤어","tel":"031-507-7070","addr":"경기도 시흥시 조남동 654번지 더클래스투 1층 106호","category":"개인서비스업 - 미용"},{"name":"사랑가득 찬","tel":"","addr":"경기도 시흥시 조남동 654번지 지1층 L103호","category":"소매업 - 반찬"},{"name":"카페감","tel":"","addr":"경기도 시흥시 조남동 654번지 더클래스투 1층 104-2호","category":"음식점업 - 커피"},{"name":"홍대숯불바베큐치킨","tel":"","addr":"경기도 시흥시 조남동 654번지 더클래스투 G동 1층 107호","category":"음식점업 - 음식점(치킨)"}]},{"lat":"37.384496623","long":"126.8597631","items":[{"name":"대우부동산","tel":"031-480-8980","addr":"경기도 시흥시 조남동 171-15번지 1층","category":"개인서비스업 - 부동산중개업"},{"name":"안경스케치","tel":"","addr":"경기도 시흥시 조남동 171-15번지 1층","category":"소매업 - 안경,선글라스"}]},{"lat":"37.379196385","long":"126.8507068","items":[{"name":"대청들","tel":"031-348-9316","addr":"경기도 시흥시 조남동 366-30번지 2층","category":"음식점업 - 한식"}]},{"lat":"37.384079724","long":"126.85776532","items":[{"name":"대한슈퍼","tel":"031-405-5134","addr":"경기도 시흥시 조남동 171-20번지 수정상가 102호","category":"소매업 - 슈퍼마켓"}]},{"lat":"37.377694255","long":"126.85270823","items":[{"name":"돈돈정 목감점","tel":"031-411-8095","addr":"경기도 시흥시 조남동 657-1번지 2층 201호","category":"음식점업 - 일식"},{"name":"두리킨더예술교육원","tel":"031-414-7954","addr":"경기도 시흥시 조남동 657-1번지 5층 504호","category":"교육서비스업 - 예능계열학원"},{"name":"목감GNB영수학원","tel":"","addr":"경기도 시흥시 조남동 657-1번지 메이저타워 501호","category":"교육서비스업 - 학교교과교습학원"},{"name":"목감온누리약국","tel":"031-411-3181","addr":"경기도 시흥시 조남동 657-1번지 102호","category":"보건업 - 약국"},{"name":"살롱드에이치(H)","tel":"","addr":"경기도 시흥시 조남동 657-1번지 3층 304호","category":"개인서비스업 - 미용실"},{"name":"아이마트 안경콘택트","tel":"","addr":"경기도 시흥시 조남동 657-1번지 203호","category":"소매업 - 안경점"},{"name":"온리우한의원","tel":"031-484-7575","addr":"경기도 시흥시 조남동 657-1번지 4층 403호","category":"보건업 - 한의원"},{"name":"진가네통영굴밥","tel":"031-405-7873","addr":"경기도 시흥시 조남동 657-1번지 메이저타워 1층 105호","category":"음식점업 - 한식"},{"name":"통큰할매순대국","tel":"031-410-3303","addr":"경기도 시흥시 조남동 657-1번지 메이저타워 2층 204호","category":"음식점업 - 한식"},{"name":"한국체대 인성 태권도","tel":"","addr":"경기도 시흥시 조남동 657-1번지 7층 701호 702호","category":"교육서비스업 - 태권도"},{"name":"호수동물병원","tel":"","addr":"경기도 시흥시 조남동 657-1번지 103호","category":"보건업 - 동물병원"}]},{"lat":"37.380030502","long":"126.85479237","items":[{"name":"돌체","tel":"031-402-9973","addr":"경기도 시흥시 조남동 216번지","category":"음식점업 - 피자,파스타"}]},{"lat":"37.384947168","long":"126.85979612","items":[{"name":"두꺼비","tel":"031-403-9360","addr":"경기도 시흥시 조남동 171-13번지","category":"개인서비스업 - 전기,열쇠,도장"},{"name":"목감 BYC","tel":"031-403-7940","addr":"경기도 시흥시 조남동 171-13번지","category":"소매업 - 내의"},{"name":"미즈","tel":"031-403-4992","addr":"경기도 시흥시 조남동 171-13번지","category":"소매업 - 의류"}]},{"lat":"37.384721875","long":"126.85976267","items":[{"name":"디올","tel":"","addr":"경기도 시흥시 조남동 171-14번지","category":"소매업 - 의류"}]},{"lat":"37.381077962","long":"126.85663072","items":[{"name":"란주짬뽕","tel":"031-411-0608","addr":"경기도 시흥시 조남동 227-1번지 1층","category":"음식점업 - 중식"}]},{"lat":"37.375058916","long":"126.84929262","items":[{"name":"레이첼잉글리쉬","tel":"","addr":"경기도 시흥시 조남동 669번지 한신더휴센트럴파크아파트 506동 104호","category":"교육서비스업 - 영어학원"},{"name":"바보정육점","tel":"031-413-0084","addr":"경기도 시흥시 조남동 669번지 시흥목감한신더휴센트럴파크 105호","category":"소매업 - 정육점"},{"name":"한신더휴공인중개사무소","tel":"031-411-0388","addr":"경기도 시흥시 조남동 669번지 시흥목감한신더휴센트럴파크 단지내상가 지하1층 8호","category":"개인서비스업 - 부동산"}]},{"lat":"37.382197598","long":"126.85857061","items":[{"name":"마라도수산","tel":"031-480-1222","addr":"경기도 시흥시 조남동 178-13번지 중앙그린타운 102호","category":"음식점업 - 음식점"}]},{"lat":"37.374552687","long":"126.84801789","items":[{"name":"명문에듀학원","tel":"","addr":"경기도 시흥시 조남동 664-2번지 한신프라자 305호","category":"교육서비스업 - 학원"},{"name":"블링블링 슬라임","tel":"031-410-8839","addr":"경기도 시흥시 조남동 664-2번지 한신프라자 401호","category":"개인서비스업 - DIY슬라임체험"},{"name":"아인클랑 음악학원","tel":"031-410-5060","addr":"경기도 시흥시 조남동 664-2번지 한신프라자 303호","category":"교육서비스업 - 음악교육"},{"name":"이아이이목감영어학원","tel":"","addr":"경기도 시흥시 조남동 664-2번지 한신프라자 205호","category":"교육서비스업 - 영어"}]},{"lat":"37.382441352","long":"126.85896534","items":[{"name":"목감떡방앗간","tel":"031-403-5656","addr":"경기도 시흥시 조남동 168-25번지","category":"제조업 - 방앗간"}]},{"lat":"37.386388986","long":"126.85996275","items":[{"name":"목감문구센터","tel":"031-403-2946","addr":"경기도 시흥시 조남동 171-53번지","category":"소매업 - 문구"},{"name":"시흥목감지사","tel":"031-482-1888","addr":"경기도 시흥시 조남동 171-53번지 목감프라자 3층 302호","category":"소매업 - 화장품,건강식품"}]},{"lat":"37.375802208","long":"126.85276846","items":[{"name":"목감술집","tel":"031-475-7201","addr":"경기도 시흥시 조남동 662번지 시흥목감일에이치7단지 상가동 1층 103호","category":"음식점업 - 호프"},{"name":"전설갈비 목감점","tel":"031-432-7566","addr":"경기도 시흥시 조남동 662번지 LH7단지 상가 104호","category":"음식점업 - 한식"},{"name":"처갓집양념치킨 목감점","tel":"031-414-0056","addr":"경기도 시흥시 조남동 662번지 시흥목감엘에이치7단지 상가동 102호","category":"음식점업 - 치킨"}]},{"lat":"37.380524943","long":"126.86123846","items":[{"name":"목감하윤음악학원","tel":"031-402-7397","addr":"경기도 시흥시 조남동 709번지 다인로얄팰리스상가2차 501,502호","category":"교육서비스업 - 음악"},{"name":"밈 브레드","tel":"050-6743-0000","addr":"경기도 시흥시 조남동 709번지 목감로얄팰리스2 1층 106호","category":"음식점업 - 제과점"},{"name":"아트&하트 미술목감센터","tel":"031-405-0405","addr":"경기도 시흥시 조남동 709번지 목감로얄팰리스 503호","category":"교육서비스업 - 심리미술연구센터"},{"name":"에스원영수학원","tel":"031-486-5051","addr":"경기도 시흥시 조남동 709번지 로얄팰리스2 506, 507호","category":"교육서비스업 - 보습학원"},{"name":"크린토피아 코인워시 시흥목감역점","tel":"031-507-2105","addr":"경기도 시흥시 조남동 709번지 목감로얄팰리스2 105호","category":"개인서비스업 - 세탁중개업"}]},{"lat":"37.374750761","long":"126.84790458","items":[{"name":"몽글아트미술학원","tel":"031-403-0805","addr":"경기도 시흥시 조남동 664-1번지 물왕프라자 403호","category":"교육서비스업 - 학원"},{"name":"물왕돈까스","tel":"","addr":"경기도 시흥시 조남동 664-1번지 J664.1 2층 201호","category":"음식점업 - 음식점"},{"name":"진림양꼬치","tel":"031-402-6332","addr":"경기도 시흥시 조남동 664-1번지 물왕프라자 2층 203호","category":"음식점업 - 한식"},{"name":"한성샤브샤브짬뽕","tel":"031-414-5588","addr":"경기도 시흥시 조남동 664-1번지 J664.1 2층 202호","category":"음식점업 - 중국 음식점업"}]},{"lat":"37.385415761","long":"126.85985169","items":[{"name":"무지개컴퓨터","tel":"031-484-7295","addr":"경기도 시흥시 조남동 171-17번지 1층 2호","category":"소매업 - 컴퓨터및주변기기"},{"name":"샤플리랜드","tel":"031-411-0977","addr":"경기도 시흥시 조남동 171-17번지","category":"개인서비스업 - 미용"},{"name":"피자마루","tel":"031-487-1082","addr":"경기도 시흥시 조남동 171-17번지","category":"음식점업 - 피자"}]},{"lat":"37.384001274","long":"126.85993341","items":[{"name":"물왕종합건재","tel":"031-405-6998","addr":"경기도 시흥시 조남동 169-44번지","category":"소매업 - 잡기물"}]},{"lat":"37.378194584","long":"126.86398642","items":[{"name":"바른스푼","tel":"031-411-6132","addr":"경기도 시흥시 조남동 721번지 시흥목감호반베르디움더클래스 401동 1층 105호","category":"음식점업 - 카페, 과자, 쿠킹클래스"},{"name":"필헤어","tel":"070-8977-1010","addr":"경기도 시흥시 조남동 721번지 호반베르디움3차 상가 107호","category":"개인서비스업 - 미용업"}]},{"lat":"37.38091324","long":"126.86196034","items":[{"name":"베이글카페","tel":"031-401-8083","addr":"경기도 시흥시 조남동 711-2번지 메트로상가 101호","category":"음식점업 - 커피전문점"},{"name":"블럭 앤 블럭","tel":"031-485-4005","addr":"경기도 시흥시 조남동 711-2번지 메트로타워 5층 503호","category":"개인서비스업 - 장난감대여"},{"name":"삼성영어조남학원","tel":"031-520-8905","addr":"경기도 시흥시 조남동 711-2번지 메트로타워1차 601호","category":"교육서비스업 - 영어"},{"name":"센스헤어","tel":"","addr":"경기도 시흥시 조남동 711-2번지 메트로타워1 1층 105호","category":"개인서비스업 - 미용업"},{"name":"어썸(awesome)","tel":"","addr":"경기도 시흥시 조남동 711-2번지 메트로타워1 108호","category":"소매업 - 의류"}]},{"lat":"37.382693826","long":"126.85912293","items":[{"name":"별미족발","tel":"031-405-9938","addr":"경기도 시흥시 조남동 168-2번지","category":"음식점업 - 한식"},{"name":"위즈헤어","tel":"031-405-7874","addr":"경기도 시흥시 조남동 168-2번지 1층 일부호","category":"개인서비스업 - 미용"}]},{"lat":"37.379973246","long":"126.85951201","items":[{"name":"봄헤어살롱","tel":"031-480-1233","addr":"경기도 시흥시 조남동 706번지 엘에이치퍼스트리움 103호","category":"개인서비스업 - 미용실"}]},{"lat":"37.385550912","long":"126.85985143","items":[{"name":"부어치킨 목감점","tel":"031-483-5950","addr":"경기도 시흥시 조남동 171-11번지 101호","category":"음식점업 - 치킨"},{"name":"쌀눈쌀현미누룽지","tel":"","addr":"경기도 시흥시 조남동 171-11번지","category":"음식점업 - 일반음식점"},{"name":"에벤에셀","tel":"031-405-7010","addr":"경기도 시흥시 조남동 171-11번지","category":"소매업 - 화장품"}]},{"lat":"37.385749161","long":"126.85987364","items":[{"name":"샤론꽃집","tel":"031-403-7311","addr":"경기도 시흥시 조남동 171-10번지","category":"소매업 - 화원"},{"name":"영패션","tel":"","addr":"경기도 시흥시 조남동 171-10번지","category":"소매업 - 의류"}]},{"lat":"37.376363254","long":"126.85468667","items":[{"name":"선우축산","tel":"031-433-8560","addr":"경기도 시흥시 조남동 663번지 가온수플 상가동 1층 101호","category":"소매업 - 식육"}]},{"lat":"37.384774963","long":"126.85896088","items":[{"name":"소망세탁","tel":"031-403-7554","addr":"경기도 시흥시 조남동 171번지 세우아파트","category":"개인서비스업 - 세탁"},{"name":"왕치킨","tel":"031-403-9225","addr":"경기도 시흥시 조남동 171번지 세우 상가 1층 3호","category":"음식점업 - 기타음식"}]},{"lat":"37.383189929","long":"126.85957363","items":[{"name":"시흥감자탕","tel":"031-405-1210","addr":"경기도 시흥시 조남동 169-1번지","category":"음식점업 - 한식"}]},{"lat":"37.382585582","long":"126.85902152","items":[{"name":"신전떡볶이 시흥목감점","tel":"031-480-4801","addr":"경기도 시흥시 조남동 168-12번지 1층 2호","category":"음식점업 - 분식"}]},{"lat":"37.381636093","long":"126.86368651","items":[{"name":"아트","tel":"","addr":"경기도 시흥시 조남동 716번지 1층","category":"소매업 - 자동차부품"}]},{"lat":"37.379055636","long":"126.85338296","items":[{"name":"알레르망 시흥목감지점","tel":"031-414-2727","addr":"경기도 시흥시 조남동 218-25번지 1동 우측상가호","category":"소매업 - 침구류, 방석"}]},{"lat":"37.382305857","long":"126.85868332","items":[{"name":"엔젤헤어샵","tel":"031-483-2004","addr":"경기도 시흥시 조남동 178-3번지 중앙그린타운 102호","category":"개인서비스업 - 미용업"}]},{"lat":"37.381474363","long":"126.85659608","items":[{"name":"유안플라워","tel":"031-411-7523","addr":"경기도 시흥시 조남동 188번지","category":"소매업 - 화원"}]},{"lat":"37.381892162","long":"126.85931641","items":[{"name":"이묘희할매고깃집(이묘희외식공간)","tel":"031-410-9252","addr":"경기도 시흥시 조남동 180-10번지","category":"음식점업 - 한식"}]},{"lat":"37.386388576","long":"126.859624","items":[{"name":"작은뜰안카페","tel":"","addr":"경기도 시흥시 조남동 171-48번지","category":"음식점업 - 휴게음식점"}]},{"lat":"37.386443251","long":"126.86013203","items":[{"name":"장터순대국","tel":"","addr":"경기도 시흥시 조남동 171-64번지","category":"음식점업 - 한식"}]},{"lat":"37.384307685","long":"126.85998929","items":[{"name":"정헤어아트","tel":"031-414-6009","addr":"경기도 시흥시 조남동 169-11번지","category":"개인서비스업 - 미용실"},{"name":"펠리체음악학원","tel":"031-483-5553","addr":"경기도 시흥시 조남동 169-11번지 2층","category":"교육서비스업 - 음악학원"}]},{"lat":"37.373191899","long":"126.85485097","items":[{"name":"주식회사 다인유통","tel":"031-411-4656","addr":"경기도 시흥시 조남동 677-1번지","category":"소매업 - 슈퍼마켓"}]},{"lat":"37.378970992","long":"126.85776387","items":[{"name":"지니헤어","tel":"031-319-3629","addr":"경기도 시흥시 조남동 700번지 시흥목감엘에이치13단지 1층 102호","category":"개인서비스업 - 미용"},{"name":"한우애정육점","tel":"031-410-9242","addr":"경기도 시흥시 조남동 700번지 시흥목감엘에이치13단지 상가동 103호","category":"소매업 - 정육점"}]},{"lat":"37.37396781","long":"126.85568489","items":[{"name":"착한족발","tel":"031-403-0678","addr":"경기도 시흥시 조남동 678번지 리벤트움 상가 106호","category":"음식점업 - 한식"},{"name":"컬리헤어","tel":"031-411-5656","addr":"경기도 시흥시 조남동 678번지 리벤트움 상가 103호","category":"개인서비스업 - 미용업"},{"name":"홍진이네정육점","tel":"031-480-9289","addr":"경기도 시흥시 조남동 678번지 리벤티움 101호","category":"소매업 - 정육점"}]},{"lat":"37.377639735","long":"126.85234705","items":[{"name":"클래식 & 락 볼링센터","tel":"031-410-0925","addr":"경기도 시흥시 조남동 657-2번지 태강플라자 301~3, 401~3호","category":"개인서비스업 - 볼링장"}]},{"lat":"37.386578429","long":"126.86015435","items":[{"name":"펀비어킹 시흥목감점","tel":"031-520-6397","addr":"경기도 시흥시 조남동 산6-10번지 2층","category":"음식점업 - 호프"},{"name":"페리카나 목감점","tel":"031-405-3677","addr":"경기도 시흥시 조남동 산6-10번지","category":"음식점업 - 치킨"}]},{"lat":"37.380361921","long":"126.86053873","items":[{"name":"푸드컴퍼니","tel":"031-483-8288","addr":"경기도 시흥시 조남동 707-3번지 목감로얄팰리스1 1층 114호","category":"음식점업 - 한식"}]},{"lat":"37.382584078","long":"126.85779079","items":[{"name":"피자나라치킨공주 시흥목감점","tel":"031-481-8250","addr":"경기도 시흥시 조남동 175-8번지 주님의순복음교회 1층 2호","category":"음식점업 - 피자,치킨"}]},{"lat":"37.38272032","long":"126.85868252","items":[{"name":"하모니마트 조남동","tel":"031-482-8720","addr":"경기도 시흥시 조남동 168-10번지","category":"소매업 - 슈퍼마켓"}]},{"lat":"37.381972855","long":"126.85898881","items":[{"name":"할매고깃집","tel":"031-410-9252","addr":"경기도 시흥시 조남동 179-4번지","category":"음식점업 - 한식"}]}]