[{"lat":"37.769458797","long":"127.1963603","items":[{"name":"ATO 일렉트로닉스","tel":"031-533-7782","addr":"경기도 포천시 내촌면 마명리 252-34번지","category":"서적문구 - 완구점"},{"name":"디자인나날","tel":"","addr":"경기도 포천시 내촌면 마명리 252-34번지","category":"건축자재 - 인테리어전문"}]},{"lat":"37.767100267","long":"127.19516248","items":[{"name":"GS25마명제일점","tel":"532-2644","addr":"경기도 포천시 내촌면 마명리 273-14번지","category":"편의점 - 편의점"},{"name":"GS25마명제일점","tel":"031-532-2644","addr":"경기도 포천시 내촌면 마명리 273-14번지","category":"편의점 - 편의점"},{"name":"GS25마명제일점","tel":"02-2006-2485","addr":"경기도 포천시 내촌면 마명리 273-14","category":"유통업 영리 - 편 의 점"},{"name":"인더스(주)","tel":"031-572-1005","addr":"경기도 포천시 내촌면 마명리 273-14","category":"여행 - 렌터카"}]},{"lat":"37.784570232","long":"127.20558346","items":[{"name":"건영섬유","tel":"031-533-3077","addr":"경기도 포천시 내촌면 마명리 10번지","category":"직물 - 침구·수예점"}]},{"lat":"37.769343439","long":"127.19528178","items":[{"name":"금인공업사","tel":"031-531-4091","addr":"경기도 포천시 내촌면 마명리 250-1,외250-14","category":"신변잡화 - 기타잡화"}]},{"lat":"37.766127374","long":"127.20052812","items":[{"name":"나프우드","tel":"070-4133-9696","addr":"경기도 포천시 내촌면 마명리 107-1번지 1층","category":"가구 - 일반가구"}]},{"lat":"37.765706362","long":"127.19358134","items":[{"name":"내촌중기자동차공업사","tel":"031-531-2207","addr":"경기도 포천시 내촌면 마명리 357-9번지","category":"기타 - 기계공구"}]},{"lat":"37.766819003","long":"127.20177839","items":[{"name":"농업회사법인 주식회사 우리라이스산업","tel":"031-533-9373","addr":"경기도 포천시 내촌면 마명리 115-3번지 (마명리115-3,120-14,115-4)","category":"음료식품 - 기타음료식품"}]},{"lat":"37.766648798","long":"127.20119912","items":[{"name":"대화C&F","tel":"031-528-1890","addr":"경기도 포천시 내촌면 마명리 110-9 가동,나동","category":"전기제품 - 냉열기기"}]},{"lat":"37.768122799","long":"127.20330271","items":[{"name":"동일기계","tel":"031-532-0617","addr":"경기도 포천시 내촌면 마명리 118번지","category":"주방용구 - 주방용구"}]},{"lat":"37.765764766","long":"127.19644147","items":[{"name":"마명포도농원","tel":"031-532-2644","addr":"경기도 포천시 내촌면 마명리 295번지","category":"음료식품 - 농·축·수산품"}]},{"lat":"37.764957177","long":"127.19444194","items":[{"name":"메케니멀(McAnimal)","tel":"031-532-0641","addr":"경기도 포천시 내촌면 마명리 310-2번지","category":"자동차판매 - 이륜차판매"}]},{"lat":"37.781317277","long":"127.20589242","items":[{"name":"미소식당","tel":"535-1253","addr":"경기도 포천시 내촌면 마명리 27-14번지","category":"음식 - 한식"},{"name":"미소식당","tel":"031-535-1253","addr":"경기도 포천시 내촌면 마명리 27-14번지","category":"일반휴게음식 - 일반한식"}]},{"lat":"37.781760144","long":"127.20507631","items":[{"name":"미크론산업","tel":"070-8632-5393","addr":"경기도 포천시 내촌면 마명리 215-3번지","category":"보건위생 - 의료용품"}]},{"lat":"37.773847454","long":"127.20116159","items":[{"name":"민토리","tel":"031-532-4347","addr":"경기도 포천시 내촌면 마명리 142-2번지","category":"학원 - 기타 교육기관"}]},{"lat":"37.76609329","long":"127.19935907","items":[{"name":"보성산업","tel":"031-527-8272","addr":"경기도 포천시 내촌면 마명리 105","category":"신변잡화 - 신발"}]},{"lat":"37.766064807","long":"127.19477393","items":[{"name":"부영한식부페","tel":"031-531-3948","addr":"경기도 포천시 내촌면 마명리 306-10번지 가동 1층","category":"일반휴게음식 - 일반한식"},{"name":"태화모터스","tel":"031-534-2170","addr":"경기도 포천시 내촌면 마명리 306-10번지","category":"자동차정비 유지 - 자동차정비"}]},{"lat":"37.772901442","long":"127.20117042","items":[{"name":"뿌리","tel":"031-534-1010","addr":"경기도 포천시 내촌면 마명리 139-1번지","category":"일반휴게음식 - 일반한식"}]},{"lat":"37.771566645","long":"127.2019954","items":[{"name":"서운동산","tel":"031-533-9000","addr":"경기도 포천시 내촌면 마명리 127-3","category":"레저업소 - 기타레져업소"}]},{"lat":"37.763514922","long":"127.19489218","items":[{"name":"세근휄트","tel":"031-534-5618","addr":"경기도 포천시 내촌면 마명리 318번지","category":"직물 - 카페트,커튼,천막,지물"}]},{"lat":"37.770878299","long":"127.19878153","items":[{"name":"에스피","tel":"031-533-9841","addr":"경기도 포천시 내촌면 마명리 252-58번지","category":"레져용품 - 스포츠·레져용품"},{"name":"에스피","tel":"031-533-9841","addr":"경기도 포천시 내촌면 마명리 252-58번지","category":"레져용품 - 스포츠·레져용품"},{"name":"허리우드당구재료","tel":"02-971-8371","addr":"경기도 포천시 내촌면 마명리 252-58번지","category":"레져용품 - 스포츠·레져용품"}]},{"lat":"37.770402604","long":"127.19769069","items":[{"name":"용진산업","tel":"031-533-1101","addr":"경기도 포천시 내촌면 마명리 252-21","category":"기타 - 기타 전문점"}]},{"lat":"37.766712489","long":"127.19538846","items":[{"name":"위드미 포천마명점","tel":"031-532-5590","addr":"경기도 포천시 내촌면 마명리 297-2번지 1층","category":"유통업 영리 - 편 의 점"},{"name":"이마트24마명점","tel":"","addr":"경기도 포천시 내촌면 마명리 297-2번지","category":"편의점 - 편의점"}]},{"lat":"37.767454042","long":"127.19916973","items":[{"name":"유성스파","tel":"031-531-6021","addr":"경기도 포천시 내촌면 마명리 109-1번지","category":"건축자재 - 건축용 요업제품"}]},{"lat":"37.76659991","long":"127.20346884","items":[{"name":"주식회사 금용","tel":"031-535-8819","addr":"경기도 포천시 내촌면 마명리 117-16번지","category":"신변잡화 - 기타잡화"}]},{"lat":"37.765037487","long":"127.19491881","items":[{"name":"주식회사 학표벽지","tel":"031-533-6211","addr":"경기도 포천시 내촌면 마명리 309-3번지 외1필지","category":"직물 - 카페트,커튼,천막,지물"}]},{"lat":"37.769044809","long":"127.19608683","items":[{"name":"중앙선재산업(주)","tel":"031-534-7489","addr":"경기도 포천시 내촌면 마명리 249-1번지","category":"건축자재 - 기타건축자재"}]},{"lat":"37.770071255","long":"127.1964754","items":[{"name":"태양농산","tel":"031-554-6010","addr":"경기도 포천시 내촌면 마명리 252-30번지 가동","category":"음료식품 - 농·축·수산품"}]},{"lat":"37.766544382","long":"127.20433123","items":[{"name":"한양기업","tel":"031-533-7880","addr":"경기도 포천시 내촌면 마명리 117-14번지","category":"건축자재 - 인테리어전문"}]},{"lat":"37.768153745","long":"127.19555109","items":[{"name":"한진종합가스","tel":"031-534-3645","addr":"경기도 포천시 내촌면 마명리 266-2","category":"연료판매점 - LPG 취급점"}]}]