[{"lat":"37.908972879","long":"127.38056109","imageIndex":5,"items":[{"name":"그린듯이 아름다운","tel":"031-8871-3866","addr":"경기도 가평군 조종면 상판리 147번지","indutype":"숙박업 - 여관/기타숙박업","category":"hotel"}]},{"lat":"37.88981106","long":"127.36886774","imageIndex":5,"items":[{"name":"까망봉다리","tel":"","addr":"경기도 가평군 조종면 상판리 338-6번지","indutype":"숙박업 - 여관/기타숙박업","category":"hotel"}]},{"lat":"37.902082571","long":"127.37434061","imageIndex":5,"items":[{"name":"꽃향기는","tel":"031-585-0992","addr":"경기도 가평군 조종면 상판리 477-3번지","indutype":"숙박업 - 여관/기타숙박업","category":"hotel"}]},{"lat":"37.903085729","long":"127.37619898","imageIndex":5,"items":[{"name":"노송민박","tel":"031-585-4311","addr":"경기도 가평군 조종면 상판리 222-3번지","indutype":"숙박업 - 여관/기타숙박업","category":"hotel"}]},{"lat":"37.909276266","long":"127.38147233","imageIndex":5,"items":[{"name":"다락펜션","tel":"031-527-0042","addr":"경기도 가평군 조종면 상판리 120-3번지","indutype":"숙박업 - 여관/기타숙박업","category":"hotel"}]},{"lat":"37.914219289","long":"127.38520488","imageIndex":5,"items":[{"name":"별바라기펜션","tel":"031-585-7616","addr":"경기도 가평군 조종면 상판리 141-5 12/3","indutype":"숙박업 - 여관/기타숙박업","category":"hotel"}]},{"lat":"37.913889014","long":"127.38425932","imageIndex":5,"items":[{"name":"인오캠핑장","tel":"031-585-0480","addr":"경기도 가평군 조종면 상판리 141-2번지","indutype":"숙박업 - 여관/기타숙박업","category":"hotel"}]},{"lat":"37.914137114","long":"127.38275951","imageIndex":5,"items":[{"name":"휘펜션","tel":"031-584-6263","addr":"경기도 가평군 조종면 상판리 143-1번지","indutype":"숙박업 - 여관/기타숙박업","category":"hotel"}]}]