[{"lat":"37.362444915","long":"126.95561858","imageIndex":0,"items":[{"name":"(주)명신열처리","tel":"031-453-5170","addr":"경기도 군포시 당정동 215번지","indutype":"자동차정비 유지 - 자동차부품","category":"car"}]},{"lat":"37.349361872","long":"126.95487061","imageIndex":0,"items":[{"name":"(주)워시뷰","tel":"","addr":"경기도 군포시 당정동 450번지 1층","indutype":"자동차정비 유지 - 세차장","category":"car"}]},{"lat":"37.358059159","long":"126.96144566","imageIndex":0,"items":[{"name":"(주)지승자동차공업사","tel":"031-455-7001","addr":"경기도 군포시 당정동 82-1번지","indutype":"자동차정비 유지 - 자동차정비","category":"car"},{"name":"성광","tel":"031-455-7001","addr":"경기도 군포시 당정동 82-1번지","indutype":"자동차정비 유지 - 자동차정비","category":"car"}]},{"lat":"37.363283544","long":"126.95736773","imageIndex":0,"items":[{"name":"(주)타이어산본종합판매","tel":"031-454-0785","addr":"경기도 군포시 당정동 18-2번지","indutype":"자동차정비 유지 - 자동차시트·타이어","category":"car"},{"name":"이도리","tel":"031-399-8282","addr":"경기도 군포시 당정동 18-2번지","indutype":"자동차정비 유지 - 자동차정비","category":"car"},{"name":"주식회사 신동부자동차공업사","tel":"031-429-3355","addr":"경기도 군포시 당정동 18-2번지","indutype":"자동차정비 유지 - 자동차정비","category":"car"}]},{"lat":"37.365589761","long":"126.95639552","imageIndex":0,"items":[{"name":"(주)하이나비","tel":"031-424-4233","addr":"경기도 군포시 당정동 2-3번지 신일IT유토지식산업센터 1303호","indutype":"자동차정비 유지 - 자동차부품","category":"car"},{"name":"신일IT유토관리단 운영위원회","tel":"031-689-3410","addr":"경기도 군포시 당정동 2-3번지","indutype":"자동차정비 유지 - 주차장","category":"car"},{"name":"신일IT유토관리운영위원회","tel":"031-689-3410","addr":"경기도 군포시 당정동 2-3번지","indutype":"자동차정비 유지 - 주차장","category":"car"},{"name":"주식회사 지플러스","tel":"031-427-8316","addr":"경기도 군포시 당정동 2-3번지 신일IT유토지식산업센터 1011,1012호","indutype":"자동차정비 유지 - 자동차부품","category":"car"},{"name":"카링크","tel":"070-7793-0407","addr":"경기도 군포시 당정동 2-3번지 신일IT유토지식산업센터 1012호","indutype":"자동차정비 유지 - 자동차부품","category":"car"}]},{"lat":"37.34897344","long":"126.9524782","imageIndex":0,"items":[{"name":"SK벤티움입주자대표회의","tel":"031-436-0110","addr":"경기도 군포시 당정동 522번지 SK벤티움","indutype":"자동차정비 유지 - 주차장","category":"car"}]},{"lat":"37.354201098","long":"126.95680887","imageIndex":0,"items":[{"name":"가야카정비","tel":"031-425-2112","addr":"경기도 군포시 당정동 342-1번지","indutype":"자동차정비 유지 - 자동차정비","category":"car"}]},{"lat":"37.34967675","long":"126.95370793","imageIndex":0,"items":[{"name":"군포IT밸리관리위원회","tel":"031-8068-1111","addr":"경기도 군포시 당정동 1045번지 군포IT밸리 A동 지하 1층 관리위원회","indutype":"자동차정비 유지 - 주차장","category":"car"},{"name":"미광메디칼","tel":"031-479-0800","addr":"경기도 군포시 당정동 1045번지 군포IT밸리 제지2층 제비218호","indutype":"자동차정비 유지 - 자동차부품","category":"car"},{"name":"서울판매","tel":"031-8068-2056","addr":"경기도 군포시 당정동 1045번지 군포IT밸리 B동 지층 121호","indutype":"자동차정비 유지 - 자동차시트·타이어","category":"car"},{"name":"제이엠토탈","tel":"070-7771-2001","addr":"경기도 군포시 당정동 1045번지 109호 군포IT벨리자식산업센터 공장","indutype":"자동차정비 유지 - 자동차부품","category":"car"}]},{"lat":"37.352308802","long":"126.95639242","imageIndex":0,"items":[{"name":"군포삼성상사","tel":"031-459-3353","addr":"경기도 군포시 당정동 417-3번지","indutype":"자동차정비 유지 - 자동차부품","category":"car"}]},{"lat":"37.355202638","long":"126.96058942","imageIndex":0,"items":[{"name":"군포청화세차장","tel":"031-427-2351","addr":"경기도 군포시 당정동 110-4번지","indutype":"자동차정비 유지 - 세차장","category":"car"},{"name":"탑쉴드자동차내외장관리(세차)","tel":"031-427-2351","addr":"경기도 군포시 당정동 110-4번지","indutype":"자동차정비 유지 - 자동차정비","category":"car"}]},{"lat":"37.343863978","long":"126.95086781","imageIndex":0,"items":[{"name":"군포카프라자","tel":"031-458-0586","addr":"경기도 군포시 당정동 1004-2번지 성원프라자 119~120호","indutype":"자동차정비 유지 - 자동차정비","category":"car"}]},{"lat":"37.364615401","long":"126.9532805","imageIndex":0,"items":[{"name":"금성써비스센타","tel":"031-51-2803","addr":"경기도 군포시 당정동 231-26번지","indutype":"자동차정비 유지 - 자동차정비","category":"car"}]},{"lat":"37.35192309","long":"126.96100886","imageIndex":0,"items":[{"name":"남부카공업사","tel":"031-455-3566","addr":"경기도 군포시 당정동 380-10번지","indutype":"자동차정비 유지 - 자동차정비","category":"car"}]},{"lat":"37.363723269","long":"126.95297631","imageIndex":0,"items":[{"name":"다온모터스","tel":"031-395-9763","addr":"경기도 군포시 당정동 246-3번지","indutype":"자동차정비 유지 - 자동차정비","category":"car"}]},{"lat":"37.345602235","long":"126.94928663","imageIndex":0,"items":[{"name":"당정마을카센타","tel":"031-974-7466","addr":"경기도 군포시 당정동 1007-3번지 오성푸르메아파트","indutype":"자동차정비 유지 - 자동차정비","category":"car"}]},{"lat":"37.34881295","long":"126.9566203","imageIndex":0,"items":[{"name":"당정자동차외장관리","tel":"031-455-7626","addr":"경기도 군포시 당정동 975-1번지","indutype":"자동차정비 유지 - 세차장","category":"car"},{"name":"정공업사","tel":"031-477-6768","addr":"경기도 군포시 당정동 975-1번지","indutype":"자동차정비 유지 - 자동차정비","category":"car"}]},{"lat":"37.345812919","long":"126.95753628","imageIndex":0,"items":[{"name":"당정점현대자동차","tel":"031-386-8204","addr":"경기도 군포시 당정동 989-1,2","indutype":"자동차정비 유지 - 자동차정비","category":"car"}]},{"lat":"37.347837767","long":"126.9515648","imageIndex":0,"items":[{"name":"대광냉동공업(주)","tel":"031-427-8774","addr":"경기도 군포시 당정동 629-14번지","indutype":"자동차판매 - 기타운송","category":"car"}]},{"lat":"37.35686723","long":"126.9546175","imageIndex":0,"items":[{"name":"대한오토파츠","tel":"031-000-0000","addr":"경기도 군포시 당정동 181-42번지 2층 211호","indutype":"자동차정비 유지 - 자동차부품","category":"car"},{"name":"엠테크노센터 관리위원회","tel":"031-740-2715","addr":"경기도 군포시 당정동 181-42번지","indutype":"자동차정비 유지 - 주차장","category":"car"},{"name":"윈윈종합관리(주)","tel":"031-470-2715","addr":"경기도 군포시 당정동 181-42번지","indutype":"자동차정비 유지 - 주차장","category":"car"}]},{"lat":"37.346873855","long":"126.95197174","imageIndex":0,"items":[{"name":"덴트코리아","tel":"031-429-7996","addr":"경기도 군포시 당정동 995-2번지 가동 1층 101호","indutype":"자동차정비 유지 - 자동차정비","category":"car"}]},{"lat":"37.354035947","long":"126.9497321","imageIndex":0,"items":[{"name":"도진모터스","tel":"031-427-0414","addr":"경기도 군포시 당정동 1144번지","indutype":"자동차정비 유지 - 자동차정비","category":"car"}]},{"lat":"37.350920975","long":"126.95572738","imageIndex":0,"items":[{"name":"동광드림모터스","tel":"031-448-8033","addr":"경기도 군포시 당정동 426번지","indutype":"자동차정비 유지 - 자동차정비","category":"car"},{"name":"차사랑세차장","tel":"031-429-5311","addr":"경기도 군포시 당정동 426번지","indutype":"자동차정비 유지 - 세차장","category":"car"}]},{"lat":"37.347588374","long":"126.95873151","imageIndex":0,"items":[{"name":"두원써비스","tel":"031-459-2448","addr":"경기도 군포시 당정동 570번지","indutype":"자동차정비 유지 - 자동차부품","category":"car"}]},{"lat":"37.349452462","long":"126.95608946","imageIndex":0,"items":[{"name":"르노삼성자동차군포정비(주)","tel":"031-391-0003","addr":"경기도 군포시 당정동 447-7번지 (447-7,438)","indutype":"자동차정비 유지 - 자동차정비","category":"car"},{"name":"르노삼성자동차군포정비센터","tel":"031-391-0082","addr":"경기도 군포시 당정동 447-7번지","indutype":"자동차정비 유지 - 자동차정비","category":"car"}]},{"lat":"37.353001875","long":"126.95461998","imageIndex":0,"items":[{"name":"만도모터스","tel":"031-427-5660","addr":"경기도 군포시 당정동 348번지","indutype":"자동차정비 유지 - 자동차부품","category":"car"}]},{"lat":"37.353949525","long":"126.95867135","imageIndex":0,"items":[{"name":"미성자동차공업사","tel":"031-461-4302","addr":"경기도 군포시 당정동 123-1번지","indutype":"자동차정비 유지 - 자동차정비","category":"car"}]},{"lat":"37.341925856","long":"126.94878141","imageIndex":0,"items":[{"name":"방씨네자동차#","tel":"031-495-3852","addr":"경기도 군포시 당정동 1017-4번지 1층","indutype":"자동차정비 유지 - 자동차부품","category":"car"}]},{"lat":"37.354805707","long":"126.95925777","imageIndex":0,"items":[{"name":"벧엘상사","tel":"070-4240-4071","addr":"경기도 군포시 당정동 111-1번지","indutype":"자동차정비 유지 - 자동차부품","category":"car"},{"name":"벧엘자동차공업사","tel":"070-4240-4071","addr":"경기도 군포시 당정동 111-1번지","indutype":"자동차정비 유지 - 자동차정비","category":"car"},{"name":"한결 자동차 정비공업사","tel":"031-429-4347","addr":"경기도 군포시 당정동 111-1번지","indutype":"자동차정비 유지 - 자동차정비","category":"car"}]},{"lat":"37.363500343","long":"126.95883507","imageIndex":0,"items":[{"name":"비앤케이","tel":"031-451-0561","addr":"경기도 군포시 당정동 16-1번지 한솔테크노타운 909호","indutype":"자동차정비 유지 - 자동차부품","category":"car"},{"name":"한솔테크노타운관리단","tel":"031-456-3319","addr":"경기도 군포시 당정동 16-1번지 한솔테크노타운 1층","indutype":"자동차정비 유지 - 주차장","category":"car"}]},{"lat":"37.354309373","long":"126.95720384","imageIndex":0,"items":[{"name":"빛나카클리닉","tel":"031-456-8911","addr":"경기도 군포시 당정동 363-1번지","indutype":"자동차정비 유지 - 자동차정비","category":"car"},{"name":"신한모터스","tel":"031-427-7275","addr":"경기도 군포시 당정동 363-1번지","indutype":"자동차정비 유지 - 자동차정비","category":"car"},{"name":"신흥자동차정비공사","tel":"031-453-8450","addr":"경기도 군포시 당정동 363-1번지 1층","indutype":"자동차정비 유지 - 자동차정비","category":"car"}]},{"lat":"37.349813262","long":"126.95709371","imageIndex":0,"items":[{"name":"산본모터스","tel":"031-429-8585","addr":"경기도 군포시 당정동 439-2번지","indutype":"자동차정비 유지 - 자동차정비","category":"car"}]},{"lat":"37.355118893","long":"126.95372695","imageIndex":0,"items":[{"name":"삼홍엔지니어링(주)","tel":"031-429-0981","addr":"경기도 군포시 당정동 327-19","indutype":"자동차정비 유지 - 자동차부품","category":"car"}]},{"lat":"37.350369182","long":"126.95055859","imageIndex":0,"items":[{"name":"석봉모터스,세차장","tel":"031-455-1112","addr":"경기도 군포시 당정동 514-5번지","indutype":"자동차정비 유지 - 세차장","category":"car"}]},{"lat":"37.344619911","long":"126.94881333","imageIndex":0,"items":[{"name":"성원24시셀프세차","tel":"031-427-1199","addr":"경기도 군포시 당정동 1009-3번지","indutype":"자동차정비 유지 - 세차장","category":"car"}]},{"lat":"37.363894323","long":"126.95264883","imageIndex":0,"items":[{"name":"성일자동차","tel":"031-429-9722","addr":"경기도 군포시 당정동 239-1번지","indutype":"자동차정비 유지 - 자동차정비","category":"car"}]},{"lat":"37.345088732","long":"126.94945627","imageIndex":0,"items":[{"name":"슈퍼강남카","tel":"031-429-6622","addr":"경기도 군포시 당정동 1007-5번지 상훈아파트","indutype":"자동차정비 유지 - 자동차부품","category":"car"}]},{"lat":"37.351559779","long":"126.95348097","imageIndex":0,"items":[{"name":"슈퍼맨 밧데리","tel":"031-896-1432","addr":"경기도 군포시 당정동 506-3번지 105호","indutype":"자동차정비 유지 - 자동차부품","category":"car"}]},{"lat":"37.350255088","long":"126.9579512","imageIndex":0,"items":[{"name":"스피드카 서비스","tel":"031-477-9940","addr":"경기도 군포시 당정동 432-7번지","indutype":"자동차정비 유지 - 자동차정비","category":"car"}]},{"lat":"37.344449122","long":"126.94970501","imageIndex":0,"items":[{"name":"썬프로","tel":"031-427-0919","addr":"경기도 군포시 당정동 1008-2번지 샤인빌 101호","indutype":"자동차정비 유지 - 카인테리어","category":"car"}]},{"lat":"37.354002002","long":"126.95461934","imageIndex":0,"items":[{"name":"아이채널","tel":"031-479-4617","addr":"경기도 군포시 당정동 325-30번지 3층","indutype":"자동차정비 유지 - 자동차부품","category":"car"}]},{"lat":"37.363698671","long":"126.95911717","imageIndex":0,"items":[{"name":"애니카랜드 의왕점","tel":"031-456-0842","addr":"경기도 군포시 당정동 13번지","indutype":"자동차정비 유지 - 자동차정비","category":"car"}]},{"lat":"37.35125406","long":"126.95500484","imageIndex":0,"items":[{"name":"에스케이자동차공업사","tel":"031-454-5008","addr":"경기도 군포시 당정동 461-1번지","indutype":"자동차정비 유지 - 자동차정비","category":"car"}]},{"lat":"37.349750897","long":"126.95895597","imageIndex":0,"items":[{"name":"오토오아시스 당정스타점","tel":"031-388-8802","addr":"경기도 군포시 당정동 405-1번지","indutype":"자동차정비 유지 - 자동차정비","category":"car"}]},{"lat":"37.351337378","long":"126.96086246","imageIndex":0,"items":[{"name":"와스팀손세차","tel":"031-111-1111","addr":"경기도 군포시 당정동 382-1번지 명지빌딩 1동 외3필지","indutype":"자동차정비 유지 - 세차장","category":"car"}]},{"lat":"37.350362488","long":"126.95608889","imageIndex":0,"items":[{"name":"우진연마","tel":"031-457-7534","addr":"경기도 군포시 당정동 437번지 435-1F동","indutype":"자동차정비 유지 - 자동차부품","category":"car"}]},{"lat":"37.35413952","long":"126.96081575","imageIndex":0,"items":[{"name":"유한회사 삼호보링","tel":"031-466-3534","addr":"경기도 군포시 당정동 108-18번지 1층","indutype":"자동차정비 유지 - 자동차정비","category":"car"}]},{"lat":"37.343449004","long":"126.94972828","imageIndex":0,"items":[{"name":"은광자동차정비","tel":"031-477-2591","addr":"경기도 군포시 당정동 1013-7,8,9동호프라자107호~108호","indutype":"자동차정비 유지 - 자동차정비","category":"car"}]},{"lat":"37.362868068","long":"126.95481685","imageIndex":0,"items":[{"name":"이카써비스공업사","tel":"031-427-2280","addr":"경기도 군포시 당정동 225-7번지","indutype":"자동차정비 유지 - 자동차정비","category":"car"},{"name":"주식회사에스오파츠","tel":"031-427-0022","addr":"경기도 군포시 당정동 225-7번지 2층","indutype":"자동차정비 유지 - 자동차부품","category":"car"}]},{"lat":"37.344286545","long":"126.94883614","imageIndex":0,"items":[{"name":"인카","tel":"070-4207-8987","addr":"경기도 군포시 당정동 1010-1번지 슬기빌딩 108호 107","indutype":"자동차정비 유지 - 자동차부품","category":"car"}]},{"lat":"37.345891868","long":"126.95225455","imageIndex":0,"items":[{"name":"장수세차장","tel":"031-454-4333","addr":"경기도 군포시 당정동 995-6번지","indutype":"자동차정비 유지 - 세차장","category":"car"},{"name":"장수카센타","tel":"031-459-1837","addr":"경기도 군포시 당정동 995-6번지","indutype":"자동차정비 유지 - 자동차정비","category":"car"}]},{"lat":"37.352669947","long":"126.95831093","imageIndex":0,"items":[{"name":"정진자동차공업주식회사","tel":"031-458-0196","addr":"경기도 군포시 당정동 366-1번지","indutype":"자동차정비 유지 - 자동차부품","category":"car"}]},{"lat":"37.355252824","long":"126.95087124","imageIndex":0,"items":[{"name":"주식회사 하나텔콤","tel":"031-427-0611","addr":"경기도 군포시 당정동 1128번지 신라테크노빌 가동 601호","indutype":"자동차정비 유지 - 자동차부품","category":"car"},{"name":"하나텔콤","tel":"031-427-0611","addr":"경기도 군포시 당정동 1128번지 신라테크노빌 가동 6층 601호","indutype":"자동차정비 유지 - 자동차부품","category":"car"}]},{"lat":"37.364779335","long":"126.95764904","imageIndex":0,"items":[{"name":"주식회사삼손종합정비","tel":"031-455-8222","addr":"경기도 군포시 당정동 11-1번지","indutype":"자동차정비 유지 - 자동차부품","category":"car"}]},{"lat":"37.353751448","long":"126.95906651","imageIndex":0,"items":[{"name":"카나인자동차공업사","tel":"031-456-6400","addr":"경기도 군포시 당정동 122번지","indutype":"자동차정비 유지 - 자동차정비","category":"car"}]},{"lat":"37.347200631","long":"126.95791916","imageIndex":0,"items":[{"name":"카프로샵","tel":"031-427-5788","addr":"경기도 군포시 당정동 986-8번지","indutype":"자동차정비 유지 - 자동차정비","category":"car"}]},{"lat":"37.350756758","long":"126.95087434","imageIndex":0,"items":[{"name":"트윈카","tel":"031-427-5240","addr":"경기도 군포시 당정동 513-3번지 1층","indutype":"자동차정비 유지 - 자동차부품","category":"car"},{"name":"트윈카","tel":"031-427-5240","addr":"경기도 군포시 당정동 513-3번지","indutype":"자동차정비 유지 - 자동차부품","category":"car"}]},{"lat":"37.344340771","long":"126.94919724","imageIndex":0,"items":[{"name":"하나모터스","tel":"031-459-4102","addr":"경기도 군포시 당정동 1010-5번지 1층 104,105호","indutype":"자동차정비 유지 - 자동차정비","category":"car"}]},{"lat":"37.34600181","long":"126.95670102","imageIndex":0,"items":[{"name":"현대카손세차장","tel":"031-477-9887","addr":"경기도 군포시 당정동 988-3번지","indutype":"자동차정비 유지 - 세차장","category":"car"}]},{"lat":"37.364030215","long":"126.95442101","imageIndex":0,"items":[{"name":"협진상공","tel":"031-427-4063","addr":"경기도 군포시 당정동 231-19번지","indutype":"자동차정비 유지 - 자동차부품","category":"car"}]},{"lat":"37.364777341","long":"126.95270469","imageIndex":0,"items":[{"name":"휠고남","tel":"031-0000-0000","addr":"경기도 군포시 당정동 236-6번지 1층","indutype":"자동차정비 유지 - 자동차시트·타이어","category":"car"}]}]