[{"lat":"37.67195533","long":"126.59884098","imageIndex":4,"items":[{"name":"대현식당","tel":"","addr":"경기도 김포시 통진읍 가현리 472-6번지","indutype":"일반음식점","category":"restaurant"}]},{"lat":"37.678205703","long":"126.59817229","imageIndex":4,"items":[{"name":"명품족보","tel":"031-981-5515","addr":"경기도 김포시 통진읍 가현리 194-1번지 명품족보","indutype":"일반음식점","category":"restaurant"}]},{"lat":"37.679206123","long":"126.60356273","imageIndex":4,"items":[{"name":"신촌식당","tel":"","addr":"경기도 김포시 통진읍 가현리 100-2번지 한강 자동차학원 ,부근","indutype":"일반음식점","category":"restaurant"}]},{"lat":"37.679294002","long":"126.59241908","imageIndex":4,"items":[{"name":"진천정","tel":"","addr":"경기도 김포시 통진읍 가현리 311번지","indutype":"일반음식점","category":"restaurant"}]},{"lat":"37.682069503","long":"126.59778854","imageIndex":4,"items":[{"name":"통진명가","tel":"","addr":"경기도 김포시 통진읍 가현리 247-2번지","indutype":"일반음식점","category":"restaurant"}]}]