[{"lat":"37.266485075","long":"127.02152882","items":[{"name":"UNU","tel":"070-4896-1915","addr":"경기도 수원시 팔달구 세지로 169 3층 (인계동)","category":"의류 - 정장"}]},{"lat":"37.267791464","long":"127.02217176","items":[{"name":"녹색정원","tel":"050-5148-4999","addr":"경기도 수원시 팔달구 세지로 185 (인계동)101호","category":"음료식품 - 기타음료식품"},{"name":"에어월드시스템","tel":"031-898-7440","addr":"경기도 수원시 팔달구 세지로 185 (인계동)","category":"전기제품 - 냉열기기"}]},{"lat":"37.265575112","long":"127.02103256","items":[{"name":"대한장식","tel":"031-236-5497","addr":"경기도 수원시 팔달구 세지로 159 (인계동)","category":"직물 - 카페트,커튼,천막,지물"}]},{"lat":"37.266764376","long":"127.02164163","items":[{"name":"명산인쇄","tel":"031-223-9599","addr":"경기도 수원시 팔달구 세지로 173 (인계동)","category":"서적문구 - 출판 및 인쇄물"},{"name":"종합전기철물","tel":"031-267-3132","addr":"경기도 수원시 팔달구 세지로 173 1층 (인계동)","category":"건축자재 - 목재·석재·철물"}]},{"lat":"37.268575286","long":"127.02261165","items":[{"name":"삼강자동차","tel":"031-221-9539","addr":"경기도 수원시 팔달구 세지로 195 (인계동)","category":"자동차정비 유지 - 자동차부품"}]},{"lat":"37.26687249","long":"127.02169802","items":[{"name":"아이비화장품","tel":"031-235-8218","addr":"경기도 수원시 팔달구 세지로 173-1 (인계동)","category":"보건위생 - 화장품"}]},{"lat":"37.267070699","long":"127.02181081","items":[{"name":"예쁜걸미용실","tel":"031-221-5857","addr":"경기도 수원시 팔달구 세지로 175 (인계동)","category":"보건위생 - 미용원"},{"name":"은진건재","tel":"031-235-3789","addr":"경기도 수원시 팔달구 세지로 175 (인계동)","category":"건축자재 - 기타건축자재"}]},{"lat":"37.265430965","long":"127.02091979","items":[{"name":"컴앤잉크사랑","tel":"031-8002-5060","addr":"경기도 수원시 팔달구 세지로 155 상가 2호 좌측(인계동)","category":"사무통신 - 컴퓨터"}]}]