[{"lat":"37.209022558","long":"127.06067263","items":[{"name":"(주)동탄데우스","tel":"031-8015-2663","addr":"경기도 화성시 능동 1114-6번지 덕천프라자 602호","category":"학원 - 보습학원"},{"name":"(주)동탄데우스","tel":"031-8015-2663","addr":"경기도 화성시 능동 1114-6번지 덕천프라자 602호","category":"학원 - 보습학원"},{"name":"가나팀치과","tel":"031-8003-2080","addr":"경기도 화성시 능동 1114-6번지 덕천프라자 403호","category":"의원 - 치과의원"},{"name":"곽선생왕만두","tel":"","addr":"경기도 화성시 능동 1114-6번지 덕천프라자 106호","category":"일반휴게음식 - 스넥"},{"name":"뉴나이스가위","tel":"031-632-0238","addr":"경기도 화성시 능동 1114-6번지 덕천프라자 1층 105호","category":"보건위생 - 미용원"},{"name":"님프","tel":"031-8015-3860","addr":"경기도 화성시 능동 1114-6번지 덕천프라자 503호","category":"일반휴게음식 - 서양음식"},{"name":"동탄동물병원","tel":"031-8003-8831","addr":"경기도 화성시 능동 1114-6번지 덕천프라자 109호","category":"기타의료기관 - 동물병원"},{"name":"동탄서울 이비인후과의원","tel":"031-613-1999","addr":"경기도 화성시 능동 1114-6번지 덕천프라자 303호","category":"의원 - 의원"},{"name":"본죽&비빔밥cafe(동탄능동점)","tel":"031-8003-1235","addr":"경기도 화성시 능동 1114-6번지 덕천프라자 108호","category":"일반휴게음식 - 일반한식"},{"name":"숲속앤스킨케어","tel":"031-8003-1008","addr":"경기도 화성시 능동 1114-6번지 덕천프라자 304호","category":"보건위생 - 피부미용실"},{"name":"아이센스리그PC방 화성능동점","tel":"070-7702-9487","addr":"경기도 화성시 능동 1114-6번지 덕천프라자 401,402호","category":"레저업소 - 기타레져업소"},{"name":"유현옥리프레싱","tel":"031-613-5335","addr":"경기도 화성시 능동 1114-6번지 덕천프라자 502호","category":"보건위생 - 기타대인서비스"},{"name":"일우약국","tel":"031-8003-9839","addr":"경기도 화성시 능동 1114-6번지 덕천프라자 103호","category":"약국 - 약국"},{"name":"장독대 동탄 능동점","tel":"031-613-5289","addr":"경기도 화성시 능동 1114-6번지 101,102호","category":"음료식품 - 기타음료식품"},{"name":"타이거짐","tel":"031-801-5336","addr":"경기도 화성시 능동 1114-6번지 덕천프라자 501호","category":"레저업소 - 헬스클럽"}]},{"lat":"37.218105804","long":"127.05902337","items":[{"name":"(주)마트앤마트 코리아","tel":"031-613-6776","addr":"경기도 화성시 능동 1064-3번지 1층 115호","category":"유통업 영리 - 슈퍼마켓"},{"name":"썸 밀","tel":"031-8003-0601","addr":"경기도 화성시 능동 1064-3번지 삼성씨티오피스텔 1층 101호","category":"일반휴게음식 - 일반한식"},{"name":"엘이디넷(LEDNET)","tel":"070-4151-9030","addr":"경기도 화성시 능동 1064-3번지 삼성시티오피스텔 812호","category":"건축자재 - 조명기구"}]},{"lat":"37.218719053","long":"127.05786336","items":[{"name":"(주)에스앤에스(지점)","tel":"031-8003-4352","addr":"경기도 화성시 능동 1065-2번지 우남퍼스트빌스타B타워 1층","category":"용역 서비스 - 종합용역"},{"name":"GS25동탄우남점","tel":"","addr":"경기도 화성시 능동 1065-2번지 우남퍼스트빌 상가동 111호","category":"유통업 영리 - 편 의 점"},{"name":"도이산업","tel":"070-8257-2535","addr":"경기도 화성시 능동 1065-2번지 A동 409호","category":"보건위생 - 화장품"},{"name":"신의손 헤어살롱","tel":"070-4119-3176","addr":"경기도 화성시 능동 1065-2번지 동탄퍼스트빌스타 A동 101호","category":"보건위생 - 미용원"},{"name":"우남세탁소","tel":"031-8003-6003","addr":"경기도 화성시 능동 1065-2번지 동탄퍼스트빌스타 B동 109호","category":"수리서비스 - 세탁소"},{"name":"이여진헤어라인","tel":"031-236-9186","addr":"경기도 화성시 능동 1065-2번지","category":"보건위생 - 미용원"},{"name":"정민","tel":"","addr":"경기도 화성시 능동 1065-2번지 동탄 퍼스트빌스타 B동 417호","category":"보건위생 - 화장품"},{"name":"주식회사 엔이씨(N.E.C)","tel":"031-8015-4525","addr":"경기도 화성시 능동 1065-2번지 A동 522호","category":"자동차정비 유지 - 카인테리어"},{"name":"챠밍뷰티끄","tel":"070-4611-8344","addr":"경기도 화성시 능동 1065-2번지 1층 105호","category":"보건위생 - 피부미용실"},{"name":"커피드림스","tel":"031-8003-0252","addr":"경기도 화성시 능동 1065-2번지 1층 114,115호","category":"일반휴게음식 - 서양음식"},{"name":"한솥 도시락 동탄능동스타점","tel":"031-8003-1840","addr":"경기도 화성시 능동 1065-2번지 1층 113호","category":"일반휴게음식 - 일반한식"},{"name":"해솔동물병원","tel":"031-8003-7595","addr":"경기도 화성시 능동 1065-2번지 106호","category":"기타의료기관 - 동물병원"}]},{"lat":"37.218187068","long":"127.0586629","items":[{"name":"(주)에스피케이","tel":"031-477-9874","addr":"경기도 화성시 능동 1064-5번지 이너매스 306호","category":"건축자재 - 조명기구"},{"name":"나도쭈꾸미","tel":"031-613-4446","addr":"경기도 화성시 능동 1064-5번지 이너매스 111호","category":"일반휴게음식 - 일반한식"},{"name":"녹차미용재료","tel":"031-8015-1153","addr":"경기도 화성시 능동 1064-5번지 이너매스그린 209호","category":"보건위생 - 미용재료"},{"name":"능골정육식당","tel":"031-8015-2300","addr":"경기도 화성시 능동 1064-5번지 104,120호,이너매스","category":"일반휴게음식 - 일반한식"},{"name":"두인에스제이테크","tel":"02-555-1185","addr":"경기도 화성시 능동 1064-5번지 이너메스 306층 14호","category":"기타 - 기계공구"},{"name":"매직당구클럽","tel":"031-624-9924","addr":"경기도 화성시 능동 1064-5번지 2층 203호 이너매스","category":"레저업소 - 당 구 장"},{"name":"신동건축","tel":"031-205-8160","addr":"경기도 화성시 능동 1064-5번지 이너매스오피스텔 713호","category":"건축자재 - 인테리어전문"},{"name":"얼큰이찌개마을","tel":"031-6224-1808","addr":"경기도 화성시 능동 1064-5번지 1층 112일부호","category":"일반휴게음식 - 일반한식"},{"name":"엄마손맛","tel":"031-8003-2257","addr":"경기도 화성시 능동 1064-5번지 이너매스 105~107호","category":"일반휴게음식 - 일반한식"},{"name":"에이티솔루션","tel":"070-4110-5227","addr":"경기도 화성시 능동 1064-5번지 306호 동탄이너매스 비즈센터3호전부","category":"문화.취미 - 화방·표구점"},{"name":"엔(N)","tel":"","addr":"경기도 화성시 능동 1064-5번지 이너매스 207호","category":"일반휴게음식 - 일반한식"},{"name":"엠코리아라이팅","tel":"031-213-3462","addr":"경기도 화성시 능동 1064-5번지 이너매스 9층 915호","category":"건축자재 - 조명기구"},{"name":"영달이네 뒷꼬기","tel":"031-8003-9106","addr":"경기도 화성시 능동 1064-5번지 이너매스 112호","category":"일반휴게음식 - 일반한식"},{"name":"우리집밥상","tel":"031-8003-4236","addr":"경기도 화성시 능동 1064-5번지 이그너매스그린 116,117호","category":"일반휴게음식 - 일반한식"},{"name":"위드미동탄그린점","tel":"031-8015-0119","addr":"경기도 화성시 능동 1064-5번지 이너매스 108","category":"유통업 영리 - 편 의 점"},{"name":"이너매스","tel":"","addr":"경기도 화성시 능동 1064-5번지 이너매스 3층 306호","category":"사무통신 - 컴퓨터"},{"name":"주식회사 가승엘앤에이치","tel":"02-1670-8492","addr":"경기도 화성시 능동 1064-5번지 3층 305호 이너매스","category":"용역 서비스 - 기타용역서비스"},{"name":"코인워시 화성동탄능동점","tel":"031-8003-1091","addr":"경기도 화성시 능동 1064-5번지 이너매스 1층 109호","category":"수리서비스 - 세탁소"},{"name":"투다리","tel":"031-8003-0428","addr":"경기도 화성시 능동 1064-5번지 이너매스 1층 110호","category":"일반휴게음식 - 주점"},{"name":"한울","tel":"031-8058-4665","addr":"경기도 화성시 능동 1064-5번지 이너매스 301-13호","category":"보건위생 - 의료용품"},{"name":"호수꼬치 화성능동","tel":"031-613-9582","addr":"경기도 화성시 능동 1064-5번지 이너매스 1층 107호","category":"일반휴게음식 - 스넥"}]},{"lat":"37.218358857","long":"127.0573899","items":[{"name":"(주)에코이앤피","tel":"031-831-3848","addr":"경기도 화성시 능동 1065-3번지 동탄푸르지오시티 934호","category":"건축자재 - 기타건축자재"},{"name":"101 (일공일 STUDIO)","tel":"","addr":"경기도 화성시 능동 1065-3번지 동탄푸르지오시티 9층 925호","category":"레저업소 - 헬스클럽"},{"name":"고품(고기를 품은 요리와 곰탕)","tel":"031-8003-1990","addr":"경기도 화성시 능동 1065-3번지 푸르지오시티 108,109호","category":"일반휴게음식 - 일반한식"},{"name":"살롱드제인(Salon de Jane)","tel":"031-613-7978","addr":"경기도 화성시 능동 1065-3번지 동탄푸르지오시티 108호","category":"보건위생 - 미용원"},{"name":"아우라제이 푸르미르점","tel":"031-613-2744","addr":"경기도 화성시 능동 1065-3번지 동탄푸르지오시티 102호","category":"보건위생 - 미용원"},{"name":"이디야 동탄능동점","tel":"031-613-8230","addr":"경기도 화성시 능동 1065-3번지 동탄푸르지오시티 112호","category":"일반휴게음식 - 서양음식"},{"name":"짱수훠궈양꼬치(동탄점)","tel":"031-8049-7108","addr":"경기도 화성시 능동 1065-3번지 동탄푸르지오시티 1층 107호","category":"일반휴게음식 - 중국식"},{"name":"쪽찌 &복마니네","tel":"031-8003-9652","addr":"경기도 화성시 능동 1065-3번지 106호,107호","category":"일반휴게음식 - 일반한식"},{"name":"치어스화성능동점","tel":"031-613-2453","addr":"경기도 화성시 능동 1065-3번지 동탄푸르지오시티 113호","category":"일반휴게음식 - 서양음식"},{"name":"펀비어킹 동탄능동점","tel":"031-613-8875","addr":"경기도 화성시 능동 1065-3번지 동탄푸르지오시티 1층 115호","category":"일반휴게음식 - 주점"},{"name":"회사가는날","tel":"031-613-1164","addr":"경기도 화성시 능동 1065-3번지 동탄푸르지오시티 1층 103호","category":"일반휴게음식 - 일식·회집"}]},{"lat":"37.214630397","long":"127.05325257","items":[{"name":"(주)이마트24 G동탄주유소점","tel":"","addr":"경기도 화성시 능동 1105번지","category":"유통업 영리 - 편 의 점"},{"name":"(주)이마트24서비스 동탄주유소","tel":"031-613-8717","addr":"경기도 화성시 능동 1105번지","category":"연료판매점 - SK주유소"},{"name":"스피드메이트 동탄셀프점","tel":"031-613-5166","addr":"경기도 화성시 능동 1105번지","category":"자동차정비 유지 - 자동차정비"}]},{"lat":"37.209797734","long":"127.06008743","items":[{"name":"(주)좋은생각","tel":"0031-8003-7271","addr":"경기도 화성시 능동 1113-3번지 에이엔비프라자 102호","category":"별도관리 - 자체물품대금"},{"name":"(주)좋은생각","tel":"0010-8003-7271","addr":"경기도 화성시 능동 1113-3번지 ANB프라자 102호","category":"별도관리 - 자체물품대금"},{"name":"맘스터치 능동점","tel":"031-613-7709","addr":"경기도 화성시 능동 1113-3번지 102,103호","category":"일반휴게음식 - 서양음식"},{"name":"멘토스바둑학원","tel":"031-8050-8867","addr":"경기도 화성시 능동 1113-3번지 에이앤비프라자 201호","category":"학원 - 기타 교육기관"},{"name":"스터디온 학원","tel":"031-8003-8079","addr":"경기도 화성시 능동 1113-3번지 에이앤비프라자 502호","category":"학원 - 보습학원"},{"name":"에디토리엄","tel":"031-613-3515","addr":"경기도 화성시 능동 1113-3번지 에이앤비프라자 303호","category":"학원 - 보습학원"},{"name":"티엔디플러스학원","tel":"031-8015-5512","addr":"경기도 화성시 능동 1113-3번지 에이앤비프라자 202,203,204호","category":"학원 - 보습학원"},{"name":"하늘애한방재활의학과한의원","tel":"031-8015-5381","addr":"경기도 화성시 능동 1113-3번지 에이앤비프라자 302호","category":"의원 - 한의원"},{"name":"하늘한방소아과한의원","tel":"031-8015-1242","addr":"경기도 화성시 능동 1113-3번지 에이앤비프라자 301호","category":"의원 - 한의원"},{"name":"한솥도시락 동탄 능동점","tel":"031-613-6151","addr":"경기도 화성시 능동 1113-3번지 에이앤비프라자 101호","category":"일반휴게음식 - 스넥"},{"name":"휘트니스클럽S","tel":"031-8003-6837","addr":"경기도 화성시 능동 1113-3번지 에이앤비프라자 401호","category":"레저업소 - 헬스클럽"}]},{"lat":"37.199024489","long":"127.05308451","items":[{"name":"(주)콘도르","tel":"031-8003-2265","addr":"경기도 화성시 능동 1153-1번지 중앙프라자 305호","category":"사무통신 - 사무용 OA기기"},{"name":"JOY편의점서동탄점","tel":"031-241-4863","addr":"경기도 화성시 능동 1153-1번지 중앙프라자 101호","category":"유통업 영리 - 슈퍼마켓"},{"name":"갱's 뷰티","tel":"031-8003-0995","addr":"경기도 화성시 능동 1153-1번지 중앙프라자 102호","category":"보건위생 - 피부미용실"},{"name":"노블레스 당구클럽","tel":"070-4150-4500","addr":"경기도 화성시 능동 1153-1번지 204호,205호","category":"레저업소 - 당 구 장"},{"name":"더다인헤어","tel":"031-8003-4427","addr":"경기도 화성시 능동 1153-1번지 중앙프라자 201호","category":"보건위생 - 미용원"},{"name":"몸달라짐","tel":"02-1111-1111","addr":"경기도 화성시 능동 1153-1번지 중앙프라자 4층","category":"레저업소 - 헬스클럽"},{"name":"미소지은떡","tel":"031-613-5338","addr":"경기도 화성시 능동 1153-1번지 중앙프라자,109","category":"음료식품 - 제과점"},{"name":"본죽","tel":"031-8015-3988","addr":"경기도 화성시 능동 1153-1번지 중앙프라자 1층 108호","category":"일반휴게음식 - 일반한식"},{"name":"서동탄","tel":"031-2238-8989","addr":"경기도 화성시 능동 1153-1번지 중앙프라자 301호","category":"보건위생 - 화장품"},{"name":"엘리팝(서동탄역점)","tel":"031-8015-5354","addr":"경기도 화성시 능동 1153-1번지 중앙프라자 3층 302호 303호","category":"일반휴게음식 - 일반한식"},{"name":"열정분식소 동탄점","tel":"031-8015-2999","addr":"경기도 화성시 능동 1153-1번지 중앙프라자 1층 101호","category":"일반휴게음식 - 스넥"},{"name":"주식회사 대경테크랜드시스템","tel":"031-8015-0530","addr":"경기도 화성시 능동 1153-1번지 중앙프라자 401호","category":"신변잡화 - 기타잡화"},{"name":"착한안경원","tel":"031-613-3764","addr":"경기도 화성시 능동 1153-1번지 중앙프라자 1층 105호","category":"보건위생 - 안경"},{"name":"탑스크린","tel":"031-8003-5363","addr":"경기도 화성시 능동 1153-1번지 중앙프라자 5층","category":"회원제형태 - 레져업소"},{"name":"투썸플레이스 서동탄역점","tel":"031-613-5366","addr":"경기도 화성시 능동 1153-1번지 중앙프라자 103,104,202,203호","category":"일반휴게음식 - 서양음식"},{"name":"투썸플레이스서동탄역점","tel":"031-613-5366","addr":"경기도 화성시 능동 1153-1번지 중앙프라자 104호 202호","category":"일반휴게음식 - 서양음식"},{"name":"허브노래연습장","tel":"031-613-2877","addr":"경기도 화성시 능동 1153-1번지 중앙프라자 404동 405호","category":"레저업소 - 노 래 방"}]},{"lat":"37.217574123","long":"127.05916944","items":[{"name":"(주)하이이노베이션(세가프라자)","tel":"070-7119-2622","addr":"경기도 화성시 능동 1063-4번지 세가프라자","category":"자동차정비 유지 - 주차장"},{"name":"국수전문점 밀밭","tel":"031-000-0000","addr":"경기도 화성시 능동 1063-4번지 1층 104호","category":"일반휴게음식 - 일반한식"},{"name":"단골갈비맛집","tel":"050-5299-3401","addr":"경기도 화성시 능동 1063-4번지","category":"일반휴게음식 - 일반한식"},{"name":"이프러스마트/주식회사 번영","tel":"031-8003-6630","addr":"경기도 화성시 능동 1063-4번지 112호, 113호","category":"유통업 영리 - 슈퍼마켓"},{"name":"이플러스마트","tel":"031-8015-3803","addr":"경기도 화성시 능동 1063-4번지 1층 118,119호","category":"유통업 영리 - 슈퍼마켓"},{"name":"장수본가해장국","tel":"031-613-0316","addr":"경기도 화성시 능동 1063-4번지 세가프라자 1층 106호","category":"일반휴게음식 - 일반한식"}]},{"lat":"37.217880673","long":"127.05875281","items":[{"name":"(코스매틱)","tel":"031-8050-5011","addr":"경기도 화성시 능동 1064-4번지 이너매스브라운 206호","category":"보건위생 - 화장품"},{"name":"GS25능동이너메스","tel":"","addr":"경기도 화성시 능동 1064-4번지 익현오피스텔 1층 103호","category":"유통업 영리 - 편 의 점"},{"name":"그집에","tel":"02-6340-5385","addr":"경기도 화성시 능동 1064-4번지 이너매스브라운 104호","category":"일반휴게음식 - 일식·회집"},{"name":"나무(NAMU)","tel":"070-8754-5011","addr":"경기도 화성시 능동 1064-4번지 익현오피스텔 908호","category":"가구 - 기타가구"},{"name":"다인테크","tel":"031-613-3505","addr":"경기도 화성시 능동 1064-4번지 익현오피스텔 218호","category":"전기제품 - 기타전기제품"},{"name":"물푸레홈스쿨","tel":"","addr":"경기도 화성시 능동 1064-4번지 익현오피스텔 10층 1012호","category":"보건위생 - 기타대인서비스"},{"name":"바른가스","tel":"031-000-0000","addr":"경기도 화성시 능동 1064-4번지 익현오피스텔 220호","category":"용역 서비스 - 기타용역서비스"},{"name":"밥상설계","tel":"031-8003-3886","addr":"경기도 화성시 능동 1064-4번지 익현오피스텔 101,102호","category":"일반휴게음식 - 일반한식"},{"name":"본래순대(동탄점)","tel":"031-613-7498","addr":"경기도 화성시 능동 1064-4번지 익현오피스텔 1층상가 1층 109호,110호,111호","category":"일반휴게음식 - 일반한식"},{"name":"이너매스세탁소","tel":"031-8015-2128","addr":"경기도 화성시 능동 1064-4번지 익현오피스텔 107호","category":"수리서비스 - 세탁소"},{"name":"폴아저씨카페","tel":"031-613-6513","addr":"경기도 화성시 능동 1064-4번지 익현오피스텔 108호","category":"일반휴게음식 - 서양음식"}]},{"lat":"37.209130836","long":"127.06035729","items":[{"name":"12일","tel":"","addr":"경기도 화성시 능동 1114-5번지 동탄엠플렉스 1층 104호","category":"의류 - 정장"},{"name":"그레이스보습학원","tel":"031-8015-0742","addr":"경기도 화성시 능동 1114-5번지 동탄엠플렉스 304호","category":"학원 - 보습학원"},{"name":"그레이스어학원","tel":"031-8003-0132","addr":"경기도 화성시 능동 1114-5번지 동탄엠플렉스 301~302호","category":"학원 - 외국어학원"},{"name":"더벤티 (화성능동점)","tel":"031-000-0000","addr":"경기도 화성시 능동 1114-5번지 동탄엠플렉스 1층 101호","category":"일반휴게음식 - 서양음식"},{"name":"도로시명품찹쌀꽈배기","tel":"031-0000-0000","addr":"경기도 화성시 능동 1114-5번지 동탄엠플렉스 1층 105호","category":"일반휴게음식 - 일반한식"},{"name":"두배로축산","tel":"031-613-8270","addr":"경기도 화성시 능동 1114-5번지 동탄엠플렉스 102호","category":"음료식품 - 정육점"},{"name":"락앤롤 주짓수","tel":"031-613-1934","addr":"경기도 화성시 능동 1114-5번지 동탄엠플렉스 402호 403호","category":"레저업소 - 헬스클럽"},{"name":"새콤달콤","tel":"031-613-7337","addr":"경기도 화성시 능동 1114-5번지 동탄엠플렉스 102호","category":"음료식품 - 농·축·수산품"},{"name":"아리따움 동탄 능동점","tel":"031-8003-2022","addr":"경기도 화성시 능동 1114-5번지 동탄엠플렉스 101호","category":"보건위생 - 화장품"},{"name":"아이러브안경원","tel":"031-613-9370","addr":"경기도 화성시 능동 1114-5번지 엠플렉스빌딩 103호","category":"보건위생 - 안경"},{"name":"엠앤에스아카데미학원","tel":"031-8015-4471","addr":"경기도 화성시 능동 1114-5번지 동탄엠플렉스 상가 5층 4호","category":"학원 - 보습학원"},{"name":"와이어주짓수","tel":"031-613-1934","addr":"경기도 화성시 능동 1114-5번지 동탄엠플렉스 402호,403호","category":"레저업소 - 헬스클럽"},{"name":"왓슬앤엘리학원","tel":"031-8003-3319","addr":"경기도 화성시 능동 1114-5번지 동탄엠플렉스 502,503호","category":"학원 - 보습학원"},{"name":"주니어랩영어보습학원","tel":"031-613-0506","addr":"경기도 화성시 능동 1114-5번지 동탄엠플렉스 404호","category":"학원 - 보습학원"},{"name":"키쉬","tel":"070-8887-7909","addr":"경기도 화성시 능동 1114-5번지 106-108호","category":"일반휴게음식 - 서양음식"},{"name":"파파존스피자 동탄점","tel":"031-613-8004","addr":"경기도 화성시 능동 1114-5번지 동탄엠플렉스 201호","category":"일반휴게음식 - 서양음식"},{"name":"홀릭스터다카페","tel":"031-8015-4340","addr":"경기도 화성시 능동 1114-5번지 동탄엠플렉스 202호,203호","category":"용역 서비스 - 사무서비스"}]},{"lat":"37.215665634","long":"127.05545017","items":[{"name":"153포인츠부대찌개카페","tel":"031-8015-1535","addr":"경기도 화성시 능동 1100-2번지","category":"일반휴게음식 - 일반한식"}]},{"lat":"37.202664613","long":"127.05325589","items":[{"name":"3M동탄","tel":"031-8003-9685","addr":"경기도 화성시 능동 1143-9번지","category":"자동차정비 유지 - 카인테리어"}]},{"lat":"37.204548092","long":"127.05252494","items":[{"name":"ACOC(아코크)","tel":"070-8976-2134","addr":"경기도 화성시 능동 1138-2번지 1층","category":"일반휴게음식 - 서양음식"}]},{"lat":"37.210413065","long":"127.05436505","items":[{"name":"B.F무역","tel":"","addr":"경기도 화성시 능동 484-1번지","category":"자동차정비 유지 - 자동차부품"},{"name":"사랑애쌈","tel":"031-235-7755","addr":"경기도 화성시 능동 484-1번지","category":"일반휴게음식 - 일반한식"},{"name":"오프로드","tel":"0505-330-7252","addr":"경기도 화성시 능동 484-1번지","category":"용역 서비스 - 종합용역"}]},{"lat":"37.20122299","long":"127.05316482","items":[{"name":"C&C인테리어","tel":"031-8800-1186","addr":"경기도 화성시 능동 1145-1번지 103호","category":"직물 - 카페트,커튼,천막,지물"},{"name":"꽃담","tel":"031-8015-5130","addr":"경기도 화성시 능동 1145-1번지","category":"문화.취미 - 화원"},{"name":"엘림컴퓨터","tel":"031-7363-8690","addr":"경기도 화성시 능동 1145-1번지 301호","category":"수리서비스 - 사무·통신기기수리"}]},{"lat":"37.203133216","long":"127.05310976","items":[{"name":"ECO전기조명","tel":"031-613-3573","addr":"경기도 화성시 능동 1143-5번지 102, 103호","category":"건축자재 - 조명기구"},{"name":"메가미디어","tel":"031-613-6114","addr":"경기도 화성시 능동 1143-5번지 101호","category":"용역 서비스 - 종합용역"},{"name":"엠에스텍","tel":"031-613-3573","addr":"경기도 화성시 능동 1143-5번지 102호","category":"건축자재 - 조명기구"}]},{"lat":"37.197528634","long":"127.05338764","items":[{"name":"ECO프린텍","tel":"031-205-9247","addr":"경기도 화성시 능동 1159-8번지 1층","category":"사무통신 - 기타 사무용품"}]},{"lat":"37.198493235","long":"127.05222812","items":[{"name":"FLASH(플래시)","tel":"031-8015-0432","addr":"경기도 화성시 능동 1164-1번지","category":"자동차정비 유지 - 세차장"}]},{"lat":"37.207025237","long":"127.05419377","items":[{"name":"GS25동탄데시앙점","tel":"02-2006-2485","addr":"경기도 화성시 능동 1131 숲속마을자연앤데시앙@1층","category":"유통업 영리 - 편 의 점"},{"name":"여우헤어","tel":"031-8015-3211","addr":"경기도 화성시 능동 1131 자연앤데시앙상가동지하6호","category":"보건위생 - 미용원"},{"name":"자연앤비엔나음악학원","tel":"031-8003-5508","addr":"경기도 화성시 능동 1131번지 상가동 10호,11호","category":"학원 - 예·체능계학원"}]},{"lat":"37.212439249","long":"127.05694628","items":[{"name":"GS25동탄이지점","tel":"02-2006-2485","addr":"경기도 화성시 능동 1109 이지더원상가 101호","category":"유통업 영리 - 편 의 점"},{"name":"이지미술교습소","tel":"031-8003-8062","addr":"경기도 화성시 능동 1109번지 능동마을이지더원 785동 203호","category":"학원 - 예·체능계학원"}]},{"lat":"37.213742974","long":"127.06272663","items":[{"name":"GS25동탄하나점","tel":"","addr":"경기도 화성시 능동 1076-2번지 1층","category":"유통업 영리 - 편 의 점"},{"name":"달달해커피","tel":"031-732-9729","addr":"경기도 화성시 능동 1076-2번지","category":"일반휴게음식 - 서양음식"},{"name":"라피네헤어","tel":"031-8015-4480","addr":"경기도 화성시 능동 1076-2번지 1층 102호","category":"보건위생 - 미용원"},{"name":"배터리할인마트","tel":"031-613-8847","addr":"경기도 화성시 능동 1076-2번지 102호","category":"자동차정비 유지 - 자동차부품"}]},{"lat":"37.219079247","long":"127.05833682","items":[{"name":"GS25동탄헤리움점","tel":"","addr":"경기도 화성시 능동 1065-1번지 동탄헤리움 103호","category":"유통업 영리 - 편 의 점"},{"name":"계절수산포차","tel":"031-613-1464","addr":"경기도 화성시 능동 1065-1번지 동탄헤리움 1층 126호","category":"일반휴게음식 - 일반한식"},{"name":"동탄헤리움","tel":"031-8058-0891","addr":"경기도 화성시 능동 1065-1번지 동탄헤리움","category":"자동차정비 유지 - 주차장"},{"name":"돼지세끼","tel":"","addr":"경기도 화성시 능동 1065-1번지 동탄해리움 1층 104호","category":"일반휴게음식 - 일반한식"},{"name":"마님닭발동탄점","tel":"031-8003-7982","addr":"경기도 화성시 능동 1065-1번지 동탄헤리움 1층 112호","category":"일반휴게음식 - 일반한식"},{"name":"세븐일레븐동탄헤리움점","tel":"031-1577-0711","addr":"경기도 화성시 능동 1065-1번지 118호 119호","category":"유통업 영리 - 편 의 점"},{"name":"솜씨","tel":"031-613-8831","addr":"경기도 화성시 능동 1065-1번지 1층 117호","category":"보건위생 - 미용원"},{"name":"술의 온도","tel":"070-4292-8344","addr":"경기도 화성시 능동 1065-1번지 1층 113호","category":"일반휴게음식 - 주점"},{"name":"토프레소동탄헤리움점","tel":"031-613-3588","addr":"경기도 화성시 능동 1065-1번지 106,107호","category":"일반휴게음식 - 서양음식"}]},{"lat":"37.21132994","long":"127.05916481","items":[{"name":"GS25화성능동점","tel":"","addr":"경기도 화성시 능동 1110번지 동탄능동마을주공아파트 상가 102호","category":"유통업 영리 - 편 의 점"},{"name":"페리카나","tel":"031-613-0092","addr":"경기도 화성시 능동 1110번지 동탄능동마을주공아파트 상가 101호","category":"일반휴게음식 - 스넥"}]},{"lat":"37.217359301","long":"127.05608227","items":[{"name":"HOTECH(에이치오테크)","tel":"031-624-2765","addr":"경기도 화성시 능동 1094-5번지 202호","category":"서적문구 - 과학기자재"},{"name":"더블디(DOUBLE D)","tel":"","addr":"경기도 화성시 능동 1094-5번지 1층 전부호","category":"일반휴게음식 - 일반한식"}]},{"lat":"37.209554843","long":"127.05927614","items":[{"name":"IBT주니어영어학원","tel":"031-8015-0594","addr":"경기도 화성시 능동 1114-1번지 501호","category":"학원 - 외국어학원"},{"name":"고려M수학학원","tel":"031-613-5778","addr":"경기도 화성시 능동 1114-1번지 영화프라자 504호","category":"학원 - 보습학원"},{"name":"굿샵 동탄점","tel":"031-8015-9104","addr":"경기도 화성시 능동 1114-1번지 107호","category":"유통업 영리 - 편 의 점"},{"name":"도원한의원","tel":"031-8003-5050","addr":"경기도 화성시 능동 1114-1번지 영화프라자 503호","category":"의원 - 한의원"},{"name":"만두래","tel":"031-8003-4979","addr":"경기도 화성시 능동 1114-1번지 영화프라자 102호","category":"일반휴게음식 - 스넥"},{"name":"무림합기도","tel":"070-7737-6627","addr":"경기도 화성시 능동 1114-1번지 영화프라자 603호","category":"학원 - 예·체능계학원"},{"name":"바보스","tel":"031-613-7955","addr":"경기도 화성시 능동 1114-1번지 영화프라자 2층 201,202호","category":"일반휴게음식 - 일반한식"},{"name":"세븐일레븐동탄숲속마을점","tel":"","addr":"경기도 화성시 능동 1114-1번지 108호","category":"유통업 영리 - 편 의 점"},{"name":"소담","tel":"031-613-7819","addr":"경기도 화성시 능동 1114-1번지 영화프라자 101호","category":"음료식품 - 제과점"},{"name":"에이플러스수학아카데미학원","tel":"031-613-7535","addr":"경기도 화성시 능동 1114-1번지 영화프라자 502호","category":"학원 - 보습학원"},{"name":"이에프필라테스","tel":"031-613-7396","addr":"경기도 화성시 능동 1114-1번지 304호","category":"레저업소 - 헬스클럽"},{"name":"이큐블럭카페","tel":"","addr":"경기도 화성시 능동 1114-1번지 영화프라자 204호","category":"일반휴게음식 - 서양음식"},{"name":"재크미용실","tel":"031-8003-9159","addr":"경기도 화성시 능동 1114-1번지 영화프라자 106호","category":"보건위생 - 미용원"},{"name":"쥐눈이콩마을김밥상","tel":"031-831-5564","addr":"경기도 화성시 능동 1114-1번지 104호","category":"일반휴게음식 - 스넥"},{"name":"쥐눈이콩마을김밥상","tel":"031-831-5564","addr":"경기도 화성시 능동 1114-1번지 104호","category":"일반휴게음식 - 스넥"},{"name":"퀸스애비뉴노래연습장","tel":"031-613-9009","addr":"경기도 화성시 능동 1114-1번지 영화프라자 301동 302호","category":"레저업소 - 노 래 방"},{"name":"킹당구장","tel":"031-8015-3949","addr":"경기도 화성시 능동 1114-1번지 영화프라자 6층 601-602호","category":"레저업소 - 당 구 장"},{"name":"토리헤어","tel":"031-8003-7188","addr":"경기도 화성시 능동 1114-1번지 203호","category":"보건위생 - 미용원"},{"name":"파리바게뜨 동탄숲속점","tel":"031-8015-3530","addr":"경기도 화성시 능동 1114-1번지 영화프라자 105호","category":"음료식품 - 제과점"}]},{"lat":"37.216935975","long":"127.05572145","items":[{"name":"J스크린골프","tel":"031-8003-7655","addr":"경기도 화성시 능동 1093-8번지 대훈빌딩 2층 201호","category":"레저업소 - 스크린골프"}]},{"lat":"37.217664814","long":"127.05791893","items":[{"name":"K1헤어","tel":"031-613-5292","addr":"경기도 화성시 능동 1066-8번지 에스원스마트빌 101호","category":"보건위생 - 미용원"},{"name":"감성디자인제작소 더지인","tel":"070-7676-9242","addr":"경기도 화성시 능동 1066-8번지 에스원스마트빌 1212호","category":"용역 서비스 - 사무서비스"},{"name":"쁘띠카페","tel":"070-4768-4270","addr":"경기도 화성시 능동 1066-8번지 에스원스마트빌 105호","category":"일반휴게음식 - 서양음식"},{"name":"손짱발짱","tel":"031-613-4272","addr":"경기도 화성시 능동 1066-8번지 에스원스마트빌 102호","category":"보건위생 - 피부미용실"},{"name":"토탈 맘스 케어","tel":"031-8003-4726","addr":"경기도 화성시 능동 1066-8번지 에스원스마트빌 203호","category":"주방용구 - 주방용구"}]},{"lat":"37.199356702","long":"127.05577678","items":[{"name":"M.S.헤어스토리","tel":"031-376-1774","addr":"경기도 화성시 능동 1152-5번지 폴리클리닉 108호","category":"보건위생 - 미용원"},{"name":"고방방","tel":"02-0000-0000","addr":"경기도 화성시 능동 1152-5번지 4층 404,405호","category":"레저업소 - 기타레져업소"},{"name":"기타트리음악교습소","tel":"031-8003-0233","addr":"경기도 화성시 능동 1152-5번지 폴리클리닉 112호","category":"학원 - 예·체능계학원"},{"name":"누뷜동탄점","tel":"031-8003-2087","addr":"경기도 화성시 능동 1152-5번지 폴리클리닉 1층 121호","category":"일반휴게음식 - 서양음식"},{"name":"뉴스터디푸른마을학원","tel":"031-8003-0933","addr":"경기도 화성시 능동 1152-5번지 (502호,503호)","category":"학원 - 보습학원"},{"name":"디에스당구클럽","tel":"031-8015-0740","addr":"경기도 화성시 능동 1152-5번지 폴리클리닉 602호,603호","category":"레저업소 - 당 구 장"},{"name":"맘애든","tel":"031-5559-8965","addr":"경기도 화성시 능동 1152-5번지 폴리크리닉 113호","category":"일반휴게음식 - 일반한식"},{"name":"맛있는닭강정","tel":"031-483-3060","addr":"경기도 화성시 능동 1152-5번지","category":"음료식품 - 기타음료식품"},{"name":"블래스트 어학원","tel":"031-613-0707","addr":"경기도 화성시 능동 1152-5번지 폴리클리닉 501호","category":"학원 - 외국어학원"},{"name":"서울대&용인대주니어스포츠클럽","tel":"031-613-6470","addr":"경기도 화성시 능동 1152-5번지 폴리클리닉 703호","category":"학원 - 예·체능계학원"},{"name":"수학의날개수학교습소","tel":"031-8043-4400","addr":"경기도 화성시 능동 1152-5번지 2층 204-1호","category":"학원 - 보습학원"},{"name":"쎈수학러닝센터능동학원","tel":"031-8003-5531","addr":"경기도 화성시 능동 1152-5번지 폴리클리닉 203호","category":"학원 - 보습학원"},{"name":"아이리스","tel":"031-0000-0000","addr":"경기도 화성시 능동 1152-5번지 폴리클리닉 1층 109호","category":"의류 - 정장"},{"name":"아이스크림할인점 동탄점","tel":"031-8003-0400","addr":"경기도 화성시 능동 1152-5번지 폴리클리닉 1층 105호","category":"음료식품 - 기타음료식품"},{"name":"아이피플미술학원","tel":"031-8003-5105","addr":"경기도 화성시 능동 1152-5번지 폴리클리닉 505호","category":"학원 - 예·체능계학원"},{"name":"에스플러스 필라테스","tel":"031-376-3228","addr":"경기도 화성시 능동 1152-5번지 폴리클리닉 5층 502호","category":"레저업소 - 헬스클럽"},{"name":"연세내과의원","tel":"031-8003-6588","addr":"경기도 화성시 능동 1152-5번지 폴리클리닉 302호","category":"의원 - 의원"},{"name":"영어의날개 영어교습소","tel":"031-613-3083","addr":"경기도 화성시 능동 1152-5번지 폴리클리닉 2층 204 일부호","category":"학원 - 외국어학원"},{"name":"우림약국","tel":"031-613-5332","addr":"경기도 화성시 능동 1152-5번지 폴리클리닉빌딩 114호","category":"약국 - 약국"},{"name":"운김","tel":"031-613-3434","addr":"경기도 화성시 능동 1152-5번지","category":"일반휴게음식 - 스넥"},{"name":"이디야커피동탄폴리점","tel":"031-8003-2225","addr":"경기도 화성시 능동 1152-5 폴리클리닉116호~117호","category":"일반휴게음식 - 서양음식"},{"name":"인스카이학원","tel":"031-613-0536","addr":"경기도 화성시 능동 1152-5번지 폴리클리닉 401호","category":"학원 - 보습학원"},{"name":"코리아특공무술아카데미","tel":"031-8003-8822","addr":"경기도 화성시 능동 1152-5번지 폴리크리닉센터 701호","category":"회원제형태 - 레져업소"},{"name":"폰바이폰","tel":"070-7839-7007","addr":"경기도 화성시 능동 1152-5번지 폴리클리닉 1층 104,105호","category":"음료식품 - 기타음료식품"},{"name":"푸른바둑학원","tel":"031-613-9877","addr":"경기도 화성시 능동 1152-5번지 폴리크리닉빌딩 506호","category":"학원 - 기타 교육기관"},{"name":"프랑세즈음악학원","tel":"","addr":"경기도 화성시 능동 1152-5번지 폴리클리닉 402호","category":"학원 - 예·체능계학원"},{"name":"한솔플러스수학영어푸른학원","tel":"031-613-3334","addr":"경기도 화성시 능동 1152-5번지 폴리클리닉 403호 일부","category":"학원 - 보습학원"},{"name":"헤어팝페라","tel":"031-8003-6640","addr":"경기도 화성시 능동 1152-5번지 폴리클리닉 118,119호","category":"보건위생 - 미용원"}]},{"lat":"37.209437574","long":"127.05955769","items":[{"name":"OVE베이커리(능동점)","tel":"031-613-5031","addr":"경기도 화성시 능동 1114-2번지 에버스타 102호","category":"일반휴게음식 - 일반한식"},{"name":"YJ영어수학학원","tel":"031-613-8904","addr":"경기도 화성시 능동 1114-2번지 에버스타 603호","category":"학원 - 보습학원"},{"name":"국수나무 동탄능동점","tel":"031-8003-4100","addr":"경기도 화성시 능동 1114-2번지 에버스타 104호","category":"일반휴게음식 - 일반한식"},{"name":"꿈꾸는 김자매","tel":"031-111-1111","addr":"경기도 화성시 능동 1114-2번지 에버스타 107호","category":"일반휴게음식 - 일반한식"},{"name":"능동정철어학원","tel":"031-375-2299","addr":"경기도 화성시 능동 1114-2번지 에버스타 201호","category":"회원제형태 - 학원"},{"name":"능동청담학원","tel":"031-613-1608","addr":"경기도 화성시 능동 1114-2번지 에버스타 301호","category":"학원 - 보습학원"},{"name":"더블유필라테스동탄평생교육원","tel":"031-8015-3343","addr":"경기도 화성시 능동 1114-2번지 401호,402호","category":"학원 - 기능학원"},{"name":"돈이돈이4800","tel":"031-613-0920","addr":"경기도 화성시 능동 1114-2에버스타203호~204호","category":"일반휴게음식 - 일반한식"},{"name":"동탄천하태권도장","tel":"031-613-6652","addr":"경기도 화성시 능동 1114-2번지 에버스타 5층 501호,502호","category":"학원 - 예·체능계학원"},{"name":"떡고을","tel":"031-8003-5709","addr":"경기도 화성시 능동 1114-2번지 에버스타 101호","category":"음료식품 - 제과점"},{"name":"리딩비영어독서학원","tel":"031-613-8334","addr":"경기도 화성시 능동 1114-2번지 6층 601,602호","category":"학원 - 보습학원"},{"name":"리즈베리","tel":"02-1522-7022","addr":"경기도 화성시 능동 1114-2번지 에버스티 1층 108호","category":"의류 - 정장"},{"name":"멘사지니어스","tel":"070-8864-8259","addr":"경기도 화성시 능동 1114-2번지 에버스타 701호","category":"학원 - 보습학원"},{"name":"밝은안경.콘택트","tel":"031-8015-4882","addr":"경기도 화성시 능동 1114-2 에버스타1층105,106호","category":"보건위생 - 안경"},{"name":"뿌리한의원","tel":"031-8015-2775","addr":"경기도 화성시 능동 1114-2번지 에버스타 302호","category":"의원 - 한의원"},{"name":"수학의길학원","tel":"031-8003-2227","addr":"경기도 화성시 능동 1114-2번지 에버스타 403호","category":"학원 - 보습학원"},{"name":"아이러브퍼피 (동탄점)","tel":"031-8003-9919","addr":"경기도 화성시 능동 1114-2번지 에버스타 203,204호","category":"일반휴게음식 - 서양음식"},{"name":"에스라이팅능동어학원","tel":"031-8003-0595","addr":"경기도 화성시 능동 1114-2동탄택지지구29블럭2로트에버스타603","category":"학원 - 보습학원"},{"name":"예인에스테틱","tel":"031-613-5188","addr":"경기도 화성시 능동 1114-2번지 에버스타 303호","category":"회원제형태 - 기타4"}]},{"lat":"37.209329314","long":"127.05983924","items":[{"name":"PC토랑 2호점","tel":"031-0000-0000","addr":"경기도 화성시 능동 1114-3번지 아크리아 302,303호","category":"레저업소 - 기타레져업소"},{"name":"고봉민김밥","tel":"031-613-6727","addr":"경기도 화성시 능동 1114-3번지 아크리아 102호","category":"일반휴게음식 - 스넥"},{"name":"대학으로가는길학원","tel":"031-8003-0815","addr":"경기도 화성시 능동 1114-3번지 아크리아 401호,402호","category":"회원제형태 - 학원"},{"name":"동탄경호무술아카데미","tel":"031-8003-2415","addr":"경기도 화성시 능동 1114-3번지 아크리아 301호","category":"레저업소 - 헬스클럽"},{"name":"동탄스폴어학원","tel":"031-8003-9404","addr":"경기도 화성시 능동 1114-3번지 아크리아 601호","category":"학원 - 외국어학원"},{"name":"라임나무공방","tel":"","addr":"경기도 화성시 능동 1114-3번지 아크리아 1층 106호","category":"문화.취미 - 문화취미기타"},{"name":"북촌손만두 (화성능동점)","tel":"031-613-2999","addr":"경기도 화성시 능동 1114-3번지 아크리아 1층 101호","category":"일반휴게음식 - 일반한식"},{"name":"아우라골드","tel":"031-613-7799","addr":"경기도 화성시 능동 1114-3번지 아크리아 105호","category":"신변잡화 - 액세서리"},{"name":"용인대국가대표태권도","tel":"031-8003-8283","addr":"경기도 화성시 능동 1114-3번지 아크리아 502호","category":"학원 - 예·체능계학원"},{"name":"커피에반하다","tel":"031-8003-6779","addr":"경기도 화성시 능동 1114-3번지 아크리아 107호","category":"일반휴게음식 - 서양음식"},{"name":"태평양온누리약국","tel":"031-8003-1148","addr":"경기도 화성시 능동 1114-3번지 아크리아 104호","category":"약국 - 약국"},{"name":"플레이피아노학원","tel":"031-8003-3930","addr":"경기도 화성시 능동 1114-3번지 아크리아 501호","category":"학원 - 예·체능계학원"},{"name":"헤어살롱제이드","tel":"031-8015-2877","addr":"경기도 화성시 능동 1114-3번지 아크리아 104-1호","category":"보건위생 - 미용원"}]},{"lat":"37.217412214","long":"127.05858347","items":[{"name":"PLULIELLE/무니(Moony)","tel":"","addr":"경기도 화성시 능동 1066-3번지 1층 105호","category":"일반휴게음식 - 서양음식"},{"name":"또봉이통닭(능동점)","tel":"031-8015-5746","addr":"경기도 화성시 능동 1066-3번지 103-1호","category":"일반휴게음식 - 일반한식"},{"name":"브로드웨이펍","tel":"031-8015-1181","addr":"경기도 화성시 능동 1066-3번지 102호","category":"일반휴게음식 - 일반한식"},{"name":"풀타임피시(PC)방(능동점)","tel":"070-7194-1552","addr":"경기도 화성시 능동 1066-3번지 동탄아르젠3차 202~204호","category":"레저업소 - 기타레져업소"},{"name":"하루","tel":"070-6253-1716","addr":"경기도 화성시 능동 1066-3번지 아르젠오피스텔 101호 상가","category":"일반휴게음식 - 일식·회집"}]},{"lat":"37.204439954","long":"127.05255866","items":[{"name":"PTH특수","tel":"","addr":"경기도 화성시 능동 1138-3번지 303호","category":"자동차정비 유지 - 자동차정비"},{"name":"푸른펫살롱","tel":"031-613-2647","addr":"경기도 화성시 능동 1138-3번지 102호","category":"문화.취미 - 애완동물"},{"name":"화성스포츠","tel":"031-222-3180","addr":"경기도 화성시 능동 1138-3번지 101호","category":"레져용품 - 스포츠·레져용품"}]},{"lat":"37.198186929","long":"127.05211529","items":[{"name":"SY수학","tel":"","addr":"경기도 화성시 능동 1164-20번지 403호","category":"학원 - 기타 교육기관"},{"name":"느낌있는 아이","tel":"031-000-0000","addr":"경기도 화성시 능동 1164-20번지 103호","category":"의류 - 정장"},{"name":"에이디 기획","tel":"031-221-1448","addr":"경기도 화성시 능동 1164-20번지 101호","category":"용역 서비스 - 종합용역"},{"name":"작은별서점","tel":"031-111-1111","addr":"경기도 화성시 능동 1164-20번지 103호","category":"서적문구 - 일반서적"}]},{"lat":"37.21599822","long":"127.05721921","items":[{"name":"SY푸드","tel":"031-8015-0918","addr":"경기도 화성시 능동 1092-5번지 1층","category":"일반휴게음식 - 일반한식"},{"name":"보떼미헤어","tel":"031-613-5532","addr":"경기도 화성시 능동 1092-5번지","category":"보건위생 - 미용원"}]},{"lat":"37.198995655","long":"127.05717323","items":[{"name":"THEPITIS","tel":"031-8003-7261","addr":"경기도 화성시 능동 976-2번지","category":"자동차정비 유지 - 카인테리어"},{"name":"현대종합건철","tel":"031-8003-2741","addr":"경기도 화성시 능동 976-2번지 컨테이너내","category":"건축자재 - 목재·석재·철물"}]},{"lat":"37.198860663","long":"127.0568127","items":[{"name":"TS인테리어","tel":"031-8003-5380","addr":"경기도 화성시 능동 978번지 103호","category":"건축자재 - 인테리어전문"},{"name":"에스에프씨(SFC)능동점","tel":"031-613-7160","addr":"경기도 화성시 능동 978번지","category":"자동차정비 유지 - 카인테리어"}]},{"lat":"37.220439353","long":"127.05930678","items":[{"name":"W셀프세차","tel":"02-1111-1111","addr":"경기도 화성시 능동 1052-2번지","category":"자동차정비 유지 - 세차장"}]},{"lat":"37.213688729","long":"127.0630871","items":[{"name":"ei 온새미로","tel":"031-8015-5557","addr":"경기도 화성시 능동 1078-8번지 1층","category":"건축자재 - 페인트"}]},{"lat":"37.198024858","long":"127.05183359","items":[{"name":"가나시스템","tel":"031-216-9900","addr":"경기도 화성시 능동 1164-18번지","category":"농업 - 기타농업관련"}]},{"lat":"37.200665503","long":"127.05035971","items":[{"name":"가나중고재활용총판","tel":"031-898-8860","addr":"경기도 화성시 능동 633번지","category":"전기제품 - 가전제품"}]},{"lat":"37.218107034","long":"127.05636446","items":[{"name":"가든종합동물병원","tel":"031-8015-1396","addr":"경기도 화성시 능동 1091-2번지 어반하임 101호","category":"기타의료기관 - 동물병원"},{"name":"아성오토스","tel":"031-1605-9731","addr":"경기도 화성시 능동 1091-2번지 1층","category":"자동차정비 유지 - 자동차부품"}]},{"lat":"37.197826363","long":"127.05247549","items":[{"name":"가마솥 한식부페","tel":"031-8003-2898","addr":"경기도 화성시 능동 1161-9번지","category":"일반휴게음식 - 일반한식"},{"name":"커피에반하다 (화성여울점)","tel":"","addr":"경기도 화성시 능동 1161-9번지 1층 일부","category":"일반휴게음식 - 서양음식"}]},{"lat":"37.198222702","long":"127.05275734","items":[{"name":"가마솥옛날통닭","tel":"","addr":"경기도 화성시 능동 1161-12번지 1층","category":"일반휴게음식 - 스넥"}]},{"lat":"37.210050279","long":"127.05955815","items":[{"name":"감탄떡볶이","tel":"031-8003-4885","addr":"경기도 화성시 능동 1113-1번지 제이스프라자 101호","category":"일반휴게음식 - 스넥"},{"name":"단비약국","tel":"031-8015-0374","addr":"경기도 화성시 능동 1113-1번지 제이스프라자 106호","category":"약국 - 약국"},{"name":"동탄지니실용음악학원","tel":"031-613-9929","addr":"경기도 화성시 능동 1113-1번지 제이스프라자 401호","category":"학원 - 예·체능계학원"},{"name":"명의원","tel":"031-8015-1245","addr":"경기도 화성시 능동 1113-1번지 제이스프라자 304호","category":"의원 - 의원"},{"name":"소나타음악학원","tel":"031-8003-8599","addr":"경기도 화성시 능동 1113-1번지 제이스프라자 5층 503호","category":"학원 - 예·체능계학원"},{"name":"신전떡볶이","tel":"031-8003-7282","addr":"경기도 화성시 능동 1113-1번지 제이스프라자 108호","category":"일반휴게음식 - 스넥"},{"name":"심봉사도로케","tel":"031-613-4124","addr":"경기도 화성시 능동 1113-1번지 제이스프라자 107호","category":"일반휴게음식 - 일반한식"},{"name":"에스디에이치능동캠퍼스어학원","tel":"031-613-5847","addr":"경기도 화성시 능동 1113-1번지 제이스프라자 402호","category":"회원제형태 - 학원"},{"name":"오스타짐","tel":"031-8003-5222","addr":"경기도 화성시 능동 1113-1번지 제이스프라자 5층 502호","category":"레저업소 - 헬스클럽"},{"name":"요가 앤 하우스 동탄","tel":"031-613-6528","addr":"경기도 화성시 능동 1113-1번지 제이스프라자 601호","category":"레저업소 - 헬스클럽"},{"name":"우리집닭강정","tel":"031-613-4074","addr":"경기도 화성시 능동 1113-1번지 제이스프라자 104호","category":"일반휴게음식 - 스넥"},{"name":"웨이브 코딩 교습소","tel":"031-000-0000","addr":"경기도 화성시 능동 1113-1번지 제이스프라자 302호","category":"학원 - 컴퓨터학원"},{"name":"위즈브레인외국어학원","tel":"031-8003-7965","addr":"경기도 화성시 능동 1113-1번지 제이스프라자 602호","category":"학원 - 외국어학원"},{"name":"추억공장","tel":"070-4203-3657","addr":"경기도 화성시 능동 1113-1번지 제이스프라자 303호","category":"광학제품 - 사진관"},{"name":"투문헤어","tel":"031-2301-8019","addr":"경기도 화성시 능동 1113-1번지 201호,202호","category":"보건위생 - 미용원"},{"name":"펄스온생명공학 동탄지점","tel":"031-8015-2500","addr":"경기도 화성시 능동 1113-1번지 제이스프라자 501호","category":"보건위생 - 의료용품"},{"name":"프라임지엠에스학원","tel":"031-8003-6893","addr":"경기도 화성시 능동 1113-1번지 제이스프라자 403호","category":"회원제형태 - 학원"},{"name":"하이점핑다이어트","tel":"031-8003-0567","addr":"경기도 화성시 능동 1113-1번지 제이스프라자 303호","category":"건강식품 - 기타건강식품"},{"name":"한마음소아청소년과의원","tel":"031-8003-7585","addr":"경기도 화성시 능동 1113-1번지 제이스프라자 305호","category":"의원 - 의원"},{"name":"행복한사진관","tel":"031-8003-4725","addr":"경기도 화성시 능동 1113-1번지 제이스프라자 105호","category":"광학제품 - 사진관"},{"name":"행복한사진관","tel":"031-8003-4725","addr":"경기도 화성시 능동 1113-1번지 제이스프라자 105호","category":"광학제품 - 사진관"}]},{"lat":"37.209248102","long":"127.06008701","items":[{"name":"강소아청소년과의원","tel":"031-8015-9720","addr":"경기도 화성시 능동 1114-4번지 양진빌딩 1층 105호","category":"의원 - 의원"},{"name":"미즈파크산부인과의원","tel":"031-8015-9886","addr":"경기도 화성시 능동 1114-4번지","category":"의원 - 의원"},{"name":"이니스프리","tel":"070-4255-9980","addr":"경기도 화성시 능동 1114-4번지 양진빌딩 1층 104호","category":"보건위생 - 화장품"},{"name":"초록마을동탄능동점","tel":"031-8003-2412","addr":"경기도 화성시 능동 1114-4번지 양진빌딩 103호","category":"유통업 영리 - 슈퍼마켓"}]},{"lat":"37.212052492","long":"127.05541387","items":[{"name":"개성곱창","tel":"031-000-0000","addr":"경기도 화성시 능동 460-31번지 1,2층 일부호","category":"일반휴게음식 - 일반한식"},{"name":"고봉삼계탕 화성동탄점","tel":"031-223-3953","addr":"경기도 화성시 능동 460-31번지 1,2층 일부호","category":"일반휴게음식 - 일반한식"}]},{"lat":"37.20052027","long":"127.05295033","items":[{"name":"갤러리옷수선","tel":"070-8860-8856","addr":"경기도 화성시 능동 1146-1번지 101호","category":"수리서비스 - 세탁소"},{"name":"인어아가씨 화성점","tel":"","addr":"경기도 화성시 능동 1146-1번지 102호","category":"음료식품 - 농·축·수산품"},{"name":"전자담배멀티플러스","tel":"070-4244-2206","addr":"경기도 화성시 능동 1146-1번지 103호","category":"기타 - 기타 전문점"}]},{"lat":"37.200853607","long":"127.05306319","items":[{"name":"경기디자인","tel":"031-613-0481","addr":"경기도 화성시 능동 1145-4번지","category":"건축자재 - 인테리어전문"},{"name":"신영유리샤시","tel":"031-2003-6202","addr":"경기도 화성시 능동 1145-4번지","category":"건축자재 - 유리"},{"name":"컴퓨터119","tel":"0505-8383-119","addr":"경기도 화성시 능동 1145-4번지 컴퓨터 119호","category":"사무통신 - 컴퓨터"}]},{"lat":"37.204106513","long":"127.05269362","items":[{"name":"경기유통","tel":"","addr":"경기도 화성시 능동 1138-6번지","category":"음료식품 - 농·축·수산품"},{"name":"잉크가이동탄점","tel":"031-613-6113","addr":"경기도 화성시 능동 1138-6번지 101호","category":"사무통신 - 기타 사무용품"},{"name":"해다온포차","tel":"031-8015-5777","addr":"경기도 화성시 능동 1138-6번지 1층","category":"일반휴게음식 - 일반한식"}]},{"lat":"37.214214956","long":"127.0554717","items":[{"name":"경신사","tel":"031-613-0959","addr":"경기도 화성시 능동 1104-11번지 101호","category":"수리서비스 - 세탁소"},{"name":"다솜","tel":"031-6623-2096","addr":"경기도 화성시 능동 1104-11번지 1층 일부호","category":"일반휴게음식 - 서양음식"},{"name":"엔젤보르(Angelbor)","tel":"070-8233-7067","addr":"경기도 화성시 능동 1104-11번지 102호","category":"음료식품 - 기타음료식품"},{"name":"하얀크리닝","tel":"031-8015-5958","addr":"경기도 화성시 능동 1104-11번지 101호","category":"수리서비스 - 세탁소"}]},{"lat":"37.199500707","long":"127.05613732","items":[{"name":"경희대드림태권도장","tel":"031-613-8121","addr":"경기도 화성시 능동 1152-3 스타타워3층304호,305호","category":"학원 - 예·체능계학원"},{"name":"꽈배기 패밀리","tel":"","addr":"경기도 화성시 능동 1152-3번지 스타타워 1층 104호","category":"일반휴게음식 - 서양음식"},{"name":"내츄럴스킨닥터 (Natural Skin Dr. )","tel":"070-4193-1533","addr":"경기도 화성시 능동 1152-3번지 스타타워 101호","category":"보건위생 - 화장품"},{"name":"다나약국","tel":"031-613-4326","addr":"경기도 화성시 능동 1152-3번지 스타타워제1층 102호","category":"약국 - 약국"},{"name":"로스트럼Y학원","tel":"031-8015-1917","addr":"경기도 화성시 능동 1152-3번지 스타타워 404 405호","category":"학원 - 보습학원"},{"name":"마이짐","tel":"031-8003-2423","addr":"경기도 화성시 능동 1152-3번지 스타타워 2층","category":"레저업소 - 헬스클럽"},{"name":"뮤직트리음악학원","tel":"031-613-5557","addr":"경기도 화성시 능동 1152-3번지 스타타워 504호","category":"학원 - 예·체능계학원"},{"name":"베테랑","tel":"031-613-9971","addr":"경기도 화성시 능동 1152-3번지 스타타워 105호","category":"일반휴게음식 - 일반한식"},{"name":"봉구스밥버거","tel":"031-8003-7820","addr":"경기도 화성시 능동 1152-3번지 스타타워 109호","category":"일반휴게음식 - 일반한식"},{"name":"색연필푸른마을점","tel":"031-8015-1069","addr":"경기도 화성시 능동 1152-3번지 스타타워 108호","category":"서적문구 - 문구용품"},{"name":"오레시피동탄푸른마을점","tel":"031-8003-2832","addr":"경기도 화성시 능동 1152-3번지 스타타워 110호","category":"음료식품 - 기타음료식품"},{"name":"이삭토스트&커피동탄마을점","tel":"031-8003-6242","addr":"경기도 화성시 능동 1152-3번지 스타타워 103호","category":"일반휴게음식 - 일반한식"},{"name":"이은주에스테틱","tel":"031-613-2712","addr":"경기도 화성시 능동 1152-3번지 스타타워 4층 402호","category":"보건위생 - 피부미용실"},{"name":"조이블럭","tel":"031-8003-4564","addr":"경기도 화성시 능동 1152-3번지 스타타워 3층 301호","category":"학원 - 기타 교육기관"},{"name":"차이랑중국어학원","tel":"031-8015-1021","addr":"경기도 화성시 능동 1152-3번지 스타타워 501호","category":"학원 - 외국어학원"},{"name":"튼튼영어마스터클럽푸른마을학원","tel":"031-613-1018","addr":"경기도 화성시 능동 1152-3번지 스타타워 502호","category":"학원 - 보습학원"},{"name":"푸른의원","tel":"031-613-9738","addr":"경기도 화성시 능동 1152-3번지 스타타워 401호","category":"의원 - 의원"},{"name":"핑크(Pink)","tel":"031-8015-0915","addr":"경기도 화성시 능동 1152-3번지 스타타워 1층 101호","category":"보건위생 - 피부미용실"}]},{"lat":"37.202386631","long":"127.05000033","items":[{"name":"경희대여울 태권도","tel":"031-234-1777","addr":"경기도 화성시 능동 1282번지 서동탄역파크자이 203 ,204,205,206호","category":"학원 - 예·체능계학원"},{"name":"김선아 영어개인과외","tel":"","addr":"경기도 화성시 능동 1282번지 서동탄역파크자이 101동 403호","category":"학원 - 기타 교육기관"},{"name":"노수진개인교습","tel":"","addr":"경기도 화성시 능동 1282번지 서동탄역파크자이 104동 702호","category":"학원 - 기타 교육기관"},{"name":"레브아트미술교습소","tel":"","addr":"경기도 화성시 능동 1282번지 서동탄역파크자이 상가동 1층 109호","category":"학원 - 예·체능계학원"},{"name":"만지작 Lab","tel":"","addr":"경기도 화성시 능동 1282번지 서동탄역파크자이 109동 302호","category":"문화.취미 - 민예·공예품"},{"name":"바로세움 전과목 교실","tel":"","addr":"경기도 화성시 능동 1282번지 서동탄역파크자이 106동 202호","category":"학원 - 기타 교육기관"},{"name":"뷰티호텔서동탄파크자이점(BEAUTY HOTEL)","tel":"","addr":"경기도 화성시 능동 1282번지 서동탄역파크자이 302동 1층 108호","category":"보건위생 - 피부미용실"},{"name":"시온모바일 서동탄점","tel":"031-898-5563","addr":"경기도 화성시 능동 1282번지 서동탄역파크자이1차 상가동 102호","category":"사무통신 - 통신기기"},{"name":"유니헤어","tel":"031-233-2528","addr":"경기도 화성시 능동 1282번지 서동탄역파크자이 302동 1층 107호","category":"보건위생 - 미용원"},{"name":"자이라라어린이집[아이행복]","tel":"031-232-2282","addr":"경기도 화성시 능동 1282번지 서동탄역파크자이 101동 105호","category":"학원 - 유아원"},{"name":"자이비엔나음악학원","tel":"031-222-0701","addr":"경기도 화성시 능동 1282번지 서동탄역파크자이 302동 201,202호","category":"학원 - 예·체능계학원"},{"name":"자이비엔나음악학원","tel":"031-222-0701","addr":"경기도 화성시 능동 1282번지 서동탄역파크자이 201,202호","category":"학원 - 예·체능계학원"},{"name":"자이숲어린이집[아이행복]","tel":"031-236-0505","addr":"경기도 화성시 능동 1282번지 서동탄역파크자이 111동 104호","category":"학원 - 유아원"},{"name":"하얀크리닝","tel":"031-234-6912","addr":"경기도 화성시 능동 1282번지 서동탄역파크자이 302동 1층 103호","category":"수리서비스 - 세탁소"},{"name":"하임어린이집[아이행복]","tel":"031-232-4044","addr":"경기도 화성시 능동 1282번지 서동탄역파크자이 관리동","category":"학원 - 유아원"},{"name":"현대인테리어","tel":"","addr":"경기도 화성시 능동 1282번지 서동탄역파크자이 104동 801호","category":"건축자재 - 인테리어전문"}]},{"lat":"37.213328486","long":"127.06274884","items":[{"name":"계숙이네","tel":"031-613-9500","addr":"경기도 화성시 능동 1080-3번지","category":"일반휴게음식 - 스넥"}]},{"lat":"37.211800929","long":"127.05374638","items":[{"name":"고기굽는 하이소","tel":"031-427-9146","addr":"경기도 화성시 능동 471-2번지 2층","category":"일반휴게음식 - 일반한식"},{"name":"다하누에이젯쇼핑","tel":"031-222-0926","addr":"경기도 화성시 능동 471-2번지 1층","category":"음료식품 - 정육점"}]},{"lat":"37.214962866","long":"127.05535956","items":[{"name":"고목정소머리국밥","tel":"031-8003-3296","addr":"경기도 화성시 능동 1101-8번지 1층","category":"일반휴게음식 - 일반한식"}]},{"lat":"37.199745529","long":"127.05258938","items":[{"name":"골프부킹번개","tel":"","addr":"경기도 화성시 능동 1149-6번지 1동","category":"용역 서비스 - 사무서비스"}]},{"lat":"37.198666636","long":"127.04661891","items":[{"name":"공간","tel":"070-4063-0994","addr":"경기도 화성시 능동 668-1번지 3층 전부호","category":"일반휴게음식 - 일반한식"},{"name":"영계소문","tel":"031-222-4259","addr":"경기도 화성시 능동 668-1번지 1층","category":"일반휴게음식 - 일반한식"}]},{"lat":"37.209527018","long":"127.06092086","items":[{"name":"공부가잘되는1인독서실","tel":"031-613-2020","addr":"경기도 화성시 능동 1113-6번지 한솔프라자 601호","category":"학원 - 독서실"},{"name":"김덕하소하청소년과의원","tel":"031-613-6275","addr":"경기도 화성시 능동 113-6,한솔프라자402","category":"의원 - 의원"},{"name":"나이스가이","tel":"031-8003-2096","addr":"경기도 화성시 능동 1113-6번지 한솔프라자 107호","category":"보건위생 - 미용원"},{"name":"동탄마음수련회","tel":"031-613-9939","addr":"경기도 화성시 능동 1113-6번지 한솔프라자 501호","category":"회원제형태 - 레져업소"},{"name":"동탄샘치과","tel":"031-8003-2875","addr":"경기도 화성시 능동 1113-6번지 한솔프라자 302호","category":"의원 - 치과의원"},{"name":"동탄수한의원","tel":"031-8015-1075","addr":"경기도 화성시 능동 1113-6번지 한솔프라자 301호","category":"의원 - 한의원"},{"name":"뚜레쥬르 동탄한솔(2)","tel":"031-613-6455","addr":"경기도 화성시 능동 1113-6번지 한솔프라자 105동 106호","category":"음료식품 - 제과점"},{"name":"마음담은내과","tel":"031-8015-3700","addr":"경기도 화성시 능동 1113-6번지 한솔프라자 403호","category":"의원 - 의원"},{"name":"비앤비 (B&B)축산","tel":"031-8077-4779","addr":"경기도 화성시 능동 1113-6번지 한솔프라자 1층 108호","category":"음료식품 - 정육점"},{"name":"삼일한의원","tel":"031-8015-1075","addr":"경기도 화성시 능동 1113-6번지 한솔프라자 3층 301호","category":"의원 - 한의원"},{"name":"제이와이엠","tel":"","addr":"경기도 화성시 능동 1113-6번지 한솔프라자 103호","category":"의류 - 정장"},{"name":"치킨보감","tel":"031-359-4300","addr":"경기도 화성시 능동 1113-6번지 한솔프라자 110,111호","category":"일반휴게음식 - 주점"},{"name":"탑스터디카페","tel":"","addr":"경기도 화성시 능동 1113-6번지 한솔프라자 502호","category":"용역 서비스 - 사무서비스"}]},{"lat":"37.200333846","long":"127.0458314","items":[{"name":"공존","tel":"070-8668-9966","addr":"경기도 화성시 능동 683번지","category":"레져용품 - 골프용품 전문점"}]},{"lat":"37.199248416","long":"127.05613714","items":[{"name":"공터동탄6호점학원","tel":"031-8003-0533","addr":"경기도 화성시 능동 1152-4번지 엘리트타워 603호","category":"학원 - 외국어학원"},{"name":"닥터스마일치과의원","tel":"031-8003-2882","addr":"경기도 화성시 능동 1152-4 엘리트타워403호","category":"의원 - 치과의원"},{"name":"더프라임학원","tel":"031-613-1063","addr":"경기도 화성시 능동 1152-4번지 엘리트타워 604호","category":"학원 - 보습학원"},{"name":"딜라잇","tel":"031-8003-2998","addr":"경기도 화성시 능동 1152-4번지 엘리트타워 101호","category":"보건위생 - 미용원"},{"name":"라임(숙녀복)","tel":"031-613-6153","addr":"경기도 화성시 능동 1152-4번지 엘리트타워 102호","category":"의류 - 정장"},{"name":"맛깔참죽동탄푸른마을점","tel":"031-8015-5001","addr":"경기도 화성시 능동 1152-4번지 엘리트타워 105호","category":"일반휴게음식 - 일반한식"},{"name":"미투미에스테","tel":"031-8003-1770","addr":"경기도 화성시 능동 1152-4번지 엘리트타워 2층 201호","category":"보건위생 - 피부미용실"},{"name":"블럭랜드","tel":"031-8003-1811","addr":"경기도 화성시 능동 1152-4번지 엘리트타워 404호","category":"학원 - 기타 교육기관"},{"name":"슈만과클라라음악학원","tel":"031-8003-4988","addr":"경기도 화성시 능동 1152-4번지 엘리트타워 501호","category":"학원 - 예·체능계학원"},{"name":"아칸PC방","tel":"031-8003-6787","addr":"경기도 화성시 능동 1152-4번지 엘리트타워 202호~203호","category":"레저업소 - 기타레져업소"},{"name":"에이스짐다이어트","tel":"070-7719-4884","addr":"경기도 화성시 능동 1152-4번지 엘리트타워 402호","category":"건강식품 - 기타건강식품"},{"name":"엘리짐(Elly Gym)","tel":"031-613-0371","addr":"경기도 화성시 능동 1152-4번지 엘리트타워 204호","category":"회원제형태 - 레져업소"},{"name":"점핑클럽","tel":"031-613-1250","addr":"경기도 화성시 능동 1152-4번지 엘리트타워 602호","category":"학원 - 예·체능계학원"},{"name":"토마토노래연습장","tel":"031-8003-8969","addr":"경기도 화성시 능동 1152-4번지","category":"레저업소 - 노 래 방"},{"name":"파리바게뜨동탄푸른마을점","tel":"031-8003-0482","addr":"경기도 화성시 능동 1152-4 엘리트타워1층103호,104호","category":"음료식품 - 제과점"},{"name":"피자스쿨 동탄푸른점","tel":"031-8003-0320","addr":"경기도 화성시 능동 1152-4번지 엘리트타워 106호","category":"일반휴게음식 - 서양음식"}]},{"lat":"37.210459121","long":"127.05199934","items":[{"name":"과일창고 탐스","tel":"02-111-1111","addr":"경기도 화성시 능동 531번지 가동","category":"음료식품 - 농·축·수산품"}]},{"lat":"37.202775281","long":"127.0468691","items":[{"name":"구봉산골프샵(동탄골프랜드)","tel":"031-224-9030","addr":"경기도 화성시 능동 697-16번지","category":"레져용품 - 스포츠·레져용품"},{"name":"동탄골프랜드","tel":"031-223-7711","addr":"경기도 화성시 능동 697-16번지","category":"레저업소 - 골프연습장"},{"name":"앤커피","tel":"031-0000-0000","addr":"경기도 화성시 능동 697-16번지 1층","category":"일반휴게음식 - 서양음식"}]},{"lat":"37.213247164","long":"127.06319941","items":[{"name":"구이몽(능동점)","tel":"031-613-5998","addr":"경기도 화성시 능동 1079-7번지 1층","category":"일반휴게음식 - 일반한식"},{"name":"아삼소","tel":"031-613-5998","addr":"경기도 화성시 능동 1079-7번지 1층","category":"일반휴게음식 - 일반한식"}]},{"lat":"37.209915005","long":"127.05980588","items":[{"name":"구피샵 능동점","tel":"031-8003-5676","addr":"경기도 화성시 능동 1113-2번지 아이비타워 1층 107호","category":"보건위생 - 미용원"},{"name":"글라스바바안경체인동탄점","tel":"031-8015-5119","addr":"경기도 화성시 능동 1113-2번지 아이비타워 104~107호","category":"보건위생 - 안경"},{"name":"김밥매니아","tel":"031-613-5672","addr":"경기도 화성시 능동 1113-2번지 아이비타워 103호","category":"일반휴게음식 - 일반한식"},{"name":"꿈쟁이 음악학원","tel":"031-613-7440","addr":"경기도 화성시 능동 1113-2번지 아이비타워 403호","category":"학원 - 예·체능계학원"},{"name":"남명수학전문학원","tel":"031-8003-6797","addr":"경기도 화성시 능동 1113-2번지 아이비타워 503호","category":"학원 - 보습학원"},{"name":"능동동탄간호학원","tel":"031-831-5580","addr":"경기도 화성시 능동 1113-2번지 아이비타워 402호","category":"학원 - 기능학원"},{"name":"돌쇠축산","tel":"031-8003-9292","addr":"경기도 화성시 능동 1113-2번지 아이비타워 102호","category":"음료식품 - 정육점"},{"name":"동탄아동발달센터","tel":"031-8015-3215","addr":"경기도 화성시 능동 1113-2번지 아이비타워 501호","category":"보건위생 - 기타대인서비스"},{"name":"동탄키즈사랑소아치과","tel":"031-8003-2274","addr":"경기도 화성시 능동 1113-2번지 아이비타워 301호","category":"의원 - 치과의원"},{"name":"몽글몽글펫","tel":"031-8868-9709","addr":"경기도 화성시 능동 1113-2번지 아이비타워 108호","category":"문화.취미 - 애완동물"},{"name":"방방존","tel":"031-8051-5111","addr":"경기도 화성시 능동 1113-2번지 아이비타워 302호","category":"레저업소 - 기타레져업소"},{"name":"손(SON)복싱짐","tel":"031-613-9668","addr":"경기도 화성시 능동 1113-2번지 아이비타워 202호","category":"레저업소 - 헬스클럽"},{"name":"엠토수학영어학원","tel":"031-613-5065","addr":"경기도 화성시 능동 1113-2번지 아이비타워 401호","category":"회원제형태 - 학원"},{"name":"예그리나미술학원","tel":"031-613-5242","addr":"경기도 화성시 능동 1113-2번지 아이비타워 203호","category":"학원 - 예·체능계학원"},{"name":"용인대송라태권도","tel":"031-613-8448","addr":"경기도 화성시 능동 1113-2번지 아이비타워 6층 601호","category":"학원 - 예·체능계학원"},{"name":"파파어학원","tel":"031-8003-5556","addr":"경기도 화성시 능동 통탄택지지구28-2블럭아이비타워502","category":"회원제형태 - 학원"},{"name":"피자마루능동점","tel":"031-613-0028","addr":"경기도 화성시 능동 1113-2번지 아이비타워 101호","category":"일반휴게음식 - 서양음식"}]},{"lat":"37.217332067","long":"127.05653291","items":[{"name":"국대감","tel":"070-4220-1427","addr":"경기도 화성시 능동 1095-21번지 1층","category":"음료식품 - 기타음료식품"}]},{"lat":"37.218051436","long":"127.05966553","items":[{"name":"굿모닝출장세차","tel":"","addr":"경기도 화성시 능동 1063-1번지 에이치오엔빌딩 4층 412호","category":"자동차정비 유지 - 세차장"},{"name":"능동해물짬뽕","tel":"","addr":"경기도 화성시 능동 1063-1번지 에이치오엔빌딩 106동 1층 110호","category":"일반휴게음식 - 중국식"},{"name":"미니스톱동탄골드점","tel":"031-1577-9621","addr":"경기도 화성시 능동 1063-1번지 103,104,105호","category":"유통업 영리 - 편 의 점"},{"name":"비포코리아","tel":"031-613-9490","addr":"경기도 화성시 능동 1063-1번지 에이치오엔빌딩 7층 704호","category":"용역 서비스 - 종합용역"},{"name":"에스유켐텍/원격지","tel":"031-8003-6675","addr":"경기도 화성시 능동 1063-1번지 에이치오엔빌딩 413호","category":"기타 - 기타 전문점"},{"name":"와이제이","tel":"031-613-1311","addr":"경기도 화성시 능동 1063-1번지 에이치오엔빌딩","category":"일반휴게음식 - 일반한식"}]},{"lat":"37.20963528","long":"127.06063931","items":[{"name":"굿모닝항외과","tel":"031-8015-1881","addr":"경기도 화성시 능동 1113-5번지 우리프라자 3층","category":"의원 - 의원"},{"name":"동탄니하오중국어학원","tel":"031-613-8823","addr":"경기도 화성시 능동 1113-5번지 우리프라자 5층 503호","category":"회원제형태 - 학원"},{"name":"랑이랑 미술학원","tel":"031-613-2179","addr":"경기도 화성시 능동 1113-5번지 우리프라자 501호","category":"학원 - 예·체능계학원"},{"name":"로저스영어수학학원","tel":"031-613-8202","addr":"경기도 화성시 능동 1113-5번지 우리프라자 403호","category":"학원 - 보습학원"},{"name":"리델음악학원","tel":"031-613-0809","addr":"경기도 화성시 능동 1113-5번지 우리프라자 5층","category":"학원 - 예·체능계학원"},{"name":"명랑핫도그동탄능동점","tel":"031-8015-1677","addr":"경기도 화성시 능동 1113-5번지 우리프라자 104호","category":"일반휴게음식 - 일반한식"},{"name":"무지개음악학원","tel":"031-613-2629","addr":"경기도 화성시 능동 1113-5번지 우리프라자 401호","category":"학원 - 보습학원"},{"name":"스마트치과","tel":"031-613-0166","addr":"경기도 화성시 능동 1113-5번지 우리프라자 402호","category":"의원 - 치과의원"},{"name":"오동족발.보쌈","tel":"031-613-9903","addr":"경기도 화성시 능동 1113-5번지 우리프라자 107,108,109호","category":"일반휴게음식 - 일반한식"},{"name":"오렌즈동탄점","tel":"031-8003-4197","addr":"경기도 화성시 능동 1113-5번지 우리프라자 105호","category":"보건위생 - 안경"},{"name":"우노캔들 (unocandle)","tel":"031-000-0000","addr":"경기도 화성시 능동 1113-5번지 우리프라자 3동 106호","category":"문화.취미 - 문화취미기타"},{"name":"위드뮤직실용음악학원","tel":"031-8003-6637","addr":"경기도 화성시 능동 1113-5번지 우리프라자 204호","category":"회원제형태 - 학원"},{"name":"정성한줄","tel":"031-613-6556","addr":"경기도 화성시 능동 1113-5번지 우리프라자 102호","category":"일반휴게음식 - 일반한식"},{"name":"카페사파리","tel":"031-613-0112","addr":"경기도 화성시 능동 1113-5번지 우리프라자 201호","category":"일반휴게음식 - 서양음식"},{"name":"코코호도동탄능동점","tel":"031-8015-0592","addr":"경기도 화성시 능동 1113-5번지 우리프라자 103호","category":"음료식품 - 제과점"}]},{"lat":"37.213887451","long":"127.06210712","items":[{"name":"그란젠(granzen)","tel":"031-613-0048","addr":"경기도 화성시 능동 1073-5번지 1층","category":"자동차정비 유지 - 카인테리어"}]},{"lat":"37.209720373","long":"127.05175102","items":[{"name":"그래비티","tel":"","addr":"경기도 화성시 능동 534-8번지 2동 1,2층","category":"일반휴게음식 - 서양음식"},{"name":"엠투 오피스 동탄화방점","tel":"031-326-0980","addr":"경기도 화성시 능동 534-8번지 1,2층","category":"서적문구 - 문구용품"}]},{"lat":"37.21502321","long":"127.06119545","items":[{"name":"그레이스그래니 (grace granny)","tel":"070-286-7938","addr":"경기도 화성시 능동 1071-9번지 1층","category":"일반휴게음식 - 서양음식"},{"name":"라무통","tel":"070-4799-2230","addr":"경기도 화성시 능동 1071-9번지","category":"문화.취미 - 화원"},{"name":"쁘디데쥬네","tel":"031-374-0178","addr":"경기도 화성시 능동 1071-9번지","category":"일반휴게음식 - 서양음식"}]},{"lat":"37.208827728","long":"127.05322619","items":[{"name":"그리드(GRID)","tel":"031-8003-3246","addr":"경기도 화성시 능동 527번지","category":"자동차정비 유지 - 자동차부품"},{"name":"우리들카센타","tel":"031-265-9969","addr":"경기도 화성시 능동 527번지","category":"자동차정비 유지 - 자동차정비"}]},{"lat":"37.199943677","long":"127.052781","items":[{"name":"글로벌키탑","tel":"031-613-6464","addr":"경기도 화성시 능동 1146-6번지 101호","category":"건축자재 - 목재·석재·철물"},{"name":"꿈꾸는솜사탕","tel":"031-8003-8182","addr":"경기도 화성시 능동 1146-6번지 201호","category":"용역 서비스 - 종합용역"}]},{"lat":"37.217241609","long":"127.05731023","items":[{"name":"금강차유리","tel":"031-285-9506","addr":"경기도 화성시 능동 1091-12번지 102호","category":"자동차정비 유지 - 자동차부품"},{"name":"제이오토글라스","tel":"031-613-9101","addr":"경기도 화성시 능동 1091-12번지 101호","category":"자동차정비 유지 - 자동차부품"},{"name":"지투멀티샵","tel":"031-366-3955","addr":"경기도 화성시 능동 1091-12번지 1층","category":"자동차정비 유지 - 자동차부품"}]},{"lat":"37.202520423","long":"127.05331211","items":[{"name":"금강토탈인테리어","tel":"031-226-3630","addr":"경기도 화성시 능동 1143-10번지 1층 101호","category":"건축자재 - 인테리어전문"}]},{"lat":"37.217079536","long":"127.05706225","items":[{"name":"기린통상","tel":"070-8777-7890","addr":"경기도 화성시 능동 1095-5번지 1층 101호","category":"보건위생 - 미용재료"}]},{"lat":"37.214161088","long":"127.05503229","items":[{"name":"김가네대패삼겹살","tel":"031-613-7328","addr":"경기도 화성시 능동 1103-9번지 1층","category":"일반휴게음식 - 일반한식"},{"name":"훌랄라카페앤천족","tel":"031-613-7338","addr":"경기도 화성시 능동 1103-9번지","category":"일반휴게음식 - 일반한식"}]},{"lat":"37.210745463","long":"127.05658458","items":[{"name":"꾸메뜨락 직화쭈꾸미","tel":"031-222-3244","addr":"경기도 화성시 능동 452-3번지 102호","category":"일반휴게음식 - 일반한식"}]},{"lat":"37.197331169","long":"127.05156282","items":[{"name":"꾸아도 케이크","tel":"","addr":"경기도 화성시 능동 1163-5번지 1층 일부호","category":"일반휴게음식 - 서양음식"},{"name":"봉수아피자 동탄1호점","tel":"031-8015-5904","addr":"경기도 화성시 능동 1163-5번지 1층 일부호","category":"일반휴게음식 - 서양음식"}]},{"lat":"37.216773475","long":"127.05641985","items":[{"name":"꿈모리어린이집[아이행복]","tel":"031-613-1835","addr":"경기도 화성시 능동 1096-19번지","category":"학원 - 유아원"}]},{"lat":"37.215773452","long":"127.05613749","items":[{"name":"나눔로또신동탄점","tel":"031-8015-0645","addr":"경기도 화성시 능동 1098-8번지 1층","category":"유통업 영리 - 편 의 점"}]},{"lat":"37.201721078","long":"127.04683469","items":[{"name":"나도기획","tel":"070-8243-2860","addr":"경기도 화성시 능동 1283번지 서동탄역파크자이2차 204동 1303호","category":"용역 서비스 - 종합용역"},{"name":"청담","tel":"","addr":"경기도 화성시 능동 1283번지 서동탄파크자이2차 201동 2003호","category":"보건위생 - 화장품"},{"name":"파크자이어린이집[아이행복]","tel":"031-239-1113","addr":"경기도 화성시 능동 1283번지 서동탄역파크자이2차 관리동","category":"학원 - 유아원"}]},{"lat":"37.220637436","long":"127.05961113","items":[{"name":"나루마루","tel":"031-8003-6166","addr":"경기도 화성시 능동 1052-1번지 104호","category":"건축자재 - 인테리어전문"},{"name":"모던스토리","tel":"031-613-1139","addr":"경기도 화성시 능동 1052-1번지 1층 101호 ,102,103호","category":"가구 - 일반가구"},{"name":"주식회사 신생활조이타워","tel":"02-352-3093","addr":"경기도 화성시 능동 1052-1번지 3층","category":"자동차정비 유지 - 주차장"}]},{"lat":"37.202277133","long":"127.05333448","items":[{"name":"나무엔","tel":"070-8887-1741","addr":"경기도 화성시 능동 1143-12번지","category":"문화.취미 - 문화취미기타"},{"name":"단대아동발달연구소","tel":"031-8015-2312","addr":"경기도 화성시 능동 1143-12번지 3층","category":"학원 - 기타 교육기관"}]},{"lat":"37.199105782","long":"127.05261149","items":[{"name":"나보다정형외과의원","tel":"031-8055-7818","addr":"경기도 화성시 능동 1154-8번지","category":"의원 - 의원"},{"name":"롯데리아 서동탄역점","tel":"031-613-4874","addr":"경기도 화성시 능동 1154-8번지 101호","category":"일반휴게음식 - 서양음식"}]},{"lat":"37.2096029","long":"127.05256205","items":[{"name":"나인유치원[아이행복]","tel":"031-226-1200","addr":"경기도 화성시 능동 528-8","category":"학원 - 유치원"}]},{"lat":"37.198663463","long":"127.0545035","items":[{"name":"남광조명","tel":"031-613-7513","addr":"경기도 화성시 능동 1153-11번지 1층 103호","category":"건축자재 - 조명기구"},{"name":"잉크와컴퓨터","tel":"031-613-9782","addr":"경기도 화성시 능동 1153-11번지 1층","category":"사무통신 - 컴퓨터"},{"name":"킴스윈드","tel":"","addr":"경기도 화성시 능동 1153-11번지 101호","category":"수리서비스 - 기타수리서비스"}]},{"lat":"37.199744159","long":"127.05575452","items":[{"name":"남명학원","tel":"031-8050-6794","addr":"경기도 화성시 능동 1152-7번지 정문빌딩 5층","category":"학원 - 보습학원"},{"name":"동탄푸르넷학원","tel":"031-8003-0396","addr":"경기도 화성시 능동 1152-7번지 정문빌딩 601호","category":"학원 - 보습학원"},{"name":"매스티안학원","tel":"031-8015-4139","addr":"경기도 화성시 능동 1152-7번지 정문빌딩 602호","category":"회원제형태 - 학원"},{"name":"박가네김밥","tel":"031-8015-1544","addr":"경기도 화성시 능동 1152-7번지 정문빌딩 107호","category":"일반휴게음식 - 스넥"},{"name":"알고리즘학원","tel":"031-355-1125","addr":"경기도 화성시 능동 1152-7 4층2호,3호","category":"학원 - 보습학원"},{"name":"용인대 백호 태권도장","tel":"031-613-2773","addr":"경기도 화성시 능동 1152-7번지 정문빌딩 7층 701,702호","category":"학원 - 예·체능계학원"},{"name":"제노헤어","tel":"031-8015-3346","addr":"경기도 화성시 능동 1152-7번지 101,102호","category":"보건위생 - 미용원"},{"name":"주니버스 동탄점","tel":"031-613-6099","addr":"경기도 화성시 능동 1152-7번지 정문빌딩 303호","category":"서적문구 - 완구점"},{"name":"커피데이","tel":"031-1111-1111","addr":"경기도 화성시 능동 1152-7번지 정문빌딩 1층 103호","category":"일반휴게음식 - 서양음식"},{"name":"크린토피아 동탄푸른마을점","tel":"031-613-2483","addr":"경기도 화성시 능동 1152-7번지 정문빌딩 105호","category":"수리서비스 - 세탁소"},{"name":"푸른오투독서실","tel":"031-613-1770","addr":"경기도 화성시 능동 1152-7번지 정문빌딩2층2,3,4호","category":"학원 - 독서실"},{"name":"프라하음악학원","tel":"031-613-0205","addr":"경기도 화성시 능동 1152-7번지 정문빌딩 702호","category":"학원 - 예·체능계학원"},{"name":"훌랄라능동1점","tel":"031-613-9530","addr":"경기도 화성시 능동 1152-7번지","category":"일반휴게음식 - 스넥"}]},{"lat":"37.198889165","long":"127.05347865","items":[{"name":"남원추어탕","tel":"031-8003-1231","addr":"경기도 화성시 능동 1153-4번지","category":"일반휴게음식 - 일반한식"}]},{"lat":"37.201078848","long":"127.0531084","items":[{"name":"네네치킨 동탄3호점","tel":"031-8015-4479","addr":"경기도 화성시 능동 1145-2번지","category":"일반휴게음식 - 스넥"},{"name":"한그루 소아과 이비인후과 연합의원","tel":"070-4197-4321","addr":"경기도 화성시 능동 1145-2번지 1층 102,103호","category":"의원 - 의원"},{"name":"한그루연합의원건식","tel":"070-4197-4321","addr":"경기도 화성시 능동 1145-2번지 1층 102,103호","category":"건강식품 - 기타건강식품"}]},{"lat":"37.215025576","long":"127.05617076","items":[{"name":"네일또아","tel":"031-8015-3100","addr":"경기도 화성시 능동 1104-3번지 102호","category":"보건위생 - 화장품"},{"name":"미래중고컴퓨터","tel":"070-7722-7533","addr":"경기도 화성시 능동 1104-3번지 1층 102호","category":"사무통신 - 컴퓨터"},{"name":"중앙건재상사","tel":"031-375-0136","addr":"경기도 화성시 능동 1104-3번지 103호","category":"건축자재 - 목재·석재·철물"},{"name":"프롬디","tel":"031-8015-2926","addr":"경기도 화성시 능동 1104-3번지 101호","category":"용역 서비스 - 사무서비스"}]},{"lat":"37.197745923","long":"127.05088727","items":[{"name":"노비타 경기남부점","tel":"031-8003-1307","addr":"경기도 화성시 능동 1171-1번지 101호","category":"전기제품 - 기타전기제품"}]},{"lat":"37.202743232","long":"127.05877545","items":[{"name":"누리마루어린이집[아이행복]","tel":"070-8288-7888","addr":"경기도 화성시 능동 1134번지 푸른마을포스코더샵2차 902동 104호","category":"학원 - 유아원"},{"name":"늘푸른공예","tel":"","addr":"경기도 화성시 능동 1134번지 푸른마을포스코더샵2차 902동 1304호","category":"문화.취미 - 문화취미기타"}]},{"lat":"37.215386117","long":"127.05588936","items":[{"name":"능동셀프세차장","tel":"031-8003-0776","addr":"경기도 화성시 능동 1099번지 B동 1층","category":"자동차정비 유지 - 세차장"},{"name":"육판서","tel":"031-613-6788","addr":"경기도 화성시 능동 1099번지 A동 1층","category":"일반휴게음식 - 일반한식"}]},{"lat":"37.213438076","long":"127.05977473","items":[{"name":"능동어린이집[아이행복]","tel":"031-613-5396","addr":"경기도 화성시 능동 1084번지","category":"학원 - 유아원"}]},{"lat":"37.215692308","long":"127.05625009","items":[{"name":"능동자동차","tel":"031-8015-2965","addr":"경기도 화성시 능동 1098-7번지","category":"자동차정비 유지 - 자동차정비"}]},{"lat":"37.216582448","long":"127.06028408","items":[{"name":"능동점헤어샵","tel":"031-8003-9363","addr":"경기도 화성시 능동 1062번지 주공 상가 103호","category":"보건위생 - 미용원"},{"name":"수원가마솥통닭","tel":"031-8003-0799","addr":"경기도 화성시 능동 1062 능동마을상가 101","category":"일반휴게음식 - 스넥"}]},{"lat":"37.211968679","long":"127.0612269","items":[{"name":"능동중학교","tel":"031-8003-7843","addr":"경기도 화성시 능동 1082번지 능동중학교","category":"학원 - 초중고교육기관"}]},{"lat":"37.213051118","long":"127.05874925","items":[{"name":"능동초등학교[아이행복]","tel":"031-613-4207","addr":"경기도 화성시 능동 1085번지 능동초등학교","category":"학원 - 유치원"}]},{"lat":"37.211971608","long":"127.05494066","items":[{"name":"능동포차","tel":"031-223-3457","addr":"경기도 화성시 능동 464-2번지 1층","category":"일반휴게음식 - 주점"}]},{"lat":"37.214825037","long":"127.06108264","items":[{"name":"능동한빛어린이집[아이행복]","tel":"031-8003-5286","addr":"경기도 화성시 능동 1072-2번지","category":"학원 - 유아원"}]},{"lat":"37.199856454","long":"127.04539184","items":[{"name":"능리식당","tel":"031-235-5233","addr":"경기도 화성시 능동 677-25번지 외1필지 B동","category":"일반휴게음식 - 일반한식"}]},{"lat":"37.217439451","long":"127.05814409","items":[{"name":"닛시 필라테스","tel":"031-000-0000","addr":"경기도 화성시 능동 1066-7번지 오투메종72 오피스텔 205호","category":"레저업소 - 헬스클럽"},{"name":"똘똘이 꼬마김밥","tel":"02-1577-0000","addr":"경기도 화성시 능동 1066-7번지 1층 104호","category":"일반휴게음식 - 스넥"}]},{"lat":"37.217412883","long":"127.05714136","items":[{"name":"다올","tel":"031-613-4210","addr":"경기도 화성시 능동 1091-10번지 1층","category":"용역 서비스 - 종합용역"},{"name":"숲속별어린이집[아이행복]","tel":"031-8003-1112","addr":"경기도 화성시 능동 1091-10번지","category":"학원 - 유아원"}]},{"lat":"37.199251078","long":"127.04984069","items":[{"name":"다인기획","tel":"031-252-8600","addr":"경기도 화성시 능동 1040 우남드림밸리2차 202/906","category":"회원제형태 - 기타4"},{"name":"여우별해어","tel":"031-222-2006","addr":"경기도 화성시 능동 1040번지 송골마을우남드림밸리2차 상가동 202호","category":"보건위생 - 미용원"},{"name":"청화루","tel":"031-226-6464","addr":"경기도 화성시 능동 1040번지 송골마을우남드림밸리 상가 202호","category":"일반휴게음식 - 중국식"},{"name":"컴네트119","tel":"031-225-0249","addr":"경기도 화성시 능동 1040번지 우남퍼스트빌2차단지 상가 106호","category":"사무통신 - 컴퓨터"}]},{"lat":"37.199856778","long":"127.04447946","items":[{"name":"닥터프로코리아","tel":"070-7011-5882","addr":"경기도 화성시 능동 692-1번지","category":"레져용품 - 스포츠·레져용품"}]},{"lat":"37.199802628","long":"127.04472724","items":[{"name":"단(da:n)","tel":"070-4215-1708","addr":"경기도 화성시 능동 691-4번지","category":"의류 - 정장"},{"name":"씨앗책방 (아이서적)","tel":"","addr":"경기도 화성시 능동 691-4번지 1층 3호","category":"서적문구 - 일반서적"}]},{"lat":"37.214915019","long":"127.06133056","items":[{"name":"달콤상점","tel":"031-613-2229","addr":"경기도 화성시 능동 1071-8번지 1층 일부호","category":"음료식품 - 기타음료식품"},{"name":"지나케이크","tel":"031-221-4223","addr":"경기도 화성시 능동 1071-8번지 1층","category":"일반휴게음식 - 서양음식"}]},{"lat":"37.214386579","long":"127.05450294","items":[{"name":"담을","tel":"031-613-3982","addr":"경기도 화성시 능동 1103-13번지","category":"문화.취미 - 민예·공예품"}]},{"lat":"37.1989099","long":"127.04666411","items":[{"name":"대명기업","tel":"031-222-8532","addr":"경기도 화성시 능동 668-5번지","category":"용역 서비스 - 종합용역"}]},{"lat":"37.200802908","long":"127.04436734","items":[{"name":"대영오토","tel":"031-234-7298","addr":"경기도 화성시 능동 704-1번지","category":"자동차정비 유지 - 자동차정비"}]},{"lat":"37.217051799","long":"127.0585832","items":[{"name":"대우(  )도","tel":"031-8003-1150","addr":"경기도 화성시 능동 1066-5번지 포레스트프라자 201~202호","category":"일반휴게음식 - 일반한식"},{"name":"샘당구장","tel":"031-000-0000","addr":"경기도 화성시 능동 1066-5번지 동탄포레스트프라자 302~304호","category":"레저업소 - 당 구 장"},{"name":"아이뷰 안경 콘택트","tel":"031-8015-0510","addr":"경기도 화성시 능동 1066-5번지 동탄포레스트프라자","category":"보건위생 - 안경"},{"name":"유진약국","tel":"031-613-9956","addr":"경기도 화성시 능동 1066-5번지 동탄포레스트프라자 103호","category":"약국 - 약국"},{"name":"제이엠시태권줄넘기","tel":"070-5031-0327","addr":"경기도 화성시 능동 1066-5번지 동탄포레스트프라자 204호","category":"학원 - 예·체능계학원"},{"name":"프리월 클라이밍짐","tel":"031-8043-0382","addr":"경기도 화성시 능동 1066-5번지 동탄포레스트프라자 7동 701호,702호","category":"레저업소 - 기타레져업소"},{"name":"화성전자담배다니엘","tel":"031-613-7648","addr":"경기도 화성시 능동 1066-5번지 동탄포레스트프라자 105호","category":"기타 - 기타 전문점"}]},{"lat":"37.216079652","long":"127.05647569","items":[{"name":"대우미트","tel":"031-8003-2785","addr":"경기도 화성시 능동 1097-8번지 1층","category":"음료식품 - 정육점"}]},{"lat":"37.217746635","long":"127.05633041","items":[{"name":"대웅기업","tel":"031-8015-2916","addr":"경기도 화성시 능동 1094-1번지 1층","category":"가구 - 일반가구"}]},{"lat":"37.198798945","long":"127.05374892","items":[{"name":"대원카","tel":"031-205-0946","addr":"경기도 화성시 능동 1153-6번지","category":"자동차정비 유지 - 자동차정비"}]},{"lat":"37.215602154","long":"127.05636269","items":[{"name":"더랩핑","tel":"070-5055-3434","addr":"경기도 화성시 능동 1098-6번지","category":"자동차정비 유지 - 자동차부품"}]},{"lat":"37.21618751","long":"127.05706162","items":[{"name":"더틴트본점","tel":"070-4645-8468","addr":"경기도 화성시 능동 1096-13번지 1층","category":"자동차정비 유지 - 카인테리어"},{"name":"솔라가드 에이치큐","tel":"031-1600-7530","addr":"경기도 화성시 능동 1096-13번지 1층","category":"자동차정비 유지 - 카인테리어"},{"name":"솔라가드 프리미엄 화성동탄점","tel":"031-744-6342","addr":"경기도 화성시 능동 1096-13번지","category":"자동차정비 유지 - 자동차부품"}]},{"lat":"37.216691899","long":"127.05747883","items":[{"name":"더퍼스트피플(THE 1ST PEOPLE)","tel":"031-292-6938","addr":"경기도 화성시 능동 1095-10번지 1층상가","category":"용역 서비스 - 종합용역"},{"name":"커피에반하다 능동2호점","tel":"070-5089-3725","addr":"경기도 화성시 능동 1095-10번지 1층","category":"일반휴게음식 - 서양음식"}]},{"lat":"37.214269152","long":"127.05516755","items":[{"name":"더한상푸드","tel":"031-221-2255","addr":"경기도 화성시 능동 1103-8번지","category":"음료식품 - 정육점"}]},{"lat":"37.214412673","long":"127.05660971","items":[{"name":"도담도담","tel":"031-8003-6363","addr":"경기도 화성시 능동 1088번지","category":"일반휴게음식 - 일반한식"},{"name":"드롭탑 화성능동점","tel":"031-613-9665","addr":"경기도 화성시 능동 1088번지","category":"일반휴게음식 - 서양음식"},{"name":"송종국스포츠센터","tel":"031-613-0027","addr":"경기도 화성시 능동 1088번지 모닝프라자 4층","category":"레저업소 - 헬스클럽"},{"name":"송종국스포츠센터","tel":"031-613-0027","addr":"경기도 화성시 능동 1088번지 모닝프라자 4층","category":"레저업소 - 헬스클럽"},{"name":"송종국스포츠센터","tel":"031-613-0027","addr":"경기도 화성시 능동 1088번지 모닝프라자 4층","category":"학원 - 예·체능계학원"},{"name":"주식회사 엠앤엠","tel":"031-613-0090","addr":"경기도 화성시 능동 1088번지","category":"유통업 영리 - 슈퍼마켓"}]},{"lat":"37.214828423","long":"127.05372588","items":[{"name":"도담펫","tel":"","addr":"경기도 화성시 능동 1100-12번지 102호","category":"문화.취미 - 애완동물"},{"name":"디유(Du)웨딩스튜디오","tel":"031-8003-2860","addr":"경기도 화성시 능동 1100-12번지 ,2,3층","category":"광학제품 - 사진관"},{"name":"펫마트 동탄점","tel":"02-2662-5755","addr":"경기도 화성시 능동 1100-12번지","category":"문화.취미 - 애완동물"}]},{"lat":"37.199025021","long":"127.05181171","items":[{"name":"동서에프앤씨","tel":"070-4189-4278","addr":"경기도 화성시 능동 1156-2번지 1층","category":"기타 - 기계공구"},{"name":"케이트우드","tel":"031-000-0000","addr":"경기도 화성시 능동 1156-2번지 1층","category":"문화.취미 - 문화취미기타"}]},{"lat":"37.214494337","long":"127.0553367","items":[{"name":"동신자동차","tel":"","addr":"경기도 화성시 능동 1102-7번지 1층","category":"자동차정비 유지 - 자동차정비"}]},{"lat":"37.200079769","long":"127.05050578","items":[{"name":"동우농축산물유통센터","tel":"031-235-1394","addr":"경기도 화성시 능동 640-1번지 1,2층","category":"음료식품 - 정육점"}]},{"lat":"37.200051976","long":"127.0523643","items":[{"name":"동탄 능동골","tel":"031-613-9599","addr":"경기도 화성시 능동 1147-5번지 1층","category":"일반휴게음식 - 일반한식"}]},{"lat":"37.200159902","long":"127.05283746","items":[{"name":"동탄MTB클럽","tel":"031-8015-0037","addr":"경기도 화성시 능동 1146-4번지","category":"레져용품 - 스포츠·레져용품"}]},{"lat":"37.212106724","long":"127.05503087","items":[{"name":"동탄감자탕","tel":"031-224-7001","addr":"경기도 화성시 능동 467-5번지 1,2층","category":"일반휴게음식 - 일반한식"}]},{"lat":"37.199444829","long":"127.06003456","items":[{"name":"동탄골프","tel":"031-8015-1872","addr":"경기도 화성시 능동 988번지","category":"레져용품 - 골프용품 전문점"}]},{"lat":"37.198940742","long":"127.05899792","items":[{"name":"동탄나비","tel":"031-8003-4464","addr":"경기도 화성시 능동 986번지","category":"자동차정비 유지 - 자동차부품"},{"name":"흙표 흙침대 동탄대리점","tel":"031-8003-7584","addr":"경기도 화성시 능동 986번지","category":"가구 - 일반가구"}]},{"lat":"37.198301106","long":"127.05878343","items":[{"name":"동탄셀프세차장","tel":"031-8003-7338","addr":"경기도 화성시 능동 993번지","category":"자동차정비 유지 - 세차장"}]},{"lat":"37.214157689","long":"127.06225379","items":[{"name":"동탄손세차타운","tel":"031-111-1111","addr":"경기도 화성시 능동 1074-4번지","category":"자동차정비 유지 - 세차장"}]},{"lat":"37.209052963","long":"127.05328266","items":[{"name":"동탄신도시능동주유소/편의점","tel":"031-224-5189","addr":"경기도 화성시 능동 508-3번지","category":"유통업 영리 - 편 의 점"}]},{"lat":"37.208692937","long":"127.05235868","items":[{"name":"동탄이화어학원","tel":"031-234-7979","addr":"경기도 화성시 능동 540-5번지 1,2,3층","category":"회원제형태 - 학원"},{"name":"동탄이화유치원","tel":"031-231-7979","addr":"경기도 화성시 능동 540-5번지","category":"학원 - 유치원"}]},{"lat":"37.20893625","long":"127.05227998","items":[{"name":"동탄이화유치원[아이행복]","tel":"031-234-7979","addr":"경기도 화성시 능동 539번지","category":"학원 - 유치원"}]},{"lat":"37.218188178","long":"127.05625185","items":[{"name":"동탄인테리어","tel":"031-613-0482","addr":"경기도 화성시 능동 1091-1번지 101,102호","category":"건축자재 - 인테리어전문"},{"name":"동탄코맥스","tel":"031-360-0011","addr":"경기도 화성시 능동 1091-1번지 101호","category":"전기제품 - 기타전기제품"},{"name":"클럽 토바코","tel":"031-613-4088","addr":"경기도 화성시 능동 1091-1번지 102호","category":"음료식품 - 기타음료식품"}]},{"lat":"37.21513365","long":"127.0562835","items":[{"name":"동탄전기조명","tel":"031-8050-8059","addr":"경기도 화성시 능동 1104-2번지","category":"건축자재 - 조명기구"},{"name":"동탄전기조명","tel":"031-8050-8059","addr":"경기도 화성시 능동 1104-2번지","category":"건축자재 - 조명기구"}]},{"lat":"37.213220287","long":"127.06289521","items":[{"name":"동탄점 기아오토큐","tel":"031-8003-8575","addr":"경기도 화성시 능동 1080-4번지 외 1필지","category":"자동차정비 유지 - 자동차정비"}]},{"lat":"37.198914244","long":"127.05786026","items":[{"name":"동탄푸른어린이집[아이행복]","tel":"031-8015-1333","addr":"경기도 화성시 능동 977-3번지","category":"학원 - 유아원"}]},{"lat":"37.200500203","long":"127.05757981","items":[{"name":"동탄한우명가정육점","tel":"031-8003-4313","addr":"경기도 화성시 능동 1151 모아미래도상가B동102호","category":"음료식품 - 정육점"},{"name":"바리깡","tel":"031-613-9382","addr":"경기도 화성시 능동 1151 (동탄푸른마을모아미래도상가비동104호)","category":"보건위생 - 미용원"},{"name":"한사람을위한스타일(한스헤어)","tel":"031-8003-6783","addr":"경기도 화성시 능동 1151 동탄푸른마을모아미래도A-104","category":"보건위생 - 미용원"}]},{"lat":"37.201995932","long":"127.05756963","items":[{"name":"동화마을어린이집[아이행복]","tel":"031-8003-9910","addr":"경기도 화성시 능동 1134번지 푸른마을포스코더샵2차 910동 101호","category":"학원 - 유아원"},{"name":"반올림어린이집[아이행복]","tel":"031-8003-5088","addr":"경기도 화성시 능동 1134번지 푸른마을포스코더샵2차 910동 102호","category":"학원 - 유아원"},{"name":"아가세상어린이집[아이행복]","tel":"031-8058-7933","addr":"경기도 화성시 능동 1134번지 푸른마을포스코더샵2차 910동 103호","category":"학원 - 유아원"}]},{"lat":"37.213219978","long":"127.06350357","items":[{"name":"두부애","tel":"031-613-3375","addr":"경기도 화성시 능동 1079-2번지 1층","category":"일반휴게음식 - 일반한식"}]},{"lat":"37.197610515","long":"127.05150668","items":[{"name":"뒤풀이","tel":"031-8003-1440","addr":"경기도 화성시 능동 1164-11번지","category":"일반휴게음식 - 일반한식"}]},{"lat":"37.204331805","long":"127.05261492","items":[{"name":"등불조명","tel":"031-000-0000","addr":"경기도 화성시 능동 1138-4번지 1층","category":"건축자재 - 조명기구"},{"name":"등불조명","tel":"031-8015-1569","addr":"경기도 화성시 능동 1138-4번지","category":"건축자재 - 조명기구"}]},{"lat":"37.217331754","long":"127.05722017","items":[{"name":"디 게라지","tel":"","addr":"경기도 화성시 능동 1091-11번지","category":"자동차정비 유지 - 카인테리어"}]},{"lat":"37.213580536","long":"127.06322221","items":[{"name":"디자인 그루","tel":"031-8015-0182","addr":"경기도 화성시 능동 1078-3번지 101호","category":"용역 서비스 - 사무서비스"}]},{"lat":"37.20971651","long":"127.06035773","items":[{"name":"디저트39 동탄능동점","tel":"031-613-3954","addr":"경기도 화성시 능동 1113-4번지","category":"일반휴게음식 - 일반한식"},{"name":"라보떼","tel":"031-613-4119","addr":"경기도 화성시 능동 1113-4번지 105호","category":"보건위생 - 피부미용실"},{"name":"리플라워","tel":"031-8015-2820","addr":"경기도 화성시 능동 1113-4번지 더드림시티오피스텔 108호","category":"문화.취미 - 화원"},{"name":"메가엠지씨커피 동탄능동점","tel":"031-8003-7730","addr":"경기도 화성시 능동 1113-4번지 1층 102호","category":"일반휴게음식 - 서양음식"},{"name":"소리샘","tel":"02-1111-1111","addr":"경기도 화성시 능동 1113-4번지 4층 1호","category":"학원 - 기타 교육기관"},{"name":"슈슈메이크업","tel":"","addr":"경기도 화성시 능동 1113-4번지 107호","category":"보건위생 - 미용원"},{"name":"유앤아이(uni)","tel":"070-7796-5196","addr":"경기도 화성시 능동 1113-4번지 103호","category":"의류 - 내의판매"},{"name":"커피베이능동은행사거리점","tel":"031-613-7751","addr":"경기도 화성시 능동 1113-4번지 104호","category":"일반휴게음식 - 서양음식"}]},{"lat":"37.217629546","long":"127.05622893","items":[{"name":"딜리셔스브라더","tel":"031-613-3362","addr":"경기도 화성시 능동 1094-7번지 1층 일부호","category":"일반휴게음식 - 일반한식"},{"name":"예스플랜 우주상패트로피 송월타올백화점","tel":"031-293-0088","addr":"경기도 화성시 능동 1094-7번지 102호","category":"직물 - 기타직물"}]},{"lat":"37.211467521","long":"127.05380248","items":[{"name":"따식이네포차","tel":"","addr":"경기도 화성시 능동 473번지 1층","category":"일반휴게음식 - 일반한식"}]},{"lat":"37.21841206","long":"127.0592264","items":[{"name":"뚱보집","tel":"070-7543-8892","addr":"경기도 화성시 능동 1064-1번지 오디세이 더 테라스뷰 지1층 B04호","category":"일반휴게음식 - 일반한식"},{"name":"시몬일식스시","tel":"","addr":"경기도 화성시 능동 1064-1번지 105호","category":"일반휴게음식 - 일식·회집"},{"name":"한우의힘","tel":"031-377-1074","addr":"경기도 화성시 능동 1064-1번지 오디세이더테라스뷰 지1층층 B01호","category":"일반휴게음식 - 일반한식"}]},{"lat":"37.197610287","long":"127.05205859","items":[{"name":"뚱이헤어샵","tel":"031-376-4290","addr":"경기도 화성시 능동 1162-9번지 1층일부","category":"보건위생 - 미용원"},{"name":"비피트렌드","tel":"031-375-9432","addr":"경기도 화성시 능동 1162-9번지 1층","category":"신변잡화 - 기타잡화"},{"name":"회쳐모여","tel":"031-613-4290","addr":"경기도 화성시 능동 1162-9번지 1층","category":"일반휴게음식 - 일반한식"},{"name":"휴디자인","tel":"031-8015-4423","addr":"경기도 화성시 능동 1162-9번지","category":"용역 서비스 - 종합용역"}]},{"lat":"37.215719227","long":"127.05649797","items":[{"name":"라보떼인테리어디자인","tel":"070-7532-7677","addr":"경기도 화성시 능동 1098-5번지 1층","category":"건축자재 - 인테리어전문"}]},{"lat":"37.202853855","long":"127.05319969","items":[{"name":"라오니피자","tel":"031-613-7877","addr":"경기도 화성시 능동 1143-7번지 101호","category":"일반휴게음식 - 서양음식"},{"name":"지아(zia)인테리어","tel":"031-8003-3169","addr":"경기도 화성시 능동 1143-7번지 1층 103호 104호","category":"건축자재 - 인테리어전문"}]},{"lat":"37.20402579","long":"127.05180367","items":[{"name":"라켓마켓 (racket market)","tel":"031-8015-0657","addr":"경기도 화성시 능동 1140-5번지 101호","category":"레져용품 - 스포츠·레져용품"}]},{"lat":"37.214962681","long":"127.0557764","items":[{"name":"로그인테리어/주식회사 로그","tel":"031-8003-4539","addr":"경기도 화성시 능동 1101-5번지 101호","category":"건축자재 - 인테리어전문"}]},{"lat":"37.213134628","long":"127.05336424","items":[{"name":"로코코쇼파 동탄전시장","tel":"031-232-1366","addr":"경기도 화성시 능동 468-1번지","category":"일반휴게음식 - 서양음식"},{"name":"로코코쇼파 동탄전시장","tel":"031-232-1366","addr":"경기도 화성시 능동 468-1번지","category":"가구 - 일반가구"}]},{"lat":"37.213409224","long":"127.06344739","items":[{"name":"롤리피카Rolli FIKA","tel":"031-123-4567","addr":"경기도 화성시 능동 1079-1번지","category":"음료식품 - 기타음료식품"},{"name":"비나토즈(BEANATOZ)","tel":"070-8615-4666","addr":"경기도 화성시 능동 1079-1번지 1층 101호","category":"일반휴게음식 - 서양음식"},{"name":"스튜디오 스냅진","tel":"031-000-0000","addr":"경기도 화성시 능동 1079-1번지 101호","category":"광학제품 - 사진관"}]},{"lat":"37.206356915","long":"127.05766289","items":[{"name":"롯데쥬얼리","tel":"031-8058-5993","addr":"경기도 화성시 능동 1132번지 숲속마을모아852동2303~2303호 852동 2303호","category":"신변잡화 - 액세서리"}]},{"lat":"37.198078874","long":"127.05194626","items":[{"name":"루트어학원","tel":"031-8015-3488","addr":"경기도 화성시 능동 1164-19번지 1층","category":"회원제형태 - 학원"}]},{"lat":"37.211025563","long":"127.05483862","items":[{"name":"르레브(주)","tel":"031-222-4585","addr":"경기도 화성시 능동 458번지 1층","category":"일반휴게음식 - 서양음식"}]},{"lat":"37.215746053","long":"127.05694864","items":[{"name":"리베르호프","tel":"031-613-1544","addr":"경기도 화성시 능동 1092-8번지","category":"일반휴게음식 - 주점"}]},{"lat":"37.199743987","long":"127.05613749","items":[{"name":"리틀모차르트음악학원","tel":"031-8003-3370","addr":"경기도 화성시 능동 1152-2번지 7층 세란메디 일부","category":"학원 - 예·체능계학원"},{"name":"리틀지니학원","tel":"031-8003-3371","addr":"경기도 화성시 능동 1152-2번지 4층","category":"학원 - 외국어학원"},{"name":"매쓰루 동탄1수학전문학원","tel":"031-8003-5401","addr":"경기도 화성시 능동 1152-2번지 5층 501호 , 세란메디","category":"학원 - 보습학원"},{"name":"별텔레콤","tel":"","addr":"경기도 화성시 능동 1152-2번지 세란메디 104호","category":"사무통신 - 통신기기"},{"name":"뷰티밸런스 의원","tel":"031-376-1500","addr":"경기도 화성시 능동 1152-2번지 세란메디빌딩2층201호~204호 201호","category":"의원 - 의원"},{"name":"샤인헤어라인","tel":"070-4225-4256","addr":"경기도 화성시 능동 1152-2번지","category":"보건위생 - 미용원"},{"name":"우리들한의원","tel":"031-8015-2575","addr":"경기도 화성시 능동 1152-2번지 세란메디 302호","category":"의원 - 한의원"},{"name":"이투스앤EBY학원","tel":"031-8003-0655","addr":"경기도 화성시 능동 1152-2번지 세란메디빌딩 503,504호","category":"학원 - 보습학원"},{"name":"햇살조은약국","tel":"031-613-3037","addr":"경기도 화성시 능동 1152-2번지 세렌메디 3층 304호","category":"약국 - 약국"},{"name":"행복한 소아청소년과의원","tel":"031-8003-7542","addr":"경기도 화성시 능동 1152-2번지 세란메디빌딩 301호","category":"의원 - 의원"},{"name":"행복한치과의원","tel":"031-8003-2804","addr":"경기도 화성시 능동 1152-2번지 서건프라자 3층 303호","category":"의원 - 치과의원"}]},{"lat":"37.217106935","long":"127.05625109","items":[{"name":"마스터","tel":"070-4205-8795","addr":"경기도 화성시 능동 1096-2번지 1층","category":"자동차정비 유지 - 카인테리어"}]},{"lat":"37.216853971","long":"127.05772681","items":[{"name":"마스터칸","tel":"031-8003-6835","addr":"경기도 화성시 능동 1091-17번지 102호","category":"건축자재 - 인테리어전문"}]},{"lat":"37.208023053","long":"127.05933133","items":[{"name":"마지헤어","tel":"031-8015-3935","addr":"경기도 화성시 능동 1115번지 동탄숲속마을자연앤경남아너스빌 1층 102호","category":"보건위생 - 미용원"},{"name":"뮤엠숲속마을영어교습소","tel":"031-8015-3695","addr":"경기도 화성시 능동 1115번지 동탄숲속마을자연앤경남아너스빌 상가동 201호","category":"학원 - 외국어학원"},{"name":"반젤로2관음악학원","tel":"031-800-3683","addr":"경기도 화성시 능동 1115번지 상가동 203호,204호 (음악학원)","category":"학원 - 예·체능계학원"}]},{"lat":"37.211944142","long":"127.05592075","items":[{"name":"마포소문난족발","tel":"031-898-5155","addr":"경기도 화성시 능동 460-1번지 외3필지","category":"일반휴게음식 - 일반한식"}]},{"lat":"37.213526657","long":"127.06286165","items":[{"name":"만리장성","tel":"031-613-2228","addr":"경기도 화성시 능동 1078-6번지 1층","category":"일반휴게음식 - 중국식"}]},{"lat":"37.215241729","long":"127.05638497","items":[{"name":"망고","tel":"031-8003-5513","addr":"경기도 화성시 능동 1104-1번지 101호","category":"신변잡화 - 기타잡화"},{"name":"메이","tel":"","addr":"경기도 화성시 능동 1104-1번지 104호","category":"의류 - 정장"},{"name":"주식회사 히어로스포츠","tel":"031-613-9346","addr":"경기도 화성시 능동 1104-1번지 103호","category":"레져용품 - 골프용품 전문점"},{"name":"헤어라테","tel":"031-613-0677","addr":"경기도 화성시 능동 1104-1번지 1층","category":"보건위생 - 미용원"}]},{"lat":"37.198717658","long":"127.05419941","items":[{"name":"매직터치동탄점","tel":"031-8003-2721","addr":"경기도 화성시 능동 1153-9번지 1층","category":"자동차정비 유지 - 자동차정비"}]},{"lat":"37.213998782","long":"127.05530256","items":[{"name":"맥주와사진","tel":"031-8003-9918","addr":"경기도 화성시 능동 1104-13번지 101호, 102호","category":"일반휴게음식 - 주점"},{"name":"샵플레이","tel":"","addr":"경기도 화성시 능동 1104-13번지 103호","category":"의류 - 정장"},{"name":"엄마뽀뽀","tel":"070-4201-2244","addr":"경기도 화성시 능동 1104-13번지 103호","category":"의류 - 정장"}]},{"lat":"37.200023309","long":"127.05613769","items":[{"name":"머리못하는 집 서동탄 138호점","tel":"","addr":"경기도 화성시 능동 1152-1번지 위너스프라자 1층 111호","category":"보건위생 - 미용원"},{"name":"민트글라스 아이스크림할인점","tel":"031-481-1287","addr":"경기도 화성시 능동 1152-1번지 위너스프라자 108호","category":"음료식품 - 기타음료식품"},{"name":"이조명가떡방","tel":"031-613-5518","addr":"경기도 화성시 능동 1152-1번지 위너스프라자 101호","category":"음료식품 - 제과점"},{"name":"초록마을 동탄푸른마을점","tel":"031-8015-1964","addr":"경기도 화성시 능동 1152-1번지 위너스프라자 113호","category":"유통업 영리 - 슈퍼마켓"},{"name":"행복나눔안경원","tel":"031-613-1288","addr":"경기도 화성시 능동 1152-1번지 위너스프라자 109호,110호","category":"보건위생 - 안경"}]},{"lat":"37.217601537","long":"127.05835828","items":[{"name":"먹태&노가리","tel":"031-8015-4037","addr":"경기도 화성시 능동 1066-2번지 1층 101호","category":"일반휴게음식 - 일반한식"},{"name":"아벡테프리츠","tel":"031-225-2300","addr":"경기도 화성시 능동 1066-2번지 102호","category":"일반휴게음식 - 일반한식"},{"name":"에이맨짐","tel":"031-8015-0812","addr":"경기도 화성시 능동 1066-2번지 103호 ,103-1,104,104-1,105,105-1호","category":"레저업소 - 헬스클럽"},{"name":"플레이보이노래연습장","tel":"070-8947-4490","addr":"경기도 화성시 능동 1066-2번지 201,202호","category":"레저업소 - 노 래 방"}]},{"lat":"37.197826778","long":"127.05147303","items":[{"name":"먼데이","tel":"02-1111-1111","addr":"경기도 화성시 능동 1164-15번지","category":"음료식품 - 제과점"}]},{"lat":"37.217799227","long":"127.05949634","items":[{"name":"메리무드","tel":"031-111-1111","addr":"경기도 화성시 능동 1063-3번지 1층 104,105호","category":"일반휴게음식 - 서양음식"},{"name":"블리스인","tel":"031-8003-8322","addr":"경기도 화성시 능동 1063-3번지 지하층 B01호","category":"레저업소 - 골프연습장"}]},{"lat":"37.213770243","long":"127.06225349","items":[{"name":"메종","tel":"031-8003-8394","addr":"경기도 화성시 능동 1073-6번지 1층","category":"직물 - 침구·수예점"}]},{"lat":"37.211466354","long":"127.0564499","items":[{"name":"멸치부터고래까지","tel":"031-222-9392","addr":"경기도 화성시 능동 453-1번지 외1필지","category":"일반휴게음식 - 일반한식"}]},{"lat":"37.209359186","long":"127.05358703","items":[{"name":"명가만두전골","tel":"031-221-1827","addr":"경기도 화성시 능동 508-5번지 1층","category":"일반휴게음식 - 일반한식"},{"name":"산들미니식물원","tel":"031-222-4304","addr":"경기도 화성시 능동 508-5","category":"문화.취미 - 화원"}]},{"lat":"37.216575022","long":"127.05691543","items":[{"name":"명석카센타","tel":"031-8003-9116","addr":"경기도 화성시 능동 1096-9번지 101호","category":"자동차정비 유지 - 자동차정비"}]},{"lat":"37.197941132","long":"127.05783703","items":[{"name":"명품가구갤러리","tel":"031-8003-4921","addr":"경기도 화성시 능동 995번지","category":"가구 - 일반가구"}]},{"lat":"37.199381625","long":"127.06030484","items":[{"name":"명품세차장","tel":"031-8003-0550","addr":"경기도 화성시 능동 990번지","category":"자동차정비 유지 - 세차장"}]},{"lat":"37.214130866","long":"127.06183693","items":[{"name":"모터타이거","tel":"031-8003-2246","addr":"경기도 화성시 능동 1073-3번지 1층","category":"자동차정비 유지 - 자동차부품"}]},{"lat":"37.209521421","long":"127.05347448","items":[{"name":"몬테소리키즈에이원  동탄지사","tel":"031-222-0973","addr":"경기도 화성시 능동 528-3번지 201호","category":"서적문구 - 일반서적"},{"name":"황금 코다리","tel":"031-223-5504","addr":"경기도 화성시 능동 528-3번지 1층","category":"일반휴게음식 - 일반한식"}]},{"lat":"37.203998365","long":"127.05274987","items":[{"name":"무봉리토종순대국","tel":"031-8003-4892","addr":"경기도 화성시 능동 1138-7번지","category":"일반휴게음식 - 일반한식"}]},{"lat":"37.21721388","long":"127.05880865","items":[{"name":"무봉리토종순대국 능동점","tel":"031-613-4578","addr":"경기도 화성시 능동 1066-4번지 동탄V프라자 101호,102호,103호","category":"일반휴게음식 - 일반한식"},{"name":"야무진빵","tel":"031-613-2210","addr":"경기도 화성시 능동 1066-4번지 동탄V프라자 106호","category":"음료식품 - 제과점"},{"name":"컷&컬러","tel":"031-613-4133","addr":"경기도 화성시 능동 1066-4번지 동탄V프라자 105호","category":"보건위생 - 미용원"},{"name":"픽미픽미아이스 능동점","tel":"","addr":"경기도 화성시 능동 1066-4번지 동탄V프라자 104호","category":"음료식품 - 기타음료식품"}]},{"lat":"37.214800403","long":"127.05597908","items":[{"name":"무크헤어샵","tel":"","addr":"경기도 화성시 능동 1104-5번지 1층 일부호","category":"보건위생 - 미용원"},{"name":"자미온","tel":"031-613-8676","addr":"경기도 화성시 능동 1104-5번지 1층","category":"직물 - 침구·수예점"}]},{"lat":"37.198493478","long":"127.05164241","items":[{"name":"뮤지엄","tel":"031-000-0000","addr":"경기도 화성시 능동 1165-7번지 102호","category":"가구 - 기타가구"}]},{"lat":"37.213436678","long":"127.06261373","items":[{"name":"미똘","tel":"031-8003-1337","addr":"경기도 화성시 능동 1080-2번지 1층","category":"일반휴게음식 - 일반한식"}]},{"lat":"37.197664884","long":"127.05075206","items":[{"name":"미래시스템","tel":"031-295-2900","addr":"경기도 화성시 능동 1171-8번지 1층","category":"수리서비스 - 기타수리서비스"},{"name":"클로토","tel":"","addr":"경기도 화성시 능동 1171-8번지 2동 202호","category":"의류 - 아동의류"}]},{"lat":"37.200970732","long":"127.0530858","items":[{"name":"미르바이크","tel":"031-8015-1953","addr":"경기도 화성시 능동 1145-3번지 101호","category":"자동차판매 - 이륜차판매"},{"name":"찬","tel":"031-000-0000","addr":"경기도 화성시 능동 1145-3번지 102호","category":"일반휴게음식 - 일반한식"},{"name":"해상건축디자인","tel":"","addr":"경기도 화성시 능동 1145-3번지","category":"건축자재 - 인테리어전문"}]},{"lat":"37.202996002","long":"127.05775058","items":[{"name":"미술상자","tel":"031-000-0000","addr":"경기도 화성시 능동 1134번지 푸른마을포스코더샵2차 108호","category":"학원 - 예·체능계학원"},{"name":"백마크리닝 능동점","tel":"031-8015-8669","addr":"경기도 화성시 능동 1134번지 푸른마을포스코더샵2차 상가동 103호","category":"수리서비스 - 세탁소"},{"name":"비엔비헤어","tel":"031-8015-8096","addr":"경기도 화성시 능동 1134번지 푸른마을포스코더샵2차 상가동 1층 106호","category":"보건위생 - 미용원"},{"name":"씨유동탄포스코점","tel":"031-8003-0767","addr":"경기도 화성시 능동 1134번지 포스코APT내상가 101호","category":"유통업 영리 - 편 의 점"},{"name":"오늘밥상","tel":"","addr":"경기도 화성시 능동 1134번지 푸른마을포스코더샵2차 상가동 지1층 103-1호","category":"일반휴게음식 - 스넥"},{"name":"음악나라피아노교습소","tel":"031-8003-7776","addr":"경기도 화성시 능동 1134 푸른마을포스터코더샵2차 상가-107","category":"학원 - 예·체능계학원"},{"name":"치킨더홈(동탄점)","tel":"031-8015-0001","addr":"경기도 화성시 능동 1134번지 푸른마을포스코더샵2차 상가동110,110-1호","category":"일반휴게음식 - 스넥"}]},{"lat":"37.214106866","long":"127.05539276","items":[{"name":"미와창동탄점","tel":"031-8015-1098","addr":"경기도 화성시 능동 1104-12 / 상가제1층","category":"직물 - 카페트,커튼,천막,지물"}]},{"lat":"37.214049315","long":"127.06274941","items":[{"name":"민트비어(Mint Beer Pub)","tel":"031-8015-3559","addr":"경기도 화성시 능동 1075-1번지 101호","category":"일반휴게음식 - 주점"}]},{"lat":"37.216998396","long":"127.05716359","items":[{"name":"바늘스케치","tel":"031-8003-1151","addr":"경기도 화성시 능동 1095-6번지 1층","category":"직물 - 옷감·직물"}]},{"lat":"37.214527367","long":"127.06174711","items":[{"name":"바이크웍스","tel":"031-613-1849","addr":"경기도 화성시 능동 1074-7번지","category":"레져용품 - 스포츠·레져용품"}]},{"lat":"37.215521544","long":"127.05528108","items":[{"name":"반값소","tel":"031-613-2009","addr":"경기도 화성시 능동 1100-3번지 우영빌딩 1층 101,102,103,104호","category":"일반휴게음식 - 일반한식"},{"name":"정진선펜싱클럽","tel":"02-1577-9654","addr":"경기도 화성시 능동 1100-3번지 4층 401호","category":"학원 - 예·체능계학원"}]},{"lat":"37.20285445","long":"127.05178039","items":[{"name":"배움아이","tel":"02-1111-1111","addr":"경기도 화성시 능동 589-1번지","category":"서적문구 - 기타서적문구"}]},{"lat":"37.203025077","long":"127.05314348","items":[{"name":"베베아트어린이집[아이행복]","tel":"031-8015-5504","addr":"경기도 화성시 능동 1143-6 1층","category":"학원 - 유아원"}]},{"lat":"37.198826469","long":"127.05258878","items":[{"name":"베아띠","tel":"031-613-1307","addr":"경기도 화성시 능동 1156-8번지 103호","category":"의류 - 기타의류"}]},{"lat":"37.211214538","long":"127.05539076","items":[{"name":"벨꾸르","tel":"031-237-8260","addr":"경기도 화성시 능동 460-27번지 ,1,2층","category":"음료식품 - 제과점"}]},{"lat":"37.199388316","long":"127.04425393","items":[{"name":"병점맥가이버전자","tel":"031-225-3893","addr":"경기도 화성시 능동 677-2번지 1층","category":"전기제품 - 가전제품"}]},{"lat":"37.217799865","long":"127.05814436","items":[{"name":"보쌈당한낙지","tel":"070-8108-3369","addr":"경기도 화성시 능동 1066-1번지 아르젠오피스텔상가 106호,107호","category":"일반휴게음식 - 일반한식"},{"name":"사라헤어2","tel":"031-8003-0189","addr":"경기도 화성시 능동 1066-1번지 1층 108호","category":"보건위생 - 미용원"},{"name":"씨유화성아르젠점","tel":"031-8003-7955","addr":"경기도 화성시 능동 1066-1번지 아르젠오피스텔2차103,104호","category":"유통업 영리 - 편 의 점"},{"name":"씨유화성아르젠점","tel":"031-8003-7955","addr":"경기도 화성시 능동 1066-1번지 동탄아르젠오피스텔 1층 103호, 104호","category":"유통업 영리 - 편 의 점"},{"name":"준플라워","tel":"031-8003-5116","addr":"경기도 화성시 능동 1066-1번지 102호","category":"문화.취미 - 화원"},{"name":"호치킨","tel":"031-8003-4726","addr":"경기도 화성시 능동 1066-1번지 아르젠오피스텔 상가동 109,110호","category":"일반휴게음식 - 스넥"}]},{"lat":"37.220106178","long":"127.05886712","items":[{"name":"부킹앤조인(BOOKING&JOIN)","tel":"000-000-0000","addr":"경기도 화성시 능동 1052-4번지 이너매스골드 1006호","category":"보건위생 - 화장품"},{"name":"비타민하우스 용인,영통지사","tel":"031-321-3103","addr":"경기도 화성시 능동 1052-4번지","category":"건강식품 - 기타건강식품"},{"name":"아재불닭발 동탄점","tel":"031-8051-2221","addr":"경기도 화성시 능동 1052-4번지 이너매스골드 상가동 1층 110호","category":"일반휴게음식 - 일반한식"},{"name":"에어컨테크","tel":"031-8015-3462","addr":"경기도 화성시 능동 1052-4번지 이너매스골드 1층 108호","category":"전기제품 - 가전제품"},{"name":"한국에너텍","tel":"031-206-8234","addr":"경기도 화성시 능동 1052-4번지 114호","category":"건축자재 - 보일러·펌프·샷시"},{"name":"황금룡","tel":"031-8003-1107","addr":"경기도 화성시 능동 1052-4번지 이너매스골드 111,112호","category":"일반휴게음식 - 중국식"}]},{"lat":"37.203284967","long":"127.05636527","items":[{"name":"뷰티월드","tel":"031-000-0000","addr":"경기도 화성시 능동 1134번지 푸른마을포스코더샵2차 914동 603호","category":"보건위생 - 미용재료"}]},{"lat":"37.214332457","long":"127.0546381","items":[{"name":"비버어린이집[아이행복]","tel":"031-8015-8031","addr":"경기도 화성시 능동 1103-12번지 1층","category":"학원 - 유아원"}]},{"lat":"37.203746234","long":"127.05236671","items":[{"name":"비씨(BC)팩토리 (비씨 (BC)손세차)","tel":"070-4686-9412","addr":"경기도 화성시 능동 1141-6번지","category":"자동차정비 유지 - 세차장"}]},{"lat":"37.21440949","long":"127.06322287","items":[{"name":"비케이디자인","tel":"031-613-3682","addr":"경기도 화성시 능동 1077-1번지","category":"건축자재 - 인테리어전문"}]},{"lat":"37.198214632","long":"127.05047081","items":[{"name":"빈어스","tel":"031-1111-1111","addr":"경기도 화성시 능동 1168-3번지 1층","category":"가구 - 일반가구"}]},{"lat":"37.212693321","long":"127.05289078","items":[{"name":"빈티지컨테이너","tel":"031-111-1111","addr":"경기도 화성시 능동 469-1번지","category":"일반휴게음식 - 주점"}]},{"lat":"37.215302669","long":"127.06091401","items":[{"name":"빌리브헤어","tel":"031-8015-1285","addr":"경기도 화성시 능동 1070-2번지","category":"보건위생 - 미용원"}]},{"lat":"37.214022674","long":"127.06197203","items":[{"name":"쁘뽕","tel":"031-613-1183","addr":"경기도 화성시 능동 1073-4번지","category":"광학제품 - 사진관"},{"name":"쁘뽕","tel":"031-613-1183","addr":"경기도 화성시 능동 1073-4번지","category":"광학제품 - 사진관"}]},{"lat":"37.211827193","long":"127.05550384","items":[{"name":"사나래","tel":"031-222-2878","addr":"경기도 화성시 능동 460-2,3,14,16,18,25","category":"일반휴게음식 - 일반한식"}]},{"lat":"37.216601539","long":"127.05803082","items":[{"name":"사라헤어","tel":"031-223-5214","addr":"경기도 화성시 능동 1091-20번지 1층 일부호","category":"보건위생 - 미용원"}]},{"lat":"37.197825857","long":"127.05366942","items":[{"name":"사랑을보다(동탄점)","tel":"031-8015-2932","addr":"경기도 화성시 능동 1159-5번지 1층 전체","category":"광학제품 - 사진관"},{"name":"사랑을보다-Vanesse","tel":"031-8015-2932","addr":"경기도 화성시 능동 1159-5번지 1층 전체","category":"광학제품 - 사진관"}]},{"lat":"37.203385554","long":"127.05299728","items":[{"name":"삼성종합주방","tel":"031-8003-0057","addr":"경기도 화성시 능동 1143-3번지","category":"주방용구 - 주방용식기"},{"name":"흥안세라믹상사","tel":"031-613-3815","addr":"경기도 화성시 능동 1143-3번지","category":"건축자재 - 건축용 요업제품"}]},{"lat":"37.215051667","long":"127.05822122","items":[{"name":"상록 세탁소","tel":"031-613-2330","addr":"경기도 화성시 능동 1087 동탄능동마을상록예가 상가-102","category":"수리서비스 - 세탁소"},{"name":"상록할인마트","tel":"031-613-7103","addr":"경기도 화성시 능동 1087번지 능동마을상록예가 1층","category":"유통업 영리 - 슈퍼마켓"},{"name":"예가공예","tel":"031-8043-9913","addr":"경기도 화성시 능동 1087번지 동탄능동마을상록예가 745동 701호","category":"문화.취미 - 문화취미기타"},{"name":"정빈어린이집[아이행복]","tel":"031-8003-5522","addr":"경기도 화성시 능동 1087번지 동탄능동마을상록예가 관리동","category":"학원 - 유아원"}]},{"lat":"37.210664232","long":"127.05688869","items":[{"name":"생태명가코다리냉면","tel":"031-223-5800","addr":"경기도 화성시 능동 451-2번지 1층","category":"일반휴게음식 - 일반한식"}]},{"lat":"37.1980252","long":"127.05100008","items":[{"name":"샤론노블레스어린이집[아이행복]","tel":"031-8045-1348","addr":"경기도 화성시 능동 1167-5번지","category":"학원 - 유아원"}]},{"lat":"37.216025914","long":"127.05575461","items":[{"name":"샹떼PC방 화성능동점","tel":"","addr":"경기도 화성시 능동 1093-13번지 3층","category":"레저업소 - 기타레져업소"},{"name":"주식회사 데우스홀딩스","tel":"031-8015-0000","addr":"경기도 화성시 능동 1093-13번지 3층 301호","category":"회원제형태 - 학원"},{"name":"주식회사데우스홀딩스","tel":"031-8015-0000","addr":"경기도 화성시 능동 1093-13번지 3층 301호","category":"회원제형태 - 학원"},{"name":"테마스쿠버","tel":"031-242-3475","addr":"경기도 화성시 능동 1093-13번지 2층 201호","category":"레져용품 - 스포츠·레져용품"}]},{"lat":"37.197834483","long":"127.05455925","items":[{"name":"서가네갈비살","tel":"031-8003-0032","addr":"경기도 화성시 능동 805번지","category":"일반휴게음식 - 일반한식"}]},{"lat":"37.197691714","long":"127.05124767","items":[{"name":"서동탄어린이집[아이행복]","tel":"031-8015-1472","addr":"경기도 화성시 능동 1164-13번지","category":"학원 - 유아원"}]},{"lat":"37.21433205","long":"127.05556191","items":[{"name":"선진디자인","tel":"031-224-3955","addr":"경기도 화성시 능동 1104-10번지 1층","category":"가구 - 일반가구"}]},{"lat":"37.198133592","long":"127.0503356","items":[{"name":"섬웨어커피","tel":"070-4843-0525","addr":"경기도 화성시 능동 1168-4번지","category":"일반휴게음식 - 서양음식"},{"name":"킨다블루","tel":"070-4842-0525","addr":"경기도 화성시 능동 1168-4번지","category":"일반휴게음식 - 서양음식"}]},{"lat":"37.198636324","long":"127.05475128","items":[{"name":"성일철물장식","tel":"031-613-3514","addr":"경기도 화성시 능동 799-3번지","category":"건축자재 - 목재·석재·철물"}]},{"lat":"37.200330375","long":"127.05452716","items":[{"name":"세븐일레븐동탄신일해피점","tel":"031-1577-0711","addr":"경기도 화성시 능동 1150번지 상가동 101,102호","category":"유통업 영리 - 편 의 점"},{"name":"황금분식","tel":"031-8003-4666","addr":"경기도 화성시 능동 1150번지 동탄푸른마을신일해피트리 상가동 107호","category":"일반휴게음식 - 스넥"}]},{"lat":"37.197917311","long":"127.05041431","items":[{"name":"세븐일레븐서동탄점","tel":"031-1577-0711","addr":"경기도 화성시 능동 1169-5번지","category":"유통업 영리 - 편 의 점"},{"name":"아이지에이마트 서동탄점","tel":"031-768-0708","addr":"경기도 화성시 능동 1169-5번지 1층","category":"유통업 영리 - 편 의 점"}]},{"lat":"37.208909092","long":"127.05258412","items":[{"name":"세솔노래연습장","tel":"031-224-8788","addr":"경기도 화성시 능동 538번지 지하층","category":"레저업소 - 노 래 방"},{"name":"신가옥","tel":"031-222-8840","addr":"경기도 화성시 능동 538번지 1층","category":"일반휴게음식 - 일반한식"}]},{"lat":"37.20916165","long":"127.05194217","items":[{"name":"세종엠텍","tel":"031-222-7708","addr":"경기도 화성시 능동 540-3번지","category":"기타 - 기계공구"},{"name":"세종엠텍/원격지","tel":"031-222-7708","addr":"경기도 화성시 능동 540-3번지","category":"기타 - 기타 전문점"}]},{"lat":"37.198079584","long":"127.0502004","items":[{"name":"솔트힐링스파","tel":"031-8015-2040","addr":"경기도 화성시 능동 1168-5번지 102호","category":"보건위생 - 화장품"},{"name":"오케이컨츄리도너츠","tel":"031-8003-1891","addr":"경기도 화성시 능동 1168-5번지 1층 101호 일부","category":"음료식품 - 제과점"}]},{"lat":"37.198716666","long":"127.05644089","items":[{"name":"송월타월 능동점","tel":"031-8003-9494","addr":"경기도 화성시 능동 813-2번지 1층","category":"직물 - 옷감·직물"},{"name":"일인자감자탕","tel":"031-613-4299","addr":"경기도 화성시 능동 813-2번지","category":"일반휴게음식 - 일반한식"}]},{"lat":"37.210609371","long":"127.05861226","items":[{"name":"수동골장수오리 동탄점","tel":"031-233-0301","addr":"경기도 화성시 능동 444번지 1층","category":"일반휴게음식 - 일반한식"},{"name":"인평일등추어탕","tel":"031-221-2030","addr":"경기도 화성시 능동 444번지","category":"일반휴게음식 - 일반한식"}]},{"lat":"37.211133359","long":"127.05558222","items":[{"name":"수원자동차유리","tel":"031-234-5686","addr":"경기도 화성시 능동 460-29번지 2층","category":"자동차정비 유지 - 자동차부품"},{"name":"엠제이모터스","tel":"031-000-0000","addr":"경기도 화성시 능동 460-29번지","category":"자동차정비 유지 - 자동차부품"}]},{"lat":"37.1995774","long":"127.044637","items":[{"name":"수작","tel":"031-234-0004","addr":"경기도 화성시 능동 677-3번지","category":"사무통신 - 컴퓨터"}]},{"lat":"37.206286317","long":"127.05435098","items":[{"name":"숲속나라어린이집[아이행복]","tel":"031-8050-5648","addr":"경기도 화성시 능동 1131번지 자연앤데시앙 872동 101호","category":"학원 - 유아원"}]},{"lat":"37.202412289","long":"127.05333457","items":[{"name":"쉼헤어","tel":"031-8003-2583","addr":"경기도 화성시 능동 1143-11번지 103호","category":"보건위생 - 미용원"}]},{"lat":"37.216691695","long":"127.05791822","items":[{"name":"슈가디자인","tel":"031-613-0314","addr":"경기도 화성시 능동 1091-19번지 102호","category":"건축자재 - 인테리어전문"},{"name":"썬가드동탄점","tel":"031-693-3651","addr":"경기도 화성시 능동 1091-19번지","category":"자동차정비 유지 - 카인테리어"}]},{"lat":"37.214692319","long":"127.05588888","items":[{"name":"스마일카모터스","tel":"031-613-5900","addr":"경기도 화성시 능동 1104-6번지","category":"자동차정비 유지 - 자동차정비"},{"name":"신유운수","tel":"","addr":"경기도 화성시 능동 1104-6번지 301호","category":"자동차정비 유지 - 자동차정비"}]},{"lat":"37.202004364","long":"127.05880869","items":[{"name":"스타 잉글리쉬 (STAR ENGLISH)","tel":"","addr":"경기도 화성시 능동 1134번지 푸른마을포스코더샵2차 901동 304호","category":"학원 - 기타 교육기관"}]},{"lat":"37.200493405","long":"127.05255608","items":[{"name":"스팀보이앤카페 동탄점","tel":"031-8015-3733","addr":"경기도 화성시 능동 1144번지 1층","category":"자동차정비 유지 - 세차장"}]},{"lat":"37.205107138","long":"127.05155655","items":[{"name":"시립나래울어린이집[아이행복]","tel":"031-8003-6223","addr":"경기도 화성시 능동 1130번지 나래울(1,2층) 화성시 복합복지타운","category":"학원 - 유아원"},{"name":"화성시나래울종합사회복지관","tel":"031-8015-7301","addr":"경기도 화성시 능동 1130번지 1층","category":"학원 - 기타 교육기관"},{"name":"화성시나래울종합사회복지관","tel":"031-8015-7301","addr":"경기도 화성시 능동 1130번지 1층","category":"학원 - 기타 교육기관"},{"name":"화성시나래울종합사회복지관","tel":"031-8015-7301","addr":"경기도 화성시 능동 1130번지","category":"자동차정비 유지 - 주차장"},{"name":"화성시나래울종합사회복지관","tel":"031-8015-7301","addr":"경기도 화성시 능동 1130번지 1층","category":"학원 - 기타 교육기관"}]},{"lat":"37.211274853","long":"127.06128269","items":[{"name":"시립능동제5어린이집[아이행복]","tel":"031-8015-0311","addr":"경기도 화성시 능동 1081번지능동마을주공7단지관리동","category":"학원 - 유아원"}]},{"lat":"37.197861719","long":"127.0540862","items":[{"name":"시원크린","tel":"031-1522-5635","addr":"경기도 화성시 능동 802번지 103호","category":"용역 서비스 - 종합용역"},{"name":"에덴음향","tel":"031-8003-6987","addr":"경기도 화성시 능동 802번지","category":"전기제품 - 가전제품"}]},{"lat":"37.21312996","long":"127.06333451","items":[{"name":"신)아삼모사","tel":"031-1111-1111","addr":"경기도 화성시 능동 1079-6번지 1층","category":"일반휴게음식 - 일반한식"}]},{"lat":"37.204611302","long":"127.05219831","items":[{"name":"신영스포츠","tel":"031-613-8386","addr":"경기도 화성시 능동 1139-2번지 1층","category":"레져용품 - 스포츠·레져용품"}]},{"lat":"37.213413664","long":"127.05402911","items":[{"name":"신원기공","tel":"031-232-0516","addr":"경기도 화성시 능동 158-5번지","category":"기타 - 기계공구"}]},{"lat":"37.200775983","long":"127.0440632","items":[{"name":"신원브라인드","tel":"031-235-9090","addr":"경기도 화성시 능동 704-3번지","category":"직물 - 카페트,커튼,천막,지물"},{"name":"아이앤드베이비(IANDBABY)","tel":"031-234-9753","addr":"경기도 화성시 능동 704-3번지","category":"의류 - 아동의류"}]},{"lat":"37.217437976","long":"127.06121984","items":[{"name":"신형F.A","tel":"031-8015-4915","addr":"경기도 화성시 능동 1059-2번지","category":"기타 - 기계공구"}]},{"lat":"37.216962667","long":"127.05647632","items":[{"name":"씨드","tel":"031-111-1111","addr":"경기도 화성시 능동 1096-4번지 101호","category":"용역 서비스 - 종합용역"}]},{"lat":"37.213607693","long":"127.06297438","items":[{"name":"씨유화성능동원룸점","tel":"031-8003-6674","addr":"경기도 화성시 능동 1078-7번지 1층상가","category":"유통업 영리 - 편 의 점"}]},{"lat":"37.215439865","long":"127.0565879","items":[{"name":"씨유화성능동점","tel":"031-8015-1171","addr":"경기도 화성시 능동 1092-11번지 102호","category":"유통업 영리 - 편 의 점"}]},{"lat":"37.212715443","long":"127.06341304","items":[{"name":"씨유화성삼성전자후문점","tel":"031-8003-6674","addr":"경기도 화성시 능동 1080-8번지","category":"유통업 영리 - 편 의 점"}]},{"lat":"37.199052112","long":"127.0516653","items":[{"name":"아기곰어린이집[아이행복]","tel":"031-8003-7758","addr":"경기도 화성시 능동 1156-1번지 1층 101호","category":"학원 - 유아원"}]},{"lat":"37.197971328","long":"127.05052698","items":[{"name":"아기랜드","tel":"050-5999-7777","addr":"경기도 화성시 능동 1169-6번지","category":"의류 - 아동의류"}]},{"lat":"37.207058872","long":"127.05947705","items":[{"name":"아너스빌어린이집[아이행복]","tel":"031-8015-2821","addr":"경기도 화성시 능동 1115번지 동탄숲속마을자연앤경남아너스빌 804동 102호","category":"학원 - 유아원"}]},{"lat":"37.206590929","long":"127.05821504","items":[{"name":"아람어린이집[아이행복]","tel":"031-8003-5996","addr":"경기도 화성시 능동 1132번지 능동동탄숲속마을모아미래도1단지 851동 104호","category":"학원 - 유아원"}]},{"lat":"37.216692331","long":"127.05653246","items":[{"name":"아빠가꾸며주는집","tel":"031-8043-7422","addr":"경기도 화성시 능동 1096-18번지 101호","category":"가구 - 일반가구"}]},{"lat":"37.208494415","long":"127.05305699","items":[{"name":"아우라제이(동탄파크점)","tel":"031-613-2744","addr":"경기도 화성시 능동 526번지","category":"보건위생 - 미용원"},{"name":"효미","tel":"031-613-2744","addr":"경기도 화성시 능동 526번지 1층","category":"보건위생 - 피부미용실"}]},{"lat":"37.212832629","long":"127.06331174","items":[{"name":"아이라이크커피","tel":"031-8015-5220","addr":"경기도 화성시 능동 1080-7번지 1층","category":"일반휴게음식 - 서양음식"}]},{"lat":"37.217133752","long":"127.0567243","items":[{"name":"아이랑어린이집[아이행복]","tel":"031-8003-8879","addr":"경기도 화성시 능동 1095-19번지 1층","category":"학원 - 유아원"}]},{"lat":"37.214049086","long":"127.06320005","items":[{"name":"아이린 앤 다나(Eileen＆Dana)","tel":"031-234-5521","addr":"경기도 화성시 능동 1077-4번지 101호","category":"의류 - 정장"}]},{"lat":"37.198693791","long":"127.04628102","items":[{"name":"아이사랑어린이집[아이행복]","tel":"031-221-1733","addr":"경기도 화성시 능동 669번지","category":"학원 - 유아원"},{"name":"제일종합건재","tel":"031-234-3652","addr":"경기도 화성시 능동 669번지","category":"건축자재 - 기타건축자재"}]},{"lat":"37.207375781","long":"127.05614285","items":[{"name":"아이세상어린이집[아이행복]","tel":"031-8050-7142","addr":"경기도 화성시 능동 1131 숲속마을 자연앤데시앙A863-102호","category":"학원 - 유아원"}]},{"lat":"37.214410327","long":"127.06155549","items":[{"name":"아이원디자인","tel":"031-8003-2135","addr":"경기도 화성시 능동 1073-1번지 1층 101호","category":"용역 서비스 - 종합용역"}]},{"lat":"37.215025998","long":"127.05522441","items":[{"name":"아이캐슬어린이집[아이행복]","tel":"031-613-2893","addr":"경기도 화성시 능동 1101-9번지","category":"학원 - 유아원"}]},{"lat":"37.197889998","long":"127.05111263","items":[{"name":"아인어린이집[아이행복]","tel":"031-8015-5854","addr":"경기도 화성시 능동 1167-4번지","category":"학원 - 유아원"}]},{"lat":"37.197556512","long":"127.05136022","items":[{"name":"아트(ART)숲","tel":"","addr":"경기도 화성시 능동 1164-12번지 101호","category":"일반휴게음식 - 서양음식"}]},{"lat":"37.197276672","long":"127.05261029","items":[{"name":"아트팩토리걸","tel":"070-8847-8220","addr":"경기도 화성시 능동 1162-5번지 105호","category":"가구 - 기타가구"}]},{"lat":"37.198466115","long":"127.05244211","items":[{"name":"안주창고999","tel":"031-8003-9962","addr":"경기도 화성시 능동 1164-2번지 1층 103호","category":"일반휴게음식 - 일반한식"}]},{"lat":"37.200385129","long":"127.05291645","items":[{"name":"안흥상사","tel":"031-273-3215","addr":"경기도 화성시 능동 1146-2번지 1층","category":"기타 - 기계공구"}]},{"lat":"37.204521268","long":"127.05202928","items":[{"name":"애니카랜드능동점","tel":"031-8015-1944","addr":"경기도 화성시 능동 1139-1번지","category":"자동차정비 유지 - 자동차정비"}]},{"lat":"37.214693054","long":"127.0542215","items":[{"name":"양마니순대곱창","tel":"031-224-7481","addr":"경기도 화성시 능동 1103-17번지 1층 전체호","category":"일반휴게음식 - 일반한식"}]},{"lat":"37.217854622","long":"127.05663468","items":[{"name":"에스제이피코퍼레이션(SJP Corporation)","tel":"031-8077-9858","addr":"경기도 화성시 능동 1091-5번지","category":"레져용품 - 스포츠·레져용품"}]},{"lat":"37.199048523","long":"127.05971888","items":[{"name":"에스티코동탄상설점(STCO)","tel":"031-8015-3359","addr":"경기도 화성시 능동 992-1번지 992-2,992-4,992-6","category":"의류 - 스포츠의류"}]},{"lat":"37.214386411","long":"127.05488598","items":[{"name":"에이미영어교습소","tel":"","addr":"경기도 화성시 능동 1103-6번지 1층","category":"학원 - 외국어학원"}]},{"lat":"37.214800957","long":"127.05472854","items":[{"name":"에이엠지 (AMG)","tel":"031-8003-8488","addr":"경기도 화성시 능동 1102-12번지 1층","category":"자동차정비 유지 - 카인테리어"}]},{"lat":"37.197276329","long":"127.05342126","items":[{"name":"에이치알글로벌","tel":"070-7579-6295","addr":"경기도 화성시 능동 803-1 외1필지","category":"직물 - 침구·수예점"}]},{"lat":"37.214548936","long":"127.05410874","items":[{"name":"에이치피 화성센터","tel":"031-613-4846","addr":"경기도 화성시 능동 1103-16번지 1층 101호","category":"수리서비스 - 사무·통신기기수리"}]},{"lat":"37.199192581","long":"127.05994426","items":[{"name":"엔디오토케어","tel":"031-8003-3171","addr":"경기도 화성시 능동 991번지 능동세차장","category":"자동차정비 유지 - 자동차정비"}]},{"lat":"37.219772991","long":"127.05845","items":[{"name":"엠벡스모터스","tel":"031-613-0686","addr":"경기도 화성시 능동 1052-6번지","category":"자동차정비 유지 - 자동차정비"},{"name":"주식회사 디자인하람 동탄점","tel":"031-613-9969","addr":"경기도 화성시 능동 1052-6번지","category":"가구 - 일반가구"}]},{"lat":"37.210107272","long":"127.05305805","items":[{"name":"여수집","tel":"031-236-8005","addr":"경기도 화성시 능동 529번지 1층","category":"일반휴게음식 - 일반한식"}]},{"lat":"37.216439468","long":"127.05778284","items":[{"name":"여울로207","tel":"031-8003-0979","addr":"경기도 화성시 능동 1092-1번지","category":"일반휴게음식 - 일반한식"}]},{"lat":"37.199159938","long":"127.05238625","items":[{"name":"연세다건치과","tel":"031-8015-0022","addr":"경기도 화성시 능동 1154-7번지 다건빌딩 4층","category":"의원 - 치과의원"},{"name":"해누리센터","tel":"031-613-1002","addr":"경기도 화성시 능동 1154-7번지 다건빌딩","category":"보건위생 - 기타대인서비스"},{"name":"황실침구","tel":"031-613-2912","addr":"경기도 화성시 능동 1154-7번지 다건빌딩 102호","category":"직물 - 침구·수예점"}]},{"lat":"37.198889949","long":"127.05160887","items":[{"name":"연세우유동탄대리점","tel":"031-8015-1235","addr":"경기도 화성시 능동 1156-15번지","category":"음료식품 - 기타음료식품"}]},{"lat":"37.214908482","long":"127.05608055","items":[{"name":"영동식당","tel":"031-8003-2700","addr":"경기도 화성시 능동 1104-4번지 1층","category":"일반휴게음식 - 일반한식"}]},{"lat":"37.200024889","long":"127.05249945","items":[{"name":"오븐에빠진닭.피자에땅","tel":"031-8015-3650","addr":"경기도 화성시 능동 1147-4번지","category":"일반휴게음식 - 서양음식"}]},{"lat":"37.214269321","long":"127.05478451","items":[{"name":"오토오아시스능동점","tel":"031-8015-3308","addr":"경기도 화성시 능동 1103-11번지 1층","category":"자동차정비 유지 - 자동차정비"}]},{"lat":"37.198689817","long":"127.05603538","items":[{"name":"올가드림뷰티 서동탄역점","tel":"031-8015-0630","addr":"경기도 화성시 능동 811번지 가동 1호","category":"보건위생 - 화장품"},{"name":"카페올가(CAFE ORGA)","tel":"031-8015-4828","addr":"경기도 화성시 능동 811번지 가동 2호","category":"일반휴게음식 - 일반한식"}]},{"lat":"37.217852668","long":"127.06078077","items":[{"name":"와이케이원","tel":"070-4063-1277","addr":"경기도 화성시 능동 1059-1번지 2층","category":"전기제품 - 기타전기제품"}]},{"lat":"37.198440805","long":"127.04813938","items":[{"name":"우남마트","tel":"031-223-4585","addr":"경기도 화성시 능동 1041번지 우남드림밸리 상가 107호","category":"유통업 영리 - 슈퍼마켓"}]},{"lat":"37.203800231","long":"127.05252445","items":[{"name":"우리아구찜","tel":"031-378-6100","addr":"경기도 화성시 능동 1141-5번지 1층","category":"일반휴게음식 - 일반한식"}]},{"lat":"37.214521675","long":"127.05463822","items":[{"name":"웅이네 오돌뼈","tel":"031-8003-9196","addr":"경기도 화성시 능동 1103-4번지 1층","category":"일반휴게음식 - 일반한식"}]},{"lat":"37.21410658","long":"127.05603492","items":[{"name":"워터피아","tel":"031-8003-6222","addr":"경기도 화성시 능동 1089번지","category":"레저업소 - 수 영 장"}]},{"lat":"37.209161416","long":"127.05250543","items":[{"name":"원조쌈밥 동탄점","tel":"031-221-5585","addr":"경기도 화성시 능동 537번지 1층","category":"일반휴게음식 - 일반한식"}]},{"lat":"37.198609169","long":"127.05503285","items":[{"name":"월드모아","tel":"031-613-8292","addr":"경기도 화성시 능동 800-2번지 2층","category":"기타 - 기계공구"},{"name":"제일전기조명","tel":"031-8015-0470","addr":"경기도 화성시 능동 800-2번지","category":"건축자재 - 조명기구"}]},{"lat":"37.200415126","long":"127.0453133","items":[{"name":"위앤푸드","tel":"","addr":"경기도 화성시 능동 690-10번지","category":"음료식품 - 기타음료식품"}]},{"lat":"37.198078244","long":"127.05344432","items":[{"name":"유한크린텍","tel":"031-377-0547","addr":"경기도 화성시 능동 1160-3번지 101호","category":"신변잡화 - 기타잡화"},{"name":"한결 쇼파천갈이","tel":"031-613-5863","addr":"경기도 화성시 능동 1160-3번지 101호","category":"수리서비스 - 기타수리서비스"}]},{"lat":"37.199718431","long":"127.05274706","items":[{"name":"으뜸한의원","tel":"031-8015-5345","addr":"경기도 화성시 능동 1149-7번지 1층","category":"의원 - 한의원"}]},{"lat":"37.214996056","long":"127.06144329","items":[{"name":"이다너쯔","tel":"031-000-0000","addr":"경기도 화성시 능동 1071-3번지 102호","category":"음료식품 - 농·축·수산품"},{"name":"헤어염색이야기","tel":"031-613-0927","addr":"경기도 화성시 능동 1071-3번지","category":"보건위생 - 미용원"}]},{"lat":"37.216601748","long":"127.05758017","items":[{"name":"이마트24 동탄능동점","tel":"","addr":"경기도 화성시 능동 1095-11번지 1층","category":"유통업 영리 - 편 의 점"}]},{"lat":"37.214215214","long":"127.05488587","items":[{"name":"이야기치료심리상담센터","tel":"041-568-1180","addr":"경기도 화성시 능동 1103-10번지 202호","category":"보건위생 - 기타대인서비스"},{"name":"이야기치료심리상담센터","tel":"041-568-1180","addr":"경기도 화성시 능동 1103-10번지 202호","category":"보건위생 - 기타대인서비스"}]},{"lat":"37.211052864","long":"127.05421903","items":[{"name":"이지은다이어트&필라","tel":"031-1111-1111","addr":"경기도 화성시 능동 474-1번지 2층","category":"레저업소 - 헬스클럽"},{"name":"창","tel":"","addr":"경기도 화성시 능동 474-1번지","category":"일반휴게음식 - 서양음식"}]},{"lat":"37.197718341","long":"127.05222762","items":[{"name":"인생역전족발","tel":"031-613-8258","addr":"경기도 화성시 능동 1162-1번지 1층 1호","category":"일반휴게음식 - 일반한식"}]},{"lat":"37.215854596","long":"127.05602488","items":[{"name":"일품뼈해장국","tel":"031-8003-9908","addr":"경기도 화성시 능동 1098-9번지 1층","category":"일반휴게음식 - 일반한식"}]},{"lat":"37.21716067","long":"127.05697218","items":[{"name":"일품항아리갈비","tel":"031-613-4252","addr":"경기도 화성시 능동 1095-4번지 1층","category":"일반휴게음식 - 일반한식"}]},{"lat":"37.214774083","long":"127.05436801","items":[{"name":"입큰아구알곤이찜","tel":"031-8015-4612","addr":"경기도 화성시 능동 1103-1번지 1층","category":"일반휴게음식 - 일반한식"}]},{"lat":"37.204106744","long":"127.05214166","items":[{"name":"자연건강연구회","tel":"031-8003-9585","addr":"경기도 화성시 능동 1139-7번지 1층","category":"건강식품 - 기타건강식품"}]},{"lat":"37.212746726","long":"127.05442296","items":[{"name":"자인우드","tel":"031-225-8730","addr":"경기도 화성시 능동 158-14번지 제에이동","category":"건축자재 - 목재·석재·철물"}]},{"lat":"37.198691337","long":"127.05253237","items":[{"name":"장가네소한마리","tel":"031-8015-1518","addr":"경기도 화성시 능동 1156-9번지 1층","category":"일반휴게음식 - 일반한식"}]},{"lat":"37.21638583","long":"127.05685896","items":[{"name":"장수밥상","tel":"070-8944-0079","addr":"경기도 화성시 능동 1096-15번지 1층","category":"일반휴게음식 - 일반한식"}]},{"lat":"37.214746687","long":"127.05520168","items":[{"name":"장수식당","tel":"031-613-3858","addr":"경기도 화성시 능동 1102-4번지 101 (1층)","category":"일반휴게음식 - 일반한식"},{"name":"코리안 덕","tel":"031-613-3980","addr":"경기도 화성시 능동 1102-4번지 1층 102호","category":"일반휴게음식 - 일반한식"}]},{"lat":"37.209774017","long":"127.05275367","items":[{"name":"장수천한방민물장어","tel":"031-221-9252","addr":"경기도 화성시 능동 528-10번지","category":"일반휴게음식 - 일반한식"}]},{"lat":"37.214332285","long":"127.05503241","items":[{"name":"장충동왕족발보쌈(동탄점)","tel":"031-8015-3300","addr":"경기도 화성시 능동 1103-7번지 1층","category":"일반휴게음식 - 일반한식"}]},{"lat":"37.201496873","long":"127.04389463","items":[{"name":"재크와콩나무어린이집[아이행복]","tel":"031-224-5605","addr":"경기도 화성시 능동 699-1번지","category":"학원 - 유아원"}]},{"lat":"37.216025426","long":"127.05683618","items":[{"name":"점스헤어","tel":"","addr":"경기도 화성시 능동 1097-5번지 1층","category":"보건위생 - 미용원"}]},{"lat":"37.21707998","long":"127.05608208","items":[{"name":"정원족발막국수","tel":"031-376-8355","addr":"경기도 화성시 능동 1096-1번지 1층","category":"일반휴게음식 - 일반한식"}]},{"lat":"37.216304583","long":"127.0571969","items":[{"name":"제이(J) 헤어","tel":"031-613-6457","addr":"경기도 화성시 능동 1096-12번지 1층","category":"보건위생 - 미용원"},{"name":"카페 스물 한 살","tel":"","addr":"경기도 화성시 능동 1096-12번지 1층","category":"일반휴게음식 - 서양음식"}]},{"lat":"37.214629442","long":"127.05544946","items":[{"name":"제이앤카","tel":"031-8003-9121","addr":"경기도 화성시 능동 1102-6번지 1층","category":"자동차정비 유지 - 카인테리어"}]},{"lat":"37.215908353","long":"127.0567009","items":[{"name":"제이진옴므(동탄점)","tel":"031-613-5885","addr":"경기도 화성시 능동 1097-6번지 1층","category":"의류 - 정장"}]},{"lat":"37.197889795","long":"127.05160823","items":[{"name":"제이필라테스(J Pilates)","tel":"031-8015-2813","addr":"경기도 화성시 능동 1164-16번지 1층 101호","category":"레저업소 - 헬스클럽"}]},{"lat":"37.200081802","long":"127.04514416","items":[{"name":"조개나라","tel":"031-222-1423","addr":"경기도 화성시 능동 690-2번지","category":"음료식품 - 농·축·수산품"}]},{"lat":"37.211053199","long":"127.05344171","items":[{"name":"조마루감자탕능동점","tel":"031-222-2336","addr":"경기도 화성시 능동 474-2번지 1층","category":"일반휴게음식 - 일반한식"}]},{"lat":"37.201664675","long":"127.05274834","items":[{"name":"주말농장","tel":"031-235-3826","addr":"경기도 화성시 능동 593번지","category":"음료식품 - 농·축·수산품"}]},{"lat":"37.198439299","long":"127.05192397","items":[{"name":"주식회사 데즐인더스트리(Dazzle Industry","tel":"031-1111-1111","addr":"경기도 화성시 능동 1165-5번지 102호","category":"건축자재 - 조명기구"}]},{"lat":"37.198610534","long":"127.05183397","items":[{"name":"주식회사 디엘산업","tel":"031-613-0721","addr":"경기도 화성시 능동 1165-3번지 1층","category":"용역 서비스 - 기타용역서비스"}]},{"lat":"37.198555602","long":"127.05389519","items":[{"name":"주식회사 문화다움","tel":"070-4300-6335","addr":"경기도 화성시 능동 1158-1번지 102호","category":"용역 서비스 - 종합용역"}]},{"lat":"37.212548727","long":"127.05389334","items":[{"name":"주식회사 윈플러스마트동부 동탄점","tel":"02-1644-2360","addr":"경기도 화성시 능동 470-1번지","category":"유통업 영리 - 슈퍼마켓"}]},{"lat":"37.220691096","long":"127.06044493","items":[{"name":"주식회사 태명이앤이","tel":"031-8003-8489","addr":"경기도 화성시 능동 1051-2번지 3층 일부","category":"서적문구 - 과학기자재"}]},{"lat":"37.203881206","long":"127.05280612","items":[{"name":"주연헤어칼라","tel":"031-352-6967","addr":"경기도 화성시 능동 1138-8번지 1층","category":"보건위생 - 미용원"}]},{"lat":"37.198303667","long":"127.05306151","items":[{"name":"지그라피(Z.graphy)","tel":"070-4354-8913","addr":"경기도 화성시 능동 1161-3번지 1층","category":"일반휴게음식 - 일반한식"}]},{"lat":"37.197637762","long":"127.05097731","items":[{"name":"지니케이크","tel":"031-8003-4438","addr":"경기도 화성시 능동 1171-2번지","category":"음료식품 - 제과점"}]},{"lat":"37.19982674","long":"127.05230784","items":[{"name":"지더블유디자인","tel":"070-4140-3309","addr":"경기도 화성시 능동 1149-4번지 B101호","category":"기타 - 기계공구"}]},{"lat":"37.216412743","long":"127.05711811","items":[{"name":"지배온삼겹","tel":"031-222-6662","addr":"경기도 화성시 능동 1096-11번지 1층","category":"일반휴게음식 - 일반한식"}]},{"lat":"37.211610672","long":"127.05611203","items":[{"name":"진천토종순대","tel":"031-225-4646","addr":"경기도 화성시 능동 460-4번지 1층","category":"일반휴게음식 - 일반한식"}]},{"lat":"37.203827469","long":"127.05202883","items":[{"name":"진팩토리","tel":"031-258-7706","addr":"경기도 화성시 능동 1141-1번지 1층 101호","category":"자동차정비 유지 - 자동차부품"}]},{"lat":"37.198078559","long":"127.05270092","items":[{"name":"찜마을","tel":"031-8003-9557","addr":"경기도 화성시 능동 1161-11번지","category":"일반휴게음식 - 일반한식"}]},{"lat":"37.213859788","long":"127.06335762","items":[{"name":"착한불고기못된쭈꾸미","tel":"031-613-6176","addr":"경기도 화성시 능동 1078-1번지 102호","category":"일반휴게음식 - 일반한식"}]},{"lat":"37.215077216","long":"127.06130816","items":[{"name":"청기와24시감자탕","tel":"031-8015-1189","addr":"경기도 화성시 능동 1071-2번지","category":"일반휴게음식 - 일반한식"}]},{"lat":"37.209188333","long":"127.05277582","items":[{"name":"총각수산(능동점)","tel":"031-224-8287","addr":"경기도 화성시 능동 528-5번지","category":"일반휴게음식 - 일식·회집"}]},{"lat":"37.198522129","long":"127.04753119","items":[{"name":"최정희뷰티샵","tel":"031-225-6167","addr":"경기도 화성시 능동 1041 송골마을우남퍼스트빌3차아 303-1601 18/","category":"회원제형태 - 기타1"}]},{"lat":"37.197665083","long":"127.05025646","items":[{"name":"치킨마을","tel":"031-8003-4585","addr":"경기도 화성시 능동 1170-2번지 1층","category":"일반휴게음식 - 스넥"}]},{"lat":"37.200160021","long":"127.05255586","items":[{"name":"카메이크업동탄점","tel":"031-613-6133","addr":"경기도 화성시 능동 1147-3번지 전체 1층","category":"자동차정비 유지 - 자동차정비"}]},{"lat":"37.215215181","long":"127.0553034","items":[{"name":"카인트","tel":"031-8015-1752","addr":"경기도 화성시 능동 1101-1번지 1층","category":"자동차정비 유지 - 자동차부품"}]},{"lat":"37.198384889","long":"127.05275744","items":[{"name":"카페렐라","tel":"031-8015-5879","addr":"경기도 화성시 능동 1161-1번지 1층 상가전체","category":"일반휴게음식 - 서양음식"}]},{"lat":"37.21671925","long":"127.05678034","items":[{"name":"카페로카","tel":"031-8003-8811","addr":"경기도 화성시 능동 1096-7번지 1층","category":"일반휴게음식 - 서양음식"}]},{"lat":"37.21296786","long":"127.06316539","items":[{"name":"카페루멘","tel":"031-273-5823","addr":"경기도 화성시 능동 1080-6번지 1층","category":"일반휴게음식 - 서양음식"}]},{"lat":"37.197773253","long":"127.05014389","items":[{"name":"카페제이","tel":"031-8003-4091","addr":"경기도 화성시 능동 1170-1번지","category":"일반휴게음식 - 서양음식"}]},{"lat":"37.206522342","long":"127.05013808","items":[{"name":"카페휴(나래울)","tel":"031-8015-7338","addr":"경기도 화성시 능동 1128번지 1층","category":"일반휴게음식 - 서양음식"}]},{"lat":"37.214166279","long":"127.06308748","items":[{"name":"커피그린빈(Coffe Green Been)","tel":"031-8003-5259","addr":"경기도 화성시 능동 1077-5번지","category":"일반휴게음식 - 서양음식"}]},{"lat":"37.208665598","long":"127.0530909","items":[{"name":"코콤 화성지점","tel":"031-224-0771","addr":"경기도 화성시 능동 527-3번지 1층","category":"건축자재 - 조명기구"},{"name":"하나유통","tel":"031-226-7477","addr":"경기도 화성시 능동 527-3번지","category":"의류 - 정장"}]},{"lat":"37.210827983","long":"127.05334017","items":[{"name":"콩마루","tel":"031-221-0014","addr":"경기도 화성시 능동 481-1번지","category":"일반휴게음식 - 일반한식"}]},{"lat":"37.197799598","long":"127.05183344","items":[{"name":"크리미벨로","tel":"031-613-1261","addr":"경기도 화성시 능동 1164-8번지 1층","category":"일반휴게음식 - 일반한식"}]},{"lat":"37.215547928","long":"127.05672317","items":[{"name":"크린토피아동탄상록점","tel":"031-8003-1232","addr":"경기도 화성시 능동 1092-10번지","category":"수리서비스 - 세탁소"},{"name":"호세야오리바베큐 동탄점","tel":"031-8015-5283","addr":"경기도 화성시 능동 1092-10번지 1층 일부호","category":"일반휴게음식 - 일반한식"}]},{"lat":"37.199139194","long":"127.05852499","items":[{"name":"큰집보쌈","tel":"031-805-5787","addr":"경기도 화성시 능동 984-6번지 1층","category":"일반휴게음식 - 일반한식"}]},{"lat":"37.203971447","long":"127.0524795","items":[{"name":"키즈맘 어린이집[아이행복]","tel":"031-8003-4184","addr":"경기도 화성시 능동 1141-4번지 1층","category":"학원 - 유아원"}]},{"lat":"37.203482083","long":"127.05877599","items":[{"name":"키즈트리어린이집[아이행복]","tel":"031-8003-9545","addr":"경기도 화성시 능동 1134번지 푸른마을포스코더샵2차 903동 101호","category":"학원 - 유아원"}]},{"lat":"37.199327829","long":"127.05975288","items":[{"name":"타이어마트","tel":"031-8015-0154","addr":"경기도 화성시 능동 988-4,987-12","category":"자동차정비 유지 - 자동차시트·타이어"}]},{"lat":"37.199192937","long":"127.05920085","items":[{"name":"타이어프로 동탄 신도시점","tel":"031-8003-4244","addr":"경기도 화성시 능동 986-2번지","category":"자동차정비 유지 - 자동차시트·타이어"}]},{"lat":"37.217241927","long":"127.05661171","items":[{"name":"테이블소잉","tel":"031-8003-4485","addr":"경기도 화성시 능동 1095-20번지 101호","category":"문화.취미 - 문화취미기타"}]},{"lat":"37.213661543","long":"127.06339126","items":[{"name":"토즈(TODS)","tel":"031-1599-9402","addr":"경기도 화성시 능동 1078-2번지 1층일부","category":"음료식품 - 기타음료식품"}]},{"lat":"37.212886553","long":"127.06358216","items":[{"name":"통돼지김치찌개","tel":"031-613-4988","addr":"경기도 화성시 능동 1079-4번지 1층","category":"일반휴게음식 - 일반한식"}]},{"lat":"37.214275104","long":"127.06169058","items":[{"name":"트랜디펫(주)","tel":"031-8003-1369","addr":"경기도 화성시 능동 1073-2번지 1층","category":"문화.취미 - 애완동물"}]},{"lat":"37.204277861","long":"127.05233327","items":[{"name":"파인스테이션","tel":"031-8003-3286","addr":"경기도 화성시 능동 1139-5번지 1층","category":"자동차정비 유지 - 자동차부품"}]},{"lat":"37.211332731","long":"127.05294621","items":[{"name":"팬스토리","tel":"070-4226-6332","addr":"경기도 화성시 능동 476-3번지 2층","category":"서적문구 - 완구점"},{"name":"헤변의꽃게동탄점","tel":"031-223-2259","addr":"경기도 화성시 능동 476-3번지","category":"일반휴게음식 - 일반한식"}]},{"lat":"37.216214339","long":"127.05750102","items":[{"name":"퍼스트 밧데리","tel":"031-223-0587","addr":"경기도 화성시 능동 1092-3번지 1층 1호","category":"자동차정비 유지 - 자동차부품"}]},{"lat":"37.216331411","long":"127.0576363","items":[{"name":"펫아일랜드-동탄점","tel":"031-8050-3250","addr":"경기도 화성시 능동 1092-2번지 1층 101호","category":"문화.취미 - 애완동물"}]},{"lat":"37.214854616","long":"127.05564113","items":[{"name":"포비어린이집[아이행복]","tel":"031-8003-9362","addr":"경기도 화성시 능동 1101-6번지","category":"학원 - 유아원"}]},{"lat":"37.215854126","long":"127.05706138","items":[{"name":"표기획","tel":"031-613-7773","addr":"경기도 화성시 능동 1092-7번지","category":"유통업 영리 - 슈퍼마켓"},{"name":"허니머쉬","tel":"031-8015-8004","addr":"경기도 화성시 능동 1092-7번지 102호","category":"문화.취미 - 화원"}]},{"lat":"37.200718475","long":"127.05300678","items":[{"name":"푸른피아노교습소","tel":"","addr":"경기도 화성시 능동 1145-5번지 101호 일부","category":"학원 - 예·체능계학원"}]},{"lat":"37.198159804","long":"127.05234054","items":[{"name":"퓨전포차조개마을","tel":"031-613-3029","addr":"경기도 화성시 능동 1164-4번지 1층","category":"일반휴게음식 - 일반한식"}]},{"lat":"37.198520564","long":"127.05150726","items":[{"name":"프라임기획","tel":"031-8003-4300","addr":"경기도 화성시 능동 1165-8번지 1층 102호","category":"건축자재 - 인테리어전문"}]},{"lat":"37.216187715","long":"127.05661096","items":[{"name":"프라임조명","tel":"070-7672-9672","addr":"경기도 화성시 능동 1097-3번지 1층","category":"건축자재 - 조명기구"}]},{"lat":"37.210130613","long":"127.0611241","items":[{"name":"플랭클린에듀","tel":"031-264-2378","addr":"경기도 화성시 능동 1081번지 능동마을7단지 717동 203호","category":"회원제형태 - 학원"}]},{"lat":"37.200412783","long":"127.05141837","items":[{"name":"플러스원","tel":"031-222-6855","addr":"경기도 화성시 능동 635-1,C호","category":"건축자재 - 인테리어전문"}]},{"lat":"37.198331644","long":"127.05077501","items":[{"name":"플레르스튜디오","tel":"031-613-9012","addr":"경기도 화성시 능동 1168-1번지 1층","category":"광학제품 - 사진관"}]},{"lat":"37.198276521","long":"127.05333182","items":[{"name":"플레이독","tel":"031-8015-1232","addr":"경기도 화성시 능동 1160-1번지 1층 101호","category":"문화.취미 - 애완동물"}]},{"lat":"37.215185396","long":"127.06119558","items":[{"name":"하얀크리닝","tel":"031-613-5898","addr":"경기도 화성시 능동 1071-1번지","category":"수리서비스 - 세탁소"}]},{"lat":"37.210942871","long":"127.05836467","items":[{"name":"한가람건강원","tel":"031-236-2820","addr":"경기도 화성시 능동 445-10번지 1층","category":"건강식품 - 기타건강식품"}]},{"lat":"37.209385666","long":"127.05486002","items":[{"name":"한마음문구팬시","tel":"031-613-2066","addr":"경기도 화성시 능동 1124 자연앤경남아너스빌상가103호","category":"서적문구 - 문구용품"}]},{"lat":"37.208582452","long":"127.05772083","items":[{"name":"한마음음악교습소","tel":"031-213-4368","addr":"경기도 화성시 능동 1116번지 동탄숲속마을광명메이루즈 상가동 104호","category":"학원 - 예·체능계학원"}]},{"lat":"37.214887876","long":"127.06155586","items":[{"name":"한성커피배전소","tel":"070-8031-4038","addr":"경기도 화성시 능동 1071-4번지 1층 일부호","category":"음료식품 - 기타음료식품"}]},{"lat":"37.199889939","long":"127.05200375","items":[{"name":"한입 능동점","tel":"031-000-0000","addr":"경기도 화성시 능동 1149-2번지 1층","category":"일반휴게음식 - 일반한식"}]},{"lat":"37.215134172","long":"127.05511182","items":[{"name":"해원","tel":"031-613-6326","addr":"경기도 화성시 능동 1101-10번지 1층 101호","category":"일반휴게음식 - 일반한식"}]},{"lat":"37.216493686","long":"127.05744489","items":[{"name":"해피 트레이닝","tel":"031-613-3339","addr":"경기도 화성시 능동 1095-12번지 1층","category":"의류 - 기타의류"}]},{"lat":"37.198718429","long":"127.05238596","items":[{"name":"헤어인","tel":"","addr":"경기도 화성시 능동 1156-10번지 101호","category":"보건위생 - 미용원"}]},{"lat":"37.215665012","long":"127.05683592","items":[{"name":"헬로우컴","tel":"031-8015-0119","addr":"경기도 화성시 능동 1092-9번지 102호","category":"사무통신 - 컴퓨터"}]},{"lat":"37.216881194","long":"127.05730997","items":[{"name":"현대토탈주식회사","tel":"031-8015-3900","addr":"경기도 화성시 능동 1095-8번지 1층","category":"주방용구 - 주방용구"}]},{"lat":"37.214629898","long":"127.05441298","items":[{"name":"현현 브라더스","tel":"031-613-9209","addr":"경기도 화성시 능동 1103-2번지 1층 전체호","category":"일반휴게음식 - 일반한식"}]},{"lat":"37.21141295","long":"127.05497407","items":[{"name":"형제상회","tel":"031-204-2467","addr":"경기도 화성시 능동 460-15번지","category":"일반휴게음식 - 일반한식"}]},{"lat":"37.214689815","long":"127.06121773","items":[{"name":"형제자전거","tel":"","addr":"경기도 화성시 능동 1072-3번지","category":"레져용품 - 스포츠·레져용품"}]},{"lat":"37.210078315","long":"127.05741774","items":[{"name":"호아풍","tel":"031-232-3492","addr":"경기도 화성시 능동 449번지 외1필지 1층","category":"일반휴게음식 - 일반한식"}]},{"lat":"37.209548725","long":"127.05283238","items":[{"name":"혼이담긴짬뽕","tel":"031-234-1144","addr":"경기도 화성시 능동 528-1번지 1층","category":"일반휴게음식 - 중국식"}]},{"lat":"37.212994747","long":"127.06344706","items":[{"name":"홍익김밥","tel":"031-613-0257","addr":"경기도 화성시 능동 1079-5번지 1층","category":"일반휴게음식 - 스넥"}]},{"lat":"37.203665282","long":"127.05202873","items":[{"name":"화성바벨클럽","tel":"031-000-0000","addr":"경기도 화성시 능동 1141-8번지 1층","category":"레저업소 - 헬스클럽"}]},{"lat":"37.209888525","long":"127.05864553","items":[{"name":"화성시니어클럽 노노카페 (동탄3동주민센터","tel":"031-8059-4349","addr":"경기도 화성시 능동 1119번지 1층","category":"일반휴게음식 - 서양음식"}]},{"lat":"37.200550629","long":"127.04433341","items":[{"name":"화성중고사랑","tel":"070-7737-8059","addr":"경기도 화성시 능동 693-3번지 가동 1층","category":"신변잡화 - 기타잡화"}]},{"lat":"37.217241815","long":"127.05685957","items":[{"name":"후퍼옵틱동탄점","tel":"031-8003-0817","addr":"경기도 화성시 능동 1095-3번지 1층","category":"자동차정비 유지 - 카인테리어"}]},{"lat":"37.214689648","long":"127.06155571","items":[{"name":"희연토스트","tel":"070-7513-0204","addr":"경기도 화성시 능동 1071-6번지 101호","category":"일반휴게음식 - 스넥"}]}]