[{"lat":"37.858829488","long":"126.78701157","imageIndex":0,"items":[{"name":"(주)신성부품","tel":"031-954-5851","addr":"경기도 파주시 문산읍 문산리 17-41번지","indutype":"자동차정비 유지 - 자동차부품","category":"car"}]},{"lat":"37.854937967","long":"126.78243236","imageIndex":0,"items":[{"name":"고향길카센타","tel":"031-954-2500","addr":"경기도 파주시 문산읍 문산리 36-6번지","indutype":"자동차정비 유지 - 자동차정비","category":"car"}]},{"lat":"37.853886083","long":"126.7836172","imageIndex":0,"items":[{"name":"문산 세차장","tel":"031-953-8564","addr":"경기도 파주시 문산읍 문산리 32-3번지","indutype":"자동차정비 유지 - 세차장","category":"car"}]},{"lat":"37.857690799","long":"126.78028788","imageIndex":0,"items":[{"name":"문산점기아오토큐","tel":"031-952-2488","addr":"경기도 파주시 문산읍 문산리 69-2번지","indutype":"자동차정비 유지 - 자동차정비","category":"car"}]},{"lat":"37.859136158","long":"126.78720386","imageIndex":0,"items":[{"name":"문산콜오토바이","tel":"031-953-5363","addr":"경기도 파주시 문산읍 문산리 17-81번지","indutype":"자동차판매 - 이륜차판매","category":"car"}]},{"lat":"37.859467079","long":"126.77631669","imageIndex":0,"items":[{"name":"자동차119","tel":"031-953-1105","addr":"경기도 파주시 문산읍 문산리 140-3번지","indutype":"자동차정비 유지 - 자동차정비","category":"car"}]},{"lat":"37.853107568","long":"126.78648286","imageIndex":0,"items":[{"name":"퍼스트플레이스문산본점","tel":"031-952-7597","addr":"경기도 파주시 문산읍 문산리 17-361번지","indutype":"자동차정비 유지 - 자동차부품","category":"car"}]},{"lat":"37.856714976","long":"126.78848358","imageIndex":0,"items":[{"name":"포카(For Car)","tel":"031-954-6263","addr":"경기도 파주시 문산읍 문산리 17-278번지","indutype":"자동차정비 유지 - 자동차정비","category":"car"}]},{"lat":"37.859188751","long":"126.77681753","imageIndex":0,"items":[{"name":"하이쩜문산테크","tel":"031-952-4284","addr":"경기도 파주시 문산읍 문산리 140-14번지","indutype":"자동차정비 유지 - 자동차부품","category":"car"}]},{"lat":"37.853826263","long":"126.78536722","imageIndex":0,"items":[{"name":"한양자동차공업사","tel":"031-952-9220","addr":"경기도 파주시 문산읍 문산리 22-4번지","indutype":"자동차정비 유지 - 자동차정비","category":"car"}]}]