[{"lat":"36.975628911","long":"126.92537866","items":[{"name":"T-스테이션 안중점","tel":"031-656-9828","addr":"경기도 평택시 현덕면 인광리 202-1번지","category":"자동차정비 유지 - 자동차시트·타이어"},{"name":"한국타이어티스테이션안중점","tel":"031-681-0016","addr":"경기도 평택시 현덕면 인광리 202-1번지","category":"도소매업 - 타이어"}]},{"lat":"36.957694256","long":"126.92052384","items":[{"name":"갑을","tel":"031-686-6678","addr":"경기도 평택시 현덕면 인광리 444-2","category":"기타 - 기타 전문점"}]},{"lat":"36.965136184","long":"126.91915709","items":[{"name":"거북식당","tel":"031-683-0054","addr":"경기도 평택시 현덕면 인광리 405-23번지","category":"음식점 - 한식"},{"name":"스머프양념통닭","tel":"031-684-3335","addr":"경기도 평택시 현덕면 인광리 405-23번지","category":"음식점 - 치킨"},{"name":"스머프양념통닭","tel":"031-682-8975","addr":"경기도 평택시 현덕면 인광리 405-23번지","category":"일반휴게음식 - 주점"},{"name":"황금성","tel":"031-682-7196","addr":"경기도 평택시 현덕면 인광리 405-23번지","category":"음식점 - 중식"},{"name":"황금성중화요리","tel":"031-681-6387","addr":"경기도 평택시 현덕면 인광리 405-23번지","category":"일반휴게음식 - 중국식"}]},{"lat":"36.974963018","long":"126.92677193","items":[{"name":"고향순대곱창","tel":"031-684-9390","addr":"경기도 평택시 현덕면 인광리 186-2번지","category":"음식점 - 한식"},{"name":"고향순대곱창","tel":"031-681-0016","addr":"경기도 평택시 현덕면 인광리 186-2번지","category":"일반휴게음식 - 일반한식"}]},{"lat":"36.965244628","long":"126.91960614","items":[{"name":"고향집오리","tel":"031-000-0000","addr":"경기도 평택시 현덕면 인광리 405-26번지","category":"일반휴게음식 - 일반한식"},{"name":"이모네식당","tel":"031-682-0373","addr":"경기도 평택시 현덕면 인광리 405-26번지","category":"일반휴게음식 - 일반한식"}]},{"lat":"36.974158546","long":"126.92294312","items":[{"name":"까페시모","tel":"031-684-6525","addr":"경기도 평택시 현덕면 인광리 310-7번지 2층","category":"일반휴게음식 - 서양음식"},{"name":"스카이스크린골프","tel":"031-683-0754","addr":"경기도 평택시 현덕면 인광리 310-7번지 외1필지","category":"회원제형태 - 레져업소"}]},{"lat":"36.974357076","long":"126.92338091","items":[{"name":"대반식당","tel":"031-683-4356","addr":"경기도 평택시 현덕면 인광리 310-2번지 1층","category":"일반휴게음식 - 일반한식"},{"name":"대반식당","tel":"","addr":"경기도 평택시 현덕면 인광리 310-2번지","category":"음식점 - 한식"}]},{"lat":"36.966768164","long":"126.92063759","items":[{"name":"대우식당","tel":"031-681-8872","addr":"경기도 평택시 현덕면 인광리 402-14번지","category":"일반휴게음식 - 일반한식"},{"name":"대우식당","tel":"031-682-3938","addr":"경기도 평택시 현덕면 인광리 402-14번지","category":"음식점 - 한식"}]},{"lat":"36.974351067","long":"126.92799667","items":[{"name":"델리퀸 (평택안중점)","tel":"031-684-4599","addr":"경기도 평택시 현덕면 인광리 183-10번지","category":"음료식품 - 정육점"},{"name":"델리퀸(평택 안중점)","tel":"031-682-6662","addr":"경기도 평택시 현덕면 인광리 183-10번지","category":"보건위생 - 미용원"},{"name":"서가네손칼국수","tel":"031-683-1203","addr":"경기도 평택시 현덕면 인광리 183-10번지 103호","category":"일반휴게음식 - 일반한식"}]},{"lat":"36.974775092","long":"126.92882732","items":[{"name":"로하스공인중개사사무소","tel":"031-681-8545","addr":"경기도 평택시 현덕면 인광리 108-41번지 103호","category":"용역 서비스 - 부동산 중개·임대"}]},{"lat":"36.967193429","long":"126.92321992","items":[{"name":"마마스밀","tel":"031-000-0000","addr":"경기도 평택시 현덕면 인광리 397-41번지","category":"문화.취미 - 문화취미기타"}]},{"lat":"36.957466927","long":"126.91760478","items":[{"name":"모텔준","tel":"031-685-1151","addr":"경기도 평택시 현덕면 인광리 500-18번지","category":"숙박업 - 여관/기타숙박업"}]},{"lat":"36.966353436","long":"126.92030115","items":[{"name":"봄날","tel":"031-682-8975","addr":"경기도 평택시 현덕면 인광리 405-47번지","category":"음식점 - 한식"},{"name":"봄날","tel":"031-652-7133","addr":"경기도 평택시 현덕면 인광리 405-47","category":"일반휴게음식 - 일반한식"}]},{"lat":"36.972437269","long":"126.92260802","items":[{"name":"비원가든","tel":"","addr":"경기도 평택시 현덕면 인광리 217-7번지 1층","category":"일반휴게음식 - 일반한식"}]},{"lat":"36.97274371","long":"126.92272","items":[{"name":"비원자동차공업사","tel":"031-681-1184","addr":"경기도 평택시 현덕면 인광리 217-5번지","category":"자동차정비 유지 - 자동차정비"},{"name":"비원주유소","tel":"","addr":"경기도 평택시 현덕면 인광리 217-5번지","category":"신변잡화 - 기타잡화"},{"name":"삼해 산약초 전시장/삼정수산","tel":"031-684-8333","addr":"경기도 평택시 현덕면 인광리 217-5번지","category":"음료식품 - 농·축·수산품"}]},{"lat":"36.975386095","long":"126.9261089","items":[{"name":"삼해산약초전시장","tel":"031-684-8333","addr":"경기도 평택시 현덕면 인광리 201-8번지 1층","category":"일반휴게음식 - 일반한식"}]},{"lat":"36.966281264","long":"126.92017771","items":[{"name":"소문난가게","tel":"031-652-7133","addr":"경기도 평택시 현덕면 인광리 405-46번지 서해파크빌라3차 가동 101호","category":"의류 - 정장"}]},{"lat":"36.965967042","long":"126.92185122","items":[{"name":"시립현덕어린이집[아이행복]","tel":"031-682-0511","addr":"경기도 평택시 현덕면 인광리 405-74","category":"학원 - 유아원"}]},{"lat":"36.961188294","long":"126.91749958","items":[{"name":"신호전력","tel":"","addr":"경기도 평택시 현덕면 인광리 427-16번지","category":"서비스업 - 전기설비"}]},{"lat":"36.975997968","long":"126.92479428","items":[{"name":"안중농협송담주유소","tel":"031-681-5189","addr":"경기도 평택시 현덕면 인광리 207-5번지","category":"일반휴게음식 - 서양음식"}]},{"lat":"36.965326172","long":"126.92024612","items":[{"name":"윤가네칼국수","tel":"031-684-0998","addr":"경기도 평택시 현덕면 인광리 405-53번지 1층","category":"음식점 - 한식"}]},{"lat":"36.965550899","long":"126.91947105","items":[{"name":"제일마트","tel":"031-682-2973","addr":"경기도 평택시 현덕면 인광리 405-18번지","category":"소매업 - 슈퍼"}]},{"lat":"36.965325567","long":"126.91938147","items":[{"name":"진마트","tel":"031-686-8507","addr":"경기도 평택시 현덕면 인광리 405-25번지","category":"유통업 영리 - 슈퍼마켓"},{"name":"진한우","tel":"031-686-8507","addr":"경기도 평택시 현덕면 인광리 405-25번지","category":"음료식품 - 정육점"},{"name":"진한우","tel":"031-683-8811","addr":"경기도 평택시 현덕면 인광리 405-25번지","category":"음료식품 - 기타음료식품"}]},{"lat":"36.963828132","long":"126.93060088","items":[{"name":"진형테크","tel":"031-683-7601","addr":"경기도 평택시 현덕면 인광리 282번지","category":"기타 - 기계공구"}]},{"lat":"36.965470383","long":"126.92030211","items":[{"name":"케이투(K2)설비 드레인","tel":"","addr":"경기도 평택시 현덕면 인광리 405-54번지 우창빌라 401호","category":"용역 서비스 - 기타용역서비스"}]},{"lat":"36.973684308","long":"126.92805348","items":[{"name":"테라농장","tel":"070-8757-9768","addr":"경기도 평택시 현덕면 인광리 산 79-1 15/","category":"음료식품 - 농·축·수산품"}]},{"lat":"36.97549386","long":"126.92554725","items":[{"name":"퍼스트독앤캣","tel":"031-682-3036","addr":"경기도 평택시 현덕면 인광리 202-5번지","category":"문화.취미 - 애완동물"}]},{"lat":"36.966578915","long":"126.9206041","items":[{"name":"하나로마트(안중농협 현덕지점)","tel":"031-684-4599","addr":"경기도 평택시 현덕면 인광리 402-23번지","category":"일반휴게음식 - 일반한식"}]},{"lat":"36.975907512","long":"126.92426653","items":[{"name":"한국타이어신안중대리점","tel":"","addr":"경기도 평택시 현덕면 인광리 207-2번지","category":"서비스업 - 자동차정비"}]},{"lat":"36.965353087","long":"126.92007765","items":[{"name":"한일마트","tel":"031-681-1118","addr":"경기도 평택시 현덕면 인광리 405-22번지","category":"소매업 - 슈퍼"}]},{"lat":"36.965552171","long":"126.92130142","items":[{"name":"현덕초등학교","tel":"031-681-6695","addr":"경기도 평택시 현덕면 인광리 405-2번지 현덕초등학교","category":"학원 - 초중고교육기관"}]},{"lat":"36.963804048","long":"126.92124714","items":[{"name":"현덕초등학교병설유치원[아이행복]","tel":"031-682-6693","addr":"경기도 평택시 현덕면 인광리 405","category":"학원 - 유치원"}]}]