[{"lat":"37.419223618","long":"127.46301553","items":[{"name":"(주)하나파츠","tel":"031-111-1111","addr":"경기도 여주시 산북면 용담리 362번지","category":"자동차정비 유지 - 자동차부품"}]},{"lat":"37.421313312","long":"127.47006626","items":[{"name":"라비코LaViCo","tel":"031-881-3782","addr":"경기도 여주시 산북면 용담리 148-1번지","category":"가구 - 일반가구"}]},{"lat":"37.42003397","long":"127.46315605","items":[{"name":"승지조경","tel":"031-882-9657","addr":"경기도 여주시 산북면 용담리 363-1번지","category":"건축자재 - 인테리어전문"}]},{"lat":"37.422282656","long":"127.47100994","items":[{"name":"여주매점","tel":"031-881-5221","addr":"경기도 여주시 산북면 용담리 132번지","category":"음료식품 - 기타음료식품"}]},{"lat":"37.422759286","long":"127.46895684","items":[{"name":"오대수산","tel":"031-882-7308","addr":"경기도 여주시 산북면 용담리 135-2번지","category":"음료식품 - 농·축·수산품"}]},{"lat":"37.423281816","long":"127.46667805","items":[{"name":"오마이슈","tel":"070-7766-8766","addr":"경기도 여주시 산북면 용담리 329-1번지","category":"신변잡화 - 신발"}]},{"lat":"37.42030745","long":"127.47378793","items":[{"name":"오케이무역모터스","tel":"02-6215-3030","addr":"경기도 여주시 산북면 용담리 181-2번지","category":"자동차정비 유지 - 자동차부품"}]},{"lat":"37.419112338","long":"127.46842589","items":[{"name":"원 퍼니처","tel":"031-884-5976","addr":"경기도 여주시 산북면 용담리 282-9번지","category":"주방용구 - 주방용구"}]},{"lat":"37.419341714","long":"127.46737673","items":[{"name":"자매바지락칼국수","tel":"031-886-4429","addr":"경기도 여주시 산북면 용담리 277번지","category":"일반휴게음식 - 일반한식"}]},{"lat":"37.419561147","long":"127.46426023","items":[{"name":"중학동수제비","tel":"031-882-3805","addr":"경기도 여주시 산북면 용담리 235-1번지","category":"일반휴게음식 - 일반한식"}]},{"lat":"37.418862142","long":"127.46560022","items":[{"name":"평창송어횟집","tel":"031-883-8858","addr":"경기도 여주시 산북면 용담리 246-12번지","category":"일반휴게음식 - 일반한식"}]},{"lat":"37.432979043","long":"127.49067962","items":[{"name":"해찬솔","tel":"031-772-3508","addr":"경기도 여주시 산북면 용담리 23-3번지","category":"숙박업 - 여관/기타숙박업"}]}]