[{"lat":"37.00255511","long":"127.27085184","items":[{"name":"뉴풍성정육점","tel":"031-674-3647","addr":"경기도 안성시 성남동 238-2번지","category":"음료식품 - 정육점"},{"name":"야고버상회","tel":"031-675-3615","addr":"경기도 안성시 성남동 238-2번지","category":"음료식품 - 기타음료식품"}]},{"lat":"37.002659906","long":"127.27232395","items":[{"name":"다림유통","tel":"031-673-6351","addr":"경기도 안성시 성남동 160-5번지","category":"음료식품 - 농·축·수산품"}]},{"lat":"37.001915307","long":"127.27087206","items":[{"name":"더스타일 안성점","tel":"","addr":"경기도 안성시 성남동 203-13번지","category":"의류 - 정장"}]},{"lat":"37.002023612","long":"127.2707938","items":[{"name":"모모의산책","tel":"031-575-1809","addr":"경기도 안성시 성남동 203-14번지","category":"문화.취미 - 애완동물"}]},{"lat":"37.002445663","long":"127.27143566","items":[{"name":"베지밀안성대리점","tel":"031-675-9311","addr":"경기도 안성시 성남동 252-2번지","category":"음료식품 - 기타음료식품"}]},{"lat":"37.003356952","long":"127.27089959","items":[{"name":"양귀비","tel":"031-676-5452","addr":"경기도 안성시 성남동 311","category":"일반휴게음식 - 일반한식"}]},{"lat":"37.002912534","long":"127.27217879","items":[{"name":"올가.위크토르","tel":"031-677-7488","addr":"경기도 안성시 성남동 157번지","category":"일반휴게음식 - 스넥"}]},{"lat":"37.002382106","long":"127.27164889","items":[{"name":"잉크,토너충전","tel":"031-676-1067","addr":"경기도 안성시 성남동 249번지 신풍빌라 401호","category":"사무통신 - 기타 사무용품"}]},{"lat":"37.002389027","long":"127.27257015","items":[{"name":"중앙정보통신","tel":"031-671-3602","addr":"경기도 안성시 성남동 164-4번지","category":"사무통신 - 통신기기"}]},{"lat":"37.002942515","long":"127.27087567","items":[{"name":"증평상회","tel":"031-675-2719","addr":"경기도 안성시 성남동 232-3번지","category":"음료식품 - 미곡상"}]},{"lat":"37.002498225","long":"127.27209868","items":[{"name":"진 네트워크 인테리어","tel":"031-673-9621","addr":"경기도 안성시 성남동 258-6번지 1층","category":"사무통신 - 컴퓨터"}]},{"lat":"37.00277712","long":"127.27229066","items":[{"name":"키스정보통신","tel":"031-674-0789","addr":"경기도 안성시 성남동 156-2번지","category":"사무통신 - 통신기기"}]},{"lat":"37.00341132","long":"127.27076496","items":[{"name":"포플린(poplin)","tel":"","addr":"경기도 안성시 성남동 349번지","category":"의류 - 정장"}]},{"lat":"37.002221795","long":"127.27081696","items":[{"name":"히어로치킨","tel":"031-676-7519","addr":"경기도 안성시 성남동 203-42번지","category":"일반휴게음식 - 일반한식"}]}]