[{"lat":"37.233382216","long":"127.28408476","imageIndex":16,"items":[{"name":"MU:M 양지캠퍼스","tel":"031-339-5377","addr":"경기도 용인시 처인구 양지면 양지리 578-5번지 204호","indutype":"학원 - 기타 교육기관","category":"study"}]},{"lat":"37.228083488","long":"127.29914171","imageIndex":16,"items":[{"name":"기덕교육원","tel":"031-321-5225","addr":"경기도 용인시 처인구 양지면 제일리 666-4","indutype":"학원 - 예·체능계학원","category":"study"}]},{"lat":"37.230411508","long":"127.28294689","imageIndex":16,"items":[{"name":"김현복수학교습소","tel":"","addr":"경기도 용인시 처인구 양지면 남곡리 161-9번지","indutype":"학원 - 보습학원","category":"study"}]},{"lat":"37.246746216","long":"127.24672657","imageIndex":16,"items":[{"name":"남서울자동차운전전문학원","tel":"031-339-7660","addr":"경기도 용인시 처인구 양지면 주북리 545-2번지","indutype":"학원 - 기능학원","category":"study"}]},{"lat":"37.235914016","long":"127.31980624","imageIndex":16,"items":[{"name":"농업회사법인 아이러브파머스 주식회사","tel":"","addr":"경기도 용인시 처인구 양지면 평창리 137번지 2층 201호","indutype":"학원 - 기타 교육기관","category":"study"}]},{"lat":"37.235548255","long":"127.28636918","imageIndex":16,"items":[{"name":"다빈치미술학원","tel":"031-338-8076","addr":"경기도 용인시 처인구 양지면 양지리 450-2","indutype":"학원 - 예·체능계학원","category":"study"}]},{"lat":"37.236192229","long":"127.28459105","imageIndex":16,"items":[{"name":"더올림학원","tel":"031-333-0888","addr":"경기도 용인시 처인구 양지면 양지리 462-4번지 2층 전체","indutype":"학원 - 보습학원","category":"study"},{"name":"예일미술학원","tel":"031-332-4329","addr":"경기도 용인시 처인구 양지면 양지리 462-4번지 3층 승광빌딩","indutype":"학원 - 예·체능계학원","category":"study"}]},{"lat":"37.234940932","long":"127.28411309","imageIndex":16,"items":[{"name":"둥지태권도체육관","tel":"031-338-2587","addr":"경기도 용인시 처인구 양지면 양지리 593-3번지 2층","indutype":"학원 - 예·체능계학원","category":"study"},{"name":"레고스토리","tel":"","addr":"경기도 용인시 처인구 양지면 양지리 593-3번지","indutype":"학원 - 기타 교육기관","category":"study"}]},{"lat":"37.235748742","long":"127.28542332","imageIndex":16,"items":[{"name":"맨투맨에듀케이션","tel":"070-7543-5963","addr":"경기도 용인시 처인구 양지면 양지리 464-2번지","indutype":"학원 - 외국어학원","category":"study"}]},{"lat":"37.235778803","long":"127.28415001","imageIndex":16,"items":[{"name":"맨투맨전문과외영어교습소","tel":"031-334-0405","addr":"경기도 용인시 처인구 양지면 양지리 598-13번지","indutype":"학원 - 외국어학원","category":"study"}]},{"lat":"37.2360801","long":"127.29001113","imageIndex":16,"items":[{"name":"명도체육관","tel":"031-338-7826","addr":"경기도 용인시 처인구 양지면 437-2","indutype":"학원 - 예·체능계학원","category":"study"}]},{"lat":"37.236106349","long":"127.28281019","imageIndex":16,"items":[{"name":"바하피아노과외교습소","tel":"031-338-3743","addr":"경기도 용인시 처인구 양지면 양지리607-4","indutype":"학원 - 예·체능계학원","category":"study"}]},{"lat":"37.230554018","long":"127.28364606","imageIndex":16,"items":[{"name":"블루앤트","tel":"070-4249-6274","addr":"경기도 용인시 처인구 양지면 남곡리 152-11번지 A동 302호","indutype":"학원 - 보습학원","category":"study"}]},{"lat":"37.234941975","long":"127.2836736","imageIndex":16,"items":[{"name":"빅쓰리보습학원","tel":"031-338-1115","addr":"경기도 용인시 처인구 양지면 양지리 592-7번지 일류학원 3층 1호","indutype":"학원 - 기타 교육기관","category":"study"},{"name":"이엠하이클래스학원","tel":"031-338-6231","addr":"경기도 용인시 처인구 양지면 양지리 592-7번지 2층 일부","indutype":"학원 - 보습학원","category":"study"}]},{"lat":"37.230688904","long":"127.28375925","imageIndex":16,"items":[{"name":"사랑샘피아노학원","tel":"031-338-4520","addr":"경기도 용인시 처인구 양지면 남곡리 152-12번지 2층","indutype":"학원 - 예·체능계학원","category":"study"}]},{"lat":"37.236131806","long":"127.28347517","imageIndex":16,"items":[{"name":"성지미술학원","tel":"031-321-3962","addr":"경기도 용인시 처인구 양지면 605-4번지","indutype":"학원 - 예·체능계학원","category":"study"}]},{"lat":"37.226245851","long":"127.30253739","imageIndex":16,"items":[{"name":"숲벌레","tel":"031-338-9780","addr":"경기도 용인시 처인구 양지면 제일리 291-1번지","indutype":"학원 - 기타 교육기관","category":"study"}]},{"lat":"37.228886384","long":"127.29875047","imageIndex":16,"items":[{"name":"숲이있는도시농부협동조합","tel":"031-338-8989","addr":"경기도 용인시 처인구 양지면 제일리 662-1번지","indutype":"학원 - 기타 교육기관","category":"study"}]},{"lat":"37.234938332","long":"127.28520618","imageIndex":16,"items":[{"name":"쌤스수학교습소","tel":"031-323-4756","addr":"경기도 용인시 처인구 양지면 양지리 907번지 양지마을신원아침도시 상가동 2층 201호","indutype":"학원 - 보습학원","category":"study"},{"name":"포이버스학원","tel":"031-323-4208","addr":"경기도 용인시 처인구 양지면 양지리 907번지 양지마을신원아침도시 상가동 2층","indutype":"학원 - 보습학원","category":"study"}]},{"lat":"37.235454649","long":"127.28405865","imageIndex":16,"items":[{"name":"아소비 용인양지","tel":"031-0000-0000","addr":"경기도 용인시 처인구 양지면 양지리 595-8번지 강림빌라 A동 102호","indutype":"학원 - 기타 교육기관","category":"study"}]},{"lat":"37.235576607","long":"127.28201939","imageIndex":16,"items":[{"name":"아이멘토","tel":"","addr":"경기도 용인시 처인구 양지면 양지리 619-2번지 은빛마을 다동 401호","indutype":"학원 - 기타 교육기관","category":"study"}]},{"lat":"37.232998332","long":"127.29744809","imageIndex":16,"items":[{"name":"알렉스의 기타교실","tel":"031-335-9526","addr":"경기도 용인시 처인구 양지면 양지리 115-1번지","indutype":"학원 - 예·체능계학원","category":"study"}]},{"lat":"37.236584053","long":"127.28653082","imageIndex":16,"items":[{"name":"양지도레미학원","tel":"031-338-8840","addr":"경기도 용인시 처인구 양지면 양지리 410-17번지 1층","indutype":"학원 - 예·체능계학원","category":"study"}]},{"lat":"37.234221807","long":"127.28717557","imageIndex":16,"items":[{"name":"양지아이비학원","tel":"031-333-7553","addr":"경기도 용인시 처인구 양지면 양지리 445-2번지 3층","indutype":"학원 - 보습학원","category":"study"}]},{"lat":"37.235859173","long":"127.28445458","imageIndex":16,"items":[{"name":"양지피아노학원","tel":"031-338-3662","addr":"경기도 용인시 처인구 양지면 양지리598-6","indutype":"학원 - 예·체능계학원","category":"study"}]},{"lat":"37.235133617","long":"127.28264883","imageIndex":16,"items":[{"name":"양지한국보습학원","tel":"031-322-4222","addr":"경기도 용인시 처인구 양지면 양지리 619-12번지 2층","indutype":"학원 - 보습학원","category":"study"}]},{"lat":"37.234274015","long":"127.28417823","imageIndex":16,"items":[{"name":"엑스피엘 태권도","tel":"031-321-9546","addr":"경기도 용인시 처인구 양지면 양지리 575-4번지","indutype":"학원 - 예·체능계학원","category":"study"}]},{"lat":"37.235914037","long":"127.28411671","imageIndex":16,"items":[{"name":"옥스퍼드영어학원","tel":"031-338-7964","addr":"경기도 용인시 처인구 양지면 양지리 598-11번지 2층","indutype":"학원 - 외국어학원","category":"study"}]},{"lat":"37.235937822","long":"127.28548037","imageIndex":16,"items":[{"name":"와이제이에듀힐학원","tel":"031-275-5805","addr":"경기도 용인시 처인구 양지면 양지리 464-1번지 교동회관","indutype":"학원 - 보습학원","category":"study"}]},{"lat":"37.247518583","long":"127.27281","imageIndex":16,"items":[{"name":"용인아카데미입시학원","tel":"031-333-2233","addr":"경기도 용인시 처인구 양지면 주북리59-1","indutype":"회원제형태 - 학원","category":"study"}]},{"lat":"37.238414261","long":"127.28606436","imageIndex":16,"items":[{"name":"용인안전평생교육원","tel":"031-338-9287","addr":"경기도 용인시 처인구 양지면 양지리379","indutype":"학원 - 기타 교육기관","category":"study"}]},{"lat":"37.236635914","long":"127.29117397","imageIndex":16,"items":[{"name":"용인포니체험학습장","tel":"031-322-8522","addr":"경기도 용인시 처인구 양지면 양지리 218번지","indutype":"학원 - 기타 교육기관","category":"study"}]},{"lat":"37.241967959","long":"127.30642018","imageIndex":16,"items":[{"name":"우기부기","tel":"031-322-7580","addr":"경기도 용인시 처인구 양지면 제일리 474-121번지","indutype":"학원 - 기타 교육기관","category":"study"}]},{"lat":"37.233887968","long":"127.28736589","imageIndex":16,"items":[{"name":"월드프랩 보습학원","tel":"031-338-8302","addr":"경기도 용인시 처인구 양지면 양지리478-3","indutype":"학원 - 보습학원","category":"study"}]},{"lat":"37.234777865","long":"127.28448436","imageIndex":16,"items":[{"name":"웨이하이중국어학원","tel":"031-338-3384","addr":"경기도 용인시 처인구 양지면 양지리590-1,3층","indutype":"회원제형태 - 학원","category":"study"},{"name":"지니플러스학원","tel":"031-338-3661","addr":"경기도 용인시 처인구 양지면 양지리590-1외3필지나-201","indutype":"학원 - 보습학원","category":"study"}]},{"lat":"37.235715009","long":"127.28445404","imageIndex":16,"items":[{"name":"윌리샘(WillysemEnglish)영어교습소","tel":"031-323-0579","addr":"경기도 용인시 처인구 양지면 양지리 598-10번지 1층","indutype":"학원 - 외국어학원","category":"study"}]},{"lat":"37.235327515","long":"127.28447514","imageIndex":16,"items":[{"name":"윤쌤의창의수학교습소","tel":"","addr":"경기도 용인시 처인구 양지면 양지리 595-1번지 1층","indutype":"학원 - 보습학원","category":"study"}]},{"lat":"37.23549871","long":"127.28447578","imageIndex":16,"items":[{"name":"이엘학원","tel":"031-328-2655","addr":"경기도 용인시 처인구 양지면 양지리 596-1번지 2층","indutype":"학원 - 보습학원","category":"study"}]},{"lat":"37.231216707","long":"127.27378858","imageIndex":16,"items":[{"name":"조이풀키즈 양지몬테소리 어린이집","tel":"031-321-3666","addr":"경기도 용인시 처인구 양지면 양지리 766-14","indutype":"학원 - 유아원","category":"study"}]},{"lat":"37.242469277","long":"127.25815203","imageIndex":16,"items":[{"name":"주식회사창의체험","tel":"031-323-2028","addr":"경기도 용인시 처인구 양지면 주북리 253-2번지","indutype":"학원 - 기타 교육기관","category":"study"}]},{"lat":"37.261632452","long":"127.26714493","imageIndex":16,"items":[{"name":"창작공간미술교습소","tel":"031-321-1429","addr":"경기도 용인시 처인구 양지면 대대리 457번지 B동 101호","indutype":"학원 - 예·체능계학원","category":"study"}]},{"lat":"37.240031342","long":"127.3026483","imageIndex":16,"items":[{"name":"통이","tel":"","addr":"경기도 용인시 처인구 양지면 양지리 2번지 담안빌라 A동 401호","indutype":"학원 - 기타 교육기관","category":"study"}]},{"lat":"37.236216224","long":"127.28586456","imageIndex":16,"items":[{"name":"피아체음악학원","tel":"031-321-4579","addr":"경기도 용인시 처인구 양지면 양지리 460-10번지 2층","indutype":"학원 - 예·체능계학원","category":"study"}]},{"lat":"37.270051813","long":"127.26544938","imageIndex":16,"items":[{"name":"한터농원영농조합법인","tel":"031-332-3685","addr":"경기도 용인시 처인구 양지면 대대리 95-1번지 1층 축사","indutype":"학원 - 기타 교육기관","category":"study"}]},{"lat":"37.234025545","long":"127.28256585","imageIndex":16,"items":[{"name":"홍쌤과외교실","tel":"031-323-1695","addr":"경기도 용인시 처인구 양지면 양지리 568-11번지 현대파크 102호","indutype":"학원 - 보습학원","category":"study"}]}]