[{"lat":"37.846454164","long":"127.35542864","items":[{"name":"GS25가평신상리점","tel":"","addr":"경기도 가평군 조종면 신상리 131-1번지","category":"유통업 영리 - 편 의 점"}]},{"lat":"37.853037351","long":"127.35631217","items":[{"name":"Madam-Craft (Eco friendly Craft Art)","tel":"031-584-7273","addr":"경기도 가평군 조종면 신상리 206-10번지 1층 1호","category":"문화.취미 - 민예·공예품"},{"name":"운악마트","tel":"031-585-7227","addr":"경기도 가평군 조종면 신상리 206-10번지 운악마트","category":"유통업 영리 - 슈퍼마켓"},{"name":"커피앤크래프트(COFFEE N CRAFT)","tel":"070-4133-4958","addr":"경기도 가평군 조종면 신상리 206-10번지 1층 1호","category":"일반휴게음식 - 서양음식"}]},{"lat":"37.837505351","long":"127.32812187","items":[{"name":"SK산업가스","tel":"031-353-0902","addr":"경기도 가평군 조종면 신상리 749번지","category":"연료판매점 - 기타연료"}]},{"lat":"37.853921004","long":"127.35606641","items":[{"name":"가평사랑전원주택","tel":"031-584-3882","addr":"경기도 가평군 조종면 신상리 206-3번지","category":"용역 서비스 - 기타용역서비스"},{"name":"운악산약초식당","tel":"031-584-1234","addr":"경기도 가평군 조종면 신상리 206-3번지","category":"일반휴게음식 - 일반한식"}]},{"lat":"37.854759713","long":"127.35578635","items":[{"name":"강가에서가든","tel":"031-585-5944","addr":"경기도 가평군 조종면 신상리 213-2","category":"일반휴게음식 - 일반한식"},{"name":"로자이크 (losaic)","tel":"","addr":"경기도 가평군 조종면 신상리 213-2번지 강가에서 2층 201호","category":"가구 - 기타가구"}]},{"lat":"37.837254448","long":"127.33728832","items":[{"name":"강원농원","tel":"031-585-7437","addr":"경기도 가평군 조종면 신상리 433번지","category":"음료식품 - 농·축·수산품"}]},{"lat":"37.846143727","long":"127.35379113","items":[{"name":"고인돌","tel":"031-585-3692","addr":"경기도 가평군 조종면 신상리 123","category":"숙박업 - 여관/기타숙박업"}]},{"lat":"37.852731345","long":"127.35620845","items":[{"name":"금강막국수숯불닭갈비(현리점)","tel":"031-585-7910","addr":"경기도 가평군 조종면 신상리 206-5번지","category":"일반휴게음식 - 일반한식"}]},{"lat":"37.844920433","long":"127.35312638","items":[{"name":"꽃보다유원지","tel":"031-585-9590","addr":"경기도 가평군 조종면 신상리 115-2번지","category":"음료식품 - 기타음료식품"}]},{"lat":"37.85155791","long":"127.34784025","items":[{"name":"꿈에","tel":"031-585-1713","addr":"경기도 가평군 조종면 신상리 262-57번지","category":"숙박업 - 여관/기타숙박업"}]},{"lat":"37.845564473","long":"127.34859626","items":[{"name":"녹천농원","tel":"031-585-0958","addr":"경기도 가평군 조종면 신상리 296-2번지","category":"일반휴게음식 - 일반한식"}]},{"lat":"37.837258592","long":"127.35139751","items":[{"name":"대박가든","tel":"031-585-3433","addr":"경기도 가평군 조종면 신상리 333-13번지","category":"일반휴게음식 - 일반한식"}]},{"lat":"37.84556706","long":"127.35980989","items":[{"name":"돌샘농원","tel":"050-2011-1587","addr":"경기도 가평군 조종면 신상리 10번지","category":"음료식품 - 농·축·수산품"}]},{"lat":"37.848787859","long":"127.3553375","items":[{"name":"문교농원","tel":"031-585-0942","addr":"경기도 가평군 조종면 신상리 190-2번지","category":"음료식품 - 농·축·수산품"}]},{"lat":"37.847757079","long":"127.34745897","items":[{"name":"물가펜션(민박)","tel":"031-585-3040","addr":"경기도 가평군 조종면 신상리 275-1번지","category":"숙박업 - 여관/기타숙박업"}]},{"lat":"37.835617968","long":"127.34865208","items":[{"name":"미각막국수","tel":"031-111-1111","addr":"경기도 가평군 조종면 신상리 349-5번지 1층","category":"일반휴게음식 - 일반한식"}]},{"lat":"37.852723936","long":"127.35567438","items":[{"name":"사랑굿","tel":"031-584-9627","addr":"경기도 가평군 조종면 신상리 202-3번지 1층","category":"일반휴게음식 - 일반한식"}]},{"lat":"37.845089938","long":"127.35065043","items":[{"name":"산달랭이","tel":"031-585-7547","addr":"경기도 가평군 조종면 신상리 115-6번지","category":"음료식품 - 기타음료식품"}]},{"lat":"37.846704792","long":"127.34684056","items":[{"name":"새연리조트","tel":"031-585-3330","addr":"경기도 가평군 조종면 신상리 475-3번지","category":"숙박업 - 여관/기타숙박업"}]},{"lat":"37.838649398","long":"127.33781719","items":[{"name":"세곡농원","tel":"031-584-3457","addr":"경기도 가평군 조종면 신상리 452-1,10/1","category":"음료식품 - 농·축·수산품"}]},{"lat":"37.849814673","long":"127.35542192","items":[{"name":"소희네묵집","tel":"031-585-5321","addr":"경기도 가평군 조종면 신상리 191-1번지","category":"일반휴게음식 - 일반한식"}]},{"lat":"37.853144725","long":"127.35050646","items":[{"name":"솔밭펜션 캠핑장","tel":"031-584-3944","addr":"경기도 가평군 조종면 신상리 261-3번지","category":"숙박업 - 여관/기타숙박업"}]},{"lat":"37.842425404","long":"127.35595479","items":[{"name":"시골풍경","tel":"031-584-8987","addr":"경기도 가평군 조종면 신상리 89번지","category":"음료식품 - 농·축·수산품"}]},{"lat":"37.850092529","long":"127.3467654","items":[{"name":"시크","tel":"031-585-9969","addr":"경기도 가평군 조종면 신상리 512-13번지","category":"숙박업 - 여관/기타숙박업"}]},{"lat":"37.837644105","long":"127.35203549","items":[{"name":"신촌농원","tel":"031-585-0981","addr":"경기도 가평군 조종면 신상리 339-1번지","category":"음료식품 - 기타음료식품"}]},{"lat":"37.839232729","long":"127.35406511","items":[{"name":"신촌방앗간","tel":"031-585-2166","addr":"경기도 가평군 조종면 신상리 61-2번지","category":"음료식품 - 제과점"}]},{"lat":"37.847148044","long":"127.35537514","items":[{"name":"썬일가든","tel":"031-585-0095","addr":"경기도 가평군 조종면 신상리 170-2번지 썬일가든","category":"일반휴게음식 - 일반한식"},{"name":"씨유 가평신상리","tel":"031-584-4535","addr":"경기도 가평군 조종면 신상리 170-2번지","category":"유통업 영리 - 편 의 점"},{"name":"씨유가평신상리점","tel":"031-584-4535","addr":"경기도 가평군 조종면 신상리 170-2번지","category":"유통업 영리 - 편 의 점"}]},{"lat":"37.846203401","long":"127.35492755","items":[{"name":"양추매점","tel":"031-584-4035","addr":"경기도 가평군 조종면 신상리 130-1번지 양추매점","category":"음료식품 - 기타음료식품"}]},{"lat":"37.853558457","long":"127.34767913","items":[{"name":"용수그린랜드","tel":"031-585-9995","addr":"경기도 가평군 조종면 신상리 257-1번지","category":"숙박업 - 여관/기타숙박업"}]},{"lat":"37.848508811","long":"127.35525664","items":[{"name":"우렁쌈밥","tel":"031-584-3188","addr":"경기도 가평군 조종면 신상리 190-5번지","category":"일반휴게음식 - 일반한식"}]},{"lat":"37.857252435","long":"127.35373015","items":[{"name":"우리유원지","tel":"031-585-1530","addr":"경기도 가평군 조종면 신상리 226-3번지","category":"음료식품 - 기타음료식품"}]},{"lat":"37.833950035","long":"127.33973842","items":[{"name":"운악농원","tel":"031-585-1083","addr":"경기도 가평군 조종면 신상리 652-15번지","category":"음료식품 - 농·축·수산품"}]},{"lat":"37.849532355","long":"127.35643179","items":[{"name":"착한농원","tel":"031-584-6600","addr":"경기도 가평군 조종면 신상리 160-3","category":"음료식품 - 기타음료식품"}]},{"lat":"37.854174824","long":"127.3494773","items":[{"name":"펜션테마여행","tel":"031-584-7222","addr":"경기도 가평군 조종면 신상리 259","category":"숙박업 - 여관/기타숙박업"}]},{"lat":"37.849425915","long":"127.35587454","items":[{"name":"풍천장어","tel":"031-584-1616","addr":"경기도 가평군 조종면 신상리 163-17번지 풍천장어","category":"일반휴게음식 - 일반한식"}]},{"lat":"37.846980298","long":"127.35422683","items":[{"name":"하늘가득 너를 담고","tel":"031-584-9096","addr":"경기도 가평군 조종면 신상리 128번지","category":"일반휴게음식 - 일반한식"}]},{"lat":"37.836540135","long":"127.35062165","items":[{"name":"하림","tel":"","addr":"경기도 가평군 조종면 신상리 343-1번지 1층","category":"일반휴게음식 - 일반한식"}]},{"lat":"37.838118358","long":"127.32798824","items":[{"name":"한중농원","tel":"031-585-5880","addr":"경기도 가평군 조종면 신상리 746번지 한중농원","category":"음료식품 - 농·축·수산품"}]},{"lat":"37.854091531","long":"127.35022684","items":[{"name":"해피투데이","tel":"031-585-5074","addr":"경기도 가평군 조종면 신상리 260-9번지","category":"숙박업 - 여관/기타숙박업"}]}]