[{"lat":"37.810337858","long":"127.10886709","items":[{"name":"(주)그린세계","tel":"031-844-4300","addr":"경기도 양주시 삼숭동 98-33번지","category":"용역 서비스 - 기타용역서비스"},{"name":"아로리","tel":"031-847-0526","addr":"경기도 양주시 삼숭동 98-33번지 1층","category":"일반휴게음식 - 일반한식"}]},{"lat":"37.807197598","long":"127.0932034","items":[{"name":"(주)금빛식자재마트","tel":"031-856-9665","addr":"경기도 양주시 삼숭동 545-1번지","category":"유통업 영리 - 슈퍼마켓"},{"name":"미소육화 축산물 도매센타","tel":"031-841-1415","addr":"경기도 양주시 삼숭동 545-1번지","category":"음료식품 - 정육점"},{"name":"삼천리자전거프리미엄스토어 (옥정점)","tel":"031-821-3006","addr":"경기도 양주시 삼숭동 545-1번지","category":"레져용품 - 스포츠·레져용품"},{"name":"이디야 양주미소점","tel":"031-841-4323","addr":"경기도 양주시 삼숭동 545-1번지 1층 일부","category":"일반휴게음식 - 서양음식"}]},{"lat":"37.795952433","long":"127.1058378","items":[{"name":"(주)양주한수위학원","tel":"031-821-3424","addr":"경기도 양주시 삼숭동 685-1번지 양주자이프라자 2310호","category":"학원 - 보습학원"},{"name":"1%학원","tel":"070-8129-0783","addr":"경기도 양주시 삼숭동 685-1번지 양주자이프라자 2층 2243호 2236","category":"회원제형태 - 학원"},{"name":"CNS학원","tel":"031-840-3801","addr":"경기도 양주시 삼숭동 685-1번지 양주자이프라자 2226,2239","category":"학원 - 보습학원"},{"name":"GS25양주자이점","tel":"","addr":"경기도 양주시 삼숭동 685-1번지 양주프라자 1층 2115호","category":"유통업 영리 - 편 의 점"},{"name":"SS학원","tel":"031-876-6476","addr":"경기도 양주시 삼숭동 685-1번지 양주자이프라자 2244호","category":"학원 - 보습학원"},{"name":"감탄삼숭점","tel":"031-844-2770","addr":"경기도 양주시 삼숭동 685-1번지 양주자이프라자 12101호","category":"일반휴게음식 - 스넥"},{"name":"거호삼승도장","tel":"031-821-3911","addr":"경기도 양주시 삼숭동 685-1번지 양주프라자 1동 2302호","category":"레저업소 - 기타레져업소"},{"name":"고려 태권 아카데미","tel":"031-846-6969","addr":"경기도 양주시 삼숭동 685-1번지 양주자이프라자 2층 2209,2221호","category":"학원 - 예·체능계학원"},{"name":"고창걸이비인후과의원","tel":"031-848-3075","addr":"경기도 양주시 삼숭동 685-1번지 GS양주프라자 2313호","category":"의원 - 의원"},{"name":"기바김밥","tel":"031-879-1289","addr":"경기도 양주시 삼숭동 685-1번지 양주자이프라자 2157호","category":"일반휴게음식 - 스넥"},{"name":"기분좋은날(헤어짱)","tel":"031-841-0031","addr":"경기도 양주시 삼숭동 685-1번지 양주자이프라자 2139호","category":"보건위생 - 미용원"},{"name":"김밥사랑","tel":"031-844-1511","addr":"경기도 양주시 삼숭동 685-1번지 양주자이프라자 2143호","category":"일반휴게음식 - 일반한식"},{"name":"꿍닭 꿍닭","tel":"031-848-8005","addr":"경기도 양주시 삼숭동 685-1번지 양주자이프라자 2102호","category":"일반휴게음식 - 일반한식"},{"name":"네이처컬렉션 양주삼숭점","tel":"031-841-1744","addr":"경기도 양주시 삼숭동 685-1번지 양주프라자1상가 2110호 1층","category":"보건위생 - 화장품"},{"name":"늘봄약국","tel":"031-856-7384","addr":"경기도 양주시 삼숭동 685-1번지 양주자이프라자 2층 2215호","category":"약국 - 약국"},{"name":"늘푸른가정의학과","tel":"031-843-8279","addr":"경기도 양주시 삼숭동 685-1번지 양주프라자제1상가 2207동 2208호","category":"의원 - 의원"},{"name":"능률학원","tel":"031-841-8805","addr":"경기도 양주시 삼숭동 685-1번지 양주자이프라자 3층 2309호","category":"학원 - 보습학원"},{"name":"더 퀸","tel":"031-821-3536","addr":"경기도 양주시 삼숭동 685-1번지 양주프라자1 1층 2123호","category":"보건위생 - 피부미용실"},{"name":"데코방","tel":"031-821-5689","addr":"경기도 양주시 삼숭동 685-1번지 양주자이프라자 2150호","category":"신변잡화 - 기타잡화"},{"name":"돈경","tel":"031-848-5399","addr":"경기도 양주시 삼숭동 685-1번지 양주자이프라자 2156호","category":"일반휴게음식 - 일반한식"},{"name":"디케이(DK)","tel":"02-472-3624","addr":"경기도 양주시 삼숭동 685-1번지 양주자이프라자1차 2138호","category":"가구 - 일반가구"},{"name":"뚜레쥬르양주자이점","tel":"031-821-0163","addr":"경기도 양주시 삼숭동 685-1번지 양주자이프라자 상가 1층 2112호","category":"음료식품 - 제과점"},{"name":"란샵(Ran#)","tel":"","addr":"경기도 양주시 삼숭동 685-1번지 양주자이프라자 2층 2216호","category":"의류 - 정장"},{"name":"리틀홈파티","tel":"070-4221-2325","addr":"경기도 양주시 삼숭동 685-1번지 양주자이프라자 2119호","category":"의류 - 정장"},{"name":"마카롱이야기","tel":"070-0000-0000","addr":"경기도 양주시 삼숭동 685-1번지 양주자이프라자 1층 2136호","category":"일반휴게음식 - 일반한식"},{"name":"맘스터치","tel":"031-841-1008","addr":"경기도 양주시 삼숭동 685-1번지 양주프라자 1상가2118,2158호","category":"일반휴게음식 - 서양음식"},{"name":"맛있다면","tel":"031-847-5191","addr":"경기도 양주시 삼숭동 685-1번지 양주자이프라자 2145호","category":"일반휴게음식 - 일반한식"},{"name":"몽의필영어교습소","tel":"070-8272-7911","addr":"경기도 양주시 삼숭동 685-1번지 양주자이프라자 2140호","category":"회원제형태 - 학원"},{"name":"민소아청소년과의원","tel":"031-856-1175","addr":"경기도 양주시 삼숭동 685-1번지 양주자이프라자1상가 2105호","category":"의원 - 의원"},{"name":"민제한의원","tel":"031-841-7582","addr":"경기도 양주시 삼숭동 685-1GS양주프라자3층2301.2314","category":"의원 - 한의원"},{"name":"버무리 떡볶이(양주자이점)","tel":"031-856-0203","addr":"경기도 양주시 삼숭동 685-1번지 양주자이프라자 2116호","category":"일반휴게음식 - 일반한식"},{"name":"베러댄와플 양주점","tel":"031-846-8100","addr":"경기도 양주시 삼숭동 685-1번지 양주프라자 2125호","category":"일반휴게음식 - 스넥"},{"name":"베스킨라빈스","tel":"031-844-4122","addr":"경기도 양주시 삼숭동 685-1번지 양주자이프라자 1층 2112호","category":"음료식품 - 제과점"},{"name":"보아스음악학원","tel":"031-846-2003","addr":"경기도 양주시 삼숭동 685-1번지 양주자이프라자 2302호","category":"학원 - 예·체능계학원"},{"name":"불타는 춘천닭갈비","tel":"031-848-7770","addr":"경기도 양주시 삼숭동 685-1번지 LG양주프라자1상가 2217호","category":"일반휴게음식 - 일반한식"},{"name":"뷰티모아","tel":"031-847-4759","addr":"경기도 양주시 삼숭동 685-1번지 양주프라자 1층 2124호","category":"보건위생 - 화장품"},{"name":"비상잉글리시아이학원","tel":"031-856-0582","addr":"경기도 양주시 삼숭동 685-1번지 양주자이프라자 3층 2303호","category":"학원 - 보습학원"},{"name":"비아네일","tel":"02-1111-1111","addr":"경기도 양주시 삼숭동 685-1번지 양주자이프라자1 2133호","category":"보건위생 - 피부미용실"},{"name":"빛나는 구름","tel":"031-843-3989","addr":"경기도 양주시 삼숭동 685-1번지 양주자이프라자1 2층 2223호","category":"의류 - 정장"},{"name":"빵이가득한집","tel":"031-2601-9289","addr":"경기도 양주시 삼숭동 685-1번지 양주프라자1 2150호","category":"음료식품 - 제과점"},{"name":"삼겹살&잔치","tel":"031-821-2582","addr":"경기도 양주시 삼숭동 685-1번지 양주자이프라자 2149호","category":"일반휴게음식 - 일반한식"},{"name":"삼성영어삼숭학원","tel":"031-824-0307","addr":"경기도 양주시 삼숭동 685-1번지 양주프라자 2240호","category":"학원 - 보습학원"},{"name":"샴푸보이","tel":"031-821-3637","addr":"경기도 양주시 삼숭동 685-1번지 프라자1상가 2128호","category":"보건위생 - 미용원"},{"name":"서울식당","tel":"031-821-0920","addr":"경기도 양주시 삼숭동 685-1번지 양주프라자1 2231호","category":"일반휴게음식 - 일반한식"},{"name":"서울좋은치과","tel":"031-846-2842","addr":"경기도 양주시 삼숭동 685-1번지 양주자이프라자 2304호","category":"의원 - 치과의원"},{"name":"설탕쿠키","tel":"031-856-3309","addr":"경기도 양주시 삼숭동 685-1번지 양주자이프라자 2141호","category":"보건위생 - 미용원"},{"name":"성모예일내과","tel":"031-821-7311","addr":"경기도 양주시 삼숭동 685-1번지 GS양주프라자 2305호","category":"의원 - 의원"},{"name":"세탁공화국","tel":"031-841-1838","addr":"경기도 양주시 삼숭동 685-1번지 양주프라자 1층 2146호","category":"수리서비스 - 세탁소"},{"name":"손뜨개공방 별","tel":"","addr":"경기도 양주시 삼숭동 685-1번지 양주자이프라자 2233호","category":"문화.취미 - 문화취미기타"},{"name":"송진영오케스트라음악학원","tel":"070-8600-8788","addr":"경기도 양주시 삼숭동 685-1번지 양주자이프라자 4층 2403호","category":"학원 - 예·체능계학원"},{"name":"송진영음악학원","tel":"070-8600-8788","addr":"경기도 양주시 삼숭동 685-1번지 양주자이프라자 3층 2308호","category":"학원 - 예·체능계학원"},{"name":"스마트학원","tel":"031-844-0808","addr":"경기도 양주시 삼숭동 685-1번지 양주자이프라자 3층 2311호","category":"학원 - 보습학원"},{"name":"스튜디오도담","tel":"031-111-1111","addr":"경기도 양주시 삼숭동 685-1번지 양주자이프라자 2층 2216호","category":"광학제품 - 사진관"},{"name":"시골집반찬가게","tel":"031-846-8885","addr":"경기도 양주시 삼숭동 685-1번지 양주자이프라자 1층 2150호","category":"음료식품 - 기타음료식품"},{"name":"신데렐라헤어샵","tel":"031-840-5522","addr":"경기도 양주시 삼숭동 685-1번지 양주자이프라자 1층 2144호","category":"보건위생 - 미용원"},{"name":"아름다움","tel":"031-856-2000","addr":"경기도 양주시 삼숭동 685-1번지 양주자이프라자 2층 2242호","category":"보건위생 - 화장품"},{"name":"양주2동 주민자치센터","tel":"031-844-8776","addr":"경기도 양주시 삼숭동 685-1번지 양주자이프라자 2401호","category":"문화.취미 - 문화취미기타"},{"name":"양주2동 주민자치센터 삼숭센터","tel":"","addr":"경기도 양주시 삼숭동 685-1번지 양주자이프라자 2401호","category":"문화.취미 - 문화취미기타"},{"name":"엄지공주","tel":"031-848-3428","addr":"경기도 양주시 삼숭동 685-1번지 양주프라자 2층 2229호","category":"신변잡화 - 기타잡화"},{"name":"엉터리 분식","tel":"031-847-5191","addr":"경기도 양주시 삼숭동 685-1번지 양주자이프라자 2145호","category":"일반휴게음식 - 일반한식"},{"name":"옛날통닭","tel":"031-847-3362","addr":"경기도 양주시 삼숭동 685-1번지 양주프라자 2111호","category":"일반휴게음식 - 일반한식"},{"name":"우리약국","tel":"031-848-6755","addr":"경기도 양주시 삼숭동 685-1번지 양주자이프라자 3층 2313호","category":"약국 - 약국"},{"name":"원난 중국어교습소","tel":"02-1577-0000","addr":"경기도 양주시 삼숭동 685-1번지 양주자이프라자 2235호","category":"학원 - 외국어학원"},{"name":"유진펫싸롱","tel":"031-821-4661","addr":"경기도 양주시 삼숭동 685-1번지 양주자이프라자 2133호","category":"문화.취미 - 애완동물"},{"name":"음악나무음악학원","tel":"031-841-4825","addr":"경기도 양주시 삼숭동 202-24GS양주프라자1층2408","category":"회원제형태 - 학원"},{"name":"이지스(EZIS)","tel":"031-111-1111","addr":"경기도 양주시 삼숭동 685-1번지 양주자이프라자 4층 2405호","category":"용역 서비스 - 종합용역"},{"name":"자이떡방","tel":"031-821-6170","addr":"경기도 양주시 삼숭동 685-1번지 프라자1상가2148호","category":"음료식품 - 제과점"},{"name":"자이안경원","tel":"031-821-0092","addr":"경기도 양주시 삼숭동 685-1번지 양주프라자1상가2102","category":"보건위생 - 안경"},{"name":"자이정육마트","tel":"031-848-2769","addr":"경기도 양주시 삼숭동 685-1번지 양주프라자1차 2126호","category":"음료식품 - 정육점"},{"name":"자이침장수예","tel":"070-7567-7039","addr":"경기도 양주시 삼숭동 685-1번지 양주프라자1상가2146호","category":"직물 - 침구·수예점"},{"name":"자이프라자약국","tel":"031-842-0328","addr":"경기도 양주시 삼숭동 685-1번지 양주자이프라자 1층 2127호","category":"약국 - 약국"},{"name":"점핑하이 삼숭점","tel":"","addr":"경기도 양주시 삼숭동 685-1번지 양주자이프라자 2237호","category":"건강식품 - 기타건강식품"},{"name":"쥬니봉봉","tel":"","addr":"경기도 양주시 삼숭동 685-1번지 양주자이프라자 1층","category":"의류 - 아동의류"},{"name":"참사랑약국","tel":"031-821-0142","addr":"경기도 양주시 삼숭동 685-1번지 자이프라자 2층 2218호","category":"약국 - 약국"},{"name":"철수머리","tel":"00-0000-0000","addr":"경기도 양주시 삼숭동 685-1번지 양주자이프라자 1층 2137호","category":"보건위생 - 미용원"},{"name":"카라헤어","tel":"031-847-8871","addr":"경기도 양주시 삼숭동 685-1번지 양주자이프라자 2131호","category":"보건위생 - 미용원"},{"name":"카페도일","tel":"031-821-5636","addr":"경기도 양주시 삼숭동 685-1번지 양주자이프라자 1층 2147호","category":"일반휴게음식 - 서양음식"},{"name":"캔들 오제이","tel":"031-856-2050","addr":"경기도 양주시 삼숭동 685-1번지 양주자이프라자 1층 2138호","category":"신변잡화 - 기타잡화"},{"name":"케네디어학원","tel":"031-824-7015","addr":"경기도 양주시 삼숭동 685-1번지 양주프라자 2402호","category":"회원제형태 - 학원"},{"name":"퀸즈헤나(양주지점)","tel":"031-847-5730","addr":"경기도 양주시 삼숭동 685-1번지 양주자이프라자 2층 2213호","category":"보건위생 - 미용원"},{"name":"태양약국","tel":"031-859-8569","addr":"경기도 양주시 삼숭동 685-1번지 양주자이프라자상가 2306호","category":"약국 - 약국"},{"name":"파리바게뜨","tel":"031-821-8203","addr":"경기도 양주시 삼숭동 685-1번지 양주프라자1상가 207호","category":"음료식품 - 제과점"},{"name":"파워스터디학원","tel":"031-821-1155","addr":"경기도 양주시 삼숭동 685-1번지 양주프라자1제 4층 2404호","category":"학원 - 보습학원"},{"name":"필아트삼숭미술학원","tel":"031-840-7482","addr":"경기도 양주시 삼숭동 685-1번지 양주자이프라자 2층 2241호","category":"학원 - 예·체능계학원"},{"name":"하모니음악학원","tel":"031-848-5964","addr":"경기도 양주시 삼숭동 685-1 양주프라자2219호~2220호","category":"학원 - 예·체능계학원"},{"name":"한아름 채소","tel":"031-847-2019","addr":"경기도 양주시 삼숭동 685-1번지 양주자이프라자 1층 2106호","category":"음료식품 - 농·축·수산품"},{"name":"헤어그루브","tel":"031-821-0111","addr":"경기도 양주시 삼숭동 685-1번지 GS자이양주프라자1상가 2층 242호","category":"보건위생 - 미용원"},{"name":"헤어도로시","tel":"031-846-4654","addr":"경기도 양주시 삼숭동 685-1번지 양주자이프라자 2층 2228호","category":"보건위생 - 미용원"},{"name":"홍선생미술","tel":"031-848-8895","addr":"경기도 양주시 삼숭동 685-1번지 프라자1상가 2층 2225호","category":"서적문구 - 일반서적"},{"name":"황지공인중개사사무소","tel":"031-840-4900","addr":"경기도 양주시 삼숭동 685-1번지 양주프라자1상가 2113호","category":"용역 서비스 - 부동산 중개·임대"},{"name":"휘트니스w삼숭점","tel":"032-000-0000","addr":"경기도 양주시 삼숭동 685-1번지 양주자이프라자 2층","category":"레저업소 - 헬스클럽"}]},{"lat":"37.802761253","long":"127.08597635","items":[{"name":"(주)형제미니중기","tel":"031-847-2004","addr":"경기도 양주시 삼숭동 628-16번지 1층","category":"기타 - 기계공구"}]},{"lat":"37.801479548","long":"127.10078132","items":[{"name":"(주)홈씨스드웰","tel":"031-543-1385","addr":"경기도 양주시 삼숭동 358-7번지","category":"주방용구 - 주방용구"}]},{"lat":"37.810760625","long":"127.1096172","items":[{"name":"B&A모터스","tel":"031-846-4100","addr":"경기도 양주시 삼숭동 96-35번지","category":"자동차정비 유지 - 자동차부품"}]},{"lat":"37.795816684","long":"127.10653019","items":[{"name":"BHC삼숭점","tel":"031-848-8212","addr":"경기도 양주시 삼숭동 202-35번지 양주프라자3.5102","category":"일반휴게음식 - 스넥"},{"name":"라헬 Rachel","tel":"031-821-0826","addr":"경기도 양주시 삼숭동 202-35번지 제지1층 5011,5012,5013호","category":"보건위생 - 미용재료"},{"name":"로티맘","tel":"031-841-0022","addr":"경기도 양주시 삼숭동 202-35번지 양주프라자3 1층 5105호","category":"일반휴게음식 - 서양음식"},{"name":"모닝글로리","tel":"031-841-1875","addr":"경기도 양주시 삼숭동 202-35번지 양주프라자3 1층 5106호","category":"서적문구 - 문구용품"},{"name":"벙커","tel":"070-4145-8871","addr":"경기도 양주시 삼숭동 202-35번지 양주프라자3상가 5006호 ,5007호,5008호","category":"일반휴게음식 - 서양음식"},{"name":"삼숭아이방방","tel":"070-7539-5655","addr":"경기도 양주시 삼숭동 202-35번지 5층","category":"레저업소 - 기타레져업소"},{"name":"에이스학원","tel":"031-840-3801","addr":"경기도 양주시 삼숭동 202-35번지 양주프라자 3차5205,5206호","category":"학원 - 보습학원"},{"name":"작은쉼터","tel":"070-8740-3894","addr":"경기도 양주시 삼숭동 202-35번지 양주프라자3 5109호","category":"유통업 영리 - 편 의 점"},{"name":"종이문화재단 경기양주삼숭 종이문화교육원","tel":"070-4226-1177","addr":"경기도 양주시 삼숭동 202-35번지 양주프라자3 1층 5107호","category":"문화.취미 - 문화취미기타"},{"name":"처갓집치킨(삼숭점)","tel":"031-846-9294","addr":"경기도 양주시 삼숭동 202-35번지 양주프라자3 1층 5103호","category":"일반휴게음식 - 스넥"},{"name":"쿨독","tel":"031-848-1478","addr":"경기도 양주시 삼숭동 202-35번지 양주프라자3 1층 5112호","category":"문화.취미 - 애완동물"},{"name":"튼튼e","tel":"031-821-2875","addr":"경기도 양주시 삼숭동 202-35양주프라자5201.5207","category":"의원 - 치과의원"},{"name":"포차매니아","tel":"031-846-9279","addr":"경기도 양주시 삼숭동 202-35번지 양주프라자3(제1층) 5104호","category":"일반휴게음식 - 일반한식"},{"name":"핫도그스타","tel":"031-846-5906","addr":"경기도 양주시 삼숭동 202-35번지 양주프라자3 1층 5109호","category":"일반휴게음식 - 서양음식"}]},{"lat":"37.796982516","long":"127.10234222","items":[{"name":"G-LED조명","tel":"031-2060-9675","addr":"경기도 양주시 삼숭동 267-11번지 4호","category":"건축자재 - 조명기구"},{"name":"양지공인중개사사무소","tel":"031-841-0019","addr":"경기도 양주시 삼숭동 267-11번지 9호","category":"용역 서비스 - 부동산 중개·임대"},{"name":"차헤어","tel":"","addr":"경기도 양주시 삼숭동 267-11번지 1층 6호","category":"보건위생 - 미용원"},{"name":"킹노래연습장","tel":"031-845-0774","addr":"경기도 양주시 삼숭동 267-11번지","category":"레저업소 - 노 래 방"}]},{"lat":"37.802476678","long":"127.10423448","items":[{"name":"GS25삼숭자이점","tel":"","addr":"경기도 양주시 삼숭동 688번지 양주자이6단지아파트 105호","category":"유통업 영리 - 편 의 점"}]},{"lat":"37.805867154","long":"127.0892615","items":[{"name":"GS25양주푸른점","tel":"031-821-3422","addr":"경기도 양주시 삼숭동 653-13번지 1층 101호","category":"유통업 영리 - 편 의 점"},{"name":"랩앤피플주식회사","tel":"031-846-0204","addr":"경기도 양주시 삼숭동 653-13번지 102호","category":"보건위생 - 의료용품"},{"name":"백년의짬뽕","tel":"031-848-4170","addr":"경기도 양주시 삼숭동 653-13번지 1층 102호","category":"일반휴게음식 - 중국식"}]},{"lat":"37.797816535","long":"127.10681683","items":[{"name":"GS25자이사랑점","tel":"031-847-5895","addr":"경기도 양주시 삼숭동 682-1번지 양주자이4단지상가 4106호,4107호","category":"유통업 영리 - 편 의 점"},{"name":"수학의달인삼숭2수학교습소","tel":"031-847-8108","addr":"경기도 양주시 삼숭동 682-1번지 양주자이아파트 1층 4101호","category":"학원 - 보습학원"},{"name":"자연머리","tel":"031-856-2867","addr":"경기도 양주시 삼숭동 682-1,4단지상가4102","category":"보건위생 - 미용원"},{"name":"자이문구팬시","tel":"031-846-7795","addr":"경기도 양주시 삼숭동 682-1상가-4101","category":"서적문구 - 문구용품"}]},{"lat":"37.799732698","long":"127.08790319","items":[{"name":"JJ모터스","tel":"031-841-7878","addr":"경기도 양주시 삼숭동 621번지","category":"자동차정비 유지 - 자동차정비"}]},{"lat":"37.806729955","long":"127.10328644","items":[{"name":"Joo reum","tel":"031-858-8261","addr":"경기도 양주시 삼숭동 150번지","category":"직물 - 옷감·직물"}]},{"lat":"37.797037393","long":"127.10136586","items":[{"name":"LG자이마트","tel":"031-821-7781","addr":"경기도 양주시 삼숭동 267-1.가-1","category":"유통업 영리 - 슈퍼마켓"},{"name":"씨유양주자이사거리점","tel":"031-821-7781","addr":"경기도 양주시 삼숭동 267-1번지 가1호","category":"유통업 영리 - 편 의 점"}]},{"lat":"37.80833882","long":"127.09700894","items":[{"name":"M.B.C 가구박람회","tel":"031-846-1054","addr":"경기도 양주시 삼숭동 538-3번지","category":"가구 - 일반가구"},{"name":"주노 트레이딩","tel":"","addr":"경기도 양주시 삼숭동 538-3번지","category":"의류 - 정장"},{"name":"태산창호 토탈 인테리어","tel":"031-821-0871","addr":"경기도 양주시 삼숭동 538-3번지","category":"건축자재 - 인테리어전문"}]},{"lat":"37.810947196","long":"127.11247919","items":[{"name":"R&H운동용품","tel":"031-843-3545","addr":"경기도 양주시 삼숭동 95-1번지","category":"레져용품 - 스포츠·레져용품"},{"name":"그늘집","tel":"031-111-1111","addr":"경기도 양주시 삼숭동 95-1번지 A동 2층 일부","category":"일반휴게음식 - 일반한식"}]},{"lat":"37.7967279","long":"127.10508952","items":[{"name":"SD수학","tel":"","addr":"경기도 양주시 삼숭동 683-2번지 양주프라자2 3206호","category":"학원 - 보습학원"},{"name":"가즈미용실","tel":"031-848-7373","addr":"경기도 양주시 삼숭동 683-2번지 1층 3120호 양주프라자2","category":"보건위생 - 미용원"},{"name":"꿈의김밥","tel":"031-842-7713","addr":"경기도 양주시 삼숭동 683-2번지 양주프라자2 2층 3227호","category":"일반휴게음식 - 스넥"},{"name":"드림팜","tel":"070-7579-2253","addr":"경기도 양주시 삼숭동 683-2번지 양주프라자2 2층 3212호","category":"보건위생 - 의료용품"},{"name":"로뎀스튜디오","tel":"031-825-8757","addr":"경기도 양주시 삼숭동 683-2번지 양주프라자 23221호","category":"광학제품 - 사진관"},{"name":"머리하는집","tel":"031-847-3218","addr":"경기도 양주시 삼숭동 683-2번지 양주프라자2상가 3210호","category":"보건위생 - 미용원"},{"name":"메디컬 캠프","tel":"","addr":"경기도 양주시 삼숭동 683-2번지 양주프라자2 3층 3306호","category":"보건위생 - 의료용품"},{"name":"묘향산한의원","tel":"031-841-8930","addr":"경기도 양주시 삼숭동 683-2번지 양주프라자2 3311호","category":"의원 - 한의원"},{"name":"반찬카페 콩","tel":"031-821-5949","addr":"경기도 양주시 삼숭동 683-2번지 양주프라자2 1층 3107,3113호","category":"음료식품 - 기타음료식품"},{"name":"본죽(양주GS자이점)","tel":"031-847-6233","addr":"경기도 양주시 삼숭동 683-2번지 GS양주프라자 2동 3227호","category":"일반휴게음식 - 일반한식"},{"name":"본초불닭발","tel":"031-847-0412","addr":"경기도 양주시 삼숭동 683-2번지 양주프라자2 2층 3219호","category":"일반휴게음식 - 일반한식"},{"name":"붓통 캘리그라피","tel":"070-7736-3219","addr":"경기도 양주시 삼숭동 683-2번지 양주프라자2 3219호","category":"용역 서비스 - 사무서비스"},{"name":"블록피아","tel":"031-841-6867","addr":"경기도 양주시 삼숭동 683-2번지 양주프라자2상가4층3406호","category":"서적문구 - 완구점"},{"name":"블루클럽","tel":"031-846-8584","addr":"경기도 양주시 삼숭동 683-2번지 3225호 양주프라자2","category":"보건위생 - 미용원"},{"name":"비어지니","tel":"031-1111-1111","addr":"경기도 양주시 삼숭동 683-2번지 양주프라자2 1층 3104,3105호","category":"일반휴게음식 - 서양음식"},{"name":"사임당떡한과","tel":"031-821-1548","addr":"경기도 양주시 삼숭동 683-2번지 양주프라자2 3119호","category":"음료식품 - 제과점"},{"name":"삼숭세탁","tel":"031-847-8382","addr":"경기도 양주시 삼숭동 683-2번지 양주프라자 2층 3222호","category":"수리서비스 - 세탁소"},{"name":"서울소아과의원","tel":"031-841-3395","addr":"경기도 양주시 삼숭동 683-2번지","category":"의원 - 의원"},{"name":"서울수치과","tel":"031-848-2828","addr":"경기도 양주시 삼숭동 683-2번지 GS양주프라자2상가 3동 3312호","category":"의원 - 치과의원"},{"name":"수학의달인삼숭수학교습소","tel":"031-843-3160","addr":"경기도 양주시 삼숭동 683-2번지 양주프라자2 2층 3214호","category":"학원 - 보습학원"},{"name":"숲네일","tel":"","addr":"경기도 양주시 삼숭동 683-2번지 양주프라자2 3223호","category":"보건위생 - 피부미용실"},{"name":"스킨하우스","tel":"070-8256-4946","addr":"경기도 양주시 삼숭동 683-2번지 양주프라자2 2층 3203호","category":"보건위생 - 화장품"},{"name":"시선","tel":"","addr":"경기도 양주시 삼숭동 683-2번지 양주프라자2 3211호","category":"의류 - 정장"},{"name":"시선받는피부","tel":"031-826-5233","addr":"경기도 양주시 삼숭동 683-2번지 양주프라자2차3층 3303호","category":"회원제형태 - 기타4"},{"name":"아이두과학교습소","tel":"031-821-1318","addr":"경기도 양주시 삼숭동 683-2번지 양주프라자2 3412호","category":"학원 - 보습학원"},{"name":"양주프라임학원","tel":"031-842-3927","addr":"경기도 양주시 삼숭동 683-2번지 양주프라자2 4층 3406,3407호","category":"학원 - 보습학원"},{"name":"엔젤스 뷰티플러스","tel":"031-847-1006","addr":"경기도 양주시 삼숭동 683-2번지 양주프라자2 2층 3211호","category":"보건위생 - 미용원"},{"name":"예빛담","tel":"","addr":"경기도 양주시 삼숭동 683-2번지 양주프라자2 3304호","category":"음료식품 - 기타음료식품"},{"name":"은혜뷰티","tel":"031-8150-1416","addr":"경기도 양주시 삼숭동 683-2번지 양주프라자2 2층 3223-1호","category":"보건위생 - 화장품"},{"name":"자이즉석떡볶이","tel":"031-847-2230","addr":"경기도 양주시 삼숭동 683-2번지 양주프라자2 3221호","category":"일반휴게음식 - 일반한식"},{"name":"재능스스로러닝센터양주자이학원","tel":"031-856-0123","addr":"경기도 양주시 삼숭동 683-2번지 양주프라자2 4층 3408호","category":"학원 - 보습학원"},{"name":"정우네 꼼줄","tel":"031-000-0000","addr":"경기도 양주시 삼숭동 683-2번지 양주프라자2 2층 3223호","category":"신변잡화 - 액세서리"},{"name":"크린토피아 양주자이점","tel":"031-825-4556","addr":"경기도 양주시 삼숭동 683-2번지 양주프라자2상가 3202호","category":"수리서비스 - 세탁소"},{"name":"티엔티(TNT)영어교습소","tel":"","addr":"경기도 양주시 삼숭동 683-2번지 양주프라자2 2층 3220호","category":"학원 - 외국어학원"},{"name":"패스필 학원","tel":"031-848-0591","addr":"경기도 양주시 삼숭동 683-2번지 양주프라자2 4층 3409호","category":"학원 - 보습학원"},{"name":"페이지 독서실","tel":"031-841-1017","addr":"경기도 양주시 삼숭동 683-2번지 양주프라자2 3301호","category":"학원 - 독서실"},{"name":"피움","tel":"031-875-8847","addr":"경기도 양주시 삼숭동 683-2번지 양주프라자2 1층 3101호","category":"보건위생 - 화장품"},{"name":"피자마루(삼숭고읍점)","tel":"031-821-5950","addr":"경기도 양주시 삼숭동 683-2번지 양주프라자2 2층 3224호","category":"일반휴게음식 - 서양음식"},{"name":"한누리약국","tel":"031-848-7752","addr":"경기도 양주시 삼숭동 683-2번지 양주프라자2","category":"약국 - 약국"},{"name":"한미태권도","tel":"031-840-0081","addr":"경기도 양주시 삼숭동 683-2번지 양주프라자2 3401,3405호","category":"학원 - 예·체능계학원"},{"name":"헬로모모","tel":"031-846-4288","addr":"경기도 양주시 삼숭동 683-2번지 양주프라자 23212호","category":"의류 - 아동의류"}]},{"lat":"37.809284366","long":"127.09756657","items":[{"name":"갈비천국","tel":"031-844-0993","addr":"경기도 양주시 삼숭동 435번지","category":"일반휴게음식 - 일반한식"}]},{"lat":"37.805256915","long":"127.09784531","items":[{"name":"감동식품","tel":"031-821-5266","addr":"경기도 양주시 삼숭동 385번지","category":"음료식품 - 기타음료식품"}]},{"lat":"37.805062683","long":"127.10389736","items":[{"name":"감성공간","tel":"070-8118-3555","addr":"경기도 양주시 삼숭동 162-2번지","category":"가구 - 일반가구"}]},{"lat":"37.80173085","long":"127.09056247","items":[{"name":"강뿡스포츠","tel":"031-845-0202","addr":"경기도 양주시 삼숭동 640-30번지","category":"레져용품 - 스포츠·레져용품"},{"name":"달보드레","tel":"031-928-4095","addr":"경기도 양주시 삼숭동 640-30번지 1층","category":"일반휴게음식 - 서양음식"},{"name":"양주시장애인복지관","tel":"031-928-4096","addr":"경기도 양주시 삼숭동 640-30번지","category":"기타의료기관 - 기타의료기관 및 기타"},{"name":"양주시장애인종합복지관","tel":"031-928-4096","addr":"경기도 양주시 삼숭동 640-30번지","category":"기타의료기관 - 기타의료기관 및 기타"},{"name":"양주시장애인종합복지관","tel":"031-928-4096","addr":"경기도 양주시 삼숭동 640-30번지 1층","category":"기타의료기관 - 기타의료기관 및 기타"}]},{"lat":"37.81050826","long":"127.09928289","items":[{"name":"개성손만두 요리전문점","tel":"031-847-9904","addr":"경기도 양주시 삼숭동 448-18번지 1층","category":"일반휴게음식 - 일반한식"},{"name":"카페모넬로","tel":"031-847-5982","addr":"경기도 양주시 삼숭동 448-18번지","category":"일반휴게음식 - 서양음식"}]},{"lat":"37.812980866","long":"127.10520277","items":[{"name":"경가상사 동부대리점","tel":"031-847-6567","addr":"경기도 양주시 삼숭동 37-1번지 3동","category":"음료식품 - 기타음료식품"}]},{"lat":"37.801508836","long":"127.10859332","items":[{"name":"경기북부상공회의소연수원","tel":"031-847-9090","addr":"경기도 양주시 삼숭동 176-5번지","category":"유통업 비영리 - 구내매점(국가기관"}]},{"lat":"37.79572632","long":"127.10683661","items":[{"name":"경희대석사태권도장","tel":"031-848-2030","addr":"경기도 양주시 삼숭동 202-37번지 양주프라자4 1동2층6202호","category":"학원 - 예·체능계학원"},{"name":"곱창갤러리","tel":"031-821-8092","addr":"경기도 양주시 삼숭동 202-37번지 양주프라자4 6109, 6110호","category":"일반휴게음식 - 일반한식"},{"name":"더샵음악학원","tel":"031-821-5351","addr":"경기도 양주시 삼숭동 202-37번지 양주프라자4 2층 6203호","category":"학원 - 예·체능계학원"},{"name":"독일폴크방음악학원","tel":"070-4922-1261","addr":"경기도 양주시 삼숭동 202-37번지 양주프라자4 6205호","category":"학원 - 예·체능계학원"},{"name":"돈통마늘보쌈 삼숭점","tel":"031-821-5382","addr":"경기도 양주시 삼숭동 202-37번지 양주프라자4 1층 6101호","category":"일반휴게음식 - 일반한식"},{"name":"또모분식","tel":"070-5001-6450","addr":"경기도 양주시 삼숭동 202-37번지 양주프라자4 6106호","category":"일반휴게음식 - 일반한식"},{"name":"런닝짐","tel":"031-821-5011","addr":"경기도 양주시 삼숭동 202-37번지 양주프라자4 6003,6004,6005,6006호","category":"레저업소 - 헬스클럽"},{"name":"밥상609","tel":"031-847-6609","addr":"경기도 양주시 삼숭동 202-37번지 양주프라자4 6107호","category":"일반휴게음식 - 일반한식"},{"name":"불타는토스트(양주삼숭동점)","tel":"031-844-0120","addr":"경기도 양주시 삼숭동 202-37번지 양주프라자4 6103호","category":"일반휴게음식 - 스넥"},{"name":"빙고아이스크림","tel":"031-846-7844","addr":"경기도 양주시 삼숭동 202-37번지 양주프라자4 6104호, 6105호","category":"음료식품 - 기타음료식품"},{"name":"삐삐헤어","tel":"031-848-1225","addr":"경기도 양주시 삼숭동 202-37번지 양주프라자4 1층 6101호","category":"보건위생 - 미용원"},{"name":"삼숭문고","tel":"031-848-6507","addr":"경기도 양주시 삼숭동 202-37양주프라자4상가6001.6002호","category":"서적문구 - 일반서적"},{"name":"에이스수학교습소","tel":"031-848-1185","addr":"경기도 양주시 삼숭동 202-37번지 양주프라자4 6201호","category":"학원 - 보습학원"},{"name":"운헤어 (woon hair)","tel":"031-847-3002","addr":"경기도 양주시 삼숭동 202-37번지 양주프라자4 1층 6112호","category":"보건위생 - 미용원"},{"name":"유별난 수학학원","tel":"031-821-1773","addr":"경기도 양주시 삼숭동 202-37번지 양주프라자4 6204호","category":"회원제형태 - 학원"},{"name":"커피프린세스(coffee princess)","tel":"031-847-7300","addr":"경기도 양주시 삼숭동 202-37번지 6108호 양주프라자4상가","category":"일반휴게음식 - 서양음식"},{"name":"판도라","tel":"070-4117-8977","addr":"경기도 양주시 삼숭동 202-37번지 6102호 , 양주프라자4상가","category":"보건위생 - 화장품"},{"name":"피자스쿨양주삼숭점","tel":"031-848-5727","addr":"경기도 양주시 삼숭동 202-37번지 양주프라자4 1층 6111호","category":"일반휴게음식 - 서양음식"}]},{"lat":"37.805974817","long":"127.08987481","items":[{"name":"고덕마트","tel":"031-857-6209","addr":"경기도 양주시 삼숭동 653-10번지 외1필지","category":"유통업 영리 - 슈퍼마켓"},{"name":"만두와김밥마을","tel":"031-848-1796","addr":"경기도 양주시 삼숭동 653-10번지 외1필지","category":"일반휴게음식 - 일반한식"},{"name":"무지개B/D(가동)","tel":"031-845-2255","addr":"경기도 양주시 삼숭동 653-10,669-13","category":"주방용구 - 주방용구"},{"name":"살맛나는집","tel":"031-848-9890","addr":"경기도 양주시 삼숭동 653-10번지","category":"일반휴게음식 - 일반한식"},{"name":"신마산아구찜","tel":"031-847-2269","addr":"경기도 양주시 삼숭동 653-10번지 1층","category":"일반휴게음식 - 일반한식"},{"name":"양주1고객센터","tel":"031-868-2300","addr":"경기도 양주시 삼숭동 653-10번지 2층 2호","category":"용역 서비스 - 종합용역"},{"name":"오렌지 노래연습장","tel":"031-821-0543","addr":"경기도 양주시 삼숭동 653-10번지","category":"레저업소 - 노 래 방"},{"name":"제일조은치과의원","tel":"031-821-0028","addr":"경기도 양주시 삼숭동 653-10번지","category":"의원 - 치과의원"},{"name":"최고집칼국수","tel":"031-846-4818","addr":"경기도 양주시 삼숭동 653-10번지 외1필지","category":"일반휴게음식 - 일반한식"}]},{"lat":"37.814312388","long":"127.10733964","items":[{"name":"고수포차","tel":"031-846-6788","addr":"경기도 양주시 삼숭동 65-1번지","category":"일반휴게음식 - 일반한식"},{"name":"쩡이네집","tel":"031-821-7706","addr":"경기도 양주시 삼숭동 65-1번지 1층","category":"일반휴게음식 - 일반한식"}]},{"lat":"37.804086745","long":"127.08439949","items":[{"name":"고주내건재","tel":"031-847-1145","addr":"경기도 양주시 삼숭동 673-5번지","category":"건축자재 - 기타건축자재"}]},{"lat":"37.808283741","long":"127.0982807","items":[{"name":"고주내관광농원","tel":"031-000-0000","addr":"경기도 양주시 삼숭동 464번지 465. 466","category":"레저업소 - 기타레져업소"},{"name":"김밥주차장&카페","tel":"031-821-0992","addr":"경기도 양주시 삼숭동 464번지 1층 일부","category":"일반휴게음식 - 스넥"},{"name":"행복마트","tel":"031-1877-0504","addr":"경기도 양주시 삼숭동 464번지 102호","category":"음료식품 - 기타음료식품"}]},{"lat":"37.805509581","long":"127.097346","items":[{"name":"고주내방앗간","tel":"031-847-1155","addr":"경기도 양주시 삼숭동 383-1","category":"음료식품 - 제과점"},{"name":"돈통숯불생고기","tel":"031-854-8465","addr":"경기도 양주시 삼숭동 383-1번지","category":"일반휴게음식 - 일반한식"}]},{"lat":"37.810282903","long":"127.09943022","items":[{"name":"곰바우전통순대","tel":"031-848-7114","addr":"경기도 양주시 삼숭동 457번지 1층","category":"일반휴게음식 - 일반한식"}]},{"lat":"37.797424094","long":"127.10220657","items":[{"name":"공감인테리어","tel":"031-821-3980","addr":"경기도 양주시 삼숭동 270번지 102층","category":"용역 서비스 - 기타용역서비스"},{"name":"럭키PC","tel":"070-4856-8914","addr":"경기도 양주시 삼숭동 270번지 자이안상가 501,502호","category":"레저업소 - 기타레져업소"},{"name":"럭키PCCAFE(양주본점)","tel":"","addr":"경기도 양주시 삼숭동 270번지 5층 501호,502호","category":"수리서비스 - 사무·통신기기수리"},{"name":"연세교육학원","tel":"031-928-5653","addr":"경기도 양주시 삼숭동 270번지 자이안 상가 302호","category":"학원 - 보습학원"},{"name":"온아치과의원","tel":"031-844-2877","addr":"경기도 양주시 삼숭동 270번지 201-202호","category":"의원 - 치과의원"},{"name":"이디야양주삼숭점","tel":"031-848-4323","addr":"경기도 양주시 삼숭동 270번지 108호","category":"일반휴게음식 - 서양음식"},{"name":"이삭토스트 양주삼숭점","tel":"031-844-2425","addr":"경기도 양주시 삼숭동 270번지 103호","category":"일반휴게음식 - 스넥"},{"name":"점프윙스줄넘기클럽","tel":"031-846-8848","addr":"경기도 양주시 삼숭동 270번지 402호","category":"레저업소 - 기타레져업소"}]},{"lat":"37.79775815","long":"127.10136682","items":[{"name":"공감헤어","tel":"070-4007-2995","addr":"경기도 양주시 삼숭동 271-2번지 1층 113호","category":"보건위생 - 미용원"},{"name":"만주갈비 양주점","tel":"031-928-5082","addr":"경기도 양주시 삼숭동 271-2번지","category":"일반휴게음식 - 일반한식"}]},{"lat":"37.812480622","long":"127.11050546","items":[{"name":"광동상사(양주대리점)","tel":"031-841-9923","addr":"경기도 양주시 삼숭동 91-18번지","category":"음료식품 - 기타음료식품"}]},{"lat":"37.812477989","long":"127.10328286","items":[{"name":"광릉불고기","tel":"031-821-0028","addr":"경기도 양주시 삼숭동 23-4번지","category":"일반휴게음식 - 일반한식"},{"name":"오형제손짜장","tel":"031-844-9896","addr":"경기도 양주시 삼숭동 23-4번지 1층","category":"일반휴게음식 - 중국식"}]},{"lat":"37.796648202","long":"127.10347716","items":[{"name":"군산활어회직판장","tel":"031-856-1214","addr":"경기도 양주시 삼숭동 201번지","category":"일반휴게음식 - 일반한식"},{"name":"네가지닭구이","tel":"031-843-9792","addr":"경기도 양주시 삼숭동 201번지","category":"일반휴게음식 - 일반한식"}]},{"lat":"37.807340547","long":"127.09475928","items":[{"name":"굿 휘트니스","tel":"031-841-2282","addr":"경기도 양주시 삼숭동 557-9번지","category":"레져용품 - 스포츠·레져용품"},{"name":"퀵밧데리(북부점)","tel":"","addr":"경기도 양주시 삼숭동 557-9번지","category":"자동차정비 유지 - 자동차부품"}]},{"lat":"37.797622187","long":"127.10234308","items":[{"name":"그대작은꽃한송이 floret","tel":"","addr":"경기도 양주시 삼숭동 269-1번지 104호","category":"문화.취미 - 화원"},{"name":"수 하우징","tel":"031-000-0000","addr":"경기도 양주시 삼숭동 269-1번지","category":"수리서비스 - 가정용품수리"}]},{"lat":"37.807341067","long":"127.09408931","items":[{"name":"그린비야생화","tel":"031-821-3049","addr":"경기도 양주시 삼숭동 558-11번지","category":"문화.취미 - 화원"}]},{"lat":"37.797926108","long":"127.09417992","items":[{"name":"그비날","tel":"","addr":"경기도 양주시 삼숭동 599-1번지 1층","category":"일반휴게음식 - 서양음식"}]},{"lat":"37.797064885","long":"127.10080955","items":[{"name":"기다림에 굽다","tel":"031-846-2212","addr":"경기도 양주시 삼숭동 258-1번지 104호","category":"음료식품 - 제과점"},{"name":"모바일면세점양주자이점","tel":"031-847-8010","addr":"경기도 양주시 삼숭동 258-1번지 102호103호","category":"사무통신 - 통신기기"},{"name":"산에산에춘천닭갈비","tel":"031-846-0303","addr":"경기도 양주시 삼숭동 258-1번지","category":"일반휴게음식 - 일반한식"},{"name":"지예스 집꾸미기","tel":"031-821-9290","addr":"경기도 양주시 삼숭동 258-1번지 1층","category":"건축자재 - 인테리어전문"}]},{"lat":"37.799366391","long":"127.10655786","items":[{"name":"기분좋은부동산중개사무소","tel":"031-847-0037","addr":"경기도 양주시 삼숭동 190-29번지 상가 가동 102호","category":"용역 서비스 - 부동산 중개·임대"}]},{"lat":"37.8133385","long":"127.10831492","items":[{"name":"기운찬푸드시스템","tel":"031-847-8892","addr":"경기도 양주시 삼숭동 57-7번지 1층 일부","category":"일반휴게음식 - 일반한식"},{"name":"돈아돈아식당","tel":"070-8596-5037","addr":"경기도 양주시 삼숭동 57-7번지","category":"일반휴게음식 - 일반한식"}]},{"lat":"37.801089583","long":"127.10381246","items":[{"name":"까사338(Cass338)","tel":"031-841-7722","addr":"경기도 양주시 삼숭동 338-1번지","category":"일반휴게음식 - 일반한식"}]},{"lat":"37.798839332","long":"127.10131148","items":[{"name":"깨끗한운동화빨래방","tel":"031-842-1118","addr":"경기도 양주시 삼숭동 305-1번지 A동 5호","category":"수리서비스 - 세탁소"},{"name":"동두천삼춘부대찌게","tel":"031-844-3737","addr":"경기도 양주시 삼숭동 305-1번지 B-105 B동105호~106호","category":"일반휴게음식 - 일반한식"},{"name":"레몬컴퓨터","tel":"031-846-1544","addr":"경기도 양주시 삼숭동 305-1번지 A동 6호","category":"사무통신 - 컴퓨터"},{"name":"멍이와야옹이","tel":"031-847-1771","addr":"경기도 양주시 삼숭동 305-1번지 에이-6","category":"문화.취미 - 애완동물"},{"name":"모밥집","tel":"031-842-1178","addr":"경기도 양주시 삼숭동 305-1번지 A동","category":"일반휴게음식 - 일반한식"},{"name":"옛날마포불고기","tel":"031-847-5122","addr":"경기도 양주시 삼숭동 305-1번지","category":"일반휴게음식 - 일반한식"},{"name":"일품해물칼국수","tel":"031-821-5997","addr":"경기도 양주시 삼숭동 305-1번지","category":"일반휴게음식 - 일반한식"},{"name":"하나도","tel":"031-846-8254","addr":"경기도 양주시 삼숭동 305-1번지 A동 1층","category":"일반휴게음식 - 일반한식"}]},{"lat":"37.798091935","long":"127.10084497","items":[{"name":"꽃피는산골2호점","tel":"031-848-7995","addr":"경기도 양주시 삼숭동 303-5","category":"문화.취미 - 화원"},{"name":"송원플라워","tel":"031-847-2511","addr":"경기도 양주시 삼숭동 303-5","category":"문화.취미 - 화원"}]},{"lat":"37.805560524","long":"127.08968129","items":[{"name":"나능이 능이버섯","tel":"031-858-7070","addr":"경기도 양주시 삼숭동 653-8번지","category":"일반휴게음식 - 일반한식"}]},{"lat":"37.807196977","long":"127.09400964","items":[{"name":"나래장식","tel":"031-848-0209","addr":"경기도 양주시 삼숭동 558-2번지","category":"직물 - 카페트,커튼,천막,지물"},{"name":"동양전기조명","tel":"031-821-1422","addr":"경기도 양주시 삼숭동 558-2번지 1층 3호","category":"건축자재 - 조명기구"},{"name":"현대차유리","tel":"031-544-6282","addr":"경기도 양주시 삼숭동 558-2번지","category":"자동차정비 유지 - 카인테리어"}]},{"lat":"37.805952245","long":"127.09583631","items":[{"name":"나래철판쭈꾸미","tel":"031-847-9235","addr":"경기도 양주시 삼숭동 565-3번지 외1필지5 6호","category":"일반휴게음식 - 일반한식"},{"name":"단골집김치찌개","tel":"031-821-3309","addr":"경기도 양주시 삼숭동 565-3번지 1층","category":"일반휴게음식 - 일반한식"},{"name":"떳다곱창","tel":"031-846-0400","addr":"경기도 양주시 삼숭동 565-3, 566-10","category":"일반휴게음식 - 일반한식"},{"name":"라이76(Rai76)","tel":"031-821-5777","addr":"경기도 양주시 삼숭동 565-3번지 6호","category":"의류 - 정장"},{"name":"현우네뜨게방","tel":"031-841-8495","addr":"경기도 양주시 삼숭동 565-3번지 7호","category":"직물 - 침구·수예점"}]},{"lat":"37.807951921","long":"127.09637253","items":[{"name":"네바퀴타이어","tel":"031-844-0111","addr":"경기도 양주시 삼숭동 560번지","category":"자동차정비 유지 - 자동차시트·타이어"}]},{"lat":"37.81201072","long":"127.11203787","items":[{"name":"농업회사법인(주)경기우리","tel":"031-845-0000","addr":"경기도 양주시 삼숭동 94번지","category":"음료식품 - 농·축·수산품"}]},{"lat":"37.80239839","long":"127.08942779","items":[{"name":"농업회사법인제이비솔루션주식회사","tel":"031-821-1626","addr":"경기도 양주시 삼숭동 647-2번지","category":"기타의료기관 - 동물병원"}]},{"lat":"37.800782519","long":"127.10467499","items":[{"name":"눈에띠네","tel":"070-4922-1261","addr":"경기도 양주시 삼숭동 189-1번지 104호","category":"의류 - 정장"},{"name":"세탁의모든것","tel":"031-841-1222","addr":"경기도 양주시 삼숭동 189-1번지 102호","category":"수리서비스 - 세탁소"},{"name":"쏘잉 미싱유","tel":"031-000-0000","addr":"경기도 양주시 삼숭동 189-1번지 1층 1호","category":"직물 - 침구·수예점"},{"name":"희헤어샵","tel":"031-848-8223","addr":"경기도 양주시 삼숭동 189-1번지","category":"보건위생 - 미용원"}]},{"lat":"37.808592013","long":"127.09583962","items":[{"name":"다연이네","tel":"031-846-5570","addr":"경기도 양주시 삼숭동 540-4번지","category":"일반휴게음식 - 일반한식"}]},{"lat":"37.799367573","long":"127.1052067","items":[{"name":"대기산업","tel":"031-847-1847","addr":"경기도 양주시 삼숭동 190-8번지","category":"기타 - 기타 전문점"}]},{"lat":"37.799009883","long":"127.10206108","items":[{"name":"대명엄나무닭곰탕","tel":"031-843-5134","addr":"경기도 양주시 삼숭동 328-20번지 1층 일부","category":"일반휴게음식 - 일반한식"}]},{"lat":"37.802759092","long":"127.08898537","items":[{"name":"대성천막사","tel":"031-842-6202","addr":"경기도 양주시 삼숭동 647-4번지","category":"직물 - 카페트,커튼,천막,지물"}]},{"lat":"37.799645874","long":"127.10634251","items":[{"name":"대한민국장고기","tel":"031-821-3393","addr":"경기도 양주시 삼숭동 681-2번지","category":"일반휴게음식 - 일반한식"}]},{"lat":"37.803310756","long":"127.10856183","items":[{"name":"대현상회","tel":"031-847-1708","addr":"경기도 양주시 삼숭동 173번지","category":"음료식품 - 기타음료식품"}]},{"lat":"37.800669788","long":"127.08775666","items":[{"name":"더나리카페","tel":"031-846-3009","addr":"경기도 양주시 삼숭동 619-2번지 1동 1층","category":"일반휴게음식 - 일반한식"}]},{"lat":"37.809786382","long":"127.10064465","items":[{"name":"더맘마식자재유통","tel":"031-847-0300","addr":"경기도 양주시 삼숭동 452번지","category":"유통업 영리 - 슈퍼마켓"}]},{"lat":"37.801260383","long":"127.10425552","items":[{"name":"더치킨맨","tel":"031-846-8292","addr":"경기도 양주시 삼숭동 183-5번지 1층 일부","category":"일반휴게음식 - 스넥"},{"name":"돌아온왕십리곱창","tel":"031-821-1959","addr":"경기도 양주시 삼숭동 183-5번지 가동 1층","category":"일반휴게음식 - 일반한식"},{"name":"멕시카나(삼숭점)","tel":"031-859-8549","addr":"경기도 양주시 삼숭동 183-5번지 1층","category":"일반휴게음식 - 일반한식"},{"name":"클로우","tel":"","addr":"경기도 양주시 삼숭동 183-5번지 가동 1층 일부","category":"일반휴게음식 - 서양음식"}]},{"lat":"37.814312931","long":"127.10672639","items":[{"name":"돌체스파지오","tel":"","addr":"경기도 양주시 삼숭동 64-7번지 1층","category":"일반휴게음식 - 일반한식"},{"name":"주식회사 비앤에스빅디쉬 (B&S Bigdish Co.","tel":"031-111-1111","addr":"경기도 양주시 삼숭동 64-7번지","category":"용역 서비스 - 사무서비스"}]},{"lat":"37.81209093","long":"127.10287351","items":[{"name":"드림옷창고","tel":"","addr":"경기도 양주시 삼숭동 24-9번지 1층","category":"의류 - 정장"}]},{"lat":"37.796478521","long":"127.10170573","items":[{"name":"또다시오리","tel":"02-1234-1234","addr":"경기도 양주시 삼숭동 262-1번지 1층","category":"일반휴게음식 - 일반한식"}]},{"lat":"37.801975529","long":"127.10022559","items":[{"name":"레디메이드","tel":"070-4643-8730","addr":"경기도 양주시 삼숭동 358-19번지","category":"신변잡화 - 가방"}]},{"lat":"37.801341204","long":"127.10456221","items":[{"name":"마장동생갈비","tel":"031-848-9782","addr":"경기도 양주시 삼숭동 183-1번지 1층","category":"일반휴게음식 - 일반한식"}]},{"lat":"37.798234244","long":"127.1030365","items":[{"name":"목공소 봄","tel":"031-857-2474","addr":"경기도 양주시 삼숭동 197-1번지","category":"가구 - 일반가구"}]},{"lat":"37.798343603","long":"127.10156061","items":[{"name":"못난이아구찜코다리찜","tel":"031-576-9233","addr":"경기도 양주시 삼숭동 330-6번지","category":"일반휴게음식 - 일반한식"},{"name":"왕십리 불난 막창","tel":"031-821-9440","addr":"경기도 양주시 삼숭동 330-6번지 1,2호","category":"일반휴게음식 - 일반한식"},{"name":"청소박사","tel":"031-000-0000","addr":"경기도 양주시 삼숭동 330-6번지 5호","category":"용역 서비스 - 종합용역"}]},{"lat":"37.805920986","long":"127.08956816","items":[{"name":"무봉리순대국","tel":"031-844-0654","addr":"경기도 양주시 삼숭동 669-12번지 1층","category":"일반휴게음식 - 일반한식"},{"name":"무지개사우나","tel":"031-845-2255","addr":"경기도 양주시 삼숭동 669-12번지","category":"음료식품 - 기타음료식품"},{"name":"무지개사우나","tel":"031-845-2255","addr":"경기도 양주시 삼숭동 669-12,653-13 지하1층","category":"보건위생 - 사우나"},{"name":"무지개사우나스넥코너","tel":"031-845-2255","addr":"경기도 양주시 삼숭동 669-12번지 지하","category":"일반휴게음식 - 스넥"},{"name":"무지개식당","tel":"031-859-7323","addr":"경기도 양주시 삼숭동 669-12번지 지하1층","category":"일반휴게음식 - 일반한식"},{"name":"써니헤어샵","tel":"031-000-0000","addr":"경기도 양주시 삼숭동 669-12번지 무지개빌딩 1층 103호","category":"보건위생 - 미용원"},{"name":"이층카페","tel":"","addr":"경기도 양주시 삼숭동 669-12번지 2층","category":"일반휴게음식 - 일반한식"},{"name":"팍스바베큐","tel":"031-821-1992","addr":"경기도 양주시 삼숭동 669-12번지","category":"일반휴게음식 - 일반한식"},{"name":"푸른포스시스템","tel":"031-826-5557","addr":"경기도 양주시 삼숭동 669-12번지","category":"사무통신 - 통신기기"},{"name":"풍물 옹심이 메밀칼국수","tel":"031-848-3021","addr":"경기도 양주시 삼숭동 669-12번지","category":"일반휴게음식 - 일반한식"},{"name":"휴","tel":"031-846-7788","addr":"경기도 양주시 삼숭동 669-12번지 2층","category":"보건위생 - 화장품"}]},{"lat":"37.80911843","long":"127.10214274","items":[{"name":"문모터스","tel":"031-111-1111","addr":"경기도 양주시 삼숭동 474-2번지","category":"자동차정비 유지 - 자동차부품"}]},{"lat":"37.796619451","long":"127.1054754","items":[{"name":"뮤엠영어삼숭학원","tel":"031-847-7905","addr":"경기도 양주시 삼숭동 683-3번지 1동 502호","category":"학원 - 보습학원"},{"name":"이사랑 기구필라테스","tel":"","addr":"경기도 양주시 삼숭동 683-3번지 1동 3층 302호","category":"레저업소 - 헬스클럽"},{"name":"퍼스트특공무술","tel":"031-846-7757","addr":"경기도 양주시 삼숭동 683-3번지 1동 301호","category":"레저업소 - 헬스클럽"}]},{"lat":"37.807203938","long":"127.09662141","items":[{"name":"미다모가구","tel":"031-842-0601","addr":"경기도 양주시 삼숭동 561-15번지 A동 1,2층 B동 1,2층2층 C동12층","category":"가구 - 일반가구"},{"name":"양주엑스포가구","tel":"","addr":"경기도 양주시 삼숭동 561-15번지 A동 1,2호","category":"가구 - 일반가구"}]},{"lat":"37.813259505","long":"127.10595267","items":[{"name":"미라클","tel":"031-846-3968","addr":"경기도 양주시 삼숭동 34-1번지","category":"레져용품 - 악기점"}]},{"lat":"37.813647396","long":"127.10539675","items":[{"name":"민들레식당","tel":"031-856-3227","addr":"경기도 양주시 삼숭동 30-6번지","category":"일반휴게음식 - 일반한식"}]},{"lat":"37.813037311","long":"127.11256177","items":[{"name":"발렌타인모텔","tel":"031-841-5481","addr":"경기도 양주시 삼숭동 93-7번지","category":"숙박업 - 여관/기타숙박업"}]},{"lat":"37.813974186","long":"127.11267672","items":[{"name":"밝은세상","tel":"031-842-6664","addr":"경기도 양주시 삼숭동 80-12번지","category":"주방용구 - 주방용구"}]},{"lat":"37.80397875","long":"127.08422905","items":[{"name":"방태막국수","tel":"031-821-0288","addr":"경기도 양주시 삼숭동 678-8번지","category":"일반휴게음식 - 일반한식"},{"name":"베네토","tel":"031-847-0358","addr":"경기도 양주시 삼숭동 678-8번지","category":"일반휴게음식 - 서양음식"}]},{"lat":"37.81305941","long":"127.1080874","items":[{"name":"보람 공예","tel":"031-821-4081","addr":"경기도 양주시 삼숭동 56번지 1층","category":"문화.취미 - 민예·공예품"}]},{"lat":"37.797010127","long":"127.10164967","items":[{"name":"보스카오디오","tel":"031-858-5254","addr":"경기도 양주시 삼숭동 267-9번지","category":"자동차정비 유지 - 자동차부품"},{"name":"이지워시셀프빨래방","tel":"","addr":"경기도 양주시 삼숭동 267-9번지 나동 2,3호","category":"수리서비스 - 세탁소"},{"name":"인테리어 더 감동","tel":"031-821-8390","addr":"경기도 양주시 삼숭동 267-9번지","category":"건축자재 - 인테리어전문"},{"name":"천지공인중개사사무소","tel":"031-841-3379","addr":"경기도 양주시 삼숭동 267-9 나-5","category":"용역 서비스 - 부동산 중개·임대"}]},{"lat":"37.804392467","long":"127.08526281","items":[{"name":"비상열쇠","tel":"031-000-0000","addr":"경기도 양주시 삼숭동 672-5번지 1층 3호","category":"건축자재 - 목재·석재·철물"}]},{"lat":"37.798009412","long":"127.10255933","items":[{"name":"비오스","tel":"070-7789-1588","addr":"경기도 양주시 삼숭동 332번지","category":"가구 - 일반가구"}]},{"lat":"37.814086557","long":"127.10800936","items":[{"name":"삼승건재철물","tel":"031-843-0199","addr":"경기도 양주시 삼숭동 68-5번지","category":"건축자재 - 기타건축자재"}]},{"lat":"37.799393639","long":"127.1063081","items":[{"name":"새참마루","tel":"031-848-4746","addr":"경기도 양주시 삼숭동 190-17번지","category":"일반휴게음식 - 일반한식"},{"name":"양자강","tel":"031-848-6900","addr":"경기도 양주시 삼숭동 190-17번지 1층","category":"일반휴게음식 - 중국식"},{"name":"우리끼리","tel":"031-859-9259","addr":"경기도 양주시 삼숭동 190-17번지","category":"일반휴게음식 - 일반한식"}]},{"lat":"37.813530638","long":"127.1049764","items":[{"name":"서복순 순대국","tel":"031-843-9292","addr":"경기도 양주시 삼숭동 30-5번지","category":"일반휴게음식 - 일반한식"}]},{"lat":"37.805669576","long":"127.08839828","items":[{"name":"서우정보통신","tel":"","addr":"경기도 양주시 삼숭동 669-8번지","category":"용역 서비스 - 기타용역서비스"},{"name":"엉클돈까스","tel":"031-847-4422","addr":"경기도 양주시 삼숭동 669-8번지 A동","category":"일반휴게음식 - 일반한식"},{"name":"장충왕족발","tel":"031-847-8881","addr":"경기도 양주시 삼숭동 669-8번지 B동","category":"일반휴게음식 - 일반한식"},{"name":"퀸헤어","tel":"031-821-1799","addr":"경기도 양주시 삼숭동 669-8번지 B동","category":"보건위생 - 미용원"},{"name":"풀섶가정식백반","tel":"031-000-0000","addr":"경기도 양주시 삼숭동 669-8번지 1층","category":"일반휴게음식 - 일반한식"},{"name":"현대통상","tel":"031-866-3864","addr":"경기도 양주시 삼숭동 669-8번지","category":"건축자재 - 인테리어전문"}]},{"lat":"37.807448358","long":"127.0951455","items":[{"name":"서울종합건재철물","tel":"031-848-0960","addr":"경기도 양주시 삼숭동 557-1 1","category":"기타 - 기계공구"}]},{"lat":"37.812559238","long":"127.10308991","items":[{"name":"서울칼국수","tel":"031-842-2223","addr":"경기도 양주시 삼숭동 24-10번지","category":"일반휴게음식 - 일반한식"}]},{"lat":"37.806421014","long":"127.09548489","items":[{"name":"선영볼링장","tel":"031-841-0900","addr":"경기도 양주시 삼숭동 565-1번지 3층","category":"레저업소 - 볼 링 장"}]},{"lat":"37.804728878","long":"127.09337072","items":[{"name":"성우세탁소","tel":"031-848-3336","addr":"경기도 양주시 삼숭동 569 성우아침의미소 상가-205","category":"수리서비스 - 세탁소"},{"name":"열린음악미술학원","tel":"031-847-2751","addr":"경기도 양주시 삼숭동 569번지 3,4층","category":"학원 - 예·체능계학원"}]},{"lat":"37.804203442","long":"127.08501279","items":[{"name":"소플러스 양주점","tel":"031-847-9900","addr":"경기도 양주시 삼숭동 674번지","category":"일반휴게음식 - 일반한식"}]},{"lat":"37.803064906","long":"127.08967837","items":[{"name":"솔밭집생선구이","tel":"031-847-8209","addr":"경기도 양주시 삼숭동 646번지","category":"일반휴게음식 - 일반한식"}]},{"lat":"37.813893387","long":"127.11236998","items":[{"name":"솜트리","tel":"031-111-1111","addr":"경기도 양주시 삼숭동 80-19번지","category":"가구 - 일반가구"}]},{"lat":"37.804976813","long":"127.0988442","items":[{"name":"슈퍼맨 장어","tel":"031-848-1231","addr":"경기도 양주시 삼숭동 375-3번지 1층","category":"일반휴게음식 - 일반한식"}]},{"lat":"37.804482175","long":"127.09775348","items":[{"name":"스튜디오 라비","tel":"031-847-0357","addr":"경기도 양주시 삼숭동 567-7번지","category":"광학제품 - 사진관"}]},{"lat":"37.80333813","long":"127.08559093","items":[{"name":"스틸빠","tel":"","addr":"경기도 양주시 삼숭동 676번지","category":"일반휴게음식 - 칵테일바"}]},{"lat":"37.796479128","long":"127.10097909","items":[{"name":"신의주찹쌀순대.감자탕","tel":"031-843-7722","addr":"경기도 양주시 삼숭동 261-1번지","category":"일반휴게음식 - 일반한식"},{"name":"틴스잉글리시영어교습소","tel":"","addr":"경기도 양주시 삼숭동 261-1번지","category":"학원 - 외국어학원"}]},{"lat":"37.808566595","long":"127.10478787","items":[{"name":"쌍용자동차북양주정비센터(주)","tel":"031-844-5582","addr":"경기도 양주시 삼숭동 139번지","category":"자동차정비 유지 - 자동차정비"}]},{"lat":"37.801534859","long":"127.09925987","items":[{"name":"아미무역","tel":"031-848-9587","addr":"경기도 양주시 삼숭동 363번지 이불나라","category":"직물 - 침구·수예점"}]},{"lat":"37.80922714","long":"127.11167039","items":[{"name":"아이스팬(ICEPAN)","tel":"031-855-7783","addr":"경기도 양주시 삼숭동 99-44","category":"주방용구 - 주방용구"}]},{"lat":"37.807260298","long":"127.09368041","items":[{"name":"아지트","tel":"031-847-9980","addr":"경기도 양주시 삼숭동 558-3번지","category":"일반휴게음식 - 일반한식"},{"name":"아키네일","tel":"070-7553-4448","addr":"경기도 양주시 삼숭동 558-3번지 2층 202호","category":"보건위생 - 화장품"},{"name":"아키애견미용","tel":"070-4332-9171","addr":"경기도 양주시 삼숭동 558-3번지 2층 202호","category":"문화.취미 - 애완동물"},{"name":"엘케이 이강","tel":"","addr":"경기도 양주시 삼숭동 558-3번지 1층","category":"용역 서비스 - 기타용역서비스"}]},{"lat":"37.807919066","long":"127.10344702","items":[{"name":"아트앤하우스","tel":"031-865-4270","addr":"경기도 양주시 삼숭동 148-1번지","category":"문화.취미 - 화방·표구점"}]},{"lat":"37.796810769","long":"127.10301187","items":[{"name":"알파와오메가양주점","tel":"031-821-2850","addr":"경기도 양주시 삼숭동 201-8","category":"신변잡화 - 기타잡화"}]},{"lat":"37.809328021","long":"127.10972869","items":[{"name":"액션모터스","tel":"070-8845-1178","addr":"경기도 양주시 삼숭동 97번지 나동","category":"자동차정비 유지 - 자동차정비"}]},{"lat":"37.808809584","long":"127.10509481","items":[{"name":"양주 중고차","tel":"031-856-2227","addr":"경기도 양주시 삼숭동 141-1번지","category":"자동차판매 - 중고자동차판매"}]},{"lat":"37.799755294","long":"127.10484389","items":[{"name":"양주검도관","tel":"031-848-7662","addr":"경기도 양주시 삼숭동 190-12번지 2층","category":"회원제형태 - 학원"},{"name":"인생한우","tel":"031-111-1111","addr":"경기도 양주시 삼숭동 190-12번지","category":"일반휴게음식 - 일반한식"},{"name":"장금이칼국수","tel":"031-846-7378","addr":"경기도 양주시 삼숭동 190-12번지","category":"일반휴게음식 - 일반한식"}]},{"lat":"37.812343156","long":"127.10291928","items":[{"name":"양주골신쭈꾸","tel":"031-840-7959","addr":"경기도 양주시 삼숭동 24-13번지 A동 1층","category":"일반휴게음식 - 일반한식"}]},{"lat":"37.801232067","long":"127.09484255","items":[{"name":"양주베이스볼파크","tel":"031-348-1105","addr":"경기도 양주시 삼숭동 580-2번지 (581-2,581-4.584-4)","category":"레저업소 - 기타레져업소"}]},{"lat":"37.794817331","long":"127.10573404","items":[{"name":"양주별빛 키즈엔리딩 어학원","tel":"02-1111-1111","addr":"경기도 양주시 삼숭동 686-1번지 양주자이아파트 상가동 1103호","category":"학원 - 외국어학원"}]},{"lat":"37.796567349","long":"127.10320456","items":[{"name":"양주생선구이","tel":"031-841-4994","addr":"경기도 양주시 삼숭동 202번지 B동 1층 일부","category":"일반휴게음식 - 일반한식"}]},{"lat":"37.806671782","long":"127.09737019","items":[{"name":"양주시티즌축구클럽","tel":"031-0000-0000","addr":"경기도 양주시 삼숭동 산73-4번지","category":"학원 - 예·체능계학원"}]},{"lat":"37.811451193","long":"127.10295214","items":[{"name":"양주씨티 에프씨","tel":"","addr":"경기도 양주시 삼숭동 24-6번지","category":"학원 - 예·체능계학원"}]},{"lat":"37.809421504","long":"127.10592463","items":[{"name":"양주안전","tel":"031-821-0612","addr":"경기도 양주시 삼숭동 107-2번지 B동","category":"기타 - 기계공구"}]},{"lat":"37.810947604","long":"127.10183857","items":[{"name":"양주탑상회","tel":"031-848-1105","addr":"경기도 양주시 삼숭동 481-1번지 가동","category":"유통업 영리 - 슈퍼마켓"}]},{"lat":"37.810955267","long":"127.10342843","items":[{"name":"양평해장국","tel":"031-844-0256","addr":"경기도 양주시 삼숭동 129-2번지","category":"일반휴게음식 - 일반한식"},{"name":"함흥도하냉면","tel":"","addr":"경기도 양주시 삼숭동 129-2번지 1층 일부","category":"일반휴게음식 - 일반한식"}]},{"lat":"37.798956037","long":"127.10181122","items":[{"name":"엄마손돼지불백","tel":"031-841-1080","addr":"경기도 양주시 삼숭동 329-2번지","category":"일반휴게음식 - 일반한식"}]},{"lat":"37.806396269","long":"127.09253246","items":[{"name":"에스티코(STCO)","tel":"031-842-7707","addr":"경기도 양주시 삼숭동 555-6번지","category":"의류 - 스포츠의류"}]},{"lat":"37.810564895","long":"127.10684605","items":[{"name":"엔토스정보통신","tel":"031-851-4600","addr":"경기도 양주시 삼숭동 115번지","category":"사무통신 - 통신기기"}]},{"lat":"37.79703813","long":"127.10048025","items":[{"name":"엘림 조명전기철물","tel":"031-821-9182","addr":"경기도 양주시 삼숭동 258-2번지","category":"건축자재 - 조명기구"}]},{"lat":"37.80272679","long":"127.09592311","items":[{"name":"엠코","tel":"031-858-6540","addr":"경기도 양주시 삼숭동 370-8번지","category":"직물 - 기타직물"}]},{"lat":"37.80920128","long":"127.1103985","items":[{"name":"영림리트리애","tel":"031-848-9007","addr":"경기도 양주시 삼숭동 97-13번지 3호","category":"직물 - 침구·수예점"}]},{"lat":"37.80561438","long":"127.08995388","items":[{"name":"오렌지당구장","tel":"031-821-3310","addr":"경기도 양주시 삼숭동 653-9번지","category":"레저업소 - 당 구 장"},{"name":"크리스탈 골프클럽","tel":"031-848-1238","addr":"경기도 양주시 삼숭동 653-9번지","category":"레저업소 - 골프연습장"}]},{"lat":"37.800448421","long":"127.10553747","items":[{"name":"오리고을","tel":"031-844-5292","addr":"경기도 양주시 삼숭동 187-9번지","category":"일반휴게음식 - 일반한식"},{"name":"지앤실용음악학원","tel":"070-4734-6953","addr":"경기도 양주시 삼숭동 187-9번지 2층 1호","category":"학원 - 예·체능계학원"}]},{"lat":"37.802921287","long":"127.08895149","items":[{"name":"오빠네캔들","tel":"070-7672-5858","addr":"경기도 양주시 삼숭동 647-1번지 나동","category":"신변잡화 - 기타잡화"}]},{"lat":"37.799928215","long":"127.1028117","items":[{"name":"우노커피","tel":"031-821-7578","addr":"경기도 양주시 삼숭동 194번지 1층","category":"일반휴게음식 - 서양음식"}]},{"lat":"37.805843971","long":"127.09604057","items":[{"name":"우성자동차공업사(주)","tel":"031-821-8580","addr":"경기도 양주시 삼숭동 565-4번지","category":"자동차정비 유지 - 자동차정비"}]},{"lat":"37.798504884","long":"127.10261676","items":[{"name":"우진세차장","tel":"031-861-8833","addr":"경기도 양주시 삼숭동 331번지","category":"자동차정비 유지 - 세차장"},{"name":"카페그린","tel":"031-821-0844","addr":"경기도 양주시 삼숭동 331번지 1층","category":"일반휴게음식 - 서양음식"}]},{"lat":"37.802033997","long":"127.09473","items":[{"name":"우진실업","tel":"031-847-2588","addr":"경기도 양주시 삼숭동 582번지","category":"직물 - 침구·수예점"}]},{"lat":"37.806727602","long":"127.09514461","items":[{"name":"웅카모터스","tel":"031-841-5023","addr":"경기도 양주시 삼숭동 563-3번지","category":"자동차정비 유지 - 자동차정비"}]},{"lat":"37.808674057","long":"127.1055375","items":[{"name":"워시베이","tel":"031-848-2273","addr":"경기도 양주시 삼숭동 141-2번지","category":"자동차정비 유지 - 세차장"}]},{"lat":"37.810058719","long":"127.10869636","items":[{"name":"워시엠셀프세차","tel":"031-843-1482","addr":"경기도 양주시 삼숭동 98-12번지","category":"자동차정비 유지 - 세차장"}]},{"lat":"37.800205865","long":"127.10473097","items":[{"name":"원교재사 경기북부대리점","tel":"031-848-9195","addr":"경기도 양주시 삼숭동 190-1번지 가동","category":"서적문구 - 기타서적문구"},{"name":"지쿱케어셀라","tel":"","addr":"경기도 양주시 삼숭동 190-1번지","category":"보건위생 - 화장품"}]},{"lat":"37.813843777","long":"127.10747526","items":[{"name":"원바위마트","tel":"031-857-8886","addr":"경기도 양주시 삼숭동 67-3번지","category":"음료식품 - 기타음료식품"}]},{"lat":"37.80237205","long":"127.08848531","items":[{"name":"웰빙인더스트리","tel":"031-846-1995","addr":"경기도 양주시 삼숭동 635-1번지","category":"신변잡화 - 기타잡화"}]},{"lat":"37.812648165","long":"127.10445279","items":[{"name":"유워시","tel":"031-821-0988","addr":"경기도 양주시 삼숭동 28-2번지","category":"자동차정비 유지 - 세차장"}]},{"lat":"37.796438097","long":"127.10680355","items":[{"name":"윤선생우리집앞영어교실자이공부방","tel":"","addr":"경기도 양주시 삼숭동 682-1번지 양주자이아파트 412동 305호","category":"학원 - 보습학원"}]},{"lat":"37.805143603","long":"127.1040905","items":[{"name":"이올","tel":"","addr":"경기도 양주시 삼숭동 164-1번지","category":"가구 - 일반가구"}]},{"lat":"37.800926602","long":"127.10475467","items":[{"name":"인생역전","tel":"031-841-9277","addr":"경기도 양주시 삼숭동 188-2번지 1층","category":"일반휴게음식 - 일반한식"}]},{"lat":"37.795226234","long":"127.10167","items":[{"name":"자이자동차세상","tel":"031-859-9244","addr":"경기도 양주시 삼숭동 226번지","category":"자동차정비 유지 - 자동차정비"}]},{"lat":"37.813590213","long":"127.10892853","items":[{"name":"장군","tel":"031-821-5292","addr":"경기도 양주시 삼숭동 87-2번지","category":"일반휴게음식 - 일반한식"}]},{"lat":"37.796921119","long":"127.10034385","items":[{"name":"전라도여수식당","tel":"031-842-0544","addr":"경기도 양주시 삼숭동 257","category":"일반휴게음식 - 일반한식"}]},{"lat":"37.795650068","long":"127.10120507","items":[{"name":"전설의짬뽕","tel":"031-841-7990","addr":"경기도 양주시 삼숭동 230번지","category":"일반휴게음식 - 중국식"}]},{"lat":"37.813364629","long":"127.10931432","items":[{"name":"전주옥","tel":"031-848-3398","addr":"경기도 양주시 삼숭동 83-1번지 1층","category":"일반휴게음식 - 일반한식"}]},{"lat":"37.799478423","long":"127.10200494","items":[{"name":"정우카센타","tel":"031-844-7272","addr":"경기도 양주시 삼숭동 328-1번지","category":"자동차정비 유지 - 자동차정비"}]},{"lat":"37.796893563","long":"127.10097963","items":[{"name":"정카센타","tel":"031-841-9939","addr":"경기도 양주시 삼숭동 259-2번지","category":"자동차정비 유지 - 자동차정비"}]},{"lat":"37.799090806","long":"127.10225421","items":[{"name":"제이에스(JS)상사","tel":"031-111-1111","addr":"경기도 양주시 삼숭동 328-10번지 101호 일부(1-2)","category":"서적문구 - 완구점"}]},{"lat":"37.811982392","long":"127.10337304","items":[{"name":"종이상자","tel":"031-866-1047","addr":"경기도 양주시 삼숭동 25-1번지","category":"유통업 영리 - 기타유통업"}]},{"lat":"37.802924635","long":"127.10711921","items":[{"name":"주식회사 강호이앤티","tel":"031-821-9941","addr":"경기도 양주시 삼숭동 175번지","category":"학원 - 예·체능계학원"}]},{"lat":"37.795866295","long":"127.10120535","items":[{"name":"주식회사 마음스튜디오","tel":"031-843-3541","addr":"경기도 양주시 삼숭동 202-12번지","category":"광학제품 - 사진관"}]},{"lat":"37.808420968","long":"127.10647967","items":[{"name":"주식회사 새서울유통","tel":"02-1111-1111","addr":"경기도 양주시 삼숭동 143-2번지","category":"음료식품 - 기타음료식품"}]},{"lat":"37.812035523","long":"127.10445195","items":[{"name":"주식회사 샤인홈","tel":"031-821-4300","addr":"경기도 양주시 삼숭동 41-3번지","category":"직물 - 침구·수예점"}]},{"lat":"37.811451635","long":"127.10242976","items":[{"name":"주식회사 원웨이","tel":"031-846-5541","addr":"경기도 양주시 삼숭동 488-3번지","category":"가구 - 일반가구"},{"name":"지오피혁","tel":"031-858-5458","addr":"경기도 양주시 삼숭동 488-3번지","category":"직물 - 기타직물"},{"name":"쪽삼","tel":"031-856-8292","addr":"경기도 양주시 삼숭동 488-3번지 1층","category":"일반휴게음식 - 일반한식"},{"name":"텍스글로벌","tel":"031-821-7770","addr":"경기도 양주시 삼숭동 488-3,4","category":"직물 - 옷감·직물"}]},{"lat":"37.798844428","long":"127.09500991","items":[{"name":"주식회사 한국이앤비파크","tel":"031-840-9429","addr":"경기도 양주시 삼숭동 588-5번지","category":"용역 서비스 - 종합용역"},{"name":"한국이앤비파크","tel":"031-840-9429","addr":"경기도 양주시 삼숭동 588-5번지","category":"용역 서비스 - 종합용역"}]},{"lat":"37.811594032","long":"127.10448542","items":[{"name":"주식회사 힘낙지쭈꾸미","tel":"031-842-7300","addr":"경기도 양주시 삼숭동 42-6번지 1층","category":"일반휴게음식 - 일반한식"}]},{"lat":"37.799927596","long":"127.10353838","items":[{"name":"주식회사마노코리아/핫썬","tel":"031-838-6092","addr":"경기도 양주시 삼숭동 193번지","category":"일반휴게음식 - 스넥"}]},{"lat":"37.798757714","long":"127.10194721","items":[{"name":"지오헤어","tel":"070-8800-7792","addr":"경기도 양주시 삼숭동 329-9번지 1층","category":"보건위생 - 미용원"}]},{"lat":"37.80603496","long":"127.10476168","items":[{"name":"진솔ENG","tel":"031-843-0716","addr":"경기도 양주시 삼숭동 167-3번지 가동","category":"기타 - 기계공구"},{"name":"진솔이앤지","tel":"031-843-0716","addr":"경기도 양주시 삼숭동 167-3번지","category":"기타 - 기계공구"}]},{"lat":"37.797505437","long":"127.10190012","items":[{"name":"차앤미미용실","tel":"070-7789-9866","addr":"경기도 양주시 삼숭동 271-1번지 103호","category":"보건위생 - 미용원"},{"name":"퐁당퐁당","tel":"031-843-4430","addr":"경기도 양주시 삼숭동 271-1번지 201호","category":"일반휴게음식 - 서양음식"},{"name":"행복상회","tel":"031-827-3109","addr":"경기도 양주시 삼숭동 271-1번지 1층 108호","category":"음료식품 - 기타음료식품"},{"name":"휴대폰쇼핑몰","tel":"070-2248-0725","addr":"경기도 양주시 삼숭동 271-1번지 1층 1호, 2호","category":"사무통신 - 통신기기"},{"name":"휴대폰쇼핑몰","tel":"070-4207-3892","addr":"경기도 양주시 삼숭동 271-1 서지프라자상가1층1호,2호","category":"사무통신 - 통신기기"}]},{"lat":"37.804427922","long":"127.08609177","items":[{"name":"참 기획","tel":"031-856-7751","addr":"경기도 양주시 삼숭동 670-4번지","category":"건축자재 - 인테리어전문"}]},{"lat":"37.810006049","long":"127.10714052","items":[{"name":"천수효요양원","tel":"031-847-0040","addr":"경기도 양주시 삼숭동 108번지","category":"기타의료기관 - 기타의료기관 및 기타"}]},{"lat":"37.805118579","long":"127.1017286","items":[{"name":"추억의옛날통닭포차","tel":"031-821-2202","addr":"경기도 양주시 삼숭동 411번지 A동 1층","category":"일반휴게음식 - 스넥"}]},{"lat":"37.805813421","long":"127.08881859","items":[{"name":"충남쇼파","tel":"031-821-4077","addr":"경기도 양주시 삼숭동 669-6번지","category":"가구 - 기타가구"}]},{"lat":"37.813786813","long":"127.11070042","items":[{"name":"카스전자저울시스템","tel":"031-844-2744","addr":"경기도 양주시 삼숭동 80-2번지","category":"주방용구 - 주방용구"}]},{"lat":"37.799955599","long":"127.10239163","items":[{"name":"카페르베르","tel":"070-4414-6589","addr":"경기도 양주시 삼숭동 336-1번지 1층","category":"일반휴게음식 - 서양음식"}]},{"lat":"37.811368972","long":"127.1042807","items":[{"name":"카페이스","tel":"","addr":"경기도 양주시 삼숭동 126-2번지 1층 101호","category":"자동차정비 유지 - 세차장"}]},{"lat":"37.801258294","long":"127.0958645","items":[{"name":"코리아에어돔","tel":"070-4898-4099","addr":"경기도 양주시 삼숭동 584번지","category":"레저업소 - 기타레져업소"},{"name":"평창송어횟집","tel":"031-847-0303","addr":"경기도 양주시 삼숭동 584번지","category":"일반휴게음식 - 일반한식"}]},{"lat":"37.814086283","long":"127.10831598","items":[{"name":"코자자","tel":"031-847-6223","addr":"경기도 양주시 삼숭동 74-3번지","category":"숙박업 - 여관/기타숙박업"}]},{"lat":"37.802642654","long":"127.08804279","items":[{"name":"태림유통","tel":"031-868-5275","addr":"경기도 양주시 삼숭동 635-2번지 1층","category":"음료식품 - 기타음료식품"}]},{"lat":"37.814501758","long":"127.10714684","items":[{"name":"티바두마리치킨","tel":"031-841-9293","addr":"경기도 양주시 삼숭동 65-4번지","category":"일반휴게음식 - 스넥"}]},{"lat":"37.80897992","long":"127.09520419","items":[{"name":"패밀리치킨","tel":"031-847-0608","addr":"경기도 양주시 삼숭동 542-2번지 1층","category":"일반휴게음식 - 스넥"}]},{"lat":"37.79603773","long":"127.10089903","items":[{"name":"풍산철물건재","tel":"031-847-3334","addr":"경기도 양주시 삼숭동 231-1번지","category":"건축자재 - 기타건축자재"}]},{"lat":"37.800511921","long":"127.10503796","items":[{"name":"퓨전부부포차","tel":"031-847-8268","addr":"경기도 양주시 삼숭동 187-17번지","category":"일반휴게음식 - 일반한식"},{"name":"호병골닭발","tel":"031-843-5599","addr":"경기도 양주시 삼숭동 187-17번지","category":"일반휴게음식 - 일반한식"}]},{"lat":"37.813644546","long":"127.10862198","items":[{"name":"하나농장","tel":"031-1661-8683","addr":"경기도 양주시 삼숭동 86-1번지","category":"음료식품 - 기타음료식품"},{"name":"향기마트","tel":"031-847-8824","addr":"경기도 양주시 삼숭동 86-1번지 1층","category":"신변잡화 - 기타잡화"}]},{"lat":"37.804067245","long":"127.09836612","items":[{"name":"한미자동차공업사","tel":"031-856-1067","addr":"경기도 양주시 삼숭동 373-7번지","category":"자동차정비 유지 - 자동차정비"}]},{"lat":"37.803094086","long":"127.09853519","items":[{"name":"한미자동차운전전문학원","tel":"031-000-0000","addr":"경기도 양주시 삼숭동 372-1번지","category":"학원 - 기능학원"}]},{"lat":"37.802642612","long":"127.09976092","items":[{"name":"한보 F&C","tel":"031-841-5121","addr":"경기도 양주시 삼숭동 364-27번지","category":"레져용품 - 악기점"}]},{"lat":"37.795064197","long":"127.10151084","items":[{"name":"한상가득","tel":"","addr":"경기도 양주시 삼숭동 225-1번지 나동 1층","category":"음료식품 - 기타음료식품"}]},{"lat":"37.803031688","long":"127.08576091","items":[{"name":"한우리","tel":"","addr":"경기도 양주시 삼숭동 628-1번지 1층","category":"음료식품 - 정육점"},{"name":"한우리","tel":"031-000-0000","addr":"경기도 양주시 삼숭동 628-1번지 1층","category":"일반휴게음식 - 일반한식"}]},{"lat":"37.813869934","long":"127.10845195","items":[{"name":"한정식 양주 본가","tel":"031-111-1111","addr":"경기도 양주시 삼숭동 74-2번지","category":"일반휴게음식 - 일반한식"}]},{"lat":"37.799732501","long":"127.0881757","items":[{"name":"형통 컨테이너","tel":"031-846-2422","addr":"경기도 양주시 삼숭동 619-7, 622-2","category":"건축자재 - 기타건축자재"}]},{"lat":"37.799171747","long":"127.10242464","items":[{"name":"황제 소갈비살","tel":"031-847-3345","addr":"경기도 양주시 삼숭동 328-8번지","category":"일반휴게음식 - 일반한식"}]}]