[{"lat":"37.665879931","long":"126.72576789","imageIndex":7,"items":[{"name":"(주) 늘푸른식자재","tel":"031-000-0000","addr":"경기도 고양시 일산서구 법곳동 102-1번지","indutype":"음료식품 - 기타음료식품","category":"food"},{"name":"산동유통","tel":"031-923-3301","addr":"경기도 고양시 일산서구 법곳동 102-1번지","indutype":"음료식품 - 기타음료식품","category":"food"}]},{"lat":"37.665908847","long":"126.72657249","imageIndex":7,"items":[{"name":"거상축산유통","tel":"031-918-4474","addr":"경기도 고양시 일산서구 법곳동 111-6번지","indutype":"음료식품 - 정육점","category":"food"}]},{"lat":"37.664211563","long":"126.71754588","imageIndex":7,"items":[{"name":"나인음료","tel":"","addr":"경기도 고양시 일산서구 법곳동 1608번지","indutype":"음료식품 - 기타음료식품","category":"food"}]},{"lat":"37.667379951","long":"126.72765511","imageIndex":7,"items":[{"name":"노니라이프","tel":"031-907-8032","addr":"경기도 고양시 일산서구 법곳동 752-25번지","indutype":"건강식품 - 기타건강식품","category":"food"}]},{"lat":"37.664267591","long":"126.72979733","imageIndex":7,"items":[{"name":"농업회사법인 온스 주식회사","tel":"070-1111-1111","addr":"경기도 고양시 일산서구 법곳동 192-1번지","indutype":"건강식품 - 기타건강식품","category":"food"}]},{"lat":"37.664820064","long":"126.70852191","imageIndex":7,"items":[{"name":"농업회사법인주식회사상생에코","tel":"031-921-4945","addr":"경기도 고양시 일산서구 법곳동 1388번지","indutype":"음료식품 - 농·축·수산품","category":"food"}]},{"lat":"37.670568634","long":"126.7015511","imageIndex":7,"items":[{"name":"민주농장","tel":"031-813-0849","addr":"경기도 고양시 일산서구 법곳동 1210번지","indutype":"음료식품 - 농·축·수산품","category":"food"}]},{"lat":"37.670793285","long":"126.6943527","imageIndex":7,"items":[{"name":"쉘터","tel":"031-968-0798","addr":"경기도 고양시 일산서구 법곳동","indutype":"음료식품 - 농·축·수산품","category":"food"}]},{"lat":"37.665346949","long":"126.71391472","imageIndex":7,"items":[{"name":"일산표고랜드","tel":"031-924-3332","addr":"경기도 고양시 일산서구 법곳동","indutype":"음료식품 - 농·축·수산품","category":"food"}]},{"lat":"37.665434268","long":"126.72399014","imageIndex":7,"items":[{"name":"주식회사 원우에프앤지","tel":"031-914-6652","addr":"경기도 고양시 일산서구 법곳동 69번지","indutype":"음료식품 - 농·축·수산품","category":"food"}]},{"lat":"37.667320626","long":"126.72160292","imageIndex":7,"items":[{"name":"현대홀푸드","tel":"031-922-9777","addr":"경기도 고양시 일산서구 법곳동 438-4번지","indutype":"음료식품 - 기타음료식품","category":"food"}]},{"lat":"37.668353013","long":"126.72004623","imageIndex":17,"items":[{"name":"(주)경인정공","tel":"031-911-2576","addr":"경기도 고양시 일산서구 법곳동 428-1번지","indutype":"","category":"other"},{"name":"(주)세종정공","tel":"031-911-2577","addr":"경기도 고양시 일산서구 법곳동 428-1번지","indutype":"","category":"other"}]},{"lat":"37.665798072","long":"126.72543951","imageIndex":17,"items":[{"name":"(주)네오딕정보기술","tel":"031-918-8338","addr":"경기도 고양시 일산서구 법곳동 100번지","indutype":"","category":"other"},{"name":"비앤씨솔루션(프린터온일산점)","tel":"031-907-6770","addr":"경기도 고양시 일산서구 법곳동 100번지","indutype":"","category":"other"},{"name":"비앤씨솔루션(프린터온일산점)","tel":"031-907-6770","addr":"경기도 고양시 일산서구 법곳동 100번지","indutype":"사무통신 - 사무용 OA기기","category":"other"},{"name":"잘나와","tel":"031-123-4567","addr":"경기도 고양시 일산서구 법곳동 100번지","indutype":"사무통신 - 사무용 OA기기","category":"other"},{"name":"잘나와","tel":"031-123-4567","addr":"경기도 고양시 일산서구 법곳동 100번지","indutype":"","category":"other"},{"name":"주식회사 앤알비","tel":"031-915-2700","addr":"경기도 고양시 일산서구 법곳동 100번지","indutype":"","category":"other"}]},{"lat":"37.658626517","long":"126.72935335","imageIndex":17,"items":[{"name":"(주)더블류위즈모터스","tel":"031-917-8272","addr":"경기도 고양시 일산서구 법곳동 179-4번지","indutype":"","category":"other"},{"name":"(주)유진모터스","tel":"","addr":"경기도 고양시 일산서구 법곳동 179-4번지","indutype":"","category":"other"},{"name":"BBCustom(비비커스텀)","tel":"031-919-2814","addr":"경기도 고양시 일산서구 법곳동 179-4번지","indutype":"","category":"other"}]},{"lat":"37.670627905","long":"126.71815605","imageIndex":17,"items":[{"name":"(주)동명부품산업","tel":"031-911-1158","addr":"경기도 고양시 일산서구 법곳동 1126-2번지","indutype":"","category":"other"},{"name":"(주)동명부품산업","tel":"031-911-1158","addr":"경기도 고양시 일산서구 법곳동 1126-2번지","indutype":"기타 - 기계공구","category":"other"},{"name":"D&CO","tel":"070-4823-4728","addr":"경기도 고양시 일산서구 법곳동 1126-2번지","indutype":"","category":"other"},{"name":"명품한우","tel":"031-917-9494","addr":"경기도 고양시 일산서구 법곳동 1126-2번지","indutype":"","category":"other"},{"name":"서촌명품한우","tel":"031-917-9494","addr":"경기도 고양시 일산서구 법곳동 1126-2번지","indutype":"","category":"other"}]},{"lat":"37.659713938","long":"126.72432886","imageIndex":17,"items":[{"name":"(주)마이러브카","tel":"031-1899-0719","addr":"경기도 고양시 일산서구 법곳동 245-1번지","indutype":"","category":"other"},{"name":"SH모터스","tel":"031-912-6293","addr":"경기도 고양시 일산서구 법곳동 245-1번지","indutype":"","category":"other"}]},{"lat":"37.672764254","long":"126.71488343","imageIndex":17,"items":[{"name":"(주)미소렌탈","tel":"031-923-0403","addr":"경기도 고양시 일산서구 법곳동 1088번지","indutype":"건축자재 - 기타건축자재","category":"other"},{"name":"(주)미소렌탈","tel":"031-923-0403","addr":"경기도 고양시 일산서구 법곳동 1088번지","indutype":"","category":"other"},{"name":"반원","tel":"","addr":"경기도 고양시 일산서구 법곳동 1088번지","indutype":"","category":"other"},{"name":"반원","tel":"","addr":"경기도 고양시 일산서구 법곳동 1088번지","indutype":"신변잡화 - 가방","category":"other"}]},{"lat":"37.66746027","long":"126.72732613","imageIndex":17,"items":[{"name":"(주)비바테크","tel":"031-924-6667","addr":"경기도 고양시 일산서구 법곳동 752-1번지","indutype":"전기제품 - 냉열기기","category":"other"},{"name":"(주)비바테크","tel":"031-924-6667","addr":"경기도 고양시 일산서구 법곳동 752-1번지","indutype":"","category":"other"},{"name":"한국시스템공조","tel":"031-923-4989","addr":"경기도 고양시 일산서구 법곳동 752-1번지","indutype":"","category":"other"},{"name":"한국시스템공조","tel":"031-923-4989","addr":"경기도 고양시 일산서구 법곳동 752-1번지","indutype":"전기제품 - 냉열기기","category":"other"}]},{"lat":"37.662376908","long":"126.72268691","imageIndex":17,"items":[{"name":"(주)신성엔지니어링","tel":"031-923-3087","addr":"경기도 고양시 일산서구 법곳동 1732-7번지","indutype":"","category":"other"},{"name":"(주)신성엔지니어링","tel":"031-923-3087","addr":"경기도 고양시 일산서구 법곳동 1732-7번지","indutype":"용역 서비스 - 기타용역서비스","category":"other"}]},{"lat":"37.667381961","long":"126.72087731","imageIndex":17,"items":[{"name":"(주)아마레또","tel":"031-945-7209","addr":"경기도 고양시 일산서구 법곳동 432번지","indutype":"","category":"other"},{"name":"(주)아마레또","tel":"031-945-7209","addr":"경기도 고양시 일산서구 법곳동 432번지","indutype":"신변잡화 - 기타잡화","category":"other"}]},{"lat":"37.667348384","long":"126.72190884","imageIndex":17,"items":[{"name":"(주)아이지엠","tel":"031-913-9877","addr":"경기도 고양시 일산서구 법곳동 439번지","indutype":"가구 - 기타가구","category":"other"},{"name":"디앤샵","tel":"031-919-8304","addr":"경기도 고양시 일산서구 법곳동 439번지","indutype":"","category":"other"}]},{"lat":"37.667909967","long":"126.72316481","imageIndex":17,"items":[{"name":"(주)엠오토","tel":"080-2672-0313","addr":"경기도 고양시 일산서구 법곳동 748-9번지","indutype":"","category":"other"},{"name":"일산휠09","tel":"","addr":"경기도 고양시 일산서구 법곳동 748-9번지","indutype":"","category":"other"},{"name":"휠09","tel":"","addr":"경기도 고양시 일산서구 법곳동 748-9번지","indutype":"","category":"other"}]},{"lat":"37.660492829","long":"126.72224067","imageIndex":17,"items":[{"name":"(주)영한케이엔씨","tel":"031-916-7062","addr":"경기도 고양시 일산서구 법곳동","indutype":"신변잡화 - 기타잡화","category":"other"},{"name":"(주)영한케이엔씨","tel":"031-916-7062","addr":"경기도 고양시 일산서구 법곳동 1760","indutype":"","category":"other"},{"name":"서희상사","tel":"031-917-0482","addr":"경기도 고양시 일산서구 법곳동","indutype":"건축자재 - 건축용 요업제품","category":"other"},{"name":"서희상사","tel":"031-917-0482","addr":"경기도 고양시 일산서구 법곳동 1760","indutype":"","category":"other"}]},{"lat":"37.668016351","long":"126.70055267","imageIndex":17,"items":[{"name":"(주)웰파크","tel":"031-259-2084","addr":"경기도 고양시 일산서구 법곳동 1240번지","indutype":"","category":"other"}]},{"lat":"37.666549137","long":"126.7268308","imageIndex":17,"items":[{"name":"(주)제이제이모터스(JJ motors.Co.,Ltd.)","tel":"031-919-8333","addr":"경기도 고양시 일산서구 법곳동 751-9번지","indutype":"","category":"other"},{"name":"대화자동차공업사","tel":"031-919-8333","addr":"경기도 고양시 일산서구 법곳동 751-9번지","indutype":"","category":"other"}]},{"lat":"37.660048869","long":"126.72499626","imageIndex":17,"items":[{"name":"(주)카페오토","tel":"031-922-1645","addr":"경기도 고양시 일산서구 법곳동 205번지","indutype":"","category":"other"}]},{"lat":"37.660411284","long":"126.72204831","imageIndex":17,"items":[{"name":"(주)투앤포","tel":"031-913-4254","addr":"경기도 고양시 일산서구 법곳동 1761-1번지","indutype":"신변잡화 - 기타잡화","category":"other"},{"name":"(주)투앤포","tel":"031-913-4254","addr":"경기도 고양시 일산서구 법곳동 1761-1번지","indutype":"","category":"other"}]},{"lat":"37.672430941","long":"126.70050076","imageIndex":17,"items":[{"name":"5월5일 공방","tel":"070-7772-0262","addr":"경기도 고양시 일산서구 법곳동 1185-1번지","indutype":"가구 - 일반가구","category":"other"},{"name":"5월5일 공방","tel":"070-7772-0262","addr":"경기도 고양시 일산서구 법곳동 1185-1번지","indutype":"","category":"other"},{"name":"신형건축","tel":"031-919-4949","addr":"경기도 고양시 일산서구 법곳동 1185-1번지","indutype":"건축자재 - 인테리어전문","category":"other"},{"name":"신형건축","tel":"031-919-4949","addr":"경기도 고양시 일산서구 법곳동 1185-1번지","indutype":"","category":"other"}]},{"lat":"37.660654084","long":"126.72566265","imageIndex":17,"items":[{"name":"AMC모터스","tel":"031-918-4700","addr":"경기도 고양시 일산서구 법곳동 208-3번지","indutype":"","category":"other"},{"name":"동신유리","tel":"031-915-2412","addr":"경기도 고양시 일산서구 법곳동 208-3번지","indutype":"건축자재 - 유리","category":"other"},{"name":"동신유리","tel":"031-915-2412","addr":"경기도 고양시 일산서구 법곳동 208-3번지","indutype":"","category":"other"},{"name":"아이엔씨모터스","tel":"031-918-4700","addr":"경기도 고양시 일산서구 법곳동 208-3번지","indutype":"","category":"other"},{"name":"아이엔씨모터스","tel":"031-918-4700","addr":"경기도 고양시 일산서구 법곳동 208-3번지","indutype":"","category":"other"},{"name":"피닉스모터스","tel":"031-919-0411","addr":"경기도 고양시 일산서구 법곳동 208-3번지","indutype":"","category":"other"}]},{"lat":"37.667630456","long":"126.72307519","imageIndex":17,"items":[{"name":"DS LEATHER TRADING","tel":"070-8866-7839","addr":"경기도 고양시 일산서구 법곳동 38번지","indutype":"신변잡화 - 가방","category":"other"},{"name":"DS LEATHER TRADING","tel":"070-8866-7839","addr":"경기도 고양시 일산서구 법곳동 38번지","indutype":"","category":"other"}]},{"lat":"37.659383121","long":"126.72540672","imageIndex":17,"items":[{"name":"FITNESS 365(휘트니스 365)","tel":"031-994-3655","addr":"경기도 고양시 일산서구 법곳동 256-13번지","indutype":"","category":"other"},{"name":"FITNESS 365(휘트니스 365)","tel":"031-994-3655","addr":"경기도 고양시 일산서구 법곳동 256-13번지","indutype":"레져용품 - 스포츠·레져용품","category":"other"},{"name":"에이앤티써클원","tel":"031-915-5331","addr":"경기도 고양시 일산서구 법곳동 256-13번지","indutype":"","category":"other"}]},{"lat":"37.659128556","long":"126.72443304","imageIndex":17,"items":[{"name":"SPEED공업사","tel":"031-915-9442","addr":"경기도 고양시 일산서구 법곳동 250-4번지","indutype":"","category":"other"}]},{"lat":"37.670770544","long":"126.69599632","imageIndex":17,"items":[{"name":"SU JOB","tel":"070-8335-2171","addr":"경기도 고양시 일산서구 법곳동 1142-1번지","indutype":"","category":"other"}]},{"lat":"37.667381061","long":"126.72813114","imageIndex":17,"items":[{"name":"berry good korea(베리 굿 코리아)","tel":"031-1899-8903","addr":"경기도 고양시 일산서구 법곳동 752-23번지 3동","indutype":"","category":"other"},{"name":"베리굿팜","tel":"031-1899-8903","addr":"경기도 고양시 일산서구 법곳동 752-23번지","indutype":"문화.취미 - 화원","category":"other"},{"name":"베리굿팜","tel":"031-1899-8903","addr":"경기도 고양시 일산서구 법곳동 752-23번지","indutype":"","category":"other"}]},{"lat":"37.665849967","long":"126.72452128","imageIndex":17,"items":[{"name":"元一상사","tel":"031-923-1008","addr":"경기도 고양시 일산서구 법곳동 60-1번지","indutype":"","category":"other"}]},{"lat":"37.660544209","long":"126.72491508","imageIndex":17,"items":[{"name":"강명한모터스","tel":"031-918-3507","addr":"경기도 고양시 일산서구 법곳동 206-4번지","indutype":"","category":"other"}]},{"lat":"37.665299322","long":"126.70922271","imageIndex":17,"items":[{"name":"고양민물","tel":"031-923-7264","addr":"경기도 고양시 일산서구 법곳동 1436번지","indutype":"","category":"other"}]},{"lat":"37.665516666","long":"126.72454519","imageIndex":17,"items":[{"name":"고쳐줄께","tel":"","addr":"경기도 고양시 일산서구 법곳동 66-1번지","indutype":"수리서비스 - 사무·통신기기수리","category":"other"}]},{"lat":"37.658409577","long":"126.72904816","imageIndex":17,"items":[{"name":"골드모터스","tel":"031-917-6080","addr":"경기도 고양시 일산서구 법곳동 180-10번지","indutype":"","category":"other"},{"name":"골드모터스","tel":"031-924-6541","addr":"경기도 고양시 일산서구 법곳동 180-10번지","indutype":"","category":"other"},{"name":"골드모터스","tel":"031-917-6080","addr":"경기도 고양시 일산서구 법곳동 180-10번지","indutype":"","category":"other"}]},{"lat":"37.670125726","long":"126.71541501","imageIndex":17,"items":[{"name":"그림사인컴","tel":"031-908-8922","addr":"경기도 고양시 일산서구 법곳동 661-134번지","indutype":"","category":"other"},{"name":"에스엠 기획","tel":"031-923-0186","addr":"경기도 고양시 일산서구 법곳동 661-134번지","indutype":"","category":"other"},{"name":"에스엠 기획","tel":"031-923-0186","addr":"경기도 고양시 일산서구 법곳동 661-134번지","indutype":"유통업 영리 - 기타유통업","category":"other"}]},{"lat":"37.666353102","long":"126.70908255","imageIndex":17,"items":[{"name":"금빛선인장","tel":"031-383-3031","addr":"경기도 고양시 일산서구 법곳동 1393-3번지","indutype":"","category":"other"},{"name":"금빛선인장","tel":"031-383-3031","addr":"경기도 고양시 일산서구 법곳동 1393-3번지","indutype":"문화.취미 - 화원","category":"other"}]},{"lat":"37.665296197","long":"126.72657476","imageIndex":17,"items":[{"name":"나무모아","tel":"031-918-5346","addr":"경기도 고양시 일산서구 법곳동 89-4번지","indutype":"","category":"other"},{"name":"대화현대손세차장","tel":"031-911-3737","addr":"경기도 고양시 일산서구 법곳동 89-4번지","indutype":"","category":"other"},{"name":"오토프랜드","tel":"031-914-0234","addr":"경기도 고양시 일산서구 법곳동 89-4번지","indutype":"","category":"other"},{"name":"현대25시마트","tel":"031-917-1020","addr":"경기도 고양시 일산서구 법곳동 89-4번지","indutype":"","category":"other"}]},{"lat":"37.667379951","long":"126.72765511","imageIndex":17,"items":[{"name":"노니라이프","tel":"031-907-8032","addr":"경기도 고양시 일산서구 법곳동 752-25번지","indutype":"","category":"other"}]},{"lat":"37.680629532","long":"126.71483035","imageIndex":17,"items":[{"name":"농업법인파주심학산친환경 영농조합법인","tel":"031-922-4883","addr":"경기도 고양시 일산서구 법곳동 768-3번지","indutype":"","category":"other"}]},{"lat":"37.668237548","long":"126.71699776","imageIndex":17,"items":[{"name":"농업회사(주)엠바이이오텍","tel":"031-919-8868","addr":"경기도 고양시 일산서구 법곳동 1532번지","indutype":"","category":"other"}]},{"lat":"37.664820064","long":"126.70852191","imageIndex":17,"items":[{"name":"농업회사법인주식회사상생에코","tel":"031-921-4945","addr":"경기도 고양시 일산서구 법곳동 1388번지","indutype":"","category":"other"}]},{"lat":"37.669434144","long":"126.69832538","imageIndex":17,"items":[{"name":"뉴월드","tel":"031-923-6414","addr":"경기도 고양시 일산서구 법곳동 1191-16번지","indutype":"","category":"other"}]},{"lat":"37.666070132","long":"126.72237834","imageIndex":17,"items":[{"name":"대덕","tel":"031-921-4485","addr":"경기도 고양시 일산서구 법곳동 365-2번지","indutype":"","category":"other"}]},{"lat":"37.665602973","long":"126.7267663","imageIndex":17,"items":[{"name":"대명샷시유리","tel":"031-918-9248","addr":"경기도 고양시 일산서구 법곳동 110-1번지","indutype":"건축자재 - 보일러·펌프·샷시","category":"other"},{"name":"대명샷시유리","tel":"031-918-9248","addr":"경기도 고양시 일산서구 법곳동 110-1번지","indutype":"","category":"other"},{"name":"우리집밥","tel":"031-916-2468","addr":"경기도 고양시 일산서구 법곳동 110-1번지","indutype":"","category":"other"}]},{"lat":"37.666990977","long":"126.72698784","imageIndex":17,"items":[{"name":"대승그린기술","tel":"031-913-7376","addr":"경기도 고양시 일산서구 법곳동 751-2번지","indutype":"","category":"other"},{"name":"대승그린기술","tel":"031-913-7376","addr":"경기도 고양시 일산서구 법곳동 751-2번지","indutype":"용역 서비스 - 종합용역","category":"other"},{"name":"양평해장국","tel":"031-911-1049","addr":"경기도 고양시 일산서구 법곳동 751-2번지","indutype":"","category":"other"}]},{"lat":"37.665792519","long":"126.72691294","imageIndex":17,"items":[{"name":"대화정","tel":"031-917-7479","addr":"경기도 고양시 일산서구 법곳동 126번지","indutype":"","category":"other"}]},{"lat":"37.662296736","long":"126.72307254","imageIndex":17,"items":[{"name":"더블푸드","tel":"031-901-9776","addr":"경기도 고양시 일산서구 법곳동 1732-9번지","indutype":"","category":"other"},{"name":"자유로추어탕","tel":"031-923-6563","addr":"경기도 고양시 일산서구 법곳동 1732-9번지","indutype":"","category":"other"}]},{"lat":"37.667076978","long":"126.72524207","imageIndex":17,"items":[{"name":"더샵(Theshop)","tel":"031-313-5301","addr":"경기도 고양시 일산서구 법곳동 748-20번지","indutype":"가구 - 일반가구","category":"other"},{"name":"더샵(Theshop)","tel":"031-313-5301","addr":"경기도 고양시 일산서구 법곳동 748-20번지","indutype":"","category":"other"}]},{"lat":"37.666322251","long":"126.72612893","imageIndex":17,"items":[{"name":"더존윤활유","tel":"031-923-5152","addr":"경기도 고양시 일산서구 법곳동 119-2번지","indutype":"","category":"other"}]},{"lat":"37.666490956","long":"126.72507425","imageIndex":17,"items":[{"name":"도서출판아이콘","tel":"02-844-4403","addr":"경기도 고양시 일산서구 법곳동 112-3번지","indutype":"","category":"other"},{"name":"핸즈코리아","tel":"031-924-4800","addr":"경기도 고양시 일산서구 법곳동 112-3번지","indutype":"사무통신 - 사무용 OA기기","category":"other"},{"name":"핸즈코리아","tel":"031-924-4800","addr":"경기도 고양시 일산서구 법곳동 112-3번지","indutype":"","category":"other"}]},{"lat":"37.67134856","long":"126.71810796","imageIndex":17,"items":[{"name":"동명부품산업","tel":"031-911-1158","addr":"경기도 고양시 일산서구 법곳동 1126번지","indutype":"기타 - 기계공구","category":"other"},{"name":"동명부품산업","tel":"031-911-1158","addr":"경기도 고양시 일산서구 법곳동 1126번지","indutype":"","category":"other"}]},{"lat":"37.661133371","long":"126.72260092","imageIndex":17,"items":[{"name":"르노타이어","tel":"031-911-9845","addr":"경기도 고양시 일산서구 법곳동 239-1번지","indutype":"","category":"other"}]},{"lat":"37.659769706","long":"126.72505396","imageIndex":17,"items":[{"name":"메기1번지","tel":"031-918-3838","addr":"경기도 고양시 일산서구 법곳동 256-44번지","indutype":"","category":"other"}]},{"lat":"37.662350148","long":"126.72280034","imageIndex":17,"items":[{"name":"모터크린","tel":"031-925-1716","addr":"경기도 고양시 일산서구 법곳동 1732-10번지","indutype":"","category":"other"}]},{"lat":"37.670485086","long":"126.71499425","imageIndex":17,"items":[{"name":"문성가구","tel":"02-522-3582","addr":"경기도 고양시 일산서구 법곳동 1121번지","indutype":"","category":"other"},{"name":"문성가구","tel":"02-522-3582","addr":"경기도 고양시 일산서구 법곳동 1121번지","indutype":"가구 - 기타가구","category":"other"}]},{"lat":"37.668542676","long":"126.72023819","imageIndex":17,"items":[{"name":"미소테크","tel":"031-439-3383","addr":"경기도 고양시 일산서구 법곳동 422-3번지","indutype":"","category":"other"},{"name":"삼정가스테크","tel":"031-915-0091","addr":"경기도 고양시 일산서구 법곳동 422-3번지","indutype":"","category":"other"},{"name":"한일산업가스","tel":"031-915-0091","addr":"경기도 고양시 일산서구 법곳동 422-3번지","indutype":"","category":"other"}]},{"lat":"37.667819331","long":"126.70101817","imageIndex":17,"items":[{"name":"미즈캠핑자연인","tel":"","addr":"경기도 고양시 일산서구 법곳동 1240-1번지","indutype":"레져용품 - 스포츠·레져용품","category":"other"}]},{"lat":"37.657241794","long":"126.73054835","imageIndex":17,"items":[{"name":"믹스4","tel":"031-917-1085","addr":"경기도 고양시 일산서구 법곳동 740-22번지","indutype":"","category":"other"},{"name":"주식회사한국경매무역","tel":"02-2038-4959","addr":"경기도 고양시 일산서구 법곳동 740-22번지","indutype":"","category":"other"}]},{"lat":"37.670568634","long":"126.7015511","imageIndex":17,"items":[{"name":"민주농장","tel":"031-813-0849","addr":"경기도 고양시 일산서구 법곳동 1210번지","indutype":"","category":"other"}]},{"lat":"37.667101579","long":"126.72805283","imageIndex":17,"items":[{"name":"바이크DC","tel":"031-969-0879","addr":"경기도 고양시 일산서구 법곳동 752-20번지","indutype":"","category":"other"}]},{"lat":"37.665879931","long":"126.72576789","imageIndex":17,"items":[{"name":"범진유통","tel":"031-923-3301","addr":"경기도 고양시 일산서구 법곳동 102-1번지","indutype":"","category":"other"},{"name":"산동유통","tel":"031-923-3301","addr":"경기도 고양시 일산서구 법곳동 102-1번지","indutype":"","category":"other"}]},{"lat":"37.659960076","long":"126.72174402","imageIndex":17,"items":[{"name":"봉봉모터스","tel":"070-4413-7289","addr":"경기도 고양시 일산서구 법곳동 1770번지","indutype":"","category":"other"},{"name":"주식회사 오토반플러스","tel":"031-924-7255","addr":"경기도 고양시 일산서구 법곳동 1770번지","indutype":"","category":"other"},{"name":"탑모터스","tel":"070-8158-9641","addr":"경기도 고양시 일산서구 법곳동 1770번지","indutype":"","category":"other"}]},{"lat":"37.668763951","long":"126.7261652","imageIndex":17,"items":[{"name":"비젼메이커","tel":"070-8800-2313","addr":"경기도 고양시 일산서구 법곳동 750-18번지","indutype":"","category":"other"},{"name":"비젼메이커","tel":"","addr":"경기도 고양시 일산서구 법곳동 750-18번지","indutype":"","category":"other"},{"name":"비젼메이커","tel":"","addr":"경기도 고양시 일산서구 법곳동 750-18번지","indutype":"용역 서비스 - 소프트웨어","category":"other"}]},{"lat":"37.666514583","long":"126.72746563","imageIndex":17,"items":[{"name":"삼보공인중개사사무소","tel":"031-918-8945","addr":"경기도 고양시 일산서구 법곳동 751-10번지","indutype":"","category":"other"},{"name":"삼보공인중개사사무소","tel":"031-918-8945","addr":"경기도 고양시 일산서구 법곳동 751-10번지","indutype":"용역 서비스 - 부동산 중개·임대","category":"other"},{"name":"일산투카3급부분자동차공업사","tel":"031-917-4465","addr":"경기도 고양시 일산서구 법곳동 751-10번지","indutype":"","category":"other"}]},{"lat":"37.665541055","long":"126.70860973","imageIndex":17,"items":[{"name":"생활자세문화원","tel":"031-923-0260","addr":"경기도 고양시 일산서구 법곳동 1390번지","indutype":"","category":"other"}]},{"lat":"37.664665023","long":"126.71877952","imageIndex":17,"items":[{"name":"서울민예","tel":"031-970-2688","addr":"경기도 고양시 일산서구 법곳동 1632번지","indutype":"","category":"other"}]},{"lat":"37.666457528","long":"126.7261851","imageIndex":17,"items":[{"name":"서울진열장","tel":"031-916-6828","addr":"경기도 고양시 일산서구 법곳동 118-5번지","indutype":"","category":"other"}]},{"lat":"37.666270424","long":"126.72708118","imageIndex":17,"items":[{"name":"성진철물","tel":"031-913-2445","addr":"경기도 고양시 일산서구 법곳동 751-18번지","indutype":"기타 - 기계공구","category":"other"},{"name":"성진철물","tel":"031-913-2445","addr":"경기도 고양시 일산서구 법곳동 751-18번지","indutype":"","category":"other"}]},{"lat":"37.669043714","long":"126.69715953","imageIndex":17,"items":[{"name":"세종플러스","tel":"031-919-0923","addr":"경기도 고양시 일산서구 법곳동 1153번지","indutype":"","category":"other"}]},{"lat":"37.671353865","long":"126.71657775","imageIndex":17,"items":[{"name":"송야가든","tel":"031-919-0997","addr":"경기도 고양시 일산서구 법곳동 1123번지","indutype":"","category":"other"}]},{"lat":"37.670793285","long":"126.6943527","imageIndex":17,"items":[{"name":"쉘터","tel":"031-968-0798","addr":"경기도 고양시 일산서구 법곳동 1130번지","indutype":"","category":"other"}]},{"lat":"37.660987572","long":"126.72571808","imageIndex":17,"items":[{"name":"시골보신탕","tel":"031-911-1133","addr":"경기도 고양시 일산서구 법곳동 208-4번지","indutype":"","category":"other"}]},{"lat":"37.668901293","long":"126.69782884","imageIndex":17,"items":[{"name":"신우인쇄","tel":"031-923-7333","addr":"경기도 고양시 일산서구 법곳동 1155-3번지","indutype":"서적문구 - 출판 및 인쇄물","category":"other"},{"name":"신우인쇄","tel":"031-923-7333","addr":"경기도 고양시 일산서구 법곳동 1155-3번지","indutype":"","category":"other"},{"name":"이든미디어","tel":"031-923-1923","addr":"경기도 고양시 일산서구 법곳동 1155-3번지","indutype":"","category":"other"},{"name":"이든미디어","tel":"031-923-1923","addr":"경기도 고양시 일산서구 법곳동 1155-3번지","indutype":"서적문구 - 출판 및 인쇄물","category":"other"}]},{"lat":"37.665910412","long":"126.72724118","imageIndex":17,"items":[{"name":"씨유일산법곳점","tel":"031-917-0878","addr":"경기도 고양시 일산서구 법곳동 125-2번지","indutype":"","category":"other"},{"name":"씨유일산법곳점","tel":"031-917-0878","addr":"경기도 고양시 일산서구 법곳동 125-2번지","indutype":"유통업 영리 - 편 의 점","category":"other"}]},{"lat":"37.659932372","long":"126.7214608","imageIndex":17,"items":[{"name":"아침에나라","tel":"070-4114-9732","addr":"경기도 고양시 일산서구 법곳동 1769번지","indutype":"직물 - 침구·수예점","category":"other"},{"name":"아침에나라","tel":"070-4114-9732","addr":"경기도 고양시 일산서구 법곳동 1769번지","indutype":"","category":"other"}]},{"lat":"37.680546856","long":"126.71052295","imageIndex":17,"items":[{"name":"야생화세상","tel":"031-923-5343","addr":"경기도 고양시 일산서구 법곳동 759-2번지","indutype":"문화.취미 - 화원","category":"other"},{"name":"야생화세상","tel":"031-923-5343","addr":"경기도 고양시 일산서구 법곳동 759-2번지","indutype":"","category":"other"}]},{"lat":"37.665796898","long":"126.72494083","imageIndex":17,"items":[{"name":"에이스 모터스","tel":"02-335-2828","addr":"경기도 고양시 일산서구 법곳동 63-4번지","indutype":"","category":"other"}]},{"lat":"37.66029389","long":"126.72193542","imageIndex":17,"items":[{"name":"에코원","tel":"031-918-7773","addr":"경기도 고양시 일산서구 법곳동 1761-3번지","indutype":"","category":"other"}]},{"lat":"37.665180372","long":"126.72713055","imageIndex":17,"items":[{"name":"오토보겐 코리아(AUTOWOGEN KOREA)","tel":"031-913-4749","addr":"경기도 고양시 일산서구 법곳동 143-2번지","indutype":"","category":"other"},{"name":"오토보겐(AUTO WOGEN)","tel":"031-913-4749","addr":"경기도 고양시 일산서구 법곳동 143-2번지","indutype":"","category":"other"}]},{"lat":"37.668929112","long":"126.69813476","imageIndex":17,"items":[{"name":"윈도우셔터","tel":"031-000-0000","addr":"경기도 고양시 일산서구 법곳동 1195번지","indutype":"직물 - 카페트,커튼,천막,지물","category":"other"},{"name":"윈도우셔터","tel":"031-0-0000","addr":"경기도 고양시 일산서구 법곳동 1195번지","indutype":"","category":"other"},{"name":"주식회사 디아이에프","tel":"031-813-6672","addr":"경기도 고양시 일산서구 법곳동 1195번지","indutype":"기타 - 기계공구","category":"other"},{"name":"주식회사 디아이에프","tel":"031-1111-1111","addr":"경기도 고양시 일산서구 법곳동 1195번지","indutype":"","category":"other"}]},{"lat":"37.660599174","long":"126.7253002","imageIndex":17,"items":[{"name":"유로모터스","tel":"031-921-2213","addr":"경기도 고양시 일산서구 법곳동 209-22번지","indutype":"","category":"other"},{"name":"한가람","tel":"031-915-3881","addr":"경기도 고양시 일산서구 법곳동 209-22번지","indutype":"","category":"other"}]},{"lat":"37.660715391","long":"126.72491444","imageIndex":17,"items":[{"name":"이산포자동차공업사","tel":"031-921-7744","addr":"경기도 고양시 일산서구 법곳동 207-2번지","indutype":"","category":"other"}]},{"lat":"37.660074187","long":"126.72427085","imageIndex":17,"items":[{"name":"일산모터스","tel":"031-918-1313","addr":"경기도 고양시 일산서구 법곳동 256-11번지","indutype":"","category":"other"}]},{"lat":"37.661683951","long":"126.72301818","imageIndex":17,"items":[{"name":"일산유소년스포츠","tel":"031-922-5946","addr":"경기도 고양시 일산서구 법곳동 330-1번지","indutype":"","category":"other"},{"name":"일산후퍼옵틱","tel":"031-0-0000","addr":"경기도 고양시 일산서구 법곳동 330-1번지","indutype":"","category":"other"},{"name":"제이&와이오토컴퍼니","tel":"031-906-3694","addr":"경기도 고양시 일산서구 법곳동 330-1번지","indutype":"","category":"other"}]},{"lat":"37.665346949","long":"126.71391472","imageIndex":17,"items":[{"name":"일산표고랜드","tel":"031-924-3332","addr":"경기도 고양시 일산서구 법곳동 1507번지","indutype":"","category":"other"}]},{"lat":"37.669353556","long":"126.69851839","imageIndex":17,"items":[{"name":"잔치잔치","tel":"031-923-5779","addr":"경기도 고양시 일산서구 법곳동 1191-15번지","indutype":"","category":"other"}]},{"lat":"37.667215827","long":"126.72299741","imageIndex":17,"items":[{"name":"전산부직포","tel":"031-921-0097","addr":"경기도 고양시 일산서구 법곳동 443번지","indutype":"","category":"other"},{"name":"전산부직포","tel":"031-921-0097","addr":"경기도 고양시 일산서구 법곳동 443번지","indutype":"신변잡화 - 기타잡화","category":"other"}]},{"lat":"37.662932587","long":"126.72146081","imageIndex":17,"items":[{"name":"제이(J)퍼니처&인테리어","tel":"031-902-7900","addr":"경기도 고양시 일산서구 법곳동 1711-1번지","indutype":"가구 - 일반가구","category":"other"},{"name":"제이(J)퍼니처&인테리어","tel":"031-902-7900","addr":"경기도 고양시 일산서구 법곳동 1711-1번지","indutype":"","category":"other"}]},{"lat":"37.664211563","long":"126.71754588","imageIndex":17,"items":[{"name":"주식회사 서넥스홀딩스","tel":"031-1800-4676","addr":"경기도 고양시 일산서구 법곳동 1608번지","indutype":"주방용구 - 주방용구","category":"other"},{"name":"주식회사 서넥스홀딩스","tel":"031-1800-4676","addr":"경기도 고양시 일산서구 법곳동 1608번지","indutype":"","category":"other"}]},{"lat":"37.660771343","long":"126.72191096","imageIndex":17,"items":[{"name":"주식회사 세미타이어","tel":"031-925-9985","addr":"경기도 고양시 일산서구 법곳동 1761-2번지","indutype":"","category":"other"}]},{"lat":"37.672235452","long":"126.71601896","imageIndex":17,"items":[{"name":"주식회사 스칼라업","tel":"031-915-9155","addr":"경기도 고양시 일산서구 법곳동 1101-3번지","indutype":"용역 서비스 - 종합용역","category":"other"}]},{"lat":"37.658570898","long":"126.72483177","imageIndex":17,"items":[{"name":"주식회사 에이치에스모터스","tel":"070-8833-0956","addr":"경기도 고양시 일산서구 법곳동 256-16번지","indutype":"","category":"other"}]},{"lat":"37.665434268","long":"126.72399014","imageIndex":17,"items":[{"name":"주식회사 원우에프앤지","tel":"031-914-6652","addr":"경기도 고양시 일산서구 법곳동 69번지","indutype":"","category":"other"}]},{"lat":"37.668240223","long":"126.72186014","imageIndex":17,"items":[{"name":"진도유통","tel":"02-359-2247","addr":"경기도 고양시 일산서구 법곳동 452-6번지","indutype":"","category":"other"},{"name":"진도유통","tel":"02-359-2247","addr":"경기도 고양시 일산서구 법곳동 452-6번지","indutype":"주방용구 - 주방용식기","category":"other"}]},{"lat":"37.664936715","long":"126.72696144","imageIndex":17,"items":[{"name":"진성엔지니어링","tel":"031-922-8491","addr":"경기도 고양시 일산서구 법곳동 143-3번지","indutype":"","category":"other"},{"name":"진성엔지니어링","tel":"031-922-8491","addr":"경기도 고양시 일산서구 법곳동 143-3번지","indutype":"기타 - 기타 전문점","category":"other"}]},{"lat":"37.662907422","long":"126.72224291","imageIndex":17,"items":[{"name":"찬세미켐 주식회사","tel":"070-4149-1100","addr":"경기도 고양시 일산서구 법곳동 1708-3번지","indutype":"","category":"other"},{"name":"찬세미켐 주식회사","tel":"070-4149-1100","addr":"경기도 고양시 일산서구 법곳동 1708-3번지","indutype":"전기제품 - 냉열기기","category":"other"}]},{"lat":"37.659959734","long":"126.72540458","imageIndex":17,"items":[{"name":"창고박사 공인중개사사무소","tel":"032-917-8945","addr":"경기도 고양시 일산서구 법곳동 263-8번지","indutype":"","category":"other"}]},{"lat":"37.659102115","long":"126.72468247","imageIndex":17,"items":[{"name":"창대문화사","tel":"031-924-3388","addr":"경기도 고양시 일산서구 법곳동 250-14번지","indutype":"","category":"other"}]},{"lat":"37.666374685","long":"126.72543737","imageIndex":17,"items":[{"name":"천일등","tel":"031-913-3014","addr":"경기도 고양시 일산서구 법곳동 112-2번지","indutype":"신변잡화 - 기념품점","category":"other"},{"name":"천일등","tel":"031-913-3014","addr":"경기도 고양시 일산서구 법곳동 112-2번지","indutype":"","category":"other"}]},{"lat":"37.668713096","long":"126.70527625","imageIndex":17,"items":[{"name":"초록뜰","tel":"02-352-8947","addr":"경기도 고양시 일산서구 법곳동","indutype":"문화.취미 - 화원","category":"other"}]},{"lat":"37.664629037","long":"126.72638456","imageIndex":17,"items":[{"name":"카포넷","tel":"031-924-2924","addr":"경기도 고양시 일산서구 법곳동 130-3번지","indutype":"","category":"other"}]},{"lat":"37.67032413","long":"126.71549359","imageIndex":17,"items":[{"name":"컵스컵스","tel":"031-911-0320","addr":"경기도 고양시 일산서구 법곳동 661-49번지","indutype":"","category":"other"},{"name":"컵스컵스","tel":"031-911-0320","addr":"경기도 고양시 일산서구 법곳동 661-49번지","indutype":"주방용구 - 주방용구","category":"other"}]},{"lat":"37.664572302","long":"126.71769184","imageIndex":17,"items":[{"name":"크로퍼드 전동침대","tel":"031-918-6881","addr":"경기도 고양시 일산서구 법곳동 1607-3번지","indutype":"","category":"other"}]},{"lat":"37.679431374","long":"126.71488033","imageIndex":17,"items":[{"name":"키즈&베드","tel":"031-923-2388","addr":"경기도 고양시 일산서구 법곳동 796-1번지","indutype":"가구 - 일반가구","category":"other"},{"name":"키즈&베드","tel":"031-923-2388","addr":"경기도 고양시 일산서구 법곳동 796-1번지","indutype":"","category":"other"}]},{"lat":"37.666687536","long":"126.72438214","imageIndex":17,"items":[{"name":"킨텍스","tel":"031-925-7286","addr":"경기도 고양시 일산서구 법곳동 41-5번지","indutype":"주방용구 - 주방용구","category":"other"},{"name":"킨텍스","tel":"031-925-7286","addr":"경기도 고양시 일산서구 법곳동 41-5번지","indutype":"","category":"other"}]},{"lat":"37.659208477","long":"126.72777594","imageIndex":17,"items":[{"name":"킨텍스모터스","tel":"031-922-1646","addr":"경기도 고양시 일산서구 법곳동 267-6번지","indutype":"","category":"other"},{"name":"현대모터스","tel":"031-925-0999","addr":"경기도 고양시 일산서구 법곳동 267-6번지","indutype":"","category":"other"}]},{"lat":"37.664962628","long":"126.72266586","imageIndex":17,"items":[{"name":"킹 에어컨","tel":"","addr":"경기도 고양시 일산서구 법곳동 1702번지","indutype":"수리서비스 - 가정용품수리","category":"other"}]},{"lat":"37.666685367","long":"126.72729499","imageIndex":17,"items":[{"name":"태극모터스","tel":"031-912-0004","addr":"경기도 고양시 일산서구 법곳동 751-3번지","indutype":"","category":"other"}]},{"lat":"37.665575656","long":"126.72282223","imageIndex":17,"items":[{"name":"티비티비(TVTV)","tel":"031-969-5454","addr":"경기도 고양시 일산서구 법곳동 56-3번지","indutype":"전기제품 - 가전제품","category":"other"},{"name":"티비티비(TVTV)","tel":"031-969-5454","addr":"경기도 고양시 일산서구 법곳동 56-3번지","indutype":"","category":"other"}]},{"lat":"37.666071816","long":"126.7269119","imageIndex":17,"items":[{"name":"티앤북주식회사","tel":"031-911-6882","addr":"경기도 고양시 일산서구 법곳동 120-1번지","indutype":"","category":"other"}]},{"lat":"37.671352984","long":"126.71621505","imageIndex":17,"items":[{"name":"티케이서플라이","tel":"031-904-2454","addr":"경기도 고양시 일산서구 법곳동 653번지","indutype":"","category":"other"}]},{"lat":"37.668876821","long":"126.70949197","imageIndex":17,"items":[{"name":"푸른농장","tel":"070-4156-0065","addr":"경기도 고양시 일산서구 법곳동 1369-1번지","indutype":"","category":"other"}]},{"lat":"37.666267965","long":"126.72221892","imageIndex":17,"items":[{"name":"한국파게이트","tel":"031-914-7844","addr":"경기도 고양시 일산서구 법곳동 366번지","indutype":"기타 - 기타 전문점","category":"other"},{"name":"한국파게이트","tel":"031-914-7844","addr":"경기도 고양시 일산서구 법곳동 366번지","indutype":"","category":"other"}]},{"lat":"37.665764399","long":"126.72262884","imageIndex":17,"items":[{"name":"한미시트 Cherry Jin","tel":"031-904-2856","addr":"경기도 고양시 일산서구 법곳동 365번지","indutype":"","category":"other"},{"name":"혜인","tel":"070-5033-3433","addr":"경기도 고양시 일산서구 법곳동 365번지","indutype":"레져용품 - 스포츠·레져용품","category":"other"}]},{"lat":"37.667683518","long":"126.72265563","imageIndex":17,"items":[{"name":"한일의료기","tel":"031-918-8307","addr":"경기도 고양시 일산서구 법곳동 445-2번지","indutype":"","category":"other"},{"name":"한일의료기","tel":"031-918-8307","addr":"경기도 고양시 일산서구 법곳동 445-2번지","indutype":"기타의료기관 - 기타의료기관 및 기타","category":"other"}]},{"lat":"37.667320626","long":"126.72160292","imageIndex":17,"items":[{"name":"현대홀푸드","tel":"031-922-9777","addr":"경기도 고양시 일산서구 법곳동 438-4번지","indutype":"","category":"other"}]},{"lat":"37.662463711","long":"126.72130391","imageIndex":17,"items":[{"name":"혜미가전","tel":"031-925-1224","addr":"경기도 고양시 일산서구 법곳동 1711-14번지","indutype":"","category":"other"}]},{"lat":"37.66509857","long":"126.72682484","imageIndex":17,"items":[{"name":"홈","tel":"031-111-1111","addr":"경기도 고양시 일산서구 법곳동 129-4번지","indutype":"","category":"other"},{"name":"홈","tel":"031-914-8871","addr":"경기도 고양시 일산서구 법곳동 129-4번지","indutype":"","category":"other"}]},{"lat":"37.668625096","long":"126.71705294","imageIndex":17,"items":[{"name":"힐탑아트","tel":"031-923-3622","addr":"경기도 고양시 일산서구 법곳동 1531번지","indutype":"","category":"other"}]},{"lat":"37.668016351","long":"126.70055267","imageIndex":0,"items":[{"name":"(주)웰파크","tel":"031-259-2084","addr":"경기도 고양시 일산서구 법곳동 1240번지","indutype":"자동차정비 유지 - 주차장","category":"car"}]},{"lat":"37.658626517","long":"126.72935335","imageIndex":0,"items":[{"name":"(주)유진모터스","tel":"","addr":"경기도 고양시 일산서구 법곳동 179-4번지","indutype":"자동차정비 유지 - 자동차정비","category":"car"}]},{"lat":"37.666549137","long":"126.7268308","imageIndex":0,"items":[{"name":"(주)제이제이모터스(JJ motors.Co.,Ltd.)","tel":"031-919-8333","addr":"경기도 고양시 일산서구 법곳동 751-9번지","indutype":"자동차정비 유지 - 자동차정비","category":"car"}]},{"lat":"37.660048869","long":"126.72499626","imageIndex":0,"items":[{"name":"(주)카페오토","tel":"031-922-1645","addr":"경기도 고양시 일산서구 법곳동 205번지","indutype":"자동차판매 - 중고자동차판매","category":"car"}]},{"lat":"37.660654084","long":"126.72566265","imageIndex":0,"items":[{"name":"AMC모터스","tel":"031-918-4700","addr":"경기도 고양시 일산서구 법곳동 208-3번지","indutype":"자동차정비 유지 - 자동차정비","category":"car"},{"name":"피닉스모터스","tel":"031-919-0411","addr":"경기도 고양시 일산서구 법곳동 208-3번지","indutype":"자동차정비 유지 - 자동차부품","category":"car"}]},{"lat":"37.670627905","long":"126.71815605","imageIndex":0,"items":[{"name":"D&CO","tel":"070-4823-4728","addr":"경기도 고양시 일산서구 법곳동 1126-2번지","indutype":"자동차판매 - 기타운송","category":"car"}]},{"lat":"37.659713938","long":"126.72432886","imageIndex":0,"items":[{"name":"SH모터스","tel":"031-912-6293","addr":"경기도 고양시 일산서구 법곳동 245-1번지","indutype":"자동차정비 유지 - 자동차정비","category":"car"}]},{"lat":"37.659128556","long":"126.72443304","imageIndex":0,"items":[{"name":"SPEED공업사","tel":"031-915-9442","addr":"경기도 고양시 일산서구 법곳동 250-4번지","indutype":"자동차정비 유지 - 자동차정비","category":"car"}]},{"lat":"37.660544209","long":"126.72491508","imageIndex":0,"items":[{"name":"강명한모터스","tel":"031-918-3507","addr":"경기도 고양시 일산서구 법곳동 206-4번지","indutype":"자동차정비 유지 - 자동차정비","category":"car"}]},{"lat":"37.658409577","long":"126.72904816","imageIndex":0,"items":[{"name":"골드모터스","tel":"031-917-6080","addr":"경기도 고양시 일산서구 법곳동 180-10번지","indutype":"자동차정비 유지 - 자동차정비","category":"car"}]},{"lat":"37.666070132","long":"126.72237834","imageIndex":0,"items":[{"name":"대덕","tel":"031-921-4485","addr":"경기도 고양시 일산서구 법곳동 365-2번지","indutype":"자동차정비 유지 - 자동차부품","category":"car"}]},{"lat":"37.665296197","long":"126.72657476","imageIndex":0,"items":[{"name":"대화현대손세차장","tel":"031-911-3737","addr":"경기도 고양시 일산서구 법곳동 89-4번지","indutype":"자동차정비 유지 - 세차장","category":"car"},{"name":"오토프랜드","tel":"031-914-0234","addr":"경기도 고양시 일산서구 법곳동 89-4번지","indutype":"자동차정비 유지 - 자동차정비","category":"car"}]},{"lat":"37.662350148","long":"126.72280034","imageIndex":0,"items":[{"name":"모터크린","tel":"031-925-1716","addr":"경기도 고양시 일산서구 법곳동 1732-10번지","indutype":"자동차정비 유지 - 카인테리어","category":"car"}]},{"lat":"37.667101579","long":"126.72805283","imageIndex":0,"items":[{"name":"바이크DC","tel":"031-969-0879","addr":"경기도 고양시 일산서구 법곳동 752-20번지","indutype":"자동차판매 - 이륜차판매","category":"car"}]},{"lat":"37.665796898","long":"126.72494083","imageIndex":0,"items":[{"name":"에이스 모터스","tel":"02-335-2828","addr":"경기도 고양시 일산서구 법곳동 63-4번지","indutype":"자동차정비 유지 - 자동차정비","category":"car"}]},{"lat":"37.665180372","long":"126.72713055","imageIndex":0,"items":[{"name":"오토보겐 코리아(AUTOWOGEN KOREA)","tel":"031-913-4749","addr":"경기도 고양시 일산서구 법곳동 143-2번지","indutype":"자동차정비 유지 - 자동차부품","category":"car"}]},{"lat":"37.660599174","long":"126.7253002","imageIndex":0,"items":[{"name":"유로모터스","tel":"031-921-2213","addr":"경기도 고양시 일산서구 법곳동 209-22번지","indutype":"자동차정비 유지 - 자동차정비","category":"car"}]},{"lat":"37.660715391","long":"126.72491444","imageIndex":0,"items":[{"name":"이산포자동차공업사","tel":"031-921-7744","addr":"경기도 고양시 일산서구 법곳동 207-2번지","indutype":"자동차정비 유지 - 자동차정비","category":"car"}]},{"lat":"37.660074187","long":"126.72427085","imageIndex":0,"items":[{"name":"일산모터스","tel":"031-918-1313","addr":"경기도 고양시 일산서구 법곳동 256-11번지","indutype":"자동차정비 유지 - 자동차정비","category":"car"}]},{"lat":"37.666514583","long":"126.72746563","imageIndex":0,"items":[{"name":"일산투카3급부분자동차공업사","tel":"031-917-4465","addr":"경기도 고양시 일산서구 법곳동 751-10번지","indutype":"자동차정비 유지 - 자동차정비","category":"car"}]},{"lat":"37.661683951","long":"126.72301818","imageIndex":0,"items":[{"name":"일산후퍼옵틱","tel":"031-0000-0000","addr":"경기도 고양시 일산서구 법곳동 330-1번지","indutype":"자동차정비 유지 - 자동차부품","category":"car"},{"name":"제이&와이오토컴퍼니","tel":"031-906-3694","addr":"경기도 고양시 일산서구 법곳동 330-1번지","indutype":"자동차정비 유지 - 자동차부품","category":"car"}]},{"lat":"37.667909967","long":"126.72316481","imageIndex":0,"items":[{"name":"일산휠09","tel":"02-1111-1111","addr":"경기도 고양시 일산서구 법곳동 748-9번지","indutype":"자동차정비 유지 - 자동차시트·타이어","category":"car"}]},{"lat":"37.660771343","long":"126.72191096","imageIndex":0,"items":[{"name":"주식회사 세미타이어","tel":"031-925-9985","addr":"경기도 고양시 일산서구 법곳동 1761-2번지","indutype":"자동차정비 유지 - 자동차시트·타이어","category":"car"}]},{"lat":"37.658570898","long":"126.72483177","imageIndex":0,"items":[{"name":"주식회사 에이치에스모터스","tel":"070-8833-0956","addr":"경기도 고양시 일산서구 법곳동 256-16번지","indutype":"자동차정비 유지 - 자동차정비","category":"car"}]},{"lat":"37.659960076","long":"126.72174402","imageIndex":0,"items":[{"name":"주식회사 오토반플러스","tel":"031-924-7255","addr":"경기도 고양시 일산서구 법곳동 1770번지","indutype":"자동차정비 유지 - 자동차정비","category":"car"}]},{"lat":"37.657241794","long":"126.73054835","imageIndex":0,"items":[{"name":"주식회사한국경매무역","tel":"02-2038-4959","addr":"경기도 고양시 일산서구 법곳동 740-22번지","indutype":"자동차정비 유지 - 자동차부품","category":"car"}]},{"lat":"37.659208477","long":"126.72777594","imageIndex":0,"items":[{"name":"킨텍스모터스","tel":"031-922-1646","addr":"경기도 고양시 일산서구 법곳동 267-6번지","indutype":"자동차정비 유지 - 자동차정비","category":"car"},{"name":"현대모터스","tel":"031-925-0999","addr":"경기도 고양시 일산서구 법곳동 267-6번지","indutype":"자동차정비 유지 - 자동차정비","category":"car"},{"name":"현대모터스","tel":"031-925-0999","addr":"경기도 고양시 일산서구 법곳동 267-6번지","indutype":"자동차정비 유지 - 자동차정비","category":"car"}]},{"lat":"37.666685367","long":"126.72729499","imageIndex":0,"items":[{"name":"태극모터스","tel":"031-912-0004","addr":"경기도 고양시 일산서구 법곳동 751-3번지","indutype":"자동차정비 유지 - 자동차시트·타이어","category":"car"}]},{"lat":"37.671352984","long":"126.71621505","imageIndex":0,"items":[{"name":"티케이서플라이","tel":"031-904-2454","addr":"경기도 고양시 일산서구 법곳동 653번지","indutype":"자동차정비 유지 - 자동차부품","category":"car"}]},{"lat":"37.665764399","long":"126.72262884","imageIndex":0,"items":[{"name":"한미시트 Cherry Jin","tel":"031-904-2856","addr":"경기도 고양시 일산서구 법곳동 365번지","indutype":"자동차정비 유지 - 자동차부품","category":"car"}]},{"lat":"37.659769706","long":"126.72505396","imageIndex":4,"items":[{"name":"꼬막일번지","tel":"031-918-3838","addr":"경기도 고양시 일산서구 법곳동 256-44번지","indutype":"일반휴게음식 - 일반한식","category":"restaurant"},{"name":"메기1번지","tel":"031-918-3838","addr":"경기도 고양시 일산서구 법곳동","indutype":"일반휴게음식 - 일반한식","category":"restaurant"}]},{"lat":"37.660987572","long":"126.72571808","imageIndex":4,"items":[{"name":"시골보신탕","tel":"031-911-1133","addr":"경기도 고양시 일산서구 법곳동 208-4번지","indutype":"일반휴게음식 - 일반한식","category":"restaurant"}]},{"lat":"37.666990977","long":"126.72698784","imageIndex":4,"items":[{"name":"양평해장국","tel":"031-911-1049","addr":"경기도 고양시 일산서구 법곳동 751-2번지","indutype":"일반휴게음식 - 일반한식","category":"restaurant"}]},{"lat":"37.665602973","long":"126.7267663","imageIndex":4,"items":[{"name":"우리집밥","tel":"031-916-2468","addr":"경기도 고양시 일산서구 법곳동 110-1번지","indutype":"일반휴게음식 - 일반한식","category":"restaurant"}]},{"lat":"37.662296736","long":"126.72307254","imageIndex":4,"items":[{"name":"자유로추어탕","tel":"031-923-6563","addr":"경기도 고양시 일산서구 법곳동 1732-9번지","indutype":"일반휴게음식 - 일반한식","category":"restaurant"}]},{"lat":"37.669353556","long":"126.69851839","imageIndex":4,"items":[{"name":"잔치잔치","tel":"031-923-5779","addr":"경기도 고양시 일산서구 법곳동 1191-15번지","indutype":"일반휴게음식 - 일반한식","category":"restaurant"}]},{"lat":"37.665792519","long":"126.72691294","imageIndex":4,"items":[{"name":"파주된장국밥 본점","tel":"031-915-5020","addr":"경기도 고양시 일산서구 법곳동 126번지","indutype":"일반휴게음식 - 일반한식","category":"restaurant"}]},{"lat":"37.660599174","long":"126.7253002","imageIndex":4,"items":[{"name":"한가람","tel":"031-915-3881","addr":"경기도 고양시 일산서구 법곳동 209-22번지","indutype":"일반휴게음식 - 일반한식","category":"restaurant"}]},{"lat":"37.66509857","long":"126.72682484","imageIndex":5,"items":[{"name":"웨인스코트호텔","tel":"031-914-8871","addr":"경기도 고양시 일산서구 법곳동 129-4번지","indutype":"숙박업 - 여관/기타숙박업","category":"hotel"}]},{"lat":"37.665296197","long":"126.72657476","imageIndex":7,"items":[{"name":"현대25시마트","tel":"031-917-1020","addr":"경기도 고양시 일산서구 법곳동 89-4번지","indutype":"유통업 영리 - 슈퍼마켓","category":"mart"}]}]