[{"lat":"37.191103144","long":"126.69529026","items":[{"name":"(주)기린중공업","tel":"031-356-8718","addr":"경기도 화성시 서신면 전곡리 363-4번지 1층","category":"기타 - 기계공구"}]},{"lat":"37.193188127","long":"126.67317285","items":[{"name":"(주)마린테크노코리아","tel":"031-319-9112","addr":"경기도 화성시 서신면 전곡리 630-152번지 대성빌딩 B동 102호","category":"수리서비스 - 레져용품수리"},{"name":"마린낚시 할인마트","tel":"031-355-8057","addr":"경기도 화성시 서신면 전곡리 630-152번지","category":"레져용품 - 스포츠·레져용품"}]},{"lat":"37.186183324","long":"126.66861976","items":[{"name":"(주)케이씨에프씨케미칼","tel":"031-266-8276","addr":"경기도 화성시 서신면 전곡리 1161-3번지","category":"약국 - 제약회사"}]},{"lat":"37.185070856","long":"126.65159709","items":[{"name":"(주)화성요트학교","tel":"031-366-8825","addr":"경기도 화성시 서신면 전곡리 906번지","category":"레저업소 - 기타레져업소"},{"name":"바다여행","tel":"031-355-4871","addr":"경기도 화성시 서신면 전곡리 906번지 3층","category":"레저업소 - 기타레져업소"},{"name":"에이스요트","tel":"031-355-3543","addr":"경기도 화성시 서신면 전곡리 906번지 1층","category":"레져용품 - 스포츠·레져용품"},{"name":"주식회사 제백요트학교","tel":"031-366-8825","addr":"경기도 화성시 서신면 전곡리 906번지","category":"레저업소 - 기타레져업소"}]},{"lat":"37.18510533","long":"126.68959367","items":[{"name":"가마솥누룽지백반","tel":"031-356-9410","addr":"경기도 화성시 서신면 전곡리 525-6","category":"일반휴게음식 - 일반한식"}]},{"lat":"37.185992868","long":"126.65259511","items":[{"name":"거시기수산","tel":"031-000-0000","addr":"경기도 화성시 서신면 전곡리 898번지 나동 5호","category":"일반휴게음식 - 일식·회집"},{"name":"동명호","tel":"031-357-2066","addr":"경기도 화성시 서신면 전곡리 898번지","category":"음료식품 - 농·축·수산품"},{"name":"봉해호","tel":"","addr":"경기도 화성시 서신면 전곡리 898번지 나동 3호","category":"일반휴게음식 - 일식·회집"},{"name":"어도수산","tel":"031-357-4556","addr":"경기도 화성시 서신면 전곡리 898번지 18호","category":"음료식품 - 농·축·수산품"},{"name":"유한호","tel":"031-355-5754","addr":"경기도 화성시 서신면 전곡리 898번지","category":"음료식품 - 농·축·수산품"},{"name":"유한호","tel":"","addr":"경기도 화성시 서신면 전곡리 898번지 나동 2호","category":"일반휴게음식 - 일식·회집"},{"name":"전곡호","tel":"031-357-7833","addr":"경기도 화성시 서신면 전곡리 898번지 39","category":"음료식품 - 농·축·수산품"},{"name":"전곡호","tel":"031-357-7833","addr":"경기도 화성시 서신면 전곡리 898번지 나동 1호","category":"일반휴게음식 - 일반한식"},{"name":"태균호","tel":"031-357-5707","addr":"경기도 화성시 서신면 전곡리 898번지 나동 6호","category":"일반휴게음식 - 일식·회집"}]},{"lat":"37.185433067","long":"126.65220354","items":[{"name":"거시기식당","tel":"031-356-2144","addr":"경기도 화성시 서신면 전곡리 912번지 1층","category":"일반휴게음식 - 일반한식"}]},{"lat":"37.190578847","long":"126.70164441","items":[{"name":"구봉산농원","tel":"031-357-5317","addr":"경기도 화성시 서신면 전곡리 396번지","category":"음료식품 - 농·축·수산품"}]},{"lat":"37.190465005","long":"126.69940363","items":[{"name":"구봉산촌닭","tel":"031-357-3890","addr":"경기도 화성시 서신면 전곡리 409번지","category":"일반휴게음식 - 일반한식"},{"name":"대성시스템","tel":"031-356-8846","addr":"경기도 화성시 서신면 전곡리 409번지","category":"전기제품 - 가전제품"}]},{"lat":"37.183022378","long":"126.67568327","items":[{"name":"금성식당매점","tel":"031-111-1111","addr":"경기도 화성시 서신면 전곡리 1115-4번지","category":"일반휴게음식 - 위탁급식업"}]},{"lat":"37.19443592","long":"126.66512563","items":[{"name":"금호마린","tel":"","addr":"경기도 화성시 서신면 전곡리 630-67번지","category":"수리서비스 - 레져용품수리"},{"name":"미도테크","tel":"031-357-1288","addr":"경기도 화성시 서신면 전곡리 630-67번지","category":"자동차판매 - 기타운송"},{"name":"씨스타보트","tel":"031-356-0223","addr":"경기도 화성시 서신면 전곡리 630-67번지","category":"레져용품 - 스포츠·레져용품"},{"name":"태우스폰지","tel":"031-1111-1111","addr":"경기도 화성시 서신면 전곡리 630-67번지","category":"레져용품 - 스포츠·레져용품"}]},{"lat":"37.18524586","long":"126.67493041","items":[{"name":"까페글렌화성전곡점","tel":"","addr":"경기도 화성시 서신면 전곡리 1113-8번지 101호","category":"일반휴게음식 - 서양음식"}]},{"lat":"37.185631059","long":"126.65212379","items":[{"name":"까페신명호","tel":"031-357-6794","addr":"경기도 화성시 서신면 전곡리 900번지","category":"레져용품 - 스포츠·레져용품"},{"name":"까페신명호","tel":"031-357-6794","addr":"경기도 화성시 서신면 전곡리 900번지","category":"일반휴게음식 - 서양음식"},{"name":"신명호","tel":"031-357-6794","addr":"경기도 화성시 서신면 전곡리 900번지 2층","category":"레저업소 - 기타레져업소"},{"name":"웨스트마린(West Marine)","tel":"031-317-3161","addr":"경기도 화성시 서신면 전곡리 900","category":"기타 - 기계공구"},{"name":"크래커마린","tel":"070-4159-5554","addr":"경기도 화성시 서신면 전곡리 900","category":"기타 - 기계공구"}]},{"lat":"37.191243825","long":"126.69051437","items":[{"name":"깔끄미 출장세차","tel":"","addr":"경기도 화성시 서신면 전곡리 288번지","category":"자동차정비 유지 - 세차장"}]},{"lat":"37.187158148","long":"126.65359204","items":[{"name":"남양유통","tel":"031-357-5502","addr":"경기도 화성시 서신면 전곡리 850번지 158호","category":"음료식품 - 기타음료식품"},{"name":"대성해운","tel":"031-357-0112","addr":"경기도 화성시 서신면 전곡리 850번지","category":"여행 - 여객선"},{"name":"마리나해운","tel":"031-357-0112","addr":"경기도 화성시 서신면 전곡리 850번지 1층","category":"레저업소 - 기타레져업소"},{"name":"전곡수산","tel":"031-357-0112","addr":"경기도 화성시 서신면 전곡리 850번지 1층","category":"음료식품 - 농·축·수산품"},{"name":"전곡수산","tel":"031-357-0112","addr":"경기도 화성시 서신면 전곡리 850번지 1층","category":"음료식품 - 농·축·수산품"},{"name":"전곡수산시장","tel":"031-357-0112","addr":"경기도 화성시 서신면 전곡리 850번지 201호","category":"일반휴게음식 - 일반한식"},{"name":"전국건어물총판","tel":"031-366-9414","addr":"경기도 화성시 서신면 전곡리 850번지 1층 106호","category":"음료식품 - 기타음료식품"},{"name":"전국건어물총판","tel":"031-366-9414","addr":"경기도 화성시 서신면 전곡리 850번지 1층 116호","category":"음료식품 - 농·축·수산품"}]},{"lat":"37.19457674","long":"126.66711856","items":[{"name":"네이쳐트레일러","tel":"031-355-7868","addr":"경기도 화성시 서신면 전곡리 630-8번지","category":"자동차판매 - 기타운송"}]},{"lat":"37.200019634","long":"126.68700894","items":[{"name":"농업회사법인 호트팜 주식회사","tel":"031-421-8112","addr":"경기도 화성시 서신면 전곡리 244-1번지","category":"농업 - 비료,사료,종자"},{"name":"팜앤드림","tel":"031-357-7107","addr":"경기도 화성시 서신면 전곡리 244-1번지","category":"음료식품 - 기타음료식품"}]},{"lat":"37.192627724","long":"126.69253596","items":[{"name":"다올 다육농장","tel":"031-355-5772","addr":"경기도 화성시 서신면 전곡리 192-1번지","category":"문화.취미 - 화원"}]},{"lat":"37.185355082","long":"126.69550502","items":[{"name":"다인FRP","tel":"032-676-6757","addr":"경기도 화성시 서신면 전곡리 428-8번지","category":"기타 - 기타 전문점"}]},{"lat":"37.185795724","long":"126.66856516","items":[{"name":"더경매점식당","tel":"031-356-3839","addr":"경기도 화성시 서신면 전곡리 1161-4번지 D동 1층","category":"일반휴게음식 - 위탁급식업"}]},{"lat":"37.18409865","long":"126.65190565","items":[{"name":"더존민박(화성2호)","tel":"031-357-6794","addr":"경기도 화성시 서신면 전곡리 948번지","category":"숙박업 - 여관/기타숙박업"}]},{"lat":"37.186824537","long":"126.65351475","items":[{"name":"동원호","tel":"031-357-5527","addr":"경기도 화성시 서신면 전곡리 865 3/","category":"음료식품 - 농·축·수산품"}]},{"lat":"37.189602272","long":"126.65745502","items":[{"name":"동인","tel":"031-356-8602","addr":"경기도 화성시 서신면 전곡리 1027","category":"기타 - 기계공구"}]},{"lat":"37.184935301","long":"126.65146258","items":[{"name":"드림요트코리아","tel":"031-355-1174","addr":"경기도 화성시 서신면 전곡리 962번지","category":"레져용품 - 스포츠·레져용품"}]},{"lat":"37.185459297","long":"126.65193314","items":[{"name":"등대회집","tel":"031-357-2408","addr":"경기도 화성시 서신면 전곡리 902번지","category":"일반휴게음식 - 일반한식"}]},{"lat":"37.186211176","long":"126.65329234","items":[{"name":"똘이네수산","tel":"031-357-2741","addr":"경기도 화성시 서신면 전곡리 872번지 1층","category":"일반휴게음식 - 일반한식"}]},{"lat":"37.196045054","long":"126.66382319","items":[{"name":"레스토랑아드레날린","tel":"070-4010-1647","addr":"경기도 화성시 서신면 전곡리 630-175 (2,4층)","category":"일반휴게음식 - 서양음식"}]},{"lat":"37.187186793","long":"126.68961886","items":[{"name":"마당발식당","tel":"031-357-6012","addr":"경기도 화성시 서신면 전곡리 488-2번지","category":"일반휴게음식 - 일반한식"}]},{"lat":"37.186126389","long":"126.65204267","items":[{"name":"마리나매점","tel":"031-357-7837","addr":"경기도 화성시 서신면 전곡리 973번지","category":"음료식품 - 기타음료식품"},{"name":"전곡리어촌체험마을","tel":"031-356-8862","addr":"경기도 화성시 서신면 전곡리 973번지","category":"학원 - 기타 교육기관"}]},{"lat":"37.185825845","long":"126.65096293","items":[{"name":"마리나매점","tel":"031-356-6354","addr":"경기도 화성시 서신면 전곡리 1076번지","category":"음료식품 - 기타음료식품"},{"name":"매드페퍼","tel":"","addr":"경기도 화성시 서신면 전곡리 1076번지","category":"일반휴게음식 - 서양음식"},{"name":"베이네스","tel":"031-357-0050","addr":"경기도 화성시 서신면 전곡리 1076번지 2층 3층","category":"일반휴게음식 - 서양음식"},{"name":"진광마린","tel":"","addr":"경기도 화성시 서신면 전곡리 1076번지","category":"레져용품 - 스포츠·레져용품"},{"name":"휴&휴","tel":"070-8242-1066","addr":"경기도 화성시 서신면 전곡리 1076번지 2층","category":"일반휴게음식 - 일반한식"}]},{"lat":"37.183493353","long":"126.68992691","items":[{"name":"마린포인트","tel":"","addr":"경기도 화성시 서신면 전곡리 508-12번지","category":"레져용품 - 스포츠·레져용품"}]},{"lat":"37.185712418","long":"126.65221351","items":[{"name":"만찬회집","tel":"031-357-8754","addr":"경기도 화성시 서신면 전곡리 899번지","category":"일반휴게음식 - 일식·회집"}]},{"lat":"37.194794433","long":"126.66445952","items":[{"name":"매화양식장","tel":"031-357-0562","addr":"경기도 화성시 서신면 전곡리 630-86번지","category":"음료식품 - 농·축·수산품"}]},{"lat":"37.185244612","long":"126.67447995","items":[{"name":"멕시카나 전곡산업단지점","tel":"031-357-5958","addr":"경기도 화성시 서신면 전곡리 1113-6번지 102호","category":"일반휴게음식 - 스넥"},{"name":"세븐식당","tel":"031-355-0267","addr":"경기도 화성시 서신면 전곡리 1113-6번지 1동 1층 105,106,107호","category":"일반휴게음식 - 일반한식"},{"name":"세븐일레븐화성전곡산단점","tel":"031-1577-0711","addr":"경기도 화성시 서신면 전곡리 1113-6번지 104호 103호,104호","category":"유통업 영리 - 편 의 점"},{"name":"에이스 볼트","tel":"031-357-8313","addr":"경기도 화성시 서신면 전곡리 1113-6번지 101호","category":"기타 - 기계공구"}]},{"lat":"37.189320357","long":"126.65656658","items":[{"name":"명륜호","tel":"031-357-5664","addr":"경기도 화성시 서신면 전곡리 1041번지","category":"음료식품 - 농·축·수산품"}]},{"lat":"37.187519554","long":"126.65392824","items":[{"name":"모이","tel":"031-356-7757","addr":"경기도 화성시 서신면 전곡리 846번지 1층","category":"일반휴게음식 - 스넥"}]},{"lat":"37.188186","long":"126.68587572","items":[{"name":"미성유통","tel":"031-111-1111","addr":"경기도 화성시 서신면 전곡리 562-1번지","category":"의류 - 정장"}]},{"lat":"37.194352277","long":"126.69390299","items":[{"name":"민들래","tel":"031-356-5077","addr":"경기도 화성시 서신면 전곡리 189-2번지","category":"일반휴게음식 - 일반한식"}]},{"lat":"37.189157613","long":"126.65637587","items":[{"name":"바다게스트하우스","tel":"031-000-0000","addr":"경기도 화성시 서신면 전곡리 1043번지","category":"숙박업 - 여관/기타숙박업"}]},{"lat":"37.18826846","long":"126.693207","items":[{"name":"바다뜰 포도농원","tel":"031-357-3761","addr":"경기도 화성시 서신면 전곡리 443번지","category":"음료식품 - 농·축·수산품"}]},{"lat":"37.186436033","long":"126.65315616","items":[{"name":"바다마을","tel":"031-355-6457","addr":"경기도 화성시 서신면 전곡리 861번지 1층","category":"일반휴게음식 - 일반한식"}]},{"lat":"37.185517619","long":"126.65337436","items":[{"name":"베스트 보트 (Best boat)","tel":"031-366-8085","addr":"경기도 화성시 서신면 전곡리 896번지","category":"레져용품 - 스포츠·레져용품"}]},{"lat":"37.191404335","long":"126.66685105","items":[{"name":"뽀빠이 요트 클럽","tel":"031-366-8825","addr":"경기도 화성시 서신면 전곡리 1093-1","category":"레저업소 - 기타레져업소"}]},{"lat":"37.185188223","long":"126.65167537","items":[{"name":"사단법인 한국해양안전협회","tel":"031-8047-5119","addr":"경기도 화성시 서신면 전곡리 905번지 4층","category":"기타 - 기계공구"},{"name":"승화전사","tel":"031-356-2229","addr":"경기도 화성시 서신면 전곡리 905번지 1동","category":"의류 - 정장"}]},{"lat":"37.184800587","long":"126.69020305","items":[{"name":"삼거리가정식백반","tel":"031-357-1569","addr":"경기도 화성시 서신면 전곡리 521-3번지 1층","category":"일반휴게음식 - 일반한식"}]},{"lat":"37.195353712","long":"126.66468228","items":[{"name":"서광수산","tel":"031-357-6366","addr":"경기도 화성시 서신면 전곡리 630-102","category":"음료식품 - 농·축·수산품"},{"name":"서광수산","tel":"031-357-6366","addr":"경기도 화성시 서신면 전곡리 630-102","category":"음료식품 - 농·축·수산품"}]},{"lat":"37.189655699","long":"126.66982078","items":[{"name":"서울보트","tel":"031-1800-3833","addr":"경기도 화성시 서신면 전곡리 1093-5번지","category":"기타 - 기계공구"}]},{"lat":"37.186102787","long":"126.65320274","items":[{"name":"서해바다","tel":"031-356-9711","addr":"경기도 화성시 서신면 전곡리 873번지","category":"일반휴게음식 - 일반한식"}]},{"lat":"37.1877997","long":"126.6542085","items":[{"name":"선경마린(SK Marine Service)","tel":"031-356-6886","addr":"경기도 화성시 서신면 전곡리 843번지","category":"수리서비스 - 기타수리서비스"}]},{"lat":"37.195683257","long":"126.66334049","items":[{"name":"소수육국밥소수육해장국","tel":"031-357-7764","addr":"경기도 화성시 서신면 전곡리 630-44번지 1층","category":"일반휴게음식 - 일반한식"}]},{"lat":"37.189828327","long":"126.67681393","items":[{"name":"실비아식당","tel":"031-357-7593","addr":"경기도 화성시 서신면 전곡리 557-305번지","category":"일반휴게음식 - 일반한식"}]},{"lat":"37.189686914","long":"126.68111674","items":[{"name":"씨유화성전곡대로점","tel":"031-898-6567","addr":"경기도 화성시 서신면 전곡리 557-30번지 1층 1호","category":"유통업 영리 - 편 의 점"}]},{"lat":"37.1852433","long":"126.67400697","items":[{"name":"씨유화성전곡산단점","tel":"02-1577-8007","addr":"경기도 화성시 서신면 전곡리 1113-5번지 103호","category":"유통업 영리 - 편 의 점"}]},{"lat":"37.186823806","long":"126.65326699","items":[{"name":"아일랜드","tel":"031-356-3896","addr":"경기도 화성시 서신면 전곡리 853번지","category":"레져용품 - 스포츠·레져용품"},{"name":"여수회타운","tel":"031-356-3395","addr":"경기도 화성시 서신면 전곡리 853번지","category":"음료식품 - 농·축·수산품"}]},{"lat":"37.194686617","long":"126.66773755","items":[{"name":"아정한식부페","tel":"","addr":"경기도 화성시 서신면 전곡리 630-235번지","category":"일반휴게음식 - 일반한식"},{"name":"아정한식부페","tel":"031-355-1654","addr":"경기도 화성시 서신면 전곡리 630-235번지","category":"일반휴게음식 - 일반한식"}]},{"lat":"37.186439617","long":"126.65437242","items":[{"name":"용궁마린","tel":"","addr":"경기도 화성시 서신면 전곡리 881번지","category":"레져용품 - 스포츠·레져용품"}]},{"lat":"37.194711127","long":"126.66684766","items":[{"name":"우진ENG보트트레일러","tel":"031-355-4591","addr":"경기도 화성시 서신면 전곡리 630-82번지","category":"자동차판매 - 기타운송"}]},{"lat":"37.199599187","long":"126.69156127","items":[{"name":"은수포연추어탕","tel":"031-357-3423","addr":"경기도 화성시 서신면 전곡리 80-71번지","category":"일반휴게음식 - 일반한식"}]},{"lat":"37.194900406","long":"126.66686934","items":[{"name":"이슬군호프양","tel":"031-357-1492","addr":"경기도 화성시 서신면 전곡리 630-82번지 2동 1층","category":"일반휴게음식 - 주점"}]},{"lat":"37.188627988","long":"126.69286767","items":[{"name":"이야기마을","tel":"031-357-7441","addr":"경기도 화성시 서신면 전곡리 456-1번지","category":"일반휴게음식 - 칵테일바"}]},{"lat":"37.191431653","long":"126.66695229","items":[{"name":"잼버리레저코리아","tel":"","addr":"경기도 화성시 서신면 전곡리 630-13번지","category":"레저업소 - 기타레져업소"}]},{"lat":"37.186353943","long":"126.65281868","items":[{"name":"전곡리자율공동체","tel":"031-357-7833","addr":"경기도 화성시 서신면 전곡리 858번지","category":"레저업소 - 기타레져업소"},{"name":"전곡항슈퍼낚시","tel":"031-356-7288","addr":"경기도 화성시 서신면 전곡리 858번지 101호","category":"유통업 영리 - 슈퍼마켓"}]},{"lat":"37.186269986","long":"126.65185055","items":[{"name":"전곡어촌계 수산물직판장 운영위원회","tel":"031-357-7837","addr":"경기도 화성시 서신면 전곡리 979","category":"음료식품 - 기타음료식품"}]},{"lat":"37.186940204","long":"126.6883698","items":[{"name":"정민상사","tel":"031-356-3440","addr":"경기도 화성시 서신면 전곡리 530-1번지","category":"기타 - 기계공구"}]},{"lat":"37.18507159","long":"126.65184484","items":[{"name":"제부수산","tel":"031-356-8922","addr":"경기도 화성시 서신면 전곡리 908번지","category":"회원제형태 - 기타4"}]},{"lat":"37.191931114","long":"126.67153397","items":[{"name":"주식회사 대명내이처오션","tel":"031-355-4597","addr":"경기도 화성시 서신면 전곡리 1095-7번지","category":"농업 - 비료,사료,종자"}]},{"lat":"37.182328556","long":"126.67567501","items":[{"name":"주식회사 드릴테크","tel":"031-356-8099","addr":"경기도 화성시 서신면 전곡리 1117-4번지","category":"기타 - 기계공구"}]},{"lat":"37.194828772","long":"126.70047869","items":[{"name":"주식회사 씨큐파이버","tel":"070-5158-6866","addr":"경기도 화성시 서신면 전곡리 139-1번지","category":"전기제품 - 기타전기제품"}]},{"lat":"37.190849335","long":"126.69470564","items":[{"name":"주식회사 코리아마린","tel":"02-000-0000","addr":"경기도 화성시 서신면 전곡리 340-4번지","category":"기타 - 기계공구"}]},{"lat":"37.191851874","long":"126.6956251","items":[{"name":"카밀리아마을오션마켓","tel":"070-8074-2583","addr":"경기도 화성시 서신면 전곡리 363-6번지","category":"음료식품 - 기타음료식품"}]},{"lat":"37.188020905","long":"126.65589679","items":[{"name":"플레이","tel":"","addr":"경기도 화성시 서신면 전곡리 1009번지","category":"레저업소 - 기타레져업소"}]},{"lat":"37.182962786","long":"126.69375794","items":[{"name":"하내연수원매점","tel":"031-356-8187","addr":"경기도 화성시 서신면 전곡리 508-2번지","category":"유통업 영리 - 슈퍼마켓"}]},{"lat":"37.186633993","long":"126.65306515","items":[{"name":"해금강호","tel":"031-357-7227","addr":"경기도 화성시 서신면 전곡리 855번지","category":"음료식품 - 농·축·수산품"},{"name":"해금강회집","tel":"031-359-5757","addr":"경기도 화성시 서신면 전곡리 855번지","category":"일반휴게음식 - 일식·회집"},{"name":"해금강회집","tel":"031-357-3307","addr":"경기도 화성시 서신면 전곡리 855번지","category":"음료식품 - 농·축·수산품"}]},{"lat":"37.185237472","long":"126.67515568","items":[{"name":"행복한밥상","tel":"031-366-8765","addr":"경기도 화성시 서신면 전곡리 1113-9번지 2동 1층 105,106,107호","category":"일반휴게음식 - 일반한식"}]},{"lat":"37.186543657","long":"126.65298673","items":[{"name":"허버프론트커피앤와플(HARBOR FRONT COFFEE","tel":"031-366-7717","addr":"경기도 화성시 서신면 전곡리 856번지 1.2 3층","category":"일반휴게음식 - 일반한식"}]},{"lat":"37.186742448","long":"126.65317727","items":[{"name":"현대요트주식회사","tel":"031-8059-6637","addr":"경기도 화성시 서신면 전곡리 854번지","category":"레져용품 - 스포츠·레져용품"}]},{"lat":"37.186964917","long":"126.674236","items":[{"name":"화성강재 주식회사","tel":"031-352-0182","addr":"경기도 화성시 서신면 전곡리 1108-1번지","category":"건축자재 - 기타건축자재"}]},{"lat":"37.200490776","long":"126.68798694","items":[{"name":"화성식물배양영농조합법인","tel":"031-421-8112","addr":"경기도 화성시 서신면 전곡리 248-1","category":"농업 - 비료,사료,종자"}]},{"lat":"37.197160557","long":"126.69623434","items":[{"name":"화성주유소","tel":"031-357-6242","addr":"경기도 화성시 서신면 전곡리 89번지","category":"연료판매점 - 현대정유(오일뱅크)"}]},{"lat":"37.196769741","long":"126.69842101","items":[{"name":"효자농원","tel":"","addr":"경기도 화성시 서신면 전곡리 101번지","category":"음료식품 - 농·축·수산품"}]}]