[{"lat":"37.802754582","long":"126.77720539","imageIndex":0,"items":[{"name":"(주)피지에이모터스","tel":"031-945-4972","addr":"경기도 파주시 월롱면 덕은리 390-1번지","indutype":"자동차정비 유지 - 자동차정비","category":"car"}]},{"lat":"37.809474361","long":"126.78128438","imageIndex":0,"items":[{"name":"LG 부분정비 공업사","tel":"031-941-5459","addr":"경기도 파주시 월롱면 덕은리 443번지","indutype":"자동차정비 유지 - 자동차정비","category":"car"}]},{"lat":"37.789306636","long":"126.77886973","imageIndex":0,"items":[{"name":"Team R. S (자모)","tel":"031-943-6326","addr":"경기도 파주시 월롱면 덕은리 135-2번지","indutype":"자동차정비 유지 - 카인테리어","category":"car"}]},{"lat":"37.801366333","long":"126.7815357","imageIndex":0,"items":[{"name":"덕삼자동차공업사","tel":"031-945-1245","addr":"경기도 파주시 월롱면 덕은리 338-8번지","indutype":"자동차정비 유지 - 자동차정비","category":"car"}]},{"lat":"37.781674688","long":"126.7737051","imageIndex":0,"items":[{"name":"맥과이어스","tel":"031-945-1007","addr":"경기도 파주시 월롱면 덕은리 192-3번지","indutype":"자동차정비 유지 - 카인테리어","category":"car"}]},{"lat":"37.817304484","long":"126.75895582","imageIndex":0,"items":[{"name":"선우모터스","tel":"031-948-1218","addr":"경기도 파주시 월롱면 덕은리 816-4번지","indutype":"자동차정비 유지 - 카인테리어","category":"car"}]},{"lat":"37.811028215","long":"126.7787587","imageIndex":0,"items":[{"name":"오토오아시스 파주LCD점","tel":"031-957-6003","addr":"경기도 파주시 월롱면 덕은리 555-4번지","indutype":"자동차정비 유지 - 자동차정비","category":"car"}]},{"lat":"37.808143208","long":"126.7824807","imageIndex":0,"items":[{"name":"월롱점 현대자동차","tel":"031-948-2225","addr":"경기도 파주시 월롱면 덕은리 416-3번지","indutype":"자동차정비 유지 - 자동차정비","category":"car"}]},{"lat":"37.788199822","long":"126.77487697","imageIndex":0,"items":[{"name":"유은","tel":"","addr":"경기도 파주시 월롱면 덕은리 140-25번지","indutype":"자동차정비 유지 - 주차장","category":"car"}]},{"lat":"37.810025362","long":"126.78204358","imageIndex":0,"items":[{"name":"제이에이치(JH)카멀티샵","tel":"02-000-0000","addr":"경기도 파주시 월롱면 덕은리 19번지","indutype":"자동차정비 유지 - 자동차부품","category":"car"}]},{"lat":"37.787001877","long":"126.77503959","imageIndex":0,"items":[{"name":"제이엠전동지게차","tel":"","addr":"경기도 파주시 월롱면 덕은리 140-23번지","indutype":"자동차판매 - 기타운송","category":"car"}]},{"lat":"37.815946164","long":"126.76887477","imageIndex":0,"items":[{"name":"주식회사 파주자동차","tel":"070-7718-1244","addr":"경기도 파주시 월롱면 덕은리 663-23번지","indutype":"자동차정비 유지 - 자동차부품","category":"car"},{"name":"주식회사 파주자동차","tel":"031-946-1240","addr":"경기도 파주시 월롱면 덕은리 663-23","indutype":"자동차정비 유지 - 자동차부품","category":"car"}]},{"lat":"37.812108714","long":"126.7784261","imageIndex":0,"items":[{"name":"캐러지","tel":"031-957-9579","addr":"경기도 파주시 월롱면 덕은리 1037번지","indutype":"자동차정비 유지 - 자동차정비","category":"car"},{"name":"타이어 팩토리","tel":"031-944-7752","addr":"경기도 파주시 월롱면 덕은리 1037번지","indutype":"자동차정비 유지 - 자동차시트·타이어","category":"car"},{"name":"현대 MOTORS","tel":"070-4763-5091","addr":"경기도 파주시 월롱면 덕은리 1037번지","indutype":"자동차정비 유지 - 자동차정비","category":"car"}]},{"lat":"37.812359835","long":"126.78259309","imageIndex":0,"items":[{"name":"파주현대서비스","tel":"031-954-3611","addr":"경기도 파주시 월롱면 덕은리 14-1번지","indutype":"자동차정비 유지 - 자동차정비","category":"car"}]},{"lat":"37.815275374","long":"126.7623695","imageIndex":0,"items":[{"name":"한양타이어","tel":"031-943-8473","addr":"경기도 파주시 월롱면 덕은리 846-1번지","indutype":"자동차정비 유지 - 자동차시트·타이어","category":"car"}]}]