[{"lat":"37.013855105","long":"127.24978967","imageIndex":4,"items":[{"name":"&BEIGE(앤베이지)","tel":"031-677-1118","addr":"경기도 안성시 신건지동 16-11번지 가동 1층","indutype":"일반휴게음식 - 일반한식","category":"restaurant"}]},{"lat":"37.013657304","long":"127.25387904","imageIndex":4,"items":[{"name":"감골가든","tel":"031-675-6750","addr":"경기도 안성시 신건지동 3-15번지","indutype":"일반휴게음식 - 일반한식","category":"restaurant"},{"name":"장군실내포장마차","tel":"031-671-9641","addr":"경기도 안성시 신건지동 3-15번지","indutype":"일반휴게음식 - 칵테일바","category":"restaurant"}]},{"lat":"37.013910147","long":"127.25362144","imageIndex":4,"items":[{"name":"거기가조아","tel":"031-673-2632","addr":"경기도 안성시 신건지동 3-9번지","indutype":"일반휴게음식 - 일반한식","category":"restaurant"}]},{"lat":"37.013409692","long":"127.25165345","imageIndex":4,"items":[{"name":"고향집칼국수","tel":"031-676-3274","addr":"경기도 안성시 신건지동 146-6번지","indutype":"일반휴게음식 - 일반한식","category":"restaurant"}]},{"lat":"37.013997378","long":"127.25070027","imageIndex":4,"items":[{"name":"구갑산식당","tel":"031-677-2219","addr":"경기도 안성시 신건지동 15-1번지 창명연립 상가 나동 101호","indutype":"일반휴게음식 - 일반한식","category":"restaurant"},{"name":"옹기촌뼈해장국","tel":"031-671-8800","addr":"경기도 안성시 신건지동 15-1번지 창명연립 나동 102호","indutype":"일반휴게음식 - 일반한식","category":"restaurant"}]},{"lat":"37.013777144","long":"127.2525985","imageIndex":4,"items":[{"name":"구이가딱조아","tel":"031-677-6377","addr":"경기도 안성시 신건지동 6-6번지 1층","indutype":"일반휴게음식 - 일반한식","category":"restaurant"}]},{"lat":"37.013158501","long":"127.25112453","imageIndex":4,"items":[{"name":"김경자한방오리","tel":"031-674-4252","addr":"경기도 안성시 신건지동 151번지","indutype":"일반휴게음식 - 일반한식","category":"restaurant"}]},{"lat":"37.014550184","long":"127.25348871","imageIndex":4,"items":[{"name":"김서방순대국밥","tel":"031-674-0789","addr":"경기도 안성시 신건지동 148-1번지 1층","indutype":"일반휴게음식 - 일반한식","category":"restaurant"}]},{"lat":"37.013719737","long":"127.25418263","imageIndex":4,"items":[{"name":"꿈의대화","tel":"031-673-9382","addr":"경기도 안성시 신건지동 2번지","indutype":"일반휴게음식 - 일반한식","category":"restaurant"},{"name":"유진육회","tel":"","addr":"경기도 안성시 신건지동 2번지 1층","indutype":"일반휴게음식 - 일반한식","category":"restaurant"},{"name":"종민네행복한집","tel":"031-671-8209","addr":"경기도 안성시 신건지동 2번지","indutype":"일반휴게음식 - 일반한식","category":"restaurant"},{"name":"착한치킨","tel":"031-673-1267","addr":"경기도 안성시 신건지동 2번지","indutype":"일반휴게음식 - 일반한식","category":"restaurant"}]},{"lat":"37.014134224","long":"127.254184","imageIndex":4,"items":[{"name":"낭만시대","tel":"031-673-0641","addr":"경기도 안성시 신건지동 149-2번지","indutype":"일반휴게음식 - 서양음식","category":"restaurant"}]},{"lat":"37.013719261","long":"127.25440736","imageIndex":4,"items":[{"name":"노다지","tel":"031-674-7413","addr":"경기도 안성시 신건지동 1-2","indutype":"일반휴게음식 - 일반한식","category":"restaurant"},{"name":"대박한방왕족발","tel":"031-675-3379","addr":"경기도 안성시 신건지동 1-2번지","indutype":"일반휴게음식 - 일반한식","category":"restaurant"},{"name":"민수네손칼국수","tel":"031-675-0609","addr":"경기도 안성시 신건지동 1-2번지","indutype":"일반휴게음식 - 일반한식","category":"restaurant"},{"name":"바숄","tel":"031-000-0000","addr":"경기도 안성시 신건지동 1-2번지","indutype":"일반휴게음식 - 주점","category":"restaurant"},{"name":"페리카나치킨","tel":"031-675-7680","addr":"경기도 안성시 신건지동 1-2","indutype":"일반휴게음식 - 주점","category":"restaurant"},{"name":"황소꼼장어","tel":"031-674-7413","addr":"경기도 안성시 신건지동 1-2","indutype":"일반휴게음식 - 일반한식","category":"restaurant"}]},{"lat":"37.013051641","long":"127.25051742","imageIndex":4,"items":[{"name":"다담한식뷔페","tel":"031-677-5411","addr":"경기도 안성시 신건지동 15-14번지 1층","indutype":"일반휴게음식 - 일반한식","category":"restaurant"}]},{"lat":"37.014550587","long":"127.25329769","imageIndex":4,"items":[{"name":"뜰원","tel":"031-673-0483","addr":"경기도 안성시 신건지동 148번지","indutype":"일반휴게음식 - 일반한식","category":"restaurant"}]},{"lat":"37.01433255","long":"127.2498474","imageIndex":4,"items":[{"name":"룰루랄라","tel":"031-672-0247","addr":"경기도 안성시 신건지동 16-1번지 3층","indutype":"일반휴게음식 - 일반한식","category":"restaurant"},{"name":"이화수전통육개장 안성점","tel":"031-677-6606","addr":"경기도 안성시 신건지동 16-1번지","indutype":"일반휴게음식 - 일반한식","category":"restaurant"}]},{"lat":"37.013220752","long":"127.251518","imageIndex":4,"items":[{"name":"매박골","tel":"031-677-3305","addr":"경기도 안성시 신건지동 151-2번지","indutype":"일반휴게음식 - 일반한식","category":"restaurant"}]},{"lat":"37.013964377","long":"127.25354296","imageIndex":4,"items":[{"name":"먹돌이식당","tel":"031-677-5537","addr":"경기도 안성시 신건지동 3-8번지","indutype":"일반휴게음식 - 일반한식","category":"restaurant"}]},{"lat":"37.014415855","long":"127.25309499","imageIndex":4,"items":[{"name":"멍텅구리 아구찜","tel":"031-671-1313","addr":"경기도 안성시 신건지동 5번지 1층 좌측 1호","indutype":"일반휴게음식 - 일반한식","category":"restaurant"},{"name":"자연샘정육점식당","tel":"031-676-5959","addr":"경기도 안성시 신건지동 5번지","indutype":"일반휴게음식 - 일반한식","category":"restaurant"}]},{"lat":"37.013273779","long":"127.25201257","imageIndex":4,"items":[{"name":"명륜진사갈비","tel":"031-676-3354","addr":"경기도 안성시 신건지동 147-3번지 1층 3,4,5호","indutype":"일반휴게음식 - 일반한식","category":"restaurant"}]},{"lat":"37.01363776","long":"127.2545981","imageIndex":4,"items":[{"name":"명품참숯화로구이","tel":"031-672-5692","addr":"경기도 안성시 신건지동 1번지 1층","indutype":"일반휴게음식 - 일반한식","category":"restaurant"},{"name":"신초쭈꾸미","tel":"031-675-2270","addr":"경기도 안성시 신건지동 1번지","indutype":"일반휴게음식 - 일반한식","category":"restaurant"}]},{"lat":"37.013689067","long":"127.25163189","imageIndex":4,"items":[{"name":"본가왕갈비탕","tel":"031-677-0369","addr":"경기도 안성시 신건지동 146-2번지","indutype":"일반휴게음식 - 일반한식","category":"restaurant"}]},{"lat":"37.013249241","long":"127.25082144","imageIndex":4,"items":[{"name":"안성닭장","tel":"031-675-8852","addr":"경기도 안성시 신건지동 144-7번지 1층","indutype":"일반휴게음식 - 일반한식","category":"restaurant"}]},{"lat":"37.014080446","long":"127.25404898","imageIndex":4,"items":[{"name":"이선생뒷고기막창","tel":"","addr":"경기도 안성시 신건지동 149-1번지 1층","indutype":"일반휴게음식 - 일반한식","category":"restaurant"}]},{"lat":"37.017381134","long":"127.2440141","imageIndex":4,"items":[{"name":"정담원 삼원인더스트리점","tel":"031-677-8022","addr":"경기도 안성시 신건지동 54-1번지","indutype":"일반휴게음식 - 위탁급식업","category":"restaurant"}]},{"lat":"37.01324743","long":"127.25168663","imageIndex":4,"items":[{"name":"정성회관","tel":"031-675-1445","addr":"경기도 안성시 신건지동 151-3번지","indutype":"일반휴게음식 - 일반한식","category":"restaurant"}]},{"lat":"37.0131868","long":"127.25051786","imageIndex":4,"items":[{"name":"제이하우스","tel":"031-675-9286","addr":"경기도 안성시 신건지동 15-13번지","indutype":"일반휴게음식 - 일반한식","category":"restaurant"}]},{"lat":"37.013909316","long":"127.25401471","imageIndex":4,"items":[{"name":"쭌비어","tel":"031-674-0789","addr":"경기도 안성시 신건지동 2-6번지","indutype":"일반휴게음식 - 주점","category":"restaurant"}]},{"lat":"37.013300338","long":"127.25223738","imageIndex":4,"items":[{"name":"청해해물찜","tel":"031-672-6783","addr":"경기도 안성시 신건지동 147-2번지","indutype":"일반휴게음식 - 일반한식","category":"restaurant"}]},{"lat":"37.013936062","long":"127.25414963","imageIndex":4,"items":[{"name":"최가네","tel":"031-676-8041","addr":"경기도 안성시 신건지동 2-5번지","indutype":"일반휴게음식 - 일반한식","category":"restaurant"}]},{"lat":"37.014215081","long":"127.25429663","imageIndex":4,"items":[{"name":"하늘바라기","tel":"031-673-7554","addr":"경기도 안성시 신건지동 149-3번지","indutype":"일반휴게음식 - 주점","category":"restaurant"},{"name":"허구헌날","tel":"031-674-5741","addr":"경기도 안성시 신건지동 149-3번지","indutype":"일반휴게음식 - 일반한식","category":"restaurant"}]},{"lat":"37.013963664","long":"127.25388005","imageIndex":4,"items":[{"name":"한돈마을","tel":"031-676-9258","addr":"경기도 안성시 신건지동 149번지","indutype":"일반휴게음식 - 일반한식","category":"restaurant"},{"name":"현호용한돈마을","tel":"031-676-9258","addr":"경기도 안성시 신건지동 149번지","indutype":"일반휴게음식 - 일반한식","category":"restaurant"}]},{"lat":"37.014046231","long":"127.25318367","imageIndex":4,"items":[{"name":"호식이 두마리 치킨 안성1호점","tel":"031-677-9922","addr":"경기도 안성시 신건지동 3-4번지 1층","indutype":"일반휴게음식 - 일반한식","category":"restaurant"}]},{"lat":"37.013185109","long":"127.25132687","imageIndex":4,"items":[{"name":"호식이두마리치킨 1호점","tel":"031-677-9922","addr":"경기도 안성시 신건지동 151-1번지","indutype":"일반휴게음식 - 스넥","category":"restaurant"}]},{"lat":"37.013992404","long":"127.25307113","imageIndex":8,"items":[{"name":"(주)한국양돈센타","tel":"031-674-4280","addr":"경기도 안성시 신건지동 4-9번지 2층","indutype":"기타의료기관 - 동물병원","category":"medical"}]},{"lat":"37.013605659","long":"127.25273277","imageIndex":0,"items":[{"name":"1급안성맞춤정비","tel":"031-673-2007","addr":"경기도 안성시 신건지동 7번지","indutype":"자동차정비 유지 - 자동차정비","category":"car"},{"name":"기아안성서비스(주)","tel":"031-673-2007","addr":"경기도 안성시 신건지동 7번지","indutype":"자동차정비 유지 - 자동차정비","category":"car"}]},{"lat":"37.013273779","long":"127.25201257","imageIndex":0,"items":[{"name":"루마썬팅 한경대점","tel":"031-618-4782","addr":"경기도 안성시 신건지동 147-3번지 1동1,2호","indutype":"자동차정비 유지 - 자동차부품","category":"car"}]},{"lat":"37.012607068","long":"127.24323496","imageIndex":0,"items":[{"name":"쌍용자동차안성서비스프라자","tel":"031-677-5000","addr":"경기도 안성시 신건지동 84번지","indutype":"자동차정비 유지 - 자동차정비","category":"car"}]},{"lat":"37.013304008","long":"127.25048453","imageIndex":0,"items":[{"name":"애니카랜드신건지점","tel":"031-674-9393","addr":"경기도 안성시 신건지동 15-11번지","indutype":"자동차정비 유지 - 세차장","category":"car"}]},{"lat":"37.013408985","long":"127.25199054","imageIndex":0,"items":[{"name":"자동차마을","tel":"031-671-3113","addr":"경기도 안성시 신건지동 147번지","indutype":"회원제형태 - 자동차서비스","category":"car"}]},{"lat":"37.012688709","long":"127.24296554","imageIndex":0,"items":[{"name":"청용자동차매매상사","tel":"031-673-0030","addr":"경기도 안성시 신건지동 84-5번지 외1필지","indutype":"자동차판매 - 중고자동차판매","category":"car"}]},{"lat":"37.013803419","long":"127.25295815","imageIndex":17,"items":[{"name":"G.S.스포츠","tel":"031-675-3832","addr":"경기도 안성시 신건지동 4-5번지","indutype":"레져용품 - 스포츠·레져용품","category":"other"}]},{"lat":"37.013051641","long":"127.25051742","imageIndex":17,"items":[{"name":"GS25안성중앙점","tel":"","addr":"경기도 안성시 신건지동 15-14번지 1층 101호","indutype":"유통업 영리 - 편 의 점","category":"other"}]},{"lat":"37.013718659","long":"127.25040723","imageIndex":17,"items":[{"name":"경기대덕우체국","tel":"031-672-1005","addr":"경기도 안성시 신건지동 15-3번지","indutype":"용역 서비스 - 공공요금대행서비스/소","category":"other"}]},{"lat":"37.013327016","long":"127.25240601","imageIndex":17,"items":[{"name":"기린금속","tel":"031-671-6221","addr":"경기도 안성시 신건지동 147-5번지","indutype":"기타 - 기계공구","category":"other"}]},{"lat":"37.016744421","long":"127.24693364","imageIndex":17,"items":[{"name":"다무라케미컬코리아주식회사","tel":"031-672-1154","addr":"경기도 안성시 신건지동 58-3번지","indutype":"기타 - 기타 전문점","category":"other"}]},{"lat":"37.013603597","long":"127.25371032","imageIndex":17,"items":[{"name":"삼거리지업사","tel":"031-674-1400","addr":"경기도 안성시 신건지동 4-20번지","indutype":"직물 - 카페트,커튼,천막,지물","category":"other"}]},{"lat":"37.013828933","long":"127.25367736","imageIndex":17,"items":[{"name":"삼성보안공사","tel":"031-677-0021","addr":"경기도 안성시 신건지동 3-13번지","indutype":"기타 - 기계공구","category":"other"}]},{"lat":"37.01924351","long":"127.24540215","imageIndex":17,"items":[{"name":"상진기업(주)","tel":"031-675-8127","addr":"경기도 안성시 신건지동 55번지","indutype":"유통업 영리 - 기타유통업","category":"other"}]},{"lat":"37.018102681","long":"127.24807292","imageIndex":17,"items":[{"name":"성진켐","tel":"031-671-6683","addr":"경기도 안성시 신건지동 56-4번지","indutype":"신변잡화 - 기타잡화","category":"other"}]},{"lat":"37.01433255","long":"127.2498474","imageIndex":17,"items":[{"name":"세븐일레븐안성1공단입구점","tel":"031-1577-0711","addr":"경기도 안성시 신건지동 16-1번지","indutype":"유통업 영리 - 편 의 점","category":"other"}]},{"lat":"37.013998351","long":"127.25452064","imageIndex":17,"items":[{"name":"세븐일레븐안성신건중앙점","tel":"","addr":"경기도 안성시 신건지동 149-5번지","indutype":"유통업 영리 - 편 의 점","category":"other"},{"name":"세븐일레븐안성신건중앙점","tel":"031-1577-0711","addr":"경기도 안성시 신건지동 149-5번지 1층","indutype":"유통업 영리 - 편 의 점","category":"other"}]},{"lat":"37.014221751","long":"127.25112799","imageIndex":17,"items":[{"name":"세븐일레븐안성신건지점","tel":"","addr":"경기도 안성시 신건지동 143번지 1층","indutype":"유통업 영리 - 편 의 점","category":"other"}]},{"lat":"37.019301233","long":"127.24360439","imageIndex":17,"items":[{"name":"세븐일레븐안성제1공단점","tel":"","addr":"경기도 안성시 신건지동 123번지","indutype":"유통업 영리 - 편 의 점","category":"other"}]},{"lat":"37.013469269","long":"127.25331661","imageIndex":17,"items":[{"name":"세종종합광고","tel":"031-677-2333","addr":"경기도 안성시 신건지동 4-17번지","indutype":"건축자재 - 인테리어전문","category":"other"}]},{"lat":"37.013719737","long":"127.25418263","imageIndex":17,"items":[{"name":"씨유안성신건지점","tel":"031-677-0479","addr":"경기도 안성시 신건지동 2번지 1층","indutype":"유통업 영리 - 편 의 점","category":"other"}]},{"lat":"37.01268613","long":"127.24862856","imageIndex":17,"items":[{"name":"안성 공도카고크레인","tel":"","addr":"경기도 안성시 신건지동 25-1번지","indutype":"기타 - 기계공구","category":"other"}]},{"lat":"37.012581041","long":"127.24715629","imageIndex":17,"items":[{"name":"안성종합가구","tel":"031-673-3389","addr":"경기도 안성시 신건지동 32번지","indutype":"가구 - 일반가구","category":"other"}]},{"lat":"37.017381134","long":"127.2440141","imageIndex":17,"items":[{"name":"에이에스테크","tel":"031-677-0131","addr":"경기도 안성시 신건지동 54-1번지","indutype":"서적문구 - 과학기자재","category":"other"},{"name":"주식회사에이에스씨","tel":"031-677-0131","addr":"경기도 안성시 신건지동 54-1번지 안성제1산업단지","indutype":"서적문구 - 과학기자재","category":"other"}]},{"lat":"37.014050549","long":"127.25112743","imageIndex":17,"items":[{"name":"우성종합사무기","tel":"031-674-1991","addr":"경기도 안성시 신건지동 143-5번지","indutype":"사무통신 - 사무용 OA기기","category":"other"}]},{"lat":"37.013471422","long":"127.25229412","imageIndex":17,"items":[{"name":"워치컴(주)","tel":"031-676-9195","addr":"경기도 안성시 신건지동 147-1번지","indutype":"용역 서비스 - 종합용역","category":"other"},{"name":"파트너스","tel":"031-658-7255","addr":"경기도 안성시 신건지동 147-1번지","indutype":"용역 서비스 - 종합용역","category":"other"}]},{"lat":"37.01346758","long":"127.24982212","imageIndex":17,"items":[{"name":"종로플라워","tel":"031-673-6342","addr":"경기도 안성시 신건지동 17-1","indutype":"문화.취미 - 화원","category":"other"}]},{"lat":"37.013439284","long":"127.25042879","imageIndex":17,"items":[{"name":"주식회사 서부냉동공조캐리어에어컨","tel":"031-677-0328","addr":"경기도 안성시 신건지동 15-9번지 2층","indutype":"용역 서비스 - 기타용역서비스","category":"other"}]},{"lat":"37.017851706","long":"127.24743161","imageIndex":17,"items":[{"name":"주식회사 에코원코리아","tel":"031-676-8946","addr":"경기도 안성시 신건지동 52번지","indutype":"신변잡화 - 기타잡화","category":"other"}]},{"lat":"37.013724072","long":"127.2521264","imageIndex":17,"items":[{"name":"진에듀","tel":"","addr":"경기도 안성시 신건지동 8번지 신안주택 가동 307호","indutype":"서적문구 - 기타서적문구","category":"other"}]},{"lat":"37.01357704","long":"127.25348551","imageIndex":17,"items":[{"name":"참쑥좌훈방","tel":"031-676-3749","addr":"경기도 안성시 신건지동 4-18","indutype":"회원제형태 - 기타4","category":"other"}]},{"lat":"37.014134224","long":"127.254184","imageIndex":17,"items":[{"name":"친환경마트","tel":"031-674-8835","addr":"경기도 안성시 신건지동 149-2번지","indutype":"전기제품 - 가전제품","category":"other"}]},{"lat":"37.01366593","long":"127.24976658","imageIndex":17,"items":[{"name":"포인트플라워","tel":"031-671-2579","addr":"경기도 안성시 신건지동 17","indutype":"문화.취미 - 화원","category":"other"}]},{"lat":"37.013051641","long":"127.25051742","imageIndex":13,"items":[{"name":"골든큐당구클럽","tel":"031-676-9647","addr":"경기도 안성시 신건지동 15-14번지 2층","indutype":"레저업소 - 당 구 장","category":"leisure"}]},{"lat":"37.01433255","long":"127.2498474","imageIndex":13,"items":[{"name":"그늘집스크린골프","tel":"031-677-7717","addr":"경기도 안성시 신건지동 16-1번지 4층","indutype":"레저업소 - 스크린골프","category":"leisure"}]},{"lat":"37.013410045","long":"127.25148491","imageIndex":13,"items":[{"name":"나훈아노래방","tel":"031-676-2157","addr":"경기도 안성시 신건지동 146-5번지","indutype":"레저업소 - 노 래 방","category":"leisure"}]},{"lat":"37.013719737","long":"127.25418263","imageIndex":13,"items":[{"name":"몽당구장","tel":"","addr":"경기도 안성시 신건지동 2번지","indutype":"레저업소 - 당 구 장","category":"leisure"}]},{"lat":"37.013685641","long":"127.25326114","imageIndex":13,"items":[{"name":"얼쑤노래연습장","tel":"031-671-4145","addr":"경기도 안성시 신건지동 4-15번지","indutype":"레저업소 - 노 래 방","category":"leisure"}]},{"lat":"37.014052724","long":"127.25437475","imageIndex":13,"items":[{"name":"용당구장","tel":"031-672-7644","addr":"경기도 안성시 신건지동 149-4번지","indutype":"레저업소 - 당 구 장","category":"leisure"}]},{"lat":"37.013719261","long":"127.25440736","imageIndex":13,"items":[{"name":"해오름노래방","tel":"031-676-1581","addr":"경기도 안성시 신건지동 1-2번지","indutype":"레저업소 - 노 래 방","category":"leisure"}]},{"lat":"37.013909316","long":"127.25401471","imageIndex":13,"items":[{"name":"현대노래방","tel":"031-675-4538","addr":"경기도 안성시 신건지동 2-6번지","indutype":"레저업소 - 노 래 방","category":"leisure"}]},{"lat":"37.013603597","long":"127.25371032","imageIndex":13,"items":[{"name":"휘파람노래연습장","tel":"031-672-1736","addr":"경기도 안성시 신건지동 4-20번지","indutype":"레저업소 - 노 래 방","category":"leisure"}]},{"lat":"37.013996885","long":"127.25093624","imageIndex":7,"items":[{"name":"대림공판장","tel":"031-676-2847","addr":"경기도 안성시 신건지동 15창명연립가101","indutype":"유통업 영리 - 슈퍼마켓","category":"mart"}]},{"lat":"37.013998351","long":"127.25452064","imageIndex":16,"items":[{"name":"더드림 (The Dream) 학원","tel":"031-671-2399","addr":"경기도 안성시 신건지동 149-5번지 2층 일부","indutype":"학원 - 보습학원","category":"study"}]},{"lat":"37.013469269","long":"127.25331661","imageIndex":16,"items":[{"name":"박근오 색소폰 전문학원","tel":"031-691-8223","addr":"경기도 안성시 신건지동 4-17번지 1층","indutype":"학원 - 예·체능계학원","category":"study"}]},{"lat":"37.013936062","long":"127.25414963","imageIndex":16,"items":[{"name":"서현학원","tel":"031-671-2341","addr":"경기도 안성시 신건지동 2-5번지 2층","indutype":"학원 - 보습학원","category":"study"}]},{"lat":"37.013802589","long":"127.25335142","imageIndex":16,"items":[{"name":"행복한어린이집[아이행복]","tel":"031-674-2525","addr":"경기도 안성시 신건지동 4-13번지","indutype":"학원 - 유아원","category":"study"}]},{"lat":"37.014550184","long":"127.25348871","imageIndex":13,"items":[{"name":"메디발런스코어운동센터","tel":"031-671-3838","addr":"경기도 안성시 신건지동 148-1번지 2층","indutype":"보건위생 - 기타대인서비스","category":"beauty"}]},{"lat":"37.013909316","long":"127.25401471","imageIndex":13,"items":[{"name":"스타미용타운","tel":"031-673-8608","addr":"경기도 안성시 신건지동 2-6번지","indutype":"보건위생 - 미용원","category":"beauty"}]},{"lat":"37.013992404","long":"127.25307113","imageIndex":13,"items":[{"name":"아름미용타운","tel":"031-674-9079","addr":"경기도 안성시 신건지동 4-9번지","indutype":"보건위생 - 미용원","category":"beauty"}]},{"lat":"37.013910147","long":"127.25362144","imageIndex":13,"items":[{"name":"하얀미용실","tel":"031-675-7747","addr":"경기도 안성시 신건지동 3-9번지","indutype":"보건위생 - 미용원","category":"beauty"}]},{"lat":"37.014215081","long":"127.25429663","imageIndex":13,"items":[{"name":"헤어미","tel":"031-671-5539","addr":"경기도 안성시 신건지동 149-3번지","indutype":"보건위생 - 미용원","category":"beauty"}]},{"lat":"37.013998351","long":"127.25452064","imageIndex":13,"items":[{"name":"헤어보떼","tel":"031-672-1539","addr":"경기도 안성시 신건지동 149-5번지","indutype":"보건위생 - 미용원","category":"beauty"}]},{"lat":"37.013803419","long":"127.25295815","imageIndex":7,"items":[{"name":"안성건국우유보급소","tel":"031-675-8778","addr":"경기도 안성시 신건지동 4-5번지","indutype":"음료식품 - 기타음료식품","category":"food"}]},{"lat":"37.013439284","long":"127.25042879","imageIndex":7,"items":[{"name":"제이하우스수산","tel":"031-675-9286","addr":"경기도 안성시 신건지동 15-9번지","indutype":"음료식품 - 농·축·수산품","category":"food"}]},{"lat":"37.013992404","long":"127.25307113","imageIndex":7,"items":[{"name":"조은이식품","tel":"","addr":"경기도 안성시 신건지동 4-9번지","indutype":"음료식품 - 기타음료식품","category":"food"}]},{"lat":"37.014990579","long":"127.24535492","imageIndex":7,"items":[{"name":"주식회사사조오양/안성공장","tel":"031-721-6500","addr":"경기도 안성시 신건지동 59번지","indutype":"음료식품 - 기타음료식품","category":"food"}]},{"lat":"37.013657304","long":"127.25387904","imageIndex":7,"items":[{"name":"청송닭집","tel":"031-673-7869","addr":"경기도 안성시 신건지동 3-15번지","indutype":"음료식품 - 정육점","category":"food"}]},{"lat":"37.017798148","long":"127.24276812","imageIndex":7,"items":[{"name":"태경농산","tel":"","addr":"경기도 안성시 신건지동 113번지","indutype":"음료식품 - 농·축·수산품","category":"food"}]},{"lat":"37.01268613","long":"127.24862856","imageIndex":9,"items":[{"name":"현대대성주유소","tel":"031-675-2262","addr":"경기도 안성시 신건지동 25-1번지","indutype":"연료판매점 - 현대정유(오일뱅크)","category":"oil"}]}]