[{"lat":"37.175633015","long":"126.98075554","items":[{"name":"GS25정남세자로점","tel":"","addr":"경기도 화성시 정남면 관항리 81-3번지","category":"유통업 영리 - 편 의 점"}]},{"lat":"37.180553545","long":"126.95362634","items":[{"name":"경기영농식품(주)","tel":"031-366-4862","addr":"경기도 화성시 정남면 관항리 534-1번지 2호","category":"음료식품 - 농·축·수산품"}]},{"lat":"37.183214921","long":"126.96234094","items":[{"name":"노커즈핸드(KNOCKERS HAND)","tel":"031-352-1013","addr":"경기도 화성시 정남면 관항리 365번지","category":"신변잡화 - 액세서리"}]},{"lat":"37.177496275","long":"126.97223076","items":[{"name":"농업회사법인(주)경기임산가공수출협회","tel":"031-8059-6392","addr":"경기도 화성시 정남면 관항리 56-2","category":"음료식품 - 농·축·수산품"},{"name":"농업회사법인(주)경기임산가공수출협회","tel":"031-352-6631","addr":"경기도 화성시 정남면 관항리 56-2","category":"음료식품 - 농·축·수산품"}]},{"lat":"37.18130277","long":"126.95701545","items":[{"name":"누리티에스","tel":"031-235-6882","addr":"경기도 화성시 정남면 관항리 456-11번지","category":"서적문구 - 과학기자재"},{"name":"누리티에스/원격지","tel":"","addr":"경기도 화성시 정남면 관항리 456-11번지","category":"기타 - 기타 전문점"}]},{"lat":"37.184103765","long":"126.95390558","items":[{"name":"다솜공방","tel":"031-353-7662","addr":"경기도 화성시 정남면 관항리 482-1번지","category":"가구 - 일반가구"}]},{"lat":"37.182410304","long":"126.95512289","items":[{"name":"두산공작기계A/S","tel":"031-223-0325","addr":"경기도 화성시 정남면 관항리 475-1번지","category":"기타 - 기계공구"}]},{"lat":"37.176802886","long":"126.97387507","items":[{"name":"본도명가힐링원","tel":"031-353-0982","addr":"경기도 화성시 정남면 관항리 190-1번지","category":"레저업소 - 헬스클럽"},{"name":"정남숯가마","tel":"031-353-8333","addr":"경기도 화성시 정남면 관항리 190-1","category":"보건위생 - 사우나"}]},{"lat":"37.179690454","long":"126.95845782","items":[{"name":"솔미산업","tel":"031-226-1817","addr":"경기도 화성시 정남면 관항리 549-18번지 외1필지","category":"가구 - 기타가구"}]},{"lat":"37.181439811","long":"126.96217297","items":[{"name":"엔조이 라이프","tel":"070-8872-1308","addr":"경기도 화성시 정남면 관항리 337-1번지","category":"레져용품 - 스포츠·레져용품"}]},{"lat":"37.174605786","long":"126.9805419","items":[{"name":"정남IC주유소","tel":"031-352-5185","addr":"경기도 화성시 정남면 관항리 81-5번지","category":"연료판매점 - SK주유소"}]},{"lat":"37.179389124","long":"126.97489881","items":[{"name":"주식회사신한에볼루션","tel":"031-354-6113","addr":"경기도 화성시 정남면 관항리 26-10번지","category":"기타 - 기계공구"}]},{"lat":"37.181800305","long":"126.962398","items":[{"name":"코리아매트","tel":"031-223-5214","addr":"경기도 화성시 정남면 관항리 354번지","category":"신변잡화 - 기타잡화"}]},{"lat":"37.178918489","long":"126.9671178","items":[{"name":"태건정밀","tel":"031-352-5754","addr":"경기도 화성시 정남면 관항리 279","category":"기타 - 기계공구"}]},{"lat":"37.179641044","long":"126.97336724","items":[{"name":"홍진씨엔텍","tel":"031-226-8050","addr":"경기도 화성시 정남면 관항리 15번지","category":"유통업 영리 - 기타유통업"}]}]