[{"lat":"37.090113491","long":"126.7795833","items":[{"name":"건일바이오","tel":"031-750-5148","addr":"경기도 화성시 우정읍 운평리 1363-5번지","category":"건축자재 - 기타건축자재"}]},{"lat":"37.084759321","long":"126.78338918","items":[{"name":"대진종합가스","tel":"031-351-4343","addr":"경기도 화성시 우정읍 운평리 206-6번지","category":"연료판매점 - LPG 취급점"},{"name":"용두2호","tel":"031-352-1673","addr":"경기도 화성시 우정읍 운평리 206-6번지","category":"음료식품 - 농·축·수산품"}]},{"lat":"37.08231215","long":"126.7757824","items":[{"name":"도원FNC","tel":"031-358-5378","addr":"경기도 화성시 우정읍 운평리 412-14번지 가동","category":"기타 - 기계공구"}]},{"lat":"37.085950369","long":"126.7842855","items":[{"name":"사회복지법인조암어린이집[아이행복]","tel":"031-351-0915","addr":"경기도 화성시 우정읍 운평리 1353-1","category":"학원 - 유아원"}]},{"lat":"37.074725837","long":"126.77141935","items":[{"name":"이레방충망","tel":"031-352-4085","addr":"경기도 화성시 우정읍 운평리 522-2번지","category":"용역 서비스 - 기타용역서비스"}]},{"lat":"37.085897175","long":"126.78475803","items":[{"name":"조암제일보습학원","tel":"031-351-0915","addr":"경기도 화성시 우정읍 운평리 1353-6번지","category":"학원 - 보습학원"}]},{"lat":"37.090425946","long":"126.76872842","items":[{"name":"평전수산","tel":"031-8988-4589","addr":"경기도 화성시 우정읍 운평리 790-4번지","category":"음료식품 - 농·축·수산품"}]},{"lat":"37.085174467","long":"126.77892298","items":[{"name":"화니네","tel":"","addr":"경기도 화성시 우정읍 운평리 668-4번지 1층","category":"신변잡화 - 기타잡화"}]}]