[{"lat":"38.08430146","long":"127.0188964","imageIndex":4,"items":[{"name":"군남반점","tel":"031-833-0533","addr":"경기도 연천군 군남면 삼거리 400-18","indutype":"일반휴게음식 - 중국식","category":"restaurant"}]},{"lat":"38.08527434","long":"127.0195691","imageIndex":4,"items":[{"name":"나룻배식당","tel":"031-833-0506","addr":"경기도 연천군 군남면 삼거리 420-3","indutype":"일반휴게음식 - 일반한식","category":"restaurant"}]},{"lat":"38.0856078","long":"127.0186801","imageIndex":4,"items":[{"name":"네네치킨 피자","tel":"031-833-3555","addr":"경기도 연천군 군남면 삼거리 395-14번지","indutype":"일반휴게음식 - 스넥","category":"restaurant"}]},{"lat":"38.08496803","long":"127.0196146","imageIndex":4,"items":[{"name":"복흥식당","tel":"031-833-8340","addr":"경기도 연천군 군남면 삼거리 418-6번지","indutype":"일반휴게음식 - 일반한식","category":"restaurant"}]},{"lat":"38.08499518","long":"127.0187597","imageIndex":4,"items":[{"name":"세모카페/세갈레길 모퉁이 영농조합법인","tel":"","addr":"경기도 연천군 군남면 삼거리 400-5번지","indutype":"일반휴게음식 - 서양음식","category":"restaurant"}]},{"lat":"38.08558075","long":"127.0188396","imageIndex":4,"items":[{"name":"작은시나몬군남점","tel":"031-835-2358","addr":"경기도 연천군 군남면 삼거리 395-15번지 1층","indutype":"일반휴게음식 - 서양음식","category":"restaurant"}]}]