[{"lat":"37.270968535","long":"127.63716818","imageIndex":0,"items":[{"name":"경기자동차 주식회사","tel":"031-882-5982","addr":"경기도 여주시 교동 50번지","indutype":"자동차정비 유지 - 자동차정비","category":"car"}]},{"lat":"37.274220624","long":"127.63727438","imageIndex":0,"items":[{"name":"대학세차,경정비","tel":"031-884-5820","addr":"경기도 여주시 교동 62-6번지","indutype":"자동차정비 유지 - 세차장","category":"car"}]},{"lat":"37.276501352","long":"127.63705674","imageIndex":0,"items":[{"name":"성흥자동차공업사","tel":"031-1111-1111","addr":"경기도 여주시 교동 84-9번지","indutype":"자동차정비 유지 - 자동차정비","category":"car"}]},{"lat":"37.275910522","long":"127.63802144","imageIndex":0,"items":[{"name":"시민세차장","tel":"","addr":"경기도 여주시 교동 30-32번지","indutype":"자동차정비 유지 - 세차장","category":"car"}]},{"lat":"37.277167347","long":"127.63719763","imageIndex":0,"items":[{"name":"정품C&B","tel":"070-7108-4072","addr":"경기도 여주시 교동 92-5번지","indutype":"자동차정비 유지 - 자동차부품","category":"car"}]},{"lat":"37.271390059","long":"127.63753249","imageIndex":0,"items":[{"name":"휠&타이어","tel":"031-884-3700","addr":"경기도 여주시 교동 50-1번지","indutype":"자동차정비 유지 - 자동차시트·타이어","category":"car"}]}]