[{"lat":"37.977820095","long":"127.33620642","imageIndex":7,"items":[{"name":"쉼터꽃마루","tel":"031-533-4446","addr":"경기도 포천시 일동면 화대리 449-2","indutype":"음료식품 - 기타음료식품","category":"food"}]},{"lat":"37.96760707","long":"127.32856973","imageIndex":7,"items":[{"name":"약초","tel":"031-531-0434","addr":"경기도 포천시 일동면 화대리 662-1번지 1층","indutype":"음료식품 - 기타음료식품","category":"food"}]},{"lat":"37.968767821","long":"127.32908697","imageIndex":7,"items":[{"name":"이동갈비유통","tel":"031-533-3360","addr":"경기도 포천시 일동면 화대리 638-2번지 1층","indutype":"음료식품 - 정육점","category":"food"}]},{"lat":"37.951022636","long":"127.35914758","imageIndex":7,"items":[{"name":"청우농원매점","tel":"031-532-2688","addr":"경기도 포천시 일동면 화대리 2번지","indutype":"음료식품 - 기타음료식품","category":"food"}]},{"lat":"37.96615488","long":"127.32592318","imageIndex":7,"items":[{"name":"황금축산153","tel":"031-532-4753","addr":"경기도 포천시 일동면 화대리 673-6번지","indutype":"음료식품 - 정육점","category":"food"}]},{"lat":"37.965878563","long":"127.32484089","imageIndex":7,"items":[{"name":"힘찬건강원","tel":"031-535-0825","addr":"경기도 포천시 일동면 화대리 676번지","indutype":"건강식품 - 기타건강식품","category":"food"}]}]