[{"lat":"37.17586775","long":"127.29580737","items":[{"name":"(Gallery)갤러리 원삼(WONSAM)(L.P.E)","tel":"","addr":"경기도 용인시 처인구 원삼면 사암리 946-1번지","category":"문화.취미 - 화랑"}]},{"lat":"37.196531447","long":"127.3258927","items":[{"name":"(신)돈이랑찌개랑","tel":"031-336-2018","addr":"경기도 용인시 처인구 원삼면 맹리 544-9번지 행군자동차공업사 2동 1층","category":"일반휴게음식 - 일반한식"},{"name":"다산공인중개사사무소","tel":"031-323-1978","addr":"경기도 용인시 처인구 원삼면 맹리 544-9번지","category":"용역 서비스 - 부동산 중개·임대"},{"name":"커피유","tel":"031-321-2034","addr":"경기도 용인시 처인구 원삼면 맹리 544-9번지 1층","category":"일반휴게음식 - 서양음식"},{"name":"행군자동차공업사","tel":"031-333-7015","addr":"경기도 용인시 처인구 원삼면 맹544-9","category":"자동차정비 유지 - 자동차정비"}]},{"lat":"37.15856213","long":"127.3016734","items":[{"name":"(주)메나리","tel":"031-711-6148","addr":"경기도 용인시 처인구 원삼면 문촌리9-2","category":"음료식품 - 농·축·수산품"}]},{"lat":"37.14028374","long":"127.32433658","items":[{"name":"(주)바인즈","tel":"031-332-5508","addr":"경기도 용인시 처인구 원삼면 죽능리 2-2번지","category":"학원 - 보습학원"},{"name":"둥지휴양림","tel":"031-333-6789","addr":"경기도 용인시 처인구 원삼면 죽능리 2-2번지","category":"숙박업 - 여관/기타숙박업"}]},{"lat":"37.1908633","long":"127.31944894","items":[{"name":"(주)에이스캠엔지니어링","tel":"031-352-4862","addr":"경기도 용인시 처인구 원삼면 미평리 164-2번지","category":"전기제품 - 기타전기제품"}]},{"lat":"37.1761988","long":"127.32781046","items":[{"name":"(주)우리농장","tel":"031-336-9183","addr":"경기도 용인시 처인구 원삼면 가재월리 316","category":"농업 - 비료,사료,종자"}]},{"lat":"37.20436467","long":"127.34088533","items":[{"name":"(주)코엠파트너스","tel":"070-4062-2250","addr":"경기도 용인시 처인구 원삼면 맹리 285-23번지 지산빌리지 1층","category":"기타 - 기계공구"}]},{"lat":"37.200529863","long":"127.32002997","items":[{"name":"BJ고고대리","tel":"070-4062-3914","addr":"경기도 용인시 처인구 원삼면 좌항리 632번지","category":"보건위생 - 기타대인서비스"}]},{"lat":"37.16531429","long":"127.31092085","items":[{"name":"H.K축산유통","tel":"031-284-1994","addr":"경기도 용인시 처인구 원삼면 고당리 71-13번지","category":"음료식품 - 정육점"},{"name":"우리방아간","tel":"031-334-2914","addr":"경기도 용인시 처인구 원삼면 고당리 71-13번지","category":"음료식품 - 기타음료식품"},{"name":"원삼축산물도매센터","tel":"070-4404-1994","addr":"경기도 용인시 처인구 원삼면 고당리 71-13번지","category":"음료식품 - 정육점"}]},{"lat":"37.210726802","long":"127.321064","items":[{"name":"K.S헤어용품","tel":"031-338-9678","addr":"경기도 용인시 처인구 원삼면 좌항리 15-1번지 1층","category":"보건위생 - 미용재료"},{"name":"김기성미용실","tel":"031-338-9678","addr":"경기도 용인시 처인구 원삼면 좌항리 15-1","category":"보건위생 - 미용원"},{"name":"미소","tel":"070-4214-9291","addr":"경기도 용인시 처인구 원삼면 좌항리 15-1번지","category":"일반휴게음식 - 일반한식"},{"name":"카페뮬(cafe mule)","tel":"02-111-1111","addr":"경기도 용인시 처인구 원삼면 좌항리 15-1번지 1층 북쪽","category":"일반휴게음식 - 서양음식"}]},{"lat":"37.189700583","long":"127.3195905","items":[{"name":"KR글로벌","tel":"","addr":"경기도 용인시 처인구 원삼면 미평리 183-32번지","category":"가구 - 기타가구"}]},{"lat":"37.160281093","long":"127.34569875","items":[{"name":"YK솔루션","tel":"031-338-5521","addr":"경기도 용인시 처인구 원삼면 두창리 856-2번지","category":"용역 서비스 - 사무서비스"}]},{"lat":"37.19469818","long":"127.32741667","items":[{"name":"가나정육점식당","tel":"031-333-2015","addr":"경기도 용인시 처인구 원삼면 맹리 553-3번지","category":"일반휴게음식 - 일반한식"}]},{"lat":"37.182309642","long":"127.30675563","items":[{"name":"가람","tel":"031-332-2939","addr":"경기도 용인시 처인구 원삼면 사암리 163-3번지","category":"유통업 영리 - 슈퍼마켓"},{"name":"가람","tel":"031-322-2939","addr":"경기도 용인시 처인구 원삼면 사암리 163-3번지","category":"유통업 영리 - 슈퍼마켓"}]},{"lat":"37.16461991","long":"127.31114321","items":[{"name":"가마솥족발","tel":"031-323-1153","addr":"경기도 용인시 처인구 원삼면 고당리 66-5번지 1층","category":"일반휴게음식 - 일반한식"}]},{"lat":"37.186752547","long":"127.32686462","items":[{"name":"가톨리아","tel":"031-335-1224","addr":"경기도 용인시 처인구 원삼면 미평로 42-40 (458-4,459)","category":"신변잡화 - 기념품점"}]},{"lat":"37.165034589","long":"127.31106608","items":[{"name":"건강한백세약국","tel":"031-333-5571","addr":"경기도 용인시 처인구 원삼면 고당리 71-30","category":"약국 - 약국"}]},{"lat":"37.183978591","long":"127.33294523","items":[{"name":"경기오일, 타이어전문점","tel":"031-338-2455","addr":"경기도 용인시 처인구 원삼면 맹리 698-102","category":"자동차정비 유지 - 자동차시트·타이어"}]},{"lat":"37.142948873","long":"127.33805691","items":[{"name":"경원","tel":"","addr":"경기도 용인시 처인구 원삼면 두창리 1634번지","category":"문화.취미 - 화원"},{"name":"모안","tel":"070-8883-2220","addr":"경기도 용인시 처인구 원삼면 두창리 1634번지","category":"일반휴게음식 - 일반한식"}]},{"lat":"37.163787822","long":"127.31234449","items":[{"name":"경일석재","tel":"031-339-1353","addr":"경기도 용인시 처인구 원삼면 고당리 30-6","category":"건축자재 - 목재·석재·철물"}]},{"lat":"37.164725756","long":"127.30503021","items":[{"name":"고당리산장건강원","tel":"031-333-2458","addr":"경기도 용인시 처인구 원삼면 고당리 302번지","category":"건강식품 - 기타건강식품"}]},{"lat":"37.15142371","long":"127.34574882","items":[{"name":"고래성손두부","tel":"031-374-0792","addr":"경기도 용인시 처인구 원삼면 두창리 1302-22","category":"일반휴게음식 - 일반한식"}]},{"lat":"37.156560446","long":"127.28381128","items":[{"name":"고초골 낚시터","tel":"070-8135-2009","addr":"경기도 용인시 처인구 원삼면 학일리 105-1번지","category":"레저업소 - 기타레져업소"}]},{"lat":"37.211636352","long":"127.32124807","items":[{"name":"골드","tel":"","addr":"경기도 용인시 처인구 원삼면 좌항리 13-1번지 레이크하우스 110호","category":"자동차정비 유지 - 카인테리어"}]},{"lat":"37.155425157","long":"127.30925969","items":[{"name":"광천렌탈","tel":"031-338-2008","addr":"경기도 용인시 처인구 원삼면 독성리 1311번지","category":"기타 - 기계공구"}]},{"lat":"37.184361809","long":"127.33122388","items":[{"name":"교동짬뽕","tel":"031-338-7972","addr":"경기도 용인시 처인구 원삼면 맹리 698-5번지 1층 일부","category":"일반휴게음식 - 중국식"},{"name":"원삼휴게소","tel":"031-333-4450","addr":"경기도 용인시 처인구 원삼면 맹리 698-5번지 외2필지","category":"유통업 영리 - 슈퍼마켓"}]},{"lat":"37.117209991","long":"127.31342626","items":[{"name":"구봉산 리조트","tel":"031-332-6214","addr":"경기도 용인시 처인구 원삼면 목신리 85-2번지","category":"숙박업 - 여관/기타숙박업"}]},{"lat":"37.118096801","long":"127.31197841","items":[{"name":"구봉산오토캠핑장 나인힐스","tel":"031-333-8822","addr":"경기도 용인시 처인구 원삼면 옥신리 83-2번지","category":"숙박업 - 여관/기타숙박업"}]},{"lat":"37.148011148","long":"127.31212261","items":[{"name":"구봉산촌편의점휴게소","tel":"070-8794-3531","addr":"경기도 용인시 처인구 원삼면 죽능리 502-2번지 구봉산휴게소","category":"유통업 영리 - 편 의 점"},{"name":"느락골","tel":"031-339-8320","addr":"경기도 용인시 처인구 원삼면 죽능리 502-2번지","category":"일반휴게음식 - 일반한식"},{"name":"유성정육점","tel":"031-339-8320","addr":"경기도 용인시 처인구 원삼면 죽능리 502-2번지","category":"음료식품 - 정육점"}]},{"lat":"37.192586103","long":"127.31536776","items":[{"name":"구석","tel":"031-338-1711","addr":"경기도 용인시 처인구 원삼면 좌항리 338-1번지 2동 1층","category":"일반휴게음식 - 주점"}]},{"lat":"37.163978947","long":"127.31161346","items":[{"name":"국제로타리3600지구원삼로타리클럽","tel":"031-334-0123","addr":"경기도 용인시 처인구 원삼면 고당리 32-6번지 3층","category":"기타 - 비영리/대상"},{"name":"다은에스테틱","tel":"031-332-7300","addr":"경기도 용인시 처인구 원삼면 고당리 32-6번지 외2필지 1층","category":"회원제형태 - 기타4"},{"name":"세광농산물","tel":"","addr":"경기도 용인시 처인구 원삼면 고당리 32-6번지 1층","category":"음료식품 - 기타음료식품"},{"name":"쉼터회실내마차","tel":"031-332-4150","addr":"경기도 용인시 처인구 원삼면 고당리 32-6번지 1층","category":"일반휴게음식 - 일반한식"},{"name":"영심이양념치킨","tel":"031-334-9955","addr":"경기도 용인시 처인구 원삼면 고당리 32-6번지","category":"일반휴게음식 - 일반한식"}]},{"lat":"37.141453731","long":"127.32150523","items":[{"name":"국제불교조계종 법천선원","tel":"031-332-3291","addr":"경기도 용인시 처인구 원삼면 죽능리 294-9번지 1층","category":"신변잡화 - 기념품점"}]},{"lat":"37.1832281","long":"127.33388792","items":[{"name":"굿커피(GoodCoffee)","tel":"031-338-8765","addr":"경기도 용인시 처인구 원삼면 맹리 681번지 1층 일부","category":"일반휴게음식 - 서양음식"},{"name":"덕신자동차공업사","tel":"031-334-3231","addr":"경기도 용인시 처인구 원삼면 맹리 681번지","category":"자동차정비 유지 - 자동차정비"},{"name":"웃자식당","tel":"031-335-0606","addr":"경기도 용인시 처인구 원삼면 맹리 681번지","category":"일반휴게음식 - 일반한식"}]},{"lat":"37.164172113","long":"127.31009435","items":[{"name":"그때그집","tel":"031-335-9771","addr":"경기도 용인시 처인구 원삼면 고당리 48-1번지","category":"일반휴게음식 - 일반한식"},{"name":"은화네집","tel":"031-337-0805","addr":"경기도 용인시 처인구 원삼면 고당리 48-1번지 1층","category":"일반휴게음식 - 일반한식"}]},{"lat":"37.196193049","long":"127.32772718","items":[{"name":"그랜드하우스","tel":"031-333-6245","addr":"경기도 용인시 처인구 원삼면 맹리 548-4번지","category":"숙박업 - 여관/기타숙박업"}]},{"lat":"37.201777966","long":"127.32164596","items":[{"name":"그린크리닝","tel":"070-8170-8607","addr":"경기도 용인시 처인구 원삼면 좌항리 129-1번지 1층","category":"수리서비스 - 세탁소"},{"name":"이지헤어","tel":"031-339-1312","addr":"경기도 용인시 처인구 원삼면 좌항리 129-1","category":"보건위생 - 미용원"}]},{"lat":"37.182668936","long":"127.32425709","items":[{"name":"그린텍상사","tel":"031-333-0693","addr":"경기도 용인시 처인구 원삼면 미평리 63번지","category":"신변잡화 - 기타잡화"}]},{"lat":"37.173562763","long":"127.29145214","items":[{"name":"금강제이에스","tel":"031-320-0197","addr":"경기도 용인시 처인구 원삼면 사암리 900번지 중소기업인력개발원 1층","category":"음료식품 - 기타음료식품"}]},{"lat":"37.177278985","long":"127.32156553","items":[{"name":"금강홀스랜드","tel":"031-334-9872","addr":"경기도 용인시 처인구 원삼면 가재월리 710-8","category":"레저업소 - 기타레져업소"}]},{"lat":"37.164557774","long":"127.31078268","items":[{"name":"김밥나라만두촌","tel":"031-332-8239","addr":"경기도 용인시 처인구 원삼면 고당리 66-4번지 김밥마을","category":"일반휴게음식 - 스넥"},{"name":"대명각","tel":"031-332-8018","addr":"경기도 용인시 처인구 원삼면 고당리66-4","category":"일반휴게음식 - 중국식"},{"name":"브이아이피(VIP)노래연습장","tel":"031-332-8027","addr":"경기도 용인시 처인구 원삼면 고당리 66-4번지 2층","category":"레저업소 - 노 래 방"},{"name":"삼시세끼쌈밥","tel":"031-323-3688","addr":"경기도 용인시 처인구 원삼면 고당리 66-4번지 1층 일부","category":"일반휴게음식 - 일반한식"},{"name":"안흥수낚시","tel":"031-334-0340","addr":"경기도 용인시 처인구 원삼면 고당리 66-4번지","category":"레져용품 - 스포츠·레져용품"},{"name":"오복순대국","tel":"031-333-1990","addr":"경기도 용인시 처인구 원삼면 고당리 66-4번지 1층","category":"일반휴게음식 - 일반한식"},{"name":"원삼농약사","tel":"031-333-7133","addr":"경기도 용인시 처인구 원삼면 고당리66-4","category":"농업 - 비료,사료,종자"},{"name":"원삼당구장","tel":"031-332-8717","addr":"경기도 용인시 처인구 원삼면 고당리 66-4번지 3층","category":"레저업소 - 당 구 장"}]},{"lat":"37.213606621","long":"127.3223604","items":[{"name":"김재원 동물병원","tel":"031-322-8875","addr":"경기도 용인시 처인구 원삼면 좌항리 1-10번지 지성부동산","category":"기타의료기관 - 동물병원"},{"name":"부자촌","tel":"031-321-6966","addr":"경기도 용인시 처인구 원삼면 좌항리 1-10번지 나동","category":"일반휴게음식 - 일반한식"},{"name":"양지센터","tel":"031-333-5256","addr":"경기도 용인시 처인구 원삼면 좌항리 1-10번지 가동","category":"자동차정비 유지 - 자동차부품"},{"name":"양평해장국 지산점","tel":"031-332-9762","addr":"경기도 용인시 처인구 원삼면 좌항리 1-10번지","category":"일반휴게음식 - 일반한식"},{"name":"창우상사","tel":"031-338-0996","addr":"경기도 용인시 처인구 원삼면 좌항리 1-10번지 1층","category":"자동차정비 유지 - 자동차부품"},{"name":"카페우리","tel":"","addr":"경기도 용인시 처인구 원삼면 좌항리 1-10번지 1동 카페우리","category":"일반휴게음식 - 서양음식"},{"name":"한율막국수","tel":"031-336-6172","addr":"경기도 용인시 처인구 원삼면 좌항리 1-10번지 가동 1층","category":"일반휴게음식 - 일반한식"}]},{"lat":"37.134205814","long":"127.32942023","items":[{"name":"깊은산속","tel":"070-4755-4788","addr":"경기도 용인시 처인구 원삼면 죽능리 26-38번지","category":"숙박업 - 여관/기타숙박업"}]},{"lat":"37.164197566","long":"127.31070241","items":[{"name":"까치한식뷔페","tel":"031-334-6666","addr":"경기도 용인시 처인구 원삼면 고당리 34-1번지 1층","category":"일반휴게음식 - 일반한식"},{"name":"행복마트","tel":"031-332-8078","addr":"경기도 용인시 처인구 원삼면 고당리 34-1","category":"유통업 영리 - 슈퍼마켓"}]},{"lat":"37.190361582","long":"127.29737251","items":[{"name":"꽃담원","tel":"031-332-3939","addr":"경기도 용인시 처인구 원삼면 사암리 559-5번지 선경산업","category":"의류 - 정장"}]},{"lat":"37.172725704","long":"127.29839626","items":[{"name":"꿈과희망","tel":"031-322-2027","addr":"경기도 용인시 처인구 원삼면 사암리 872-1번지 농촌테마파크 방문자센터","category":"음료식품 - 기타음료식품"}]},{"lat":"37.188667077","long":"127.30475391","items":[{"name":"나래찻집","tel":"031-338-8222","addr":"경기도 용인시 처인구 원삼면 사암리 275-6번지 2층","category":"일반휴게음식 - 일반한식"},{"name":"용담골","tel":"031-333-3100","addr":"경기도 용인시 처인구 원삼면 사암리 275-6번지","category":"일반휴게음식 - 일반한식"}]},{"lat":"37.208223649","long":"127.32042264","items":[{"name":"나인무인텔","tel":"031-333-1919","addr":"경기도 용인시 처인구 원삼면 좌항리 20-9번지","category":"숙박업 - 여관/기타숙박업"}]},{"lat":"37.147289675","long":"127.31236731","items":[{"name":"남가네","tel":"031-322-4223","addr":"경기도 용인시 처인구 원삼면 죽능리 512번지","category":"일반휴게음식 - 일반한식"}]},{"lat":"37.211114273","long":"127.32105436","items":[{"name":"남도민속촌갈비","tel":"031-334-4554","addr":"경기도 용인시 처인구 원삼면 좌항리 12-5번지 2층","category":"일반휴게음식 - 일반한식"}]},{"lat":"37.203362829","long":"127.32200182","items":[{"name":"남도아구찜","tel":"031-322-7897","addr":"경기도 용인시 처인구 원삼면 좌항리 108-3번지","category":"일반휴게음식 - 일반한식"},{"name":"아름다운손길","tel":"031-332-8898","addr":"경기도 용인시 처인구 원삼면 좌항리 108-3","category":"직물 - 침구·수예점"}]},{"lat":"37.19519753","long":"127.32603344","items":[{"name":"남북철물건재","tel":"031-335-0949","addr":"경기도 용인시 처인구 원삼면 맹리 555-5번지 나동","category":"건축자재 - 목재·석재·철물"},{"name":"주식회사 시온도장도료","tel":"031-202-0477","addr":"경기도 용인시 처인구 원삼면 맹리 555-5번지 가동 1호","category":"건축자재 - 페인트"}]},{"lat":"37.175973672","long":"127.29669734","items":[{"name":"내동마을기업","tel":"031-322-3323","addr":"경기도 용인시 처인구 원삼면 사암리827","category":"레저업소 - 기타레져업소"}]},{"lat":"37.184945789","long":"127.29395047","items":[{"name":"노리개","tel":"","addr":"경기도 용인시 처인구 원삼면 사암리 1069번지","category":"문화.취미 - 애완동물"}]},{"lat":"37.164420951","long":"127.31142386","items":[{"name":"논두렁밭두렁","tel":"031-322-0836","addr":"경기도 용인시 처인구 원삼면 고당리32-7","category":"일반휴게음식 - 일반한식"},{"name":"청솔광고인테리어기획","tel":"031-339-9072","addr":"경기도 용인시 처인구 원삼면 고당리 32-7번지 1호","category":"건축자재 - 인테리어전문"}]},{"lat":"37.156035387","long":"127.28484501","items":[{"name":"놀자몽","tel":"02-6340-5359","addr":"경기도 용인시 처인구 원삼면 학일리 69-3번지","category":"문화.취미 - 애완동물"},{"name":"이김컴퍼니","tel":"031-339-0053","addr":"경기도 용인시 처인구 원삼면 학일리 69-3번지 1층","category":"문화.취미 - 애완동물"}]},{"lat":"37.192226794","long":"127.30095002","items":[{"name":"농도원목장","tel":"031-321-0445","addr":"경기도 용인시 처인구 원삼면 사암리 1163 1","category":"음료식품 - 농·축·수산품"}]},{"lat":"37.192915137","long":"127.29953362","items":[{"name":"농도원목장","tel":"031-321-0445","addr":"경기도 용인시 처인구 원삼면 사암리 산68-1번지","category":"학원 - 기타 교육기관"},{"name":"농도원유업 영농조합법인","tel":"031-321-0445","addr":"경기도 용인시 처인구 원삼면 사암리 산68-1번지","category":"음료식품 - 기타음료식품"}]},{"lat":"37.190643083","long":"127.31755593","items":[{"name":"농부가든","tel":"070-4143-9785","addr":"경기도 용인시 처인구 원삼면 미평리 506-6번지","category":"일반휴게음식 - 일반한식"}]},{"lat":"37.171313552","long":"127.30100298","items":[{"name":"농업회사법인 새한농주식회사","tel":"031-731-4393","addr":"경기도 용인시 처인구 원삼면 고당리 산 63","category":"음료식품 - 농·축·수산품"}]},{"lat":"37.202638848","long":"127.32317025","items":[{"name":"농업회사법인 주식회사 담다","tel":"031-336-3522","addr":"경기도 용인시 처인구 원삼면 좌항리 95-1번지 좌전인력 4호","category":"음료식품 - 농·축·수산품"},{"name":"엠제이카서비스","tel":"031-334-7878","addr":"경기도 용인시 처인구 원삼면 좌항리 95-1번지","category":"자동차정비 유지 - 자동차정비"},{"name":"전주가마솥","tel":"031-337-0156","addr":"경기도 용인시 처인구 원삼면 좌항리 95-1번지","category":"일반휴게음식 - 일반한식"}]},{"lat":"37.164085972","long":"127.34483777","items":[{"name":"농업회사법인 주식회사 지쿱","tel":"070-4208-7979","addr":"경기도 용인시 처인구 원삼면 두창리 704-6번지","category":"음료식품 - 농·축·수산품"}]},{"lat":"37.169700479","long":"127.30108672","items":[{"name":"농업회사법인주식회사 늘푸른공원","tel":"031-323-3150","addr":"경기도 용인시 처인구 원삼면 고당리 243번지","category":"음료식품 - 농·축·수산품"}]},{"lat":"37.143397561","long":"127.3156493","items":[{"name":"농업회사법인주식회사능말","tel":"031-338-3833","addr":"경기도 용인시 처인구 원삼면 죽능리 383-8번지","category":"건강식품 - 기타건강식품"}]},{"lat":"37.203804331","long":"127.32200368","items":[{"name":"농업회사법인주식회사몬스팜","tel":"","addr":"경기도 용인시 처인구 원삼면 좌항리 110-9번지 743호","category":"음료식품 - 농·축·수산품"}]},{"lat":"37.131372102","long":"127.31087326","items":[{"name":"농업회사법인주식회사순악질","tel":"070-8880-1375","addr":"경기도 용인시 처인구 원삼면 목신리 375-4번지","category":"음료식품 - 농·축·수산품"},{"name":"호미하이츠","tel":"031-338-1375","addr":"경기도 용인시 처인구 원삼면 목신리 375-4번지","category":"일반휴게음식 - 서양음식"}]},{"lat":"37.146673752","long":"127.3399756","items":[{"name":"느티나무","tel":"","addr":"경기도 용인시 처인구 원삼면 두창리 1595-2번지","category":"숙박업 - 여관/기타숙박업"}]},{"lat":"37.178083331","long":"127.30339431","items":[{"name":"다옴","tel":"031-322-8282","addr":"경기도 용인시 처인구 원삼면 사암리 95번지","category":"숙박업 - 여관/기타숙박업"}]},{"lat":"37.202556355","long":"127.32034258","items":[{"name":"다유","tel":"031-333-5538","addr":"경기도 용인시 처인구 원삼면 좌항리 125-1번지 좌전그린하이츠 315호","category":"신변잡화 - 기타잡화"}]},{"lat":"37.203914394","long":"127.32128322","items":[{"name":"대박식당","tel":"031-333-0237","addr":"경기도 용인시 처인구 원삼면 좌항리 112번지","category":"일반휴게음식 - 일반한식"},{"name":"이레뜨개방","tel":"031-335-2144","addr":"경기도 용인시 처인구 원삼면 좌항리 112번지","category":"직물 - 침구·수예점"},{"name":"좌전방아간","tel":"031-339-0316","addr":"경기도 용인시 처인구 원삼면 좌항리 112","category":"음료식품 - 제과점"}]},{"lat":"37.16431317","long":"127.30780943","items":[{"name":"대성건재","tel":"031-339-3379","addr":"경기도 용인시 처인구 원삼면 고당리305-1","category":"건축자재 - 기타건축자재"}]},{"lat":"37.178007702","long":"127.30123197","items":[{"name":"대아농원 직판매장","tel":"031-334-5624","addr":"경기도 용인시 처인구 원삼면 사암리 1321-8","category":"문화.취미 - 화원"}]},{"lat":"37.195137259","long":"127.31830668","items":[{"name":"대자연농원","tel":"031-322-1724","addr":"경기도 용인시 처인구 원삼면 좌항리 324-6","category":"문화.취미 - 화원"}]},{"lat":"37.169615374","long":"127.29909348","items":[{"name":"대한불교조계종법륜사","tel":"031-332-0485","addr":"경기도 용인시 처인구 원삼면 고당리 243-2번지","category":"기타 - 비영리/대상"},{"name":"여여카페","tel":"031-332-5701","addr":"경기도 용인시 처인구 원삼면 고당리 243-2번지 1층","category":"일반휴게음식 - 서양음식"}]},{"lat":"37.203499105","long":"127.32158561","items":[{"name":"더샵하버뷰","tel":"041-866-1219","addr":"경기도 용인시 처인구 원삼면 좌항리 108-1번지","category":"일반휴게음식 - 일반한식"},{"name":"아지트호프","tel":"031-338-3332","addr":"경기도 용인시 처인구 원삼면 좌항리 108-1번지","category":"일반휴게음식 - 스넥"},{"name":"은실이네해장국","tel":"031-338-3612","addr":"경기도 용인시 처인구 원삼면 좌항리 108-1번지","category":"일반휴게음식 - 일반한식"}]},{"lat":"37.180888783","long":"127.30566888","items":[{"name":"더조은 아로니아","tel":"02-1833-9134","addr":"경기도 용인시 처인구 원삼면 사암리 155-2번지","category":"음료식품 - 농·축·수산품"},{"name":"마루아로니아","tel":"031-334-1501","addr":"경기도 용인시 처인구 원삼면 사암리 155-2번지","category":"음료식품 - 농·축·수산품"}]},{"lat":"37.194638909","long":"127.30200697","items":[{"name":"덕유산업 윤배트","tel":"031-333-0966","addr":"경기도 용인시 처인구 원삼면 사암리 365번지","category":"레져용품 - 스포츠·레져용품"}]},{"lat":"37.194060024","long":"127.32683953","items":[{"name":"도깨비 치킨","tel":"031-333-7764","addr":"경기도 용인시 처인구 원삼면 맹리 566-12번지","category":"일반휴게음식 - 스넥"},{"name":"또래치킨","tel":"031-333-5370","addr":"경기도 용인시 처인구 원삼면 맹566-12","category":"일반휴게음식 - 주점"},{"name":"원일한식뷔페","tel":"031-333-7769","addr":"경기도 용인시 처인구 원삼면 맹리 566-12번지","category":"일반휴게음식 - 일반한식"}]},{"lat":"37.181865274","long":"127.3078687","items":[{"name":"동광펜션","tel":"031-338-0309","addr":"경기도 용인시 처인구 원삼면 사암리 165-3","category":"숙박업 - 여관/기타숙박업"}]},{"lat":"37.146762735","long":"127.34036995","items":[{"name":"동구박","tel":"031-334-2300","addr":"경기도 용인시 처인구 원삼면 두창리 1595-5번지","category":"일반휴게음식 - 일반한식"},{"name":"동구박관광펜션","tel":"031-338-2700","addr":"경기도 용인시 처인구 원삼면 두창리 1595-5","category":"숙박업 - 여관/기타숙박업"}]},{"lat":"37.139873054","long":"127.2986511","items":[{"name":"동성화학","tel":"031-332-1573","addr":"경기도 용인시 처인구 원삼면 죽릉리739-1","category":"기타 - 기타 전문점"}]},{"lat":"37.138648562","long":"127.31923127","items":[{"name":"동아가든","tel":"031-334-4565","addr":"경기도 용인시 처인구 원삼면 죽능리 9번지","category":"일반휴게음식 - 일반한식"},{"name":"둥지 동아가든","tel":"031-334-4829","addr":"경기도 용인시 처인구 원삼면 죽능리 9번지 동아펜션 B동 1층","category":"일반휴게음식 - 일반한식"},{"name":"용인나무이야기","tel":"031-334-4565","addr":"경기도 용인시 처인구 원삼면 죽능리 9","category":"숙박업 - 여관/기타숙박업"}]},{"lat":"37.162174286","long":"127.31603061","items":[{"name":"동의보감","tel":"031-323-0757","addr":"경기도 용인시 처인구 원삼면 독성리320-4","category":"일반휴게음식 - 일반한식"}]},{"lat":"37.174223137","long":"127.29406698","items":[{"name":"동의칠식전","tel":"070-4133-6979","addr":"경기도 용인시 처인구 원삼면 사암리 894-12번지","category":"학원 - 기능학원"}]},{"lat":"37.164307851","long":"127.30986972","items":[{"name":"동일철물","tel":"031-332-8219","addr":"경기도 용인시 처인구 원삼면 고당리48-3,1/1","category":"기타 - 기계공구"}]},{"lat":"37.202976116","long":"127.32172985","items":[{"name":"동화부동산공인중개사사무소","tel":"031-322-5130","addr":"경기도 용인시 처인구 원삼면 좌항리 106-44번지 1층","category":"용역 서비스 - 부동산 중개·임대"},{"name":"짱구치킨","tel":"031-339-0773","addr":"경기도 용인시 처인구 원삼면 좌항리 106-44번지","category":"일반휴게음식 - 스넥"},{"name":"케이제이아시아마트","tel":"","addr":"경기도 용인시 처인구 원삼면 좌항리 106-44번지 1층","category":"유통업 영리 - 슈퍼마켓"}]},{"lat":"37.155200511","long":"127.34211854","items":[{"name":"두창건강원","tel":"031-332-9598","addr":"경기도 용인시 처인구 원삼면 두창리 1074-7","category":"건강식품 - 기타건강식품"},{"name":"음악에반하다음악교습소","tel":"","addr":"경기도 용인시 처인구 원삼면 두창리 1074-7번지 1층","category":"학원 - 예·체능계학원"}]},{"lat":"37.148814799","long":"127.33480723","items":[{"name":"두창낚시터","tel":"031-339-3696","addr":"경기도 용인시 처인구 원삼면 두창리 1393번지","category":"레저업소 - 기타레져업소"}]},{"lat":"37.155093417","long":"127.34175783","items":[{"name":"두창슈퍼","tel":"031-334-2656","addr":"경기도 용인시 처인구 원삼면 두창리 1074-3번지","category":"유통업 영리 - 슈퍼마켓"}]},{"lat":"37.153202607","long":"127.34441728","items":[{"name":"두창양식장","tel":"031-336-8484","addr":"경기도 용인시 처인구 원삼면 두창리 1304-1번지 2832호","category":"음료식품 - 농·축·수산품"}]},{"lat":"37.191082205","long":"127.30461711","items":[{"name":"둥둥","tel":"031-335-9556","addr":"경기도 용인시 처인구 원삼면 사암리 311번지","category":"음료식품 - 기타음료식품"}]},{"lat":"37.138119425","long":"127.32500271","items":[{"name":"둥지매점","tel":"031-111-1111","addr":"경기도 용인시 처인구 원삼면 죽능리 19-13번지 1층","category":"유통업 영리 - 슈퍼마켓"},{"name":"둥지식당","tel":"031-335-5866","addr":"경기도 용인시 처인구 원삼면 죽능리 19-13번지 (외1필지19-19 1층)","category":"일반휴게음식 - 일반한식"}]},{"lat":"37.135929638","long":"127.32839224","items":[{"name":"둥지무지개슈퍼","tel":"031-333-0374","addr":"경기도 용인시 처인구 원삼면 죽능리 26-2번지","category":"유통업 영리 - 슈퍼마켓"}]},{"lat":"37.187839828","long":"127.31109115","items":[{"name":"드림물류","tel":"03-638-3613","addr":"경기도 용인시 처인구 원삼면 미평리 552-5","category":"용역 서비스 - 보관및 창고업"}]},{"lat":"37.18091659","long":"127.30536495","items":[{"name":"들채우렁쌈밥","tel":"031-332-8883","addr":"경기도 용인시 처인구 원삼면 사암리 140-1번지 홍성빌딩","category":"일반휴게음식 - 일반한식"},{"name":"사암노래연습장","tel":"031-322-1120","addr":"경기도 용인시 처인구 원삼면 사암리 140-1번지 지하1층","category":"레저업소 - 노 래 방"}]},{"lat":"37.180333103","long":"127.30450679","items":[{"name":"디미방(      )","tel":"031-336-0099","addr":"경기도 용인시 처인구 원삼면 사암리 140-12번지 (B동1,2층)","category":"일반휴게음식 - 일반한식"},{"name":"사암휴게음식점","tel":"031-323-6016","addr":"경기도 용인시 처인구 원삼면 사암리 140-12번지","category":"유통업 영리 - 편 의 점"},{"name":"산들바람","tel":"031-332-8359","addr":"경기도 용인시 처인구 원삼면 사암리 140-12번지","category":"일반휴게음식 - 일반한식"}]},{"lat":"37.202642819","long":"127.32502887","items":[{"name":"디와이주식회사","tel":"031-339-6225","addr":"경기도 용인시 처인구 원삼면 좌항리 409-5","category":"전기제품 - 가전제품"},{"name":"레알애견훈련소","tel":"031-333-1141","addr":"경기도 용인시 처인구 원삼면 좌항리 409-5번지","category":"문화.취미 - 애완동물"}]},{"lat":"37.150091031","long":"127.34545014","items":[{"name":"디자인풀낭","tel":"070-7767-3079","addr":"경기도 용인시 처인구 원삼면 두창리 1197-1번지","category":"용역 서비스 - 사무서비스"}]},{"lat":"37.200779167","long":"127.32448028","items":[{"name":"또래치킨","tel":"","addr":"경기도 용인시 처인구 원삼면 좌항리 412-8번지 2층","category":"일반휴게음식 - 스넥"},{"name":"백년황태","tel":"031-332-5537","addr":"경기도 용인시 처인구 원삼면 좌항리 412-8번지","category":"일반휴게음식 - 일반한식"},{"name":"비앤비당구장","tel":"","addr":"경기도 용인시 처인구 원삼면 좌항리 412-8번지","category":"레저업소 - 당 구 장"},{"name":"전국","tel":"031-000-0000","addr":"경기도 용인시 처인구 원삼면 좌항리 412-8번지","category":"레저업소 - 노 래 방"},{"name":"전국노래연습장","tel":"031-322-8926","addr":"경기도 용인시 처인구 원삼면 좌항리 412-8번지","category":"레저업소 - 노 래 방"}]},{"lat":"37.155482039","long":"127.29748484","items":[{"name":"라곰카페&가든(LagomCAFE&GARDEN)","tel":"","addr":"경기도 용인시 처인구 원삼면 문촌리 146-2번지 1층","category":"일반휴게음식 - 서양음식"},{"name":"라곰플라워","tel":"031-000-0000","addr":"경기도 용인시 처인구 원삼면 문촌리 146-2번지","category":"문화.취미 - 화원"}]},{"lat":"37.180089053","long":"127.30125142","items":[{"name":"라이브맥경기총판","tel":"031-335-8356","addr":"경기도 용인시 처인구 원삼면 사암리 1317-4","category":"농업 - 농기계"}]},{"lat":"37.161809271","long":"127.34067325","items":[{"name":"라인모터스","tel":"051-727-6311","addr":"경기도 용인시 처인구 원삼면 두창리 647번지","category":"자동차정비 유지 - 카인테리어"}]},{"lat":"37.145428178","long":"127.3343422","items":[{"name":"러블리","tel":"","addr":"경기도 용인시 처인구 원삼면 두창리 1665번지 2동","category":"숙박업 - 여관/기타숙박업"}]},{"lat":"37.164170914","long":"127.3070658","items":[{"name":"로마인쇄","tel":"031-2266-2017","addr":"경기도 용인시 처인구 원삼면 고당리308-2","category":"서적문구 - 출판 및 인쇄물"}]},{"lat":"37.182809498","long":"127.33536132","items":[{"name":"리본오토모티브 경기","tel":"","addr":"경기도 용인시 처인구 원삼면 맹리 675-13번지 나동","category":"자동차정비 유지 - 자동차부품"}]},{"lat":"37.211971515","long":"127.3205848","items":[{"name":"릴리","tel":"031-333-8634","addr":"경기도 용인시 처인구 원삼면 좌항리 10-6번지 1층","category":"신변잡화 - 가방"}]},{"lat":"37.202777072","long":"127.32203315","items":[{"name":"마노아 좌항점","tel":"031-332-8250","addr":"경기도 용인시 처인구 원삼면 좌항리 106-6번지 1층 부속동","category":"일반휴게음식 - 서양음식"},{"name":"베스트올 용인좌항점","tel":"031-332-8250","addr":"경기도 용인시 처인구 원삼면 좌항리 106-6번지 1층","category":"유통업 영리 - 편 의 점"},{"name":"좌항곱창나라","tel":"031-334-7621","addr":"경기도 용인시 처인구 원삼면 좌항리 106-6번지 1층","category":"일반휴게음식 - 일반한식"}]},{"lat":"37.135091274","long":"127.32853495","items":[{"name":"마운틴캠핑장","tel":"031-338-6394","addr":"경기도 용인시 처인구 원삼면 죽능리 26-34번지","category":"신변잡화 - 기타잡화"},{"name":"어현","tel":"03-100-0000","addr":"경기도 용인시 처인구 원삼면 죽능리 26-34번지 1층","category":"일반휴게음식 - 서양음식"}]},{"lat":"37.203671057","long":"127.32130472","items":[{"name":"막창닭갈비마을","tel":"031-336-0678","addr":"경기도 용인시 처인구 원삼면 좌항리 113-2번지","category":"일반휴게음식 - 일반한식"}]},{"lat":"37.133231068","long":"127.30978916","items":[{"name":"만수산","tel":"031-333-2729","addr":"경기도 용인시 처인구 원삼면 목신리415-2","category":"일반휴게음식 - 일반한식"}]},{"lat":"37.136649882","long":"127.3253116","items":[{"name":"메이플펜션","tel":"031-333-8886","addr":"경기도 용인시 처인구 원삼면 죽능리 23-8번지 나동","category":"숙박업 - 여관/기타숙박업"}]},{"lat":"37.164477178","long":"127.31059096","items":[{"name":"메트로피시방","tel":"031-334-8035","addr":"경기도 용인시 처인구 원삼면 고당리 66-12번지","category":"레저업소 - 기타레져업소"}]},{"lat":"37.191699312","long":"127.30642158","items":[{"name":"모안갤러리","tel":"","addr":"경기도 용인시 처인구 원삼면 사암리 331-1번지 1층","category":"문화.취미 - 화랑"}]},{"lat":"37.193533342","long":"127.3183338","items":[{"name":"목화식당","tel":"031-332-3400","addr":"경기도 용인시 처인구 원삼면 좌항리 339-10","category":"일반휴게음식 - 일반한식"}]},{"lat":"37.192007038","long":"127.3263352","items":[{"name":"몬스터펫샵 원삼점","tel":"031-000-0000","addr":"경기도 용인시 처인구 원삼면 맹리 574-9번지 나동 104호","category":"문화.취미 - 애완동물"},{"name":"비엔씨","tel":"031-831-3533","addr":"경기도 용인시 처인구 원삼면 맹리 574-9번지 나동 105호","category":"레져용품 - 스포츠·레져용품"}]},{"lat":"37.148982763","long":"127.34544514","items":[{"name":"미미 화장품","tel":"031-338-1101","addr":"경기도 용인시 처인구 원삼면 두창리 1194-5번지","category":"보건위생 - 화장품"}]},{"lat":"37.159919518","long":"127.32023176","items":[{"name":"미소편의점","tel":"070-4530-1347","addr":"경기도 용인시 처인구 원삼면 독성리 409-3번지 1층","category":"유통업 영리 - 슈퍼마켓"}]},{"lat":"37.180527709","long":"127.30592644","items":[{"name":"밀밭","tel":"031-334-9781","addr":"경기도 용인시 처인구 원삼면 사암리 155-6번지","category":"일반휴게음식 - 일반한식"}]},{"lat":"37.191976771","long":"127.30361829","items":[{"name":"바로(BARO)집수리","tel":"031-322-9982","addr":"경기도 용인시 처인구 원삼면 사암리 317-2번지","category":"건축자재 - 인테리어전문"}]},{"lat":"37.151587717","long":"127.34511919","items":[{"name":"밤디휴게소","tel":"031-321-1849","addr":"경기도 용인시 처인구 원삼면 두창리 2829번지 밤디휴게소","category":"유통업 영리 - 슈퍼마켓"}]},{"lat":"37.192365853","long":"127.3100058","items":[{"name":"백암도예","tel":"031-339-4711","addr":"경기도 용인시 처인구 원삼면 사암리 34-30번지","category":"문화.취미 - 화랑"},{"name":"아트세라픽","tel":"031-334-4713","addr":"경기도 용인시 처인구 원삼면 원양로 428","category":"신변잡화 - 기타잡화"}]},{"lat":"37.147452742","long":"127.31203029","items":[{"name":"변산식당","tel":"031-332-7282","addr":"경기도 용인시 처인구 원삼면 죽능리 515-3번지","category":"일반휴게음식 - 일반한식"}]},{"lat":"37.152059465","long":"127.3440069","items":[{"name":"별별만두카페","tel":"031-332-1210","addr":"경기도 용인시 처인구 원삼면 두창리 2835번지 1층","category":"일반휴게음식 - 일반한식"},{"name":"세븐일레븐용인두창점","tel":"031-1577-0711","addr":"경기도 용인시 처인구 원삼면 두창리 2835번지","category":"유통업 영리 - 편 의 점"},{"name":"장평집","tel":"","addr":"경기도 용인시 처인구 원삼면 두창리 2835번지","category":"유통업 영리 - 슈퍼마켓"}]},{"lat":"37.146484376","long":"127.34003104","items":[{"name":"별빛속으로","tel":"031-336-4876","addr":"경기도 용인시 처인구 원삼면 두창리 1595-8","category":"숙박업 - 여관/기타숙박업"}]},{"lat":"37.162284706","long":"127.29022715","items":[{"name":"보경아트","tel":"031-334-8269","addr":"경기도 용인시 처인구 원삼면 문촌리 417-3번지","category":"용역 서비스 - 사무서비스"}]},{"lat":"37.166394297","long":"127.31139811","items":[{"name":"복남집","tel":"031-338-6144","addr":"경기도 용인시 처인구 원삼면 고당리 89-4번지 1층","category":"일반휴게음식 - 일반한식"},{"name":"샘물마트","tel":"031-334-9066","addr":"경기도 용인시 처인구 원삼면 고당리89-4","category":"유통업 영리 - 슈퍼마켓"}]},{"lat":"37.164089384","long":"127.31072449","items":[{"name":"봉자앤아비뇽","tel":"","addr":"경기도 용인시 처인구 원삼면 고당리 34번지","category":"일반휴게음식 - 일반한식"},{"name":"아비뇽","tel":"031-322-3127","addr":"경기도 용인시 처인구 원삼면 고당리 34번지","category":"일반휴게음식 - 일반한식"},{"name":"원삼페인트","tel":"031-332-9719","addr":"경기도 용인시 처인구 원삼면 고당리34","category":"건축자재 - 페인트"}]},{"lat":"37.15175986","long":"127.31198028","items":[{"name":"비엠2(주)","tel":"031-323-3301","addr":"경기도 용인시 처인구 원삼면 독성리 771-3번지","category":"건축자재 - 기타건축자재"}]},{"lat":"37.200084328","long":"127.3410352","items":[{"name":"비제이고고대리운전","tel":"031-322-8885","addr":"경기도 용인시 처인구 원삼면 맹리 241번지","category":"보건위생 - 기타대인서비스"}]},{"lat":"37.164007062","long":"127.31119701","items":[{"name":"사랑채","tel":"031-335-4959","addr":"경기도 용인시 처인구 원삼면 고당리 33-10번지 1층 일부","category":"일반휴게음식 - 일반한식"},{"name":"장수건강원","tel":"031-332-5001","addr":"경기도 용인시 처인구 원삼면 고당리 33-10번지","category":"건강식품 - 기타건강식품"}]},{"lat":"37.181526959","long":"127.30627953","items":[{"name":"사암마트","tel":"031-332-8262","addr":"경기도 용인시 처인구 원삼면 사암리 164-2번지","category":"유통업 영리 - 슈퍼마켓"},{"name":"사암오리구이","tel":"031-332-8261","addr":"경기도 용인시 처인구 원삼면 사암리 164-2번지","category":"일반휴게음식 - 일반한식"}]},{"lat":"37.181923037","long":"127.30642751","items":[{"name":"사암오리집","tel":"031-334-9266","addr":"경기도 용인시 처인구 원삼면 사암리 163-1, 1층","category":"신변잡화 - 기타잡화"}]},{"lat":"37.212916169","long":"127.32111825","items":[{"name":"산머루","tel":"031-336-6406","addr":"경기도 용인시 처인구 원삼면 좌항리 5-15","category":"일반휴게음식 - 일반한식"},{"name":"산머루","tel":"031-336-6406","addr":"경기도 용인시 처인구 원삼면 좌항리 5-15번지 산머루","category":"숙박업 - 여관/기타숙박업"}]},{"lat":"37.185334446","long":"127.30427892","items":[{"name":"산채정식 소풍","tel":"02-1111-1111","addr":"경기도 용인시 처인구 원삼면 사암리 224-22번지","category":"일반휴게음식 - 일반한식"}]},{"lat":"37.18097269","long":"127.30456564","items":[{"name":"삼거리농원","tel":"031-332-9458","addr":"경기도 용인시 처인구 원삼면 사암리1315","category":"음료식품 - 농·축·수산품"}]},{"lat":"37.197977171","long":"127.32770103","items":[{"name":"삼화농산","tel":"070-7018-5392","addr":"경기도 용인시 처인구 원삼면 맹리 126-1번지 305호","category":"음료식품 - 농·축·수산품"}]},{"lat":"37.20316736","long":"127.32097594","items":[{"name":"상해반점","tel":"031-332-8900","addr":"경기도 용인시 처인구 원삼면 좌항리 120-2번지","category":"일반휴게음식 - 중국식"}]},{"lat":"37.165088739","long":"127.31103253","items":[{"name":"새오약국","tel":"031-323-5573","addr":"경기도 용인시 처인구 원삼면 고당리 71-11번지","category":"약국 - 약국"}]},{"lat":"37.164196776","long":"127.31100639","items":[{"name":"샘소슬헤어샵","tel":"031-336-5598","addr":"경기도 용인시 처인구 원삼면 고당리33-3","category":"보건위생 - 미용원"}]},{"lat":"37.189506438","long":"127.3042054","items":[{"name":"샤갈의눈내리는마을","tel":"031-339-6500","addr":"경기도 용인시 처인구 원삼면 사암리 282-10번지","category":"일반휴게음식 - 서양음식"}]},{"lat":"37.201754406","long":"127.33028543","items":[{"name":"서울낫도","tel":"031-333-9367","addr":"경기도 용인시 처인구 원삼면 맹리 98-1번지","category":"음료식품 - 기타음료식품"}]},{"lat":"37.207775579","long":"127.3195083","items":[{"name":"서울판지U","tel":"031-766-2002","addr":"경기도 용인시 처인구 원삼면 좌항리 17-15번지","category":"유통업 영리 - 기타유통업"}]},{"lat":"37.176087882","long":"127.32553541","items":[{"name":"선진기프트","tel":"031-323-1257","addr":"경기도 용인시 처인구 원삼면 가재월리 688-21번지","category":"유통업 영리 - 기타유통업"}]},{"lat":"37.164504502","long":"127.31047848","items":[{"name":"선희네수산","tel":"031-322-5465","addr":"경기도 용인시 처인구 원삼면 고당리 65-7번지 1층","category":"일반휴게음식 - 일반한식"},{"name":"선희네식당","tel":"031-322-5466","addr":"경기도 용인시 처인구 원삼면 고당리 65-7번지 1층","category":"일반휴게음식 - 일반한식"}]},{"lat":"37.179779738","long":"127.33617008","items":[{"name":"세븐일레븐용인원삼미평점","tel":"","addr":"경기도 용인시 처인구 원삼면 미평리 2-7번지 1층","category":"유통업 영리 - 편 의 점"}]},{"lat":"37.193006225","long":"127.30976061","items":[{"name":"세븐일레븐용인원삼사암점","tel":"","addr":"경기도 용인시 처인구 원삼면 사암리 34-16","category":"유통업 영리 - 편 의 점"}]},{"lat":"37.151116356","long":"127.31684051","items":[{"name":"센타매점","tel":"031-339-3322","addr":"경기도 용인시 처인구 원삼면 죽능리 532번지","category":"음료식품 - 기타음료식품"}]},{"lat":"37.149343077","long":"127.34548053","items":[{"name":"소나무매운탕","tel":"031-333-3214","addr":"경기도 용인시 처인구 원삼면 두창리 1194-1번지","category":"일반휴게음식 - 일반한식"}]},{"lat":"37.190057295","long":"127.3037233","items":[{"name":"소헌","tel":"031-335-2562","addr":"경기도 용인시 처인구 원삼면 사암리 286번지","category":"신변잡화 - 액세서리"}]},{"lat":"37.169167311","long":"127.30170389","items":[{"name":"솔밭가든","tel":"031-333-5839","addr":"경기도 용인시 처인구 원삼면 고당리 240-2번지","category":"일반휴게음식 - 일반한식"}]},{"lat":"37.145178008","long":"127.33998022","items":[{"name":"솔빛예쁜펜션","tel":"031-339-0928","addr":"경기도 용인시 처인구 원삼면 두창리 1580","category":"숙박업 - 여관/기타숙박업"}]},{"lat":"37.164835513","long":"127.31139177","items":[{"name":"송원가든","tel":"031-333-9355","addr":"경기도 용인시 처인구 원삼면 고당리 71-4번지 가동 1층","category":"일반휴게음식 - 일반한식"},{"name":"왕뼈감자탕선지해장국","tel":"031-336-2256","addr":"경기도 용인시 처인구 원삼면 고당리 71-4번지","category":"일반휴게음식 - 일반한식"}]},{"lat":"37.192582038","long":"127.33986421","items":[{"name":"수정산표고농원","tel":"070-5022-4846","addr":"경기도 용인시 처인구 원삼면 맹리 427-2번지","category":"음료식품 - 농·축·수산품"}]},{"lat":"37.193839208","long":"127.3285055","items":[{"name":"스펙트우드","tel":"031-333-4312","addr":"경기도 용인시 처인구 원삼면 맹리 566-22번지","category":"가구 - 일반가구"}]},{"lat":"37.15050609","long":"127.34524939","items":[{"name":"스피뎀","tel":"","addr":"경기도 용인시 처인구 원삼면 두창리 1302-58번지","category":"자동차정비 유지 - 자동차부품"}]},{"lat":"37.140643839","long":"127.30386518","items":[{"name":"시골집","tel":"031-339-1379","addr":"경기도 용인시 처인구 원삼면 죽릉리801","category":"일반휴게음식 - 일반한식"}]},{"lat":"37.168478114","long":"127.30344634","items":[{"name":"신석","tel":"031-336-2729","addr":"경기도 용인시 처인구 원삼면 고당리 264","category":"건축자재 - 기타건축자재"}]},{"lat":"37.162364365","long":"127.3157049","items":[{"name":"신용공인중개사사무소","tel":"031-339-9695","addr":"경기도 용인시 처인구 원삼면 독성리 321-3번지","category":"용역 서비스 - 부동산 중개·임대"}]},{"lat":"37.203166241","long":"127.32139272","items":[{"name":"신원약국","tel":"031-323-0667","addr":"경기도 용인시 처인구 원삼면 좌항리106-20","category":"약국 - 약국"},{"name":"신원약국","tel":"031-323-0667","addr":"경기도 용인시 처인구 원삼면 좌항리 106-20","category":"약국 - 약국"},{"name":"평강분식","tel":"031-339-0992","addr":"경기도 용인시 처인구 원삼면 좌항리106-20","category":"일반휴게음식 - 일반한식"}]},{"lat":"37.160924703","long":"127.31494468","items":[{"name":"쌍둥이딸기농원","tel":"070-7018-5392","addr":"경기도 용인시 처인구 원삼면 독성리 1040번지","category":"음료식품 - 농·축·수산품"}]},{"lat":"37.180086465","long":"127.29505792","items":[{"name":"쌍방울","tel":"","addr":"경기도 용인시 처인구 원삼면 사암리 987-3번지","category":"유통업 영리 - 슈퍼마켓"}]},{"lat":"37.20136575","long":"127.32414485","items":[{"name":"써니카페","tel":"031-335-2317","addr":"경기도 용인시 처인구 원삼면 좌항리 103-2번지","category":"일반휴게음식 - 서양음식"},{"name":"어이","tel":"031-321-2333","addr":"경기도 용인시 처인구 원삼면 좌항리 103-2번지","category":"일반휴게음식 - 일반한식"}]},{"lat":"37.200747074","long":"127.31967043","items":[{"name":"씨. 트러스트","tel":"031-337-0811","addr":"경기도 용인시 처인구 원삼면 좌항리 607번지 나동","category":"음료식품 - 기타음료식품"},{"name":"청정이원","tel":"031-322-7204","addr":"경기도 용인시 처인구 원삼면 좌항리 607 3/1","category":"음료식품 - 농·축·수산품"}]},{"lat":"37.153314449","long":"127.3399713","items":[{"name":"씨에치그린텍","tel":"031-344-5115","addr":"경기도 용인시 처인구 원삼면 두창리 1316","category":"음료식품 - 농·축·수산품"}]},{"lat":"37.191334694","long":"127.30453928","items":[{"name":"씨유용인원삼점","tel":"031-898-6953","addr":"경기도 용인시 처인구 원삼면 사암리 312-2번지","category":"유통업 영리 - 편 의 점"}]},{"lat":"37.166701234","long":"127.31117418","items":[{"name":"씨유원삼중앙점","tel":"080-080-3663","addr":"경기도 용인시 처인구 원삼면 고당리 91번지 1층","category":"유통업 영리 - 편 의 점"},{"name":"채원가","tel":"031-338-3328","addr":"경기도 용인시 처인구 원삼면 고당리 91번지 1층","category":"일반휴게음식 - 일반한식"}]},{"lat":"37.173972246","long":"127.30075445","items":[{"name":"아이비랜드","tel":"031-322-1281","addr":"경기도 용인시 처인구 원삼면 사암리 848-1번지","category":"학원 - 기타 교육기관"}]},{"lat":"37.198471835","long":"127.3180277","items":[{"name":"아이비학원","tel":"031-333-7553","addr":"경기도 용인시 처인구 원삼면 좌항리311-15","category":"회원제형태 - 학원"}]},{"lat":"37.150425537","long":"127.31227878","items":[{"name":"아이지에이 용인FC점","tel":"","addr":"경기도 용인시 처인구 원삼면 죽능리 546번지","category":"유통업 영리 - 편 의 점"}]},{"lat":"37.179807719","long":"127.33583238","items":[{"name":"아진화학건설 주식회사","tel":"070-8885-0482","addr":"경기도 용인시 처인구 원삼면 가재월리 418-1번지","category":"기타 - 기계공구"}]},{"lat":"37.15461334","long":"127.28034814","items":[{"name":"앤드모얼","tel":"031-337-2771","addr":"경기도 용인시 처인구 원삼면 학일리 39-3번지","category":"신변잡화 - 기타잡화"}]},{"lat":"37.194776699","long":"127.3183615","items":[{"name":"야초랑아찌랑","tel":"031-323-1724","addr":"경기도 용인시 처인구 원삼면 좌항리 324-12번지","category":"음료식품 - 농·축·수산품"}]},{"lat":"37.138813796","long":"127.30775209","items":[{"name":"약초제왕","tel":"070-4108-2532","addr":"경기도 용인시 처인구 원삼면 죽능리 169-1번지","category":"건강식품 - 기타건강식품"}]},{"lat":"37.149282064","long":"127.28673351","items":[{"name":"양달관광농원","tel":"031-334-4569","addr":"경기도 용인시 처인구 원삼면 학일리 368-2번지","category":"레저업소 - 기타레져업소"}]},{"lat":"37.163398458","long":"127.34578038","items":[{"name":"양지농원","tel":"031-328-7577","addr":"경기도 용인시 처인구 원삼면 두창리 704-8번지","category":"문화.취미 - 화원"}]},{"lat":"37.194917997","long":"127.32611109","items":[{"name":"양지오일나라","tel":"031-281-1516","addr":"경기도 용인시 처인구 원삼면 맹리 555-6","category":"자동차정비 유지 - 윤활유 전문 판매"}]},{"lat":"37.173447932","long":"127.29783607","items":[{"name":"어반스테이","tel":"031-000-0000","addr":"경기도 용인시 처인구 원삼면 사암리 869번지","category":"일반휴게음식 - 서양음식"},{"name":"커피 2.0랩(COFFEE 2.0 LAB)","tel":"031-000-0000","addr":"경기도 용인시 처인구 원삼면 사암리 869번지","category":"음료식품 - 기타음료식품"}]},{"lat":"37.184307321","long":"127.314703","items":[{"name":"에스에이","tel":"031-338-7098","addr":"경기도 용인시 처인구 원삼면 미평리 402-2번지","category":"의류 - 정장"}]},{"lat":"37.166807188","long":"127.32552973","items":[{"name":"에스지 (SG) 골프","tel":"031-333-2929","addr":"경기도 용인시 처인구 원삼면 독성리 197-4번지","category":"레저업소 - 골프연습장"}]},{"lat":"37.1642241","long":"127.31089391","items":[{"name":"에이프릴 (사월)카페","tel":"031-332-8024","addr":"경기도 용인시 처인구 원삼면 고당리 33-8번지 1층","category":"일반휴게음식 - 서양음식"},{"name":"팡팡노래연습장","tel":"031-338-2505","addr":"경기도 용인시 처인구 원삼면 고당리 33-8번지 지하1층","category":"레저업소 - 노 래 방"}]},{"lat":"37.166981432","long":"127.31083755","items":[{"name":"에프앤지푸드서비스","tel":"031-338-1101","addr":"경기도 용인시 처인구 원삼면 고당리 93-11번지 1층","category":"일반휴게음식 - 일반한식"}]},{"lat":"37.12228429","long":"127.30237469","items":[{"name":"엠제이시스템(MJ System)","tel":"","addr":"경기도 용인시 처인구 원삼면 목신리 622번지","category":"전기제품 - 기타전기제품"}]},{"lat":"37.156087083","long":"127.33125919","items":[{"name":"연미향영농조합법인","tel":"031-332-8226","addr":"경기도 용인시 처인구 원삼면 독성리 23-3","category":"레저업소 - 기타레져업소"},{"name":"연미향초마을","tel":"070-7747-9196","addr":"경기도 용인시 처인구 원삼면 독성리 23-3","category":"건강식품 - 인삼제품"}]},{"lat":"37.165196365","long":"127.31122436","items":[{"name":"연세의원","tel":"031-335-9240","addr":"경기도 용인시 처인구 원삼면 고당리71-14","category":"의원 - 의원"},{"name":"원삼치과의원","tel":"031-339-8466","addr":"경기도 용인시 처인구 원삼면 고당리 71-14번지 2층","category":"의원 - 치과의원"}]},{"lat":"37.147310921","long":"127.28583692","items":[{"name":"영농조합법인학일마을","tel":"031-334-7991","addr":"경기도 용인시 처인구 원삼면 학일리 913-1번지","category":"학원 - 기타 교육기관"}]},{"lat":"37.202999139","long":"127.33306182","items":[{"name":"예일다육","tel":"031-333-0885","addr":"경기도 용인시 처인구 원삼면 맹리 835 외3필지.","category":"문화.취미 - 화원"}]},{"lat":"37.164397458","long":"127.31006148","items":[{"name":"예전통닭","tel":"031-333-7331","addr":"경기도 용인시 처인구 원삼면 고당리 48-2번지","category":"일반휴게음식 - 스넥"}]},{"lat":"37.139372062","long":"127.30790064","items":[{"name":"예촌집","tel":"031-336-5557","addr":"경기도 용인시 처인구 원삼면 죽능리 338","category":"일반휴게음식 - 일반한식"}]},{"lat":"37.163647208","long":"127.33756284","items":[{"name":"오가사랑","tel":"031-323-5053","addr":"경기도 용인시 처인구 원삼면 두창리 635","category":"음료식품 - 기타음료식품"}]},{"lat":"37.182757","long":"127.28995557","items":[{"name":"오대공조","tel":"031-333-5157","addr":"경기도 용인시 처인구 원삼면 사암리 1024-2번지","category":"전기제품 - 냉열기기"}]},{"lat":"37.162532117","long":"127.32038904","items":[{"name":"오돌마트","tel":"","addr":"경기도 용인시 처인구 원삼면 독성리 379번지 A동 101호","category":"유통업 영리 - 슈퍼마켓"},{"name":"우리공방","tel":"","addr":"경기도 용인시 처인구 원삼면 독성리 379번지 A동 105호","category":"문화.취미 - 문화취미기타"}]},{"lat":"37.164448568","long":"127.31119881","items":[{"name":"오돌슈퍼","tel":"031-332-8030","addr":"경기도 용인시 처인구 원삼면 고당리 66-8번지","category":"유통업 영리 - 슈퍼마켓"}]},{"lat":"37.125117909","long":"127.31123051","items":[{"name":"옥이네돈가스","tel":"031-335-1170","addr":"경기도 용인시 처인구 원삼면 목신리 258-22번지 1층","category":"일반휴게음식 - 일반한식"}]},{"lat":"37.184895315","long":"127.30334246","items":[{"name":"용담농원","tel":"031-332-8153","addr":"경기도 용인시 처인구 원삼면 사암리224-20","category":"음료식품 - 농·축·수산품"}]},{"lat":"37.156925525","long":"127.33753321","items":[{"name":"용인 청정 파인애플 포도 블루베리농장","tel":"031-000-0000","addr":"경기도 용인시 처인구 원삼면 두창리 972번지","category":"음료식품 - 농·축·수산품"}]},{"lat":"37.165006482","long":"127.34433528","items":[{"name":"용인송화고","tel":"070-7018-5391","addr":"경기도 용인시 처인구 원삼면 두창리 2591번지","category":"음료식품 - 농·축·수산품"}]},{"lat":"37.17281443","long":"127.29894833","items":[{"name":"용인시농업기술센터","tel":"031-324-4053","addr":"경기도 용인시 처인구 원삼면 사암리 858-1번지 농업기술센터","category":"문화.취미 - 티켓"},{"name":"용인시농업기술센터/용인농촌테마파크","tel":"031-324-4052","addr":"경기도 용인시 처인구 원삼면 사암리858-1","category":"학원 - 기타 교육기관"}]},{"lat":"37.137011261","long":"127.30792493","items":[{"name":"용인신진중장비전문교육원","tel":"031-332-2112","addr":"경기도 용인시 처인구 원삼면 죽능리 216번지 216-2,188","category":"학원 - 기능학원"}]},{"lat":"37.198309073","long":"127.32494287","items":[{"name":"용인오일타운","tel":"031-333-5133","addr":"경기도 용인시 처인구 원삼면 좌항리 413-4번지 11호","category":"자동차정비 유지 - 윤활유 전문 판매"}]},{"lat":"37.207168868","long":"127.31039245","items":[{"name":"용인자연숲 관광농원","tel":"","addr":"경기도 용인시 처인구 원삼면 좌항리 224-3번지","category":"숙박업 - 여관/기타숙박업"}]},{"lat":"37.191613607","long":"127.32189606","items":[{"name":"용인청정farm","tel":"031-0000-0000","addr":"경기도 용인시 처인구 원삼면 미평리 457번지","category":"음료식품 - 농·축·수산품"}]},{"lat":"37.203366039","long":"127.32080781","items":[{"name":"우리마트","tel":"031-334-3583","addr":"경기도 용인시 처인구 원삼면 좌항리119-3","category":"유통업 영리 - 슈퍼마켓"},{"name":"좌전세탁소","tel":"031-334-5977","addr":"경기도 용인시 처인구 원삼면 좌항리 119-3번지 1층 일부","category":"수리서비스 - 세탁소"}]},{"lat":"37.173617774","long":"127.32928572","items":[{"name":"우리배(WOORIPEAR)","tel":"031-339-2140","addr":"경기도 용인시 처인구 원삼면 두창리76","category":"음료식품 - 농·축·수산품"}]},{"lat":"37.203498057","long":"127.31861181","items":[{"name":"우림특수용접","tel":"031-335-3311","addr":"경기도 용인시 처인구 원삼면 좌항리 151-3번지","category":"용역 서비스 - 기타용역서비스"}]},{"lat":"37.15886991","long":"127.32187101","items":[{"name":"원삼가든","tel":"031-334-1720","addr":"경기도 용인시 처인구 원삼면 독성리 433-2","category":"일반휴게음식 - 일반한식"}]},{"lat":"37.118737526","long":"127.30812165","items":[{"name":"원삼관광농원","tel":"031-339-4466","addr":"경기도 용인시 처인구 원삼면 목신리 169-1번지","category":"일반휴게음식 - 일반한식"}]},{"lat":"37.174750378","long":"127.31694953","items":[{"name":"원삼농산물","tel":"031-322-8092","addr":"경기도 용인시 처인구 원삼면 가재월리 800번지","category":"음료식품 - 농·축·수산품"}]},{"lat":"37.164867511","long":"127.30947794","items":[{"name":"원삼농업협동조합 경제사업장","tel":"031-339-2042","addr":"경기도 용인시 처인구 원삼면 고당리 49-4번지 원삼농협 경제사업장","category":"농업 - 비료,사료,종자"},{"name":"원삼농협연쇄점","tel":"031-332-8011","addr":"경기도 용인시 처인구 원삼면 고당리 49-4번지","category":"유통업 비영리 - 농,축협 직영매장"}]},{"lat":"37.164176184","long":"127.30500551","items":[{"name":"원삼사철탕","tel":"031-332-5570","addr":"경기도 용인시 처인구 원삼면 고당리 312-8번지 1층","category":"일반휴게음식 - 일반한식"}]},{"lat":"37.164364805","long":"127.31222299","items":[{"name":"원삼설비","tel":"070-7018-5391","addr":"경기도 용인시 처인구 원삼면 고당리 29-1번지","category":"용역 서비스 - 기타용역서비스"},{"name":"원삼철물건재","tel":"031-332-8138","addr":"경기도 용인시 처인구 원삼면 고당리 29-1","category":"건축자재 - 목재·석재·철물"}]},{"lat":"37.194611649","long":"127.32610979","items":[{"name":"원삼손짜장일번지","tel":"031-333-2333","addr":"경기도 용인시 처인구 원삼면 맹리 559-5번지 1층","category":"일반휴게음식 - 중국식"}]},{"lat":"37.164619412","long":"127.3113346","items":[{"name":"원삼양조장","tel":"031-332-8473","addr":"경기도 용인시 처인구 원삼면 고당리 71-5번지","category":"음료식품 - 주류 판매점"}]},{"lat":"37.166280264","long":"127.31020421","items":[{"name":"원삼우체국","tel":"031-332-8005","addr":"경기도 용인시 처인구 원삼면 고당리 94-5번지","category":"용역 서비스 - 공공요금대행서비스/소"}]},{"lat":"37.16678089","long":"127.31172619","items":[{"name":"원삼정비공업사","tel":"031-334-3466","addr":"경기도 용인시 처인구 원삼면 고당리 90-2번지","category":"자동차정비 유지 - 자동차정비"}]},{"lat":"37.163918977","long":"127.31041982","items":[{"name":"원삼제분소","tel":"031-332-8025","addr":"경기도 용인시 처인구 원삼면 고당리 35-9번지","category":"음료식품 - 미곡상"}]},{"lat":"37.184584768","long":"127.29419684","items":[{"name":"원양","tel":"031-000-0000","addr":"경기도 용인시 처인구 원삼면 사암리 1070-2번지 2동","category":"일반휴게음식 - 일반한식"}]},{"lat":"37.121792319","long":"127.31150959","items":[{"name":"원투원","tel":"031-321-7973","addr":"경기도 용인시 처인구 원삼면 목신리 243번지","category":"학원 - 기타 교육기관"}]},{"lat":"37.139427773","long":"127.30725934","items":[{"name":"웬떡마을영농조합법인","tel":"031-333-2777","addr":"경기도 용인시 처인구 원삼면 죽릉리771-3","category":"음료식품 - 제과점"},{"name":"웬떡요리학원","tel":"031-333-2777","addr":"경기도 용인시 처인구 원삼면 죽능리 771-3","category":"회원제형태 - 학원"}]},{"lat":"37.204164933","long":"127.34141386","items":[{"name":"유니크옵세션(Unique Obsession)","tel":"070-5022-4846","addr":"경기도 용인시 처인구 원삼면 맹리 285-31번지 21호","category":"신변잡화 - 액세서리"}]},{"lat":"37.19744486","long":"127.30761599","items":[{"name":"유한회사 소찬","tel":"070-7745-5325","addr":"경기도 용인시 처인구 원삼면 사암리 2-7번지 35호","category":"용역 서비스 - 사무서비스"}]},{"lat":"37.139146165","long":"127.30814734","items":[{"name":"윤가네설렁탕","tel":"031-333-1620","addr":"경기도 용인시 처인구 원삼면 죽능리 234-1번지","category":"일반휴게음식 - 일반한식"}]},{"lat":"37.136789528","long":"127.31350626","items":[{"name":"윤슬 P&C","tel":"031-338-1101","addr":"경기도 용인시 처인구 원삼면 죽능리 276번지","category":"레져용품 - 스포츠·레져용품"}]},{"lat":"37.157533179","long":"127.34247795","items":[{"name":"윤창건업","tel":"031-334-7681","addr":"경기도 용인시 처인구 원삼면 두창리 879-1","category":"건축자재 - 기타건축자재"}]},{"lat":"37.147148069","long":"127.34425498","items":[{"name":"율곡농업회사법인주식회사","tel":"070-4261-5123","addr":"경기도 용인시 처인구 원삼면 두창리 1228-2","category":"학원 - 기타 교육기관"}]},{"lat":"37.193918383","long":"127.32259279","items":[{"name":"이든머슈팜","tel":"031-000-0000","addr":"경기도 용인시 처인구 원삼면 좌항리 750번지","category":"음료식품 - 농·축·수산품"}]},{"lat":"37.1377325","long":"127.32480974","items":[{"name":"이루아","tel":"070-4145-0777","addr":"경기도 용인시 처인구 원삼면 죽능리 19-26번지","category":"숙박업 - 여관/기타숙박업"}]},{"lat":"37.181365968","long":"127.29136921","items":[{"name":"이목조경","tel":"031-335-0622","addr":"경기도 용인시 처인구 원삼면 사암리 1024-37,38","category":"건축자재 - 인테리어전문"}]},{"lat":"37.145173595","long":"127.31184092","items":[{"name":"일성포장","tel":"031-339-4740","addr":"경기도 용인시 처인구 원삼면 죽능리 414번지","category":"유통업 영리 - 기타유통업"}]},{"lat":"37.196721964","long":"127.33519705","items":[{"name":"자연양봉산업","tel":"031-333-1881","addr":"경기도 용인시 처인구 원삼면 맹리 509-2번지","category":"음료식품 - 농·축·수산품"},{"name":"자연양봉원","tel":"031-333-1881","addr":"경기도 용인시 처인구 원삼면 맹리 509-2","category":"음료식품 - 농·축·수산품"}]},{"lat":"37.164893113","long":"127.31002971","items":[{"name":"장원정","tel":"031-332-8137","addr":"경기도 용인시 처인구 원삼면 고당리 65-4번지 1층","category":"일반휴게음식 - 일반한식"}]},{"lat":"37.200642935","long":"127.33467357","items":[{"name":"재이농원","tel":"031-322-1548","addr":"경기도 용인시 처인구 원삼면 맹리 202-1번지","category":"문화.취미 - 화원"}]},{"lat":"37.192117441","long":"127.34164164","items":[{"name":"정원","tel":"031-322-3050","addr":"경기도 용인시 처인구 원삼면 맹리 433-1","category":"가구 - 일반가구"},{"name":"주식회사 코헨","tel":"031-322-3050","addr":"경기도 용인시 처인구 원삼면 맹리 433-1번지","category":"가구 - 일반가구"}]},{"lat":"37.177449765","long":"127.30803112","items":[{"name":"제이앤제이","tel":"","addr":"경기도 용인시 처인구 원삼면 고당리 187-1번지","category":"기타 - 기계공구"}]},{"lat":"37.118376328","long":"127.31190078","items":[{"name":"제이에이치 (JH)시스템","tel":"","addr":"경기도 용인시 처인구 원삼면 목신리 153-2번지","category":"수리서비스 - 가정용품수리"}]},{"lat":"37.199505924","long":"127.3320554","items":[{"name":"제일농원","tel":"031-322-1548","addr":"경기도 용인시 처인구 원삼면 맹리 890","category":"문화.취미 - 화원"}]},{"lat":"37.203112331","long":"127.32133617","items":[{"name":"좌전","tel":"031-323-0667","addr":"경기도 용인시 처인구 원삼면 좌항리 106-21번지 1층","category":"약국 - 약국"}]},{"lat":"37.203809475","long":"127.31328504","items":[{"name":"좌전식당","tel":"031-332-9595","addr":"경기도 용인시 처인구 원삼면 좌항리 174번지","category":"일반휴게음식 - 일반한식"}]},{"lat":"37.212696405","long":"127.32242416","items":[{"name":"주식회사 더베스트","tel":"031-333-1270","addr":"경기도 용인시 처인구 원삼면 좌항리 5-21번지","category":"건축자재 - 기타건축자재"}]},{"lat":"37.172978509","long":"127.32911408","items":[{"name":"주식회사 신한스쿨여행","tel":"031-322-8543","addr":"경기도 용인시 처인구 원삼면 두창리 79-4번지","category":"여행 - 관광여행"}]},{"lat":"37.146150254","long":"127.31048294","items":[{"name":"주식회사 펫원","tel":"031-322-3683","addr":"경기도 용인시 처인구 원삼면 죽능리 446번지","category":"문화.취미 - 애완동물"}]},{"lat":"37.138592842","long":"127.32320396","items":[{"name":"주식회사둥지컨설팅","tel":"031-321-8611","addr":"경기도 용인시 처인구 원삼면 죽능리 16","category":"회원제형태 - 기타4"}]},{"lat":"37.139371134","long":"127.30826079","items":[{"name":"중화원","tel":"031-336-0606","addr":"경기도 용인시 처인구 원삼면 죽능리 339-16번지","category":"일반휴게음식 - 중국식"}]},{"lat":"37.216216238","long":"127.33665701","items":[{"name":"지산골프아카데미","tel":"031-323-0442","addr":"경기도 용인시 처인구 원삼면 맹리 산29-8","category":"레저업소 - 골프연습장"}]},{"lat":"37.197533581","long":"127.33495281","items":[{"name":"지산홀스랜드","tel":"031-321-3359","addr":"경기도 용인시 처인구 원삼면 맹리 184번지","category":"레저업소 - 기타레져업소"}]},{"lat":"37.172754668","long":"127.3219744","items":[{"name":"진명미술교습소","tel":"031-333-8876","addr":"경기도 용인시 처인구 원삼면 가재월리 868-1번지","category":"학원 - 예·체능계학원"}]},{"lat":"37.162259077","long":"127.30769986","items":[{"name":"진미","tel":"031-334-7220","addr":"경기도 용인시 처인구 원삼면 독성리626-4","category":"일반휴게음식 - 스넥"}]},{"lat":"37.180861127","long":"127.3023693","items":[{"name":"쭝이랑","tel":"031-323-3695","addr":"경기도 용인시 처인구 원삼면 사암리 1316-1번지","category":"음료식품 - 농·축·수산품"}]},{"lat":"37.165614855","long":"127.31314005","items":[{"name":"착한고기용인원삼점","tel":"031-261-2689","addr":"경기도 용인시 처인구 원삼면 고당리 86-3번지","category":"일반휴게음식 - 일반한식"}]},{"lat":"37.194978457","long":"127.32375736","items":[{"name":"찬희농산","tel":"031-339-6016","addr":"경기도 용인시 처인구 원삼면 좌항리 726","category":"문화.취미 - 화원"}]},{"lat":"37.140561686","long":"127.32484424","items":[{"name":"창조의아침미술학원","tel":"031-332-5508","addr":"경기도 용인시 처인구 원삼면 죽능리 2-1번지","category":"학원 - 예·체능계학원"}]},{"lat":"37.181806769","long":"127.32652819","items":[{"name":"처인성 주조","tel":"070-7794-1012","addr":"경기도 용인시 처인구 원삼면 미평리 69-5번지","category":"음료식품 - 주류 판매점"}]},{"lat":"37.19227563","long":"127.31350813","items":[{"name":"천곡농원","tel":"031-332-6685","addr":"경기도 용인시 처인구 원삼면 좌항리 336-7번지","category":"음료식품 - 농·축·수산품"}]},{"lat":"37.186062708","long":"127.33519539","items":[{"name":"청곡사","tel":"031-334-0758","addr":"경기도 용인시 처인구 원삼면 맹리 695-1 4/4","category":"신변잡화 - 기념품점"}]},{"lat":"37.199561895","long":"127.34097655","items":[{"name":"청룡","tel":"031-334-9258","addr":"경기도 용인시 처인구 원삼면 236","category":"일반휴게음식 - 일반한식"}]},{"lat":"37.170756154","long":"127.32794479","items":[{"name":"청소하는 아재","tel":"031-1644-2973","addr":"경기도 용인시 처인구 원삼면 두창리 85-67번지","category":"용역 서비스 - 종합용역"}]},{"lat":"37.167142917","long":"127.34711459","items":[{"name":"초록공장","tel":"","addr":"경기도 용인시 처인구 원삼면 두창리 2566번지","category":"농업 - 비료,사료,종자"}]},{"lat":"37.184171656","long":"127.33156091","items":[{"name":"카센타","tel":"031-332-2799","addr":"경기도 용인시 처인구 원삼면 맹리 698-37번지","category":"자동차정비 유지 - 자동차정비"}]},{"lat":"37.146567217","long":"127.33300772","items":[{"name":"카페리네(Cafe Leene)","tel":"031-000-0000","addr":"경기도 용인시 처인구 원삼면 두창리 1689번지 1,2층","category":"일반휴게음식 - 서양음식"}]},{"lat":"37.201332174","long":"127.34264026","items":[{"name":"카페만나요(CafeMannayo)","tel":"031-334-7801","addr":"경기도 용인시 처인구 원삼면 맹리 300-3번지 2층","category":"일반휴게음식 - 서양음식"}]},{"lat":"37.156895014","long":"127.31228262","items":[{"name":"케이엠(KM)건설","tel":"031-339-5895","addr":"경기도 용인시 처인구 원삼면 독성리 1058번지","category":"용역 서비스 - 기타용역서비스"}]},{"lat":"37.13585953","long":"127.32767166","items":[{"name":"킴스카페","tel":"","addr":"경기도 용인시 처인구 원삼면 죽능리 26-55번지","category":"일반휴게음식 - 서양음식"}]},{"lat":"37.174005672","long":"127.32250888","items":[{"name":"킹덤북스","tel":"031-275-0196","addr":"경기도 용인시 처인구 원삼면 가재월리 839-1","category":"서적문구 - 출판 및 인쇄물"}]},{"lat":"37.154008082","long":"127.34003067","items":[{"name":"태민자동차공업사","tel":"031-332-2776","addr":"경기도 용인시 처인구 원삼면 두창리 1027-4","category":"자동차정비 유지 - 자동차정비"}]},{"lat":"37.167037072","long":"127.31022979","items":[{"name":"태양굼벵이","tel":"031-000-0000","addr":"경기도 용인시 처인구 원삼면 고당리 94-6번지 1층 상가동","category":"건강식품 - 기타건강식품"}]},{"lat":"37.198060106","long":"127.33994487","items":[{"name":"토박이","tel":"031-332-8820","addr":"경기도 용인시 처인구 원삼면 맹리 227-6번지","category":"회원제형태 - 기타1"},{"name":"토박이","tel":"031-332-8820","addr":"경기도 용인시 처인구 원삼면 맹리 227-6번지","category":"음료식품 - 농·축·수산품"}]},{"lat":"37.189145732","long":"127.33466831","items":[{"name":"토박이 영농조합법인","tel":"031-328-7577","addr":"경기도 용인시 처인구 원삼면 맹리 638-2번지","category":"음료식품 - 농·축·수산품"}]},{"lat":"37.193443535","long":"127.32492221","items":[{"name":"튼튼모종","tel":"031-333-3649","addr":"경기도 용인시 처인구 원삼면 좌항리 780번지","category":"농업 - 비료,사료,종자"}]},{"lat":"37.205003015","long":"127.33177512","items":[{"name":"티엘에스유통","tel":"031-768-1249","addr":"경기도 용인시 처인구 원삼면 맹리46","category":"음료식품 - 기타음료식품"}]},{"lat":"37.160032785","long":"127.32167325","items":[{"name":"파인다육","tel":"031-321-6164","addr":"경기도 용인시 처인구 원삼면 독성리 1000번지","category":"문화.취미 - 화원"}]},{"lat":"37.170617411","long":"127.33892219","items":[{"name":"팜앤트리(Farm&Tree)","tel":"","addr":"경기도 용인시 처인구 원삼면 두창리 2108","category":"음료식품 - 농·축·수산품"}]},{"lat":"37.181726188","long":"127.2914494","items":[{"name":"팡팡캠핑장","tel":"","addr":"경기도 용인시 처인구 원삼면 사암리 1024-31번지","category":"숙박업 - 여관/기타숙박업"}]},{"lat":"37.154924293","long":"127.29712245","items":[{"name":"펠리치타","tel":"031-335-8556","addr":"경기도 용인시 처인구 원삼면 문촌리 145-3번지","category":"일반휴게음식 - 서양음식"}]},{"lat":"37.149311689","long":"127.33433663","items":[{"name":"풀하우스","tel":"031-339-4248","addr":"경기도 용인시 처인구 원삼면 두창리1390-2","category":"숙박업 - 여관/기타숙박업"}]},{"lat":"37.159813762","long":"127.3452801","items":[{"name":"프롬비","tel":"070-8831-8830","addr":"경기도 용인시 처인구 원삼면 두창리 858-4번지","category":"농업 - 기타농업관련"}]},{"lat":"37.199026386","long":"127.31956187","items":[{"name":"하나팜","tel":"031-321-5728","addr":"경기도 용인시 처인구 원삼면 좌항리 611번지","category":"음료식품 - 농·축·수산품"}]},{"lat":"37.18583996","long":"127.33106136","items":[{"name":"한국타이어TBK양지점비젼상사","tel":"031-323-0675","addr":"경기도 용인시 처인구 원삼면 맹리698","category":"자동차정비 유지 - 자동차시트·타이어"}]},{"lat":"37.18425379","long":"127.33442168","items":[{"name":"한남윤활유","tel":"031-333-5188","addr":"경기도 용인시 처인구 원삼면 맹리 690-22번지","category":"자동차정비 유지 - 윤활유 전문 판매"}]},{"lat":"37.200442942","long":"127.33530347","items":[{"name":"한누리","tel":"031-000-0000","addr":"경기도 용인시 처인구 원삼면 맹리 66번지","category":"광학제품 - 사진관"}]},{"lat":"37.191974948","long":"127.31477958","items":[{"name":"한상","tel":"031-339-5855","addr":"경기도 용인시 처인구 원삼면 미평리 511-5번지 1층","category":"일반휴게음식 - 일반한식"}]},{"lat":"37.17933811","long":"127.29525773","items":[{"name":"한스농원","tel":"031-332-8345","addr":"경기도 용인시 처인구 원삼면 사암리 985-7번지","category":"음료식품 - 농·축·수산품"}]},{"lat":"37.14003938","long":"127.32139801","items":[{"name":"해냄독학기숙학원","tel":"02-0000-0000","addr":"경기도 용인시 처인구 원삼면 죽능리 6번지","category":"학원 - 보습학원"}]},{"lat":"37.161786797","long":"127.30915026","items":[{"name":"햇살농장","tel":"031-332-8757","addr":"경기도 용인시 처인구 원삼면 독성리 619-4번지","category":"음료식품 - 농·축·수산품"}]},{"lat":"37.203219775","long":"127.3379177","items":[{"name":"행복선원","tel":"031-286-0265","addr":"경기도 용인시 처인구 원삼면 맹리 270-32번지","category":"기타 - 비영리/대상"}]},{"lat":"37.158004467","long":"127.29034604","items":[{"name":"행복연수원아로니아농장","tel":"","addr":"경기도 용인시 처인구 원삼면 문촌리 757번지","category":"음료식품 - 농·축·수산품"}]},{"lat":"37.180416147","long":"127.29289708","items":[{"name":"향촌","tel":"031-322-4525","addr":"경기도 용인시 처인구 원삼면 사암리1002-10","category":"일반휴게음식 - 일반한식"}]},{"lat":"37.163170166","long":"127.31423338","items":[{"name":"현대공업사","tel":"031-333-1120","addr":"경기도 용인시 처인구 원삼면 독성리 297-5번지","category":"자동차정비 유지 - 세차장"}]},{"lat":"37.145816565","long":"127.33400622","items":[{"name":"호수정원","tel":"031-333-6969","addr":"경기도 용인시 처인구 원삼면 두창리1679","category":"숙박업 - 여관/기타숙박업"}]},{"lat":"37.166618411","long":"127.31183812","items":[{"name":"호암화구","tel":"031-338-8648","addr":"경기도 용인시 처인구 원삼면 고당리 89-2번지","category":"문화.취미 - 화방·표구점"}]},{"lat":"37.138562978","long":"127.32425052","items":[{"name":"홀랜드파크A-21","tel":"031-323-7000","addr":"경기도 용인시 처인구 원삼면 죽능리 17","category":"숙박업 - 여관/기타숙박업"}]},{"lat":"37.168835134","long":"127.31861393","items":[{"name":"황금가든","tel":"031-332-8730","addr":"경기도 용인시 처인구 원삼면 독성리 251-2번지 1층","category":"일반휴게음식 - 일반한식"}]},{"lat":"37.138482312","long":"127.32409261","items":[{"name":"황토그린빌리지","tel":"031-333-8886","addr":"경기도 용인시 처인구 원삼면 죽릉리17-6","category":"숙박업 - 여관/기타숙박업"}]},{"lat":"37.193451145","long":"127.33841516","items":[{"name":"휘게 스튜디오","tel":"031-111-1111","addr":"경기도 용인시 처인구 원삼면 맹리 424번지 나동","category":"가구 - 일반가구"}]},{"lat":"37.141591631","long":"127.31022812","items":[{"name":"희가원조경","tel":"031-322-3127","addr":"경기도 용인시 처인구 원삼면 죽능리 산8번지","category":"건축자재 - 인테리어전문"}]},{"lat":"37.145790634","long":"127.33361216","items":[{"name":"힐팰리스","tel":"031-112-7858","addr":"경기도 용인시 처인구 원삼면 두창리1679-2","category":"숙박업 - 여관/기타숙박업"}]}]