[{"lat":"37.3955291617","long":"126.9850840553","items":[{"name":"(신)김밥천국","tel":"031-425-4009","addr":"경기도 의왕시 포일동 661번지 104호,105호","category":"일반휴게음식 - 스넥"},{"name":"달걀속코끼리 미술학원","tel":"031-424-2021","addr":"경기도 의왕시 포일동 661번지 스마일타워 205호","category":"학원 - 예·체능계학원"},{"name":"더뮤즈음악학원","tel":"031-422-2225","addr":"경기도 의왕시 포일동 661번지 스마일타워 303호","category":"학원 - 예·체능계학원"},{"name":"리발란스 필라테스(re:balance pilates)","tel":"031-422-8911","addr":"경기도 의왕시 포일동 661번지 스마일타워 6층 601호","category":"레저업소 - 헬스클럽"},{"name":"리안헤어","tel":"","addr":"경기도 의왕시 포일동 661번지 203,204호","category":"보건위생 - 미용원"},{"name":"리안헤어","tel":"031-422-4021","addr":"경기도 의왕시 포일동 661번지 스마일타워 203,204호","category":"보건위생 - 미용원"},{"name":"메가 엠지씨커피 의왕포일점","tel":"","addr":"경기도 의왕시 포일동 661번지 스마일타워 106호","category":"일반휴게음식 - 서양음식"},{"name":"반다리","tel":"02-1111-1111","addr":"경기도 의왕시 포일동 661번지 스마일타워 101호","category":"의류 - 정장"},{"name":"베스킨라빈스(의왕포일점)","tel":"031-426-1480","addr":"경기도 의왕시 포일동 661번지 스마일타워 109,110호","category":"음료식품 - 제과점"},{"name":"봄봄 아동청소년발달센타","tel":"031-424-3650","addr":"경기도 의왕시 포일동 661번지 스마일타워 3층 305호","category":"보건위생 - 기타대인서비스"},{"name":"서울탑치과","tel":"031-423-7510","addr":"경기도 의왕시 포일동 661번지 스마일타워","category":"의원 - 치과의원"},{"name":"숲속안경원","tel":"031-421-3335","addr":"경기도 의왕시 포일동 661번지 스마일타워 107호","category":"보건위생 - 안경"},{"name":"아담리즈수학학원","tel":"031-421-3316","addr":"경기도 의왕시 포일동 661번지 스마일타워 501호,502호","category":"회원제형태 - 학원"},{"name":"유투엠(U2M)수학학원","tel":"031-360-3115","addr":"경기도 의왕시 포일동 661번지 스마일타워 702,703호","category":"학원 - 보습학원"},{"name":"의왕소머리국밥","tel":"031-422-0989","addr":"경기도 의왕시 포일동 661번지 스마일타워 103호","category":"일반휴게음식 - 일반한식"},{"name":"일(1)등 석사 경희대 태권도","tel":"031-425-3636","addr":"경기도 의왕시 포일동 661번지 스마일타워 6층 603호","category":"학원 - 예·체능계학원"},{"name":"퍼펙트영어학원","tel":"070-8815-0599","addr":"경기도 의왕시 포일동 661번지 스마일타워 503호","category":"학원 - 보습학원"}]},{"lat":"37.4009449504","long":"126.9908313688","items":[{"name":"(주) 그란티씨","tel":"031-8069-8889","addr":"경기도 의왕시 포일동 653번지 인덕원IT밸리 D동 1층 111호","category":"회원제형태 - 레져업소"},{"name":"(주)더메이크","tel":"031-8084-3650","addr":"경기도 의왕시 포일동 653번지 인덕원아이티밸리 B동 606호","category":"신변잡화 - 기타잡화"},{"name":"(주)맥스코프","tel":"031-8069-8848","addr":"경기도 의왕시 포일동 653번지 인덕원IT밸리 B동 302호","category":"직물 - 옷감·직물"},{"name":"(주)바이킹티브이","tel":"031-8084-3556","addr":"경기도 의왕시 포일동 653번지 인덕원IT밸리 B동 808호","category":"신변잡화 - 기타잡화"},{"name":"(주)베라코리아/베라커피","tel":"070-4880-4142","addr":"경기도 의왕시 포일동 653번지 106,107호","category":"일반휴게음식 - 서양음식"},{"name":"(주)베이비사인","tel":"031-360-7175","addr":"경기도 의왕시 포일동 653번지 인덕원아이티밸리 C동 1007호","category":"학원 - 기타 교육기관"},{"name":"(주)스카이메디칼","tel":"","addr":"경기도 의왕시 포일동 653번지 인덕원IT밸리 C동 1004호","category":"보건위생 - 의료용품"},{"name":"(주)스카이바이오메디칼","tel":"070-0000-0000","addr":"경기도 의왕시 포일동 653번지 인덕원IT밸리 C동 1004호","category":"보건위생 - 의료용품"},{"name":"(주)썬스포츠코리아","tel":"031-1644-1258","addr":"경기도 의왕시 포일동 653번지 인덕원IT밸리 B동 212호","category":"레져용품 - 스포츠·레져용품"},{"name":"(주)이디랩","tel":"031-8068-8833","addr":"경기도 의왕시 포일동 653번지 인덕원 IT밸리 C동 613B호","category":"서적문구 - 과학기자재"},{"name":"(주)투네이쳐","tel":"02-2058-0828","addr":"경기도 의왕시 포일동 653번지","category":"음료식품 - 기타음료식품"},{"name":"(주)티아이디커뮤니케이션","tel":"02-6232-9722","addr":"경기도 의왕시 포일동 653번지 인덕원IT밸리 D동 112호","category":"음료식품 - 기타음료식품"},{"name":"(주)퍼니교육","tel":"031-360-7175","addr":"경기도 의왕시 포일동 653번지 인덕원IT밸리 C동 1006호","category":"서적문구 - 기타서적문구"},{"name":"(주)헤니케이 와인","tel":"02-1566-7892","addr":"경기도 의왕시 포일동 653번지 인덕원IT밸리 D동 713호","category":"음료식품 - 주류 판매점"},{"name":"1g(일그램)","tel":"031-830-8611","addr":"경기도 의왕시 포일동 653번지 8층 804-6호","category":"신변잡화 - 기타잡화"},{"name":"GS25인덕원IT밸리점","tel":"","addr":"경기도 의왕시 포일동 653번지 인덕원IT밸리 B동 105호","category":"유통업 영리 - 편 의 점"},{"name":"HS Trading","tel":"070-8899-5211","addr":"경기도 의왕시 포일동 653번지 인덕원IT밸리 A동 404호","category":"건축자재 - 조명기구"},{"name":"SK상사","tel":"031-8084-3855","addr":"경기도 의왕시 포일동 653번지 인덕원IT밸리 A동 517호","category":"기타 - 기계공구"},{"name":"가라사대주식회사","tel":"031-424-5875","addr":"경기도 의왕시 포일동 653번지 인덕원IT밸리 710-2호","category":"보건위생 - 화장품"},{"name":"김밥앤천국","tel":"031-8069-8998","addr":"경기도 의왕시 포일동 653번지 인덕원11밸리 A동 115호","category":"일반휴게음식 - 스넥"},{"name":"나래컴퍼니","tel":"031-278-5889","addr":"경기도 의왕시 포일동 653번지 인덕원IT밸리 제B동6층603호","category":"사무통신 - 컴퓨터"},{"name":"나비테라피(NAABI Therapy)","tel":"031-8084-3327","addr":"경기도 의왕시 포일동 653번지 인덕원IT밸리 B동 103호","category":"보건위생 - 화장품"},{"name":"나스코리아","tel":"070-7842-8967","addr":"경기도 의왕시 포일동 653번지 인덕원IT밸리 A동 301호","category":"기타 - 기계공구"},{"name":"대아공사","tel":"031-8084-3788","addr":"경기도 의왕시 포일동 653번지 C동 -101인덕원IT밸리","category":"서적문구 - 출판 및 인쇄물"},{"name":"대원물산","tel":"031-689-5481","addr":"경기도 의왕시 포일동 653번지 인덕원IT밸리 B동 9층 12호","category":"레져용품 - 스포츠·레져용품"},{"name":"도서출판아진","tel":"02-737-0663","addr":"경기도 의왕시 포일동 653번지 인덕원IT밸리 A동 1019호","category":"서적문구 - 출판 및 인쇄물"},{"name":"드림오피스 인덕원점","tel":"031-000-0000","addr":"경기도 의왕시 포일동 653번지 인덕원IT밸리 A동 1층 113호","category":"서적문구 - 문구용품"},{"name":"라이팩","tel":"031-000-0000","addr":"경기도 의왕시 포일동 653번지 인덕원IT밸리 C동 112호","category":"레져용품 - 스포츠·레져용품"},{"name":"라이펙트 센터","tel":"031-8069-8708","addr":"경기도 의왕시 포일동 653번지 인덕원IT밸리 D동 112호 104호실","category":"신변잡화 - 액세서리"},{"name":"레오랩(LEOLAB)","tel":"","addr":"경기도 의왕시 포일동 653번지 804-3호","category":"의류 - 정장"},{"name":"로고스디자인","tel":"02-516-7551","addr":"경기도 의왕시 포일동 653번지 인덕원IT밸리 D동 206호","category":"용역 서비스 - 사무서비스"},{"name":"리엔케이 의왕포일지사","tel":"031-8069-8650","addr":"경기도 의왕시 포일동 653번지 인덕원IT밸리 D동 606-2호","category":"보건위생 - 화장품"},{"name":"리치즈","tel":"031-8069-7525","addr":"경기도 의왕시 포일동 653번지 인덕원IT밸리 D동 107호","category":"문화.취미 - 애완동물"},{"name":"마줌(MA-JUM)","tel":"","addr":"경기도 의왕시 포일동 653번지 경기벤처창업지원센터 B동 8층 804호","category":"신변잡화 - 가방"},{"name":"멀티텍","tel":"070-7675-8003","addr":"경기도 의왕시 포일동 653번지 인덕원IT밸리 C동 307호","category":"광학제품 - 카메라"},{"name":"메디팜","tel":"02-599-8663","addr":"경기도 의왕시 포일동 653번지 인덕원IT밸리 B동 5층 501호","category":"보건위생 - 의료용품"},{"name":"메카텍","tel":"02-898-8642","addr":"경기도 의왕시 포일동 653번지 C동B103호","category":"레져용품 - 스포츠·레져용품"},{"name":"몽뜨레셰프(인덕원포일숲속점)","tel":"031-212-9099","addr":"경기도 의왕시 포일동 653번지 인덕원IT밸리 205,206호","category":"일반휴게음식 - 서양음식"},{"name":"민들레영토","tel":"02-2677-7026","addr":"경기도 의왕시 포일동 653 지식산업센타 A-804","category":"용역 서비스 - 부동산 중개·임대"},{"name":"바다 양푼이 동태탕","tel":"031-8069-8865","addr":"경기도 의왕시 포일동 653번지 인덕원IT밸리 A동 207호","category":"일반휴게음식 - 일반한식"},{"name":"뷰티에이아","tel":"","addr":"경기도 의왕시 포일동 653번지 인덕원IT밸리 D동 112호","category":"보건위생 - 미용재료"},{"name":"사단법인 한국첨단자동차기술협회","tel":"031-0000-0000","addr":"경기도 의왕시 포일동 653번지 인덕원IT밸리 D동 415호","category":"용역 서비스 - 사무서비스"},{"name":"서호유통","tel":"070-4773-7670","addr":"경기도 의왕시 포일동 653번지 A동 지하3층 에이비307호","category":"자동차정비 유지 - 윤활유 전문 판매"},{"name":"수호기획","tel":"031-8069-7112","addr":"경기도 의왕시 포일동 653번지 인덕원IT밸리 D동 B112호","category":"유통업 영리 - 기타유통업"},{"name":"스노우폴 월드","tel":"031-8084-3386","addr":"경기도 의왕시 포일동 653번지 인덕원IT밸리 제디동906~1호","category":"주방용구 - 주방용구"},{"name":"씨위 (CHUI)","tel":"031-000-0000","addr":"경기도 의왕시 포일동 653번지 인덕원IT밸리 A동 1003호","category":"신변잡화 - 액세서리"},{"name":"아론파트너즈","tel":"","addr":"경기도 의왕시 포일동 653번지 인덕원IT밸리 D동 419호","category":"유통업 영리 - 기타유통업"},{"name":"아신카피랜드","tel":"031-382-5826","addr":"경기도 의왕시 포일동 653번지 인덕원IT밸리 B동 403호","category":"서적문구 - 출판 및 인쇄물"},{"name":"아이티밸리(IT밸리)빅스맘어린이집[아이행","tel":"031-8069-8850","addr":"경기도 의왕시 포일동 653번지 아이티밸리 A동 2층","category":"학원 - 유아원"},{"name":"에이미스커피인덕원점/(주)그란티씨","tel":"031-8069-8885","addr":"경기도 의왕시 포일동 653번지 인덕원IT밸리 D동 1층 110호","category":"일반휴게음식 - 서양음식"},{"name":"엔비베베","tel":"070-8689-4310","addr":"경기도 의왕시 포일동 653번지 인덕원IT밸리 8층 804호","category":"보건위생 - 화장품"},{"name":"엔지페(NZIPEH)","tel":"031-8084-3301","addr":"경기도 의왕시 포일동 653번지 인덕원IT밸리 C동 212호","category":"보건위생 - 화장품"},{"name":"오비스텍 주식회사","tel":"031-8069-7702","addr":"경기도 의왕시 포일동 653번지 인덕원아이티밸리 B동 1층 102호","category":"보건위생 - 의료용품"},{"name":"온스페이스","tel":"031-8069-8050","addr":"경기도 의왕시 포일동 653번지 인덕원IT밸리A동918호","category":"건축자재 - 인테리어전문"},{"name":"유한회사곰두리","tel":"031-689-3985","addr":"경기도 의왕시 포일동 653번지 인덕원IT밸리 B동 605호","category":"용역 서비스 - 종합용역"},{"name":"이경하 마음테라피<맘숨>","tel":"031-8069-8299","addr":"경기도 의왕시 포일동 653번지 인덕원IT밸리 B동 202호","category":"보건위생 - 기타대인서비스"},{"name":"인덕원IT밸리 관리단","tel":"031-8069-8111","addr":"경기도 의왕시 포일동 653번지 인덕원IT밸리 A동 지하1층","category":"자동차정비 유지 - 주차장"},{"name":"장수순대국","tel":"031-8084-3339","addr":"경기도 의왕시 포일동 653번지 인덕원IT밸리 A동 102호","category":"일반휴게음식 - 일반한식"},{"name":"정의수산","tel":"031-8069-8225","addr":"경기도 의왕시 포일동 653번지 인덕원IT밸리 D동 207호 208호","category":"음료식품 - 농·축·수산품"},{"name":"제이에스모터스","tel":"031-8069-8875","addr":"경기도 의왕시 포일동 653번지 인덕원IT밸리 B동B201호","category":"자동차정비 유지 - 자동차부품"},{"name":"종부손맛","tel":"031-8084-3100","addr":"경기도 의왕시 포일동 653번지 인덕원IT밸리 1층 103호","category":"일반휴게음식 - 일반한식"},{"name":"주식회사 국제프린팩","tel":"031-422-4841","addr":"경기도 의왕시 포일동 653번지 인덕원IT밸리 D동 1010-3호","category":"유통업 영리 - 기타유통업"},{"name":"주식회사 메디에스팜","tel":"02-599-8663","addr":"경기도 의왕시 포일동 653번지 인덕원IT밸리 B동 501호","category":"보건위생 - 의료용품"},{"name":"주식회사 뷰티엔","tel":"031-1644-1258","addr":"경기도 의왕시 포일동 653번지 인덕원IT밸리 B동 212호","category":"신변잡화 - 기타잡화"},{"name":"주식회사 셀니스","tel":"070-5096-7911","addr":"경기도 의왕시 포일동 653번지 인덕원IT밸리 A동 406호","category":"보건위생 - 화장품"},{"name":"주식회사 아이에코","tel":"031-8084-3686","addr":"경기도 의왕시 포일동 653번지 인덕원IT밸리 A동 825호","category":"용역 서비스 - 사무서비스"},{"name":"주식회사 아이플린트","tel":"031-8084-3737","addr":"경기도 의왕시 포일동 653번지 인덕원아이티밸리 D동 518-1호","category":"광학제품 - 기타광학제품"},{"name":"주식회사 알피티코리아","tel":"070-4858-4653","addr":"경기도 의왕시 포일동 653번지 인덕원아이티밸리 B동 1004호","category":"레저업소 - 기타레져업소"},{"name":"주식회사 알피티코리아","tel":"070-4858-4654","addr":"경기도 의왕시 포일동 653번지 인덕원IT밸리 B동 1004호","category":"레저업소 - 기타레져업소"},{"name":"주식회사 옥토퍼스","tel":"02-3461-5240","addr":"경기도 의왕시 포일동 653번지 인덕원IT밸리 C동 510호","category":"보건위생 - 화장품"},{"name":"주식회사 우리너스","tel":"070-8244-3579","addr":"경기도 의왕시 포일동 653번지 인덕원IT밸리 D동 817-2호","category":"용역 서비스 - 사무서비스"},{"name":"주식회사 유니페이","tel":"070-4633-1004","addr":"경기도 의왕시 포일동 653번지 인덕원IT밸리 708호","category":"용역 서비스 - 소프트웨어"},{"name":"주식회사 제이에스무역","tel":"070-8667-8087","addr":"경기도 의왕시 포일동 653번지 인덕원IT밸리 D동 906-2호","category":"주방용구 - 주방용구"},{"name":"주식회사 청암엔지니어링","tel":"031-360-3291","addr":"경기도 의왕시 포일동 653번지 인덕원IT밸리 C동 B113호","category":"전기제품 - 기타전기제품"},{"name":"주식회사 코스모스","tel":"070-7530-3236","addr":"경기도 의왕시 포일동 653번지 인덕원아이티밸리 D동 602호","category":"용역 서비스 - 사무서비스"},{"name":"주식회사 티에스씨컴퍼니","tel":"070-4355-4170","addr":"경기도 의왕시 포일동 653번지 D동 2층 D210-3호","category":"레져용품 - 스포츠·레져용품"},{"name":"주식회사 픽셀로","tel":"031-8069-8835","addr":"경기도 의왕시 포일동 653번지 인덕원IT밸리 A동 724호","category":"용역 서비스 - 소프트웨어"},{"name":"주식회사 하임에프앤비","tel":"031-8084-3285","addr":"경기도 의왕시 포일동 653번지 인덕원IT밸리 D동 511호","category":"음료식품 - 기타음료식품"},{"name":"주식회사아이티밸리","tel":"031-8069-7996","addr":"경기도 의왕시 포일동 653번지 인덕원IT밸리 A동 209호","category":"용역 서비스 - 기타용역서비스"},{"name":"주식회사예스미라클","tel":"031-462-5032","addr":"경기도 의왕시 포일동 653번지 씨동 인덕원IT밸리 314호","category":"보건위생 - 화장품"},{"name":"준호네부대찌개","tel":"031-8069-8998","addr":"경기도 의왕시 포일동 653번지 인덕원IT밸리 A동 115호","category":"일반휴게음식 - 일반한식"},{"name":"코람텍","tel":"070-8830-1020","addr":"경기도 의왕시 포일동 653번지 인덕원IT밸리 B동 910-1호","category":"전기제품 - 기타전기제품"},{"name":"태건","tel":"031-8069-8225","addr":"경기도 의왕시 포일동 653번지 인덕원IT밸리 D동 208호","category":"음료식품 - 농·축·수산품"},{"name":"투쓰리프레시","tel":"031-8084-3306","addr":"경기도 의왕시 포일동 653번지 인덕원IT밸리 B동 105-2호","category":"일반휴게음식 - 서양음식"},{"name":"팀컴퍼니","tel":"02-3452-0707","addr":"경기도 의왕시 포일동 653번지 IT밸리 C동 B101호","category":"전기제품 - 가전제품"},{"name":"푸르메다(PURUMEDA)","tel":"031-282-8977","addr":"경기도 의왕시 포일동 653번지 인덕원IT밸리 A동 613호","category":"음료식품 - 기타음료식품"},{"name":"퓨리켐","tel":"031-341-5507","addr":"경기도 의왕시 포일동 653번지 인덕원IT밸리 A동 712호","category":"서적문구 - 과학기자재"},{"name":"프랜드쉽전자(Friendship Electronics)","tel":"031-1833-9853","addr":"경기도 의왕시 포일동 653번지 인덕원IT밸리 A동 821호","category":"전기제품 - 가전제품"},{"name":"플라인소프트","tel":"031-8069-8091","addr":"경기도 의왕시 포일동 653번지 인덕원IT밸리 C동 209호","category":"용역 서비스 - 소프트웨어"},{"name":"현진","tel":"031-8084-3617","addr":"경기도 의왕시 포일동 653번지 인덕원IT밸리 B동 101호","category":"의류 - 기타의류"},{"name":"호랑이부대사랑","tel":"031-8084-3358","addr":"경기도 의왕시 포일동 653번지 인덕원IT밸리 다동 109호","category":"일반휴게음식 - 일반한식"},{"name":"희윤디자인","tel":"","addr":"경기도 의왕시 포일동 653번지 인덕원IT밸리 B동 510호","category":"신변잡화 - 액세서리"}]},{"lat":"37.3984391905","long":"126.9836152089","items":[{"name":"(주)미주애드","tel":"031-425-6685","addr":"경기도 의왕시 포일동 669-3번지 1층","category":"용역 서비스 - 종합용역"}]},{"lat":"37.3916372035","long":"126.9879984416","items":[{"name":"(주)세진디테일링안양점","tel":"031-424-0505","addr":"경기도 의왕시 포일동 242-11번지","category":"자동차정비 유지 - 세차장"}]},{"lat":"37.3956643918","long":"126.9856147994","items":[{"name":"(주)조안엠앤에스","tel":"070-8813-3388","addr":"경기도 의왕시 포일동 660-2번지","category":"약국 - 제약회사"},{"name":"수노리학원","tel":"031-000-0000","addr":"경기도 의왕시 포일동 660-2번지 202 ,203호","category":"학원 - 보습학원"},{"name":"숲속당구","tel":"031-422-8084","addr":"경기도 의왕시 포일동 660-2번지 스마일투 202,203호","category":"레저업소 - 당 구 장"},{"name":"스마일","tel":"","addr":"경기도 의왕시 포일동 660-2번지 스마일투 704호","category":"레저업소 - 골프연습장"},{"name":"어라운드스터디룸 의왕포일점","tel":"070-7358-0904","addr":"경기도 의왕시 포일동 660-2번지 301,302호","category":"용역 서비스 - 사무서비스"},{"name":"오와스시 포일점","tel":"031-425-1225","addr":"경기도 의왕시 포일동 660-2번지 스마일투 101호","category":"일반휴게음식 - 일식·회집"},{"name":"플레이슬라임캠프","tel":"031-424-8088","addr":"경기도 의왕시 포일동 660-2번지 스마일투 202호","category":"학원 - 기타 교육기관"},{"name":"플레이아트예모듬창작소미술학원","tel":"031-000-0000","addr":"경기도 의왕시 포일동 660-2번지 스마일투 201호","category":"학원 - 예·체능계학원"}]},{"lat":"37.3973848939","long":"126.9829152903","items":[{"name":"(주)지라인코퍼레이션","tel":"031-425-7730","addr":"경기도 의왕시 포일동 672-3번지 101호","category":"의류 - 기타의류"},{"name":"미남스포츠","tel":"031-421-1873","addr":"경기도 의왕시 포일동 672-3번지","category":"레져용품 - 스포츠·레져용품"}]},{"lat":"37.3974756657","long":"126.9873874441","items":[{"name":"(주)체리센스","tel":"","addr":"경기도 의왕시 포일동 657-2번지 에이스청계타워 814호","category":"보건위생 - 의료용품"},{"name":"GOLPARK/주식회사 피아이에스지","tel":"02-582-9898","addr":"경기도 의왕시 포일동 657-2번지 에이스청계타워 A동 601-1호","category":"레저업소 - 스크린골프"},{"name":"GS25의왕청계타워점","tel":"","addr":"경기도 의왕시 포일동 657-2번지 에이스청계타워 104호","category":"유통업 영리 - 편 의 점"},{"name":"강남소바","tel":"031-5177-7070","addr":"경기도 의왕시 포일동 657-2번지 에이스청계타워 1층 125호","category":"일반휴게음식 - 일반한식"},{"name":"골프존파크","tel":"031-347-8207","addr":"경기도 의왕시 포일동 657-2번지 에이스청계타워 201호,202호","category":"레져용품 - 골프용품 전문점"},{"name":"더치앤빈 의왕에이스청계점","tel":"031-5177-7777","addr":"경기도 의왕시 포일동 657-2번지 에이스청계타워 1층 106호","category":"일반휴게음식 - 서양음식"},{"name":"디에스씨 네트웍스(DSC NETWORKS)","tel":"031-347-8207","addr":"경기도 의왕시 포일동 657-2번지 에이스청계타워 203호","category":"레져용품 - 스포츠·레져용품"},{"name":"모어커피","tel":"031-478-3330","addr":"경기도 의왕시 포일동 657-2번지 에이스청계타워 107호","category":"일반휴게음식 - 서양음식"},{"name":"미타임","tel":"031-5177-7559","addr":"경기도 의왕시 포일동 657-2번지 에이스청계타워 1층 142호","category":"일반휴게음식 - 서양음식"},{"name":"바우네나주곰탕","tel":"031-5177-7222","addr":"경기도 의왕시 포일동 657-2번지 에이스청계타워 1층 127호","category":"일반휴게음식 - 일반한식"},{"name":"세븐일레븐부산구포카페점","tel":"031-1577-0711","addr":"경기도 의왕시 포일동 657-2번지 에이스청계타워 1001,1002,1003,1004,1005호","category":"유통업 영리 - 편 의 점"},{"name":"에릭스베이비앤컴퍼니","tel":"070-7571-7778","addr":"경기도 의왕시 포일동 657-2번지 에이스청계타워 220호","category":"의류 - 아동의류"},{"name":"에이스청계타워관리단","tel":"031-5177-7700","addr":"경기도 의왕시 포일동 657-2번지 에이스청계타워","category":"자동차정비 유지 - 주차장"},{"name":"에이스푸드","tel":"031-5177-7700","addr":"경기도 의왕시 포일동 657-2번지 에이스청계타워 128,129,130","category":"일반휴게음식 - 일반한식"},{"name":"에이케이시스(주)","tel":"070-7010-7025","addr":"경기도 의왕시 포일동 657-2번지 에이스청계타워 A동 706호","category":"전기제품 - 가전제품"},{"name":"주식회사 더에프앤티","tel":"031-5177-7100","addr":"경기도 의왕시 포일동 657-2번지 에이스청계타워 8층 A823호","category":"주방용구 - 주방용구"},{"name":"주식회사 더함애더함","tel":"031-342-6227","addr":"경기도 의왕시 포일동 657-2번지 에이스청계타워 4층 제에이404-2호","category":"건강식품 - 기타건강식품"},{"name":"주식회사 디자인뮤","tel":"031-1111-1111","addr":"경기도 의왕시 포일동 657-2번지 에이스청계타워 7층 A722호","category":"가구 - 일반가구"},{"name":"주식회사 빵쌤","tel":"031-5177-7711","addr":"경기도 의왕시 포일동 657-2번지 에이스청계타워 1층 131,133,134,137,138호","category":"음료식품 - 제과점"},{"name":"주식회사 신오오토넷","tel":"031-348-2377","addr":"경기도 의왕시 포일동 657-2번지 에이스청계타워 1010호","category":"자동차정비 유지 - 자동차부품"},{"name":"주식회사에코프린","tel":"070-1111-1111","addr":"경기도 의왕시 포일동 657-2번지 에이스청계타워 317호","category":"사무통신 - 컴퓨터"},{"name":"진사골순대국","tel":"031-5177-7775","addr":"경기도 의왕시 포일동 657-2번지 에이스청계타워 124호","category":"일반휴게음식 - 일반한식"},{"name":"청계본치과","tel":"031-5177-7028","addr":"경기도 의왕시 포일동 657-2번지 에이스청계타워 204호","category":"병원 - 치과병원"},{"name":"카페 인디 블루","tel":"031-5177-7773","addr":"경기도 의왕시 포일동 657-2번지 에이스청계타워 1층 102호","category":"일반휴게음식 - 서양음식"},{"name":"카페Jass의왕점","tel":"031-5177-7799","addr":"경기도 의왕시 포일동 657-2번지 에이스청계타워 1층 105호","category":"일반휴게음식 - 서양음식"},{"name":"타이거(tiger)","tel":"02-1577-0000","addr":"경기도 의왕시 포일동 657-2번지 에이스청계타워 1층 141호","category":"일반휴게음식 - 서양음식"},{"name":"파더스베이글청계점","tel":"031-5177-7666","addr":"경기도 의왕시 포일동 657-2번지 에이스청계타워 110호","category":"음료식품 - 제과점"},{"name":"포일면사무소","tel":"031-5177-7772","addr":"경기도 의왕시 포일동 657-2번지 에이스청계타워 1층 122호","category":"일반휴게음식 - 일반한식"},{"name":"함흥면옥","tel":"031-426-1185","addr":"경기도 의왕시 포일동 657-2번지 에이스청계타워 208호","category":"일반휴게음식 - 일반한식"},{"name":"행복통신","tel":"031-5177-7779","addr":"경기도 의왕시 포일동 657-2번지 에이스청계타워 1층 109호","category":"사무통신 - 통신기기"}]},{"lat":"37.3919966318","long":"126.9816180760","items":[{"name":"(주)하호건축사사무소","tel":"031-424-3378","addr":"경기도 의왕시 포일동 519-2번지 대일빌딩 지층","category":"용역 서비스 - 사무서비스"},{"name":"그린골프스쿨","tel":"031-424-1599","addr":"경기도 의왕시 포일동 519-2번지","category":"회원제형태 - 레져업소"},{"name":"미니스톱의왕포일점","tel":"031-421-6582","addr":"경기도 의왕시 포일동 519-2번지 대일빌딩 1층","category":"유통업 영리 - 편 의 점"}]},{"lat":"37.3952228774","long":"126.9854793842","items":[{"name":"007안경","tel":"031-421-9071","addr":"경기도 의왕시 포일동 661-2번지 포레스타타워 101-2호","category":"보건위생 - 안경"},{"name":"굿모닝보청기 (의왕점)","tel":"031-423-2227","addr":"경기도 의왕시 포일동 661-2번지 포레스타타워 101-2호","category":"보건위생 - 의료용품"},{"name":"다도편의점","tel":"031-427-2575","addr":"경기도 의왕시 포일동 661-2번지 포레스타타워 1층 104호","category":"유통업 영리 - 편 의 점"},{"name":"라곰키즈카페","tel":"031-422-0225","addr":"경기도 의왕시 포일동 661-2번지 포레스타타워 403호","category":"일반휴게음식 - 서양음식"},{"name":"숲속마을 스크린 골프존","tel":"031-424-5678","addr":"경기도 의왕시 포일동 661-2번지 포레스타타워 3층","category":"레져용품 - 골프용품 전문점"},{"name":"스마트보청기난청연구소","tel":"031-423-2227","addr":"경기도 의왕시 포일동 661-2번지 포레스타타워 101-1호","category":"보건위생 - 의료용품"},{"name":"주식회사 칭메이","tel":"031-422-1177","addr":"경기도 의왕시 포일동 661-2번지 포레스타타워 201,202호","category":"일반휴게음식 - 중국식"},{"name":"창덕한의원","tel":"031-422-3366","addr":"경기도 의왕시 포일동 661-2번지 포레스타타워 301호","category":"의원 - 한의원"},{"name":"카카오파츠","tel":"031-422-7773","addr":"경기도 의왕시 포일동 661-2번지 포레스타타워 105,106호","category":"자동차정비 유지 - 자동차부품"},{"name":"포일그린치과","tel":"031-426-2277","addr":"경기도 의왕시 포일동 661-2번지 포레스타타워 402호","category":"의원 - 치과의원"}]},{"lat":"37.3958895069","long":"126.9847000033","items":[{"name":"60계치킨 (의왕포일점)","tel":"031-421-6061","addr":"경기도 의왕시 포일동 662번지 파레사타워 113호","category":"일반휴게음식 - 스넥"},{"name":"가가호호떡","tel":"031-444-1999","addr":"경기도 의왕시 포일동 662번지 파레사타워 105호","category":"음료식품 - 제과점"},{"name":"경희정한의원","tel":"031-424-9996","addr":"경기도 의왕시 포일동 662번지 파레사타워 301호","category":"의원 - 한의원"},{"name":"교촌치킨인덕원점","tel":"031-422-9114","addr":"경기도 의왕시 포일동 662번지 파레사타워 102호","category":"일반휴게음식 - 스넥"},{"name":"리앤요가","tel":"031-422-1269","addr":"경기도 의왕시 포일동 662번지 파레사타워 406호","category":"레저업소 - 헬스클럽"},{"name":"미오백아동발달상담센터","tel":"031-421-0525","addr":"경기도 의왕시 포일동 662번지 파레사타워 408호","category":"보건위생 - 기타대인서비스"},{"name":"민트브릭 베이커리","tel":"031-426-5152","addr":"경기도 의왕시 포일동 662번지 파레사타워 101호","category":"음료식품 - 제과점"},{"name":"본아이에프(본죽)","tel":"031-426-6288","addr":"경기도 의왕시 포일동 662번지 파레사타워 104호","category":"일반휴게음식 - 일반한식"},{"name":"서울바른이치과의원","tel":"031-421-2222","addr":"경기도 의왕시 포일동 662번지 파레사타워 306호","category":"의원 - 치과의원"},{"name":"서울성모이비인후과의원","tel":"031-426-8115","addr":"경기도 의왕시 포일동 662번지 파레사타워 405호","category":"의원 - 의원"},{"name":"스윗앨리","tel":"031-421-5949","addr":"경기도 의왕시 포일동 662번지 파레사타워 106호","category":"일반휴게음식 - 서양음식"},{"name":"스토리 점핑 다이어트","tel":"","addr":"경기도 의왕시 포일동 662번지 파레사타워 4층 409호","category":"건강식품 - 기타건강식품"},{"name":"열린약국","tel":"031-421-4997","addr":"경기도 의왕시 포일동 662번지 파레사타워 1층 107호","category":"약국 - 약국"},{"name":"영내과의원","tel":"031-422-0011","addr":"경기도 의왕시 포일동 662번지 파레사타워 305호","category":"의원 - 의원"},{"name":"예스재활의학과의원","tel":"031-423-8875","addr":"경기도 의왕시 포일동 662번지 파레사타워 4층 403호","category":"의원 - 의원"},{"name":"월수금 통돼지","tel":"031-340-9398","addr":"경기도 의왕시 포일동 662번지 파레사타워 201,202호","category":"일반휴게음식 - 일반한식"},{"name":"채선당플러스 포일점","tel":"031-421-7799","addr":"경기도 의왕시 포일동 662번지 파레사타워 206호","category":"일반휴게음식 - 일반한식"},{"name":"코바코 의왕포일점","tel":"031-426-1243","addr":"경기도 의왕시 포일동 662번지 파레사타워 1층 103호","category":"일반휴게음식 - 스넥"},{"name":"포일동물병원","tel":"031-425-7541","addr":"경기도 의왕시 포일동 662번지 파레사타워 112호","category":"기타의료기관 - 동물병원"},{"name":"포항회수산","tel":"031-421-8370","addr":"경기도 의왕시 포일동 662번지 파레사타워 114,115,116호","category":"일반휴게음식 - 일식·회집"}]},{"lat":"37.3972767268","long":"126.9826442786","items":[{"name":"BOBBY PET(바비 펫)","tel":"031-425-1027","addr":"경기도 의왕시 포일동 674-3번지 101호","category":"문화.취미 - 애완동물"},{"name":"라우라 라이트","tel":"031-462-6977","addr":"경기도 의왕시 포일동 674-3번지 101호","category":"건축자재 - 조명기구"},{"name":"레드바이크 의왕점","tel":"031-421-5601","addr":"경기도 의왕시 포일동 674-3번지 102호","category":"레져용품 - 스포츠·레져용품"},{"name":"모리노리","tel":"031-421-4723","addr":"경기도 의왕시 포일동 674-3번지 101호","category":"의류 - 아동의류"},{"name":"안나방(ANNABANG)","tel":"031-425-4448","addr":"경기도 의왕시 포일동 674-3번지","category":"신변잡화 - 가방"},{"name":"엔토우즈(NTOWS)","tel":"070-8238-5536","addr":"경기도 의왕시 포일동 674-3번지","category":"신변잡화 - 기타잡화"}]},{"lat":"37.3920866278","long":"126.9810421295","items":[{"name":"CS테크","tel":"031-8151-6707","addr":"경기도 의왕시 포일동 533-5번지 동부새롬아파트","category":"사무통신 - 컴퓨터"}]},{"lat":"37.3983581454","long":"126.9838975675","items":[{"name":"Dama FLOWER STUDIO","tel":"031-0000-0000","addr":"경기도 의왕시 포일동 668-1번지 1층","category":"문화.취미 - 화원"}]},{"lat":"37.4031337646","long":"126.9856921445","items":[{"name":"Do la lune(데라룬)","tel":"031-421-4221","addr":"경기도 의왕시 포일동 645번지 포일숲속마을","category":"신변잡화 - 액세서리"}]},{"lat":"37.3977811798","long":"126.9820004177","items":[{"name":"GS25의왕봇들점","tel":"","addr":"경기도 의왕시 포일동 675-3번지","category":"유통업 영리 - 편 의 점"}]},{"lat":"37.3976196011","long":"126.9857498714","items":[{"name":"GS25의왕주공점","tel":"02-2006-2485","addr":"경기도 의왕시 포일동 658 포일숲속마을휴먼시아103호","category":"유통업 영리 - 편 의 점"},{"name":"더리터 포일점","tel":"031-422-4244","addr":"경기도 의왕시 포일동 658번지 포일숲속마을 상가동 104호","category":"일반휴게음식 - 일반한식"},{"name":"부어치킨 포일동","tel":"","addr":"경기도 의왕시 포일동 658번지 포일숲속마을휴먼시아 상가동 1층 102호","category":"일반휴게음식 - 스넥"},{"name":"스티치","tel":"031-425-7849","addr":"경기도 의왕시 포일동 658번지 포일숲속마을휴먼시아 상가 102호","category":"의류 - 정장"},{"name":"이디야커피","tel":"031-422-1479","addr":"경기도 의왕시 포일동 658번지 포일숲속마을휴먼시아 상가동 101호","category":"일반휴게음식 - 서양음식"},{"name":"포일어린이집[아이행복]","tel":"031-422-8219","addr":"경기도 의왕시 포일동 658","category":"학원 - 유아원"}]},{"lat":"37.3888892676","long":"126.9891959467","items":[{"name":"K-메디칼","tel":"070-4649-1101","addr":"경기도 의왕시 포일동 162번지","category":"신변잡화 - 기타잡화"},{"name":"홍능화훼","tel":"031-423-1005","addr":"경기도 의왕시 포일동 162","category":"문화.취미 - 화원"}]},{"lat":"37.3964480010","long":"126.9838641698","items":[{"name":"LABOOM COFFEE (라붐커피)","tel":"031-422-7787","addr":"경기도 의왕시 포일동 664번지 선구스퀘어 1,2층","category":"일반휴게음식 - 서양음식"},{"name":"라임앤코(Lime&Co)","tel":"031-421-4777","addr":"경기도 의왕시 포일동 664번지 선구스퀘어 103호","category":"문화.취미 - 수족관"},{"name":"인덕원비젼스크린골프","tel":"031-425-0701","addr":"경기도 의왕시 포일동 664번지 선구스퀘어 301호","category":"레져용품 - 골프용품 전문점"},{"name":"인덕원신준세치과의원","tel":"031-422-7528","addr":"경기도 의왕시 포일동 664번지 선구스퀘어 402호","category":"의원 - 치과의원"}]},{"lat":"37.3959707464","long":"126.9856937811","items":[{"name":"N nature (앤 네이처)","tel":"031-423-7416","addr":"경기도 의왕시 포일동 660번지 포일프라임타워 1층 103호","category":"보건위생 - 미용원"},{"name":"국앤쿡","tel":"031-422-0609","addr":"경기도 의왕시 포일동 660번지 포일프라임타워 105호","category":"음료식품 - 기타음료식품"},{"name":"네일이오","tel":"031-423-0952","addr":"경기도 의왕시 포일동 660번지 포일프라임타워 1층 106호","category":"보건위생 - 피부미용실"},{"name":"더하우스","tel":"031-421-9870","addr":"경기도 의왕시 포일동 660번지 포일프라임타워 203호","category":"보건위생 - 미용원"},{"name":"동남집(포일점)","tel":"031-422-0080","addr":"경기도 의왕시 포일동 660번지 포일프라임타워 2층 201호","category":"일반휴게음식 - 일반한식"},{"name":"라움산후조리원","tel":"031-422-5175","addr":"경기도 의왕시 포일동 660번지 포일프라임타워 3층","category":"기타의료기관 - 산후조리원"},{"name":"마린커피","tel":"070-8875-8851","addr":"경기도 의왕시 포일동 660번지 포일프라임타워 110호","category":"일반휴게음식 - 서양음식"},{"name":"위드제이뷰티","tel":"031-424-5007","addr":"경기도 의왕시 포일동 660번지 포일프라임타워 2층 206호","category":"보건위생 - 피부미용실"},{"name":"청년다방 의왕포일동점","tel":"031-425-5915","addr":"경기도 의왕시 포일동 660번지 포일프라임타워 1층 108호","category":"일반휴게음식 - 일반한식"},{"name":"커피에 반하다","tel":"","addr":"경기도 의왕시 포일동 660번지 포일프라임타워 1층 104호","category":"일반휴게음식 - 서양음식"},{"name":"티나 필라테스","tel":"","addr":"경기도 의왕시 포일동 660번지 포일프라임타워 204호","category":"레저업소 - 헬스클럽"},{"name":"프라임스시","tel":"031-425-3355","addr":"경기도 의왕시 포일동 660번지 포일프라임타워 202호","category":"일반휴게음식 - 일식·회집"},{"name":"홍루이젠 의왕포일점","tel":"","addr":"경기도 의왕시 포일동 660번지 포일프라임타워 1층 107호","category":"일반휴게음식 - 스넥"},{"name":"흑화당 의왕포일점","tel":"031-463-1765","addr":"경기도 의왕시 포일동 660번지 포일프라임타워 1층 109호","category":"일반휴게음식 - 서양음식"}]},{"lat":"37.3985029433","long":"126.9883923570","items":[{"name":"NH새싹 어린이집[아이행복]","tel":"031-425-8827","addr":"경기도 의왕시 포일동 657번지 NH통합IT센터 1층","category":"학원 - 유아원"}]},{"lat":"37.3914469647","long":"126.9813359195","items":[{"name":"RNS 로봇연구소 안양점","tel":"070-8899-5813","addr":"경기도 의왕시 포일동 539-10번지 삼우상가 3층 304호","category":"전기제품 - 기타전기제품"},{"name":"고향산천","tel":"031-424-3434","addr":"경기도 의왕시 포일동 539-10번지 삼우상가 110호","category":"일반휴게음식 - 일반한식"},{"name":"먹어야돼지","tel":"031-425-2877","addr":"경기도 의왕시 포일동 539-10번지","category":"일반휴게음식 - 일반한식"},{"name":"명품박가네족발보쌈","tel":"031-422-2426","addr":"경기도 의왕시 포일동 539-10번지 삼우상가 112호","category":"일반휴게음식 - 일반한식"},{"name":"불에꾼닭","tel":"031-422-0785","addr":"경기도 의왕시 포일동 539-10번지 삼우상가 108호","category":"일반휴게음식 - 일반한식"},{"name":"삼성의원","tel":"031-426-7576","addr":"경기도 의왕시 포일동 539-10번지 삼우상가 2동 201호","category":"의원 - 의원"},{"name":"에스비에스 당구클럽","tel":"031-423-9696","addr":"경기도 의왕시 포일동 539-10번지 삼우상가 지층 1.2호","category":"레저업소 - 당 구 장"},{"name":"여기서보세","tel":"031-424-7745","addr":"경기도 의왕시 포일동 539-10번지 삼우상가 111호","category":"일반휴게음식 - 일반한식"},{"name":"오부장치킨","tel":"031-422-9991","addr":"경기도 의왕시 포일동 539-10번지 삼우상가 102호","category":"일반휴게음식 - 스넥"},{"name":"우아한 막창","tel":"031-473-8254","addr":"경기도 의왕시 포일동 539-10번지 삼우상가 106호","category":"일반휴게음식 - 일반한식"},{"name":"장's양꼬치","tel":"031-421-6448","addr":"경기도 의왕시 포일동 539-10번지 1층109호 삼우 상가","category":"일반휴게음식 - 주점"},{"name":"즐거운치과의원","tel":"031-425-2885","addr":"경기도 의왕시 포일동 539-10번지 삼우상가 204호","category":"의원 - 치과의원"},{"name":"토즈멤버십라운지 포일센터","tel":"031-421-7939","addr":"경기도 의왕시 포일동 539-10번지 삼우상가 3층 301호","category":"용역 서비스 - 사무서비스"},{"name":"토즈스터디센터 포일독서실","tel":"031-421-7939","addr":"경기도 의왕시 포일동 539-10번지 삼우상가 3층 301호,302호","category":"학원 - 독서실"},{"name":"한사랑온누리약국","tel":"031-425-9512","addr":"경기도 의왕시 포일동 539-10번지 삼우상가 101호","category":"약국 - 약국"},{"name":"현대아울렛D/C마트","tel":"031-422-9062","addr":"경기도 의왕시 포일동 539-10번지 상우상가지층3호~4호 3","category":"유통업 영리 - 슈퍼마켓"}]},{"lat":"37.3963310818","long":"126.9852306773","items":[{"name":"S노래연습장","tel":"031-421-7488","addr":"경기도 의왕시 포일동 662-2번지 포일프라자 301,302호","category":"레저업소 - 노 래 방"},{"name":"가온약국","tel":"031-421-3939","addr":"경기도 의왕시 포일동 662-2번지 포일프라자 103호","category":"약국 - 약국"},{"name":"고봉민김밥인","tel":"031-424-7603","addr":"경기도 의왕시 포일동 662-2번지 포일프라자 106호","category":"일반휴게음식 - 스넥"},{"name":"다나은치과의원","tel":"031-421-7533","addr":"경기도 의왕시 포일동 662-2번지 포일프라자상가 404호","category":"의원 - 치과의원"},{"name":"드림존스크린골프","tel":"031-424-0725","addr":"경기도 의왕시 포일동 662-2번지 포일프라자 303,304,305호","category":"레저업소 - 스크린골프"},{"name":"매반생면 포일숲속마을점","tel":"031-421-0343","addr":"경기도 의왕시 포일동 662-2번지 포일프라자 1층 107호","category":"일반휴게음식 - 스넥"},{"name":"빽다방 의왕포일프라자점","tel":"031-422-7786","addr":"경기도 의왕시 포일동 662-2번지 포일프라자 101호","category":"일반휴게음식 - 서양음식"},{"name":"뽕차이","tel":"031-425-7042","addr":"경기도 의왕시 포일동 662-2번지","category":"일반휴게음식 - 중국식"},{"name":"신촌감자탕","tel":"031-422-7275","addr":"경기도 의왕시 포일동 662-2번지 포일프라자 204호","category":"일반휴게음식 - 일반한식"},{"name":"알당구장","tel":"031-421-0960","addr":"경기도 의왕시 포일동 662-2번지 포일프라자 504호","category":"레저업소 - 당 구 장"},{"name":"청담한의원","tel":"031-421-7272","addr":"경기도 의왕시 포일동 662-2번지 포일프라자 403호","category":"의원 - 한의원"},{"name":"초콜릿","tel":"070-2030-3557","addr":"경기도 의왕시 포일동 662-2번지 포일프라자 201,202호","category":"레저업소 - 기타레져업소"},{"name":"파리바게뜨포일2지구점","tel":"031-421-0095","addr":"경기도 의왕시 포일동 662-2 포일프라자 108호~109호","category":"음료식품 - 제과점"},{"name":"해법영어해법수학학원","tel":"031-423-0821","addr":"경기도 의왕시 포일동 662-2번지 포일프라자 1동 502호","category":"학원 - 보습학원"},{"name":"해법영어해법수학학원","tel":"031-423-0821","addr":"경기도 의왕시 포일동 662-2번지 포일프라자 1동 502호","category":"학원 - 보습학원"}]},{"lat":"37.3968085187","long":"126.9845868485","items":[{"name":"arom coffee","tel":"031-426-3216","addr":"경기도 의왕시 포일동 663-1번지 포일디오네 1층 107호","category":"일반휴게음식 - 서양음식"},{"name":"고기파티","tel":"031-423-9279","addr":"경기도 의왕시 포일동 663-1번지 포일디오네 201호 202","category":"일반휴게음식 - 일반한식"},{"name":"고양이발톱","tel":"031-381-5128","addr":"경기도 의왕시 포일동 663-1번지 포일디오네 2층 206호","category":"보건위생 - 피부미용실"},{"name":"꾸시야","tel":"031-000-0000","addr":"경기도 의왕시 포일동 663-1번지 포일디오네 1동 104호","category":"일반휴게음식 - 일반한식"},{"name":"놀부부대찌게","tel":"031-424-8254","addr":"경기도 의왕시 포일동 663-1번지 포일디오네 1동 209호","category":"일반휴게음식 - 일반한식"},{"name":"더맛닭","tel":"031-421-7505","addr":"경기도 의왕시 포일동 663-1번지 포일디오네 114호","category":"일반휴게음식 - 스넥"},{"name":"따숨","tel":"031-424-3771","addr":"경기도 의왕시 포일동 663-1번지 포일디오네 1동 118호","category":"일반휴게음식 - 일반한식"},{"name":"로맨틱 그녀","tel":"031-426-3216","addr":"경기도 의왕시 포일동 663-1번지 포일디오네 107호","category":"일반휴게음식 - 서양음식"},{"name":"불불이족발(포일점)","tel":"031-424-8885","addr":"경기도 의왕시 포일동 663-1번지 포일디오네 1층 120,121호","category":"일반휴게음식 - 일반한식"},{"name":"상상모리 뷰티헤어살롱","tel":"031-423-9011","addr":"경기도 의왕시 포일동 663-1번지 포일디오네 2층 203호","category":"보건위생 - 미용원"},{"name":"세븐일레븐의왕디오네점","tel":"","addr":"경기도 의왕시 포일동 663-1번지 포일디오네 108호","category":"유통업 영리 - 편 의 점"},{"name":"송광수산","tel":"031-421-0999","addr":"경기도 의왕시 포일동 663-1번지 포일디오네 1동 119호","category":"일반휴게음식 - 일반한식"},{"name":"오투닭갈비 앤 부대찌개","tel":"031-422-5883","addr":"경기도 의왕시 포일동 663-1번지 포일디오네 115, 116호","category":"일반휴게음식 - 일반한식"},{"name":"우아한나날","tel":"031-344-2778","addr":"경기도 의왕시 포일동 663-1번지 포일디오네 111,112호","category":"일반휴게음식 - 서양음식"},{"name":"월남선생","tel":"031-422-1478","addr":"경기도 의왕시 포일동 663-1번지 포일디오네 207호","category":"일반휴게음식 - 서양음식"},{"name":"정직한한우곰탕","tel":"031-421-0040","addr":"경기도 의왕시 포일동 663-1번지","category":"일반휴게음식 - 일반한식"},{"name":"족발예찬","tel":"031-685-5887","addr":"경기도 의왕시 포일동 663-1번지 포일디오네 1층 113호","category":"일반휴게음식 - 일반한식"},{"name":"코코테일","tel":"1661-4062-0000","addr":"경기도 의왕시 포일동 663-1번지 포일디오네 302호","category":"문화.취미 - 애완동물"},{"name":"탑지디알 (GDR)골프","tel":"031-772-0735","addr":"경기도 의왕시 포일동 663-1번지 포일디오네 1동 208호","category":"레져용품 - 골프용품 전문점"},{"name":"투투닥","tel":"031-349-2879","addr":"경기도 의왕시 포일동 663-1번지 포일디오네 1층 105호","category":"일반휴게음식 - 스넥"},{"name":"포일포차","tel":"031-422-7880","addr":"경기도 의왕시 포일동 663-1번지 포일디오네 1층 106호","category":"일반휴게음식 - 일반한식"},{"name":"한술","tel":"031-425-1107","addr":"경기도 의왕시 포일동 663-1번지 포일디오네 1층 110호","category":"일반휴게음식 - 일반한식"}]},{"lat":"37.3953579987","long":"126.9852760779","items":[{"name":"bhc치킨 의왕포일점","tel":"031-425-3232","addr":"경기도 의왕시 포일동 661-1번지 서울와이즈병원 1층 107호","category":"일반휴게음식 - 스넥"},{"name":"드림존(까사밍고)","tel":"031-1566-8460","addr":"경기도 의왕시 포일동 661-1번지","category":"일반휴게음식 - 일반한식"},{"name":"전자담배 아메리퀴드 안양의왕점","tel":"031-689-5989","addr":"경기도 의왕시 포일동 661-1번지 서울와이즈병원 101호","category":"기타 - 기타 전문점"},{"name":"주식회사 데일리마켓","tel":"031-426-6970","addr":"경기도 의왕시 포일동 661-1번지 1층","category":"음료식품 - 주류 판매점"},{"name":"주식회사 에코디자인","tel":"02-1566-8460","addr":"경기도 의왕시 포일동 661-1번지","category":"가구 - 일반가구"},{"name":"파파이스 의왕포일점","tel":"031-424-8824","addr":"경기도 의왕시 포일동 661-1번지 포일메디컬센터 102호 ,103,106호","category":"일반휴게음식 - 서양음식"}]},{"lat":"37.4012150389","long":"126.9888887679","items":[{"name":"가나다육(꽃내음)","tel":"070-4244-4032","addr":"경기도 의왕시 포일동 652번지 포일숲속마을","category":"문화.취미 - 화원"}]},{"lat":"37.3978083123","long":"126.9825876685","items":[{"name":"가위&손헤어샵","tel":"031-422-2130","addr":"경기도 의왕시 포일동 671-1번지 102호","category":"보건위생 - 미용원"},{"name":"바이잼 포슬린 페인팅","tel":"031-422-8815","addr":"경기도 의왕시 포일동 671-1번지 103호","category":"문화.취미 - 민예·공예품"},{"name":"스타일라인 주식회사","tel":"031-426-9877","addr":"경기도 의왕시 포일동 671-1번지 104호","category":"음료식품 - 농·축·수산품"}]},{"lat":"37.3877546339","long":"126.9968633671","items":[{"name":"갈릴리풍천장어","tel":"031-226-4025","addr":"경기도 의왕시 포일동 125-9번지 1층","category":"일반휴게음식 - 일반한식"}]},{"lat":"37.3982771369","long":"126.9844170888","items":[{"name":"갓플레이스","tel":"031-422-2015","addr":"경기도 의왕시 포일동 666-2번지","category":"일반휴게음식 - 일반한식"}]},{"lat":"37.3980245115","long":"126.9823391540","items":[{"name":"강호동백정","tel":"031-349-8321","addr":"경기도 의왕시 포일동 670-1번지","category":"일반휴게음식 - 일반한식"}]},{"lat":"37.3972768202","long":"126.9831976527","items":[{"name":"개성샤브손칼국수","tel":"031-423-2237","addr":"경기도 의왕시 포일동 673-1번지 101호","category":"일반휴게음식 - 일반한식"}]},{"lat":"37.4016655350","long":"126.9888209200","items":[{"name":"개인과외교습","tel":"","addr":"경기도 의왕시 포일동 652번지 포일숲속마을 203동 104호","category":"학원 - 기타 교육기관"},{"name":"정원유통","tel":"","addr":"경기도 의왕시 포일동 652번지 포일숲속마을 203동 1203호","category":"신변잡화 - 신발"},{"name":"푸른크리닝","tel":"031-426-2958","addr":"경기도 의왕시 포일동 652번지 포일숲속마을","category":"용역 서비스 - 종합용역"}]},{"lat":"37.3921688988","long":"126.9888114024","items":[{"name":"경기화훼꽃,란,직판장","tel":"031-425-2219","addr":"경기도 의왕시 포일동 241번지","category":"문화.취미 - 화원"}]},{"lat":"37.3881952785","long":"126.9874796910","items":[{"name":"경희무인항공교육원","tel":"031-422-0052","addr":"경기도 의왕시 포일동 155-2번지","category":"학원 - 기능학원"}]},{"lat":"37.3913040987","long":"126.9903134603","items":[{"name":"공간꽃아트","tel":"031-425-3948","addr":"경기도 의왕시 포일동 174-2번지","category":"문화.취미 - 화원"},{"name":"백조꽃란농원","tel":"031-426-1500","addr":"경기도 의왕시 포일동 174-2번지","category":"문화.취미 - 화원"}]},{"lat":"37.3921132192","long":"126.9787836070","items":[{"name":"굽네치킨","tel":"031-423-0919","addr":"경기도 의왕시 포일동 537-4번지 무주빌딩 1층","category":"일반휴게음식 - 스넥"},{"name":"놀PC방","tel":"070-2443-2989","addr":"경기도 의왕시 포일동 537-4번지 무주빌딩 지층","category":"레저업소 - 기타레져업소"},{"name":"떼루와 평촌점","tel":"031-426-8507","addr":"경기도 의왕시 포일동 537-4번지 무주빌딩 1층","category":"일반휴게음식 - 서양음식"},{"name":"비에이블 스터디카페 포일센터","tel":"031-1111-111","addr":"경기도 의왕시 포일동 537-4번지 2층","category":"용역 서비스 - 사무서비스"},{"name":"클로젯537","tel":"031-422-4455","addr":"경기도 의왕시 포일동 537-4번지 제1호","category":"의류 - 정장"},{"name":"핏아이언짐","tel":"031-423-0388","addr":"경기도 의왕시 포일동 537-4번지 무주빌딩 3층","category":"레저업소 - 헬스클럽"}]},{"lat":"37.3934479562","long":"126.9859427985","items":[{"name":"그린셀프세차장","tel":"070-8888-6082","addr":"경기도 의왕시 포일동 505-36","category":"자동차정비 유지 - 세차장"}]},{"lat":"37.3936101589","long":"126.9860895683","items":[{"name":"그린포스","tel":"031-421-0678","addr":"경기도 의왕시 포일동 505-121번지","category":"자동차정비 유지 - 자동차정비"}]},{"lat":"37.3925463637","long":"126.9822728937","items":[{"name":"극단 예미","tel":"","addr":"경기도 의왕시 포일동 518번지 의왕포일동동아에코빌아파트","category":"문화.취미 - 티켓"},{"name":"동아에코빌 공부방","tel":"031-344-1599","addr":"경기도 의왕시 포일동 518번지 의왕포일동동아에코빌아파트","category":"학원 - 보습학원"}]},{"lat":"37.3895834277","long":"126.9930351667","items":[{"name":"금호타이어형제대리점","tel":"031-421-5474","addr":"경기도 의왕시 포일동 109-3번지","category":"자동차정비 유지 - 자동차시트·타이어"}]},{"lat":"37.3905004780","long":"126.9791116010","items":[{"name":"김수연어학원","tel":"031-422-0582","addr":"경기도 의왕시 포일동 546번지 3층","category":"회원제형태 - 학원"},{"name":"늘솜동물병원","tel":"031-423-4033","addr":"경기도 의왕시 포일동 546번지 1층 3,4호","category":"기타의료기관 - 동물병원"},{"name":"복싱프라자의왕체육관","tel":"031-421-7989","addr":"경기도 의왕시 포일동 546번지 4층","category":"회원제형태 - 레져업소"},{"name":"삼보컴퓨터서비스센터","tel":"070-4194-4019","addr":"경기도 의왕시 포일동 546번지 지층","category":"레저업소 - 기타레져업소"},{"name":"세종광고기획","tel":"031-422-7777","addr":"경기도 의왕시 포일동 546번지 호성상가 105호","category":"용역 서비스 - 종합용역"},{"name":"오드리햅번","tel":"070-8945-3313","addr":"경기도 의왕시 포일동 546번지 2층","category":"보건위생 - 미용원"},{"name":"이화세라","tel":"","addr":"경기도 의왕시 포일동 546번지 호성상가 102호","category":"문화.취미 - 문화취미기타"},{"name":"컨츄리우드(레드바오밥트리)","tel":"031-422-4049","addr":"경기도 의왕시 포일동 546번지 호성상가 102호","category":"가구 - 기타가구"}]},{"lat":"37.3979433172","long":"126.9817519169","items":[{"name":"까치네식당","tel":"031-423-0260","addr":"경기도 의왕시 포일동 675-1번지 수인빌딩 1층 101호","category":"일반휴게음식 - 일반한식"}]},{"lat":"37.3981687294","long":"126.9826666256","items":[{"name":"까페씨드","tel":"031-426-3727","addr":"경기도 의왕시 포일동 670-3","category":"일반휴게음식 - 서양음식"},{"name":"주마등","tel":"031-424-3314","addr":"경기도 의왕시 포일동 670-3번지","category":"일반휴게음식 - 스넥"}]},{"lat":"37.3975020498","long":"126.9830620732","items":[{"name":"꼬지사께 (포일점)","tel":"031-421-0533","addr":"경기도 의왕시 포일동 672-4번지 1층","category":"일반휴게음식 - 주점"},{"name":"아뜰리에 스빠찌오","tel":"031-424-9155","addr":"경기도 의왕시 포일동 672-4번지 1층 101호","category":"문화.취미 - 문화취미기타"}]},{"lat":"37.3918626265","long":"126.9894212566","items":[{"name":"꽃네자람터","tel":"031-421-5336","addr":"경기도 의왕시 포일동 233-2번지","category":"문화.취미 - 화원"}]},{"lat":"37.4027012293","long":"126.9853421243","items":[{"name":"꽃들어린이집[아이행복]","tel":"031-425-7200","addr":"경기도 의왕시 포일동 645번지 포일숲속마을 301동 101호","category":"학원 - 유아원"}]},{"lat":"37.4017194916","long":"126.9879738588","items":[{"name":"꿈꾸는아이","tel":"031-341-9150","addr":"경기도 의왕시 포일동 652번지 포일숲속마을","category":"학원 - 기타 교육기관"}]},{"lat":"37.3980518366","long":"126.9841122206","items":[{"name":"꿈에그린스튜디오","tel":"070-4076-9619","addr":"경기도 의왕시 포일동 667-2번지 1층 지층","category":"광학제품 - 사진관"},{"name":"리숨요가","tel":"031-111-1111","addr":"경기도 의왕시 포일동 667-2번지 1층","category":"레저업소 - 헬스클럽"}]},{"lat":"37.3941958579","long":"126.9863943456","items":[{"name":"낙생초 남원추어탕","tel":"031-425-8200","addr":"경기도 의왕시 포일동 505-17번지","category":"일반휴게음식 - 일반한식"}]},{"lat":"37.3931409181","long":"126.9816403381","items":[{"name":"네이처 인테리어","tel":"031-423-0932","addr":"경기도 의왕시 포일동 523번지 인덕원대우아파트푸른마을 상가동 105호","category":"건축자재 - 인테리어전문"},{"name":"푸른세탁소","tel":"031-424-9098","addr":"경기도 의왕시 포일동 523 대우2단지상가 101호","category":"수리서비스 - 세탁소"}]},{"lat":"37.3919441965","long":"126.9946383996","items":[{"name":"네이처하모니","tel":"070-7501-2535","addr":"경기도 의왕시 포일동 84-5번지 다코빌리지 202호","category":"신변잡화 - 기타잡화"}]},{"lat":"37.3911132702","long":"126.9796421514","items":[{"name":"노리토리","tel":"031-427-9503","addr":"경기도 의왕시 포일동 643번지 제상가동 303-1호","category":"학원 - 기타 교육기관"},{"name":"두산세탁","tel":"031-422-9979","addr":"경기도 의왕시 포일동 643번지 위브호수마을2단지 상가동 111호","category":"수리서비스 - 세탁소"},{"name":"아이별어린이집[아이행복]","tel":"031-462-1109","addr":"경기도 의왕시 포일동 643번지","category":"학원 - 유아원"},{"name":"아임네일","tel":"031-422-5008","addr":"경기도 의왕시 포일동 643번지 위브호수마을2단지 상가동 110호","category":"보건위생 - 피부미용실"},{"name":"에스엘이(SLE)영어교습소","tel":"031-000-0000","addr":"경기도 의왕시 포일동 643번지 위브호수마을2단지","category":"학원 - 외국어학원"},{"name":"엘린피아노교습소","tel":"031-425-9133","addr":"경기도 의왕시 포일동 643 위브호수마을2단지 상가-203","category":"학원 - 예·체능계학원"},{"name":"예스유통","tel":"","addr":"경기도 의왕시 포일동 643번지 위브호수마을2단지 상가동 3층 303호","category":"보건위생 - 화장품"},{"name":"위브어린이집[아이행복]","tel":"031-423-9939","addr":"경기도 의왕시 포일동 643번지 위브호수마을2단지 관리동","category":"학원 - 유아원"},{"name":"인&인 미술","tel":"031-425-3989","addr":"경기도 의왕시 포일동 643번지 위브호수마을2단지 상가 204호","category":"학원 - 예·체능계학원"},{"name":"주문진산오징어","tel":"031-426-3503","addr":"경기도 의왕시 포일동 643번지 위브호수마을2단지 상가동 107호","category":"일반휴게음식 - 일반한식"},{"name":"플레이키즈스윙","tel":"031-421-3233","addr":"경기도 의왕시 포일동 643번지 두산위브호수마을2단지상가동지층비101호","category":"회원제형태 - 기타4"},{"name":"호수미용실","tel":"031-426-8877","addr":"경기도 의왕시 포일동 643번지 두산위브호수2단지 상가 103,104호","category":"보건위생 - 미용원"},{"name":"효주뷰티샵","tel":"031-423-6568","addr":"경기도 의왕시 포일동 643번지 202호 상가","category":"회원제형태 - 기타4"}]},{"lat":"37.3914480734","long":"126.9886647350","items":[{"name":"농업회사법인한밭농원 (주)","tel":"031-425-5089","addr":"경기도 의왕시 포일동 171번지 1층","category":"문화.취미 - 화원"},{"name":"한밭농원","tel":"031-425-5089","addr":"경기도 의왕시 포일동 171번지","category":"문화.취미 - 화원"}]},{"lat":"37.3924937851","long":"126.9942543899","items":[{"name":"다모아","tel":"","addr":"경기도 의왕시 포일동 84-11번지 청계빌리지 B동 403호","category":"유통업 영리 - 기타유통업"}]},{"lat":"37.3915836124","long":"126.9923686477","items":[{"name":"다향선","tel":"031-422-2357","addr":"경기도 의왕시 포일동 227-8번지","category":"음료식품 - 기타음료식품"}]},{"lat":"37.3981958455","long":"126.9831748253","items":[{"name":"달보드레","tel":"031-423-2007","addr":"경기도 의왕시 포일동 670-6번지 101호","category":"일반휴게음식 - 서양음식"},{"name":"육칠공(670)","tel":"031-421-6486","addr":"경기도 의왕시 포일동 670-6번지 1층","category":"일반휴게음식 - 서양음식"},{"name":"하윤옷방","tel":"070-7657-9375","addr":"경기도 의왕시 포일동 670-6번지 102호","category":"의류 - 정장"}]},{"lat":"37.3964120835","long":"126.9846434109","items":[{"name":"담소 소사골 순대(의왕포일점)","tel":"031-425-1821","addr":"경기도 의왕시 포일동 663-3번지 106호","category":"일반휴게음식 - 일반한식"},{"name":"마찌돈","tel":"031-422-7412","addr":"경기도 의왕시 포일동 663-3번지 유창씨밀레 103호","category":"일반휴게음식 - 일식·회집"},{"name":"브래들리","tel":"031-473-2222","addr":"경기도 의왕시 포일동 663-3번지 102호","category":"음료식품 - 제과점"},{"name":"신전떡볶이 포일점","tel":"031-424-1616","addr":"경기도 의왕시 포일동 663-3번지 유창씨밀레 1층 105호","category":"일반휴게음식 - 스넥"},{"name":"아이비스PC 포일점","tel":"","addr":"경기도 의왕시 포일동 663-3번지 유창씨밀레 1동 201호, 202호","category":"레저업소 - 기타레져업소"},{"name":"코코로","tel":"031-466-6285","addr":"경기도 의왕시 포일동 663-3번지 1층 104호","category":"일반휴게음식 - 일식·회집"},{"name":"플랜트 스터디 카페 의왕포일점","tel":"070-9262-2952","addr":"경기도 의왕시 포일동 663-3번지 1동 304호","category":"용역 서비스 - 사무서비스"},{"name":"하남돼지집","tel":"031-424-2866","addr":"경기도 의왕시 포일동 663-3번지 101호","category":"일반휴게음식 - 일반한식"}]},{"lat":"37.4010618062","long":"126.9883805701","items":[{"name":"대로상사","tel":"031-440-8745","addr":"경기도 의왕시 포일동 652번지 포일숲속마을","category":"수리서비스 - 기타수리서비스"}]},{"lat":"37.3971957106","long":"126.9830847405","items":[{"name":"대박공방","tel":"070-5425-6985","addr":"경기도 의왕시 포일동 673번지 1층","category":"신변잡화 - 액세서리"},{"name":"치킨매니아","tel":"031-422-9255","addr":"경기도 의왕시 포일동 673번지 1층","category":"일반휴게음식 - 스넥"}]},{"lat":"37.3936643352","long":"126.9869252240","items":[{"name":"대보식물원","tel":"031-421-4080","addr":"경기도 의왕시 포일동 505-117번지","category":"문화.취미 - 화원"},{"name":"외식하기 가장 좋은 집 의왕점","tel":"031-421-2299","addr":"경기도 의왕시 포일동 505-117번지 ,1,2층","category":"일반휴게음식 - 일반한식"}]},{"lat":"37.3894212835","long":"126.9934981669","items":[{"name":"대보식물원","tel":"031-421-4080","addr":"경기도 의왕시 포일동 109-11번지","category":"문화.취미 - 화원"},{"name":"명가화원","tel":"","addr":"경기도 의왕시 포일동 109-11번지","category":"문화.취미 - 화원"}]},{"lat":"37.3914739181","long":"126.9809180900","items":[{"name":"대웅시스템","tel":"031-591-3062","addr":"경기도 의왕시 포일동 539-5번지","category":"유통업 영리 - 기타유통업"},{"name":"아이뜰빅스맘어린이집[아이행복]","tel":"031-421-1504","addr":"경기도 의왕시 포일동 539-5번지 1층","category":"학원 - 유아원"}]},{"lat":"37.3967192911","long":"126.9915548148","items":[{"name":"대한민국 재향교정동우회서울지회","tel":"","addr":"경기도 의왕시 포일동 636번지 서울구치소","category":"서적문구 - 일반서적"}]},{"lat":"37.4040440782","long":"126.9878604544","items":[{"name":"더블유티씨에이(WTCA)","tel":"02-529-9400","addr":"경기도 의왕시 포일동 649번지 포일숲속마을아파트 506동 9층 904호","category":"회원제형태 - 레져업소"}]},{"lat":"37.3978622466","long":"126.9818648740","items":[{"name":"더빅","tel":"031-422-4414","addr":"경기도 의왕시 포일동 675-2번지 102호","category":"의류 - 정장"},{"name":"엠에스포스(MSPOSS)","tel":"070-8600-2178","addr":"경기도 의왕시 포일동 675-2번지 304호","category":"전기제품 - 기타전기제품"}]},{"lat":"37.3882501724","long":"126.9965358596","items":[{"name":"더스토어","tel":"031-426-5400","addr":"경기도 의왕시 포일동 117-4번지","category":"음료식품 - 정육점"}]},{"lat":"37.3976101973","long":"126.9832201523","items":[{"name":"더한우","tel":"031-426-2422","addr":"경기도 의왕시 포일동 672-5번지 1층","category":"일반휴게음식 - 일반한식"}]},{"lat":"37.3955292650","long":"126.9857842267","items":[{"name":"돈나와라뚝딱","tel":"031-425-4455","addr":"경기도 의왕시 포일동 660-3번지 104-106호","category":"일반휴게음식 - 일반한식"},{"name":"맛의공방","tel":"","addr":"경기도 의왕시 포일동 660-3번지 로얄시티 1층 103호","category":"일반휴게음식 - 일식·회집"},{"name":"몬스터유도 멀티클럽","tel":"031-422-1229","addr":"경기도 의왕시 포일동 660-3번지 로얄시티 3층 303호","category":"학원 - 예·체능계학원"},{"name":"빈체로포일점","tel":"031-421-4542","addr":"경기도 의왕시 포일동 660-3번지 상가동 1층 101,102호","category":"일반휴게음식 - 서양음식"},{"name":"티업 스크린골프","tel":"031-423-1313","addr":"경기도 의왕시 포일동 660-3번지 4층","category":"레저업소 - 스크린골프"},{"name":"한판스포츠","tel":"","addr":"경기도 의왕시 포일동 660-3번지 로얄시티 3층 304호","category":"레져용품 - 스포츠·레져용품"}]},{"lat":"37.3926996477","long":"126.9829278262","items":[{"name":"동아코킹","tel":"031-425-4764","addr":"경기도 의왕시 포일동 518번지 의왕포일동동아에코빌아파트","category":"회원제형태 - 기타4"}]},{"lat":"37.3858351888","long":"126.9926178669","items":[{"name":"동진사","tel":"031-452-8995","addr":"경기도 의왕시 포일동 142-7번지","category":"자동차정비 유지 - 자동차정비"},{"name":"백운주유소","tel":"031-426-3401","addr":"경기도 의왕시 포일동 142-7번지","category":"연료판매점 - SK주유소"}]},{"lat":"37.3976642124","long":"126.9829490964","items":[{"name":"디자인그곳","tel":"070-8803-0818","addr":"경기도 의왕시 포일동 672번지 102호","category":"건축자재 - 인테리어전문"}]},{"lat":"37.3875834419","long":"126.9968633808","items":[{"name":"디플레이그라운드(d:playground)","tel":"031-689-3201","addr":"경기도 의왕시 포일동 125-10번지 3층","category":"학원 - 기타 교육기관"},{"name":"마켓발견(Market 발견)","tel":"070-7755-5182","addr":"경기도 의왕시 포일동 125-10번지 1층","category":"신변잡화 - 기타잡화"},{"name":"주식회사 마켓발견","tel":"070-7755-5182","addr":"경기도 의왕시 포일동 125-10번지 1층","category":"신변잡화 - 기타잡화"}]},{"lat":"37.3915292835","long":"126.9896923359","items":[{"name":"떨기나무","tel":"031-422-9456","addr":"경기도 의왕시 포일동 172-1","category":"문화.취미 - 화원"},{"name":"정원플라워(구.텔레)","tel":"031-1588-2971","addr":"경기도 의왕시 포일동 172-1","category":"문화.취미 - 화원"},{"name":"한아름꽃","tel":"","addr":"경기도 의왕시 포일동 172-1번지","category":"문화.취미 - 화원"}]},{"lat":"37.3980243878","long":"126.9816389595","items":[{"name":"라솜 에스테틱","tel":"031-422-2328","addr":"경기도 의왕시 포일동 675번지 1층 101호","category":"보건위생 - 피부미용실"},{"name":"큰집","tel":"031-421-1008","addr":"경기도 의왕시 포일동 675번지 지하1층","category":"일반휴게음식 - 일반한식"}]},{"lat":"37.3917261075","long":"126.9804211457","items":[{"name":"라오니니 by 재이","tel":"","addr":"경기도 의왕시 포일동 539-1번지 1층 102호","category":"문화.취미 - 문화취미기타"},{"name":"마이로봇교습소","tel":"031-424-0130","addr":"경기도 의왕시 포일동 539-1번지 201호","category":"회원제형태 - 학원"},{"name":"이젠수학자기주도학습관","tel":"031-426-5064","addr":"경기도 의왕시 포일동 539-1번지 202호 302호","category":"회원제형태 - 학원"}]},{"lat":"37.3912773026","long":"126.9927526338","items":[{"name":"라이프커피로스터스","tel":"","addr":"경기도 의왕시 포일동 208-3번지 지하1,지상1층 B101호","category":"음료식품 - 기타음료식품"}]},{"lat":"37.4013770999","long":"126.9879061628","items":[{"name":"라츠커피(포일점)","tel":"031-426-1919","addr":"경기도 의왕시 포일동 652번지 103호, 104호","category":"일반휴게음식 - 서양음식"},{"name":"라츠커피(포일점)","tel":"031-426-1919","addr":"경기도 의왕시 포일동 652번지 103호,104호","category":"일반휴게음식 - 서양음식"},{"name":"시립포일 2단지어린이집[아이행복]","tel":"031-386-1715","addr":"경기도 의왕시 포일동 652번지 포일숲속마을2단지","category":"학원 - 유아원"}]},{"lat":"37.3984120876","long":"126.9831747686","items":[{"name":"러브이즈샤인","tel":"031-423-8253","addr":"경기도 의왕시 포일동 669번지 202호","category":"문화.취미 - 화원"},{"name":"스타일워시 디테일링샵","tel":"031-423-1474","addr":"경기도 의왕시 포일동 669번지 101호","category":"자동차정비 유지 - 카인테리어"}]},{"lat":"37.3908157490","long":"126.9787049758","items":[{"name":"러블리시안","tel":"","addr":"경기도 의왕시 포일동 638번지 위브호수마을1단지","category":"신변잡화 - 액세서리"},{"name":"하늘바위","tel":"031-667-0080","addr":"경기도 의왕시 포일동 638번지 위브호수마을1단지","category":"문화.취미 - 화원"},{"name":"헤리엇영어","tel":"070-8818-4945","addr":"경기도 의왕시 포일동 638번지 위브호수마을1단지","category":"학원 - 보습학원"}]},{"lat":"37.3967450035","long":"126.9819103592","items":[{"name":"레트로문","tel":"","addr":"경기도 의왕시 포일동 441-2번지 인덕원삼호아파트","category":"의류 - 정장"},{"name":"해누리어린이집[아이행복]","tel":"031-421-3331","addr":"경기도 의왕시 포일동 441-2번지 인덕원삼호아파트","category":"학원 - 유아원"}]},{"lat":"37.3941067771","long":"126.9973371593","items":[{"name":"로열핸즈 가죽공방(청계점)","tel":"031-000-0000","addr":"경기도 의왕시 포일동 58번지 호암빌라 1층 101호","category":"문화.취미 - 문화취미기타"},{"name":"사계절에어컨","tel":"","addr":"경기도 의왕시 포일동 58번지 호암빌라 202호","category":"용역 서비스 - 기타용역서비스"}]},{"lat":"37.3911041931","long":"126.9793033815","items":[{"name":"루미제이","tel":"070-8962-5097","addr":"경기도 의왕시 포일동 643번지 위브호수마을2단지","category":"신변잡화 - 액세서리"},{"name":"칼비테어린이집[아이행복]","tel":"031-424-8621","addr":"경기도 의왕시 포일동 643번지 위브호수마을2단지","category":"학원 - 유아원"}]},{"lat":"37.3918612115","long":"126.9801726696","items":[{"name":"루키","tel":"031-347-7141","addr":"경기도 의왕시 포일동 537-6번지 제소매점 107호","category":"의류 - 정장"},{"name":"서경앤황제","tel":"031-421-1552","addr":"경기도 의왕시 포일동 537-6번지 대영다세대 102,103호","category":"일반휴게음식 - 중국식"},{"name":"예쁜강아지","tel":"031-421-2208","addr":"경기도 의왕시 포일동 537-6번지 대영다세대 1층 105호","category":"문화.취미 - 애완동물"},{"name":"진복권방","tel":"031-424-7977","addr":"경기도 의왕시 포일동 537-6번지 대영다세대 108호","category":"음료식품 - 기타음료식품"},{"name":"크린토피아 포일두산위브점","tel":"031-425-4258","addr":"경기도 의왕시 포일동 537-6번지 대영다세대 106호","category":"수리서비스 - 세탁소"}]},{"lat":"37.4032781866","long":"126.9875895453","items":[{"name":"리틀포일어린이집[아이행복]","tel":"031-423-5288","addr":"경기도 의왕시 포일동 649번지 포일숲속마을","category":"학원 - 유아원"},{"name":"베리뷰인테리어디자인","tel":"02-4678-7876","addr":"경기도 의왕시 포일동 649번지 포일숲속마을 상가동 1층 102호","category":"건축자재 - 인테리어전문"},{"name":"베베문 아뜰리에","tel":"02-1111-1111","addr":"경기도 의왕시 포일동 649번지 포일숲속마을 상가동 103호","category":"문화.취미 - 문화취미기타"},{"name":"주식회사 더에이케이트래블","tel":"070-7752-5536","addr":"경기도 의왕시 포일동 649번지 포일숲속마을아파트 상가동 102호","category":"여행 - 관광여행"},{"name":"크린가가","tel":"031-425-3007","addr":"경기도 의왕시 포일동 649번지 포일숲속마을 상가동 1층 103호","category":"수리서비스 - 세탁소"}]},{"lat":"37.3975561889","long":"126.9835363813","items":[{"name":"마리(mari)","tel":"031-422-5106","addr":"경기도 의왕시 포일동 673-4번지 101호","category":"의류 - 정장"},{"name":"봉구비어 의왕포일점","tel":"031-421-6734","addr":"경기도 의왕시 포일동 673-4번지 102호","category":"일반휴게음식 - 주점"}]},{"lat":"37.3898624313","long":"126.9898394272","items":[{"name":"마마데하랑","tel":"070-4119-3276","addr":"경기도 의왕시 포일동 177-7번지","category":"신변잡화 - 기타잡화"},{"name":"생수농원","tel":"031-451-9493","addr":"경기도 의왕시 포일동 177-7번지","category":"문화.취미 - 화원"}]},{"lat":"37.4002778683","long":"126.9878950879","items":[{"name":"메르컴퓨터","tel":"031-479-1211","addr":"경기도 의왕시 포일동 656","category":"회원제형태 - 기타3"},{"name":"애플트리유치원[아이행복]","tel":"031-422-0020","addr":"경기도 의왕시 포일동 656번지","category":"학원 - 유치원"}]},{"lat":"37.3873035684","long":"126.9898963300","items":[{"name":"명석원","tel":"031-423-0005","addr":"경기도 의왕시 포일동 591-17번지","category":"문화.취미 - 화원"}]},{"lat":"37.3975560434","long":"126.9826667903","items":[{"name":"명태골","tel":"031-421-1120","addr":"경기도 의왕시 포일동 672-1번지 1층","category":"일반휴게음식 - 일반한식"},{"name":"명품아울렛","tel":"031-422-1330","addr":"경기도 의왕시 포일동 672-1번지 101호","category":"의류 - 정장"}]},{"lat":"37.3912768624","long":"126.9885066731","items":[{"name":"뭄 알러이","tel":"031-422-5889","addr":"경기도 의왕시 포일동 168-5번지","category":"일반휴게음식 - 서양음식"},{"name":"휠포스","tel":"","addr":"경기도 의왕시 포일동 168-5번지 2층","category":"자동차정비 유지 - 자동차시트·타이어"}]},{"lat":"37.3977005917","long":"126.9850722483","items":[{"name":"미드미 크리닝","tel":"040-8113-7273","addr":"경기도 의왕시 포일동 658번지 포일숲속마을휴먼시아","category":"용역 서비스 - 종합용역"}]},{"lat":"37.3916361062","long":"126.9809519202","items":[{"name":"미래바이오팜(주)","tel":"031-425-1197","addr":"경기도 의왕시 포일동 539-4번지 3층","category":"건강식품 - 기타건강식품"}]},{"lat":"37.3894482892","long":"126.9931932748","items":[{"name":"미소꽃화원","tel":"031-425-2217","addr":"경기도 의왕시 포일동 109-4","category":"문화.취미 - 화원"},{"name":"미소다육","tel":"031-425-2217","addr":"경기도 의왕시 포일동 109-4번지","category":"문화.취미 - 화원"},{"name":"플라월드","tel":"031-442-5727","addr":"경기도 의왕시 포일동 109-4","category":"문화.취미 - 화원"}]},{"lat":"37.3916101140","long":"126.9875354545","items":[{"name":"민물장어","tel":"031-423-9520","addr":"경기도 의왕시 포일동 168-1번지 3필지 2층","category":"일반휴게음식 - 일반한식"}]},{"lat":"37.3912756283","long":"126.9805567896","items":[{"name":"바른자세 스포츠 크리닉","tel":"","addr":"경기도 의왕시 포일동 643번지 위브호수마을2단지","category":"보건위생 - 기타대인서비스"},{"name":"원 타이어","tel":"031-221-0129","addr":"경기도 의왕시 포일동 643번지 위브호수마을2단지","category":"자동차정비 유지 - 자동차시트·타이어"}]},{"lat":"37.3980787685","long":"126.9835023665","items":[{"name":"바른치킨 의왕포일점","tel":"031-397-7500","addr":"경기도 의왕시 포일동 670-8번지","category":"일반휴게음식 - 스넥"}]},{"lat":"37.3948625133","long":"126.9857504992","items":[{"name":"박가부대 의왕포일점","tel":"031-422-8800","addr":"경기도 의왕시 포일동 499번지","category":"일반휴게음식 - 일반한식"}]},{"lat":"37.4020349308","long":"126.9886740281","items":[{"name":"발러전기렌지","tel":"","addr":"경기도 의왕시 포일동 652번지 포일숲속마을","category":"용역 서비스 - 기타용역서비스"}]},{"lat":"37.3905021547","long":"126.9898957780","items":[{"name":"백운중학교","tel":"031-425-3421","addr":"경기도 의왕시 포일동 170-1번지 백운중학교","category":"학원 - 초중고교육기관"}]},{"lat":"37.3871149204","long":"126.9969424611","items":[{"name":"백운축산","tel":"","addr":"경기도 의왕시 포일동 127-1번지","category":"음료식품 - 정육점"},{"name":"백운커피","tel":"070-7862-1697","addr":"경기도 의왕시 포일동 127-1번지 한솔농원 B동 1층","category":"일반휴게음식 - 서양음식"},{"name":"에덴플라워","tel":"031-425-4456","addr":"경기도 의왕시 포일동 127-1번지","category":"문화.취미 - 화원"},{"name":"해찬솔 조경","tel":"031-427-8231","addr":"경기도 의왕시 포일동 127-1번지","category":"문화.취미 - 화원"},{"name":"행복한뜰에","tel":"070-4223-5736","addr":"경기도 의왕시 포일동 127-1번지 한솔농원","category":"건축자재 - 인테리어전문"}]},{"lat":"37.3905022539","long":"126.9908330416","items":[{"name":"보라플라워","tel":"031-425-3650","addr":"경기도 의왕시 포일동 174-15번지","category":"문화.취미 - 화원"},{"name":"포일꽃농원","tel":"031-422-2316","addr":"경기도 의왕시 포일동 174-15번지","category":"문화.취미 - 화원"}]},{"lat":"37.3920958863","long":"126.9824311131","items":[{"name":"보물섬어린이집[아이행복]","tel":"031-421-5355","addr":"경기도 의왕시 포일동 518번지 의왕포일동동아에코빌아파트 101동 1층 102호","category":"학원 - 유아원"}]},{"lat":"37.3925821242","long":"126.9807257917","items":[{"name":"본가춘천닭갈비","tel":"031-423-9995","addr":"경기도 의왕시 포일동 531-9번지","category":"일반휴게음식 - 일반한식"},{"name":"싱싱청과야채","tel":"031-423-0202","addr":"경기도 의왕시 포일동 531-9번지 1층 C-101호,C-102호","category":"음료식품 - 농·축·수산품"}]},{"lat":"37.3973577982","long":"126.9825313232","items":[{"name":"본도시락","tel":"031-421-4282","addr":"경기도 의왕시 포일동 674-2번지 102호","category":"일반휴게음식 - 일반한식"}]},{"lat":"37.3918885490","long":"126.9818326648","items":[{"name":"본주방가구","tel":"031-423-7991","addr":"경기도 의왕시 포일동 519-4번지 E동 101호","category":"주방용구 - 주방용구"},{"name":"유영미헤어스케치","tel":"031-423-9985","addr":"경기도 의왕시 포일동 519-4번지 E동 201호","category":"보건위생 - 미용원"}]},{"lat":"37.3881415794","long":"126.9905624121","items":[{"name":"사랑농원","tel":"031-426-9131","addr":"경기도 의왕시 포일동 602-46번지","category":"문화.취미 - 화원"}]},{"lat":"37.3974478796","long":"126.9824183651","items":[{"name":"살롱드엠","tel":"031-423-7663","addr":"경기도 의왕시 포일동 674-1번지 102호","category":"보건위생 - 미용원"},{"name":"카페마르코","tel":"031-425-5370","addr":"경기도 의왕시 포일동 674-1번지 1층","category":"일반휴게음식 - 스넥"}]},{"lat":"37.3969430722","long":"126.9810633065","items":[{"name":"삼호사","tel":"031-425-1093","addr":"경기도 의왕시 포일동 441-2","category":"수리서비스 - 세탁소"},{"name":"숲속요요어린이집[아이행복]","tel":"031-422-8287","addr":"경기도 의왕시 포일동 441-2","category":"학원 - 유아원"},{"name":"온누리목화약국","tel":"031-424-1044","addr":"경기도 의왕시 포일동 441-2 삼호상가 107호","category":"약국 - 약국"},{"name":"지성독서실","tel":"031-424-0811","addr":"경기도 의왕시 포일동 441-2 삼호상가 4층1호","category":"학원 - 독서실"}]},{"lat":"37.3878897677","long":"126.9965245981","items":[{"name":"서울경금속안양대리점","tel":"031-423-5693","addr":"경기도 의왕시 포일동 125-1번지","category":"건축자재 - 보일러·펌프·샷시"},{"name":"와이드비전","tel":"031-424-4810","addr":"경기도 의왕시 포일동 125-1번지","category":"자동차정비 유지 - 카인테리어"},{"name":"카미고","tel":"031-422-5804","addr":"경기도 의왕시 포일동 125-1번지","category":"자동차정비 유지 - 자동차부품"}]},{"lat":"37.3910248489","long":"126.9909232972","items":[{"name":"서천농원","tel":"031-425-1413","addr":"경기도 의왕시 포일동 174-5","category":"문화.취미 - 화원"}]},{"lat":"37.3864209782","long":"126.9942776699","items":[{"name":"성원플라워","tel":"031-423-8855","addr":"경기도 의왕시 포일동 134-6","category":"문화.취미 - 화원"}]},{"lat":"37.3879978784","long":"126.9963326257","items":[{"name":"송학푸드(주)","tel":"031-467-8298","addr":"경기도 의왕시 포일동 125-6번지","category":"음료식품 - 기타음료식품"}]},{"lat":"37.4038906113","long":"126.9856919715","items":[{"name":"숲 헤어","tel":"031-424-7326","addr":"경기도 의왕시 포일동 645번지 포일숲속마을아파트 상가동 101호","category":"보건위생 - 미용원"},{"name":"숲속더샵피아노음악교습소","tel":"031-424-7696","addr":"경기도 의왕시 포일동 645번지 포일숲속마을아파트 상가동 202호","category":"학원 - 예·체능계학원"},{"name":"키즈빌어린이집[아이행복]","tel":"031-426-7007","addr":"경기도 의왕시 포일동 645번지 포일숲속마을3단지 관리동","category":"학원 - 유아원"}]},{"lat":"37.4011332967","long":"126.9841792153","items":[{"name":"숲속할인마트","tel":"031-421-6460","addr":"경기도 의왕시 포일동 646번지 포일숲속마을 상가동 103호","category":"유통업 영리 - 슈퍼마켓"},{"name":"시연헤어","tel":"031-421-7787","addr":"경기도 의왕시 포일동 646번지 포일숲속마을 상가동 105호","category":"보건위생 - 미용원"},{"name":"포일숲어린이집[아이행복]","tel":"031-424-0057","addr":"경기도 의왕시 포일동 646번지 4단지 포일숲속마을","category":"학원 - 유아원"},{"name":"피아노스토리 음악교습소","tel":"031-421-8252","addr":"경기도 의왕시 포일동 646 숲속마을상가 106호","category":"학원 - 예·체능계학원"}]},{"lat":"37.3966636474","long":"126.9804648450","items":[{"name":"스카이플라워","tel":"02-2614-3736","addr":"경기도 의왕시 포일동 441-2번지 인덕원삼호아파트","category":"문화.취미 - 화원"}]},{"lat":"37.3943850382","long":"126.9861684458","items":[{"name":"시골향기 인덕원포일점","tel":"031-421-6001","addr":"경기도 의왕시 포일동 503-1번지 2층","category":"일반휴게음식 - 일반한식"}]},{"lat":"37.3978894263","long":"126.9827231679","items":[{"name":"신(  )청진동해장국","tel":"031-426-5053","addr":"경기도 의왕시 포일동 671-2번지","category":"일반휴게음식 - 일반한식"},{"name":"큐미","tel":"031-425-7594","addr":"경기도 의왕시 포일동 671-2번지","category":"보건위생 - 화장품"}]},{"lat":"37.3906105035","long":"126.9921655214","items":[{"name":"신림면옥","tel":"031-423-3131","addr":"경기도 의왕시 포일동 203-3번지","category":"일반휴게음식 - 일반한식"}]},{"lat":"37.3979165233","long":"126.9831184312","items":[{"name":"씨유의왕포일원룸점","tel":"031-425-0822","addr":"경기도 의왕시 포일동 671-5번지","category":"유통업 영리 - 편 의 점"}]},{"lat":"37.3981146417","long":"126.9825085315","items":[{"name":"아이비","tel":"031-424-5944","addr":"경기도 의왕시 포일동 670-2번지 조안빌딩 101호","category":"일반휴게음식 - 스넥"},{"name":"테라스크린","tel":"031-422-8884","addr":"경기도 의왕시 포일동 670-2번지 103호","category":"수리서비스 - 세탁소"},{"name":"헤어보떼","tel":"031-422-3037","addr":"경기도 의왕시 포일동 670-2번지 102호","category":"보건위생 - 미용원"}]},{"lat":"37.4012415758","long":"126.9852069373","items":[{"name":"아이숲속어린이집[아이행복]","tel":"031-374-1558","addr":"경기도 의왕시 포일동 646번지 포일숲속마을 401동 101호","category":"학원 - 유아원"}]},{"lat":"37.3971686288","long":"126.9827798277","items":[{"name":"안경마루","tel":"031-387-2004","addr":"경기도 의왕시 포일동 674-4번지","category":"보건위생 - 안경"}]},{"lat":"37.3923571908","long":"126.9824987978","items":[{"name":"앤씨헤어필","tel":"031-424-9771","addr":"경기도 의왕시 포일동 518동아에코빌상가101","category":"보건위생 - 미용원"}]},{"lat":"37.3979436976","long":"126.9839993131","items":[{"name":"야끼니꾸 풍경","tel":"031-421-1292","addr":"경기도 의왕시 포일동 667-1번지 1층","category":"일반휴게음식 - 일반한식"}]},{"lat":"37.3916630901","long":"126.9807034772","items":[{"name":"양문아가피아인성학원","tel":"031-426-1432","addr":"경기도 의왕시 포일동 539-2번지 3층","category":"학원 - 보습학원"}]},{"lat":"37.3906104574","long":"126.9916686581","items":[{"name":"양지 (Sunny Place)","tel":"031-422-2831","addr":"경기도 의왕시 포일동 207-19번지","category":"일반휴게음식 - 서양음식"}]},{"lat":"37.3921689504","long":"126.9892518131","items":[{"name":"양지뜰","tel":"031-423-5293","addr":"경기도 의왕시 포일동 235-2번지","category":"음료식품 - 정육점"},{"name":"유토","tel":"031-422-3826","addr":"경기도 의왕시 포일동 235-2","category":"건축자재 - 인테리어전문"}]},{"lat":"37.3907185656","long":"126.9915331336","items":[{"name":"양지정원","tel":"031-422-2831","addr":"경기도 의왕시 포일동 207-2번지","category":"음료식품 - 기타음료식품"},{"name":"충남농원","tel":"031-25-1413","addr":"경기도 의왕시 포일동 207-2번지","category":"문화.취미 - 화원"}]},{"lat":"37.3915024355","long":"126.9914426755","items":[{"name":"양지편","tel":"031-425-8881","addr":"경기도 의왕시 포일동 228-2번지","category":"일반휴게음식 - 일반한식"}]},{"lat":"37.3916632966","long":"126.9818327278","items":[{"name":"어머니빈대떡","tel":"031-421-5143","addr":"경기도 의왕시 포일동 559-3번지 1층","category":"일반휴게음식 - 일반한식"},{"name":"청화세차장","tel":"031-425-6436","addr":"경기도 의왕시 포일동 559-3번지","category":"자동차정비 유지 - 세차장"},{"name":"청화카센타","tel":"031-421-8277","addr":"경기도 의왕시 포일동 559-3번지","category":"자동차정비 유지 - 자동차정비"}]},{"lat":"37.3940437249","long":"126.9977437071","items":[{"name":"에덴하우징","tel":"070-7864-1177","addr":"경기도 의왕시 포일동 57번지 삼성프라임 가동 401호","category":"건축자재 - 인테리어전문"}]},{"lat":"37.3982500006","long":"126.9837507793","items":[{"name":"에이전시하우","tel":"","addr":"경기도 의왕시 포일동 668번지","category":"수리서비스 - 세탁소"},{"name":"캠핑밸리","tel":"070-4223-4597","addr":"경기도 의왕시 포일동 668번지","category":"레져용품 - 스포츠·레져용품"}]},{"lat":"37.3960786627","long":"126.9843385762","items":[{"name":"에이치엘사이언스 빌딩관리사무소","tel":"031-423-3809","addr":"경기도 의왕시 포일동 664-2번지","category":"자동차정비 유지 - 주차장"}]},{"lat":"37.3981963193","long":"126.9862579470","items":[{"name":"에코미스트 스프린터투어러서비스","tel":"","addr":"경기도 의왕시 포일동 658번지 포일숲속마을휴먼시아 102동 1406호","category":"여행 - 관광여행"}]},{"lat":"37.3980520755","long":"126.9856820122","items":[{"name":"엘림","tel":"031-424-2901","addr":"경기도 의왕시 포일동 658번지 포일숲속마을휴먼시아","category":"보건위생 - 기타대인서비스"}]},{"lat":"37.3882771177","long":"126.9951130655","items":[{"name":"영산강민물장어","tel":"031-426-3311","addr":"경기도 의왕시 포일동 119번지 영산강민물장어","category":"일반휴게음식 - 일반한식"},{"name":"영산강식당","tel":"031-426-3311","addr":"경기도 의왕시 포일동 119번지","category":"일반휴게음식 - 일반한식"}]},{"lat":"37.3923046593","long":"126.9955304758","items":[{"name":"예가온 English","tel":"","addr":"경기도 의왕시 포일동 78번지 청호빌 101호","category":"학원 - 기타 교육기관"}]},{"lat":"37.3909691330","long":"126.9797664123","items":[{"name":"예명DIY아카데미","tel":"031-396-5377","addr":"경기도 의왕시 포일동 643번지 위브호수마을2단지","category":"문화.취미 - 민예·공예품"}]},{"lat":"37.3970242045","long":"126.9812891492","items":[{"name":"예미안버스","tel":"031-424-3444","addr":"경기도 의왕시 포일동 441-2번지 인덕원삼호 2동 104호","category":"여행 - 관광여행"}]},{"lat":"37.3931861060","long":"126.9824195241","items":[{"name":"예주무역안양지사","tel":"031-424-0749","addr":"경기도 의왕시 포일동 523번지 인덕원대우아파트푸른마을","category":"회원제형태 - 기타3"}]},{"lat":"37.3901959635","long":"126.9913638281","items":[{"name":"예화농원","tel":"031-426-1605","addr":"경기도 의왕시 포일동 206-3","category":"문화.취미 - 화원"},{"name":"예화플라워","tel":"031-426-1606","addr":"경기도 의왕시 포일동 206-3 예화농원","category":"문화.취미 - 화원"}]},{"lat":"37.3978355548","long":"126.9838638190","items":[{"name":"옌 차이나","tel":"031-422-5579","addr":"경기도 의왕시 포일동 667번지 1층","category":"일반휴게음식 - 중국식"},{"name":"크린토피아 숲속마을점","tel":"031-422-9900","addr":"경기도 의왕시 포일동 667번지 101호","category":"수리서비스 - 세탁소"}]},{"lat":"37.3979977053","long":"126.9836717893","items":[{"name":"오이시쿠","tel":"031-422-5219","addr":"경기도 의왕시 포일동 670-9번지 102호","category":"일반휴게음식 - 일반한식"},{"name":"포일떡집","tel":"031-442-4846","addr":"경기도 의왕시 포일동 670-9번지","category":"음료식품 - 제과점"}]},{"lat":"37.3908626976","long":"126.9912282174","items":[{"name":"용인조경화훼총판장","tel":"031-425-8681","addr":"경기도 의왕시 포일동 207-9","category":"문화.취미 - 화원"}]},{"lat":"37.3979164815","long":"126.9828699754","items":[{"name":"우정곱창","tel":"031-421-2370","addr":"경기도 의왕시 포일동 671-3번지 명관III 103호","category":"일반휴게음식 - 일반한식"}]},{"lat":"37.3987455426","long":"126.9836715983","items":[{"name":"월드건설중기","tel":"031-346-0415","addr":"경기도 의왕시 포일동 455-1번지","category":"기타 - 기계공구"}]},{"lat":"37.3923295641","long":"126.9792917050","items":[{"name":"유니나 홈케어","tel":"070-4251-9799","addr":"경기도 의왕시 포일동 537-15번지 삼성래미안아파트","category":"신변잡화 - 기타잡화"}]},{"lat":"37.3938083535","long":"126.9858975460","items":[{"name":"유송조경","tel":"031-421-1339","addr":"경기도 의왕시 포일동 504-3","category":"건축자재 - 인테리어전문"}]},{"lat":"37.3925021700","long":"126.9879756852","items":[{"name":"은미정","tel":"031-422-9964","addr":"경기도 의왕시 포일동 243-7번지","category":"일반휴게음식 - 일반한식"}]},{"lat":"37.3979163708","long":"126.9822262491","items":[{"name":"이레정보통신","tel":"031-422-9530","addr":"경기도 의왕시 포일동 670번지 1층 101호","category":"사무통신 - 통신기기"}]},{"lat":"37.3991061034","long":"126.9846653451","items":[{"name":"인덕원승마클럽","tel":"031-423-3232","addr":"경기도 의왕시 포일동 438 외6필지","category":"레저업소 - 기타레져업소"}]},{"lat":"37.3916903669","long":"126.9820585704","items":[{"name":"일점영안경","tel":"031-421-9010","addr":"경기도 의왕시 포일동 519-3번지","category":"보건위생 - 안경"}]},{"lat":"37.3901419428","long":"126.9917816507","items":[{"name":"자바","tel":"031-257-4585","addr":"경기도 의왕시 포일동 204","category":"가구 - 기타가구"}]},{"lat":"37.3936275236","long":"126.9819789848","items":[{"name":"장원골드","tel":"02-3674-1247","addr":"경기도 의왕시 포일동 523번지 인덕원대우아파트푸른마을","category":"유통업 영리 - 기타유통업"},{"name":"하모니피아노","tel":"031-422-8187","addr":"경기도 의왕시 포일동 523번지 인덕원대우상가 201동 202호","category":"학원 - 예·체능계학원"}]},{"lat":"37.3899707562","long":"126.9918381372","items":[{"name":"정가네 큰 왕갈비탕","tel":"031-425-3803","addr":"경기도 의왕시 포일동 200-3번지","category":"일반휴게음식 - 일반한식"}]},{"lat":"37.3901689571","long":"126.9916122625","items":[{"name":"조경인테리어","tel":"070-7614-3579","addr":"경기도 의왕시 포일동 206-2번지","category":"문화.취미 - 화원"}]},{"lat":"37.3974750796","long":"126.9834234684","items":[{"name":"조이마루","tel":"031-422-7388","addr":"경기도 의왕시 포일동 673-3번지 인덕빌딩 1층","category":"일반휴게음식 - 일반한식"}]},{"lat":"37.3912935427","long":"126.9800034541","items":[{"name":"주식회사 마라피키","tel":"070-5015-0998","addr":"경기도 의왕시 포일동 643번지 위브호수마을2단지","category":"문화.취미 - 애완동물"}]},{"lat":"37.3940517074","long":"126.9864734272","items":[{"name":"주식회사가든갤러리","tel":"031-426-2009","addr":"경기도 의왕시 포일동 505-18번지","category":"문화.취미 - 화원"}]},{"lat":"37.3926100221","long":"126.9859768651","items":[{"name":"중앙ACM","tel":"031-423-0773","addr":"경기도 의왕시 포일동 506-2번지 1층 102호 캐리어에어컨","category":"전기제품 - 냉열기기"}]},{"lat":"37.3935571036","long":"126.9962192136","items":[{"name":"지밥","tel":"02-1899-2718","addr":"경기도 의왕시 포일동 67-1번지 103호","category":"의류 - 정장"}]},{"lat":"37.3976372963","long":"126.9836380011","items":[{"name":"지브릭커피","tel":"02-1899-2192","addr":"경기도 의왕시 포일동 673-5번지 1층","category":"일반휴게음식 - 서양음식"}]},{"lat":"37.3882494985","long":"126.9887556753","items":[{"name":"진선미꽃농원","tel":"031-423-0637","addr":"경기도 의왕시 포일동 156-3번지","category":"문화.취미 - 화원"}]},{"lat":"37.3918893870","long":"126.9872304990","items":[{"name":"진우자동차정비","tel":"031-422-7585","addr":"경기도 의왕시 포일동 509-3번지 외1필지","category":"자동차정비 유지 - 자동차정비"},{"name":"청계카공업사","tel":"031-424-1010","addr":"경기도 의왕시 포일동 509-3번지","category":"자동차정비 유지 - 자동차정비"}]},{"lat":"37.3975559771","long":"126.9822828150","items":[{"name":"진지방순대국","tel":"031-421-9925","addr":"경기도 의왕시 포일동 674번지 포일2지구A10블록1로트","category":"일반휴게음식 - 일반한식"}]},{"lat":"37.3906444521","long":"126.9781968749","items":[{"name":"참뜰어린이집[아이행복]","tel":"031-423-2996","addr":"경기도 의왕시 포일동 638번지 위브호수마을1단지","category":"학원 - 유아원"}]},{"lat":"37.3890880292","long":"126.9951468581","items":[{"name":"천지농원","tel":"031-424-6332","addr":"경기도 의왕시 포일동 111-6번지","category":"문화.취미 - 화원"}]},{"lat":"37.3895831057","long":"126.9897265537","items":[{"name":"청계농원","tel":"031-426-2055","addr":"경기도 의왕시 포일동 602-41 4호","category":"문화.취미 - 화원"}]},{"lat":"37.3885835211","long":"126.9960841497","items":[{"name":"청계동주민자치위원회","tel":"031-423-2966","addr":"경기도 의왕시 포일동 602-15번지","category":"문화.취미 - 문화취미기타"}]},{"lat":"37.3936912417","long":"126.9860330862","items":[{"name":"청계석재조경","tel":"031-423-5952","addr":"경기도 의왕시 포일동 505-120번지","category":"건축자재 - 목재·석재·철물"}]},{"lat":"37.3950249822","long":"126.9878622553","items":[{"name":"청계흑염소","tel":"031-426-0305","addr":"경기도 의왕시 포일동 249-3번지","category":"일반휴게음식 - 일반한식"}]},{"lat":"37.3962581373","long":"126.9801713427","items":[{"name":"최초","tel":"070-4655-1096","addr":"경기도 의왕시 포일동 441-2번지 인덕원삼호아파트","category":"신변잡화 - 기타잡화"}]},{"lat":"37.3933578762","long":"126.9860896246","items":[{"name":"카웍스공임나라","tel":"031-423-9842","addr":"경기도 의왕시 포일동 505-39번지 금호빌딩 1층","category":"자동차정비 유지 - 자동차정비"}]},{"lat":"37.3970785471","long":"126.9828927849","items":[{"name":"카페루앤비 (의왕포일점)","tel":"031-421-5933","addr":"경기도 의왕시 포일동 674-5번지","category":"일반휴게음식 - 서양음식"}]},{"lat":"37.3920252641","long":"126.9943109065","items":[{"name":"코리아딜레마게임즈(Korea dilemme-games)","tel":"031-422-6784","addr":"경기도 의왕시 포일동 87-20번지 열린하우스2 B동 3층 301호","category":"서적문구 - 일반서적"}]},{"lat":"37.3956377110","long":"126.9882009261","items":[{"name":"클래식(CLASSIC)","tel":"031-441-2220","addr":"경기도 의왕시 포일동 250","category":"일반휴게음식 - 서양음식"}]},{"lat":"37.3916372359","long":"126.9882581692","items":[{"name":"타이어100프로","tel":"031-422-2320","addr":"경기도 의왕시 포일동 242-21번지","category":"자동차정비 유지 - 자동차시트·타이어"}]},{"lat":"37.3931689992","long":"126.9886418244","items":[{"name":"탑포인트(TOP POINT)","tel":"031-424-1120","addr":"경기도 의왕시 포일동 243-9번지 1,2층","category":"일반휴게음식 - 일반한식"}]},{"lat":"37.3977814226","long":"126.9834233892","items":[{"name":"택이네조개전골","tel":"031-452-3839","addr":"경기도 의왕시 포일동 671-7번지 1층","category":"일반휴게음식 - 일반한식"}]},{"lat":"37.3915833690","long":"126.9899181764","items":[{"name":"텔레플라워","tel":"031-448-9000","addr":"경기도 의왕시 포일동 174-1","category":"문화.취미 - 화원"}]},{"lat":"37.4016919182","long":"126.9841564884","items":[{"name":"톡투유 성인영어","tel":"070-4065-9601","addr":"경기도 의왕시 포일동 646번지 포일숲속마을","category":"학원 - 기타 교육기관"},{"name":"해외잡화","tel":"","addr":"경기도 의왕시 포일동 646번지 포일숲속마을 408동 601호","category":"신변잡화 - 기타잡화"}]},{"lat":"37.3973394742","long":"126.9808373244","items":[{"name":"팀씨에스알(Team CSR)","tel":"070-4418-2925","addr":"경기도 의왕시 포일동 441-2번지 인덕원삼호아파트","category":"회원제형태 - 기타4"}]},{"lat":"37.3961418360","long":"126.9850048582","items":[{"name":"팀타이거짐 8호점","tel":"031-111-1111","addr":"경기도 의왕시 포일동 662-1번지","category":"레저업소 - 헬스클럽"},{"name":"행복목회연구소","tel":"031-421-1025","addr":"경기도 의왕시 포일동 662-1번지 의왕농협포일지점 3층","category":"용역 서비스 - 사무서비스"}]},{"lat":"37.3978624891","long":"126.9832765535","items":[{"name":"펀비어킹","tel":"031-426-0242","addr":"경기도 의왕시 포일동 671-6번지","category":"일반휴게음식 - 주점"}]},{"lat":"37.3921145337","long":"126.9864512645","items":[{"name":"포일GOLF연습장","tel":"031-423-7373","addr":"경기도 의왕시 포일동 510-7번지","category":"레저업소 - 골프연습장"},{"name":"포일골프존스크린","tel":"031-424-7373","addr":"경기도 의왕시 포일동 510-7번지 3층","category":"레저업소 - 스크린골프"}]},{"lat":"37.3992504154","long":"126.9856704445","items":[{"name":"포일초등학교","tel":"031-422-0244","addr":"경기도 의왕시 포일동 647번지 포일초등학교","category":"학원 - 초중고교육기관"}]},{"lat":"37.3920252095","long":"126.9935881826","items":[{"name":"플레이아트","tel":"","addr":"경기도 의왕시 포일동 87-14번지 선영필하우스 101동 201호","category":"학원 - 예·체능계학원"}]},{"lat":"37.3983580812","long":"126.9835022946","items":[{"name":"하니컬렉션","tel":"031-446-9582","addr":"경기도 의왕시 포일동 669-2번지 상가 1층 101호","category":"의류 - 정장"}]},{"lat":"37.3887541950","long":"126.9898960797","items":[{"name":"학림원","tel":"031-425-8607","addr":"경기도 의왕시 포일동 602-45.602-46","category":"문화.취미 - 화원"}]},{"lat":"37.3925640012","long":"126.9801837502","items":[{"name":"한결기획","tel":"","addr":"경기도 의왕시 포일동 533-1번지 한일나래아파트","category":"용역 서비스 - 종합용역"}]},{"lat":"37.3930778918","long":"126.9818887957","items":[{"name":"한국가이던스 학습코칭센터","tel":"","addr":"경기도 의왕시 포일동 523번지 인덕원대우아파트푸른마을","category":"서적문구 - 일반서적"}]},{"lat":"37.4012509036","long":"126.9874770181","items":[{"name":"한국공예체험문화협회","tel":"031-426-2040","addr":"경기도 의왕시 포일동 652번지 포일숲속마을","category":"문화.취미 - 문화취미기타"}]},{"lat":"37.3927190275","long":"126.9941188521","items":[{"name":"한정식뜰안채2","tel":"031-424-7200","addr":"경기도 의왕시 포일동 85-1번지","category":"일반휴게음식 - 일반한식"}]},{"lat":"37.3996922468","long":"126.9881662536","items":[{"name":"해찬숲키즈어린이집[아이행복]","tel":"031-442-0070","addr":"경기도 의왕시 포일동 656-2번지","category":"학원 - 유아원"}]},{"lat":"37.3981688415","long":"126.9833329411","items":[{"name":"헤어에스","tel":"031-425-2441","addr":"경기도 의왕시 포일동 670-7번지","category":"보건위생 - 미용원"}]},{"lat":"37.3977181920","long":"126.9824747586","items":[{"name":"화로본갈비","tel":"031-421-8594","addr":"경기도 의왕시 포일동 671번지","category":"일반휴게음식 - 일반한식"}]},{"lat":"37.3948895761","long":"126.9859763529","items":[{"name":"화통삼(포일동점)","tel":"031-422-9242","addr":"경기도 의왕시 포일동 499-2번지","category":"일반휴게음식 - 일반한식"}]},{"lat":"37.3925021982","long":"126.9882015379","items":[{"name":"회관매점","tel":"031-425-7084","addr":"경기도 의왕시 포일동 243-14번지 청계6통마을회관내","category":"음료식품 - 기타음료식품"}]}]