[{"lat":"37.052656265","long":"127.41219401","items":[{"name":"(주)빅바이오젠","tel":"031-674-3228","addr":"경기도 안성시 죽산면 장계리 616","category":"문화.취미 - 애완동물"}]},{"lat":"37.058717589","long":"127.41038273","items":[{"name":"(주)신동서건업","tel":"031-676-8812","addr":"경기도 안성시 죽산면 장계리 179-8번지","category":"건축자재 - 목재·석재·철물"}]},{"lat":"37.045940021","long":"127.40527845","items":[{"name":"(주)안성탑클래스본원","tel":"031-677-7120","addr":"경기도 안성시 죽산면 장계리 695-1번지","category":"회원제형태 - 학원"},{"name":"상아탑기숙식당","tel":"031-678-9400","addr":"경기도 안성시 죽산면 장계리 695-1번지","category":"일반휴게음식 - 위탁급식업"},{"name":"주식회사죽산","tel":"031-676-1100","addr":"경기도 안성시 죽산면 장계리 695-1번지","category":"회원제형태 - 학원"}]},{"lat":"37.053295925","long":"127.41221993","items":[{"name":"(주)와이케이내쇼날","tel":"02-917-1277","addr":"경기도 안성시 죽산면 장계리 255-1","category":"신변잡화 - 기타잡화"}]},{"lat":"37.044190667","long":"127.40566264","items":[{"name":"(주)한일","tel":"031-674-9117","addr":"경기도 안성시 죽산면 장계리 736-4번지","category":"레저업소 - 골프경기장"}]},{"lat":"37.056822665","long":"127.41117082","items":[{"name":"MARRE(마레)","tel":"031-591-4620","addr":"경기도 안성시 죽산면 장계리 211-1번지","category":"레져용품 - 스포츠·레져용품"}]},{"lat":"37.044495001","long":"127.4167252","items":[{"name":"그랑벨리모텔","tel":"031-674-4860","addr":"경기도 안성시 죽산면 장계리 771번지","category":"숙박업 - 여관/기타숙박업"}]},{"lat":"37.054243449","long":"127.41180905","items":[{"name":"몽마르뜨","tel":"031-676-4394","addr":"경기도 안성시 죽산면 장계리 250번지","category":"일반휴게음식 - 일반한식"}]},{"lat":"37.045304098","long":"127.40680386","items":[{"name":"믿음공업사","tel":"031-336-3729","addr":"경기도 안성시 죽산면 장계리 739-1, 2번지","category":"건축자재 - 목재·석재·철물"}]},{"lat":"37.053602931","long":"127.40941104","items":[{"name":"삼목상사","tel":"031-677-6644","addr":"경기도 안성시 죽산면 장계리 238-4번지","category":"건축자재 - 기타건축자재"}]},{"lat":"37.043415477","long":"127.41622475","items":[{"name":"샷모텔","tel":"031-672-6188","addr":"경기도 안성시 죽산면 장계리 776번지","category":"숙박업 - 여관/기타숙박업"}]},{"lat":"37.063382384","long":"127.40588776","items":[{"name":"솔로몬 테크놀로지","tel":"031-671-9733","addr":"경기도 안성시 죽산면 장계리 2-1번지 가동","category":"용역 서비스 - 기타용역서비스"},{"name":"창대무역","tel":"031-676-8971","addr":"경기도 안성시 죽산면 장계리 2-1번지 나동","category":"자동차정비 유지 - 자동차부품"}]},{"lat":"37.058183","long":"127.41124557","items":[{"name":"신동서조경목재","tel":"031-676-8813","addr":"경기도 안성시 죽산면 장계리 179-6 외3필지","category":"건축자재 - 기타건축자재"}]},{"lat":"37.05129806","long":"127.41150097","items":[{"name":"신토불이가든","tel":"031-676-0240","addr":"경기도 안성시 죽산면 장계리 613-6번지","category":"일반휴게음식 - 일반한식"}]},{"lat":"37.050938418","long":"127.4112742","items":[{"name":"씨유안성장계리점","tel":"031-672-4020","addr":"경기도 안성시 죽산면 장계리 580번지 외1필지","category":"유통업 영리 - 편 의 점"}]},{"lat":"37.051433409","long":"127.41144548","items":[{"name":"안성육개장","tel":"031-676-7758","addr":"경기도 안성시 죽산면 장계리 598번지","category":"일반휴게음식 - 일반한식"}]},{"lat":"37.058768946","long":"127.41117001","items":[{"name":"안성토속청국장","tel":"031-674-8427","addr":"경기도 안성시 죽산면 장계리 187-2번지","category":"일반휴게음식 - 일반한식"}]},{"lat":"37.051578349","long":"127.41122142","items":[{"name":"우성주유소","tel":"031-677-8744","addr":"경기도 안성시 죽산면 장계리 599-4번지","category":"연료판매점 - 현대정유(오일뱅크)"}]},{"lat":"37.046303886","long":"127.41477907","items":[{"name":"우향","tel":"031-676-9292","addr":"경기도 안성시 죽산면 장계리 638번지","category":"일반휴게음식 - 일반한식"}]},{"lat":"37.052045211","long":"127.40908796","items":[{"name":"임진강민물장어","tel":"031-675-9911","addr":"경기도 안성시 죽산면 장계리 558-10번지 1층","category":"일반휴게음식 - 일반한식"}]},{"lat":"37.058356865","long":"127.41047074","items":[{"name":"주식회사 평강산업","tel":"031-675-1404","addr":"경기도 안성시 죽산면 장계리 179-15번지","category":"건축자재 - 인테리어전문"}]},{"lat":"37.04490782","long":"127.41461416","items":[{"name":"주식회사반도철강","tel":"031-676-7801","addr":"경기도 안성시 죽산면 장계리 766","category":"건축자재 - 기타건축자재"}]},{"lat":"37.047047374","long":"127.41344539","items":[{"name":"청온사슴농장","tel":"031-675-0272","addr":"경기도 안성시 죽산면 장계리 642-8번지","category":"건강식품 - 기타건강식품"},{"name":"청온사슴농장가든","tel":"031-675-0272","addr":"경기도 안성시 죽산면 장계리 642-8번지","category":"일반휴게음식 - 일반한식"}]},{"lat":"37.048575714","long":"127.39583834","items":[{"name":"태양시티건설(주)","tel":"031-8046-7020","addr":"경기도 안성시 죽산면 장계리 711번지","category":"레저업소 - 골프경기장"}]},{"lat":"37.042191025","long":"127.4185224","items":[{"name":"홈푸드","tel":"031-672-1208","addr":"경기도 안성시 죽산면 장계리 782-4번지 B동 1층","category":"일반휴게음식 - 일반한식"}]}]