[{"lat":"38.09983006","long":"127.1102985","items":[{"name":"계곡상회","tel":"031-834-1258","addr":"경기도 연천군 연천읍 동막리 181번지","category":"유통업 영리 - 슈퍼마켓"},{"name":"자라바위","tel":"031-834-2827","addr":"경기도 연천군 연천읍 동막리 181","category":"음료식품 - 기타음료식품"}]},{"lat":"38.08530574","long":"127.0777577","items":[{"name":"농업회사법인 물바위산양산삼(주)","tel":"031-834-9544","addr":"경기도 연천군 연천읍 동막리 590-3번지","category":"음료식품 - 농·축·수산품"}]},{"lat":"38.08839032","long":"127.1084123","items":[{"name":"동막가든","tel":"031-834-1192","addr":"경기도 연천군 연천읍 동막리 262-15","category":"일반휴게음식 - 일반한식"}]},{"lat":"38.08950148","long":"127.0815351","items":[{"name":"동막골 스낵코너","tel":"","addr":"경기도 연천군 연천읍 동막리 467번지 2층","category":"음료식품 - 기타음료식품"},{"name":"동막골 유황천/(주)동막골레져","tel":"031-834-7000","addr":"경기도 연천군 연천읍 동막리 467번지","category":"보건위생 - 사우나"},{"name":"동막골분식","tel":"031-834-4945","addr":"경기도 연천군 연천읍 동막리 467번지 2층","category":"일반휴게음식 - 스넥"},{"name":"동막골여탕매점","tel":"","addr":"경기도 연천군 연천읍 동막리 467번지","category":"음료식품 - 기타음료식품"},{"name":"동막골유황천매점","tel":"02-0000-0000","addr":"경기도 연천군 연천읍 동막리 467번지","category":"음료식품 - 기타음료식품"},{"name":"동막골한식","tel":"031-834-7000","addr":"경기도 연천군 연천읍 동막리 467번지 2층","category":"일반휴게음식 - 일반한식"}]},{"lat":"38.11316538","long":"127.1265782","items":[{"name":"물바위","tel":"031-834-1899","addr":"경기도 연천군 연천읍 동막리 617번지","category":"유통업 영리 - 연 쇄 점"},{"name":"산장계곡","tel":"031-834-9916","addr":"경기도 연천군 연천읍 동막리 617","category":"음료식품 - 기타음료식품"},{"name":"푸른농원","tel":"031-834-3177","addr":"경기도 연천군 연천읍 동막리 617","category":"음료식품 - 기타음료식품"}]},{"lat":"38.1075306","long":"127.1218826","items":[{"name":"부흥골 쉼터","tel":"031-834-9006","addr":"경기도 연천군 연천읍 동막리 77번지","category":"음료식품 - 기타음료식품"}]},{"lat":"38.09311254","long":"127.1067434","items":[{"name":"사계절유원지(쉼터)","tel":"","addr":"경기도 연천군 연천읍 동막리 635-40번지","category":"음료식품 - 기타음료식품"}]},{"lat":"38.10888666","long":"127.1171415","items":[{"name":"심방계곡","tel":"031-834-3696","addr":"경기도 연천군 연천읍 동막리 165-1번지","category":"유통업 영리 - 슈퍼마켓"}]},{"lat":"38.08972277","long":"127.0989416","items":[{"name":"아미사","tel":"031-834-6560","addr":"경기도 연천군 연천읍 동막리 294-5번지","category":"용역 서비스 - 가례서비스업"},{"name":"아미사","tel":"031-834-6560","addr":"경기도 연천군 연천읍 동막리 294-5번지","category":"기타 - 비영리/대상"}]},{"lat":"38.08844458","long":"127.0976063","items":[{"name":"연천승마공원","tel":"031-834-0488","addr":"경기도 연천군 연천읍 동막리 293-1번지","category":"레저업소 - 기타레져업소"}]},{"lat":"38.09294202","long":"127.1060022","items":[{"name":"첫머리","tel":"031-834-4114","addr":"경기도 연천군 연천읍 동막리 635번지","category":"음료식품 - 기타음료식품"}]},{"lat":"38.09674809","long":"127.1112744","items":[{"name":"해태의집","tel":"031-834-3461","addr":"경기도 연천군 연천읍 동막리 198번지","category":"음료식품 - 주류 판매점"}]}]