[{"lat":"37.33653868","long":"127.3031103","items":[{"name":"(주)다올서비스","tel":"031-8026-6214","addr":"경기도 광주시 도척면 도웅리 534번지","category":"레저업소 - 수 영 장"},{"name":"Trara","tel":"031-765-1562","addr":"경기도 광주시 도척면 도웅리 534번지 곤지암리조트2층","category":"레저업소 - 노 래 방"},{"name":"디초콜릿커피(곤지암리조트점)","tel":"031-8026-5616","addr":"경기도 광주시 도척면 도웅리 534번지 곤지암리조트","category":"일반휴게음식 - 서양음식"},{"name":"반려텔","tel":"031-8026-5454","addr":"경기도 광주시 도척면 도웅리 534번지","category":"문화.취미 - 애완동물"},{"name":"반려텔","tel":"","addr":"경기도 광주시 도척면 도웅리 534번지","category":"문화.취미 - 애완동물"},{"name":"베스킨라빈스 곤지암리조트점","tel":"031-8026-5637","addr":"경기도 광주시 도척면 도웅리 534번지","category":"음료식품 - 제과점"},{"name":"비비큐(BBQ)치킨","tel":"031-8026-5520","addr":"경기도 광주시 도척면 도웅리 534번지","category":"일반휴게음식 - 스넥"},{"name":"소나무커피","tel":"","addr":"경기도 광주시 도척면 도웅리 534번지","category":"일반휴게음식 - 서양음식"},{"name":"숲의향기","tel":"031-8026-5670","addr":"경기도 광주시 도척면 도웅리 534번지 곤지암리조트내 엠피로동","category":"신변잡화 - 기타잡화"},{"name":"자연","tel":"070-7755-1908","addr":"경기도 광주시 도척면 도웅리 534번지","category":"일반휴게음식 - 스넥"},{"name":"자연","tel":"03-111-1111","addr":"경기도 광주시 도척면 도웅리 534번지","category":"일반휴게음식 - 서양음식"},{"name":"한스","tel":"031-8026-5621","addr":"경기도 광주시 도척면 도웅리 534번지 3층","category":"일반휴게음식 - 주점"},{"name":"허스키","tel":"","addr":"경기도 광주시 도척면 도웅리 534번지 스키하우스동 1층 (곤지암리조트)","category":"의류 - 정장"}]},{"lat":"37.33814712","long":"127.3012774","items":[{"name":"(주)아워홈 곤지암리조트점","tel":"02-6966-9049","addr":"경기도 광주시 도척면 도웅리 404번지 1층","category":"일반휴게음식 - 위탁급식업"}]},{"lat":"37.3332105","long":"127.311447","items":[{"name":"(주)오매틱글로발","tel":"070-7405-0533","addr":"경기도 광주시 도척면 도웅리 99-5번지","category":"레져용품 - 스포츠·레져용품"},{"name":"살로몬","tel":"031-797-5155","addr":"경기도 광주시 도척면 도웅리 99-5번지","category":"레져용품 - 스포츠·레져용품"},{"name":"화이트스카이","tel":"031-794-3747","addr":"경기도 광주시 도척면 도웅리 99-5","category":"레져용품 - 스포츠·레져용품"}]},{"lat":"37.33945521","long":"127.304194","items":[{"name":"AMD타운","tel":"","addr":"경기도 광주시 도척면 도웅리 273-3번지 1층","category":"용역 서비스 - 부동산 중개·임대"}]},{"lat":"37.33870398","long":"127.3019792","items":[{"name":"GS25도척리조트점","tel":"","addr":"경기도 광주시 도척면 도웅리 409번지","category":"유통업 영리 - 편 의 점"},{"name":"곤지암리조트렌탈샵 보스","tel":"031-769-7171","addr":"경기도 광주시 도척면 도웅리 409번지","category":"레져용품 - 스포츠·레져용품"},{"name":"팝스토어","tel":"031-857-2258","addr":"경기도 광주시 도척면 도웅리 409번지","category":"회원제형태 - 기타4"}]},{"lat":"37.32893418","long":"127.3066117","items":[{"name":"H.M차체","tel":"031-797-7330","addr":"경기도 광주시 도척면 도웅리 55-3번지","category":"자동차정비 유지 - 자동차정비"}]},{"lat":"37.33740287","long":"127.3034185","items":[{"name":"Miega (미에가)","tel":"031-769-0903","addr":"경기도 광주시 도척면 도웅리 439번지","category":"보건위생 - 미용원"},{"name":"미에가","tel":"031-769-0903","addr":"경기도 광주시 도척면 도웅리 439번지 1층","category":"건강식품 - 기타건강식품"}]},{"lat":"37.33018228","long":"127.3047775","items":[{"name":"가든 인 센트(Garden in Scent)","tel":"031-762-5516","addr":"경기도 광주시 도척면 도웅리 30번지 1층","category":"신변잡화 - 기타잡화"}]},{"lat":"37.337902","long":"127.3055532","items":[{"name":"간지보더","tel":"031-769-9375","addr":"경기도 광주시 도척면 도웅리 251","category":"레져용품 - 스포츠·레져용품"}]},{"lat":"37.33854298","long":"127.3050593","items":[{"name":"곤지암 웅골","tel":"031-769-9555","addr":"경기도 광주시 도척면 도웅리 245번지 1층","category":"일반휴게음식 - 일반한식"}]},{"lat":"37.33623404","long":"127.3094734","items":[{"name":"곤지암땡스키","tel":"031-764-3066","addr":"경기도 광주시 도척면 도웅리 164-2번지","category":"레져용품 - 스포츠·레져용품"}]},{"lat":"37.33376589","long":"127.2875841","items":[{"name":"곤지암레포츠센터","tel":"031-8026-5625","addr":"경기도 광주시 도척면 도웅리 540","category":"레저업소 - 당 구 장"}]},{"lat":"37.33351699","long":"127.3113919","items":[{"name":"곤지암리조트스키장010스키렌탈샵","tel":"031-767-5150","addr":"경기도 광주시 도척면 도웅리 99-1번지","category":"레져용품 - 스포츠·레져용품"},{"name":"전주왕곰탕왕갈비","tel":"031-798-8805","addr":"경기도 광주시 도척면 도웅리 99-1번지","category":"일반휴게음식 - 일반한식"}]},{"lat":"37.33787088","long":"127.3000576","items":[{"name":"곤지암숯불고기","tel":"031-764-9233","addr":"경기도 광주시 도척면 도웅리 400번지","category":"일반휴게음식 - 일반한식"},{"name":"쿨레포츠","tel":"031-764-3696","addr":"경기도 광주시 도척면 도웅리 400번지 101호","category":"레져용품 - 스포츠·레져용품"}]},{"lat":"37.32904293","long":"127.3098617","items":[{"name":"노브","tel":"031-768-9726","addr":"경기도 광주시 도척면 도웅리 72-1번지 다동","category":"일반휴게음식 - 서양음식"}]},{"lat":"37.3373767","long":"127.3030798","items":[{"name":"뉴 어스","tel":"031-764-1915","addr":"경기도 광주시 도척면 도웅리 445번지 1동","category":"문화.취미 - 애완동물"}]},{"lat":"37.33931948","long":"127.3044191","items":[{"name":"느티나무민박","tel":"","addr":"경기도 광주시 도척면 도웅리 271번지","category":"숙박업 - 여관/기타숙박업"}]},{"lat":"37.32726756","long":"127.3100011","items":[{"name":"늘품&J","tel":"031-798-9717","addr":"경기도 광주시 도척면 도웅리 74-3번지","category":"음료식품 - 농·축·수산품"}]},{"lat":"37.33953765","long":"127.3036639","items":[{"name":"더존하우스","tel":"031-797-0384","addr":"경기도 광주시 도척면 도웅리 360","category":"숙박업 - 여관/기타숙박업"}]},{"lat":"37.33467758","long":"127.3120511","items":[{"name":"도웅골 다육이","tel":"031-797-9054","addr":"경기도 광주시 도척면 도웅리 123-1번지","category":"문화.취미 - 화원"}]},{"lat":"37.33187074","long":"127.3103922","items":[{"name":"드리대스키샵","tel":"031-764-9142","addr":"경기도 광주시 도척면 도웅리 91-5번지","category":"레져용품 - 스포츠·레져용품"},{"name":"세븐일레븐곤지암리조트점","tel":"","addr":"경기도 광주시 도척면 도웅리 91-5번지","category":"유통업 영리 - 편 의 점"}]},{"lat":"37.33240183","long":"127.3105862","items":[{"name":"드림이한식부페","tel":"031-764-6765","addr":"경기도 광주시 도척면 도웅리 95-2번지","category":"일반휴게음식 - 일반한식"}]},{"lat":"37.33828763","long":"127.3027224","items":[{"name":"라온민박","tel":"","addr":"경기도 광주시 도척면 도웅리 415번지","category":"숙박업 - 여관/기타숙박업"},{"name":"별밤민박","tel":"070-4189-5088","addr":"경기도 광주시 도척면 도웅리 415","category":"숙박업 - 여관/기타숙박업"}]},{"lat":"37.34045504","long":"127.3043108","items":[{"name":"루체른","tel":"070-4922-1261","addr":"경기도 광주시 도척면 도웅리 276-6번지","category":"숙박업 - 여관/기타숙박업"}]},{"lat":"37.33917751","long":"127.3035609","items":[{"name":"마루","tel":"031-762-6916","addr":"경기도 광주시 도척면 도웅리 427번지","category":"숙박업 - 여관/기타숙박업"}]},{"lat":"37.332735","long":"127.3106665","items":[{"name":"멕시카나 곤지암리조트점","tel":"02-000-0000","addr":"경기도 광주시 도척면 도웅리 96-11번지 1층 가인세르빌","category":"일반휴게음식 - 스넥"}]},{"lat":"37.33293307","long":"127.3107238","items":[{"name":"미니스톱광주노곡점","tel":"031-1577-9621","addr":"경기도 광주시 도척면 도웅리 96-9번지 가인세르빌 1층 102호","category":"유통업 영리 - 편 의 점"}]},{"lat":"37.3391761","long":"127.3041139","items":[{"name":"미목","tel":"","addr":"경기도 광주시 도척면 도웅리 242-1번지","category":"건축자재 - 목재·석재·철물"}]},{"lat":"37.33912671","long":"127.3022743","items":[{"name":"반딧불","tel":"031-761-1919","addr":"경기도 광주시 도척면 도웅리 420-1,421-1번지","category":"용역 서비스 - 부동산 중개·임대"}]},{"lat":"37.32704096","long":"127.3070328","items":[{"name":"백향꽃누르미갤러리","tel":"031-764-5550","addr":"경기도 광주시 도척면 도웅리 25-4번지","category":"문화.취미 - 화랑"}]},{"lat":"37.33460068","long":"127.3138901","items":[{"name":"보드박스","tel":"031-797-7554","addr":"경기도 광주시 도척면 도웅리 131","category":"레져용품 - 스포츠·레져용품"}]},{"lat":"37.33878847","long":"127.3041913","items":[{"name":"봉이네가든","tel":"031-762-7039","addr":"경기도 광주시 도척면 도웅리 241-2","category":"일반휴게음식 - 일반한식"}]},{"lat":"37.33737705","long":"127.2993673","items":[{"name":"브라운빌","tel":"031-798-3885","addr":"경기도 광주시 도척면 도웅리 467-1번지","category":"숙박업 - 여관/기타숙박업"}]},{"lat":"37.34040006","long":"127.3046717","items":[{"name":"서울청과","tel":"070-4763-5091","addr":"경기도 광주시 도척면 도웅리 298-3번지","category":"음료식품 - 농·축·수산품"}]},{"lat":"37.32678765","long":"127.3109131","items":[{"name":"섬광특수용접","tel":"031-797-7313","addr":"경기도 광주시 도척면 도웅리 75-8번지","category":"건축자재 - 기타건축자재"}]},{"lat":"37.3289334","long":"127.3069163","items":[{"name":"세방기술산업(주)","tel":"031-798-4053","addr":"경기도 광주시 도척면 도웅리 55-5","category":"기타 - 기계공구"}]},{"lat":"37.32403861","long":"127.3112742","items":[{"name":"솔뫼","tel":"031-764-3801","addr":"경기도 광주시 도척면 도웅리 14-46번지","category":"일반휴게음식 - 일반한식"}]},{"lat":"37.32714856","long":"127.3107227","items":[{"name":"수련cnc","tel":"031-769-1916","addr":"경기도 광주시 도척면 도웅리 75-9번지","category":"건축자재 - 목재·석재·철물"}]},{"lat":"37.33859834","long":"127.3045517","items":[{"name":"숲속의휴","tel":"031-797-0189","addr":"경기도 광주시 도척면 도웅리 240번지","category":"숙박업 - 여관/기타숙박업"}]},{"lat":"37.33970341","long":"127.302254","items":[{"name":"쉼371","tel":"","addr":"경기도 광주시 도척면 도웅리 371번지","category":"숙박업 - 여관/기타숙박업"}]},{"lat":"37.33026759","long":"127.3101374","items":[{"name":"신진벽난로","tel":"031-797-8830","addr":"경기도 광주시 도척면 도웅리 84-5번지","category":"용역 서비스 - 기타용역서비스"}]},{"lat":"37.33995486","long":"127.3025823","items":[{"name":"썸노래연습장 (도척점)","tel":"031-798-5161","addr":"경기도 광주시 도척면 도웅리 373-1번지","category":"레저업소 - 노 래 방"}]},{"lat":"37.33951323","long":"127.3026369","items":[{"name":"알파스키","tel":"031-761-1919","addr":"경기도 광주시 도척면 도웅리 367-4번지","category":"레져용품 - 스포츠·레져용품"}]},{"lat":"37.33764696","long":"127.2995263","items":[{"name":"압구정","tel":"031-763-3655","addr":"경기도 광주시 도척면 도웅리 401번지 2층","category":"일반휴게음식 - 서양음식"},{"name":"월드스키","tel":"031-769-1237","addr":"경기도 광주시 도척면 도웅리 401번지","category":"레져용품 - 스포츠·레져용품"}]},{"lat":"37.34117757","long":"127.3036366","items":[{"name":"엘피스 민박","tel":"","addr":"경기도 광주시 도척면 도웅리 343번지 1층","category":"숙박업 - 여관/기타숙박업"}]},{"lat":"37.32867874","long":"127.3078405","items":[{"name":"예지에프앤지","tel":"031-766-3921","addr":"경기도 광주시 도척면 도웅리 51번지","category":"유통업 영리 - 기타유통업"}]},{"lat":"37.33887537","long":"127.3054443","items":[{"name":"오스카갤러리카페","tel":"","addr":"경기도 광주시 도척면 도웅리 267번지 2동 1층","category":"일반휴게음식 - 서양음식"},{"name":"장비좋은집","tel":"031-762-7375","addr":"경기도 광주시 도척면 도웅리 267","category":"레져용품 - 스포츠·레져용품"}]},{"lat":"37.32918176","long":"127.3084405","items":[{"name":"유원텍","tel":"070-7613-7815","addr":"경기도 광주시 도척면 도웅리 66-7번지","category":"기타 - 기계공구"}]},{"lat":"37.32851089","long":"127.3100287","items":[{"name":"인산에프에스 (F.S)","tel":"031-764-6470","addr":"경기도 광주시 도척면 도웅리 73-4번지","category":"가구 - 일반가구"}]},{"lat":"37.33895831","long":"127.3047224","items":[{"name":"임대","tel":"031-797-9029","addr":"경기도 광주시 도척면 도웅리 244","category":"용역 서비스 - 부동산 중개·임대"},{"name":"탑스키","tel":"031-798-9180","addr":"경기도 광주시 도척면 도웅리 244번지","category":"레져용품 - 스포츠·레져용품"}]},{"lat":"37.32653846","long":"127.3062297","items":[{"name":"정직성","tel":"","addr":"경기도 광주시 도척면 도웅리 23-4번지","category":"문화.취미 - 화랑"}]},{"lat":"37.3389802","long":"127.3031991","items":[{"name":"제이알랜드(JRLAND)","tel":"031-797-3330","addr":"경기도 광주시 도척면 도웅리 424-1번지","category":"숙박업 - 여관/기타숙박업"}]},{"lat":"37.32537254","long":"127.3111104","items":[{"name":"주식회사 폴에이지","tel":"031-769-9331","addr":"경기도 광주시 도척면 도웅리 15-12번지","category":"음료식품 - 기타음료식품"}]},{"lat":"37.33806748","long":"127.3007016","items":[{"name":"참깨 팬션","tel":"031-798-0109","addr":"경기도 광주시 도척면 도웅리 403-1번지","category":"숙박업 - 여관/기타숙박업"}]},{"lat":"37.33945971","long":"127.3024223","items":[{"name":"카카오스키","tel":"031-761-1919","addr":"경기도 광주시 도척면 도웅리 368번지","category":"레져용품 - 스포츠·레져용품"}]},{"lat":"37.33915202","long":"127.3029515","items":[{"name":"카페제이알","tel":"070-8118-3338","addr":"경기도 광주시 도척면 도웅리 423번지 424호","category":"일반휴게음식 - 서양음식"}]},{"lat":"37.33848557","long":"127.306368","items":[{"name":"케이플러스펜션","tel":"031-798-2615","addr":"경기도 광주시 도척면 도웅리 261-1번지","category":"숙박업 - 여관/기타숙박업"}]},{"lat":"37.3387598","long":"127.3048344","items":[{"name":"하늘아래","tel":"031-797-9029","addr":"경기도 광주시 도척면 도웅리 244-2 2층,3층","category":"숙박업 - 여관/기타숙박업"}]},{"lat":"37.32907118","long":"127.3093879","items":[{"name":"황금들판","tel":"031-764-1933","addr":"경기도 광주시 도척면 도웅리 72-6","category":"일반휴게음식 - 일반한식"}]},{"lat":"37.33940382","long":"127.3031443","items":[{"name":"훌랄라참숯바베큐치킨,천하제일왕족발","tel":"031-798-0820","addr":"경기도 광주시 도척면 도웅리 364번지","category":"일반휴게음식 - 스넥"}]}]