[{"lat":"37.773398486","long":"126.91860587","imageIndex":17,"items":[{"name":"꿈애","tel":"031-946-5703","addr":"경기도 파주시 광탄면 기산리 521번지","indutype":"문화.취미 - 애완동물","category":"other"}]},{"lat":"37.77525686","long":"126.92205434","imageIndex":17,"items":[{"name":"대진사이언스","tel":"031-963-2910","addr":"경기도 파주시 광탄면 기산리 471-2번지","indutype":"서적문구 - 기타서적문구","category":"other"}]},{"lat":"37.772781377","long":"126.92522374","imageIndex":17,"items":[{"name":"마장호수","tel":"031-941-0858","addr":"경기도 파주시 광탄면 기산리 460-1번지","indutype":"유통업 영리 - 편 의 점","category":"other"}]},{"lat":"37.77889778","long":"126.91122138","imageIndex":17,"items":[{"name":"성일화학","tel":"031-962-5575","addr":"경기도 파주시 광탄면 기산리 575-8번지","indutype":"서적문구 - 과학기자재","category":"other"}]},{"lat":"37.774089952","long":"126.91549507","imageIndex":17,"items":[{"name":"스테이지야(stage YAH)","tel":"031-946-4778","addr":"경기도 파주시 광탄면 기산리 548-8","indutype":"건축자재 - 기타건축자재","category":"other"}]},{"lat":"37.785176896","long":"126.91057791","imageIndex":17,"items":[{"name":"아세아식품","tel":"031-948-2352","addr":"경기도 파주시 광탄면 기산리 603번지","indutype":"기타 - 기타 전문점","category":"other"}]},{"lat":"37.77506656","long":"126.92046547","imageIndex":17,"items":[{"name":"이마트24 마장호수점","tel":"031-948-1881","addr":"경기도 파주시 광탄면 기산리 516-2번지","indutype":"유통업 영리 - 편 의 점","category":"other"},{"name":"이마트24 마장호수점","tel":"031-1111-1111","addr":"경기도 파주시 광탄면 기산리 516-2번지","indutype":"유통업 영리 - 편 의 점","category":"other"}]}]