[{"lat":"37.406415717","long":"126.911903","imageIndex":7,"items":[{"name":"Egg home","tel":"","addr":"경기도 안양시 만안구 박달동 54-36번지","indutype":"음료식품 - 농·축·수산품","category":"food"}]},{"lat":"37.402694123","long":"126.91134279","imageIndex":7,"items":[{"name":"가원떡시루","tel":"031-444-4433","addr":"경기도 안양시 만안구 박달동 74-7번지","indutype":"음료식품 - 제과점","category":"food"}]},{"lat":"37.405774314","long":"126.9097352","imageIndex":7,"items":[{"name":"가은유통","tel":"031-442-6500","addr":"경기도 안양시 만안구 박달동 52-1번지","indutype":"음료식품 - 정육점","category":"food"},{"name":"강원물산","tel":"031-442-0302","addr":"경기도 안양시 만안구 박달동 52-1번지","indutype":"음료식품 - 농·축·수산품","category":"food"},{"name":"야곱별미누룽지","tel":"031-441-7094","addr":"경기도 안양시 만안구 박달동 52-1번지","indutype":"음료식품 - 기타음료식품","category":"food"},{"name":"정원정육점","tel":"031-441-1994","addr":"경기도 안양시 만안구 박달동 52-1번지","indutype":"음료식품 - 정육점","category":"food"},{"name":"지리산만년초식품","tel":"031-465-3131","addr":"경기도 안양시 만안구 박달동","indutype":"건강식품 - 기타건강식품","category":"food"}]},{"lat":"37.403999721","long":"126.91023435","imageIndex":7,"items":[{"name":"개구리반찬","tel":"031-469-7550","addr":"경기도 안양시 만안구 박달동 20-10번지","indutype":"음료식품 - 기타음료식품","category":"food"},{"name":"알뜰건어물","tel":"031-448-3129","addr":"경기도 안양시 만안구 박달동 20-10번지","indutype":"음료식품 - 농·축·수산품","category":"food"},{"name":"축산물종합판매장","tel":"031-442-5984","addr":"경기도 안양시 만안구 박달동 20-10번지","indutype":"음료식품 - 정육점","category":"food"}]},{"lat":"37.406107294","long":"126.90923783","imageIndex":7,"items":[{"name":"경기식품","tel":"031-468-4653","addr":"경기도 안양시 만안구 박달동 31-27번지","indutype":"음료식품 - 기타음료식품","category":"food"},{"name":"천우당","tel":"031-446-0226","addr":"경기도 안양시 만안구 박달동 31-27번지","indutype":"음료식품 - 기타음료식품","category":"food"}]},{"lat":"37.401523067","long":"126.91167174","imageIndex":7,"items":[{"name":"경민야채청과","tel":"031-2653-6772","addr":"경기도 안양시 만안구 박달동 68-86번지","indutype":"음료식품 - 농·축·수산품","category":"food"}]},{"lat":"37.401998299","long":"126.90873471","imageIndex":7,"items":[{"name":"경인기장협동조합","tel":"070-4250-5750","addr":"경기도 안양시 만안구 박달동 85-30번지","indutype":"음료식품 - 농·축·수산품","category":"food"}]},{"lat":"37.403693113","long":"126.9098959","imageIndex":7,"items":[{"name":"고려건강원","tel":"031-448-0560","addr":"경기도 안양시 만안구 박달동 20-15번지","indutype":"건강식품 - 기타건강식품","category":"food"}]},{"lat":"37.405161629","long":"126.90973596","imageIndex":7,"items":[{"name":"고려자연식품","tel":"031-449-4997","addr":"경기도 안양시 만안구 박달동 56-2번지","indutype":"건강식품 - 기타건강식품","category":"food"},{"name":"박달중국식품","tel":"031-447-5778","addr":"경기도 안양시 만안구 박달동 56-2번지","indutype":"음료식품 - 기타음료식품","category":"food"}]},{"lat":"37.401160423","long":"126.89809688","imageIndex":7,"items":[{"name":"교동식품","tel":"031-468-8200","addr":"경기도 안양시 만안구 박달동 606-13번지","indutype":"음료식품 - 기타음료식품","category":"food"}]},{"lat":"37.403942183","long":"126.9058974","imageIndex":7,"items":[{"name":"굿아이스백화점","tel":"","addr":"경기도 안양시 만안구 박달동 108-7번지","indutype":"음료식품 - 기타음료식품","category":"food"}]},{"lat":"37.404721415","long":"126.9113742","imageIndex":7,"items":[{"name":"금산","tel":"","addr":"경기도 안양시 만안구 박달동 60-14번지","indutype":"건강식품 - 인삼제품","category":"food"}]},{"lat":"37.398973901","long":"126.90145412","imageIndex":7,"items":[{"name":"금호정육점","tel":"031-469-0350","addr":"경기도 안양시 만안구 박달동 149-1번지 금호타운","indutype":"음료식품 - 정육점","category":"food"},{"name":"시하커피","tel":"070-4254-0160","addr":"경기도 안양시 만안구 박달동 149-1번지","indutype":"음료식품 - 기타음료식품","category":"food"}]},{"lat":"37.402862706","long":"126.90803339","imageIndex":7,"items":[{"name":"김한우","tel":"031-449-8253","addr":"경기도 안양시 만안구 박달동 100-30번지","indutype":"음료식품 - 정육점","category":"food"}]},{"lat":"37.404358892","long":"126.90867528","imageIndex":7,"items":[{"name":"농경축산","tel":"031-465-5119","addr":"경기도 안양시 만안구 박달동 46번지","indutype":"음료식품 - 정육점","category":"food"}]},{"lat":"37.40491659","long":"126.8873167","imageIndex":7,"items":[{"name":"농바우 축산","tel":"070-4137-9292","addr":"경기도 안양시 만안구 박달동 691-3번지","indutype":"음료식품 - 정육점","category":"food"},{"name":"주식회사 고깃간","tel":"031-441-9646","addr":"경기도 안양시 만안구 박달동 691-3번지","indutype":"음료식품 - 정육점","category":"food"},{"name":"중매인 33번","tel":"031-441-3549","addr":"경기도 안양시 만안구 박달동 691-3번지","indutype":"음료식품 - 농·축·수산품","category":"food"}]},{"lat":"37.402360365","long":"126.91084625","imageIndex":7,"items":[{"name":"농산물직거래장터하서방","tel":"031-468-5301","addr":"경기도 안양시 만안구 박달동 68-23번지","indutype":"음료식품 - 농·축·수산품","category":"food"}]},{"lat":"37.404026601","long":"126.91004232","imageIndex":7,"items":[{"name":"농협농산물직판장","tel":"031-446-1472","addr":"경기도 안양시 만안구 박달동 20-7번지","indutype":"음료식품 - 농·축·수산품","category":"food"}]},{"lat":"37.403666693","long":"126.91067524","imageIndex":7,"items":[{"name":"농협안심축산물안양박달시장점","tel":"031-441-7954","addr":"경기도 안양시 만안구 박달동 64-3번지 대동연립","indutype":"음료식품 - 정육점","category":"food"}]},{"lat":"37.404332916","long":"126.91000805","imageIndex":7,"items":[{"name":"다락골","tel":"02-805-3981","addr":"경기도 안양시 만안구 박달동 21-31번지","indutype":"음료식품 - 기타음료식품","category":"food"}]},{"lat":"37.404720047","long":"126.90962357","imageIndex":7,"items":[{"name":"담미","tel":"031-448-0077","addr":"경기도 안양시 만안구 박달동 21-4번지","indutype":"음료식품 - 제과점","category":"food"},{"name":"박달착한수산","tel":"","addr":"경기도 안양시 만안구 박달동 21-4번지","indutype":"음료식품 - 농·축·수산품","category":"food"}]},{"lat":"37.404494964","long":"126.90983844","imageIndex":7,"items":[{"name":"대박떡집","tel":"031-464-1980","addr":"경기도 안양시 만안구 박달동 21-37번지","indutype":"음료식품 - 제과점","category":"food"},{"name":"찬마루","tel":"031-464-1126","addr":"경기도 안양시 만안구 박달동 21-37번지","indutype":"음료식품 - 기타음료식품","category":"food"}]},{"lat":"37.404747184","long":"126.90975906","imageIndex":7,"items":[{"name":"대안수산","tel":"031-444-5706","addr":"경기도 안양시 만안구 박달동 21-6번지","indutype":"음료식품 - 농·축·수산품","category":"food"},{"name":"박달농수산","tel":"031-990-1560","addr":"경기도 안양시 만안구 박달동 21-6번지","indutype":"음료식품 - 농·축·수산품","category":"food"},{"name":"하이목장","tel":"031-445-2407","addr":"경기도 안양시 만안구 박달동 21-6번지","indutype":"음료식품 - 정육점","category":"food"}]},{"lat":"37.404720376","long":"126.91004146","imageIndex":7,"items":[{"name":"덕산방앗간","tel":"031-466-0382","addr":"경기도 안양시 만안구 박달동 57-3번지","indutype":"음료식품 - 기타음료식품","category":"food"},{"name":"빵굽는집","tel":"031-444-6312","addr":"경기도 안양시 만안구 박달동 57-3번지","indutype":"음료식품 - 제과점","category":"food"},{"name":"소담축산","tel":"031-402-8414","addr":"경기도 안양시 만안구 박달동 57-3번지","indutype":"음료식품 - 정육점","category":"food"},{"name":"중국식품점","tel":"070-8286-8368","addr":"경기도 안양시 만안구 박달동 57-3번지","indutype":"음료식품 - 기타음료식품","category":"food"},{"name":"토마토","tel":"031-464-0880","addr":"경기도 안양시 만안구 박달동 57-3번지","indutype":"음료식품 - 농·축·수산품","category":"food"}]},{"lat":"37.403999898","long":"126.91046024","imageIndex":7,"items":[{"name":"동원떡집","tel":"031-443-7721","addr":"경기도 안양시 만안구 박달동 61-9번지","indutype":"음료식품 - 제과점","category":"food"},{"name":"한뚜부","tel":"031-466-7132","addr":"경기도 안양시 만안구 박달동 61-9번지","indutype":"음료식품 - 기타음료식품","category":"food"}]},{"lat":"37.404882513","long":"126.90998479","imageIndex":7,"items":[{"name":"두리농산물","tel":"031-468-5876","addr":"경기도 안양시 만안구 박달동 57-1번지","indutype":"음료식품 - 농·축·수산품","category":"food"},{"name":"명품닭고기","tel":"031-449-3470","addr":"경기도 안양시 만안구 박달동 57-1번지","indutype":"음료식품 - 정육점","category":"food"}]},{"lat":"37.404349828","long":"126.90860753","imageIndex":7,"items":[{"name":"두리쌀김치","tel":"","addr":"경기도 안양시 만안구 박달동 45-7번지 삼원연립","indutype":"음료식품 - 농·축·수산품","category":"food"}]},{"lat":"37.40305407","long":"126.91075505","imageIndex":7,"items":[{"name":"두현(풍성)상회","tel":"070-7007-0000","addr":"경기도 안양시 만안구 박달동 20-42번지","indutype":"음료식품 - 농·축·수산품","category":"food"}]},{"lat":"37.407107714","long":"126.90962061","imageIndex":7,"items":[{"name":"득은유통","tel":"031-765-1562","addr":"경기도 안양시 만안구 박달동 25-21번지","indutype":"음료식품 - 농·축·수산품","category":"food"}]},{"lat":"37.404801466","long":"126.91004136","imageIndex":7,"items":[{"name":"로뎀장수원","tel":"031-448-8276","addr":"경기도 안양시 만안구 박달동 57-2번지","indutype":"건강식품 - 기타건강식품","category":"food"}]},{"lat":"37.404612095","long":"126.90983829","imageIndex":7,"items":[{"name":"맛나반찬","tel":"031-447-9320","addr":"경기도 안양시 만안구 박달동 21-11번지","indutype":"음료식품 - 기타음료식품","category":"food"}]},{"lat":"37.402498327","long":"126.90319996","imageIndex":7,"items":[{"name":"맛집반찬","tel":"031-466-9288","addr":"경기도 안양시 만안구 박달동 114-6번지","indutype":"음료식품 - 기타음료식품","category":"food"},{"name":"한라한우정육점","tel":"031-464-1400","addr":"경기도 안양시 만안구 박달동 114-6번지","indutype":"음료식품 - 정육점","category":"food"}]},{"lat":"37.400384828","long":"126.90790098","imageIndex":7,"items":[{"name":"미니슈퍼","tel":"070-4922-1261","addr":"경기도 안양시 만안구 박달동 85번지","indutype":"음료식품 - 기타음료식품","category":"food"},{"name":"행운청과2호점","tel":"031-445-8249","addr":"경기도 안양시 만안구 박달동 85번지","indutype":"음료식품 - 농·축·수산품","category":"food"}]},{"lat":"37.404107948","long":"126.91036975","imageIndex":7,"items":[{"name":"민속떡집","tel":"031-468-4902","addr":"경기도 안양시 만안구 박달동 61-1번지","indutype":"음료식품 - 제과점","category":"food"},{"name":"박달수산","tel":"","addr":"경기도 안양시 만안구 박달동 61-1번지","indutype":"음료식품 - 농·축·수산품","category":"food"},{"name":"착한과일","tel":"","addr":"경기도 안양시 만안구 박달동 61-1번지","indutype":"음료식품 - 농·축·수산품","category":"food"}]},{"lat":"37.401553686","long":"126.90489531","imageIndex":7,"items":[{"name":"민속방아간","tel":"031-468-9386","addr":"경기도 안양시 만안구 박달동 138-13번지","indutype":"음료식품 - 제과점","category":"food"},{"name":"써니아이스","tel":"031-473-1739","addr":"경기도 안양시 만안구 박달동 138-13번지","indutype":"음료식품 - 기타음료식품","category":"food"},{"name":"퍼플아이스","tel":"","addr":"경기도 안양시 만안구 박달동 138-13번지","indutype":"음료식품 - 기타음료식품","category":"food"}]},{"lat":"37.405412809","long":"126.90834642","imageIndex":7,"items":[{"name":"바른푸드","tel":"031-444-4799","addr":"경기도 안양시 만안구 박달동 15-1번지","indutype":"음료식품 - 농·축·수산품","category":"food"}]},{"lat":"37.404999359","long":"126.90962322","imageIndex":7,"items":[{"name":"박달떡집","tel":"031-441-8907","addr":"경기도 안양시 만안구 박달동 22-21번지","indutype":"음료식품 - 제과점","category":"food"},{"name":"완도특산물","tel":"031-466-5073","addr":"경기도 안양시 만안구 박달동 22-21번지","indutype":"음료식품 - 기타음료식품","category":"food"}]},{"lat":"37.402693694","long":"126.91078937","imageIndex":7,"items":[{"name":"박달점핑다이어트","tel":"031-441-2595","addr":"경기도 안양시 만안구 박달동 19-9번지","indutype":"건강식품 - 기타건강식품","category":"food"},{"name":"새빛축산","tel":"031-441-8988","addr":"경기도 안양시 만안구 박달동 19-9번지","indutype":"음료식품 - 정육점","category":"food"}]},{"lat":"37.405053571","long":"126.90981516","imageIndex":7,"items":[{"name":"박달축산","tel":"070-4334-7094","addr":"경기도 안양시 만안구 박달동 56-3번지","indutype":"음료식품 - 정육점","category":"food"},{"name":"행복식품","tel":"031-397-3962","addr":"경기도 안양시 만안구 박달동 56-3번지","indutype":"음료식품 - 기타음료식품","category":"food"}]},{"lat":"37.402806682","long":"126.9056165","imageIndex":7,"items":[{"name":"베이지밀","tel":"","addr":"경기도 안양시 만안구 박달동 135-7번지","indutype":"음료식품 - 제과점","category":"food"}]},{"lat":"37.40444117","long":"126.91017734","imageIndex":7,"items":[{"name":"뷰티킹","tel":"031-443-2497","addr":"경기도 안양시 만안구 박달동 60-2번지","indutype":"음료식품 - 제과점","category":"food"}]},{"lat":"37.405195292","long":"126.90676546","imageIndex":7,"items":[{"name":"빵드리아","tel":"031-444-8757","addr":"경기도 안양시 만안구 박달동 38-4번지","indutype":"음료식품 - 제과점","category":"food"},{"name":"우신정육점","tel":"070-7007-5050","addr":"경기도 안양시 만안구 박달동 38-4번지","indutype":"음료식품 - 정육점","category":"food"}]},{"lat":"37.406388408","long":"126.9115416","imageIndex":7,"items":[{"name":"생그린식품순유대리점","tel":"031-449-1739","addr":"경기도 안양시 만안구 박달동 54-32번지","indutype":"음료식품 - 기타음료식품","category":"food"},{"name":"윤서네","tel":"","addr":"경기도 안양시 만안구 박달동 54-32번지","indutype":"음료식품 - 기타음료식품","category":"food"}]},{"lat":"37.404495213","long":"126.91015468","imageIndex":7,"items":[{"name":"서해수산","tel":"031-442-1606","addr":"경기도 안양시 만안구 박달동 60-1번지","indutype":"음료식품 - 농·축·수산품","category":"food"},{"name":"착한푸주간","tel":"031-445-7003","addr":"경기도 안양시 만안구 박달동 60-1번지","indutype":"음료식품 - 정육점","category":"food"}]},{"lat":"37.405910156","long":"126.91061602","imageIndex":7,"items":[{"name":"선민유통","tel":"031-443-7797","addr":"경기도 안양시 만안구 박달동 52-5번지","indutype":"음료식품 - 기타음료식품","category":"food"}]},{"lat":"37.408992249","long":"126.89054084","imageIndex":7,"items":[{"name":"소윤유통","tel":"031-402-8644","addr":"경기도 안양시 만안구 박달동","indutype":"음료식품 - 기타음료식품","category":"food"},{"name":"한솔유통","tel":"031-340-6000","addr":"경기도 안양시 만안구 박달동 635-4번지","indutype":"음료식품 - 기타음료식품","category":"food"}]},{"lat":"37.4041888","long":"126.9100647","imageIndex":7,"items":[{"name":"신가미축산","tel":"031-448-0005","addr":"경기도 안양시 만안구 박달동 21-34번지","indutype":"음료식품 - 정육점","category":"food"},{"name":"전원건강원","tel":"031-466-1949","addr":"경기도 안양시 만안구 박달동 21-34번지","indutype":"건강식품 - 기타건강식품","category":"food"}]},{"lat":"37.404466724","long":"126.90831373","imageIndex":7,"items":[{"name":"신나는점핑다이어트","tel":"070-8621-1131","addr":"경기도 안양시 만안구 박달동 45-3번지","indutype":"건강식품 - 기타건강식품","category":"food"}]},{"lat":"37.405000095","long":"126.91056066","imageIndex":7,"items":[{"name":"쌀눈쌀현미누룽지","tel":"070-4789-2381","addr":"경기도 안양시 만안구 박달동 57-7번지 서광아침의빛아파트","indutype":"음료식품 - 기타음료식품","category":"food"}]},{"lat":"37.404195706","long":"126.90742181","imageIndex":7,"items":[{"name":"아이스크림전문점","tel":"","addr":"경기도 안양시 만안구 박달동 44-5번지","indutype":"음료식품 - 기타음료식품","category":"food"}]},{"lat":"37.404371581","long":"126.89212896","imageIndex":7,"items":[{"name":"안양대리점","tel":"","addr":"경기도 안양시 만안구 박달동 616-9번지 대림한숲타운아파트","indutype":"건강식품 - 기타건강식품","category":"food"}]},{"lat":"37.401914853","long":"126.90582095","imageIndex":7,"items":[{"name":"약초아이","tel":"","addr":"경기도 안양시 만안구 박달동 139-9번지","indutype":"건강식품 - 기타건강식품","category":"food"}]},{"lat":"37.404333138","long":"126.91029041","imageIndex":7,"items":[{"name":"완도건어물","tel":"031-442-9666","addr":"경기도 안양시 만안구 박달동 60-3번지","indutype":"음료식품 - 농·축·수산품","category":"food"},{"name":"청주상회","tel":"031-449-9687","addr":"경기도 안양시 만안구 박달동 60-3번지","indutype":"음료식품 - 제과점","category":"food"}]},{"lat":"37.405773545","long":"126.90876387","imageIndex":7,"items":[{"name":"왕정육점","tel":"031-449-8472","addr":"경기도 안양시 만안구 박달동 23-5번지","indutype":"음료식품 - 정육점","category":"food"}]},{"lat":"37.405802299","long":"126.91095499","imageIndex":7,"items":[{"name":"우리동네담뱃잎가게","tel":"","addr":"경기도 안양시 만안구 박달동 55-26번지","indutype":"음료식품 - 기타음료식품","category":"food"}]},{"lat":"37.405250184","long":"126.90779319","imageIndex":7,"items":[{"name":"유가네","tel":"031-468-4567","addr":"경기도 안양시 만안구 박달동 36-6번지","indutype":"음료식품 - 정육점","category":"food"}]},{"lat":"37.40390931","long":"126.90983916","imageIndex":7,"items":[{"name":"유진미트","tel":"031-444-5151","addr":"경기도 안양시 만안구 박달동 20-1번지","indutype":"음료식품 - 농·축·수산품","category":"food"}]},{"lat":"37.405496455","long":"126.91159915","imageIndex":7,"items":[{"name":"윤채네 중국식품","tel":"","addr":"경기도 안양시 만안구 박달동 58-7번지","indutype":"음료식품 - 기타음료식품","category":"food"}]},{"lat":"37.403774558","long":"126.91034757","imageIndex":7,"items":[{"name":"이천방앗간","tel":"031-444-2851","addr":"경기도 안양시 만안구 박달동 20-55번지","indutype":"음료식품 - 기타음료식품","category":"food"}]},{"lat":"37.404413963","long":"126.90995148","imageIndex":7,"items":[{"name":"인천건어물상회","tel":"031-444-6263","addr":"경기도 안양시 만안구 박달동 21-30번지","indutype":"음료식품 - 농·축·수산품","category":"food"},{"name":"태초식품","tel":"031-445-5980","addr":"경기도 안양시 만안구 박달동 21-30번지","indutype":"음료식품 - 기타음료식품","category":"food"}]},{"lat":"37.403108113","long":"126.9107324","imageIndex":7,"items":[{"name":"일억식품","tel":"031-445-6342","addr":"경기도 안양시 만안구 박달동 20-41번지","indutype":"음료식품 - 기타음료식품","category":"food"}]},{"lat":"37.403223073","long":"126.90798776","imageIndex":7,"items":[{"name":"자연약초건강원","tel":"031-464-0303","addr":"경기도 안양시 만안구 박달동 102-7번지","indutype":"건강식품 - 기타건강식품","category":"food"}]},{"lat":"37.403909833","long":"126.91050553","imageIndex":7,"items":[{"name":"장수건강원","tel":"031-442-9954","addr":"경기도 안양시 만안구 박달동 61-14번지","indutype":"건강식품 - 기타건강식품","category":"food"},{"name":"해동정육점","tel":"031-442-6351","addr":"경기도 안양시 만안구 박달동 61-14번지","indutype":"음료식품 - 정육점","category":"food"}]},{"lat":"37.403937775","long":"126.91168011","imageIndex":7,"items":[{"name":"장수쌀상회","tel":"031-466-3767","addr":"경기도 안양시 만안구 박달동 64-11번지","indutype":"음료식품 - 미곡상","category":"food"}]},{"lat":"37.405333511","long":"126.91061673","imageIndex":7,"items":[{"name":"장터","tel":"031-445-5582","addr":"경기도 안양시 만안구 박달동 56-28번지","indutype":"음료식품 - 기타음료식품","category":"food"}]},{"lat":"37.404965581","long":"126.91253724","imageIndex":7,"items":[{"name":"정안유통","tel":"070-8197-7008","addr":"경기도 안양시 만안구 박달동 62-37번지","indutype":"음료식품 - 농·축·수산품","category":"food"}]},{"lat":"37.404611219","long":"126.90873144","imageIndex":7,"items":[{"name":"제일건강원","tel":"031-444-0889","addr":"경기도 안양시 만안구 박달동 15-5번지","indutype":"건강식품 - 기타건강식품","category":"food"}]},{"lat":"37.400913699","long":"126.90456862","imageIndex":7,"items":[{"name":"종로떡집","tel":"031-446-9961","addr":"경기도 안양시 만안구 박달동 139-3번지","indutype":"음료식품 - 제과점","category":"food"}]},{"lat":"37.400828422","long":"126.89965589","imageIndex":7,"items":[{"name":"좋은축산","tel":"031-443-9958","addr":"경기도 안양시 만안구 박달동","indutype":"음료식품 - 정육점","category":"food"}]},{"lat":"37.404271313","long":"126.91189429","imageIndex":7,"items":[{"name":"주식회사 천년미가","tel":"031-469-0380","addr":"경기도 안양시 만안구 박달동 63-1번지","indutype":"음료식품 - 기타음료식품","category":"food"}]},{"lat":"37.405639853","long":"126.91061635","imageIndex":7,"items":[{"name":"주식회사 푸른푸드서비스","tel":"031-442-1480","addr":"경기도 안양시 만안구 박달동 56-15번지","indutype":"음료식품 - 기타음료식품","category":"food"}]},{"lat":"37.401008356","long":"126.89935071","imageIndex":7,"items":[{"name":"차칸수산","tel":"","addr":"경기도 안양시 만안구 박달동 152번지 신안아파트","indutype":"음료식품 - 농·축·수산품","category":"food"}]},{"lat":"37.405692786","long":"126.90918187","imageIndex":7,"items":[{"name":"찬드림식품","tel":"031-472-6799","addr":"경기도 안양시 만안구 박달동 22-33번지","indutype":"음료식품 - 기타음료식품","category":"food"}]},{"lat":"37.406276811","long":"126.9071481","imageIndex":7,"items":[{"name":"창대유통","tel":"","addr":"경기도 안양시 만안구 박달동 9-11번지","indutype":"음료식품 - 제과점","category":"food"}]},{"lat":"37.404910478","long":"126.89032105","imageIndex":7,"items":[{"name":"청송막걸리","tel":"031-447-0015","addr":"경기도 안양시 만안구 박달동 617-12번지","indutype":"음료식품 - 주류 판매점","category":"food"}]},{"lat":"37.405243155","long":"126.91028929","imageIndex":7,"items":[{"name":"총각네고깃간","tel":"031-346-9559","addr":"경기도 안양시 만안구 박달동 56-30번지","indutype":"음료식품 - 정육점","category":"food"},{"name":"풍년떡방","tel":"031-445-6011","addr":"경기도 안양시 만안구 박달동 56-30번지","indutype":"음료식품 - 제과점","category":"food"}]},{"lat":"37.404251497","long":"126.90959026","imageIndex":7,"items":[{"name":"축산물도소매 미트마트","tel":"031-466-5443","addr":"경기도 안양시 만안구 박달동 21-21번지","indutype":"음료식품 - 정육점","category":"food"}]},{"lat":"37.402663573","long":"126.90690422","imageIndex":7,"items":[{"name":"축산이야기","tel":"031-442-7747","addr":"경기도 안양시 만안구 박달동 99-8번지","indutype":"음료식품 - 정육점","category":"food"}]},{"lat":"37.403412817","long":"126.90865388","imageIndex":7,"items":[{"name":"태원정육점","tel":"031-443-9233","addr":"경기도 안양시 만안구 박달동 79-4번지","indutype":"음료식품 - 정육점","category":"food"}]},{"lat":"37.403387487","long":"126.91081111","imageIndex":7,"items":[{"name":"푸른바다","tel":"","addr":"경기도 안양시 만안구 박달동 65-1번지","indutype":"음료식품 - 농·축·수산품","category":"food"}]},{"lat":"37.404691286","long":"126.90745506","imageIndex":7,"items":[{"name":"한우사랑","tel":"031-447-4621","addr":"경기도 안양시 만안구 박달동 34번지","indutype":"음료식품 - 정육점","category":"food"}]},{"lat":"37.40152227","long":"126.91064399","imageIndex":7,"items":[{"name":"해그린","tel":"031-464-3652","addr":"경기도 안양시 만안구 박달동 94-95번지","indutype":"음료식품 - 농·축·수산품","category":"food"}]},{"lat":"37.402000408","long":"126.90043358","imageIndex":7,"items":[{"name":"행복한베이커리인안양점","tel":"","addr":"경기도 안양시 만안구 박달동 157-13번지","indutype":"음료식품 - 제과점","category":"food"}]},{"lat":"37.401691533","long":"126.90820427","imageIndex":7,"items":[{"name":"허브다이어트클럽","tel":"070-8878-3086","addr":"경기도 안양시 만안구 박달동 85-26번지","indutype":"회원제형태 - 건강식품","category":"food"}]},{"lat":"37.403854723","long":"126.90917286","imageIndex":7,"items":[{"name":"현대유통","tel":"031-349-3877","addr":"경기도 안양시 만안구 박달동 16-21번지","indutype":"음료식품 - 농·축·수산품","category":"food"}]},{"lat":"37.404134633","long":"126.90992924","imageIndex":7,"items":[{"name":"현미와누룽지","tel":"","addr":"경기도 안양시 만안구 박달동 21-26번지","indutype":"음료식품 - 기타음료식품","category":"food"}]},{"lat":"37.400805503","long":"126.90447841","imageIndex":7,"items":[{"name":"협동축산식품","tel":"031-443-8593","addr":"경기도 안양시 만안구 박달동 139-4번지","indutype":"음료식품 - 정육점","category":"food"}]}]