[{"lat":"37.34462171","long":"127.1767118","items":[{"name":"(몽뜨레솔)Montresor","tel":"070-7794-7981","addr":"경기도 광주시 오포읍 능평리 168-8번지 2층 205호","category":"보건위생 - 화장품"},{"name":"연세음악교습소","tel":"031-765-3436","addr":"경기도 광주시 오포읍 능평리 168-8번지","category":"학원 - 예·체능계학원"}]},{"lat":"37.34723495","long":"127.1765147","items":[{"name":"(주)네이처가닉서원","tel":"031-0000-0000","addr":"경기도 광주시 오포읍 능평리 161-18번지","category":"음료식품 - 기타음료식품"}]},{"lat":"37.35814632","long":"127.1702076","items":[{"name":"(주)또아또","tel":"031-336-4405","addr":"경기도 광주시 오포읍 능평리 373번지 (비동비01호)","category":"사무통신 - 컴퓨터"}]},{"lat":"37.34537134","long":"127.1815663","items":[{"name":"(주)리치식자재마트","tel":"031-798-6699","addr":"경기도 광주시 오포읍 능평리 146-16번지","category":"유통업 영리 - 슈퍼마켓"}]},{"lat":"37.3468706","long":"127.1851249","items":[{"name":"(주)성보타일","tel":"02-2266-6273","addr":"경기도 광주시 오포읍 능평리 56번지","category":"건축자재 - 건축용 요업제품"}]},{"lat":"37.35059329","long":"127.1719853","items":[{"name":"(주)세중물산","tel":"031-711-9421","addr":"경기도 광주시 오포읍 능평리 258-4","category":"레져용품 - 골프용품 전문점"}]},{"lat":"37.35634002","long":"127.1668174","items":[{"name":"(주)쏠라파크","tel":"031-714-9570","addr":"경기도 광주시 오포읍 능평리 352-4 2층 에이","category":"건축자재 - 조명기구"},{"name":"(주)아름유통","tel":"031-712-5257","addr":"경기도 광주시 오포읍 능평리 352-4번지","category":"의류 - 정장"},{"name":"로라데코 앳 홈 (로라데코 at home)","tel":"","addr":"경기도 광주시 오포읍 능평리 352-4번지","category":"직물 - 침구·수예점"},{"name":"오포장어마을","tel":"031-718-2092","addr":"경기도 광주시 오포읍 능평리 352-4번지","category":"일반휴게음식 - 일반한식"}]},{"lat":"37.3503131","long":"127.1725942","items":[{"name":"(주)아이솔테크놀로지","tel":"02-2294-1800","addr":"경기도 광주시 오포읍 능평리 203번지","category":"기타의료기관 - 기타의료기관 및 기타"}]},{"lat":"37.3520347","long":"127.1657132","items":[{"name":"(주)에센코퍼레이션","tel":"031-726-0127","addr":"경기도 광주시 오포읍 능평리 340-4번지","category":"서적문구 - 완구점"},{"name":"능평한의원","tel":"031-718-7586","addr":"경기도 광주시 오포읍 능평리 340-4번지 105,106,107호","category":"의원 - 한의원"},{"name":"더찬스짐","tel":"031-719-5308","addr":"경기도 광주시 오포읍 능평리 340-4번지 201호","category":"레저업소 - 헬스클럽"},{"name":"던킨도너츠 광주능평점","tel":"031-717-0336","addr":"경기도 광주시 오포읍 능평리 340-4번지 103호","category":"음료식품 - 제과점"},{"name":"바바찬","tel":"","addr":"경기도 광주시 오포읍 능평리 340-4번지 B05호","category":"음료식품 - 기타음료식품"},{"name":"엄마맘약국","tel":"","addr":"경기도 광주시 오포읍 능평리 340-4번지 1층 801호","category":"약국 - 약국"},{"name":"오복떡집 능평점","tel":"031-719-5050","addr":"경기도 광주시 오포읍 능평리 340-4번지 지층 04호","category":"음료식품 - 제과점"},{"name":"오복분식","tel":"031-714-6644","addr":"경기도 광주시 오포읍 능평리 340-4번지","category":"일반휴게음식 - 스넥"},{"name":"참서울소아청소년과의원","tel":"031-712-7123","addr":"경기도 광주시 오포읍 능평리 340-4번지 101호","category":"의원 - 의원"},{"name":"화이트365 오포능평점","tel":"031-8022-7717","addr":"경기도 광주시 오포읍 능평리 340-4번지 B06호 (340-27)","category":"수리서비스 - 세탁소"}]},{"lat":"37.34870266","long":"127.1709315","items":[{"name":"(주)플라탄이앤에스","tel":"031-1111-1111","addr":"경기도 광주시 오포읍 능평리 194-7번지 1층","category":"레져용품 - 스포츠·레져용품"}]},{"lat":"37.34859343","long":"127.17171","items":[{"name":"(주)한국바리스타알앤디","tel":"031-765-1801","addr":"경기도 광주시 오포읍 능평리 195-1번지 2층","category":"유통업 영리 - 기타유통업"},{"name":"라포즈(Lapause)","tel":"031-726-5010","addr":"경기도 광주시 오포읍 능평리 195-1번지 1층","category":"일반휴게음식 - 서양음식"},{"name":"레드링고","tel":"031-704-4232","addr":"경기도 광주시 오포읍 능평리 195-1번지","category":"가구 - 일반가구"}]},{"lat":"37.3488733","long":"127.1713156","items":[{"name":"(주)한국토이즈","tel":"031-718-8347","addr":"경기도 광주시 오포읍 능평리 195-6번지","category":"서적문구 - 완구점"},{"name":"(주)한국토이즈","tel":"031-718-8347","addr":"경기도 광주시 오포읍 능평리 195-6번지","category":"서적문구 - 완구점"},{"name":"바닐라","tel":"031-726-0401","addr":"경기도 광주시 오포읍 능평리 195-6","category":"의류 - 정장"}]},{"lat":"37.35020163","long":"127.1685986","items":[{"name":"365매일매일아이스크림할인점","tel":"031-715-3651","addr":"경기도 광주시 오포읍 능평리 266-15번지 좌측 상가","category":"음료식품 - 제과점"}]},{"lat":"37.3570975","long":"127.1663675","items":[{"name":"723스튜디오(723studio)","tel":"070-4222-9174","addr":"경기도 광주시 오포읍 능평리 416-14번지 중앙골드빌","category":"신변잡화 - 액세서리"}]},{"lat":"37.34573042","long":"127.1763984","items":[{"name":"B.B.Q","tel":"031-766-1898","addr":"경기도 광주시 오포읍 능평리 174-33","category":"일반휴게음식 - 스넥"},{"name":"K-HAIR","tel":"031-765-1300","addr":"경기도 광주시 오포읍 능평리 174-33","category":"보건위생 - 미용원"},{"name":"가장맛있는족발 (능평점)","tel":"031-766-2212","addr":"경기도 광주시 오포읍 능평리 174-33번지","category":"일반휴게음식 - 일반한식"},{"name":"까당 당구클럽","tel":"031-604-2221","addr":"경기도 광주시 오포읍 능평리 174-33번지 덕수빌딩 2층","category":"레저업소 - 당 구 장"},{"name":"아빠곰탕 (광주능평점)","tel":"031-767-6487","addr":"경기도 광주시 오포읍 능평리 174-33번지 덕수빌딩","category":"일반휴게음식 - 일반한식"},{"name":"킹부대찌개 테이크아웃 광주오포점","tel":"031-767-6487","addr":"경기도 광주시 오포읍 능평리 174-33번지 덕수빌딩 1층","category":"일반휴게음식 - 일반한식"},{"name":"포코앤포코실용음악학원","tel":"031-766-9344","addr":"경기도 광주시 오포읍 능평리 174-33번지 덕수빌딩 201호","category":"학원 - 예·체능계학원"}]},{"lat":"37.35290128","long":"127.1645413","items":[{"name":"BHC치킨(오포점)","tel":"031-717-9293","addr":"경기도 광주시 오포읍 능평리 340-18번지","category":"일반휴게음식 - 스넥"}]},{"lat":"37.34370795","long":"127.1792376","items":[{"name":"Cafe Miso","tel":"031-766-4176","addr":"경기도 광주시 오포읍 능평리 152-13번지","category":"일반휴게음식 - 서양음식"},{"name":"연세능골의원","tel":"031-766-7889","addr":"경기도 광주시 오포읍 능평리 152-13번지 2층","category":"의원 - 의원"}]},{"lat":"37.35453265","long":"127.1641497","items":[{"name":"DONBAB (돈밥)","tel":"031-626-7870","addr":"경기도 광주시 오포읍 능평리 457번지","category":"일반휴게음식 - 일반한식"},{"name":"아리헤어","tel":"031-726-3419","addr":"경기도 광주시 오포읍 능평리 457번지","category":"보건위생 - 미용원"},{"name":"임마누엘세탁점","tel":"031-726-1112","addr":"경기도 광주시 오포읍 능평리 457번지","category":"수리서비스 - 세탁소"}]},{"lat":"37.34711892","long":"127.1818188","items":[{"name":"G.1상사","tel":"031-714-3445","addr":"경기도 광주시 오포읍 능평리 132번지 트리플하우스 101동 201호","category":"건축자재 - 페인트"}]},{"lat":"37.35014597","long":"127.1697384","items":[{"name":"GORILLA GYM","tel":"031-714-2582","addr":"경기도 광주시 오포읍 능평리 265-7번지","category":"레져용품 - 스포츠·레져용품"},{"name":"한양가구 아울렛","tel":"031-716-9881","addr":"경기도 광주시 오포읍 능평리 265-7번지 1층","category":"가구 - 일반가구"}]},{"lat":"37.34386948","long":"127.1796781","items":[{"name":"GS25광주능평점","tel":"","addr":"경기도 광주시 오포읍 능평리 152-3번지 1층","category":"유통업 영리 - 편 의 점"},{"name":"갤러리","tel":"","addr":"경기도 광주시 오포읍 능평리 152-3번지","category":"의류 - 정장"},{"name":"능평제과","tel":"031-769-8388","addr":"경기도 광주시 오포읍 능평리 152-3번지 1층","category":"음료식품 - 기타음료식품"},{"name":"조은사람들","tel":"031-767-8394","addr":"경기도 광주시 오포읍 능평리 152-3번지","category":"일반휴게음식 - 일반한식"}]},{"lat":"37.3500328","long":"127.1602689","items":[{"name":"GS25광주수레실점","tel":"","addr":"경기도 광주시 오포읍 능평리 521-26번지","category":"유통업 영리 - 편 의 점"}]},{"lat":"37.35447885","long":"127.1639577","items":[{"name":"GS25광주용상점","tel":"02-2006-2485","addr":"경기도 광주시 오포읍 능평리 458-7번지 전체 1층","category":"유통업 영리 - 상품권전문판매"},{"name":"GS25광주용상점","tel":"02-2006-2485","addr":"경기도 광주시 오포읍 능평리 458-7번지 전체 1층","category":"유통업 영리 - 편 의 점"}]},{"lat":"37.35017564","long":"127.1678536","items":[{"name":"GS25광주창뜰점","tel":"","addr":"경기도 광주시 오포읍 능평리 268-10번지","category":"유통업 영리 - 편 의 점"},{"name":"GS25광주창뜰점","tel":"","addr":"경기도 광주시 오포읍 능평리 268-10번지","category":"유통업 영리 - 상품권전문판매"}]},{"lat":"37.34864335","long":"127.1806825","items":[{"name":"GS25능평타운점","tel":"","addr":"경기도 광주시 오포읍 능평리 123번지 1층 1호","category":"유통업 영리 - 편 의 점"},{"name":"누리달","tel":"031-000-0000","addr":"경기도 광주시 오포읍 능평리 123번지","category":"일반휴게음식 - 서양음식"}]},{"lat":"37.34995321","long":"127.1722322","items":[{"name":"GS25오포창뜰점","tel":"","addr":"경기도 광주시 오포읍 능평리 260-4번지 세창빌","category":"유통업 영리 - 상품권전문판매"},{"name":"GS25오포창뜰점","tel":"","addr":"경기도 광주시 오포읍 능평리 260-4번지 세창빌","category":"유통업 영리 - 편 의 점"}]},{"lat":"37.34581876","long":"127.1775949","items":[{"name":"Hair House","tel":"031-731-1712","addr":"경기도 광주시 오포읍 능평리 141-2번지","category":"보건위생 - 미용원"},{"name":"베르빌세탁","tel":"031-797-4404","addr":"경기도 광주시 오포읍 능평리 141-2번지 오포베르빌아파트","category":"수리서비스 - 세탁소"},{"name":"주식회사 한수","tel":"031-111-1111","addr":"경기도 광주시 오포읍 능평리 141-2번지 상가103호,104호","category":"음료식품 - 정육점"}]},{"lat":"37.3535787","long":"127.1633238","items":[{"name":"J STEAM","tel":"","addr":"경기도 광주시 오포읍 능평리 463-1번지 오포현대아파트","category":"자동차정비 유지 - 세차장"}]},{"lat":"37.34478361","long":"127.1829305","items":[{"name":"K 스포츠","tel":"","addr":"경기도 광주시 오포읍 능평리 68-6번지","category":"레져용품 - 스포츠·레져용품"}]},{"lat":"37.35275825","long":"127.1702069","items":[{"name":"KS메디컬","tel":"","addr":"경기도 광주시 오포읍 능평리 228-4번지","category":"건강식품 - 기타건강식품"}]},{"lat":"37.34578477","long":"127.1762066","items":[{"name":"MP3노래연습장","tel":"031-765-2778","addr":"경기도 광주시 오포읍 능평리 174번지","category":"레저업소 - 노 래 방"},{"name":"곽두리쪽갈비","tel":"031-766-3690","addr":"경기도 광주시 오포읍 능평리 174번지 주봉빌딩 1층 3호","category":"일반휴게음식 - 일반한식"},{"name":"닭궈","tel":"031-767-0096","addr":"경기도 광주시 오포읍 능평리 174번지 주봉빌딩 1층","category":"일반휴게음식 - 일식·회집"},{"name":"아람인테리어","tel":"031-768-5908","addr":"경기도 광주시 오포읍 능평리 174번지 주봉빌딩 3호","category":"가구 - 기타가구"},{"name":"와이짐(Y-GYM)헬스","tel":"02-421-7269","addr":"경기도 광주시 오포읍 능평리 174번지 주봉빌딩 3층","category":"레저업소 - 헬스클럽"},{"name":"허슬러 당구클럽","tel":"","addr":"경기도 광주시 오포읍 능평리 174번지 주봉빌딩 4층","category":"레저업소 - 당 구 장"}]},{"lat":"37.35456013","long":"127.1638225","items":[{"name":"N You","tel":"031-711-5031","addr":"경기도 광주시 오포읍 능평리 458-4번지 오성빌딩 1층 103호","category":"의류 - 아동의류"},{"name":"네일샵(NAIL#)","tel":"031-604-4256","addr":"경기도 광주시 오포읍 능평리 458-4번지 1층 104호","category":"보건위생 - 피부미용실"},{"name":"달파니","tel":"","addr":"경기도 광주시 오포읍 능평리 458-4번지 1층 102호","category":"음료식품 - 제과점"},{"name":"레드씨의 의자공방","tel":"","addr":"경기도 광주시 오포읍 능평리 458-4번지 1층 106호","category":"문화.취미 - 문화취미기타"},{"name":"빽싸롱","tel":"031-715-1720","addr":"경기도 광주시 오포읍 능평리 458-4번지 1층 107호","category":"보건위생 - 미용원"},{"name":"시온","tel":"","addr":"경기도 광주시 오포읍 능평리 458-4번지 1층 103호","category":"의류 - 정장"},{"name":"썸베베","tel":"031-717-2070","addr":"경기도 광주시 오포읍 능평리 458-4번지 오성빌딩 201호","category":"일반휴게음식 - 서양음식"},{"name":"어썸바디","tel":"031-603-7298","addr":"경기도 광주시 오포읍 능평리 458-4번지 202호","category":"레저업소 - 헬스클럽"},{"name":"자연둥이맘","tel":"070-8858-6218","addr":"경기도 광주시 오포읍 능평리 458-4번지 1층 103호","category":"음료식품 - 기타음료식품"}]},{"lat":"37.34970509","long":"127.1692972","items":[{"name":"RAUN 라운","tel":"031-602-4007","addr":"경기도 광주시 오포읍 능평리 268-4번지 B동 1층 102호","category":"일반휴게음식 - 서양음식"},{"name":"명품돼지나라","tel":"031-726-8254","addr":"경기도 광주시 오포읍 능평리 268-4번지 A동 103호","category":"음료식품 - 정육점"},{"name":"백향","tel":"031-715-8853","addr":"경기도 광주시 오포읍 능평리 268-4번지 1층","category":"일반휴게음식 - 중국식"},{"name":"엄마밥상","tel":"031-713-8534","addr":"경기도 광주시 오포읍 능평리 268-4번지 1층","category":"일반휴게음식 - 일반한식"}]},{"lat":"37.3441221","long":"127.179453","items":[{"name":"ROSA스튜디오","tel":"031-767-7433","addr":"경기도 광주시 오포읍 능평리 151-6번지 2층","category":"광학제품 - 사진관"},{"name":"강경콩나물국밥","tel":"031-766-3553","addr":"경기도 광주시 오포읍 능평리 151-6번지","category":"일반휴게음식 - 일반한식"},{"name":"싸이판노래방","tel":"031-765-1767","addr":"경기도 광주시 오포읍 능평리 151-6번지","category":"레저업소 - 노 래 방"},{"name":"피자스쿨능평삼거리점","tel":"031-768-9997","addr":"경기도 광주시 오포읍 능평리 151-6번지 1층","category":"일반휴게음식 - 서양음식"}]},{"lat":"37.35562113","long":"127.1654275","items":[{"name":"Raum(라움)","tel":"02-0000-0000","addr":"경기도 광주시 오포읍 능평리 449번지 101호","category":"일반휴게음식 - 일반한식"},{"name":"마리티(MY Little Tea Hous)","tel":"","addr":"경기도 광주시 오포읍 능평리 449번지 B동 1층 101호","category":"일반휴게음식 - 서양음식"},{"name":"송림가구","tel":"031-718-3825","addr":"경기도 광주시 오포읍 능평리 449번지","category":"가구 - 일반가구"},{"name":"오족킹","tel":"031-715-3392","addr":"경기도 광주시 오포읍 능평리 449번지 1층 101호","category":"일반휴게음식 - 일반한식"},{"name":"혼밥대장 오포점","tel":"","addr":"경기도 광주시 오포읍 능평리 449번지 A동 102호","category":"일반휴게음식 - 일반한식"}]},{"lat":"37.34817652","long":"127.1912338","items":[{"name":"S#motor (에스샵모터)","tel":"031-768-9317","addr":"경기도 광주시 오포읍 능평리 37-2번지 1층","category":"자동차정비 유지 - 카인테리어"},{"name":"강매운탕","tel":"031-766-3663","addr":"경기도 광주시 오포읍 능평리 37-2번지","category":"일반휴게음식 - 일반한식"}]},{"lat":"37.3515895","long":"127.1618071","items":[{"name":"SUAVE(수아브)","tel":"","addr":"경기도 광주시 오포읍 능평리 514-8번지 이공하이빌","category":"문화.취미 - 문화취미기타"}]},{"lat":"37.34428247","long":"127.1547948","items":[{"name":"SoopJin Flower 숲진플라워","tel":"070-8031-4038","addr":"경기도 광주시 오포읍 능평리 652번지","category":"문화.취미 - 화원"},{"name":"작은 연못 숲","tel":"031-718-7475","addr":"경기도 광주시 오포읍 능평리 652번지","category":"일반휴게음식 - 일반한식"}]},{"lat":"37.35411905","long":"127.1635168","items":[{"name":"The 굿마트","tel":"031-714-5096","addr":"경기도 광주시 오포읍 능평리 460번지 C동 B-01호 (자연다올)","category":"유통업 영리 - 슈퍼마켓"},{"name":"바로그집보쌈","tel":"031-718-5522","addr":"경기도 광주시 오포읍 능평리 460번지 지하1층","category":"일반휴게음식 - 일반한식"}]},{"lat":"37.35575413","long":"127.1669854","items":[{"name":"가나안노인주간보호센터","tel":"031-767-7707","addr":"경기도 광주시 오포읍 능평리 361-10번지 1층 계린빌딩","category":"기타의료기관 - 기타의료기관 및 기타"},{"name":"더짐(The GYM) 180°","tel":"031-715-2132","addr":"경기도 광주시 오포읍 능평리 361-10번지 2층 계린빌딩","category":"레저업소 - 헬스클럽"},{"name":"부라보F&B","tel":"031-708-9984","addr":"경기도 광주시 오포읍 능평리 361-10번지 계린빌딩 1층","category":"음료식품 - 기타음료식품"}]},{"lat":"37.35364264","long":"127.1626806","items":[{"name":"가래가미","tel":"031-726-1755","addr":"경기도 광주시 오포읍 능평리 463-1번지 오포현대아파트 1층 101호","category":"보건위생 - 미용원"}]},{"lat":"37.35333915","long":"127.1735378","items":[{"name":"강남 코칭컨설팅","tel":"031-713-8535","addr":"경기도 광주시 오포읍 능평리 211-8번지 솔메마을 6호","category":"용역 서비스 - 사무서비스"}]},{"lat":"37.34453919","long":"127.1776822","items":[{"name":"거기 노래연습장","tel":"031-765-6288","addr":"경기도 광주시 오포읍 능평리 153-4번지 금용빌딩 3층","category":"레저업소 - 노 래 방"},{"name":"미소치과의원","tel":"031-766-8858","addr":"경기도 광주시 오포읍 능평리 153-4번지","category":"의원 - 치과의원"},{"name":"오포축산물도매센타","tel":"031-766-7207","addr":"경기도 광주시 오포읍 능평리 153-4번지 금용빌딩","category":"음료식품 - 정육점"},{"name":"오포축산물도매센타","tel":"031-766-7207","addr":"경기도 광주시 오포읍 능평리 153-4번지","category":"음료식품 - 정육점"}]},{"lat":"37.3575867","long":"127.1709061","items":[{"name":"경기교육","tel":"031-704-0046","addr":"경기도 광주시 오포읍 능평리 369-5번지","category":"서적문구 - 일반서적"}]},{"lat":"37.35244986","long":"127.1652062","items":[{"name":"고기대장정육점","tel":"031-714-5530","addr":"경기도 광주시 오포읍 능평리 340-24번지 더베일리하우스 302동 B101,B101-1호","category":"음료식품 - 정육점"},{"name":"디안단테(the andante)","tel":"","addr":"경기도 광주시 오포읍 능평리 340-24번지 302동 지1층 104호","category":"의류 - 정장"},{"name":"라라네일(LALA NAIL)","tel":"","addr":"경기도 광주시 오포읍 능평리 340-24번지 더베일리하우스 302동 B103호","category":"보건위생 - 피부미용실"},{"name":"제이피","tel":"031-626-2068","addr":"경기도 광주시 오포읍 능평리 340-24번지 더베일리하우스 302동 1층 105호","category":"자동차정비 유지 - 자동차부품"},{"name":"헤어룸 프린지","tel":"031-714-5717","addr":"경기도 광주시 오포읍 능평리 340-24번지 더베일리하우스 302동 B102호","category":"보건위생 - 미용원"}]},{"lat":"37.3443947","long":"127.1779076","items":[{"name":"고기랑/365시스템(주)","tel":"031-798-9365","addr":"경기도 광주시 오포읍 능평리 153-21번지 1층","category":"일반휴게음식 - 일반한식"},{"name":"빨간모자얼큰이","tel":"031-767-3392","addr":"경기도 광주시 오포읍 능평리 153-21번지 1층","category":"일반휴게음식 - 일반한식"},{"name":"오포땡땡이포차","tel":"031-798-9365","addr":"경기도 광주시 오포읍 능평리 153-21번지","category":"일반휴게음식 - 일반한식"},{"name":"천복당구장","tel":"031-768-5475","addr":"경기도 광주시 오포읍 능평리 153-21번지","category":"레저업소 - 당 구 장"}]},{"lat":"37.34498102","long":"127.1774575","items":[{"name":"고려바른가정의학과의원","tel":"031-767-2002","addr":"경기도 광주시 오포읍 능평리 166-1번지 한신빌딩 2층","category":"의원 - 의원"},{"name":"고려바른정형외과의원","tel":"031-765-9779","addr":"경기도 광주시 오포읍 능평리 166-1번지","category":"의원 - 의원"},{"name":"명품 노래연습장","tel":"031-765-0507","addr":"경기도 광주시 오포읍 능평리 166-1번지 지층","category":"레저업소 - 노 래 방"},{"name":"애견마트 능평점","tel":"031-766-3172","addr":"경기도 광주시 오포읍 능평리 166-1번지 1층","category":"문화.취미 - 애완동물"},{"name":"에덴동물병원","tel":"031-768-9339","addr":"경기도 광주시 오포읍 능평리 166-1","category":"기타의료기관 - 동물병원"},{"name":"오포온누리약국","tel":"031-765-8858","addr":"경기도 광주시 오포읍 능평리 166-1번지","category":"약국 - 약국"},{"name":"필라테스by문","tel":"","addr":"경기도 광주시 오포읍 능평리 166-1번지 한산빌딩 2동 2층 1호","category":"레저업소 - 헬스클럽"},{"name":"행복한떡집","tel":"031-766-4849","addr":"경기도 광주시 오포읍 능평리 166-1번지","category":"음료식품 - 제과점"}]},{"lat":"37.35166214","long":"127.1613897","items":[{"name":"공사팔팔","tel":"","addr":"경기도 광주시 오포읍 능평리 514-5번지 이공하이빌","category":"전기제품 - 기타전기제품"}]},{"lat":"37.34601194","long":"127.180981","items":[{"name":"광주멀티샵","tel":"02-2679-6605","addr":"경기도 광주시 오포읍 능평리 145-9번지 1층","category":"직물 - 침구·수예점"},{"name":"야미에그","tel":"031-712-5033","addr":"경기도 광주시 오포읍 능평리 145-9번지","category":"일반휴게음식 - 서양음식"},{"name":"위너골프","tel":"031-746-0753","addr":"경기도 광주시 오포읍 능평리 145-9번지 3층 1호","category":"레져용품 - 골프용품 전문점"},{"name":"위너스크린골프존","tel":"031-764-0754","addr":"경기도 광주시 오포읍 능평리 145-9번지","category":"레저업소 - 스크린골프"},{"name":"유에이리테일","tel":"031-766-5147","addr":"경기도 광주시 오포읍 능평리 145-9번지","category":"음료식품 - 농·축·수산품"},{"name":"주식회사 마세다린 팔고사","tel":"031-000-0000","addr":"경기도 광주시 오포읍 능평리 145-9번지 1층","category":"의류 - 기타의류"},{"name":"카툰&북카페 휴","tel":"","addr":"경기도 광주시 오포읍 능평리 145-9번지 3층","category":"레저업소 - 기타레져업소"}]},{"lat":"37.35511565","long":"127.1660924","items":[{"name":"광주목공학교","tel":"031-726-9340","addr":"경기도 광주시 오포읍 능평리 344-9번지","category":"가구 - 일반가구"},{"name":"웰빙888","tel":"031-726-9340","addr":"경기도 광주시 오포읍 능평리 344-9","category":"레져용품 - 스포츠·레져용품"},{"name":"편백나라","tel":"031-7269-9340","addr":"경기도 광주시 오포읍 능평리 344-9번지","category":"가구 - 일반가구"}]},{"lat":"37.34753351","long":"127.1756802","items":[{"name":"교육트랜드","tel":"031-798-7551","addr":"경기도 광주시 오포읍 능평리 161-46번지","category":"서적문구 - 출판 및 인쇄물"}]},{"lat":"37.35828428","long":"127.1616294","items":[{"name":"국수네 달구지 막창","tel":"031-000-0000","addr":"경기도 광주시 오포읍 능평리 437-8번지 1층","category":"일반휴게음식 - 일반한식"},{"name":"닭발바닥","tel":"031-716-6662","addr":"경기도 광주시 오포읍 능평리 437-8번지 1층","category":"일반휴게음식 - 일반한식"},{"name":"서진카써비스","tel":"031-718-3275","addr":"경기도 광주시 오포읍 능평리 437-8","category":"자동차정비 유지 - 자동차정비"},{"name":"스마일찰진꽈배기","tel":"031-716-3791","addr":"경기도 광주시 오포읍 능평리 437-8번지","category":"일반휴게음식 - 스넥"},{"name":"오댄스스쿨","tel":"031-602-2119","addr":"경기도 광주시 오포읍 능평리 437-8번지 2층","category":"레저업소 - 헬스클럽"},{"name":"오포 새봄 한의원","tel":"031-717-3113","addr":"경기도 광주시 오포읍 능평리 437-8번지","category":"의원 - 한의원"}]},{"lat":"37.3446517","long":"127.1807859","items":[{"name":"굴다리전주콩나물국밥능골점","tel":"031-765-7201","addr":"경기도 광주시 오포읍 능평리 78-4번지","category":"일반휴게음식 - 일반한식"}]},{"lat":"37.34811606","long":"127.177792","items":[{"name":"굿아트컴퍼니","tel":"","addr":"경기도 광주시 오포읍 능평리 131-117번지 파크뷰 102동 101호","category":"문화.취미 - 티켓"}]},{"lat":"37.34898542","long":"127.1808977","items":[{"name":"귀뚜라미보일러","tel":"031-202-8900","addr":"경기도 광주시 오포읍 능평리 122번지 창대로또빌","category":"용역 서비스 - 기타용역서비스"}]},{"lat":"37.35681156","long":"127.1646287","items":[{"name":"그린플라워","tel":"031-711-8783","addr":"경기도 광주시 오포읍 능평리 420-6번지","category":"문화.취미 - 화원"}]},{"lat":"37.35250562","long":"127.1639648","items":[{"name":"그바람에","tel":"02-1111-1111","addr":"경기도 광주시 오포읍 능평리 338-5번지 지하 B03호","category":"음료식품 - 기타음료식품"},{"name":"벨루스네일","tel":"031-726-3118","addr":"경기도 광주시 오포읍 능평리 338-5번지 지1층","category":"보건위생 - 피부미용실"},{"name":"하립골","tel":"031-717-8688","addr":"경기도 광주시 오포읍 능평리 338-5번지","category":"회원제형태 - 기타4"}]},{"lat":"37.34748477","long":"127.1781856","items":[{"name":"금빛마트","tel":"031-766-1651","addr":"경기도 광주시 오포읍 능평리 131-134번지 B01 준스빌2","category":"유통업 영리 - 슈퍼마켓"},{"name":"크린에이드(능평점)","tel":"031-766-1652","addr":"경기도 광주시 오포읍 능평리 131-134번지 지하1층 B02호 준스빌2","category":"수리서비스 - 세탁소"}]},{"lat":"37.35020089","long":"127.169129","items":[{"name":"금호렌탈","tel":"031-718-8582","addr":"경기도 광주시 오포읍 능평리 266-2번지 1층","category":"자동차정비 유지 - 세차장"},{"name":"니노맘","tel":"032-431-3335","addr":"경기도 광주시 오포읍 능평리 266-2번지 1층 5호","category":"의류 - 아동의류"},{"name":"달강정별똥집","tel":"","addr":"경기도 광주시 오포읍 능평리 266-2번지 1층","category":"일반휴게음식 - 일반한식"},{"name":"또또분식","tel":"031-714-7745","addr":"경기도 광주시 오포읍 능평리 266-2번지 1층","category":"일반휴게음식 - 스넥"},{"name":"명성학원","tel":"031-726-1317","addr":"경기도 광주시 오포읍 능평리 266-2번지","category":"학원 - 보습학원"},{"name":"석사명성태권도","tel":"031-714-9400","addr":"경기도 광주시 오포읍 능평리 266-2번지","category":"학원 - 예·체능계학원"},{"name":"이정선낙지불쭈꾸미","tel":"031-714-1922","addr":"경기도 광주시 오포읍 능평리 266-2번지 1층 2호","category":"일반휴게음식 - 일반한식"}]},{"lat":"37.35012023","long":"127.1688241","items":[{"name":"금호세차장","tel":"031-718-8581","addr":"경기도 광주시 오포읍 능평리 266-20번지","category":"자동차정비 유지 - 세차장"}]},{"lat":"37.35092422","long":"127.1673248","items":[{"name":"김밥명가","tel":"031-713-8788","addr":"경기도 광주시 오포읍 능평리 242-1번지 G동 1층","category":"일반휴게음식 - 일반한식"},{"name":"정성","tel":"031-8023-5955","addr":"경기도 광주시 오포읍 능평리 242-1번지 지1층 B02호","category":"일반휴게음식 - 일반한식"},{"name":"젤자레헤어샵","tel":"031-712-2931","addr":"경기도 광주시 오포읍 능평리 242-1번지 지1층","category":"보건위생 - 미용원"}]},{"lat":"37.34361822","long":"127.1789891","items":[{"name":"김밥천국","tel":"031-768-4611","addr":"경기도 광주시 오포읍 능평리 152-5번지","category":"일반휴게음식 - 스넥"},{"name":"능평골","tel":"031-000-0000","addr":"경기도 광주시 오포읍 능평리 152-5번지 한산빌딩 B1층","category":"일반휴게음식 - 일반한식"},{"name":"마음수련","tel":"070-9144-2497","addr":"경기도 광주시 오포읍 능평리 152-5번지 한산빌딩 4층","category":"보건위생 - 기타대인서비스"},{"name":"소생한의원","tel":"031-768-1926","addr":"경기도 광주시 오포읍 능평리 152-5번지 한산빌딩 4층","category":"의원 - 한의원"},{"name":"오로라노래연습장","tel":"","addr":"경기도 광주시 오포읍 능평리 152-5번지 한산빌딩 2층","category":"레저업소 - 노 래 방"},{"name":"윤헤어","tel":"031-781-8884","addr":"경기도 광주시 오포읍 능평리 152-5번지","category":"보건위생 - 미용원"},{"name":"해피로PC 광주오포점","tel":"","addr":"경기도 광주시 오포읍 능평리 152-5번지 한산빌딩 2층","category":"레저업소 - 기타레져업소"},{"name":"허브앤솔","tel":"031-767-4126","addr":"경기도 광주시 오포읍 능평리 152-5번지 한산빌딩 1층","category":"일반휴게음식 - 스넥"},{"name":"현대당구장","tel":"031-603-4839","addr":"경기도 광주시 오포읍 능평리 152-5번지 3층 301호(152-18)","category":"레저업소 - 당 구 장"}]},{"lat":"37.34809528","long":"127.1671493","items":[{"name":"김일태국어교실","tel":"031-702-3233","addr":"경기도 광주시 오포읍 능평리 315-14번지 뜨라네 103동 301호","category":"학원 - 기타 교육기관"}]},{"lat":"37.34608751","long":"127.178645","items":[{"name":"김형수골프아카데미","tel":"031-553-9995","addr":"경기도 광주시 오포읍 능평리 141-2번지 오포베르빌아파트","category":"레저업소 - 골프연습장"},{"name":"바오피우","tel":"","addr":"경기도 광주시 오포읍 능평리 141-2번지 오포베르빌아파트","category":"신변잡화 - 액세서리"}]},{"lat":"37.34517961","long":"127.1772097","items":[{"name":"깐부치킨(광주오포능평점)","tel":"031-767-2929","addr":"경기도 광주시 오포읍 능평리 166-10번지","category":"일반휴게음식 - 스넥"},{"name":"멋진남자","tel":"070-4417-7890","addr":"경기도 광주시 오포읍 능평리 166-10번지","category":"보건위생 - 이용원"},{"name":"북경반점","tel":"031-766-4595","addr":"경기도 광주시 오포읍 능평리 166-10번지","category":"일반휴게음식 - 중국식"},{"name":"옥토의료기","tel":"031-716-5133","addr":"경기도 광주시 오포읍 능평리 166-10번지 B동 101호","category":"보건위생 - 의료용품"},{"name":"행운방","tel":"031-763-5838","addr":"경기도 광주시 오포읍 능평리 166-10번지","category":"신변잡화 - 기타잡화"}]},{"lat":"37.34400525","long":"127.1792609","items":[{"name":"깨돌이김밥","tel":"031-767-0058","addr":"경기도 광주시 오포읍 능평리 152-1번지","category":"일반휴게음식 - 일반한식"},{"name":"능골한의원","tel":"031-765-8706","addr":"경기도 광주시 오포읍 능평리 152-1번지 6호","category":"의원 - 한의원"},{"name":"파리바게뜨 광주능평점","tel":"031-766-4651","addr":"경기도 광주시 오포읍 능평리 152-1번지","category":"음료식품 - 제과점"},{"name":"행복한 정육","tel":"031-765-5590","addr":"경기도 광주시 오포읍 능평리 152-1번지 1층","category":"음료식품 - 정육점"},{"name":"화장품BYC전문점","tel":"031-766-4905","addr":"경기도 광주시 오포읍 능평리 152-1번지","category":"보건위생 - 화장품"}]},{"lat":"37.34546726","long":"127.1650106","items":[{"name":"꼴로랑뜨 메이크업(colorant makeup)","tel":"02-955-3355","addr":"경기도 광주시 오포읍 능평리 294-3번지 더스토리 4동 301호","category":"보건위생 - 미용원"}]},{"lat":"37.34903376","long":"127.1846561","items":[{"name":"꽃뜨락","tel":"031-766-8470","addr":"경기도 광주시 오포읍 능평리 92-6번지","category":"일반휴게음식 - 서양음식"},{"name":"해신무역","tel":"031-766-0054","addr":"경기도 광주시 오포읍 능평리 92-6번지","category":"건축자재 - 기타건축자재"}]},{"lat":"37.35228734","long":"127.1654542","items":[{"name":"꽃비 사진관","tel":"031-726-0904","addr":"경기도 광주시 오포읍 능평리 340-25번지 1층 101호더베일리하우스303","category":"광학제품 - 사진관"},{"name":"생활맥주","tel":"031-711-1696","addr":"경기도 광주시 오포읍 능평리 340-25번지 더베일리하우스 지하1층 B02-1호","category":"일반휴게음식 - 주점"},{"name":"서래마을","tel":"","addr":"경기도 광주시 오포읍 능평리 340-25번지 더베일리하우스 G동 1층 303호","category":"일반휴게음식 - 일반한식"},{"name":"응급실국물떡볶이 광주능평점","tel":"031-714-7119","addr":"경기도 광주시 오포읍 능평리 340-25번지 지하1층","category":"일반휴게음식 - 스넥"},{"name":"펫스타일","tel":"031-714-6888","addr":"경기도 광주시 오포읍 능평리 340-25번지 303동 지하 B01호","category":"문화.취미 - 애완동물"}]},{"lat":"37.35009425","long":"127.1680679","items":[{"name":"꽈배기마법사","tel":"031-715-5169","addr":"경기도 광주시 오포읍 능평리 268-7번지","category":"일반휴게음식 - 일반한식"},{"name":"네일드로잉","tel":"031-733-6486","addr":"경기도 광주시 오포읍 능평리 268-7번지 1층","category":"보건위생 - 피부미용실"},{"name":"버거핫스팟","tel":"031-726-0919","addr":"경기도 광주시 오포읍 능평리 268-7번지","category":"일반휴게음식 - 서양음식"},{"name":"벧엘가구","tel":"031-718-1973","addr":"경기도 광주시 오포읍 능평리 268-7번지","category":"가구 - 일반가구"},{"name":"셀파우등생","tel":"070-4085-8057","addr":"경기도 광주시 오포읍 능평리 268-7번지 2층 201호","category":"학원 - 보습학원"}]},{"lat":"37.34373202","long":"127.1812126","items":[{"name":"꾼...","tel":"","addr":"경기도 광주시 오포읍 능평리 71번지 1층","category":"일반휴게음식 - 주점"},{"name":"제주밥집","tel":"031-123-4567","addr":"경기도 광주시 오포읍 능평리 71번지 1층","category":"일반휴게음식 - 일반한식"}]},{"lat":"37.35095361","long":"127.1656206","items":[{"name":"끌림헤어","tel":"031-712-3746","addr":"경기도 광주시 오포읍 능평리 335-1번지 103호","category":"보건위생 - 미용원"},{"name":"도미토리","tel":"070-7078-4488","addr":"경기도 광주시 오포읍 능평리 335-1번지","category":"보건위생 - 피부미용실"},{"name":"엠앤엠(M&M) 수학전문학원(수학의달인)","tel":"031-714-3254","addr":"경기도 광주시 오포읍 능평리 335-1번지 2층","category":"학원 - 보습학원"},{"name":"처갓집양념치킨","tel":"031-726-9253","addr":"경기도 광주시 오포읍 능평리 335-1번지","category":"일반휴게음식 - 스넥"},{"name":"크린토피아","tel":"031-718-2785","addr":"경기도 광주시 오포읍 능평리 335-1","category":"수리서비스 - 세탁소"}]},{"lat":"37.34734262","long":"127.1828463","items":[{"name":"나눔공사","tel":"031-762-5737","addr":"경기도 광주시 오포읍 능평리 96-7번지 유성빌딩 103호","category":"직물 - 카페트,커튼,천막,지물"},{"name":"에스에스(S.S)바이크","tel":"031-768-8757","addr":"경기도 광주시 오포읍 능평리 96-7번지","category":"자동차판매 - 이륜차판매"},{"name":"장성만낙지전문점","tel":"031-798-6053","addr":"경기도 광주시 오포읍 능평리 96-7번지 유성빌딩","category":"일반휴게음식 - 일반한식"}]},{"lat":"37.34790058","long":"127.1832878","items":[{"name":"나무가 주는 행복","tel":"031-767-5875","addr":"경기도 광주시 오포읍 능평리 96-6번지","category":"유통업 영리 - 슈퍼마켓"},{"name":"스피드메이트능평점","tel":"031-767-5710","addr":"경기도 광주시 오포읍 능평리 96-6번지 1층","category":"자동차정비 유지 - 자동차정비"},{"name":"스피드석유","tel":"031-768-0158","addr":"경기도 광주시 오포읍 능평리 96-6번지","category":"연료판매점 - 유류판매"},{"name":"엠스피드","tel":"02-2297-1142","addr":"경기도 광주시 오포읍 능평리 96-6번지","category":"자동차정비 유지 - 자동차정비"}]},{"lat":"37.35345624","long":"127.1735719","items":[{"name":"나뭇길 (namu-way)","tel":"","addr":"경기도 광주시 오포읍 능평리 211-14번지","category":"주방용구 - 주방용구"}]},{"lat":"37.35156724","long":"127.1649335","items":[{"name":"나혁","tel":"","addr":"경기도 광주시 오포읍 능평리 338-17번지 삼화드림빌","category":"신변잡화 - 가방"}]},{"lat":"37.3568959","long":"127.1687939","items":[{"name":"남세신 매점","tel":"031-726-7116","addr":"경기도 광주시 오포읍 능평리 366-1번지 2층 남탕 내","category":"음료식품 - 기타음료식품"},{"name":"목욕탕내남자세신(중앙스파월드)","tel":"031-726-7116","addr":"경기도 광주시 오포읍 능평리 366-1번지","category":"보건위생 - 기타대인서비스"},{"name":"아침","tel":"031-762-7116","addr":"경기도 광주시 오포읍 능평리 366-1번지 2층","category":"음료식품 - 기타음료식품"},{"name":"중앙 스파월드 사우나 이용원","tel":"02-111-1111","addr":"경기도 광주시 오포읍 능평리 366-1번지","category":"보건위생 - 이용원"},{"name":"중앙세신","tel":"031-726-7116","addr":"경기도 광주시 오포읍 능평리 366-1번지 2층 여탕 세신실","category":"보건위생 - 기타대인서비스"},{"name":"중앙스넥","tel":"031-726-7116","addr":"경기도 광주시 오포읍 능평리 366-1번지 3층","category":"일반휴게음식 - 서양음식"},{"name":"중앙식당(찜질방)","tel":"031-726-7116","addr":"경기도 광주시 오포읍 능평리 366-1번지 3층","category":"일반휴게음식 - 일반한식"},{"name":"중앙피부샵","tel":"031-726-7116","addr":"경기도 광주시 오포읍 능평리 366-1번지 3층","category":"회원제형태 - 기타4"}]},{"lat":"37.35153275","long":"127.1702945","items":[{"name":"네스터골프","tel":"031-718-6730","addr":"경기도 광주시 오포읍 능평리 249-19번지 2층","category":"레져용품 - 골프용품 전문점"},{"name":"주식회사라온익스","tel":"031-735-0501","addr":"경기도 광주시 오포읍 능평리 249-19번지","category":"사무통신 - 통신기기"}]},{"lat":"37.34889787","long":"127.190897","items":[{"name":"네이처코리아","tel":"031-766-0666","addr":"경기도 광주시 오포읍 능평리 36-6번지","category":"가구 - 일반가구"},{"name":"네이처홈데코","tel":"031-766-0666","addr":"경기도 광주시 오포읍 능평리 36-6번지","category":"가구 - 일반가구"},{"name":"코비텍(KOBITECH)","tel":"031-322-6823","addr":"경기도 광주시 오포읍 능평리 36-6번지","category":"농업 - 비료,사료,종자"}]},{"lat":"37.34772817","long":"127.1517884","items":[{"name":"넥스트목회전략연구소","tel":"031-7571-4972","addr":"경기도 광주시 오포읍 능평리 678-3번지","category":"회원제형태 - 기타4"}]},{"lat":"37.35144966","long":"127.1652605","items":[{"name":"넷포스시스템(netpos system)","tel":"031-264-0446","addr":"경기도 광주시 오포읍 능평리 338-18번지 굿모닝하우스 1층 상가","category":"사무통신 - 통신기기"}]},{"lat":"37.34583952","long":"127.1757328","items":[{"name":"노리파크오포점","tel":"031-625-7333","addr":"경기도 광주시 오포읍 능평리 174-4번지 2층","category":"레저업소 - 기타레져업소"},{"name":"능평점현대자동차","tel":"031-766-9005","addr":"경기도 광주시 오포읍 능평리 174-4번지","category":"자동차정비 유지 - 자동차정비"},{"name":"드림카맨샵","tel":"031-768-3720","addr":"경기도 광주시 오포읍 능평리 174-4번지","category":"자동차정비 유지 - 자동차정비"},{"name":"레이크 노래연습장","tel":"031-765-0898","addr":"경기도 광주시 오포읍 능평리 174-4번지 2층","category":"레저업소 - 노 래 방"},{"name":"보라안경(능평점)","tel":"031-766-1100","addr":"경기도 광주시 오포읍 능평리 174-4번지","category":"보건위생 - 안경"},{"name":"이조건축인테리어","tel":"031-766-3995","addr":"경기도 광주시 오포읍 능평리 174-4번지 1층","category":"건축자재 - 인테리어전문"},{"name":"주식회사산맥건설","tel":"031-766-1100","addr":"경기도 광주시 오포읍 능평리 174-4번지 101호","category":"건축자재 - 부동산 분양"},{"name":"커피콩","tel":"031-767-5078","addr":"경기도 광주시 오포읍 능평리 174-4번지","category":"일반휴게음식 - 서양음식"}]},{"lat":"37.34384398","long":"127.1786511","items":[{"name":"누나홀닭(오포점)","tel":"031-797-6202","addr":"경기도 광주시 오포읍 능평리 152-22번지","category":"일반휴게음식 - 일반한식"},{"name":"이네이처PC","tel":"031-1234-1234","addr":"경기도 광주시 오포읍 능평리 152-22번지 2층","category":"레저업소 - 기타레져업소"}]},{"lat":"37.35198172","long":"127.171379","items":[{"name":"뉴라이프짐","tel":"070-8201-8555","addr":"경기도 광주시 오포읍 능평리 227-25번지 동서아리따움 A동 202호","category":"회원제형태 - 레져업소"},{"name":"바로정보통신","tel":"031-111-1111","addr":"경기도 광주시 오포읍 능평리 227-25번지 동서아리따움 A동 203호","category":"용역 서비스 - 기타용역서비스"}]},{"lat":"37.3572542","long":"127.1637944","items":[{"name":"늘보리","tel":"031-726-3397","addr":"경기도 광주시 오포읍 능평리 435-4번지 1층","category":"일반휴게음식 - 일반한식"},{"name":"마당발365","tel":"070-4110-7219","addr":"경기도 광주시 오포읍 능평리 435-4번지 지층","category":"보건위생 - 피부미용실"}]},{"lat":"37.34678243","long":"127.183872","items":[{"name":"늘참","tel":"031-767-9219","addr":"경기도 광주시 오포읍 능평리 89번지 1층","category":"일반휴게음식 - 일반한식"},{"name":"늘참가든정육점","tel":"031-767-9219","addr":"경기도 광주시 오포읍 능평리 89번지","category":"음료식품 - 정육점"}]},{"lat":"37.34423211","long":"127.178178","items":[{"name":"능골건강원","tel":"031-766-1500","addr":"경기도 광주시 오포읍 능평리 153-11번지","category":"건강식품 - 기타건강식품"},{"name":"오포차","tel":"031-766-9295","addr":"경기도 광주시 오포읍 능평리 153-11번지","category":"일반휴게음식 - 일반한식"},{"name":"오포철물","tel":"031-766-4787","addr":"경기도 광주시 오포읍 능평리 153-11번지","category":"건축자재 - 목재·석재·철물"},{"name":"족","tel":"031-765-6668","addr":"경기도 광주시 오포읍 능평리 153-11번지","category":"일반휴게음식 - 일반한식"},{"name":"태평양약국","tel":"031-765-8530","addr":"경기도 광주시 오포읍 능평리 153-11","category":"약국 - 약국"},{"name":"훈남통신","tel":"031-766-5010","addr":"경기도 광주시 오포읍 능평리 153-11번지","category":"사무통신 - 통신기기"}]},{"lat":"37.34420251","long":"127.1799046","items":[{"name":"능골사랑약국","tel":"031-766-6777","addr":"경기도 광주시 오포읍 능평리 151-10번지 103,104호","category":"약국 - 약국"},{"name":"코코커피","tel":"070-7514-2714","addr":"경기도 광주시 오포읍 능평리 151-10번지 1층","category":"일반휴게음식 - 서양음식"}]},{"lat":"37.34445439","long":"127.1801761","items":[{"name":"능골성모의원","tel":"031-765-8272","addr":"경기도 광주시 오포읍 능평리 77-1번지 1층","category":"의원 - 의원"},{"name":"능골성모의원","tel":"031-765-8279","addr":"경기도 광주시 오포읍 능평리 77-1번지","category":"의원 - 의원"},{"name":"능골성모의원","tel":"031-765-8275","addr":"경기도 광주시 오포읍 능평리 77-1번지 1층","category":"의원 - 의원"}]},{"lat":"37.34567734","long":"127.1817928","items":[{"name":"능골한우가","tel":"031-797-0255","addr":"경기도 광주시 오포읍 능평리 146-6번지 2층","category":"일반휴게음식 - 일반한식"},{"name":"능골한우정육센터","tel":"031-797-0255","addr":"경기도 광주시 오포읍 능평리 146-6번지 2층","category":"음료식품 - 정육점"},{"name":"아부지칼국수","tel":"031-768-4687","addr":"경기도 광주시 오포읍 능평리 146-6번지","category":"일반휴게음식 - 스넥"}]},{"lat":"37.34376314","long":"127.1784816","items":[{"name":"능평헤어이용타운","tel":"031-765-1749","addr":"경기도 광주시 오포읍 능평리 152-23번지 1층","category":"보건위생 - 이용원"},{"name":"따거","tel":"031-765-2224","addr":"경기도 광주시 오포읍 능평리 152-23번지 1층","category":"일반휴게음식 - 중국식"}]},{"lat":"37.35559494","long":"127.164818","items":[{"name":"단단 인테리어","tel":"031-706-9922","addr":"경기도 광주시 오포읍 능평리 456-27번지 휴먼테라스빌 402호","category":"문화.취미 - 화원"}]},{"lat":"37.35792136","long":"127.163491","items":[{"name":"대광세차장","tel":"031-713-9225","addr":"경기도 광주시 오포읍 능평리 433-2번지 101호","category":"자동차정비 유지 - 세차장"},{"name":"잭슨카 썬팅","tel":"031-726-5323","addr":"경기도 광주시 오포읍 능평리 433-2번지 (101,102)","category":"자동차정비 유지 - 자동차부품"},{"name":"퀴즈노스(오포점)","tel":"031-715-1990","addr":"경기도 광주시 오포읍 능평리 433-2번지 1층","category":"일반휴게음식 - 서양음식"},{"name":"하프(HARP)","tel":"031-607-6675","addr":"경기도 광주시 오포읍 능평리 433-2번지 1층","category":"의류 - 정장"}]},{"lat":"37.34526234","long":"127.1760926","items":[{"name":"대동전기조명","tel":"080-780-8000","addr":"경기도 광주시 오포읍 능평리 172-10번지","category":"건축자재 - 조명기구"},{"name":"미니스톱 광주능평로점","tel":"031-1577-9621","addr":"경기도 광주시 오포읍 능평리 172-10번지","category":"유통업 영리 - 편 의 점"},{"name":"밧데리백화점","tel":"031-763-4982","addr":"경기도 광주시 오포읍 능평리 172-10번지 외1필지","category":"자동차정비 유지 - 자동차부품"},{"name":"엄마손반찬","tel":"031-761-4997","addr":"경기도 광주시 오포읍 능평리 172-10번지 가동 1층","category":"음료식품 - 기타음료식품"},{"name":"진로마트","tel":"031-761-7799","addr":"경기도 광주시 오포읍 능평리 172-10번지","category":"유통업 영리 - 슈퍼마켓"}]},{"lat":"37.34628389","long":"127.1737588","items":[{"name":"대림 남부지정점","tel":"031-765-5827","addr":"경기도 광주시 오포읍 능평리 175-9번지","category":"수리서비스 - 가정용품수리"},{"name":"사운드 텍","tel":"031-766-3094","addr":"경기도 광주시 오포읍 능평리 175-9번지 3호","category":"전기제품 - 기타전기제품"},{"name":"성진상회","tel":"031-765-8709","addr":"경기도 광주시 오포읍 능평리 175-9번지","category":"신변잡화 - 기타잡화"},{"name":"요셉의 사람들","tel":"031-766-2650","addr":"경기도 광주시 오포읍 능평리 175-9번지","category":"용역 서비스 - 가례서비스업"},{"name":"투투판매","tel":"031-766-5264","addr":"경기도 광주시 오포읍 능평리 175-9번지","category":"자동차정비 유지 - 카인테리어"},{"name":"현대LED광고","tel":"031-726-3000","addr":"경기도 광주시 오포읍 능평리 175-9번지","category":"건축자재 - 인테리어전문"}]},{"lat":"37.35303643","long":"127.1645416","items":[{"name":"대명자동차공업사","tel":"031-781-1577","addr":"경기도 광주시 오포읍 능평리 342-2번지","category":"자동차정비 유지 - 자동차정비"}]},{"lat":"37.34622829","long":"127.1748195","items":[{"name":"대박손만두","tel":"031-769-2258","addr":"경기도 광주시 오포읍 능평리 174-7번지 1층","category":"일반휴게음식 - 스넥"},{"name":"월드골프아카데미","tel":"031-767-7600","addr":"경기도 광주시 오포읍 능평리 174-7번지 1층","category":"레저업소 - 골프연습장"},{"name":"월드골프존","tel":"031-767-7600","addr":"경기도 광주시 오포읍 능평리 174-7번지","category":"레저업소 - 스크린골프"},{"name":"월드비젼 스팀손세차","tel":"031-767-6002","addr":"경기도 광주시 오포읍 능평리 174-7번지 1층","category":"자동차정비 유지 - 세차장"}]},{"lat":"37.35570134","long":"127.1660711","items":[{"name":"대박수산","tel":"031-714-5989","addr":"경기도 광주시 오포읍 능평리 344-8번지 101호","category":"일반휴게음식 - 일식·회집"}]},{"lat":"37.34442984","long":"127.178517","items":[{"name":"대박축산","tel":"031-768-3447","addr":"경기도 광주시 오포읍 능평리 153-18번지","category":"음료식품 - 정육점"}]},{"lat":"37.35803906","long":"127.1630736","items":[{"name":"대성소곱창","tel":"031-714-9112","addr":"경기도 광주시 오포읍 능평리 429-26번지","category":"일반휴게음식 - 일반한식"},{"name":"쿠키굽는 발레리나","tel":"031-716-1127","addr":"경기도 광주시 오포읍 능평리 429-26번지","category":"음료식품 - 제과점"},{"name":"타일코리아","tel":"031-786-0241","addr":"경기도 광주시 오포읍 능평리 429-26번지","category":"건축자재 - 건축용 요업제품"}]},{"lat":"37.35014715","long":"127.1555176","items":[{"name":"대한불교조계종대각회수미산불국사","tel":"031-719-0408","addr":"경기도 광주시 오포읍 능평리 573번지","category":"용역 서비스 - 기타용역서비스"}]},{"lat":"37.35790224","long":"127.1707714","items":[{"name":"더 바른","tel":"","addr":"경기도 광주시 오포읍 능평리 372-4번지 부강타운 A동 202호","category":"보건위생 - 화장품"}]},{"lat":"37.35028323","long":"127.1682376","items":[{"name":"더블에이치짐 GX스튜디오","tel":"031-7777-7777","addr":"경기도 광주시 오포읍 능평리 267-9번지 2층","category":"레저업소 - 헬스클럽"},{"name":"카페아토","tel":"","addr":"경기도 광주시 오포읍 능평리 267-9번지","category":"일반휴게음식 - 서양음식"}]},{"lat":"37.35962243","long":"127.1648492","items":[{"name":"더블유엔피(W&P)","tel":"031-8005-4125","addr":"경기도 광주시 오포읍 능평리 431-9번지 정야홈타운 401호","category":"용역 서비스 - 사무서비스"}]},{"lat":"37.34400653","long":"127.1784032","items":[{"name":"도깨비PC 광주오포본점","tel":"070-9224-3585","addr":"경기도 광주시 오포읍 능평리 153-10번지 2층","category":"레저업소 - 기타레져업소"},{"name":"청담24시감자탕","tel":"031-763-0750","addr":"경기도 광주시 오포읍 능평리 153-10번지 1층","category":"일반휴게음식 - 일반한식"}]},{"lat":"37.34512301","long":"127.1789249","items":[{"name":"도담도담산후도우미 광주점","tel":"031-701-7237","addr":"경기도 광주시 오포읍 능평리 155-1번지 1동 103호","category":"보건위생 - 기타대인서비스"}]},{"lat":"37.34553438","long":"127.1749082","items":[{"name":"도담보담","tel":"031-000-0000","addr":"경기도 광주시 오포읍 능평리 171번지 1층 TM Vill","category":"일반휴게음식 - 서양음식"},{"name":"심플소잉NCC 경기광주오포점","tel":"031-767-6415","addr":"경기도 광주시 오포읍 능평리 171번지 외2필지","category":"직물 - 옷감·직물"},{"name":"제이에스 통신","tel":"","addr":"경기도 광주시 오포읍 능평리 171번지","category":"사무통신 - 통신기기"},{"name":"캐써린쌤의슈가영어교습소","tel":"","addr":"경기도 광주시 오포읍 능평리 171번지 2층 203호","category":"학원 - 외국어학원"}]},{"lat":"37.35814854","long":"127.1620693","items":[{"name":"도담세무회계","tel":"031-714-8193","addr":"경기도 광주시 오포읍 능평리 437-9번지 3층 우측","category":"용역 서비스 - 법률회계서비스(개인)"},{"name":"롯데리아(광주능평점)","tel":"031-726-9881","addr":"경기도 광주시 오포읍 능평리 437-9번지","category":"일반휴게음식 - 서양음식"},{"name":"샘소나이트 오포점","tel":"031-726-5775","addr":"경기도 광주시 오포읍 능평리 437-9번지 1층 좌측","category":"레져용품 - 스포츠·레져용품"}]},{"lat":"37.345234","long":"127.1769841","items":[{"name":"도마다리","tel":"031-764-3292","addr":"경기도 광주시 오포읍 능평리 166-16번지 한산빌딩","category":"일반휴게음식 - 일반한식"},{"name":"오포 찜 전문점","tel":"031-766-1007","addr":"경기도 광주시 오포읍 능평리 166-16번지 1층","category":"일반휴게음식 - 일반한식"},{"name":"합기도청도관","tel":"031-768-7278","addr":"경기도 광주시 오포읍 능평리 166-16번지","category":"학원 - 예·체능계학원"}]},{"lat":"37.35123337","long":"127.1652939","items":[{"name":"도안헤어샵","tel":"031-749-7772","addr":"경기도 광주시 오포읍 능평리 336-3번지 101호","category":"보건위생 - 미용원"}]},{"lat":"37.3580883","long":"127.1665954","items":[{"name":"도우상사","tel":"031-272-8913","addr":"경기도 광주시 오포읍 능평리 412-1번지 모아맨션","category":"자동차정비 유지 - 자동차시트·타이어"}]},{"lat":"37.35061508","long":"127.1693218","items":[{"name":"도움디자인","tel":"031-716-2605","addr":"경기도 광주시 오포읍 능평리 266-1번지 국제쉐르빌 지층 비01호","category":"건축자재 - 인테리어전문"}]},{"lat":"37.35261817","long":"127.1672946","items":[{"name":"도트유리","tel":"031-386-3416","addr":"경기도 광주시 오포읍 능평리 240-1번지","category":"신변잡화 - 기타잡화"}]},{"lat":"37.35123418","long":"127.164707","items":[{"name":"동성가구","tel":"031-718-8053","addr":"경기도 광주시 오포읍 능평리 336-2번지","category":"가구 - 일반가구"}]},{"lat":"37.3482849","long":"127.1853202","items":[{"name":"동양당가구","tel":"031-766-5005","addr":"경기도 광주시 오포읍 능평리 55번지","category":"가구 - 일반가구"}]},{"lat":"37.35542777","long":"127.1618491","items":[{"name":"동일산업","tel":"031-719-0507","addr":"경기도 광주시 오포읍 능평리 476-1번지","category":"유통업 영리 - 기타유통업"}]},{"lat":"37.34987144","long":"127.172706","items":[{"name":"두피카페(분당점)","tel":"031-715-6390","addr":"경기도 광주시 오포읍 능평리 202-4번지 창뜰빌 101호","category":"보건위생 - 미용원"},{"name":"오감미술교습소","tel":"031-711-1777","addr":"경기도 광주시 오포읍 능평리 202-4번지 창뜰빌 1층","category":"학원 - 예·체능계학원"},{"name":"히메 잡화점","tel":"070-7848-9306","addr":"경기도 광주시 오포읍 능평리 202-4번지 창뜰빌 1층","category":"의류 - 정장"}]},{"lat":"37.34753823","long":"127.178592","items":[{"name":"드레이크 브릭","tel":"","addr":"경기도 광주시 오포읍 능평리 131-114번지 헤렌하우스 101동 403호","category":"건축자재 - 목재·석재·철물"}]},{"lat":"37.35081566","long":"127.161038","items":[{"name":"드림플라워","tel":"","addr":"경기도 광주시 오포읍 능평리 517-20번지 나인빌 202호","category":"문화.취미 - 화원"}]},{"lat":"37.35778877","long":"127.1615945","items":[{"name":"디렉스모터스(Drax motors)","tel":"061-537-5849","addr":"경기도 광주시 오포읍 능평리 440-3번지","category":"자동차정비 유지 - 카인테리어"}]},{"lat":"37.34764807","long":"127.1774298","items":[{"name":"디아나 나델","tel":"","addr":"경기도 광주시 오포읍 능평리 161-60번지 아망뜨빌","category":"의류 - 맞춤복점"}]},{"lat":"37.34619679","long":"127.1778666","items":[{"name":"또리마리","tel":"02-111-1111","addr":"경기도 광주시 오포읍 능평리 141-2번지 오포베르빌아파트","category":"의류 - 아동의류"},{"name":"오띠모","tel":"070-2699-0807","addr":"경기도 광주시 오포읍 능평리 141-2번지 오포베르빌아파트","category":"의류 - 내의판매"}]},{"lat":"37.35434336","long":"127.1642058","items":[{"name":"또봉이통닭","tel":"031-715-3287","addr":"경기도 광주시 오포읍 능평리 452-1번지 G동 1층","category":"일반휴게음식 - 스넥"},{"name":"쭈헤어샵","tel":"","addr":"경기도 광주시 오포읍 능평리 452-1번지 1층","category":"보건위생 - 미용원"}]},{"lat":"37.34376176","long":"127.179407","items":[{"name":"또봉이통닭(오포점)","tel":"031-767-3210","addr":"경기도 광주시 오포읍 능평리 152-4번지","category":"일반휴게음식 - 스넥"},{"name":"럭셔리노래연습장","tel":"031-761-3641","addr":"경기도 광주시 오포읍 능평리 152-4번지","category":"레저업소 - 노 래 방"},{"name":"백두산약국","tel":"031-766-0446","addr":"경기도 광주시 오포읍 능평리 152-4","category":"약국 - 약국"}]},{"lat":"37.34409567","long":"127.1790467","items":[{"name":"뚜레쥬르","tel":"031-766-6010","addr":"경기도 광주시 오포읍 능평리 152-15번지","category":"음료식품 - 제과점"},{"name":"코리안바베큐오포점","tel":"031-765-9284","addr":"경기도 광주시 오포읍 능평리 152-15번지","category":"일반휴게음식 - 스넥"}]},{"lat":"37.35823212","long":"127.1668441","items":[{"name":"라이트패션","tel":"","addr":"경기도 광주시 오포읍 능평리 412번지 모아맨션 201동 101호","category":"의류 - 내의판매"},{"name":"잇츠교정","tel":"02-543-2885","addr":"경기도 광주시 오포읍 능평리 412번지 모아맨션 201동 201호","category":"용역 서비스 - 종합용역"}]},{"lat":"37.3464547","long":"127.1676762","items":[{"name":"라일락","tel":"031-719-1777","addr":"경기도 광주시 오포읍 능평리 284-1번지 1층","category":"문화.취미 - 티켓"},{"name":"라일락플라워","tel":"031-719-1777","addr":"경기도 광주시 오포읍 능평리 284-1번지","category":"문화.취미 - 화원"},{"name":"레드팟","tel":"031-719-1777","addr":"경기도 광주시 오포읍 능평리 284-1번지 1,2층","category":"일반휴게음식 - 서양음식"}]},{"lat":"37.35317906","long":"127.1656593","items":[{"name":"랩앤코","tel":"031-000-0000","addr":"경기도 광주시 오포읍 능평리 241-38번지","category":"문화.취미 - 애완동물"}]},{"lat":"37.34925704","long":"127.1675469","items":[{"name":"레드브릭","tel":"","addr":"경기도 광주시 오포읍 능평리 315-27번지 레드브릭 G동 1층 비103호","category":"일반휴게음식 - 서양음식"}]},{"lat":"37.35781173","long":"127.1710647","items":[{"name":"레이더스","tel":"031-111-1111","addr":"경기도 광주시 오포읍 능평리 369-3번지","category":"레저업소 - 기타레져업소"}]},{"lat":"37.3483466","long":"127.1919339","items":[{"name":"로즈앤잉글랜드","tel":"031-768-5693","addr":"경기도 광주시 오포읍 능평리 36-21번지","category":"가구 - 일반가구"}]},{"lat":"37.34956465","long":"127.1851201","items":[{"name":"리버스39","tel":"031-798-0601","addr":"경기도 광주시 오포읍 능평리 25-3번지 용주빌딩 2층 201-1호","category":"건강식품 - 기타건강식품"},{"name":"주식회사 숲울림","tel":"031-762-8998","addr":"경기도 광주시 오포읍 능평리 25-3번지 용주빌딩 1층","category":"건축자재 - 인테리어전문"}]},{"lat":"37.34601252","long":"127.1744918","items":[{"name":"리치랜드","tel":"031-767-6938","addr":"경기도 광주시 오포읍 능평리 174-9","category":"직물 - 옷감·직물"}]},{"lat":"37.34831828","long":"127.1811557","items":[{"name":"릿따 스타일","tel":"031-767-8137","addr":"경기도 광주시 오포읍 능평리 123-10번지 1층","category":"보건위생 - 미용원"},{"name":"피부점검#","tel":"031-1111-1111","addr":"경기도 광주시 오포읍 능평리 123-10번지 2층","category":"보건위생 - 피부미용실"}]},{"lat":"37.35539695","long":"127.1646482","items":[{"name":"마담그레이","tel":"070-8236-5574","addr":"경기도 광주시 오포읍 능평리 456-24번지 휴먼테라스빌 203동 201호","category":"신변잡화 - 기타잡화"}]},{"lat":"37.35406462","long":"127.1637876","items":[{"name":"마메몽","tel":"","addr":"경기도 광주시 오포읍 능평리 453-5번지","category":"농업 - 비료,사료,종자"},{"name":"밀밭칼국수","tel":"032-517-1222","addr":"경기도 광주시 오포읍 능평리 453-5번지 B동 지층1층","category":"일반휴게음식 - 일반한식"}]},{"lat":"37.35050314","long":"127.172019","items":[{"name":"마미핸디(MOMMY-HANDY)","tel":"070-8954-1751","addr":"경기도 광주시 오포읍 능평리 259번지 베아누빌 A동 401호","category":"보건위생 - 화장품"}]},{"lat":"37.3538695","long":"127.1614846","items":[{"name":"맛도락","tel":"031-000-0000","addr":"경기도 광주시 오포읍 능평리 483-9번지 1층","category":"일반휴게음식 - 일반한식"}]},{"lat":"37.34412184","long":"127.1796223","items":[{"name":"맥주콜","tel":"031-760-1368","addr":"경기도 광주시 오포읍 능평리 151-7번지 2층","category":"일반휴게음식 - 주점"},{"name":"오포전산","tel":"031-765-8222","addr":"경기도 광주시 오포읍 능평리 151-7","category":"사무통신 - 컴퓨터"}]},{"lat":"37.34492137","long":"127.1812041","items":[{"name":"먹보네칼국수","tel":"031-766-6881","addr":"경기도 광주시 오포읍 능평리 78-8","category":"일반휴게음식 - 일반한식"}]},{"lat":"37.3438708","long":"127.1787866","items":[{"name":"멕시카나치킨","tel":"031-768-1344","addr":"경기도 광주시 오포읍 능평리 152-21번지 1층","category":"일반휴게음식 - 스넥"},{"name":"일미리금계찜닭","tel":"031-767-3336","addr":"경기도 광주시 오포읍 능평리 152-21번지 1층 102호","category":"일반휴게음식 - 일반한식"}]},{"lat":"37.34939457","long":"127.1591503","items":[{"name":"명성원두자판기","tel":"031-726-9801","addr":"경기도 광주시 오포읍 능평리 528-1번지","category":"음료식품 - 기타음료식품"}]},{"lat":"37.3442041","long":"127.1788438","items":[{"name":"명성정보(능평점)","tel":"031-768-4010","addr":"경기도 광주시 오포읍 능평리 154-5번지 1층","category":"사무통신 - 통신기기"},{"name":"심야낙지전문점","tel":"031-764-4160","addr":"경기도 광주시 오포읍 능평리 154-5번지 G동 1층","category":"일반휴게음식 - 일반한식"}]},{"lat":"37.35792076","long":"127.1639312","items":[{"name":"모던데코","tel":"031-712-7273","addr":"경기도 광주시 오포읍 능평리 433번지 1층","category":"직물 - 침구·수예점"},{"name":"역전국밥 신현리점","tel":"031-604-1974","addr":"경기도 광주시 오포읍 능평리 433번지 1층","category":"일반휴게음식 - 일반한식"}]},{"lat":"37.35700712","long":"127.1665705","items":[{"name":"모비디자인","tel":"031-713-0352","addr":"경기도 광주시 오포읍 능평리 416-2번지","category":"가구 - 일반가구"},{"name":"옛날통닭","tel":"","addr":"경기도 광주시 오포읍 능평리 416-2번지 1층","category":"일반휴게음식 - 스넥"},{"name":"헤로즈","tel":"031-714-7378","addr":"경기도 광주시 오포읍 능평리 416-2번지","category":"가구 - 일반가구"}]},{"lat":"37.34797855","long":"127.1732322","items":[{"name":"모터코리아","tel":"031-717-4102","addr":"경기도 광주시 오포읍 능평리 197-4번지","category":"자동차정비 유지 - 자동차정비"},{"name":"워시 디테일링 센터","tel":"","addr":"경기도 광주시 오포읍 능평리 197-4번지","category":"자동차정비 유지 - 카인테리어"}]},{"lat":"37.34906382","long":"127.1500755","items":[{"name":"목사 요가원","tel":"02-836-1050","addr":"경기도 광주시 오포읍 능평리 604-5번지 G동 1층","category":"레저업소 - 헬스클럽"}]},{"lat":"37.34836631","long":"127.1908731","items":[{"name":"문형커피","tel":"031-000-0000","addr":"경기도 광주시 오포읍 능평리 37-15번지 1층","category":"일반휴게음식 - 서양음식"},{"name":"한식부페","tel":"031-762-0431","addr":"경기도 광주시 오포읍 능평리 37-15번지 1층","category":"일반휴게음식 - 일반한식"}]},{"lat":"37.35139625","long":"127.1712422","items":[{"name":"뮤지텍(MUSITEC)","tel":"070-5103-1333","addr":"경기도 광주시 오포읍 능평리 254-2번지 국제","category":"용역 서비스 - 종합용역"}]},{"lat":"37.34912093","long":"127.1616552","items":[{"name":"뮤직아이 성남지사","tel":"02-1111-1111","addr":"경기도 광주시 오포읍 능평리 326-8번지 한국텐즈힐 106동 102호","category":"학원 - 예·체능계학원"},{"name":"크렘(creme)","tel":"000-000-0000","addr":"경기도 광주시 오포읍 능평리 326-8번지 한국텐즈힐 106동 2층 02호","category":"보건위생 - 화장품"}]},{"lat":"37.35669903","long":"127.1678227","items":[{"name":"뮤직아이 음악학원","tel":"031-718-2448","addr":"경기도 광주시 오포읍 능평리 357-4번지 2층","category":"학원 - 예·체능계학원"},{"name":"삼성영어광명학원","tel":"031-715-5043","addr":"경기도 광주시 오포읍 능평리 357-4번지 2층","category":"학원 - 외국어학원"},{"name":"영수일관학원","tel":"031-715-3999","addr":"경기도 광주시 오포읍 능평리 357-4번지 2층","category":"학원 - 보습학원"}]},{"lat":"37.35651175","long":"127.166434","items":[{"name":"미니스톱 광주능평점","tel":"031-1577-9621","addr":"경기도 광주시 오포읍 능평리 351번지","category":"유통업 영리 - 편 의 점"},{"name":"삼시두끼","tel":"031-712-1700","addr":"경기도 광주시 오포읍 능평리 351번지","category":"일반휴게음식 - 일반한식"}]},{"lat":"37.35084494","long":"127.1660154","items":[{"name":"미담치과의원","tel":"031-711-6778","addr":"경기도 광주시 오포읍 능평리 334-1번지 4층","category":"의원 - 치과의원"},{"name":"수레실삼성건강식품","tel":"031-8022-8288","addr":"경기도 광주시 오포읍 능평리 334-1번지 3층","category":"건강식품 - 기타건강식품"},{"name":"수레실삼성의원","tel":"031-8022-8288","addr":"경기도 광주시 오포읍 능평리 334-1번지 3층","category":"의원 - 의원"},{"name":"수레실약국","tel":"031-716-1190","addr":"경기도 광주시 오포읍 능평리 334-1번지","category":"약국 - 약국"}]},{"lat":"37.34525553","long":"127.1806858","items":[{"name":"미래디자인","tel":"031-7560-9773","addr":"경기도 광주시 오포읍 능평리 145-15번지 장우빌라 105동 401호","category":"회원제형태 - 기타4"}]},{"lat":"37.35170098","long":"127.1659608","items":[{"name":"미래세탁","tel":"031-719--1036","addr":"경기도 광주시 오포읍 능평리 340-8번지 104호","category":"수리서비스 - 세탁소"},{"name":"세신공구(철물)","tel":"031-717-4833","addr":"경기도 광주시 오포읍 능평리 340-8번지","category":"기타 - 기계공구"},{"name":"인카페 PC존","tel":"070-3707-1422","addr":"경기도 광주시 오포읍 능평리 340-8번지 2층","category":"레저업소 - 기타레져업소"}]},{"lat":"37.35945486","long":"127.1687318","items":[{"name":"미미월드 아동연구소","tel":"031-715-1022","addr":"경기도 광주시 오포읍 능평리 402-1","category":"서적문구 - 기타서적문구"}]},{"lat":"37.34525969","long":"127.1778983","items":[{"name":"미풍수산","tel":"031-767-2281","addr":"경기도 광주시 오포읍 능평리 166-33번지 신영아트빌 403호","category":"음료식품 - 농·축·수산품"}]},{"lat":"37.35714544","long":"127.1707358","items":[{"name":"민기획","tel":"","addr":"경기도 광주시 오포읍 능평리 368-11번지 베아누빌","category":"용역 서비스 - 종합용역"}]},{"lat":"37.34601132","long":"127.1753156","items":[{"name":"민수네 연탄불곱창","tel":"031-797-0079","addr":"경기도 광주시 오포읍 능평리 174-5번지","category":"일반휴게음식 - 일반한식"},{"name":"쏠뱅","tel":"","addr":"경기도 광주시 오포읍 능평리 174-5번지 1층","category":"일반휴게음식 - 서양음식"},{"name":"씨엔오 아울렛","tel":"031-761-5022","addr":"경기도 광주시 오포읍 능평리 174-5번지 2,3층","category":"신변잡화 - 기타잡화"},{"name":"챠밍헤어","tel":"031-1111-1111","addr":"경기도 광주시 오포읍 능평리 174-5번지 5호","category":"보건위생 - 미용원"},{"name":"행복한가게","tel":"031-766-3568","addr":"경기도 광주시 오포읍 능평리 174-5번지 2호","category":"의류 - 정장"}]},{"lat":"37.35078938","long":"127.1670988","items":[{"name":"믿음육일축산","tel":"031-717-6504","addr":"경기도 광주시 오포읍 능평리 242-7번지 B03호","category":"음료식품 - 정육점"},{"name":"봉봉당","tel":"031-716-1912","addr":"경기도 광주시 오포읍 능평리 242-7번지 G동 1층","category":"일반휴게음식 - 서양음식"},{"name":"헌옷삼촌 아이스크림","tel":"","addr":"경기도 광주시 오포읍 능평리 242-7번지 A동 B02호","category":"음료식품 - 기타음료식품"}]},{"lat":"37.34914817","long":"127.1805144","items":[{"name":"바띠소띠","tel":"070-7782-3265","addr":"경기도 광주시 오포읍 능평리 121번지 예미지 101동 302호","category":"의류 - 정장"}]},{"lat":"37.35672719","long":"127.1670101","items":[{"name":"바로크 가구","tel":"031-711-3572","addr":"경기도 광주시 오포읍 능평리 352-3번지 1층","category":"가구 - 일반가구"}]},{"lat":"37.35036687","long":"127.1727974","items":[{"name":"바이로고스","tel":"","addr":"경기도 광주시 오포읍 능평리 203-7번지 B동 3층 302호(능평203)","category":"전기제품 - 가전제품"}]},{"lat":"37.3575057","long":"127.1643706","items":[{"name":"박찬웅 헤어러빙","tel":"031-714-0956","addr":"경기도 광주시 오포읍 능평리 427-10번지 어반하우스 A동 101호","category":"보건위생 - 미용원"},{"name":"위드미오포능평점","tel":"02-6916-1500","addr":"경기도 광주시 오포읍 능평리 427-10번지 B102호","category":"유통업 영리 - 편 의 점"},{"name":"주식회사창에스앤디 오포점","tel":"054-231-9115","addr":"경기도 광주시 오포읍 능평리 427-10번지","category":"직물 - 카페트,커튼,천막,지물"}]},{"lat":"37.35509094","long":"127.1643993","items":[{"name":"발리소품","tel":"031-000-0000","addr":"경기도 광주시 오포읍 능평리 456-1번지","category":"신변잡화 - 기타잡화"},{"name":"카뜨리에(CATELIER)","tel":"070-5104-8967","addr":"경기도 광주시 오포읍 능평리 456-1번지","category":"자동차정비 유지 - 카인테리어"},{"name":"코수라 (KASURA INTL)","tel":"","addr":"경기도 광주시 오포읍 능평리 456-1번지","category":"가구 - 기타가구"}]},{"lat":"37.35429001","long":"127.1636865","items":[{"name":"보글보글 실내 낚시카페","tel":"031-609-0091","addr":"경기도 광주시 오포읍 능평리 458번지 1동 2층","category":"레저업소 - 기타레져업소"}]},{"lat":"37.34923274","long":"127.1588791","items":[{"name":"볼륨헤어샵","tel":"031-706-8872","addr":"경기도 광주시 오포읍 능평리 564-1번지 (외2필지복정힐하우스A동지하1호)","category":"보건위생 - 미용원"},{"name":"세븐일레븐경기광주수레실점","tel":"","addr":"경기도 광주시 오포읍 능평리 564-1번지","category":"유통업 영리 - 편 의 점"},{"name":"푸릇fruit","tel":"","addr":"경기도 광주시 오포읍 능평리 564-1번지 A동 지층 비01호","category":"음료식품 - 농·축·수산품"}]},{"lat":"37.34948152","long":"127.1805377","items":[{"name":"봄모터스 (Bommotors)","tel":"","addr":"경기도 광주시 오포읍 능평리 104-3번지 굿모닝하우스 101동 203호","category":"자동차정비 유지 - 세차장"}]},{"lat":"37.35245107","long":"127.1643259","items":[{"name":"부동산중개법인하우스토리21(주)","tel":"031-778-6800","addr":"경기도 광주시 오포읍 능평리 338번지 지하 2호 (트윈빌)","category":"용역 서비스 - 부동산 중개·임대"}]},{"lat":"37.34975433","long":"127.1848159","items":[{"name":"분당공업사광주점","tel":"031-767-8062","addr":"경기도 광주시 오포읍 능평리 22-1번지","category":"자동차정비 유지 - 카인테리어"},{"name":"분당공업사광주점","tel":"031-767-8062","addr":"경기도 광주시 오포읍 능평리 22-1번지","category":"자동차정비 유지 - 자동차정비"}]},{"lat":"37.34998088","long":"127.1586549","items":[{"name":"분트(Bunt)","tel":"031-713-1084","addr":"경기도 광주시 오포읍 능평리 522-21번지 수레숲타운하우스 21동 106호","category":"직물 - 침구·수예점"}]},{"lat":"37.34395185","long":"127.1788206","items":[{"name":"불타는 토스트","tel":"070-8281-6862","addr":"경기도 광주시 오포읍 능평리 152-19번지 1층","category":"일반휴게음식 - 일반한식"},{"name":"스낵랩오포능평점","tel":"","addr":"경기도 광주시 오포읍 능평리 152-19번지 1층","category":"일반휴게음식 - 서양음식"},{"name":"자연의마음","tel":"031-797-9825","addr":"경기도 광주시 오포읍 능평리 152-19번지 1층","category":"음료식품 - 기타음료식품"}]},{"lat":"37.34725488","long":"127.1812887","items":[{"name":"블럭업","tel":"070-8885-9876","addr":"경기도 광주시 오포읍 능평리 128-1번지","category":"서적문구 - 기타서적문구"}]},{"lat":"37.34874083","long":"127.1817662","items":[{"name":"비바","tel":"","addr":"경기도 광주시 오포읍 능평리 100-1번지 옥승펠리스 A동 402호","category":"주방용구 - 주방용구"},{"name":"에스비 (SB)","tel":"031-000-0000","addr":"경기도 광주시 오포읍 능평리 100-1번지 옥승PALACE A동 201호","category":"용역 서비스 - 기타용역서비스"}]},{"lat":"37.3512557","long":"127.1621225","items":[{"name":"비아수엘","tel":"","addr":"경기도 광주시 오포읍 능평리 515-7번지 동광헤리츠 103동 302호","category":"신변잡화 - 액세서리"}]},{"lat":"37.3473144","long":"127.183625","items":[{"name":"비와이 코퍼레이션","tel":"031-1111-1111","addr":"경기도 광주시 오포읍 능평리 94-6번지 유정프라자 A동 301호","category":"사무통신 - 기타 사무용품"},{"name":"웰빙자연약초건강원","tel":"031-767-4404","addr":"경기도 광주시 오포읍 능평리 94-6번지 1층 103호","category":"건강식품 - 기타건강식품"},{"name":"전설의스테이크갈비","tel":"031-767-9227","addr":"경기도 광주시 오포읍 능평리 94-6번지 유정프라자 A동 1층","category":"일반휴게음식 - 일반한식"},{"name":"포유","tel":"031-763-2939","addr":"경기도 광주시 오포읍 능평리 94-6번지 1층","category":"일반휴게음식 - 서양음식"}]},{"lat":"37.35039857","long":"127.1695132","items":[{"name":"비전할인마트","tel":"031-711-7977","addr":"경기도 광주시 오포읍 능평리 266-19번지","category":"유통업 영리 - 슈퍼마켓"},{"name":"비전할인마트/(주)보부물산","tel":"031-711-7977","addr":"경기도 광주시 오포읍 능평리 266-19번지","category":"유통업 영리 - 슈퍼마켓"},{"name":"비젼할인마트","tel":"031-711-7977","addr":"경기도 광주시 오포읍 능평리 266-19번지","category":"유통업 영리 - 슈퍼마켓"}]},{"lat":"37.3444009","long":"127.1797922","items":[{"name":"사계절 보리밥","tel":"031-000-0000","addr":"경기도 광주시 오포읍 능평리 151-9번지 1층","category":"일반휴게음식 - 일반한식"}]},{"lat":"37.34964619","long":"127.1727055","items":[{"name":"산밑에집","tel":"031-726-3190","addr":"경기도 광주시 오포읍 능평리 202-1번지","category":"일반휴게음식 - 일반한식"}]},{"lat":"37.34722868","long":"127.1807356","items":[{"name":"삼정오토미션","tel":"02-2214-5588","addr":"경기도 광주시 오포읍 능평리 128-2번지","category":"자동차정비 유지 - 자동차부품"},{"name":"삼정카메오","tel":"02-6498-5232","addr":"경기도 광주시 오포읍 능평리 128-2번지","category":"자동차정비 유지 - 자동차부품"}]},{"lat":"37.3507569","long":"127.1709812","items":[{"name":"상현목재","tel":"031-711-2412","addr":"경기도 광주시 오포읍 능평리 264-2번지","category":"건축자재 - 목재·석재·철물"}]},{"lat":"37.34933972","long":"127.1727951","items":[{"name":"샘밑하양나라","tel":"","addr":"경기도 광주시 오포읍 능평리 201-2번지 1층","category":"학원 - 기능학원"}]},{"lat":"37.34892823","long":"127.1707063","items":[{"name":"생활속의자전거","tel":"031-726-1994","addr":"경기도 광주시 오포읍 능평리 194-33번지 2층","category":"레져용품 - 스포츠·레져용품"}]},{"lat":"37.35152204","long":"127.1714908","items":[{"name":"선재","tel":"","addr":"경기도 광주시 오포읍 능평리 255-1번지 대호팰리스빌","category":"학원 - 기타 교육기관"},{"name":"선재국어","tel":"","addr":"경기도 광주시 오포읍 능평리 255-1번지 대호팰리스 B동 201호","category":"학원 - 기타 교육기관"}]},{"lat":"37.35039323","long":"127.1853479","items":[{"name":"성남석재","tel":"031-766-9601","addr":"경기도 광주시 오포읍 능평리 26-1번지","category":"건축자재 - 목재·석재·철물"}]},{"lat":"37.34597686","long":"127.1742321","items":[{"name":"성진프론텍","tel":"031-707-7008","addr":"경기도 광주시 오포읍 능평리 176번지","category":"기타 - 기계공구"},{"name":"써브스킨","tel":"031-767-7057","addr":"경기도 광주시 오포읍 능평리 176번지","category":"자동차정비 유지 - 카인테리어"}]},{"lat":"37.34970016","long":"127.1527629","items":[{"name":"셀루스건강생활(주)","tel":"031-783-7778","addr":"경기도 광주시 오포읍 능평리 612번지 힐하우스 가동 3층","category":"보건위생 - 화장품"}]},{"lat":"37.34464941","long":"127.1762605","items":[{"name":"셀파우등생학원,예진피아노학원","tel":"031-769-3611","addr":"경기도 광주시 오포읍 능평리 169-2번지 3층","category":"회원제형태 - 학원"},{"name":"소텍컴퓨터","tel":"031-765-3664","addr":"경기도 광주시 오포읍 능평리 169-2번지","category":"사무통신 - 컴퓨터"},{"name":"아하국어교습소","tel":"031-766-7763","addr":"경기도 광주시 오포읍 능평리 169-2번지 202호","category":"회원제형태 - 학원"},{"name":"참바다회(독도수산)","tel":"031-766-6004","addr":"경기도 광주시 오포읍 능평리 169-2번지 1층","category":"일반휴게음식 - 일식·회집"},{"name":"크린토피아 (오포베르빌점)","tel":"031-334-1256","addr":"경기도 광주시 오포읍 능평리 169-2번지 그랜드빌딩","category":"수리서비스 - 세탁소"}]},{"lat":"37.35553905","long":"127.1661497","items":[{"name":"소곱창컨테이너","tel":"031-718-1018","addr":"경기도 광주시 오포읍 능평리 344-5번지","category":"일반휴게음식 - 일반한식"}]},{"lat":"37.35150764","long":"127.1689287","items":[{"name":"소예공","tel":"031-1111-1111","addr":"경기도 광주시 오포읍 능평리 249-55번지 타워빌리지","category":"문화.취미 - 화랑"},{"name":"왕어린이체육교실","tel":"","addr":"경기도 광주시 오포읍 능평리 249-55번지 타워빌리지","category":"학원 - 기타 교육기관"}]},{"lat":"37.35636574","long":"127.1677656","items":[{"name":"소프트무드","tel":"031-715-0430","addr":"경기도 광주시 오포읍 능평리 359-3번지 지층 2호","category":"의류 - 정장"},{"name":"오포양과자점","tel":"070-8031-4038","addr":"경기도 광주시 오포읍 능평리 359-3번지 지1층","category":"일반휴게음식 - 서양음식"},{"name":"케어셀라오포점","tel":"031-716-3927","addr":"경기도 광주시 오포읍 능평리 359-3번지 G동 1층 1호","category":"보건위생 - 화장품"}]},{"lat":"37.34978279","long":"127.1896803","items":[{"name":"송정닭갈비","tel":"031-766-0335","addr":"경기도 광주시 오포읍 능평리 35-1번지","category":"일반휴게음식 - 일식·회집"}]},{"lat":"37.34820175","long":"127.1549043","items":[{"name":"수레산장","tel":"031-718-4524","addr":"경기도 광주시 오포읍 능평리 636","category":"일반휴게음식 - 일반한식"}]},{"lat":"37.35040082","long":"127.1613193","items":[{"name":"수레세탁소","tel":"031-715-2604","addr":"경기도 광주시 오포읍 능평리 517-13번지 지하1층","category":"수리서비스 - 세탁소"}]},{"lat":"37.34633775","long":"127.1540428","items":[{"name":"수레실","tel":"031-718-5292","addr":"경기도 광주시 오포읍 능평리 647번지","category":"일반휴게음식 - 일반한식"}]},{"lat":"37.35407858","long":"127.1667447","items":[{"name":"수빈홈(SoobinHOME)","tel":"070-8811-3115","addr":"경기도 광주시 오포읍 능평리 916번지 오포우림필유골드135 101동 1503호","category":"직물 - 침구·수예점"}]},{"lat":"37.34954682","long":"127.152898","items":[{"name":"수아의","tel":"031-726-3448","addr":"경기도 광주시 오포읍 능평리 611-6번지 아인하우스 B동 201호","category":"의류 - 맞춤복점"}]},{"lat":"37.35428433","long":"127.1612146","items":[{"name":"수전설비나라","tel":"031-111-1111","addr":"경기도 광주시 오포읍 능평리 479-3번지 아정빌라 102호","category":"용역 서비스 - 기타용역서비스"}]},{"lat":"37.34389762","long":"127.1789334","items":[{"name":"순금세상","tel":"031-762-0725","addr":"경기도 광주시 오포읍 능평리 152-20","category":"신변잡화 - 귀금속"},{"name":"컬러헤어","tel":"031-767-9340","addr":"경기도 광주시 오포읍 능평리 152-20번지","category":"보건위생 - 미용원"}]},{"lat":"37.35745499","long":"127.1618985","items":[{"name":"슈츠","tel":"031-111-1111","addr":"경기도 광주시 오포읍 능평리 444-1번지","category":"자동차정비 유지 - 카인테리어"},{"name":"올드카팩토리","tel":"070-4127-7462","addr":"경기도 광주시 오포읍 능평리 444-1번지 1층 104호","category":"자동차정비 유지 - 자동차부품"}]},{"lat":"37.34400611","long":"127.1786853","items":[{"name":"스마일고기백화점","tel":"031-767-0031","addr":"경기도 광주시 오포읍 능평리 152-7번지","category":"음료식품 - 정육점"}]},{"lat":"37.34873023","long":"127.1705478","items":[{"name":"스마트모터스(Smart motors)","tel":"031-713-3121","addr":"경기도 광주시 오포읍 능평리 194-6번지","category":"자동차정비 유지 - 자동차부품"},{"name":"큐리어스랩 (Curious Lab)","tel":"02-790-7446","addr":"경기도 광주시 오포읍 능평리 194-6번지 남호빌딩 지하1층","category":"가구 - 일반가구"},{"name":"휠스타일","tel":"031-718-4494","addr":"경기도 광주시 오포읍 능평리 194-6번지 2층","category":"자동차정비 유지 - 자동차시트·타이어"}]},{"lat":"37.35116616","long":"127.1682847","items":[{"name":"스마트탄성","tel":"031-1670-1230","addr":"경기도 광주시 오포읍 능평리 244번지 인터펠리스빌","category":"용역 서비스 - 기타용역서비스"}]},{"lat":"37.35499277","long":"127.1637105","items":[{"name":"스윙앤슬라이드 (swing slide)","tel":"","addr":"경기도 광주시 오포읍 능평리 456-8번지 휴먼테라스빌","category":"의류 - 정장"}]},{"lat":"37.35262143","long":"127.1649357","items":[{"name":"스타일이된다 by 꽃이 되었다","tel":"070-7722-1912","addr":"경기도 광주시 오포읍 능평리 340-20번지 더베일리하우스 301동 1층 B107호","category":"문화.취미 - 화원"},{"name":"씨유광주능평로점","tel":"031-239-6691","addr":"경기도 광주시 오포읍 능평리 340-20번지 A동 B101, B102, B103","category":"유통업 영리 - 편 의 점"},{"name":"파리바게뜨 오포아이파크점","tel":"031-714-8211","addr":"경기도 광주시 오포읍 능평리 340-20번지 더베일리하우스 지하1층","category":"음료식품 - 제과점"},{"name":"홈트요가","tel":"","addr":"경기도 광주시 오포읍 능평리 340-20번지 더베일리하우스 301동 102호","category":"레저업소 - 헬스클럽"}]},{"lat":"37.3547579","long":"127.1641502","items":[{"name":"스튜디오 어랏","tel":"","addr":"경기도 광주시 오포읍 능평리 458-5번지","category":"용역 서비스 - 사무서비스"}]},{"lat":"37.34775957","long":"127.1751277","items":[{"name":"스페이스 노르딕 (Space Nordic)","tel":"031-000-0000","addr":"경기도 광주시 오포읍 능평리 161-19번지","category":"용역 서비스 - 사무서비스"}]},{"lat":"37.34879075","long":"127.1844862","items":[{"name":"시골가마솥 순대국","tel":"031-798-3117","addr":"경기도 광주시 오포읍 능평리 92-1번지","category":"일반휴게음식 - 일반한식"}]},{"lat":"37.34956048","long":"127.1491849","items":[{"name":"시은시","tel":"","addr":"경기도 광주시 오포읍 능평리 603-6번지","category":"의류 - 정장"}]},{"lat":"37.34450791","long":"127.1805373","items":[{"name":"신광종합상사","tel":"031-766-2530","addr":"경기도 광주시 오포읍 능평리 78-3","category":"건축자재 - 목재·석재·철물"}]},{"lat":"37.34648513","long":"127.1838487","items":[{"name":"신현 철물 건재","tel":"031-765-2065","addr":"경기도 광주시 오포읍 능평리 89-3번지","category":"건축자재 - 기타건축자재"}]},{"lat":"37.34967755","long":"127.1696583","items":[{"name":"썬가드","tel":"031-746-7755","addr":"경기도 광주시 오포읍 능평리 262-8번지 1층","category":"자동차정비 유지 - 자동차부품"}]},{"lat":"37.34820209","long":"127.192148","items":[{"name":"씨유광주능평그린점","tel":"031-239-6693","addr":"경기도 광주시 오포읍 능평리 36-25번지","category":"유통업 영리 - 편 의 점"},{"name":"약이본가","tel":"031-765-0752","addr":"경기도 광주시 오포읍 능평리 36-25","category":"회원제형태 - 건강식품"}]},{"lat":"37.3468971","long":"127.1795385","items":[{"name":"씨유광주능평빌리지점","tel":"070-8688-7732","addr":"경기도 광주시 오포읍 능평리 131-74번지 (외1필지)","category":"유통업 영리 - 편 의 점"},{"name":"제이콥오브블레싱(Jacob of blessing)","tel":"031-713-0513","addr":"경기도 광주시 오포읍 능평리 131-74번지 103호","category":"신변잡화 - 신발"}]},{"lat":"37.35042724","long":"127.1617708","items":[{"name":"씨유광주수레실점","tel":"031-898-6568","addr":"경기도 광주시 오포읍 능평리 517-10번지 지하1층","category":"유통업 영리 - 편 의 점"},{"name":"필마칸인테리어","tel":"031-000-0000","addr":"경기도 광주시 오포읍 능평리 517-10번지 다온빌 201호","category":"용역 서비스 - 기타용역서비스"}]},{"lat":"37.34970723","long":"127.1802336","items":[{"name":"씨유능평파라테온점","tel":"031-703-3048","addr":"경기도 광주시 오포읍 능평리 105-1번지 파라테온105 B02호","category":"유통업 영리 - 편 의 점"}]},{"lat":"37.34381282","long":"127.1814047","items":[{"name":"씨유오포왕림점","tel":"031-716-8723","addr":"경기도 광주시 오포읍 능평리 71-8번지 1층","category":"유통업 영리 - 편 의 점"}]},{"lat":"37.35964099","long":"127.1644542","items":[{"name":"아란화원","tel":"02-572-9189","addr":"경기도 광주시 오포읍 능평리 429-4번지 분당빌리지","category":"문화.취미 - 화원"}]},{"lat":"37.35263649","long":"127.1670802","items":[{"name":"아싸맘(ASSAMOM)","tel":"070-8639-9254","addr":"경기도 광주시 오포읍 능평리 240-7번지 스타파크빌 103동 102호","category":"회원제형태 - 기타4"}]},{"lat":"37.3448448","long":"127.1781794","items":[{"name":"아우트로상사","tel":"031-767-4168","addr":"경기도 광주시 오포읍 능평리 153-27","category":"신변잡화 - 기타잡화"}]},{"lat":"37.3578444","long":"127.1670464","items":[{"name":"아이원커스텀","tel":"031-111-1111","addr":"경기도 광주시 오포읍 능평리 415-2번지 1층","category":"자동차정비 유지 - 카인테리어"},{"name":"포레스트캠프","tel":"031-000-0000","addr":"경기도 광주시 오포읍 능평리 415-2번지","category":"음료식품 - 기타음료식품"}]},{"lat":"37.35222597","long":"127.1642125","items":[{"name":"아트0602","tel":"070-7365-0492","addr":"경기도 광주시 오포읍 능평리 338-7번지 101동 지1층","category":"일반휴게음식 - 서양음식"}]},{"lat":"37.34609287","long":"127.155295","items":[{"name":"아트건축인테리어(주)","tel":"","addr":"경기도 광주시 오포읍 능평리 648-6번지","category":"건축자재 - 인테리어전문"}]},{"lat":"37.35825334","long":"127.1645189","items":[{"name":"알레르망","tel":"031-718-0754","addr":"경기도 광주시 오포읍 능평리 427-1번지 모어하우스","category":"직물 - 침구·수예점"}]},{"lat":"37.35064332","long":"127.1684641","items":[{"name":"알핀코리아","tel":"","addr":"경기도 광주시 오포읍 능평리 245-2번지 보민타운 101호","category":"자동차정비 유지 - 윤활유 전문 판매"}]},{"lat":"37.34962295","long":"127.1700419","items":[{"name":"앤디까사 (ENDI CASA)","tel":"070-4219-0063","addr":"경기도 광주시 오포읍 능평리 262-3번지","category":"가구 - 일반가구"},{"name":"오포한우마을","tel":"031-713-0111","addr":"경기도 광주시 오포읍 능평리 262-3번지 2동 1층","category":"일반휴게음식 - 일반한식"},{"name":"하상변갤러리","tel":"031-712-8840","addr":"경기도 광주시 오포읍 능평리 262-3번지","category":"가구 - 일반가구"}]},{"lat":"37.34795318","long":"127.1782657","items":[{"name":"앨리스13","tel":"","addr":"경기도 광주시 오포읍 능평리 131-1번지 파인빌","category":"의류 - 기타의류"}]},{"lat":"37.35164795","long":"127.1716491","items":[{"name":"어닝하는집","tel":"031-708-1405","addr":"경기도 광주시 오포읍 능평리 225번지","category":"직물 - 카페트,커튼,천막,지물"}]},{"lat":"37.35050957","long":"127.1674593","items":[{"name":"어하둥둥","tel":"031-715-1053","addr":"경기도 광주시 오포읍 능평리 243-2번지","category":"일반휴게음식 - 일반한식"}]},{"lat":"37.35103315","long":"127.1731262","items":[{"name":"언바운드","tel":"","addr":"경기도 광주시 오포읍 능평리 205-1번지 UNBOUND","category":"레저업소 - 헬스클럽"},{"name":"프리미어모터스 (주)광주오포서비스","tel":"031-726-2008","addr":"경기도 광주시 오포읍 능평리 205-1번지","category":"자동차정비 유지 - 자동차정비"}]},{"lat":"37.35226149","long":"127.1645963","items":[{"name":"엄마의옷장앤카페","tel":"","addr":"경기도 광주시 오포읍 능평리 338-1번지 (트윈빌A B01호)","category":"일반휴게음식 - 서양음식"},{"name":"주식회사 비케이무역","tel":"031-713-8787","addr":"경기도 광주시 오포읍 능평리 338-1번지","category":"문화.취미 - 애완동물"}]},{"lat":"37.35566994","long":"127.1692088","items":[{"name":"에스12모터스","tel":"031-712-1214","addr":"경기도 광주시 오포읍 능평리 365-1번지 1층","category":"자동차정비 유지 - 자동차시트·타이어"}]},{"lat":"37.35320419","long":"127.160411","items":[{"name":"에스앤바이오 경기점","tel":"070-4763-5091","addr":"경기도 광주시 오포읍 능평리 490-5번지 에코타운 104동 402호","category":"건강식품 - 기타건강식품"}]},{"lat":"37.35233891","long":"127.1672602","items":[{"name":"에쎄커피(essecoffee)","tel":"031-000-0000","addr":"경기도 광주시 오포읍 능평리 239-12번지 스타파크빌","category":"수리서비스 - 기타수리서비스"}]},{"lat":"37.34486994","long":"127.1794548","items":[{"name":"에어클린스","tel":"","addr":"경기도 광주시 오포읍 능평리 149번지 한신빌 303호","category":"용역 서비스 - 기타용역서비스"}]},{"lat":"37.35045324","long":"127.1873231","items":[{"name":"에이스모터스","tel":"031-798-5454","addr":"경기도 광주시 오포읍 능평리 29-1번지","category":"자동차정비 유지 - 자동차정비"}]},{"lat":"37.35103282","long":"127.16035","items":[{"name":"에프엠인베스트먼트","tel":"","addr":"경기도 광주시 오포읍 능평리 510-1번지 리브가 102동 2층 201호","category":"용역 서비스 - 정보서비스"}]},{"lat":"37.35042169","long":"127.1722671","items":[{"name":"엠케이발란스트레이닝","tel":"","addr":"경기도 광주시 오포읍 능평리 259-6번지 베아누빌","category":"신변잡화 - 기타잡화"}]},{"lat":"37.35549689","long":"127.1640389","items":[{"name":"역사로 배우는 한문 출판사","tel":"","addr":"경기도 광주시 오포읍 능평리 456-18번지 휴먼테라스빌","category":"서적문구 - 출판 및 인쇄물"}]},{"lat":"37.35709137","long":"127.1642681","items":[{"name":"연하","tel":"031-726-2476","addr":"경기도 광주시 오포읍 능평리 420-4번지","category":"보건위생 - 화장품"}]},{"lat":"37.35179047","long":"127.1597534","items":[{"name":"연하콜대리운전","tel":"031-321-5088","addr":"경기도 광주시 오포읍 능평리 511-10번지 롯데파크힐 101동 101호","category":"보건위생 - 기타대인서비스"}]},{"lat":"37.35686434","long":"127.1655656","items":[{"name":"영광플라워","tel":"031-718-5420","addr":"경기도 광주시 오포읍 능평리 422-5번지","category":"문화.취미 - 화원"}]},{"lat":"37.3503714","long":"127.1630912","items":[{"name":"예쁜아이","tel":"","addr":"경기도 광주시 오포읍 능평리 329-26번지 민영파크힐 A동 102호","category":"신변잡화 - 액세서리"}]},{"lat":"37.35015171","long":"127.1720408","items":[{"name":"예틀","tel":"031-718-8797","addr":"경기도 광주시 오포읍 능평리 260-13번지 1층","category":"문화.취미 - 골동품점"}]},{"lat":"37.35048235","long":"127.1675947","items":[{"name":"오띠모","tel":"070-8877-0469","addr":"경기도 광주시 오포읍 능평리 243-4번지","category":"회원제형태 - 기타1"}]},{"lat":"37.35289362","long":"127.163548","items":[{"name":"오래뜰","tel":"031-1111-1111","addr":"경기도 광주시 오포읍 능평리 338-11번지","category":"일반휴게음식 - 일반한식"}]},{"lat":"37.34473089","long":"127.1759898","items":[{"name":"오포그랜드사우나","tel":"031-765-4567","addr":"경기도 광주시 오포읍 능평리 169-1번지","category":"보건위생 - 사우나"},{"name":"오포그랜드사우나(여탕매점)","tel":"","addr":"경기도 광주시 오포읍 능평리 169-1번지 2층","category":"음료식품 - 기타음료식품"}]},{"lat":"37.35664537","long":"127.1675404","items":[{"name":"오포산꼼장어","tel":"070-7622-2384","addr":"경기도 광주시 오포읍 능평리 357-1번지","category":"일반휴게음식 - 일반한식"}]},{"lat":"37.35597764","long":"127.1682388","items":[{"name":"오포실내스크린","tel":"031-726-3515","addr":"경기도 광주시 오포읍 능평리 359-7번지","category":"레저업소 - 스크린골프"},{"name":"중앙골프샵","tel":"031-726-8200","addr":"경기도 광주시 오포읍 능평리 359-7번지 1층","category":"레져용품 - 스포츠·레져용품"}]},{"lat":"37.34911739","long":"127.1707405","items":[{"name":"오포아울렛","tel":"031-766-4300","addr":"경기도 광주시 오포읍 능평리 194-1번지 (별관2층)","category":"의류 - 정장"}]},{"lat":"37.3510668","long":"127.1867603","items":[{"name":"오포장례식장","tel":"031-797-0444","addr":"경기도 광주시 오포읍 능평리 29-4번지","category":"용역 서비스 - 가례서비스업"}]},{"lat":"37.35320283","long":"127.1614268","items":[{"name":"온드림 동탄 평택지사","tel":"031-798-0256","addr":"경기도 광주시 오포읍 능평리 488-17번지 에코빌라 202동 102호","category":"학원 - 기타 교육기관"}]},{"lat":"37.35598169","long":"127.1653154","items":[{"name":"올데이 바스 앤 타일","tel":"031-712-6658","addr":"경기도 광주시 오포읍 능평리 448번지 2층","category":"건축자재 - 건축용 요업제품"}]},{"lat":"37.34545223","long":"127.1756303","items":[{"name":"옹기구이","tel":"031-767-5655","addr":"경기도 광주시 오포읍 능평리 172-2","category":"일반휴게음식 - 일반한식"},{"name":"한손갈비","tel":"031-797-1101","addr":"경기도 광주시 오포읍 능평리 172-2번지","category":"일반휴게음식 - 일반한식"},{"name":"한손갈비","tel":"031-430-4922","addr":"경기도 광주시 오포읍 능평리 172-2번지","category":"일반휴게음식 - 일반한식"},{"name":"헝가원보쌈","tel":"031-764-5252","addr":"경기도 광주시 오포읍 능평리 172-2번지","category":"일반휴게음식 - 일반한식"}]},{"lat":"37.34751242","long":"127.1837609","items":[{"name":"왕차이","tel":"","addr":"경기도 광주시 오포읍 능평리 94-5번지 1층","category":"일반휴게음식 - 중국식"},{"name":"율키친","tel":"031-765-3211","addr":"경기도 광주시 오포읍 능평리 94-5번지","category":"일반휴게음식 - 일반한식"},{"name":"이델우드","tel":"031-766-6546","addr":"경기도 광주시 오포읍 능평리 94-5번지","category":"가구 - 일반가구"},{"name":"최대박고기쌈","tel":"031-767-9279","addr":"경기도 광주시 오포읍 능평리 94-5번지 B동 1층","category":"일반휴게음식 - 일반한식"}]},{"lat":"37.35001044","long":"127.1700089","items":[{"name":"우드스케치","tel":"031-716-8810","addr":"경기도 광주시 오포읍 능평리 265-3번지","category":"가구 - 일반가구"},{"name":"윤갤러리","tel":"031-726-3510","addr":"경기도 광주시 오포읍 능평리 265-3번지","category":"가구 - 일반가구"}]},{"lat":"37.35867746","long":"127.1640457","items":[{"name":"우리마트","tel":"031-718-4403","addr":"경기도 광주시 오포읍 능평리 429-7번지","category":"유통업 영리 - 슈퍼마켓"}]},{"lat":"37.35181081","long":"127.1711754","items":[{"name":"우리야채","tel":"031-726-3204","addr":"경기도 광주시 오포읍 능평리 250-2, 창뜰빌라 다-302 9/","category":"음료식품 - 농·축·수산품"}]},{"lat":"37.34444991","long":"127.177129","items":[{"name":"원하는 헤어","tel":"031-768-0544","addr":"경기도 광주시 오포읍 능평리 168-6번지 1층 101호","category":"보건위생 - 미용원"}]},{"lat":"37.34908818","long":"127.1591835","items":[{"name":"월스테이","tel":"031-726-7010","addr":"경기도 광주시 오포읍 능평리 529-1번지 오페라 상가 104호","category":"건축자재 - 인테리어전문"}]},{"lat":"37.35370476","long":"127.1761571","items":[{"name":"위드하우스","tel":"","addr":"경기도 광주시 오포읍 능평리 111-40번지","category":"건축자재 - 기타건축자재"}]},{"lat":"37.34450999","long":"127.1791492","items":[{"name":"유레카","tel":"","addr":"경기도 광주시 오포읍 능평리 151-3번지 베네스트빌 103호","category":"학원 - 기타 교육기관"}]},{"lat":"37.35595293","long":"127.1665682","items":[{"name":"유워시 분당광주점","tel":"","addr":"경기도 광주시 오포읍 능평리 350번지","category":"자동차정비 유지 - 세차장"}]},{"lat":"37.35459311","long":"127.1846018","items":[{"name":"윤재네 다육","tel":"031-204-7130","addr":"경기도 광주시 오포읍 능평리 3-1","category":"문화.취미 - 화원"}]},{"lat":"37.35134108","long":"127.1655989","items":[{"name":"은혜로헤어","tel":"031-726-0436","addr":"경기도 광주시 오포읍 능평리 336-8번지 소망지산빌리지","category":"보건위생 - 미용원"}]},{"lat":"37.34837314","long":"127.1922387","items":[{"name":"이가밥상","tel":"031-766-0752","addr":"경기도 광주시 오포읍 능평리 36-9번지","category":"일반휴게음식 - 일반한식"}]},{"lat":"37.34784261","long":"127.1915715","items":[{"name":"이레패션","tel":"02-111-1111","addr":"경기도 광주시 오포읍 능평리 37-5번지","category":"의류 - 내의판매"}]},{"lat":"37.34908826","long":"127.1901526","items":[{"name":"이편한침대","tel":"031-798-0697","addr":"경기도 광주시 오포읍 능평리 36-5번지 2층","category":"가구 - 일반가구"},{"name":"폴레인세라믹","tel":"031-768-6704","addr":"경기도 광주시 오포읍 능평리 36-5번지 경기프라자 1층 6호","category":"건축자재 - 건축용 요업제품"}]},{"lat":"37.34897704","long":"127.1680316","items":[{"name":"일층공방","tel":"070-7716-5013","addr":"경기도 광주시 오포읍 능평리 316-3번지 휴그린빌","category":"신변잡화 - 기타잡화"}]},{"lat":"37.35429163","long":"127.1624901","items":[{"name":"잉크뱅크","tel":"031-1577-8229","addr":"경기도 광주시 오포읍 능평리 463-1번지 오포현대아파트","category":"회원제형태 - 기타4"}]},{"lat":"37.35125627","long":"127.1617049","items":[{"name":"자사랑","tel":"070-2447-3658","addr":"경기도 광주시 오포읍 능평리 514-9번지 이공하이빌","category":"주방용구 - 정수기"}]},{"lat":"37.34550695","long":"127.175179","items":[{"name":"자성화맛집코다리네","tel":"031-766-9222","addr":"경기도 광주시 오포읍 능평리 171-6번지 1층","category":"일반휴게음식 - 일반한식"}]},{"lat":"37.35897515","long":"127.1637868","items":[{"name":"전샘 공부방","tel":"031-607-5225","addr":"경기도 광주시 오포읍 능평리 429-21번지 낙원골드힐 2동 202호","category":"학원 - 기타 교육기관"}]},{"lat":"37.34698486","long":"127.1687043","items":[{"name":"정원퍼피하우스(Jungwon Puppy House)","tel":"031-714-5147","addr":"경기도 광주시 오포읍 능평리 273번지","category":"문화.취미 - 애완동물"}]},{"lat":"37.35706498","long":"127.1702955","items":[{"name":"제이디컴퍼니","tel":"031-884-6567","addr":"경기도 광주시 오포읍 능평리 368-3번지 베아누빌","category":"신변잡화 - 기타잡화"}]},{"lat":"37.36045405","long":"127.1694","items":[{"name":"제이티 시스템 (JT System)","tel":"","addr":"경기도 광주시 오포읍 능평리 399-7번지 지하1층","category":"직물 - 카페트,커튼,천막,지물"}]},{"lat":"37.34487214","long":"127.1839577","items":[{"name":"조약돌","tel":"031-765-4382","addr":"경기도 광주시 오포읍 능평리 64-1번지","category":"일반휴게음식 - 일반한식"}]},{"lat":"37.3511324","long":"127.1600004","items":[{"name":"좋은 골프","tel":"070-5521-6398","addr":"경기도 광주시 오포읍 능평리 510-7번지 롯데그린빌","category":"레저업소 - 골프연습장"}]},{"lat":"37.35714709","long":"127.1695732","items":[{"name":"주식회사 분당시니어 행복한요양원 2관","tel":"070-8224-8502","addr":"경기도 광주시 오포읍 능평리 375-5번지","category":"기타의료기관 - 기타의료기관 및 기타"}]},{"lat":"37.35445201","long":"127.1825924","items":[{"name":"주식회사 분당추모공원휴","tel":"031-768-5030","addr":"경기도 광주시 오포읍 능평리 6-3","category":"회원제형태 - 기타4"}]},{"lat":"37.35575969","long":"127.1694573","items":[{"name":"주식회사 에이치에스피코리아","tel":"070-4405-0608","addr":"경기도 광주시 오포읍 능평리 365-5번지","category":"자동차정비 유지 - 자동차부품"},{"name":"진컴퍼니주식회사","tel":"031-717-3655","addr":"경기도 광주시 오포읍 능평리 365-5번지","category":"자동차정비 유지 - 자동차부품"}]},{"lat":"37.3473378","long":"127.18007","items":[{"name":"주식회사 영신이앤씨","tel":"02-1899-7893","addr":"경기도 광주시 오포읍 능평리 130번지","category":"신변잡화 - 기타잡화"}]},{"lat":"37.34823366","long":"127.1834805","items":[{"name":"주식회사 프라임모터스","tel":"031-766-9909","addr":"경기도 광주시 오포읍 능평리 93-3번지","category":"자동차정비 유지 - 자동차정비"}]},{"lat":"37.35255963","long":"127.1704886","items":[{"name":"주식회사더한","tel":"031-731-5214","addr":"경기도 광주시 오포읍 능평리 228-6번지","category":"직물 - 침구·수예점"}]},{"lat":"37.34770285","long":"127.1707035","items":[{"name":"주식회사서핑라이더","tel":"031-711-0891","addr":"경기도 광주시 오포읍 능평리 193-1번지","category":"레저업소 - 기타레져업소"}]},{"lat":"37.35098056","long":"127.1720991","items":[{"name":"주식회사오픈앨리","tel":"070-7757-7704","addr":"경기도 광주시 오포읍 능평리 223-2번지 A","category":"일반휴게음식 - 스넥"}]},{"lat":"37.34745239","long":"127.1560765","items":[{"name":"주식회사한의사랑","tel":"0000-1644-1240","addr":"경기도 광주시 오포읍 능평리 549번지","category":"보건위생 - 의료용품"}]},{"lat":"37.35213639","long":"127.1703184","items":[{"name":"주앤텍(Joo&Tech)","tel":"070-7868-5478","addr":"경기도 광주시 오포읍 능평리 250-10번지 금호빌라","category":"서적문구 - 과학기자재"}]},{"lat":"37.35689722","long":"127.1678457","items":[{"name":"주홍부동산","tel":"031-718-4846","addr":"경기도 광주시 오포읍 능평리 355-1","category":"용역 서비스 - 부동산 중개·임대"}]},{"lat":"37.35797646","long":"127.169259","items":[{"name":"준자동차정비공장","tel":"031-726-2016","addr":"경기도 광주시 오포읍 능평리 381-3번지","category":"자동차정비 유지 - 자동차정비"}]},{"lat":"37.34776293","long":"127.178965","items":[{"name":"지그 리서치 코리아","tel":"031-766-0355","addr":"경기도 광주시 오포읍 능평리 131-113번지 메르헨 B동 101호","category":"사무통신 - 컴퓨터"}]},{"lat":"37.35059163","long":"127.1601234","items":[{"name":"지에스종합관리","tel":"031-8017-5798","addr":"경기도 광주시 오포읍 능평리 521-10번지 1층","category":"용역 서비스 - 종합용역"}]},{"lat":"37.35006098","long":"127.1786543","items":[{"name":"지엘인테리어","tel":"031-000-0000","addr":"경기도 광주시 오포읍 능평리 118-1번지 1층","category":"건축자재 - 인테리어전문"}]},{"lat":"37.34945391","long":"127.1868128","items":[{"name":"지오디자인","tel":"031-238-3163","addr":"경기도 광주시 오포읍 능평리 54-2번지","category":"가구 - 일반가구"}]},{"lat":"37.35195351","long":"127.1521241","items":[{"name":"지우오에이","tel":"070-8899-0420","addr":"경기도 광주시 오포읍 능평리 588-5번지","category":"사무통신 - 사무용 OA기기"}]},{"lat":"37.35158784","long":"127.1630374","items":[{"name":"지원공조 시스템","tel":"031-323-2135","addr":"경기도 광주시 오포읍 능평리 515-27번지 더뷰 103동 201호","category":"용역 서비스 - 기타용역서비스"}]},{"lat":"37.35484242","long":"127.1616221","items":[{"name":"진영SMS","tel":"031-711-6982","addr":"경기도 광주시 오포읍 능평리 474번지","category":"의류 - 정장"},{"name":"하우 (How)","tel":"031-8016-0774","addr":"경기도 광주시 오포읍 능평리 474번지 1층","category":"음료식품 - 기타음료식품"}]},{"lat":"37.34481834","long":"127.1777957","items":[{"name":"쭈꾸미아저씨","tel":"031-767-7660","addr":"경기도 광주시 오포읍 능평리 166-24번지 1층","category":"일반휴게음식 - 일반한식"}]},{"lat":"37.35103429","long":"127.152269","items":[{"name":"쭌쌤's Easy English","tel":"","addr":"경기도 광주시 오포읍 능평리 584-6번지","category":"학원 - 기타 교육기관"}]},{"lat":"37.35989709","long":"127.1682135","items":[{"name":"참사랑너싱홈","tel":"031-711-3997","addr":"경기도 광주시 오포읍 능평리 407번지","category":"기타의료기관 - 기타의료기관 및 기타"}]},{"lat":"37.34886103","long":"127.1797237","items":[{"name":"체크오 시스템","tel":"","addr":"경기도 광주시 오포읍 능평리 130-13번지 태성슈퍼빌","category":"용역 서비스 - 기타용역서비스"}]},{"lat":"37.34492482","long":"127.1789019","items":[{"name":"초마루","tel":"031-603-9989","addr":"경기도 광주시 오포읍 능평리 155-7번지 성동빌딩","category":"문화.취미 - 민예·공예품"}]},{"lat":"37.34906562","long":"127.1814848","items":[{"name":"충남인테리어","tel":"","addr":"경기도 광주시 오포읍 능평리 101-18번지 해피하우스 201동 202호","category":"건축자재 - 인테리어전문"}]},{"lat":"37.34712386","long":"127.17235","items":[{"name":"치크앤밀크,포메인광주오포점","tel":"031-798-2669","addr":"경기도 광주시 오포읍 능평리 195-3,195-12","category":"일반휴게음식 - 서양음식"},{"name":"포메인(광주오포점)/전기구이와 국물파스타","tel":"031-768-2668","addr":"경기도 광주시 오포읍 능평리 195-3번지 1,2층","category":"일반휴게음식 - 일반한식"}]},{"lat":"37.35814794","long":"127.1625095","items":[{"name":"카리스","tel":"070-1111-1111","addr":"경기도 광주시 오포읍 능평리 437-2 태재로 119,2층","category":"일반휴게음식 - 서양음식"}]},{"lat":"37.34831403","long":"127.1586289","items":[{"name":"캥거루 카페 인 능평","tel":"031-712-8899","addr":"경기도 광주시 오포읍 능평리 557-1번지 1,2층","category":"일반휴게음식 - 서양음식"}]},{"lat":"37.35018728","long":"127.1659575","items":[{"name":"커들 (cuddle)","tel":"","addr":"경기도 광주시 오포읍 능평리 319-2번지 롯데빌리지","category":"문화.취미 - 애완동물"}]},{"lat":"37.34681695","long":"127.1789063","items":[{"name":"컴퓨터수리","tel":"070-7519-2516","addr":"경기도 광주시 오포읍 능평리 131-177번지 훼미리타운 104동 101호","category":"수리서비스 - 사무·통신기기수리"}]},{"lat":"37.3569521","long":"127.1672589","items":[{"name":"클라우썸헤어","tel":"","addr":"경기도 광주시 오포읍 능평리 354번지 1층 102호","category":"보건위생 - 미용원"}]},{"lat":"37.34976024","long":"127.1809334","items":[{"name":"클렌씨스템","tel":"031-723-9578","addr":"경기도 광주시 오포읍 능평리 102-2번지 글렌하우스 103동 B02호","category":"전기제품 - 냉열기기"}]},{"lat":"37.35664732","long":"127.1661295","items":[{"name":"킨다릴리","tel":"","addr":"경기도 광주시 오포읍 능평리 418번지 연하우징 달동 201호","category":"일반휴게음식 - 서양음식"}]},{"lat":"37.34784008","long":"127.1815948","items":[{"name":"킹스우드","tel":"031-769-4433","addr":"경기도 광주시 오포읍 능평리 97","category":"건축자재 - 기타건축자재"}]},{"lat":"37.34733913","long":"127.1791784","items":[{"name":"태경식당","tel":"031-765-0577","addr":"경기도 광주시 오포읍 능평리 131-7번지 주성엔지니어링(기숙사)","category":"일반휴게음식 - 일반한식"}]},{"lat":"37.35575644","long":"127.1653149","items":[{"name":"태재건강원","tel":"031-718-6345","addr":"경기도 광주시 오포읍 능평리 451-3번지","category":"건강식품 - 기타건강식품"}]},{"lat":"37.34547776","long":"127.1826839","items":[{"name":"투썸플레이스 광주오포점","tel":"031-761-0205","addr":"경기도 광주시 오포읍 능평리 81-1번지 1층,2층","category":"일반휴게음식 - 서양음식"}]},{"lat":"37.3552553","long":"127.1627968","items":[{"name":"투에다스","tel":"070-4177-6834","addr":"경기도 광주시 오포읍 능평리 468","category":"가구 - 일반가구"}]},{"lat":"37.34589766","long":"127.1529359","items":[{"name":"팩토리670(FACTORY670)","tel":"031-718-0077","addr":"경기도 광주시 오포읍 능평리 670번지 1층","category":"일반휴게음식 - 서양음식"},{"name":"프랑스구르메(주)","tel":"031-719-2809","addr":"경기도 광주시 오포읍 능평리 670번지","category":"음료식품 - 정육점"}]},{"lat":"37.35375131","long":"127.1622745","items":[{"name":"퍼스펙티브 합명회사","tel":"","addr":"경기도 광주시 오포읍 능평리 463-1번지 오포현대아파트","category":"문화.취미 - 티켓"}]},{"lat":"37.3499773","long":"127.1862949","items":[{"name":"프로카센타","tel":"031-767-9960","addr":"경기도 광주시 오포읍 능평리 26-10번지","category":"자동차정비 유지 - 자동차정비"}]},{"lat":"37.3477331","long":"127.1549936","items":[{"name":"픽스잡스","tel":"","addr":"경기도 광주시 오포읍 능평리 637-2번지 양지타운 102호","category":"건축자재 - 기타건축자재"}]},{"lat":"37.3482298","long":"127.1676011","items":[{"name":"핀란디아","tel":"031-715-1144","addr":"경기도 광주시 오포읍 능평리 315","category":"보건위생 - 사우나"},{"name":"핀란디아한증막","tel":"031-000-0000","addr":"경기도 광주시 오포읍 능평리 315번지 2층","category":"일반휴게음식 - 일반한식"}]},{"lat":"37.34775561","long":"127.1838179","items":[{"name":"하늘꽃집","tel":"031-767-4687","addr":"경기도 광주시 오포읍 능평리 94-1번지","category":"문화.취미 - 화원"}]},{"lat":"37.34942745","long":"127.1615204","items":[{"name":"하켓(Hocket)","tel":"","addr":"경기도 광주시 오포읍 능평리 326번지 한국텐즈힐 103동 402호","category":"신변잡화 - 액세서리"}]},{"lat":"37.34498026","long":"127.1839579","items":[{"name":"한결건물관리","tel":"031-764-2377","addr":"경기도 광주시 오포읍 능평리 64번지 1층","category":"용역 서비스 - 종합용역"}]},{"lat":"37.3594519","long":"127.1643634","items":[{"name":"한림유통","tel":"031-111-1111","addr":"경기도 광주시 오포읍 능평리 429-1번지 낙원로얄빌라","category":"음료식품 - 기타음료식품"}]},{"lat":"37.34850843","long":"127.1921488","items":[{"name":"한스리빙","tel":"031-713-0431","addr":"경기도 광주시 오포읍 능평리 36-20번지","category":"주방용구 - 주방용구"}]},{"lat":"37.35050567","long":"127.1702357","items":[{"name":"한울","tel":"","addr":"경기도 광주시 오포읍 능평리 265-16번지 이스트빌2차","category":"사무통신 - 통신기기"}]},{"lat":"37.35175827","long":"127.1636021","items":[{"name":"한울인쇄","tel":"031-703-2391","addr":"경기도 광주시 오포읍 능평리 338-58번지 모우림 103동 101호","category":"용역 서비스 - 사무서비스"}]},{"lat":"37.34462194","long":"127.1825915","items":[{"name":"해피하우스","tel":"031-767-2053","addr":"경기도 광주시 오포읍 능평리 68번지 1층","category":"가구 - 일반가구"}]},{"lat":"37.35034584","long":"127.168565","items":[{"name":"핸디리빙","tel":"031-715-8317","addr":"경기도 광주시 오포읍 능평리 267-4번지 1층","category":"가구 - 일반가구"}]},{"lat":"37.35339945","long":"127.1691586","items":[{"name":"행복나라","tel":"031-699-7993","addr":"경기도 광주시 오포읍 능평리 231-15번지","category":"건축자재 - 인테리어전문"}]},{"lat":"37.34172706","long":"127.1447347","items":[{"name":"허브뜨락","tel":"031-718-5973","addr":"경기도 광주시 오포읍 능평리 786번지","category":"일반휴게음식 - 일반한식"}]},{"lat":"37.35473018","long":"127.1646581","items":[{"name":"형민건설공업","tel":"031-718-4422","addr":"경기도 광주시 오포읍 능평리 452번지","category":"건축자재 - 기타건축자재"}]},{"lat":"37.35572592","long":"127.1612402","items":[{"name":"호정바이오스","tel":"070-8600-3419","addr":"경기도 광주시 오포읍 능평리 476-5번지 팬지하우스 D동 201호","category":"서적문구 - 과학기자재"}]},{"lat":"37.35145613","long":"127.1671002","items":[{"name":"홍익상사","tel":"031-718-3151","addr":"경기도 광주시 오포읍 능평리 241-7번지","category":"레져용품 - 스포츠·레져용품"}]},{"lat":"37.34984386","long":"127.1600654","items":[{"name":"화이트스네이크(WS)","tel":"070-8225-7512","addr":"경기도 광주시 오포읍 능평리 523-1번지 한양빌라 202호","category":"서적문구 - 출판 및 인쇄물"}]},{"lat":"37.35592559","long":"127.1667939","items":[{"name":"효원관","tel":"031-718-6261","addr":"경기도 광주시 오포읍 능평리 361-2번지 1층","category":"학원 - 예·체능계학원"}]},{"lat":"37.35681042","long":"127.1654639","items":[{"name":"휘주디자인 (에이스침대)","tel":"031-718-0051","addr":"경기도 광주시 오포읍 능평리 421-5번지","category":"가구 - 일반가구"}]}]