[{"lat":"37.3921996762","long":"127.4376002933","items":[{"name":"(주)예림랜드","tel":"031-881-6236","addr":"경기도 여주시 산북면 상품리 448번지","category":"학원 - 기타 교육기관"}]},{"lat":"37.401114256","long":"127.43660145","items":[{"name":"가락도시락","tel":"031-885-6815","addr":"경기도 여주시 산북면 상품리 87-2번지 104호","category":"일반휴게음식 - 일반한식"},{"name":"스멜슈즈","tel":"070-4147-4696","addr":"경기도 여주시 산북면 상품리 87-2번지 104호","category":"신변잡화 - 신발"}]},{"lat":"37.401954192","long":"127.44337138","items":[{"name":"고향순대","tel":"031-884-9455","addr":"경기도 여주시 산북면 상품리 159-1번지","category":"일반휴게음식 - 일반한식"},{"name":"산북종합설비","tel":"031-883-7796","addr":"경기도 여주시 산북면 상품리 159-1번지","category":"용역 서비스 - 기타용역서비스"}]},{"lat":"37.39312052","long":"127.4221234","items":[{"name":"다사랑어린이집[아이행복]","tel":"031-884-4320","addr":"경기도 여주시 산북면 상품리 528-3번지","category":"학원 - 유아원"}]},{"lat":"37.40461524","long":"127.44253988","items":[{"name":"대진건축공업사","tel":"031-885-7498","addr":"경기도 여주시 산북면 상품리 36-1번지","category":"용역 서비스 - 기타용역서비스"}]},{"lat":"37.399424108","long":"127.43803729","items":[{"name":"대한소방공사","tel":"031-884-2563","addr":"경기도 여주시 산북면 상품리 265번지","category":"기타 - 기계공구"},{"name":"양평집","tel":"031-883-0193","addr":"경기도 여주시 산북면 상품리 265번지","category":"일반휴게음식 - 일반한식"}]},{"lat":"37.396619269","long":"127.4313807","items":[{"name":"동산부동산컨설팅","tel":"031-884-4321","addr":"경기도 여주시 산북면 상품리 582-2번지","category":"용역 서비스 - 사무서비스"},{"name":"세븐일레븐여주홀인원점","tel":"031-1577-0711","addr":"경기도 여주시 산북면 상품리 582-2번지","category":"유통업 영리 - 편 의 점"},{"name":"용골매운탕","tel":"031-883-6566","addr":"경기도 여주시 산북면 상품리 582-2번지","category":"일반휴게음식 - 일반한식"}]},{"lat":"37.392287459","long":"127.41818896","items":[{"name":"로스트드롭","tel":"","addr":"경기도 여주시 산북면 상품리 508-5번지 1층","category":"일반휴게음식 - 서양음식"}]},{"lat":"37.403699594","long":"127.44163099","items":[{"name":"만물농원","tel":"031-881-2762","addr":"경기도 여주시 산북면 상품리 46-3번지","category":"문화.취미 - 화원"}]},{"lat":"37.396061073","long":"127.42876882","items":[{"name":"명가산장","tel":"","addr":"경기도 여주시 산북면 상품리 551-1번지","category":"일반휴게음식 - 일반한식"}]},{"lat":"37.404285502","long":"127.44398362","items":[{"name":"문바위농원식당","tel":"031-883-1147","addr":"경기도 여주시 산북면 상품리 42-3번지","category":"일반휴게음식 - 일반한식"}]},{"lat":"37.399538315","long":"127.44126792","items":[{"name":"민주헤어클럽","tel":"031-881-4771","addr":"경기도 여주시 산북면 상품리 256-5번지","category":"보건위생 - 미용원"},{"name":"상품호프","tel":"","addr":"경기도 여주시 산북면 상품리 256-5번지 1층","category":"일반휴게음식 - 주점"},{"name":"중앙슈퍼","tel":"031-883-1381","addr":"경기도 여주시 산북면 상품리 256-5번지","category":"유통업 영리 - 슈퍼마켓"}]},{"lat":"37.399788118","long":"127.4419357","items":[{"name":"바베큐세상","tel":"031-72-9279","addr":"경기도 여주시 산북면 상품리 169-19번지","category":"음료식품 - 기타음료식품"}]},{"lat":"37.396757709","long":"127.44032569","items":[{"name":"반딧불농장","tel":"031-883-9146","addr":"경기도 여주시 산북면 상품리 228-4번지 1층","category":"음료식품 - 농·축·수산품"}]},{"lat":"37.393173315","long":"127.41993292","items":[{"name":"배꼽시계","tel":"031-886-0086","addr":"경기도 여주시 산북면 상품리 514-1번지","category":"일반휴게음식 - 일반한식"}]},{"lat":"37.399476795","long":"127.4408497","items":[{"name":"배달건재","tel":"031-883-1991","addr":"경기도 여주시 산북면 상품리 256-4번지","category":"기타 - 기계공구"}]},{"lat":"37.404563964","long":"127.44421114","items":[{"name":"번창상희","tel":"031-883-0202","addr":"경기도 여주시 산북면 상품리 24-5번지","category":"유통업 영리 - 슈퍼마켓"}]},{"lat":"37.401621964","long":"127.4430645","items":[{"name":"산북면사무소","tel":"031-887-3923","addr":"경기도 여주시 산북면 상품리 121번지 산북면사무소","category":"용역 서비스 - 사무서비스"}]},{"lat":"37.396837141","long":"127.43093021","items":[{"name":"산북바다주유소","tel":"031-883-3177","addr":"경기도 여주시 산북면 상품리 584-1번지 1층","category":"연료판매점 - SK주유소"}]},{"lat":"37.403226468","long":"127.44287059","items":[{"name":"산북어린이집[아이행복]","tel":"031-884-1815","addr":"경기도 여주시 산북면 상품리 132-2번지","category":"학원 - 유아원"}]},{"lat":"37.400839707","long":"127.44263076","items":[{"name":"산북음악학원","tel":"031-884-5700","addr":"경기도 여주시 산북면 상품리 112-19번지","category":"학원 - 예·체능계학원"},{"name":"상품마트","tel":"031-883-0010","addr":"경기도 여주시 산북면 상품리 112-19번지","category":"유통업 영리 - 슈퍼마켓"},{"name":"황금돼지부속","tel":"","addr":"경기도 여주시 산북면 상품리 112-19번지","category":"일반휴게음식 - 일반한식"}]},{"lat":"37.401872557","long":"127.44351772","items":[{"name":"산북전파사","tel":"031-884-8482","addr":"경기도 여주시 산북면 상품리 159-4번지","category":"전기제품 - 기타전기제품"},{"name":"요술가위","tel":"031-884-5883","addr":"경기도 여주시 산북면 상품리 159-4번지","category":"보건위생 - 미용원"},{"name":"페리카나치킨(산북점)","tel":"031-881-9266","addr":"경기도 여주시 산북면 상품리 159-4번지","category":"일반휴게음식 - 스넥"}]},{"lat":"37.401280474","long":"127.44282533","items":[{"name":"삼거리식당","tel":"031-883-4355","addr":"경기도 여주시 산북면 상품리 114-1번지","category":"일반휴게음식 - 일반한식"}]},{"lat":"37.401422247","long":"127.44104173","items":[{"name":"상품종합가스","tel":"031-881-0017","addr":"경기도 여주시 산북면 상품리 63번지","category":"연료판매점 - LPG 취급점"}]},{"lat":"37.402615263","long":"127.4400435","items":[{"name":"상품중학교","tel":"031-883-0051","addr":"경기도 여주시 산북면 상품리 70-1번지 상품중학교","category":"학원 - 초중고교육기관"}]},{"lat":"37.402511243","long":"127.44379252","items":[{"name":"상품철물","tel":"031-882-9991","addr":"경기도 여주시 산북면 상품리 141-10번지","category":"기타 - 기계공구"}]},{"lat":"37.404587786","long":"127.44506965","items":[{"name":"상품초등학교","tel":"031-883-0077","addr":"경기도 여주시 산북면 상품리 12-1번지 상품초등학교","category":"학원 - 초중고교육기관"},{"name":"상품초등학교병설유치원[아이행복]","tel":"031-884-0908","addr":"경기도 여주시 산북면 상품리 12-1번지 상품초등학교","category":"학원 - 유치원"}]},{"lat":"37.405645056","long":"127.44424007","items":[{"name":"상품카센타","tel":"031-882-4563","addr":"경기도 여주시 산북면 상품리 25-3번지","category":"자동차정비 유지 - 자동차정비"}]},{"lat":"37.401283045","long":"127.43232205","items":[{"name":"성은 인테리어","tel":"","addr":"경기도 여주시 산북면 상품리 614-2번지","category":"건축자재 - 인테리어전문"}]},{"lat":"37.396311477","long":"127.42928972","items":[{"name":"솔잎각","tel":"031-883-5134","addr":"경기도 여주시 산북면 상품리 552-1번지","category":"일반휴게음식 - 일반한식"}]},{"lat":"37.395837534","long":"127.42829324","items":[{"name":"순창영양탕","tel":"031-881-1757","addr":"경기도 여주시 산북면 상품리 550-1번지","category":"일반휴게음식 - 일반한식"}]},{"lat":"37.405393203","long":"127.44412565","items":[{"name":"시골집 추어탕","tel":"031-884-9153","addr":"경기도 여주시 산북면 상품리 25-7번지","category":"일반휴게음식 - 일반한식"}]},{"lat":"37.395953565","long":"127.42859881","items":[{"name":"아랑","tel":"031-881-5882","addr":"경기도 여주시 산북면 상품리 551-6번지 1층","category":"일반휴게음식 - 일반한식"}]},{"lat":"37.392815348","long":"127.41924209","items":[{"name":"애마오리","tel":"031-883-9330","addr":"경기도 여주시 산북면 상품리 511-2번지","category":"일반휴게음식 - 일반한식"}]},{"lat":"37.419640702","long":"127.42107374","items":[{"name":"양지가든","tel":"031-882-2653","addr":"경기도 여주시 산북면 상품리 588번지","category":"일반휴게음식 - 일반한식"}]},{"lat":"37.401261319","long":"127.44313015","items":[{"name":"양푼이닭볶음탕","tel":"031-882-5007","addr":"경기도 여주시 산북면 상품리 161-2번지","category":"일반휴게음식 - 일반한식"}]},{"lat":"37.394921412","long":"127.42748627","items":[{"name":"어게인","tel":"031-883-9496","addr":"경기도 여주시 산북면 상품리 536번지","category":"일반휴게음식 - 일반한식"}]},{"lat":"37.404927173","long":"127.44826796","items":[{"name":"에이로빅에이전시(A2Y)","tel":"070-4205-7188","addr":"경기도 여주시 산북면 상품리 3-28번지","category":"회원제형태 - 학원"}]},{"lat":"37.392122071","long":"127.43665128","items":[{"name":"에이치펜션","tel":"031-882-1700","addr":"경기도 여주시 산북면 상품리 448번지","category":"숙박업 - 여관/기타숙박업"}]},{"lat":"37.404086654","long":"127.44415187","items":[{"name":"영짬뽕","tel":"031-883-1918","addr":"경기도 여주시 산북면 상품리 42-3번지 영재학원 1층 104호","category":"일반휴게음식 - 중국식"}]},{"lat":"37.395287202","long":"127.42849341","items":[{"name":"올레모텔","tel":"031-883-0951","addr":"경기도 여주시 산북면 상품리 543-3번지","category":"숙박업 - 여관/기타숙박업"},{"name":"올레모텔","tel":"031-883-0951","addr":"경기도 여주시 산북면 상품리 543-3번지","category":"숙박업 - 여관/기타숙박업"}]},{"lat":"37.405423478","long":"127.4480676","items":[{"name":"월강도예","tel":"031-884-8453","addr":"경기도 여주시 산북면 상품리 3-12번지","category":"문화.취미 - 민예·공예품"}]},{"lat":"37.401038259","long":"127.44254157","items":[{"name":"유림반점","tel":"031-882-1040","addr":"경기도 여주시 산북면 상품리 114-10번지","category":"일반휴게음식 - 중국식"}]},{"lat":"37.393538012","long":"127.42126748","items":[{"name":"전주식당","tel":"031-882-7728","addr":"경기도 여주시 산북면 상품리 519-1번지 1층","category":"일반휴게음식 - 일반한식"}]},{"lat":"37.400725714","long":"127.43690415","items":[{"name":"진도가든","tel":"031-883-3975","addr":"경기도 여주시 산북면 상품리 92-2번지","category":"일반휴게음식 - 일반한식"}]},{"lat":"37.394422899","long":"127.42327123","items":[{"name":"초계탕막국수","tel":"031-884-7709","addr":"경기도 여주시 산북면 상품리 524-6번지","category":"일반휴게음식 - 일반한식"}]},{"lat":"37.403841829","long":"127.44456832","items":[{"name":"카페카리스","tel":"031-883-1001","addr":"경기도 여주시 산북면 상품리 139-5번지","category":"일반휴게음식 - 서양음식"}]},{"lat":"37.397149785","long":"127.43167734","items":[{"name":"콩이 여무네","tel":"","addr":"경기도 여주시 산북면 상품리 591번지 1층","category":"일반휴게음식 - 일반한식"}]},{"lat":"37.391732773","long":"127.41963133","items":[{"name":"평화상사","tel":"070-8592-0184","addr":"경기도 여주시 산북면 상품리 504번지","category":"자동차정비 유지 - 자동차부품"}]},{"lat":"37.400421766","long":"127.4435657","items":[{"name":"현대떡방아간","tel":"031-881-1059","addr":"경기도 여주시 산북면 상품리 164-1번지 1층","category":"음료식품 - 기타음료식품"}]},{"lat":"37.397148495","long":"127.42954291","items":[{"name":"호령","tel":"031-883-7930","addr":"경기도 여주시 산북면 상품리 586-5번지 외1필지","category":"일반휴게음식 - 일반한식"}]},{"lat":"37.395369307","long":"127.42821155","items":[{"name":"호령밥상","tel":"031-883-7930","addr":"경기도 여주시 산북면 상품리 543-4번지 1층","category":"일반휴게음식 - 일반한식"}]}]