[{"lat":"37.290052139","long":"127.63713662","imageIndex":5,"items":[{"name":"발리","tel":"031-885-7075","addr":"경기도 여주시 홍문동 281-2번지","indutype":"숙박업 - 여관/기타숙박업","category":"hotel"}]},{"lat":"37.297247015","long":"127.63791883","imageIndex":5,"items":[{"name":"서울장여관","tel":"031-885-2251","addr":"경기도 여주시 홍문동 124-4번지","indutype":"숙박업 - 여관/기타숙박업","category":"hotel"}]},{"lat":"37.289965002","long":"127.63658331","imageIndex":5,"items":[{"name":"신라모텔","tel":"031-886-7700","addr":"경기도 여주시 홍문동 272-6번지","indutype":"숙박업 - 여관/기타숙박업","category":"hotel"}]},{"lat":"37.294856057","long":"127.63853029","imageIndex":5,"items":[{"name":"영화파크여관","tel":"031-884-2546","addr":"경기도 여주시 홍문동 74-49번지","indutype":"숙박업 - 여관/기타숙박업","category":"hotel"}]},{"lat":"37.297245986","long":"127.63811055","imageIndex":5,"items":[{"name":"용궁여관","tel":"031-885-2649","addr":"경기도 여주시 홍문동 134-1번지","indutype":"숙박업 - 여관/기타숙박업","category":"hotel"}]},{"lat":"37.297192166","long":"127.63638453","imageIndex":5,"items":[{"name":"프린스","tel":"031-881-6881","addr":"경기도 여주시 홍문동 16-8번지","indutype":"숙박업 - 여관/기타숙박업","category":"hotel"}]},{"lat":"37.287217135","long":"127.63485749","imageIndex":5,"items":[{"name":"힐사이드파크","tel":"031-884-0550","addr":"경기도 여주시 홍문동 418-3번지","indutype":"숙박업 - 여관/기타숙박업","category":"hotel"}]}]