[{"lat":"37.706210754","long":"126.90269253","imageIndex":7,"items":[{"name":"가족반찬","tel":"031-968-8770","addr":"경기도 고양시 덕양구 고양동 172-1번지","indutype":"음료식품 - 기타음료식품","category":"food"},{"name":"초당즉석두부","tel":"031-963-3070","addr":"경기도 고양시 덕양구 고양동 172-1번지","indutype":"음료식품 - 기타음료식품","category":"food"}]},{"lat":"37.702317675","long":"126.90160919","imageIndex":7,"items":[{"name":"고기공방 정육점","tel":"","addr":"경기도 고양시 덕양구 고양동 231-4번지","indutype":"음료식품 - 정육점","category":"food"}]},{"lat":"37.701020418","long":"126.90175836","imageIndex":7,"items":[{"name":"고양시장기름집","tel":"031-963-9849","addr":"경기도 고양시 덕양구 고양동 243번지","indutype":"음료식품 - 기타음료식품","category":"food"},{"name":"고양월드식품복권","tel":"031-962-3210","addr":"경기도 고양시 덕양구 고양동 243번지","indutype":"음료식품 - 기타음료식품","category":"food"}]},{"lat":"37.700380248","long":"126.90119227","imageIndex":7,"items":[{"name":"고양웰빙원","tel":"031-963-6611","addr":"경기도 고양시 덕양구 고양동 248-74번지","indutype":"건강식품 - 기타건강식품","category":"food"}]},{"lat":"37.703461973","long":"126.90169835","imageIndex":7,"items":[{"name":"고양정육점","tel":"031-962-9023","addr":"경기도 고양시 덕양구 고양동 220-1번지","indutype":"음료식품 - 정육점","category":"food"}]},{"lat":"37.715957891","long":"126.90122769","imageIndex":7,"items":[{"name":"고양한우","tel":"031-967-4281","addr":"경기도 고양시 덕양구 고양동 915번지","indutype":"음료식품 - 정육점","category":"food"}]},{"lat":"37.705345272","long":"126.90203598","imageIndex":7,"items":[{"name":"낙원떡방앗간","tel":"031-963-8803","addr":"경기도 고양시 덕양구 고양동 39번지","indutype":"음료식품 - 제과점","category":"food"}]},{"lat":"37.70199123","long":"126.89919434","imageIndex":7,"items":[{"name":"다온유통","tel":"031-964-0066","addr":"경기도 고양시 덕양구 고양동 239-3번지","indutype":"음료식품 - 미곡상","category":"food"}]},{"lat":"37.715795885","long":"126.90142072","imageIndex":7,"items":[{"name":"대박농수산유통","tel":"","addr":"경기도 고양시 덕양구 고양동 855번지 세중더클래스2","indutype":"음료식품 - 농·축·수산품","category":"food"}]},{"lat":"37.703570137","long":"126.9017549","imageIndex":7,"items":[{"name":"대한축산(덕양)","tel":"031-966-8254","addr":"경기도 고양시 덕양구 고양동 129번지","indutype":"음료식품 - 정육점","category":"food"}]},{"lat":"37.70390359","long":"126.90186784","imageIndex":7,"items":[{"name":"대호흑염소","tel":"031-964-7250","addr":"경기도 고양시 덕양구 고양동 124-2번지","indutype":"건강식품 - 기타건강식품","category":"food"}]},{"lat":"37.708769625","long":"126.90285919","imageIndex":7,"items":[{"name":"더 건강해","tel":"","addr":"경기도 고양시 덕양구 고양동 721번지","indutype":"건강식품 - 기타건강식품","category":"food"},{"name":"떡고을","tel":"031-963-9229","addr":"경기도 고양시 덕양구 고양동 721번지","indutype":"음료식품 - 제과점","category":"food"},{"name":"위핏점핑클럽","tel":"","addr":"경기도 고양시 덕양구 고양동 721번지","indutype":"건강식품 - 기타건강식품","category":"food"},{"name":"축산물도소매","tel":"031-964-0980","addr":"경기도 고양시 덕양구 고양동 721번지","indutype":"음료식품 - 정육점","category":"food"}]},{"lat":"37.702795214","long":"126.90164255","imageIndex":7,"items":[{"name":"두부박사","tel":"031-969-4395","addr":"경기도 고양시 덕양구 고양동 227번지","indutype":"음료식품 - 기타음료식품","category":"food"}]},{"lat":"37.709517238","long":"126.90264272","imageIndex":7,"items":[{"name":"민재약초","tel":"","addr":"경기도 고양시 덕양구 고양동 719번지 푸른마을3단지아파트","indutype":"음료식품 - 농·축·수산품","category":"food"}]},{"lat":"37.702929811","long":"126.90100736","imageIndex":7,"items":[{"name":"밀러스 타바코","tel":"031-969-9770","addr":"경기도 고양시 덕양구 고양동 233-3번지","indutype":"음료식품 - 기타음료식품","category":"food"}]},{"lat":"37.707066666","long":"126.90269138","imageIndex":7,"items":[{"name":"바이슈에뜨","tel":"031-000-0000","addr":"경기도 고양시 덕양구 고양동 33-9번지","indutype":"음료식품 - 기타음료식품","category":"food"}]},{"lat":"37.702569905","long":"126.90156348","imageIndex":7,"items":[{"name":"베스킨라빈스아이스크림 고양점","tel":"031-962-7342","addr":"경기도 고양시 덕양구 고양동 230-1번지","indutype":"음료식품 - 제과점","category":"food"}]},{"lat":"37.701849176","long":"126.90160982","imageIndex":7,"items":[{"name":"비단떡","tel":"031-964-7827","addr":"경기도 고양시 덕양구 고양동 240-2번지","indutype":"음료식품 - 제과점","category":"food"}]},{"lat":"37.706517273","long":"126.90291892","imageIndex":7,"items":[{"name":"빵굽는작은마을","tel":"031-962-0437","addr":"경기도 고양시 덕양구 고양동 174-1번지","indutype":"음료식품 - 제과점","category":"food"}]},{"lat":"37.709101749","long":"126.90141851","imageIndex":7,"items":[{"name":"서울우유고양동대리점","tel":"031-962-4168","addr":"경기도 고양시 덕양구 고양동 7-2번지","indutype":"음료식품 - 기타음료식품","category":"food"},{"name":"정글유통","tel":"","addr":"경기도 고양시 덕양구 고양동 7-2번지","indutype":"음료식품 - 정육점","category":"food"}]},{"lat":"37.717201906","long":"126.90203125","imageIndex":7,"items":[{"name":"서원푸드","tel":"031-967-8980","addr":"경기도 고양시 덕양구 고양동 982번지","indutype":"음료식품 - 기타음료식품","category":"food"}]},{"lat":"37.71166128","long":"126.90235631","imageIndex":7,"items":[{"name":"승리유통","tel":"031-855-8829","addr":"경기도 고양시 덕양구 고양동 719번지 푸른마을3단지아파트","indutype":"음료식품 - 정육점","category":"food"}]},{"lat":"37.703435603","long":"126.90246948","imageIndex":7,"items":[{"name":"시민자원봉사연합회","tel":"031-963-9112","addr":"경기도 고양시 덕양구 고양동 216-1번지","indutype":"음료식품 - 농·축·수산품","category":"food"}]},{"lat":"37.710266838","long":"126.9047851","imageIndex":7,"items":[{"name":"식빵굽는언니","tel":"031-964-0119","addr":"경기도 고양시 덕양구 고양동 681번지","indutype":"음료식품 - 제과점","category":"food"}]},{"lat":"37.717426932","long":"126.90178143","imageIndex":7,"items":[{"name":"영일축산물도소매센타(고양점)","tel":"031-921-8090","addr":"경기도 고양시 덕양구 고양동 985번지","indutype":"음료식품 - 정육점","category":"food"}]},{"lat":"37.70537809","long":"126.89833912","imageIndex":7,"items":[{"name":"오륙도 푸드 서비스","tel":"","addr":"경기도 고양시 덕양구 고양동 380번지 코지빌","indutype":"음료식품 - 농·축·수산품","category":"food"}]},{"lat":"37.704928152","long":"126.89895211","imageIndex":7,"items":[{"name":"오리이장 닭반장","tel":"031-964-0808","addr":"경기도 고양시 덕양구 고양동 86번지","indutype":"음료식품 - 정육점","category":"food"}]},{"lat":"37.703714689","long":"126.90221963","imageIndex":7,"items":[{"name":"오헤레나","tel":"031-964-2151","addr":"경기도 고양시 덕양구 고양동 132번지","indutype":"음료식품 - 기타음료식품","category":"food"}]},{"lat":"37.706568725","long":"126.89989104","imageIndex":7,"items":[{"name":"우리한우정육점","tel":"031-963-6008","addr":"경기도 고양시 덕양구 고양동 29번지","indutype":"음료식품 - 정육점","category":"food"}]},{"lat":"37.701822439","long":"126.90195004","imageIndex":7,"items":[{"name":"정성가득찬 반찬나라","tel":"031-967-9044","addr":"경기도 고양시 덕양구 고양동 205번지","indutype":"음료식품 - 기타음료식품","category":"food"}]},{"lat":"37.701929548","long":"126.90078194","imageIndex":7,"items":[{"name":"종가집떡","tel":"031-962-8232","addr":"경기도 고양시 덕양구 고양동 240-35번지","indutype":"음료식품 - 제과점","category":"food"}]},{"lat":"37.706958772","long":"126.90295235","imageIndex":7,"items":[{"name":"투엘스토리","tel":"070-4079-9031","addr":"경기도 고양시 덕양구 고양동 176-8번지","indutype":"음료식품 - 기타음료식품","category":"food"}]},{"lat":"37.708678415","long":"126.90155517","imageIndex":7,"items":[{"name":"한결같이","tel":"070-4150-5894","addr":"경기도 고양시 덕양구 고양동 8-30번지","indutype":"음료식품 - 농·축·수산품","category":"food"}]},{"lat":"37.7095522","long":"126.90138387","imageIndex":7,"items":[{"name":"행운스토어","tel":"070-2452-3569","addr":"경기도 고양시 덕양구 고양동 8-18번지 신성빌라","indutype":"음료식품 - 기타음료식품","category":"food"}]},{"lat":"37.703849958","long":"126.90236686","imageIndex":7,"items":[{"name":"현대건강원","tel":"031-964-0737","addr":"경기도 고양시 덕양구 고양동 140번지 진선연립","indutype":"건강식품 - 기타건강식품","category":"food"}]}]