[{"lat":"37.172080779","long":"127.08891772","imageIndex":0,"items":[{"name":"(주)알피시스텍","tel":"031-377-5516","addr":"경기도 화성시 방교동 833-1번지 303호","indutype":"자동차정비 유지 - 주차장","category":"car"}]},{"lat":"37.183279412","long":"127.09072098","imageIndex":0,"items":[{"name":"글로벌 자동차유리 동탄점","tel":"031-375-6295","addr":"경기도 화성시 방교동 765-2번지 1층","indutype":"자동차정비 유지 - 자동차부품","category":"car"}]},{"lat":"37.183190269","long":"127.08941456","imageIndex":0,"items":[{"name":"대성특수","tel":"031-282-0907","addr":"경기도 화성시 방교동 751-4번지 104호","indutype":"자동차정비 유지 - 자동차정비","category":"car"}]},{"lat":"37.182947349","long":"127.08891878","imageIndex":0,"items":[{"name":"더케이660","tel":"031-000-0000","addr":"경기도 화성시 방교동 752-1번지 102호","indutype":"자동차정비 유지 - 자동차부품","category":"car"}]},{"lat":"37.172107589","long":"127.08922176","imageIndex":0,"items":[{"name":"동탄모터스","tel":"031-377-9520","addr":"경기도 화성시 방교동 833-2번지 이레타워 1층 6호","indutype":"자동차정비 유지 - 자동차정비","category":"car"}]},{"lat":"37.179836891","long":"127.09144895","imageIndex":0,"items":[{"name":"동탄산단현대카센타","tel":"031-372-1868","addr":"경기도 화성시 방교동 780-5번지","indutype":"자동차정비 유지 - 자동차부품","category":"car"}]},{"lat":"37.180361181","long":"127.08916359","imageIndex":0,"items":[{"name":"디테일러명동탄점","tel":"","addr":"경기도 화성시 방교동 759-10번지 1층","indutype":"자동차정비 유지 - 세차장","category":"car"}]},{"lat":"37.163892116","long":"127.08636401","imageIndex":0,"items":[{"name":"셀세모 동탄","tel":"031-373-9955","addr":"경기도 화성시 방교동 845번지","indutype":"자동차정비 유지 - 세차장","category":"car"}]},{"lat":"37.181612587","long":"127.09058392","imageIndex":0,"items":[{"name":"스페셜샤인","tel":"","addr":"경기도 화성시 방교동 770-1번지 1층","indutype":"자동차정비 유지 - 카인테리어","category":"car"}]},{"lat":"37.182217244","long":"127.08927831","imageIndex":0,"items":[{"name":"워시더카본점","tel":"","addr":"경기도 화성시 방교동 754-3번지 1층","indutype":"자동차정비 유지 - 세차장","category":"car"}]},{"lat":"37.171612114","long":"127.08908608","imageIndex":0,"items":[{"name":"워시랩셀프세차타운","tel":"","addr":"경기도 화성시 방교동 834번지","indutype":"자동차정비 유지 - 세차장","category":"car"}]},{"lat":"37.181441122","long":"127.09094408","imageIndex":0,"items":[{"name":"카스페이스","tel":"","addr":"경기도 화성시 방교동 770-14번지 101호","indutype":"자동차정비 유지 - 자동차부품","category":"car"}]},{"lat":"37.183028304","long":"127.08911031","imageIndex":0,"items":[{"name":"카앤피플 화성지점","tel":"02-1566-7294","addr":"경기도 화성시 방교동 752-2번지 202호","indutype":"자동차정비 유지 - 세차장","category":"car"}]}]