[{"lat":"37.252692014","long":"127.48951495","items":[{"name":"(주)라이프헬퍼","tel":"031-633-9313","addr":"경기도 이천시 부발읍 아미리 726-9번지 현대시티프라자 219호","category":"신변잡화 - 기타잡화"},{"name":"가위나라","tel":"031-637-7554","addr":"경기도 이천시 부발읍 아미리 726-9번지 2층","category":"보건위생 - 미용원"},{"name":"가위나라온리컷","tel":"031-636-4386","addr":"경기도 이천시 부발읍 아미리 726-9번지 현대시티프라자 124호","category":"보건위생 - 미용원"},{"name":"경주마라탕","tel":"","addr":"경기도 이천시 부발읍 아미리 726-9번지 지하1층 19,20호","category":"일반휴게음식 - 일반한식"},{"name":"경주마라탕2호점","tel":"","addr":"경기도 이천시 부발읍 아미리 726-9번지 현대시티프라자 B24호","category":"일반휴게음식 - 중국식"},{"name":"김밥나라(하이닉스점)","tel":"031-635-6113","addr":"경기도 이천시 부발읍 아미리 726-9번지 현대시티프라자 109-2호","category":"일반휴게음식 - 스넥"},{"name":"나블리 코스메틱","tel":"","addr":"경기도 이천시 부발읍 아미리 726-9번지 현대시티프라자 204호","category":"보건위생 - 화장품"},{"name":"다정","tel":"031-634-6645","addr":"경기도 이천시 부발읍 아미리 726-9번지 외3필지 현대시티프라자 B04호","category":"일반휴게음식 - 일반한식"},{"name":"또와또화장품","tel":"031-634-6599","addr":"경기도 이천시 부발읍 아미리 726-9번지 현대시티프라자 117동 118호","category":"보건위생 - 화장품"},{"name":"미우 miu","tel":"","addr":"경기도 이천시 부발읍 아미리 726-9번지 현대시티프라자 110호","category":"의류 - 정장"},{"name":"바디클럽","tel":"031-637-7710","addr":"경기도 이천시 부발읍 아미리 726-9번지 현대시티프라자 1층","category":"보건위생 - 화장품"},{"name":"북경 양꼬치","tel":"02-1577-0000","addr":"경기도 이천시 부발읍 아미리 726-9번지 현대시티프라자 B05호","category":"일반휴게음식 - 일반한식"},{"name":"북경반점","tel":"031-638-5168","addr":"경기도 이천시 부발읍 아미리 726-9번지 현대시티프라자 B12~B14호","category":"일반휴게음식 - 중국식"},{"name":"빨간여우","tel":"031-637-0339","addr":"경기도 이천시 부발읍 아미리 726-9번지 현대시티프라자 2층 215호","category":"의류 - 정장"},{"name":"빽컴","tel":"031-637-3433","addr":"경기도 이천시 부발읍 아미리 726-9번지 현대시티프라자 309호","category":"일반휴게음식 - 주점"},{"name":"샤샤","tel":"","addr":"경기도 이천시 부발읍 아미리 726-9번지 현대시티프라자 2층 201호","category":"의류 - 정장"},{"name":"섬 사진관","tel":"031-635-8192","addr":"경기도 이천시 부발읍 아미리 726-9번지 현대시티프라자 4층 401호","category":"광학제품 - 사진관"},{"name":"싱싱수산","tel":"031-637-6626","addr":"경기도 이천시 부발읍 아미리 726-9 외3필지현대씨티프라자B21-B22호","category":"일반휴게음식 - 일반한식"},{"name":"썸 주얼리","tel":"","addr":"경기도 이천시 부발읍 아미리 726-9번지 현대시티프라자 1층 105호","category":"신변잡화 - 액세서리"},{"name":"아미떡마을","tel":"031-635-4113","addr":"경기도 이천시 부발읍 아미리 726-9번지 현대시티프라자 109호","category":"음료식품 - 제과점"},{"name":"아미치과","tel":"031-635-0660","addr":"경기도 이천시 부발읍 아미리 726-9번지","category":"의원 - 치과의원"},{"name":"아프로디테","tel":"031-632-8294","addr":"경기도 이천시 부발읍 아미리 726-9번지 현대시티프라자 127호","category":"의류 - 정장"},{"name":"안경박사하이닉스점","tel":"031-637-9788","addr":"경기도 이천시 부발읍 아미리 726-9","category":"보건위생 - 안경"},{"name":"오페라뷰티","tel":"031-694-7029","addr":"경기도 이천시 부발읍 아미리 726-9번지 현대시티프라자 221호","category":"보건위생 - 피부미용실"},{"name":"올리브속눈썹","tel":"031-643-8881","addr":"경기도 이천시 부발읍 아미리 726-9번지 현대시티프라자 203호","category":"보건위생 - 화장품"},{"name":"요거프레소이천하이닉스점","tel":"031-631-3171","addr":"경기도 이천시 부발읍 아미리 726-9번지 외3필지 현대시티프라자 1층 102호","category":"일반휴게음식 - 서양음식"},{"name":"위더스","tel":"031-632-7024","addr":"경기도 이천시 부발읍 아미리 726-9번지 현대시티프라자 401호","category":"레져용품 - 스포츠·레져용품"},{"name":"위더스짐휘트니스","tel":"031-632-7024","addr":"경기도 이천시 부발읍 아미리 726-9번지 현대시티프라자 501호","category":"레저업소 - 헬스클럽"},{"name":"이삭토스트(이천하이닉스점)","tel":"031-633-0922","addr":"경기도 이천시 부발읍 아미리 726-9번지 현대시티프라자 1층 107호","category":"일반휴게음식 - 일반한식"},{"name":"제트PC(하이닉스)","tel":"031-0000-0000","addr":"경기도 이천시 부발읍 아미리 726-9번지 현대시티프라자 5층 503호","category":"레저업소 - 기타레져업소"},{"name":"짱당구장","tel":"031-635-9096","addr":"경기도 이천시 부발읍 아미리 726-9번지 현대시티프라자 304호","category":"레저업소 - 당 구 장"},{"name":"천보당","tel":"031-637-9788","addr":"경기도 이천시 부발읍 아미리 726-9번지 현대시티프라자 125호","category":"보건위생 - 안경"},{"name":"청목","tel":"031-631-4506","addr":"경기도 이천시 부발읍 아미리 726-9번지 현대시티프라자 2층 213호","category":"문화.취미 - 화원"},{"name":"커피리뷰","tel":"031-000-0000","addr":"경기도 이천시 부발읍 아미리 726-9번지 현대시티프라자 126호","category":"일반휴게음식 - 서양음식"},{"name":"펑키","tel":"031-635-6302","addr":"경기도 이천시 부발읍 아미리 726-9번지 현대시티프라자 1층 111호","category":"의류 - 정장"},{"name":"필(feel)","tel":"031-636-1063","addr":"경기도 이천시 부발읍 아미리 726-9번지 현대시티프라자 129호","category":"의류 - 정장"},{"name":"하이모텔","tel":"031-636-0722","addr":"경기도 이천시 부발읍 아미리 726-9번지 현대시티프라자 4층","category":"숙박업 - 여관/기타숙박업"},{"name":"현대만물","tel":"031-636-4485","addr":"경기도 이천시 부발읍 아미리 726-9번지","category":"신변잡화 - 기타잡화"},{"name":"현대열쇠","tel":"031-631-2727","addr":"경기도 이천시 부발읍 아미리 726-9번지 현대시티프라자 1층 130호","category":"기타 - 기타 전문점"},{"name":"협동컴퓨터","tel":"031-632-2236","addr":"경기도 이천시 부발읍 아미리 726-9번지 현대시티프라자 206(B)호","category":"사무통신 - 컴퓨터"},{"name":"혼돈부리","tel":"031-631-5453","addr":"경기도 이천시 부발읍 아미리 726-9번지 현대시티프라자 103호 128호","category":"일반휴게음식 - 일반한식"},{"name":"힐링쉼터","tel":"031-634-6286","addr":"경기도 이천시 부발읍 아미리 726-9번지 현대시티프라자 3층 308호","category":"보건위생 - 화장품"}]},{"lat":"37.252055209","long":"127.4866028","items":[{"name":"(주)필립코퍼레이션 이천지점","tel":"031-212-2009","addr":"경기도 이천시 부발읍 아미리 712-7번지 에스케이하이닉스 4층","category":"전기제품 - 가전제품"},{"name":"GS25이천하이닉스M14점","tel":"","addr":"경기도 이천시 부발읍 아미리 712-7번지 M14동 지하1층","category":"유통업 영리 - 편 의 점"},{"name":"GS25이천하이닉스MF점","tel":"","addr":"경기도 이천시 부발읍 아미리 712-7번지 MF동 1층","category":"유통업 영리 - 편 의 점"},{"name":"coffee flanel","tel":"031-8094-8733","addr":"경기도 이천시 부발읍 아미리 712-7번지 에스케이하이닉스 41동 1층","category":"일반휴게음식 - 서양음식"},{"name":"아미아트헤어앤뷰티클럽","tel":"031-630-4088","addr":"경기도 이천시 부발읍 아미리 712-7번지","category":"회원제형태 - 기타4"},{"name":"에스케이하이스텍주식회사","tel":"031-8094-7818","addr":"경기도 이천시 부발읍 아미리 712-7번지 에스케이하이닉스","category":"의원 - 의원"},{"name":"원 텔레콤","tel":"031-8094-8737","addr":"경기도 이천시 부발읍 아미리 712-7번지 복지관 4층","category":"사무통신 - 통신기기"},{"name":"청운쉼터","tel":"031-8094-8726","addr":"경기도 이천시 부발읍 아미리 712-7번지 에스케이하이닉스 체육관옆","category":"일반휴게음식 - 일반한식"},{"name":"커피빈 이천하이닉스점","tel":"031-632-6596","addr":"경기도 이천시 부발읍 아미리 712-7번지 에스케이하이닉스 14동 1층","category":"일반휴게음식 - 서양음식"},{"name":"투썸플레이스 이천하이닉스점","tel":"","addr":"경기도 이천시 부발읍 아미리 712-7번지 외 189필지, 20동 반도체공장 1층","category":"일반휴게음식 - 서양음식"},{"name":"하이중앙약국","tel":"031-631-2403","addr":"경기도 이천시 부발읍 아미리 712-7번지","category":"약국 - 약국"},{"name":"하이플란트치과의원","tel":"031-637-2842","addr":"경기도 이천시 부발읍 아미리 712-7번지 11동 에스케이하이닉스(주)","category":"의원 - 치과의원"},{"name":"현대크리닝","tel":"031-636-1544","addr":"경기도 이천시 부발읍 아미리 712-7번지","category":"수리서비스 - 세탁소"}]},{"lat":"37.247697281","long":"127.49026052","items":[{"name":"(주)후니드 SK건설 M16 이천현장1점","tel":"031-111-1111","addr":"경기도 이천시 부발읍 아미리 700-2번지 SK건설현장","category":"일반휴게음식 - 위탁급식업"},{"name":"(주)후니드 SK건설M16 이천현장1점","tel":"031-111-1111","addr":"경기도 이천시 부발읍 아미리 700-2번지","category":"일반휴게음식 - 일반한식"},{"name":"엠(M16)굿푸드","tel":"031-111-1111","addr":"경기도 이천시 부발읍 아미리 700-2번지 2층","category":"일반휴게음식 - 위탁급식업"}]},{"lat":"37.256437934","long":"127.49226691","items":[{"name":"1989떡다방","tel":"031-637-1989","addr":"경기도 이천시 부발읍 아미리 592-65번지","category":"일반휴게음식 - 스넥"},{"name":"날쌘카페 하이닉스점","tel":"031-638-8163","addr":"경기도 이천시 부발읍 아미리 592-65번지 107호","category":"일반휴게음식 - 서양음식"}]},{"lat":"37.25411165","long":"127.49048218","items":[{"name":"A-ROOM(아룸)","tel":"02-438-0187","addr":"경기도 이천시 부발읍 아미리 730번지 이천신일해피트리트리빌1단지 101동 107호","category":"의류 - 정장"},{"name":"달콤과일","tel":"","addr":"경기도 이천시 부발읍 아미리 730번지 이천신일해피트리트리빌1단지 101동 상가111호","category":"음료식품 - 농·축·수산품"},{"name":"마마운동화이불빨래방(SK하이닉스점)","tel":"031-638-8426","addr":"경기도 이천시 부발읍 아미리 730번지 이천신일해피트리트리빌1단지 104호","category":"수리서비스 - 세탁소"},{"name":"배석종 스시","tel":"031-636-6603","addr":"경기도 이천시 부발읍 아미리 730번지 이천신일해피트리트리빌1단지","category":"일반휴게음식 - 일식·회집"},{"name":"신통치킨","tel":"031-634-9299","addr":"경기도 이천시 부발읍 아미리 730번지 신일해피트리빌1단지 114호","category":"일반휴게음식 - 일반한식"},{"name":"아이씨(Eye See)안경원","tel":"031-634-3331","addr":"경기도 이천시 부발읍 아미리 730번지 이천신일해피트리트리빌1단지 상가동 112호","category":"보건위생 - 안경"},{"name":"오브제소일","tel":"031-631-3116","addr":"경기도 이천시 부발읍 아미리 730번지 신일해파트리빌1단지 101동 상가102호","category":"문화.취미 - 화원"},{"name":"육회공작소","tel":"111-1111-111","addr":"경기도 이천시 부발읍 아미리 730번지 이천신일해피트리1단지 101동 105,106호","category":"일반휴게음식 - 일반한식"},{"name":"지온헤어샵","tel":"031-635-9399","addr":"경기도 이천시 부발읍 아미리 730번지 이천신일해피트리1단지 109호","category":"보건위생 - 미용원"},{"name":"집으로돼지","tel":"031-637-2791","addr":"경기도 이천시 부발읍 아미리 730번지 이천신일해피트리트리빌1단지 101동 116호","category":"일반휴게음식 - 일반한식"},{"name":"크린토피아 이천성우SK점","tel":"031-631-6631","addr":"경기도 이천시 부발읍 아미리 730번지 이천신일해피트리트리빌1단지 101동 1층 113호","category":"수리서비스 - 세탁소"},{"name":"킹콩떡볶이 이천하이닉스점","tel":"02-0000-0000","addr":"경기도 이천시 부발읍 아미리 730번지 이천신일해피트리트리빌1단지 101동 103호","category":"일반휴게음식 - 스넥"},{"name":"홈플러스365Plus이천해피트리점","tel":"02-3459-8000","addr":"경기도 이천시 부발읍 아미리 730번지 이천신일해피트리1단지 117호","category":"유통업 영리 - 대형할인점"},{"name":"홈플러스365Plus이천해피트리점/상품권","tel":"02-3459-8000","addr":"경기도 이천시 부발읍 아미리 730번지 이천신일해피트리1단지 117호","category":"유통업 영리 - 상품권"}]},{"lat":"37.252717329","long":"127.48993216","items":[{"name":"BBQ SK하이닉스점","tel":"031-632-9282","addr":"경기도 이천시 부발읍 아미리 726-1번지 시티프라자 101호","category":"일반휴게음식 - 스넥"},{"name":"곱창고(이천하이닉스점)","tel":"031-635-9295","addr":"경기도 이천시 부발읍 아미리 726-1번지 시티프라자별관 102호","category":"일반휴게음식 - 일반한식"},{"name":"오사케","tel":"031-635-8891","addr":"경기도 이천시 부발읍 아미리 726-1번지 시티프라자별관 202호","category":"일반휴게음식 - 일반한식"},{"name":"파라다이스 모텔","tel":"031-636-7745","addr":"경기도 이천시 부발읍 아미리 726-1번지 726-7 , 726-10 , 726-16 , 301호 , 401호","category":"숙박업 - 여관/기타숙박업"},{"name":"펀비어킹","tel":"031-000-0000","addr":"경기도 이천시 부발읍 아미리 726-1번지 104,105호","category":"일반휴게음식 - 주점"},{"name":"하이티어(하이닉스점)","tel":"031-635-6797","addr":"경기도 이천시 부발읍 아미리 726-1번지 시티프라자 106,107호","category":"일반휴게음식 - 일반한식"},{"name":"한가네숯불닭갈비","tel":"031-638-4792","addr":"경기도 이천시 부발읍 아미리 726-1번지","category":"일반휴게음식 - 일반한식"},{"name":"한양왕족발","tel":"031-635-2062","addr":"경기도 이천시 부발읍 아미리 726-1번지 시티프라자 204호 205호","category":"일반휴게음식 - 일반한식"},{"name":"호텔 파라다이스","tel":"031-636-7745","addr":"경기도 이천시 부발읍 아미리 726-1번지 301호,401호","category":"숙박업 - 여관/기타숙박업"}]},{"lat":"37.253780322","long":"127.48998409","items":[{"name":"Body Attack","tel":"031-635-8561","addr":"경기도 이천시 부발읍 아미리 737-16번지 201호","category":"회원제형태 - 레져업소"},{"name":"가라와라 국물닭발","tel":"031-631-7877","addr":"경기도 이천시 부발읍 아미리 737-16번지 101호","category":"일반휴게음식 - 일반한식"},{"name":"가장맛있는족발","tel":"031-637-5849","addr":"경기도 이천시 부발읍 아미리 737-16번지 111호","category":"일반휴게음식 - 일반한식"},{"name":"경성양꼬치","tel":"031-631-1238","addr":"경기도 이천시 부발읍 아미리 737-16번지 미지프라자 108~110호","category":"일반휴게음식 - 일반한식"},{"name":"구노포차","tel":"031-631-4233","addr":"경기도 이천시 부발읍 아미리 737-16번지 하이니스타운 114호","category":"일반휴게음식 - 주점"},{"name":"김주영한우짝갈비","tel":"031-638-3332","addr":"경기도 이천시 부발읍 아미리 737-16번지 미도프라자 102호","category":"일반휴게음식 - 일반한식"},{"name":"도깨비","tel":"031-694-0125","addr":"경기도 이천시 부발읍 아미리 737-16번지 206호","category":"일반휴게음식 - 주점"},{"name":"미지 당구장","tel":"031-631-0322","addr":"경기도 이천시 부발읍 아미리 737-16번지 미지프라자 205호","category":"레저업소 - 당 구 장"},{"name":"미지에셋","tel":"031-636-8915","addr":"경기도 이천시 부발읍 아미리 737-16번지 3층","category":"보건위생 - 사우나"},{"name":"배석종 스시2호점","tel":"070-8785-7130","addr":"경기도 이천시 부발읍 아미리 737-16번지 미지프라자 117호","category":"일반휴게음식 - 일식·회집"},{"name":"불난주점","tel":"031-111-1111","addr":"경기도 이천시 부발읍 아미리 737-16번지 202, 203","category":"일반휴게음식 - 주점"},{"name":"신통치킨","tel":"031-634-9290","addr":"경기도 이천시 부발읍 아미리 737-16번지 미지프라자 103호","category":"일반휴게음식 - 스넥"},{"name":"정정아식당","tel":"031-638-0806","addr":"경기도 이천시 부발읍 아미리 737-16번지 미지프라자 1층 106,107호","category":"일반휴게음식 - 일반한식"},{"name":"참숯과먹거리","tel":"031-632-0581","addr":"경기도 이천시 부발읍 아미리 737-16번지 미지프라자 1층 104호","category":"일반휴게음식 - 일반한식"},{"name":"청담동말자싸롱","tel":"031-635-1367","addr":"경기도 이천시 부발읍 아미리 737-16번지 미지프라자 112호","category":"일반휴게음식 - 주점"},{"name":"칠성포차","tel":"031-636-3905","addr":"경기도 이천시 부발읍 아미리 737-16번지 1층 115호 116호","category":"일반휴게음식 - 일반한식"},{"name":"칩스","tel":"","addr":"경기도 이천시 부발읍 아미리 737-16번지 2층 204호","category":"일반휴게음식 - 주점"},{"name":"한성","tel":"031-634-8600","addr":"경기도 이천시 부발읍 아미리 737-16번지 미지프라자 113호","category":"일반휴게음식 - 일반한식"},{"name":"행복한공인중개사사무소","tel":"031-631-9222","addr":"경기도 이천시 부발읍 아미리 737-16번지 미지프라자 113호","category":"용역 서비스 - 부동산 중개·임대"},{"name":"홍가성운","tel":"031-636-8915","addr":"경기도 이천시 부발읍 아미리 737-16번지 4층 남탕","category":"보건위생 - 기타대인서비스"},{"name":"화룡정육점","tel":"031-636-2228","addr":"경기도 이천시 부발읍 아미리 737-16번지","category":"음료식품 - 정육점"},{"name":"훌랄라엔 천족","tel":"031-631-5988","addr":"경기도 이천시 부발읍 아미리 737-16번지","category":"일반휴게음식 - 일반한식"},{"name":"힐링공간","tel":"031-634-8215","addr":"경기도 이천시 부발읍 아미리 737-16번지 미지프라자","category":"보건위생 - 화장품"}]},{"lat":"37.248997691","long":"127.49173413","items":[{"name":"Cash마트","tel":"031-637-2324","addr":"경기도 이천시 부발읍 아미리 687-2번지 현대파크빌딩내 1 층","category":"유통업 영리 - 슈퍼마켓"},{"name":"현대골프존","tel":"031-636-7588","addr":"경기도 이천시 부발읍 아미리 687-2번지 현대파크빌딩","category":"레저업소 - 스크린골프"}]},{"lat":"37.25211148","long":"127.49045802","items":[{"name":"Dr.배가정의학과의원","tel":"070-8824-4846","addr":"경기도 이천시 부발읍 아미리 725-8번지 209호","category":"의원 - 의원"},{"name":"글라스박스안경원","tel":"031-635-0707","addr":"경기도 이천시 부발읍 아미리 725-8번지 닉스타임 106호","category":"보건위생 - 안경"},{"name":"대박한식푸드","tel":"","addr":"경기도 이천시 부발읍 아미리 725-8번지 2층 201,202호","category":"일반휴게음식 - 일반한식"},{"name":"돼지야","tel":"031-633-9702","addr":"경기도 이천시 부발읍 아미리 725-8번지 닉스타임 110,111호","category":"일반휴게음식 - 일반한식"},{"name":"뚜레쥬르하이닉스","tel":"031-638-9988","addr":"경기도 이천시 부발읍 아미리 725-8번지 1층 103-104호","category":"음료식품 - 제과점"},{"name":"사이야","tel":"031-694-2447","addr":"경기도 이천시 부발읍 아미리 725-8번지 1층 114호","category":"일반휴게음식 - 주점"},{"name":"올리브영 이천하이닉스점","tel":"031-633-5290","addr":"경기도 이천시 부발읍 아미리 725-8번지 101,102호","category":"유통업 영리 - 편 의 점"},{"name":"이디야 커피","tel":"031-637-7600","addr":"경기도 이천시 부발읍 아미리 725-8번지 닉스타임빌딩 107호","category":"일반휴게음식 - 서양음식"},{"name":"이천고은약국","tel":"031-636-2050","addr":"경기도 이천시 부발읍 아미리 725-8번지","category":"약국 - 약국"},{"name":"족보잇는국밥","tel":"","addr":"경기도 이천시 부발읍 아미리 725-8번지 외 1필지 닉스타임 105호","category":"일반휴게음식 - 일반한식"}]},{"lat":"37.249494635","long":"127.49139921","items":[{"name":"FOR YOU 편의점","tel":"031-635-3366","addr":"경기도 이천시 부발읍 아미리 685-1번지","category":"유통업 영리 - 편 의 점"},{"name":"세븐일레븐이천아미점","tel":"031-1577-0711","addr":"경기도 이천시 부발읍 아미리 685-1번지 1층 왼쪽 칸","category":"유통업 영리 - 편 의 점"}]},{"lat":"37.253443611","long":"127.49079349","items":[{"name":"In the cafe(인더카페)","tel":"031-631-0888","addr":"경기도 이천시 부발읍 아미리 729번지 신일해피트리빌2단지 103~104호","category":"일반휴게음식 - 일반한식"},{"name":"감자빠께쓰 이천1호점","tel":"070-4206-9641","addr":"경기도 이천시 부발읍 아미리 729번지 이천신일해피트리트리빌2단지 202동 102호","category":"일반휴게음식 - 주점"},{"name":"김미리음악해피트리학원","tel":"031-635-8186","addr":"경기도 이천시 부발읍 아미리 729번지 해피트리빌 상가 204호","category":"학원 - 예·체능계학원"},{"name":"까오싱","tel":"031-637-1322","addr":"경기도 이천시 부발읍 아미리 729번지 이천신일해피트리트리빌2단지 202동 상가 108호","category":"일반휴게음식 - 중국식"},{"name":"미술가의 파티학원","tel":"031-638-5053","addr":"경기도 이천시 부발읍 아미리 729번지 이천신일해피트리트리빌 202동 203호","category":"학원 - 예·체능계학원"},{"name":"에셀 슈와리뷰티살롱","tel":"031-631-5491","addr":"경기도 이천시 부발읍 아미리 729번지 이천신일해피트리밀2단지 2동 2층 201호","category":"보건위생 - 미용원"},{"name":"올찬","tel":"031-638-1154","addr":"경기도 이천시 부발읍 아미리 729번지 이천신일해피트리트리빌2단지 107호","category":"음료식품 - 기타음료식품"},{"name":"총각네푸줏간 하이닉스점","tel":"031-631-4666","addr":"경기도 이천시 부발읍 아미리 729번지 신일해피트리2단지 2동 101호","category":"음료식품 - 정육점"}]},{"lat":"37.252827818","long":"127.49154471","items":[{"name":"J헤어스투디오","tel":"031-634-4516","addr":"경기도 이천시 부발읍 아미리 666번지 1동 2층","category":"보건위생 - 미용원"},{"name":"육도","tel":"031-635-1301","addr":"경기도 이천시 부발읍 아미리 666번지","category":"음료식품 - 정육점"}]},{"lat":"37.253773582","long":"127.48943173","items":[{"name":"Nail for you","tel":"070-8182-8074","addr":"경기도 이천시 부발읍 아미리 737-7번지 아미타운 102호","category":"보건위생 - 피부미용실"},{"name":"PDS 하이닉스점","tel":"070-2041-8778","addr":"경기도 이천시 부발읍 아미리 737-7번지 아미타운 402호 401호, 402호","category":"레저업소 - 기타레져업소"},{"name":"경성술집 이천하이닉스점","tel":"031-633-9322","addr":"경기도 이천시 부발읍 아미리 737-7번지 아미타운 202호","category":"일반휴게음식 - 일반한식"},{"name":"낚아보던지 실내낚시카페","tel":"","addr":"경기도 이천시 부발읍 아미리 737-7번지 아미타운 지하층 1호","category":"레저업소 - 기타레져업소"},{"name":"아미볼링센터","tel":"031-637-8840","addr":"경기도 이천시 부발읍 아미리 737-7번지 5,6층","category":"레저업소 - 볼 링 장"},{"name":"옛날부뚜막통닭","tel":"031-632-1503","addr":"경기도 이천시 부발읍 아미리 737-7번지 아미타운 101호","category":"일반휴게음식 - 스넥"},{"name":"조가네 갑오징어 (이천하이닉스점)","tel":"031-631-3005","addr":"경기도 이천시 부발읍 아미리 737-7번지 105호 104호,105호","category":"일반휴게음식 - 일반한식"},{"name":"조광회관","tel":"031-638-3247","addr":"경기도 이천시 부발읍 아미리 737-7번지","category":"일반휴게음식 - 일반한식"},{"name":"참좋은칡냉면","tel":"031-638-8874","addr":"경기도 이천시 부발읍 아미리 737-7번지 아미타운 202호","category":"일반휴게음식 - 일반한식"},{"name":"포차왕 안춘배","tel":"031-631-9420","addr":"경기도 이천시 부발읍 아미리 737-7번지 아미타운 102호","category":"일반휴게음식 - 일반한식"}]},{"lat":"37.252105206","long":"127.48979296","items":[{"name":"THE RITZ(더 리츠)","tel":"031-636-3163","addr":"경기도 이천시 부발읍 아미리 726-27번지","category":"일반휴게음식 - 서양음식"}]},{"lat":"37.251748108","long":"127.49117705","items":[{"name":"WVD","tel":"","addr":"경기도 이천시 부발읍 아미리 671번지 클래시아테라스파크 지하1층 B108호","category":"기타 - 기타 전문점"},{"name":"걸짝떡볶이치킨","tel":"031-633-2821","addr":"경기도 이천시 부발읍 아미리 671번지 1층 129호","category":"일반휴게음식 - 스넥"},{"name":"고기원칙 이천하이닉스점","tel":"031-000-0000","addr":"경기도 이천시 부발읍 아미리 671번지 B110, B111호","category":"일반휴게음식 - 일반한식"},{"name":"고봉진내과의원","tel":"031-638-0991","addr":"경기도 이천시 부발읍 아미리 671번지 이천클래시아테라스파크 2층 218~222호","category":"의원 - 의원"},{"name":"국수상회","tel":"","addr":"경기도 이천시 부발읍 아미리 671번지 B동 116호","category":"일반휴게음식 - 일반한식"},{"name":"그레이스미용실","tel":"031-631-8210","addr":"경기도 이천시 부발읍 아미리 671번지 2층 210-1호","category":"보건위생 - 미용원"},{"name":"대진도원참치","tel":"031-633-4588","addr":"경기도 이천시 부발읍 아미리 671번지 B동 101,102,103호(이천애클레시아)","category":"일반휴게음식 - 일식·회집"},{"name":"뚱보집","tel":"031-636-1451","addr":"경기도 이천시 부발읍 아미리 671번지 B층 109호","category":"일반휴게음식 - 일반한식"},{"name":"마이뷰티룸","tel":"","addr":"경기도 이천시 부발읍 아미리 671번지 클레시아테라스파크 2층 205호","category":"보건위생 - 미용원"},{"name":"맘스터치 이천하이닉스점","tel":"031-635-2323","addr":"경기도 이천시 부발읍 아미리 671번지 이천클레시아테라스파크 1층 111호,112호","category":"일반휴게음식 - 서양음식"},{"name":"맵도리탕 이천하이닉스점","tel":"031-633-1124","addr":"경기도 이천시 부발읍 아미리 671번지 지하 B112호","category":"일반휴게음식 - 일반한식"},{"name":"베이프스팟","tel":"","addr":"경기도 이천시 부발읍 아미리 671번지 클래시아 1층 127호","category":"기타 - 기타 전문점"},{"name":"삼국시대감자탕 이천하이닉스점","tel":"","addr":"경기도 이천시 부발읍 아미리 671번지 B105-B107호","category":"일반휴게음식 - 일반한식"},{"name":"수향가","tel":"031-633-2211","addr":"경기도 이천시 부발읍 아미리 671번지 클래시아테라스파크 B114호, B115호","category":"일반휴게음식 - 일반한식"},{"name":"순수치킨(하이닉스점)","tel":"031-632-8253","addr":"경기도 이천시 부발읍 아미리 671번지 B113호","category":"일반휴게음식 - 일반한식"},{"name":"씨유이천클래시아점","tel":"02-1577-8007","addr":"경기도 이천시 부발읍 아미리 671번지 1층 115호","category":"유통업 영리 - 편 의 점"},{"name":"아리랑약국","tel":"","addr":"경기도 이천시 부발읍 아미리 671번지 이천클래시아테라스파크 1동 126호","category":"약국 - 약국"},{"name":"와인예술","tel":"","addr":"경기도 이천시 부발읍 아미리 671번지 B104","category":"일반휴게음식 - 칵테일바"},{"name":"육대장 푸줏간 하이닉스점","tel":"","addr":"경기도 이천시 부발읍 아미리 671번지 113,114호","category":"일반휴게음식 - 일반한식"},{"name":"젠틀맨","tel":"070-4146-0336","addr":"경기도 이천시 부발읍 아미리 671번지 이천클래시아테라스파크 2층 204호","category":"보건위생 - 이용원"},{"name":"풍성호 이천하이닉스점","tel":"031-503-8018","addr":"경기도 이천시 부발읍 아미리 671번지 128호","category":"일반휴게음식 - 서양음식"},{"name":"화사랑,월드컵화원","tel":"031-631-8111","addr":"경기도 이천시 부발읍 아미리 671번지 이천클래시아테라스파크 1층 130호","category":"문화.취미 - 화원"}]},{"lat":"37.250217021","long":"127.49537135","items":[{"name":"i율카페","tel":"031-1111-1111","addr":"경기도 이천시 부발읍 아미리 999-22번지","category":"일반휴게음식 - 서양음식"}]},{"lat":"37.253083145","long":"127.49298914","items":[{"name":"가루영웅베이커리 하이닉스점","tel":"031-638-0149","addr":"경기도 이천시 부발읍 아미리 652번지 1동 102호","category":"음료식품 - 제과점"},{"name":"소문난왕대구뽈찜아구찜","tel":"031-635-5981","addr":"경기도 이천시 부발읍 아미리 652번지 101호","category":"일반휴게음식 - 일반한식"}]},{"lat":"37.252585107","long":"127.49140789","items":[{"name":"감성커피부발점","tel":"031-637-0382","addr":"경기도 이천시 부발읍 아미리 670-5번지 105호","category":"일반휴게음식 - 서양음식"},{"name":"국선생 하이닉스점","tel":"","addr":"경기도 이천시 부발읍 아미리 670-5번지 1층 106호 상가 (리슈빌)","category":"음료식품 - 기타음료식품"},{"name":"남매과일","tel":"031-633-3331","addr":"경기도 이천시 부발읍 아미리 670-5번지 107호(라슈빌s상가)","category":"음료식품 - 농·축·수산품"},{"name":"남매과일","tel":"","addr":"경기도 이천시 부발읍 아미리 670-5번지 107호 (이천부발역 리슈빌S상가)","category":"음료식품 - 농·축·수산품"},{"name":"더캠프PC방","tel":"","addr":"경기도 이천시 부발읍 아미리 670-5번지 3층 305호,306호","category":"레저업소 - 기타레져업소"},{"name":"더홋/(주)더홋1호점","tel":"031-694-9500","addr":"경기도 이천시 부발읍 아미리 670-5번지 리슈빌 205호","category":"일반휴게음식 - 주점"},{"name":"쌀눈치킨&컵밥버거","tel":"031-637-0292","addr":"경기도 이천시 부발읍 아미리 670-5번지 상가 109호 (리슈빌)","category":"일반휴게음식 - 서양음식"},{"name":"죽이야기 이천 하이닉스점","tel":"031-633-6288","addr":"경기도 이천시 부발읍 아미리 670-5번지 103호","category":"일반휴게음식 - 일반한식"},{"name":"청기와뼈다귀해장국","tel":"031-631-2888","addr":"경기도 이천시 부발읍 아미리 670-5번지 204호","category":"일반휴게음식 - 일반한식"},{"name":"치즈를 사랑한 찜닭 이천 하이닉스점","tel":"031-637-0585","addr":"경기도 이천시 부발읍 아미리 670-5번지 108호","category":"일반휴게음식 - 스넥"},{"name":"튀지 1985","tel":"031-631-0058","addr":"경기도 이천시 부발읍 아미리 670-5번지 이천아마리슈빌에스 110호","category":"일반휴게음식 - 주점"},{"name":"포차어게인","tel":"","addr":"경기도 이천시 부발읍 아미리 670-5번지 206호","category":"일반휴게음식 - 주점"}]},{"lat":"37.251111778","long":"127.49253679","items":[{"name":"경원대성우태권도장","tel":"031-634-2272","addr":"경기도 이천시 부발읍 아미리 677-5","category":"학원 - 예·체능계학원"},{"name":"그램그램 아미점","tel":"031-635-9700","addr":"경기도 이천시 부발읍 아미리 677-5번지 1층","category":"일반휴게음식 - 일반한식"}]},{"lat":"37.253743679","long":"127.49013039","items":[{"name":"고바우","tel":"031-635-0096","addr":"경기도 이천시 부발읍 아미리 737-19번지","category":"일반휴게음식 - 일반한식"}]},{"lat":"37.256665372","long":"127.49173858","items":[{"name":"고운피부내츄럴휴","tel":"031-631-8479","addr":"경기도 이천시 부발읍 아미리 592-44번지 상가동1층109호","category":"보건위생 - 피부미용실"},{"name":"미미세탁전문점","tel":"031-634-5909","addr":"경기도 이천시 부발읍 아미리 592-44번지 아미리7차현대아파트 상가동 103호","category":"수리서비스 - 세탁소"},{"name":"선화예술 음악학원","tel":"031-636-7882","addr":"경기도 이천시 부발읍 아미리 592-44번지 현대7차 상가 204호","category":"학원 - 예·체능계학원"}]},{"lat":"37.25325259","long":"127.49123185","items":[{"name":"골드핑거네일","tel":"031-633-0097","addr":"경기도 이천시 부발읍 아미리 730-3번지 하이클래스 1층 104호","category":"보건위생 - 피부미용실"},{"name":"빅뱅수학교습소","tel":"031-637-2171","addr":"경기도 이천시 부발읍 아미리 730-3번지 206호 (이천 하이클래스0)","category":"학원 - 보습학원"},{"name":"신강철헤어케어","tel":"031-632-6256","addr":"경기도 이천시 부발읍 아미리 730-3번지 하이클래스 2층 201호","category":"보건위생 - 미용원"},{"name":"아그라다","tel":"","addr":"경기도 이천시 부발읍 아미리 730-3번지 102호, 103","category":"일반휴게음식 - 서양음식"},{"name":"아트앤하트미술.피아노학원","tel":"031-633-7177","addr":"경기도 이천시 부발읍 아미리 730-3번지 하이클래스 404호","category":"학원 - 예·체능계학원"},{"name":"엘발레학원","tel":"031-631-2122","addr":"경기도 이천시 부발읍 아미리 730-3번지 하이클래스 406호","category":"학원 - 예·체능계학원"},{"name":"윤선생영어숲보습학원","tel":"031-632-0520","addr":"경기도 이천시 부발읍 아미리 730-3번지 하이클래스 4층 403호","category":"학원 - 보습학원"},{"name":"제이아트미술.피아노학원","tel":"031-633-1777","addr":"경기도 이천시 부발읍 아미리 730-3번지 하이클래스 305호,306호","category":"학원 - 예·체능계학원"},{"name":"킹콩점프","tel":"031-633-9775","addr":"경기도 이천시 부발읍 아미리 730-3번지 이천하이클래스 3층 301호,302호,303호,304호","category":"레저업소 - 기타레져업소"},{"name":"포항이야기2","tel":"031-636-8020","addr":"경기도 이천시 부발읍 아미리 730-3번지 하이클래스 202호","category":"일반휴게음식 - 일반한식"}]},{"lat":"37.250751238","long":"127.49256827","items":[{"name":"교촌치킨(이천하이닉스점)","tel":"031-637-3392","addr":"경기도 이천시 부발읍 아미리 678-11번지 103호","category":"일반휴게음식 - 스넥"},{"name":"그림짓다","tel":"031-635-1301","addr":"경기도 이천시 부발읍 아미리 678-11번지","category":"학원 - 예·체능계학원"},{"name":"우경빌딩","tel":"","addr":"경기도 이천시 부발읍 아미리 678-11번지 678-11,680-6,692-18","category":"자동차정비 유지 - 주차장"},{"name":"윤헤어","tel":"031-631-4847","addr":"경기도 이천시 부발읍 아미리 678-11번지","category":"보건위생 - 미용원"},{"name":"크린토피아 코인워시 이천성우오스타 3단지","tel":"031-638-8939","addr":"경기도 이천시 부발읍 아미리 678-11번지 202호","category":"수리서비스 - 세탁소"}]},{"lat":"37.253500317","long":"127.49015136","items":[{"name":"구가네","tel":"031-632-5755","addr":"경기도 이천시 부발읍 아미리 737-29번지","category":"일반휴게음식 - 일반한식"},{"name":"대구왕뽈찜","tel":"031-636-8350","addr":"경기도 이천시 부발읍 아미리 737-29번지","category":"일반휴게음식 - 일반한식"},{"name":"맥주한잔","tel":"031-631-5335","addr":"경기도 이천시 부발읍 아미리 737-29번지","category":"일반휴게음식 - 일반한식"},{"name":"원조닭갈비&양푼김치찌개","tel":"031-633-0791","addr":"경기도 이천시 부발읍 아미리 737-29번지","category":"일반휴게음식 - 일반한식"}]},{"lat":"37.253440213","long":"127.48942958","items":[{"name":"구면돼지","tel":"031-635-9056","addr":"경기도 이천시 부발읍 아미리 736-1번지 2층","category":"일반휴게음식 - 일반한식"},{"name":"궁월","tel":"031-631-6555","addr":"경기도 이천시 부발읍 아미리 736-1번지 지하","category":"보건위생 - 화장품"},{"name":"베르무트 (Vermouth)","tel":"031-636-0026","addr":"경기도 이천시 부발읍 아미리 736-1번지 3층","category":"일반휴게음식 - 주점"},{"name":"시골집뼈해장국","tel":"031-638-3393","addr":"경기도 이천시 부발읍 아미리 736-1","category":"일반휴게음식 - 일반한식"},{"name":"페리카나(현대점)","tel":"031-636-8595","addr":"경기도 이천시 부발읍 아미리 736-1번지","category":"일반휴게음식 - 일반한식"}]},{"lat":"37.253167967","long":"127.48990124","items":[{"name":"그루","tel":"031-637-3490","addr":"경기도 이천시 부발읍 아미리 733-1번지 영원타운 103호","category":"일반휴게음식 - 주점"},{"name":"꼬지사께 이천하이닉스점","tel":"00-0000-0000","addr":"경기도 이천시 부발읍 아미리 733-1번지 영원타운 1층 105호","category":"일반휴게음식 - 주점"},{"name":"단골집회랑","tel":"031-631-0207","addr":"경기도 이천시 부발읍 아미리 733-1번지 영원타운 202호","category":"일반휴게음식 - 일반한식"},{"name":"런던호프","tel":"031-638-1991","addr":"경기도 이천시 부발읍 아미리 733-1번지 영원타운 303호","category":"일반휴게음식 - 주점"},{"name":"리얼야구존 (이천하이닉스점)","tel":"031-636-5979","addr":"경기도 이천시 부발읍 아미리 733-1번지 영원타운 402호","category":"레저업소 - 기타레져업소"},{"name":"먹물","tel":"031-638-2016","addr":"경기도 이천시 부발읍 아미리 733-1번지 107호 , 외1필지영원타운","category":"일반휴게음식 - 일반한식"},{"name":"먹물수산","tel":"031-638-2016","addr":"경기도 이천시 부발읍 아미리 733-1번지 영원타운 107호","category":"음료식품 - 농·축·수산품"},{"name":"세미로","tel":"","addr":"경기도 이천시 부발읍 아미리 733-1번지 영원타운 108호","category":"일반휴게음식 - 일반한식"},{"name":"오갑","tel":"031-634-7898","addr":"경기도 이천시 부발읍 아미리 733-1번지 영원타운 201호","category":"일반휴게음식 - 일반한식"},{"name":"오봉자(하이닉스점)","tel":"031-636-2654","addr":"경기도 이천시 부발읍 아미리 733-1번지 영원타운 106호","category":"일반휴게음식 - 일반한식"},{"name":"오징어나라","tel":"031-638-4187","addr":"경기도 이천시 부발읍 아미리 733-1","category":"일반휴게음식 - 일반한식"},{"name":"육야키선생","tel":"031-638-1858","addr":"경기도 이천시 부발읍 아미리 733-1번지 (외1필지 영원타운 301호)","category":"일반휴게음식 - 주점"},{"name":"이정갈비","tel":"031-637-1434","addr":"경기도 이천시 부발읍 아미리 733-1번지 영원타운 102호","category":"일반휴게음식 - 일반한식"},{"name":"청산갈비","tel":"031-634-1103","addr":"경기도 이천시 부발읍 아미리 733-1번지 영원타운 104호","category":"일반휴게음식 - 일반한식"},{"name":"파워텍노래방","tel":"031-637-5070","addr":"경기도 이천시 부발읍 아미리 733-1번지 외1필지영원타운 204호","category":"레저업소 - 노 래 방"},{"name":"포인트당구장","tel":"02-1111-1111","addr":"경기도 이천시 부발읍 아미리 733-1번지 영원타운 302호","category":"레저업소 - 당 구 장"},{"name":"한스킨","tel":"031-635-8619","addr":"경기도 이천시 부발읍 아미리 733-1번지 영원타운 305호","category":"보건위생 - 화장품"},{"name":"한아름꽃집","tel":"031-638-7768","addr":"경기도 이천시 부발읍 아미리 733-1번지 영원타운 1층 101호","category":"문화.취미 - 화원"},{"name":"헤밍웨이","tel":"031-638-3093","addr":"경기도 이천시 부발읍 아미리 733-1번지 지하1층","category":"일반휴게음식 - 일반한식"},{"name":"황금양푼포차","tel":"031-632-9008","addr":"경기도 이천시 부발읍 아미리 733-1번지 영원타운 2층 205호","category":"일반휴게음식 - 주점"}]},{"lat":"37.257307266","long":"127.49121293","items":[{"name":"그리다공작소","tel":"","addr":"경기도 이천시 부발읍 아미리 590번지","category":"문화.취미 - 민예·공예품"},{"name":"아이큐","tel":"031-111-1111","addr":"경기도 이천시 부발읍 아미리 590번지","category":"서적문구 - 완구점"}]},{"lat":"37.270801147","long":"127.50707283","items":[{"name":"그린식품","tel":"031-631-0040","addr":"경기도 이천시 부발읍 아미리 130-10번지","category":"음료식품 - 농·축·수산품"}]},{"lat":"37.252971978","long":"127.49154565","items":[{"name":"그집쭈꾸미꼴통한식부페","tel":"031-798-2796","addr":"경기도 이천시 부발읍 아미리 665-2번지 104호","category":"일반휴게음식 - 일반한식"},{"name":"랭콘잉글리쉬이천부발어학원","tel":"031-632-0525","addr":"경기도 이천시 부발읍 아미리 665-2번지","category":"회원제형태 - 학원"},{"name":"쎈수학연세영어학원","tel":"031-631-1102","addr":"경기도 이천시 부발읍 아미리 665-2번지 2층 201호","category":"학원 - 보습학원"},{"name":"야나기참치","tel":"031-636-0180","addr":"경기도 이천시 부발읍 아미리 665-2번지 1층","category":"일반휴게음식 - 일식·회집"},{"name":"오레시피 이천부발점","tel":"031-633-1239","addr":"경기도 이천시 부발읍 아미리 665-2번지 1동 102호","category":"음료식품 - 기타음료식품"},{"name":"주막산꼼장어","tel":"031-633-3318","addr":"경기도 이천시 부발읍 아미리 665-2번지","category":"일반휴게음식 - 일반한식"},{"name":"중부이불","tel":"031-631-8506","addr":"경기도 이천시 부발읍 아미리 665-2번지","category":"직물 - 침구·수예점"}]},{"lat":"37.252447029","long":"127.48993042","items":[{"name":"김밥천국 하이닉스점","tel":"031-631-8980","addr":"경기도 이천시 부발읍 아미리 726-5번지 105호","category":"일반휴게음식 - 일반한식"},{"name":"김영숙헤어컬렉션","tel":"031-638-6788","addr":"경기도 이천시 부발읍 아미리 726-5번지 108호","category":"보건위생 - 미용원"},{"name":"동대문엽기떡볶이","tel":"031-637-8592","addr":"경기도 이천시 부발읍 아미리 726-5번지 1층 109호","category":"일반휴게음식 - 일반한식"},{"name":"돼지네","tel":"031-636-0373","addr":"경기도 이천시 부발읍 아미리 726-5번지 107호","category":"일반휴게음식 - 일반한식"},{"name":"마실","tel":"02-1577-0000","addr":"경기도 이천시 부발읍 아미리 726-5번지 1층 110호","category":"일반휴게음식 - 일반한식"},{"name":"본죽(이천하이닉스점)","tel":"031-633-4288","addr":"경기도 이천시 부발읍 아미리 726-5번지","category":"일반휴게음식 - 일반한식"},{"name":"산수","tel":"031-637-6880","addr":"경기도 이천시 부발읍 아미리 726-5번지 202호","category":"일반휴게음식 - 중국식"},{"name":"석정","tel":"031-637-3500","addr":"경기도 이천시 부발읍 아미리 726-5번지","category":"일반휴게음식 - 일반한식"},{"name":"센쓰","tel":"031-635-6955","addr":"경기도 이천시 부발읍 아미리 726-5번지 아미타임 106호","category":"신변잡화 - 액세서리"},{"name":"썸타이","tel":"031-637-6293","addr":"경기도 이천시 부발읍 아미리 726-5번지 302호","category":"보건위생 - 기타대인서비스"},{"name":"아미호텔","tel":"031-632-0098","addr":"경기도 이천시 부발읍 아미리 726-5번지 4층,5층","category":"숙박업 - 2급 호텔"},{"name":"용수약국","tel":"031-635-0907","addr":"경기도 이천시 부발읍 아미리 726-5번지 1층 104호","category":"약국 - 약국"},{"name":"채플린노래연습장","tel":"031-633-1554","addr":"경기도 이천시 부발읍 아미리 726-5번지 외2필지 301호","category":"레저업소 - 노 래 방"},{"name":"코이라멘 이천하이닉스점","tel":"","addr":"경기도 이천시 부발읍 아미리 726-5번지 103호","category":"일반휴게음식 - 일식·회집"}]},{"lat":"37.253251003","long":"127.48942837","items":[{"name":"깐부치킨 하이닉스점","tel":"031-635-5820","addr":"경기도 이천시 부발읍 아미리 733번지 101호","category":"일반휴게음식 - 스넥"},{"name":"더페이스앤바디","tel":"031-632-5390","addr":"경기도 이천시 부발읍 아미리 733번지 301호","category":"회원제형태 - 기타4"},{"name":"바 (BA)","tel":"031-000-0000","addr":"경기도 이천시 부발읍 아미리 733번지 4층 402호","category":"일반휴게음식 - 일반한식"},{"name":"에이스당구장","tel":"031-694-5249","addr":"경기도 이천시 부발읍 아미리 733번지","category":"레저업소 - 당 구 장"},{"name":"육쌈냉면(하이닉스점)","tel":"031-636-6392","addr":"경기도 이천시 부발읍 아미리 733번지 2층","category":"일반휴게음식 - 일반한식"},{"name":"이브세탁소","tel":"031-636-2224","addr":"경기도 이천시 부발읍 아미리 733","category":"수리서비스 - 세탁소"},{"name":"포차천국 이천하이닉스점","tel":"031-000-0000","addr":"경기도 이천시 부발읍 아미리 733번지 104호","category":"일반휴게음식 - 주점"},{"name":"현대옥 이천하이닉스점","tel":"031-638-3003","addr":"경기도 이천시 부발읍 아미리 733번지","category":"일반휴게음식 - 일반한식"}]},{"lat":"37.249829842","long":"127.49313714","items":[{"name":"낭만출력소 이천대리점","tel":"070-8637-9217","addr":"경기도 이천시 부발읍 아미리 1246번지 현대성우오스타3단지 303동 304호","category":"광학제품 - 사진관"},{"name":"낭만출력소 이천대리점","tel":"070-8637-9217","addr":"경기도 이천시 부발읍 아미리 1246번지 현대성우오스타3단지 303동 304호","category":"광학제품 - 사진관"},{"name":"낭만출력소 이천대리점","tel":"070-8637-9217","addr":"경기도 이천시 부발읍 아미리 1246번지 현대성우오스타3단지 303동 304호","category":"광학제품 - 사진관"},{"name":"낭만출력소 이천대리점","tel":"070-8637-9217","addr":"경기도 이천시 부발읍 아미리 1246번지 현대성우오스타3단지 303동 304호","category":"광학제품 - 사진관"},{"name":"낭만출력소 이천대리점","tel":"070-8637-9217","addr":"경기도 이천시 부발읍 아미리 1246번지 현대성우오스타3단지 303동 304호","category":"광학제품 - 사진관"},{"name":"낭만출력소 이천대리점","tel":"070-8637-9217","addr":"경기도 이천시 부발읍 아미리 1246번지 현대성우오스타3단지 303동 304호","category":"광학제품 - 사진관"}]},{"lat":"37.253279144","long":"127.48915803","items":[{"name":"내몸사랑","tel":"031-694-2998","addr":"경기도 이천시 부발읍 아미리 735번지","category":"회원제형태 - 기타4"}]},{"lat":"37.25074788","long":"127.49337978","items":[{"name":"노블헤어","tel":"070-4106-6324","addr":"경기도 이천시 부발읍 아미리 1003-4","category":"보건위생 - 미용원"},{"name":"스카이학원","tel":"031-635-3255","addr":"경기도 이천시 부발읍 아미리 1003-4번지 지하1층","category":"학원 - 보습학원"},{"name":"탑수학사동학원","tel":"031-631-0345","addr":"경기도 이천시 부발읍 아미리 1003-4번지 1동 지하1층 2호","category":"학원 - 보습학원"}]},{"lat":"37.25230171","long":"127.49021127","items":[{"name":"놀부보쌈부대찌개화덕족발이천SK하이닉스점","tel":"031-694-5382","addr":"경기도 이천시 부발읍 아미리 726-3번지 1층","category":"일반휴게음식 - 일반한식"}]},{"lat":"37.252746496","long":"127.49160055","items":[{"name":"뉴욕핫도그앤커피(아미점)","tel":"031-637-1009","addr":"경기도 이천시 부발읍 아미리 666-3번지","category":"일반휴게음식 - 스넥"},{"name":"스파지오 안경","tel":"031-631-0336","addr":"경기도 이천시 부발읍 아미리 666-3번지","category":"보건위생 - 안경"},{"name":"오봉도시락","tel":"031-634-5050","addr":"경기도 이천시 부발읍 아미리 666-3번지 1층 102호","category":"일반휴게음식 - 일반한식"},{"name":"육대장","tel":"031-634-6230","addr":"경기도 이천시 부발읍 아미리 666-3번지 1층","category":"일반휴게음식 - 일반한식"},{"name":"이차돌 이천하이닉스점","tel":"031-635-7590","addr":"경기도 이천시 부발읍 아미리 666-3번지 1층","category":"일반휴게음식 - 일반한식"}]},{"lat":"37.252275608","long":"127.48998567","items":[{"name":"담소소사골순대","tel":"031-634-1821","addr":"경기도 이천시 부발읍 아미리 726-6번지 201호 202호","category":"일반휴게음식 - 일반한식"},{"name":"메이찬 중화요리","tel":"031-634-5578","addr":"경기도 이천시 부발읍 아미리 726-6번지 1층","category":"일반휴게음식 - 중국식"},{"name":"백두산이","tel":"031-631-6880","addr":"경기도 이천시 부발읍 아미리 726-6번지","category":"일반휴게음식 - 일반한식"},{"name":"피자로(아미점)","tel":"","addr":"경기도 이천시 부발읍 아미리 726-6번지 202호","category":"일반휴게음식 - 일반한식"}]},{"lat":"37.248303316","long":"127.49187617","items":[{"name":"담원","tel":"031-631-3233","addr":"경기도 이천시 부발읍 아미리 694-4번지 1동 1,2층","category":"일반휴게음식 - 일반한식"},{"name":"담원정육","tel":"031-631-3233","addr":"경기도 이천시 부발읍 아미리 694-4번지 1동 1층","category":"음료식품 - 정육점"},{"name":"리치카페","tel":"031-632-3080","addr":"경기도 이천시 부발읍 아미리 694-4번지 2동","category":"일반휴게음식 - 일반한식"},{"name":"이마트24 이천SK점","tel":"","addr":"경기도 이천시 부발읍 아미리 694-4번지","category":"유통업 영리 - 편 의 점"}]},{"lat":"37.262662906","long":"127.49034566","items":[{"name":"더아이하이브리드이천어학원","tel":"031-638-8490","addr":"경기도 이천시 부발읍 아미리 492번지 1층","category":"학원 - 외국어학원"}]},{"lat":"37.251250234","long":"127.49173741","items":[{"name":"데카마트이천점정육","tel":"031-637-8908","addr":"경기도 이천시 부발읍 아미리 673번지","category":"음료식품 - 정육점"}]},{"lat":"37.252329523","long":"127.49220652","items":[{"name":"독도수산","tel":"031-635-1082","addr":"경기도 이천시 부발읍 아미리 668-10번지 1층","category":"일반휴게음식 - 일반한식"},{"name":"커피니하이닉스점","tel":"031-633-4474","addr":"경기도 이천시 부발읍 아미리 668-10번지 1동 2층","category":"일반휴게음식 - 서양음식"}]},{"lat":"37.251827567","long":"127.50237016","items":[{"name":"땅강아지","tel":"","addr":"경기도 이천시 부발읍 아미리 923-1번지","category":"음료식품 - 농·축·수산품"}]},{"lat":"37.256299474","long":"127.49306633","items":[{"name":"라선생꽃케이크","tel":"","addr":"경기도 이천시 부발읍 아미리 597-1번지","category":"음료식품 - 제과점"},{"name":"먹거리언니네","tel":"031-635-7970","addr":"경기도 이천시 부발읍 아미리 597-1번지","category":"일반휴게음식 - 일반한식"},{"name":"스낵맘","tel":"","addr":"경기도 이천시 부발읍 아미리 597-1번지","category":"일반휴게음식 - 스넥"},{"name":"아미문구","tel":"031-634-8673","addr":"경기도 이천시 부발읍 아미리 597-1번지 104호","category":"서적문구 - 문구용품"}]},{"lat":"37.253529988","long":"127.48950906","items":[{"name":"레알호프","tel":"031-365-3310","addr":"경기도 이천시 부발읍 아미리 736번지","category":"일반휴게음식 - 주점"},{"name":"불난 회 포차","tel":"02-0000-0000","addr":"경기도 이천시 부발읍 아미리 736번지","category":"일반휴게음식 - 주점"},{"name":"브롱스 이천 하이닉스점","tel":"031-638-5448","addr":"경기도 이천시 부발읍 아미리 736번지 2층 2호","category":"일반휴게음식 - 주점"},{"name":"천지양꼬치","tel":"031-633-2988","addr":"경기도 이천시 부발읍 아미리 736번지","category":"일반휴게음식 - 일반한식"},{"name":"호반닭갈비","tel":"031-632-8990","addr":"경기도 이천시 부발읍 아미리 736번지 1층","category":"일반휴게음식 - 일반한식"}]},{"lat":"37.252526542","long":"127.49031416","items":[{"name":"로마네꽁띠","tel":"031-636-4420","addr":"경기도 이천시 부발읍 아미리 726-8번지","category":"일반휴게음식 - 주점"}]},{"lat":"37.251139693","long":"127.49232281","items":[{"name":"리뷰","tel":"031-637-2911","addr":"경기도 이천시 부발읍 아미리 676-10번지","category":"일반휴게음식 - 일식·회집"}]},{"lat":"37.269247258","long":"127.50804332","items":[{"name":"마당","tel":"031-638-3357","addr":"경기도 이천시 부발읍 아미리 81-31번지","category":"일반휴게음식 - 일반한식"}]},{"lat":"37.248390575","long":"127.49256426","items":[{"name":"명성식당","tel":"031-636-3991","addr":"경기도 이천시 부발읍 아미리 691-2번지","category":"일반휴게음식 - 일반한식"},{"name":"병천토부리순대","tel":"031-636-5692","addr":"경기도 이천시 부발읍 아미리 691-2번지","category":"일반휴게음식 - 일반한식"},{"name":"성우멘토학원","tel":"031-633-3320","addr":"경기도 이천시 부발읍 아미리 691-2번지","category":"회원제형태 - 학원"},{"name":"세명 뒷고기","tel":"031-633-6574","addr":"경기도 이천시 부발읍 아미리 691-2번지 1층 2호","category":"일반휴게음식 - 일반한식"},{"name":"세명회관","tel":"031-633-6573","addr":"경기도 이천시 부발읍 아미리 691-2번지","category":"일반휴게음식 - 일반한식"},{"name":"탑수학하이닉스학원","tel":"070-8800-0345","addr":"경기도 이천시 부발읍 아미리 691-2번지 201-1호","category":"학원 - 보습학원"},{"name":"현대부동산공인중개사","tel":"031-638-8249","addr":"경기도 이천시 부발읍 아미리 691-2번지","category":"용역 서비스 - 부동산 중개·임대"},{"name":"현대인테리어","tel":"031-635-7274","addr":"경기도 이천시 부발읍 아미리 691-2번지","category":"직물 - 카페트,커튼,천막,지물"}]},{"lat":"37.248808016","long":"127.49184562","items":[{"name":"명소아과","tel":"031-638-1936","addr":"경기도 이천시 부발읍 아미리 687-4번지 3층 301호","category":"의원 - 의원"},{"name":"봄약국","tel":"031-638-4631","addr":"경기도 이천시 부발읍 아미리 687-4번지 현대코아빌딩 302호","category":"약국 - 약국"},{"name":"아이티(IT GYM)","tel":"031-633-0064","addr":"경기도 이천시 부발읍 아미리 687-4번지 현대코아빌딩 지하1층","category":"레저업소 - 헬스클럽"},{"name":"행복한 식당","tel":"031-636-7277","addr":"경기도 이천시 부발읍 아미리 687-4번지 현대코아빌딩 1층","category":"일반휴게음식 - 일반한식"}]},{"lat":"37.256555995","long":"127.49204223","items":[{"name":"명품용인대태권도아카데미","tel":"031-631-7769","addr":"경기도 이천시 부발읍 아미리 592-31번지","category":"학원 - 예·체능계학원"},{"name":"서연배움터","tel":"031-635-0079","addr":"경기도 이천시 부발읍 아미리 592-31 1/","category":"회원제형태 - 학원"},{"name":"에스에이치 (SH) 으뜸학원","tel":"031-636-5400","addr":"경기도 이천시 부발읍 아미리 592-31번지","category":"회원제형태 - 학원"},{"name":"엠베스트에스이(SE)학원","tel":"031-633-0022","addr":"경기도 이천시 부발읍 아미리 592-31번지 2층","category":"학원 - 보습학원"}]},{"lat":"37.246332733","long":"127.49123228","items":[{"name":"무지개세탁소","tel":"031-674-5415","addr":"경기도 이천시 부발읍 아미리 699-7 1층103호","category":"수리서비스 - 세탁소"},{"name":"빨간오뎅","tel":"031-635-2951","addr":"경기도 이천시 부발읍 아미리 699-7 108호","category":"일반휴게음식 - 일반한식"}]},{"lat":"37.254306792","long":"127.48904064","items":[{"name":"미래모터스","tel":"031-683-1151","addr":"경기도 이천시 부발읍 아미리 737-6번지","category":"자동차판매 - 중고자동차판매"},{"name":"뽀빠이마트정육","tel":"031-633-2333","addr":"경기도 이천시 부발읍 아미리 737-6번지","category":"음료식품 - 정육점"},{"name":"뽀빠이마트정육","tel":"031-633-2333","addr":"경기도 이천시 부발읍 아미리 737-6번지 뽀빠이마트 내","category":"음료식품 - 정육점"},{"name":"심리상담센터 담소","tel":"031-111-1111","addr":"경기도 이천시 부발읍 아미리 737-6번지 101동 204호","category":"보건위생 - 기타대인서비스"},{"name":"아시아자동차매매상사","tel":"031-631-0048","addr":"경기도 이천시 부발읍 아미리 737-6","category":"자동차판매 - 중고자동차판매"},{"name":"중부자동차매매상사","tel":"031-637-7100","addr":"경기도 이천시 부발읍 아미리 737-6","category":"자동차판매 - 중고자동차판매"},{"name":"천일감자탕","tel":"031-111-1111","addr":"경기도 이천시 부발읍 아미리 737-6번지","category":"일반휴게음식 - 일반한식"},{"name":"현대주차장","tel":"031-635-6535","addr":"경기도 이천시 부발읍 아미리 737-6","category":"자동차정비 유지 - 주차장"}]},{"lat":"37.25208092","long":"127.49131446","items":[{"name":"바른고기한점","tel":"031-638-7392","addr":"경기도 이천시 부발읍 아미리 670-2번지","category":"일반휴게음식 - 일반한식"},{"name":"삼국시대","tel":"031-631-0889","addr":"경기도 이천시 부발읍 아미리 670-2번지","category":"일반휴게음식 - 일반한식"},{"name":"씨마 (Cyma)","tel":"","addr":"경기도 이천시 부발읍 아미리 670-2번지 2층 201호","category":"레저업소 - 기타레져업소"},{"name":"아미가삼겹살","tel":"031-636-2435","addr":"경기도 이천시 부발읍 아미리 670-2번지","category":"일반휴게음식 - 일반한식"},{"name":"오케이노래연습장","tel":"031-638-4582","addr":"경기도 이천시 부발읍 아미리 670-2번지 101호","category":"레저업소 - 노 래 방"},{"name":"오케이당구장 (OK당구장)","tel":"031-636-4560","addr":"경기도 이천시 부발읍 아미리 670-2번지","category":"레저업소 - 당 구 장"},{"name":"카라","tel":"031-631-6811","addr":"경기도 이천시 부발읍 아미리 670-2번지 202호","category":"보건위생 - 화장품"}]},{"lat":"37.255552365","long":"127.49070564","items":[{"name":"바이더웨이이천현대성우점","tel":"","addr":"경기도 이천시 부발읍 아미리 592-38 현대성우메이저시티1단지상가동104","category":"유통업 영리 - 편 의 점"}]},{"lat":"37.256913893","long":"127.48607025","items":[{"name":"배터리총판","tel":"031-638-0026","addr":"경기도 이천시 부발읍 아미리 744-11번지","category":"자동차정비 유지 - 자동차부품"}]},{"lat":"37.255529091","long":"127.49197923","items":[{"name":"벨라","tel":"031-635-6205","addr":"경기도 이천시 부발읍 아미리 1245번지 현대성우오스타2단지 208동 501호","category":"문화.취미 - 화원"}]},{"lat":"37.253107267","long":"127.4915127","items":[{"name":"부자곱이천점","tel":"031-637-6657","addr":"경기도 이천시 부발읍 아미리 665-7번지","category":"일반휴게음식 - 일반한식"},{"name":"제주은희네해장국","tel":"031-000-0000","addr":"경기도 이천시 부발읍 아미리 665-7번지","category":"일반휴게음식 - 일반한식"}]},{"lat":"37.255265159","long":"127.49043326","items":[{"name":"뷰티호텔 137호","tel":"031-000-0000","addr":"경기도 이천시 부발읍 아미리 1244번지 현대성우오스타1단지 103호","category":"보건위생 - 피부미용실"},{"name":"성우아가월드 어린이집[아이행복]","tel":"031-694-0859","addr":"경기도 이천시 부발읍 아미리 1244번지 현대성우오스타1단지","category":"학원 - 유아원"},{"name":"세븐일레븐이천현대성우점","tel":"","addr":"경기도 이천시 부발읍 아미리 1244번지 현대성우메이저시티1단지 상가동 104호","category":"유통업 영리 - 편 의 점"}]},{"lat":"37.253557847","long":"127.49584397","items":[{"name":"비엔지코리아 3호점","tel":"031-636-5343","addr":"경기도 이천시 부발읍 아미리 977번지 A동 2호","category":"자동차정비 유지 - 자동차부품"},{"name":"튜닝팩토리","tel":"","addr":"경기도 이천시 부발읍 아미리 977번지","category":"자동차정비 유지 - 자동차시트·타이어"}]},{"lat":"37.252751096","long":"127.49048469","items":[{"name":"뽀대찌개 본점","tel":"070-4147-1234","addr":"경기도 이천시 부발읍 아미리 728-7번지 201호","category":"일반휴게음식 - 일반한식"},{"name":"양연화로","tel":"031-000-0000","addr":"경기도 이천시 부발읍 아미리 728-7번지","category":"일반휴게음식 - 일반한식"},{"name":"트위스트비어","tel":"031-636-3690","addr":"경기도 이천시 부발읍 아미리 728-7번지","category":"일반휴게음식 - 주점"}]},{"lat":"37.249922366","long":"127.49255163","items":[{"name":"성우","tel":"031-631-7002","addr":"경기도 이천시 부발읍 아미리 1246번지 현대성우오스타 304동 103호","category":"학원 - 기타 교육기관"}]},{"lat":"37.250607545","long":"127.49245462","items":[{"name":"세븐일레븐이천오스타점","tel":"","addr":"경기도 이천시 부발읍 아미리 1003-2 3호","category":"유통업 영리 - 편 의 점"}]},{"lat":"37.252640794","long":"127.49101374","items":[{"name":"스파골드","tel":"031-631-7788","addr":"경기도 이천시 부발읍 아미리 728-14번지 삼성홈프레스티지상가 B101호","category":"보건위생 - 사우나"},{"name":"아이에스케이(ISK)골프존","tel":"031-631-0568","addr":"경기도 이천시 부발읍 아미리 728-14번지 외2필지 201호","category":"레져용품 - 골프용품 전문점"}]},{"lat":"37.256916212","long":"127.48990283","items":[{"name":"신라명과","tel":"031-638-7984","addr":"경기도 이천시 부발읍 아미리 753번지","category":"음료식품 - 제과점"}]},{"lat":"37.249052602","long":"127.49370693","items":[{"name":"씨유이천현대성우점","tel":"031-632-5477","addr":"경기도 이천시 부발읍 아미리 1247번지 (외1필지현대성우오스타4단지상가동104호)","category":"유통업 영리 - 편 의 점"},{"name":"아미헤어","tel":"031-631-6424","addr":"경기도 이천시 부발읍 아미리 1247번지 현대성우오스타4단지 1층 102호","category":"보건위생 - 미용원"},{"name":"올가스킨(1호점)","tel":"","addr":"경기도 이천시 부발읍 아미리 1247번지 현대성우오스타4단지 상가동 105호","category":"보건위생 - 피부미용실"}]},{"lat":"37.249180563","long":"127.49326818","items":[{"name":"아기둥지어린이집[아이행복]","tel":"031-636-1592","addr":"경기도 이천시 부발읍 아미리 1247번지 현대성우오스타4단지 403동 104호","category":"학원 - 유아원"}]},{"lat":"37.251384268","long":"127.48982214","items":[{"name":"아리따움이천하이닉스","tel":"","addr":"경기도 이천시 부발읍 아미리 산 136-1 복지회관4층","category":"보건위생 - 화장품"},{"name":"에이치비알(H-B/R)","tel":"031-630-4024","addr":"경기도 이천시 부발읍 아미리 산 136-1","category":"레저업소 - 볼 링 장"},{"name":"현대칼라","tel":"031-637-1648","addr":"경기도 이천시 부발읍 아미리 산136-1 복지회관4층 복지매장","category":"광학제품 - 기타광학제품"},{"name":"화사랑","tel":"031-637-6655","addr":"경기도 이천시 부발읍 아미리 산136-1번지","category":"문화.취미 - 화원"}]},{"lat":"37.251418816","long":"127.4923697","items":[{"name":"아미골프존","tel":"031-636-0779","addr":"경기도 이천시 부발읍 아미리 676-6번지","category":"레저업소 - 스크린골프"}]},{"lat":"37.258944894","long":"127.48956644","items":[{"name":"아미영어학원 주식회사","tel":"031-637-0507","addr":"경기도 이천시 부발읍 아미리 763-2번지","category":"학원 - 외국어학원"}]},{"lat":"37.257966063","long":"127.49095792","items":[{"name":"아미초등학교","tel":"031-631-8743","addr":"경기도 이천시 부발읍 아미리 761-6번지 아미초등학교","category":"학원 - 초중고교육기관"},{"name":"아미초등학교병설유치원[아이행복]","tel":"031-631-8745","addr":"경기도 이천시 부발읍 아미리 761-6번지 아미초등학교","category":"학원 - 유치원"}]},{"lat":"37.262465707","long":"127.49009638","items":[{"name":"아미하늘땅별땅유치원[아이행복]","tel":"031-638-8488","addr":"경기도 이천시 부발읍 아미리 492-1","category":"학원 - 유치원"}]},{"lat":"37.250525196","long":"127.49275842","items":[{"name":"엄마의부엌","tel":"031-633-5255","addr":"경기도 이천시 부발읍 아미리 1003-5번지","category":"음료식품 - 기타음료식품"}]},{"lat":"37.267523833","long":"127.50650984","items":[{"name":"엘지농장","tel":"031-632-5712","addr":"경기도 이천시 부발읍 아미리 93-1번지","category":"음료식품 - 농·축·수산품"}]},{"lat":"37.252968496","long":"127.4902043","items":[{"name":"엠디아","tel":"031-638-4863","addr":"경기도 이천시 부발읍 아미리 728-1번지 104호","category":"일반휴게음식 - 일반한식"},{"name":"역전할머니맥주이천하이닉스점","tel":"031-631-7774","addr":"경기도 이천시 부발읍 아미리 728-1번지 신일해피트리앤 1동 101호,102호","category":"일반휴게음식 - 주점"},{"name":"코다리 1번가 동태 해물찜(하이닉스점)","tel":"031-634-1237","addr":"경기도 이천시 부발읍 아미리 728-1번지 103,105호","category":"일반휴게음식 - 일반한식"}]},{"lat":"37.252993901","long":"127.49059897","items":[{"name":"오리오리","tel":"031-633-6922","addr":"경기도 이천시 부발읍 아미리 728-20번지 2층","category":"일반휴게음식 - 일반한식"},{"name":"이천더블K복싱체육관","tel":"031-634-2255","addr":"경기도 이천시 부발읍 아미리 728-20번지","category":"레저업소 - 헬스클럽"}]},{"lat":"37.25450158","long":"127.49206276","items":[{"name":"오스타세탁소","tel":"031-637-4121","addr":"경기도 이천시 부발읍 아미리 1245번지 성우2단지 상가 103호","category":"수리서비스 - 세탁소"}]},{"lat":"37.253140328","long":"127.49223431","items":[{"name":"온글아트","tel":"070-4400-9710","addr":"경기도 이천시 부발읍 아미리 1245번지 현대성우오스타 201동 1402호","category":"문화.취미 - 민예·공예품"}]},{"lat":"37.252945451","long":"127.48923478","items":[{"name":"용수가든","tel":"031-635-1799","addr":"경기도 이천시 부발읍 아미리 726-2번지","category":"일반휴게음식 - 일반한식"}]},{"lat":"37.251968805","long":"127.49009641","items":[{"name":"이다치과의원","tel":"031-631-2872","addr":"경기도 이천시 부발읍 아미리 725-1 닉스타임3층","category":"의원 - 치과의원"},{"name":"초이스의원","tel":"031-694-4846","addr":"경기도 이천시 부발읍 아미리 725","category":"의원 - 의원"}]},{"lat":"37.268996665","long":"127.50126594","items":[{"name":"이천푸드","tel":"031-635-1262","addr":"경기도 이천시 부발읍 아미리 1143-1번지 2층","category":"음료식품 - 농·축·수산품"},{"name":"주식회사 이천유통","tel":"031-631-9687","addr":"경기도 이천시 부발읍 아미리 1143-1번지","category":"음료식품 - 기타음료식품"}]},{"lat":"37.246584583","long":"127.48914882","items":[{"name":"전여사양꼬치","tel":"031-638-4642","addr":"경기도 이천시 부발읍 아미리 산148-1번지 상가동 304,305호","category":"일반휴게음식 - 일반한식"}]},{"lat":"37.257273418","long":"127.48628672","items":[{"name":"주식회사 강남명품타이어 하이닉스지점","tel":"031-636-3657","addr":"경기도 이천시 부발읍 아미리 1076번지","category":"자동차정비 유지 - 자동차시트·타이어"}]},{"lat":"37.24588687","long":"127.49228884","items":[{"name":"진안추어탕부발점","tel":"031-631-2995","addr":"경기도 이천시 부발읍 아미리 698-4번지","category":"일반휴게음식 - 일반한식"}]},{"lat":"37.267410214","long":"127.51618201","items":[{"name":"청암관광농원","tel":"031-632-5082","addr":"경기도 이천시 부발읍 아미리 4-1","category":"일반휴게음식 - 일반한식"}]},{"lat":"37.257029655","long":"127.49298089","items":[{"name":"청정해물찜","tel":"031-634-3216","addr":"경기도 이천시 부발읍 아미리 593-1번지","category":"일반휴게음식 - 일반한식"}]},{"lat":"37.252300133","long":"127.4905945","items":[{"name":"클래스짐(CLASS GYM)","tel":"031-637-1542","addr":"경기도 이천시 부발읍 아미리 726-19번지 4층","category":"레저업소 - 헬스클럽"}]},{"lat":"37.250886854","long":"127.49245643","items":[{"name":"투다리(아미점)","tel":"031-631-9114","addr":"경기도 이천시 부발읍 아미리 677-13번지 1층","category":"일반휴게음식 - 주점"},{"name":"헤어스토리","tel":"031-634-0520","addr":"경기도 이천시 부발읍 아미리 677-13번지 1층","category":"보건위생 - 미용원"}]},{"lat":"37.260273786","long":"127.49720664","items":[{"name":"파레트","tel":"031-636-5752","addr":"경기도 이천시 부발읍 아미리 438번지","category":"유통업 영리 - 기타유통업"}]},{"lat":"37.255119328","long":"127.49083811","items":[{"name":"파모소 FAMOSO","tel":"031-631-8033","addr":"경기도 이천시 부발읍 아미리 1244번지 현대성우오스타 101동 1004호","category":"용역 서비스 - 종합용역"}]},{"lat":"37.251968891","long":"127.49226054","items":[{"name":"플랜에이치 (planh)","tel":"031-636-3553","addr":"경기도 이천시 부발읍 아미리 668-6번지 1층","category":"보건위생 - 미용원"},{"name":"해피로PC방 이천하이닉스점","tel":"","addr":"경기도 이천시 부발읍 아미리 668-6번지 2층","category":"레저업소 - 기타레져업소"}]},{"lat":"37.252525475","long":"127.4905734","items":[{"name":"하루분식","tel":"031-635-2000","addr":"경기도 이천시 부발읍 아미리 728-29번지 1동 1층 101호","category":"일반휴게음식 - 스넥"}]},{"lat":"37.253862987","long":"127.48960138","items":[{"name":"행복한cafe","tel":"031-635-2288","addr":"경기도 이천시 부발읍 아미리 737-13 외3필지미지프라자205호","category":"일반휴게음식 - 서양음식"}]},{"lat":"37.250079302","long":"127.48945306","items":[{"name":"현대엘리베이터 사내 매점","tel":"","addr":"경기도 이천시 부발읍 아미리 702번지","category":"음료식품 - 기타음료식품"}]},{"lat":"37.252776713","long":"127.4930097","items":[{"name":"화룡정점정육식당","tel":"031-636-2228","addr":"경기도 이천시 부발읍 아미리 652-10번지 1층,2층","category":"일반휴게음식 - 일반한식"}]}]