[{"lat":"37.40966599","long":"127.2563349","imageIndex":13,"items":[{"name":"(JJang Nail) 짱네일","tel":"031-699-3216","addr":"경기도 광주시 경안동 36-94번지 101호","indutype":"보건위생 - 피부미용실","category":"beauty"}]},{"lat":"37.40966678","long":"127.2601414","imageIndex":13,"items":[{"name":"(주)스마일디자인","tel":"031-768-2333","addr":"경기도 광주시 경안동 20-14번지 5층","indutype":"보건위생 - 의료용품","category":"beauty"}]},{"lat":"37.4126652","long":"127.2568646","imageIndex":13,"items":[{"name":"345헤어살롱","tel":"031-763-3452","addr":"경기도 광주시 경안동 74-15번지 파발빌딩 2층","indutype":"보건위생 - 미용원","category":"beauty"},{"name":"라이라이","tel":"031-763-7277","addr":"경기도 광주시 경안동 74-15번지 파발빌딩 3층","indutype":"보건위생 - 화장품","category":"beauty"},{"name":"샤르망 안경원","tel":"031-767-8250","addr":"경기도 광주시 경안동 74-15번지 1층","indutype":"보건위생 - 안경","category":"beauty"}]},{"lat":"37.4088375","long":"127.260308","imageIndex":13,"items":[{"name":"DI뷰티살롱","tel":"031-763-1193","addr":"경기도 광주시 경안동 25-6번지 101,102호","indutype":"보건위생 - 미용원","category":"beauty"}]},{"lat":"37.40950224","long":"127.2612252","imageIndex":13,"items":[{"name":"E아이스타일","tel":"031-799-7722","addr":"경기도 광주시 경안동 25-3번지 2층","indutype":"보건위생 - 안경","category":"beauty"},{"name":"네일샤베트","tel":"031-799-7946","addr":"경기도 광주시 경안동 25-3번지 광주터미널 1층 25호","indutype":"보건위생 - 피부미용실","category":"beauty"},{"name":"마들렌헤어상롱","tel":"031-799-7800","addr":"경기도 광주시 경안동 25-3번지 1층 22~24호","indutype":"보건위생 - 미용원","category":"beauty"}]},{"lat":"37.41244789","long":"127.2573609","imageIndex":13,"items":[{"name":"HYD메디칼","tel":"","addr":"경기도 광주시 경안동 67-29번지","indutype":"보건위생 - 의료용품","category":"beauty"}]},{"lat":"37.41239483","long":"127.2568976","imageIndex":13,"items":[{"name":"Mr.블루","tel":"031-763-0908","addr":"경기도 광주시 경안동 73-20번지 1층","indutype":"보건위생 - 미용원","category":"beauty"}]},{"lat":"37.41339412","long":"127.2530604","imageIndex":13,"items":[{"name":"M네일","tel":"061-353-6990","addr":"경기도 광주시 경안동 91-9번지 대광빌라 1층","indutype":"보건위생 - 피부미용실","category":"beauty"},{"name":"샵붙임머리","tel":"","addr":"경기도 광주시 경안동 91-9번지 대광빌딩 103호","indutype":"보건위생 - 미용재료","category":"beauty"},{"name":"이루헤어","tel":"031-765-9076","addr":"경기도 광주시 경안동 91-9번지 104호","indutype":"보건위생 - 미용원","category":"beauty"},{"name":"코디라이프","tel":"","addr":"경기도 광주시 경안동 91-9번지 대광빌딩 105호","indutype":"보건위생 - 화장품","category":"beauty"}]},{"lat":"37.41033401","long":"127.2599178","imageIndex":13,"items":[{"name":"Nail #B","tel":"031-767-8224","addr":"경기도 광주시 경안동 21-1번지 3층","indutype":"보건위생 - 피부미용실","category":"beauty"},{"name":"뷰티샵비","tel":"031-767-8224","addr":"경기도 광주시 경안동 21-1번지 3층","indutype":"보건위생 - 피부미용실","category":"beauty"}]},{"lat":"37.41030661","long":"127.2600871","imageIndex":13,"items":[{"name":"Salonde이봄(살롱드이봄)","tel":"031-766-4449","addr":"경기도 광주시 경안동 21-7번지","indutype":"보건위생 - 미용원","category":"beauty"}]},{"lat":"37.41241537","long":"127.2557229","imageIndex":13,"items":[{"name":"Style Y(스타일 Y)","tel":"031-766-1321","addr":"경기도 광주시 경안동 73-5번지 73-5, 101호","indutype":"보건위생 - 미용원","category":"beauty"}]},{"lat":"37.41458824","long":"127.2507826","imageIndex":13,"items":[{"name":"TG미용실","tel":"031-766-2340","addr":"경기도 광주시 경안동 433-14번지","indutype":"보건위생 - 미용원","category":"beauty"}]},{"lat":"37.41006142","long":"127.2568107","imageIndex":13,"items":[{"name":"WE#","tel":"070-8987-0001","addr":"경기도 광주시 경안동 35-1번지","indutype":"보건위생 - 미용원","category":"beauty"}]},{"lat":"37.40647845","long":"127.2511399","imageIndex":13,"items":[{"name":"YOU헤어연출","tel":"031-798-2455","addr":"경기도 광주시 경안동 189-14번지","indutype":"보건위생 - 미용원","category":"beauty"}]},{"lat":"37.41422027","long":"127.2500924","imageIndex":13,"items":[{"name":"가림헤어스토리","tel":"031-798-4438","addr":"경기도 광주시 경안동 434-3번지","indutype":"보건위생 - 미용원","category":"beauty"}]},{"lat":"37.40947438","long":"127.2574525","imageIndex":13,"items":[{"name":"가위손 헤어갤러리","tel":"031-762-8609","addr":"경기도 광주시 경안동 34-1번지 2층","indutype":"보건위생 - 미용원","category":"beauty"}]},{"lat":"37.41197498","long":"127.2593925","imageIndex":13,"items":[{"name":"강금옥(여세신)","tel":"031-761-5991","addr":"경기도 광주시 경안동 12-13번지 2층","indutype":"보건위생 - 기타대인서비스","category":"beauty"},{"name":"강대미여세신","tel":"031-761-5600","addr":"경기도 광주시 경안동 12-13번지","indutype":"보건위생 - 기타대인서비스","category":"beauty"},{"name":"강점숙(여세신)","tel":"031-761-5991","addr":"경기도 광주시 경안동 12-13번지","indutype":"보건위생 - 기타대인서비스","category":"beauty"},{"name":"사우나 여탕 세신","tel":"031-111-1111","addr":"경기도 광주시 경안동 12-13번지 2층","indutype":"보건위생 - 기타대인서비스","category":"beauty"},{"name":"스파세신","tel":"031-761-5600","addr":"경기도 광주시 경안동 12-13번지","indutype":"보건위생 - 기타대인서비스","category":"beauty"},{"name":"여(세신) 임정미","tel":"031-761-5600","addr":"경기도 광주시 경안동 12-13번지","indutype":"보건위생 - 기타대인서비스","category":"beauty"},{"name":"여세신이명숙","tel":"","addr":"경기도 광주시 경안동 12-13번지 2층","indutype":"보건위생 - 기타대인서비스","category":"beauty"},{"name":"여세신하미례","tel":"","addr":"경기도 광주시 경안동 12-13번지","indutype":"보건위생 - 기타대인서비스","category":"beauty"},{"name":"전영숙(여세신)","tel":"031-761-5991","addr":"경기도 광주시 경안동 12-13번지","indutype":"보건위생 - 기타대인서비스","category":"beauty"},{"name":"정옥분(여세신)","tel":"031-761-5991","addr":"경기도 광주시 경안동 12-13번지 2층","indutype":"보건위생 - 기타대인서비스","category":"beauty"},{"name":"황금분(여세신)","tel":"031-761-5991","addr":"경기도 광주시 경안동 12-13번지 황금스파랜드 2층","indutype":"보건위생 - 기타대인서비스","category":"beauty"},{"name":"황금이발관","tel":"031-761-5600","addr":"경기도 광주시 경안동 12-13번지","indutype":"보건위생 - 이용원","category":"beauty"}]},{"lat":"37.41233816","long":"127.2622515","imageIndex":13,"items":[{"name":"강은주 테라피","tel":"031-762-1030","addr":"경기도 광주시 경안동 418-6번지 202호","indutype":"보건위생 - 피부미용실","category":"beauty"}]},{"lat":"37.41069755","long":"127.2584732","imageIndex":13,"items":[{"name":"갤러리휴","tel":"031-768-0098","addr":"경기도 광주시 경안동 58-16번지 3층","indutype":"보건위생 - 미용재료","category":"beauty"}]},{"lat":"37.40958167","long":"127.2578369","imageIndex":13,"items":[{"name":"고은종합화장품","tel":"031-761-7242","addr":"경기도 광주시 경안동 31-6번지","indutype":"보건위생 - 화장품","category":"beauty"}]},{"lat":"37.41233406","long":"127.2600037","imageIndex":13,"items":[{"name":"광주아모레","tel":"031-761-8023","addr":"경기도 광주시 경안동 9-29 이룸빌딩 3층","indutype":"보건위생 - 화장품","category":"beauty"},{"name":"아모레","tel":"031-761-8023","addr":"경기도 광주시 경안동 9-29 이룸빌딩 3층","indutype":"보건위생 - 화장품","category":"beauty"},{"name":"아모레 카운셀러","tel":"031-761-8023","addr":"경기도 광주시 경안동 9-29번지 이룸빌딩 3층","indutype":"보건위생 - 화장품","category":"beauty"},{"name":"아모레광주특약점","tel":"031-761-8023","addr":"경기도 광주시 경안동 9-29 이룸빌딩 3층","indutype":"보건위생 - 화장품","category":"beauty"},{"name":"아모레광주특약점","tel":"031-761-8023","addr":"경기도 광주시 경안동 9-29번지 이룸빌딩 4층","indutype":"보건위생 - 화장품","category":"beauty"},{"name":"아모레광주특약점","tel":"031-761-8023","addr":"경기도 광주시 경안동 9-29번지 이룸빌딩 4층","indutype":"보건위생 - 화장품","category":"beauty"},{"name":"아모레광주특약점","tel":"031-761-8023","addr":"경기도 광주시 경안동 9-29번지","indutype":"보건위생 - 화장품","category":"beauty"},{"name":"아모레광주특약점","tel":"031-761-8023","addr":"경기도 광주시 경안동 9-29번지 이룸빌딩 3층 아모레화장품","indutype":"보건위생 - 화장품","category":"beauty"},{"name":"아모레광주특약점","tel":"031-761-8023","addr":"경기도 광주시 경안동 9-29번지 이룬빌딩 3층","indutype":"보건위생 - 화장품","category":"beauty"},{"name":"아모레카운셀러","tel":"031-761-8023","addr":"경기도 광주시 경안동 9-29번지","indutype":"보건위생 - 화장품","category":"beauty"},{"name":"아모레카운셀러","tel":"031-761-8023","addr":"경기도 광주시 경안동 9-29번지 이룸빌딩 4층","indutype":"보건위생 - 화장품","category":"beauty"},{"name":"아모레카운셀러","tel":"031-761-8023","addr":"경기도 광주시 경안동 9-29번지","indutype":"보건위생 - 화장품","category":"beauty"},{"name":"아모레카운셀러","tel":"031-764-7223","addr":"경기도 광주시 경안동 9-29번지 이룸빌딩 4층","indutype":"보건위생 - 화장품","category":"beauty"},{"name":"아모레카운셀러","tel":"031-761-8023","addr":"경기도 광주시 경안동 9-29 이룸빌딩 3층","indutype":"보건위생 - 화장품","category":"beauty"},{"name":"아모레카운셀러","tel":"031-761-8023","addr":"경기도 광주시 경안동 9-29번지 이룸빌딩4F","indutype":"보건위생 - 화장품","category":"beauty"},{"name":"아모레카운셀러","tel":"031-761-8023","addr":"경기도 광주시 경안동 9-29 이룸빌딩 3층","indutype":"보건위생 - 화장품","category":"beauty"},{"name":"아모레카운셀러","tel":"031-761-8023","addr":"경기도 광주시 경안동 9-29번지 4층","indutype":"보건위생 - 화장품","category":"beauty"},{"name":"아모레카운셀러","tel":"031-761-8023","addr":"경기도 광주시 경안동 9-29번지 이름빌딩 4층","indutype":"보건위생 - 화장품","category":"beauty"},{"name":"아모레카운셀러","tel":"031-761-8023","addr":"경기도 광주시 경안동 9-29 이룸빌딩 3층","indutype":"보건위생 - 화장품","category":"beauty"},{"name":"아모레카운셀러","tel":"031-765-1562","addr":"경기도 광주시 경안동 9-29번지 이룸빌딩 3층","indutype":"보건위생 - 화장품","category":"beauty"},{"name":"아모레카운셀러","tel":"031-761-8023","addr":"경기도 광주시 경안동 9-29번지 이룸빌딩 4층","indutype":"보건위생 - 화장품","category":"beauty"},{"name":"아모레카운셀러","tel":"031-764-7223","addr":"경기도 광주시 경안동 9-29번지 이룸빌딩","indutype":"보건위생 - 화장품","category":"beauty"},{"name":"아모레카운셀러","tel":"031-764-7223","addr":"경기도 광주시 경안동 9-29번지 이룸빌딩 4층","indutype":"보건위생 - 화장품","category":"beauty"},{"name":"아모레카운셀러","tel":"031-764-7223","addr":"경기도 광주시 경안동 9-29번지 이룸빌딩","indutype":"보건위생 - 화장품","category":"beauty"},{"name":"아모레카운셀러","tel":"031-764-7223","addr":"경기도 광주시 경안동 9-29번지 이룸빌딩 3층","indutype":"보건위생 - 화장품","category":"beauty"},{"name":"아모레카운셀러","tel":"031-764-7223","addr":"경기도 광주시 경안동 9-29번지 이룸빌딩 4층","indutype":"보건위생 - 화장품","category":"beauty"},{"name":"아모레카운셀러","tel":"031-764-7223","addr":"경기도 광주시 경안동 9-29번지 이룸빌딩 4층","indutype":"보건위생 - 화장품","category":"beauty"},{"name":"아모레카운셀러","tel":"031-764-7223","addr":"경기도 광주시 경안동 9-29번지 이룸빌딩 3층","indutype":"보건위생 - 화장품","category":"beauty"},{"name":"아모레카운셀러","tel":"031-761-8023","addr":"경기도 광주시 경안동 9-29번지 이룸빌딩 4층","indutype":"보건위생 - 화장품","category":"beauty"},{"name":"아모레카운셀러","tel":"031-764-7223","addr":"경기도 광주시 경안동 9-29번지 이룸빌딩 3층","indutype":"보건위생 - 화장품","category":"beauty"},{"name":"아모레카운셀러","tel":"031-764-7223","addr":"경기도 광주시 경안동 9-29번지 이룸빌딩 4층","indutype":"보건위생 - 화장품","category":"beauty"},{"name":"아모레카운셀러","tel":"031-764-7223","addr":"경기도 광주시 경안동 9-29번지 이룸빌딩 4층","indutype":"보건위생 - 화장품","category":"beauty"},{"name":"아모레카운셀러","tel":"031-761-8023","addr":"경기도 광주시 경안동 9-29번지 이룸빌딩 3층","indutype":"보건위생 - 화장품","category":"beauty"},{"name":"아모레카운셀러","tel":"031-761-8023","addr":"경기도 광주시 경안동 9-29번지","indutype":"보건위생 - 화장품","category":"beauty"},{"name":"아모레카운셀러","tel":"031-761-8023","addr":"경기도 광주시 경안동 9-29번지 이룸빌딩 4층","indutype":"보건위생 - 화장품","category":"beauty"},{"name":"아모레카운셀러","tel":"031-764-7223","addr":"경기도 광주시 경안동 9-29번지 이룸빌딩 4층 아모레퍼시픽","indutype":"보건위생 - 화장품","category":"beauty"},{"name":"아모레카운셀러","tel":"031-761-8023","addr":"경기도 광주시 경안동 9-29번지 이룸빌딩 4층","indutype":"보건위생 - 화장품","category":"beauty"},{"name":"아모레카운셀러","tel":"031-761-8023","addr":"경기도 광주시 경안동 9-29번지 이룸빌딩 4층","indutype":"보건위생 - 화장품","category":"beauty"},{"name":"아모레카운셀러","tel":"031-761-8023","addr":"경기도 광주시 경안동 9-29번지 이룸빌딩 4층","indutype":"보건위생 - 화장품","category":"beauty"},{"name":"아모레카운셀러","tel":"031-764-7223","addr":"경기도 광주시 경안동 9-29번지 이룸빌딩 4층","indutype":"보건위생 - 화장품","category":"beauty"},{"name":"아모레카운셀러","tel":"031-761-8023","addr":"경기도 광주시 경안동 9-29번지 이룸빌딩 3층","indutype":"보건위생 - 화장품","category":"beauty"},{"name":"아모레카운셀러","tel":"031-761-8023","addr":"경기도 광주시 경안동 9-29번지 이룸빌딩 3층 아모레","indutype":"보건위생 - 화장품","category":"beauty"},{"name":"아모레카운셀러(외판)","tel":"031-764-7223","addr":"경기도 광주시 경안동 9-29번지 이룸빌딩 4층","indutype":"보건위생 - 화장품","category":"beauty"},{"name":"아모레카운셀러/박순자","tel":"031-761-8023","addr":"경기도 광주시 경안동 9-29번지 이룸빌딩 4층","indutype":"보건위생 - 화장품","category":"beauty"},{"name":"아모레카운셀러외판","tel":"031-764-7223","addr":"경기도 광주시 경안동 9-29번지 이룸빌딩 3층","indutype":"보건위생 - 화장품","category":"beauty"},{"name":"아모레퍼시픽","tel":"031-761-8023","addr":"경기도 광주시 경안동 9-29번지 이룸빌딩 4층","indutype":"보건위생 - 화장품","category":"beauty"},{"name":"아모레퍼시픽(외판)","tel":"031-764-7223","addr":"경기도 광주시 경안동 9-29번지 이룸빌딩 4층","indutype":"보건위생 - 화장품","category":"beauty"},{"name":"최명숙/아모레","tel":"031-761-8023","addr":"경기도 광주시 경안동 9-29 이룸빌딩 3층","indutype":"보건위생 - 화장품","category":"beauty"}]},{"lat":"37.40913933","long":"127.2582307","imageIndex":13,"items":[{"name":"광주의료기","tel":"031-761-7276","addr":"경기도 광주시 경안동 32-1.5","indutype":"보건위생 - 의료용품","category":"beauty"}]},{"lat":"37.40942064","long":"127.2573055","imageIndex":13,"items":[{"name":"광주코리아미용학원","tel":"031-763-7460","addr":"경기도 광주시 경안동 34-3번지 삼원빌딩 2층","indutype":"보건위생 - 미용원","category":"beauty"},{"name":"더헤어룸","tel":"070-7684-3764","addr":"경기도 광주시 경안동 34-3번지 2층","indutype":"보건위생 - 미용원","category":"beauty"},{"name":"클럽미남","tel":"031-797-6090","addr":"경기도 광주시 경안동 34-3번지","indutype":"보건위생 - 피부미용실","category":"beauty"}]},{"lat":"37.41211629","long":"127.2607033","imageIndex":13,"items":[{"name":"굿모닝보청기 광주센터","tel":"031-798-7771","addr":"경기도 광주시 경안동 416-2번지 1층 103호","indutype":"보건위생 - 의료용품","category":"beauty"}]},{"lat":"37.41400509","long":"127.2495833","imageIndex":13,"items":[{"name":"그린대중목욕탕","tel":"031-766-3880","addr":"경기도 광주시 경안동 127번지 두진 상가 지하층 1호","indutype":"보건위생 - 사우나","category":"beauty"}]},{"lat":"37.41188925","long":"127.2573703","imageIndex":13,"items":[{"name":"김성주헤어","tel":"031-764-8852","addr":"경기도 광주시 경안동 70-1번지","indutype":"보건위생 - 미용원","category":"beauty"},{"name":"윤헤어 아트","tel":"031-764-4849","addr":"경기도 광주시 경안동 70-1번지","indutype":"보건위생 - 미용원","category":"beauty"}]},{"lat":"37.41033983","long":"127.2572295","imageIndex":13,"items":[{"name":"남궁헤어스킨케어","tel":"031-761-0118","addr":"경기도 광주시 경안동 52-6번지 1층","indutype":"보건위생 - 미용원","category":"beauty"},{"name":"스마일이발관","tel":"","addr":"경기도 광주시 경안동 52-6번지","indutype":"보건위생 - 이용원","category":"beauty"},{"name":"신신건강드림","tel":"02-1111-1111","addr":"경기도 광주시 경안동 52-6번지 2층","indutype":"보건위생 - 의료용품","category":"beauty"}]},{"lat":"37.41386352","long":"127.252644","imageIndex":13,"items":[{"name":"남여염색방","tel":"031-768-1316","addr":"경기도 광주시 경안동 122-10번지","indutype":"보건위생 - 미용원","category":"beauty"},{"name":"멋내기헤어염색","tel":"031-635-2950","addr":"경기도 광주시 경안동 122-10번지 1층","indutype":"보건위생 - 미용원","category":"beauty"}]},{"lat":"37.40886779","long":"127.2588058","imageIndex":13,"items":[{"name":"네일델르","tel":"","addr":"경기도 광주시 경안동 28-11번지 2층","indutype":"보건위생 - 피부미용실","category":"beauty"}]},{"lat":"37.41283566","long":"127.2572041","imageIndex":13,"items":[{"name":"네일럽","tel":"031-768-6978","addr":"경기도 광주시 경안동 74-18번지","indutype":"보건위생 - 피부미용실","category":"beauty"}]},{"lat":"37.41247897","long":"127.2554746","imageIndex":13,"items":[{"name":"네일바바","tel":"02-1111-1111","addr":"경기도 광주시 경안동 81-6번지 1층","indutype":"보건위생 - 피부미용실","category":"beauty"},{"name":"라임헤어","tel":"031-769-1372","addr":"경기도 광주시 경안동 81-6번지 1층","indutype":"보건위생 - 미용원","category":"beauty"}]},{"lat":"37.41008934","long":"127.2563928","imageIndex":13,"items":[{"name":"누나헤어","tel":"031-761-8468","addr":"경기도 광주시 경안동 36-75번지 104호","indutype":"보건위생 - 미용원","category":"beauty"},{"name":"더스킨","tel":"031-761-4377","addr":"경기도 광주시 경안동 36-75번지 203호","indutype":"보건위생 - 화장품","category":"beauty"},{"name":"아모스광주점","tel":"031-762-2798","addr":"경기도 광주시 경안동 36-75번지 101호","indutype":"보건위생 - 미용재료","category":"beauty"}]},{"lat":"37.40933197","long":"127.2566388","imageIndex":13,"items":[{"name":"다겸헤어","tel":"031-767-7226","addr":"경기도 광주시 경안동 36-31번지 102호","indutype":"보건위생 - 미용원","category":"beauty"}]},{"lat":"37.40906249","long":"127.2562538","imageIndex":13,"items":[{"name":"단미헤어라인","tel":"031-798-6266","addr":"경기도 광주시 경안동 36-35번지","indutype":"보건위생 - 미용원","category":"beauty"}]},{"lat":"37.41169712","long":"127.2587251","imageIndex":13,"items":[{"name":"더꾸밈","tel":"031-769-5431","addr":"경기도 광주시 경안동 61-4번지 성일빌딩 1층","indutype":"보건위생 - 미용원","category":"beauty"}]},{"lat":"37.40897591","long":"127.2588062","imageIndex":13,"items":[{"name":"더페이스샵","tel":"031-766-8687","addr":"경기도 광주시 경안동 28-7번지","indutype":"보건위생 - 화장품","category":"beauty"},{"name":"제오헤어","tel":"031-798-8533","addr":"경기도 광주시 경안동 28-7번지 2층","indutype":"보건위생 - 미용원","category":"beauty"}]},{"lat":"37.41353379","long":"127.2551732","imageIndex":13,"items":[{"name":"도래조와","tel":"031-764-1820","addr":"경기도 광주시 경안동 81-10번지","indutype":"보건위생 - 미용재료","category":"beauty"}]},{"lat":"37.41138872","long":"127.2596729","imageIndex":13,"items":[{"name":"도로시헤어","tel":"031-765-1660","addr":"경기도 광주시 경안동 17-6번지","indutype":"보건위생 - 미용원","category":"beauty"}]},{"lat":"37.41275678","long":"127.2561759","imageIndex":13,"items":[{"name":"동양전자의료기","tel":"070-8156-1287","addr":"경기도 광주시 경안동 74-9번지","indutype":"보건위생 - 의료용품","category":"beauty"}]},{"lat":"37.41266716","long":"127.2559497","imageIndex":13,"items":[{"name":"디어마이네일","tel":"","addr":"경기도 광주시 경안동 79-12번지 1층 4호","indutype":"보건위생 - 피부미용실","category":"beauty"},{"name":"미라클헤어","tel":"031-761-1831","addr":"경기도 광주시 경안동 79-12번지","indutype":"보건위생 - 미용원","category":"beauty"}]},{"lat":"37.41169633","long":"127.2590866","imageIndex":13,"items":[{"name":"라라헤어","tel":"031-797-2050","addr":"경기도 광주시 경안동 17-4번지 2층","indutype":"보건위생 - 미용원","category":"beauty"},{"name":"캣츠(Cat's)네일","tel":"031-765-2844","addr":"경기도 광주시 경안동 17-4번지","indutype":"보건위생 - 피부미용실","category":"beauty"}]},{"lat":"37.413034","long":"127.2613051","imageIndex":13,"items":[{"name":"럭셔리 뷰티 광주점","tel":"031-798-5242","addr":"경기도 광주시 경안동 417-2번지 3층","indutype":"보건위생 - 화장품","category":"beauty"}]},{"lat":"37.4124702","long":"127.2553616","imageIndex":13,"items":[{"name":"로드헤어","tel":"070-8241-9698","addr":"경기도 광주시 경안동 82-12번지","indutype":"보건위생 - 미용원","category":"beauty"}]},{"lat":"37.41379135","long":"127.2483853","imageIndex":13,"items":[{"name":"루디아","tel":"070-7818-9156","addr":"경기도 광주시 경안동 130-13번지 부영빌라","indutype":"보건위생 - 화장품","category":"beauty"}]},{"lat":"37.41035981","long":"127.2563147","imageIndex":13,"items":[{"name":"루루앤아이래쉬경기광주점","tel":"070-7817-9833","addr":"경기도 광주시 경안동 49-8번지 1층","indutype":"보건위생 - 화장품","category":"beauty"}]},{"lat":"37.41044867","long":"127.256891","imageIndex":13,"items":[{"name":"리치헤어","tel":"031-762-3322","addr":"경기도 광주시 경안동 51-5번지 2층","indutype":"보건위생 - 미용원","category":"beauty"}]},{"lat":"37.40997721","long":"127.2582562","imageIndex":13,"items":[{"name":"마야헤어모드","tel":"031-764-1986","addr":"경기도 광주시 경안동 56-17번지 2층","indutype":"보건위생 - 미용원","category":"beauty"}]},{"lat":"37.41433299","long":"127.2521938","imageIndex":13,"items":[{"name":"마임광주경안지사","tel":"031-748-9862","addr":"경기도 광주시 경안동 97-23번지 성호빌딩 2층","indutype":"보건위생 - 화장품","category":"beauty"}]},{"lat":"37.41094486","long":"127.2523633","imageIndex":13,"items":[{"name":"만원의 행복 나야나","tel":"070-8243-9093","addr":"경기도 광주시 경안동 160-8번지","indutype":"보건위생 - 화장품","category":"beauty"}]},{"lat":"37.40517269","long":"127.2508081","imageIndex":13,"items":[{"name":"메디팜플러스","tel":"","addr":"경기도 광주시 경안동 236-6번지","indutype":"보건위생 - 의료용품","category":"beauty"}]},{"lat":"37.40986111","long":"127.2577814","imageIndex":13,"items":[{"name":"명성궁","tel":"031-797-2286","addr":"경기도 광주시 경안동 56-8번지 3층","indutype":"보건위생 - 기타대인서비스","category":"beauty"},{"name":"스텔라헤어","tel":"031-797-8491","addr":"경기도 광주시 경안동 56-8번지 2층","indutype":"보건위생 - 미용원","category":"beauty"}]},{"lat":"37.41028196","long":"127.2505312","imageIndex":13,"items":[{"name":"모유사랑","tel":"031-000-0000","addr":"경기도 광주시 경안동 157-8번지 계명빌딩","indutype":"보건위생 - 기타대인서비스","category":"beauty"}]},{"lat":"37.41158768","long":"127.2551441","imageIndex":13,"items":[{"name":"물보라화장품","tel":"031-767-3366","addr":"경기도 광주시 경안동 48-20번지","indutype":"보건위생 - 화장품","category":"beauty"}]},{"lat":"37.40972192","long":"127.2596446","imageIndex":13,"items":[{"name":"미담네일아트","tel":"031-798-3319","addr":"경기도 광주시 경안동 24-18번지 대명빌딩 2층","indutype":"보건위생 - 피부미용실","category":"beauty"},{"name":"미담에스테틱","tel":"031-798-3319","addr":"경기도 광주시 경안동 24-18번지 대명빌딩 2층 202호","indutype":"보건위생 - 피부미용실","category":"beauty"},{"name":"스파오라 스칼프","tel":"031-715-6767","addr":"경기도 광주시 경안동 24-18번지 대명빌딩 4층 402호","indutype":"보건위생 - 피부미용실","category":"beauty"}]},{"lat":"37.40936453","long":"127.2582541","imageIndex":13,"items":[{"name":"미샤화장품(광주점)","tel":"031-762-6020","addr":"경기도 광주시 경안동 31-4번지 1","indutype":"보건위생 - 화장품","category":"beauty"},{"name":"조은안경원","tel":"031-761-2612","addr":"경기도 광주시 경안동 31-4번지","indutype":"보건위생 - 안경","category":"beauty"},{"name":"헤어톡","tel":"031-765-4488","addr":"경기도 광주시 경안동 31-4번지","indutype":"보건위생 - 미용원","category":"beauty"}]},{"lat":"37.41300167","long":"127.2554199","imageIndex":13,"items":[{"name":"미용재료.화장품.바로사","tel":"031-797-0711","addr":"경기도 광주시 경안동 81-32번지 지층","indutype":"보건위생 - 미용재료","category":"beauty"}]},{"lat":"37.41072536","long":"127.2581119","imageIndex":13,"items":[{"name":"바이제이뷰티(by J beauty)","tel":"","addr":"경기도 광주시 경안동 58-5번지","indutype":"보건위생 - 피부미용실","category":"beauty"},{"name":"티나헤어","tel":"","addr":"경기도 광주시 경안동 58-5번지 3층","indutype":"보건위생 - 미용원","category":"beauty"}]},{"lat":"37.41216747","long":"127.2536663","imageIndex":13,"items":[{"name":"박정은헤어","tel":"","addr":"경기도 광주시 경안동 87-1번지 성신빌딩 1층","indutype":"보건위생 - 미용원","category":"beauty"},{"name":"얼굴에 밥주는 여자","tel":"031-744-7935","addr":"경기도 광주시 경안동 87-1번지 성신빌딩","indutype":"보건위생 - 피부미용실","category":"beauty"}]},{"lat":"37.41125497","long":"127.2590286","imageIndex":13,"items":[{"name":"박준뷰티샵","tel":"031-763-3387","addr":"경기도 광주시 경안동 19-8번지","indutype":"보건위생 - 미용원","category":"beauty"}]},{"lat":"37.40900335","long":"127.250143","imageIndex":13,"items":[{"name":"백두산랜드","tel":"031-761-0110","addr":"경기도 광주시 경안동 178-1번지","indutype":"보건위생 - 사우나","category":"beauty"},{"name":"여명피부관리실","tel":"031-000-0000","addr":"경기도 광주시 경안동 178-1번지 3층","indutype":"보건위생 - 피부미용실","category":"beauty"}]},{"lat":"37.41130433","long":"127.252805","imageIndex":13,"items":[{"name":"뷰티몽드","tel":"","addr":"경기도 광주시 경안동 85-16번지 1층,2층","indutype":"보건위생 - 피부미용실","category":"beauty"}]},{"lat":"37.40972715","long":"127.2572274","imageIndex":13,"items":[{"name":"뷰티크래딧","tel":"031-761-1486","addr":"경기도 광주시 경안동 35-8번지","indutype":"보건위생 - 화장품","category":"beauty"}]},{"lat":"37.41178407","long":"127.2517561","imageIndex":13,"items":[{"name":"빠마","tel":"031-765-6117","addr":"경기도 광주시 경안동 154-3번지","indutype":"보건위생 - 미용원","category":"beauty"}]},{"lat":"37.41441489","long":"127.25181","imageIndex":13,"items":[{"name":"산호이용원","tel":"031-761-9930","addr":"경기도 광주시 경안동 123-7번지","indutype":"보건위생 - 이용원","category":"beauty"},{"name":"삼익미용상사","tel":"031-764-4301","addr":"경기도 광주시 경안동 123-7번지","indutype":"보건위생 - 미용재료","category":"beauty"}]},{"lat":"37.41877903","long":"127.2414768","imageIndex":13,"items":[{"name":"상하이테라피","tel":"031-764-0375","addr":"경기도 광주시 경안동 433-16번지 성운빌딩 3층","indutype":"보건위생 - 화장품","category":"beauty"}]},{"lat":"37.41125308","long":"127.2514719","imageIndex":13,"items":[{"name":"서경숙헤어아트","tel":"031-763-5426","addr":"경기도 광주시 경안동 156-17, 104","indutype":"보건위생 - 미용원","category":"beauty"}]},{"lat":"37.41344541","long":"127.2500898","imageIndex":13,"items":[{"name":"서영마리헤어","tel":"031-766-3310","addr":"경기도 광주시 경안동 136-10번지","indutype":"보건위생 - 미용원","category":"beauty"}]},{"lat":"37.41089214","long":"127.2601456","imageIndex":13,"items":[{"name":"서울의료기","tel":"031-769-5600","addr":"경기도 광주시 경안동 20-61번지","indutype":"보건위생 - 의료용품","category":"beauty"}]},{"lat":"37.40964414","long":"127.2581195","imageIndex":13,"items":[{"name":"소소살롱","tel":"","addr":"경기도 광주시 경안동 31-8번지 2층","indutype":"보건위생 - 미용원","category":"beauty"}]},{"lat":"37.41038837","long":"127.2597824","imageIndex":13,"items":[{"name":"소소살롱2","tel":"031-798-1987","addr":"경기도 광주시 경안동 23-3번지 2층","indutype":"보건위생 - 미용원","category":"beauty"},{"name":"허스뷰티그룹 HAS BEAUTY GROUP","tel":"031-798-1987","addr":"경기도 광주시 경안동 23-3번지 2층","indutype":"보건위생 - 화장품","category":"beauty"}]},{"lat":"37.40611911","long":"127.2506305","imageIndex":13,"items":[{"name":"송스부띠","tel":"","addr":"경기도 광주시 경안동 190번지 현대그린빌","indutype":"보건위생 - 화장품","category":"beauty"}]},{"lat":"37.41206199","long":"127.256648","imageIndex":13,"items":[{"name":"쇼니네네일맛집","tel":"031-111-1111","addr":"경기도 광주시 경안동 72-1번지 1층","indutype":"보건위생 - 피부미용실","category":"beauty"}]},{"lat":"37.40975359","long":"127.2574986","imageIndex":13,"items":[{"name":"수화장품","tel":"031-763-8260","addr":"경기도 광주시 경안동 35-5번지","indutype":"보건위생 - 화장품","category":"beauty"},{"name":"화이트 화장품","tel":"031-763-8260","addr":"경기도 광주시 경안동 35-5번지","indutype":"보건위생 - 화장품","category":"beauty"}]},{"lat":"37.41422608","long":"127.2516173","imageIndex":13,"items":[{"name":"스타일 바이(Style by) 황희","tel":"031-111-1111","addr":"경기도 광주시 경안동 440-6번지 1층","indutype":"보건위생 - 미용원","category":"beauty"}]},{"lat":"37.41186575","long":"127.251474","imageIndex":13,"items":[{"name":"실비아미용실","tel":"031-769-4422","addr":"경기도 광주시 경안동 154-6번지","indutype":"보건위생 - 미용원","category":"beauty"}]},{"lat":"37.41200321","long":"127.2588391","imageIndex":13,"items":[{"name":"썬 헤어","tel":"031-798-9630","addr":"경기도 광주시 경안동 11-12번지 103호","indutype":"보건위생 - 미용원","category":"beauty"},{"name":"줌마헤어","tel":"031-764-4048","addr":"경기도 광주시 경안동 11-12번지 1층","indutype":"보건위생 - 미용원","category":"beauty"}]},{"lat":"37.41066598","long":"127.2563948","imageIndex":13,"items":[{"name":"아가다미용실","tel":"031-762-8956","addr":"경기도 광주시 경안동 50-13번지 1층","indutype":"보건위생 - 미용원","category":"beauty"},{"name":"피부사랑","tel":"031-797-8711","addr":"경기도 광주시 경안동 50-13번지 205호","indutype":"보건위생 - 피부미용실","category":"beauty"}]},{"lat":"37.41216516","long":"127.2547507","imageIndex":13,"items":[{"name":"아띠헤어샵","tel":"031-798-0788","addr":"경기도 광주시 경안동 83-9번지 1층 1호","indutype":"보건위생 - 미용원","category":"beauty"}]},{"lat":"37.41058149","long":"127.2579758","imageIndex":13,"items":[{"name":"아리따움 경기광주점","tel":"","addr":"경기도 광주시 경안동 54-1번지 1층","indutype":"보건위생 - 화장품","category":"beauty"}]},{"lat":"37.40916768","long":"127.2576209","imageIndex":13,"items":[{"name":"아리따움 경안시장점","tel":"031-798-3113","addr":"경기도 광주시 경안동 33-32번지 1층","indutype":"보건위생 - 화장품","category":"beauty"}]},{"lat":"37.41239568","long":"127.2606703","imageIndex":13,"items":[{"name":"아모레","tel":"031-764-7223","addr":"경기도 광주시 경안동 416번지 2층","indutype":"보건위생 - 화장품","category":"beauty"},{"name":"아모레카운셀러","tel":"031-764-7223","addr":"경기도 광주시 경안동 416번지 2층","indutype":"보건위생 - 화장품","category":"beauty"},{"name":"아모레카운셀러","tel":"031-764-7223","addr":"경기도 광주시 경안동 416번지 2층","indutype":"보건위생 - 화장품","category":"beauty"},{"name":"아모레카운셀러","tel":"031-764-7223","addr":"경기도 광주시 경안동 416번지 2층","indutype":"보건위생 - 화장품","category":"beauty"},{"name":"아모레카운셀러","tel":"031-761-8023","addr":"경기도 광주시 경안동 416번지 2층","indutype":"보건위생 - 화장품","category":"beauty"},{"name":"아모레카운셀러","tel":"031-764-7223","addr":"경기도 광주시 경안동 416번지 2층","indutype":"보건위생 - 화장품","category":"beauty"},{"name":"아모레카운셀러","tel":"031-764-7223","addr":"경기도 광주시 경안동 416번지 2층 아모레퍼시픽","indutype":"보건위생 - 화장품","category":"beauty"},{"name":"아모레카운셀러","tel":"031-764-7223","addr":"경기도 광주시 경안동 416번지 2층","indutype":"보건위생 - 화장품","category":"beauty"},{"name":"아모레카운셀러외판","tel":"031-764-7223","addr":"경기도 광주시 경안동 416번지 2층","indutype":"보건위생 - 화장품","category":"beauty"},{"name":"아모레퍼시픽","tel":"031-764-7223","addr":"경기도 광주시 경안동 416번지 2층","indutype":"보건위생 - 화장품","category":"beauty"},{"name":"아모레퍼시픽(카운셀러)","tel":"031-764-7223","addr":"경기도 광주시 경안동 416번지 2층","indutype":"보건위생 - 화장품","category":"beauty"}]},{"lat":"37.41133492","long":"127.2553691","imageIndex":13,"items":[{"name":"아바타","tel":"031-000-0000","addr":"경기도 광주시 경안동 48-16번지 1층","indutype":"보건위생 - 미용원","category":"beauty"}]},{"lat":"37.4105031","long":"127.2567218","imageIndex":13,"items":[{"name":"안경창고싸군 경기광주점","tel":"031-699-0070","addr":"경기도 광주시 경안동 51-4번지","indutype":"보건위생 - 안경","category":"beauty"},{"name":"한빛나노의료기","tel":"031-763-4190","addr":"경기도 광주시 경안동 51-4번지","indutype":"보건위생 - 의료용품","category":"beauty"},{"name":"행복사우나","tel":"031-762-2933","addr":"경기도 광주시 경안동 51-4번지 지층","indutype":"보건위생 - 사우나","category":"beauty"}]},{"lat":"37.41011458","long":"127.2572288","imageIndex":13,"items":[{"name":"앙포레 모리노헤어","tel":"031-768-8337","addr":"경기도 광주시 경안동 52-9번지 1층 101호","indutype":"보건위생 - 미용원","category":"beauty"}]},{"lat":"37.41253087","long":"127.2606482","imageIndex":13,"items":[{"name":"어도라블 코스메틱","tel":"031-763-3387","addr":"경기도 광주시 경안동 414-5번지 2층","indutype":"보건위생 - 미용재료","category":"beauty"}]},{"lat":"37.41244387","long":"127.255034","imageIndex":13,"items":[{"name":"에드 뷰티 랩","tel":"031-762-1594","addr":"경기도 광주시 경안동 82-3번지","indutype":"보건위생 - 화장품","category":"beauty"}]},{"lat":"37.41008606","long":"127.2579177","imageIndex":13,"items":[{"name":"에뛰드하우스 경기광주점","tel":"031-761-0611","addr":"경기도 광주시 경안동 54-6번지 1층","indutype":"보건위생 - 화장품","category":"beauty"}]},{"lat":"37.41036566","long":"127.2577831","imageIndex":13,"items":[{"name":"에즈 헤어라운지","tel":"031-763-6620","addr":"경기도 광주시 경안동 54-14번지","indutype":"보건위생 - 미용원","category":"beauty"}]},{"lat":"37.40900049","long":"127.2557566","imageIndex":13,"items":[{"name":"여기서 헤어","tel":"070-8285-9027","addr":"경기도 광주시 경안동 38-39번지 1층 101호","indutype":"보건위생 - 미용원","category":"beauty"}]},{"lat":"37.41200323","long":"127.2503675","imageIndex":13,"items":[{"name":"영헤어","tel":"031-767-4468","addr":"경기도 광주시 경안동 144-2번지 102호","indutype":"보건위생 - 미용원","category":"beauty"}]},{"lat":"37.41105589","long":"127.2594232","imageIndex":13,"items":[{"name":"예랑사주까페","tel":"031-766-0788","addr":"경기도 광주시 경안동 19-1번지","indutype":"보건위생 - 기타대인서비스","category":"beauty"}]},{"lat":"37.41030534","long":"127.2565065","imageIndex":13,"items":[{"name":"예쁜머리","tel":"031-766-1192","addr":"경기도 광주시 경안동 49-14번지","indutype":"보건위생 - 미용원","category":"beauty"}]},{"lat":"37.41119707","long":"127.252398","imageIndex":13,"items":[{"name":"예스헤어타운","tel":"031-763-1523","addr":"경기도 광주시 경안동 160-5번지 1층","indutype":"보건위생 - 이용원","category":"beauty"}]},{"lat":"37.40983834","long":"127.2599726","imageIndex":13,"items":[{"name":"오다헤어(광주점)","tel":"031-764-5572","addr":"경기도 광주시 경안동 22-2번지","indutype":"보건위생 - 미용원","category":"beauty"}]},{"lat":"37.41335948","long":"127.2523939","imageIndex":13,"items":[{"name":"오땡큐","tel":"031-480-0069","addr":"경기도 광주시 경안동 124-33번지","indutype":"보건위생 - 화장품","category":"beauty"},{"name":"타호르","tel":"031-766-8082","addr":"경기도 광주시 경안동 124-33번지 1층 101호","indutype":"보건위생 - 피부미용실","category":"beauty"}]},{"lat":"37.41192153","long":"127.2549193","imageIndex":13,"items":[{"name":"오렌지미용실","tel":"","addr":"경기도 광주시 경안동 83-31번지","indutype":"보건위생 - 미용원","category":"beauty"}]},{"lat":"37.41150219","long":"127.2571996","imageIndex":13,"items":[{"name":"오렌지안경원","tel":"031-762-0908","addr":"경기도 광주시 경안동 71-7번지","indutype":"보건위생 - 안경","category":"beauty"}]},{"lat":"37.40889273","long":"127.2555868","imageIndex":13,"items":[{"name":"오케이(OK)염색방","tel":"031-767-1503","addr":"경기도 광주시 경안동 38-26번지","indutype":"보건위생 - 미용원","category":"beauty"},{"name":"헤어미용실","tel":"031-761-1416","addr":"경기도 광주시 경안동 38-26번지 1층","indutype":"보건위생 - 미용원","category":"beauty"}]},{"lat":"37.40956222","long":"127.2585032","imageIndex":13,"items":[{"name":"오티콘보청기경기광주점","tel":"031-763-5790","addr":"경기도 광주시 경안동 30-3번지 로얄펠리스 201-2호","indutype":"보건위생 - 의료용품","category":"beauty"}]},{"lat":"37.41036501","long":"127.258088","imageIndex":13,"items":[{"name":"이니스프리광주점","tel":"031-769-5521","addr":"경기도 광주시 경안동 54-4번지 1층","indutype":"보건위생 - 화장품","category":"beauty"}]},{"lat":"37.41202941","long":"127.2550326","imageIndex":13,"items":[{"name":"이서윤 터치페이스","tel":"031-1599-9181","addr":"경기도 광주시 경안동 83-3번지 1층","indutype":"보건위생 - 화장품","category":"beauty"}]},{"lat":"37.40961554","long":"127.2588423","imageIndex":13,"items":[{"name":"일세대안경","tel":"031-767-9266","addr":"경기도 광주시 경안동 30-4번지","indutype":"보건위생 - 안경","category":"beauty"},{"name":"헤어텐","tel":"031-762-8202","addr":"경기도 광주시 경안동 30-4번지 터미널빌딩 2층","indutype":"보건위생 - 미용원","category":"beauty"}]},{"lat":"37.41230517","long":"127.256694","imageIndex":13,"items":[{"name":"임정례헤어갤러리","tel":"031-764-6807","addr":"경기도 광주시 경안동 73-6번지","indutype":"보건위생 - 미용원","category":"beauty"}]},{"lat":"37.41289555","long":"127.254482","imageIndex":13,"items":[{"name":"자비사","tel":"031-855-0517","addr":"경기도 광주시 경안동 83-21번지 신원플러스타운 401호","indutype":"보건위생 - 피부미용실","category":"beauty"},{"name":"정좌연구원","tel":"031-763-6362","addr":"경기도 광주시 경안동 83-21번지","indutype":"보건위생 - 기타대인서비스","category":"beauty"},{"name":"탑헤어앤스킨갤러리","tel":"031-767-4795","addr":"경기도 광주시 경안동 83-2 5필지신원플러스타운2층209호","indutype":"보건위생 - 미용원","category":"beauty"}]},{"lat":"37.40986213","long":"127.257307","imageIndex":13,"items":[{"name":"잠언의료기광주지점","tel":"031-765-7589","addr":"경기도 광주시 경안동 35-6번지","indutype":"보건위생 - 의료용품","category":"beauty"}]},{"lat":"37.40983665","long":"127.256584","imageIndex":13,"items":[{"name":"제안이발관","tel":"031-761-6929","addr":"경기도 광주시 경안동 36-3번지","indutype":"보건위생 - 이용원","category":"beauty"}]},{"lat":"37.41392306","long":"127.2500349","imageIndex":13,"items":[{"name":"조은미용실","tel":"031-765-2797","addr":"경기도 광주시 경안동 128-44번지","indutype":"보건위생 - 미용원","category":"beauty"}]},{"lat":"37.41294479","long":"127.2608981","imageIndex":13,"items":[{"name":"주식회사 엠디엘(MDL)","tel":"02-1111-1111","addr":"경기도 광주시 경안동 417-5번지 3층","indutype":"보건위생 - 의료용품","category":"beauty"}]},{"lat":"37.41083782","long":"127.2560904","imageIndex":13,"items":[{"name":"중앙이발관","tel":"031-761-8355","addr":"경기도 광주시 경안동 50-6","indutype":"보건위생 - 이용원","category":"beauty"}]},{"lat":"37.41308701","long":"127.2534209","imageIndex":13,"items":[{"name":"지명희헤어라인","tel":"031-764-2730","addr":"경기도 광주시 경안동 91-11","indutype":"보건위생 - 미용원","category":"beauty"}]},{"lat":"37.4093948","long":"127.2567519","imageIndex":13,"items":[{"name":"진뷰티","tel":"031-764-1500","addr":"경기도 광주시 경안동 36-88번지 1층","indutype":"보건위생 - 미용재료","category":"beauty"}]},{"lat":"37.41186682","long":"127.2552241","imageIndex":13,"items":[{"name":"진하미용실","tel":"031-761-7735","addr":"경기도 광주시 경안동 72-60번지 1층","indutype":"보건위생 - 미용원","category":"beauty"}]},{"lat":"37.4138387","long":"127.2515934","imageIndex":13,"items":[{"name":"채움뷰티(beauty)#","tel":"","addr":"경기도 광주시 경안동 124-9번지 201호","indutype":"보건위생 - 피부미용실","category":"beauty"}]},{"lat":"37.41238786","long":"127.2517016","imageIndex":13,"items":[{"name":"최에어센스","tel":"031-769-9421","addr":"경기도 광주시 경안동 152-88번지","indutype":"보건위생 - 미용원","category":"beauty"}]},{"lat":"37.40780431","long":"127.2504779","imageIndex":13,"items":[{"name":"코리아미용실","tel":"070-8197-5565","addr":"경기도 광주시 경안동 172-25번지 1층","indutype":"보건위생 - 미용원","category":"beauty"}]},{"lat":"37.40994881","long":"127.2588886","imageIndex":13,"items":[{"name":"탑스칼프 경기광주점","tel":"031-765-8599","addr":"경기도 광주시 경안동 24-7번지 2층","indutype":"보건위생 - 피부미용실","category":"beauty"}]},{"lat":"37.40908679","long":"127.2533059","imageIndex":13,"items":[{"name":"태후사랑","tel":"031-797-1966","addr":"경기도 광주시 경안동 167-21번지 1층 102호","indutype":"보건위생 - 화장품","category":"beauty"}]},{"lat":"37.40766824","long":"127.2509179","imageIndex":13,"items":[{"name":"티는헤어","tel":"031-798-5584","addr":"경기도 광주시 경안동 172-11번지 1층","indutype":"보건위생 - 미용원","category":"beauty"}]},{"lat":"37.41239212","long":"127.2496684","imageIndex":13,"items":[{"name":"티앤비플러스","tel":"031-797-2875","addr":"경기도 광주시 경안동 134-14번지","indutype":"보건위생 - 의료용품","category":"beauty"}]},{"lat":"37.4127553","long":"127.2568649","imageIndex":13,"items":[{"name":"피부사랑에스테틱","tel":"031-761-9666","addr":"경기도 광주시 경안동 74-25번지 2층","indutype":"보건위생 - 피부미용실","category":"beauty"}]},{"lat":"37.41194409","long":"127.257009","imageIndex":13,"items":[{"name":"피부애약손","tel":"031-762-2733","addr":"경기도 광주시 경안동 70-2번지 2층","indutype":"보건위생 - 피부미용실","category":"beauty"}]},{"lat":"37.40655826","long":"127.2517501","imageIndex":13,"items":[{"name":"필헤어","tel":"031-767-6992","addr":"경기도 광주시 경안동 189-80번지","indutype":"보건위생 - 미용원","category":"beauty"}]},{"lat":"37.41397416","long":"127.251447","imageIndex":13,"items":[{"name":"하늘케어","tel":"031-699-0220","addr":"경기도 광주시 경안동 440-9번지","indutype":"보건위생 - 의료용품","category":"beauty"}]},{"lat":"37.41347842","long":"127.255783","imageIndex":13,"items":[{"name":"하이플러스","tel":"031-000-0000","addr":"경기도 광주시 경안동 77-13번지 지층","indutype":"보건위생 - 화장품","category":"beauty"}]},{"lat":"37.4105575","long":"127.2565638","imageIndex":13,"items":[{"name":"한아름머리방","tel":"031-764-2643","addr":"경기도 광주시 경안동 51-12번지","indutype":"보건위생 - 미용원","category":"beauty"}]},{"lat":"37.40983563","long":"127.2570584","imageIndex":13,"items":[{"name":"헤브론헤어","tel":"031-769-0378","addr":"경기도 광주시 경안동 35-3번지 영민빌딩 201호","indutype":"보건위생 - 미용재료","category":"beauty"}]},{"lat":"37.41169522","long":"127.2554155","imageIndex":13,"items":[{"name":"헤어모드스쿨미용실","tel":"031-766-0959","addr":"경기도 광주시 경안동 72-62","indutype":"보건위생 - 미용원","category":"beauty"}]},{"lat":"37.40995001","long":"127.2583351","imageIndex":13,"items":[{"name":"헤어미","tel":"031-766-2339","addr":"경기도 광주시 경안동 57-4번지","indutype":"보건위생 - 미용원","category":"beauty"}]},{"lat":"37.40866837","long":"127.2551682","imageIndex":13,"items":[{"name":"헤어비스/지키","tel":"031-480-2627","addr":"경기도 광주시 경안동 38-44번지 102호","indutype":"보건위생 - 미용원","category":"beauty"}]},{"lat":"37.41244541","long":"127.2543111","imageIndex":13,"items":[{"name":"헤어비치","tel":"031-768-4545","addr":"경기도 광주시 경안동 93-3번지","indutype":"보건위생 - 미용원","category":"beauty"}]},{"lat":"37.41233451","long":"127.2513626","imageIndex":13,"items":[{"name":"헤어체인지","tel":"031-769-4382","addr":"경기도 광주시 경안동 153-1번지 정한빌딩","indutype":"보건위생 - 미용원","category":"beauty"}]},{"lat":"37.41108235","long":"127.2555038","imageIndex":13,"items":[{"name":"헤어컷","tel":"031-733-1908","addr":"경기도 광주시 경안동 48-4번지 1층","indutype":"보건위생 - 미용원","category":"beauty"}]},{"lat":"37.41272183","long":"127.2556675","imageIndex":13,"items":[{"name":"헤어토트","tel":"031-765-8894","addr":"경기도 광주시 경안동 80-10번지","indutype":"보건위생 - 미용원","category":"beauty"}]},{"lat":"37.4129147","long":"127.2539512","imageIndex":13,"items":[{"name":"헤어홀릭","tel":"031-797-1235","addr":"경기도 광주시 경안동 95-5 (경안동, 103호)","indutype":"보건위생 - 미용원","category":"beauty"}]},{"lat":"37.41022068","long":"127.2581666","imageIndex":13,"items":[{"name":"화신미용실","tel":"031-761-4317","addr":"경기도 광주시 경안동 56-9번지","indutype":"보건위생 - 미용원","category":"beauty"}]},{"lat":"37.40986069","long":"127.2579734","imageIndex":13,"items":[{"name":"황제아로마","tel":"031-764-0386","addr":"경기도 광주시 경안동 56-6번지 3층","indutype":"보건위생 - 피부미용실","category":"beauty"}]},{"lat":"37.41122872","long":"127.258667","imageIndex":13,"items":[{"name":"황태후","tel":"031-768-5880","addr":"경기도 광주시 경안동 60-1번지 신아빌딩","indutype":"보건위생 - 기타대인서비스","category":"beauty"}]},{"lat":"37.41422416","long":"127.2525323","imageIndex":13,"items":[{"name":"힐링","tel":"070-4200-3222","addr":"경기도 광주시 경안동 96-8번지 무성빌딩 2층","indutype":"보건위생 - 기타대인서비스","category":"beauty"}]}]