[{"lat":"37.019819198","long":"126.91505172","imageIndex":4,"items":[{"name":"(주)버거킹청북점","tel":"031-684-5353","addr":"경기도 평택시 청북읍 옥길리 1157-2번지 외2필지","indutype":"일반휴게음식 - 서양음식","category":"restaurant"},{"name":"(주)오메꼬꼬","tel":"031-681-2061","addr":"경기도 평택시 청북읍 옥길리 1157-2번지 102호 101호,102호","indutype":"일반휴게음식 - 스넥","category":"restaurant"},{"name":"리틀비틀","tel":"031-684-2054","addr":"경기도 평택시 청북읍 옥길리 1157-2번지 한샘쇼핑센터 216 217 218호","indutype":"일반휴게음식 - 서양음식","category":"restaurant"},{"name":"월남쌈김상사평택청북점","tel":"031-000-0000","addr":"경기도 평택시 청북읍 옥길리 1157-2번지 2층","indutype":"일반휴게음식 - 일반한식","category":"restaurant"},{"name":"투썸플레이스 평택청북점","tel":"031-683-1296","addr":"경기도 평택시 청북읍 옥길리 1157-2번지 109,209호","indutype":"일반휴게음식 - 서양음식","category":"restaurant"},{"name":"투썸플레이스 평택청북점/한샘유통(주)","tel":"031-683-1296","addr":"경기도 평택시 청북읍 옥길리 1157-2번지 109,209호","indutype":"일반휴게음식 - 서양음식","category":"restaurant"}]},{"lat":"37.021876107","long":"126.91846557","imageIndex":4,"items":[{"name":"(주)제이앤에스컴퍼니","tel":"070-4132-6669","addr":"경기도 평택시 청북읍 옥길리 1141","indutype":"일반휴게음식 - 위탁급식업","category":"restaurant"},{"name":"매머드커피 평택청북점","tel":"031-684-2092","addr":"경기도 평택시 청북읍 옥길리 1141번지 1동 2층","indutype":"일반휴게음식 - 서양음식","category":"restaurant"},{"name":"한스델리(청북신도시점)","tel":"031-682-2091","addr":"경기도 평택시 청북읍 옥길리 1141번지 2층","indutype":"일반휴게음식 - 서양음식","category":"restaurant"}]},{"lat":"37.017153001","long":"126.91635826","imageIndex":4,"items":[{"name":"59피자청북점","tel":"031-686-5982","addr":"경기도 평택시 청북읍 옥길리 1162-3번지 1층","indutype":"일반휴게음식 - 서양음식","category":"restaurant"},{"name":"꾸미락","tel":"031-684-4231","addr":"경기도 평택시 청북읍 옥길리 1162-3번지 4층","indutype":"일반휴게음식 - 일반한식","category":"restaurant"},{"name":"달봉감자 청북점","tel":"031-682-3541","addr":"경기도 평택시 청북읍 옥길리 1162-3번지 1층 103호","indutype":"일반휴게음식 - 주점","category":"restaurant"},{"name":"마마포차","tel":"031-686-5959","addr":"경기도 평택시 청북읍 옥길리 1162-3번지 센트럴프라자 102호","indutype":"일반휴게음식 - 주점","category":"restaurant"},{"name":"오징어나라","tel":"031-684-5297","addr":"경기도 평택시 청북읍 옥길리 1162-3번지 1층","indutype":"일반휴게음식 - 일반한식","category":"restaurant"}]},{"lat":"37.018207305","long":"126.91643573","imageIndex":4,"items":[{"name":"C&O(씨엔오)레스토랑","tel":"031-684-6074","addr":"경기도 평택시 청북읍 옥길리 1159-2번지 402호","indutype":"일반휴게음식 - 서양음식","category":"restaurant"},{"name":"달빛포차","tel":"","addr":"경기도 평택시 청북읍 옥길리 1159-2번지 2동 3층 301호(골든테라스)","indutype":"일반휴게음식 - 일반한식","category":"restaurant"},{"name":"바른반찬","tel":"031-682-6939","addr":"경기도 평택시 청북읍 옥길리 1159-2번지 117호","indutype":"음식점 - 한식","category":"restaurant"},{"name":"바른치킨 청북신도시점","tel":"031-684-7759","addr":"경기도 평택시 청북읍 옥길리 1159-2번지 골드테라스2, 111호","indutype":"일반휴게음식 - 일반한식","category":"restaurant"},{"name":"배스킨라빈스31","tel":"031-683-3071","addr":"경기도 평택시 청북읍 옥길리 1159-2번지 골드테라스 114호","indutype":"음식점 - 디저트","category":"restaurant"},{"name":"생생돈가스청북점","tel":"031-683-5525","addr":"경기도 평택시 청북읍 옥길리 1159-2번지 110호(골드테라스2)","indutype":"일반휴게음식 - 일반한식","category":"restaurant"},{"name":"생생돈가스평택청북점","tel":"031-682-8538","addr":"경기도 평택시 청북읍 옥길리 1159-2번지 110호","indutype":"음식점 - 양식","category":"restaurant"},{"name":"신전떡볶이 청북점","tel":"","addr":"경기도 평택시 청북읍 옥길리 1159-2번지 113호(골드테라스2)","indutype":"일반휴게음식 - 스넥","category":"restaurant"},{"name":"신전떡볶이청북점","tel":"031-681-2659","addr":"경기도 평택시 청북읍 옥길리 1159-2번지 113호(골드테라스2)","indutype":"음식점 - 분식","category":"restaurant"},{"name":"씨엔오레스토랑","tel":"031-682-7193","addr":"경기도 평택시 청북읍 옥길리 1159-2번지 402호","indutype":"음식점 - 레스토랑","category":"restaurant"},{"name":"여장군(청북점)","tel":"031-682-0101","addr":"경기도 평택시 청북읍 옥길리 1159-2번지 1층 107,108호 (골드테라스ll)","indutype":"일반휴게음식 - 일반한식","category":"restaurant"},{"name":"우림한방삼계탕청북점","tel":"031-682-6776","addr":"경기도 평택시 청북읍 옥길리 1159-2번지 골드테라스 201호","indutype":"음식점 - 한식","category":"restaurant"},{"name":"조마루감자탕(청북점)","tel":"031-682-6776","addr":"경기도 평택시 청북읍 옥길리 1159-2번지 205호(골드테라스11)","indutype":"일반휴게음식 - 일반한식","category":"restaurant"},{"name":"조마루감자탕청북점","tel":"031-683-1230","addr":"경기도 평택시 청북읍 옥길리 1159-2번지 골드테라스 205호","indutype":"음식점 - 한식","category":"restaurant"},{"name":"카페베네 청북점","tel":"031-684-8899","addr":"경기도 평택시 청북읍 옥길리 1159-2번지 202,202-1호","indutype":"일반휴게음식 - 서양음식","category":"restaurant"}]},{"lat":"37.01795754","long":"126.91998689","imageIndex":4,"items":[{"name":"SEAFRAGRANCE","tel":"","addr":"경기도 평택시 청북읍 옥길리 1276-4번지 103호","indutype":"일반휴게음식 - 일반한식","category":"restaurant"}]},{"lat":"37.017567646","long":"126.91657129","imageIndex":4,"items":[{"name":"가장맛있는족발 청북점","tel":"031-681-9192","addr":"경기도 평택시 청북읍 옥길리 1161-5번지 115~118호","indutype":"음식점 - 한식","category":"restaurant"},{"name":"가장맛있는족발청북점","tel":"031-682-5849","addr":"경기도 평택시 청북읍 옥길리 1161-5번지 (115,116,117,118호)","indutype":"일반휴게음식 - 일반한식","category":"restaurant"},{"name":"강호동치킨678(평택청북점)","tel":"031-681-6788","addr":"경기도 평택시 청북읍 옥길리 1161-5번지 로데오프라자 1층 123-124호","indutype":"일반휴게음식 - 스넥","category":"restaurant"},{"name":"곱창가","tel":"031-686-5411","addr":"경기도 평택시 청북읍 옥길리 1161-5번지 129~132호","indutype":"음식점 - 한식","category":"restaurant"},{"name":"곱창가(청북점)","tel":"031-684-6040","addr":"경기도 평택시 청북읍 옥길리 1161-5번지 로데오프라자 129,130,131,132호","indutype":"일반휴게음식 - 일반한식","category":"restaurant"},{"name":"금초밥","tel":"","addr":"경기도 평택시 청북읍 옥길리 1161-5번지 로데오프라자 137,138호","indutype":"일반휴게음식 - 일식·회집","category":"restaurant"},{"name":"김네집솥뚜껑","tel":"031-686-7595","addr":"경기도 평택시 청북읍 옥길리 1161-5번지 로데오프라자 149,150호","indutype":"일반휴게음식 - 일반한식","category":"restaurant"},{"name":"빨간석쇠구이청북점","tel":"031-682-6825","addr":"경기도 평택시 청북읍 옥길리 1161-5번지 1층 로데오프라자","indutype":"일반휴게음식 - 일반한식","category":"restaurant"},{"name":"뽀기네조개품은돼지","tel":"031-686-9279","addr":"경기도 평택시 청북읍 옥길리 1161-5번지","indutype":"음식점 - 한식","category":"restaurant"},{"name":"뽀기네조개품은돼지","tel":"031-681-9192","addr":"경기도 평택시 청북읍 옥길리 1161-5번지 1동 1층 125호~128호","indutype":"일반휴게음식 - 일반한식","category":"restaurant"},{"name":"숯불애굽닭","tel":"","addr":"경기도 평택시 청북읍 옥길리 1161-5번지 145~148호","indutype":"일반휴게음식 - 일반한식","category":"restaurant"},{"name":"연탄불생고기","tel":"031-663-3392","addr":"경기도 평택시 청북읍 옥길리 1161-5번지 로데오프라자","indutype":"일반휴게음식 - 일반한식","category":"restaurant"},{"name":"원조닭발촌(청북점)","tel":"","addr":"경기도 평택시 청북읍 옥길리 1161-5번지 로데오프라자 107,108호","indutype":"일반휴게음식 - 일반한식","category":"restaurant"},{"name":"이화숯불갈비","tel":"031-684-4931","addr":"경기도 평택시 청북읍 옥길리 1161-5번지 로데오프라자 133,134호","indutype":"일반휴게음식 - 일반한식","category":"restaurant"},{"name":"카페.새콤달달","tel":"031-684-1641","addr":"경기도 평택시 청북읍 옥길리 1161-5번지 로데오프라자 151,152호","indutype":"일반휴게음식 - 서양음식","category":"restaurant"}]},{"lat":"37.017655415","long":"126.91341362","imageIndex":4,"items":[{"name":"감탄청북점","tel":"031-682-7033","addr":"경기도 평택시 청북읍 옥길리 1104번지 부영사랑으로 상가동 103호","indutype":"일반휴게음식 - 스넥","category":"restaurant"}]},{"lat":"37.01793646","long":"126.91571687","imageIndex":4,"items":[{"name":"걸작떡볶이 청북점","tel":"031-681-5525","addr":"경기도 평택시 청북읍 옥길리 1158-1번지 103호 골드테라스","indutype":"일반휴게음식 - 서양음식","category":"restaurant"},{"name":"고수라김밥","tel":"031-683-3389","addr":"경기도 평택시 청북읍 옥길리 1158-1번지","indutype":"일반휴게음식 - 일반한식","category":"restaurant"},{"name":"문방구","tel":"","addr":"경기도 평택시 청북읍 옥길리 1158-1번지 1층 102호(골드테라스)","indutype":"일반휴게음식 - 스넥","category":"restaurant"},{"name":"봉구스밥버거 청북점","tel":"031-684-5093","addr":"경기도 평택시 청북읍 옥길리 1158-1번지 114호 골드테라스","indutype":"일반휴게음식 - 일반한식","category":"restaurant"},{"name":"애니팝만화까페","tel":"031-684-1330","addr":"경기도 평택시 청북읍 옥길리 1158-1번지 골드테라스 302호","indutype":"일반휴게음식 - 서양음식","category":"restaurant"},{"name":"운암명가부대찌개","tel":"031-681-4372","addr":"경기도 평택시 청북읍 옥길리 1158-1번지 골드테라스 202호","indutype":"음식점 - 한식","category":"restaurant"},{"name":"운암부대찌게","tel":"031-681-8241","addr":"경기도 평택시 청북읍 옥길리 1158-1번지 2층","indutype":"일반휴게음식 - 일반한식","category":"restaurant"},{"name":"임광선 커피하우스(청북점)","tel":"031-681-0039","addr":"경기도 평택시 청북읍 옥길리 1158-1번지 104호, 105호 (골드테라스)","indutype":"일반휴게음식 - 서양음식","category":"restaurant"}]},{"lat":"37.017712484","long":"126.91749256","imageIndex":4,"items":[{"name":"경성술집","tel":"031-684-6040","addr":"경기도 평택시 청북읍 옥길리 1161-3번지","indutype":"음식점 - 한식","category":"restaurant"},{"name":"달빛경성술집 청북점","tel":"070-5121-6771","addr":"경기도 평택시 청북읍 옥길리 1161-3번지 2동 1층 104호","indutype":"일반휴게음식 - 서양음식","category":"restaurant"},{"name":"우짱","tel":"031-000-0000","addr":"경기도 평택시 청북읍 옥길리 1161-3번지 102,103호","indutype":"일반휴게음식 - 일반한식","category":"restaurant"}]},{"lat":"37.017631169","long":"126.91718925","imageIndex":4,"items":[{"name":"고기밥상","tel":"","addr":"경기도 평택시 청북읍 옥길리 1161-4번지 104호","indutype":"일반휴게음식 - 일반한식","category":"restaurant"},{"name":"배부장찌개 청북점","tel":"031-684-5880","addr":"경기도 평택시 청북읍 옥길리 1161-4번지 1동 103호","indutype":"일반휴게음식 - 일반한식","category":"restaurant"},{"name":"사쿠라테이엔청북점","tel":"","addr":"경기도 평택시 청북읍 옥길리 1161-4번지 1동 101호","indutype":"일반휴게음식 - 일식·회집","category":"restaurant"},{"name":"수신닭발","tel":"","addr":"경기도 평택시 청북읍 옥길리 1161-4번지","indutype":"음식점 - 한식","category":"restaurant"},{"name":"수신닭발청북점","tel":"031-683-1514","addr":"경기도 평택시 청북읍 옥길리 1161-4번지 1동 1층 104호","indutype":"일반휴게음식 - 일반한식","category":"restaurant"},{"name":"와참치","tel":"031-663-0447","addr":"경기도 평택시 청북읍 옥길리 1161-4번지 102호","indutype":"일반휴게음식 - 일식·회집","category":"restaurant"},{"name":"와참치","tel":"031-682-0991","addr":"경기도 평택시 청북읍 옥길리 1161-4번지 102호","indutype":"음식점 - 일식","category":"restaurant"}]},{"lat":"37.017270499","long":"126.91685255","imageIndex":4,"items":[{"name":"구노포차청북점","tel":"031-682-9253","addr":"경기도 평택시 청북읍 옥길리 1162-5번지 2층 202호","indutype":"일반휴게음식 - 일반한식","category":"restaurant"},{"name":"미스터오징어 (청북점)","tel":"02-000-0000","addr":"경기도 평택시 청북읍 옥길리 1162-5번지 101호","indutype":"일반휴게음식 - 일식·회집","category":"restaurant"},{"name":"미스터오징어(청북점)","tel":"031-683-1514","addr":"경기도 평택시 청북읍 옥길리 1162-5번지","indutype":"음식점 - 일식","category":"restaurant"},{"name":"선삼김가네닭갈비","tel":"031-681-5241","addr":"경기도 평택시 청북읍 옥길리 1162-5번지","indutype":"일반휴게음식 - 일반한식","category":"restaurant"},{"name":"에이호프","tel":"031-681-9080","addr":"경기도 평택시 청북읍 옥길리 1162-5번지 104호","indutype":"일반휴게음식 - 일반한식","category":"restaurant"}]},{"lat":"37.016819647","long":"126.91641482","imageIndex":4,"items":[{"name":"국수나무 청북점","tel":"031-684-5353","addr":"경기도 평택시 청북읍 옥길리 1165-3번지 102호","indutype":"음식점 - 한식","category":"restaurant"},{"name":"국수나무청북점","tel":"031-682-6939","addr":"경기도 평택시 청북읍 옥길리 1165-3번지 102호","indutype":"일반휴게음식 - 일반한식","category":"restaurant"},{"name":"멕시카나 청북점","tel":"031-683-0026","addr":"경기도 평택시 청북읍 옥길리 1165-3번지 1층 101호","indutype":"일반휴게음식 - 주점","category":"restaurant"}]},{"lat":"37.016900964","long":"126.91671813","imageIndex":4,"items":[{"name":"굽네치킨청북신도시점","tel":"031-681-0745","addr":"경기도 평택시 청북읍 옥길리 1165-5번지 명성빌 102호","indutype":"음식점 - 치킨","category":"restaurant"},{"name":"굽네치킨청북신도시점","tel":"031-684-9004","addr":"경기도 평택시 청북읍 옥길리 1165-5번지 명성빌 102호","indutype":"일반휴게음식 - 스넥","category":"restaurant"}]},{"lat":"37.018630098","long":"126.91546886","imageIndex":4,"items":[{"name":"김밥천국평택청북점","tel":"031-682-1331","addr":"경기도 평택시 청북읍 옥길리 1158-3번지 에이스프라자 106호","indutype":"일반휴게음식 - 스넥","category":"restaurant"},{"name":"보드람치킨 청북점","tel":"031-616-8341","addr":"경기도 평택시 청북읍 옥길리 1158-3번지 에이스프라자 103호","indutype":"일반휴게음식 - 스넥","category":"restaurant"},{"name":"빵궁전","tel":"031-682-9891","addr":"경기도 평택시 청북읍 옥길리 1158-3번지 에이스프라자 111호","indutype":"음식점 - 제과점","category":"restaurant"},{"name":"전주명가콩나물국밥(평택청북점)","tel":"031-684-9765","addr":"경기도 평택시 청북읍 옥길리 1158-3번지 에이스플라자 1동 102호 101,102호","indutype":"일반휴게음식 - 일반한식","category":"restaurant"},{"name":"치뽁(청북점)","tel":"031-686-7370","addr":"경기도 평택시 청북읍 옥길리 1158-3번지 에이스 플라자(ACE PLAZA) 107호","indutype":"음식점 - 치킨","category":"restaurant"},{"name":"치뽁(청북점)","tel":"031-686-9279","addr":"경기도 평택시 청북읍 옥길리 1158-3번지 에이스 플라자(ACE PLAZA) 107호","indutype":"일반휴게음식 - 스넥","category":"restaurant"},{"name":"탑비어","tel":"052-223-3020","addr":"경기도 평택시 청북읍 옥길리 1158-3번지 에이스 플라자(ACE PLAZA) 204호","indutype":"일반휴게음식 - 주점","category":"restaurant"}]},{"lat":"37.016739049","long":"126.91710036","imageIndex":4,"items":[{"name":"나라도횟집","tel":"031-682-1188","addr":"경기도 평택시 청북읍 옥길리 1168-5번지 1층","indutype":"일반휴게음식 - 일식·회집","category":"restaurant"},{"name":"섬마을칼국수","tel":"031-681-0105","addr":"경기도 평택시 청북읍 옥길리 1168-5번지","indutype":"음식점 - 한식","category":"restaurant"}]},{"lat":"37.017208322","long":"126.91809991","imageIndex":4,"items":[{"name":"난향","tel":"031-681-8555","addr":"경기도 평택시 청북읍 옥길리 1166-6번지 1층","indutype":"일반휴게음식 - 중국식","category":"restaurant"},{"name":"해운대국밥","tel":"031-686-8833","addr":"경기도 평택시 청북읍 옥길리 1166-6번지 1층","indutype":"음식점 - 한식","category":"restaurant"}]},{"lat":"37.017207245","long":"126.91660541","imageIndex":4,"items":[{"name":"노군꼬치청북점","tel":"031-684-6366","addr":"경기도 평택시 청북읍 옥길리 1162-4번지 107호","indutype":"일반휴게음식 - 일반한식","category":"restaurant"},{"name":"초밥집","tel":"031-682-5277","addr":"경기도 평택시 청북읍 옥길리 1162-4번지 106호","indutype":"일반휴게음식 - 일식·회집","category":"restaurant"},{"name":"홍전","tel":"","addr":"경기도 평택시 청북읍 옥길리 1162-4번지 1층","indutype":"음식점 - 한식","category":"restaurant"}]},{"lat":"37.01759578","long":"126.91809948","imageIndex":4,"items":[{"name":"니꾸소평택청북점","tel":"031-684-1192","addr":"경기도 평택시 청북읍 옥길리 1163-2번지 토담빌딩 114, 115호","indutype":"일반휴게음식 - 일반한식","category":"restaurant"},{"name":"메가파크탑픽","tel":"031-684-0311","addr":"경기도 평택시 청북읍 옥길리 1163-2번지 2,3층","indutype":"일반휴게음식 - 서양음식","category":"restaurant"},{"name":"방's골뱅이","tel":"031-683-2226","addr":"경기도 평택시 청북읍 옥길리 1163-2번지 토담빌딩 101호","indutype":"일반휴게음식 - 일반한식","category":"restaurant"},{"name":"족발야시장 (청북점)","tel":"031-684-4969","addr":"경기도 평택시 청북읍 옥길리 1163-2번지 1층 104,105호","indutype":"일반휴게음식 - 일반한식","category":"restaurant"},{"name":"카페글렌청북점","tel":"070-8252-8552","addr":"경기도 평택시 청북읍 옥길리 1163-2번지 토담빌딩 110호","indutype":"일반휴게음식 - 서양음식","category":"restaurant"},{"name":"토박이 아귀찜","tel":"031-684-5950","addr":"경기도 평택시 청북읍 옥길리 1163-2번지 토담빌딩 109호","indutype":"일반휴게음식 - 일반한식","category":"restaurant"}]},{"lat":"37.022573195","long":"126.91074453","imageIndex":4,"items":[{"name":"대구태영생막창 청북신도시점","tel":"031-682-4936","addr":"경기도 평택시 청북읍 옥길리 1062-2번지 104,105호","indutype":"일반휴게음식 - 일반한식","category":"restaurant"},{"name":"명태사랑","tel":"031-111-1111","addr":"경기도 평택시 청북읍 옥길리 1062-2번지","indutype":"일반휴게음식 - 일반한식","category":"restaurant"},{"name":"뽕뜨락피자청북점","tel":"031-686-6565","addr":"경기도 평택시 청북읍 옥길리 1062-2번지 103호","indutype":"일반휴게음식 - 서양음식","category":"restaurant"}]},{"lat":"37.01790207","long":"126.91799801","imageIndex":4,"items":[{"name":"돈통마늘보쌈청북지구점","tel":"031-684-5385","addr":"경기도 평택시 청북읍 옥길리 1163-1번지 203호","indutype":"일반휴게음식 - 일반한식","category":"restaurant"},{"name":"돈통마늘보쌈청북지구점","tel":"031-686-8822","addr":"경기도 평택시 청북읍 옥길리 1163-1번지 20호(골드테라스3)","indutype":"음식점 - 한식","category":"restaurant"},{"name":"신촌설렁탕&더덕삼겹살 (청북점)","tel":"031-683-2017","addr":"경기도 평택시 청북읍 옥길리 1163-1번지 204호","indutype":"일반휴게음식 - 일반한식","category":"restaurant"},{"name":"요거프레소 (YOGER PRESSO)청북신도시점","tel":"031-686-8727","addr":"경기도 평택시 청북읍 옥길리 1163-1번지 105호","indutype":"일반휴게음식 - 서양음식","category":"restaurant"},{"name":"요거프레소청북신도시점","tel":"031-684-7386","addr":"경기도 평택시 청북읍 옥길리 1163-1번지 105호","indutype":"음식점 - 커피","category":"restaurant"},{"name":"청년다방평택청북점","tel":"031-681-2979","addr":"경기도 평택시 청북읍 옥길리 1163-1번지 골드테라스lll,1층107호","indutype":"일반휴게음식 - 일반한식","category":"restaurant"},{"name":"파우스트(PAUST)","tel":"","addr":"경기도 평택시 청북읍 옥길리 1163-1번지 토탐빌딩 1층 102호","indutype":"일반휴게음식 - 주점","category":"restaurant"}]},{"lat":"37.017849121","long":"126.91957124","imageIndex":4,"items":[{"name":"두손푸드","tel":"031-681-3442","addr":"경기도 평택시 청북읍 옥길리 1277-5번지","indutype":"일반휴게음식 - 일반한식","category":"restaurant"}]},{"lat":"37.018242739","long":"126.91560415","imageIndex":4,"items":[{"name":"등촌샤브칼국수(청북점)","tel":"031-683-1851","addr":"경기도 평택시 청북읍 옥길리 1158-2번지 201호","indutype":"일반휴게음식 - 일반한식","category":"restaurant"},{"name":"등촌샤브칼국수(청북점)","tel":"031-683-1851","addr":"경기도 평택시 청북읍 옥길리 1158-2번지 2층 201호 KD Plaza","indutype":"일반휴게음식 - 일반한식","category":"restaurant"},{"name":"벌툰 평택청북점","tel":"","addr":"경기도 평택시 청북읍 옥길리 1158-2번지 2층 204호","indutype":"일반휴게음식 - 스넥","category":"restaurant"},{"name":"셀렉토커피 평택청북점","tel":"031-681-8823","addr":"경기도 평택시 청북읍 옥길리 1158-2번지 KD프라자 1층 113호","indutype":"일반휴게음식 - 서양음식","category":"restaurant"},{"name":"육대장청북하나점","tel":"031-681-6301","addr":"경기도 평택시 청북읍 옥길리 1158-2번지 202호","indutype":"일반휴게음식 - 일반한식","category":"restaurant"},{"name":"통닭싸롱옛날통닭청북점","tel":"031-683-0818","addr":"경기도 평택시 청북읍 옥길리 1158-2번지 1층 101호","indutype":"일반휴게음식 - 일반한식","category":"restaurant"}]},{"lat":"37.024184397","long":"126.92068811","imageIndex":4,"items":[{"name":"라떼떼 청북점","tel":"","addr":"경기도 평택시 청북읍 옥길리 246-6번지 1층 102호","indutype":"일반휴게음식 - 서양음식","category":"restaurant"}]},{"lat":"37.016873809","long":"126.91654961","imageIndex":4,"items":[{"name":"마약생고기","tel":"031-684-8116","addr":"경기도 평택시 청북읍 옥길리 1165-4번지 102호","indutype":"음식점 - 한식","category":"restaurant"},{"name":"마약생고기","tel":"031-684-7386","addr":"경기도 평택시 청북읍 옥길리 1165-4번지 102호","indutype":"일반휴게음식 - 일반한식","category":"restaurant"}]},{"lat":"37.018153061","long":"126.91618857","imageIndex":4,"items":[{"name":"맘스터치 청북점","tel":"031-682-8084","addr":"경기도 평택시 청북읍 옥길리 1159-1번지 113호,114호","indutype":"일반휴게음식 - 서양음식","category":"restaurant"},{"name":"신의주찹쌀순대 청북점","tel":"","addr":"경기도 평택시 청북읍 옥길리 1159-1번지 골든타임 1층 106호 107호","indutype":"일반휴게음식 - 일반한식","category":"restaurant"},{"name":"킴포스청북점","tel":"031-681-3425","addr":"경기도 평택시 청북읍 옥길리 1159-1번지 102호","indutype":"음식점 - 일반","category":"restaurant"},{"name":"킹포스청북점","tel":"031-682-8538","addr":"경기도 평택시 청북읍 옥길리 1159-1번지 102호","indutype":"일반휴게음식 - 주점","category":"restaurant"},{"name":"파리바게뜨 평택청북점","tel":"031-683-0668","addr":"경기도 평택시 청북읍 옥길리 1159-1번지","indutype":"음식점 - 제과점","category":"restaurant"},{"name":"향","tel":"031-681-6097","addr":"경기도 평택시 청북읍 옥길리 1159-1번지 골든타임 206호","indutype":"일반휴게음식 - 중국식","category":"restaurant"}]},{"lat":"37.017019258","long":"126.91832486","imageIndex":4,"items":[{"name":"맥주카페","tel":"031-682-7993","addr":"경기도 평택시 청북읍 옥길리 1167-7번지","indutype":"일반휴게음식 - 주점","category":"restaurant"}]},{"lat":"37.018406547","long":"126.91782889","imageIndex":4,"items":[{"name":"메가엠지씨커피 (청북점)","tel":"070-1111-1111","addr":"경기도 평택시 청북읍 옥길리 1158-8번지 1층 107호","indutype":"일반휴게음식 - 서양음식","category":"restaurant"},{"name":"육곱","tel":"031-683-6649","addr":"경기도 평택시 청북읍 옥길리 1158-8번지 청북프라자 108호","indutype":"일반휴게음식 - 일반한식","category":"restaurant"},{"name":"청북락음식점","tel":"031-111-1111","addr":"경기도 평택시 청북읍 옥길리 1158-8번지 5층 504호일부","indutype":"일반휴게음식 - 일반한식","category":"restaurant"},{"name":"화화돼지왕갈비경기지사직영1호점","tel":"031-681-3692","addr":"경기도 평택시 청북읍 옥길리 1158-8번지 청북프라자 2층 205,206,207호","indutype":"일반휴게음식 - 일반한식","category":"restaurant"}]},{"lat":"37.017847603","long":"126.91743622","imageIndex":4,"items":[{"name":"명륜진사갈비 평택청북점","tel":"031-683-6839","addr":"경기도 평택시 청북읍 옥길리 1161-2번지 우영빌딩 103~106호","indutype":"일반휴게음식 - 일반한식","category":"restaurant"}]},{"lat":"37.017154025","long":"126.9177741","imageIndex":4,"items":[{"name":"문복집","tel":"031-681-1106","addr":"경기도 평택시 청북읍 옥길리 1166-4번지","indutype":"일반휴게음식 - 일식·회집","category":"restaurant"},{"name":"얼큰순대국밥","tel":"031-684-8115","addr":"경기도 평택시 청북읍 옥길리 1166-4번지 102호","indutype":"일반휴게음식 - 일반한식","category":"restaurant"},{"name":"얼큰순대국밥","tel":"031-681-8555","addr":"경기도 평택시 청북읍 옥길리 1166-4번지 102호","indutype":"음식점 - 한식","category":"restaurant"}]},{"lat":"37.022572959","long":"126.91044112","imageIndex":4,"items":[{"name":"문어전복성시","tel":"031-683-1102","addr":"경기도 평택시 청북읍 옥길리 1062-1번지 103호","indutype":"일반휴게음식 - 일반한식","category":"restaurant"},{"name":"시원한냉면","tel":"031-684-1213","addr":"경기도 평택시 청북읍 옥길리 1062-1번지 101호","indutype":"일반휴게음식 - 일반한식","category":"restaurant"},{"name":"카페다온","tel":"031-892-4828","addr":"경기도 평택시 청북읍 옥길리 1062-1번지 102호","indutype":"일반휴게음식 - 서양음식","category":"restaurant"}]},{"lat":"37.017045557","long":"126.91730228","imageIndex":4,"items":[{"name":"바른생갈비 청북점","tel":"031-684-8779","addr":"경기도 평택시 청북읍 옥길리 1166-1번지","indutype":"음식점 - 한식","category":"restaurant"},{"name":"신퇘랑청북점","tel":"031-681-3392","addr":"경기도 평택시 청북읍 옥길리 1166-1번지","indutype":"일반휴게음식 - 일반한식","category":"restaurant"}]},{"lat":"37.017181177","long":"126.91794263","imageIndex":4,"items":[{"name":"바울아저씨 청북점","tel":"031-683-3302","addr":"경기도 평택시 청북읍 옥길리 1166-5번지 1층 일부","indutype":"일반휴게음식 - 서양음식","category":"restaurant"}]},{"lat":"37.016069994","long":"126.91402226","imageIndex":4,"items":[{"name":"박군치킨 청북점","tel":"031-683-9236","addr":"경기도 평택시 청북읍 옥길리 1110번지 부영사랑으로","indutype":"일반휴게음식 - 스넥","category":"restaurant"},{"name":"피자아르떼","tel":"031-686-8282","addr":"경기도 평택시 청북읍 옥길리 1110번지 부영사랑으로 1층 108호","indutype":"일반휴게음식 - 서양음식","category":"restaurant"}]},{"lat":"37.017125722","long":"126.91602119","imageIndex":4,"items":[{"name":"본죽 청북점","tel":"031-681-6288","addr":"경기도 평택시 청북읍 옥길리 1162-2번지 104호","indutype":"일반휴게음식 - 일반한식","category":"restaurant"},{"name":"하루디저트카페","tel":"031-684-8992","addr":"경기도 평택시 청북읍 옥길리 1162-2번지 한남빌딩 102호 하루마카롱","indutype":"일반휴게음식 - 서양음식","category":"restaurant"}]},{"lat":"37.018101679","long":"126.91994179","imageIndex":4,"items":[{"name":"새찬정육식당","tel":"031-682-9282","addr":"경기도 평택시 청북읍 옥길리 1276-3","indutype":"일반휴게음식 - 일반한식","category":"restaurant"},{"name":"중국성","tel":"031-684-3800","addr":"경기도 평택시 청북읍 옥길리 1276-3번지","indutype":"일반휴게음식 - 중국식","category":"restaurant"}]},{"lat":"37.018819825","long":"126.91615411","imageIndex":4,"items":[{"name":"소미칼국수","tel":"031-681-4883","addr":"경기도 평택시 청북읍 옥길리 1158-5번지 107,108호","indutype":"일반휴게음식 - 일반한식","category":"restaurant"},{"name":"이디야평택청북점","tel":"031-683-9063","addr":"경기도 평택시 청북읍 옥길리 1158-5번지 1층","indutype":"일반휴게음식 - 서양음식","category":"restaurant"}]},{"lat":"37.016902255","long":"126.91851601","imageIndex":4,"items":[{"name":"속초상회","tel":"","addr":"경기도 평택시 청북읍 옥길리 1167-9번지","indutype":"일반휴게음식 - 일반한식","category":"restaurant"},{"name":"우림한방삼계탕전문점","tel":"031-681-0086","addr":"경기도 평택시 청북읍 옥길리 1167-9번지","indutype":"일반휴게음식 - 일반한식","category":"restaurant"}]},{"lat":"37.023545759","long":"126.90999043","imageIndex":4,"items":[{"name":"수지갈비","tel":"031-682-0551","addr":"경기도 평택시 청북읍 옥길리 297-2번지 1층","indutype":"일반휴게음식 - 일반한식","category":"restaurant"}]},{"lat":"37.01771355","long":"126.91898707","imageIndex":4,"items":[{"name":"스뎅포차","tel":"031-681-4591","addr":"경기도 평택시 청북읍 옥길리 1278-5번지 1층","indutype":"일반휴게음식 - 일반한식","category":"restaurant"}]},{"lat":"37.017351895","long":"126.91726822","imageIndex":4,"items":[{"name":"아리가또맘마 평택청북점","tel":"031-000-0000","addr":"경기도 평택시 청북읍 옥길리 1163-5번지 106호","indutype":"일반휴게음식 - 일식·회집","category":"restaurant"},{"name":"아리가또맘마 평택청북점","tel":"031-684-9004","addr":"경기도 평택시 청북읍 옥길리 1163-5번지 106호","indutype":"음식점 - 일식","category":"restaurant"},{"name":"앗싸곱창","tel":"031-686-8727","addr":"경기도 평택시 청북읍 옥길리 1163-5번지 103호","indutype":"음식점 - 한식","category":"restaurant"},{"name":"앗싸곱창","tel":"031-681-3425","addr":"경기도 평택시 청북읍 옥길리 1163-5번지 103호","indutype":"일반휴게음식 - 일반한식","category":"restaurant"}]},{"lat":"37.016540128","long":"126.9161567","imageIndex":4,"items":[{"name":"아이포크","tel":"031-683-9317","addr":"경기도 평택시 청북읍 옥길리 1169-1번지 봄하우스 1층","indutype":"일반휴게음식 - 일반한식","category":"restaurant"},{"name":"육회공작소","tel":"031-684-3379","addr":"경기도 평택시 청북읍 옥길리 1169-1번지 1층","indutype":"일반휴게음식 - 일반한식","category":"restaurant"}]},{"lat":"37.022627494","long":"126.91104788","imageIndex":4,"items":[{"name":"안다루청북점","tel":"031-684-3472","addr":"경기도 평택시 청북읍 옥길리 1062-3번지 1층","indutype":"일반휴게음식 - 일반한식","category":"restaurant"}]},{"lat":"37.016684749","long":"126.91677455","imageIndex":4,"items":[{"name":"오구오구양꼬치","tel":"","addr":"경기도 평택시 청북읍 옥길리 1168-3번지","indutype":"일반휴게음식 - 일반한식","category":"restaurant"}]},{"lat":"37.020682152","long":"126.91229757","imageIndex":4,"items":[{"name":"요거프레소 평택청북지구점","tel":"031-682-7971","addr":"경기도 평택시 청북읍 옥길리 1097번지 사랑으로부영5차 103호","indutype":"일반휴게음식 - 서양음식","category":"restaurant"}]},{"lat":"37.022325543","long":"126.91693675","imageIndex":4,"items":[{"name":"요거프레소(청북고교점)","tel":"031-682-8727","addr":"경기도 평택시 청북읍 옥길리 1137번지 평택청북이지더원아파트 601동 104호 (평택청북이지더원상가)","indutype":"일반휴게음식 - 서양음식","category":"restaurant"}]},{"lat":"37.017099856","long":"126.91762809","imageIndex":4,"items":[{"name":"제주생두껍돈연탄구이","tel":"031-681-2959","addr":"경기도 평택시 청북읍 옥길리 1166-3번지 102호","indutype":"일반휴게음식 - 일반한식","category":"restaurant"},{"name":"홍한우곱창","tel":"031-684-2301","addr":"경기도 평택시 청북읍 옥길리 1166-3번지","indutype":"음식점 - 한식","category":"restaurant"},{"name":"홍한우곱창전문","tel":"031-681-0885","addr":"경기도 평택시 청북읍 옥길리 1166-3번지","indutype":"일반휴게음식 - 일반한식","category":"restaurant"}]},{"lat":"37.016793315","long":"126.91738122","imageIndex":4,"items":[{"name":"종로맥가 청북점","tel":"","addr":"경기도 평택시 청북읍 옥길리 1167-1번지","indutype":"일반휴게음식 - 주점","category":"restaurant"}]},{"lat":"37.02820637","long":"126.9127157","imageIndex":4,"items":[{"name":"지산흑돈","tel":"031-655-5959","addr":"경기도 평택시 청북읍 옥길리 200-2번지","indutype":"일반휴게음식 - 일반한식","category":"restaurant"}]},{"lat":"37.016603424","long":"126.91646002","imageIndex":4,"items":[{"name":"쭈꾸미네 막창인생","tel":"031-684-6477","addr":"경기도 평택시 청북읍 옥길리 1168-1번지 101호","indutype":"음식점 - 한식","category":"restaurant"}]},{"lat":"37.01699129","long":"126.91702142","imageIndex":4,"items":[{"name":"창민연탄불생고기","tel":"031-681-4653","addr":"경기도 평택시 청북읍 옥길리 1165-7번지 1층","indutype":"일반휴게음식 - 일반한식","category":"restaurant"},{"name":"청북신도시페리카나","tel":"","addr":"경기도 평택시 청북읍 옥길리 1165-7번지","indutype":"음식점 - 치킨","category":"restaurant"},{"name":"페리카나 청북신도시점","tel":"031-686-8833","addr":"경기도 평택시 청북읍 옥길리 1165-7번지 1층 102호","indutype":"일반휴게음식 - 스넥","category":"restaurant"}]},{"lat":"37.015963609","long":"126.91638208","imageIndex":4,"items":[{"name":"청북아구찜","tel":"031-683-0047","addr":"경기도 평택시 청북읍 옥길리 1169-5번지 1층","indutype":"일반휴게음식 - 일반한식","category":"restaurant"}]},{"lat":"37.01704641","long":"126.91849338","imageIndex":4,"items":[{"name":"청북횟집","tel":"031-684-3538","addr":"경기도 평택시 청북읍 옥길리 1167-8번지 1층","indutype":"일반휴게음식 - 일식·회집","category":"restaurant"}]},{"lat":"37.01726249","long":"126.91824593","imageIndex":4,"items":[{"name":"청옥감자탕","tel":"031-681-8353","addr":"경기도 평택시 청북읍 옥길리 1166-7번지 1층","indutype":"일반휴게음식 - 일반한식","category":"restaurant"}]},{"lat":"37.027819372","long":"126.91332303","imageIndex":4,"items":[{"name":"청정장어","tel":"031-684-4987","addr":"경기도 평택시 청북읍 옥길리 200-1","indutype":"일반휴게음식 - 일반한식","category":"restaurant"},{"name":"청정장어청북점","tel":"031-681-8864","addr":"경기도 평택시 청북읍 옥길리 200-1번지","indutype":"음식점 - 한식","category":"restaurant"}]},{"lat":"37.016792492","long":"126.9162463","imageIndex":4,"items":[{"name":"클라츠","tel":"031-684-2462","addr":"경기도 평택시 청북읍 옥길리 1165-2번지 1층","indutype":"일반휴게음식 - 서양음식","category":"restaurant"}]},{"lat":"37.018100913","long":"126.9188518","imageIndex":4,"items":[{"name":"태양부양꼬치","tel":"031-111-1111","addr":"경기도 평택시 청북읍 옥길리 1278-2번지 1층 101호","indutype":"일반휴게음식 - 중국식","category":"restaurant"}]},{"lat":"37.017072702","long":"126.91745956","imageIndex":4,"items":[{"name":"투다리옥길점","tel":"031-684-3806","addr":"경기도 평택시 청북읍 옥길리 1166-2번지 1층","indutype":"일반휴게음식 - 일반한식","category":"restaurant"}]},{"lat":"37.01699213","long":"126.91819005","imageIndex":4,"items":[{"name":"해두리치킨청북점","tel":"031-681-9282","addr":"경기도 평택시 청북읍 옥길리 1167-6번지 1층","indutype":"일반휴게음식 - 일반한식","category":"restaurant"},{"name":"해두리치킨청북점","tel":"031-683-9660","addr":"경기도 평택시 청북읍 옥길리 1167-6번지 1층","indutype":"음식점 - 한식","category":"restaurant"}]},{"lat":"37.015851671","long":"126.91130324","imageIndex":4,"items":[{"name":"해피누리키즈카페청북신도시점","tel":"031-684-8932","addr":"경기도 평택시 청북읍 옥길리 1123-2번지 3층","indutype":"일반휴게음식 - 서양음식","category":"restaurant"}]},{"lat":"37.017298653","long":"126.91841444","imageIndex":4,"items":[{"name":"행운양꼬치","tel":"031-681-6737","addr":"경기도 평택시 청북읍 옥길리 1166-8번지","indutype":"일반휴게음식 - 중국식","category":"restaurant"},{"name":"행운양꼬치","tel":"031-686-7052","addr":"경기도 평택시 청북읍 옥길리 1166-8번지 1층","indutype":"음식점 - 중식","category":"restaurant"}]},{"lat":"37.016711895","long":"126.91693184","imageIndex":4,"items":[{"name":"횡성생고기","tel":"031-683-9291","addr":"경기도 평택시 청북읍 옥길리 1168-4번지 101호 전부","indutype":"일반휴게음식 - 일반한식","category":"restaurant"}]}]