[{"lat":"37.515456301","long":"126.8033763","imageIndex":17,"items":[{"name":"(주)디지털삼성 오정지점","tel":"062-673-4900","addr":"경기도 부천시 여월동 48-7번지 GJS빌딩","indutype":"전기제품 - 가전제품","category":"other"},{"name":"GJS스크린골프/GJS빌딩","tel":"032-682-4849","addr":"경기도 부천시 여월동 48-7번지","indutype":"회원제형태 - 레져업소","category":"other"},{"name":"템피아","tel":"032-201-3652","addr":"경기도 부천시 여월동 48-7번지 GJS빌딩 1층","indutype":"전기제품 - 냉열기기","category":"other"}]},{"lat":"37.518926393","long":"126.79885372","imageIndex":17,"items":[{"name":"(주)영일기업","tel":"032-676-6244","addr":"경기도 부천시 여월동 7-56번지","indutype":"건축자재 - 보일러·펌프·샷시","category":"other"}]},{"lat":"37.511289893","long":"126.80646384","imageIndex":17,"items":[{"name":"(주)웰바이오스","tel":"032-1899-3272","addr":"경기도 부천시 여월동 335번지 두오파크프라자 B101호","indutype":"주방용구 - 주방용구","category":"other"},{"name":"다비다","tel":"032-677-4775","addr":"경기도 부천시 여월동 335번지 정방프라자 1층","indutype":"의류 - 정장","category":"other"},{"name":"한국복사기프린터렌탈/토너인","tel":"032-677-5353","addr":"경기도 부천시 여월동 335번지 두오파크프라자 B102호","indutype":"사무통신 - 사무용 OA기기","category":"other"}]},{"lat":"37.519952125","long":"126.79804779","imageIndex":17,"items":[{"name":"365정보통신","tel":"032-677-4010","addr":"경기도 부천시 여월동 3-39번지","indutype":"사무통신 - 통신기기","category":"other"}]},{"lat":"37.520005694","long":"126.79776485","imageIndex":17,"items":[{"name":"GS25부천여월점","tel":"02-2006-2485","addr":"경기도 부천시 여월동 3-30번지","indutype":"유통업 영리 - 편 의 점","category":"other"}]},{"lat":"37.518536952","long":"126.79768969","imageIndex":17,"items":[{"name":"I.Com","tel":"032-684-2388","addr":"경기도 부천시 여월동 5-5번지","indutype":"사무통신 - 컴퓨터","category":"other"},{"name":"크리스","tel":"032-676-1172","addr":"경기도 부천시 여월동 5-5번지","indutype":"의류 - 정장","category":"other"}]},{"lat":"37.51384384","long":"126.7982907","imageIndex":17,"items":[{"name":"LG샷다","tel":"032-675-4691","addr":"경기도 부천시 여월동 76-19번지","indutype":"건축자재 - 기타건축자재","category":"other"}]},{"lat":"37.516203564","long":"126.80304629","imageIndex":17,"items":[{"name":"SPC네트웍스중부","tel":"02-1544-7884","addr":"경기도 부천시 여월동 10-40번지 대성빌딩 3층 301호 302호","indutype":"사무통신 - 통신기기","category":"other"}]},{"lat":"37.516757725","long":"126.8004319","imageIndex":17,"items":[{"name":"강원종합인테리어","tel":"032-673-4199","addr":"경기도 부천시 여월동 44-21번지","indutype":"건축자재 - 인테리어전문","category":"other"},{"name":"동진목재","tel":"032-684-6363","addr":"경기도 부천시 여월동 44-21번지","indutype":"건축자재 - 목재·석재·철물","category":"other"}]},{"lat":"37.519285397","long":"126.79804961","imageIndex":17,"items":[{"name":"경기공업사","tel":"032-674-2315","addr":"경기도 부천시 여월동 6-23번지 로얄골드빌 101호","indutype":"용역 서비스 - 기타용역서비스","category":"other"}]},{"lat":"37.51717332","long":"126.80109814","imageIndex":17,"items":[{"name":"경일상사","tel":"032-423-2255","addr":"경기도 부천시 여월동 9-10번지 부원아트빌","indutype":"사무통신 - 사무용 OA기기","category":"other"},{"name":"국제에띠임","tel":"070-7690-8515","addr":"경기도 부천시 여월동 9-10번지 부원아트빌 401호","indutype":"의류 - 내의판매","category":"other"}]},{"lat":"37.517703197","long":"126.80010131","imageIndex":17,"items":[{"name":"광성에너지","tel":"032-684-3002","addr":"경기도 부천시 여월동 9번지 1층","indutype":"건축자재 - 보일러·펌프·샷시","category":"other"}]},{"lat":"37.519123847","long":"126.79841203","imageIndex":17,"items":[{"name":"광천미싱","tel":"032-674-1863","addr":"경기도 부천시 여월동 6-30번지 소산빌딩","indutype":"기타 - 기계공구","category":"other"}]},{"lat":"37.517983061","long":"126.79523661","imageIndex":17,"items":[{"name":"굿피플","tel":"","addr":"경기도 부천시 여월동 53-24번지 대원빌라 101호","indutype":"수리서비스 - 기타수리서비스","category":"other"}]},{"lat":"37.508958849","long":"126.79735398","imageIndex":17,"items":[{"name":"그린나래","tel":"032-611-7376","addr":"경기도 부천시 여월동 98-8번지 1층","indutype":"문화.취미 - 문화취미기타","category":"other"},{"name":"바늘이 천을 콕 찌를 때","tel":"","addr":"경기도 부천시 여월동 98-8번지","indutype":"문화.취미 - 문화취미기타","category":"other"},{"name":"박만순옻칠공방","tel":"032-664-5725","addr":"경기도 부천시 여월동 98-8번지 무형문화재부천전수관 1층","indutype":"문화.취미 - 민예·공예품","category":"other"}]},{"lat":"37.509978161","long":"126.79804112","imageIndex":17,"items":[{"name":"그린데이","tel":"070-4145-4940","addr":"경기도 부천시 여월동 92-3번지","indutype":"문화.취미 - 화원","category":"other"},{"name":"꼬맹이야생화","tel":"070-7797-8936","addr":"경기도 부천시 여월동 92-3번지","indutype":"문화.취미 - 화원","category":"other"},{"name":"노란나비다육","tel":"070-9435-5340","addr":"경기도 부천시 여월동 92-3번지","indutype":"문화.취미 - 화원","category":"other"},{"name":"부천젬마꽃도매","tel":"032-681-1677","addr":"경기도 부천시 여월동 92-3번지","indutype":"문화.취미 - 화원","category":"other"},{"name":"신생꽃농원","tel":"032-676-9955","addr":"경기도 부천시 여월동 92-3번지","indutype":"문화.취미 - 화원","category":"other"},{"name":"예진화원","tel":"032-673-7122","addr":"경기도 부천시 여월동 92-3번지","indutype":"문화.취미 - 화원","category":"other"},{"name":"예향원","tel":"032-678-3146","addr":"경기도 부천시 여월동 92-3,91","indutype":"문화.취미 - 화원","category":"other"},{"name":"힐링야생화","tel":"032-675-3330","addr":"경기도 부천시 여월동 92-3번지 1층","indutype":"문화.취미 - 화원","category":"other"}]},{"lat":"37.512926113","long":"126.80432183","imageIndex":17,"items":[{"name":"극동음향","tel":"032-613-6062","addr":"경기도 부천시 여월동 320번지 여월휴먼시아2단지아파트","indutype":"전기제품 - 기타전기제품","category":"other"},{"name":"부천홍","tel":"032-0000-0000","addr":"경기도 부천시 여월동 320번지 여월휴먼시아2단지아파트","indutype":"의류 - 정장","category":"other"},{"name":"샘물부천가맹점","tel":"031-000-0000","addr":"경기도 부천시 여월동 320번지 여월휴먼시아2단지아파트","indutype":"유통업 영리 - 기타유통업","category":"other"},{"name":"신림","tel":"032-312-9399","addr":"경기도 부천시 여월동 320번지 여월휴먼시아2단지아파트","indutype":"회원제형태 - 기타4","category":"other"},{"name":"유정꽃농원","tel":"032-672-1380","addr":"경기도 부천시 여월동 320번지 여월휴먼시아2단지아파트","indutype":"문화.취미 - 화원","category":"other"},{"name":"청년닷컴협동조합","tel":"070-4632-6855","addr":"경기도 부천시 여월동 320번지 여월휴먼시아2단지아파트","indutype":"서적문구 - 출판 및 인쇄물","category":"other"}]},{"lat":"37.519733073","long":"126.79643081","imageIndex":17,"items":[{"name":"금희경피부샵","tel":"032-672-0000","addr":"경기도 부천시 여월동 5-29번지 1층 4호","indutype":"회원제형태 - 기타4","category":"other"}]},{"lat":"37.517118371","long":"126.80057797","imageIndex":17,"items":[{"name":"길주로 금속","tel":"032-675-9765","addr":"경기도 부천시 여월동 9-40번지 1층 4호","indutype":"용역 서비스 - 기타용역서비스","category":"other"},{"name":"미래가전","tel":"011-***-****","addr":"경기도 부천시 여월동 9-40번지 4호","indutype":"수리서비스 - 가정용품수리","category":"other"},{"name":"보일러프로","tel":"032-672-9007","addr":"경기도 부천시 여월동 9-40번지 1층 101,102호","indutype":"건축자재 - 보일러·펌프·샷시","category":"other"},{"name":"영일이앤지주식회사","tel":"032-677-1930","addr":"경기도 부천시 여월동 9-40번지 지하1층","indutype":"용역 서비스 - 기타용역서비스","category":"other"}]},{"lat":"37.518117125","long":"126.79979478","imageIndex":17,"items":[{"name":"나래커텐","tel":"032-671-0750","addr":"경기도 부천시 여월동 8-44번지 1층","indutype":"직물 - 카페트,커튼,천막,지물","category":"other"}]},{"lat":"37.509783554","long":"126.80013405","imageIndex":17,"items":[{"name":"네모칸","tel":"","addr":"경기도 부천시 여월동 313번지 여월휴먼시아4단지아파트","indutype":"용역 서비스 - 사무서비스","category":"other"}]},{"lat":"37.515701141","long":"126.79902086","imageIndex":17,"items":[{"name":"녹색상품코너","tel":"","addr":"경기도 부천시 여월동 296번지 여월휴먼시아1단지","indutype":"신변잡화 - 기타잡화","category":"other"},{"name":"더조은 방충망 경기총판","tel":"","addr":"경기도 부천시 여월동 296번지 여월휴먼시아1단지","indutype":"용역 서비스 - 기타용역서비스","category":"other"},{"name":"미소트리(miso tree)","tel":"070-4144-4359","addr":"경기도 부천시 여월동 296번지 여월휴먼시아1단지","indutype":"문화.취미 - 화원","category":"other"},{"name":"상장례의전법인배웅","tel":"02-1644-4044","addr":"경기도 부천시 여월동 296번지 여월휴먼시아1단지","indutype":"회원제형태 - 기타4","category":"other"},{"name":"조아스포츠","tel":"","addr":"경기도 부천시 여월동 296번지 여월휴먼시아1단지","indutype":"레져용품 - 스포츠·레져용품","category":"other"},{"name":"주식회사 현대지엔에스","tel":"032-675-2030","addr":"경기도 부천시 여월동 296번지 여월휴먼시아1단지 상가동 202호","indutype":"용역 서비스 - 종합용역","category":"other"},{"name":"한빛정보","tel":"02-861-5949","addr":"경기도 부천시 여월동 296번지 여월휴먼시아1단지","indutype":"회원제형태 - 기타3","category":"other"}]},{"lat":"37.518452507","long":"126.79576695","imageIndex":17,"items":[{"name":"다성 시스템","tel":"032-676-1337","addr":"경기도 부천시 여월동 53-7번지 2층","indutype":"용역 서비스 - 기타용역서비스","category":"other"},{"name":"대륜아이티","tel":"032-678-1910","addr":"경기도 부천시 여월동 53-7번지","indutype":"전기제품 - 기타전기제품","category":"other"}]},{"lat":"37.515122516","long":"126.80312835","imageIndex":17,"items":[{"name":"대도꽃농원","tel":"032-674-2734","addr":"경기도 부천시 여월동 48-17번지","indutype":"문화.취미 - 화원","category":"other"},{"name":"리디아즈(LYDIAS)","tel":"","addr":"경기도 부천시 여월동 48-17번지 1층 2호","indutype":"의류 - 정장","category":"other"},{"name":"세정아트","tel":"032-675-7164","addr":"경기도 부천시 여월동 48-17번지 1층 2호","indutype":"가구 - 기타가구","category":"other"},{"name":"으뜸광고","tel":"032-671-9028","addr":"경기도 부천시 여월동 48-17번지","indutype":"건축자재 - 인테리어전문","category":"other"}]},{"lat":"37.516310839","long":"126.80254831","imageIndex":17,"items":[{"name":"대동천막기업","tel":"032-678-0837","addr":"경기도 부천시 여월동 10-19번지","indutype":"직물 - 카페트,커튼,천막,지물","category":"other"}]},{"lat":"37.519316677","long":"126.79532341","imageIndex":17,"items":[{"name":"대명산업","tel":"032-676-9729","addr":"경기도 부천시 여월동 52-4번지 106호","indutype":"주방용구 - 주방용구","category":"other"}]},{"lat":"37.521588051","long":"126.79582616","imageIndex":17,"items":[{"name":"대박","tel":"032-677-5151","addr":"경기도 부천시 여월동 1번지 1층","indutype":"신변잡화 - 기타잡화","category":"other"}]},{"lat":"37.519039216","long":"126.79637616","imageIndex":17,"items":[{"name":"대신수지","tel":"032-675-9582","addr":"경기도 부천시 여월동 53-21번지 1층 2호","indutype":"직물 - 기타직물","category":"other"},{"name":"이마트24 부천여월점","tel":"","addr":"경기도 부천시 여월동 53-21번지 1층","indutype":"유통업 영리 - 편 의 점","category":"other"},{"name":"이마트24부천여월점","tel":"032-0000-0000","addr":"경기도 부천시 여월동 53-21번지 1층","indutype":"유통업 영리 - 편 의 점","category":"other"}]},{"lat":"37.507091121","long":"126.79582097","imageIndex":17,"items":[{"name":"대신철강","tel":"032-674-9266","addr":"경기도 부천시 여월동 131-4번지","indutype":"건축자재 - 기타건축자재","category":"other"}]},{"lat":"37.519203188","long":"126.79740507","imageIndex":17,"items":[{"name":"대한공조","tel":"02-1588-8914","addr":"경기도 부천시 여월동 5-17번지","indutype":"전기제품 - 냉열기기","category":"other"},{"name":"퀸즈","tel":"032-682-9088","addr":"경기도 부천시 여월동 5-17번지","indutype":"의류 - 정장","category":"other"},{"name":"피닉스정보통신","tel":"","addr":"경기도 부천시 여월동 5-17번지 정문좌측첫번째","indutype":"사무통신 - 통신기기","category":"other"}]},{"lat":"37.519675459","long":"126.79957563","imageIndex":17,"items":[{"name":"대한상사","tel":"031-1899-6126","addr":"경기도 부천시 여월동 7-5번지","indutype":"신변잡화 - 기타잡화","category":"other"},{"name":"어린이나라","tel":"032-671-3364","addr":"경기도 부천시 여월동 7-5번지","indutype":"의류 - 아동의류","category":"other"}]},{"lat":"37.511676997","long":"126.80627055","imageIndex":17,"items":[{"name":"도자기굽는고양이","tel":"","addr":"경기도 부천시 여월동 334번지 여월프라자 109호","indutype":"문화.취미 - 문화취미기타","category":"other"},{"name":"멍냥이공작소","tel":"032-676-7323","addr":"경기도 부천시 여월동 334번지 여월프라자 1층 109호","indutype":"문화.취미 - 애완동물","category":"other"},{"name":"색연필","tel":"032-679-3555","addr":"경기도 부천시 여월동 334번지 여월프라자 103호","indutype":"서적문구 - 문구용품","category":"other"}]},{"lat":"37.51106947","long":"126.79868283","imageIndex":17,"items":[{"name":"동방꽃식물원","tel":"032-675-3831","addr":"경기도 부천시 여월동 89-18","indutype":"문화.취미 - 화원","category":"other"},{"name":"유한돌풀원","tel":"032-673-0730","addr":"경기도 부천시 여월동 89-18","indutype":"문화.취미 - 화원","category":"other"}]},{"lat":"37.519701806","long":"126.79917965","imageIndex":17,"items":[{"name":"동서지물인테리어","tel":"032-677-2282","addr":"경기도 부천시 여월동 7-4번지 1층","indutype":"건축자재 - 인테리어전문","category":"other"}]},{"lat":"37.52111948","long":"126.79579352","imageIndex":17,"items":[{"name":"동양인테리어","tel":"032-683-5703","addr":"경기도 부천시 여월동 4번지 유성빌딩 104호","indutype":"건축자재 - 인테리어전문","category":"other"},{"name":"이마트24 부천성곡로점","tel":"","addr":"경기도 부천시 여월동 4번지 나성빌딩","indutype":"유통업 영리 - 편 의 점","category":"other"}]},{"lat":"37.519621867","long":"126.79984726","imageIndex":17,"items":[{"name":"둘리 애견","tel":"032-683-4524","addr":"경기도 부천시 여월동 7-18번지 그린아트타운 101호","indutype":"문화.취미 - 애완동물","category":"other"}]},{"lat":"37.509396974","long":"126.80595984","imageIndex":17,"items":[{"name":"드림피아","tel":"","addr":"경기도 부천시 여월동 340번지 여월휴먼시아3단지아파트","indutype":"용역 서비스 - 종합용역","category":"other"},{"name":"삼진토건","tel":"","addr":"경기도 부천시 여월동 340번지 여월휴먼시아3단지아파트","indutype":"기타 - 기계공구","category":"other"},{"name":"씨유여월주공점","tel":"032-677-3334","addr":"경기도 부천시 여월동 340 여월주공3단지 106","indutype":"유통업 영리 - 편 의 점","category":"other"},{"name":"아이에디트 디자인","tel":"032-328-1334","addr":"경기도 부천시 여월동 340번지 여월휴먼시아3단지아파트","indutype":"용역 서비스 - 사무서비스","category":"other"},{"name":"이레기획","tel":"032-665-3000","addr":"경기도 부천시 여월동 340번지 여월휴먼시아3단지아파트","indutype":"회원제형태 - 기타4","category":"other"},{"name":"주공휴먼시아세탁","tel":"032-672-5445","addr":"경기도 부천시 여월동 340번지 여월휴먼시아3단지 상가 101호","indutype":"수리서비스 - 세탁소","category":"other"},{"name":"현대건기","tel":"032-672-4790","addr":"경기도 부천시 여월동 340번지 여월휴먼시아3단지아파트","indutype":"수리서비스 - 기타수리서비스","category":"other"},{"name":"홍선생미술(홍선생미술아트센터미술교습소)","tel":"032-674-1088","addr":"경기도 부천시 여월동 340번지 여월휴먼시아 상가동 205호","indutype":"회원제형태 - 서적","category":"other"},{"name":"화영라이프","tel":"032-679-9737","addr":"경기도 부천시 여월동 340번지 여월휴먼시아3단지아파트","indutype":"용역 서비스 - 가례서비스업","category":"other"}]},{"lat":"37.516428523","long":"126.80287602","imageIndex":17,"items":[{"name":"디자인가온","tel":"070-1111-1111","addr":"경기도 부천시 여월동 10-20번지 1층","indutype":"용역 서비스 - 사무서비스","category":"other"}]},{"lat":"37.516896901","long":"126.80279559","imageIndex":17,"items":[{"name":"리더싸인","tel":"070-8776-2222","addr":"경기도 부천시 여월동 10-49번지 1층","indutype":"건축자재 - 기타건축자재","category":"other"},{"name":"성곡운동화세탁방","tel":"032-677-1340","addr":"경기도 부천시 여월동 10-49번지 1층 102호","indutype":"수리서비스 - 세탁소","category":"other"}]},{"lat":"37.520199467","long":"126.80041129","imageIndex":17,"items":[{"name":"리본쟁이","tel":"","addr":"경기도 부천시 여월동 2-16번지 월산장미아파트","indutype":"신변잡화 - 액세서리","category":"other"}]},{"lat":"37.520094592","long":"126.79707458","imageIndex":17,"items":[{"name":"마이스타일","tel":"032-214-6055","addr":"경기도 부천시 여월동 3-13번지 1층","indutype":"의류 - 정장","category":"other"}]},{"lat":"37.519700673","long":"126.79852357","imageIndex":17,"items":[{"name":"믿음열쇠","tel":"032-681-4514","addr":"경기도 부천시 여월동 6-28번지 1층","indutype":"기타 - 기계공구","category":"other"},{"name":"이불사랑","tel":"032-678-0045","addr":"경기도 부천시 여월동 6-28번지 1층","indutype":"직물 - 침구·수예점","category":"other"}]},{"lat":"37.515618726","long":"126.80352291","imageIndex":17,"items":[{"name":"베가다니엘 부천오정구","tel":"032-8648-4559","addr":"경기도 부천시 여월동 48-6번지 1층","indutype":"기타 - 기타 전문점","category":"other"},{"name":"한마음종합상사","tel":"032-675-7252","addr":"경기도 부천시 여월동 48-6번지","indutype":"전기제품 - 가전제품","category":"other"}]},{"lat":"37.508761202","long":"126.79768252","imageIndex":17,"items":[{"name":"별꽃세상","tel":"032-679-5222","addr":"경기도 부천시 여월동 158-10번지","indutype":"문화.취미 - 화원","category":"other"}]},{"lat":"37.520254971","long":"126.79604477","imageIndex":17,"items":[{"name":"보석장","tel":"032-671-0918","addr":"경기도 부천시 여월동 4-38번지","indutype":"신변잡화 - 시계","category":"other"}]},{"lat":"37.518699835","long":"126.79809646","imageIndex":17,"items":[{"name":"복구야! PC야!","tel":"","addr":"경기도 부천시 여월동 5-8번지 로얄빌라 401호","indutype":"수리서비스 - 사무·통신기기수리","category":"other"}]},{"lat":"37.514261938","long":"126.80040471","imageIndex":17,"items":[{"name":"부천오정경찰서","tel":"032-670-2225","addr":"경기도 부천시 여월동 304번지","indutype":"유통업 비영리 - 구내매점(국가기관","category":"other"}]},{"lat":"37.507594114","long":"126.80543301","imageIndex":17,"items":[{"name":"부천화훼농장","tel":"032-679-2100","addr":"경기도 부천시 여월동 242-2번지","indutype":"문화.취미 - 화원","category":"other"}]},{"lat":"37.519122395","long":"126.79757497","imageIndex":17,"items":[{"name":"브랜드 스포츠 상사","tel":"032-683-3760","addr":"경기도 부천시 여월동 5-20번지 4층 401호","indutype":"레져용품 - 스포츠·레져용품","category":"other"},{"name":"세븐일레븐부천여월점","tel":"","addr":"경기도 부천시 여월동 5-20번지 1014호","indutype":"유통업 영리 - 편 의 점","category":"other"}]},{"lat":"37.517592251","long":"126.79846145","imageIndex":17,"items":[{"name":"사진친구","tel":"032-678-4779","addr":"경기도 부천시 여월동 44-11번지 모던하우스 1층 101호","indutype":"광학제품 - 사진관","category":"other"}]},{"lat":"37.519010104","long":"126.79518852","imageIndex":17,"items":[{"name":"새한광학","tel":"032-678-5003","addr":"경기도 부천시 여월동 53번지 숲예찬","indutype":"신변잡화 - 시계","category":"other"}]},{"lat":"37.510398888","long":"126.79646783","imageIndex":17,"items":[{"name":"샘물화원","tel":"032-675-7122","addr":"경기도 부천시 여월동 91-4","indutype":"문화.취미 - 화원","category":"other"}]},{"lat":"37.516591466","long":"126.80332803","imageIndex":17,"items":[{"name":"성곡동주민자치위원회","tel":"032-679-2620","addr":"경기도 부천시 여월동 10-36번지","indutype":"문화.취미 - 문화취미기타","category":"other"}]},{"lat":"37.509319971","long":"126.79777147","imageIndex":17,"items":[{"name":"성주목공예","tel":"032-653-4151","addr":"경기도 부천시 여월동 95-3","indutype":"문화.취미 - 민예·공예품","category":"other"}]},{"lat":"37.51856076","long":"126.80104916","imageIndex":17,"items":[{"name":"세기유통","tel":"","addr":"경기도 부천시 여월동 7-118번지 대림아트빌라 302호","indutype":"유통업 영리 - 기타유통업","category":"other"}]},{"lat":"37.520840333","long":"126.79588478","imageIndex":17,"items":[{"name":"세양전자","tel":"032-679-8557","addr":"경기도 부천시 여월동 4-4번지","indutype":"기타 - 기계공구","category":"other"}]},{"lat":"37.518409251","long":"126.80202236","imageIndex":17,"items":[{"name":"소망열쇠","tel":"031-675-8200","addr":"경기도 부천시 여월동 8-10번지 다온펠리스빌 가동 1층 101호","indutype":"기타 - 기계공구","category":"other"}]},{"lat":"37.506730588","long":"126.79574279","imageIndex":17,"items":[{"name":"소사복층유리","tel":"032-671-2600","addr":"경기도 부천시 여월동 131-6번지","indutype":"건축자재 - 유리","category":"other"}]},{"lat":"37.516788917","long":"126.80287506","imageIndex":17,"items":[{"name":"송림전력","tel":"032-682-0627","addr":"경기도 부천시 여월동 10-35번지 1층","indutype":"기타 - 기계공구","category":"other"}]},{"lat":"37.519893645","long":"126.79551411","imageIndex":17,"items":[{"name":"스토리","tel":"070-8807-7411","addr":"경기도 부천시 여월동 52-13번지 1층","indutype":"신변잡화 - 기타잡화","category":"other"},{"name":"한빛텔레콤","tel":"032-671-4917","addr":"경기도 부천시 여월동 52-13번지 1층","indutype":"사무통신 - 통신기기","category":"other"}]},{"lat":"37.520534909","long":"126.79640597","imageIndex":17,"items":[{"name":"스페이스탄성","tel":"031-111-1111","addr":"경기도 부천시 여월동 4-44번지 한빛그랜드빌라 B01호","indutype":"용역 서비스 - 기타용역서비스","category":"other"}]},{"lat":"37.518817257","long":"126.79826581","imageIndex":17,"items":[{"name":"신아상사","tel":"032-672-4273","addr":"경기도 부천시 여월동 5-7번지 로얄골드빌라 101동 102호","indutype":"서적문구 - 완구점","category":"other"}]},{"lat":"37.516400515","long":"126.80229922","imageIndex":17,"items":[{"name":"신안타일","tel":"032-675-6758","addr":"경기도 부천시 여월동 10-17번지 1층","indutype":"건축자재 - 건축용 요업제품","category":"other"}]},{"lat":"37.511731214","long":"126.80102231","imageIndex":17,"items":[{"name":"실타래의꿈","tel":"032-678-2823","addr":"경기도 부천시 여월동 316번지 여월휴먼시아5단지아파트","indutype":"문화.취미 - 문화취미기타","category":"other"}]},{"lat":"37.517172895","long":"126.8008493","imageIndex":17,"items":[{"name":"썬-월드(Sun-World)","tel":"032-683-1801","addr":"경기도 부천시 여월동 9-8번지","indutype":"전기제품 - 가전제품","category":"other"}]},{"lat":"37.518837134","long":"126.79934036","imageIndex":17,"items":[{"name":"씨유여월라온점","tel":"032-662-3088","addr":"경기도 부천시 여월동 7-125번지 신원프린스 B동 101호","indutype":"유통업 영리 - 편 의 점","category":"other"}]},{"lat":"37.521093421","long":"126.79634788","imageIndex":17,"items":[{"name":"아트퀸 기능성 속옷","tel":"032-654-2589","addr":"경기도 부천시 여월동 4-18번지 한성빌라 202호","indutype":"의류 - 내의판매","category":"other"},{"name":"해마루","tel":"","addr":"경기도 부천시 여월동 4-18번지 한성빌라 103호","indutype":"건축자재 - 인테리어전문","category":"other"}]},{"lat":"37.518540218","long":"126.79957871","imageIndex":17,"items":[{"name":"엘리트 컴퓨터","tel":"070-4686-9412","addr":"경기도 부천시 여월동 7-85번지 우리빌딩 1층","indutype":"수리서비스 - 사무·통신기기수리","category":"other"}]},{"lat":"37.519283982","long":"126.79723517","imageIndex":17,"items":[{"name":"여성의류끌림","tel":"032-682-8293","addr":"경기도 부천시 여월동 5-2번지 1층 2호","indutype":"의류 - 정장","category":"other"}]},{"lat":"37.520147684","long":"126.79652016","imageIndex":17,"items":[{"name":"영남","tel":"032-683-3194","addr":"경기도 부천시 여월동 4-49번지","indutype":"회원제형태 - 레져업소","category":"other"}]},{"lat":"37.514617491","long":"126.79759862","imageIndex":17,"items":[{"name":"영림원","tel":"032-673-9835","addr":"경기도 부천시 여월동 74-4번지","indutype":"문화.취미 - 화원","category":"other"},{"name":"예림원","tel":"032-678-3882","addr":"경기도 부천시 여월동 74-4번지","indutype":"문화.취미 - 화원","category":"other"}]},{"lat":"37.518590086","long":"126.7971579","imageIndex":17,"items":[{"name":"영아트","tel":"032-676-9228","addr":"경기도 부천시 여월동 54-18번지 1층","indutype":"서적문구 - 문구용품","category":"other"}]},{"lat":"37.519954179","long":"126.79923552","imageIndex":17,"items":[{"name":"영화세탁소","tel":"032-674-5478","addr":"경기도 부천시 여월동 2-19번지","indutype":"수리서비스 - 세탁소","category":"other"}]},{"lat":"37.50639849","long":"126.79646753","imageIndex":17,"items":[{"name":"예은조경","tel":"032-677-7076","addr":"경기도 부천시 여월동 산37-3","indutype":"건축자재 - 인테리어전문","category":"other"}]},{"lat":"37.519677265","long":"126.80062762","imageIndex":17,"items":[{"name":"오띠모S라인","tel":"070-2358-5964","addr":"경기도 부천시 여월동 7-53번지 1층 2호","indutype":"의류 - 내의판매","category":"other"}]},{"lat":"37.518929312","long":"126.80055046","imageIndex":17,"items":[{"name":"온누리정보통신","tel":"032-678-1555","addr":"경기도 부천시 여월동 7-115번지에이원빌라다동지2","indutype":"사무통신 - 통신기기","category":"other"}]},{"lat":"37.517541214","long":"126.80021486","imageIndex":17,"items":[{"name":"원영int","tel":"032-324-1404","addr":"경기도 부천시 여월동 9-38번지 1층","indutype":"용역 서비스 - 기타용역서비스","category":"other"}]},{"lat":"37.520448822","long":"126.79871383","imageIndex":17,"items":[{"name":"월드스포츠","tel":"070-7556-3245","addr":"경기도 부천시 여월동 3-77번지","indutype":"의류 - 정장","category":"other"}]},{"lat":"37.521462052","long":"126.79590569","imageIndex":17,"items":[{"name":"은성냉열","tel":"032-681-0505","addr":"경기도 부천시 여월동 1-53 레스빌2-302","indutype":"용역 서비스 - 기타용역서비스","category":"other"}]},{"lat":"37.519762054","long":"126.79755059","imageIndex":17,"items":[{"name":"은성시스템","tel":"","addr":"경기도 부천시 여월동 6-41번지 초원빌라 1동 203호","indutype":"용역 서비스 - 기타용역서비스","category":"other"}]},{"lat":"37.516312294","long":"126.80340796","imageIndex":17,"items":[{"name":"인더라인","tel":"","addr":"경기도 부천시 여월동 10-37번지 1층","indutype":"유통업 영리 - 편 의 점","category":"other"}]},{"lat":"37.519228917","long":"126.79665843","imageIndex":17,"items":[{"name":"일광종합설비","tel":"032-679-7607","addr":"경기도 부천시 여월동 52-7번지 1층 1호","indutype":"용역 서비스 - 기타용역서비스","category":"other"}]},{"lat":"37.517262277","long":"126.80043053","imageIndex":17,"items":[{"name":"주식회사 에이큐엠","tel":"032-677-5559","addr":"경기도 부천시 여월동 9-30번지","indutype":"문화.취미 - 수족관","category":"other"}]},{"lat":"37.517956848","long":"126.80090374","imageIndex":17,"items":[{"name":"진양천막산업","tel":"032-676-5426","addr":"경기도 부천시 여월동 8-5번지","indutype":"직물 - 카페트,커튼,천막,지물","category":"other"}]},{"lat":"37.514924624","long":"126.80332116","imageIndex":17,"items":[{"name":"착하게 살자","tel":"02-1588-3366","addr":"경기도 부천시 여월동 48-19번지 중앙아트빌 401호","indutype":"용역 서비스 - 기타용역서비스","category":"other"}]},{"lat":"37.514924299","long":"126.80312888","imageIndex":17,"items":[{"name":"착한나무","tel":"032-205-8339","addr":"경기도 부천시 여월동 48-18번지","indutype":"용역 서비스 - 종합용역","category":"other"}]},{"lat":"37.519899788","long":"126.79904337","imageIndex":17,"items":[{"name":"체크포인트","tel":"032-678-9758","addr":"경기도 부천시 여월동 2-20번지","indutype":"의류 - 정장","category":"other"}]},{"lat":"37.520759581","long":"126.79607731","imageIndex":17,"items":[{"name":"최해련피부관리","tel":"032-679-7553","addr":"경기도 부천시 여월동 4-13번지 1층","indutype":"회원제형태 - 기타4","category":"other"}]},{"lat":"37.511037014","long":"126.80610257","imageIndex":17,"items":[{"name":"크린에코","tel":"070-7396-5947","addr":"경기도 부천시 여월동 332번지 1층 113호,114호","indutype":"수리서비스 - 세탁소","category":"other"}]},{"lat":"37.520174417","long":"126.79635041","imageIndex":17,"items":[{"name":"크린토피아부천여월점","tel":"032-678-0020","addr":"경기도 부천시 여월동 4-47번지 1층","indutype":"수리서비스 - 세탁소","category":"other"}]},{"lat":"37.519622391","long":"126.80015268","imageIndex":17,"items":[{"name":"탑포인트","tel":"032-671-3057","addr":"경기도 부천시 여월동 7-19번지 목화주택 1층 101호","indutype":"유통업 영리 - 편 의 점","category":"other"}]},{"lat":"37.521296099","long":"126.79891514","imageIndex":17,"items":[{"name":"태영건축설비","tel":"032-671-1816","addr":"경기도 부천시 여월동 1-37번지 금보빌라 다동 101호","indutype":"용역 서비스 - 기타용역서비스","category":"other"}]},{"lat":"37.51931862","long":"126.79643195","imageIndex":17,"items":[{"name":"태진공조","tel":"032-676-5371","addr":"경기도 부천시 여월동 52-2번지","indutype":"수리서비스 - 가정용품수리","category":"other"}]},{"lat":"37.516535759","long":"126.80235541","imageIndex":17,"items":[{"name":"포토키즈","tel":"031-1644-1030","addr":"경기도 부천시 여월동 10-16번지 1층","indutype":"광학제품 - 사진관","category":"other"}]},{"lat":"37.519893168","long":"126.79524263","imageIndex":17,"items":[{"name":"하늘하늘","tel":"032-202-8917","addr":"경기도 부천시 여월동 52번지 1층 일부","indutype":"의류 - 정장","category":"other"}]},{"lat":"37.519552678","long":"126.79631819","imageIndex":17,"items":[{"name":"한올한올","tel":"032-678-3688","addr":"경기도 부천시 여월동 52-33번지 엘지타운 7동 101호","indutype":"직물 - 침구·수예점","category":"other"}]},{"lat":"37.519699948","long":"126.79810504","imageIndex":17,"items":[{"name":"행복한도장","tel":"032-674-3566","addr":"경기도 부천시 여월동 6-21번지 미도빌라 1동 103호","indutype":"회원제형태 - 기타4","category":"other"}]},{"lat":"37.519707168","long":"126.79707565","imageIndex":17,"items":[{"name":"홍테크(Hong Tech)","tel":"032-679-2119","addr":"경기도 부천시 여월동 6-5번지 1층","indutype":"사무통신 - 컴퓨터","category":"other"}]},{"lat":"37.520032192","long":"126.79745936","imageIndex":17,"items":[{"name":"화랑인테리어","tel":"032-674-3224","addr":"경기도 부천시 여월동 3-22번지 1층 일부","indutype":"건축자재 - 인테리어전문","category":"other"}]}]