[{"lat":"37.277650211","long":"127.00695241","items":[{"name":"(유)인서라이프","tel":"031-253-6513","addr":"경기도 수원시 팔달구 고등동 42-97번지","category":"보건위생 - 의료용품"}]},{"lat":"37.269820345","long":"127.00380647","items":[{"name":"789휴대폰 할인마트","tel":"031-257-7890","addr":"경기도 수원시 팔달구 고등동 300-17번지 1층","category":"사무통신 - 통신기기"},{"name":"천하호프","tel":"","addr":"경기도 수원시 팔달구 고등동 300-17번지 3층","category":"일반휴게음식 - 주점"}]},{"lat":"37.274821003","long":"127.00636596","items":[{"name":"GS25고등오거리점","tel":"","addr":"경기도 수원시 팔달구 고등동 29-16번지","category":"유통업 영리 - 편 의 점"}]},{"lat":"37.270685245","long":"127.00750448","items":[{"name":"GS25매산로2가점","tel":"02-2006-2485","addr":"경기도 수원시 팔달구 고등동 74-33번지","category":"유통업 영리 - 편 의 점"},{"name":"샤브민","tel":"031-251-1258","addr":"경기도 수원시 팔달구 고등동 74-33번지 1층","category":"일반휴게음식 - 일반한식"}]},{"lat":"37.278875614","long":"127.00678334","items":[{"name":"GS25수원병무청점","tel":"02-2006-2485","addr":"경기도 수원시 팔달구 고등동 3-19번지","category":"유통업 영리 - 편 의 점"}]},{"lat":"37.273433457","long":"127.00473104","items":[{"name":"GS25수원종은점","tel":"","addr":"경기도 수원시 팔달구 고등동 55-24번지","category":"유통업 영리 - 편 의 점"},{"name":"이레미용실","tel":"031-255-4581","addr":"경기도 수원시 팔달구 고등동 55-24번지","category":"보건위생 - 미용원"}]},{"lat":"37.275406721","long":"127.00344573","items":[{"name":"GS25팔달고등점","tel":"","addr":"경기도 수원시 팔달구 고등동 51-15번지 1층","category":"유통업 영리 - 편 의 점"}]},{"lat":"37.273262276","long":"127.00302855","items":[{"name":"I샬롱","tel":"031-244-1230","addr":"경기도 수원시 팔달구 고등동 107-1번지 1층","category":"보건위생 - 미용원"}]},{"lat":"37.272712603","long":"127.00617419","items":[{"name":"SHINE AUTO PART(샤인오토파트)","tel":"031-248-0199","addr":"경기도 수원시 팔달구 고등동 67-5번지 1층 상가","category":"자동차정비 유지 - 자동차부품"},{"name":"더썬","tel":"070-8880-7934","addr":"경기도 수원시 팔달구 고등동 67-5번지","category":"음료식품 - 기타음료식품"},{"name":"신성공업사","tel":"031-247-6679","addr":"경기도 수원시 팔달구 고등동 67-5번지","category":"건축자재 - 보일러·펌프·샷시"}]},{"lat":"37.276740196","long":"127.00623074","items":[{"name":"SJ코스메틱","tel":"031-241-1665","addr":"경기도 수원시 팔달구 고등동 10-4번지 1층","category":"보건위생 - 화장품"}]},{"lat":"37.27348751","long":"127.00524969","items":[{"name":"SS모터스","tel":"031-252-2722","addr":"경기도 수원시 팔달구 고등동 37-7번지","category":"자동차정비 유지 - 자동차정비"}]},{"lat":"37.276677131","long":"127.00597141","items":[{"name":"STUNE","tel":"02-3280-7093","addr":"경기도 수원시 팔달구 고등동 10-5번지 1층","category":"회원제형태 - 기타3"}]},{"lat":"37.273100072","long":"127.00500163","items":[{"name":"TNHALLALFOODS","tel":"031-248-1090","addr":"경기도 수원시 팔달구 고등동 57-19번지 1호","category":"신변잡화 - 기타잡화"}]},{"lat":"37.274460602","long":"127.00600514","items":[{"name":"강뉴카페","tel":"031-293-0892","addr":"경기도 수원시 팔달구 고등동 45-14번지","category":"일반휴게음식 - 일반한식"},{"name":"혜빈이네슈퍼","tel":"02-6340-5359","addr":"경기도 수원시 팔달구 고등동 45-14번지","category":"유통업 영리 - 슈퍼마켓"}]},{"lat":"37.269928471","long":"127.00319765","items":[{"name":"강원도막국수","tel":"031-252-6677","addr":"경기도 수원시 팔달구 고등동 300-14번지","category":"일반휴게음식 - 일반한식"}]},{"lat":"37.278542262","long":"127.0057798","items":[{"name":"강원상사","tel":"031-245-2565","addr":"경기도 수원시 팔달구 고등동 5-1번지","category":"자동차정비 유지 - 중장비수리"}]},{"lat":"37.270901561","long":"127.00511431","items":[{"name":"경기광고","tel":"031-248-7887","addr":"경기도 수원시 팔달구 고등동 112-6번지","category":"용역 서비스 - 종합용역"}]},{"lat":"37.276713123","long":"127.0074823","items":[{"name":"경기교총웨딩하우스","tel":"031-256-0710","addr":"경기도 수원시 팔달구 고등동 42-98번지","category":"용역 서비스 - 혼례서비스"},{"name":"사단법인경기도교원단체총연합회","tel":"031-269-2985","addr":"경기도 수원시 팔달구 고등동 42-98번지","category":"기타 - 기타 전문점"}]},{"lat":"37.270766352","long":"127.00712116","items":[{"name":"경동냉난방서비스","tel":"031-238-4882","addr":"경기도 수원시 팔달구 고등동 74-17번지","category":"용역 서비스 - 기타용역서비스"}]},{"lat":"37.272180995","long":"127.00625309","items":[{"name":"경동유치원[아이행복]","tel":"031-244-7775","addr":"경기도 수원시 팔달구 고등동 69-12번지","category":"학원 - 유치원"}]},{"lat":"37.272153987","long":"127.00528347","items":[{"name":"계서칼국수","tel":"","addr":"경기도 수원시 팔달구 고등동 58-11번지 1층","category":"일반휴게음식 - 일반한식"}]},{"lat":"37.273289293","long":"127.00105546","items":[{"name":"고등동주민자치위원회","tel":"031-228-7852","addr":"경기도 수원시 팔달구 고등동 153-1번지","category":"문화.취미 - 문화취미기타"}]},{"lat":"37.273406439","long":"127.00236333","items":[{"name":"고등슈퍼","tel":"031-244-9711","addr":"경기도 수원시 팔달구 고등동 147-4번지","category":"유통업 영리 - 슈퍼마켓"},{"name":"동네약국","tel":"031-255-7105","addr":"경기도 수원시 팔달구 고등동 147-4번지","category":"약국 - 약국"}]},{"lat":"37.271460214","long":"127.00175452","items":[{"name":"고등충남정육점","tel":"031-256-5040","addr":"경기도 수원시 팔달구 고등동 239-8번지","category":"음료식품 - 정육점"}]},{"lat":"37.270207775","long":"127.00478734","items":[{"name":"고향양꼬치","tel":"031-256-6668","addr":"경기도 수원시 팔달구 고등동 86-2번지 1층","category":"일반휴게음식 - 일반한식"},{"name":"등비룡탕절대부","tel":"070-111-1111","addr":"경기도 수원시 팔달구 고등동 86-2번지 1층","category":"일반휴게음식 - 중국식"},{"name":"본호프","tel":"031-244-6444","addr":"경기도 수원시 팔달구 고등동 86-2번지 2층","category":"일반휴게음식 - 주점"},{"name":"석류커피숍","tel":"031-252-8982","addr":"경기도 수원시 팔달구 고등동 86-2번지","category":"일반휴게음식 - 서양음식"}]},{"lat":"37.271406155","long":"127.00203638","items":[{"name":"고향집밥","tel":"031-207-4909","addr":"경기도 수원시 팔달구 고등동 240-4번지 102호","category":"일반휴게음식 - 일반한식"}]},{"lat":"37.270622245","long":"127.00080748","items":[{"name":"골드타워모텔","tel":"031-225-8416","addr":"경기도 수원시 팔달구 고등동 232-3번지","category":"숙박업 - 여관/기타숙박업"},{"name":"골드타워장","tel":"031-255-8416","addr":"경기도 수원시 팔달구 고등동 232-3번지","category":"숙박업 - 여관/기타숙박업"}]},{"lat":"37.276073428","long":"127.00647877","items":[{"name":"과천전자","tel":"031-247-9880","addr":"경기도 수원시 팔달구 고등동 13-6번지 과천전자","category":"건축자재 - 조명기구"}]},{"lat":"37.271820609","long":"127.00517071","items":[{"name":"관인으뜸웅변학원","tel":"031-246-1734","addr":"경기도 수원시 팔달구 고등동 58-23번지","category":"회원제형태 - 학원"},{"name":"옛추억","tel":"031-8766-3643","addr":"경기도 수원시 팔달구 고등동 58-23번지 지층","category":"일반휴게음식 - 일반한식"}]},{"lat":"37.269901412","long":"127.00550889","items":[{"name":"광고기획 태산","tel":"031-248-4520","addr":"경기도 수원시 팔달구 고등동 85-12번지","category":"건축자재 - 인테리어전문"},{"name":"상신공업사","tel":"031-000-0000","addr":"경기도 수원시 팔달구 고등동 85-12번지","category":"건축자재 - 목재·석재·철물"}]},{"lat":"37.272955894","long":"127.00566684","items":[{"name":"광덕떡방앗간","tel":"031-253-9247","addr":"경기도 수원시 팔달구 고등동 57-14번지","category":"음료식품 - 제과점"}]},{"lat":"37.273568597","long":"127.00547519","items":[{"name":"광명전자","tel":"031-251-6885","addr":"경기도 수원시 팔달구 고등동 37-11번지","category":"수리서비스 - 가정용품수리"},{"name":"만물자동차용품점","tel":"031-247-5551","addr":"경기도 수원시 팔달구 고등동 37-11번지","category":"자동차정비 유지 - 카인테리어"}]},{"lat":"37.273045977","long":"127.00642225","items":[{"name":"구락칡냉면","tel":"031-247-5422","addr":"경기도 수원시 팔달구 고등동 70-15번지 1층","category":"일반휴게음식 - 일반한식"},{"name":"쑈홍오리목점","tel":"","addr":"경기도 수원시 팔달구 고등동 70-15번지","category":"일반휴게음식 - 일반한식"},{"name":"오거리슈퍼","tel":"031-255-7754","addr":"경기도 수원시 팔달구 고등동 70-15번지 1층","category":"유통업 영리 - 슈퍼마켓"}]},{"lat":"37.270595182","long":"127.00634322","items":[{"name":"궁","tel":"","addr":"경기도 수원시 팔달구 고등동 80-13번지 B02호","category":"보건위생 - 화장품"}]},{"lat":"37.270658221","long":"127.00733537","items":[{"name":"귀빈","tel":"031-255-4556","addr":"경기도 수원시 팔달구 고등동 74-16번지 2층","category":"레저업소 - 노 래 방"},{"name":"형제반점","tel":"031-241-1071","addr":"경기도 수원시 팔달구 고등동 74-16번지","category":"일반휴게음식 - 중국식"}]},{"lat":"37.269874397","long":"127.00461822","items":[{"name":"그랜드커피숍","tel":"031-241-5854","addr":"경기도 수원시 팔달구 고등동 86-3번지 지하층","category":"일반휴게음식 - 서양음식"},{"name":"소천아샤브샤브","tel":"031-254-1003","addr":"경기도 수원시 팔달구 고등동 86-3번지 1층 101호","category":"일반휴게음식 - 중국식"},{"name":"송화강반점","tel":"031-257-5685","addr":"경기도 수원시 팔달구 고등동 86-3번지 104호","category":"일반휴게음식 - 중국식"},{"name":"싱크퓨어 화성동탄대리점","tel":"031-291-3666","addr":"경기도 수원시 팔달구 고등동 86-3번지 4층 514호","category":"회원제형태 - 기타3"},{"name":"이명호법무사사무소","tel":"031-244-5700","addr":"경기도 수원시 팔달구 고등동 86-3번지 310호","category":"용역 서비스 - 법률회계서비스(개인)"},{"name":"주식회사 골드스탁","tel":"031-244-5945","addr":"경기도 수원시 팔달구 고등동 86-3번지 4층 506호","category":"건축자재 - 기타건축자재"},{"name":"천궁노래뮤비방","tel":"031-253-2190","addr":"경기도 수원시 팔달구 고등동 86-3번지 지하층 101호","category":"레저업소 - 노 래 방"}]},{"lat":"37.269541018","long":"127.00452801","items":[{"name":"금백만","tel":"031-241-8156","addr":"경기도 수원시 팔달구 고등동 86-4번지 장영빌딩 105,106,202호","category":"일반휴게음식 - 일반한식"},{"name":"까페파우제","tel":"031-247-4300","addr":"경기도 수원시 팔달구 고등동 86-4번지 장영빌딩 1층","category":"일반휴게음식 - 서양음식"},{"name":"오성노래연습장","tel":"031-254-3113","addr":"경기도 수원시 팔달구 고등동 86-4번지 장영빌딩 3층","category":"레저업소 - 노 래 방"},{"name":"코스모","tel":"031-256-1230","addr":"경기도 수원시 팔달구 고등동 86-4번지 지하층","category":"일반휴게음식 - 일반한식"}]},{"lat":"37.271045725","long":"127.00517069","items":[{"name":"금백만면식점","tel":"031-248-7703","addr":"경기도 수원시 팔달구 고등동 112-3번지 1층 3호","category":"일반휴게음식 - 일반한식"},{"name":"금해여행사","tel":"031-245-8088","addr":"경기도 수원시 팔달구 고등동 112-3번지 1층 5호","category":"여행 - 관광여행"},{"name":"해바라기 커피숍","tel":"","addr":"경기도 수원시 팔달구 고등동 112-3번지 태정빌딩","category":"일반휴게음식 - 서양음식"},{"name":"허흑오리수원2호점","tel":"031-255-5585","addr":"경기도 수원시 팔달구 고등동 112-3번지 1층 106호","category":"일반휴게음식 - 중국식"}]},{"lat":"37.27223507","long":"127.00572318","items":[{"name":"금백만민속촌","tel":"031-241-8156","addr":"경기도 수원시 팔달구 고등동 67-12번지 1층","category":"일반휴게음식 - 일반한식"},{"name":"표향원양꼬치","tel":"031-246-6988","addr":"경기도 수원시 팔달구 고등동 67-12번지","category":"일반휴게음식 - 중국식"}]},{"lat":"37.272568481","long":"127.00203637","items":[{"name":"금성고등대리점","tel":"031-256-7800","addr":"경기도 수원시 팔달구 고등동 221-4번지","category":"전기제품 - 가전제품"}]},{"lat":"37.273928998","long":"127.0059262","items":[{"name":"금화정육점","tel":"031-258-1823","addr":"경기도 수원시 팔달구 고등동 45-24번지","category":"음료식품 - 정육점"}]},{"lat":"37.273460495","long":"127.00422368","items":[{"name":"기가모터스","tel":"031-246-2467","addr":"경기도 수원시 팔달구 고등동 55-7번지","category":"자동차정비 유지 - 세차장"}]},{"lat":"37.27276668","long":"127.00556536","items":[{"name":"기능사종합카센타","tel":"031-246-8894","addr":"경기도 수원시 팔달구 고등동 58-1번지","category":"자동차정비 유지 - 카인테리어"}]},{"lat":"37.278407133","long":"127.00444928","items":[{"name":"기쁨어린이집","tel":"031-244-7293","addr":"경기도 수원시 팔달구 고등동 6-6번지","category":"학원 - 유아원"},{"name":"기쁨어린이집[아이행복]","tel":"031-244-7293","addr":"경기도 수원시 팔달구 고등동 6-6번지","category":"학원 - 유아원"}]},{"lat":"37.271379102","long":"127.00533982","items":[{"name":"기쁨장식","tel":"031-254-5437","addr":"경기도 수원시 팔달구 고등동 66-13번지","category":"직물 - 카페트,커튼,천막,지물"}]},{"lat":"37.273541558","long":"127.00583598","items":[{"name":"길상중국식품","tel":"","addr":"경기도 수원시 팔달구 고등동 37-14번지","category":"음료식품 - 기타음료식품"},{"name":"꿀꿀양소주군","tel":"031-254-2686","addr":"경기도 수원시 팔달구 고등동 37-14번지","category":"일반휴게음식 - 일반한식"},{"name":"진헤어","tel":"031-255-5337","addr":"경기도 수원시 팔달구 고등동 37-14번지","category":"보건위생 - 미용원"}]},{"lat":"37.270378965","long":"127.0006722","items":[{"name":"김남희헤어","tel":"031-255-0660","addr":"경기도 수원시 팔달구 고등동 263-1번지","category":"보건위생 - 미용원"},{"name":"란","tel":"031-241-3577","addr":"경기도 수원시 팔달구 고등동 263-1번지","category":"일반휴게음식 - 서양음식"},{"name":"연길외할머니초두부","tel":"031-257-2684","addr":"경기도 수원시 팔달구 고등동 263-1번지 1층","category":"일반휴게음식 - 일반한식"},{"name":"토마토모텔","tel":"031-247-8893","addr":"경기도 수원시 팔달구 고등동 263-1번지","category":"숙박업 - 여관/기타숙박업"}]},{"lat":"37.278542288","long":"127.00442673","items":[{"name":"김성준정비공업사","tel":"031-252-3869","addr":"경기도 수원시 팔달구 고등동 6-1번지","category":"자동차정비 유지 - 자동차정비"}]},{"lat":"37.273262276","long":"127.00270158","items":[{"name":"김은희진로&심리상담연구소","tel":"031-245-7222","addr":"경기도 수원시 팔달구 고등동 107-9번지","category":"보건위생 - 기타대인서비스"}]},{"lat":"37.272928728","long":"127.00919583","items":[{"name":"김진옥 아구찜","tel":"","addr":"경기도 수원시 팔달구 고등동 61-137번지","category":"일반휴게음식 - 일반한식"}]},{"lat":"37.273181163","long":"127.00509183","items":[{"name":"깔끔이환경","tel":"031-247-7282","addr":"경기도 수원시 팔달구 고등동 57-8번지 102호","category":"용역 서비스 - 종합용역"},{"name":"낙원모터스","tel":"031-893-2677","addr":"경기도 수원시 팔달구 고등동 57-8번지","category":"자동차정비 유지 - 자동차정비"},{"name":"상미헤어","tel":"","addr":"경기도 수원시 팔달구 고등동 57-8번지 1층 103호","category":"보건위생 - 미용원"}]},{"lat":"37.270739384","long":"127.00464078","items":[{"name":"나나호프","tel":"031-244-8260","addr":"경기도 수원시 팔달구 고등동 113-19번지 2층","category":"일반휴게음식 - 주점"},{"name":"소매점양꼬치","tel":"031-242-5792","addr":"경기도 수원시 팔달구 고등동 113-19번지 1층","category":"일반휴게음식 - 중국식"},{"name":"연변노래연습장","tel":"031-247-9093","addr":"경기도 수원시 팔달구 고등동 113-19번지 지층","category":"레저업소 - 노 래 방"}]},{"lat":"37.276208591","long":"127.00617434","items":[{"name":"나누는뜨락","tel":"031-246-8822","addr":"경기도 수원시 팔달구 고등동 47-32번지 나누는 뜨락","category":"일반휴게음식 - 일반한식"}]},{"lat":"37.269685174","long":"127.00505791","items":[{"name":"남양다방","tel":"031-246-1567","addr":"경기도 수원시 팔달구 고등동 85-11번지 지하1층","category":"일반휴게음식 - 서양음식"},{"name":"남양할인마트","tel":"031-252-4498","addr":"경기도 수원시 팔달구 고등동 85-11번지","category":"유통업 영리 - 슈퍼마켓"},{"name":"미니스톱수원고등점","tel":"031-426-3992","addr":"경기도 수원시 팔달구 고등동 85-11번지","category":"유통업 영리 - 편 의 점"}]},{"lat":"37.271352079","long":"127.00494521","items":[{"name":"냄새박사장수트램","tel":"031-1661-2835","addr":"경기도 수원시 팔달구 고등동 64-5번지","category":"용역 서비스 - 종합용역"},{"name":"수노래연습장","tel":"031-252-3474","addr":"경기도 수원시 팔달구 고등동 64-5번지 지하1층","category":"레저업소 - 노 래 방"},{"name":"씨유수원수정점","tel":"031-258-9112","addr":"경기도 수원시 팔달구 고등동 64-5번지 1층","category":"유통업 영리 - 편 의 점"},{"name":"인연커피숍","tel":"031-226-6261","addr":"경기도 수원시 팔달구 고등동 64-5번지 지하1층","category":"일반휴게음식 - 일반한식"}]},{"lat":"37.278235905","long":"127.00608423","items":[{"name":"냠냠,마카롱","tel":"","addr":"경기도 수원시 팔달구 고등동 4-7번지","category":"음료식품 - 기타음료식품"}]},{"lat":"37.278344068","long":"127.00380657","items":[{"name":"네꼬야커피숍","tel":"031-241-2539","addr":"경기도 수원시 팔달구 고등동 6-3번지 1층","category":"일반휴게음식 - 서양음식"},{"name":"매일공인중개사사무소","tel":"031-245-3369","addr":"경기도 수원시 팔달구 고등동 6-3번지 1층","category":"용역 서비스 - 부동산 중개·임대"},{"name":"양평해장국","tel":"031-244-2287","addr":"경기도 수원시 팔달구 고등동 6-3번지 1층","category":"일반휴게음식 - 일반한식"}]},{"lat":"37.276460869","long":"127.00653516","items":[{"name":"노랑머리","tel":"031-252-6050","addr":"경기도 수원시 팔달구 고등동 13-8번지","category":"보건위생 - 미용원"},{"name":"디지털종합전자마트","tel":"031-245-5002","addr":"경기도 수원시 팔달구 고등동 13-8번지","category":"전기제품 - 가전제품"},{"name":"선진광고","tel":"031-252-8775","addr":"경기도 수원시 팔달구 고등동 13-8번지","category":"건축자재 - 인테리어전문"}]},{"lat":"37.272712597","long":"126.99936426","items":[{"name":"노은함바","tel":"031-244-1489","addr":"경기도 수원시 팔달구 고등동 215-5번지,외1필지,1층","category":"일반휴게음식 - 일반한식"}]},{"lat":"37.27054109","long":"127.00727899","items":[{"name":"놀이터순대국","tel":"031-245-1135","addr":"경기도 수원시 팔달구 고등동 74-25번지","category":"일반휴게음식 - 일반한식"},{"name":"오즈","tel":"","addr":"경기도 수원시 팔달구 고등동 74-25번지 1층","category":"일반휴게음식 - 서양음식"}]},{"lat":"37.273379407","long":"127.00375013","items":[{"name":"뉴베스트편의점마트","tel":"031-298-3314","addr":"경기도 수원시 팔달구 고등동 55-29번지 1층","category":"유통업 영리 - 슈퍼마켓"}]},{"lat":"37.27035195","long":"127.00183346","items":[{"name":"능이삼계탕","tel":"031-242-3541","addr":"경기도 수원시 팔달구 고등동 303-12번지 2층","category":"일반휴게음식 - 일반한식"}]},{"lat":"37.272352183","long":"127.00650114","items":[{"name":"다래원","tel":"031-241-3122","addr":"경기도 수원시 팔달구 고등동 69-5번지","category":"일반휴게음식 - 중국식"}]},{"lat":"37.269739233","long":"127.00522702","items":[{"name":"다래호프","tel":"031-242-2766","addr":"경기도 수원시 팔달구 고등동 85-8번지 지하1층","category":"일반휴게음식 - 일반한식"},{"name":"미친양꼬치","tel":"070-8285-3456","addr":"경기도 수원시 팔달구 고등동 85-8번지 1층","category":"일반휴게음식 - 일반한식"},{"name":"촉도대하","tel":"070-1111-2222","addr":"경기도 수원시 팔달구 고등동 85-8번지 2층","category":"일반휴게음식 - 중국식"}]},{"lat":"37.272072847","long":"127.00703103","items":[{"name":"다인","tel":"031-246-5173","addr":"경기도 수원시 팔달구 고등동 63-8번지","category":"일반휴게음식 - 일반한식"},{"name":"전원화원","tel":"031-247-2822","addr":"경기도 수원시 팔달구 고등동 63-8번지","category":"문화.취미 - 화원"}]},{"lat":"37.272289096","long":"127.00695212","items":[{"name":"단골포차","tel":"031-246-7901","addr":"경기도 수원시 팔달구 고등동 63-13번지","category":"일반휴게음식 - 주점"}]},{"lat":"37.274875074","long":"127.00602771","items":[{"name":"담뱃잎가게아가씨","tel":"","addr":"경기도 수원시 팔달구 고등동 46-14번지","category":"음료식품 - 기타음료식품"}]},{"lat":"37.277902507","long":"127.00670436","items":[{"name":"대륙정보통신","tel":"031-245-0965","addr":"경기도 수원시 팔달구 고등동 3-6번지 1층","category":"사무통신 - 통신기기"}]},{"lat":"37.270207783","long":"127.00156288","items":[{"name":"대박","tel":"031-3020-1164","addr":"경기도 수원시 팔달구 고등동 300번지 1층 5호","category":"일반휴게음식 - 일반한식"},{"name":"디엔디 여행사","tel":"070-4175-4522","addr":"경기도 수원시 팔달구 고등동 300번지 1층 3호","category":"여행 - 관광여행"},{"name":"영양영다방","tel":"031-244-5230","addr":"경기도 수원시 팔달구 고등동 300번지","category":"일반휴게음식 - 서양음식"}]},{"lat":"37.271261969","long":"127.00528344","items":[{"name":"대흥","tel":"031-241-6689","addr":"경기도 수원시 팔달구 고등동 66-14번지 1층","category":"일반휴게음식 - 일반한식"},{"name":"리치","tel":"031-243-5660","addr":"경기도 수원시 팔달구 고등동 66-14번지","category":"일반휴게음식 - 서양음식"},{"name":"목단강소고기국밥","tel":"031-256-8806","addr":"경기도 수원시 팔달구 고등동 66-14번지","category":"일반휴게음식 - 일반한식"},{"name":"세탁마을","tel":"031-255-5531","addr":"경기도 수원시 팔달구 고등동 66-14번지","category":"수리서비스 - 세탁소"},{"name":"싱싱마트","tel":"031-241-5533","addr":"경기도 수원시 팔달구 고등동 66-14번지","category":"유통업 영리 - 슈퍼마켓"},{"name":"제민약국","tel":"031-256-6787","addr":"경기도 수원시 팔달구 고등동 66-14번지","category":"약국 - 약국"}]},{"lat":"37.273289307","long":"127.00289325","items":[{"name":"대흥반점","tel":"031-245-6963","addr":"경기도 수원시 팔달구 고등동 107-8번지 1층","category":"일반휴게음식 - 중국식"},{"name":"희래","tel":"031-246-6338","addr":"경기도 수원시 팔달구 고등동 107-8번지","category":"일반휴게음식 - 주점"}]},{"lat":"37.270261843","long":"127.00437019","items":[{"name":"더(The)맛쪽갈비","tel":"031-255-0369","addr":"경기도 수원시 팔달구 고등동 115-3번지","category":"일반휴게음식 - 일반한식"},{"name":"먹고보자","tel":"031-258-9968","addr":"경기도 수원시 팔달구 고등동 115-3번지 1층","category":"일반휴게음식 - 일반한식"}]},{"lat":"37.275848226","long":"127.0031413","items":[{"name":"더벨르 (THE-BELLE)","tel":"","addr":"경기도 수원시 팔달구 고등동 167-62번지","category":"보건위생 - 피부미용실"},{"name":"수원마더","tel":"031-247-1473","addr":"경기도 수원시 팔달구 고등동 167-62번지","category":"일반휴게음식 - 일반한식"},{"name":"신전떡볶이수원여고점","tel":"031-271-9284","addr":"경기도 수원시 팔달구 고등동 167-62번지 1층","category":"일반휴게음식 - 일반한식"}]},{"lat":"37.271487239","long":"127.00456188","items":[{"name":"더블루","tel":"070-8235-7453","addr":"경기도 수원시 팔달구 고등동 64-18번지","category":"전기제품 - 기타전기제품"},{"name":"희망공업사","tel":"031-257-5064","addr":"경기도 수원시 팔달구 고등동 64-18번지 1층","category":"건축자재 - 인테리어전문"}]},{"lat":"37.278073761","long":"127.00372764","items":[{"name":"더앤덤","tel":"031-248-3393","addr":"경기도 수원시 팔달구 고등동 7-2번지 1층","category":"일반휴게음식 - 일반한식"},{"name":"명가","tel":"031-252-0990","addr":"경기도 수원시 팔달구 고등동 7-2번지 2층","category":"일반휴게음식 - 일반한식"}]},{"lat":"37.275902258","long":"127.00553164","items":[{"name":"더케이쇼핑(The K shopping)","tel":"031-256-4638","addr":"경기도 수원시 팔달구 고등동 48-2번지 101호","category":"음료식품 - 농·축·수산품"},{"name":"더케이쇼핑(The k shopping)","tel":"031-1800-6863","addr":"경기도 수원시 팔달구 고등동 48-2번지 101호","category":"음료식품 - 농·축·수산품"}]},{"lat":"37.272649575","long":"127.00228441","items":[{"name":"덕산ENG","tel":"031-8262-5006","addr":"경기도 수원시 팔달구 고등동 104-3번지 1층","category":"용역 서비스 - 기타용역서비스"}]},{"lat":"37.273541529","long":"127.00683944","items":[{"name":"도담터","tel":"031-225-2300","addr":"경기도 수원시 팔달구 고등동 36-17번지","category":"건축자재 - 인테리어전문"}]},{"lat":"37.272820725","long":"127.00623057","items":[{"name":"도문강 양고기 뀀점","tel":"031-258-8819","addr":"경기도 수원시 팔달구 고등동 67-4번지 1층","category":"일반휴게음식 - 중국식"},{"name":"아이티리페어","tel":"070-8289-8253","addr":"경기도 수원시 팔달구 고등동 67-4번지 1층","category":"수리서비스 - 사무·통신기기수리"}]},{"lat":"37.273902005","long":"127.00253245","items":[{"name":"동남내과","tel":"031-257-5898","addr":"경기도 수원시 팔달구 고등동 145-1번지 2층","category":"의원 - 의원"}]},{"lat":"37.27762324","long":"127.00139361","items":[{"name":"동남축산","tel":"031-1111-1111","addr":"경기도 수원시 팔달구 고등동 178-18번지","category":"음료식품 - 정육점"}]},{"lat":"37.273487521","long":"127.00458447","items":[{"name":"동북가마솥","tel":"031-302-7558","addr":"경기도 수원시 팔달구 고등동 55-10번지 1층","category":"일반휴게음식 - 중국식"}]},{"lat":"37.271379053","long":"127.00708737","items":[{"name":"동풍낚시용품매점 (수원점)","tel":"","addr":"경기도 수원시 팔달구 고등동 74-3번지 1층","category":"레져용품 - 스포츠·레져용품"}]},{"lat":"37.269991509","long":"127.00575692","items":[{"name":"동해포차","tel":"031-241-2942","addr":"경기도 수원시 팔달구 고등동 81-4번지","category":"일반휴게음식 - 주점"}]},{"lat":"37.275073332","long":"127.00447176","items":[{"name":"디셈","tel":"031-486-9005","addr":"경기도 수원시 팔달구 고등동 52-1번지 1층 102호","category":"용역 서비스 - 종합용역"},{"name":"디셈","tel":"02-1599-5137","addr":"경기도 수원시 팔달구 고등동 52-1번지 1층 102호","category":"용역 서비스 - 종합용역"}]},{"lat":"37.271099806","long":"127.00209276","items":[{"name":"디앤디한중문화교류원","tel":"070-4117-4522","addr":"경기도 수원시 팔달구 고등동 240-10번지","category":"여행 - 관광여행"}]},{"lat":"37.274649827","long":"127.00564435","items":[{"name":"디자인스케치","tel":"031-618-7226","addr":"경기도 수원시 팔달구 고등동 45-18번지 지층","category":"건축자재 - 인테리어전문"},{"name":"한샘할인마트","tel":"031-204-3357","addr":"경기도 수원시 팔달구 고등동 45-18번지","category":"유통업 영리 - 슈퍼마켓"}]},{"lat":"37.271874686","long":"127.0015854","items":[{"name":"디자인올다","tel":"02-717-9907","addr":"경기도 수원시 팔달구 고등동 224-5번지 1층 외곽","category":"용역 서비스 - 사무서비스"}]},{"lat":"37.274794022","long":"127.00355847","items":[{"name":"딩동댕어린이집[아이행복]","tel":"031-254-4485","addr":"경기도 수원시 팔달구 고등동 52-3번지","category":"학원 - 유아원"}]},{"lat":"37.273568624","long":"127.00347954","items":[{"name":"똘이국밥수원역점","tel":"031-241-3680","addr":"경기도 수원시 팔달구 고등동 125-6번지 103호","category":"일반휴게음식 - 일반한식"}]},{"lat":"37.270126697","long":"127.00234081","items":[{"name":"락품숯불고기","tel":"031-252-3474","addr":"경기도 수원시 팔달구 고등동 300-6번지 1층","category":"일반휴게음식 - 일반한식"},{"name":"체크인모텔","tel":"031-245-2522","addr":"경기도 수원시 팔달구 고등동 300-6번지","category":"숙박업 - 여관/기타숙박업"},{"name":"퇴근길","tel":"031-241-3080","addr":"경기도 수원시 팔달구 고등동 300-6번지","category":"일반휴게음식 - 주점"}]},{"lat":"37.27026185","long":"127.00227316","items":[{"name":"레지던스큐","tel":"031-245-9505","addr":"경기도 수원시 팔달구 고등동 303-5번지","category":"학원 - 독서실"}]},{"lat":"37.275794135","long":"127.00553164","items":[{"name":"로사컴퍼니","tel":"070-7490-3935","addr":"경기도 수원시 팔달구 고등동 48-15번지","category":"보건위생 - 화장품"}]},{"lat":"37.27226211","long":"127.00533985","items":[{"name":"루이식품점","tel":"031-256-0388","addr":"경기도 수원시 팔달구 고등동 58-10번지","category":"음료식품 - 기타음료식품"}]},{"lat":"37.271072763","long":"127.00105551","items":[{"name":"립메이드","tel":"031-308-6888","addr":"경기도 수원시 팔달구 고등동 235-2번지 101호","category":"음료식품 - 기타음료식품"},{"name":"목공방수리수리다수리","tel":"031-243-7243","addr":"경기도 수원시 팔달구 고등동 235-2번지 1층","category":"가구 - 일반가구"}]},{"lat":"37.270018574","long":"127.00283688","items":[{"name":"마라유혹","tel":"031-248-5588","addr":"경기도 수원시 팔달구 고등동 300-11번지 1층","category":"일반휴게음식 - 중국식"},{"name":"선화장여관","tel":"031-256-6777","addr":"경기도 수원시 팔달구 고등동 300-11번지 3층 2호","category":"숙박업 - 여관/기타숙박업"}]},{"lat":"37.278614328","long":"127.00639996","items":[{"name":"마이영헤어","tel":"031-207-7779","addr":"경기도 수원시 팔달구 고등동 4-1번지 가온빌 B동 1층","category":"보건위생 - 미용원"}]},{"lat":"37.270685331","long":"127.00186728","items":[{"name":"마이유 포토죤","tel":"031-232-5737","addr":"경기도 수원시 팔달구 고등동 241-6번지","category":"광학제품 - 사진관"},{"name":"미진식당","tel":"031-254-7478","addr":"경기도 수원시 팔달구 고등동 241-6번지","category":"일반휴게음식 - 일반한식"}]},{"lat":"37.272154012","long":"127.00292707","items":[{"name":"맘 삭스","tel":"031-1111-1111","addr":"경기도 수원시 팔달구 고등동 97-35번지","category":"신변잡화 - 기타잡화"}]},{"lat":"37.274820962","long":"127.00756111","items":[{"name":"매산철물","tel":"031-256-9210","addr":"경기도 수원시 팔달구 고등동 16-20번지 그린캐슬 504호","category":"건축자재 - 목재·석재·철물"}]},{"lat":"37.272487364","long":"127.0054526","items":[{"name":"명문식당","tel":"070-4024-3188","addr":"경기도 수원시 팔달구 고등동 58-7번지","category":"일반휴게음식 - 중국식"},{"name":"무지개호프","tel":"031-233-2011","addr":"경기도 수원시 팔달구 고등동 58-7번지 지층","category":"일반휴게음식 - 주점"}]},{"lat":"37.277343872","long":"127.00664796","items":[{"name":"명문정","tel":"031-258-1753","addr":"경기도 수원시 팔달구 고등동 3-34번지","category":"일반휴게음식 - 일반한식"}]},{"lat":"37.274433612","long":"127.00272412","items":[{"name":"모터케이드","tel":"031-251-5179","addr":"경기도 수원시 팔달구 고등동 143-1번지 1층","category":"자동차정비 유지 - 자동차정비"},{"name":"운트라모터스","tel":"070-8702-7774","addr":"경기도 수원시 팔달구 고등동 143-1번지","category":"자동차정비 유지 - 자동차부품"},{"name":"인알토디자인","tel":"070-7749-4415","addr":"경기도 수원시 팔달구 고등동 143-1번지 서현빌딩 2층 2호","category":"서적문구 - 출판 및 인쇄물"},{"name":"젠틀코스메틱","tel":"","addr":"경기도 수원시 팔달구 고등동 143-1번지 서현빌딩 2층 2호","category":"보건위생 - 미용재료"},{"name":"카페24창업센터 수원점","tel":"031-214-7777","addr":"경기도 수원시 팔달구 고등동 143-1번지","category":"회원제형태 - 사무서비스"}]},{"lat":"37.269991543","long":"127.00266776","items":[{"name":"모텔러브","tel":"031-258-9968","addr":"경기도 수원시 팔달구 고등동 300-10번지","category":"숙박업 - 여관/기타숙박업"},{"name":"심양불고기","tel":"031-242-5436","addr":"경기도 수원시 팔달구 고등동 300-10번지 1층","category":"일반휴게음식 - 일반한식"},{"name":"향수커피숍","tel":"031-242-6888","addr":"경기도 수원시 팔달구 고등동 300-10번지","category":"일반휴게음식 - 서양음식"}]},{"lat":"37.273956065","long":"127.00367122","items":[{"name":"무림건축","tel":"031-254-7200","addr":"경기도 수원시 팔달구 고등동 54-6 1층우측","category":"용역 서비스 - 기타용역서비스"}]},{"lat":"37.271685449","long":"127.00547512","items":[{"name":"문용식당","tel":"","addr":"경기도 수원시 팔달구 고등동 66-4번지 104,105호","category":"일반휴게음식 - 중국식"},{"name":"삼성하우스","tel":"033-761-0409","addr":"경기도 수원시 팔달구 고등동 66-4번지","category":"건축자재 - 인테리어전문"},{"name":"참새네","tel":"031-243-2128","addr":"경기도 수원시 팔달구 고등동 66-4번지","category":"일반휴게음식 - 일반한식"},{"name":"티제이디(TJD)튀김","tel":"","addr":"경기도 수원시 팔달구 고등동 66-4번지 1층","category":"일반휴게음식 - 일반한식"},{"name":"흠향원","tel":"","addr":"경기도 수원시 팔달구 고등동 66-4번지","category":"일반휴게음식 - 일반한식"}]},{"lat":"37.271180895","long":"127.0040658","items":[{"name":"미건","tel":"031-242-5283","addr":"경기도 수원시 팔달구 고등동 113-11번지","category":"회원제형태 - 기타4"}]},{"lat":"37.270847507","long":"127.00469716","items":[{"name":"미향","tel":"031-258-2190","addr":"경기도 수원시 팔달구 고등동 113-20번지","category":"일반휴게음식 - 중국식"},{"name":"홍천오리집","tel":"031-248-7670","addr":"경기도 수원시 팔달구 고등동 113-20번지","category":"일반휴게음식 - 일반한식"}]},{"lat":"37.274343508","long":"127.00355847","items":[{"name":"백가네","tel":"","addr":"경기도 수원시 팔달구 고등동 53-5번지","category":"유통업 영리 - 편 의 점"},{"name":"수잔리영어교습소","tel":"031-244-7007","addr":"경기도 수원시 팔달구 고등동 53-5번지","category":"회원제형태 - 학원"}]},{"lat":"37.274073153","long":"127.006287","items":[{"name":"백마천막사","tel":"031-244-6941","addr":"경기도 수원시 팔달구 고등동 30-14번지","category":"직물 - 카페트,커튼,천막,지물"},{"name":"설화식당","tel":"031-256-2888","addr":"경기도 수원시 팔달구 고등동 30-14번지 1층","category":"일반휴게음식 - 일반한식"}]},{"lat":"37.278542283","long":"127.00473117","items":[{"name":"별미8500냥고기부페","tel":"031-251-7091","addr":"경기도 수원시 팔달구 고등동 5-4번지","category":"일반휴게음식 - 일반한식"},{"name":"불티나","tel":"031-252-3474","addr":"경기도 수원시 팔달구 고등동 5-4번지 1층","category":"일반휴게음식 - 중국식"}]},{"lat":"37.275010229","long":"127.00600516","items":[{"name":"보쉬대훈카써비스","tel":"031-258-4271","addr":"경기도 수원시 팔달구 고등동 46-3번지","category":"자동차정비 유지 - 카인테리어"}]},{"lat":"37.273739781","long":"127.00594874","items":[{"name":"부부장식","tel":"031-243-3904","addr":"경기도 수원시 팔달구 고등동 37-1번지","category":"건축자재 - 인테리어전문"}]},{"lat":"37.273352377","long":"127.00353591","items":[{"name":"북경오리구이","tel":"031-241-9969","addr":"경기도 수원시 팔달구 고등동 126-3번지 1층","category":"일반휴게음식 - 일반한식"},{"name":"아주철물","tel":"031-257-4950","addr":"경기도 수원시 팔달구 고등동 126-3번지","category":"전기제품 - 기타전기제품"}]},{"lat":"37.272126975","long":"127.00175451","items":[{"name":"북경힐링","tel":"031-241-5855","addr":"경기도 수원시 팔달구 고등동 222-6번지","category":"보건위생 - 화장품"}]},{"lat":"37.273100077","long":"127.00473104","items":[{"name":"브레드타임","tel":"031-253-0425","addr":"경기도 수원시 팔달구 고등동 56-1번지","category":"음료식품 - 제과점"}]},{"lat":"37.271261991","long":"127.00203639","items":[{"name":"비목","tel":"031-244-5412","addr":"경기도 수원시 팔달구 고등동 240-6번지","category":"일반휴게음식 - 주점"},{"name":"스타트(음식)호프","tel":"031-255-9857","addr":"경기도 수원시 팔달구 고등동 240-6번지","category":"일반휴게음식 - 주점"}]},{"lat":"37.272487389","long":"127.00200255","items":[{"name":"비어엔죠이(고등점)","tel":"031-244-6232","addr":"경기도 수원시 팔달구 고등동 221-5번지","category":"일반휴게음식 - 주점"}]},{"lat":"37.270126689","long":"127.00433636","items":[{"name":"비즈호텔","tel":"031-245-5588","addr":"경기도 수원시 팔달구 고등동 115-4번지 ,3-15층","category":"숙박업 - 여관/기타숙박업"}]},{"lat":"37.27212692","long":"127.00667025","items":[{"name":"빅타임","tel":"031-254-4529","addr":"경기도 수원시 팔달구 고등동 69-8번지","category":"일반휴게음식 - 주점"},{"name":"유명패션할인매장","tel":"031-256-8744","addr":"경기도 수원시 팔달구 고등동 69-8번지","category":"의류 - 정장"}]},{"lat":"37.275154299","long":"127.00856461","items":[{"name":"사진사랑","tel":"031-248-6801","addr":"경기도 수원시 팔달구 고등동 42-85번지 경기도청 연금매점 1층 사진사랑","category":"광학제품 - 사진관"}]},{"lat":"37.270847518","long":"127.00205894","items":[{"name":"산장여관","tel":"031-247-3728","addr":"경기도 수원시 팔달구 고등동 241-1","category":"숙박업 - 여관/기타숙박업"}]},{"lat":"37.273018965","long":"127.00570066","items":[{"name":"삼대식당","tel":"031-241-3392","addr":"경기도 수원시 팔달구 고등동 57-13번지 1층","category":"일반휴게음식 - 일반한식"}]},{"lat":"37.272045857","long":"127.00561043","items":[{"name":"삼모헤어","tel":"070-8947-4490","addr":"경기도 수원시 팔달구 고등동 66-7번지 1층","category":"보건위생 - 미용원"},{"name":"케이엠꽃배달","tel":"031-242-4078","addr":"경기도 수원시 팔달구 고등동 66-7번지 403호","category":"문화.취미 - 화원"}]},{"lat":"37.272262095","long":"127.00594868","items":[{"name":"삼보농축수산물","tel":"031-251-1999","addr":"경기도 수원시 팔달구 고등동 67-11번지","category":"기타 - 기계공구"}]},{"lat":"37.271379115","long":"127.00122462","items":[{"name":"삼성유통","tel":"031-893-6934","addr":"경기도 수원시 팔달구 고등동 237-1번지 1층","category":"신변잡화 - 액세서리"}]},{"lat":"37.270261795","long":"127.00655741","items":[{"name":"삼화인쇄소","tel":"031-242-0600","addr":"경기도 수원시 팔달구 고등동 81-8번지 1층","category":"서적문구 - 출판 및 인쇄물"},{"name":"세탁나라(세탁소)","tel":"031-252-6747","addr":"경기도 수원시 팔달구 고등동 81-8","category":"수리서비스 - 세탁소"},{"name":"신동방숯불구이","tel":"","addr":"경기도 수원시 팔달구 고등동 81-8번지","category":"일반휴게음식 - 일반한식"},{"name":"이가헤어닥터","tel":"031-269-9067","addr":"경기도 수원시 팔달구 고등동 81-8번지","category":"보건위생 - 미용원"},{"name":"헤어코디#","tel":"","addr":"경기도 수원시 팔달구 고등동 81-8번지 1층","category":"보건위생 - 미용원"}]},{"lat":"37.270541159","long":"127.00456186","items":[{"name":"상아","tel":"031-256-2753","addr":"경기도 수원시 팔달구 고등동 113-18번지 지층","category":"일반휴게음식 - 주점"},{"name":"송화양꼬치","tel":"031-245-0223","addr":"경기도 수원시 팔달구 고등동 113-18번지","category":"일반휴게음식 - 일반한식"}]},{"lat":"37.277767412","long":"127.00361488","items":[{"name":"상일유리","tel":"031-243-5659","addr":"경기도 수원시 팔달구 고등동 7-5","category":"건축자재 - 유리"}]},{"lat":"37.278073579","long":"127.0095007","items":[{"name":"서장대매점","tel":"","addr":"경기도 수원시 팔달구 고등동 42-139번지","category":"음료식품 - 기타음료식품"}]},{"lat":"37.270288869","long":"127.00108935","items":[{"name":"석류","tel":"031-245-2577","addr":"경기도 수원시 팔달구 고등동 263-5번지","category":"일반휴게음식 - 주점"},{"name":"아리랑","tel":"031-242-9963","addr":"경기도 수원시 팔달구 고등동 263-5번지 1층","category":"일반휴게음식 - 주점"}]},{"lat":"37.273018846","long":"127.00889142","items":[{"name":"선우","tel":"031-255-6116","addr":"경기도 수원시 팔달구 고등동 61-39번지 1층","category":"신변잡화 - 기타잡화"}]},{"lat":"37.27198281","long":"127.00169814","items":[{"name":"성광고등슈퍼","tel":"031-255-0824","addr":"경기도 수원시 팔달구 고등동 224-1번지","category":"유통업 영리 - 슈퍼마켓"}]},{"lat":"37.270045568","long":"127.00586967","items":[{"name":"세무법인 오현 수원1지점","tel":"031-245-4800","addr":"경기도 수원시 팔달구 고등동 81-12번지 3층","category":"용역 서비스 - 법률회계서비스(법인)"},{"name":"주식회사 케이에이치글로벌교육","tel":"02-419-8118","addr":"경기도 수원시 팔달구 고등동 81-12번지 2층","category":"학원 - 기타 교육기관"}]},{"lat":"37.270324912","long":"127.00122464","items":[{"name":"세븐","tel":"031-253-8883","addr":"경기도 수원시 팔달구 고등동 263-6번지 1동","category":"일반휴게음식 - 주점"},{"name":"씨유수원럭키점","tel":"031-256-1178","addr":"경기도 수원시 팔달구 고등동 263-6번지","category":"유통업 영리 - 편 의 점"},{"name":"캅타드 레스토랑","tel":"031-111-1111","addr":"경기도 수원시 팔달구 고등동 263-6번지","category":"일반휴게음식 - 서양음식"}]},{"lat":"37.275541839","long":"127.00586989","items":[{"name":"세진미디어","tel":"031-224-8872","addr":"경기도 수원시 팔달구 고등동 46-26번지 건우빌라 202호","category":"용역 서비스 - 종합용역"}]},{"lat":"37.273289306","long":"127.00325404","items":[{"name":"소문","tel":"031-244-4125","addr":"경기도 수원시 팔달구 고등동 127-4번지 1층","category":"일반휴게음식 - 일반한식"},{"name":"여기서라면","tel":"031-243-2022","addr":"경기도 수원시 팔달구 고등동 127-4번지 1층","category":"일반휴게음식 - 서양음식"}]},{"lat":"37.27751511","long":"127.0008975","items":[{"name":"솔로몬음악학원","tel":"031-247-0847","addr":"경기도 수원시 팔달구 고등동 179-16번지","category":"학원 - 예·체능계학원"}]},{"lat":"37.272595367","long":"127.00881247","items":[{"name":"송연식품/국수사랑방","tel":"031-890-1026","addr":"경기도 수원시 팔달구 고등동 61-77","category":"일반휴게음식 - 일반한식"}]},{"lat":"37.275316618","long":"127.00344573","items":[{"name":"수여고분식","tel":"031-255-8252","addr":"경기도 수원시 팔달구 고등동 51-21번지","category":"일반휴게음식 - 스넥"}]},{"lat":"37.270874537","long":"127.00103296","items":[{"name":"수원VIP실버케어","tel":"031-254-5077","addr":"경기도 수원시 팔달구 고등동 235-4번지 (1층101,102,104호2층전체,3층전체)","category":"기타의료기관 - 기타의료기관 및 기타"}]},{"lat":"37.271793531","long":"127.0069521","items":[{"name":"수원냉동중고가전","tel":"031-255-7253","addr":"경기도 수원시 팔달구 고등동 71-18","category":"수리서비스 - 가정용품수리"}]},{"lat":"37.271180886","long":"127.00475354","items":[{"name":"수원반도전자","tel":"031-242-0004","addr":"경기도 수원시 팔달구 고등동 113-23번지","category":"전기제품 - 기타전기제품"}]},{"lat":"37.277271766","long":"127.00732448","items":[{"name":"수원스파","tel":"02-1577-0000","addr":"경기도 수원시 팔달구 고등동 42-106번지 원평스위트빌 A동 201호","category":"음료식품 - 기타음료식품"},{"name":"아리아꽃예술원(ARIA Floristik Kunst)","tel":"031-258-3536","addr":"경기도 수원시 팔달구 고등동 42-106번지 원평스위트빌 A동 1층 101호","category":"문화.취미 - 화원"},{"name":"아리아팜","tel":"031-258-3536","addr":"경기도 수원시 팔달구 고등동 42-106번지 원평스위트빌 A동 1층 101호","category":"문화.취미 - 화원"}]},{"lat":"37.26999153","long":"127.00469714","items":[{"name":"수원아카데미학원","tel":"031-248-9780","addr":"경기도 수원시 팔달구 고등동 86-10번지 전체 3층","category":"회원제형태 - 학원"},{"name":"신세계노래연습장","tel":"070-8887-6299","addr":"경기도 수원시 팔달구 고등동 86-10번지","category":"레저업소 - 노 래 방"},{"name":"표향거반점","tel":"031-256-9925","addr":"경기도 수원시 팔달구 고등동 86-10번지 1층","category":"일반휴게음식 - 일반한식"},{"name":"행운커피숍","tel":"","addr":"경기도 수원시 팔달구 고등동 86-10번지 지하1층","category":"일반휴게음식 - 서양음식"}]},{"lat":"37.276569029","long":"127.00500173","items":[{"name":"수원여고매점","tel":"031-250-9185","addr":"경기도 수원시 팔달구 고등동 19-1번지 수원여자고등학교 1층","category":"음료식품 - 기타음료식품"},{"name":"수원여자고등학교","tel":"031-245-1501","addr":"경기도 수원시 팔달구 고등동 19-1번지 수원여자고등학교","category":"학원 - 초중고교육기관"},{"name":"수원여자고등학교_수업료","tel":"031-245-1501","addr":"경기도 수원시 팔달구 고등동 19-1번지 수원여자고등학교","category":"학원 - 초중고교육기관"}]},{"lat":"37.271685468","long":"127.0014501","items":[{"name":"수원역푸르지오자이대화컨설팅","tel":"031-252-8254","addr":"경기도 수원시 팔달구 고등동 238-27번지","category":"용역 서비스 - 사무서비스"}]},{"lat":"37.275785095","long":"127.00663661","items":[{"name":"수원열쇠친구","tel":"031-238-1312","addr":"경기도 수원시 팔달구 고등동 13-5번지 태광빌라트 A동 201호","category":"기타 - 기계공구"}]},{"lat":"37.275460784","long":"127.00294962","items":[{"name":"수원종합오토바이","tel":"031-242-2894","addr":"경기도 수원시 팔달구 고등동 139-22번지","category":"자동차판매 - 이륜차판매"}]},{"lat":"37.275289589","long":"127.00292707","items":[{"name":"수원천막,판넬기업","tel":"031-253-6600","addr":"경기도 수원시 팔달구 고등동 139-14번지 상가1.2호","category":"직물 - 카페트,커튼,천막,지물"},{"name":"큰대명","tel":"031-244-9085","addr":"경기도 수원시 팔달구 고등동 139-14번지","category":"용역 서비스 - 종합용역"}]},{"lat":"37.277596207","long":"127.00458457","items":[{"name":"수원초등학교","tel":"031-247-6139","addr":"경기도 수원시 팔달구 고등동 19번지 수원초등학교","category":"학원 - 초중고교육기관"},{"name":"수원초등학교_수업료","tel":"031-247-6139","addr":"경기도 수원시 팔달구 고등동 19번지 수원초등학교","category":"학원 - 초중고교육기관"},{"name":"수원초등학교병설유치원[아이행복]","tel":"031-247-6139","addr":"경기도 수원시 팔달구 고등동 19번지 수원초등학교","category":"학원 - 유치원"}]},{"lat":"37.275514837","long":"127.00428009","items":[{"name":"수원털실총판","tel":"031-252-9922","addr":"경기도 수원시 팔달구 고등동 51-29 선일빌라 B01 14/5","category":"직물 - 침구·수예점"}]},{"lat":"37.272487388","long":"127.00192363","items":[{"name":"수호천사","tel":"031-246-1413","addr":"경기도 수원시 팔달구 고등동 221-7번지","category":"기타 - 기계공구"}]},{"lat":"37.274929176","long":"127.00347955","items":[{"name":"숙이네삭당","tel":"031-225-0770","addr":"경기도 수원시 팔달구 고등동 52-2번지 1층","category":"일반휴게음식 - 일반한식"},{"name":"이맛이야칼국수","tel":"031-207-9026","addr":"경기도 수원시 팔달구 고등동 52-2번지 1층 1호","category":"일반휴게음식 - 일반한식"}]},{"lat":"37.271018702","long":"127.00473099","items":[{"name":"순래양꼬치","tel":"031-241-8568","addr":"경기도 수원시 팔달구 고등동 113-24번지 1층","category":"일반휴게음식 - 중국식"}]},{"lat":"37.271928724","long":"127.00558788","items":[{"name":"순자미식","tel":"031-256-7798","addr":"경기도 수원시 팔달구 고등동 66-19번지","category":"일반휴게음식 - 중국식"}]},{"lat":"37.269955502","long":"127.00308491","items":[{"name":"술요일","tel":"","addr":"경기도 수원시 팔달구 고등동 300-13번지 3층","category":"일반휴게음식 - 주점"},{"name":"팰리스가족호텔","tel":"031-243-9533","addr":"경기도 수원시 팔달구 고등동 300-13번지","category":"숙박업 - 여관/기타숙박업"}]},{"lat":"37.27567703","long":"127.00302855","items":[{"name":"슝슝모터스,세차타운","tel":"031-242-9229","addr":"경기도 수원시 팔달구 고등동 139-41번지","category":"자동차정비 유지 - 자동차정비"}]},{"lat":"37.278344048","long":"127.00528367","items":[{"name":"스마일문구","tel":"031-244-2608","addr":"경기도 수원시 팔달구 고등동 5-11","category":"서적문구 - 문구용품"}]},{"lat":"37.27443361","long":"127.0035923","items":[{"name":"스튜디오 미르","tel":"031-244-9732","addr":"경기도 수원시 팔달구 고등동 53-27번지","category":"건축자재 - 인테리어전문"},{"name":"이숙헤어숍","tel":"031-245-5281","addr":"경기도 수원시 팔달구 고등동 53-27번지","category":"보건위생 - 미용원"}]},{"lat":"37.273433465","long":"127.00408838","items":[{"name":"스튜디오사랑이야기","tel":"031-222-7740","addr":"경기도 수원시 팔달구 고등동 55-6번지","category":"광학제품 - 사진관"}]},{"lat":"37.271649431","long":"127.00178834","items":[{"name":"승지상사","tel":"070-8227-2262","addr":"경기도 수원시 팔달구 고등동 239-3번지 1층 6호","category":"음료식품 - 기타음료식품"},{"name":"승지상사","tel":"070-8227-2262","addr":"경기도 수원시 팔달구 고등동 239-3번지 1층 6호","category":"음료식품 - 기타음료식품"},{"name":"승지상사","tel":"070-8227-2262","addr":"경기도 수원시 팔달구 고등동 239-3번지 1층 6호","category":"음료식품 - 기타음료식품"}]},{"lat":"37.279596437","long":"127.00674955","items":[{"name":"시골밥상","tel":"031-241-0870","addr":"경기도 수원시 팔달구 고등동 1-6번지","category":"일반휴게음식 - 일반한식"},{"name":"우주(WOO JOO)POS SYSTEM","tel":"02-1599-9181","addr":"경기도 수원시 팔달구 고등동 1-6번지 3층","category":"사무통신 - 통신기기"},{"name":"유프로덕션","tel":"070-4028-2419","addr":"경기도 수원시 팔달구 고등동 1-6번지 2층","category":"기타 - 기타 전문점"}]},{"lat":"37.271649418","long":"127.00494522","items":[{"name":"시골초두부","tel":"031-548-2717","addr":"경기도 수원시 팔달구 고등동 64-2번지 1층","category":"일반휴게음식 - 중국식"}]},{"lat":"37.272955926","long":"127.00325404","items":[{"name":"시립고등동어린이집[아이행복]","tel":"031-243-0038","addr":"경기도 수원시 팔달구 고등동 110-4번지","category":"학원 - 유아원"}]},{"lat":"37.272982957","long":"127.00302855","items":[{"name":"시민중고","tel":"031-207-8050","addr":"경기도 수원시 팔달구 고등동 108번지","category":"수리서비스 - 기타수리서비스"},{"name":"주식회사 제이에이티","tel":"031-255-5820","addr":"경기도 수원시 팔달구 고등동 108번지 지층","category":"음료식품 - 기타음료식품"}]},{"lat":"37.275379685","long":"127.00411096","items":[{"name":"시온냉동","tel":"070-8945-3650","addr":"경기도 수원시 팔달구 고등동 51-36번지 C동 03호","category":"수리서비스 - 가정용품수리"}]},{"lat":"37.270126684","long":"127.00469714","items":[{"name":"신대해500원꼬치","tel":"031-248-5633","addr":"경기도 수원시 팔달구 고등동 86-12번지","category":"일반휴게음식 - 일반한식"}]},{"lat":"37.271901647","long":"127.00714377","items":[{"name":"신데렐라헤어","tel":"","addr":"경기도 수원시 팔달구 고등동 76-5번지 1층","category":"보건위생 - 미용원"}]},{"lat":"37.272099855","long":"127.00763987","items":[{"name":"신양 양꼬치","tel":"","addr":"경기도 수원시 팔달구 고등동 62-1번지 1층","category":"일반휴게음식 - 일반한식"}]},{"lat":"37.271793592","long":"127.00431385","items":[{"name":"신영사","tel":"031-243-3292","addr":"경기도 수원시 팔달구 고등동 60-15번지 트라움하우스 1층 101호","category":"보건위생 - 미용재료"}]},{"lat":"37.274541686","long":"127.00630957","items":[{"name":"신용철물설비","tel":"031-245-9604","addr":"경기도 수원시 팔달구 고등동 30-9번지","category":"건축자재 - 목재·석재·철물"}]},{"lat":"37.277154643","long":"127.00703131","items":[{"name":"실로암바이런피아","tel":"02-1577-0000","addr":"경기도 수원시 팔달구 고등동 42-106번지 A동 지하층 101,102호","category":"보건위생 - 사우나"}]},{"lat":"37.271433175","long":"127.004731","items":[{"name":"심양대냉면","tel":"031-304-7278","addr":"경기도 수원시 팔달구 고등동 64-25번지","category":"일반휴게음식 - 일반한식"},{"name":"양지","tel":"031-243-2190","addr":"경기도 수원시 팔달구 고등동 64-25번지 지하","category":"일반휴게음식 - 일반한식"}]},{"lat":"37.271117786","long":"127.00607265","items":[{"name":"씨네마","tel":"031-256-5857","addr":"경기도 수원시 팔달구 고등동 73-39번지 한영빌라 A동 101호","category":"보건위생 - 기타대인서비스"}]},{"lat":"37.278298956","long":"127.00678331","items":[{"name":"씨유경기도청점","tel":"031-243-1251","addr":"경기도 수원시 팔달구 고등동 3-5번지 성원타운 가동 101호","category":"유통업 영리 - 편 의 점"}]},{"lat":"37.274010128","long":"127.00342317","items":[{"name":"씨유수원고등점","tel":"031-245-9208","addr":"경기도 수원시 팔달구 고등동 122-3번지 1층","category":"유통업 영리 - 편 의 점"}]},{"lat":"37.271712506","long":"127.00355845","items":[{"name":"아바타","tel":"031-258-7771","addr":"경기도 수원시 팔달구 고등동 91-15번지 혜성빌라 1동 302호","category":"신변잡화 - 신발"},{"name":"우리유통","tel":"031-232-2346","addr":"경기도 수원시 팔달구 고등동 91-15번지 혜성빌라 1동 401호","category":"음료식품 - 기타음료식품"}]},{"lat":"37.273100085","long":"127.00408837","items":[{"name":"아삼미용실","tel":"070-8289-8915","addr":"경기도 수원시 팔달구 고등동 56-3번지 1층","category":"보건위생 - 미용원"}]},{"lat":"37.270487108","long":"127.00225061","items":[{"name":"아이비스테이","tel":"031-246-7799","addr":"경기도 수원시 팔달구 고등동 303-2번지","category":"숙박업 - 여관/기타숙박업"}]},{"lat":"37.270351953","long":"127.00217169","items":[{"name":"아이비스테이","tel":"031-246-7799","addr":"경기도 수원시 팔달구 고등동 303-3번지","category":"숙박업 - 여관/기타숙박업"},{"name":"아이비스테이","tel":"031-246-7799","addr":"경기도 수원시 팔달구 고등동 303-3번지 외1필지","category":"유통업 영리 - 편 의 점"},{"name":"아이비스테이","tel":"031-246-7799","addr":"경기도 수원시 팔달구 고등동 303-3번지","category":"숙박업 - 여관/기타숙박업"}]},{"lat":"37.272180973","long":"127.00695212","items":[{"name":"아크릴마당","tel":"031-247-3900","addr":"경기도 수원시 팔달구 고등동 63-7번지","category":"용역 서비스 - 종합용역"}]},{"lat":"37.278154852","long":"127.00389677","items":[{"name":"양노다","tel":"031-251-1055","addr":"경기도 수원시 팔달구 고등동 7-13번지","category":"일반휴게음식 - 중국식"}]},{"lat":"37.27320819","long":"127.00530605","items":[{"name":"양치기소녀","tel":"031-258-2898","addr":"경기도 수원시 팔달구 고등동 57-6번지 1층","category":"일반휴게음식 - 중국식"}]},{"lat":"37.269658149","long":"127.00473095","items":[{"name":"언올드첨(an old chum)","tel":"","addr":"경기도 수원시 팔달구 고등동 86-6번지 1,2층","category":"일반휴게음식 - 서양음식"}]},{"lat":"37.277794436","long":"127.00139361","items":[{"name":"엄마네 포차","tel":"031-257-8836","addr":"경기도 수원시 팔달구 고등동 178-16번지","category":"일반휴게음식 - 일반한식"}]},{"lat":"37.271316026","long":"127.00553148","items":[{"name":"에듀원","tel":"","addr":"경기도 수원시 팔달구 고등동 66-16번지 202호","category":"서적문구 - 기타서적문구"}]},{"lat":"37.273983064","long":"127.00575707","items":[{"name":"에스와이컴퍼니 (SY Company)","tel":"","addr":"경기도 수원시 팔달구 고등동 45-25번지","category":"용역 서비스 - 기타용역서비스"},{"name":"해든어린이집[아이행복]","tel":"031-252-8607","addr":"경기도 수원시 팔달구 고등동 45-25번지 1층","category":"학원 - 유아원"}]},{"lat":"37.273820912","long":"127.00342317","items":[{"name":"에어컨라인","tel":"031-257-0082","addr":"경기도 수원시 팔달구 고등동 124-2번지 101호","category":"전기제품 - 냉열기기"},{"name":"태성냉난방프라자","tel":"070-8281-7761","addr":"경기도 수원시 팔달구 고등동 124-2번지 1층 103호","category":"전기제품 - 냉열기기"},{"name":"헤어뉴스","tel":"031-248-6004","addr":"경기도 수원시 팔달구 고등동 124-2번지","category":"보건위생 - 미용원"}]},{"lat":"37.27051412","long":"127.00069474","items":[{"name":"에이세븐호텔(A7호텔)","tel":"031-246-5507","addr":"경기도 수원시 팔달구 고등동 229-1번지","category":"숙박업 - 여관/기타숙박업"}]},{"lat":"37.275316586","long":"127.0057233","items":[{"name":"에코컬러 (Eco-Color)실내건축","tel":"031-893-9008","addr":"경기도 수원시 팔달구 고등동 46-32번지 1층 101호","category":"용역 서비스 - 기타용역서비스"}]},{"lat":"37.273208164","long":"127.00634333","items":[{"name":"엘지냉동공조","tel":"031-252-6838","addr":"경기도 수원시 팔달구 고등동 70-12번지","category":"전기제품 - 냉열기기"},{"name":"오거리공인중개사사무소","tel":"031-265-3652","addr":"경기도 수원시 팔달구 고등동 70-12","category":"용역 서비스 - 부동산 중개·임대"}]},{"lat":"37.272928877","long":"127.00500163","items":[{"name":"연금매장","tel":"031-251-0639","addr":"경기도 수원시 팔달구 고등동 57-21번지 1층 1호","category":"유통업 영리 - 슈퍼마켓"}]},{"lat":"37.272460297","long":"127.00678301","items":[{"name":"연길국밥냉면","tel":"031-243-2399","addr":"경기도 수원시 팔달구 고등동 65-6번지 1층","category":"일반휴게음식 - 중국식"},{"name":"예인냉난방시스템","tel":"031-215-2747","addr":"경기도 수원시 팔달구 고등동 65-6번지 1층","category":"용역 서비스 - 기타용역서비스"}]},{"lat":"37.272379242","long":"127.00539622","items":[{"name":"연길양꼬치냉면","tel":"031-111-1111","addr":"경기도 수원시 팔달구 고등동 58-8번지 1층","category":"일반휴게음식 - 중국식"}]},{"lat":"37.272352173","long":"127.00680556","items":[{"name":"연길호프","tel":"","addr":"경기도 수원시 팔달구 고등동 65-7번지 1층","category":"일반휴게음식 - 주점"}]},{"lat":"37.270153726","long":"127.00209277","items":[{"name":"연변양고기꼬치","tel":"031-255-6898","addr":"경기도 수원시 팔달구 고등동 300-4번지 1층","category":"일반휴게음식 - 일반한식"},{"name":"중경소면","tel":"031-242-1507","addr":"경기도 수원시 팔달구 고등동 300-4번지","category":"일반휴게음식 - 중국식"}]},{"lat":"37.273595653","long":"127.00375014","items":[{"name":"영동장식","tel":"031-244-4698","addr":"경기도 수원시 팔달구 고등동 55-3번지","category":"직물 - 카페트,커튼,천막,지물"}]},{"lat":"37.27073938","long":"127.00089768","items":[{"name":"영빈장","tel":"031-244-4295","addr":"경기도 수원시 팔달구 고등동 232-1번지","category":"숙박업 - 여관/기타숙박업"}]},{"lat":"37.273262276","long":"127.00250991","items":[{"name":"영애견","tel":"031-251-2007","addr":"경기도 수원시 팔달구 고등동 107-11번지","category":"문화.취미 - 애완동물"}]},{"lat":"37.277623228","long":"127.00060433","items":[{"name":"영재종합기획","tel":"031-233-3693","addr":"경기도 수원시 팔달구 고등동 179-23번지 대동그린빌 B동 202호","category":"용역 서비스 - 사무서비스"}]},{"lat":"37.272235048","long":"127.00653496","items":[{"name":"영진정비","tel":"031-253-5104","addr":"경기도 수원시 팔달구 고등동 69-6번지","category":"자동차정비 유지 - 자동차정비"}]},{"lat":"37.275902287","long":"127.00308493","items":[{"name":"영희네세탁소","tel":"031-255-5301","addr":"경기도 수원시 팔달구 고등동 167-5번지","category":"수리서비스 - 세탁소"},{"name":"짱헤어스토리","tel":"031-256-5119","addr":"경기도 수원시 팔달구 고등동 167-5번지","category":"보건위생 - 미용원"},{"name":"후라이드참잘하는집 고등화서점","tel":"031-242-9293","addr":"경기도 수원시 팔달구 고등동 167-5번지 1층","category":"일반휴게음식 - 스넥"}]},{"lat":"37.273568575","long":"127.00634335","items":[{"name":"오거리옻닭","tel":"031-255-7789","addr":"경기도 수원시 팔달구 고등동 36-11번지 1층","category":"일반휴게음식 - 일반한식"}]},{"lat":"37.275154433","long":"127.00344573","items":[{"name":"오거리통닭","tel":"031-246-1729","addr":"경기도 수원시 팔달구 고등동 51-26번지","category":"일반휴게음식 - 일반한식"}]},{"lat":"37.276154575","long":"127.0031413","items":[{"name":"오뚜기문구,서점","tel":"031-256-7461","addr":"경기도 수원시 팔달구 고등동 167-30번지","category":"서적문구 - 일반서적"}]},{"lat":"37.272685615","long":"127.00205892","items":[{"name":"오렌지공인중개사사무소","tel":"031-252-8666","addr":"경기도 수원시 팔달구 고등동 221-3번지","category":"용역 서비스 - 부동산 중개·임대"},{"name":"자작나무","tel":"031-111-1111","addr":"경기도 수원시 팔달구 고등동 221-3번지 2층","category":"일반휴게음식 - 주점"}]},{"lat":"37.276010411","long":"127.00311875","items":[{"name":"오영주커피스탠드","tel":"","addr":"경기도 수원시 팔달구 고등동 167-7번지 1층","category":"일반휴게음식 - 서양음식"}]},{"lat":"37.272955905","long":"127.0051482","items":[{"name":"올네이션 경기중부지사","tel":"031-5560-0666","addr":"경기도 수원시 팔달구 고등동 57-20번지 202호","category":"보건위생 - 화장품"}]},{"lat":"37.27464984","long":"127.00500167","items":[{"name":"용산마트","tel":"031-257-7922","addr":"경기도 수원시 팔달구 고등동 44-3번지 1층","category":"유통업 영리 - 슈퍼마켓"}]},{"lat":"37.270460075","long":"127.00205894","items":[{"name":"울엄마김치찌개","tel":"031-258-0101","addr":"경기도 수원시 팔달구 고등동 303-14번지 1층","category":"일반휴게음식 - 일반한식"},{"name":"조이모텔","tel":"031-111-1111","addr":"경기도 수원시 팔달구 고등동 303-14번지 ,2-3층","category":"숙박업 - 여관/기타숙박업"}]},{"lat":"37.270442041","long":"127.00491136","items":[{"name":"원일슈퍼","tel":"031-256-2335","addr":"경기도 수원시 팔달구 고등동 112-17번지 원일연립 다동 101호","category":"유통업 영리 - 슈퍼마켓"}]},{"lat":"37.274848085","long":"127.00325405","items":[{"name":"월드할인마트","tel":"031-258-2945","addr":"경기도 수원시 팔달구 고등동 138-4번지 제지1층 제비01,02,03호","category":"유통업 영리 - 슈퍼마켓"}]},{"lat":"37.271955723","long":"127.00672661","items":[{"name":"웰빙할인마트","tel":"031-297-1143","addr":"경기도 수원시 팔달구 고등동 71-1번지 1층","category":"유통업 영리 - 슈퍼마켓"}]},{"lat":"37.273154141","long":"127.00456192","items":[{"name":"유가네양고기김가네오리","tel":"070-8224-9855","addr":"경기도 수원시 팔달구 고등동 56-13번지 1층","category":"일반휴게음식 - 일반한식"},{"name":"유가네양고기김가네오리","tel":"070-8224-9855","addr":"경기도 수원시 팔달구 고등동 56-13번지 1층","category":"일반휴게음식 - 일반한식"},{"name":"은커피숍","tel":"031-247-2883","addr":"경기도 수원시 팔달구 고등동 56-13번지","category":"일반휴게음식 - 서양음식"}]},{"lat":"37.272739654","long":"127.00536241","items":[{"name":"윤성종합인쇄공사","tel":"031-254-6092","addr":"경기도 수원시 팔달구 고등동 58-2번지","category":"서적문구 - 출판 및 인쇄물"}]},{"lat":"37.278344051","long":"127.00509198","items":[{"name":"윤헤어살롱","tel":"031-000-0000","addr":"경기도 수원시 팔달구 고등동 5-18번지 영창탑스빌2차","category":"보건위생 - 미용원"}]},{"lat":"37.274316476","long":"127.0037276","items":[{"name":"이로운공조","tel":"","addr":"경기도 수원시 팔달구 고등동 53-25번지 그린나래 302호","category":"용역 서비스 - 기타용역서비스"}]},{"lat":"37.275740102","long":"127.00317513","items":[{"name":"이모네멸치국수","tel":"031-548-2269","addr":"경기도 수원시 팔달구 고등동 139-1번지 1층","category":"일반휴게음식 - 일반한식"}]},{"lat":"37.274848065","long":"127.00505806","items":[{"name":"이상궁","tel":"070-5118-2236","addr":"경기도 수원시 팔달구 고등동 49-34번지 상가 1층 1호","category":"음료식품 - 농·축·수산품"}]},{"lat":"37.270324913","long":"127.00447166","items":[{"name":"이은선헤어크리닉","tel":"031-252-7680","addr":"경기도 수원시 팔달구 고등동 115-2번지","category":"보건위생 - 미용원"}]},{"lat":"37.272154011","long":"127.00333296","items":[{"name":"자연기획","tel":"031-254-6717","addr":"경기도 수원시 팔달구 고등동 97-4번지","category":"용역 서비스 - 종합용역"}]},{"lat":"37.269541016","long":"127.00469713","items":[{"name":"장가네순대국","tel":"031-253-8892","addr":"경기도 수원시 팔달구 고등동 86-8번지","category":"일반휴게음식 - 일반한식"}]},{"lat":"37.277208745","long":"127.00566699","items":[{"name":"재크와콩나무어린이집[아이행복]","tel":"031-255-1347","addr":"경기도 수원시 팔달구 고등동 8-8번지","category":"학원 - 유아원"}]},{"lat":"37.273045987","long":"127.00606146","items":[{"name":"정희네밥상","tel":"031-245-9220","addr":"경기도 수원시 팔달구 고등동 67-1번지 1층","category":"일반휴게음식 - 일반한식"},{"name":"진미양꼬치","tel":"031-255-2888","addr":"경기도 수원시 팔달구 고등동 67-1번지 1층","category":"일반휴게음식 - 중국식"},{"name":"해","tel":"031-252-5575","addr":"경기도 수원시 팔달구 고등동 67-1번지 지하","category":"일반휴게음식 - 일반한식"}]},{"lat":"37.269847354","long":"127.00530595","items":[{"name":"제트엘헤어(Hair salon the ZL)","tel":"","addr":"경기도 수원시 팔달구 고등동 85-7번지 1층","category":"보건위생 - 미용원"}]},{"lat":"37.271739471","long":"127.00689572","items":[{"name":"주식회사 노마세야컴퍼니","tel":"031-1661-5019","addr":"경기도 수원시 팔달구 고등동 71-17번지 2층","category":"용역 서비스 - 사무서비스"},{"name":"천마산업이엔지","tel":"031-258-0040","addr":"경기도 수원시 팔달구 고등동 71-17번지 1층","category":"용역 서비스 - 기타용역서비스"}]},{"lat":"37.270378968","long":"127.00080749","items":[{"name":"주식회사 하이로왕중경샤브","tel":"031-221-0003","addr":"경기도 수원시 팔달구 고등동 263-2번지 1,2층","category":"일반휴게음식 - 일반한식"}]},{"lat":"37.275568894","long":"127.00467472","items":[{"name":"진 시스템 공조","tel":"070-5043-3349","addr":"경기도 수원시 팔달구 고등동 50-4번지 대림빌라 302호","category":"전기제품 - 가전제품"}]},{"lat":"37.2704871","long":"127.00137121","items":[{"name":"진로유료주차장","tel":"031-247-6500","addr":"경기도 수원시 팔달구 고등동 248-7번지","category":"자동차정비 유지 - 주차장"}]},{"lat":"37.270207785","long":"127.00173199","items":[{"name":"차이나피플","tel":"031-252-5695","addr":"경기도 수원시 팔달구 고등동 300-1번지 i오피스텔 204호","category":"보건위생 - 화장품"}]},{"lat":"37.273154017","long":"127.00856446","items":[{"name":"천왕사","tel":"031-255-1835","addr":"경기도 수원시 팔달구 고등동 61-41번지","category":"보건위생 - 기타대인서비스"}]},{"lat":"37.272018842","long":"127.00480993","items":[{"name":"천일꼬치(1001꼬치)","tel":"","addr":"경기도 수원시 팔달구 고등동 64-26번지 1층 101호","category":"일반휴게음식 - 중국식"}]},{"lat":"37.274208306","long":"127.00630956","items":[{"name":"청솔공사","tel":"031-255-4079","addr":"경기도 수원시 팔달구 고등동 30-13 1층오른쪽","category":"건축자재 - 보일러·펌프·샷시"}]},{"lat":"37.277677263","long":"127.00628716","items":[{"name":"치악산건강원","tel":"031-254-5771","addr":"경기도 수원시 팔달구 고등동 4-20번지","category":"건강식품 - 기타건강식품"}]},{"lat":"37.269595076","long":"127.00478732","items":[{"name":"치킨조(CHICKEN JOE)","tel":"031-111-1111","addr":"경기도 수원시 팔달구 고등동 86-7번지","category":"일반휴게음식 - 일반한식"}]},{"lat":"37.272847746","long":"127.00655754","items":[{"name":"친환경 엘_샤론코리아","tel":"031-252-8322","addr":"경기도 수원시 팔달구 고등동 70-17번지 1층","category":"보건위생 - 이용원"}]},{"lat":"37.272595464","long":"127.00638841","items":[{"name":"카페69-1","tel":"031-247-4612","addr":"경기도 수원시 팔달구 고등동 69-1번지 1층","category":"일반휴게음식 - 서양음식"}]},{"lat":"37.273541534","long":"127.00667032","items":[{"name":"크린워터 경기총판","tel":"031-226-2141","addr":"경기도 수원시 팔달구 고등동 36-14번지","category":"전기제품 - 가전제품"}]},{"lat":"37.278461154","long":"127.00636613","items":[{"name":"크린위드(경기도청점)","tel":"031-258-2558","addr":"경기도 수원시 팔달구 고등동 4-1번지 가온빌 A동 1층","category":"수리서비스 - 세탁소"}]},{"lat":"37.271018635","long":"127.00727901","items":[{"name":"타이스마일","tel":"031-245-6999","addr":"경기도 수원시 팔달구 고등동 74-34번지 2층","category":"유통업 영리 - 슈퍼마켓"},{"name":"타이스마일","tel":"031-302-5375","addr":"경기도 수원시 팔달구 고등동 74-34번지 1층","category":"일반휴게음식 - 일반한식"}]},{"lat":"37.271928733","long":"127.00517072","items":[{"name":"톱헤어","tel":"","addr":"경기도 수원시 팔달구 고등동 58-15번지 101호","category":"보건위생 - 미용원"}]},{"lat":"37.270541136","long":"127.000007","items":[{"name":"트레덕트","tel":"","addr":"경기도 수원시 팔달구 고등동 227-7번지 엘로이빌딩 1층","category":"신변잡화 - 가방"}]},{"lat":"37.271514209","long":"127.007031","items":[{"name":"팔팔인쇄사","tel":"031-242-6982","addr":"경기도 수원시 팔달구 고등동 74-29번지","category":"서적문구 - 출판 및 인쇄물"}]},{"lat":"37.274046132","long":"127.0059262","items":[{"name":"하늘문구완구","tel":"031-254-1116","addr":"경기도 수원시 팔달구 고등동 45-23번지 1층","category":"서적문구 - 문구용품"}]},{"lat":"37.279263057","long":"127.00674954","items":[{"name":"한국노무법인경기지사","tel":"031-252-5141","addr":"경기도 수원시 팔달구 고등동 1-13번지","category":"용역 서비스 - 법률회계서비스(법인)"},{"name":"한통인쇄기획","tel":"031-252-9414","addr":"경기도 수원시 팔달구 고등동 1-13번지","category":"서적문구 - 출판 및 인쇄물"}]},{"lat":"37.271234957","long":"127.00173198","items":[{"name":"한길테크","tel":"031-258-9533","addr":"경기도 수원시 팔달구 고등동 239-5","category":"용역 서비스 - 기타용역서비스"}]},{"lat":"37.278344036","long":"127.00581362","items":[{"name":"한샘마트","tel":"031-248-9944","addr":"경기도 수원시 팔달구 고등동 5-7번지","category":"유통업 영리 - 슈퍼마켓"}]},{"lat":"37.270045604","long":"127.00241973","items":[{"name":"핫오리 수원역점","tel":"","addr":"경기도 수원시 팔달구 고등동 300-7번지 1층","category":"일반휴게음식 - 일반한식"}]},{"lat":"37.269991543","long":"127.00297217","items":[{"name":"해시호텔(HASH HOTEL)","tel":"031-251-8881","addr":"경기도 수원시 팔달구 고등동 300-12번지","category":"숙박업 - 여관/기타숙박업"}]},{"lat":"37.272379264","long":"127.0018898","items":[{"name":"행복한교회","tel":"031-244-1146","addr":"경기도 수원시 팔달구 고등동 221-6번지 2층","category":"용역 서비스 - 사무서비스"}]},{"lat":"37.273127112","long":"127.00442662","items":[{"name":"행운양꼬치","tel":"031-258-0716","addr":"경기도 수원시 팔달구 고등동 56-19번지 1층","category":"일반휴게음식 - 중국식"}]},{"lat":"37.271289016","long":"127.00433638","items":[{"name":"향교연운남쌀국수","tel":"031-318-4252","addr":"경기도 수원시 팔달구 고등동 113-2번지 1층","category":"일반휴게음식 - 일반한식"}]},{"lat":"37.275568855","long":"127.00642237","items":[{"name":"현대마트","tel":"031-256-0304","addr":"경기도 수원시 팔달구 고등동 29-3번지 1층","category":"유통업 영리 - 슈퍼마켓"}]},{"lat":"37.276235568","long":"127.00775288","items":[{"name":"현장소통","tel":"031-8013-9499","addr":"경기도 수원시 팔달구 고등동 16-29번지","category":"수리서비스 - 가정용품수리"}]},{"lat":"37.272874833","long":"127.00228441","items":[{"name":"형제전기조명","tel":"031-247-8494","addr":"경기도 수원시 팔달구 고등동 105-6번지","category":"전기제품 - 기타전기제품"}]},{"lat":"37.273649621","long":"127.00767379","items":[{"name":"호두","tel":"031-242-0201","addr":"경기도 수원시 팔달구 고등동 36-1번지","category":"문화.취미 - 민예·공예품"}]},{"lat":"37.27290181","long":"127.00650117","items":[{"name":"화룡왕양꼬치","tel":"031-307-5188","addr":"경기도 수원시 팔달구 고등동 70-42번지","category":"일반휴게음식 - 일반한식"}]},{"lat":"37.274676848","long":"127.0060277","items":[{"name":"화인HairArt(헤어아트)","tel":"031-251-4799","addr":"경기도 수원시 팔달구 고등동 45-1번지 1층","category":"보건위생 - 미용원"}]},{"lat":"37.271901681","long":"127.00608396","items":[{"name":"훈춘자매식당","tel":"031-243-2282","addr":"경기도 수원시 팔달구 고등동 71-28번지","category":"일반휴게음식 - 중국식"}]}]