[{"lat":"36.986544508","long":"126.84666258","items":[{"name":"(MR.Lee)미국가주 우육면","tel":"031-647-3959","addr":"경기도 평택시 포승읍 도곡리 1154-10번지 정호빌 가동 1층","category":"일반휴게음식 - 중국식"}]},{"lat":"36.986579044","long":"126.86744234","items":[{"name":"(주)강남상사","tel":"031-681-2367","addr":"경기도 평택시 포승읍 도곡리 759-1번지","category":"자동차정비 유지 - 자동차부품"}]},{"lat":"36.986021962","long":"126.86883613","items":[{"name":"(주)경로당","tel":"031-681-3443","addr":"경기도 평택시 포승읍 도곡리 842-2번지","category":"레져용품 - 스포츠·레져용품"},{"name":"서평택동양사무용가구","tel":"031-681-0841","addr":"경기도 평택시 포승읍 도곡리 842-2번지","category":"가구 - 일반가구"},{"name":"티온바스","tel":"031-682-6855","addr":"경기도 평택시 포승읍 도곡리 842-2번지 1층","category":"건축자재 - 건축용 요업제품"}]},{"lat":"36.986129798","long":"126.86857759","items":[{"name":"(주)구일일인명구급대","tel":"031-111-1111","addr":"경기도 평택시 포승읍 도곡리 842-1번지 1층","category":"보건위생 - 기타대인서비스"},{"name":"사회복지법인대한구조봉사회(평택시지부)","tel":"041-664-9112","addr":"경기도 평택시 포승읍 도곡리 842-1","category":"보건위생 - 기타대인서비스"}]},{"lat":"36.989851364","long":"126.85360893","items":[{"name":"(주)대양수산","tel":"031-684-6223","addr":"경기도 평택시 포승읍 도곡리 328-4번지","category":"용역 서비스 - 보관및 창고업"},{"name":"꽁지상회","tel":"031-681-0033","addr":"경기도 평택시 포승읍 도곡리 328-4번지","category":"음료식품 - 농·축·수산품"},{"name":"천하장어","tel":"031-683-5556","addr":"경기도 평택시 포승읍 도곡리 328-4번지 A동","category":"일반휴게음식 - 일반한식"},{"name":"천호수산","tel":"031-683-5556","addr":"경기도 평택시 포승읍 도곡리 328-4번지 D동일부","category":"음료식품 - 농·축·수산품"}]},{"lat":"36.990405154","long":"126.84294782","items":[{"name":"(주)마빅","tel":"031-682-9475","addr":"경기도 평택시 포승읍 도곡리 1117-1번지 메트로카운티 624호","category":"용역 서비스 - 종합용역"},{"name":"고운헤어","tel":"031-681-3459","addr":"경기도 평택시 포승읍 도곡리 1117-1번지 메트로카운티 1층 104호","category":"보건위생 - 미용원"}]},{"lat":"36.987822198","long":"126.84527836","items":[{"name":"1001안경원","tel":"031-682-0922","addr":"경기도 평택시 포승읍 도곡리 1144-2번지 1층","category":"보건위생 - 안경"}]},{"lat":"36.990045014","long":"126.843162","items":[{"name":"153코다리네","tel":"031-681-6033","addr":"경기도 평택시 포승읍 도곡리 1117-2번지","category":"음식점 - 한식"},{"name":"153코다리네(포승점)","tel":"031-685-9345","addr":"경기도 평택시 포승읍 도곡리 1117-2번지","category":"일반휴게음식 - 일반한식"},{"name":"돈넥 숯불돼지 무한리필","tel":"031-681-6033","addr":"경기도 평택시 포승읍 도곡리 1117-2번지 1층","category":"일반휴게음식 - 일반한식"},{"name":"돈넥포승점","tel":"031-686-6662","addr":"경기도 평택시 포승읍 도곡리 1117-2번지","category":"음식점 - 한식"}]},{"lat":"36.990432851","long":"126.84344201","items":[{"name":"1830피자","tel":"031-681-1834","addr":"경기도 평택시 포승읍 도곡리 1130-3번지 캐슬빌딩 1층","category":"일반휴게음식 - 서양음식"},{"name":"수미용재료","tel":"","addr":"경기도 평택시 포승읍 도곡리 1130-3번지 캐슬빌딩 2층","category":"보건위생 - 미용재료"}]},{"lat":"36.990771594","long":"126.84747394","items":[{"name":"2관맑은솔음악학원","tel":"031-684-7833","addr":"경기도 평택시 포승읍 도곡리 1109번지 포승삼부르네상스2단지 201호","category":"학원 - 예·체능계학원"},{"name":"88복싱클럽","tel":"031-684-8287","addr":"경기도 평택시 포승읍 도곡리 1109번지 포승삼부르네상스2단지 2층","category":"레저업소 - 헬스클럽"},{"name":"GGE영어수학학원","tel":"031-682-5274","addr":"경기도 평택시 포승읍 도곡리 1109번지 포승삼부르네상스2단지 상가동 2층 207호","category":"학원 - 보습학원"},{"name":"가온헤어","tel":"031-681-1614","addr":"경기도 평택시 포승읍 도곡리 1109번지 포승삼부르네상스2단지 1층 117호","category":"보건위생 - 미용원"},{"name":"권오숙헤어아트","tel":"031-684-4510","addr":"경기도 평택시 포승읍 도곡리 1109번지 포승삼부르네상스2단지 상가 114호","category":"보건위생 - 미용원"},{"name":"기아공인중개사사무소","tel":"031-681-0420","addr":"경기도 평택시 포승읍 도곡리 1109번지 삼부르네상스 101호","category":"용역 서비스 - 부동산 중개·임대"},{"name":"디디치킨(포승점)","tel":"031-682-9905","addr":"경기도 평택시 포승읍 도곡리 1109번지 포승삼부르네상스2단지 상가동 105호","category":"일반휴게음식 - 스넥"},{"name":"라임스킨케어","tel":"031-684-1253","addr":"경기도 평택시 포승읍 도곡리 1109번지 포승삼부르네상스2단지 상가동 106호","category":"보건위생 - 화장품"},{"name":"맘스케이크 평택점","tel":"031-684-3455","addr":"경기도 평택시 포승읍 도곡리 1109번지 포승삼부르네상스2단지 상가동 119호","category":"음료식품 - 제과점"},{"name":"성진종합설비","tel":"031-000-0000","addr":"경기도 평택시 포승읍 도곡리 1109번지 포승삼부르네상스2단지 상가동 102호","category":"용역 서비스 - 기타용역서비스"},{"name":"시장피자(포승점)","tel":"031-686-8295","addr":"경기도 평택시 포승읍 도곡리 1109번지 포승삼부르네상스2단지 상가 116호","category":"일반휴게음식 - 서양음식"},{"name":"인화정공","tel":"","addr":"경기도 평택시 포승읍 도곡리 1109번지 포승삼부르네상스2단지 상가동 108호","category":"용역 서비스 - 종합용역"},{"name":"존가네 평택포승점","tel":"031-684-9258","addr":"경기도 평택시 포승읍 도곡리 1109번지 포승삼부르네상스2단지 상가동 109호","category":"일반휴게음식 - 일반한식"},{"name":"치킨플러스 포승점","tel":"031-686-9295","addr":"경기도 평택시 포승읍 도곡리 1109번지 포승삼부르네상스2단지 상가동 102호","category":"일반휴게음식 - 일반한식"},{"name":"통큰기획","tel":"031-684-0381","addr":"경기도 평택시 포승읍 도곡리 1109번지 포승삼부르네상스2단지 상가동 113-1호","category":"용역 서비스 - 종합용역"},{"name":"투웨니세븐<Twenty Seven>","tel":"","addr":"경기도 평택시 포승읍 도곡리 1109번지 삼부르네상스2단지 113호","category":"보건위생 - 화장품"},{"name":"포승검도관","tel":"031-684-1141","addr":"경기도 평택시 포승읍 도곡리 1109번지 포승삼부르네상스2단지","category":"학원 - 예·체능계학원"},{"name":"푸드스토리","tel":"031-683-1555","addr":"경기도 평택시 포승읍 도곡리 1109번지 포승삼부르네상스2단지 103호","category":"일반휴게음식 - 일식·회집"},{"name":"한빛영수학원","tel":"031-682-7258","addr":"경기도 평택시 포승읍 도곡리 1109번지 포승삼부르네상스2단지 209호","category":"학원 - 보습학원"},{"name":"혜화동돈까스극장(포승점)","tel":"031-000-0000","addr":"경기도 평택시 포승읍 도곡리 1109번지 포승삼부르네상스2단지 상가동 112-1호","category":"일반휴게음식 - 일반한식"},{"name":"후라이드 바삭킹(포승점)","tel":"031-683-8335","addr":"경기도 평택시 포승읍 도곡리 1109번지 포승삼부르네상스2단지 상가동 1층 113호","category":"일반휴게음식 - 스넥"},{"name":"힐링&뷰티 샵","tel":"","addr":"경기도 평택시 포승읍 도곡리 1109번지 포승삼부르네상스2단지 상가동 205호","category":"보건위생 - 화장품"}]},{"lat":"36.988352602","long":"126.8443562","items":[{"name":"3.4당구클럽","tel":"031-681-9134","addr":"경기도 평택시 포승읍 도곡리 1121-7번지","category":"레저업소 - 당 구 장"},{"name":"신안왕소금구이","tel":"031-682-4792","addr":"경기도 평택시 포승읍 도곡리 1121-7번지","category":"일반휴게음식 - 일반한식"},{"name":"총각네텔레콤포승점","tel":"031-656-3004","addr":"경기도 평택시 포승읍 도곡리 1121-7번지 1층","category":"사무통신 - 통신기기"}]},{"lat":"36.988489466","long":"126.84563643","items":[{"name":"5번가의 주얼리","tel":"031-681-1773","addr":"경기도 평택시 포승읍 도곡리 1142-12번지","category":"신변잡화 - 귀금속"},{"name":"국민부동산중개앤관리(주)","tel":"031-683-0046","addr":"경기도 평택시 포승읍 도곡리 1142-12번지 1층","category":"용역 서비스 - 부동산 중개·임대"},{"name":"베스트민 치과의원","tel":"031-686-7525","addr":"경기도 평택시 포승읍 도곡리 1142-12번지 2층","category":"의원 - 치과의원"}]},{"lat":"36.992018956","long":"126.85047065","items":[{"name":"969숯불닭갈비","tel":"031-681-2210","addr":"경기도 평택시 포승읍 도곡리 236-4번지","category":"일반휴게음식 - 일반한식"},{"name":"무리소서평택점/(주)신선에프엔씨 무리소서","tel":"031-683-5335","addr":"경기도 평택시 포승읍 도곡리 236-4번지 1동","category":"일반휴게음식 - 일반한식"},{"name":"한길쭈꾸미","tel":"031-682-8203","addr":"경기도 평택시 포승읍 도곡리 236-4번지 2동","category":"일반휴게음식 - 일반한식"}]},{"lat":"36.988821228","long":"126.85130825","items":[{"name":"BBQ치킨포승점","tel":"031-684-4750","addr":"경기도 평택시 포승읍 도곡리 1114번지 삼부르네상스1단지 상가 110호","category":"일반휴게음식 - 스넥"},{"name":"우와미용실","tel":"031-683-8557","addr":"경기도 평택시 포승읍 도곡리 1114번지 포승삼부르네상스1단지 상가동 108호","category":"보건위생 - 미용원"},{"name":"쥐케이(GK)국어교습소","tel":"","addr":"경기도 평택시 포승읍 도곡리 1114번지 포승삼부르네상스1단지 상가동 2층 205호","category":"학원 - 보습학원"}]},{"lat":"36.987383489","long":"126.84741344","items":[{"name":"D.D푸드시스템","tel":"031-682-6557","addr":"경기도 평택시 포승읍 도곡리 1150-18번지","category":"일반휴게음식 - 일반한식"},{"name":"푼푼매운갈비찜","tel":"","addr":"경기도 평택시 포승읍 도곡리 1150-18번지 1층","category":"일반휴게음식 - 일반한식"}]},{"lat":"36.986988031","long":"126.84818928","items":[{"name":"DigitalHp컴퓨터","tel":"031-686-9555","addr":"경기도 평택시 포승읍 도곡리 1153-9번지 1층","category":"사무통신 - 컴퓨터"},{"name":"SS쇼핑","tel":"031-686-9363","addr":"경기도 평택시 포승읍 도곡리 1153-9번지 201호","category":"건강식품 - 기타건강식품"},{"name":"엄마찬스","tel":"","addr":"경기도 평택시 포승읍 도곡리 1153-9번지 101호","category":"일반휴게음식 - 일반한식"}]},{"lat":"36.988993632","long":"126.84530964","items":[{"name":"FORYOUMART(포유마트)","tel":"","addr":"경기도 평택시 포승읍 도곡리 1141-7번지 1층","category":"유통업 영리 - 슈퍼마켓"}]},{"lat":"36.988801042","long":"126.86428202","items":[{"name":"GS25서평택IC점","tel":"","addr":"경기도 평택시 포승읍 도곡리 745-3번지 1층","category":"유통업 영리 - 편 의 점"},{"name":"마당한식","tel":"031-681-1366","addr":"경기도 평택시 포승읍 도곡리 745-3번지","category":"일반휴게음식 - 일반한식"}]},{"lat":"36.990271111","long":"126.84377934","items":[{"name":"GS25포승도곡원룸점","tel":"080-555-2525","addr":"경기도 평택시 포승읍 도곡리 1130-16번지 수정빌","category":"유통업 영리 - 편 의 점"}]},{"lat":"36.990755067","long":"126.84861973","items":[{"name":"I&Funny Cook (아이앤퍼니쿡)","tel":"031-684-7555","addr":"경기도 평택시 포승읍 도곡리 1109번지 포승삼부르네상스2단지 202동 1004호","category":"학원 - 기타 교육기관"},{"name":"멜로디어린이집[아이행복]","tel":"031-684-2004","addr":"경기도 평택시 포승읍 도곡리 1109번지 포승삼부르네상스2단지 202동 101호","category":"학원 - 유아원"}]},{"lat":"36.98760521","long":"126.84472842","items":[{"name":"IAM PC CAFE","tel":"","addr":"경기도 평택시 포승읍 도곡리 1122-1번지 504동 506호","category":"레저업소 - 기타레져업소"},{"name":"꿈소아청소년과의원","tel":"031-6848-1831","addr":"경기도 평택시 포승읍 도곡리 1122-1번지 304호","category":"의원 - 의원"},{"name":"도곡한의원","tel":"031-683-3785","addr":"경기도 평택시 포승읍 도곡리 1122-1번지 스타타워 3층 301호,302호","category":"의원 - 한의원"},{"name":"배스킨라빈스","tel":"031-686-5432","addr":"경기도 평택시 포승읍 도곡리 1122-1번지 111,112호","category":"음료식품 - 제과점"},{"name":"스타약국","tel":"031-684-2024","addr":"경기도 평택시 포승읍 도곡리 1122-1번지 포승스타타워 107.108호","category":"약국 - 약국"},{"name":"에스마켓평택포승점","tel":"","addr":"경기도 평택시 포승읍 도곡리 1122-1번지 113,114,115호","category":"신변잡화 - 신발"},{"name":"윤약국","tel":"031-686-7411","addr":"경기도 평택시 포승읍 도곡리 1122-1","category":"약국 - 약국"}]},{"lat":"36.983410597","long":"126.87872476","items":[{"name":"J(제이)카페갤러리","tel":"031-683-9388","addr":"경기도 평택시 포승읍 도곡리 943-32번지","category":"일반휴게음식 - 서양음식"},{"name":"덴트천재","tel":"031-683-8656","addr":"경기도 평택시 포승읍 도곡리 943-32번지","category":"자동차정비 유지 - 카인테리어"},{"name":"본가참순대","tel":"031-684-1734","addr":"경기도 평택시 포승읍 도곡리 943-32","category":"일반휴게음식 - 일반한식"},{"name":"온니리육식당","tel":"031-681-0840","addr":"경기도 평택시 포승읍 도곡리 943-32번지","category":"일반휴게음식 - 일반한식"},{"name":"청정수산","tel":"031-681-1886","addr":"경기도 평택시 포승읍 도곡리 943-32번지","category":"음료식품 - 기타음료식품"},{"name":"키폰119","tel":"031-1544-5119","addr":"경기도 평택시 포승읍 도곡리 943-32","category":"수리서비스 - 사무·통신기기수리"}]},{"lat":"36.985489912","long":"126.8684664","items":[{"name":"KB종합상사","tel":"02-1111-1111","addr":"경기도 평택시 포승읍 도곡리 842-6번지","category":"기타 - 기계공구"}]},{"lat":"36.994655239","long":"126.84749974","items":[{"name":"PC119","tel":"031-683-2502","addr":"경기도 평택시 포승읍 도곡리 210-9번지 A동 2호","category":"사무통신 - 컴퓨터"},{"name":"농수산물","tel":"031-681-7395","addr":"경기도 평택시 포승읍 도곡리 210-9번지 B동 4호","category":"음료식품 - 농·축·수산품"}]},{"lat":"36.989265723","long":"126.86100122","items":[{"name":"REC블랙박스","tel":"031-684-0627","addr":"경기도 평택시 포승읍 도곡리 705-5번지","category":"자동차정비 유지 - 자동차부품"},{"name":"삼백육십오 (365)타이어","tel":"031-682-9734","addr":"경기도 평택시 포승읍 도곡리 705-5번지 1층 5.6호","category":"자동차정비 유지 - 자동차시트·타이어"},{"name":"스팀보이 평택포승점","tel":"031-683-0333","addr":"경기도 평택시 포승읍 도곡리 705-5번지 2,3호","category":"자동차정비 유지 - 세차장"},{"name":"엔아이씨 건설","tel":"031-683-3680","addr":"경기도 평택시 포승읍 도곡리 705-5번지","category":"건축자재 - 기타건축자재"}]},{"lat":"36.986939955","long":"126.84588673","items":[{"name":"SBS부동산","tel":"031-682-2117","addr":"경기도 평택시 포승읍 도곡리 1144-10","category":"용역 서비스 - 부동산 중개·임대"},{"name":"김밥천국포승본점","tel":"031-682-2979","addr":"경기도 평택시 포승읍 도곡리 1144-10번지","category":"일반휴게음식 - 일반한식"}]},{"lat":"36.989795254","long":"126.84506087","items":[{"name":"VIP노래연습장","tel":"031-681-5999","addr":"경기도 평택시 포승읍 도곡리 1139-5번지 광덕아트빌 1층","category":"레저업소 - 노 래 방"}]},{"lat":"36.989798877","long":"126.86228077","items":[{"name":"㈜서평택총판","tel":"031-686-5430","addr":"경기도 평택시 포승읍 도곡리 138번지","category":"서비스업 - 자동차정비"}]},{"lat":"36.987049991","long":"126.84733549","items":[{"name":"가나노래연습장","tel":"031-682-9830","addr":"경기도 평택시 포승읍 도곡리 1154-3번지 1층 가나노래연습장","category":"레저업소 - 노 래 방"},{"name":"블루문","tel":"070-7734-0343","addr":"경기도 평택시 포승읍 도곡리 1154-3번지 2충 202호","category":"일반휴게음식 - 주점"}]},{"lat":"36.989712674","long":"126.84394899","items":[{"name":"가마치통닭","tel":"031-684-1237","addr":"경기도 평택시 포승읍 도곡리 1130-9번지 세경빌딩 101호","category":"일반휴게음식 - 스넥"},{"name":"엠","tel":"","addr":"경기도 평택시 포승읍 도곡리 1130-9번지 세경빌딩 2층","category":"일반휴게음식 - 일반한식"},{"name":"엠","tel":"","addr":"경기도 평택시 포승읍 도곡리 1130-9번지 세경빌딩 2층","category":"일반휴게음식 - 일반한식"}]},{"lat":"36.98690461","long":"126.84641473","items":[{"name":"가장맛있는족발","tel":"031-681-3396","addr":"경기도 평택시 포승읍 도곡리 1150-10번지","category":"일반휴게음식 - 일반한식"},{"name":"웨스트","tel":"031-111-1111","addr":"경기도 평택시 포승읍 도곡리 1150-10번지 2층","category":"일반휴게음식 - 서양음식"}]},{"lat":"36.990183042","long":"126.84530719","items":[{"name":"가전가구1번지","tel":"031-686-6755","addr":"경기도 평택시 포승읍 도곡리 1136-7번지 1층 상가 1층","category":"전기제품 - 가전제품"},{"name":"설렘","tel":"070-8966-6992","addr":"경기도 평택시 포승읍 도곡리 1136-7번지 지하아트빌 101호","category":"보건위생 - 미용원"},{"name":"포승에어컨랜드","tel":"041-352-7737","addr":"경기도 평택시 포승읍 도곡리 1136-7번지 지하아트빌 101호","category":"전기제품 - 냉열기기"}]},{"lat":"36.986771994","long":"126.8483582","items":[{"name":"갈비대장","tel":"031-683-0794","addr":"경기도 평택시 포승읍 도곡리 1153-7번지","category":"일반휴게음식 - 일반한식"},{"name":"갈비대장","tel":"031-686-7533","addr":"경기도 평택시 포승읍 도곡리 1153-7번지","category":"음식점 - 한식"}]},{"lat":"36.988104344","long":"126.84741197","items":[{"name":"감성커피(평택도곡초점)","tel":"031-682-4226","addr":"경기도 평택시 포승읍 도곡리 1152-13번지 1층 2호","category":"일반휴게음식 - 서양음식"}]},{"lat":"36.989877809","long":"126.84616152","items":[{"name":"강남동태찜탕","tel":"031-683-1470","addr":"경기도 평택시 포승읍 도곡리 1138-18번지","category":"일반휴게음식 - 일반한식"},{"name":"강남동태찜탕","tel":"","addr":"경기도 평택시 포승읍 도곡리 1138-18번지","category":"음식점 - 한식"},{"name":"샨티요가(SHANTI YOGA)","tel":"","addr":"경기도 평택시 포승읍 도곡리 1138-18번지 경인빌딩 2층","category":"레저업소 - 헬스클럽"}]},{"lat":"36.989517426","long":"126.84619595","items":[{"name":"개공감카페","tel":"031-684-2245","addr":"경기도 평택시 포승읍 도곡리 1138-5번지","category":"일반휴게음식 - 서양음식"},{"name":"개공감카페","tel":"031-684-8678","addr":"경기도 평택시 포승읍 도곡리 1138-5번지","category":"음식점 - 애견카페"}]},{"lat":"36.989071149","long":"126.8426361","items":[{"name":"경기상회","tel":"","addr":"경기도 평택시 포승읍 도곡리 1118-6번지 라온디앤씨 1층 101,102,103호","category":"일반휴게음식 - 일반한식"},{"name":"카페멍","tel":"","addr":"경기도 평택시 포승읍 도곡리 1118-6번지 5층 라온디앤씨","category":"일반휴게음식 - 서양음식"}]},{"lat":"36.988154395","long":"126.8661141","items":[{"name":"경인천막기업","tel":"031-684-5952","addr":"경기도 평택시 포승읍 도곡리 745-1 2","category":"건축자재 - 기타건축자재"},{"name":"마린슈퍼로또","tel":"031-684-8283","addr":"경기도 평택시 포승읍 도곡리 745-1번지 745동 1호","category":"유통업 영리 - 슈퍼마켓"},{"name":"모터스라인","tel":"031-682-4400","addr":"경기도 평택시 포승읍 도곡리 745-1번지 A동 4,5,6호","category":"자동차정비 유지 - 자동차부품"},{"name":"민이네식당","tel":"031-684-3337","addr":"경기도 평택시 포승읍 도곡리 745-1번지 B동 6호","category":"일반휴게음식 - 일반한식"},{"name":"서평택밧데리","tel":"031-683-0006","addr":"경기도 평택시 포승읍 도곡리 745-1번지","category":"자동차정비 유지 - 자동차부품"},{"name":"애니카랜드포승점","tel":"","addr":"경기도 평택시 포승읍 도곡리 745-1번지","category":"서비스업 - 자동차정비"},{"name":"얼큰이뼈해장국","tel":"031-682-7282","addr":"경기도 평택시 포승읍 도곡리 745-1번지","category":"일반휴게음식 - 일반한식"},{"name":"유니온기획개발","tel":"031-681-2741","addr":"경기도 평택시 포승읍 도곡리 745-1번지","category":"건축자재 - 유리"}]},{"lat":"36.98568232","long":"126.87130781","items":[{"name":"경포식당","tel":"031-684-2224","addr":"경기도 평택시 포승읍 도곡리 900번지","category":"일반휴게음식 - 일반한식"}]},{"lat":"36.98884846","long":"126.84455735","items":[{"name":"계양동태탕.동태찜","tel":"031-686-8488","addr":"경기도 평택시 포승읍 도곡리 1143-6번지","category":"일반휴게음식 - 일반한식"}]},{"lat":"36.982798736","long":"126.87955691","items":[{"name":"고구려","tel":"031-686-5453","addr":"경기도 평택시 포승읍 도곡리 942-7번지","category":"음식점 - 한식"},{"name":"고구려","tel":"031-681-6979","addr":"경기도 평택시 포승읍 도곡리 942-7번지","category":"일반휴게음식 - 일반한식"}]},{"lat":"36.987211815","long":"126.84705435","items":[{"name":"고기구워야될판","tel":"031-681-0073","addr":"경기도 평택시 포승읍 도곡리 1150-15번지","category":"일반휴게음식 - 일반한식"}]},{"lat":"36.990156739","long":"126.84585766","items":[{"name":"고기일번지","tel":"031-684-7202","addr":"경기도 평택시 포승읍 도곡리 1138-1번지 신포승빌딩 105호","category":"일반휴게음식 - 일반한식"},{"name":"까까머리","tel":"031-682-0306","addr":"경기도 평택시 포승읍 도곡리 1138-1번지 신포승빌딩 101호","category":"보건위생 - 미용원"},{"name":"비바탁구클럽","tel":"031-684-4331","addr":"경기도 평택시 포승읍 도곡리 1138-1번지 신포승빌딩 401호","category":"레저업소 - 기타레져업소"},{"name":"생생돈까스평택포승점","tel":"031-684-1171","addr":"경기도 평택시 포승읍 도곡리 1138-1번지 신포승빌딩 103호","category":"일반휴게음식 - 일반한식"},{"name":"어드밴스제2학원","tel":"031-686-8603","addr":"경기도 평택시 포승읍 도곡리 1138-1번지 신포승빌딩 201호","category":"학원 - 기타 교육기관"},{"name":"차이나타운 당구클럽","tel":"","addr":"경기도 평택시 포승읍 도곡리 1138-1번지 신포승빌딩 402호","category":"레저업소 - 당 구 장"},{"name":"챔피온 인테리어","tel":"031-683-8707","addr":"경기도 평택시 포승읍 도곡리 1138-1번지 신포승빌딩 1층 101-1호","category":"건축자재 - 인테리어전문"},{"name":"크린토피아 코인워시 평택포승점","tel":"031-681-5289","addr":"경기도 평택시 포승읍 도곡리 1138-1번지 신포승빌딩 107호","category":"수리서비스 - 세탁소"},{"name":"한양대청록태권도스쿨","tel":"031-681-5803","addr":"경기도 평택시 포승읍 도곡리 1138-1번지 신포승빌딩 301호","category":"학원 - 예·체능계학원"}]},{"lat":"36.990270696","long":"126.85032811","items":[{"name":"고려e포승학원","tel":"031-684-7888","addr":"경기도 평택시 포승읍 도곡리 1113번지 모아미래도1차 202호","category":"학원 - 보습학원"},{"name":"나래인테리어","tel":"031-683-7688","addr":"경기도 평택시 포승읍 도곡리 1113번지 모아미래도1차 상가동 108호","category":"건축자재 - 인테리어전문"},{"name":"머꼬갈까?","tel":"031-686-5781","addr":"경기도 평택시 포승읍 도곡리 1113번지 모아미래도1차 상가 1층 109호","category":"일반휴게음식 - 일반한식"},{"name":"모아할인마트","tel":"031-684-8246","addr":"경기도 평택시 포승읍 도곡리 1113번지 101 (모아(아)단지)","category":"유통업 영리 - 슈퍼마켓"},{"name":"이정숙의 예쁜머리방","tel":"031-686-6865","addr":"경기도 평택시 포승읍 도곡리 1113번지 모아1단지 상가 105호","category":"보건위생 - 미용원"},{"name":"임금님수라상반찬","tel":"070-8878-5824","addr":"경기도 평택시 포승읍 도곡리 1113번지 모아미래도1차 상가동 106호","category":"음료식품 - 기타음료식품"},{"name":"처갓집양념치킨 포승점","tel":"031-682-6564","addr":"경기도 평택시 포승읍 도곡리 1113번지 모아미래도1차 상가동 106호","category":"일반휴게음식 - 스넥"}]},{"lat":"36.982996128","long":"126.8787479","items":[{"name":"고쳐드림모터스","tel":"","addr":"경기도 평택시 포승읍 도곡리 942번지","category":"자동차정비 유지 - 자동차정비"}]},{"lat":"36.986932528","long":"126.84708861","items":[{"name":"고향아구찜","tel":"031-683-4009","addr":"경기도 평택시 포승읍 도곡리 1154-5번지","category":"일반휴게음식 - 일반한식"}]},{"lat":"36.987544634","long":"126.8466156","items":[{"name":"곱창고 포승공단점","tel":"031-683-9293","addr":"경기도 평택시 포승읍 도곡리 1148번지 1동4,5호","category":"일반휴게음식 - 일반한식"},{"name":"아리나","tel":"031-681-1963","addr":"경기도 평택시 포승읍 도곡리 1148번지 1층 102호","category":"일반휴게음식 - 서양음식"},{"name":"인생포차","tel":"031-684-3415","addr":"경기도 평택시 포승읍 도곡리 1148번지 1동 1호","category":"일반휴게음식 - 일반한식"},{"name":"전주현대옥포승점","tel":"031-684-1528","addr":"경기도 평택시 포승읍 도곡리 1148번지 2동","category":"일반휴게음식 - 일반한식"},{"name":"타타(TATA)","tel":"031-111-1111","addr":"경기도 평택시 포승읍 도곡리 1148번지 2동 1,2호","category":"일반휴게음식 - 일반한식"},{"name":"핫오리","tel":"031-682-8678","addr":"경기도 평택시 포승읍 도곡리 1148번지 1동 3호","category":"일반휴게음식 - 일반한식"}]},{"lat":"36.986598143","long":"126.84633673","items":[{"name":"곱창명가","tel":"031-681-8592","addr":"경기도 평택시 포승읍 도곡리 1156-12번지","category":"일반휴게음식 - 일반한식"},{"name":"품앗이","tel":"031-684-2400","addr":"경기도 평택시 포승읍 도곡리 1156-12번지","category":"일반휴게음식 - 일반한식"},{"name":"하나컴퓨터","tel":"031-681-4020","addr":"경기도 평택시 포승읍 도곡리 1156-12번지 (금강)","category":"사무통신 - 컴퓨터"}]},{"lat":"36.989799294","long":"126.84136526","items":[{"name":"곱창파이터포승점","tel":"","addr":"경기도 평택시 포승읍 도곡리 1117-11번지 1층 평택스마트빌로레 122호","category":"일반휴게음식 - 일반한식"},{"name":"나카스야시장 평택포승점","tel":"031-682-1731","addr":"경기도 평택시 포승읍 도곡리 1117-11번지 평택스마트빌포레 1층 121호","category":"일반휴게음식 - 일반한식"},{"name":"또치분식","tel":"031-684-8762","addr":"경기도 평택시 포승읍 도곡리 1117-11번지 118호","category":"일반휴게음식 - 일반한식"},{"name":"만랩커피 평택포승점","tel":"031-647-6225","addr":"경기도 평택시 포승읍 도곡리 1117-11번지 평택스마트빌포레 105호","category":"일반휴게음식 - 서양음식"},{"name":"오늘도 예쁨","tel":"","addr":"경기도 평택시 포승읍 도곡리 1117-11번지 111호","category":"보건위생 - 피부미용실"},{"name":"콩꽃마을","tel":"031-8029-9955","addr":"경기도 평택시 포승읍 도곡리 1117-11번지 평택스마트빌포레 1층 120호","category":"일반휴게음식 - 일반한식"}]},{"lat":"36.992209946","long":"126.85910857","items":[{"name":"공감","tel":"031-686-6757","addr":"경기도 평택시 포승읍 도곡리 148-3번지 2층","category":"일반휴게음식 - 서양음식"},{"name":"서평택 골프클럽","tel":"031-681-0077","addr":"경기도 평택시 포승읍 도곡리 148-3번지","category":"레저업소 - 골프연습장"},{"name":"서평택골프샵","tel":"031-686-5568","addr":"경기도 평택시 포승읍 도곡리 148-3번지 1층","category":"레져용품 - 골프용품 전문점"},{"name":"서평택골프클럽","tel":"031-681-0077","addr":"경기도 평택시 포승읍 도곡리 148-3번지","category":"레저업소 - 골프경기장"},{"name":"진스크린골프","tel":"","addr":"경기도 평택시 포승읍 도곡리 148-3번지 2층 서평택골프클럽","category":"레저업소 - 스크린골프"}]},{"lat":"36.988270243","long":"126.84341283","items":[{"name":"공공칠","tel":"031-111-1111","addr":"경기도 평택시 포승읍 도곡리 1120-8번지 301호","category":"보건위생 - 화장품"},{"name":"디와이짐(DYGYM)","tel":"031-686-5321","addr":"경기도 평택시 포승읍 도곡리 1120-8번지 202호","category":"레저업소 - 헬스클럽"},{"name":"에이원기구필라테스","tel":"031-682-0602","addr":"경기도 평택시 포승읍 도곡리 1120-8번지 3층 302호","category":"레저업소 - 헬스클럽"}]},{"lat":"36.990631568","long":"126.84380105","items":[{"name":"공단귀뚜라미설비","tel":"031-683-8441","addr":"경기도 평택시 포승읍 도곡리 1132-9","category":"건축자재 - 보일러·펌프·샷시"},{"name":"노웨어(Nowhere)","tel":"070-5022-4846","addr":"경기도 평택시 포승읍 도곡리 1132-9번지","category":"보건위생 - 미용원"},{"name":"앵그리라이온 게임즈(Angry Lion Games)","tel":"031-111-1111","addr":"경기도 평택시 포승읍 도곡리 1132-9번지 조여빌딩 1층 103-1호","category":"서적문구 - 완구점"},{"name":"주식회사 글로벌서비스","tel":"031-683-4648","addr":"경기도 평택시 포승읍 도곡리 1132-9번지 조여빌딩 102호","category":"의류 - 정장"}]},{"lat":"36.986741943","long":"126.84605562","items":[{"name":"공단노래연습장","tel":"031-682-0820","addr":"경기도 평택시 포승읍 도곡리 1144-12번지 2층","category":"레저업소 - 노 래 방"}]},{"lat":"36.986210386","long":"126.86041158","items":[{"name":"공단매점","tel":"031-682-6907","addr":"경기도 평택시 포승읍 도곡리 1204번지 1층","category":"유통업 영리 - 슈퍼마켓"}]},{"lat":"36.989684451","long":"126.84306166","items":[{"name":"공단스크린골프존","tel":"031-684-7123","addr":"경기도 평택시 포승읍 도곡리 1117-6번지","category":"레저업소 - 스크린골프"}]},{"lat":"36.987350564","long":"126.84297668","items":[{"name":"곽만근갈비탕 평택점","tel":"031-681-8525","addr":"경기도 평택시 포승읍 도곡리 1119-6번지","category":"일반휴게음식 - 일반한식"}]},{"lat":"36.988742433","long":"126.84614138","items":[{"name":"교촌치킨 포승1호점","tel":"031-684-5552","addr":"경기도 평택시 포승읍 도곡리 1142-16번지","category":"일반휴게음식 - 스넥"},{"name":"교촌치킨 포승1호점","tel":"031-682-7445","addr":"경기도 평택시 포승읍 도곡리 1142-16번지 1층","category":"음식점 - 치킨"}]},{"lat":"36.989578325","long":"126.84455584","items":[{"name":"구이촌","tel":"031-681-9258","addr":"경기도 평택시 포승읍 도곡리 1139-9번지","category":"일반휴게음식 - 일반한식"}]},{"lat":"36.982852674","long":"126.87105435","items":[{"name":"국보테크","tel":"031-285-6245","addr":"경기도 평택시 포승읍 도곡리 863-3번지","category":"신변잡화 - 기타잡화"}]},{"lat":"36.986211452","long":"126.8469216","items":[{"name":"굴리스탄(GULISTAN)","tel":"070-7721-4824","addr":"경기도 평택시 포승읍 도곡리 1155-10번지 1층","category":"일반휴게음식 - 일반한식"}]},{"lat":"36.987266073","long":"126.86161148","items":[{"name":"굿모닝천막산업","tel":"031-681-0481","addr":"경기도 평택시 포승읍 도곡리 717-1번지 201호","category":"직물 - 카페트,커튼,천막,지물"}]},{"lat":"36.988156189","long":"126.84572698","items":[{"name":"궁","tel":"031-681-7188","addr":"경기도 평택시 포승읍 도곡리 1145-8번지 202호","category":"신변잡화 - 신발"},{"name":"피쉬앤그릴 포승점","tel":"031-682-2186","addr":"경기도 평택시 포승읍 도곡리 1145-8번지","category":"일반휴게음식 - 주점"}]},{"lat":"36.989604652","long":"126.84402785","items":[{"name":"귀족건강관리샵","tel":"031-683-9868","addr":"경기도 평택시 포승읍 도곡리 1130-10번지 성훈빌딩 201호","category":"보건위생 - 피부미용실"},{"name":"옷수선(크린위드)","tel":"031-682-1018","addr":"경기도 평택시 포승읍 도곡리 1130-10번지 성훈빌딩 1층","category":"수리서비스 - 세탁소"},{"name":"해피마트","tel":"031-616-5782","addr":"경기도 평택시 포승읍 도곡리 1130-10번지 성훈빌딩 101호","category":"유통업 영리 - 슈퍼마켓"}]},{"lat":"36.990597354","long":"126.84517154","items":[{"name":"그라찌아","tel":"031-682-0986","addr":"경기도 평택시 포승읍 도곡리 1133-18번지 광원빌 101호","category":"보건위생 - 미용원"}]},{"lat":"36.990379134","long":"126.84370048","items":[{"name":"그랜드아시아/(주)글로벌서비스 도곡지점","tel":"031-683-4648","addr":"경기도 평택시 포승읍 도곡리 1130-17번지 태성빌","category":"일반휴게음식 - 서양음식"}]},{"lat":"36.985740857","long":"126.86727534","items":[{"name":"그린산업","tel":"031-684-0556","addr":"경기도 평택시 포승읍 도곡리 837번지","category":"기타 - 기계공구"},{"name":"와이드렌트카","tel":"031-444-4321","addr":"경기도 평택시 포승읍 도곡리 837번지","category":"여행 - 렌터카"}]},{"lat":"36.98630079","long":"126.84633734","items":[{"name":"금자싸롱","tel":"031-681-9972","addr":"경기도 평택시 포승읍 도곡리 1156-3번지","category":"일반휴게음식 - 일반한식"}]},{"lat":"36.987050828","long":"126.84797573","items":[{"name":"기승FA","tel":"031-684-4445","addr":"경기도 평택시 포승읍 도곡리 1153-3","category":"기타 - 기계공구"}]},{"lat":"36.985272503","long":"126.84553073","items":[{"name":"기와집 보쌈","tel":"031-683-5382","addr":"경기도 평택시 포승읍 도곡리 1126-6번지 102호","category":"일반휴게음식 - 일반한식"},{"name":"럭키마트","tel":"070-8201-5924","addr":"경기도 평택시 포승읍 도곡리 1126-6번지 1층","category":"유통업 영리 - 슈퍼마켓"},{"name":"올레당구장","tel":"03-684-1330","addr":"경기도 평택시 포승읍 도곡리 1126-6번지","category":"레저업소 - 당 구 장"},{"name":"통돼지볶음찌개전문점","tel":"031-686-7737","addr":"경기도 평택시 포승읍 도곡리 1126-6","category":"일반휴게음식 - 일반한식"}]},{"lat":"36.982879423","long":"126.87916366","items":[{"name":"기천농산","tel":"031-682-5567","addr":"경기도 평택시 포승읍 도곡리 942-1번지","category":"음료식품 - 정육점"},{"name":"도곡고기굼터","tel":"031-686-9077","addr":"경기도 평택시 포승읍 도곡리 942-1번지","category":"일반휴게음식 - 일반한식"},{"name":"도곡고기굼터","tel":"031-682-8253","addr":"경기도 평택시 포승읍 도곡리 942-1번지","category":"음식점 - 한식"}]},{"lat":"36.984992097","long":"126.8447226","items":[{"name":"길림성","tel":"031-681-1888","addr":"경기도 평택시 포승읍 도곡리 1126-3번지 포승프라자 105~107호","category":"일반휴게음식 - 중국식"},{"name":"더(The)소소떡볶이","tel":"031-683-8864","addr":"경기도 평택시 포승읍 도곡리 1126-3번지 포승프라자 114호","category":"일반휴게음식 - 스넥"},{"name":"리얼야구존 포승점","tel":"031-684-4448","addr":"경기도 평택시 포승읍 도곡리 1126-3번지 포승프라자 302호","category":"레저업소 - 기타레져업소"},{"name":"마린볼링센터","tel":"031-684-0977","addr":"경기도 평택시 포승읍 도곡리 1126-3번지 401호,402호,403호","category":"레저업소 - 볼 링 장"},{"name":"스마트데이터복구SDR평택 하늘정보","tel":"031-681-0776","addr":"경기도 평택시 포승읍 도곡리 1126-3번지 포승프라자 111호","category":"용역 서비스 - 사무서비스"},{"name":"스파렉스식당","tel":"031-683-2337","addr":"경기도 평택시 포승읍 도곡리 1126-3번지 포승프라자","category":"일반휴게음식 - 일반한식"},{"name":"씨유포승프라자점","tel":"031-682-6246","addr":"경기도 평택시 포승읍 도곡리 1126-3번지 포승프라자 108호","category":"유통업 영리 - 편 의 점"},{"name":"아름다운치과","tel":"031-681-8275","addr":"경기도 평택시 포승읍 도곡리 1126-3","category":"의원 - 치과의원"},{"name":"에스텍틱관리실","tel":"031-4466-2984","addr":"경기도 평택시 포승읍 도곡리 1126-3번지 포승프라자 5층","category":"보건위생 - 피부미용실"},{"name":"원할머니보쌈족발평택포승배달점","tel":"031-000-0000","addr":"경기도 평택시 포승읍 도곡리 1126-3번지 포승프라자 1층 111호","category":"일반휴게음식 - 일반한식"},{"name":"전통불한증막스파렉스사우나","tel":"031-683-2337","addr":"경기도 평택시 포승읍 도곡리 1126-3번지 포승프라자 5,6층","category":"보건위생 - 사우나"},{"name":"티버즈카페","tel":"070-8756-6010","addr":"경기도 평택시 포승읍 도곡리 1126-3번지 포승프라자 113호","category":"일반휴게음식 - 일반한식"},{"name":"포승스파렉스매점","tel":"070-7571-5980","addr":"경기도 평택시 포승읍 도곡리 1126-3번지 포승프라자","category":"음료식품 - 기타음료식품"},{"name":"포승프라자","tel":"031-683-2320","addr":"경기도 평택시 포승읍 도곡리 1126-3번지","category":"일반휴게음식 - 스넥"},{"name":"효성한식부페","tel":"031-684-4545","addr":"경기도 평택시 포승읍 도곡리 1126-3번지 포승프라자 102,103,104","category":"일반휴게음식 - 일반한식"}]},{"lat":"36.994097663","long":"126.84833215","items":[{"name":"길벗","tel":"031-681-3456","addr":"경기도 평택시 포승읍 도곡리 251번지","category":"음식점 - 호프"},{"name":"자전거,컴퓨터지킴이","tel":"031-681-5854","addr":"경기도 평택시 포승읍 도곡리 251번지","category":"사무통신 - 컴퓨터"},{"name":"포승중고가전랜드","tel":"","addr":"경기도 평택시 포승읍 도곡리 251번지","category":"전기제품 - 가전제품"}]},{"lat":"36.988272583","long":"126.84516511","items":[{"name":"김가네칼국수","tel":"031-684-7008","addr":"경기도 평택시 포승읍 도곡리 1143-13번지 1층","category":"일반휴게음식 - 일반한식"},{"name":"봉구스밥버거 포승점","tel":"031-683-4677","addr":"경기도 평택시 포승읍 도곡리 1143-13번지","category":"음식점 - 밥버거"},{"name":"봉구스밥버거 포승점","tel":"031-684-0954","addr":"경기도 평택시 포승읍 도곡리 1143-13번지 1층","category":"일반휴게음식 - 일반한식"},{"name":"세이","tel":"070-8951-7499","addr":"경기도 평택시 포승읍 도곡리 1143-13번지","category":"일반휴게음식 - 주점"}]},{"lat":"36.987104202","long":"126.8474477","items":[{"name":"김명자낙지마당포승점","tel":"031-683-8887","addr":"경기도 평택시 포승읍 도곡리 1154-2","category":"일반휴게음식 - 일반한식"}]},{"lat":"36.989847714","long":"126.84385885","items":[{"name":"김밥세상","tel":"031-684-9106","addr":"경기도 평택시 포승읍 도곡리 1130-8번지","category":"일반휴게음식 - 스넥"},{"name":"세탁왕","tel":"031-682-4408","addr":"경기도 평택시 포승읍 도곡리 1130-8","category":"수리서비스 - 세탁소"},{"name":"포승아로마샵","tel":"031-682-4495","addr":"경기도 평택시 포승읍 도곡리 1130-8번지","category":"보건위생 - 화장품"}]},{"lat":"36.989655917","long":"126.84194967","items":[{"name":"김치부대","tel":"031-681-0543","addr":"경기도 평택시 포승읍 도곡리 1118-3번지","category":"일반휴게음식 - 일반한식"}]},{"lat":"36.989792942","long":"126.84333102","items":[{"name":"김해뒷고기","tel":"031-681-5139","addr":"경기도 평택시 포승읍 도곡리 1117-3번지","category":"일반휴게음식 - 일반한식"},{"name":"김해뒷고기","tel":"031-683-4500","addr":"경기도 평택시 포승읍 도곡리 1117-3번지","category":"음식점 - 한식"},{"name":"네모광고기획","tel":"031-686-5506","addr":"경기도 평택시 포승읍 도곡리 1117-3","category":"건축자재 - 인테리어전문"},{"name":"이부자감자탕","tel":"031-684-0065","addr":"경기도 평택시 포승읍 도곡리 1117-3","category":"일반휴게음식 - 일반한식"}]},{"lat":"36.990237255","long":"126.84541941","items":[{"name":"까투리포승점","tel":"031-683-5688","addr":"경기도 평택시 포승읍 도곡리 1136-8번지 1층","category":"일반휴게음식 - 주점"}]},{"lat":"36.988073496","long":"126.84452526","items":[{"name":"꺼멍도야지","tel":"031-503-8018","addr":"경기도 평택시 포승읍 도곡리 1121-6번지","category":"일반휴게음식 - 일반한식"},{"name":"신촌칼국수&칡냉면","tel":"031-683-4881","addr":"경기도 평택시 포승읍 도곡리 1121-6번지 2호","category":"일반휴게음식 - 일반한식"},{"name":"이마트24 포승삼부점","tel":"","addr":"경기도 평택시 포승읍 도곡리 1121-6번지 1층 101호","category":"유통업 영리 - 편 의 점"},{"name":"전자담배","tel":"031-8059-6325","addr":"경기도 평택시 포승읍 도곡리 1121-6번지 111호","category":"기타 - 기타 전문점"},{"name":"홍가불타는 닭갈비","tel":"031-682-9278","addr":"경기도 평택시 포승읍 도곡리 1121-6번지 3,4호","category":"일반휴게음식 - 일반한식"}]},{"lat":"36.98768744","long":"126.84558192","items":[{"name":"꽃일다헤어","tel":"031-683-0324","addr":"경기도 평택시 포승읍 도곡리 1144-21번지","category":"보건위생 - 미용원"},{"name":"백옥세탁소","tel":"031-684-8026","addr":"경기도 평택시 포승읍 도곡리 1144-21번지","category":"수리서비스 - 세탁소"}]},{"lat":"36.986515649","long":"126.84528106","items":[{"name":"꿀단지","tel":"031-682-5003","addr":"경기도 평택시 포승읍 도곡리 1122-4번지 103호","category":"일반휴게음식 - 주점"}]},{"lat":"36.984738052","long":"126.87299425","items":[{"name":"꿀이랑양이","tel":"031-684-3921","addr":"경기도 평택시 포승읍 도곡리 895-3번지","category":"일반휴게음식 - 일반한식"},{"name":"다온","tel":"031-682-9486","addr":"경기도 평택시 포승읍 도곡리 895-3번지","category":"일반휴게음식 - 일반한식"},{"name":"달님유통","tel":"031-681-7877","addr":"경기도 평택시 포승읍 도곡리 895-3번지 102호","category":"보건위생 - 화장품"},{"name":"바나나다방호프","tel":"070-8615-8166","addr":"경기도 평택시 포승읍 도곡리 895-3번지","category":"일반휴게음식 - 서양음식"},{"name":"한그릇뚝딱","tel":"031-681-2824","addr":"경기도 평택시 포승읍 도곡리 895-3번지","category":"일반휴게음식 - 일반한식"}]},{"lat":"36.988239948","long":"126.86221624","items":[{"name":"나주곰탕","tel":"031-684-9209","addr":"경기도 평택시 포승읍 도곡리 711-21번지","category":"일반휴게음식 - 일반한식"}]},{"lat":"36.989298589","long":"126.84425314","items":[{"name":"남백정500g한판","tel":"031-686-7865","addr":"경기도 평택시 포승읍 도곡리 1143-2번지 1층","category":"일반휴게음식 - 일반한식"}]},{"lat":"36.986797028","long":"126.84683055","items":[{"name":"낭만곱창","tel":"031-686-9282","addr":"경기도 평택시 포승읍 도곡리 1154-7번지","category":"일반휴게음식 - 일반한식"}]},{"lat":"36.987047979","long":"126.84580788","items":[{"name":"넘버파이브","tel":"031-683-0515","addr":"경기도 평택시 포승읍 도곡리 1144-9번지 2층","category":"일반휴게음식 - 주점"},{"name":"더페이스샵 포승점","tel":"031-683-3045","addr":"경기도 평택시 포승읍 도곡리 1144-9번지 101호","category":"보건위생 - 화장품"},{"name":"럭스헤어","tel":"","addr":"경기도 평택시 포승읍 도곡리 1144-9번지 1층 102호","category":"보건위생 - 미용원"}]},{"lat":"36.990516988","long":"126.84572212","items":[{"name":"네네치킨포승점","tel":"031-686-9799","addr":"경기도 평택시 포승읍 도곡리 1137-11번지 1층","category":"일반휴게음식 - 서양음식"}]},{"lat":"36.986798338","long":"126.84783022","items":[{"name":"네일클리닉","tel":"031-5868-6888","addr":"경기도 평택시 포승읍 도곡리 1155-1번지","category":"보건위생 - 피부미용실"}]},{"lat":"36.985911665","long":"126.84508012","items":[{"name":"노걸대감자탕&짜글이","tel":"031-684-3330","addr":"경기도 평택시 포승읍 도곡리 1125-4번지","category":"일반휴게음식 - 일반한식"},{"name":"주박사네왕족발보쌈","tel":"031-686-7042","addr":"경기도 평택시 포승읍 도곡리 1125-4번지","category":"일반휴게음식 - 일반한식"}]},{"lat":"36.988460145","long":"126.8439179","items":[{"name":"노리파크","tel":"031-618-1192","addr":"경기도 평택시 포승읍 도곡리 1121-3번지 3층","category":"음식점 - 키즈카페"},{"name":"노리파크","tel":"031-682-1715","addr":"경기도 평택시 포승읍 도곡리 1121-3번지","category":"일반휴게음식 - 일반한식"},{"name":"다이소 포승점","tel":"031-681-9749","addr":"경기도 평택시 포승읍 도곡리 1121-3번지 102호","category":"신변잡화 - 기타잡화"},{"name":"드림당구타운","tel":"031-682-3979","addr":"경기도 평택시 포승읍 도곡리 1121-3번지 2층","category":"레저업소 - 당 구 장"}]},{"lat":"36.988712188","long":"126.84372642","items":[{"name":"노블실내골프연습장","tel":"070-4122-9666","addr":"경기도 평택시 포승읍 도곡리 1121-2번지 카라타워 6층","category":"레저업소 - 골프연습장"},{"name":"노블휘트니스","tel":"031-684-9905","addr":"경기도 평택시 포승읍 도곡리 1121-2번지 카라타워 7층","category":"레저업소 - 헬스클럽"},{"name":"대박집무한리필","tel":"031-681-6849","addr":"경기도 평택시 포승읍 도곡리 1121-2번지 103,104호","category":"일반휴게음식 - 일반한식"},{"name":"드림당구클럽","tel":"031-681-5945","addr":"경기도 평택시 포승읍 도곡리 1121-2번지","category":"레저업소 - 당 구 장"},{"name":"로비스트","tel":"031-681-2824","addr":"경기도 평택시 포승읍 도곡리 1121-2번지 카라타워 202호","category":"일반휴게음식 - 주점"},{"name":"와포","tel":"031-684-5858","addr":"경기도 평택시 포승읍 도곡리 1121-2번지 카라타워 4층 401, 404호","category":"보건위생 - 화장품"},{"name":"홍대치킨떡볶이","tel":"031-682-2001","addr":"경기도 평택시 포승읍 도곡리 1121-2번지 카라타워 101호","category":"일반휴게음식 - 스넥"}]},{"lat":"36.989405377","long":"126.8432532","items":[{"name":"놀러와","tel":"","addr":"경기도 평택시 포승읍 도곡리 1117-5번지 태영프라자 104,105,106호","category":"일반휴게음식 - 주점"},{"name":"니하오","tel":"031-683-7544","addr":"경기도 평택시 포승읍 도곡리 1117-5번지 204호","category":"보건위생 - 화장품"},{"name":"반값소","tel":"031-684-9222","addr":"경기도 평택시 포승읍 도곡리 1117-5번지 태영프라자 101,102,103호","category":"일반휴게음식 - 일반한식"},{"name":"반값소","tel":"031-684-9222","addr":"경기도 평택시 포승읍 도곡리 1117-5번지 태영프라자 101,102,103호","category":"일반휴게음식 - 일반한식"},{"name":"오렌지당구클럽","tel":"031-684-7549","addr":"경기도 평택시 포승읍 도곡리 1117-5번지 태영프라자 3층 301호 301호~303호","category":"레저업소 - 당 구 장"},{"name":"짝태이야기","tel":"","addr":"경기도 평택시 포승읍 도곡리 1117-5번지","category":"일반휴게음식 - 일반한식"},{"name":"천년","tel":"031-691-1979","addr":"경기도 평택시 포승읍 도곡리 1117-5번지 태영프라자 3층 304호","category":"기타 - 기계공구"},{"name":"크라우드 PC 포승2호","tel":"070-9228-3921","addr":"경기도 평택시 포승읍 도곡리 1117-5번지 태영프라자 4층 401 ,403,404호","category":"레저업소 - 기타레져업소"}]},{"lat":"36.987130542","long":"126.84691972","items":[{"name":"누구나홀닭반한닭 (포승점)","tel":"031-683-2285","addr":"경기도 평택시 포승읍 도곡리 1150-14번지 1층 101호","category":"일반휴게음식 - 스넥"}]},{"lat":"36.990187806","long":"126.84213951","items":[{"name":"누나네식당","tel":"031-684-5150","addr":"경기도 평택시 포승읍 도곡리 1117-8번지","category":"일반휴게음식 - 일반한식"},{"name":"채움양꼬치","tel":"031-686-6208","addr":"경기도 평택시 포승읍 도곡리 1117-8번지 101호","category":"일반휴게음식 - 중국식"},{"name":"희곡농원","tel":"031-686-6969","addr":"경기도 평택시 포승읍 도곡리 1117-8번지","category":"일반휴게음식 - 일반한식"}]},{"lat":"36.984271375","long":"126.87472477","items":[{"name":"늘푸른자동차공업사","tel":"031-682-8397","addr":"경기도 평택시 포승읍 도곡리 884-1번지","category":"서비스업 - 자동차정비"},{"name":"늘푸른자동차공업사","tel":"031-683-8813","addr":"경기도 평택시 포승읍 도곡리 884-1","category":"자동차정비 유지 - 자동차정비"},{"name":"삼성라디에터","tel":"031-686-8077","addr":"경기도 평택시 포승읍 도곡리 884-1번지 에이동 비동","category":"전기제품 - 냉열기기"}]},{"lat":"36.988217082","long":"126.84408689","items":[{"name":"다래","tel":"031-686-5151","addr":"경기도 평택시 포승읍 도곡리 1121-4번지","category":"음식점 - 한식"},{"name":"다래와흑돈","tel":"031-686-8820","addr":"경기도 평택시 포승읍 도곡리 1121-4번지","category":"일반휴게음식 - 일반한식"}]},{"lat":"36.984988708","long":"126.87149995","items":[{"name":"다우종합안전사","tel":"031-681-2542","addr":"경기도 평택시 포승읍 도곡리 897-2번지","category":"기타 - 기계공구"},{"name":"서평택계량소","tel":"031-682-5194","addr":"경기도 평택시 포승읍 도곡리 897-2","category":"용역 서비스 - 사무서비스"}]},{"lat":"36.988955267","long":"126.85043183","items":[{"name":"다원냉동","tel":"031-682-4579","addr":"경기도 평택시 포승읍 도곡리 1114번지 포승삼부르네상스1단지 106동 10층 1006호","category":"기타 - 기계공구"}]},{"lat":"36.987966921","long":"126.84569367","items":[{"name":"달봉감자(포승점)","tel":"031-681-0438","addr":"경기도 평택시 포승읍 도곡리 1145-10번지","category":"일반휴게음식 - 일반한식"},{"name":"윤스튜디오(Yun studio)","tel":"","addr":"경기도 평택시 포승읍 도곡리 1145-10번지","category":"전기제품 - 가전제품"}]},{"lat":"36.984155094","long":"126.87552243","items":[{"name":"대경종합상사","tel":"031-683-0909","addr":"경기도 평택시 포승읍 도곡리 936-2번지","category":"회원제형태 - 기타4"}]},{"lat":"36.987048677","long":"126.84633581","items":[{"name":"대동집","tel":"","addr":"경기도 평택시 포승읍 도곡리 1150-9번지 골든빌딩","category":"일반휴게음식 - 일반한식"}]},{"lat":"36.988741109","long":"126.84514168","items":[{"name":"대박포차","tel":"031-000-0000","addr":"경기도 평택시 포승읍 도곡리 1141-10번지","category":"일반휴게음식 - 일반한식"}]},{"lat":"36.987605028","long":"126.8663622","items":[{"name":"대성타일","tel":"031-684-2369","addr":"경기도 평택시 포승읍 도곡리 745-14번지 1층","category":"건축자재 - 건축용 요업제품"},{"name":"백세건강원","tel":"031-682-7866","addr":"경기도 평택시 포승읍 도곡리 745-14번지 수성회관 1층","category":"건강식품 - 기타건강식품"},{"name":"서평택약국","tel":"031-684-9964","addr":"경기도 평택시 포승읍 도곡리 745-14번지","category":"약국 - 약국"},{"name":"종합페인트","tel":"031-683-7767","addr":"경기도 평택시 포승읍 도곡리 745-14","category":"건축자재 - 페인트"}]},{"lat":"36.989099753","long":"126.84380424","items":[{"name":"대숲마을","tel":"031-683-9096","addr":"경기도 평택시 포승읍 도곡리 1121-10번지","category":"음식점 - 한식"},{"name":"메이커헤어","tel":"031-683-2476","addr":"경기도 평택시 포승읍 도곡리 1121-10번지 104호","category":"보건위생 - 미용원"},{"name":"크라우드PC포승점","tel":"070-9228-3921","addr":"경기도 평택시 포승읍 도곡리 1121-10번지 2층","category":"레저업소 - 기타레져업소"},{"name":"플러스당구장","tel":"031-682-3949","addr":"경기도 평택시 포승읍 도곡리 1121-10번지 2층","category":"레저업소 - 당 구 장"}]},{"lat":"36.984154587","long":"126.87505069","items":[{"name":"대원파크모텔","tel":"031-681-8242","addr":"경기도 평택시 포승읍 도곡리 884-5번지","category":"숙박업 - 여관/기타숙박업"}]},{"lat":"36.989209216","long":"126.84480373","items":[{"name":"더 (The)끌림헤어","tel":"031-682-5572","addr":"경기도 평택시 포승읍 도곡리 1140-9번지 102호","category":"보건위생 - 미용원"},{"name":"무지개마트","tel":"","addr":"경기도 평택시 포승읍 도곡리 1140-9번지 101호","category":"유통업 영리 - 슈퍼마켓"}]},{"lat":"36.987273068","long":"126.84567263","items":[{"name":"더주얼리(한샘)","tel":"031-681-8850","addr":"경기도 평택시 포승읍 도곡리 1144-7번지 102호","category":"신변잡화 - 귀금속"},{"name":"보떼","tel":"031-682-6869","addr":"경기도 평택시 포승읍 도곡리 1144-7번지","category":"보건위생 - 화장품"}]},{"lat":"36.98838211","long":"126.84622075","items":[{"name":"더큰도시락 포승점","tel":"031-684-2338","addr":"경기도 평택시 포승읍 도곡리 1145-4번지","category":"일반휴게음식 - 일반한식"},{"name":"맘보버거","tel":"031-681-0939","addr":"경기도 평택시 포승읍 도곡리 1145-4번지 101호","category":"일반휴게음식 - 일반한식"},{"name":"엘프","tel":"","addr":"경기도 평택시 포승읍 도곡리 1145-4번지 2층","category":"일반휴게음식 - 주점"}]},{"lat":"36.986333399","long":"126.87340713","items":[{"name":"덕인화원","tel":"041-111-1111","addr":"경기도 평택시 포승읍 도곡리 902-1번지 금송원룸 103동 104호","category":"문화.취미 - 화원"}]},{"lat":"36.994242301","long":"126.84869132","items":[{"name":"도곡민물매운탕","tel":"031-681-7189","addr":"경기도 평택시 포승읍 도곡리 220-3","category":"일반휴게음식 - 일반한식"},{"name":"삼거리노래연습장","tel":"031-682-1966","addr":"경기도 평택시 포승읍 도곡리 220-3","category":"레저업소 - 노 래 방"},{"name":"삼거리식당","tel":"031-682-1446","addr":"경기도 평택시 포승읍 도곡리 220-3번지","category":"일반휴게음식 - 일반한식"}]},{"lat":"36.988576507","long":"126.86491145","items":[{"name":"도곡세차장","tel":"031-682-7808","addr":"경기도 평택시 포승읍 도곡리 745-2번지","category":"자동차정비 유지 - 세차장"},{"name":"서평택ic공인계량소","tel":"031-681-9060","addr":"경기도 평택시 포승읍 도곡리 745-2번지","category":"용역 서비스 - 종합용역"}]},{"lat":"36.989133567","long":"126.84894876","items":[{"name":"도곡중학교","tel":"031-686-8565","addr":"경기도 평택시 포승읍 도곡리 1112번지 도곡중학교","category":"학원 - 초중고교육기관"}]},{"lat":"36.987689936","long":"126.86191398","items":[{"name":"도명시스템","tel":"031-683-9780","addr":"경기도 평택시 포승읍 도곡리 717-16","category":"사무통신 - 컴퓨터"},{"name":"인화종합상사","tel":"031-681-1242","addr":"경기도 평택시 포승읍 도곡리 717-16,717-8","category":"기타 - 기타 전문점"},{"name":"크로바종합상사","tel":"031-684-1512","addr":"경기도 평택시 포승읍 도곡리 717-16번지 외1필지","category":"기타 - 기계공구"}]},{"lat":"36.988264644","long":"126.84597387","items":[{"name":"돈가네대박집","tel":"031-682-9267","addr":"경기도 평택시 포승읍 도곡리 1145-6번지 101호","category":"일반휴게음식 - 일반한식"}]},{"lat":"36.986904239","long":"126.84613392","items":[{"name":"돈천년","tel":"031-684-6164","addr":"경기도 평택시 포승읍 도곡리 1144-14번지 1층","category":"일반휴게음식 - 일반한식"}]},{"lat":"36.989688109","long":"126.84580245","items":[{"name":"돌콩이네","tel":"031-684-8848","addr":"경기도 평택시 포승읍 도곡리 1140-1번지 1층","category":"일반휴게음식 - 일반한식"},{"name":"천하제일닭","tel":"","addr":"경기도 평택시 포승읍 도곡리 1140-1번지","category":"일반휴게음식 - 스넥"}]},{"lat":"36.987404961","long":"126.86477878","items":[{"name":"동백정","tel":"031-683-8696","addr":"경기도 평택시 포승읍 도곡리 748-1번지","category":"음식점 - 한식"},{"name":"동백정","tel":"031-682-8006","addr":"경기도 평택시 포승읍 도곡리 748-1번지 A동 1층","category":"일반휴게음식 - 일반한식"},{"name":"팡팡노래연습장","tel":"031-683-8876","addr":"경기도 평택시 포승읍 도곡리 748-1번지 A동 지하1층","category":"레저업소 - 노 래 방"}]},{"lat":"36.988604646","long":"126.84416472","items":[{"name":"돼지갈비무한리필","tel":"031-111-1111","addr":"경기도 평택시 포승읍 도곡리 1121-8번지 1층","category":"일반휴게음식 - 일반한식"},{"name":"오뚜기","tel":"031-684-8192","addr":"경기도 평택시 포승읍 도곡리 1121-8번지","category":"일반휴게음식 - 일반한식"},{"name":"커피온도","tel":"","addr":"경기도 평택시 포승읍 도곡리 1121-8번지 1층","category":"일반휴게음식 - 서양음식"}]},{"lat":"36.989487918","long":"126.84433137","items":[{"name":"돼지형제","tel":"02-1577-0000","addr":"경기도 평택시 포승읍 도곡리 1143-24번지 2층","category":"일반휴게음식 - 일반한식"},{"name":"차차&김여사대리운전","tel":"031-682-4440","addr":"경기도 평택시 포승읍 도곡리 1143-24번지 송정빌 201호","category":"보건위생 - 기타대인서비스"},{"name":"킹포스","tel":"","addr":"경기도 평택시 포승읍 도곡리 1143-24번지 송정빌","category":"일반휴게음식 - 주점"}]},{"lat":"36.988434373","long":"126.84486149","items":[{"name":"두거리우신탕 포승점","tel":"031-684-3742","addr":"경기도 평택시 포승읍 도곡리 1143-10번지 1층","category":"일반휴게음식 - 일반한식"},{"name":"필","tel":"031-681-2577","addr":"경기도 평택시 포승읍 도곡리 1143-10번지 2층","category":"일반휴게음식 - 주점"}]},{"lat":"36.987603497","long":"126.84344792","items":[{"name":"두루두루국수","tel":"031-8029-9306","addr":"경기도 평택시 포승읍 도곡리 1120-5번지 스마트빌듀오2차 110호","category":"일반휴게음식 - 일반한식"},{"name":"불티나","tel":"031-8209-9906","addr":"경기도 평택시 포승읍 도곡리 1120-5번지 스마트빌듀오2차 122호","category":"일반휴게음식 - 일반한식"},{"name":"셀렉토 커피 평택 포승점","tel":"031-8053-7777","addr":"경기도 평택시 포승읍 도곡리 1120-5번지 스마트빌듀오2차 114호","category":"소매업 - 카페"},{"name":"셀렉토커피 평택포승점","tel":"031-616-4245","addr":"경기도 평택시 포승읍 도곡리 1120-5번지 스마트빌듀오2차 114호","category":"일반휴게음식 - 서양음식"},{"name":"주얼리뱅크(Jewelry Bank)","tel":"031-8094-4500","addr":"경기도 평택시 포승읍 도곡리 1120-5번지 스마트빌듀오2차 116호","category":"신변잡화 - 귀금속"},{"name":"청담동 말자싸롱 포승점","tel":"031-8029-9070","addr":"경기도 평택시 포승읍 도곡리 1120-5번지 스마트빌듀오2차 120호","category":"일반휴게음식 - 일반한식"},{"name":"커피에반하다(포승점)","tel":"031-616-1771","addr":"경기도 평택시 포승읍 도곡리 1120-5번지 스마트빌듀오2차 109호","category":"일반휴게음식 - 서양음식"},{"name":"행복한밥상포승점","tel":"031-8029-9398","addr":"경기도 평택시 포승읍 도곡리 1120-5번지 스마트빌듀오2차 113호","category":"일반휴게음식 - 일반한식"},{"name":"헤아","tel":"031-616-6522","addr":"경기도 평택시 포승읍 도곡리 1120-5번지 스마트빌듀오2차 108호","category":"보건위생 - 미용원"},{"name":"황제짜장","tel":"","addr":"경기도 평택시 포승읍 도곡리 1120-5번지 스마트빌듀오2차 101,102호","category":"일반휴게음식 - 중국식"}]},{"lat":"36.983993263","long":"126.87585966","items":[{"name":"두리종합상사","tel":"031-683-2988","addr":"경기도 평택시 포승읍 도곡리 878","category":"의류 - 기타의류"}]},{"lat":"36.986910337","long":"126.84394359","items":[{"name":"두림호텔 주식회사","tel":"031-686-8855","addr":"경기도 평택시 포승읍 도곡리 1123-2번지","category":"숙박업 - 여관/기타숙박업"}]},{"lat":"36.988403797","long":"126.84222189","items":[{"name":"두우리","tel":"031-681-2525","addr":"경기도 평택시 포승읍 도곡리 1119-1번지","category":"일반휴게음식 - 일반한식"},{"name":"두우리","tel":"031-681-2525","addr":"경기도 평택시 포승읍 도곡리 1119-1번지","category":"음료식품 - 정육점"}]},{"lat":"36.990128799","long":"126.84517251","items":[{"name":"두찜평택포승점","tel":"","addr":"경기도 평택시 포승읍 도곡리 1136-6번지","category":"일반휴게음식 - 일반한식"},{"name":"비에치씨포승공단점","tel":"031-686-6095","addr":"경기도 평택시 포승읍 도곡리 1136-6번지 1층","category":"일반휴게음식 - 스넥"}]},{"lat":"36.988550175","long":"126.85073592","items":[{"name":"드림","tel":"","addr":"경기도 평택시 포승읍 도곡리 1114번지 포승삼부르네상스1단지 105동 706호","category":"음료식품 - 농·축·수산품"},{"name":"와이즈-맘","tel":"","addr":"경기도 평택시 포승읍 도곡리 1114번지 포승삼부르네상스1단지 105동 104호","category":"학원 - 기타 교육기관"}]},{"lat":"36.990074286","long":"126.84483564","items":[{"name":"드림153어린이집[아이행복]","tel":"031-682-0382","addr":"경기도 평택시 포승읍 도곡리 1135번지 101호","category":"학원 - 유아원"},{"name":"드림153유치원","tel":"031-684-0382","addr":"경기도 평택시 포승읍 도곡리 1135번지 2층 3층","category":"학원 - 유치원"},{"name":"드림153유치원[아이행복]","tel":"031-684-0382","addr":"경기도 평택시 포승읍 도곡리 1135번지 2층 3층","category":"학원 - 유치원"}]},{"lat":"36.994073145","long":"126.85027558","items":[{"name":"등대노래방","tel":"031-681-3477","addr":"경기도 평택시 포승읍 도곡리 234-15번지 2층","category":"레저업소 - 노 래 방"},{"name":"아이지에이마트 평택도곡점","tel":"","addr":"경기도 평택시 포승읍 도곡리 234-15번지 1층","category":"유통업 영리 - 편 의 점"}]},{"lat":"36.985767196","long":"126.85903084","items":[{"name":"디젤파워요소수","tel":"","addr":"경기도 평택시 포승읍 도곡리 631-28번지","category":"자동차정비 유지 - 자동차부품"}]},{"lat":"36.988158084","long":"126.84716474","items":[{"name":"때깔","tel":"031-682-5520","addr":"경기도 평택시 포승읍 도곡리 1152-1번지 101호","category":"의류 - 정장"},{"name":"머리나라","tel":"031-686-6742","addr":"경기도 평택시 포승읍 도곡리 1152-1번지 1층","category":"보건위생 - 미용원"}]},{"lat":"36.986543886","long":"126.84619082","items":[{"name":"떡고을","tel":"031-682-7330","addr":"경기도 평택시 포승읍 도곡리 1156-1번지","category":"음료식품 - 제과점"},{"name":"미니스톱 포승중앙점","tel":"031-1577-9621","addr":"경기도 평택시 포승읍 도곡리 1156-1번지","category":"유통업 영리 - 편 의 점"},{"name":"션아로마테라피","tel":"031-684-9199","addr":"경기도 평택시 포승읍 도곡리 1156-1번지 2층","category":"보건위생 - 기타대인서비스"}]},{"lat":"36.989685973","long":"126.84419617","items":[{"name":"또봉이통닭(포승점)","tel":"031-686-7578","addr":"경기도 평택시 포승읍 도곡리 1130-11번지","category":"일반휴게음식 - 일반한식"}]},{"lat":"36.986355505","long":"126.84683145","items":[{"name":"또와식당","tel":"031-683-8277","addr":"경기도 평택시 포승읍 도곡리 1155-9번지 1층","category":"일반휴게음식 - 일반한식"}]},{"lat":"36.987939263","long":"126.84522196","items":[{"name":"뚜레쥬르 평택포승점","tel":"031-684-3866","addr":"경기도 평택시 포승읍 도곡리 1144-1번지","category":"음료식품 - 제과점"},{"name":"수","tel":"070-4241-7888","addr":"경기도 평택시 포승읍 도곡리 1144-1","category":"보건위생 - 화장품"},{"name":"포승중앙약국","tel":"031-682-7534","addr":"경기도 평택시 포승읍 도곡리 1144-1번지 101호","category":"약국 - 약국"},{"name":"포승중앙약국","tel":"","addr":"경기도 평택시 포승읍 도곡리 1144-1번지 101호","category":"소매업 - 약국"},{"name":"휴대폰대통령","tel":"031-684-9946","addr":"경기도 평택시 포승읍 도곡리 1144-1번지 102호","category":"사무통신 - 통신기기"}]},{"lat":"36.987879297","long":"126.84758091","items":[{"name":"라라마켓","tel":"031-684-1170","addr":"경기도 평택시 포승읍 도곡리 1152-11번지 1층","category":"의류 - 기타의류"}]},{"lat":"36.988602746","long":"126.84274941","items":[{"name":"라미야 전자담배","tel":"031-682-8682","addr":"경기도 평택시 포승읍 도곡리 1120-1번지 1층","category":"기타 - 기타 전문점"},{"name":"양평해장국","tel":"031-111-1111","addr":"경기도 평택시 포승읍 도곡리 1120-1번지 1층","category":"일반휴게음식 - 일반한식"},{"name":"양평해장국민식이국밥","tel":"031-683-9255","addr":"경기도 평택시 포승읍 도곡리 1120-1번지 34호","category":"음식점 - 한식"},{"name":"큰맘할매순대국","tel":"031-686-7256","addr":"경기도 평택시 포승읍 도곡리 1120-1번지 1층","category":"일반휴게음식 - 일반한식"},{"name":"평택포승본가","tel":"031-681-0365","addr":"경기도 평택시 포승읍 도곡리 1120-1번지 5,6,7호","category":"사무통신 - 통신기기"}]},{"lat":"36.994492679","long":"126.84721923","items":[{"name":"란횟집","tel":"","addr":"경기도 평택시 포승읍 도곡리 210번지","category":"일반휴게음식 - 일식·회집"},{"name":"란횟집","tel":"031-683-6787","addr":"경기도 평택시 포승읍 도곡리 210번지","category":"음식점 - 일식"},{"name":"진선생 안동찜닭앤집밥","tel":"031-686-6373","addr":"경기도 평택시 포승읍 도곡리 210번지","category":"일반휴게음식 - 일반한식"}]},{"lat":"36.987519164","long":"126.8478063","items":[{"name":"러브펫멀티펫샵 평택포승","tel":"031-681-0799","addr":"경기도 평택시 포승읍 도곡리 1152-8번지 스타빌","category":"문화.취미 - 애완동물"},{"name":"러브펫멀티펫샵 평택포승점","tel":"031-681-0607","addr":"경기도 평택시 포승읍 도곡리 1152-8번지","category":"서비스업 - 애견샵"},{"name":"포맨남성컷트전문점","tel":"031-684-5579","addr":"경기도 평택시 포승읍 도곡리 1152-8번지 스타빌 1층","category":"보건위생 - 미용원"}]},{"lat":"36.990487141","long":"126.84361039","items":[{"name":"러시아식당","tel":"031-318-4252","addr":"경기도 평택시 포승읍 도곡리 1130-18번지 1층","category":"일반휴게음식 - 서양음식"}]},{"lat":"36.986963467","long":"126.84324707","items":[{"name":"레드 퀸","tel":"031-683-2890","addr":"경기도 평택시 포승읍 도곡리 1124-1번지 1층 2호","category":"음료식품 - 농·축·수산품"},{"name":"세븐일레븐평택포승공단로점","tel":"031-1577-0711","addr":"경기도 평택시 포승읍 도곡리 1124-1번지 1층","category":"유통업 영리 - 편 의 점"},{"name":"스키드정비","tel":"031-684-1705","addr":"경기도 평택시 포승읍 도곡리 1124-1번지","category":"자동차정비 유지 - 자동차정비"},{"name":"의류할인매장","tel":"031-681-3103","addr":"경기도 평택시 포승읍 도곡리 1124-1","category":"의류 - 정장"}]},{"lat":"36.990741405","long":"126.84508138","items":[{"name":"레드마트","tel":"031-681-5886","addr":"경기도 평택시 포승읍 도곡리 1133-1번지 아트빌 1층","category":"유통업 영리 - 슈퍼마켓"},{"name":"토탈지게차","tel":"031-681-3814","addr":"경기도 평택시 포승읍 도곡리 1133-1번지 아트빌 402호","category":"기타 - 기계공구"}]},{"lat":"36.989238643","long":"126.84661214","items":[{"name":"레인보우헤어살롱","tel":"","addr":"경기도 평택시 포승읍 도곡리 1138-13번지 동서빌 1층","category":"서비스업 - 미용"},{"name":"무지개헤어살롱","tel":"031-682-7445","addr":"경기도 평택시 포승읍 도곡리 1138-13번지","category":"보건위생 - 미용원"}]},{"lat":"36.987046802","long":"126.84492053","items":[{"name":"롯데리아평택포승할인마트점","tel":"031-684-9747","addr":"경기도 평택시 포승읍 도곡리 1122-2번지","category":"일반휴게음식 - 서양음식"},{"name":"하은속옷나라","tel":"031-682-2375","addr":"경기도 평택시 포승읍 도곡리 1122-2 한샘이불매장내 하은속옷나라","category":"의류 - 내의판매"}]},{"lat":"36.985937214","long":"126.84396808","items":[{"name":"리버스","tel":"031-682-6552","addr":"경기도 평택시 포승읍 도곡리 1124-6번지 2층","category":"보건위생 - 미용재료"},{"name":"이엔차이나","tel":"031-681-8890","addr":"경기도 평택시 포승읍 도곡리 1124-6번지","category":"일반휴게음식 - 중국식"}]},{"lat":"36.9890493","long":"126.84652266","items":[{"name":"리한헤어(2호점)","tel":"031-681-6824","addr":"경기도 평택시 포승읍 도곡리 1138-9번지 101호","category":"보건위생 - 미용원"}]},{"lat":"36.988490564","long":"126.84646764","items":[{"name":"마라탕","tel":"","addr":"경기도 평택시 포승읍 도곡리 1145-2번지 지영빌딩 1층","category":"일반휴게음식 - 중국식"},{"name":"사쿠사쿠포승점","tel":"031-686-7949","addr":"경기도 평택시 포승읍 도곡리 1145-2","category":"일반휴게음식 - 스넥"}]},{"lat":"36.987321104","long":"126.84794149","items":[{"name":"마포숯불갈비","tel":"031-682-5245","addr":"경기도 평택시 포승읍 도곡리 1153-12번지 한솔빌 1층","category":"일반휴게음식 - 일반한식"},{"name":"마포숯불갈비","tel":"031-681-4300","addr":"경기도 평택시 포승읍 도곡리 1153-12번지 1층","category":"음식점 - 한식"},{"name":"열린치과의원","tel":"031-683-5522","addr":"경기도 평택시 포승읍 도곡리 1153-12번지 한솔빌 3층 305,306호","category":"의원 - 치과의원"}]},{"lat":"36.987854327","long":"126.84916475","items":[{"name":"마포연탄구이","tel":"031-681-8837","addr":"경기도 평택시 포승읍 도곡리 1115번지 모아미래도2차 상가동 106호","category":"일반휴게음식 - 일반한식"},{"name":"이마트24 포승모아점","tel":"031-000-0000","addr":"경기도 평택시 포승읍 도곡리 1115번지 모아미래도2차 1층 101호 2단지 상가","category":"유통업 영리 - 편 의 점"},{"name":"짱스헤어","tel":"","addr":"경기도 평택시 포승읍 도곡리 1115번지 모아미래도2차 상가동 103호","category":"서비스업 - 미용"},{"name":"짱스헤어","tel":"031-0000-0000","addr":"경기도 평택시 포승읍 도곡리 1115번지 모아미래도2차 상가동 103호","category":"보건위생 - 미용원"},{"name":"치킨히어로","tel":"031-681-8990","addr":"경기도 평택시 포승읍 도곡리 1115번지 모아미래도2차 상가동 105호","category":"일반휴게음식 - 스넥"}]},{"lat":"36.99401403","long":"126.85338736","items":[{"name":"만호상사","tel":"031-681-5911","addr":"경기도 평택시 포승읍 도곡리 150-61번지 A동 1층","category":"자동차정비 유지 - 자동차시트·타이어"},{"name":"승창1급자동차","tel":"031-684-5077","addr":"경기도 평택시 포승읍 도곡리 150-61","category":"자동차정비 유지 - 자동차정비"},{"name":"천마상사","tel":"031-682-6760","addr":"경기도 평택시 포승읍 도곡리 150-61번지","category":"자동차정비 유지 - 자동차시트·타이어"}]},{"lat":"36.988212369","long":"126.84733312","items":[{"name":"맑은솔음악학원","tel":"031-686-7833","addr":"경기도 평택시 포승읍 도곡리 1152-14번지 삼성빌 2층","category":"학원 - 예·체능계학원"},{"name":"민스타일","tel":"","addr":"경기도 평택시 포승읍 도곡리 1152-14번지 삼성빌 102호","category":"의류 - 정장"},{"name":"서연이네 예쁜옷","tel":"070-8739-8332","addr":"경기도 평택시 포승읍 도곡리 1152-14번지 삼성빌 102호","category":"의류 - 정장"},{"name":"어무이꼬마김밥","tel":"031-682-5453","addr":"경기도 평택시 포승읍 도곡리 1152-14","category":"일반휴게음식 - 스넥"}]},{"lat":"36.989292381","long":"126.84636491","items":[{"name":"머거보까","tel":"031-684-2300","addr":"경기도 평택시 포승읍 도곡리 1138-7번지","category":"일반휴게음식 - 일반한식"}]},{"lat":"36.988326349","long":"126.84494035","items":[{"name":"메인","tel":"031-681-3702","addr":"경기도 평택시 포승읍 도곡리 1143-11번지 국제빌딩 2층","category":"일반휴게음식 - 일반한식"},{"name":"하은BYC","tel":"031-683-1470","addr":"경기도 평택시 포승읍 도곡리 1143-11번지 국제빌딩 101호","category":"소매업 - 의류"}]},{"lat":"36.990327659","long":"126.84564388","items":[{"name":"멕시카나치킨포승점","tel":"031-684-0843","addr":"경기도 평택시 포승읍 도곡리 1137-9번지 태광빌 102호","category":"일반휴게음식 - 스넥"},{"name":"미가락포승점","tel":"031-684-9292","addr":"경기도 평택시 포승읍 도곡리 1137-9번지 태광빌","category":"일반휴게음식 - 일반한식"}]},{"lat":"36.986408844","long":"126.84628095","items":[{"name":"명품","tel":"","addr":"경기도 평택시 포승읍 도곡리 1156-2번지 2층","category":"보건위생 - 미용재료"},{"name":"청담면옥","tel":"031-682-6765","addr":"경기도 평택시 포승읍 도곡리 1156-2번지 101호","category":"일반휴게음식 - 일반한식"}]},{"lat":"36.987158442","long":"126.84758238","items":[{"name":"명품대구막창","tel":"031-684-8083","addr":"경기도 평택시 포승읍 도곡리 1154-1번지 1층","category":"일반휴게음식 - 일반한식"}]},{"lat":"36.990048878","long":"126.84606007","items":[{"name":"모모헤어스튜디오","tel":"031-682-6233","addr":"경기도 평택시 포승읍 도곡리 1138-19번지","category":"서비스업 - 미용"},{"name":"모모헤어스튜디오","tel":"031-683-9096","addr":"경기도 평택시 포승읍 도곡리 1138-19번지 1층","category":"보건위생 - 미용원"},{"name":"블루","tel":"031-651-4441","addr":"경기도 평택시 포승읍 도곡리 1138-19번지 상일빌딩 101호","category":"의류 - 정장"},{"name":"서평택꽃난플라워","tel":"031-683-7573","addr":"경기도 평택시 포승읍 도곡리 1138-19번지 상일빌딩 102호","category":"문화.취미 - 화원"},{"name":"이지(EG)학원","tel":"031-682-8516","addr":"경기도 평택시 포승읍 도곡리 1138-19번지 상일빌딩 2층 201호","category":"학원 - 보습학원"},{"name":"일번가포차","tel":"031-686-6383","addr":"경기도 평택시 포승읍 도곡리 1138-19번지","category":"일반휴게음식 - 일반한식"},{"name":"쭌 아이스크림","tel":"031-000-0000","addr":"경기도 평택시 포승읍 도곡리 1138-19번지 상일빌딩 101호","category":"음료식품 - 기타음료식품"}]},{"lat":"36.986022006","long":"126.8467535","items":[{"name":"모아반점","tel":"031-686-6556","addr":"경기도 평택시 포승읍 도곡리 1156-7번지","category":"일반휴게음식 - 중국식"}]},{"lat":"36.987764646","long":"126.84267254","items":[{"name":"무쏘평택포승점","tel":"031-684-9298","addr":"경기도 평택시 포승읍 도곡리 1119-4번지","category":"일반휴게음식 - 일반한식"},{"name":"총각수산","tel":"031-683-7577","addr":"경기도 평택시 포승읍 도곡리 1119-4번지","category":"일반휴게음식 - 일식·회집"}]},{"lat":"36.989271857","long":"126.84447785","items":[{"name":"무한도전","tel":"031-683-2835","addr":"경기도 평택시 포승읍 도곡리 1143-22번지","category":"일반휴게음식 - 일반한식"},{"name":"아우라쿤","tel":"031-681-9796","addr":"경기도 평택시 포승읍 도곡리 1143-22번지 1층","category":"보건위생 - 미용원"}]},{"lat":"36.985681759","long":"126.87080236","items":[{"name":"미니스톱 포승도곡점","tel":"031-1577-9621","addr":"경기도 평택시 포승읍 도곡리 852번지","category":"유통업 영리 - 편 의 점"},{"name":"청담어죽","tel":"031-943-6006","addr":"경기도 평택시 포승읍 도곡리 852번지","category":"일반휴게음식 - 일반한식"}]},{"lat":"36.990021177","long":"126.84555465","items":[{"name":"미니스톱 포승본점","tel":"031-1577-9621","addr":"경기도 평택시 포승읍 도곡리 1139-1번지","category":"유통업 영리 - 편 의 점"},{"name":"미소청소","tel":"031-682-9890","addr":"경기도 평택시 포승읍 도곡리 1139-1번지","category":"용역 서비스 - 종합용역"}]},{"lat":"36.98860568","long":"126.84493977","items":[{"name":"미락식당","tel":"031-681-6121","addr":"경기도 평택시 포승읍 도곡리 1143-16번지 101호","category":"일반휴게음식 - 일반한식"}]},{"lat":"36.986878272","long":"126.8469427","items":[{"name":"미스터오징어 포승점","tel":"031-682-2223","addr":"경기도 평택시 포승읍 도곡리 1154-6번지 1층","category":"일반휴게음식 - 일식·회집"}]},{"lat":"36.989810675","long":"126.84995834","items":[{"name":"미연샘의 시김새","tel":"","addr":"경기도 평택시 포승읍 도곡리 1113번지 모아미래도1차 107동 101호","category":"학원 - 기타 교육기관"}]},{"lat":"36.987381077","long":"126.84558255","items":[{"name":"민들레약국","tel":"031-681-5177","addr":"경기도 평택시 포승읍 도곡리 1144-6번지 1층","category":"약국 - 약국"},{"name":"스피드통신","tel":"031-684-7878","addr":"경기도 평택시 포승읍 도곡리 1144-6번지","category":"사무통신 - 통신기기"},{"name":"행림내과의원","tel":"031-686-8820","addr":"경기도 평택시 포승읍 도곡리 1144-6번지","category":"서비스업 - 병원"}]},{"lat":"36.987965008","long":"126.84425591","items":[{"name":"밀러타임","tel":"031-686-5321","addr":"경기도 평택시 포승읍 도곡리 1121-5번지 밀러타임","category":"일반휴게음식 - 주점"}]},{"lat":"36.988799887","long":"126.84194024","items":[{"name":"바른생갈비 (포승점)","tel":"031-683-9255","addr":"경기도 평택시 포승읍 도곡리 1117-15번지 1층","category":"일반휴게음식 - 일반한식"},{"name":"바른생갈비(포승점)","tel":"031-682-1371","addr":"경기도 평택시 포승읍 도곡리 1117-15번지","category":"음식점 - 한식"},{"name":"함지박식당","tel":"031-683-5249","addr":"경기도 평택시 포승읍 도곡리 1117-15번지","category":"일반휴게음식 - 일반한식"}]},{"lat":"36.987213094","long":"126.84803157","items":[{"name":"박군치킨 포승점","tel":"031-684-2273","addr":"경기도 평택시 포승읍 도곡리 1153-11번지 1층","category":"일반휴게음식 - 스넥"}]},{"lat":"36.985516926","long":"126.86071614","items":[{"name":"방일해장국 서평택점","tel":"031-682-0489","addr":"경기도 평택시 포승읍 도곡리 629번지 1층","category":"일반휴게음식 - 일반한식"},{"name":"오뚜기마트","tel":"031-681-9219","addr":"경기도 평택시 포승읍 도곡리 629번지 B 1동 103호","category":"신변잡화 - 기타잡화"},{"name":"진곰탕불육개장","tel":"031-681-1388","addr":"경기도 평택시 포승읍 도곡리 629번지","category":"일반휴게음식 - 일반한식"}]},{"lat":"36.98707633","long":"126.84680751","items":[{"name":"배부장찌개 (포승점)","tel":"070-4001-2286","addr":"경기도 평택시 포승읍 도곡리 1150-13번지 1층","category":"일반휴게음식 - 일반한식"}]},{"lat":"36.985100778","long":"126.84513796","items":[{"name":"배불리찌개랑통큰감자탕","tel":"031-681-5239","addr":"경기도 평택시 포승읍 도곡리 1126-4번지 107호 106호,107호","category":"일반휴게음식 - 일반한식"},{"name":"한뚝수육국밥","tel":"031-683-4564","addr":"경기도 평택시 포승읍 도곡리 1126-4번지 1층","category":"일반휴게음식 - 일반한식"},{"name":"힘찬추어탕","tel":"031-686-5711","addr":"경기도 평택시 포승읍 도곡리 1126-4번지","category":"일반휴게음식 - 일반한식"},{"name":"힘찬추어탕","tel":"031-686-5711","addr":"경기도 평택시 포승읍 도곡리 1126-4번지","category":"일반휴게음식 - 일반한식"}]},{"lat":"36.989600375","long":"126.86205648","items":[{"name":"배터리마트","tel":"031-681-7990","addr":"경기도 평택시 포승읍 도곡리 137-5번지","category":"자동차정비 유지 - 자동차부품"},{"name":"서해안낚시","tel":"031-682-7675","addr":"경기도 평택시 포승읍 도곡리 137-5번지","category":"레져용품 - 스포츠·레져용품"}]},{"lat":"36.987797981","long":"126.84741259","items":[{"name":"백년부양꼬치","tel":"","addr":"경기도 평택시 포승읍 도곡리 1152-4번지 1층","category":"일반휴게음식 - 중국식"}]},{"lat":"36.988994955","long":"126.84630935","items":[{"name":"백옥참숯양꼬치","tel":"031-682-5991","addr":"경기도 평택시 포승읍 도곡리 1142-1번지 1층","category":"일반휴게음식 - 중국식"}]},{"lat":"36.989879106","long":"126.86155049","items":[{"name":"베니스호텔","tel":"031-683-3131","addr":"경기도 평택시 포승읍 도곡리 139-29번지","category":"숙박업 - 여관/기타숙박업"}]},{"lat":"36.990687744","long":"126.84538478","items":[{"name":"베델세탁소","tel":"031-683-4357","addr":"경기도 평택시 포승읍 도곡리 1137-6번지","category":"수리서비스 - 세탁소"},{"name":"부뚜막","tel":"031-682-7966","addr":"경기도 평택시 포승읍 도곡리 1137-6번지 정익빌 102호","category":"일반휴게음식 - 일반한식"}]},{"lat":"36.98838101","long":"126.84538954","items":[{"name":"벤틀리","tel":"031-682-6785","addr":"경기도 평택시 포승읍 도곡리 1142-10번지 2층","category":"일반휴게음식 - 주점"},{"name":"이마트24 평택포승점","tel":"031-684-0954","addr":"경기도 평택시 포승읍 도곡리 1142-10번지","category":"소매업 - 편의점"},{"name":"이마트24 평택포승점","tel":"031-682-9985","addr":"경기도 평택시 포승읍 도곡리 1142-10번지","category":"유통업 영리 - 편 의 점"},{"name":"이마트24 평택포승점","tel":"02-6916-1500","addr":"경기도 평택시 포승읍 도곡리 1142-10번지","category":"유통업 영리 - 편 의 점"}]},{"lat":"36.988938746","long":"126.84469196","items":[{"name":"별미마당","tel":"031-683-0669","addr":"경기도 평택시 포승읍 도곡리 1143-19번지 별미마당","category":"일반휴게음식 - 일반한식"}]},{"lat":"36.988542396","long":"126.84478264","items":[{"name":"보스(BOSS)","tel":"031-686-5551","addr":"경기도 평택시 포승읍 도곡리 1143-9번지 2층","category":"용역 서비스 - 종합용역"},{"name":"전주순대국","tel":"031-681-5833","addr":"경기도 평택시 포승읍 도곡리 1143-9번지","category":"일반휴게음식 - 일반한식"}]},{"lat":"36.987105068","long":"126.84811041","items":[{"name":"본좌커피","tel":"070-4403-9421","addr":"경기도 평택시 포승읍 도곡리 1153-10번지 백년빌딩5차 1층","category":"일반휴게음식 - 서양음식"}]},{"lat":"36.98938271","long":"126.84653321","items":[{"name":"본죽","tel":"031-686-8868","addr":"경기도 평택시 포승읍 도곡리 1138-14번지","category":"음식점 - 죽"},{"name":"스마트네트웍(행운열쇠)","tel":"031-683-0104","addr":"경기도 평택시 포승읍 도곡리 1138-14번지 1층","category":"건축자재 - 목재·석재·철물"},{"name":"영헤어","tel":"031-684-9393","addr":"경기도 평택시 포승읍 도곡리 1138-14번지 1층","category":"보건위생 - 미용원"}]},{"lat":"36.988965479","long":"126.84446725","items":[{"name":"부가네의정부부대찌개","tel":"031-682-2375","addr":"경기도 평택시 포승읍 도곡리 1143-5번지","category":"음식점 - 한식"},{"name":"부가네의정부부대찌개","tel":"031-683-4677","addr":"경기도 평택시 포승읍 도곡리 1143-5번지 1층","category":"일반휴게음식 - 일반한식"}]},{"lat":"36.987958756","long":"126.84633394","items":[{"name":"부자설비","tel":"","addr":"경기도 평택시 포승읍 도곡리 1146-5번지","category":"용역 서비스 - 기타용역서비스"}]},{"lat":"36.989181525","long":"126.84430954","items":[{"name":"부킹노래연습장","tel":"031-681-9529","addr":"경기도 평택시 포승읍 도곡리 1143-3번지 거기빌딩","category":"레저업소 - 노 래 방"},{"name":"오즈헤어라인","tel":"031-684-7760","addr":"경기도 평택시 포승읍 도곡리 1143-3번지 거기빌딩 102호","category":"보건위생 - 미용원"}]},{"lat":"36.987741832","long":"126.84582892","items":[{"name":"북경반점","tel":"031-686-9258","addr":"경기도 평택시 포승읍 도곡리 1146-9번지","category":"일반휴게음식 - 중국식"}]},{"lat":"36.986217445","long":"126.84464143","items":[{"name":"붐","tel":"031-684-9969","addr":"경기도 평택시 포승읍 도곡리 1123-5번지 거북선빌딩 104호","category":"일반휴게음식 - 서양음식"},{"name":"용궁횟집","tel":"031-686-7280","addr":"경기도 평택시 포승읍 도곡리 1123-5번지 102호","category":"일반휴게음식 - 일반한식"},{"name":"이마트24 포승거북선점","tel":"031-000-0000","addr":"경기도 평택시 포승읍 도곡리 1123-5번지 105호","category":"유통업 영리 - 편 의 점"},{"name":"이마트24 포승거북선점","tel":"","addr":"경기도 평택시 포승읍 도곡리 1123-5번지 105호","category":"유통업 영리 - 편 의 점"},{"name":"황금돼지감자탕","tel":"031-684-9960","addr":"경기도 평택시 포승읍 도곡리 1123-5번지 1층","category":"일반휴게음식 - 일반한식"}]},{"lat":"36.988932279","long":"126.84661276","items":[{"name":"빵궁전 (포승점)","tel":"031-686-8868","addr":"경기도 평택시 포승읍 도곡리 1138-10번지","category":"음료식품 - 제과점"},{"name":"빵궁전(포승점)","tel":"031-682-9985","addr":"경기도 평택시 포승읍 도곡리 1138-10번지","category":"음식점 - 제과점"},{"name":"포승연세치과의원","tel":"031-681-7528","addr":"경기도 평택시 포승읍 도곡리 1138-10번지 2층","category":"의원 - 치과의원"}]},{"lat":"36.990549884","long":"126.84336314","items":[{"name":"사천성","tel":"031-686-8665","addr":"경기도 평택시 포승읍 도곡리 1130-2번지 웰빙빌딩","category":"일반휴게음식 - 중국식"}]},{"lat":"36.985766251","long":"126.87389108","items":[{"name":"산신암","tel":"031-681-6117","addr":"경기도 평택시 포승읍 도곡리 905-2번지","category":"보건위생 - 기타대인서비스"}]},{"lat":"36.98901596","long":"126.841805","items":[{"name":"삼겹시대포승점","tel":"031-682-3395","addr":"경기도 평택시 포승읍 도곡리 1117-14번지 103호","category":"일반휴게음식 - 일반한식"},{"name":"야시장축산","tel":"031-683-2088","addr":"경기도 평택시 포승읍 도곡리 1117-14번지 102호","category":"일반휴게음식 - 일반한식"}]},{"lat":"36.985376813","long":"126.87208335","items":[{"name":"삼보종합상사","tel":"031-684-7373","addr":"경기도 평택시 포승읍 도곡리 898-9번지 101,102호","category":"건축자재 - 목재·석재·철물"},{"name":"안중종합밋션","tel":"031-684-6782","addr":"경기도 평택시 포승읍 도곡리 898-9번지","category":"자동차정비 유지 - 자동차정비"}]},{"lat":"36.984771928","long":"126.87102857","items":[{"name":"삼성C&L시스템","tel":"031-684-7979","addr":"경기도 평택시 포승읍 도곡리 854번지 1층","category":"수리서비스 - 기타수리서비스"},{"name":"주식회사 한빛에너텍","tel":"031-681-1011","addr":"경기도 평택시 포승읍 도곡리 854번지","category":"용역 서비스 - 기타용역서비스"},{"name":"한울상사","tel":"031-681-5370","addr":"경기도 평택시 포승읍 도곡리 854번지","category":"직물 - 카페트,커튼,천막,지물"}]},{"lat":"36.98690676","long":"126.84805465","items":[{"name":"새나네밥상","tel":"031-682-2110","addr":"경기도 평택시 포승읍 도곡리 1153-4","category":"일반휴게음식 - 일반한식"}]},{"lat":"36.990154077","long":"126.84385821","items":[{"name":"생생노래연습장","tel":"031-683-0126","addr":"경기도 평택시 포승읍 도곡리 1130-15번지 서해빌 1층","category":"레저업소 - 노 래 방"}]},{"lat":"36.989632569","long":"126.84469052","items":[{"name":"서울왕돈까스 포승점","tel":"031-682-6242","addr":"경기도 평택시 포승읍 도곡리 1139-8번지 금강빌","category":"일반휴게음식 - 일반한식"}]},{"lat":"36.985797441","long":"126.86949922","items":[{"name":"서울투자금융 주식회사","tel":"02-514-9009","addr":"경기도 평택시 포승읍 도곡리 848-1번지 4층 태성빌딩","category":"용역 서비스 - 사무서비스"}]},{"lat":"36.989431462","long":"126.86400006","items":[{"name":"서평택아이씨낚시점","tel":"031-682-1431","addr":"경기도 평택시 포승읍 도곡리 137-35번지","category":"레져용품 - 스포츠·레져용품"},{"name":"평택그린택","tel":"031-683-0907","addr":"경기도 평택시 포승읍 도곡리 137-35번지","category":"자동차정비 유지 - 자동차부품"}]},{"lat":"36.9870707","long":"126.87196813","items":[{"name":"서평택유진엔진보링","tel":"031-681-9461","addr":"경기도 평택시 포승읍 도곡리 845-13번지","category":"기타 - 기계공구"},{"name":"주식회사유진엔지니어링","tel":"031-681-3111","addr":"경기도 평택시 포승읍 도곡리 845-13번지","category":"자동차정비 유지 - 자동차정비"}]},{"lat":"36.985742637","long":"126.86108638","items":[{"name":"서평택테크","tel":"031-681-1316","addr":"경기도 평택시 포승읍 도곡리 631-8번지 1동","category":"자동차정비 유지 - 자동차부품"}]},{"lat":"36.986329188","long":"126.86180416","items":[{"name":"세븐일레븐서평택점","tel":"031-1577-0711","addr":"경기도 평택시 포승읍 도곡리 721-6번지","category":"유통업 영리 - 편 의 점"}]},{"lat":"36.989434304","long":"126.84466847","items":[{"name":"세븐일레븐평택포승도곡점","tel":"031-1577-0711","addr":"경기도 평택시 포승읍 도곡리 1139-10번지","category":"유통업 영리 - 편 의 점"},{"name":"조이할인마트","tel":"031-681-7277","addr":"경기도 평택시 포승읍 도곡리 1139-10번지 1층","category":"유통업 영리 - 슈퍼마켓"}]},{"lat":"36.989245746","long":"126.85210493","items":[{"name":"소담기획","tel":"031-684-0185","addr":"경기도 평택시 포승읍 도곡리 1114번지 포승삼부르네상스1단지 102동 1105호","category":"용역 서비스 - 종합용역"}]},{"lat":"36.987464923","long":"126.84767162","items":[{"name":"소담분식","tel":"031-684-6797","addr":"경기도 평택시 포승읍 도곡리 1152-7번지","category":"일반휴게음식 - 스넥"},{"name":"옛날장터치킨포승점","tel":"031-681-2824","addr":"경기도 평택시 포승읍 도곡리 1152-7번지 1층 101호","category":"일반휴게음식 - 스넥"}]},{"lat":"36.987597809","long":"126.84594154","items":[{"name":"소래포구","tel":"031-681-2323","addr":"경기도 평택시 포승읍 도곡리 1146-10번지 1층","category":"일반휴게음식 - 일식·회집"}]},{"lat":"36.988570264","long":"126.84541161","items":[{"name":"소위오리목 포승점","tel":"031-681-5516","addr":"경기도 평택시 포승읍 도곡리 1142-8번지","category":"일반휴게음식 - 중국식"}]},{"lat":"36.987237308","long":"126.84588612","items":[{"name":"송화양꼬치","tel":"031-684-7683","addr":"경기도 평택시 포승읍 도곡리 1144-17번지 1층","category":"일반휴게음식 - 일반한식"}]},{"lat":"36.983076731","long":"126.87827603","items":[{"name":"수계정","tel":"031-681-8411","addr":"경기도 평택시 포승읍 도곡리 941-3번지","category":"일반휴게음식 - 일반한식"}]},{"lat":"36.984432656","long":"126.8738821","items":[{"name":"수라청","tel":"031-686-7374","addr":"경기도 평택시 포승읍 도곡리 887번지","category":"일반휴게음식 - 일반한식"},{"name":"아리랑 숯불갈비","tel":"","addr":"경기도 평택시 포승읍 도곡리 887번지 1층","category":"음식점 - 한식"},{"name":"아리랑숯불갈비","tel":"031-686-5371","addr":"경기도 평택시 포승읍 도곡리 887번지 1층","category":"일반휴게음식 - 일반한식"},{"name":"월드당구장","tel":"031-681-3998","addr":"경기도 평택시 포승읍 도곡리 887번지 2층","category":"레저업소 - 당 구 장"},{"name":"월드당구장","tel":"031-681-3998","addr":"경기도 평택시 포승읍 도곡리 887번지","category":"레저업소 - 당 구 장"}]},{"lat":"36.988050074","long":"126.84725482","items":[{"name":"수자인헤어","tel":"031-681-5558","addr":"경기도 평택시 포승읍 도곡리 1152-2번지 떼부자빌 102호","category":"보건위생 - 미용원"},{"name":"차이코브스키(CHAIKOVSKYI)","tel":"","addr":"경기도 평택시 포승읍 도곡리 1152-2번지 떼부자빌 101호","category":"음료식품 - 제과점"},{"name":"킹스타텔레콤","tel":"031-682-4090","addr":"경기도 평택시 포승읍 도곡리 1152-2번지 떼부자빌 102호","category":"사무통신 - 통신기기"}]},{"lat":"36.991047843","long":"126.84513691","items":[{"name":"수종합인테리어","tel":"031-682-6717","addr":"경기도 평택시 포승읍 도곡리 1137-3번지","category":"직물 - 카페트,커튼,천막,지물"}]},{"lat":"36.990631206","long":"126.84353146","items":[{"name":"수피자","tel":"031-684-0010","addr":"경기도 평택시 포승읍 도곡리 1130-19번지 1층","category":"일반휴게음식 - 서양음식"}]},{"lat":"36.987014419","long":"126.847695","items":[{"name":"숙성리연탄구이","tel":"031-658-9296","addr":"경기도 평택시 포승읍 도곡리 1154-18번지","category":"일반휴게음식 - 일반한식"}]},{"lat":"36.99218543","long":"126.84683077","items":[{"name":"숲속아이원정어린이집[아이행복]","tel":"031-681-9055","addr":"경기도 평택시 포승읍 도곡리 277번지","category":"학원 - 유아원"},{"name":"초록삼계탕","tel":"031-684-3447","addr":"경기도 평택시 포승읍 도곡리 277번지","category":"일반휴게음식 - 일반한식"}]},{"lat":"36.988740406","long":"126.84461374","items":[{"name":"스시롤","tel":"031-683-2313","addr":"경기도 평택시 포승읍 도곡리 1143-7번지 102호","category":"일반휴게음식 - 일반한식"},{"name":"제이","tel":"031-684-8624","addr":"경기도 평택시 포승읍 도곡리 1143-7번지","category":"보건위생 - 화장품"},{"name":"헤어메이트유진","tel":"031-684-1216","addr":"경기도 평택시 포승읍 도곡리 1143-7번지 2층","category":"보건위생 - 미용원"}]},{"lat":"36.987266026","long":"126.84716656","items":[{"name":"스킨클린닉","tel":"031-683-1117","addr":"경기도 평택시 포승읍 도곡리 1150-16번지 2층 201호","category":"회원제형태 - 기타4"}]},{"lat":"36.989549925","long":"126.84353372","items":[{"name":"스타노래연습장","tel":"031-682-0506","addr":"경기도 평택시 포승읍 도곡리 1117-4번지 2층","category":"레저업소 - 노 래 방"},{"name":"아이비 PC방","tel":"","addr":"경기도 평택시 포승읍 도곡리 1117-4번지 2층","category":"레저업소 - 기타레져업소"},{"name":"해월","tel":"031-683-5792","addr":"경기도 평택시 포승읍 도곡리 1117-4번지 1층","category":"일반휴게음식 - 스넥"}]},{"lat":"36.985404639","long":"126.86482732","items":[{"name":"스포츠의학코디네이터","tel":"031-681-5979","addr":"경기도 평택시 포승읍 도곡리 735-4번지","category":"회원제형태 - 기타4"}]},{"lat":"36.990694905","long":"126.85087768","items":[{"name":"스피드대리운전","tel":"070-8170-0530","addr":"경기도 평택시 포승읍 도곡리 1113번지 모아미래도1차 103동 4층 7호","category":"보건위생 - 기타대인서비스"}]},{"lat":"36.988796675","long":"126.84627606","items":[{"name":"슬라임노리터","tel":"031-684-7781","addr":"경기도 평택시 포승읍 도곡리 1142-17번지 2층","category":"문화.취미 - 문화취미기타"},{"name":"오구쌀피자(도곡점)","tel":"031-684-5988","addr":"경기도 평택시 포승읍 도곡리 1142-17번지 1층 102호","category":"일반휴게음식 - 서양음식"}]},{"lat":"36.988633978","long":"126.84589448","items":[{"name":"시즌2쪼끼쪼끼","tel":"031-681-0205","addr":"경기도 평택시 포승읍 도곡리 1142-14번지 2층","category":"일반휴게음식 - 주점"},{"name":"쪼끼쪼끼","tel":"031-681-0250","addr":"경기도 평택시 포승읍 도곡리 1142-14번지","category":"일반휴게음식 - 주점"}]},{"lat":"36.98607573","long":"126.84649505","items":[{"name":"신김밥포승점","tel":"031-684-5557","addr":"경기도 평택시 포승읍 도곡리 1156-5번지 1층","category":"일반휴게음식 - 일반한식"},{"name":"통통돼지","tel":"031-1111-111","addr":"경기도 평택시 포승읍 도곡리 1156-5번지","category":"일반휴게음식 - 일반한식"}]},{"lat":"36.986958866","long":"126.84656064","items":[{"name":"신사동차돌박이","tel":"031-681-6092","addr":"경기도 평택시 포승읍 도곡리 1150-11번지","category":"일반휴게음식 - 일반한식"}]},{"lat":"36.98821172","long":"126.84683889","items":[{"name":"신저팔계순대국","tel":"031-682-9289","addr":"경기도 평택시 포승읍 도곡리 1146-1번지","category":"일반휴게음식 - 일반한식"}]},{"lat":"36.987325024","long":"126.84408875","items":[{"name":"신토불이푸줏간","tel":"031-681-3599","addr":"경기도 평택시 포승읍 도곡리 1123-9번지 105호~108호","category":"음료식품 - 정육점"},{"name":"신토불이푸줏간","tel":"031-681-3599","addr":"경기도 평택시 포승읍 도곡리 1123-9번지 (105호~108호)","category":"일반휴게음식 - 일반한식"}]},{"lat":"36.984606734","long":"126.87655503","items":[{"name":"신화모터스","tel":"031-681-7568","addr":"경기도 평택시 포승읍 도곡리 937번지","category":"자동차정비 유지 - 자동차정비"},{"name":"신화모터스(신화T&D)","tel":"031-682-6371","addr":"경기도 평택시 포승읍 도곡리 937번지 신화모터스","category":"자동차정비 유지 - 자동차정비"}]},{"lat":"36.988380607","long":"126.84508626","items":[{"name":"쓰리포","tel":"031-686-7701","addr":"경기도 평택시 포승읍 도곡리 1143-14번지","category":"일반휴게음식 - 주점"}]},{"lat":"36.984384093","long":"126.87904891","items":[{"name":"씨스페이스 평택포승점","tel":"031-682-1455","addr":"경기도 평택시 포승읍 도곡리 943-36번지","category":"유통업 영리 - 편 의 점"}]},{"lat":"36.989661493","long":"126.84611703","items":[{"name":"씨유 포승여술길점","tel":"031-684-0849","addr":"경기도 평택시 포승읍 도곡리 1138-4번지 금란빌 1층","category":"유통업 영리 - 편 의 점"}]},{"lat":"36.990016039","long":"126.84172426","items":[{"name":"씨유포승마에스트로점","tel":"031-898-6568","addr":"경기도 평택시 포승읍 도곡리 1117-10번지 서평택삼익마에스트로 1층 102호","category":"유통업 영리 - 편 의 점"}]},{"lat":"36.987993506","long":"126.84535664","items":[{"name":"씨유포승중앙점","tel":"031-686-6780","addr":"경기도 평택시 포승읍 도곡리 1144-24번지 1층","category":"유통업 영리 - 편 의 점"},{"name":"우리동네 도장열쇠","tel":"031-686-8881","addr":"경기도 평택시 포승읍 도곡리 1144-24번지 1층 CU편의점 매장일부","category":"건축자재 - 목재·석재·철물"},{"name":"쟈스민","tel":"031-618-9019","addr":"경기도 평택시 포승읍 도곡리 1144-24번지 2층","category":"보건위생 - 기타대인서비스"},{"name":"한빛재료상사","tel":"031-683-9793","addr":"경기도 평택시 포승읍 도곡리 1144-24번지 201호","category":"보건위생 - 미용재료"}]},{"lat":"36.985051035","long":"126.87082591","items":[{"name":"씨유포승휴게소점","tel":"031-684-3478","addr":"경기도 평택시 포승읍 도곡리 853번지","category":"유통업 영리 - 편 의 점"},{"name":"원정카센타","tel":"031-682-8119","addr":"경기도 평택시 포승읍 도곡리 853번지","category":"자동차정비 유지 - 자동차정비"}]},{"lat":"36.994100466","long":"126.8505002","items":[{"name":"씽씽노래연습장","tel":"031-683-7276","addr":"경기도 평택시 포승읍 도곡리 231","category":"레저업소 - 노 래 방"}]},{"lat":"36.986015154","long":"126.87080178","items":[{"name":"아!여기쌈밥하네!","tel":"031-681-7111","addr":"경기도 평택시 포승읍 도곡리 851번지 2층","category":"일반휴게음식 - 일반한식"}]},{"lat":"37.000268871","long":"126.84747708","items":[{"name":"아가어린이집[아이행복]","tel":"031-684-4321","addr":"경기도 평택시 포승읍 도곡리 1049-18번지","category":"학원 - 유아원"}]},{"lat":"36.988991293","long":"126.84355735","items":[{"name":"아맘당구클럽","tel":"031-684-8455","addr":"경기도 평택시 포승읍 도곡리 1121-1번지 203호 204호","category":"레저업소 - 당 구 장"},{"name":"콩스타일","tel":"031-684-7770","addr":"경기도 평택시 포승읍 도곡리 1121-1번지 카임하우스 101호","category":"보건위생 - 미용원"},{"name":"크라우드PC포승3호","tel":"","addr":"경기도 평택시 포승읍 도곡리 1121-1번지 카임하우스 202호 201호,202호","category":"레저업소 - 기타레져업소"},{"name":"판자집","tel":"031-682-0303","addr":"경기도 평택시 포승읍 도곡리 1121-1번지 카임하우스 102,103호","category":"일반휴게음식 - 일반한식"}]},{"lat":"36.990324843","long":"126.8435321","items":[{"name":"아오야","tel":"031-681-0916","addr":"경기도 평택시 포승읍 도곡리 1130-4번지 1층","category":"일반휴게음식 - 주점"}]},{"lat":"36.988795352","long":"126.84527636","items":[{"name":"아이앤지(ing)","tel":"031-681-1140","addr":"경기도 평택시 포승읍 도곡리 1141-11번지","category":"일반휴게음식 - 주점"}]},{"lat":"36.986265073","long":"126.84658452","items":[{"name":"아이온 피시방","tel":"031-681-4020","addr":"경기도 평택시 포승읍 도곡리 1156-9번지 세종빌라 상가 1층","category":"레저업소 - 기타레져업소"}]},{"lat":"36.988436366","long":"126.84636666","items":[{"name":"안군비어","tel":"070-7872-8767","addr":"경기도 평택시 포승읍 도곡리 1145-3번지","category":"일반휴게음식 - 일반한식"},{"name":"헤어샵 the MIDAS by Jin(더미다스바이진)","tel":"031-682-2225","addr":"경기도 평택시 포승읍 도곡리 1145-3번지 102호","category":"보건위생 - 미용원"}]},{"lat":"36.98315765","long":"126.87810742","items":[{"name":"안중종합상사","tel":"031-682-0809","addr":"경기도 평택시 포승읍 도곡리 941","category":"기타 - 기계공구"}]},{"lat":"36.986437288","long":"126.86957673","items":[{"name":"안채식당","tel":"","addr":"경기도 평택시 포승읍 도곡리 847-2번지","category":"음식점 - 한식"}]},{"lat":"36.986329009","long":"126.86944213","items":[{"name":"안채식당","tel":"031-681-7111","addr":"경기도 평택시 포승읍 도곡리 847번지 수암하이츠빌라 1층","category":"일반휴게음식 - 일반한식"},{"name":"애니까페","tel":"070-4402-1304","addr":"경기도 평택시 포승읍 도곡리 847","category":"음료식품 - 기타음료식품"}]},{"lat":"36.989490492","long":"126.86058519","items":[{"name":"애견백화점","tel":"031-682-0085","addr":"경기도 평택시 포승읍 도곡리 705-19번지","category":"문화.취미 - 애완동물"},{"name":"연희철물건재","tel":"031-684-8108","addr":"경기도 평택시 포승읍 도곡리 705-19번지","category":"건축자재 - 목재·석재·철물"}]},{"lat":"36.986849967","long":"126.84597678","items":[{"name":"야나기","tel":"031-682-3200","addr":"경기도 평택시 포승읍 도곡리 1144-11번지 1층","category":"일반휴게음식 - 일식·회집"}]},{"lat":"36.987518546","long":"126.84733453","items":[{"name":"약손스킨","tel":"031-684-5884","addr":"경기도 평택시 포승읍 도곡리 1150-1번지 남양빌딩 202호","category":"보건위생 - 화장품"},{"name":"캐밥센타(kebab Center)","tel":"","addr":"경기도 평택시 포승읍 도곡리 1150-1번지 남양빌딩 1층 103호","category":"일반휴게음식 - 서양음식"},{"name":"해뜰날","tel":"031-682-5585","addr":"경기도 평택시 포승읍 도곡리 1150-1번지 남양빌딩","category":"일반휴게음식 - 일반한식"},{"name":"훈식","tel":"031-684-1980","addr":"경기도 평택시 포승읍 도곡리 1150-1번지 남양빌딩 1층 102호","category":"일반휴게음식 - 일반한식"}]},{"lat":"36.985740028","long":"126.84475474","items":[{"name":"양성곱창","tel":"031-681-5251","addr":"경기도 평택시 포승읍 도곡리 1125-1","category":"일반휴게음식 - 일반한식"},{"name":"홍여사낙지마당","tel":"031-683-6717","addr":"경기도 평택시 포승읍 도곡리 1125-1번지","category":"일반휴게음식 - 일반한식"}]},{"lat":"36.984625777","long":"126.84708209","items":[{"name":"양지이앤씨","tel":"","addr":"경기도 평택시 포승읍 도곡리 1208-3번지 W5,6호","category":"신변잡화 - 기타잡화"}]},{"lat":"36.989741041","long":"126.84494865","items":[{"name":"양치기","tel":"031-681-8630","addr":"경기도 평택시 포승읍 도곡리 1139-6번지 1층","category":"일반휴게음식 - 일반한식"},{"name":"옥천불족발앤보쌈","tel":"031-626-8648","addr":"경기도 평택시 포승읍 도곡리 1139-6번지","category":"일반휴게음식 - 일반한식"}]},{"lat":"36.986660148","long":"126.84552787","items":[{"name":"얼큰이칼국수족발","tel":"","addr":"경기도 평택시 포승읍 도곡리 1122-5번지 103호","category":"일반휴게음식 - 일반한식"},{"name":"차돌박사 (포승점)","tel":"031-682-9233","addr":"경기도 평택시 포승읍 도곡리 1122-5번지 109동 110호","category":"일반휴게음식 - 일반한식"},{"name":"투썸플레이스 평택포승","tel":"031-684-2003","addr":"경기도 평택시 포승읍 도곡리 1122-5번지 1층 101,102,104호(센터마크6)","category":"일반휴게음식 - 서양음식"},{"name":"피에스타 PC방 (평택포승점)","tel":"","addr":"경기도 평택시 포승읍 도곡리 1122-5번지 202호","category":"레저업소 - 기타레져업소"},{"name":"황소부추곱창","tel":"031-681-8189","addr":"경기도 평택시 포승읍 도곡리 1122-5번지 1층 108호","category":"일반휴게음식 - 일반한식"}]},{"lat":"36.990408964","long":"126.84580097","items":[{"name":"엣지맘뷰티","tel":"","addr":"경기도 평택시 포승읍 도곡리 1137-10번지 세경빌딩 2층 202호","category":"보건위생 - 화장품"},{"name":"이마트24 포승삼부점","tel":"031-000-0000","addr":"경기도 평택시 포승읍 도곡리 1137-10번지 세경빌딩 1층 101호","category":"유통업 영리 - 편 의 점"},{"name":"홍가전","tel":"070-4076-1453","addr":"경기도 평택시 포승읍 도곡리 1137-10번지 세경빌딩 101호","category":"일반휴게음식 - 일반한식"}]},{"lat":"36.989409423","long":"126.86833594","items":[{"name":"엣지맘스토리","tel":"031-683-7945","addr":"경기도 평택시 포승읍 도곡리 44-84번지","category":"의류 - 정장"}]},{"lat":"36.987570421","long":"126.84567202","items":[{"name":"연변왕꼬치","tel":"031-684-4554","addr":"경기도 평택시 포승읍 도곡리 1144-20번지 1층","category":"일반휴게음식 - 중국식"}]},{"lat":"36.986157048","long":"126.84666337","items":[{"name":"염천하마라탕","tel":"031-000-0000","addr":"경기도 평택시 포승읍 도곡리 1156-8번지","category":"일반휴게음식 - 중국식"}]},{"lat":"36.990180778","long":"126.84361103","items":[{"name":"영광식당","tel":"031-682-3509","addr":"경기도 평택시 포승읍 도곡리 1130-5번지 비젼빌딩","category":"일반휴게음식 - 일반한식"},{"name":"힐링","tel":"","addr":"경기도 평택시 포승읍 도곡리 1130-5번지","category":"보건위생 - 미용재료"}]},{"lat":"36.989715765","long":"126.84627418","items":[{"name":"예광음악교습소","tel":"031-000-0000","addr":"경기도 평택시 포승읍 도곡리 1138-17번지 2층","category":"학원 - 예·체능계학원"}]},{"lat":"36.988821727","long":"126.84478206","items":[{"name":"옛날두부촌","tel":"031-682-6821","addr":"경기도 평택시 포승읍 도곡리 1143-18번지 1층","category":"일반휴게음식 - 일반한식"}]},{"lat":"36.984848432","long":"126.85930214","items":[{"name":"옛날왕돈까스","tel":"031-681-7706","addr":"경기도 평택시 포승읍 도곡리 634-1번지","category":"일반휴게음식 - 일반한식"}]},{"lat":"36.989849497","long":"126.84519555","items":[{"name":"오늘도목로주점","tel":"","addr":"경기도 평택시 포승읍 도곡리 1139-4번지","category":"일반휴게음식 - 주점"},{"name":"행복","tel":"","addr":"경기도 평택시 포승읍 도곡리 1139-4번지","category":"보건위생 - 미용재료"}]},{"lat":"36.987320267","long":"126.84730124","items":[{"name":"오마카세참치전문점","tel":"031-681-7102","addr":"경기도 평택시 포승읍 도곡리 1150-17번지 1층","category":"일반휴게음식 - 일반한식"}]},{"lat":"36.986549353","long":"126.84352874","items":[{"name":"오페라","tel":"031-683-5147","addr":"경기도 평택시 포승읍 도곡리 1124-3번지 1층","category":"일반휴게음식 - 주점"}]},{"lat":"36.987716605","long":"126.84719934","items":[{"name":"와이","tel":"031-681-2589","addr":"경기도 평택시 포승읍 도곡리 1149-8번지 정희빌 102호","category":"일반휴게음식 - 주점"},{"name":"우리집반찬","tel":"031-683-2477","addr":"경기도 평택시 포승읍 도곡리 1149-8번지 정희빌 101호","category":"음료식품 - 기타음료식품"}]},{"lat":"36.988076693","long":"126.84694026","items":[{"name":"왕대박곱창전골전문","tel":"031-682-2201","addr":"경기도 평택시 포승읍 도곡리 1146-18번지","category":"일반휴게음식 - 일반한식"}]},{"lat":"36.990381277","long":"126.84530678","items":[{"name":"왕중왕양꼬치","tel":"031-684-0868","addr":"경기도 평택시 포승읍 도곡리 1136-1번지 삼성빌 101호","category":"일반휴게음식 - 중국식"}]},{"lat":"36.987795494","long":"126.84552553","items":[{"name":"용담리구이구이","tel":"031-682-9638","addr":"경기도 평택시 포승읍 도곡리 1144-22번지 1층","category":"일반휴게음식 - 일반한식"},{"name":"용담리구이구이","tel":"031-684-5138","addr":"경기도 평택시 포승읍 도곡리 1144-22번지 1층","category":"음식점 - 한식"}]},{"lat":"36.991159982","long":"126.86269388","items":[{"name":"우리에너지","tel":"031-681-1156","addr":"경기도 평택시 포승읍 도곡리 139-13번지","category":"신변잡화 - 기타잡화"}]},{"lat":"36.989958549","long":"126.84589176","items":[{"name":"우즈베키스탄레스토랑","tel":"031-111-1111","addr":"경기도 평택시 포승읍 도곡리 1138-2번지 101호","category":"일반휴게음식 - 서양음식"},{"name":"천냥노가리(포승점)","tel":"031-686-5321","addr":"경기도 평택시 포승읍 도곡리 1138-2번지 103호 천냥노가리(포승점)","category":"일반휴게음식 - 주점"}]},{"lat":"36.986327473","long":"126.86808303","items":[{"name":"월드종합페인트","tel":"031-681-8688","addr":"경기도 평택시 포승읍 도곡리 843-5번지","category":"건축자재 - 페인트"}]},{"lat":"36.987354372","long":"126.84582972","items":[{"name":"위창양꼬치","tel":"031-000-0000","addr":"경기도 평택시 포승읍 도곡리 1144-18번지 1층","category":"일반휴게음식 - 중국식"}]},{"lat":"36.991933751","long":"126.84730308","items":[{"name":"유장춘닭개장","tel":"031-681-3540","addr":"경기도 평택시 포승읍 도곡리 276번지 1층 상가","category":"일반휴게음식 - 일반한식"}]},{"lat":"36.989966964","long":"126.84544243","items":[{"name":"육회본가포승공단점","tel":"031-683-1666","addr":"경기도 평택시 포승읍 도곡리 1139-2번지","category":"일반휴게음식 - 일반한식"},{"name":"해물후루룩","tel":"031-681-5543","addr":"경기도 평택시 포승읍 도곡리 1139-2번지","category":"일반휴게음식 - 일반한식"}]},{"lat":"36.989379865","long":"126.84438776","items":[{"name":"육회지존 포승공단점","tel":"031-684-0025","addr":"경기도 평택시 포승읍 도곡리 1143-23번지","category":"일반휴게음식 - 일반한식"}]},{"lat":"36.987876486","long":"126.84544674","items":[{"name":"육회한연어&836숯불바베큐치킨","tel":"","addr":"경기도 평택시 포승읍 도곡리 1144-23번지","category":"일반휴게음식 - 일반한식"},{"name":"통큰돼지","tel":"070-8629-9691","addr":"경기도 평택시 포승읍 도곡리 1144-23번지","category":"일반휴게음식 - 일반한식"}]},{"lat":"36.98480061","long":"126.87252239","items":[{"name":"으랏차차","tel":"031-682-8711","addr":"경기도 평택시 포승읍 도곡리 895-2번지","category":"전기제품 - 가전제품"}]},{"lat":"36.989737302","long":"126.84216293","items":[{"name":"이가감자탕","tel":"031-683-1911","addr":"경기도 평택시 포승읍 도곡리 1118-2번지","category":"일반휴게음식 - 일반한식"}]},{"lat":"36.994655636","long":"126.84780304","items":[{"name":"이명기외형복원광택전문샵","tel":"031-681-9950","addr":"경기도 평택시 포승읍 도곡리 210-10","category":"자동차정비 유지 - 카인테리어"}]},{"lat":"36.988516021","long":"126.84527693","items":[{"name":"이모네우동짜장","tel":"031-681-2832","addr":"경기도 평택시 포승읍 도곡리 1142-9","category":"일반휴게음식 - 스넥"}]},{"lat":"36.987158839","long":"126.84788565","items":[{"name":"이자카야슛","tel":"031-981-9167","addr":"경기도 평택시 포승읍 도곡리 1153-2번지 1층","category":"일반휴게음식 - 일반한식"}]},{"lat":"36.990072756","long":"126.84368989","items":[{"name":"이프 (if)","tel":"031-000-0000","addr":"경기도 평택시 포승읍 도곡리 1130-6번지 2층","category":"일반휴게음식 - 일반한식"},{"name":"전라도식당","tel":"031-681-2225","addr":"경기도 평택시 포승읍 도곡리 1130-6번지","category":"일반휴게음식 - 일반한식"}]},{"lat":"36.985412111","long":"126.87140936","items":[{"name":"일터루코리아","tel":"031-684-8460","addr":"경기도 평택시 포승읍 도곡리 898번지","category":"의류 - 기타의류"}]},{"lat":"36.98820933","long":"126.84503045","items":[{"name":"임가정의원","tel":"031-683-0516","addr":"경기도 평택시 포승읍 도곡리 1143-12번지 선구빌딩 2층","category":"의원 - 의원"},{"name":"햇빛약국","tel":"031-683-8868","addr":"경기도 평택시 포승읍 도곡리 1143-12번지 선구빌딩 1층","category":"약국 - 약국"}]},{"lat":"36.987654251","long":"126.84774986","items":[{"name":"자금성","tel":"031-686-5447","addr":"경기도 평택시 포승읍 도곡리 1152-9번지","category":"일반휴게음식 - 중국식"}]},{"lat":"36.989911015","long":"126.84402721","items":[{"name":"장성","tel":"031-681-2824","addr":"경기도 평택시 포승읍 도곡리 1130-13번지 1층","category":"일반휴게음식 - 중국식"}]},{"lat":"36.988435223","long":"126.84550175","items":[{"name":"장인족발 포승점","tel":"031-616-4245","addr":"경기도 평택시 포승읍 도곡리 1142-11번지","category":"음식점 - 한식"},{"name":"장인족발 포승점","tel":"031-686-8440","addr":"경기도 평택시 포승읍 도곡리 1142-11번지","category":"일반휴게음식 - 일반한식"}]},{"lat":"36.991272527","long":"126.84469836","items":[{"name":"전자담배토탈샵","tel":"031-666-0337","addr":"경기도 평택시 포승읍 도곡리 1131-1번지","category":"기타 - 기타 전문점"},{"name":"피자포스","tel":"031-686-7999","addr":"경기도 평택시 포승읍 도곡리 1131-1","category":"일반휴게음식 - 서양음식"}]},{"lat":"36.987855037","long":"126.86438483","items":[{"name":"전주명가닭개장과 누룽지백숙서평택IC점","tel":"031-684-7320","addr":"경기도 평택시 포승읍 도곡리 744-18번지","category":"음식점 - 한식"},{"name":"전주명가닭개장과누룽지백숙서평택IC점","tel":"031-681-2111","addr":"경기도 평택시 포승읍 도곡리 744-18번지","category":"일반휴게음식 - 일반한식"}]},{"lat":"36.98443296","long":"126.8741629","items":[{"name":"전주콩나물해장국","tel":"031-681-7337","addr":"경기도 평택시 포승읍 도곡리 886번지","category":"일반휴게음식 - 일반한식"}]},{"lat":"36.989903711","long":"126.84530777","items":[{"name":"전통춘천닭갈비","tel":"031-681-0496","addr":"경기도 평택시 포승읍 도곡리 1139-3번지","category":"일반휴게음식 - 일반한식"}]},{"lat":"36.986183755","long":"126.8464162","items":[{"name":"전통한방왕족발포승점","tel":"031-681-2880","addr":"경기도 평택시 포승읍 도곡리 1156-4번지 1층","category":"일반휴게음식 - 일반한식"}]},{"lat":"36.986438594","long":"126.87074489","items":[{"name":"제일라이닝","tel":"031-683-7737","addr":"경기도 평택시 포승읍 도곡리 851-4번지","category":"자동차정비 유지 - 자동차부품"},{"name":"제일라이닝","tel":"031-683-7737","addr":"경기도 평택시 포승읍 도곡리 851-4번지","category":"자동차정비 유지 - 자동차부품"}]},{"lat":"36.985966035","long":"126.86719632","items":[{"name":"제일연마충남영업소","tel":"031-686-5192","addr":"경기도 평택시 포승읍 도곡리 759-5번지 나동","category":"기타 - 기계공구"},{"name":"차고치는집","tel":"061-684-6610","addr":"경기도 평택시 포승읍 도곡리 759-5번지","category":"자동차정비 유지 - 자동차정비"}]},{"lat":"36.988847709","long":"126.84399572","items":[{"name":"제주은갈치","tel":"031-684-0009","addr":"경기도 평택시 포승읍 도곡리 1121-9번지","category":"일반휴게음식 - 일반한식"}]},{"lat":"36.987022074","long":"126.8466616","items":[{"name":"족발야시장포승점","tel":"031-681-3911","addr":"경기도 평택시 포승읍 도곡리 1150-12번지 1층","category":"일반휴게음식 - 일반한식"}]},{"lat":"36.986796185","long":"126.8461903","items":[{"name":"종로빈대떡","tel":"031-681-7275","addr":"경기도 평택시 포승읍 도곡리 1144-13번지 1층","category":"일반휴게음식 - 일반한식"}]},{"lat":"36.986856207","long":"126.86555481","items":[{"name":"종합카에어콘","tel":"031-684-1098","addr":"경기도 평택시 포승읍 도곡리 754-1번지 외2필지","category":"자동차정비 유지 - 자동차부품"},{"name":"포승광고기획","tel":"031-681-5657","addr":"경기도 평택시 포승읍 도곡리 754-1번지","category":"건축자재 - 인테리어전문"},{"name":"현대종합공구","tel":"031-682-7809","addr":"경기도 평택시 포승읍 도곡리 754-1번지 104호","category":"기타 - 기계공구"}]},{"lat":"36.987967012","long":"126.8600264","items":[{"name":"주식회사 대산철강","tel":"031-683-6763","addr":"경기도 평택시 포승읍 도곡리 708-1번지","category":"건축자재 - 기타건축자재"}]},{"lat":"36.994767616","long":"126.8507797","items":[{"name":"주식회사 영광이엔지","tel":"031-681-7740","addr":"경기도 평택시 포승읍 도곡리 175-13번지","category":"자동차정비 유지 - 자동차시트·타이어"}]},{"lat":"36.989328024","long":"126.84606155","items":[{"name":"지리산흑돼지","tel":"031-682-7833","addr":"경기도 평택시 포승읍 도곡리 1141-1번지 1층","category":"일반휴게음식 - 일반한식"}]},{"lat":"36.988098602","long":"126.84308744","items":[{"name":"집밥처럼","tel":"031-683-0657","addr":"경기도 평택시 포승읍 도곡리 1120-3번지 1층","category":"일반휴게음식 - 일반한식"}]},{"lat":"36.989686782","long":"126.84480274","items":[{"name":"짬뽕의 신화","tel":"031-681-6504","addr":"경기도 평택시 포승읍 도곡리 1139-7번지 1층","category":"일반휴게음식 - 중국식"}]},{"lat":"36.987129298","long":"126.8459762","items":[{"name":"쭈꾸미블루스","tel":"031-686-6610","addr":"경기도 평택시 포승읍 도곡리 1144-16번지","category":"일반휴게음식 - 일반한식"}]},{"lat":"36.985154811","long":"126.87508271","items":[{"name":"참나무","tel":"031-682-3883","addr":"경기도 평택시 포승읍 도곡리 913번지 1층","category":"일반휴게음식 - 일반한식"}]},{"lat":"36.985579177","long":"126.86772492","items":[{"name":"참수원갈비","tel":"031-683-8488","addr":"경기도 평택시 포승읍 도곡리 836번지 2층","category":"일반휴게음식 - 일반한식"}]},{"lat":"36.990570724","long":"126.84547489","items":[{"name":"천리향샤브샤브","tel":"031-684-1648","addr":"경기도 평택시 포승읍 도곡리 1137-7번지","category":"일반휴게음식 - 중국식"}]},{"lat":"36.989598744","long":"126.84636428","items":[{"name":"청년다방포승점","tel":"031-682-7858","addr":"경기도 평택시 포승읍 도곡리 1138-16번지 1층","category":"일반휴게음식 - 서양음식"}]},{"lat":"36.98688002","long":"126.84827935","items":[{"name":"청년피자포승점","tel":"031-686-8995","addr":"경기도 평택시 포승읍 도곡리 1153-8번지","category":"일반휴게음식 - 스넥"}]},{"lat":"36.990930824","long":"126.84522702","items":[{"name":"청수 냉면, 감자탕","tel":"","addr":"경기도 평택시 포승읍 도곡리 1137-4번지","category":"음식점 - 한식"},{"name":"청수냉면.감자탕","tel":"031-682-1123","addr":"경기도 평택시 포승읍 도곡리 1137-4번지","category":"일반휴게음식 - 일반한식"}]},{"lat":"36.990487548","long":"126.84391368","items":[{"name":"칸","tel":"031-682-3679","addr":"경기도 평택시 포승읍 도곡리 1132-10번지","category":"일반휴게음식 - 주점"}]},{"lat":"36.988659415","long":"126.84469254","items":[{"name":"코인텔레콤","tel":"031-686-6828","addr":"경기도 평택시 포승읍 도곡리 1143-8번지 1층 102호","category":"사무통신 - 통신기기"}]},{"lat":"36.990271487","long":"126.84406016","items":[{"name":"타타(TATA)마트","tel":"","addr":"경기도 평택시 포승읍 도곡리 1133-9번지 1층 럭스빌","category":"유통업 영리 - 슈퍼마켓"}]},{"lat":"36.98279905","long":"126.87986016","items":[{"name":"터프이너프","tel":"031-681-9595","addr":"경기도 평택시 포승읍 도곡리 942-5번지","category":"일반휴게음식 - 서양음식"}]},{"lat":"36.989130618","long":"126.84669099","items":[{"name":"토프레소 포승점","tel":"031-686-9853","addr":"경기도 평택시 포승읍 도곡리 1138-12번지 동방빌6차 102호","category":"일반휴게음식 - 서양음식"},{"name":"토프레소평택포승점","tel":"031-681-9919","addr":"경기도 평택시 포승읍 도곡리 1138-12번지 동방빌6차 102호","category":"음식점 - 커피"}]},{"lat":"36.9890468","long":"126.84463557","items":[{"name":"통달배족발,보쌈삼겹포승점","tel":"031-686-9077","addr":"경기도 평택시 포승읍 도곡리 1143-20번지","category":"음식점 - 한식"},{"name":"통달배족발보쌈삼겹평택포승점","tel":"","addr":"경기도 평택시 포승읍 도곡리 1143-20번지","category":"일반휴게음식 - 일반한식"}]},{"lat":"36.986986725","long":"126.84718959","items":[{"name":"투더디프런트(TO THE DIFFERENT)","tel":"031-683-4480","addr":"경기도 평택시 포승읍 도곡리 1154-4번지 101호","category":"일반휴게음식 - 서양음식"}]},{"lat":"36.987156033","long":"126.8457515","items":[{"name":"투데이안경원(포승점)","tel":"031-681-3999","addr":"경기도 평택시 포승읍 도곡리 1144-8","category":"보건위생 - 안경"},{"name":"투데이안경원(포승점)","tel":"031-684-6987","addr":"경기도 평택시 포승읍 도곡리 1144-8번지","category":"도소매업 - 안경"}]},{"lat":"36.989409402","long":"126.8462748","items":[{"name":"투도명태집","tel":"","addr":"경기도 평택시 포승읍 도곡리 1138-6번지 지엄빌딩 1층","category":"일반휴게음식 - 일반한식"}]},{"lat":"36.982211089","long":"126.84722179","items":[{"name":"트럭스토리(티에스테크)","tel":"031-684-6190","addr":"경기도 평택시 포승읍 도곡리 1213-1번지 1층(삼우공무(주))","category":"자동차정비 유지 - 자동차부품"}]},{"lat":"36.988488661","long":"126.84502987","items":[{"name":"트레비앙 헤어","tel":"031-683-9985","addr":"경기도 평택시 포승읍 도곡리 1143-15번지","category":"보건위생 - 미용원"}]},{"lat":"36.989022608","long":"126.84678107","items":[{"name":"파리바게뜨 (포승점)","tel":"031-682-9977","addr":"경기도 평택시 포승읍 도곡리 1138-11번지","category":"음료식품 - 제과점"}]},{"lat":"36.987575634","long":"126.84283019","items":[{"name":"파흐드(parcde)103포승점","tel":"031-683-2130","addr":"경기도 평택시 포승읍 도곡리 1119-5번지 1층 6호 5","category":"일반휴게음식 - 서양음식"}]},{"lat":"36.988681732","long":"126.84794996","items":[{"name":"평택도곡초등학교","tel":"070-7096-5000","addr":"경기도 평택시 포승읍 도곡리 1111번지 도곡초등학교","category":"학원 - 초중고교육기관"},{"name":"평택도곡초등학교병설유치원[아이행복]","tel":"070-7096-5015","addr":"경기도 평택시 포승읍 도곡리 1111번지 도곡초등학교","category":"학원 - 유치원"}]},{"lat":"36.989377513","long":"126.84263546","items":[{"name":"평택안포맘","tel":"031-681-0076","addr":"경기도 평택시 포승읍 도곡리 1118-7번지 지예타워","category":"도소매업 - 전자상거래"}]},{"lat":"36.991522861","long":"126.85724518","items":[{"name":"평택항만자동차공업사","tel":"031-111-1111","addr":"경기도 평택시 포승읍 도곡리 148-6","category":"자동차정비 유지 - 자동차정비"}]},{"lat":"36.997188442","long":"126.85550435","items":[{"name":"평화기사식당","tel":"031-616-8010","addr":"경기도 평택시 포승읍 도곡리 160-8번지","category":"일반휴게음식 - 일반한식"},{"name":"평화부품센터","tel":"031-683-8567","addr":"경기도 평택시 포승읍 도곡리 160-8번지","category":"자동차정비 유지 - 자동차부품"}]},{"lat":"36.988101932","long":"126.84558107","items":[{"name":"포승과일","tel":"031-654-5671","addr":"경기도 평택시 포승읍 도곡리 1145-9번지 태광빌 102호","category":"음료식품 - 농·축·수산품"},{"name":"폰값똥값","tel":"031-682-6533","addr":"경기도 평택시 포승읍 도곡리 1145-9번지 태광빌","category":"사무통신 - 통신기기"},{"name":"화통족발","tel":"031-682-2399","addr":"경기도 평택시 포승읍 도곡리 1145-9번지","category":"일반휴게음식 - 일반한식"}]},{"lat":"36.988210402","long":"126.84583919","items":[{"name":"포승닭발","tel":"031-683-9926","addr":"경기도 평택시 포승읍 도곡리 1145-7번지","category":"일반휴게음식 - 일반한식"}]},{"lat":"36.987021274","long":"126.84605505","items":[{"name":"포승상회","tel":"","addr":"경기도 평택시 포승읍 도곡리 1144-15번지","category":"일반휴게음식 - 일반한식"}]},{"lat":"36.989185082","long":"126.86138328","items":[{"name":"포승쌍용차정비전문점","tel":"031-686-5581","addr":"경기도 평택시 포승읍 도곡리 705-26번지","category":"자동차정비 유지 - 자동차정비"},{"name":"현대렉카,크레인","tel":"031-1588-4521","addr":"경기도 평택시 포승읍 도곡리 705-26번지","category":"자동차정비 유지 - 견인서비스"}]},{"lat":"36.98596772","long":"126.84658513","items":[{"name":"포승옥","tel":"031-683-8209","addr":"경기도 평택시 포승읍 도곡리 1156-6번지","category":"일반휴게음식 - 일반한식"}]},{"lat":"36.989964748","long":"126.84377998","items":[{"name":"포승이불마트","tel":"031-682-5245","addr":"경기도 평택시 포승읍 도곡리 1130-7번지","category":"소매업 - 침구류"},{"name":"포승이불마트","tel":"031-686-5926","addr":"경기도 평택시 포승읍 도곡리 1130-7","category":"직물 - 침구·수예점"}]},{"lat":"36.986071626","long":"126.8649946","items":[{"name":"포승인쇄","tel":"031-681-9657","addr":"경기도 평택시 포승읍 도곡리 740-4번지","category":"용역 서비스 - 종합용역"}]},{"lat":"36.988850887","long":"126.84638828","items":[{"name":"포승종로약국","tel":"031-611-5252","addr":"경기도 평택시 포승읍 도곡리 1142-18번지 우측상가 1층","category":"약국 - 약국"},{"name":"포승종로약국","tel":"031-684-2245","addr":"경기도 평택시 포승읍 도곡리 1142-18번지","category":"소매업 - 약국"}]},{"lat":"36.990446148","long":"126.84666583","items":[{"name":"포인트나라","tel":"070-4132-1945","addr":"경기도 평택시 포승읍 도곡리 1109번지 포승삼부르네상스2단지 205동 304호","category":"직물 - 카페트,커튼,천막,지물"}]},{"lat":"36.989877155","long":"126.84566727","items":[{"name":"풍문양꼬치","tel":"031-682-4088","addr":"경기도 평택시 포승읍 도곡리 1139-18번지 1층","category":"일반휴게음식 - 중국식"}]},{"lat":"36.987851618","long":"126.84708674","items":[{"name":"피자와치킨러브레터(포승점)","tel":"031-682-0960","addr":"경기도 평택시 포승읍 도곡리 1149-1번지 영지빌 1층","category":"일반휴게음식 - 스넥"}]},{"lat":"36.988187769","long":"126.84239084","items":[{"name":"피카소모텔","tel":"031-683-4678","addr":"경기도 평택시 포승읍 도곡리 1119-2번지","category":"숙박업 - 여관/기타숙박업"}]},{"lat":"36.986742787","long":"126.84669587","items":[{"name":"한가네숯불갈비 포승점","tel":"031-684-4792","addr":"경기도 평택시 포승읍 도곡리 1154-8번지 1층","category":"일반휴게음식 - 일반한식"}]},{"lat":"36.982022951","long":"126.84805332","items":[{"name":"한국공조엔지니어링 (주)","tel":"031-684-0022","addr":"경기도 평택시 포승읍 도곡리 1215번지","category":"전기제품 - 냉열기기"}]},{"lat":"36.988016849","long":"126.86405879","items":[{"name":"한성 손짜장","tel":"031-682-5517","addr":"경기도 평택시 포승읍 도곡리 744-6번지","category":"일반휴게음식 - 중국식"},{"name":"한성손짜장","tel":"050-4359-8440","addr":"경기도 평택시 포승읍 도곡리 744-6번지","category":"음식점 - 중식"}]},{"lat":"36.989681272","long":"126.86188784","items":[{"name":"한양전기","tel":"031-684-4427","addr":"경기도 평택시 포승읍 도곡리 139-33번지","category":"수리서비스 - 기타수리서비스"}]},{"lat":"36.987404122","long":"126.8640599","items":[{"name":"호텔 헤르메스","tel":"031-683-7272","addr":"경기도 평택시 포승읍 도곡리 744-21번지","category":"숙박업 - 여관/기타숙박업"}]},{"lat":"36.986351344","long":"126.84369764","items":[{"name":"호텔나폴리","tel":"031-686-5661","addr":"경기도 평택시 포승읍 도곡리 1124-4번지","category":"숙박업 - 여관/기타숙박업"}]},{"lat":"36.986765428","long":"126.84339351","items":[{"name":"황제아로마","tel":"031-684-8110","addr":"경기도 평택시 포승읍 도곡리 1124-2번지 2층","category":"보건위생 - 화장품"}]},{"lat":"36.9904627","long":"126.84555374","items":[{"name":"황진이노래연습장","tel":"031-681-7885","addr":"경기도 평택시 포승읍 도곡리 1137-8","category":"레저업소 - 노 래 방"}]},{"lat":"36.987489101","long":"126.8455037","items":[{"name":"후지참치","tel":"031-686-9937","addr":"경기도 평택시 포승읍 도곡리 1144-5번지 1층","category":"일반휴게음식 - 일식·회집"},{"name":"힐링","tel":"031-000-0000","addr":"경기도 평택시 포승읍 도곡리 1144-5번지 2층","category":"보건위생 - 미용재료"}]}]