[{"lat":"37.646919005","long":"127.13836711","items":[{"name":"(주) 바오컴퍼니","tel":"070-4617-5448","addr":"경기도 남양주시 퇴계원읍 퇴계원리 329-138번지","category":"의류 - 정장"}]},{"lat":"37.65266249","long":"127.14240037","items":[{"name":"(주) 에일린바이오","tel":"031-111-1111","addr":"경기도 남양주시 퇴계원읍 퇴계원리 278-2번지 3층","category":"약국 - 제약회사"},{"name":"도담도담식빵남양주퇴계원점","tel":"031-574-9999","addr":"경기도 남양주시 퇴계원읍 퇴계원리 278-2번지 1층 103호","category":"음료식품 - 제과점"},{"name":"선진광고","tel":"031-573-1999","addr":"경기도 남양주시 퇴계원읍 퇴계원리 278-2번지","category":"용역 서비스 - 종합용역"},{"name":"에듀탑학원","tel":"031-572-6500","addr":"경기도 남양주시 퇴계원읍 퇴계원리 278-2번지 2층","category":"학원 - 보습학원"},{"name":"주주헤어샵","tel":"031-573-8316","addr":"경기도 남양주시 퇴계원읍 퇴계원리 278-2번지","category":"보건위생 - 미용원"},{"name":"커피데이","tel":"031-571-6033","addr":"경기도 남양주시 퇴계원읍 퇴계원리 278-2번지","category":"일반휴게음식 - 서양음식"}]},{"lat":"37.646995204","long":"127.14255973","items":[{"name":"(주)한우리축산 퇴계원점","tel":"031-575-6551","addr":"경기도 남양주시 퇴계원읍 퇴계원리 183-39번지","category":"음료식품 - 정육점"}]},{"lat":"37.651941462","long":"127.14261432","items":[{"name":"1001안경","tel":"031-571-2227","addr":"경기도 남양주시 퇴계원읍 퇴계원리 266-3번지","category":"보건위생 - 안경"},{"name":"GS25퇴계원점","tel":"02-2006-2485","addr":"경기도 남양주시 퇴계원읍 퇴계원리 266-3번지 1층","category":"유통업 영리 - 편 의 점"},{"name":"김명란감자탕","tel":"031-000-0000","addr":"경기도 남양주시 퇴계원읍 퇴계원리 266-3번지 1층 일부","category":"일반휴게음식 - 일반한식"},{"name":"레인보우편의점","tel":"031-571-8861","addr":"경기도 남양주시 퇴계원읍 퇴계원리 266-3번지 1층","category":"음료식품 - 기타음료식품"},{"name":"메가엠지씨커피퇴계역점","tel":"070-1111-1111","addr":"경기도 남양주시 퇴계원읍 퇴계원리 266-3번지 1층","category":"일반휴게음식 - 서양음식"},{"name":"석정서예학원","tel":"031-571-6809","addr":"경기도 남양주시 퇴계원읍 퇴계원리 266-3번지","category":"학원 - 기타 교육기관"},{"name":"용우동","tel":"031-571-3142","addr":"경기도 남양주시 퇴계원읍 퇴계원리 266-3번지","category":"일반휴게음식 - 일반한식"},{"name":"쪼아분식","tel":"031-571-0283","addr":"경기도 남양주시 퇴계원읍 퇴계원리 266-3번지","category":"일반휴게음식 - 스넥"},{"name":"퇴계원엠케이어학원","tel":"031-571-8111","addr":"경기도 남양주시 퇴계원읍 퇴계원리 266-3번지 3층","category":"학원 - 보습학원"},{"name":"홀인원 골프연습장(실내)","tel":"031-572-9110","addr":"경기도 남양주시 퇴계원읍 퇴계원리 266-3번지 지하","category":"레저업소 - 스크린골프"}]},{"lat":"37.656138389","long":"127.14394808","items":[{"name":"119호프치킨","tel":"","addr":"경기도 남양주시 퇴계원읍 퇴계원리 80-2번지","category":"일반휴게음식 - 스넥"},{"name":"오늘반찬","tel":"070-4610-2746","addr":"경기도 남양주시 퇴계원읍 퇴계원리 80-2번지","category":"음료식품 - 기타음료식품"}]},{"lat":"37.655165278","long":"127.1440029","items":[{"name":"21세기조훈의원","tel":"031-574-7139","addr":"경기도 남양주시 퇴계원읍 퇴계원리 90번지 도심빌딩 1-4층","category":"의원 - 의원"},{"name":"남양주클라인치과의원","tel":"031-571-0690","addr":"경기도 남양주시 퇴계원읍 퇴계원리 90번지 도심빌딩 2층","category":"의원 - 치과의원"},{"name":"뜰아래밥상","tel":"031-572-1614","addr":"경기도 남양주시 퇴계원읍 퇴계원리 90번지 도심빌딩","category":"일반휴게음식 - 일반한식"},{"name":"레벨업 휘트니스","tel":"031-528-2612","addr":"경기도 남양주시 퇴계원읍 퇴계원리 90번지 도심빌딩 지층 1호,2호","category":"레저업소 - 헬스클럽"},{"name":"매직당구클럽","tel":"070-7719-4548","addr":"경기도 남양주시 퇴계원읍 퇴계원리 90번지 도심빌딩 3층 305호","category":"레저업소 - 당 구 장"},{"name":"우리내과의원","tel":"031-572-8275","addr":"경기도 남양주시 퇴계원읍 퇴계원리 90번지","category":"의원 - 의원"}]},{"lat":"37.647359618","long":"127.1467076","items":[{"name":"3일장터/주식회사 삼안에프씨","tel":"031-571-5392","addr":"경기도 남양주시 퇴계원읍 퇴계원리 203-3번지","category":"일반휴게음식 - 일반한식"}]},{"lat":"37.647748355","long":"127.14562056","items":[{"name":"60계치킨 (퇴계원점)","tel":"","addr":"경기도 남양주시 퇴계원읍 퇴계원리 211-3번지 1층","category":"일반휴게음식 - 스넥"}]},{"lat":"37.656084155","long":"127.1440953","items":[{"name":"B.B자동차용품점","tel":"031-529-5655","addr":"경기도 남양주시 퇴계원읍 퇴계원리 80-5","category":"자동차정비 유지 - 자동차부품"}]},{"lat":"37.645585181","long":"127.14631893","items":[{"name":"G&C시스템","tel":"080-553-4422","addr":"경기도 남양주시 퇴계원읍 퇴계원리 370번지 퇴계원힐스테이트 107동 1002호","category":"수리서비스 - 기타수리서비스"},{"name":"가족애","tel":"031-571-5722","addr":"경기도 남양주시 퇴계원읍 퇴계원리 370번지 퇴계원힐스테이트 116동 703호","category":"용역 서비스 - 종합용역"},{"name":"김삿갓벌꿀농원","tel":"031-512-9855","addr":"경기도 남양주시 퇴계원읍 퇴계원리 370번지 퇴계원힐스테이트 102동 801호","category":"건강식품 - 기타건강식품"},{"name":"꿈을키우는줄리어드다빈치미술음악학원","tel":"031-572-5722","addr":"경기도 남양주시 퇴계원읍 퇴계원리 370번지 퇴계원힐스테이트 상가 2동 201호","category":"학원 - 예·체능계학원"},{"name":"나실인공작소","tel":"031-515-2057","addr":"경기도 남양주시 퇴계원읍 퇴계원리 370번지 퇴계원힐스테이트 113동 1202호","category":"서적문구 - 기타서적문구"},{"name":"대박 포장","tel":"031-529-4578","addr":"경기도 남양주시 퇴계원읍 퇴계원리 370번지 퇴계원힐스테이트 118동 1402호","category":"유통업 영리 - 기타유통업"},{"name":"더호리본","tel":"","addr":"경기도 남양주시 퇴계원읍 퇴계원리 370번지 퇴계원힐스테이트 120동 303호","category":"신변잡화 - 액세서리"},{"name":"생그린","tel":"031-554-8686","addr":"경기도 남양주시 퇴계원읍 퇴계원리 370번지 퇴계원힐스테이트 101동 302호","category":"보건위생 - 화장품"},{"name":"서울 아이뜰","tel":"02-1600-2586","addr":"경기도 남양주시 퇴계원읍 퇴계원리 370번지 퇴계원힐스테이트","category":"의류 - 아동의류"},{"name":"신영통상시스템","tel":"02-420-0602","addr":"경기도 남양주시 퇴계원읍 퇴계원리 370번지 퇴계원힐스테이트 115동 502호","category":"서적문구 - 과학기자재"},{"name":"씨유퇴계힐스테이트점","tel":"031-571-6413","addr":"경기도 남양주시 퇴계원읍 퇴계원리 370번지 제상가1동 제1층 제103호,104호","category":"유통업 영리 - 편 의 점"},{"name":"아이와나무어린이집[아이행복]","tel":"031-571-9031","addr":"경기도 남양주시 퇴계원읍 퇴계원리 370번지 퇴계원힐스테이트 116동 102호","category":"학원 - 유아원"},{"name":"앙트미술교습소","tel":"031-527-7677","addr":"경기도 남양주시 퇴계원읍 퇴계원리 370번지 퇴계원힐스테이트 상가 1동 202호","category":"학원 - 예·체능계학원"},{"name":"야누아리우스(IANURIUS)","tel":"","addr":"경기도 남양주시 퇴계원읍 퇴계원리 370번지 퇴계원힐스테이트 120동 602호","category":"의류 - 정장"},{"name":"자연뜰어린이집[아이행복]","tel":"031-571-7933","addr":"경기도 남양주시 퇴계원읍 퇴계원리 370번지 퇴계원힐스테이트","category":"학원 - 유아원"},{"name":"참교육","tel":"031-563-8740","addr":"경기도 남양주시 퇴계원읍 퇴계원리 370번지 퇴계원힐스테이트 108동 1002호","category":"서적문구 - 일반서적"},{"name":"클린세탁소","tel":"031-571-3310","addr":"경기도 남양주시 퇴계원읍 퇴계원리 370번지 퇴계원힐스테이트 상가 2동 103호","category":"수리서비스 - 세탁소"},{"name":"해피푸드","tel":"031-571-6842","addr":"경기도 남양주시 퇴계원읍 퇴계원리 370번지 퇴계원힐스테이트 상가 1동 102호","category":"음료식품 - 기타음료식품"},{"name":"현대단지내탑공인중개사사무소","tel":"031-528-0030","addr":"경기도 남양주시 퇴계원읍 퇴계원리 370번지 퇴계원힐스테이트 상가 1층 101호","category":"용역 서비스 - 부동산 중개·임대"},{"name":"현대아기별어린이집[아이행복]","tel":"031-510-0456","addr":"경기도 남양주시 퇴계원읍 퇴계원리 370번지 퇴계원힐스테이트 103동 102호","category":"학원 - 유아원"},{"name":"호세야","tel":"031-572-5233","addr":"경기도 남양주시 퇴계원읍 퇴계원리 370번지 퇴계원힐스테이트 상가동 102호","category":"일반휴게음식 - 일반한식"}]},{"lat":"37.648915934","long":"127.14114691","items":[{"name":"GS25남양주퇴계원점","tel":"","addr":"경기도 남양주시 퇴계원읍 퇴계원리 298-4번지","category":"유통업 영리 - 편 의 점"},{"name":"맘스터치 남양주퇴계원점","tel":"031-574-1912","addr":"경기도 남양주시 퇴계원읍 퇴계원리 298-4번지 1층","category":"일반휴게음식 - 일반한식"},{"name":"비바체당구장","tel":"031-571-1510","addr":"경기도 남양주시 퇴계원읍 퇴계원리 298-4번지 3층","category":"레저업소 - 당 구 장"},{"name":"아론PC방","tel":"070-6542-1451","addr":"경기도 남양주시 퇴계원읍 퇴계원리 298-4번지 지하","category":"레저업소 - 기타레져업소"},{"name":"오봉자싸롱","tel":"031-571-4792","addr":"경기도 남양주시 퇴계원읍 퇴계원리 298-4번지 2층","category":"일반휴게음식 - 주점"},{"name":"주식회사 반도인터내셔널","tel":"031-595-8820","addr":"경기도 남양주시 퇴계원읍 퇴계원리 298-4번지","category":"레져용품 - 스포츠·레져용품"},{"name":"할매순대국","tel":"031-527-8882","addr":"경기도 남양주시 퇴계원읍 퇴계원리 298-4번지 1층 104호 105호","category":"일반휴게음식 - 일반한식"}]},{"lat":"37.653913813","long":"127.14326395","items":[{"name":"GS25퇴계원제일점","tel":"02-2006-2118","addr":"경기도 남양주시 퇴계원읍 퇴계원리 99-9번지 외3필지","category":"유통업 영리 - 편 의 점"},{"name":"도미노피자 퇴계원점/주식회사 석영","tel":"","addr":"경기도 남양주시 퇴계원읍 퇴계원리 99-9번지 1층 102호","category":"일반휴게음식 - 서양음식"},{"name":"또봉이치킨","tel":"031-571-6332","addr":"경기도 남양주시 퇴계원읍 퇴계원리 99-9번지 1층 일부","category":"일반휴게음식 - 스넥"},{"name":"컬러오브코리아","tel":"031-571-4095","addr":"경기도 남양주시 퇴계원읍 퇴계원리 99-9번지","category":"여행 - 관광여행"}]},{"lat":"37.658442255","long":"127.146117","items":[{"name":"GS25퇴계원주공점","tel":"","addr":"경기도 남양주시 퇴계원읍 퇴계원리 366번지 주공퇴계원4단지 상가동 101호","category":"유통업 영리 - 편 의 점"}]},{"lat":"37.647333636","long":"127.14584638","items":[{"name":"GS25퇴계원현대점","tel":"080-555-2525","addr":"경기도 남양주시 퇴계원읍 퇴계원리 182-38번지 (101동1층,퇴계원리182-38,한림드림빌)","category":"유통업 영리 - 편 의 점"}]},{"lat":"37.648828168","long":"127.14673309","items":[{"name":"HM자동차공업사","tel":"031-571-2985","addr":"경기도 남양주시 퇴계원읍 퇴계원리 228-5번지","category":"자동차정비 유지 - 자동차정비"}]},{"lat":"37.647607096","long":"127.14320675","items":[{"name":"Hair Salon 백샵","tel":"","addr":"경기도 남양주시 퇴계원읍 퇴계원리 218-56번지","category":"보건위생 - 미용원"},{"name":"바이크숍","tel":"031-571-3137","addr":"경기도 남양주시 퇴계원읍 퇴계원리 218-56","category":"수리서비스 - 레져용품수리"},{"name":"프라자여관","tel":"031-572-6877","addr":"경기도 남양주시 퇴계원읍 퇴계원리 218-56번지 4층","category":"숙박업 - 여관/기타숙박업"}]},{"lat":"37.654300377","long":"127.1439786","items":[{"name":"JUN이너뷰티","tel":"070-8955-0093","addr":"경기도 남양주시 퇴계원읍 퇴계원리 98-3번지","category":"보건위생 - 화장품"}]},{"lat":"37.647277589","long":"127.14747795","items":[{"name":"J스포츠","tel":"031-111-1111","addr":"경기도 남양주시 퇴계원읍 퇴계원리 191-21번지 포스빌하우스 108동 401호","category":"레져용품 - 스포츠·레져용품"}]},{"lat":"37.648059095","long":"127.14192718","items":[{"name":"Oshin","tel":"070-8959-0335","addr":"경기도 남양주시 퇴계원읍 퇴계원리 218-66번지 106호","category":"문화.취미 - 민예·공예품"},{"name":"네일가든","tel":"070-8288-4967","addr":"경기도 남양주시 퇴계원읍 퇴계원리 218-66번지 108호","category":"보건위생 - 피부미용실"},{"name":"네일가든(NAIL GARDEN)속눈썹","tel":"","addr":"경기도 남양주시 퇴계원읍 퇴계원리 218-66번지 1층","category":"보건위생 - 피부미용실"},{"name":"동네커피","tel":"031-528-6263","addr":"경기도 남양주시 퇴계원읍 퇴계원리 218-66번지 105호","category":"일반휴게음식 - 서양음식"},{"name":"메가럭스덴탈","tel":"031-571-0808","addr":"경기도 남양주시 퇴계원읍 퇴계원리 218-66번지 202호","category":"보건위생 - 의료용품"},{"name":"바른덴탈","tel":"031-571-1133","addr":"경기도 남양주시 퇴계원읍 퇴계원리 218-66번지 203호","category":"보건위생 - 의료용품"},{"name":"신전떡볶이","tel":"031-571-8899","addr":"경기도 남양주시 퇴계원읍 퇴계원리 218-66번지 106호","category":"일반휴게음식 - 스넥"},{"name":"퇴계원홀릭옛날통닭","tel":"031-571-2882","addr":"경기도 남양주시 퇴계원읍 퇴계원리 218-66번지","category":"일반휴게음식 - 스넥"}]},{"lat":"37.648142041","long":"127.14034096","items":[{"name":"STEP TO HEALTH 스텝투헬스","tel":"031-551-5021","addr":"경기도 남양주시 퇴계원읍 퇴계원리 311-1번지 삼영빌딩 2층 1호","category":"레저업소 - 헬스클럽"},{"name":"작은법률사무소","tel":"031-575-0750","addr":"경기도 남양주시 퇴계원읍 퇴계원리 311-1번지 3층","category":"용역 서비스 - 법률회계서비스(개인)"},{"name":"천사들의 합창","tel":"031-000-0000","addr":"경기도 남양주시 퇴계원읍 퇴계원리 311-1번지 삼영빌딩 2층 2호","category":"문화.취미 - 애완동물"},{"name":"토시래 퇴계원점","tel":"031-528-2230","addr":"경기도 남양주시 퇴계원읍 퇴계원리 311-1번지 삼영빌딩 1층 101호,102호","category":"일반휴게음식 - 일반한식"},{"name":"황제짬뽕","tel":"031-571-7827","addr":"경기도 남양주시 퇴계원읍 퇴계원리 311-1번지 삼영빌딩 1층 103~105호","category":"일반휴게음식 - 중국식"}]},{"lat":"37.652776764","long":"127.14479162","items":[{"name":"our story(우리들의이야기)","tel":"031-571-9734","addr":"경기도 남양주시 퇴계원읍 퇴계원리 109-25번지 1층","category":"의류 - 정장"},{"name":"신명당구클럽","tel":"031-796-2554","addr":"경기도 남양주시 퇴계원읍 퇴계원리 109-25번지 지하층","category":"레저업소 - 당 구 장"}]},{"lat":"37.648415208","long":"127.14550852","items":[{"name":"가산고시텔","tel":"031-528-2265","addr":"경기도 남양주시 퇴계원읍 퇴계원리 226-1번지 3층,4층","category":"학원 - 독서실"},{"name":"뮤엠영어도제원학원","tel":"031-529-0093","addr":"경기도 남양주시 퇴계원읍 퇴계원리 226-1번지 202호","category":"학원 - 보습학원"},{"name":"빅스타피자","tel":"031-571-7755","addr":"경기도 남양주시 퇴계원읍 퇴계원리 226-1번지 101호","category":"일반휴게음식 - 서양음식"},{"name":"킹바이크","tel":"031-572-4272","addr":"경기도 남양주시 퇴계원읍 퇴계원리 226-1번지 102호 ,103호,104호","category":"레져용품 - 스포츠·레져용품"}]},{"lat":"37.651554341","long":"127.1423643","items":[{"name":"감사민속떡집","tel":"031-571-8848","addr":"경기도 남양주시 퇴계원읍 퇴계원리 280-5번지","category":"음료식품 - 제과점"},{"name":"동의보감한의원","tel":"031-527-1025","addr":"경기도 남양주시 퇴계원읍 퇴계원리 280-5번지 중앙빌딩 2층","category":"의원 - 한의원"},{"name":"백호합기도","tel":"031-571-1898","addr":"경기도 남양주시 퇴계원읍 퇴계원리 280-5번지 중앙빌딩 3층","category":"학원 - 예·체능계학원"},{"name":"샴푸보이","tel":"031-572-4432","addr":"경기도 남양주시 퇴계원읍 퇴계원리 280-5번지 중앙빌딩 105호","category":"보건위생 - 미용원"},{"name":"아성다이소 퇴계원점","tel":"031-527-2066","addr":"경기도 남양주시 퇴계원읍 퇴계원리 280-5번지 1층 및 지층 (중앙빌딩)","category":"신변잡화 - 기타잡화"}]},{"lat":"37.652192898","long":"127.14331737","items":[{"name":"감탄떡볶이 퇴계원점","tel":"031-571-2332","addr":"경기도 남양주시 퇴계원읍 퇴계원리 264-15번지 1층","category":"일반휴게음식 - 스넥"},{"name":"글로리아음악학원","tel":"031-571-9009","addr":"경기도 남양주시 퇴계원읍 퇴계원리 264-15번지 3층","category":"학원 - 예·체능계학원"},{"name":"옛날장터치킨","tel":"070-8623-1248","addr":"경기도 남양주시 퇴계원읍 퇴계원리 264-15번지","category":"일반휴게음식 - 스넥"},{"name":"한가족","tel":"031-571-9963","addr":"경기도 남양주시 퇴계원읍 퇴계원리 264-15번지 1층","category":"일반휴게음식 - 일반한식"}]},{"lat":"37.653526693","long":"127.14301392","items":[{"name":"강남구제","tel":"070-4239-6248","addr":"경기도 남양주시 퇴계원읍 퇴계원리 102-20번지","category":"의류 - 정장"},{"name":"핸드폰아울렛365","tel":"031-5722-9858","addr":"경기도 남양주시 퇴계원읍 퇴계원리 102-20번지","category":"사무통신 - 통신기기"}]},{"lat":"37.648136237","long":"127.14523604","items":[{"name":"강남상사","tel":"031-527-5588","addr":"경기도 남양주시 퇴계원읍 퇴계원리 212-1번지","category":"직물 - 카페트,커튼,천막,지물"},{"name":"곰돌이순대국","tel":"031-571-7437","addr":"경기도 남양주시 퇴계원읍 퇴계원리 212-1번지","category":"일반휴게음식 - 일반한식"}]},{"lat":"37.652383231","long":"127.14236585","items":[{"name":"강남열쇠","tel":"031-573-1155","addr":"경기도 남양주시 퇴계원읍 퇴계원리 267-11번지","category":"건축자재 - 목재·석재·철물"},{"name":"을수산","tel":"","addr":"경기도 남양주시 퇴계원읍 퇴계원리 267-11번지","category":"유통업 영리 - 슈퍼마켓"},{"name":"풀잎문화센터 퇴게원별내지점","tel":"031-527-5575","addr":"경기도 남양주시 퇴계원읍 퇴계원리 267-11번지 3층","category":"문화.취미 - 문화취미기타"},{"name":"합기도 강무관","tel":"031-573-7989","addr":"경기도 남양주시 퇴계원읍 퇴계원리 267-11번지 2층","category":"학원 - 예·체능계학원"}]},{"lat":"37.651967765","long":"127.14322629","items":[{"name":"강정의달인","tel":"031-571-9989","addr":"경기도 남양주시 퇴계원읍 퇴계원리 259-7번지 오덕빌라1차 1층 102호","category":"일반휴게음식 - 스넥"},{"name":"알렌느헤어 앤 메이크업","tel":"031-592-9950","addr":"경기도 남양주시 퇴계원읍 퇴계원리 259-7번지 오덕빌라1차 1층 102호","category":"보건위생 - 미용원"},{"name":"카페구름꽃","tel":"","addr":"경기도 남양주시 퇴계원읍 퇴계원리 259-7번지 오덕빌라1차 1층 103호","category":"일반휴게음식 - 서양음식"}]},{"lat":"37.648252829","long":"127.14567818","items":[{"name":"강호족발","tel":"031-571-3933","addr":"경기도 남양주시 퇴계원읍 퇴계원리 227-1번지 외1필지","category":"일반휴게음식 - 일반한식"},{"name":"구리남양주 무한잉크","tel":"","addr":"경기도 남양주시 퇴계원읍 퇴계원리 227-1번지","category":"사무통신 - 기타 사무용품"},{"name":"원푸드뱅크","tel":"031-527-0455","addr":"경기도 남양주시 퇴계원읍 퇴계원리 227-1번지 103호","category":"일반휴게음식 - 일반한식"}]},{"lat":"37.647856636","long":"127.14548479","items":[{"name":"갤러리공인중개부동산","tel":"031-572-2323","addr":"경기도 남양주시 퇴계원읍 퇴계원리 211-1번지 성심빌딩 101호","category":"용역 서비스 - 부동산 중개·임대"},{"name":"경희맑음한의원","tel":"031-528-1941","addr":"경기도 남양주시 퇴계원읍 퇴계원리 211-1번지 성심빌딩 3층","category":"의원 - 한의원"},{"name":"쿠바쿠바","tel":"031-552-9898","addr":"경기도 남양주시 퇴계원읍 퇴계원리 211-1번지 1층","category":"일반휴게음식 - 서양음식"},{"name":"한사랑의원","tel":"031-572-8335","addr":"경기도 남양주시 퇴계원읍 퇴계원리 211-1번지","category":"의원 - 의원"}]},{"lat":"37.647418954","long":"127.14231124","items":[{"name":"거부기 노래연습장","tel":"031-572-3802","addr":"경기도 남양주시 퇴계원읍 퇴계원리 218-58번지 지하","category":"레저업소 - 노 래 방"},{"name":"풍양칡냉면","tel":"031-572-7731","addr":"경기도 남양주시 퇴계원읍 퇴계원리 218-58","category":"일반휴게음식 - 일반한식"}]},{"lat":"37.652363054","long":"127.14417891","items":[{"name":"경기농산","tel":"031-572-4100","addr":"경기도 남양주시 퇴계원읍 퇴계원리 250-36번지 한신하이츠5차 2동 101호","category":"음료식품 - 미곡상"},{"name":"미드썸머네일","tel":"031-529-4182","addr":"경기도 남양주시 퇴계원읍 퇴계원리 250-36번지 3차 한신하이츠 2동 101호","category":"보건위생 - 피부미용실"},{"name":"장모님순대국","tel":"031-527-6727","addr":"경기도 남양주시 퇴계원읍 퇴계원리 250-36번지 3차한신하이츠 2동 101호","category":"일반휴게음식 - 일반한식"}]},{"lat":"37.650220896","long":"127.14237314","items":[{"name":"경기닭유통","tel":"031-571-4506","addr":"경기도 남양주시 퇴계원읍 퇴계원리 255-41번지","category":"음료식품 - 농·축·수산품"},{"name":"고기마을","tel":"","addr":"경기도 남양주시 퇴계원읍 퇴계원리 255-41번지 1층 104호","category":"일반휴게음식 - 일반한식"},{"name":"꼬꼬숯불야채닭갈비","tel":"031-572-4675","addr":"경기도 남양주시 퇴계원읍 퇴계원리 255-41번지 1층","category":"일반휴게음식 - 일반한식"},{"name":"명일양꼬치2호점","tel":"031-571-8809","addr":"경기도 남양주시 퇴계원읍 퇴계원리 255-41번지 1층 102호","category":"일반휴게음식 - 일반한식"},{"name":"봉화","tel":"031-571-4458","addr":"경기도 남양주시 퇴계원읍 퇴계원리 255-41번지","category":"일반휴게음식 - 일반한식"},{"name":"탑노래방","tel":"","addr":"경기도 남양주시 퇴계원읍 퇴계원리 255-41번지","category":"레저업소 - 노 래 방"},{"name":"하율식당","tel":"031-528-6263","addr":"경기도 남양주시 퇴계원읍 퇴계원리 255-41번지 B동 103호","category":"일반휴게음식 - 일반한식"}]},{"lat":"37.648414632","long":"127.14598443","items":[{"name":"경성집","tel":"031-572-9265","addr":"경기도 남양주시 퇴계원읍 퇴계원리 228-16번지","category":"일반휴게음식 - 일반한식"}]},{"lat":"37.647444327","long":"127.14370502","items":[{"name":"경양식찻집","tel":"031-529-3207","addr":"경기도 남양주시 퇴계원읍 퇴계원리 215-4번지 1층","category":"일반휴게음식 - 서양음식"},{"name":"대원","tel":"","addr":"경기도 남양주시 퇴계원읍 퇴계원리 215-4번지 1층","category":"의류 - 정장"},{"name":"별난부부찹쌀꽈배기","tel":"031-123-4567","addr":"경기도 남양주시 퇴계원읍 퇴계원리 215-4번지 1층 일부","category":"일반휴게음식 - 일반한식"},{"name":"퇴계원복지센터","tel":"031-571-9968","addr":"경기도 남양주시 퇴계원읍 퇴계원리 215-4번지 2층 일부","category":"용역 서비스 - 사무서비스"},{"name":"퇴계원요양보호사교육원","tel":"031-571-9968","addr":"경기도 남양주시 퇴계원읍 퇴계원리 215-4번지 2층","category":"학원 - 기능학원"}]},{"lat":"37.652302599","long":"127.14198042","items":[{"name":"경희대효태권도","tel":"031-529-0928","addr":"경기도 남양주시 퇴계원읍 퇴계원리 278-5번지 3층","category":"학원 - 예·체능계학원"},{"name":"네오학원","tel":"031-529-1535","addr":"경기도 남양주시 퇴계원읍 퇴계원리 278-5번지 장원빌딩 1층","category":"회원제형태 - 학원"},{"name":"장원융합학원","tel":"031-571-4565","addr":"경기도 남양주시 퇴계원읍 퇴계원리 278-5번지 장원빌딩 1층 일부호","category":"학원 - 보습학원"},{"name":"퇴계원 GNB영어학원","tel":"031-574-0590","addr":"경기도 남양주시 퇴계원읍 퇴계원리 278-5번지 장원빌딩 2층","category":"학원 - 외국어학원"}]},{"lat":"37.649970424","long":"127.14084292","items":[{"name":"경희튼튼한의원","tel":"031-529-0017","addr":"경기도 남양주시 퇴계원읍 퇴계원리 290-14번지 2층","category":"의원 - 한의원"},{"name":"군산아구찜","tel":"031-572-0670","addr":"경기도 남양주시 퇴계원읍 퇴계원리 290-14 외3필지","category":"일반휴게음식 - 일반한식"},{"name":"사랑채","tel":"031-572-3579","addr":"경기도 남양주시 퇴계원읍 퇴계원리 290-14 외4필지","category":"일반휴게음식 - 일반한식"},{"name":"엣지노래방","tel":"070-4158-4406","addr":"경기도 남양주시 퇴계원읍 퇴계원리 290-14번지","category":"레저업소 - 노 래 방"},{"name":"옛날통닭","tel":"031-571-5307","addr":"경기도 남양주시 퇴계원읍 퇴계원리 290-14번지 금강빌딩 107호","category":"일반휴게음식 - 스넥"},{"name":"이니스프리","tel":"031-575-6855","addr":"경기도 남양주시 퇴계원읍 퇴계원리 290-14번지 1층 한칸호","category":"보건위생 - 화장품"},{"name":"커피마마","tel":"031-528-2626","addr":"경기도 남양주시 퇴계원읍 퇴계원리 290-14번지","category":"일반휴게음식 - 서양음식"}]},{"lat":"37.659361748","long":"127.14569945","items":[{"name":"고로케연구소","tel":"070-4111-2977","addr":"경기도 남양주시 퇴계원읍 퇴계원리 44-28번지 보성빌딩 104호","category":"일반휴게음식 - 스넥"},{"name":"예그리나","tel":"031-571-1195","addr":"경기도 남양주시 퇴계원읍 퇴계원리 44-28번지 G동 1층 110호","category":"일반휴게음식 - 스넥"},{"name":"예스학원","tel":"070-8987-3515","addr":"경기도 남양주시 퇴계원읍 퇴계원리 44-28번지 1층","category":"학원 - 보습학원"},{"name":"치킨달인","tel":"031-528-9252","addr":"경기도 남양주시 퇴계원읍 퇴계원리 44-28번지 지층","category":"일반휴게음식 - 스넥"},{"name":"카페수수(CafeSuSu)","tel":"031-571-0706","addr":"경기도 남양주시 퇴계원읍 퇴계원리 44-28번지 보성빌딩 지1층 111호,112호","category":"일반휴게음식 - 서양음식"},{"name":"헤어뜰","tel":"031-572-7830","addr":"경기도 남양주시 퇴계원읍 퇴계원리 44-28번지 보성빌딩 지층 109호","category":"보건위생 - 미용원"}]},{"lat":"37.651445823","long":"127.14270405","items":[{"name":"고성막국수","tel":"031-571-2682","addr":"경기도 남양주시 퇴계원읍 퇴계원리 265-15","category":"일반휴게음식 - 일반한식"}]},{"lat":"37.663720296","long":"127.14745317","items":[{"name":"고창수산","tel":"031-572-3524","addr":"경기도 남양주시 퇴계원읍 퇴계원리 12-5번지","category":"음료식품 - 농·축·수산품"},{"name":"참나무집","tel":"031-572-3524","addr":"경기도 남양주시 퇴계원읍 퇴계원리 12-5","category":"일반휴게음식 - 일반한식"}]},{"lat":"37.666299866","long":"127.14514604","items":[{"name":"고향산천","tel":"031-571-4489","addr":"경기도 남양주시 퇴계원읍 퇴계원리 산1-1","category":"일반휴게음식 - 일반한식"}]},{"lat":"37.647524859","long":"127.14416975","items":[{"name":"공릉동멸치국수","tel":"070-8869-1600","addr":"경기도 남양주시 퇴계원읍 퇴계원리 213-11번지","category":"일반휴게음식 - 스넥"},{"name":"솥뚜껑생삼겹살","tel":"031-527-6967","addr":"경기도 남양주시 퇴계원읍 퇴계원리 213-11번지 1층","category":"일반휴게음식 - 일반한식"},{"name":"역전분식","tel":"031-528-5514","addr":"경기도 남양주시 퇴계원읍 퇴계원리 213-11번지","category":"일반휴게음식 - 스넥"},{"name":"타이어테크(구리점)","tel":"031-562-9900","addr":"경기도 남양주시 퇴계원읍 퇴계원리 213-11번지","category":"자동차정비 유지 - 자동차부품"},{"name":"타이어테크(구리점)","tel":"031-562-9900","addr":"경기도 남양주시 퇴계원읍 퇴계원리 213-11번지 1층","category":"자동차정비 유지 - 자동차부품"}]},{"lat":"37.650332852","long":"127.1390872","items":[{"name":"구리수산","tel":"031-528-2330","addr":"경기도 남양주시 퇴계원읍 퇴계원리 287-18번지 만정주택 가동 101호","category":"음료식품 - 농·축·수산품"}]},{"lat":"37.653031","long":"127.14314897","items":[{"name":"구피","tel":"031-571-2608","addr":"경기도 남양주시 퇴계원읍 퇴계원리 101-7번지 2층","category":"보건위생 - 미용원"},{"name":"굽네치킨 퇴계원점","tel":"031-529-9973","addr":"경기도 남양주시 퇴계원읍 퇴계원리 101-7번지 2층 우측호","category":"일반휴게음식 - 스넥"},{"name":"동양유리","tel":"031-572-9611","addr":"경기도 남양주시 퇴계원읍 퇴계원리 101-7번지","category":"건축자재 - 유리"},{"name":"동양종합장식","tel":"031-571-5941","addr":"경기도 남양주시 퇴계원읍 퇴계원리 101-7번지","category":"건축자재 - 인테리어전문"}]},{"lat":"37.650249405","long":"127.14111539","items":[{"name":"국제로타리3600지구퇴계원클럽","tel":"031-571-0029","addr":"경기도 남양주시 퇴계원읍 퇴계원리 292-6번지 금강빌딩 2층","category":"기타 - 비영리/비대상"}]},{"lat":"37.652724833","long":"127.14301241","items":[{"name":"굽모닝숯불바베큐","tel":"031-527-9282","addr":"경기도 남양주시 퇴계원읍 퇴계원리 268-10번지","category":"일반휴게음식 - 스넥"},{"name":"마임퇴계원지사","tel":"031-568-8118","addr":"경기도 남양주시 퇴계원읍 퇴계원리 268-10번지 202호","category":"건강식품 - 기타건강식품"},{"name":"무한리필고기굼터","tel":"031-0000-0000","addr":"경기도 남양주시 퇴계원읍 퇴계원리 268-10번지","category":"일반휴게음식 - 일반한식"}]},{"lat":"37.652526728","long":"127.14292138","items":[{"name":"굿맘할매순대국 퇴계원점","tel":"031-000-0000","addr":"경기도 남양주시 퇴계원읍 퇴계원리 268-11번지 1층","category":"일반휴게음식 - 일반한식"},{"name":"닭쳐발포차","tel":"031-568-5009","addr":"경기도 남양주시 퇴계원읍 퇴계원리 268-11번지 지하1층 일부호","category":"일반휴게음식 - 일반한식"},{"name":"소중한약국","tel":"031-571-7233","addr":"경기도 남양주시 퇴계원읍 퇴계원리 268-11","category":"약국 - 약국"},{"name":"신발나라(슈젤)","tel":"031-672-9861","addr":"경기도 남양주시 퇴계원읍 퇴계원리 268-11번지 1층","category":"유통업 영리 - 통신판매업2"}]},{"lat":"37.649276161","long":"127.14128356","items":[{"name":"굿모닝약국","tel":"031-572-7749","addr":"경기도 남양주시 퇴계원읍 퇴계원리 295-3번지 1층","category":"약국 - 약국"},{"name":"연세재활의학과의원","tel":"031-571-1775","addr":"경기도 남양주시 퇴계원읍 퇴계원리 295-3번지 보성빌딩 2층","category":"의원 - 의원"},{"name":"참소아청소년과의원","tel":"031-572-5535","addr":"경기도 남양주시 퇴계원읍 퇴계원리 295-3번지 보성빌딩 2층","category":"의원 - 의원"},{"name":"청개구리노래연습장","tel":"031-575-7724","addr":"경기도 남양주시 퇴계원읍 퇴계원리 295-3, 3층","category":"레저업소 - 노 래 방"},{"name":"카페록시","tel":"031-1111-1111","addr":"경기도 남양주시 퇴계원읍 퇴계원리 295-3번지 보성빌딩","category":"일반휴게음식 - 서양음식"}]},{"lat":"37.649860643","long":"127.14225915","items":[{"name":"굿앤닭","tel":"031-572-5459","addr":"경기도 남양주시 퇴계원읍 퇴계원리 255-35번지","category":"일반휴게음식 - 스넥"},{"name":"원조이모네곱창","tel":"031-874-8700","addr":"경기도 남양주시 퇴계원읍 퇴계원리 255-35번지 102호","category":"일반휴게음식 - 일반한식"}]},{"lat":"37.653084099","long":"127.14395364","items":[{"name":"궁전각","tel":"031-571-6638","addr":"경기도 남양주시 퇴계원읍 퇴계원리 263-7","category":"일반휴게음식 - 중국식"},{"name":"무예마트","tel":"031-571-6361","addr":"경기도 남양주시 퇴계원읍 퇴계원리 263-7","category":"레져용품 - 스포츠·레져용품"}]},{"lat":"37.648387809","long":"127.14581441","items":[{"name":"귀가현","tel":"031-111-1111","addr":"경기도 남양주시 퇴계원읍 퇴계원리 228-17번지","category":"문화.취미 - 문화취미기타"},{"name":"더 마음사랑","tel":"","addr":"경기도 남양주시 퇴계원읍 퇴계원리 228-17번지 2층","category":"보건위생 - 기타대인서비스"},{"name":"인헤어","tel":"031-528-6263","addr":"경기도 남양주시 퇴계원읍 퇴계원리 228-17번지 1층","category":"보건위생 - 미용원"},{"name":"제이앤케이패션(J&K FASHION)","tel":"","addr":"경기도 남양주시 퇴계원읍 퇴계원리 228-17번지 3층","category":"의류 - 단체복"}]},{"lat":"37.647362915","long":"127.14397681","items":[{"name":"그린","tel":"031-000-0000","addr":"경기도 남양주시 퇴계원읍 퇴계원리 215-1번지","category":"숙박업 - 여관/기타숙박업"}]},{"lat":"37.647912072","long":"127.14434045","items":[{"name":"그린나래캘리","tel":"","addr":"경기도 남양주시 퇴계원읍 퇴계원리 214-8번지 2층","category":"문화.취미 - 문화취미기타"}]},{"lat":"37.647610669","long":"127.14770522","items":[{"name":"기쁜마음","tel":"031-572-2177","addr":"경기도 남양주시 퇴계원읍 퇴계원리 192-15","category":"신변잡화 - 가방"}]},{"lat":"37.650500075","long":"127.14247565","items":[{"name":"김호준당구클럽","tel":"031-529-3949","addr":"경기도 남양주시 퇴계원읍 퇴계원리 255-14","category":"레저업소 - 당 구 장"},{"name":"민들레밥집","tel":"070-4922-1261","addr":"경기도 남양주시 퇴계원읍 퇴계원리 255-14번지 1층","category":"일반휴게음식 - 일반한식"},{"name":"세이순","tel":"031-572-5888","addr":"경기도 남양주시 퇴계원읍 퇴계원리 255-14번지","category":"보건위생 - 미용원"},{"name":"숯불직화꼬치구이","tel":"031-571-9293","addr":"경기도 남양주시 퇴계원읍 퇴계원리 255-14번지","category":"일반휴게음식 - 일반한식"},{"name":"포도나무","tel":"","addr":"경기도 남양주시 퇴계원읍 퇴계원리 255-14번지 1층","category":"의류 - 정장"},{"name":"황가네 즉석두부","tel":"031-574-0177","addr":"경기도 남양주시 퇴계원읍 퇴계원리 255-14번지","category":"음료식품 - 기타음료식품"}]},{"lat":"37.648303169","long":"127.14123643","items":[{"name":"깜빠뉴","tel":"070-7739-8982","addr":"경기도 남양주시 퇴계원읍 퇴계원리 218-141번지","category":"음료식품 - 제과점"}]},{"lat":"37.648531455","long":"127.14623394","items":[{"name":"꿀꿀이순대국","tel":"","addr":"경기도 남양주시 퇴계원읍 퇴계원리 228-12번지","category":"일반휴게음식 - 일반한식"}]},{"lat":"37.656830157","long":"127.14559261","items":[{"name":"나리타 퇴계원점","tel":"031-111-1111","addr":"경기도 남양주시 퇴계원읍 퇴계원리 60-13번지 1층","category":"일반휴게음식 - 일식·회집"},{"name":"멕시카나 퇴계원점","tel":"031-571-0222","addr":"경기도 남양주시 퇴계원읍 퇴계원리 60-13번지 1호","category":"일반휴게음식 - 스넥"},{"name":"조선일보퇴계원.청학.별내지국","tel":"031-572-3660","addr":"경기도 남양주시 퇴계원읍 퇴계원리 60-13번지 일신상가","category":"서적문구 - 정기간행물"},{"name":"하이인쇄","tel":"031-000-0000","addr":"경기도 남양주시 퇴계원읍 퇴계원리 60-13번지","category":"서적문구 - 출판 및 인쇄물"}]},{"lat":"37.649413209","long":"127.13965209","items":[{"name":"나무생각","tel":"031-571-0612","addr":"경기도 남양주시 퇴계원읍 퇴계원리 300번지 1층 상가 1층","category":"가구 - 일반가구"}]},{"lat":"37.651635522","long":"127.14228513","items":[{"name":"낙원돈까스","tel":"031-571-4645","addr":"경기도 남양주시 퇴계원읍 퇴계원리 280-1번지","category":"일반휴게음식 - 일반한식"}]},{"lat":"37.650058588","long":"127.14248615","items":[{"name":"남양주퇴계원 작심스페이스","tel":"031-514-5566","addr":"경기도 남양주시 퇴계원읍 퇴계원리 255-17번지 영재빌딩 201호","category":"용역 서비스 - 사무서비스"},{"name":"목화대중목욕탕","tel":"031-528-2117","addr":"경기도 남양주시 퇴계원읍 퇴계원리 255-17번지 지하1,2층","category":"보건위생 - 사우나"},{"name":"퇴계원점 작심독서실","tel":"031-514-5566","addr":"경기도 남양주시 퇴계원읍 퇴계원리 255-17번지 2층 201호","category":"학원 - 독서실"},{"name":"행복한하마","tel":"031-572-5587","addr":"경기도 남양주시 퇴계원읍 퇴계원리 255-17번지","category":"일반휴게음식 - 일반한식"}]},{"lat":"37.653138455","long":"127.14370444","items":[{"name":"네네치킨","tel":"031-571-9925","addr":"경기도 남양주시 퇴계원읍 퇴계원리 263번지 1층 네네치킨","category":"일반휴게음식 - 스넥"}]},{"lat":"37.64852955","long":"127.14026236","items":[{"name":"네이처리퍼블릭 퇴계원점","tel":"031-571-7829","addr":"경기도 남양주시 퇴계원읍 퇴계원리 218-50번지 구일빌딩 1층 102호","category":"보건위생 - 화장품"},{"name":"명륜진사갈비","tel":"031-575-1055","addr":"경기도 남양주시 퇴계원읍 퇴계원리 218-50번지 3층","category":"일반휴게음식 - 일반한식"},{"name":"밥맛나는세상(밥상)","tel":"031-571-8414","addr":"경기도 남양주시 퇴계원읍 퇴계원리 218-50번지 1층 일부","category":"일반휴게음식 - 스넥"},{"name":"서이","tel":"070-8851-8337","addr":"경기도 남양주시 퇴계원읍 퇴계원리 218-50번지 외 1필지 1층","category":"사무통신 - 통신기기"},{"name":"플라이비 에 플로리안","tel":"031-573-1058","addr":"경기도 남양주시 퇴계원읍 퇴계원리 218-50번지 2층","category":"일반휴게음식 - 서양음식"},{"name":"한샘인테리어","tel":"031-573-0482","addr":"경기도 남양주시 퇴계원읍 퇴계원리 218-50번지 1호","category":"건축자재 - 인테리어전문"}]},{"lat":"37.647245423","long":"127.14428253","items":[{"name":"노랑통닭 퇴계원점","tel":"031-573-5739","addr":"경기도 남양주시 퇴계원읍 퇴계원리 182-4번지","category":"일반휴게음식 - 스넥"}]},{"lat":"37.652301553","long":"127.1428643","items":[{"name":"노래터노래연습장","tel":"031-572-8213","addr":"경기도 남양주시 퇴계원읍 퇴계원리 266번지 1층","category":"레저업소 - 노 래 방"},{"name":"포차시대","tel":"","addr":"경기도 남양주시 퇴계원읍 퇴계원리 266번지 (2층의일부)","category":"일반휴게음식 - 일반한식"}]},{"lat":"37.648362786","long":"127.14414867","items":[{"name":"뉴(NEW)전략","tel":"031-8034-9180","addr":"경기도 남양주시 퇴계원읍 퇴계원리 183-8번지,213-5번지","category":"사무통신 - 통신기기"}]},{"lat":"37.64752509","long":"127.14397712","items":[{"name":"뉴세븐당구클럽","tel":"","addr":"경기도 남양주시 퇴계원읍 퇴계원리 183-2번지 3층","category":"레저업소 - 당 구 장"},{"name":"미니스톱 퇴계원역점","tel":"031-1577-9621","addr":"경기도 남양주시 퇴계원읍 퇴계원리 183-2번지 1층","category":"유통업 영리 - 편 의 점"},{"name":"비비에이짐(BBAGYM)","tel":"031-487-5547","addr":"경기도 남양주시 퇴계원읍 퇴계원리 183-2번지 2층","category":"레저업소 - 헬스클럽"},{"name":"위드미 퇴계원역점","tel":"02-6916-1500","addr":"경기도 남양주시 퇴계원읍 퇴계원리 183-2번지 1층","category":"유통업 영리 - 편 의 점"},{"name":"한울심리발달지원센터","tel":"031-572-6377","addr":"경기도 남양주시 퇴계원읍 퇴계원리 183-2번지 4층","category":"학원 - 기타 교육기관"},{"name":"한울심리발달지원센터","tel":"031-572-6377","addr":"경기도 남양주시 퇴계원읍 퇴계원리 183-2번지 4층","category":"학원 - 기타 교육기관"}]},{"lat":"37.655750268","long":"127.14453663","items":[{"name":"늘푸른건강원","tel":"031-572-8621","addr":"경기도 남양주시 퇴계원읍 퇴계원리 75-18번지 1층","category":"건강식품 - 기타건강식품"},{"name":"행운 노래연습장","tel":"031-572-5391","addr":"경기도 남양주시 퇴계원읍 퇴계원리 75-18번지","category":"레저업소 - 노 래 방"}]},{"lat":"37.653057638","long":"127.14347764","items":[{"name":"니알수학교습소","tel":"031-556-9172","addr":"경기도 남양주시 퇴계원읍 퇴계원리 263-3번지 1층","category":"회원제형태 - 학원"},{"name":"미래에듀 사회적협동조합","tel":"031-515-2057","addr":"경기도 남양주시 퇴계원읍 퇴계원리 263-3번지 1층","category":"학원 - 기타 교육기관"}]},{"lat":"37.647472811","long":"127.14248131","items":[{"name":"닐맘","tel":"031-111-1111","addr":"경기도 남양주시 퇴계원읍 퇴계원리 218-57번지 1층","category":"일반휴게음식 - 일반한식"},{"name":"신춘숯불갈비","tel":"031-572-5679","addr":"경기도 남양주시 퇴계원읍 퇴계원리 218-57번지","category":"일반휴게음식 - 일반한식"},{"name":"피자핫","tel":"031-528-8482","addr":"경기도 남양주시 퇴계원읍 퇴계원리 218-57번지 1층 2호","category":"일반휴게음식 - 서양음식"}]},{"lat":"37.654444369","long":"127.14411486","items":[{"name":"다원툴스","tel":"031-571-1952","addr":"경기도 남양주시 퇴계원읍 퇴계원리 96-3번지 1층","category":"기타 - 기계공구"}]},{"lat":"37.650744645","long":"127.14136561","items":[{"name":"닥터보청기 (퇴계원점)","tel":"031-575-9696","addr":"경기도 남양주시 퇴계원읍 퇴계원리 286-18번지 403호","category":"보건위생 - 의료용품"},{"name":"옛고을","tel":"031-527-0057","addr":"경기도 남양주시 퇴계원읍 퇴계원리 286-18번지 1층","category":"일반휴게음식 - 일반한식"}]},{"lat":"37.654552241","long":"127.14431904","items":[{"name":"단발머리헤어","tel":"031-571-7807","addr":"경기도 남양주시 퇴계원읍 퇴계원리 95번지 1층","category":"보건위생 - 미용원"}]},{"lat":"37.662390441","long":"127.14450391","items":[{"name":"단수일도학회","tel":"031-571-9581","addr":"경기도 남양주시 퇴계원읍 퇴계원리 산4-11번지","category":"음료식품 - 농·축·수산품"}]},{"lat":"37.652220332","long":"127.14297747","items":[{"name":"달님이네포차","tel":"031-572-6912","addr":"경기도 남양주시 퇴계원읍 퇴계원리 266-5번지 1층","category":"일반휴게음식 - 주점"},{"name":"민영설비공사","tel":"031-571-6365","addr":"경기도 남양주시 퇴계원읍 퇴계원리 266-5번지","category":"건축자재 - 보일러·펌프·샷시"},{"name":"쉬즈","tel":"070-8161-7775","addr":"경기도 남양주시 퇴계원읍 퇴계원리 266-5번지","category":"의류 - 정장"}]},{"lat":"37.65280635","long":"127.14264994","items":[{"name":"달리는땅콩","tel":"070-8160-9998","addr":"경기도 남양주시 퇴계원읍 퇴계원리 268-3번지","category":"음료식품 - 기타음료식품"},{"name":"라엘","tel":"","addr":"경기도 남양주시 퇴계원읍 퇴계원리 268-3번지 1층","category":"의류 - 정장"},{"name":"민트레빗","tel":"031-866-0058","addr":"경기도 남양주시 퇴계원읍 퇴계원리 268-3번지 1층","category":"의류 - 아동의류"},{"name":"반하개","tel":"","addr":"경기도 남양주시 퇴계원읍 퇴계원리 268-3번지","category":"문화.취미 - 애완동물"}]},{"lat":"37.647718164","long":"127.14070278","items":[{"name":"달빛주가","tel":"031-571-8588","addr":"경기도 남양주시 퇴계원읍 퇴계원리 314-11번지 1층","category":"일반휴게음식 - 주점"},{"name":"신현대공인중개사사무소(합동)","tel":"031-573-6700","addr":"경기도 남양주시 퇴계원읍 퇴계원리 314-11","category":"용역 서비스 - 부동산 중개·임대"},{"name":"즐거운 노래연습장","tel":"031-571-1844","addr":"경기도 남양주시 퇴계원읍 퇴계원리 314-11번지 2층","category":"레저업소 - 노 래 방"},{"name":"한양다방","tel":"031-571-9798","addr":"경기도 남양주시 퇴계원읍 퇴계원리 314-11번지","category":"일반휴게음식 - 서양음식"}]},{"lat":"37.648082315","long":"127.14512262","items":[{"name":"대박점핑","tel":"","addr":"경기도 남양주시 퇴계원읍 퇴계원리 212-5번지 3층","category":"레저업소 - 헬스클럽"},{"name":"미스터클럽","tel":"031-571-5717","addr":"경기도 남양주시 퇴계원읍 퇴계원리 212-5번지","category":"보건위생 - 미용원"}]},{"lat":"37.649808475","long":"127.14064998","items":[{"name":"대성","tel":"031-575-9834","addr":"경기도 남양주시 퇴계원읍 퇴계원리 290-9번지 지하101~지하102호","category":"용역 서비스 - 부동산 중개·임대"},{"name":"더예쁜스킨앤바디","tel":"031-775-9250","addr":"경기도 남양주시 퇴계원읍 퇴계원리 290-9번지 4층 402호","category":"보건위생 - 피부미용실"},{"name":"수비뇨기과의원","tel":"031-527-2345","addr":"경기도 남양주시 퇴계원읍 퇴계원리 290-9번지 송백타운 306호","category":"의원 - 의원"},{"name":"안경스타","tel":"031-553-5555","addr":"경기도 남양주시 퇴계원읍 퇴계원리 290-9번지 송백타운 101호","category":"보건위생 - 안경"},{"name":"요리가맛있는김셰프의중식포차","tel":"031-510-8188","addr":"경기도 남양주시 퇴계원읍 퇴계원리 290-9번지 1층 108호","category":"일반휴게음식 - 중국식"},{"name":"준치과","tel":"","addr":"경기도 남양주시 퇴계원읍 퇴계원리 290-9번지 301호 송백타운 (준치과)","category":"의원 - 치과의원"},{"name":"포모사 플라잉 치유요가","tel":"","addr":"경기도 남양주시 퇴계원읍 퇴계원리 290-9번지 외1필지 2층 205호","category":"레저업소 - 헬스클럽"},{"name":"포모사 필라테스","tel":"","addr":"경기도 남양주시 퇴계원읍 퇴계원리 290-9번지 2층 202호","category":"레저업소 - 헬스클럽"},{"name":"한돈한우","tel":"031-573-9253","addr":"경기도 남양주시 퇴계원읍 퇴계원리 290-9번지 2층 201호","category":"일반휴게음식 - 일반한식"}]},{"lat":"37.644976247","long":"127.13542892","items":[{"name":"대성가설산업","tel":"","addr":"경기도 남양주시 퇴계원읍 퇴계원리 345번지","category":"건축자재 - 기타건축자재"}]},{"lat":"37.662890349","long":"127.1483129","items":[{"name":"대한불교법사종(청룡사)","tel":"031-572-8996","addr":"경기도 남양주시 퇴계원읍 퇴계원리 6-3번지 1층","category":"기타 - 비영리/대상"},{"name":"뱅이매운탕추어탕","tel":"031-572-4073","addr":"경기도 남양주시 퇴계원읍 퇴계원리 6-3번지","category":"일반휴게음식 - 일반한식"},{"name":"서울월드피싱","tel":"031-111-1111","addr":"경기도 남양주시 퇴계원읍 퇴계원리 6-3번지 뱅이부동산 일부","category":"레져용품 - 스포츠·레져용품"}]},{"lat":"37.652326335","long":"127.14474543","items":[{"name":"대한종합설비","tel":"031-571-9363","addr":"경기도 남양주시 퇴계원읍 퇴계원리 261-11번지 세협주택 10동 302호","category":"회원제형태 - 기타4"}]},{"lat":"37.656444908","long":"127.14379001","items":[{"name":"더끌림헤어","tel":"031-529-9276","addr":"경기도 남양주시 퇴계원읍 퇴계원리 81-4번지","category":"보건위생 - 미용원"},{"name":"백마건강원","tel":"031-571-0366","addr":"경기도 남양주시 퇴계원읍 퇴계원리 81-4번지 1층","category":"건강식품 - 기타건강식품"},{"name":"청석골칡냉면","tel":"031-574-2530","addr":"경기도 남양주시 퇴계원읍 퇴계원리 81-4번지","category":"일반휴게음식 - 일반한식"}]},{"lat":"37.65163595","long":"127.14192252","items":[{"name":"더제이드헤어","tel":"","addr":"경기도 남양주시 퇴계원읍 퇴계원리 282-2번지 2층","category":"보건위생 - 미용원"},{"name":"명랑시대쌀핫도그(퇴계원점)","tel":"031-574-3384","addr":"경기도 남양주시 퇴계원읍 퇴계원리 282-2번지 1층","category":"일반휴게음식 - 서양음식"},{"name":"소문난 닭 강정","tel":"031-527-4774","addr":"경기도 남양주시 퇴계원읍 퇴계원리 282-2번지 1층","category":"일반휴게음식 - 스넥"},{"name":"알케이","tel":"031-528-3465","addr":"경기도 남양주시 퇴계원읍 퇴계원리 282-2번지 인왕빌딩 1층","category":"레져용품 - 스포츠·레져용품"},{"name":"하나인력파출","tel":"031-591-7555","addr":"경기도 남양주시 퇴계원읍 퇴계원리 282-2번지 3층","category":"용역 서비스 - 종합용역"}]},{"lat":"37.655885453","long":"127.14450289","items":[{"name":"덕희포차","tel":"031-571-8174","addr":"경기도 남양주시 퇴계원읍 퇴계원리 75-17","category":"일반휴게음식 - 주점"},{"name":"왕십리불곱창","tel":"031-571-8559","addr":"경기도 남양주시 퇴계원읍 퇴계원리 75-17","category":"일반휴게음식 - 일반한식"}]},{"lat":"37.648384747","long":"127.14081732","items":[{"name":"데일리PC","tel":"031-574-5302","addr":"경기도 남양주시 퇴계원읍 퇴계원리 218-133번지 세란병원 3층 301호","category":"레저업소 - 기타레져업소"},{"name":"맛닭꼬(퇴계원점)","tel":"031-528-8992","addr":"경기도 남양주시 퇴계원읍 퇴계원리 218-133번지","category":"일반휴게음식 - 일반한식"},{"name":"브레드원","tel":"070-8162-7511","addr":"경기도 남양주시 퇴계원읍 퇴계원리 218-133번지 1층","category":"음료식품 - 제과점"},{"name":"빅쓰리","tel":"031-571-9010","addr":"경기도 남양주시 퇴계원읍 퇴계원리 218-133번지 세란빌딩 1층 108호","category":"사무통신 - 통신기기"},{"name":"뻥튀기과자","tel":"","addr":"경기도 남양주시 퇴계원읍 퇴계원리 218-133번지 세란빌딩 106호","category":"음료식품 - 기타음료식품"},{"name":"손아래지새는달","tel":"031-573-0019","addr":"경기도 남양주시 퇴계원읍 퇴계원리 218-133번지 세란빌딩 104호","category":"음료식품 - 제과점"},{"name":"정안약국","tel":"031-571-9574","addr":"경기도 남양주시 퇴계원읍 퇴계원리 218-133번지 101,102호","category":"약국 - 약국"}]},{"lat":"37.649439409","long":"127.14036602","items":[{"name":"도균이네","tel":"031-574-9931","addr":"경기도 남양주시 퇴계원읍 퇴계원리 299-1","category":"일반휴게음식 - 일반한식"}]},{"lat":"37.646999645","long":"127.14636697","items":[{"name":"도로시","tel":"031-572-0340","addr":"경기도 남양주시 퇴계원읍 퇴계원리 183-18번지 선호INS빌딩 103","category":"보건위생 - 화장품"},{"name":"도로시헤어","tel":"031-572-0340","addr":"경기도 남양주시 퇴계원읍 퇴계원리 183-18번지","category":"보건위생 - 미용원"},{"name":"마레음악학원","tel":"031-572-2229","addr":"경기도 남양주시 퇴계원읍 퇴계원리 183-18번지 선훈ING빌딩 3층 302호","category":"학원 - 예·체능계학원"},{"name":"블롱쉬","tel":"031-529-7752","addr":"경기도 남양주시 퇴계원읍 퇴계원리 183-18번지 선훈ING빌딩 102호","category":"음료식품 - 제과점"},{"name":"카페인시애틀 퇴계원점","tel":"031-573-7222","addr":"경기도 남양주시 퇴계원읍 퇴계원리 183-18번지 1층","category":"일반휴게음식 - 서양음식"},{"name":"하모니마트 퇴계원점","tel":"031-571-9077","addr":"경기도 남양주시 퇴계원읍 퇴계원리 183-18번지 101호","category":"유통업 영리 - 슈퍼마켓"},{"name":"한국체대 탑 태권도","tel":"031-572-9888","addr":"경기도 남양주시 퇴계원읍 퇴계원리 183-18번지 301호","category":"학원 - 예·체능계학원"},{"name":"해밀(heamil)","tel":"031-572-9282","addr":"경기도 남양주시 퇴계원읍 퇴계원리 183-18번지 선훈ING빌딩 104호","category":"의류 - 정장"}]},{"lat":"37.650969954","long":"127.14130937","items":[{"name":"도원","tel":"031-571-1052","addr":"경기도 남양주시 퇴계원읍 퇴계원리 286-25","category":"일반휴게음식 - 중국식"}]},{"lat":"37.64566701","long":"127.14570722","items":[{"name":"도제원초등학교병설유치원[아이행복]","tel":"031-529-4313","addr":"경기도 남양주시 퇴계원읍 퇴계원리 189번지 도제원초등학교","category":"학원 - 유치원"}]},{"lat":"37.652887705","long":"127.14242345","items":[{"name":"도토리묵사랑","tel":"031-572-7074","addr":"경기도 남양주시 퇴계원읍 퇴계원리 100-9번지","category":"일반휴게음식 - 일반한식"}]},{"lat":"37.650419697","long":"127.14187492","items":[{"name":"돈보다리","tel":"031-572-0331","addr":"경기도 남양주시 퇴계원읍 퇴계원리 293-8번지","category":"일반휴게음식 - 일반한식"},{"name":"비타천국","tel":"031-571-8745","addr":"경기도 남양주시 퇴계원읍 퇴계원리 293-8번지 1층","category":"건강식품 - 기타건강식품"},{"name":"참사랑약국","tel":"031-528-5767","addr":"경기도 남양주시 퇴계원읍 퇴계원리 293-8번지","category":"의원 - 치과의원"}]},{"lat":"37.647416335","long":"127.14450947","items":[{"name":"동갑이네퇴계원역점(정성가든)","tel":"031-571-8688","addr":"경기도 남양주시 퇴계원읍 퇴계원리 182-2번지","category":"일반휴게음식 - 일반한식"},{"name":"주식회사그린에프에스","tel":"031-576-3648","addr":"경기도 남양주시 퇴계원읍 퇴계원리 182-2번지 1층","category":"음료식품 - 기타음료식품"}]},{"lat":"37.656994565","long":"127.14373438","items":[{"name":"동대문엽기떡볶이","tel":"031-571-7288","addr":"경기도 남양주시 퇴계원읍 퇴계원리 56-66번지 1층","category":"일반휴게음식 - 스넥"}]},{"lat":"37.648413861","long":"127.14661898","items":[{"name":"동일카센타","tel":"031-571-8595","addr":"경기도 남양주시 퇴계원읍 퇴계원리 199-7번지","category":"자동차정비 유지 - 자동차정비"}]},{"lat":"37.649224242","long":"127.13944778","items":[{"name":"두마리치킨","tel":"031-527-9989","addr":"경기도 남양주시 퇴계원읍 퇴계원리 301-5번지","category":"일반휴게음식 - 일반한식"},{"name":"우성보습학원","tel":"031-572-0938","addr":"경기도 남양주시 퇴계원읍 퇴계원리 301-5번지 2층","category":"학원 - 보습학원"}]},{"lat":"37.656163908","long":"127.14520603","items":[{"name":"드루와","tel":"031-572-7279","addr":"경기도 남양주시 퇴계원읍 퇴계원리 75-11번지","category":"일반휴게음식 - 스넥"},{"name":"빨간머리앤","tel":"070-8959-1558","addr":"경기도 남양주시 퇴계원읍 퇴계원리 75-11번지 1층","category":"보건위생 - 미용원"},{"name":"엑스 노래연습장","tel":"031-571-6022","addr":"경기도 남양주시 퇴계원읍 퇴계원리 75-11번지 2층","category":"레저업소 - 노 래 방"}]},{"lat":"37.654804212","long":"127.14456883","items":[{"name":"등갈비의 신","tel":"031-572-3873","addr":"경기도 남양주시 퇴계원읍 퇴계원리 94-2번지","category":"일반휴게음식 - 일반한식"}]},{"lat":"37.648022803","long":"127.1421424","items":[{"name":"땅스부대찌개 퇴계원점","tel":"","addr":"경기도 남양주시 퇴계원읍 퇴계원리 218-62번지 외2필지 103호","category":"음료식품 - 기타음료식품"}]},{"lat":"37.644168037","long":"127.13303673","items":[{"name":"떡칠닷컴 남양주점","tel":"","addr":"경기도 남양주시 퇴계원읍 퇴계원리 356-24번지 1층","category":"자동차정비 유지 - 카인테리어"},{"name":"타이어365","tel":"031-521-5151","addr":"경기도 남양주시 퇴계원읍 퇴계원리 356-24번지","category":"자동차정비 유지 - 자동차정비"}]},{"lat":"37.653886095","long":"127.14384183","items":[{"name":"뚜레쥬르 퇴계원점","tel":"02-000-0000","addr":"경기도 남양주시 퇴계원읍 퇴계원리 103-1번지 2층","category":"음료식품 - 제과점"},{"name":"제이앤비(J&B)","tel":"031-111-1111","addr":"경기도 남양주시 퇴계원읍 퇴계원리 103-1번지 3층","category":"레저업소 - 헬스클럽"}]},{"lat":"37.64858521","long":"127.14648334","items":[{"name":"뜨락의밥상","tel":"031-572-2213","addr":"경기도 남양주시 퇴계원읍 퇴계원리 228-8","category":"일반휴게음식 - 일반한식"},{"name":"뜨락의밥상","tel":"031-572-2213","addr":"경기도 남양주시 퇴계원읍 퇴계원리 228-8번지","category":"일반휴게음식 - 일반한식"}]},{"lat":"37.654444897","long":"127.14367291","items":[{"name":"라라삼겹살","tel":"031-575-7092","addr":"경기도 남양주시 퇴계원읍 퇴계원리 97","category":"일반휴게음식 - 일반한식"}]},{"lat":"37.65547143","long":"127.1441508","items":[{"name":"러블리헤어샵","tel":"031-571-9989","addr":"경기도 남양주시 퇴계원읍 퇴계원리 87-4번지 외2필지 102호","category":"보건위생 - 미용원"},{"name":"오드리","tel":"031-571-0266","addr":"경기도 남양주시 퇴계원읍 퇴계원리 87-4번지 외2필지 103호","category":"의류 - 정장"}]},{"lat":"37.65038471","long":"127.14097966","items":[{"name":"럭키스크린골프","tel":"031-574-7707","addr":"경기도 남양주시 퇴계원읍 퇴계원리 290-3번지 201호","category":"레저업소 - 스크린골프"},{"name":"수림꽃카페","tel":"070-8945-3313","addr":"경기도 남양주시 퇴계원읍 퇴계원리 290-3번지 1층","category":"일반휴게음식 - 서양음식"}]},{"lat":"37.651634137","long":"127.1434523","items":[{"name":"런닝머신수리센타","tel":"02-427-4650","addr":"경기도 남양주시 퇴계원읍 퇴계원리 258-5번지 백합주택 B동 201호","category":"수리서비스 - 기타수리서비스"}]},{"lat":"37.650833915","long":"127.14206833","items":[{"name":"레인보우영어학원","tel":"031-528-7864","addr":"경기도 남양주시 퇴계원읍 퇴계원리 255-24 3층2호","category":"회원제형태 - 학원"},{"name":"로얄골프연습장","tel":"031-528-0069","addr":"경기도 남양주시 퇴계원읍 퇴계원리 255-24번지","category":"회원제형태 - 레져업소"},{"name":"밝은김안과","tel":"031-575-1399","addr":"경기도 남양주시 퇴계원읍 퇴계원리 255-24 신한빌딩 5층","category":"의원 - 의원"},{"name":"비젼약국","tel":"031-574-1008","addr":"경기도 남양주시 퇴계원읍 퇴계원리 255-24","category":"약국 - 약국"},{"name":"수유리우동집","tel":"031-571-3101","addr":"경기도 남양주시 퇴계원읍 퇴계원리 255-24번지 가동 1층 102호","category":"일반휴게음식 - 일반한식"},{"name":"전설의짬뽕","tel":"031-573-8623","addr":"경기도 남양주시 퇴계원읍 퇴계원리 255-24번지 1층 1호","category":"일반휴게음식 - 중국식"},{"name":"커피스페셜99%","tel":"031-572-2968","addr":"경기도 남양주시 퇴계원읍 퇴계원리 255-24번지 가동 1층","category":"일반휴게음식 - 서양음식"},{"name":"피너츠베베","tel":"031-572-1891","addr":"경기도 남양주시 퇴계원읍 퇴계원리 255-24번지 가동","category":"신변잡화 - 액세서리"},{"name":"허만배법무사사무소","tel":"031-529-7600","addr":"경기도 남양주시 퇴계원읍 퇴계원리 255-24번지 3층","category":"용역 서비스 - 법률회계서비스(개인)"}]},{"lat":"37.648890793","long":"127.14709582","items":[{"name":"로스티잔","tel":"031-571-8603","addr":"경기도 남양주시 퇴계원읍 퇴계원리 235-3번지","category":"일반휴게음식 - 서양음식"}]},{"lat":"37.654138067","long":"127.14409162","items":[{"name":"롤로(Rollo)","tel":"070-8150-9802","addr":"경기도 남양주시 퇴계원읍 퇴계원리 104번지 1층 부분호","category":"음료식품 - 농·축·수산품"},{"name":"아이러브독(I LOVE DOG)","tel":"070-8150-9802","addr":"경기도 남양주시 퇴계원읍 퇴계원리 104번지","category":"문화.취미 - 애완동물"}]},{"lat":"37.652732532","long":"127.14411162","items":[{"name":"루리","tel":"070-7698-4468","addr":"경기도 남양주시 퇴계원읍 퇴계원리 261-15번지 대흥2차 A동 302호","category":"신변잡화 - 기타잡화"}]},{"lat":"37.656029663","long":"127.14445784","items":[{"name":"루마썬팅 퇴계원점","tel":"031-527-0688","addr":"경기도 남양주시 퇴계원읍 퇴계원리 75-16번지 1층","category":"자동차정비 유지 - 카인테리어"},{"name":"셀프코인동전노래연습장","tel":"070-7997-4034","addr":"경기도 남양주시 퇴계원읍 퇴계원리 75-16번지 지하1층","category":"레저업소 - 노 래 방"}]},{"lat":"37.648253062","long":"127.14548555","items":[{"name":"루비헤어","tel":"031-571-3550","addr":"경기도 남양주시 퇴계원읍 퇴계원리 226-9번지 101호","category":"보건위생 - 미용원"},{"name":"리틀아뜨리에미술원","tel":"031-572-2448","addr":"경기도 남양주시 퇴계원읍 퇴계원리 226-9번지 3층(외1필지상지빌딩)","category":"학원 - 예·체능계학원"},{"name":"사랑방 빈대떡","tel":"","addr":"경기도 남양주시 퇴계원읍 퇴계원리 226-9번지","category":"일반휴게음식 - 일반한식"}]},{"lat":"37.655056986","long":"127.14415002","items":[{"name":"리미티드샵","tel":"031-572-4","addr":"경기도 남양주시 퇴계원읍 퇴계원리 90-2번지 리미티드샵 안경기업 2층 202호","category":"일반휴게음식 - 서양음식"},{"name":"막창일번지","tel":"031-529-3393","addr":"경기도 남양주시 퇴계원읍 퇴계원리 90-2번지","category":"일반휴게음식 - 일반한식"},{"name":"안경기업","tel":"031-571-3006","addr":"경기도 남양주시 퇴계원읍 퇴계원리 90-2번지","category":"보건위생 - 안경"}]},{"lat":"37.650364642","long":"127.15012419","items":[{"name":"리츠골프","tel":"031-574-9816","addr":"경기도 남양주시 퇴계원읍 퇴계원리 124-29번지","category":"회원제형태 - 레져업소"},{"name":"리츠스크린 골프연습장","tel":"031-574-9816","addr":"경기도 남양주시 퇴계원읍 퇴계원리 124-29번지","category":"레저업소 - 스크린골프"}]},{"lat":"37.653607955","long":"127.14286675","items":[{"name":"리틀오즈어린이집[아이행복]","tel":"031-572-7300","addr":"경기도 남양주시 퇴계원읍 퇴계원리 100번지","category":"학원 - 유아원"}]},{"lat":"37.647360197","long":"127.14623169","items":[{"name":"리틀피카소미술교습소","tel":"031-514-2121","addr":"경기도 남양주시 퇴계원읍 퇴계원리 210-3번지","category":"학원 - 예·체능계학원"},{"name":"붐","tel":"070-4157-5777","addr":"경기도 남양주시 퇴계원읍 퇴계원리 210-3번지 1동 102호","category":"사무통신 - 통신기기"},{"name":"준","tel":"","addr":"경기도 남양주시 퇴계원읍 퇴계원리 210-3번지 1층 101호","category":"사무통신 - 통신기기"}]},{"lat":"37.64999952","long":"127.13906393","items":[{"name":"마루사냥","tel":"031-000-0000","addr":"경기도 남양주시 퇴계원읍 퇴계원리 288번지 벽산타워빌 202호","category":"용역 서비스 - 기타용역서비스"}]},{"lat":"37.653724124","long":"127.14367155","items":[{"name":"마중물","tel":"031-574-1555","addr":"경기도 남양주시 퇴계원읍 퇴계원리 102-7번지 2층","category":"일반휴게음식 - 일반한식"},{"name":"주식회사유디스통상","tel":"02-2073-3272","addr":"경기도 남양주시 퇴계원읍 퇴계원리 102-7번지","category":"의류 - 정장"}]},{"lat":"37.652834689","long":"127.14153946","items":[{"name":"마켓포유","tel":"070-4686-9412","addr":"경기도 남양주시 퇴계원읍 퇴계원리 100-7번지","category":"음료식품 - 기타음료식품"}]},{"lat":"37.652913118","long":"127.14378333","items":[{"name":"만남칼국수","tel":"031-571-3720","addr":"경기도 남양주시 퇴계원읍 퇴계원리 263-8번지","category":"일반휴게음식 - 스넥"}]},{"lat":"37.656716358","long":"127.14281592","items":[{"name":"만도상사","tel":"033-522-5016","addr":"경기도 남양주시 퇴계원읍 퇴계원리 56-56번지","category":"자동차정비 유지 - 자동차정비"}]},{"lat":"37.646663155","long":"127.14144868","items":[{"name":"만이갈비","tel":"","addr":"경기도 남양주시 퇴계원읍 퇴계원리 320번지 1층","category":"일반휴게음식 - 일반한식"},{"name":"페리카나치킨","tel":"","addr":"경기도 남양주시 퇴계원읍 퇴계원리 320번지 1층 2호","category":"일반휴게음식 - 스넥"}]},{"lat":"37.656246627","long":"127.1438463","items":[{"name":"맛나요밥집","tel":"031-571-7264","addr":"경기도 남양주시 퇴계원읍 퇴계원리 81-6번지 1층","category":"일반휴게음식 - 일반한식"},{"name":"풀아쿠아","tel":"031-1111-1111","addr":"경기도 남양주시 퇴계원읍 퇴계원리 81-6번지 지층","category":"문화.취미 - 수족관"}]},{"lat":"37.653328063","long":"127.14336483","items":[{"name":"매일수산","tel":"","addr":"경기도 남양주시 퇴계원읍 퇴계원리 102-16번지 2층","category":"일반휴게음식 - 일반한식"},{"name":"이어도포차","tel":"031-572-7886","addr":"경기도 남양주시 퇴계원읍 퇴계원리 102-16번지","category":"일반휴게음식 - 주점"}]},{"lat":"37.656552495","long":"127.14423218","items":[{"name":"맥가이버맨","tel":"070-8616-8183","addr":"경기도 남양주시 퇴계원읍 퇴계원리 78-1","category":"수리서비스 - 기타수리서비스"},{"name":"진로할인마트","tel":"031-572-3303","addr":"경기도 남양주시 퇴계원읍 퇴계원리 78-1번지","category":"유통업 영리 - 슈퍼마켓"}]},{"lat":"37.655245563","long":"127.14467166","items":[{"name":"머리염색고은빛","tel":"031-528-1102","addr":"경기도 남양주시 퇴계원읍 퇴계원리 73-10번지 1층","category":"보건위생 - 미용원"},{"name":"명일양꼬치","tel":"031-571-8898","addr":"경기도 남양주시 퇴계원읍 퇴계원리 73-10번지","category":"일반휴게음식 - 주점"}]},{"lat":"37.653445054","long":"127.14347837","items":[{"name":"머리하는재미","tel":"031-571-0994","addr":"경기도 남양주시 퇴계원읍 퇴계원리 102-12번지","category":"보건위생 - 미용원"}]},{"lat":"37.647776396","long":"127.1447821","items":[{"name":"멍멍's패밀리","tel":"031-527-6006","addr":"경기도 남양주시 퇴계원읍 퇴계원리 213-6번지","category":"문화.취미 - 애완동물"}]},{"lat":"37.655413002","long":"127.14775437","items":[{"name":"메일빈커피자판기","tel":"","addr":"경기도 남양주시 퇴계원읍 퇴계원리 118-3번지","category":"음료식품 - 기타음료식품"}]},{"lat":"37.657580003","long":"127.14389415","items":[{"name":"명성뽈살","tel":"031-575-9114","addr":"경기도 남양주시 퇴계원읍 퇴계원리 56-30번지 지하1층","category":"일반휴게음식 - 일반한식"}]},{"lat":"37.650300503","long":"127.14361976","items":[{"name":"명성어린이집","tel":"031-571-7675","addr":"경기도 남양주시 퇴계원읍 퇴계원리 221번지 강남아파트","category":"학원 - 유아원"},{"name":"명성어린이집[아이행복]","tel":"031-571-7675","addr":"경기도 남양주시 퇴계원읍 퇴계원리 221번지 강남아파트","category":"학원 - 유아원"},{"name":"몸짱스포츠클럽","tel":"031-527-0079","addr":"경기도 남양주시 퇴계원읍 퇴계원리 221번지 강남아파트 3층","category":"레저업소 - 헬스클럽"},{"name":"오로라헤어","tel":"031-572-8841","addr":"경기도 남양주시 퇴계원읍 퇴계원리 221번지 강남상가 나동 109호","category":"보건위생 - 미용원"},{"name":"웰빙건강원","tel":"031-595-9848","addr":"경기도 남양주시 퇴계원읍 퇴계원리 221번지 강남상가 나동 105호","category":"건강식품 - 기타건강식품"},{"name":"한우리독서토론논술퇴계원국어교습소","tel":"031-528-6068","addr":"경기도 남양주시 퇴계원읍 퇴계원리 221번지 (강남상가 가동202호,203호)","category":"회원제형태 - 학원"}]},{"lat":"37.648889937","long":"127.14026302","items":[{"name":"명성의료기","tel":"031-572-5077","addr":"경기도 남양주시 퇴계원읍 퇴계원리 299-11번지","category":"보건위생 - 의료용품"},{"name":"본죽","tel":"031-527-6233","addr":"경기도 남양주시 퇴계원읍 퇴계원리 299-11","category":"일반휴게음식 - 일반한식"},{"name":"윤아헤어#","tel":"031-572-7896","addr":"경기도 남양주시 퇴계원읍 퇴계원리 299-11번지","category":"보건위생 - 미용원"},{"name":"쥬씨퇴계원점","tel":"070-4115-1028","addr":"경기도 남양주시 퇴계원읍 퇴계원리 299-11번지 1층","category":"일반휴게음식 - 일반한식"}]},{"lat":"37.647223949","long":"127.13956876","items":[{"name":"모아ENG","tel":"031-558-9111","addr":"경기도 남양주시 퇴계원읍 퇴계원리 329-48번지","category":"전기제품 - 기타전기제품"}]},{"lat":"37.650113635","long":"127.14164772","items":[{"name":"모아모텔","tel":"031-571-1534","addr":"경기도 남양주시 퇴계원읍 퇴계원리 292-18번지 2,3층","category":"숙박업 - 여관/기타숙박업"},{"name":"빨간맛","tel":"","addr":"경기도 남양주시 퇴계원읍 퇴계원리 292-18번지 1층","category":"일반휴게음식 - 일반한식"}]},{"lat":"37.655443803","long":"127.14464937","items":[{"name":"문화티브이사","tel":"031-572-9803","addr":"경기도 남양주시 퇴계원읍 퇴계원리 73-8","category":"전기제품 - 기타전기제품"},{"name":"백키로","tel":"031-821-9946","addr":"경기도 남양주시 퇴계원읍 퇴계원리 73-8번지 2층","category":"일반휴게음식 - 일반한식"},{"name":"슈즈닥터","tel":"031-575-9021","addr":"경기도 남양주시 퇴계원읍 퇴계원리 73-8번지 2동","category":"수리서비스 - 세탁소"},{"name":"악쓰는하마 노래연습장","tel":"031-571-9646","addr":"경기도 남양주시 퇴계원읍 퇴계원리 73-8번지 2층","category":"레저업소 - 노 래 방"},{"name":"야스타헤어","tel":"031-573-8863","addr":"경기도 남양주시 퇴계원읍 퇴계원리 73-8번지","category":"보건위생 - 미용원"},{"name":"퇴계원기름집","tel":"031-572-6296","addr":"경기도 남양주시 퇴계원읍 퇴계원리 73-8번지 1층","category":"음료식품 - 기타음료식품"}]},{"lat":"37.647606934","long":"127.14334273","items":[{"name":"미니다육","tel":"","addr":"경기도 남양주시 퇴계원읍 퇴계원리 218-55번지 1층","category":"문화.취미 - 화원"}]},{"lat":"37.648107463","long":"127.14667505","items":[{"name":"미륵정사","tel":"070-6336-0556","addr":"경기도 남양주시 퇴계원읍 퇴계원리 201-20번지 1층","category":"보건위생 - 기타대인서비스"}]},{"lat":"37.653220634","long":"127.1427867","items":[{"name":"미미양품점","tel":"031-573-0619","addr":"경기도 남양주시 퇴계원읍 퇴계원리 101-3번지","category":"의류 - 정장"},{"name":"봉구스 밥버거 퇴계원점","tel":"031-573-7540","addr":"경기도 남양주시 퇴계원읍 퇴계원리 101-3번지 도원빌딩","category":"일반휴게음식 - 일반한식"},{"name":"봉수가맥앤꼬치","tel":"031-572-4200","addr":"경기도 남양주시 퇴계원읍 퇴계원리 101-3번지 도원빌딩 1층","category":"일반휴게음식 - 주점"},{"name":"안경아울렛","tel":"031-572-0117","addr":"경기도 남양주시 퇴계원읍 퇴계원리 101-3번지 도원빌딩","category":"보건위생 - 안경"},{"name":"정시당","tel":"031-571-6051","addr":"경기도 남양주시 퇴계원읍 퇴계원리 101-3번지","category":"신변잡화 - 시계"},{"name":"제2캠퍼스 야무진학원","tel":"031-572-0591","addr":"경기도 남양주시 퇴계원읍 퇴계원리 101-3번지 도원빌딩 2층","category":"학원 - 보습학원"}]},{"lat":"37.654028945","long":"127.14492999","items":[{"name":"미소유통","tel":"031-572-2130","addr":"경기도 남양주시 퇴계원읍 퇴계원리 107-21번지 1층","category":"유통업 영리 - 기타유통업"}]},{"lat":"37.651356877","long":"127.14172936","items":[{"name":"믿음치과의원","tel":"031-571-4770","addr":"경기도 남양주시 퇴계원읍 퇴계원리 281-1번지 왕수상가 3층","category":"의원 - 치과의원"},{"name":"베스킨라빈스 퇴계원점","tel":"031-572-0058","addr":"경기도 남양주시 퇴계원읍 퇴계원리 281-1번지","category":"음료식품 - 제과점"},{"name":"상구비어","tel":"031-571-3930","addr":"경기도 남양주시 퇴계원읍 퇴계원리 281-1번지 1층 죄측2번호","category":"일반휴게음식 - 주점"},{"name":"세민약국","tel":"031-571-6734","addr":"경기도 남양주시 퇴계원읍 퇴계원리 281-1번지","category":"약국 - 약국"},{"name":"시골옛날빈대떡","tel":"031-572-5505","addr":"경기도 남양주시 퇴계원읍 퇴계원리 281-1번지","category":"일반휴게음식 - 주점"},{"name":"커브스 퇴계원클럽","tel":"031-571-6530","addr":"경기도 남양주시 퇴계원읍 퇴계원리 281-1번지 201호","category":"레저업소 - 헬스클럽"},{"name":"퇴계원중앙의원","tel":"031-571-8042","addr":"경기도 남양주시 퇴계원읍 퇴계원리 281-1","category":"의원 - 의원"}]},{"lat":"37.647392085","long":"127.14217522","items":[{"name":"밀래","tel":"02-953-5433","addr":"경기도 남양주시 퇴계원읍 퇴계원리 218-59번지 1층","category":"보건위생 - 미용원"},{"name":"베트남쌀국수","tel":"","addr":"경기도 남양주시 퇴계원읍 퇴계원리 218-59번지","category":"일반휴게음식 - 서양음식"},{"name":"정광당","tel":"031-572-6095","addr":"경기도 남양주시 퇴계원읍 퇴계원리 218-59번지","category":"신변잡화 - 시계"}]},{"lat":"37.657138692","long":"127.14375732","items":[{"name":"바다회마을","tel":"031-575-1315","addr":"경기도 남양주시 퇴계원읍 퇴계원리 56-16번지","category":"일반휴게음식 - 일반한식"},{"name":"서촌뚝배기","tel":"070-8112-8375","addr":"경기도 남양주시 퇴계원읍 퇴계원리 56-16번지 1층","category":"일반휴게음식 - 일반한식"}]},{"lat":"37.652832855","long":"127.14309194","items":[{"name":"박노훈한의원","tel":"031-571-7177","addr":"경기도 남양주시 퇴계원읍 퇴계원리 268-9번지 1층","category":"의원 - 한의원"},{"name":"야무진학원","tel":"031-572-0591","addr":"경기도 남양주시 퇴계원읍 퇴계원리 268-9번지 2층","category":"학원 - 보습학원"}]},{"lat":"37.652887544","long":"127.14255944","items":[{"name":"박소영헤어클럽","tel":"031-572-5433","addr":"경기도 남양주시 퇴계원읍 퇴계원리 278-8번지","category":"보건위생 - 미용원"},{"name":"해법수학퇴계원초점수학교습소","tel":"031-572-1108","addr":"경기도 남양주시 퇴계원읍 퇴계원리 278-8번지 1층","category":"회원제형태 - 학원"}]},{"lat":"37.654057941","long":"127.14328688","items":[{"name":"밝은미래속셈.보습학원","tel":"031-527-5246","addr":"경기도 남양주시 퇴계원읍 퇴계원리 99-5번지 왕자빌딜 2층","category":"학원 - 보습학원"}]},{"lat":"37.655220295","long":"127.14319841","items":[{"name":"방문잉크충전","tel":"02-591-1553","addr":"경기도 남양주시 퇴계원읍 퇴계원리 83-7번지","category":"사무통신 - 기타 사무용품"}]},{"lat":"37.651139883","long":"127.14237486","items":[{"name":"백치과의원","tel":"031-037-9055","addr":"경기도 남양주시 퇴계원읍 퇴계원리 255-1번지","category":"의원 - 치과의원"},{"name":"아리따움 퇴계원점","tel":"031-574-4515","addr":"경기도 남양주시 퇴계원읍 퇴계원리 255-1번지","category":"보건위생 - 화장품"},{"name":"앙포레 모리노 헤어","tel":"031-572-2386","addr":"경기도 남양주시 퇴계원읍 퇴계원리 255-1번지 다모아프라자 107호","category":"보건위생 - 미용원"},{"name":"양치과의원","tel":"031-574-2275","addr":"경기도 남양주시 퇴계원읍 퇴계원리 255-1번지 다모아빌딩 301호","category":"의원 - 치과의원"},{"name":"이주영의원","tel":"031-527-6223","addr":"경기도 남양주시 퇴계원읍 퇴계원리 255-1번지 다모아빌딩 4층 402호","category":"의원 - 의원"},{"name":"일백유통","tel":"02-0000-0000","addr":"경기도 남양주시 퇴계원읍 퇴계원리 255-1번지 다모아빌딩 102호","category":"의류 - 정장"},{"name":"주내과의원","tel":"031-527-2700","addr":"경기도 남양주시 퇴계원읍 퇴계원리 255-1번지 다모아빌딩 305,404호","category":"의원 - 의원"},{"name":"중앙떡방아간","tel":"031-571-7808","addr":"경기도 남양주시 퇴계원읍 퇴계원리 255-1번지 다모아 상가 110호","category":"음료식품 - 제과점"},{"name":"커피에반하다 퇴계원점","tel":"031-111-1111","addr":"경기도 남양주시 퇴계원읍 퇴계원리 255-1번지 다모아빌딩 1층 108호 일부","category":"일반휴게음식 - 서양음식"},{"name":"퇴계원한금손칼국수","tel":"031-571-6122","addr":"경기도 남양주시 퇴계원읍 퇴계원리 255-1번지 B101","category":"일반휴게음식 - 일반한식"},{"name":"행복한벧엘수학교습소","tel":"031-572-8957","addr":"경기도 남양주시 퇴계원읍 퇴계원리 255-1번지 다모아빌딩 304호","category":"학원 - 보습학원"},{"name":"효성한의원","tel":"031-572-6611","addr":"경기도 남양주시 퇴계원읍 퇴계원리 255-1번지","category":"의원 - 한의원"},{"name":"후에버독서실","tel":"031-573-7070","addr":"경기도 남양주시 퇴계원읍 퇴계원리 255-1번지 다모아빌딩 501동 502호","category":"학원 - 기타 교육기관"}]},{"lat":"37.663025144","long":"127.1485965","items":[{"name":"뱅이쌈밥","tel":"031-575-7600","addr":"경기도 남양주시 퇴계원읍 퇴계원리 4번지","category":"일반휴게음식 - 일반한식"},{"name":"뱅이쌈밥","tel":"031-575-7600","addr":"경기도 남양주시 퇴계원읍 퇴계원리 4번지","category":"일반휴게음식 - 일반한식"}]},{"lat":"37.647580201","long":"127.14309339","items":[{"name":"버블비","tel":"031-571-9267","addr":"경기도 남양주시 퇴계원읍 퇴계원리 218-47번지 1층","category":"일반휴게음식 - 주점"},{"name":"알즈너(마음대리점)","tel":"031-571-6355","addr":"경기도 남양주시 퇴계원읍 퇴계원리 218-47번지","category":"보건위생 - 의료용품"}]},{"lat":"37.648251341","long":"127.14690195","items":[{"name":"범우축산","tel":"031-574-5745","addr":"경기도 남양주시 퇴계원읍 퇴계원리 199-18번지","category":"음료식품 - 정육점"}]},{"lat":"37.656527946","long":"127.14214695","items":[{"name":"베이스(BASE)","tel":"031-572-6830","addr":"경기도 남양주시 퇴계원읍 퇴계원리 56-50번지","category":"건축자재 - 인테리어전문"}]},{"lat":"37.647136029","long":"127.13767631","items":[{"name":"별내불고기","tel":"031-572-9770","addr":"경기도 남양주시 퇴계원읍 퇴계원리 326-1번지 1층","category":"일반휴게음식 - 일반한식"}]},{"lat":"37.652140197","long":"127.14217276","items":[{"name":"봉스왈왈","tel":"031-516-5776","addr":"경기도 남양주시 퇴계원읍 퇴계원리 267-4번지","category":"문화.취미 - 애완동물"},{"name":"여성크로커다일퇴계원점","tel":"031-573-1962","addr":"경기도 남양주시 퇴계원읍 퇴계원리 267-4번지 1층 일부","category":"의류 - 정장"},{"name":"위드피아노학원","tel":"031-572-5467","addr":"경기도 남양주시 퇴계원읍 퇴계원리 267-4번지 2층","category":"학원 - 예·체능계학원"},{"name":"후레쉬365 축산","tel":"031-585-5142","addr":"경기도 남양주시 퇴계원읍 퇴계원리 267-4번지","category":"음료식품 - 정육점"}]},{"lat":"37.647888565","long":"127.14137163","items":[{"name":"봉평메밀농원","tel":"031-571-2012","addr":"경기도 남양주시 퇴계원읍 퇴계원리 218-16번지","category":"일반휴게음식 - 일반한식"},{"name":"유한정밀","tel":"031-528-5343","addr":"경기도 남양주시 퇴계원읍 퇴계원리 218-16번지","category":"건축자재 - 보일러·펌프·샷시"},{"name":"퀸스","tel":"031-8840-8392","addr":"경기도 남양주시 퇴계원읍 퇴계원리 218-16번지 1층","category":"일반휴게음식 - 주점"}]},{"lat":"37.647139426","long":"127.14250335","items":[{"name":"부영건축사사무소","tel":"031-527-7976","addr":"경기도 남양주시 퇴계원읍 퇴계원리 218-70","category":"용역 서비스 - 사무서비스"}]},{"lat":"37.648638078","long":"127.14745793","items":[{"name":"뷰티메이드","tel":"031-572-9624","addr":"경기도 남양주시 퇴계원읍 퇴계원리 197-28번지","category":"보건위생 - 화장품"}]},{"lat":"37.650808324","long":"127.14084447","items":[{"name":"블랙오즈 (Black OZ)","tel":"031-529-9335","addr":"경기도 남양주시 퇴계원읍 퇴계원리 286-9번지","category":"음료식품 - 기타음료식품"},{"name":"원프로샵","tel":"","addr":"경기도 남양주시 퇴계원읍 퇴계원리 286-9번지","category":"레져용품 - 스포츠·레져용품"},{"name":"퇴계원볼링센타","tel":"031-000-0000","addr":"경기도 남양주시 퇴계원읍 퇴계원리 286-9번지","category":"레저업소 - 볼 링 장"}]},{"lat":"37.65552429","long":"127.14514815","items":[{"name":"비룡태권도","tel":"031-572-8198","addr":"경기도 남양주시 퇴계원읍 퇴계원리 70-10번지","category":"학원 - 예·체능계학원"},{"name":"셀프 PC 카페","tel":"070-8670-1114","addr":"경기도 남양주시 퇴계원읍 퇴계원리 70-10번지 2층 전체","category":"레저업소 - 기타레져업소"},{"name":"옥수정","tel":"031-528-7718","addr":"경기도 남양주시 퇴계원읍 퇴계원리 70-10번지","category":"음료식품 - 정육점"},{"name":"옥수정식당","tel":"031-528-7718","addr":"경기도 남양주시 퇴계원읍 퇴계원리 70-10번지","category":"일반휴게음식 - 일반한식"},{"name":"컴마스터","tel":"031-572-5331","addr":"경기도 남양주시 퇴계원읍 퇴계원리 70-10","category":"사무통신 - 컴퓨터"}]},{"lat":"37.647551685","long":"127.14433976","items":[{"name":"비에이치씨치킨 퇴계원점","tel":"031-571-5592","addr":"경기도 남양주시 퇴계원읍 퇴계원리 213-19번지 1층 일부","category":"일반휴게음식 - 스넥"},{"name":"인어궁호프","tel":"031-571-0230","addr":"경기도 남양주시 퇴계원읍 퇴계원리 213-19번지","category":"일반휴게음식 - 주점"}]},{"lat":"37.650974366","long":"127.14517346","items":[{"name":"빛과소금유치원[아이행복]","tel":"031-527-1115","addr":"경기도 남양주시 퇴계원읍 퇴계원리 249-60번지","category":"학원 - 유치원"}]},{"lat":"37.655804693","long":"127.14423076","items":[{"name":"쁘랜드","tel":"031-571-8911","addr":"경기도 남양주시 퇴계원읍 퇴계원리 74-1","category":"일반휴게음식 - 스넥"},{"name":"스마일찹쌀꽈배기","tel":"","addr":"경기도 남양주시 퇴계원읍 퇴계원리 74-1번지","category":"일반휴게음식 - 일반한식"},{"name":"우레시","tel":"031-575-7875","addr":"경기도 남양주시 퇴계원읍 퇴계원리 74-1번지","category":"일반휴게음식 - 일반한식"},{"name":"전설의떡뽁기 떡신","tel":"031-528-5177","addr":"경기도 남양주시 퇴계원읍 퇴계원리 74-1번지","category":"일반휴게음식 - 스넥"},{"name":"페밀리컬렉션","tel":"031-527-5627","addr":"경기도 남양주시 퇴계원읍 퇴계원리 74-1번지","category":"의류 - 정장"}]},{"lat":"37.652355705","long":"127.14278508","items":[{"name":"사과나무패션","tel":"031-572-1049","addr":"경기도 남양주시 퇴계원읍 퇴계원리 267-12번지 1층","category":"의류 - 정장"},{"name":"약속다방","tel":"031-571-9911","addr":"경기도 남양주시 퇴계원읍 퇴계원리 267-12번지 지층","category":"일반휴게음식 - 서양음식"},{"name":"이디야커피 퇴계원점","tel":"031-571-4358","addr":"경기도 남양주시 퇴계원읍 퇴계원리 267-12번지 1층","category":"일반휴게음식 - 서양음식"},{"name":"이불나라","tel":"031-573-5405","addr":"경기도 남양주시 퇴계원읍 퇴계원리 267-12","category":"직물 - 침구·수예점"}]},{"lat":"37.650859735","long":"127.15047645","items":[{"name":"사랑숲어린이집[아이행복]","tel":"031-515-1107","addr":"경기도 남양주시 퇴계원읍 퇴계원리 365번지 퇴계원쌍용예가 101동 101호","category":"학원 - 유아원"}]},{"lat":"37.64933203","long":"127.13973126","items":[{"name":"사랑합니다","tel":"031-572-3198","addr":"경기도 남양주시 퇴계원읍 퇴계원리 300-1번지","category":"일반휴게음식 - 일반한식"}]},{"lat":"37.648439671","long":"127.14761618","items":[{"name":"사브라패션","tel":"031-572-7971","addr":"경기도 남양주시 퇴계원읍 퇴계원리 196-1","category":"의류 - 내의판매"}]},{"lat":"37.653022582","long":"127.14265035","items":[{"name":"산동장","tel":"031-573-0052","addr":"경기도 남양주시 퇴계원읍 퇴계원리 101-17번지","category":"일반휴게음식 - 중국식"},{"name":"한서방떡집","tel":"031-571-4420","addr":"경기도 남양주시 퇴계원읍 퇴계원리 101-17","category":"음료식품 - 제과점"}]},{"lat":"37.647974772","long":"127.14464651","items":[{"name":"삼신종합인테리어","tel":"031-572-4442","addr":"경기도 남양주시 퇴계원읍 퇴계원리 214-12번지","category":"건축자재 - 인테리어전문"},{"name":"주식회사 헬스모아","tel":"070-5015-5977","addr":"경기도 남양주시 퇴계원읍 퇴계원리 214-12번지 3층","category":"건강식품 - 기타건강식품"},{"name":"후레쉬영 (Fresh Young)","tel":"031-572-6141","addr":"경기도 남양주시 퇴계원읍 퇴계원리 214-12번지 1층","category":"일반휴게음식 - 주점"}]},{"lat":"37.650573035","long":"127.14918408","items":[{"name":"새잎애","tel":"031-551-3330","addr":"경기도 남양주시 퇴계원읍 퇴계원리 365번지 퇴계쌍용예가 103동 1101호","category":"건강식품 - 인삼제품"}]},{"lat":"37.654634896","long":"127.14300467","items":[{"name":"샛별어린이집[아이행복]","tel":"031-572-9401","addr":"경기도 남양주시 퇴계원읍 퇴계원리 97-3번지","category":"학원 - 유아원"}]},{"lat":"37.647351765","long":"127.14575577","items":[{"name":"서경공조","tel":"","addr":"경기도 남양주시 퇴계원읍 퇴계원리 182-37번지 한림드림빌 102동 201호","category":"용역 서비스 - 기타용역서비스"}]},{"lat":"37.650857568","long":"127.14490128","items":[{"name":"서울상사","tel":"031-529-8188","addr":"경기도 남양주시 퇴계원읍 퇴계원리 249-4번지 1층","category":"신변잡화 - 기타잡화"},{"name":"퇴계원서울요양병원","tel":"031-529-8188","addr":"경기도 남양주시 퇴계원읍 퇴계원리 249-4번지","category":"병원 - 병원"}]},{"lat":"37.648387135","long":"127.14636964","items":[{"name":"서울전기","tel":"031-572-9207","addr":"경기도 남양주시 퇴계원읍 퇴계원리 207-1번지","category":"수리서비스 - 기타수리서비스"}]},{"lat":"37.647078609","long":"127.14058829","items":[{"name":"선농사","tel":"031-572-2192","addr":"경기도 남양주시 퇴계원읍 퇴계원리 312-17번지","category":"농업 - 비료,사료,종자"}]},{"lat":"37.647973529","long":"127.14567764","items":[{"name":"성심약국","tel":"031-572-8101","addr":"경기도 남양주시 퇴계원읍 퇴계원리 208-12번지","category":"약국 - 약국"}]},{"lat":"37.648690891","long":"127.14097653","items":[{"name":"세란연합의원","tel":"031-571-2003","addr":"경기도 남양주시 퇴계원읍 퇴계원리 218-20번지","category":"의원 - 의원"}]},{"lat":"37.65199509","long":"127.14297704","items":[{"name":"세븐일레븐퇴계원점","tel":"","addr":"경기도 남양주시 퇴계원읍 퇴계원리 265-7번지 오덕빌라 102호","category":"유통업 영리 - 편 의 점"},{"name":"세븐일레븐퇴계원점","tel":"","addr":"경기도 남양주시 퇴계원읍 퇴계원리 265-7번지 오덕빌라 102호","category":"유통업 영리 - 편 의 점"}]},{"lat":"37.647668579","long":"127.14453261","items":[{"name":"소망한우명가","tel":"031-575-1757","addr":"경기도 남양주시 퇴계원읍 퇴계원리 213-7","category":"일반휴게음식 - 일반한식"},{"name":"소망한우명가정육점","tel":"031-575-1756","addr":"경기도 남양주시 퇴계원읍 퇴계원리 213-7","category":"음료식품 - 정육점"}]},{"lat":"37.647559317","long":"127.14548422","items":[{"name":"쇼인더룸","tel":"","addr":"경기도 남양주시 퇴계원읍 퇴계원리 182-25번지","category":"신변잡화 - 기타잡화"},{"name":"연세우유퇴계원보급소","tel":"031-571-7496","addr":"경기도 남양주시 퇴계원읍 퇴계원리 182-25번지","category":"음료식품 - 기타음료식품"}]},{"lat":"37.651247771","long":"127.1425677","items":[{"name":"수선의달인","tel":"031-572-3425","addr":"경기도 남양주시 퇴계원읍 퇴계원리 255-2번지 1층 일부","category":"수리서비스 - 세탁소"},{"name":"한돈솥뚜껑생오리삼겹살전문점","tel":"031-572-5702","addr":"경기도 남양주시 퇴계원읍 퇴계원리 255-2번지","category":"일반휴게음식 - 일반한식"},{"name":"현대당구장","tel":"031-571-0080","addr":"경기도 남양주시 퇴계원읍 퇴계원리 255-2번지","category":"레저업소 - 당 구 장"}]},{"lat":"37.651975312","long":"127.14445014","items":[{"name":"수헤어","tel":"031-572-2480","addr":"경기도 남양주시 퇴계원읍 퇴계원리 250-28번지 광신빌라","category":"보건위생 - 미용원"}]},{"lat":"37.65502869","long":"127.14520386","items":[{"name":"숲","tel":"031-571-3550","addr":"경기도 남양주시 퇴계원읍 퇴계원리 70-22번지","category":"보건위생 - 미용원"}]},{"lat":"37.651930441","long":"127.14430274","items":[{"name":"슈어피네스","tel":"031-568-9650","addr":"경기도 남양주시 퇴계원읍 퇴계원리 250-24번지 광신빌라 나동 103호","category":"보건위생 - 화장품"}]},{"lat":"37.65216518","long":"127.14389524","items":[{"name":"스마일정육점","tel":"031-527-6550","addr":"경기도 남양주시 퇴계원읍 퇴계원리 250-38번지 성완주택 102호","category":"음료식품 - 정육점"}]},{"lat":"37.654300878","long":"127.14355931","items":[{"name":"스마트 E 학원","tel":"031-571-2878","addr":"경기도 남양주시 퇴계원읍 퇴계원리 97-42번지 2층","category":"학원 - 보습학원"},{"name":"용인대창룡태권도","tel":"031-571-6181","addr":"경기도 남양주시 퇴계원읍 퇴계원리 97-42번지 3층","category":"학원 - 예·체능계학원"}]},{"lat":"37.650350307","long":"127.13957449","items":[{"name":"스마트에어컨","tel":"031-515-8078","addr":"경기도 남양주시 퇴계원읍 퇴계원리 287번지 우남빌라 가동 304호","category":"용역 서비스 - 기타용역서비스"}]},{"lat":"37.650114353","long":"127.14103582","items":[{"name":"스쿨룩스","tel":"031-572-4451","addr":"경기도 남양주시 퇴계원읍 퇴계원리 292-5번지","category":"의류 - 맞춤복점"},{"name":"춘천닭갈비야채곱창","tel":"031-572-8875","addr":"경기도 남양주시 퇴계원읍 퇴계원리 292-5번지 6","category":"일반휴게음식 - 일반한식"}]},{"lat":"37.659571963","long":"127.1432066","items":[{"name":"스팀닥터","tel":"","addr":"경기도 남양주시 퇴계원읍 퇴계원리 369번지 금호어울림 107동 1402호","category":"자동차정비 유지 - 세차장"}]},{"lat":"37.652663252","long":"127.14175445","items":[{"name":"승효바이크샵 렌트","tel":"031-571-2988","addr":"경기도 남양주시 퇴계원읍 퇴계원리 100-10번지","category":"수리서비스 - 레져용품수리"}]},{"lat":"37.647523017","long":"127.14569944","items":[{"name":"시골반찬1","tel":"031-574-2727","addr":"경기도 남양주시 퇴계원읍 퇴계원리 183-10번지 1층","category":"음료식품 - 기타음료식품"}]},{"lat":"37.649079693","long":"127.13978746","items":[{"name":"시골칼국수","tel":"031-528-6263","addr":"경기도 남양주시 퇴계원읍 퇴계원리 301-9번지 이삭부동산 1층 3호","category":"일반휴게음식 - 일반한식"}]},{"lat":"37.646414552","long":"127.14592394","items":[{"name":"시립퇴계원어린이집[아이행복]","tel":"031-572-3030","addr":"경기도 남양주시 퇴계원읍 퇴계원리 184-8번지","category":"학원 - 유아원"}]},{"lat":"37.655192036","long":"127.1442296","items":[{"name":"시집온닭갈비","tel":"031-571-1335","addr":"경기도 남양주시 퇴계원읍 퇴계원리 89번지 1층","category":"일반휴게음식 - 일반한식"},{"name":"실비집","tel":"031-572-0272","addr":"경기도 남양주시 퇴계원읍 퇴계원리 89번지","category":"일반휴게음식 - 일반한식"}]},{"lat":"37.647586044","long":"127.14573356","items":[{"name":"신화조양순대국","tel":"031-572-5780","addr":"경기도 남양주시 퇴계원읍 퇴계원리 211-7번지","category":"일반휴게음식 - 일반한식"}]},{"lat":"37.655830523","long":"127.14522806","items":[{"name":"쌀집아저씨","tel":"031-567-4488","addr":"경기도 남양주시 퇴계원읍 퇴계원리 69-3번지","category":"음료식품 - 미곡상"},{"name":"으뜸학원","tel":"031-572-0988","addr":"경기도 남양주시 퇴계원읍 퇴계원리 69-3번지 3층","category":"학원 - 보습학원"},{"name":"하림맥시칸","tel":"031-527-6400","addr":"경기도 남양주시 퇴계원읍 퇴계원리 69-3번지","category":"일반휴게음식 - 주점"},{"name":"헤어X(엑스)","tel":"031-571-5992","addr":"경기도 남양주시 퇴계원읍 퇴계원리 69-3","category":"보건위생 - 미용원"}]},{"lat":"37.650581577","long":"127.14212452","items":[{"name":"씨에 프랑스","tel":"031-571-0025","addr":"경기도 남양주시 퇴계원읍 퇴계원리 255-13번지","category":"음료식품 - 제과점"}]},{"lat":"37.651834002","long":"127.14205887","items":[{"name":"씨유남양주퇴계원점","tel":"031-574-8873","addr":"경기도 남양주시 퇴계원읍 퇴계원리 283-3번지","category":"유통업 영리 - 편 의 점"},{"name":"씨유남양주퇴계원점","tel":"031-574-8873","addr":"경기도 남양주시 퇴계원읍 퇴계원리 283-3번지 1층","category":"유통업 영리 - 편 의 점"}]},{"lat":"37.649503568","long":"127.13942563","items":[{"name":"씨유퇴계원백합점","tel":"031-573-2576","addr":"경기도 남양주시 퇴계원읍 퇴계원리 301번지 백합주택 101호","category":"유통업 영리 - 편 의 점"},{"name":"씨유퇴계원백합점","tel":"02-1577-8007","addr":"경기도 남양주시 퇴계원읍 퇴계원리 301번지 백합주택 1층 101호","category":"유통업 영리 - 편 의 점"}]},{"lat":"37.651023054","long":"127.14955891","items":[{"name":"씨유퇴계원쌍용스타점","tel":"031-572-9836","addr":"경기도 남양주시 퇴계원읍 퇴계원리 365번지 퇴계원쌍용예가 상가동 1층 101호","category":"유통업 영리 - 편 의 점"}]},{"lat":"37.653164057","long":"127.14489434","items":[{"name":"씨유퇴계원쌍용점","tel":"031-571-7815","addr":"경기도 남양주시 퇴계원읍 퇴계원리 110-10번지 1층","category":"유통업 영리 - 편 의 점"},{"name":"안골콩나물국밥","tel":"031-527-6676","addr":"경기도 남양주시 퇴계원읍 퇴계원리 110-10번지 1층 일부","category":"일반휴게음식 - 일반한식"}]},{"lat":"37.656832499","long":"127.14364342","items":[{"name":"씨유퇴계원제일점","tel":"031-571-9706","addr":"경기도 남양주시 퇴계원읍 퇴계원리 56-13","category":"유통업 영리 - 편 의 점"},{"name":"크린토피아퇴계원주공점","tel":"031-571-0704","addr":"경기도 남양주시 퇴계원읍 퇴계원리 56-13번지","category":"수리서비스 - 세탁소"},{"name":"활어장군","tel":"000-000-0000","addr":"경기도 남양주시 퇴계원읍 퇴계원리 56-13번지","category":"음료식품 - 농·축·수산품"}]},{"lat":"37.652938816","long":"127.14489391","items":[{"name":"씽씽수학공부방","tel":"070-756-2584","addr":"경기도 남양주시 퇴계원읍 퇴계원리 110-11번지 201호","category":"학원 - 기타 교육기관"},{"name":"해피하우스","tel":"031-529-7714","addr":"경기도 남양주시 퇴계원읍 퇴계원리 110-11번지","category":"일반휴게음식 - 서양음식"}]},{"lat":"37.653641297","long":"127.14512189","items":[{"name":"아들내미닭발퇴계원점","tel":"031-577-0255","addr":"경기도 남양주시 퇴계원읍 퇴계원리 110-17번지","category":"일반휴게음식 - 일반한식"},{"name":"헤어티니","tel":"031-575-3652","addr":"경기도 남양주시 퇴계원읍 퇴계원리 110-17번지 1층","category":"보건위생 - 미용원"}]},{"lat":"37.657244643","long":"127.1455594","items":[{"name":"아라돈정육식당","tel":"031-573-8384","addr":"경기도 남양주시 퇴계원읍 퇴계원리 60-31번지 1층 105- 107호","category":"일반휴게음식 - 일반한식"},{"name":"아이비엠(IBM)","tel":"031-1111-1111","addr":"경기도 남양주시 퇴계원읍 퇴계원리 60-31번지 백승빌딩 3층","category":"레저업소 - 당 구 장"},{"name":"주식회사 에스에스패션","tel":"031-573-4772","addr":"경기도 남양주시 퇴계원읍 퇴계원리 60-31번지 6층","category":"의류 - 정장"}]},{"lat":"37.64727564","long":"127.14159712","items":[{"name":"아모레","tel":"031-573-1519","addr":"경기도 남양주시 퇴계원읍 퇴계원리 314-15","category":"보건위생 - 화장품"},{"name":"아모레외판","tel":"031-573-1519","addr":"경기도 남양주시 퇴계원읍 퇴계원리 314-15번지","category":"보건위생 - 화장품"},{"name":"아모레외판","tel":"031-573-1519","addr":"경기도 남양주시 퇴계원읍 퇴계원리 314-15번지","category":"보건위생 - 화장품"},{"name":"아모레카운셀러","tel":"031-573-1519","addr":"경기도 남양주시 퇴계원읍 퇴계원리 314-15","category":"보건위생 - 화장품"},{"name":"아모레카운셀러","tel":"031-573-1519","addr":"경기도 남양주시 퇴계원읍 퇴계원리 314-15번지 일석빌딩 507호","category":"보건위생 - 화장품"},{"name":"아모레카운셀러","tel":"031-573-1519","addr":"경기도 남양주시 퇴계원읍 퇴계원리 314-15번지 일석빌딩","category":"보건위생 - 화장품"},{"name":"아모레카운셀러","tel":"031-573-1519","addr":"경기도 남양주시 퇴계원읍 퇴계원리 314-15번지","category":"보건위생 - 화장품"},{"name":"아모레카운셀러","tel":"031-573-1519","addr":"경기도 남양주시 퇴계원읍 퇴계원리 314-15번지","category":"보건위생 - 화장품"},{"name":"아모레카운셀러","tel":"031-573-1519","addr":"경기도 남양주시 퇴계원읍 퇴계원리 314-15번지 일석빌딩 507호","category":"보건위생 - 화장품"},{"name":"아모레카운셀러","tel":"031-573-1519","addr":"경기도 남양주시 퇴계원읍 퇴계원리 314-15번지 일성빌딩 5층","category":"보건위생 - 화장품"},{"name":"아모레화장품(카운셀러)","tel":"031-573-1519","addr":"경기도 남양주시 퇴계원읍 퇴계원리 314-15","category":"보건위생 - 화장품"},{"name":"퇴계원면주민자치위원회","tel":"031-529-8047","addr":"경기도 남양주시 퇴계원읍 퇴계원리 314-15번지","category":"문화.취미 - 문화취미기타"}]},{"lat":"37.648001501","long":"127.14489584","items":[{"name":"아세아조명","tel":"031-529-1538","addr":"경기도 남양주시 퇴계원읍 퇴계원리 218-161번지 1층","category":"건축자재 - 조명기구"}]},{"lat":"37.659219192","long":"127.14437323","items":[{"name":"아이디티시스템","tel":"","addr":"경기도 남양주시 퇴계원읍 퇴계원리 369번지 금호어울림 101동 1202호","category":"용역 서비스 - 기타용역서비스"}]},{"lat":"37.647361991","long":"127.14474732","items":[{"name":"아이보리","tel":"070-8952-2726","addr":"경기도 남양주시 퇴계원읍 퇴계원리 182-14번지 삼도주택 다동 301호","category":"의류 - 정장"}]},{"lat":"37.654190092","long":"127.1457802","items":[{"name":"아이사랑어린이집","tel":"031-572-6423","addr":"경기도 남양주시 퇴계원읍 퇴계원리 111-1","category":"학원 - 유아원"},{"name":"퇴계원정문학원","tel":"031-571-7348","addr":"경기도 남양주시 퇴계원읍 퇴계원리 111-1번지 정일학원 2 3층","category":"회원제형태 - 학원"}]},{"lat":"37.646581708","long":"127.14175446","items":[{"name":"아토즈캠핑남양주점","tel":"070-4922-3365","addr":"경기도 남양주시 퇴계원읍 퇴계원리 315-7번지 2층 3호","category":"레져용품 - 스포츠·레져용품"}]},{"lat":"37.65536368","long":"127.14384463","items":[{"name":"알즈너 자유대리점","tel":"070-5129-2845","addr":"경기도 남양주시 퇴계원읍 퇴계원리 83-28번지 1층 102호","category":"보건위생 - 의료용품"}]},{"lat":"37.65477353","long":"127.14003588","items":[{"name":"앙프바이오(AINF BIO)","tel":"031-572-7222","addr":"경기도 남양주시 퇴계원읍 퇴계원리 269-7번지","category":"보건위생 - 화장품"}]},{"lat":"37.653140498","long":"127.14198198","items":[{"name":"약손월드","tel":"031-552-5114","addr":"경기도 남양주시 퇴계원읍 퇴계원리 100-3번지 일부","category":"보건위생 - 피부미용실"}]},{"lat":"37.650302251","long":"127.14214666","items":[{"name":"어쭈구리","tel":"031-528-8688","addr":"경기도 남양주시 퇴계원읍 퇴계원리 255-15","category":"일반휴게음식 - 주점"},{"name":"우리집돈보다리","tel":"031-572-8268","addr":"경기도 남양주시 퇴계원읍 퇴계원리 255-15번지","category":"일반휴게음식 - 일반한식"},{"name":"투다리퇴계원점","tel":"031-528-7161","addr":"경기도 남양주시 퇴계원읍 퇴계원리 255-15번지 대민빌딩 1층","category":"일반휴게음식 - 주점"},{"name":"황금마차","tel":"","addr":"경기도 남양주시 퇴계원읍 퇴계원리 255-15번지 대민빌딩","category":"일반휴게음식 - 주점"}]},{"lat":"37.647565949","long":"127.13988666","items":[{"name":"에띠임","tel":"","addr":"경기도 남양주시 퇴계원읍 퇴계원리 329-53번지 천보빌라 102동 402호","category":"의류 - 내의판매"}]},{"lat":"37.64967395","long":"127.14011716","items":[{"name":"에어컨 마트","tel":"","addr":"경기도 남양주시 퇴계원읍 퇴계원리 299-5번지 우남연립 마동 201호","category":"용역 서비스 - 기타용역서비스"}]},{"lat":"37.65347324","long":"127.14250387","items":[{"name":"엘케이과학","tel":"02-2294-8544","addr":"경기도 남양주시 퇴계원읍 퇴계원리 97-12번지 1층 사무동","category":"서적문구 - 과학기자재"}]},{"lat":"37.651584357","long":"127.13981472","items":[{"name":"여호와의 증인의 동북회중","tel":"031-571-0033","addr":"경기도 남양주시 퇴계원읍 퇴계원리 286-30번지 서울동북대회관","category":"기타 - 비영리/대상"}]},{"lat":"37.65658062","long":"127.1433143","items":[{"name":"염광의원","tel":"031-572-2222","addr":"경기도 남양주시 퇴계원읍 퇴계원리 82-11번지 양주쉐르빌","category":"의원 - 의원"}]},{"lat":"37.64769234","long":"127.14722947","items":[{"name":"예담꿈어린이집[아이행복]","tel":"","addr":"경기도 남양주시 퇴계원읍 퇴계원리 193-1번지 1층 퇴계원교회","category":"학원 - 유아원"}]},{"lat":"37.655300382","long":"127.14403716","items":[{"name":"예담디자인","tel":"070-4412-0189","addr":"경기도 남양주시 퇴계원읍 퇴계원리 87-6번지","category":"건축자재 - 인테리어전문"}]},{"lat":"37.647109475","long":"127.1449508","items":[{"name":"예림","tel":"070-8874-6781","addr":"경기도 남양주시 퇴계원읍 퇴계원리 182-5번지 한림드림빌 108동 301호","category":"기타 - 기계공구"}]},{"lat":"37.658886729","long":"127.14362463","items":[{"name":"예지어울림어린이집[아이행복]","tel":"031-571-6046","addr":"경기도 남양주시 퇴계원읍 퇴계원리 369번지 금호어울림","category":"학원 - 유아원"},{"name":"준아트","tel":"031-571-2652","addr":"경기도 남양주시 퇴계원읍 퇴계원리 369번지 금호어울림 상가 201호","category":"건축자재 - 인테리어전문"}]},{"lat":"37.647943313","long":"127.14078251","items":[{"name":"옛날우거지탕","tel":"031-572-7988","addr":"경기도 남양주시 퇴계원읍 퇴계원리 314-4번지","category":"일반휴게음식 - 일반한식"},{"name":"킹노래연습장","tel":"031-572-3145","addr":"경기도 남양주시 퇴계원읍 퇴계원리 314-4번지 2층","category":"레저업소 - 노 래 방"},{"name":"호치킨","tel":"","addr":"경기도 남양주시 퇴계원읍 퇴계원리 314-4번지","category":"일반휴게음식 - 스넥"}]},{"lat":"37.654694524","long":"127.14587183","items":[{"name":"오경건설주식회사","tel":"070-7700-1811","addr":"경기도 남양주시 퇴계원읍 퇴계원리 70-20","category":"용역 서비스 - 기타용역서비스"}]},{"lat":"37.656167104","long":"127.14253158","items":[{"name":"오네대리운전 정안양봉","tel":"","addr":"경기도 남양주시 퇴계원읍 퇴계원리 83-39번지 1층","category":"건강식품 - 기타건강식품"}]},{"lat":"37.653502321","long":"127.1407588","items":[{"name":"오성슈퍼","tel":"031-571-8454","addr":"경기도 남양주시 퇴계원읍 퇴계원리 273-11번지 오성주택 가-102","category":"유통업 영리 - 슈퍼마켓"},{"name":"주니유통","tel":"031-556-5267","addr":"경기도 남양주시 퇴계원읍 퇴계원리 273-11번지 오성주택 가동 201호","category":"음료식품 - 기타음료식품"}]},{"lat":"37.653688706","long":"127.1431502","items":[{"name":"오즈아카데미어린이집[아이행복]","tel":"031-572-7200","addr":"경기도 남양주시 퇴계원읍 퇴계원리 102-3번지","category":"학원 - 유아원"}]},{"lat":"37.64725322","long":"127.13761987","items":[{"name":"온사이드","tel":"","addr":"경기도 남양주시 퇴계원읍 퇴계원리 329-17번지","category":"일반휴게음식 - 서양음식"},{"name":"온사이드(펫)","tel":"031-528-5399","addr":"경기도 남양주시 퇴계원읍 퇴계원리 329-17번지 2층","category":"문화.취미 - 애완동물"}]},{"lat":"37.648440806","long":"127.13909508","items":[{"name":"올가스킨케어","tel":"031-527-3055","addr":"경기도 남양주시 퇴계원읍 퇴계원리 303번지 극동아파트","category":"보건위생 - 화장품"}]},{"lat":"37.654722402","long":"127.14516928","items":[{"name":"올터쭈꾸미","tel":"031-572-7566","addr":"경기도 남양주시 퇴계원읍 퇴계원리 70-32번지 율터쭈꾸미","category":"일반휴게음식 - 일반한식"}]},{"lat":"37.656164848","long":"127.14442409","items":[{"name":"왕식당","tel":"031-572-7290","addr":"경기도 남양주시 퇴계원읍 퇴계원리 75-15번지","category":"일반휴게음식 - 일반한식"}]},{"lat":"37.65644318","long":"127.14522923","items":[{"name":"왕짜장","tel":"031-571-6204","addr":"경기도 남양주시 퇴계원읍 퇴계원리 75-8","category":"일반휴게음식 - 중국식"}]},{"lat":"37.647829182","long":"127.145836","items":[{"name":"우리치과","tel":"031-571-9571","addr":"경기도 남양주시 퇴계원읍 퇴계원리 208-13번지","category":"의원 - 치과의원"},{"name":"쵸이스당구장","tel":"","addr":"경기도 남양주시 퇴계원읍 퇴계원리 208-13번지 5층","category":"레저업소 - 당 구 장"},{"name":"퇴계원 건강 힐링카페","tel":"031-593-6959","addr":"경기도 남양주시 퇴계원읍 퇴계원리 208-13번지 3층","category":"보건위생 - 기타대인서비스"}]},{"lat":"37.647802715","long":"127.14537137","items":[{"name":"운동화빨래방이불","tel":"031-571-8240","addr":"경기도 남양주시 퇴계원읍 퇴계원리 211-9번지","category":"수리서비스 - 세탁소"}]},{"lat":"37.652652297","long":"127.14339756","items":[{"name":"원스텔라","tel":"","addr":"경기도 남양주시 퇴계원읍 퇴계원리 264-10번지 1차대흥주택 A동 305호","category":"신변잡화 - 액세서리"}]},{"lat":"37.654669244","long":"127.14442126","items":[{"name":"원조뽈탕뽈찜해남","tel":"031-528-2064","addr":"경기도 남양주시 퇴계원읍 퇴계원리 94-3번지","category":"일반휴게음식 - 일반한식"},{"name":"하림각","tel":"031-572-8600","addr":"경기도 남양주시 퇴계원읍 퇴계원리 94-3번지 1층","category":"일반휴게음식 - 중국식"},{"name":"형제감자탕","tel":"031-528-6259","addr":"경기도 남양주시 퇴계원읍 퇴계원리 94-3번지","category":"일반휴게음식 - 일반한식"}]},{"lat":"37.648467781","long":"127.1467324","items":[{"name":"원진모터스","tel":"031-527-7460","addr":"경기도 남양주시 퇴계원읍 퇴계원리 199-11번지","category":"자동차판매 - 이륜차판매"}]},{"lat":"37.646930816","long":"127.14367005","items":[{"name":"유일방수","tel":"031-1644-4364","addr":"경기도 남양주시 퇴계원읍 퇴계원리 180-9번지 동북주택 라동 102호","category":"회원제형태 - 기타4"}]},{"lat":"37.656470373","long":"127.14509329","items":[{"name":"윤선생우리집앞영어교실퇴계원영어교습소","tel":"031-571-0105","addr":"경기도 남양주시 퇴계원읍 퇴계원리 67-8 1층","category":"학원 - 보습학원"}]},{"lat":"37.654177821","long":"127.14095269","items":[{"name":"은성공조","tel":"031-527-6466","addr":"경기도 남양주시 퇴계원읍 퇴계원리 271-29번지 은성주택 1동 101호","category":"회원제형태 - 기타4"}]},{"lat":"37.647717965","long":"127.14087275","items":[{"name":"의당수산","tel":"031-572-5292","addr":"경기도 남양주시 퇴계원읍 퇴계원리 314-21번지 1층","category":"음료식품 - 농·축·수산품"},{"name":"의당임꺽정장어","tel":"031-572-5292","addr":"경기도 남양주시 퇴계원읍 퇴계원리 314-21번지 1층 136호 중일부호","category":"일반휴게음식 - 일반한식"}]},{"lat":"37.652669559","long":"127.14403218","items":[{"name":"이미지","tel":"070-8952-2726","addr":"경기도 남양주시 퇴계원읍 퇴계원리 261-15 3층-2 7/2","category":"의류 - 정장"}]},{"lat":"37.649079191","long":"127.1477534","items":[{"name":"인창카센타","tel":"031-572-0168","addr":"경기도 남양주시 퇴계원읍 퇴계원리 197-25번지","category":"자동차정비 유지 - 자동차정비"}]},{"lat":"37.657417897","long":"127.14383718","items":[{"name":"일미함시방","tel":"031-572-1244","addr":"경기도 남양주시 퇴계원읍 퇴계원리 56-31번지 1층","category":"일반휴게음식 - 주점"},{"name":"플라워 앤 유","tel":"031-529-4545","addr":"경기도 남양주시 퇴계원읍 퇴계원리 56-31번지 진영빌딩 1층 103호","category":"문화.취미 - 화원"}]},{"lat":"37.64766984","long":"127.14347882","items":[{"name":"일층집","tel":"031-574-9536","addr":"경기도 남양주시 퇴계원읍 퇴계원리 218-53번지 1층","category":"일반휴게음식 - 일반한식"}]},{"lat":"37.647613922","long":"127.14503108","items":[{"name":"일팔이칠","tel":"","addr":"경기도 남양주시 퇴계원읍 퇴계원리 182-7번지 101호","category":"일반휴게음식 - 일식·회집"}]},{"lat":"37.656418419","long":"127.14333666","items":[{"name":"잉꼬슈퍼","tel":"031-571-0380","addr":"경기도 남양주시 퇴계원읍 퇴계원리 82-5번지","category":"유통업 영리 - 슈퍼마켓"}]},{"lat":"37.653416192","long":"127.14500814","items":[{"name":"재림세차장","tel":"031-9278-8200","addr":"경기도 남양주시 퇴계원읍 퇴계원리 110-2번지","category":"자동차정비 유지 - 세차장"}]},{"lat":"37.65427751","long":"127.14045426","items":[{"name":"재희 콜랙션","tel":"070-2699-0807","addr":"경기도 남양주시 퇴계원읍 퇴계원리 269-13번지 라동 지하 101호","category":"의류 - 내의판매"}]},{"lat":"37.649806384","long":"127.14242902","items":[{"name":"전설의치킨","tel":"031-571-5388","addr":"경기도 남양주시 퇴계원읍 퇴계원리 255-21번지","category":"일반휴게음식 - 스넥"}]},{"lat":"37.653857665","long":"127.14500898","items":[{"name":"점핑&바디핏","tel":"070-8823-1191","addr":"경기도 남양주시 퇴계원읍 퇴계원리 107-30번지","category":"건강식품 - 기타건강식품"}]},{"lat":"37.648385329","long":"127.14031875","items":[{"name":"정슈퍼마켓","tel":"031-527-5756","addr":"경기도 남양주시 퇴계원읍 퇴계원리 314-1 외3필지 1층","category":"유통업 영리 - 슈퍼마켓"}]},{"lat":"37.65488534","long":"127.14453499","items":[{"name":"정연식당","tel":"031-510-9579","addr":"경기도 남양주시 퇴계원읍 퇴계원리 94-1번지 1층","category":"일반휴게음식 - 일반한식"},{"name":"하나커피호프","tel":"031-528-9884","addr":"경기도 남양주시 퇴계원읍 퇴계원리 94-1번지 지하1층","category":"일반휴게음식 - 주점"},{"name":"현대오토바이","tel":"031-572-9903","addr":"경기도 남양주시 퇴계원읍 퇴계원리 94-1번지","category":"자동차판매 - 이륜차판매"}]},{"lat":"37.648108482","long":"127.14583654","items":[{"name":"제리곽헤어","tel":"031-1234-5678","addr":"경기도 남양주시 퇴계원읍 퇴계원리 208-10번지 1층","category":"보건위생 - 미용원"},{"name":"하오짬","tel":"031-571-4216","addr":"경기도 남양주시 퇴계원읍 퇴계원리 208-10번지 1층","category":"일반휴게음식 - 중국식"}]},{"lat":"37.651357662","long":"127.14106079","items":[{"name":"제성유치원[아이행복]","tel":"031-572-9651","addr":"경기도 남양주시 퇴계원읍 퇴계원리 286-6번지","category":"학원 - 유치원"}]},{"lat":"37.648023417","long":"127.14162117","items":[{"name":"제이앤로제","tel":"031-111-1111","addr":"경기도 남양주시 퇴계원읍 퇴계원리 218-116번지 대광빌딩","category":"일반휴게음식 - 서양음식"}]},{"lat":"37.659222596","long":"127.14150601","items":[{"name":"제이엠코리아","tel":"","addr":"경기도 남양주시 퇴계원읍 퇴계원리 55-4번지 나동","category":"학원 - 예·체능계학원"}]},{"lat":"37.655416937","long":"127.14451333","items":[{"name":"제일아쿠아","tel":"070-4090-3878","addr":"경기도 남양주시 퇴계원읍 퇴계원리 73-4번지 지층","category":"주방용구 - 정수기"}]},{"lat":"37.646976054","long":"127.14351151","items":[{"name":"제일엔진","tel":"031-529-8262","addr":"경기도 남양주시 퇴계원읍 퇴계원리 216-3번지","category":"수리서비스 - 기타수리서비스"},{"name":"축복","tel":"031-842-3231","addr":"경기도 남양주시 퇴계원읍 퇴계원리 216-3번지","category":"유통업 영리 - 슈퍼마켓"}]},{"lat":"37.648635032","long":"127.14250615","items":[{"name":"주식회사 스타마트","tel":"031-571-5959","addr":"경기도 남양주시 퇴계원읍 퇴계원리 219-1번지","category":"유통업 영리 - 슈퍼마켓"}]},{"lat":"37.652164678","long":"127.14431452","items":[{"name":"주택슈퍼","tel":"031-572-5669","addr":"경기도 남양주시 퇴계원읍 퇴계원리 250-13번지 경신3차EK 101호","category":"음료식품 - 기타음료식품"}]},{"lat":"37.653835838","long":"127.14062343","items":[{"name":"준코리아","tel":"070-4760-7071","addr":"경기도 남양주시 퇴계원읍 퇴계원리 273-6번지 가4동 201호","category":"자동차정비 유지 - 자동차정비"}]},{"lat":"37.647640239","long":"127.14562035","items":[{"name":"중앙힐스테이트 공인중개사사무소","tel":"031-111-1111","addr":"경기도 남양주시 퇴계원읍 퇴계원리 211-5번지","category":"용역 서비스 - 부동산 중개·임대"},{"name":"최수연헤어드레서","tel":"031-551-1680","addr":"경기도 남양주시 퇴계원읍 퇴계원리 211-5번지","category":"보건위생 - 미용원"}]},{"lat":"37.647612579","long":"127.14614153","items":[{"name":"진현수산","tel":"031-555-8165","addr":"경기도 남양주시 퇴계원읍 퇴계원리 199-38번지 1층","category":"일반휴게음식 - 일반한식"}]},{"lat":"37.663162141","long":"127.14708942","items":[{"name":"창조가든","tel":"031-575-0937","addr":"경기도 남양주시 퇴계원읍 퇴계원리 31-3번지","category":"일반휴게음식 - 일반한식"}]},{"lat":"37.649940678","long":"127.15053129","items":[{"name":"청계천서적센타","tel":"031-573-1569","addr":"경기도 남양주시 퇴계원읍 퇴계원리 124-19","category":"서적문구 - 일반서적"}]},{"lat":"37.64743993","long":"127.14734229","items":[{"name":"체어맨","tel":"","addr":"경기도 남양주시 퇴계원읍 퇴계원리 193-10번지 포스필하우스 101동 501호","category":"신변잡화 - 액세서리"}]},{"lat":"37.646834817","long":"127.14104108","items":[{"name":"최형수치과의원","tel":"031-571-1305","addr":"경기도 남양주시 퇴계원읍 퇴계원리 314-17번지","category":"의원 - 치과의원"},{"name":"한강동물약품","tel":"031-571-4858","addr":"경기도 남양주시 퇴계원읍 퇴계원리 314-17번지","category":"기타의료기관 - 동물병원"}]},{"lat":"37.654524749","long":"127.14470429","items":[{"name":"충북자동차공업사","tel":"031-571-9596","addr":"경기도 남양주시 퇴계원읍 퇴계원리 94-6번지","category":"자동차정비 유지 - 자동차정비"}]},{"lat":"37.648252293","long":"127.14612009","items":[{"name":"캐리어 남양주중앙센터","tel":"031-571-8272","addr":"경기도 남양주시 퇴계원읍 퇴계원리 208-3번지","category":"용역 서비스 - 기타용역서비스"}]},{"lat":"37.659417241","long":"127.1445096","items":[{"name":"커피하마","tel":"031-855-0024","addr":"경기도 남양주시 퇴계원읍 퇴계원리 369-4번지 202호 금호어울림 근린생활시설","category":"일반휴게음식 - 서양음식"},{"name":"퇴계원하나관광주식회사","tel":"031-529-4700","addr":"경기도 남양주시 퇴계원읍 퇴계원리 369-4번지 금호어울림 근린생활시설 203호","category":"여행 - 관광여행"}]},{"lat":"37.654417733","long":"127.14378618","items":[{"name":"컬투치킨","tel":"031-571-6369","addr":"경기도 남양주시 퇴계원읍 퇴계원리 98-1번지 1층","category":"일반휴게음식 - 스넥"}]},{"lat":"37.647693899","long":"127.14594906","items":[{"name":"크린토피아 퇴계원 현대힐스테이트점","tel":"031-528-1818","addr":"경기도 남양주시 퇴계원읍 퇴계원리 210-1번지","category":"수리서비스 - 세탁소"}]},{"lat":"37.649861031","long":"127.14193054","items":[{"name":"키노야(퇴계원점)","tel":"031-1111-111","addr":"경기도 남양주시 퇴계원읍 퇴계원리 293-2번지","category":"일반휴게음식 - 일반한식"}]},{"lat":"37.660946071","long":"127.1468358","items":[{"name":"타이어 카페","tel":"031-529-8121","addr":"경기도 남양주시 퇴계원읍 퇴계원리 42-1번지","category":"자동차정비 유지 - 자동차시트·타이어"}]},{"lat":"37.662637981","long":"127.14839175","items":[{"name":"타이어맥스","tel":"031-527-6279","addr":"경기도 남양주시 퇴계원읍 퇴계원리 7-1번지","category":"자동차정비 유지 - 자동차시트·타이어"}]},{"lat":"37.646306412","long":"127.13830934","items":[{"name":"타이어테크 퇴계원점","tel":"031-571-4575","addr":"경기도 남양주시 퇴계원읍 퇴계원리 323-11번지 323-20,323-21","category":"자동차정비 유지 - 자동차시트·타이어"}]},{"lat":"37.652749613","long":"127.14489355","items":[{"name":"탐라정","tel":"031-571-2442","addr":"경기도 남양주시 퇴계원읍 퇴계원리 110-8번지","category":"일반휴게음식 - 일반한식"},{"name":"해신통상","tel":"070-4477-0226","addr":"경기도 남양주시 퇴계원읍 퇴계원리 110-8 보승빌딩1층","category":"신변잡화 - 기타잡화"}]},{"lat":"37.649141917","long":"127.14051278","items":[{"name":"탐진추어탕","tel":"031-572-7753","addr":"경기도 남양주시 퇴계원읍 퇴계원리 299-16","category":"일반휴게음식 - 일반한식"}]},{"lat":"37.647444598","long":"127.1434784","items":[{"name":"태공","tel":"031-572-9205","addr":"경기도 남양주시 퇴계원읍 퇴계원리 218-51","category":"레져용품 - 스포츠·레져용품"}]},{"lat":"37.648584505","long":"127.14706123","items":[{"name":"태양상사","tel":"031-575-1208","addr":"경기도 남양주시 퇴계원읍 퇴계원리 198-2번지 1층","category":"건축자재 - 기타건축자재"}]},{"lat":"37.645892823","long":"127.13756076","items":[{"name":"태영","tel":"031-111-1111","addr":"경기도 남양주시 퇴계원읍 퇴계원리 324-2번지 1층","category":"자동차정비 유지 - 자동차부품"}]},{"lat":"37.644221607","long":"127.13347872","items":[{"name":"태화특수정밀","tel":"031-572-7792","addr":"경기도 남양주시 퇴계원읍 퇴계원리 360-1번지","category":"기타 - 기계공구"}]},{"lat":"37.654749827","long":"127.1448407","items":[{"name":"토담집","tel":"031-529-0356","addr":"경기도 남양주시 퇴계원읍 퇴계원리 70-30번지","category":"일반휴게음식 - 칵테일바"}]},{"lat":"37.650248807","long":"127.14162531","items":[{"name":"퇴계원shop","tel":"02-2678-7615","addr":"경기도 남양주시 퇴계원읍 퇴계원리 292-7번지","category":"보건위생 - 화장품"}]},{"lat":"37.660083124","long":"127.14520218","items":[{"name":"퇴계원고등학교매점","tel":"031-570-1518","addr":"경기도 남양주시 퇴계원읍 퇴계원리 44-5번지","category":"음료식품 - 기타음료식품"}]},{"lat":"37.650663491","long":"127.14142211","items":[{"name":"퇴계원곱창닭갈비","tel":"031-572-7140","addr":"경기도 남양주시 퇴계원읍 퇴계원리 286-22번지","category":"일반휴게음식 - 일반한식"}]},{"lat":"37.653607093","long":"127.143592","items":[{"name":"퇴계원닭집","tel":"031-571-8199","addr":"경기도 남양주시 퇴계원읍 퇴계원리 102-10번지 2층 1호","category":"음료식품 - 정육점"}]},{"lat":"37.64913702","long":"127.14464872","items":[{"name":"퇴계원면사무소","tel":"031-590-4934","addr":"경기도 남양주시 퇴계원읍 퇴계원리 221-3번지 퇴계원면사무소","category":"용역 서비스 - 사무서비스"}]},{"lat":"37.657442512","long":"127.1458431","items":[{"name":"퇴계원세차장","tel":"031-572-8506","addr":"경기도 남양주시 퇴계원읍 퇴계원리 60-16번지 1층","category":"자동차정비 유지 - 세차장"},{"name":"퇴계원점기아오토큐 주식회사","tel":"031-572-8506","addr":"경기도 남양주시 퇴계원읍 퇴계원리 60-16","category":"자동차정비 유지 - 자동차부품"}]},{"lat":"37.652023138","long":"127.14211588","items":[{"name":"퇴계원식당","tel":"031-572-6389","addr":"경기도 남양주시 퇴계원읍 퇴계원리 279-3번지","category":"일반휴게음식 - 일반한식"}]},{"lat":"37.655551919","long":"127.14464958","items":[{"name":"퇴계원와이어주짓수","tel":"070-7420-1516","addr":"경기도 남양주시 퇴계원읍 퇴계원리 73-7번지 2층","category":"레저업소 - 헬스클럽"}]},{"lat":"37.646915519","long":"127.14136983","items":[{"name":"퇴계종묘농약사","tel":"031-571-9064","addr":"경기도 남양주시 퇴계원읍 퇴계원리 218-32번지","category":"농업 - 비료,사료,종자"},{"name":"홍지연애견샵","tel":"031-572-1588","addr":"경기도 남양주시 퇴계원읍 퇴계원리 218-32번지 103호","category":"문화.취미 - 애완동물"}]},{"lat":"37.650022817","long":"127.14225945","items":[{"name":"투투미용실","tel":"031-572-1665","addr":"경기도 남양주시 퇴계원읍 퇴계원리 255-44번지","category":"보건위생 - 미용원"}]},{"lat":"37.656308035","long":"127.14522897","items":[{"name":"파리바게뜨퇴계원중앙점","tel":"031-571-8254","addr":"경기도 남양주시 퇴계원읍 퇴계원리 75-10","category":"음료식품 - 제과점"}]},{"lat":"37.648027518","long":"127.1457344","items":[{"name":"파아란지붕집","tel":"","addr":"경기도 남양주시 퇴계원읍 퇴계원리 208-2번지 1층","category":"일반휴게음식 - 서양음식"}]},{"lat":"37.652164909","long":"127.14412188","items":[{"name":"풍년농산","tel":"031-572-5288","addr":"경기도 남양주시 퇴계원읍 퇴계원리 250-37번지 차한신하이츠","category":"음료식품 - 기타음료식품"}]},{"lat":"37.656109959","long":"127.14511527","items":[{"name":"플러스 재무설계","tel":"","addr":"경기도 남양주시 퇴계원읍 퇴계원리 75-12번지 삼성하이츠 102동 402호","category":"용역 서비스 - 정보서비스"}]},{"lat":"37.64819408","long":"127.14206341","items":[{"name":"픽샵","tel":"","addr":"경기도 남양주시 퇴계원읍 퇴계원리 218-82번지 화이트빌라 403호","category":"서적문구 - 완구점"}]},{"lat":"37.649780503","long":"127.14145447","items":[{"name":"하늘찬방","tel":"031-575-9912","addr":"경기도 남양주시 퇴계원읍 퇴계원리 292-4번지","category":"음료식품 - 기타음료식품"}]},{"lat":"37.650086833","long":"127.14145504","items":[{"name":"하카","tel":"031-515-1091","addr":"경기도 남양주시 퇴계원읍 퇴계원리 292-27번지 1층","category":"기타 - 기타 전문점"}]},{"lat":"37.648772653","long":"127.14039878","items":[{"name":"한경","tel":"031-575-6989","addr":"경기도 남양주시 퇴계원읍 퇴계원리 218-21","category":"주방용구 - 정수기"}]},{"lat":"37.647218095","long":"127.14453176","items":[{"name":"한국문화센터남양주별내지부","tel":"031-573-3409","addr":"경기도 남양주시 퇴계원읍 퇴계원리 182-15번지 삼도연립 1층 102호","category":"문화.취미 - 문화취미기타"}]},{"lat":"37.648496432","long":"127.14539536","items":[{"name":"한국복싱다이어트","tel":"031-571-9218","addr":"경기도 남양주시 퇴계원읍 퇴계원리 225-3","category":"회원제형태 - 레져업소"},{"name":"홈아트","tel":"031-571-7776","addr":"경기도 남양주시 퇴계원읍 퇴계원리 225-3번지","category":"건축자재 - 건축용 요업제품"}]},{"lat":"37.652916837","long":"127.14814614","items":[{"name":"한국시스템","tel":"031-511-5962","addr":"경기도 남양주시 퇴계원읍 퇴계원리 113번지","category":"전기제품 - 냉열기기"}]},{"lat":"37.65505636","long":"127.1446713","items":[{"name":"한양자동차공업사","tel":"031-571-8818","addr":"경기도 남양주시 퇴계원읍 퇴계원리 71번지","category":"자동차정비 유지 - 자동차정비"}]},{"lat":"37.654391339","long":"127.14325352","items":[{"name":"해연","tel":"","addr":"경기도 남양주시 퇴계원읍 퇴계원리 97-46번지 경동아트빌라 1동 404호","category":"음료식품 - 기타음료식품"}]},{"lat":"37.649196371","long":"127.14017294","items":[{"name":"현경 미용실","tel":"031-572-8825","addr":"경기도 남양주시 퇴계원읍 퇴계원리 299-13번지 1층 102호","category":"보건위생 - 미용원"}]},{"lat":"37.655633713","long":"127.14406045","items":[{"name":"현대카인테리어","tel":"031-571-6689","addr":"경기도 남양주시 퇴계원읍 퇴계원리 87-1","category":"자동차정비 유지 - 자동차정비"}]},{"lat":"37.651578982","long":"127.14437006","items":[{"name":"현스포츠","tel":"031-575-2176","addr":"경기도 남양주시 퇴계원읍 퇴계원리 250-44 1층4호","category":"레져용품 - 스포츠·레져용품"},{"name":"홈포탈클린업","tel":"","addr":"경기도 남양주시 퇴계원읍 퇴계원리 250-44번지","category":"용역 서비스 - 종합용역"}]},{"lat":"37.657058173","long":"127.1432812","items":[{"name":"혜이디자인","tel":"","addr":"경기도 남양주시 퇴계원읍 퇴계원리 56-65번지 광명빌라 다동 201호","category":"건축자재 - 인테리어전문"}]}]