[{"lat":"37.881664743","long":"127.05639729","imageIndex":4,"items":[{"name":"24시전주명가콩나물국밥(송내점)","tel":"","addr":"경기도 동두천시 송내동 579-1번지","indutype":"일반휴게음식 - 일반한식","category":"restaurant"}]},{"lat":"37.883631151","long":"127.05089699","imageIndex":4,"items":[{"name":"3부자양푼이갈비","tel":"031-866-8889","addr":"경기도 동두천시 송내동 687-10번지","indutype":"일반휴게음식 - 일반한식","category":"restaurant"}]},{"lat":"37.882719946","long":"127.0538973","imageIndex":4,"items":[{"name":"BHC동두천송내점","tel":"031-862-9982","addr":"경기도 동두천시 송내동 695-2번지 우진프라자 1층 108호","indutype":"일반휴게음식 - 스넥","category":"restaurant"},{"name":"옥희국수만두","tel":"031-861-5533","addr":"경기도 동두천시 송내동 695-2번지 우진프라자 1층 107호","indutype":"일반휴게음식 - 스넥","category":"restaurant"},{"name":"즐겨찾는밥집","tel":"031-868-2223","addr":"경기도 동두천시 송내동 695-2번지 외1필지 우진프라자 106호","indutype":"일반휴게음식 - 일반한식","category":"restaurant"},{"name":"키즈팡팡","tel":"070-8153-0261","addr":"경기도 동두천시 송내동 695-2번지 우진프라자 110호 ,111,112,119,120,121호","indutype":"일반휴게음식 - 일반한식","category":"restaurant"},{"name":"키즈팡팡","tel":"070-8153-0261","addr":"경기도 동두천시 송내동 695-2번지 우진프라자 110호 ,112호,119호,121호,111호,120호","indutype":"일반휴게음식 - 일반한식","category":"restaurant"},{"name":"티바두마리치킨","tel":"031-858-9282","addr":"경기도 동두천시 송내동 695-2번지 우진프라자 1층 114호","indutype":"일반휴게음식 - 스넥","category":"restaurant"},{"name":"한성피자","tel":"031-859-8787","addr":"경기도 동두천시 송내동 695-2번지 우진프라자본동 105호","indutype":"일반휴게음식 - 서양음식","category":"restaurant"}]},{"lat":"37.882639382","long":"127.05268097","imageIndex":4,"items":[{"name":"Cafe 공감","tel":"050-2011-1588","addr":"경기도 동두천시 송내동 680-4번지","indutype":"일반휴게음식 - 서양음식","category":"restaurant"}]},{"lat":"37.879664477","long":"127.05681641","imageIndex":4,"items":[{"name":"갈비애(  )이야기","tel":"031-868-2584","addr":"경기도 동두천시 송내동 493-5번지","indutype":"일반휴게음식 - 일반한식","category":"restaurant"},{"name":"돈까스클럽동두천점","tel":"031-868-2520","addr":"경기도 동두천시 송내동 493-5번지","indutype":"일반휴게음식 - 서양음식","category":"restaurant"}]},{"lat":"37.883298086","long":"127.05020337","imageIndex":4,"items":[{"name":"교동반점","tel":"031-861-8588","addr":"경기도 동두천시 송내동 668-4번지","indutype":"일반휴게음식 - 중국식","category":"restaurant"},{"name":"무한장어","tel":"031-865-3308","addr":"경기도 동두천시 송내동 668-4번지","indutype":"일반휴게음식 - 일반한식","category":"restaurant"}]},{"lat":"37.881747644","long":"127.05223706","imageIndex":4,"items":[{"name":"구십칠(97)","tel":"02-1234-1234","addr":"경기도 동두천시 송내동 683-8번지","indutype":"일반휴게음식 - 서양음식","category":"restaurant"}]},{"lat":"37.883027075","long":"127.05198784","imageIndex":4,"items":[{"name":"국수랑♡고기랑","tel":"031-862-9200","addr":"경기도 동두천시 송내동 693-3번지","indutype":"일반휴게음식 - 일반한식","category":"restaurant"}]},{"lat":"37.887108865","long":"127.05062642","imageIndex":4,"items":[{"name":"굿모닝회수산","tel":"031-861-2959","addr":"경기도 동두천시 송내동 664-6번지 송내주공아파트 A동 106호","indutype":"일반휴게음식 - 일식·회집","category":"restaurant"},{"name":"대청마루생고기","tel":"031-857-1580","addr":"경기도 동두천시 송내동 664-6번지 송내주공3단지 A동 107호","indutype":"일반휴게음식 - 일반한식","category":"restaurant"}]},{"lat":"37.883604509","long":"127.06873211","imageIndex":4,"items":[{"name":"그집쭈꾸미","tel":"031-866-6058","addr":"경기도 동두천시 송내동 300번지","indutype":"일반휴게음식 - 일반한식","category":"restaurant"}]},{"lat":"37.877668591","long":"127.0664763","imageIndex":4,"items":[{"name":"김정문더덕오리구이","tel":"031-868-9252","addr":"경기도 동두천시 송내동 214-1번지 외2필지","indutype":"일반휴게음식 - 일반한식","category":"restaurant"}]},{"lat":"37.883270469","long":"127.05164698","imageIndex":4,"items":[{"name":"까페유(Cafe U)","tel":"031-000-0000","addr":"경기도 동두천시 송내동 693번지","indutype":"일반휴게음식 - 서양음식","category":"restaurant"}]},{"lat":"37.883360722","long":"127.05126056","imageIndex":4,"items":[{"name":"남해해물탕","tel":"031-865-6868","addr":"경기도 동두천시 송내동 686-11번지","indutype":"일반휴게음식 - 일반한식","category":"restaurant"}]},{"lat":"37.883772866","long":"127.05653522","imageIndex":4,"items":[{"name":"너와집","tel":"031-866-9988","addr":"경기도 동두천시 송내동 591-5번지","indutype":"일반휴게음식 - 일반한식","category":"restaurant"}]},{"lat":"37.883883702","long":"127.05018101","imageIndex":4,"items":[{"name":"노스탤지아","tel":"031-866-1303","addr":"경기도 동두천시 송내동 688-1번지","indutype":"일반휴게음식 - 서양음식","category":"restaurant"}]},{"lat":"37.883576876","long":"127.05143121","imageIndex":4,"items":[{"name":"단지보쌈","tel":"031-866-8919","addr":"경기도 동두천시 송내동 692-1번지","indutype":"일반휴게음식 - 일반한식","category":"restaurant"}]},{"lat":"37.881522306","long":"127.05248698","imageIndex":4,"items":[{"name":"담원생선구이","tel":"031-858-3838","addr":"경기도 동두천시 송내동 672번지","indutype":"일반휴게음식 - 일반한식","category":"restaurant"}]},{"lat":"37.883054756","long":"127.05039646","imageIndex":4,"items":[{"name":"동두천광릉숯불고기","tel":"031-867-0550","addr":"경기도 동두천시 송내동 668-6번지","indutype":"일반휴게음식 - 일반한식","category":"restaurant"}]},{"lat":"37.88193704","long":"127.05175977","imageIndex":4,"items":[{"name":"동방(화로숯불구이)","tel":"031-867-6141","addr":"경기도 동두천시 송내동 683-13번지","indutype":"일반휴게음식 - 일반한식","category":"restaurant"}]},{"lat":"37.882855515","long":"127.05289709","imageIndex":4,"items":[{"name":"동오부대찌개","tel":"031-868-9977","addr":"경기도 동두천시 송내동 694-4번지","indutype":"일반휴게음식 - 일반한식","category":"restaurant"}]},{"lat":"37.883667007","long":"127.05134033","imageIndex":4,"items":[{"name":"동인당","tel":"031-111-1111","addr":"경기도 동두천시 송내동 692번지 다온빌딩 101호","indutype":"일반휴게음식 - 서양음식","category":"restaurant"}]},{"lat":"37.883748319","long":"127.05078339","imageIndex":4,"items":[{"name":"뚝배기옻닭","tel":"031-866-4356","addr":"경기도 동두천시 송내동 687-4번지","indutype":"일반휴게음식 - 일반한식","category":"restaurant"}]},{"lat":"37.883108207","long":"127.05187422","imageIndex":4,"items":[{"name":"라운지","tel":"","addr":"경기도 동두천시 송내동 693-2번지","indutype":"일반휴게음식 - 서양음식","category":"restaurant"}]},{"lat":"37.880576152","long":"127.05289555","imageIndex":4,"items":[{"name":"롯데리아롯데마트동두천점","tel":"031-865-9911","addr":"경기도 동두천시 송내동 551번지","indutype":"일반휴게음식 - 서양음식","category":"restaurant"}]},{"lat":"37.882332915","long":"127.05303314","imageIndex":4,"items":[{"name":"마리아주(MARIAGE)","tel":"031-866-8991","addr":"경기도 동두천시 송내동 677-6번지","indutype":"일반휴게음식 - 서양음식","category":"restaurant"}]},{"lat":"37.882243149","long":"127.05226013","imageIndex":4,"items":[{"name":"마마스홈","tel":"","addr":"경기도 동두천시 송내동 682-12번지","indutype":"일반휴게음식 - 서양음식","category":"restaurant"}]},{"lat":"37.881747376","long":"127.05287361","imageIndex":4,"items":[{"name":"만석지기네 들밥","tel":"","addr":"경기도 동두천시 송내동 678-2번지 상가 1층","indutype":"일반휴게음식 - 일반한식","category":"restaurant"}]},{"lat":"37.881522166","long":"127.05281662","imageIndex":4,"items":[{"name":"매니아 짜장 짬뽕","tel":"031-861-7459","addr":"경기도 동두천시 송내동 672-2번지","indutype":"일반휴게음식 - 중국식","category":"restaurant"}]},{"lat":"37.882026665","long":"127.0528738","imageIndex":4,"items":[{"name":"명가민물장어","tel":"031-866-5802","addr":"경기도 동두천시 송내동 678번지","indutype":"일반휴게음식 - 일반한식","category":"restaurant"}]},{"lat":"37.883189338","long":"127.0517606","imageIndex":4,"items":[{"name":"모내리쌈밥전문점","tel":"031-862-8120","addr":"경기도 동두천시 송내동 693-1번지","indutype":"일반휴게음식 - 일반한식","category":"restaurant"}]},{"lat":"37.882135212","long":"127.05183947","imageIndex":4,"items":[{"name":"박씨네 양푼갈비","tel":"031-866-0234","addr":"경기도 동두천시 송내동 682-3번지","indutype":"일반휴게음식 - 일반한식","category":"restaurant"}]},{"lat":"37.88238684","long":"127.05334009","imageIndex":4,"items":[{"name":"삼오삼겹살","tel":"031-867-8090","addr":"경기도 동두천시 송내동 675번지","indutype":"일반휴게음식 - 일반한식","category":"restaurant"}]},{"lat":"37.883802314","long":"127.0509312","imageIndex":4,"items":[{"name":"설악추어탕","tel":"031-859-5214","addr":"경기도 동두천시 송내동 687-5번지","indutype":"일반휴게음식 - 일반한식","category":"restaurant"}]},{"lat":"37.883909467","long":"127.05322745","imageIndex":4,"items":[{"name":"소문난불곱창","tel":"031-867-8800","addr":"경기도 동두천시 송내동 696-3번지 송내주공아파트 상가 105호","indutype":"일반휴게음식 - 일반한식","category":"restaurant"}]},{"lat":"37.877882012","long":"127.05370074","imageIndex":4,"items":[{"name":"송내자연닭집","tel":"031-867-2480","addr":"경기도 동두천시 송내동 513-9번지 1층","indutype":"일반휴게음식 - 일반한식","category":"restaurant"}]},{"lat":"37.881549558","long":"127.05195276","imageIndex":4,"items":[{"name":"쇠목막국수","tel":"031-866-3646","addr":"경기도 동두천시 송내동 669-11번지","indutype":"일반휴게음식 - 일반한식","category":"restaurant"}]},{"lat":"37.882855573","long":"127.05276069","imageIndex":4,"items":[{"name":"순원이네옛날통닭","tel":"031-866-7710","addr":"경기도 동두천시 송내동 694-3번지 상가 1층 101호","indutype":"일반휴게음식 - 일반한식","category":"restaurant"}]},{"lat":"37.88288302","long":"127.0517604","imageIndex":4,"items":[{"name":"신당동즉석떡볶이무한리필","tel":"","addr":"경기도 동두천시 송내동 684-6번지 1층","indutype":"일반휴게음식 - 일반한식","category":"restaurant"}]},{"lat":"37.882612263","long":"127.05289693","imageIndex":4,"items":[{"name":"신참봉닭발","tel":"031-859-9985","addr":"경기도 동두천시 송내동 677번지 1층 2호","indutype":"일반휴게음식 - 일반한식","category":"restaurant"}]},{"lat":"37.882386767","long":"127.05351059","imageIndex":4,"items":[{"name":"아가페해물칼국수","tel":"031-857-6636","addr":"경기도 동두천시 송내동 675-2번지 1층","indutype":"일반휴게음식 - 일반한식","category":"restaurant"}]},{"lat":"37.881972195","long":"127.05383995","imageIndex":4,"items":[{"name":"아롱","tel":"031-865-8658","addr":"경기도 동두천시 송내동 673번지","indutype":"일반휴게음식 - 일반한식","category":"restaurant"}]},{"lat":"37.882216015","long":"127.05251018","imageIndex":4,"items":[{"name":"엄가","tel":"031-858-5202","addr":"경기도 동두천시 송내동 680-3번지","indutype":"일반휴게음식 - 일반한식","category":"restaurant"}]},{"lat":"37.882883422","long":"127.05078283","imageIndex":4,"items":[{"name":"에디스커틀렛","tel":"","addr":"경기도 동두천시 송내동 685번지 1층","indutype":"일반휴게음식 - 서양음식","category":"restaurant"}]},{"lat":"37.881522458","long":"127.05212324","imageIndex":4,"items":[{"name":"엘피까페(LPcafe)","tel":"","addr":"경기도 동두천시 송내동 669-12번지 1층","indutype":"일반휴게음식 - 서양음식","category":"restaurant"}]},{"lat":"37.882828176","long":"127.05362457","imageIndex":4,"items":[{"name":"오키족발","tel":"031-857-5881","addr":"경기도 동두천시 송내동 695-1번지 금빌딩 103호","indutype":"일반휴게음식 - 일반한식","category":"restaurant"}]},{"lat":"37.882215433","long":"127.05387422","imageIndex":4,"items":[{"name":"올렌스","tel":"031-865-6210","addr":"경기도 동두천시 송내동 695-4번지 송현빌딩 109호","indutype":"일반휴게음식 - 서양음식","category":"restaurant"},{"name":"이담골버섯생칼국수","tel":"031-857-1400","addr":"경기도 동두천시 송내동 695-4번지","indutype":"일반휴게음식 - 일반한식","category":"restaurant"}]},{"lat":"37.883829705","long":"127.05003321","imageIndex":4,"items":[{"name":"을지육개장","tel":"031-866-5648","addr":"경기도 동두천시 송내동 688번지","indutype":"일반휴게음식 - 일반한식","category":"restaurant"}]},{"lat":"37.882522877","long":"127.05120318","imageIndex":4,"items":[{"name":"이가만두전골","tel":"031-868-2468","addr":"경기도 동두천시 송내동 684-8번지","indutype":"일반휴게음식 - 일반한식","category":"restaurant"}]},{"lat":"37.884997891","long":"127.05707038","imageIndex":4,"items":[{"name":"장수곰탕","tel":"031-868-6998","addr":"경기도 동두천시 송내동 595번지 1층","indutype":"일반휴게음식 - 일반한식","category":"restaurant"},{"name":"최강해물칼국수","tel":"031-858-3431","addr":"경기도 동두천시 송내동 595번지 1층 B호","indutype":"일반휴게음식 - 일반한식","category":"restaurant"}]},{"lat":"37.881747539","long":"127.05248713","imageIndex":4,"items":[{"name":"정씨함박(동두천점)","tel":"031-861-0021","addr":"경기도 동두천시 송내동 679-2번지","indutype":"일반휴게음식 - 서양음식","category":"restaurant"}]},{"lat":"37.882495247","long":"127.05264677","imageIndex":4,"items":[{"name":"제이제이카페","tel":"","addr":"경기도 동두천시 송내동 680-5번지 1층","indutype":"일반휴게음식 - 서양음식","category":"restaurant"}]},{"lat":"37.883829559","long":"127.05039696","imageIndex":4,"items":[{"name":"주원흑염소탕","tel":"031-866-4950","addr":"경기도 동두천시 송내동 688-7번지","indutype":"일반휴게음식 - 일반한식","category":"restaurant"}]},{"lat":"37.878529274","long":"127.05687241","imageIndex":4,"items":[{"name":"진미복집","tel":"031-866-3203","addr":"경기도 동두천시 송내동 489-4번지","indutype":"일반휴게음식 - 일반한식","category":"restaurant"}]},{"lat":"37.882577021","long":"127.05098724","imageIndex":4,"items":[{"name":"카페일리터","tel":"031-858-6262","addr":"경기도 동두천시 송내동 684번지","indutype":"일반휴게음식 - 서양음식","category":"restaurant"}]},{"lat":"37.881881468","long":"127.05528349","imageIndex":4,"items":[{"name":"카페허니비 (Cafe Honey Bee)","tel":"031-866-8386","addr":"경기도 동두천시 송내동 708-6번지 1,2층","indutype":"일반휴게음식 - 서양음식","category":"restaurant"}]},{"lat":"37.887304691","long":"127.05617402","imageIndex":4,"items":[{"name":"코지코지","tel":"031-863-2800","addr":"경기도 동두천시 송내동 701-1번지 2동 2층","indutype":"일반휴게음식 - 서양음식","category":"restaurant"},{"name":"콜리봉봉","tel":"031-863-2800","addr":"경기도 동두천시 송내동 701-1번지 2동 2층","indutype":"일반휴게음식 - 서양음식","category":"restaurant"}]},{"lat":"37.886214597","long":"127.05609366","imageIndex":4,"items":[{"name":"토닥토닥","tel":"031-858-7329","addr":"경기도 동두천시 송내동 702-2번지","indutype":"일반휴게음식 - 서양음식","category":"restaurant"}]},{"lat":"37.881747318","long":"127.05301001","imageIndex":4,"items":[{"name":"프롬(FROM)","tel":"031-000-0000","addr":"경기도 동두천시 송내동 678-5번지","indutype":"일반휴게음식 - 서양음식","category":"restaurant"}]},{"lat":"37.88177399","long":"127.05383981","imageIndex":4,"items":[{"name":"하늘채","tel":"031-859-8239","addr":"경기도 동두천시 송내동 673-1번지 대흥프라자 101,108","indutype":"일반휴게음식 - 일반한식","category":"restaurant"}]},{"lat":"37.882937598","long":"127.05048732","imageIndex":4,"items":[{"name":"항아리짬뽕","tel":"031-867-4177","addr":"경기도 동두천시 송내동 668-7번지","indutype":"일반휴게음식 - 일반한식","category":"restaurant"}]}]