[{"lat":"37.462349564","long":"126.81298949","items":[{"name":"(주)금수레한정식","tel":"","addr":"경기도 부천시 옥길동 777-2번지 옥길중앙타워 201호","category":"일반휴게음식 - 일반한식"},{"name":"꼬모양품점 부천점","tel":"","addr":"경기도 부천시 옥길동 777-2번지 옥길중앙타워 1층 103호","category":"의류 - 아동의류"},{"name":"예담음악학원","tel":"031-404-6534","addr":"경기도 부천시 옥길동 777-2번지 6층 602호","category":"학원 - 예·체능계학원"},{"name":"용인대 NO.1 태권도","tel":"032-347-8787","addr":"경기도 부천시 옥길동 777-2번지 옥길중앙타워 6층 601호","category":"학원 - 예·체능계학원"},{"name":"차타타 레이싱 옥길점","tel":"032-343-5666","addr":"경기도 부천시 옥길동 777-2번지 중앙타워 6층 604호","category":"서적문구 - 완구점"},{"name":"토킹스타옥길영수보습학원","tel":"032-345-9405","addr":"경기도 부천시 옥길동 777-2번지 702,703호","category":"학원 - 보습학원"},{"name":"피트니스 온리 원 (Fitness only.1)","tel":"032-347-7787","addr":"경기도 부천시 옥길동 777-2번지 옥길중앙타워 802,803,804호","category":"레저업소 - 헬스클럽"}]},{"lat":"37.473594455","long":"126.8248537","items":[{"name":"(주)성구환경","tel":"02-2649-5814","addr":"경기도 부천시 옥길동 499-5번지","category":"기타 - 기계공구"},{"name":"주식회사 이엑스시","tel":"02-2649-5814","addr":"경기도 부천시 옥길동 499-5번지 2층","category":"전기제품 - 기타전기제품"}]},{"lat":"37.472820298","long":"126.82531903","items":[{"name":"(주)성림종합목재","tel":"02-2688-2949","addr":"경기도 부천시 옥길동 490-2번지","category":"건축자재 - 목재·석재·철물"},{"name":"옥련가든","tel":"02-2688-1789","addr":"경기도 부천시 옥길동 490-2번지","category":"일반휴게음식 - 일반한식"}]},{"lat":"37.462069729","long":"126.81266241","items":[{"name":"(주)조은시스템","tel":"032-341-3197","addr":"경기도 부천시 옥길동 777-4번지 지하1층","category":"자동차정비 유지 - 주차장"},{"name":"GS25옥길스타필드점","tel":"","addr":"경기도 부천시 옥길동 777-4번지 서영아너시티 117호","category":"유통업 영리 - 편 의 점"},{"name":"꼼꼼이 한자 교습소","tel":"","addr":"경기도 부천시 옥길동 777-4번지 서영아너시티 213호","category":"학원 - 보습학원"},{"name":"넘버원과일가게","tel":"","addr":"경기도 부천시 옥길동 777-4번지 1차 102호","category":"음료식품 - 농·축·수산품"},{"name":"늘봄네일","tel":"","addr":"경기도 부천시 옥길동 777-4번지 서영아너시티1차 1층 107-1호","category":"보건위생 - 피부미용실"},{"name":"달보다예쁜","tel":"","addr":"경기도 부천시 옥길동 777-4번지 서영아너시티 215호","category":"음료식품 - 기타음료식품"},{"name":"더좋은피부","tel":"","addr":"경기도 부천시 옥길동 777-4번지 서영아너시티 3층 307호","category":"보건위생 - 피부미용실"},{"name":"리안헤어 옥길아너시티점","tel":"032-347-1116","addr":"경기도 부천시 옥길동 777-4번지 서영아너시티 205호","category":"보건위생 - 미용원"},{"name":"미래이비인후과의원","tel":"032-345-6400","addr":"경기도 부천시 옥길동 777-4번지 1차 서영아너시티 206호","category":"의원 - 의원"},{"name":"벨라어학원","tel":"032-346-0085","addr":"경기도 부천시 옥길동 777-4번지 서영아너시티 304,305호","category":"학원 - 외국어학원"},{"name":"산들약국","tel":"032-341-2575","addr":"경기도 부천시 옥길동 777-4번지 서영아너시티 209호","category":"약국 - 약국"},{"name":"살롱트엠투엠(M2M)","tel":"032-348-4810","addr":"경기도 부천시 옥길동 777-4번지 서임아너시티 210호","category":"보건위생 - 미용원"},{"name":"삼성영어최강수학보습학원","tel":"","addr":"경기도 부천시 옥길동 777-4번지 서영아너시티 306호","category":"학원 - 보습학원"},{"name":"소울바디 필라테스 옥길점","tel":"","addr":"경기도 부천시 옥길동 777-4번지 서영아너시티1차 제308, 309호","category":"레저업소 - 헬스클럽"},{"name":"스피드메이트 스타필드시티 부천","tel":"032-351-9701","addr":"경기도 부천시 옥길동 777-4번지 B3층","category":"자동차정비 유지 - 자동차정비"},{"name":"아버커피 아너시티점","tel":"","addr":"경기도 부천시 옥길동 777-4번지 서영아너시티 1차 1층 113호","category":"일반휴게음식 - 서양음식"},{"name":"오마뎅 아너시티점","tel":"032-345-7003","addr":"경기도 부천시 옥길동 777-4번지 서영아너시티 1층 104호","category":"일반휴게음식 - 서양음식"},{"name":"옥길 탑 수학학원","tel":"032-347-0102","addr":"경기도 부천시 옥길동 777-4번지 서영아너시티1차 3층 302호","category":"학원 - 보습학원"},{"name":"옥길비상영어학원","tel":"032-322-0503","addr":"경기도 부천시 옥길동 777-4번지 서영아너시티 1동 3층 303호 비상잉글리시아이","category":"학원 - 보습학원"},{"name":"옥길산더미뼈해장국","tel":"02-111-1111","addr":"경기도 부천시 옥길동 777-4번지 서영아너시티 2층 211호","category":"일반휴게음식 - 일반한식"},{"name":"옥길해법수학보습학원","tel":"032-641-7337","addr":"경기도 부천시 옥길동 777-4번지 서영아너시티 311호","category":"학원 - 보습학원"},{"name":"틴트(TINT)","tel":"","addr":"경기도 부천시 옥길동 777-4번지 서영아너시티 3층 315호","category":"보건위생 - 피부미용실"}]},{"lat":"37.469289609","long":"126.8202066","items":[{"name":"24시전주명가콩나물국밥오길점","tel":"032-341-3888","addr":"경기도 부천시 옥길동 713-9번지","category":"일반휴게음식 - 일반한식"}]},{"lat":"37.462929396","long":"126.82074202","items":[{"name":"24아워즈 부천옥길점","tel":"","addr":"경기도 부천시 옥길동 751-1번지 엘에이치옥길브리즈힐 605동 1102호","category":"신변잡화 - 신발"},{"name":"6단지 명품수선","tel":"02-1111-1111","addr":"경기도 부천시 옥길동 751-1번지 엘에이치옥길브리즈힐 605동 1202호","category":"수리서비스 - 세탁소"},{"name":"금산인삼","tel":"","addr":"경기도 부천시 옥길동 751-1번지 엘에이치옥길브리즈힐 613동 1002호","category":"건강식품 - 인삼제품"},{"name":"덴스토리자매공부방","tel":"","addr":"경기도 부천시 옥길동 751-1번지 엘에이치옥길브리즈힐 605동 505호","category":"학원 - 기타 교육기관"},{"name":"라온공부방","tel":"032-343-6489","addr":"경기도 부천시 옥길동 751-1번지 엘에이치옥길브리즈힐 610동 105호","category":"학원 - 기타 교육기관"},{"name":"베스트수학","tel":"032-661-1332","addr":"경기도 부천시 옥길동 751-1번지 엘에이치옥길브리즈힐 608동 1802호","category":"학원 - 기타 교육기관"},{"name":"브리즈힐영어교실","tel":"070-7358-0904","addr":"경기도 부천시 옥길동 751-1번지 엘에이치옥길브리즈힐 610동 601호","category":"학원 - 기타 교육기관"},{"name":"얌얌식빵 옥길점","tel":"032-345-0184","addr":"경기도 부천시 옥길동 751-1번지 엘에이치옥길브리즈힐 상가동 지하1층 111호","category":"음료식품 - 제과점"},{"name":"옥길 이스턴 영어","tel":"032-323-1605","addr":"경기도 부천시 옥길동 751-1번지 엘에이치옥길브리즈힐 601동 401호","category":"학원 - 기타 교육기관"},{"name":"옥길에이플러스","tel":"032-529-2460","addr":"경기도 부천시 옥길동 751-1번지 엘에이치옥길브리즈힐 603동 302호","category":"학원 - 기타 교육기관"},{"name":"유니스공부방","tel":"032-341-9377","addr":"경기도 부천시 옥길동 751-1번지 엘에이치옥길브리즈힐 611동 103호","category":"학원 - 보습학원"},{"name":"음악상자","tel":"031-000-0000","addr":"경기도 부천시 옥길동 751-1번지 엘에이치옥길브리즈힐 602동 102호","category":"학원 - 기타 교육기관"},{"name":"이노코리아","tel":"","addr":"경기도 부천시 옥길동 751-1번지 엘에이치옥길브리즈힐 610동 1403호","category":"서적문구 - 과학기자재"},{"name":"이마트24 옥길브리즈힐점","tel":"","addr":"경기도 부천시 옥길동 751-1번지 엘에이치옥길브리즈힐 상가동 105,106호","category":"유통업 영리 - 편 의 점"},{"name":"참맛치킨꿀맛닭강정","tel":"","addr":"경기도 부천시 옥길동 751-1번지 엘에이치옥길브리즈힐 G동 1층 103호","category":"일반휴게음식 - 스넥"},{"name":"통큰축산","tel":"032-347-9800","addr":"경기도 부천시 옥길동 751-1번지 엘에이치옥길브리즈힐 108호","category":"음료식품 - 정육점"}]},{"lat":"37.467878678","long":"126.82257256","items":[{"name":"3팝브레인피씨","tel":"070-5020-5323","addr":"경기도 부천시 옥길동 726-1번지 센타프라자 701,702호","category":"레저업소 - 기타레져업소"},{"name":"뉴페이스안경원","tel":"032-342-8597","addr":"경기도 부천시 옥길동 726-1번지 101,102호","category":"보건위생 - 안경"},{"name":"로또모바일","tel":"031-111-1111","addr":"경기도 부천시 옥길동 726-1번지 센타프라자 1동 1층 107호","category":"사무통신 - 통신기기"},{"name":"머리꾼헤어","tel":"032-347-4450","addr":"경기도 부천시 옥길동 726-1번지 센타프라자 2층","category":"보건위생 - 미용원"},{"name":"머슬앤발란스","tel":"032-344-2798","addr":"경기도 부천시 옥길동 726-1번지 센타프라자 4층 401호","category":"보건위생 - 기타대인서비스"},{"name":"베스킨라빈스부천옥길점","tel":"032-347-5231","addr":"경기도 부천시 옥길동 726-1번지 센타프라자 105호","category":"음료식품 - 제과점"},{"name":"부천옥길소마보습학원","tel":"070-7730-7558","addr":"경기도 부천시 옥길동 726-1번지 센타프라자 5층 501호","category":"학원 - 보습학원"},{"name":"서울소담치과","tel":"032-245-2875","addr":"경기도 부천시 옥길동 726-1번지 센타프라자 302호","category":"의원 - 치과의원"},{"name":"센타약국","tel":"032-342-1116","addr":"경기도 부천시 옥길동 726-1번지 센타프라자 104호","category":"약국 - 약국"},{"name":"스시노백쉐프부천옥길점","tel":"032-345-5802","addr":"경기도 부천시 옥길동 726-1번지 센타프라자 2층 202호","category":"일반휴게음식 - 일식·회집"},{"name":"신전떡볶이(옥길점)","tel":"032-341-1172","addr":"경기도 부천시 옥길동 726-1번지 센타프라자 106호","category":"일반휴게음식 - 스넥"},{"name":"아이사랑소아청소년과의원","tel":"032-343-8555","addr":"경기도 부천시 옥길동 726-1번지 센타프라자 5층 502호","category":"의원 - 의원"},{"name":"옥길동갈매기","tel":"032-344-2275","addr":"경기도 부천시 옥길동 726-1번지 센타프라자 106호","category":"일반휴게음식 - 일반한식"},{"name":"옥길클라라음악학원","tel":"02-349-6669","addr":"경기도 부천시 옥길동 726-1번지 센타프라자 4층 403호","category":"학원 - 예·체능계학원"},{"name":"제오헤어 부천옥길점","tel":"032-345-1220","addr":"경기도 부천시 옥길동 726-1번지 센타프라자 3층 301호","category":"보건위생 - 미용원"},{"name":"캡틴코리아 태권도(옥길점)","tel":"032-345-1682","addr":"경기도 부천시 옥길동 726-1번지 센타프라자 6층 601,602호,603호","category":"학원 - 예·체능계학원"},{"name":"키즈블럭","tel":"032-345-6777","addr":"경기도 부천시 옥길동 726-1번지 센타프라자 503호","category":"학원 - 기타 교육기관"},{"name":"킹노래연습장","tel":"032-000-0000","addr":"경기도 부천시 옥길동 726-1번지 센타프라자 201호","category":"레저업소 - 노 래 방"}]},{"lat":"37.466483703","long":"126.82360455","items":[{"name":"59쌀피자 옥길지구점","tel":"032-345-5938","addr":"경기도 부천시 옥길동 744-2번지 이에스타워 102호","category":"일반휴게음식 - 서양음식"},{"name":"GS25옥길드림점","tel":"","addr":"경기도 부천시 옥길동 744-2번지 이에스타워 105호","category":"유통업 영리 - 편 의 점"},{"name":"그랜드음악학원","tel":"032-344-4333","addr":"경기도 부천시 옥길동 744-2번지 이에스타워 602호","category":"학원 - 예·체능계학원"},{"name":"깜꼬치킨(옥길점)","tel":"032-345-5992","addr":"경기도 부천시 옥길동 744-2번지 이에스타워 1층 104호","category":"일반휴게음식 - 스넥"},{"name":"래드짐","tel":"032-349-8296","addr":"경기도 부천시 옥길동 744-2번지 은일ES-TOWER 501~505호","category":"레저업소 - 헬스클럽"},{"name":"로뎀헤어","tel":"032-341-5205","addr":"경기도 부천시 옥길동 744-2번지 이에스타워 103호","category":"보건위생 - 미용원"},{"name":"리본스킨앤바디","tel":"032-666-7106","addr":"경기도 부천시 옥길동 744-2번지 이에스타워 2층 205호","category":"보건위생 - 피부미용실"},{"name":"리브로아르츠미술학원","tel":"031-0000-0000","addr":"경기도 부천시 옥길동 744-2번지 이에스타워 3층 303호","category":"학원 - 예·체능계학원"},{"name":"마켓찬방","tel":"02-6954-7759","addr":"경기도 부천시 옥길동 744-2번지 이에스타워 106호","category":"음료식품 - 기타음료식품"},{"name":"명품수학교습소","tel":"032-341-0331","addr":"경기도 부천시 옥길동 744-2번지 이에스타워 405호","category":"학원 - 보습학원"},{"name":"명품영어교습소","tel":"032-000-0000","addr":"경기도 부천시 옥길동 744-2번지 이에스타워 405호","category":"학원 - 외국어학원"},{"name":"샘미술교습소","tel":"032-342-2250","addr":"경기도 부천시 옥길동 744-2번지 이에스타워 7층 704호","category":"학원 - 예·체능계학원"},{"name":"스터디모드보습학원","tel":"032-343-9876","addr":"경기도 부천시 옥길동 744-2번지 이에스타워 702호","category":"학원 - 보습학원"},{"name":"아이누리 아동발달센터 부천옥길점","tel":"032-347-7369","addr":"경기도 부천시 옥길동 744-2번지 이에스타워 4층 401호","category":"보건위생 - 기타대인서비스"},{"name":"연세포디움보습학원","tel":"","addr":"경기도 부천시 옥길동 744-2번지 이에스타워 301,304호","category":"학원 - 보습학원"},{"name":"옥길심축산","tel":"032-347-0110","addr":"경기도 부천시 옥길동 744-2번지 이에스타워 101호","category":"음료식품 - 정육점"},{"name":"옥길한식뷔페","tel":"070-7614-3579","addr":"경기도 부천시 옥길동 744-2번지 202호,203호","category":"일반휴게음식 - 일반한식"},{"name":"용인대인성태권도","tel":"031-111-1111","addr":"경기도 부천시 옥길동 744-2번지 ES타워 6층 601,604호","category":"학원 - 예·체능계학원"},{"name":"이투스(ETOOS)수학보습학원","tel":"032-341-2033","addr":"경기도 부천시 옥길동 744-2번지 이에스타워 7층 703호","category":"학원 - 보습학원"},{"name":"정독서논술보습학원","tel":"032-348-8958","addr":"경기도 부천시 옥길동 744-2번지 이에스타워 701호","category":"학원 - 보습학원"},{"name":"제이비 잉글리쉬 보습학원","tel":"032-345-0579","addr":"경기도 부천시 옥길동 744-2번지 이에스타워 201호","category":"학원 - 보습학원"},{"name":"조선생에듀보습학원","tel":"032-346-5002","addr":"경기도 부천시 옥길동 744-2번지","category":"학원 - 보습학원"},{"name":"퍼펙트리딩영어교습소","tel":"031-000-0000","addr":"경기도 부천시 옥길동 744-2번지 이에스타워 4층 404호","category":"학원 - 외국어학원"},{"name":"프라임영수보습학원","tel":"032-348-0108","addr":"경기도 부천시 옥길동 744-2번지 이에스타워 603호","category":"학원 - 보습학원"},{"name":"해법수학교실수학교습소","tel":"032-343-0689","addr":"경기도 부천시 옥길동 744-2번지 이에스타워 605호","category":"학원 - 보습학원"}]},{"lat":"37.468183268","long":"126.82143012","items":[{"name":"ACT엔지니어링","tel":"","addr":"경기도 부천시 옥길동 721-5번지 101호","category":"용역 서비스 - 기타용역서비스"}]},{"lat":"37.471069351","long":"126.81748921","items":[{"name":"GS25옥길1단지점","tel":"","addr":"경기도 부천시 옥길동 701-1번지 부천옥길엘에이치1단지 상가","category":"유통업 영리 - 편 의 점"},{"name":"뜯고씹구옥길점","tel":"","addr":"경기도 부천시 옥길동 701-1번지 부천옥길엘에이치1단지 105동 6층 06호","category":"음료식품 - 기타음료식품"},{"name":"머그마","tel":"070-7503-0041","addr":"경기도 부천시 옥길동 701-1번지 부천옥길엘에이치1단지 102동 609호","category":"문화.취미 - 애완동물"},{"name":"보금자리","tel":"032-345-3345","addr":"경기도 부천시 옥길동 701-1번지 부천옥길엘에이치1단지 상가동 1층 104-1호","category":"직물 - 침구·수예점"},{"name":"옥길세탁소","tel":"032-434-1638","addr":"경기도 부천시 옥길동 701-1번지 부천옥길엘에이치1단지 상가동 1층 103호","category":"수리서비스 - 세탁소"},{"name":"인더짐 키즈포츠","tel":"","addr":"경기도 부천시 옥길동 701-1번지 부천옥길엘에이치1단지 101동 608호","category":"학원 - 기타 교육기관"}]},{"lat":"37.462215159","long":"126.82505023","items":[{"name":"GS25옥길센트럴점","tel":"","addr":"경기도 부천시 옥길동 748-1번지 엘에이치옥길센트럴힐 상가동 104호","category":"유통업 영리 - 편 의 점"},{"name":"디엠씨(DMC)","tel":"031-1111-1111","addr":"경기도 부천시 옥길동 748-1번지 엘에이치옥길센트럴힐 512동 302호","category":"신변잡화 - 기타잡화"},{"name":"라쌤English","tel":"","addr":"경기도 부천시 옥길동 748-1번지 엘에이치옥길센트럴힐 506동 1202호","category":"학원 - 기타 교육기관"},{"name":"신참떡볶이 부천옥길점","tel":"032-341-7778","addr":"경기도 부천시 옥길동 748-1번지 엘에이치옥길센트럴힐 상가동 1층 102호","category":"일반휴게음식 - 스넥"},{"name":"오늘도,봄","tel":"031-000-0000","addr":"경기도 부천시 옥길동 748-1번지 엘에이치옥길센트럴힐 512동 301호","category":"문화.취미 - 화원"},{"name":"천사피아노교습소","tel":"032-111-1111","addr":"경기도 부천시 옥길동 748-1번지 엘에이치옥길센트럴힐 상가동 204호","category":"학원 - 예·체능계학원"}]},{"lat":"37.466017355","long":"126.82504123","items":[{"name":"GS25옥길카운티점","tel":"","addr":"경기도 부천시 옥길동 742-1번지 제이드카운티1단지 1층 101~102호","category":"유통업 영리 - 편 의 점"},{"name":"더나인뷰티","tel":"070-4922-1261","addr":"경기도 부천시 옥길동 742-1번지 제이드카운티1단지 상가동 2층 203호","category":"보건위생 - 피부미용실"},{"name":"엠씨글라스텍","tel":"070-2436-2982","addr":"경기도 부천시 옥길동 742-1번지 제이드카운티1단지 102동 1603호","category":"가구 - 기타가구"},{"name":"제나테라피","tel":"","addr":"경기도 부천시 옥길동 742-1번지 제이드카운티1단지 2층 202호","category":"보건위생 - 피부미용실"},{"name":"한국파워점핑","tel":"","addr":"경기도 부천시 옥길동 742-1번지 제이드카운티1단지 2층 204-207호","category":"학원 - 예·체능계학원"}]},{"lat":"37.461904221","long":"126.81060568","items":[{"name":"GS25옥길호반점","tel":"","addr":"경기도 부천시 옥길동 780-1번지 옥길호반베르디움 상가동 109호","category":"유통업 영리 - 편 의 점"},{"name":"그녀의커피 카페드엘르(Cafe d elle)","tel":"032-345-7700","addr":"경기도 부천시 옥길동 780-1번지 옥길호반베르디움 1층 107호","category":"일반휴게음식 - 서양음식"},{"name":"라플로르","tel":"","addr":"경기도 부천시 옥길동 780-1번지 옥길호반베르디움 105동 2003호","category":"문화.취미 - 화원"},{"name":"레드하우스","tel":"032-344-9285","addr":"경기도 부천시 옥길동 780-1번지 옥길호반베르디움 104호","category":"음료식품 - 정육점"},{"name":"마이옛날통닭(호반홈마트내)","tel":"032-342-2019","addr":"경기도 부천시 옥길동 780-1번지 옥길호반베르디움 102호,103호","category":"유통업 영리 - 슈퍼마켓"},{"name":"뷰티호텔260","tel":"02-123-1234","addr":"경기도 부천시 옥길동 780-1번지 옥길호반베르디움 제근린생활시설2동 제1층 110호","category":"보건위생 - 화장품"},{"name":"산들 공부방","tel":"070-7761-2944","addr":"경기도 부천시 옥길동 780-1번지 옥길호반베르디움 108동 102호","category":"학원 - 기타 교육기관"},{"name":"숲플라워","tel":"","addr":"경기도 부천시 옥길동 780-1번지 옥길호반베르디움 2동 1층 109호 근린생활시설","category":"문화.취미 - 화원"},{"name":"씨유옥길베르디움점","tel":"080-080-3663","addr":"경기도 부천시 옥길동 780-1번지 옥길호반베르디움 118동 1층 105호","category":"유통업 영리 - 편 의 점"},{"name":"아이스크림 할인점","tel":"070-997-9970","addr":"경기도 부천시 옥길동 780-1번지 옥길호반베르디움 101호","category":"음료식품 - 기타음료식품"},{"name":"에이원설계","tel":"032-525-9332","addr":"경기도 부천시 옥길동 780-1번지 옥길호반베르디움 106동 2602호","category":"용역 서비스 - 사무서비스"},{"name":"윤정원수학","tel":"","addr":"경기도 부천시 옥길동 780-1번지 옥길호반베르디움 103동 503호","category":"학원 - 기타 교육기관"},{"name":"컵끼리 (CUPKIRI)","tel":"070-0000-0000","addr":"경기도 부천시 옥길동 780-1번지 옥길호반베르디움 118동 104호","category":"일반휴게음식 - 서양음식"},{"name":"크린에이드 호반자이점","tel":"032-343-1248","addr":"경기도 부천시 옥길동 780-1번지 옥길호반베르디움 2동 1층 101호","category":"수리서비스 - 세탁소"},{"name":"헤어데몽","tel":"032-343-7778","addr":"경기도 부천시 옥길동 780-1번지 근린상가 2동 1층 106호","category":"보건위생 - 미용원"}]},{"lat":"37.468956713","long":"126.82051262","items":[{"name":"JOES hair","tel":"070-7353-7057","addr":"경기도 부천시 옥길동 714-2번지","category":"보건위생 - 미용재료"},{"name":"Joe's 헤어","tel":"070-7353-7057","addr":"경기도 부천시 옥길동 714-2번지 1층","category":"보건위생 - 미용원"},{"name":"본가곱창","tel":"02-1577-0000","addr":"경기도 부천시 옥길동 714-2번지","category":"일반휴게음식 - 일반한식"}]},{"lat":"37.471677612","long":"126.82637306","items":[{"name":"Team.D SR모터스","tel":"032-683-8272","addr":"경기도 부천시 옥길동 480-6번지","category":"자동차정비 유지 - 자동차정비"}]},{"lat":"37.46370941","long":"126.81257914","items":[{"name":"e해법수학 부천옥길자이점","tel":"","addr":"경기도 부천시 옥길동 776-1번지 부천옥길자이 101동 1603호","category":"학원 - 기타 교육기관"},{"name":"감동치킨","tel":"02-1234-1234","addr":"경기도 부천시 옥길동 776-1번지 부천옥길자이 지하2층 비209호","category":"일반휴게음식 - 주점"},{"name":"개인과외","tel":"","addr":"경기도 부천시 옥길동 776-1번지 부천옥길자이 102동 304호","category":"학원 - 기타 교육기관"},{"name":"굽네치킨 옥길점","tel":"032-343-9294","addr":"경기도 부천시 옥길동 776-1번지 부천옥길자이 지하2층 비207호","category":"일반휴게음식 - 스넥"},{"name":"그린세탁소","tel":"032-341-7018","addr":"경기도 부천시 옥길동 776-1번지 부천옥길자이 상가동 1층 110호","category":"수리서비스 - 세탁소"},{"name":"네일클로버","tel":"031-343-7333","addr":"경기도 부천시 옥길동 776-1번지 부천옥길자이 근린상가동 1층 105호","category":"보건위생 - 피부미용실"},{"name":"더뉴헤어(The New Hair)","tel":"031-347-3470","addr":"경기도 부천시 옥길동 776-1번지 부천옥길자이 G동 2층 213호","category":"보건위생 - 미용원"},{"name":"레아네일","tel":"032-344-6665","addr":"경기도 부천시 옥길동 776-1번지 부천옥길자이 상가 108호","category":"보건위생 - 피부미용실"},{"name":"맘스터치","tel":"031-344-6257","addr":"경기도 부천시 옥길동 776-1번지 부천옥길자이 112호","category":"일반휴게음식 - 서양음식"},{"name":"메가엠지씨커피 부천옥길중앙점","tel":"070-1111-1111","addr":"경기도 부천시 옥길동 776-1번지 부천옥길자이 지하2층 215호","category":"일반휴게음식 - 서양음식"},{"name":"뮤엠영어옥길자이 영어교습소","tel":"02-6403-1555","addr":"경기도 부천시 옥길동 776-1번지 자이상가 1층 102호","category":"학원 - 외국어학원"},{"name":"바르다김선생 (옥길점)","tel":"032-345-4009","addr":"경기도 부천시 옥길동 776-1번지 부천옥길자이 지하2층 218호","category":"일반휴게음식 - 스넥"},{"name":"부천옥길자이상가오피스텔","tel":"032-349-9650","addr":"경기도 부천시 옥길동 776-1번지 부천옥길자이 106동","category":"자동차정비 유지 - 주차장"},{"name":"선테크","tel":"070-8628-2214","addr":"경기도 부천시 옥길동 776-1번지 부천옥길자이 106동 805호","category":"용역 서비스 - 기타용역서비스"},{"name":"세븐일레븐옥길자이점","tel":"031-1577-0711","addr":"경기도 부천시 옥길동 776-1번지 부천옥길자이 G동 2층 104호","category":"유통업 영리 - 편 의 점"},{"name":"신라바스","tel":"","addr":"경기도 부천시 옥길동 776-1번지 부천옥길자이 105동 2504호","category":"건축자재 - 인테리어전문"},{"name":"아기숟가락 옥길점","tel":"032-342-2610","addr":"경기도 부천시 옥길동 776-1번지 부천옥길자이 상가동 1층 109호","category":"일반휴게음식 - 스넥"},{"name":"여리시루","tel":"031-347-0321","addr":"경기도 부천시 옥길동 776-1번지 부천옥길자이 B2층 17-2호","category":"음료식품 - 기타음료식품"},{"name":"옹기꽃게장","tel":"032-343-6023","addr":"경기도 부천시 옥길동 776-1번지 부천옥길자이 지하2층 B219호","category":"일반휴게음식 - 일반한식"},{"name":"카페28","tel":"032-342-2028","addr":"경기도 부천시 옥길동 776-1번지 부천옥길자이 지하2층 216호","category":"일반휴게음식 - 서양음식"},{"name":"헤어슈슈","tel":"031-344-2177","addr":"경기도 부천시 옥길동 776-1번지 부천옥길자이 근린시설생활시설동 107호","category":"보건위생 - 미용원"}]},{"lat":"37.467436673","long":"126.8222345","items":[{"name":"가발프랜즈","tel":"032-347-7942","addr":"경기도 부천시 옥길동 726-3번지 제일프라자 3층 302호","category":"보건위생 - 미용재료"},{"name":"감탄떡볶이부천옥길점","tel":"032-346-0834","addr":"경기도 부천시 옥길동 726-3번지 제일프라자 1층","category":"일반휴게음식 - 일반한식"},{"name":"고봉민김밥인부천옥길점","tel":"032-342-4755","addr":"경기도 부천시 옥길동 726-3번지 제일프라자 103호","category":"일반휴게음식 - 스넥"},{"name":"꼼지락","tel":"032-346-4656","addr":"경기도 부천시 옥길동 726-3번지 제일프라자 1층 102호","category":"일반휴게음식 - 스넥"},{"name":"노마드영재보습학원","tel":"032-346-0507","addr":"경기도 부천시 옥길동 726-3번지 제일프라자 601호","category":"학원 - 보습학원"},{"name":"디아르떼보스헤어 옥길점","tel":"032-347-5060","addr":"경기도 부천시 옥길동 726-3번지 제일프라자 203호","category":"보건위생 - 미용원"},{"name":"루나무용학원","tel":"032-346-8999","addr":"경기도 부천시 옥길동 726-3번지 제일프라자 502호","category":"학원 - 예·체능계학원"},{"name":"뮤엠옥길캠퍼스영어보습학원","tel":"032-344-2767","addr":"경기도 부천시 옥길동 726-3번지 제일프라자 602호","category":"학원 - 보습학원"},{"name":"버블스토리 (부천옥길점)","tel":"032-342-1300","addr":"경기도 부천시 옥길동 726-3번지 제일프라자 3층 302호","category":"보건위생 - 미용원"},{"name":"비비큐 올리브치킨 부천옥길점","tel":"032-349-9282","addr":"경기도 부천시 옥길동 726-3번지 제일프라자 1층 107호","category":"일반휴게음식 - 스넥"},{"name":"살롱드윤스","tel":"032-347-3060","addr":"경기도 부천시 옥길동 726-3번지 제일프라자 1층 106호","category":"보건위생 - 미용원"},{"name":"스시웨이 옥길점","tel":"032-322-3774","addr":"경기도 부천시 옥길동 726-3번지 제일프라자 201호","category":"일반휴게음식 - 일식·회집"},{"name":"연세양치과의원","tel":"032-351-7528","addr":"경기도 부천시 옥길동 726-3번지 제일프라자 4층 401호","category":"의원 - 치과의원"},{"name":"오마뎅부천옥길점","tel":"032-345-5786","addr":"경기도 부천시 옥길동 726-3번지 제일프라자 1층 104호","category":"일반휴게음식 - 일반한식"},{"name":"이니스프리 부천옥길점","tel":"070-4649-1101","addr":"경기도 부천시 옥길동 726-3번지 제일프라자 105호","category":"보건위생 - 화장품"},{"name":"킹콩부대찌개 옥길점","tel":"032-342-3999","addr":"경기도 부천시 옥길동 726-3번지 제일프라자 202호","category":"일반휴게음식 - 일반한식"},{"name":"프레리키즈카페 옥길점","tel":"032-341-6489","addr":"경기도 부천시 옥길동 726-3번지 제일프라자 701호 ,702,703호","category":"레저업소 - 기타레져업소"}]},{"lat":"37.468931579","long":"126.82174483","items":[{"name":"가장맛있는족발범박점","tel":"032-349-5849","addr":"경기도 부천시 옥길동 729-2번지 1층 일부","category":"일반휴게음식 - 일반한식"}]},{"lat":"37.469237188","long":"126.82126932","items":[{"name":"갈막듀록","tel":"032-351-9277","addr":"경기도 부천시 옥길동 730-2번지 1층","category":"일반휴게음식 - 일반한식"}]},{"lat":"37.466934114","long":"126.82354695","items":[{"name":"감성엔펍","tel":"","addr":"경기도 부천시 옥길동 744-1번지 부천옥길대우센트럴프라자 2층 204호","category":"일반휴게음식 - 주점"},{"name":"대박식당","tel":"032-349-2907","addr":"경기도 부천시 옥길동 744-1번지 대우센트럴프라자 207호","category":"일반휴게음식 - 일반한식"},{"name":"롤김밥","tel":"032-343-5359","addr":"경기도 부천시 옥길동 744-1번지 부천옥길대우센트럴프라자 1층 105호","category":"일반휴게음식 - 일반한식"},{"name":"마산아구찜","tel":"02-6104-4018","addr":"경기도 부천시 옥길동 744-1번지 부천옥길센트럴프라자 205호","category":"일반휴게음식 - 일반한식"},{"name":"맛닭꼬 옥길점","tel":"032-364-0092","addr":"경기도 부천시 옥길동 744-1번지 114,115호","category":"일반휴게음식 - 스넥"},{"name":"블루클럽","tel":"032-347-9553","addr":"경기도 부천시 옥길동 744-1번지 부천옥길대우센트럴프라자 1층 110호","category":"보건위생 - 미용원"},{"name":"비전SG스크린골프","tel":"032-345-1279","addr":"경기도 부천시 옥길동 744-1번지 402,403,404호","category":"레저업소 - 스크린골프"},{"name":"샌드위치가맛있는옥길동커피","tel":"032-344-5326","addr":"경기도 부천시 옥길동 744-1번지 부천옥길대우센트럴프라자 1층 104호","category":"일반휴게음식 - 서양음식"},{"name":"소브로(소Bro)","tel":"032-349-4556","addr":"경기도 부천시 옥길동 744-1번지 부천옥길대우센트럴프라자 2층 201호","category":"일반휴게음식 - 일반한식"},{"name":"슈슈앤크라 부천옥길점","tel":"032-347-0907","addr":"경기도 부천시 옥길동 744-1번지 부천옥길대우센트럴프라자 1층 103호","category":"의류 - 아동의류"},{"name":"신의주찹쌀순대","tel":"032-343-3538","addr":"경기도 부천시 옥길동 744-1번지 부천옥길대우센트럴프라자 1층 116호","category":"일반휴게음식 - 일반한식"},{"name":"오케이모바일","tel":"02-6439-5656","addr":"경기도 부천시 옥길동 744-1번지 대우센트럴프라자 101호","category":"사무통신 - 통신기기"},{"name":"옥길당구클럽","tel":"02-6015-3939","addr":"경기도 부천시 옥길동 744-1번지 3층 303,304,305호","category":"레저업소 - 당 구 장"},{"name":"옥길명태","tel":"032-342-5525","addr":"경기도 부천시 옥길동 744-1번지 부천옥길대우센트럴프라자 1층 112호","category":"일반휴게음식 - 일반한식"},{"name":"올리앤부천옥길점","tel":"032-345-4742","addr":"경기도 부천시 옥길동 744-1번지 부천옥길대우센트럴프라자 2층 202호","category":"일반휴게음식 - 일반한식"},{"name":"유가네닭갈비옥길점","tel":"032-343-8788","addr":"경기도 부천시 옥길동 744-1번지 부천옥길대우센트럴프라자 206호","category":"일반휴게음식 - 일반한식"},{"name":"육감만족 옥길점","tel":"032-345-9212","addr":"경기도 부천시 옥길동 744-1번지 부천옥길대우센트럴프라자 106,107호","category":"일반휴게음식 - 일반한식"},{"name":"큰손할매순대국","tel":"032-342-0703","addr":"경기도 부천시 옥길동 744-1번지 부천옥길대우센트럴프라자 1층 108호","category":"일반휴게음식 - 일반한식"}]},{"lat":"37.468820376","long":"126.81974428","items":[{"name":"강가네남원추어탕","tel":"032-343-6918","addr":"경기도 부천시 옥길동 713-4번지","category":"일반휴게음식 - 일반한식"}]},{"lat":"37.473208099","long":"126.82556682","items":[{"name":"강산푸드","tel":"02-3666-6999","addr":"경기도 부천시 옥길동 490-1번지","category":"음료식품 - 기타음료식품"}]},{"lat":"37.464350686","long":"126.82515821","items":[{"name":"개인과외","tel":"","addr":"경기도 부천시 옥길동 747-1번지 엘에이치옥길헤일라움 405동 502호","category":"학원 - 기타 교육기관"},{"name":"경인식기세척기","tel":"070-7383-7940","addr":"경기도 부천시 옥길동 747-1번지 엘에이치옥길헤일라움","category":"수리서비스 - 가정용품수리"},{"name":"라라음악교습소","tel":"","addr":"경기도 부천시 옥길동 747-1번지 엘에이치옥길헤일라움 상가동 102호","category":"학원 - 예·체능계학원"},{"name":"미니스톱 옥길시티점","tel":"031-1577-9621","addr":"경기도 부천시 옥길동 747-1번지 LH옥길헤일리움 상가동 104호, 105호","category":"유통업 영리 - 편 의 점"},{"name":"소백축산","tel":"032-342-5544","addr":"경기도 부천시 옥길동 747-1번지 엘에이치옥길헤일라움 103호","category":"음료식품 - 정육점"},{"name":"우림 아이티","tel":"031-1111-1111","addr":"경기도 부천시 옥길동 747-1번지 엘에이치옥길헤일라움 403동 1201호","category":"수리서비스 - 사무·통신기기수리"},{"name":"우쭈쭈맘","tel":"032-1111-1111","addr":"경기도 부천시 옥길동 747-1번지 엘에이치옥길헤일라움 403동 303호","category":"의류 - 정장"},{"name":"크리아트","tel":"031-000-0000","addr":"경기도 부천시 옥길동 747-1번지 엘에이치옥길헤일라움 407동 2003호","category":"학원 - 예·체능계학원"},{"name":"홍익건업","tel":"","addr":"경기도 부천시 옥길동 747-1번지 엘에이치옥길헤일라움 408동 1201호","category":"건축자재 - 인테리어전문"}]},{"lat":"37.467958748","long":"126.82190543","items":[{"name":"걸작떡볶이부천옥길점","tel":"032-345-2821","addr":"경기도 부천시 옥길동 724-1번지 1층","category":"일반휴게음식 - 일반한식"},{"name":"돼지공방","tel":"031-343-0123","addr":"경기도 부천시 옥길동 724-1번지 1층","category":"일반휴게음식 - 일반한식"},{"name":"오르프 칸타","tel":"02-2604-8176","addr":"경기도 부천시 옥길동 724-1번지 201호","category":"학원 - 예·체능계학원"}]},{"lat":"37.467957812","long":"126.82129502","items":[{"name":"경원","tel":"031-342-3480","addr":"경기도 부천시 옥길동 721-8번지","category":"신변잡화 - 액세서리"}]},{"lat":"37.468990917","long":"126.83131927","items":[{"name":"경원창호","tel":"02-2060-5123","addr":"경기도 부천시 옥길동 201-6번지 다동","category":"건축자재 - 기타건축자재"}]},{"lat":"37.464957462","long":"126.82723662","items":[{"name":"경희대석사 슈퍼키즈 태권도장","tel":"032-345-0079","addr":"경기도 부천시 옥길동 739-1번지 2단지 207~209호 제이드카운티","category":"학원 - 예·체능계학원"},{"name":"색연필 (옥길점)","tel":"02-6014-9722","addr":"경기도 부천시 옥길동 739-1번지 제이드카운티2단지 1층 107호","category":"서적문구 - 문구용품"},{"name":"아이스크림 할인점","tel":"031-742-9465","addr":"경기도 부천시 옥길동 739-1번지 제이드카운티2단지 상가동 104호","category":"음료식품 - 기타음료식품"},{"name":"어썸헤어","tel":"032-344-5401","addr":"경기도 부천시 옥길동 739-1번지 제이드카운티2단지 106호","category":"보건위생 - 미용원"},{"name":"예솔음악학원","tel":"032-345-3375","addr":"경기도 부천시 옥길동 739-1번지 제이드카운티2단지 2층 204,205,206호","category":"학원 - 예·체능계학원"},{"name":"크린위드","tel":"032-345-7753","addr":"경기도 부천시 옥길동 739-1번지 제이드카운티2단지 203호","category":"수리서비스 - 세탁소"},{"name":"풍경정육점","tel":"032-349-4945","addr":"경기도 부천시 옥길동 739-1번지 제이드카운티2단지 109호","category":"음료식품 - 정육점"},{"name":"플레이에듀","tel":"02-851-5025","addr":"경기도 부천시 옥길동 739-1번지 제이드카운티2단지 205동 201호","category":"학원 - 기타 교육기관"},{"name":"홍루이젠","tel":"","addr":"경기도 부천시 옥길동 739-1번지 제이드카운티2단지 1층 108호","category":"일반휴게음식 - 스넥"}]},{"lat":"37.468902828","long":"126.82062579","items":[{"name":"계림원(옥길하스모나점)","tel":"032-346-0113","addr":"경기도 부천시 옥길동 714-3번지 1층","category":"일반휴게음식 - 일반한식"}]},{"lat":"37.469318225","long":"126.82123521","items":[{"name":"고기에반하다","tel":"032-345-9592","addr":"경기도 부천시 옥길동 730-1번지 102호","category":"음료식품 - 정육점"}]},{"lat":"37.468569635","long":"126.82073964","items":[{"name":"고기원칙","tel":"","addr":"경기도 부천시 옥길동 715-6번지 옥길주차타워 1층 111,112호","category":"일반휴게음식 - 일반한식"},{"name":"고마워 강아지","tel":"031-111-1111","addr":"경기도 부천시 옥길동 715-6번지 목길주차타워 1층 103호","category":"문화.취미 - 애완동물"},{"name":"국수나무옥길점","tel":"032-345-5744","addr":"경기도 부천시 옥길동 715-6번지 옥길주차타워 1층 110호","category":"일반휴게음식 - 일반한식"},{"name":"두발이 킥보드","tel":"","addr":"경기도 부천시 옥길동 715-6번지 1층 102호","category":"레져용품 - 스포츠·레져용품"},{"name":"두발이킥보드","tel":"032-347-8008","addr":"경기도 부천시 옥길동 715-6번지 1층 102호","category":"레져용품 - 스포츠·레져용품"},{"name":"마이짐","tel":"031-111-1111","addr":"경기도 부천시 옥길동 715-6번지 2층 201호","category":"레저업소 - 헬스클럽"},{"name":"미각","tel":"02-1522-2332","addr":"경기도 부천시 옥길동 715-6번지 옥길주차타워 1층 104,105호","category":"일반휴게음식 - 중국식"},{"name":"선미네","tel":"","addr":"경기도 부천시 옥길동 715-6번지 옥길주차타워 1층 116호","category":"일반휴게음식 - 일반한식"},{"name":"오븐마루(옥길점)","tel":"032-343-9293","addr":"경기도 부천시 옥길동 715-6번지 107호","category":"일반휴게음식 - 스넥"},{"name":"정앤정","tel":"","addr":"경기도 부천시 옥길동 715-6번지 204,301,401호","category":"자동차정비 유지 - 주차장"},{"name":"천하보쌈","tel":"031-341-3392","addr":"경기도 부천시 옥길동 715-6번지 1층","category":"일반휴게음식 - 일반한식"}]},{"lat":"37.467598316","long":"126.82188369","items":[{"name":"고릴라불닭발","tel":"032-345-3787","addr":"경기도 부천시 옥길동 724-4번지","category":"일반휴게음식 - 일반한식"},{"name":"홍짜장 옥길점","tel":"032-347-0011","addr":"경기도 부천시 옥길동 724-4번지 1층 일부","category":"일반휴게음식 - 중국식"}]},{"lat":"37.468761566","long":"126.82251392","items":[{"name":"고향가든","tel":"","addr":"경기도 부천시 옥길동 732-2번지 1층","category":"일반휴게음식 - 일반한식"}]},{"lat":"37.469710619","long":"126.81862299","items":[{"name":"공간","tel":"02-1111-1111","addr":"경기도 부천시 옥길동 702-1번지 1층","category":"일반휴게음식 - 서양음식"},{"name":"옥자(옥길자전거)","tel":"","addr":"경기도 부천시 옥길동 702-1번지 1층 102호","category":"레져용품 - 스포츠·레져용품"}]},{"lat":"37.468824549","long":"126.82245725","items":[{"name":"공부방","tel":"","addr":"경기도 부천시 옥길동 732-1번지 202호","category":"학원 - 기타 교육기관"},{"name":"옥길황소곱창","tel":"032-341-5033","addr":"경기도 부천시 옥길동 732-1번지 1층","category":"일반휴게음식 - 일반한식"}]},{"lat":"37.471265643","long":"126.82804708","items":[{"name":"공원슈퍼","tel":"070-8688-8740","addr":"경기도 부천시 옥길동 479번지 1호","category":"유통업 영리 - 슈퍼마켓"},{"name":"현대기업","tel":"032-2693-8426","addr":"경기도 부천시 옥길동 479-1번지","category":"자동차정비 유지 - 자동차부품"}]},{"lat":"37.467680287","long":"126.82246","items":[{"name":"공터영어옥길센터보습학원","tel":"032-344-1747","addr":"경기도 부천시 옥길동 726-2번지 씨티프라자 401호","category":"학원 - 보습학원"},{"name":"본죽 옥길점","tel":"032-344-6288","addr":"경기도 부천시 옥길동 726-2번지 씨티프라자 104호","category":"일반휴게음식 - 일반한식"},{"name":"비에치씨 (bhc)옥길지구점","tel":"032-349-9292","addr":"경기도 부천시 옥길동 726-2번지","category":"일반휴게음식 - 일반한식"},{"name":"송탄금이네부대찌개","tel":"031-341-3588","addr":"경기도 부천시 옥길동 726-2번지 씨티프라자 201호","category":"일반휴게음식 - 일반한식"},{"name":"쎈수학러닝센터옥길정수학보습학원","tel":"070-4195-5753","addr":"경기도 부천시 옥길동 726-2번지 씨티프라자 503호","category":"학원 - 보습학원"},{"name":"씨유옥길씨티점","tel":"031-662-3089","addr":"경기도 부천시 옥길동 726-2번지 씨티프라자 1층 103호","category":"유통업 영리 - 편 의 점"},{"name":"엠티에이태권도","tel":"032-346-0010","addr":"경기도 부천시 옥길동 726-2번지 601-603호","category":"학원 - 예·체능계학원"},{"name":"옥길EiE(이아이이)어학원","tel":"032-721-5106","addr":"경기도 부천시 옥길동 726-2번지 301호,302호","category":"학원 - 외국어학원"},{"name":"올리브멜로디음악미술학원","tel":"031-341-9211","addr":"경기도 부천시 옥길동 726-2번지 시티프라자 501호","category":"학원 - 예·체능계학원"},{"name":"젤리젤리 슬라임","tel":"032-344-7273","addr":"경기도 부천시 옥길동 726-2번지 씨티프라자 303호","category":"레저업소 - 기타레져업소"},{"name":"차수학뉴턴보습학원","tel":"032-342-0570","addr":"경기도 부천시 옥길동 726-2번지 씨티프라자 4층 402호","category":"학원 - 보습학원"},{"name":"해냄마인드케어센터","tel":"00-1644-7907","addr":"경기도 부천시 옥길동 726-2번지 씨티프라자 403호","category":"학원 - 기타 교육기관"},{"name":"희(hee)스킨케어","tel":"032-341-9701","addr":"경기도 부천시 옥길동 726-2번지 씨티프라자 502호","category":"보건위생 - 피부미용실"}]},{"lat":"37.467295351","long":"126.82409998","items":[{"name":"구백냥곱창","tel":"070-1111-1111","addr":"경기도 부천시 옥길동 745-7번지 지음프라자 1층 114호","category":"일반휴게음식 - 일반한식"}]},{"lat":"37.467183079","long":"126.82137602","items":[{"name":"국선생부천옥길점","tel":"032-342-9455","addr":"경기도 부천시 옥길동 725번지 1층 112호","category":"음료식품 - 기타음료식품"},{"name":"꼬꼬마카롱","tel":"032-269-2891","addr":"경기도 부천시 옥길동 725번지 115호","category":"음료식품 - 기타음료식품"},{"name":"리틀멜로우 (Little Mellow)","tel":"","addr":"경기도 부천시 옥길동 725번지 114호 일부","category":"일반휴게음식 - 서양음식"},{"name":"미스사이공 옥길점","tel":"032-345-0420","addr":"경기도 부천시 옥길동 725번지 킹타워 103호","category":"일반휴게음식 - 스넥"},{"name":"옛날통닭","tel":"","addr":"경기도 부천시 옥길동 725번지 1층 102호","category":"일반휴게음식 - 스넥"},{"name":"죽이야기 부천옥길점","tel":"032-345-6233","addr":"경기도 부천시 옥길동 725번지 1층 104호","category":"일반휴게음식 - 일반한식"},{"name":"코바코 부천옥길점","tel":"032-349-7890","addr":"경기도 부천시 옥길동 725번지 106호","category":"일반휴게음식 - 일반한식"},{"name":"태영생막창","tel":"032-343-6333","addr":"경기도 부천시 옥길동 725번지 1층 117,118호","category":"일반휴게음식 - 일반한식"},{"name":"포램비","tel":"032-349-1002","addr":"경기도 부천시 옥길동 725번지 109,110호","category":"일반휴게음식 - 일반한식"},{"name":"혹등고래","tel":"","addr":"경기도 부천시 옥길동 725번지 1층 101호","category":"일반휴게음식 - 일식·회집"}]},{"lat":"37.469154513","long":"126.82024084","items":[{"name":"글로시","tel":"031-000-0000","addr":"경기도 부천시 옥길동 713-8번지 1층 일부","category":"보건위생 - 화장품"},{"name":"존앤맘(John&mom)","tel":"031-000-0000","addr":"경기도 부천시 옥길동 713-8번지 1층 102호","category":"의류 - 아동의류"}]},{"lat":"37.466958593","long":"126.82187393","items":[{"name":"기구 필라테스 아샤야","tel":"","addr":"경기도 부천시 옥길동 726-5번지 드림탑프라자 401호","category":"레저업소 - 헬스클럽"},{"name":"로웰치과","tel":"032-343-2275","addr":"경기도 부천시 옥길동 726-5번지 드림탑프라자 303호","category":"의원 - 치과의원"},{"name":"삼성새봄피부과의원","tel":"032-346-7555","addr":"경기도 부천시 옥길동 726-5번지 드림탑프라자 403호","category":"의원 - 의원"},{"name":"셀렉토커피부천옥길점","tel":"032-341-1580","addr":"경기도 부천시 옥길동 726-5번지 드림탑프라자 101,102호","category":"일반휴게음식 - 서양음식"},{"name":"스타정육","tel":"031-349-8889","addr":"경기도 부천시 옥길동 726-5번지 드림탑프라자 103호","category":"음료식품 - 정육점"},{"name":"스튜디오 그사이","tel":"032-620-5535","addr":"경기도 부천시 옥길동 726-5번지 드림탑프라자 6층 601호","category":"광학제품 - 사진관"},{"name":"아이들소아청소년과","tel":"032-345-7531","addr":"경기도 부천시 옥길동 726-5번지 드림탑프라자 602호","category":"의원 - 의원"},{"name":"연세맑은이비인후과","tel":"032-346-5565","addr":"경기도 부천시 옥길동 726-5번지 드림탑프라자 4층 402호","category":"의원 - 의원"},{"name":"연세수내과의원","tel":"032-349-2222","addr":"경기도 부천시 옥길동 726-5번지 드림탑프라자 501,502호","category":"의원 - 의원"},{"name":"연세수내과의원","tel":"032-349-2222","addr":"경기도 부천시 옥길동 726-5번지 드림탑프라자 501,502호","category":"의원 - 의원"},{"name":"연세수내과의원","tel":"032-349-2222","addr":"경기도 부천시 옥길동 726-5번지 501,502호","category":"의원 - 의원"},{"name":"옥길온누리약국","tel":"032-346-3690","addr":"경기도 부천시 옥길동 726-5번지 드림탑프라자 106호","category":"약국 - 약국"},{"name":"장독대옥길점","tel":"032-345-5288","addr":"경기도 부천시 옥길동 726-5번지 드림탑프라자 109호","category":"음료식품 - 기타음료식품"},{"name":"조이에비뉴미술어학원","tel":"02-6956-5202","addr":"경기도 부천시 옥길동 726-5번지 701호일부,702호","category":"학원 - 외국어학원"},{"name":"해밀아동발달센터2호점","tel":"032-345-4298","addr":"경기도 부천시 옥길동 726-5번지 드림탑프라자 6층 603호","category":"보건위생 - 기타대인서비스"},{"name":"황금비타민","tel":"032-342-3422","addr":"경기도 부천시 옥길동 726-5번지 드림프라자 102호","category":"음료식품 - 농·축·수산품"}]},{"lat":"37.466293721","long":"126.82309634","items":[{"name":"꿈 그리는 아이","tel":"032-342-8664","addr":"경기도 부천시 옥길동 744-3번지 7층 712호","category":"학원 - 예·체능계학원"},{"name":"라움헤어뷰티","tel":"","addr":"경기도 부천시 옥길동 744-3번지 2층 206호","category":"보건위생 - 미용원"},{"name":"삼겹의 지존","tel":"","addr":"경기도 부천시 옥길동 744-3번지 외1필지 2층 201호","category":"일반휴게음식 - 일반한식"},{"name":"수학여우수학교습소","tel":"","addr":"경기도 부천시 옥길동 744-3번지 805호","category":"학원 - 보습학원"},{"name":"알렌음악교습소","tel":"032-347-0409","addr":"경기도 부천시 옥길동 744-3번지 4층 409호","category":"학원 - 예·체능계학원"},{"name":"에이스","tel":"032-342-0753","addr":"경기도 부천시 옥길동 744-3번지 1001~1006호","category":"음료식품 - 기타음료식품"},{"name":"옥길C&C(씨앤씨)미술학원","tel":"032-345-7172","addr":"경기도 부천시 옥길동 744-3번지 8층 812호 및 813호","category":"학원 - 예·체능계학원"},{"name":"토리헤어(옥길로점)","tel":"032-344-6766","addr":"경기도 부천시 옥길동 744-3번지 3층 303~305호","category":"보건위생 - 미용원"},{"name":"투썸플레이스 부천옥길점","tel":"032-346-3222","addr":"경기도 부천시 옥길동 744-3번지 1층 104,105,106,107호","category":"일반휴게음식 - 서양음식"},{"name":"피아노치는고양이음악학원","tel":"032-345-7985","addr":"경기도 부천시 옥길동 744-3번지 808호,809호,810호","category":"학원 - 예·체능계학원"},{"name":"피자마루 옥길지구점","tel":"032-345-7362","addr":"경기도 부천시 옥길동 744-3번지 1층 108호","category":"일반휴게음식 - 서양음식"},{"name":"홍콩반점0410 부천옥길점","tel":"032-341-3241","addr":"경기도 부천시 옥길동 744-3번지 O&S골드타워 1층 101호,102,103호","category":"일반휴게음식 - 중국식"}]},{"lat":"37.468734967","long":"126.82279658","items":[{"name":"나노 마스터","tel":"","addr":"경기도 부천시 옥길동 732-3번지 102호","category":"용역 서비스 - 기타용역서비스"},{"name":"다둥이세탁소","tel":"032-345-8284","addr":"경기도 부천시 옥길동 732-3번지 101호","category":"수리서비스 - 세탁소"},{"name":"옥길세탁소","tel":"032-345-8289","addr":"경기도 부천시 옥길동 732-3번지 102호","category":"수리서비스 - 세탁소"}]},{"lat":"37.462574285","long":"126.81266113","items":[{"name":"나디아잉글리쉬보습학원","tel":"032-343-7905","addr":"경기도 부천시 옥길동 777-1번지 1동 2층 208호","category":"학원 - 보습학원"},{"name":"대정숯불갈비","tel":"032-1111-1111","addr":"경기도 부천시 옥길동 777-1번지","category":"일반휴게음식 - 일반한식"},{"name":"바우네 나주곰탕(옥길이마트점)","tel":"032-345-8807","addr":"경기도 부천시 옥길동 777-1번지 1동 1층 119호","category":"일반휴게음식 - 일반한식"},{"name":"복슬강아지","tel":"031-8920-3956","addr":"경기도 부천시 옥길동 777-1번지 옥길헤리움타운 2층 203호","category":"일반휴게음식 - 서양음식"},{"name":"브래드 스틱 (Bread stick)","tel":"032-343-6874","addr":"경기도 부천시 옥길동 777-1번지 1층 112호","category":"음료식품 - 제과점"},{"name":"수내닭꼬치(부천옥길점)","tel":"070-7614-3579","addr":"경기도 부천시 옥길동 777-1번지 1동 106호","category":"일반휴게음식 - 주점"},{"name":"신의한소","tel":"","addr":"경기도 부천시 옥길동 777-1번지 옥길헤리움타운 102호","category":"일반휴게음식 - 일반한식"},{"name":"씨유옥길헤리움타운점","tel":"031-446-8960","addr":"경기도 부천시 옥길동 777-1번지 1층 108호","category":"유통업 영리 - 편 의 점"},{"name":"얌샘김밥(부천옥길점)","tel":"031-344-2360","addr":"경기도 부천시 옥길동 777-1번지 1동 1층 114호","category":"일반휴게음식 - 스넥"},{"name":"어스치과의원","tel":"032-347-2275","addr":"경기도 부천시 옥길동 777-1번지 1동 2층 202호","category":"의원 - 치과의원"},{"name":"연세자연내과의원","tel":"032-342-7500","addr":"경기도 부천시 옥길동 777-1번지 201호","category":"의원 - 의원"},{"name":"연세자연내과의원","tel":"032-342-7500","addr":"경기도 부천시 옥길동 777-1번지 201호","category":"의원 - 의원"},{"name":"옥길소리엘음악학원","tel":"032-345-2330","addr":"경기도 부천시 옥길동 777-1번지 2층 206호","category":"학원 - 예·체능계학원"},{"name":"옥길헤리움타운","tel":"032-344-0299","addr":"경기도 부천시 옥길동 777-1번지 212호","category":"자동차정비 유지 - 주차장"},{"name":"와우(WOW)화덕피자","tel":"032-346-4673","addr":"경기도 부천시 옥길동 777-1번지 옥길헤리움타운 1층 118호","category":"일반휴게음식 - 서양음식"},{"name":"요가룩스 옥길이마트타운점","tel":"032-341-9995","addr":"경기도 부천시 옥길동 777-1번지 301, 302호","category":"레저업소 - 헬스클럽"},{"name":"용인대 금메달 브레인 태권도","tel":"032-343-1152","addr":"경기도 부천시 옥길동 777-1번지 헤리움타운 207호","category":"학원 - 예·체능계학원"},{"name":"이디야커피부천옥길헤리움점","tel":"032-345-5255","addr":"경기도 부천시 옥길동 777-1번지 111호","category":"일반휴게음식 - 서양음식"},{"name":"한나식빵옥길점","tel":"031-998-4777","addr":"경기도 부천시 옥길동 777-1번지 옥길헤리움타운주건축물 1동 1층 110호","category":"음료식품 - 제과점"},{"name":"효원온누리약국","tel":"032-345-7676","addr":"경기도 부천시 옥길동 777-1번지 1층 103호","category":"약국 - 약국"}]},{"lat":"37.468264791","long":"126.82171253","items":[{"name":"나이스가이(부천옥길점)","tel":"032-343-8882","addr":"경기도 부천시 옥길동 722-5번지 1층 102호","category":"보건위생 - 미용원"}]},{"lat":"37.468963745","long":"126.81923524","items":[{"name":"나폴나폴","tel":"","addr":"경기도 부천시 옥길동 710-2번지","category":"학원 - 예·체능계학원"},{"name":"디저트39 부천옥길점","tel":"032-344-1323","addr":"경기도 부천시 옥길동 710-2번지","category":"일반휴게음식 - 서양음식"}]},{"lat":"37.468374518","long":"126.82276354","items":[{"name":"낙원떡집","tel":"032-341-0704","addr":"경기도 부천시 옥길동 727-2번지 102호","category":"음료식품 - 제과점"},{"name":"던킨도너츠부천옥길점","tel":"","addr":"경기도 부천시 옥길동 727-2번지 1층 104,105호","category":"음료식품 - 제과점"},{"name":"리본필라테스 부천옥길점","tel":"031-343-7773","addr":"경기도 부천시 옥길동 727-2번지 601호","category":"레저업소 - 헬스클럽"},{"name":"맥주 아이스크림 더하기","tel":"031-546-6451","addr":"경기도 부천시 옥길동 727-2번지 101호","category":"음료식품 - 기타음료식품"},{"name":"부천 이로운에프앤비 지점","tel":"070-8672-5545","addr":"경기도 부천시 옥길동 727-2번지 1층 103호","category":"음료식품 - 농·축·수산품"},{"name":"청기와뼈다귀해장국","tel":"032-347-1005","addr":"경기도 부천시 옥길동 727-2번지 2층","category":"일반휴게음식 - 일반한식"}]},{"lat":"37.468959145","long":"126.82209519","items":[{"name":"낙원식당","tel":"032-432-6641","addr":"경기도 부천시 옥길동 731-7번지 1층","category":"일반휴게음식 - 일반한식"}]},{"lat":"37.469936361","long":"126.81893895","items":[{"name":"남국의 파초","tel":"","addr":"경기도 부천시 옥길동 703-1번지 1층","category":"문화.취미 - 화원"},{"name":"코리아정육","tel":"","addr":"경기도 부천시 옥길동 703-1번지 1층 일부","category":"음료식품 - 정육점"}]},{"lat":"37.467184188","long":"126.82209947","items":[{"name":"낭만치맥 부천옥길점","tel":"032-344-8220","addr":"경기도 부천시 옥길동 726-4번지 상림프라자 1층 107호","category":"일반휴게음식 - 주점"},{"name":"늘봄약국","tel":"032-342-0050","addr":"경기도 부천시 옥길동 726-4번지 상림프라자 105호","category":"약국 - 약국"},{"name":"더행복한치과","tel":"032-342-2875","addr":"경기도 부천시 옥길동 726-4번지 상림프라자 302호","category":"의원 - 치과의원"},{"name":"리안","tel":"032-345-6509","addr":"경기도 부천시 옥길동 726-4번지 상림프라자 202호","category":"보건위생 - 화장품"},{"name":"메가엠지씨커피 부천옥길지구점","tel":"070-1111-1111","addr":"경기도 부천시 옥길동 726-4번지 상림프라자 106호","category":"일반휴게음식 - 서양음식"},{"name":"스톤오븐","tel":"032-342-0095","addr":"경기도 부천시 옥길동 726-4번지 상림프라자 1층 101호","category":"음료식품 - 제과점"},{"name":"슬라임파티","tel":"","addr":"경기도 부천시 옥길동 726-4번지 상림프라자 5층 502호","category":"레저업소 - 기타레져업소"},{"name":"아트앤하트옥길미술학원","tel":"032-343-9903","addr":"경기도 부천시 옥길동 726-4번지 상림프라자 601호","category":"학원 - 예·체능계학원"},{"name":"엘리트 합기도 특공무술","tel":"031-000-0000","addr":"경기도 부천시 옥길동 726-4번지 상림프라자 602,603","category":"학원 - 예·체능계학원"},{"name":"엠베스트SE(에스이)보습학원","tel":"032-342-6230","addr":"경기도 부천시 옥길동 726-4번지 상림프라자 4층 401호","category":"학원 - 보습학원"},{"name":"이용현한의원","tel":"02-458-7512","addr":"경기도 부천시 옥길동 726-4번지 상림프라자 301호","category":"의원 - 한의원"},{"name":"일미리금계찜닭","tel":"032-345-9258","addr":"경기도 부천시 옥길동 726-4번지 상림프라자 2층 203호","category":"일반휴게음식 - 일반한식"},{"name":"제이드 필라테스","tel":"032-343-8834","addr":"경기도 부천시 옥길동 726-4번지 상림프라자 5층 503호","category":"레저업소 - 헬스클럽"},{"name":"청년다방부천옥길점","tel":"032-341-1700","addr":"경기도 부천시 옥길동 726-4번지 상림프라자 102호","category":"일반휴게음식 - 스넥"},{"name":"초원샤브샤브","tel":"","addr":"경기도 부천시 옥길동 726-4번지 상림프라자 2층 201호","category":"일반휴게음식 - 중국식"},{"name":"코아이비인후과의원","tel":"032-351-5150","addr":"경기도 부천시 옥길동 726-4번지 삼익프라자 402호","category":"의원 - 의원"},{"name":"퀸즈미","tel":"032-721-7775","addr":"경기도 부천시 옥길동 726-4번지 상림프라자 2층 201호","category":"보건위생 - 피부미용실"},{"name":"하이베스트옥길보습학원","tel":"032-342-6230","addr":"경기도 부천시 옥길동 726-4번지 상림프라자 501호","category":"학원 - 보습학원"}]},{"lat":"37.469684382","long":"126.81913174","items":[{"name":"네가꿈꾸는일상","tel":"","addr":"경기도 부천시 옥길동 705-1번지 110호","category":"보건위생 - 피부미용실"},{"name":"달달한동네커피","tel":"","addr":"경기도 부천시 옥길동 705-1번지 옥길골드타워 1층 105호","category":"일반휴게음식 - 서양음식"},{"name":"독도왕새우튀김","tel":"032-344-8283","addr":"경기도 부천시 옥길동 705-1번지 옥길골드타워 103호","category":"일반휴게음식 - 일반한식"},{"name":"마포주먹고기","tel":"032-347-0999","addr":"경기도 부천시 옥길동 705-1번지 112호","category":"일반휴게음식 - 일반한식"},{"name":"바사칸동네치킨옥길신도시점","tel":"032-0000-0000","addr":"경기도 부천시 옥길동 705-1번지 옥길골드타워 1층 111호","category":"일반휴게음식 - 스넥"},{"name":"우주소돌곱창","tel":"02-6013-6991","addr":"경기도 부천시 옥길동 705-1번지 1층 102호","category":"일반휴게음식 - 일반한식"},{"name":"원할머니보쌈부천옥길점","tel":"032-349-5379","addr":"경기도 부천시 옥길동 705-1번지 옥길골드타워 106호","category":"일반휴게음식 - 일반한식"},{"name":"차사랑스팀세차","tel":"","addr":"경기도 부천시 옥길동 705-1번지 301호","category":"자동차정비 유지 - 세차장"}]},{"lat":"37.467769661","long":"126.82198502","items":[{"name":"놀부부대찌개 보쌈 (옥길점)","tel":"032-341-7038","addr":"경기도 부천시 옥길동 724-3번지 1층","category":"일반휴게음식 - 일반한식"}]},{"lat":"37.473600984","long":"126.82321449","items":[{"name":"농업회사법인 동진농산 주식회사","tel":"02-2618-4242","addr":"경기도 부천시 옥길동 521-2번지","category":"음료식품 - 농·축·수산품"}]},{"lat":"37.464097288","long":"126.81854633","items":[{"name":"늘푸른","tel":"032-345-8502","addr":"경기도 부천시 옥길동 771-1번지 엘에이치센트리뷰 109호","category":"음료식품 - 농·축·수산품"},{"name":"대호설비","tel":"032-655-8508","addr":"경기도 부천시 옥길동 771-1번지 엘에이치센트리뷰 714동 901호","category":"용역 서비스 - 기타용역서비스"},{"name":"돈우리축산","tel":"02-1111-1111","addr":"경기도 부천시 옥길동 771-1번지 엘에이치센트리뷰 107호","category":"음료식품 - 정육점"},{"name":"르쁘띠","tel":"","addr":"경기도 부천시 옥길동 771-1번지 엘에이치센트리뷰 711동 402호","category":"직물 - 카페트,커튼,천막,지물"},{"name":"수학과외","tel":"","addr":"경기도 부천시 옥길동 771-1번지 엘에이치센트리뷰 701동 1301호","category":"학원 - 기타 교육기관"},{"name":"프랭크서울핫도그","tel":"032-343-1236","addr":"경기도 부천시 옥길동 771-1번지 엘에이치센트리뷰 1층 111호","category":"일반휴게음식 - 서양음식"}]},{"lat":"37.474871676","long":"126.82340364","items":[{"name":"능성갈비","tel":"02-2687-4213","addr":"경기도 부천시 옥길동 507-2번지 1층","category":"일반휴게음식 - 일반한식"}]},{"lat":"37.469460501","long":"126.82001401","items":[{"name":"달정보통신","tel":"032-344-0106","addr":"경기도 부천시 옥길동 710-8번지","category":"사무통신 - 통신기기"},{"name":"라이프독","tel":"032-341-2111","addr":"경기도 부천시 옥길동 710-8번지 1층","category":"문화.취미 - 애완동물"},{"name":"샌드리아 옥길지수점","tel":"03-111-1111","addr":"경기도 부천시 옥길동 710-8번지","category":"일반휴게음식 - 스넥"},{"name":"어텀바이플라워","tel":"032-343-0922","addr":"경기도 부천시 옥길동 710-8번지 1층 일부","category":"문화.취미 - 화원"}]},{"lat":"37.467931839","long":"126.82198463","items":[{"name":"대박족발","tel":"070-0000-0000","addr":"경기도 부천시 옥길동 724-2번지 101호","category":"일반휴게음식 - 일반한식"}]},{"lat":"37.472733783","long":"126.81595897","items":[{"name":"대한예수교장로회주왕교회","tel":"032-342-0192","addr":"경기도 부천시 옥길동 782번지","category":"음료식품 - 기타음료식품"}]},{"lat":"37.461880613","long":"126.81840484","items":[{"name":"더블유플레이스","tel":"070-4327-1609","addr":"경기도 부천시 옥길동 754-1번지 103호","category":"의류 - 정장"},{"name":"딥모먼트 플라워샵(Deep moment)","tel":"032-341-6800","addr":"경기도 부천시 옥길동 754-1번지 1층","category":"문화.취미 - 화원"},{"name":"모모자전거","tel":"032-345-2429","addr":"경기도 부천시 옥길동 754-1번지 102호","category":"레져용품 - 스포츠·레져용품"}]},{"lat":"37.46673514","long":"126.82305006","items":[{"name":"데이즈오프","tel":"","addr":"경기도 부천시 옥길동 744-5번지 2층 라피에스타 202호","category":"일반휴게음식 - 주점"},{"name":"서울바른약국","tel":"070-8839-1104","addr":"경기도 부천시 옥길동 744-5번지 1층","category":"약국 - 약국"},{"name":"이마트24 부천옥길점","tel":"032-1111-1111","addr":"경기도 부천시 옥길동 744-5번지 1층 104호","category":"유통업 영리 - 편 의 점"},{"name":"킹타이","tel":"032-348-8589","addr":"경기도 부천시 옥길동 744-5번지 503호, 504호","category":"신변잡화 - 기타잡화"}]},{"lat":"37.461656667","long":"126.81924181","items":[{"name":"도담도담 개린이집","tel":"","addr":"경기도 부천시 옥길동 753-6번지 1층 101호내 일부","category":"문화.취미 - 애완동물"},{"name":"이바돔감자탕(부천옥길점)","tel":"032-351-0005","addr":"경기도 부천시 옥길동 753-6번지 101호","category":"일반휴게음식 - 일반한식"}]},{"lat":"37.471708007","long":"126.81682066","items":[{"name":"도미노피자부천옥길점","tel":"02-6406-3085","addr":"경기도 부천시 옥길동 784-4번지 예품빌딩","category":"일반휴게음식 - 서양음식"},{"name":"사랑예감","tel":"032-343-3691","addr":"경기도 부천시 옥길동 784-4번지 예품프라자 106호","category":"직물 - 침구·수예점"},{"name":"샘터놀이공간","tel":"070-4408-0191","addr":"경기도 부천시 옥길동 784-4번지 예품빌딩 4층","category":"문화.취미 - 문화취미기타"}]},{"lat":"37.462070474","long":"126.81882258","items":[{"name":"뚜레쥬르 부천옥길점","tel":"","addr":"경기도 부천시 옥길동 753-2번지 1층","category":"음료식품 - 제과점"}]},{"lat":"37.468904376","long":"126.82163185","items":[{"name":"라헬의부엌 옥길점","tel":"","addr":"경기도 부천시 옥길동 729-1번지 1층","category":"일반휴게음식 - 서양음식"}]},{"lat":"37.461458009","long":"126.81895972","items":[{"name":"럽댓모어","tel":"","addr":"경기도 부천시 옥길동 754-7번지 브리즈타워 1층 103호","category":"의류 - 정장"},{"name":"집쉐프","tel":"032-341-6242","addr":"경기도 부천시 옥길동 754-7번지 브리즈타워 104호","category":"음료식품 - 기타음료식품"},{"name":"카페 슈어","tel":"","addr":"경기도 부천시 옥길동 754-7번지 브리즈타워 1층 107호","category":"일반휴게음식 - 서양음식"},{"name":"티케티부(tickety boo)","tel":"02-4640-4676","addr":"경기도 부천시 옥길동 754-7번지 브리즈타워 108호","category":"신변잡화 - 기타잡화"}]},{"lat":"37.469460326","long":"126.81990097","items":[{"name":"로또대박","tel":"031-341-8540","addr":"경기도 부천시 옥길동 710-7번지 1층","category":"음료식품 - 기타음료식품"},{"name":"어썸(AWESOME)","tel":"032-111-1111","addr":"경기도 부천시 옥길동 710-7번지 101호","category":"의류 - 정장"},{"name":"옥길동 마카롱","tel":"","addr":"경기도 부천시 옥길동 710-7번지 1층","category":"일반휴게음식 - 서양음식"}]},{"lat":"37.468572995","long":"126.82293262","items":[{"name":"메이드스터디","tel":"","addr":"경기도 부천시 옥길동 727-1번지, 3층 302호","category":"용역 서비스 - 사무서비스"}]},{"lat":"37.468765913","long":"126.81948441","items":[{"name":"모모네일","tel":"","addr":"경기도 부천시 옥길동 713-3번지 1층 101-2호","category":"보건위생 - 피부미용실"}]},{"lat":"37.467435583","long":"126.82152236","items":[{"name":"무드네일","tel":"031-0000-0000","addr":"경기도 부천시 옥길동 724-7번지 1층 일부","category":"보건위생 - 피부미용실"},{"name":"토프레소옥길점","tel":"031-347-1315","addr":"경기도 부천시 옥길동 724-7번지 1층","category":"일반휴게음식 - 서양음식"}]},{"lat":"37.46959544","long":"126.81987803","items":[{"name":"무드스톤","tel":"","addr":"경기도 부천시 옥길동 704-4번지 1층 일부 가운데내제2호","category":"의류 - 정장"},{"name":"사과나무","tel":"070-5208-0876","addr":"경기도 부천시 옥길동 704-4번지 101호","category":"의류 - 정장"},{"name":"살롱드앰투엠(SALON DE M2M)","tel":"031-343-4810","addr":"경기도 부천시 옥길동 704-4번지 1층 103호","category":"보건위생 - 미용원"}]},{"lat":"37.461853971","long":"126.81865357","items":[{"name":"미갈루(Migaloo)","tel":"031-000-0000","addr":"경기도 부천시 옥길동 754-3번지 1층","category":"일반휴게음식 - 서양음식"}]},{"lat":"37.468435338","long":"126.82129387","items":[{"name":"바른고기","tel":"032-344-5000","addr":"경기도 부천시 옥길동 722-2번지","category":"일반휴게음식 - 일반한식"}]},{"lat":"37.469018892","long":"126.81993596","items":[{"name":"박'S헤어","tel":"032-344-7179","addr":"경기도 부천시 옥길동 713-6번지 1층 102호","category":"보건위생 - 미용원"},{"name":"치뽁","tel":"032-342-2021","addr":"경기도 부천시 옥길동 713-6번지 1층 101호","category":"일반휴게음식 - 일식·회집"}]},{"lat":"37.468794883","long":"126.8207391","items":[{"name":"반찬의감동밥도둑","tel":"032-347-8119","addr":"경기도 부천시 옥길동 714-4번지","category":"음료식품 - 기타음료식품"},{"name":"정재영족발보쌈","tel":"032-345-1214","addr":"경기도 부천시 옥길동 714-4번지 일부동","category":"일반휴게음식 - 일반한식"}]},{"lat":"37.468630465","long":"126.81929258","items":[{"name":"뱅아라비카","tel":"032-345-5505","addr":"경기도 부천시 옥길동 713-1번지 101호","category":"일반휴게음식 - 서양음식"}]},{"lat":"37.467435964","long":"126.82177105","items":[{"name":"베리라운지","tel":"070-4406-6688","addr":"경기도 부천시 옥길동 724-6번지 102호","category":"의류 - 정장"},{"name":"치킨매니아 옥길점","tel":"032-237-8292","addr":"경기도 부천시 옥길동 724-6번지 101호","category":"일반휴게음식 - 스넥"}]},{"lat":"37.469072391","long":"126.8195741","items":[{"name":"보꼬네","tel":"032-351-1113","addr":"경기도 부천시 옥길동 710-4번지 1층","category":"일반휴게음식 - 서양음식"}]},{"lat":"37.461764611","long":"126.81912852","items":[{"name":"보드람치킨 옥길지구점","tel":"032-347-7694","addr":"경기도 부천시 옥길동 753-5번지 1층 102호","category":"일반휴게음식 - 스넥"},{"name":"브리즈헤어","tel":"032-342-7782","addr":"경기도 부천시 옥길동 753-5번지 101호","category":"보건위생 - 미용원"}]},{"lat":"37.468489224","long":"126.8211807","items":[{"name":"보람헤어","tel":"032-341-5646","addr":"경기도 부천시 옥길동 722-1번지","category":"보건위생 - 미용원"},{"name":"커피에반하다 (옥길점)","tel":"032-348-8282","addr":"경기도 부천시 옥길동 722-1번지 1층 일부호","category":"일반휴게음식 - 서양음식"}]},{"lat":"37.46885087","long":"126.82199371","items":[{"name":"보우동물병원","tel":"02-0000-0000","addr":"경기도 부천시 옥길동 729-3번지 1층","category":"기타의료기관 - 동물병원"}]},{"lat":"37.469040027","long":"126.82195935","items":[{"name":"블루모터스","tel":"032-346-5703","addr":"경기도 부천시 옥길동 731-6번지","category":"자동차정비 유지 - 자동차정비"}]},{"lat":"37.469100244","long":"126.82010532","items":[{"name":"비&전","tel":"032-346-9204","addr":"경기도 부천시 옥길동 713-7번지 1층 일부","category":"일반휴게음식 - 일반한식"},{"name":"아비지","tel":"032-351-8908","addr":"경기도 부천시 옥길동 713-7번지 1층","category":"직물 - 카페트,커튼,천막,지물"},{"name":"이리로","tel":"032-344-3104","addr":"경기도 부천시 옥길동 713-7번지 1층 101호","category":"일반휴게음식 - 주점"}]},{"lat":"37.469289102","long":"126.81987878","items":[{"name":"비엔나커피하우스","tel":"070-7862-1697","addr":"경기도 부천시 옥길동 710-6번지 1층","category":"일반휴게음식 - 서양음식"}]},{"lat":"37.467986297","long":"126.82224449","items":[{"name":"살롱디케이(Salon D.K)","tel":"070-7614-3579","addr":"경기도 부천시 옥길동 723-2번지 101호","category":"보건위생 - 미용원"}]},{"lat":"37.468653274","long":"126.82240114","items":[{"name":"서울건축디자인 앤 얼론카페","tel":"","addr":"경기도 부천시 옥길동 728-1번지 1층 101호,102호","category":"건축자재 - 인테리어전문"}]},{"lat":"37.469018208","long":"126.8194951","items":[{"name":"셀프빨래방","tel":"070-7340-0241","addr":"경기도 부천시 옥길동 710-3번지 101호","category":"수리서비스 - 세탁소"},{"name":"오하요카레","tel":"","addr":"경기도 부천시 옥길동 710-3번지 1층 102호","category":"일반휴게음식 - 일식·회집"}]},{"lat":"37.461737018","long":"126.81876689","items":[{"name":"수목;하다","tel":"","addr":"경기도 부천시 옥길동 754-4번지 1층 101호","category":"문화.취미 - 문화취미기타"}]},{"lat":"37.468961993","long":"126.83001936","items":[{"name":"스마일반품마트 부천점","tel":"02-2069-0543","addr":"경기도 부천시 옥길동 458-2번지","category":"신변잡화 - 기타잡화"}]},{"lat":"37.46217847","long":"126.8187432","items":[{"name":"스시젠","tel":"032-345-1854","addr":"경기도 부천시 옥길동 753-1번지 원창에스엠주택 1층 102호","category":"일반휴게음식 - 일식·회집"},{"name":"일삼일공(1310)","tel":"","addr":"경기도 부천시 옥길동 753-1번지 원창에스엠주택 1층 103호","category":"문화.취미 - 애완동물"}]},{"lat":"37.474431577","long":"126.82432039","items":[{"name":"시골집","tel":"02-2686-7707","addr":"경기도 부천시 옥길동 501-6번지 1층","category":"일반휴게음식 - 일반한식"}]},{"lat":"37.473015253","long":"126.82315937","items":[{"name":"신성종합상사","tel":"02-684-6506","addr":"경기도 부천시 옥길동 519-4번지","category":"기타 - 기계공구"}]},{"lat":"37.475709822","long":"126.8235486","items":[{"name":"신영종합건재상사","tel":"02-2684-9954","addr":"경기도 부천시 옥길동 504-11번지","category":"건축자재 - 기타건축자재"}]},{"lat":"37.461881617","long":"126.81904911","items":[{"name":"쓰리스완","tel":"032-347-1117","addr":"경기도 부천시 옥길동 753-4번지 1층","category":"일반휴게음식 - 서양음식"}]},{"lat":"37.46198956","long":"126.81893581","items":[{"name":"씨유부천산들점","tel":"032-342-7294","addr":"경기도 부천시 옥길동 753-3번지 1층","category":"유통업 영리 - 편 의 점"},{"name":"이수현수선방","tel":"032-348-6002","addr":"경기도 부천시 옥길동 753-3번지 이수현 수선방","category":"수리서비스 - 세탁소"},{"name":"크린에이드 부천옥길지구점","tel":"032-351-8285","addr":"경기도 부천시 옥길동 753-3번지 1층 일부","category":"수리서비스 - 세탁소"}]},{"lat":"37.468408482","long":"126.82140697","items":[{"name":"영양사가차려주는밥상","tel":"032-343-6002","addr":"경기도 부천시 옥길동 722-3번지","category":"일반휴게음식 - 일반한식"}]},{"lat":"37.46754417","long":"126.8218273","items":[{"name":"옛추억을안주삼아","tel":"070-8881-5555","addr":"경기도 부천시 옥길동 724-5번지 1층","category":"일반휴게음식 - 일반한식"}]},{"lat":"37.472043358","long":"126.82998966","items":[{"name":"오류 백조씽크공장","tel":"02-2687-9210","addr":"경기도 부천시 옥길동 471-6번지","category":"주방용구 - 주방용구"}]},{"lat":"37.471180949","long":"126.82562813","items":[{"name":"옥길 삼천리","tel":"02-2688-1785","addr":"경기도 부천시 옥길동 482-2번지","category":"레져용품 - 스포츠·레져용품"}]},{"lat":"37.469991369","long":"126.81954925","items":[{"name":"옥길 어시장","tel":"032-343-1188","addr":"경기도 부천시 옥길동 704-1번지","category":"일반휴게음식 - 일식·회집"}]},{"lat":"37.467678938","long":"126.82157829","items":[{"name":"옥길모터스","tel":"032-343-5501","addr":"경기도 부천시 옥길동 724-8번지","category":"자동차정비 유지 - 자동차정비"}]},{"lat":"37.474710508","long":"126.82407101","items":[{"name":"옥길장터식당","tel":"02-2619-3598","addr":"경기도 부천시 옥길동 506-1번지 1층","category":"일반휴게음식 - 일반한식"}]},{"lat":"37.46940855","long":"126.82138195","items":[{"name":"워시엔조이 셀프빨래방 부천옥길점","tel":"032-000-0000","addr":"경기도 부천시 옥길동 731-2번지","category":"수리서비스 - 세탁소"}]},{"lat":"37.469102837","long":"126.82178963","items":[{"name":"원 로그","tel":"031-111-1111","addr":"경기도 부천시 옥길동 731-5번지 1층","category":"자동차정비 유지 - 카인테리어"}]},{"lat":"37.468769867","long":"126.82205043","items":[{"name":"원일씨숯불닭갈비","tel":"032-349-8293","addr":"경기도 부천시 옥길동 729-4번지 1층 일부호","category":"일반휴게음식 - 일반한식"}]},{"lat":"37.471072626","long":"126.82549273","items":[{"name":"위(WE)디자인","tel":"02-2619-0077","addr":"경기도 부천시 옥길동 482-11번지 1층","category":"건축자재 - 인테리어전문"}]},{"lat":"37.461431982","long":"126.81388475","items":[{"name":"위피크 (주) EBS스포츠 아카데미","tel":"031-8072-8502","addr":"경기도 부천시 옥길동 768번지 4층 4105호, 8층 8100호","category":"학원 - 예·체능계학원"}]},{"lat":"37.468318591","long":"126.82154284","items":[{"name":"이디야 커피(부천옥길점)","tel":"032-341-6704","addr":"경기도 부천시 옥길동 722-4번지 1층","category":"일반휴게음식 - 서양음식"}]},{"lat":"37.469435406","long":"126.82126884","items":[{"name":"인아웃 (디팩트)","tel":"032-345-4642","addr":"경기도 부천시 옥길동 731-1번지 1층","category":"자동차정비 유지 - 자동차부품"}]},{"lat":"37.471435136","long":"126.82690494","items":[{"name":"작은정원","tel":"","addr":"경기도 부천시 옥길동 479-7번지","category":"문화.취미 - 화원"}]},{"lat":"37.469264634","long":"126.82154055","items":[{"name":"정군랩(Jung Goon Wrap)","tel":"032-348-9937","addr":"경기도 부천시 옥길동 731-3번지 1층","category":"자동차정비 유지 - 자동차부품"}]},{"lat":"37.469739301","long":"126.81968551","items":[{"name":"제주흑돈애","tel":"","addr":"경기도 부천시 옥길동 704-3번지 1층","category":"일반휴게음식 - 일반한식"}]},{"lat":"37.467796188","long":"126.82165714","items":[{"name":"제트스팀","tel":"032-212-9335","addr":"경기도 부천시 옥길동 724-9번지 1층","category":"자동차정비 유지 - 세차장"}]},{"lat":"37.469156272","long":"126.82138256","items":[{"name":"참나무골한우곱창","tel":"032-347-3007","addr":"경기도 부천시 옥길동 730-3번지 1층","category":"일반휴게음식 - 일반한식"}]},{"lat":"37.471210963","long":"126.82762895","items":[{"name":"창진종합상사","tel":"02-2060-0837","addr":"경기도 부천시 옥길동 479번지","category":"기타 - 기계공구"}]},{"lat":"37.471653971","long":"126.82865662","items":[{"name":"천지가든","tel":"02-2686-3066","addr":"경기도 부천시 옥길동 466-3번지","category":"일반휴게음식 - 일반한식"}]},{"lat":"37.461961967","long":"126.81857418","items":[{"name":"카페동네옥길점","tel":"032-342-6232","addr":"경기도 부천시 옥길동 754-2번지","category":"일반휴게음식 - 서양음식"}]},{"lat":"37.468819551","long":"126.81921298","items":[{"name":"카페띠아모 (옥길점)","tel":"032-343-1537","addr":"경기도 부천시 옥길동 710-1번지","category":"일반휴게음식 - 서양음식"}]},{"lat":"37.468928652","long":"126.81984575","items":[{"name":"카페파인","tel":"02-2060-4413","addr":"경기도 부천시 옥길동 713-5번지 1층","category":"일반휴게음식 - 서양음식"}]},{"lat":"37.461656105","long":"126.81888011","items":[{"name":"커피베이","tel":"032-347-0010","addr":"경기도 부천시 옥길동 754-5번지 마이바움 옥길 1층","category":"일반휴게음식 - 서양음식"}]},{"lat":"37.467877399","long":"126.82173607","items":[{"name":"퀸즈브라운 부천옥길점","tel":"070-5121-6771","addr":"경기도 부천시 옥길동 724-10번지","category":"일반휴게음식 - 일반한식"}]},{"lat":"37.468572443","long":"126.82257089","items":[{"name":"키키자케시","tel":"032-2614-4512","addr":"경기도 부천시 옥길동 728-2번지 1층 일부","category":"일반휴게음식 - 일식·회집"},{"name":"플로라플라워 (FLORA FLOWER)","tel":"032-345-4511","addr":"경기도 부천시 옥길동 728-2번지 1층 일부(2호)","category":"문화.취미 - 화원"}]},{"lat":"37.469261722","long":"126.81965277","items":[{"name":"통큰할매순대국감자탕","tel":"032-345-0777","addr":"경기도 부천시 옥길동 710-5번지 1층","category":"일반휴게음식 - 일반한식"}]},{"lat":"37.474711482","long":"126.8247154","items":[{"name":"티아이씨어학원(TIC Kinder English)","tel":"","addr":"경기도 부천시 옥길동 501-7번지","category":"학원 - 외국어학원"}]},{"lat":"37.473513059","long":"126.82465041","items":[{"name":"틴팅팩토리","tel":"02-2611-6266","addr":"경기도 부천시 옥길동 499-7번지 1층 102호","category":"자동차정비 유지 - 카인테리어"}]},{"lat":"37.468067075","long":"126.82204082","items":[{"name":"파리바게뜨부천옥길점","tel":"032-345-7978","addr":"경기도 부천시 옥길동 723-1번지","category":"음료식품 - 제과점"}]},{"lat":"37.469100715","long":"126.82041053","items":[{"name":"팔당냉면","tel":"032-349-8259","addr":"경기도 부천시 옥길동 714-1번지","category":"일반휴게음식 - 일반한식"}]},{"lat":"37.46173603","long":"126.81813392","items":[{"name":"프리미엄헤어살롱차차","tel":"032-344-8120","addr":"경기도 부천시 옥길동 756-1번지 1층","category":"보건위생 - 미용원"},{"name":"피자엠 부천옥길점","tel":"02-6403-7561","addr":"경기도 부천시 옥길동 756-1번지 1층 101호","category":"일반휴게음식 - 서양음식"}]},{"lat":"37.470180051","long":"126.81920966","items":[{"name":"한우리정육점","tel":"032-348-3995","addr":"경기도 부천시 옥길동 703-3번지 1층","category":"음료식품 - 정육점"},{"name":"헨젤","tel":"","addr":"경기도 부천시 옥길동 703-3번지","category":"음료식품 - 제과점"}]},{"lat":"37.471288899","long":"126.82551483","items":[{"name":"항동태권도","tel":"","addr":"경기도 부천시 옥길동 482-4번지 1층 101호","category":"학원 - 예·체능계학원"}]},{"lat":"37.461241471","long":"126.8187681","items":[{"name":"핸드","tel":"031-111-1111","addr":"경기도 부천시 옥길동 756-6번지 1층","category":"일반휴게음식 - 서양음식"}]},{"lat":"37.466650571","long":"126.83287323","items":[{"name":"현가구디자인","tel":"02-2066-6170","addr":"경기도 부천시 옥길동 207-4번지","category":"주방용구 - 주방용구"}]},{"lat":"37.469820268","long":"126.81960618","items":[{"name":"황소갈비","tel":"","addr":"경기도 부천시 옥길동 704-2번지 1층","category":"일반휴게음식 - 일반한식"}]}]