[{"lat":"37.053600988","long":"127.23642773","imageIndex":17,"items":[{"name":"(주)지앤비에스엔지니어링/원격지","tel":"031-698-3010","addr":"경기도 안성시 대덕면 보동리 120-11번지","indutype":"기타 - 기타 전문점","category":"other"},{"name":"씨유안성보동산단점","tel":"031-676-6051","addr":"경기도 안성시 대덕면 보동리 120-11번지","indutype":"유통업 영리 - 편 의 점","category":"other"}]},{"lat":"37.050433908","long":"127.23863265","imageIndex":17,"items":[{"name":"(주)트럼프모터스","tel":"031-673-0017","addr":"경기도 안성시 대덕면 보동리 460-7번지","indutype":"레져용품 - 스포츠·레져용품","category":"other"}]},{"lat":"37.049216276","long":"127.23923593","imageIndex":17,"items":[{"name":"대한냉동","tel":"031-676-7208","addr":"경기도 안성시 대덕면 보동리 460-5번지","indutype":"수리서비스 - 가정용품수리","category":"other"}]},{"lat":"37.058655543","long":"127.24115401","imageIndex":17,"items":[{"name":"바라건대(HOPEFULLY)","tel":"031-653-5729","addr":"경기도 안성시 대덕면 보동리 87번지","indutype":"문화.취미 - 문화취미기타","category":"other"}]},{"lat":"37.044215576","long":"127.25234969","imageIndex":17,"items":[{"name":"삼영플랜트(주)","tel":"031-677-6048","addr":"경기도 안성시 대덕면 보동리 307-3번지","indutype":"기타 - 기계공구","category":"other"}]},{"lat":"37.044104197","long":"127.24959533","imageIndex":17,"items":[{"name":"상욱축산","tel":"031-675-7502","addr":"경기도 안성시 대덕면 보동리 311-3번지","indutype":"기타 - 기계공구","category":"other"}]},{"lat":"37.044270821","long":"127.24304247","imageIndex":17,"items":[{"name":"와코건설기계","tel":"031-677-1111","addr":"경기도 안성시 대덕면 보동리 410-9","indutype":"기타 - 기계공구","category":"other"}]}]