[{"lat":"37.405885704","long":"126.89258981","items":[{"name":"(주) 노루페인트","tel":"","addr":"경기도 안양시 만안구 박달동 615번지","category":"건축자재 - 페인트"}]},{"lat":"37.402854874","long":"126.90951293","items":[{"name":"(주)그린엘이디","tel":"031-441-8806","addr":"경기도 안양시 만안구 박달동 77-5번지","category":"건축자재 - 조명기구"}]},{"lat":"37.405000095","long":"126.91056066","items":[{"name":"(주)디할인마트","tel":"031-445-7500","addr":"경기도 안양시 만안구 박달동 57-7번지 서광아침의빛아파트","category":"유통업 영리 - 슈퍼마켓"},{"name":"신승면식점","tel":"","addr":"경기도 안양시 만안구 박달동 57-7번지 서광아침의빛아파트","category":"일반휴게음식 - 일반한식"},{"name":"쌀눈쌀현미누룽지","tel":"070-4789-2381","addr":"경기도 안양시 만안구 박달동 57-7번지 서광아침의빛아파트","category":"음료식품 - 기타음료식품"},{"name":"옥색신","tel":"031-441-6676","addr":"경기도 안양시 만안구 박달동 57-7번지 서광아침의빛아파트","category":"수리서비스 - 세탁소"},{"name":"킹콩부대찌개테이크아웃안양점","tel":"031-731-9709","addr":"경기도 안양시 만안구 박달동 57-7번지 서광아침의빛아파트","category":"일반휴게음식 - 일반한식"}]},{"lat":"37.407327608","long":"126.89290395","items":[{"name":"(주)바니비","tel":"031-444-5454","addr":"경기도 안양시 만안구 박달동 613-7번지","category":"신변잡화 - 기타잡화"}]},{"lat":"37.401522639","long":"126.91111833","items":[{"name":"(주)블루스테이션","tel":"070-8249-4535","addr":"경기도 안양시 만안구 박달동 68-158번지","category":"사무통신 - 통신기기"},{"name":"장원중화요리","tel":"031-469-9999","addr":"경기도 안양시 만안구 박달동 68-158번지","category":"일반휴게음식 - 중국식"}]},{"lat":"37.406190593","long":"126.89104199","items":[{"name":"(주)신세계푸드 코카콜라 안양물류점","tel":"02-3397-6176","addr":"경기도 안양시 만안구 박달동 621-2번지","category":"일반휴게음식 - 위탁급식업"}]},{"lat":"37.402243484","long":"126.90020736","items":[{"name":"(주)얼티미트코리아","tel":"070-8266-0124","addr":"경기도 안양시 만안구 박달동 157-1번지","category":"레져용품 - 스포츠·레져용품"},{"name":"(주)얼티미트코리아","tel":"031-441-0707","addr":"경기도 안양시 만안구 박달동 157-1번지","category":"회원제형태 - 레져업소"}]},{"lat":"37.405496455","long":"126.91159915","items":[{"name":"21세기프라자","tel":"02-861-7817","addr":"경기도 안양시 만안구 박달동 58-7번지","category":"의류 - 정장"},{"name":"로데오당구장","tel":"031-465-7988","addr":"경기도 안양시 만안구 박달동 58-7번지","category":"레저업소 - 당 구 장"},{"name":"윤채네 중국식품","tel":"","addr":"경기도 안양시 만안구 박달동 58-7번지","category":"음료식품 - 기타음료식품"},{"name":"익화","tel":"031-466-8185","addr":"경기도 안양시 만안구 박달동 58-7번지","category":"보건위생 - 피부미용실"},{"name":"천명로마라탕","tel":"","addr":"경기도 안양시 만안구 박달동 58-7번지","category":"일반휴게음식 - 일반한식"},{"name":"한양족발","tel":"031-468-8853","addr":"경기도 안양시 만안구 박달동 58-7번지","category":"일반휴게음식 - 일반한식"}]},{"lat":"37.401301198","long":"126.90464717","items":[{"name":"59쌀피자안양박달점","tel":"031-465-5982","addr":"경기도 안양시 만안구 박달동 138-2번지","category":"일반휴게음식 - 서양음식"}]},{"lat":"37.403665753","long":"126.90947805","items":[{"name":"60계치킨박달점","tel":"031-469-4794","addr":"경기도 안양시 만안구 박달동 17-4번지","category":"일반휴게음식 - 스넥"},{"name":"경남인테리어","tel":"031-449-1991","addr":"경기도 안양시 만안구 박달동 17-4번지","category":"건축자재 - 인테리어전문"},{"name":"선상음악학원","tel":"031-446-3396","addr":"경기도 안양시 만안구 박달동 17-4번지","category":"학원 - 예·체능계학원"},{"name":"하람토탈공예(POP)","tel":"031-465-4083","addr":"경기도 안양시 만안구 박달동 17-4번지","category":"문화.취미 - 문화취미기타"}]},{"lat":"37.402188865","long":"126.91045117","items":[{"name":"9뷰티","tel":"031-449-0999","addr":"경기도 안양시 만안구 박달동 68-146번지","category":"보건위생 - 피부미용실"},{"name":"구네일샵","tel":"031-449-0999","addr":"경기도 안양시 만안구 박달동 68-146번지","category":"보건위생 - 피부미용실"},{"name":"인정기획","tel":"031-443-1195","addr":"경기도 안양시 만안구 박달동 68-146번지","category":"건축자재 - 목재·석재·철물"}]},{"lat":"37.404520965","long":"126.90853955","items":[{"name":"BYC박달점","tel":"031-446-5466","addr":"경기도 안양시 만안구 박달동 45-2번지","category":"의류 - 내의판매"},{"name":"국수전문점","tel":"","addr":"경기도 안양시 만안구 박달동 45-2번지","category":"일반휴게음식 - 스넥"},{"name":"그린플라워","tel":"031-447-0946","addr":"경기도 안양시 만안구 박달동 45-2번지","category":"문화.취미 - 화원"},{"name":"탱고토이","tel":"070-7652-4610","addr":"경기도 안양시 만안구 박달동 45-2번지","category":"유통업 영리 - 기타유통업"},{"name":"헤어아뜰리에","tel":"031-441-6333","addr":"경기도 안양시 만안구 박달동 45-2번지","category":"보건위생 - 미용원"}]},{"lat":"37.401999698","long":"126.91050787","items":[{"name":"EYE-Q","tel":"031-468-2080","addr":"경기도 안양시 만안구 박달동 68-57번지","category":"보건위생 - 안경"}]},{"lat":"37.406415717","long":"126.911903","items":[{"name":"Egg home","tel":"","addr":"경기도 안양시 만안구 박달동 54-36번지","category":"음료식품 - 농·축·수산품"}]},{"lat":"37.400828422","long":"126.89965589","items":[{"name":"GS25박달신안점","tel":"","addr":"경기도 안양시 만안구 박달동 152번지","category":"유통업 영리 - 편 의 점"},{"name":"신안헤어샵","tel":"031-444-5840","addr":"경기도 안양시 만안구 박달동 152번지","category":"보건위생 - 미용원"},{"name":"욜로","tel":"","addr":"경기도 안양시 만안구 박달동 152번지","category":"일반휴게음식 - 주점"},{"name":"좋은축산","tel":"031-443-9958","addr":"경기도 안양시 만안구 박달동","category":"음료식품 - 정육점"}]},{"lat":"37.403885471","long":"126.89259274","items":[{"name":"H2휘트니스","tel":"031-465-0904","addr":"경기도 안양시 만안구 박달동 616-9번지 대림한숲타운아파트","category":"회원제형태 - 레져업소"},{"name":"강호합기도,킥복싱","tel":"031-342-9420","addr":"경기도 안양시 만안구 박달동 616-9번지","category":"레저업소 - 헬스클럽"},{"name":"다솜어린이집[아이행복]","tel":"031-464-2240","addr":"경기도 안양시 만안구 박달동 616-9번지 대림한숲타운아파트","category":"학원 - 유아원"},{"name":"멕시칸치킨","tel":"031-464-9200","addr":"경기도 안양시 만안구 박달동 616-9번지","category":"일반휴게음식 - 스넥"},{"name":"숙헤어","tel":"031-464-9597","addr":"경기도 안양시 만안구 박달동 616-9번지","category":"보건위생 - 미용원"},{"name":"얼큰네","tel":"031-341-1256","addr":"경기도 안양시 만안구 박달동","category":"일반휴게음식 - 일반한식"},{"name":"한숲공인중개사사무소","tel":"031-446-4545","addr":"경기도 안양시 만안구 박달동 616-9번지","category":"용역 서비스 - 부동산 중개·임대"},{"name":"한숲해법영어교습소","tel":"","addr":"경기도 안양시 만안구 박달동 616-9번지","category":"학원 - 외국어학원"},{"name":"혜화동돈까스극장","tel":"031-464-6160","addr":"경기도 안양시 만안구 박달동 616-9번지","category":"일반휴게음식 - 서양음식"},{"name":"힐링분식","tel":"031-441-0987","addr":"경기도 안양시 만안구 박달동 616-9번지","category":"일반휴게음식 - 스넥"}]},{"lat":"37.402638588","long":"126.90945673","items":[{"name":"HI-DS정비센타","tel":"031-468-9897","addr":"경기도 안양시 만안구 박달동 82-6번지","category":"자동차정비 유지 - 자동차정비"}]},{"lat":"37.404030136","long":"126.89313466","items":[{"name":"I FUN 스쿨","tel":"070-8757-3451","addr":"경기도 안양시 만안구 박달동 616-9번지 대림한숲타운아파트","category":"학원 - 기타 교육기관"},{"name":"한숲어린이집[아이행복]","tel":"031-464-0588","addr":"경기도 안양시 만안구 박달동 616-9번지 대림한숲타운아파트","category":"학원 - 유아원"}]},{"lat":"37.404382161","long":"126.90406713","items":[{"name":"In&Exterior","tel":"031-448-8331","addr":"경기도 안양시 만안구 박달동","category":"회원제형태 - 기타4"},{"name":"숙명어린이집[아이행복]","tel":"031-448-8330","addr":"경기도 안양시 만안구 박달동 838-29번지","category":"학원 - 유아원"}]},{"lat":"37.402131842","long":"126.90673549","items":[{"name":"NEW연세치과","tel":"031-443-2875","addr":"경기도 안양시 만안구 박달동 94-143번지","category":"의원 - 치과의원"},{"name":"대한검도회박달검도관","tel":"031-443-5820","addr":"경기도 안양시 만안구 박달동 94-143번지","category":"레저업소 - 헬스클럽"},{"name":"보보스스포츠","tel":"031-441-1277","addr":"경기도 안양시 만안구 박달동 94-143번지","category":"레저업소 - 골프연습장"},{"name":"에바코리아","tel":"070-7522-2900","addr":"경기도 안양시 만안구 박달동 94-143번지","category":"보건위생 - 미용재료"},{"name":"조아(JOAH)","tel":"","addr":"경기도 안양시 만안구 박달동 94-143번지","category":"일반휴게음식 - 서양음식"},{"name":"지엠에이개념원리수학박달제일학원","tel":"031-465-7749","addr":"경기도 안양시 만안구 박달동 94-143번지","category":"학원 - 보습학원"},{"name":"쭌스크린골프존","tel":"031-466-0753","addr":"경기도 안양시 만안구 박달동 94-143번지","category":"레저업소 - 스크린골프"},{"name":"코딩클라우드학원","tel":"","addr":"경기도 안양시 만안구 박달동 94-143번지","category":"학원 - 기능학원"}]},{"lat":"37.401773427","long":"126.89845743","items":[{"name":"OK노래연습장","tel":"031-441-3892","addr":"경기도 안양시 만안구 박달동 607-20번지","category":"레저업소 - 노 래 방"},{"name":"공예놀이터","tel":"031-447-8818","addr":"경기도 안양시 만안구 박달동 607-20번지","category":"문화.취미 - 민예·공예품"},{"name":"노가리슈퍼","tel":"","addr":"경기도 안양시 만안구 박달동 607-20번지","category":"일반휴게음식 - 일반한식"},{"name":"스마트 인테리어","tel":"031-468-9935","addr":"경기도 안양시 만안구 박달동 607-20번지","category":"건축자재 - 인테리어전문"},{"name":"엣지헤어샵","tel":"031-444-6788","addr":"경기도 안양시 만안구 박달동","category":"보건위생 - 미용원"},{"name":"탑키즈","tel":"","addr":"경기도 안양시 만안구 박달동 607-20번지","category":"신변잡화 - 신발"},{"name":"한일마트","tel":"031-446-3843","addr":"경기도 안양시 만안구 박달동 607-20번지","category":"유통업 영리 - 슈퍼마켓"}]},{"lat":"37.405584333","long":"126.9087641","items":[{"name":"P.K 상사","tel":"031-443-5172","addr":"경기도 안양시 만안구 박달동 22-1번지","category":"의류 - 내의판매"},{"name":"꼬끼오","tel":"031-441-9898","addr":"경기도 안양시 만안구 박달동 22-1번지","category":"일반휴게음식 - 일반한식"},{"name":"다와노래연습장","tel":"031-468-8771","addr":"경기도 안양시 만안구 박달동 22-1번지","category":"레저업소 - 노 래 방"},{"name":"로제코스메틱","tel":"031-465-3013","addr":"경기도 안양시 만안구 박달동 22-1번지","category":"보건위생 - 화장품"},{"name":"미성당","tel":"031-442-3630","addr":"경기도 안양시 만안구 박달동 22-1번지","category":"신변잡화 - 시계"},{"name":"옥이네두루치기","tel":"031-446-6161","addr":"경기도 안양시 만안구 박달동 22-1번지","category":"일반휴게음식 - 일반한식"}]},{"lat":"37.406637688","long":"126.90773496","items":[{"name":"R.P.M카센터","tel":"031-441-3741","addr":"경기도 안양시 만안구 박달동 13-13번지","category":"자동차정비 유지 - 자동차정비"}]},{"lat":"37.40736132","long":"126.91131452","items":[{"name":"YES대리운전","tel":"031-446-4513","addr":"경기도 안양시 만안구 박달동 28-49번지","category":"용역 서비스 - 기타용역서비스"}]},{"lat":"37.407969006","long":"126.88529022","items":[{"name":"YOUN'S GARAGE","tel":"","addr":"경기도 안양시 만안구 박달동 931-7번지","category":"자동차정비 유지 - 카인테리어"}]},{"lat":"37.405938374","long":"126.91215206","items":[{"name":"e(이)남자","tel":"031-464-9922","addr":"경기도 안양시 만안구 박달동 55-21번지","category":"보건위생 - 미용원"},{"name":"금성사","tel":"031-443-5826","addr":"경기도 안양시 만안구 박달동 55-21번지","category":"전기제품 - 가전제품"},{"name":"월드화장품","tel":"031-466-3320","addr":"경기도 안양시 만안구 박달동 55-21번지","category":"보건위생 - 화장품"},{"name":"콘서트노래연습장","tel":"031-441-9052","addr":"경기도 안양시 만안구 박달동 55-21번지","category":"레저업소 - 노 래 방"}]},{"lat":"37.404494331","long":"126.90903653","items":[{"name":"가로등노래연습장","tel":"031-448-1630","addr":"경기도 안양시 만안구 박달동 16-19번지","category":"레저업소 - 노 래 방"},{"name":"요리왕이될사나이","tel":"","addr":"경기도 안양시 만안구 박달동 16-19번지","category":"일반휴게음식 - 일반한식"}]},{"lat":"37.402694123","long":"126.91134279","items":[{"name":"가원떡시루","tel":"031-444-4433","addr":"경기도 안양시 만안구 박달동 74-7번지","category":"음료식품 - 제과점"},{"name":"거성유리","tel":"031-448-2868","addr":"경기도 안양시 만안구 박달동 74-7번지","category":"건축자재 - 유리"},{"name":"블루클럽","tel":"031-448-4422","addr":"경기도 안양시 만안구 박달동 74-7번지","category":"보건위생 - 미용원"}]},{"lat":"37.405161976","long":"126.91017645","items":[{"name":"가위씨랑비씨랑","tel":"031-444-5573","addr":"경기도 안양시 만안구 박달동 56-24번지","category":"보건위생 - 미용원"},{"name":"금성박달판매장","tel":"031-443-5085","addr":"경기도 안양시 만안구 박달동 56-24번지","category":"전기제품 - 가전제품"},{"name":"도담","tel":"","addr":"경기도 안양시 만안구 박달동 56-24번지","category":"일반휴게음식 - 서양음식"}]},{"lat":"37.405774314","long":"126.9097352","items":[{"name":"가은유통","tel":"031-442-6500","addr":"경기도 안양시 만안구 박달동 52-1번지","category":"음료식품 - 정육점"},{"name":"강원물산","tel":"031-442-0302","addr":"경기도 안양시 만안구 박달동 52-1번지","category":"음료식품 - 농·축·수산품"},{"name":"렌탈 홍","tel":"","addr":"경기도 안양시 만안구 박달동 52-1번지","category":"신변잡화 - 기타잡화"},{"name":"명문식당","tel":"031-443-1897","addr":"경기도 안양시 만안구 박달동 52-1번지","category":"일반휴게음식 - 일반한식"},{"name":"문스포츠","tel":"","addr":"경기도 안양시 만안구 박달동 52-1번지","category":"레져용품 - 스포츠·레져용품"},{"name":"바른하우징","tel":"070-7645-5667","addr":"경기도 안양시 만안구 박달동 52-1번지","category":"건축자재 - 목재·석재·철물"},{"name":"세림유통매점","tel":"031-441-5391","addr":"경기도 안양시 만안구 박달동 52-1번지","category":"유통업 영리 - 복지매장"},{"name":"야곱별미누룽지","tel":"031-441-7094","addr":"경기도 안양시 만안구 박달동 52-1번지","category":"음료식품 - 기타음료식품"},{"name":"원조용인집","tel":"031-448-8272","addr":"경기도 안양시 만안구 박달동 52-1번지","category":"일반휴게음식 - 일반한식"},{"name":"정원정육점","tel":"031-441-1994","addr":"경기도 안양시 만안구 박달동 52-1번지","category":"음료식품 - 정육점"},{"name":"종합지물상사","tel":"031-476-1801","addr":"경기도 안양시 만안구 박달동 52-1번지","category":"직물 - 카페트,커튼,천막,지물"},{"name":"지리산만년초식품","tel":"031-465-3131","addr":"경기도 안양시 만안구 박달동","category":"건강식품 - 기타건강식품"},{"name":"한성갱생회경기지부","tel":"031-441-5391","addr":"경기도 안양시 만안구 박달동 52-1번지","category":"유통업 비영리 - 구내매점(국가기관"}]},{"lat":"37.405550148","long":"126.91112472","items":[{"name":"갈채노래연습장","tel":"031-468-7572","addr":"경기도 안양시 만안구 박달동 55-28번지","category":"레저업소 - 노 래 방"},{"name":"다이소 안양박달시장점","tel":"031-441-0080","addr":"경기도 안양시 만안구 박달동 55-28번지","category":"신변잡화 - 기타잡화"}]},{"lat":"37.404883509","long":"126.91126106","items":[{"name":"강남식당","tel":"031-441-3875","addr":"경기도 안양시 만안구 박달동 60-10번지","category":"일반휴게음식 - 일반한식"}]},{"lat":"37.405857154","long":"126.91198273","items":[{"name":"강릉회식당","tel":"031-448-3938","addr":"경기도 안양시 만안구 박달동 55-20번지","category":"일반휴게음식 - 일반한식"},{"name":"구이타운","tel":"070-4129-4188","addr":"경기도 안양시 만안구 박달동 55-20번지","category":"일반휴게음식 - 일반한식"},{"name":"뉴컴백커피맥주","tel":"031-466-7064","addr":"경기도 안양시 만안구 박달동 55-20번지","category":"일반휴게음식 - 서양음식"},{"name":"비스트로7월","tel":"","addr":"경기도 안양시 만안구 박달동 55-20번지","category":"일반휴게음식 - 주점"},{"name":"종화","tel":"031-465-7050","addr":"경기도 안양시 만안구 박달동 55-20번지","category":"보건위생 - 화장품"},{"name":"해피안","tel":"031-442-0401","addr":"경기도 안양시 만안구 박달동 55-20번지","category":"보건위생 - 의료용품"}]},{"lat":"37.403999721","long":"126.91023435","items":[{"name":"개구리반찬","tel":"031-469-7550","addr":"경기도 안양시 만안구 박달동 20-10번지","category":"음료식품 - 기타음료식품"},{"name":"알뜰건어물","tel":"031-448-3129","addr":"경기도 안양시 만안구 박달동 20-10번지","category":"음료식품 - 농·축·수산품"},{"name":"축산물종합판매장","tel":"031-442-5984","addr":"경기도 안양시 만안구 박달동 20-10번지","category":"음료식품 - 정육점"}]},{"lat":"37.402747144","long":"126.91001001","items":[{"name":"개미다방","tel":"031-443-8411","addr":"경기도 안양시 만안구 박달동 18-7번지","category":"일반휴게음식 - 서양음식"},{"name":"이삭토스트안양박달사거리점","tel":"031-444-0113","addr":"경기도 안양시 만안구 박달동 18-7번지","category":"일반휴게음식 - 서양음식"},{"name":"이철수학학원","tel":"031-442-1941","addr":"경기도 안양시 만안구 박달동 18-7번지","category":"학원 - 보습학원"},{"name":"이철영어학원","tel":"031-442-1005","addr":"경기도 안양시 만안구 박달동 18-7번지","category":"학원 - 보습학원"},{"name":"제주도","tel":"031-469-7600","addr":"경기도 안양시 만안구 박달동 18-7번지","category":"일반휴게음식 - 일식·회집"}]},{"lat":"37.40266266","long":"126.9057861","items":[{"name":"거경건축주식회사","tel":"031-447-5800","addr":"경기도 안양시 만안구 박달동 137-23번지","category":"건축자재 - 인테리어전문"}]},{"lat":"37.402609778","long":"126.90723182","items":[{"name":"거인의정원","tel":"","addr":"경기도 안양시 만안구 박달동 99-33번지","category":"일반휴게음식 - 서양음식"},{"name":"미소덴탈","tel":"031-349-2825","addr":"경기도 안양시 만안구 박달동 99-33번지","category":"보건위생 - 의료용품"},{"name":"숲속의향기","tel":"031-445-0100","addr":"경기도 안양시 만안구 박달동 99-33번지","category":"문화.취미 - 화원"}]},{"lat":"37.403441335","long":"126.91053999","items":[{"name":"건국슈퍼","tel":"031-444-7732","addr":"경기도 안양시 만안구 박달동 20-49번지","category":"유통업 영리 - 슈퍼마켓"}]},{"lat":"37.407604206","long":"126.91081725","items":[{"name":"경기방역공사","tel":"031-443-5061","addr":"경기도 안양시 만안구 박달동 28-2번지 미영팰리스","category":"용역 서비스 - 종합용역"}]},{"lat":"37.406107294","long":"126.90923783","items":[{"name":"경기식품","tel":"031-468-4653","addr":"경기도 안양시 만안구 박달동 31-27번지","category":"음료식품 - 기타음료식품"},{"name":"네네치킨 박달점","tel":"031-445-9282","addr":"경기도 안양시 만안구 박달동 31-27번지","category":"일반휴게음식 - 스넥"},{"name":"진주헤어샵","tel":"031-444-8609","addr":"경기도 안양시 만안구 박달동 31-27번지","category":"보건위생 - 미용원"},{"name":"천우당","tel":"031-446-0226","addr":"경기도 안양시 만안구 박달동 31-27번지","category":"음료식품 - 기타음료식품"}]},{"lat":"37.403472424","long":"126.88473253","items":[{"name":"경기중고타이어","tel":"031-443-4949","addr":"경기도 안양시 만안구 박달동","category":"자동차정비 유지 - 자동차시트·타이어"}]},{"lat":"37.402639086","long":"126.9100892","items":[{"name":"경남모직 스쿨베이직 학생복","tel":"031-447-8123","addr":"경기도 안양시 만안구 박달동 18-10번지","category":"의류 - 기타의류"},{"name":"궁헤어","tel":"031-469-5552","addr":"경기도 안양시 만안구 박달동 18-10번지","category":"보건위생 - 미용원"},{"name":"제일노래연습장","tel":"031-444-7404","addr":"경기도 안양시 만안구 박달동 18-10번지","category":"레저업소 - 노 래 방"}]},{"lat":"37.401523067","long":"126.91167174","items":[{"name":"경민야채청과","tel":"031-2653-6772","addr":"경기도 안양시 만안구 박달동 68-86번지","category":"음료식품 - 농·축·수산품"},{"name":"경민야채청과","tel":"031-2653-6772","addr":"경기도 안양시 만안구 박달동 68-86번지 2(박달동2호2층)","category":"음료식품 - 농·축·수산품"}]},{"lat":"37.403996132","long":"126.90576179","items":[{"name":"경열슈퍼","tel":"031-449-2281","addr":"경기도 안양시 만안구 박달동 108-6번지","category":"유통업 영리 - 슈퍼마켓"},{"name":"별하이수학원","tel":"031-345-9184","addr":"경기도 안양시 만안구 박달동 108-6번지","category":"학원 - 보습학원"},{"name":"한탑학원","tel":"031-468-1111","addr":"경기도 안양시 만안구 박달동 108-6번지","category":"학원 - 보습학원"}]},{"lat":"37.403223073","long":"126.90798776","items":[{"name":"경원카센타","tel":"031-448-8007","addr":"경기도 안양시 만안구 박달동 102-7번지","category":"자동차정비 유지 - 자동차정비"},{"name":"자연약초건강원","tel":"031-464-0303","addr":"경기도 안양시 만안구 박달동 102-7번지","category":"건강식품 - 기타건강식품"},{"name":"착한헤어","tel":"02-123-1234","addr":"경기도 안양시 만안구 박달동 102-7번지","category":"보건위생 - 미용원"}]},{"lat":"37.401998299","long":"126.90873471","items":[{"name":"경인기장협동조합","tel":"070-4250-5750","addr":"경기도 안양시 만안구 박달동 85-30번지","category":"음료식품 - 농·축·수산품"}]},{"lat":"37.402689514","long":"126.90557148","items":[{"name":"고기굽는아저씨","tel":"031-446-8745","addr":"경기도 안양시 만안구 박달동 137-1번지","category":"일반휴게음식 - 일반한식"},{"name":"맥주한잔","tel":"031-469-9992","addr":"경기도 안양시 만안구 박달동 137-1번지","category":"일반휴게음식 - 주점"},{"name":"안양클라이밍","tel":"070-8690-3722","addr":"경기도 안양시 만안구 박달동 137-1번지","category":"레저업소 - 기타레져업소"},{"name":"태후사랑","tel":"031-444-5643","addr":"경기도 안양시 만안구 박달동 137-1번지","category":"보건위생 - 화장품"}]},{"lat":"37.401385915","long":"126.89836762","items":[{"name":"고도빌딩","tel":"031-449-7420","addr":"경기도 안양시 만안구 박달동 606-2번지","category":"신변잡화 - 기타잡화"},{"name":"비티수학학원","tel":"031-123-1234","addr":"경기도 안양시 만안구 박달동 606-2번지","category":"학원 - 보습학원"},{"name":"샵(#)꿈터","tel":"031-441-8245","addr":"경기도 안양시 만안구 박달동 606-2번지","category":"보건위생 - 피부미용실"},{"name":"케이스포츠","tel":"031-465-2678","addr":"경기도 안양시 만안구 박달동 606-2번지","category":"레져용품 - 스포츠·레져용품"},{"name":"한일숯불갈비","tel":"031-469-5730","addr":"경기도 안양시 만안구 박달동 606-2번지","category":"일반휴게음식 - 일반한식"}]},{"lat":"37.402771804","long":"126.90703961","items":[{"name":"고두향","tel":"031-445-0204","addr":"경기도 안양시 만안구 박달동 99-18번지","category":"일반휴게음식 - 일반한식"}]},{"lat":"37.402694228","long":"126.91147832","items":[{"name":"고래고래 노래연습장","tel":"031-444-0520","addr":"경기도 안양시 만안구 박달동 74-19번지","category":"레저업소 - 노 래 방"},{"name":"본죽 안양박달점","tel":"031-442-6233","addr":"경기도 안양시 만안구 박달동 74-19번지","category":"일반휴게음식 - 일반한식"}]},{"lat":"37.403693113","long":"126.9098959","items":[{"name":"고려건강원","tel":"031-448-0560","addr":"경기도 안양시 만안구 박달동 20-15번지","category":"건강식품 - 기타건강식품"},{"name":"그녀는예뻤다","tel":"031-445-8866","addr":"경기도 안양시 만안구 박달동 20-15번지","category":"보건위생 - 미용원"}]},{"lat":"37.402332663","long":"126.90998794","items":[{"name":"고려의원","tel":"031-446-8001","addr":"경기도 안양시 만안구 박달동 68-14번지","category":"의원 - 의원"}]},{"lat":"37.405161629","long":"126.90973596","items":[{"name":"고려자연식품","tel":"031-449-4997","addr":"경기도 안양시 만안구 박달동 56-2번지","category":"건강식품 - 기타건강식품"},{"name":"돈닭지글자글","tel":"070-4254-0160","addr":"경기도 안양시 만안구 박달동 56-2번지","category":"일반휴게음식 - 일반한식"},{"name":"박달중국식품","tel":"031-447-5778","addr":"경기도 안양시 만안구 박달동 56-2번지","category":"음료식품 - 기타음료식품"}]},{"lat":"37.405441852","long":"126.91089896","items":[{"name":"고려한의원","tel":"031-427-7577","addr":"경기도 안양시 만안구 박달동 56-19번지","category":"의원 - 한의원"}]},{"lat":"37.403999898","long":"126.91046024","items":[{"name":"고은","tel":"031-221-5550","addr":"경기도 안양시 만안구 박달동 61-9번지","category":"직물 - 침구·수예점"},{"name":"동원떡집","tel":"031-443-7721","addr":"경기도 안양시 만안구 박달동 61-9번지","category":"음료식품 - 제과점"},{"name":"한뚜부","tel":"031-466-7132","addr":"경기도 안양시 만안구 박달동 61-9번지","category":"음료식품 - 기타음료식품"}]},{"lat":"37.401806565","long":"126.9056178","items":[{"name":"고향보쌈","tel":"031-469-5756","addr":"경기도 안양시 만안구 박달동 139-19번지","category":"일반휴게음식 - 일반한식"},{"name":"블루하니","tel":"031-464-9298","addr":"경기도 안양시 만안구 박달동 139-19번지","category":"의류 - 정장"},{"name":"챤스","tel":"031-443-8748","addr":"경기도 안양시 만안구 박달동 139-19번지","category":"일반휴게음식 - 칵테일바"}]},{"lat":"37.404612095","long":"126.90983829","items":[{"name":"골목식당","tel":"031-464-1980","addr":"경기도 안양시 만안구 박달동 21-11번지","category":"일반휴게음식 - 일반한식"},{"name":"맛나반찬","tel":"031-447-9320","addr":"경기도 안양시 만안구 박달동 21-11번지","category":"음료식품 - 기타음료식품"},{"name":"민이네초밥","tel":"070-4306-7184","addr":"경기도 안양시 만안구 박달동 21-11번지","category":"일반휴게음식 - 일식·회집"}]},{"lat":"37.402855919","long":"126.91084565","items":[{"name":"공간꽃방","tel":"031-441-6722","addr":"경기도 안양시 만안구 박달동 19-7번지","category":"문화.취미 - 화원"},{"name":"오땡큐염색헤나샵","tel":"031-447-5535","addr":"경기도 안양시 만안구 박달동 19-7번지","category":"보건위생 - 미용원"},{"name":"우리옷가게","tel":"070-8770-8588","addr":"경기도 안양시 만안구 박달동 19-7번지","category":"의류 - 정장"}]},{"lat":"37.403681436","long":"126.9065641","items":[{"name":"과일나라","tel":"031-449-3794","addr":"경기도 안양시 만안구 박달동 107번지 박달벽산아파트","category":"회원제형태 - 기타1"}]},{"lat":"37.403298676","long":"126.91248277","items":[{"name":"광명설비","tel":"031-447-4598","addr":"경기도 안양시 만안구 박달동 72-1번지","category":"건축자재 - 보일러·펌프·샷시"}]},{"lat":"37.401160423","long":"126.89809688","items":[{"name":"교동식품","tel":"031-468-8200","addr":"경기도 안양시 만안구 박달동 606-13번지","category":"음료식품 - 기타음료식품"}]},{"lat":"37.398568244","long":"126.9012175","items":[{"name":"교보서적","tel":"031-444-9400","addr":"경기도 안양시 만안구 박달동 149-1번지 금호타운","category":"서적문구 - 전문서적"},{"name":"지엔에스에이전시","tel":"031-342-2624","addr":"경기도 안양시 만안구 박달동 149-1번지 금호타운","category":"용역 서비스 - 종합용역"}]},{"lat":"37.402331887","long":"126.90900535","items":[{"name":"교촌치킨 박달사거리점","tel":"031-464-1991","addr":"경기도 안양시 만안구 박달동 85-15번지","category":"일반휴게음식 - 일반한식"},{"name":"전복삼계탕","tel":"031-441-1888","addr":"경기도 안양시 만안구 박달동 85-15번지","category":"일반휴게음식 - 일반한식"}]},{"lat":"37.403778995","long":"126.90467782","items":[{"name":"구구당구클럽","tel":"","addr":"경기도 안양시 만안구 박달동 111-1번지","category":"레저업소 - 당 구 장"},{"name":"용인대태권도의장","tel":"031-441-8778","addr":"경기도 안양시 만안구 박달동 111-1번지","category":"학원 - 예·체능계학원"},{"name":"커피111(COFFEE111)","tel":"031-471-6572","addr":"경기도 안양시 만안구 박달동 111-1번지","category":"일반휴게음식 - 서양음식"}]},{"lat":"37.404494644","long":"126.90943184","items":[{"name":"국왕표치과의원","tel":"031-448-0662","addr":"경기도 안양시 만안구 박달동 21-16번지","category":"의원 - 치과의원"},{"name":"동신요양보호사교육원","tel":"031-443-5895","addr":"경기도 안양시 만안구 박달동 21-16번지","category":"학원 - 기능학원"},{"name":"명품청기와감자탕 안양박달점","tel":"031-469-4040","addr":"경기도 안양시 만안구 박달동 21-16번지","category":"일반휴게음식 - 일반한식"}]},{"lat":"37.402332263","long":"126.9094797","items":[{"name":"국제인지문화협회 안양시지부","tel":"031-466-0909","addr":"경기도 안양시 만안구 박달동 68-8번지","category":"학원 - 기타 교육기관"},{"name":"바우동물병원","tel":"031-443-1280","addr":"경기도 안양시 만안구 박달동 68-8번지","category":"기타의료기관 - 동물병원"},{"name":"바우동물병원","tel":"031-443-1280","addr":"경기도 안양시 만안구 박달동 68-8번지","category":"기타의료기관 - 동물병원"},{"name":"키엘로 디자인","tel":"031-342-0928","addr":"경기도 안양시 만안구 박달동 68-8번지","category":"가구 - 일반가구"}]},{"lat":"37.401996073","long":"126.90597896","items":[{"name":"굴다리돼지갈비박달점","tel":"031-469-8227","addr":"경기도 안양시 만안구 박달동 139-95번지","category":"일반휴게음식 - 일반한식"},{"name":"박달컴퓨터학원","tel":"031-442-4002","addr":"경기도 안양시 만안구 박달동 139-95번지","category":"회원제형태 - 학원"},{"name":"예탑조명","tel":"031-346-0329","addr":"경기도 안양시 만안구 박달동 139-95번지","category":"건축자재 - 조명기구"},{"name":"정철수학학원","tel":"031-469-4003","addr":"경기도 안양시 만안구 박달동 139-95번지","category":"학원 - 보습학원"}]},{"lat":"37.405359189","long":"126.90889992","items":[{"name":"굿스고로케","tel":"031-444-6780","addr":"경기도 안양시 만안구 박달동 22-38번지","category":"일반휴게음식 - 스넥"}]},{"lat":"37.403942183","long":"126.9058974","items":[{"name":"굿아이스백화점","tel":"","addr":"경기도 안양시 만안구 박달동 108-7번지","category":"음료식품 - 기타음료식품"},{"name":"박신혜가게","tel":"","addr":"경기도 안양시 만안구 박달동 108-7번지","category":"일반휴게음식 - 일반한식"},{"name":"스킨테라피","tel":"031-473-8471","addr":"경기도 안양시 만안구 박달동 108-7번지","category":"보건위생 - 피부미용실"},{"name":"합격독서실","tel":"031-444-8310","addr":"경기도 안양시 만안구 박달동 108-7번지","category":"학원 - 독서실"}]},{"lat":"37.406160354","long":"126.90798405","items":[{"name":"권모터스","tel":"031-447-6631","addr":"경기도 안양시 만안구 박달동 14-10번지","category":"자동차판매 - 이륜차판매"},{"name":"좋은공조&보일러","tel":"070-8298-2747","addr":"경기도 안양시 만안구 박달동 14-10번지","category":"건축자재 - 보일러·펌프·샷시"}]},{"lat":"37.402360233","long":"126.91067684","items":[{"name":"권치과의원","tel":"031-447-5844","addr":"경기도 안양시 만안구 박달동 68-21번지","category":"의원 - 치과의원"}]},{"lat":"37.404349819","long":"126.90859623","items":[{"name":"그린(Green)","tel":"031-456-2879","addr":"경기도 안양시 만안구 박달동 45-7번지 삼원연립","category":"의류 - 기타의류"}]},{"lat":"37.404333138","long":"126.91029041","items":[{"name":"그린필세탁소","tel":"031-443-6634","addr":"경기도 안양시 만안구 박달동 60-3번지","category":"수리서비스 - 세탁소"},{"name":"완도건어물","tel":"031-442-9666","addr":"경기도 안양시 만안구 박달동 60-3번지","category":"음료식품 - 농·축·수산품"},{"name":"웰빙 빵박사","tel":"031-469-0049","addr":"경기도 안양시 만안구 박달동 60-3번지","category":"일반휴게음식 - 일반한식"},{"name":"쥬노","tel":"031-443-9757","addr":"경기도 안양시 만안구 박달동 60-3번지","category":"의류 - 정장"},{"name":"청주상회","tel":"031-449-9687","addr":"경기도 안양시 만안구 박달동 60-3번지","category":"음료식품 - 제과점"}]},{"lat":"37.405551132","long":"126.912401","items":[{"name":"그잘난꼼장어","tel":"031-446-0995","addr":"경기도 안양시 만안구 박달동 58-4번지","category":"일반휴게음식 - 주점"}]},{"lat":"37.403052099","long":"126.90825903","items":[{"name":"금강전자산업","tel":"031-446-0412","addr":"경기도 안양시 만안구 박달동 100-12번지","category":"전기제품 - 가전제품"}]},{"lat":"37.404721415","long":"126.9113742","items":[{"name":"금산","tel":"","addr":"경기도 안양시 만안구 박달동 60-14번지","category":"건강식품 - 인삼제품"},{"name":"로페(Rophe)","tel":"031-472-9625","addr":"경기도 안양시 만안구 박달동 60-14번지","category":"일반휴게음식 - 서양음식"},{"name":"머리하는집","tel":"031-441-4505","addr":"경기도 안양시 만안구 박달동 60-14번지","category":"보건위생 - 미용원"}]},{"lat":"37.403189379","long":"126.91095818","items":[{"name":"금산약초","tel":"031-441-4472","addr":"경기도 안양시 만안구 박달동 65-2번지","category":"약국 - 한약방"}]},{"lat":"37.405014741","long":"126.9063365","items":[{"name":"금일용접","tel":"","addr":"경기도 안양시 만안구 박달동 37번지 한신휴플러스타운","category":"용역 서비스 - 기타용역서비스"}]},{"lat":"37.399514408","long":"126.90134045","items":[{"name":"금호가베어린이집[아이행복]","tel":"031-468-1906","addr":"경기도 안양시 만안구 박달동 149-1번지 금호타운","category":"학원 - 유아원"}]},{"lat":"37.398973901","long":"126.90145412","items":[{"name":"금호세탁소","tel":"031-447-9477","addr":"경기도 안양시 만안구 박달동 149-1번지 금호타운","category":"수리서비스 - 세탁소"},{"name":"금호정육점","tel":"031-469-0350","addr":"경기도 안양시 만안구 박달동 149-1번지 금호타운","category":"음료식품 - 정육점"},{"name":"금호학원","tel":"031-444-2221","addr":"경기도 안양시 만안구 박달동 149-1번지","category":"회원제형태 - 학원"},{"name":"김밥킹 박달점","tel":"031-442-0045","addr":"경기도 안양시 만안구 박달동 149-1번지","category":"일반휴게음식 - 스넥"},{"name":"꾼인몰 군인의 모든것","tel":"031-441-6990","addr":"경기도 안양시 만안구 박달동 149-1번지 금호타운","category":"신변잡화 - 기타잡화"},{"name":"로모인테리어","tel":"031-473-3923","addr":"경기도 안양시 만안구 박달동 149-1번지","category":"건축자재 - 인테리어전문"},{"name":"시하커피","tel":"070-4254-0160","addr":"경기도 안양시 만안구 박달동 149-1번지","category":"음료식품 - 기타음료식품"},{"name":"요가포유","tel":"031-465-9809","addr":"경기도 안양시 만안구 박달동 149-1번지","category":"레저업소 - 헬스클럽"},{"name":"원마트","tel":"031-469-0350","addr":"경기도 안양시 만안구 박달동 149-1번지","category":"유통업 영리 - 슈퍼마켓"},{"name":"윤스영어어학원","tel":"031-443-1295","addr":"경기도 안양시 만안구 박달동 149-1번지","category":"학원 - 외국어학원"},{"name":"의정부부대찌개도담","tel":"031-443-9060","addr":"경기도 안양시 만안구 박달동 149-1번지","category":"일반휴게음식 - 일반한식"},{"name":"이주헤어드레서","tel":"031-468-0171","addr":"경기도 안양시 만안구 박달동","category":"보건위생 - 미용원"},{"name":"죠이피아노음악교습소","tel":"031-442-6129","addr":"경기도 안양시 만안구 박달동 149-1번지","category":"학원 - 예·체능계학원"},{"name":"처갓집양념치킨 박달점","tel":"031-468-3392","addr":"경기도 안양시 만안구 박달동 149-1번지","category":"일반휴게음식 - 일반한식"},{"name":"키즈월드팡팡","tel":"031-464-9060","addr":"경기도 안양시 만안구 박달동 149-1번지","category":"레저업소 - 기타레져업소"},{"name":"효경희태권도장","tel":"031-469-8444","addr":"경기도 안양시 만안구 박달동 149-1번지","category":"학원 - 예·체능계학원"}]},{"lat":"37.402693904","long":"126.91106043","items":[{"name":"금화당","tel":"031-447-7971","addr":"경기도 안양시 만안구 박달동 74-2번지","category":"신변잡화 - 시계"},{"name":"박달미용재료","tel":"031-341-2500","addr":"경기도 안양시 만안구 박달동 74-2번지","category":"보건위생 - 미용재료"},{"name":"이(e)-홍주헤어박스","tel":"","addr":"경기도 안양시 만안구 박달동 74-2번지","category":"보건위생 - 미용원"}]},{"lat":"37.404305191","long":"126.90912713","items":[{"name":"기쁨사","tel":"031-469-0243","addr":"경기도 안양시 만안구 박달동 16-10번지","category":"용역 서비스 - 종합용역"},{"name":"쉼터 커피숍","tel":"","addr":"경기도 안양시 만안구 박달동 16-10번지","category":"일반휴게음식 - 서양음식"}]},{"lat":"37.408992249","long":"126.89054084","items":[{"name":"기아자동차구내매점/삼원(담배)","tel":"031-467-5117","addr":"경기도 안양시 만안구 박달동","category":"기타 - 기타 전문점"},{"name":"소윤유통","tel":"031-402-8644","addr":"경기도 안양시 만안구 박달동","category":"음료식품 - 기타음료식품"},{"name":"한솔유통","tel":"031-340-6000","addr":"경기도 안양시 만안구 박달동 635-4번지","category":"음료식품 - 기타음료식품"}]},{"lat":"37.404187277","long":"126.90814466","items":[{"name":"길조장식","tel":"031-444-9863","addr":"경기도 안양시 만안구 박달동 45-20번지","category":"직물 - 카페트,커튼,천막,지물"}]},{"lat":"37.401549296","long":"126.89973396","items":[{"name":"김밥나라","tel":"031-443-8068","addr":"경기도 안양시 만안구 박달동 158-8번지","category":"일반휴게음식 - 일반한식"},{"name":"비벌리스킨케어","tel":"031-465-3008","addr":"경기도 안양시 만안구 박달동 158-8번지","category":"회원제형태 - 기타1"},{"name":"아름다운꽃방","tel":"031-447-0111","addr":"경기도 안양시 만안구 박달동 158-8번지","category":"문화.취미 - 화원"},{"name":"카페쿠잉","tel":"","addr":"경기도 안양시 만안구 박달동 158-8번지","category":"일반휴게음식 - 서양음식"}]},{"lat":"37.408662002","long":"126.88450978","items":[{"name":"김밥세상","tel":"031-447-3999","addr":"경기도 안양시 만안구 박달동 931-14번지","category":"일반휴게음식 - 스넥"},{"name":"세영전기조명","tel":"02-899-9064","addr":"경기도 안양시 만안구 박달동 931-14번지","category":"건축자재 - 조명기구"}]},{"lat":"37.402332947","long":"126.91034935","items":[{"name":"김상욱치과의원","tel":"031-445-3615","addr":"경기도 안양시 만안구 박달동 68-18번지","category":"의원 - 치과의원"},{"name":"대명오토바이","tel":"031-443-0348","addr":"경기도 안양시 만안구 박달동 68-18번지","category":"자동차판매 - 이륜차판매"},{"name":"콩심전주콩나물국밥전문점","tel":"031-443-7006","addr":"경기도 안양시 만안구 박달동 68-18번지","category":"일반휴게음식 - 일반한식"},{"name":"회전초밥스시가","tel":"031-388-2111","addr":"경기도 안양시 만안구 박달동 68-18번지","category":"일반휴게음식 - 일식·회집"}]},{"lat":"37.405577284","long":"126.91126022","items":[{"name":"김서방네곱창볶음","tel":"031-443-5241","addr":"경기도 안양시 만안구 박달동 55-29번지","category":"일반휴게음식 - 일반한식"},{"name":"달팽이뷰티","tel":"","addr":"경기도 안양시 만안구 박달동 55-29번지","category":"보건위생 - 화장품"},{"name":"시티","tel":"031-466-7851","addr":"경기도 안양시 만안구 박달동 55-29번지","category":"레저업소 - 노 래 방"},{"name":"카라헤어","tel":"031-449-9764","addr":"경기도 안양시 만안구 박달동 55-29번지","category":"보건위생 - 미용원"}]},{"lat":"37.402882861","long":"126.91073267","items":[{"name":"김선애뷰티","tel":"031-445-2352","addr":"경기도 안양시 만안구 박달동 19-6번지","category":"회원제형태 - 기타1"}]},{"lat":"37.400805503","long":"126.90447841","items":[{"name":"김앤조영수마스터보습학원","tel":"031-468-4333","addr":"경기도 안양시 만안구 박달동 139-4번지","category":"회원제형태 - 학원"},{"name":"협동축산식품","tel":"031-443-8593","addr":"경기도 안양시 만안구 박달동 139-4번지","category":"음료식품 - 정육점"}]},{"lat":"37.405610985","long":"126.9082897","items":[{"name":"김은미헤이필","tel":"031-443-4900","addr":"경기도 안양시 만안구 박달동 14-4번지","category":"보건위생 - 미용원"},{"name":"비어사케","tel":"031-466-1914","addr":"경기도 안양시 만안구 박달동 14-4번지","category":"일반휴게음식 - 주점"}]},{"lat":"37.402862706","long":"126.90803339","items":[{"name":"김한우","tel":"031-449-8253","addr":"경기도 안양시 만안구 박달동 100-30번지","category":"음료식품 - 정육점"}]},{"lat":"37.401385103","long":"126.89745281","items":[{"name":"김희열탁구교실","tel":"031-449-4583","addr":"경기도 안양시 만안구 박달동 604-25번지","category":"레저업소 - 기타레져업소"},{"name":"돈도담","tel":"031-443-1236","addr":"경기도 안양시 만안구 박달동 604-25번지","category":"일반휴게음식 - 일반한식"},{"name":"오피스디포 서안양점","tel":"031-361-6000","addr":"경기도 안양시 만안구 박달동 604-25번지","category":"사무통신 - 기타 사무용품"},{"name":"주식회사 좋은세상","tel":"070-4820-5277","addr":"경기도 안양시 만안구 박달동 604-25번지","category":"여행 - 관광여행"},{"name":"주식회사좋은세상","tel":"070-4820-5272","addr":"경기도 안양시 만안구 박달동 604-25번지","category":"용역 서비스 - 가례서비스업"}]},{"lat":"37.399695871","long":"126.90281969","items":[{"name":"까사데 밤비니몬테소리어린이집[아이행복]","tel":"031-444-4034","addr":"경기도 안양시 만안구 박달동 139-202번지 극동아파트","category":"학원 - 유아원"},{"name":"데이데이","tel":"02-1234-1234","addr":"경기도 안양시 만안구 박달동 139-202번지","category":"일반휴게음식 - 서양음식"},{"name":"떡달","tel":"031-469-2821","addr":"경기도 안양시 만안구 박달동 139-202번지","category":"일반휴게음식 - 스넥"},{"name":"러블리헤어","tel":"031-465-6955","addr":"경기도 안양시 만안구 박달동 139-202번지","category":"보건위생 - 미용원"},{"name":"예인음악학원","tel":"031-441-1147","addr":"경기도 안양시 만안구 박달동 139-202번지","category":"학원 - 예·체능계학원"},{"name":"정스킨케어","tel":"031-469-8253","addr":"경기도 안양시 만안구 박달동","category":"보건위생 - 화장품"},{"name":"홍익호야미술학원","tel":"031-444-2474","addr":"경기도 안양시 만안구 박달동 139-202번지","category":"학원 - 예·체능계학원"}]},{"lat":"37.401382794","long":"126.90525694","items":[{"name":"깍쟁이헤어샵","tel":"031-466-4759","addr":"경기도 안양시 만안구 박달동 139-26번지","category":"보건위생 - 미용원"}]},{"lat":"37.405412809","long":"126.90834642","items":[{"name":"깨비비어","tel":"","addr":"경기도 안양시 만안구 박달동 15-1번지","category":"일반휴게음식 - 주점"},{"name":"뉴새롬정형외과의원","tel":"031-451-3707","addr":"경기도 안양시 만안구 박달동 15-1번지","category":"의원 - 의원"},{"name":"바로숯닭안양박달점","tel":"031-383-8592","addr":"경기도 안양시 만안구 박달동 15-1번지","category":"일반휴게음식 - 일반한식"},{"name":"바른푸드","tel":"031-444-4799","addr":"경기도 안양시 만안구 박달동 15-1번지","category":"음료식품 - 농·축·수산품"},{"name":"배화골프","tel":"031-441-7553","addr":"경기도 안양시 만안구 박달동 15-1번지","category":"레저업소 - 스크린골프"},{"name":"숙성고기한상","tel":"031-469-7717","addr":"경기도 안양시 만안구 박달동 15-1번지","category":"일반휴게음식 - 일반한식"},{"name":"은빛마을요양원","tel":"031-441-8550","addr":"경기도 안양시 만안구 박달동 15-1번지","category":"기타의료기관 - 기타의료기관 및 기타"},{"name":"카페쉼표","tel":"070-4384-1074","addr":"경기도 안양시 만안구 박달동 15-1번지","category":"일반휴게음식 - 서양음식"},{"name":"케이케이 모바일","tel":"031-445-0128","addr":"경기도 안양시 만안구 박달동 15-1번지","category":"사무통신 - 통신기기"}]},{"lat":"37.405917553","long":"126.90857168","items":[{"name":"꽃이피고","tel":"031-447-7979","addr":"경기도 안양시 만안구 박달동 23-17번지","category":"일반휴게음식 - 서양음식"}]},{"lat":"37.404134633","long":"126.90992924","items":[{"name":"꽃파는 철물점","tel":"","addr":"경기도 안양시 만안구 박달동 21-26번지","category":"문화.취미 - 화원"},{"name":"시골밥상","tel":"","addr":"경기도 안양시 만안구 박달동 21-26번지","category":"일반휴게음식 - 일반한식"},{"name":"현미와누룽지","tel":"","addr":"경기도 안양시 만안구 박달동 21-26번지","category":"음료식품 - 기타음료식품"}]},{"lat":"37.402331582","long":"126.90862135","items":[{"name":"꾸러기소아과의원","tel":"031-466-9475","addr":"경기도 안양시 만안구 박달동 85-9번지","category":"의원 - 의원"},{"name":"대치수학학원","tel":"031-349-0304","addr":"경기도 안양시 만안구 박달동 85-9번지","category":"학원 - 보습학원"},{"name":"생각채움수학학원","tel":"031-442-1489","addr":"경기도 안양시 만안구 박달동 85-9번지","category":"학원 - 보습학원"},{"name":"안양드라이브","tel":"","addr":"경기도 안양시 만안구 박달동 85-9번지","category":"자동차정비 유지 - 자동차부품"},{"name":"하이탑독서실","tel":"031-441-1121","addr":"경기도 안양시 만안구 박달동 85-9번지","category":"학원 - 독서실"}]},{"lat":"37.402000408","long":"126.90043358","items":[{"name":"꾼떡","tel":"031-448-5548","addr":"경기도 안양시 만안구 박달동 157-13번지","category":"일반휴게음식 - 일반한식"},{"name":"본죽(비발디점)","tel":"031-449-6288","addr":"경기도 안양시 만안구 박달동 157-13번지","category":"일반휴게음식 - 일반한식"},{"name":"삼성영어박달학원","tel":"031-465-0579","addr":"경기도 안양시 만안구 박달동 157-13번지","category":"회원제형태 - 학원"},{"name":"슬기주머니미술교습소","tel":"","addr":"경기도 안양시 만안구 박달동 157-13번지","category":"학원 - 예·체능계학원"},{"name":"올림픽태권도교육관","tel":"031-444-8501","addr":"경기도 안양시 만안구 박달동 157-13번지","category":"학원 - 예·체능계학원"},{"name":"청명보습학원","tel":"031-466-9601","addr":"경기도 안양시 만안구 박달동 157-13번지","category":"학원 - 보습학원"},{"name":"카페나무","tel":"070-4411-5548","addr":"경기도 안양시 만안구 박달동 157-13번지","category":"일반휴게음식 - 서양음식"},{"name":"한라비발디해법영어학원","tel":"031-468-0210","addr":"경기도 안양시 만안구 박달동 157-13번지","category":"학원 - 보습학원"},{"name":"행복한베이커리인안양점","tel":"","addr":"경기도 안양시 만안구 박달동 157-13번지","category":"음료식품 - 제과점"},{"name":"호치킨하우스","tel":"031-444-5727","addr":"경기도 안양시 만안구 박달동 157-13번지","category":"일반휴게음식 - 스넥"}]},{"lat":"37.402664982","long":"126.90865481","items":[{"name":"꾼헤어","tel":"031-466-0735","addr":"경기도 안양시 만안구 박달동 86-10번지","category":"보건위생 - 미용원"},{"name":"피닉스레포츠","tel":"031-466-4222","addr":"경기도 안양시 만안구 박달동 86-10번지","category":"레져용품 - 스포츠·레져용품"}]},{"lat":"37.400804672","long":"126.90348455","items":[{"name":"꿈나무문구","tel":"031-469-0959","addr":"경기도 안양시 만안구 박달동 140-9번지","category":"서적문구 - 문구용품"},{"name":"리더스음악교습소","tel":"031-445-7008","addr":"경기도 안양시 만안구 박달동 140-9번지","category":"학원 - 예·체능계학원"}]},{"lat":"37.405162996","long":"126.91148661","items":[{"name":"꿈사랑어린이집[아이행복]","tel":"031-349-8688","addr":"경기도 안양시 만안구 박달동 58-20번지","category":"학원 - 유아원"}]},{"lat":"37.40152227","long":"126.91064399","items":[{"name":"나나헤어","tel":"031-464-1496","addr":"경기도 안양시 만안구 박달동 94-95번지","category":"보건위생 - 미용원"},{"name":"카페수가","tel":"","addr":"경기도 안양시 만안구 박달동 94-95번지","category":"일반휴게음식 - 서양음식"},{"name":"해그린","tel":"031-464-3652","addr":"경기도 안양시 만안구 박달동 94-95번지","category":"음료식품 - 농·축·수산품"}]},{"lat":"37.401472258","long":"126.90448883","items":[{"name":"나우애드","tel":"031-442-0660","addr":"경기도 안양시 만안구 박달동 140-1번지","category":"용역 서비스 - 종합용역"}]},{"lat":"37.406584054","long":"126.90826589","items":[{"name":"나은요양원","tel":"031-441-2266","addr":"경기도 안양시 만안구 박달동 24-4번지","category":"기타의료기관 - 기타의료기관 및 기타"},{"name":"나은혜요양원","tel":"031-441-2266","addr":"경기도 안양시 만안구 박달동 24-4번지","category":"기타의료기관 - 기타의료기관 및 기타"},{"name":"택이네조개전골","tel":"031-469-9292","addr":"경기도 안양시 만안구 박달동 24-4번지","category":"일반휴게음식 - 일반한식"}]},{"lat":"37.40474646","long":"126.90884421","items":[{"name":"나주홍어","tel":"031-444-0589","addr":"경기도 안양시 만안구 박달동 15-4번지","category":"일반휴게음식 - 일반한식"},{"name":"데아헤어","tel":"031-444-1320","addr":"경기도 안양시 만안구 박달동 15-4번지","category":"보건위생 - 미용원"}]},{"lat":"37.404720376","long":"126.91004146","items":[{"name":"남대문곱창순대","tel":"031-447-7432","addr":"경기도 안양시 만안구 박달동 57-3번지","category":"일반휴게음식 - 일반한식"},{"name":"덕산방앗간","tel":"031-466-0382","addr":"경기도 안양시 만안구 박달동 57-3번지","category":"음료식품 - 기타음료식품"},{"name":"빵굽는집","tel":"031-444-6312","addr":"경기도 안양시 만안구 박달동 57-3번지","category":"음료식품 - 제과점"},{"name":"소담축산","tel":"031-402-8414","addr":"경기도 안양시 만안구 박달동 57-3번지","category":"음료식품 - 정육점"},{"name":"장충족발","tel":"031-465-6200","addr":"경기도 안양시 만안구 박달동 57-3번지","category":"일반휴게음식 - 일반한식"},{"name":"중국식품점","tel":"070-8286-8368","addr":"경기도 안양시 만안구 박달동 57-3번지","category":"음료식품 - 기타음료식품"},{"name":"토마토","tel":"031-464-0880","addr":"경기도 안양시 만안구 박달동 57-3번지","category":"음료식품 - 농·축·수산품"}]},{"lat":"37.402694594","long":"126.91195267","items":[{"name":"남도빈대떡","tel":"","addr":"경기도 안양시 만안구 박달동 74-11번지","category":"일반휴게음식 - 일반한식"},{"name":"일이삼(123)노래연습장","tel":"","addr":"경기도 안양시 만안구 박달동 74-11번지","category":"레저업소 - 노 래 방"}]},{"lat":"37.405827488","long":"126.90861697","items":[{"name":"남원추어탕.민물장어구이","tel":"031-449-6348","addr":"경기도 안양시 만안구 박달동 23-21번지","category":"일반휴게음식 - 일반한식"}]},{"lat":"37.406971414","long":"126.90817504","items":[{"name":"네비모아","tel":"031-447-4758","addr":"경기도 안양시 만안구 박달동 24-8번지","category":"회원제형태 - 기타3"}]},{"lat":"37.404691286","long":"126.90745506","items":[{"name":"넥서스영어학원","tel":"031-411-0090","addr":"경기도 안양시 만안구 박달동 34번지","category":"학원 - 외국어학원"},{"name":"한사랑어린이집[아이행복]","tel":"031-443-5003","addr":"경기도 안양시 만안구 박달동 34번지","category":"학원 - 유아원"},{"name":"한신태권도장","tel":"031-466-6669","addr":"경기도 안양시 만안구 박달동","category":"학원 - 예·체능계학원"},{"name":"한우사랑","tel":"031-447-4621","addr":"경기도 안양시 만안구 박달동 34번지","category":"음료식품 - 정육점"},{"name":"행복한음악학원","tel":"031-466-6651","addr":"경기도 안양시 만안구 박달동 34번지","category":"학원 - 예·체능계학원"}]},{"lat":"37.402668307","long":"126.912924","items":[{"name":"노가리랑먹태랑","tel":"","addr":"경기도 안양시 만안구 박달동 75-24번지","category":"일반휴게음식 - 일반한식"},{"name":"추억호프","tel":"031-465-1121","addr":"경기도 안양시 만안구 박달동 75-24번지","category":"일반휴게음식 - 주점"}]},{"lat":"37.402194072","long":"126.90570765","items":[{"name":"노리파크 박달점","tel":"031-447-5612","addr":"경기도 안양시 만안구 박달동 135-5번지","category":"레저업소 - 기타레져업소"},{"name":"밀레니엄","tel":"031-466-1489","addr":"경기도 안양시 만안구 박달동 135-5번지","category":"레저업소 - 노 래 방"},{"name":"뽕잎사랑샤브칼국수보쌈냉면","tel":"031-465-0059","addr":"경기도 안양시 만안구 박달동 135-5번지","category":"일반휴게음식 - 일반한식"},{"name":"삼거리당구장","tel":"031-443-1480","addr":"경기도 안양시 만안구 박달동 135-5번지","category":"레저업소 - 당 구 장"},{"name":"올인스터디센터프리미엄독서실","tel":"031-8845-7862","addr":"경기도 안양시 만안구 박달동 135-5번지","category":"학원 - 독서실"}]},{"lat":"37.404910478","long":"126.89032105","items":[{"name":"녹산방현재","tel":"031-469-8863","addr":"경기도 안양시 만안구 박달동 617-12번지","category":"건축자재 - 기타건축자재"},{"name":"청송막걸리","tel":"031-447-0015","addr":"경기도 안양시 만안구 박달동 617-12번지","category":"음료식품 - 주류 판매점"}]},{"lat":"37.406940413","long":"126.88384609","items":[{"name":"논두렁밭두렁","tel":"031-442-9007","addr":"경기도 안양시 만안구 박달동 822-1번지","category":"일반휴게음식 - 일반한식"}]},{"lat":"37.405577711","long":"126.91181365","items":[{"name":"논산포차","tel":"","addr":"경기도 안양시 만안구 박달동 58-9번지","category":"일반휴게음식 - 일반한식"},{"name":"박리김밥","tel":"031-443-6050","addr":"경기도 안양시 만안구 박달동 58-9번지","category":"일반휴게음식 - 일반한식"},{"name":"스카이노래연습장","tel":"031-446-1563","addr":"경기도 안양시 만안구 박달동 58-9번지","category":"레저업소 - 노 래 방"},{"name":"시골막걸리와 부침개","tel":"031-466-7414","addr":"경기도 안양시 만안구 박달동 58-9번지","category":"일반휴게음식 - 일반한식"}]},{"lat":"37.405692669","long":"126.90903504","items":[{"name":"놀구있네","tel":"031-468-3919","addr":"경기도 안양시 만안구 박달동 22-32번지","category":"일반휴게음식 - 주점"}]},{"lat":"37.404358892","long":"126.90867528","items":[{"name":"농경축산","tel":"031-465-5119","addr":"경기도 안양시 만안구 박달동 46번지","category":"음료식품 - 정육점"},{"name":"열창노래연습장","tel":"031-469-0888","addr":"경기도 안양시 만안구 박달동 46번지","category":"레저업소 - 노 래 방"}]},{"lat":"37.40491659","long":"126.8873167","items":[{"name":"농바우 축산","tel":"070-4137-9292","addr":"경기도 안양시 만안구 박달동 691-3번지","category":"음료식품 - 정육점"},{"name":"주식회사 고깃간","tel":"031-441-9646","addr":"경기도 안양시 만안구 박달동 691-3번지","category":"음료식품 - 정육점"},{"name":"중매인 33번","tel":"031-441-3549","addr":"경기도 안양시 만안구 박달동 691-3번지","category":"음료식품 - 농·축·수산품"},{"name":"중매인8번","tel":"031-468-5520","addr":"경기도 안양시 만안구 박달동 691-3번지","category":"보건위생 - 기타대인서비스"}]},{"lat":"37.402360365","long":"126.91084625","items":[{"name":"농산물직거래장터하서방","tel":"031-468-5301","addr":"경기도 안양시 만안구 박달동 68-23번지","category":"음료식품 - 농·축·수산품"},{"name":"수경왕만두","tel":"031-465-9998","addr":"경기도 안양시 만안구 박달동 68-23번지","category":"일반휴게음식 - 스넥"},{"name":"신일전업사","tel":"031-442-5050","addr":"경기도 안양시 만안구 박달동 68-23번지","category":"건축자재 - 조명기구"},{"name":"파파롱","tel":"","addr":"경기도 안양시 만안구 박달동 68-23번지","category":"일반휴게음식 - 서양음식"}]},{"lat":"37.404026601","long":"126.91004232","items":[{"name":"농협농산물직판장","tel":"031-446-1472","addr":"경기도 안양시 만안구 박달동 20-7번지","category":"음료식품 - 농·축·수산품"},{"name":"옷까페","tel":"031-445-0736","addr":"경기도 안양시 만안구 박달동 20-7번지","category":"의류 - 정장"}]},{"lat":"37.403666693","long":"126.91067524","items":[{"name":"농협안심축산물안양박달시장점","tel":"031-441-7954","addr":"경기도 안양시 만안구 박달동 64-3번지 대동연립","category":"음료식품 - 정육점"},{"name":"묵호수산","tel":"031-464-6532","addr":"경기도 안양시 만안구 박달동 64-3번지 대동연립","category":"일반휴게음식 - 일식·회집"}]},{"lat":"37.403105978","long":"126.90803308","items":[{"name":"뉴엔진소리","tel":"031-441-1964","addr":"경기도 안양시 만안구 박달동 102-11번지","category":"자동차정비 유지 - 자동차정비"},{"name":"티에스엘","tel":"031-695-8270","addr":"경기도 안양시 만안구 박달동 102-11번지","category":"기타 - 기계공구"}]},{"lat":"37.402694446","long":"126.91176067","items":[{"name":"늘봄약국","tel":"031-465-0111","addr":"경기도 안양시 만안구 박달동 74-10번지","category":"약국 - 약국"}]},{"lat":"37.402028385","long":"126.91265371","items":[{"name":"닉스원스포츠","tel":"031-469-3644","addr":"경기도 안양시 만안구 박달동 68-99번지","category":"레져용품 - 스포츠·레져용품"},{"name":"동해포차","tel":"031-444-9567","addr":"경기도 안양시 만안구 박달동 68-99번지","category":"일반휴게음식 - 일반한식"},{"name":"인생술집 (zip)","tel":"031-465-1766","addr":"경기도 안양시 만안구 박달동 68-99번지","category":"일반휴게음식 - 주점"}]},{"lat":"37.404332916","long":"126.91000805","items":[{"name":"다락골","tel":"02-805-3981","addr":"경기도 안양시 만안구 박달동 21-31번지","category":"음료식품 - 기타음료식품"},{"name":"슬기분식","tel":"031-445-1660","addr":"경기도 안양시 만안구 박달동 21-31번지","category":"일반휴게음식 - 스넥"},{"name":"진미통닭","tel":"031-441-0933","addr":"경기도 안양시 만안구 박달동 21-31번지","category":"일반휴게음식 - 스넥"}]},{"lat":"37.401632258","long":"126.9019023","items":[{"name":"다이렉트DM","tel":"031-447-8842","addr":"경기도 안양시 만안구 박달동 127-12번지 신안빌라","category":"용역 서비스 - 사무서비스"}]},{"lat":"37.405107194","long":"126.90926166","items":[{"name":"다이브 PC방","tel":"070-7627-5976","addr":"경기도 안양시 만안구 박달동 22-6번지","category":"레저업소 - 기타레져업소"},{"name":"바니슬라임","tel":"070-4090-6010","addr":"경기도 안양시 만안구 박달동 22-6번지","category":"신변잡화 - 기타잡화"},{"name":"서울하나재활의학과의원","tel":"031-441-7575","addr":"경기도 안양시 만안구 박달동 22-6번지","category":"의원 - 의원"},{"name":"서울현치과","tel":"031-466-2275","addr":"경기도 안양시 만안구 박달동 22-6번지","category":"의원 - 치과의원"},{"name":"쌈지","tel":"031-465-1575","addr":"경기도 안양시 만안구 박달동 22-6번지","category":"신변잡화 - 신발"},{"name":"판다팜(박달점)","tel":"031-466-4344","addr":"경기도 안양시 만안구 박달동 22-6번지","category":"유통업 영리 - 슈퍼마켓"}]},{"lat":"37.402332788","long":"126.91014605","items":[{"name":"다이아통신","tel":"070-4214-2422","addr":"경기도 안양시 만안구 박달동 68-16번지","category":"사무통신 - 통신기기"},{"name":"박달이엠학원","tel":"031-469-6611","addr":"경기도 안양시 만안구 박달동 68-16번지","category":"학원 - 보습학원"},{"name":"법무사방창호사무소","tel":"031-464-8811","addr":"경기도 안양시 만안구 박달동 68-16번지","category":"용역 서비스 - 법률회계서비스(개인)"},{"name":"일약국","tel":"031-468-3354","addr":"경기도 안양시 만안구 박달동 68-16번지","category":"약국 - 약국"}]},{"lat":"37.406133677","long":"126.90842458","items":[{"name":"다인토탈","tel":"031-445-8844","addr":"경기도 안양시 만안구 박달동 23-3번지","category":"사무통신 - 기타 사무용품"},{"name":"헤어가위","tel":"031-433-1263","addr":"경기도 안양시 만안구 박달동 23-3번지","category":"보건위생 - 미용원"}]},{"lat":"37.403048529","long":"126.90389947","items":[{"name":"닥터장가정의학과","tel":"031-464-8777","addr":"경기도 안양시 만안구 박달동","category":"의원 - 의원"}]},{"lat":"37.400913699","long":"126.90456862","items":[{"name":"단미화장품","tel":"031-443-6404","addr":"경기도 안양시 만안구 박달동 139-3번지","category":"보건위생 - 화장품"},{"name":"종로떡집","tel":"031-446-9961","addr":"경기도 안양시 만안구 박달동 139-3번지","category":"음료식품 - 제과점"}]},{"lat":"37.402360733","long":"126.91132061","items":[{"name":"단발머리","tel":"031-442-8894","addr":"경기도 안양시 만안구 박달동 68-29번지","category":"보건위생 - 미용원"},{"name":"썬노래연습장","tel":"031-442-8214","addr":"경기도 안양시 만안구 박달동 68-29번지","category":"레저업소 - 노 래 방"},{"name":"올스본코리아","tel":"031-469-7002","addr":"경기도 안양시 만안구 박달동 68-29번지","category":"보건위생 - 의료용품"},{"name":"홀시드카페(WHOLESEEDCAFE)","tel":"","addr":"경기도 안양시 만안구 박달동 68-29번지","category":"일반휴게음식 - 서양음식"}]},{"lat":"37.405631876","long":"126.91194912","items":[{"name":"달콩카페","tel":"031-442-0011","addr":"경기도 안양시 만안구 박달동 58-10번지","category":"일반휴게음식 - 서양음식"},{"name":"한키반7080라이브","tel":"031-349-4050","addr":"경기도 안양시 만안구 박달동 58-10번지","category":"일반휴게음식 - 주점"}]},{"lat":"37.404720047","long":"126.90962357","items":[{"name":"담미","tel":"031-448-0077","addr":"경기도 안양시 만안구 박달동 21-4번지","category":"음료식품 - 제과점"},{"name":"박달착한수산","tel":"","addr":"경기도 안양시 만안구 박달동 21-4번지","category":"음료식품 - 농·축·수산품"},{"name":"흥부가반해버리고놀부가기절한닭강정","tel":"","addr":"경기도 안양시 만안구 박달동 21-4번지","category":"일반휴게음식 - 스넥"}]},{"lat":"37.402361326","long":"126.9120886","items":[{"name":"당진아구동태탕찜","tel":"031-441-0013","addr":"경기도 안양시 만안구 박달동 68-39번지","category":"일반휴게음식 - 일반한식"},{"name":"질러짱노래연습장","tel":"031-441-3067","addr":"경기도 안양시 만안구 박달동 68-39번지","category":"레저업소 - 노 래 방"}]},{"lat":"37.406412862","long":"126.9082661","items":[{"name":"대가집숯불갈비","tel":"031-466-0355","addr":"경기도 안양시 만안구 박달동 23-1번지","category":"일반휴게음식 - 일반한식"},{"name":"종점다방","tel":"031-449-2366","addr":"경기도 안양시 만안구 박달동 23-1번지","category":"일반휴게음식 - 서양음식"},{"name":"풍기삼계탕","tel":"031-442-2399","addr":"경기도 안양시 만안구 박달동 23-1번지","category":"일반휴게음식 - 일반한식"}]},{"lat":"37.403053708","long":"126.91029199","items":[{"name":"대관령화로구이","tel":"031-465-9988","addr":"경기도 안양시 만안구 박달동 20-35번지","category":"일반휴게음식 - 일반한식"},{"name":"더에스(S) 필라테스","tel":"031-755-7303","addr":"경기도 안양시 만안구 박달동 20-35번지","category":"레저업소 - 헬스클럽"},{"name":"보람광고","tel":"031-466-4292","addr":"경기도 안양시 만안구 박달동 20-35번지","category":"용역 서비스 - 종합용역"}]},{"lat":"37.400661988","long":"126.90525787","items":[{"name":"대광건업","tel":"031-446-8637","addr":"경기도 안양시 만안구 박달동 139-89번지","category":"건축자재 - 인테리어전문"}]},{"lat":"37.406634452","long":"126.89357135","items":[{"name":"대림포장","tel":"031-465-9215","addr":"경기도 안양시 만안구 박달동 613-4번지","category":"기타 - 기타 전문점"}]},{"lat":"37.402862552","long":"126.90784139","items":[{"name":"대마족발박달점","tel":"031-442-8253","addr":"경기도 안양시 만안구 박달동 100-17번지","category":"일반휴게음식 - 일반한식"},{"name":"친구머리방","tel":"031-441-9737","addr":"경기도 안양시 만안구 박달동 100-17번지","category":"보건위생 - 미용원"}]},{"lat":"37.404494964","long":"126.90983844","items":[{"name":"대박떡집","tel":"031-464-1980","addr":"경기도 안양시 만안구 박달동 21-37번지","category":"음료식품 - 제과점"},{"name":"찬마루","tel":"031-464-1126","addr":"경기도 안양시 만안구 박달동 21-37번지","category":"음료식품 - 기타음료식품"}]},{"lat":"37.404747184","long":"126.90975906","items":[{"name":"대안수산","tel":"031-444-5706","addr":"경기도 안양시 만안구 박달동 21-6번지","category":"음료식품 - 농·축·수산품"},{"name":"박달농수산","tel":"031-990-1560","addr":"경기도 안양시 만안구 박달동 21-6번지","category":"음료식품 - 농·축·수산품"},{"name":"박서방꽈배기","tel":"031-469-2184","addr":"경기도 안양시 만안구 박달동 21-6번지","category":"일반휴게음식 - 일반한식"},{"name":"봉란옥한식부페","tel":"031-466-5585","addr":"경기도 안양시 만안구 박달동 21-6번지","category":"일반휴게음식 - 일반한식"},{"name":"앵콜노래연습장","tel":"031-465-4777","addr":"경기도 안양시 만안구 박달동 21-6번지","category":"레저업소 - 노 래 방"},{"name":"족발천국","tel":"031-448-4878","addr":"경기도 안양시 만안구 박달동 21-6번지","category":"일반휴게음식 - 일반한식"},{"name":"하이목장","tel":"031-445-2407","addr":"경기도 안양시 만안구 박달동 21-6번지","category":"음료식품 - 정육점"}]},{"lat":"37.404467166","long":"126.90886715","items":[{"name":"대운강정이랑치킨","tel":"031-442-8966","addr":"경기도 안양시 만안구 박달동 16-1번지","category":"일반휴게음식 - 스넥"},{"name":"바렌티노","tel":"031-444-7427","addr":"경기도 안양시 만안구 박달동 16-1번지","category":"신변잡화 - 신발"},{"name":"옷사랑","tel":"031-468-8902","addr":"경기도 안양시 만안구 박달동 16-1번지","category":"의류 - 정장"},{"name":"우품우거지품은순대국","tel":"031-447-4580","addr":"경기도 안양시 만안구 박달동 16-1번지","category":"일반휴게음식 - 일반한식"},{"name":"호프광장","tel":"031-443-2897","addr":"경기도 안양시 만안구 박달동 16-1번지","category":"일반휴게음식 - 주점"}]},{"lat":"37.402022536","long":"126.90528999","items":[{"name":"대원개발(주)","tel":"031-464-4800","addr":"경기도 안양시 만안구 박달동 137-5번지","category":"자동차정비 유지 - 주차장"},{"name":"대원스파","tel":"031-464-4800","addr":"경기도 안양시 만안구 박달동 137-5번지","category":"보건위생 - 사우나"},{"name":"대원종합관리(주)","tel":"031-464-2900","addr":"경기도 안양시 만안구 박달동 137-5번지","category":"자동차정비 유지 - 주차장"},{"name":"동림한의원","tel":"031-464-6700","addr":"경기도 안양시 만안구 박달동 137-5번지","category":"의원 - 한의원"},{"name":"미소샘치과의원","tel":"031-441-2872","addr":"경기도 안양시 만안구 박달동 137-5번지","category":"의원 - 치과의원"},{"name":"미앤미","tel":"031-446-3479","addr":"경기도 안양시 만안구 박달동 137-5번지","category":"보건위생 - 화장품"},{"name":"행복식당","tel":"031-464-4800","addr":"경기도 안양시 만안구 박달동 137-5번지","category":"유통업 영리 - 슈퍼마켓"}]},{"lat":"37.40699858","long":"126.90834443","items":[{"name":"대원자동차유리","tel":"031-466-5633","addr":"경기도 안양시 만안구 박달동 24-6번지","category":"자동차정비 유지 - 자동차부품"},{"name":"이끌림","tel":"031-464-7776","addr":"경기도 안양시 만안구 박달동 24-6번지","category":"일반휴게음식 - 주점"},{"name":"자명본초원","tel":"031-449-0458","addr":"경기도 안양시 만안구 박달동 24-6번지","category":"약국 - 한약방"}]},{"lat":"37.40410738","long":"126.90964691","items":[{"name":"대원해물탕","tel":"031-444-5556","addr":"경기도 안양시 만안구 박달동 21-22번지","category":"일반휴게음식 - 일반한식"},{"name":"와와노래연습장","tel":"031-468-2040","addr":"경기도 안양시 만안구 박달동 21-22번지","category":"레저업소 - 노 래 방"},{"name":"화룡양꼬치","tel":"031-442-0008","addr":"경기도 안양시 만안구 박달동 21-22번지","category":"일반휴게음식 - 일반한식"}]},{"lat":"37.409859613","long":"126.883785","items":[{"name":"더 네이쳐 스팀","tel":"","addr":"경기도 안양시 만안구 박달동 926번지","category":"자동차정비 유지 - 세차장"}]},{"lat":"37.402360619","long":"126.91117378","items":[{"name":"더 숲 필라테스","tel":"","addr":"경기도 안양시 만안구 박달동 68-27번지","category":"레저업소 - 헬스클럽"},{"name":"별이빛나는밤에","tel":"031-449-8060","addr":"경기도 안양시 만안구 박달동 68-27번지","category":"일반휴게음식 - 주점"},{"name":"펀비어킹","tel":"031-441-3535","addr":"경기도 안양시 만안구 박달동 68-27번지","category":"일반휴게음식 - 주점"}]},{"lat":"37.410077717","long":"126.88564837","items":[{"name":"더 카(the car)","tel":"031-1577-9476","addr":"경기도 안양시 만안구 박달동 922-5번지","category":"자동차정비 유지 - 자동차정비"},{"name":"후퍼옵틱광명역","tel":"00-1577-9476","addr":"경기도 안양시 만안구 박달동 922-5번지","category":"자동차정비 유지 - 카인테리어"}]},{"lat":"37.402718907","long":"126.90848533","items":[{"name":"더봄안경원","tel":"031-441-5007","addr":"경기도 안양시 만안구 박달동 100-2번지 동화팰리스","category":"보건위생 - 안경"},{"name":"아임네일","tel":"","addr":"경기도 안양시 만안구 박달동 100-2번지 동화팰리스","category":"보건위생 - 피부미용실"}]},{"lat":"37.402803251","long":"126.91265278","items":[{"name":"덕창공업사","tel":"031-443-6831","addr":"경기도 안양시 만안구 박달동 75-13번지","category":"용역 서비스 - 기타용역서비스"},{"name":"볼음도치킨","tel":"","addr":"경기도 안양시 만안구 박달동 75-13번지","category":"일반휴게음식 - 스넥"}]},{"lat":"37.403665628","long":"126.90931993","items":[{"name":"데니스숯불바베큐","tel":"031-445-3437","addr":"경기도 안양시 만안구 박달동 17-1번지","category":"일반휴게음식 - 일반한식"},{"name":"토르마린 조은쉼터","tel":"031-444-9982","addr":"경기도 안양시 만안구 박달동 17-1번지","category":"보건위생 - 피부미용실"}]},{"lat":"37.40494424","long":"126.90829054","items":[{"name":"데니스커피 박달점","tel":"","addr":"경기도 안양시 만안구 박달동 15-2번지 박달동동원베네스트","category":"일반휴게음식 - 서양음식"},{"name":"막썰어세꼬시회","tel":"031-466-7898","addr":"경기도 안양시 만안구 박달동 15-2번지 박달동동원베네스트","category":"일반휴게음식 - 일식·회집"},{"name":"맨뉴당구장","tel":"031-441-9693","addr":"경기도 안양시 만안구 박달동 15-2번지 박달동동원베네스트","category":"레저업소 - 당 구 장"},{"name":"박달콩나물해장국","tel":"031-445-8880","addr":"경기도 안양시 만안구 박달동 15-2번지 박달동동원베네스트","category":"일반휴게음식 - 일반한식"},{"name":"한결텔레콤2","tel":"031-468-8916","addr":"경기도 안양시 만안구 박달동 15-2번지 박달동동원베네스트","category":"사무통신 - 통신기기"}]},{"lat":"37.409887731","long":"126.8848693","items":[{"name":"덱스크루 안양점","tel":"031-444-1031","addr":"경기도 안양시 만안구 박달동 924-3번지","category":"자동차정비 유지 - 카인테리어"}]},{"lat":"37.404387331","long":"126.91045976","items":[{"name":"도깨비족발","tel":"","addr":"경기도 안양시 만안구 박달동 60-4번지","category":"일반휴게음식 - 일반한식"}]},{"lat":"37.404659558","long":"126.9129555","items":[{"name":"도배장판나라","tel":"","addr":"경기도 안양시 만안구 박달동 63-17번지","category":"용역 서비스 - 기타용역서비스"},{"name":"한성데이타통신","tel":"031-444-3900","addr":"경기도 안양시 만안구 박달동 63-17번지","category":"사무통신 - 통신기기"}]},{"lat":"37.401285708","long":"126.90774173","items":[{"name":"도서출판잠언","tel":"0502-300-7878","addr":"경기도 안양시 만안구 박달동 85번지 우성아파트","category":"서적문구 - 전문서적"}]},{"lat":"37.404272253","long":"126.91312538","items":[{"name":"동네포차","tel":"031-443-1104","addr":"경기도 안양시 만안구 박달동 70-5번지","category":"일반휴게음식 - 주점"}]},{"lat":"37.405640205","long":"126.91106813","items":[{"name":"동북반점","tel":"031-340-7991","addr":"경기도 안양시 만안구 박달동 55-27번지","category":"일반휴게음식 - 일반한식"},{"name":"춘천닭갈비막국수","tel":"031-441-9159","addr":"경기도 안양시 만안구 박달동 55-27번지","category":"일반휴게음식 - 일반한식"}]},{"lat":"37.410077336","long":"126.88526433","items":[{"name":"동심","tel":"031-344-0777","addr":"경기도 안양시 만안구 박달동 923-3번지","category":"서적문구 - 일반서적"},{"name":"미래에듀","tel":"","addr":"경기도 안양시 만안구 박달동 923-3번지","category":"서적문구 - 기타서적문구"}]},{"lat":"37.403973035","long":"126.91067487","items":[{"name":"동안스킨케어","tel":"031-441-0141","addr":"경기도 안양시 만안구 박달동 61-43번지","category":"보건위생 - 화장품"}]},{"lat":"37.405548419","long":"126.90892227","items":[{"name":"동안정보통신","tel":"031-468-4343","addr":"경기도 안양시 만안구 박달동 22-25번지","category":"사무통신 - 통신기기"}]},{"lat":"37.4026369","long":"126.90734473","items":[{"name":"동우카서비스","tel":"031-468-4979","addr":"경기도 안양시 만안구 박달동 99-13번지","category":"자동차정비 유지 - 자동차정비"}]},{"lat":"37.404882513","long":"126.90998479","items":[{"name":"두리농산물","tel":"031-468-5876","addr":"경기도 안양시 만안구 박달동 57-1번지","category":"음료식품 - 농·축·수산품"},{"name":"명품닭고기","tel":"031-449-3470","addr":"경기도 안양시 만안구 박달동 57-1번지","category":"음료식품 - 정육점"},{"name":"아동복","tel":"031-448-6115","addr":"경기도 안양시 만안구 박달동 57-1번지","category":"의류 - 아동의류"},{"name":"충북상회","tel":"031-468-1967","addr":"경기도 안양시 만안구 박달동 57-1번지","category":"의류 - 내의판매"}]},{"lat":"37.404349828","long":"126.90860753","items":[{"name":"두리쌀김치","tel":"","addr":"경기도 안양시 만안구 박달동 45-7번지 삼원연립","category":"음료식품 - 농·축·수산품"}]},{"lat":"37.404466724","long":"126.90831373","items":[{"name":"두리아치킨박달점","tel":"031-446-9229","addr":"경기도 안양시 만안구 박달동 45-3번지","category":"일반휴게음식 - 스넥"},{"name":"신나는점핑다이어트","tel":"070-8621-1131","addr":"경기도 안양시 만안구 박달동 45-3번지","category":"건강식품 - 기타건강식품"},{"name":"에삐케이크(ep.cake)","tel":"","addr":"경기도 안양시 만안구 박달동 45-3번지","category":"일반휴게음식 - 서양음식"},{"name":"장미영헤어샵","tel":"031-466-4861","addr":"경기도 안양시 만안구 박달동 45-3번지","category":"보건위생 - 미용원"},{"name":"참사랑한약국","tel":"031-447-7119","addr":"경기도 안양시 만안구 박달동 45-3번지","category":"약국 - 약국"}]},{"lat":"37.402361091","long":"126.91178366","items":[{"name":"두씨네","tel":"031-443-5140","addr":"경기도 안양시 만안구 박달동 68-35번지","category":"일반휴게음식 - 일반한식"},{"name":"라파엘온가족건강운동교실","tel":"031-448-0448","addr":"경기도 안양시 만안구 박달동 68-35번지","category":"보건위생 - 기타대인서비스"},{"name":"박달선술집","tel":"031-466-9229","addr":"경기도 안양시 만안구 박달동 68-35번지","category":"일반휴게음식 - 일반한식"},{"name":"반석기업","tel":"070-7793-1235","addr":"경기도 안양시 만안구 박달동 68-35번지","category":"건축자재 - 건축용 요업제품"},{"name":"여초밥","tel":"031-447-4264","addr":"경기도 안양시 만안구 박달동 68-35번지","category":"일반휴게음식 - 일식·회집"}]},{"lat":"37.402388805","long":"126.91267586","items":[{"name":"두툼한고깃집","tel":"031-465-6092","addr":"경기도 안양시 만안구 박달동 68-108번지","category":"일반휴게음식 - 일반한식"},{"name":"아트플라워","tel":"","addr":"경기도 안양시 만안구 박달동 68-108번지","category":"문화.취미 - 화원"},{"name":"유턴세계맥주","tel":"070-4300-9464","addr":"경기도 안양시 만안구 박달동 68-108번지","category":"일반휴게음식 - 주점"}]},{"lat":"37.40305407","long":"126.91075505","items":[{"name":"두현(풍성)상회","tel":"070-7007-0000","addr":"경기도 안양시 만안구 박달동 20-42번지","category":"음료식품 - 농·축·수산품"}]},{"lat":"37.404195706","long":"126.90742181","items":[{"name":"두화빌딩","tel":"031-466-9468","addr":"경기도 안양시 만안구 박달동 44-5번지","category":"용역 서비스 - 부동산 중개·임대"},{"name":"명동왕만두","tel":"031-443-9907","addr":"경기도 안양시 만안구 박달동 44-5번지","category":"일반휴게음식 - 일반한식"},{"name":"빅토리아돈까스파스타","tel":"031-441-0906","addr":"경기도 안양시 만안구 박달동 44-5번지","category":"일반휴게음식 - 서양음식"},{"name":"아이스크림전문점","tel":"","addr":"경기도 안양시 만안구 박달동 44-5번지","category":"음료식품 - 기타음료식품"},{"name":"이보영의토킹클럽박달어학원","tel":"031-448-0506","addr":"경기도 안양시 만안구 박달동 44-5번지","category":"학원 - 외국어학원"},{"name":"크린화이트","tel":"031-448-6605","addr":"경기도 안양시 만안구 박달동 44-5번지","category":"수리서비스 - 세탁소"},{"name":"한일지물","tel":"031-448-1311","addr":"경기도 안양시 만안구 박달동 44-5번지","category":"직물 - 카페트,커튼,천막,지물"}]},{"lat":"37.407634107","long":"126.88376593","items":[{"name":"둥근상시골집 광명점","tel":"031-465-6656","addr":"경기도 안양시 만안구 박달동 810-8번지","category":"일반휴게음식 - 일반한식"}]},{"lat":"37.403302357","long":"126.90576269","items":[{"name":"드뷔시피아노교습소","tel":"031-445-0311","addr":"경기도 안양시 만안구 박달동","category":"학원 - 예·체능계학원"},{"name":"보꼬네파스타","tel":"031-346-7942","addr":"경기도 안양시 만안구 박달동 108-17번지","category":"일반휴게음식 - 서양음식"}]},{"lat":"37.407107714","long":"126.90962061","items":[{"name":"득은유통","tel":"031-765-1562","addr":"경기도 안양시 만안구 박달동 25-21번지","category":"음료식품 - 농·축·수산품"}]},{"lat":"37.405028123","long":"126.9118482","items":[{"name":"디시50 (D/C50)","tel":"","addr":"경기도 안양시 만안구 박달동 59-26번지","category":"주방용구 - 주방용식기"}]},{"lat":"37.405161736","long":"126.9098715","items":[{"name":"땡백화점","tel":"031-441-0455","addr":"경기도 안양시 만안구 박달동 56-4번지","category":"유통업 영리 - 슈퍼마켓"}]},{"lat":"37.401223316","long":"126.90858886","items":[{"name":"또래또어린이집[아이행복]","tel":"031-464-3311","addr":"경기도 안양시 만안구 박달동 94-99번지","category":"학원 - 유아원"}]},{"lat":"37.403801234","long":"126.90989577","items":[{"name":"또와유청정명태간장조림","tel":"031-465-3392","addr":"경기도 안양시 만안구 박달동 20-2번지","category":"일반휴게음식 - 일반한식"},{"name":"슈프림짐","tel":"","addr":"경기도 안양시 만안구 박달동 20-2번지","category":"레저업소 - 헬스클럽"},{"name":"안양 바다낚시터","tel":"031-442-3331","addr":"경기도 안양시 만안구 박달동 20-2번지","category":"레저업소 - 기타레져업소"},{"name":"자이언트PC","tel":"031-555-2580","addr":"경기도 안양시 만안구 박달동 20-2번지","category":"레저업소 - 기타레져업소"}]},{"lat":"37.405188463","long":"126.90948745","items":[{"name":"뚱보식당","tel":"031-447-2037","addr":"경기도 안양시 만안구 박달동 22-10번지","category":"일반휴게음식 - 일반한식"},{"name":"박달곱창볶음","tel":"031-443-4294","addr":"경기도 안양시 만안구 박달동 22-10번지","category":"일반휴게음식 - 일반한식"}]},{"lat":"37.40346703","long":"126.90884581","items":[{"name":"띵호","tel":"","addr":"경기도 안양시 만안구 박달동 79-21번지","category":"일반휴게음식 - 중국식"}]},{"lat":"37.404133108","long":"126.9080092","items":[{"name":"라온헤어","tel":"031-383-0070","addr":"경기도 안양시 만안구 박달동 45-18번지","category":"보건위생 - 미용원"},{"name":"보고싶꽃","tel":"","addr":"경기도 안양시 만안구 박달동 45-18번지","category":"문화.취미 - 화원"},{"name":"신토불이","tel":"031-444-8295","addr":"경기도 안양시 만안구 박달동 45-18번지","category":"일반휴게음식 - 일반한식"}]},{"lat":"37.410166828","long":"126.88465425","items":[{"name":"라인콤 전자","tel":"031-465-9353","addr":"경기도 안양시 만안구 박달동 924-1번지","category":"신변잡화 - 기타잡화"}]},{"lat":"37.40538766","long":"126.9107296","items":[{"name":"라임 (Lime)","tel":"","addr":"경기도 안양시 만안구 박달동 56-18번지","category":"의류 - 정장"},{"name":"케이씨국제상무주식회사","tel":"031-349-8282","addr":"경기도 안양시 만안구 박달동 56-18번지","category":"유통업 영리 - 기타유통업"},{"name":"탑열쇠","tel":"031-381-2333","addr":"경기도 안양시 만안구 박달동 56-18번지","category":"기타 - 기계공구"}]},{"lat":"37.404304163","long":"126.90783957","items":[{"name":"런던떡볶이","tel":"031-464-1664","addr":"경기도 안양시 만안구 박달동 45-9번지","category":"일반휴게음식 - 스넥"},{"name":"머리못하는집","tel":"031-443-9002","addr":"경기도 안양시 만안구 박달동 45-9번지","category":"보건위생 - 미용원"},{"name":"크린토피아 안양박달점","tel":"031-349-6667","addr":"경기도 안양시 만안구 박달동 45-9번지","category":"수리서비스 - 세탁소"}]},{"lat":"37.404800825","long":"126.90922816","items":[{"name":"레드","tel":"031-446-4860","addr":"경기도 안양시 만안구 박달동 22-17번지","category":"일반휴게음식 - 주점"},{"name":"박달남대문안경","tel":"031-446-6628","addr":"경기도 안양시 만안구 박달동 22-17번지","category":"보건위생 - 안경"}]},{"lat":"37.403995545","long":"126.90505025","items":[{"name":"레드헤어","tel":"031-444-0086","addr":"경기도 안양시 만안구 박달동 111-1번지 신한아파트","category":"회원제형태 - 학원"}]},{"lat":"37.398522315","long":"126.90020115","items":[{"name":"레이헤어","tel":"031-469-7073","addr":"경기도 안양시 만안구 박달동 149-12번지 다청림카운티","category":"보건위생 - 미용원"},{"name":"안양문구센타","tel":"031-443-7001","addr":"경기도 안양시 만안구 박달동 149-12번지 다청림카운티","category":"서적문구 - 문구용품"},{"name":"인조이베이킹","tel":"","addr":"경기도 안양시 만안구 박달동 149-12번지 다청림카운티","category":"문화.취미 - 문화취미기타"}]},{"lat":"37.399683985","long":"126.89947676","items":[{"name":"렌느제이","tel":"","addr":"경기도 안양시 만안구 박달동 150번지 브라운스톤하나마을","category":"보건위생 - 화장품"}]},{"lat":"37.401914853","long":"126.90582095","items":[{"name":"로더헤어 (hair by L'odeur)","tel":"031-444-0100","addr":"경기도 안양시 만안구 박달동 139-9번지","category":"보건위생 - 미용원"},{"name":"무안박속연포탕","tel":"031-464-9575","addr":"경기도 안양시 만안구 박달동 139-9번지","category":"일반휴게음식 - 일반한식"},{"name":"약초아이","tel":"","addr":"경기도 안양시 만안구 박달동 139-9번지","category":"건강식품 - 기타건강식품"}]},{"lat":"37.402361221","long":"126.91195307","items":[{"name":"로뎀보습학원","tel":"031-443-0755","addr":"경기도 안양시 만안구 박달동 68-37번지","category":"학원 - 보습학원"},{"name":"소백산참숯불갈비","tel":"031-465-8283","addr":"경기도 안양시 만안구 박달동 68-37번지","category":"일반휴게음식 - 일반한식"},{"name":"엠커피팩토리","tel":"031-472-8123","addr":"경기도 안양시 만안구 박달동 68-37번지","category":"일반휴게음식 - 서양음식"}]},{"lat":"37.404801466","long":"126.91004136","items":[{"name":"로뎀장수원","tel":"031-448-8276","addr":"경기도 안양시 만안구 박달동 57-2번지","category":"건강식품 - 기타건강식품"}]},{"lat":"37.405722254","long":"126.91231044","items":[{"name":"로소PC방","tel":"031-449-5871","addr":"경기도 안양시 만안구 박달동 58-3번지","category":"레저업소 - 기타레져업소"},{"name":"무한리필고기굼터","tel":"","addr":"경기도 안양시 만안구 박달동 58-3번지","category":"일반휴게음식 - 일반한식"}]},{"lat":"37.405195292","long":"126.90676546","items":[{"name":"루나플라워","tel":"031-447-6707","addr":"경기도 안양시 만안구 박달동 38-4번지","category":"문화.취미 - 화원"},{"name":"빵드리아","tel":"031-444-8757","addr":"경기도 안양시 만안구 박달동 38-4번지","category":"음료식품 - 제과점"},{"name":"우신정육점","tel":"070-7007-5050","addr":"경기도 안양시 만안구 박달동 38-4번지","category":"음료식품 - 정육점"},{"name":"한신수입코너","tel":"031-465-4987","addr":"경기도 안양시 만안구 박달동 38-4번지","category":"의류 - 정장"},{"name":"한신헤어갤러리","tel":"031-442-9659","addr":"경기도 안양시 만안구 박달동 38-4번지","category":"보건위생 - 미용원"}]},{"lat":"37.40075133","long":"126.90434295","items":[{"name":"르네상스헤어샵","tel":"031-446-3187","addr":"경기도 안양시 만안구 박달동 139-5번지","category":"보건위생 - 미용원"},{"name":"진미","tel":"031-448-1814","addr":"경기도 안양시 만안구 박달동 139-5번지","category":"일반휴게음식 - 스넥"},{"name":"키즈스타","tel":"031-405-4404","addr":"경기도 안양시 만안구 박달동 139-5번지","category":"학원 - 기타 교육기관"},{"name":"한솔플러스영어수학학원","tel":"031-468-4688","addr":"경기도 안양시 만안구 박달동 139-5번지","category":"회원제형태 - 학원"}]},{"lat":"37.40221507","long":"126.90940079","items":[{"name":"마르샤","tel":"031-442-8660","addr":"경기도 안양시 만안구 박달동 68-7번지 라벤더빌리지","category":"회원제형태 - 기타4"}]},{"lat":"37.405063209","long":"126.91061706","items":[{"name":"마벨","tel":"031-464-1727","addr":"경기도 안양시 만안구 박달동 57-7번지 서광아침의빛아파트","category":"문화.취미 - 문화취미기타"}]},{"lat":"37.40157671","long":"126.90017439","items":[{"name":"마산아구찜","tel":"031-464-3060","addr":"경기도 안양시 만안구 박달동 157-26번지","category":"일반휴게음식 - 일반한식"},{"name":"안양예일보습학원","tel":"031-464-9966","addr":"경기도 안양시 만안구 박달동","category":"학원 - 보습학원"},{"name":"여명태권도장","tel":"031-442-3462","addr":"경기도 안양시 만안구 박달동 157-26번지","category":"학원 - 예·체능계학원"}]},{"lat":"37.402668478","long":"126.91314988","items":[{"name":"마이분","tel":"031-468-4202","addr":"경기도 안양시 만안구 박달동 75-18번지","category":"의류 - 정장"},{"name":"박가네숯불껍데기","tel":"031-477-1705","addr":"경기도 안양시 만안구 박달동 75-18번지","category":"일반휴게음식 - 일반한식"},{"name":"열린정보통신(2호점)","tel":"031-465-7658","addr":"경기도 안양시 만안구 박달동 75-18번지","category":"사무통신 - 통신기기"},{"name":"작은공간","tel":"031-441-2509","addr":"경기도 안양시 만안구 박달동 75-18번지","category":"일반휴게음식 - 주점"}]},{"lat":"37.404999359","long":"126.90962322","items":[{"name":"만두나라","tel":"031-443-7321","addr":"경기도 안양시 만안구 박달동 22-21번지","category":"일반휴게음식 - 스넥"},{"name":"박달떡집","tel":"031-441-8907","addr":"경기도 안양시 만안구 박달동 22-21번지","category":"음료식품 - 제과점"},{"name":"완도특산물","tel":"031-466-5073","addr":"경기도 안양시 만안구 박달동 22-21번지","category":"음료식품 - 기타음료식품"},{"name":"홍콩호프","tel":"070-4042-1628","addr":"경기도 안양시 만안구 박달동 22-21번지","category":"일반휴게음식 - 서양음식"}]},{"lat":"37.405942705","long":"126.88626473","items":[{"name":"만보기사식당","tel":"031-449-1404","addr":"경기도 안양시 만안구 박달동 684번지","category":"일반휴게음식 - 일반한식"},{"name":"이레마트","tel":"031-443-4654","addr":"경기도 안양시 만안구 박달동 684번지","category":"유통업 영리 - 슈퍼마켓"}]},{"lat":"37.406412527","long":"126.9078482","items":[{"name":"만복순대국","tel":"031-465-5351","addr":"경기도 안양시 만안구 박달동 13-11번지","category":"일반휴게음식 - 일반한식"}]},{"lat":"37.401385575","long":"126.89798362","items":[{"name":"만복순대국","tel":"031-469-5351","addr":"경기도 안양시 만안구 박달동 606-28번지","category":"일반휴게음식 - 일반한식"}]},{"lat":"37.406081073","long":"126.91026567","items":[{"name":"만안유치원[아이행복]","tel":"031-449-0089","addr":"경기도 안양시 만안구 박달동 52-13번지","category":"학원 - 유치원"}]},{"lat":"37.406719132","long":"126.90817536","items":[{"name":"만안재가주야간보호센터","tel":"031-442-7707","addr":"경기도 안양시 만안구 박달동 24-3번지","category":"기타의료기관 - 기타의료기관 및 기타"},{"name":"삼성기업","tel":"031-466-4156","addr":"경기도 안양시 만안구 박달동 24-3번지","category":"주방용구 - 주방용구"}]},{"lat":"37.402167541","long":"126.90631756","items":[{"name":"맘마호프광장","tel":"031-393-5554","addr":"경기도 안양시 만안구 박달동 139-8번지","category":"일반휴게음식 - 주점"}]},{"lat":"37.402498327","long":"126.90319996","items":[{"name":"맛집반찬","tel":"031-466-9288","addr":"경기도 안양시 만안구 박달동 114-6번지","category":"음료식품 - 기타음료식품"},{"name":"비발디맥시칸치킨호프","tel":"031-444-8686","addr":"경기도 안양시 만안구 박달동 114-6번지","category":"일반휴게음식 - 주점"},{"name":"비발디치과의원","tel":"031-464-2876","addr":"경기도 안양시 만안구 박달동 114-6번지","category":"의원 - 치과의원"},{"name":"여우와늑대","tel":"031-464-0354","addr":"경기도 안양시 만안구 박달동 114-6번지","category":"보건위생 - 미용원"},{"name":"윤스빨강머리","tel":"031-464-0467","addr":"경기도 안양시 만안구 박달동 114-6번지","category":"보건위생 - 미용원"},{"name":"크린토피아한라비발디점","tel":"031-443-7722","addr":"경기도 안양시 만안구 박달동 114-6번지","category":"수리서비스 - 세탁소"},{"name":"한라마트","tel":"031-464-0270","addr":"경기도 안양시 만안구 박달동 114-6번지","category":"유통업 영리 - 슈퍼마켓"},{"name":"한라비발디음악학원","tel":"031-464-0511","addr":"경기도 안양시 만안구 박달동 114-6번지","category":"학원 - 예·체능계학원"},{"name":"한라세탁소","tel":"031-464-3657","addr":"경기도 안양시 만안구 박달동 114-6번지","category":"수리서비스 - 세탁소"},{"name":"한라한우정육점","tel":"031-464-1400","addr":"경기도 안양시 만안구 박달동 114-6번지","category":"음료식품 - 정육점"}]},{"lat":"37.405467265","long":"126.90884331","items":[{"name":"머슴아컷","tel":"031-471-9978","addr":"경기도 안양시 만안구 박달동 22-37번지","category":"보건위생 - 미용원"},{"name":"시흥곱창","tel":"031-444-3483","addr":"경기도 안양시 만안구 박달동 22-37번지","category":"일반휴게음식 - 일반한식"},{"name":"에스스터디학원","tel":"","addr":"경기도 안양시 만안구 박달동 22-37번지","category":"학원 - 보습학원"},{"name":"줌바댄스","tel":"070-8236-4308","addr":"경기도 안양시 만안구 박달동 22-37번지","category":"레저업소 - 헬스클럽"},{"name":"포토디자인","tel":"031-469-3747","addr":"경기도 안양시 만안구 박달동 22-37번지","category":"서적문구 - 출판 및 인쇄물"}]},{"lat":"37.40330281","long":"126.90631611","items":[{"name":"메디콜","tel":"031-466-4077","addr":"경기도 안양시 만안구 박달동","category":"보건위생 - 의료용품"},{"name":"박달바둑학원","tel":"031-469-4606","addr":"경기도 안양시 만안구 박달동","category":"학원 - 기타 교육기관"},{"name":"벽산세탁소","tel":"031-445-3173","addr":"경기도 안양시 만안구 박달동","category":"수리서비스 - 세탁소"},{"name":"스마일네일","tel":"031-465-7701","addr":"경기도 안양시 만안구 박달동 107번지","category":"보건위생 - 피부미용실"},{"name":"자연을닮은어린이집[아이행복]","tel":"031-445-3386","addr":"경기도 안양시 만안구 박달동 107번지 박달벽산아파트","category":"학원 - 유아원"},{"name":"정헤어센스미용실","tel":"031-466-2644","addr":"경기도 안양시 만안구 박달동 107번지","category":"보건위생 - 미용원"},{"name":"한성메디칼","tel":"02-867-9950","addr":"경기도 안양시 만안구 박달동","category":"보건위생 - 의료용품"}]},{"lat":"37.402360856","long":"126.91147872","items":[{"name":"메모리스타","tel":"031-446-5898","addr":"경기도 안양시 만안구 박달동 68-31번지","category":"일반휴게음식 - 서양음식"},{"name":"착한순대국","tel":"031-466-2169","addr":"경기도 안양시 만안구 박달동 68-31번지","category":"일반휴게음식 - 일반한식"}]},{"lat":"37.403461975","long":"126.90269044","items":[{"name":"메이텐","tel":"","addr":"경기도 안양시 만안구 박달동 114번지 한라비발디아파트","category":"의류 - 아동의류"},{"name":"살롱드로사","tel":"070-8690-2836","addr":"경기도 안양시 만안구 박달동 114번지 한라비발디아파트","category":"학원 - 기능학원"}]},{"lat":"37.402694958","long":"126.91242703","items":[{"name":"메이펑","tel":"","addr":"경기도 안양시 만안구 박달동 74-16번지","category":"일반휴게음식 - 중국식"},{"name":"선녀보살","tel":"","addr":"경기도 안양시 만안구 박달동 74-16번지","category":"보건위생 - 기타대인서비스"},{"name":"에코씽크","tel":"031-464-3350","addr":"경기도 안양시 만안구 박달동 74-16번지","category":"회원제형태 - 기타3"}]},{"lat":"37.401882919","long":"126.91095978","items":[{"name":"면천추어탕","tel":"031-471-8435","addr":"경기도 안양시 만안구 박달동 68-64번지","category":"일반휴게음식 - 일반한식"},{"name":"수작","tel":"031-441-1905","addr":"경기도 안양시 만안구 박달동 68-64번지","category":"일반휴게음식 - 주점"}]},{"lat":"37.402360986","long":"126.91164813","items":[{"name":"명가식당","tel":"031-447-5421","addr":"경기도 안양시 만안구 박달동 68-33번지","category":"일반휴게음식 - 일반한식"}]},{"lat":"37.403608541","long":"126.90557029","items":[{"name":"명광전기","tel":"031-471-0027","addr":"경기도 안양시 만안구 박달동 108번지","category":"전기제품 - 기타전기제품"},{"name":"몽그랑땡","tel":"031-466-9015","addr":"경기도 안양시 만안구 박달동 108번지","category":"문화.취미 - 애완동물"},{"name":"피플책대여점","tel":"02-809-2053","addr":"경기도 안양시 만안구 박달동 108번지","category":"서적문구 - 일반서적"},{"name":"하레미용실","tel":"","addr":"경기도 안양시 만안구 박달동 108번지","category":"보건위생 - 미용원"}]},{"lat":"37.402665769","long":"126.9096487","items":[{"name":"명성사","tel":"031-468-6106","addr":"경기도 안양시 만안구 박달동 82-7번지","category":"직물 - 카페트,커튼,천막,지물"}]},{"lat":"37.406080039","long":"126.90895549","items":[{"name":"명인당약국","tel":"031-443-4500","addr":"경기도 안양시 만안구 박달동 23-20번지","category":"약국 - 약국"}]},{"lat":"37.400384828","long":"126.90790098","items":[{"name":"명작","tel":"031-469-3316","addr":"경기도 안양시 만안구 박달동","category":"의류 - 기타의류"},{"name":"미니슈퍼","tel":"070-4922-1261","addr":"경기도 안양시 만안구 박달동 85번지","category":"음료식품 - 기타음료식품"},{"name":"미니스톱 안양우성점","tel":"031-1577-9621","addr":"경기도 안양시 만안구 박달동 85번지","category":"유통업 영리 - 편 의 점"},{"name":"미소에스헤어샵","tel":"031-796-2554","addr":"경기도 안양시 만안구 박달동 85번지","category":"보건위생 - 미용원"},{"name":"엘림음악학원","tel":"031-469-3123","addr":"경기도 안양시 만안구 박달동 85번지","category":"학원 - 예·체능계학원"},{"name":"우성미술학원","tel":"031-446-4010","addr":"경기도 안양시 만안구 박달동 85번지","category":"학원 - 예·체능계학원"},{"name":"우성분식","tel":"031-441-5525","addr":"경기도 안양시 만안구 박달동 85번지","category":"일반휴게음식 - 스넥"},{"name":"우성인테리어","tel":"031-442-2488","addr":"경기도 안양시 만안구 박달동 85번지","category":"직물 - 카페트,커튼,천막,지물"},{"name":"이현옥헤어아트","tel":"031-447-4211","addr":"경기도 안양시 만안구 박달동 85번지","category":"보건위생 - 미용원"},{"name":"잉큐영어학원","tel":"031-441-8205","addr":"경기도 안양시 만안구 박달동","category":"회원제형태 - 학원"},{"name":"태풍합기도태권도장","tel":"031-443-5333","addr":"경기도 안양시 만안구 박달동 85번지","category":"학원 - 예·체능계학원"},{"name":"파스텔코리아","tel":"031-452-6300","addr":"경기도 안양시 만안구 박달동","category":"직물 - 카페트,커튼,천막,지물"},{"name":"행운청과2호점","tel":"031-445-8249","addr":"경기도 안양시 만안구 박달동 85번지","category":"음료식품 - 농·축·수산품"}]},{"lat":"37.4020503","long":"126.90618219","items":[{"name":"모모수학학원","tel":"","addr":"경기도 안양시 만안구 박달동 139-18번지","category":"학원 - 보습학원"},{"name":"불티나","tel":"031-443-9904","addr":"경기도 안양시 만안구 박달동 139-18번지","category":"일반휴게음식 - 일반한식"},{"name":"소라헤어짱","tel":"031-442-1252","addr":"경기도 안양시 만안구 박달동 139-18번지","category":"보건위생 - 미용원"},{"name":"차이","tel":"031-441-3984","addr":"경기도 안양시 만안구 박달동 139-18번지","category":"일반휴게음식 - 중국식"}]},{"lat":"37.403548694","long":"126.90956855","items":[{"name":"문성보습어학학원","tel":"031-441-8400","addr":"경기도 안양시 만안구 박달동","category":"학원 - 기타 교육기관"},{"name":"빌보드","tel":"031-444-9924","addr":"경기도 안양시 만안구 박달동 17-6번지","category":"일반휴게음식 - 주점"},{"name":"팔도참숯갈비","tel":"031-449-9321","addr":"경기도 안양시 만안구 박달동 17-6번지","category":"일반휴게음식 - 일반한식"}]},{"lat":"37.405917876","long":"126.90897829","items":[{"name":"뮤지컬","tel":"031-466-1024","addr":"경기도 안양시 만안구 박달동 23-6번지","category":"일반휴게음식 - 주점"},{"name":"좋은친구들","tel":"","addr":"경기도 안양시 만안구 박달동 23-6번지","category":"일반휴게음식 - 일반한식"},{"name":"해송식당","tel":"031-448-5002","addr":"경기도 안양시 만안구 박달동 23-6번지","category":"일반휴게음식 - 일반한식"},{"name":"화풍초벌구이","tel":"031-441-5252","addr":"경기도 안양시 만안구 박달동 23-6번지","category":"일반휴게음식 - 일반한식"}]},{"lat":"37.400025013","long":"126.90863553","items":[{"name":"미래전자","tel":"031-469-4165","addr":"경기도 안양시 만안구 박달동 85번지 우성아파트","category":"전기제품 - 기타전기제품"},{"name":"풀수학","tel":"031-444-0971","addr":"경기도 안양시 만안구 박달동 85번지 우성아파트","category":"회원제형태 - 서적"}]},{"lat":"37.404834346","long":"126.90609955","items":[{"name":"미리별어린이집[아이행복]","tel":"031-466-2801","addr":"경기도 안양시 만안구 박달동 37번지 한신휴플러스타운","category":"학원 - 유아원"}]},{"lat":"37.402331275","long":"126.90823735","items":[{"name":"미세계","tel":"031-446-5157","addr":"경기도 안양시 만안구 박달동 85-5번지","category":"보건위생 - 화장품"},{"name":"우성외과의원","tel":"031-446-5157","addr":"경기도 안양시 만안구 박달동 85-5번지","category":"의원 - 의원"}]},{"lat":"37.401331356","long":"126.90848708","items":[{"name":"미스터박헤어모델","tel":"031-445-1243","addr":"경기도 안양시 만안구 박달동","category":"보건위생 - 미용원"}]},{"lat":"37.404134107","long":"126.90926287","items":[{"name":"미스터보쌈","tel":"031-443-5389","addr":"경기도 안양시 만안구 박달동 16-17번지","category":"일반휴게음식 - 일반한식"},{"name":"태양수도종합설비","tel":"031-449-1360","addr":"경기도 안양시 만안구 박달동 16-17번지","category":"용역 서비스 - 기타용역서비스"}]},{"lat":"37.400967411","long":"126.90415067","items":[{"name":"미켈족발보쌈","tel":"","addr":"경기도 안양시 만안구 박달동 140-29번지","category":"일반휴게음식 - 일반한식"}]},{"lat":"37.405440504","long":"126.90918218","items":[{"name":"민물천국","tel":"031-441-0592","addr":"경기도 안양시 만안구 박달동 22-29번지","category":"일반휴게음식 - 일반한식"},{"name":"박달수산","tel":"031-444-1480","addr":"경기도 안양시 만안구 박달동 22-29번지","category":"일반휴게음식 - 일반한식"},{"name":"통큰칼국수","tel":"031-446-0567","addr":"경기도 안양시 만안구 박달동 22-29번지","category":"일반휴게음식 - 스넥"}]},{"lat":"37.404107948","long":"126.91036975","items":[{"name":"민속떡집","tel":"031-468-4902","addr":"경기도 안양시 만안구 박달동 61-1번지","category":"음료식품 - 제과점"},{"name":"박달수산","tel":"","addr":"경기도 안양시 만안구 박달동 61-1번지","category":"음료식품 - 농·축·수산품"},{"name":"착한과일","tel":"","addr":"경기도 안양시 만안구 박달동 61-1번지","category":"음료식품 - 농·축·수산품"}]},{"lat":"37.401553686","long":"126.90489531","items":[{"name":"민속방아간","tel":"031-468-9386","addr":"경기도 안양시 만안구 박달동 138-13번지","category":"음료식품 - 제과점"},{"name":"성도 안경원","tel":"031-445-5586","addr":"경기도 안양시 만안구 박달동 138-13번지","category":"보건위생 - 안경"},{"name":"써니아이스","tel":"031-473-1739","addr":"경기도 안양시 만안구 박달동 138-13번지","category":"음료식품 - 기타음료식품"},{"name":"에이스 하우스","tel":"031-464-9500","addr":"경기도 안양시 만안구 박달동 138-13번지","category":"건축자재 - 인테리어전문"},{"name":"청암유리","tel":"031-446-3162","addr":"경기도 안양시 만안구 박달동 138-13번지","category":"건축자재 - 유리"},{"name":"퍼플아이스","tel":"","addr":"경기도 안양시 만안구 박달동 138-13번지","category":"음료식품 - 기타음료식품"}]},{"lat":"37.400804899","long":"126.9037556","items":[{"name":"민카인드","tel":"031-465-0904","addr":"경기도 안양시 만안구 박달동 140-25번지","category":"일반휴게음식 - 서양음식"},{"name":"치킨플러스","tel":"031-446-4666","addr":"경기도 안양시 만안구 박달동 140-25번지","category":"일반휴게음식 - 일반한식"}]},{"lat":"37.402407586","long":"126.90244337","items":[{"name":"바느질하다","tel":"","addr":"경기도 안양시 만안구 박달동 114번지 한라비발디아파트","category":"신변잡화 - 가방"}]},{"lat":"37.405748062","long":"126.91072916","items":[{"name":"바닐라","tel":"031-441-4788","addr":"경기도 안양시 만안구 박달동 56-17번지","category":"보건위생 - 미용원"},{"name":"영심이먹거리","tel":"","addr":"경기도 안양시 만안구 박달동 56-17번지","category":"일반휴게음식 - 일반한식"}]},{"lat":"37.408409472","long":"126.88426168","items":[{"name":"바움더","tel":"031-465-0519","addr":"경기도 안양시 만안구 박달동 932-2번지","category":"일반휴게음식 - 일반한식"},{"name":"바움스하우스","tel":"031-443-5661","addr":"경기도 안양시 만안구 박달동 932-2번지","category":"일반휴게음식 - 서양음식"},{"name":"백합칼국수","tel":"031-465-5600","addr":"경기도 안양시 만안구 박달동 932-2번지","category":"일반휴게음식 - 일반한식"}]},{"lat":"37.410220639","long":"126.88440567","items":[{"name":"바이제이","tel":"031-342-5151","addr":"경기도 안양시 만안구 박달동 924-9번지","category":"자동차정비 유지 - 자동차부품"}]},{"lat":"37.403584341","long":"126.90907155","items":[{"name":"박달1동주민자치위원회","tel":"031-8045-3874","addr":"경기도 안양시 만안구 박달동 50-2번지","category":"문화.취미 - 문화취미기타"},{"name":"우일어린이집[아이행복]","tel":"031-445-0305","addr":"경기도 안양시 만안구 박달동 50-2번지","category":"학원 - 유아원"}]},{"lat":"37.408553995","long":"126.8846229","items":[{"name":"박달감자탕","tel":"031-466-2229","addr":"경기도 안양시 만안구 박달동 931-13번지","category":"일반휴게음식 - 일반한식"}]},{"lat":"37.403440618","long":"126.90962515","items":[{"name":"박달노래연습장","tel":"031-466-2796","addr":"경기도 안양시 만안구 박달동","category":"레저업소 - 노 래 방"}]},{"lat":"37.40099493","long":"126.90473792","items":[{"name":"박달배드민턴","tel":"031-466-6285","addr":"경기도 안양시 만안구 박달동 139-2번지","category":"레져용품 - 스포츠·레져용품"},{"name":"크린토피아박달안양고점","tel":"031-465-9288","addr":"경기도 안양시 만안구 박달동 139-2번지","category":"수리서비스 - 세탁소"}]},{"lat":"37.403889454","long":"126.90753514","items":[{"name":"박달복싱","tel":"031-444-1211","addr":"경기도 안양시 만안구 박달동 103-2번지","category":"회원제형태 - 레져업소"},{"name":"신바람노래연습장","tel":"031-465-1228","addr":"경기도 안양시 만안구 박달동 103-2번지","category":"레저업소 - 노 래 방"},{"name":"오부장치킨","tel":"031-4659-9994","addr":"경기도 안양시 만안구 박달동 103-2번지","category":"일반휴게음식 - 스넥"},{"name":"온양반점","tel":"031-443-1513","addr":"경기도 안양시 만안구 박달동 103-2번지","category":"일반휴게음식 - 중국식"}]},{"lat":"37.40293878","long":"126.91314956","items":[{"name":"박달불교사","tel":"031-466-0058","addr":"경기도 안양시 만안구 박달동 75-4번지","category":"기타 - 기타 전문점"}]},{"lat":"37.404665387","long":"126.9088669","items":[{"name":"박달연세치과의원","tel":"031-445-6626","addr":"경기도 안양시 만안구 박달동 15-6번지","category":"의원 - 치과의원"},{"name":"비타민당구장","tel":"031-465-5544","addr":"경기도 안양시 만안구 박달동 15-6번지","category":"레저업소 - 당 구 장"},{"name":"스타노래연습장","tel":"031-466-8091","addr":"경기도 안양시 만안구 박달동 15-6번지","category":"레저업소 - 노 래 방"}]},{"lat":"37.402331762","long":"126.90884723","items":[{"name":"박달점굽네치킨","tel":"031-442-9294","addr":"경기도 안양시 만안구 박달동 85-13번지","category":"일반휴게음식 - 주점"},{"name":"유건생활철물","tel":"01-9165-9162","addr":"경기도 안양시 만안구 박달동 85-13번지","category":"건축자재 - 목재·석재·철물"},{"name":"장화신은고양이","tel":"","addr":"경기도 안양시 만안구 박달동 85-13번지","category":"문화.취미 - 애완동물"}]},{"lat":"37.402693694","long":"126.91078937","items":[{"name":"박달점핑다이어트","tel":"031-441-2595","addr":"경기도 안양시 만안구 박달동 19-9번지","category":"건강식품 - 기타건강식품"},{"name":"새빛축산","tel":"031-441-8988","addr":"경기도 안양시 만안구 박달동 19-9번지","category":"음료식품 - 정육점"},{"name":"성수한의원","tel":"031-468-5574","addr":"경기도 안양시 만안구 박달동 19-9번지","category":"의원 - 한의원"},{"name":"스마트안경원","tel":"031-448-3005","addr":"경기도 안양시 만안구 박달동 19-9번지","category":"보건위생 - 안경"},{"name":"정평귀이비인후과의원","tel":"031-442-6843","addr":"경기도 안양시 만안구 박달동 19-9번지","category":"의원 - 의원"},{"name":"치킨선생","tel":"031-445-8959","addr":"경기도 안양시 만안구 박달동 19-9번지","category":"일반휴게음식 - 스넥"},{"name":"탑당구장","tel":"070-8116-0244","addr":"경기도 안양시 만안구 박달동 19-9번지","category":"레저업소 - 당 구 장"}]},{"lat":"37.39950125","long":"126.89661972","items":[{"name":"박달중학교","tel":"031-631-3850","addr":"경기도 안양시 만안구 박달동 590번지","category":"학원 - 초중고교육기관"}]},{"lat":"37.401029122","long":"126.90253557","items":[{"name":"박달초등학교","tel":"031-447-8386","addr":"경기도 안양시 만안구 박달동 128-7번지","category":"학원 - 초중고교육기관"},{"name":"박달초병설유치원[아이행복]","tel":"031-444-9195","addr":"경기도 안양시 만안구 박달동 128-7번지","category":"학원 - 유치원"}]},{"lat":"37.405053571","long":"126.90981516","items":[{"name":"박달축산","tel":"070-4334-7094","addr":"경기도 안양시 만안구 박달동 56-3번지","category":"음료식품 - 정육점"},{"name":"행복식품","tel":"031-397-3962","addr":"경기도 안양시 만안구 박달동 56-3번지","category":"음료식품 - 기타음료식품"}]},{"lat":"37.402331139","long":"126.90806794","items":[{"name":"박달한의원","tel":"031-466-1075","addr":"경기도 안양시 만안구 박달동 85-1번지","category":"의원 - 한의원"},{"name":"엔쓰리헤어살롱","tel":"031-340-3774","addr":"경기도 안양시 만안구 박달동 85-1번지","category":"보건위생 - 미용원"},{"name":"즐거운노래연습장","tel":"031-468-2199","addr":"경기도 안양시 만안구 박달동 85-1번지","category":"레저업소 - 노 래 방"},{"name":"행운치과의원","tel":"031-441-5526","addr":"경기도 안양시 만안구 박달동 85-1번지","category":"의원 - 치과의원"}]},{"lat":"37.403497405","long":"126.9131489","items":[{"name":"박달할인마트","tel":"070-4763-5091","addr":"경기도 안양시 만안구 박달동 71-11번지","category":"유통업 영리 - 슈퍼마켓"},{"name":"유광인테리어","tel":"031-445-6923","addr":"경기도 안양시 만안구 박달동 71-11번지","category":"건축자재 - 인테리어전문"}]},{"lat":"37.403667385","long":"126.91156749","items":[{"name":"박은실 철학관","tel":"","addr":"경기도 안양시 만안구 박달동 65-4번지","category":"보건위생 - 기타대인서비스"}]},{"lat":"37.40358983","long":"126.90473454","items":[{"name":"반석건출공사","tel":"070-8249-2896","addr":"경기도 안양시 만안구 박달동 111-1번지 신한아파트","category":"회원제형태 - 기타4"}]},{"lat":"37.404881898","long":"126.90920547","items":[{"name":"백제한의원","tel":"031-448-0480","addr":"경기도 안양시 만안구 박달동 22-15번지","category":"의원 - 한의원"}]},{"lat":"37.403865196","long":"126.91103642","items":[{"name":"베이비스쿨어린이집[아이행복]","tel":"031-445-0579","addr":"경기도 안양시 만안구 박달동 64-1번지 짜임아파트","category":"학원 - 유아원"}]},{"lat":"37.402806682","long":"126.9056165","items":[{"name":"베이지밀","tel":"","addr":"경기도 안양시 만안구 박달동 135-7번지","category":"음료식품 - 제과점"},{"name":"스카이수학교습소","tel":"031-468-8611","addr":"경기도 안양시 만안구 박달동 135-7번지","category":"학원 - 보습학원"},{"name":"헤어스케치","tel":"031-447-9027","addr":"경기도 안양시 만안구 박달동 135-7번지","category":"보건위생 - 미용원"}]},{"lat":"37.403410292","long":"126.90553666","items":[{"name":"벽산해법학원","tel":"031-466-4118","addr":"경기도 안양시 만안구 박달동 108-2번지","category":"회원제형태 - 학원"}]},{"lat":"37.402637617","long":"126.90823697","items":[{"name":"보람씨앤씨","tel":"031-446-3332","addr":"경기도 안양시 만안구 박달동 100-22번지","category":"사무통신 - 컴퓨터"},{"name":"아이숨결스튜디오","tel":"031-445-0505","addr":"경기도 안양시 만안구 박달동 100-22번지","category":"광학제품 - 사진관"},{"name":"응답하라 멍멍이들","tel":"031-448-2111","addr":"경기도 안양시 만안구 박달동 100-22번지","category":"문화.취미 - 애완동물"}]},{"lat":"37.405216706","long":"126.91103477","items":[{"name":"보브헤어샵","tel":"031-466-0577","addr":"경기도 안양시 만안구 박달동 57-9번지","category":"보건위생 - 미용원"},{"name":"블루하우스호프","tel":"031-468-8355","addr":"경기도 안양시 만안구 박달동 57-9번지","category":"일반휴게음식 - 주점"},{"name":"풀하우스","tel":"031-486-7782","addr":"경기도 안양시 만안구 박달동 57-9번지","category":"의류 - 정장"},{"name":"필학원","tel":"031-466-9200","addr":"경기도 안양시 만안구 박달동 57-9번지","category":"학원 - 보습학원"}]},{"lat":"37.403414587","long":"126.91090144","items":[{"name":"보성공조","tel":"031-456-4580","addr":"경기도 안양시 만안구 박달동 65-22번지","category":"전기제품 - 냉열기기"},{"name":"정거장포차","tel":"","addr":"경기도 안양시 만안구 박달동 65-22번지","category":"일반휴게음식 - 주점"}]},{"lat":"37.403107396","long":"126.90981757","items":[{"name":"보성산업","tel":"031-444-1989","addr":"경기도 안양시 만안구 박달동 17-18번지","category":"주방용구 - 주방용구"}]},{"lat":"37.401222916","long":"126.87887451","items":[{"name":"보성주철주식회사","tel":"031-448-3600","addr":"경기도 안양시 만안구 박달동 753-9번지","category":"기타 - 기타 전문점"}]},{"lat":"37.403386602","long":"126.90968169","items":[{"name":"복돼지커피호프","tel":"031-442-9907","addr":"경기도 안양시 만안구 박달동 17-23번지","category":"일반휴게음식 - 주점"},{"name":"성진슈퍼","tel":"031-449-8364","addr":"경기도 안양시 만안구 박달동 17-23번지","category":"유통업 영리 - 슈퍼마켓"},{"name":"청진동해장국","tel":"031-442-2033","addr":"경기도 안양시 만안구 박달동 17-23번지","category":"일반휴게음식 - 일반한식"}]},{"lat":"37.402668143","long":"126.91270941","items":[{"name":"본도시락(안얀동점)","tel":"031-443-4282","addr":"경기도 안양시 만안구 박달동 75-17번지","category":"일반휴게음식 - 일반한식"}]},{"lat":"37.405134839","long":"126.91004095","items":[{"name":"본텔레콤","tel":"031-441-8977","addr":"경기도 안양시 만안구 박달동 56-5번지","category":"사무통신 - 통신기기"},{"name":"슈즈홀릭","tel":"031-459-3939","addr":"경기도 안양시 만안구 박달동 56-5번지","category":"신변잡화 - 신발"},{"name":"화랑","tel":"031-444-7917","addr":"경기도 안양시 만안구 박달동 56-5번지","category":"보건위생 - 화장품"}]},{"lat":"37.405216899","long":"126.91128325","items":[{"name":"봉구비어 안양박달점","tel":"","addr":"경기도 안양시 만안구 박달동 58-18번지","category":"일반휴게음식 - 주점"},{"name":"투데이 꾼","tel":"031-445-1117","addr":"경기도 안양시 만안구 박달동 58-18번지","category":"일반휴게음식 - 스넥"}]},{"lat":"37.402970291","long":"126.90736689","items":[{"name":"봉봉딜리버리","tel":"","addr":"경기도 안양시 만안구 박달동 102-10번지","category":"일반휴게음식 - 스넥"}]},{"lat":"37.403467977","long":"126.910043","items":[{"name":"부연","tel":"031-468-7190","addr":"경기도 안양시 만안구 박달동 20-25번지","category":"일반휴게음식 - 일반한식"},{"name":"산본닭발","tel":"031-441-5551","addr":"경기도 안양시 만안구 박달동 20-25번지","category":"일반휴게음식 - 일반한식"},{"name":"생방송","tel":"031-433-3468","addr":"경기도 안양시 만안구 박달동 20-25번지","category":"일반휴게음식 - 주점"}]},{"lat":"37.401247465","long":"126.90504253","items":[{"name":"부영(카센타)","tel":"031-466-1142","addr":"경기도 안양시 만안구 박달동 138-4번지","category":"자동차정비 유지 - 자동차정비"},{"name":"써니네일","tel":"031-466-5501","addr":"경기도 안양시 만안구 박달동 138-4번지","category":"보건위생 - 화장품"}]},{"lat":"37.402694828","long":"126.91225761","items":[{"name":"불오뎅가마솥떡볶이","tel":"031-466-6632","addr":"경기도 안양시 만안구 박달동 74-17번지","category":"일반휴게음식 - 일반한식"},{"name":"소문만복래월래집","tel":"031-446-9016","addr":"경기도 안양시 만안구 박달동 74-17번지","category":"일반휴게음식 - 일반한식"},{"name":"영빈다방","tel":"031-448-2655","addr":"경기도 안양시 만안구 박달동 74-17번지","category":"일반휴게음식 - 서양음식"}]},{"lat":"37.408635221","long":"126.88475831","items":[{"name":"붐비다커피","tel":"031-448-5144","addr":"경기도 안양시 만안구 박달동 931-2번지","category":"일반휴게음식 - 서양음식"}]},{"lat":"37.40444117","long":"126.91017734","items":[{"name":"뷰티킹","tel":"031-443-2497","addr":"경기도 안양시 만안구 박달동 60-2번지","category":"음료식품 - 제과점"}]},{"lat":"37.405388134","long":"126.91133951","items":[{"name":"브이아이피 쥬얼리(Jewery)","tel":"031-340-4601","addr":"경기도 안양시 만안구 박달동 58-5번지","category":"신변잡화 - 귀금속"},{"name":"에이스","tel":"031-348-4006","addr":"경기도 안양시 만안구 박달동 58-5번지","category":"건축자재 - 기타건축자재"},{"name":"토평한우소곱창(안양박달점)","tel":"031-469-2233","addr":"경기도 안양시 만안구 박달동 58-5번지","category":"일반휴게음식 - 일반한식"},{"name":"티비두마리치킨","tel":"031-441-0407","addr":"경기도 안양시 만안구 박달동 58-5번지","category":"일반휴게음식 - 일반한식"},{"name":"화랑","tel":"031-469-7898","addr":"경기도 안양시 만안구 박달동 58-5번지","category":"일반휴게음식 - 일반한식"}]},{"lat":"37.402215626","long":"126.8992587","items":[{"name":"브이아이피 헤어디자인","tel":"031-444-4432","addr":"경기도 안양시 만안구 박달동 158-1번지","category":"보건위생 - 미용원"},{"name":"세종무용학원","tel":"031-442-1491","addr":"경기도 안양시 만안구 박달동 158-1번지","category":"학원 - 예·체능계학원"},{"name":"써니외식산업(주)","tel":"031-466-4692","addr":"경기도 안양시 만안구 박달동 158-1번지","category":"일반휴게음식 - 일반한식"},{"name":"태림내과의원","tel":"031-443-0250","addr":"경기도 안양시 만안구 박달동 158-1번지","category":"의원 - 의원"}]},{"lat":"37.403433195","long":"126.90064622","items":[{"name":"블랑끄","tel":"070-8770-7780","addr":"경기도 안양시 만안구 박달동 114번지 한라비발디아파트","category":"의류 - 아동의류"}]},{"lat":"37.40379479","long":"126.90203493","items":[{"name":"블럭생각","tel":"031-446-0664","addr":"경기도 안양시 만안구 박달동 114번지 한라비발디아파트","category":"회원제형태 - 기타4"},{"name":"예원어린이집[아이행복]","tel":"031-464-9659","addr":"경기도 안양시 만안구 박달동 114번지 한라비발디아파트","category":"학원 - 유아원"}]},{"lat":"37.402554289","long":"126.9054813","items":[{"name":"블루모바일","tel":"","addr":"경기도 안양시 만안구 박달동 137-7번지","category":"사무통신 - 통신기기"},{"name":"영광철물","tel":"031-445-7551","addr":"경기도 안양시 만안구 박달동","category":"건축자재 - 목재·석재·철물"},{"name":"플라워 팩토리","tel":"02-1577-0000","addr":"경기도 안양시 만안구 박달동 137-7번지","category":"문화.취미 - 화원"}]},{"lat":"37.402694681","long":"126.91206561","items":[{"name":"비결","tel":"031-464-8292","addr":"경기도 안양시 만안구 박달동 74-12번지","category":"일반휴게음식 - 일반한식"}]},{"lat":"37.405971252","long":"126.90811983","items":[{"name":"비마이커피","tel":"031-464-2637","addr":"경기도 안양시 만안구 박달동 14-14번지","category":"일반휴게음식 - 서양음식"},{"name":"소나무요양센터","tel":"031-448-8200","addr":"경기도 안양시 만안구 박달동 14-14번지","category":"기타의료기관 - 기타의료기관 및 기타"},{"name":"이름없는포차","tel":"031-464-5884","addr":"경기도 안양시 만안구 박달동 14-14번지","category":"일반휴게음식 - 일반한식"}]},{"lat":"37.404300929","long":"126.90389782","items":[{"name":"비발디세탁소","tel":"031-469-2262","addr":"경기도 안양시 만안구 박달동 838-30번지","category":"수리서비스 - 세탁소"},{"name":"픽셀바이크(Fixel Bike)","tel":"031-347-0802","addr":"경기도 안양시 만안구 박달동 838-30번지","category":"레져용품 - 스포츠·레져용품"}]},{"lat":"37.402307666","long":"126.9014948","items":[{"name":"비발디어린이집[아이행복]","tel":"031-464-3065","addr":"경기도 안양시 만안구 박달동 114번지 한라비발디아파트","category":"학원 - 유아원"}]},{"lat":"37.402472722","long":"126.90490541","items":[{"name":"비핏 (BE FIT)","tel":"","addr":"경기도 안양시 만안구 박달동 134-5번지","category":"레저업소 - 헬스클럽"},{"name":"사계절","tel":"031-448-8853","addr":"경기도 안양시 만안구 박달동 134-5번지","category":"일반휴게음식 - 일반한식"},{"name":"쟁반노래연습장","tel":"031-442-8214","addr":"경기도 안양시 만안구 박달동 134-5번지","category":"레저업소 - 노 래 방"},{"name":"주식회사 수메르","tel":"070-8703-1326","addr":"경기도 안양시 만안구 박달동 134-5번지","category":"레져용품 - 스포츠·레져용품"},{"name":"페리카나(박달2호점)","tel":"031-447-3131","addr":"경기도 안양시 만안구 박달동 134-5번지","category":"일반휴게음식 - 칵테일바"},{"name":"피자스쿨 박달점","tel":"031-468-5100","addr":"경기도 안양시 만안구 박달동 134-5번지","category":"일반휴게음식 - 서양음식"}]},{"lat":"37.404107452","long":"126.90973727","items":[{"name":"빅사이즈샵","tel":"031-444-0714","addr":"경기도 안양시 만안구 박달동 21-24번지","category":"의류 - 정장"},{"name":"아날로지코(analogico)","tel":"","addr":"경기도 안양시 만안구 박달동 21-24번지","category":"신변잡화 - 가방"}]},{"lat":"37.403437526","long":"126.9057851","items":[{"name":"빨간통피자","tel":"031-441-3557","addr":"경기도 안양시 만안구 박달동 108-16번지","category":"일반휴게음식 - 서양음식"},{"name":"홍콩반점","tel":"031-443-2682","addr":"경기도 안양시 만안구 박달동 108-16번지","category":"일반휴게음식 - 중국식"}]},{"lat":"37.404665898","long":"126.90951069","items":[{"name":"뽀미명품구제","tel":"","addr":"경기도 안양시 만안구 박달동 21-2번지","category":"의류 - 정장"},{"name":"예린","tel":"031-464-8865","addr":"경기도 안양시 만안구 박달동 21-2번지","category":"보건위생 - 화장품"}]},{"lat":"37.402331384","long":"126.90837288","items":[{"name":"사진찍기좋은날","tel":"031-449-7135","addr":"경기도 안양시 만안구 박달동 85-7번지","category":"광학제품 - 사진관"}]},{"lat":"37.401939874","long":"126.90340399","items":[{"name":"삼보수산","tel":"031-469-8088","addr":"경기도 안양시 만안구 박달동 128-5번지","category":"일반휴게음식 - 일식·회집"},{"name":"쏭헤어","tel":"","addr":"경기도 안양시 만안구 박달동 128-5번지","category":"보건위생 - 미용원"},{"name":"츄라스코","tel":"031-465-8592","addr":"경기도 안양시 만안구 박달동 128-5번지","category":"일반휴게음식 - 서양음식"},{"name":"해인정육식당","tel":"031-446-7843","addr":"경기도 안양시 만안구 박달동 128-5번지","category":"일반휴게음식 - 일반한식"},{"name":"황토장군불바베큐","tel":"031-449-3634","addr":"경기도 안양시 만안구 박달동 128-5번지","category":"일반휴게음식 - 일반한식"},{"name":"희망철물","tel":"031-442-6122","addr":"경기도 안양시 만안구 박달동 128-5번지","category":"건축자재 - 목재·석재·철물"}]},{"lat":"37.402855539","long":"126.8994837","items":[{"name":"삼봉초등학교","tel":"031-466-1081","addr":"경기도 안양시 만안구 박달동 114-3번지","category":"학원 - 초중고교육기관"}]},{"lat":"37.404996538","long":"126.88615325","items":[{"name":"삼성알미늄","tel":"031-449-5788","addr":"경기도 안양시 만안구 박달동 693-4번지","category":"건축자재 - 기타건축자재"}]},{"lat":"37.402361438","long":"126.91223543","items":[{"name":"상아인쇄소","tel":"031-449-3537","addr":"경기도 안양시 만안구 박달동 68-41번지","category":"서적문구 - 출판 및 인쇄물"},{"name":"예뻐지는멀티샵케이","tel":"070-8680-2710","addr":"경기도 안양시 만안구 박달동 68-41번지","category":"보건위생 - 피부미용실"},{"name":"임군상회","tel":"","addr":"경기도 안양시 만안구 박달동 68-41번지","category":"일반휴게음식 - 일반한식"}]},{"lat":"37.406277458","long":"126.90795002","items":[{"name":"상아호프","tel":"031-444-2655","addr":"경기도 안양시 만안구 박달동 14-9번지","category":"일반휴게음식 - 주점"},{"name":"인디콤","tel":"02-3141-9707","addr":"경기도 안양시 만안구 박달동 14-9번지","category":"용역 서비스 - 종합용역"},{"name":"칭니","tel":"031-441-8877","addr":"경기도 안양시 만안구 박달동 14-9번지","category":"일반휴게음식 - 중국식"},{"name":"하나전자","tel":"031-466-2999","addr":"경기도 안양시 만안구 박달동 14-9번지","category":"수리서비스 - 가정용품수리"}]},{"lat":"37.405243155","long":"126.91028929","items":[{"name":"상하이노래연습장","tel":"","addr":"경기도 안양시 만안구 박달동 56-30번지","category":"레저업소 - 노 래 방"},{"name":"총각네고깃간","tel":"031-346-9559","addr":"경기도 안양시 만안구 박달동 56-30번지","category":"음료식품 - 정육점"},{"name":"풍년떡방","tel":"031-445-6011","addr":"경기도 안양시 만안구 박달동 56-30번지","category":"음료식품 - 제과점"}]},{"lat":"37.405802299","long":"126.91095499","items":[{"name":"새마을포차","tel":"","addr":"경기도 안양시 만안구 박달동 55-26번지","category":"일반휴게음식 - 일반한식"},{"name":"석사경희대충무태권도장","tel":"","addr":"경기도 안양시 만안구 박달동 55-26번지","category":"학원 - 예·체능계학원"},{"name":"우리동네담뱃잎가게","tel":"","addr":"경기도 안양시 만안구 박달동 55-26번지","category":"음료식품 - 기타음료식품"},{"name":"핫오리","tel":"031-340-7717","addr":"경기도 안양시 만안구 박달동 55-26번지","category":"일반휴게음식 - 일반한식"}]},{"lat":"37.40302635","long":"126.90987414","items":[{"name":"새봄한의원","tel":"031-442-0222","addr":"경기도 안양시 만안구 박달동 17-19번지","category":"의원 - 한의원"}]},{"lat":"37.406388408","long":"126.9115416","items":[{"name":"생그린식품순유대리점","tel":"031-449-1739","addr":"경기도 안양시 만안구 박달동 54-32번지","category":"음료식품 - 기타음료식품"},{"name":"윤서네","tel":"","addr":"경기도 안양시 만안구 박달동 54-32번지","category":"음료식품 - 기타음료식품"}]},{"lat":"37.405667489","long":"126.91139564","items":[{"name":"생포갈비","tel":"","addr":"경기도 안양시 만안구 박달동 55-32번지","category":"일반휴게음식 - 일반한식"},{"name":"한화양꼬치","tel":"031-466-0092","addr":"경기도 안양시 만안구 박달동 55-32번지","category":"일반휴게음식 - 일반한식"}]},{"lat":"37.403079355","long":"126.90854135","items":[{"name":"샤이닝샵","tel":"","addr":"경기도 안양시 만안구 박달동 100-5번지","category":"광학제품 - 사진관"}]},{"lat":"37.404222918","long":"126.90764766","items":[{"name":"샵히니","tel":"070-8200-8924","addr":"경기도 안양시 만안구 박달동 45-8번지","category":"보건위생 - 피부미용실"}]},{"lat":"37.405411134","long":"126.88628814","items":[{"name":"서울","tel":"031-444-7641","addr":"경기도 안양시 만안구 박달동 693-17번지","category":"일반휴게음식 - 일반한식"}]},{"lat":"37.404078911","long":"126.90783985","items":[{"name":"서울막걸리","tel":"031-464-7550","addr":"경기도 안양시 만안구 박달동 45-17번지","category":"일반휴게음식 - 일반한식"}]},{"lat":"37.405465083","long":"126.88617511","items":[{"name":"서울카페","tel":"","addr":"경기도 안양시 만안구 박달동 693-16번지","category":"일반휴게음식 - 일반한식"}]},{"lat":"37.40110998","long":"126.89217893","items":[{"name":"서조어린이집[아이행복]","tel":"031-465-9965","addr":"경기도 안양시 만안구 박달동 산21번지","category":"학원 - 유아원"}]},{"lat":"37.404495213","long":"126.91015468","items":[{"name":"서해수산","tel":"031-442-1606","addr":"경기도 안양시 만안구 박달동 60-1번지","category":"음료식품 - 농·축·수산품"},{"name":"착한푸주간","tel":"031-445-7003","addr":"경기도 안양시 만안구 박달동 60-1번지","category":"음료식품 - 정육점"}]},{"lat":"37.405910156","long":"126.91061602","items":[{"name":"선민유통","tel":"031-443-7797","addr":"경기도 안양시 만안구 박달동 52-5번지","category":"음료식품 - 기타음료식품"},{"name":"오세영헤어뷰","tel":"031-466-4026","addr":"경기도 안양시 만안구 박달동 52-5번지","category":"보건위생 - 미용원"}]},{"lat":"37.402716567","long":"126.8952034","items":[{"name":"성지스포츠","tel":"031-466-4929","addr":"경기도 안양시 만안구 박달동 614-9번지","category":"레져용품 - 골프용품 전문점"},{"name":"오토코리아세차광택","tel":"031-441-3828","addr":"경기도 안양시 만안구 박달동 614-9번지","category":"자동차정비 유지 - 카인테리어"},{"name":"주식회사 모리홀딩스","tel":"031-444-8948","addr":"경기도 안양시 만안구 박달동 614-9번지","category":"자동차정비 유지 - 자동차정비"},{"name":"코리아식당","tel":"031-446-9740","addr":"경기도 안양시 만안구 박달동 614-9번지","category":"일반휴게음식 - 일반한식"}]},{"lat":"37.403496793","long":"126.912347","items":[{"name":"성진설비","tel":"070-8745-7293","addr":"경기도 안양시 만안구 박달동 71-17번지","category":"용역 서비스 - 기타용역서비스"}]},{"lat":"37.402803569","long":"126.91307066","items":[{"name":"성희네","tel":"031-464-1508","addr":"경기도 안양시 만안구 박달동 75-9번지","category":"의류 - 정장"}]},{"lat":"37.403964909","long":"126.9118156","items":[{"name":"세나헤어뷰","tel":"031-442-7709","addr":"경기도 안양시 만안구 박달동 64-10번지","category":"보건위생 - 미용원"}]},{"lat":"37.404024678","long":"126.90762533","items":[{"name":"세일영어","tel":"02-444-1318","addr":"경기도 안양시 만안구 박달동 45-15번지","category":"회원제형태 - 학원"},{"name":"하나플라워","tel":"031-442-1934","addr":"경기도 안양시 만안구 박달동 45-15번지","category":"문화.취미 - 화원"}]},{"lat":"37.405638483","long":"126.90887698","items":[{"name":"센스","tel":"070-8286-8368","addr":"경기도 안양시 만안구 박달동 22-24번지","category":"일반휴게음식 - 주점"}]},{"lat":"37.401689322","long":"126.90548242","items":[{"name":"센스미용실","tel":"031-446-8757","addr":"경기도 안양시 만안구 박달동 139-96번지","category":"보건위생 - 미용원"}]},{"lat":"37.403298899","long":"126.90164029","items":[{"name":"셀파한라교실","tel":"","addr":"경기도 안양시 만안구 박달동 114번지 한라비발디아파트","category":"학원 - 기타 교육기관"}]},{"lat":"37.405332553","long":"126.90939691","items":[{"name":"셰프초밥활어","tel":"031-341-4085","addr":"경기도 안양시 만안구 박달동 22-5번지","category":"일반휴게음식 - 일식·회집"},{"name":"칠랄레팔랄레 오드리","tel":"031-461-5339","addr":"경기도 안양시 만안구 박달동 22-5번지","category":"의류 - 정장"}]},{"lat":"37.400525378","long":"126.90350751","items":[{"name":"소리숲피아노교습소","tel":"031-443-6020","addr":"경기도 안양시 만안구 박달동 139-78번지","category":"학원 - 예·체능계학원"},{"name":"실버통신","tel":"070-7574-1300","addr":"경기도 안양시 만안구 박달동 139-78번지","category":"사무통신 - 통신기기"},{"name":"위드유영수전문학원","tel":"031-443-9900","addr":"경기도 안양시 만안구 박달동 139-78번지","category":"학원 - 보습학원"},{"name":"최선생","tel":"031-444-7127","addr":"경기도 안양시 만안구 박달동 139-78번지","category":"보건위생 - 미용원"}]},{"lat":"37.404221384","long":"126.9057615","items":[{"name":"소리엘음악학원","tel":"031-448-7909","addr":"경기도 안양시 만안구 박달동 41-17번지","category":"학원 - 예·체능계학원"},{"name":"주식회사 태양엔지니어링","tel":"031-5350-2382","addr":"경기도 안양시 만안구 박달동 41-17번지","category":"전기제품 - 냉열기기"},{"name":"헤어하우스","tel":"031-442-5877","addr":"경기도 안양시 만안구 박달동 41-17번지","category":"보건위생 - 미용원"}]},{"lat":"37.404469133","long":"126.91137451","items":[{"name":"소망설비","tel":"031-443-0913","addr":"경기도 안양시 만안구 박달동 61-4번지","category":"용역 서비스 - 기타용역서비스"}]},{"lat":"37.406856975","long":"126.9115975","items":[{"name":"소망슈퍼","tel":"031-447-4669","addr":"경기도 안양시 만안구 박달동 30-42번지","category":"유통업 영리 - 슈퍼마켓"}]},{"lat":"37.401529397","long":"126.90826095","items":[{"name":"소비자쎈타","tel":"031-441-7115","addr":"경기도 안양시 만안구 박달동 94-58번지","category":"유통업 영리 - 슈퍼마켓"},{"name":"화이팅","tel":"031-441-3344","addr":"경기도 안양시 만안구 박달동 94-58번지","category":"일반휴게음식 - 주점"}]},{"lat":"37.40788778","long":"126.88515481","items":[{"name":"소쿠리집밥","tel":"031-442-8022","addr":"경기도 안양시 만안구 박달동 931-8번지","category":"일반휴게음식 - 일반한식"}]},{"lat":"37.401691533","long":"126.90820427","items":[{"name":"소호","tel":"070-8712-8813","addr":"경기도 안양시 만안구 박달동 85-26번지","category":"의류 - 정장"},{"name":"아이센스PC안양박달점","tel":"","addr":"경기도 안양시 만안구 박달동 85-26번지","category":"레저업소 - 기타레져업소"},{"name":"카멜레온","tel":"031-465-2344","addr":"경기도 안양시 만안구 박달동 85-26번지","category":"보건위생 - 미용원"},{"name":"커피베이안양우성점","tel":"031-466-1006","addr":"경기도 안양시 만안구 박달동 85-26번지","category":"일반휴게음식 - 서양음식"},{"name":"푸드일번가","tel":"031-455-9591","addr":"경기도 안양시 만안구 박달동 85-26번지","category":"용역 서비스 - 종합용역"},{"name":"허브다이어트클럽","tel":"070-8878-3086","addr":"경기도 안양시 만안구 박달동 85-26번지","category":"회원제형태 - 건강식품"},{"name":"화음음악학원","tel":"031-448-6809","addr":"경기도 안양시 만안구 박달동 85-26번지","category":"학원 - 예·체능계학원"}]},{"lat":"37.404860409","long":"126.90492489","items":[{"name":"솔티디자인","tel":"050-5327-7942","addr":"경기도 안양시 만안구 박달동 7-50번지 박달1차한신휴플러스","category":"용역 서비스 - 사무서비스"},{"name":"한우리독서지도","tel":"070-8286-8368","addr":"경기도 안양시 만안구 박달동 7-50번지 박달1차한신휴플러스","category":"학원 - 기타 교육기관"}]},{"lat":"37.401191867","long":"126.90320169","items":[{"name":"송원아이어린이집[아이행복]","tel":"031-444-6016","addr":"경기도 안양시 만안구 박달동 144-5번지","category":"학원 - 유아원"},{"name":"송원어린이집[아이행복]","tel":"031-444-6017","addr":"경기도 안양시 만안구 박달동 144-5번지","category":"학원 - 유아원"}]},{"lat":"37.402913445","long":"126.90397871","items":[{"name":"수성약국","tel":"031-464-7773","addr":"경기도 안양시 만안구 박달동 939번지 한양수자인에듀파크","category":"약국 - 약국"},{"name":"신서정헤어샵","tel":"","addr":"경기도 안양시 만안구 박달동 939번지 한양수자인에듀파크","category":"보건위생 - 미용원"},{"name":"에듀파크어린이집[아이행복]","tel":"031-465-7940","addr":"경기도 안양시 만안구 박달동 939번지 한양수자인에듀파크","category":"학원 - 유아원"}]},{"lat":"37.405522899","long":"126.91084238","items":[{"name":"수현마트","tel":"","addr":"경기도 안양시 만안구 박달동 56-20번지","category":"유통업 영리 - 슈퍼마켓"},{"name":"준헤어뱅크","tel":"031-441-6798","addr":"경기도 안양시 만안구 박달동 56-20번지","category":"보건위생 - 미용원"}]},{"lat":"37.400579648","long":"126.9037559","items":[{"name":"슬라임아이","tel":"","addr":"경기도 안양시 만안구 박달동 139-15번지","category":"문화.취미 - 문화취미기타"},{"name":"추억82","tel":"034-440-0082","addr":"경기도 안양시 만안구 박달동 139-15번지","category":"일반휴게음식 - 서양음식"}]},{"lat":"37.404413267","long":"126.90907052","items":[{"name":"시금당","tel":"031-442-3030","addr":"경기도 안양시 만안구 박달동 16-4번지","category":"신변잡화 - 시계"}]},{"lat":"37.401606149","long":"126.90298656","items":[{"name":"시립박달어린이집[아이행복]","tel":"031-444-3049","addr":"경기도 안양시 만안구 박달동 128-2번지","category":"학원 - 유아원"}]},{"lat":"37.404854975","long":"126.90934104","items":[{"name":"시장순대국","tel":"031-442-8664","addr":"경기도 안양시 만안구 박달동 22-18번지","category":"일반휴게음식 - 일반한식"},{"name":"헬스트론 안양점","tel":"070-8940-7582","addr":"경기도 안양시 만안구 박달동 22-18번지","category":"보건위생 - 의료용품"}]},{"lat":"37.4041888","long":"126.9100647","items":[{"name":"신가미축산","tel":"031-448-0005","addr":"경기도 안양시 만안구 박달동 21-34번지","category":"음료식품 - 정육점"},{"name":"전부쳐","tel":"031-445-0199","addr":"경기도 안양시 만안구 박달동 21-34번지","category":"일반휴게음식 - 스넥"},{"name":"전원건강원","tel":"031-466-1949","addr":"경기도 안양시 만안구 박달동 21-34번지","category":"건강식품 - 기타건강식품"},{"name":"핑크","tel":"031-469-5595","addr":"경기도 안양시 만안구 박달동 21-34번지","category":"의류 - 정장"}]},{"lat":"37.405773545","long":"126.90876387","items":[{"name":"신남수수학학원","tel":"031-341-5016","addr":"경기도 안양시 만안구 박달동 23-5번지","category":"학원 - 보습학원"},{"name":"안양왕소금구이","tel":"031-449-8472","addr":"경기도 안양시 만안구 박달동 23-5번지","category":"일반휴게음식 - 갈비전문점"},{"name":"왕정육점","tel":"031-449-8472","addr":"경기도 안양시 만안구 박달동 23-5번지","category":"음료식품 - 정육점"}]},{"lat":"37.40331927","long":"126.89414088","items":[{"name":"신도하이플러스","tel":"02-1600-9962","addr":"경기도 안양시 만안구 박달동 616-9번지 대림한숲타운아파트","category":"회원제형태 - 기타4"}]},{"lat":"37.405442281","long":"126.91145239","items":[{"name":"신미양꼬치","tel":"031-347-6899","addr":"경기도 안양시 만안구 박달동 58-6번지","category":"일반휴게음식 - 중국식"}]},{"lat":"37.401911254","long":"126.91265385","items":[{"name":"신성이발","tel":"031-444-5103","addr":"경기도 안양시 만안구 박달동 68-101번지","category":"보건위생 - 이용원"}]},{"lat":"37.40374385","long":"126.90576212","items":[{"name":"신한문구","tel":"031-445-2963","addr":"경기도 안양시 만안구 박달동 108-12번지","category":"서적문구 - 문구용품"}]},{"lat":"37.403773838","long":"126.90943273","items":[{"name":"신한전기","tel":"031-444-6720","addr":"경기도 안양시 만안구 박달동 17-3번지","category":"전기제품 - 기타전기제품"},{"name":"차차차노래연습장","tel":"031-469-8090","addr":"경기도 안양시 만안구 박달동 17-3번지","category":"레저업소 - 노 래 방"},{"name":"착한고깃집","tel":"031-464-0592","addr":"경기도 안양시 만안구 박달동 17-3번지","category":"일반휴게음식 - 일반한식"},{"name":"코코샵","tel":"031-446-3224","addr":"경기도 안양시 만안구 박달동 17-3번지","category":"보건위생 - 미용원"}]},{"lat":"37.40233253","long":"126.90981852","items":[{"name":"싱싱활어회수산시장포장전문점","tel":"031-443-9998","addr":"경기도 안양시 만안구 박달동 68-12번지","category":"일반휴게음식 - 일식·회집"},{"name":"자유(편한신발)","tel":"031-441-4110","addr":"경기도 안양시 만안구 박달동 68-12번지","category":"신변잡화 - 신발"}]},{"lat":"37.402332022","long":"126.90917476","items":[{"name":"쌍용자동차만안서비스프라자","tel":"031-448-5582","addr":"경기도 안양시 만안구 박달동 68-3번지","category":"자동차정비 유지 - 자동차정비"},{"name":"정원","tel":"031-222-4835","addr":"경기도 안양시 만안구 박달동 68-3번지","category":"건축자재 - 인테리어전문"}]},{"lat":"37.403855578","long":"126.91025712","items":[{"name":"썬마트","tel":"031-448-8465","addr":"경기도 안양시 만안구 박달동 20-11번지","category":"유통업 영리 - 슈퍼마켓"}]},{"lat":"37.405694633","long":"126.91154244","items":[{"name":"씨에스아이 치킨","tel":"031-466-9242","addr":"경기도 안양시 만안구 박달동 55-33번지","category":"일반휴게음식 - 스넥"},{"name":"해와달","tel":"031-348-0042","addr":"경기도 안양시 만안구 박달동 55-33번지","category":"일반휴게음식 - 주점"}]},{"lat":"37.402394311","long":"126.89754175","items":[{"name":"아가어린이집[아이행복]","tel":"031-443-7581","addr":"경기도 안양시 만안구 박달동 607-1번지 한일유앤아이아파트","category":"학원 - 유아원"}]},{"lat":"37.403670246","long":"126.8936886","items":[{"name":"아띠파니","tel":"070-8757-3451","addr":"경기도 안양시 만안구 박달동 616-9번지 대림한숲타운아파트","category":"레져용품 - 스포츠·레져용품"}]},{"lat":"37.404555062","long":"126.90613379","items":[{"name":"아레테","tel":"","addr":"경기도 안양시 만안구 박달동 37번지 한신휴플러스타운","category":"신변잡화 - 액세서리"}]},{"lat":"37.404076402","long":"126.88503653","items":[{"name":"아산낚시할인마트","tel":"031-465-3111","addr":"경기도 안양시 만안구 박달동 701-41번지","category":"레져용품 - 스포츠·레져용품"}]},{"lat":"37.40591618","long":"126.90686619","items":[{"name":"아이러브유","tel":"070-4245-2981","addr":"경기도 안양시 만안구 박달동 9-38번지","category":"의류 - 정장"}]},{"lat":"37.4061893","long":"126.91040108","items":[{"name":"아이비젼","tel":"031-471-7792","addr":"경기도 안양시 만안구 박달동 52-15번지","category":"보건위생 - 기타대인서비스"},{"name":"제일포장","tel":"02-715-6409","addr":"경기도 안양시 만안구 박달동 52-15번지","category":"신변잡화 - 기타잡화"}]},{"lat":"37.403190788","long":"126.91278785","items":[{"name":"아쿠아수정수기","tel":"031-381-0908","addr":"경기도 안양시 만안구 박달동 72-5번지","category":"용역 서비스 - 종합용역"}]},{"lat":"37.400328185","long":"126.90473879","items":[{"name":"아크팩토리(Arcfactory. leather Works)","tel":"","addr":"경기도 안양시 만안구 박달동 139-55번지 명문그린빌리지","category":"문화.취미 - 문화취미기타"}]},{"lat":"37.400715195","long":"126.90423006","items":[{"name":"아트비공방","tel":"031-346-5166","addr":"경기도 안양시 만안구 박달동 139-6번지","category":"문화.취미 - 문화취미기타"}]},{"lat":"37.408635727","long":"126.88526659","items":[{"name":"아트플러스","tel":"","addr":"경기도 안양시 만안구 박달동 930-5번지","category":"서적문구 - 문구용품"}]},{"lat":"37.400640745","long":"126.90142929","items":[{"name":"안양고등학교","tel":"031-443-2142","addr":"경기도 안양시 만안구 박달동 144-3번지","category":"학원 - 초중고교육기관"},{"name":"안양고등학교_수업료","tel":"031-443-2142","addr":"경기도 안양시 만안구 박달동 144-3번지","category":"학원 - 초중고교육기관"}]},{"lat":"37.404371581","long":"126.89212896","items":[{"name":"안양대리점","tel":"","addr":"경기도 안양시 만안구 박달동 616-9번지 대림한숲타운아파트","category":"건강식품 - 기타건강식품"}]},{"lat":"37.402026143","long":"126.90976243","items":[{"name":"안양벤코리아","tel":"070-6853-1708","addr":"경기도 안양시 만안구 박달동 68-50번지 진명빌라","category":"보건위생 - 기타대인서비스"}]},{"lat":"37.402865658","long":"126.90075993","items":[{"name":"안양유통","tel":"031-403-3771","addr":"경기도 안양시 만안구 박달동 114번지 한라비발디아파트","category":"유통업 영리 - 기타유통업"}]},{"lat":"37.401940405","long":"126.90403646","items":[{"name":"애니카랜드 만안점","tel":"031-445-1903","addr":"경기도 안양시 만안구 박달동 132-3번지","category":"자동차정비 유지 - 자동차정비"}]},{"lat":"37.404307118","long":"126.9115893","items":[{"name":"어필","tel":"031-443-4858","addr":"경기도 안양시 만안구 박달동 61-6번지","category":"의류 - 정장"},{"name":"휴앤샵","tel":"031-385-2575","addr":"경기도 안양시 만안구 박달동 61-6번지","category":"보건위생 - 화장품"}]},{"lat":"37.405359869","long":"126.90975831","items":[{"name":"엄마손상회","tel":"031-441-4423","addr":"경기도 안양시 만안구 박달동 56-1번지","category":"유통업 영리 - 슈퍼마켓"},{"name":"천하유통","tel":"031-465-6960","addr":"경기도 안양시 만안구 박달동 56-1번지","category":"신변잡화 - 신발"}]},{"lat":"37.402694018","long":"126.91120726","items":[{"name":"엄지공주","tel":"031-464-6789","addr":"경기도 안양시 만안구 박달동 74-5번지","category":"보건위생 - 화장품"},{"name":"최가네손칼국수","tel":"031-464-2727","addr":"경기도 안양시 만안구 박달동 74-5번지","category":"일반휴게음식 - 일반한식"}]},{"lat":"37.402827136","long":"126.90862073","items":[{"name":"에이바스컴퍼니(AVAS COMPANY)","tel":"070-4641-4154","addr":"경기도 안양시 만안구 박달동 100-9번지","category":"유통업 영리 - 기타유통업"}]},{"lat":"37.405188106","long":"126.90903567","items":[{"name":"여왕","tel":"02-1577-0000","addr":"경기도 안양시 만안구 박달동 22-7번지","category":"보건위생 - 화장품"}]},{"lat":"37.405270362","long":"126.91051515","items":[{"name":"여우비","tel":"070-7007-5050","addr":"경기도 안양시 만안구 박달동 56-26번지","category":"의류 - 정장"}]},{"lat":"37.402360497","long":"126.91101566","items":[{"name":"연변왕양꼬치","tel":"","addr":"경기도 안양시 만안구 박달동 68-25번지","category":"일반휴게음식 - 중국식"},{"name":"좋은하루커피호프","tel":"031-465-1993","addr":"경기도 안양시 만안구 박달동 68-25번지","category":"일반휴게음식 - 주점"}]},{"lat":"37.40463876","long":"126.90937519","items":[{"name":"연세내과의원","tel":"031-466-5575","addr":"경기도 안양시 만안구 박달동 21-1번지","category":"의원 - 의원"},{"name":"예김피부과의원","tel":"031-468-2109","addr":"경기도 안양시 만안구 박달동 21-1번지","category":"의원 - 의원"},{"name":"제일약국","tel":"031-441-3215","addr":"경기도 안양시 만안구 박달동 21-1번지","category":"약국 - 약국"}]},{"lat":"37.40390931","long":"126.90983916","items":[{"name":"연호프","tel":"031-456-4895","addr":"경기도 안양시 만안구 박달동 20-1번지","category":"일반휴게음식 - 주점"},{"name":"유진미트","tel":"031-444-5151","addr":"경기도 안양시 만안구 박달동 20-1번지","category":"음료식품 - 농·축·수산품"},{"name":"지멘토영수단과학원","tel":"031-441-1002","addr":"경기도 안양시 만안구 박달동 20-1번지","category":"학원 - 보습학원"}]},{"lat":"37.40638745","long":"126.91031048","items":[{"name":"연희마트","tel":"031-449-7374","addr":"경기도 안양시 만안구 박달동 31-11번지","category":"유통업 영리 - 슈퍼마켓"}]},{"lat":"37.40627704","long":"126.90743046","items":[{"name":"열린마트","tel":"031-469-4482","addr":"경기도 안양시 만안구 박달동 9-14번지","category":"유통업 영리 - 슈퍼마켓"}]},{"lat":"37.404772331","long":"126.90739849","items":[{"name":"예가","tel":"02-537-9011","addr":"경기도 안양시 만안구 박달동 34번지 한신휴플러스타운","category":"회원제형태 - 기타4"},{"name":"진명유통","tel":"031-443-0930","addr":"경기도 안양시 만안구 박달동 34번지 한신휴플러스타운","category":"회원제형태 - 기타4"},{"name":"핑크엔젤(pinkangel)","tel":"031-648-4467","addr":"경기도 안양시 만안구 박달동 34번지 한신휴플러스타운","category":"직물 - 침구·수예점"}]},{"lat":"37.405075524","long":"126.88404105","items":[{"name":"예담 전기소방","tel":"","addr":"경기도 안양시 만안구 박달동 773-2번지","category":"용역 서비스 - 기타용역서비스"}]},{"lat":"37.409355471","long":"126.88420372","items":[{"name":"예손부대찌개","tel":"031-466-8555","addr":"경기도 안양시 만안구 박달동","category":"일반휴게음식 - 일반한식"}]},{"lat":"37.400250746","long":"126.89848213","items":[{"name":"예일어패럴","tel":"031-446-4318","addr":"경기도 안양시 만안구 박달동 602-38번지","category":"의류 - 정장"},{"name":"예일어패럴/올리브물대","tel":"","addr":"경기도 안양시 만안구 박달동","category":"별도관리 - 자체물품대금"}]},{"lat":"37.403576053","long":"126.9099864","items":[{"name":"예전사","tel":"031-443-9500","addr":"경기도 안양시 만안구 박달동 20-22번지","category":"용역 서비스 - 종합용역"},{"name":"진성상사","tel":"031-449-5767","addr":"경기도 안양시 만안구 박달동 20-22번지","category":"건축자재 - 목재·석재·철물"}]},{"lat":"37.403909833","long":"126.91050553","items":[{"name":"옛골순대국","tel":"031-445-7513","addr":"경기도 안양시 만안구 박달동 61-14번지","category":"일반휴게음식 - 일반한식"},{"name":"장수건강원","tel":"031-442-9954","addr":"경기도 안양시 만안구 박달동 61-14번지","category":"건강식품 - 기타건강식품"},{"name":"찌개전쟁","tel":"031-444-8001","addr":"경기도 안양시 만안구 박달동 61-14번지","category":"일반휴게음식 - 일반한식"},{"name":"해동정육점","tel":"031-442-6351","addr":"경기도 안양시 만안구 박달동 61-14번지","category":"음료식품 - 정육점"}]},{"lat":"37.405217924","long":"126.912616","items":[{"name":"오도독수제간식","tel":"031-441-5657","addr":"경기도 안양시 만안구 박달동 59-13번지","category":"문화.취미 - 애완동물"}]},{"lat":"37.405695103","long":"126.91215235","items":[{"name":"오천냥포차","tel":"031-466-9253","addr":"경기도 안양시 만안구 박달동 58-35번지","category":"일반휴게음식 - 주점"}]},{"lat":"37.402717899","long":"126.90723168","items":[{"name":"오페라헤어","tel":"","addr":"경기도 안양시 만안구 박달동 99-16번지","category":"보건위생 - 미용원"}]},{"lat":"37.402887708","long":"126.90553734","items":[{"name":"와동감자탕","tel":"031-443-8211","addr":"경기도 안양시 만안구 박달동 134-1번지","category":"일반휴게음식 - 일반한식"},{"name":"임선영의벨리아카데미","tel":"031-466-6789","addr":"경기도 안양시 만안구 박달동 134-1번지","category":"회원제형태 - 레져업소"}]},{"lat":"37.41007658","long":"126.88450755","items":[{"name":"와이제이유통","tel":"","addr":"경기도 안양시 만안구 박달동 924-8번지","category":"신변잡화 - 기타잡화"}]},{"lat":"37.405306287","long":"126.91036828","items":[{"name":"왕관카패트","tel":"031-468-4471","addr":"경기도 안양시 만안구 박달동 56-21번지","category":"직물 - 침구·수예점"},{"name":"지오프로헤어","tel":"031-469-4445","addr":"경기도 안양시 만안구 박달동 56-21번지","category":"보건위생 - 미용원"}]},{"lat":"37.403332905","long":"126.91014482","items":[{"name":"왕냉면","tel":"031-442-3373","addr":"경기도 안양시 만안구 박달동 20-34번지","category":"일반휴게음식 - 일반한식"},{"name":"할매냉면","tel":"031-446-2323","addr":"경기도 안양시 만안구 박달동 20-34번지","category":"일반휴게음식 - 일반한식"}]},{"lat":"37.402693517","long":"126.91056349","items":[{"name":"우리들이비인후과의원","tel":"031-689-4799","addr":"경기도 안양시 만안구 박달동 19-4번지","category":"의원 - 의원"},{"name":"원치과의원","tel":"031-469-2888","addr":"경기도 안양시 만안구 박달동 19-4번지","category":"의원 - 치과의원"},{"name":"탐앤탐스커피(TOMNTOMSCOFFEE)박달사거리점","tel":"031-465-6161","addr":"경기도 안양시 만안구 박달동 19-4번지","category":"일반휴게음식 - 서양음식"}]},{"lat":"37.40541169","long":"126.90695719","items":[{"name":"우준건설도장","tel":"031-465-5868","addr":"경기도 안양시 만안구 박달동 8-8번지","category":"건축자재 - 페인트"}]},{"lat":"37.401446115","long":"126.90556179","items":[{"name":"원더풀원쌤공부방","tel":"031-444-0770","addr":"경기도 안양시 만안구 박달동 139-21번지","category":"회원제형태 - 학원"}]},{"lat":"37.402112226","long":"126.90479293","items":[{"name":"원일기공","tel":"031-442-9119","addr":"경기도 안양시 만안구 박달동 141-5번지","category":"기타 - 기계공구"}]},{"lat":"37.402855221","long":"126.90995341","items":[{"name":"원할머니보쌈박달점","tel":"031-465-5353","addr":"경기도 안양시 만안구 박달동 18-3번지","category":"일반휴게음식 - 일반한식"}]},{"lat":"37.401522147","long":"126.91048587","items":[{"name":"위즈맘어린이집[아이행복]","tel":"031-442-8467","addr":"경기도 안양시 만안구 박달동 94-93번지","category":"학원 - 유아원"},{"name":"위즈맘어린이집[아이행복]","tel":"031-442-8467","addr":"경기도 안양시 만안구 박달동 94-93번지","category":"학원 - 유아원"}]},{"lat":"37.405250184","long":"126.90779319","items":[{"name":"유가네","tel":"031-468-4567","addr":"경기도 안양시 만안구 박달동 36-6번지","category":"일반휴게음식 - 일반한식"},{"name":"유가네","tel":"031-468-4567","addr":"경기도 안양시 만안구 박달동 36-6번지","category":"음료식품 - 정육점"}]},{"lat":"37.404051799","long":"126.90773823","items":[{"name":"유가네김밥","tel":"031-465-1622","addr":"경기도 안양시 만안구 박달동 45-16번지","category":"일반휴게음식 - 스넥"}]},{"lat":"37.40212448","long":"126.89807295","items":[{"name":"유앤아이 푸르미어린이집[아이행복]","tel":"031-341-1522","addr":"경기도 안양시 만안구 박달동 607-1번지 한일유앤아이아파트","category":"학원 - 유아원"}]},{"lat":"37.403966911","long":"126.90313025","items":[{"name":"윤선생우리집앞영어한라공부방","tel":"031-381-4843","addr":"경기도 안양시 만안구 박달동 114번지 한라비발디아파트","category":"학원 - 보습학원"}]},{"lat":"37.404611219","long":"126.90873144","items":[{"name":"은진인테리어","tel":"031-398-9482","addr":"경기도 안양시 만안구 박달동 15-5번지","category":"건축자재 - 인테리어전문"},{"name":"제일건강원","tel":"031-444-0889","addr":"경기도 안양시 만안구 박달동 15-5번지","category":"건강식품 - 기타건강식품"}]},{"lat":"37.402664313","long":"126.90781905","items":[{"name":"은텔레콤","tel":"031-393-3011","addr":"경기도 안양시 만안구 박달동 100-19번지","category":"사무통신 - 통신기기"},{"name":"핑크여우눈썹","tel":"031-340-6305","addr":"경기도 안양시 만안구 박달동 100-19번지","category":"보건위생 - 피부미용실"}]},{"lat":"37.399628578","long":"126.90864732","items":[{"name":"이동가방","tel":"031-463-9025","addr":"경기도 안양시 만안구 박달동 85번지 우성아파트","category":"회원제형태 - 기타4"}]},{"lat":"37.402694315","long":"126.91159126","items":[{"name":"이디야커피안양박달점","tel":"031-442-8264","addr":"경기도 안양시 만안구 박달동 74-18번지","category":"일반휴게음식 - 서양음식"},{"name":"임하정 스킨케어","tel":"031-464-6602","addr":"경기도 안양시 만안구 박달동 74-18번지","category":"회원제형태 - 기타4"}]},{"lat":"37.399386879","long":"126.89973693","items":[{"name":"이룸어린이집[아이행복]","tel":"031-441-2002","addr":"경기도 안양시 만안구 박달동 150번지 브라운스톤하나마을","category":"학원 - 유아원"}]},{"lat":"37.406773706","long":"126.90881909","items":[{"name":"이마트24 안양박달타운점","tel":"","addr":"경기도 안양시 만안구 박달동 25-13번지","category":"유통업 영리 - 편 의 점"}]},{"lat":"37.403136555","long":"126.91256203","items":[{"name":"이신자헤어컴","tel":"031-466-2726","addr":"경기도 안양시 만안구 박달동 72-2번지","category":"보건위생 - 미용원"}]},{"lat":"37.405135852","long":"126.91133982","items":[{"name":"이찌방","tel":"031-441-4006","addr":"경기도 안양시 만안구 박달동 58-19번지","category":"일반휴게음식 - 주점"}]},{"lat":"37.403774558","long":"126.91034757","items":[{"name":"이천방앗간","tel":"031-444-2851","addr":"경기도 안양시 만안구 박달동 20-55번지","category":"음료식품 - 기타음료식품"}]},{"lat":"37.404413963","long":"126.90995148","items":[{"name":"인천건어물상회","tel":"031-444-6263","addr":"경기도 안양시 만안구 박달동 21-30번지","category":"음료식품 - 농·축·수산품"},{"name":"태초식품","tel":"031-445-5980","addr":"경기도 안양시 만안구 박달동 21-30번지","category":"음료식품 - 기타음료식품"}]},{"lat":"37.406800422","long":"126.90842374","items":[{"name":"인터하우스","tel":"031-473-0202","addr":"경기도 안양시 만안구 박달동 24-2번지 삼정다세대주택","category":"건축자재 - 인테리어전문"}]},{"lat":"37.403108113","long":"126.9107324","items":[{"name":"일억식품","tel":"031-445-6342","addr":"경기도 안양시 만안구 박달동 20-41번지","category":"음료식품 - 기타음료식품"}]},{"lat":"37.40063385","long":"126.90392524","items":[{"name":"잇뽀잇뽀","tel":"","addr":"경기도 안양시 만안구 박달동 139-100번지","category":"신변잡화 - 액세서리"}]},{"lat":"37.403278525","long":"126.90973829","items":[{"name":"자매통닭","tel":"031-372-0540","addr":"경기도 안양시 만안구 박달동 17-24번지","category":"일반휴게음식 - 일반한식"},{"name":"크로바쇼파","tel":"031-447-5582","addr":"경기도 안양시 만안구 박달동 17-24번지","category":"수리서비스 - 기타수리서비스"}]},{"lat":"37.403937775","long":"126.91168011","items":[{"name":"장수쌀상회","tel":"031-466-3767","addr":"경기도 안양시 만안구 박달동 64-11번지","category":"음료식품 - 미곡상"}]},{"lat":"37.403002097","long":"126.90226187","items":[{"name":"장인국악기","tel":"031-474-3338","addr":"경기도 안양시 만안구 박달동 114번지 한라비발디아파트","category":"레져용품 - 악기점"},{"name":"플라워안트 (Flower aunt)","tel":"","addr":"경기도 안양시 만안구 박달동 114번지 한라비발디아파트","category":"문화.취미 - 화원"}]},{"lat":"37.405333511","long":"126.91061673","items":[{"name":"장터","tel":"031-445-5582","addr":"경기도 안양시 만안구 박달동 56-28번지","category":"음료식품 - 기타음료식품"}]},{"lat":"37.403303417","long":"126.90706153","items":[{"name":"장터치킨","tel":"031-466-9991","addr":"경기도 안양시 만안구 박달동 103번지","category":"일반휴게음식 - 스넥"}]},{"lat":"37.401418423","long":"126.90475996","items":[{"name":"저잣거리장어생고기","tel":"031-441-9290","addr":"경기도 안양시 만안구 박달동 138-15번지","category":"일반휴게음식 - 일반한식"}]},{"lat":"37.405692786","long":"126.90918187","items":[{"name":"전주시골순대","tel":"031-469-0722","addr":"경기도 안양시 만안구 박달동 22-33번지","category":"일반휴게음식 - 일반한식"},{"name":"찬드림식품","tel":"031-472-6799","addr":"경기도 안양시 만안구 박달동 22-33번지","category":"음료식품 - 기타음료식품"},{"name":"팡팡노래연습장","tel":"031-443-6456","addr":"경기도 안양시 만안구 박달동 22-33번지","category":"레저업소 - 노 래 방"}]},{"lat":"37.404965581","long":"126.91253724","items":[{"name":"정안유통","tel":"070-8197-7008","addr":"경기도 안양시 만안구 박달동 62-37번지","category":"음료식품 - 농·축·수산품"}]},{"lat":"37.404662056","long":"126.88503561","items":[{"name":"정직한자동차공업사","tel":"031-443-1001","addr":"경기도 안양시 만안구 박달동 699-6번지","category":"자동차정비 유지 - 자동차정비"}]},{"lat":"37.404945192","long":"126.90948775","items":[{"name":"정한의원","tel":"031-469-7583","addr":"경기도 안양시 만안구 박달동 22-20번지","category":"의원 - 한의원"}]},{"lat":"37.406468762","long":"126.91059274","items":[{"name":"제이모터스","tel":"031-464-3045","addr":"경기도 안양시 만안구 박달동 30-35번지","category":"자동차정비 유지 - 자동차부품"},{"name":"피자웨이(pizzaway)","tel":"","addr":"경기도 안양시 만안구 박달동 30-35번지","category":"일반휴게음식 - 서양음식"}]},{"lat":"37.40003309","long":"126.90747227","items":[{"name":"제이에스 F&S","tel":"","addr":"경기도 안양시 만안구 박달동 85번지 우성아파트","category":"기타 - 기계공구"}]},{"lat":"37.402215488","long":"126.90993161","items":[{"name":"제이원","tel":"","addr":"경기도 안양시 만안구 박달동 68-13번지 목화빌라","category":"서적문구 - 과학기자재"}]},{"lat":"37.403133298","long":"126.90839446","items":[{"name":"조은샘어린이집[아이행복]","tel":"031-468-4483","addr":"경기도 안양시 만안구 박달동 100-1번지","category":"학원 - 유아원"}]},{"lat":"37.404358341","long":"126.90798632","items":[{"name":"조이샵","tel":"","addr":"경기도 안양시 만안구 박달동 45-10번지","category":"의류 - 정장"}]},{"lat":"37.400690646","long":"126.87823164","items":[{"name":"주식회사 경신공업","tel":"031-468-8511","addr":"경기도 안양시 만안구 박달동 753-11번지","category":"기타 - 기계공구"}]},{"lat":"37.404271313","long":"126.91189429","items":[{"name":"주식회사 천년미가","tel":"031-469-0380","addr":"경기도 안양시 만안구 박달동 63-1번지","category":"음료식품 - 기타음료식품"}]},{"lat":"37.405639853","long":"126.91061635","items":[{"name":"주식회사 푸른푸드서비스","tel":"031-442-1480","addr":"경기도 안양시 만안구 박달동 56-15번지","category":"음료식품 - 기타음료식품"}]},{"lat":"37.405526729","long":"126.8847406","items":[{"name":"주식회사 하나창호","tel":"031-4730-3100","addr":"경기도 안양시 만안구 박달동 779-2번지","category":"용역 서비스 - 기타용역서비스"}]},{"lat":"37.407134851","long":"126.90975611","items":[{"name":"준ENC","tel":"031-473-4887","addr":"경기도 안양시 만안구 박달동 25-20번지","category":"용역 서비스 - 기타용역서비스"}]},{"lat":"37.400819717","long":"126.90000602","items":[{"name":"중소상인 엘이디 지원센터","tel":"070-7551-3106","addr":"경기도 안양시 만안구 박달동 152번지 신안아파트","category":"용역 서비스 - 기타용역서비스"},{"name":"참사랑가베어린이집","tel":"031-464-7866","addr":"경기도 안양시 만안구 박달동 152번지 신안아파트","category":"학원 - 유아원"},{"name":"참사랑가베어린이집[아이행복]","tel":"031-464-7866","addr":"경기도 안양시 만안구 박달동 152번지 신안아파트","category":"학원 - 유아원"}]},{"lat":"37.401967227","long":"126.90378795","items":[{"name":"중화반점","tel":"031-443-7737","addr":"경기도 안양시 만안구 박달동 128-12번지","category":"일반휴게음식 - 중국식"}]},{"lat":"37.401945838","long":"126.89984636","items":[{"name":"지앤수피아노","tel":"031-464-7025","addr":"경기도 안양시 만안구 박달동 157-31번지","category":"학원 - 예·체능계학원"}]},{"lat":"37.406719448","long":"126.90857067","items":[{"name":"지에스모터스","tel":"","addr":"경기도 안양시 만안구 박달동 24-7번지","category":"자동차판매 - 이륜차판매"}]},{"lat":"37.401358296","long":"126.9083741","items":[{"name":"직지심경","tel":"031-447-4377","addr":"경기도 안양시 만안구 박달동 94-59번지","category":"유통업 영리 - 기타유통업"},{"name":"하림맥시칸","tel":"031-448-5513","addr":"경기도 안양시 만안구 박달동 94-59번지","category":"일반휴게음식 - 스넥"}]},{"lat":"37.403827541","long":"126.90898089","items":[{"name":"진미본가","tel":"031-445-2336","addr":"경기도 안양시 만안구 박달동 49-6번지","category":"일반휴게음식 - 일반한식"}]},{"lat":"37.403583039","long":"126.90744518","items":[{"name":"진성사무","tel":"031-441-5488","addr":"경기도 안양시 만안구 박달동 103번지 적성아파트","category":"사무통신 - 기타 사무용품"}]},{"lat":"37.40460465","long":"126.91184871","items":[{"name":"진애드","tel":"070-7525-8884","addr":"경기도 안양시 만안구 박달동 62-9번지 효성리더스빌","category":"용역 서비스 - 종합용역"}]},{"lat":"37.41002278","long":"126.88476743","items":[{"name":"진옥마을세탁","tel":"031-445-3730","addr":"경기도 안양시 만안구 박달동 924-2번지","category":"수리서비스 - 세탁소"}]},{"lat":"37.406306236","long":"126.91015245","items":[{"name":"진흥열기","tel":"031-448-9005","addr":"경기도 안양시 만안구 박달동 31-6번지","category":"건축자재 - 보일러·펌프·샷시"},{"name":"철이네분식","tel":"031-441-7644","addr":"경기도 안양시 만안구 박달동 31-6번지","category":"일반휴게음식 - 스넥"}]},{"lat":"37.401008356","long":"126.89935071","items":[{"name":"차칸수산","tel":"","addr":"경기도 안양시 만안구 박달동 152번지 신안아파트","category":"음료식품 - 농·축·수산품"},{"name":"참조은시스템","tel":"02-1688-1402","addr":"경기도 안양시 만안구 박달동 152번지 신안아파트","category":"용역 서비스 - 종합용역"},{"name":"프라임입시연구소","tel":"031-382-0360","addr":"경기도 안양시 만안구 박달동 152번지 신안아파트","category":"보건위생 - 기타대인서비스"}]},{"lat":"37.406276811","long":"126.9071481","items":[{"name":"창대유통","tel":"","addr":"경기도 안양시 만안구 박달동 9-11번지","category":"음료식품 - 제과점"}]},{"lat":"37.409527024","long":"126.88456489","items":[{"name":"채움","tel":"031-466-1871","addr":"경기도 안양시 만안구 박달동 925-5번지","category":"일반휴게음식 - 일반한식"}]},{"lat":"37.403386948","long":"126.91012216","items":[{"name":"천재어린이집","tel":"031-466-5673","addr":"경기도 안양시 만안구 박달동 20-26번지","category":"기타 - 비영리/비대상"}]},{"lat":"37.405640012","long":"126.91081965","items":[{"name":"천해정샤브샤브","tel":"031-448-9233","addr":"경기도 안양시 만안구 박달동 56-31번지","category":"일반휴게음식 - 일반한식"}]},{"lat":"37.403442577","long":"126.91214377","items":[{"name":"청개구리","tel":"","addr":"경기도 안양시 만안구 박달동 73-13번지","category":"일반휴게음식 - 일반한식"}]},{"lat":"37.406980641","long":"126.9084461","items":[{"name":"청솔유통","tel":"02-817-8178","addr":"경기도 안양시 만안구 박달동 24-9번지 삼정다세대주택","category":"주방용구 - 정수기"}]},{"lat":"37.404251497","long":"126.90959026","items":[{"name":"축산물도소매 미트마트","tel":"031-466-5443","addr":"경기도 안양시 만안구 박달동 21-21번지","category":"음료식품 - 정육점"}]},{"lat":"37.402663573","long":"126.90690422","items":[{"name":"축산이야기","tel":"031-442-7747","addr":"경기도 안양시 만안구 박달동 99-8번지","category":"음료식품 - 정육점"},{"name":"축산이야기","tel":"031-442-7747","addr":"경기도 안양시 만안구 박달동 99-8번지","category":"일반휴게음식 - 일반한식"}]},{"lat":"37.40508003","long":"126.90909228","items":[{"name":"충주목공인테리어","tel":"031-447-9147","addr":"경기도 안양시 만안구 박달동","category":"건축자재 - 인테리어전문"}]},{"lat":"37.408247878","long":"126.88484928","items":[{"name":"치키니즘","tel":"02-898-3154","addr":"경기도 안양시 만안구 박달동 931-11번지","category":"일반휴게음식 - 스넥"}]},{"lat":"37.402691115","long":"126.90753666","items":[{"name":"카리스커피 안양점","tel":"031-449-7656","addr":"경기도 안양시 만안구 박달동 99-9번지","category":"일반휴게음식 - 서양음식"}]},{"lat":"37.4093548","long":"126.8835373","items":[{"name":"카스페이스","tel":"031-466-0158","addr":"경기도 안양시 만안구 박달동 927-1번지","category":"자동차정비 유지 - 카인테리어"}]},{"lat":"37.405411368","long":"126.90656188","items":[{"name":"카카오토링","tel":"031-446-9976","addr":"경기도 안양시 만안구 박달동 8-15번지","category":"자동차정비 유지 - 세차장"}]},{"lat":"37.408130861","long":"126.88496241","items":[{"name":"카폴리쉬","tel":"","addr":"경기도 안양시 만안구 박달동 931-10번지","category":"자동차정비 유지 - 카인테리어"}]},{"lat":"37.405000788","long":"126.91145293","items":[{"name":"컴퓨터이야기","tel":"070-7769-5114","addr":"경기도 안양시 만안구 박달동 59-1번지","category":"사무통신 - 컴퓨터"}]},{"lat":"37.408382917","long":"126.88473612","items":[{"name":"콩두레돌솥밥순두부","tel":"031-466-9985","addr":"경기도 안양시 만안구 박달동 931-12번지","category":"일반휴게음식 - 일반한식"}]},{"lat":"37.410076195","long":"126.88412351","items":[{"name":"콩두레얼큰한통북어","tel":"031-442-0088","addr":"경기도 안양시 만안구 박달동 925번지","category":"일반휴게음식 - 일반한식"}]},{"lat":"37.405748798","long":"126.91167791","items":[{"name":"크라식","tel":"031-448-3610","addr":"경기도 안양시 만안구 박달동 55-37번지","category":"의류 - 정장"}]},{"lat":"37.406639626","long":"126.91017463","items":[{"name":"키즈사랑어린이집[아이행복]","tel":"031-466-3329","addr":"경기도 안양시 만안구 박달동 31-8번지","category":"학원 - 유아원"}]},{"lat":"37.40466681","long":"126.91067402","items":[{"name":"탑몰(TOP)","tel":"070-8111-2580","addr":"경기도 안양시 만안구 박달동 60-18번지","category":"신변잡화 - 액세서리"}]},{"lat":"37.405800151","long":"126.90823299","items":[{"name":"태양식당","tel":"031-449-6845","addr":"경기도 안양시 만안구 박달동 14-6번지","category":"일반휴게음식 - 일반한식"}]},{"lat":"37.403412817","long":"126.90865388","items":[{"name":"태원정육식당","tel":"031-443-9233","addr":"경기도 안양시 만안구 박달동 79-4번지","category":"일반휴게음식 - 일반한식"},{"name":"태원정육점","tel":"031-443-9233","addr":"경기도 안양시 만안구 박달동 79-4번지","category":"음료식품 - 정육점"}]},{"lat":"37.409582164","long":"126.88564914","items":[{"name":"토이랜드","tel":"","addr":"경기도 안양시 만안구 박달동 929-1번지","category":"광학제품 - 사진관"}]},{"lat":"37.40569203","long":"126.90823312","items":[{"name":"통닭원5900","tel":"031-443-9288","addr":"경기도 안양시 만안구 박달동 14-7번지","category":"일반휴게음식 - 스넥"}]},{"lat":"37.40354943","long":"126.91050597","items":[{"name":"튀김&떡볶이","tel":"031-441-9528","addr":"경기도 안양시 만안구 박달동 20-32번지","category":"일반휴게음식 - 일반한식"},{"name":"해피모아","tel":"031-429-5430","addr":"경기도 안양시 만안구 박달동 20-32번지","category":"신변잡화 - 신발"}]},{"lat":"37.408743262","long":"126.88467908","items":[{"name":"트렌디피티(trendipity)","tel":"","addr":"경기도 안양시 만안구 박달동 931-1번지","category":"의류 - 정장"}]},{"lat":"37.404662346","long":"126.90511715","items":[{"name":"튼튼어린이집[아이행복]","tel":"031-464-1636","addr":"경기도 안양시 만안구 박달동 7-50번지 박달1차한신휴플러스","category":"학원 - 유아원"}]},{"lat":"37.402611931","long":"126.90993112","items":[{"name":"티스테이션안양박달점","tel":"031-443-0285","addr":"경기도 안양시 만안구 박달동 18-5번지","category":"자동차정비 유지 - 자동차시트·타이어"}]},{"lat":"37.406520466","long":"126.90762217","items":[{"name":"티엘테크(TLtech)","tel":"031-411-5477","addr":"경기도 안양시 만안구 박달동 13-7번지 미영팰리스","category":"회원제형태 - 기타4"}]},{"lat":"37.409769376","long":"126.8836496","items":[{"name":"틴팅스토리","tel":"031-447-1133","addr":"경기도 안양시 만안구 박달동 926-9번지","category":"자동차정비 유지 - 자동차부품"}]},{"lat":"37.404189189","long":"126.91056166","items":[{"name":"패션가구리프","tel":"031-442-3727","addr":"경기도 안양시 만안구 박달동 61-8번지","category":"가구 - 일반가구"}]},{"lat":"37.404889033","long":"126.9068675","items":[{"name":"퍼플헤어","tel":"031-466-3887","addr":"경기도 안양시 만안구 박달동 37-3번지","category":"보건위생 - 미용원"}]},{"lat":"37.402911182","long":"126.91240418","items":[{"name":"페인트백화점노루상사","tel":"031-447-7171","addr":"경기도 안양시 만안구 박달동 74-14번지","category":"건축자재 - 페인트"}]},{"lat":"37.406270585","long":"126.91064946","items":[{"name":"푸드뱅크","tel":"031-469-9252","addr":"경기도 안양시 만안구 박달동 54-1번지","category":"일반휴게음식 - 스넥"}]},{"lat":"37.403137019","long":"126.91317191","items":[{"name":"푸른건축설비","tel":"031-444-9093","addr":"경기도 안양시 만안구 박달동 72-10번지","category":"건축자재 - 인테리어전문"}]},{"lat":"37.403387487","long":"126.91081111","items":[{"name":"푸른바다","tel":"","addr":"경기도 안양시 만안구 박달동 65-1번지","category":"음료식품 - 농·축·수산품"},{"name":"호야가구","tel":"031-444-7369","addr":"경기도 안양시 만안구 박달동 65-1번지","category":"가구 - 일반가구"}]},{"lat":"37.406603807","long":"126.91045704","items":[{"name":"푸른종합설비","tel":"031-383-7769","addr":"경기도 안양시 만안구 박달동 30-2번지 Iloomvillage","category":"용역 서비스 - 기타용역서비스"}]},{"lat":"37.398677003","long":"126.90196273","items":[{"name":"프리나카펜트리","tel":"070-5022-4846","addr":"경기도 안양시 만안구 박달동 149-1번지 금호타운","category":"회원제형태 - 기타4"}]},{"lat":"37.403693529","long":"126.91042673","items":[{"name":"플러스화장품","tel":"031-342-7242","addr":"경기도 안양시 만안구 박달동 20-56번지","category":"보건위생 - 화장품"},{"name":"햇빛김밥찰밥","tel":"031-447-0244","addr":"경기도 안양시 만안구 박달동 20-56번지","category":"일반휴게음식 - 스넥"}]},{"lat":"37.410158179","long":"126.88501571","items":[{"name":"피엘","tel":"031-472-5636","addr":"경기도 안양시 만안구 박달동 923-7번지","category":"가구 - 일반가구"}]},{"lat":"37.401084637","long":"126.90426346","items":[{"name":"피크닉","tel":"070-4640-1079","addr":"경기도 안양시 만안구 박달동 140-10번지","category":"일반휴게음식 - 서양음식"}]},{"lat":"37.399371671","long":"126.90301211","items":[{"name":"필드 (PHILLD)","tel":"","addr":"경기도 안양시 만안구 박달동 139-202번지 극동아파트","category":"용역 서비스 - 사무서비스"}]},{"lat":"37.401666783","long":"126.91109557","items":[{"name":"하나로할인마트","tel":"031-442-3746","addr":"경기도 안양시 만안구 박달동 68-71번지","category":"유통업 영리 - 슈퍼마켓"}]},{"lat":"37.402028256","long":"126.9124843","items":[{"name":"하얀창","tel":"","addr":"경기도 안양시 만안구 박달동 68-98번지","category":"용역 서비스 - 종합용역"}]},{"lat":"37.401776103","long":"126.91265401","items":[{"name":"하우스호프","tel":"031-448-8854","addr":"경기도 안양시 만안구 박달동 68-103번지","category":"일반휴게음식 - 주점"}]},{"lat":"37.402637191","long":"126.90770614","items":[{"name":"한보학원 주식회사","tel":"031-447-6080","addr":"경기도 안양시 만안구 박달동 100-26번지","category":"학원 - 외국어학원"}]},{"lat":"37.402217441","long":"126.91245019","items":[{"name":"한샘인테리어","tel":"031-441-3256","addr":"경기도 안양시 만안구 박달동 68-47번지","category":"건축자재 - 인테리어전문"}]},{"lat":"37.400859054","long":"126.90386847","items":[{"name":"한아름화원","tel":"031-449-0070","addr":"경기도 안양시 만안구 박달동 140-26번지","category":"문화.취미 - 화원"},{"name":"헤어커커미용실","tel":"031-447-0080","addr":"경기도 안양시 만안구 박달동 140-26번지","category":"보건위생 - 미용원"}]},{"lat":"37.404693276","long":"126.88931616","items":[{"name":"한양목재","tel":"031-441-8600","addr":"경기도 안양시 만안구 박달동 617-39번지","category":"건축자재 - 목재·석재·철물"}]},{"lat":"37.406718733","long":"126.90767839","items":[{"name":"한일자동펌프","tel":"031-443-3781","addr":"경기도 안양시 만안구 박달동 13-3번지","category":"건축자재 - 보일러·펌프·샷시"}]},{"lat":"37.402195988","long":"126.90806811","items":[{"name":"해마루","tel":"031-444-9964","addr":"경기도 안양시 만안구 박달동 85-4번지 노블레스빌","category":"일반휴게음식 - 일반한식"}]},{"lat":"37.404980443","long":"126.90849379","items":[{"name":"해와솔어린이집[아이행복]","tel":"031-441-3116","addr":"경기도 안양시 만안구 박달동 15-2번지 박달동동원베네스트","category":"학원 - 유아원"}]},{"lat":"37.402696062","long":"126.9026237","items":[{"name":"해피키즈어린이집[아이행복]","tel":"031-341-2772","addr":"경기도 안양시 만안구 박달동 114-9번지","category":"학원 - 유아원"}]},{"lat":"37.401695116","long":"126.90165374","items":[{"name":"행복드림","tel":"","addr":"경기도 안양시 만안구 박달동 127-10번지 신안빌라","category":"신변잡화 - 기타잡화"}]},{"lat":"37.402745575","long":"126.90803353","items":[{"name":"행피나","tel":"031-348-5017","addr":"경기도 안양시 만안구 박달동 100-20번지","category":"일반휴게음식 - 서양음식"}]},{"lat":"37.403802989","long":"126.91215463","items":[{"name":"헤어란","tel":"031-465-2539","addr":"경기도 안양시 만안구 박달동 70-20번지","category":"보건위생 - 미용원"}]},{"lat":"37.403854723","long":"126.90917286","items":[{"name":"현대유통","tel":"031-349-3877","addr":"경기도 안양시 만안구 박달동 16-21번지","category":"음료식품 - 농·축·수산품"}]},{"lat":"37.400941375","long":"126.90534786","items":[{"name":"현어린이집[아이행복]","tel":"031-448-9554","addr":"경기도 안양시 만안구 박달동 139-101번지","category":"학원 - 유아원"}]},{"lat":"37.406520603","long":"126.90779159","items":[{"name":"홈종합인테리어","tel":"031-468-6283","addr":"경기도 안양시 만안구 박달동 13-4번지","category":"건축자재 - 인테리어전문"}]},{"lat":"37.402890053","long":"126.90842865","items":[{"name":"화가들의마을미술교습소","tel":"031-348-9866","addr":"경기도 안양시 만안구 박달동 100-11번지","category":"학원 - 예·체능계학원"}]},{"lat":"37.403106825","long":"126.90909474","items":[{"name":"희망상사","tel":"","addr":"경기도 안양시 만안구 박달동 80-20번지","category":"신변잡화 - 기타잡화"}]},{"lat":"37.400661003","long":"126.90407202","items":[{"name":"희카페","tel":"031-443-8643","addr":"경기도 안양시 만안구 박달동 139-111번지","category":"일반휴게음식 - 서양음식"}]},{"lat":"37.40262831","long":"126.89724777","items":[{"name":"힐링잇","tel":"070-8837-8511","addr":"경기도 안양시 만안구 박달동 607-1번지 한일유앤아이아파트","category":"회원제형태 - 기타4"}]}]