[{"lat":"37.606356664","long":"126.86694941","items":[{"name":"꽃과함께","tel":"02-3158-3271","addr":"경기도 고양시 덕양구 중앙로","category":"문화.취미 - 화원"}]},{"lat":"37.594810137","long":"126.87875779","items":[{"name":"덕안약국","tel":"02-814-3707","addr":"경기도 고양시 덕양구 중앙로","category":"약국 - 약국"}]},{"lat":"37.618465716","long":"126.84518009","items":[{"name":"두잇짐","tel":"031-970-0828","addr":"경기도 고양시 덕양구 중앙로","category":"회원제형태 - 레져업소"}]},{"lat":"37.617918112","long":"126.84667636","items":[{"name":"뚜레쥬르 행신서정마을(2)","tel":"031-973-0435","addr":"경기도 고양시 덕양구 중앙로","category":"음료식품 - 제과점"},{"name":"퀸스킨","tel":"031-979-7879","addr":"경기도 고양시 덕양구 중앙로","category":"회원제형태 - 기타4"}]},{"lat":"37.627270202","long":"126.82743311","items":[{"name":"라인의원","tel":"031-974-9700","addr":"경기도 고양시 덕양구 중앙로","category":"의원 - 의원"}]},{"lat":"37.618860197","long":"126.84372943","items":[{"name":"메디팜다나약국","tel":"031-971-4357","addr":"경기도 고양시 덕양구 중앙로","category":"약국 - 약국"}]},{"lat":"37.599362961","long":"126.87306567","items":[{"name":"블랙야크 덕양점","tel":"02-3158-3272","addr":"경기도 고양시 덕양구 중앙로","category":"레져용품 - 스포츠·레져용품"}]},{"lat":"37.617998869","long":"126.84642701","items":[{"name":"생생마을","tel":"031-971-6689","addr":"경기도 고양시 덕양구 중앙로","category":"음료식품 - 정육점"},{"name":"수이강한의원","tel":"031-971-1017","addr":"경기도 고양시 덕양구 중앙로","category":"의원 - 한의원"},{"name":"요거프레소(행신서정점)","tel":"031-974-6900","addr":"경기도 고양시 덕양구 중앙로","category":"일반휴게음식 - 서양음식"}]},{"lat":"37.623469721","long":"126.83473693","items":[{"name":"샤론요양원","tel":"031-978-1788","addr":"경기도 고양시 덕양구 중앙로","category":"기타의료기관 - 기타의료기관 및 기타"}]},{"lat":"37.623274682","long":"126.8369802","items":[{"name":"수가에스테틱","tel":"031-979-0252","addr":"경기도 고양시 덕양구 중앙로","category":"보건위생 - 화장품"}]},{"lat":"37.618448014","long":"126.84541799","items":[{"name":"스킨푸드 행신점","tel":"031-938-6286","addr":"경기도 고양시 덕양구 중앙로","category":"보건위생 - 화장품"},{"name":"이손세무회계사무소","tel":"031-978-3465","addr":"경기도 고양시 덕양구 중앙로","category":"용역 서비스 - 법률회계서비스(개인)"}]},{"lat":"37.623417704","long":"126.83617563","items":[{"name":"씨엠뮤직(CM music)","tel":"031-979-9709","addr":"경기도 고양시 덕양구 중앙로","category":"레져용품 - 악기점"}]},{"lat":"37.627494398","long":"126.82673024","items":[{"name":"엑시드상사","tel":"031-972-6168","addr":"경기도 고양시 덕양구 중앙로","category":"자동차정비 유지 - 카인테리어"}]},{"lat":"37.618196376","long":"126.84589424","items":[{"name":"코키노떡볶이(KO'KKLVO)","tel":"031-930-7600","addr":"경기도 고양시 덕양구 중앙로","category":"일반휴게음식 - 스넥"}]},{"lat":"37.612362002","long":"126.85595247","items":[{"name":"타이어하우스","tel":"02-973-1110","addr":"경기도 고양시 덕양구 중앙로","category":"자동차정비 유지 - 자동차시트·타이어"}]},{"lat":"37.623966044","long":"126.83529086","items":[{"name":"플라워마트","tel":"031-979-0042","addr":"경기도 고양시 덕양구 중앙로","category":"문화.취미 - 화원"}]},{"lat":"37.627219291","long":"126.8295629","items":[{"name":"피닉스스포츠아카데미","tel":"031-912-7679","addr":"경기도 고양시 덕양구 중앙로","category":"회원제형태 - 학원"},{"name":"화정다빈치차수학학원","tel":"031-979-2900","addr":"경기도 고양시 덕양구 중앙로","category":"학원 - 보습학원"}]},{"lat":"37.601416172","long":"126.87214485","items":[{"name":"함양효자백정토종한우직거래","tel":"02-3158-4464","addr":"경기도 고양시 덕양구 중앙로","category":"음료식품 - 정육점"},{"name":"함양효자식당","tel":"02-3158-4464","addr":"경기도 고양시 덕양구 중앙로","category":"일반휴게음식 - 일반한식"}]},{"lat":"37.627915526","long":"126.82517729","items":[{"name":"현대카센타","tel":"031-971-8204","addr":"경기도 고양시 덕양구 중앙로","category":"자동차정비 유지 - 자동차정비"}]},{"lat":"37.623219922","long":"126.83648191","items":[{"name":"홍내과","tel":"031-979-7000","addr":"경기도 고양시 덕양구 중앙로","category":"의원 - 의원"}]}]