[{"lat":"37.552181118","long":"127.3212763","items":[{"name":"(주)마이스컴","tel":"031-775-7475","addr":"경기도 양평군 양서면 양수리 402-4","category":"건축자재 - 인테리어전문"}]},{"lat":"37.544237074","long":"127.32030333","items":[{"name":"BHC양수리점","tel":"031-773-8118","addr":"경기도 양평군 양서면 양수리 1098번지","category":"일반휴게음식 - 스넥"},{"name":"양수가든","tel":"031-772-6025","addr":"경기도 양평군 양서면 양수리 1098번지","category":"일반휴게음식 - 일반한식"},{"name":"헤어  (미)","tel":"031-773-8055","addr":"경기도 양평군 양서면 양수리 1098번지","category":"보건위생 - 미용원"}]},{"lat":"37.544709767","long":"127.3187438","items":[{"name":"GS25양평양수리점","tel":"02-2006-2485","addr":"경기도 양평군 양서면 양수리 559-4","category":"유통업 영리 - 편 의 점"},{"name":"라라랜드","tel":"031-775-3329","addr":"경기도 양평군 양서면 양수리 559-4번지 1층","category":"의류 - 정장"}]},{"lat":"37.544149831","long":"127.31923931","items":[{"name":"OK정육","tel":"031-774-8486","addr":"경기도 양평군 양서면 양수리 651-6번지","category":"음료식품 - 정육점"},{"name":"오케이수산","tel":"031-774-3891","addr":"경기도 양평군 양서면 양수리 651-6번지","category":"음료식품 - 농·축·수산품"}]},{"lat":"37.544651309","long":"127.3203843","items":[{"name":"TRY 양수","tel":"031-772-5282","addr":"경기도 양평군 양서면 양수리 1084번지 1층 가호(트라이)","category":"의류 - 내의판매"},{"name":"버블맨24시빨래방","tel":"02-0000-0000","addr":"경기도 양평군 양서면 양수리 1084번지 1층 가호 매장","category":"수리서비스 - 세탁소"}]},{"lat":"37.544129201","long":"127.32021235","items":[{"name":"가나안광고","tel":"031-775-3755","addr":"경기도 양평군 양서면 양수리 1099번지","category":"용역 서비스 - 종합용역"}]},{"lat":"37.575785354","long":"127.34435678","items":[{"name":"가연추모관","tel":"031-771-9004","addr":"경기도 양평군 양서면 양수리 77-1번지","category":"용역 서비스 - 가례서비스업"}]},{"lat":"37.546102153","long":"127.31691653","items":[{"name":"강변집","tel":"031-772-6333","addr":"경기도 양평군 양서면 양수리 618-4번지","category":"일반휴게음식 - 일반한식"}]},{"lat":"37.544711701","long":"127.31801961","items":[{"name":"개포동물병원","tel":"031-771-7278","addr":"경기도 양평군 양서면 양수리 562-6번지","category":"기타의료기관 - 동물병원"},{"name":"미라지모텔","tel":"031-773-5799","addr":"경기도 양평군 양서면 양수리 562-6번지","category":"숙박업 - 여관/기타숙박업"},{"name":"찬스마트","tel":"031-775-0365","addr":"경기도 양평군 양서면 양수리 562-6","category":"유통업 영리 - 슈퍼마켓"}]},{"lat":"37.544038556","long":"127.32041565","items":[{"name":"갱변나들목숯불갈비","tel":"031-772-6252","addr":"경기도 양평군 양서면 양수리 1107번지","category":"일반휴게음식 - 일반한식"},{"name":"세시봉","tel":"031-774-7086","addr":"경기도 양평군 양서면 양수리 1107번지 2층","category":"일반휴게음식 - 서양음식"},{"name":"어반","tel":"031-775-0707","addr":"경기도 양평군 양서면 양수리 1107번지","category":"음료식품 - 기타음료식품"}]},{"lat":"37.54862909","long":"127.32207595","items":[{"name":"경기타일","tel":"031-775-2340","addr":"경기도 양평군 양서면 양수리 542-1","category":"건축자재 - 건축용 요업제품"}]},{"lat":"37.544796802","long":"127.31988703","items":[{"name":"경아두마리치킨","tel":"031-774-5100","addr":"경기도 양평군 양서면 양수리 1044번지","category":"일반휴게음식 - 서양음식"}]},{"lat":"37.545207297","long":"127.31799907","items":[{"name":"고강식당","tel":"031-772-0204","addr":"경기도 양평군 양서면 양수리 564-4번지","category":"일반휴게음식 - 일반한식"},{"name":"두머리부엌협동조합","tel":"070-4134-8955","addr":"경기도 양평군 양서면 양수리 564-4번지 1층","category":"일반휴게음식 - 일반한식"}]},{"lat":"37.544240201","long":"127.31913786","items":[{"name":"곽선생왕만두","tel":"","addr":"경기도 양평군 양서면 양수리 650-16번지","category":"일반휴게음식 - 일반한식"},{"name":"비비큐양수리점","tel":"031-773-9178","addr":"경기도 양평군 양서면 양수리 650-16번지","category":"일반휴게음식 - 스넥"},{"name":"양수하나로약국","tel":"031-771-9881","addr":"경기도 양평군 양서면 양수리 650-16","category":"약국 - 약국"}]},{"lat":"37.544317415","long":"127.31721456","items":[{"name":"곽지원과자공방","tel":"031-774-0375","addr":"경기도 양평군 양서면 양수리 647-20번지 1층","category":"음료식품 - 제과점"},{"name":"명품세탁소","tel":"031-771-6111","addr":"경기도 양평군 양서면 양수리 647-20","category":"수리서비스 - 세탁소"},{"name":"명피아노학원","tel":"031-772-6036","addr":"경기도 양평군 양서면 양수리 647-20번지 1층","category":"학원 - 예·체능계학원"},{"name":"세븐일레븐양수리삼익점","tel":"","addr":"경기도 양평군 양서면 양수리 647-20번지","category":"유통업 영리 - 편 의 점"},{"name":"우리집앞영어교실양서학원","tel":"031-773-0579","addr":"경기도 양평군 양서면 양수리 647-20번지","category":"회원제형태 - 학원"},{"name":"윤헤어","tel":"031-771-6554","addr":"경기도 양평군 양서면 양수리 647-20번지","category":"보건위생 - 미용원"},{"name":"은유공방카페","tel":"031-111-1111","addr":"경기도 양평군 양서면 양수리 647-20번지 명피아노학원 1층 5호","category":"일반휴게음식 - 서양음식"}]},{"lat":"37.544156112","long":"127.31688573","items":[{"name":"곽지원빵공방","tel":"031-774-0376","addr":"경기도 양평군 양서면 양수리 647-17번지","category":"음료식품 - 제과점"}]},{"lat":"37.545570179","long":"127.32043346","items":[{"name":"광어한마리9900","tel":"031-771-2385","addr":"경기도 양평군 양서면 양수리 1015번지","category":"일반휴게음식 - 일식·회집"}]},{"lat":"37.544572378","long":"127.31958056","items":[{"name":"광장카페","tel":"031-775-2260","addr":"경기도 양평군 양서면 양수리 556-18번지 2층","category":"일반휴게음식 - 일반한식"},{"name":"그린통신","tel":"031-774-4722","addr":"경기도 양평군 양서면 양수리 556-18번지 1층","category":"사무통신 - 통신기기"},{"name":"아이스드림 양수점","tel":"031-111-1111","addr":"경기도 양평군 양서면 양수리 556-18번지","category":"음료식품 - 기타음료식품"}]},{"lat":"37.544124951","long":"127.31843582","items":[{"name":"구슬모아당구장","tel":"070-9764-8533","addr":"경기도 양평군 양서면 양수리 648-16번지 그린빌딩 401호","category":"레저업소 - 당 구 장"},{"name":"해법에듀 양서학원","tel":"031-772-6445","addr":"경기도 양평군 양서면 양수리 648-16번지 그린빌딩 301호","category":"학원 - 보습학원"}]},{"lat":"37.544906709","long":"127.31921988","items":[{"name":"그랜드코나코리아","tel":"070-8865-0260","addr":"경기도 양평군 양서면 양수리 559-23번지 가동 1층","category":"음료식품 - 기타음료식품"},{"name":"라온","tel":"070-4696-3887","addr":"경기도 양평군 양서면 양수리 559-23번지 가동 1호","category":"음료식품 - 기타음료식품"},{"name":"짚커피(Zipcoffee)","tel":"070-8803-3326","addr":"경기도 양평군 양서면 양수리 559-23번지 나동 1층","category":"일반휴게음식 - 서양음식"},{"name":"피자랑쥬와오븐에구워더존치킨","tel":"031-773-9884","addr":"경기도 양평군 양서면 양수리 559-23번지","category":"일반휴게음식 - 일반한식"}]},{"lat":"37.557233798","long":"127.32855225","items":[{"name":"그린토피아","tel":"031-774-4929","addr":"경기도 양평군 양서면 양수리 359번지","category":"숙박업 - 여관/기타숙박업"}]},{"lat":"37.544294502","long":"127.31904756","items":[{"name":"금아","tel":"031-771-7978","addr":"경기도 양평군 양서면 양수리 650-15번지 302호","category":"레져용품 - 스포츠·레져용품"},{"name":"서울종묘","tel":"031-772-2189","addr":"경기도 양평군 양서면 양수리 650-15번지 1층","category":"농업 - 비료,사료,종자"}]},{"lat":"37.544905374","long":"127.31971776","items":[{"name":"금호반점","tel":"031-772-7188","addr":"경기도 양평군 양서면 양수리 556-4번지","category":"일반휴게음식 - 중국식"}]},{"lat":"37.545516698","long":"127.32021823","items":[{"name":"기훈이네","tel":"031-773-7292","addr":"경기도 양평군 양서면 양수리 554-8번지 1층","category":"일반휴게음식 - 스넥"}]},{"lat":"37.544572621","long":"127.31949004","items":[{"name":"김가네","tel":"031-773-7413","addr":"경기도 양평군 양서면 양수리 556-19번지","category":"일반휴게음식 - 일반한식"}]},{"lat":"37.543769237","long":"127.32005241","items":[{"name":"김밥천국","tel":"031-775-3263","addr":"경기도 양평군 양서면 양수리 1121번지","category":"일반휴게음식 - 스넥"},{"name":"두물머리밀코꽃방","tel":"031-774-5859","addr":"경기도 양평군 양서면 양수리 1121","category":"유통업 영리 - 슈퍼마켓"},{"name":"정통한방삼계탕","tel":"031-775-3883","addr":"경기도 양평군 양서면 양수리 1121번지","category":"일반휴게음식 - 일반한식"}]},{"lat":"37.544484977","long":"127.31857312","items":[{"name":"김치과의원","tel":"031-771-4644","addr":"경기도 양평군 양서면 양수리 559-15번지 2층","category":"의원 - 치과의원"}]},{"lat":"37.534988462","long":"127.3152407","items":[{"name":"꽃동산","tel":"031-771-9297","addr":"경기도 양평군 양서면 양수리 756-7","category":"음료식품 - 농·축·수산품"}]},{"lat":"37.54468024","long":"127.31629953","items":[{"name":"꿈꾸는물고기","tel":"070-8654-6543","addr":"경기도 양평군 양서면 양수리 621-13번지 삼익아파트","category":"서적문구 - 출판 및 인쇄물"}]},{"lat":"37.535408171","long":"127.31665671","items":[{"name":"나루터가","tel":"031-773-6372","addr":"경기도 양평군 양서면 양수리 770-7번지","category":"일반휴게음식 - 일반한식"}]},{"lat":"37.544491533","long":"127.3194897","items":[{"name":"나성전자","tel":"031-774-7779","addr":"경기도 양평군 양서면 양수리 651-2번지","category":"전기제품 - 가전제품"}]},{"lat":"37.544707463","long":"127.31960377","items":[{"name":"낙지랑주꾸미불판","tel":"031-772-6325","addr":"경기도 양평군 양서면 양수리 556-13","category":"일반휴게음식 - 일반한식"}]},{"lat":"37.544712667","long":"127.31765752","items":[{"name":"남수포차","tel":"031-773-8623","addr":"경기도 양평군 양서면 양수리 563-6외1필지","category":"일반휴게음식 - 일반한식"},{"name":"양수경희한의원","tel":"031-771-9580","addr":"경기도 양평군 양서면 양수리 563-6 외1필지","category":"의원 - 한의원"},{"name":"종로복떡집","tel":"031-774-4554","addr":"경기도 양평군 양서면 양수리 563-6","category":"음료식품 - 제과점"}]},{"lat":"37.544543344","long":"127.32032726","items":[{"name":"남원추어탕무교동한방왕족발","tel":"031-775-0821","addr":"경기도 양평군 양서면 양수리 1086번지","category":"일반휴게음식 - 일반한식"},{"name":"불빛노래연습장","tel":"031-775-0207","addr":"경기도 양평군 양서면 양수리 1086번지","category":"레저업소 - 노 래 방"}]},{"lat":"37.544985185","long":"127.32019335","items":[{"name":"노부","tel":"031-797-0711","addr":"경기도 양평군 양서면 양수리 1038번지 1층","category":"일반휴게음식 - 일식·회집"},{"name":"수리수리닭갈비","tel":"","addr":"경기도 양평군 양서면 양수리 1038번지","category":"일반휴게음식 - 일반한식"}]},{"lat":"37.538407783","long":"127.31690689","items":[{"name":"농업회사법인 두물주식회사","tel":"","addr":"경기도 양평군 양서면 양수리 788-2번지","category":"음료식품 - 농·축·수산품"}]},{"lat":"37.54351229","long":"127.31843323","items":[{"name":"농업회사법인 자연으로농지보존 주식회사","tel":"031-771-6107","addr":"경기도 양평군 양서면 양수리 657-18번지 2층 205호","category":"음료식품 - 농·축·수산품"},{"name":"양수강남의원","tel":"031-771-6262","addr":"경기도 양평군 양서면 양수리 657-18","category":"의원 - 의원"},{"name":"지니홀릭수제디저트","tel":"031-771-1470","addr":"경기도 양평군 양서면 양수리 657-18번지 2층","category":"음료식품 - 제과점"}]},{"lat":"37.536602462","long":"127.31477223","items":[{"name":"농업회사법인양평두물머리생태학습농원합명","tel":"031-771-0551","addr":"경기도 양평군 양서면 양수리 756-1번지","category":"음료식품 - 농·축·수산품"}]},{"lat":"37.544849462","long":"127.32040777","items":[{"name":"뉴월드이용원","tel":"031-774-3646","addr":"경기도 양평군 양서면 양수리 997","category":"보건위생 - 이용원"}]},{"lat":"37.534074188","long":"127.31685478","items":[{"name":"느티나무주차장","tel":"070-7756-3304","addr":"경기도 양평군 양서면 양수리 777-1번지","category":"자동차정비 유지 - 주차장"},{"name":"씨유양평두물머리점","tel":"031-772-1102","addr":"경기도 양평군 양서면 양수리 777-1번지","category":"유통업 영리 - 편 의 점"}]},{"lat":"37.534048271","long":"127.31643605","items":[{"name":"늘솜두물머리핫도그","tel":"031-774-8204","addr":"경기도 양평군 양서면 양수리 772-1번지","category":"음료식품 - 기타음료식품"},{"name":"다온","tel":"070-7722-7667","addr":"경기도 양평군 양서면 양수리 772-1번지","category":"음료식품 - 기타음료식품"}]},{"lat":"37.550899049","long":"127.32226669","items":[{"name":"니밥","tel":"","addr":"경기도 양평군 양서면 양수리 535-2번지","category":"일반휴게음식 - 일반한식"}]},{"lat":"37.544600226","long":"127.31927516","items":[{"name":"다올포크","tel":"031-775-8384","addr":"경기도 양평군 양서면 양수리 557-15번지","category":"음료식품 - 정육점"}]},{"lat":"37.547432204","long":"127.32155032","items":[{"name":"다이소 양평양수리점","tel":"031-771-6940","addr":"경기도 양평군 양서면 양수리 953-1번지","category":"신변잡화 - 기타잡화"}]},{"lat":"37.543632705","long":"127.31720037","items":[{"name":"대광상사","tel":"","addr":"경기도 양평군 양서면 양수리 645-4번지 대웅빌라 가동 101호","category":"보건위생 - 안경"},{"name":"성윤이엔지","tel":"031-772-1944","addr":"경기도 양평군 양서면 양수리 645-4번지 대웅빌라 가동 303호","category":"수리서비스 - 기타수리서비스"}]},{"lat":"37.544963823","long":"127.31807725","items":[{"name":"대명종묘","tel":"031-774-3399","addr":"경기도 양평군 양서면 양수리 564-19번지","category":"농업 - 비료,사료,종자"}]},{"lat":"37.544626528","long":"127.31954685","items":[{"name":"대박식당","tel":"031-771-8068","addr":"경기도 양평군 양서면 양수리 556-16","category":"일반휴게음식 - 일반한식"},{"name":"보금당","tel":"031-771-0123","addr":"경기도 양평군 양서면 양수리 556-16","category":"신변잡화 - 귀금속"}]},{"lat":"37.544653466","long":"127.31958091","items":[{"name":"더주막","tel":"031-772-9200","addr":"경기도 양평군 양서면 양수리 556-15번지","category":"일반휴게음식 - 일반한식"}]},{"lat":"37.548621426","long":"127.32157801","items":[{"name":"덕붕뽈살","tel":"","addr":"경기도 양평군 양서면 양수리 537-4번지 1층","category":"일반휴게음식 - 일반한식"},{"name":"북한강 숯불장어","tel":"031-774-0513","addr":"경기도 양평군 양서면 양수리 537-4번지 1층","category":"일반휴게음식 - 일반한식"}]},{"lat":"37.545903234","long":"127.32054803","items":[{"name":"덕수식당","tel":"031-772-6404","addr":"경기도 양평군 양서면 양수리 1007","category":"일반휴게음식 - 일반한식"}]},{"lat":"37.54453955","long":"127.31838098","items":[{"name":"동의한의원","tel":"031-774-2963","addr":"경기도 양평군 양서면 양수리 559-21번지 3층","category":"의원 - 한의원"},{"name":"바디휘트니스GYM","tel":"031-774-9991","addr":"경기도 양평군 양서면 양수리 559-21번지 관대빌딩 4층","category":"회원제형태 - 레져업소"}]},{"lat":"37.545155427","long":"127.32054485","items":[{"name":"돼지마을","tel":"031-774-1188","addr":"경기도 양평군 양서면 양수리 987번지","category":"일반휴게음식 - 일반한식"}]},{"lat":"37.53479749","long":"127.31590743","items":[{"name":"두머리슈퍼","tel":"031-774-2156","addr":"경기도 양평군 양서면 양수리 756-9번지","category":"유통업 영리 - 슈퍼마켓"}]},{"lat":"37.535658518","long":"127.31738187","items":[{"name":"두물머리 커피농장","tel":"031-111-1111","addr":"경기도 양평군 양서면 양수리 786-3,786-4,786-5번지","category":"문화.취미 - 화원"}]},{"lat":"37.544377375","long":"127.3183803","items":[{"name":"두물머리검도관","tel":"031-772-3016","addr":"경기도 양평군 양서면 양수리 649-2번지 2층","category":"학원 - 예·체능계학원"},{"name":"리아뷰티","tel":"031-771-4399","addr":"경기도 양평군 양서면 양수리 649-2번지","category":"보건위생 - 미용원"},{"name":"명지대 가람관","tel":"031-774-5615","addr":"경기도 양평군 양서면 양수리 649-2번지 2층","category":"학원 - 예·체능계학원"},{"name":"양수우리의원","tel":"031-774-8120","addr":"경기도 양평군 양서면 양수리 649-2번지","category":"건강식품 - 기타건강식품"},{"name":"우짜짜노래방","tel":"031-772-9988","addr":"경기도 양평군 양서면 양수리 649-2번지 지하층","category":"레저업소 - 노 래 방"}]},{"lat":"37.534650962","long":"127.31680062","items":[{"name":"두물머리농장식당","tel":"031-772-6370","addr":"경기도 양평군 양서면 양수리 781번지","category":"일반휴게음식 - 일반한식"},{"name":"두물머리연핫도그","tel":"031-772-6370","addr":"경기도 양평군 양서면 양수리 781번지","category":"일반휴게음식 - 일반한식"},{"name":"팔당상수원유기농업영농조합법","tel":"031-577-8021","addr":"경기도 양평군 양서면 양수리 781번지","category":"음료식품 - 농·축·수산품"}]},{"lat":"37.544986401","long":"127.31974073","items":[{"name":"두물머리동태탕,찜","tel":"031-771-0108","addr":"경기도 양평군 양서면 양수리 556-3번지 1층","category":"일반휴게음식 - 일반한식"}]},{"lat":"37.544067985","long":"127.31952185","items":[{"name":"두물머리예술나루터","tel":"031-775-4274","addr":"경기도 양평군 양서면 양수리 1074-1번지 1층","category":"일반휴게음식 - 서양음식"},{"name":"씨유양평양수리점","tel":"031-775-1649","addr":"경기도 양평군 양서면 양수리 1074-1번지","category":"유통업 영리 - 편 의 점"},{"name":"칸타빌레피아노교습소","tel":"031-775-7727","addr":"경기도 양평군 양서면 양수리 1074-1","category":"학원 - 예·체능계학원"}]},{"lat":"37.542653064","long":"127.31966297","items":[{"name":"두물머리자전거","tel":"031-772-9148","addr":"경기도 양평군 양서면 양수리 1147번지","category":"레져용품 - 스포츠·레져용품"},{"name":"하나광고","tel":"031-774-2183","addr":"경기도 양평군 양서면 양수리 1147번지","category":"용역 서비스 - 종합용역"}]},{"lat":"37.544658156","long":"127.31782703","items":[{"name":"두물머리한의원","tel":"031-774-1033","addr":"경기도 양평군 양서면 양수리 563-8번지","category":"의원 - 한의원"}]},{"lat":"37.549875515","long":"127.32093832","items":[{"name":"두물씽크","tel":"031-773-8924","addr":"경기도 양평군 양서면 양수리 531-12","category":"건축자재 - 인테리어전문"}]},{"lat":"37.543986685","long":"127.31960072","items":[{"name":"땡큐PLUS","tel":"070-8118-7260","addr":"경기도 양평군 양서면 양수리 1075번지 2층","category":"보건위생 - 화장품"},{"name":"맥주바켓 양수리점","tel":"031-772-9720","addr":"경기도 양평군 양서면 양수리 1075번지","category":"일반휴게음식 - 주점"},{"name":"파리바게뜨 양수리점","tel":"031-771-8202","addr":"경기도 양평군 양서면 양수리 1075번지","category":"음료식품 - 제과점"}]},{"lat":"37.544349014","long":"127.31887806","items":[{"name":"뚜레쥬르 양수리(2)","tel":"031-773-4077","addr":"경기도 양평군 양서면 양수리 650-14번지 외1필지","category":"음료식품 - 제과점"},{"name":"아리따움 양수점","tel":"031-774-6005","addr":"경기도 양평군 양서면 양수리 650-14번지 1층","category":"보건위생 - 화장품"},{"name":"자유공간","tel":"031-771-1545","addr":"경기도 양평군 양서면 양수리 650-14","category":"일반휴게음식 - 일반한식"},{"name":"타멜","tel":"031-111-1111","addr":"경기도 양평군 양서면 양수리 650-14번지 1층","category":"신변잡화 - 액세서리"}]},{"lat":"37.544877221","long":"127.32013632","items":[{"name":"롯데리아양수리점","tel":"031-774-7944","addr":"경기도 양평군 양서면 양수리 1052번지 1층","category":"일반휴게음식 - 서양음식"},{"name":"오롯","tel":"","addr":"경기도 양평군 양서면 양수리 1052번지 2층","category":"신변잡화 - 가방"}]},{"lat":"37.533409899","long":"127.31593557","items":[{"name":"만경","tel":"031-773-0199","addr":"경기도 양평군 양서면 양수리 707-3번지","category":"음료식품 - 기타음료식품"}]},{"lat":"37.544760763","long":"127.31988688","items":[{"name":"만빵분식","tel":"031-771-4566","addr":"경기도 양평군 양서면 양수리 1045번지 1층","category":"일반휴게음식 - 스넥"}]},{"lat":"37.544598071","long":"127.32007855","items":[{"name":"문환상회","tel":"031-772-6124","addr":"경기도 양평군 양서면 양수리 1059번지 문환맨슈퍼","category":"유통업 영리 - 슈퍼마켓"}]},{"lat":"37.533266912","long":"127.31549374","items":[{"name":"물빛 공방(공예체험)","tel":"","addr":"경기도 양평군 양서면 양수리 708-3번지","category":"의류 - 정장"},{"name":"카페공감","tel":"070-8134-6224","addr":"경기도 양평군 양서면 양수리 708-3번지","category":"음료식품 - 기타음료식품"}]},{"lat":"37.542376368","long":"127.31868869","items":[{"name":"물소리한식뷔페","tel":"031-775-5585","addr":"경기도 양평군 양서면 양수리 1134-1번지","category":"일반휴게음식 - 일반한식"},{"name":"양서이레서비스기아오토큐","tel":"031-772-9995","addr":"경기도 양평군 양서면 양수리 1134-1번지","category":"자동차정비 유지 - 자동차정비"},{"name":"양서이레서비스기아오토큐","tel":"031-772-9995","addr":"경기도 양평군 양서면 양수리 1134-1번지","category":"자동차정비 유지 - 자동차정비"},{"name":"테라스까페","tel":"031-774-9229","addr":"경기도 양평군 양서면 양수리 1134-1번지 1층","category":"일반휴게음식 - 일반한식"},{"name":"하루엔소쿠","tel":"031-771-3933","addr":"경기도 양평군 양서면 양수리 1134-1번지 2층","category":"일반휴게음식 - 일반한식"}]},{"lat":"37.575349008","long":"127.34257752","items":[{"name":"미르티앤씨","tel":"070-8118-1357","addr":"경기도 양평군 양서면 양수리 76-2번지","category":"의류 - 정장"}]},{"lat":"37.54512636","long":"127.31794215","items":[{"name":"민들레찐빵","tel":"031-772-7090","addr":"경기도 양평군 양서면 양수리 564-13","category":"일반휴게음식 - 스넥"}]},{"lat":"37.545594956","long":"127.31791018","items":[{"name":"바이오양평","tel":"070-4103-8433","addr":"경기도 양평군 양서면 양수리 566-6","category":"농업 - 농기계"}]},{"lat":"37.555795455","long":"127.32738032","items":[{"name":"배로농원","tel":"","addr":"경기도 양평군 양서면 양수리 361-2번지","category":"숙박업 - 여관/기타숙박업"}]},{"lat":"37.552097127","long":"127.32235102","items":[{"name":"백송화원","tel":"031-772-3838","addr":"경기도 양평군 양서면 양수리 402-5번지","category":"문화.취미 - 화원"}]},{"lat":"37.544652889","long":"127.3197959","items":[{"name":"버스스톱","tel":"031-772-6009","addr":"경기도 양평군 양서면 양수리 1048번지 2층","category":"일반휴게음식 - 주점"}]},{"lat":"37.548657922","long":"127.32140842","items":[{"name":"불꽃컴퍼니","tel":"","addr":"경기도 양평군 양서면 양수리 537-2번지 양서골든빌 402호","category":"일반휴게음식 - 일반한식"}]},{"lat":"37.545712536","long":"127.31774094","items":[{"name":"블루힐파크","tel":"031-774-7544","addr":"경기도 양평군 양서면 양수리 566-3번지","category":"숙박업 - 여관/기타숙박업"}]},{"lat":"37.545156249","long":"127.32023934","items":[{"name":"비타민","tel":"031-774-2232","addr":"경기도 양평군 양서면 양수리 1037번지","category":"일반휴게음식 - 일반한식"},{"name":"양수꽃집","tel":"031-774-7040","addr":"경기도 양평군 양서면 양수리 1037번지 1층","category":"문화.취미 - 화원"}]},{"lat":"37.545516181","long":"127.3204106","items":[{"name":"비호슈퍼","tel":"031-772-6743","addr":"경기도 양평군 양서면 양수리 1019번지 상가","category":"유통업 영리 - 슈퍼마켓"}]},{"lat":"37.546288488","long":"127.32135308","items":[{"name":"삼원","tel":"031-772-1966","addr":"경기도 양평군 양서면 양수리 965-2번지","category":"건축자재 - 기타건축자재"}]},{"lat":"37.544706188","long":"127.32007901","items":[{"name":"상락카프리","tel":"031-774-5119","addr":"경기도 양평군 양서면 양수리 1055","category":"일반휴게음식 - 주점"}]},{"lat":"37.54531745","long":"127.32060212","items":[{"name":"새봄미용실","tel":"031-772-7158","addr":"경기도 양평군 양서면 양수리 982번지","category":"보건위생 - 미용원"},{"name":"조령축산","tel":"031-774-2429","addr":"경기도 양평군 양서면 양수리 982번지","category":"일반휴게음식 - 일반한식"},{"name":"조령축산물도매센터","tel":"031-774-2429","addr":"경기도 양평군 양서면 양수리 982번지 외1필지","category":"음료식품 - 정육점"}]},{"lat":"37.545345149","long":"127.32035329","items":[{"name":"서라벌식당","tel":"031-773-0062","addr":"경기도 양평군 양서면 양수리 1023번지 1025","category":"일반휴게음식 - 일반한식"}]},{"lat":"37.545264943","long":"127.3200248","items":[{"name":"서라벌아들","tel":"070-7756-6694","addr":"경기도 양평군 양서면 양수리 553-2번지","category":"일반휴게음식 - 일반한식"},{"name":"이모네","tel":"031-772-9626","addr":"경기도 양평군 양서면 양수리 553-2번지","category":"일반휴게음식 - 일반한식"}]},{"lat":"37.543154105","long":"127.31760571","items":[{"name":"서울과학기술대학교 환경공학과 총동문회","tel":"031-771-4211","addr":"경기도 양평군 양서면 양수리 660-4번지 701호","category":"기타 - 비영리/비대상"}]},{"lat":"37.544876339","long":"127.32046446","items":[{"name":"송월슈퍼","tel":"031-772-2867","addr":"경기도 양평군 양서면 양수리 996번지 점포 3호","category":"음료식품 - 기타음료식품"}]},{"lat":"37.545291303","long":"127.32027386","items":[{"name":"수랏간","tel":"","addr":"경기도 양평군 양서면 양수리 1025번지","category":"일반휴게음식 - 일반한식"},{"name":"양수리고기집","tel":"070-8292-5292","addr":"경기도 양평군 양서면 양수리 1025번지","category":"일반휴게음식 - 일반한식"},{"name":"유성 양꼬치","tel":"","addr":"경기도 양평군 양서면 양수리 1025번지 지층","category":"일반휴게음식 - 일반한식"}]},{"lat":"37.544291589","long":"127.32013383","items":[{"name":"수정방앗간","tel":"031-772-6114","addr":"경기도 양평군 양서면 양수리 1093번지","category":"음료식품 - 제과점"},{"name":"양수리연핫도그","tel":"031-774-8487","addr":"경기도 양평군 양서면 양수리 1093","category":"일반휴게음식 - 일반한식"}]},{"lat":"37.546182475","long":"127.32057184","items":[{"name":"신흥종합건재","tel":"031-772-6317","addr":"경기도 양평군 양서면 양수리 1004번지","category":"건축자재 - 기타건축자재"}]},{"lat":"37.546127442","long":"127.32093371","items":[{"name":"씨유양평윤진점","tel":"031-772-1437","addr":"경기도 양평군 양서면 양수리 962번지","category":"유통업 영리 - 편 의 점"}]},{"lat":"37.544599711","long":"127.31946753","items":[{"name":"아빠와크레파스","tel":"031-774-5452","addr":"경기도 양평군 양서면 양수리 556-17번지","category":"서적문구 - 문구용품"}]},{"lat":"37.548069876","long":"127.32229989","items":[{"name":"알로하오에","tel":"031-771-5373","addr":"경기도 양평군 양서면 양수리 548-6번지","category":"일반휴게음식 - 서양음식"}]},{"lat":"37.543963199","long":"127.31827672","items":[{"name":"얀s맘마","tel":"031-772-9289","addr":"경기도 양평군 양서면 양수리 657번지","category":"일반휴게음식 - 일반한식"}]},{"lat":"37.545151031","long":"127.31882487","items":[{"name":"양서농업협동조합","tel":"031-770-6870","addr":"경기도 양평군 양서면 양수리 559-5번지","category":"유통업 비영리 - 농,축협 직영매장"},{"name":"양서농업협동조합","tel":"031-770-6816","addr":"경기도 양평군 양서면 양수리 559-5번지","category":"자동차정비 유지 - 주차장"},{"name":"양서농협","tel":"031-772-6335","addr":"경기도 양평군 양서면 양수리 559-5번지","category":"유통업 비영리 - 농,축협 직영매장"},{"name":"양서농협","tel":"031-770-6800","addr":"경기도 양평군 양서면 양수리 559-5번지","category":"유통업 비영리 - 농,축협 직영매장"}]},{"lat":"37.542071368","long":"127.31818954","items":[{"name":"양서농협장례문화원","tel":"031-775-0061","addr":"경기도 양평군 양서면 양수리 663번지","category":"용역 서비스 - 가례서비스업"}]},{"lat":"37.544403648","long":"127.3186633","items":[{"name":"양수 중앙약국","tel":"031-771-8722","addr":"경기도 양평군 양서면 양수리 559-16번지 1층","category":"약국 - 약국"},{"name":"엘앤에스(L&S)비전학원","tel":"031-771-1182","addr":"경기도 양평군 양서면 양수리 559-16번지 2층 양수새마을금고","category":"학원 - 보습학원"},{"name":"제일학원","tel":"031-772-7740","addr":"경기도 양평군 양서면 양수리 559-16번지 3층","category":"학원 - 보습학원"}]},{"lat":"37.550014826","long":"127.31938858","items":[{"name":"양수3리 부녀회","tel":"","addr":"경기도 양평군 양서면 양수리 511-2번지","category":"음료식품 - 기타음료식품"}]},{"lat":"37.550511754","long":"127.32221978","items":[{"name":"양수곰탕","tel":"031-772-0496","addr":"경기도 양평군 양서면 양수리 535-5번지","category":"일반휴게음식 - 일반한식"}]},{"lat":"37.543959353","long":"127.31971376","items":[{"name":"양수다정의원","tel":"031-771-7581","addr":"경기도 양평군 양서면 양수리 1076번지 2층","category":"의원 - 의원"}]},{"lat":"37.544797409","long":"127.31966073","items":[{"name":"양수돈뽈","tel":"031-775-5881","addr":"경기도 양평군 양서면 양수리 556-11번지 1층","category":"일반휴게음식 - 일반한식"}]},{"lat":"37.545623019","long":"127.32088631","items":[{"name":"양수리 스크린골프","tel":"031-775-2259","addr":"경기도 양평군 양서면 양수리 978-1번지","category":"레저업소 - 스크린골프"},{"name":"오샐","tel":"031-772-9909","addr":"경기도 양평군 양서면 양수리 978-1번지","category":"일반휴게음식 - 일반한식"},{"name":"원조멸치국수","tel":"031-772-1560","addr":"경기도 양평군 양서면 양수리 978-1번지","category":"일반휴게음식 - 스넥"}]},{"lat":"37.538824964","long":"127.31587901","items":[{"name":"양수리딸기체험농장","tel":"031-774-2143","addr":"경기도 양평군 양서면 양수리 796-1,797","category":"음료식품 - 농·축·수산품"}]},{"lat":"37.544958977","long":"127.31988772","items":[{"name":"양수리식당","tel":"031-744-5610","addr":"경기도 양평군 양서면 양수리 556-8","category":"일반휴게음식 - 일반한식"}]},{"lat":"37.544769195","long":"127.32010191","items":[{"name":"양수리육곳간","tel":"031-775-9988","addr":"경기도 양평군 양서면 양수리 1053번지","category":"일반휴게음식 - 일반한식"},{"name":"양수종묘","tel":"031-772-2614","addr":"경기도 양평군 양서면 양수리 1053","category":"농업 - 비료,사료,종자"}]},{"lat":"37.546460039","long":"127.32121802","items":[{"name":"양수리추어탕","tel":"031-772-6053","addr":"경기도 양평군 양서면 양수리 963번지","category":"일반휴게음식 - 일반한식"}]},{"lat":"37.545514537","long":"127.32102163","items":[{"name":"양수리해장국","tel":"031-774-0171","addr":"경기도 양평군 양서면 양수리 976번지","category":"일반휴게음식 - 일반한식"}]},{"lat":"37.543845196","long":"127.31860437","items":[{"name":"양수먹거리","tel":"031-771-5236","addr":"경기도 양평군 양서면 양수리 657-10번지 1층","category":"일반휴게음식 - 일식·회집"}]},{"lat":"37.54756735","long":"127.32155089","items":[{"name":"양수면옥","tel":"031-8997-8171","addr":"경기도 양평군 양서면 양수리 953번지 1층","category":"일반휴게음식 - 일반한식"}]},{"lat":"37.544122499","long":"127.31935235","items":[{"name":"양수삼성요양병원","tel":"031-772-0990","addr":"경기도 양평군 양서면 양수리 651-7번지","category":"의원 - 의원"},{"name":"양수삼성장례식장","tel":"031-771-4447","addr":"경기도 양평군 양서면 양수리 651-7번지 지하1층","category":"용역 서비스 - 가례서비스업"}]},{"lat":"37.544733156","long":"127.32010176","items":[{"name":"양수세탁소","tel":"031-773-2972","addr":"경기도 양평군 양서면 양수리 1054번지","category":"수리서비스 - 세탁소"}]},{"lat":"37.54465725","long":"127.31816649","items":[{"name":"양수우리요양원","tel":"031-772-3899","addr":"경기도 양평군 양서면 양수리 561-6번지","category":"기타의료기관 - 기타의료기관 및 기타"}]},{"lat":"37.544512279","long":"127.31847139","items":[{"name":"양수우리의원","tel":"031-774-8120","addr":"경기도 양평군 양서면 양수리 559 - 9","category":"의원 - 의원"}]},{"lat":"37.54278918","long":"127.31930146","items":[{"name":"양수하우징","tel":"031-771-6848","addr":"경기도 양평군 양서면 양수리 1137 5/1","category":"용역 서비스 - 기타용역서비스"}]},{"lat":"37.545795178","long":"127.32052494","items":[{"name":"양지미용실","tel":"031-772-6069","addr":"경기도 양평군 양서면 양수리 1008번지","category":"보건위생 - 미용원"}]},{"lat":"37.534461667","long":"127.31683377","items":[{"name":"어린농부딸기체험","tel":"031-771-1653","addr":"경기도 양평군 양서면 양수리 781-3","category":"음료식품 - 농·축·수산품"}]},{"lat":"37.550379602","long":"127.32111021","items":[{"name":"엠메디컬케어","tel":"031-775-0094","addr":"경기도 양평군 양서면 양수리 506-12번지","category":"신변잡화 - 기타잡화"}]},{"lat":"37.534875995","long":"127.31688076","items":[{"name":"연뜨락","tel":"031-7772-6370","addr":"경기도 양평군 양서면 양수리 784","category":"음료식품 - 기타음료식품"}]},{"lat":"37.545487805","long":"127.31754762","items":[{"name":"옛나루터","tel":"031-775-5233","addr":"경기도 양평군 양서면 양수리 565-2번지","category":"일반휴게음식 - 일반한식"}]},{"lat":"37.544376165","long":"127.31883291","items":[{"name":"오띠에","tel":"031-773-5493","addr":"경기도 양평군 양서면 양수리 650-5","category":"신변잡화 - 제화"}]},{"lat":"37.547793417","long":"127.32124632","items":[{"name":"온달집","tel":"031-773-1005","addr":"경기도 양평군 양서면 양수리 551-2번지 1층","category":"일반휴게음식 - 일반한식"}]},{"lat":"37.541935043","long":"127.31863026","items":[{"name":"옴니카페","tel":"031-775-3464","addr":"경기도 양평군 양서면 양수리 1138번지 B동 1층","category":"일반휴게음식 - 서양음식"}]},{"lat":"37.545235231","long":"127.31765972","items":[{"name":"와이프레소","tel":"","addr":"경기도 양평군 양서면 양수리 565-11번지 1층","category":"일반휴게음식 - 서양음식"}]},{"lat":"37.544345282","long":"127.32026985","items":[{"name":"용씨기름집","tel":"031-772-6171","addr":"경기도 양평군 양서면 양수리 1092번지","category":"음료식품 - 기타음료식품"}]},{"lat":"37.545047432","long":"127.32049913","items":[{"name":"우동황태구이맛집","tel":"031-771-1644","addr":"경기도 양평군 양서면 양수리 991번지 1층","category":"일반휴게음식 - 일반한식"},{"name":"황소곱창","tel":"031-771-1644","addr":"경기도 양평군 양서면 양수리 991번지","category":"일반휴게음식 - 일반한식"}]},{"lat":"37.554732995","long":"127.32712674","items":[{"name":"우리농원","tel":"031-0000-0000","addr":"경기도 양평군 양서면 양수리 444-1번지","category":"숙박업 - 여관/기타숙박업"}]},{"lat":"37.540016166","long":"127.31515984","items":[{"name":"우리딸기농장","tel":"031-772-4770","addr":"경기도 양평군 양서면 양수리 802-1","category":"음료식품 - 농·축·수산품"}]},{"lat":"37.545407243","long":"127.32071566","items":[{"name":"우리지물","tel":"031-771-6676","addr":"경기도 양평군 양서면 양수리 978-2번지","category":"직물 - 카페트,커튼,천막,지물"}]},{"lat":"37.544823162","long":"127.32013609","items":[{"name":"웰빙족발","tel":"031-772-7996","addr":"경기도 양평군 양서면 양수리 1052-1번지 비디오책읽는마을","category":"일반휴게음식 - 일반한식"}]},{"lat":"37.562234782","long":"127.33160728","items":[{"name":"이호농원","tel":"031-773-4139","addr":"경기도 양평군 양서면 양수리 226-2번지","category":"음료식품 - 농·축·수산품"}]},{"lat":"37.545768221","long":"127.31713012","items":[{"name":"정무네장어집","tel":"031-577-8697","addr":"경기도 양평군 양서면 양수리 617-4번지","category":"일반휴게음식 - 일반한식"}]},{"lat":"37.544068198","long":"127.31944265","items":[{"name":"정성약국","tel":"031-772-7778","addr":"경기도 양평군 양서면 양수리 1074-3번지 1층","category":"약국 - 약국"}]},{"lat":"37.544268805","long":"127.31854958","items":[{"name":"젤라떼리아빤나","tel":"031-775-4904","addr":"경기도 양평군 양서면 양수리 649-5번지 1층","category":"음료식품 - 제과점"},{"name":"컴언시스템","tel":"031-772-6809","addr":"경기도 양평군 양서면 양수리 649-5번지 5-1","category":"사무통신 - 컴퓨터"}]},{"lat":"37.545039639","long":"127.32004648","items":[{"name":"종점방아간","tel":"031-771-6370","addr":"경기도 양평군 양서면 양수리 1033번지","category":"음료식품 - 기타음료식품"}]},{"lat":"37.544820542","long":"127.3177485","items":[{"name":"주식회사아이디디","tel":"070-4407-1827","addr":"경기도 양평군 양서면 양수리 564-6번지 양수빌딩 301호","category":"용역 서비스 - 소프트웨어"}]},{"lat":"37.545017368","long":"127.31826984","items":[{"name":"진스킨케어","tel":"031-772-7409","addr":"경기도 양평군 양서면 양수리 562-4번지","category":"보건위생 - 화장품"},{"name":"혜인아트","tel":"02-1111-1111","addr":"경기도 양평군 양서면 양수리 562-4번지","category":"의류 - 정장"}]},{"lat":"37.547010608","long":"127.32085825","items":[{"name":"진지상","tel":"031-772-6107","addr":"경기도 양평군 양서면 양수리 552-4번지","category":"일반휴게음식 - 일반한식"}]},{"lat":"37.545074834","long":"127.31699143","items":[{"name":"채심촌","tel":"031-775-7811","addr":"경기도 양평군 양서면 양수리 613-2번지","category":"일반휴게음식 - 일반한식"}]},{"lat":"37.53370794","long":"127.31566529","items":[{"name":"청정스마트팜","tel":"","addr":"경기도 양평군 양서면 양수리 708-1번지","category":"음료식품 - 농·축·수산품"}]},{"lat":"37.536406537","long":"127.31730581","items":[{"name":"초필당","tel":"070-7630-7223","addr":"경기도 양평군 양서면 양수리 787-3번지 외2필지","category":"음료식품 - 농·축·수산품"}]},{"lat":"37.538741804","long":"127.31665937","items":[{"name":"최요왕체험농장","tel":"","addr":"경기도 양평군 양서면 양수리 788-1번지","category":"레저업소 - 기타레져업소"}]},{"lat":"37.551901755","long":"127.32129775","items":[{"name":"치유의 정원 수수","tel":"031-773-8919","addr":"경기도 양평군 양서면 양수리 506-19번지","category":"음료식품 - 기타음료식품"}]},{"lat":"37.533238984","long":"127.31583304","items":[{"name":"카페가람","tel":"031-774-7480","addr":"경기도 양평군 양서면 양수리 704-3번지","category":"음료식품 - 기타음료식품"}]},{"lat":"37.546623784","long":"127.3172695","items":[{"name":"카페리노 (Rino)","tel":"031-775-1007","addr":"경기도 양평군 양서면 양수리 606-5번지","category":"일반휴게음식 - 서양음식"}]},{"lat":"37.534263543","long":"127.316799","items":[{"name":"카페마마트","tel":"031-111-1111","addr":"경기도 양평군 양서면 양수리 781-4번지","category":"유통업 영리 - 슈퍼마켓"}]},{"lat":"37.548405345","long":"127.32152051","items":[{"name":"카페비노","tel":"031-772-3025","addr":"경기도 양평군 양서면 양수리 537-11번지","category":"일반휴게음식 - 일반한식"}]},{"lat":"37.543705804","long":"127.32018793","items":[{"name":"코코","tel":"031-774-0252","addr":"경기도 양평군 양서면 양수리 1125번지","category":"의류 - 정장"}]},{"lat":"37.546011198","long":"127.32060506","items":[{"name":"클라라의떡앤커피","tel":"031-772-6349","addr":"경기도 양평군 양서면 양수리 1006번지","category":"음료식품 - 기타음료식품"}]},{"lat":"37.54446113","long":"127.32074559","items":[{"name":"트라이이레","tel":"031-771-0949","addr":"경기도 양평군 양서면 양수리 1114번지","category":"의류 - 정장"},{"name":"한강민물","tel":"031-772-6079","addr":"경기도 양평군 양서면 양수리 1114번지","category":"일반휴게음식 - 일반한식"}]},{"lat":"37.545406115","long":"127.32113433","items":[{"name":"평창장국밥","tel":"031-771-1292","addr":"경기도 양평군 양서면 양수리 971-1","category":"일반휴게음식 - 일반한식"}]},{"lat":"37.565211282","long":"127.3304319","items":[{"name":"하나조경 송학 꽃","tel":"031-775-5662","addr":"경기도 양평군 양서면 양수리 184-1번지","category":"건축자재 - 인테리어전문"}]},{"lat":"37.538238641","long":"127.31613679","items":[{"name":"하로네","tel":"","addr":"경기도 양평군 양서면 양수리 792-2번지","category":"문화.취미 - 화랑"}]},{"lat":"37.544102232","long":"127.32018961","items":[{"name":"한국드론사관학교","tel":"031-771-2682","addr":"경기도 양평군 양서면 양수리 1099-2번지 1,2,3,4층","category":"학원 - 기능학원"}]},{"lat":"37.548317261","long":"127.32077328","items":[{"name":"한국자연건강회","tel":"031-772-2247","addr":"경기도 양평군 양서면 양수리 579-1번지 102동 202호","category":"건강식품 - 기타건강식품"}]},{"lat":"37.548152401","long":"127.32176839","items":[{"name":"한빛금호타이어","tel":"031-775-7276","addr":"경기도 양평군 양서면 양수리 542-7","category":"자동차정비 유지 - 자동차시트·타이어"}]},{"lat":"37.534325859","long":"127.31708211","items":[{"name":"한씨네","tel":"031-774-1741","addr":"경기도 양평군 양서면 양수리 779-2","category":"신변잡화 - 기타잡화"}]},{"lat":"37.544569084","long":"127.31744192","items":[{"name":"현대석유","tel":"031-774-5177","addr":"경기도 양평군 양서면 양수리 648-3번지","category":"연료판매점 - 유류판매"}]},{"lat":"37.544428829","long":"127.31935365","items":[{"name":"형제정육점","tel":"031-772-0336","addr":"경기도 양평군 양서면 양수리 936번지 외2필지","category":"음료식품 - 정육점"}]},{"lat":"37.548405864","long":"127.32132814","items":[{"name":"황태마을","tel":"031-773-7777","addr":"경기도 양평군 양서면 양수리 540번지","category":"일반휴게음식 - 일반한식"}]}]