[{"lat":"36.998831723","long":"127.15477895","items":[{"name":"(주)강산렌터카안성중앙영업소","tel":"031-692-2960","addr":"경기도 안성시 공도읍 용두리 682-18번지 1층","category":"여행 - 렌터카"},{"name":"엘라이프","tel":"070-8864-4824","addr":"경기도 안성시 공도읍 용두리 682-18번지","category":"건축자재 - 조명기구"},{"name":"워터피아","tel":"031-692-3813","addr":"경기도 안성시 공도읍 용두리 682-18번지","category":"주방용구 - 정수기"}]},{"lat":"37.009970154","long":"127.16074484","items":[{"name":"(주)기범상사/조흥물대","tel":"031-671-0746","addr":"경기도 안성시 공도읍 용두리 443","category":"별도관리 - 자체물품대금"}]},{"lat":"37.008191362","long":"127.1700217","items":[{"name":"(주)서진이엔지","tel":"031-692-5633","addr":"경기도 안성시 공도읍 용두리 95-1번지","category":"용역 서비스 - 기타용역서비스"},{"name":"시골마당","tel":"031-692-3397","addr":"경기도 안성시 공도읍 용두리 95-1","category":"일반휴게음식 - 일반한식"},{"name":"씨유공도중앙점","tel":"031-654-3655","addr":"경기도 안성시 공도읍 용두리 95-1번지","category":"유통업 영리 - 편 의 점"},{"name":"씨유공도중앙점","tel":"031-654-3655","addr":"경기도 안성시 공도읍 용두리 95-1번지 1층","category":"유통업 영리 - 편 의 점"},{"name":"어울림노래연습장","tel":"031-656-7972","addr":"경기도 안성시 공도읍 용두리 95-1번지 2층","category":"레저업소 - 노 래 방"},{"name":"에스비피에스","tel":"031-1800-6814","addr":"경기도 안성시 공도읍 용두리 95-1번지 3층","category":"용역 서비스 - 사무서비스"}]},{"lat":"37.013021571","long":"127.16313323","items":[{"name":"(주)쓰리씨라이팅인더스","tel":"031-653-6123","addr":"경기도 안성시 공도읍 용두리 407-1번지 E동","category":"건축자재 - 조명기구"}]},{"lat":"37.004936945","long":"127.15789197","items":[{"name":"(주)테라텍","tel":"070-8685-5807","addr":"경기도 안성시 공도읍 용두리 529","category":"전기제품 - 기타전기제품"}]},{"lat":"37.01430014","long":"127.16383257","items":[{"name":"(주)후니드/에스케이네트웍스안성점","tel":"02-419-9122","addr":"경기도 안성시 공도읍 용두리 406","category":"일반휴게음식 - 위탁급식업"}]},{"lat":"37.001298682","long":"127.16313109","items":[{"name":"A.H MOTORS","tel":"031-691-1333","addr":"경기도 안성시 공도읍 용두리 275-51번지","category":"자동차정비 유지 - 자동차정비"}]},{"lat":"37.000325364","long":"127.16325263","items":[{"name":"JS HUMAN TECH","tel":"031-651-6671","addr":"경기도 안성시 공도읍 용두리 275-260","category":"건축자재 - 목재·석재·철물"}]},{"lat":"37.00655204","long":"127.16957993","items":[{"name":"S노래연습장","tel":"031-657-2776","addr":"경기도 안성시 공도읍 용두리 104-5번지","category":"레저업소 - 노 래 방"},{"name":"등촌샤브칼국수","tel":"031-656-6688","addr":"경기도 안성시 공도읍 용두리 104-5번지","category":"일반휴게음식 - 일반한식"},{"name":"럭셔리뷰티 공도점","tel":"031-692-5279","addr":"경기도 안성시 공도읍 용두리 104-5번지 2층","category":"보건위생 - 화장품"},{"name":"신세계당구클럽","tel":"031-658-3358","addr":"경기도 안성시 공도읍 용두리 104-5번지 3층","category":"레저업소 - 당 구 장"},{"name":"오휘 카운셀러","tel":"031-691-5279","addr":"경기도 안성시 공도읍 용두리 104-5번지 2층","category":"보건위생 - 화장품"},{"name":"오휘화장품공도점","tel":"031-692-5279","addr":"경기도 안성시 공도읍 용두리 104-5번지","category":"보건위생 - 화장품"}]},{"lat":"37.007714035","long":"127.16985212","items":[{"name":"S당구장","tel":"031-000-0000","addr":"경기도 안성시 공도읍 용두리 103-1번지 3층","category":"레저업소 - 당 구 장"},{"name":"구들장삼겹살","tel":"031-652-3353","addr":"경기도 안성시 공도읍 용두리 103-1번지 1층 좌측호","category":"일반휴게음식 - 일반한식"},{"name":"더블유앤케이크 (W&cake)","tel":"","addr":"경기도 안성시 공도읍 용두리 103-1번지 2층","category":"음료식품 - 제과점"},{"name":"레몬트리","tel":"","addr":"경기도 안성시 공도읍 용두리 103-1번지 1동 1층","category":"일반휴게음식 - 서양음식"},{"name":"오광택","tel":"031-692-2726","addr":"경기도 안성시 공도읍 용두리 103-1번지","category":"자동차정비 유지 - 카인테리어"},{"name":"이정루","tel":"031-691-5802","addr":"경기도 안성시 공도읍 용두리 103-1번지 1층","category":"일반휴게음식 - 일반한식"},{"name":"제이제이헤어","tel":"031-655-2373","addr":"경기도 안성시 공도읍 용두리 103-1번지","category":"보건위생 - 미용원"},{"name":"죠지메이슨어학원","tel":"031-691-0502","addr":"경기도 안성시 공도읍 용두리 103-1번지","category":"회원제형태 - 학원"},{"name":"주식회사 제이제이코리아","tel":"031-655-2373","addr":"경기도 안성시 공도읍 용두리 103-1번지 1층","category":"보건위생 - 미용원"},{"name":"쨈슬","tel":"031-691-7090","addr":"경기도 안성시 공도읍 용두리 103-1번지 2동","category":"일반휴게음식 - 서양음식"},{"name":"코디애견샵","tel":"031-652-5253","addr":"경기도 안성시 공도읍 용두리 103-1번지","category":"문화.취미 - 애완동물"}]},{"lat":"36.999471781","long":"127.16144213","items":[{"name":"가나종합설비","tel":"031-651-5022","addr":"경기도 안성시 공도읍 용두리 231-31번지","category":"건축자재 - 기타건축자재"},{"name":"돼지잡는날","tel":"031-618-3643","addr":"경기도 안성시 공도읍 용두리 231-31번지","category":"일반휴게음식 - 일반한식"}]},{"lat":"37.004217073","long":"127.15713776","items":[{"name":"가정식당","tel":"031-655-5066","addr":"경기도 안성시 공도읍 용두리 525-1","category":"일반휴게음식 - 일반한식"},{"name":"건국우유 평택.공도대리점","tel":"031-692-8778","addr":"경기도 안성시 공도읍 용두리 525-1 (3호)","category":"음료식품 - 기타음료식품"}]},{"lat":"37.002524656","long":"127.16930151","items":[{"name":"경북방앗간","tel":"031-618-2273","addr":"경기도 안성시 공도읍 용두리 138-3번지","category":"음료식품 - 기타음료식품"},{"name":"박가네마포숯불갈비","tel":"031-618-2727","addr":"경기도 안성시 공도읍 용두리 138-3번지","category":"일반휴게음식 - 일반한식"}]},{"lat":"37.001880104","long":"127.15958218","items":[{"name":"경희대 국가대표 태권도장","tel":"031-652-0700","addr":"경기도 안성시 공도읍 용두리 238번지","category":"학원 - 예·체능계학원"},{"name":"비엔나피아노학원","tel":"031-653-4754","addr":"경기도 안성시 공도읍 용두리 238번지 1층","category":"학원 - 예·체능계학원"},{"name":"용머리","tel":"031-000-0000","addr":"경기도 안성시 공도읍 용두리 238번지","category":"일반휴게음식 - 일반한식"}]},{"lat":"37.000190886","long":"127.1627468","items":[{"name":"고향애","tel":"031-653-2538","addr":"경기도 안성시 공도읍 용두리 225번지","category":"음료식품 - 기타음료식품"}]},{"lat":"37.000409444","long":"127.1610284","items":[{"name":"공도365자동차공업사","tel":"031-656-1605","addr":"경기도 안성시 공도읍 용두리 231-2번지","category":"자동차정비 유지 - 자동차부품"},{"name":"공도365자동차공업사","tel":"031-656-1606","addr":"경기도 안성시 공도읍 용두리 231-2번지","category":"자동차정비 유지 - 자동차정비"},{"name":"공도이에스모터스","tel":"031-656-1605","addr":"경기도 안성시 공도읍 용두리 231-2번지 외 1필지","category":"자동차정비 유지 - 자동차정비"},{"name":"명신공업사","tel":"031-656-1605","addr":"경기도 안성시 공도읍 용두리 231-2","category":"자동차정비 유지 - 자동차정비"}]},{"lat":"36.998411508","long":"127.16588862","items":[{"name":"공도꽃나라","tel":"031-653-0193","addr":"경기도 안성시 공도읍 용두리 272-2 공두초교옆 공도꽃나라","category":"문화.취미 - 화원"}]},{"lat":"37.00274088","long":"127.16932445","items":[{"name":"공도당구클럽","tel":"031-656-3949","addr":"경기도 안성시 공도읍 용두리 138-5번지 3층","category":"레저업소 - 당 구 장"},{"name":"공도외국어학원","tel":"031-651-2774","addr":"경기도 안성시 공도읍 용두리 138-5번지","category":"학원 - 외국어학원"},{"name":"공도태권도장","tel":"031-653-2789","addr":"경기도 안성시 공도읍 용두리 138-5번지 302호","category":"학원 - 예·체능계학원"},{"name":"구룡포과메기","tel":"","addr":"경기도 안성시 공도읍 용두리 138-5번지","category":"일반휴게음식 - 일반한식"},{"name":"더 쎈 중고등학원","tel":"031-653-6221","addr":"경기도 안성시 공도읍 용두리 138-5번지 2층","category":"학원 - 보습학원"}]},{"lat":"37.006768296","long":"127.16958041","items":[{"name":"공도약초건강원","tel":"031-653-2055","addr":"경기도 안성시 공도읍 용두리 104-2번지","category":"건강식품 - 기타건강식품"},{"name":"어울림점투다리","tel":"031-618-0503","addr":"경기도 안성시 공도읍 용두리 104-2번지 1층","category":"일반휴게음식 - 일반한식"},{"name":"프리티도그(Pretty Dog)","tel":"031-654-9244","addr":"경기도 안성시 공도읍 용두리 104-2번지","category":"문화.취미 - 애완동물"}]},{"lat":"37.000689409","long":"127.16719667","items":[{"name":"공도우미린더퍼스트아파트입주자대표회의","tel":"031-692-3161","addr":"경기도 안성시 공도읍 용두리 755번지 공도우미린더퍼스트","category":"레저업소 - 헬스클럽"},{"name":"더 예쁨","tel":"031-616-6556","addr":"경기도 안성시 공도읍 용두리 755번지 우미린더퍼스트 상가 2동 106호","category":"보건위생 - 미용원"},{"name":"리버티 피아노 음악교습소","tel":"","addr":"경기도 안성시 공도읍 용두리 755번지 우미린단지 1동 203호 상가","category":"학원 - 예·체능계학원"},{"name":"뮤엠영어우미린교습소","tel":"031-9094-0025","addr":"경기도 안성시 공도읍 용두리 755번지 3동 202호(우미린더퍼스트(상가))","category":"학원 - 외국어학원"},{"name":"미미토토","tel":"02-1111-1111","addr":"경기도 안성시 공도읍 용두리 755번지 우미린더퍼스트 2동 105호","category":"의류 - 아동의류"},{"name":"바스파파","tel":"","addr":"경기도 안성시 공도읍 용두리 755번지 우미린더퍼스트 109동 803호","category":"용역 서비스 - 기타용역서비스"},{"name":"박수진음악학원","tel":"031-655-9541","addr":"경기도 안성시 공도읍 용두리 755번지 안성공도우미린퍼스트 상가 3동 204호","category":"학원 - 예·체능계학원"},{"name":"빅원치킨 안성공도점","tel":"031-691-8977","addr":"경기도 안성시 공도읍 용두리 755번지 우미린더퍼스트 1동 1층 105호","category":"일반휴게음식 - 스넥"},{"name":"성진ENG","tel":"031-654-8041","addr":"경기도 안성시 공도읍 용두리 755번지 우미린더퍼스트 102동 1303호","category":"학원 - 기타 교육기관"},{"name":"세븐일레븐안성우미린퍼스트점","tel":"031-1577-0711","addr":"경기도 안성시 공도읍 용두리 755번지 우미린더퍼스트 101호","category":"유통업 영리 - 편 의 점"},{"name":"아저씨네 과일","tel":"031-111-1111","addr":"경기도 안성시 공도읍 용두리 755번지 안성공도우미린더퍼스트 112동 1003호","category":"음료식품 - 농·축·수산품"},{"name":"지니왕국","tel":"","addr":"경기도 안성시 공도읍 용두리 755번지 우미린더퍼스트 113동 1902호","category":"의류 - 내의판매"},{"name":"지니헤어샵","tel":"031-656-5509","addr":"경기도 안성시 공도읍 용두리 755번지 우미린 더퍼스트상가 106호","category":"보건위생 - 미용원"},{"name":"칸 스피치심리교육센터","tel":"","addr":"경기도 안성시 공도읍 용두리 755번지 우미린더퍼스트 상가 203호","category":"학원 - 기타 교육기관"},{"name":"캔디슬라임샵","tel":"","addr":"경기도 안성시 공도읍 용두리 755번지 우미린더퍼스트 110동 17층 04호","category":"서적문구 - 완구점"},{"name":"클로버. (clover)37","tel":"070-0000-0000","addr":"경기도 안성시 공도읍 용두리 755번지 우미린더퍼스트 2동 103호","category":"음료식품 - 기타음료식품"},{"name":"한국유리단열 세아브플래닛","tel":"","addr":"경기도 안성시 공도읍 용두리 755번지 안성공도우미린더퍼스트 103동 1602호","category":"건축자재 - 기타건축자재"}]},{"lat":"36.998580104","long":"127.16777631","items":[{"name":"공도인쇄간판","tel":"031-618-2537","addr":"경기도 안성시 공도읍 용두리 190-7번지 101호","category":"서적문구 - 출판 및 인쇄물"},{"name":"광훈오토바이","tel":"031-653-2084","addr":"경기도 안성시 공도읍 용두리 190-7번지","category":"수리서비스 - 레져용품수리"}]},{"lat":"36.999661742","long":"127.16752026","items":[{"name":"공도초등학교","tel":"031-651-2004","addr":"경기도 안성시 공도읍 용두리 187-1번지 공도초등학교 1층","category":"학원 - 초중고교육기관"}]},{"lat":"37.003010995","long":"127.16947109","items":[{"name":"공도폐계닭","tel":"031-654-3337","addr":"경기도 안성시 공도읍 용두리 135-1번지 진흥연립 라동 101호","category":"일반휴게음식 - 일반한식"}]},{"lat":"37.007380905","long":"127.1563015","items":[{"name":"공도한식뷔페","tel":"031-654-7377","addr":"경기도 안성시 공도읍 용두리 539-4번지 1층 전체","category":"일반휴게음식 - 일반한식"},{"name":"낙원","tel":"031-691-2988","addr":"경기도 안성시 공도읍 용두리 539-4","category":"일반휴게음식 - 일반한식"}]},{"lat":"36.998298419","long":"127.16291135","items":[{"name":"광내는 사람들PRIME","tel":"031-652-6888","addr":"경기도 안성시 공도읍 용두리 275-119번지 1층","category":"자동차정비 유지 - 세차장"},{"name":"위너스펫 경기남부","tel":"031-000-0000","addr":"경기도 안성시 공도읍 용두리 275-119번지 103호","category":"문화.취미 - 애완동물"}]},{"lat":"37.001137864","long":"127.16869182","items":[{"name":"국수나무안성공도점","tel":"031-657-7755","addr":"경기도 안성시 공도읍 용두리 158-8번지 청담비전파크 1층 104호","category":"일반휴게음식 - 일반한식"},{"name":"다모아(Damoa)","tel":"031-404-5345","addr":"경기도 안성시 공도읍 용두리 158-8번지 청담비전파크 106호","category":"가구 - 일반가구"},{"name":"리브로아르츠 미술학원","tel":"031-654-0777","addr":"경기도 안성시 공도읍 용두리 158-8번지 청담비전파크 402호","category":"학원 - 예·체능계학원"},{"name":"셀렉토커피(안성공도점)","tel":"031-651-0743","addr":"경기도 안성시 공도읍 용두리 158-8번지 청담비전파크 107호","category":"일반휴게음식 - 서양음식"},{"name":"아이뮤직음악학원","tel":"031-655-0331","addr":"경기도 안성시 공도읍 용두리 158-8번지 청담비전파크 4층 401호","category":"학원 - 예·체능계학원"},{"name":"옛날장터치킨","tel":"031-618-7442","addr":"경기도 안성시 공도읍 용두리 158-8번지 청담비전파크 1층 103호","category":"일반휴게음식 - 스넥"},{"name":"우리동네포차","tel":"031-675-8882","addr":"경기도 안성시 공도읍 용두리 158-8번지 청담비전파크 1층 105호","category":"일반휴게음식 - 주점"},{"name":"지앤김학원","tel":"031-000-0000","addr":"경기도 안성시 공도읍 용두리 158-8번지 2층 청담비전파크 204호","category":"학원 - 보습학원"},{"name":"청년과일","tel":"041-111-1111","addr":"경기도 안성시 공도읍 용두리 158-8번지 청당비전파크 106호","category":"음료식품 - 농·축·수산품"},{"name":"페이스에듀","tel":"031-658-4199","addr":"경기도 안성시 공도읍 용두리 158-8번지 청담비전파크 301,302호","category":"학원 - 보습학원"},{"name":"헬로우슬라임 안성공도점","tel":"031-000-0000","addr":"경기도 안성시 공도읍 용두리 158-8번지 3층 청담비전파크 303호","category":"음료식품 - 기타음료식품"}]},{"lat":"37.015496826","long":"127.16510483","items":[{"name":"규남농장","tel":"031-351-8824","addr":"경기도 안성시 공도읍 용두리 378-4번지 1층","category":"음료식품 - 농·축·수산품"}]},{"lat":"37.00712899","long":"127.16939019","items":[{"name":"금빛대게","tel":"031-618-6528","addr":"경기도 안성시 공도읍 용두리 102-3번지 1층","category":"일반휴게음식 - 일반한식"},{"name":"소라수산","tel":"031-691-4026","addr":"경기도 안성시 공도읍 용두리 102-3번지 1층","category":"일반휴게음식 - 일식·회집"},{"name":"이오헤어","tel":"031-654-1452","addr":"경기도 안성시 공도읍 용두리 102-3번지","category":"보건위생 - 미용원"}]},{"lat":"36.998360857","long":"127.16338331","items":[{"name":"기아오토큐안성IC점","tel":"031-654-1838","addr":"경기도 안성시 공도읍 용두리 275-120번지","category":"자동차정비 유지 - 자동차부품"}]},{"lat":"37.001664618","long":"127.15899754","items":[{"name":"깍자헤어","tel":"031-653-9872","addr":"경기도 안성시 공도읍 용두리 518-2번지 1층","category":"보건위생 - 미용원"},{"name":"미소","tel":"031-618-5654","addr":"경기도 안성시 공도읍 용두리 518-2번지","category":"일반휴게음식 - 일반한식"},{"name":"윤선생우리집앞영어교실용머리교습소","tel":"031-618-0577","addr":"경기도 안성시 공도읍 용두리 518-2번지 1층","category":"학원 - 보습학원"}]},{"lat":"36.999385244","long":"127.15874573","items":[{"name":"꺼멍머리","tel":"031-657-3676","addr":"경기도 안성시 공도읍 용두리 752번지 주은풍림아파트 1층 110호","category":"보건위생 - 미용원"},{"name":"나라종합인테리어","tel":"031-651-8926","addr":"경기도 안성시 공도읍 용두리 752번지 주은풍림 상가 106호","category":"직물 - 카페트,커튼,천막,지물"},{"name":"모글리 커피","tel":"031-618-9925","addr":"경기도 안성시 공도읍 용두리 752번지","category":"일반휴게음식 - 서양음식"},{"name":"소문난분식","tel":"031-653-6797","addr":"경기도 안성시 공도읍 용두리 752번지 주은풍림아파트 상가동 122호","category":"일반휴게음식 - 스넥"},{"name":"얼룩빼기이박사 풍림세탁소","tel":"031-655-6400","addr":"경기도 안성시 공도읍 용두리 752번지 주은풍림아파트 상가동 1층 126호","category":"수리서비스 - 세탁소"},{"name":"원플러스","tel":"031-675-2114","addr":"경기도 안성시 공도읍 용두리 752 주은풍림상가 (잉크앤피쉬)","category":"사무통신 - 컴퓨터"},{"name":"풍림아이원부동산중개사무소","tel":"031-651-1230","addr":"경기도 안성시 공도읍 용두리 752 상가129호","category":"용역 서비스 - 부동산 중개·임대"}]},{"lat":"37.001331149","long":"127.15905304","items":[{"name":"꿈키움음악미술학원","tel":"031-618-2362","addr":"경기도 안성시 공도읍 용두리 234-8번지 1층2,3호","category":"학원 - 예·체능계학원"},{"name":"트램펄린 카페 방방","tel":"","addr":"경기도 안성시 공도읍 용두리 234-8번지 2동","category":"일반휴게음식 - 서양음식"}]},{"lat":"36.998440096","long":"127.15800235","items":[{"name":"녹원","tel":"031-656-4076","addr":"경기도 안성시 공도읍 용두리 710-8번지","category":"일반휴게음식 - 일반한식"}]},{"lat":"36.999213163","long":"127.16610378","items":[{"name":"농업회사법인안성로컬푸드유통센터유한회사","tel":"031-656-0747","addr":"경기도 안성시 공도읍 용두리 265-3번지 컬푸드 유통센터","category":"음료식품 - 농·축·수산품"}]},{"lat":"37.003411367","long":"127.16000101","items":[{"name":"닛시철재","tel":"031-691-0863","addr":"경기도 안성시 공도읍 용두리 514번지 B동","category":"건축자재 - 기타건축자재"}]},{"lat":"37.015800826","long":"127.16682468","items":[{"name":"다나농장","tel":"031-618-3830","addr":"경기도 안성시 공도읍 용두리 382-9번지","category":"음료식품 - 농·축·수산품"}]},{"lat":"36.99863274","long":"127.15536273","items":[{"name":"다온세탁소","tel":"031-618-0031","addr":"경기도 안성시 공도읍 용두리 717-7번지","category":"수리서비스 - 세탁소"}]},{"lat":"37.000774435","long":"127.16433208","items":[{"name":"다올타이어","tel":"031-691-8500","addr":"경기도 안성시 공도읍 용두리 275-59번지","category":"자동차정비 유지 - 자동차시트·타이어"}]},{"lat":"37.004774973","long":"127.15772311","items":[{"name":"닥터 스튜드 코리아","tel":"070-4282-9908","addr":"경기도 안성시 공도읍 용두리 530-2번지 2층 202호","category":"보건위생 - 화장품"}]},{"lat":"37.006101539","long":"127.16955648","items":[{"name":"달레나순대국(공도점)","tel":"031-651-5628","addr":"경기도 안성시 공도읍 용두리 104-7번지 1층 1호","category":"일반휴게음식 - 일반한식"},{"name":"또바기","tel":"031-652-1304","addr":"경기도 안성시 공도읍 용두리 104-7번지 2층 우호","category":"일반휴게음식 - 주점"},{"name":"셀프수산식당","tel":"031-692-6767","addr":"경기도 안성시 공도읍 용두리 104-7번지 1층 우측호","category":"일반휴게음식 - 일식·회집"},{"name":"예당음악학원","tel":"031-692-1388","addr":"경기도 안성시 공도읍 용두리 104-7","category":"학원 - 예·체능계학원"}]},{"lat":"37.001407733","long":"127.16244602","items":[{"name":"달빛과쉬는시간","tel":"","addr":"경기도 안성시 공도읍 용두리 244-19번지 244-34,243-1","category":"레저업소 - 기타레져업소"}]},{"lat":"36.999300852","long":"127.15433051","items":[{"name":"닭치고 비어","tel":"031-000-0000","addr":"경기도 안성시 공도읍 용두리 682-10번지 1동 1층","category":"일반휴게음식 - 주점"},{"name":"하루","tel":"031-656-6845","addr":"경기도 안성시 공도읍 용두리 682-10번지 1층","category":"의류 - 아동의류"},{"name":"헤어뉴스 (Hair News)","tel":"031-692-3133","addr":"경기도 안성시 공도읍 용두리 682-10번지","category":"보건위생 - 미용원"}]},{"lat":"36.998913608","long":"127.15416123","items":[{"name":"대성씽크","tel":"","addr":"경기도 안성시 공도읍 용두리 682-16번지","category":"주방용구 - 주방용구"},{"name":"주식회사 대성하우징","tel":"031-652-4602","addr":"경기도 안성시 공도읍 용두리 682-16번지 1층","category":"건축자재 - 기타건축자재"}]},{"lat":"37.004802473","long":"127.15736365","items":[{"name":"대영소방기술 주식회사","tel":"031-651-8812","addr":"경기도 안성시 공도읍 용두리 533-4번지 3층","category":"용역 서비스 - 사무서비스"},{"name":"보국이엔씨주식회사","tel":"031-658-8812","addr":"경기도 안성시 공도읍 용두리 533-4번지","category":"용역 서비스 - 기타용역서비스"}]},{"lat":"37.004106994","long":"127.15863179","items":[{"name":"대영자동차정비","tel":"031-618-3700","addr":"경기도 안성시 공도읍 용두리 527-4번지","category":"자동차정비 유지 - 자동차정비"}]},{"lat":"37.005768145","long":"127.16955575","items":[{"name":"대한민국만세축산","tel":"031-654-0464","addr":"경기도 안성시 공도읍 용두리 129-4번지","category":"음료식품 - 정육점"},{"name":"화화돼지왕갈비 공도점","tel":"031-657-9279","addr":"경기도 안성시 공도읍 용두리 129-4번지 102호 102~103호","category":"일반휴게음식 - 일반한식"}]},{"lat":"37.00919064","long":"127.17066432","items":[{"name":"델리퀸안성점","tel":"031-654-6630","addr":"경기도 안성시 공도읍 용두리 93-1번지","category":"음료식품 - 정육점"},{"name":"의정부부대찌개","tel":"031-691-8288","addr":"경기도 안성시 공도읍 용두리 93-1번지","category":"일반휴게음식 - 일반한식"}]},{"lat":"36.999552692","long":"127.15469051","items":[{"name":"도전100곡노래연습장","tel":"031-655-4787","addr":"경기도 안성시 공도읍 용두리 682-11번지 2층","category":"레저업소 - 노 래 방"},{"name":"사는맛먹는맛","tel":"031-657-4845","addr":"경기도 안성시 공도읍 용두리 682-11번지 102,103호","category":"일반휴게음식 - 일반한식"}]},{"lat":"37.004885227","long":"127.16291392","items":[{"name":"동부케어공도 노인복지센터","tel":"031-651-9250","addr":"경기도 안성시 공도읍 용두리 502번지","category":"기타의료기관 - 기타의료기관 및 기타"}]},{"lat":"36.999245869","long":"127.15504939","items":[{"name":"드림마트 공도점","tel":"031-651-3200","addr":"경기도 안성시 공도읍 용두리 682-13번지","category":"유통업 영리 - 슈퍼마켓"}]},{"lat":"37.010551559","long":"127.16393703","items":[{"name":"뚱오리","tel":"031-691-5289","addr":"경기도 안성시 공도읍 용두리 427번지 B동","category":"일반휴게음식 - 일반한식"}]},{"lat":"37.000159236","long":"127.16613951","items":[{"name":"램스스킨","tel":"","addr":"경기도 안성시 공도읍 용두리 755-4번지 더스페이스 3동 301호 2","category":"보건위생 - 피부미용실"},{"name":"주식회사 누리바이오","tel":"","addr":"경기도 안성시 공도읍 용두리 755-4번지 305호(더스페이스공도2)","category":"신변잡화 - 기타잡화"}]},{"lat":"37.002074517","long":"127.16901966","items":[{"name":"르쥬르뒤뺑","tel":"070-4795-1777","addr":"경기도 안성시 공도읍 용두리 157-3번지","category":"음료식품 - 제과점"},{"name":"민)송탄부대찌개","tel":"031-653-2992","addr":"경기도 안성시 공도읍 용두리 157-3번지 1층 101호","category":"일반휴게음식 - 일반한식"},{"name":"세븐일레븐공도우미린점","tel":"031-1577-0711","addr":"경기도 안성시 공도읍 용두리 157-3번지 103,105호","category":"유통업 영리 - 편 의 점"},{"name":"씨엔티테크 스터디센터 안성공도점","tel":"02-3152-5846","addr":"경기도 안성시 공도읍 용두리 157-3번지 씨엔티테크스터디센터","category":"학원 - 독서실"},{"name":"크린위드 공도1호점","tel":"031-653-8525","addr":"경기도 안성시 공도읍 용두리 157-3번지 104호","category":"수리서비스 - 세탁소"}]},{"lat":"37.000498063","long":"127.15527658","items":[{"name":"리더스유치원[아이행복]","tel":"031-618-0236","addr":"경기도 안성시 공도읍 용두리 704-1번지","category":"학원 - 유치원"}]},{"lat":"37.014271448","long":"127.17151822","items":[{"name":"마이크로뱅크(주)","tel":"031-651-3420","addr":"경기도 안성시 공도읍 용두리 20-7","category":"기타 - 기타 전문점"}]},{"lat":"37.000526063","long":"127.16802767","items":[{"name":"모자속코끼리 비스튜디오(B STUDIO)미술학","tel":"031-655-4667","addr":"경기도 안성시 공도읍 용두리 755-8번지 2층 201호","category":"학원 - 예·체능계학원"},{"name":"소리숲 음악학원3관","tel":"031-652-0110","addr":"경기도 안성시 공도읍 용두리 755-8번지 301호","category":"학원 - 예·체능계학원"},{"name":"장에가는날","tel":"031-653-1993","addr":"경기도 안성시 공도읍 용두리 755-8번지 1층 101호","category":"일반휴게음식 - 스넥"},{"name":"제니스 영어교습소","tel":"031-8075-9282","addr":"경기도 안성시 공도읍 용두리 755-8번지 401호","category":"학원 - 외국어학원"}]},{"lat":"37.007525148","long":"127.15624561","items":[{"name":"미니스톱 안성공도점","tel":"031-1577-9621","addr":"경기도 안성시 공도읍 용두리 539번지","category":"유통업 영리 - 편 의 점"},{"name":"용두슈퍼","tel":"031-653-4710","addr":"경기도 안성시 공도읍 용두리 539번지","category":"유통업 영리 - 슈퍼마켓"}]},{"lat":"36.999352364","long":"127.16313824","items":[{"name":"미래중고타이어","tel":"031-654-4009","addr":"경기도 안성시 공도읍 용두리 275-93","category":"자동차정비 유지 - 자동차시트·타이어"}]},{"lat":"36.999408306","long":"127.15485874","items":[{"name":"바다이야기","tel":"031-657-7761","addr":"경기도 안성시 공도읍 용두리 682-12번지","category":"일반휴게음식 - 일식·회집"},{"name":"바다이야기","tel":"031-657-7761","addr":"경기도 안성시 공도읍 용두리 682-12번지 1층","category":"일반휴게음식 - 일식·회집"},{"name":"신진성아구찜(용두점)","tel":"031-652-2582","addr":"경기도 안성시 공도읍 용두리 682-12번지 1층","category":"일반휴게음식 - 일반한식"},{"name":"쌍둥이떡방앗간","tel":"031-656-5053","addr":"경기도 안성시 공도읍 용두리 682-12","category":"음료식품 - 제과점"},{"name":"태산횟집","tel":"031-657-7761","addr":"경기도 안성시 공도읍 용두리 682-12번지 1층","category":"일반휴게음식 - 일식·회집"}]},{"lat":"36.997993055","long":"127.15530528","items":[{"name":"바비헤어비스","tel":"031-618-2555","addr":"경기도 안성시 공도읍 용두리 717-19번지 2층","category":"보건위생 - 미용원"},{"name":"해피댄스스포츠","tel":"031-618-2555","addr":"경기도 안성시 공도읍 용두리 717-19번지 2층","category":"회원제형태 - 레져업소"}]},{"lat":"37.00391195","long":"127.1695517","items":[{"name":"바이오포톤공도점","tel":"031-656-8257","addr":"경기도 안성시 공도읍 용두리 132-4번지 301호","category":"보건위생 - 피부미용실"},{"name":"센시빌리티","tel":"","addr":"경기도 안성시 공도읍 용두리 132-4번지 102호","category":"일반휴게음식 - 서양음식"},{"name":"에스이엠 공도캠퍼스 학원","tel":"031-653-1448","addr":"경기도 안성시 공도읍 용두리 132-4번지 3층","category":"학원 - 보습학원"},{"name":"하우스터디 안성공도센터 독서실","tel":"031-618-2557","addr":"경기도 안성시 공도읍 용두리 132-4번지 3층 일부","category":"학원 - 독서실"},{"name":"하우스터디 안성공도센터 모임공간","tel":"","addr":"경기도 안성시 공도읍 용두리 132-4번지 302호","category":"용역 서비스 - 사무서비스"}]},{"lat":"36.998467093","long":"127.16477656","items":[{"name":"반값소 공도점","tel":"031-652-4242","addr":"경기도 안성시 공도읍 용두리 275-347번지 1층","category":"일반휴게음식 - 일반한식"}]},{"lat":"37.001744721","long":"127.15975042","items":[{"name":"반찬&도시락천국","tel":"031-658-7828","addr":"경기도 안성시 공도읍 용두리 238-5번지","category":"일반휴게음식 - 일반한식"},{"name":"소리나라 피아노","tel":"031-692-0078","addr":"경기도 안성시 공도읍 용두리 238-5번지 2층","category":"학원 - 예·체능계학원"},{"name":"청록학원","tel":"031-692-0533","addr":"경기도 안성시 공도읍 용두리 238-5","category":"학원 - 보습학원"},{"name":"피카소미술학원","tel":"070-7783-9670","addr":"경기도 안성시 공도읍 용두리 238-5번지","category":"학원 - 예·체능계학원"}]},{"lat":"36.998109775","long":"127.1556313","items":[{"name":"백가농장","tel":"031-673-8445","addr":"경기도 안성시 공도읍 용두리 717-17","category":"음료식품 - 농·축·수산품"}]},{"lat":"37.003909747","long":"127.16463081","items":[{"name":"베네치아가구","tel":"","addr":"경기도 안성시 공도읍 용두리 276번지 A동","category":"가구 - 일반가구"}]},{"lat":"37.000387739","long":"127.16376954","items":[{"name":"별난숯불돼지갈비","tel":"031-651-1008","addr":"경기도 안성시 공도읍 용두리 275-357번지","category":"일반휴게음식 - 일반한식"}]},{"lat":"36.998967033","long":"127.16155342","items":[{"name":"별하어린이집[아이행복]","tel":"031-618-6248","addr":"경기도 안성시 공도읍 용두리 231-21번지","category":"학원 - 유아원"}]},{"lat":"37.000914863","long":"127.16041155","items":[{"name":"복림문","tel":"031-618-9969","addr":"경기도 안성시 공도읍 용두리 238-8번지","category":"일반휴게음식 - 중국식"}]},{"lat":"37.006353837","long":"127.16955703","items":[{"name":"본참치","tel":"031-657-1201","addr":"경기도 안성시 공도읍 용두리 104-6","category":"일반휴게음식 - 일식·회집"},{"name":"스팀 팩토리 (STEAM FACTORY)","tel":"031-656-8360","addr":"경기도 안성시 공도읍 용두리 104-6번지","category":"자동차정비 유지 - 카인테리어"},{"name":"홍명본가해장국","tel":"031-656-3353","addr":"경기도 안성시 공도읍 용두리 104-6번지","category":"일반휴게음식 - 일반한식"}]},{"lat":"36.998387204","long":"127.1638889","items":[{"name":"북촌갈비 안성점","tel":"031-000-0000","addr":"경기도 안성시 공도읍 용두리 275-157번지","category":"일반휴게음식 - 일반한식"}]},{"lat":"37.007990437","long":"127.16547088","items":[{"name":"브이텍안성점","tel":"031-658-8906","addr":"경기도 안성시 공도읍 용두리 337번지","category":"자동차정비 유지 - 가타자동차서비스"}]},{"lat":"36.999220214","long":"127.15397086","items":[{"name":"사관유치원[아이행복]","tel":"031-651-9004","addr":"경기도 안성시 공도읍 용두리 682-9","category":"학원 - 유치원"}]},{"lat":"36.999467502","long":"127.1578584","items":[{"name":"사랑해어린이집[아이행복]","tel":"031-658-5766","addr":"경기도 안성시 공도읍 용두리 752번지 주은풍림아파트 107동 101호","category":"학원 - 유아원"}]},{"lat":"37.009712876","long":"127.17093512","items":[{"name":"산마루","tel":"031-618-8533","addr":"경기도 안성시 공도읍 용두리 73-1번지 101호","category":"일반휴게음식 - 일반한식"},{"name":"샘물떡방","tel":"031-618-1398","addr":"경기도 안성시 공도읍 용두리 73-1번지 1층 5,6~A,B,C호","category":"음료식품 - 제과점"},{"name":"햇살품은 창","tel":"031-655-6363","addr":"경기도 안성시 공도읍 용두리 73-1번지 1층 102호","category":"직물 - 카페트,커튼,천막,지물"}]},{"lat":"36.999827259","long":"127.16510524","items":[{"name":"서안성24시셀프세차장","tel":"","addr":"경기도 안성시 공도읍 용두리 275-86번지","category":"자동차정비 유지 - 자동차부품"}]},{"lat":"37.001054407","long":"127.16386082","items":[{"name":"성창훌라워마트","tel":"031-618-0825","addr":"경기도 안성시 공도읍 용두리 275-53번지","category":"문화.취미 - 화원"}]},{"lat":"37.007525269","long":"127.16952588","items":[{"name":"세덴용두리점","tel":"031-656-9467","addr":"경기도 안성시 공도읍 용두리 102-8번지 101호","category":"자동차정비 유지 - 자동차정비"}]},{"lat":"37.008243656","long":"127.16479729","items":[{"name":"세븐일레븐공도기업단지점","tel":"031-1577-0711","addr":"경기도 안성시 공도읍 용두리 339-3번지","category":"유통업 영리 - 편 의 점"}]},{"lat":"37.001385656","long":"127.15871611","items":[{"name":"세븐일레븐안성공도풍림점","tel":"","addr":"경기도 안성시 공도읍 용두리 234-12번지","category":"유통업 영리 - 편 의 점"},{"name":"세탁하는날","tel":"031-691-1919","addr":"경기도 안성시 공도읍 용두리 234-12번지","category":"수리서비스 - 세탁소"},{"name":"에이블 원탑 학원","tel":"031-0000-0000","addr":"경기도 안성시 공도읍 용두리 234-12번지","category":"학원 - 보습학원"},{"name":"우리아이태권스쿨","tel":"031-652-5420","addr":"경기도 안성시 공도읍 용두리 234-12번지","category":"학원 - 예·체능계학원"},{"name":"크레파스 미술학원","tel":"031-657-7172","addr":"경기도 안성시 공도읍 용두리 234-12번지 2층","category":"학원 - 예·체능계학원"},{"name":"푸른뜰미술교습소","tel":"031-655-5584","addr":"경기도 안성시 공도읍 용두리 234-12번지 2층","category":"학원 - 예·체능계학원"},{"name":"해피&탁탁구클럽","tel":"031-656-0854","addr":"경기도 안성시 공도읍 용두리 234-12번지 지하","category":"레저업소 - 기타레져업소"},{"name":"호산나음악학원","tel":"031-653-1350","addr":"경기도 안성시 공도읍 용두리 234-12번지 2층","category":"학원 - 예·체능계학원"},{"name":"호야문구","tel":"031-618-9532","addr":"경기도 안성시 공도읍 용두리 234-12번지 1층 용두빌딩","category":"서적문구 - 문구용품"}]},{"lat":"37.00588541","long":"127.16946613","items":[{"name":"셀프수산","tel":"031-692-6767","addr":"경기도 안성시 공도읍 용두리 104-10번지","category":"음료식품 - 농·축·수산품"}]},{"lat":"36.998020735","long":"127.15479981","items":[{"name":"수치과","tel":"031-658-7528","addr":"경기도 안성시 공도읍 용두리 717-18번지 신광빌딩 나동 203호","category":"의원 - 의원"},{"name":"씨유안성IC점","tel":"031-239-6692","addr":"경기도 안성시 공도읍 용두리 717-18","category":"유통업 영리 - 편 의 점"}]},{"lat":"37.00460596","long":"127.16941839","items":[{"name":"슈퍼카모터스","tel":"031-656-9877","addr":"경기도 안성시 공도읍 용두리 131-2번지","category":"자동차정비 유지 - 자동차시트·타이어"}]},{"lat":"37.016885202","long":"127.17105205","items":[{"name":"스카이스포츠","tel":"031-653-0669","addr":"경기도 안성시 공도읍 용두리 15-3,15-4","category":"레져용품 - 스포츠·레져용품"}]},{"lat":"37.003801792","long":"127.15774361","items":[{"name":"신일기계","tel":"031-657-8285","addr":"경기도 안성시 공도읍 용두리 524-4","category":"기타 - 기계공구"}]},{"lat":"37.00644022","long":"127.16574847","items":[{"name":"신진에어컨","tel":"","addr":"경기도 안성시 공도읍 용두리 301번지","category":"전기제품 - 냉열기기"},{"name":"캐리어에어컨 안성중앙센타","tel":"","addr":"경기도 안성시 공도읍 용두리 301번지","category":"전기제품 - 냉열기기"}]},{"lat":"37.00324098","long":"127.15938275","items":[{"name":"아가페요양원","tel":"031-657-0900","addr":"경기도 안성시 공도읍 용두리 514-1번지","category":"기타의료기관 - 기타의료기관 및 기타"}]},{"lat":"37.000685836","long":"127.16321968","items":[{"name":"아성금형","tel":"031-652-2252","addr":"경기도 안성시 공도읍 용두리 275-63번지","category":"기타 - 기계공구"}]},{"lat":"37.001158404","long":"127.16022107","items":[{"name":"아이생각어린이집[아이행복]","tel":"031-657-5900","addr":"경기도 안성시 공도읍 용두리 238-3번지","category":"학원 - 유아원"},{"name":"아이생각어린이집[아이행복]","tel":"031-657-5900","addr":"경기도 안성시 공도읍 용두리 238-3번지","category":"학원 - 유아원"}]},{"lat":"36.998852118","long":"127.16655237","items":[{"name":"아이폰수리 액정스쿨","tel":"031-656-8807","addr":"경기도 안성시 공도읍 용두리 273-1번지 공도 버스정류장 1층 102호","category":"수리서비스 - 사무·통신기기수리"},{"name":"안성중고폰매니아","tel":"031-657-8850","addr":"경기도 안성시 공도읍 용두리 273-1번지 공도 버스정류장 1층 102호","category":"사무통신 - 통신기기"},{"name":"에이치(H)cafe","tel":"031-651-3562","addr":"경기도 안성시 공도읍 용두리 273-1번지 나동 1층 101-2호","category":"일반휴게음식 - 서양음식"},{"name":"행복나눔안경","tel":"031-658-0067","addr":"경기도 안성시 공도읍 용두리 273-1번지 101호(공도버스정류장)","category":"보건위생 - 안경"}]},{"lat":"36.998942766","long":"127.16615937","items":[{"name":"안성번호판제작소","tel":"031-653-2297","addr":"경기도 안성시 공도읍 용두리 270","category":"자동차정비 유지 - 가타자동차서비스"}]},{"lat":"37.01210801","long":"127.16569314","items":[{"name":"안성보듬이나눔이어린이집[아이행복]","tel":"031-654-0067","addr":"경기도 안성시 공도읍 용두리 387-18","category":"학원 - 유아원"}]},{"lat":"37.010549399","long":"127.16552128","items":[{"name":"안성비단잉어","tel":"031-658-3451","addr":"경기도 안성시 공도읍 용두리 395-2","category":"음료식품 - 농·축·수산품"}]},{"lat":"37.004885227","long":"127.16946394","items":[{"name":"연인카페","tel":"031-658-8253","addr":"경기도 안성시 공도읍 용두리 130-3번지","category":"일반휴게음식 - 서양음식"},{"name":"인순이노래연습장","tel":"031-658-8253","addr":"경기도 안성시 공도읍 용두리 130-3번지","category":"레저업소 - 노 래 방"}]},{"lat":"36.99799409","long":"127.15449643","items":[{"name":"연한복","tel":"","addr":"경기도 안성시 공도읍 용두리 717-1번지 2층","category":"의류 - 맞춤복점"}]},{"lat":"37.001852567","long":"127.1599641","items":[{"name":"영화네 양꼬치","tel":"","addr":"경기도 안성시 공도읍 용두리 240-11번지 1동 1층","category":"일반휴게음식 - 중국식"}]},{"lat":"37.002358763","long":"127.1587518","items":[{"name":"용머리초등학교","tel":"","addr":"경기도 안성시 공도읍 용두리 517-2번지 용머리초등학교","category":"학원 - 초중고교육기관"},{"name":"용머리초등학교_수업료","tel":"","addr":"경기도 안성시 공도읍 용두리 517-2번지 용머리초등학교","category":"학원 - 초중고교육기관"}]},{"lat":"37.008522111","long":"127.16543831","items":[{"name":"우성식당","tel":"031-656-1245","addr":"경기도 안성시 공도읍 용두리 351번지 1층","category":"일반휴게음식 - 일반한식"}]},{"lat":"37.000804626","long":"127.16857876","items":[{"name":"워시프렌즈 셀프빨래방 안성 공도점","tel":"","addr":"경기도 안성시 공도읍 용두리 158-9번지 104호","category":"수리서비스 - 세탁소"}]},{"lat":"36.999048195","long":"127.15461087","items":[{"name":"은주스킨케어","tel":"","addr":"경기도 안성시 공도읍 용두리 682-15번지","category":"보건위생 - 피부미용실"},{"name":"퇴근길 포차","tel":"013-651-1417","addr":"경기도 안성시 공도읍 용두리 682-15번지","category":"일반휴게음식 - 주점"},{"name":"행복한 족발&보쌈","tel":"031-651-6333","addr":"경기도 안성시 공도읍 용두리 682-15번지 1층","category":"일반휴게음식 - 일반한식"}]},{"lat":"37.009323026","long":"127.16619281","items":[{"name":"이 엔케이","tel":"031-677-7795","addr":"경기도 안성시 공도읍 용두리 353번지","category":"기타 - 기계공구"}]},{"lat":"37.009852612","long":"127.16104796","items":[{"name":"인까사","tel":"031-652-7333","addr":"경기도 안성시 공도읍 용두리 442번지","category":"가구 - 일반가구"}]},{"lat":"37.013713057","long":"127.16485384","items":[{"name":"재단법인 행복그린넷","tel":"070-7842-5155","addr":"경기도 안성시 공도읍 용두리 404-1번지","category":"음료식품 - 기타음료식품"}]},{"lat":"36.998939319","long":"127.15519483","items":[{"name":"제이네일(J. Nail)","tel":"","addr":"경기도 안성시 공도읍 용두리 682-19번지 1층 2호","category":"보건위생 - 피부미용실"}]},{"lat":"36.999245325","long":"127.16232916","items":[{"name":"주식회사무지개공방","tel":"031-657-0728","addr":"경기도 안성시 공도읍 용두리 275-94","category":"문화.취미 - 민예·공예품"}]},{"lat":"36.998020447","long":"127.15502448","items":[{"name":"창조기획","tel":"031-691-9447","addr":"경기도 안성시 공도읍 용두리 717-21번지 2층","category":"신변잡화 - 기념품점"}]},{"lat":"37.001024713","long":"127.15910858","items":[{"name":"천리해동검도","tel":"031-655-5379","addr":"경기도 안성시 공도읍 용두리 234번지","category":"학원 - 예·체능계학원"}]},{"lat":"37.003295813","long":"127.15879865","items":[{"name":"천상한식뷔페","tel":"031-652-9342","addr":"경기도 안성시 공도읍 용두리 526-6번지 정수빌딩","category":"일반휴게음식 - 일반한식"},{"name":"한국야쿠르트공도점","tel":"031-651-8521","addr":"경기도 안성시 공도읍 용두리 526-6 다동","category":"음료식품 - 기타음료식품"}]},{"lat":"37.004225645","long":"127.15747483","items":[{"name":"청양옻닭","tel":"031-652-3337","addr":"경기도 안성시 공도읍 용두리 524-2번지 유성사사원주택 가동 101호","category":"일반휴게음식 - 일반한식"}]},{"lat":"37.006080056","long":"127.1655567","items":[{"name":"캐리어에어컨서비스","tel":"","addr":"경기도 안성시 공도읍 용두리 300번지","category":"전기제품 - 냉열기기"},{"name":"탑배드민턴","tel":"","addr":"경기도 안성시 공도읍 용두리 300번지 105호","category":"레져용품 - 스포츠·레져용품"},{"name":"한얼과학","tel":"031-655-0920","addr":"경기도 안성시 공도읍 용두리 300 1층","category":"서적문구 - 과학기자재"}]},{"lat":"37.001383745","long":"127.16016536","items":[{"name":"태진종합상사","tel":"031-657-7940","addr":"경기도 안성시 공도읍 용두리 238-7","category":"신변잡화 - 기타잡화"},{"name":"평택안성매일유기농대리점","tel":"031-657-5535","addr":"경기도 안성시 공도읍 용두리 238-7번지","category":"음료식품 - 기타음료식품"}]},{"lat":"37.007912537","long":"127.16966155","items":[{"name":"한국GM공도지정서비스","tel":"031-692-8581","addr":"경기도 안성시 공도읍 용두리 102-4","category":"자동차정비 유지 - 자동차정비"}]},{"lat":"37.005353623","long":"127.16957732","items":[{"name":"한국가구백화점","tel":"031-652-0765","addr":"경기도 안성시 공도읍 용두리 129-2번지","category":"가구 - 일반가구"}]},{"lat":"36.998413871","long":"127.16415858","items":[{"name":"한솔건축자재 주식회사","tel":"031-655-2575","addr":"경기도 안성시 공도읍 용두리 275-254번지","category":"건축자재 - 기타건축자재"}]},{"lat":"37.003883082","long":"127.16436112","items":[{"name":"휠사랑","tel":"070-8888-5316","addr":"경기도 안성시 공도읍 용두리 276-1","category":"자동차정비 유지 - 자동차정비"}]}]