[{"lat":"37.290263864","long":"127.01652755","imageIndex":4,"items":[{"name":"(카페)하루","tel":"","addr":"경기도 수원시 장안구 영화동 154-4번지 1층","indutype":"일반휴게음식 - 서양음식","category":"restaurant"}]},{"lat":"37.289877159","long":"127.00633282","imageIndex":4,"items":[{"name":"88숯불갈비","tel":"031-248-0223","addr":"경기도 수원시 장안구 영화동 405-11번지 1층","indutype":"일반휴게음식 - 일반한식","category":"restaurant"}]},{"lat":"37.289318563","long":"127.00441567","imageIndex":4,"items":[{"name":"BBQ정자영화점","tel":"031-269-0206","addr":"경기도 수원시 장안구 영화동 404-17번지 1층","indutype":"일반휴게음식 - 스넥","category":"restaurant"}]},{"lat":"37.290543433","long":"127.01413679","imageIndex":4,"items":[{"name":"가다오다","tel":"031-249-9249","addr":"경기도 수원시 장안구 영화동 278-9번지","indutype":"일반휴게음식 - 주점","category":"restaurant"},{"name":"통영굴전문점","tel":"031-257-2121","addr":"경기도 수원시 장안구 영화동 278-9번지","indutype":"일반휴게음식 - 일반한식","category":"restaurant"}]},{"lat":"37.290849459","long":"127.01713663","imageIndex":4,"items":[{"name":"가록집","tel":"031-207-2228","addr":"경기도 수원시 장안구 영화동 127-35번지","indutype":"일반휴게음식 - 일반한식","category":"restaurant"},{"name":"순애호프","tel":"032-245-5858","addr":"경기도 수원시 장안구 영화동 127-35번지 1층","indutype":"일반휴게음식 - 주점","category":"restaurant"},{"name":"실비","tel":"031-207-2228","addr":"경기도 수원시 장안구 영화동 127-35번지","indutype":"일반휴게음식 - 일반한식","category":"restaurant"}]},{"lat":"37.287597569","long":"127.00614101","imageIndex":4,"items":[{"name":"가야족발","tel":"031-252-2510","addr":"경기도 수원시 장안구 영화동 425-21번지 1층","indutype":"일반휴게음식 - 일반한식","category":"restaurant"},{"name":"서문흑염소","tel":"031-242-4323","addr":"경기도 수원시 장안구 영화동 425-21번지","indutype":"일반휴게음식 - 스넥","category":"restaurant"}]},{"lat":"37.28975969","long":"127.01244509","imageIndex":4,"items":[{"name":"감빠이","tel":"031-244-1227","addr":"경기도 수원시 장안구 영화동 334-1번지","indutype":"일반휴게음식 - 일식·회집","category":"restaurant"},{"name":"노점숯불구이","tel":"","addr":"경기도 수원시 장안구 영화동 334-1번지 3층","indutype":"일반휴게음식 - 일반한식","category":"restaurant"},{"name":"차기주흑오리","tel":"031-248-7854","addr":"경기도 수원시 장안구 영화동 334-1번지 1층","indutype":"일반휴게음식 - 일반한식","category":"restaurant"},{"name":"흥륭반점","tel":"031-248-7855","addr":"경기도 수원시 장안구 영화동 334-1번지 2층","indutype":"일반휴게음식 - 중국식","category":"restaurant"}]},{"lat":"37.291877288","long":"127.00972746","imageIndex":4,"items":[{"name":"강남추어탕","tel":"031-246-6821","addr":"경기도 수원시 장안구 영화동 347-5번지 1층","indutype":"일반휴게음식 - 일반한식","category":"restaurant"}]},{"lat":"37.292093062","long":"127.01547906","imageIndex":4,"items":[{"name":"거북식당","tel":"031-243-5044","addr":"경기도 수원시 장안구 영화동 194-2","indutype":"일반휴게음식 - 일반한식","category":"restaurant"}]},{"lat":"37.291786882","long":"127.0137761","imageIndex":4,"items":[{"name":"경동","tel":"031-255-6313","addr":"경기도 수원시 장안구 영화동 293-6번지","indutype":"일반휴게음식 - 주점","category":"restaurant"},{"name":"러브데이","tel":"031-244-4232","addr":"경기도 수원시 장안구 영화동 293-6번지 1층","indutype":"일반휴게음식 - 주점","category":"restaurant"},{"name":"밀밭","tel":"031-252-7635","addr":"경기도 수원시 장안구 영화동 293-6번지","indutype":"일반휴게음식 - 주점","category":"restaurant"},{"name":"별자리","tel":"031-244-4232","addr":"경기도 수원시 장안구 영화동 293-6번지","indutype":"일반휴게음식 - 일반한식","category":"restaurant"},{"name":"애모","tel":"031-243-7858","addr":"경기도 수원시 장안구 영화동 293-6번지","indutype":"일반휴게음식 - 주점","category":"restaurant"},{"name":"올인","tel":"031-251-8582","addr":"경기도 수원시 장안구 영화동 293-6번지","indutype":"일반휴게음식 - 일반한식","category":"restaurant"},{"name":"향기","tel":"031-271-4554","addr":"경기도 수원시 장안구 영화동 293-6번지 별자리 1층 3호","indutype":"일반휴게음식 - 일반한식","category":"restaurant"}]},{"lat":"37.287453212","long":"127.0103924","imageIndex":4,"items":[{"name":"경주기사식당","tel":"031-256-4226","addr":"경기도 수원시 장안구 영화동 438-11번지","indutype":"일반휴게음식 - 일반한식","category":"restaurant"}]},{"lat":"37.289480748","long":"127.00139338","imageIndex":4,"items":[{"name":"고기마루정육식당","tel":"031-241-4585","addr":"경기도 수원시 장안구 영화동 398-8번지","indutype":"일반휴게음식 - 일반한식","category":"restaurant"}]},{"lat":"37.290813841","long":"127.01303165","imageIndex":4,"items":[{"name":"고기본가","tel":"031-244-0447","addr":"경기도 수원시 장안구 영화동 285-9번지","indutype":"일반휴게음식 - 일반한식","category":"restaurant"},{"name":"김밥나라","tel":"031-244-9531","addr":"경기도 수원시 장안구 영화동 285-9번지 1층","indutype":"일반휴게음식 - 스넥","category":"restaurant"},{"name":"명랑시대쌀핫도그수원북문점","tel":"031-241-8878","addr":"경기도 수원시 장안구 영화동 285-9번지 1층","indutype":"일반휴게음식 - 일반한식","category":"restaurant"},{"name":"횡성한우곱창","tel":"031-254-5515","addr":"경기도 수원시 장안구 영화동 285-9번지","indutype":"일반휴게음식 - 일반한식","category":"restaurant"}]},{"lat":"37.289904019","long":"127.01011071","imageIndex":4,"items":[{"name":"고추식당","tel":"031-246-1971","addr":"경기도 수원시 장안구 영화동 414-6번지","indutype":"일반휴게음식 - 일반한식","category":"restaurant"},{"name":"북문감자탕돼지국밥","tel":"031-221-0795","addr":"경기도 수원시 장안구 영화동 414-6번지","indutype":"일반휴게음식 - 일반한식","category":"restaurant"}]},{"lat":"37.291092688","long":"127.01753139","imageIndex":4,"items":[{"name":"고향마루칼국수","tel":"031-245-3991","addr":"경기도 수원시 장안구 영화동 126-24번지 1층","indutype":"일반휴게음식 - 일반한식","category":"restaurant"}]},{"lat":"37.291516576","long":"127.0137535","imageIndex":4,"items":[{"name":"고향순대국","tel":"031-241-4924","addr":"경기도 수원시 장안구 영화동 273-5번지","indutype":"일반휴게음식 - 일반한식","category":"restaurant"},{"name":"고향순대국","tel":"031-241-4924","addr":"경기도 수원시 장안구 영화동 273-5번지","indutype":"일반휴게음식 - 일반한식","category":"restaurant"}]},{"lat":"37.294398571","long":"127.02344168","imageIndex":4,"items":[{"name":"고향순대국","tel":"031-254-7774","addr":"경기도 수원시 장안구 영화동 380-11번지","indutype":"일반휴게음식 - 일반한식","category":"restaurant"}]},{"lat":"37.285759441","long":"127.00725732","imageIndex":4,"items":[{"name":"고향집추어탕","tel":"031-245-8990","addr":"경기도 수원시 장안구 영화동 444-6번지","indutype":"일반휴게음식 - 일반한식","category":"restaurant"},{"name":"돼지식당","tel":"031-278-5234","addr":"경기도 수원시 장안구 영화동 444-6번지","indutype":"일반휴게음식 - 일반한식","category":"restaurant"}]},{"lat":"37.286624465","long":"127.00600564","imageIndex":4,"items":[{"name":"골목길참숯화로구이","tel":"031-258-1999","addr":"경기도 수원시 장안구 영화동 424-36번지 1층","indutype":"일반휴게음식 - 일반한식","category":"restaurant"}]},{"lat":"37.290876769","long":"127.01458794","imageIndex":4,"items":[{"name":"골목집설렁탕","tel":"031-242-6059","addr":"경기도 수원시 장안구 영화동 160-19번지","indutype":"일반휴게음식 - 일반한식","category":"restaurant"}]},{"lat":"37.291759566","long":"127.01652782","imageIndex":4,"items":[{"name":"곱이꽉찬대구소곱창","tel":"031-257-0225","addr":"경기도 수원시 장안구 영화동 173-8번지 1층","indutype":"일반휴게음식 - 일반한식","category":"restaurant"}]},{"lat":"37.289732603","long":"127.01311044","imageIndex":4,"items":[{"name":"곱창주점","tel":"","addr":"경기도 수원시 장안구 영화동 326-1번지","indutype":"일반휴게음식 - 일반한식","category":"restaurant"},{"name":"꿀맥주","tel":"031-223-5214","addr":"경기도 수원시 장안구 영화동 326-1번지","indutype":"일반휴게음식 - 주점","category":"restaurant"},{"name":"세븐","tel":"031-252-4777","addr":"경기도 수원시 장안구 영화동 326-1번지","indutype":"일반휴게음식 - 일반한식","category":"restaurant"},{"name":"엄마네잔치국수","tel":"031-245-0858","addr":"경기도 수원시 장안구 영화동 326-1번지 1층","indutype":"일반휴게음식 - 일반한식","category":"restaurant"}]},{"lat":"37.289822773","long":"127.01230977","imageIndex":4,"items":[{"name":"공간","tel":"031-000-0000","addr":"경기도 수원시 장안구 영화동 335-2번지","indutype":"일반휴게음식 - 주점","category":"restaurant"},{"name":"썬샤인","tel":"031-243-9223","addr":"경기도 수원시 장안구 영화동 335-2번지 지하층","indutype":"일반휴게음식 - 일반한식","category":"restaurant"}]},{"lat":"37.287957995","long":"127.00550951","imageIndex":4,"items":[{"name":"공릉동 멸치국수","tel":"031-257-5279","addr":"경기도 수원시 장안구 영화동 421-19번지","indutype":"일반휴게음식 - 스넥","category":"restaurant"}]},{"lat":"37.287678682","long":"127.00528396","imageIndex":4,"items":[{"name":"공민","tel":"070-8221-8983","addr":"경기도 수원시 장안구 영화동 422-33번지","indutype":"일반휴게음식 - 일반한식","category":"restaurant"}]},{"lat":"37.291453458","long":"127.0142497","imageIndex":4,"items":[{"name":"광계토치킨","tel":"031-244-8971","addr":"경기도 수원시 장안구 영화동 292-40번지 1층","indutype":"일반휴게음식 - 스넥","category":"restaurant"},{"name":"토끼와거북이","tel":"031-241-1320","addr":"경기도 수원시 장안구 영화동 292-40번지","indutype":"일반휴게음식 - 일반한식","category":"restaurant"}]},{"lat":"37.289787098","long":"127.00147231","imageIndex":4,"items":[{"name":"구세프 S육해공포차","tel":"031-246-2131","addr":"경기도 수원시 장안구 영화동 397-1번지 관양수족관 1층 103호","indutype":"일반휴게음식 - 스넥","category":"restaurant"},{"name":"피자스쿨","tel":"031-251-0111","addr":"경기도 수원시 장안구 영화동 397-1번지","indutype":"일반휴게음식 - 스넥","category":"restaurant"}]},{"lat":"37.289849567","long":"127.01491482","imageIndex":4,"items":[{"name":"국시촌","tel":"031-254-9033","addr":"경기도 수원시 장안구 영화동 279-39번지 1층","indutype":"일반휴게음식 - 스넥","category":"restaurant"}]},{"lat":"37.290399229","long":"127.01455403","imageIndex":4,"items":[{"name":"국일식당","tel":"031-241-8722","addr":"경기도 수원시 장안구 영화동 279-1번지","indutype":"일반휴게음식 - 일반한식","category":"restaurant"},{"name":"북문아구탕","tel":"031-255-2248","addr":"경기도 수원시 장안구 영화동 279-1번지","indutype":"일반휴게음식 - 일반한식","category":"restaurant"}]},{"lat":"37.289678604","long":"127.01236614","imageIndex":4,"items":[{"name":"굴따세","tel":"031-255-3389","addr":"경기도 수원시 장안구 영화동 334-2번지 1층","indutype":"일반휴게음식 - 일반한식","category":"restaurant"}]},{"lat":"37.291786763","long":"127.01500535","imageIndex":4,"items":[{"name":"굽네치킨(수원영화점)","tel":"031-245-2727","addr":"경기도 수원시 장안구 영화동 161-57번지","indutype":"일반휴게음식 - 스넥","category":"restaurant"}]},{"lat":"37.291516028","long":"127.01863667","imageIndex":4,"items":[{"name":"귀빈정","tel":"031-244-8867","addr":"경기도 수원시 장안구 영화동 117-11번지 1층","indutype":"일반휴게음식 - 일반한식","category":"restaurant"}]},{"lat":"37.289516783","long":"127.00095357","imageIndex":4,"items":[{"name":"그남자브런치","tel":"031-242-8545","addr":"경기도 수원시 장안구 영화동 398-1번지 메가플러스 101호","indutype":"일반휴게음식 - 서양음식","category":"restaurant"},{"name":"옥동이","tel":"031-251-1014","addr":"경기도 수원시 장안구 영화동 398-1번지 메가플러스 108호","indutype":"일반휴게음식 - 중국식","category":"restaurant"},{"name":"운암명가 부대찌개","tel":"031-241-1114","addr":"경기도 수원시 장안구 영화동 398-1번지 메가플러스 202호","indutype":"일반휴게음식 - 일반한식","category":"restaurant"},{"name":"이디야수원영화점","tel":"031-245-9729","addr":"경기도 수원시 장안구 영화동 398-1번지 메가플러스 103호","indutype":"일반휴게음식 - 서양음식","category":"restaurant"}]},{"lat":"37.290877317","long":"127.00555472","imageIndex":4,"items":[{"name":"그래그래피자 장안점","tel":"031-258-7773","addr":"경기도 수원시 장안구 영화동 390-17번지 1층","indutype":"일반휴게음식 - 서양음식","category":"restaurant"},{"name":"별미밥상","tel":"031-257-0685","addr":"경기도 수원시 장안구 영화동 390-17번지","indutype":"일반휴게음식 - 일반한식","category":"restaurant"}]},{"lat":"37.290264105","long":"127.01424953","imageIndex":4,"items":[{"name":"금돈산","tel":"031-246-9295","addr":"경기도 수원시 장안구 영화동 279-12번지 1층","indutype":"일반휴게음식 - 일반한식","category":"restaurant"}]},{"lat":"37.291345182","long":"127.0157496","imageIndex":4,"items":[{"name":"금성양꼬치","tel":"031-253-6606","addr":"경기도 수원시 장안구 영화동 179-1번지 1층","indutype":"일반휴게음식 - 중국식","category":"restaurant"}]},{"lat":"37.288984735","long":"127.01331333","imageIndex":4,"items":[{"name":"길림식당","tel":"031-248-8883","addr":"경기도 수원시 장안구 영화동 327-9번지","indutype":"일반휴게음식 - 중국식","category":"restaurant"},{"name":"향촌구이","tel":"031-247-4774","addr":"경기도 수원시 장안구 영화동 327-9번지","indutype":"일반휴게음식 - 일반한식","category":"restaurant"}]},{"lat":"37.286903809","long":"127.00475393","imageIndex":4,"items":[{"name":"김밥마을","tel":"0313-255-2981","addr":"경기도 수원시 장안구 영화동 424-7","indutype":"일반휴게음식 - 스넥","category":"restaurant"},{"name":"도로롱","tel":"","addr":"경기도 수원시 장안구 영화동 424-7번지 1층","indutype":"일반휴게음식 - 서양음식","category":"restaurant"},{"name":"방가방가분식점","tel":"031-245-5111","addr":"경기도 수원시 장안구 영화동 424-7번지","indutype":"일반휴게음식 - 일반한식","category":"restaurant"}]},{"lat":"37.294317746","long":"127.02184019","imageIndex":4,"items":[{"name":"김쉐프","tel":"","addr":"경기도 수원시 장안구 영화동 47-4번지 1층","indutype":"일반휴게음식 - 일반한식","category":"restaurant"}]},{"lat":"37.291066539","long":"127.00525024","imageIndex":4,"items":[{"name":"김씨네송탄부대찌개","tel":"031-258-5554","addr":"경기도 수원시 장안구 영화동 390-5번지","indutype":"일반휴게음식 - 일반한식","category":"restaurant"}]},{"lat":"37.294398825","long":"127.02191916","imageIndex":4,"items":[{"name":"김치손만두","tel":"","addr":"경기도 수원시 장안구 영화동 47-3번지 1층","indutype":"일반휴게음식 - 스넥","category":"restaurant"},{"name":"호박식당","tel":"031-255-1257","addr":"경기도 수원시 장안구 영화동 47-3번지 1층","indutype":"일반휴게음식 - 일반한식","category":"restaurant"}]},{"lat":"37.29029118","long":"127.01377588","imageIndex":4,"items":[{"name":"깜상","tel":"031-252-1285","addr":"경기도 수원시 장안구 영화동 284-1번지","indutype":"일반휴게음식 - 주점","category":"restaurant"},{"name":"주막 터 전집","tel":"031-257-6193","addr":"경기도 수원시 장안구 영화동 284-1번지 이빈빌딩 1층","indutype":"일반휴게음식 - 일반한식","category":"restaurant"}]},{"lat":"37.290597693","long":"127.01181366","imageIndex":4,"items":[{"name":"꼬꼬통닭","tel":"031-241-8822","addr":"경기도 수원시 장안구 영화동 340-2번지 1층","indutype":"일반휴게음식 - 스넥","category":"restaurant"},{"name":"종로빈대떡","tel":"031-244-8984","addr":"경기도 수원시 장안구 영화동 340-2번지 2층","indutype":"일반휴게음식 - 일반한식","category":"restaurant"}]},{"lat":"37.291264277","long":"127.0138888","imageIndex":4,"items":[{"name":"꼬마소곱창","tel":"031-252-7941","addr":"경기도 수원시 장안구 영화동 275-1번지","indutype":"일반휴게음식 - 일반한식","category":"restaurant"},{"name":"맥주파티","tel":"031-254-6864","addr":"경기도 수원시 장안구 영화동 275-1번지 1층","indutype":"일반휴게음식 - 주점","category":"restaurant"},{"name":"뭉치구이","tel":"031-245-9886","addr":"경기도 수원시 장안구 영화동 275-1번지 1층","indutype":"일반휴게음식 - 일반한식","category":"restaurant"},{"name":"하모니","tel":"031-242-2976","addr":"경기도 수원시 장안구 영화동 275-1번지 지하1층","indutype":"일반휴게음식 - 일반한식","category":"restaurant"},{"name":"호야치킨","tel":"031-241-9980","addr":"경기도 수원시 장안구 영화동 275-1번지","indutype":"일반휴게음식 - 일반한식","category":"restaurant"}]},{"lat":"37.290678493","long":"127.01508412","imageIndex":4,"items":[{"name":"나라님설렁탕","tel":"031-258-3366","addr":"경기도 수원시 장안구 영화동 164-13번지","indutype":"일반휴게음식 - 일반한식","category":"restaurant"},{"name":"석이네막창","tel":"031-242-3977","addr":"경기도 수원시 장안구 영화동 164-13번지 피자바지오빌딩 1층","indutype":"일반휴게음식 - 일반한식","category":"restaurant"}]},{"lat":"37.290930354","long":"127.01869294","imageIndex":4,"items":[{"name":"나영집밥","tel":"031-242-7153","addr":"경기도 수원시 장안구 영화동 124-18번지","indutype":"일반휴게음식 - 일반한식","category":"restaurant"}]},{"lat":"37.290345186","long":"127.01436231","imageIndex":4,"items":[{"name":"남보원불고기","tel":"031-245-9395","addr":"경기도 수원시 장안구 영화동 279-5번지","indutype":"일반휴게음식 - 일반한식","category":"restaurant"},{"name":"멸치세상","tel":"031-255-3732","addr":"경기도 수원시 장안구 영화동 279-5번지","indutype":"일반휴게음식 - 일반한식","category":"restaurant"},{"name":"순간포차","tel":"031-247-5992","addr":"경기도 수원시 장안구 영화동 279-5번지 부강여인숙 103호","indutype":"일반휴게음식 - 일반한식","category":"restaurant"},{"name":"왕산곰장어","tel":"031-224-3066","addr":"경기도 수원시 장안구 영화동 279-5번지 1층","indutype":"일반휴게음식 - 일반한식","category":"restaurant"}]},{"lat":"37.291426489","long":"127.01358433","imageIndex":4,"items":[{"name":"남태평양참치","tel":"031-245-2730","addr":"경기도 수원시 장안구 영화동 273-7번지","indutype":"일반휴게음식 - 일식·회집","category":"restaurant"},{"name":"천일다방","tel":"031-245-6866","addr":"경기도 수원시 장안구 영화동 273-7번지 지하1층","indutype":"일반휴게음식 - 서양음식","category":"restaurant"}]},{"lat":"37.292904387","long":"127.01083277","imageIndex":4,"items":[{"name":"낭만포차","tel":"","addr":"경기도 수원시 장안구 영화동 447-1번지 지하","indutype":"일반휴게음식 - 주점","category":"restaurant"}]},{"lat":"37.289345402","long":"127.00980617","imageIndex":4,"items":[{"name":"낭만호프","tel":"031-244-7974","addr":"경기도 수원시 장안구 영화동 431-1번지","indutype":"일반휴게음식 - 일반한식","category":"restaurant"},{"name":"예감쪽갈비","tel":"031-242-8076","addr":"경기도 수원시 장안구 영화동 431-1번지 1층","indutype":"일반휴게음식 - 일반한식","category":"restaurant"},{"name":"토속식당","tel":"031-246-2799","addr":"경기도 수원시 장안구 영화동 431-1번지 1층 우측","indutype":"일반휴게음식 - 일반한식","category":"restaurant"}]},{"lat":"37.288930935","long":"127.00972719","imageIndex":4,"items":[{"name":"노가리포차","tel":"031-1111-1111","addr":"경기도 수원시 장안구 영화동 431-20번지 101호","indutype":"일반휴게음식 - 주점","category":"restaurant"}]},{"lat":"37.290318371","long":"127.01187001","imageIndex":4,"items":[{"name":"노다지회백화점","tel":"031-245-7675","addr":"경기도 수원시 장안구 영화동 336-7번지","indutype":"일반휴게음식 - 일식·회집","category":"restaurant"}]},{"lat":"37.288516657","long":"127.00205875","imageIndex":4,"items":[{"name":"녹두장군","tel":"031-241-5624","addr":"경기도 수원시 장안구 영화동 400-34번지","indutype":"일반휴게음식 - 칵테일바","category":"restaurant"},{"name":"박군치킨(영화점)","tel":"031-246-2475","addr":"경기도 수원시 장안구 영화동 400-34번지 영화리빙텔 1층 2호","indutype":"일반휴게음식 - 스넥","category":"restaurant"}]},{"lat":"37.291453311","long":"127.01569323","imageIndex":4,"items":[{"name":"녹두장군","tel":"031-252-5985","addr":"경기도 수원시 장안구 영화동 180-8번지 1층","indutype":"일반휴게음식 - 일반한식","category":"restaurant"}]},{"lat":"37.289705712","long":"127.01133991","imageIndex":4,"items":[{"name":"녹마","tel":"031-246-5067","addr":"경기도 수원시 장안구 영화동 339-5번지","indutype":"일반휴게음식 - 서양음식","category":"restaurant"}]},{"lat":"37.289092344","long":"127.01806103","imageIndex":4,"items":[{"name":"놀러와","tel":"070-297-9934","addr":"경기도 수원시 장안구 영화동 37-332번지","indutype":"일반휴게음식 - 주점","category":"restaurant"},{"name":"퇴근길투","tel":"031-248-1598","addr":"경기도 수원시 장안구 영화동 37-332번지","indutype":"일반휴게음식 - 주점","category":"restaurant"}]},{"lat":"37.291183431","long":"127.01081003","imageIndex":4,"items":[{"name":"놀러와79","tel":"031-982-0902","addr":"경기도 수원시 장안구 영화동 342-1번지","indutype":"일반휴게음식 - 주점","category":"restaurant"},{"name":"들깨팥사랑","tel":"031-244-3004","addr":"경기도 수원시 장안구 영화동 342-1번지 1층","indutype":"일반휴게음식 - 일반한식","category":"restaurant"},{"name":"삼대떡볶이 영화점","tel":"031-244-0052","addr":"경기도 수원시 장안구 영화동 342-1번지","indutype":"일반휴게음식 - 일반한식","category":"restaurant"}]},{"lat":"37.29031836","long":"127.01200534","imageIndex":4,"items":[{"name":"뉴월드바베큐","tel":"031-244-0458","addr":"경기도 수원시 장안구 영화동 336-1번지","indutype":"일반휴게음식 - 칵테일바","category":"restaurant"},{"name":"딜라일라","tel":"031-258-6662","addr":"경기도 수원시 장안구 영화동 336-1번지","indutype":"일반휴게음식 - 주점","category":"restaurant"},{"name":"먹세포차","tel":"","addr":"경기도 수원시 장안구 영화동 336-1번지 남천빌딩 101층","indutype":"일반휴게음식 - 주점","category":"restaurant"},{"name":"북문 돼지막","tel":"031-254-1679","addr":"경기도 수원시 장안구 영화동 336-1번지 남천빌딩 1층","indutype":"일반휴게음식 - 일반한식","category":"restaurant"},{"name":"장장정정","tel":"031-246-7011","addr":"경기도 수원시 장안구 영화동 336-1번지 남천빌딩 2층 201호","indutype":"일반휴게음식 - 일반한식","category":"restaurant"}]},{"lat":"37.291264493","long":"127.01124987","imageIndex":4,"items":[{"name":"다담감자탕","tel":"031-258-1066","addr":"경기도 수원시 장안구 영화동 342-18번지 1층","indutype":"일반휴게음식 - 일반한식","category":"restaurant"},{"name":"프렌즈","tel":"031-241-0840","addr":"경기도 수원시 장안구 영화동 342-18번지 지하1층","indutype":"일반휴게음식 - 주점","category":"restaurant"}]},{"lat":"37.289624499","long":"127.01289616","imageIndex":4,"items":[{"name":"다비치","tel":"031-255-5760","addr":"경기도 수원시 장안구 영화동 326-6번지","indutype":"일반휴게음식 - 일반한식","category":"restaurant"},{"name":"순자네분식","tel":"031-207-2807","addr":"경기도 수원시 장안구 영화동 326-6","indutype":"일반휴게음식 - 스넥","category":"restaurant"}]},{"lat":"37.289570522","long":"127.01183609","imageIndex":4,"items":[{"name":"다온","tel":"","addr":"경기도 수원시 장안구 영화동 334-5번지 공우아파트 1층","indutype":"일반휴게음식 - 주점","category":"restaurant"},{"name":"설화","tel":"031-248-6363","addr":"경기도 수원시 장안구 영화동 334-5번지 공우아파 상가 3동 1층 2호","indutype":"일반휴게음식 - 주점","category":"restaurant"}]},{"lat":"37.292147539","long":"127.01064097","imageIndex":4,"items":[{"name":"단비주점","tel":"031-256-6700","addr":"경기도 수원시 장안구 영화동 347-13번지","indutype":"일반휴게음식 - 일반한식","category":"restaurant"},{"name":"대구탕","tel":"031-253-7887","addr":"경기도 수원시 장안구 영화동 347-13번지","indutype":"일반휴게음식 - 일반한식","category":"restaurant"}]},{"lat":"37.286453264","long":"127.00623117","imageIndex":4,"items":[{"name":"달콤비어매콤떡볶이","tel":"031-245-4307","addr":"경기도 수원시 장안구 영화동 446-1번지 101호","indutype":"일반휴게음식 - 일반한식","category":"restaurant"}]},{"lat":"37.287183072","long":"127.00695292","imageIndex":4,"items":[{"name":"당진생고기촌","tel":"031-254-6006","addr":"경기도 수원시 장안구 영화동 427-8번지","indutype":"일반휴게음식 - 일반한식","category":"restaurant"}]},{"lat":"37.290092854","long":"127.01481337","imageIndex":4,"items":[{"name":"대강원도","tel":"031-248-4331","addr":"경기도 수원시 장안구 영화동 279-30번지 1층","indutype":"일반휴게음식 - 주점","category":"restaurant"},{"name":"북문가는갈에한잔","tel":"031-252-9785","addr":"경기도 수원시 장안구 영화동 279-30번지","indutype":"일반휴게음식 - 일반한식","category":"restaurant"}]},{"lat":"37.290318105","long":"127.01486979","imageIndex":4,"items":[{"name":"대길 소금구이","tel":"031-234-0360","addr":"경기도 수원시 장안구 영화동 164-24번지","indutype":"일반휴게음식 - 일반한식","category":"restaurant"}]},{"lat":"37.286155925","long":"127.00623116","imageIndex":4,"items":[{"name":"대박","tel":"031-246-5377","addr":"경기도 수원시 장안구 영화동 446-5번지 1층","indutype":"일반휴게음식 - 주점","category":"restaurant"}]},{"lat":"37.290570392","long":"127.01486983","imageIndex":4,"items":[{"name":"대정숯불","tel":"031-548-2603","addr":"경기도 수원시 장안구 영화동 164-40번지 1층","indutype":"일반휴게음식 - 일반한식","category":"restaurant"}]},{"lat":"37.286651466","long":"127.00697545","imageIndex":4,"items":[{"name":"더밥라운지","tel":"031-253-7858","addr":"경기도 수원시 장안구 영화동 445-3번지 1층","indutype":"일반휴게음식 - 일반한식","category":"restaurant"}]},{"lat":"37.290237084","long":"127.01414803","imageIndex":4,"items":[{"name":"더플러스무한화로","tel":"031-242-0285","addr":"경기도 수원시 장안구 영화동 279-13번지 1층","indutype":"일반휴게음식 - 일반한식","category":"restaurant"}]},{"lat":"37.28806612","long":"127.0054193","imageIndex":4,"items":[{"name":"덕수황태","tel":"031-256-9003","addr":"경기도 수원시 장안구 영화동 421-16번지 1층","indutype":"일반휴게음식 - 일반한식","category":"restaurant"}]},{"lat":"37.292624771","long":"127.01445288","imageIndex":4,"items":[{"name":"도담칡냉면","tel":"031-000-0000","addr":"경기도 수원시 장안구 영화동 292-1번지","indutype":"일반휴게음식 - 일반한식","category":"restaurant"},{"name":"아재불닭발","tel":"031-224-9224","addr":"경기도 수원시 장안구 영화동 292-1번지 1층","indutype":"일반휴게음식 - 일반한식","category":"restaurant"}]},{"lat":"37.28923747","long":"127.00128061","imageIndex":4,"items":[{"name":"돈가스마을","tel":"031-253-8318","addr":"경기도 수원시 장안구 영화동 400-1번지 건우빌딩 1층","indutype":"일반휴게음식 - 서양음식","category":"restaurant"}]},{"lat":"37.287732734","long":"127.00570121","imageIndex":4,"items":[{"name":"돈가스플러스영화점","tel":"031-253-8245","addr":"경기도 수원시 장안구 영화동 421-27번지 1층","indutype":"일반휴게음식 - 일반한식","category":"restaurant"},{"name":"동네술집","tel":"031-245-0999","addr":"경기도 수원시 장안구 영화동 421-27번지 1층","indutype":"일반휴게음식 - 주점","category":"restaurant"},{"name":"볼트F&B","tel":"031-256-0982","addr":"경기도 수원시 장안구 영화동 421-27번지 1층","indutype":"일반휴게음식 - 스넥","category":"restaurant"}]},{"lat":"37.291147621","long":"127.00570134","imageIndex":4,"items":[{"name":"돈스백","tel":"031-203-5756","addr":"경기도 수원시 장안구 영화동 389-1번지 1층","indutype":"일반휴게음식 - 일반한식","category":"restaurant"},{"name":"엄마보신탕","tel":"031-256-1664","addr":"경기도 수원시 장안구 영화동 389-1번지","indutype":"일반휴게음식 - 일반한식","category":"restaurant"},{"name":"카페지","tel":"031-255-5522","addr":"경기도 수원시 장안구 영화동 389-1번지 1층","indutype":"일반휴게음식 - 일반한식","category":"restaurant"}]},{"lat":"37.288597358","long":"127.01255771","imageIndex":4,"items":[{"name":"동북교자관","tel":"031-257-9188","addr":"경기도 수원시 장안구 영화동 328-4번지","indutype":"일반휴게음식 - 중국식","category":"restaurant"},{"name":"전통다원시상","tel":"031-246-9030","addr":"경기도 수원시 장안구 영화동 328-4번지","indutype":"일반휴게음식 - 일반한식","category":"restaurant"}]},{"lat":"37.292345554","long":"127.01337018","imageIndex":4,"items":[{"name":"동태마을","tel":"031-000-0000","addr":"경기도 수원시 장안구 영화동 288-89번지 1층","indutype":"일반휴게음식 - 일반한식","category":"restaurant"}]},{"lat":"37.291822455","long":"127.01802775","imageIndex":4,"items":[{"name":"동해곰치해장국","tel":"031-257-7588","addr":"경기도 수원시 장안구 영화동 106-4번지","indutype":"일반휴게음식 - 일반한식","category":"restaurant"},{"name":"브레드 빈 앳 카페","tel":"031-303-9891","addr":"경기도 수원시 장안구 영화동 106-4번지 1층","indutype":"일반휴게음식 - 서양음식","category":"restaurant"},{"name":"전통예지원","tel":"031-254-2924","addr":"경기도 수원시 장안구 영화동 106-4번지","indutype":"일반휴게음식 - 주점","category":"restaurant"},{"name":"황실짬뽕","tel":"031-242-7090","addr":"경기도 수원시 장안구 영화동 106-4번지 107호","indutype":"일반휴게음식 - 중국식","category":"restaurant"}]},{"lat":"37.289813863","long":"127.01094522","imageIndex":4,"items":[{"name":"동해해물탕","tel":"031-244-8852","addr":"경기도 수원시 장안구 영화동 358-1번지","indutype":"일반휴게음식 - 일반한식","category":"restaurant"}]},{"lat":"37.291543531","long":"127.01455421","imageIndex":4,"items":[{"name":"돼지천하","tel":"031-255-0173","addr":"경기도 수원시 장안구 영화동 161-64번지 1층","indutype":"일반휴게음식 - 일반한식","category":"restaurant"},{"name":"또옹빵까페/주식회사 장안문거북시장","tel":"031-252-7800","addr":"경기도 수원시 장안구 영화동 161-64번지 2층","indutype":"일반휴게음식 - 서양음식","category":"restaurant"}]},{"lat":"37.286786638","long":"127.00642289","imageIndex":4,"items":[{"name":"두레박","tel":"031-247-9692","addr":"경기도 수원시 장안구 영화동 425-16번지","indutype":"일반휴게음식 - 일반한식","category":"restaurant"}]},{"lat":"37.289291098","long":"127.01314421","imageIndex":4,"items":[{"name":"두복이네","tel":"031-244-3437","addr":"경기도 수원시 장안구 영화동 327-1번지 외3필지 월드프라자 1층 제101호","indutype":"일반휴게음식 - 중국식","category":"restaurant"},{"name":"청기와 대박집","tel":"031-245-8833","addr":"경기도 수원시 장안구 영화동 327-1번지 월드프라자","indutype":"일반휴게음식 - 일반한식","category":"restaurant"},{"name":"화통집 수원북문점","tel":"031-252-9280","addr":"경기도 수원시 장안구 영화동 327-1번지 월드프라자 104호","indutype":"일반휴게음식 - 일반한식","category":"restaurant"}]},{"lat":"37.290543642","long":"127.01166705","imageIndex":4,"items":[{"name":"두툼숯불생고기","tel":"","addr":"경기도 수원시 장안구 영화동 340-3번지","indutype":"일반휴게음식 - 일반한식","category":"restaurant"}]},{"lat":"37.290291097","long":"127.01464424","imageIndex":4,"items":[{"name":"둥지","tel":"031-000-0000","addr":"경기도 수원시 장안구 영화동 279-19번지 1층","indutype":"일반휴게음식 - 일반한식","category":"restaurant"},{"name":"진","tel":"031-252-0716","addr":"경기도 수원시 장안구 영화동 279-19번지 1층","indutype":"일반휴게음식 - 일반한식","category":"restaurant"}]},{"lat":"37.290237584","long":"127.00578025","imageIndex":4,"items":[{"name":"드라마","tel":"031-256-8838","addr":"경기도 수원시 장안구 영화동 391-27번지 1층","indutype":"일반휴게음식 - 주점","category":"restaurant"},{"name":"피자샵","tel":"031-242-1110","addr":"경기도 수원시 장안구 영화동 391-27번지","indutype":"일반휴게음식 - 서양음식","category":"restaurant"}]},{"lat":"37.29475906","long":"127.02297938","imageIndex":4,"items":[{"name":"들판","tel":"031-893-7904","addr":"경기도 수원시 장안구 영화동 27-16번지","indutype":"일반휴게음식 - 일반한식","category":"restaurant"}]},{"lat":"37.291237088","long":"127.01547892","imageIndex":4,"items":[{"name":"등잔불","tel":"031-247-3490","addr":"경기도 수원시 장안구 영화동 160-1번지 1층","indutype":"일반휴게음식 - 일반한식","category":"restaurant"}]},{"lat":"37.289678727","long":"127.01067455","imageIndex":4,"items":[{"name":"딴!(색다른요리술집)","tel":"070-8171-2570","addr":"경기도 수원시 장안구 영화동 358-3번지","indutype":"일반휴게음식 - 일반한식","category":"restaurant"}]},{"lat":"37.286651513","long":"127.0052501","imageIndex":4,"items":[{"name":"땡글이신맛집닭발","tel":"031-254-2348","addr":"경기도 수원시 장안구 영화동 424-48번지 1층","indutype":"일반휴게음식 - 일반한식","category":"restaurant"}]},{"lat":"37.289516575","long":"127.01016706","imageIndex":4,"items":[{"name":"또래오래","tel":"031-253-4898","addr":"경기도 수원시 장안구 영화동 432-2번지","indutype":"일반휴게음식 - 주점","category":"restaurant"},{"name":"송자네순대국","tel":"031-236-4070","addr":"경기도 수원시 장안구 영화동 432-2번지 1층","indutype":"일반휴게음식 - 일반한식","category":"restaurant"},{"name":"이조갈비","tel":"","addr":"경기도 수원시 장안구 영화동 432-2번지","indutype":"일반휴게음식 - 일반한식","category":"restaurant"},{"name":"장수옻닭","tel":"031-245-7876","addr":"경기도 수원시 장안구 영화동 432-2번지","indutype":"일반휴게음식 - 일반한식","category":"restaurant"}]},{"lat":"37.290399284","long":"127.01397889","imageIndex":4,"items":[{"name":"또옹빵까페/협동조합 거북당","tel":"031-241-0103","addr":"경기도 수원시 장안구 영화동 276-14번지","indutype":"일반휴게음식 - 서양음식","category":"restaurant"}]},{"lat":"37.290264266","long":"127.0124226","imageIndex":4,"items":[{"name":"또와유청정명태간장조림","tel":"031-247-9295","addr":"경기도 수원시 장안구 영화동 311-9번지 구산빌딩 1층","indutype":"일반휴게음식 - 일반한식","category":"restaurant"}]},{"lat":"37.290516568","long":"127.01223091","imageIndex":4,"items":[{"name":"뜰20","tel":"031-254-4521","addr":"경기도 수원시 장안구 영화동 311-4번지 1층","indutype":"일반휴게음식 - 서양음식","category":"restaurant"}]},{"lat":"37.291425849","long":"127.01920053","imageIndex":4,"items":[{"name":"라프란스","tel":"","addr":"경기도 수원시 장안구 영화동 118-8번지","indutype":"일반휴게음식 - 일반한식","category":"restaurant"},{"name":"송탄참작부대찌개","tel":"031-243-4913","addr":"경기도 수원시 장안구 영화동 118-8번지 1층","indutype":"일반휴게음식 - 일반한식","category":"restaurant"}]},{"lat":"37.292345677","long":"127.01187026","imageIndex":4,"items":[{"name":"롯데리아수원북문","tel":"031-256-8007","addr":"경기도 수원시 장안구 영화동 301-6번지 101호","indutype":"일반휴게음식 - 스넥","category":"restaurant"}]},{"lat":"37.288876629","long":"127.01311033","imageIndex":4,"items":[{"name":"류화양꼬치","tel":"031-826-4728","addr":"경기도 수원시 장안구 영화동 328-12번지 1층","indutype":"일반휴게음식 - 일반한식","category":"restaurant"},{"name":"수원성 7080","tel":"","addr":"경기도 수원시 장안구 영화동 328-12번지 2층","indutype":"일반휴게음식 - 주점","category":"restaurant"},{"name":"호미곶","tel":"031-254-3100","addr":"경기도 수원시 장안구 영화동 328-12번지 1층","indutype":"일반휴게음식 - 스넥","category":"restaurant"}]},{"lat":"37.285759467","long":"127.00647923","imageIndex":4,"items":[{"name":"리도스카페","tel":"031-241-1006","addr":"경기도 수원시 장안구 영화동 376-40번지 1층","indutype":"일반휴게음식 - 일반한식","category":"restaurant"}]},{"lat":"37.290480582","long":"127.01150916","imageIndex":4,"items":[{"name":"리틀본수원집","tel":"031-241-8434","addr":"경기도 수원시 장안구 영화동 341-11번지","indutype":"일반휴게음식 - 일반한식","category":"restaurant"}]},{"lat":"37.290732715","long":"127.01341507","imageIndex":4,"items":[{"name":"리플레이","tel":"031-241-8914","addr":"경기도 수원시 장안구 영화동 285-3번지 1층","indutype":"일반휴게음식 - 일반한식","category":"restaurant"},{"name":"싱싱참치","tel":"031-244-8115","addr":"경기도 수원시 장안구 영화동 285-3번지","indutype":"일반휴게음식 - 일반한식","category":"restaurant"}]},{"lat":"37.289903678","long":"127.01441863","imageIndex":4,"items":[{"name":"리화쿵푸","tel":"031-255-4406","addr":"경기도 수원시 장안구 영화동 281-6번지 1층","indutype":"일반휴게음식 - 중국식","category":"restaurant"},{"name":"설이네수산","tel":"031-244-5567","addr":"경기도 수원시 장안구 영화동 281-6번지 1층","indutype":"일반휴게음식 - 일식·회집","category":"restaurant"},{"name":"용강대반점","tel":"031-244-2830","addr":"경기도 수원시 장안구 영화동 281-6번지","indutype":"일반휴게음식 - 중국식","category":"restaurant"},{"name":"홍가네백반","tel":"031-255-5114","addr":"경기도 수원시 장안구 영화동 281-6번지 1층","indutype":"일반휴게음식 - 일반한식","category":"restaurant"}]},{"lat":"37.290787205","long":"127.00594943","imageIndex":4,"items":[{"name":"마님보쌈","tel":"031-258-5387","addr":"경기도 수원시 장안구 영화동 388-1번지","indutype":"일반휴게음식 - 일반한식","category":"restaurant"}]},{"lat":"37.290543253","long":"127.01589606","imageIndex":4,"items":[{"name":"마당호프","tel":"031-242-9779","addr":"경기도 수원시 장안구 영화동 166-24번지 1층","indutype":"일반휴게음식 - 일반한식","category":"restaurant"}]},{"lat":"37.29073254","long":"127.01523073","imageIndex":4,"items":[{"name":"마포숯불갈비","tel":"031-251-0199","addr":"경기도 수원시 장안구 영화동 164-12번지","indutype":"일반휴게음식 - 일반한식","category":"restaurant"}]},{"lat":"37.2902101","long":"127.01364054","imageIndex":4,"items":[{"name":"만년다방","tel":"031-255-4009","addr":"경기도 수원시 장안구 영화동 284-7번지","indutype":"일반휴게음식 - 서양음식","category":"restaurant"},{"name":"삼태기족발","tel":"031-253-5432","addr":"경기도 수원시 장안구 영화동 284-7번지 1층","indutype":"일반휴게음식 - 일반한식","category":"restaurant"}]},{"lat":"37.291679179","long":"127.00725766","imageIndex":4,"items":[{"name":"만리향","tel":"031-243-9748","addr":"경기도 수원시 장안구 영화동 387-1번지","indutype":"일반휴게음식 - 중국식","category":"restaurant"}]},{"lat":"37.288453214","long":"127.0123096","imageIndex":4,"items":[{"name":"만석골숯불화로구이","tel":"031-242-8592","addr":"경기도 수원시 장안구 영화동 328-13번지","indutype":"일반휴게음식 - 일반한식","category":"restaurant"}]},{"lat":"37.290066179","long":"127.01050543","imageIndex":4,"items":[{"name":"맘스터치(정자,영화점)","tel":"031-251-7666","addr":"경기도 수원시 장안구 영화동 356-1번지 북문프라자 102호","indutype":"일반휴게음식 - 서양음식","category":"restaurant"},{"name":"모모호프","tel":"031-257-1427","addr":"경기도 수원시 장안구 영화동 356-1번지 북문프라자 1층 114호","indutype":"일반휴게음식 - 일반한식","category":"restaurant"},{"name":"엔조이락","tel":"031-256-2193","addr":"경기도 수원시 장안구 영화동 356-1번지 북문프라자 103호","indutype":"일반휴게음식 - 주점","category":"restaurant"},{"name":"유성식당","tel":"","addr":"경기도 수원시 장안구 영화동 356-1번지 북문프라자 102호","indutype":"일반휴게음식 - 일반한식","category":"restaurant"},{"name":"윤숙이네","tel":"031-254-3225","addr":"경기도 수원시 장안구 영화동 356-1번지 북문프라자 107호","indutype":"일반휴게음식 - 주점","category":"restaurant"},{"name":"청하","tel":"031-247-5066","addr":"경기도 수원시 장안구 영화동 356-1번지","indutype":"일반휴게음식 - 일반한식","category":"restaurant"},{"name":"초원자율식당","tel":"031-246-1009","addr":"경기도 수원시 장안구 영화동 356-1번지 북문프라자 1층 108호","indutype":"일반휴게음식 - 일반한식","category":"restaurant"},{"name":"커피온","tel":"031-258-1008","addr":"경기도 수원시 장안구 영화동 356-1번지 북문프라자 104호","indutype":"일반휴게음식 - 서양음식","category":"restaurant"}]},{"lat":"37.290786647","long":"127.01477964","imageIndex":4,"items":[{"name":"멍석","tel":"031-257-5670","addr":"경기도 수원시 장안구 영화동 160-3번지","indutype":"일반휴게음식 - 일반한식","category":"restaurant"},{"name":"제주돼지먹촌","tel":"031-373-4112","addr":"경기도 수원시 장안구 영화동 160-3번지","indutype":"일반휴게음식 - 일반한식","category":"restaurant"}]},{"lat":"37.289147374","long":"127.00186703","imageIndex":4,"items":[{"name":"멸치집","tel":"031-243-0205","addr":"경기도 수원시 장안구 영화동 400-22번지 1층","indutype":"일반휴게음식 - 일반한식","category":"restaurant"}]},{"lat":"37.285984736","long":"127.00602817","imageIndex":4,"items":[{"name":"명가한식당","tel":"031-244-5090","addr":"경기도 수원시 장안구 영화동 376-36번지","indutype":"일반휴게음식 - 스넥","category":"restaurant"},{"name":"언니국물떡볶이&순살치킨","tel":"031-242-4651","addr":"경기도 수원시 장안구 영화동 376-36번지 1층","indutype":"일반휴게음식 - 일반한식","category":"restaurant"}]},{"lat":"37.292426869","long":"127.01044928","imageIndex":4,"items":[{"name":"명가현모병천순대","tel":"031-247-4492","addr":"경기도 수원시 장안구 영화동 448-5번지","indutype":"일반휴게음식 - 일반한식","category":"restaurant"}]},{"lat":"37.289786509","long":"127.01477949","imageIndex":4,"items":[{"name":"명성돼지갈비","tel":"031-241-9465","addr":"경기도 수원시 장안구 영화동 281-10번지","indutype":"일반휴게음식 - 일반한식","category":"restaurant"},{"name":"이정","tel":"031-246-8700","addr":"경기도 수원시 장안구 영화동 281-10번지","indutype":"일반휴게음식 - 일반한식","category":"restaurant"}]},{"lat":"37.289958267","long":"127.00572385","imageIndex":4,"items":[{"name":"모시모찌","tel":"02-1111-1111","addr":"경기도 수원시 장안구 영화동 405-4번지 1층","indutype":"일반휴게음식 - 서양음식","category":"restaurant"}]},{"lat":"37.2905169","long":"127.00583664","imageIndex":4,"items":[{"name":"모아식당","tel":"031-241-2331","addr":"경기도 수원시 장안구 영화동 391-44번지","indutype":"일반휴게음식 - 일반한식","category":"restaurant"}]},{"lat":"37.293453904","long":"127.01231022","imageIndex":4,"items":[{"name":"목포한식","tel":"031-256-6950","addr":"경기도 수원시 장안구 영화동 271-26번지","indutype":"일반휴게음식 - 일반한식","category":"restaurant"}]},{"lat":"37.289543397","long":"127.01300892","imageIndex":4,"items":[{"name":"몽스비어(영화점)","tel":"031-257-5589","addr":"경기도 수원시 장안구 영화동 326-5번지 비동 1층","indutype":"일반휴게음식 - 주점","category":"restaurant"}]},{"lat":"37.290876721","long":"127.01506159","imageIndex":4,"items":[{"name":"몽이포차","tel":"031-256-5187","addr":"경기도 수원시 장안구 영화동 164-35번지","indutype":"일반휴게음식 - 일반한식","category":"restaurant"},{"name":"영애네식당","tel":"031-245-7282","addr":"경기도 수원시 장안구 영화동 164-35번지","indutype":"일반휴게음식 - 일반한식","category":"restaurant"},{"name":"장군이네 골목식당","tel":"031-252-5348","addr":"경기도 수원시 장안구 영화동 164-35번지","indutype":"일반휴게음식 - 일반한식","category":"restaurant"}]},{"lat":"37.289705425","long":"127.01470053","imageIndex":4,"items":[{"name":"무안포차","tel":"031-241-0555","addr":"경기도 수원시 장안구 영화동 281-11번지 1층 101호","indutype":"일반휴게음식 - 일반한식","category":"restaurant"}]},{"lat":"37.2878496","long":"127.0113397","imageIndex":4,"items":[{"name":"무영갈비쌈밥","tel":"031-258-5453","addr":"경기도 수원시 장안구 영화동 435-7번지","indutype":"일반휴게음식 - 일반한식","category":"restaurant"},{"name":"장수두부국수","tel":"031-217-8995","addr":"경기도 수원시 장안구 영화동 435-7번지","indutype":"일반휴게음식 - 일반한식","category":"restaurant"}]},{"lat":"37.290624443","long":"127.01497133","imageIndex":4,"items":[{"name":"무적감자탕","tel":"031-243-2662","addr":"경기도 수원시 장안구 영화동 164-39번지 1층","indutype":"일반휴게음식 - 일반한식","category":"restaurant"},{"name":"짝태&노가리","tel":"","addr":"경기도 수원시 장안구 영화동 164-39번지 1층","indutype":"일반휴게음식 - 주점","category":"restaurant"}]},{"lat":"37.292786211","long":"127.02049776","imageIndex":4,"items":[{"name":"미가","tel":"031-255-6780","addr":"경기도 수원시 장안구 영화동 43-2번지 1층","indutype":"일반휴게음식 - 일반한식","category":"restaurant"}]},{"lat":"37.290182755","long":"127.01667414","imageIndex":4,"items":[{"name":"미닝풀피크닉","tel":"031-111-1111","addr":"경기도 수원시 장안구 영화동 154-30번지 1층","indutype":"일반휴게음식 - 서양음식","category":"restaurant"}]},{"lat":"37.289011905","long":"127.01158793","imageIndex":4,"items":[{"name":"미담","tel":"031-000-0000","addr":"경기도 수원시 장안구 영화동 362-3번지","indutype":"일반휴게음식 - 일반한식","category":"restaurant"},{"name":"청하양꼬치","tel":"031-257-4711","addr":"경기도 수원시 장안구 영화동 362-3번지 1층","indutype":"일반휴게음식 - 중국식","category":"restaurant"}]},{"lat":"37.291065897","long":"127.01544506","imageIndex":4,"items":[{"name":"미선영양탕","tel":"031-241-2583","addr":"경기도 수원시 장안구 영화동 163-4번지","indutype":"일반휴게음식 - 일반한식","category":"restaurant"}]},{"lat":"37.290345056","long":"127.01563665","imageIndex":4,"items":[{"name":"미스터차이나","tel":"031-247-9974","addr":"경기도 수원시 장안구 영화동 166-21번지 1층","indutype":"일반휴게음식 - 중국식","category":"restaurant"}]},{"lat":"37.292453685","long":"127.01327998","imageIndex":4,"items":[{"name":"민속식당","tel":"031-245-9103","addr":"경기도 수원시 장안구 영화동 288-21번지","indutype":"일반휴게음식 - 일반한식","category":"restaurant"}]},{"lat":"37.290209974","long":"127.01494871","imageIndex":4,"items":[{"name":"민속주점","tel":"031-207-7176","addr":"경기도 수원시 장안구 영화동 164-57번지","indutype":"일반휴게음식 - 주점","category":"restaurant"}]},{"lat":"37.289128421","long":"127.01777911","imageIndex":4,"items":[{"name":"밀물","tel":"031-242-2223","addr":"경기도 수원시 장안구 영화동 134-3번지","indutype":"일반휴게음식 - 칵테일바","category":"restaurant"},{"name":"초원","tel":"031-255-6619","addr":"경기도 수원시 장안구 영화동 134-3번지","indutype":"일반휴게음식 - 칵테일바","category":"restaurant"},{"name":"화홍집","tel":"031-241-0665","addr":"경기도 수원시 장안구 영화동 134-3번지 일부 1층","indutype":"일반휴게음식 - 주점","category":"restaurant"}]},{"lat":"37.28865145","long":"127.0121743","imageIndex":4,"items":[{"name":"밀실","tel":"031-123-1234","addr":"경기도 수원시 장안구 영화동 328-6번지 윤정빌 1층","indutype":"일반휴게음식 - 서양음식","category":"restaurant"},{"name":"수원한우갈비탕","tel":"031-257-6036","addr":"경기도 수원시 장안구 영화동 328-6번지 1층","indutype":"일반휴게음식 - 일반한식","category":"restaurant"}]},{"lat":"37.28721013","long":"127.00608461","imageIndex":4,"items":[{"name":"바다로간코끼리","tel":"070-7808-4332","addr":"경기도 수원시 장안구 영화동 425-4번지 1층","indutype":"일반휴게음식 - 일식·회집","category":"restaurant"}]},{"lat":"37.292453859","long":"127.01105828","imageIndex":4,"items":[{"name":"바운스","tel":"031-244-7080","addr":"경기도 수원시 장안구 영화동 305-2번지 지하1층","indutype":"일반휴게음식 - 주점","category":"restaurant"},{"name":"원조기사님분식","tel":"031-255-9574","addr":"경기도 수원시 장안구 영화동 305-2번지","indutype":"일반휴게음식 - 일반한식","category":"restaurant"},{"name":"장안문갈비","tel":"031-258-3030","addr":"경기도 수원시 장안구 영화동 305-2번지 1층","indutype":"일반휴게음식 - 일반한식","category":"restaurant"}]},{"lat":"37.291120141","long":"127.01358428","imageIndex":4,"items":[{"name":"박정연의남도보쌈","tel":"031-251-9960","addr":"경기도 수원시 장안구 영화동 275-2번지","indutype":"일반휴게음식 - 일반한식","category":"restaurant"}]},{"lat":"37.292237497","long":"127.01259201","imageIndex":4,"items":[{"name":"반촌옛날통닭","tel":"031-255-9933","addr":"경기도 수원시 장안구 영화동 272-20번지","indutype":"일반휴게음식 - 스넥","category":"restaurant"},{"name":"버드네","tel":"031-253-2503","addr":"경기도 수원시 장안구 영화동 272-20번지 1층","indutype":"일반휴게음식 - 일반한식","category":"restaurant"},{"name":"시골집","tel":"031-256-0484","addr":"경기도 수원시 장안구 영화동 272-20번지","indutype":"일반휴게음식 - 일반한식","category":"restaurant"}]},{"lat":"37.289066285","long":"127.00333306","imageIndex":4,"items":[{"name":"배달삼겹구주삼수원1호점","tel":"031-248-9088","addr":"경기도 수원시 장안구 영화동 396-47번지","indutype":"일반휴게음식 - 일반한식","category":"restaurant"}]},{"lat":"37.290570069","long":"127.01772301","imageIndex":4,"items":[{"name":"백년식당","tel":"031-304-4410","addr":"경기도 수원시 장안구 영화동 125-19번지 1층 2호","indutype":"일반휴게음식 - 일반한식","category":"restaurant"}]},{"lat":"37.288624765","long":"127.00497951","imageIndex":4,"items":[{"name":"벙개막창","tel":"031-241-1592","addr":"경기도 수원시 장안구 영화동 404-32번지 1층","indutype":"일반휴게음식 - 일반한식","category":"restaurant"}]},{"lat":"37.289489233","long":"127.01414791","imageIndex":4,"items":[{"name":"베르디","tel":"031-241-0424","addr":"경기도 수원시 장안구 영화동 282-5번지 북문빌딩 2층","indutype":"일반휴게음식 - 주점","category":"restaurant"},{"name":"장도락","tel":"031-258-3200","addr":"경기도 수원시 장안구 영화동 282-5번지 3층","indutype":"일반휴게음식 - 일반한식","category":"restaurant"},{"name":"투썸플레이스 수원북문점","tel":"031-251-1123","addr":"경기도 수원시 장안구 영화동 282-5번지 북문빌딩 1층","indutype":"일반휴게음식 - 서양음식","category":"restaurant"}]},{"lat":"37.290399406","long":"127.01259177","imageIndex":4,"items":[{"name":"별난막창숯불구이","tel":"031-246-9364","addr":"경기도 수원시 장안구 영화동 311-8번지 1층","indutype":"일반휴게음식 - 일반한식","category":"restaurant"}]},{"lat":"37.29159716","long":"127.01833219","imageIndex":4,"items":[{"name":"보라빛","tel":"031-247-8953","addr":"경기도 수원시 장안구 영화동 117-2번지","indutype":"일반휴게음식 - 주점","category":"restaurant"},{"name":"착한 밥상","tel":"031-243-1413","addr":"경기도 수원시 장안구 영화동 117-2번지 1층","indutype":"일반휴게음식 - 일반한식","category":"restaurant"}]},{"lat":"37.290732855","long":"127.0117009","imageIndex":4,"items":[{"name":"보신회관","tel":"031-255-3635","addr":"경기도 수원시 장안구 영화동 340-1번지","indutype":"일반휴게음식 - 일반한식","category":"restaurant"}]},{"lat":"37.289624344","long":"127.01458775","imageIndex":4,"items":[{"name":"보용만두","tel":"031-256-7079","addr":"경기도 수원시 장안구 영화동 281-13번지","indutype":"일반휴게음식 - 일반한식","category":"restaurant"}]},{"lat":"37.291210448","long":"127.01100175","imageIndex":4,"items":[{"name":"복동","tel":"031-251-5050","addr":"경기도 수원시 장안구 영화동 342-8번지 101호","indutype":"일반휴게음식 - 일반한식","category":"restaurant"}]},{"lat":"37.288543689","long":"127.00225046","imageIndex":4,"items":[{"name":"복동영화2호점","tel":"031-251-5007","addr":"경기도 수원시 장안구 영화동 400-10번지","indutype":"일반휴게음식 - 일반한식","category":"restaurant"}]},{"lat":"37.290372317","long":"127.01327969","imageIndex":4,"items":[{"name":"본죽수원북문점","tel":"031-254-6288","addr":"경기도 수원시 장안구 영화동 284-3번지 1층","indutype":"일반휴게음식 - 일반한식","category":"restaurant"}]},{"lat":"37.287876932","long":"127.00278048","imageIndex":4,"items":[{"name":"봉수아피자 북수원점","tel":"031-245-8494","addr":"경기도 수원시 장안구 영화동 401-10번지 102호","indutype":"일반휴게음식 - 서양음식","category":"restaurant"}]},{"lat":"37.292264676","long":"127.0105846","imageIndex":4,"items":[{"name":"봉이치킨영화점","tel":"031-251-0079","addr":"경기도 수원시 장안구 영화동 347-12번지","indutype":"일반휴게음식 - 스넥","category":"restaurant"},{"name":"풀잎사랑","tel":"031-254-4500","addr":"경기도 수원시 장안구 영화동 347-12번지 지하1층","indutype":"일반휴게음식 - 일반한식","category":"restaurant"}]},{"lat":"37.285651307","long":"127.00752795","imageIndex":4,"items":[{"name":"부산돼지국밥","tel":"031-244-5688","addr":"경기도 수원시 장안구 영화동 444-8번지","indutype":"일반휴게음식 - 일반한식","category":"restaurant"},{"name":"투다리서문점","tel":"","addr":"경기도 수원시 장안구 영화동 444-8번지 1층","indutype":"일반휴게음식 - 일반한식","category":"restaurant"}]},{"lat":"37.290426042","long":"127.01658396","imageIndex":4,"items":[{"name":"북문닭발","tel":"031-243-1777","addr":"경기도 수원시 장안구 영화동 127-43번지 명문빌딩 1층","indutype":"일반휴게음식 - 일반한식","category":"restaurant"},{"name":"북문숯불갈비","tel":"031-242-0005","addr":"경기도 수원시 장안구 영화동 127-43번지 명문빌딩 102호","indutype":"일반휴게음식 - 일반한식","category":"restaurant"}]},{"lat":"37.290372479","long":"127.01122721","imageIndex":4,"items":[{"name":"북문생선구이","tel":"070-8622-9222","addr":"경기도 수원시 장안구 영화동 340-9번지","indutype":"일반휴게음식 - 일반한식","category":"restaurant"},{"name":"신맛집닭발","tel":"031-245-2348","addr":"경기도 수원시 장안구 영화동 340-9번지 명춤오리탕 3동 1층","indutype":"일반휴게음식 - 일반한식","category":"restaurant"}]},{"lat":"37.291183202","long":"127.01369707","imageIndex":4,"items":[{"name":"북문옥동이","tel":"031-245-9595","addr":"경기도 수원시 장안구 영화동 275-5번지 1층","indutype":"일반휴게음식 - 중국식","category":"restaurant"}]},{"lat":"37.289876625","long":"127.01464417","imageIndex":4,"items":[{"name":"북문장수촌","tel":"031-241-0092","addr":"경기도 수원시 장안구 영화동 281-9번지","indutype":"일반휴게음식 - 일반한식","category":"restaurant"}]},{"lat":"37.292011871","long":"127.01636998","imageIndex":4,"items":[{"name":"북문족발보쌈","tel":"031-252-7788","addr":"경기도 수원시 장안구 영화동 190-5번지 1층","indutype":"일반휴게음식 - 일반한식","category":"restaurant"}]},{"lat":"37.291399491","long":"127.01322344","imageIndex":4,"items":[{"name":"북문참숯화로구이","tel":"031-217-2525","addr":"경기도 수원시 장안구 영화동 274-22번지","indutype":"일반휴게음식 - 일반한식","category":"restaurant"}]},{"lat":"37.289489214","long":"127.01433963","imageIndex":4,"items":[{"name":"북문커피&식사","tel":"031-242-7743","addr":"경기도 수원시 장안구 영화동 282-3번지 지하1층","indutype":"일반휴게음식 - 서양음식","category":"restaurant"}]},{"lat":"37.290038762","long":"127.01511784","imageIndex":4,"items":[{"name":"북문통닭","tel":"031-248-8855","addr":"경기도 수원시 장안구 영화동 165-3번지","indutype":"일반휴게음식 - 주점","category":"restaurant"},{"name":"홍시","tel":"","addr":"경기도 수원시 장안구 영화동 165-3번지 1층","indutype":"일반휴게음식 - 주점","category":"restaurant"}]},{"lat":"37.290984992","long":"127.01352788","imageIndex":4,"items":[{"name":"북문투다리","tel":"031-269-2753","addr":"경기도 수원시 장안구 영화동 275-8번지","indutype":"일반휴게음식 - 주점","category":"restaurant"}]},{"lat":"37.290705572","long":"127.01461047","imageIndex":4,"items":[{"name":"북문해물탕","tel":"031-243-2431","addr":"경기도 수원시 장안구 영화동 160-2번지 1층","indutype":"일반휴게음식 - 일반한식","category":"restaurant"}]},{"lat":"37.291372257","long":"127.01533233","imageIndex":4,"items":[{"name":"북문흑마늘해신탕","tel":"031-258-6776","addr":"경기도 수원시 장안구 영화동 161-2번지 건호빌딩 1층","indutype":"일반휴게음식 - 일반한식","category":"restaurant"}]},{"lat":"37.289732869","long":"127.00933256","imageIndex":4,"items":[{"name":"북수원갈비","tel":"031-255-1565","addr":"경기도 수원시 장안구 영화동 415-5 D","indutype":"일반휴게음식 - 일반한식","category":"restaurant"}]},{"lat":"37.290399203","long":"127.01481341","imageIndex":4,"items":[{"name":"붉은여우","tel":"031-254-7546","addr":"경기도 수원시 장안구 영화동 164-16번지 소나티네 102호","indutype":"일반휴게음식 - 주점","category":"restaurant"},{"name":"장미","tel":"031-000-0000","addr":"경기도 수원시 장안구 영화동 164-16번지","indutype":"일반휴게음식 - 일반한식","category":"restaurant"}]},{"lat":"37.29065159","long":"127.01377593","imageIndex":4,"items":[{"name":"블랙","tel":"031-245-6772","addr":"경기도 수원시 장안구 영화동 276-5번지 1층","indutype":"일반휴게음식 - 주점","category":"restaurant"},{"name":"하이트피아","tel":"031-241-0656","addr":"경기도 수원시 장안구 영화동 276-5번지","indutype":"일반휴게음식 - 주점","category":"restaurant"}]},{"lat":"37.289760069","long":"127.00416758","imageIndex":4,"items":[{"name":"비스트로피자","tel":"","addr":"경기도 수원시 장안구 영화동 392-5번지 101호","indutype":"일반휴게음식 - 서양음식","category":"restaurant"}]},{"lat":"37.290011814","long":"127.01428332","imageIndex":4,"items":[{"name":"비어쏘","tel":"070-6225-1558","addr":"경기도 수원시 장안구 영화동 281-3번지","indutype":"일반휴게음식 - 일반한식","category":"restaurant"},{"name":"풍원양꼬치","tel":"031-243-0745","addr":"경기도 수원시 장안구 영화동 281-3번지","indutype":"일반휴게음식 - 일반한식","category":"restaurant"}]},{"lat":"37.289705444","long":"127.01450882","imageIndex":4,"items":[{"name":"빈대떡앤드골뱅이","tel":"031-207-9291","addr":"경기도 수원시 장안구 영화동 281-7 1층","indutype":"일반휴게음식 - 주점","category":"restaurant"}]},{"lat":"37.292210433","long":"127.012998","imageIndex":4,"items":[{"name":"빵순이호프&포차","tel":"031-251-6568","addr":"경기도 수원시 장안구 영화동 273-14번지 인영빌딩","indutype":"일반휴게음식 - 일반한식","category":"restaurant"}]},{"lat":"37.290345256","long":"127.01361801","imageIndex":4,"items":[{"name":"사나포차","tel":"031-244-3629","addr":"경기도 수원시 장안구 영화동 284-2번지 101호","indutype":"일반휴게음식 - 주점","category":"restaurant"}]},{"lat":"37.292183044","long":"127.01656173","imageIndex":4,"items":[{"name":"사탄곱창","tel":"031-242-7112","addr":"경기도 수원시 장안구 영화동 191-32번지 1층","indutype":"일반휴게음식 - 일반한식","category":"restaurant"}]},{"lat":"37.28609285","long":"127.00636648","imageIndex":4,"items":[{"name":"산전수전포차","tel":"031-241-1770","addr":"경기도 수원시 장안구 영화동 446-8번지","indutype":"일반휴게음식 - 일반한식","category":"restaurant"}]},{"lat":"37.290759369","long":"127.01703512","imageIndex":4,"items":[{"name":"살구나무집","tel":"031-258-4400","addr":"경기도 수원시 장안구 영화동 127-38번지 2층","indutype":"일반휴게음식 - 일반한식","category":"restaurant"},{"name":"생각나는칼국수","tel":"031-247-6615","addr":"경기도 수원시 장안구 영화동 127-38번지 1층","indutype":"일반휴게음식 - 일반한식","category":"restaurant"},{"name":"서울불고기","tel":"031-254-5566","addr":"경기도 수원시 장안구 영화동 127-38번지 1층","indutype":"일반휴게음식 - 일반한식","category":"restaurant"}]},{"lat":"37.292066282","long":"127.0128401","imageIndex":4,"items":[{"name":"삼정식당","tel":"031-255-7600","addr":"경기도 수원시 장안구 영화동 274-1번지","indutype":"일반휴게음식 - 일반한식","category":"restaurant"},{"name":"홍성한우정육식당","tel":"031-254-0092","addr":"경기도 수원시 장안구 영화동 274-1번지","indutype":"일반휴게음식 - 일반한식","category":"restaurant"}]},{"lat":"37.286318118","long":"127.00594925","imageIndex":4,"items":[{"name":"삼학도수산","tel":"031-257-9285","addr":"경기도 수원시 장안구 영화동 446-3번지 101호","indutype":"일반휴게음식 - 일식·회집","category":"restaurant"}]},{"lat":"37.292066343","long":"127.0120845","imageIndex":4,"items":[{"name":"상록수","tel":"031-245-5585","addr":"경기도 수원시 장안구 영화동 301-8번지","indutype":"일반휴게음식 - 서양음식","category":"restaurant"}]},{"lat":"37.292877254","long":"127.01223121","imageIndex":4,"items":[{"name":"생선구이백반","tel":"031-213-6330","addr":"경기도 수원시 장안구 영화동 272-7번지 구림해피타운 102호","indutype":"일반휴게음식 - 일반한식","category":"restaurant"},{"name":"장충동왕족발","tel":"031-244-1238","addr":"경기도 수원시 장안구 영화동 272-7번지 구림해피타운 101호","indutype":"일반휴게음식 - 일반한식","category":"restaurant"}]},{"lat":"37.286876659","long":"127.00853166","imageIndex":4,"items":[{"name":"서문사계절","tel":"031-253-3579","addr":"경기도 수원시 장안구 영화동 441-19번지","indutype":"일반휴게음식 - 일반한식","category":"restaurant"}]},{"lat":"37.286489289","long":"127.0067499","imageIndex":4,"items":[{"name":"서문순대국밥","tel":"031-246-2071","addr":"경기도 수원시 장안구 영화동 445-7번지 1층","indutype":"일반휴게음식 - 일반한식","category":"restaurant"}]},{"lat":"37.285903605","long":"127.00725733","imageIndex":4,"items":[{"name":"서문횟집","tel":"031-225-0336","addr":"경기도 수원시 장안구 영화동 444-12번지 1층","indutype":"일반휴게음식 - 일식·회집","category":"restaurant"}]},{"lat":"37.291876913","long":"127.01453171","imageIndex":4,"items":[{"name":"선교네떡볶이","tel":"031-548-2464","addr":"경기도 수원시 장안구 영화동 292-20","indutype":"일반휴게음식 - 스넥","category":"restaurant"}]},{"lat":"37.287876891","long":"127.0060057","imageIndex":4,"items":[{"name":"선진국 낙지마당","tel":"031-255-1588","addr":"경기도 수원시 장안구 영화동 421-22번지","indutype":"일반휴게음식 - 일반한식","category":"restaurant"},{"name":"향수","tel":"031-243-3256","addr":"경기도 수원시 장안구 영화동 421-22번지","indutype":"일반휴게음식 - 칵테일바","category":"restaurant"}]},{"lat":"37.291210386","long":"127.01187012","imageIndex":4,"items":[{"name":"성도식당","tel":"031-244-2315","addr":"경기도 수원시 장안구 영화동 308-1번지 동성영화타운 지하 B08호","indutype":"일반휴게음식 - 일반한식","category":"restaurant"},{"name":"승아분식","tel":"031-256-0035","addr":"경기도 수원시 장안구 영화동 308-1번지 동성영화타운 1층 104호","indutype":"일반휴게음식 - 스넥","category":"restaurant"},{"name":"좋은맛집","tel":"031-244-8434","addr":"경기도 수원시 장안구 영화동 308-1번지 동성영화타운 2층 231호","indutype":"일반휴게음식 - 일반한식","category":"restaurant"},{"name":"코코커피","tel":"031-256-7561","addr":"경기도 수원시 장안구 영화동 308-1번지 동성영화타운 1층 103호","indutype":"일반휴게음식 - 서양음식","category":"restaurant"}]},{"lat":"37.291038976","long":"127.01436242","imageIndex":4,"items":[{"name":"소가네","tel":"031-248-9111","addr":"경기도 수원시 장안구 영화동 161-7번지","indutype":"일반휴게음식 - 일반한식","category":"restaurant"}]},{"lat":"37.291903856","long":"127.01538881","imageIndex":4,"items":[{"name":"소문난 회수산","tel":"031-242-2419","addr":"경기도 수원시 장안구 영화동 184-1번지","indutype":"일반휴게음식 - 일식·회집","category":"restaurant"}]},{"lat":"37.288958093","long":"127.00695302","imageIndex":4,"items":[{"name":"소복상회","tel":"031-111-1111","addr":"경기도 수원시 장안구 영화동 420-3번지 2층","indutype":"일반휴게음식 - 서양음식","category":"restaurant"}]},{"lat":"37.29118278","long":"127.01761035","imageIndex":4,"items":[{"name":"소천지","tel":"031-247-2464","addr":"경기도 수원시 장안구 영화동 126-23번지 1층","indutype":"일반휴게음식 - 일반한식","category":"restaurant"}]},{"lat":"37.291706107","long":"127.00947934","imageIndex":4,"items":[{"name":"솔잎식당","tel":"031-255-7722","addr":"경기도 수원시 장안구 영화동 350-1번지","indutype":"일반휴게음식 - 일반한식","category":"restaurant"}]},{"lat":"37.294731904","long":"127.02370116","imageIndex":4,"items":[{"name":"송담추어탕","tel":"031-247-7091","addr":"경기도 수원시 장안구 영화동 380-2번지 1층","indutype":"일반휴게음식 - 일반한식","category":"restaurant"}]},{"lat":"37.290183144","long":"127.01278346","imageIndex":4,"items":[{"name":"송사부수제쌀고로케 수원북문점","tel":"","addr":"경기도 수원시 장안구 영화동 311-13번지 1층","indutype":"일반휴게음식 - 서양음식","category":"restaurant"}]},{"lat":"37.291345589","long":"127.01119349","imageIndex":4,"items":[{"name":"수영식당","tel":"","addr":"경기도 수원시 장안구 영화동 342-11번지 1층","indutype":"일반휴게음식 - 일반한식","category":"restaurant"}]},{"lat":"37.292453375","long":"127.01635878","imageIndex":4,"items":[{"name":"수원대교보신장","tel":"031-247-5050","addr":"경기도 수원시 장안구 영화동 191-23번지 1층","indutype":"일반휴게음식 - 일반한식","category":"restaurant"}]},{"lat":"37.291183266","long":"127.01297531","imageIndex":4,"items":[{"name":"수원북문점새마을식당","tel":"031-242-8892","addr":"경기도 수원시 장안구 영화동 297-5번지 1층","indutype":"일반휴게음식 - 일반한식","category":"restaurant"},{"name":"춘천닭갈비","tel":"031-256-5730","addr":"경기도 수원시 장안구 영화동 297-5번지","indutype":"일반휴게음식 - 일반한식","category":"restaurant"}]},{"lat":"37.290066072","long":"127.01202787","imageIndex":4,"items":[{"name":"수원야식","tel":"031-245-2848","addr":"경기도 수원시 장안구 영화동 336-5번지","indutype":"일반휴게음식 - 일반한식","category":"restaurant"}]},{"lat":"37.28887672","long":"127.01200517","imageIndex":4,"items":[{"name":"수원왕가리","tel":"031-242-9743","addr":"경기도 수원시 장안구 영화동 331-5번지 104호","indutype":"일반휴게음식 - 일반한식","category":"restaurant"}]},{"lat":"37.289651503","long":"127.01320065","imageIndex":4,"items":[{"name":"수촌마을 북문점","tel":"031-242-2370","addr":"경기도 수원시 장안구 영화동 326-3번지","indutype":"일반휴게음식 - 일식·회집","category":"restaurant"}]},{"lat":"37.288264282","long":"127.00752811","imageIndex":4,"items":[{"name":"수호전","tel":"031-242-3329","addr":"경기도 수원시 장안구 영화동 426-21번지 1층","indutype":"일반휴게음식 - 주점","category":"restaurant"}]},{"lat":"37.292011833","long":"127.01669703","imageIndex":4,"items":[{"name":"술술복","tel":"031-254-3645","addr":"경기도 수원시 장안구 영화동 173-2번지","indutype":"일반휴게음식 - 일반한식","category":"restaurant"}]},{"lat":"37.291516521","long":"127.01433993","imageIndex":4,"items":[{"name":"숯불풍천장어","tel":"031-111-1111","addr":"경기도 수원시 장안구 영화동 292-37번지 1층","indutype":"일반휴게음식 - 일반한식","category":"restaurant"}]},{"lat":"37.291119946","long":"127.01555784","imageIndex":4,"items":[{"name":"스마일","tel":"031-256-8268","addr":"경기도 수원시 장안구 영화동 163-2번지 1층 101호","indutype":"일반휴게음식 - 주점","category":"restaurant"},{"name":"오삼이와오순이","tel":"031-257-2527","addr":"경기도 수원시 장안구 영화동 163-2번지","indutype":"일반휴게음식 - 일반한식","category":"restaurant"}]},{"lat":"37.290786874","long":"127.0122535","imageIndex":4,"items":[{"name":"스마일찹쌀꽈배기","tel":"031-258-2288","addr":"경기도 수원시 장안구 영화동 308-5번지 1층","indutype":"일반휴게음식 - 서양음식","category":"restaurant"}]},{"lat":"37.288372495","long":"127.00239706","imageIndex":4,"items":[{"name":"스시앤참치","tel":"031-207-9035","addr":"경기도 수원시 장안구 영화동 401-35번지","indutype":"일반휴게음식 - 일반한식","category":"restaurant"}]},{"lat":"37.289488727","long":"127.01859114","imageIndex":4,"items":[{"name":"스페로 , 스페라(spero, spera)","tel":"031-222-6081","addr":"경기도 수원시 장안구 영화동 37-208번지","indutype":"일반휴게음식 - 서양음식","category":"restaurant"}]},{"lat":"37.286065767","long":"127.00783245","imageIndex":4,"items":[{"name":"시골밥상","tel":"031-257-2157","addr":"경기도 수원시 장안구 영화동 443-14번지 1층","indutype":"일반휴게음식 - 일반한식","category":"restaurant"},{"name":"엄마손통닭","tel":"031-253-9288","addr":"경기도 수원시 장안구 영화동 443-14번지 수빈노래연습장 1층 1호","indutype":"일반휴게음식 - 스넥","category":"restaurant"},{"name":"콘서트","tel":"031-247-2969","addr":"경기도 수원시 장안구 영화동 443-14번지","indutype":"일반휴게음식 - 주점","category":"restaurant"}]},{"lat":"37.291570103","long":"127.01853518","imageIndex":4,"items":[{"name":"시골집","tel":"031-251-3007","addr":"경기도 수원시 장안구 영화동 117-6번지 1,2층","indutype":"일반휴게음식 - 일반한식","category":"restaurant"},{"name":"천지골","tel":"031-251-3007","addr":"경기도 수원시 장안구 영화동 117-6번지","indutype":"일반휴게음식 - 일반한식","category":"restaurant"}]},{"lat":"37.289624637","long":"127.0110918","imageIndex":4,"items":[{"name":"신포옛날통닭","tel":"031-244-8929","addr":"경기도 수원시 장안구 영화동 359-1번지 1층","indutype":"일반휴게음식 - 스넥","category":"restaurant"}]},{"lat":"37.290930954","long":"127.01325721","imageIndex":4,"items":[{"name":"신해적곱창","tel":"031-241-9262","addr":"경기도 수원시 장안구 영화동 285-1번지","indutype":"일반휴게음식 - 일반한식","category":"restaurant"},{"name":"여행","tel":"031-252-4888","addr":"경기도 수원시 장안구 영화동 285-1번지 1층","indutype":"일반휴게음식 - 주점","category":"restaurant"},{"name":"채플린","tel":"031-000-0000","addr":"경기도 수원시 장안구 영화동 285-1번지 1층","indutype":"일반휴게음식 - 주점","category":"restaurant"},{"name":"청해참치","tel":"031-244-6248","addr":"경기도 수원시 장안구 영화동 285-1번지","indutype":"일반휴게음식 - 일반한식","category":"restaurant"},{"name":"행복마차","tel":"031-243-9599","addr":"경기도 수원시 장안구 영화동 285-1번지","indutype":"일반휴게음식 - 일반한식","category":"restaurant"},{"name":"희화식당","tel":"031-241-4679","addr":"경기도 수원시 장안구 영화동 285-1번지 지하1층","indutype":"일반휴게음식 - 일반한식","category":"restaurant"}]},{"lat":"37.286011751","long":"127.00655818","imageIndex":4,"items":[{"name":"썬호프","tel":"031-255-2198","addr":"경기도 수원시 장안구 영화동 446-7번지 108호","indutype":"일반휴게음식 - 주점","category":"restaurant"}]},{"lat":"37.290372371","long":"127.01264816","imageIndex":4,"items":[{"name":"아지트","tel":"031-253-4007","addr":"경기도 수원시 장안구 영화동 311-10번지 1층","indutype":"일반휴게음식 - 일반한식","category":"restaurant"}]},{"lat":"37.289120011","long":"127.01181349","imageIndex":4,"items":[{"name":"아침닭","tel":"031-244-8788","addr":"경기도 수원시 장안구 영화동 331-2번지","indutype":"일반휴게음식 - 스넥","category":"restaurant"},{"name":"화성집","tel":"","addr":"경기도 수원시 장안구 영화동 331-2번지 1층","indutype":"일반휴게음식 - 일반한식","category":"restaurant"}]},{"lat":"37.289426292","long":"127.01267059","imageIndex":4,"items":[{"name":"안개꽃","tel":"00-0000-0000","addr":"경기도 수원시 장안구 영화동 332-2번지","indutype":"일반휴게음식 - 칵테일바","category":"restaurant"}]},{"lat":"37.287957849","long":"127.00933241","imageIndex":4,"items":[{"name":"알(ARE)","tel":"031-111-1111","addr":"경기도 수원시 장안구 영화동 440-1번지","indutype":"일반휴게음식 - 서양음식","category":"restaurant"}]},{"lat":"37.290651531","long":"127.01439619","imageIndex":4,"items":[{"name":"애정이네","tel":"031-547-9471","addr":"경기도 수원시 장안구 영화동 278-7번지 1층","indutype":"일반휴게음식 - 일반한식","category":"restaurant"}]},{"lat":"37.285705399","long":"127.00667093","imageIndex":4,"items":[{"name":"애플김밥","tel":"031-241-7999","addr":"경기도 수원시 장안구 영화동 376-32번지 1층","indutype":"일반휴게음식 - 일반한식","category":"restaurant"}]},{"lat":"37.290876861","long":"127.01361808","imageIndex":4,"items":[{"name":"야광주","tel":"031-256-9876","addr":"경기도 수원시 장안구 영화동 276-22번지 1층","indutype":"일반휴게음식 - 주점","category":"restaurant"}]},{"lat":"37.285876542","long":"127.00805797","imageIndex":4,"items":[{"name":"야인시대꼬치구이","tel":"070-8247-2874","addr":"경기도 수원시 장안구 영화동 443-8번지 2층","indutype":"일반휴게음식 - 일반한식","category":"restaurant"}]},{"lat":"37.289732541","long":"127.01380963","imageIndex":4,"items":[{"name":"어쭈구리북문점","tel":"031-245-7003","addr":"경기도 수원시 장안구 영화동 283-6번지","indutype":"일반휴게음식 - 주점","category":"restaurant"}]},{"lat":"37.290426132","long":"127.01578327","imageIndex":4,"items":[{"name":"얼큰이양평해장국","tel":"031-251-5777","addr":"경기도 수원시 장안구 영화동 166-23번지 1층","indutype":"일반휴게음식 - 일반한식","category":"restaurant"}]},{"lat":"37.288786894","long":"127.00708834","imageIndex":4,"items":[{"name":"엄마밥상","tel":"","addr":"경기도 수원시 장안구 영화동 419-25번지","indutype":"일반휴게음식 - 일반한식","category":"restaurant"}]},{"lat":"37.290786536","long":"127.01583972","imageIndex":4,"items":[{"name":"엄마손치킨포차","tel":"031-241-1709","addr":"경기도 수원시 장안구 영화동 166-15번지","indutype":"일반휴게음식 - 스넥","category":"restaurant"},{"name":"올인(ALL IN)보드게임카페","tel":"031-256-5111","addr":"경기도 수원시 장안구 영화동 166-15번지 지층","indutype":"일반휴게음식 - 서양음식","category":"restaurant"},{"name":"이찌방","tel":"031-257-2053","addr":"경기도 수원시 장안구 영화동 166-15번지","indutype":"일반휴게음식 - 주점","category":"restaurant"}]},{"lat":"37.285957702","long":"127.00614094","imageIndex":4,"items":[{"name":"에이코스 (영화3점)","tel":"031-245-5137","addr":"경기도 수원시 장안구 영화동 376-45번지","indutype":"일반휴게음식 - 주점","category":"restaurant"},{"name":"에이코스(영화3점)","tel":"031-245-5137","addr":"경기도 수원시 장안구 영화동 376-45번지 1층 101호","indutype":"일반휴게음식 - 일반한식","category":"restaurant"}]},{"lat":"37.291147135","long":"127.013979","imageIndex":4,"items":[{"name":"연예인","tel":"031-253-6981","addr":"경기도 수원시 장안구 영화동 275-3번지","indutype":"일반휴게음식 - 주점","category":"restaurant"},{"name":"장안아구탕","tel":"031-255-5946","addr":"경기도 수원시 장안구 영화동 275-3번지","indutype":"일반휴게음식 - 일반한식","category":"restaurant"}]},{"lat":"37.289237117","long":"127.01217437","imageIndex":4,"items":[{"name":"연작","tel":"031-254-8588","addr":"경기도 수원시 장안구 영화동 332-7번지 1층","indutype":"일반휴게음식 - 일반한식","category":"restaurant"}]},{"lat":"37.28978661","long":"127.0137307","imageIndex":4,"items":[{"name":"연탄뚱포차","tel":"","addr":"경기도 수원시 장안구 영화동 283-4번지 1층 102호","indutype":"일반휴게음식 - 일반한식","category":"restaurant"},{"name":"한방족발보쌈","tel":"031-258-9963","addr":"경기도 수원시 장안구 영화동 283-4번지 1층 101호","indutype":"일반휴게음식 - 일반한식","category":"restaurant"}]},{"lat":"37.286651476","long":"127.00669353","imageIndex":4,"items":[{"name":"영베이커리카페","tel":"","addr":"경기도 수원시 장안구 영화동 445-1번지 A동 1층 101호","indutype":"일반휴게음식 - 서양음식","category":"restaurant"}]},{"lat":"37.291931247","long":"127.01130633","imageIndex":4,"items":[{"name":"영지푸드","tel":"031-247-0800","addr":"경기도 수원시 장안구 영화동 306-1번지","indutype":"일반휴게음식 - 일반한식","category":"restaurant"}]},{"lat":"37.29021012","long":"127.013415","imageIndex":4,"items":[{"name":"영화잔치국수","tel":"031-258-1238","addr":"경기도 수원시 장안구 영화동 284-5번지","indutype":"일반휴게음식 - 일반한식","category":"restaurant"},{"name":"이디야","tel":"031-245-3865","addr":"경기도 수원시 장안구 영화동 284-5번지","indutype":"일반휴게음식 - 서양음식","category":"restaurant"},{"name":"할매순대국","tel":"031-244-2983","addr":"경기도 수원시 장안구 영화동 284-5번지","indutype":"일반휴게음식 - 일반한식","category":"restaurant"},{"name":"후루룩국수","tel":"031-245-9494","addr":"경기도 수원시 장안구 영화동 284-5번지 한도체육사 104호","indutype":"일반휴게음식 - 일반한식","category":"restaurant"}]},{"lat":"37.289597883","long":"127.00428035","imageIndex":4,"items":[{"name":"예전각설렁탕","tel":"031-255-3002","addr":"경기도 수원시 장안구 영화동 392-4번지 칠공빌딩","indutype":"일반휴게음식 - 일반한식","category":"restaurant"}]},{"lat":"37.292453757","long":"127.01242287","imageIndex":4,"items":[{"name":"예칼국수","tel":"031-252-0103","addr":"경기도 수원시 장안구 영화동 272-10번지 1층","indutype":"일반휴게음식 - 일반한식","category":"restaurant"}]},{"lat":"37.292012032","long":"127.01487006","imageIndex":4,"items":[{"name":"옛날멸치국수","tel":"","addr":"경기도 수원시 장안구 영화동 291-3번지 1층","indutype":"일반휴게음식 - 일반한식","category":"restaurant"}]},{"lat":"37.288903148","long":"127.01791439","imageIndex":4,"items":[{"name":"오가다치킨","tel":"031-251-4268","addr":"경기도 수원시 장안구 영화동 37-217번지 1층","indutype":"일반휴게음식 - 스넥","category":"restaurant"}]},{"lat":"37.28995782","long":"127.01356157","imageIndex":4,"items":[{"name":"오뎅사께","tel":"031-251-2322","addr":"경기도 수원시 장안구 영화동 283-2번지","indutype":"일반휴게음식 - 일식·회집","category":"restaurant"},{"name":"킹콩쥬스엔커피 수원북문점","tel":"031-111-1111","addr":"경기도 수원시 장안구 영화동 283-2번지 1층","indutype":"일반휴게음식 - 서양음식","category":"restaurant"}]},{"lat":"37.289876723","long":"127.01361794","imageIndex":4,"items":[{"name":"오뚜기식당","tel":"031-248-1102","addr":"경기도 수원시 장안구 영화동 283-3번지 B1층","indutype":"일반휴게음식 - 일반한식","category":"restaurant"}]},{"lat":"37.288822868","long":"127.00866713","imageIndex":4,"items":[{"name":"오복식당","tel":"031-242-6797","addr":"경기도 수원시 장안구 영화동 429-1번지","indutype":"일반휴게음식 - 일반한식","category":"restaurant"}]},{"lat":"37.28782287","long":"127.0029158","imageIndex":4,"items":[{"name":"오예스베이킹스튜디오","tel":"031-111-1111","addr":"경기도 수원시 장안구 영화동 401-20번지 1층","indutype":"일반휴게음식 - 서양음식","category":"restaurant"}]},{"lat":"37.289345596","long":"127.00156254","imageIndex":4,"items":[{"name":"오케이 장충동왕족발보쌈","tel":"031-255-1878","addr":"경기도 수원시 장안구 영화동 400-35번지 1층","indutype":"일반휴게음식 - 일반한식","category":"restaurant"}]},{"lat":"37.286426248","long":"127.00566733","imageIndex":4,"items":[{"name":"옥경이네 김밥","tel":"031-266-8800","addr":"경기도 수원시 장안구 영화동 424-26번지","indutype":"일반휴게음식 - 스넥","category":"restaurant"}]},{"lat":"37.292065898","long":"127.01667448","imageIndex":4,"items":[{"name":"옥문중화요리","tel":"031-255-0047","addr":"경기도 수원시 장안구 영화동 173-4번지","indutype":"일반휴게음식 - 중국식","category":"restaurant"}]},{"lat":"37.293318789","long":"127.01181398","imageIndex":4,"items":[{"name":"옥이네김밥나라","tel":"031-256-0871","addr":"경기도 수원시 장안구 영화동 271-22번지 1층","indutype":"일반휴게음식 - 일반한식","category":"restaurant"}]},{"lat":"37.289426691","long":"127.00183319","imageIndex":4,"items":[{"name":"온달싱싱회포차","tel":"031-251-9889","addr":"경기도 수원시 장안구 영화동 396-1번지","indutype":"일반휴게음식 - 일식·회집","category":"restaurant"}]},{"lat":"37.291066089","long":"127.0134715","imageIndex":4,"items":[{"name":"올래","tel":"031-246-9255","addr":"경기도 수원시 장안구 영화동 275-7번지","indutype":"일반휴게음식 - 주점","category":"restaurant"},{"name":"풍년식당","tel":"031-243-8237","addr":"경기도 수원시 장안구 영화동 275-7번지","indutype":"일반휴게음식 - 일반한식","category":"restaurant"}]},{"lat":"37.288093095","long":"127.00733639","imageIndex":4,"items":[{"name":"와이씨펍 (YC PUB)","tel":"031-251-0941","addr":"경기도 수원시 장안구 영화동 426-2번지 104-1호","indutype":"일반휴게음식 - 주점","category":"restaurant"}]},{"lat":"37.289516401","long":"127.01259166","imageIndex":4,"items":[{"name":"왕곱창마을","tel":"031-242-0017","addr":"경기도 수원시 장안구 영화동 332-1번지","indutype":"일반휴게음식 - 일반한식","category":"restaurant"}]},{"lat":"37.286399101","long":"127.00881355","imageIndex":4,"items":[{"name":"요거프레소 장안공원점","tel":"","addr":"경기도 수원시 장안구 영화동 443-13번지 1층","indutype":"일반휴게음식 - 서양음식","category":"restaurant"}]},{"lat":"37.287237189","long":"127.00473138","imageIndex":4,"items":[{"name":"요리쿡조리쿡","tel":"031-251-0308","addr":"경기도 수원시 장안구 영화동 423-27번지","indutype":"일반휴게음식 - 스넥","category":"restaurant"}]},{"lat":"37.290066423","long":"127.00245343","imageIndex":4,"items":[{"name":"울등로산오징어","tel":"031-241-8555","addr":"경기도 수원시 장안구 영화동 397-4번지","indutype":"일반휴게음식 - 일반한식","category":"restaurant"}]},{"lat":"37.291904091","long":"127.01291902","imageIndex":4,"items":[{"name":"원수원설렁탕","tel":"031-242-2994","addr":"경기도 수원시 장안구 영화동 274-12번지 1층","indutype":"일반휴게음식 - 일반한식","category":"restaurant"}]},{"lat":"37.288543305","long":"127.01244493","imageIndex":4,"items":[{"name":"원시다자 숯불양다리구이","tel":"031-355-0889","addr":"경기도 수원시 장안구 영화동 328-5번지","indutype":"일반휴게음식 - 중국식","category":"restaurant"}]},{"lat":"37.289291074","long":"127.01341487","imageIndex":4,"items":[{"name":"원조멸치국수","tel":"031-246-9445","addr":"경기도 수원시 장안구 영화동 327-3번지 1층","indutype":"일반휴게음식 - 일반한식","category":"restaurant"}]},{"lat":"37.291705756","long":"127.01413697","imageIndex":4,"items":[{"name":"원조삼계탕","tel":"031-253-5433","addr":"경기도 수원시 장안구 영화동 292-25번지","indutype":"일반휴게음식 - 일반한식","category":"restaurant"},{"name":"추적60병","tel":"031-244-6318","addr":"경기도 수원시 장안구 영화동 292-25번지 1층","indutype":"일반휴게음식 - 주점","category":"restaurant"}]},{"lat":"37.287092993","long":"127.00619737","imageIndex":4,"items":[{"name":"원푸드(수원옛통닭)","tel":"031-253-2848","addr":"경기도 수원시 장안구 영화동 425-11번지 경인부동산컨설팅 101호","indutype":"일반휴게음식 - 일반한식","category":"restaurant"}]},{"lat":"37.290155991","long":"127.01414801","imageIndex":4,"items":[{"name":"월드오징어바다","tel":"031-246-1946","addr":"경기도 수원시 장안구 영화동 279-15번지 칸","indutype":"일반휴게음식 - 일식·회집","category":"restaurant"}]},{"lat":"37.290011859","long":"127.01380967","imageIndex":4,"items":[{"name":"웰컴투술자리","tel":"031-241-8299","addr":"경기도 수원시 장안구 영화동 283-1번지 1층","indutype":"일반휴게음식 - 스넥","category":"restaurant"},{"name":"진성","tel":"031-248-2055","addr":"경기도 수원시 장안구 영화동 283-1번지 1층","indutype":"일반휴게음식 - 일반한식","category":"restaurant"},{"name":"쭈꾸미달인","tel":"031-242-7246","addr":"경기도 수원시 장안구 영화동 283-1번지","indutype":"일반휴게음식 - 일반한식","category":"restaurant"},{"name":"태영생막창","tel":"031-258-6060","addr":"경기도 수원시 장안구 영화동 283-1번지 1층","indutype":"일반휴게음식 - 일반한식","category":"restaurant"},{"name":"홍천집","tel":"031-245-0345","addr":"경기도 수원시 장안구 영화동 283-1번지 1층","indutype":"일반휴게음식 - 일반한식","category":"restaurant"}]},{"lat":"37.2907058","long":"127.01202794","imageIndex":4,"items":[{"name":"유","tel":"031-242-5023","addr":"경기도 수원시 장안구 영화동 310-4번지","indutype":"일반휴게음식 - 주점","category":"restaurant"}]},{"lat":"37.28973278","long":"127.01080988","imageIndex":4,"items":[{"name":"육콩 (영화점)","tel":"031-247-6060","addr":"경기도 수원시 장안구 영화동 358-2번지","indutype":"일반휴게음식 - 일반한식","category":"restaurant"}]},{"lat":"37.29123722","long":"127.01417073","imageIndex":4,"items":[{"name":"이고집왕주먹고기","tel":"031-235-8586","addr":"경기도 수원시 장안구 영화동 294-9번지 1층","indutype":"일반휴게음식 - 일반한식","category":"restaurant"},{"name":"준치킨호프","tel":"02-1111-1111","addr":"경기도 수원시 장안구 영화동 294-9번지 1층","indutype":"일반휴게음식 - 스넥","category":"restaurant"}]},{"lat":"37.292706202","long":"127.0102012","imageIndex":4,"items":[{"name":"이삭커피숍","tel":"031-254-7743","addr":"경기도 수원시 장안구 영화동 448-1번지","indutype":"일반휴게음식 - 일반한식","category":"restaurant"},{"name":"참맛고을콩비지","tel":"031-251-2981","addr":"경기도 수원시 장안구 영화동 448-1","indutype":"일반휴게음식 - 일반한식","category":"restaurant"}]},{"lat":"37.289264096","long":"127.0128059","imageIndex":4,"items":[{"name":"인생포차","tel":"02-1577-0000","addr":"경기도 수원시 장안구 영화동 330-5번지 1층","indutype":"일반휴게음식 - 일반한식","category":"restaurant"},{"name":"향촌마을","tel":"031-242-5862","addr":"경기도 수원시 장안구 영화동 330-5번지","indutype":"일반휴게음식 - 일반한식","category":"restaurant"}]},{"lat":"37.291480469","long":"127.0144527","imageIndex":4,"items":[{"name":"자금성","tel":"031-256-3375","addr":"경기도 수원시 장안구 영화동 161-65번지","indutype":"일반휴게음식 - 중국식","category":"restaurant"}]},{"lat":"37.292291512","long":"127.01314462","imageIndex":4,"items":[{"name":"자매식당","tel":"031-244-6071","addr":"경기도 수원시 장안구 영화동 273-1번지 1층","indutype":"일반휴게음식 - 일반한식","category":"restaurant"}]},{"lat":"37.29065137","long":"127.01595247","imageIndex":4,"items":[{"name":"자매식당","tel":"031-241-9001","addr":"경기도 수원시 장안구 영화동 166-14번지 1층","indutype":"일반휴게음식 - 일반한식","category":"restaurant"}]},{"lat":"37.29151627","long":"127.01669694","imageIndex":4,"items":[{"name":"장독대","tel":"031-255-0346","addr":"경기도 수원시 장안구 영화동 171-7번지","indutype":"일반휴게음식 - 일반한식","category":"restaurant"}]},{"lat":"37.288372388","long":"127.00794537","imageIndex":4,"items":[{"name":"장박사왕감자탕","tel":"031-254-0225","addr":"경기도 수원시 장안구 영화동 429-12번지 한사랑순복음교회 B동 1층","indutype":"일반휴게음식 - 일반한식","category":"restaurant"}]},{"lat":"37.287732516","long":"127.01061796","imageIndex":4,"items":[{"name":"장수사철탕","tel":"031-243-9779","addr":"경기도 수원시 장안구 영화동 436-24번지","indutype":"일반휴게음식 - 일반한식","category":"restaurant"}]},{"lat":"37.289489252","long":"127.01394492","imageIndex":4,"items":[{"name":"장수소머리국밥","tel":"031-251-5779","addr":"경기도 수원시 장안구 영화동 282-8번지 1층","indutype":"일반휴게음식 - 일반한식","category":"restaurant"}]},{"lat":"37.29129136","long":"127.01331365","imageIndex":4,"items":[{"name":"장안돌판삼겹살","tel":"031-258-4241","addr":"경기도 수원시 장안구 영화동 274-19번지","indutype":"일반휴게음식 - 일반한식","category":"restaurant"}]},{"lat":"37.290849773","long":"127.01422706","imageIndex":4,"items":[{"name":"장어가두근두근","tel":"031-253-2324","addr":"경기도 수원시 장안구 영화동 278-1번지 101호","indutype":"일반휴게음식 - 일반한식","category":"restaurant"}]},{"lat":"37.29065205","long":"127.00600581","imageIndex":4,"items":[{"name":"장충왕족발","tel":"031-256-7751","addr":"경기도 수원시 장안구 영화동 388-35번지 1층","indutype":"일반휴게음식 - 일반한식","category":"restaurant"}]},{"lat":"37.288786536","long":"127.01300882","imageIndex":4,"items":[{"name":"전곱","tel":"031-284-3008","addr":"경기도 수원시 장안구 영화동 328-11번지","indutype":"일반휴게음식 - 일반한식","category":"restaurant"},{"name":"청도양꼬치","tel":"031-111-1111","addr":"경기도 수원시 장안구 영화동 328-11번지","indutype":"일반휴게음식 - 중국식","category":"restaurant"},{"name":"포레스타","tel":"031-0000-0000","addr":"경기도 수원시 장안구 영화동 328-11번지 1층","indutype":"일반휴게음식 - 일반한식","category":"restaurant"}]},{"lat":"37.29095771","long":"127.01603147","imageIndex":4,"items":[{"name":"전남친전여친","tel":"031-242-2322","addr":"경기도 수원시 장안구 영화동 168-12번지 1층","indutype":"일반휴게음식 - 일반한식","category":"restaurant"},{"name":"전여사","tel":"031-241-4252","addr":"경기도 수원시 장안구 영화동 168-12번지 1층","indutype":"일반휴게음식 - 주점","category":"restaurant"}]},{"lat":"37.292877285","long":"127.01183649","imageIndex":4,"items":[{"name":"전라도백반","tel":"","addr":"경기도 수원시 장안구 영화동 300-1번지 1층","indutype":"일반휴게음식 - 일반한식","category":"restaurant"}]},{"lat":"37.289516345","long":"127.01325702","imageIndex":4,"items":[{"name":"전마을전집","tel":"031-893-6783","addr":"경기도 수원시 장안구 영화동 326-11번지 LG전자프라자 1층","indutype":"일반휴게음식 - 일반한식","category":"restaurant"},{"name":"파크노래","tel":"031-242-1811","addr":"경기도 수원시 장안구 영화동 326-11번지 지하층","indutype":"일반휴게음식 - 주점","category":"restaurant"}]},{"lat":"37.293120555","long":"127.01191546","imageIndex":4,"items":[{"name":"전주식당","tel":"031-244-1717","addr":"경기도 수원시 장안구 영화동 271-32번지","indutype":"일반휴게음식 - 일반한식","category":"restaurant"}]},{"lat":"37.288877063","long":"127.0042014","imageIndex":4,"items":[{"name":"정가네숯불닭갈비","tel":"031-256-3444","addr":"경기도 수원시 장안구 영화동 403-18번지 1층","indutype":"일반휴게음식 - 일반한식","category":"restaurant"}]},{"lat":"37.290318671","long":"127.00597196","imageIndex":4,"items":[{"name":"정든포차","tel":"031-241-2270","addr":"경기도 수원시 장안구 영화동 391-9번지 영화교회 1층 101호","indutype":"일반휴게음식 - 일반한식","category":"restaurant"}]},{"lat":"37.29048085","long":"127.00617496","imageIndex":4,"items":[{"name":"정선나들이","tel":"031-243-1990","addr":"경기도 수원시 장안구 영화동 388-17번지","indutype":"일반휴게음식 - 일반한식","category":"restaurant"},{"name":"피자나라치킨공주","tel":"031-248-9086","addr":"경기도 수원시 장안구 영화동 388-17번지","indutype":"일반휴게음식 - 서양음식","category":"restaurant"}]},{"lat":"37.292480555","long":"127.01497163","imageIndex":4,"items":[{"name":"정성찬집밥","tel":"031-252-9696","addr":"경기도 수원시 장안구 영화동 201번지 1층 101호","indutype":"일반휴게음식 - 일반한식","category":"restaurant"}]},{"lat":"37.291264656","long":"127.0084756","imageIndex":4,"items":[{"name":"정있는포장마차","tel":"031-257-2546","addr":"경기도 수원시 장안구 영화동 410-12번지 1층","indutype":"일반휴게음식 - 일반한식","category":"restaurant"}]},{"lat":"37.28784987","long":"127.00558845","imageIndex":4,"items":[{"name":"조은날포차","tel":"031-222-0426","addr":"경기도 수원시 장안구 영화동 421-12번지 1층","indutype":"일반휴게음식 - 일반한식","category":"restaurant"}]},{"lat":"37.290786748","long":"127.01373084","imageIndex":4,"items":[{"name":"줌마닭발","tel":"031-253-1223","addr":"경기도 수원시 장안구 영화동 276-24번지","indutype":"일반휴게음식 - 일반한식","category":"restaurant"}]},{"lat":"37.293120576","long":"127.01164479","imageIndex":4,"items":[{"name":"중앙족발","tel":"031-252-9942","addr":"경기도 수원시 장안구 영화동 300-17번지","indutype":"일반휴게음식 - 일반한식","category":"restaurant"}]},{"lat":"37.292147658","long":"127.00853206","imageIndex":4,"items":[{"name":"진미식당","tel":"031-242-8889","addr":"경기도 수원시 장안구 영화동 449-25번지 1층","indutype":"일반휴게음식 - 일반한식","category":"restaurant"}]},{"lat":"37.290958201","long":"127.01039275","imageIndex":4,"items":[{"name":"진스빈스(Jin''s Beans)","tel":"070-9272-6720","addr":"경기도 수원시 장안구 영화동 343-5번지","indutype":"일반휴게음식 - 서양음식","category":"restaurant"}]},{"lat":"37.290732428","long":"127.01625697","imageIndex":4,"items":[{"name":"진진30","tel":"031-243-6936","addr":"경기도 수원시 장안구 영화동 167-1번지","indutype":"일반휴게음식 - 일반한식","category":"restaurant"}]},{"lat":"37.291597651","long":"127.01394523","imageIndex":4,"items":[{"name":"진천식당","tel":"031-256-3074","addr":"경기도 수원시 장안구 영화동 293-38번지","indutype":"일반휴게음식 - 일반한식","category":"restaurant"},{"name":"풍천민물장어","tel":"031-253-0337","addr":"경기도 수원시 장안구 영화동 293-38번지","indutype":"일반휴게음식 - 일반한식","category":"restaurant"}]},{"lat":"37.292876305","long":"127.02055417","imageIndex":4,"items":[{"name":"집밥이 좋다","tel":"031-253-5438","addr":"경기도 수원시 장안구 영화동 43-16번지 1층","indutype":"일반휴게음식 - 일반한식","category":"restaurant"}]},{"lat":"37.291290865","long":"127.01791486","imageIndex":4,"items":[{"name":"차홍","tel":"","addr":"경기도 수원시 장안구 영화동 126-7번지 1층","indutype":"일반휴게음식 - 서양음식","category":"restaurant"},{"name":"차홍다방","tel":"070-2109-6620","addr":"경기도 수원시 장안구 영화동 126-7번지","indutype":"일반휴게음식 - 서양음식","category":"restaurant"}]},{"lat":"37.289732834","long":"127.00995281","imageIndex":4,"items":[{"name":"착한갈비살","tel":"031-241-7696","addr":"경기도 수원시 장안구 영화동 414-4번지","indutype":"일반휴게음식 - 일반한식","category":"restaurant"}]},{"lat":"37.291958311","long":"127.01083267","imageIndex":4,"items":[{"name":"천둥 한돈","tel":"031-203-4730","addr":"경기도 수원시 장안구 영화동 346-1번지","indutype":"일반휴게음식 - 일반한식","category":"restaurant"}]},{"lat":"37.290570617","long":"127.0123888","imageIndex":4,"items":[{"name":"천해저건 샤브샤브 훠거","tel":"031-245-5792","addr":"경기도 수원시 장안구 영화동 311-3번지","indutype":"일반휴게음식 - 중국식","category":"restaurant"}]},{"lat":"37.289372244","long":"127.01250143","imageIndex":4,"items":[{"name":"청기와","tel":"031-253-2375","addr":"경기도 수원시 장안구 영화동 332-4번지","indutype":"일반휴게음식 - 일반한식","category":"restaurant"}]},{"lat":"37.291453512","long":"127.01367455","imageIndex":4,"items":[{"name":"청담동말자싸롱","tel":"031-244-0339","addr":"경기도 수원시 장안구 영화동 273-6번지","indutype":"일반휴게음식 - 일반한식","category":"restaurant"}]},{"lat":"37.289210445","long":"127.00178809","imageIndex":4,"items":[{"name":"최군신닭발","tel":"031-253-8838","addr":"경기도 수원시 장안구 영화동 400-21번지 1층","indutype":"일반휴게음식 - 일반한식","category":"restaurant"}]},{"lat":"37.293733048","long":"127.01428388","imageIndex":4,"items":[{"name":"최부자","tel":"031-242-8239","addr":"경기도 수원시 장안구 영화동 241-2번지","indutype":"일반휴게음식 - 일반한식","category":"restaurant"}]},{"lat":"37.291372379","long":"127.01411436","imageIndex":4,"items":[{"name":"충남조개해물탕","tel":"031-245-8345","addr":"경기도 수원시 장안구 영화동 294-7 7/","indutype":"일반휴게음식 - 일반한식","category":"restaurant"}]},{"lat":"37.289957929","long":"127.01227595","imageIndex":4,"items":[{"name":"충칭호모두샤브샤브","tel":"","addr":"경기도 수원시 장안구 영화동 335-1번지 1층","indutype":"일반휴게음식 - 일반한식","category":"restaurant"}]},{"lat":"37.291209498","long":"127.01994479","imageIndex":4,"items":[{"name":"치킨사랑","tel":"031-251-3393","addr":"경기도 수원시 장안구 영화동 37-4번지 1층","indutype":"일반휴게음식 - 일반한식","category":"restaurant"}]},{"lat":"37.289903815","long":"127.01291875","imageIndex":4,"items":[{"name":"치킨스토리","tel":"031-256-2120","addr":"경기도 수원시 장안구 영화동 325-3번지 1층","indutype":"일반휴게음식 - 일반한식","category":"restaurant"}]},{"lat":"37.291066534","long":"127.00545323","imageIndex":4,"items":[{"name":"친구정","tel":"031-111-1111","addr":"경기도 수원시 장안구 영화동 390-13번지 원협빌딩 202호","indutype":"일반휴게음식 - 일반한식","category":"restaurant"},{"name":"펀비어킹 수원정자사거리점","tel":"031-254-2299","addr":"경기도 수원시 장안구 영화동 390-13번지 1층","indutype":"일반휴게음식 - 주점","category":"restaurant"}]},{"lat":"37.28995769","long":"127.01491484","imageIndex":4,"items":[{"name":"카스","tel":"031-246-7597","addr":"경기도 수원시 장안구 영화동 279-37번지","indutype":"일반휴게음식 - 주점","category":"restaurant"},{"name":"캠토","tel":"031-243-1233","addr":"경기도 수원시 장안구 영화동 279-37번지","indutype":"일반휴게음식 - 서양음식","category":"restaurant"},{"name":"홍탁가","tel":"031-258-0334","addr":"경기도 수원시 장안구 영화동 279-37번지","indutype":"일반휴게음식 - 일반한식","category":"restaurant"}]},{"lat":"37.287624374","long":"127.0108886","imageIndex":4,"items":[{"name":"카페웰","tel":"02-000-0000","addr":"경기도 수원시 장안구 영화동 436-8번지 메디움수원요양병원 1층","indutype":"일반휴게음식 - 서양음식","category":"restaurant"}]},{"lat":"37.290651649","long":"127.01311057","imageIndex":4,"items":[{"name":"카페인스","tel":"031-245-5444","addr":"경기도 수원시 장안구 영화동 285-2번지","indutype":"일반휴게음식 - 서양음식","category":"restaurant"}]},{"lat":"37.291985246","long":"127.01214087","imageIndex":4,"items":[{"name":"카흐베하네(kahve Hane)","tel":"031-243-7999","addr":"경기도 수원시 장안구 영화동 301-10번지 1층","indutype":"일반휴게음식 - 서양음식","category":"restaurant"}]},{"lat":"37.290570189","long":"127.0167306","imageIndex":4,"items":[{"name":"캐스팅","tel":"031-241-1550","addr":"경기도 수원시 장안구 영화동 127-42번지 1층","indutype":"일반휴게음식 - 주점","category":"restaurant"}]},{"lat":"37.291398969","long":"127.01806149","imageIndex":4,"items":[{"name":"커피거기","tel":"031-258-7044","addr":"경기도 수원시 장안구 영화동 126-14번지 1층","indutype":"일반휴게음식 - 서양음식","category":"restaurant"}]},{"lat":"37.28934528","long":"127.01164435","imageIndex":4,"items":[{"name":"커피마스터수원영화점","tel":"031-246-0319","addr":"경기도 수원시 장안구 영화동 334-6번지 샤인빌 1층 101호","indutype":"일반휴게음식 - 서양음식","category":"restaurant"}]},{"lat":"37.291570753","long":"127.01242276","imageIndex":4,"items":[{"name":"커피베이 북문점","tel":"031-256-2067","addr":"경기도 수원시 장안구 영화동 298-8번지","indutype":"일반휴게음식 - 서양음식","category":"restaurant"}]},{"lat":"37.294705869","long":"127.01694564","imageIndex":4,"items":[{"name":"커피앤(Coffee and...)/(주)에이앤컴퍼니","tel":"031-246-4544","addr":"경기도 수원시 장안구 영화동 92-7번지","indutype":"일반휴게음식 - 서양음식","category":"restaurant"}]},{"lat":"37.289597385","long":"127.01383217","imageIndex":4,"items":[{"name":"커피하는사람들","tel":"031-245-5444","addr":"경기도 수원시 장안구 영화동 282-11번지 1층 2호","indutype":"일반휴게음식 - 서양음식","category":"restaurant"}]},{"lat":"37.287318267","long":"127.00553204","imageIndex":4,"items":[{"name":"코끼리분식","tel":"031-253-9986","addr":"경기도 수원시 장안구 영화동 424-1번지","indutype":"일반휴게음식 - 일반한식","category":"restaurant"}]},{"lat":"37.289291533","long":"127.00141594","imageIndex":4,"items":[{"name":"콩차익는마을","tel":"","addr":"경기도 수원시 장안구 영화동 400-19번지 1층","indutype":"일반휴게음식 - 서양음식","category":"restaurant"}]},{"lat":"37.288850038","long":"127.00234067","imageIndex":4,"items":[{"name":"큰맘할매순대국 정자시장점","tel":"031-243-6649","addr":"경기도 수원시 장안구 영화동 400-29번지 105, 106","indutype":"일반휴게음식 - 일반한식","category":"restaurant"}]},{"lat":"37.287489467","long":"127.00528396","imageIndex":4,"items":[{"name":"클린푸드","tel":"031-252-5293","addr":"경기도 수원시 장안구 영화동 422-42번지 1층","indutype":"일반휴게음식 - 일반한식","category":"restaurant"}]},{"lat":"37.290155881","long":"127.01525319","imageIndex":4,"items":[{"name":"태그커피(TAG COFFEE)","tel":"031-246-5445","addr":"경기도 수원시 장안구 영화동 165-5번지","indutype":"일반휴게음식 - 서양음식","category":"restaurant"}]},{"lat":"37.292093352","long":"127.01236644","imageIndex":4,"items":[{"name":"태능감자탕","tel":"031-242-1875","addr":"경기도 수원시 장안구 영화동 300-6번지 1층","indutype":"일반휴게음식 - 일반한식","category":"restaurant"}]},{"lat":"37.288958156","long":"127.00414501","imageIndex":4,"items":[{"name":"토담골","tel":"031-252-5767","addr":"경기도 수원시 장안구 영화동 403-4번지 전체 1층","indutype":"일반휴게음식 - 일반한식","category":"restaurant"}]},{"lat":"37.289093237","long":"127.00722368","imageIndex":4,"items":[{"name":"투다리","tel":"031-111-1111","addr":"경기도 수원시 장안구 영화동 417-34번지 재은빌라트","indutype":"일반휴게음식 - 주점","category":"restaurant"}]},{"lat":"37.292426933","long":"127.00936662","imageIndex":4,"items":[{"name":"페넥폭스(Fannec Fox)","tel":"","addr":"경기도 수원시 장안구 영화동 448-17번지","indutype":"일반휴게음식 - 일반한식","category":"restaurant"}]},{"lat":"37.286759641","long":"127.00503584","imageIndex":4,"items":[{"name":"페리카나(서문점)","tel":"031-243-8933","addr":"경기도 수원시 장안구 영화동 424-9번지","indutype":"일반휴게음식 - 스넥","category":"restaurant"}]},{"lat":"37.290849574","long":"127.01614422","imageIndex":4,"items":[{"name":"포르쉐","tel":"031-256-4006","addr":"경기도 수원시 장안구 영화동 168-20번지","indutype":"일반휴게음식 - 주점","category":"restaurant"}]},{"lat":"37.289038826","long":"127.01297502","imageIndex":4,"items":[{"name":"포차259","tel":"031-203-5756","addr":"경기도 수원시 장안구 영화동 329-1번지","indutype":"일반휴게음식 - 주점","category":"restaurant"},{"name":"해양수산","tel":"031-257-5779","addr":"경기도 수원시 장안구 영화동 329-1번지","indutype":"일반휴게음식 - 일식·회집","category":"restaurant"}]},{"lat":"37.287985036","long":"127.00503588","imageIndex":4,"items":[{"name":"피자에땅","tel":"031-241-0996","addr":"경기도 수원시 장안구 영화동 422-18번지","indutype":"일반휴게음식 - 서양음식","category":"restaurant"}]},{"lat":"37.292237744","long":"127.00887039","imageIndex":4,"items":[{"name":"하이디엠","tel":"031-252-2557","addr":"경기도 수원시 장안구 영화동 449-27번지 정인빌딩 2층","indutype":"일반휴게음식 - 일반한식","category":"restaurant"}]},{"lat":"37.296263662","long":"127.02361136","imageIndex":4,"items":[{"name":"한국보훈복지의료공단노동조합","tel":"031-3438-3077","addr":"경기도 수원시 장안구 영화동 15-2번지 보훈교육연구원내","indutype":"일반휴게음식 - 위탁급식업","category":"restaurant"}]},{"lat":"37.292507965","long":"127.0103929","imageIndex":4,"items":[{"name":"한식명가","tel":"031-255-0508","addr":"경기도 수원시 장안구 영화동 448-4번지","indutype":"일반휴게음식 - 일반한식","category":"restaurant"}]},{"lat":"37.29165083","long":"127.02108393","imageIndex":4,"items":[{"name":"한조장사보쌈","tel":"031-255-5494","addr":"경기도 수원시 장안구 영화동 380-9번지 1층","indutype":"일반휴게음식 - 일반한식","category":"restaurant"}]},{"lat":"37.290372766","long":"127.0041112","imageIndex":4,"items":[{"name":"헐떡볶이","tel":"031-247-3375","addr":"경기도 수원시 장안구 영화동 393-5번지 1층","indutype":"일반휴게음식 - 스넥","category":"restaurant"}]},{"lat":"37.292903376","long":"127.02028351","imageIndex":4,"items":[{"name":"헤이미쉬 (heimish)","tel":"031-225-2300","addr":"경기도 수원시 장안구 영화동 114-17번지","indutype":"일반휴게음식 - 서양음식","category":"restaurant"}]},{"lat":"37.287372315","long":"127.00606206","imageIndex":4,"items":[{"name":"현푸드","tel":"031-222-2222","addr":"경기도 수원시 장안구 영화동 425-3번지 영진빌딩 102호","indutype":"일반휴게음식 - 일반한식","category":"restaurant"}]},{"lat":"37.292183457","long":"127.01233262","imageIndex":4,"items":[{"name":"호남식당","tel":"031-246-4302","addr":"경기도 수원시 장안구 영화동 300-12번지","indutype":"일반휴게음식 - 일반한식","category":"restaurant"}]},{"lat":"37.292318696","long":"127.01119359","imageIndex":4,"items":[{"name":"호수커피숍","tel":"031-258-6094","addr":"경기도 수원시 장안구 영화동 305-5번지 지하층","indutype":"일반휴게음식 - 일반한식","category":"restaurant"}]},{"lat":"37.288651689","long":"127.00834009","imageIndex":4,"items":[{"name":"호연호프","tel":"031-251-1250","addr":"경기도 수원시 장안구 영화동 429-3번지","indutype":"일반휴게음식 - 주점","category":"restaurant"}]},{"lat":"37.289183064","long":"127.01206159","imageIndex":4,"items":[{"name":"홍가네부대찌개","tel":"031-257-2777","addr":"경기도 수원시 장안구 영화동 332-8번지","indutype":"일반휴게음식 - 일반한식","category":"restaurant"}]},{"lat":"37.29482217","long":"127.02275384","imageIndex":4,"items":[{"name":"홍남매손칼국수","tel":"031-242-9599","addr":"경기도 수원시 장안구 영화동 27-3번지 1층","indutype":"일반휴게음식 - 일반한식","category":"restaurant"}]},{"lat":"37.290065885","long":"127.01419311","imageIndex":4,"items":[{"name":"홍어1번가","tel":"031-244-7987","addr":"경기도 수원시 장안구 영화동 281-1번지 1층","indutype":"일반휴게음식 - 일반한식","category":"restaurant"}]},{"lat":"37.28990372","long":"127.01397882","imageIndex":4,"items":[{"name":"훌랄라바베큐치킨","tel":"031-256-8292","addr":"경기도 수원시 장안구 영화동 283-5번지","indutype":"일반휴게음식 - 주점","category":"restaurant"}]}]