[{"lat":"37.154631797","long":"126.74147969","imageIndex":17,"items":[{"name":"(주)우리반려동물문화원","tel":"031-1899-6415","addr":"경기도 화성시 서신면 사곳리 5-18번지","indutype":"문화.취미 - 애완동물","category":"other"}]},{"lat":"37.158800686","long":"126.72822623","imageIndex":17,"items":[{"name":"파이널케이테크 (주)","tel":"","addr":"경기도 화성시 서신면 사곳리 58-33번지","indutype":"기타 - 기계공구","category":"other"}]},{"lat":"37.158135067","long":"126.72872397","imageIndex":7,"items":[{"name":"승지골 농원","tel":"031-2308-0070","addr":"경기도 화성시 서신면 사곳리 77-2번지","indutype":"음료식품 - 농·축·수산품","category":"food"}]},{"lat":"37.15399417","long":"126.71890028","imageIndex":7,"items":[{"name":"우리농원","tel":"031-357-7629","addr":"경기도 화성시 서신면 사곳리 산88번지","indutype":"음료식품 - 농·축·수산품","category":"food"}]},{"lat":"37.151937936","long":"126.72572954","imageIndex":7,"items":[{"name":"해드린사과농장","tel":"070-5031-0327","addr":"경기도 화성시 서신면 사곳리 206번지","indutype":"음료식품 - 농·축·수산품","category":"food"}]}]