[{"lat":"37.346393263","long":"126.94531349","imageIndex":13,"items":[{"name":"J&C당구장","tel":"031-393-9008","addr":"경기도 군포시 당동 922-3번지 정명프라자 3층","indutype":"레저업소 - 당 구 장","category":"leisure"},{"name":"J&C당구클럽","tel":"031-393-9008","addr":"경기도 군포시 당동 922-3번지 정명프라자 3층","indutype":"레저업소 - 당 구 장","category":"leisure"},{"name":"당동노래연습장","tel":"031-396-3150","addr":"경기도 군포시 당동 922-3번지 정명프라자 B01호","indutype":"레저업소 - 노 래 방","category":"leisure"},{"name":"라이온피씨라운지(Lion pc lounge)","tel":"031-000-0000","addr":"경기도 군포시 당동 922-3번지 정명프라자 2층","indutype":"레저업소 - 기타레져업소","category":"leisure"},{"name":"시온당구클럽","tel":"","addr":"경기도 군포시 당동 922-3번지 정명프라자 3층","indutype":"레저업소 - 당 구 장","category":"leisure"}]},{"lat":"37.351284819","long":"126.94336848","imageIndex":13,"items":[{"name":"JM골프스쿨","tel":"031-429-0794","addr":"경기도 군포시 당동 771번지","indutype":"레저업소 - 골프연습장","category":"leisure"}]},{"lat":"37.350366501","long":"126.94481386","imageIndex":13,"items":[{"name":"M.B.C 당구장","tel":"031-455-0497","addr":"경기도 군포시 당동 898번지 당동빌딩 504,505호","indutype":"레저업소 - 당 구 장","category":"leisure"},{"name":"썬노래연습장","tel":"","addr":"경기도 군포시 당동 898번지 당동빌딩 402호","indutype":"레저업소 - 노 래 방","category":"leisure"}]},{"lat":"37.350807709","long":"126.94422663","imageIndex":13,"items":[{"name":"MP3노래연습장","tel":"031-453-0669","addr":"경기도 군포시 당동 771-10번지 지하전체","indutype":"레저업소 - 노 래 방","category":"leisure"},{"name":"개조아 PC방","tel":"070-8851-0515","addr":"경기도 군포시 당동 771-10번지 3층","indutype":"레저업소 - 기타레져업소","category":"leisure"}]},{"lat":"37.353088241","long":"126.94620003","imageIndex":13,"items":[{"name":"OK노래연습장","tel":"031-452-7884","addr":"경기도 군포시 당동 777번지 지하층","indutype":"레저업소 - 노 래 방","category":"leisure"}]},{"lat":"37.35308843","long":"126.94659506","imageIndex":13,"items":[{"name":"SBS당구클럽","tel":"031-458-4363","addr":"경기도 군포시 당동 777-3번지 6층","indutype":"레저업소 - 당 구 장","category":"leisure"},{"name":"스카이노래연습장","tel":"031-451-0015","addr":"경기도 군포시 당동 777-3번지","indutype":"레저업소 - 노 래 방","category":"leisure"},{"name":"온누리탁구교실","tel":"031-457-7113","addr":"경기도 군포시 당동 777-3번지 지층","indutype":"레저업소 - 기타레져업소","category":"leisure"}]},{"lat":"37.350978377","long":"126.94317686","imageIndex":13,"items":[{"name":"STORY PC방 당동점","tel":"070-3639-3225","addr":"경기도 군포시 당동 771-2번지 2층","indutype":"레저업소 - 기타레져업소","category":"leisure"},{"name":"우리당구장","tel":"070-8945-8359","addr":"경기도 군포시 당동 771-2번지 대흥빌딩 3층 3호","indutype":"레저업소 - 당 구 장","category":"leisure"}]},{"lat":"37.351979862","long":"126.94592998","imageIndex":13,"items":[{"name":"갤럭시당구장","tel":"","addr":"경기도 군포시 당동 780-1번지 3층","indutype":"레저업소 - 당 구 장","category":"leisure"},{"name":"당신의노래연습장","tel":"031-477-1630","addr":"경기도 군포시 당동 780-1번지 2층","indutype":"레저업소 - 노 래 방","category":"leisure"}]},{"lat":"37.345000979","long":"126.93632","imageIndex":13,"items":[{"name":"군포근로자종합복지관","tel":"031-397-6782","addr":"경기도 군포시 당동 981번지","indutype":"레저업소 - 수 영 장","category":"leisure"},{"name":"군포근로자종합복지관","tel":"031-397-6782","addr":"경기도 군포시 당동 981번지","indutype":"레저업소 - 수 영 장","category":"leisure"}]},{"lat":"37.346672688","long":"126.94553899","imageIndex":13,"items":[{"name":"궁노래연습장","tel":"","addr":"경기도 군포시 당동 916-6번지 1층","indutype":"레저업소 - 노 래 방","category":"leisure"},{"name":"와 피씨(WA PC)","tel":"070-5020-5323","addr":"경기도 군포시 당동 916-6번지 2층","indutype":"레저업소 - 기타레져업소","category":"leisure"}]},{"lat":"37.352503254","long":"126.94762258","imageIndex":13,"items":[{"name":"꿈돌이노래연습장","tel":"031-452-3773","addr":"경기도 군포시 당동 778-7번지 지하1층","indutype":"레저업소 - 노 래 방","category":"leisure"}]},{"lat":"37.347834194","long":"126.94390165","imageIndex":13,"items":[{"name":"당정줄넘기체육관","tel":"031-399-3775","addr":"경기도 군포시 당동 904-5번지 그린프라자 108호","indutype":"레저업소 - 기타레져업소","category":"leisure"},{"name":"에스바디워크필라테스","tel":"031-397-9609","addr":"경기도 군포시 당동 904-5번지 그린프라자 2층 201호","indutype":"레저업소 - 헬스클럽","category":"leisure"},{"name":"팡팡노리터군포점","tel":"031-392-1022","addr":"경기도 군포시 당동 904-5번지 그린프라자 지층 102호","indutype":"레저업소 - 기타레져업소","category":"leisure"}]},{"lat":"37.346194797","long":"126.94481707","imageIndex":13,"items":[{"name":"더캠프PC방","tel":"070-5020-5330","addr":"경기도 군포시 당동 922-30번지 은하프라자 401호","indutype":"레저업소 - 기타레져업소","category":"leisure"}]},{"lat":"37.351168554","long":"126.94511797","imageIndex":13,"items":[{"name":"동네당구34당동점","tel":"070-7736-3949","addr":"경기도 군포시 당동 784-7번지 2층","indutype":"레저업소 - 당 구 장","category":"leisure"},{"name":"본주짓수체육관","tel":"031-456-6675","addr":"경기도 군포시 당동 784-7번지","indutype":"레저업소 - 헬스클럽","category":"leisure"}]},{"lat":"37.35400701","long":"126.94564628","imageIndex":13,"items":[{"name":"둘리 노래연습장","tel":"031-447-1210","addr":"경기도 군포시 당동 751-1번지","indutype":"레저업소 - 노 래 방","category":"leisure"}]},{"lat":"37.35283581","long":"126.94589548","imageIndex":13,"items":[{"name":"디제이(DJ)노래연습장","tel":"031-429-1785","addr":"경기도 군포시 당동 776번지 지층","indutype":"레저업소 - 노 래 방","category":"leisure"}]},{"lat":"37.347339598","long":"126.94586577","imageIndex":13,"items":[{"name":"라이젠피씨 (PC)","tel":"","addr":"경기도 군포시 당동 913번지 이정빌딩 지하1층","indutype":"레저업소 - 기타레져업소","category":"leisure"}]},{"lat":"37.350501841","long":"126.94519749","imageIndex":13,"items":[{"name":"랑랑노래연습장","tel":"031-451-0983","addr":"경기도 군포시 당동 898-5번지 지하층","indutype":"레저업소 - 노 래 방","category":"leisure"}]},{"lat":"37.346672594","long":"126.94534713","imageIndex":13,"items":[{"name":"럭셔리노래연습장","tel":"031-398-8085","addr":"경기도 군포시 당동 916-7번지 두산빌딩 2층","indutype":"레저업소 - 노 래 방","category":"leisure"}]},{"lat":"37.350978177","long":"126.94278183","imageIndex":13,"items":[{"name":"럭셔리노래연습장","tel":"031-456-4050","addr":"경기도 군포시 당동 770-13번지 2층","indutype":"레저업소 - 노 래 방","category":"leisure"}]},{"lat":"37.344867755","long":"126.93984119","imageIndex":13,"items":[{"name":"레인보우 키즈풀","tel":"031-394-1290","addr":"경기도 군포시 당동 966-11번지 지하층 101,101-1,102,103호","indutype":"레저업소 - 수 영 장","category":"leisure"}]},{"lat":"37.346751828","long":"126.94164534","imageIndex":13,"items":[{"name":"마스터즈스크린골프","tel":"031-395-7979","addr":"경기도 군포시 당동 961-4번지 홍솔주상복합 홍솔 B01호","indutype":"레저업소 - 스크린골프","category":"leisure"}]},{"lat":"37.350618209","long":"126.94365117","imageIndex":13,"items":[{"name":"메카PC방","tel":"031-398-5663","addr":"경기도 군포시 당동 785번지 3층","indutype":"레저업소 - 기타레져업소","category":"leisure"}]},{"lat":"37.346535337","long":"126.94117151","imageIndex":13,"items":[{"name":"미성스크린","tel":"031-399-0680","addr":"경기도 군포시 당동 962-3번지 미성데코플라자 지하1층","indutype":"레저업소 - 스크린골프","category":"leisure"}]},{"lat":"37.342091524","long":"126.9378122","imageIndex":13,"items":[{"name":"베스트 스크린 골프","tel":"031-393-4400","addr":"경기도 군포시 당동 978-5번지 진방빌딩 3층","indutype":"레저업소 - 스크린골프","category":"leisure"}]},{"lat":"37.354503168","long":"126.94689875","imageIndex":13,"items":[{"name":"베트남연가노래연습장","tel":"031-446-1666","addr":"경기도 군포시 당동 749-27번지 지하1층","indutype":"레저업소 - 노 래 방","category":"leisure"}]},{"lat":"37.34647385","long":"126.94428643","imageIndex":13,"items":[{"name":"비원(B ONE)","tel":"031-393-5252","addr":"경기도 군포시 당동 921-5번지 금강프라자 501동 506호","indutype":"레저업소 - 헬스클럽","category":"leisure"},{"name":"진 당구클럽","tel":"070-8941-3949","addr":"경기도 군포시 당동 921-5번지 금강프라자 304호","indutype":"레저업소 - 당 구 장","category":"leisure"}]},{"lat":"37.352340758","long":"126.94695679","imageIndex":13,"items":[{"name":"빌보드노래연습장","tel":"031-427-3238","addr":"경기도 군포시 당동 779-3번지 지층","indutype":"레저업소 - 노 래 방","category":"leisure"}]},{"lat":"37.34616786","long":"126.94500895","imageIndex":13,"items":[{"name":"사이버뮤직노래연습장","tel":"031-395-1359","addr":"경기도 군포시 당동 922-29번지 군포프라자 2층 201호","indutype":"레저업소 - 노 래 방","category":"leisure"},{"name":"사이버뮤직노래연습장","tel":"031-395-1359","addr":"경기도 군포시 당동 922-29번지 군포프라자 2층 201호","indutype":"레저업소 - 노 래 방","category":"leisure"}]},{"lat":"37.346420172","long":"126.94506518","imageIndex":13,"items":[{"name":"삼성당구장","tel":"031-395-0302","addr":"경기도 군포시 당동 922-2번지 4층","indutype":"레저업소 - 당 구 장","category":"leisure"},{"name":"아레나(ARENA) PC","tel":"031-000-0000","addr":"경기도 군포시 당동 922-2번지 예당프라자 2층","indutype":"레저업소 - 기타레져업소","category":"leisure"},{"name":"채플린노래연습장","tel":"031-395-1132","addr":"경기도 군포시 당동 922-2번지 예당프라자 301호","indutype":"레저업소 - 노 래 방","category":"leisure"}]},{"lat":"37.347564119","long":"126.94436458","imageIndex":13,"items":[{"name":"샘노래연습장","tel":"031-397-3006","addr":"경기도 군포시 당동 905-5번지 지층","indutype":"레저업소 - 노 래 방","category":"leisure"}]},{"lat":"37.349951967","long":"126.94467874","imageIndex":13,"items":[{"name":"쇼킹노래방","tel":"031-396-1501","addr":"경기도 군포시 당동 903번지","indutype":"레저업소 - 노 래 방","category":"leisure"}]},{"lat":"37.345500545","long":"126.94386962","imageIndex":13,"items":[{"name":"숨요가 플러스","tel":"031-394-4556","addr":"경기도 군포시 당동 872-5번지 무광프라자 405호 404호,405호","indutype":"레저업소 - 헬스클럽","category":"leisure"}]},{"lat":"37.35583458","long":"126.94264251","imageIndex":13,"items":[{"name":"슈슈노래연습장","tel":"031-396-1188","addr":"경기도 군포시 당동 858-4번지 지층","indutype":"레저업소 - 노 래 방","category":"leisure"}]},{"lat":"37.352755209","long":"126.94692263","imageIndex":13,"items":[{"name":"시티파크군포역점","tel":"031-458-8668","addr":"경기도 군포시 당동 777-8","indutype":"레저업소 - 기타레져업소","category":"leisure"}]},{"lat":"37.354169739","long":"126.94678613","imageIndex":13,"items":[{"name":"쌍쌍노래방","tel":"031-429-6224","addr":"경기도 군포시 당동 749-45번지","indutype":"레저업소 - 노 래 방","category":"leisure"},{"name":"쌍쌍노래연습장","tel":"031-429-6224","addr":"경기도 군포시 당동 749-45번지 지하1층","indutype":"레저업소 - 노 래 방","category":"leisure"}]},{"lat":"37.351139833","long":"126.94175464","imageIndex":13,"items":[{"name":"씨티당구장","tel":"","addr":"경기도 군포시 당동 763-20번지 3층 301호","indutype":"레저업소 - 당 구 장","category":"leisure"}]},{"lat":"37.354583969","long":"126.9462892","imageIndex":13,"items":[{"name":"아레나 당구클럽","tel":"031-456-1973","addr":"경기도 군포시 당동 745-5번지 한림씨티 6층","indutype":"레저업소 - 당 구 장","category":"leisure"},{"name":"한림아레나 당구장","tel":"031-000-0000","addr":"경기도 군포시 당동 745-5번지 한림오피스텔 601호","indutype":"레저업소 - 당 구 장","category":"leisure"}]},{"lat":"37.350138657","long":"126.93975778","imageIndex":13,"items":[{"name":"아이러브짐(GYM)","tel":"031-399-7757","addr":"경기도 군포시 당동 951-3번지 정마프라자 3층","indutype":"레저업소 - 헬스클럽","category":"leisure"}]},{"lat":"37.347500637","long":"126.94354076","imageIndex":13,"items":[{"name":"에이치 요가 앤 필라테스","tel":"031-399-9970","addr":"경기도 군포시 당동 920-1번지 당동빌딩 4층","indutype":"레저업소 - 헬스클럽","category":"leisure"}]},{"lat":"37.352754665","long":"126.94578267","imageIndex":13,"items":[{"name":"엑스포노래연습장","tel":"031-541-1243","addr":"경기도 군포시 당동 776-23번지","indutype":"레저업소 - 노 래 방","category":"leisure"}]},{"lat":"37.35100636","long":"126.94509552","imageIndex":13,"items":[{"name":"열린스포츠센터","tel":"031-342-1533","addr":"경기도 군포시 당동 784-5번지","indutype":"레저업소 - 헬스클럽","category":"leisure"}]},{"lat":"37.352007537","long":"126.94728435","imageIndex":13,"items":[{"name":"영노래연습장","tel":"031-477-5525","addr":"경기도 군포시 당동 778-15번지 대현빌딩 지층 201호","indutype":"레저업소 - 노 래 방","category":"leisure"}]},{"lat":"37.348338943","long":"126.9442624","imageIndex":13,"items":[{"name":"옵티머스 당구클럽(군포점)","tel":"031-399-3939","addr":"경기도 군포시 당동 904-3번지 2층","indutype":"레저업소 - 당 구 장","category":"leisure"}]},{"lat":"37.350591274","long":"126.94384306","imageIndex":13,"items":[{"name":"와와노래연습장","tel":"031-399-3996","addr":"경기도 군포시 당동 785-2번지 지하1층","indutype":"레저업소 - 노 래 방","category":"leisure"},{"name":"인터조이PC방","tel":"070-5020-5330","addr":"경기도 군포시 당동 785-2번지 2층","indutype":"레저업소 - 기타레져업소","category":"leisure"}]},{"lat":"37.353674484","long":"126.94742985","imageIndex":13,"items":[{"name":"요가이해","tel":"031-346-7974","addr":"경기도 군포시 당동 750-29번지 COZY HOUSE 201호","indutype":"레저업소 - 헬스클럽","category":"leisure"}]},{"lat":"37.347005767","long":"126.9449293","imageIndex":13,"items":[{"name":"용인대SG복싱클럽","tel":"031-391-8897","addr":"경기도 군포시 당동 917-4번지 지층 104호,105호","indutype":"레저업소 - 헬스클럽","category":"leisure"}]},{"lat":"37.347201639","long":"126.94031324","imageIndex":13,"items":[{"name":"용호 멀티짐","tel":"","addr":"경기도 군포시 당동 960-3번지 대림프라자 203호","indutype":"레저업소 - 헬스클럽","category":"leisure"}]},{"lat":"37.353168554","long":"126.94459725","imageIndex":13,"items":[{"name":"윤지혜탁구클럽","tel":"031-393-5920","addr":"경기도 군포시 당동 775번지","indutype":"레저업소 - 기타레져업소","category":"leisure"}]},{"lat":"37.35372787","long":"126.94600767","imageIndex":13,"items":[{"name":"은하수노래연습장","tel":"031-451-2221","addr":"경기도 군포시 당동 751-13번지","indutype":"레저업소 - 노 래 방","category":"leisure"}]},{"lat":"37.356395459","long":"126.94723596","imageIndex":13,"items":[{"name":"지에스노래연습장","tel":"031-451-7589","addr":"경기도 군포시 당동 747-34번지 관음빌딩 지하 101호","indutype":"레저업소 - 노 래 방","category":"leisure"}]},{"lat":"37.351447841","long":"126.94506133","imageIndex":13,"items":[{"name":"지오피씨카페","tel":"070-5020-5323","addr":"경기도 군포시 당동 784-9번지 1층","indutype":"레저업소 - 기타레져업소","category":"leisure"},{"name":"콩쿨노래연습장","tel":"031-427-3883","addr":"경기도 군포시 당동 784-9번지 지하","indutype":"레저업소 - 노 래 방","category":"leisure"},{"name":"콩쿨노래연습장","tel":"031-427-3883","addr":"경기도 군포시 당동 784-9번지 지하","indutype":"레저업소 - 노 래 방","category":"leisure"}]},{"lat":"37.350808351","long":"126.94553585","imageIndex":13,"items":[{"name":"짱노래연습장","tel":"031-477-0630","addr":"경기도 군포시 당동 783-61번지 극동군포빌딩 2층","indutype":"레저업소 - 노 래 방","category":"leisure"}]},{"lat":"37.354169459","long":"126.94619921","imageIndex":13,"items":[{"name":"착한붕어낚시카페(군포점)","tel":"031-347-2733","addr":"경기도 군포시 당동 745-9번지 승재빌딩 지하층","indutype":"레저업소 - 기타레져업소","category":"leisure"}]},{"lat":"37.343362444","long":"126.93870264","imageIndex":13,"items":[{"name":"키다리방방","tel":"070-4406-5757","addr":"경기도 군포시 당동 974-10번지","indutype":"레저업소 - 기타레져업소","category":"leisure"}]},{"lat":"37.344227193","long":"126.93828434","imageIndex":13,"items":[{"name":"키스톤 트레이닝 센터","tel":"","addr":"경기도 군포시 당동 971-2번지 에벤에셀빌딩 201호","indutype":"레저업소 - 헬스클럽","category":"leisure"}]},{"lat":"37.345833988","long":"126.94400478","imageIndex":13,"items":[{"name":"킹 당구장","tel":"031-393-3943","addr":"경기도 군포시 당동 871-4번지 용호프라자 502호","indutype":"레저업소 - 당 구 장","category":"leisure"},{"name":"필라테스    :단","tel":"","addr":"경기도 군포시 당동 871-4번지 용호프라자 503호","indutype":"레저업소 - 헬스클럽","category":"leisure"}]},{"lat":"37.349888974","long":"126.9448368","imageIndex":13,"items":[{"name":"태양당구장","tel":"070-8948-2356","addr":"경기도 군포시 당동 903-1번지 2층","indutype":"레저업소 - 당 구 장","category":"leisure"}]},{"lat":"37.3517278","long":"126.94639292","imageIndex":13,"items":[{"name":"트릭PC방","tel":"031-455-4226","addr":"경기도 군포시 당동 782-10번지","indutype":"레저업소 - 기타레져업소","category":"leisure"}]},{"lat":"37.351980665","long":"126.94762297","imageIndex":13,"items":[{"name":"특급노래연습장","tel":"031-457-1007","addr":"경기도 군포시 당동 778-13번지 지하층","indutype":"레저업소 - 노 래 방","category":"leisure"}]},{"lat":"37.353421779","long":"126.94653838","imageIndex":13,"items":[{"name":"팡팡노래방","tel":"031-456-0141","addr":"경기도 군포시 당동 750-25번지","indutype":"레저업소 - 노 래 방","category":"leisure"}]},{"lat":"37.347003925","long":"126.94128399","imageIndex":13,"items":[{"name":"퍼스트 인라인 클럽","tel":"031-341-6128","addr":"경기도 군포시 당동 961-2번지 호영빌딩 2층 201호","indutype":"레저업소 - 기타레져업소","category":"leisure"}]},{"lat":"37.346113893","long":"126.94520085","imageIndex":13,"items":[{"name":"홍길동전노래연습장","tel":"070-7718-0116","addr":"경기도 군포시 당동 922-28번지 2층","indutype":"레저업소 - 노 래 방","category":"leisure"}]}]