[{"lat":"37.291164466","long":"127.64805109","imageIndex":17,"items":[{"name":"(자)삼양","tel":"031-885-2268","addr":"경기도 여주시 상동 91-5","indutype":"건축자재 - 건축용 요업제품","category":"other"}]},{"lat":"37.29607594","long":"127.64122472","imageIndex":17,"items":[{"name":"(주)나래건축사사무소","tel":"031-885-5012","addr":"경기도 여주시 상동 307-1번지","indutype":"용역 서비스 - 사무서비스","category":"other"},{"name":"여흥건설(주)","tel":"031-886-6347","addr":"경기도 여주시 상동 307-1번지","indutype":"건축자재 - 보일러·펌프·샷시","category":"other"}]},{"lat":"37.296609093","long":"127.64260515","imageIndex":17,"items":[{"name":"(주)다울건축사사무소","tel":"031-885-6555","addr":"경기도 여주시 상동 177-4번지 인텔존 104호","indutype":"용역 서비스 - 사무서비스","category":"other"},{"name":"미래스포츠기획","tel":"031-1111-1111","addr":"경기도 여주시 상동 177-4번지 인텔존 401호","indutype":"레져용품 - 스포츠·레져용품","category":"other"},{"name":"바디라인","tel":"031-881-0117","addr":"경기도 여주시 상동 177-4번지 인텔존 101호","indutype":"회원제형태 - 레져업소","category":"other"},{"name":"와이제이스피닝","tel":"031-885-4666","addr":"경기도 여주시 상동 177-4번지","indutype":"회원제형태 - 레져업소","category":"other"}]},{"lat":"37.291472233","long":"127.64114072","imageIndex":17,"items":[{"name":"(주)피제이렌트카 여주영업소","tel":"031-886-4444","addr":"경기도 여주시 상동 372번지","indutype":"여행 - 렌터카","category":"other"}]},{"lat":"37.295075257","long":"127.64132904","imageIndex":17,"items":[{"name":"GS25여주상동점","tel":"","addr":"경기도 여주시 상동 324-9번지","indutype":"유통업 영리 - 편 의 점","category":"other"},{"name":"제일창호영림몰딩","tel":"031-885-4070","addr":"경기도 여주시 상동 324-9번지","indutype":"건축자재 - 기타건축자재","category":"other"}]},{"lat":"37.2952477775","long":"127.6427515171","imageIndex":17,"items":[{"name":"PC닥터","tel":"031-885-8119","addr":"경기도 여주시 상동 320-5번지","indutype":"사무통신 - 컴퓨터","category":"other"}]},{"lat":"37.292353905","long":"127.64138499","imageIndex":17,"items":[{"name":"mr.청년그릇","tel":"031-1111-1111","addr":"경기도 여주시 상동 374-2번지 유원로얄","indutype":"주방용구 - 주방용식기","category":"other"}]},{"lat":"37.294969818","long":"127.64250105","imageIndex":17,"items":[{"name":"가나설비","tel":"031-886-0477","addr":"경기도 여주시 상동 330-1번지","indutype":"용역 서비스 - 기타용역서비스","category":"other"}]},{"lat":"37.290992149","long":"127.63994127","imageIndex":17,"items":[{"name":"가나안전기공사","tel":"031-884-6464","addr":"경기도 여주시 상동 371번지","indutype":"전기제품 - 기타전기제품","category":"other"},{"name":"좋은디자인","tel":"031-883-8600","addr":"경기도 여주시 상동 371번지","indutype":"용역 서비스 - 종합용역","category":"other"},{"name":"혁성전기주식회사","tel":"031-884-1464","addr":"경기도 여주시 상동 371번지","indutype":"용역 서비스 - 기타용역서비스","category":"other"}]},{"lat":"37.2953275280","long":"127.6413311768","imageIndex":17,"items":[{"name":"갑부열쇠","tel":"","addr":"경기도 여주시 상동 297-2번지","indutype":"건축자재 - 목재·석재·철물","category":"other"},{"name":"모토로라","tel":"031-86-5011","addr":"경기도 여주시 상동 297-2번지","indutype":"사무통신 - 통신기기","category":"other"},{"name":"삼보컴퓨터군청점","tel":"031-886-3650","addr":"경기도 여주시 상동 297-2번지","indutype":"사무통신 - 컴퓨터","category":"other"},{"name":"아이엔","tel":"031-637-9231","addr":"경기도 여주시 상동 297-2번지","indutype":"용역 서비스 - 종합용역","category":"other"},{"name":"효자건설주식회사","tel":"031-886-8617","addr":"경기도 여주시 상동 297-2번지","indutype":"용역 서비스 - 기타용역서비스","category":"other"}]},{"lat":"37.294911649","long":"127.64658314","imageIndex":17,"items":[{"name":"걸은장의사","tel":"031-885-7844","addr":"경기도 여주시 상동 140-12번지","indutype":"용역 서비스 - 가례서비스업","category":"other"},{"name":"대산","tel":"080-907-9000","addr":"경기도 여주시 상동 140-12번지","indutype":"용역 서비스 - 가례서비스업","category":"other"}]},{"lat":"37.294300648","long":"127.63960828","imageIndex":17,"items":[{"name":"경기 여주공공산후조리원","tel":"031-881-9501","addr":"경기도 여주시 상동 357번지 2층","indutype":"기타의료기관 - 산후조리원","category":"other"},{"name":"여주군보건소","tel":"031-887-3687","addr":"경기도 여주시 상동 357번지","indutype":"기타의료기관 - 기타의료기관 및 기타","category":"other"}]},{"lat":"37.296300393","long":"127.63802365","imageIndex":17,"items":[{"name":"경동하나상사","tel":"031-884-7373","addr":"경기도 여주시 상동 225-3번지","indutype":"건축자재 - 보일러·펌프·샷시","category":"other"}]},{"lat":"37.295055595","long":"127.64163338","imageIndex":17,"items":[{"name":"경인CCTV","tel":"031-883-3118","addr":"경기도 여주시 상동 324-11번지","indutype":"전기제품 - 기타전기제품","category":"other"},{"name":"금광설비철물","tel":"031-883-3755","addr":"경기도 여주시 상동 324-11번지","indutype":"기타 - 기계공구","category":"other"}]},{"lat":"37.290411325","long":"127.65722427","imageIndex":17,"items":[{"name":"고려천막","tel":"031-886-3927","addr":"경기도 여주시 상동 16-7번지","indutype":"직물 - 카페트,커튼,천막,지물","category":"other"}]},{"lat":"37.295718685","long":"127.63896611","imageIndex":17,"items":[{"name":"광고랜드","tel":"031-883-0802","addr":"경기도 여주시 상동 239번지","indutype":"건축자재 - 인테리어전문","category":"other"}]},{"lat":"37.29525","long":"127.638996","imageIndex":17,"items":[{"name":"광통신","tel":"031-884-9986","addr":"경기도 여주시 상동 285-4번지","indutype":"사무통신 - 컴퓨터","category":"other"},{"name":"라뭄","tel":"031-885-3245","addr":"경기도 여주시 상동 285-4번지","indutype":"문화.취미 - 화원","category":"other"},{"name":"로즈","tel":"031-886-9740","addr":"경기도 여주시 상동 285-4번지","indutype":"기타 - 기타 전문점","category":"other"}]},{"lat":"37.295555749","long":"127.64078049","imageIndex":17,"items":[{"name":"금광컴퓨터","tel":"031-883-3755","addr":"경기도 여주시 상동 295번지","indutype":"수리서비스 - 사무·통신기기수리","category":"other"}]},{"lat":"37.296745972","long":"127.63894093","imageIndex":17,"items":[{"name":"나은광고현수막","tel":"031-881-5459","addr":"경기도 여주시 상동 210-1번지","indutype":"용역 서비스 - 종합용역","category":"other"}]},{"lat":"37.295829564","long":"127.64346696","imageIndex":17,"items":[{"name":"넛지디자인","tel":"031-881-0353","addr":"경기도 여주시 상동 168-8번지","indutype":"용역 서비스 - 사무서비스","category":"other"}]},{"lat":"37.295132598","long":"127.64072052","imageIndex":17,"items":[{"name":"뉴월드컵여행사","tel":"031-883-3635","addr":"경기도 여주시 상동 292-1번지","indutype":"여행 - 관광여행","category":"other"}]},{"lat":"37.294886479","long":"127.6412485","imageIndex":17,"items":[{"name":"다온측량ENG","tel":"031-885-2950","addr":"경기도 여주시 상동 326-2번지 1층","indutype":"용역 서비스 - 사무서비스","category":"other"}]},{"lat":"37.294325769","long":"127.64496543","imageIndex":17,"items":[{"name":"대명목공소","tel":"031-884-5949","addr":"경기도 여주시 상동 116-6번지","indutype":"건축자재 - 목재·석재·철물","category":"other"}]},{"lat":"37.2950476194","long":"127.6414415900","imageIndex":17,"items":[{"name":"대왕유리","tel":"031-884-2691","addr":"경기도 여주시 상동 324-10번지","indutype":"건축자재 - 유리","category":"other"}]},{"lat":"37.296999455","long":"127.6387175","imageIndex":17,"items":[{"name":"대일ENG","tel":"031-881-2313","addr":"경기도 여주시 상동 220-6번지","indutype":"용역 서비스 - 사무서비스","category":"other"}]},{"lat":"37.296908146","long":"127.63894229","imageIndex":17,"items":[{"name":"도시건축사사무소","tel":"031-886-0361","addr":"경기도 여주시 상동 247번지","indutype":"용역 서비스 - 사무서비스","category":"other"},{"name":"보물찾기","tel":"031-886-7724","addr":"경기도 여주시 상동 247번지","indutype":"의류 - 정장","category":"other"}]},{"lat":"37.296555277","long":"127.64089043","imageIndex":17,"items":[{"name":"동남측량토목설계사무소","tel":"031-884-0067","addr":"경기도 여주시 상동 197-3번지","indutype":"용역 서비스 - 사무서비스","category":"other"},{"name":"여주컴퓨터","tel":"031-886-3939","addr":"경기도 여주시 상동 197-3번지","indutype":"사무통신 - 컴퓨터","category":"other"}]},{"lat":"37.29508098","long":"127.6419381","imageIndex":17,"items":[{"name":"동진철물","tel":"031-884-4477","addr":"경기도 여주시 상동 327-1번지","indutype":"건축자재 - 목재·석재·철물","category":"other"}]},{"lat":"37.2963863420","long":"127.6404717143","imageIndex":17,"items":[{"name":"드림정보통신주식회사","tel":"031-886-3939","addr":"경기도 여주시 상동 271-2번지","indutype":"사무통신 - 컴퓨터","category":"other"}]},{"lat":"37.296165368","long":"127.63799996","imageIndex":17,"items":[{"name":"매일환경","tel":"031-883-5789","addr":"경기도 여주시 상동 226-9번지","indutype":"서적문구 - 정기간행물","category":"other"},{"name":"비앙카","tel":"031-886-3680","addr":"경기도 여주시 상동 226-9번지","indutype":"의류 - 정장","category":"other"},{"name":"위싱스터디카페(wishing study cafe)","tel":"031-885-0903","addr":"경기도 여주시 상동 226-9번지 2층 2호","indutype":"용역 서비스 - 사무서비스","category":"other"}]},{"lat":"37.29302196","long":"127.64114253","imageIndex":17,"items":[{"name":"머그나라","tel":"031-885-5669","addr":"경기도 여주시 상동 369-11번지","indutype":"문화.취미 - 민예·공예품","category":"other"}]},{"lat":"37.2951325981","long":"127.6407205243","imageIndex":17,"items":[{"name":"명보석","tel":"031-62-6089","addr":"경기도 여주시 상동 292-1번지","indutype":"신변잡화 - 시계","category":"other"}]},{"lat":"37.296020848","long":"127.64141598","imageIndex":17,"items":[{"name":"미니스톱 여주청심로점","tel":"031-1577-9621","addr":"경기도 여주시 상동 310-2번지 1층","indutype":"유통업 영리 - 편 의 점","category":"other"}]},{"lat":"37.294969208","long":"127.6409447","imageIndex":17,"items":[{"name":"미래Shop가구","tel":"031-634-6688","addr":"경기도 여주시 상동 325-3번지","indutype":"가구 - 일반가구","category":"other"}]},{"lat":"37.296478942","long":"127.64167925","imageIndex":17,"items":[{"name":"미래상사","tel":"02-1577-3366","addr":"경기도 여주시 상동 180-2번지 여흥주택 2동 2층 201호","indutype":"전기제품 - 냉열기기","category":"other"}]},{"lat":"37.295635803","long":"127.64264202","imageIndex":17,"items":[{"name":"미래설비","tel":"031-883-6060","addr":"경기도 여주시 상동 316-13번지 2층","indutype":"건축자재 - 보일러·펌프·샷시","category":"other"},{"name":"한일펌프 여주대리점","tel":"","addr":"경기도 여주시 상동 316-13번지","indutype":"건축자재 - 보일러·펌프·샷시","category":"other"}]},{"lat":"37.296408327","long":"127.63805839","imageIndex":17,"items":[{"name":"미젤","tel":"031-881-5385","addr":"경기도 여주시 상동 225-2번지","indutype":"의류 - 내의판매","category":"other"}]},{"lat":"37.296659751","long":"127.6382184","imageIndex":17,"items":[{"name":"바이크둥지","tel":"031-885-8009","addr":"경기도 여주시 상동 222-1번지","indutype":"레져용품 - 스포츠·레져용품","category":"other"}]},{"lat":"37.340437532","long":"127.65516412","imageIndex":17,"items":[{"name":"범기획","tel":"031-883-3678","addr":"경기도 여주시 상동 179번지","indutype":"용역 서비스 - 종합용역","category":"other"}]},{"lat":"37.294803839","long":"127.64652583","imageIndex":17,"items":[{"name":"벽지나라","tel":"031-886-6222","addr":"경기도 여주시 상동 140-11번지","indutype":"직물 - 카페트,커튼,천막,지물","category":"other"}]},{"lat":"37.291744819","long":"127.64405258","imageIndex":17,"items":[{"name":"부성건설","tel":"031-885-5656","addr":"경기도 여주시 상동 106-2번지","indutype":"건축자재 - 기타건축자재","category":"other"}]},{"lat":"37.295327528","long":"127.64133118","imageIndex":17,"items":[{"name":"뽀오얀운동화 손세탁전문점","tel":"031-884-2576","addr":"경기도 여주시 상동 297-2번지","indutype":"수리서비스 - 세탁소","category":"other"}]},{"lat":"37.296914631","long":"127.64108519","imageIndex":17,"items":[{"name":"삼성냉난방기","tel":"031-886-5852","addr":"경기도 여주시 상동 187번지","indutype":"전기제품 - 냉열기기","category":"other"},{"name":"연마쟁이","tel":"031-886-3190","addr":"경기도 여주시 상동 187번지","indutype":"수리서비스 - 기타수리서비스","category":"other"}]},{"lat":"37.295248692","long":"127.64258236","imageIndex":17,"items":[{"name":"삼성전기 백화점","tel":"031-885-4959","addr":"경기도 여주시 상동 321-1번지","indutype":"전기제품 - 기타전기제품","category":"other"}]},{"lat":"37.294969064","long":"127.6443055","imageIndex":17,"items":[{"name":"삼천리자전거(상동점)","tel":"031-882-8898","addr":"경기도 여주시 상동 156-11번지","indutype":"레져용품 - 스포츠·레져용품","category":"other"}]},{"lat":"37.295803398","long":"127.6416397","imageIndex":17,"items":[{"name":"성심종합인테리어","tel":"031-886-2928","addr":"경기도 여주시 상동 314-3번지","indutype":"건축자재 - 인테리어전문","category":"other"},{"name":"월드건축인테리어","tel":"031-886-2926","addr":"경기도 여주시 상동 314-3번지","indutype":"주방용구 - 주방용구","category":"other"}]},{"lat":"37.295963807","long":"127.64196812","imageIndex":17,"items":[{"name":"성우측량ENG","tel":"031-886-5900","addr":"경기도 여주시 상동 315-1번지","indutype":"용역 서비스 - 사무서비스","category":"other"},{"name":"제일영상","tel":"031-886-4944","addr":"경기도 여주시 상동 315-1번지","indutype":"전기제품 - 가전제품","category":"other"}]},{"lat":"37.295408488","long":"127.64302355","imageIndex":17,"items":[{"name":"수바이크","tel":"031-885-4300","addr":"경기도 여주시 상동 317-5번지","indutype":"레져용품 - 스포츠·레져용품","category":"other"}]},{"lat":"37.294660114","long":"127.64644566","imageIndex":17,"items":[{"name":"수원조명전기","tel":"031-886-5656","addr":"경기도 여주시 상동 140-10번지","indutype":"건축자재 - 조명기구","category":"other"}]},{"lat":"37.295800924","long":"127.63875252","imageIndex":17,"items":[{"name":"스타일채널","tel":"031-886-1648","addr":"경기도 여주시 상동 238번지","indutype":"의류 - 정장","category":"other"}]},{"lat":"37.292080876","long":"127.64189017","imageIndex":17,"items":[{"name":"신진기공","tel":"031-884-8685","addr":"경기도 여주시 상동 374-5번지","indutype":"건축자재 - 목재·석재·철물","category":"other"},{"name":"여주남한강로타리클럽","tel":"031-884-3608","addr":"경기도 여주시 상동 374-5번지","indutype":"기타 - 비영리/비대상","category":"other"}]},{"lat":"37.296938969","long":"127.63991247","imageIndex":17,"items":[{"name":"씨유여주교육청점","tel":"080-080-3663","addr":"경기도 여주시 상동 201-13번지","indutype":"유통업 영리 - 편 의 점","category":"other"}]},{"lat":"37.29219083","long":"127.6531347","imageIndex":17,"items":[{"name":"씨유여주상리대로점","tel":"080-080-3663","addr":"경기도 여주시 상동 53번지","indutype":"유통업 영리 - 편 의 점","category":"other"}]},{"lat":"37.292222955","long":"127.64060574","imageIndex":17,"items":[{"name":"어울림","tel":"031-882-1337","addr":"경기도 여주시 상동 373-12번지","indutype":"용역 서비스 - 사무서비스","category":"other"}]},{"lat":"37.28683125","long":"127.64627749","imageIndex":17,"items":[{"name":"에이스건설기계매매상사","tel":"031-886-0884","addr":"경기도 여주시 상동 496번지","indutype":"기타 - 기계공구","category":"other"}]},{"lat":"37.296491298","long":"127.64105906","imageIndex":17,"items":[{"name":"여주광고기획","tel":"031-884-4546","addr":"경기도 여주시 상동 197-1번지","indutype":"용역 서비스 - 종합용역","category":"other"}]},{"lat":"37.292580364","long":"127.64116135","imageIndex":17,"items":[{"name":"여주매일우유","tel":"031-883-7353","addr":"경기도 여주시 상동 374번지","indutype":"유통업 영리 - 기타유통업","category":"other"}]},{"lat":"37.2940781","long":"127.64577532","imageIndex":17,"items":[{"name":"여주무역,삼화도장공사","tel":"031-882-7544","addr":"경기도 여주시 상동 116-6번지","indutype":"건축자재 - 페인트","category":"other"}]},{"lat":"37.293661283","long":"127.6412156","imageIndex":17,"items":[{"name":"여주시노인복지관","tel":"031-881-0050","addr":"경기도 여주시 상동 352번지","indutype":"기타 - 비영리/대상","category":"other"}]},{"lat":"37.290131555","long":"127.64247137","imageIndex":17,"items":[{"name":"여주시민장례문화원","tel":"031-882-1000","addr":"경기도 여주시 상동 406-9번지","indutype":"용역 서비스 - 가례서비스업","category":"other"}]},{"lat":"37.295047724","long":"127.63974991","imageIndex":17,"items":[{"name":"여주읍사무소(오학출장소)","tel":"031-887-3971","addr":"경기도 여주시 상동 285-2번지","indutype":"용역 서비스 - 사무서비스","category":"other"},{"name":"여흥동주민센터","tel":"031-887-3792","addr":"경기도 여주시 상동 285-2번지","indutype":"용역 서비스 - 사무서비스","category":"other"}]},{"lat":"37.295247778","long":"127.64275152","imageIndex":17,"items":[{"name":"여주잉크충전방","tel":"031-885-1945","addr":"경기도 여주시 상동 320-5번지","indutype":"사무통신 - 기타 사무용품","category":"other"}]},{"lat":"37.295221758","long":"127.63922132","imageIndex":17,"items":[{"name":"여주전기","tel":"031-885-4319","addr":"경기도 여주시 상동 285-10번지","indutype":"건축자재 - 조명기구","category":"other"}]},{"lat":"37.291667029","long":"127.64344294","imageIndex":17,"items":[{"name":"여주정밀","tel":"031-885-4562","addr":"경기도 여주시 상동 395-1번지","indutype":"기타 - 기계공구","category":"other"}]},{"lat":"37.296774852","long":"127.64027199","imageIndex":17,"items":[{"name":"여주칠공사","tel":"031-886-7704","addr":"경기도 여주시 상동 199-1번지","indutype":"건축자재 - 페인트","category":"other"},{"name":"주식회사여주칠공사","tel":"031-886-7704","addr":"경기도 여주시 상동 199-1번지","indutype":"용역 서비스 - 기타용역서비스","category":"other"}]},{"lat":"37.295469844","long":"127.64000158","imageIndex":17,"items":[{"name":"여주프린터 토너","tel":"031-885-1214","addr":"경기도 여주시 상동 281-16번지","indutype":"사무통신 - 기타 사무용품","category":"other"}]},{"lat":"37.294968477","long":"127.64274915","imageIndex":17,"items":[{"name":"여흥낚시","tel":"031-884-4312","addr":"경기도 여주시 상동 331-5번지 1층","indutype":"레져용품 - 스포츠·레져용품","category":"other"}]},{"lat":"37.29305379","long":"127.64025187","imageIndex":17,"items":[{"name":"여흥로타리클럽","tel":"031-883-3750","addr":"경기도 여주시 상동 368-2번지","indutype":"기타 - 비영리/비대상","category":"other"}]},{"lat":"37.297049937","long":"127.63938333","imageIndex":17,"items":[{"name":"영건축사사무소","tel":"031-885-1466","addr":"경기도 여주시 상동 207-1번지","indutype":"용역 서비스 - 사무서비스","category":"other"}]},{"lat":"37.294410417","long":"127.64596987","imageIndex":17,"items":[{"name":"예사랑여주천막공사","tel":"031-886-4139","addr":"경기도 여주시 상동 139-6번지","indutype":"직물 - 카페트,커튼,천막,지물","category":"other"}]},{"lat":"37.297022301","long":"127.63949588","imageIndex":17,"items":[{"name":"옥광전자","tel":"031-884-2123","addr":"경기도 여주시 상동 206-1번지","indutype":"전기제품 - 가전제품","category":"other"},{"name":"초록담쟁이","tel":"031-881-0850","addr":"경기도 여주시 상동 206-1번지","indutype":"건축자재 - 인테리어전문","category":"other"}]},{"lat":"37.296021818","long":"127.63788597","imageIndex":17,"items":[{"name":"올랑(ollang)","tel":"","addr":"경기도 여주시 상동 226-3번지","indutype":"의류 - 정장","category":"other"}]},{"lat":"37.296940304","long":"127.63966436","imageIndex":17,"items":[{"name":"왕대박잉크충전","tel":"031-885-4535","addr":"경기도 여주시 상동 201-11번지","indutype":"사무통신 - 기타 사무용품","category":"other"}]},{"lat":"37.296720186","long":"127.64038431","imageIndex":17,"items":[{"name":"우리간판","tel":"031-885-0250","addr":"경기도 여주시 상동 201-22번지","indutype":"용역 서비스 - 종합용역","category":"other"}]},{"lat":"37.293023784","long":"127.64580018","imageIndex":17,"items":[{"name":"우리골프백화점","tel":"041-338-0086","addr":"경기도 여주시 상동 121-4번지","indutype":"레져용품 - 골프용품 전문점","category":"other"}]},{"lat":"37.295161753","long":"127.64032604","imageIndex":17,"items":[{"name":"우리조명","tel":"031-886-4119","addr":"경기도 여주시 상동 291-1번지","indutype":"전기제품 - 기타전기제품","category":"other"}]},{"lat":"37.296110402","long":"127.63816867","imageIndex":17,"items":[{"name":"워터피아정수기여주.이천점","tel":"031-884-4828","addr":"경기도 여주시 상동 226-6번지 2층","indutype":"주방용구 - 정수기","category":"other"}]},{"lat":"37.2949987968","long":"127.6421404043","imageIndex":17,"items":[{"name":"원진종합상사","tel":"031-886-5335","addr":"경기도 여주시 상동 329-4번지","indutype":"건축자재 - 기타건축자재","category":"other"}]},{"lat":"37.286911296","long":"127.64646988","imageIndex":17,"items":[{"name":"유어디","tel":"","addr":"경기도 여주시 상동 496-4번지","indutype":"신변잡화 - 액세서리","category":"other"}]},{"lat":"37.2957175","long":"127.64252994","imageIndex":17,"items":[{"name":"이레오에이솔류션","tel":"031-883-5902","addr":"경기도 여주시 상동 316-8번지","indutype":"사무통신 - 사무용 OA기기","category":"other"}]},{"lat":"37.291995563","long":"127.64433664","imageIndex":17,"items":[{"name":"이엔씨","tel":"031-885-0450","addr":"경기도 여주시 상동 106번지","indutype":"건축자재 - 인테리어전문","category":"other"}]},{"lat":"37.294941301","long":"127.6444406","imageIndex":17,"items":[{"name":"정인","tel":"031-886-5491","addr":"경기도 여주시 상동 156-1번지","indutype":"레져용품 - 스포츠·레져용품","category":"other"},{"name":"학생의집","tel":"031-886-5005","addr":"경기도 여주시 상동 156-1번지","indutype":"서적문구 - 문구용품","category":"other"}]},{"lat":"37.295298674","long":"127.64166927","imageIndex":17,"items":[{"name":"제이비주방가구","tel":"031-881-5714","addr":"경기도 여주시 상동 323-1번지 1층","indutype":"주방용구 - 주방용구","category":"other"},{"name":"차칸컴퓨터","tel":"031-882-6789","addr":"경기도 여주시 상동 323-1번지","indutype":"사무통신 - 컴퓨터","category":"other"}]},{"lat":"37.292803202","long":"127.65154984","imageIndex":17,"items":[{"name":"주식회사 예놉컴퍼니","tel":"031-883-7906","addr":"경기도 여주시 상동 60-1번지 2층","indutype":"용역 서비스 - 종합용역","category":"other"},{"name":"플라이트홀릭","tel":"031-886-7327","addr":"경기도 여주시 상동 60-1번지","indutype":"서적문구 - 완구점","category":"other"}]},{"lat":"37.292442481","long":"127.64166768","imageIndex":17,"items":[{"name":"주식회사청운","tel":"031-883-3131","addr":"경기도 여주시 상동 374-7번지","indutype":"용역 서비스 - 기타용역서비스","category":"other"},{"name":"청운하우징(주)","tel":"031-881-6971","addr":"경기도 여주시 상동 374-7번지","indutype":"용역 서비스 - 기타용역서비스","category":"other"}]},{"lat":"37.294693208","long":"127.64532944","imageIndex":17,"items":[{"name":"철물건재마트","tel":"031-884-2708","addr":"경기도 여주시 상동 141-3번지","indutype":"건축자재 - 목재·석재·철물","category":"other"}]},{"lat":"37.296193674","long":"127.64111294","imageIndex":17,"items":[{"name":"케이에스건설(주)","tel":"031-885-6488","addr":"경기도 여주시 상동 307-2번지","indutype":"건축자재 - 인테리어전문","category":"other"}]},{"lat":"37.297583024","long":"127.63910587","imageIndex":17,"items":[{"name":"켈러리","tel":"031-882-0444","addr":"경기도 여주시 상동 214-12번지","indutype":"의류 - 정장","category":"other"}]},{"lat":"37.29702709","long":"127.63860495","imageIndex":17,"items":[{"name":"코아인테리어","tel":"031-885-6331","addr":"경기도 여주시 상동 219-3번지","indutype":"건축자재 - 인테리어전문","category":"other"}]},{"lat":"37.296331682","long":"127.64225319","imageIndex":17,"items":[{"name":"탑배너","tel":"031-886-7404","addr":"경기도 여주시 상동 178번지","indutype":"용역 서비스 - 종합용역","category":"other"}]},{"lat":"37.295412506","long":"127.64061011","imageIndex":17,"items":[{"name":"태영상사","tel":"031-886-3533","addr":"경기도 여주시 상동 293-1번지","indutype":"용역 서비스 - 기타용역서비스","category":"other"}]},{"lat":"37.292303528","long":"127.65230114","imageIndex":17,"items":[{"name":"파라파라","tel":"031-882-3414","addr":"경기도 여주시 상동 154번지","indutype":"서적문구 - 문구용품","category":"other"}]},{"lat":"37.29607683","long":"127.63938641","imageIndex":17,"items":[{"name":"파티데이","tel":"031-4126-6771","addr":"경기도 여주시 상동 262번지 멜타하임 101호","indutype":"용역 서비스 - 사무서비스","category":"other"}]},{"lat":"37.293998054","long":"127.64558291","imageIndex":17,"items":[{"name":"풍경하우징","tel":"031-8051-6434","addr":"경기도 여주시 상동 116-5번지","indutype":"건축자재 - 인테리어전문","category":"other"}]},{"lat":"37.293550447","long":"127.64504906","imageIndex":17,"items":[{"name":"하이펌프기술","tel":"031-883-8676","addr":"경기도 여주시 상동 109-8번지","indutype":"수리서비스 - 기타수리서비스","category":"other"}]},{"lat":"37.294244192","long":"127.64505495","imageIndex":17,"items":[{"name":"한화종합장식","tel":"031-885-9877","addr":"경기도 여주시 상동 109-1번지","indutype":"직물 - 카페트,커튼,천막,지물","category":"other"}]},{"lat":"37.291860744","long":"127.64094101","imageIndex":17,"items":[{"name":"합동신문 여주지국","tel":"031-885-9151","addr":"경기도 여주시 상동 373-5번지 1층","indutype":"서적문구 - 정기간행물","category":"other"}]},{"lat":"37.29565973","long":"127.64154827","imageIndex":17,"items":[{"name":"해성라이팅","tel":"031-883-7700","addr":"경기도 여주시 상동 314-8번지","indutype":"건축자재 - 조명기구","category":"other"}]},{"lat":"37.294582826","long":"127.64574578","imageIndex":17,"items":[{"name":"현대종합공구","tel":"031-883-8909","addr":"경기도 여주시 상동 139-3번지","indutype":"기타 - 기계공구","category":"other"}]},{"lat":"37.295357113","long":"127.64252689","imageIndex":17,"items":[{"name":"화이트운동화","tel":"031-882-9414","addr":"경기도 여주시 상동 316-9번지 1층","indutype":"수리서비스 - 세탁소","category":"other"}]},{"lat":"37.296579503","long":"127.64307858","imageIndex":17,"items":[{"name":"효성전기모터","tel":"031-881-5037","addr":"경기도 여주시 상동 175-4번지","indutype":"수리서비스 - 기타수리서비스","category":"other"}]},{"lat":"37.294244192","long":"127.64505495","imageIndex":16,"items":[{"name":"HaoHao수학교습소","tel":"031-884-5300","addr":"경기도 여주시 상동 109-1번지","indutype":"학원 - 기타 교육기관","category":"study"},{"name":"가온누리명성태권도","tel":"031-884-5666","addr":"경기도 여주시 상동 109-1번지 종로엠스쿨학원 2층 201호","indutype":"학원 - 예·체능계학원","category":"study"},{"name":"페트라실용음악학원","tel":"031-883-3040","addr":"경기도 여주시 상동 109-1번지 청풍빌딩 2층 좌","indutype":"회원제형태 - 학원","category":"study"},{"name":"한솔플러스영어수학학원","tel":"031-882-9110","addr":"경기도 여주시 상동 109-1번지 3충 1호","indutype":"학원 - 보습학원","category":"study"}]},{"lat":"37.29525","long":"127.638996","imageIndex":16,"items":[{"name":"Step by step 수능영어 교습소","tel":"02-0000-0000","addr":"경기도 여주시 상동 285-4번지","indutype":"학원 - 외국어학원","category":"study"}]},{"lat":"37.295247778","long":"127.64275152","imageIndex":16,"items":[{"name":"김선주의뮤직프렌즈","tel":"031-881-1569","addr":"경기도 여주시 상동 320-5번지","indutype":"학원 - 예·체능계학원","category":"study"}]},{"lat":"37.2918552078","long":"127.6419672007","imageIndex":16,"items":[{"name":"꿈이자라는 땅 어린이집[아이행복]","tel":"031-882-2445","addr":"경기도 여주시 상동 372-3번지","indutype":"학원 - 유아원","category":"study"}]},{"lat":"37.296774852","long":"127.64027199","imageIndex":16,"items":[{"name":"대한골프캐디협회","tel":"031-884-2003","addr":"경기도 여주시 상동 199-1번지","indutype":"학원 - 기능학원","category":"study"}]},{"lat":"37.292082702","long":"127.64155186","imageIndex":16,"items":[{"name":"또래어린이집[아이행복]","tel":"031-886-2766","addr":"경기도 여주시 상동 374-3번지","indutype":"학원 - 유아원","category":"study"}]},{"lat":"37.297018928","long":"127.63844699","imageIndex":16,"items":[{"name":"리라어린이집[아이행복]","tel":"031-886-4399","addr":"경기도 여주시 상동 221-1번지","indutype":"학원 - 유아원","category":"study"}]},{"lat":"37.29488133","long":"127.63885756","imageIndex":16,"items":[{"name":"베이비캐슬 어린이집[아이행복]","tel":"031-886-7711","addr":"경기도 여주시 상동 285-32번지","indutype":"학원 - 유아원","category":"study"}]},{"lat":"37.294854907","long":"127.63874456","imageIndex":16,"items":[{"name":"사임당어린이집[아이행복]","tel":"031-886-7722","addr":"경기도 여주시 상동 285-35번지","indutype":"학원 - 유아원","category":"study"}]},{"lat":"37.294912895","long":"127.64303063","imageIndex":16,"items":[{"name":"샘물컴퓨터학원","tel":"031-882-3636","addr":"경기도 여주시 상동 331-19번지","indutype":"학원 - 기타 교육기관","category":"study"},{"name":"스마트학원","tel":"031-885-8210","addr":"경기도 여주시 상동 331-19번지","indutype":"학원 - 보습학원","category":"study"}]},{"lat":"37.295634007","long":"127.64463821","imageIndex":16,"items":[{"name":"세종고등학교","tel":"031-883-1120","addr":"경기도 여주시 상동 144-5번지","indutype":"학원 - 초중고교육기관","category":"study"},{"name":"세종고등학교_수업료","tel":"031-883-1120","addr":"경기도 여주시 상동 144-5번지","indutype":"학원 - 초중고교육기관","category":"study"},{"name":"여주여자중학교","tel":"031-880-8304","addr":"경기도 여주시 상동 144-5번지","indutype":"학원 - 초중고교육기관","category":"study"}]},{"lat":"37.295994727","long":"127.64291574","imageIndex":16,"items":[{"name":"아이나라어린이집[아이행복]","tel":"031-883-3314","addr":"경기도 여주시 상동 168-13번지 1층","indutype":"학원 - 유아원","category":"study"}]},{"lat":"37.296499274","long":"127.64125085","imageIndex":16,"items":[{"name":"여주검도장","tel":"031-886-5640","addr":"경기도 여주시 상동 191번지","indutype":"학원 - 예·체능계학원","category":"study"}]},{"lat":"37.294300648","long":"127.63960828","imageIndex":16,"items":[{"name":"여주시육아종합지원센터[아이행복]","tel":"031-883-2019","addr":"경기도 여주시 상동 357번지","indutype":"학원 - 유아원","category":"study"},{"name":"훈민어린이집[아이행복]","tel":"031-887-2267","addr":"경기도 여주시 상동 357번지","indutype":"학원 - 유아원","category":"study"}]},{"lat":"37.294027688","long":"127.6434404","imageIndex":16,"items":[{"name":"여흥초등학교","tel":"031-880-8407","addr":"경기도 여주시 상동 110번지 여흥초등학교","indutype":"학원 - 초중고교육기관","category":"study"}]},{"lat":"37.293331195","long":"127.64394199","imageIndex":16,"items":[{"name":"여흥초등학교_수업료","tel":"031-880-8407","addr":"경기도 여주시 상동 108번지 여주제2교직원공동사택","indutype":"학원 - 초중고교육기관","category":"study"},{"name":"여흥초등학교병설유치원[아이행복]","tel":"031-886-2328","addr":"경기도 여주시 상동 108번지 여주제2교직원공동사택","indutype":"학원 - 유치원","category":"study"}]},{"lat":"37.295221758","long":"127.63922132","imageIndex":16,"items":[{"name":"예술의전당미술학원","tel":"031-885-7603","addr":"경기도 여주시 상동 285-10번지","indutype":"학원 - 예·체능계학원","category":"study"}]},{"lat":"37.2951325981","long":"127.6407205243","imageIndex":16,"items":[{"name":"이태리예술음악학원","tel":"031-881-2555","addr":"경기도 여주시 상동 292-1번지","indutype":"회원제형태 - 학원","category":"study"}]},{"lat":"37.296020848","long":"127.64141598","imageIndex":16,"items":[{"name":"이해경음악학원","tel":"031-881-2113","addr":"경기도 여주시 상동 310-2번지 2층","indutype":"학원 - 예·체능계학원","category":"study"}]},{"lat":"37.297826407","long":"127.63908536","imageIndex":16,"items":[{"name":"제이엔씨 커피연구소","tel":"031-8051-0426","addr":"경기도 여주시 상동 214-25번지 2층","indutype":"학원 - 기능학원","category":"study"}]},{"lat":"37.2957175","long":"127.64252994","imageIndex":16,"items":[{"name":"지현샘학원","tel":"","addr":"경기도 여주시 상동 316-8번지 2층","indutype":"학원 - 보습학원","category":"study"}]},{"lat":"37.296165368","long":"127.63799996","imageIndex":16,"items":[{"name":"필독서실","tel":"031-885-0903","addr":"경기도 여주시 상동 226-9번지","indutype":"학원 - 기타 교육기관","category":"study"}]},{"lat":"37.293077446","long":"127.65083043","imageIndex":5,"items":[{"name":"J모텔","tel":"031-881-5200","addr":"경기도 여주시 상동 67번지","indutype":"숙박업 - 여관/기타숙박업","category":"hotel"}]},{"lat":"37.2970754675","long":"127.6413346711","imageIndex":5,"items":[{"name":"라인모텔","tel":"031-883-8666","addr":"경기도 여주시 상동 185-1번지","indutype":"숙박업 - 여관/기타숙박업","category":"hotel"}]},{"lat":"37.294019868","long":"127.64488388","imageIndex":5,"items":[{"name":"렉스모텔","tel":"031-886-8665","addr":"경기도 여주시 상동 109-2번지","indutype":"숙박업 - 여관/기타숙박업","category":"hotel"}]},{"lat":"37.297638234","long":"127.63889205","imageIndex":5,"items":[{"name":"명성장여관","tel":"","addr":"경기도 여주시 상동 215-1번지","indutype":"숙박업 - 여관/기타숙박업","category":"hotel"}]},{"lat":"37.292186661","long":"127.65060852","imageIndex":5,"items":[{"name":"세븐모텔","tel":"031-886-8900","addr":"경기도 여주시 상동 62-2번지 1층","indutype":"숙박업 - 여관/기타숙박업","category":"hotel"}]},{"lat":"37.292548459","long":"127.65199875","imageIndex":5,"items":[{"name":"소풍모텔","tel":"031-885-8890","addr":"경기도 여주시 상동 57번지","indutype":"숙박업 - 여관/기타숙박업","category":"hotel"},{"name":"스카이파크여관","tel":"031-885-8890","addr":"경기도 여주시 상동 57번지","indutype":"숙박업 - 여관/기타숙박업","category":"hotel"}]},{"lat":"37.291389837","long":"127.65296992","imageIndex":5,"items":[{"name":"스타","tel":"031-885-8445","addr":"경기도 여주시 상동 37-4번지 (37,36-19,36-20)","indutype":"숙박업 - 여관/기타숙박업","category":"hotel"}]},{"lat":"37.295831828","long":"127.63803099","imageIndex":5,"items":[{"name":"여흥여관","tel":"031-886-2272","addr":"경기도 여주시 상동 228-2번지","indutype":"숙박업 - 여관/기타숙박업","category":"hotel"}]},{"lat":"37.293858122","long":"127.64480356","imageIndex":5,"items":[{"name":"하이모텔","tel":"031-1111-1111","addr":"경기도 여주시 상동 109-3번지","indutype":"숙박업 - 여관/기타숙박업","category":"hotel"}]},{"lat":"37.290992149","long":"127.63994127","imageIndex":13,"items":[{"name":"LG오휘여주지사","tel":"031-886-7015","addr":"경기도 여주시 상동 371번지","indutype":"보건위생 - 화장품","category":"beauty"},{"name":"LG오휘컨설턴트","tel":"031-886-7015","addr":"경기도 여주시 상동 371번지","indutype":"보건위생 - 화장품","category":"beauty"},{"name":"LG오휘컨설턴트","tel":"031-886-7015","addr":"경기도 여주시 상동 371번지","indutype":"보건위생 - 화장품","category":"beauty"},{"name":"LG화장품여주지사","tel":"031-886-7015","addr":"경기도 여주시 상동 371번지","indutype":"보건위생 - 화장품","category":"beauty"},{"name":"오휘컨설턴트","tel":"031-886-7015","addr":"경기도 여주시 상동 371번지","indutype":"보건위생 - 화장품","category":"beauty"}]},{"lat":"37.295054803","long":"127.64177999","imageIndex":13,"items":[{"name":"김대리운전","tel":"031-886-2323","addr":"경기도 여주시 상동 327-1번지","indutype":"보건위생 - 기타대인서비스","category":"beauty"}]},{"lat":"37.295412506","long":"127.64061011","imageIndex":13,"items":[{"name":"끌림미용실","tel":"031-884-2595","addr":"경기도 여주시 상동 293-1번지","indutype":"보건위생 - 미용원","category":"beauty"}]},{"lat":"37.294831076","long":"127.64316527","imageIndex":13,"items":[{"name":"네일비","tel":"031-883-4141","addr":"경기도 여주시 상동 331-2번지","indutype":"보건위생 - 미용재료","category":"beauty"}]},{"lat":"37.293135484","long":"127.64013979","imageIndex":13,"items":[{"name":"대리운전철이","tel":"1588-8871-0000","addr":"경기도 여주시 상동 368번지 해든빌 205호","indutype":"보건위생 - 기타대인서비스","category":"beauty"}]},{"lat":"37.294968477","long":"127.64274915","imageIndex":13,"items":[{"name":"명림미용실","tel":"031-883-5805","addr":"경기도 여주시 상동 331-5번지","indutype":"보건위생 - 미용원","category":"beauty"}]},{"lat":"37.294244192","long":"127.64505495","imageIndex":13,"items":[{"name":"백세의료기","tel":"031-883-3222","addr":"경기도 여주시 상동 109-1번지","indutype":"보건위생 - 의료용품","category":"beauty"}]},{"lat":"37.296353422","long":"127.63821582","imageIndex":13,"items":[{"name":"손톱깍기","tel":"","addr":"경기도 여주시 상동 225-1번지","indutype":"보건위생 - 피부미용실","category":"beauty"}]},{"lat":"37.296021818","long":"127.63788597","imageIndex":13,"items":[{"name":"숙녀미용실","tel":"031-886-1421","addr":"경기도 여주시 상동 226-3번지","indutype":"보건위생 - 미용원","category":"beauty"}]},{"lat":"37.295993923","long":"127.63972405","imageIndex":13,"items":[{"name":"스마일 대리운전","tel":"031-886-3697","addr":"경기도 여주시 상동 255-7번지","indutype":"보건위생 - 기타대인서비스","category":"beauty"}]},{"lat":"37.292242614","long":"127.64030142","imageIndex":13,"items":[{"name":"알렉산더킴스코","tel":"031-885-3002","addr":"경기도 여주시 상동 370-18번지","indutype":"보건위생 - 화장품","category":"beauty"}]},{"lat":"37.294693208","long":"127.64532944","imageIndex":13,"items":[{"name":"어차피퀵대리운전","tel":"031-886-7475","addr":"경기도 여주시 상동 141-3번지","indutype":"보건위생 - 기타대인서비스","category":"beauty"},{"name":"중부연합대리운전","tel":"031-886-7475","addr":"경기도 여주시 상동 141-3번지","indutype":"보건위생 - 기타대인서비스","category":"beauty"}]},{"lat":"37.297049937","long":"127.63938333","imageIndex":13,"items":[{"name":"여주이발관","tel":"031-883-1122","addr":"경기도 여주시 상동 207-1번지","indutype":"보건위생 - 이용원","category":"beauty"}]},{"lat":"37.296193674","long":"127.64111294","imageIndex":13,"items":[{"name":"올리브헤어샵","tel":"031-886-1738","addr":"경기도 여주시 상동 307-2번지","indutype":"보건위생 - 미용원","category":"beauty"}]},{"lat":"37.29652503","long":"127.63813832","imageIndex":13,"items":[{"name":"이가가머리하는곳","tel":"031-881-0355","addr":"경기도 여주시 상동 224번지","indutype":"보건위생 - 미용원","category":"beauty"}]},{"lat":"37.296165368","long":"127.63799996","imageIndex":13,"items":[{"name":"인스킨케어","tel":"031-886-1677","addr":"경기도 여주시 상동 226-9번지","indutype":"보건위생 - 피부미용실","category":"beauty"}]},{"lat":"37.295055595","long":"127.64163338","imageIndex":13,"items":[{"name":"쥬헤어","tel":"031-885-4701","addr":"경기도 여주시 상동 324-11번지","indutype":"보건위생 - 미용원","category":"beauty"}]},{"lat":"37.29525","long":"127.638996","imageIndex":13,"items":[{"name":"퀸즈헤어","tel":"031-884-2822","addr":"경기도 여주시 상동 285-4번지","indutype":"보건위생 - 미용원","category":"beauty"}]},{"lat":"37.295551538","long":"127.63988949","imageIndex":13,"items":[{"name":"한솔의료기","tel":"031-881-4111","addr":"경기도 여주시 상동 283-7번지","indutype":"보건위생 - 의료용품","category":"beauty"}]},{"lat":"37.293661283","long":"127.6412156","imageIndex":4,"items":[{"name":"Mzee cafe OLRAE(올래)/사단법인대한노인회","tel":"031-884-9191","addr":"경기도 여주시 상동 352번지","indutype":"일반휴게음식 - 서양음식","category":"restaurant"},{"name":"여주시노인복지관 청춘카페","tel":"031-881-0050","addr":"경기도 여주시 상동 352번지","indutype":"일반휴게음식 - 서양음식","category":"restaurant"}]},{"lat":"37.297771924","long":"127.63916385","imageIndex":4,"items":[{"name":"강변가요제","tel":"031-886-3900","addr":"경기도 여주시 상동 214-24번지 2층","indutype":"일반휴게음식 - 일반한식","category":"restaurant"},{"name":"최가네함흥냉면","tel":"031-886-8808","addr":"경기도 여주시 상동 214-24번지","indutype":"일반휴게음식 - 일반한식","category":"restaurant"},{"name":"카누","tel":"031-886-1366","addr":"경기도 여주시 상동 214-24번지","indutype":"일반휴게음식 - 주점","category":"restaurant"}]},{"lat":"37.297330779","long":"127.64077292","imageIndex":4,"items":[{"name":"개그맨 7080","tel":"031-885-0009","addr":"경기도 여주시 상동 201-54번지 2층","indutype":"일반휴게음식 - 주점","category":"restaurant"}]},{"lat":"37.29219083","long":"127.6531347","imageIndex":4,"items":[{"name":"개성칡냉면","tel":"031-882-6167","addr":"경기도 여주시 상동 53번지","indutype":"일반휴게음식 - 일반한식","category":"restaurant"},{"name":"잠실꼬꼬","tel":"031-884-9989","addr":"경기도 여주시 상동 53번지","indutype":"일반휴게음식 - 주점","category":"restaurant"}]},{"lat":"37.297744168","long":"127.63929896","imageIndex":4,"items":[{"name":"곱배기영양탕","tel":"031-885-5292","addr":"경기도 여주시 상동 214-23번지","indutype":"일반휴게음식 - 일반한식","category":"restaurant"},{"name":"요리에빠진남자들","tel":"","addr":"경기도 여주시 상동 214-23번지","indutype":"일반휴게음식 - 일반한식","category":"restaurant"}]},{"lat":"37.295357113","long":"127.64252689","imageIndex":4,"items":[{"name":"국민부대찌개","tel":"031-882-8002","addr":"경기도 여주시 상동 316-9번지","indutype":"일반휴게음식 - 일반한식","category":"restaurant"}]},{"lat":"37.290495652","long":"127.65663859","imageIndex":4,"items":[{"name":"금룡","tel":"031-882-8006","addr":"경기도 여주시 상동 15번지","indutype":"일반휴게음식 - 중국식","category":"restaurant"},{"name":"양평본가해장국","tel":"031-886-0982","addr":"경기도 여주시 상동 15번지","indutype":"일반휴게음식 - 일반한식","category":"restaurant"}]},{"lat":"37.2953883027","long":"127.6467450876","imageIndex":4,"items":[{"name":"금밭갈비","tel":"031-884-9856","addr":"경기도 여주시 상동 140번지","indutype":"일반휴게음식 - 갈비전문점","category":"restaurant"}]},{"lat":"37.297689321","long":"127.63944511","imageIndex":4,"items":[{"name":"나무","tel":"031-885-2178","addr":"경기도 여주시 상동 214-21번지","indutype":"일반휴게음식 - 서양음식","category":"restaurant"}]},{"lat":"37.291717554","long":"127.65399898","imageIndex":4,"items":[{"name":"남한강종가집","tel":"031-884-9981","addr":"경기도 여주시 상동 41번지","indutype":"일반휴게음식 - 일반한식","category":"restaurant"}]},{"lat":"37.297606475","long":"127.63977148","imageIndex":4,"items":[{"name":"낮술CC","tel":"","addr":"경기도 여주시 상동 214-18번지","indutype":"일반휴게음식 - 주점","category":"restaurant"},{"name":"휠라이브","tel":"031-886-7006","addr":"경기도 여주시 상동 214-18번지","indutype":"일반휴게음식 - 주점","category":"restaurant"}]},{"lat":"37.295412506","long":"127.64061011","imageIndex":4,"items":[{"name":"네네치킨","tel":"031-885-8886","addr":"경기도 여주시 상동 293-1번지","indutype":"일반휴게음식 - 주점","category":"restaurant"},{"name":"여흥식당","tel":"031-883-5054","addr":"경기도 여주시 상동 293-1번지","indutype":"일반휴게음식 - 일반한식","category":"restaurant"}]},{"lat":"37.296638309","long":"127.64053023","imageIndex":4,"items":[{"name":"달리는커피여주점","tel":"031-884-3772","addr":"경기도 여주시 상동 201-21번지","indutype":"일반휴게음식 - 서양음식","category":"restaurant"}]},{"lat":"37.296193674","long":"127.64111294","imageIndex":4,"items":[{"name":"돈이도니(두번째이야기)","tel":"031-885-8751","addr":"경기도 여주시 상동 307-2번지","indutype":"일반휴게음식 - 스넥","category":"restaurant"}]},{"lat":"37.296720186","long":"127.64038431","imageIndex":4,"items":[{"name":"땡기면 들어와!!","tel":"031-881-3498","addr":"경기도 여주시 상동 201-22번지","indutype":"일반휴게음식 - 일반한식","category":"restaurant"}]},{"lat":"37.290304984","long":"127.64038656","imageIndex":4,"items":[{"name":"마을식당","tel":"031-885-2450","addr":"경기도 여주시 상동 410-7번지 1층","indutype":"일반휴게음식 - 일반한식","category":"restaurant"}]},{"lat":"37.295499725","long":"127.63947177","imageIndex":4,"items":[{"name":"맘스터치치킨여주점","tel":"031-886-9282","addr":"경기도 여주시 상동 282-64번지","indutype":"일반휴게음식 - 서양음식","category":"restaurant"}]},{"lat":"37.295077324","long":"127.64094561","imageIndex":4,"items":[{"name":"메카(MECCA)","tel":"031-884-1671","addr":"경기도 여주시 상동 325-4번지 외2필지","indutype":"일반휴게음식 - 일반한식","category":"restaurant"}]},{"lat":"37.2942441923","long":"127.6450549540","imageIndex":4,"items":[{"name":"명동닭갈비","tel":"031-885-2848","addr":"경기도 여주시 상동 109-1번지 1층","indutype":"일반휴게음식 - 일반한식","category":"restaurant"}]},{"lat":"37.294215082","long":"127.64543815","imageIndex":4,"items":[{"name":"명동분식","tel":"031-885-0849","addr":"경기도 여주시 상동 116-1번지","indutype":"일반휴게음식 - 스넥","category":"restaurant"}]},{"lat":"37.292333838","long":"127.65005718","imageIndex":4,"items":[{"name":"명태항구","tel":"031-881-5755","addr":"경기도 여주시 상동 65-8번지","indutype":"일반휴게음식 - 일반한식","category":"restaurant"}]},{"lat":"37.296021559","long":"127.63961151","imageIndex":4,"items":[{"name":"묵은지전문시골집","tel":"031-882-4906","addr":"경기도 여주시 상동 264번지","indutype":"일반휴게음식 - 일반한식","category":"restaurant"}]},{"lat":"37.291719569","long":"127.65199163","imageIndex":4,"items":[{"name":"미스터반포 브이카페(여주상동점)","tel":"070-1111-1111","addr":"경기도 여주시 상동 55-7번지 1층","indutype":"일반휴게음식 - 서양음식","category":"restaurant"}]},{"lat":"37.294998797","long":"127.6421404","imageIndex":4,"items":[{"name":"미스터보쌈5379 여흥점","tel":"031-881-5379","addr":"경기도 여주시 상동 329-4번지","indutype":"일반휴게음식 - 일반한식","category":"restaurant"},{"name":"피자나라치킨공주여주점","tel":"031-881-6914","addr":"경기도 여주시 상동 329-4번지","indutype":"일반휴게음식 - 서양음식","category":"restaurant"}]},{"lat":"37.29735957","long":"127.64044609","imageIndex":4,"items":[{"name":"발렌타인","tel":"031-884-6080","addr":"경기도 여주시 상동 201-53번지","indutype":"일반휴게음식 - 주점","category":"restaurant"}]},{"lat":"37.296165368","long":"127.63799996","imageIndex":4,"items":[{"name":"베러댄와플 (여주중앙점)","tel":"031-883-1579","addr":"경기도 여주시 상동 226-9번지 1층","indutype":"일반휴게음식 - 서양음식","category":"restaurant"},{"name":"식객","tel":"031-886-1777","addr":"경기도 여주시 상동 226-9번지","indutype":"일반휴게음식 - 일반한식","category":"restaurant"}]},{"lat":"37.292803202","long":"127.65154984","imageIndex":4,"items":[{"name":"보노","tel":"031-886-3003","addr":"경기도 여주시 상동 60-1번지","indutype":"일반휴게음식 - 서양음식","category":"restaurant"},{"name":"커피지 (coffeezi)","tel":"031-111-1111","addr":"경기도 여주시 상동 60-1번지 1층","indutype":"일반휴게음식 - 서양음식","category":"restaurant"}]},{"lat":"37.292607752","long":"127.65268719","imageIndex":4,"items":[{"name":"보드로(Bord de l'eau)","tel":"031-882-6915","addr":"경기도 여주시 상동 58번지 1,2층","indutype":"일반휴게음식 - 서양음식","category":"restaurant"}]},{"lat":"37.295193699","long":"127.63941281","imageIndex":4,"items":[{"name":"보연식당","tel":"031-882-1470","addr":"경기도 여주시 상동 285-3번지","indutype":"일반휴게음식 - 일반한식","category":"restaurant"},{"name":"피자파는집","tel":"031-881-4444","addr":"경기도 여주시 상동 285-3번지 1층","indutype":"일반휴게음식 - 서양음식","category":"restaurant"}]},{"lat":"37.29697182","long":"127.63883005","imageIndex":4,"items":[{"name":"본토동태탕","tel":"031-885-8330","addr":"경기도 여주시 상동 220-3번지","indutype":"일반휴게음식 - 일반한식","category":"restaurant"}]},{"lat":"37.295718685","long":"127.63896611","imageIndex":4,"items":[{"name":"사천성","tel":"031-882-1414","addr":"경기도 여주시 상동 239번지","indutype":"일반휴게음식 - 중국식","category":"restaurant"},{"name":"화끈한닭발","tel":"031-885-8959","addr":"경기도 여주시 상동 239번지","indutype":"일반휴게음식 - 일반한식","category":"restaurant"}]},{"lat":"37.291137868","long":"127.64797192","imageIndex":4,"items":[{"name":"상동93","tel":"","addr":"경기도 여주시 상동 93-1번지","indutype":"일반휴게음식 - 서양음식","category":"restaurant"}]},{"lat":"37.294442895","long":"127.64496642","imageIndex":4,"items":[{"name":"상리페리카나치킨","tel":"031-884-5600","addr":"경기도 여주시 상동 114-2번지","indutype":"일반휴게음식 - 스넥","category":"restaurant"}]},{"lat":"37.295859947","long":"127.63782822","imageIndex":4,"items":[{"name":"세종뚝배기","tel":"031-885-3787","addr":"경기도 여주시 상동 227-2번지","indutype":"일반휴게음식 - 일반한식","category":"restaurant"},{"name":"쉼터","tel":"031-885-6291","addr":"경기도 여주시 상동 227-2번지 2층","indutype":"일반휴게음식 - 서양음식","category":"restaurant"},{"name":"에덴식당","tel":"031-886-5021","addr":"경기도 여주시 상동 227-2번지","indutype":"일반휴게음식 - 일반한식","category":"restaurant"},{"name":"왕호프카페","tel":"031-882-6291","addr":"경기도 여주시 상동 227-2번지","indutype":"일반휴게음식 - 주점","category":"restaurant"},{"name":"일성식당","tel":"031-883-2505","addr":"경기도 여주시 상동 227-2번지","indutype":"일반휴게음식 - 일반한식","category":"restaurant"}]},{"lat":"37.295471786","long":"127.63964071","imageIndex":4,"items":[{"name":"세종참치","tel":"031-886-6900","addr":"경기도 여주시 상동 283-4번지","indutype":"일반휴게음식 - 일반한식","category":"restaurant"},{"name":"카슈카슈","tel":"031-886-6442","addr":"경기도 여주시 상동 283-4번지","indutype":"일반휴게음식 - 서양음식","category":"restaurant"}]},{"lat":"37.296609093","long":"127.64260515","imageIndex":4,"items":[{"name":"소리니","tel":"031-886-4393","addr":"경기도 여주시 상동 177-4번지 인텔존 가동 1층 102호","indutype":"일반휴게음식 - 일반한식","category":"restaurant"},{"name":"송탄어울림부대찌개","tel":"031-883-5888","addr":"경기도 여주시 상동 177-4번지","indutype":"일반휴게음식 - 일반한식","category":"restaurant"},{"name":"어썸커피(coffee)","tel":"","addr":"경기도 여주시 상동 177-4번지 인텔존 가동 1층 102호","indutype":"일반휴게음식 - 서양음식","category":"restaurant"},{"name":"인텔죤치킨","tel":"031-111-1111","addr":"경기도 여주시 상동 177-4번지 인텔존 1층 105호","indutype":"일반휴게음식 - 스넥","category":"restaurant"}]},{"lat":"37.297773137","long":"127.6389383","imageIndex":4,"items":[{"name":"수금정","tel":"031-883-9114","addr":"경기도 여주시 상동 214-16번지","indutype":"일반휴게음식 - 일반한식","category":"restaurant"}]},{"lat":"37.2916068625","long":"127.6478857066","imageIndex":4,"items":[{"name":"수림영양탕","tel":"031-884-0276","addr":"경기도 여주시 상동 94-1번지","indutype":"일반휴게음식 - 일반한식","category":"restaurant"}]},{"lat":"37.29607594","long":"127.64122472","imageIndex":4,"items":[{"name":"승우","tel":"02-0000-0000","addr":"경기도 여주시 상동 307-1번지","indutype":"일반휴게음식 - 서양음식","category":"restaurant"},{"name":"와카페편의점포차","tel":"031-000-0000","addr":"경기도 여주시 상동 307-1번지","indutype":"일반휴게음식 - 일반한식","category":"restaurant"}]},{"lat":"37.295132598","long":"127.64072052","imageIndex":4,"items":[{"name":"신전떡볶이","tel":"031-886-7980","addr":"경기도 여주시 상동 292-1번지","indutype":"일반휴게음식 - 스넥","category":"restaurant"}]},{"lat":"37.291687486","long":"127.6512696","imageIndex":4,"items":[{"name":"안단테","tel":"031-883-3363","addr":"경기도 여주시 상동 62-10번지 B동 1층","indutype":"일반휴게음식 - 서양음식","category":"restaurant"}]},{"lat":"37.292832517","long":"127.65113282","imageIndex":4,"items":[{"name":"어희","tel":"031-886-9977","addr":"경기도 여주시 상동 60번지","indutype":"일반휴게음식 - 일식·회집","category":"restaurant"}]},{"lat":"37.296999455","long":"127.6387175","imageIndex":4,"items":[{"name":"여기가 좋겠네","tel":"031-886-2727","addr":"경기도 여주시 상동 220-6번지","indutype":"일반휴게음식 - 일반한식","category":"restaurant"}]},{"lat":"37.296110402","long":"127.63816867","imageIndex":4,"items":[{"name":"여내울두번째집","tel":"031-883-1976","addr":"경기도 여주시 상동 226-6번지","indutype":"일반휴게음식 - 일반한식","category":"restaurant"}]},{"lat":"37.297524174","long":"127.63999635","imageIndex":4,"items":[{"name":"여주강변막국수","tel":"031-886-1479","addr":"경기도 여주시 상동 201-47번지","indutype":"일반휴게음식 - 일반한식","category":"restaurant"},{"name":"여주쌀밥집","tel":"031-885-9544","addr":"경기도 여주시 상동 201-47번지","indutype":"일반휴게음식 - 일반한식","category":"restaurant"}]},{"lat":"37.296020848","long":"127.64141598","imageIndex":4,"items":[{"name":"여주댁꽃돼지","tel":"031-885-3756","addr":"경기도 여주시 상동 310-2번지","indutype":"일반휴게음식 - 일반한식","category":"restaurant"}]},{"lat":"37.29738751","long":"127.64027716","imageIndex":4,"items":[{"name":"여주선","tel":"031-884-2616","addr":"경기도 여주시 상동 201-46번지","indutype":"일반휴게음식 - 일반한식","category":"restaurant"}]},{"lat":"37.2974139","long":"127.63872099","imageIndex":4,"items":[{"name":"옛집","tel":"031-885-4077","addr":"경기도 여주시 상동 216번지","indutype":"일반휴게음식 - 일반한식","category":"restaurant"}]},{"lat":"37.296134078","long":"127.64213873","imageIndex":4,"items":[{"name":"우리집밥상","tel":"031-884-8333","addr":"경기도 여주시 상동 179번지","indutype":"일반휴게음식 - 일반한식","category":"restaurant"},{"name":"일성야식","tel":"031-886-6388","addr":"경기도 여주시 상동 179번지","indutype":"일반휴게음식 - 일반한식","category":"restaurant"}]},{"lat":"37.292438363","long":"127.65235868","imageIndex":4,"items":[{"name":"이동숯불갈비","tel":"031-883-8108","addr":"경기도 여주시 상동 57-1번지","indutype":"일반휴게음식 - 갈비전문점","category":"restaurant"}]},{"lat":"37.297826407","long":"127.63908536","imageIndex":4,"items":[{"name":"이집커피","tel":"","addr":"경기도 여주시 상동 214-25번지 1,2층","indutype":"일반휴게음식 - 서양음식","category":"restaurant"}]},{"lat":"37.295500331","long":"127.639359","imageIndex":4,"items":[{"name":"인생라멘","tel":"031-885-0282","addr":"경기도 여주시 상동 282-63번지","indutype":"일반휴게음식 - 일식·회집","category":"restaurant"}]},{"lat":"37.295388303","long":"127.64674509","imageIndex":4,"items":[{"name":"장가네동태탕","tel":"031-885-7877","addr":"경기도 여주시 상동 140번지","indutype":"일반휴게음식 - 일반한식","category":"restaurant"}]},{"lat":"37.291995563","long":"127.64433664","imageIndex":4,"items":[{"name":"재상막국수","tel":"031-884-3826","addr":"경기도 여주시 상동 106번지","indutype":"일반휴게음식 - 일반한식","category":"restaurant"}]},{"lat":"37.289633962","long":"127.65440955","imageIndex":4,"items":[{"name":"종지골","tel":"031-885-2414","addr":"경기도 여주시 상동 22-16번지","indutype":"일반휴게음식 - 서양음식","category":"restaurant"}]},{"lat":"37.295854351","long":"127.64221531","imageIndex":4,"items":[{"name":"중국집","tel":"031-885-5110","addr":"경기도 여주시 상동 315-6번지","indutype":"일반휴게음식 - 중국식","category":"restaurant"}]},{"lat":"37.296938969","long":"127.63991247","imageIndex":4,"items":[{"name":"집밥","tel":"031-885-9335","addr":"경기도 여주시 상동 201-13번지","indutype":"일반휴게음식 - 일반한식","category":"restaurant"}]},{"lat":"37.294996582","long":"127.64421551","imageIndex":4,"items":[{"name":"참참참","tel":"031-885-3775","addr":"경기도 여주시 상동 156-3번지","indutype":"일반휴게음식 - 스넥","category":"restaurant"}]},{"lat":"37.297022301","long":"127.63949588","imageIndex":4,"items":[{"name":"초록담쟁이","tel":"031-881-0850","addr":"경기도 여주시 상동 206-1번지","indutype":"일반휴게음식 - 서양음식","category":"restaurant"}]},{"lat":"37.29705397","long":"127.64030818","imageIndex":4,"items":[{"name":"카페미려","tel":"031-881-0091","addr":"경기도 여주시 상동 201-29번지 경기도여주교육지원청 1층","indutype":"일반휴게음식 - 서양음식","category":"restaurant"}]},{"lat":"37.294886479","long":"127.6412485","imageIndex":4,"items":[{"name":"커피콩","tel":"070-4616-4144","addr":"경기도 여주시 상동 326-2번지 1층","indutype":"일반휴게음식 - 서양음식","category":"restaurant"}]},{"lat":"37.288523226","long":"127.6449725","imageIndex":4,"items":[{"name":"클라츠","tel":"031-885-8500","addr":"경기도 여주시 상동 449-5번지","indutype":"일반휴게음식 - 일반한식","category":"restaurant"}]},{"lat":"37.2932713372","long":"127.6499749930","imageIndex":4,"items":[{"name":"투썸플레이스 여주강변점","tel":"031-882-0022","addr":"경기도 여주시 상동 69번지","indutype":"일반휴게음식 - 서양음식","category":"restaurant"}]},{"lat":"37.293271337","long":"127.64997499","imageIndex":4,"items":[{"name":"투썸플레이스 여주강변점","tel":"031-881-0022","addr":"경기도 여주시 상동 69번지 1층","indutype":"일반휴게음식 - 서양음식","category":"restaurant"}]},{"lat":"37.29724878","long":"127.6409414","imageIndex":4,"items":[{"name":"풍곡회관","tel":"031-884-5252","addr":"경기도 여주시 상동 201-44번지","indutype":"일반휴게음식 - 일반한식","category":"restaurant"}]},{"lat":"37.291327255","long":"127.64793971","imageIndex":4,"items":[{"name":"한아농산삼계탕","tel":"031-885-3450","addr":"경기도 여주시 상동 93번지","indutype":"일반휴게음식 - 일반한식","category":"restaurant"}]},{"lat":"37.29525","long":"127.638996","imageIndex":4,"items":[{"name":"향원","tel":"031-886-3887","addr":"경기도 여주시 상동 285-4번지","indutype":"일반휴게음식 - 중국식","category":"restaurant"}]},{"lat":"37.292358404","long":"127.6405505","imageIndex":7,"items":[{"name":"W마트","tel":"031-886-5415","addr":"경기도 여주시 상동 373번지 1층","indutype":"유통업 영리 - 슈퍼마켓","category":"mart"}]},{"lat":"37.29508098","long":"127.6419381","imageIndex":7,"items":[{"name":"동진상회","tel":"031-884-8955","addr":"경기도 여주시 상동 329-4번지","indutype":"유통업 영리 - 슈퍼마켓","category":"mart"}]},{"lat":"37.295221758","long":"127.63922132","imageIndex":7,"items":[{"name":"빅마트","tel":"031-884-1868","addr":"경기도 여주시 상동 285-10번지","indutype":"유통업 영리 - 슈퍼마켓","category":"mart"}]},{"lat":"37.296938969","long":"127.63991247","imageIndex":7,"items":[{"name":"우리마트","tel":"031-881-3858","addr":"경기도 여주시 상동 201-13번지","indutype":"유통업 영리 - 슈퍼마켓","category":"mart"}]},{"lat":"37.291688952","long":"127.64105233","imageIndex":7,"items":[{"name":"지앤씨(G&C)마트","tel":"031-885-1060","addr":"경기도 여주시 상동 373-7번지","indutype":"유통업 영리 - 슈퍼마켓","category":"mart"}]},{"lat":"37.292607752","long":"127.65268719","imageIndex":13,"items":[{"name":"강변스크린","tel":"031-883-3051","addr":"경기도 여주시 상동 58번지","indutype":"레저업소 - 스크린골프","category":"leisure"}]},{"lat":"37.289575811","long":"127.64857882","imageIndex":13,"items":[{"name":"럭키버디","tel":"","addr":"경기도 여주시 상동 482-1번지","indutype":"레저업소 - 골프연습장","category":"leisure"}]},{"lat":"37.295859947","long":"127.63782822","imageIndex":13,"items":[{"name":"우리집노래연습장","tel":"031-886-8253","addr":"경기도 여주시 상동 227-2번지","indutype":"레저업소 - 노 래 방","category":"leisure"}]},{"lat":"37.295908958","long":"127.64211427","imageIndex":13,"items":[{"name":"전국노래연습장","tel":"031-884-4755","addr":"경기도 여주시 상동 315-5번지","indutype":"레저업소 - 노 래 방","category":"leisure"}]},{"lat":"37.29505519","long":"127.64669714","imageIndex":13,"items":[{"name":"클래스짐","tel":"031-884-5654","addr":"경기도 여주시 상동 140-2번지 201호","indutype":"레저업소 - 헬스클럽","category":"leisure"}]},{"lat":"37.29305379","long":"127.64025187","imageIndex":7,"items":[{"name":"고려건강원","tel":"031-885-7474","addr":"경기도 여주시 상동 368-2번지","indutype":"건강식품 - 기타건강식품","category":"food"}]},{"lat":"37.2944428947","long":"127.6449664208","imageIndex":7,"items":[{"name":"금강산건강원","tel":"031-886-3570","addr":"경기도 여주시 상동 114-2번지","indutype":"건강식품 - 기타건강식품","category":"food"}]},{"lat":"37.295576806","long":"127.64021677","imageIndex":7,"items":[{"name":"남한강마트수산","tel":"031-882-9483","addr":"경기도 여주시 상동 281-1번지","indutype":"음료식품 - 농·축·수산품","category":"food"}]},{"lat":"37.296609207","long":"127.64590964","imageIndex":7,"items":[{"name":"남한강민물고기집","tel":"031-883-5789","addr":"경기도 여주시 상동 214-21번지","indutype":"음료식품 - 농·축·수산품","category":"food"}]},{"lat":"37.295555299","long":"127.63919029","imageIndex":7,"items":[{"name":"백산약초건강원","tel":"031-885-7045","addr":"경기도 여주시 상동 283-11번지","indutype":"건강식품 - 기타건강식품","category":"food"}]},{"lat":"37.2955768064","long":"127.6402167673","imageIndex":7,"items":[{"name":"상리떡방앗간","tel":"031-885-2226","addr":"경기도 여주시 상동 281-1번지","indutype":"음료식품 - 기타음료식품","category":"food"}]},{"lat":"37.297773137","long":"127.6389383","imageIndex":7,"items":[{"name":"수금수산","tel":"031-883-9114","addr":"경기도 여주시 상동 214-16번지","indutype":"음료식품 - 농·축·수산품","category":"food"}]},{"lat":"37.290131555","long":"127.64247137","imageIndex":7,"items":[{"name":"시민매점","tel":"031-881-1919","addr":"경기도 여주시 상동 406-9번지","indutype":"음료식품 - 기타음료식품","category":"food"}]},{"lat":"37.2955552988","long":"127.6391902935","imageIndex":7,"items":[{"name":"신서울떡방앗간","tel":"031-885-6003","addr":"경기도 여주시 상동 283-11번지","indutype":"음료식품 - 기타음료식품","category":"food"}]},{"lat":"37.2964083274","long":"127.6380583937","imageIndex":7,"items":[{"name":"쏘쏘네반찬가게","tel":"031-886-8789","addr":"경기도 여주시 상동 225-2번지","indutype":"음료식품 - 기타음료식품","category":"food"}]},{"lat":"37.296353422","long":"127.63821582","imageIndex":7,"items":[{"name":"우리떡을아시나요","tel":"031-883-8208","addr":"경기도 여주시 상동 225-1번지","indutype":"음료식품 - 기타음료식품","category":"food"}]},{"lat":"37.295908958","long":"127.64211427","imageIndex":7,"items":[{"name":"천서유통","tel":"031-882-8504","addr":"경기도 여주시 상동 315-5번지","indutype":"음료식품 - 정육점","category":"food"}]},{"lat":"37.29482778","long":"127.64377424","imageIndex":7,"items":[{"name":"치악산흑염소","tel":"031-882-1977","addr":"경기도 여주시 상동 338-1번지","indutype":"건강식품 - 기타건강식품","category":"food"}]},{"lat":"37.294831351","long":"127.644778","imageIndex":7,"items":[{"name":"하누마루","tel":"","addr":"경기도 여주시 상동 152-3번지","indutype":"음료식품 - 정육점","category":"food"}]},{"lat":"37.294969087","long":"127.64263638","imageIndex":7,"items":[{"name":"현주떡집","tel":"031-886-7707","addr":"경기도 여주시 상동 331-6번지","indutype":"음료식품 - 기타음료식품","category":"food"}]},{"lat":"37.292607752","long":"127.65268719","imageIndex":7,"items":[{"name":"호수정원","tel":"031-881-6914","addr":"경기도 여주시 상동 58번지","indutype":"음료식품 - 제과점","category":"food"}]},{"lat":"37.296241276","long":"127.64063966","imageIndex":0,"items":[{"name":"국도상사","tel":"031-884-8555","addr":"경기도 여주시 상동 276번지","indutype":"자동차정비 유지 - 가타자동차서비스","category":"car"}]},{"lat":"37.29443622","long":"127.64619564","imageIndex":0,"items":[{"name":"국제칼라","tel":"031-883-7782","addr":"경기도 여주시 상동 139-7번지","indutype":"자동차정비 유지 - 카인테리어","category":"car"},{"name":"스팀손세차","tel":"","addr":"경기도 여주시 상동 139-7번지","indutype":"자동차정비 유지 - 세차장","category":"car"}]},{"lat":"37.2923604958","long":"127.6451629955","imageIndex":0,"items":[{"name":"대흥카센타","tel":"031-885-1648","addr":"경기도 여주시 상동 122-2","indutype":"자동차정비 유지 - 자동차정비","category":"car"}]},{"lat":"37.293023784","long":"127.64580018","imageIndex":0,"items":[{"name":"또깡","tel":"031-885-1335","addr":"경기도 여주시 상동 121-4번지","indutype":"자동차정비 유지 - 자동차부품","category":"car"}]},{"lat":"37.291800953","long":"127.64366963","imageIndex":0,"items":[{"name":"또깡 II","tel":"031-885-1335","addr":"경기도 여주시 상동 107-1번지","indutype":"자동차정비 유지 - 자동차부품","category":"car"},{"name":"세종자동차유리","tel":"031-885-7766","addr":"경기도 여주시 상동 107-1번지","indutype":"자동차정비 유지 - 자동차부품","category":"car"}]},{"lat":"37.2915200165","long":"127.6406336400","imageIndex":0,"items":[{"name":"만능카오디오","tel":"031-886-6569","addr":"경기도 여주시 상동 370-7번지","indutype":"자동차정비 유지 - 자동차부품","category":"car"}]},{"lat":"37.292192336","long":"127.64293991","imageIndex":0,"items":[{"name":"삼양카쎈타","tel":"031-885-4131","addr":"경기도 여주시 상동 341-2번지","indutype":"자동차정비 유지 - 자동차정비","category":"car"}]},{"lat":"37.295499195","long":"127.64291154","imageIndex":0,"items":[{"name":"세종오토바이","tel":"031-884-1149","addr":"경기도 여주시 상동 317-2번지","indutype":"자동차판매 - 이륜차판매","category":"car"}]},{"lat":"37.291691626","long":"127.64055615","imageIndex":0,"items":[{"name":"세종자동차공업사","tel":"031-884-8854","addr":"경기도 여주시 상동 370-8번지","indutype":"자동차정비 유지 - 자동차정비","category":"car"}]},{"lat":"37.294660114","long":"127.64644566","imageIndex":0,"items":[{"name":"에이치제이모터스","tel":"031-886-8002","addr":"경기도 여주시 상동 140-10번지","indutype":"자동차정비 유지 - 자동차정비","category":"car"}]},{"lat":"37.2949413012","long":"127.6444405980","imageIndex":0,"items":[{"name":"영광오토바이","tel":"031-885-4595","addr":"경기도 여주시 상동 156-1번지","indutype":"자동차판매 - 이륜차판매","category":"car"}]},{"lat":"37.289384454","long":"127.64897188","imageIndex":0,"items":[{"name":"영진자동차공업사","tel":"031-883-6258","addr":"경기도 여주시 상동 482-19번지","indutype":"자동차정비 유지 - 자동차정비","category":"car"}]},{"lat":"37.293277878","long":"127.64046804","imageIndex":0,"items":[{"name":"파워자동차공업사","tel":"031-885-6033","addr":"경기도 여주시 상동 368-4번지","indutype":"자동차정비 유지 - 자동차정비","category":"car"}]},{"lat":"37.294827924","long":"127.64540953","imageIndex":0,"items":[{"name":"한국타이어신여주총판","tel":"031-883-2747","addr":"경기도 여주시 상동 141-2번지","indutype":"자동차정비 유지 - 자동차시트·타이어","category":"car"}]},{"lat":"37.294717666","long":"127.64080724","imageIndex":8,"items":[{"name":"백약국","tel":"031-886-7561","addr":"경기도 여주시 상동 291-9번지","indutype":"약국 - 약국","category":"medical"}]},{"lat":"37.297583024","long":"127.63910587","imageIndex":8,"items":[{"name":"제일여성크리닉","tel":"031-883-3302","addr":"경기도 여주시 상동 214-12번지","indutype":"의원 - 의원","category":"medical"}]},{"lat":"37.293130695","long":"127.64933097","imageIndex":9,"items":[{"name":"송풍에너지","tel":"031-886-2893","addr":"경기도 여주시 상동 71번지","indutype":"연료판매점 - LPG 취급점","category":"oil"}]},{"lat":"37.295383228","long":"127.64102714","imageIndex":9,"items":[{"name":"제일주유소","tel":"031-885-3604","addr":"경기도 여주시 상동 296번지","indutype":"연료판매점 - SK주유소","category":"oil"}]}]