[{"lat":"37.367032068","long":"126.93861475","imageIndex":17,"items":[{"name":"(주) 신원건설","tel":"031-398-0162","addr":"경기도 군포시 산본동 1036-2번지 화남 상가 2층 1호","indutype":"용역 서비스 - 기타용역서비스","category":"other"},{"name":"대화상사","tel":"031-93-0660","addr":"경기도 군포시 산본동 1036-2번지 화남 상가 105호","indutype":"건축자재 - 보일러·펌프·샷시","category":"other"},{"name":"메스머라이즈 (Mesmerize)","tel":"","addr":"경기도 군포시 산본동 1036-2번지 화남상가 1층 103호","indutype":"의류 - 정장","category":"other"},{"name":"크린토피아군포화남상가점","tel":"031-391-7074","addr":"경기도 군포시 산본동 1036-2번지 화남 상가 106호","indutype":"수리서비스 - 세탁소","category":"other"}]},{"lat":"37.360359901","long":"126.93053836","imageIndex":17,"items":[{"name":"(주) 자유문고 산본점","tel":"031-388-4644","addr":"경기도 군포시 산본동 1123-2번지 지층 102호~114호","indutype":"서적문구 - 일반서적","category":"other"},{"name":"(주)알앤비씨","tel":"031-343-2091","addr":"경기도 군포시 산본동 1123-2인베스텔쇼핑몰지하2층7~8호","indutype":"의류 - 기타의류","category":"other"},{"name":"(주)잉글리시에그 군포센터","tel":"031-392-0560","addr":"경기도 군포시 산본동 1123-2번지 인베스텔 306호","indutype":"서적문구 - 일반서적","category":"other"},{"name":"(주)자유문고산본점","tel":"031-395-0002","addr":"경기도 군포시 산본동 1123-2번지 지층 102,103,105-114호","indutype":"서적문구 - 일반서적","category":"other"},{"name":"DO","tel":"","addr":"경기도 군포시 산본동 1123-2번지 인베스텔 113호","indutype":"의류 - 정장","category":"other"},{"name":"MK상사","tel":"031-343-2028","addr":"경기도 군포시 산본동 1123-2번지 오즈 1층","indutype":"의류 - 기타의류","category":"other"},{"name":"NICOLE&UBIX","tel":"031-343-2593","addr":"경기도 군포시 산본동 1123-2번지 (1층4호,1층135호)","indutype":"신변잡화 - 가방","category":"other"},{"name":"happy콩","tel":"031-343-2004","addr":"경기도 군포시 산본동 1123-2번지 투데이몰 208호","indutype":"신변잡화 - 기타잡화","category":"other"},{"name":"구백킬로미터(900km)","tel":"031-391-8702","addr":"경기도 군포시 산본동 1123-2번지 인베스텔 1023호","indutype":"서적문구 - 출판 및 인쇄물","category":"other"},{"name":"그리다북 그리다붓","tel":"","addr":"경기도 군포시 산본동 1123-2번지 인베스텔 16층 1633호","indutype":"문화.취미 - 문화취미기타","category":"other"},{"name":"더데이(산본점)","tel":"031-343-2260","addr":"경기도 군포시 산본동 1123-2번지 오렌지카운티 2층 4호","indutype":"의류 - 기타의류","category":"other"},{"name":"더라임(The lime )","tel":"031-1234-1234","addr":"경기도 군포시 산본동 1123-2번지 인베스텔 134호","indutype":"의류 - 정장","category":"other"},{"name":"델타바이오","tel":"031-391-6012","addr":"경기도 군포시 산본동 1123-2번지 인베스텔 808호","indutype":"서적문구 - 과학기자재","category":"other"},{"name":"도도","tel":"","addr":"경기도 군포시 산본동 1123-2번지 인베스텔 202호","indutype":"의류 - 내의판매","category":"other"},{"name":"딩동","tel":"031-395-2050","addr":"경기도 군포시 산본동 1123-2번지 인베스텔 235호","indutype":"의류 - 정장","category":"other"},{"name":"라라","tel":"031-392-0053","addr":"경기도 군포시 산본동 1123-2번지 인베스텔 112호","indutype":"의류 - 정장","category":"other"},{"name":"라헬","tel":"031-399-9526","addr":"경기도 군포시 산본동 1123-2번지 외1필지,118","indutype":"의류 - 정장","category":"other"},{"name":"럭시","tel":"031-392-7432","addr":"경기도 군포시 산본동 1123-2번지 인베스텔 102호","indutype":"의류 - 정장","category":"other"},{"name":"루디콜렉션","tel":"031-392-3294","addr":"경기도 군포시 산본동 1123-2번지 이랜드개발 137동 138호","indutype":"신변잡화 - 액세서리","category":"other"},{"name":"리틀브렌","tel":"031-343-2249","addr":"경기도 군포시 산본동 1123-2번지 오렌지카운티 224호","indutype":"의류 - 기타의류","category":"other"},{"name":"마리앤","tel":"031-343-3177","addr":"경기도 군포시 산본동 1123-2번지 1123-7 , 1층","indutype":"의류 - 정장","category":"other"},{"name":"마이하니","tel":"031-343-2200","addr":"경기도 군포시 산본동 1123-2번지 투데이몰 1층 105호","indutype":"레져용품 - 스포츠·레져용품","category":"other"},{"name":"맵시","tel":"031-392-6988","addr":"경기도 군포시 산본동 1123-2번지 인베스텔 117호","indutype":"의류 - 정장","category":"other"},{"name":"모락컴즈","tel":"","addr":"경기도 군포시 산본동 1123-2번지 인베스텔 7층 731호","indutype":"용역 서비스 - 소프트웨어","category":"other"},{"name":"바루(BARU)","tel":"070-4411-5154","addr":"경기도 군포시 산본동 1123-2번지 인베스텔 235호","indutype":"의류 - 정장","category":"other"},{"name":"바비슈즈","tel":"031-343-3188","addr":"경기도 군포시 산본동 1123-2,1123-7 236","indutype":"신변잡화 - 신발","category":"other"},{"name":"베러덴예스터데이 주식회사","tel":"031-8068-5757","addr":"경기도 군포시 산본동 1123-2번지 인베스텔 16층 1623호","indutype":"용역 서비스 - 종합용역","category":"other"},{"name":"봄","tel":"","addr":"경기도 군포시 산본동 1123-2번지 인베스텔 1층 103호","indutype":"주방용구 - 주방용식기","category":"other"},{"name":"블랭크앤그레이","tel":"031-393-0054","addr":"경기도 군포시 산본동 1123-2번지","indutype":"의류 - 정장","category":"other"},{"name":"비비안나","tel":"031-398-4571","addr":"경기도 군포시 산본동 1123-2번지 인베스텔 2층 24호","indutype":"의류 - 정장","category":"other"},{"name":"비스켓","tel":"031-343-2007","addr":"경기도 군포시 산본동 1123-2번지 인베스텔 219호","indutype":"의류 - 정장","category":"other"},{"name":"쁘띠랭 헌트인너웨어","tel":"031-343-3303","addr":"경기도 군포시 산본동 1123-2번지 투데이쇼핑몰 225호","indutype":"의류 - 내의판매","category":"other"},{"name":"쁘띠샵","tel":"031-343-2847","addr":"경기도 군포시 산본동 1123-2번지 인베스텔 138호","indutype":"신변잡화 - 액세서리","category":"other"},{"name":"사랑손뜨개","tel":"031-343-3630","addr":"경기도 군포시 산본동 1123-2번지 227호 외1필지인베스텔","indutype":"직물 - 침구·수예점","category":"other"},{"name":"세컨드 플로어","tel":"031-392-1399","addr":"경기도 군포시 산본동 1123-2번지 인베스텔 613호","indutype":"의류 - 정장","category":"other"},{"name":"소율","tel":"031-437-7205","addr":"경기도 군포시 산본동 1123-2번지 인베스텔 108호","indutype":"의류 - 정장","category":"other"},{"name":"스칼렛","tel":"031-395-6640","addr":"경기도 군포시 산본동 1123-2번지 인베스텔 130호","indutype":"의류 - 정장","category":"other"},{"name":"쌈지","tel":"070-4103-8898","addr":"경기도 군포시 산본동 1123-2번지 인베스텔 126호","indutype":"신변잡화 - 신발","category":"other"},{"name":"씨엘","tel":"031-343-2244","addr":"경기도 군포시 산본동 1123-2번지 투데이몰 1층 20호","indutype":"의류 - 정장","category":"other"},{"name":"아르페지오","tel":"031-396-7847","addr":"경기도 군포시 산본동 1123-2번지 인베스텔 227호","indutype":"직물 - 침구·수예점","category":"other"},{"name":"아카데미아","tel":"070-8881-3224","addr":"경기도 군포시 산본동 1123-2번지 인베스텔 1823호","indutype":"용역 서비스 - 사무서비스","category":"other"},{"name":"야제르","tel":"031-399-8263","addr":"경기도 군포시 산본동 1123-2번지 쉐르담 1층","indutype":"의류 - 기타의류","category":"other"},{"name":"어게인(AGAIN)","tel":"031-455-2630","addr":"경기도 군포시 산본동 1123-2번지 2층","indutype":"의류 - 정장","category":"other"},{"name":"어린이월드","tel":"031-395-5007","addr":"경기도 군포시 산본동 1123-2번지 인베스텔 306호","indutype":"서적문구 - 일반서적","category":"other"},{"name":"어린이월드","tel":"031-395-5007","addr":"경기도 군포시 산본동 1123-2번지 인베스텔 투데이몰 306호","indutype":"서적문구 - 일반서적","category":"other"},{"name":"에꼴리에","tel":"031-343-2058","addr":"경기도 군포시 산본동 1123-2번지 인베스텔 201호","indutype":"의류 - 정장","category":"other"},{"name":"에스투텔레콤","tel":"031-395-0055","addr":"경기도 군포시 산본동 1123-2번지 인베스텔 1208호","indutype":"사무통신 - 통신기기","category":"other"},{"name":"엔돌핀","tel":"031-343-2621","addr":"경기도 군포시 산본동 1123-2번지 인베스텔무데이쇼핑몰 1층 139,140,141,142호","indutype":"신변잡화 - 액세서리","category":"other"},{"name":"오즈","tel":"031-397-2377","addr":"경기도 군포시 산본동 1123-2번지 2층 29호 , 외2필지","indutype":"신변잡화 - 기타잡화","category":"other"},{"name":"오즈(OZ)","tel":"031-343-3177","addr":"경기도 군포시 산본동 1123-2번지 인베스텔 1층 107호","indutype":"의류 - 정장","category":"other"},{"name":"오하라","tel":"031-395-6640","addr":"경기도 군포시 산본동 1123-2번지 1123-7","indutype":"의류 - 정장","category":"other"},{"name":"올리브","tel":"031-343-2229","addr":"경기도 군포시 산본동 1123-2번지 인베스텔 131호","indutype":"의류 - 기타의류","category":"other"},{"name":"와이에스(YS)어패럴","tel":"031-391-3898","addr":"경기도 군포시 산본동 1123-2번지 인이랜드투데이몰 1층 109,110호","indutype":"의류 - 정장","category":"other"},{"name":"유니서커스","tel":"031-346-0974","addr":"경기도 군포시 산본동 1123-2번지 인베스텔 228호","indutype":"의류 - 아동의류","category":"other"},{"name":"이대리폼하우스","tel":"031-396-5379","addr":"경기도 군포시 산본동 1123-2,1123-7 143","indutype":"수리서비스 - 세탁소","category":"other"},{"name":"이룸하우스","tel":"031-390-6002","addr":"경기도 군포시 산본동 1123-2번지 외1필지 인베스텔 202호","indutype":"가구 - 기타가구","category":"other"},{"name":"이플문화센터 산본점","tel":"031-343-3280","addr":"경기도 군포시 산본동 1123-2번지","indutype":"기타 - 비영리/대상","category":"other"},{"name":"정안세무법인","tel":"031-343-3000","addr":"경기도 군포시 산본동 1123-2번지 인베스텔 537호","indutype":"용역 서비스 - 법률회계서비스(개인)","category":"other"},{"name":"제미니테크놀로지","tel":"031-6679-7770","addr":"경기도 군포시 산본동 1123-2번지 인베스텔 1521호","indutype":"전기제품 - 기타전기제품","category":"other"},{"name":"제이드레스","tel":"031-393-5589","addr":"경기도 군포시 산본동 1123-2번지 인베스텔 220호","indutype":"의류 - 정장","category":"other"},{"name":"제이와이콜렉션","tel":"031-343-2199","addr":"경기도 군포시 산본동 1123-2번지 인베스텔 116호","indutype":"신변잡화 - 제화","category":"other"},{"name":"주식회사딕스/통판","tel":"031-343-2440","addr":"경기도 군포시 산본동 1123-2번지 인베스텔 1422호","indutype":"별도관리 - 일반(통신판매)","category":"other"},{"name":"코코리따","tel":"031-343-2140","addr":"경기도 군포시 산본동 1123-2오렌지카운티2-14","indutype":"의류 - 기타의류","category":"other"},{"name":"큐테크","tel":"031-399-8115","addr":"경기도 군포시 산본동 1123-2번지 인베스텔 529호","indutype":"기타 - 기계공구","category":"other"},{"name":"팬쥬얼리","tel":"031-393-1060","addr":"경기도 군포시 산본동 1123-2번지 이랜드 상가 1층 24호","indutype":"신변잡화 - 귀금속","category":"other"},{"name":"프린트 아웃","tel":"070-4101-5115","addr":"경기도 군포시 산본동 1123-2번지 인베스텔 1824호","indutype":"신변잡화 - 기타잡화","category":"other"},{"name":"플라워스튜디오차차","tel":"031-000-0000","addr":"경기도 군포시 산본동 1123-2번지 인베스텔 10층 1035호","indutype":"문화.취미 - 화원","category":"other"},{"name":"허브(herb)","tel":"031-343-2229","addr":"경기도 군포시 산본동 1123-2번지 인베스텔 127호","indutype":"의류 - 기타의류","category":"other"}]},{"lat":"37.358225521","long":"126.93223353","imageIndex":17,"items":[{"name":"(주)건축사사무소세화건축","tel":"031-457-0456","addr":"경기도 군포시 산본동 1142-5번지 금화프라자 603호","indutype":"용역 서비스 - 사무서비스","category":"other"},{"name":"(주)더비투","tel":"031-348-4791","addr":"경기도 군포시 산본동 1142-5번지 금화프라자 7층 703-3호","indutype":"용역 서비스 - 종합용역","category":"other"},{"name":"(주)태경정보통신","tel":"031-392-4010","addr":"경기도 군포시 산본동 1142-5번지 금화프라자 604호 605호","indutype":"사무통신 - 통신기기","category":"other"},{"name":"(주)한영재교육개발원","tel":"031-397-5954","addr":"경기도 군포시 산본동 1142-5번지 금화프라자 4층 406호","indutype":"회원제형태 - 서적","category":"other"},{"name":"297스튜디오(297 studio)","tel":"031-391-2907","addr":"경기도 군포시 산본동 1142-5번지 금화프라자 309호","indutype":"광학제품 - 사진관","category":"other"},{"name":"김주일세무회계사무소","tel":"031-382-0513","addr":"경기도 군포시 산본동 1142-5번지 금화프라자 606호","indutype":"용역 서비스 - 법률회계서비스(개인)","category":"other"},{"name":"깜상과화니","tel":"031-392-8925","addr":"경기도 군포시 산본동 1142-5번지 금화빌딩 402호","indutype":"사무통신 - 컴퓨터","category":"other"},{"name":"산본스크린골프","tel":"031-397-5888","addr":"경기도 군포시 산본동 1142-5번지 금화프라자 404호","indutype":"회원제형태 - 레져업소","category":"other"},{"name":"산본철물","tel":"031-395-2137","addr":"경기도 군포시 산본동 1142-5번지 금화프라자 118호","indutype":"기타 - 기계공구","category":"other"},{"name":"아기자기","tel":"031-391-3387","addr":"경기도 군포시 산본동 1142-5번지 금화프라자 1층 113호","indutype":"직물 - 침구·수예점","category":"other"},{"name":"위자드21/원격지","tel":"031-343-6104","addr":"경기도 군포시 산본동 1142-5번지 금화프라자 706호","indutype":"기타 - 기타 전문점","category":"other"},{"name":"인광기획","tel":"031-397-9632","addr":"경기도 군포시 산본동 1142-5번지 금화프라자 502호","indutype":"가구 - 기타가구","category":"other"},{"name":"주식회사 그린테크놀로지","tel":"031-392-7474","addr":"경기도 군포시 산본동 1142-5번지 금화프라자 3층 307호","indutype":"건축자재 - 인테리어전문","category":"other"},{"name":"주식회사엘리펀트코리아","tel":"070-8283-1119","addr":"경기도 군포시 산본동 1142-5번지 금화프라자 508-1호","indutype":"수리서비스 - 가정용품수리","category":"other"},{"name":"진-스톤","tel":"031-392-9798","addr":"경기도 군포시 산본동 1142-5번지 금화프라자 5층 508호","indutype":"용역 서비스 - 기타용역서비스","category":"other"},{"name":"퍼플에스테틱","tel":"031-391-6070","addr":"경기도 군포시 산본동 1142-5번지 금화프라자 208호","indutype":"회원제형태 - 기타4","category":"other"},{"name":"포시즌유통","tel":"070-7007-5050","addr":"경기도 군포시 산본동 1142-5번지 금화프라자 307호","indutype":"신변잡화 - 가방","category":"other"},{"name":"프렌즈","tel":"070-8283-1119","addr":"경기도 군포시 산본동 1142-5번지 금화프라자 5층 508-1호","indutype":"수리서비스 - 사무·통신기기수리","category":"other"}]},{"lat":"37.374333303","long":"126.94445669","imageIndex":17,"items":[{"name":"(주)네오파워텍","tel":"031-382-9474","addr":"경기도 군포시 산본동 1026-19번지 금산개발빌딩 401호","indutype":"전기제품 - 기타전기제품","category":"other"},{"name":"애니콤정보통신주식회사","tel":"031-451-4855","addr":"경기도 군포시 산본동 1026-19번지 5층","indutype":"용역 서비스 - 기타용역서비스","category":"other"},{"name":"지에스피(주)","tel":"","addr":"경기도 군포시 산본동 1026-19번지 금산빌딩 4층","indutype":"전기제품 - 기타전기제품","category":"other"}]},{"lat":"37.375251709","long":"126.94320278","imageIndex":17,"items":[{"name":"(주)대우어플라이언스","tel":"02-589-1026","addr":"경기도 군포시 산본동 1026-30번지 에스에이타워 501호","indutype":"전기제품 - 가전제품","category":"other"},{"name":"(주)에스에이티","tel":"031-450-1400","addr":"경기도 군포시 산본동 1026-30번지 에스에이타워 7층","indutype":"수리서비스 - 기타수리서비스","category":"other"},{"name":"씨유군포SA타워점","tel":"031-399-8868","addr":"경기도 군포시 산본동 1026-30번지 에스에이타워 1층 105호","indutype":"유통업 영리 - 편 의 점","category":"other"},{"name":"씨케이정보기술","tel":"031-459-6800","addr":"경기도 군포시 산본동 1026-30번지 에스에이타워 3층 305호","indutype":"전기제품 - 가전제품","category":"other"},{"name":"제이씨테크(JCTech)","tel":"031-386-2175","addr":"경기도 군포시 산본동 1026-30 외2필지 에스에이타워4층401-B호","indutype":"전기제품 - 기타전기제품","category":"other"},{"name":"주식회사 다모아하이테크","tel":"031-452-9003","addr":"경기도 군포시 산본동 1026-30번지 에스에이타워 301호","indutype":"전기제품 - 기타전기제품","category":"other"},{"name":"주식회사 프라메탈","tel":"","addr":"경기도 군포시 산본동 1026-30번지 에스에이타워 3층 305호","indutype":"신변잡화 - 기념품점","category":"other"},{"name":"주식회사씨엘엠에스","tel":"070-8854-6555","addr":"경기도 군포시 산본동 1026-30에스에이타워 205호,307호","indutype":"용역 서비스 - 소프트웨어","category":"other"},{"name":"퀄리스포츠코리아","tel":"070-8877-6499","addr":"경기도 군포시 산본동 1026-30번지 에스에이타워 1층 109호","indutype":"레져용품 - 스포츠·레져용품","category":"other"},{"name":"한국도로전산 주식회사","tel":"031-450-1400","addr":"경기도 군포시 산본동 1026-30번지 에스에이타워 404A호","indutype":"기타 - 기계공구","category":"other"},{"name":"효성레이저","tel":"031-477-8112","addr":"경기도 군포시 산본동 1026-30번지 에스에이타워","indutype":"기타 - 기계공구","category":"other"}]},{"lat":"37.365170736","long":"126.92959679","imageIndex":17,"items":[{"name":"(주)동서엘리베이터","tel":"031-394-0304","addr":"경기도 군포시 산본동 1099-2번지 대림프라자 601호","indutype":"용역 서비스 - 기타용역서비스","category":"other"},{"name":"메디컬산후조리원","tel":"031-398-0721","addr":"경기도 군포시 산본동 1099-2번지 대림프라자 403호","indutype":"기타의료기관 - 산후조리원","category":"other"},{"name":"베네라산후조리원","tel":"031-398-0721","addr":"경기도 군포시 산본동 1099-2번지 대림프라자 403호","indutype":"기타의료기관 - 산후조리원","category":"other"},{"name":"에이스서적","tel":"031-395-0509","addr":"경기도 군포시 산본동 1099-2번지 대림프라자 501호","indutype":"회원제형태 - 서적","category":"other"},{"name":"한샘산본키친프라자","tel":"031-391-7707","addr":"경기도 군포시 산본동 1099-2번지 대림프라자 102호","indutype":"주방용구 - 주방용구","category":"other"}]},{"lat":"37.371165189","long":"126.93411803","imageIndex":17,"items":[{"name":"(주)루시드","tel":"02-1522-1605","addr":"경기도 군포시 산본동 1061-2번지 성원빌딩 301호","indutype":"서적문구 - 일반서적","category":"other"},{"name":"토즈멤버십라운지 산본2센터","tel":"031-395-5599","addr":"경기도 군포시 산본동 1061-2번지 성원빌딩 4층","indutype":"용역 서비스 - 사무서비스","category":"other"},{"name":"한국전기안전공사 경기서부지사","tel":"031-470-3300","addr":"경기도 군포시 산본동 1061-2번지 성원빌딩 5층","indutype":"기타 - 비영리/대상","category":"other"}]},{"lat":"37.358811835","long":"126.93333917","imageIndex":17,"items":[{"name":"(주)룩스그린","tel":"031-393-8250","addr":"경기도 군포시 산본동 1142-2번지 산본대우디오플러스 10층 1011호","indutype":"용역 서비스 - 기타용역서비스","category":"other"},{"name":"(주)엔아켐/원격지","tel":"031-390-6963","addr":"경기도 군포시 산본동 1142-2번지 산본대우디오플러스 1211호","indutype":"기타 - 기타 전문점","category":"other"},{"name":"(주)코리아세븐산본디오플러스점","tel":"031-399-4823","addr":"경기도 군포시 산본동 1142-2번지 산본대우디오플러스 101호","indutype":"유통업 영리 - 편 의 점","category":"other"},{"name":"FAFAN","tel":"031-396-8111","addr":"경기도 군포시 산본동 1142-2번지 산본대우디오플러스 128호","indutype":"서적문구 - 완구점","category":"other"},{"name":"대덕종합화학주식회사","tel":"031-399-0233","addr":"경기도 군포시 산본동 1142-2번지 산본대우디오플러스 14층 1416호","indutype":"서적문구 - 과학기자재","category":"other"},{"name":"대우크린존 주식회사","tel":"031-398-9906","addr":"경기도 군포시 산본동 1142-2번지 산본대우디오플러스 7층 716호","indutype":"용역 서비스 - 기타용역서비스","category":"other"},{"name":"도담북스","tel":"","addr":"경기도 군포시 산본동 1142-2번지 대우디오플러스 1214호","indutype":"서적문구 - 출판 및 인쇄물","category":"other"},{"name":"두유캔들","tel":"031-000-0000","addr":"경기도 군포시 산본동 1142-2번지 산본대우디오플러스 1313호","indutype":"신변잡화 - 기타잡화","category":"other"},{"name":"드림정보통신","tel":"031-390-6670","addr":"경기도 군포시 산본동 1142-2번지 산본대우디오플러스 130호","indutype":"사무통신 - 통신기기","category":"other"},{"name":"디자인센터/원격지","tel":"031-390-6351","addr":"경기도 군포시 산본동 1142-2번지 산본대우플러스 1114호","indutype":"기타 - 기타 전문점","category":"other"},{"name":"디자인플러스","tel":"031-393-6708","addr":"경기도 군포시 산본동 1142-2 대우디오플러스 722","indutype":"용역 서비스 - 종합용역","category":"other"},{"name":"디지털라인","tel":"031-430-0486","addr":"경기도 군포시 산본동 1142-2번지 디오플러스 911호","indutype":"사무통신 - 컴퓨터","category":"other"},{"name":"라모르플라워","tel":"070-4200-5430","addr":"경기도 군포시 산본동 1142-2번지 산본대우디오플러스 137호","indutype":"문화.취미 - 화원","category":"other"},{"name":"브이테크정보통신","tel":"031-393-1811","addr":"경기도 군포시 산본동 1142-2번지 대우디오플러스 135호","indutype":"사무통신 - 통신기기","category":"other"},{"name":"세르빈","tel":"031-398-5879","addr":"경기도 군포시 산본동 1142-2번지 대우디오플러스 123호","indutype":"신변잡화 - 액세서리","category":"other"},{"name":"아스트로무역","tel":"031-399-0101","addr":"경기도 군포시 산본동 1142-2번지 산본대우디오플러스 1527호","indutype":"문화.취미 - 수족관","category":"other"},{"name":"아이폰팩토리","tel":"031-347-1653","addr":"경기도 군포시 산본동 1142-2번지 3층 306-1호","indutype":"수리서비스 - 사무·통신기기수리","category":"other"},{"name":"알토란정보통신","tel":"031-399-7935","addr":"경기도 군포시 산본동 1142-2번지 산본대우디오플러스 117호","indutype":"사무통신 - 통신기기","category":"other"},{"name":"오만과편견","tel":"070-8200-8728","addr":"경기도 군포시 산본동 1142-2,대우디오플러스3층,306-2","indutype":"문화.취미 - 민예·공예품","category":"other"},{"name":"와이덱스보청기","tel":"031-390-6680","addr":"경기도 군포시 산본동 1142-2번지","indutype":"기타의료기관 - 기타의료기관 및 기타","category":"other"},{"name":"이.엘코리아","tel":"031-344-3737","addr":"경기도 군포시 산본동 1142-2번지 디오플러스 126호","indutype":"전기제품 - 가전제품","category":"other"},{"name":"주노쥬얼리","tel":"031-391-1022","addr":"경기도 군포시 산본동 1142-2번지 산본대우디오플러스 1층 119,120호","indutype":"신변잡화 - 귀금속","category":"other"},{"name":"주식회사목간","tel":"031-394-2253","addr":"경기도 군포시 산본동 1142-2번지 산본대우디오플러스 712호","indutype":"건축자재 - 인테리어전문","category":"other"},{"name":"주연테크 산본역점","tel":"031-394-1586","addr":"경기도 군포시 산본동 1142-2번지 디오플러스오피스텔 134호","indutype":"사무통신 - 컴퓨터","category":"other"},{"name":"코렐리아","tel":"031-393-3836","addr":"경기도 군포시 산본동 1142-2번지 대우디오플러스 115호","indutype":"의류 - 정장","category":"other"},{"name":"프린토피아","tel":"031-459-2142","addr":"경기도 군포시 산본동 1142-2번지 산본대우디오플러스 1층 124호","indutype":"용역 서비스 - 사무서비스","category":"other"},{"name":"플로벨","tel":"031-394-0522","addr":"경기도 군포시 산본동 1142-2번지 3층 303-1호","indutype":"의류 - 아동의류","category":"other"},{"name":"피에스텔레콤(산본점)","tel":"070-4797-4743","addr":"경기도 군포시 산본동 1142-2번지 대우디오플러스 1층 110호","indutype":"사무통신 - 통신기기","category":"other"},{"name":"헤라","tel":"031-398-5879","addr":"경기도 군포시 산본동 1142-2번지 산본대우디오플러스 122호","indutype":"의류 - 정장","category":"other"},{"name":"화이트뱅크","tel":"031-342-1235","addr":"경기도 군포시 산본동 1142-2번지 산본대우디오플러스 107호","indutype":"회원제형태 - 기타4","category":"other"}]},{"lat":"37.377836892","long":"126.94178943","imageIndex":17,"items":[{"name":"(주)메트로테크안양공장","tel":"031-455-0151","addr":"경기도 군포시 산본동 1-16번지","indutype":"전기제품 - 기타전기제품","category":"other"}]},{"lat":"37.355944158","long":"126.92928973","imageIndex":17,"items":[{"name":"(주)보람여행사","tel":"031-391-7731","addr":"경기도 군포시 산본동 1231번지","indutype":"여행 - 관광여행","category":"other"},{"name":"(주)우방건설산업","tel":"043-238-8013","addr":"경기도 군포시 산본동 1231번지","indutype":"용역 서비스 - 기타용역서비스","category":"other"},{"name":"고릴라","tel":"031-396-4369","addr":"경기도 군포시 산본동 1231번지 산본역쇼핑센터 2A동 22호","indutype":"의류 - 정장","category":"other"},{"name":"루디아","tel":"","addr":"경기도 군포시 산본동 1231번지 산본역사 3층 3A002호","indutype":"의류 - 기타의류","category":"other"},{"name":"신상통상(주)TOPTEN 산본점","tel":"031-390-7541","addr":"경기도 군포시 산본동 1231번지 (2-가호)","indutype":"레져용품 - 스포츠·레져용품","category":"other"},{"name":"앙드레","tel":"031-396-0709","addr":"경기도 군포시 산본동 1231번지 산본역쇼핑센터 2A동 21호","indutype":"의류 - 정장","category":"other"},{"name":"오떼르","tel":"031-396-8513","addr":"경기도 군포시 산본동 1231산본역쇼핑센타2층","indutype":"의류 - 정장","category":"other"},{"name":"조현어패럴","tel":"031-392-4389","addr":"경기도 군포시 산본동 1231번지 산본쇼핑타운 2층 70호","indutype":"의류 - 기타의류","category":"other"}]},{"lat":"37.37691896","long":"126.94395791","imageIndex":17,"items":[{"name":"(주)비슬로","tel":"031-349-8692","addr":"경기도 군포시 산본동 18-36번지 아폴로타운 301호","indutype":"기타 - 기계공구","category":"other"},{"name":"삼성건업","tel":"031-394-0202","addr":"경기도 군포시 산본동 18-36번지","indutype":"기타 - 기계공구","category":"other"},{"name":"주식회사예스아이컴","tel":"031-459-0053","addr":"경기도 군포시 산본동 18-36번지 아폴로타운 3층","indutype":"사무통신 - 통신기기","category":"other"},{"name":"주식회사예스아이컴/원격지","tel":"031-459-0053","addr":"경기도 군포시 산본동 18-36번지 아폴로타운 3층","indutype":"기타 - 기타 전문점","category":"other"}]},{"lat":"37.360532298","long":"126.93253614","imageIndex":17,"items":[{"name":"(주)비지원","tel":"031-346-5100","addr":"경기도 군포시 산본동 1125-2번지 보람타워 813호","indutype":"의류 - 정장","category":"other"},{"name":"(주)투어플랜","tel":"031-344-0606","addr":"경기도 군포시 산본동 1125-2번지 산본동,보람타워 707호","indutype":"여행 - 관광여행","category":"other"},{"name":"가나안교회","tel":"031-398-0675","addr":"경기도 군포시 산본동 1125-2번지","indutype":"기타 - 비영리/대상","category":"other"},{"name":"가나안교회","tel":"031-399-1336","addr":"경기도 군포시 산본동 1125-2,보람타워지하1층1호-11호","indutype":"기타 - 기타 전문점","category":"other"},{"name":"경성아이앤티","tel":"031-471-3546","addr":"경기도 군포시 산본동 1125-2번지 보람타워빌딩 808호","indutype":"용역 서비스 - 소프트웨어","category":"other"},{"name":"김정수세무사사무소","tel":"031-399-5550","addr":"경기도 군포시 산본동 1125-2번지 보람타워 1206호","indutype":"용역 서비스 - 법률회계서비스(개인)","category":"other"},{"name":"더빅커뮤니케이션즈","tel":"031-391-3650","addr":"경기도 군포시 산본동 1125-2번지 보람타워 5층 13호","indutype":"용역 서비스 - 사무서비스","category":"other"},{"name":"르하임 스터디카페 산본점","tel":"02-123-1234","addr":"경기도 군포시 산본동 1125-2번지 보람타워 301호","indutype":"용역 서비스 - 사무서비스","category":"other"},{"name":"문태연세무회계사무소","tel":"031-392-7474","addr":"경기도 군포시 산본동 1125-2번지 보람타워 1113호","indutype":"용역 서비스 - 법률회계서비스(개인)","category":"other"},{"name":"보람법무사","tel":"031-392-2000","addr":"경기도 군포시 산본동 1125-2 보람타워4층12","indutype":"용역 서비스 - 법률회계서비스(개인)","category":"other"},{"name":"사단법인 한국방과후교육연구회(경기군포지","tel":"031-392-8023","addr":"경기도 군포시 산본동 1125-2번지 보람타워 1013호","indutype":"서적문구 - 기타서적문구","category":"other"},{"name":"서원건축사사무소","tel":"031-392-5959","addr":"경기도 군포시 산본동 1125-2보람타워8층8","indutype":"용역 서비스 - 사무서비스","category":"other"},{"name":"스쿨룩스(산본점)","tel":"031-393-1318","addr":"경기도 군포시 산본동 1125-2번지 보람타워 2층 11호","indutype":"의류 - 정장","category":"other"},{"name":"아라 사회적협동조합","tel":"","addr":"경기도 군포시 산본동 1125-2번지 보람타워 1013호","indutype":"용역 서비스 - 사무서비스","category":"other"},{"name":"이경재법무사사무소","tel":"031-392-3900","addr":"경기도 군포시 산본동 1125-2번지 보람타워 1층 10호","indutype":"용역 서비스 - 법률회계서비스(개인)","category":"other"},{"name":"주식회사 아라교육","tel":"031-392-8033","addr":"경기도 군포시 산본동 1125-2번지 보람타워 1013호","indutype":"서적문구 - 기타서적문구","category":"other"},{"name":"주식회사 와이피테크","tel":"070-8777-5959","addr":"경기도 군포시 산본동 1125-2번지 보람타워 5층 9호","indutype":"전기제품 - 기타전기제품","category":"other"},{"name":"주식회사 좋은터","tel":"070-7517-6754","addr":"경기도 군포시 산본동 1125-2번지 보람타워 513호","indutype":"용역 서비스 - 사무서비스","category":"other"},{"name":"천재영'S다이어트Spot","tel":"031-395-1007","addr":"경기도 군포시 산본동 1125-2번지 보람타워 10층 13호","indutype":"회원제형태 - 레져업소","category":"other"},{"name":"천재영맞춤운동센타","tel":"031-395-1007","addr":"경기도 군포시 산본동 1125-2번지 보람타워 10층 13호","indutype":"회원제형태 - 레져업소","category":"other"}]},{"lat":"37.374477286","long":"126.9440953","imageIndex":17,"items":[{"name":"(주)새로텍","tel":"02-480-5163","addr":"경기도 군포시 산본동 1026-8번지 중산빌딩 6층","indutype":"사무통신 - 컴퓨터","category":"other"},{"name":"위즈플랫 주식회사","tel":"031-8090-3000","addr":"경기도 군포시 산본동 1026-8번지 중산빌딩 6층","indutype":"사무통신 - 컴퓨터","category":"other"},{"name":"주식회사마이보트","tel":"031-457-3301","addr":"경기도 군포시 산본동 1026-8번지 중산빌딩 202호","indutype":"레져용품 - 스포츠·레져용품","category":"other"}]},{"lat":"37.360054498","long":"126.93209637","imageIndex":17,"items":[{"name":"(주)수호종합개발","tel":"031-397-2012","addr":"경기도 군포시 산본동 1131-2번지 청운빌딩 304호","indutype":"용역 서비스 - 기타용역서비스","category":"other"},{"name":"바디플레이스","tel":"031-313-3717","addr":"경기도 군포시 산본동 1131-2번지 502,503호","indutype":"회원제형태 - 기타4","category":"other"},{"name":"올디","tel":"031-349-1514","addr":"경기도 군포시 산본동 1131-2번지 청운빌딩 106호","indutype":"신변잡화 - 신발","category":"other"},{"name":"지아르","tel":"031-399-5497","addr":"경기도 군포시 산본동 1131-2번지 청운빌딩 105호","indutype":"의류 - 정장","category":"other"}]},{"lat":"37.364054056","long":"126.93053482","imageIndex":17,"items":[{"name":"(주)신우아이에스","tel":"031-459-6616","addr":"경기도 군포시 산본동 1097-1번지 사이버텔 814호","indutype":"기타 - 기타 전문점","category":"other"},{"name":"링구아포럼","tel":"031-394-8205","addr":"경기도 군포시 산본동 1097-1번지 산본사이버텔 417호","indutype":"서적문구 - 일반서적","category":"other"},{"name":"모이몰론 산본점","tel":"","addr":"경기도 군포시 산본동 1097-1번지 산본사이버텔 1층 110호","indutype":"의류 - 스포츠의류","category":"other"},{"name":"산본문구","tel":"031-391-5680","addr":"경기도 군포시 산본동 1097-1번지 산본오피스텔 1101호","indutype":"서적문구 - 문구용품","category":"other"},{"name":"주식회사알앤씨테크/원격지","tel":"031-388-8634","addr":"경기도 군포시 산본동 1097-1번지 산본사이버텔 3층 303호","indutype":"기타 - 기타 전문점","category":"other"},{"name":"주식회사지앤비테크","tel":"02-962-1175","addr":"경기도 군포시 산본동 1097-1번지 산본사이버텔 1004호","indutype":"건축자재 - 기타건축자재","category":"other"},{"name":"주식회사팜스원","tel":"031-393-4350","addr":"경기도 군포시 산본동 1097-1번지 산본사이버텔 417호","indutype":"용역 서비스 - 소프트웨어","category":"other"}]},{"lat":"37.36002678","long":"126.93095633","imageIndex":17,"items":[{"name":"(주)알라딘커뮤니케이션/알라딘중고서점(산","tel":"02-1544-2514","addr":"경기도 군포시 산본동 1136번지 한솔프라자","indutype":"서적문구 - 일반서적","category":"other"},{"name":"소루","tel":"031-391-2110","addr":"경기도 군포시 산본동 1136번지 한솔프라자 301호","indutype":"의류 - 정장","category":"other"},{"name":"아이비클럽","tel":"031-399-0118","addr":"경기도 군포시 산본동 1136번지 한솔프라자 201호","indutype":"의류 - 단체복","category":"other"},{"name":"알라딘중고서점(산본)","tel":"02-6913-2507","addr":"경기도 군포시 산본동 1136번지 한솔프라자 지하1층","indutype":"서적문구 - 일반서적","category":"other"}]},{"lat":"37.371836547","long":"126.94256198","imageIndex":17,"items":[{"name":"(주)에스티오/산본금정점","tel":"02-2093-2510","addr":"경기도 군포시 산본동 266-19번지","indutype":"의류 - 정장","category":"other"},{"name":"(주)준영","tel":"031-375-0070","addr":"경기도 군포시 산본동 266-19번지 4층 5층","indutype":"회원제형태 - 레져업소","category":"other"},{"name":"아날도바시니","tel":"031-394-4061","addr":"경기도 군포시 산본동 266-19번지","indutype":"의류 - 정장","category":"other"}]},{"lat":"37.367249021","long":"126.92481959","imageIndex":17,"items":[{"name":"(주)엠케이소프트","tel":"031-348-8082","addr":"경기도 군포시 산본동 1111번지 102호","indutype":"용역 서비스 - 소프트웨어","category":"other"}]},{"lat":"37.376053127","long":"126.94225377","imageIndex":17,"items":[{"name":"(주)연합/조흥물대","tel":"031-227-4547","addr":"경기도 군포시 산본동 1026-2번지","indutype":"별도관리 - 자체물품대금","category":"other"}]},{"lat":"37.359001227","long":"126.93364376","imageIndex":17,"items":[{"name":"(주)와이피컴퍼니","tel":"","addr":"경기도 군포시 산본동 1142-1번지 유화프라자 4층 4호 5호 6호 10호","indutype":"의류 - 정장","category":"other"},{"name":"롱블랑","tel":"031-392-6182","addr":"경기도 군포시 산본동 1142-1번지 유화프라자빌딩 3층 5-2호","indutype":"문화.취미 - 문화취미기타","category":"other"},{"name":"아이라라아동발달연구센터","tel":"031-394-5279","addr":"경기도 군포시 산본동 1142-1번지 유화프라자 3층","indutype":"회원제형태 - 기타4","category":"other"},{"name":"컨트리애견의집","tel":"031-394-0514","addr":"경기도 군포시 산본동 1142-1번지 유화프라자 108호","indutype":"문화.취미 - 애완동물","category":"other"},{"name":"한국디지틀도서관포럼","tel":"031-396-5011","addr":"경기도 군포시 산본동 1142-1번지 유화프라자 306호","indutype":"서적문구 - 출판 및 인쇄물","category":"other"},{"name":"헤르몬우드(Hermon wood)","tel":"070-7121-2468","addr":"경기도 군포시 산본동 1142-1번지 유화프라자 2층 5호","indutype":"건축자재 - 페인트","category":"other"},{"name":"홍&강 행정사무소","tel":"031-394-6106","addr":"경기도 군포시 산본동 1142-1 유화프라자 제6층제4-1호","indutype":"용역 서비스 - 법률회계서비스(개인)","category":"other"}]},{"lat":"37.377665542","long":"126.94148473","imageIndex":17,"items":[{"name":"(주)우영","tel":"031-394-1990","addr":"경기도 군포시 산본동 1-18번지 4층","indutype":"건축자재 - 조명기구","category":"other"}]},{"lat":"37.375476877","long":"126.94303325","imageIndex":17,"items":[{"name":"(주)월드트레이딩(WORLD TRADING CO.,Ltd)","tel":"031-454-6094","addr":"경기도 군포시 산본동 1026-29번지","indutype":"신변잡화 - 신발","category":"other"},{"name":"성화에스티","tel":"031-457-7844","addr":"경기도 군포시 산본동 1026-29번지 1층","indutype":"건축자재 - 기타건축자재","category":"other"}]},{"lat":"37.35991789","long":"126.92970349","imageIndex":17,"items":[{"name":"(주)윈윈스포츠","tel":"031-455-4800","addr":"경기도 군포시 산본동 1123-4번지 유공프라자 601호","indutype":"레져용품 - 스포츠·레져용품","category":"other"},{"name":"군포금화로타리클럽","tel":"031-429-3750","addr":"경기도 군포시 산본동 1123-4번지 유공프라자 지하1층 8호","indutype":"기타 - 비영리/비대상","category":"other"},{"name":"메이드 짐","tel":"031-397-1016","addr":"경기도 군포시 산본동 1123-4번지 유공프라자 701호","indutype":"레져용품 - 스포츠·레져용품","category":"other"},{"name":"씨유산본중앙로점","tel":"031-898-6568","addr":"경기도 군포시 산본동 1123-4번지 유공프라자 105호","indutype":"유통업 영리 - 편 의 점","category":"other"},{"name":"예가","tel":"031-393-4449","addr":"경기도 군포시 산본동 1123-4번지 유공프라자빌딩 1층 103호","indutype":"가구 - 일반가구","category":"other"},{"name":"유니콘과학","tel":"031-395-0404","addr":"경기도 군포시 산본동 1123-4번지 유공프라자 223호","indutype":"서적문구 - 완구점","category":"other"},{"name":"정훈건설(주)","tel":"031-398-1383","addr":"경기도 군포시 산본동 1123-4번지 유공프라자 507호","indutype":"건축자재 - 부동산 분양","category":"other"},{"name":"주식회사 코리아피엠씨","tel":"031-395-6060","addr":"경기도 군포시 산본동 1123-4","indutype":"용역 서비스 - 부동산 중개·임대","category":"other"}]},{"lat":"37.370222448","long":"126.94009092","imageIndex":17,"items":[{"name":"(주)윈윈스포츠 산본","tel":"031-398-0660","addr":"경기도 군포시 산본동 236-9번지 1층","indutype":"레져용품 - 스포츠·레져용품","category":"other"},{"name":"금성꽃화원","tel":"031-394-5970","addr":"경기도 군포시 산본동 236-9번지","indutype":"문화.취미 - 화원","category":"other"},{"name":"스포츠나라","tel":"031-398-0660","addr":"경기도 군포시 산본동 236-9번지","indutype":"레져용품 - 스포츠·레져용품","category":"other"}]},{"lat":"37.367807763","long":"126.94014938","imageIndex":17,"items":[{"name":"(주)유리컴","tel":"070-8727-8632","addr":"경기도 군포시 산본동 1033-8번지 1층","indutype":"회원제형태 - 기타1","category":"other"}]},{"lat":"37.376143654","long":"126.94308917","imageIndex":17,"items":[{"name":"(주)이산전자","tel":"031-427-6350","addr":"경기도 군포시 산본동 18-21번지 유한철강빌딩 2층","indutype":"용역 서비스 - 기타용역서비스","category":"other"}]},{"lat":"37.371276913","long":"126.94062065","imageIndex":17,"items":[{"name":"(주)자유문고","tel":"031-395-0001","addr":"경기도 군포시 산본동 91-41번지","indutype":"서적문구 - 일반서적","category":"other"},{"name":"금정크로커다일","tel":"031-397-7767","addr":"경기도 군포시 산본동 91-41번지","indutype":"레져용품 - 스포츠·레져용품","category":"other"},{"name":"더 주(THE ZOO)","tel":"070-4763-5713","addr":"경기도 군포시 산본동 91-41번지 지층","indutype":"문화.취미 - 애완동물","category":"other"}]},{"lat":"37.37214238","long":"126.94156826","imageIndex":17,"items":[{"name":"(주)제이엠국제여행사","tel":"031-427-6616","addr":"경기도 군포시 산본동 98-31번지","indutype":"여행 - 관광여행","category":"other"}]},{"lat":"37.360387704","long":"126.93181386","imageIndex":17,"items":[{"name":"(주)제이엠코리아","tel":"031-399-2381","addr":"경기도 군포시 산본동 1132-2번지 명동빌딩 401호","indutype":"전기제품 - 기타전기제품","category":"other"},{"name":"N-하우스","tel":"031-391-7797","addr":"경기도 군포시 산본동 1132-2번지 투데이몰 2층 14호","indutype":"의류 - 아동의류","category":"other"},{"name":"넷티스","tel":"031-398-3883","addr":"경기도 군포시 산본동 1132-2번지 명동상가 402호","indutype":"서적문구 - 출판 및 인쇄물","category":"other"},{"name":"다원행정사 합동사무소","tel":"031-392-2366","addr":"경기도 군포시 산본동 1132-2번지 군포명동상가 303호","indutype":"용역 서비스 - 법률회계서비스(개인)","category":"other"},{"name":"리엔텍","tel":"031-399-7323","addr":"경기도 군포시 산본동 1132-2번지 군포명동상가 304호","indutype":"기타 - 기계공구","category":"other"},{"name":"엠테크(멜론마켓)","tel":"031-399-8500","addr":"경기도 군포시 산본동 1132-2번지 군포명동상가 701호","indutype":"기타 - 기계공구","category":"other"},{"name":"오르다코리아","tel":"031-391-8333","addr":"경기도 군포시 산본동 1132-2번지 명동빌딩 4층 401호","indutype":"회원제형태 - 서적","category":"other"},{"name":"콜투어","tel":"031-346-6336","addr":"경기도 군포시 산본동 1132-2번지 명동상가 303호","indutype":"여행 - 관광여행","category":"other"},{"name":"튜터위더스","tel":"","addr":"경기도 군포시 산본동 1132-2번지 군포명동상가 3층 302호","indutype":"용역 서비스 - 사무서비스","category":"other"},{"name":"회색공간","tel":"031-392-2366","addr":"경기도 군포시 산본동 1132-2번지 명동상가 3층 303호","indutype":"건축자재 - 건축용 요업제품","category":"other"}]},{"lat":"37.359783113","long":"126.93031316","imageIndex":17,"items":[{"name":"(주)제이와이북스닷컴","tel":"031-390-1522","addr":"경기도 군포시 산본동 1137-3번지 옥산프라자 3층","indutype":"서적문구 - 교육용테이프판매","category":"other"},{"name":"COTTON MOM(코튼맘)","tel":"031-396-7909","addr":"경기도 군포시 산본동 1137-3번지 옥산프라자 201호","indutype":"직물 - 침구·수예점","category":"other"},{"name":"아트박스산본점","tel":"031-395-5502","addr":"경기도 군포시 산본동 1137-3번지 옥산빌딩 102호","indutype":"서적문구 - 문구용품","category":"other"},{"name":"장원교육군포지점","tel":"031-399-0041","addr":"경기도 군포시 산본동 1137-3번지 옥산프라자빌딩 402호","indutype":"회원제형태 - 서적","category":"other"},{"name":"코코짐 휘트니스","tel":"031-393-1231","addr":"경기도 군포시 산본동 1137-3번지 옥산프라자 701호 , 702","indutype":"회원제형태 - 레져업소","category":"other"},{"name":"크록스산본점","tel":"031-393-6215","addr":"경기도 군포시 산본동 1137-3번지 옥산빌딩 1층 101호","indutype":"레져용품 - 스포츠·레져용품","category":"other"},{"name":"타미-존","tel":"031-397-2585","addr":"경기도 군포시 산본동 1137-3번지","indutype":"전기제품 - 기타전기제품","category":"other"},{"name":"탄탄스토리하우스산본점","tel":"031-399-6401","addr":"경기도 군포시 산본동 1137-3번지 옥산프라자 3층 301호","indutype":"회원제형태 - 서적","category":"other"}]},{"lat":"37.374143911","long":"126.94409556","imageIndex":17,"items":[{"name":"(주)창의와날개","tel":"031-429-7209","addr":"경기도 군포시 산본동 1026-51번지 대영타워 301호","indutype":"서적문구 - 기타서적문구","category":"other"},{"name":"(주)패스넷","tel":"02-1544-3254","addr":"경기도 군포시 산본동 1026-51번지 대영타워 201호","indutype":"사무통신 - 컴퓨터","category":"other"},{"name":"론드리맥스(LAUNDRY MAX)","tel":"031-427-1429","addr":"경기도 군포시 산본동 1026-51번지 대영타워","indutype":"수리서비스 - 세탁소","category":"other"},{"name":"주식회사 모바일존","tel":"031-423-3017","addr":"경기도 군포시 산본동 1026-51번지 대영타워 501호","indutype":"사무통신 - 통신기기","category":"other"},{"name":"주식회사영인터내셔날/원격지","tel":"031-456-2205","addr":"경기도 군포시 산본동 1026-51번지 대영빌딩 4층","indutype":"기타 - 기타 전문점","category":"other"}]},{"lat":"37.359613432","long":"126.93281919","imageIndex":17,"items":[{"name":"(주)카리스네오스","tel":"031-397-2757","addr":"경기도 군포시 산본동 1129번지 청우빌딩 5층 2호","indutype":"기타 - 기타 전문점","category":"other"},{"name":"이비인터내셔널","tel":"070-7778-3171","addr":"경기도 군포시 산본동 1129번지 502-3호","indutype":"레져용품 - 스포츠·레져용품","category":"other"},{"name":"청우전기철물","tel":"031-395-8204","addr":"경기도 군포시 산본동 1129번지","indutype":"기타 - 기계공구","category":"other"}]},{"lat":"37.372664703","long":"126.9410598","imageIndex":17,"items":[{"name":"(주)코리아세븐금정희망점","tel":"02-3284-8168","addr":"경기도 군포시 산본동 94-5번지","indutype":"유통업 영리 - 편 의 점","category":"other"}]},{"lat":"37.368393541","long":"126.94037467","imageIndex":17,"items":[{"name":"(주)테크노디자인","tel":"031-397-5001","addr":"경기도 군포시 산본동 1031-5번지","indutype":"기타 - 기타 전문점","category":"other"}]},{"lat":"37.358729471","long":"126.93120589","imageIndex":17,"items":[{"name":"(주)한국전관","tel":"031-399-9032","addr":"경기도 군포시 산본동 1140-3번지 백두빌딩 403동 404호","indutype":"용역 서비스 - 사무서비스","category":"other"},{"name":"아이지미술","tel":"031-393-3886","addr":"경기도 군포시 산본동 1140-3번지 백두빌딩 2층 01호","indutype":"회원제형태 - 서적","category":"other"},{"name":"원풍시스템(주)","tel":"031-395-7500","addr":"경기도 군포시 산본동 1140-3번지 백두빌딩 303호~304호","indutype":"사무통신 - 통신기기","category":"other"},{"name":"원풍시스템(주)","tel":"031-353-5016","addr":"경기도 군포시 산본동 1140-3 백두빌딩 303호~304호","indutype":"사무통신 - 통신기기","category":"other"},{"name":"한국디자인교육센터","tel":"","addr":"경기도 군포시 산본동 1140-3번지 백두빌딩 6층 601호","indutype":"문화.취미 - 문화취미기타","category":"other"}]},{"lat":"37.371002895","long":"126.93392625","imageIndex":17,"items":[{"name":"(주)현대기획앤투어","tel":"070-8866-5681","addr":"경기도 군포시 산본동 1061-3번지 미성프라자 606호","indutype":"문화.취미 - 티켓","category":"other"},{"name":"미소요양원","tel":"031-391-3377","addr":"경기도 군포시 산본동 1061-3번지 미성프라자 9층 901호","indutype":"기타의료기관 - 기타의료기관 및 기타","category":"other"},{"name":"복현양재","tel":"031-348-0882","addr":"경기도 군포시 산본동 1061-3번지 미성프라자 6층 01호","indutype":"문화.취미 - 문화취미기타","category":"other"},{"name":"새명건설중기","tel":"031-464-0481","addr":"경기도 군포시 산본동 1061-3번지 국민은행","indutype":"기타 - 기계공구","category":"other"},{"name":"신성산업개발","tel":"031-429-8587","addr":"경기도 군포시 산본동 1061-3번지 미성프라자 B201호","indutype":"건축자재 - 기타건축자재","category":"other"},{"name":"쌍용건설중기","tel":"031-438-3213","addr":"경기도 군포시 산본동 1061-3번지","indutype":"용역 서비스 - 기타용역서비스","category":"other"},{"name":"쌍용건설중기","tel":"031-458-4646","addr":"경기도 군포시 산본동 1061-3번지","indutype":"기타 - 기계공구","category":"other"},{"name":"아름나라","tel":"031-397-1512","addr":"경기도 군포시 산본동 1061-3번지 국민은행 105호","indutype":"광학제품 - 사진관","category":"other"},{"name":"아바드 가죽공방","tel":"031-000-0000","addr":"경기도 군포시 산본동 1061-3번지 206호 205호,206호","indutype":"문화.취미 - 문화취미기타","category":"other"},{"name":"어썸스터디카페","tel":"","addr":"경기도 군포시 산본동 1061-3번지 미성프라자 402호","indutype":"용역 서비스 - 사무서비스","category":"other"},{"name":"오렌지마트","tel":"031-392-7234","addr":"경기도 군포시 산본동 1061-3번지 국민은행 201호","indutype":"신변잡화 - 기타잡화","category":"other"},{"name":"오현공예","tel":"031-348-0882","addr":"경기도 군포시 산본동 1061-3번지 미성프라자 6층 601호","indutype":"문화.취미 - 문화취미기타","category":"other"},{"name":"온마음요양원","tel":"031-399-7448","addr":"경기도 군포시 산본동 1061-3번지 미성프라자 7층 701호","indutype":"기타의료기관 - 기타의료기관 및 기타","category":"other"},{"name":"천인건설(쌍용건설중기)","tel":"031-427-0353","addr":"경기도 군포시 산본동 1061-3번지 미성프라자","indutype":"주방용구 - 주방용구","category":"other"},{"name":"행복찾기","tel":"031-391-7450","addr":"경기도 군포시 산본동 1061-3번지 미성프라자빌딩 1층","indutype":"의류 - 정장","category":"other"}]},{"lat":"37.371886501","long":"126.93498666","imageIndex":17,"items":[{"name":"(주)화인커뮤니케이션","tel":"031-394-0062","addr":"경기도 군포시 산본동 1060-1번지 하나로프라자 401호","indutype":"기타 - 기타 전문점","category":"other"},{"name":"미즈폼피부비만클리닉","tel":"031-395-3747","addr":"경기도 군포시 산본동 1060-1번지 하나로프라자 402호","indutype":"회원제형태 - 기타1","category":"other"},{"name":"산본피부미용","tel":"070-8183-2747","addr":"경기도 군포시 산본동 1060-1번지 하나로빌딩 8층","indutype":"회원제형태 - 기타4","category":"other"}]},{"lat":"37.369835782","long":"126.94155884","imageIndex":17,"items":[{"name":"CS(씨에스)","tel":"070-4158-8282","addr":"경기도 군포시 산본동 241-6, 103호","indutype":"용역 서비스 - 종합용역","category":"other"},{"name":"노란퀼트","tel":"031-627-7950","addr":"경기도 군포시 산본동 241-6번지 102호","indutype":"의류 - 정장","category":"other"},{"name":"달달아트연구소","tel":"031-399-6994","addr":"경기도 군포시 산본동 241-6번지 1층 103호","indutype":"문화.취미 - 문화취미기타","category":"other"},{"name":"창조광고기획","tel":"070-4538-0452","addr":"경기도 군포시 산본동 241-6번지 103호","indutype":"용역 서비스 - 종합용역","category":"other"}]},{"lat":"37.359144237","long":"126.93170215","imageIndex":17,"items":[{"name":"D-DAY","tel":"031-393-7559","addr":"경기도 군포시 산본동 1135-1번지 롯데프라자 101호","indutype":"의류 - 정장","category":"other"},{"name":"빈스메이드","tel":"031-391-9088","addr":"경기도 군포시 산본동 1135-1번지 롯데프라자 7층 706호","indutype":"신변잡화 - 기타잡화","category":"other"},{"name":"센타부동산공인중개사사무소","tel":"031-399-3008","addr":"경기도 군포시 산본동 1135-1번지 롯데빌딩 102호","indutype":"용역 서비스 - 부동산 중개·임대","category":"other"},{"name":"하카전자담배군포산본점","tel":"070-4142-1188","addr":"경기도 군포시 산본동 1135-1번지 롯데프라자 제1층 107호","indutype":"기타 - 기타 전문점","category":"other"}]},{"lat":"37.36519799","long":"126.929958","imageIndex":17,"items":[{"name":"G.F.corporation","tel":"031-393-0044","addr":"경기도 군포시 산본동 1094번지 지상건물 1층 일부","indutype":"의류 - 내의판매","category":"other"},{"name":"옷","tel":"031-394-1110","addr":"경기도 군포시 산본동 1094번지","indutype":"의류 - 정장","category":"other"}]},{"lat":"37.35983767","long":"126.93112583","imageIndex":17,"items":[{"name":"GACHA SHOP(가차샵 산본점)","tel":"070-4763-0953","addr":"경기도 군포시 산본동 1136-1번지 청송프라자 206호","indutype":"서적문구 - 완구점","category":"other"},{"name":"스마트학생복 산본점","tel":"031-395-3441","addr":"경기도 군포시 산본동 1136-1번지 청송프라자 302호","indutype":"의류 - 단체복","category":"other"},{"name":"에땅뀌르","tel":"","addr":"경기도 군포시 산본동 1136-1번지 청송프라자 7층 705-1호","indutype":"문화.취미 - 문화취미기타","category":"other"},{"name":"에이탑컴퍼니주식회사(A-top company Co.,)","tel":"031-394-6030","addr":"경기도 군포시 산본동 1136-1번지 청송프라자 6층 606호","indutype":"사무통신 - 통신기기","category":"other"},{"name":"이성희에스테틱","tel":"031-348-1510","addr":"경기도 군포시 산본동 1136-1번지 청송프라자 403호","indutype":"회원제형태 - 기타4","category":"other"},{"name":"인스(In's)","tel":"031-393-7372","addr":"경기도 군포시 산본동 1136-1번지 청송프라자 105호","indutype":"의류 - 정장","category":"other"},{"name":"자연과사람들","tel":"031-393-9963","addr":"경기도 군포시 산본동 1136-1번지 청송프라자 410호","indutype":"문화.취미 - 화원","category":"other"},{"name":"풀잎문화센터","tel":"031-398-5578","addr":"경기도 군포시 산본동 1136-1번지 청솔프라자 605호","indutype":"문화.취미 - 문화취미기타","category":"other"}]},{"lat":"37.366644098","long":"126.92295757","imageIndex":17,"items":[{"name":"GS25군포궁내점","tel":"02-2006-2118","addr":"경기도 군포시 산본동 1118-6번지","indutype":"유통업 영리 - 편 의 점","category":"other"}]},{"lat":"37.355921746","long":"126.92254003","imageIndex":17,"items":[{"name":"GS25군포삼환점","tel":"","addr":"경기도 군포시 산본동 1152-7번지 103호,104호,114호","indutype":"유통업 영리 - 편 의 점","category":"other"},{"name":"가이드존스크린골프","tel":"031-396-7600","addr":"경기도 군포시 산본동 1152-7번지","indutype":"회원제형태 - 레져업소","category":"other"}]},{"lat":"37.367276688","long":"126.9257904","imageIndex":17,"items":[{"name":"GS25군포수리산점","tel":"","addr":"경기도 군포시 산본동 1106번지 1층","indutype":"유통업 영리 - 편 의 점","category":"other"}]},{"lat":"37.368331138","long":"126.94165038","imageIndex":17,"items":[{"name":"GS25금정삼성점","tel":"","addr":"경기도 군포시 산본동 1029-11번지","indutype":"유통업 영리 - 편 의 점","category":"other"}]},{"lat":"37.372863533","long":"126.94223376","imageIndex":17,"items":[{"name":"GS25금정센타점","tel":"02-2006-2118","addr":"경기도 군포시 산본동 98번지 1층","indutype":"유통업 영리 - 편 의 점","category":"other"}]},{"lat":"37.371503316","long":"126.94284449","imageIndex":17,"items":[{"name":"GS25금정역점","tel":"031-391-2524","addr":"경기도 군포시 산본동 266-4번지 1층","indutype":"유통업 영리 - 편 의 점","category":"other"},{"name":"컴퓨터마을","tel":"031-398-3119","addr":"경기도 군포시 산본동 266-4번지","indutype":"사무통신 - 컴퓨터","category":"other"}]},{"lat":"37.359089705","long":"126.93092336","imageIndex":17,"items":[{"name":"GS25산본거성점","tel":"","addr":"경기도 군포시 산본동 1139-3번지 거성빌딩1차 105~106호","indutype":"유통업 영리 - 편 의 점","category":"other"},{"name":"아로마포미","tel":"031-395-6532","addr":"경기도 군포시 산본동 1139-3번지 거성1차 5층 501호","indutype":"회원제형태 - 기타1","category":"other"},{"name":"예치과기공소","tel":"031-399-2859","addr":"경기도 군포시 산본동 1139-3번지 거성1차 403호","indutype":"기타 - 기타 전문점","category":"other"},{"name":"코코로마켓","tel":"02-3281-4079","addr":"경기도 군포시 산본동 1139-3번지 거성빌딩1차 지하1층 1,2호","indutype":"의류 - 정장","category":"other"}]},{"lat":"37.359946934","long":"126.93303335","imageIndex":17,"items":[{"name":"GS25산본경원","tel":"031-399-2526","addr":"경기도 군포시 산본동 1126번지 경원빌딩 1층","indutype":"유통업 영리 - 편 의 점","category":"other"},{"name":"법무사윤재진사무소","tel":"031-396-7500","addr":"경기도 군포시 산본동 1126번지 경원빌딩2층5호","indutype":"용역 서비스 - 법률회계서비스(개인)","category":"other"},{"name":"아톰문구센타","tel":"031-395-6492","addr":"경기도 군포시 산본동 1126번지 경원빌딩 5층 501호 502호","indutype":"서적문구 - 문구용품","category":"other"},{"name":"우림세무회계사무소","tel":"031-395-9900","addr":"경기도 군포시 산본동 1126번지 경원빌딩 605호","indutype":"용역 서비스 - 법률회계서비스(개인)","category":"other"}]},{"lat":"37.364666427","long":"126.93001496","imageIndex":17,"items":[{"name":"GS25산본대림점","tel":"","addr":"경기도 군포시 산본동 1099-4번지 대림타운 105~106호","indutype":"유통업 영리 - 편 의 점","category":"other"},{"name":"네오클래식스튜디오","tel":"031-394-4774","addr":"경기도 군포시 산본동 1099-4번지 대림타운 504호","indutype":"광학제품 - 사진관","category":"other"}]},{"lat":"37.368644764","long":"126.93839888","imageIndex":17,"items":[{"name":"GS25산본삼성점","tel":"","addr":"경기도 군포시 산본동 225-1번지","indutype":"유통업 영리 - 편 의 점","category":"other"}]},{"lat":"37.372888625","long":"126.93856459","imageIndex":17,"items":[{"name":"GS25산본스타점","tel":"02-2006-2485","addr":"경기도 군포시 산본동 80-5번지","indutype":"유통업 영리 - 편 의 점","category":"other"},{"name":"하나인테리어","tel":"031-398-3331","addr":"경기도 군포시 산본동 80-5번지","indutype":"직물 - 카페트,커튼,천막,지물","category":"other"}]},{"lat":"37.359585194","long":"126.93081001","imageIndex":17,"items":[{"name":"GS25산본우정점","tel":"","addr":"경기도 군포시 산본동 1138번지 우정빌딩 1층 102호","indutype":"유통업 영리 - 편 의 점","category":"other"},{"name":"슬램비트","tel":"070-4194-3456","addr":"경기도 군포시 산본동 1138번지 우정빌딩 지하1층","indutype":"용역 서비스 - 종합용역","category":"other"}]},{"lat":"37.36308778","long":"126.92703639","imageIndex":17,"items":[{"name":"GS25산본주몽점","tel":"02-2006-2485","addr":"경기도 군포시 산본동 1120-6 주공@상가101호","indutype":"유통업 영리 - 편 의 점","category":"other"}]},{"lat":"37.359585903","long":"126.93198393","imageIndex":17,"items":[{"name":"GS25산본중앙점","tel":"","addr":"경기도 군포시 산본동 1134번지 센타빌딩 1층 4호","indutype":"유통업 영리 - 편 의 점","category":"other"},{"name":"꽃피는관리실","tel":"031-391-7570","addr":"경기도 군포시 산본동 1134번지 센타A빌딩4층6호","indutype":"회원제형태 - 기타4","category":"other"},{"name":"블리스스파앤에스테틱","tel":"031-391-8782","addr":"경기도 군포시 산본동 1134번지 센터빌딩A빌딩 4층 5호 6호","indutype":"회원제형태 - 기타4","category":"other"},{"name":"커피랑도서관 산본점","tel":"070-7767-1140","addr":"경기도 군포시 산본동 1134번지 센타빌딩 7층 701호","indutype":"용역 서비스 - 사무서비스","category":"other"},{"name":"투마이스텔레콤","tel":"031-396-4011","addr":"경기도 군포시 산본동 1134번지 A동 1층 센터 제3호","indutype":"사무통신 - 통신기기","category":"other"},{"name":"폰케이스몰","tel":"031-398-2242","addr":"경기도 군포시 산본동 1134번지 센터빌딩 1층 109호","indutype":"신변잡화 - 액세서리","category":"other"}]},{"lat":"37.372111897","long":"126.93523483","imageIndex":17,"items":[{"name":"GS25산본타운","tel":"031-392-1603","addr":"경기도 군포시 산본동 1060번지 산본타운빌딩 103동 104호","indutype":"유통업 영리 - 편 의 점","category":"other"},{"name":"M.K휘트니스","tel":"031-393-1334","addr":"경기도 군포시 산본동 1060번지 701호","indutype":"회원제형태 - 레져업소","category":"other"},{"name":"다니코코","tel":"031-392-3391","addr":"경기도 군포시 산본동 1060번지 208호","indutype":"의류 - 정장","category":"other"},{"name":"더라인필라테스","tel":"031-393-3327","addr":"경기도 군포시 산본동 1060번지 산본타운 403호","indutype":"회원제형태 - 레져업소","category":"other"},{"name":"던컴퍼니","tel":"031-349-2086","addr":"경기도 군포시 산본동 1060번지 산본타운빌딩 503호","indutype":"사무통신 - 통신기기","category":"other"},{"name":"미(  )주얼리","tel":"031-396-1966","addr":"경기도 군포시 산본동 1060번지 102호","indutype":"신변잡화 - 시계","category":"other"},{"name":"삼둥이네옷수선","tel":"031-000-0000","addr":"경기도 군포시 산본동 1060번지 산본타운 2층 207호","indutype":"수리서비스 - 세탁소","category":"other"},{"name":"소품꾸러미","tel":"031-456-1698","addr":"경기도 군포시 산본동 1060번지 우리은행 1층 108호","indutype":"가구 - 기타가구","category":"other"},{"name":"아이보람","tel":"031-399-8919","addr":"경기도 군포시 산본동 1060번지 5층 501호","indutype":"회원제형태 - 서적","category":"other"},{"name":"아이보람성균관센터 주식회사(지점)","tel":"031-399-8919","addr":"경기도 군포시 산본동 1060번지 501호 아이보람,산본지점","indutype":"서적문구 - 일반서적","category":"other"},{"name":"오징어촌에스.브이","tel":"031-391-1884","addr":"경기도 군포시 산본동 1060번지 산본타운빌딩 305호","indutype":"건축자재 - 인테리어전문","category":"other"},{"name":"이슈","tel":"031-398-2053","addr":"경기도 군포시 산본동 1060번지 산본타운 111호","indutype":"신변잡화 - 기타잡화","category":"other"},{"name":"이은꽃방","tel":"031-391-0507","addr":"경기도 군포시 산본동 1060번지 산본타운 109호","indutype":"문화.취미 - 화원","category":"other"},{"name":"조은요양원","tel":"031-397-9988","addr":"경기도 군포시 산본동 1060번지 산본타운 801호","indutype":"기타의료기관 - 기타의료기관 및 기타","category":"other"},{"name":"타이피아나나","tel":"","addr":"경기도 군포시 산본동 1060번지 3층 303호","indutype":"신변잡화 - 기타잡화","category":"other"},{"name":"한우리독서군포지부","tel":"031-396-1949","addr":"경기도 군포시 산본동 1060번지 404호","indutype":"회원제형태 - 서적","category":"other"}]},{"lat":"37.369337061","long":"126.93573404","imageIndex":17,"items":[{"name":"IGA 산본온누리점/삼성하이어스점","tel":"070-4231-6619","addr":"경기도 군포시 산본동 208 래미안하이어스단지내상가 147-105","indutype":"유통업 영리 - 편 의 점","category":"other"}]},{"lat":"37.356387917","long":"126.91914208","imageIndex":17,"items":[{"name":"JOYLEEENTERPRISE","tel":"031-551-0051","addr":"경기도 군포시 산본동 1151-5번지 한양수리아파트","indutype":"신변잡화 - 신발","category":"other"}]},{"lat":"37.372475924","long":"126.94189538","imageIndex":17,"items":[{"name":"J노래뮤비방","tel":"031-394-2700","addr":"경기도 군포시 산본동 98-11번지 금본빌딩 2층","indutype":"용역 서비스 - 종합용역","category":"other"}]},{"lat":"37.369346701","long":"126.93685166","imageIndex":17,"items":[{"name":"KS정보통신","tel":"031-8033-9879","addr":"경기도 군포시 산본동 1240번지 래미안하이어스 101동 2803호","indutype":"사무통신 - 통신기기","category":"other"}]},{"lat":"37.36300063","long":"126.93178882","imageIndex":17,"items":[{"name":"KT(가입비/단말기대금)","tel":"032-651-0200","addr":"경기도 군포시 산본동 1096-3번지","indutype":"기타 - 기타 전문점","category":"other"},{"name":"KT(통신요금납부)","tel":"032-651-0200","addr":"경기도 군포시 산본동 1096-3번지","indutype":"용역 서비스 - 공공요금대행서비스/소","category":"other"}]},{"lat":"37.374753461","long":"126.93808882","imageIndex":17,"items":[{"name":"LG공사","tel":"031-394-7392","addr":"경기도 군포시 산본동 49-16번지","indutype":"용역 서비스 - 기타용역서비스","category":"other"}]},{"lat":"37.359639529","long":"126.93126147","imageIndex":17,"items":[{"name":"M.S텔레콤","tel":"031-399-6011","addr":"경기도 군포시 산본동 1136-2번지 삼일빌딩 101호","indutype":"사무통신 - 통신기기","category":"other"},{"name":"골드필산본점","tel":"031-392-2345","addr":"경기도 군포시 산본동 1136-2번지 삼일빌딩 1층 106호","indutype":"신변잡화 - 액세서리","category":"other"},{"name":"까메오","tel":"031-395-0605","addr":"경기도 군포시 산본동 1136-2번지 중심상업지구삼일 B동 102호","indutype":"신변잡화 - 액세서리","category":"other"},{"name":"베일리수","tel":"031-396-1805","addr":"경기도 군포시 산본동 1136-2번지 삼일빌딩 5층","indutype":"광학제품 - 사진관","category":"other"},{"name":"폴리비아","tel":"031-399-7855","addr":"경기도 군포시 산본동 1136-2번지 삼일빌딩 1층 8호","indutype":"의류 - 정장","category":"other"}]},{"lat":"37.357949219","long":"126.92282006","imageIndex":17,"items":[{"name":"MK몰","tel":"070-7857-7008","addr":"경기도 군포시 산본동 1151-5번지 한양수리아파트","indutype":"회원제형태 - 기타4","category":"other"},{"name":"케이크슬라임","tel":"","addr":"경기도 군포시 산본동 1151-5번지 한양수리아파트","indutype":"서적문구 - 완구점","category":"other"}]},{"lat":"37.374436893","long":"126.93591014","imageIndex":17,"items":[{"name":"SKY ENG.","tel":"031-346-5779","addr":"경기도 군포시 산본동 1055번지 매화아파트","indutype":"기타 - 기계공구","category":"other"}]},{"lat":"37.375755032","long":"126.9407863","imageIndex":17,"items":[{"name":"SMTM","tel":"031-395-2312","addr":"경기도 군포시 산본동 75-59번지 1층","indutype":"의류 - 기타의류","category":"other"},{"name":"이수건축사사무소","tel":"031-445-2662","addr":"경기도 군포시 산본동 75-59번지 207호","indutype":"용역 서비스 - 사무서비스","category":"other"}]},{"lat":"37.37133905","long":"126.93887073","imageIndex":17,"items":[{"name":"SOHO(소호)","tel":"031-398-9172","addr":"경기도 군포시 산본동 90번지","indutype":"의류 - 정장","category":"other"},{"name":"현대종합철물상사","tel":"031-397-1913","addr":"경기도 군포시 산본동 90번지","indutype":"기타 - 기계공구","category":"other"}]},{"lat":"37.370330671","long":"126.94028275","imageIndex":17,"items":[{"name":"TCG백화점","tel":"070-8186-2199","addr":"경기도 군포시 산본동 238-1번지 3층","indutype":"서적문구 - 문구용품","category":"other"},{"name":"성화전기조명","tel":"031-395-0003","addr":"경기도 군포시 산본동 238-1번지","indutype":"건축자재 - 조명기구","category":"other"},{"name":"야시","tel":"031-429-7245","addr":"경기도 군포시 산본동 238-1번지 1층","indutype":"의류 - 정장","category":"other"}]},{"lat":"37.367447258","long":"126.92484196","imageIndex":17,"items":[{"name":"THE.CHEAPEST","tel":"0505-376-2002","addr":"경기도 군포시 산본동 1110-4번지 202호","indutype":"레져용품 - 스포츠·레져용품","category":"other"}]},{"lat":"37.359255406","long":"126.92240103","imageIndex":17,"items":[{"name":"The one 맞춤운동센터","tel":"070-4184-5735","addr":"경기도 군포시 산본동 1151번지 GS휘트니스클럽빌딩1층111-3호","indutype":"회원제형태 - 레져업소","category":"other"},{"name":"위드요가","tel":"031-398-8983","addr":"경기도 군포시 산본동 1151번지 그린프라자 1층 111-2호","indutype":"회원제형태 - 레져업소","category":"other"},{"name":"지에스(GS)휘트니스","tel":"031-399-3135","addr":"경기도 군포시 산본동 1151번지 GS휘트니스클럽빌딩201호202호","indutype":"회원제형태 - 레져업소","category":"other"}]},{"lat":"37.362636939","long":"126.92651759","imageIndex":17,"items":[{"name":"UWA UWA(우와우와)","tel":"070-4110-7799","addr":"경기도 군포시 산본동 1146번지 솔거(대림)아파트","indutype":"용역 서비스 - 기타용역서비스","category":"other"}]},{"lat":"37.359333334","long":"126.93151009","imageIndex":17,"items":[{"name":"Yogahimsa","tel":"031-399-7885","addr":"경기도 군포시 산본동 1135번지 광림빌딩 6층 604호","indutype":"회원제형태 - 레져업소","category":"other"},{"name":"광림당","tel":"031-396-4494","addr":"경기도 군포시 산본동 1135번지 광림프라자 305호","indutype":"기타 - 기타 전문점","category":"other"},{"name":"산본문구","tel":"031-391-7188","addr":"경기도 군포시 산본동 1135번지 광림빌딩 203호","indutype":"서적문구 - 문구용품","category":"other"},{"name":"슈즈몰","tel":"031-396-2335","addr":"경기도 군포시 산본동 1135번지 광림빌딩 104호","indutype":"신변잡화 - 신발","category":"other"},{"name":"제이스크린골프","tel":"031-394-6100","addr":"경기도 군포시 산본동 1135광림빌딩701호~703호","indutype":"회원제형태 - 레져업소","category":"other"},{"name":"진명주얼리","tel":"031-397-9900","addr":"경기도 군포시 산본동 1135번지 광림빌딩 108호","indutype":"신변잡화 - 액세서리","category":"other"},{"name":"진진갤러리&카페","tel":"031-398-1735","addr":"경기도 군포시 산본동 1135번지 광림빌딩 704호","indutype":"문화.취미 - 화방·표구점","category":"other"}]},{"lat":"37.343508935","long":"126.92738336","imageIndex":17,"items":[{"name":"가가열쇠","tel":"031-392-7713","addr":"경기도 군포시 산본동 1156-15번지 한라4단지주공아파트","indutype":"기타 - 기계공구","category":"other"}]},{"lat":"37.349418991","long":"126.92642941","imageIndex":17,"items":[{"name":"가까운철물점","tel":"031-398-0488","addr":"경기도 군포시 산본동 1156-8번지","indutype":"건축자재 - 목재·석재·철물","category":"other"},{"name":"하나인테리어","tel":"031-397-4624","addr":"경기도 군포시 산본동 1156-8번지 한라주공 상가 110-6호","indutype":"건축자재 - 인테리어전문","category":"other"}]},{"lat":"37.372556172","long":"126.9402809","imageIndex":17,"items":[{"name":"가나수족관","tel":"032-523-6825","addr":"경기도 군포시 산본동 94-28번지 B05호","indutype":"문화.취미 - 수족관","category":"other"}]},{"lat":"37.351751626","long":"126.92490336","imageIndex":17,"items":[{"name":"가야인테리어","tel":"031-397-5588","addr":"경기도 군포시 산본동 1155-1번지 가야주공 종합상가 103호","indutype":"직물 - 카페트,커튼,천막,지물","category":"other"},{"name":"제일세탁소","tel":"031-392-6653","addr":"경기도 군포시 산본동 1155-1번지 가야 종합상가 207호","indutype":"수리서비스 - 세탁소","category":"other"}]},{"lat":"37.370085883","long":"126.93748321","imageIndex":17,"items":[{"name":"가연","tel":"031-396-7317","addr":"경기도 군포시 산본동 216-5번지 1층 101호","indutype":"의류 - 정장","category":"other"}]},{"lat":"37.364999864","long":"126.93011623","imageIndex":17,"items":[{"name":"가온요양원","tel":"031-393-9610","addr":"경기도 군포시 산본동 1094-1번지 산호프라자 2,3층","indutype":"기타의료기관 - 기타의료기관 및 기타","category":"other"}]},{"lat":"37.373054167","long":"126.92890045","imageIndex":17,"items":[{"name":"가온유리샷시전문점","tel":"031-389-6285","addr":"경기도 군포시 산본동 1077-2번지 102호","indutype":"건축자재 - 유리","category":"other"},{"name":"로뎀나무공방","tel":"070-8112-8271","addr":"경기도 군포시 산본동 1077-2","indutype":"문화.취미 - 문화취미기타","category":"other"},{"name":"정피부","tel":"031-396-5621","addr":"경기도 군포시 산본동 1077-2번지 101호","indutype":"회원제형태 - 기타4","category":"other"}]},{"lat":"37.357314078","long":"126.92989791","imageIndex":17,"items":[{"name":"가위림","tel":"031-461-5353","addr":"경기도 군포시 산본동 1145번지 주공6단지세종아파트","indutype":"신변잡화 - 액세서리","category":"other"}]},{"lat":"37.369365802","long":"126.93881596","imageIndex":17,"items":[{"name":"감성 플러스","tel":"031-396-2129","addr":"경기도 군포시 산본동 224-9번지 1층","indutype":"의류 - 정장","category":"other"},{"name":"크로커다일 금정점","tel":"031-391-9321","addr":"경기도 군포시 산본동 224-9번지","indutype":"레져용품 - 스포츠·레져용품","category":"other"}]},{"lat":"37.372866188","long":"126.93089891","imageIndex":17,"items":[{"name":"개나리문구","tel":"031-397-2511","addr":"경기도 군포시 산본동 1066-3번지 개나리상가 110호","indutype":"서적문구 - 문구용품","category":"other"}]},{"lat":"37.359451309","long":"126.93292093","imageIndex":17,"items":[{"name":"거꾸로가는음악시간","tel":"031-111-1111","addr":"경기도 군포시 산본동 1129-1번지 럭키빌딩 5층 502호","indutype":"레져용품 - 음반/영상물","category":"other"},{"name":"봄날애공방","tel":"031-391-6100","addr":"경기도 군포시 산본동 1129-1번지 럭키빌딩 305호","indutype":"문화.취미 - 문화취미기타","category":"other"},{"name":"에스엘씨티","tel":"031-349-8904","addr":"경기도 군포시 산본동 1129-1번지 럭키빌딩 지하 105호","indutype":"전기제품 - 기타전기제품","category":"other"},{"name":"주식회사 준성","tel":"031-349-0777","addr":"경기도 군포시 산본동 1129-1번지 럭키빌딩 504호","indutype":"신변잡화 - 기타잡화","category":"other"},{"name":"퓨전텍","tel":"031-392-8906","addr":"경기도 군포시 산본동 1129-1번지 럭키빌딩 407호","indutype":"사무통신 - 통신기기","category":"other"}]},{"lat":"37.359415108","long":"126.93265006","imageIndex":17,"items":[{"name":"거산장식","tel":"031-96-1331","addr":"경기도 군포시 산본동 산본프라자 108호","indutype":"직물 - 카페트,커튼,천막,지물","category":"other"},{"name":"멀티샵","tel":"031-392-8432","addr":"경기도 군포시 산본동 1129-2번지 산본플라자 지하동1층 B01~35호 (B21,22제외)","indutype":"신변잡화 - 기타잡화","category":"other"},{"name":"씽씽에어컨","tel":"","addr":"경기도 군포시 산본동 1129-2번지 산본플라자 517호","indutype":"용역 서비스 - 기타용역서비스","category":"other"}]},{"lat":"37.375637942","long":"126.94086542","imageIndex":17,"items":[{"name":"건영인테리어타일","tel":"031-399-2528","addr":"경기도 군포시 산본동 75-60번지","indutype":"건축자재 - 건축용 요업제품","category":"other"},{"name":"유강앵글콤비락","tel":"031-396-0002","addr":"경기도 군포시 산본동 75-60번지","indutype":"건축자재 - 기타건축자재","category":"other"}]},{"lat":"37.35239277","long":"126.9270923","imageIndex":17,"items":[{"name":"경기도청/군포소방서예방과","tel":"031-479-8223","addr":"경기도 군포시 산본동 1156번지 군포소방서 1층 민원실","indutype":"용역 서비스 - 사무서비스","category":"other"}]},{"lat":"37.36803943","long":"126.9354304","imageIndex":17,"items":[{"name":"경기정보통신","tel":"031-384-2000","addr":"경기도 군포시 산본동 1240번지 래미안하이어스","indutype":"사무통신 - 통신기기","category":"other"},{"name":"한경희생활정수기관리군포점","tel":"031-431-3294","addr":"경기도 군포시 산본동 1240번지 래미안하이어스 107동 1003호","indutype":"회원제형태 - 기타4","category":"other"}]},{"lat":"37.360531799","long":"126.93170084","imageIndex":17,"items":[{"name":"경희모던리허설센타","tel":"031-392-7373","addr":"경기도 군포시 산본동 1132-3성진빌딩601호~602호","indutype":"회원제형태 - 기타4","category":"other"},{"name":"경희모던실용음악학원","tel":"031-392-9009","addr":"경기도 군포시 산본동 1132-3번지 성진빌딩 602호","indutype":"회원제형태 - 기타3","category":"other"},{"name":"민'S Quilt","tel":"","addr":"경기도 군포시 산본동 1132-3번지 성진빌딩 703호","indutype":"직물 - 침구·수예점","category":"other"},{"name":"비에이블 스터디카페 산본센타","tel":"02-854-8255","addr":"경기도 군포시 산본동 1132-3번지 5층 501,502호","indutype":"용역 서비스 - 사무서비스","category":"other"},{"name":"피자헛(산본점)","tel":"031-393-6688","addr":"경기도 군포시 산본동 1132-3번지 성진빌딩 201동 202호","indutype":"유통업 영리 - 인터넷 Mall","category":"other"},{"name":"휴앤미에스떼","tel":"031-397-7770","addr":"경기도 군포시 산본동 1132-3번지 성진빌딩 15층 502호","indutype":"회원제형태 - 기타4","category":"other"}]},{"lat":"37.37416957","long":"126.94139726","imageIndex":17,"items":[{"name":"골드기획","tel":"031-397-3306","addr":"경기도 군포시 산본동 79-59번지","indutype":"서적문구 - 출판 및 인쇄물","category":"other"}]},{"lat":"37.358477507","long":"126.93173665","imageIndex":17,"items":[{"name":"골드쉘 군포산본점","tel":"031-399-9753","addr":"경기도 군포시 산본동 1141-1번지 청진빌딩 1층 4호","indutype":"신변잡화 - 귀금속","category":"other"},{"name":"예인사","tel":"031-394-4648","addr":"경기도 군포시 산본동 1141-1번지","indutype":"기타 - 기계공구","category":"other"},{"name":"옥산","tel":"031-397-7425","addr":"경기도 군포시 산본동 1141-1번지 청진빌딩 803호","indutype":"문화.취미 - 화원","category":"other"}]},{"lat":"37.371331598","long":"126.94181728","imageIndex":17,"items":[{"name":"골드퀸","tel":"031-391-4838","addr":"경기도 군포시 산본동 265-6번지 세환타워 101호","indutype":"신변잡화 - 귀금속","category":"other"},{"name":"주식회사 세환하우징","tel":"031-391-7985","addr":"경기도 군포시 산본동 265-6번지 세환타워 1001호","indutype":"건축자재 - 인테리어전문","category":"other"}]},{"lat":"37.370944825","long":"126.94311588","imageIndex":17,"items":[{"name":"골드팜","tel":"031-398-1814","addr":"경기도 군포시 산본동 266-9번지","indutype":"신변잡화 - 액세서리","category":"other"}]},{"lat":"37.368075335","long":"126.9351933","imageIndex":17,"items":[{"name":"공간인테리어","tel":"031-391-7702","addr":"경기도 군포시 산본동 1240번지 래미안 하이어스 아파트 상가(145동) 1층 1101호","indutype":"건축자재 - 인테리어전문","category":"other"},{"name":"니니홈(nyny home)","tel":"031-398-0308","addr":"경기도 군포시 산본동 1240번지 래미안하이어스상가(146동) 2102호","indutype":"의류 - 정장","category":"other"},{"name":"래미안세탁소","tel":"031-399-8818","addr":"경기도 군포시 산본동 1240번지 래미안 하이어스 아파트 상가(145동) 147동 3114호","indutype":"수리서비스 - 세탁소","category":"other"},{"name":"산본래미안하이어스아파트입주자대표회의","tel":"031-397-1065","addr":"경기도 군포시 산본동 1240번지 래미안하이어스","indutype":"용역 서비스 - 사무서비스","category":"other"}]},{"lat":"37.36009022","long":"126.93156581","imageIndex":17,"items":[{"name":"공연기획NJ","tel":"070-7543-1102","addr":"경기도 군포시 산본동 1133-1번지 성보빌딩 304호,305호","indutype":"용역 서비스 - 종합용역","category":"other"},{"name":"껍딱","tel":"","addr":"경기도 군포시 산본동 1133-1번지 성보빌딩 1층 102호","indutype":"신변잡화 - 기타잡화","category":"other"},{"name":"미스터포토산본점","tel":"031-399-1615","addr":"경기도 군포시 산본동 1133-1번지 성보빌딩 3층 306호","indutype":"광학제품 - 사진관","category":"other"},{"name":"미치코런던","tel":"031-391-4991","addr":"경기도 군포시 산본동 1133-1번지 성보빌딩 205호,206호","indutype":"의류 - 단체복","category":"other"},{"name":"서울ent 산본점","tel":"031-399-7920","addr":"경기도 군포시 산본동 1133-1번지 성보빌딩 1층 103,104,105호","indutype":"사무통신 - 통신기기","category":"other"},{"name":"크리스챤백화점","tel":"031-396-1925","addr":"경기도 군포시 산본동 1133-1 성보빌딩304호~305호","indutype":"서적문구 - 전문서적","category":"other"}]},{"lat":"37.35575897","long":"126.9216711","imageIndex":17,"items":[{"name":"과천장제소","tel":"031-477-3832","addr":"경기도 군포시 산본동 1152-7번지 계룡아파트","indutype":"회원제형태 - 기타4","category":"other"}]},{"lat":"37.370311347","long":"126.93786685","imageIndex":17,"items":[{"name":"광명그릇","tel":"031-397-1643","addr":"경기도 군포시 산본동 218-4번지 (91호)","indutype":"신변잡화 - 기타잡화","category":"other"},{"name":"은선상회","tel":"031-393-6603","addr":"경기도 군포시 산본동 218-4번지","indutype":"의류 - 내의판매","category":"other"}]},{"lat":"37.359449911","long":"126.93059567","imageIndex":17,"items":[{"name":"구멍가게","tel":"","addr":"경기도 군포시 산본동 1138-3번지 씨티프라자 1층 101호","indutype":"신변잡화 - 액세서리","category":"other"}]},{"lat":"37.374140562","long":"126.93770549","imageIndex":17,"items":[{"name":"구일엔지니어링","tel":"031-391-9166","addr":"경기도 군포시 산본동 49-15번지 4층","indutype":"기타 - 기타 전문점","category":"other"},{"name":"동운씽크","tel":"031-454-0308","addr":"경기도 군포시 산본동 49-15번지 지하1층","indutype":"주방용구 - 주방용구","category":"other"},{"name":"미래TF","tel":"031-392-0027","addr":"경기도 군포시 산본동 49-15번지 지하1층","indutype":"주방용구 - 주방용구","category":"other"},{"name":"봄디자인컴퍼니","tel":"031-454-3334","addr":"경기도 군포시 산본동 49-15번지 2층","indutype":"서적문구 - 출판 및 인쇄물","category":"other"}]},{"lat":"37.370780823","long":"126.9396163","imageIndex":17,"items":[{"name":"구제천국","tel":"031-391-8022","addr":"경기도 군포시 산본동 91-4번지","indutype":"의류 - 정장","category":"other"}]},{"lat":"37.368226972","long":"126.93256283","imageIndex":17,"items":[{"name":"국제상사","tel":"031-1899-1587","addr":"경기도 군포시 산본동 1063번지 백합아파트","indutype":"회원제형태 - 기타4","category":"other"}]},{"lat":"37.37181122","long":"126.9296242","imageIndex":17,"items":[{"name":"군포, 안양 중앙센터","tel":"031-111-1111","addr":"경기도 군포시 산본동 1084-5번지 1층","indutype":"용역 서비스 - 기타용역서비스","category":"other"}]},{"lat":"37.365666034","long":"126.92917863","imageIndex":17,"items":[{"name":"군포농업협동조합","tel":"031-396-9922","addr":"경기도 군포시 산본동 1099번지","indutype":"유통업 비영리 - 농,축협 직영매장","category":"other"},{"name":"군포농업협동조합","tel":"031-396-9922","addr":"경기도 군포시 산본동 1099번지","indutype":"유통업 비영리 - 농,축협 직영매장","category":"other"}]},{"lat":"37.36980655","long":"126.93744959","imageIndex":17,"items":[{"name":"군포농협중앙지점","tel":"031-393-4700","addr":"경기도 군포시 산본동 216-16번지","indutype":"유통업 비영리 - 농,축협 직영매장","category":"other"}]},{"lat":"37.358811236","long":"126.91856373","imageIndex":17,"items":[{"name":"군포시건강가정지원센터/아이돌봄","tel":"031-392-1816","addr":"경기도 군포시 산본동 1151-10번지 슬기관 1층","indutype":"기타 - 비영리/대상","category":"other"},{"name":"주식회사메이븐에듀케이션","tel":"070-7117-6111","addr":"경기도 군포시 산본동 1151-10번지 군포국제교육센터 교육동3층","indutype":"회원제형태 - 서적","category":"other"},{"name":"주식회사플로우수학","tel":"02-2093-7101","addr":"경기도 군포시 산본동 1151-10번지","indutype":"서적문구 - 기타서적문구","category":"other"}]},{"lat":"37.349391616","long":"126.92589899","imageIndex":17,"items":[{"name":"군포오금동우체국","tel":"031-391-2005","addr":"경기도 군포시 산본동 1156-7번지","indutype":"용역 서비스 - 공공요금대행서비스/소","category":"other"},{"name":"행구닷컴","tel":"031-000-0000","addr":"경기도 군포시 산본동 1156-7번지","indutype":"신변잡화 - 기타잡화","category":"other"}]},{"lat":"37.358422954","long":"126.930924","imageIndex":17,"items":[{"name":"군포플라워(Flower)","tel":"031-444-4455","addr":"경기도 군포시 산본동 1143-3번지 신산본빌딩 105동 106호","indutype":"문화.취미 - 화원","category":"other"},{"name":"누리사이언스","tel":"031-381-7724","addr":"경기도 군포시 산본동 1143-3번지 신산본빌딩 804호","indutype":"기타 - 기계공구","category":"other"},{"name":"아니(ANI)","tel":"02-424-9922","addr":"경기도 군포시 산본동 1143-3번지 신산본빌딩 1층 103호","indutype":"가구 - 기타가구","category":"other"},{"name":"아름방군포점","tel":"031-392-3311","addr":"경기도 군포시 산본동 1143-3번지 신산본빌딩 203동 204호","indutype":"의류 - 맞춤복점","category":"other"}]},{"lat":"37.359561334","long":"126.92179117","imageIndex":17,"items":[{"name":"궁내동주민자치위원회","tel":"031-390-8538","addr":"경기도 군포시 산본동 1148-7번지","indutype":"문화.취미 - 문화취미기타","category":"other"}]},{"lat":"37.374998212","long":"126.94084337","imageIndex":17,"items":[{"name":"귀빈쥬얼리","tel":"031-393-3294","addr":"경기도 군포시 산본동 75-49번지 인베스텔 125호","indutype":"신변잡화 - 귀금속","category":"other"}]},{"lat":"37.358143789","long":"126.91759375","imageIndex":17,"items":[{"name":"그래공조","tel":"070-7622-2861","addr":"경기도 군포시 산본동 1151-9번지 설악아파트","indutype":"용역 서비스 - 기타용역서비스","category":"other"}]},{"lat":"37.357631124","long":"126.91886981","imageIndex":17,"items":[{"name":"그래머시 키친","tel":"031-441-6897","addr":"경기도 군포시 산본동 1151-9번지 설악아파트","indutype":"유통업 영리 - 기타유통업","category":"other"}]},{"lat":"37.372249551","long":"126.93976183","imageIndex":17,"items":[{"name":"그루터기","tel":"031-399-7886","addr":"경기도 군포시 산본동 94-42번지 1층","indutype":"의류 - 기타의류","category":"other"}]},{"lat":"37.371890677","long":"126.94269741","imageIndex":17,"items":[{"name":"그린타이","tel":"031-452-2351","addr":"경기도 군포시 산본동 266-1번지 두성빌딩 4층","indutype":"신변잡화 - 기타잡화","category":"other"}]},{"lat":"37.359450131","long":"126.93095688","imageIndex":17,"items":[{"name":"그림","tel":"031-399-2998","addr":"경기도 군포시 산본동 1138-1번지 거성3차빌딩 105호","indutype":"의류 - 정장","category":"other"},{"name":"보부상","tel":"031-394-9300","addr":"경기도 군포시 산본동 1138-1번지 거성3차빌딩 103호","indutype":"의류 - 내의판매","category":"other"},{"name":"사단법인좋은친구","tel":"031-398-8001","addr":"경기도 군포시 산본동 1138-1번지 거성3차 6층","indutype":"기타 - 비영리/대상","category":"other"},{"name":"산본스포츠","tel":"031-398-7776","addr":"경기도 군포시 산본동 1138-1번지 거성3차 104호","indutype":"레져용품 - 스포츠·레져용품","category":"other"},{"name":"에스까다코스메틱","tel":"031-392-0146","addr":"경기도 군포시 산본동 1138-1번지 거성3차 403호","indutype":"회원제형태 - 기타4","category":"other"},{"name":"준상사","tel":"031-397-9229","addr":"경기도 군포시 산본동 1138-1번지 거성3차빌딩 1층 105호","indutype":"의류 - 정장","category":"other"},{"name":"준스포츠","tel":"031-397-7077","addr":"경기도 군포시 산본동 1138-1번지 거성3차빌딩 102호","indutype":"레져용품 - 스포츠·레져용품","category":"other"}]},{"lat":"37.358784398","long":"126.93265065","imageIndex":17,"items":[{"name":"그림편지","tel":"","addr":"경기도 군포시 산본동 1142-12번지 5층 501호 군포 상가","indutype":"광학제품 - 사진관","category":"other"},{"name":"다인","tel":"031-398-9888","addr":"경기도 군포시 산본동 1142-12번지 군포상가 8층 805호","indutype":"사무통신 - 통신기기","category":"other"},{"name":"산본무도장","tel":"031-399-3303","addr":"경기도 군포시 산본동 1142-12 군포상가지하1층","indutype":"회원제형태 - 레져업소","category":"other"},{"name":"서순종세무회계사무소","tel":"031-395-4412","addr":"경기도 군포시 산본동 1142-12번지 군포상가 701호","indutype":"용역 서비스 - 법률회계서비스(개인)","category":"other"},{"name":"올리비아로렌산본점","tel":"031-393-1117","addr":"경기도 군포시 산본동 1142-12번지 군포상가 106호","indutype":"레져용품 - 스포츠·레져용품","category":"other"},{"name":"중고폰파손액정매입아프리카폰군포산본점","tel":"031-451-7929","addr":"경기도 군포시 산본동 1142-12번지 군포상가 705호-2호","indutype":"사무통신 - 통신기기","category":"other"}]},{"lat":"37.358639095","long":"126.93075448","imageIndex":17,"items":[{"name":"극단찰리(찰리매직)","tel":"031-423-0561","addr":"경기도 군포시 산본동 1143-2번지 우주타운2홀 210호","indutype":"문화.취미 - 티켓","category":"other"},{"name":"리더스교복(F/S아일랜드)","tel":"031-394-0449","addr":"경기도 군포시 산본동 1143-2번지 우주타운 2층 205호","indutype":"의류 - 단체복","category":"other"},{"name":"산본뮤직복싱","tel":"031-391-1212","addr":"경기도 군포시 산본동 1143-2번지 산본우주타운지하층, 7","indutype":"회원제형태 - 레져업소","category":"other"},{"name":"산본옷수선","tel":"031-398-5683","addr":"경기도 군포시 산본동 1143-2번지 우주타운 203호","indutype":"수리서비스 - 세탁소","category":"other"},{"name":"엘리트산본점","tel":"031-399-1002","addr":"경기도 군포시 산본동 1143-2번지 211.212.213호우주타운","indutype":"의류 - 맞춤복점","category":"other"}]},{"lat":"37.362923082","long":"126.92320986","imageIndex":17,"items":[{"name":"극동세탁소","tel":"031-391-9257","addr":"경기도 군포시 산본동 1119-3 극동상가 203","indutype":"수리서비스 - 세탁소","category":"other"}]},{"lat":"37.370250891","long":"126.94281162","imageIndex":17,"items":[{"name":"근명전기","tel":"031-395-5701","addr":"경기도 군포시 산본동 248-4번지","indutype":"전기제품 - 기타전기제품","category":"other"}]},{"lat":"37.359115637","long":"126.92913989","imageIndex":17,"items":[{"name":"글래드앤홈","tel":"","addr":"경기도 군포시 산본동 1145번지 주공6단지세종아파트","indutype":"신변잡화 - 기타잡화","category":"other"}]},{"lat":"37.368807605","long":"126.93961796","imageIndex":17,"items":[{"name":"금왕인테리어","tel":"031-393-6858","addr":"경기도 군포시 산본동 227-9번지","indutype":"건축자재 - 인테리어전문","category":"other"},{"name":"바른체형운동요법소","tel":"031-399-1008","addr":"경기도 군포시 산본동 227-9번지","indutype":"회원제형태 - 기타4","category":"other"}]},{"lat":"37.37047494","long":"126.94048584","imageIndex":17,"items":[{"name":"금정BYC","tel":"031-391-8568","addr":"경기도 군포시 산본동 238-3번지","indutype":"의류 - 내의판매","category":"other"},{"name":"디오클럽","tel":"031-391-0087","addr":"경기도 군포시 산본동 238-3번지","indutype":"의류 - 정장","category":"other"}]},{"lat":"37.372692068","long":"126.94170328","imageIndex":17,"items":[{"name":"금정역피혁","tel":"031-456-2193","addr":"경기도 군포시 산본동 98-14번지","indutype":"직물 - 기타직물","category":"other"}]},{"lat":"37.36814024","long":"126.93847833","imageIndex":17,"items":[{"name":"금호전기조명주식회사","tel":"031-394-0780","addr":"경기도 군포시 산본동 225-11번지","indutype":"건축자재 - 조명기구","category":"other"},{"name":"예성사","tel":"031-392-3695","addr":"경기도 군포시 산본동 225-11번지 3층","indutype":"용역 서비스 - 종합용역","category":"other"},{"name":"예인인테리어","tel":"031-391-0204","addr":"경기도 군포시 산본동 225-11번지","indutype":"직물 - 카페트,커튼,천막,지물","category":"other"}]},{"lat":"37.376198106","long":"126.94386815","imageIndex":17,"items":[{"name":"기산바이오주식회사","tel":"02-529-2282","addr":"경기도 군포시 산본동 18-31번지","indutype":"서적문구 - 과학기자재","category":"other"}]},{"lat":"37.359918404","long":"126.93053879","imageIndex":17,"items":[{"name":"김감독사진관","tel":"031-393-7133","addr":"경기도 군포시 산본동 1137번지 동화프라자 4층 402호","indutype":"광학제품 - 사진관","category":"other"},{"name":"블럭키즈랜드","tel":"031-399-7008","addr":"경기도 군포시 산본동 1137동화프라자305호~306호","indutype":"서적문구 - 완구점","category":"other"},{"name":"산본미래권투","tel":"031-343-9789","addr":"경기도 군포시 산본동 1137번지 동화빌딩 401호","indutype":"회원제형태 - 레져업소","category":"other"},{"name":"주미에스테틱","tel":"031-394-4356","addr":"경기도 군포시 산본동 1137번지 동화프라자 302호","indutype":"회원제형태 - 기타4","category":"other"}]},{"lat":"37.370392469","long":"126.93792323","imageIndex":17,"items":[{"name":"김경자의류할인매장","tel":"031-395-2238","addr":"경기도 군포시 산본동 218-3번지","indutype":"의류 - 정장","category":"other"},{"name":"이삭의류","tel":"031-394-3080","addr":"경기도 군포시 산본동 218-3번지","indutype":"의류 - 정장","category":"other"}]},{"lat":"37.36991464","long":"126.93739305","imageIndex":17,"items":[{"name":"김창숙부띠끄","tel":"031-111-1111","addr":"경기도 군포시 산본동 216-17번지 1층 101호","indutype":"의류 - 정장","category":"other"},{"name":"윈윈텔레콤","tel":"031-399-7010","addr":"경기도 군포시 산본동 216-17번지 1층 103호","indutype":"사무통신 - 통신기기","category":"other"}]},{"lat":"37.371421205","long":"126.9408689","imageIndex":17,"items":[{"name":"까치통신","tel":"031-397-2226","addr":"경기도 군포시 산본동 92-15번지","indutype":"사무통신 - 통신기기","category":"other"},{"name":"까치통신서울무이자할부","tel":"031-397-2226","addr":"경기도 군포시 산본동 92-15번지","indutype":"사무통신 - 통신기기(무이자할부)","category":"other"}]},{"lat":"37.373892383","long":"126.92933993","imageIndex":17,"items":[{"name":"깔끄미세탁의집","tel":"031-398-9090","addr":"경기도 군포시 산본동 1070번지","indutype":"수리서비스 - 세탁소","category":"other"}]},{"lat":"37.355281833","long":"126.92225854","imageIndex":17,"items":[{"name":"꼴로르(ccollor)","tel":"","addr":"경기도 군포시 산본동 1152-7번지 계룡아파트","indutype":"서적문구 - 문구용품","category":"other"}]},{"lat":"37.375563004","long":"126.93563817","imageIndex":17,"items":[{"name":"꽃꾸미","tel":"031-000-0000","addr":"경기도 군포시 산본동 1055번지 매화아파트","indutype":"문화.취미 - 화원","category":"other"},{"name":"리코디자인(reco design)","tel":"070-8291-1122","addr":"경기도 군포시 산본동 1055번지 매화아파트","indutype":"용역 서비스 - 사무서비스","category":"other"}]},{"lat":"37.359195732","long":"126.92755954","imageIndex":17,"items":[{"name":"꿈누리아트","tel":"","addr":"경기도 군포시 산본동 1145번지 주공6단지세종아파트","indutype":"문화.취미 - 문화취미기타","category":"other"}]},{"lat":"37.368501746","long":"126.94053263","imageIndex":17,"items":[{"name":"꿈드림","tel":"031-391-0807","addr":"경기도 군포시 산본동 1031-4번지","indutype":"용역 서비스 - 종합용역","category":"other"},{"name":"삼흥","tel":"031-454-1822","addr":"경기도 군포시 산본동 1031-4번지 1층","indutype":"서적문구 - 출판 및 인쇄물","category":"other"},{"name":"성예건설(주)","tel":"031-395-3231","addr":"경기도 군포시 산본동 1031-4번지","indutype":"건축자재 - 보일러·펌프·샷시","category":"other"}]},{"lat":"37.360197085","long":"126.92951133","imageIndex":17,"items":[{"name":"나라미래경매(주)","tel":"031-399-8166","addr":"경기도 군포시 산본동 1123-5번지 신원타워빌딩 7층 701호","indutype":"용역 서비스 - 사무서비스","category":"other"},{"name":"보물창고","tel":"031-398-6955","addr":"경기도 군포시 산본동 1123-5비101,102,103,104,105,106","indutype":"신변잡화 - 기타잡화","category":"other"},{"name":"신원보수","tel":"031-399-1212","addr":"경기도 군포시 산본동 1123-5번지 신원타워빌딩 108호","indutype":"용역 서비스 - 기타용역서비스","category":"other"},{"name":"신원전기철물","tel":"031-399-1212","addr":"경기도 군포시 산본동 1123-5번지 신원타워빌딩 108호","indutype":"기타 - 기계공구","category":"other"},{"name":"클로젯","tel":"","addr":"경기도 군포시 산본동 1123-5번지 신원타워빌딩 305호","indutype":"의류 - 정장","category":"other"},{"name":"화산건설(주)","tel":"031-399-2812","addr":"경기도 군포시 산본동 1123-5번지 신원타워 1201호","indutype":"용역 서비스 - 기타용역서비스","category":"other"}]},{"lat":"37.369824269","long":"126.93690769","imageIndex":17,"items":[{"name":"나르지오","tel":"031-391-8383","addr":"경기도 군포시 산본동 1240번지 래미안하이어스 상가 145동 1103호","indutype":"레져용품 - 스포츠·레져용품","category":"other"},{"name":"도무스 인테리어","tel":"031-391-8890","addr":"경기도 군포시 산본동 1240번지 래미안하이어스 145동 1층 1114호","indutype":"건축자재 - 인테리어전문","category":"other"},{"name":"래미안공인중개사사무소","tel":"031-397-9000","addr":"경기도 군포시 산본동 1240번지 래미안하이어스","indutype":"용역 서비스 - 부동산 중개·임대","category":"other"},{"name":"씨유산본래미안점","tel":"031-399-8569","addr":"경기도 군포시 산본동 1240번지 래미안 하이어스 145동 1116호 1115, 1116호","indutype":"유통업 영리 - 편 의 점","category":"other"}]},{"lat":"37.37147724","long":"126.92865363","imageIndex":17,"items":[{"name":"나무노리","tel":"031-344-5757","addr":"경기도 군포시 산본동 1087-5번지 2층 201호","indutype":"문화.취미 - 민예·공예품","category":"other"}]},{"lat":"37.370805397","long":"126.93517956","imageIndex":17,"items":[{"name":"나무로만든세상","tel":"031-395-4901","addr":"경기도 군포시 산본동 207-26번지 1층","indutype":"건축자재 - 목재·석재·철물","category":"other"}]},{"lat":"37.36839272","long":"126.93883937","imageIndex":17,"items":[{"name":"남일","tel":"031-453-7835","addr":"경기도 군포시 산본동 227-16번지 101호","indutype":"건축자재 - 기타건축자재","category":"other"}]},{"lat":"37.360171778","long":"126.93234459","imageIndex":17,"items":[{"name":"내일","tel":"","addr":"경기도 군포시 산본동 1131-1번지 402호,403호","indutype":"용역 서비스 - 사무서비스","category":"other"},{"name":"드림","tel":"031-398-5199","addr":"경기도 군포시 산본동 1131-1번지 미성빌딩 일부302","indutype":"회원제형태 - 기타4","category":"other"},{"name":"새론세무법인","tel":"031-394-0231","addr":"경기도 군포시 산본동 1131-1번지 미성빌딩 404호","indutype":"용역 서비스 - 법률회계서비스(법인)","category":"other"},{"name":"에코(ECO)스킨&바디","tel":"031-398-9777","addr":"경기도 군포시 산본동 1131-1번지 미성빌딩 503","indutype":"회원제형태 - 기타4","category":"other"},{"name":"주식회사신광ISB","tel":"031-398-0017","addr":"경기도 군포시 산본동 1131-1번지 미성빌딩 601호","indutype":"용역 서비스 - 기타용역서비스","category":"other"}]},{"lat":"37.372501654","long":"126.93942293","imageIndex":17,"items":[{"name":"네임펫(Name Pet)","tel":"","addr":"경기도 군포시 산본동 84-23번지 지층","indutype":"문화.취미 - 애완동물","category":"other"}]},{"lat":"37.369167413","long":"126.93851132","imageIndex":17,"items":[{"name":"네파 산본점","tel":"031-392-6999","addr":"경기도 군포시 산본동 224-6번지","indutype":"레져용품 - 스포츠·레져용품","category":"other"},{"name":"효원(주)","tel":"031-394-3366","addr":"경기도 군포시 산본동 224-6번지","indutype":"레져용품 - 스포츠·레져용품","category":"other"}]},{"lat":"37.371997693","long":"126.9405636","imageIndex":17,"items":[{"name":"노블","tel":"031-391-0131","addr":"경기도 군포시 산본동 93-3번지 한일삼익 상가 111호","indutype":"의류 - 정장","category":"other"}]},{"lat":"37.372274707","long":"126.93634106","imageIndex":17,"items":[{"name":"노블레","tel":"031-393-7076","addr":"경기도 군포시 산본동 206-8번지","indutype":"직물 - 침구·수예점","category":"other"},{"name":"산본냉열","tel":"031-396-6800","addr":"경기도 군포시 산본동 206-8번지","indutype":"전기제품 - 냉열기기","category":"other"}]},{"lat":"37.360778196","long":"126.92251228","imageIndex":17,"items":[{"name":"농협목우촌산본점","tel":"031-397-7565","addr":"경기도 군포시 산본동 1147번지 주상복합상가 111호","indutype":"유통업 비영리 - 농,축협 직영매장","category":"other"},{"name":"라임(LIME)","tel":"031-345-9420","addr":"경기도 군포시 산본동 1147번지 금강주상복합상가AB동109호","indutype":"의류 - 정장","category":"other"},{"name":"레인보우이벤트","tel":"0505-536-3333","addr":"경기도 군포시 산본동 1147번지 금강주상복합CD동 지하층 12호","indutype":"신변잡화 - 기타잡화","category":"other"},{"name":"로뎀나무","tel":"031-394-4449","addr":"경기도 군포시 산본동 1147번지 금강2단지주상복합아파트","indutype":"서적문구 - 완구점","category":"other"},{"name":"비비컨추리산본점","tel":"031-395-3055","addr":"경기도 군포시 산본동 1147번지 금강2단지주상복합아파트","indutype":"문화.취미 - 문화취미기타","category":"other"},{"name":"산본종합장식","tel":"031-397-1583","addr":"경기도 군포시 산본동 1147번지 금강2차주상복합상가CD동 117호","indutype":"직물 - 카페트,커튼,천막,지물","category":"other"},{"name":"삼보디자인","tel":"031-395-4686","addr":"경기도 군포시 산본동 1147번지 금강주상복합상가AB동106호","indutype":"건축자재 - 인테리어전문","category":"other"},{"name":"쇼마(SHOMA)","tel":"","addr":"경기도 군포시 산본동 1147번지 금강2단지주상복합아파트","indutype":"의류 - 정장","category":"other"},{"name":"신기종합철물","tel":"031-399-2789","addr":"경기도 군포시 산본동 1147번지 금강주상복합상가CD 122호","indutype":"건축자재 - 목재·석재·철물","category":"other"},{"name":"애견미용실 솔","tel":"031-345-4500","addr":"경기도 군포시 산본동 1147번지 금강2단지주상복합아파트","indutype":"문화.취미 - 애완동물","category":"other"},{"name":"에이스골프","tel":"031-394-9797","addr":"경기도 군포시 산본동 1147번지 금강2차주상복합상가AB동지층제23~33호","indutype":"회원제형태 - 레져업소","category":"other"},{"name":"에프투","tel":"031-399-2248","addr":"경기도 군포시 산본동 1147번지 금강2단지주상복합아파트","indutype":"의류 - 정장","category":"other"},{"name":"예손꽃프라자","tel":"031-399-3379","addr":"경기도 군포시 산본동 1147번지 금강2단지주상복합아파트","indutype":"문화.취미 - 화원","category":"other"},{"name":"이언인벤트","tel":"","addr":"경기도 군포시 산본동 1147번지 금강주상복합CD동 지하층 12호","indutype":"의류 - 정장","category":"other"},{"name":"조명BOX","tel":"031-429-5993","addr":"경기도 군포시 산본동 1147번지 금강2단지주상복합아파트","indutype":"건축자재 - 조명기구","category":"other"},{"name":"주식회사 유진케미칼","tel":"070-4239-5981","addr":"경기도 군포시 산본동 1147번지 금강2단지주상복합아파트","indutype":"건축자재 - 페인트","category":"other"},{"name":"토이조이 캡슐 카페","tel":"","addr":"경기도 군포시 산본동 1147번지 금강2단지주상복합아파트","indutype":"서적문구 - 완구점","category":"other"},{"name":"펠리체","tel":"031-392-9373","addr":"경기도 군포시 산본동 1147번지 금강2단지주상복합상가 C,D동 123호","indutype":"의류 - 정장","category":"other"},{"name":"한국스쿨교육&건설","tel":"031-397-8787","addr":"경기도 군포시 산본동 1147번지 금강2단지주상복합상가제시 디동제10호","indutype":"사무통신 - 기타 사무용품","category":"other"},{"name":"한샘리하우스 바로디자인 대리점","tel":"031-399-6081","addr":"경기도 군포시 산본동 1147번지 금강2단지주상복합아파트","indutype":"건축자재 - 인테리어전문","category":"other"},{"name":"헬스조아","tel":"031-395-8850","addr":"경기도 군포시 산본동 1147번지 금강2단지주상복합상가 제시,디(923,924)동 제지하층 12호","indutype":"레져용품 - 스포츠·레져용품","category":"other"}]},{"lat":"37.358946116","long":"126.93187166","imageIndex":17,"items":[{"name":"농협은행(주)군포시지부","tel":"031-396-1600","addr":"경기도 군포시 산본동 1135-2번지 농협중앙회군포시지부","indutype":"유통업 비영리 - 농,축협 직영매장","category":"other"}]},{"lat":"37.371167765","long":"126.93870153","imageIndex":17,"items":[{"name":"뉴욕제화","tel":"031-394-5921","addr":"경기도 군포시 산본동 89번지","indutype":"신변잡화 - 신발","category":"other"},{"name":"스텝코리아","tel":"031-398-4082","addr":"경기도 군포시 산본동 89번지 2층 203호","indutype":"신변잡화 - 신발","category":"other"}]},{"lat":"37.371543377","long":"126.93371126","imageIndex":17,"items":[{"name":"뉴원미디","tel":"031-747-8874","addr":"경기도 군포시 산본동 1059번지 동백(우성)아파트","indutype":"용역 서비스 - 종합용역","category":"other"}]},{"lat":"37.371864654","long":"126.92861938","imageIndex":17,"items":[{"name":"느루공방","tel":"","addr":"경기도 군포시 산본동 1087-2번지 101호","indutype":"문화.취미 - 문화취미기타","category":"other"}]},{"lat":"37.371471743","long":"126.93447901","imageIndex":17,"items":[{"name":"늘푸른요양원","tel":"031-398-4777","addr":"경기도 군포시 산본동 1061번지 9층 1호","indutype":"기타의료기관 - 기타의료기관 및 기타","category":"other"},{"name":"베스템산업","tel":"031-398-4079","addr":"경기도 군포시 산본동 1061 한빛타운 2층","indutype":"전기제품 - 기타전기제품","category":"other"},{"name":"우리요양원 매화점","tel":"031-399-1041","addr":"경기도 군포시 산본동 1061번지 10층 1001호","indutype":"기타의료기관 - 기타의료기관 및 기타","category":"other"},{"name":"크라스플러스산본점","tel":"031-392-8209","addr":"경기도 군포시 산본동 1061번지 5층 501호","indutype":"용역 서비스 - 사무서비스","category":"other"},{"name":"포도나무실버타운 사랑점","tel":"031-398-4777","addr":"경기도 군포시 산본동 1061번지 한빛타운 903호","indutype":"기타의료기관 - 기타의료기관 및 기타","category":"other"}]},{"lat":"37.35979478","long":"126.9206057","imageIndex":17,"items":[{"name":"다모","tel":"070-7532-5652","addr":"경기도 군포시 산본동 1148-4번지 주공9단지금강아파트","indutype":"회원제형태 - 기타1","category":"other"}]},{"lat":"37.372580923","long":"126.936115","imageIndex":17,"items":[{"name":"다올플라워","tel":"031-342-1113","addr":"경기도 군포시 산본동 107번지","indutype":"문화.취미 - 화원","category":"other"}]},{"lat":"37.372671044","long":"126.93614879","imageIndex":17,"items":[{"name":"다올플라워","tel":"031-393-4547","addr":"경기도 군포시 산본동 107번지 1층","indutype":"문화.취미 - 화원","category":"other"}]},{"lat":"37.360811498","long":"126.93234399","imageIndex":17,"items":[{"name":"다우정보통신","tel":"","addr":"경기도 군포시 산본동 1125번지 현대코아텔 803호","indutype":"용역 서비스 - 기타용역서비스","category":"other"},{"name":"땅콩맘손발조형","tel":"070-4606-7301","addr":"경기도 군포시 산본동 1125번지 현대코아텔 301동 1호","indutype":"문화.취미 - 민예·공예품","category":"other"},{"name":"미래경영연구소","tel":"","addr":"경기도 군포시 산본동 1125번지 현대코아텔 6층 604호","indutype":"용역 서비스 - 사무서비스","category":"other"},{"name":"법무사조용철사무소","tel":"031-393-0086","addr":"경기도 군포시 산본동 1125번지 현대코아텔 403호","indutype":"용역 서비스 - 법률회계서비스(개인)","category":"other"},{"name":"봄플라워","tel":"031-344-0763","addr":"경기도 군포시 산본동 1125번지 현대코아텔 1층 104호","indutype":"문화.취미 - 화원","category":"other"},{"name":"주식회사 프리원","tel":"031-441-1582","addr":"경기도 군포시 산본동 1125번지 현대코아텔 815호","indutype":"보험 - 기타보험","category":"other"},{"name":"쿠레쥬","tel":"031-394-2311","addr":"경기도 군포시 산본동 1125번지 현대코아텔 109호","indutype":"의류 - 정장","category":"other"},{"name":"튼튼영어 베이비리그 경기군포 산본센타","tel":"","addr":"경기도 군포시 산본동 1125번지 현대코아텔 4층 404호","indutype":"서적문구 - 일반서적","category":"other"}]},{"lat":"37.361645568","long":"126.92612352","imageIndex":17,"items":[{"name":"달","tel":"070-4095-4746","addr":"경기도 군포시 산본동 1146번지","indutype":"의류 - 정장","category":"other"},{"name":"반석토탈인테리어","tel":"031-396-9969","addr":"경기도 군포시 산본동 1146번지 솔거대림상가 103호","indutype":"직물 - 카페트,커튼,천막,지물","category":"other"},{"name":"크린토피아","tel":"031-396-5246","addr":"경기도 군포시 산본동 1146번지 한숲스포츠센터 1층 4호","indutype":"수리서비스 - 세탁소","category":"other"},{"name":"한숲골프","tel":"031-396-7008","addr":"경기도 군포시 산본동 1146번지 4층","indutype":"레져용품 - 골프용품 전문점","category":"other"}]},{"lat":"37.376719503","long":"126.94153066","imageIndex":17,"items":[{"name":"대건산기","tel":"031-451-8201","addr":"경기도 군포시 산본동 19-5번지","indutype":"기타 - 기계공구","category":"other"},{"name":"일성가스상사","tel":"031-456-6700","addr":"경기도 군포시 산본동 19-5번지","indutype":"기타 - 기타 전문점","category":"other"},{"name":"정우천막사","tel":"031-452-9852","addr":"경기도 군포시 산본동 19-5번지","indutype":"직물 - 카페트,커튼,천막,지물","category":"other"}]},{"lat":"37.374113989","long":"126.93854096","imageIndex":17,"items":[{"name":"대동광고사","tel":"031-391-5090","addr":"경기도 군포시 산본동 74번지 수성드림빌2차 상가 105호","indutype":"용역 서비스 - 종합용역","category":"other"}]},{"lat":"37.372168267","long":"126.93940063","imageIndex":17,"items":[{"name":"대동지물포","tel":"031-393-3329","addr":"경기도 군포시 산본동 83-4번지 원일연립","indutype":"직물 - 카페트,커튼,천막,지물","category":"other"}]},{"lat":"37.371526535","long":"126.93575467","imageIndex":17,"items":[{"name":"대명","tel":"031-2611-0886","addr":"경기도 군포시 산본동 207-12번지 산본두성프라자 201호","indutype":"전기제품 - 기타전기제품","category":"other"},{"name":"오행쑥뜸방","tel":"031-394-0975","addr":"경기도 군포시 산본동 207-12번지 산본두성프라자 502호","indutype":"회원제형태 - 기타4","category":"other"},{"name":"하나복지센터","tel":"031-392-8557","addr":"경기도 군포시 산본동 207-12번지 (207~32402호)","indutype":"직물 - 옷감·직물","category":"other"}]},{"lat":"37.373502909","long":"126.94156715","imageIndex":17,"items":[{"name":"대성 인테리어","tel":"031-397-1405","addr":"경기도 군포시 산본동 86-44번지 105호","indutype":"건축자재 - 인테리어전문","category":"other"}]},{"lat":"37.357837664","long":"126.93153408","imageIndex":17,"items":[{"name":"대승","tel":"031-398-1403","addr":"경기도 군포시 산본동 1142-7번지 중앙타워 109호","indutype":"의류 - 정장","category":"other"},{"name":"밀알결혼정보","tel":"031-396-4412","addr":"경기도 군포시 산본동 1142-7번지 중앙타워 503호","indutype":"회원제형태 - 기타4","category":"other"},{"name":"스마트온","tel":"031-1599-4898","addr":"경기도 군포시 산본동 1142-7번지 중앙타워 401호","indutype":"사무통신 - 사무용 OA기기","category":"other"},{"name":"오병이어기독백화점","tel":"031-391-5330","addr":"경기도 군포시 산본동 1142-7번지 중앙타워빌딩 205동 206호","indutype":"서적문구 - 문구용품","category":"other"},{"name":"주식회사 외국어교육개발원","tel":"031-397-2280","addr":"경기도 군포시 산본동 1142-7번지 중앙타워 402-1호","indutype":"회원제형태 - 기타3","category":"other"},{"name":"천하종합광고기획","tel":"031-384-5033","addr":"경기도 군포시 산본동 1142-7번지 중앙타워 1층 106호","indutype":"서적문구 - 출판 및 인쇄물","category":"other"},{"name":"케앤비","tel":"031-399-0957","addr":"경기도 군포시 산본동 1142-7번지 중앙타워 4층 402호","indutype":"전기제품 - 기타전기제품","category":"other"},{"name":"페로젠전자담배","tel":"031-393-5854","addr":"경기도 군포시 산본동 1142-7번지 중앙타워 1층","indutype":"기타 - 기타 전문점","category":"other"}]},{"lat":"37.37430478","long":"126.94151005","imageIndex":17,"items":[{"name":"대영미싱","tel":"031-54-5040","addr":"경기도 군포시 산본동 79-74번지","indutype":"수리서비스 - 가정용품수리","category":"other"}]},{"lat":"37.370276729","long":"126.94050858","imageIndex":17,"items":[{"name":"대영상사","tel":"031-392-6956","addr":"경기도 군포시 산본동 238-17번지 1층 101호","indutype":"건축자재 - 목재·석재·철물","category":"other"}]},{"lat":"37.370528479","long":"126.93950362","imageIndex":17,"items":[{"name":"대원설비공사","tel":"031-396-4440","addr":"경기도 군포시 산본동 89-26번지 동향","indutype":"건축자재 - 보일러·펌프·샷시","category":"other"},{"name":"대원설비철물건재","tel":"031-396-4440","addr":"경기도 군포시 산본동 89-26번지 동향 102호","indutype":"용역 서비스 - 기타용역서비스","category":"other"},{"name":"태영문구사","tel":"031-391-7799","addr":"경기도 군포시 산본동 89-26번지 동향 101호","indutype":"서적문구 - 문구용품","category":"other"}]},{"lat":"37.367915366","long":"126.93917844","imageIndex":17,"items":[{"name":"대정유리. 샷시","tel":"031-392-1188","addr":"경기도 군포시 산본동 231-1번지 1층","indutype":"건축자재 - 기타건축자재","category":"other"}]},{"lat":"37.37658515","long":"126.94308882","imageIndex":17,"items":[{"name":"대진전기 주식회사","tel":"031-451-5355","addr":"경기도 군포시 산본동 18-18번지","indutype":"기타 - 기타 전문점","category":"other"}]},{"lat":"37.377440858","long":"126.94259137","imageIndex":17,"items":[{"name":"대한정공","tel":"031-455-9496","addr":"경기도 군포시 산본동 18-8번지","indutype":"기타 - 기계공구","category":"other"}]},{"lat":"37.373890426","long":"126.94172489","imageIndex":17,"items":[{"name":"대한천막사","tel":"031-393-3892","addr":"경기도 군포시 산본동 86-54번지","indutype":"직물 - 카페트,커튼,천막,지물","category":"other"}]},{"lat":"37.374692127","long":"126.94134038","imageIndex":17,"items":[{"name":"대한페인트","tel":"031-393-5012","addr":"경기도 군포시 산본동 79-70번지","indutype":"건축자재 - 페인트","category":"other"},{"name":"삼화페인트경일상사","tel":"031-349-7704","addr":"경기도 군포시 산본동 79-70번지 1층","indutype":"건축자재 - 페인트","category":"other"}]},{"lat":"37.367311996","long":"126.93975468","imageIndex":17,"items":[{"name":"대호상사","tel":"031-53-3652","addr":"경기도 군포시 산본동 1034번지","indutype":"레져용품 - 스포츠·레져용품","category":"other"},{"name":"안양사무기","tel":"031-455-0113","addr":"경기도 군포시 산본동 1034번지","indutype":"사무통신 - 기타 사무용품","category":"other"},{"name":"안양사무기/특별할부","tel":"031-455-0113","addr":"경기도 군포시 산본동 1034번지","indutype":"사무통신 - 사무용 OA기기","category":"other"},{"name":"엠큐식품","tel":"02-875-8757","addr":"경기도 군포시 산본동 1034번지","indutype":"회원제형태 - 기타4","category":"other"}]},{"lat":"37.374141495","long":"126.93942155","imageIndex":17,"items":[{"name":"더 나은 세척기","tel":"","addr":"경기도 군포시 산본동 78-24번지 3층","indutype":"신변잡화 - 기타잡화","category":"other"}]},{"lat":"37.35911792","long":"126.93289867","imageIndex":17,"items":[{"name":"더 아름","tel":"031-395-1110","addr":"경기도 군포시 산본동 1128-1번지 금성프라자 701호","indutype":"건축자재 - 인테리어전문","category":"other"},{"name":"주식회사코스파인","tel":"031-399-0941","addr":"경기도 군포시 산본동 1128-1번지 동아프라자 503호","indutype":"기타 - 기타 전문점","category":"other"},{"name":"토즈스터디카페","tel":"031-397-3800","addr":"경기도 군포시 산본동 1128-1번지 동아프라자빌딩 8층 801호","indutype":"용역 서비스 - 사무서비스","category":"other"},{"name":"풍요속 꽃향기","tel":"031-397-1040","addr":"경기도 군포시 산본동 1128-1번지 동아프라자빌딩 108호","indutype":"문화.취미 - 화원","category":"other"}]},{"lat":"37.359783334","long":"126.93067437","imageIndex":17,"items":[{"name":"더갤러리스튜디오","tel":"031-396-0654","addr":"경기도 군포시 산본동 1137-1번지 대원프라자빌딩 5층 502호","indutype":"광학제품 - 사진관","category":"other"},{"name":"스팀브론즈","tel":"070-7797-0628","addr":"경기도 군포시 산본동 1137-1번지 대원프라자빌딩 7층 701-2호","indutype":"신변잡화 - 기타잡화","category":"other"},{"name":"영재교육연구실","tel":"031-396-0028","addr":"경기도 군포시 산본동 1137-1번지 대원프라자 401호","indutype":"회원제형태 - 서적","category":"other"},{"name":"정글스튜디오","tel":"031-396-0654","addr":"경기도 군포시 산본동 1137-1번지 대원프라자 502동 503호","indutype":"광학제품 - 사진관","category":"other"},{"name":"케이제이티엔씨(KJ T&C)","tel":"070-4323-6441","addr":"경기도 군포시 산본동 1137-1번지 대원프라자빌딩","indutype":"신변잡화 - 기타잡화","category":"other"},{"name":"헤드스타트재능교육원","tel":"031-396-0028","addr":"경기도 군포시 산본동 1137-1번지 대원프라자빌딩 4층 12호","indutype":"서적문구 - 일반서적","category":"other"}]},{"lat":"37.367756349","long":"126.92912015","imageIndex":17,"items":[{"name":"더샵(The Shop)","tel":"031-395-5329","addr":"경기도 군포시 산본동 1091-1번지","indutype":"의류 - 정장","category":"other"},{"name":"우영세탁","tel":"031-395-6409","addr":"경기도 군포시 산본동 1091-1번지 목련아파트 지층 9호","indutype":"수리서비스 - 세탁소","category":"other"}]},{"lat":"37.358729689","long":"126.9315671","imageIndex":17,"items":[{"name":"더짐나인티나인","tel":"031-395-7999","addr":"경기도 군포시 산본동 1140-1번지","indutype":"회원제형태 - 레져업소","category":"other"},{"name":"미시블랙","tel":"031-445-7275","addr":"경기도 군포시 산본동 1140-1번지 계정프라자 804호","indutype":"의류 - 내의판매","category":"other"},{"name":"에띠임산본센터","tel":"070-5804-7061","addr":"경기도 군포시 산본동 1140-1번지 계정프라자 803호~804호","indutype":"의류 - 내의판매","category":"other"},{"name":"엠케이트레이딩","tel":"070-8229-2588","addr":"경기도 군포시 산본동 1140-1번지 계정빌딩 8층 802호","indutype":"사무통신 - 통신기기","category":"other"},{"name":"원플스튜디오","tel":"070-4221-7297","addr":"경기도 군포시 산본동 1140-1번지 계정빌딩 702호","indutype":"광학제품 - 사진관","category":"other"},{"name":"페이펄문구센터산본점","tel":"031-391-7021","addr":"경기도 군포시 산본동 1140-1,계정빌딩제지하층1-2호","indutype":"서적문구 - 문구용품","category":"other"},{"name":"행복예감","tel":"","addr":"경기도 군포시 산본동 1140-1번지 계정프라자 804호","indutype":"회원제형태 - 기타1","category":"other"}]},{"lat":"37.373942656","long":"126.93828144","imageIndex":17,"items":[{"name":"더펫마트","tel":"031-398-3360","addr":"경기도 군포시 산본동 73번지 수성드림빌1차 1동 101호","indutype":"문화.취미 - 애완동물","category":"other"},{"name":"제일건축디자인","tel":"","addr":"경기도 군포시 산본동 73번지 수성드림빌1차 102호","indutype":"건축자재 - 인테리어전문","category":"other"}]},{"lat":"37.371833115","long":"126.93617211","imageIndex":17,"items":[{"name":"데일리 Fit Club","tel":"02-6340-5385","addr":"경기도 군포시 산본동 206-2번지 태웅빌딩 5층","indutype":"회원제형태 - 레져업소","category":"other"}]},{"lat":"37.374088607","long":"126.9416457","imageIndex":17,"items":[{"name":"독앤캣","tel":"031-399-8252","addr":"경기도 군포시 산본동 86-52번지 1층","indutype":"문화.취미 - 애완동물","category":"other"}]},{"lat":"37.376530507","long":"126.94194855","imageIndex":17,"items":[{"name":"동국판넬","tel":"031-458-4141","addr":"경기도 군포시 산본동 1026-1번지","indutype":"건축자재 - 기타건축자재","category":"other"}]},{"lat":"37.368779811","long":"126.93820685","imageIndex":17,"items":[{"name":"동주공업사","tel":"031-393-4346","addr":"경기도 군포시 산본동 224-21번지","indutype":"기타 - 기타 전문점","category":"other"},{"name":"디자인지음","tel":"070-7573-5680","addr":"경기도 군포시 산본동 224-21번지 2층","indutype":"용역 서비스 - 사무서비스","category":"other"}]},{"lat":"37.368448937","long":"126.9272342","imageIndex":17,"items":[{"name":"드림센타","tel":"031-394-0761","addr":"경기도 군포시 산본동 1088-3번지","indutype":"회원제형태 - 레져업소","category":"other"}]},{"lat":"37.377116269","long":"126.9421513","imageIndex":17,"items":[{"name":"디자인아이","tel":"031-466-2075","addr":"경기도 군포시 산본동 18-10번지","indutype":"건축자재 - 인테리어전문","category":"other"},{"name":"씨유군포골드산단점","tel":"031-898-6560","addr":"경기도 군포시 산본동 18-10번지 1층","indutype":"유통업 영리 - 편 의 점","category":"other"}]},{"lat":"37.369393009","long":"126.93914332","imageIndex":17,"items":[{"name":"디코디","tel":"031-399-8154","addr":"경기도 군포시 산본동 224-12번지 102호","indutype":"의류 - 정장","category":"other"},{"name":"서경선Fashion","tel":"031-395-0711","addr":"경기도 군포시 산본동 224-12번지 1층 104호","indutype":"의류 - 기타의류","category":"other"},{"name":"수쓰드럼빌리지(Soo's Drum Village)","tel":"","addr":"경기도 군포시 산본동 224-12번지 지하1층","indutype":"용역 서비스 - 사무서비스","category":"other"},{"name":"청우컴퓨터","tel":"031-392-1777","addr":"경기도 군포시 산본동 224-12번지 1층 3호","indutype":"사무통신 - 컴퓨터","category":"other"}]},{"lat":"37.368168797","long":"126.94134571","imageIndex":17,"items":[{"name":"라델","tel":"031-427-0055","addr":"경기도 군포시 산본동 1029-2번지 101호","indutype":"의류 - 기타의류","category":"other"}]},{"lat":"37.375250613","long":"126.94106896","imageIndex":17,"items":[{"name":"라인사무용가구","tel":"031-422-7008","addr":"경기도 군포시 산본동 75-62번지","indutype":"가구 - 일반가구","category":"other"},{"name":"에이원","tel":"031-429-1952","addr":"경기도 군포시 산본동 75-62번지","indutype":"사무통신 - 컴퓨터","category":"other"},{"name":"하나렌탈","tel":"031-1800-7491","addr":"경기도 군포시 산본동 75-62번지 104호","indutype":"사무통신 - 기타 사무용품","category":"other"}]},{"lat":"37.36969846","long":"126.93750613","imageIndex":17,"items":[{"name":"락앤락플러스군포서점","tel":"031-393-8868","addr":"경기도 군포시 산본동 216-15번지","indutype":"주방용구 - 주방용구","category":"other"},{"name":"천일공인중개사","tel":"031-398-8844","addr":"경기도 군포시 산본동 216-15번지","indutype":"용역 서비스 - 부동산 중개·임대","category":"other"}]},{"lat":"37.371611391","long":"126.94275409","imageIndex":17,"items":[{"name":"랄라블라 금정점","tel":"031-392-7534","addr":"경기도 군포시 산본동 266-3번지 1층","indutype":"유통업 영리 - 편 의 점","category":"other"}]},{"lat":"37.367222443","long":"126.92550824","imageIndex":17,"items":[{"name":"러브앤프리(대박사진관)","tel":"070-7857-1020","addr":"경기도 군포시 산본동 1111-4번지 104호","indutype":"광학제품 - 사진관","category":"other"}]},{"lat":"37.373891807","long":"126.94445703","imageIndex":17,"items":[{"name":"레드아이(홍대)","tel":"070-000-0000","addr":"경기도 군포시 산본동 1026-52번지 L&C타워 303호 일부","indutype":"신변잡화 - 액세서리","category":"other"},{"name":"세븐일레븐군포금정점","tel":"02-3284-8168","addr":"경기도 군포시 산본동 1026-52번지 L&C타워 102호","indutype":"유통업 영리 - 편 의 점","category":"other"},{"name":"주식회사 비앤케이(B&K)","tel":"031-477-0753","addr":"경기도 군포시 산본동 1026-52 엘앤씨타워2층 203,4,5호","indutype":"회원제형태 - 레져업소","category":"other"},{"name":"포드디자인","tel":"031-8045-9999","addr":"경기도 군포시 산본동 1026-52번지 L&C타워 B103호","indutype":"용역 서비스 - 종합용역","category":"other"}]},{"lat":"37.369392221","long":"126.93769831","imageIndex":17,"items":[{"name":"로얄텔레콤","tel":"031-394-0219","addr":"경기도 군포시 산본동 216-12번지 1층","indutype":"사무통신 - 통신기기","category":"other"},{"name":"세금당","tel":"031-394-6288","addr":"경기도 군포시 산본동 216-12번지","indutype":"신변잡화 - 귀금속","category":"other"}]},{"lat":"37.35694562","long":"126.91784343","imageIndex":17,"items":[{"name":"로즈루비","tel":"","addr":"경기도 군포시 산본동 1151-5번지 한양프라자 1층 116호","indutype":"의류 - 정장","category":"other"},{"name":"리본패션","tel":"031-391-8257","addr":"경기도 군포시 산본동 1151-5한양프라자1층119","indutype":"의류 - 기타의류","category":"other"},{"name":"산본종합보수인테리어","tel":"031-393-2258","addr":"경기도 군포시 산본동 1151-5한양프라자109","indutype":"기타 - 기타 전문점","category":"other"},{"name":"샤넬 뷰티샵","tel":"031-399-8133","addr":"경기도 군포시 산본동 1151-5한양프라자210","indutype":"회원제형태 - 기타4","category":"other"},{"name":"준디자인","tel":"031-393-7442","addr":"경기도 군포시 산본동 1151-5번지 한양프라자 1층 102호","indutype":"건축자재 - 인테리어전문","category":"other"},{"name":"지젤","tel":"031-398-7455","addr":"경기도 군포시 산본동 1151-5번지 한양수리아파트분산상가1동 상가 1층 126호","indutype":"의류 - 정장","category":"other"},{"name":"크린에이드","tel":"031-309-2202","addr":"경기도 군포시 산본동 1151-5,한양프라자상가128","indutype":"수리서비스 - 세탁소","category":"other"},{"name":"크린프라자","tel":"031-397-1655","addr":"경기도 군포시 산본동 1151-5 한양프라자지하","indutype":"수리서비스 - 세탁소","category":"other"},{"name":"태양","tel":"031-396-5335","addr":"경기도 군포시 산본동 1151-5 한양프라자1층 110","indutype":"유통업 영리 - 기타유통업","category":"other"},{"name":"한양문구","tel":"031-395-6469","addr":"경기도 군포시 산본동 1151-5 수리한양A상가 B-107","indutype":"서적문구 - 문구용품","category":"other"},{"name":"해오름꽃집","tel":"031-396-2022","addr":"경기도 군포시 산본동 1151-5번지 한양프라자상가후문입구","indutype":"문화.취미 - 화원","category":"other"}]},{"lat":"37.34381239","long":"126.92298178","imageIndex":17,"items":[{"name":"로터스","tel":"","addr":"경기도 군포시 산본동 1155-8번지 가야 종합상가 203호","indutype":"건축자재 - 인테리어전문","category":"other"}]},{"lat":"37.372725661","long":"126.93714223","imageIndex":17,"items":[{"name":"롯데하이마트(주) 산본","tel":"031-392-9500","addr":"경기도 군포시 산본동 71-7번지","indutype":"전기제품 - 가전제품","category":"other"}]},{"lat":"37.358197245","long":"126.93017924","imageIndex":17,"items":[{"name":"리디아(Lydia)","tel":"031-000-0000","addr":"경기도 군포시 산본동 1145-4번지 1층 103호","indutype":"의류 - 정장","category":"other"},{"name":"멘토르7 스터디센터","tel":"031-394-0900","addr":"경기도 군포시 산본동 1145-4번지 202호","indutype":"용역 서비스 - 사무서비스","category":"other"}]},{"lat":"37.358089764","long":"126.93122908","imageIndex":17,"items":[{"name":"리벨로 산본점","tel":"031-341-0633","addr":"경기도 군포시 산본동 1142-8번지 성원빌딩 307-2호","indutype":"의류 - 정장","category":"other"},{"name":"하우스터디 산본2센터 모임공간","tel":"031-399-3126","addr":"경기도 군포시 산본동 1142-8번지 성원빌딩 201호","indutype":"용역 서비스 - 사무서비스","category":"other"}]},{"lat":"37.366644632","long":"126.93861508","imageIndex":17,"items":[{"name":"리빙홈케어","tel":"","addr":"경기도 군포시 산본동 1036-6번지 1동 101호","indutype":"용역 서비스 - 종합용역","category":"other"},{"name":"주현홈케어","tel":"","addr":"경기도 군포시 산본동 1036-6번지 태산주택 1동 101호","indutype":"용역 서비스 - 종합용역","category":"other"}]},{"lat":"37.374863261","long":"126.94122734","imageIndex":17,"items":[{"name":"리페어 디자인","tel":"031-393-7442","addr":"경기도 군포시 산본동 79-68번지 1층","indutype":"건축자재 - 인테리어전문","category":"other"},{"name":"에스텍/원격지","tel":"031-397-0608","addr":"경기도 군포시 산본동 79-68번지 명덕빌딩 2층","indutype":"기타 - 기타 전문점","category":"other"}]},{"lat":"37.371720443","long":"126.9285405","imageIndex":17,"items":[{"name":"릴리필드(Lily field)","tel":"031-399-4501","addr":"경기도 군포시 산본동 1087-3번지 103호","indutype":"문화.취미 - 화원","category":"other"}]},{"lat":"37.368915068","long":"126.93839865","imageIndex":17,"items":[{"name":"마루기획","tel":"031-000-0000","addr":"경기도 군포시 산본동 224-19번지 1층","indutype":"서적문구 - 출판 및 인쇄물","category":"other"}]},{"lat":"37.367249125","long":"126.92497764","imageIndex":17,"items":[{"name":"마을공방","tel":"031-000-0000","addr":"경기도 군포시 산본동 1111-1번지 101호","indutype":"문화.취미 - 문화취미기타","category":"other"},{"name":"순수공방","tel":"02-000-0000","addr":"경기도 군포시 산본동 1111-1번지 102호","indutype":"문화.취미 - 문화취미기타","category":"other"}]},{"lat":"37.359359533","long":"126.93014425","imageIndex":17,"items":[{"name":"마이비누","tel":"031-395-6625","addr":"경기도 군포시 산본동 1144-1번지 유공빌딩 203호","indutype":"신변잡화 - 기타잡화","category":"other"},{"name":"마이비누","tel":"031-395-6625","addr":"경기도 군포시 산본동 1144-1번지 유공빌딩 203호","indutype":"문화.취미 - 민예·공예품","category":"other"},{"name":"미술재미","tel":"031-399-8684","addr":"경기도 군포시 산본동 1144-1번지 유공빌딩 604호","indutype":"회원제형태 - 서적","category":"other"},{"name":"산본문고","tel":"031-396-6097","addr":"경기도 군포시 산본동 1144-1번지 유공빌딩 3층 303호","indutype":"서적문구 - 일반서적","category":"other"},{"name":"서울정보처리학원","tel":"031-397-9991","addr":"경기도 군포시 산본동 1144-1유공빌딩703,704,705","indutype":"회원제형태 - 기타3","category":"other"},{"name":"아우토반","tel":"031-395-7259","addr":"경기도 군포시 산본동 1144-1번지 유공빌딩","indutype":"신변잡화 - 신발","category":"other"},{"name":"지니에듀","tel":"031-396-3855","addr":"경기도 군포시 산본동 1144-1번지 유골빌딩 306호","indutype":"서적문구 - 기타서적문구","category":"other"}]},{"lat":"37.373115097","long":"126.94084492","imageIndex":17,"items":[{"name":"마이콩 컴퍼니","tel":"","addr":"경기도 군포시 산본동 94번지 2층","indutype":"문화.취미 - 애완동물","category":"other"}]},{"lat":"37.360667086","long":"126.93192647","imageIndex":17,"items":[{"name":"맘스맘잉글리쉬","tel":"","addr":"경기도 군포시 산본동 1132번지 창선빌딩 402-2호","indutype":"서적문구 - 일반서적","category":"other"},{"name":"스토피아 (산본점)","tel":"","addr":"경기도 군포시 산본동 1132번지 창선빌딩 2층 202,203호","indutype":"용역 서비스 - 사무서비스","category":"other"},{"name":"이지애드","tel":"031-000-0000","addr":"경기도 군포시 산본동 1132번지 창선빌딩 401-1호","indutype":"용역 서비스 - 종합용역","category":"other"}]},{"lat":"37.36542288","long":"126.92937078","imageIndex":17,"items":[{"name":"맘스포레 산후조리원","tel":"031-399-6522","addr":"경기도 군포시 산본동 1099-1번지 태주빌딩 7,8층","indutype":"기타의료기관 - 산후조리원","category":"other"},{"name":"하우스터디 산본 스터디센터","tel":"031-392-0082","addr":"경기도 군포시 산본동 1099-1번지 태주빌딩 6층 2호","indutype":"용역 서비스 - 사무서비스","category":"other"}]},{"lat":"37.374223353","long":"126.94086659","imageIndex":17,"items":[{"name":"매직스톤","tel":"031-396-4380","addr":"경기도 군포시 산본동 79-39번지 3층","indutype":"건축자재 - 인테리어전문","category":"other"}]},{"lat":"37.374698276","long":"126.93606796","imageIndex":17,"items":[{"name":"매화세탁소","tel":"031-394-8012","addr":"경기도 군포시 산본동 1055 매화상가 103","indutype":"수리서비스 - 세탁소","category":"other"},{"name":"매화전기철물","tel":"031-399-2404","addr":"경기도 군포시 산본동 1055 매화상가 102","indutype":"건축자재 - 기타건축자재","category":"other"}]},{"lat":"37.375698463","long":"126.93617998","imageIndex":17,"items":[{"name":"맨발의마케팅","tel":"","addr":"경기도 군포시 산본동 1055번지 매화아파트","indutype":"신변잡화 - 기타잡화","category":"other"}]},{"lat":"37.346218376","long":"126.92338552","imageIndex":17,"items":[{"name":"멋쟁이옷가게","tel":"031-399-9968","addr":"경기도 군포시 산본동 1155-7번지 가야(주공)아파트","indutype":"의류 - 정장","category":"other"},{"name":"참디자인","tel":"031-349-1107","addr":"경기도 군포시 산본동 1155-7번지 가야(주공)아파트","indutype":"회원제형태 - 기타4","category":"other"}]},{"lat":"37.369979721","long":"126.94112973","imageIndex":17,"items":[{"name":"메타포(METAPHOR)","tel":"031-000-0000","addr":"경기도 군포시 산본동 240-4번지 훼미리빌라 A동 202호","indutype":"신변잡화 - 액세서리","category":"other"}]},{"lat":"37.372744285","long":"126.93823731","imageIndex":17,"items":[{"name":"멤테크/원격지","tel":"031-397-2915","addr":"경기도 군포시 산본동 80-16번지 효삼빌라 5동 202호","indutype":"기타 - 기타 전문점","category":"other"}]},{"lat":"37.370248867","long":"126.93895068","imageIndex":17,"items":[{"name":"명문서점","tel":"031-226-4025","addr":"경기도 군포시 산본동 222-1번지 지하1층","indutype":"서적문구 - 일반서적","category":"other"}]},{"lat":"37.359811339","long":"126.93228849","imageIndex":17,"items":[{"name":"명보석","tel":"031-394-3094","addr":"경기도 군포시 산본동 1130-3번지 백운빌딩 104호","indutype":"신변잡화 - 시계","category":"other"},{"name":"월드종합조경","tel":"031-395-6135","addr":"경기도 군포시 산본동 1130-3번지 백운빌딩 405호","indutype":"건축자재 - 인테리어전문","category":"other"},{"name":"자연미향피부관리","tel":"031-393-1311","addr":"경기도 군포시 산본동 1130-3번지 백운빌딩 403호","indutype":"회원제형태 - 기타4","category":"other"},{"name":"카키브라운","tel":"031-393-2224","addr":"경기도 군포시 산본동 1130-3번지 백운빌딩 103호","indutype":"의류 - 정장","category":"other"},{"name":"플러스원","tel":"031-396-7969","addr":"경기도 군포시 산본동 1130-3번지 백운빌딩 101호","indutype":"의류 - 정장","category":"other"},{"name":"한샘문구센타","tel":"031-395-8367","addr":"경기도 군포시 산본동 1130-3번지 백운 102호","indutype":"서적문구 - 문구용품","category":"other"},{"name":"할로윈","tel":"031-397-8864","addr":"경기도 군포시 산본동 1130-3번지 백운빌딩 106호","indutype":"의류 - 정장","category":"other"}]},{"lat":"37.358360239","long":"126.93151101","imageIndex":17,"items":[{"name":"명성사진관","tel":"031-395-8841","addr":"경기도 군포시 산본동 1141번지 동선빌딩 106호","indutype":"광학제품 - 사진관","category":"other"},{"name":"모글리상사","tel":"031-387-0250","addr":"경기도 군포시 산본동 1141번지 동선빌딩 5층 507호","indutype":"서적문구 - 완구점","category":"other"},{"name":"세븐일레븐산본로점","tel":"02-1577-0711","addr":"경기도 군포시 산본동 1141번지 동선빌딩 101호,102호","indutype":"유통업 영리 - 편 의 점","category":"other"},{"name":"스윗코드 주식회사","tel":"031-000-0000","addr":"경기도 군포시 산본동 1141번지 동선빌딩 6층 3호","indutype":"용역 서비스 - 소프트웨어","category":"other"},{"name":"타임유스터디카페 산본역점","tel":"","addr":"경기도 군포시 산본동 1141번지 동선빌딩 801호,802호","indutype":"용역 서비스 - 사무서비스","category":"other"},{"name":"한독철물","tel":"031-399-1417","addr":"경기도 군포시 산본동 1141번지 동선빌딩 105호","indutype":"건축자재 - 목재·석재·철물","category":"other"}]},{"lat":"37.36666025","long":"126.93433662","imageIndex":17,"items":[{"name":"명성콜밴","tel":"","addr":"경기도 군포시 산본동 1240번지 래미안하이어스 110동 14층 04호","indutype":"여행 - 기타교통수단","category":"other"},{"name":"하라인터네셔널","tel":"070-8624-1320","addr":"경기도 군포시 산본동 1240번지 래미안하이어스 110동 1601호","indutype":"의류 - 정장","category":"other"}]},{"lat":"37.358585377","long":"126.93131891","imageIndex":17,"items":[{"name":"명품오띠모","tel":"070-4155-5122","addr":"경기도 군포시 산본동 1140-2번지 계정프라자 8층 804호","indutype":"의류 - 내의판매","category":"other"},{"name":"중고폰 매입판매 소녀폰산본점","tel":"031-391-0333","addr":"경기도 군포시 산본동 1140-2번지 산수빌딩 7층 702-4호","indutype":"사무통신 - 통신기기","category":"other"}]},{"lat":"37.372967292","long":"126.93425186","imageIndex":17,"items":[{"name":"모건소재","tel":"031-399-9331","addr":"경기도 군포시 산본동 1059번지 동백(우성)아파트","indutype":"전기제품 - 기타전기제품","category":"other"}]},{"lat":"37.371250448","long":"126.94170445","imageIndex":17,"items":[{"name":"모나코","tel":"","addr":"경기도 군포시 산본동 265-5번지 1층","indutype":"의류 - 정장","category":"other"},{"name":"비비교역","tel":"031-382-1014","addr":"경기도 군포시 산본동 265-5번지","indutype":"레져용품 - 스포츠·레져용품","category":"other"}]},{"lat":"37.372475461","long":"126.9410035","imageIndex":17,"items":[{"name":"모든전자","tel":"031-448-1688","addr":"경기도 군포시 산본동 93-26번지 102호","indutype":"전기제품 - 가전제품","category":"other"}]},{"lat":"37.372755452","long":"126.94231287","imageIndex":17,"items":[{"name":"모바일넷","tel":"031-398-0016","addr":"경기도 군포시 산본동 98-1번지 선한빌딩 1층 1호","indutype":"사무통신 - 통신기기","category":"other"}]},{"lat":"37.37147587","long":"126.94203167","imageIndex":17,"items":[{"name":"모바일존","tel":"031-393-1011","addr":"경기도 군포시 산본동 265-8번지 1층","indutype":"사무통신 - 통신기기","category":"other"}]},{"lat":"37.370503684","long":"126.92792079","imageIndex":17,"items":[{"name":"목련세탁","tel":"031-396-3424","addr":"경기도 군포시 산본동 1088번지 한양목련아파트 분산상가 104호","indutype":"수리서비스 - 세탁소","category":"other"},{"name":"젬스톤","tel":"031-395-6411","addr":"경기도 군포시 산본동 1088한양목련상가지층9호","indutype":"신변잡화 - 귀금속","category":"other"},{"name":"크린토피아한양스마일점","tel":"031-396-3655","addr":"경기도 군포시 산본동 1088번지 한양상가지층37호","indutype":"수리서비스 - 세탁소","category":"other"}]},{"lat":"37.359387782","long":"126.93215343","imageIndex":17,"items":[{"name":"못된고양이/(주)엔캣 산본역점","tel":"070-4296-5545","addr":"경기도 군포시 산본동 1134-1번지 센타빌딩 1층 105호","indutype":"신변잡화 - 액세서리","category":"other"},{"name":"산본의류상설타운","tel":"031-398-5382","addr":"경기도 군포시 산본동 1134-1번지 센터빌딩 1층","indutype":"의류 - 정장","category":"other"},{"name":"아이러니","tel":"031-391-1588","addr":"경기도 군포시 산본동 1134-1번지 센타빌딩 2층 16호","indutype":"수리서비스 - 사무·통신기기수리","category":"other"}]},{"lat":"37.37524845","long":"126.937061","imageIndex":17,"items":[{"name":"몽펫시터","tel":"070-8031-4038","addr":"경기도 군포시 산본동 1055번지 매화아파트","indutype":"문화.취미 - 애완동물","category":"other"},{"name":"올패션스타일","tel":"","addr":"경기도 군포시 산본동 1055번지 매화아파트","indutype":"신변잡화 - 기타잡화","category":"other"}]},{"lat":"37.370331198","long":"126.9412875","imageIndex":17,"items":[{"name":"묘화","tel":"031-398-6822","addr":"경기도 군포시 산본동 239-12번지 그레이스빌 101호","indutype":"문화.취미 - 문화취미기타","category":"other"}]},{"lat":"37.371611126","long":"126.94223477","imageIndex":17,"items":[{"name":"무자크","tel":"031-399-0848","addr":"경기도 군포시 산본동 265-10번지","indutype":"의류 - 정장","category":"other"}]},{"lat":"37.357545373","long":"126.92523599","imageIndex":17,"items":[{"name":"무쯔미코리아","tel":"0505-661-5555","addr":"경기도 군포시 산본동 1145-14번지 을지아파트","indutype":"회원제형태 - 기타4","category":"other"}]},{"lat":"37.373139818","long":"126.93658867","imageIndex":17,"items":[{"name":"문화전기","tel":"031-394-7444","addr":"경기도 군포시 산본동 105-8번지","indutype":"건축자재 - 조명기구","category":"other"}]},{"lat":"37.369555331","long":"126.93940284","imageIndex":17,"items":[{"name":"미래전기조명","tel":"031-396-1323","addr":"경기도 군포시 산본동 236-18번지","indutype":"건축자재 - 조명기구","category":"other"},{"name":"센스미","tel":"031-427-3972","addr":"경기도 군포시 산본동 236-18번지","indutype":"의류 - 정장","category":"other"}]},{"lat":"37.350959938","long":"126.92675515","imageIndex":17,"items":[{"name":"미래커튼","tel":"02-413-3062","addr":"경기도 군포시 산본동 1156-1번지 주공4단지","indutype":"회원제형태 - 기타4","category":"other"}]},{"lat":"37.371169798","long":"126.94256252","imageIndex":17,"items":[{"name":"미르","tel":"031-394-0888","addr":"경기도 군포시 산본동 259-11번지 2층","indutype":"회원제형태 - 기타4","category":"other"}]},{"lat":"37.372116468","long":"126.92787402","imageIndex":17,"items":[{"name":"미쁘다","tel":"070-5022-4846","addr":"경기도 군포시 산본동 1082-1번지","indutype":"신변잡화 - 기타잡화","category":"other"}]},{"lat":"37.370025141","long":"126.94184092","imageIndex":17,"items":[{"name":"미성종합공사","tel":"031-454-6315","addr":"경기도 군포시 산본동 241-8번지 1층","indutype":"전기제품 - 기타전기제품","category":"other"}]},{"lat":"37.359443721","long":"126.92109146","imageIndex":17,"items":[{"name":"미소토탈인테리어","tel":"031-392-0459","addr":"경기도 군포시 산본동 1148-5번지 금강 종합상가 109호","indutype":"직물 - 카페트,커튼,천막,지물","category":"other"}]},{"lat":"37.358917181","long":"126.92876759","imageIndex":17,"items":[{"name":"미우","tel":"031-404-3151","addr":"경기도 군포시 산본동 1145번지 주공6단지세종아파트","indutype":"문화.취미 - 애완동물","category":"other"}]},{"lat":"37.360158083","long":"126.92488338","imageIndex":17,"items":[{"name":"민사무용가구","tel":"031-458-4220","addr":"경기도 군포시 산본동 1146-11번지 주공7단지우륵아파트","indutype":"가구 - 기타가구","category":"other"}]},{"lat":"37.369942358","long":"126.93864613","imageIndex":17,"items":[{"name":"민속지물포","tel":"031-393-1525","addr":"경기도 군포시 산본동 222-5번지","indutype":"직물 - 카페트,커튼,천막,지물","category":"other"}]},{"lat":"37.367887722","long":"126.93804957","imageIndex":17,"items":[{"name":"민트","tel":"031-391-9703","addr":"경기도 군포시 산본동 1240번지 래미안하이어스 147동 3117호","indutype":"의류 - 정장","category":"other"},{"name":"세븐일레븐산본래미안점","tel":"","addr":"경기도 군포시 산본동 1240번지 삼성래미안하이어스단지내상가 147동 3105호","indutype":"유통업 영리 - 편 의 점","category":"other"},{"name":"허브스킨앤바디","tel":"031-393-7925","addr":"경기도 군포시 산본동 1240번지 래미안하이어스 상가 147동 3116호","indutype":"회원제형태 - 기타4","category":"other"}]},{"lat":"37.370241865","long":"126.92709693","imageIndex":17,"items":[{"name":"바나나에듀피아(Banana Edupia)","tel":"031-395-9026","addr":"경기도 군포시 산본동 1088번지 한양목련아파트","indutype":"회원제형태 - 기타4","category":"other"}]},{"lat":"37.369942929","long":"126.93970732","imageIndex":17,"items":[{"name":"바렌티노제화점","tel":"031-393-9609","addr":"경기도 군포시 산본동 236-5번지","indutype":"신변잡화 - 제화","category":"other"},{"name":"서울양복점","tel":"031-393-4229","addr":"경기도 군포시 산본동 236-5번지","indutype":"의류 - 맞춤복점","category":"other"},{"name":"액자나라","tel":"031-395-0759","addr":"경기도 군포시 산본동 236-5번지","indutype":"문화.취미 - 화방·표구점","category":"other"}]},{"lat":"37.367727142","long":"126.94104127","imageIndex":17,"items":[{"name":"바른정보통신","tel":"02-308-7008","addr":"경기도 군포시 산본동 1029-14번지 오성맨션 302호","indutype":"사무통신 - 통신기기","category":"other"}]},{"lat":"37.36027847","long":"126.92998534","imageIndex":17,"items":[{"name":"바이 에이미(by Amy)","tel":"031-391-5525","addr":"경기도 군포시 산본동 1123-3번지 센트로 601오피스텔 116호","indutype":"의류 - 정장","category":"other"},{"name":"서광아이씨티","tel":"031-360-6790","addr":"경기도 군포시 산본동 1123-3번지 센트로601오피스텔 1734호","indutype":"주방용구 - 주방용구","category":"other"},{"name":"엠디모바일","tel":"070-2213-9997","addr":"경기도 군포시 산본동 1123-3번지 센트로601오피스텔 101호","indutype":"사무통신 - 통신기기","category":"other"},{"name":"이마트24 군포센트로점","tel":"","addr":"경기도 군포시 산본동 1123-3번지 센트로601오피스텔 116호","indutype":"유통업 영리 - 편 의 점","category":"other"},{"name":"지성펌프","tel":"031-000-0000","addr":"경기도 군포시 산본동 1123-3번지 센트로601오피스텔 1208호","indutype":"기타 - 기계공구","category":"other"}]},{"lat":"37.371283248","long":"126.93573231","imageIndex":17,"items":[{"name":"박정님피부관리","tel":"031-392-6810","addr":"경기도 군포시 산본동 207-31번지 2층","indutype":"회원제형태 - 기타4","category":"other"}]},{"lat":"37.370310519","long":"126.93637667","imageIndex":17,"items":[{"name":"박종필","tel":"031-391-7148","addr":"경기도 군포시 산본동 1240번지 래미안하이어스 121동 102호","indutype":"기타 - 기계공구","category":"other"},{"name":"에코오가닉","tel":"","addr":"경기도 군포시 산본동 1240번지 래미안하이어스 121동 102호","indutype":"의류 - 아동의류","category":"other"}]},{"lat":"37.359946639","long":"126.93253669","imageIndex":17,"items":[{"name":"박홍근이정주세무회계","tel":"031-395-2456","addr":"경기도 군포시 산본동 1130번지 군포프라자 502호","indutype":"용역 서비스 - 법률회계서비스(개인)","category":"other"},{"name":"법무사김영길사무소","tel":"031-399-2992","addr":"경기도 군포시 산본동 1130번지 군포프라자 402호","indutype":"용역 서비스 - 법률회계서비스(개인)","category":"other"},{"name":"새암세무회계사무소","tel":"031-394-0567","addr":"경기도 군포시 산본동 1130번지 군포프라자 702호","indutype":"용역 서비스 - 법률회계서비스(개인)","category":"other"},{"name":"윤현관사진방","tel":"031-398-0445","addr":"경기도 군포시 산본동 1130번지 군포프라자 107호","indutype":"광학제품 - 사진관","category":"other"},{"name":"지이하이드로","tel":"","addr":"경기도 군포시 산본동 1130번지 군포프라자 7층 701호","indutype":"건축자재 - 기타건축자재","category":"other"},{"name":"풋인샵","tel":"031-393-7896","addr":"경기도 군포시 산본동 1130번지 군포프라자 302호","indutype":"회원제형태 - 기타4","category":"other"}]},{"lat":"37.369473406","long":"126.93786758","imageIndex":17,"items":[{"name":"반값할인창고","tel":"02-6347-7788","addr":"경기도 군포시 산본동 216-11번지 지하","indutype":"신변잡화 - 기타잡화","category":"other"},{"name":"보석사랑","tel":"031-396-6077","addr":"경기도 군포시 산본동 216-11번지 1층","indutype":"신변잡화 - 귀금속","category":"other"},{"name":"부부상회","tel":"031-393-3211","addr":"경기도 군포시 산본동 216-11번지","indutype":"의류 - 내의판매","category":"other"}]},{"lat":"37.363104983","long":"126.9257721","imageIndex":17,"items":[{"name":"반딧불이군포점","tel":"031-391-7962","addr":"경기도 군포시 산본동 1146번지 솔거(대림)아파트","indutype":"용역 서비스 - 종합용역","category":"other"}]},{"lat":"37.354004037","long":"126.92470916","imageIndex":17,"items":[{"name":"버터비(Butter Be)","tel":"070-8884-8203","addr":"경기도 군포시 산본동 1155번지 가야(주공)아파트","indutype":"회원제형태 - 기타4","category":"other"}]},{"lat":"37.371472837","long":"126.93639822","imageIndex":17,"items":[{"name":"베이비포토초원사진관","tel":"031-396-4000","addr":"경기도 군포시 산본동 99-39번지","indutype":"광학제품 - 사진관","category":"other"},{"name":"사진사랑","tel":"031-396-4000","addr":"경기도 군포시 산본동 99-39번지 1층","indutype":"광학제품 - 사진관","category":"other"}]},{"lat":"37.370726822","long":"126.93972924","imageIndex":17,"items":[{"name":"베이지","tel":"02-2207-8005","addr":"경기도 군포시 산본동 91-5번지 101호","indutype":"의류 - 정장","category":"other"}]},{"lat":"37.36030685","long":"126.93220901","imageIndex":17,"items":[{"name":"베이프로(Vapero)","tel":"031-395-9088","addr":"경기도 군포시 산본동 1131번지 서련빌딩 1층","indutype":"기타 - 기타 전문점","category":"other"},{"name":"주식회사 도담도담","tel":"031-1111-1111","addr":"경기도 군포시 산본동 1131번지 서련빌딩 7층 701호","indutype":"용역 서비스 - 기타용역서비스","category":"other"}]},{"lat":"37.372140371","long":"126.93780883","imageIndex":17,"items":[{"name":"보물찾기","tel":"031-397-9352","addr":"경기도 군포시 산본동 80-25번지","indutype":"의류 - 정장","category":"other"}]},{"lat":"37.370581145","long":"126.93695218","imageIndex":17,"items":[{"name":"보석마을","tel":"031-398-9011","addr":"경기도 군포시 산본동 213-7번지","indutype":"신변잡화 - 시계","category":"other"},{"name":"쉐르빌","tel":"031-398-5565","addr":"경기도 군포시 산본동 213-7번지","indutype":"직물 - 침구·수예점","category":"other"}]},{"lat":"37.370944573","long":"126.94261914","imageIndex":17,"items":[{"name":"보아노래연습장","tel":"031-394-3195","addr":"경기도 군포시 산본동 252-8번지 지층","indutype":"용역 서비스 - 종합용역","category":"other"}]},{"lat":"37.356677185","long":"126.92048495","imageIndex":17,"items":[{"name":"본좌랜드","tel":"","addr":"경기도 군포시 산본동 1151-5번지 한양수리아파트","indutype":"유통업 영리 - 기타유통업","category":"other"},{"name":"찬테크","tel":"","addr":"경기도 군포시 산본동 1151-5번지 한양수리아파트","indutype":"용역 서비스 - 기타용역서비스","category":"other"}]},{"lat":"37.360109216","long":"126.91929598","imageIndex":17,"items":[{"name":"봄날야끼","tel":"031-399-4846","addr":"경기도 군포시 산본동 1148-4번지 주공9단지금강아파트","indutype":"신변잡화 - 기념품점","category":"other"}]},{"lat":"37.368250088","long":"126.94172947","imageIndex":17,"items":[{"name":"북메이커","tel":"","addr":"경기도 군포시 산본동 1029-13번지 104호","indutype":"서적문구 - 출판 및 인쇄물","category":"other"},{"name":"비전코리아","tel":"031-429-2413","addr":"경기도 군포시 산본동 1029-13번지","indutype":"의류 - 기타의류","category":"other"}]},{"lat":"37.358027095","long":"126.9318951","imageIndex":17,"items":[{"name":"브니엘테크","tel":"031-399-4050","addr":"경기도 군포시 산본동 1142-6번지 신명빌딩 2층 201호","indutype":"사무통신 - 통신기기","category":"other"},{"name":"티지에스 군포센터","tel":"031-395-3582","addr":"경기도 군포시 산본동 1142-6번지 신명산빌딩 5층 501호","indutype":"사무통신 - 컴퓨터","category":"other"},{"name":"포텐스터디카페","tel":"","addr":"경기도 군포시 산본동 1142-6번지 신명산빌딩 305,306,307호","indutype":"용역 서비스 - 사무서비스","category":"other"},{"name":"혜진패션","tel":"031-000-0000","addr":"경기도 군포시 산본동 1142-6번지 신명산빌딩 503호","indutype":"의류 - 내의판매","category":"other"}]},{"lat":"37.374279804","long":"126.92931698","imageIndex":17,"items":[{"name":"블랙슈가","tel":"","addr":"경기도 군포시 산본동 1068-3번지 102호","indutype":"의류 - 정장","category":"other"}]},{"lat":"37.369916235","long":"126.94033954","imageIndex":17,"items":[{"name":"블랙앤화이트","tel":"031-399-7214","addr":"경기도 군포시 산본동 235-17번지 1층 3호","indutype":"의류 - 정장","category":"other"}]},{"lat":"37.35975408","long":"126.92711876","imageIndex":17,"items":[{"name":"블럭팡","tel":"070-4103-9224","addr":"경기도 군포시 산본동 1146-7번지 2층 201-1호","indutype":"서적문구 - 완구점","category":"other"},{"name":"현대그린골프연습장","tel":"031-398-8359","addr":"경기도 군포시 산본동 1146-7번지 지층","indutype":"회원제형태 - 레져업소","category":"other"}]},{"lat":"37.36700564","long":"126.93973236","imageIndex":17,"items":[{"name":"비앤에스코리아","tel":"031-000-0000","addr":"경기도 군포시 산본동 1035-6번지 1층 101호","indutype":"용역 서비스 - 종합용역","category":"other"},{"name":"엠씨솔루션","tel":"031-344-2040","addr":"경기도 군포시 산본동 1035-6번지 3층","indutype":"주방용구 - 주방용구","category":"other"}]},{"lat":"37.359249069","long":"126.92643073","imageIndex":17,"items":[{"name":"사단법인군포시새마을회","tel":"031-396-4135","addr":"경기도 군포시 산본동 1146-9번지","indutype":"기타 - 비영리/대상","category":"other"}]},{"lat":"37.374475213","long":"126.9400648","imageIndex":17,"items":[{"name":"사랑나눔 유통","tel":"031-429-3771","addr":"경기도 군포시 산본동 79번지 1층","indutype":"회원제형태 - 기타4","category":"other"}]},{"lat":"37.371970941","long":"126.94109423","imageIndex":17,"items":[{"name":"산본1동우편취급소","tel":"031-392-0116","addr":"경기도 군포시 산본동 93-20번지 1층","indutype":"용역 서비스 - 공공요금대행서비스/소","category":"other"}]},{"lat":"37.370417604","long":"126.93455899","imageIndex":17,"items":[{"name":"산본2동우체국","tel":"031-395-2005","addr":"경기도 군포시 산본동 1062-1번지","indutype":"용역 서비스 - 공공요금대행서비스/소","category":"other"}]},{"lat":"37.371862422","long":"126.94033792","imageIndex":17,"items":[{"name":"산본라이온스클럽","tel":"031-393-7200","addr":"경기도 군포시 산본동 90-41번지","indutype":"기타 - 비영리/대상","category":"other"},{"name":"시민제일법무사사무소 법무사 조충일","tel":"031-397-8272","addr":"경기도 군포시 산본동 90-41번지 4층 301호","indutype":"용역 서비스 - 법률회계서비스(개인)","category":"other"}]},{"lat":"37.372581253","long":"126.93670206","imageIndex":17,"items":[{"name":"산본로타리클럽","tel":"031-392-3750","addr":"경기도 군포시 산본동 55-1번지 3층","indutype":"기타 - 비영리/대상","category":"other"}]},{"lat":"37.359171633","long":"126.93231166","imageIndex":17,"items":[{"name":"산본멀티전자담배","tel":"070-4205-5874","addr":"경기도 군포시 산본동 1134-2번지 신명타워 지하1층 ,1006","indutype":"기타 - 기타 전문점","category":"other"},{"name":"씨유산본역점","tel":"031-392-0932","addr":"경기도 군포시 산본동 1134-2번지 신명타워 1층 1005호","indutype":"유통업 영리 - 편 의 점","category":"other"}]},{"lat":"37.37369225","long":"126.94181537","imageIndex":17,"items":[{"name":"산본목공인테리어","tel":"031-394-1309","addr":"경기도 군포시 산본동 86-56번지","indutype":"건축자재 - 인테리어전문","category":"other"}]},{"lat":"37.368086467","long":"126.93900896","imageIndex":17,"items":[{"name":"산본베지밀","tel":"031-393-7282","addr":"경기도 군포시 산본동 229-16번지 3층","indutype":"회원제형태 - 기타4","category":"other"},{"name":"씨유산본금산점","tel":"080-080-3663","addr":"경기도 군포시 산본동 229-16번지 1층 101호","indutype":"유통업 영리 - 편 의 점","category":"other"}]},{"lat":"37.373275653","long":"126.93781914","imageIndex":17,"items":[{"name":"산본볼링장프로샵","tel":"031-395-3456","addr":"경기도 군포시 산본동 71번지","indutype":"수리서비스 - 레져용품수리","category":"other"}]},{"lat":"37.370808588","long":"126.94100487","imageIndex":17,"items":[{"name":"산본애견","tel":"031-394-0816","addr":"경기도 군포시 산본동 238-8번지","indutype":"문화.취미 - 애완동물","category":"other"},{"name":"에덴표구사","tel":"031-393-7207","addr":"경기도 군포시 산본동 238-8번지","indutype":"문화.취미 - 화방·표구점","category":"other"}]},{"lat":"37.364527272","long":"126.92378388","imageIndex":17,"items":[{"name":"산본역사점","tel":"031-392-8237","addr":"경기도 군포시 산본동 1119 한양백두상가지하31호","indutype":"사무통신 - 기타 사무용품","category":"other"},{"name":"필인테리어","tel":"031-396-7704","addr":"경기도 군포시 산본동 1119 백두한양상가지하1호(55호)","indutype":"직물 - 카페트,커튼,천막,지물","category":"other"}]},{"lat":"37.372780773","long":"126.93906143","imageIndex":17,"items":[{"name":"산본중고가전마트","tel":"031-396-4545","addr":"경기도 군포시 산본동 84-18번지 B동 102호","indutype":"전기제품 - 가전제품","category":"other"},{"name":"크린토피아 군포금정역점","tel":"031-399-1977","addr":"경기도 군포시 산본동 84-18번지 B동 102호","indutype":"수리서비스 - 세탁소","category":"other"}]},{"lat":"37.374782199","long":"126.94128386","imageIndex":17,"items":[{"name":"산본팻애견용품할인마트","tel":"031-393-0033","addr":"경기도 군포시 산본동 79-69번지","indutype":"문화.취미 - 애완동물","category":"other"}]},{"lat":"37.359170445","long":"126.93034761","imageIndex":17,"items":[{"name":"산본포토샵","tel":"031-391-3169","addr":"경기도 군포시 산본동 1144-2번지 산본시네마 106호","indutype":"광학제품 - 사진관","category":"other"},{"name":"스타일노리터(산본로데오점)","tel":"031-392-7778","addr":"경기도 군포시 산본동 1144-2번지 세종빌딩 1층 103호","indutype":"의류 - 아동의류","category":"other"},{"name":"시네마통신","tel":"031-392-8010","addr":"경기도 군포시 산본동 1144-2번지 시네마타운 104동 105호","indutype":"사무통신 - 통신기기","category":"other"},{"name":"투마이스텔레콤(주)_PS_PS","tel":"0343-393-4011","addr":"경기도 군포시 산본동 1144-2번지","indutype":"사무통신 - 통신기기","category":"other"}]},{"lat":"37.369248731","long":"126.93892895","imageIndex":17,"items":[{"name":"삼미모피","tel":"031-395-6709","addr":"경기도 군포시 산본동 224-14번지","indutype":"의류 - 정장","category":"other"}]},{"lat":"37.371052918","long":"126.94305935","imageIndex":17,"items":[{"name":"삼성결혼정보","tel":"031-399-0010","addr":"경기도 군포시 산본동 266-8번지 화성빌딩 501호","indutype":"용역 서비스 - 혼례서비스","category":"other"}]},{"lat":"37.370475478","long":"126.94151317","imageIndex":17,"items":[{"name":"삼성세탁소","tel":"031-396-1325","addr":"경기도 군포시 산본동 239-10번지","indutype":"수리서비스 - 세탁소","category":"other"}]},{"lat":"37.364196041","long":"126.92705786","imageIndex":17,"items":[{"name":"삼성에듀센터","tel":"070-7548-0971","addr":"경기도 군포시 산본동 1120번지 주몽아파트","indutype":"서적문구 - 일반서적","category":"other"}]},{"lat":"37.368706487","long":"126.93597168","imageIndex":17,"items":[{"name":"삼성열쇠","tel":"031-394-9107","addr":"경기도 군포시 산본동 1240번지 래미안하이어스 104동 701호","indutype":"회원제형태 - 기타4","category":"other"}]},{"lat":"37.368366036","long":"126.93948286","imageIndex":17,"items":[{"name":"삼성특판시스템","tel":"031-398-4000","addr":"경기도 군포시 산본동 229-12번지 1층","indutype":"사무통신 - 컴퓨터","category":"other"},{"name":"숭신전기","tel":"031-398-6913","addr":"경기도 군포시 산본동 229-12번지 101호","indutype":"용역 서비스 - 기타용역서비스","category":"other"}]},{"lat":"37.367671867","long":"126.93876096","imageIndex":17,"items":[{"name":"삼원종합인테리어","tel":"031-95-1083","addr":"경기도 군포시 산본동 230-1번지","indutype":"직물 - 카페트,커튼,천막,지물","category":"other"},{"name":"지은주방","tel":"031-396-2422","addr":"경기도 군포시 산본동 230-1번지 지하층","indutype":"주방용구 - 주방용구","category":"other"}]},{"lat":"37.373385993","long":"126.94198496","imageIndex":17,"items":[{"name":"삼익악기산본특약점","tel":"031-96-3232","addr":"경기도 군포시 산본동 97-40번지","indutype":"레져용품 - 악기점","category":"other"},{"name":"샤르망 스킨케어","tel":"031-397-8573","addr":"경기도 군포시 산본동 97-40번지 2층","indutype":"회원제형태 - 기타4","category":"other"}]},{"lat":"37.375142504","long":"126.94109163","imageIndex":17,"items":[{"name":"삼화인테리어","tel":"","addr":"경기도 군포시 산본동 75-64번지 지하 101호","indutype":"건축자재 - 인테리어전문","category":"other"}]},{"lat":"37.370525908","long":"126.934875","imageIndex":17,"items":[{"name":"상록수족관","tel":"031-494-4970","addr":"경기도 군포시 산본동 207-23","indutype":"문화.취미 - 수족관","category":"other"}]},{"lat":"37.368249971","long":"126.94150369","imageIndex":17,"items":[{"name":"새미래기획","tel":"031-396-8557","addr":"경기도 군포시 산본동 1029-10번지","indutype":"용역 서비스 - 종합용역","category":"other"}]},{"lat":"37.370365594","long":"126.93820549","imageIndex":17,"items":[{"name":"샤론","tel":"031-395-8370","addr":"경기도 군포시 산본동 220-2번지 1층","indutype":"의류 - 정장","category":"other"},{"name":"해피론경아네","tel":"031-391-0397","addr":"경기도 군포시 산본동 220-2번지 1층 2호","indutype":"직물 - 침구·수예점","category":"other"}]},{"lat":"37.35963902","long":"126.93042618","imageIndex":17,"items":[{"name":"샤이니","tel":"031-395-3070","addr":"경기도 군포시 산본동 1137-2번지 여명프라자 102호","indutype":"신변잡화 - 액세서리","category":"other"}]},{"lat":"37.37291898","long":"126.92884414","imageIndex":17,"items":[{"name":"샵펠로톤(#PELOTON)","tel":"031-399-4959","addr":"경기도 군포시 산본동 1077-3번지 1층 3호","indutype":"레져용품 - 스포츠·레져용품","category":"other"},{"name":"은하인테리어","tel":"031-398-9862","addr":"경기도 군포시 산본동 1077-3번지 101호","indutype":"직물 - 카페트,커튼,천막,지물","category":"other"}]},{"lat":"37.370806322","long":"126.93681651","imageIndex":17,"items":[{"name":"서원세무회계사무소","tel":"031-395-8200","addr":"경기도 군포시 산본동 213-9번지 304호","indutype":"용역 서비스 - 법률회계서비스(개인)","category":"other"}]},{"lat":"37.374861811","long":"126.93850646","imageIndex":17,"items":[{"name":"선연정사","tel":"031-441-9994","addr":"경기도 군포시 산본동 48-2번지 우양파크빌 801호","indutype":"기타 - 비영리/비대상","category":"other"}]},{"lat":"37.369501075","long":"126.93904163","imageIndex":17,"items":[{"name":"선우F/S","tel":"031-393-1943","addr":"경기도 군포시 산본동 224-11번지","indutype":"주방용구 - 주방용구","category":"other"},{"name":"예원","tel":"070-4095-2210","addr":"경기도 군포시 산본동 224-11번지 1층","indutype":"의류 - 정장","category":"other"}]},{"lat":"37.377666335","long":"126.94303151","imageIndex":17,"items":[{"name":"성우산업","tel":"031-458-4074","addr":"경기도 군포시 산본동 18-27번지","indutype":"가구 - 기타가구","category":"other"}]},{"lat":"37.367807135","long":"126.93897533","imageIndex":17,"items":[{"name":"성주컴퓨터","tel":"031-398-1225","addr":"경기도 군포시 산본동 230-3번지","indutype":"사무통신 - 컴퓨터","category":"other"}]},{"lat":"37.373918376","long":"126.94353124","imageIndex":17,"items":[{"name":"성지통신","tel":"031-000-0000","addr":"경기도 군포시 산본동 1026-10번지 금정삼성쉐르빌 1층 116호","indutype":"사무통신 - 통신기기","category":"other"},{"name":"세븐일레븐금정삼성쉐르빌","tel":"","addr":"경기도 군포시 산본동 1026-10번지 외8필지금정삼성쉐르빌상가 148호","indutype":"유통업 영리 - 편 의 점","category":"other"},{"name":"세븐일레븐금정삼성쉐르빌점","tel":"031-1577-0711","addr":"경기도 군포시 산본동 1026-10번지 금정삼성쉐르빌 148호","indutype":"유통업 영리 - 편 의 점","category":"other"},{"name":"스튜디오 꽃들","tel":"031-000-0000","addr":"경기도 군포시 산본동 1026-10번지 금정삼성쉐르빌 1층 114호","indutype":"문화.취미 - 화원","category":"other"},{"name":"스튜디오꽃들","tel":"031-459-9979","addr":"경기도 군포시 산본동 1026-10번지 금정삼성쉐르빌 1층 114호","indutype":"문화.취미 - 화원","category":"other"},{"name":"에스케이엘","tel":"","addr":"경기도 군포시 산본동 1026-10번지 금정삼성쉐르빌 2동 22층 3호","indutype":"서적문구 - 완구점","category":"other"},{"name":"와글와글유통","tel":"031-245-4950","addr":"경기도 군포시 산본동 1026-10번지 금정삼성쉐르빌 1동 1502호","indutype":"신변잡화 - 기타잡화","category":"other"},{"name":"주식회사 티엔엠즈","tel":"031-396-4029","addr":"경기도 군포시 산본동 1026-10번지 금정삼성쉐르빌 1동 301호","indutype":"전기제품 - 기타전기제품","category":"other"},{"name":"주식회사애드비젼","tel":"031-348-1235","addr":"경기도 군포시 산본동 1023-10삼성쉐르빌오피스텔A-2602","indutype":"용역 서비스 - 종합용역","category":"other"},{"name":"한국방과후교육본부 군포,의왕,과천지부","tel":"031-427-7135","addr":"경기도 군포시 산본동 1026-10번지 금정삼성쉐르빌 1동 1-1902","indutype":"서적문구 - 기타서적문구","category":"other"},{"name":"한빛법무사","tel":"031-451-5506","addr":"경기도 군포시 산본동 1026-10번지 금정삼성쉐르빌 106호","indutype":"용역 서비스 - 법률회계서비스(개인)","category":"other"}]},{"lat":"37.37761175","long":"126.94200413","imageIndex":17,"items":[{"name":"성진테크","tel":"031-429-1416","addr":"경기도 군포시 산본동 1-17번지","indutype":"기타 - 기계공구","category":"other"},{"name":"주식회사이엘피텍","tel":"031-429-4930","addr":"경기도 군포시 산본동 1-17번지","indutype":"기타 - 기타 전문점","category":"other"}]},{"lat":"37.367726893","long":"126.94056714","imageIndex":17,"items":[{"name":"세경세탁소","tel":"031-455-9562","addr":"경기도 군포시 산본동 1034-6번지 1층","indutype":"수리서비스 - 세탁소","category":"other"}]},{"lat":"37.370636528","long":"126.93936806","imageIndex":17,"items":[{"name":"세계기획","tel":"031-395-5005","addr":"경기도 군포시 산본동 89-21번지","indutype":"용역 서비스 - 종합용역","category":"other"},{"name":"윤","tel":"031-395-8489","addr":"경기도 군포시 산본동 89-21번지 하나빌딩 104호","indutype":"의류 - 정장","category":"other"}]},{"lat":"37.359811554","long":"126.93264969","imageIndex":17,"items":[{"name":"세계유학정보센타군포지사","tel":"031-396-8100","addr":"경기도 군포시 산본동 1130-1번지 비전빌딩 7층","indutype":"회원제형태 - 기타3","category":"other"},{"name":"신화엘리베이터(주)","tel":"02-1566-0308","addr":"경기도 군포시 산본동 1130-1번지 비젼빌딩 301호","indutype":"용역 서비스 - 기타용역서비스","category":"other"},{"name":"짜리(JJARI)","tel":"031-392-8097","addr":"경기도 군포시 산본동 1130-1번지 비전빌딩 1층 103호","indutype":"의류 - 정장","category":"other"}]},{"lat":"37.368672526","long":"126.93975354","imageIndex":17,"items":[{"name":"세기광고기획","tel":"031-394-8433","addr":"경기도 군포시 산본동 229-8번지 101호","indutype":"건축자재 - 인테리어전문","category":"other"}]},{"lat":"37.371807226","long":"126.93822683","imageIndex":17,"items":[{"name":"세르망","tel":"031-0000-0000","addr":"경기도 군포시 산본동 82-3번지 1층","indutype":"의류 - 정장","category":"other"}]},{"lat":"37.376693002","long":"126.94255809","imageIndex":17,"items":[{"name":"세무법인 다솔위드 안양지점","tel":"031-477-4144","addr":"경기도 군포시 산본동 18-14번지 우경타워 601호","indutype":"용역 서비스 - 법률회계서비스(법인)","category":"other"},{"name":"아사히테크","tel":"031-454-2086","addr":"경기도 군포시 산본동 18-14번지 우경타워 301호","indutype":"건축자재 - 페인트","category":"other"},{"name":"오피스마켓","tel":"031-477-1541","addr":"경기도 군포시 산본동 18-14번지 우경타워 1층","indutype":"전기제품 - 가전제품","category":"other"},{"name":"주식회사훼미리양산","tel":"031-427-1653","addr":"경기도 군포시 산본동 18-14번지 우경타워 4층","indutype":"신변잡화 - 기타잡화","category":"other"},{"name":"효성큐비클","tel":"031-452-5999","addr":"경기도 군포시 산본동 18-14번지 우경타워 702호","indutype":"건축자재 - 건축용 요업제품","category":"other"}]},{"lat":"37.359226176","long":"126.93312432","imageIndex":17,"items":[{"name":"세무사김문식사무소","tel":"031-397-0212","addr":"경기도 군포시 산본동 1128번지 동아프라자 403호","indutype":"용역 서비스 - 법률회계서비스(개인)","category":"other"},{"name":"세븐일레븐산본희망점","tel":"","addr":"경기도 군포시 산본동 1128번지 금성프라자 101호","indutype":"유통업 영리 - 편 의 점","category":"other"},{"name":"지성네트웍스","tel":"070-7568-7511","addr":"경기도 군포시 산본동 1128번지 금성프라자 4층 14호","indutype":"전기제품 - 가전제품","category":"other"},{"name":"한남전기","tel":"031-399-2662","addr":"경기도 군포시 산본동 1128번지 금성프라자 109호","indutype":"사무통신 - 통신기기","category":"other"},{"name":"행운자재","tel":"02-111-1111","addr":"경기도 군포시 산본동 1128번지 금성프라자빌딩 401호","indutype":"신변잡화 - 기타잡화","category":"other"}]},{"lat":"37.370754645","long":"126.9412307","imageIndex":17,"items":[{"name":"세븐일레븐금정영빈점","tel":"031-395-3789","addr":"경기도 군포시 산본동 238-10번지 광정빌딩 1층","indutype":"유통업 영리 - 편 의 점","category":"other"},{"name":"세븐일레븐금정영빈점","tel":"","addr":"경기도 군포시 산본동 238-10번지 1층 광정빌딩","indutype":"유통업 영리 - 편 의 점","category":"other"}]},{"lat":"37.37133773","long":"126.93647737","imageIndex":17,"items":[{"name":"세븐일레븐산본시장점","tel":"031-1577-0711","addr":"경기도 군포시 산본동 99-49번지 1층","indutype":"유통업 영리 - 편 의 점","category":"other"}]},{"lat":"37.359304141","long":"126.92801094","imageIndex":17,"items":[{"name":"세종세탁소","tel":"031-396-6113","addr":"경기도 군포시 산본동 1145-2 2층","indutype":"수리서비스 - 세탁소","category":"other"},{"name":"열린교회","tel":"031-395-4409","addr":"경기도 군포시 산본동 1145-2번지","indutype":"서적문구 - 전문서적","category":"other"},{"name":"창대인테리어","tel":"031-391-6622","addr":"경기도 군포시 산본동 1145-2번지 세종 종합상가 105호","indutype":"건축자재 - 인테리어전문","category":"other"}]},{"lat":"37.369888808","long":"126.93959447","imageIndex":17,"items":[{"name":"세종통신","tel":"031-397-0017","addr":"경기도 군포시 산본동 236-4번지","indutype":"사무통신 - 통신기기","category":"other"}]},{"lat":"37.372721785","long":"126.93050391","imageIndex":17,"items":[{"name":"세탁마을","tel":"031-395-4475","addr":"경기도 군포시 산본동 1066-2번지 대현프라자 1층 106호","indutype":"수리서비스 - 세탁소","category":"other"}]},{"lat":"37.362254852","long":"126.92104325","imageIndex":17,"items":[{"name":"세탁을위한사람들","tel":"031-392-3062","addr":"경기도 군포시 산본동 1148 묘향롯데상가 106","indutype":"수리서비스 - 세탁소","category":"other"}]},{"lat":"37.362245071","long":"126.91993703","imageIndex":17,"items":[{"name":"소모노(somono)","tel":"","addr":"경기도 군포시 산본동 1148번지 묘향(롯데)아파트","indutype":"의류 - 정장","category":"other"}]},{"lat":"37.370140093","long":"126.93775411","imageIndex":17,"items":[{"name":"속옷란제리","tel":"031-393-5198","addr":"경기도 군포시 산본동 218-6번지","indutype":"의류 - 정장","category":"other"}]},{"lat":"37.372531403","long":"126.92861873","imageIndex":17,"items":[{"name":"수리산뜨락","tel":"","addr":"경기도 군포시 산본동 1078-2번지 1층 101호","indutype":"문화.취미 - 화원","category":"other"},{"name":"신흥유통","tel":"031-393-2226","addr":"경기도 군포시 산본동 1078-2번지 지하층","indutype":"신변잡화 - 기타잡화","category":"other"}]},{"lat":"37.36052475","long":"126.92081938","imageIndex":17,"items":[{"name":"수리산적","tel":"031-393-5382","addr":"경기도 군포시 산본동 1148-4번지 주공9단지금강아파트","indutype":"회원제형태 - 기타4","category":"other"}]},{"lat":"37.355476174","long":"126.91675024","imageIndex":17,"items":[{"name":"수인산업","tel":"031-360-4222","addr":"경기도 군포시 산본동 1152-2번지 덕유아파트","indutype":"직물 - 침구·수예점","category":"other"}]},{"lat":"37.37067134","long":"126.93712145","imageIndex":17,"items":[{"name":"수정이불","tel":"031-394-6801","addr":"경기도 군포시 산본동 213-6번지 103호","indutype":"직물 - 침구·수예점","category":"other"}]},{"lat":"37.368833761","long":"126.9380036","imageIndex":17,"items":[{"name":"수진정보통신 산본점","tel":"031-398-6010","addr":"경기도 군포시 산본동 224-1번지","indutype":"사무통신 - 통신기기","category":"other"},{"name":"예쁨","tel":"031-391-9703","addr":"경기도 군포시 산본동 224-1번지 1층","indutype":"신변잡화 - 액세서리","category":"other"}]},{"lat":"37.371977213","long":"126.93605909","imageIndex":17,"items":[{"name":"스마일시니어 진영노인재가복지센터","tel":"031-392-4135","addr":"경기도 군포시 산본동 206-1번지 태림빌딩 4층 401호","indutype":"기타의료기관 - 기타의료기관 및 기타","category":"other"}]},{"lat":"37.344652485","long":"126.9262311","imageIndex":17,"items":[{"name":"스튜디오 광합성/(주) 페타비전","tel":"031-000-0000","addr":"경기도 군포시 산본동 1156-15번지 한라4단지주공아파트","indutype":"광학제품 - 사진관","category":"other"},{"name":"자이온안양","tel":"070-7565-7468","addr":"경기도 군포시 산본동 1156-15번지 한라4단지주공아파트","indutype":"주방용구 - 정수기","category":"other"}]},{"lat":"37.371781681","long":"126.94100407","imageIndex":17,"items":[{"name":"스튜디오 에이치앤에스","tel":"070-2676-8634","addr":"경기도 군포시 산본동 92-4번지 지층","indutype":"용역 서비스 - 사무서비스","category":"other"}]},{"lat":"37.366767251","long":"126.93242872","imageIndex":17,"items":[{"name":"스티치엔 가죽공방","tel":"031-000-0000","addr":"경기도 군포시 산본동 1092번지 장미아파트","indutype":"문화.취미 - 문화취미기타","category":"other"}]},{"lat":"37.370311073","long":"126.93737013","imageIndex":17,"items":[{"name":"신발나라","tel":"031-393-7335","addr":"경기도 군포시 산본동 216-3번지","indutype":"신변잡화 - 신발","category":"other"}]},{"lat":"37.364142762","long":"126.92828834","imageIndex":17,"items":[{"name":"신비교역","tel":"","addr":"경기도 군포시 산본동 1120번지 주몽아파트","indutype":"전기제품 - 기타전기제품","category":"other"}]},{"lat":"37.367528753","long":"126.94072534","imageIndex":17,"items":[{"name":"신성전광판","tel":"031-459-5055","addr":"경기도 군포시 산본동 1034-12번지 1층","indutype":"건축자재 - 인테리어전문","category":"other"}]},{"lat":"37.370087194","long":"126.93989912","imageIndex":17,"items":[{"name":"신영당","tel":"031-394-6201","addr":"경기도 군포시 산본동 236-7번지","indutype":"신변잡화 - 시계","category":"other"},{"name":"이브자리","tel":"031-396-5433","addr":"경기도 군포시 산본동 236-7번지","indutype":"직물 - 침구·수예점","category":"other"}]},{"lat":"37.372825573","long":"126.93859851","imageIndex":17,"items":[{"name":"신화건업","tel":"","addr":"경기도 군포시 산본동 80-12번지 풍림빌라 B동 B01호","indutype":"용역 서비스 - 기타용역서비스","category":"other"}]},{"lat":"37.346689313","long":"126.92705289","imageIndex":17,"items":[{"name":"신화렌탈","tel":"031-391-6565","addr":"경기도 군포시 산본동 1156-15번지 한라4단지주공아파트","indutype":"신변잡화 - 기타잡화","category":"other"}]},{"lat":"37.372699566","long":"126.93884699","imageIndex":17,"items":[{"name":"싸인프로","tel":"031-441-9888","addr":"경기도 군포시 산본동 83번지","indutype":"용역 서비스 - 종합용역","category":"other"},{"name":"죤클린테크","tel":"031-465-2020","addr":"경기도 군포시 산본동 83번지 1층 103호","indutype":"용역 서비스 - 종합용역","category":"other"}]},{"lat":"37.358009212","long":"126.91839531","imageIndex":17,"items":[{"name":"쌈지신발","tel":"031-405-4404","addr":"경기도 군포시 산본동 1151-9번지 설악아파트","indutype":"신변잡화 - 신발","category":"other"},{"name":"잉크나래","tel":"031-395-0149","addr":"경기도 군포시 산본동 1151-9번지 설악아파트","indutype":"회원제형태 - 기타4","category":"other"},{"name":"카라 미용재료","tel":"031-8236-4308","addr":"경기도 군포시 산본동 1151-9번지 설악아파트","indutype":"회원제형태 - 기타4","category":"other"}]},{"lat":"37.371309463","long":"126.93430982","imageIndex":17,"items":[{"name":"써클30 산본클럽","tel":"031-396-7330","addr":"경기도 군포시 산본동 1061-1번지 현대아카데미 603호","indutype":"회원제형태 - 레져업소","category":"other"},{"name":"앤셜리","tel":"031-399-5068","addr":"경기도 군포시 산본동 1061-1번지 현대아카데미센터 204호","indutype":"직물 - 침구·수예점","category":"other"}]},{"lat":"37.371418195","long":"126.93537093","imageIndex":17,"items":[{"name":"씨에이치(CH)컴 앤 에듀","tel":"031-397-0363","addr":"경기도 군포시 산본동 207-8번지","indutype":"서적문구 - 기타서적문구","category":"other"}]},{"lat":"37.364634862","long":"126.92299357","imageIndex":17,"items":[{"name":"씨엘케이","tel":"","addr":"경기도 군포시 산본동 1119번지 한양백두아파트","indutype":"서적문구 - 과학기자재","category":"other"}]},{"lat":"37.374613437","long":"126.92973438","imageIndex":17,"items":[{"name":"씨유군포곡란점","tel":"031-898-6569","addr":"경기도 군포시 산본동 1069번지 1층 103,104호","indutype":"유통업 영리 - 편 의 점","category":"other"},{"name":"옷카페","tel":"031-349-2280","addr":"경기도 군포시 산본동 1069번지 102호","indutype":"수리서비스 - 세탁소","category":"other"}]},{"lat":"37.371529977","long":"126.94212194","imageIndex":17,"items":[{"name":"씨유군포금정점","tel":"031-399-3083","addr":"경기도 군포시 산본동 265-9번지 전체 1층","indutype":"유통업 영리 - 편 의 점","category":"other"},{"name":"훈민텔레콤","tel":"070-7613-9036","addr":"경기도 군포시 산본동 265-9번지","indutype":"사무통신 - 통신기기","category":"other"}]},{"lat":"37.372167202","long":"126.93744754","imageIndex":17,"items":[{"name":"씨유군포산본시장점","tel":"031-402-1880","addr":"경기도 군포시 산본동 81-1번지 1층 104호","indutype":"유통업 영리 - 편 의 점","category":"other"}]},{"lat":"37.359334556","long":"126.93356444","imageIndex":17,"items":[{"name":"씨유군포원광대병원점","tel":"031-399-3292","addr":"경기도 군포시 산본동 1142번지 1층","indutype":"유통업 영리 - 편 의 점","category":"other"},{"name":"학교법인영산학원산본장례식장","tel":"031-390-2388","addr":"경기도 군포시 산본동 1142번지","indutype":"용역 서비스 - 가례서비스업","category":"other"}]},{"lat":"37.3718088","long":"126.94117339","imageIndex":17,"items":[{"name":"씨유금정역점","tel":"080-080-3663","addr":"경기도 군포시 산본동 92-2번지 1층","indutype":"유통업 영리 - 편 의 점","category":"other"}]},{"lat":"37.360252321","long":"126.9314302","imageIndex":17,"items":[{"name":"씨유산본중앙점","tel":"031-398-8999","addr":"경기도 군포시 산본동 1133번지 삼정빌딩 1층 101호","indutype":"유통업 영리 - 편 의 점","category":"other"},{"name":"예스","tel":"031-394-8872","addr":"경기도 군포시 산본동 1133번지 삼정빌딩 103호","indutype":"의류 - 내의판매","category":"other"}]},{"lat":"37.371170021","long":"126.94300281","imageIndex":17,"items":[{"name":"씨제이올리브네트웍스(주)금정역점","tel":"031-392-3703","addr":"경기도 군포시 산본동 266-7번지 금정빌딩 1층","indutype":"유통업 영리 - 편 의 점","category":"other"}]},{"lat":"37.367114667","long":"126.92603892","imageIndex":17,"items":[{"name":"아네서넌(annesunun)","tel":"","addr":"경기도 군포시 산본동 1104-1번지 103호","indutype":"문화.취미 - 문화취미기타","category":"other"}]},{"lat":"37.37039379","long":"126.94037301","imageIndex":17,"items":[{"name":"아식스","tel":"031-391-4357","addr":"경기도 군포시 산본동 238-2번지","indutype":"레져용품 - 스포츠·레져용품","category":"other"}]},{"lat":"37.370419025","long":"126.93706522","imageIndex":17,"items":[{"name":"아식스금정대리점","tel":"031-393-0606","addr":"경기도 군포시 산본동 216-22번지","indutype":"레져용품 - 스포츠·레져용품","category":"other"}]},{"lat":"37.367502249","long":"126.92626431","imageIndex":17,"items":[{"name":"아이비플라워","tel":"031-393-5897","addr":"경기도 군포시 산본동 1106-3번지","indutype":"문화.취미 - 화원","category":"other"}]},{"lat":"37.37067281","long":"126.9398196","imageIndex":17,"items":[{"name":"아이지에이(산본시장점)","tel":"031-768-0708","addr":"경기도 군포시 산본동 91-6번지 1층","indutype":"유통업 영리 - 편 의 점","category":"other"},{"name":"큰돌","tel":"031-395-9448","addr":"경기도 군포시 산본동 91-6번지","indutype":"의류 - 정장","category":"other"}]},{"lat":"37.359197964","long":"126.93114901","imageIndex":17,"items":[{"name":"안녕,피어싱","tel":"031-393-0778","addr":"경기도 군포시 산본동 1139번지 거성빌딩2차 103호","indutype":"신변잡화 - 액세서리","category":"other"},{"name":"양키캔들 산본점","tel":"031-394-0088","addr":"경기도 군포시 산본동 1139번지 거성빌딩2차 104호","indutype":"신변잡화 - 기타잡화","category":"other"},{"name":"올리브영산본점","tel":"031-393-1432","addr":"경기도 군포시 산본동 1139번지 거성2차빌딩105호,106호,107호","indutype":"유통업 영리 - 편 의 점","category":"other"},{"name":"하루의휴식","tel":"","addr":"경기도 군포시 산본동 1139번지 거성빌딩2차 6층 601호","indutype":"용역 서비스 - 종합용역","category":"other"},{"name":"힐링샵","tel":"070-7573-9530","addr":"경기도 군포시 산본동 1139번지 거성빌딩2차","indutype":"전기제품 - 가전제품","category":"other"}]},{"lat":"37.377477254","long":"126.94329134","imageIndex":17,"items":[{"name":"알리코","tel":"031-427-4071","addr":"경기도 군포시 산본동 18-1번지","indutype":"서적문구 - 출판 및 인쇄물","category":"other"},{"name":"인더짐키즈포츠","tel":"031-444-8131","addr":"경기도 군포시 산본동 18-1번지 가동 2층","indutype":"용역 서비스 - 종합용역","category":"other"}]},{"lat":"37.358558876","long":"126.93219936","imageIndex":17,"items":[{"name":"알파산본점","tel":"031-393-1917","addr":"경기도 군포시 산본동 1142-10 동산상가지하층 101.102호","indutype":"서적문구 - 문구용품","category":"other"},{"name":"예지미에스테틱","tel":"031-395-2300","addr":"경기도 군포시 산본동 1142-10번지 동산빌딩 504호","indutype":"회원제형태 - 기타4","category":"other"},{"name":"포시즌(4seasons)","tel":"031-392-7208","addr":"경기도 군포시 산본동 1142-10번지 동산상가 지층 103-108호","indutype":"의류 - 정장","category":"other"}]},{"lat":"37.367277062","long":"126.92636614","imageIndex":17,"items":[{"name":"앤(Ann)","tel":"031-342-2001","addr":"경기도 군포시 산본동 1104-3번지","indutype":"의류 - 정장","category":"other"}]},{"lat":"37.369086798","long":"126.93939194","imageIndex":17,"items":[{"name":"앨리스의옷장","tel":"070-7018-5392","addr":"경기도 군포시 산본동 226-8번지 1층 102호","indutype":"의류 - 정장","category":"other"}]},{"lat":"37.359459903","long":"126.93222109","imageIndex":17,"items":[{"name":"얼짱몸짱산본점","tel":"031-398-1945","addr":"경기도 군포시 산본동 1134-1번지 센타빌딩 B동 305호","indutype":"회원제형태 - 기타4","category":"other"}]},{"lat":"37.369834113","long":"126.93842044","imageIndex":17,"items":[{"name":"에바다꽃집","tel":"031-422-1711","addr":"경기도 군포시 산본동 222-3번지","indutype":"문화.취미 - 화원","category":"other"},{"name":"유림철물","tel":"031-393-4290","addr":"경기도 군포시 산본동 222-3번지","indutype":"건축자재 - 목재·석재·철물","category":"other"},{"name":"토탈패션영창","tel":"031-394-2679","addr":"경기도 군포시 산본동 222-3번지","indutype":"의류 - 정장","category":"other"}]},{"lat":"37.375001545","long":"126.93082913","imageIndex":17,"items":[{"name":"에버문","tel":"031-395-3850","addr":"경기도 군포시 산본동 1066번지 개나리아파트","indutype":"신변잡화 - 액세서리","category":"other"}]},{"lat":"37.369672402","long":"126.93928985","imageIndex":17,"items":[{"name":"에스엔(SN)통신","tel":"031-399-2004","addr":"경기도 군포시 산본동 236-1번지","indutype":"사무통신 - 통신기기","category":"other"},{"name":"종합자전거","tel":"031-391-1007","addr":"경기도 군포시 산본동 236-1번지","indutype":"레져용품 - 스포츠·레져용품","category":"other"}]},{"lat":"37.356575543","long":"126.91692958","imageIndex":17,"items":[{"name":"에스엠테크","tel":"031-226-1283","addr":"경기도 군포시 산본동 1151-5번지 한양수리아파트","indutype":"전기제품 - 기타전기제품","category":"other"},{"name":"에스엠테크/원격지","tel":"031-342-7765","addr":"경기도 군포시 산본동 1151-5번지 한양수리아파트","indutype":"기타 - 기타 전문점","category":"other"}]},{"lat":"37.371529368","long":"126.94094783","imageIndex":17,"items":[{"name":"에스이디주얼리","tel":"031-393-7911","addr":"경기도 군포시 산본동 92-9번지 3층","indutype":"문화.취미 - 문화취미기타","category":"other"}]},{"lat":"37.374025449","long":"126.9414764","imageIndex":17,"items":[{"name":"에어컨스페이스","tel":"070-4079-2010","addr":"경기도 군포시 산본동 86-50번지 101호","indutype":"전기제품 - 냉열기기","category":"other"}]},{"lat":"37.369775867","long":"126.93115023","imageIndex":17,"items":[{"name":"에이치에스테크놀러지","tel":"0505-288-6901","addr":"경기도 군포시 산본동 1065-4번지 신한빌딩 2층","indutype":"서적문구 - 과학기자재","category":"other"}]},{"lat":"37.371337058","long":"126.93529197","imageIndex":17,"items":[{"name":"에코인아트","tel":"031-457-2028","addr":"경기도 군포시 산본동 207-7번지 지층","indutype":"문화.취미 - 문화취미기타","category":"other"},{"name":"판촉타임","tel":"070-7432-8782","addr":"경기도 군포시 산본동 207-7번지 5층 501호","indutype":"유통업 영리 - 기타유통업","category":"other"}]},{"lat":"37.374171788","long":"126.92948643","imageIndex":17,"items":[{"name":"에프엠에어컨","tel":"","addr":"경기도 군포시 산본동 1069-4번지 302호","indutype":"용역 서비스 - 기타용역서비스","category":"other"},{"name":"주식회사청하이엔지","tel":"031-429-6472","addr":"경기도 군포시 산본동 1069-4번지 1층","indutype":"별도관리 - 자체물품대금","category":"other"}]},{"lat":"37.374168392","long":"126.93917315","imageIndex":17,"items":[{"name":"에프오유","tel":"","addr":"경기도 군포시 산본동 74-17번지 1층 102호","indutype":"의류 - 정장","category":"other"},{"name":"테키나스토어","tel":"","addr":"경기도 군포시 산본동 74-17번지 101호","indutype":"의류 - 정장","category":"other"}]},{"lat":"37.362092451","long":"126.92072736","imageIndex":17,"items":[{"name":"에프원포유","tel":"070-7581-7652","addr":"경기도 군포시 산본동 1148번지 묘향(롯데)아파트","indutype":"용역 서비스 - 소프트웨어","category":"other"}]},{"lat":"37.377864432","long":"126.94278296","imageIndex":17,"items":[{"name":"엔텍스","tel":"02-2149-0311","addr":"경기도 군포시 산본동 18-25번지","indutype":"주방용구 - 주방용구","category":"other"}]},{"lat":"37.36580562","long":"126.92216826","imageIndex":17,"items":[{"name":"엘레강스","tel":"031-391-2398","addr":"경기도 군포시 산본동 1119번지 한양백두아파트","indutype":"의류 - 내의판매","category":"other"}]},{"lat":"37.373807386","long":"126.93806705","imageIndex":17,"items":[{"name":"엘지씽크","tel":"031-398-0888","addr":"경기도 군포시 산본동 73-4번지","indutype":"주방용구 - 기타주방용구","category":"other"}]},{"lat":"37.368582694","long":"126.94026162","imageIndex":17,"items":[{"name":"엘피스정보통신","tel":"031-656-8491","addr":"경기도 군포시 산본동 231-15번지 101호","indutype":"사무통신 - 통신기기","category":"other"}]},{"lat":"37.369303826","long":"126.94087064","imageIndex":17,"items":[{"name":"엠제이","tel":"031-848-5909","addr":"경기도 군포시 산본동 235-8번지 3층","indutype":"용역 서비스 - 기타용역서비스","category":"other"}]},{"lat":"37.370834823","long":"126.93950336","imageIndex":17,"items":[{"name":"여우랑","tel":"031-390-6003","addr":"경기도 군포시 산본동 91-3번지 1층","indutype":"의류 - 정장","category":"other"}]},{"lat":"37.370860921","long":"126.93778735","imageIndex":17,"items":[{"name":"예쁜여우","tel":"031-391-1365","addr":"경기도 군포시 산본동 233-14번지 1층","indutype":"의류 - 정장","category":"other"}]},{"lat":"37.358613399","long":"126.93297815","imageIndex":17,"items":[{"name":"예쁨","tel":"070-7557-0783","addr":"경기도 군포시 산본동 1142-2번지 대우디오플러스 1동 121호","indutype":"신변잡화 - 액세서리","category":"other"},{"name":"태을필름앤(주)/원격지","tel":"031-395-7767","addr":"경기도 군포시 산본동 1142-2번지 산본대우디오플러스 1동 1409호","indutype":"기타 - 기타 전문점","category":"other"}]},{"lat":"37.371115179","long":"126.94147878","imageIndex":17,"items":[{"name":"예술방가구","tel":"031-393-2464","addr":"경기도 군포시 산본동 265-3번지","indutype":"가구 - 일반가구","category":"other"}]},{"lat":"37.364477553","long":"126.93056827","imageIndex":17,"items":[{"name":"오늘은스터디카페","tel":"","addr":"경기도 군포시 산본동 1095번지 덕양빌딩 302호,303호","indutype":"용역 서비스 - 사무서비스","category":"other"},{"name":"중앙열쇠전기철물","tel":"031-395-1818","addr":"경기도 군포시 산본동 1095번지 덕양빌딩 1층 106호","indutype":"기타 - 기계공구","category":"other"}]},{"lat":"37.344427523","long":"126.92668275","imageIndex":17,"items":[{"name":"오바오타","tel":"070-7716-8992","addr":"경기도 군포시 산본동 1156-15번지 한라4단지주공아파트","indutype":"용역 서비스 - 사무서비스","category":"other"}]},{"lat":"37.355786831","long":"126.92289008","imageIndex":17,"items":[{"name":"오즈","tel":"031-341-3919","addr":"경기도 군포시 산본동 1152-7번지 계룡아파트","indutype":"회원제형태 - 기타4","category":"other"}]},{"lat":"37.359667258","long":"126.93242407","imageIndex":17,"items":[{"name":"옥상식당","tel":"031-396-5435","addr":"경기도 군포시 산본동 1130-2번지 정완프라자 6층 1,2호","indutype":"서적문구 - 완구점","category":"other"}]},{"lat":"37.370888132","long":"126.93811472","imageIndex":17,"items":[{"name":"온누리","tel":"031-393-9519","addr":"경기도 군포시 산본동 963-125번지","indutype":"의류 - 정장","category":"other"}]},{"lat":"37.364306209","long":"126.93032009","imageIndex":17,"items":[{"name":"올리브영 산본학원가점","tel":"031-396-5290","addr":"경기도 군포시 산본동 1097번지 1층 102-1호","indutype":"유통업 영리 - 편 의 점","category":"other"}]},{"lat":"37.368978034","long":"126.93820668","imageIndex":17,"items":[{"name":"올리비아로렌 경기금정점","tel":"","addr":"경기도 군포시 산본동 224-3번지 1층","indutype":"의류 - 정장","category":"other"},{"name":"올리비아로렌경기금정점","tel":"031-398-1210","addr":"경기도 군포시 산본동 224-3번지 1층","indutype":"레져용품 - 스포츠·레져용품","category":"other"},{"name":"조아","tel":"","addr":"경기도 군포시 산본동 224-3번지 1층","indutype":"의류 - 정장","category":"other"},{"name":"코디","tel":"02-000-0000","addr":"경기도 군포시 산본동 224-3번지 1층","indutype":"의류 - 정장","category":"other"},{"name":"타올나라","tel":"031-395-4866","addr":"경기도 군포시 산본동 224-3번지","indutype":"직물 - 옷감·직물","category":"other"}]},{"lat":"37.37127812","long":"126.94295756","imageIndex":17,"items":[{"name":"올포유","tel":"031-396-8577","addr":"경기도 군포시 산본동 266-6번지","indutype":"레져용품 - 스포츠·레져용품","category":"other"}]},{"lat":"37.375763426","long":"126.93962341","imageIndex":17,"items":[{"name":"우리건설","tel":"","addr":"경기도 군포시 산본동 45-1번지 삼성미도아파트","indutype":"용역 서비스 - 기타용역서비스","category":"other"}]},{"lat":"37.371755387","long":"126.94242657","imageIndex":17,"items":[{"name":"우리동네펫","tel":"031-397-7179","addr":"경기도 군포시 산본동 266-18번지 1층","indutype":"문화.취미 - 애완동물","category":"other"}]},{"lat":"37.373115759","long":"126.94212066","imageIndex":17,"items":[{"name":"우리컴퓨터","tel":"031-399-4555","addr":"경기도 군포시 산본동 97-43번지 101호","indutype":"회원제형태 - 기타3","category":"other"}]},{"lat":"37.376639392","long":"126.94345007","imageIndex":17,"items":[{"name":"우스타","tel":"031-477-4733","addr":"경기도 군포시 산본동 18-16번지","indutype":"서적문구 - 출판 및 인쇄물","category":"other"},{"name":"웰코아(WELLCORE)","tel":"031-689-4533","addr":"경기도 군포시 산본동 18-16번지 501호","indutype":"주방용구 - 주방용구","category":"other"},{"name":"인쇄랑","tel":"031-477-4733","addr":"경기도 군포시 산본동 18-16번지 무예빌딩 4층","indutype":"서적문구 - 출판 및 인쇄물","category":"other"}]},{"lat":"37.371972811","long":"126.92867572","imageIndex":17,"items":[{"name":"우진철물건재","tel":"031-398-4877","addr":"경기도 군포시 산본동 1087-1번지 103호","indutype":"건축자재 - 목재·석재·철물","category":"other"}]},{"lat":"37.372358734","long":"126.94178258","imageIndex":17,"items":[{"name":"원천정보기술군포데이터복구","tel":"031-398-0099","addr":"경기도 군포시 산본동 98-18번지 조개폭식2층 302호","indutype":"용역 서비스 - 소프트웨어","category":"other"}]},{"lat":"37.369059187","long":"126.9383195","imageIndex":17,"items":[{"name":"웰메이드 경기금정점","tel":"031-393-0583","addr":"경기도 군포시 산본동 224-4번지","indutype":"레져용품 - 스포츠·레져용품","category":"other"}]},{"lat":"37.36963723","long":"126.94092681","imageIndex":17,"items":[{"name":"위니아냉동","tel":"031-396-0102","addr":"경기도 군포시 산본동 240-18번지","indutype":"수리서비스 - 가정용품수리","category":"other"}]},{"lat":"37.374081209","long":"126.94484074","imageIndex":17,"items":[{"name":"위드미","tel":"031-256-0336","addr":"경기도 군포시 산본동 1026-9번지 금정하이뷰 107호","indutype":"유통업 영리 - 편 의 점","category":"other"},{"name":"주식회사 로움","tel":"031-689-3232","addr":"경기도 군포시 산본동 1026-9번지 금정하이뷰 5층 506호","indutype":"용역 서비스 - 기타용역서비스","category":"other"}]},{"lat":"37.37096989","long":"126.9393452","imageIndex":17,"items":[{"name":"위드미금정역점","tel":"031-757-3324","addr":"경기도 군포시 산본동 91번지","indutype":"유통업 영리 - 편 의 점","category":"other"}]},{"lat":"37.363466111","long":"126.92688927","imageIndex":17,"items":[{"name":"윈드스탑 안산1호대리점","tel":"031-393-8513","addr":"경기도 군포시 산본동 1120번지 주몽아파트","indutype":"용역 서비스 - 기타용역서비스","category":"other"}]},{"lat":"37.35906288","long":"126.93126201","imageIndex":17,"items":[{"name":"유경텔레콤(주)","tel":"031-445-1020","addr":"경기도 군포시 산본동 1139-1번지 거성1차 104호","indutype":"사무통신 - 통신기기","category":"other"},{"name":"코레드기획","tel":"031-391-1443","addr":"경기도 군포시 산본동 1139-1번지 태경타운 306호","indutype":"신변잡화 - 기타잡화","category":"other"}]},{"lat":"37.376864326","long":"126.94281763","imageIndex":17,"items":[{"name":"유진실업 (유한킴벌리 안양대리점)","tel":"031-455-7977","addr":"경기도 군포시 산본동 18-13번지","indutype":"신변잡화 - 기타잡화","category":"other"}]},{"lat":"37.372998656","long":"126.9421772","imageIndex":17,"items":[{"name":"유진웨딩스튜디오","tel":"031-394-9746","addr":"경기도 군포시 산본동 97-44번지","indutype":"용역 서비스 - 혼례서비스","category":"other"}]},{"lat":"37.37280624","long":"126.9362277","imageIndex":17,"items":[{"name":"유투조명","tel":"031-477-7747","addr":"경기도 군포시 산본동 106-21번지","indutype":"건축자재 - 조명기구","category":"other"}]},{"lat":"37.378224251","long":"126.94164234","imageIndex":17,"items":[{"name":"유화정밀","tel":"031-458-5884","addr":"경기도 군포시 산본동 1번지","indutype":"기타 - 기계공구","category":"other"}]},{"lat":"37.358864759","long":"126.93143152","imageIndex":17,"items":[{"name":"으뜸맘스케어","tel":"031-399-8385","addr":"경기도 군포시 산본동 1140번지 동원프라자 501호","indutype":"회원제형태 - 기타4","category":"other"},{"name":"주식회사 버터비","tel":"031-000-0000","addr":"경기도 군포시 산본동 1140번지 동원프라자 5층 504호","indutype":"문화.취미 - 문화취미기타","category":"other"},{"name":"주식회사 세아엘리베이터","tel":"031-391-0811","addr":"경기도 군포시 산본동 1140번지 동원프라자 3층 303호","indutype":"용역 서비스 - 기타용역서비스","category":"other"},{"name":"청혜글씨공방","tel":"031-390-6061","addr":"경기도 군포시 산본동 1140번지 동원프라자 504호","indutype":"문화.취미 - 문화취미기타","category":"other"}]},{"lat":"37.368780815","long":"126.94006954","imageIndex":17,"items":[{"name":"은광스치로폴","tel":"031-398-8101","addr":"경기도 군포시 산본동 232-10번지","indutype":"기타 - 기계공구","category":"other"}]},{"lat":"37.37085309","long":"126.93996621","imageIndex":17,"items":[{"name":"은하인쇄소","tel":"031-395-4400","addr":"경기도 군포시 산본동 91-7번지 A동 1층","indutype":"서적문구 - 출판 및 인쇄물","category":"other"}]},{"lat":"37.371392871","long":"126.93843039","imageIndex":17,"items":[{"name":"은하패션","tel":"031-393-3958","addr":"경기도 군포시 산본동 81-31번지 1층 좌측","indutype":"의류 - 정장","category":"other"}]},{"lat":"37.373292774","long":"126.93620469","imageIndex":17,"items":[{"name":"이노 커뮤니케이션즈","tel":"","addr":"경기도 군포시 산본동 106-4번지 임광그대가아파트","indutype":"용역 서비스 - 종합용역","category":"other"}]},{"lat":"37.369581378","long":"126.93759654","imageIndex":17,"items":[{"name":"이동우콜렉션","tel":"031-399-6649","addr":"경기도 군포시 산본동 216-14번지 101호","indutype":"의류 - 정장","category":"other"},{"name":"좋은이웃들","tel":"031-395-2844","addr":"경기도 군포시 산본동 216-14번지","indutype":"회원제형태 - 기타4","category":"other"}]},{"lat":"37.343824139","long":"126.92714606","imageIndex":17,"items":[{"name":"이동크리스탈안양","tel":"031-388-7228","addr":"경기도 군포시 산본동 1156-15번지 한라4단지주공아파트","indutype":"유통업 영리 - 기타유통업","category":"other"}]},{"lat":"37.37211446","long":"126.93987484","imageIndex":17,"items":[{"name":"이레디자인","tel":"","addr":"경기도 군포시 산본동 90-30번지 1층","indutype":"유통업 영리 - 기타유통업","category":"other"}]},{"lat":"37.371969831","long":"126.93900567","imageIndex":17,"items":[{"name":"이레디자인인테리어","tel":"031-397-6773","addr":"경기도 군포시 산본동 83-23번지 103호","indutype":"건축자재 - 인테리어전문","category":"other"}]},{"lat":"37.371277879","long":"126.9424834","imageIndex":17,"items":[{"name":"이마트24 군포금정본점","tel":"031-111-1111","addr":"경기도 군포시 산본동 259-10번지 1층","indutype":"유통업 영리 - 편 의 점","category":"other"}]},{"lat":"37.370727438","long":"126.94089205","imageIndex":17,"items":[{"name":"이쁘지오","tel":"031-399-9944","addr":"경기도 군포시 산본동 238-7번지 2층","indutype":"회원제형태 - 레져업소","category":"other"}]},{"lat":"37.368914914","long":"126.93811642","imageIndex":17,"items":[{"name":"이정화우리옷","tel":"031-394-4428","addr":"경기도 군포시 산본동 224-2번지","indutype":"의류 - 맞춤복점","category":"other"}]},{"lat":"37.372311076","long":"126.93692809","imageIndex":17,"items":[{"name":"인디랙","tel":"031-393-0016","addr":"경기도 군포시 산본동 55-8번지","indutype":"건축자재 - 인테리어전문","category":"other"}]},{"lat":"37.364408818","long":"126.9218311","imageIndex":17,"items":[{"name":"인천공항콜밴","tel":"","addr":"경기도 군포시 산본동 1119-4번지 동성백두아파트","indutype":"여행 - 기타교통수단","category":"other"}]},{"lat":"37.372809129","long":"126.94156771","imageIndex":17,"items":[{"name":"일봉정사","tel":"031-398-0370","addr":"경기도 군포시 산본동 97-18번지","indutype":"기타 - 기타 전문점","category":"other"}]},{"lat":"37.371721273","long":"126.92987266","imageIndex":17,"items":[{"name":"일상일기","tel":"","addr":"경기도 군포시 산본동 1086번지 102,103호","indutype":"주방용구 - 주방용식기","category":"other"}]},{"lat":"37.370113673","long":"126.93887177","imageIndex":17,"items":[{"name":"임마누엘","tel":"031-391-2312","addr":"경기도 군포시 산본동 222-2번지 1층","indutype":"신변잡화 - 신발","category":"other"}]},{"lat":"37.367249236","long":"126.92514697","imageIndex":17,"items":[{"name":"작은나무이야기","tel":"031-000-0000","addr":"경기도 군포시 산본동 1111-2번지 1층 103호","indutype":"문화.취미 - 문화취미기타","category":"other"}]},{"lat":"37.364788709","long":"126.92399808","imageIndex":17,"items":[{"name":"장만석행정사사무소","tel":"031-393-9818","addr":"경기도 군포시 산본동 1119번지 한양백두아파트","indutype":"용역 서비스 - 법률회계서비스(개인)","category":"other"}]},{"lat":"37.362737238","long":"126.92838004","imageIndex":17,"items":[{"name":"장애인환경보호국민연대중앙회","tel":"031-396-9040","addr":"경기도 군포시 산본동 1120번지 주몽아파트","indutype":"기타 - 비영리/대상","category":"other"}]},{"lat":"37.36619642","long":"126.92725904","imageIndex":17,"items":[{"name":"재단법인 군포문화재단","tel":"031-943-0410","addr":"경기도 군포시 산본동 1101번지","indutype":"용역 서비스 - 부동산 중개·임대","category":"other"},{"name":"재단법인 군포문화재단 군포문화예술회관","tel":"031-390-3521","addr":"경기도 군포시 산본동 1101번지","indutype":"문화.취미 - 티켓","category":"other"}]},{"lat":"37.374781099","long":"126.9392065","imageIndex":17,"items":[{"name":"전자담배코리아군포점","tel":"031-391-6321","addr":"경기도 군포시 산본동 74-11번지 102호","indutype":"기타 - 기타 전문점","category":"other"}]},{"lat":"37.350751477","long":"126.92487054","imageIndex":17,"items":[{"name":"정성시스템","tel":"","addr":"경기도 군포시 산본동 1155번지 가야(주공)아파트","indutype":"용역 서비스 - 종합용역","category":"other"}]},{"lat":"37.371269279","long":"126.92750232","imageIndex":17,"items":[{"name":"정현","tel":"02-3461-5553","addr":"경기도 군포시 산본동 1088번지 한양목련아파트","indutype":"전기제품 - 가전제품","category":"other"}]},{"lat":"37.343625371","long":"126.92629986","imageIndex":17,"items":[{"name":"제니프라임","tel":"02-111-1111","addr":"경기도 군포시 산본동 1156-15번지 한라4단지주공아파트","indutype":"의류 - 내의판매","category":"other"}]},{"lat":"37.363994491","long":"126.92203474","imageIndex":17,"items":[{"name":"제이와이드림","tel":"","addr":"경기도 군포시 산본동 1119-4번지 동성백두아파트","indutype":"신변잡화 - 기타잡화","category":"other"}]},{"lat":"37.358259814","long":"126.92936648","imageIndex":17,"items":[{"name":"제이케이도자기","tel":"031-387-4518","addr":"경기도 군포시 산본동 1145번지 주공6단지세종아파트","indutype":"신변잡화 - 액세서리","category":"other"}]},{"lat":"37.364306444","long":"126.9307039","imageIndex":17,"items":[{"name":"제일산후조리원","tel":"031-390-3790","addr":"경기도 군포시 산본동 1095-1 외1(1095-2)","indutype":"기타의료기관 - 조산원","category":"other"}]},{"lat":"37.363448668","long":"126.92779235","imageIndex":17,"items":[{"name":"제일피알","tel":"070-7117-7562","addr":"경기도 군포시 산본동 1120번지 주몽아파트","indutype":"용역 서비스 - 종합용역","category":"other"}]},{"lat":"37.373809364","long":"126.94178141","imageIndex":17,"items":[{"name":"젠틀파이프 전자담배 군포점","tel":"02-564-1445","addr":"경기도 군포시 산본동 86-55번지 1층","indutype":"기타 - 기타 전문점","category":"other"},{"name":"큰옷","tel":"031-396-2014","addr":"경기도 군포시 산본동 86-55번지 1층","indutype":"의류 - 정장","category":"other"},{"name":"황제컨설팅ENG","tel":"031-399-6800","addr":"경기도 군포시 산본동 86-55번지","indutype":"용역 서비스 - 기타용역서비스","category":"other"}]},{"lat":"37.363277647","long":"126.92806343","imageIndex":17,"items":[{"name":"주공세탁소","tel":"031-396-9492","addr":"경기도 군포시 산본동 1120번지 상가동 202호.205호","indutype":"수리서비스 - 세탁소","category":"other"}]},{"lat":"37.378052789","long":"126.94112312","imageIndex":17,"items":[{"name":"주식회사 신라테크윈","tel":"031-458-3772","addr":"경기도 군포시 산본동 1-12번지","indutype":"기타 - 기타 전문점","category":"other"}]},{"lat":"37.373971493","long":"126.94167967","imageIndex":17,"items":[{"name":"주식회사 아이멘토에듀","tel":"031-393-1312","addr":"경기도 군포시 산본동 86-53번지","indutype":"서적문구 - 기타서적문구","category":"other"}]},{"lat":"37.360198593","long":"126.93198335","imageIndex":17,"items":[{"name":"주식회사 참여행사","tel":"031-398-0546","addr":"경기도 군포시 산본동 1131-3 다복빌딩4층401호,402호","indutype":"여행 - 관광여행","category":"other"}]},{"lat":"37.367824128","long":"126.93710135","imageIndex":17,"items":[{"name":"주식회사스마티닷컴","tel":"070-8876-8287","addr":"경기도 군포시 산본동 1240번지 래미안하이어스 123동 2902호","indutype":"용역 서비스 - 소프트웨어","category":"other"}]},{"lat":"37.372861925","long":"126.93917426","imageIndex":17,"items":[{"name":"주식회사오름커뮤니케이션","tel":"070-7430-3539","addr":"경기도 군포시 산본동 84-14번지","indutype":"용역 서비스 - 소프트웨어","category":"other"}]},{"lat":"37.367421063","long":"126.92611763","imageIndex":17,"items":[{"name":"주식회사이에스앤씨","tel":"032-581-1236","addr":"경기도 군포시 산본동 1106-2번지 102호","indutype":"건축자재 - 기타건축자재","category":"other"}]},{"lat":"37.367943626","long":"126.94150394","imageIndex":17,"items":[{"name":"주식회사케이유통","tel":"070-7576-2068","addr":"경기도 군포시 산본동 1029-5번지 101호","indutype":"신변잡화 - 기타잡화","category":"other"}]},{"lat":"37.373111046","long":"126.93355176","imageIndex":17,"items":[{"name":"주옥발가락","tel":"031-397-8965","addr":"경기도 군포시 산본동 1059번지 동백(우성)아파트","indutype":"레져용품 - 스포츠·레져용품","category":"other"}]},{"lat":"37.369998337","long":"126.94228122","imageIndex":17,"items":[{"name":"주한","tel":"031-395-0751","addr":"경기도 군포시 산본동 1027번지","indutype":"신변잡화 - 기타잡화","category":"other"}]},{"lat":"37.367888036","long":"126.9386253","imageIndex":17,"items":[{"name":"준기획","tel":"031-399-7629","addr":"경기도 군포시 산본동 225-9번지 1층 106호","indutype":"용역 서비스 - 종합용역","category":"other"},{"name":"호텔세탁산본점","tel":"031-393-8284","addr":"경기도 군포시 산본동 225-9번지 1층 코너일부","indutype":"수리서비스 - 세탁소","category":"other"}]},{"lat":"37.350084636","long":"126.92473579","imageIndex":17,"items":[{"name":"중앙세탁소","tel":"031-391-6386","addr":"경기도 군포시 산본동 1155-3 가야빌라일반상가제지층1호 2/1","indutype":"수리서비스 - 세탁소","category":"other"}]},{"lat":"37.363236933","long":"126.92100832","imageIndex":17,"items":[{"name":"지니플라워(Jiny Flora)","tel":"031-399-4631","addr":"경기도 군포시 산본동 1148번지 묘향(롯데)아파트","indutype":"문화.취미 - 화원","category":"other"}]},{"lat":"37.357528183","long":"126.92651148","imageIndex":17,"items":[{"name":"진인테리어","tel":"031-395-6611","addr":"경기도 군포시 산본동 1145-14번지 을지 종합상가 104호","indutype":"직물 - 카페트,커튼,천막,지물","category":"other"}]},{"lat":"37.364577159","long":"126.93138095","imageIndex":17,"items":[{"name":"창조 Book&Paper","tel":"031-393-1555","addr":"경기도 군포시 산본동 1052번지 주공11단지아파트","indutype":"서적문구 - 일반서적","category":"other"}]},{"lat":"37.370724254","long":"126.93508931","imageIndex":17,"items":[{"name":"천광종합목재","tel":"031-393-9081","addr":"경기도 군포시 산본동 207-25번지","indutype":"건축자재 - 목재·석재·철물","category":"other"}]},{"lat":"37.367888944","long":"126.94031864","imageIndex":17,"items":[{"name":"청목합판상사","tel":"031-454-8577","addr":"경기도 군포시 산본동 1033-5번지","indutype":"건축자재 - 기타건축자재","category":"other"}]},{"lat":"37.369500318","long":"126.93765306","imageIndex":17,"items":[{"name":"체이스컬트","tel":"031-395-8515","addr":"경기도 군포시 산본동 216-13번지","indutype":"의류 - 정장","category":"other"}]},{"lat":"37.358029183","long":"126.921172","imageIndex":17,"items":[{"name":"초원토탈인테리어","tel":"031-394-2002","addr":"경기도 군포시 산본동 1151-2설악상가지하층102","indutype":"직물 - 카페트,커튼,천막,지물","category":"other"}]},{"lat":"37.370500622","long":"126.93797958","imageIndex":17,"items":[{"name":"초이스","tel":"031-396-2244","addr":"경기도 군포시 산본동 218-2번지","indutype":"의류 - 정장","category":"other"}]},{"lat":"37.371699546","long":"126.93903977","imageIndex":17,"items":[{"name":"충남철물","tel":"031-395-6898","addr":"경기도 군포시 산본동 82-15","indutype":"건축자재 - 목재·석재·철물","category":"other"}]},{"lat":"37.373726264","long":"126.93801067","imageIndex":17,"items":[{"name":"캠브리지세탁","tel":"031-393-4646","addr":"경기도 군포시 산본동 73-33번지","indutype":"수리서비스 - 세탁소","category":"other"}]},{"lat":"37.372671399","long":"126.93678101","imageIndex":17,"items":[{"name":"캠핑이즈","tel":"070-7582-7270","addr":"경기도 군포시 산본동 55번지 명빌딩 지하층","indutype":"레져용품 - 스포츠·레져용품","category":"other"}]},{"lat":"37.372835444","long":"126.94020164","imageIndex":17,"items":[{"name":"컴퍼스플랜(COMPASS PLAN)","tel":"","addr":"경기도 군포시 산본동 94-35번지 4동 302호","indutype":"건축자재 - 인테리어전문","category":"other"}]},{"lat":"37.372529786","long":"126.94151149","imageIndex":17,"items":[{"name":"켈리엣홈","tel":"070-4190-2183","addr":"경기도 군포시 산본동 98-24번지 3층","indutype":"신변잡화 - 기타잡화","category":"other"}]},{"lat":"37.368392431","long":"126.93830878","imageIndex":17,"items":[{"name":"코돌이","tel":"031-451-9163","addr":"경기도 군포시 산본동 225-13번지 102호","indutype":"의류 - 기타의류","category":"other"}]},{"lat":"37.368275349","long":"126.93839919","imageIndex":17,"items":[{"name":"코오롱커텐이불","tel":"031-393-1951","addr":"경기도 군포시 산본동 225-12번지","indutype":"수리서비스 - 기타수리서비스","category":"other"}]},{"lat":"37.371003742","long":"126.93539388","imageIndex":17,"items":[{"name":"코코스애견","tel":"031-399-8168","addr":"경기도 군포시 산본동 207-28번지 101호","indutype":"문화.취미 - 애완동물","category":"other"}]},{"lat":"37.372446322","long":"126.93709732","imageIndex":17,"items":[{"name":"클린플러스","tel":"031-396-8777","addr":"경기도 군포시 산본동 55-7번지 플러스아트 세탁체인점","indutype":"수리서비스 - 세탁소","category":"other"}]},{"lat":"37.359676052","long":"126.93206286","imageIndex":17,"items":[{"name":"키라","tel":"070-4141-5181","addr":"경기도 군포시 산본동 1134번지 센타빌딩 A동 1층 11호","indutype":"의류 - 정장","category":"other"}]},{"lat":"37.359815847","long":"126.92510949","imageIndex":17,"items":[{"name":"탑유통","tel":"031-479-4430","addr":"경기도 군포시 산본동 1146-11번지 주공7단지우륵아파트","indutype":"용역 서비스 - 종합용역","category":"other"}]},{"lat":"37.374862275","long":"126.93936449","imageIndex":17,"items":[{"name":"태건종합개발","tel":"031-98-2147","addr":"경기도 군포시 산본동 74-24번지","indutype":"건축자재 - 인테리어전문","category":"other"}]},{"lat":"37.37052826","long":"126.9390972","imageIndex":17,"items":[{"name":"태백산","tel":"031-392-0409","addr":"경기도 군포시 산본동 89-24번지","indutype":"신변잡화 - 기타잡화","category":"other"}]},{"lat":"37.36988789","long":"126.93790109","imageIndex":17,"items":[{"name":"통큰세일","tel":"","addr":"경기도 군포시 산본동 221-8번지","indutype":"의류 - 내의판매","category":"other"}]},{"lat":"37.372392505","long":"126.93753766","imageIndex":17,"items":[{"name":"펫다이닝","tel":"","addr":"경기도 군포시 산본동 80번지 거성빌딩 1층 106호","indutype":"문화.취미 - 애완동물","category":"other"}]},{"lat":"37.372414236","long":"126.92856239","imageIndex":17,"items":[{"name":"편의점사랑산본점","tel":"070-7012-1308","addr":"경기도 군포시 산본동 1078-3번지 102호","indutype":"유통업 영리 - 편 의 점","category":"other"}]},{"lat":"37.359476099","long":"126.92922984","imageIndex":17,"items":[{"name":"포비스 머천다이징","tel":"031-395-0802","addr":"경기도 군포시 산본동 1145번지 주공6단지세종아파트","indutype":"회원제형태 - 기타4","category":"other"}]},{"lat":"37.371670665","long":"126.9356981","imageIndex":17,"items":[{"name":"포시즌요양원","tel":"031-391-1188","addr":"경기도 군포시 산본동 207-11번지 메디칼빌딩 9층 901호","indutype":"기타의료기관 - 기타의료기관 및 기타","category":"other"},{"name":"현인넷전자","tel":"031-343-6767","addr":"경기도 군포시 산본동 207-11번지 산본빌딩 102호","indutype":"사무통신 - 통신기기","category":"other"}]},{"lat":"37.371529167","long":"126.94056399","imageIndex":17,"items":[{"name":"포인트","tel":"","addr":"경기도 군포시 산본동 91-47번지","indutype":"의류 - 정장","category":"other"}]},{"lat":"37.373541967","long":"126.93093214","imageIndex":17,"items":[{"name":"포토데이","tel":"031-381-5382","addr":"경기도 군포시 산본동 1066번지 개나리아파트","indutype":"광학제품 - 사진관","category":"other"}]},{"lat":"37.368063447","long":"126.93033905","imageIndex":17,"items":[{"name":"푸른홈케어","tel":"","addr":"경기도 군포시 산본동 1091-1번지 우방목련아파트","indutype":"용역 서비스 - 종합용역","category":"other"}]},{"lat":"37.365083056","long":"126.93361559","imageIndex":17,"items":[{"name":"풀칠도배공사","tel":"031-394-2404","addr":"경기도 군포시 산본동 1052-2번지 주공복합상가 102호","indutype":"직물 - 카페트,커튼,천막,지물","category":"other"}]},{"lat":"37.351915203","long":"126.92704764","imageIndex":17,"items":[{"name":"풍선공방","tel":"","addr":"경기도 군포시 산본동 1156-1번지 주공4단지","indutype":"서적문구 - 완구점","category":"other"}]},{"lat":"37.37271783","long":"126.93929856","imageIndex":17,"items":[{"name":"피규어라이즈(figurerise)","tel":"031-393-9848","addr":"경기도 군포시 산본동 84-21번지 시흥파크빌라 2동 3층 301호","indutype":"서적문구 - 완구점","category":"other"}]},{"lat":"37.34900562","long":"126.92814532","imageIndex":17,"items":[{"name":"피오나","tel":"","addr":"경기도 군포시 산본동 1156-1번지 주공4단지","indutype":"의류 - 내의판매","category":"other"}]},{"lat":"37.359305818","long":"126.93070869","imageIndex":17,"items":[{"name":"피오나","tel":"031-398-7927","addr":"경기도 군포시 산본동 1138-2번지 104호","indutype":"의류 - 정장","category":"other"}]},{"lat":"37.36324119","long":"126.92740875","imageIndex":17,"items":[{"name":"핀즈 캐빈 (Pinns Cabin)","tel":"","addr":"경기도 군포시 산본동 1120번지 주몽아파트","indutype":"문화.취미 - 문화취미기타","category":"other"}]},{"lat":"37.372086223","long":"126.93765082","imageIndex":17,"items":[{"name":"하나서비스","tel":"031-474-3995","addr":"경기도 군포시 산본동 81-17번지 대림빌라 1동 101호","indutype":"용역 서비스 - 기타용역서비스","category":"other"}]},{"lat":"37.359500736","long":"126.9254823","imageIndex":17,"items":[{"name":"하얀세탁소","tel":"031-393-0659","addr":"경기도 군포시 산본동 1146-11번지 우륵 분산상가 102호","indutype":"수리서비스 - 세탁소","category":"other"}]},{"lat":"37.357999063","long":"126.91681508","imageIndex":17,"items":[{"name":"하얀세탁소","tel":"031-398-5112","addr":"경기도 군포시 산본동 1151-12번지 설악 상가 103호","indutype":"수리서비스 - 세탁소","category":"other"}]},{"lat":"37.375184592","long":"126.93566109","imageIndex":17,"items":[{"name":"하이넷정보통신","tel":"031-502-8255","addr":"경기도 군포시 산본동 1055.1402-404","indutype":"사무통신 - 통신기기","category":"other"}]},{"lat":"37.373504828","long":"126.92914839","imageIndex":17,"items":[{"name":"하하인테리어","tel":"031-392-7279","addr":"경기도 군포시 산본동 1070-3번지","indutype":"건축자재 - 인테리어전문","category":"other"}]},{"lat":"37.370016829","long":"126.92743583","imageIndex":17,"items":[{"name":"한국피부장벽학회","tel":"031-000-0000","addr":"경기도 군포시 산본동 1088번지 한양목련아파트 1204동 901호","indutype":"용역 서비스 - 종합용역","category":"other"}]},{"lat":"37.375421378","long":"126.94025594","imageIndex":17,"items":[{"name":"한솔CNC","tel":"031-397-1221","addr":"경기도 군포시 산본동 75-26번지","indutype":"사무통신 - 사무용 OA기기","category":"other"}]},{"lat":"37.370886261","long":"126.93478435","imageIndex":17,"items":[{"name":"한울인테리어","tel":"031-391-3355","addr":"경기도 군포시 산본동 207-2번지 101호","indutype":"직물 - 카페트,커튼,천막,지물","category":"other"}]},{"lat":"37.370087588","long":"126.94064421","imageIndex":17,"items":[{"name":"한울자판기","tel":"031-466-1607","addr":"경기도 군포시 산본동 239-2번지 산본연립 301호","indutype":"용역 서비스 - 기타용역서비스","category":"other"}]},{"lat":"37.373366909","long":"126.93995282","imageIndex":17,"items":[{"name":"해피바스","tel":"","addr":"경기도 군포시 산본동 85-20번지 301호","indutype":"건축자재 - 인테리어전문","category":"other"}]},{"lat":"37.367446243","long":"126.92331797","imageIndex":17,"items":[{"name":"햇살크리닝","tel":"","addr":"경기도 군포시 산본동 1115-4번지 302호","indutype":"용역 서비스 - 종합용역","category":"other"}]},{"lat":"37.364810755","long":"126.93028574","imageIndex":17,"items":[{"name":"행복을찍는집킨더스투디오","tel":"031-396-0056","addr":"경기도 군포시 산본동 1094-2번지 메디메이드산본센터 301호","indutype":"광학제품 - 사진관","category":"other"}]},{"lat":"37.364955985","long":"126.93204661","imageIndex":17,"items":[{"name":"헤어코스","tel":"031-391-7366","addr":"경기도 군포시 산본동 1052번지 주공11단지아파트","indutype":"회원제형태 - 기타4","category":"other"}]},{"lat":"37.371225401","long":"126.92936512","imageIndex":17,"items":[{"name":"현대도료상사","tel":"031-392-1248","addr":"경기도 군포시 산본동 1086-5번지 101호","indutype":"건축자재 - 페인트","category":"other"}]},{"lat":"37.356314942","long":"126.91788929","imageIndex":17,"items":[{"name":"현대세탁","tel":"031-339-0262","addr":"경기도 군포시 산본동 1151-5 분산상가1동 102호","indutype":"수리서비스 - 세탁소","category":"other"}]},{"lat":"37.369916762","long":"126.94134428","imageIndex":17,"items":[{"name":"호크아트","tel":"031-000-0000","addr":"경기도 군포시 산본동 240-14번지 101호","indutype":"건축자재 - 인테리어전문","category":"other"}]},{"lat":"37.347534147","long":"126.92381299","imageIndex":17,"items":[{"name":"희망냉장고","tel":"070-4922-1261","addr":"경기도 군포시 산본동 1155-7번지 가야(주공)아파트","indutype":"수리서비스 - 기타수리서비스","category":"other"}]}]