[{"lat":"37.846421458","long":"127.09726182","items":[{"name":"(주)아라고속관광","tel":"02-902-9700","addr":"경기도 양주시 회암동 257-7번지","category":"여행 - 관광여행"},{"name":"진화설비","tel":"031-858-9812","addr":"경기도 양주시 회암동 257-7번지","category":"용역 서비스 - 기타용역서비스"},{"name":"현대공구상사","tel":"031-865-0945","addr":"경기도 양주시 회암동 257-7번지","category":"기타 - 기계공구"}]},{"lat":"37.84458776","long":"127.09184019","items":[{"name":"(주)에이치엔","tel":"031-866-8946","addr":"경기도 양주시 회암동 297-1번지 가동","category":"전기제품 - 기타전기제품"}]},{"lat":"37.846359752","long":"127.08328712","items":[{"name":"GS25양주봉양점","tel":"","addr":"경기도 양주시 회암동 469-6번지 102호","category":"유통업 영리 - 편 의 점"},{"name":"다미락","tel":"031-857-1717","addr":"경기도 양주시 회암동 469-6번지","category":"일반휴게음식 - 일반한식"}]},{"lat":"37.844198847","long":"127.09381656","items":[{"name":"KP프랜드","tel":"031-857-9722","addr":"경기도 양주시 회암동 266-1번지","category":"음료식품 - 정육점"}]},{"lat":"37.847196429","long":"127.0970583","items":[{"name":"개성마트","tel":"031-866-9282","addr":"경기도 양주시 회암동 252-2번지 1층","category":"유통업 영리 - 슈퍼마켓"},{"name":"개성정육점백화점","tel":"031-866-9282","addr":"경기도 양주시 회암동 252-2번지","category":"음료식품 - 정육점"},{"name":"회암식당","tel":"031-846-2097","addr":"경기도 양주시 회암동 252-2번지","category":"일반휴게음식 - 일반한식"}]},{"lat":"37.838194774","long":"127.08681129","items":[{"name":"경기종합철물건재","tel":"031-858-7766","addr":"경기도 양주시 회암동 352-1번지","category":"건축자재 - 목재·석재·철물"}]},{"lat":"37.844362714","long":"127.09158997","items":[{"name":"공수골옛날손두부","tel":"031-861-4040","addr":"경기도 양주시 회암동 429-2번지","category":"일반휴게음식 - 일반한식"}]},{"lat":"37.84294758","long":"127.07970472","items":[{"name":"그안","tel":"031-857-0919","addr":"경기도 양주시 회암동 616번지","category":"서적문구 - 일반서적"}]},{"lat":"37.845756029","long":"127.0834228","items":[{"name":"금강","tel":"031-859-2890","addr":"경기도 양주시 회암동 469-7","category":"건축자재 - 기타건축자재"},{"name":"천보판넬","tel":"031-858-9700","addr":"경기도 양주시 회암동 469-7번지","category":"건축자재 - 기타건축자재"}]},{"lat":"37.840726469","long":"127.09856104","items":[{"name":"금하환경","tel":"031-859-0492","addr":"경기도 양주시 회암동 41-3번지","category":"서적문구 - 과학기자재"}]},{"lat":"37.854643739","long":"127.10128335","items":[{"name":"기타코어","tel":"031-866-9004","addr":"경기도 양주시 회암동 185-70번지 기타코어","category":"레져용품 - 악기점"}]},{"lat":"37.84405606","long":"127.09203269","items":[{"name":"농업회사법인 주식회사 바로코리아","tel":"031-864-7440","addr":"경기도 양주시 회암동 299-3번지 1층","category":"음료식품 - 기타음료식품"}]},{"lat":"37.845448198","long":"127.09756734","items":[{"name":"다복토종순대국","tel":"031-868-0553","addr":"경기도 양주시 회암동 79-8번지 1층","category":"일반휴게음식 - 일반한식"},{"name":"씨유양주회암제일점","tel":"031-866-3721","addr":"경기도 양주시 회암동 79-8번지 1층","category":"유통업 영리 - 편 의 점"}]},{"lat":"37.839279654","long":"127.08137089","items":[{"name":"달려라타이어","tel":"031-865-8255","addr":"경기도 양주시 회암동 566-72번지 다동","category":"자동차정비 유지 - 자동차시트·타이어"},{"name":"동그리타이어","tel":"031-858-1156","addr":"경기도 양주시 회암동 566-72","category":"자동차정비 유지 - 자동차시트·타이어"}]},{"lat":"37.853636408","long":"127.09920266","items":[{"name":"대영공업사","tel":"031-866-5458","addr":"경기도 양주시 회암동 185-42번지","category":"기타 - 기계공구"}]},{"lat":"37.838034068","long":"127.08473219","items":[{"name":"대일기계","tel":"031-858-6414","addr":"경기도 양주시 회암동 582-5번지","category":"기타 - 기계공구"}]},{"lat":"37.850502796","long":"127.10781107","items":[{"name":"대한불교조계종 회암사","tel":"031-866-0355","addr":"경기도 양주시 회암동 4번지","category":"신변잡화 - 기념품점"}]},{"lat":"37.847529548","long":"127.09734277","items":[{"name":"도미솔김치","tel":"031-861-3593","addr":"경기도 양주시 회암동 250-21","category":"음료식품 - 기타음료식품"},{"name":"종점편의점","tel":"031-866-9487","addr":"경기도 양주시 회암동 250-21","category":"유통업 영리 - 슈퍼마켓"}]},{"lat":"37.845863565","long":"127.09639765","items":[{"name":"디씨마켓 튼튼플라스틱","tel":"","addr":"경기도 양주시 회암동 270-12번지 2동","category":"신변잡화 - 기타잡화"}]},{"lat":"37.8407524","long":"127.09990162","items":[{"name":"라온상재","tel":"031-865-9997","addr":"경기도 양주시 회암동 38번지","category":"용역 서비스 - 기타용역서비스"},{"name":"주식회사 기프트앤돌","tel":"031-848-2073","addr":"경기도 양주시 회암동 38번지","category":"서적문구 - 완구점"}]},{"lat":"37.852889893","long":"127.09764503","items":[{"name":"마메종","tel":"02-821-5110","addr":"경기도 양주시 회암동 189-1번지","category":"건축자재 - 인테리어전문"},{"name":"안팍(ahnpark)","tel":"031-866-5295","addr":"경기도 양주시 회암동 189-1번지","category":"일반휴게음식 - 서양음식"}]},{"lat":"37.838200928","long":"127.07767767","items":[{"name":"맥스카","tel":"031-859-1888","addr":"경기도 양주시 회암동 607-9번지","category":"자동차정비 유지 - 자동차정비"},{"name":"맥스카","tel":"031-859-2357","addr":"경기도 양주시 회암동 607-9번지","category":"자동차정비 유지 - 자동차부품"},{"name":"씨스페이스양주나들목점","tel":"031-865-0055","addr":"경기도 양주시 회암동 607-9번지 모정가스충전소D동","category":"유통업 영리 - 편 의 점"}]},{"lat":"37.846033972","long":"127.09736358","items":[{"name":"명가","tel":"031-866-8157","addr":"경기도 양주시 회암동 257-4번지","category":"일반휴게음식 - 일반한식"}]},{"lat":"37.849664334","long":"127.09789087","items":[{"name":"명성오토","tel":"031-865-1882","addr":"경기도 양주시 회암동 171-5번지","category":"자동차정비 유지 - 자동차부품"}]},{"lat":"37.838393745","long":"127.08573229","items":[{"name":"명품플라워","tel":"031-859-0088","addr":"경기도 양주시 회암동 581-1번지","category":"문화.취미 - 화원"}]},{"lat":"37.847755011","long":"127.09705901","items":[{"name":"모나리자 연일상사","tel":"031-866-3880","addr":"경기도 양주시 회암동 250-28번지","category":"신변잡화 - 기타잡화"}]},{"lat":"37.843032401","long":"127.09914343","items":[{"name":"미도(MIDO)","tel":"070-8831-0977","addr":"경기도 양주시 회암동 63-3번지","category":"보건위생 - 안경"}]},{"lat":"37.841004006","long":"127.1006972","items":[{"name":"미드미비닐","tel":"031-866-1395","addr":"경기도 양주시 회암동 38-2","category":"유통업 영리 - 기타유통업"}]},{"lat":"37.84908777","long":"127.09784468","items":[{"name":"미라송","tel":"031-857-2027","addr":"경기도 양주시 회암동 169-1번지","category":"일반휴게음식 - 일반한식"}]},{"lat":"37.850664375","long":"127.09789215","items":[{"name":"미래공조","tel":"031-857-1228","addr":"경기도 양주시 회암동 177-1번지","category":"전기제품 - 가전제품"},{"name":"이오공조","tel":"031-866-5358","addr":"경기도 양주시 회암동 177-1번지","category":"전기제품 - 냉열기기"}]},{"lat":"37.841609158","long":"127.0870651","items":[{"name":"미엘","tel":"","addr":"경기도 양주시 회암동 405번지 2층","category":"음료식품 - 기타음료식품"},{"name":"큰엄마 삼시세끼","tel":"031-865-7799","addr":"경기도 양주시 회암동 405번지 1층","category":"일반휴게음식 - 일반한식"}]},{"lat":"37.849364698","long":"127.10073097","items":[{"name":"미일식품","tel":"031-865-5052","addr":"경기도 양주시 회암동 145번지","category":"음료식품 - 기타음료식품"}]},{"lat":"37.838502089","long":"127.08540297","items":[{"name":"불멸의갈비김치찌개","tel":"","addr":"경기도 양주시 회암동 580-7번지","category":"일반휴게음식 - 일반한식"}]},{"lat":"37.843695262","long":"127.09258895","items":[{"name":"서울양주요양원","tel":"031-865-5622","addr":"경기도 양주시 회암동 303-2번지","category":"기타의료기관 - 기타의료기관 및 기타"}]},{"lat":"37.848394495","long":"127.09728706","items":[{"name":"선우유통","tel":"031-866-2358","addr":"경기도 양주시 회암동 250-6번지","category":"음료식품 - 정육점"}]},{"lat":"37.841394194","long":"127.08528122","items":[{"name":"선진무역(주)","tel":"031-857-5247","addr":"경기도 양주시 회암동 539-4번지 다동","category":"직물 - 옷감·직물"}]},{"lat":"37.850664704","long":"127.09748311","items":[{"name":"세진환경","tel":"031-858-0798","addr":"경기도 양주시 회암동 177-4번지","category":"용역 서비스 - 종합용역"}]},{"lat":"37.84356047","long":"127.07931908","items":[{"name":"소녀폰 의정부역점","tel":"031-875-6667","addr":"경기도 양주시 회암동 624번지","category":"사무통신 - 통신기기"}]},{"lat":"37.847276975","long":"127.09772874","items":[{"name":"신라식당","tel":"031-865-8283","addr":"경기도 양주시 회암동 86-6번지","category":"일반휴게음식 - 일반한식"}]},{"lat":"37.846781797","long":"127.09730773","items":[{"name":"신명모타","tel":"031-859-7519","addr":"경기도 양주시 회암동 257-9 257-21","category":"수리서비스 - 기타수리서비스"},{"name":"회암반점","tel":"031-866-6781","addr":"경기도 양주시 회암동 257-9번지 1층","category":"일반휴게음식 - 중국식"}]},{"lat":"37.839054176","long":"127.08173418","items":[{"name":"아뜰리에","tel":"031-868-6555","addr":"경기도 양주시 회암동 566-6번지 1층","category":"가구 - 일반가구"},{"name":"아뜰리에감성가구","tel":"031-868-6555","addr":"경기도 양주시 회암동 566-6번지","category":"가구 - 일반가구"}]},{"lat":"37.846911345","long":"127.09294505","items":[{"name":"양주그린캠프","tel":"031-857-1775","addr":"경기도 양주시 회암동 271-1번지","category":"신변잡화 - 기타잡화"}]},{"lat":"37.84555769","long":"127.08361573","items":[{"name":"양주문구","tel":"031-866-0688","addr":"경기도 양주시 회암동 490-1번지","category":"서적문구 - 문구용품"}]},{"lat":"37.842920263","long":"127.09283795","items":[{"name":"양주팜","tel":"031-866-3010","addr":"경기도 양주시 회암동 309-6번지","category":"음료식품 - 농·축·수산품"}]},{"lat":"37.847588662","long":"127.10214883","items":[{"name":"양주플라워몰","tel":"031-842-4321","addr":"경기도 양주시 회암동 132-2번지","category":"문화.취미 - 화원"}]},{"lat":"37.841753471","long":"127.08683805","items":[{"name":"에스카공업사","tel":"031-866-1280","addr":"경기도 양주시 회암동 404-18번지","category":"자동차정비 유지 - 자동차정비"}]},{"lat":"37.84772824","long":"127.08465201","items":[{"name":"엘지인테리어 비채","tel":"02-1670-1195","addr":"경기도 양주시 회암동 464번지","category":"건축자재 - 인테리어전문"}]},{"lat":"37.849249608","long":"127.09825391","items":[{"name":"엠제이금속","tel":"031-864-3614","addr":"경기도 양주시 회암동 168-3번지 B동","category":"건축자재 - 조명기구"},{"name":"한라방염","tel":"031-866-1804","addr":"경기도 양주시 회암동 168-3번지","category":"직물 - 카페트,커튼,천막,지물"}]},{"lat":"37.844612156","long":"127.09525994","items":[{"name":"예스렌탈","tel":"031-857-9957","addr":"경기도 양주시 회암동 265-6번지","category":"직물 - 카페트,커튼,천막,지물"}]},{"lat":"37.838284527","long":"127.08728852","items":[{"name":"예원꽃화원","tel":"031-859-0088","addr":"경기도 양주시 회암동 361번지","category":"문화.취미 - 화원"},{"name":"타이어플러스","tel":"031-959-8163","addr":"경기도 양주시 회암동 361번지","category":"자동차정비 유지 - 자동차정비"}]},{"lat":"37.838583452","long":"127.08500545","items":[{"name":"완뽕","tel":"031-859-3777","addr":"경기도 양주시 회암동 580-1번지 1층","category":"일반휴게음식 - 중국식"},{"name":"풍천민물장어와 두지리매운탕","tel":"031-928-5888","addr":"경기도 양주시 회암동 580-1번지 1층","category":"일반휴게음식 - 일반한식"}]},{"lat":"37.846448849","long":"127.0968074","items":[{"name":"우드아이","tel":"031-844-7722","addr":"경기도 양주시 회암동 257-2번지","category":"가구 - 일반가구"}]},{"lat":"37.839225839","long":"127.0810073","items":[{"name":"원메이드","tel":"031-858-1156","addr":"경기도 양주시 회암동 566-9번지 1동","category":"자동차정비 유지 - 자동차정비"}]},{"lat":"37.841943703","long":"127.08537272","items":[{"name":"이지비아","tel":"031-855-7337","addr":"경기도 양주시 회암동 547-5번지","category":"문화.취미 - 화원"},{"name":"이지비아","tel":"031-000-0000","addr":"경기도 양주시 회암동 547-5번지","category":"신변잡화 - 시계"}]},{"lat":"37.842672469","long":"127.08678228","items":[{"name":"일진스포츠","tel":"031-865-9400","addr":"경기도 양주시 회암동 396-1외1필지","category":"레져용품 - 스포츠·레져용품"}]},{"lat":"37.856115249","long":"127.09764916","items":[{"name":"제7땅굴","tel":"031-866-1577","addr":"경기도 양주시 회암동 194번지","category":"일반휴게음식 - 서양음식"},{"name":"칠봉산낚시터","tel":"031-866-1577","addr":"경기도 양주시 회암동 194번지","category":"레저업소 - 기타레져업소"}]},{"lat":"37.841581869","long":"127.08742861","items":[{"name":"주식회사 에어텍","tel":"031-866-9100","addr":"경기도 양주시 회암동 404-4번지","category":"기타 - 기계공구"}]},{"lat":"37.839027685","long":"127.08092757","items":[{"name":"주식회사대한자동차옥정점","tel":"031-859-5559","addr":"경기도 양주시 회암동 566-73번지","category":"자동차정비 유지 - 자동차정비"},{"name":"카샵","tel":"031-859-5559","addr":"경기도 양주시 회암동 566-73번지","category":"자동차정비 유지 - 자동차부품"}]},{"lat":"37.849277396","long":"127.09731091","items":[{"name":"중앙사","tel":"031-842-2866","addr":"경기도 양주시 회암동 244-8번지","category":"자동차정비 유지 - 자동차정비"}]},{"lat":"37.840562439","long":"127.0893133","items":[{"name":"진성기업","tel":"031-865-0237","addr":"경기도 양주시 회암동 417-1번지 A동","category":"신변잡화 - 기타잡화"},{"name":"홍키통키 뉴트리션","tel":"031-861-1185","addr":"경기도 양주시 회암동 417-1번지","category":"레져용품 - 스포츠·레져용품"}]},{"lat":"37.845808109","long":"127.08626321","items":[{"name":"진아도어","tel":"","addr":"경기도 양주시 회암동 448번지","category":"건축자재 - 기타건축자재"}]},{"lat":"37.847034014","long":"127.09736486","items":[{"name":"천냥백화점","tel":"031-865-4423","addr":"경기도 양주시 회암동 257-1번지 1층 일부","category":"신변잡화 - 기타잡화"}]},{"lat":"37.843835052","long":"127.08626099","items":[{"name":"청정식자재","tel":"031-859-3177","addr":"경기도 양주시 회암동 544-10번지","category":"음료식품 - 기타음료식품"}]},{"lat":"37.842389473","long":"127.11313918","items":[{"name":"케렌시아","tel":"031-978-2717","addr":"경기도 양주시 회암동 22-3번지 제1동 주건축물","category":"서적문구 - 과학기자재"}]},{"lat":"37.847809907","long":"127.09600244","items":[{"name":"태원ENG","tel":"02-1111-1111","addr":"경기도 양주시 회암동 242-3번지","category":"자동차정비 유지 - 자동차정비"}]},{"lat":"37.838557132","long":"127.08398299","items":[{"name":"태화철물공구","tel":"031-858-9009","addr":"경기도 양주시 회암동 573-5번지 1층","category":"건축자재 - 목재·석재·철물"}]},{"lat":"37.838419473","long":"127.08756132","items":[{"name":"피아노이야기교습소","tel":"031-866-8202","addr":"경기도 양주시 회암동 360-1번지","category":"학원 - 예·체능계학원"}]},{"lat":"37.846531007","long":"127.08317369","items":[{"name":"한국철물","tel":"031-851-0149","addr":"경기도 양주시 회암동 469-9번지","category":"건축자재 - 목재·석재·철물"}]},{"lat":"37.848998682","long":"127.08448299","items":[{"name":"한도플러스","tel":"","addr":"경기도 양주시 회암동 460번지 461호","category":"전기제품 - 냉열기기"}]},{"lat":"37.844443103","long":"127.07976307","items":[{"name":"한우상사","tel":"031-857-0308","addr":"경기도 양주시 회암동 632-1번지","category":"자동차정비 유지 - 자동차부품"}]},{"lat":"37.851114614","long":"127.09817678","items":[{"name":"햇빛","tel":"070-8281-0502","addr":"경기도 양주시 회암동 181번지","category":"용역 서비스 - 종합용역"}]},{"lat":"37.844779325","long":"127.08864791","items":[{"name":"홍벌","tel":"031-858-8515","addr":"경기도 양주시 회암동 432-1번지","category":"회원제형태 - 건강식품"}]},{"lat":"37.849471843","long":"127.10189003","items":[{"name":"황용미","tel":"","addr":"경기도 양주시 회암동 146-54번지","category":"보건위생 - 화장품"}]},{"lat":"37.84208648","long":"127.09906267","items":[{"name":"회암자동차정비","tel":"031-868-2216","addr":"경기도 양주시 회암동 64-8","category":"자동차정비 유지 - 자동차정비"}]}]