[{"lat":"37.212192614","long":"127.20817683","imageIndex":4,"items":[{"name":"(주)학성유통","tel":"031-333-1677","addr":"경기도 용인시 처인구 이동읍 천리 506-7번지","indutype":"일반휴게음식 - 일반한식","category":"restaurant"},{"name":"숲과오리","tel":"031-333-5261","addr":"경기도 용인시 처인구 이동읍 천리 506-7번지","indutype":"일반휴게음식 - 일반한식","category":"restaurant"},{"name":"풍경7080","tel":"031-335-7724","addr":"경기도 용인시 처인구 이동읍 천리 506-7번지 2층","indutype":"일반휴게음식 - 일반한식","category":"restaurant"}]},{"lat":"37.196056091","long":"127.20756997","imageIndex":4,"items":[{"name":"100황태","tel":"031-334-1221","addr":"경기도 용인시 처인구 이동읍 천리 718번지","indutype":"일반휴게음식 - 일반한식","category":"restaurant"},{"name":"도란도란카페사주&타로","tel":"031-336-7567","addr":"경기도 용인시 처인구 이동읍 천리 718번지 1층","indutype":"일반휴게음식 - 서양음식","category":"restaurant"}]},{"lat":"37.183779703","long":"127.23435038","imageIndex":4,"items":[{"name":"153산골가든","tel":"031-322-2979","addr":"경기도 용인시 처인구 이동읍 묵리 659-1번지","indutype":"일반휴게음식 - 일반한식","category":"restaurant"}]},{"lat":"37.138451021","long":"127.1977131","imageIndex":4,"items":[{"name":"1988추억의통닭(송전점)","tel":"031-323-2888","addr":"경기도 용인시 처인구 이동읍 송전리 608-5번지 1층 103호","indutype":"일반휴게음식 - 스넥","category":"restaurant"}]},{"lat":"37.139784528","long":"127.19773903","imageIndex":4,"items":[{"name":"59쌀피자","tel":"031-338-5988","addr":"경기도 용인시 처인구 이동읍 송전리 685-1번지","indutype":"일반휴게음식 - 서양음식","category":"restaurant"},{"name":"구구회포차","tel":"","addr":"경기도 용인시 처인구 이동읍 송전리 685-1번지","indutype":"일반휴게음식 - 일반한식","category":"restaurant"}]},{"lat":"37.19208414","long":"127.20662444","imageIndex":4,"items":[{"name":"BBQ치킨","tel":"031-322-1267","addr":"경기도 용인시 처인구 이동읍 천리234-10","indutype":"일반휴게음식 - 스넥","category":"restaurant"}]},{"lat":"37.140037688","long":"127.19721069","imageIndex":4,"items":[{"name":"BHC 용인송전점","tel":"031-336-0206","addr":"경기도 용인시 처인구 이동읍 송전리 715-8번지 1층일부","indutype":"일반휴게음식 - 스넥","category":"restaurant"},{"name":"슈퍼&카페","tel":"031-336-8158","addr":"경기도 용인시 처인구 이동읍 송전리 715-8번지","indutype":"일반휴게음식 - 서양음식","category":"restaurant"},{"name":"청학식당","tel":"031-336-8304","addr":"경기도 용인시 처인구 이동읍 송전리 715-8번지","indutype":"일반휴게음식 - 일반한식","category":"restaurant"}]},{"lat":"37.202693796","long":"127.20926627","imageIndex":4,"items":[{"name":"가로수","tel":"031-335-9522","addr":"경기도 용인시 처인구 이동읍 천리 613-1번지 1층","indutype":"일반휴게음식 - 서양음식","category":"restaurant"}]},{"lat":"37.140616983","long":"127.1956027","imageIndex":4,"items":[{"name":"가마골참숯화로구이","tel":"031-336-5952","addr":"경기도 용인시 처인구 이동읍 송전리 671-3","indutype":"일반휴게음식 - 일반한식","category":"restaurant"}]},{"lat":"37.138865316","long":"127.19782671","imageIndex":4,"items":[{"name":"가마솥솥뚜껑삼겹살","tel":"031-335-2002","addr":"경기도 용인시 처인구 이동읍 송전리 592-11번지","indutype":"일반휴게음식 - 일반한식","category":"restaurant"}]},{"lat":"37.192471449","long":"127.20670432","imageIndex":4,"items":[{"name":"가마치통닭 (용인천리점)","tel":"031-339-6969","addr":"경기도 용인시 처인구 이동읍 천리 236-17번지","indutype":"일반휴게음식 - 스넥","category":"restaurant"},{"name":"김밥천국","tel":"031-322-9444","addr":"경기도 용인시 처인구 이동읍 천리 236-17번지 영찬빌딩 1층","indutype":"일반휴게음식 - 일반한식","category":"restaurant"}]},{"lat":"37.192921094","long":"127.20721236","imageIndex":4,"items":[{"name":"가장맛있는족발","tel":"031-332-5665","addr":"경기도 용인시 처인구 이동읍 천리 237-11번지 1층","indutype":"일반휴게음식 - 일반한식","category":"restaurant"},{"name":"우리가도야지껍데기","tel":"031-000-0000","addr":"경기도 용인시 처인구 이동읍 천리 237-11번지","indutype":"일반휴게음식 - 일반한식","category":"restaurant"},{"name":"장수오리구이","tel":"031-332-5554","addr":"경기도 용인시 처인구 이동읍 천리 237-11번지","indutype":"일반휴게음식 - 일반한식","category":"restaurant"}]},{"lat":"37.137504021","long":"127.2036531","imageIndex":4,"items":[{"name":"갈매울","tel":"031-336-7120","addr":"경기도 용인시 처인구 이동읍 송전리 202번지","indutype":"일반휴게음식 - 일반한식","category":"restaurant"}]},{"lat":"37.213520389","long":"127.16546018","imageIndex":4,"items":[{"name":"감골오리","tel":"031-334-6833","addr":"경기도 용인시 처인구 이동읍 서리 888-4번지","indutype":"일반휴게음식 - 한정식","category":"restaurant"}]},{"lat":"37.208331357","long":"127.17123932","imageIndex":4,"items":[{"name":"강남한우","tel":"031-338-8293","addr":"경기도 용인시 처인구 이동읍 서리 607-3번지 1동 1층 일부,2층","indutype":"일반휴게음식 - 일반한식","category":"restaurant"}]},{"lat":"37.187526179","long":"127.21612861","imageIndex":4,"items":[{"name":"게스트호프","tel":"031-332-5689","addr":"경기도 용인시 처인구 이동읍 천리 65-4번지","indutype":"일반휴게음식 - 일반한식","category":"restaurant"},{"name":"박대박","tel":"031-333-7734","addr":"경기도 용인시 처인구 이동읍 천리 65-4","indutype":"일반휴게음식 - 일반한식","category":"restaurant"}]},{"lat":"37.140066541","long":"127.19609652","imageIndex":4,"items":[{"name":"경성양꼬치","tel":"031-338-8663","addr":"경기도 용인시 처인구 이동읍 송전리 748-7번지 2층","indutype":"일반휴게음식 - 일반한식","category":"restaurant"}]},{"lat":"37.137981608","long":"127.19824086","imageIndex":4,"items":[{"name":"경아두마리치킨","tel":"031-336-8392","addr":"경기도 용인시 처인구 이동읍 송전리 610-3번지","indutype":"일반휴게음식 - 스넥","category":"restaurant"},{"name":"영빈식당","tel":"031-336-7529","addr":"경기도 용인시 처인구 이동읍 송전리 610-3번지","indutype":"일반휴게음식 - 일반한식","category":"restaurant"}]},{"lat":"37.202170372","long":"127.20973794","imageIndex":4,"items":[{"name":"고기공장","tel":"031-336-3640","addr":"경기도 용인시 처인구 이동읍 천리 610-12번지 1층 일부","indutype":"일반휴게음식 - 일반한식","category":"restaurant"},{"name":"고기공장","tel":"031-336-3640","addr":"경기도 용인시 처인구 이동읍 천리 610-12번지","indutype":"일반휴게음식 - 일반한식","category":"restaurant"}]},{"lat":"37.136032859","long":"127.19974394","imageIndex":4,"items":[{"name":"고기서고기","tel":"031-339-2820","addr":"경기도 용인시 처인구 이동읍 송전리 491-5번지 1층","indutype":"일반휴게음식 - 일반한식","category":"restaurant"},{"name":"송탄김가네부대찌개","tel":"031-339-2563","addr":"경기도 용인시 처인구 이동읍 송전리 491-5번지 102호 101호, 102호","indutype":"일반휴게음식 - 일반한식","category":"restaurant"}]},{"lat":"37.203469938","long":"127.20854746","imageIndex":4,"items":[{"name":"고바우천리해장국","tel":"031-339-3159","addr":"경기도 용인시 처인구 이동읍 천리 584-46번지","indutype":"일반휴게음식 - 일반한식","category":"restaurant"}]},{"lat":"37.215387651","long":"127.16390946","imageIndex":4,"items":[{"name":"고향보리밥","tel":"031-338-3399","addr":"경기도 용인시 처인구 이동읍 서리 812번지","indutype":"일반휴게음식 - 일반한식","category":"restaurant"},{"name":"카페다812","tel":"031-332-1010","addr":"경기도 용인시 처인구 이동읍 서리 812번지 1층","indutype":"일반휴게음식 - 서양음식","category":"restaurant"}]},{"lat":"37.138982821","long":"127.19760191","imageIndex":4,"items":[{"name":"곽두리쪽갈비","tel":"","addr":"경기도 용인시 처인구 이동읍 송전리 592-9번지","indutype":"일반휴게음식 - 일반한식","category":"restaurant"}]},{"lat":"37.187029836","long":"127.20631806","imageIndex":4,"items":[{"name":"광릉숯불고기","tel":"031-323-2141","addr":"경기도 용인시 처인구 이동읍 천리 173-1번지","indutype":"일반휴게음식 - 일반한식","category":"restaurant"},{"name":"대박나라","tel":"031-335-7888","addr":"경기도 용인시 처인구 이동읍 천리 173-1번지","indutype":"일반휴게음식 - 일반한식","category":"restaurant"},{"name":"삼보추어탕","tel":"031-333-2199","addr":"경기도 용인시 처인구 이동읍 천리 173-1번지","indutype":"일반휴게음식 - 일반한식","category":"restaurant"},{"name":"소문난 원가네 감자탕","tel":"031-335-0704","addr":"경기도 용인시 처인구 이동읍 천리 173-1번지","indutype":"일반휴게음식 - 일반한식","category":"restaurant"},{"name":"진미식당","tel":"031-339-3306","addr":"경기도 용인시 처인구 이동읍 천리 173-1번지","indutype":"일반휴게음식 - 일반한식","category":"restaurant"},{"name":"해밀샤브칼국수","tel":"031-335-0556","addr":"경기도 용인시 처인구 이동읍 천리 173-1번지","indutype":"일반휴게음식 - 일반한식","category":"restaurant"}]},{"lat":"37.186584247","long":"127.22848024","imageIndex":4,"items":[{"name":"광릉참숯불고기","tel":"031-323-7151","addr":"경기도 용인시 처인구 이동읍 묵리 896번지","indutype":"일반휴게음식 - 일반한식","category":"restaurant"}]},{"lat":"37.194192619","long":"127.20659632","imageIndex":4,"items":[{"name":"국가대표","tel":"031-333-4772","addr":"경기도 용인시 처인구 이동읍 천리 236-3","indutype":"일반휴게음식 - 일반한식","category":"restaurant"},{"name":"털보식당","tel":"031-333-1607","addr":"경기도 용인시 처인구 이동읍 천리 236-3번지","indutype":"일반휴게음식 - 일반한식","category":"restaurant"}]},{"lat":"37.135952456","long":"127.19932732","imageIndex":4,"items":[{"name":"금강식당","tel":"031-336-7864","addr":"경기도 용인시 처인구 이동읍 송전리 543-3번지","indutype":"일반휴게음식 - 일반한식","category":"restaurant"}]},{"lat":"37.106345771","long":"127.19268085","imageIndex":4,"items":[{"name":"금송정","tel":"031-321-5233","addr":"경기도 용인시 처인구 이동읍 어비리 944번지 2층","indutype":"일반휴게음식 - 일반한식","category":"restaurant"}]},{"lat":"37.138919563","long":"127.1977143","imageIndex":4,"items":[{"name":"김밥마을","tel":"031-333-6429","addr":"경기도 용인시 처인구 이동읍 송전리 592-10번지","indutype":"일반휴게음식 - 스넥","category":"restaurant"}]},{"lat":"37.213912998","long":"127.20851947","imageIndex":4,"items":[{"name":"김순남청국장","tel":"031-338-6464","addr":"경기도 용인시 처인구 이동읍 천리 506-2번지","indutype":"일반휴게음식 - 일반한식","category":"restaurant"}]},{"lat":"37.138423175","long":"127.19820824","imageIndex":4,"items":[{"name":"깍두기","tel":"031-336-2554","addr":"경기도 용인시 처인구 이동읍 송전리590-8","indutype":"일반휴게음식 - 일반한식","category":"restaurant"}]},{"lat":"37.206030198","long":"127.2077884","imageIndex":4,"items":[{"name":"꺼먹돼지","tel":"031-321-9194","addr":"경기도 용인시 처인구 이동읍 천리 559-5번지 외2필지","indutype":"일반휴게음식 - 일반한식","category":"restaurant"}]},{"lat":"37.097813911","long":"127.18624779","imageIndex":4,"items":[{"name":"꼼지네","tel":"031-333-7882","addr":"경기도 용인시 처인구 이동읍 어비리 866-1번지 3동 1층","indutype":"일반휴게음식 - 일반한식","category":"restaurant"}]},{"lat":"37.128646911","long":"127.20353968","imageIndex":4,"items":[{"name":"나능이","tel":"031-339-0506","addr":"경기도 용인시 처인구 이동읍 송전리 298-5번지 1층","indutype":"일반휴게음식 - 일반한식","category":"restaurant"}]},{"lat":"37.127511157","long":"127.2037955","imageIndex":4,"items":[{"name":"나루터","tel":"031-336-8629","addr":"경기도 용인시 처인구 이동읍 어비리567","indutype":"일반휴게음식 - 일반한식","category":"restaurant"}]},{"lat":"37.141759639","long":"127.19662983","imageIndex":4,"items":[{"name":"내가널낙지","tel":"031-321-5234","addr":"경기도 용인시 처인구 이동읍 송전리 766-2","indutype":"일반휴게음식 - 일반한식","category":"restaurant"}]},{"lat":"37.140532579","long":"127.1976284","imageIndex":4,"items":[{"name":"눈꽃길","tel":"031-334-2407","addr":"경기도 용인시 처인구 이동읍 송전리722-5","indutype":"일반휴게음식 - 일반한식","category":"restaurant"},{"name":"뽕뜨락피자","tel":"031-338-4868","addr":"경기도 용인시 처인구 이동읍 송전리 722-5번지","indutype":"일반휴게음식 - 스넥","category":"restaurant"}]},{"lat":"37.186860202","long":"127.20540539","imageIndex":4,"items":[{"name":"눈떠따화인트리","tel":"031-334-8577","addr":"경기도 용인시 처인구 이동읍 천리 172번지","indutype":"일반휴게음식 - 주점","category":"restaurant"}]},{"lat":"37.181699988","long":"127.20379253","imageIndex":4,"items":[{"name":"늘봄공원","tel":"031-333-2990","addr":"경기도 용인시 처인구 이동읍 덕성리 584-15번지","indutype":"일반휴게음식 - 일반한식","category":"restaurant"}]},{"lat":"37.190115472","long":"127.20392744","imageIndex":4,"items":[{"name":"니가 좋아","tel":"031-000-0000","addr":"경기도 용인시 처인구 이동읍 천리 199-3번지","indutype":"일반휴게음식 - 스넥","category":"restaurant"},{"name":"스프링팟","tel":"031-322-7609","addr":"경기도 용인시 처인구 이동읍 천리 199-3번지 1층","indutype":"일반휴게음식 - 일반한식","category":"restaurant"}]},{"lat":"37.212913283","long":"127.20826891","imageIndex":4,"items":[{"name":"대가원","tel":"02-1899-7573","addr":"경기도 용인시 처인구 이동읍 천리 506-5번지 1층","indutype":"일반휴게음식 - 일반한식","category":"restaurant"}]},{"lat":"37.18613949","long":"127.23017945","imageIndex":4,"items":[{"name":"대가해신탕","tel":"031-323-0369","addr":"경기도 용인시 처인구 이동읍 묵리 739-6번지 1층","indutype":"일반휴게음식 - 일반한식","category":"restaurant"},{"name":"동강","tel":"031-332-2913","addr":"경기도 용인시 처인구 이동읍 묵리739-6","indutype":"일반휴게음식 - 일반한식","category":"restaurant"}]},{"lat":"37.161420317","long":"127.20743152","imageIndex":4,"items":[{"name":"대명성각","tel":"031-337-0998","addr":"경기도 용인시 처인구 이동읍 시미리127-1","indutype":"일반휴게음식 - 중국식","category":"restaurant"}]},{"lat":"37.13937051","long":"127.19745659","imageIndex":4,"items":[{"name":"대운아나고","tel":"031-321-9925","addr":"경기도 용인시 처인구 이동읍 송전리 685-9번지","indutype":"일반휴게음식 - 일반한식","category":"restaurant"}]},{"lat":"37.141864565","long":"127.19857725","imageIndex":4,"items":[{"name":"대원기사식당","tel":"031-336-4229","addr":"경기도 용인시 처인구 이동읍 송전리780-9","indutype":"일반휴게음식 - 일반한식","category":"restaurant"}]},{"lat":"37.106174121","long":"127.19296167","imageIndex":4,"items":[{"name":"대추나무집","tel":"031-332-7988","addr":"경기도 용인시 처인구 이동읍 어비리 959번지","indutype":"일반휴게음식 - 일반한식","category":"restaurant"}]},{"lat":"37.190579973","long":"127.20629379","imageIndex":4,"items":[{"name":"더맛소(The 맛소)","tel":"031-333-3349","addr":"경기도 용인시 처인구 이동읍 천리 231-1번지 112호","indutype":"일반휴게음식 - 일반한식","category":"restaurant"},{"name":"봉이동동","tel":"031-322-7787","addr":"경기도 용인시 처인구 이동읍 천리 231-1번지 111호","indutype":"일반휴게음식 - 일반한식","category":"restaurant"},{"name":"이든","tel":"031-333-2298","addr":"경기도 용인시 처인구 이동읍 천리 231-1번지 1층 101호","indutype":"일반휴게음식 - 일반한식","category":"restaurant"},{"name":"피자스쿨천리점","tel":"031-334-6800","addr":"경기도 용인시 처인구 이동읍 천리 231-1번지 피자스쿨천리 108호","indutype":"일반휴게음식 - 서양음식","category":"restaurant"},{"name":"피치데이 천리점","tel":"031-333-8273","addr":"경기도 용인시 처인구 이동읍 천리 231-1번지 1층","indutype":"일반휴게음식 - 서양음식","category":"restaurant"}]},{"lat":"37.194002432","long":"127.20715896","imageIndex":4,"items":[{"name":"도깨비족발","tel":"031-334-8987","addr":"경기도 용인시 처인구 이동읍 천리 237-4번지","indutype":"일반휴게음식 - 스넥","category":"restaurant"},{"name":"찌개나라 볶음나라","tel":"031-335-1996","addr":"경기도 용인시 처인구 이동읍 천리 237-4","indutype":"일반휴게음식 - 스넥","category":"restaurant"}]},{"lat":"37.139010444","long":"127.19724183","imageIndex":4,"items":[{"name":"도니삼겹살","tel":"031-336-7014","addr":"경기도 용인시 처인구 이동읍 송전리 592-5번지","indutype":"일반휴게음식 - 일반한식","category":"restaurant"}]},{"lat":"37.142036598","long":"127.19807121","imageIndex":4,"items":[{"name":"돈가네돼지찌개","tel":"031-322-0099","addr":"경기도 용인시 처인구 이동읍 송전리 778-5번지","indutype":"일반휴게음식 - 일반한식","category":"restaurant"},{"name":"사그막","tel":"031-338-9994","addr":"경기도 용인시 처인구 이동읍 송전리 778-5번지","indutype":"일반휴게음식 - 일반한식","category":"restaurant"}]},{"lat":"37.139254223","long":"127.19693857","imageIndex":4,"items":[{"name":"돈치킨","tel":"031-336-7319","addr":"경기도 용인시 처인구 이동읍 송전리 685-5번지","indutype":"일반휴게음식 - 스넥","category":"restaurant"},{"name":"스마일찹쌀꽈배기","tel":"031-336-8134","addr":"경기도 용인시 처인구 이동읍 송전리 685-5번지","indutype":"일반휴게음식 - 일반한식","category":"restaurant"}]},{"lat":"37.138586325","long":"127.19762341","imageIndex":4,"items":[{"name":"두꺼비포차","tel":"","addr":"경기도 용인시 처인구 이동읍 송전리 608-7번지","indutype":"일반휴게음식 - 일반한식","category":"restaurant"}]},{"lat":"37.187644023","long":"127.21573477","imageIndex":4,"items":[{"name":"두메산골","tel":"031-322-2567","addr":"경기도 용인시 처인구 이동읍 천리64-4","indutype":"일반휴게음식 - 일반한식","category":"restaurant"},{"name":"한울타리","tel":"031-333-7569","addr":"경기도 용인시 처인구 이동읍 천리 64-4번지","indutype":"일반휴게음식 - 일반한식","category":"restaurant"}]},{"lat":"37.173725131","long":"127.1987945","imageIndex":4,"items":[{"name":"드림푸드","tel":"031-339-1489","addr":"경기도 용인시 처인구 이동읍 덕성리 1035-1번지","indutype":"일반휴게음식 - 일반한식","category":"restaurant"}]},{"lat":"37.209109805","long":"127.16871764","imageIndex":4,"items":[{"name":"들꽃","tel":"","addr":"경기도 용인시 처인구 이동읍 서리 626번지","indutype":"일반휴게음식 - 일반한식","category":"restaurant"},{"name":"터","tel":"031-338-3823","addr":"경기도 용인시 처인구 이동읍 서리 626번지","indutype":"일반휴게음식 - 일반한식","category":"restaurant"}]},{"lat":"37.190949301","long":"127.20635109","imageIndex":4,"items":[{"name":"따블로닭강정","tel":"031-335-6888","addr":"경기도 용인시 처인구 이동읍 천리 232-1번지 1층","indutype":"일반휴게음식 - 스넥","category":"restaurant"},{"name":"먹고가자","tel":"031-333-1146","addr":"경기도 용인시 처인구 이동읍 천리 232-1번지 천리마트","indutype":"일반휴게음식 - 스넥","category":"restaurant"},{"name":"스마일찰진꽈배기","tel":"031-335-2459","addr":"경기도 용인시 처인구 이동읍 천리 232-1번지 1층","indutype":"일반휴게음식 - 일반한식","category":"restaurant"},{"name":"직거래수산","tel":"031-334-8666","addr":"경기도 용인시 처인구 이동읍 천리232-1","indutype":"일반휴게음식 - 일반한식","category":"restaurant"},{"name":"펀비어킹(천리점)","tel":"031-328-8871","addr":"경기도 용인시 처인구 이동읍 천리 232-1번지","indutype":"일반휴게음식 - 주점","category":"restaurant"}]},{"lat":"37.139010628","long":"127.19712928","imageIndex":4,"items":[{"name":"때때로소주방","tel":"031-338-0733","addr":"경기도 용인시 처인구 이동읍 송전리 594-5번지","indutype":"일반휴게음식 - 일반한식","category":"restaurant"},{"name":"밤도깨비터","tel":"031-337-1077","addr":"경기도 용인시 처인구 이동읍 송전리 594-5번지","indutype":"일반휴게음식 - 일반한식","category":"restaurant"},{"name":"이모네밥상","tel":"031-338-8938","addr":"경기도 용인시 처인구 이동읍 송전리 594-5번지 1층","indutype":"일반휴게음식 - 일반한식","category":"restaurant"}]},{"lat":"37.192110124","long":"127.2072327","imageIndex":4,"items":[{"name":"땡초불닭발","tel":"031-339-9982","addr":"경기도 용인시 처인구 이동읍 천리 241-5번지","indutype":"일반휴게음식 - 일반한식","category":"restaurant"},{"name":"명랑핫도그","tel":"","addr":"경기도 용인시 처인구 이동읍 천리 241-5번지","indutype":"일반휴게음식 - 서양음식","category":"restaurant"}]},{"lat":"37.140065346","long":"127.19682809","imageIndex":4,"items":[{"name":"떡볶이먹고가","tel":"031-332-9427","addr":"경기도 용인시 처인구 이동읍 송전리 716-21번지 1층","indutype":"일반휴게음식 - 스넥","category":"restaurant"},{"name":"왕돈까스&베트남쌀국수","tel":"031-339-1300","addr":"경기도 용인시 처인구 이동읍 송전리 716-21번지","indutype":"일반휴게음식 - 스넥","category":"restaurant"}]},{"lat":"37.138729474","long":"127.19824279","imageIndex":4,"items":[{"name":"또래오래(송전점)","tel":"031-335-6005","addr":"경기도 용인시 처인구 이동읍 송전리 589-1번지","indutype":"일반휴게음식 - 스넥","category":"restaurant"}]},{"lat":"37.194164677","long":"127.20712561","imageIndex":4,"items":[{"name":"또봉이통닭 천리점","tel":"031-333-8830","addr":"경기도 용인시 처인구 이동읍 천리 237-3번지 1층","indutype":"일반휴게음식 - 스넥","category":"restaurant"}]},{"lat":"37.191669471","long":"127.20673596","imageIndex":4,"items":[{"name":"뚱보집","tel":"031-321-6638","addr":"경기도 용인시 처인구 이동읍 천리 234-8번지 1층","indutype":"일반휴게음식 - 일반한식","category":"restaurant"},{"name":"훌랄라숯불바베큐치킨","tel":"031-333-7050","addr":"경기도 용인시 처인구 이동읍 천리 234-8번지","indutype":"일반휴게음식 - 일반한식","category":"restaurant"}]},{"lat":"37.186420557","long":"127.22926808","imageIndex":4,"items":[{"name":"뜨락","tel":"031-334-7755","addr":"경기도 용인시 처인구 이동읍 묵리 751-5번지","indutype":"일반휴게음식 - 일반한식","category":"restaurant"}]},{"lat":"37.209329997","long":"127.20662574","imageIndex":4,"items":[{"name":"뜰안애","tel":"031-332-3311","addr":"경기도 용인시 처인구 이동읍 천리 515-2번지","indutype":"일반휴게음식 - 일반한식","category":"restaurant"}]},{"lat":"37.14139671","long":"127.1981596","imageIndex":4,"items":[{"name":"롯데리아용인송정점","tel":"070-2233-5612","addr":"경기도 용인시 처인구 이동읍 송전리 723-9번지 103,104호","indutype":"일반휴게음식 - 서양음식","category":"restaurant"}]},{"lat":"37.193832496","long":"127.20642641","imageIndex":4,"items":[{"name":"롯데리아천리점","tel":"031-339-0008","addr":"경기도 용인시 처인구 이동읍 천리 235-1번지","indutype":"일반휴게음식 - 서양음식","category":"restaurant"}]},{"lat":"37.138537722","long":"127.19977294","imageIndex":4,"items":[{"name":"루치아","tel":"070-4178-9536","addr":"경기도 용인시 처인구 이동읍 송전리 572-2번지","indutype":"일반휴게음식 - 일반한식","category":"restaurant"}]},{"lat":"37.106930117","long":"127.19351481","imageIndex":4,"items":[{"name":"리엔호이스","tel":"031-335-9025","addr":"경기도 용인시 처인구 이동읍 어비리 962번지","indutype":"일반휴게음식 - 일반한식","category":"restaurant"}]},{"lat":"37.129061239","long":"127.2036308","imageIndex":4,"items":[{"name":"마당쇠","tel":"031-335-4370","addr":"경기도 용인시 처인구 이동읍 송전리 298-1번지","indutype":"일반휴게음식 - 일반한식","category":"restaurant"}]},{"lat":"37.183500008","long":"127.23454097","imageIndex":4,"items":[{"name":"맘꽃(체험형음식)","tel":"070-7864-1177","addr":"경기도 용인시 처인구 이동읍 묵리 659-3번지","indutype":"일반휴게음식 - 일반한식","category":"restaurant"}]},{"lat":"37.186422254","long":"127.2283784","imageIndex":4,"items":[{"name":"맛고을","tel":"031-333-5075","addr":"경기도 용인시 처인구 이동읍 묵리 897-1","indutype":"일반휴게음식 - 일반한식","category":"restaurant"}]},{"lat":"37.195165155","long":"127.20693683","imageIndex":4,"items":[{"name":"맛진불백","tel":"031-321-7333","addr":"경기도 용인시 처인구 이동읍 천리 763-3번지","indutype":"일반휴게음식 - 일반한식","category":"restaurant"},{"name":"직거래수산","tel":"031-336-6288","addr":"경기도 용인시 처인구 이동읍 천리 763-3번지 가동","indutype":"일반휴게음식 - 일식·회집","category":"restaurant"}]},{"lat":"37.145398638","long":"127.20279601","imageIndex":4,"items":[{"name":"메밀촌막국수","tel":"031-337-2260","addr":"경기도 용인시 처인구 이동읍 화산리 663-1번지 1층","indutype":"일반휴게음식 - 일반한식","category":"restaurant"},{"name":"메밀향막국수","tel":"031-337-2260","addr":"경기도 용인시 처인구 이동읍 화산리 663-1번지","indutype":"일반휴게음식 - 일반한식","category":"restaurant"}]},{"lat":"37.193552497","long":"127.20681986","imageIndex":4,"items":[{"name":"명동김밥마을만두나라","tel":"031-339-3510","addr":"경기도 용인시 처인구 이동읍 천리 236-4번지 가동 1층","indutype":"일반휴게음식 - 스넥","category":"restaurant"},{"name":"왕서방왕치킨피자","tel":"031-322-9294","addr":"경기도 용인시 처인구 이동읍 천리236-4","indutype":"일반휴게음식 - 칵테일바","category":"restaurant"}]},{"lat":"37.137593565","long":"127.19860002","imageIndex":4,"items":[{"name":"명동식당","tel":"031-336-8239","addr":"경기도 용인시 처인구 이동읍 송전리614-3","indutype":"일반휴게음식 - 일반한식","category":"restaurant"}]},{"lat":"37.13822539","long":"127.19793761","imageIndex":4,"items":[{"name":"몽실이양꼬치","tel":"","addr":"경기도 용인시 처인구 이동읍 송전리 609번지","indutype":"일반휴게음식 - 일반한식","category":"restaurant"},{"name":"신고향촌","tel":"031-335-7629","addr":"경기도 용인시 처인구 이동읍 송전리 609번지 1층","indutype":"일반휴게음식 - 일반한식","category":"restaurant"},{"name":"용카페","tel":"","addr":"경기도 용인시 처인구 이동읍 송전리 609번지 1층","indutype":"일반휴게음식 - 서양음식","category":"restaurant"}]},{"lat":"37.175081799","long":"127.23118226","imageIndex":4,"items":[{"name":"묵리송어횟집","tel":"031-333-0085","addr":"경기도 용인시 처인구 이동읍 묵리 578-3","indutype":"일반휴게음식 - 일식·회집","category":"restaurant"}]},{"lat":"37.208363638","long":"127.20792989","imageIndex":4,"items":[{"name":"문동운황금옻닭","tel":"031-339-1331","addr":"경기도 용인시 처인구 이동읍 천리 566-11번지","indutype":"일반휴게음식 - 일반한식","category":"restaurant"}]},{"lat":"37.141980346","long":"127.1938841","imageIndex":4,"items":[{"name":"문어세상","tel":"031-336-8161","addr":"경기도 용인시 처인구 이동읍 송전리 913-16번지","indutype":"일반휴게음식 - 일반한식","category":"restaurant"}]},{"lat":"37.189530943","long":"127.20850966","imageIndex":4,"items":[{"name":"미녀닭발","tel":"031-733-9072","addr":"경기도 용인시 처인구 이동읍 천리 131-18번지 1층","indutype":"일반휴게음식 - 일반한식","category":"restaurant"}]},{"lat":"37.106895591","long":"127.19256972","imageIndex":4,"items":[{"name":"미락","tel":"031-332-7985","addr":"경기도 용인시 처인구 이동읍 어비리 978번지","indutype":"일반휴게음식 - 일반한식","category":"restaurant"}]},{"lat":"37.140366409","long":"127.20538268","imageIndex":4,"items":[{"name":"미래물산","tel":"031-336-5050","addr":"경기도 용인시 처인구 이동읍 송전리169-5","indutype":"일반휴게음식 - 스넥","category":"restaurant"},{"name":"송전휴게소","tel":"031-336-5050","addr":"경기도 용인시 처인구 이동읍 송전리169-5","indutype":"일반휴게음식 - 스넥","category":"restaurant"}]},{"lat":"37.189693129","long":"127.20851009","imageIndex":4,"items":[{"name":"바니양념통닭","tel":"031-339-3230","addr":"경기도 용인시 처인구 이동읍 천129-2","indutype":"일반휴게음식 - 주점","category":"restaurant"}]},{"lat":"37.194777477","long":"127.20707094","imageIndex":4,"items":[{"name":"바다횟집","tel":"031-333-7748","addr":"경기도 용인시 처인구 이동읍 천리 722-1번지","indutype":"일반휴게음식 - 일식·회집","category":"restaurant"}]},{"lat":"37.193749151","long":"127.20773269","imageIndex":4,"items":[{"name":"반달커피천리점","tel":"","addr":"경기도 용인시 처인구 이동읍 천리 752-2번지 102호","indutype":"일반휴게음식 - 서양음식","category":"restaurant"}]},{"lat":"37.196718629","long":"127.18824378","imageIndex":4,"items":[{"name":"백자로","tel":"031-333-5769","addr":"경기도 용인시 처인구 이동읍 서리 10-21번지","indutype":"일반휴게음식 - 일반한식","category":"restaurant"},{"name":"양평해장국","tel":"031-333-5769","addr":"경기도 용인시 처인구 이동읍 서리 10-21번지 1층","indutype":"일반휴게음식 - 일반한식","category":"restaurant"}]},{"lat":"37.191363641","long":"127.20643104","imageIndex":4,"items":[{"name":"백화원","tel":"031-333-1196","addr":"경기도 용인시 처인구 이동읍 천리 232-2번지 1층","indutype":"일반휴게음식 - 중국식","category":"restaurant"}]},{"lat":"37.141645851","long":"127.19456983","imageIndex":4,"items":[{"name":"별난김치찌개","tel":"031-337-1240","addr":"경기도 용인시 처인구 이동읍 송전리 913-8번지 1층","indutype":"일반휴게음식 - 일반한식","category":"restaurant"},{"name":"조리고송전점","tel":"031-322-8154","addr":"경기도 용인시 처인구 이동읍 송전리 913-8번지 2층","indutype":"일반휴게음식 - 일반한식","category":"restaurant"}]},{"lat":"37.19541643","long":"127.20224075","imageIndex":4,"items":[{"name":"별난돼지김치찌게&뒷고기","tel":"031-335-2728","addr":"경기도 용인시 처인구 이동읍 천리 793-5번지 신영실크 A동","indutype":"일반휴게음식 - 일반한식","category":"restaurant"},{"name":"푸짐한밥상","tel":"031-339-8283","addr":"경기도 용인시 처인구 이동읍 천리 793-5번지 외3필지","indutype":"일반휴게음식 - 일반한식","category":"restaurant"},{"name":"화인푸드서비스","tel":"031-322-6614","addr":"경기도 용인시 처인구 이동읍 천리 793-5번지 외3필지 C동","indutype":"일반휴게음식 - 일반한식","category":"restaurant"}]},{"lat":"37.140480966","long":"127.19613134","imageIndex":4,"items":[{"name":"별주부새우야튀김아","tel":"02-1111-1111","addr":"경기도 용인시 처인구 이동읍 송전리 749-9번지 1층","indutype":"일반휴게음식 - 일반한식","category":"restaurant"},{"name":"송전토속순대","tel":"031-323-3370","addr":"경기도 용인시 처인구 이동읍 송전리 749-9번지","indutype":"일반휴게음식 - 일반한식","category":"restaurant"}]},{"lat":"37.137141516","long":"127.19952172","imageIndex":4,"items":[{"name":"병어해물찜","tel":"031-336-2731","addr":"경기도 용인시 처인구 이동읍 송전리 577-5번지","indutype":"일반휴게음식 - 일반한식","category":"restaurant"},{"name":"송전갈매기","tel":"031-336-3192","addr":"경기도 용인시 처인구 이동읍 송전리 577-5번지","indutype":"일반휴게음식 - 일반한식","category":"restaurant"},{"name":"하디장","tel":"031-111-1111","addr":"경기도 용인시 처인구 이동읍 송전리 577-5번지","indutype":"일반휴게음식 - 서양음식","category":"restaurant"}]},{"lat":"37.136393519","long":"127.19959857","imageIndex":4,"items":[{"name":"병천토종순대","tel":"031-336-5554","addr":"경기도 용인시 처인구 이동읍 송전리616-10","indutype":"일반휴게음식 - 일반한식","category":"restaurant"}]},{"lat":"37.136780501","long":"127.19988093","imageIndex":4,"items":[{"name":"본가구첩반상","tel":"031-322-8533","addr":"경기도 용인시 처인구 이동읍 송전리 577-7번지 1층","indutype":"일반휴게음식 - 일반한식","category":"restaurant"},{"name":"육감만족(송전점)","tel":"031-335-9211","addr":"경기도 용인시 처인구 이동읍 송전리 577-7번지","indutype":"일반휴게음식 - 일반한식","category":"restaurant"}]},{"lat":"37.192668863","long":"127.20717789","imageIndex":4,"items":[{"name":"본죽용인천리점","tel":"031-526-7498","addr":"경기도 용인시 처인구 이동읍 천리 237-18","indutype":"일반휴게음식 - 일반한식","category":"restaurant"},{"name":"전설의곱창천리점","tel":"031-333-2262","addr":"경기도 용인시 처인구 이동읍 천리 237-18번지 1층","indutype":"일반휴게음식 - 일반한식","category":"restaurant"}]},{"lat":"37.209524139","long":"127.16881993","imageIndex":4,"items":[{"name":"본투비커피","tel":"031-322-7231","addr":"경기도 용인시 처인구 이동읍 서리 629-2번지","indutype":"일반휴게음식 - 서양음식","category":"restaurant"}]},{"lat":"37.188420951","long":"127.21459947","imageIndex":4,"items":[{"name":"봉평막국수더덕곤드레밥정식","tel":"031-321-0575","addr":"경기도 용인시 처인구 이동읍 천리 98-1번지","indutype":"일반휴게음식 - 일반한식","category":"restaurant"}]},{"lat":"37.208384311","long":"127.17201673","imageIndex":4,"items":[{"name":"봉평전통막국수","tel":"031-333-0001","addr":"경기도 용인시 처인구 이동읍 서리 604-3번지","indutype":"일반휴게음식 - 일반한식","category":"restaurant"}]},{"lat":"37.189775666","long":"127.2076769","imageIndex":4,"items":[{"name":"사계절","tel":"031-339-3537","addr":"경기도 용인시 처인구 이동읍 천리 130-7번지 1층","indutype":"일반휴게음식 - 일반한식","category":"restaurant"},{"name":"송골정육식당","tel":"031-322-4888","addr":"경기도 용인시 처인구 이동읍 천리 130-7번지 1층","indutype":"일반휴게음식 - 일반한식","category":"restaurant"},{"name":"토불이 양평해장국","tel":"031-322-7771","addr":"경기도 용인시 처인구 이동읍 천리 130-7번지","indutype":"일반휴게음식 - 일반한식","category":"restaurant"},{"name":"퓨전돌판집","tel":"031-338-0530","addr":"경기도 용인시 처인구 이동읍 천리 130-7번지 1층","indutype":"일반휴게음식 - 일반한식","category":"restaurant"}]},{"lat":"37.187804953","long":"127.21643347","imageIndex":4,"items":[{"name":"산마루","tel":"031-323-5292","addr":"경기도 용인시 처인구 이동읍 천리 61-7번지","indutype":"일반휴게음식 - 일반한식","category":"restaurant"}]},{"lat":"37.197496934","long":"127.1860493","imageIndex":4,"items":[{"name":"삼태기손두부","tel":"070-8112-0014","addr":"경기도 용인시 처인구 이동읍 서리 242-5번지 가동 1층","indutype":"일반휴게음식 - 일반한식","category":"restaurant"}]},{"lat":"37.125096303","long":"127.21418668","imageIndex":4,"items":[{"name":"새마을들밥","tel":"031-321-0188","addr":"경기도 용인시 처인구 이동읍 묘봉리 740-4번지 1층","indutype":"일반휴게음식 - 일반한식","category":"restaurant"}]},{"lat":"37.189309088","long":"127.20653815","imageIndex":4,"items":[{"name":"샘골","tel":"031-334-9833","addr":"경기도 용인시 처인구 이동읍 천리 133-1번지 2층","indutype":"일반휴게음식 - 일반한식","category":"restaurant"}]},{"lat":"37.196472429","long":"127.20648981","imageIndex":4,"items":[{"name":"샘골냉면","tel":"070-7779-7212","addr":"경기도 용인시 처인구 이동읍 천리 765-3번지 1층","indutype":"일반휴게음식 - 일반한식","category":"restaurant"}]},{"lat":"37.18791399","long":"127.20565597","imageIndex":4,"items":[{"name":"샘골생고기전문점","tel":"031-332-0613","addr":"경기도 용인시 처인구 이동읍 천리150-9,1층","indutype":"일반휴게음식 - 일반한식","category":"restaurant"}]},{"lat":"37.204245441","long":"127.17418155","imageIndex":4,"items":[{"name":"서리식당","tel":"031-333-0802","addr":"경기도 용인시 처인구 이동읍 서리 344-3번지","indutype":"일반휴게음식 - 일반한식","category":"restaurant"}]},{"lat":"37.191751242","long":"127.17815156","imageIndex":4,"items":[{"name":"서리한식부페","tel":"031-322-0733","addr":"경기도 용인시 처인구 이동읍 서리 136번지","indutype":"일반휴게음식 - 일반한식","category":"restaurant"}]},{"lat":"37.138063017","long":"127.19804974","imageIndex":4,"items":[{"name":"서울식당","tel":"031-336-0052","addr":"경기도 용인시 처인구 이동읍 송전리 608-12번지","indutype":"일반휴게음식 - 일반한식","category":"restaurant"}]},{"lat":"37.211634111","long":"127.20809646","imageIndex":4,"items":[{"name":"선운산풍천장어","tel":"031-323-1677","addr":"경기도 용인시 처인구 이동읍 천리 511-5번지 1층","indutype":"일반휴게음식 - 일반한식","category":"restaurant"},{"name":"카페65도(cafe 65˚)","tel":"031-335-0659","addr":"경기도 용인시 처인구 이동읍 천리 511-5번지","indutype":"일반휴게음식 - 서양음식","category":"restaurant"}]},{"lat":"37.193001273","long":"127.20774193","imageIndex":4,"items":[{"name":"선한식당","tel":"031-333-7153","addr":"경기도 용인시 처인구 이동읍 천리 279번지 스페이스타운 상가 1층 1호","indutype":"일반휴게음식 - 일반한식","category":"restaurant"}]},{"lat":"37.186498747","long":"127.20601256","imageIndex":4,"items":[{"name":"소중한 밥상","tel":"031-321-6257","addr":"경기도 용인시 처인구 이동읍 천리 1106-1번지 1층","indutype":"일반휴게음식 - 일반한식","category":"restaurant"},{"name":"소중한밥상","tel":"031-321-6257","addr":"경기도 용인시 처인구 이동읍 천리 1106-1번지 1층","indutype":"일반휴게음식 - 일반한식","category":"restaurant"}]},{"lat":"37.141363639","long":"127.19634744","imageIndex":4,"items":[{"name":"솔밭","tel":"031-323-3392","addr":"경기도 용인시 처인구 이동읍 송전리750외1필지","indutype":"일반휴게음식 - 일반한식","category":"restaurant"},{"name":"카페어썸(CAFE AWESOME)","tel":"031-336-7123","addr":"경기도 용인시 처인구 이동읍 송전리 750번지 다동","indutype":"일반휴게음식 - 서양음식","category":"restaurant"}]},{"lat":"37.194526331","long":"127.20640574","imageIndex":4,"items":[{"name":"솟뚜껑삼겹살과묵은지이야기","tel":"031-000-0000","addr":"경기도 용인시 처인구 이동읍 천리 759-3번지","indutype":"일반휴게음식 - 일반한식","category":"restaurant"}]},{"lat":"37.138730622","long":"127.19754499","imageIndex":4,"items":[{"name":"송전닭발","tel":"031-333-5477","addr":"경기도 용인시 처인구 이동읍 송전리 592-15번지 1층","indutype":"일반휴게음식 - 일반한식","category":"restaurant"}]},{"lat":"37.13553362","long":"127.20193724","imageIndex":4,"items":[{"name":"송전매운탕","tel":"031-336-7339","addr":"경기도 용인시 처인구 이동읍 송전리 244번지","indutype":"일반휴게음식 - 일반한식","category":"restaurant"}]},{"lat":"37.14042569","long":"127.19687403","imageIndex":4,"items":[{"name":"송전밥집","tel":"031-339-9292","addr":"경기도 용인시 처인구 이동읍 송전리 716-7번지","indutype":"일반휴게음식 - 일반한식","category":"restaurant"}]},{"lat":"37.125843747","long":"127.20407242","imageIndex":4,"items":[{"name":"송전지관광집","tel":"031-336-7312","addr":"경기도 용인시 처인구 이동읍 어비리 574-3번지","indutype":"일반휴게음식 - 일반한식","category":"restaurant"}]},{"lat":"37.140336432","long":"127.19635608","imageIndex":4,"items":[{"name":"송전참숯불갈비","tel":"031-336-8466","addr":"경기도 용인시 처인구 이동읍 송전리 747-1번지","indutype":"일반휴게음식 - 일반한식","category":"restaurant"},{"name":"신참숯바베큐치킨","tel":"031-336-3227","addr":"경기도 용인시 처인구 이동읍 송전리 747-1번지","indutype":"일반휴게음식 - 일반한식","category":"restaurant"},{"name":"일오삼부대찌개","tel":"031-332-0999","addr":"경기도 용인시 처인구 이동읍 송전리 747-1번지 1층","indutype":"일반휴게음식 - 일반한식","category":"restaurant"}]},{"lat":"37.166340472","long":"127.24096245","imageIndex":4,"items":[{"name":"수영궁 카라반 마트 SYG 카페","tel":"070-7763-8644","addr":"경기도 용인시 처인구 이동읍 묵리 425번지","indutype":"일반휴게음식 - 서양음식","category":"restaurant"}]},{"lat":"37.128676397","long":"127.20737713","imageIndex":4,"items":[{"name":"수원식당","tel":"031-336-8233","addr":"경기도 용인시 처인구 이동읍 어비리산46","indutype":"일반휴게음식 - 일반한식","category":"restaurant"}]},{"lat":"37.201551265","long":"127.20823812","imageIndex":4,"items":[{"name":"수작바베큐콥","tel":"031-527-4906","addr":"경기도 용인시 처인구 이동읍 천리 1142번지 에이스카운티아파트","indutype":"일반휴게음식 - 일반한식","category":"restaurant"}]},{"lat":"37.193029315","long":"127.20715634","imageIndex":4,"items":[{"name":"수정호프","tel":"031-332-6698","addr":"경기도 용인시 처인구 이동읍 천리 237-26번지 1층","indutype":"일반휴게음식 - 서양음식","category":"restaurant"}]},{"lat":"37.186060036","long":"127.22932332","imageIndex":4,"items":[{"name":"쉴만한물가","tel":"031-321-3188","addr":"경기도 용인시 처인구 이동읍 묵리 739-4번지","indutype":"일반휴게음식 - 서양음식","category":"restaurant"}]},{"lat":"37.21218944","long":"127.17007626","imageIndex":4,"items":[{"name":"슬로우제이","tel":"031-333-7989","addr":"경기도 용인시 처인구 이동읍 서리 688-3번지","indutype":"일반휴게음식 - 서양음식","category":"restaurant"}]},{"lat":"37.13817275","long":"127.19707087","imageIndex":4,"items":[{"name":"시골생오리","tel":"031-336-0255","addr":"경기도 용인시 처인구 이동읍 송전리 603-2","indutype":"일반휴게음식 - 일반한식","category":"restaurant"},{"name":"친구사이","tel":"031-322-7940","addr":"경기도 용인시 처인구 이동읍 송전리 603-2번지","indutype":"일반휴게음식 - 스넥","category":"restaurant"}]},{"lat":"37.207725093","long":"127.207241","imageIndex":4,"items":[{"name":"시골손두부집","tel":"031-322-2110","addr":"경기도 용인시 처인구 이동읍 천리 524번지 1층","indutype":"일반휴게음식 - 일반한식","category":"restaurant"}]},{"lat":"37.209694624","long":"127.16932724","imageIndex":4,"items":[{"name":"시골집","tel":"031-333-7793","addr":"경기도 용인시 처인구 이동읍 서리 629-3번지","indutype":"일반휴게음식 - 일반한식","category":"restaurant"}]},{"lat":"37.19405818","long":"127.20617923","imageIndex":4,"items":[{"name":"신기네","tel":"031-322-7026","addr":"경기도 용인시 처인구 이동읍 천리 235-13번지 1층","indutype":"일반휴게음식 - 일반한식","category":"restaurant"}]},{"lat":"37.139007012","long":"127.19932396","imageIndex":4,"items":[{"name":"신김밥","tel":"031-321-8963","addr":"경기도 용인시 처인구 이동읍 송전리 573-2번지","indutype":"일반휴게음식 - 스넥","category":"restaurant"}]},{"lat":"37.191444309","long":"127.20667904","imageIndex":4,"items":[{"name":"신의주순대와쭈꾸미","tel":"031-000-0000","addr":"경기도 용인시 처인구 이동읍 천리 234-9번지","indutype":"일반휴게음식 - 일반한식","category":"restaurant"}]},{"lat":"37.191858552","long":"127.2068153","imageIndex":4,"items":[{"name":"신통치킨","tel":"031-335-7997","addr":"경기도 용인시 처인구 이동읍 천리 234-3번지 1층","indutype":"일반휴게음식 - 스넥","category":"restaurant"},{"name":"일점사","tel":"031-334-6092","addr":"경기도 용인시 처인구 이동읍 천리 234-3번지","indutype":"일반휴게음식 - 일반한식","category":"restaurant"}]},{"lat":"37.137205521","long":"127.19895916","imageIndex":4,"items":[{"name":"신통치킨","tel":"031-322-8245","addr":"경기도 용인시 처인구 이동읍 송전리 616-6번지 1층","indutype":"일반휴게음식 - 스넥","category":"restaurant"}]},{"lat":"37.18989385","long":"127.20706906","imageIndex":4,"items":[{"name":"쌈천리","tel":"031-334-3839","addr":"경기도 용인시 처인구 이동읍 천리 252-7번지","indutype":"일반휴게음식 - 일반한식","category":"restaurant"}]},{"lat":"37.189720883","long":"127.20809346","imageIndex":4,"items":[{"name":"쌍둥이아저씨","tel":"031-323-5580","addr":"경기도 용인시 처인구 이동읍 천리130-4","indutype":"일반휴게음식 - 일반한식","category":"restaurant"},{"name":"흑돼지전문점","tel":"031-335-9707","addr":"경기도 용인시 처인구 이동읍 천리 130-4번지 1층","indutype":"일반휴게음식 - 일반한식","category":"restaurant"},{"name":"흑염소전문점","tel":"031-338-7373","addr":"경기도 용인시 처인구 이동읍 천리 130-4번지","indutype":"일반휴게음식 - 일반한식","category":"restaurant"}]},{"lat":"37.192218545","long":"127.17898609","imageIndex":4,"items":[{"name":"아리랑식당","tel":"031-334-2712","addr":"경기도 용인시 처인구 이동읍 서리 141-3번지","indutype":"일반휴게음식 - 일반한식","category":"restaurant"}]},{"lat":"37.138066741","long":"127.20123483","imageIndex":4,"items":[{"name":"알로하","tel":"","addr":"경기도 용인시 처인구 이동읍 송전리 1227번지 송전마을세광엔리치타워 상가동 102호","indutype":"일반휴게음식 - 서양음식","category":"restaurant"},{"name":"엄마스타일","tel":"031-333-4771","addr":"경기도 용인시 처인구 이동읍 송전리 1227번지 송전마을세광엔리치타워 상가동 105호","indutype":"일반휴게음식 - 스넥","category":"restaurant"}]},{"lat":"37.193109958","long":"127.1732441","imageIndex":4,"items":[{"name":"약속하오리","tel":"031-322-5293","addr":"경기도 용인시 처인구 이동읍 서리 404-1번지","indutype":"일반휴게음식 - 일반한식","category":"restaurant"}]},{"lat":"37.187497198","long":"127.21720968","imageIndex":4,"items":[{"name":"양평해장국","tel":"031-339-4884","addr":"경기도 용인시 처인구 이동읍 천리 59-4번지 삼우주택","indutype":"일반휴게음식 - 일반한식","category":"restaurant"}]},{"lat":"37.141838725","long":"127.19229676","imageIndex":4,"items":[{"name":"양평해장국","tel":"031-336-0666","addr":"경기도 용인시 처인구 이동읍 송전리 938-4","indutype":"일반휴게음식 - 일반한식","category":"restaurant"}]},{"lat":"37.141982906","long":"127.19784596","imageIndex":4,"items":[{"name":"양평해장국","tel":"031-335-8022","addr":"경기도 용인시 처인구 이동읍 송전리 724-11","indutype":"일반휴게음식 - 일반한식","category":"restaurant"}]},{"lat":"37.105373195","long":"127.1866035","imageIndex":4,"items":[{"name":"어비움","tel":"031-334-6468","addr":"경기도 용인시 처인구 이동읍 어비리 1211-1번지","indutype":"일반휴게음식 - 서양음식","category":"restaurant"},{"name":"어비움","tel":"031-334-6468","addr":"경기도 용인시 처인구 이동읍 어비리 1211-1번지 1층","indutype":"일반휴게음식 - 서양음식","category":"restaurant"}]},{"lat":"37.189782509","long":"127.20367879","imageIndex":4,"items":[{"name":"엉클스 (Unclenaposs)","tel":"070-7848-9304","addr":"경기도 용인시 처인구 이동읍 천리 156번지 1층 일부","indutype":"일반휴게음식 - 서양음식","category":"restaurant"}]},{"lat":"37.141452289","long":"127.19723682","imageIndex":4,"items":[{"name":"엘림카페","tel":"","addr":"경기도 용인시 처인구 이동읍 송전리 727-2번지 송전교회 나동 1층","indutype":"일반휴게음식 - 서양음식","category":"restaurant"}]},{"lat":"37.189975506","long":"127.20674267","imageIndex":4,"items":[{"name":"여기서먹자토종순대국","tel":"031-322-9930","addr":"경기도 용인시 처인구 이동읍 천리 252-11번지 1층","indutype":"일반휴게음식 - 일반한식","category":"restaurant"}]},{"lat":"37.205639694","long":"127.20431781","imageIndex":4,"items":[{"name":"연진네토종닭","tel":"031-333-7215","addr":"경기도 용인시 처인구 이동읍 천리 886번지","indutype":"일반휴게음식 - 일반한식","category":"restaurant"}]},{"lat":"37.115646218","long":"127.21310279","imageIndex":4,"items":[{"name":"연화해물감자탕","tel":"031-333-9911","addr":"경기도 용인시 처인구 이동읍 어비리 144-3번지","indutype":"일반휴게음식 - 일반한식","category":"restaurant"}]},{"lat":"37.193384938","long":"127.19382203","imageIndex":4,"items":[{"name":"영진함바식당","tel":"031-338-9701","addr":"경기도 용인시 처인구 이동읍 서리 1077-34번지","indutype":"일반휴게음식 - 일반한식","category":"restaurant"}]},{"lat":"37.114263638","long":"127.21024117","imageIndex":4,"items":[{"name":"예다원","tel":"031-336-1413","addr":"경기도 용인시 처인구 이동읍 어비리204-2","indutype":"일반휴게음식 - 일반한식","category":"restaurant"}]},{"lat":"37.206165818","long":"127.20223523","imageIndex":4,"items":[{"name":"예솔","tel":"031-333-7586","addr":"경기도 용인시 처인구 이동읍 천리891-1","indutype":"일반휴게음식 - 일반한식","category":"restaurant"}]},{"lat":"37.203217414","long":"127.20868195","imageIndex":4,"items":[{"name":"옛날통닭","tel":"031-332-2988","addr":"경기도 용인시 처인구 이동읍 천리 584-65번지 1층","indutype":"일반휴게음식 - 스넥","category":"restaurant"}]},{"lat":"37.138260616","long":"127.19843291","imageIndex":4,"items":[{"name":"오병이어","tel":"031-336-7787","addr":"경기도 용인시 처인구 이동읍 송전리 582-4번지","indutype":"일반휴게음식 - 일반한식","category":"restaurant"},{"name":"혜성호프","tel":"031-336-1145","addr":"경기도 용인시 처인구 이동읍 송전리 582-4번지","indutype":"일반휴게음식 - 주점","category":"restaurant"}]},{"lat":"37.141757553","long":"127.19790166","imageIndex":4,"items":[{"name":"오봉","tel":"031-322-5925","addr":"경기도 용인시 처인구 이동읍 송전리 724-18번지","indutype":"일반휴게음식 - 일반한식","category":"restaurant"}]},{"lat":"37.134010989","long":"127.20185447","imageIndex":4,"items":[{"name":"오봉2호점","tel":"","addr":"경기도 용인시 처인구 이동읍 송전리 241-7번지","indutype":"일반휴게음식 - 일반한식","category":"restaurant"},{"name":"자매기사식당","tel":"031-321-1722","addr":"경기도 용인시 처인구 이동읍 송전리 241-7번지","indutype":"일반휴게음식 - 일반한식","category":"restaurant"},{"name":"형제식당","tel":"031-336-1411","addr":"경기도 용인시 처인구 이동읍 송전리 241-7번지","indutype":"일반휴게음식 - 일반한식","category":"restaurant"}]},{"lat":"37.202442134","long":"127.20890513","imageIndex":4,"items":[{"name":"오이시소우","tel":"070-8666-1887","addr":"경기도 용인시 처인구 이동읍 천리 593번지","indutype":"일반휴게음식 - 일식·회집","category":"restaurant"}]},{"lat":"37.193804108","long":"127.20721474","imageIndex":4,"items":[{"name":"오징어나라 (천리점)","tel":"031-332-2727","addr":"경기도 용인시 처인구 이동읍 천리 237-5번지 1층","indutype":"일반휴게음식 - 일식·회집","category":"restaurant"},{"name":"천리해장국","tel":"","addr":"경기도 용인시 처인구 이동읍 천리 237-5번지 1층 103,104호","indutype":"일반휴게음식 - 일반한식","category":"restaurant"}]},{"lat":"37.138585622","long":"127.19805109","imageIndex":4,"items":[{"name":"옥희네멸치국수","tel":"031-332-6340","addr":"경기도 용인시 처인구 이동읍 송전리 590-5번지","indutype":"일반휴게음식 - 일반한식","category":"restaurant"}]},{"lat":"37.139259807","long":"127.19902074","imageIndex":4,"items":[{"name":"와유부대찌개","tel":"031-332-5849","addr":"경기도 용인시 처인구 이동읍 송전리 581번지","indutype":"일반휴게음식 - 일반한식","category":"restaurant"}]},{"lat":"37.192083811","long":"127.20681591","imageIndex":4,"items":[{"name":"요거프레소 용인천리점","tel":"031-322-2577","addr":"경기도 용인시 처인구 이동읍 천리 234-4번지","indutype":"일반휴게음식 - 서양음식","category":"restaurant"}]},{"lat":"37.166783876","long":"127.24001809","imageIndex":4,"items":[{"name":"용인레져스포츠야외수영및물놀이장","tel":"031-336-0504","addr":"경기도 용인시 처인구 이동읍 묵리 427-2번지","indutype":"일반휴게음식 - 서양음식","category":"restaurant"}]},{"lat":"37.201356514","long":"127.17801607","imageIndex":4,"items":[{"name":"용인토종순대국","tel":"031-322-5230","addr":"경기도 용인시 처인구 이동읍 서리 340-7번지 1층. 순대국","indutype":"일반휴게음식 - 일반한식","category":"restaurant"}]},{"lat":"37.19316447","long":"127.2071567","imageIndex":4,"items":[{"name":"용천분식","tel":"031-333-2260","addr":"경기도 용인시 처인구 이동읍 천리 237-9","indutype":"일반휴게음식 - 일반한식","category":"restaurant"}]},{"lat":"37.197030877","long":"127.20660395","imageIndex":4,"items":[{"name":"용천오리","tel":"031-322-9915","addr":"경기도 용인시 처인구 이동읍 천리 702-5번지 나동","indutype":"일반휴게음식 - 일반한식","category":"restaurant"}]},{"lat":"37.180665015","long":"127.20306908","imageIndex":4,"items":[{"name":"우가네한식뷔페","tel":"031-338-5388","addr":"경기도 용인시 처인구 이동읍 덕성리 283번지","indutype":"일반휴게음식 - 일반한식","category":"restaurant"}]},{"lat":"37.203028491","long":"127.20851247","imageIndex":4,"items":[{"name":"우렁이된장","tel":"031-333-5520","addr":"경기도 용인시 처인구 이동읍 천리 584-59","indutype":"일반휴게음식 - 일반한식","category":"restaurant"}]},{"lat":"37.197750657","long":"127.20721411","imageIndex":4,"items":[{"name":"유선식당","tel":"031-338-7188","addr":"경기도 용인시 처인구 이동읍 천리 701-1번지 1층","indutype":"일반휴게음식 - 일반한식","category":"restaurant"}]},{"lat":"37.193469538","long":"127.20790087","imageIndex":4,"items":[{"name":"유앤아이스토리(U&I Story)","tel":"031-333-5578","addr":"경기도 용인시 처인구 이동읍 천리 755번지 현대빌딩 101~103호","indutype":"일반휴게음식 - 서양음식","category":"restaurant"},{"name":"혜린양꼬치","tel":"031-332-8898","addr":"경기도 용인시 처인구 이동읍 천리 755번지 현대빌딩 106호 105호,106호","indutype":"일반휴게음식 - 일반한식","category":"restaurant"}]},{"lat":"37.140698351","long":"127.19543408","imageIndex":4,"items":[{"name":"으니네9첩반상","tel":"031-322-3372","addr":"경기도 용인시 처인구 이동읍 송전리 671-2번지 1층","indutype":"일반휴게음식 - 일반한식","category":"restaurant"}]},{"lat":"37.189303784","long":"127.20960148","imageIndex":4,"items":[{"name":"이모네빈대떡","tel":"02-1111-1111","addr":"경기도 용인시 처인구 이동읍 천리 127번지 동아아파트 101호","indutype":"일반휴게음식 - 일반한식","category":"restaurant"}]},{"lat":"37.202776045","long":"127.2086019","imageIndex":4,"items":[{"name":"이화원","tel":"031-339-7787","addr":"경기도 용인시 처인구 이동읍 천리 592-4번지","indutype":"일반휴게음식 - 중국식","category":"restaurant"}]},{"lat":"37.184890957","long":"127.23282219","imageIndex":4,"items":[{"name":"장어촌","tel":"031-339-7792","addr":"경기도 용인시 처인구 이동읍 묵리 717-1번지","indutype":"일반휴게음식 - 일반한식","category":"restaurant"}]},{"lat":"37.188276282","long":"127.21488062","imageIndex":4,"items":[{"name":"장촌숯불바베큐","tel":"031-322-5524","addr":"경기도 용인시 처인구 이동읍 천리 91-4번지","indutype":"일반휴게음식 - 칵테일바","category":"restaurant"}]},{"lat":"37.212609478","long":"127.21196325","imageIndex":4,"items":[{"name":"제비실499/농업회사법인(주)삼복","tel":"070-8765-8682","addr":"경기도 용인시 처인구 이동읍 천리 499번지","indutype":"일반휴게음식 - 일반한식","category":"restaurant"}]},{"lat":"37.19449959","long":"127.20623673","imageIndex":4,"items":[{"name":"조마루뼈다귀","tel":"031-339-3623","addr":"경기도 용인시 처인구 이동읍 천759-4","indutype":"일반휴게음식 - 일반한식","category":"restaurant"}]},{"lat":"37.211805209","long":"127.20815325","imageIndex":4,"items":[{"name":"주문진물회","tel":"031-339-7803","addr":"경기도 용인시 처인구 이동읍 천리 511-4번지","indutype":"일반휴게음식 - 일식·회집","category":"restaurant"}]},{"lat":"37.189671548","long":"127.20534532","imageIndex":4,"items":[{"name":"주식회사 티룸인터내셔널","tel":"031-000-0000","addr":"경기도 용인시 처인구 이동읍 천리 1125번지","indutype":"일반휴게음식 - 서양음식","category":"restaurant"}]},{"lat":"37.165674382","long":"127.24062259","imageIndex":4,"items":[{"name":"준커피&라이브 (Coffee&Live)","tel":"","addr":"경기도 용인시 처인구 이동읍 묵리 432번지 1층","indutype":"일반휴게음식 - 서양음식","category":"restaurant"}]},{"lat":"37.136979925","long":"127.19916116","imageIndex":4,"items":[{"name":"중국성","tel":"031-335-6018","addr":"경기도 용인시 처인구 이동읍 송전리616-7","indutype":"일반휴게음식 - 중국식","category":"restaurant"}]},{"lat":"37.198555122","long":"127.18346121","imageIndex":4,"items":[{"name":"진짜가나타났다","tel":"","addr":"경기도 용인시 처인구 이동읍 서리 214-1번지","indutype":"일반휴게음식 - 일반한식","category":"restaurant"}]},{"lat":"37.187197937","long":"127.21826746","imageIndex":4,"items":[{"name":"처가집양념통닭","tel":"031-333-5784","addr":"경기도 용인시 처인구 이동읍 천리 56-6번지","indutype":"일반휴게음식 - 주점","category":"restaurant"}]},{"lat":"37.142226188","long":"127.19784659","imageIndex":4,"items":[{"name":"처인성갈비","tel":"031-336-6246","addr":"경기도 용인시 처인구 이동읍 송전리 777-6번지","indutype":"일반휴게음식 - 일반한식","category":"restaurant"}]},{"lat":"37.187642347","long":"127.20643232","imageIndex":4,"items":[{"name":"천리가마솥사철탕","tel":"031-338-8397","addr":"경기도 용인시 처인구 이동읍 천리 149-1번지 C동 2층","indutype":"일반휴게음식 - 일반한식","category":"restaurant"}]},{"lat":"37.181556432","long":"127.20343179","imageIndex":4,"items":[{"name":"천리기사식당","tel":"031-333-7776","addr":"경기도 용인시 처인구 이동읍 덕성리 584-17번지","indutype":"일반휴게음식 - 일반한식","category":"restaurant"}]},{"lat":"37.184339049","long":"127.20437385","imageIndex":4,"items":[{"name":"천리석갈비","tel":"031-335-3260","addr":"경기도 용인시 처인구 이동읍 덕성리 541-5번지","indutype":"일반휴게음식 - 일반한식","category":"restaurant"}]},{"lat":"37.19325366","long":"127.2076863","imageIndex":4,"items":[{"name":"천리손칼국수","tel":"031-322-5236","addr":"경기도 용인시 처인구 이동읍 천리 280-1","indutype":"일반휴게음식 - 스넥","category":"restaurant"}]},{"lat":"37.198085532","long":"127.20634772","imageIndex":4,"items":[{"name":"천리식당","tel":"031-333-2933","addr":"경기도 용인시 처인구 이동읍 천리 691-8번지","indutype":"일반휴게음식 - 일반한식","category":"restaurant"}]},{"lat":"37.195198871","long":"127.20301734","imageIndex":4,"items":[{"name":"천리오리","tel":"031-332-3030","addr":"경기도 용인시 처인구 이동읍 천793-8","indutype":"일반휴게음식 - 일반한식","category":"restaurant"}]},{"lat":"37.192363132","long":"127.20681666","imageIndex":4,"items":[{"name":"천리페리카나","tel":"031-332-2401","addr":"경기도 용인시 처인구 이동읍 천236-19","indutype":"일반휴게음식 - 서양음식","category":"restaurant"}]},{"lat":"37.187725561","long":"127.21548723","imageIndex":4,"items":[{"name":"천리해물짬뽕","tel":"031-333-7896","addr":"경기도 용인시 처인구 이동읍 천리 64-5번지","indutype":"일반휴게음식 - 중국식","category":"restaurant"}]},{"lat":"37.190362582","long":"127.20695769","imageIndex":4,"items":[{"name":"천리향","tel":"031-339-5599","addr":"경기도 용인시 처인구 이동읍 천리 251-5번지 1층","indutype":"일반휴게음식 - 중국식","category":"restaurant"},{"name":"커피앤쏘울(COFFEE N SOUL)","tel":"031-336-7184","addr":"경기도 용인시 처인구 이동읍 천리 251-5번지 1층","indutype":"일반휴게음식 - 서양음식","category":"restaurant"}]},{"lat":"37.136646091","long":"127.19943041","imageIndex":4,"items":[{"name":"초대족발","tel":"031-322-5125","addr":"경기도 용인시 처인구 이동읍 송전리 616-9번지","indutype":"일반휴게음식 - 일반한식","category":"restaurant"}]},{"lat":"37.192470635","long":"127.20717736","imageIndex":4,"items":[{"name":"치킨마루 천리점","tel":"031-332-9922","addr":"경기도 용인시 처인구 이동읍 천리 237-17번지","indutype":"일반휴게음식 - 스넥","category":"restaurant"}]},{"lat":"37.212579901","long":"127.20826801","imageIndex":4,"items":[{"name":"카페(cafe)506","tel":"031-111-1111","addr":"경기도 용인시 처인구 이동읍 천리 506-6번지","indutype":"일반휴게음식 - 서양음식","category":"restaurant"}]},{"lat":"37.206471704","long":"127.2077896","imageIndex":4,"items":[{"name":"커피너브(Coffee Nerve)","tel":"070-8812-9955","addr":"경기도 용인시 처인구 이동읍 천리 572-3번지","indutype":"일반휴게음식 - 서양음식","category":"restaurant"}]},{"lat":"37.198915501","long":"127.1834846","imageIndex":4,"items":[{"name":"토담추어탕","tel":"031-332-2250","addr":"경기도 용인시 처인구 이동읍 서리 213-1번지 TBBC외식창업연구소 가동 1층","indutype":"일반휴게음식 - 일반한식","category":"restaurant"}]},{"lat":"37.187471813","long":"127.21629739","imageIndex":4,"items":[{"name":"팔팔현미치킨","tel":"031-322-7988","addr":"경기도 용인시 처인구 이동읍 천리 65-3번지 외1필지 1층","indutype":"일반휴게음식 - 주점","category":"restaurant"}]},{"lat":"37.137755976","long":"127.19846538","imageIndex":4,"items":[{"name":"펀비어킹송전점","tel":"031-333-3346","addr":"경기도 용인시 처인구 이동읍 송전리 611-4번지","indutype":"일반휴게음식 - 주점","category":"restaurant"}]},{"lat":"37.140479292","long":"127.19715555","imageIndex":4,"items":[{"name":"퐈이아쭈꾸미","tel":"031-111-1111","addr":"경기도 용인시 처인구 이동읍 송전리 716-6번지 1층","indutype":"일반휴게음식 - 일반한식","category":"restaurant"}]},{"lat":"37.178776535","long":"127.2355738","imageIndex":4,"items":[{"name":"프란츠","tel":"070-7018-5392","addr":"경기도 용인시 처인구 이동읍 묵리 678-4번지 오리와돼지 A동 1층","indutype":"일반휴게음식 - 서양음식","category":"restaurant"}]},{"lat":"37.203695353","long":"127.20845796","imageIndex":4,"items":[{"name":"하모니분식","tel":"031-333-2111","addr":"경기도 용인시 처인구 이동읍 천리 584-44번지","indutype":"일반휴게음식 - 스넥","category":"restaurant"}]},{"lat":"37.137448057","long":"127.19940997","imageIndex":4,"items":[{"name":"한들마루","tel":"031-322-5622","addr":"경기도 용인시 처인구 이동읍 송전리 578-8번지 2층","indutype":"일반휴게음식 - 일반한식","category":"restaurant"}]},{"lat":"37.139091002","long":"127.19756843","imageIndex":4,"items":[{"name":"한마당","tel":"031-339-9884","addr":"경기도 용인시 처인구 이동읍 송전리 592-6번지","indutype":"일반휴게음식 - 일반한식","category":"restaurant"}]},{"lat":"37.20674875","long":"127.18135167","imageIndex":4,"items":[{"name":"해솔리아카페테리아","tel":"031-338-9701","addr":"경기도 용인시 처인구 이동읍 서리 303-1번지 1층 스포츠센터동","indutype":"일반휴게음식 - 일반한식","category":"restaurant"}]},{"lat":"37.161504708","long":"127.25695637","imageIndex":4,"items":[{"name":"해와달","tel":"031-321-6400","addr":"경기도 용인시 처인구 이동읍 묵리 250번지","indutype":"일반휴게음식 - 일반한식","category":"restaurant"}]},{"lat":"37.182251163","long":"127.20288182","imageIndex":4,"items":[{"name":"행복찬합도시락","tel":"031-323-7350","addr":"경기도 용인시 처인구 이동읍 덕성리 268-6번지","indutype":"일반휴게음식 - 일반한식","category":"restaurant"}]},{"lat":"37.196497305","long":"127.20774011","imageIndex":4,"items":[{"name":"행복횟집","tel":"031-322-9227","addr":"경기도 용인시 처인구 이동읍 천리 715번지 1층","indutype":"일반휴게음식 - 일식·회집","category":"restaurant"}]},{"lat":"37.155973953","long":"127.20976963","imageIndex":4,"items":[{"name":"향나무집","tel":"070-4122-5690","addr":"경기도 용인시 처인구 이동읍 시미리 441-2번지","indutype":"일반휴게음식 - 일반한식","category":"restaurant"}]},{"lat":"37.140002696","long":"127.19656907","imageIndex":4,"items":[{"name":"허가네족발","tel":"031-321-7531","addr":"경기도 용인시 처인구 이동읍 송전리 716-13번지 1층","indutype":"일반휴게음식 - 일반한식","category":"restaurant"}]},{"lat":"37.200280019","long":"127.18087462","imageIndex":4,"items":[{"name":"황토방","tel":"031-322-0426","addr":"경기도 용인시 처인구 이동읍 서리203-4","indutype":"일반휴게음식 - 일반한식","category":"restaurant"}]},{"lat":"37.1388119","long":"127.19743265","imageIndex":4,"items":[{"name":"훌랄라","tel":"031-321-9928","addr":"경기도 용인시 처인구 이동읍 송전리 592-14번지 1층","indutype":"일반휴게음식 - 스넥","category":"restaurant"}]}]