[{"lat":"37.679961984","long":"126.88869381","items":[{"name":"(주)태림원","tel":"031-969-7631","addr":"경기도 고양시 덕양구 호국로","category":"회원제형태 - 기타4"}]},{"lat":"37.699102502","long":"126.90308763","items":[{"name":"J.J 화훼총판","tel":"031-967-1736","addr":"경기도 고양시 덕양구 호국로","category":"문화.취미 - 화원"}]},{"lat":"37.702824803","long":"126.90467017","items":[{"name":"K2벽제MS","tel":"031-962-3777","addr":"경기도 고양시 덕양구 호국로","category":"레져용품 - 스포츠·레져용품"}]},{"lat":"37.658406046","long":"126.8387833","items":[{"name":"M스킨케어","tel":"031-966-4787","addr":"경기도 고양시 덕양구 호국로","category":"회원제형태 - 기타4"},{"name":"원당대명한의원","tel":"031-963-6022","addr":"경기도 고양시 덕양구 호국로","category":"의원 - 한의원"},{"name":"이삭토스트","tel":"031-965-7255","addr":"경기도 고양시 덕양구 호국로","category":"일반휴게음식 - 스넥"}]},{"lat":"37.704211704","long":"126.90397662","items":[{"name":"NS편의점","tel":"031-964-7220","addr":"경기도 고양시 덕양구 호국로","category":"유통업 영리 - 슈퍼마켓"}]},{"lat":"37.659245107","long":"126.83962008","items":[{"name":"ST커뮤니티","tel":"050-6789-1004","addr":"경기도 고양시 덕양구 호국로","category":"사무통신 - 통신기기"},{"name":"호식이두마리치킨성사점","tel":"031-968-7892","addr":"경기도 고양시 덕양구 호국로","category":"일반휴게음식 - 스넥"}]},{"lat":"37.706627252","long":"126.90514144","items":[{"name":"고양옹기","tel":"031-962-3430","addr":"경기도 고양시 덕양구 호국로","category":"주방용구 - 주방용식기"}]},{"lat":"37.657052349","long":"126.83717705","items":[{"name":"과일야채싸게파는집","tel":"031-968-6435","addr":"경기도 고양시 덕양구 호국로","category":"음료식품 - 농·축·수산품"}]},{"lat":"37.680851607","long":"126.89581157","items":[{"name":"곽박사애견마트","tel":"031-963-0163","addr":"경기도 고양시 덕양구 호국로","category":"문화.취미 - 애완동물"}]},{"lat":"37.655745678","long":"126.8369873","items":[{"name":"굿모닝보청기원당센터","tel":"031-965-4416","addr":"경기도 고양시 덕양구 호국로","category":"보건위생 - 의료용품"}]},{"lat":"37.680405641","long":"126.89097169","items":[{"name":"납골천국,음식물처리천국","tel":"070-8867-1005","addr":"경기도 고양시 덕양구 호국로","category":"회원제형태 - 기타3"}]},{"lat":"37.659687269","long":"126.84011777","items":[{"name":"다이키치","tel":"070-8225-7017","addr":"경기도 고양시 덕양구 호국로","category":"일반휴게음식 - 주점"}]},{"lat":"37.702707631","long":"126.90461363","items":[{"name":"돈까스클럽 벽제점","tel":"031-965-8803","addr":"경기도 고양시 덕양구 호국로","category":"일반휴게음식 - 일반한식"}]},{"lat":"37.693686816","long":"126.9020291","items":[{"name":"보리나주곰탕","tel":"031-964-4977","addr":"경기도 고양시 덕양구 호국로","category":"일반휴게음식 - 일반한식"}]},{"lat":"37.656302196","long":"126.83551285","items":[{"name":"본가신촌설렁탕","tel":"031-965-8889","addr":"경기도 고양시 덕양구 호국로","category":"일반휴게음식 - 일반한식"}]},{"lat":"37.659095136","long":"126.84194365","items":[{"name":"셀리붙임머리","tel":"031-979-8996","addr":"경기도 고양시 덕양구 호국로","category":"회원제형태 - 기타4"}]},{"lat":"37.706961178","long":"126.90583275","items":[{"name":"솔향토속촌","tel":"031-968-5093","addr":"경기도 고양시 덕양구 호국로","category":"일반휴게음식 - 일반한식"}]},{"lat":"37.634771676","long":"126.82501368","items":[{"name":"씨앤에이치","tel":"031-971-4234","addr":"경기도 고양시 덕양구 호국로","category":"음료식품 - 정육점"}]},{"lat":"37.656518781","long":"126.83576168","items":[{"name":"아모레카운셀러","tel":"031-968-8240","addr":"경기도 고양시 덕양구 호국로","category":"보건위생 - 화장품"},{"name":"아모레카운셀러","tel":"031-968-8240","addr":"경기도 고양시 덕양구 호국로","category":"보건위생 - 화장품"},{"name":"아모레카운셀러","tel":"031-968-8240","addr":"경기도 고양시 덕양구 호국로","category":"보건위생 - 화장품"},{"name":"유니베라 원당","tel":"031-965-2511","addr":"경기도 고양시 덕양구 호국로","category":"보건위생 - 화장품"}]},{"lat":"37.701517384","long":"126.90344725","items":[{"name":"옛날민속품","tel":"031-964-2649","addr":"경기도 고양시 덕양구 호국로","category":"가구 - 일반가구"},{"name":"옥돌게장","tel":"031-969-2190","addr":"경기도 고양시 덕양구 호국로","category":"음료식품 - 농·축·수산품"}]},{"lat":"37.659916125","long":"126.84275786","items":[{"name":"이영혜콜렉션","tel":"02-3667-1311","addr":"경기도 고양시 덕양구 호국로","category":"회원제형태 - 기타4"}]},{"lat":"37.658965463","long":"126.83937137","items":[{"name":"제이스블루메","tel":"031-969-4498","addr":"경기도 고양시 덕양구 호국로","category":"문화.취미 - 화원"}]},{"lat":"37.655580312","long":"126.83473254","items":[{"name":"코스모요양원","tel":"031-976-6336","addr":"경기도 고양시 덕양구 호국로","category":"기타의료기관 - 기타의료기관 및 기타"}]},{"lat":"37.657269042","long":"126.83750521","items":[{"name":"하디아동발달센터","tel":"031-966-9912","addr":"경기도 고양시 덕양구 호국로","category":"보건위생 - 기타대인서비스"}]},{"lat":"37.6764908","long":"126.87739761","items":[{"name":"홍능골가든","tel":"02-381-0323","addr":"경기도 고양시 덕양구 호국로","category":"일반휴게음식 - 일반한식"}]}]