[{"lat":"37.255875481","long":"127.04039588","imageIndex":7,"items":[{"name":"(주)로뎀종합물산","tel":"02-6398-4550","addr":"경기도 수원시 영통구 매탄동 1169-6번지","indutype":"음료식품 - 농·축·수산품","category":"food"}]},{"lat":"37.257663964","long":"127.05277394","imageIndex":7,"items":[{"name":"(주)피와이언홀딩스R5매점","tel":"031-215-4589","addr":"경기도 수원시 영통구 매탄동 416번지","indutype":"음료식품 - 기타음료식품","category":"food"},{"name":"던킨도너츠 삼성전자R5점","tel":"031-8062-4987","addr":"경기도 수원시 영통구 매탄동 416번지 삼성전자 C4동 B1층","indutype":"음료식품 - 제과점","category":"food"},{"name":"파리바게트","tel":"031-217-5727","addr":"경기도 수원시 영통구 매탄동 416번지 삼성전자 14동 1층","indutype":"음료식품 - 제과점","category":"food"}]},{"lat":"37.254101428","long":"127.06041397","imageIndex":7,"items":[{"name":"Dr.Audio","tel":"031-211-8283","addr":"경기도 수원시 영통구 매탄동 555-1번지 한국GM수원서비스","indutype":"음료식품 - 기타음료식품","category":"food"}]},{"lat":"37.272487965","long":"127.04758609","imageIndex":7,"items":[{"name":"가보김치","tel":"","addr":"경기도 수원시 영통구 매탄동 130-12번지","indutype":"음료식품 - 기타음료식품","category":"food"},{"name":"봄푸드","tel":"","addr":"경기도 수원시 영통구 매탄동 130-12번지 1층","indutype":"음료식품 - 정육점","category":"food"}]},{"lat":"37.27284847","long":"127.04733826","imageIndex":7,"items":[{"name":"강릉종합수산물센타","tel":"031-211-5420","addr":"경기도 수원시 영통구 매탄동 102-2번지 영보빌딩 1층","indutype":"음료식품 - 농·축·수산품","category":"food"}]},{"lat":"37.271103106","long":"127.03967059","imageIndex":7,"items":[{"name":"강원닭집","tel":"031-215-9919","addr":"경기도 수원시 영통구 매탄동 176번지 현대힐스테이트 상가 2동 117호","indutype":"음료식품 - 정육점","category":"food"},{"name":"동산정육점","tel":"031-215-5288","addr":"경기도 수원시 영통구 매탄동 176번지 현대홈타운 상가 108호","indutype":"음료식품 - 정육점","category":"food"},{"name":"땅스부대찌개","tel":"031-000-0000","addr":"경기도 수원시 영통구 매탄동 176번지 매탄현대힐스테이트 상가동 1층 121호","indutype":"음료식품 - 기타음료식품","category":"food"},{"name":"떡이야기","tel":"031-217-6588","addr":"경기도 수원시 영통구 매탄동 176번지 매탄현대힐스테이트 111호","indutype":"음료식품 - 제과점","category":"food"},{"name":"매탄식품","tel":"031-111-1111","addr":"경기도 수원시 영통구 매탄동 176번지 현대홈타운2상가 107호","indutype":"음료식품 - 농·축·수산품","category":"food"},{"name":"명가한우10800","tel":"070-4334-7094","addr":"경기도 수원시 영통구 매탄동 176번지 매탄현대힐스테이트 상가 2동 110호","indutype":"음료식품 - 정육점","category":"food"},{"name":"부뚜막반찬","tel":"031-212-4246","addr":"경기도 수원시 영통구 매탄동 176번지 매탄현대힐스테이트 상가 1동 104호","indutype":"음료식품 - 기타음료식품","category":"food"},{"name":"이모네반찬","tel":"031-891-5608","addr":"경기도 수원시 영통구 매탄동 176번지 외3필지현대홈타운2상가 106호","indutype":"음료식품 - 기타음료식품","category":"food"},{"name":"충남상회","tel":"031-215-6373","addr":"경기도 수원시 영통구 매탄동 176번지 현대홈타운 상가 2동 1-124호","indutype":"음료식품 - 농·축·수산품","category":"food"},{"name":"효원왕만두","tel":"031-111-1111","addr":"경기도 수원시 영통구 매탄동 176번지 매탄현대힐스테이트 상가동 113호","indutype":"음료식품 - 기타음료식품","category":"food"}]},{"lat":"37.272516814","long":"127.04247868","imageIndex":7,"items":[{"name":"경기과일마트","tel":"031-214-2426","addr":"경기도 수원시 영통구 매탄동 172-135번지 1층 104호","indutype":"음료식품 - 농·축·수산품","category":"food"}]},{"lat":"37.270629914","long":"127.05244426","imageIndex":7,"items":[{"name":"경기식품양조기술원","tel":"031-211-9050","addr":"경기도 수원시 영통구 매탄동 1208-4번지 301호","indutype":"음료식품 - 기타음료식품","category":"food"}]},{"lat":"37.274237781","long":"127.0424683","imageIndex":7,"items":[{"name":"곡물마을","tel":"02-1111-1111","addr":"경기도 수원시 영통구 매탄동 153-69번지 1층 103호","indutype":"음료식품 - 미곡상","category":"food"},{"name":"신앙촌상회","tel":"031-215-6363","addr":"경기도 수원시 영통구 매탄동 153-69번지 1층","indutype":"음료식품 - 기타음료식품","category":"food"}]},{"lat":"37.261074117","long":"127.04135666","imageIndex":7,"items":[{"name":"과일할매","tel":"02-1111-1111","addr":"경기도 수원시 영통구 매탄동 1352번지 매탄위브하늘채 119동 602호","indutype":"음료식품 - 농·축·수산품","category":"food"}]},{"lat":"37.261767906","long":"127.04136829","imageIndex":7,"items":[{"name":"과일향기","tel":"031-893-6666","addr":"경기도 수원시 영통구 매탄동 1352번지 비상가동 109호","indutype":"음료식품 - 농·축·수산품","category":"food"},{"name":"쌀눈쌀 현미누룽지","tel":"031-111-1111","addr":"경기도 수원시 영통구 매탄동 1352번지 매탄위브하늘채 상가 A동 1층 126호","indutype":"음료식품 - 기타음료식품","category":"food"},{"name":"엄마뜰 반찬","tel":"031-222-1237","addr":"경기도 수원시 영통구 매탄동 1352번지 매탄위브하늘채 상가 B동 132호","indutype":"음료식품 - 기타음료식품","category":"food"},{"name":"한울축산","tel":"031-217-6400","addr":"경기도 수원시 영통구 매탄동 1352번지 의브하늘채 303동 106호","indutype":"음료식품 - 정육점","category":"food"},{"name":"회뜨는집","tel":"031-893-9970","addr":"경기도 수원시 영통구 매탄동 1352번지 매탄위브하늘채 상가 B동 119호","indutype":"음료식품 - 기타음료식품","category":"food"},{"name":"희망건강식품","tel":"031-215-5052","addr":"경기도 수원시 영통구 매탄동 1352번지 위브하늘채 B상가 309호","indutype":"건강식품 - 기타건강식품","category":"food"}]},{"lat":"37.273741865","long":"127.04350533","imageIndex":7,"items":[{"name":"그랑프리제과","tel":"","addr":"경기도 수원시 영통구 매탄동 153-54번지","indutype":"음료식품 - 제과점","category":"food"}]},{"lat":"37.271848414","long":"127.04711218","imageIndex":7,"items":[{"name":"금산인삼건강원","tel":"031-211-9788","addr":"경기도 수원시 영통구 매탄동 196-23번지","indutype":"건강식품 - 기타건강식품","category":"food"}]},{"lat":"37.259046895","long":"127.04106254","imageIndex":7,"items":[{"name":"김마네김밥","tel":"031-234-1577","addr":"경기도 수원시 영통구 매탄동 1156-4번지 1층","indutype":"음료식품 - 기타음료식품","category":"food"},{"name":"따호카스테라","tel":"031-302-4545","addr":"경기도 수원시 영통구 매탄동 1156-4번지 외1필지","indutype":"음료식품 - 제과점","category":"food"}]},{"lat":"37.264820567","long":"127.04663458","imageIndex":7,"items":[{"name":"꿀맛","tel":"031-217-8977","addr":"경기도 수원시 영통구 매탄동 833-6번지","indutype":"음료식품 - 기타음료식품","category":"food"}]},{"lat":"37.27156875","long":"127.04802526","imageIndex":7,"items":[{"name":"나누리축산","tel":"031-211-3389","addr":"경기도 수원시 영통구 매탄동 196-85번지","indutype":"음료식품 - 정육점","category":"food"}]},{"lat":"37.272435816","long":"127.04219677","imageIndex":7,"items":[{"name":"나단청과","tel":"031-211-6248","addr":"경기도 수원시 영통구 매탄동 172-122번지","indutype":"음료식품 - 농·축·수산품","category":"food"}]},{"lat":"37.265567632","long":"127.04872064","imageIndex":7,"items":[{"name":"낙원떡방앗간","tel":"031-213-8915","addr":"경기도 수원시 영통구 매탄동 231-10번지","indutype":"음료식품 - 제과점","category":"food"}]},{"lat":"37.270569038","long":"127.04688595","imageIndex":7,"items":[{"name":"남양유업동수원가정대리점","tel":"031-257-7971","addr":"경기도 수원시 영통구 매탄동 198-9번지 101호","indutype":"음료식품 - 기타음료식품","category":"food"}]},{"lat":"37.256045483","long":"127.04399181","imageIndex":7,"items":[{"name":"네츄럴 푸드서비스","tel":"070-5044-2963","addr":"경기도 수원시 영통구 매탄동 1280번지 주공그린빌 401동 604호","indutype":"음료식품 - 기타음료식품","category":"food"}]},{"lat":"37.272515204","long":"127.04703365","imageIndex":7,"items":[{"name":"노다지물류","tel":"031-212-2360","addr":"경기도 수원시 영통구 매탄동 102-15번지","indutype":"음료식품 - 농·축·수산품","category":"food"}]},{"lat":"37.273435986","long":"127.04210709","imageIndex":7,"items":[{"name":"농민장터","tel":"02-0000-0000","addr":"경기도 수원시 영통구 매탄동 153-108번지","indutype":"음료식품 - 농·축·수산품","category":"food"},{"name":"빵마니아","tel":"031-217-8254","addr":"경기도 수원시 영통구 매탄동 153-108번지 1층","indutype":"음료식품 - 제과점","category":"food"}]},{"lat":"37.270737555","long":"127.05358305","imageIndex":7,"items":[{"name":"늘찬방","tel":"031-212-8420","addr":"경기도 수원시 영통구 매탄동 1203-5번지 1층 102호","indutype":"음료식품 - 기타음료식품","category":"food"}]},{"lat":"37.265351533","long":"127.04833721","imageIndex":7,"items":[{"name":"다사랑정육점","tel":"031-214-7379","addr":"경기도 수원시 영통구 매탄동 209-15번지","indutype":"음료식품 - 정육점","category":"food"}]},{"lat":"37.261152759","long":"127.04827832","imageIndex":7,"items":[{"name":"달디마켓(DAL-D market)","tel":"","addr":"경기도 수원시 영통구 매탄동 1257-6번지 1층 101호","indutype":"음료식품 - 기타음료식품","category":"food"}]},{"lat":"37.261486713","long":"127.04675666","imageIndex":7,"items":[{"name":"달콤달콤하우스","tel":"031-8824-1414","addr":"경기도 수원시 영통구 매탄동 1253-3번지 103호","indutype":"음료식품 - 기타음료식품","category":"food"}]},{"lat":"37.265432382","long":"127.04896858","imageIndex":7,"items":[{"name":"당진축산","tel":"031-214-0570","addr":"경기도 수원시 영통구 매탄동 845-11번지","indutype":"음료식품 - 정육점","category":"food"}]},{"lat":"37.272544051","long":"127.04185858","imageIndex":7,"items":[{"name":"대광이네 떡집","tel":"031-215-1500","addr":"경기도 수원시 영통구 매탄동 172-72번지","indutype":"음료식품 - 제과점","category":"food"},{"name":"초록목장","tel":"031-215-9557","addr":"경기도 수원시 영통구 매탄동 172-72번지 1층","indutype":"음료식품 - 정육점","category":"food"}]},{"lat":"37.265873807","long":"127.04917178","imageIndex":7,"items":[{"name":"대도건해","tel":"031-212-8589","addr":"경기도 수원시 영통구 매탄동 845","indutype":"음료식품 - 농·축·수산품","category":"food"}]},{"lat":"37.257794228","long":"127.04178335","imageIndex":7,"items":[{"name":"더달달 매탄점","tel":"031-267-0680","addr":"경기도 수원시 영통구 매탄동 1272-3번지 102호","indutype":"음료식품 - 기타음료식품","category":"food"},{"name":"블럭제빵소 매탄점","tel":"031-212-4304","addr":"경기도 수원시 영통구 매탄동 1272-3번지 101호","indutype":"음료식품 - 제과점","category":"food"}]},{"lat":"37.271071661","long":"127.05185828","imageIndex":7,"items":[{"name":"덴마크우유팔달대리점","tel":"070-3015-0788","addr":"경기도 수원시 영통구 매탄동 1206-5번지","indutype":"음료식품 - 기타음료식품","category":"food"}]},{"lat":"37.269685202","long":"127.04906137","imageIndex":7,"items":[{"name":"돈우촌정육점식당","tel":"031-211-0271","addr":"경기도 수원시 영통구 매탄동 199-15","indutype":"음료식품 - 정육점","category":"food"}]},{"lat":"37.265738666","long":"127.04913787","imageIndex":7,"items":[{"name":"동해건어물","tel":"031-211-4946","addr":"경기도 수원시 영통구 매탄동 845-1번지","indutype":"음료식품 - 농·축·수산품","category":"food"}]},{"lat":"37.271379309","long":"127.04861142","imageIndex":7,"items":[{"name":"두꺼비 부대찌개","tel":"031-212-1946","addr":"경기도 수원시 영통구 매탄동 196-101번지 101호","indutype":"음료식품 - 기타음료식품","category":"food"}]},{"lat":"37.25268659","long":"127.06086377","imageIndex":7,"items":[{"name":"따끈한국한그릇","tel":"031-212-9239","addr":"경기도 수원시 영통구 매탄동 548-3번지","indutype":"음료식품 - 기타음료식품","category":"food"},{"name":"서진유통","tel":"031-721-0288","addr":"경기도 수원시 영통구 매탄동 548-3번지","indutype":"음료식품 - 기타음료식품","category":"food"}]},{"lat":"37.259128103","long":"127.04070186","imageIndex":7,"items":[{"name":"떡마당","tel":"031-225-4569","addr":"경기도 수원시 영통구 매탄동 1156-1번지","indutype":"음료식품 - 제과점","category":"food"}]},{"lat":"37.273796442","long":"127.04197198","imageIndex":7,"items":[{"name":"떡비","tel":"031-217-2247","addr":"경기도 수원시 영통구 매탄동 153-127번지 (103,104)","indutype":"음료식품 - 제과점","category":"food"}]},{"lat":"37.257460902","long":"127.04161409","imageIndex":7,"items":[{"name":"떡사랑","tel":"031-217-8898","addr":"경기도 수원시 영통구 매탄동 1273-3번지 1층 101호","indutype":"음료식품 - 제과점","category":"food"}]},{"lat":"37.272629892","long":"127.05316716","imageIndex":7,"items":[{"name":"뚜레쥬르 수원원천(2)","tel":"031-214-0990","addr":"경기도 수원시 영통구 매탄동 1194-1번지 1층","indutype":"음료식품 - 제과점","category":"food"}]},{"lat":"37.259045736","long":"127.04450071","imageIndex":7,"items":[{"name":"뚜레쥬르수원매탄점","tel":"031-212-0996","addr":"경기도 수원시 영통구 매탄동 1267-5번지 밀레니엄프라자 1층 113,114,204","indutype":"음료식품 - 제과점","category":"food"},{"name":"바이더웨이수원삼성점","tel":"031-212-4622","addr":"경기도 수원시 영통구 매탄동 1267-5 밀레니엄프라자1층113,114,204","indutype":"음료식품 - 기타음료식품","category":"food"}]},{"lat":"37.272596472","long":"127.04656016","imageIndex":7,"items":[{"name":"뜨레모아","tel":"031-214-2589","addr":"경기도 수원시 영통구 매탄동 196번지","indutype":"음료식품 - 제과점","category":"food"}]},{"lat":"37.263179579","long":"127.04955342","imageIndex":7,"items":[{"name":"론도베이커리","tel":"031-211-8013","addr":"경기도 수원시 영통구 매탄동 815-5번지 1층","indutype":"음료식품 - 제과점","category":"food"}]},{"lat":"37.271930049","long":"127.04563526","imageIndex":7,"items":[{"name":"롤로 코리아 매탄점","tel":"031-000-0000","addr":"경기도 수원시 영통구 매탄동 196-10번지 1층 101호","indutype":"음료식품 - 기타음료식품","category":"food"}]},{"lat":"37.272733385","long":"127.04149789","imageIndex":7,"items":[{"name":"마니쿡","tel":"031-242-8713","addr":"경기도 수원시 영통구 매탄동 172-51번지","indutype":"음료식품 - 기타음료식품","category":"food"},{"name":"얼리지않은축산","tel":"031-211-1225","addr":"경기도 수원시 영통구 매탄동 172-51번지 1층 5호","indutype":"음료식품 - 정육점","category":"food"},{"name":"파리바게뜨매탄현대점","tel":"031-216-0820","addr":"경기도 수원시 영통구 매탄동 172-51번지","indutype":"음료식품 - 제과점","category":"food"},{"name":"푸른식품","tel":"031-215-2149","addr":"경기도 수원시 영통구 매탄동 172-51번지 1층 4호","indutype":"음료식품 - 기타음료식품","category":"food"}]},{"lat":"37.273318853","long":"127.04210703","imageIndex":7,"items":[{"name":"막퍼주는집","tel":"","addr":"경기도 수원시 영통구 매탄동 153-174번지 1층","indutype":"음료식품 - 농·축·수산품","category":"food"},{"name":"수원상회","tel":"031-215-8520","addr":"경기도 수원시 영통구 매탄동 153-174번지 1층","indutype":"음료식품 - 농·축·수산품","category":"food"},{"name":"중국식품","tel":"031-213-6606","addr":"경기도 수원시 영통구 매탄동 153-174번지","indutype":"음료식품 - 기타음료식품","category":"food"}]},{"lat":"37.27104657","long":"127.04692005","imageIndex":7,"items":[{"name":"맘스벤또","tel":"031-111-1111","addr":"경기도 수원시 영통구 매탄동 196-70번지 102호","indutype":"음료식품 - 기타음료식품","category":"food"}]},{"lat":"37.272460832","long":"127.04785667","imageIndex":7,"items":[{"name":"맛다유통","tel":"031-8031-4646","addr":"경기도 수원시 영통구 매탄동 130-24번지 1층","indutype":"음료식품 - 농·축·수산품","category":"food"}]},{"lat":"37.273489615","long":"127.04339245","imageIndex":7,"items":[{"name":"매원 상회","tel":"031-214-2736","addr":"경기도 수원시 영통구 매탄동 153-82번지 1층","indutype":"음료식품 - 농·축·수산품","category":"food"}]},{"lat":"37.273543754","long":"127.04316698","imageIndex":7,"items":[{"name":"매일축산","tel":"031-302-0513","addr":"경기도 수원시 영통구 매탄동 153-83번지","indutype":"음료식품 - 정육점","category":"food"},{"name":"싱싱야채","tel":"","addr":"경기도 수원시 영통구 매탄동 153-83번지 1층","indutype":"음료식품 - 농·축·수산품","category":"food"}]},{"lat":"37.272516413","long":"127.04366252","imageIndex":7,"items":[{"name":"매탄건강원","tel":"031-215-3163","addr":"경기도 수원시 영통구 매탄동 140-20번지","indutype":"건강식품 - 기타건강식품","category":"food"}]},{"lat":"37.2722915762","long":"127.0424221862","imageIndex":7,"items":[{"name":"매탄반찬전문","tel":"031-215-5336","addr":"경기도 수원시 영통구 매탄동 194-3번지","indutype":"음료식품 - 기타음료식품","category":"food"},{"name":"신대성정육점","tel":"031-215-8836","addr":"경기도 수원시 영통구 매탄동 194-3번지","indutype":"음료식품 - 정육점","category":"food"},{"name":"쌍둥이수산","tel":"031-217-1247","addr":"경기도 수원시 영통구 매탄동 194-3번지","indutype":"음료식품 - 농·축·수산품","category":"food"},{"name":"중앙식품","tel":"031-215-4405","addr":"경기도 수원시 영통구 매탄동 194-3번지","indutype":"음료식품 - 농·축·수산품","category":"food"}]},{"lat":"37.272823377","long":"127.04183618","imageIndex":7,"items":[{"name":"매탄방앗간","tel":"031-215-8245","addr":"경기도 수원시 영통구 매탄동 172-68번지","indutype":"음료식품 - 제과점","category":"food"}]},{"lat":"37.273372586","long":"127.04308797","imageIndex":7,"items":[{"name":"매탄축산","tel":"031-211-0245","addr":"경기도 수원시 영통구 매탄동 153-84번지 1층","indutype":"음료식품 - 정육점","category":"food"}]},{"lat":"37.255604478","long":"127.04252619","imageIndex":7,"items":[{"name":"매현웰빙스토어","tel":"031-215-3100","addr":"경기도 수원시 영통구 매탄동 1279-5번지 아이쌤프라자 4층 402호","indutype":"건강식품 - 기타건강식품","category":"food"}]},{"lat":"37.271595512","long":"127.0487243","imageIndex":7,"items":[{"name":"모모상회","tel":"","addr":"경기도 수원시 영통구 매탄동 130-80번지 102호","indutype":"음료식품 - 기타음료식품","category":"food"}]},{"lat":"37.263541072","long":"127.04672403","imageIndex":7,"items":[{"name":"모이세과일","tel":"031-223-5214","addr":"경기도 수원시 영통구 매탄동 872-1번지 401호","indutype":"음료식품 - 농·축·수산품","category":"food"}]},{"lat":"37.272181878","long":"127.04688689","imageIndex":7,"items":[{"name":"무진장 야채,과일","tel":"031-211-3559","addr":"경기도 수원시 영통구 매탄동 127-45번지 1층","indutype":"음료식품 - 농·축·수산품","category":"food"}]},{"lat":"37.264020783","long":"127.04042247","imageIndex":7,"items":[{"name":"미미","tel":"","addr":"경기도 수원시 영통구 매탄동 923-41번지 1층","indutype":"음료식품 - 기타음료식품","category":"food"},{"name":"힐링하우스","tel":"031-217-6151","addr":"경기도 수원시 영통구 매탄동 923-41번지","indutype":"건강식품 - 기타건강식품","category":"food"}]},{"lat":"37.273462034","long":"127.04497091","imageIndex":7,"items":[{"name":"민속건강원","tel":"031-216-4061","addr":"경기도 수원시 영통구 매탄동 101-21번지","indutype":"건강식품 - 기타건강식품","category":"food"}]},{"lat":"37.269623058","long":"127.04661481","imageIndex":7,"items":[{"name":"바이오채널","tel":"031-213-4857","addr":"경기도 수원시 영통구 매탄동 198-71번지","indutype":"건강식품 - 기타건강식품","category":"food"}]},{"lat":"37.25918122","long":"127.04355388","imageIndex":7,"items":[{"name":"배스킨라빈스수원매탄2호점","tel":"031-213-2077","addr":"경기도 수원시 영통구 매탄동 1267-2번지 매탄프라자 103호","indutype":"음료식품 - 제과점","category":"food"}]},{"lat":"37.254848093","long":"127.04106042","imageIndex":7,"items":[{"name":"백록포크(매탄점)","tel":"031-217-7789","addr":"경기도 수원시 영통구 매탄동 1282번지 주공그린빌 상가동 101호","indutype":"음료식품 - 정육점","category":"food"}]},{"lat":"37.264462316","long":"127.0403325","imageIndex":7,"items":[{"name":"베스킨라빈스","tel":"031-214-3100","addr":"경기도 수원시 영통구 매탄동 923-4번지","indutype":"음료식품 - 제과점","category":"food"}]},{"lat":"37.264236829","long":"127.04105389","imageIndex":7,"items":[{"name":"비어앤크림 매탄점(픽미픽미아이스)","tel":"","addr":"경기도 수원시 영통구 매탄동 923-31번지 1층 102호","indutype":"음료식품 - 기타음료식품","category":"food"}]},{"lat":"37.25820862","long":"127.04203156","imageIndex":7,"items":[{"name":"사과나무","tel":"031-235-0414","addr":"경기도 수원시 영통구 매탄동 1270-5번지","indutype":"음료식품 - 농·축·수산품","category":"food"},{"name":"사과나무","tel":"031-211-1868","addr":"경기도 수원시 영통구 매탄동 1270-5번지 1층","indutype":"음료식품 - 농·축·수산품","category":"food"}]},{"lat":"37.270126946","long":"127.04844155","imageIndex":7,"items":[{"name":"산남방앗간","tel":"031-212-0689","addr":"경기도 수원시 영통구 매탄동 199-9번지","indutype":"음료식품 - 제과점","category":"food"}]},{"lat":"37.268127175","long":"127.04708746","imageIndex":7,"items":[{"name":"산호유통","tel":"031-216-8982","addr":"경기도 수원시 영통구 매탄동 207-1번지 1층","indutype":"음료식품 - 기타음료식품","category":"food"}]},{"lat":"37.256965887","long":"127.03988917","imageIndex":7,"items":[{"name":"새농민정육점","tel":"031-238-9046","addr":"경기도 수원시 영통구 매탄동 1166번지 상가 3호","indutype":"음료식품 - 정육점","category":"food"},{"name":"오복떡방앗간","tel":"031-233-0243","addr":"경기도 수원시 영통구 매탄동 1166번지","indutype":"음료식품 - 제과점","category":"food"}]},{"lat":"37.268018895","long":"127.04750453","imageIndex":7,"items":[{"name":"샘물동수원가맹점","tel":"031-215-2167","addr":"경기도 수원시 영통구 매탄동 207-4번지","indutype":"음료식품 - 기타음료식품","category":"food"}]},{"lat":"37.273488431","long":"127.04671852","imageIndex":7,"items":[{"name":"서무수건강명가","tel":"031-216-7711","addr":"경기도 수원시 영통구 매탄동 127-26번지","indutype":"건강식품 - 기타건강식품","category":"food"}]},{"lat":"37.272489922","long":"127.0420615","imageIndex":7,"items":[{"name":"서원식품","tel":"031-215-8379","addr":"경기도 수원시 영통구 매탄동 172-121번지","indutype":"음료식품 - 기타음료식품","category":"food"},{"name":"엄마손","tel":"031-217-7524","addr":"경기도 수원시 영통구 매탄동 172-121번지 1층 104호","indutype":"음료식품 - 농·축·수산품","category":"food"},{"name":"엄마손반찬","tel":"031-217-7524","addr":"경기도 수원시 영통구 매탄동 172-121번지 1층 103호","indutype":"음료식품 - 기타음료식품","category":"food"},{"name":"장보고수산","tel":"031-216-2075","addr":"경기도 수원시 영통구 매탄동 172-121번지","indutype":"음료식품 - 농·축·수산품","category":"food"}]},{"lat":"37.270876307","long":"127.0443381","imageIndex":7,"items":[{"name":"선한이웃","tel":"031-273-0691","addr":"경기도 수원시 영통구 매탄동 197번지 동남상가 16동 107호","indutype":"음료식품 - 기타음료식품","category":"food"}]},{"lat":"37.26754386","long":"127.04025511","imageIndex":7,"items":[{"name":"성심떡방","tel":"031-215-3372","addr":"경기도 수원시 영통구 매탄동 897번지 주공4단지아파트 일반상가 5호","indutype":"음료식품 - 제과점","category":"food"}]},{"lat":"37.257686123","long":"127.04172693","imageIndex":7,"items":[{"name":"소담","tel":"070-4685-3275","addr":"경기도 수원시 영통구 매탄동 1272-4번지 102호","indutype":"음료식품 - 제과점","category":"food"}]},{"lat":"37.272264493","long":"127.04258002","imageIndex":7,"items":[{"name":"소라수산","tel":"031-216-2135","addr":"경기도 수원시 영통구 매탄동 194-1번지","indutype":"음료식품 - 농·축·수산품","category":"food"},{"name":"아주좋은집","tel":"031-212-7746","addr":"경기도 수원시 영통구 매탄동 194-1번지","indutype":"음료식품 - 농·축·수산품","category":"food"},{"name":"연화인삼","tel":"031-215-2075","addr":"경기도 수원시 영통구 매탄동 194-1번지","indutype":"건강식품 - 인삼제품","category":"food"},{"name":"월광상회","tel":"031-213-0883","addr":"경기도 수원시 영통구 매탄동 194-1번지 102호","indutype":"음료식품 - 기타음료식품","category":"food"}]},{"lat":"37.255847701","long":"127.06386459","imageIndex":7,"items":[{"name":"소풍","tel":"031-258-9999","addr":"경기도 수원시 영통구 매탄동 528번지 1층","indutype":"음료식품 - 정육점","category":"food"}]},{"lat":"37.2742372","long":"127.04417082","imageIndex":7,"items":[{"name":"송사부고로케","tel":"031-0000-0000","addr":"경기도 수원시 영통구 매탄동 153-15번지 1층","indutype":"음료식품 - 제과점","category":"food"}]},{"lat":"37.271325576","long":"127.04775452","imageIndex":7,"items":[{"name":"수원과일","tel":"031-000-0000","addr":"경기도 수원시 영통구 매탄동 196-148번지 401호","indutype":"음료식품 - 농·축·수산품","category":"food"}]},{"lat":"37.265127017","long":"127.0463642","imageIndex":7,"items":[{"name":"수원농산","tel":"031-217-1858","addr":"경기도 수원시 영통구 매탄동 208-67번지 1층","indutype":"음료식품 - 미곡상","category":"food"}]},{"lat":"37.272435405","long":"127.04341443","imageIndex":7,"items":[{"name":"수원수제명가","tel":"031-211-1579","addr":"경기도 수원시 영통구 매탄동 172-140번지 101호","indutype":"음료식품 - 기타음료식품","category":"food"}]},{"lat":"37.256181227","long":"127.06358306","imageIndex":7,"items":[{"name":"수원양조 주식회사","tel":"031-895-5631","addr":"경기도 수원시 영통구 매탄동 525-5번지","indutype":"음료식품 - 주류 판매점","category":"food"}]},{"lat":"37.272372623","long":"127.04255752","imageIndex":7,"items":[{"name":"수정건해","tel":"031-215-7372","addr":"경기도 수원시 영통구 매탄동 195-2번지","indutype":"음료식품 - 농·축·수산품","category":"food"}]},{"lat":"37.273066617","long":"127.04194905","imageIndex":7,"items":[{"name":"신낙원떡집","tel":"031-211-3026","addr":"경기도 수원시 영통구 매탄동 172-66번지","indutype":"음료식품 - 제과점","category":"food"}]},{"lat":"37.26856811","long":"127.04858717","imageIndex":7,"items":[{"name":"신앙촌상회","tel":"031-212-2621","addr":"경기도 수원시 영통구 매탄동 200-15번지","indutype":"음료식품 - 기타음료식품","category":"food"}]},{"lat":"37.272769532","long":"127.04117094","imageIndex":7,"items":[{"name":"신용쌀상회","tel":"031-212-7090","addr":"경기도 수원시 영통구 매탄동 172-54번지 1층 102호","indutype":"음료식품 - 미곡상","category":"food"}]},{"lat":"37.268125215","long":"127.05205931","imageIndex":7,"items":[{"name":"싱싱청과","tel":"","addr":"경기도 수원시 영통구 매탄동 1215-4번지 성일코아빌딩 1층","indutype":"음료식품 - 농·축·수산품","category":"food"}]},{"lat":"37.270848713","long":"127.04591651","imageIndex":7,"items":[{"name":"쌀사랑","tel":"031-214-7086","addr":"경기도 수원시 영통구 매탄동 198-2번지","indutype":"음료식품 - 미곡상","category":"food"}]},{"lat":"37.25559645","long":"127.03947143","imageIndex":7,"items":[{"name":"씨클라우드","tel":"070-7579-0448","addr":"경기도 수원시 영통구 매탄동 1167-8번지 1층 101호","indutype":"음료식품 - 기타음료식품","category":"food"}]},{"lat":"37.257326271","long":"127.03997952","imageIndex":7,"items":[{"name":"아영","tel":"031-307-4114","addr":"경기도 수원시 영통구 매탄동 1163-10번지","indutype":"음료식품 - 기타음료식품","category":"food"}]},{"lat":"37.273463107","long":"127.04183651","imageIndex":7,"items":[{"name":"아이스몬 매탄점","tel":"","addr":"경기도 수원시 영통구 매탄동 153-146번지 1층 4호","indutype":"음료식품 - 기타음료식품","category":"food"}]},{"lat":"37.259793959","long":"127.04344148","imageIndex":7,"items":[{"name":"아이스크림할인점담아","tel":"043-111-1111","addr":"경기도 수원시 영통구 매탄동 1261-2번지 이삭프라자 1층 104호","indutype":"음료식품 - 기타음료식품","category":"food"},{"name":"장독대매탄점","tel":"031-111-1111","addr":"경기도 수원시 영통구 매탄동 1261-2번지 외 1필지이삭프라자 108호 107호,108호","indutype":"음료식품 - 기타음료식품","category":"food"}]},{"lat":"37.271459001","long":"127.05210657","imageIndex":7,"items":[{"name":"에스아이유통","tel":"031-217-5941","addr":"경기도 수원시 영통구 매탄동 1205-7번지 1층 상가","indutype":"음료식품 - 기타음료식품","category":"food"}]},{"lat":"37.261711684","long":"127.04752336","imageIndex":7,"items":[{"name":"에이치엘케어팜","tel":"031-291-1426","addr":"경기도 수원시 영통구 매탄동 1254-4번지 101호","indutype":"회원제형태 - 건강식품","category":"food"}]},{"lat":"37.270515504","long":"127.04544279","imageIndex":7,"items":[{"name":"연세대학교우유동수원대리점","tel":"031-236-5326","addr":"경기도 수원시 영통구 매탄동 198-23번지","indutype":"음료식품 - 기타음료식품","category":"food"},{"name":"파스퇴르우유 동수원대리점","tel":"031-217-8040","addr":"경기도 수원시 영통구 매탄동 198-23번지 1층","indutype":"음료식품 - 기타음료식품","category":"food"}]},{"lat":"37.270848831","long":"127.04558955","imageIndex":7,"items":[{"name":"연세우유 영통병점대리점","tel":"031-204-1950","addr":"경기도 수원시 영통구 매탄동 198-26번지","indutype":"음료식품 - 기타음료식품","category":"food"}]},{"lat":"37.272544239","long":"127.04128357","imageIndex":7,"items":[{"name":"영광수산","tel":"031-207-6246","addr":"경기도 수원시 영통구 매탄동 172-58번지 1층","indutype":"음료식품 - 농·축·수산품","category":"food"}]},{"lat":"37.255127915","long":"127.0394712","imageIndex":7,"items":[{"name":"영통팔달녹즙특판","tel":"031-238-1292","addr":"경기도 수원시 영통구 매탄동 1172-5번지","indutype":"회원제형태 - 건강식품","category":"food"}]},{"lat":"37.264380964","long":"127.04114415","imageIndex":7,"items":[{"name":"예닮떡방","tel":"031-211-6766","addr":"경기도 수원시 영통구 매탄동 923-28번지","indutype":"음료식품 - 제과점","category":"food"}]},{"lat":"37.272740245","long":"127.04760879","imageIndex":7,"items":[{"name":"예스식품","tel":"031-212-6808","addr":"경기도 수원시 영통구 매탄동 102-12번지","indutype":"음료식품 - 기타음료식품","category":"food"}]},{"lat":"37.256298843","long":"127.04077935","imageIndex":7,"items":[{"name":"오레시피수원매탄점","tel":"031-217-7760","addr":"경기도 수원시 영통구 매탄동 1165-5번지 1층","indutype":"음료식품 - 기타음료식품","category":"food"}]},{"lat":"37.273373901","long":"127.03900648","imageIndex":7,"items":[{"name":"왕순대","tel":"031-215-3193","addr":"경기도 수원시 영통구 매탄동 172-154번지","indutype":"음료식품 - 기타음료식품","category":"food"}]},{"lat":"37.257991215","long":"127.04539066","imageIndex":7,"items":[{"name":"우니코","tel":"031-212-9530","addr":"경기도 수원시 영통구 매탄동 1276번지 탑프라자 1층 101호","indutype":"음료식품 - 제과점","category":"food"}]},{"lat":"37.264875012","long":"127.04558618","imageIndex":7,"items":[{"name":"우리건강원","tel":"031-216-6613","addr":"경기도 수원시 영통구 매탄동 832-3번지","indutype":"건강식품 - 기타건강식품","category":"food"}]},{"lat":"37.268847333","long":"127.04883537","imageIndex":7,"items":[{"name":"우리동네담배가게","tel":"070-4010-8626","addr":"경기도 수원시 영통구 매탄동 199-63번지 1층 101호","indutype":"음료식품 - 기타음료식품","category":"food"}]},{"lat":"37.270873144","long":"127.05255717","imageIndex":7,"items":[{"name":"우리동네정육점","tel":"031-216-6663","addr":"경기도 수원시 영통구 매탄동 1208-2번지 1층","indutype":"음료식품 - 정육점","category":"food"}]},{"lat":"37.271072182","long":"127.05058427","imageIndex":7,"items":[{"name":"원앙떡방앗간","tel":"031-216-5119","addr":"경기도 수원시 영통구 매탄동 111-121번지","indutype":"음료식품 - 제과점","category":"food"}]},{"lat":"37.257965935","long":"127.04019401","imageIndex":7,"items":[{"name":"유리카롱","tel":"02-1111-1111","addr":"경기도 수원시 영통구 매탄동 1161-11번지","indutype":"음료식품 - 제과점","category":"food"}]},{"lat":"37.272568913","long":"127.04796948","imageIndex":7,"items":[{"name":"은행나무","tel":"031-212-1172","addr":"경기도 수원시 영통구 매탄동 130-22번지","indutype":"음료식품 - 기타음료식품","category":"food"}]},{"lat":"37.264487488","long":"127.04581143","imageIndex":7,"items":[{"name":"은혜상사","tel":"070-4245-2981","addr":"경기도 수원시 영통구 매탄동 833-30번지 1층","indutype":"음료식품 - 기타음료식품","category":"food"}]},{"lat":"37.269568059","long":"127.04908384","imageIndex":7,"items":[{"name":"은홍","tel":"","addr":"경기도 수원시 영통구 매탄동 199-16번지 1층","indutype":"음료식품 - 기타음료식품","category":"food"}]},{"lat":"37.255488274","long":"127.03964046","imageIndex":7,"items":[{"name":"이가네","tel":"031-905-6693","addr":"경기도 수원시 영통구 매탄동 1171-6번지","indutype":"음료식품 - 농·축·수산품","category":"food"}]},{"lat":"37.268513965","long":"127.04880135","imageIndex":7,"items":[{"name":"이레과일야채","tel":"031-214-3264","addr":"경기도 수원시 영통구 매탄동 200-20번지 102호","indutype":"음료식품 - 농·축·수산품","category":"food"}]},{"lat":"37.270485773","long":"127.0523878","imageIndex":7,"items":[{"name":"이슬제과점","tel":"031-213-4761","addr":"경기도 수원시 영통구 매탄동 1208-5번지 1층","indutype":"음료식품 - 제과점","category":"food"}]},{"lat":"37.258740153","long":"127.04225729","imageIndex":7,"items":[{"name":"이음 망개떡","tel":"031-216-3868","addr":"경기도 수원시 영통구 매탄동 1270-1번지 주공플라자 108호","indutype":"음료식품 - 기타음료식품","category":"food"}]},{"lat":"37.263575957","long":"127.04974531","imageIndex":7,"items":[{"name":"자연양생록","tel":"031-215-9878","addr":"경기도 수원시 영통구 매탄동 815-1번지","indutype":"음료식품 - 기타음료식품","category":"food"}]},{"lat":"37.272351898","long":"127.04994242","imageIndex":7,"items":[{"name":"장수건강원","tel":"031-216-4529","addr":"경기도 수원시 영통구 매탄동 130-60번지","indutype":"건강식품 - 기타건강식품","category":"food"}]},{"lat":"37.27318209","long":"127.0466958","imageIndex":7,"items":[{"name":"정관장 법원사거리점","tel":"","addr":"경기도 수원시 영통구 매탄동 101-2번지","indutype":"건강식품 - 홍삼제품","category":"food"},{"name":"정관장법원사거리점","tel":"031-251-4262","addr":"경기도 수원시 영통구 매탄동 101-2번지","indutype":"건강식품 - 홍삼제품","category":"food"},{"name":"파리바게뜨(법원점)","tel":"031-212-0300","addr":"경기도 수원시 영통구 매탄동 101-2번지 1층","indutype":"음료식품 - 제과점","category":"food"}]},{"lat":"37.258460864","long":"127.04216696","imageIndex":7,"items":[{"name":"정관정 매탄점","tel":"031-216-0389","addr":"경기도 수원시 영통구 매탄동 1270-3번지 103,104호","indutype":"건강식품 - 홍삼제품","category":"food"}]},{"lat":"37.265072184","long":"127.04841596","imageIndex":7,"items":[{"name":"제로마트정육점","tel":"031-217-3144","addr":"경기도 수원시 영통구 매탄동 231-5번지","indutype":"음료식품 - 정육점","category":"food"}]},{"lat":"37.264298876","long":"127.04410903","imageIndex":7,"items":[{"name":"좋은축산마을","tel":"031-212-9495","addr":"경기도 수원시 영통구 매탄동 883번지 삼호그랜드빌라101동1-1호","indutype":"음료식품 - 정육점","category":"food"}]},{"lat":"37.263991211","long":"127.04772763","imageIndex":7,"items":[{"name":"주식회사 일신티앤디","tel":"031-1544-5328","addr":"경기도 수원시 영통구 매탄동 862-4번지 1층 지하층","indutype":"음료식품 - 기타음료식품","category":"food"}]},{"lat":"37.271881174","long":"127.05516226","imageIndex":7,"items":[{"name":"주식회사이농우(주식회사e농우)","tel":"02-2629-2871","addr":"경기도 수원시 영통구 매탄동 1197-4번지","indutype":"음료식품 - 기타음료식품","category":"food"}]},{"lat":"37.263208611","long":"127.0441648","imageIndex":7,"items":[{"name":"주식회사팜스데이농업회사법인","tel":"070-8844-1111","addr":"경기도 수원시 영통구 매탄동 1233-2번지 양성프라자 106호","indutype":"음료식품 - 농·축·수산품","category":"food"}]},{"lat":"37.25965861","long":"127.04400504","imageIndex":7,"items":[{"name":"주식회사평산신고집수원본점","tel":"031-212-8850","addr":"경기도 수원시 영통구 매탄동 1263-5번지 거산빌딩 202호","indutype":"음료식품 - 정육점","category":"food"}]},{"lat":"37.264876559","long":"127.04105421","imageIndex":7,"items":[{"name":"중앙MEDICS","tel":"031-217-0077","addr":"경기도 수원시 영통구 매탄동 923-13번지 2층 일부","indutype":"건강식품 - 기타건강식품","category":"food"}]},{"lat":"37.266595573","long":"127.04669198","imageIndex":7,"items":[{"name":"지현유통","tel":"031-9333-9632","addr":"경기도 수원시 영통구 매탄동 208-3번지","indutype":"음료식품 - 기타음료식품","category":"food"}]},{"lat":"37.267734043","long":"127.03705339","imageIndex":7,"items":[{"name":"진실떡방앗간","tel":"031-215-8441","addr":"경기도 수원시 영통구 매탄동 897번지 주공5단지아파트 일반상가 2호","indutype":"음료식품 - 제과점","category":"food"}]},{"lat":"37.263984577","long":"127.04094103","imageIndex":7,"items":[{"name":"착한밥도둑","tel":"031-213-8588","addr":"경기도 수원시 영통구 매탄동 923-33번지 1층","indutype":"음료식품 - 기타음료식품","category":"food"}]},{"lat":"37.261297176","long":"127.0476133","imageIndex":7,"items":[{"name":"찰떡궁합","tel":"031-214-1321","addr":"경기도 수원시 영통구 매탄동 1257-2번지 101호","indutype":"음료식품 - 제과점","category":"food"}]},{"lat":"37.264298515","long":"127.04513491","imageIndex":7,"items":[{"name":"참마을","tel":"031-214-3151","addr":"경기도 수원시 영통구 매탄동 832-22번지 1층","indutype":"음료식품 - 미곡상","category":"food"}]},{"lat":"37.257766733","long":"127.04316985","imageIndex":7,"items":[{"name":"채소정육점","tel":"031-215-5937","addr":"경기도 수원시 영통구 매탄동 1274번지 우남 상가 105호","indutype":"음료식품 - 정육점","category":"food"}]},{"lat":"37.27015423","long":"127.04777638","imageIndex":7,"items":[{"name":"초록야채","tel":"031-215-7346","addr":"경기도 수원시 영통구 매탄동 199-7번지","indutype":"음료식품 - 농·축·수산품","category":"food"}]},{"lat":"37.272571343","long":"127.04105809","imageIndex":7,"items":[{"name":"총각수제누룽지","tel":"031-214-2190","addr":"경기도 수원시 영통구 매탄동 172-61번지 1층 101호","indutype":"음료식품 - 기타음료식품","category":"food"}]},{"lat":"37.271956558","long":"127.04705587","imageIndex":7,"items":[{"name":"커피와자판기","tel":"031-8002-0759","addr":"경기도 수원시 영통구 매탄동 196-22번지","indutype":"음료식품 - 기타음료식품","category":"food"}]},{"lat":"37.255434979","long":"127.03708165","imageIndex":7,"items":[{"name":"털보농산","tel":"","addr":"경기도 수원시 영통구 매탄동 1179-2번지","indutype":"음료식품 - 농·축·수산품","category":"food"}]},{"lat":"37.264624235","long":"127.04116682","imageIndex":7,"items":[{"name":"파리바게뜨 (매탄위브점)","tel":"031-216-4752","addr":"경기도 수원시 영통구 매탄동 923-30번지 1층","indutype":"음료식품 - 제과점","category":"food"}]},{"lat":"37.255047748","long":"127.03633752","imageIndex":7,"items":[{"name":"파리바게뜨 수원매탄점","tel":"031-226-8204","addr":"경기도 수원시 영통구 매탄동 1181-6번지","indutype":"음료식품 - 제과점","category":"food"}]},{"lat":"37.257235681","long":"127.04150125","imageIndex":7,"items":[{"name":"파리바게뜨매탄3동점","tel":"031-216-9296","addr":"경기도 수원시 영통구 매탄동 1273-2번지 1층","indutype":"음료식품 - 제과점","category":"food"}]},{"lat":"37.271242518","long":"127.05267016","imageIndex":7,"items":[{"name":"파리바게뜨매탄시티점","tel":"031-211-8289","addr":"경기도 수원시 영통구 매탄동 1204-5번지","indutype":"음료식품 - 제과점","category":"food"}]},{"lat":"37.259235386","long":"127.04324954","imageIndex":7,"items":[{"name":"파리바게뜨수원신매탄점","tel":"031-213-5775","addr":"경기도 수원시 영통구 매탄동 1267-1번지 새롬프라자 1층","indutype":"음료식품 - 제과점","category":"food"}]},{"lat":"37.269262357","long":"127.04739253","imageIndex":7,"items":[{"name":"파리바게트 매탄공원점","tel":"031-216-5820","addr":"경기도 수원시 영통구 매탄동 199-76번지","indutype":"음료식품 - 제과점","category":"food"}]},{"lat":"37.27434546","long":"127.04377626","imageIndex":7,"items":[{"name":"파리바게트 아주대삼거리점","tel":"031-212-8976","addr":"경기도 수원시 영통구 매탄동 153-22번지 1층 2-3호","indutype":"음료식품 - 제과점","category":"food"}]},{"lat":"37.269351821","long":"127.04906116","imageIndex":7,"items":[{"name":"펀쿡","tel":"","addr":"경기도 수원시 영통구 매탄동 199-39번지 402호","indutype":"음료식품 - 기타음료식품","category":"food"}]},{"lat":"37.269914127","long":"127.03842984","imageIndex":7,"items":[{"name":"평화농산","tel":"031-223-9556","addr":"경기도 수원시 영통구 매탄동 176번지 매탄현대힐스테이트 119동 703호","indutype":"음료식품 - 농·축·수산품","category":"food"}]},{"lat":"37.266849187","long":"127.04294921","imageIndex":7,"items":[{"name":"폼파도르","tel":"031-213-7543","addr":"경기도 수원시 영통구 매탄동 810-2번지 동남아파트","indutype":"음료식품 - 제과점","category":"food"}]},{"lat":"37.270767129","long":"127.04724684","imageIndex":7,"items":[{"name":"풍미축산물센타","tel":"","addr":"경기도 수원시 영통구 매탄동 196-81번지","indutype":"음료식품 - 정육점","category":"food"}]},{"lat":"37.259487434","long":"127.04394859","imageIndex":7,"items":[{"name":"풍천수산","tel":"031-214-6267","addr":"경기도 수원시 영통구 매탄동 1263-3번지 4층","indutype":"음료식품 - 농·축·수산품","category":"food"}]},{"lat":"37.263270988","long":"127.04611512","imageIndex":7,"items":[{"name":"프리앙디즈","tel":"","addr":"경기도 수원시 영통구 매탄동 1241-2번지 1층 103호","indutype":"음료식품 - 기타음료식품","category":"food"}]},{"lat":"37.269352367","long":"127.04764061","imageIndex":7,"items":[{"name":"픽미픽미","tel":"","addr":"경기도 수원시 영통구 매탄동 199-74번지 1층","indutype":"음료식품 - 기타음료식품","category":"food"}]},{"lat":"37.271236257","long":"127.04563487","imageIndex":7,"items":[{"name":"한샘마트내대영수산","tel":"031-212-6627","addr":"경기도 수원시 영통구 매탄동 196-66번지 1층 한샘마트 내 활어수산코너","indutype":"음료식품 - 농·축·수산품","category":"food"}]},{"lat":"37.267712146","long":"127.04855283","imageIndex":7,"items":[{"name":"한신떡방앗간","tel":"031-212-3035","addr":"경기도 수원시 영통구 매탄동 205-4번지","indutype":"음료식품 - 제과점","category":"food"}]},{"lat":"37.273102224","long":"127.04324567","imageIndex":7,"items":[{"name":"한양수산","tel":"031-217-6676","addr":"경기도 수원시 영통구 매탄동 153-100번지","indutype":"음료식품 - 농·축·수산품","category":"food"}]},{"lat":"37.273129771","long":"127.04170104","imageIndex":7,"items":[{"name":"한울축산","tel":"031-211-4244","addr":"경기도 수원시 영통구 매탄동 172-151번지","indutype":"음료식품 - 정육점","category":"food"}]},{"lat":"37.271269957","long":"127.05168929","imageIndex":7,"items":[{"name":"해오름","tel":"031-214-1631","addr":"경기도 수원시 영통구 매탄동 111-92번지","indutype":"음료식품 - 기타음료식품","category":"food"}]},{"lat":"37.256740214","long":"127.04119665","imageIndex":7,"items":[{"name":"해오름정육식당","tel":"031-235-0144","addr":"경기도 수원시 영통구 매탄동 1165-2번지","indutype":"음료식품 - 정육점","category":"food"}]},{"lat":"37.272958086","long":"127.04316667","imageIndex":7,"items":[{"name":"허브다이어트","tel":"070-8803-1951","addr":"경기도 수원시 영통구 매탄동 141-11번지 2층","indutype":"건강식품 - 기타건강식품","category":"food"}]},{"lat":"37.274210129","long":"127.04428355","imageIndex":7,"items":[{"name":"호두에땅","tel":"031-213-4470","addr":"경기도 수원시 영통구 매탄동 153-14번지 1층","indutype":"음료식품 - 제과점","category":"food"}]},{"lat":"37.255407334","long":"127.03914444","imageIndex":7,"items":[{"name":"호영수산","tel":"031-222-1478","addr":"경기도 수원시 영통구 매탄동 1172-15번지 훼밀리써치(주) 1층 102호","indutype":"음료식품 - 농·축·수산품","category":"food"}]},{"lat":"37.255182877","long":"127.05997518","imageIndex":7,"items":[{"name":"회THEDREAM","tel":"031-306-7788","addr":"경기도 수원시 영통구 매탄동 487-1번지 102호","indutype":"음료식품 - 농·축·수산품","category":"food"}]},{"lat":"37.259101703","long":"127.03867276","imageIndex":7,"items":[{"name":"효원고매점","tel":"031-228-1513","addr":"경기도 수원시 영통구 매탄동 1154번지 효원고등학교","indutype":"음료식품 - 기타음료식품","category":"food"}]}]