[{"lat":"37.900032219","long":"127.5605763","items":[{"name":"(북면)짜짜루","tel":"031-582-8082","addr":"경기도 가평군 북면 소법리 102-3번지","category":"일반휴게음식 - 일반한식"}]},{"lat":"37.905391618","long":"127.55889981","items":[{"name":"가평건설기계","tel":"","addr":"경기도 가평군 북면 소법리 157-6번지","category":"기타 - 기계공구"}]},{"lat":"37.907778079","long":"127.56100999","items":[{"name":"남종농원","tel":"031-581-0380","addr":"경기도 가평군 북면 소법리 192-2번지","category":"음료식품 - 농·축·수산품"}]},{"lat":"37.907223216","long":"127.56590657","items":[{"name":"도그버디","tel":"031-582-2225","addr":"경기도 가평군 북면 소법리 84번지","category":"숙박업 - 여관/기타숙박업"}]},{"lat":"37.908117812","long":"127.56534484","items":[{"name":"동덕에이치알디주식회사","tel":"031-581-0112","addr":"경기도 가평군 북면 소법리 81-3번지","category":"숙박업 - 여관/기타숙박업"}]},{"lat":"37.904979227","long":"127.56037485","items":[{"name":"둥우리","tel":"031-581-7020","addr":"경기도 가평군 북면 소법리 161-5번지","category":"일반휴게음식 - 일반한식"}]},{"lat":"37.90686828","long":"127.56287927","items":[{"name":"아리곤충농장","tel":"031-581-0666","addr":"경기도 가평군 북면 소법리 172-7번지","category":"음료식품 - 농·축·수산품"}]},{"lat":"37.90211876","long":"127.55943231","items":[{"name":"오래캠핑장","tel":"031-582-7532","addr":"경기도 가평군 북면 소법리 137-2번지","category":"숙박업 - 여관/기타숙박업"}]},{"lat":"37.902753465","long":"127.55857297","items":[{"name":"우리들캠핑장","tel":"","addr":"경기도 가평군 북면 소법리 133-1번지 우리들캠핑장","category":"숙박업 - 여관/기타숙박업"}]},{"lat":"37.902254286","long":"127.54584625","items":[{"name":"월곡가든","tel":"031-582-0277","addr":"경기도 가평군 북면 소법리 466-6번지 월곡가든","category":"일반휴게음식 - 일반한식"},{"name":"월곡농원","tel":"031-582-0277","addr":"경기도 가평군 북면 소법리 466-6번지","category":"음료식품 - 농·축·수산품"}]},{"lat":"37.911005264","long":"127.56440027","items":[{"name":"자연속에 둥지","tel":"070-8877-5757","addr":"경기도 가평군 북면 소법리 71번지","category":"일반휴게음식 - 일반한식"}]},{"lat":"37.906110723","long":"127.56304409","items":[{"name":"청정식당","tel":"031-582-8955","addr":"경기도 가평군 북면 소법리 170-2","category":"일반휴게음식 - 일반한식"}]},{"lat":"37.90720027","long":"127.56126715","items":[{"name":"청정하모니 협동조합","tel":"031-000-0000","addr":"경기도 가평군 북면 소법리 177번지","category":"음료식품 - 농·축·수산품"}]},{"lat":"37.907170359","long":"127.56565601","items":[{"name":"퍼피도그","tel":"","addr":"경기도 가평군 북면 소법리 83-6번지","category":"숙박업 - 여관/기타숙박업"}]},{"lat":"37.898529296","long":"127.56023524","items":[{"name":"프라도","tel":"031-582-8042","addr":"경기도 가평군 북면 소법리 103-7번지","category":"숙박업 - 여관/기타숙박업"}]},{"lat":"37.904501919","long":"127.56223598","items":[{"name":"하늘숲글램핑파크","tel":"031-582-9305","addr":"경기도 가평군 북면 소법리 152-4번지","category":"레저업소 - 기타레져업소"}]}]