[{"lat":"37.818378695","long":"127.50716241","imageIndex":5,"items":[{"name":"나우호텔","tel":"031-581-6969","addr":"경기도 가평군 가평읍 대곡리 411-3번지","indutype":"숙박업 - 여관/기타숙박업","category":"hotel"}]},{"lat":"37.823869576","long":"127.51454834","imageIndex":5,"items":[{"name":"대흥장여관","tel":"031-582-0367","addr":"경기도 가평군 가평읍 대곡리 171-2","indutype":"숙박업 - 여관/기타숙박업","category":"hotel"}]},{"lat":"37.824738269","long":"127.51574693","imageIndex":5,"items":[{"name":"동영모텔","tel":"031-000-0000","addr":"경기도 가평군 가평읍 대곡리 167-2번지","indutype":"숙박업 - 여관/기타숙박업","category":"hotel"}]},{"lat":"37.824570358","long":"127.51499614","imageIndex":5,"items":[{"name":"에그하우스","tel":"070-8156-2296","addr":"경기도 가평군 가평읍 대곡리 168-3번지","indutype":"숙박업 - 여관/기타숙박업","category":"hotel"}]},{"lat":"37.82495239","long":"127.51415828","imageIndex":5,"items":[{"name":"유정모텔","tel":"031-582-1708","addr":"경기도 가평군 가평읍 대곡리 230-3번지","indutype":"숙박업 - 여관/기타숙박업","category":"hotel"}]},{"lat":"37.823069543","long":"127.51413394","imageIndex":5,"items":[{"name":"자라섬게스트하우스","tel":"031-581-7022","addr":"경기도 가평군 가평읍 대곡리 177-1번지","indutype":"숙박업 - 여관/기타숙박업","category":"hotel"}]},{"lat":"37.818044143","long":"127.50744406","imageIndex":5,"items":[{"name":"크라시모텔","tel":"031-581-7766","addr":"경기도 가평군 가평읍 대곡리 411번지","indutype":"숙박업 - 여관/기타숙박업","category":"hotel"}]},{"lat":"37.822453917","long":"127.51482251","imageIndex":5,"items":[{"name":"호텔자라(HOTEL JARA)","tel":"","addr":"경기도 가평군 가평읍 대곡리 198-2번지","indutype":"숙박업 - 여관/기타숙박업","category":"hotel"}]}]