[{"lat":"37.719568235","long":"126.89836455","imageIndex":0,"items":[{"name":"78motors(78모터스)","tel":"031-964-6372","addr":"경기도 고양시 덕양구 벽제동 447-1번지","indutype":"자동차정비 유지 - 자동차부품","category":"car"},{"name":"더블유카케어","tel":"031-963-4747","addr":"경기도 고양시 덕양구 벽제동 447-1번지","indutype":"자동차정비 유지 - 세차장","category":"car"}]},{"lat":"37.704734147","long":"126.90383984","imageIndex":0,"items":[{"name":"고양현대부란자","tel":"031-963-4605","addr":"경기도 고양시 덕양구 벽제동 207-6번지","indutype":"자동차정비 유지 - 자동차정비","category":"car"}]},{"lat":"37.706627252","long":"126.90514144","imageIndex":0,"items":[{"name":"동진상사","tel":"031-969-5344","addr":"경기도 고양시 덕양구 벽제동 196-5번지","indutype":"자동차정비 유지 - 카인테리어","category":"car"},{"name":"트윈모터스","tel":"031-964-7040","addr":"경기도 고양시 덕양구 벽제동 196-5번지","indutype":"자동차정비 유지 - 자동차정비","category":"car"}]},{"lat":"37.699849944","long":"126.90266708","imageIndex":0,"items":[{"name":"명성카크리닉","tel":"031-964-4808","addr":"경기도 고양시 덕양구 벽제동 243-3번지","indutype":"자동차정비 유지 - 자동차부품","category":"car"},{"name":"부부경정비","tel":"031-964-4808","addr":"경기도 고양시 덕양구 벽제동 243-3번지","indutype":"자동차정비 유지 - 자동차정비","category":"car"}]},{"lat":"37.70487904","long":"126.90472416","imageIndex":0,"items":[{"name":"에프원(F1)타이어","tel":"031-000-0000","addr":"경기도 고양시 덕양구 벽제동 207-1번지","indutype":"자동차정비 유지 - 자동차시트·타이어","category":"car"}]},{"lat":"37.717487653","long":"126.89908201","imageIndex":0,"items":[{"name":"엔도게러지","tel":"070-2924-9020","addr":"경기도 고양시 덕양구 벽제동 335번지 오앤씨블루힐","indutype":"자동차정비 유지 - 자동차부품","category":"car"}]}]