[{"lat":"37.808454366","long":"127.25249078","imageIndex":5,"items":[{"name":"그랜드","tel":"031-534-0056","addr":"경기도 포천시 내촌면 소학리 222번지","indutype":"숙박업 - 여관/기타숙박업","category":"hotel"}]},{"lat":"37.801368462","long":"127.24601755","imageIndex":5,"items":[{"name":"녹천모텔","tel":"031-532-2737","addr":"경기도 포천시 내촌면 소학리 380-3번지","indutype":"숙박업 - 여관/기타숙박업","category":"hotel"}]},{"lat":"37.812262168","long":"127.25399127","imageIndex":5,"items":[{"name":"메트로","tel":"031-531-2072","addr":"경기도 포천시 내촌면 소학리 179-9번지 메트로","indutype":"숙박업 - 여관/기타숙박업","category":"hotel"},{"name":"메트로","tel":"-","addr":"경기도 포천시 내촌면 소학리 179-9번지","indutype":"숙박업 - 모텔","category":"hotel"}]},{"lat":"37.808512404","long":"127.25485296","imageIndex":5,"items":[{"name":"이리스모텔","tel":"031-533-0877","addr":"경기도 포천시 내촌면 소학리 203번지 (1필지 203-6)","indutype":"숙박업 - 여관/기타숙박업","category":"hotel"}]},{"lat":"37.804173806","long":"127.24871788","imageIndex":5,"items":[{"name":"하나로지엘에스(주)호텔꼬뮨","tel":"031-532-6666","addr":"경기도 포천시 내촌면 소학리 409-7번지","indutype":"숙박업 - 여관/기타숙박업","category":"hotel"}]},{"lat":"37.8128127","long":"127.25774072","imageIndex":5,"items":[{"name":"하얀집","tel":"031-534-1634","addr":"경기도 포천시 내촌면 소학리 153번지","indutype":"숙박업 - 여관/기타숙박업","category":"hotel"}]}]