[{"lat":"37.150452737","long":"126.89164486","imageIndex":0,"items":[{"name":"(주)삼성기계","tel":"031-359-8738","addr":"경기도 화성시 팔탄면 지월리 499-15번지 발안유통공구상가 6동 112호","indutype":"자동차판매 - 기타운송","category":"car"}]},{"lat":"37.147388929","long":"126.8913792","imageIndex":0,"items":[{"name":"(주)성진모터스","tel":"031-353-0303","addr":"경기도 화성시 팔탄면 지월리 550-13번지","indutype":"자동차정비 유지 - 자동차정비","category":"car"},{"name":"(주)성진모터스","tel":"031-353-0303","addr":"경기도 화성시 팔탄면 지월리 550-13번지 (14,15)","indutype":"자동차정비 유지 - 자동차정비","category":"car"},{"name":"일급화성자동차정비검사소 (주)","tel":"031-351-5105","addr":"경기도 화성시 팔탄면 지월리 550-13번지","indutype":"자동차정비 유지 - 가타자동차서비스","category":"car"},{"name":"카엔카","tel":"031-3515-105","addr":"경기도 화성시 팔탄면 지월리 550-13번지 가스충전소 101호","indutype":"자동차정비 유지 - 자동차정비","category":"car"},{"name":"카엔카","tel":"031-351-5105","addr":"경기도 화성시 팔탄면 지월리 550-13번지 가스충전소 101호","indutype":"자동차정비 유지 - 가타자동차서비스","category":"car"}]},{"lat":"37.150082033","long":"126.89029462","imageIndex":0,"items":[{"name":"k-pit (케이핏)","tel":"070-4649-1101","addr":"경기도 화성시 팔탄면 지월리 499-3번지 110~111호","indutype":"자동차정비 유지 - 자동차부품","category":"car"}]},{"lat":"37.149722435","long":"126.8911619","imageIndex":0,"items":[{"name":"가나유화","tel":"031-354-3663","addr":"경기도 화성시 팔탄면 지월리 499-4번지 104호","indutype":"자동차정비 유지 - 윤활유 전문 판매","category":"car"}]},{"lat":"37.145360341","long":"126.89007651","imageIndex":0,"items":[{"name":"대성기업 호이스트 (주)","tel":"031-366-2303","addr":"경기도 화성시 팔탄면 지월리 590-12번지","indutype":"자동차판매 - 기타운송","category":"car"}]},{"lat":"37.137946996","long":"126.89249602","imageIndex":0,"items":[{"name":"대신폴리텍","tel":"031-366-6188","addr":"경기도 화성시 팔탄면 지월리 731-32번지","indutype":"자동차정비 유지 - 자동차부품","category":"car"}]},{"lat":"37.144638227","long":"126.89851934","imageIndex":0,"items":[{"name":"미강상사","tel":"","addr":"경기도 화성시 팔탄면 지월리 389-28번지 102호","indutype":"자동차정비 유지 - 자동차부품","category":"car"}]},{"lat":"37.14555769","long":"126.89896831","imageIndex":0,"items":[{"name":"신광도장","tel":"070-8947-4490","addr":"경기도 화성시 팔탄면 지월리 389-16번지 지월리389-17,18,23번지","indutype":"자동차정비 유지 - 카인테리어","category":"car"},{"name":"창원모터스","tel":"031-353-7100","addr":"경기도 화성시 팔탄면 지월리 389-16번지 1층","indutype":"자동차정비 유지 - 자동차정비","category":"car"}]},{"lat":"37.147359949","long":"126.89915719","imageIndex":0,"items":[{"name":"팔탄칼라매치","tel":"031-366-3208","addr":"경기도 화성시 팔탄면 지월리 393-8번지 104호","indutype":"자동차정비 유지 - 카인테리어","category":"car"}]},{"lat":"37.14947064","long":"126.89169132","imageIndex":0,"items":[{"name":"현대모터스","tel":"031-353-4419","addr":"경기도 화성시 팔탄면 지월리 499-14번지 발안유통공구상가 14동101,102,103호","indutype":"자동차정비 유지 - 자동차정비","category":"car"}]},{"lat":"37.140866545","long":"126.8926606","imageIndex":17,"items":[{"name":"(주)피앤피엘","tel":"031-353-9428","addr":"경기도 화성시 팔탄면 지월리 758-3번지 현장내 사무실","indutype":"건축자재 - 기타건축자재","category":"other"}]},{"lat":"37.148720479","long":"126.89909905","imageIndex":17,"items":[{"name":"GS25화성지월리점","tel":"","addr":"경기도 화성시 팔탄면 지월리 434-11번지","indutype":"유통업 영리 - 편 의 점","category":"other"}]},{"lat":"37.149668658","long":"126.8914659","imageIndex":17,"items":[{"name":"거상볼트상사","tel":"031-366-2995","addr":"경기도 화성시 팔탄면 지월리 499-13 발안유통공구상가 1-A 102","indutype":"기타 - 기계공구","category":"other"},{"name":"성호도료","tel":"031-366-0704","addr":"경기도 화성시 팔탄면 지월리 499-13번지 발안유통산업단지 101동 106호","indutype":"건축자재 - 기타건축자재","category":"other"}]},{"lat":"37.150766645","long":"126.89010225","imageIndex":17,"items":[{"name":"경기컴퓨터","tel":"031-8059-4798","addr":"경기도 화성시 팔탄면 지월리 499-18번지 발인공구상가 11동 1층 110호","indutype":"사무통신 - 컴퓨터","category":"other"},{"name":"본하우스","tel":"031-227-2286","addr":"경기도 화성시 팔탄면 지월리 499-18번지 발안유통상가 11동 212호","indutype":"가구 - 일반가구","category":"other"}]},{"lat":"37.150082033","long":"126.89029462","imageIndex":17,"items":[{"name":"광운켐","tel":"031-354-7542","addr":"경기도 화성시 팔탄면 지월리 499-3번지 2층 212호","indutype":"서적문구 - 과학기자재","category":"other"},{"name":"한국공인시험연구원(주)","tel":"031-377-7772","addr":"경기도 화성시 팔탄면 지월리 499-3번지 201호","indutype":"용역 서비스 - 사무서비스","category":"other"}]},{"lat":"37.150109395","long":"126.89064353","imageIndex":17,"items":[{"name":"금성상사","tel":"031-359-9202","addr":"경기도 화성시 팔탄면 지월리 499-11번지 발안유통공구단지 4동 123호","indutype":"기타 - 기계공구","category":"other"},{"name":"태영천막","tel":"031-354-8735","addr":"경기도 화성시 팔탄면 지월리 499-11번지 4동 112호","indutype":"용역 서비스 - 기타용역서비스","category":"other"}]},{"lat":"37.149839804","long":"126.89140937","imageIndex":17,"items":[{"name":"나라테크","tel":"031-353-5957","addr":"경기도 화성시 팔탄면 지월리 499-13번지 발안유통공구상가 1동 105호","indutype":"기타 - 기계공구","category":"other"},{"name":"삼성에스엠(SM)웰딩","tel":"031-8059-1551","addr":"경기도 화성시 팔탄면 지월리 499-13번지 발안유통상가 1동 103호","indutype":"기타 - 기계공구","category":"other"},{"name":"엘케이호이스트서비스센타화성지점","tel":"031-352-8435","addr":"경기도 화성시 팔탄면 지월리 499-13번지 발안유통공구상가 1동 105호","indutype":"기타 - 기계공구","category":"other"},{"name":"제맥산업","tel":"031-354-5090","addr":"경기도 화성시 팔탄면 지월리 499-3번지 발안공구유통상가 1동 125호","indutype":"기타 - 기계공구","category":"other"}]},{"lat":"37.147114655","long":"126.89688381","imageIndex":17,"items":[{"name":"다육엄마","tel":"031-6223-5698","addr":"경기도 화성시 팔탄면 지월리 667-1번지","indutype":"문화.취미 - 화원","category":"other"}]},{"lat":"37.150452737","long":"126.89164486","imageIndex":17,"items":[{"name":"다파라공구","tel":"031-354-6373","addr":"경기도 화성시 팔탄면 지월리 499-15번지 발안유통공구상가 6동 205호 204호","indutype":"기타 - 기계공구","category":"other"},{"name":"대명툴스","tel":"031-366-0907","addr":"경기도 화성시 팔탄면 지월리 499-15번지 유통상가 6동 108호 208호","indutype":"기타 - 기계공구","category":"other"},{"name":"승원전기(발안점)","tel":"031-366-5541","addr":"경기도 화성시 팔탄면 지월리 499-15번지 6동 107호","indutype":"전기제품 - 기타전기제품","category":"other"},{"name":"이안컴퓨터","tel":"031-8059-1933","addr":"경기도 화성시 팔탄면 지월리 499-15번지 발안유통공구상가 6동 206호","indutype":"사무통신 - 컴퓨터","category":"other"},{"name":"케이알오피스문구","tel":"031-378-1958","addr":"경기도 화성시 팔탄면 지월리 499-15번지 발안유통공구상가 6동 206호","indutype":"사무통신 - 기타 사무용품","category":"other"}]},{"lat":"37.150569184","long":"126.89091301","imageIndex":17,"items":[{"name":"대성천막","tel":"031-359-9749","addr":"경기도 화성시 팔탄면 지월리 499-3번지 외발안유통공구상가 8동 103호","indutype":"직물 - 카페트,커튼,천막,지물","category":"other"},{"name":"신한코리아","tel":"031-366-0945","addr":"경기도 화성시 팔탄면 지월리 499-3번지 외발안유통공구상가 8동 208호","indutype":"기타 - 기계공구","category":"other"}]},{"lat":"37.14947064","long":"126.89169132","imageIndex":17,"items":[{"name":"대신가스상사","tel":"031-354-6671","addr":"경기도 화성시 팔탄면 지월리 499-14번지 104호","indutype":"기타 - 기계공구","category":"other"}]},{"lat":"37.150443526","long":"126.891431","imageIndex":17,"items":[{"name":"대일인쇄기획","tel":"031-355-3313","addr":"경기도 화성시 팔탄면 지월리 499-5번지 205호","indutype":"서적문구 - 출판 및 인쇄물","category":"other"},{"name":"명진","tel":"070-4110-0945","addr":"경기도 화성시 팔탄면 지월리 499-5번지 7동 117호 , 217","indutype":"기타 - 기타 전문점","category":"other"}]},{"lat":"37.14433469","long":"126.8917101","imageIndex":17,"items":[{"name":"동양기업","tel":"031-366-5662","addr":"경기도 화성시 팔탄면 지월리 656-9번지","indutype":"건축자재 - 기타건축자재","category":"other"}]},{"lat":"37.150028589","long":"126.89094758","imageIndex":17,"items":[{"name":"동우상사","tel":"031-354-4632","addr":"경기도 화성시 팔탄면 지월리 499-3번지 발안뉴통상가 3동 101호","indutype":"의류 - 기타의류","category":"other"},{"name":"비전21","tel":"031-353-2625","addr":"경기도 화성시 팔탄면 지월리 499-12번지 발안유통상가 3동 113호","indutype":"용역 서비스 - 기타용역서비스","category":"other"},{"name":"성암ENG","tel":"031-359-8397","addr":"경기도 화성시 팔탄면 지월리 499-12번지 3동 112호","indutype":"기타 - 기계공구","category":"other"},{"name":"일광베어링상사","tel":"031-354-2621","addr":"경기도 화성시 팔탄면 지월리 499-12번지 발안유통상가 3동 109호","indutype":"건축자재 - 기타건축자재","category":"other"}]},{"lat":"37.150515514","long":"126.89132958","imageIndex":17,"items":[{"name":"디피알(DPR)동양","tel":"070-4086-7416","addr":"경기도 화성시 팔탄면 지월리 499-5번지 7동 103호","indutype":"기타 - 기계공구","category":"other"},{"name":"포에니스","tel":"031-353-5903","addr":"경기도 화성시 팔탄면 지월리 499-5번지 7동 222호","indutype":"신변잡화 - 기타잡화","category":"other"},{"name":"한신공압기계","tel":"031-355-8171","addr":"경기도 화성시 팔탄면 지월리 499-5번지 발안유통공구상가7동119호,219호","indutype":"기타 - 기타 전문점","category":"other"},{"name":"한진환경개발(주)","tel":"031-319-7869","addr":"경기도 화성시 팔탄면 지월리 499-5번지 공구상가 7동 207호","indutype":"용역 서비스 - 종합용역","category":"other"}]},{"lat":"37.150658969","long":"126.89057518","imageIndex":17,"items":[{"name":"발안 유통공구상가 관리단","tel":"031-8047-6222","addr":"경기도 화성시 팔탄면 지월리 499-6번지 발안유통상가 9동 215호","indutype":"용역 서비스 - 종합용역","category":"other"},{"name":"발안후렉시블","tel":"031-366-5755","addr":"경기도 화성시 팔탄면 지월리 499-16번지 발안유통공구상가 9동 121호","indutype":"기타 - 기계공구","category":"other"},{"name":"주식회사레드세븐","tel":"031-354-7334","addr":"경기도 화성시 팔탄면 지월리 499-16번지 9동 103호","indutype":"직물 - 카페트,커튼,천막,지물","category":"other"},{"name":"현대전기모터","tel":"031-354-2355","addr":"경기도 화성시 팔탄면 지월리 499-3번지 발안유통산업단지 9동 101호","indutype":"기타 - 기계공구","category":"other"}]},{"lat":"37.149974196","long":"126.89059871","imageIndex":17,"items":[{"name":"선진포장 엠알오(MRO)","tel":"031-352-0228","addr":"경기도 화성시 팔탄면 지월리 499-11번지 4동 212호 112","indutype":"의류 - 기타의류","category":"other"}]},{"lat":"37.149866624","long":"126.8911842","imageIndex":17,"items":[{"name":"성일종합상사","tel":"031-354-3574","addr":"경기도 화성시 팔탄면 지월리 499-3번지 발안유통공구상가 2동 113호","indutype":"기타 - 기계공구","category":"other"},{"name":"연광조명","tel":"031-8059-2591","addr":"경기도 화성시 팔탄면 지월리 499-4번지 발안유통공구상가 2동 104호","indutype":"건축자재 - 조명기구","category":"other"}]},{"lat":"37.149252459","long":"126.89951481","imageIndex":17,"items":[{"name":"씨유화성지월점","tel":"02-1577-8007","addr":"경기도 화성시 팔탄면 지월리 434-3번지 1층","indutype":"유통업 영리 - 편 의 점","category":"other"}]},{"lat":"37.149830295","long":"126.89088033","imageIndex":17,"items":[{"name":"에코프라임","tel":"031-353-5264","addr":"경기도 화성시 팔탄면 지월리 499-12번지 발인유통공구상가 3동 108,208호","indutype":"건축자재 - 기타건축자재","category":"other"}]},{"lat":"37.150550918","long":"126.89065414","imageIndex":17,"items":[{"name":"영스토리","tel":"031-227-8542","addr":"경기도 화성시 팔탄면 지월리 499-16번지 발안유통공구상가 117, 118호","indutype":"전기제품 - 기타전기제품","category":"other"}]},{"lat":"37.150253232","long":"126.89029437","imageIndex":17,"items":[{"name":"영진테크","tel":"031-8059-0774","addr":"경기도 화성시 팔탄면 지월리 499-3번지 발안유통공구상가 5동 105호","indutype":"직물 - 기타직물","category":"other"}]},{"lat":"37.15069438","long":"126.88991099","imageIndex":17,"items":[{"name":"우리산업안전","tel":"031-000-0000","addr":"경기도 화성시 팔탄면 지월리 499-18번지 B동 203호","indutype":"기타 - 기계공구","category":"other"}]},{"lat":"37.145055326","long":"126.89149518","imageIndex":17,"items":[{"name":"주식회사 우리알텍","tel":"031-354-5612","addr":"경기도 화성시 팔탄면 지월리 577-3번지 A","indutype":"건축자재 - 기타건축자재","category":"other"}]},{"lat":"37.150712786","long":"126.8903162","imageIndex":17,"items":[{"name":"케비텍","tel":"031-358-3555","addr":"경기도 화성시 팔탄면 지월리 499-17번지 발안유통산업단지 10동 101호","indutype":"기타 - 기계공구","category":"other"}]},{"lat":"37.137749684","long":"126.89348671","imageIndex":17,"items":[{"name":"케이환경","tel":"031-353-3554","addr":"경기도 화성시 팔탄면 지월리 731-18","indutype":"용역 서비스 - 기타용역서비스","category":"other"}]},{"lat":"37.146747041","long":"126.89893291","imageIndex":17,"items":[{"name":"코리아광고기획","tel":"031-355-5678","addr":"경기도 화성시 팔탄면 지월리 393-2번지","indutype":"건축자재 - 인테리어전문","category":"other"}]},{"lat":"37.150470165","long":"126.89101447","imageIndex":17,"items":[{"name":"토탈 콤프레샤","tel":"070-3644-8816","addr":"경기도 화성시 팔탄면 지월리 499-6번지","indutype":"회원제형태 - 기타4","category":"other"}]},{"lat":"37.149776868","long":"126.8915558","imageIndex":17,"items":[{"name":"피앤씨상사","tel":"031-366-0050","addr":"경기도 화성시 팔탄면 지월리 499-13번지 A동 107호","indutype":"신변잡화 - 기타잡화","category":"other"}]},{"lat":"37.145613498","long":"126.89098785","imageIndex":17,"items":[{"name":"한영변압기","tel":"031-359-8651","addr":"경기도 화성시 팔탄면 지월리 577-4","indutype":"기타 - 기계공구","category":"other"}]},{"lat":"37.150335664","long":"126.89171257","imageIndex":17,"items":[{"name":"해성정공","tel":"031-366-6044","addr":"경기도 화성시 팔탄면 지월리 499-15번지 6동 111호 112호","indutype":"기타 - 기계공구","category":"other"}]},{"lat":"37.137749891","long":"126.89371181","imageIndex":4,"items":[{"name":"39버섯나라","tel":"031-352-2434","addr":"경기도 화성시 팔탄면 지월리 731-17","indutype":"일반휴게음식 - 일반한식","category":"restaurant"}]},{"lat":"37.147388929","long":"126.8913792","imageIndex":4,"items":[{"name":"길도한식뷔페","tel":"031-352-8788","addr":"경기도 화성시 팔탄면 지월리 550-13번지 가스충전소 3동 1층","indutype":"일반휴게음식 - 일반한식","category":"restaurant"}]},{"lat":"37.138173342","long":"126.89366618","imageIndex":4,"items":[{"name":"김선생집밥","tel":"031-352-3708","addr":"경기도 화성시 팔탄면 지월리 731-16번지 1동","indutype":"일반휴게음식 - 일반한식","category":"restaurant"}]},{"lat":"37.149668658","long":"126.8914659","imageIndex":4,"items":[{"name":"만나식당","tel":"031-354-2438","addr":"경기도 화성시 팔탄면 지월리 499-13번지 1동 2층 223호 ,224,225호","indutype":"일반휴게음식 - 일반한식","category":"restaurant"}]},{"lat":"37.146747041","long":"126.89893291","imageIndex":4,"items":[{"name":"왕대박대패삼겹살","tel":"031-354-1138","addr":"경기도 화성시 팔탄면 지월리 393-2번지","indutype":"일반휴게음식 - 일반한식","category":"restaurant"}]},{"lat":"37.140171624","long":"126.89146858","imageIndex":4,"items":[{"name":"용송가든","tel":"031-352-7012","addr":"경기도 화성시 팔탄면 지월리 716-9","indutype":"일반휴게음식 - 일반한식","category":"restaurant"}]},{"lat":"37.149135058","long":"126.89921105","imageIndex":4,"items":[{"name":"지월리커피","tel":"031-355-3336","addr":"경기도 화성시 팔탄면 지월리 434-1번지 1층","indutype":"일반휴게음식 - 서양음식","category":"restaurant"}]},{"lat":"37.146921239","long":"126.89229162","imageIndex":4,"items":[{"name":"큰집한식부페","tel":"031-352-5549","addr":"경기도 화성시 팔탄면 지월리 550-5, 6","indutype":"일반휴게음식 - 일반한식","category":"restaurant"}]},{"lat":"37.146413584","long":"126.89885457","imageIndex":4,"items":[{"name":"탑수산","tel":"031-354-1770","addr":"경기도 화성시 팔탄면 지월리 392-1번지","indutype":"일반휴게음식 - 일반한식","category":"restaurant"}]},{"lat":"37.144691872","long":"126.89804652","imageIndex":4,"items":[{"name":"풍천장어","tel":"031-354-3317","addr":"경기도 화성시 팔탄면 지월리 389-7번지","indutype":"일반휴게음식 - 일반한식","category":"restaurant"}]},{"lat":"37.144890272","long":"126.8982376","imageIndex":4,"items":[{"name":"홍콩","tel":"031-354-9915","addr":"경기도 화성시 팔탄면 지월리 389-9번지","indutype":"일반휴게음식 - 중국식","category":"restaurant"}]},{"lat":"37.147754347","long":"126.89682663","imageIndex":7,"items":[{"name":"경식이네 표고버섯","tel":"070-4117-6565","addr":"경기도 화성시 팔탄면 지월리 433-2,433-1,433-3,433-4,437번지","indutype":"음료식품 - 농·축·수산품","category":"food"}]},{"lat":"37.147388929","long":"126.8913792","imageIndex":7,"items":[{"name":"길도매점","tel":"031-352-3788","addr":"경기도 화성시 팔탄면 지월리 550-13번지","indutype":"음료식품 - 기타음료식품","category":"food"}]},{"lat":"37.147359949","long":"126.89915719","imageIndex":7,"items":[{"name":"새마을","tel":"02-1899-7746","addr":"경기도 화성시 팔탄면 지월리 393-8번지 1층","indutype":"음료식품 - 기타음료식품","category":"food"}]},{"lat":"37.146170154","long":"126.89868607","imageIndex":7,"items":[{"name":"서인(    )수산","tel":"031-354-4237","addr":"경기도 화성시 팔탄면 지월리 392-8","indutype":"음료식품 - 농·축·수산품","category":"food"}]},{"lat":"37.148720479","long":"126.89909905","imageIndex":7,"items":[{"name":"지월농산","tel":"","addr":"경기도 화성시 팔탄면 지월리 434-11번지 1층","indutype":"음료식품 - 농·축·수산품","category":"food"}]},{"lat":"37.148611133","long":"126.89771468","imageIndex":7,"items":[{"name":"표순이","tel":"031-354-7282","addr":"경기도 화성시 팔탄면 지월리 429-3번지 ,4,5","indutype":"음료식품 - 농·축·수산품","category":"food"}]},{"lat":"37.145224969","long":"126.88985159","imageIndex":16,"items":[{"name":"동화나라어린이집[아이행복]","tel":"031-353-5577","addr":"경기도 화성시 팔탄면 지월리 586-1번지","indutype":"학원 - 유아원","category":"study"}]}]