[{"lat":"37.668682649","long":"126.72993983","imageIndex":0,"items":[{"name":"(주)대화로점현대자동차","tel":"031-926-3345","addr":"경기도 고양시 일산서구 대화동 1484-2번지","indutype":"자동차정비 유지 - 자동차정비","category":"car"}]},{"lat":"37.671544081","long":"126.74024397","imageIndex":0,"items":[{"name":"(주)효성모터스","tel":"031-910-3696","addr":"경기도 고양시 일산서구 대화동 2311번지","indutype":"자동차정비 유지 - 자동차정비","category":"car"}]},{"lat":"37.67102061","long":"126.7358253","imageIndex":0,"items":[{"name":"J motors","tel":"031-913-1333","addr":"경기도 고양시 일산서구 대화동 771-3번지","indutype":"자동차정비 유지 - 자동차정비","category":"car"}]},{"lat":"37.674934946","long":"126.75420841","imageIndex":0,"items":[{"name":"JM물류","tel":"031-902-1331","addr":"경기도 고양시 일산서구 대화동 2173-5번지","indutype":"자동차정비 유지 - 자동차정비","category":"car"}]},{"lat":"37.658017533","long":"126.73094216","imageIndex":0,"items":[{"name":"JN카클린","tel":"070-4195-0242","addr":"경기도 고양시 일산서구 대화동 1926-85번지","indutype":"자동차정비 유지 - 카인테리어","category":"car"}]},{"lat":"37.675458977","long":"126.75065869","imageIndex":0,"items":[{"name":"LUCKY한","tel":"070-8844-8863","addr":"경기도 고양시 일산서구 대화동 2199번지","indutype":"자동차정비 유지 - 카인테리어","category":"car"}]},{"lat":"37.66584806","long":"126.72754743","imageIndex":0,"items":[{"name":"MC SHINE/엠제이샤인","tel":"031-916-3236","addr":"경기도 고양시 일산서구 대화동 1419-1번지","indutype":"자동차정비 유지 - 세차장","category":"car"},{"name":"프리웨이모터스","tel":"031-919-9119","addr":"경기도 고양시 일산서구 대화동 1419-1번지","indutype":"자동차판매 - 이륜차판매","category":"car"}]},{"lat":"37.670603614","long":"126.75104917","imageIndex":0,"items":[{"name":"MG-zone(모터가드존)","tel":"031-921-8002","addr":"경기도 고양시 일산서구 대화동 2284-9번지","indutype":"자동차정비 유지 - 자동차정비","category":"car"}]},{"lat":"37.670430759","long":"126.75026767","imageIndex":0,"items":[{"name":"OK자동차공업사","tel":"","addr":"경기도 고양시 일산서구 대화동 2290-13번지","indutype":"자동차정비 유지 - 자동차정비","category":"car"}]},{"lat":"37.665658462","long":"126.72737812","imageIndex":0,"items":[{"name":"가람트레이딩","tel":"031-818-2848","addr":"경기도 고양시 일산서구 대화동 1418-1번지","indutype":"자동차정비 유지 - 자동차부품","category":"car"}]},{"lat":"37.684933293","long":"126.75309804","imageIndex":0,"items":[{"name":"건국공업사","tel":"031-922-8134","addr":"경기도 고양시 일산서구 대화동 2077-11번지","indutype":"자동차정비 유지 - 자동차정비","category":"car"}]},{"lat":"37.676325305","long":"126.75557536","imageIndex":0,"items":[{"name":"경성자동차공업사","tel":"031-915-6181","addr":"경기도 고양시 일산서구 대화동 2147-6번지","indutype":"자동차정비 유지 - 자동차정비","category":"car"}]},{"lat":"37.675684601","long":"126.7425418","imageIndex":0,"items":[{"name":"고양도시관리공사","tel":"031-929-4850","addr":"경기도 고양시 일산서구 대화동 2320번지","indutype":"자동차정비 유지 - 주차장","category":"car"},{"name":"고양도시관리공사","tel":"031-929-4850","addr":"경기도 고양시 일산서구 대화동 2320번지","indutype":"자동차정비 유지 - 주차장","category":"car"}]},{"lat":"37.6845135","long":"126.75915326","imageIndex":0,"items":[{"name":"다모아 특수렉카","tel":"031-925-4972","addr":"경기도 고양시 일산서구 대화동 2005-7번지","indutype":"자동차정비 유지 - 견인서비스","category":"car"}]},{"lat":"37.685182638","long":"126.75598809","imageIndex":0,"items":[{"name":"달구지카클리닉","tel":"031-916-9209","addr":"경기도 고양시 일산서구 대화동 2062번지","indutype":"자동차정비 유지 - 자동차정비","category":"car"}]},{"lat":"37.679123154","long":"126.75360496","imageIndex":0,"items":[{"name":"대화모터스","tel":"031-911-4197","addr":"경기도 고양시 일산서구 대화동 2136-6번지","indutype":"자동차정비 유지 - 자동차정비","category":"car"},{"name":"포그린상사","tel":"031-979-3434","addr":"경기도 고양시 일산서구 대화동 2136-6번지","indutype":"자동차정비 유지 - 자동차부품","category":"car"}]},{"lat":"37.676576407","long":"126.75501909","imageIndex":0,"items":[{"name":"대화오토바이","tel":"02-923-5555","addr":"경기도 고양시 일산서구 대화동 2148-10번지","indutype":"자동차판매 - 이륜차판매","category":"car"}]},{"lat":"37.682095496","long":"126.75320958","imageIndex":0,"items":[{"name":"대화점기아오토큐","tel":"031-917-8522","addr":"경기도 고양시 일산서구 대화동 2087-5번지","indutype":"자동차정비 유지 - 자동차정비","category":"car"}]},{"lat":"37.683102451","long":"126.75220859","imageIndex":0,"items":[{"name":"더왁스 광택덴트","tel":"031-922-7164","addr":"경기도 고양시 일산서구 대화동 2042번지","indutype":"자동차정비 유지 - 카인테리어","category":"car"}]},{"lat":"37.672682571","long":"126.749988","imageIndex":0,"items":[{"name":"덴트닥터","tel":"031-975-2662","addr":"경기도 고양시 일산서구 대화동 2255-9번지","indutype":"자동차정비 유지 - 카인테리어","category":"car"}]},{"lat":"37.682627728","long":"126.75782173","imageIndex":0,"items":[{"name":"동양카센타","tel":"031-915-3070","addr":"경기도 고양시 일산서구 대화동 2027-17번지","indutype":"자동차정비 유지 - 자동차정비","category":"car"}]},{"lat":"37.657599985","long":"126.73351619","imageIndex":0,"items":[{"name":"동화","tel":"031-917-7600","addr":"경기도 고양시 일산서구 대화동 1926-33번지","indutype":"자동차판매 - 중고자동차판매","category":"car"},{"name":"새로나자동차","tel":"031-743-9981","addr":"경기도 고양시 일산서구 대화동 1926-33번지","indutype":"자동차판매 - 중고자동차판매","category":"car"},{"name":"주식회사 대하상사","tel":"070-8835-1414","addr":"경기도 고양시 일산서구 대화동 1926-33번지","indutype":"자동차판매 - 중고자동차판매","category":"car"}]},{"lat":"37.683625777","long":"126.7525696","imageIndex":0,"items":[{"name":"드림카서비스","tel":"031-922-1937","addr":"경기도 고양시 일산서구 대화동 2053번지","indutype":"자동차정비 유지 - 자동차정비","category":"car"}]},{"lat":"37.681240702","long":"126.75804168","imageIndex":0,"items":[{"name":"디엔씨플러스","tel":"031-917-3533","addr":"경기도 고양시 일산서구 대화동 2107-10번지","indutype":"자동차정비 유지 - 카인테리어","category":"car"}]},{"lat":"37.684567276","long":"126.75901704","imageIndex":0,"items":[{"name":"디퍼런트","tel":"031-917-2022","addr":"경기도 고양시 일산서구 대화동 2005-6번지","indutype":"자동차정비 유지 - 카인테리어","category":"car"}]},{"lat":"37.678102767","long":"126.75252014","imageIndex":0,"items":[{"name":"루스뚜레","tel":"031-8887-7566","addr":"경기도 고양시 일산서구 대화동 2156-12번지","indutype":"자동차정비 유지 - 카인테리어","category":"car"}]},{"lat":"37.682678303","long":"126.75188126","imageIndex":0,"items":[{"name":"루팡스(LUPINS)","tel":"070-4036-1379","addr":"경기도 고양시 일산서구 대화동 2085번지","indutype":"자동차정비 유지 - 자동차부품","category":"car"}]},{"lat":"37.676017862","long":"126.75079283","imageIndex":0,"items":[{"name":"맥과이어스","tel":"031-911-7766","addr":"경기도 고양시 일산서구 대화동 2188-2번지","indutype":"자동차정비 유지 - 카인테리어","category":"car"}]},{"lat":"37.680428686","long":"126.75748888","imageIndex":0,"items":[{"name":"미스터오토","tel":"031-916-0072","addr":"경기도 고양시 일산서구 대화동 2109-9번지","indutype":"자동차정비 유지 - 자동차정비","category":"car"}]},{"lat":"37.676513578","long":"126.75513265","imageIndex":0,"items":[{"name":"반석카센타","tel":"031-911-1561","addr":"경기도 고양시 일산서구 대화동 2148-9번지","indutype":"자동차정비 유지 - 자동차정비","category":"car"}]},{"lat":"37.675793639","long":"126.75126967","imageIndex":0,"items":[{"name":"뱅크카써비스","tel":"031-922-0852","addr":"경기도 고양시 일산서구 대화동 2188-6번지","indutype":"자동차정비 유지 - 자동차정비","category":"car"}]},{"lat":"37.682400356","long":"126.75251704","imageIndex":0,"items":[{"name":"봉봉자동차정비공업사","tel":"031-916-0394","addr":"경기도 고양시 일산서구 대화동 2087번지","indutype":"자동차정비 유지 - 자동차정비","category":"car"}]},{"lat":"37.657042528","long":"126.73401683","imageIndex":0,"items":[{"name":"브릴로(brillo)","tel":"","addr":"경기도 고양시 일산서구 대화동 1932-70번지","indutype":"자동차정비 유지 - 카인테리어","category":"car"}]},{"lat":"37.675130203","long":"126.74859678","imageIndex":0,"items":[{"name":"삼운트루아오피스텔관리단","tel":"031-924-0470","addr":"경기도 고양시 일산서구 대화동 2223번지","indutype":"자동차정비 유지 - 주차장","category":"car"}]},{"lat":"37.678041933","long":"126.75357457","imageIndex":0,"items":[{"name":"새차만들기","tel":"031-924-0124","addr":"경기도 고양시 일산서구 대화동 2154-7번지","indutype":"자동차정비 유지 - 카인테리어","category":"car"}]},{"lat":"37.683066954","long":"126.75674331","imageIndex":0,"items":[{"name":"성저바로정비공업사","tel":"031-913-2355","addr":"경기도 고양시 일산서구 대화동 2028-12번지","indutype":"자동차정비 유지 - 자동차정비","category":"car"}]},{"lat":"37.675436318","long":"126.75271047","imageIndex":0,"items":[{"name":"세덴 대화역점(일산지사)","tel":"031-921-8001","addr":"경기도 고양시 일산서구 대화동 2176-10번지","indutype":"자동차정비 유지 - 카인테리어","category":"car"}]},{"lat":"37.670682664","long":"126.75009679","imageIndex":0,"items":[{"name":"소망카인테리어","tel":"031-915-1555","addr":"경기도 고양시 일산서구 대화동 2291-5번지","indutype":"자동차정비 유지 - 카인테리어","category":"car"}]},{"lat":"37.671875101","long":"126.74738373","imageIndex":0,"items":[{"name":"애니카랜드 대화점","tel":"031-925-7056","addr":"경기도 고양시 일산서구 대화동 2304번지","indutype":"자동차정비 유지 - 자동차정비","category":"car"}]},{"lat":"37.683039746","long":"126.75237885","imageIndex":0,"items":[{"name":"어제스트일산킨텍스점","tel":"031-911-9956","addr":"경기도 고양시 일산서구 대화동 2042-1번지","indutype":"자동차정비 유지 - 자동차정비","category":"car"}]},{"lat":"37.67367971","long":"126.7486244","imageIndex":0,"items":[{"name":"에덴광택","tel":"070-4065-6682","addr":"경기도 고양시 일산서구 대화동 2252-2번지","indutype":"자동차정비 유지 - 카인테리어","category":"car"}]},{"lat":"37.678456422","long":"126.75359586","imageIndex":0,"items":[{"name":"영일카센타","tel":"031-918-9797","addr":"경기도 고양시 일산서구 대화동 2141-10번지","indutype":"자동차정비 유지 - 자동차정비","category":"car"}]},{"lat":"37.68251695","long":"126.75226724","imageIndex":0,"items":[{"name":"오토앤 경기북부 고양점(티씨랩)","tel":"031-922-5729","addr":"경기도 고양시 일산서구 대화동 2085-3번지","indutype":"자동차정비 유지 - 카인테리어","category":"car"}]},{"lat":"37.667104565","long":"126.75373583","imageIndex":0,"items":[{"name":"오토오아시스 빅마켓킨텍스점","tel":"031-911-7466","addr":"경기도 고양시 일산서구 대화동 1050-171번지","indutype":"자동차정비 유지 - 자동차정비","category":"car"},{"name":"오토오아시스빅마켓킨텍스점","tel":"031-911-7466","addr":"경기도 고양시 일산서구 대화동","indutype":"자동차정비 유지 - 자동차정비","category":"car"},{"name":"클린조이(주)킨텍스점","tel":"031-917-3341","addr":"경기도 고양시 일산서구 대화동 1050-171번지","indutype":"자동차정비 유지 - 자동차부품","category":"car"}]},{"lat":"37.667964507","long":"126.75138678","imageIndex":0,"items":[{"name":"오토오아시스 앤 로켓카워시 킨텍스점","tel":"031-915-0143","addr":"경기도 고양시 일산서구 대화동 2602번지","indutype":"자동차정비 유지 - 자동차정비","category":"car"},{"name":"오토오아시스 앤 로켓카워시 킨텍스점","tel":"031-915-0143","addr":"경기도 고양시 일산서구 대화동 2602번지","indutype":"자동차정비 유지 - 자동차정비","category":"car"}]},{"lat":"37.670992983","long":"126.75196596","imageIndex":0,"items":[{"name":"오토월드","tel":"031-914-6666","addr":"경기도 고양시 일산서구 대화동 2283번지","indutype":"자동차정비 유지 - 자동차부품","category":"car"}]},{"lat":"37.682461759","long":"126.75173462","imageIndex":0,"items":[{"name":"올모터스(all motors)","tel":"031-913-1351","addr":"경기도 고양시 일산서구 대화동 2091-7번지","indutype":"자동차정비 유지 - 자동차정비","category":"car"}]},{"lat":"37.675686056","long":"126.75151941","imageIndex":0,"items":[{"name":"우진카랜드","tel":"031-918-5151","addr":"경기도 고양시 일산서구 대화동 2186번지","indutype":"자동차정비 유지 - 자동차정비","category":"car"}]},{"lat":"37.68065168","long":"126.75641121","imageIndex":0,"items":[{"name":"원플러스","tel":"031-2994-3615","addr":"경기도 고양시 일산서구 대화동 2110-18번지","indutype":"자동차정비 유지 - 자동차부품","category":"car"}]},{"lat":"37.675959108","long":"126.74860529","imageIndex":0,"items":[{"name":"이지오토(eG오토)","tel":"","addr":"경기도 고양시 일산서구 대화동 2203-3번지","indutype":"자동차정비 유지 - 자동차부품","category":"car"}]},{"lat":"37.670347996","long":"126.74948586","imageIndex":0,"items":[{"name":"이코노 킨텍스점","tel":"031-907-4747","addr":"경기도 고양시 일산서구 대화동 2292-8번지","indutype":"자동차정비 유지 - 카인테리어","category":"car"}]},{"lat":"37.676928918","long":"126.75129985","imageIndex":0,"items":[{"name":"인코브 경기일산점","tel":"070-4176-0300","addr":"경기도 고양시 일산서구 대화동 2193-4번지","indutype":"자동차정비 유지 - 자동차부품","category":"car"}]},{"lat":"37.670850092","long":"126.74835069","imageIndex":0,"items":[{"name":"일산대우","tel":"031-915-4271","addr":"경기도 고양시 일산서구 대화동 2298-12번지","indutype":"자동차정비 유지 - 자동차부품","category":"car"}]},{"lat":"37.672008071","long":"126.73031304","imageIndex":0,"items":[{"name":"일산서구 스팀닥터","tel":"","addr":"경기도 고양시 일산서구 대화동 1580번지 대화마을2단지아파트","indutype":"자동차정비 유지 - 세차장","category":"car"}]},{"lat":"37.669907426","long":"126.74990674","imageIndex":0,"items":[{"name":"일신자동차","tel":"031-919-1559","addr":"경기도 고양시 일산서구 대화동 2288번지","indutype":"자동차정비 유지 - 자동차정비","category":"car"}]},{"lat":"37.671659092","long":"126.74748649","imageIndex":0,"items":[{"name":"장성오토카서비스","tel":"031-922-4040","addr":"경기도 고양시 일산서구 대화동 2300-12번지","indutype":"자동차정비 유지 - 자동차정비","category":"car"}]},{"lat":"37.673126127","long":"126.7509613","imageIndex":0,"items":[{"name":"주식회사 백석산업개발","tel":"031-967-4400","addr":"경기도 고양시 일산서구 대화동 2244번지","indutype":"자동차정비 유지 - 주차장","category":"car"}]},{"lat":"37.676846815","long":"126.75082403","imageIndex":0,"items":[{"name":"차사랑모터스","tel":"031-911-8278","addr":"경기도 고양시 일산서구 대화동 2196번지","indutype":"자동차정비 유지 - 자동차정비","category":"car"}]},{"lat":"37.671504373","long":"126.73067759","imageIndex":0,"items":[{"name":"청운","tel":"","addr":"경기도 고양시 일산서구 대화동 1580번지 대화마을2단지아파트","indutype":"자동차정비 유지 - 주차장","category":"car"}]},{"lat":"37.670821559","long":"126.75185319","imageIndex":0,"items":[{"name":"카맨샵","tel":"031-911-1190","addr":"경기도 고양시 일산서구 대화동 2283-1번지","indutype":"자동차정비 유지 - 자동차정비","category":"car"}]},{"lat":"37.684235467","long":"126.75976635","imageIndex":0,"items":[{"name":"카이노베이션","tel":"031-924-3242","addr":"경기도 고양시 일산서구 대화동 2004-3번지","indutype":"자동차정비 유지 - 자동차정비","category":"car"}]},{"lat":"37.657687539","long":"126.73240527","imageIndex":0,"items":[{"name":"카크린","tel":"031-000-1000","addr":"경기도 고양시 일산서구 대화동 1926-39번지","indutype":"자동차정비 유지 - 세차장","category":"car"}]},{"lat":"37.677873738","long":"126.7549921","imageIndex":0,"items":[{"name":"킨텍스점 기아오토큐","tel":"031-917-8086","addr":"경기도 고양시 일산서구 대화동 2145번지","indutype":"자동차정비 유지 - 자동차정비","category":"car"}]},{"lat":"37.683182134","long":"126.74735629","imageIndex":0,"items":[{"name":"타이어테크 (고양점)","tel":"031-911-0031","addr":"경기도 고양시 일산서구 대화동 2324번지","indutype":"자동차정비 유지 - 자동차시트·타이어","category":"car"}]},{"lat":"37.671988267","long":"126.73743137","imageIndex":0,"items":[{"name":"타이어프로킨텍스점","tel":"031-914-7574","addr":"경기도 고양시 일산서구 대화동 758-2번지","indutype":"자동차정비 유지 - 자동차시트·타이어","category":"car"}]},{"lat":"37.665938914","long":"126.7564032","imageIndex":0,"items":[{"name":"탑 디테일","tel":"031-929-6366","addr":"경기도 고양시 일산서구 대화동 1050-185번지","indutype":"자동차정비 유지 - 세차장","category":"car"}]},{"lat":"37.672658693","long":"126.75146162","imageIndex":0,"items":[{"name":"탑모터스 대화점","tel":"","addr":"경기도 고양시 일산서구 대화동 2256-4번지","indutype":"자동차정비 유지 - 자동차정비","category":"car"}]},{"lat":"37.670631344","long":"126.75137778","imageIndex":0,"items":[{"name":"하이카 대화점","tel":"031-921-0952","addr":"경기도 고양시 일산서구 대화동 2284-6번지","indutype":"자동차정비 유지 - 자동차정비","category":"car"}]},{"lat":"37.676215082","long":"126.74615596","imageIndex":0,"items":[{"name":"하이투모로 오피스텔관리단","tel":"031-914-0701","addr":"경기도 고양시 일산서구 대화동 2219번지","indutype":"자동차정비 유지 - 주차장","category":"car"}]},{"lat":"37.670236921","long":"126.73194036","imageIndex":0,"items":[{"name":"현대그린모터스","tel":"070-7815-2705","addr":"경기도 고양시 일산서구 대화동 1470-7번지","indutype":"자동차정비 유지 - 자동차정비","category":"car"}]},{"lat":"37.68010387","long":"126.75726323","imageIndex":0,"items":[{"name":"현대오토카마트","tel":"031-917-4686","addr":"경기도 고양시 일산서구 대화동 2110-9번지","indutype":"자동차정비 유지 - 자동차정비","category":"car"}]},{"lat":"37.670153715","long":"126.75132272","imageIndex":0,"items":[{"name":"현대자동차공업사","tel":"031-911-7979","addr":"경기도 고양시 일산서구 대화동 2286번지","indutype":"자동차정비 유지 - 자동차정비","category":"car"}]},{"lat":"37.678047409","long":"126.7519082","imageIndex":0,"items":[{"name":"현대자동차대화남부점","tel":"031-914-4411","addr":"경기도 고양시 일산서구 대화동 2162번지","indutype":"자동차정비 유지 - 자동차정비","category":"car"}]},{"lat":"37.678490754","long":"126.75707583","imageIndex":0,"items":[{"name":"현대카크리닉","tel":"031-911-7488","addr":"경기도 고양시 일산서구 대화동 2117-5번지","indutype":"자동차정비 유지 - 자동차부품","category":"car"}]},{"lat":"37.681430209","long":"126.75818843","imageIndex":0,"items":[{"name":"현대카클리닉","tel":"031-924-1333","addr":"경기도 고양시 일산서구 대화동 2106-10번지","indutype":"자동차정비 유지 - 자동차정비","category":"car"}]}]