[{"lat":"37.40394752","long":"127.2135328","items":[{"name":"(JY)제이와이상사","tel":"031-754-9860","addr":"경기도 광주시 중대동 234-3번지","category":"신변잡화 - 기타잡화"}]},{"lat":"37.40602716","long":"127.214476","items":[{"name":"(주) 삼우물류 구내식당","tel":"031-761-8994","addr":"경기도 광주시 중대동 216-1번지","category":"일반휴게음식 - 일반한식"}]},{"lat":"37.40400395","long":"127.2172262","items":[{"name":"(주)가람디앤씨","tel":"031-798-1600","addr":"경기도 광주시 중대동 220-2번지","category":"직물 - 옷감·직물"},{"name":"갈마철강","tel":"031-766-1065","addr":"경기도 광주시 중대동 220-2번지 외2필지","category":"건축자재 - 목재·석재·철물"},{"name":"갈마철강금속","tel":"031-766-1065","addr":"경기도 광주시 중대동 220-2번지","category":"기타 - 기계공구"},{"name":"한국공조닥트","tel":"031-798-4941","addr":"경기도 광주시 중대동 220-2번지","category":"건축자재 - 기타건축자재"}]},{"lat":"37.40189068","long":"127.2199194","items":[{"name":"(주)그린푸드시스템","tel":"031-760-5552","addr":"경기도 광주시 중대동 98-16번지","category":"음료식품 - 정육점"},{"name":"Star Kids car","tel":"031-767-9057","addr":"경기도 광주시 중대동 98-16번지","category":"서적문구 - 완구점"},{"name":"농업회사법인(주)올그레이","tel":"031-769-5552","addr":"경기도 광주시 중대동 98-16번지","category":"음료식품 - 정육점"},{"name":"물빛마트","tel":"","addr":"경기도 광주시 중대동 98-16번지","category":"유통업 영리 - 슈퍼마켓"},{"name":"우주특수A.V","tel":"031-761-0080","addr":"경기도 광주시 중대동 98-16번지","category":"수리서비스 - 기타수리서비스"},{"name":"주식회사 고기대장","tel":"031-765-5556","addr":"경기도 광주시 중대동 98-16번지","category":"음료식품 - 정육점"},{"name":"주원테크(주)","tel":"031-766-8830","addr":"경기도 광주시 중대동 98-16번지 1호동 2층","category":"전기제품 - 기타전기제품"}]},{"lat":"37.39691838","long":"127.2335361","items":[{"name":"(주)대한초경","tel":"031-763-0989","addr":"경기도 광주시 중대동 2-31번지 109호","category":"기타 - 기계공구"},{"name":"GS25광주새능점","tel":"","addr":"경기도 광주시 중대동 2-31번지","category":"유통업 영리 - 편 의 점"},{"name":"GS25광주새능점","tel":"","addr":"경기도 광주시 중대동 2-31번지","category":"유통업 영리 - 상품권전문판매"},{"name":"카페타넬","tel":"031-766-7166","addr":"경기도 광주시 중대동 2-31번지 1층","category":"일반휴게음식 - 서양음식"}]},{"lat":"37.39583561","long":"127.2343345","items":[{"name":"(주)동화전기조명","tel":"031-766-9930","addr":"경기도 광주시 중대동 28-52번지","category":"용역 서비스 - 기타용역서비스"},{"name":"장지골프","tel":"031-798-7079","addr":"경기도 광주시 중대동 28-52번지 2층","category":"레저업소 - 골프연습장"},{"name":"장지당구장","tel":"031-798-7079","addr":"경기도 광주시 중대동 28-52번지 3층","category":"레저업소 - 당 구 장"},{"name":"장지리막국수","tel":"031-769-9922","addr":"경기도 광주시 중대동 28-52번지","category":"일반휴게음식 - 일반한식"}]},{"lat":"37.40075658","long":"127.2241513","items":[{"name":"(주)모닝아트","tel":"02-6000-7282","addr":"경기도 광주시 중대동 131-5번지","category":"유통업 영리 - 기타유통업"},{"name":"태성엔지니어링","tel":"031-798-3849","addr":"경기도 광주시 중대동 131-5번지","category":"전기제품 - 가전제품"}]},{"lat":"37.40686685","long":"127.2083679","items":[{"name":"(주)새누리소방","tel":"031-798-7330","addr":"경기도 광주시 중대동 280-12번지 2층","category":"용역 서비스 - 종합용역"},{"name":"광주로켓트밧데리","tel":"031-797-4570","addr":"경기도 광주시 중대동 280-12.1층6","category":"기타 - 기타 전문점"},{"name":"베코텍","tel":"031-797-2999","addr":"경기도 광주시 중대동 280-12번지","category":"전기제품 - 기타전기제품"},{"name":"진성기어","tel":"031-798-4201","addr":"경기도 광주시 중대동 280-12번지","category":"기타 - 기계공구"}]},{"lat":"37.39702746","long":"127.2283641","items":[{"name":"(주)세인상사","tel":"031-798-7607","addr":"경기도 광주시 중대동 40-4번지","category":"자동차정비 유지 - 자동차부품"},{"name":"고향순대국","tel":"031-797-1334","addr":"경기도 광주시 중대동 40-4번지 1층","category":"일반휴게음식 - 일반한식"},{"name":"동현산업","tel":"031-763-7255","addr":"경기도 광주시 중대동 40-4번지","category":"건축자재 - 기타건축자재"}]},{"lat":"37.39303126","long":"127.2308365","items":[{"name":"(주)쉘파프로","tel":"031-0000-0000","addr":"경기도 광주시 중대동 19-7번지 1층","category":"의류 - 내의판매"},{"name":"광남건강원","tel":"031-762-0208","addr":"경기도 광주시 중대동 19-7번지","category":"건강식품 - 기타건강식품"},{"name":"모라커피","tel":"031-769-8980","addr":"경기도 광주시 중대동 19-7번지 태영빌딩 1층","category":"일반휴게음식 - 서양음식"},{"name":"쏘아베음악학원","tel":"031-763-5077","addr":"경기도 광주시 중대동 19-7번지 태영빌딩 2층","category":"학원 - 예·체능계학원"},{"name":"주식회사현대이앤시","tel":"031-769-8989","addr":"경기도 광주시 중대동 19-7번지","category":"건축자재 - 조명기구"},{"name":"헤어카페이데아","tel":"031-765-0319","addr":"경기도 광주시 중대동 19-7번지 태영빌딩 102호","category":"보건위생 - 미용원"}]},{"lat":"37.40983113","long":"127.213504","items":[{"name":"(주)스톤케어시스템","tel":"070-8160-1161","addr":"경기도 광주시 중대동 294-40번지","category":"용역 서비스 - 기타용역서비스"}]},{"lat":"37.39650264","long":"127.229537","items":[{"name":"(주)원광유리","tel":"031-769-6201","addr":"경기도 광주시 중대동 38-4번지 1층","category":"건축자재 - 유리"}]},{"lat":"37.40633828","long":"127.2117888","items":[{"name":"(주)일류패키지","tel":"031-798-6050","addr":"경기도 광주시 중대동 286-5번지","category":"유통업 영리 - 기타유통업"}]},{"lat":"37.40214255","long":"127.220146","items":[{"name":"(주)쟈크벨","tel":"02-6959-4012","addr":"경기도 광주시 중대동 98-8번지 2층","category":"신변잡화 - 제화"},{"name":"삼대족발(중대점)","tel":"031-762-7622","addr":"경기도 광주시 중대동 98-8번지 1층","category":"일반휴게음식 - 일반한식"},{"name":"새한기공","tel":"031-765-2552","addr":"경기도 광주시 중대동 98-8번지 1층 4호","category":"기타 - 기계공구"},{"name":"에이스콜렉션","tel":"031-797-3732","addr":"경기도 광주시 중대동 98-8번지","category":"직물 - 침구·수예점"},{"name":"에코뱃","tel":"031-765-3633","addr":"경기도 광주시 중대동 98-8번지","category":"자동차정비 유지 - 자동차부품"},{"name":"파우파우","tel":"031-765-8777","addr":"경기도 광주시 중대동 98-8번지","category":"문화.취미 - 애완동물"}]},{"lat":"37.39433314","long":"127.2332006","items":[{"name":"301스튜디오(STUDIO)","tel":"070-4154-3015","addr":"경기도 광주시 중대동 28-64번지","category":"문화.취미 - 민예·공예품"}]},{"lat":"37.39794823","long":"127.2274521","items":[{"name":"33전통김치찌개","tel":"031-763-5279","addr":"경기도 광주시 중대동 54-7번지","category":"일반휴게음식 - 일반한식"}]},{"lat":"37.40755956","long":"127.2089797","items":[{"name":"GS25G광주거북이점","tel":"","addr":"경기도 광주시 중대동 290-3번지 1층","category":"유통업 영리 - 편 의 점"},{"name":"에스에이치네트웍스(주)직영 거북이주유소","tel":"031-797-8981","addr":"경기도 광주시 중대동 290-3번지","category":"연료판매점 - GS주유소"},{"name":"주식회사 국일상사","tel":"031-763-4185","addr":"경기도 광주시 중대동 290-3번지","category":"음료식품 - 농·축·수산품"},{"name":"주식회사케이에너지","tel":"031-763-4185","addr":"경기도 광주시 중대동 290-3번지","category":"연료판매점 - 주유소"}]},{"lat":"37.40736013","long":"127.2147622","items":[{"name":"GS25광주텃골점","tel":"","addr":"경기도 광주시 중대동 207-14번지 덕곡빌딩","category":"유통업 영리 - 편 의 점"},{"name":"GS25광주텃골점","tel":"","addr":"경기도 광주시 중대동 207-14번지 덕곡빌딩","category":"유통업 영리 - 상품권전문판매"},{"name":"목화사","tel":"031-761-1677","addr":"경기도 광주시 중대동 207-14번지 덕곡빌딩 1층","category":"수리서비스 - 세탁소"},{"name":"텃골","tel":"031-768-5002","addr":"경기도 광주시 중대동 207-14번지","category":"일반휴게음식 - 서양음식"}]},{"lat":"37.404947","long":"127.2237571","items":[{"name":"JDX경기광주점","tel":"02-0000-0000","addr":"경기도 광주시 중대동 163-7번지","category":"레져용품 - 스포츠·레져용품"},{"name":"세정아울렛 경기광주","tel":"031-798-3111","addr":"경기도 광주시 중대동 163-7번지","category":"의류 - 정장"},{"name":"영광타일","tel":"031-751-9496","addr":"경기도 광주시 중대동 163-7번지","category":"건축자재 - 건축용 요업제품"},{"name":"토끼굴","tel":"031-2057-4237","addr":"경기도 광주시 중대동 163-7번지","category":"문화.취미 - 민예·공예품"}]},{"lat":"37.39694977","long":"127.2312888","items":[{"name":"K.S데칼","tel":"031-768-9814","addr":"경기도 광주시 중대동 3-1번지 2층","category":"서적문구 - 출판 및 인쇄물"}]},{"lat":"37.3932845","long":"127.2303404","items":[{"name":"OK골프존","tel":"031-764-4242","addr":"경기도 광주시 중대동 19-10번지","category":"레저업소 - 스크린골프"},{"name":"태전동 맛집 코다리네","tel":"031-763-6786","addr":"경기도 광주시 중대동 19-10번지 1층","category":"일반휴게음식 - 일반한식"}]},{"lat":"37.40655925","long":"127.2090899","items":[{"name":"SUN스크린골프","tel":"031-798-7080","addr":"경기도 광주시 중대동 279-1번지 호성빌딩","category":"레저업소 - 스크린골프"},{"name":"고궁콩나물밥","tel":"031-764-7987","addr":"경기도 광주시 중대동 279-1번지 호성빌딩 1층","category":"일반휴게음식 - 일반한식"}]},{"lat":"37.40100332","long":"127.2222886","items":[{"name":"Verde(베르데)","tel":"031-765-3515","addr":"경기도 광주시 중대동 117-1번지 3층","category":"일반휴게음식 - 서양음식"},{"name":"카페레오","tel":"031-765-2703","addr":"경기도 광주시 중대동 117-1번지 3층","category":"일반휴게음식 - 서양음식"}]},{"lat":"37.39369569","long":"127.2320355","items":[{"name":"YB솔루션","tel":"","addr":"경기도 광주시 중대동 16-118번지 금영파크 103동 401호","category":"수리서비스 - 사무·통신기기수리"},{"name":"아이밍(i ming)","tel":"031-761-4546","addr":"경기도 광주시 중대동 16-118번지 금영파크 103동 101호","category":"의류 - 아동의류"},{"name":"헤어그리다","tel":"031-798-1008","addr":"경기도 광주시 중대동 16-118번지 금영파크 1층","category":"보건위생 - 미용원"}]},{"lat":"37.40297576","long":"127.2227009","items":[{"name":"가딘(GODIN)","tel":"","addr":"경기도 광주시 중대동 174번지 5층","category":"가구 - 일반가구"},{"name":"거성퍼니처","tel":"031-747-4335","addr":"경기도 광주시 중대동 174번지","category":"가구 - 일반가구"},{"name":"글로리 퍼니처","tel":"031-767-1664","addr":"경기도 광주시 중대동 174번지 4층,5층","category":"가구 - 일반가구"}]},{"lat":"37.40389521","long":"127.2175647","items":[{"name":"갈마자동차정비사업소","tel":"031-797-4972","addr":"경기도 광주시 중대동 222번지","category":"자동차정비 유지 - 자동차정비"}]},{"lat":"37.39305705","long":"127.2314802","items":[{"name":"경기약국","tel":"031-765-8562","addr":"경기도 광주시 중대동 17-17번지","category":"약국 - 약국"},{"name":"더올림수학교습소","tel":"031-764-6571","addr":"경기도 광주시 중대동 17-17번지 3층","category":"회원제형태 - 학원"},{"name":"동남이발","tel":"031-768-1433","addr":"경기도 광주시 중대동 17-17번지","category":"보건위생 - 이용원"}]},{"lat":"37.40383675","long":"127.215012","items":[{"name":"경안앵글","tel":"031-761-8843","addr":"경기도 광주시 중대동 233-3번지 1층","category":"가구 - 기타가구"},{"name":"친구윤활유","tel":"031-767-7951","addr":"경기도 광주시 중대동 233-3번지","category":"자동차정비 유지 - 윤활유 전문 판매"}]},{"lat":"37.40472528","long":"127.2118972","items":[{"name":"계룡한우촌","tel":"031-763-8878","addr":"경기도 광주시 중대동 259번지","category":"일반휴게음식 - 일반한식"}]},{"lat":"37.39691807","long":"127.22903","items":[{"name":"고궁한정식","tel":"031-762-9919","addr":"경기도 광주시 중대동 40-14번지","category":"일반휴게음식 - 일반한식"},{"name":"재영카센타","tel":"031-763-9670","addr":"경기도 광주시 중대동 40-14","category":"자동차정비 유지 - 자동차정비"}]},{"lat":"37.40094844","long":"127.2227289","items":[{"name":"고향추어탕","tel":"031-761-4548","addr":"경기도 광주시 중대동 115-3번지 1층","category":"일반휴게음식 - 일반한식"},{"name":"청담면가","tel":"031-761-1324","addr":"경기도 광주시 중대동 115-3번지","category":"일반휴게음식 - 일반한식"}]},{"lat":"37.4067221","long":"127.2087064","items":[{"name":"골드프라샤","tel":"031-797-1853","addr":"경기도 광주시 중대동 280-17번지","category":"기타 - 기타 전문점"},{"name":"금광지물포","tel":"031-797-7758","addr":"경기도 광주시 중대동 280-17번지 1층 2호","category":"직물 - 카페트,커튼,천막,지물"},{"name":"썬플러스","tel":"031-763-6568","addr":"경기도 광주시 중대동 280-17번지","category":"건축자재 - 인테리어전문"}]},{"lat":"37.39305786","long":"127.2310624","items":[{"name":"광남독서실","tel":"031-767-4900","addr":"경기도 광주시 중대동 18번지","category":"학원 - 독서실"},{"name":"용한의원","tel":"031-699-4275","addr":"경기도 광주시 중대동 18번지 1층","category":"의원 - 한의원"},{"name":"중앙의원","tel":"031-699-4295","addr":"경기도 광주시 중대동 18번지 1층","category":"의원 - 의원"}]},{"lat":"37.39356198","long":"127.2312898","items":[{"name":"광남태권도체육관","tel":"031-232-2571","addr":"경기도 광주시 중대동 16-110번지","category":"회원제형태 - 학원"},{"name":"광주예원음악학원","tel":"031-768-2546","addr":"경기도 광주시 중대동 16-110번지 3층","category":"학원 - 예·체능계학원"},{"name":"삼성영어명문학원","tel":"031-768-3595","addr":"경기도 광주시 중대동 16-110번지 2층","category":"학원 - 외국어학원"}]},{"lat":"37.39350722","long":"127.231651","items":[{"name":"광남하이탑보습학원","tel":"031-764-7212","addr":"경기도 광주시 중대동 16-69번지 3층","category":"학원 - 보습학원"},{"name":"다다(DADA)","tel":"","addr":"경기도 광주시 중대동 16-69번지 1층","category":"일반휴게음식 - 서양음식"},{"name":"이지에듀음악학원","tel":"031-767-9357","addr":"경기도 광주시 중대동 16-69번지 2층","category":"학원 - 예·체능계학원"},{"name":"치킨플러스 태전점","tel":"031-764-7783","addr":"경기도 광주시 중대동 16-69번지 1층","category":"일반휴게음식 - 스넥"}]},{"lat":"37.39761275","long":"127.2285578","items":[{"name":"광주금속","tel":"031-766-0536","addr":"경기도 광주시 중대동 46-1번지","category":"기타 - 기계공구"},{"name":"대한노인회 광주시지회 취업센터","tel":"031-766-5115","addr":"경기도 광주시 중대동 46-1번지","category":"음료식품 - 제과점"}]},{"lat":"37.39755804","long":"127.2288964","items":[{"name":"광주시노인복지관 건강즙이야기","tel":"","addr":"경기도 광주시 중대동 46-3번지","category":"건강식품 - 기타건강식품"}]},{"lat":"37.40713963","long":"127.212096","items":[{"name":"광주청과","tel":"031-761-0221","addr":"경기도 광주시 중대동 286-4","category":"음료식품 - 농·축·수산품"}]},{"lat":"37.40489371","long":"127.2134563","items":[{"name":"광주프로파일","tel":"031-765-2935","addr":"경기도 광주시 중대동 263-1번지","category":"기타 - 기계공구"},{"name":"성신정밀","tel":"031-762-6429","addr":"경기도 광주시 중대동 263-1번지","category":"기타 - 기계공구"},{"name":"스팀워시","tel":"031-767-2154","addr":"경기도 광주시 중대동 263-1번지","category":"자동차정비 유지 - 카인테리어"},{"name":"주식회사 에스엠컴퍼니","tel":"031-1588-6110","addr":"경기도 광주시 중대동 263-1번지 2층","category":"용역 서비스 - 종합용역"},{"name":"최강모터스","tel":"031-767-2400","addr":"경기도 광주시 중대동 263-1번지","category":"자동차정비 유지 - 자동차정비"},{"name":"한성종합상사","tel":"031-769-2676","addr":"경기도 광주시 중대동 263-1번지 1층","category":"건축자재 - 기타건축자재"}]},{"lat":"37.39300325","long":"127.2313446","items":[{"name":"광주한국학원","tel":"031-762-3502","addr":"경기도 광주시 중대동 17-7번지 3층","category":"학원 - 기타 교육기관"},{"name":"씨유광주태전점","tel":"031-769-8174","addr":"경기도 광주시 중대동 17-7번지 1층","category":"유통업 영리 - 편 의 점"}]},{"lat":"37.40758533","long":"127.2044844","items":[{"name":"국제불교조계종광천사","tel":"031-742-0011","addr":"경기도 광주시 중대동 302-8번지","category":"보건위생 - 기타대인서비스"}]},{"lat":"37.39338994","long":"127.2317297","items":[{"name":"군산아구찜","tel":"031-764-1633","addr":"경기도 광주시 중대동 16-51번지","category":"일반휴게음식 - 일반한식"},{"name":"늘푸른음악학원","tel":"031-767-8358","addr":"경기도 광주시 중대동 16-51번지","category":"학원 - 예·체능계학원"},{"name":"샘터사관학원","tel":"031-798-5956","addr":"경기도 광주시 중대동 16-51번지 2층","category":"학원 - 보습학원"}]},{"lat":"37.3932809","long":"127.2322037","items":[{"name":"그늘집","tel":"","addr":"경기도 광주시 중대동 16-53번지 2층","category":"일반휴게음식 - 주점"},{"name":"멘토스보습학원","tel":"031-797-9767","addr":"경기도 광주시 중대동 16-53번지 3층","category":"학원 - 보습학원"},{"name":"태전스크린골프","tel":"031-797-0754","addr":"경기도 광주시 중대동 16-53번지 2층","category":"레저업소 - 스크린골프"}]},{"lat":"37.40584012","long":"127.2132557","items":[{"name":"그린사철탕","tel":"03-111-1111","addr":"경기도 광주시 중대동 265-1번지 1층","category":"일반휴게음식 - 일반한식"}]},{"lat":"37.4064144","long":"127.2094849","items":[{"name":"금강패널","tel":"031-764-8659","addr":"경기도 광주시 중대동 268-11번지","category":"건축자재 - 기타건축자재"}]},{"lat":"37.39372817","long":"127.2338651","items":[{"name":"기천한우도축직판장","tel":"070-4248-5419","addr":"경기도 광주시 중대동 28-187번지","category":"음료식품 - 정육점"}]},{"lat":"37.39320025","long":"127.2319776","items":[{"name":"깨돌이김밥","tel":"031-768-1125","addr":"경기도 광주시 중대동 17-10번지 1층","category":"일반휴게음식 - 스넥"},{"name":"본죽(태전점)","tel":"031-769-6252","addr":"경기도 광주시 중대동 17-10번지 1층","category":"일반휴게음식 - 일반한식"},{"name":"중앙당","tel":"031-764-1774","addr":"경기도 광주시 중대동 17-10번지","category":"신변잡화 - 시계"},{"name":"태성태권도체육관","tel":"031-702-4330","addr":"경기도 광주시 중대동 17-10번지","category":"학원 - 예·체능계학원"},{"name":"푸른동물병원","tel":"031-764-3033","addr":"경기도 광주시 중대동 17-10번지","category":"기타의료기관 - 동물병원"}]},{"lat":"37.40522574","long":"127.2240628","items":[{"name":"네비원16","tel":"031-763-4836","addr":"경기도 광주시 중대동 163-1번지","category":"자동차정비 유지 - 자동차부품"},{"name":"종합가구점","tel":"031-761-7877","addr":"경기도 광주시 중대동 163-1번지","category":"가구 - 일반가구"}]},{"lat":"37.39353226","long":"127.2326787","items":[{"name":"노랑통닭","tel":"031-0000-0000","addr":"경기도 광주시 중대동 16-80번지 태전빌딩 1층 104호","category":"일반휴게음식 - 스넥"},{"name":"노아스아크미술학원","tel":"070-4038-8757","addr":"경기도 광주시 중대동 16-80번지 태전빌딩 4층 402호","category":"학원 - 예·체능계학원"},{"name":"맘스터치","tel":"031-763-6250","addr":"경기도 광주시 중대동 16-80번지 1층","category":"일반휴게음식 - 서양음식"},{"name":"뮤엠영어태전학원","tel":"031-699-7905","addr":"경기도 광주시 중대동 16-80번지 태전빌딩 4층","category":"학원 - 외국어학원"},{"name":"생각하는1학원","tel":"031-762-2921","addr":"경기도 광주시 중대동 16-80번지 태전빌딩 3층","category":"학원 - 보습학원"},{"name":"중화요리청하이","tel":"031-763-2890","addr":"경기도 광주시 중대동 16-80번지 태전빌딩 1층","category":"일반휴게음식 - 중국식"},{"name":"헤어스케치","tel":"031-1111-1111","addr":"경기도 광주시 중대동 16-80번지 태전빌딩 2층","category":"보건위생 - 미용원"},{"name":"현대음악학원","tel":"031-798-0906","addr":"경기도 광주시 중대동 16-80번지 태전빌딩 2층 202호","category":"학원 - 예·체능계학원"}]},{"lat":"37.3933895","long":"127.2319556","items":[{"name":"놀이터","tel":"031-352-4257","addr":"경기도 광주시 중대동 16-52번지 1층","category":"의류 - 정장"},{"name":"레이나 헤어 샬롱","tel":"02-764-7316","addr":"경기도 광주시 중대동 16-52번지","category":"보건위생 - 미용원"},{"name":"피터팬서점","tel":"031-766-9613","addr":"경기도 광주시 중대동 16-52번지 2","category":"서적문구 - 일반서적"}]},{"lat":"37.39381348","long":"127.2316971","items":[{"name":"닛시헤어","tel":"031-768-6325","addr":"경기도 광주시 중대동 16-85번지 금영파크","category":"보건위생 - 미용원"}]},{"lat":"37.4071433","long":"127.2150891","items":[{"name":"대상푸드","tel":"031-764-7963","addr":"경기도 광주시 중대동 211-3번지 1층","category":"음료식품 - 정육점"}]},{"lat":"37.39983648","long":"127.2247246","items":[{"name":"대성유니폼","tel":"031-798-9022","addr":"경기도 광주시 중대동 142-6번지 1 2층","category":"의류 - 기타의류"}]},{"lat":"37.39533299","long":"127.2333392","items":[{"name":"대성철재","tel":"031-761-0047","addr":"경기도 광주시 중대동 28-48번지","category":"건축자재 - 목재·석재·철물"}]},{"lat":"37.40494935","long":"127.2125642","items":[{"name":"대진골프","tel":"031-797-6011","addr":"경기도 광주시 중대동 260-3번지","category":"레저업소 - 골프연습장"},{"name":"아비엘헤어&네일","tel":"","addr":"경기도 광주시 중대동 260-3번지","category":"보건위생 - 미용원"},{"name":"이마트24 광주중대로드점","tel":"","addr":"경기도 광주시 중대동 260-3번지","category":"유통업 영리 - 편 의 점"},{"name":"이마트24 광주중대로드점","tel":"031-111-1111","addr":"경기도 광주시 중대동 260-3번지","category":"유통업 영리 - 편 의 점"},{"name":"하영","tel":"031-928-4567","addr":"경기도 광주시 중대동 260-3번지 외 1필지","category":"건축자재 - 인테리어전문"},{"name":"한사랑스튜디오","tel":"031-761-8815","addr":"경기도 광주시 중대동 260-3번지","category":"광학제품 - 사진관"}]},{"lat":"37.40275225","long":"127.2217628","items":[{"name":"더캠트사업본부","tel":"","addr":"경기도 광주시 중대동 107-22번지 3층","category":"서적문구 - 완구점"},{"name":"더캠트사업본부","tel":"070-4103-6359","addr":"경기도 광주시 중대동 107-22번지 3층","category":"서적문구 - 완구점"}]},{"lat":"37.40950263","long":"127.2158186","items":[{"name":"더트라이앵글스튜디오","tel":"031-797-8380","addr":"경기도 광주시 중대동 195-45번지","category":"광학제품 - 사진관"}]},{"lat":"37.40652808","long":"127.2114505","items":[{"name":"동양이엔씨","tel":"031-797-6868","addr":"경기도 광주시 중대동 286-6번지 101호","category":"건축자재 - 기타건축자재"}]},{"lat":"37.39678523","long":"127.232508","items":[{"name":"두원유통","tel":"031-798-8881","addr":"경기도 광주시 중대동 2-27번지","category":"음료식품 - 기타음료식품"},{"name":"장지리사골순대국","tel":"070-7469-3017","addr":"경기도 광주시 중대동 2-27번지","category":"일반휴게음식 - 일반한식"}]},{"lat":"37.39636213","long":"127.2323147","items":[{"name":"두진금속철강","tel":"031-769-8814","addr":"경기도 광주시 중대동 6번지","category":"건축자재 - 목재·석재·철물"},{"name":"주식회사 한성전기","tel":"031-798-0285","addr":"경기도 광주시 중대동 6번지","category":"전기제품 - 기타전기제품"}]},{"lat":"37.40141873","long":"127.2217816","items":[{"name":"둔내막국수","tel":"031-762-2022","addr":"경기도 광주시 중대동 105-1","category":"일반휴게음식 - 일반한식"},{"name":"부어치킨","tel":"031-766-9941","addr":"경기도 광주시 중대동 105-1번지","category":"일반휴게음식 - 일반한식"},{"name":"성주자동차3급공업사","tel":"","addr":"경기도 광주시 중대동 105-1번지","category":"자동차정비 유지 - 자동차정비"},{"name":"씨유광주물빛공원점","tel":"031-761-1993","addr":"경기도 광주시 중대동 105-1번지 가동 1층 5호","category":"유통업 영리 - 편 의 점"}]},{"lat":"37.40681062","long":"127.2147041","items":[{"name":"디셈그린코리아","tel":"031-767-1920","addr":"경기도 광주시 중대동 211-6번지","category":"용역 서비스 - 종합용역"},{"name":"디셈그린코리아","tel":"031-767-1920","addr":"경기도 광주시 중대동 211-6번지","category":"용역 서비스 - 종합용역"},{"name":"옥돌식당","tel":"031-761-6447","addr":"경기도 광주시 중대동 211-6번지","category":"일반휴게음식 - 일반한식"}]},{"lat":"37.40228306","long":"127.2221229","items":[{"name":"디케이바이오(DKBIO)","tel":"031-000-0000","addr":"경기도 광주시 중대동 107-32번지 JD하우스 E동 1층 104호","category":"서적문구 - 과학기자재"},{"name":"맥스랩바이오","tel":"031-000-0000","addr":"경기도 광주시 중대동 107-32번지 JD하우스 E동 104호","category":"서적문구 - 과학기자재"}]},{"lat":"37.40364324","long":"127.2123686","items":[{"name":"러벤코티","tel":"031-797-1977","addr":"경기도 광주시 중대동 251-1번지","category":"일반휴게음식 - 서양음식"},{"name":"러벤코티 쿠친","tel":"031-7538-3012","addr":"경기도 광주시 중대동 251-1번지","category":"일반휴게음식 - 일반한식"},{"name":"세차는 김세차","tel":"070-4248-6131","addr":"경기도 광주시 중대동 251-1번지","category":"자동차정비 유지 - 세차장"},{"name":"조광야외골프존","tel":"031-761-5555","addr":"경기도 광주시 중대동 251-1번지 3층","category":"레저업소 - 스크린골프"},{"name":"조광컨트리(골프연습장)","tel":"031-763-5977","addr":"경기도 광주시 중대동 251-1번지","category":"레저업소 - 골프연습장"},{"name":"조광푸드(Food)","tel":"","addr":"경기도 광주시 중대동 251-1번지","category":"일반휴게음식 - 일반한식"}]},{"lat":"37.40295092","long":"127.2263376","items":[{"name":"레미디 코스메틱","tel":"031-731-8846","addr":"경기도 광주시 중대동 157-2번지 나동","category":"보건위생 - 미용재료"}]},{"lat":"37.40591715","long":"127.2104548","items":[{"name":"루미즈커튼,침구","tel":"031-763-9665","addr":"경기도 광주시 중대동 268-5번지","category":"직물 - 카페트,커튼,천막,지물"},{"name":"명품스크린골프","tel":"031-768-9595","addr":"경기도 광주시 중대동 268-5번지 2층","category":"레저업소 - 스크린골프"}]},{"lat":"37.39639558","long":"127.2336474","items":[{"name":"루어팩토리(Lure Factory)","tel":"031-765-8555","addr":"경기도 광주시 중대동 11번지","category":"레져용품 - 스포츠·레져용품"},{"name":"성원천막기업","tel":"031-763-6777","addr":"경기도 광주시 중대동 11번지","category":"직물 - 카페트,커튼,천막,지물"},{"name":"양평해장국","tel":"031-762-1076","addr":"경기도 광주시 중대동 11번지","category":"일반휴게음식 - 일반한식"},{"name":"음성칼국수","tel":"031-763-9515","addr":"경기도 광주시 중대동 11번지","category":"일반휴게음식 - 일반한식"},{"name":"카플러스","tel":"031-769-5583","addr":"경기도 광주시 중대동 11번지","category":"자동차정비 유지 - 자동차부품"}]},{"lat":"37.40464091","long":"127.2236206","items":[{"name":"리코갤러리","tel":"031-764-4407","addr":"경기도 광주시 중대동 163-2번지 (163-9,163-10)","category":"가구 - 일반가구"}]},{"lat":"37.3935047","long":"127.2329497","items":[{"name":"마구로사시미","tel":"031-764-5818","addr":"경기도 광주시 중대동 16-74번지 위너스빌딩 103호","category":"일반휴게음식 - 일식·회집"},{"name":"미소고운치과","tel":"031-769-8828","addr":"경기도 광주시 중대동 16-74번지 2층","category":"의원 - 치과의원"},{"name":"삼성정보","tel":"031-789-3545","addr":"경기도 광주시 중대동 16-74번지 위너스빌딩 1층","category":"사무통신 - 통신기기"},{"name":"아이웰빙의원","tel":"031-797-0306","addr":"경기도 광주시 중대동 16-74번지","category":"의원 - 의원"},{"name":"자연약국","tel":"031-797-9975","addr":"경기도 광주시 중대동 16-74번지","category":"약국 - 약국"},{"name":"쭈꾸미아저씨","tel":"031-766-2247","addr":"경기도 광주시 중대동 16-74번지","category":"일반휴게음식 - 일반한식"},{"name":"파리바게트(중대점)","tel":"031-766-7711","addr":"경기도 광주시 중대동 16-74번지","category":"음료식품 - 제과점"},{"name":"필 노래연습장(중대동점)","tel":"031-797-9474","addr":"경기도 광주시 중대동 16-74번지 3층","category":"레저업소 - 노 래 방"},{"name":"현대당구장","tel":"031-763-0719","addr":"경기도 광주시 중대동 16-74번지","category":"레저업소 - 당 구 장"}]},{"lat":"37.40255809","long":"127.2195599","items":[{"name":"마이스터심슨부대찌개","tel":"031-761-0880","addr":"경기도 광주시 중대동 178-10번지","category":"일반휴게음식 - 일반한식"}]},{"lat":"37.39903457","long":"127.2247335","items":[{"name":"맥스윈","tel":"031-761-6766","addr":"경기도 광주시 중대동 67-1번지","category":"주방용구 - 주방용구"}]},{"lat":"37.39353469","long":"127.2314252","items":[{"name":"맨투맨 신보배 보습학원","tel":"031-767-1258","addr":"경기도 광주시 중대동 16-58번지 2층","category":"학원 - 보습학원"},{"name":"제인의식탁","tel":"031-761-1663","addr":"경기도 광주시 중대동 16-58번지","category":"음료식품 - 기타음료식품"},{"name":"해동검도","tel":"031-768-5255","addr":"경기도 광주시 중대동 16-58번지","category":"학원 - 예·체능계학원"}]},{"lat":"37.40428181","long":"127.2229193","items":[{"name":"메종디자인","tel":"031-761-4465","addr":"경기도 광주시 중대동 169-3","category":"가구 - 일반가구"}]},{"lat":"37.41002551","long":"127.2156507","items":[{"name":"명성자판기","tel":"031-762-2880","addr":"경기도 광주시 중대동 197-78번지 전원그린빌","category":"음료식품 - 기타음료식품"}]},{"lat":"37.40450205","long":"127.2158158","items":[{"name":"명인상사","tel":"031-768-7494","addr":"경기도 광주시 중대동 217-10번지","category":"자동차정비 유지 - 자동차부품"},{"name":"성남냉동","tel":"031-764-6884","addr":"경기도 광주시 중대동 217-10번지","category":"전기제품 - 냉열기기"},{"name":"우리편의점","tel":"031-764-4188","addr":"경기도 광주시 중대동 217-10번지 부영빌딩 1층 101호","category":"유통업 영리 - 편 의 점"},{"name":"황실가구아울렛 장수구들돌침대","tel":"031-765-0583","addr":"경기도 광주시 중대동 217-10번지","category":"가구 - 일반가구"}]},{"lat":"37.41089163","long":"127.2150093","items":[{"name":"명인에어컨","tel":"","addr":"경기도 광주시 중대동 197-5번지 굿모닝빌","category":"용역 서비스 - 기타용역서비스"}]},{"lat":"37.40305593","long":"127.2231981","items":[{"name":"모이비엔","tel":"031-764-1149","addr":"경기도 광주시 중대동 159번지 4층","category":"의류 - 정장"}]},{"lat":"37.40811728","long":"127.2145949","items":[{"name":"모터스K","tel":"070-7778-6020","addr":"경기도 광주시 중대동 205-8번지 기아자동차 부품대리점 분당상사","category":"자동차정비 유지 - 자동차부품"}]},{"lat":"37.40222496","long":"127.2194234","items":[{"name":"미관김치만두","tel":"031-762-1073","addr":"경기도 광주시 중대동 98-7번지","category":"일반휴게음식 - 일반한식"}]},{"lat":"37.39358671","long":"127.2324756","items":[{"name":"미궁365","tel":"031-766-8251","addr":"경기도 광주시 중대동 16-106번지","category":"보건위생 - 화장품"},{"name":"아리아에스테틱","tel":"031-764-3220","addr":"경기도 광주시 중대동 16-106번지","category":"회원제형태 - 기타4"},{"name":"유경할인마트","tel":"","addr":"경기도 광주시 중대동 16-106번지 101호","category":"음료식품 - 기타음료식품"},{"name":"전통맛집할매순대국","tel":"","addr":"경기도 광주시 중대동 16-106번지","category":"일반휴게음식 - 일반한식"}]},{"lat":"37.39387641","long":"127.2317651","items":[{"name":"바르라","tel":"031-761-9935","addr":"경기도 광주시 중대동 16-85번지 금영파크 101동 101호","category":"보건위생 - 피부미용실"}]},{"lat":"37.40263967","long":"127.2192891","items":[{"name":"바리스타심슨","tel":"031-798-0880","addr":"경기도 광주시 중대동 178-7번지 1층","category":"일반휴게음식 - 서양음식"},{"name":"주식회사경원압축기","tel":"031-764-8114","addr":"경기도 광주시 중대동 178-7번지","category":"기타 - 기계공구"}]},{"lat":"37.40844821","long":"127.2159512","items":[{"name":"반디컴패키지","tel":"02-2285-1911","addr":"경기도 광주시 중대동 210-21번지","category":"서적문구 - 출판 및 인쇄물"},{"name":"아트프레스","tel":"","addr":"경기도 광주시 중대동 210-21번지 302호","category":"광학제품 - 사진관"}]},{"lat":"37.39330745","long":"127.2324522","items":[{"name":"베스킨라빈스광주태점점","tel":"031-761-5720","addr":"경기도 광주시 중대동 16-77번지","category":"음료식품 - 제과점"},{"name":"이디야 중대점","tel":"031-798-3210","addr":"경기도 광주시 중대동 16-77번지 1층","category":"일반휴게음식 - 서양음식"},{"name":"제일전파사","tel":"031-767-5069","addr":"경기도 광주시 중대동 16-77번지","category":"전기제품 - 기타전기제품"},{"name":"태전한의원","tel":"031-766-5656","addr":"경기도 광주시 중대동 16-77번지","category":"의원 - 한의원"}]},{"lat":"37.41083921","long":"127.2140942","items":[{"name":"보주아","tel":"031-715-9256","addr":"경기도 광주시 중대동 197-9번지 힐스크라운 101동 4층 402호","category":"보건위생 - 화장품"}]},{"lat":"37.40283202","long":"127.2224746","items":[{"name":"브라운패밀리","tel":"031-769-9996","addr":"경기도 광주시 중대동 108번지","category":"가구 - 일반가구"},{"name":"주식회사 올스케일","tel":"031-798-4000","addr":"경기도 광주시 중대동 108번지","category":"전기제품 - 기타전기제품"}]},{"lat":"37.40786223","long":"127.2058971","items":[{"name":"비엔비인스트루먼트","tel":"031-798-7185","addr":"경기도 광주시 중대동 300번지 2층","category":"전기제품 - 기타전기제품"}]},{"lat":"37.39317365","long":"127.2317516","items":[{"name":"빽다방 광주태전점","tel":"031-797-9721","addr":"경기도 광주시 중대동 17-12번지 1층","category":"일반휴게음식 - 서양음식"},{"name":"이지수학학원","tel":"031-764-4520","addr":"경기도 광주시 중대동 17-12번지 2층","category":"학원 - 보습학원"},{"name":"태양정보통신","tel":"031-797-7335","addr":"경기도 광주시 중대동 17-12번지 상가 1층","category":"사무통신 - 통신기기"},{"name":"하나스튜디오","tel":"031-767-1995","addr":"경기도 광주시 중대동 17-12번지","category":"광학제품 - 사진관"}]},{"lat":"37.40669503","long":"127.2138454","items":[{"name":"뽀록당구장","tel":"","addr":"경기도 광주시 중대동 214-7번지 1동 2층","category":"레저업소 - 당 구 장"},{"name":"텃골길","tel":"031-703-2331","addr":"경기도 광주시 중대동 214-7번지","category":"일반휴게음식 - 일반한식"}]},{"lat":"37.40414115","long":"127.2110372","items":[{"name":"사사키지앤에프 (주)","tel":"031-767-2118","addr":"경기도 광주시 중대동 255-3번지 조광에코빌 1층","category":"레져용품 - 골프용품 전문점"}]},{"lat":"37.40270156","long":"127.2247895","items":[{"name":"삼성종합목재","tel":"031-766-6240","addr":"경기도 광주시 중대동 109-1번지","category":"건축자재 - 목재·석재·철물"}]},{"lat":"37.39708262","long":"127.2277883","items":[{"name":"삼우정밀기계","tel":"031-763-3556","addr":"경기도 광주시 중대동 44번지","category":"기타 - 기계공구"}]},{"lat":"37.4061703","long":"127.2099586","items":[{"name":"서정골프","tel":"031-762-0056","addr":"경기도 광주시 중대동 268-10번지","category":"레저업소 - 스크린골프"},{"name":"성도종합상사","tel":"031-763-1164","addr":"경기도 광주시 중대동 268-10번지","category":"용역 서비스 - 기타용역서비스"},{"name":"엘림카정비센타","tel":"031-797-0509","addr":"경기도 광주시 중대동 268-10번지","category":"자동차정비 유지 - 자동차정비"},{"name":"참행복한약국","tel":"031-798-3368","addr":"경기도 광주시 중대동 268-10번지","category":"약국 - 약국"}]},{"lat":"37.40441644","long":"127.2232021","items":[{"name":"선광","tel":"031-761-8000","addr":"경기도 광주시 중대동 168번지","category":"일반휴게음식 - 일반한식"}]},{"lat":"37.40427717","long":"127.2205588","items":[{"name":"성령교회","tel":"031-775-0096","addr":"경기도 광주시 중대동 184번지","category":"회원제형태 - 기타4"}]},{"lat":"37.40858165","long":"127.2067009","items":[{"name":"성림상사","tel":"031-763-4644","addr":"경기도 광주시 중대동 297-4번지","category":"건축자재 - 기타건축자재"}]},{"lat":"37.39808622","long":"127.2259504","items":[{"name":"성일카센타","tel":"031-765-1472","addr":"경기도 광주시 중대동 62-3번지","category":"자동차정비 유지 - 자동차정비"},{"name":"예랑디자인","tel":"031-764-8062","addr":"경기도 광주시 중대동 62-3번지","category":"용역 서비스 - 종합용역"},{"name":"의정부부대찌게","tel":"031-761-8851","addr":"경기도 광주시 중대동 62-3번지","category":"일반휴게음식 - 일반한식"},{"name":"주식회사 비티엠","tel":"070-8888-8126","addr":"경기도 광주시 중대동 62-3번지 성일빌딩 2층","category":"보건위생 - 의료용품"}]},{"lat":"37.40375491","long":"127.2154297","items":[{"name":"성화에스티광주","tel":"031-766-7377","addr":"경기도 광주시 중대동 231-2번지 1층","category":"건축자재 - 기타건축자재"}]},{"lat":"37.40472274","long":"127.2232256","items":[{"name":"세르까노코리아 CERCANO Korea","tel":"070-7842-4408","addr":"경기도 광주시 중대동 166-1번지 101호","category":"레져용품 - 스포츠·레져용품"},{"name":"화산한우숯불갈비","tel":"031-798-2006","addr":"경기도 광주시 중대동 166-1번지","category":"일반휴게음식 - 일반한식"}]},{"lat":"37.40125359","long":"127.2233735","items":[{"name":"세우실업","tel":"031-764-5624","addr":"경기도 광주시 중대동 111번지","category":"기타 - 기타 전문점"}]},{"lat":"37.39939393","long":"127.225288","items":[{"name":"셀앤디","tel":"031-768-2882","addr":"경기도 광주시 중대동 65-6번지","category":"일반휴게음식 - 일반한식"}]},{"lat":"37.41072464","long":"127.2176745","items":[{"name":"소방관마술사","tel":"","addr":"경기도 광주시 중대동 195-54번지","category":"문화.취미 - 티켓"},{"name":"예인국악기","tel":"031-764-8332","addr":"경기도 광주시 중대동 195-54번지","category":"레져용품 - 악기점"}]},{"lat":"37.40683625","long":"127.2154835","items":[{"name":"스마일에듀","tel":"","addr":"경기도 광주시 중대동 211-68번지 201호","category":"서적문구 - 일반서적"}]},{"lat":"37.40466771","long":"127.2138736","items":[{"name":"신일알곤용접","tel":"031-763-7987","addr":"경기도 광주시 중대동 216-7번지","category":"용역 서비스 - 기타용역서비스"}]},{"lat":"37.39745199","long":"127.227812","items":[{"name":"씨유광주중대점","tel":"031-761-2939","addr":"경기도 광주시 중대동 48-5번지 1층","category":"유통업 영리 - 편 의 점"},{"name":"올레뜨&메카","tel":"031-769-3122","addr":"경기도 광주시 중대동 48-5번지 2층","category":"음료식품 - 기타음료식품"},{"name":"포이븐 골프피팅 센터","tel":"031-769-0879","addr":"경기도 광주시 중대동 48-5번지 B01호","category":"레져용품 - 골프용품 전문점"}]},{"lat":"37.39375008","long":"127.2318663","items":[{"name":"아라수학교습소","tel":"031-761-6162","addr":"경기도 광주시 중대동 16-117번지 금영파크 102동 101호","category":"학원 - 보습학원"}]},{"lat":"37.40125567","long":"127.2222554","items":[{"name":"아리카페","tel":"070-7701-9320","addr":"경기도 광주시 중대동 116-1번지","category":"일반휴게음식 - 서양음식"},{"name":"예가낙지마을","tel":"031-797-3991","addr":"경기도 광주시 중대동 116-1번지","category":"일반휴게음식 - 일반한식"},{"name":"이윤희버섯클럽","tel":"031-797-0222","addr":"경기도 광주시 중대동 116-1번지","category":"일반휴게음식 - 일반한식"}]},{"lat":"37.396118","long":"127.2327544","items":[{"name":"안산 스팀세차 굿짱","tel":"070-2699-0807","addr":"경기도 광주시 중대동 321-2번지","category":"자동차정비 유지 - 세차장"}]},{"lat":"37.39372925","long":"127.2333117","items":[{"name":"알프스동물병원","tel":"031-761-1600","addr":"경기도 광주시 중대동 28-77번지 107호","category":"기타의료기관 - 동물병원"}]},{"lat":"37.40377702","long":"127.2181516","items":[{"name":"에이스코퍼레이션","tel":"031-761-9411","addr":"경기도 광주시 중대동 224번지","category":"서적문구 - 완구점"}]},{"lat":"37.39739165","long":"127.2310868","items":[{"name":"영림하우징","tel":"031-798-1400","addr":"경기도 광주시 중대동 4-7번지","category":"건축자재 - 보일러·펌프·샷시"}]},{"lat":"37.39328267","long":"127.231289","items":[{"name":"예원미술학원","tel":"031-768-2546","addr":"경기도 광주시 중대동 16-79번지","category":"학원 - 예·체능계학원"},{"name":"한솔디자인","tel":"031-764-4611","addr":"경기도 광주시 중대동 16-79번지 1층","category":"건축자재 - 인테리어전문"}]},{"lat":"37.39391954","long":"127.232759","items":[{"name":"오토뱅크","tel":"031-765-2602","addr":"경기도 광주시 중대동 28-74번지","category":"자동차판매 - 이륜차판매"}]},{"lat":"37.39955538","long":"127.2256724","items":[{"name":"올리앤광주점","tel":"031-763-5125","addr":"경기도 광주시 중대동 148-3번지 영빌딩 1층","category":"일반휴게음식 - 서양음식"}]},{"lat":"37.40258858","long":"127.2225643","items":[{"name":"우리농산","tel":"","addr":"경기도 광주시 중대동 108-6번지 파인팰리스 201호","category":"음료식품 - 농·축·수산품"}]},{"lat":"37.39833576","long":"127.2273967","items":[{"name":"우리삼촌네에프앤피","tel":"031-719-7761","addr":"경기도 광주시 중대동 54-1번지","category":"음료식품 - 기타음료식품"},{"name":"주식회사사토담","tel":"070-4335-5440","addr":"경기도 광주시 중대동 54-1번지","category":"음료식품 - 기타음료식품"}]},{"lat":"37.40285991","long":"127.2220116","items":[{"name":"원목가구 영창피노키","tel":"031-797-4909","addr":"경기도 광주시 중대동 107-21번지 ,1,2층","category":"가구 - 일반가구"}]},{"lat":"37.40397275","long":"127.214538","items":[{"name":"월드금속철강","tel":"031-768-6617","addr":"경기도 광주시 중대동 233-12번지","category":"건축자재 - 기타건축자재"}]},{"lat":"37.4038047","long":"127.2177903","items":[{"name":"유일유통","tel":"","addr":"경기도 광주시 중대동 223번지","category":"의류 - 정장"}]},{"lat":"37.40414254","long":"127.2153178","items":[{"name":"이경진우렁쌈밥집","tel":"031-761-8868","addr":"경기도 광주시 중대동 218-1번지","category":"일반휴게음식 - 일반한식"}]},{"lat":"37.40239564","long":"127.2197063","items":[{"name":"이마트24 물빛공원점","tel":"031-1111-1111","addr":"경기도 광주시 중대동 98-1번지 1층","category":"유통업 영리 - 편 의 점"},{"name":"이마트24 물빛공원점","tel":"","addr":"경기도 광주시 중대동 98-1번지 1층","category":"유통업 영리 - 편 의 점"},{"name":"조가네 매칼 샤브칼국수","tel":"031-765-1117","addr":"경기도 광주시 중대동 98-1번지 1층","category":"일반휴게음식 - 일반한식"},{"name":"조가네갑오징어 중대물빛공원점","tel":"031-764-3137","addr":"경기도 광주시 중대동 98-1번지 1층","category":"일반휴게음식 - 일반한식"},{"name":"조가네갑오징어 중대물빛공원점","tel":"031-764-3137","addr":"경기도 광주시 중대동 98-1번지 ,1,2층","category":"일반휴게음식 - 일반한식"}]},{"lat":"37.40327949","long":"127.2091487","items":[{"name":"인팩트 (InFact)","tel":"031-000-0000","addr":"경기도 광주시 중대동 255-32번지 조광에코빌","category":"서적문구 - 완구점"}]},{"lat":"37.40358238","long":"127.2161746","items":[{"name":"일월종합금속","tel":"031-798-3396","addr":"경기도 광주시 중대동 231-5번지 중대빌딩 106호","category":"기타 - 기계공구"},{"name":"주식회사 주안스텐비철","tel":"050-5858-7272","addr":"경기도 광주시 중대동 231-5번지 중대빌딩 105호","category":"건축자재 - 기타건축자재"}]},{"lat":"37.40361199","long":"127.2096466","items":[{"name":"자람에듀테인먼트","tel":"","addr":"경기도 광주시 중대동 255-15번지 조광에코빌","category":"서적문구 - 기타서적문구"}]},{"lat":"37.40102989","long":"127.2225371","items":[{"name":"장모님밥상","tel":"031-761-9228","addr":"경기도 광주시 중대동 115-2번지","category":"일반휴게음식 - 일반한식"}]},{"lat":"37.40806229","long":"127.2048246","items":[{"name":"장미한송이","tel":"031-797-0736","addr":"경기도 광주시 중대동 301번지 삼성하이빌","category":"문화.취미 - 화원"}]},{"lat":"37.40728323","long":"127.2072622","items":[{"name":"장수스텐","tel":"031-797-6367","addr":"경기도 광주시 중대동 280-10번지","category":"기타 - 기계공구"}]},{"lat":"37.40491714","long":"127.2103956","items":[{"name":"전진에스앤지상사","tel":"031-763-8446","addr":"경기도 광주시 중대동 272-7번지","category":"기타 - 기계공구"}]},{"lat":"37.40661285","long":"127.2144551","items":[{"name":"정미트","tel":"031-797-4485","addr":"경기도 광주시 중대동 211-12번지 1층","category":"음료식품 - 정육점"}]},{"lat":"37.40702676","long":"127.2147612","items":[{"name":"정현냉동ENG","tel":"031-753-6414","addr":"경기도 광주시 중대동 207-9번지","category":"전기제품 - 냉열기기"},{"name":"헤어센스","tel":"031-761-9581","addr":"경기도 광주시 중대동 207-9번지","category":"보건위생 - 미용원"}]},{"lat":"37.39911479","long":"127.2251968","items":[{"name":"주명상사","tel":"070-4232-5606","addr":"경기도 광주시 중대동 65-12번지","category":"전기제품 - 가전제품"}]},{"lat":"37.41074965","long":"127.213789","items":[{"name":"주식회사 명진에프앤비","tel":"031-798-7467","addr":"경기도 광주시 중대동 294-9번지","category":"음료식품 - 기타음료식품"}]},{"lat":"37.39830507","long":"127.224562","items":[{"name":"주식회사 월드","tel":"031-798-8851","addr":"경기도 광주시 중대동 75-5번지","category":"자동차정비 유지 - 자동차부품"},{"name":"현대냉동","tel":"031-769-3136","addr":"경기도 광주시 중대동 75-5번지","category":"전기제품 - 냉열기기"}]},{"lat":"37.40774844","long":"127.2091723","items":[{"name":"주식회사 하은애드","tel":"031-764-0509","addr":"경기도 광주시 중대동 290-17번지","category":"건축자재 - 인테리어전문"},{"name":"커피뷰(coffee view)","tel":"031-634-4942","addr":"경기도 광주시 중대동 290-17번지 1층 126호","category":"일반휴게음식 - 서양음식"}]},{"lat":"37.40211485","long":"127.2205073","items":[{"name":"주식회사신양산업","tel":"031-762-4206","addr":"경기도 광주시 중대동 99번지","category":"신변잡화 - 제화"}]},{"lat":"37.39764214","long":"127.2273156","items":[{"name":"중대자동차","tel":"031-699-1158","addr":"경기도 광주시 중대동 54-5번지","category":"자동차정비 유지 - 세차장"}]},{"lat":"37.40358421","long":"127.2201163","items":[{"name":"진우수도권영업소","tel":"031-769-4004","addr":"경기도 광주시 중대동 181-3번지","category":"수리서비스 - 기타수리서비스"}]},{"lat":"37.39364119","long":"127.2322612","items":[{"name":"창대피아노교습소","tel":"031-763-9129","addr":"경기도 광주시 중대동 16-49번지","category":"학원 - 예·체능계학원"}]},{"lat":"37.40316665","long":"127.2168737","items":[{"name":"천국장의사","tel":"031-769-4153","addr":"경기도 광주시 중대동 231-3번지","category":"용역 서비스 - 가례서비스업"}]},{"lat":"37.39849946","long":"127.2265954","items":[{"name":"천마공업사","tel":"031-602-9335","addr":"경기도 광주시 중대동 64-1번지","category":"자동차정비 유지 - 윤활유 전문 판매"}]},{"lat":"37.40178204","long":"127.2202014","items":[{"name":"청포도집","tel":"031-62-0447","addr":"경기도 광주시 중대동 98-6번지","category":"일반휴게음식 - 일반한식"},{"name":"피자머꼬싶닭","tel":"031-797-9980","addr":"경기도 광주시 중대동 98-6번지","category":"일반휴게음식 - 일반한식"}]},{"lat":"37.40071013","long":"127.2248966","items":[{"name":"체인지","tel":"032-769-8641","addr":"경기도 광주시 중대동 153-2번지 중앙파크힐 A동 102호","category":"건축자재 - 인테리어전문"}]},{"lat":"37.40206233","long":"127.2196714","items":[{"name":"카페에이치","tel":"031-766-7333","addr":"경기도 광주시 중대동 98-11번지 1층","category":"일반휴게음식 - 서양음식"}]},{"lat":"37.40111052","long":"127.2227858","items":[{"name":"카페크래프트","tel":"031-797-9785","addr":"경기도 광주시 중대동 115-1번지 1층","category":"일반휴게음식 - 일반한식"}]},{"lat":"37.39644399","long":"127.2319197","items":[{"name":"태흥주방","tel":"031-768-6444","addr":"경기도 광주시 중대동 6-6번지 1층","category":"주방용구 - 주방용식기"}]},{"lat":"37.40602561","long":"127.2102631","items":[{"name":"파트너가구","tel":"031-769-6012","addr":"경기도 광주시 중대동 268-27번지","category":"가구 - 일반가구"}]},{"lat":"37.40150038","long":"127.2214769","items":[{"name":"펫다방","tel":"031-769-1805","addr":"경기도 광주시 중대동 103-1번지 1층","category":"일반휴게음식 - 서양음식"},{"name":"황제능이버섯백숙","tel":"031-761-5289","addr":"경기도 광주시 중대동 103-1번지 2층","category":"일반휴게음식 - 일반한식"}]},{"lat":"37.40628121","long":"127.2134828","items":[{"name":"한국유통","tel":"070-8278-6375","addr":"경기도 광주시 중대동 214-2번지 1호","category":"유통업 영리 - 슈퍼마켓"}]},{"lat":"37.39689416","long":"127.2320904","items":[{"name":"한국종합주방","tel":"031-766-9685","addr":"경기도 광주시 중대동 2-24","category":"주방용구 - 주방용구"}]},{"lat":"37.40367313","long":"127.2158134","items":[{"name":"한도종합철강","tel":"031-762-3457","addr":"경기도 광주시 중대동 231-14번지","category":"건축자재 - 기타건축자재"}]},{"lat":"37.39802975","long":"127.2272264","items":[{"name":"한성카프라자","tel":"031-797-9602","addr":"경기도 광주시 중대동 54-8번지","category":"자동차정비 유지 - 자동차정비"}]},{"lat":"37.4069755","long":"127.2080633","items":[{"name":"현대스텐","tel":"031-761-1746","addr":"경기도 광주시 중대동 280-4번지","category":"건축자재 - 목재·석재·철물"}]},{"lat":"37.3987003","long":"127.2252069","items":[{"name":"화로생각","tel":"031-767-1467","addr":"경기도 광주시 중대동 65-10번지 2층","category":"일반휴게음식 - 일반한식"}]},{"lat":"37.3970011","long":"127.2327006","items":[{"name":"황도리","tel":"031-769-8800","addr":"경기도 광주시 중대동 2-14번지","category":"일반휴게음식 - 일반한식"}]}]