[{"lat":"37.242714102","long":"127.03061806","items":[{"name":"(광난다)","tel":"070-0000-0000","addr":"경기도 수원시 권선구 곡반정동 529-3번지 1층 102호","category":"의류 - 정장"},{"name":"빛난다","tel":"070-4786-7820","addr":"경기도 수원시 권선구 곡반정동 529-3번지 101호","category":"의류 - 정장"}]},{"lat":"37.240380382","long":"127.03080879","items":[{"name":"(사)한국소기업소상공인연합경기수원시지회","tel":"031-223-9797","addr":"경기도 수원시 권선구 곡반정동 549-1번지 201호","category":"기타 - 비영리/비대상"},{"name":"리틀잡스 곡반아이폰수리 사설센터","tel":"031-239-1236","addr":"경기도 수원시 권선구 곡반정동 549-1번지 104호","category":"수리서비스 - 사무·통신기기수리"},{"name":"멜로우 경기남부","tel":"","addr":"경기도 수원시 권선구 곡반정동 549-1번지 1층 104호","category":"보건위생 - 화장품"},{"name":"본가청기와감자탕","tel":"031-225-4477","addr":"경기도 수원시 권선구 곡반정동 549-1번지 1층","category":"일반휴게음식 - 일반한식"},{"name":"주식회사나노정보통신","tel":"031-232-3696","addr":"경기도 수원시 권선구 곡반정동 549-1번지 203호","category":"용역 서비스 - 기타용역서비스"},{"name":"지해로타리클럽","tel":"031-222-7676","addr":"경기도 수원시 권선구 곡반정동 549-1번지 2층","category":"기타 - 비영리/대상"},{"name":"헤어바이(by)제이","tel":"031-307-1008","addr":"경기도 수원시 권선구 곡반정동 549-1번지","category":"보건위생 - 미용원"}]},{"lat":"37.23593937","long":"127.02575853","items":[{"name":"(주)  미디어토마토","tel":"031-234-2547","addr":"경기도 수원시 권선구 곡반정동 582-1번지 4층","category":"서적문구 - 정기간행물"},{"name":"eye-style안경","tel":"031-231-1123","addr":"경기도 수원시 권선구 곡반정동 582-1번지 101호","category":"보건위생 - 안경"},{"name":"샐영어전문어학원","tel":"031-231-9918","addr":"경기도 수원시 권선구 곡반정동 582-1번지 2층","category":"회원제형태 - 학원"}]},{"lat":"37.234128467","long":"127.02483393","items":[{"name":"(주) 벤트코리아","tel":"031-202-4800","addr":"경기도 수원시 권선구 곡반정동 590-7번지","category":"기타 - 기계공구"},{"name":"대상푸드시스템","tel":"","addr":"경기도 수원시 권선구 곡반정동 590-7번지 102호","category":"음료식품 - 기타음료식품"},{"name":"에스에이치테크(SH테크)","tel":"031-237-7203","addr":"경기도 수원시 권선구 곡반정동 590-7번지 101호","category":"용역 서비스 - 종합용역"}]},{"lat":"37.238101449","long":"127.0277539","items":[{"name":"(주)거성씨엔에스","tel":"031-237-5557","addr":"경기도 수원시 권선구 곡반정동 565-9번지","category":"회원제형태 - 기타4"},{"name":"쓰리에이","tel":"031-237-1303","addr":"경기도 수원시 권선구 곡반정동 565-9번지","category":"자동차정비 유지 - 자동차부품"},{"name":"튼튼동물병원","tel":"031-267-8100","addr":"경기도 수원시 권선구 곡반정동 565-9번지","category":"기타의료기관 - 동물병원"}]},{"lat":"37.240434304","long":"127.03139484","items":[{"name":"(주)곰엔터테인먼트","tel":"031-239-9179","addr":"경기도 수원시 권선구 곡반정동 544-12 다세대주택 101호","category":"용역 서비스 - 종합용역"},{"name":"(주)곰엔터테인먼트","tel":"070-4233-6020","addr":"경기도 수원시 권선구 곡반정동 544-12 다세대주택 101호","category":"음료식품 - 농·축·수산품"}]},{"lat":"37.244632351","long":"127.03441693","items":[{"name":"(주)대정","tel":"031-233-6257","addr":"경기도 수원시 권선구 곡반정동 511-9번지","category":"사무통신 - 사무용 OA기기"},{"name":"욜로와 미용실","tel":"","addr":"경기도 수원시 권선구 곡반정동 511-9번지 1층 104호","category":"보건위생 - 미용원"},{"name":"우람식당 권선점","tel":"031-223-0724","addr":"경기도 수원시 권선구 곡반정동 511-9번지 101호","category":"일반휴게음식 - 일반한식"},{"name":"우람식당 권선점","tel":"031-223-0724","addr":"경기도 수원시 권선구 곡반정동 511-9번지 101호","category":"일반휴게음식 - 일반한식"}]},{"lat":"37.23635317","long":"127.02902675","items":[{"name":"(주)벽운기업","tel":"02-701-5775","addr":"경기도 수원시 권선구 곡반정동 577-9번지 102호","category":"신변잡화 - 기타잡화"}]},{"lat":"37.234461833","long":"127.02492418","items":[{"name":"(주)신흥티아이엔","tel":"070-4107-1181","addr":"경기도 수원시 권선구 곡반정동 588-7번지 101호","category":"회원제형태 - 사무서비스"}]},{"lat":"37.242686873","long":"127.03145204","items":[{"name":"(주)에스에이치푸드한국전력경기지사식당","tel":"031-231-2900","addr":"경기도 수원시 권선구 곡반정동 530-4번지 201호","category":"일반휴게음식 - 위탁급식업"},{"name":"유성세탁","tel":"031-238-7778","addr":"경기도 수원시 권선구 곡반정동 530-4번지 101호","category":"수리서비스 - 세탁소"}]},{"lat":"37.239794437","long":"127.03194682","items":[{"name":"(주)에스피데이타","tel":"031-237-8725","addr":"경기도 수원시 권선구 곡반정동 550-6번지 극동빌딩 2층 201호","category":"회원제형태 - 기타4"},{"name":"돈내고웃소(돈내소식육)","tel":"031-898-8960","addr":"경기도 수원시 권선구 곡반정동 550-6번지 극동빌딩 1층 102호","category":"일반휴게음식 - 일반한식"},{"name":"우다돈 정육","tel":"031-898-8960","addr":"경기도 수원시 권선구 곡반정동 550-6번지 극동빌딩 1층 101호","category":"음료식품 - 정육점"}]},{"lat":"37.245605435","long":"127.03453004","items":[{"name":"(주)에이플러스렌트카","tel":"031-223-5533","addr":"경기도 수원시 권선구 곡반정동 506-4,506-5","category":"여행 - 렌터카"}]},{"lat":"37.239326155","long":"127.03088729","items":[{"name":"(주)착한골프여행사","tel":"031-222-5272","addr":"경기도 수원시 권선구 곡반정동 554-6번지 101호","category":"여행 - 관광여행"}]},{"lat":"37.242407348","long":"127.03228593","items":[{"name":"(주)청림나무종합병원","tel":"031-212-2582","addr":"경기도 수원시 권선구 곡반정동 531-4번지 103호","category":"건축자재 - 인테리어전문"},{"name":"경기카드체크기","tel":"031-255-7823","addr":"경기도 수원시 권선구 곡반정동 531-4번지","category":"사무통신 - 통신기기"},{"name":"꽃찬찜닭 권선점","tel":"031-236-1717","addr":"경기도 수원시 권선구 곡반정동 531-4번지","category":"일반휴게음식 - 일반한식"},{"name":"문전성시 수원점","tel":"031-223-2701","addr":"경기도 수원시 권선구 곡반정동 531-4번지 1층","category":"일반휴게음식 - 스넥"},{"name":"천지종합상사","tel":"","addr":"경기도 수원시 권선구 곡반정동 531-4번지 101호","category":"기타 - 기계공구"}]},{"lat":"37.23943407","long":"127.0317551","items":[{"name":"(주)태은조경","tel":"031-267-4935","addr":"경기도 수원시 권선구 곡반정동 551-3번지 2층","category":"건축자재 - 인테리어전문"},{"name":"바스토피아","tel":"","addr":"경기도 수원시 권선구 곡반정동 551-3번지 101호","category":"건축자재 - 건축용 요업제품"}]},{"lat":"37.233966145","long":"127.0255551","items":[{"name":"(주)프린트미디어텍","tel":"02-1833-5066","addr":"경기도 수원시 권선구 곡반정동 599-1번지 가동","category":"서적문구 - 출판 및 인쇄물"}]},{"lat":"37.23496646","long":"127.02466514","items":[{"name":"(주)현준미트","tel":"031-234-8225","addr":"경기도 수원시 권선구 곡반정동 588-1","category":"음료식품 - 정육점"},{"name":"다박스카케어","tel":"031-309-8141","addr":"경기도 수원시 권선구 곡반정동 588-1번지","category":"자동차정비 유지 - 세차장"}]},{"lat":"37.239218165","long":"127.03031249","items":[{"name":"1ST PC방","tel":"031-000-0000","addr":"경기도 수원시 권선구 곡반정동 556-1번지 4층","category":"레저업소 - 기타레져업소"},{"name":"노랑통닭(곡반정점)","tel":"031-226-9998","addr":"경기도 수원시 권선구 곡반정동 556-1번지 한양프라자 1층 101호","category":"일반휴게음식 - 스넥"},{"name":"산타페 노래연습장","tel":"031-223-5214","addr":"경기도 수원시 권선구 곡반정동 556-1번지 한양프라자 301호","category":"레저업소 - 노 래 방"},{"name":"아리엘언니","tel":"031-2944-0610","addr":"경기도 수원시 권선구 곡반정동 556-1번지 한양프라자 3층","category":"일반휴게음식 - 서양음식"},{"name":"응급실국물떡볶이 수원곡반정점","tel":"031-226-3334","addr":"경기도 수원시 권선구 곡반정동 556-1번지 한양프라자 102호","category":"일반휴게음식 - 스넥"},{"name":"헤어엘","tel":"031-235-8778","addr":"경기도 수원시 권선구 곡반정동 556-1번지 한양프라자","category":"보건위생 - 미용원"},{"name":"휘트니스클럽S","tel":"031-235-6400","addr":"경기도 수원시 권선구 곡반정동 556-1번지 ,5,6층","category":"레저업소 - 헬스클럽"}]},{"lat":"37.236939111","long":"127.02777605","items":[{"name":"59쌀피자","tel":"031-234-5944","addr":"경기도 수원시 권선구 곡반정동 578번지 현대아이파크 상가동 1층 104호","category":"일반휴게음식 - 서양음식"},{"name":"두꺼비부대찌개","tel":"031-234-2346","addr":"경기도 수원시 권선구 곡반정동 578번지 곡반정현대아이파크 상가동 1층 106호","category":"음료식품 - 기타음료식품"},{"name":"수원궁중떡","tel":"031-233-9039","addr":"경기도 수원시 권선구 곡반정동 578곡반정현대아이파크상가동102","category":"음료식품 - 제과점"},{"name":"현대세탁소","tel":"031-237-0880","addr":"경기도 수원시 권선구 곡반정동 578번지 곡반정현대아이파크 상가동 101호","category":"수리서비스 - 세탁소"}]},{"lat":"37.234884947","long":"127.02684005","items":[{"name":"65 퍼블릭하우스 (65 public House)","tel":"031-232-0090","addr":"경기도 수원시 권선구 곡반정동 593-2번지 102호","category":"일반휴게음식 - 서양음식"},{"name":"롯데리아 수원곡반정","tel":"031-231-1222","addr":"경기도 수원시 권선구 곡반정동 593-2번지 102호","category":"일반휴게음식 - 서양음식"},{"name":"썬노래연습장","tel":"031-239-1088","addr":"경기도 수원시 권선구 곡반정동 593-2,593-3 3층","category":"레저업소 - 노 래 방"},{"name":"용스짐(Yong''s gym)","tel":"031-222-0889","addr":"경기도 수원시 권선구 곡반정동 593-2번지 202호","category":"레저업소 - 헬스클럽"}]},{"lat":"37.239299418","long":"127.0296138","items":[{"name":"7days슈가링(세븐데이즈슈가링)","tel":"031-274-1602","addr":"경기도 수원시 권선구 곡반정동 557-13번지 1층 101호","category":"보건위생 - 피부미용실"}]},{"lat":"37.238912196","long":"127.02861066","items":[{"name":"BMW노래연습장","tel":"031-223-5545","addr":"경기도 수원시 권선구 곡반정동 564-3번지 2층","category":"레저업소 - 노 래 방"},{"name":"디2 (D2)","tel":"031-239-9888","addr":"경기도 수원시 권선구 곡반정동 564-3번지","category":"일반휴게음식 - 주점"},{"name":"뷰티플러스","tel":"070-9144-5886","addr":"경기도 수원시 권선구 곡반정동 564-3번지 3층 1호","category":"보건위생 - 미용재료"}]},{"lat":"37.241939195","long":"127.03069666","items":[{"name":"CTM","tel":"031-225-0759","addr":"경기도 수원시 권선구 곡반정동 535-12번지 101호","category":"전기제품 - 기타전기제품"}]},{"lat":"37.2444882","long":"127.03436052","items":[{"name":"DDK모바일","tel":"031-221-1625","addr":"경기도 수원시 권선구 곡반정동 511-10번지 202호","category":"사무통신 - 통신기기"},{"name":"수원화성동탄하나로열쇠도장명함철물","tel":"031-893-1111","addr":"경기도 수원시 권선구 곡반정동 511-10번지 103호","category":"건축자재 - 목재·석재·철물"},{"name":"제신작명철학관","tel":"031-257-4578","addr":"경기도 수원시 권선구 곡반정동 511-10번지 1층 101호","category":"보건위생 - 기타대인서비스"}]},{"lat":"37.244434225","long":"127.03403365","items":[{"name":"GS25권선곡선점","tel":"","addr":"경기도 수원시 권선구 곡반정동 512-6번지 1층","category":"유통업 영리 - 편 의 점"}]},{"lat":"37.234074492","long":"127.02436062","items":[{"name":"GS25수원곡반정점","tel":"02-2006-2485","addr":"경기도 수원시 권선구 곡반정동 604-1번지","category":"유통업 영리 - 편 의 점"}]},{"lat":"37.234434602","long":"127.02597219","items":[{"name":"GS25힐하우스점","tel":"02-2006-2485","addr":"경기도 수원시 권선구 곡반정동 592-7번지","category":"유통업 영리 - 편 의 점"}]},{"lat":"37.234128677","long":"127.02367323","items":[{"name":"HJ오토스","tel":"031-8002-6828","addr":"경기도 수원시 권선구 곡반정동 603-13번지 101호","category":"전기제품 - 기타전기제품"}]},{"lat":"37.242046977","long":"127.03211674","items":[{"name":"IJ기획","tel":"070-7529-3407","addr":"경기도 수원시 권선구 곡반정동 533-4번지 101호","category":"용역 서비스 - 종합용역"}]},{"lat":"37.240875805","long":"127.03141755","items":[{"name":"JK시스템","tel":"031-236-3480","addr":"경기도 수원시 권선구 곡반정동 542-12번지 103호","category":"전기제품 - 가전제품"}]},{"lat":"37.243992704","long":"127.03408982","items":[{"name":"KDC수원곡반정점","tel":"031-225-0094","addr":"경기도 수원시 권선구 곡반정동 520-3번지 101호","category":"자동차정비 유지 - 카인테리어"},{"name":"새론(APS)","tel":"031-273-0771","addr":"경기도 수원시 권선구 곡반정동 520-3번지 1층","category":"자동차정비 유지 - 자동차부품"}]},{"lat":"37.234632951","long":"127.02534118","items":[{"name":"K마트","tel":"031-238-0457","addr":"경기도 수원시 권선구 곡반정동 587-8번지","category":"유통업 영리 - 슈퍼마켓"}]},{"lat":"37.23646136","long":"127.02872252","items":[{"name":"LG크레인","tel":"031-206-4682","addr":"경기도 수원시 권선구 곡반정동 577-11번지 1층","category":"기타 - 기계공구"},{"name":"건양크레인","tel":"031-237-0221","addr":"경기도 수원시 권선구 곡반정동 577-11번지 2층","category":"기타 - 기계공구"},{"name":"경기이동타워","tel":"031-224-4492","addr":"경기도 수원시 권선구 곡반정동 577-11번지","category":"기타 - 기계공구"},{"name":"경기크레인","tel":"","addr":"경기도 수원시 권선구 곡반정동 577-11번지","category":"기타 - 기계공구"},{"name":"남강크레인","tel":"031-111-1111","addr":"경기도 수원시 권선구 곡반정동 577-11번지","category":"기타 - 기계공구"},{"name":"뉴월드크레인","tel":"031-252-3474","addr":"경기도 수원시 권선구 곡반정동 577-11번지","category":"기타 - 기계공구"},{"name":"마루종합장식","tel":"031-257-7151","addr":"경기도 수원시 권선구 곡반정동 577-11번지","category":"건축자재 - 인테리어전문"},{"name":"서수원종합중기지게차","tel":"031-296-8882","addr":"경기도 수원시 권선구 곡반정동 577-11번지","category":"기타 - 기계공구"},{"name":"착한광어","tel":"031-224-2072","addr":"경기도 수원시 권선구 곡반정동 577-11번지 101호","category":"일반휴게음식 - 일식·회집"},{"name":"청산크레인","tel":"031-0000-0000","addr":"경기도 수원시 권선구 곡반정동 577-11번지","category":"기타 - 기계공구"}]},{"lat":"37.239209251","long":"127.02989551","items":[{"name":"MOONBAR(문바)","tel":"031-000-0000","addr":"경기도 수원시 권선구 곡반정동 557-11번지","category":"일반휴게음식 - 주점"},{"name":"원바디케어트레이닝","tel":"070-5031-0327","addr":"경기도 수원시 권선구 곡반정동 557-11번지 4층","category":"보건위생 - 기타대인서비스"},{"name":"짱","tel":"031-234-5596","addr":"경기도 수원시 권선구 곡반정동 557-11번지 2층","category":"레저업소 - 노 래 방"},{"name":"화성목장","tel":"031-222-4090","addr":"경기도 수원시 권선구 곡반정동 557-11번지 1층","category":"일반휴게음식 - 일반한식"}]},{"lat":"37.236884533","long":"127.03012007","items":[{"name":"OK25시(곡반정점)","tel":"031-234-8662","addr":"경기도 수원시 권선구 곡반정동 574-1번지 1층 101호","category":"유통업 영리 - 편 의 점"}]},{"lat":"37.233713724","long":"127.02623115","items":[{"name":"P&C","tel":"031-891-9445","addr":"경기도 수원시 권선구 곡반정동 598-5번지 1층","category":"사무통신 - 컴퓨터"}]},{"lat":"37.239659949","long":"127.02908425","items":[{"name":"SH사무가구","tel":"031-224-6273","addr":"경기도 수원시 권선구 곡반정동 557-3번지 1층","category":"가구 - 기타가구"}]},{"lat":"37.239046995","long":"127.03019973","items":[{"name":"SH정보통신","tel":"031-267-3339","addr":"경기도 수원시 권선구 곡반정동 556-2번지 109호","category":"사무통신 - 통신기기"},{"name":"맑은샘내과","tel":"031-000-0000","addr":"경기도 수원시 권선구 곡반정동 556-2번지 3층","category":"의원 - 의원"},{"name":"바디코치","tel":"070-4106-7497","addr":"경기도 수원시 권선구 곡반정동 556-2번지 하이디프라자 503호","category":"학원 - 예·체능계학원"},{"name":"밝은온누리약국","tel":"031-222-8692","addr":"경기도 수원시 권선구 곡반정동 556-2번지 1층","category":"약국 - 약국"},{"name":"쁘띠몽드 곡반정점","tel":"031-298-8525","addr":"경기도 수원시 권선구 곡반정동 556-2번지 601호","category":"레저업소 - 기타레져업소"},{"name":"엔젤S노래연습장","tel":"031-222-2554","addr":"경기도 수원시 권선구 곡반정동 556-2번지 5층 502호","category":"레저업소 - 노 래 방"},{"name":"이차돌 수원곡반정점","tel":"031-267-1134","addr":"경기도 수원시 권선구 곡반정동 556-2번지 하이디플라자 1층 102호","category":"일반휴게음식 - 일반한식"},{"name":"조마루감자탕","tel":"031-224-8334","addr":"경기도 수원시 권선구 곡반정동 556-2번지 2층","category":"일반휴게음식 - 일반한식"},{"name":"채상궁","tel":"031-225-1413","addr":"경기도 수원시 권선구 곡반정동 556-2번지 2층 202호","category":"일반휴게음식 - 일반한식"},{"name":"컴포즈커피","tel":"070-9168-9560","addr":"경기도 수원시 권선구 곡반정동 556-2번지 106호","category":"일반휴게음식 - 서양음식"},{"name":"콰트로","tel":"","addr":"경기도 수원시 권선구 곡반정동 556-2번지 4층","category":"레저업소 - 기타레져업소"},{"name":"크라운호프 곡반정점","tel":"031-111-1111","addr":"경기도 수원시 권선구 곡반정동 556-2번지 1층","category":"일반휴게음식 - 일반한식"},{"name":"헤어애반하다","tel":"031-224-1700","addr":"경기도 수원시 권선구 곡반정동 556-2번지 1층","category":"보건위생 - 미용원"},{"name":"홀인원스크린골프","tel":"031-234-0753","addr":"경기도 수원시 권선구 곡반정동 556-2번지 6층 602호","category":"레저업소 - 스크린골프"}]},{"lat":"37.239326627","long":"127.02881366","items":[{"name":"SUN동물병원","tel":"031-234-5550","addr":"경기도 수원시 권선구 곡반정동 558-2번지 101호","category":"기타의료기관 - 동물병원"},{"name":"만화카페통툰 곡반정점","tel":"031-222-4355","addr":"경기도 수원시 권선구 곡반정동 558-2번지 201호","category":"레저업소 - 기타레져업소"},{"name":"엠아이티수학학원","tel":"031-238-1555","addr":"경기도 수원시 권선구 곡반정동 558-2번지 301호","category":"학원 - 보습학원"}]},{"lat":"37.237578597","long":"127.02892575","items":[{"name":"S노래연습장","tel":"031-204-0910","addr":"경기도 수원시 권선구 곡반정동 570-14번지 5층","category":"레저업소 - 노 래 방"},{"name":"디케이(DK)안경","tel":"031-238-0101","addr":"경기도 수원시 권선구 곡반정동 570-14번지 현대프라자 103호 104호","category":"보건위생 - 안경"},{"name":"차이나홍","tel":"031-223-5214","addr":"경기도 수원시 권선구 곡반정동 570-14번지 201호","category":"신변잡화 - 기타잡화"},{"name":"최고집맛","tel":"03-123-1881","addr":"경기도 수원시 권선구 곡반정동 570-14번지 101호","category":"일반휴게음식 - 일반한식"},{"name":"한미체육관","tel":"031-235-1118","addr":"경기도 수원시 권선구 곡반정동 570-14번지 3층 301호","category":"레저업소 - 헬스클럽"},{"name":"핸섬가이","tel":"031-221-7906","addr":"경기도 수원시 권선구 곡반정동 570-14번지 102호","category":"보건위생 - 미용원"}]},{"lat":"37.236659377","long":"127.02966921","items":[{"name":"YK디자인","tel":"031-222-5244","addr":"경기도 수원시 권선구 곡반정동 576-10번지 해피빌 201호","category":"가구 - 기타가구"}]},{"lat":"37.244795121","long":"127.03214034","items":[{"name":"nail paris","tel":"","addr":"경기도 수원시 권선구 곡반정동 514-1번지 402호","category":"보건위생 - 화장품"},{"name":"제이네일","tel":"031-244-2315","addr":"경기도 수원시 권선구 곡반정동 514-1번지 1층","category":"보건위생 - 피부미용실"}]},{"lat":"37.244965687","long":"127.03458613","items":[{"name":"가라솔루션","tel":"031-224-1995","addr":"경기도 수원시 권선구 곡반정동 511-6번지 1층","category":"수리서비스 - 기타수리서비스"}]},{"lat":"37.236515161","long":"127.02989455","items":[{"name":"가람쇼파천갈이","tel":"031-298-3339","addr":"경기도 수원시 권선구 곡반정동 574-4번지 101호","category":"수리서비스 - 신변잡화수리"}]},{"lat":"37.234127867","long":"127.02786528","items":[{"name":"가람이네부대찌개","tel":"031-234-3235","addr":"경기도 수원시 권선구 곡반정동 596-21번지","category":"일반휴게음식 - 일반한식"}]},{"lat":"37.233821958","long":"127.02566774","items":[{"name":"가온상사","tel":"031-283-6630","addr":"경기도 수원시 권선구 곡반정동 599-2번지 1층","category":"자동차정비 유지 - 자동차부품"}]},{"lat":"37.235074542","long":"127.02489055","items":[{"name":"가온테크/원격지","tel":"","addr":"경기도 수원시 권선구 곡반정동 587-13번지 1층","category":"기타 - 기타 전문점"},{"name":"씨유수원곡선점","tel":"031-234-2405","addr":"경기도 수원시 권선구 곡반정동 587-13번지","category":"유통업 영리 - 편 의 점"},{"name":"테라시스템","tel":"031-241-7774","addr":"경기도 수원시 권선구 곡반정동 587-13번지 외1필지 1층","category":"사무통신 - 컴퓨터"}]},{"lat":"37.239272356","long":"127.02974903","items":[{"name":"가장맛있는족발곡반점","tel":"031-223-5849","addr":"경기도 수원시 권선구 곡반정동 557-12번지 코지프라자 101호","category":"일반휴게음식 - 일반한식"},{"name":"카페왈","tel":"031-239-4856","addr":"경기도 수원시 권선구 곡반정동 557-12번지 코지프라자 3층","category":"일반휴게음식 - 일반한식"},{"name":"해피로PC 수원곡반점","tel":"","addr":"경기도 수원시 권선구 곡반정동 557-12번지 코지프라자 2층","category":"레저업소 - 기타레져업소"}]},{"lat":"37.245047292","long":"127.03261381","items":[{"name":"간판나라샤인","tel":"031-212-2234","addr":"경기도 수원시 권선구 곡반정동 513-3번지 101 (101호~102호)","category":"용역 서비스 - 종합용역"},{"name":"예스컴퍼니 (Yes company)","tel":"031-8004-5505","addr":"경기도 수원시 권선구 곡반정동 513-3번지 한아름주택 201호","category":"용역 서비스 - 종합용역"}]},{"lat":"37.241993419","long":"127.02999793","items":[{"name":"감성헤어","tel":"031-225-2865","addr":"경기도 수원시 권선구 곡반정동 539-3번지","category":"보건위생 - 미용원"},{"name":"이슈","tel":"031-237-1025","addr":"경기도 수원시 권선구 곡반정동 539-3번지 102호","category":"의류 - 정장"},{"name":"이자경수학곡반학원","tel":"031-236-8558","addr":"경기도 수원시 권선구 곡반정동 539-3번지 4층","category":"학원 - 보습학원"}]},{"lat":"37.244073782","long":"127.0341462","items":[{"name":"강남농원","tel":"031-206-9119","addr":"경기도 수원시 권선구 곡반정동 520-2번지","category":"문화.취미 - 화원"},{"name":"카페다원","tel":"031-2024-3950","addr":"경기도 수원시 권선구 곡반정동 520-2번지 102호","category":"일반휴게음식 - 서양음식"}]},{"lat":"37.234578584","long":"127.02689629","items":[{"name":"거기포장마차","tel":"031-237-9996","addr":"경기도 수원시 권선구 곡반정동 594-1번지 1층","category":"일반휴게음식 - 일반한식"},{"name":"그레이스","tel":"070-4289-3520","addr":"경기도 수원시 권선구 곡반정동 594-1번지 305호","category":"신변잡화 - 액세서리"}]},{"lat":"37.234353857","long":"127.02411278","items":[{"name":"경기 종합 에어컨","tel":"","addr":"경기도 수원시 권선구 곡반정동 603-3번지 203호","category":"용역 서비스 - 기타용역서비스"},{"name":"더락","tel":"031-225-4441","addr":"경기도 수원시 권선구 곡반정동 603-3번지 101호","category":"건축자재 - 목재·석재·철물"},{"name":"서현스포츠기획","tel":"031-232-5502","addr":"경기도 수원시 권선구 곡반정동 603-3번지 101호","category":"레져용품 - 스포츠·레져용품"},{"name":"우리밴딩(Vending)","tel":"031-245-3278","addr":"경기도 수원시 권선구 곡반정동 603-3번지 1층","category":"음료식품 - 기타음료식품"}]},{"lat":"37.232488771","long":"127.023808","items":[{"name":"경기방앗간","tel":"031-237-7480","addr":"경기도 수원시 권선구 곡반정동 608-3번지","category":"음료식품 - 제과점"}]},{"lat":"37.236605252","long":"127.02995093","items":[{"name":"경기수원광교블랙박스출장","tel":"","addr":"경기도 수원시 권선구 곡반정동 574-3번지 204호","category":"자동차정비 유지 - 자동차부품"},{"name":"리드케어 수원점","tel":"","addr":"경기도 수원시 권선구 곡반정동 574-3번지 502호","category":"용역 서비스 - 종합용역"},{"name":"이반장","tel":"031-233-8892","addr":"경기도 수원시 권선구 곡반정동 574-3번지 101호","category":"일반휴게음식 - 일반한식"},{"name":"제이헤어","tel":"031-295-9540","addr":"경기도 수원시 권선구 곡반정동 574-3번지 102호","category":"보건위생 - 미용원"}]},{"lat":"37.23496607","long":"127.02669357","items":[{"name":"경기쿱버스협동조합","tel":"031-224-5007","addr":"경기도 수원시 권선구 곡반정동 593-1번지 2층 202호","category":"여행 - 관광여행"},{"name":"쌩얼미인","tel":"070-8116-0328","addr":"경기도 수원시 권선구 곡반정동 593-1번지 104호","category":"보건위생 - 화장품"},{"name":"씨에스로터리(CSrotary)","tel":"031-504-4403","addr":"경기도 수원시 권선구 곡반정동 593-1번지 502호","category":"보건위생 - 미용재료"},{"name":"컷트클럽","tel":"031-231-8957","addr":"경기도 수원시 권선구 곡반정동 593-1번지 105호","category":"보건위생 - 미용원"},{"name":"타임","tel":"031-111-1111","addr":"경기도 수원시 권선구 곡반정동 593-1번지 2층 201호","category":"일반휴게음식 - 주점"},{"name":"현도건업 주식회사","tel":"031-222-7904","addr":"경기도 수원시 권선구 곡반정동 593-1번지 302호","category":"용역 서비스 - 기타용역서비스"},{"name":"효성텔레콤","tel":"070-8736-7053","addr":"경기도 수원시 권선구 곡반정동 593-1번지 102호","category":"사무통신 - 통신기기"}]},{"lat":"37.23307403","long":"127.02602812","items":[{"name":"경기테크","tel":"031-232-0889","addr":"경기도 수원시 권선구 곡반정동 597-9번지","category":"건축자재 - 목재·석재·철물"}]},{"lat":"37.236605518","long":"127.02875638","items":[{"name":"경희대정도태권도","tel":"031-225-7940","addr":"경기도 수원시 권선구 곡반정동 577-1번지 4층","category":"학원 - 예·체능계학원"},{"name":"끌리오헤어","tel":"031-221-0275","addr":"경기도 수원시 권선구 곡반정동 577-1번지 광명빌딩 101호","category":"보건위생 - 미용원"},{"name":"장독대","tel":"031-222-9604","addr":"경기도 수원시 권선구 곡반정동 577-1번지 102호","category":"음료식품 - 기타음료식품"},{"name":"큰나무아트스쿨미술피아노학원","tel":"031-232-0789","addr":"경기도 수원시 권선구 곡반정동 577-1번지 3층","category":"학원 - 예·체능계학원"},{"name":"피자스쿨곡반정점","tel":"031-226-3993","addr":"경기도 수원시 권선구 곡반정동 577-1번지 1층","category":"일반휴게음식 - 서양음식"},{"name":"필스터디영수전문학원","tel":"031-8013-7609","addr":"경기도 수원시 권선구 곡반정동 577-1번지 광명빌딩 2층","category":"학원 - 보습학원"}]},{"lat":"37.23840776","long":"127.02794558","items":[{"name":"계동원찜닭","tel":"031-238-3618","addr":"경기도 수원시 권선구 곡반정동 565-6번지","category":"일반휴게음식 - 일반한식"}]},{"lat":"37.236407058","long":"127.02980436","items":[{"name":"고금도","tel":"031-234-3660","addr":"경기도 수원시 권선구 곡반정동 574-5번지 101호","category":"일반휴게음식 - 일반한식"},{"name":"봄나","tel":"031-233-5095","addr":"경기도 수원시 권선구 곡반정동 574-5번지 103호","category":"문화.취미 - 화원"}]},{"lat":"37.242434834","long":"127.03039255","items":[{"name":"고기굽는사람들","tel":"031-238-3357","addr":"경기도 수원시 권선구 곡반정동 529-6번지 101호","category":"일반휴게음식 - 일반한식"},{"name":"나무그림","tel":"070-4649-1101","addr":"경기도 수원시 권선구 곡반정동 529-6번지 102호","category":"일반휴게음식 - 일반한식"}]},{"lat":"37.23793887","long":"127.02955697","items":[{"name":"고기불패곡반점","tel":"031-224-9798","addr":"경기도 수원시 권선구 곡반정동 568-1번지 2층","category":"일반휴게음식 - 주점"},{"name":"발리","tel":"031-236-5532","addr":"경기도 수원시 권선구 곡반정동 568-1번지 3층","category":"레저업소 - 노 래 방"},{"name":"쭈꾸미여왕","tel":"031-225-2332","addr":"경기도 수원시 권선구 곡반정동 568-1번지 1층 101호","category":"일반휴게음식 - 일반한식"},{"name":"황소곱창","tel":"031-222-9298","addr":"경기도 수원시 권선구 곡반정동 568-1번지 102호","category":"일반휴게음식 - 일반한식"}]},{"lat":"37.240434502","long":"127.03056087","items":[{"name":"고스트","tel":"031-234-6835","addr":"경기도 수원시 권선구 곡반정동 547-7번지 1층 102호","category":"일반휴게음식 - 일반한식"},{"name":"블랙스완","tel":"031-222-9316","addr":"경기도 수원시 권선구 곡반정동 547-7번지 1층 101호","category":"보건위생 - 피부미용실"}]},{"lat":"37.238155093","long":"127.02966974","items":[{"name":"고향집","tel":"031-222-0503","addr":"경기도 수원시 권선구 곡반정동 567-14번지 103호","category":"일반휴게음식 - 일반한식"}]},{"lat":"37.243236551","long":"127.03124939","items":[{"name":"곡반럭셔리","tel":"031-226-3339","addr":"경기도 수원시 권선구 곡반정동 527-1번지 107호","category":"기타 - 기타 전문점"},{"name":"똥강아지","tel":"031-221-5236","addr":"경기도 수원시 권선구 곡반정동 527-1번지 105호","category":"문화.취미 - 애완동물"},{"name":"블리스네일(Bliss nail)","tel":"031-000-0000","addr":"경기도 수원시 권선구 곡반정동 527-1번지 1층 104호","category":"보건위생 - 피부미용실"},{"name":"엠(M)메이저","tel":"031-234-1223","addr":"경기도 수원시 권선구 곡반정동 527-1번지","category":"수리서비스 - 세탁소"}]},{"lat":"37.240659395","long":"127.0320824","items":[{"name":"곡반상회","tel":"031-222-8565","addr":"경기도 수원시 권선구 곡반정동 542-7번지 102호","category":"일반휴게음식 - 일반한식"},{"name":"쌤앤니헤어메종","tel":"031-233-2327","addr":"경기도 수원시 권선구 곡반정동 542-7번지 1층","category":"보건위생 - 미용원"}]},{"lat":"37.234551416","long":"127.02756116","items":[{"name":"곡반점핑다이어트","tel":"031-215-8208","addr":"경기도 수원시 권선구 곡반정동 593-8번지 2층 201호","category":"건강식품 - 기타건강식품"},{"name":"멍이냥이","tel":"070-8202-0503","addr":"경기도 수원시 권선구 곡반정동 593-8번지 2층","category":"문화.취미 - 애완동물"},{"name":"에스핏점핑다이어트(곡반정동)","tel":"031-8013-2643","addr":"경기도 수원시 권선구 곡반정동 593-8번지 201호","category":"건강식품 - 기타건강식품"}]},{"lat":"37.240542509","long":"127.03105679","items":[{"name":"곡반정동PT하우스","tel":"070-7198-4929","addr":"경기도 수원시 권선구 곡반정동 544-15번지 201호","category":"레저업소 - 헬스클럽"},{"name":"박주봉스포츠","tel":"031-232-8814","addr":"경기도 수원시 권선구 곡반정동 544-15번지 201호","category":"레져용품 - 스포츠·레져용품"},{"name":"제주흑돼지탐나석기","tel":"031-226-9225","addr":"경기도 수원시 권선구 곡반정동 544-15번지 101호","category":"일반휴게음식 - 일반한식"},{"name":"주식회사 피제이비플러스스포츠","tel":"","addr":"경기도 수원시 권선구 곡반정동 544-15번지 302호","category":"레져용품 - 스포츠·레져용품"}]},{"lat":"37.242822135","long":"127.03100128","items":[{"name":"곡반정생활용품","tel":"031-237-1519","addr":"경기도 수원시 권선구 곡반정동 530-1번지 103호","category":"신변잡화 - 기타잡화"}]},{"lat":"37.244046992","long":"127.03322202","items":[{"name":"곡반중학교","tel":"031-267-3142","addr":"경기도 수원시 권선구 곡반정동 519번지 곡반중학교","category":"학원 - 초중고교육기관"}]},{"lat":"37.23860564","long":"127.02953467","items":[{"name":"곡반짱노리터","tel":"","addr":"경기도 수원시 권선구 곡반정동 564-8번지 1층 103호","category":"신변잡화 - 기타잡화"},{"name":"맘스터치 곡반정점","tel":"031-222-3474","addr":"경기도 수원시 권선구 곡반정동 564-8번지 1층","category":"일반휴게음식 - 스넥"},{"name":"뮤직노래연습장","tel":"031-237-9887","addr":"경기도 수원시 권선구 곡반정동 564-8번지 5층","category":"레저업소 - 노 래 방"},{"name":"세븐일레븐곡반정중앙점","tel":"","addr":"경기도 수원시 권선구 곡반정동 564-8번지 102호","category":"유통업 영리 - 편 의 점"},{"name":"이지원필라테스 수원점","tel":"031-226-0781","addr":"경기도 수원시 권선구 곡반정동 564-8번지 6동","category":"레저업소 - 헬스클럽"},{"name":"하얀미소치과","tel":"031-222-7928","addr":"경기도 수원시 권선구 곡반정동 564-8번지 3층","category":"의원 - 치과의원"},{"name":"행복담은한의원","tel":"031-287-7575","addr":"경기도 수원시 권선구 곡반정동 564-8번지 4층","category":"의원 - 한의원"}]},{"lat":"37.235434706","long":"127.02619788","items":[{"name":"곡반킥복싱&주짓수","tel":"031-232-6482","addr":"경기도 수원시 권선구 곡반정동 584-4번지 3층","category":"레저업소 - 헬스클럽"},{"name":"교촌치킨곡반정점","tel":"031-236-4991","addr":"경기도 수원시 권선구 곡반정동 584-4번지 1층 102호","category":"일반휴게음식 - 스넥"},{"name":"빌러빗발레학원","tel":"031-237-5777","addr":"경기도 수원시 권선구 곡반정동 584-4번지 2층","category":"학원 - 예·체능계학원"},{"name":"썸투더낚실내낚시터","tel":"031-231-9934","addr":"경기도 수원시 권선구 곡반정동 584-4번지 지하1층","category":"레저업소 - 기타레져업소"}]},{"lat":"37.243019829","long":"127.03316525","items":[{"name":"곡선동주민자치위원회","tel":"031-228-6831","addr":"경기도 수원시 권선구 곡반정동 525번지","category":"문화.취미 - 문화취미기타"}]},{"lat":"37.238966299","long":"127.02841909","items":[{"name":"곡정태권도장","tel":"031-216-6363","addr":"경기도 수원시 권선구 곡반정동 564-2번지 2층","category":"학원 - 예·체능계학원"},{"name":"베스킨라빈스(곡반정점)","tel":"031-224-2525","addr":"경기도 수원시 권선구 곡반정동 564-2번지 1층","category":"음료식품 - 제과점"},{"name":"폴리파크곡반정점","tel":"031-223-4313","addr":"경기도 수원시 권선구 곡반정동 564-2번지 103호,104호","category":"문화.취미 - 애완동물"}]},{"lat":"37.232245421","long":"127.02420234","items":[{"name":"골드튜나","tel":"031-000-0000","addr":"경기도 수원시 권선구 곡반정동 607-2번지 1층 101호","category":"음료식품 - 농·축·수산품"}]},{"lat":"37.23312807","long":"127.02614082","items":[{"name":"골든24시셀프세차장","tel":"031-111-1111","addr":"경기도 수원시 권선구 곡반정동 597-8번지","category":"자동차정비 유지 - 세차장"}]},{"lat":"37.238353186","long":"127.03025583","items":[{"name":"골뱅이당장맛나","tel":"031-222-4470","addr":"경기도 수원시 권선구 곡반정동 563-3번지 101호","category":"일반휴게음식 - 일반한식"},{"name":"깡통구이","tel":"031-232-5035","addr":"경기도 수원시 권선구 곡반정동 563-3번지 102호","category":"일반휴게음식 - 일반한식"},{"name":"쓰레 (Tsure)","tel":"031-234-6126","addr":"경기도 수원시 권선구 곡반정동 563-3번지 3층","category":"일반휴게음식 - 주점"},{"name":"준 노래연습장","tel":"031-226-3531","addr":"경기도 수원시 권선구 곡반정동 563-3번지 2층","category":"레저업소 - 노 래 방"},{"name":"쿨핫(COOL&HOT)","tel":"","addr":"경기도 수원시 권선구 곡반정동 563-3번지 505호","category":"용역 서비스 - 기타용역서비스"}]},{"lat":"37.234767762","long":"127.02708793","items":[{"name":"곰돌이마트곡반정점","tel":"031-239-7719","addr":"경기도 수원시 권선구 곡반정동 593-4번지 1층 101호","category":"유통업 영리 - 슈퍼마켓"},{"name":"곰돌이슈퍼","tel":"031-763-7057","addr":"경기도 수원시 권선구 곡반정동 593-4번지","category":"유통업 영리 - 슈퍼마켓"},{"name":"탑플러스학원","tel":"031-226-1933","addr":"경기도 수원시 권선구 곡반정동 593-4번지 2층","category":"학원 - 보습학원"}]},{"lat":"37.238047063","long":"127.02925273","items":[{"name":"곱창고","tel":"031-225-0792","addr":"경기도 수원시 권선구 곡반정동 569-8번지 1층","category":"일반휴게음식 - 일반한식"},{"name":"씨유곡반정소망점","tel":"032-662-3086","addr":"경기도 수원시 권선구 곡반정동 569-8번지 한아름빌딩 1층 101호","category":"유통업 영리 - 편 의 점"}]},{"lat":"37.235128365","long":"127.02614144","items":[{"name":"공가네","tel":"031-237-3392","addr":"경기도 수원시 권선구 곡반정동 585-6번지","category":"일반휴게음식 - 일반한식"}]},{"lat":"37.242245038","long":"127.03278176","items":[{"name":"공룡국수","tel":"031-226-4025","addr":"경기도 수원시 권선구 곡반정동 531-8번지 1층 102호우측","category":"일반휴게음식 - 스넥"},{"name":"법무사 성동길","tel":"031-235-9331","addr":"경기도 수원시 권선구 곡반정동 531-8번지 201호","category":"용역 서비스 - 법률회계서비스(개인)"},{"name":"카케어폴리싱(CP)","tel":"031-234-6345","addr":"경기도 수원시 권선구 곡반정동 531-8번지","category":"자동차정비 유지 - 카인테리어"},{"name":"카케어폴리싱(CP)","tel":"031-234-6345","addr":"경기도 수원시 권선구 곡반정동 531-8번지 외1필지","category":"자동차정비 유지 - 카인테리어"},{"name":"피부향기","tel":"031-211-8562","addr":"경기도 수원시 권선구 곡반정동 531-8번지 202호","category":"보건위생 - 화장품"}]},{"lat":"37.237992636","long":"127.03084172","items":[{"name":"광명모터샵","tel":"031-238-0282","addr":"경기도 수원시 권선구 곡반정동 573-1번지","category":"자동차판매 - 이륜차판매"}]},{"lat":"37.244605998","long":"127.03175707","items":[{"name":"교동짬뽕 곡반정점","tel":"031-222-0030","addr":"경기도 수원시 권선구 곡반정동 515-4번지 JI빌딩 101호","category":"일반휴게음식 - 중국식"},{"name":"돼지마을","tel":"031-223-2651","addr":"경기도 수원시 권선구 곡반정동 515-4번지 1층","category":"일반휴게음식 - 일반한식"}]},{"lat":"37.246074474","long":"127.03259167","items":[{"name":"구십삼도씨(93도C)","tel":"031-223-0093","addr":"경기도 수원시 권선구 곡반정동 503-1번지 102호","category":"일반휴게음식 - 일반한식"},{"name":"디사이플러학원","tel":"031-241-5889","addr":"경기도 수원시 권선구 곡반정동 503-1번지 3층 302호","category":"학원 - 보습학원"},{"name":"미래자산관리","tel":"031-231-2240","addr":"경기도 수원시 권선구 곡반정동 503-1번지 4층","category":"용역 서비스 - 종합용역"},{"name":"블루토닉뮤직(Bluetonic Music)","tel":"031-234-5150","addr":"경기도 수원시 권선구 곡반정동 503-1번지 201호","category":"레져용품 - 악기점"},{"name":"알로실용음악학원","tel":"031-241-5889","addr":"경기도 수원시 권선구 곡반정동 503-1번지 301호","category":"회원제형태 - 학원"}]},{"lat":"37.242740975","long":"127.03128301","items":[{"name":"구워담다","tel":"031-221-1364","addr":"경기도 수원시 권선구 곡반정동 530-3번지 한아름빌딩","category":"일반휴게음식 - 서양음식"}]},{"lat":"37.241912025","long":"127.0312827","items":[{"name":"국민서관","tel":"031-244-1654","addr":"경기도 수원시 권선구 곡반정동 535-7번지 101호","category":"회원제형태 - 기타4"}]},{"lat":"37.242407465","long":"127.03181258","items":[{"name":"국민주택관리","tel":"031-204-0005","addr":"경기도 수원시 권선구 곡반정동 531-17번지 한아름주택 101호","category":"용역 서비스 - 종합용역"}]},{"lat":"37.238181866","long":"127.03078544","items":[{"name":"굽네치킨","tel":"031-232-7892","addr":"경기도 수원시 권선구 곡반정동 563-7번지 101호","category":"일반휴게음식 - 스넥"},{"name":"돈나무쌈고을","tel":"031-234-3585","addr":"경기도 수원시 권선구 곡반정동 563-7번지 102호","category":"일반휴게음식 - 일반한식"},{"name":"주식회사에코템","tel":"02-1544-9195","addr":"경기도 수원시 권선구 곡반정동 563-7번지 3층","category":"기타 - 기계공구"}]},{"lat":"37.24560567","long":"127.03363966","items":[{"name":"굿오!(goodo!)","tel":"02-000-0000","addr":"경기도 수원시 권선구 곡반정동 507-8번지 1층 102호","category":"일반휴게음식 - 서양음식"},{"name":"긴자참치","tel":"031-221-3222","addr":"경기도 수원시 권선구 곡반정동 507-8번지 1동","category":"일반휴게음식 - 일식·회집"},{"name":"린넨바스켓","tel":"070-4231-9600","addr":"경기도 수원시 권선구 곡반정동 507-8번지 102호","category":"직물 - 옷감·직물"}]},{"lat":"37.237135245","long":"127.03628453","items":[{"name":"권선가스","tel":"031-237-8300","addr":"경기도 수원시 권선구 곡반정동 166-1번지","category":"연료판매점 - LPG 취급점"},{"name":"형제중앙가스","tel":"031-235-1850","addr":"경기도 수원시 권선구 곡반정동 166-1번지","category":"연료판매점 - LPG 취급점"}]},{"lat":"37.241407374","long":"127.0315868","items":[{"name":"귀뚜라미보일러","tel":"","addr":"경기도 수원시 권선구 곡반정동 537-3번지 101호","category":"용역 서비스 - 기타용역서비스"}]},{"lat":"37.240182141","long":"127.03086507","items":[{"name":"그녀의 꽃집","tel":"031-1688-8045","addr":"경기도 수원시 권선구 곡반정동 549-14번지 3층 310호","category":"문화.취미 - 화원"},{"name":"솔밭","tel":"031-898-7028","addr":"경기도 수원시 권선구 곡반정동 549-14번지","category":"일반휴게음식 - 일반한식"}]},{"lat":"37.238767939","long":"127.02902759","items":[{"name":"그레이스","tel":"031-233-2113","addr":"경기도 수원시 권선구 곡반정동 564-5번지 3층","category":"보건위생 - 화장품"},{"name":"기찬경희한의원","tel":"031-237-9004","addr":"경기도 수원시 권선구 곡반정동 564-5번지","category":"의원 - 한의원"},{"name":"루팡노래연습장","tel":"031-231-9667","addr":"경기도 수원시 권선구 곡반정동 564-5번지 4층","category":"레저업소 - 노 래 방"},{"name":"보니따필라테스 수원곡반점","tel":"","addr":"경기도 수원시 권선구 곡반정동 564-5번지 7층","category":"레저업소 - 헬스클럽"},{"name":"해두리치킨 곡반정점","tel":"031-225-1995","addr":"경기도 수원시 권선구 곡반정동 564-5번지 2층","category":"일반휴게음식 - 일반한식"}]},{"lat":"37.242407098","long":"127.03327771","items":[{"name":"그린건강원","tel":"031-232-0674","addr":"경기도 수원시 권선구 곡반정동 521-9번지 1층 105호","category":"건강식품 - 기타건강식품"},{"name":"닭장","tel":"031-233-8886","addr":"경기도 수원시 권선구 곡반정동 521-9번지","category":"일반휴게음식 - 일반한식"},{"name":"제인앤폴 곡반정점","tel":"070-3038-7881","addr":"경기도 수원시 권선구 곡반정동 521-9번지 101호","category":"일반휴게음식 - 서양음식"},{"name":"희영헤어홀릭","tel":"","addr":"경기도 수원시 권선구 곡반정동 521-9번지 1층 103호","category":"보건위생 - 미용원"}]},{"lat":"37.234768195","long":"127.02486792","items":[{"name":"그린시스템에어컨","tel":"031-239-3756","addr":"경기도 수원시 권선구 곡반정동 588-3번지 한솔주택 101호","category":"용역 서비스 - 기타용역서비스"}]},{"lat":"37.234245555","long":"127.02508188","items":[{"name":"극한수산","tel":"031-309-6406","addr":"경기도 수원시 권선구 곡반정동 590-5번지 102호","category":"음료식품 - 농·축·수산품"}]},{"lat":"37.241074371","long":"127.02997506","items":[{"name":"글라스루프 수원점","tel":"031-223-9709","addr":"경기도 수원시 권선구 곡반정동 545-2번지 101호","category":"건축자재 - 유리"}]},{"lat":"37.237884526","long":"127.03078533","items":[{"name":"금문도","tel":"031-237-1113","addr":"경기도 수원시 권선구 곡반정동 573-2번지 101호","category":"일반휴게음식 - 중국식"}]},{"lat":"37.233911921","long":"127.02638898","items":[{"name":"기배무역","tel":"031-272-8151","addr":"경기도 수원시 권선구 곡반정동 595-13번지 1층","category":"기타 - 기타 전문점"},{"name":"드위브(dweeb)","tel":"031-237-7885","addr":"경기도 수원시 권선구 곡반정동 595-13번지 1층","category":"문화.취미 - 애완동물"}]},{"lat":"37.237605544","long":"127.02930892","items":[{"name":"김밥천국","tel":"031-232-1336","addr":"경기도 수원시 권선구 곡반정동 571-1번지","category":"일반휴게음식 - 스넥"},{"name":"마늘은약이다보쌈족발","tel":"031-237-1987","addr":"경기도 수원시 권선구 곡반정동 571-1번지 103호","category":"일반휴게음식 - 일반한식"},{"name":"블루스타코인 노래연습장","tel":"070-4686-9412","addr":"경기도 수원시 권선구 곡반정동 571-1번지 3층","category":"레저업소 - 노 래 방"},{"name":"킹당구클럽","tel":"070-4245-2981","addr":"경기도 수원시 권선구 곡반정동 571-1번지 201호","category":"레저업소 - 당 구 장"}]},{"lat":"37.241740503","long":"127.03261251","items":[{"name":"김밥천국","tel":"031-233-3133","addr":"경기도 수원시 권선구 곡반정동 533-9번지","category":"일반휴게음식 - 스넥"},{"name":"차이나","tel":"031-237-0533","addr":"경기도 수원시 권선구 곡반정동 533-9번지","category":"일반휴게음식 - 중국식"}]},{"lat":"37.238876256","long":"127.02813732","items":[{"name":"김주부국수","tel":"031-223-9998","addr":"경기도 수원시 권선구 곡반정동 565-1번지 101호","category":"일반휴게음식 - 일반한식"},{"name":"아이파크독서실","tel":"031-237-3939","addr":"경기도 수원시 권선구 곡반정동 565-1번지 3층","category":"학원 - 독서실"}]},{"lat":"37.234605502","long":"127.02744849","items":[{"name":"김철판 퓨전수작요리","tel":"031-233-2023","addr":"경기도 수원시 권선구 곡반정동 593-7번지 2층","category":"일반휴게음식 - 일식·회집"},{"name":"삼성명품세탁","tel":"031-237-7234","addr":"경기도 수원시 권선구 곡반정동 593-7번지 1층","category":"수리서비스 - 세탁소"},{"name":"수제꼬치집(창마켓)","tel":"031-252-3474","addr":"경기도 수원시 권선구 곡반정동 593-7번지","category":"일반휴게음식 - 일반한식"}]},{"lat":"37.242821887","long":"127.03202688","items":[{"name":"김혜림 세무사사무소","tel":"031-233-3572","addr":"경기도 수원시 권선구 곡반정동 526-18번지 명수빌딩 201호","category":"용역 서비스 - 법률회계서비스(개인)"},{"name":"내가 돼지","tel":"031-238-7898","addr":"경기도 수원시 권선구 곡반정동 526-18번지 명수빌딩 1층","category":"일반휴게음식 - 일반한식"},{"name":"푸르른","tel":"031-232-9444","addr":"경기도 수원시 권선구 곡반정동 526-18번지","category":"신변잡화 - 기타잡화"}]},{"lat":"37.243993383","long":"127.03139618","items":[{"name":"까시나","tel":"","addr":"경기도 수원시 권선구 곡반정동 516-2번지 404호","category":"의류 - 정장"},{"name":"오렌지마트","tel":"031-221-9998","addr":"경기도 수원시 권선구 곡반정동 516-2번지","category":"유통업 영리 - 슈퍼마켓"}]},{"lat":"37.242299252","long":"127.03217319","items":[{"name":"깔끔세탁소","tel":"031-237-4789","addr":"경기도 수원시 권선구 곡반정동 531-15번지 1층상가","category":"수리서비스 - 세탁소"},{"name":"베델글로벌 (SLB)","tel":"031-238-4301","addr":"경기도 수원시 권선구 곡반정동 531-15번지 초원빌 102호","category":"건강식품 - 기타건강식품"}]},{"lat":"37.246020372","long":"127.03274944","items":[{"name":"꼬꼬비어","tel":"031-222-9293","addr":"경기도 수원시 권선구 곡반정동 503-2번지 1층","category":"일반휴게음식 - 일반한식"},{"name":"우리동네미용실","tel":"031-222-9225","addr":"경기도 수원시 권선구 곡반정동 503-2번지 102호","category":"보건위생 - 미용원"}]},{"lat":"37.241488526","long":"127.03133889","items":[{"name":"꼬꼼헤어","tel":"031-253-3351","addr":"경기도 수원시 권선구 곡반정동 537-1번지 1층","category":"보건위생 - 미용원"},{"name":"담께상회","tel":"031-225-8225","addr":"경기도 수원시 권선구 곡반정동 537-1번지 102호","category":"일반휴게음식 - 일반한식"}]},{"lat":"37.24415486","long":"127.03420259","items":[{"name":"꽃별어린이집[아이행복]","tel":"031-215-0210","addr":"경기도 수원시 권선구 곡반정동 520-1번지 73","category":"학원 - 유아원"},{"name":"전주콩나물국밥 유명한집","tel":"031-898-5194","addr":"경기도 수원시 권선구 곡반정동 520-1번지 103호","category":"일반휴게음식 - 일반한식"}]},{"lat":"37.242101067","long":"127.03200406","items":[{"name":"꾸밈뷰티","tel":"","addr":"경기도 수원시 권선구 곡반정동 533-3번지 402호","category":"의류 - 정장"},{"name":"엘유엔터테인먼트","tel":"070-4090-9491","addr":"경기도 수원시 권선구 곡반정동 533-3번지 102호","category":"용역 서비스 - 종합용역"}]},{"lat":"37.240911879","long":"127.03128232","items":[{"name":"끌레르","tel":"031-221-6404","addr":"경기도 수원시 권선구 곡반정동 542-13번지 103호","category":"의류 - 정장"},{"name":"메리어스","tel":"031-223-5214","addr":"경기도 수원시 권선구 곡반정동 542-13번지 103호","category":"의류 - 정장"},{"name":"바잉(Buying)","tel":"070-8963-0122","addr":"경기도 수원시 권선구 곡반정동 542-13번지 101호","category":"의류 - 정장"}]},{"lat":"37.245208771","long":"127.03530755","items":[{"name":"나라골프연습장","tel":"031-237-5900","addr":"경기도 수원시 권선구 곡반정동 103-1번지 3층","category":"레저업소 - 골프연습장"},{"name":"나라골프존","tel":"031-224-6420","addr":"경기도 수원시 권선구 곡반정동 103-1번지 4층","category":"레저업소 - 골프연습장"},{"name":"비전주차서비스","tel":"031-971-2310","addr":"경기도 수원시 권선구 곡반정동 103-1번지","category":"자동차정비 유지 - 주차장"},{"name":"코다리밥상 곡반정점","tel":"031-238-1889","addr":"경기도 수원시 권선구 곡반정동 103-1번지","category":"일반휴게음식 - 일반한식"}]},{"lat":"37.238245145","long":"127.02989517","items":[{"name":"나씨화로명가","tel":"03-100-0000","addr":"경기도 수원시 권선구 곡반정동 567-2번지 외1필지","category":"일반휴게음식 - 일반한식"},{"name":"뉴욕포차","tel":"031-252-7508","addr":"경기도 수원시 권선구 곡반정동 567-2번지 1층 101호","category":"일반휴게음식 - 일반한식"},{"name":"주식회사 서전아이티","tel":"031-234-5848","addr":"경기도 수원시 권선구 곡반정동 567-2번지 201호","category":"사무통신 - 컴퓨터"}]},{"lat":"37.240605501","long":"127.03139491","items":[{"name":"나인쓰스트리트에스프레소(9th street espr","tel":"070-4898-5561","addr":"경기도 수원시 권선구 곡반정동 544-4번지 101호","category":"일반휴게음식 - 서양음식"}]},{"lat":"37.241128471","long":"127.02980603","items":[{"name":"난이공방","tel":"031-305-9411","addr":"경기도 수원시 권선구 곡반정동 545-1번지 101호","category":"일반휴게음식 - 일반한식"},{"name":"위닉스경기대리점","tel":"031-237-5858","addr":"경기도 수원시 권선구 곡반정동 545-1번지","category":"주방용구 - 정수기"}]},{"lat":"37.241768205","long":"127.02980626","items":[{"name":"날라리","tel":"031-223-1648","addr":"경기도 수원시 권선구 곡반정동 539-5번지 101호","category":"일반휴게음식 - 일반한식"},{"name":"부타타투아카데미","tel":"070-7636-4405","addr":"경기도 수원시 권선구 곡반정동 539-5번지 201호","category":"용역 서비스 - 사무서비스"},{"name":"오븐마루치킨 곡반점","tel":"031-234-9992","addr":"경기도 수원시 권선구 곡반정동 539-5번지 102호","category":"일반휴게음식 - 스넥"}]},{"lat":"37.234488442","long":"127.02708784","items":[{"name":"내고향보리밥집","tel":"031-232-0588","addr":"경기도 수원시 권선구 곡반정동 594-2번지 1층","category":"일반휴게음식 - 일반한식"}]},{"lat":"37.238020129","long":"127.02881321","items":[{"name":"네네치킨","tel":"031-267-4479","addr":"경기도 수원시 권선구 곡반정동 569-12번지 101호","category":"일반휴게음식 - 스넥"}]},{"lat":"37.235047299","long":"127.02600618","items":[{"name":"네일메이크","tel":"031-893-5884","addr":"경기도 수원시 권선구 곡반정동 585-9번지 1층","category":"보건위생 - 피부미용실"},{"name":"예지아이","tel":"070-4001-6356","addr":"경기도 수원시 권선구 곡반정동 585-9번지 101호","category":"회원제형태 - 서적"}]},{"lat":"37.24043417","long":"127.03194707","items":[{"name":"녹스헤어","tel":"031-233-0248","addr":"경기도 수원시 권선구 곡반정동 544-8번지 1층","category":"보건위생 - 미용원"},{"name":"영통녹즙","tel":"031-204-0111","addr":"경기도 수원시 권선구 곡반정동 544-8번지 101호","category":"음료식품 - 기타음료식품"}]},{"lat":"37.245101505","long":"127.03200521","items":[{"name":"놀자","tel":"02-1111-1111","addr":"경기도 수원시 권선구 곡반정동 504-9번지 102호","category":"의류 - 정장"},{"name":"미(  )헤어","tel":"031-223-1921","addr":"경기도 수원시 권선구 곡반정동 504-9번지 101호","category":"보건위생 - 미용원"}]},{"lat":"37.238407488","long":"127.02919651","items":[{"name":"농민마트","tel":"031-221-9131","addr":"경기도 수원시 권선구 곡반정동 566-6번지","category":"유통업 영리 - 슈퍼마켓"}]},{"lat":"37.240767929","long":"127.0303694","items":[{"name":"누비퀼트","tel":"031-294-3463","addr":"경기도 수원시 권선구 곡반정동 545-9번지 1층 103호","category":"직물 - 침구·수예점"}]},{"lat":"37.23902041","long":"127.02819372","items":[{"name":"뉴파렛트미술학원","tel":"031-234-6503","addr":"경기도 수원시 권선구 곡반정동 564-1번지 302호","category":"학원 - 예·체능계학원"},{"name":"다이소 수원곡반정점","tel":"031-233-9542","addr":"경기도 수원시 권선구 곡반정동 564-1번지 201호","category":"신변잡화 - 기타잡화"},{"name":"아이비티타임즈영어학원","tel":"031-234-6504","addr":"경기도 수원시 권선구 곡반정동 564-1번지 4층 전체","category":"학원 - 보습학원"},{"name":"용인대K타이거즈태권도","tel":"031-234-6501","addr":"경기도 수원시 권선구 곡반정동 564-1번지","category":"학원 - 예·체능계학원"},{"name":"포르테음악학원","tel":"031-234-6502","addr":"경기도 수원시 권선구 곡반정동 564-1번지 301호","category":"학원 - 예·체능계학원"}]},{"lat":"37.241407078","long":"127.03278143","items":[{"name":"늑대와양꼬치","tel":"","addr":"경기도 수원시 권선구 곡반정동 532-8번지 1층","category":"일반휴게음식 - 일반한식"}]},{"lat":"37.24074075","long":"127.03100051","items":[{"name":"다다헤어","tel":"070-4235-0303","addr":"경기도 수원시 권선구 곡반정동 544-1번지 103호","category":"보건위생 - 미용원"},{"name":"모아당구장","tel":"031-223-5214","addr":"경기도 수원시 권선구 곡반정동 544-1번지 3층","category":"레저업소 - 당 구 장"},{"name":"민헤어(MINHAIR)","tel":"031-217-1979","addr":"경기도 수원시 권선구 곡반정동 544-1번지 103호","category":"보건위생 - 미용원"},{"name":"본피씨엔까페 (Born PC&cafe)","tel":"031-234-3599","addr":"경기도 수원시 권선구 곡반정동 544-1번지 2층","category":"레저업소 - 기타레져업소"}]},{"lat":"37.237461396","long":"127.02922999","items":[{"name":"다랑참치","tel":"031-231-2244","addr":"경기도 수원시 권선구 곡반정동 571-7번지 한아름빌딩 2층","category":"일반휴게음식 - 일식·회집"},{"name":"더드림","tel":"031-221-7297","addr":"경기도 수원시 권선구 곡반정동 571-7번지 한아름빌딩 3층","category":"보건위생 - 피부미용실"},{"name":"연","tel":"031-8002-0200","addr":"경기도 수원시 권선구 곡반정동 571-7번지 한아름빌딩 102호","category":"일반휴게음식 - 일반한식"}]},{"lat":"37.234218446","long":"127.02549883","items":[{"name":"다산탈렌토","tel":"031-236-8549","addr":"경기도 수원시 권선구 곡반정동 591-3 77블럭4롯트1층101호","category":"가구 - 기타가구"},{"name":"세모","tel":"031-236-5396","addr":"경기도 수원시 권선구 곡반정동 591-3번지 102호","category":"용역 서비스 - 종합용역"}]},{"lat":"37.245542272","long":"127.03486813","items":[{"name":"다온 블리스","tel":"031-255-7877","addr":"경기도 수원시 권선구 곡반정동 511-1번지 101호","category":"일반휴게음식 - 서양음식"},{"name":"수원가정심리상담소","tel":"031-235-5573","addr":"경기도 수원시 권선구 곡반정동 511-1번지 502호","category":"보건위생 - 기타대인서비스"}]},{"lat":"37.245299024","long":"127.03475532","items":[{"name":"다이스수제버거","tel":"031-232-3227","addr":"경기도 수원시 권선구 곡반정동 511-3번지 골드하우스5 101호","category":"일반휴게음식 - 스넥"}]},{"lat":"37.232767667","long":"127.02608437","items":[{"name":"다인공조시스템","tel":"031-222-8726","addr":"경기도 수원시 권선구 곡반정동 390-2번지","category":"전기제품 - 냉열기기"}]},{"lat":"37.23532656","long":"127.02631054","items":[{"name":"다크니스수원(대)","tel":"031-238-7751","addr":"경기도 수원시 권선구 곡반정동 584-5번지","category":"보건위생 - 화장품"},{"name":"동네당구장","tel":"","addr":"경기도 수원시 권선구 곡반정동 584-5번지 2층","category":"레저업소 - 당 구 장"},{"name":"본죽","tel":"031-239-6288","addr":"경기도 수원시 권선구 곡반정동 584-5번지","category":"일반휴게음식 - 일반한식"},{"name":"옛날통닭","tel":"031-000-0000","addr":"경기도 수원시 권선구 곡반정동 584-5번지 101호","category":"일반휴게음식 - 스넥"},{"name":"요거프레소곡반정점","tel":"031-238-1105","addr":"경기도 수원시 권선구 곡반정동 584-5번지 101호","category":"일반휴게음식 - 서양음식"},{"name":"해동검도수원총본관","tel":"031-232-1680","addr":"경기도 수원시 권선구 곡반정동 584-5번지 5층","category":"레저업소 - 기타레져업소"},{"name":"해피 노래연습장","tel":"031-236-3132","addr":"경기도 수원시 권선구 곡반정동 584-5번지 3층","category":"레저업소 - 노 래 방"}]},{"lat":"37.240659598","long":"127.03124842","items":[{"name":"닥터코킹","tel":"031-224-7924","addr":"경기도 수원시 권선구 곡반정동 544-3번지 한아름주택 101호","category":"용역 서비스 - 기타용역서비스"}]},{"lat":"37.236848569","long":"127.02978197","items":[{"name":"당진생고기","tel":"031-239-2282","addr":"경기도 수원시 권선구 곡반정동 575-7번지 무천빌딩 상가동 1층 102호","category":"일반휴게음식 - 일반한식"}]},{"lat":"37.239461283","long":"127.03100004","items":[{"name":"당찬족발보쌈","tel":"031-3087-3217","addr":"경기도 수원시 권선구 곡반정동 554-1번지 한아름주택 101호","category":"일반휴게음식 - 일반한식"},{"name":"사단법인 경기인형극진흥회","tel":"070-4681-0675","addr":"경기도 수원시 권선구 곡반정동 554-1번지 한아름주택 102호","category":"문화.취미 - 티켓"}]},{"lat":"37.238244973","long":"127.03063896","items":[{"name":"대가왕소금구이","tel":"031-224-8401","addr":"경기도 수원시 권선구 곡반정동 563-6번지","category":"일반휴게음식 - 일반한식"},{"name":"진법무사사무소","tel":"031-234-1151","addr":"경기도 수원시 권선구 곡반정동 563-6번지 효성빌딩 3층","category":"용역 서비스 - 법률회계서비스(개인)"},{"name":"힐링","tel":"070-9148-7335","addr":"경기도 수원시 권선구 곡반정동 563-6번지 효성빌딩 6층","category":"레저업소 - 헬스클럽"}]},{"lat":"37.242019703","long":"127.03308596","items":[{"name":"대경TNC","tel":"031-236-6879","addr":"경기도 수원시 권선구 곡반정동 532-2번지 101호","category":"음료식품 - 기타음료식품"},{"name":"세탁백화점","tel":"031-204-9026","addr":"경기도 수원시 권선구 곡반정동 532-2번지 1층","category":"수리서비스 - 세탁소"},{"name":"수원(BIKING)","tel":"031-000-0000","addr":"경기도 수원시 권선구 곡반정동 532-2번지 1층 102호","category":"수리서비스 - 레져용품수리"}]},{"lat":"37.234434214","long":"127.02788792","items":[{"name":"대경감자탕","tel":"031-236-3382","addr":"경기도 수원시 권선구 곡반정동 593-10번지 1층","category":"일반휴게음식 - 일반한식"},{"name":"돈가돈가","tel":"031-235-7006","addr":"경기도 수원시 권선구 곡반정동 593-10번지 2층 201호","category":"일반휴게음식 - 일반한식"},{"name":"아름찬","tel":"031-225-7277","addr":"경기도 수원시 권선구 곡반정동 593-10번지 102호","category":"음료식품 - 기타음료식품"},{"name":"얄개분식","tel":"031-239-5399","addr":"경기도 수원시 권선구 곡반정동 593-10번지","category":"일반휴게음식 - 일반한식"},{"name":"큐당구장","tel":"031-235-0972","addr":"경기도 수원시 권선구 곡반정동 593-10번지","category":"레저업소 - 당 구 장"}]},{"lat":"37.235551856","long":"127.02611903","items":[{"name":"대박고깃집","tel":"031-232-1303","addr":"경기도 수원시 권선구 곡반정동 584-3번지 1층","category":"일반휴게음식 - 일반한식"},{"name":"모먼아트","tel":"02-111-1111","addr":"경기도 수원시 권선구 곡반정동 584-3번지 3층 302호","category":"광학제품 - 사진관"},{"name":"실크로이드노래연습장","tel":"031-000-0000","addr":"경기도 수원시 권선구 곡반정동 584-3번지 2층","category":"레저업소 - 노 래 방"}]},{"lat":"37.239659301","long":"127.03186788","items":[{"name":"대성공조시스템","tel":"031-239-5080","addr":"경기도 수원시 권선구 곡반정동 551-1번지 1층","category":"수리서비스 - 가정용품수리"}]},{"lat":"37.232822187","long":"127.02361652","items":[{"name":"대신유통","tel":"031-238-2419","addr":"경기도 수원시 권선구 곡반정동 609-6번지","category":"음료식품 - 기타음료식품"}]},{"lat":"37.24279449","long":"127.03348073","items":[{"name":"대원철물","tel":"031-224-3743","addr":"경기도 수원시 권선구 곡반정동 521-6번지 102호","category":"건축자재 - 목재·석재·철물"}]},{"lat":"37.238245272","long":"127.02933169","items":[{"name":"더","tel":"031-226-4025","addr":"경기도 수원시 권선구 곡반정동 566-9번지 2층 201호","category":"일반휴게음식 - 일반한식"},{"name":"보나세","tel":"070-4693-4674","addr":"경기도 수원시 권선구 곡반정동 566-9번지 1층","category":"일반휴게음식 - 일반한식"},{"name":"어쭈구리한판","tel":"031-223-5214","addr":"경기도 수원시 권선구 곡반정동 566-9번지","category":"일반휴게음식 - 일반한식"},{"name":"오드리","tel":"031-225-3445","addr":"경기도 수원시 권선구 곡반정동 566-9번지 301호","category":"일반휴게음식 - 일반한식"},{"name":"원가훠궈(중국전통샤브샤브)","tel":"031-0000-0000","addr":"경기도 수원시 권선구 곡반정동 566-9번지 202호","category":"일반휴게음식 - 일반한식"},{"name":"헤어썸","tel":"031-226-4025","addr":"경기도 수원시 권선구 곡반정동 566-9번지 102호","category":"보건위생 - 미용원"}]},{"lat":"37.238488424","long":"127.02989525","items":[{"name":"더 플로리스타,쥬씨","tel":"031-233-5455","addr":"경기도 수원시 권선구 곡반정동 563-1번지 1층","category":"일반휴게음식 - 서양음식"},{"name":"더 플로리스타,쥬씨","tel":"070-4115-1028","addr":"경기도 수원시 권선구 곡반정동 563-1번지 오성빌딩","category":"일반휴게음식 - 서양음식"},{"name":"비어카페펀비어킹","tel":"031-237-3416","addr":"경기도 수원시 권선구 곡반정동 563-1번지 103호","category":"일반휴게음식 - 주점"},{"name":"월드컵당구장","tel":"031-222-5288","addr":"경기도 수원시 권선구 곡반정동 563-1번지 오성빌딩 2층","category":"레저업소 - 당 구 장"},{"name":"칸노래","tel":"031-223-5214","addr":"경기도 수원시 권선구 곡반정동 563-1번지 오성빌딩 3층","category":"용역 서비스 - 종합용역"},{"name":"탑피씨카페(TOP PC CAFE)","tel":"031-232-0118","addr":"경기도 수원시 권선구 곡반정동 563-1번지 오성빌딩 6층","category":"레저업소 - 기타레져업소"},{"name":"티원모바일","tel":"031-236-0045","addr":"경기도 수원시 권선구 곡반정동 563-1번지 오성빌딩 1층 101호","category":"사무통신 - 통신기기"},{"name":"휴","tel":"031-221-0338","addr":"경기도 수원시 권선구 곡반정동 563-1번지 오성빌딩","category":"보건위생 - 화장품"}]},{"lat":"37.237794723","long":"127.02947803","items":[{"name":"더맛구이구이쪽갈비","tel":"031-224-9282","addr":"경기도 수원시 권선구 곡반정동 568-12번지 1층 102호","category":"일반휴게음식 - 일반한식"},{"name":"도야지천국","tel":"031-221-5992","addr":"경기도 수원시 권선구 곡반정동 568-12번지 101호","category":"일반휴게음식 - 일반한식"},{"name":"허브노래연습장","tel":"031-234-3459","addr":"경기도 수원시 권선구 곡반정동 568-12번지 2층","category":"레저업소 - 노 래 방"}]},{"lat":"37.239875862","long":"127.03056067","items":[{"name":"더뷰티샵","tel":"031-223-1421","addr":"경기도 수원시 권선구 곡반정동 552-17, 104","category":"보건위생 - 화장품"},{"name":"빈티지모아","tel":"031-226-7077","addr":"경기도 수원시 권선구 곡반정동 552-17 16 103","category":"의류 - 정장"}]},{"lat":"37.238272215","long":"127.02972613","items":[{"name":"더칼디","tel":"031-267-1035","addr":"경기도 수원시 권선구 곡반정동 567-1번지 2층","category":"일반휴게음식 - 서양음식"},{"name":"선술집하나","tel":"","addr":"경기도 수원시 권선구 곡반정동 567-1번지 송암빌딩 1층 101호","category":"일반휴게음식 - 일반한식"}]},{"lat":"37.240966286","long":"127.02980598","items":[{"name":"더케이헤어(The K Hair)","tel":"031-235-4008","addr":"경기도 수원시 권선구 곡반정동 545-13번지 102호","category":"보건위생 - 미용원"},{"name":"헬로우,49번길","tel":"","addr":"경기도 수원시 권선구 곡반정동 545-13번지 101호","category":"일반휴게음식 - 서양음식"}]},{"lat":"37.245993304","long":"127.03289595","items":[{"name":"도도뷰티","tel":"031-225-1216","addr":"경기도 수원시 권선구 곡반정동 503-3번지 104호","category":"보건위생 - 화장품"}]},{"lat":"37.238155261","long":"127.02891468","items":[{"name":"도모닷지","tel":"031-237-3678","addr":"경기도 수원시 권선구 곡반정동 569-6번지 정석빌딩 102호","category":"일반휴게음식 - 일식·회집"},{"name":"용두동갈비 곡반정점","tel":"031-233-9202","addr":"경기도 수원시 권선구 곡반정동 569-6번지 정석빌딩 101호","category":"일반휴게음식 - 일반한식"}]},{"lat":"37.23454304","long":"127.02430441","items":[{"name":"도예공방 공기","tel":"","addr":"경기도 수원시 권선구 곡반정동 589-7번지 1층 101호","category":"문화.취미 - 문화취미기타"}]},{"lat":"37.231604817","long":"127.02858564","items":[{"name":"동부유통주식회사","tel":"031-238-1379","addr":"경기도 수원시 권선구 곡반정동 347-2번지","category":"음료식품 - 기타음료식품"}]},{"lat":"37.245632502","long":"127.0343948","items":[{"name":"동서종합알뜰매장","tel":"031-233-3489","addr":"경기도 수원시 권선구 곡반정동 506-3번지 101호","category":"가구 - 일반가구"}]},{"lat":"37.244461772","long":"127.03200497","items":[{"name":"동안라인","tel":"031-225-9803","addr":"경기도 수원시 권선구 곡반정동 517-1번지 1층","category":"보건위생 - 피부미용실"},{"name":"아싸비어 곡반정동점","tel":"","addr":"경기도 수원시 권선구 곡반정동 517-1번지","category":"음료식품 - 기타음료식품"}]},{"lat":"37.24007425","long":"127.02986201","items":[{"name":"동해수산2호점","tel":"031-235-9118","addr":"경기도 수원시 권선구 곡반정동 548번지 권선신일유토빌 상가 112동 B109호","category":"일반휴게음식 - 일반한식"},{"name":"삼미통닭","tel":"031-221-2332","addr":"경기도 수원시 권선구 곡반정동 548번지 단지내상가112동102호","category":"일반휴게음식 - 스넥"},{"name":"수맥집","tel":"031-231-6488","addr":"경기도 수원시 권선구 곡반정동 548번지 권선신일유토빌 112동 제비104호","category":"일반휴게음식 - 일반한식"},{"name":"위드미수원유토빌점","tel":"02-6916-1500","addr":"경기도 수원시 권선구 곡반정동 548번지 권선신일유토빌 112동 B108호","category":"유통업 영리 - 편 의 점"},{"name":"카페카와곡반정점","tel":"031-111-1111","addr":"경기도 수원시 권선구 곡반정동 548번지 권선신일유토빌 지층 105,106호","category":"일반휴게음식 - 서양음식"},{"name":"퍼피바게트","tel":"031-235-0345","addr":"경기도 수원시 권선구 곡반정동 548번지 권선신일유토빌 112동 비107호","category":"문화.취미 - 애완동물"}]},{"lat":"37.238209556","long":"127.02783282","items":[{"name":"동화자연마루/태원상사 주식회사","tel":"031-898-9504","addr":"경기도 수원시 권선구 곡반정동 565-8번지","category":"건축자재 - 기타건축자재"}]},{"lat":"37.234848978","long":"127.02647942","items":[{"name":"돼랭이생고기","tel":"031-222-3392","addr":"경기도 수원시 권선구 곡반정동 592-1번지 101호","category":"일반휴게음식 - 일반한식"}]},{"lat":"37.238326129","long":"127.03036852","items":[{"name":"돼지 레스토랑","tel":"","addr":"경기도 수원시 권선구 곡반정동 563-4번지","category":"일반휴게음식 - 서양음식"},{"name":"둥지공인중개사사무소","tel":"031-223-8896","addr":"경기도 수원시 권선구 곡반정동 563-4번지 101호","category":"용역 서비스 - 부동산 중개·임대"},{"name":"드림","tel":"031-695-6776","addr":"경기도 수원시 권선구 곡반정동 563-4번지 3층","category":"일반휴게음식 - 일반한식"},{"name":"프렌즈 노래연습장","tel":"031-235-3383","addr":"경기도 수원시 권선구 곡반정동 563-4번지 2층 201호","category":"레저업소 - 노 래 방"},{"name":"황실","tel":"","addr":"경기도 수원시 권선구 곡반정동 563-4번지 5층","category":"보건위생 - 미용재료"}]},{"lat":"37.239992644","long":"127.03202579","items":[{"name":"돼지마을","tel":"031-225-2652","addr":"경기도 수원시 권선구 곡반정동 550-4번지 102호","category":"일반휴게음식 - 일반한식"},{"name":"욜로스페이스","tel":"051-806-2945","addr":"경기도 수원시 권선구 곡반정동 550-4번지 403호","category":"건축자재 - 인테리어전문"}]},{"lat":"37.232633042","long":"127.02319953","items":[{"name":"드림모터스","tel":"031-238-8872","addr":"경기도 수원시 권선구 곡반정동 610-11번지 1층","category":"자동차정비 유지 - 자동차부품"}]},{"lat":"37.241821968","long":"127.03109107","items":[{"name":"드림플러스","tel":"031-2778-5533","addr":"경기도 수원시 권선구 곡반정동 535-9번지 103호","category":"의류 - 정장"}]},{"lat":"37.244380701","long":"127.03191477","items":[{"name":"디컵","tel":"031-111-1111","addr":"경기도 수원시 권선구 곡반정동 517-8번지 101호","category":"일반휴게음식 - 서양음식"},{"name":"준이네밥이랑고기랑","tel":"031-223-7660","addr":"경기도 수원시 권선구 곡반정동 517-8번지 101호","category":"일반휴게음식 - 일반한식"}]},{"lat":"37.236407266","long":"127.028869","items":[{"name":"딴헤어클럽","tel":"031-238-8701","addr":"경기도 수원시 권선구 곡반정동 577-10번지 1층","category":"보건위생 - 미용원"}]},{"lat":"37.242245162","long":"127.03228587","items":[{"name":"땡큐기획","tel":"070-5035-2912","addr":"경기도 수원시 권선구 곡반정동 531-14번지 1층","category":"용역 서비스 - 종합용역"}]},{"lat":"37.242632525","long":"127.03261286","items":[{"name":"떡장곡반정점","tel":"031-222-7225","addr":"경기도 수원시 권선구 곡반정동 526-14번지","category":"일반휴게음식 - 스넥"}]},{"lat":"37.243298998","long":"127.03375142","items":[{"name":"또와요","tel":"02-1899-6931","addr":"경기도 수원시 권선구 곡반정동 521-1번지 1층","category":"일반휴게음식 - 일반한식"}]},{"lat":"37.239128272","long":"127.02938834","items":[{"name":"뚱보집/주식회사 요리","tel":"031-236-1616","addr":"경기도 수원시 권선구 곡반정동 558-6번지 101호","category":"일반휴게음식 - 일반한식"},{"name":"숙성의미 껍데기 곡반점","tel":"031-236-8253","addr":"경기도 수원시 권선구 곡반정동 558-6번지","category":"일반휴게음식 - 일반한식"}]},{"lat":"37.239074172","long":"127.02955737","items":[{"name":"뜰27","tel":"031-222-4525","addr":"경기도 수원시 권선구 곡반정동 558-7번지 102호","category":"일반휴게음식 - 서양음식"},{"name":"바코드 살롱","tel":"070-4383-7276","addr":"경기도 수원시 권선구 곡반정동 558-7번지 2층 201호","category":"보건위생 - 미용원"},{"name":"포트리스 곡반정점","tel":"","addr":"경기도 수원시 권선구 곡반정동 558-7번지 1층 101호","category":"일반휴게음식 - 서양음식"}]},{"lat":"37.240020008","long":"127.03063961","items":[{"name":"라무","tel":"031-223-7800","addr":"경기도 수원시 권선구 곡반정동 552-1번지 다빈치빌딩 101호","category":"일반휴게음식 - 일반한식"},{"name":"신일세탁소","tel":"031-226-0588","addr":"경기도 수원시 권선구 곡반정동 552-1번지 다빈치빌딩 102호","category":"수리서비스 - 세탁소"}]},{"lat":"37.242966044","long":"127.03206074","items":[{"name":"러닝키즈","tel":"070-4067-0201","addr":"경기도 수원시 권선구 곡반정동 526-1번지 202호","category":"서적문구 - 일반서적"},{"name":"선물","tel":"031-234-5999","addr":"경기도 수원시 권선구 곡반정동 526-1번지 101호","category":"의류 - 정장"}]},{"lat":"37.239407491","long":"127.02983923","items":[{"name":"러브세차","tel":"070-7009-6595","addr":"경기도 수원시 권선구 곡반정동 557-9번지 204호","category":"자동차정비 유지 - 세차장"}]},{"lat":"37.245488893","long":"127.03223078","items":[{"name":"럽마카롱","tel":"","addr":"경기도 수원시 권선구 곡반정동 504-5번지","category":"음료식품 - 기타음료식품"}]},{"lat":"37.235155706","long":"127.02450742","items":[{"name":"레몬엑스","tel":"031-233-5104","addr":"경기도 수원시 권선구 곡반정동 583-4번지 102호","category":"자동차정비 유지 - 자동차부품"},{"name":"아이플레이","tel":"070-7612-7254","addr":"경기도 수원시 권선구 곡반정동 583-4번지 102호","category":"학원 - 기타 교육기관"}]},{"lat":"37.245713691","long":"127.03403417","items":[{"name":"로그인마트","tel":"031-236-2206","addr":"경기도 수원시 권선구 곡반정동 506-1번지","category":"유통업 영리 - 편 의 점"},{"name":"세븐일레븐수원곡반중앙점","tel":"","addr":"경기도 수원시 권선구 곡반정동 506-1번지","category":"유통업 영리 - 편 의 점"},{"name":"황금돈가스","tel":"070-8699-9901","addr":"경기도 수원시 권선구 곡반정동 506-1번지 철빌딩 102호","category":"일반휴게음식 - 일식·회집"}]},{"lat":"37.245020345","long":"127.03227568","items":[{"name":"로얄세탁소","tel":"031-237-0035","addr":"경기도 수원시 권선구 곡반정동 513-16번지 101호","category":"수리서비스 - 세탁소"},{"name":"세븐일레븐수원곡반정본점","tel":"031-1577-0711","addr":"경기도 수원시 권선구 곡반정동 513-16번지 1층 상가","category":"유통업 영리 - 편 의 점"}]},{"lat":"37.242047385","long":"127.03041495","items":[{"name":"로즈마리","tel":"031-234-6278","addr":"경기도 수원시 권선구 곡반정동 535-14번지 103호","category":"회원제형태 - 기타4"},{"name":"황소곱창","tel":"031-224-8480","addr":"경기도 수원시 권선구 곡반정동 535-14번지","category":"일반휴게음식 - 일반한식"}]},{"lat":"37.236272039","long":"127.02919577","items":[{"name":"루나라이즈","tel":"","addr":"경기도 수원시 권선구 곡반정동 577-8번지 101호","category":"용역 서비스 - 종합용역"}]},{"lat":"37.245903306","long":"127.03247889","items":[{"name":"루비","tel":"031-225-1448","addr":"경기도 수원시 권선구 곡반정동 504-1번지 제이빌주택 103호","category":"보건위생 - 화장품"}]},{"lat":"37.239461715","long":"127.02911799","items":[{"name":"르노삼성자동차 서비스","tel":"","addr":"경기도 수원시 권선구 곡반정동 557-16번지","category":"자동차정비 유지 - 자동차부품"}]},{"lat":"37.244605436","long":"127.03397737","items":[{"name":"리프레쉬","tel":"","addr":"경기도 수원시 권선구 곡반정동 512-4번지 에코빌딩 1층 103호","category":"보건위생 - 피부미용실"},{"name":"송원","tel":"031-214-2115","addr":"경기도 수원시 권선구 곡반정동 512-4번지 동담빌딩 1층 102호","category":"보건위생 - 미용원"},{"name":"오렌지컴퍼니","tel":"02-1661-8581","addr":"경기도 수원시 권선구 곡반정동 512-4번지 에코빌딩 104호","category":"용역 서비스 - 종합용역"},{"name":"티에스(TS)메디텍","tel":"031-234-0039","addr":"경기도 수원시 권선구 곡반정동 512-4번지 에코빌딩 201호","category":"보건위생 - 의료용품"},{"name":"하이엔드테크/원격지","tel":"031-238-6820","addr":"경기도 수원시 권선구 곡반정동 512-4번지 동담빌딩 201호","category":"기타 - 기타 전문점"}]},{"lat":"37.244380091","long":"127.03430412","items":[{"name":"마음뜰clinic언어심리연구소","tel":"031-232-4023","addr":"경기도 수원시 권선구 곡반정동 511-11번지 2층 201호","category":"보건위생 - 기타대인서비스"},{"name":"블루홈","tel":"","addr":"경기도 수원시 권선구 곡반정동 511-11번지 505호","category":"직물 - 카페트,커튼,천막,지물"},{"name":"사랑의배터리요","tel":"070-8845-8585","addr":"경기도 수원시 권선구 곡반정동 511-11번지 1층 101호","category":"자동차정비 유지 - 자동차부품"},{"name":"쪼매난삼촌이맵다","tel":"031-222-3882","addr":"경기도 수원시 권선구 곡반정동 511-11번지 1층","category":"일반휴게음식 - 일반한식"}]},{"lat":"37.245299704","long":"127.032118","items":[{"name":"마이럽피치","tel":"031-223-1950","addr":"경기도 수원시 권선구 곡반정동 504-7번지","category":"일반휴게음식 - 일반한식"}]},{"lat":"37.239100735","long":"127.03156339","items":[{"name":"마이리틀독(MY LITTLE DOG)","tel":"031-223-3703","addr":"경기도 수원시 권선구 곡반정동 551-6번지 2층","category":"문화.취미 - 애완동물"},{"name":"켓츠아이네일샵","tel":"070-4671-7156","addr":"경기도 수원시 권선구 곡반정동 551-6번지","category":"보건위생 - 피부미용실"}]},{"lat":"37.240821483","long":"127.03247691","items":[{"name":"만능크리닝청소대행","tel":"031-232-7437","addr":"경기도 수원시 권선구 곡반정동 543-5번지 403호","category":"용역 서비스 - 종합용역"}]},{"lat":"37.237767834","long":"127.02883566","items":[{"name":"말자싸롱 곡반정점","tel":"","addr":"경기도 수원시 권선구 곡반정동 570-10번지 101호","category":"일반휴게음식 - 주점"}]},{"lat":"37.230857205","long":"127.02742473","items":[{"name":"맛나푸드","tel":"031-224-7018","addr":"경기도 수원시 권선구 곡반정동 330-2","category":"음료식품 - 기타음료식품"}]},{"lat":"37.241993284","long":"127.03058398","items":[{"name":"매드어바웃네일스(MadAboutNails)","tel":"","addr":"경기도 수원시 권선구 곡반정동 535-13번지 1층","category":"보건위생 - 피부미용실"}]},{"lat":"37.237911925","long":"127.0291738","items":[{"name":"매우리","tel":"070-8260-7630","addr":"경기도 수원시 권선구 곡반정동 569-9번지 101호","category":"일반휴게음식 - 일반한식"},{"name":"미니기프트","tel":"070-4042-0377","addr":"경기도 수원시 권선구 곡반정동 569-9번지 403호","category":"유통업 영리 - 기타유통업"},{"name":"바다이야기","tel":"070-8755-7644","addr":"경기도 수원시 권선구 곡반정동 569-9(51블럭9롯트)","category":"일반휴게음식 - 일식·회집"},{"name":"원가램숯불양꼬치구이전문점","tel":"031-223-8866","addr":"경기도 수원시 권선구 곡반정동 569-9번지 2층","category":"일반휴게음식 - 일반한식"}]},{"lat":"37.236740514","long":"127.02947766","items":[{"name":"매홀조경개발주식회사","tel":"031-221-0863","addr":"경기도 수원시 권선구 곡반정동 576-5번지 리치빌 2층 201호","category":"건축자재 - 인테리어전문"}]},{"lat":"37.2449033","long":"127.03191497","items":[{"name":"맥시카나치킨","tel":"031-235-9949","addr":"경기도 수원시 권선구 곡반정동 515-1번지 102호","category":"일반휴게음식 - 주점"},{"name":"소소뷰티","tel":"","addr":"경기도 수원시 권선구 곡반정동 515-1번지","category":"보건위생 - 피부미용실"},{"name":"켓츠아이","tel":"070-4671-7156","addr":"경기도 수원시 권선구 곡반정동 515-1번지 101호","category":"보건위생 - 피부미용실"}]},{"lat":"37.24138074","long":"127.02989628","items":[{"name":"머슬카롱","tel":"","addr":"경기도 수원시 권선구 곡반정동 540-14번지 순빌딩 102호","category":"일반휴게음식 - 서양음식"},{"name":"아름다운인테리어","tel":"031-221-8630","addr":"경기도 수원시 권선구 곡반정동 540-14번지 순빌딩 103호","category":"직물 - 카페트,커튼,천막,지물"}]},{"lat":"37.243407712","long":"127.03139596","items":[{"name":"메디카서비스","tel":"031-236-5211","addr":"경기도 수원시 권선구 곡반정동 517-18,19","category":"자동차정비 유지 - 자동차정비"}]},{"lat":"37.241100769","long":"127.03261226","items":[{"name":"명당골한식뷔페","tel":"031-267-2665","addr":"경기도 수원시 권선구 곡반정동 543-3번지","category":"일반휴게음식 - 일반한식"},{"name":"제이바 (J BAR)","tel":"031-222-0204","addr":"경기도 수원시 권선구 곡반정동 543-3번지 201호","category":"일반휴게음식 - 주점"}]},{"lat":"37.234218543","long":"127.02498045","items":[{"name":"명동손칼국수","tel":"031-232-7331","addr":"경기도 수원시 권선구 곡반정동 590-6번지 101호","category":"일반휴게음식 - 일반한식"}]},{"lat":"37.234074226","long":"127.02578051","items":[{"name":"명성오토서비스","tel":"031-212-3337","addr":"경기도 수원시 권선구 곡반정동 598-12번지","category":"자동차정비 유지 - 자동차정비"}]},{"lat":"37.238993036","long":"127.02974893","items":[{"name":"명인만두 곡반정점","tel":"031-232-3899","addr":"경기도 수원시 권선구 곡반정동 558-8번지 1층","category":"일반휴게음식 - 스넥"},{"name":"불난술집","tel":"031-111-1111","addr":"경기도 수원시 권선구 곡반정동 558-8번지 101호","category":"일반휴게음식 - 일반한식"},{"name":"어장관리 바다집","tel":"031-234-8912","addr":"경기도 수원시 권선구 곡반정동 558-8번지 102호","category":"일반휴게음식 - 주점"}]},{"lat":"37.242182519","long":"127.03050516","items":[{"name":"모꼬지철판곱창","tel":"031-233-8292","addr":"경기도 수원시 권선구 곡반정동 535-1번지 1층","category":"일반휴게음식 - 일반한식"}]},{"lat":"37.236407174","long":"127.02928597","items":[{"name":"모네의정원","tel":"070-4101-6579","addr":"경기도 수원시 권선구 곡반정동 577-5번지 104호","category":"의류 - 정장"}]},{"lat":"37.241218008","long":"127.03219531","items":[{"name":"모두심부름","tel":"031-281-9890","addr":"경기도 수원시 권선구 곡반정동 537-7번지","category":"보건위생 - 기타대인서비스"},{"name":"캐리어 권선센타","tel":"031-233-7786","addr":"경기도 수원시 권선구 곡반정동 537-7번지 101호","category":"회원제형태 - 기타4"},{"name":"케이엘 공조시스템","tel":"031-477-7703","addr":"경기도 수원시 권선구 곡반정동 537-7번지 102호","category":"용역 서비스 - 기타용역서비스"}]},{"lat":"37.242073836","long":"127.03280423","items":[{"name":"모리","tel":"070-4028-4902","addr":"경기도 수원시 권선구 곡반정동 531-10번지 1층","category":"일반휴게음식 - 일반한식"}]},{"lat":"37.244299688","long":"127.0315879","items":[{"name":"모아나","tel":"","addr":"경기도 수원시 권선구 곡반정동 515-7번지 1층 101호","category":"보건위생 - 미용재료"}]},{"lat":"37.242127813","long":"127.03314236","items":[{"name":"문현토탈케어","tel":"031-267-3211","addr":"경기도 수원시 권선구 곡반정동 532-1번지 402호","category":"주방용구 - 정수기"},{"name":"바흐(Bach)","tel":"","addr":"경기도 수원시 권선구 곡반정동 532-1번지 대부빌딩 101호","category":"일반휴게음식 - 일반한식"},{"name":"에이플러스","tel":"031-232-0850","addr":"경기도 수원시 권선구 곡반정동 532-1번지 103호","category":"의류 - 기타의류"},{"name":"페르시안캣","tel":"031-223-9678","addr":"경기도 수원시 권선구 곡반정동 532-1번지 103호","category":"문화.취미 - 애완동물"}]},{"lat":"37.242488254","long":"127.0330298","items":[{"name":"미니스톱 곡반중앙점","tel":"031-1577-9621","addr":"경기도 수원시 권선구 곡반정동 526-11번지 1층","category":"유통업 영리 - 편 의 점"}]},{"lat":"37.239353398","long":"127.02997445","items":[{"name":"미니스톱곡반정동점","tel":"031-340-4260","addr":"경기도 수원시 권선구 곡반정동 557-10번지 1층","category":"유통업 영리 - 편 의 점"}]},{"lat":"37.234272289","long":"127.02661447","items":[{"name":"미디어 뷰 경기점","tel":"070-7801-1765","addr":"경기도 수원시 권선구 곡반정동 594-6번지","category":"용역 서비스 - 기타용역서비스"}]},{"lat":"37.243795104","long":"127.03161025","items":[{"name":"미락식당","tel":"031-237-0350","addr":"경기도 수원시 권선구 곡반정동 517-22번지","category":"일반휴게음식 - 일반한식"}]},{"lat":"37.240299034","long":"127.03186813","items":[{"name":"미래컴퓨터","tel":"031-890-7030","addr":"경기도 수원시 권선구 곡반정동 544-9번지 사랑빌딩 102호","category":"수리서비스 - 사무·통신기기수리"},{"name":"욜로고기한끼","tel":"02-1111-1111","addr":"경기도 수원시 권선구 곡반정동 544-9번지 1층","category":"일반휴게음식 - 일반한식"}]},{"lat":"37.241659695","long":"127.03145166","items":[{"name":"미소세탁소","tel":"031-232-2412","addr":"경기도 수원시 권선구 곡반정동 536-16번지 1층 102호","category":"수리서비스 - 세탁소"},{"name":"위드미곡반정점","tel":"02-6916-1500","addr":"경기도 수원시 권선구 곡반정동 536-16번지","category":"유통업 영리 - 편 의 점"}]},{"lat":"37.241875635","long":"127.03270272","items":[{"name":"미스터마트수원중앙점","tel":"031-224-2167","addr":"경기도 수원시 권선구 곡반정동 533-8번지 101호","category":"유통업 영리 - 편 의 점"}]},{"lat":"37.240686351","long":"127.03238669","items":[{"name":"미스터스마일","tel":"031-226-2622","addr":"경기도 수원시 권선구 곡반정동 543-6번지 101호","category":"일반휴게음식 - 일반한식"},{"name":"세종당구장","tel":"","addr":"경기도 수원시 권선구 곡반정동 543-6번지 2층","category":"레저업소 - 당 구 장"}]},{"lat":"37.244515908","long":"127.03170069","items":[{"name":"미스터컷트","tel":"031-234-4821","addr":"경기도 수원시 권선구 곡반정동 515-5번지 승인빌딩 1층","category":"보건위생 - 미용원"},{"name":"배꼽시계","tel":"031-236-0055","addr":"경기도 수원시 권선구 곡반정동 515-5번지 승인빌딩","category":"일반휴게음식 - 일반한식"}]},{"lat":"37.245713956","long":"127.03300854","items":[{"name":"미윤","tel":"","addr":"경기도 수원시 권선구 곡반정동 507-3번지 403호","category":"의류 - 정장"}]},{"lat":"37.234687224","long":"127.02420303","items":[{"name":"미크레(MIQREH)","tel":"031-302-0992","addr":"경기도 수원시 권선구 곡반정동 589-8번지 103호","category":"일반휴게음식 - 서양음식"},{"name":"오디오앤택","tel":"031-217-2353","addr":"경기도 수원시 권선구 곡반정동 589-8번지 102호","category":"자동차정비 유지 - 자동차부품"},{"name":"한양케미칼","tel":"031-1599-3604","addr":"경기도 수원시 권선구 곡반정동 589-8번지","category":"건축자재 - 기타건축자재"}]},{"lat":"37.242686635","long":"127.03242128","items":[{"name":"민선비누공예","tel":"031-207-8117","addr":"경기도 수원시 권선구 곡반정동 526-15 19블럭 15롯트 103","category":"기타 - 기타 전문점"},{"name":"비쥬","tel":"031-226-2541","addr":"경기도 수원시 권선구 곡반정동 526-15번지","category":"보건위생 - 피부미용실"},{"name":"헤어바이민","tel":"031-243-9028","addr":"경기도 수원시 권선구 곡반정동 526-15번지","category":"보건위생 - 미용원"}]},{"lat":"37.234326751","long":"127.02452972","items":[{"name":"밀키테라피","tel":"031-231-2252","addr":"경기도 수원시 권선구 곡반정동 589-5번지","category":"보건위생 - 화장품"}]},{"lat":"37.241515882","long":"127.02995268","items":[{"name":"밍키스 맘","tel":"031-893-7035","addr":"경기도 수원시 권선구 곡반정동 540-1번지 철빌딩 102호","category":"문화.취미 - 애완동물"},{"name":"한누리 편의점","tel":"031-237-1337","addr":"경기도 수원시 권선구 곡반정동 540-1번지 철빌딩 1층 101호","category":"유통업 영리 - 편 의 점"}]},{"lat":"37.242182597","long":"127.03016705","items":[{"name":"바니헤어","tel":"070-778-9592","addr":"경기도 수원시 권선구 곡반정동 539-1번지 101호","category":"보건위생 - 미용원"}]},{"lat":"37.245795196","long":"127.0324225","items":[{"name":"바디클래식","tel":"031-238-7202","addr":"경기도 수원시 권선구 곡반정동 504-2번지 201(201호~201호)","category":"보건위생 - 화장품"},{"name":"하니펫살롱","tel":"031-307-1015","addr":"경기도 수원시 권선구 곡반정동 504-2번지","category":"문화.취미 - 애완동물"}]},{"lat":"37.243659367","long":"127.03392063","items":[{"name":"바이크미캐닉아카데미","tel":"031-223-3990","addr":"경기도 수원시 권선구 곡반정동 520-6번지 101호","category":"레져용품 - 스포츠·레져용품"},{"name":"별이시작되는바다","tel":"031-202-2072","addr":"경기도 수원시 권선구 곡반정동 520-6번지","category":"레져용품 - 스포츠·레져용품"}]},{"lat":"37.237155002","long":"127.02942146","items":[{"name":"박경규항아리보쌈","tel":"031-206-5871","addr":"경기도 수원시 권선구 곡반정동 575-3번지","category":"일반휴게음식 - 일반한식"}]},{"lat":"37.237884597","long":"127.03048105","items":[{"name":"반정골","tel":"031-221-8990","addr":"경기도 수원시 권선구 곡반정동 567-8번지","category":"일반휴게음식 - 일반한식"}]},{"lat":"37.242461447","long":"127.03213944","items":[{"name":"발롱(BALLOW)","tel":"070-4038-3955","addr":"경기도 수원시 권선구 곡반정동 531-3번지 102호","category":"의류 - 정장"}]},{"lat":"37.240461234","long":"127.03181184","items":[{"name":"밥집","tel":"031-224-5517","addr":"경기도 수원시 권선구 곡반정동 544-7번지 대승빌딩 1층 101호","category":"일반휴게음식 - 일반한식"}]},{"lat":"37.237100909","long":"127.02955667","items":[{"name":"방천매운탕","tel":"031-233-2856","addr":"경기도 수원시 권선구 곡반정동 575-4번지","category":"일반휴게음식 - 일반한식"},{"name":"비너스노래연습장","tel":"031-226-2003","addr":"경기도 수원시 권선구 곡반정동 575-4번지 2층","category":"레저업소 - 노 래 방"}]},{"lat":"37.23865974","long":"127.02936564","items":[{"name":"백채 곡반정동점","tel":"031-232-6288","addr":"경기도 수원시 권선구 곡반정동 564-7번지 104호","category":"일반휴게음식 - 일반한식"},{"name":"스시군","tel":"031-222-2433","addr":"경기도 수원시 권선구 곡반정동 564-7번지 101호","category":"일반휴게음식 - 일식·회집"},{"name":"큰맘할매순대국(곡반정점)","tel":"031-222-9088","addr":"경기도 수원시 권선구 곡반정동 564-7번지","category":"일반휴게음식 - 일반한식"}]},{"lat":"37.231993232","long":"127.02363883","items":[{"name":"범양냉열","tel":"031-225-9333","addr":"경기도 수원시 권선구 곡반정동 607-7번지","category":"전기제품 - 냉열기기"}]},{"lat":"37.242461582","long":"127.0315872","items":[{"name":"베베네코","tel":"031-235-2930","addr":"경기도 수원시 권선구 곡반정동 530-6번지 하늘채 501호","category":"문화.취미 - 애완동물"}]},{"lat":"37.244209598","long":"127.03153151","items":[{"name":"베스트명품세탁","tel":"031-223-8939","addr":"경기도 수원시 권선구 곡반정동 515-8번지 101호","category":"수리서비스 - 세탁소"}]},{"lat":"37.239741102","long":"127.0288138","items":[{"name":"베테랑 외형복원","tel":"031-224-7789","addr":"경기도 수원시 권선구 곡반정동 557-1번지 1층","category":"자동차정비 유지 - 카인테리어"},{"name":"엠씨아이(M.C.I)","tel":"031-236-7327","addr":"경기도 수원시 권선구 곡반정동 557-1번지","category":"회원제형태 - 기타4"}]},{"lat":"37.234768033","long":"127.02572437","items":[{"name":"벨다 (beldad)","tel":"031-238-5755","addr":"경기도 수원시 권선구 곡반정동 586-9번지 한아름빌딩 102호","category":"보건위생 - 피부미용실"},{"name":"저팔계생삼겹살","tel":"031-233-2626","addr":"경기도 수원시 권선구 곡반정동 586-9번지","category":"일반휴게음식 - 일반한식"}]},{"lat":"37.24163292","long":"127.03036972","items":[{"name":"벨킨스","tel":"031-232-3377","addr":"경기도 수원시 권선구 곡반정동 538-13번지 1층","category":"신변잡화 - 기타잡화"}]},{"lat":"37.233885238","long":"127.02456341","items":[{"name":"벽송사무용가구","tel":"031-244-9988","addr":"경기도 수원시 권선구 곡반정동 604-3번지 101호","category":"가구 - 일반가구"}]},{"lat":"37.23738023","long":"127.02955677","items":[{"name":"별미닭갈비","tel":"031-238-5542","addr":"경기도 수원시 권선구 곡반정동 571-5번지","category":"일반휴게음식 - 일반한식"}]},{"lat":"37.240515332","long":"127.03166535","items":[{"name":"병천호림순대","tel":"031-224-3801","addr":"경기도 수원시 권선구 곡반정동 544-6번지","category":"일반휴게음식 - 일반한식"}]},{"lat":"37.239821773","long":"127.03067335","items":[{"name":"보라컴","tel":"031-224-2145","addr":"경기도 수원시 권선구 곡반정동 552-16번지","category":"사무통신 - 컴퓨터"},{"name":"청목원42","tel":"031-239-8290","addr":"경기도 수원시 권선구 곡반정동 552-16번지 304호","category":"음료식품 - 기타음료식품"},{"name":"필라테스희","tel":"","addr":"경기도 수원시 권선구 곡반정동 552-16번지 1층 105호","category":"레저업소 - 헬스클럽"}]},{"lat":"37.233182669","long":"127.02322221","items":[{"name":"보성전력","tel":"031-223-5214","addr":"경기도 수원시 권선구 곡반정동 610-15번지 1층 101호","category":"용역 서비스 - 기타용역서비스"},{"name":"정성종합공사","tel":"031-239-9096","addr":"경기도 수원시 권선구 곡반정동 610-15번지","category":"건축자재 - 인테리어전문"}]},{"lat":"37.240551207","long":"127.03234156","items":[{"name":"보현유통","tel":"031-222-9052","addr":"경기도 수원시 권선구 곡반정동 543-7,33블럭7롯트","category":"신변잡화 - 액세서리"},{"name":"주상전하","tel":"031-000-0000","addr":"경기도 수원시 권선구 곡반정동 543-7번지 조은빌 101호","category":"일반휴게음식 - 일반한식"},{"name":"탑커스텀(TOP CUSTOM)","tel":"","addr":"경기도 수원시 권선구 곡반정동 543-7번지 102,103호","category":"자동차정비 유지 - 카인테리어"}]},{"lat":"37.237884765","long":"127.02974853","items":[{"name":"부라보맥주","tel":"","addr":"경기도 수원시 권선구 곡반정동 568-2번지 1층","category":"일반휴게음식 - 주점"}]},{"lat":"37.236353077","long":"127.02944372","items":[{"name":"분화구","tel":"","addr":"경기도 수원시 권선구 곡반정동 577-6번지 1층 101호","category":"일반휴게음식 - 일반한식"},{"name":"수원온건삼계탕","tel":"031-891-3375","addr":"경기도 수원시 권선구 곡반정동 577-6번지 상가동 102호","category":"일반휴게음식 - 일반한식"}]},{"lat":"37.2348491","long":"127.02585962","items":[{"name":"불로군불족발","tel":"031-231-2129","addr":"경기도 수원시 권선구 곡반정동 586-8번지 1층","category":"일반휴게음식 - 일반한식"},{"name":"심야스테이크곡반점","tel":"031-233-5333","addr":"경기도 수원시 권선구 곡반정동 586-8번지 한아름주택 102호","category":"일반휴게음식 - 일반한식"}]},{"lat":"37.243155536","long":"127.03092252","items":[{"name":"뷰티케어","tel":"031-238-5333","addr":"경기도 수원시 권선구 곡반정동 516-10번지 301호","category":"보건위생 - 화장품"},{"name":"뷰티케어","tel":"031-238-5333","addr":"경기도 수원시 권선구 곡반정동 516-10번지 301호","category":"보건위생 - 피부미용실"},{"name":"스마트치과의원","tel":"031-222-2812","addr":"경기도 수원시 권선구 곡반정동 516-10번지 2층","category":"의원 - 치과의원"},{"name":"파리바게뜨(수원아이파크시티점)","tel":"031-224-3070","addr":"경기도 수원시 권선구 곡반정동 516-10번지 1층","category":"음료식품 - 제과점"}]},{"lat":"37.231686088","long":"127.02775179","items":[{"name":"뷰티클린","tel":"","addr":"경기도 수원시 권선구 곡반정동 348-5번지 2층 201호","category":"용역 서비스 - 종합용역"},{"name":"주시회사 퍼스트","tel":"070-7701-3214","addr":"경기도 수원시 권선구 곡반정동 348-5번지 1층","category":"전기제품 - 냉열기기"}]},{"lat":"37.236794711","long":"127.02886914","items":[{"name":"뷰티호텔(BEATY HOTEL)110호","tel":"","addr":"경기도 수원시 권선구 곡반정동 576-9번지 2층","category":"보건위생 - 화장품"},{"name":"앙포레모리노곡반정점","tel":"031-238-3601","addr":"경기도 수원시 권선구 곡반정동 576-9번지","category":"보건위생 - 미용원"},{"name":"케이엔키즈영어학원","tel":"031-235-5688","addr":"경기도 수원시 권선구 곡반정동 576-9번지 3층","category":"학원 - 보습학원"}]},{"lat":"37.240073798","long":"127.03177788","items":[{"name":"브로스 카케어(W Garage)","tel":"","addr":"경기도 수원시 권선구 곡반정동 549-8번지 102호","category":"자동차정비 유지 - 카인테리어"},{"name":"코코바숯불치킨","tel":"","addr":"경기도 수원시 권선구 곡반정동 549-8번지","category":"일반휴게음식 - 스넥"},{"name":"황금마트","tel":"031-233-7751","addr":"경기도 수원시 권선구 곡반정동 549-8번지 102호","category":"유통업 영리 - 슈퍼마켓"}]},{"lat":"37.23412737","long":"127.03011908","items":[{"name":"블루상사","tel":"031-225-8141","addr":"경기도 수원시 권선구 곡반정동 315-2번지","category":"전기제품 - 가전제품"}]},{"lat":"37.241687124","long":"127.02974988","items":[{"name":"블리(Vely)","tel":"031-336-5070","addr":"경기도 수원시 권선구 곡반정동 539-6번지 남경빌딩 103호","category":"의류 - 정장"},{"name":"핑크코니(PINKCONY)","tel":"070-8623-6775","addr":"경기도 수원시 권선구 곡반정동 539-6번지 남경빌딩 103호","category":"의류 - 정장"}]},{"lat":"37.245659572","long":"127.0342483","items":[{"name":"블리스플 데이","tel":"031-226-2258","addr":"경기도 수원시 권선구 곡반정동 506-8번지 101호","category":"보건위생 - 화장품"}]},{"lat":"37.234659592","long":"127.02731327","items":[{"name":"블리자드","tel":"","addr":"경기도 수원시 권선구 곡반정동 593-6번지 3층","category":"레져용품 - 스포츠·레져용품"},{"name":"이모김밥","tel":"031-214-7373","addr":"경기도 수원시 권선구 곡반정동 593-6번지","category":"일반휴게음식 - 일반한식"},{"name":"좋은하루치과의원","tel":"031-267-2980","addr":"경기도 수원시 권선구 곡반정동 593-6번지","category":"의원 - 치과의원"},{"name":"찬스노래연습장","tel":"031-233-3373","addr":"경기도 수원시 권선구 곡반정동 593-6번지","category":"레저업소 - 노 래 방"},{"name":"투다리 곡반점","tel":"031-111-1111","addr":"경기도 수원시 권선구 곡반정동 593-6번지 1층","category":"일반휴게음식 - 주점"}]},{"lat":"37.239272053","long":"127.03105631","items":[{"name":"비''스타일(B''s style)","tel":"031-223-9969","addr":"경기도 수원시 권선구 곡반정동 554-5번지","category":"보건위생 - 미용원"},{"name":"조앤스파이","tel":"070-8877-0469","addr":"경기도 수원시 권선구 곡반정동 554-5번지 101호","category":"음료식품 - 제과점"},{"name":"핫도그애견샵","tel":"031-8001-0330","addr":"경기도 수원시 권선구 곡반정동 554-5번지 1층","category":"문화.취미 - 애완동물"}]},{"lat":"37.241020265","long":"127.03016664","items":[{"name":"비내리는 포차,숲","tel":"031-111-1111","addr":"경기도 수원시 권선구 곡반정동 545-3번지 102,103호","category":"일반휴게음식 - 주점"},{"name":"아이월드","tel":"070-4001-6356","addr":"경기도 수원시 권선구 곡반정동 545-3번지 201호","category":"서적문구 - 일반서적"},{"name":"알파걸헤어","tel":"031-221-4513","addr":"경기도 수원시 권선구 곡반정동 545-3번지","category":"보건위생 - 미용원"}]},{"lat":"37.244605544","long":"127.03356036","items":[{"name":"비에이치시곡반아이파크시티(BHC곡반아이파","tel":"031-238-0092","addr":"경기도 수원시 권선구 곡반정동 512-10번지 1층","category":"일반휴게음식 - 스넥"}]},{"lat":"37.242272398","long":"127.03145189","items":[{"name":"비전케어(Vision Care)","tel":"070-4685-1684","addr":"경기도 수원시 권선구 곡반정동 534-6번지 1층","category":"보건위생 - 안경"}]},{"lat":"37.242938985","long":"127.03217344","items":[{"name":"비타민키친","tel":"031-233-0280","addr":"경기도 수원시 권선구 곡반정동 526-2번지 1층 101호","category":"일반휴게음식 - 일반한식"}]},{"lat":"37.23871384","long":"127.02919661","items":[{"name":"빨간석쇠구이 ( 곡반점)","tel":"","addr":"경기도 수원시 권선구 곡반정동 564-6번지 1층 104호","category":"일반휴게음식 - 일반한식"},{"name":"솥뚜껑삼겹살","tel":"031-234-9027","addr":"경기도 수원시 권선구 곡반정동 564-6번지 103호","category":"일반휴게음식 - 일반한식"}]},{"lat":"37.245353395","long":"127.0335832","items":[{"name":"뽀송뽀송운동화","tel":"031-235-4789","addr":"경기도 수원시 권선구 곡반정동 507-11번지","category":"수리서비스 - 세탁소"},{"name":"원베스트다이브 (ONE BEST DIVE)","tel":"031-235-3772","addr":"경기도 수원시 권선구 곡반정동 507-11번지 1층","category":"레저업소 - 기타레져업소"}]},{"lat":"37.233938737","long":"127.02744827","items":[{"name":"사단법인 경기중소기업유통협회","tel":"031-259-7688","addr":"경기도 수원시 권선구 곡반정동 596-18번지","category":"신변잡화 - 기타잡화"}]},{"lat":"37.231551148","long":"127.02670377","items":[{"name":"사단법인휴먼몽골사업단","tel":"031-245-3555","addr":"경기도 수원시 권선구 곡반정동 387-2번지 2층","category":"기타 - 비영리/비대상"}]},{"lat":"37.233714052","long":"127.02450701","items":[{"name":"사부자축산","tel":"031-303-9519","addr":"경기도 수원시 권선구 곡반정동 604-5번지","category":"음료식품 - 정육점"}]},{"lat":"37.235245451","long":"127.02638939","items":[{"name":"사이버블루PC방","tel":"070-8082-7161","addr":"경기도 수원시 권선구 곡반정동 584-6번지 201호","category":"레저업소 - 기타레져업소"},{"name":"파란풍차","tel":"031-236-0057","addr":"경기도 수원시 권선구 곡반정동 584-6번지","category":"음료식품 - 제과점"}]},{"lat":"37.242542743","long":"127.03130548","items":[{"name":"삼성에어컨","tel":"","addr":"경기도 수원시 권선구 곡반정동 530-8번지 한아름주택 102호","category":"수리서비스 - 가정용품수리"}]},{"lat":"37.231488729","long":"127.02319922","items":[{"name":"삼성종합주방그릇도매센타","tel":"031-273-9992","addr":"경기도 수원시 권선구 곡반정동 402-3번지","category":"주방용구 - 주방용구"}]},{"lat":"37.245209178","long":"127.03378601","items":[{"name":"삼일사이언스/원격지","tel":"070-8831-6127","addr":"경기도 수원시 권선구 곡반정동 509-11번지 204호","category":"기타 - 기타 전문점"}]},{"lat":"37.234245747","long":"127.02403387","items":[{"name":"샘물판매","tel":"","addr":"경기도 수원시 권선구 곡반정동 603-5번지","category":"유통업 영리 - 기타유통업"}]},{"lat":"37.234578783","long":"127.02589335","items":[{"name":"서울유통","tel":"031-204-0854","addr":"경기도 수원시 권선구 곡반정동 592-8번지 102호","category":"음료식품 - 기타음료식품"},{"name":"하나로수선","tel":"031-236-0555","addr":"경기도 수원시 권선구 곡반정동 592-8번지","category":"수리서비스 - 세탁소"},{"name":"혼밥대장","tel":"","addr":"경기도 수원시 권선구 곡반정동 592-8번지 1층 101호","category":"일반휴게음식 - 일반한식"},{"name":"혼밥대장/(주)원앤하프코리아","tel":"031-000-0000","addr":"경기도 수원시 권선구 곡반정동 592-8번지 1층","category":"일반휴게음식 - 일반한식"}]},{"lat":"37.241712021","long":"127.03792071","items":[{"name":"서진갤러리","tel":"031-221-0592","addr":"경기도 수원시 권선구 곡반정동 111-5번지","category":"건축자재 - 기타건축자재"}]},{"lat":"37.233965954","long":"127.02653549","items":[{"name":"서진유통","tel":"031-293-7768","addr":"경기도 수원시 권선구 곡반정동 595-14번지 102호","category":"유통업 영리 - 슈퍼마켓"}]},{"lat":"37.237046814","long":"127.02970316","items":[{"name":"섬마을영산도","tel":"031-237-2422","addr":"경기도 수원시 권선구 곡반정동 575-5번지","category":"일반휴게음식 - 일반한식"}]},{"lat":"37.23229863","long":"127.02850699","items":[{"name":"성경식품수원총판","tel":"031-224-4131","addr":"경기도 수원시 권선구 곡반정동 346-2번지","category":"음료식품 - 기타음료식품"},{"name":"주식회사 에스지유통","tel":"031-224-4131","addr":"경기도 수원시 권선구 곡반정동 346-2번지","category":"음료식품 - 기타음료식품"}]},{"lat":"37.236821662","long":"127.02922976","items":[{"name":"성세무역","tel":"031-246-5354","addr":"경기도 수원시 권선구 곡반정동 576-3번지 1층 101호","category":"음료식품 - 기타음료식품"},{"name":"토니헤어","tel":"031-224-6289","addr":"경기도 수원시 권선구 곡반정동 576-3번지 1층","category":"보건위생 - 미용원"},{"name":"후레쉬시가","tel":"","addr":"경기도 수원시 권선구 곡반정동 576-3번지 1층 101호","category":"기타 - 기타 전문점"}]},{"lat":"37.237244889","long":"127.03036812","items":[{"name":"성지애드","tel":"031-222-7579","addr":"경기도 수원시 권선구 곡반정동 573-8","category":"용역 서비스 - 종합용역"},{"name":"한별교육","tel":"031-302-1109","addr":"경기도 수원시 권선구 곡반정동 573-8번지 창업빌딩 상가동 102호","category":"서적문구 - 일반서적"}]},{"lat":"37.240965634","long":"127.03253331","items":[{"name":"성진수산","tel":"031-291-9113","addr":"경기도 수원시 권선구 곡반정동 543-4번지 101호","category":"일반휴게음식 - 일반한식"},{"name":"지선이네술부자","tel":"031-239-9282","addr":"경기도 수원시 권선구 곡반정동 543-4번지 1층 103호","category":"일반휴게음식 - 주점"}]},{"lat":"37.234768292","long":"127.02433828","items":[{"name":"세명비데","tel":"031-203-7114","addr":"경기도 수원시 권선구 곡반정동 589-1번지 103호","category":"기타 - 기타 전문점"}]},{"lat":"37.235632971","long":"127.02600636","items":[{"name":"세븐 노래연습장","tel":"031-232-4928","addr":"경기도 수원시 권선구 곡반정동 584-2번지 3층","category":"레저업소 - 노 래 방"},{"name":"칼이쓰마","tel":"031-234-6063","addr":"경기도 수원시 권선구 곡반정동 584-2번지 우주빌딩","category":"일반휴게음식 - 일반한식"}]},{"lat":"37.235606005","long":"127.02566828","items":[{"name":"세븐일레븐수원곡반본점","tel":"031-1577-0711","addr":"경기도 수원시 권선구 곡반정동 585-1번지 1층","category":"유통업 영리 - 편 의 점"}]},{"lat":"37.234686859","long":"127.0261413","items":[{"name":"세븐일레븐수원곡반하나점","tel":"031-1577-0711","addr":"경기도 수원시 권선구 곡반정동 592-10번지 1층","category":"유통업 영리 - 편 의 점"}]},{"lat":"37.237128051","long":"127.02906083","items":[{"name":"세븐일레븐수원곡선로점","tel":"","addr":"경기도 수원시 권선구 곡반정동 575-12번지 1층","category":"유통업 영리 - 편 의 점"}]},{"lat":"37.232965954","long":"127.02578017","items":[{"name":"세상물정중고가전","tel":"070-8614-8924","addr":"경기도 수원시 권선구 곡반정동 597-11번지 101호","category":"전기제품 - 가전제품"}]},{"lat":"37.241542759","long":"127.03061763","items":[{"name":"세원커머스","tel":"031-252-2331","addr":"경기도 수원시 권선구 곡반정동 538-11번지 103호","category":"의류 - 정장"},{"name":"해피타임","tel":"050-4570-1600","addr":"경기도 수원시 권선구 곡반정동 538-11번지 1층","category":"용역 서비스 - 종합용역"}]},{"lat":"37.234245791","long":"127.02378595","items":[{"name":"세종상사/DID경기남부대리점","tel":"031-272-0100","addr":"경기도 수원시 권선구 곡반정동 603-6번지","category":"건축자재 - 인테리어전문"}]},{"lat":"37.240966164","long":"127.03033567","items":[{"name":"션룩(SEANLOOK)","tel":"031-297-6055","addr":"경기도 수원시 권선구 곡반정동 545-4번지 101호","category":"의류 - 정장"}]},{"lat":"37.242488505","long":"127.03202675","items":[{"name":"소담찬","tel":"031-225-0020","addr":"경기도 수원시 권선구 곡반정동 531-2번지","category":"음료식품 - 기타음료식품"},{"name":"컬러앤클리닉","tel":"","addr":"경기도 수원시 권선구 곡반정동 531-2번지 1층 101호","category":"보건위생 - 미용원"}]},{"lat":"37.240821716","long":"127.03153023","items":[{"name":"소문난밥상","tel":"031-223-5728","addr":"경기도 수원시 권선구 곡반정동 542-11번지","category":"일반휴게음식 - 일반한식"}]},{"lat":"37.237821926","long":"127.02870045","items":[{"name":"소세지야맥주집 수원곡반정동점","tel":"031-231-1328","addr":"경기도 수원시 권선구 곡반정동 570-9번지 1층 101호","category":"일반휴게음식 - 주점"}]},{"lat":"37.239713577","long":"127.03097759","items":[{"name":"속눈썹","tel":"070-8201-5680","addr":"경기도 수원시 권선구 곡반정동 552-13번지 101호","category":"보건위생 - 화장품"}]},{"lat":"37.241794474","long":"127.03297317","items":[{"name":"송탄참작부대찌개","tel":"031-251-9291","addr":"경기도 수원시 권선구 곡반정동 532-4번지 1층","category":"일반휴게음식 - 일반한식"}]},{"lat":"37.235407741","long":"127.02585979","items":[{"name":"수산시장","tel":"","addr":"경기도 수원시 권선구 곡반정동 585-3번지","category":"일반휴게음식 - 일식·회집"}]},{"lat":"37.241605285","long":"127.0328604","items":[{"name":"수원댁 밥상","tel":"031-213-1346","addr":"경기도 수원시 권선구 곡반정동 532-6번지 1층","category":"일반휴게음식 - 일반한식"},{"name":"테마 노래연습장","tel":"031-235-3383","addr":"경기도 수원시 권선구 곡반정동 532-6번지 2층","category":"레저업소 - 노 래 방"}]},{"lat":"37.242686999","long":"127.03092234","items":[{"name":"수원붙임머리 와이앤제이","tel":"031-233-5567","addr":"경기도 수원시 권선구 곡반정동 530-11번지 102호","category":"보건위생 - 미용원"},{"name":"오렌지스파게토","tel":"031-225-0394","addr":"경기도 수원시 권선구 곡반정동 530-11번지 101호","category":"일반휴게음식 - 서양음식"}]},{"lat":"37.235550993","long":"127.03016466","items":[{"name":"수원어린이집[아이행복]","tel":"031-222-2748","addr":"경기도 수원시 권선구 곡반정동 307-2번지","category":"학원 - 유아원"}]},{"lat":"37.242603946","long":"127.03824796","items":[{"name":"수원자동차중고부품","tel":"031-221-8202","addr":"경기도 수원시 권선구 곡반정동 109-9번지","category":"자동차정비 유지 - 자동차부품"}]},{"lat":"37.244876081","long":"127.03267009","items":[{"name":"수원자전거 도매센타","tel":"031-302-0771","addr":"경기도 수원시 권선구 곡반정동 513-13번지 101호","category":"레져용품 - 스포츠·레져용품"},{"name":"애니멀팜","tel":"","addr":"경기도 수원시 권선구 곡반정동 513-13번지","category":"학원 - 기타 교육기관"}]},{"lat":"37.238209365","long":"127.02872312","items":[{"name":"수원정보통신","tel":"031-257-3053","addr":"경기도 수원시 권선구 곡반정동 569-5번지 1층 103호","category":"사무통신 - 통신기기"}]},{"lat":"37.245939174","long":"127.03316642","items":[{"name":"수원컴퓨터SD","tel":"070-7664-1418","addr":"경기도 수원시 권선구 곡반정동 503-5번지","category":"사무통신 - 컴퓨터"}]},{"lat":"37.234245352","long":"127.02614117","items":[{"name":"순수자연치즈","tel":"031-308-7888","addr":"경기도 수원시 권선구 곡반정동 594-10번지 101호","category":"음료식품 - 기타음료식품"}]},{"lat":"37.238407287","long":"127.03008681","items":[{"name":"스타당구클럽","tel":"031-233-1363","addr":"경기도 수원시 권선구 곡반정동 563-2번지 2층","category":"레저업소 - 당 구 장"},{"name":"시골순대국","tel":"031-266-6889","addr":"경기도 수원시 권선구 곡반정동 563-2번지 1동","category":"일반휴게음식 - 일반한식"}]},{"lat":"37.241515264","long":"127.03253353","items":[{"name":"시골순대","tel":"031-225-6889","addr":"경기도 수원시 권선구 곡반정동 536-8번지 1층","category":"일반휴게음식 - 일반한식"},{"name":"휸이네새참","tel":"031-225-8248","addr":"경기도 수원시 권선구 곡반정동 536-8번지 102호","category":"일반휴게음식 - 스넥"}]},{"lat":"37.239884532","long":"127.03198067","items":[{"name":"시골숯불치킨","tel":"031-892-9288","addr":"경기도 수원시 권선구 곡반정동 550-5번지","category":"일반휴게음식 - 주점"}]},{"lat":"37.23427196","long":"127.0282034","items":[{"name":"시그널","tel":"070-7502-0101","addr":"경기도 수원시 권선구 곡반정동 596-1번지 103호","category":"일반휴게음식 - 일반한식"},{"name":"썸(Thumb)","tel":"070-7738-5063","addr":"경기도 수원시 권선구 곡반정동 596-1번지 102호","category":"일반휴게음식 - 일반한식"}]},{"lat":"37.241741013","long":"127.030505","items":[{"name":"시대에어컨","tel":"031-302-8157","addr":"경기도 수원시 권선구 곡반정동 538-3번지 403호","category":"용역 서비스 - 기타용역서비스"}]},{"lat":"37.241876308","long":"127.02989646","items":[{"name":"시장이반찬이다","tel":"031-234-8234","addr":"경기도 수원시 권선구 곡반정동 539-4번지 1층","category":"일반휴게음식 - 일반한식"}]},{"lat":"37.245353278","long":"127.03403403","items":[{"name":"시후","tel":"02-6340-5359","addr":"경기도 수원시 권선구 곡반정동 509-3번지","category":"용역 서비스 - 기타용역서비스"}]},{"lat":"37.234939153","long":"127.02611884","items":[{"name":"식사하세요","tel":"031-1111-1111","addr":"경기도 수원시 권선구 곡반정동 585-8번지 102호","category":"일반휴게음식 - 일반한식"},{"name":"카페놀이","tel":"031-231-2871","addr":"경기도 수원시 권선구 곡반정동 585-8번지","category":"일반휴게음식 - 일반한식"}]},{"lat":"37.240127777","long":"127.032116","items":[{"name":"신바람할인마트","tel":"031-233-1718","addr":"경기도 수원시 권선구 곡반정동 550-3번지 1층","category":"유통업 영리 - 슈퍼마켓"}]},{"lat":"37.23532663","long":"127.02594992","items":[{"name":"신성공조시스템","tel":"031-222-6994","addr":"경기도 수원시 권선구 곡반정동 585-4번지 빅두빌딩 1층","category":"전기제품 - 가전제품"},{"name":"제일","tel":"031-236-7073","addr":"경기도 수원시 권선구 곡반정동 585-4번지 빅두빌딩 102호","category":"용역 서비스 - 기타용역서비스"}]},{"lat":"37.238020275","long":"127.02813704","items":[{"name":"신우상사","tel":"031-204-7066","addr":"경기도 수원시 권선구 곡반정동 570-2번지 1층","category":"음료식품 - 기타음료식품"}]},{"lat":"37.239353073","long":"127.03136063","items":[{"name":"신일식당","tel":"031-222-7652","addr":"경기도 수원시 권선구 곡반정동 554-3번지 101호","category":"일반휴게음식 - 일반한식"}]},{"lat":"37.237272204","long":"127.02911723","items":[{"name":"신전떡볶이 곡반점","tel":"031-232-2339","addr":"경기도 수원시 권선구 곡반정동 575-1번지","category":"일반휴게음식 - 스넥"},{"name":"영재플러스","tel":"070-4334-1344","addr":"경기도 수원시 권선구 곡반정동 575-1번지 4층","category":"의류 - 아동의류"},{"name":"하나소아과","tel":"031-224-7584","addr":"경기도 수원시 권선구 곡반정동 57블럭1롯트경수빌딩2층","category":"의원 - 의원"},{"name":"향기팩토리","tel":"031-296-1335","addr":"경기도 수원시 권선구 곡반정동 575-1번지 4층","category":"신변잡화 - 기타잡화"}]},{"lat":"37.237551431","long":"127.02953429","items":[{"name":"신진미통닭","tel":"031-893-4771","addr":"경기도 수원시 권선구 곡반정동 571-3번지 1층","category":"일반휴게음식 - 스넥"}]},{"lat":"37.234326516","long":"127.02578058","items":[{"name":"신짬뽕","tel":"031-236-1174","addr":"경기도 수원시 권선구 곡반정동 591-1번지 101호","category":"일반휴게음식 - 일반한식"}]},{"lat":"37.241911593","long":"127.03302957","items":[{"name":"신통치킨","tel":"031-223-9937","addr":"경기도 수원시 권선구 곡반정동 532-3번지 1층","category":"일반휴게음식 - 스넥"}]},{"lat":"37.23302042","long":"127.02358277","items":[{"name":"실버벨 에듀","tel":"070-8182-9983","addr":"경기도 수원시 권선구 곡반정동 609-8번지 1층","category":"서적문구 - 일반서적"}]},{"lat":"37.234407967","long":"127.02384234","items":[{"name":"싱싱과일","tel":"","addr":"경기도 수원시 권선구 곡반정동 603-12번지 104호","category":"음료식품 - 농·축·수산품"}]},{"lat":"37.231353497","long":"127.02363866","items":[{"name":"싱싱수산","tel":"031-226-8872","addr":"경기도 수원시 권선구 곡반정동 401-2번지 1층","category":"음료식품 - 농·축·수산품"}]},{"lat":"37.234217852","long":"127.02841749","items":[{"name":"쌍용자동차권선서비스프라자","tel":"031-237-5581","addr":"경기도 수원시 권선구 곡반정동 596-2, 596-3, 596-4","category":"자동차정비 유지 - 자동차정비"}]},{"lat":"37.234101169","long":"127.02623127","items":[{"name":"씨앤씨스포츠(C&C스포츠)","tel":"032-422-4695","addr":"경기도 수원시 권선구 곡반정동 594-9번지 203호","category":"회원제형태 - 레져업소"},{"name":"씨앤씨스포츠(C&C스포츠)","tel":"031-425-3663","addr":"경기도 수원시 권선구 곡반정동 594-9번지 203호","category":"회원제형태 - 레져업소"}]},{"lat":"37.244632921","long":"127.03219663","items":[{"name":"씨엔피(CnP)","tel":"070-7437-9586","addr":"경기도 수원시 권선구 곡반정동 514-11번지 103호","category":"용역 서비스 - 종합용역"}]},{"lat":"37.244632605","long":"127.03344766","items":[{"name":"씨유곡반중점","tel":"031-231-9923","addr":"경기도 수원시 권선구 곡반정동 512-11번지","category":"유통업 영리 - 편 의 점"},{"name":"이삭토스트(곡반정동점)","tel":"031-232-2035","addr":"경기도 수원시 권선구 곡반정동 512-11번지","category":"일반휴게음식 - 스넥"}]},{"lat":"37.239713432","long":"127.03158616","items":[{"name":"씨유수원곡반정썬스타점","tel":"031-221-2896","addr":"경기도 수원시 권선구 곡반정동 552-8번지 곡반정동빌딩 1층 101호","category":"유통업 영리 - 편 의 점"}]},{"lat":"37.237713561","long":"127.02978228","items":[{"name":"아낌없이주는소","tel":"070-4694-1101","addr":"경기도 수원시 권선구 곡반정동 568-10번지","category":"일반휴게음식 - 일반한식"}]},{"lat":"37.234353224","long":"127.02739206","items":[{"name":"아로미헤어","tel":"031-302-9120","addr":"경기도 수원시 권선구 곡반정동 595-1번지","category":"보건위생 - 미용원"},{"name":"엉터리삼겹살","tel":"031-234-1527","addr":"경기도 수원시 권선구 곡반정동 595-1번지","category":"일반휴게음식 - 일반한식"}]},{"lat":"37.242632905","long":"127.03105757","items":[{"name":"아리종합관리","tel":"","addr":"경기도 수원시 권선구 곡반정동 530-10번지 103호","category":"수리서비스 - 사무·통신기기수리"},{"name":"윈드네이쳐","tel":"","addr":"경기도 수원시 권선구 곡반정동 530-10번지 103호","category":"용역 서비스 - 종합용역"}]},{"lat":"37.23796602","long":"127.02902731","items":[{"name":"아씨닭발","tel":"031-238-1818","addr":"경기도 수원시 권선구 곡반정동 569-10번지","category":"일반휴게음식 - 일반한식"},{"name":"휴 노래연습장","tel":"031-238-7734","addr":"경기도 수원시 권선구 곡반정동 569-10번지 2층","category":"레저업소 - 노 래 방"}]},{"lat":"37.233434823","long":"127.02399983","items":[{"name":"아이시스템","tel":"031-236-1881","addr":"경기도 수원시 권선구 곡반정동 609-2번지 한아름주택 101호","category":"전기제품 - 기타전기제품"}]},{"lat":"37.232966162","long":"127.02467583","items":[{"name":"안룡초등학교","tel":"031-237-6893","addr":"경기도 수원시 권선구 곡반정동 606번지 안룡초등학교","category":"학원 - 초중고교육기관"}]},{"lat":"37.243407793","long":"127.03105785","items":[{"name":"알라딘펫","tel":"070-7717-8949","addr":"경기도 수원시 권선구 곡반정동 516-8번지 1층","category":"문화.취미 - 애완동물"}]},{"lat":"37.240317498","long":"127.02999733","items":[{"name":"알콩달콩어린이집[아이행복]","tel":"031-304-0602","addr":"경기도 수원시 권선구 곡반정동 548번지 권선신일유토빌 104동 101호","category":"학원 - 유아원"}]},{"lat":"37.238380669","long":"127.02822731","items":[{"name":"애클라 스킨","tel":"070-8112-7333","addr":"경기도 수원시 권선구 곡반정동 569-1번지 1층 101호","category":"보건위생 - 피부미용실"},{"name":"찜박사JY","tel":"031-223-3335","addr":"경기도 수원시 권선구 곡반정동 569-1번지 1층","category":"일반휴게음식 - 일반한식"}]},{"lat":"37.237046559","long":"127.03080756","items":[{"name":"어시장","tel":"031-233-2990","addr":"경기도 수원시 권선구 곡반정동 289-3번지 1층","category":"일반휴게음식 - 일반한식"},{"name":"한솔꽃직매장","tel":"031-222-2771","addr":"경기도 수원시 권선구 곡반정동 289-3","category":"문화.취미 - 화원"}]},{"lat":"37.234353427","long":"127.02638912","items":[{"name":"언니가 간다","tel":"02-6927-8038","addr":"경기도 수원시 권선구 곡반정동 594-12번지 한아름주택 302호","category":"직물 - 카페트,커튼,천막,지물"}]},{"lat":"37.23621794","long":"127.02936479","items":[{"name":"얼리스미스","tel":"031-252-1474","addr":"경기도 수원시 권선구 곡반정동 577-7번지 102호","category":"일반휴게음식 - 서양음식"},{"name":"우리집솔루션","tel":"031-224-5033","addr":"경기도 수원시 권선구 곡반정동 577-7번지 102호","category":"전기제품 - 가전제품"},{"name":"컴퓨터좋은친구","tel":"031-255-3146","addr":"경기도 수원시 권선구 곡반정동 577-7번지 101호","category":"사무통신 - 컴퓨터"}]},{"lat":"37.234794938","long":"127.02636672","items":[{"name":"얼음골칡냉면","tel":"031-239-2929","addr":"경기도 수원시 권선구 곡반정동 592-12번지 1층","category":"일반휴게음식 - 일반한식"}]},{"lat":"37.240353146","long":"127.03166529","items":[{"name":"얼크니매운찜갈비","tel":"031-898-7877","addr":"경기도 수원시 권선구 곡반정동 544-10번지 1층","category":"일반휴게음식 - 일반한식"}]},{"lat":"37.245821932","long":"127.03358339","items":[{"name":"엄마찬","tel":"","addr":"경기도 수원시 권선구 곡반정동 503-8번지 1층","category":"일반휴게음식 - 일반한식"}]},{"lat":"37.242299705","long":"127.0302798","items":[{"name":"엄클파닭","tel":"031-221-9288","addr":"경기도 수원시 권선구 곡반정동 529-7번지","category":"일반휴게음식 - 스넥"},{"name":"통큰손칼국수","tel":"031-297-6055","addr":"경기도 수원시 권선구 곡반정동 529-7번지 101호","category":"일반휴게음식 - 일반한식"}]},{"lat":"37.244687016","long":"127.03206141","items":[{"name":"업헤어","tel":"031-232-7156","addr":"경기도 수원시 권선구 곡반정동 514-12번지 1층","category":"보건위생 - 미용원"}]},{"lat":"37.24527255","long":"127.03261389","items":[{"name":"에너지테크","tel":"031-8002-6456","addr":"경기도 수원시 권선구 곡반정동 508-15번지 202호","category":"전기제품 - 냉열기기"}]},{"lat":"37.23493936","long":"127.02503701","items":[{"name":"에스에이치 솔루션","tel":"031-1666-7257","addr":"경기도 수원시 권선구 곡반정동 587-12번지 303호","category":"용역 서비스 - 소프트웨어"}]},{"lat":"37.240849087","long":"127.03008768","items":[{"name":"에어컨나라","tel":"070-5022-4846","addr":"경기도 수원시 권선구 곡반정동 545-11번지 401호","category":"전기제품 - 냉열기기"},{"name":"포맨뷰티코스메틱","tel":"070-7867-2513","addr":"경기도 수원시 권선구 곡반정동 545-11번지 204호","category":"보건위생 - 미용재료"},{"name":"하이보울","tel":"031-257-8977","addr":"경기도 수원시 권선구 곡반정동 545-11번지","category":"문화.취미 - 문화취미기타"}]},{"lat":"37.234019911","long":"127.02705388","items":[{"name":"에어텍(AIR TECH)","tel":"031-8013-9117","addr":"경기도 수원시 권선구 곡반정동 595-6번지 한아름주택 304호","category":"용역 서비스 - 기타용역서비스"}]},{"lat":"37.235182645","long":"127.02500327","items":[{"name":"에이스미트","tel":"031-233-0063","addr":"경기도 수원시 권선구 곡반정동 587-1번지","category":"음료식품 - 정육점"}]},{"lat":"37.235128294","long":"127.02650205","items":[{"name":"에이씨티더블4(ACT더블4)","tel":"031-238-7776","addr":"경기도 수원시 권선구 곡반정동 584-7번지 101,102호","category":"사무통신 - 통신기기"},{"name":"족가전가","tel":"031-231-1282","addr":"경기도 수원시 권선구 곡반정동 584-7번지","category":"일반휴게음식 - 일반한식"},{"name":"필노래연습장","tel":"031-232-0085","addr":"경기도 수원시 권선구 곡반정동 584-7번지 2층","category":"레저업소 - 노 래 방"},{"name":"힐스템 건강 아가페곡반지점","tel":"031-232-9191","addr":"경기도 수원시 권선구 곡반정동 584-7번지 3층","category":"보건위생 - 기타대인서비스"}]},{"lat":"37.240244898","long":"127.03217239","items":[{"name":"에이치엔티(H&T)컨설팅","tel":"070-4007-0127","addr":"경기도 수원시 권선구 곡반정동 550-2번지 301 (301호~301호)","category":"여행 - 관광여행"}]},{"lat":"37.235794941","long":"127.02708826","items":[{"name":"에이플러스문구","tel":"031-238-4180","addr":"경기도 수원시 권선구 곡반정동 579번지 한솔 상가 102호","category":"서적문구 - 문구용품"},{"name":"열린중앙음악학원","tel":"031-239-9700","addr":"경기도 수원시 권선구 곡반정동 579번지 한솔아파트 204,205호","category":"학원 - 예·체능계학원"},{"name":"이레헤어퀸","tel":"031-246-9063","addr":"경기도 수원시 권선구 곡반정동 579번지 한솔아 상가 201호","category":"보건위생 - 미용원"}]},{"lat":"37.239181895","long":"127.03128168","items":[{"name":"엘리트오피스","tel":"031-203-0684","addr":"경기도 수원시 권선구 곡반정동 554-4번지 101","category":"서적문구 - 문구용품"}]},{"lat":"37.241911719","long":"127.03253368","items":[{"name":"엘정보","tel":"031-224-7762","addr":"경기도 수원시 권선구 곡반정동 533-7번지","category":"사무통신 - 기타 사무용품"}]},{"lat":"37.24257842","long":"127.03278189","items":[{"name":"엠에스상사","tel":"","addr":"경기도 수원시 권선구 곡반정동 526-13번지 1층","category":"보건위생 - 화장품"}]},{"lat":"37.238128319","long":"127.02850897","items":[{"name":"연리지보쌈앤전","tel":"031-223-7712","addr":"경기도 수원시 권선구 곡반정동 569-14번지","category":"일반휴게음식 - 일반한식"}]},{"lat":"37.241434727","long":"127.03022313","items":[{"name":"연장통(YJT)","tel":"031-1111-1111","addr":"경기도 수원시 권선구 곡반정동 540-3번지 103호","category":"보건위생 - 화장품"}]},{"lat":"37.238632863","long":"127.02866691","items":[{"name":"연탄불뚱보막창","tel":"031-891-9295","addr":"경기도 수원시 권선구 곡반정동 566-3번지","category":"일반휴게음식 - 일반한식"}]},{"lat":"37.245020227","long":"127.03274904","items":[{"name":"연화조경","tel":"031-236-4153","addr":"경기도 수원시 권선구 곡반정동 513-4번지 102호","category":"문화.취미 - 화원"}]},{"lat":"37.236100749","long":"127.02961267","items":[{"name":"염정본가옛장터","tel":"070-1111-1111","addr":"경기도 수원시 권선구 곡반정동 574-8번지","category":"일반휴게음식 - 일반한식"}]},{"lat":"37.234579219","long":"127.02352685","items":[{"name":"영화상사","tel":"031-234-7726","addr":"경기도 수원시 권선구 곡반정동 602-3번지","category":"건축자재 - 페인트"}]},{"lat":"37.245182584","long":"127.0320616","items":[{"name":"예가","tel":"031-890-6511","addr":"경기도 수원시 권선구 곡반정동 504-8번지","category":"보건위생 - 화장품"}]},{"lat":"37.236992716","long":"127.02986091","items":[{"name":"옛날맛집","tel":"031-233-7797","addr":"경기도 수원시 권선구 곡반정동 575-6번지 1층 101호","category":"일반휴게음식 - 일반한식"}]},{"lat":"37.241154899","long":"127.0323418","items":[{"name":"오늘의머리","tel":"031-224-1717","addr":"경기도 수원시 권선구 곡반정동 537-8번지 1층","category":"보건위생 - 미용원"}]},{"lat":"37.24510122","long":"127.03314355","items":[{"name":"오땡큐","tel":"031-221-9265","addr":"경기도 수원시 권선구 곡반정동 508-11번지 아트빌 1층 104호","category":"보건위생 - 미용원"}]},{"lat":"37.245380783","long":"127.03217438","items":[{"name":"오렌지컴퓨터","tel":"031-224-6111","addr":"경기도 수원시 권선구 곡반정동 504-6번지 101호","category":"수리서비스 - 사무·통신기기수리"}]},{"lat":"37.24579512","long":"127.03272681","items":[{"name":"오로라","tel":"031-234-4582","addr":"경기도 수원시 권선구 곡반정동 507-1번지 한아름주택","category":"일반휴게음식 - 서양음식"}]},{"lat":"37.234434895","long":"127.02441707","items":[{"name":"오케이전기조명","tel":"031-304-8008","addr":"경기도 수원시 권선구 곡반정동 589-6번지 101호","category":"건축자재 - 조명기구"}]},{"lat":"37.244768056","long":"127.03227558","items":[{"name":"와이에쓰(YS)산업","tel":"031-271-4119","addr":"경기도 수원시 권선구 곡반정동 514-2번지 202호","category":"자동차정비 유지 - 카인테리어"}]},{"lat":"37.24335353","long":"127.03189184","items":[{"name":"용수에어컨","tel":"031-234-9432","addr":"경기도 수원시 권선구 곡반정동 518-12번지 201호","category":"용역 서비스 - 기타용역서비스"}]},{"lat":"37.242515207","long":"127.03333411","items":[{"name":"우리맘푸드","tel":"","addr":"경기도 수원시 권선구 곡반정동 521-8번지 1층","category":"일반휴게음식 - 일반한식"}]},{"lat":"37.236794606","long":"127.02934245","items":[{"name":"원케어메디칼","tel":"031-234-3345","addr":"경기도 수원시 권선구 곡반정동 576-4번지 101호","category":"보건위생 - 의료용품"}]},{"lat":"37.233182196","long":"127.02581404","items":[{"name":"원필름","tel":"031-257-2333","addr":"경기도 수원시 권선구 곡반정동 597-15번지","category":"기타 - 기타 전문점"}]},{"lat":"37.234741103","long":"127.02519472","items":[{"name":"월드디자인","tel":"031-225-3154","addr":"경기도 수원시 권선구 곡반정동 587-10번지 1층","category":"건축자재 - 인테리어전문"}]},{"lat":"37.244740459","long":"127.03447333","items":[{"name":"월드종합주방","tel":"031-236-1145","addr":"경기도 수원시 권선구 곡반정동 511-8번지 1층","category":"전기제품 - 가전제품"}]},{"lat":"37.234155297","long":"127.02589322","items":[{"name":"위너스 전자","tel":"070-7572-8949","addr":"경기도 수원시 권선구 곡반정동 598-1번지 1층","category":"사무통신 - 사무용 OA기기"}]},{"lat":"37.233605497","long":"127.02674949","items":[{"name":"위너젠","tel":"031-234-7158","addr":"경기도 수원시 권선구 곡반정동 597-1번지","category":"전기제품 - 기타전기제품"}]},{"lat":"37.238488715","long":"127.02858798","items":[{"name":"유니나세제","tel":"031-224-0944","addr":"경기도 수원시 권선구 곡반정동 566-14번지","category":"신변잡화 - 기타잡화"}]},{"lat":"37.237100745","long":"127.03027792","items":[{"name":"유로케어 주식회사","tel":"031-238-2706","addr":"경기도 수원시 권선구 곡반정동 573-9번지 3층 301호","category":"보건위생 - 의료용품"}]},{"lat":"37.238101162","long":"127.02908371","items":[{"name":"유주당","tel":"031-203-3399","addr":"경기도 수원시 권선구 곡반정동 569-7번지 1층","category":"일반휴게음식 - 일반한식"}]},{"lat":"37.241965823","long":"127.03236465","items":[{"name":"유한회사 이케이기획","tel":"070-5136-0059","addr":"경기도 수원시 권선구 곡반정동 533-6번지 B01호","category":"자동차정비 유지 - 세차장"}]},{"lat":"37.24091219","long":"127.02995247","items":[{"name":"유향캘리그라피","tel":"031-294-4432","addr":"경기도 수원시 권선구 곡반정동 545-12번지 103호","category":"건축자재 - 인테리어전문"}]},{"lat":"37.238046905","long":"127.02995144","items":[{"name":"육일장","tel":"031-232-2046","addr":"경기도 수원시 권선구 곡반정동 567-12 외 1필지","category":"일반휴게음식 - 일반한식"}]},{"lat":"37.231325467","long":"127.02872077","items":[{"name":"윤디자인","tel":"070-7528-2822","addr":"경기도 수원시 권선구 곡반정동 328번지","category":"건축자재 - 인테리어전문"},{"name":"태창산업","tel":"031-235-1277","addr":"경기도 수원시 권선구 곡반정동 328번지","category":"용역 서비스 - 종합용역"}]},{"lat":"37.238074223","long":"127.02866672","items":[{"name":"은남이네","tel":"031-222-8295","addr":"경기도 수원시 권선구 곡반정동 569-13번지 1층","category":"일반휴게음식 - 일반한식"}]},{"lat":"37.232767188","long":"127.028417","items":[{"name":"이나경 골프존파크","tel":"031-239-2233","addr":"경기도 수원시 권선구 곡반정동 345-3번지","category":"레져용품 - 골프용품 전문점"}]},{"lat":"37.23743433","long":"127.02938775","items":[{"name":"이디야 곡반정점","tel":"031-222-5840","addr":"경기도 수원시 권선구 곡반정동 571-6번지 1층","category":"일반휴게음식 - 서양음식"},{"name":"쿤타이","tel":"031-225-4454","addr":"경기도 수원시 권선구 곡반정동 571-6번지 2층","category":"보건위생 - 화장품"},{"name":"펫마트","tel":"031-898-6635","addr":"경기도 수원시 권선구 곡반정동 571-6번지","category":"문화.취미 - 애완동물"}]},{"lat":"37.238299522","long":"127.02847522","items":[{"name":"이레통상","tel":"070-7913-8818","addr":"경기도 수원시 권선구 곡반정동 569-3번지 305호","category":"의류 - 정장"}]},{"lat":"37.234632823","long":"127.02600606","items":[{"name":"이리데선스(lridescence)","tel":"","addr":"경기도 수원시 권선구 곡반정동 592-9번지 행복한우리집 101호","category":"신변잡화 - 액세서리"}]},{"lat":"37.234543108","long":"127.02392126","items":[{"name":"이마트24 수원곡반본점","tel":"","addr":"경기도 수원시 권선구 곡반정동 603-1번지 1층","category":"유통업 영리 - 편 의 점"},{"name":"이마트24 수원곡반본점","tel":"","addr":"경기도 수원시 권선구 곡반정동 603-1번지","category":"유통업 영리 - 편 의 점"}]},{"lat":"37.245659988","long":"127.03263659","items":[{"name":"이미크미용실","tel":"031-238-5872","addr":"경기도 수원시 권선구 곡반정동 507-4번지 103호","category":"보건위생 - 미용원"}]},{"lat":"37.244740699","long":"127.03356041","items":[{"name":"이오","tel":"070-7809-5985","addr":"경기도 수원시 권선구 곡반정동 512-1번지 204호","category":"용역 서비스 - 소프트웨어"}]},{"lat":"37.241353577","long":"127.03047105","items":[{"name":"이오에이치 홀딩스","tel":"070-4256-7384","addr":"경기도 수원시 권선구 곡반정동 540-5번지 국제빌딩 501호","category":"회원제형태 - 사무서비스"}]},{"lat":"37.244182438","long":"127.03206121","items":[{"name":"이지에어컨","tel":"031-238-9490","addr":"경기도 수원시 권선구 곡반정동 517-4번지 303호 (303호~303호)","category":"용역 서비스 - 기타용역서비스"}]},{"lat":"37.235073546","long":"127.029725","items":[{"name":"이지유치원[아이행복]","tel":"031-223-2626","addr":"경기도 수원시 권선구 곡반정동 311-1번지","category":"학원 - 유치원"}]},{"lat":"37.233938525","long":"127.02845121","items":[{"name":"인광밧데리","tel":"031-236-7084","addr":"경기도 수원시 권선구 곡반정동 339-2번지","category":"자동차정비 유지 - 자동차정비"}]},{"lat":"37.241767873","long":"127.03122629","items":[{"name":"인메디케어(남수원지사)","tel":"031-222-7681","addr":"경기도 수원시 권선구 곡반정동 535-8번지 102호","category":"보건위생 - 의료용품"},{"name":"행복한 광이네","tel":"031-232-2042","addr":"경기도 수원시 권선구 곡반정동 535-8번지 1층 102호","category":"문화.취미 - 애완동물"}]},{"lat":"37.244272588","long":"127.03186965","items":[{"name":"일로스틸","tel":"","addr":"경기도 수원시 권선구 곡반정동 517-7번지 영빌딩 101호","category":"용역 서비스 - 기타용역서비스"},{"name":"통일서점","tel":"070-7758-9980","addr":"경기도 수원시 권선구 곡반정동 517-7번지 영빌딩 403호","category":"서적문구 - 일반서적"}]},{"lat":"37.235020219","long":"127.0262541","items":[{"name":"일인자감자탕 곡반정점","tel":"031-234-8287","addr":"경기도 수원시 권선구 곡반정동 585-7번지 101호","category":"일반휴게음식 - 일반한식"}]},{"lat":"37.233740341","long":"127.0282483","items":[{"name":"일효 식자재마트","tel":"031-293-6079","addr":"경기도 수원시 권선구 곡반정동 339-3번지","category":"유통업 영리 - 슈퍼마켓"}]},{"lat":"37.237713735","long":"127.02900469","items":[{"name":"임영심헤어파티","tel":"031-239-3250","addr":"경기도 수원시 권선구 곡반정동 570-11번지 102호","category":"보건위생 - 미용원"}]},{"lat":"37.244155468","long":"127.03181325","items":[{"name":"잇트 플라워(Eat Flowers)","tel":"","addr":"경기도 수원시 권선구 곡반정동 517-6번지 1층","category":"일반휴게음식 - 일반한식"}]},{"lat":"37.241272554","long":"127.03016673","items":[{"name":"자레나(Jarena)","tel":"031-309-0815","addr":"경기도 수원시 권선구 곡반정동 540-12번지 1층","category":"유통업 영리 - 기타유통업"}]},{"lat":"37.233767837","long":"127.02597199","items":[{"name":"장터김치","tel":"031-233-9832","addr":"경기도 수원시 권선구 곡반정동 598-9번지","category":"음료식품 - 기타음료식품"}]},{"lat":"37.237218112","long":"127.02925244","items":[{"name":"전봇대막창","tel":"","addr":"경기도 수원시 권선구 곡반정동 575-2번지 1층","category":"일반휴게음식 - 일반한식"}]},{"lat":"37.234488728","long":"127.0256454","items":[{"name":"전집","tel":"031-237-7789","addr":"경기도 수원시 권선구 곡반정동 590-1번지 101호","category":"일반휴게음식 - 일반한식"}]},{"lat":"37.238272036","long":"127.03050373","items":[{"name":"정선화","tel":"031-302-5161","addr":"경기도 수원시 권선구 곡반정동 563-5번지 5층","category":"레저업소 - 헬스클럽"},{"name":"크린토피아코인워시곡반정동점","tel":"031-236-4546","addr":"경기도 수원시 권선구 곡반정동 563-5번지 1층","category":"수리서비스 - 세탁소"}]},{"lat":"37.244939068","long":"127.03300823","items":[{"name":"정이동카","tel":"","addr":"경기도 수원시 권선구 곡반정동 513-6번지 유광주택 201호","category":"자동차정비 유지 - 자동차정비"}]},{"lat":"37.241714073","long":"127.03011053","items":[{"name":"제이글로우","tel":"031-000-0000","addr":"경기도 수원시 권선구 곡반정동 538-15번지 4층 3호","category":"신변잡화 - 기타잡화"},{"name":"헤어더꾸밈","tel":"031-000-0000","addr":"경기도 수원시 권선구 곡반정동 538-15번지 101호","category":"보건위생 - 미용원"}]},{"lat":"37.245182376","long":"127.03289562","items":[{"name":"제이씨엘이디조명","tel":"070-7655-1112","addr":"경기도 수원시 권선구 곡반정동 508-13번지 지하 B01호","category":"건축자재 - 조명기구"}]},{"lat":"37.233966451","long":"127.02389856","items":[{"name":"제이앤비 (J&B) 식품","tel":"031-374-3877","addr":"경기도 수원시 권선구 곡반정동 605-1번지","category":"음료식품 - 농·축·수산품"},{"name":"제이앤비(J&B)유통","tel":"031-374-3877","addr":"경기도 수원시 권선구 곡반정동 605-1번지","category":"음료식품 - 기타음료식품"}]},{"lat":"37.244101493","long":"127.03145258","items":[{"name":"제이앤제이헤어샵","tel":"031-891-7714","addr":"경기도 수원시 권선구 곡반정동 516-1번지","category":"보건위생 - 미용원"}]},{"lat":"37.235633116","long":"127.02525133","items":[{"name":"제이에스 디테일링","tel":"","addr":"경기도 수원시 권선구 곡반정동 582-5번지 한아름주택 102호","category":"자동차정비 유지 - 카인테리어"}]},{"lat":"37.243740445","long":"127.03397701","items":[{"name":"제이엘컴퍼니","tel":"031-203-8289","addr":"경기도 수원시 권선구 곡반정동 520-5번지 504호","category":"신변잡화 - 신발"}]},{"lat":"37.233822261","long":"127.02403375","items":[{"name":"제이제이팜","tel":"031-216-6844","addr":"경기도 수원시 권선구 곡반정동 605-3번지 제1층 좌측점포","category":"보건위생 - 의료용품"}]},{"lat":"37.241849202","long":"127.03022328","items":[{"name":"제일순대국","tel":"031-225-1453","addr":"경기도 수원시 권선구 곡반정동 538-1번지 101호","category":"일반휴게음식 - 일반한식"},{"name":"카페에이레네(Cafe Eirene)","tel":"031-232-0207","addr":"경기도 수원시 권선구 곡반정동 538-1번지 1층","category":"일반휴게음식 - 서양음식"}]},{"lat":"37.240794536","long":"127.0321388","items":[{"name":"주막골","tel":"031-893-3644","addr":"경기도 수원시 권선구 곡반정동 542-6번지 101호","category":"일반휴게음식 - 일반한식"}]},{"lat":"37.241578689","long":"127.03109098","items":[{"name":"주식회사 넥스랩","tel":"031-239-3600","addr":"경기도 수원시 권선구 곡반정동 538-7번지 101호","category":"용역 서비스 - 소프트웨어"}]},{"lat":"37.233551455","long":"127.02664805","items":[{"name":"주식회사 라이크","tel":"031-212-1145","addr":"경기도 수원시 권선구 곡반정동 597-22번지","category":"음료식품 - 기타음료식품"}]},{"lat":"37.236686199","long":"127.03058204","items":[{"name":"주식회사 솜렌트카","tel":"031-111-1111","addr":"경기도 수원시 권선구 곡반정동 289-13번지","category":"여행 - 렌터카"}]},{"lat":"37.233128499","long":"127.02384198","items":[{"name":"주식회사 올클리어","tel":"031-340-2910","addr":"경기도 수원시 권선구 곡반정동 609-4번지","category":"서적문구 - 과학기자재"}]},{"lat":"37.244407668","long":"127.032174","items":[{"name":"주식회사 이노에스티","tel":"070-4171-3996","addr":"경기도 수원시 권선구 곡반정동 517-2번지 한아름주택 101호","category":"용역 서비스 - 기타용역서비스"}]},{"lat":"37.245128455","long":"127.03233207","items":[{"name":"주식회사 중원도시개발","tel":"031-356-1195","addr":"경기도 수원시 권선구 곡반정동 513-1번지 102호","category":"용역 서비스 - 사무서비스"},{"name":"혜화돈까스","tel":"031-235-0825","addr":"경기도 수원시 권선구 곡반정동 513-1번지 101호","category":"일반휴게음식 - 서양음식"}]},{"lat":"37.23493932","long":"127.02525112","items":[{"name":"주식회사 지디티","tel":"02-1111-1111","addr":"경기도 수원시 권선구 곡반정동 587-4번지 1층","category":"가구 - 일반가구"}]},{"lat":"37.233767922","long":"127.0255325","items":[{"name":"주식회사 차오름","tel":"070-8637-5919","addr":"경기도 수원시 권선구 곡반정동 599-11번지","category":"음료식품 - 기타음료식품"}]},{"lat":"37.238407556","long":"127.02889223","items":[{"name":"주식회사니드테크","tel":"031-898-7573","addr":"경기도 수원시 권선구 곡반정동 566-12번지 한아름주택 102호","category":"전기제품 - 기타전기제품"}]},{"lat":"37.233884983","long":"127.02591568","items":[{"name":"주식회사더팬코리아","tel":"02-3444-3404","addr":"경기도 수원시 권선구 곡반정동 598-10번지","category":"음료식품 - 기타음료식품"}]},{"lat":"37.234714335","long":"127.02375227","items":[{"name":"주식회사메디드림","tel":"031-233-3473","addr":"경기도 수원시 권선구 곡반정동 602-1번지 102호","category":"보건위생 - 의료용품"}]},{"lat":"37.238686954","long":"127.0285317","items":[{"name":"주식회사펩스환경","tel":"031-235-1888","addr":"경기도 수원시 권선구 곡반정동 566-2번지","category":"용역 서비스 - 종합용역"}]},{"lat":"37.234155008","long":"127.02733565","items":[{"name":"주식회사피엔아이","tel":"031-898-6255","addr":"경기도 수원시 권선구 곡반정동 595-4번지","category":"용역 서비스 - 사무서비스"}]},{"lat":"37.243903215","long":"127.03166664","items":[{"name":"주주비어","tel":"031-221-2820","addr":"경기도 수원시 권선구 곡반정동 517-23번지 1층","category":"일반휴게음식 - 주점"}]},{"lat":"37.244407798","long":"127.03164429","items":[{"name":"주헤어(Joo hair)24시붙임머리전문점","tel":"050-5808-8172","addr":"경기도 수원시 권선구 곡반정동 515-6번지 승인빌딩 102호","category":"보건위생 - 미용원"}]},{"lat":"37.236515361","long":"127.02900427","items":[{"name":"죽도대게타운","tel":"031-234-8982","addr":"경기도 수원시 권선구 곡반정동 577-3번지 1층","category":"일반휴게음식 - 일반한식"}]},{"lat":"37.244569807","long":"127.03236567","items":[{"name":"중고나라","tel":"031-212-8954","addr":"경기도 수원시 권선구 곡반정동 514-10번지 101호","category":"가구 - 일반가구"}]},{"lat":"37.245606008","long":"127.03230972","items":[{"name":"즐거운할인마트","tel":"031-238-2421","addr":"경기도 수원시 권선구 곡반정동 504-4번지 1층","category":"유통업 영리 - 슈퍼마켓"}]},{"lat":"37.243848554","long":"127.03403341","items":[{"name":"지디모터스","tel":"031-226-7785","addr":"경기도 수원시 권선구 곡반정동 520-4번지 예랑빌딩 1층","category":"자동차정비 유지 - 카인테리어"}]},{"lat":"37.233966347","long":"127.02447328","items":[{"name":"지엠텍아로마","tel":"031-234-0155","addr":"경기도 수원시 권선구 곡반정동 604-2 (84블럭2롯트) 101","category":"신변잡화 - 기타잡화"}]},{"lat":"37.240353008","long":"127.03222879","items":[{"name":"지원뷰티","tel":"031-257-1476","addr":"경기도 수원시 권선구 곡반정동 550-1번지 103호","category":"보건위생 - 화장품"}]},{"lat":"37.242154992","long":"127.03255632","items":[{"name":"지유","tel":"070-7520-8158","addr":"경기도 수원시 권선구 곡반정동 531-12번지","category":"회원제형태 - 기타1"}]},{"lat":"37.235101474","long":"127.02542021","items":[{"name":"진명산업","tel":"031-222-4226","addr":"경기도 수원시 권선구 곡반정동 586-4번지","category":"용역 서비스 - 종합용역"},{"name":"현대광고연합","tel":"031-376-5754","addr":"경기도 수원시 권선구 곡반정동 586-4번지 1층","category":"용역 서비스 - 종합용역"},{"name":"현대광고연합 주식회사","tel":"031-222-4226","addr":"경기도 수원시 권선구 곡반정동 586-4번지 102호","category":"용역 서비스 - 종합용역"}]},{"lat":"37.237740623","long":"127.02964706","items":[{"name":"짝태&노가리","tel":"031-233-0339","addr":"경기도 수원시 권선구 곡반정동 568-11번지","category":"일반휴게음식 - 일반한식"}]},{"lat":"37.23691168","long":"127.02961296","items":[{"name":"짱구렉카","tel":"","addr":"경기도 수원시 권선구 곡반정동 575-8번지 205호","category":"자동차정비 유지 - 견인서비스"},{"name":"캐시스토리(CATHY STORY)","tel":"","addr":"경기도 수원시 권선구 곡반정동 575-8번지 1층 104호 캐시스토리향기공방","category":"문화.취미 - 문화취미기타"}]},{"lat":"37.233218632","long":"127.02367298","items":[{"name":"차상유통","tel":"031-244-2315","addr":"경기도 수원시 권선구 곡반정동 609-10번지","category":"음료식품 - 농·축·수산품"}]},{"lat":"37.241848722","long":"127.03222937","items":[{"name":"착한디자인","tel":"070-7583-1400","addr":"경기도 수원시 권선구 곡반정동 533-12번지 103호","category":"건축자재 - 인테리어전문"}]},{"lat":"37.238245533","long":"127.02813711","items":[{"name":"처갓집양념치킨","tel":"031-235-9282","addr":"경기도 수원시 권선구 곡반정동 569-16번지 정현타운 102호","category":"일반휴게음식 - 스넥"}]},{"lat":"37.242380292","long":"127.03238735","items":[{"name":"청궁","tel":"031-221-4114","addr":"경기도 수원시 권선구 곡반정동 531-5번지 102호","category":"일반휴게음식 - 중국식"},{"name":"피자어셈블","tel":"031-223-1143","addr":"경기도 수원시 권선구 곡반정동 531-5번지 1층 102호","category":"일반휴게음식 - 서양음식"}]},{"lat":"37.241687016","long":"127.03022323","items":[{"name":"청풍홈그린","tel":"031-236-0337","addr":"경기도 수원시 권선구 곡반정동 538-14번지 103호","category":"전기제품 - 가전제품"}]},{"lat":"37.240686773","long":"127.03063985","items":[{"name":"초콜릿PC방","tel":"031-225-2433","addr":"경기도 수원시 권선구 곡반정동 545-7번지","category":"레저업소 - 기타레져업소"}]},{"lat":"37.242326495","long":"127.0313054","items":[{"name":"총각네홈케어 수원점","tel":"","addr":"경기도 수원시 권선구 곡반정동 534-5번지","category":"용역 서비스 - 종합용역"}]},{"lat":"37.233047091","long":"127.02555482","items":[{"name":"최고의식당","tel":"031-267-1336","addr":"경기도 수원시 권선구 곡반정동 597-13번지 102호","category":"일반휴게음식 - 일반한식"},{"name":"황해건강원","tel":"031-238-6660","addr":"경기도 수원시 권선구 곡반정동 597-13번지 101호","category":"건강식품 - 기타건강식품"}]},{"lat":"37.242542601","long":"127.03189153","items":[{"name":"춘일엔티","tel":"031-238-2034","addr":"경기도 수원시 권선구 곡반정동 531-1번지","category":"전기제품 - 기타전기제품"}]},{"lat":"37.238542698","long":"127.02894862","items":[{"name":"카스.텍","tel":"031-239-8857","addr":"경기도 수원시 권선구 곡반정동 566-5번지 상가 1층","category":"기타 - 기계공구"}]},{"lat":"37.245181905","long":"127.03469892","items":[{"name":"카페엔비","tel":"070-4649-1101","addr":"경기도 수원시 권선구 곡반정동 511-4번지 골드하우스4 101호","category":"일반휴게음식 - 서양음식"}]},{"lat":"37.245686624","long":"127.03416941","items":[{"name":"칸막이 렉산공사 강화도어 인테리어","tel":"070-4042-6784","addr":"경기도 수원시 권선구 곡반정동 506-2번지 101호","category":"건축자재 - 인테리어전문"}]},{"lat":"37.243714025","long":"127.03155386","items":[{"name":"캐슬공인중개사사무소","tel":"031-226-6003","addr":"경기도 수원시 권선구 곡반정동 517-21번지 1층","category":"용역 서비스 - 부동산 중개·임대"}]},{"lat":"37.242515314","long":"127.03291711","items":[{"name":"커피앤","tel":"031-206-2634","addr":"경기도 수원시 권선구 곡반정동 526-12번지 1층","category":"일반휴게음식 - 서양음식"}]},{"lat":"37.241488928","long":"127.02961457","items":[{"name":"커피인","tel":"","addr":"경기도 수원시 권선구 곡반정동 539-8번지 101호","category":"일반휴게음식 - 서양음식"}]},{"lat":"37.234489032","long":"127.02400013","items":[{"name":"커피타임","tel":"031-8013-6447","addr":"경기도 수원시 권선구 곡반정동 603-2번지 101호","category":"음료식품 - 기타음료식품"}]},{"lat":"37.233821866","long":"127.02614104","items":[{"name":"컴퓨터수리","tel":"","addr":"경기도 수원시 권선구 곡반정동 598-4번지 402호","category":"사무통신 - 컴퓨터"}]},{"lat":"37.238326578","long":"127.02836253","items":[{"name":"케이에스에이치","tel":"070-8715-1726","addr":"경기도 수원시 권선구 곡반정동 569-2번지 402호","category":"전기제품 - 기타전기제품"}]},{"lat":"37.242019918","long":"127.03222943","items":[{"name":"코업상사","tel":"031-893-6031","addr":"경기도 수원시 권선구 곡반정동 533-5번지 101호","category":"전기제품 - 기타전기제품"}]},{"lat":"37.236740619","long":"127.02900435","items":[{"name":"큰나무아이들어린이집[아이행복]","tel":"031-267-1009","addr":"경기도 수원시 권선구 곡반정동 576-8번지","category":"학원 - 유아원"}]},{"lat":"37.233992771","long":"127.02758351","items":[{"name":"키플랜(KEYPLAN)","tel":"070-8941-9905","addr":"경기도 수원시 권선구 곡반정동 596-19번지","category":"건축자재 - 인테리어전문"}]},{"lat":"37.240767621","long":"127.03166545","items":[{"name":"킹라인 줄눈전문업체","tel":"","addr":"경기도 수원시 권선구 곡반정동 542-10번지 401호","category":"용역 서비스 - 기타용역서비스"}]},{"lat":"37.240686459","long":"127.03194717","items":[{"name":"킹스비어","tel":"031-231-9300","addr":"경기도 수원시 권선구 곡반정동 542-8번지 1층","category":"일반휴게음식 - 일반한식"}]},{"lat":"37.239767666","long":"127.03086491","items":[{"name":"탑정보통신","tel":"031-237-0025","addr":"경기도 수원시 권선구 곡반정동 552-14번지 101호","category":"사무통신 - 통신기기"}]},{"lat":"37.237686795","long":"127.0285877","items":[{"name":"태림인테리어","tel":"031-224-0488","addr":"경기도 수원시 권선구 곡반정동 570-12번지 102호","category":"직물 - 카페트,커튼,천막,지물"},{"name":"태양사","tel":"031-256-0407","addr":"경기도 수원시 권선구 곡반정동 570-12번지 1층 101호","category":"건축자재 - 기타건축자재"},{"name":"황금돈옛날돼지갈비","tel":"031-111-1111","addr":"경기도 수원시 권선구 곡반정동 570-12번지 103호","category":"일반휴게음식 - 일반한식"}]},{"lat":"37.242488806","long":"127.03077576","items":[{"name":"태영슈퍼","tel":"031-221-6867","addr":"경기도 수원시 권선구 곡반정동 534-1번지","category":"음료식품 - 기타음료식품"}]},{"lat":"37.23379512","long":"127.02464226","items":[{"name":"통큰아이어린이집[아이행복]","tel":"031-234-2299","addr":"경기도 수원시 권선구 곡반정동 604-4번지","category":"학원 - 유아원"}]},{"lat":"37.233461049","long":"127.02811298","items":[{"name":"통합주방","tel":"","addr":"경기도 수원시 권선구 곡반정동 339-4번지","category":"주방용구 - 주방용구"}]},{"lat":"37.237146175","long":"127.02858752","items":[{"name":"티와이유 에어컨","tel":"","addr":"경기도 수원시 권선구 곡반정동 578번지 곡반정현대아이파크 101동 204호","category":"용역 서비스 - 기타용역서비스"}]},{"lat":"37.241606049","long":"127.02967096","items":[{"name":"펭귄하우스 곡반정동점","tel":"","addr":"경기도 수원시 권선구 곡반정동 539-7번지 숙영빌딩 1층 102호","category":"수리서비스 - 세탁소"}]},{"lat":"37.234218254","long":"127.02647923","items":[{"name":"평안유통","tel":"031-232-2431","addr":"경기도 수원시 권선구 곡반정동 594-7번지 101호","category":"유통업 영리 - 슈퍼마켓"}]},{"lat":"37.243488873","long":"127.03111424","items":[{"name":"포밍헤어","tel":"031-222-2789","addr":"경기도 수원시 권선구 곡반정동 516-7번지 102호","category":"보건위생 - 미용원"}]},{"lat":"37.243876263","long":"127.03133979","items":[{"name":"포에버","tel":"031-221-2541","addr":"경기도 수원시 권선구 곡반정동 516-3번지 101호","category":"보건위생 - 미용원"}]},{"lat":"37.245046765","long":"127.03464251","items":[{"name":"폰샵(phone shop)","tel":"031-223-3373","addr":"경기도 수원시 권선구 곡반정동 511-5번지 골드하우스3 1층 101호","category":"사무통신 - 통신기기"}]},{"lat":"37.234515347","long":"127.02769637","items":[{"name":"프라임휘트니스","tel":"031-224-3352","addr":"경기도 수원시 권선구 곡반정동 593-9번지 3층","category":"레저업소 - 헬스클럽"}]},{"lat":"37.233434373","long":"127.02638883","items":[{"name":"플레이오일","tel":"031-235-9902","addr":"경기도 수원시 권선구 곡반정동 597-20번지","category":"자동차정비 유지 - 자동차정비"}]},{"lat":"37.238542806","long":"127.02845276","items":[{"name":"피알 몬스터","tel":"031-234-9934","addr":"경기도 수원시 권선구 곡반정동 566-15번지 성우빌딩 103호","category":"용역 서비스 - 종합용역"}]},{"lat":"37.23435362","long":"127.02539745","items":[{"name":"필(Feel)인테리어","tel":"070-6215-6738","addr":"경기도 수원시 권선구 곡반정동 590-3번지","category":"건축자재 - 인테리어전문"}]},{"lat":"37.236740389","long":"127.03002986","items":[{"name":"필사운드기획","tel":"031-234-7144","addr":"경기도 수원시 권선구 곡반정동 574-2번지 101호","category":"전기제품 - 가전제품"}]},{"lat":"37.23146083","long":"127.02775172","items":[{"name":"하나벨리요양원","tel":"031-244-4003","addr":"경기도 수원시 권선구 곡반정동 348-1번지","category":"기타의료기관 - 기타의료기관 및 기타"}]},{"lat":"37.232434733","long":"127.02367276","items":[{"name":"한국비버리지","tel":"070-7010-8886","addr":"경기도 수원시 권선구 곡반정동 608-4번지 1층 101호","category":"음료식품 - 기타음료식품"}]},{"lat":"37.2350744","long":"127.02564558","items":[{"name":"한국특장판매","tel":"070-4114-3038","addr":"경기도 수원시 권선구 곡반정동 586-7번지 204호","category":"자동차정비 유지 - 자동차부품"}]},{"lat":"37.234515534","long":"127.02678358","items":[{"name":"한빛아이티","tel":"","addr":"경기도 수원시 권선구 곡반정동 594-15번지 202호","category":"용역 서비스 - 사무서비스"}]},{"lat":"37.240740866","long":"127.03050463","items":[{"name":"해다온국물등갈비","tel":"031-234-1111","addr":"경기도 수원시 권선구 곡반정동 545-8번지 1층","category":"일반휴게음식 - 일반한식"}]},{"lat":"37.234659946","long":"127.02553277","items":[{"name":"해룡철물","tel":"031-239-7737","addr":"경기도 수원시 권선구 곡반정동 587-7번지","category":"건축자재 - 목재·석재·철물"}]},{"lat":"37.244938906","long":"127.03363939","items":[{"name":"해법중국어권선점교습소","tel":"031-239-1109","addr":"경기도 수원시 권선구 곡반정동 509-9번지 1층 102호","category":"회원제형태 - 학원"}]},{"lat":"37.234074035","long":"127.02674964","items":[{"name":"해신LED","tel":"031-235-5664","addr":"경기도 수원시 권선구 곡반정동 595-16번지 1층 101호","category":"자동차정비 유지 - 자동차부품"}]},{"lat":"37.237849078","long":"127.02813698","items":[{"name":"해피푸드","tel":"031-278-7979","addr":"경기도 수원시 권선구 곡반정동 570-6번지","category":"일반휴게음식 - 일반한식"}]},{"lat":"37.233848797","long":"127.02664815","items":[{"name":"행복유치원[아이행복]","tel":"031-232-3321","addr":"경기도 수원시 권선구 곡반정동 595-10번지","category":"학원 - 유치원"}]},{"lat":"37.234849446","long":"127.02400023","items":[{"name":"헐크카월드","tel":"031-237-2121","addr":"경기도 수원시 권선구 곡반정동 583-8번지","category":"자동차정비 유지 - 세차장"}]},{"lat":"37.240912071","long":"127.03047089","items":[{"name":"헤어디안느","tel":"031-234-0804","addr":"경기도 수원시 권선구 곡반정동 545-5번지 1층상가","category":"보건위생 - 미용원"}]},{"lat":"37.243795183","long":"127.03128341","items":[{"name":"헤어라피네","tel":"031-223-0549","addr":"경기도 수원시 권선구 곡반정동 516-4번지","category":"보건위생 - 미용원"}]},{"lat":"37.245767806","long":"127.03383132","items":[{"name":"헤어살롱에드","tel":"031-223-8221","addr":"경기도 수원시 권선구 곡반정동 503-15번지 1층","category":"보건위생 - 미용원"}]},{"lat":"37.234488828","long":"127.02511576","items":[{"name":"헤어카페","tel":"031-233-6804","addr":"경기도 수원시 권선구 곡반정동 588-6번지 용빌딩","category":"보건위생 - 미용원"},{"name":"화성세탁소","tel":"031-236-2367","addr":"경기도 수원시 권선구 곡반정동 588-6번지 용빌딩 102호","category":"수리서비스 - 세탁소"}]},{"lat":"37.237876131","long":"127.02803556","items":[{"name":"현대오앤오 주식회사","tel":"070-8848-3050","addr":"경기도 수원시 권선구 곡반정동 570-5번지 2층","category":"용역 서비스 - 종합용역"}]},{"lat":"37.243993304","long":"127.03172303","items":[{"name":"현대지바트","tel":"02-913-9879","addr":"경기도 수원시 권선구 곡반정동 517-10구획정리사업지구15B1L.104","category":"회원제형태 - 자동차서비스"}]},{"lat":"37.23920942","long":"127.02914044","items":[{"name":"형제상회","tel":"031-239-2100","addr":"경기도 수원시 권선구 곡반정동 558-4번지 1층","category":"일반휴게음식 - 일반한식"}]},{"lat":"37.239380726","long":"127.02864463","items":[{"name":"호동타이어정비","tel":"070-7534-2667","addr":"경기도 수원시 권선구 곡반정동 558-1번지 1층","category":"자동차정비 유지 - 자동차정비"}]},{"lat":"37.241631027","long":"127.03758257","items":[{"name":"화성궁","tel":"031-221-8855","addr":"경기도 수원시 권선구 곡반정동 111-2번지","category":"일반휴게음식 - 일반한식"}]},{"lat":"37.233740713","long":"127.02644527","items":[{"name":"화성식당","tel":"031-238-8792","addr":"경기도 수원시 권선구 곡반정동 595-12번지 101호","category":"일반휴게음식 - 일반한식"}]},{"lat":"37.233606003","long":"127.02409003","items":[{"name":"화성씨앤씨 세탁기","tel":"","addr":"경기도 수원시 권선구 곡반정동 605-6번지","category":"전기제품 - 가전제품"}]},{"lat":"37.23935351","long":"127.02947858","items":[{"name":"휴먼아이티수원","tel":"031-223-5157","addr":"경기도 수원시 권선구 곡반정동 557-14번지","category":"사무통신 - 컴퓨터"}]}]