[{"lat":"37.234293923","long":"127.06594327","items":[{"name":"(잼)Jam있는빵","tel":"","addr":"경기도 화성시 반월동 67-4번지 호평프라자 1층 106호","category":"음료식품 - 제과점"},{"name":"경희햇살한의원","tel":"031-206-9171","addr":"경기도 화성시 반월동 67-4번지 호평프라자 2층 201호, 202호","category":"의원 - 한의원"},{"name":"네일을 탐하다","tel":"031-203-9640","addr":"경기도 화성시 반월동 67-4번지 호평프라자 103호","category":"보건위생 - 피부미용실"},{"name":"드림독서실","tel":"031-202-0929","addr":"경기도 화성시 반월동 67-4번지 호평프라자 401호","category":"학원 - 독서실"},{"name":"드림스케치미술학원","tel":"031-205-7880","addr":"경기도 화성시 반월동 67-4번지 호평프라자 303호","category":"학원 - 예·체능계학원"},{"name":"모자 밥상","tel":"031-205-0270","addr":"경기도 화성시 반월동 67-4번지 호평프라자 107호","category":"음료식품 - 기타음료식품"},{"name":"반달이화음악학원","tel":"031-205-5265","addr":"경기도 화성시 반월동 67-4번지 호평프라자 304호","category":"학원 - 예·체능계학원"},{"name":"빵구네닭발 신영통점","tel":"031-223-5214","addr":"경기도 화성시 반월동 67-4번지 호평프라자","category":"일반휴게음식 - 일반한식"},{"name":"얼반헤어","tel":"031-202-8717","addr":"경기도 화성시 반월동 67-4번지 호평프라자 301호","category":"보건위생 - 미용원"},{"name":"엉클정타코야끼&술집","tel":"","addr":"경기도 화성시 반월동 67-4번지 호평프라자 1층 104호","category":"일반휴게음식 - 일식·회집"},{"name":"풀타임PC방","tel":"070-8633-0500","addr":"경기도 화성시 반월동 67-4번지 203,204호","category":"레저업소 - 기타레져업소"}]},{"lat":"37.234825352","long":"127.06628178","items":[{"name":"(주) 와이케이동그라미 화성지점","tel":"031-273-6644","addr":"경기도 화성시 반월동 882번지 두산위브 상가 2층","category":"기타의료기관 - 산후조리원"},{"name":"김경진음악학원","tel":"031-204-0036","addr":"경기도 화성시 반월동 882두산위브상가309","category":"학원 - 예·체능계학원"},{"name":"두산세탁소","tel":"031-202-6863","addr":"경기도 화성시 반월동 882 두산위브상가동113","category":"수리서비스 - 세탁소"},{"name":"삼성영어공감수학학원","tel":"031-205-0338","addr":"경기도 화성시 반월동 882번지 반달마을두산상가 2층 204-1호","category":"학원 - 보습학원"},{"name":"삼성영어공감수학학원","tel":"031-205-0338","addr":"경기도 화성시 반월동 882번지 두산상가 2층 204-1호, 205","category":"학원 - 보습학원"},{"name":"수퍼떡볶킹&바비큐박스","tel":"","addr":"경기도 화성시 반월동 882번지 반달마을두산위브 1층 114호","category":"일반휴게음식 - 일반한식"},{"name":"쌍크앤아트숲미술학원","tel":"031-206-5536","addr":"경기도 화성시 반월동 882번지 반달마을두산위브 상가1동 205-1호","category":"학원 - 예·체능계학원"},{"name":"쌤통수학교습소","tel":"031-202-6533","addr":"경기도 화성시 반월동 882번지 반달마을두산위브 상가 1동 304호","category":"회원제형태 - 학원"},{"name":"씨유화성반달마을점","tel":"080-080-3663","addr":"경기도 화성시 반월동 882번지 반달마을두산위브 상가 1동 1층 101호","category":"유통업 영리 - 편 의 점"},{"name":"씽크앤아트숲미술학원","tel":"031-206-5536","addr":"경기도 화성시 반월동 882번지 반달마을두산위브 상가동 205-1호","category":"학원 - 예·체능계학원"},{"name":"잉글리시아이반월학원","tel":"031-205-6555","addr":"경기도 화성시 반월동 882번지 반달마을두산위브 상가1동 302-1호.303호","category":"학원 - 보습학원"},{"name":"커피볶는에린","tel":"031-203-9639","addr":"경기도 화성시 반월동 882번지 반달마을두산위브 상가 1동 112호","category":"일반휴게음식 - 서양음식"},{"name":"통큰문구","tel":"031-203-5349","addr":"경기도 화성시 반월동 882 두산위브상가 1-109","category":"서적문구 - 문구용품"},{"name":"플레이 창의 센타","tel":"031-202-5117","addr":"경기도 화성시 반월동 882번지 두산상가 108-1호","category":"학원 - 기타 교육기관"}]},{"lat":"37.228351657","long":"127.05669847","items":[{"name":"(주) 하임바이오텍","tel":"031-548-2131","addr":"경기도 화성시 반월동 295-10번지","category":"서적문구 - 과학기자재"}]},{"lat":"37.232853413","long":"127.06375592","items":[{"name":"(주)그린유통","tel":"031-216-5004","addr":"경기도 화성시 반월동 138-1번지 신우빌딩 2층 204호","category":"전기제품 - 가전제품"},{"name":"(주)스마트","tel":"031-287-6240","addr":"경기도 화성시 반월동 138-1번지 206호","category":"보건위생 - 기타대인서비스"},{"name":"개성집","tel":"031-205-0248","addr":"경기도 화성시 반월동 138-1번지 1층 1호","category":"일반휴게음식 - 일반한식"},{"name":"롯데리아 화성반월점","tel":"031-202-4810","addr":"경기도 화성시 반월동 138-1번지","category":"일반휴게음식 - 서양음식"},{"name":"이비가짬뽕","tel":"031-203-7484","addr":"경기도 화성시 반월동 138-1번지 2층","category":"일반휴게음식 - 중국식"}]},{"lat":"37.2274951","long":"127.05794861","items":[{"name":"(주)다솔과학","tel":"031-376-1526","addr":"경기도 화성시 반월동 570-2번지","category":"서적문구 - 과학기자재"}]},{"lat":"37.229828073","long":"127.05944899","items":[{"name":"(주)대진파이프","tel":"031-237-3441","addr":"경기도 화성시 반월동 324-15번지","category":"건축자재 - 기타건축자재"}]},{"lat":"37.229409017","long":"127.0492509","items":[{"name":"(주)동서울시스템공조","tel":"031-8005-7460","addr":"경기도 화성시 반월동 311-207번지","category":"전기제품 - 냉열기기"}]},{"lat":"37.230913407","long":"127.06894914","items":[{"name":"(주)동선","tel":"031-204-0824","addr":"경기도 화성시 반월동 107번지","category":"건축자재 - 기타건축자재"}]},{"lat":"37.226469891","long":"127.05353087","items":[{"name":"(주)마스타","tel":"031-224-2313","addr":"경기도 화성시 반월동 580번지","category":"건축자재 - 목재·석재·철물"}]},{"lat":"37.236467944","long":"127.06099785","items":[{"name":"(주)본가제이씨영통점","tel":"031-205-6050","addr":"경기도 화성시 반월동 27-1번지 대흥프라자 1층 101호","category":"사무통신 - 통신기기"},{"name":"K라이팅","tel":"031-202-6931","addr":"경기도 화성시 반월동 27-1번지 104호 ,105,114호","category":"건축자재 - 조명기구"},{"name":"상림한의원","tel":"","addr":"경기도 화성시 반월동 27-1번지 5층","category":"의원 - 한의원"},{"name":"양심소","tel":"031-203-1618","addr":"경기도 화성시 반월동 27-1번지 1층","category":"일반휴게음식 - 일반한식"},{"name":"플존PC방","tel":"070-8889-6389","addr":"경기도 화성시 반월동 27-1번지 3층","category":"레저업소 - 기타레져업소"}]},{"lat":"37.229663857","long":"127.06355053","items":[{"name":"(주)브리즈 컴퍼니","tel":"070-7576-2322","addr":"경기도 화성시 반월동 335번지","category":"음료식품 - 정육점"},{"name":"주식회사 참에프앤지","tel":"031-205-4480","addr":"경기도 화성시 반월동 335번지","category":"음료식품 - 정육점"}]},{"lat":"37.229827943","long":"127.05971943","items":[{"name":"(주)솔룩스/원격지","tel":"031-223-5614","addr":"경기도 화성시 반월동 324-3번지","category":"기타 - 기타 전문점"}]},{"lat":"37.226018847","long":"127.05474749","items":[{"name":"(주)싱크트론","tel":"031-234-8273","addr":"경기도 화성시 반월동 590-4,590-25","category":"사무통신 - 컴퓨터"}]},{"lat":"37.220359322","long":"127.0570308","items":[{"name":"(주)에이아이티","tel":"070-4639-0849","addr":"경기도 화성시 반월동 636번지","category":"신변잡화 - 기타잡화"},{"name":"리싸이클 라인","tel":"031-1577-5628","addr":"경기도 화성시 반월동 636번지","category":"가구 - 일반가구"}]},{"lat":"37.22866142","long":"127.06786543","items":[{"name":"(주)엑스트/원격지","tel":"031-202-6191","addr":"경기도 화성시 반월동 348-9","category":"기타 - 기타 전문점"},{"name":"마르페","tel":"","addr":"경기도 화성시 반월동 111-4번지 신동탄롯데캐슬 103동 203호","category":"건강식품 - 기타건강식품"},{"name":"봉봉살롱","tel":"031-000-0000","addr":"경기도 화성시 반월동 111-4번지 신동탄롯데캐슬 상가동 2층 6호","category":"보건위생 - 미용원"},{"name":"아이키움(I-KEYUM)반월어린이집[아이행복]","tel":"031-8067-5353","addr":"경기도 화성시 반월동 111-4번지 신동탄롯데캐슬 관리동 어린이집","category":"학원 - 유아원"},{"name":"에스알산업","tel":"","addr":"경기도 화성시 반월동 111-4번지 신동탄롯데캐슬 103동 1404호","category":"의류 - 정장"},{"name":"이레 화장품","tel":"031-000-0000","addr":"경기도 화성시 반월동 111-4번지 신동탄롯데캐슬 103동 2502호","category":"보건위생 - 화장품"},{"name":"판다인터내셔널","tel":"","addr":"경기도 화성시 반월동 111-4번지 신동탄롯데캐슬 103동 1602호","category":"보건위생 - 화장품"},{"name":"평민인테리어","tel":"","addr":"경기도 화성시 반월동 111-4번지 신동탄롯데캐슬 112동 604호","category":"건축자재 - 인테리어전문"}]},{"lat":"37.229491202","long":"127.06633366","items":[{"name":"(주)자루푸드","tel":"031-215-5370","addr":"경기도 화성시 반월동 118-5,4","category":"음료식품 - 농·축·수산품"},{"name":"아이엠테크","tel":"031-204-7505","addr":"경기도 화성시 반월동 118-5번지 3호","category":"전기제품 - 기타전기제품"}]},{"lat":"37.234880929","long":"127.06338567","items":[{"name":"(주)티지이엔지(TG.ENG)","tel":"031-222-6666","addr":"경기도 화성시 반월동 62-2번지 A동 101호","category":"용역 서비스 - 기타용역서비스"},{"name":"cyclops","tel":"031-273-8779","addr":"경기도 화성시 반월동 62-2 107호~108호","category":"자동차판매 - 이륜차판매"},{"name":"대성컴퓨터시스템","tel":"031-204-1118","addr":"경기도 화성시 반월동 62-2번지 105호","category":"사무통신 - 컴퓨터"},{"name":"삼성SAC","tel":"031-205-3322","addr":"경기도 화성시 반월동 62-2번지 1층 101호","category":"전기제품 - 냉열기기"},{"name":"카우보이","tel":"031-273-1877","addr":"경기도 화성시 반월동 62-2번지 C동 1층","category":"일반휴게음식 - 주점"}]},{"lat":"37.225020485","long":"127.06922569","items":[{"name":"(주)피와이언홀딩스/국대떡볶이","tel":"031-8096-0185","addr":"경기도 화성시 반월동 371","category":"일반휴게음식 - 스넥"},{"name":"(주)피와이언홀딩스삼성전자DSR동매점","tel":"031-8096-0186","addr":"경기도 화성시 반월동 371","category":"음료식품 - 기타음료식품"}]},{"lat":"37.23608007","long":"127.06186528","items":[{"name":"10번가의고깃집","tel":"031-205-1081","addr":"경기도 화성시 반월동 29번지 신영통상가","category":"일반휴게음식 - 일반한식"},{"name":"명호자동차오일전문점","tel":"031-273-6887","addr":"경기도 화성시 반월동 29번지","category":"자동차정비 유지 - 자동차시트·타이어"},{"name":"불타는안창살","tel":"031-206-9462","addr":"경기도 화성시 반월동 29번지 불타는안창살","category":"일반휴게음식 - 일반한식"},{"name":"불타는안창살","tel":"031-206-9462","addr":"경기도 화성시 반월동 29번지","category":"일반휴게음식 - 일반한식"},{"name":"신영통열쇠","tel":"031-205-0002","addr":"경기도 화성시 반월동 29번지 신영통상가 2호","category":"기타 - 기계공구"}]},{"lat":"37.23457558","long":"127.06139081","items":[{"name":"11번가헤어","tel":"031-202-2122","addr":"경기도 화성시 반월동 869-4번지 골드프라자 1층 119호","category":"보건위생 - 미용원"},{"name":"KH숯불바베큐","tel":"031-232-9969","addr":"경기도 화성시 반월동 869-4번지 골드프라자 122호","category":"일반휴게음식 - 일반한식"},{"name":"Q당구장","tel":"031-202-9036","addr":"경기도 화성시 반월동 869-4번지 골드프라자 201호","category":"레저업소 - 당 구 장"},{"name":"국수나무 화성반월점","tel":"031-206-7252","addr":"경기도 화성시 반월동 869-4번지 골드프라자 107호","category":"일반휴게음식 - 일반한식"},{"name":"그랑J발레무용학원","tel":"031-205-3334","addr":"경기도 화성시 반월동 869-4번지 골든프라자 402호","category":"학원 - 예·체능계학원"},{"name":"글라스안경","tel":"031-203-3977","addr":"경기도 화성시 반월동 869-4번지 골드프라자 101호","category":"보건위생 - 안경"},{"name":"네일뷰","tel":"031-204-2770","addr":"경기도 화성시 반월동 869-4번지 골드프라자 120호","category":"보건위생 - 피부미용실"},{"name":"로제아덴","tel":"031-204-6862","addr":"경기도 화성시 반월동 869-4번지 골드프라자 110호","category":"신변잡화 - 시계"},{"name":"막강수학,IBT주니어영어학원","tel":"031-273-8833","addr":"경기도 화성시 반월동 869-4번지 골드파라자 304호","category":"회원제형태 - 학원"},{"name":"봉구스밥버거","tel":"031-273-7797","addr":"경기도 화성시 반월동 869-4번지 골드프라자 114호","category":"일반휴게음식 - 서양음식"},{"name":"북카페W","tel":"031-205-0591","addr":"경기도 화성시 반월동 869-4번지 골드프라자 301호","category":"일반휴게음식 - 서양음식"},{"name":"선진인테리어","tel":"031-235-0465","addr":"경기도 화성시 반월동 869-4번지 골드프라자 118호","category":"건축자재 - 인테리어전문"},{"name":"수리치","tel":"031-206-7981","addr":"경기도 화성시 반월동 869-4번지 골드프라자 115호","category":"음료식품 - 제과점"},{"name":"썬더치킨","tel":"","addr":"경기도 화성시 반월동 869-4번지 골드프라자 1층 104호","category":"일반휴게음식 - 스넥"},{"name":"아림","tel":"031-205-2666","addr":"경기도 화성시 반월동 869-4번지 골드프라자 108호","category":"음료식품 - 제과점"},{"name":"에스헤어","tel":"031-273-8982","addr":"경기도 화성시 반월동 869-4번지 골드프라자 113호","category":"보건위생 - 미용원"},{"name":"열정과일","tel":"031-203-5249","addr":"경기도 화성시 반월동 869-4번지 골드프라자 102호","category":"음료식품 - 농·축·수산품"},{"name":"오레시피신영통현대점","tel":"031-204-5888","addr":"경기도 화성시 반월동 869-4번지 골드프라자 106호","category":"음료식품 - 기타음료식품"},{"name":"용인대참유성태권도장","tel":"031-203-5799","addr":"경기도 화성시 반월동 864-4골드프라자303호","category":"학원 - 예·체능계학원"},{"name":"유나인","tel":"031-202-1786","addr":"경기도 화성시 반월동 869-4번지 골드프라자상가 105호","category":"일반휴게음식 - 칵테일바"},{"name":"이쁘지요","tel":"031-204-1566","addr":"경기도 화성시 반월동 869-4번지 골드프라자 3층 302호","category":"회원제형태 - 기타4"},{"name":"정원카페","tel":"031-205-3334","addr":"경기도 화성시 반월동 869-4번지 골드프라자 402호","category":"일반휴게음식 - 일반한식"},{"name":"착한아이스크림 신영통점","tel":"","addr":"경기도 화성시 반월동 869-4번지 골드프라자 1층 117호","category":"음료식품 - 기타음료식품"},{"name":"통큰두마리찜닭","tel":"031-203-1808","addr":"경기도 화성시 반월동 869-4번지 골드프라자 116호","category":"일반휴게음식 - 서양음식"},{"name":"팁 샵(TIP SHOP)","tel":"031-9992-0516","addr":"경기도 화성시 반월동 869-4번지 골드프라자 202-1호","category":"의류 - 정장"},{"name":"파랑새음악학원","tel":"031-202-7975","addr":"경기도 화성시 반월동 869-4번지 골드프라자 309호","category":"학원 - 예·체능계학원"},{"name":"프로헤어 예작","tel":"031-206-7179","addr":"경기도 화성시 반월동 869-4번지 골드프라자 109호","category":"보건위생 - 미용원"},{"name":"피자고(PIZZAGO)","tel":"031-205-8289","addr":"경기도 화성시 반월동 869-4번지 골드프라자 121호","category":"일반휴게음식 - 서양음식"},{"name":"해피하우스","tel":"031-203-2358","addr":"경기도 화성시 반월동 869-4번지 골드프라자 206호 ,207,208호","category":"기타의료기관 - 기타의료기관 및 기타"},{"name":"헤라헤어","tel":"031-273-8859","addr":"경기도 화성시 반월동 869-4번지 골드프라자 103호","category":"보건위생 - 미용원"}]},{"lat":"37.230076062","long":"127.06783284","items":[{"name":"1급에스에프씨모터스","tel":"031-203-0955","addr":"경기도 화성시 반월동 115-9번지","category":"자동차정비 유지 - 자동차정비"}]},{"lat":"37.232907706","long":"127.06330521","items":[{"name":"3D당구장","tel":"031-4693-1943","addr":"경기도 화성시 반월동 138-8번지 신영통빌딩 2층","category":"레저업소 - 당 구 장"},{"name":"더착한양꼬치","tel":"031-273-5888","addr":"경기도 화성시 반월동 138-8번지 신영통빌딩","category":"일반휴게음식 - 일반한식"},{"name":"믿음식당","tel":"031-206-5010","addr":"경기도 화성시 반월동 138-8번지 신영통빌딩 1층","category":"일반휴게음식 - 일반한식"},{"name":"밍광택 코팅","tel":"031-205-3890","addr":"경기도 화성시 반월동 138-8번지 1층","category":"자동차정비 유지 - 카인테리어"},{"name":"신신세차장","tel":"031-205-5986","addr":"경기도 화성시 반월동 138-8번지","category":"자동차정비 유지 - 세차장"},{"name":"아람","tel":"031-206-7824","addr":"경기도 화성시 반월동 138-8번지 신영통빌딩 2층","category":"일반휴게음식 - 일반한식"},{"name":"아이조아","tel":"031-203-1300","addr":"경기도 화성시 반월동 138-8번지 신영통빌딩 3층","category":"레저업소 - 기타레져업소"},{"name":"옛날장터치킨","tel":"070-8269-2708","addr":"경기도 화성시 반월동 138-8번지 신영통빌딩 104호","category":"일반휴게음식 - 스넥"},{"name":"할매가마솥보신탕","tel":"031-205-6440","addr":"경기도 화성시 반월동 138-8번지 1층","category":"일반휴게음식 - 일반한식"}]},{"lat":"37.224438092","long":"127.06308438","items":[{"name":"79네수육국밥","tel":"031-222-6255","addr":"경기도 화성시 반월동 488-28번지 포항물회 가동 1층","category":"일반휴게음식 - 일반한식"},{"name":"서울명가","tel":"031-223-2915","addr":"경기도 화성시 반월동 488-28 가동","category":"일반휴게음식 - 일반한식"},{"name":"원천설렁탕","tel":"031-234-8188","addr":"경기도 화성시 반월동 488-28번지 1층","category":"일반휴게음식 - 일반한식"},{"name":"위드미화성반월점","tel":"031-613-1810","addr":"경기도 화성시 반월동 488-28번지","category":"유통업 영리 - 편 의 점"}]},{"lat":"37.225271131","long":"127.05442021","items":[{"name":"ADAM","tel":"031-237-5720","addr":"경기도 화성시 반월동 612-3번지","category":"기타 - 기계공구"},{"name":"주식회사 무한재생에너지","tel":"031-224-8980","addr":"경기도 화성시 반월동 612-3번지 나동","category":"건축자재 - 보일러·펌프·샷시"}]},{"lat":"37.233295179","long":"127.06324918","items":[{"name":"BM노래연습장","tel":"031-285-7745","addr":"경기도 화성시 반월동 160-14번지","category":"레저업소 - 노 래 방"},{"name":"샬롬미용실","tel":"031-202-9678","addr":"경기도 화성시 반월동 160-14번지 103호","category":"보건위생 - 미용원"},{"name":"음식마을","tel":"031-273-7048","addr":"경기도 화성시 반월동 160-14번지 외1필지","category":"일반휴게음식 - 일반한식"},{"name":"치킨봉이야기","tel":"031-203-5392","addr":"경기도 화성시 반월동 160-14번지 1층","category":"일반휴게음식 - 일반한식"},{"name":"한빛인테리어","tel":"031-273-0257","addr":"경기도 화성시 반월동 160-14,160-9의104호","category":"건축자재 - 인테리어전문"}]},{"lat":"37.223601358","long":"127.06061615","items":[{"name":"Boom Store","tel":"070-7622-2861","addr":"경기도 화성시 반월동 538-23번지 외1필지","category":"유통업 영리 - 편 의 점"},{"name":"와촌식당 반월점","tel":"031-225-8892","addr":"경기도 화성시 반월동 538-23번지","category":"일반휴게음식 - 일반한식"}]},{"lat":"37.221352791","long":"127.05166838","items":[{"name":"FOR YOU25반월점","tel":"031-235-2833","addr":"경기도 화성시 반월동 718-1번지 외2필지행복프라자101호-1","category":"유통업 영리 - 슈퍼마켓"},{"name":"오토테크카정비","tel":"031-203-0909","addr":"경기도 화성시 반월동 718-1번지 외2필지","category":"자동차정비 유지 - 자동차정비"},{"name":"펀수학학원","tel":"","addr":"경기도 화성시 반월동 718-1번지 행복프라자 201호","category":"학원 - 보습학원"}]},{"lat":"37.222323336","long":"127.05756176","items":[{"name":"GS25동탄뷰파크점","tel":"","addr":"경기도 화성시 반월동 944번지 에스케이뷰파크 제상가1동 1층 104~105호","category":"유통업 영리 - 편 의 점"},{"name":"SK신나는어린이집[아이행복]","tel":"070-4065-1442","addr":"경기도 화성시 반월동 944번지 에스케이뷰파크 110동 104호","category":"학원 - 유아원"},{"name":"SK화이트세탁소","tel":"031-235-4712","addr":"경기도 화성시 반월동 944번지 SK뷰파크 1동 101호","category":"수리서비스 - 세탁소"},{"name":"가족사랑","tel":"","addr":"경기도 화성시 반월동 944번지 에스케이뷰파크 101동 304호","category":"의류 - 내의판매"},{"name":"그링아트스튜디오","tel":"031-613-9383","addr":"경기도 화성시 반월동 944번지 에스케이뷰파크 118동 301호","category":"회원제형태 - 학원"},{"name":"꿈꾸는피아노","tel":"031-2474-2967","addr":"경기도 화성시 반월동 944번지 에스케이뷰파크","category":"회원제형태 - 학원"},{"name":"더민헤어","tel":"031-236-8990","addr":"경기도 화성시 반월동 944번지 에스케이뷰파크 2동 1층 108호","category":"보건위생 - 미용원"},{"name":"더앨리","tel":"070-4149-0109","addr":"경기도 화성시 반월동 944번지 에스케이뷰파크 2동 1층 109호","category":"레저업소 - 기타레져업소"},{"name":"로제타스톤 SK뷰파크점","tel":"031-204-0756","addr":"경기도 화성시 반월동 944번지 에스케이뷰파크 106동 403호","category":"학원 - 기타 교육기관"},{"name":"리더스영어","tel":"","addr":"경기도 화성시 반월동 944번지 에스케이뷰파크 108동 203호","category":"학원 - 기타 교육기관"},{"name":"리드인 반월SK 독서교실","tel":"","addr":"경기도 화성시 반월동 944번지 에스케이뷰파크 115동 2층 02호","category":"학원 - 기타 교육기관"},{"name":"매쓰씨앤아이","tel":"031-321-7322","addr":"경기도 화성시 반월동 944번지 에스케이뷰파크 113동 1201호","category":"학원 - 보습학원"},{"name":"뮤엠영어","tel":"","addr":"경기도 화성시 반월동 944번지 에스케이뷰파크 120동 202호","category":"학원 - 기타 교육기관"},{"name":"뮤직톡음악학원","tel":"070-5000-8278","addr":"경기도 화성시 반월동 944번지 에스케이뷰파크 상가2동 106호.107호","category":"학원 - 예·체능계학원"},{"name":"미니스톱동탄뷰파크점","tel":"031-1577-9621","addr":"경기도 화성시 반월동 944번지 SKVIEWPARK 상가2동104,105호","category":"유통업 영리 - 편 의 점"},{"name":"방쌤수학교실","tel":"070-5025-2943","addr":"경기도 화성시 반월동 944번지 에스케이뷰파크 101동 201호","category":"회원제형태 - 학원"},{"name":"봄이랑어린이집[아이행복]","tel":"031-231-1699","addr":"경기도 화성시 반월동 944번지 에스케이뷰파크 106동 101호","category":"학원 - 유아원"},{"name":"봄이패션","tel":"","addr":"경기도 화성시 반월동 944번지 에스케이뷰파크 122동 2101호","category":"의류 - 정장"},{"name":"빨간펜수학의달인","tel":"","addr":"경기도 화성시 반월동 944번지 에스케이뷰파크 118동 103호","category":"학원 - 기타 교육기관"},{"name":"사랑샘어린이집[아이행복]","tel":"070-7655-1200","addr":"경기도 화성시 반월동 944번지 에스케이뷰파크 119동 102호","category":"학원 - 유아원"},{"name":"삼성에어컨","tel":"","addr":"경기도 화성시 반월동 944번지 에스케이뷰파크 124동 1002호","category":"용역 서비스 - 기타용역서비스"},{"name":"서민우 개인과외교습소","tel":"","addr":"경기도 화성시 반월동 944번지 에스케이뷰파크 119동 302호","category":"학원 - 기타 교육기관"},{"name":"소현유통","tel":"031-233-2576","addr":"경기도 화성시 반월동 944번지 에스케이뷰파크 103동 103호","category":"유통업 영리 - 기타유통업"},{"name":"스즈키바이올린교습소","tel":"031-222-0307","addr":"경기도 화성시 반월동 944번지 에스케이뷰파크 1동 204호","category":"학원 - 예·체능계학원"},{"name":"아름다운밤","tel":"031-221-9851","addr":"경기도 화성시 반월동 944번지 에스케이뷰파크 1층 110호","category":"일반휴게음식 - 일반한식"},{"name":"어거스트 25th(august 25th)","tel":"02-720-3303","addr":"경기도 화성시 반월동 944번지 에스케이뷰파크 111동 2층 201호","category":"신변잡화 - 귀금속"},{"name":"엠리더스동탄학원","tel":"031-223-2382","addr":"경기도 화성시 반월동 944번지 에스케이뷰파크 근린상가2동 202호,203호","category":"학원 - 보습학원"},{"name":"유프로토탈케어","tel":"070-8947-4490","addr":"경기도 화성시 반월동 944번지 에스케이뷰파크 103동 603호","category":"자동차정비 유지 - 카인테리어"},{"name":"윤선생우리집앞영어교실신동탄SK공부방","tel":"031-613-0596","addr":"경기도 화성시 반월동 944번지 에스케이뷰파크 113동 601호","category":"학원 - 외국어학원"},{"name":"이승윤","tel":"0505-6753-4170","addr":"경기도 화성시 반월동 944번지 에스케이뷰파크 107동 603호","category":"학원 - 기타 교육기관"},{"name":"인테리어 올레","tel":"031-293-3957","addr":"경기도 화성시 반월동 944번지 에스케이뷰파크 112동 502호","category":"건축자재 - 인테리어전문"},{"name":"정우유통","tel":"031-236-6342","addr":"경기도 화성시 반월동 944번지 에스케이뷰파크 102동 901호","category":"유통업 영리 - 기타유통업"},{"name":"주(JU)헤어살롱","tel":"","addr":"경기도 화성시 반월동 944번지 에스케이뷰파크 1동 1층 102호","category":"보건위생 - 미용원"},{"name":"크리아트 동탄 반월원","tel":"","addr":"경기도 화성시 반월동 944번지 에스케이뷰파크 106동 1703호","category":"학원 - 예·체능계학원"},{"name":"투다리","tel":"031-221-7620","addr":"경기도 화성시 반월동 944번지 에스케이뷰파크 2동 1층 104호","category":"일반휴게음식 - 일반한식"},{"name":"프란츠음악학원","tel":"","addr":"경기도 화성시 반월동 944번지 에스케이뷰파크 상가1동 202호,203호","category":"학원 - 예·체능계학원"},{"name":"프롬마스(From Mars)","tel":"","addr":"경기도 화성시 반월동 944번지 에스케이뷰파크 103동 5층 501호","category":"신변잡화 - 귀금속"},{"name":"피포커피","tel":"070-1111-1111","addr":"경기도 화성시 반월동 944번지 에스케이뷰파크 상가 2동 112호","category":"일반휴게음식 - 서양음식"},{"name":"해법,셀파반월초점","tel":"031-893-7690","addr":"경기도 화성시 반월동 944번지 에스케이뷰파크 102동 203호","category":"회원제형태 - 학원"},{"name":"홈프리츠","tel":"031-111-1111","addr":"경기도 화성시 반월동 944번지 에스케이뷰파크 상가 2동 105호","category":"일반휴게음식 - 일반한식"}]},{"lat":"37.227163988","long":"127.07091775","items":[{"name":"GS25동탄서후점","tel":"","addr":"경기도 화성시 반월동 370-1번지 6호","category":"유통업 영리 - 편 의 점"},{"name":"용정","tel":"031-202-8990","addr":"경기도 화성시 반월동 370-1번지","category":"일반휴게음식 - 중국식"},{"name":"커피코드","tel":"031-202-4945","addr":"경기도 화성시 반월동 370-1번지 105호","category":"일반휴게음식 - 서양음식"}]},{"lat":"37.233771191","long":"127.06619075","items":[{"name":"GS25반월대우점","tel":"","addr":"경기도 화성시 반월동 83번지 113, 114호","category":"유통업 영리 - 편 의 점"},{"name":"더채움스터디센터독서실","tel":"031-202-3359","addr":"경기도 화성시 반월동 83번지 신우프라자 401호","category":"학원 - 독서실"},{"name":"더피아니스트 음악학원","tel":"031-206-1232","addr":"경기도 화성시 반월동 83번지 307호","category":"학원 - 예·체능계학원"},{"name":"머리못하는집(반월점)","tel":"031-273-0360","addr":"경기도 화성시 반월동 83번지","category":"보건위생 - 미용원"},{"name":"미스터","tel":"070-9144-8965","addr":"경기도 화성시 반월동 83번지 204호","category":"보건위생 - 미용재료"},{"name":"민속떡방","tel":"031-202-3340","addr":"경기도 화성시 반월동 83번지 신우프라자 110호","category":"음료식품 - 제과점"},{"name":"보쌈제복","tel":"031-202-9093","addr":"경기도 화성시 반월동 83번지 1층 109호","category":"일반휴게음식 - 일반한식"},{"name":"사라","tel":"031-202-3939","addr":"경기도 화성시 반월동 83번지 신우프라자 111호","category":"의류 - 정장"},{"name":"서일학원","tel":"031-203-0191","addr":"경기도 화성시 반월동 83번지 206호","category":"학원 - 보습학원"},{"name":"아이스따봉","tel":"031-206-3113","addr":"경기도 화성시 반월동 83번지 신우프라자 111호","category":"음료식품 - 기타음료식품"},{"name":"에네르게스","tel":"031-205-3651","addr":"경기도 화성시 반월동 83번지 신우프라자 203호","category":"회원제형태 - 기타4"},{"name":"연세153학원","tel":"031-205-0077","addr":"경기도 화성시 반월동 83번지 신우프라자 3층 306호","category":"학원 - 보습학원"},{"name":"연세153학원","tel":"031-205-0077","addr":"경기도 화성시 반월동 83번지 신우프라자 3층 306호","category":"학원 - 보습학원"},{"name":"연테라피","tel":"031-204-7643","addr":"경기도 화성시 반월동 83번지 신우프라자 207호","category":"보건위생 - 피부미용실"},{"name":"주식회사 케이티에스씨(KTSC) 경기사업소","tel":"02-2204-5964","addr":"경기도 화성시 반월동 83번지 201호","category":"음료식품 - 정육점"},{"name":"파라에스트라","tel":"","addr":"경기도 화성시 반월동 83번지 신우프라자 3층 305호","category":"레저업소 - 헬스클럽"},{"name":"하디아동청소년발달센터 반월3호점","tel":"","addr":"경기도 화성시 반월동 83번지 3층 306호","category":"보건위생 - 기타대인서비스"},{"name":"하모니마트","tel":"031-206-0049","addr":"경기도 화성시 반월동 83번지 신우프라자 102호~107호","category":"유통업 영리 - 슈퍼마켓"},{"name":"헤어제이","tel":"031-203-1239","addr":"경기도 화성시 반월동 83번지 108호","category":"보건위생 - 미용원"}]},{"lat":"37.224240143","long":"127.06253211","items":[{"name":"GS25반월삼성점","tel":"080-555-2525","addr":"경기도 화성시 반월동 525-2번지 1층 일부","category":"유통업 영리 - 편 의 점"},{"name":"돌담추어정식","tel":"031-297-3401","addr":"경기도 화성시 반월동 525-2번지","category":"일반휴게음식 - 일반한식"}]},{"lat":"37.229771363","long":"127.06474506","items":[{"name":"GS25화성반월점","tel":"02-2006-2118","addr":"경기도 화성시 반월동 345-3번지 태양빌딩 1층","category":"유통업 영리 - 편 의 점"},{"name":"네파트너스","tel":"","addr":"경기도 화성시 반월동 345-3번지 태양빌딩 4-3호","category":"용역 서비스 - 사무서비스"},{"name":"명륜진사갈비 반월점","tel":"070-4808-0518","addr":"경기도 화성시 반월동 345-3번지 태양빌딩","category":"일반휴게음식 - 일반한식"},{"name":"반월골프존","tel":"031-202-0750","addr":"경기도 화성시 반월동 345-3번지 태양빌딩 4층","category":"레저업소 - 스크린골프"},{"name":"아모레카운셀러(최수연)","tel":"031-206-0801","addr":"경기도 화성시 반월동 345-3번지 태양빌딩 4층","category":"보건위생 - 화장품"},{"name":"이가국밥","tel":"031-205-8885","addr":"경기도 화성시 반월동 345-3번지 태양빌딩 1층 일부","category":"일반휴게음식 - 일반한식"}]},{"lat":"37.234962778","long":"127.06188695","items":[{"name":"ITOP컴퓨터학원","tel":"031-273-5658","addr":"경기도 화성시 반월동 869번지 현대프라자 418호","category":"회원제형태 - 학원"},{"name":"J퓰리처학원","tel":"031-203-7663","addr":"경기도 화성시 반월동 869번지 현대프라자 401호","category":"학원 - 보습학원"},{"name":"Time 노래연습장","tel":"031-206-5122","addr":"경기도 화성시 반월동 869번지 현대프라자 203호","category":"레저업소 - 노 래 방"},{"name":"가족(가장맛있는족발)","tel":"031-203-7997","addr":"경기도 화성시 반월동 869번지 현대프라자 126,127호","category":"일반휴게음식 - 일반한식"},{"name":"갤러리 노래연습장","tel":"031-206-5122","addr":"경기도 화성시 반월동 869번지 현대프라자 201호","category":"레저업소 - 노 래 방"},{"name":"건강밥상과 고기들","tel":"031-203-1202","addr":"경기도 화성시 반월동 869번지 현대프라자 217~218호","category":"일반휴게음식 - 일반한식"},{"name":"건강밥상과고기들","tel":"031-203-1202","addr":"경기도 화성시 반월동 869번지 현대프라자 218호 217호, 218호","category":"일반휴게음식 - 일반한식"},{"name":"경기예술문화원","tel":"031-273-5018","addr":"경기도 화성시 반월동 869번지 현대프라자 303호","category":"학원 - 기타 교육기관"},{"name":"그리고...물고기","tel":"031-203-9057","addr":"경기도 화성시 반월동 869번지 현대프라자 1층 128호","category":"의류 - 정장"},{"name":"그린비바디쉐이핑&투혼킥복싱","tel":"031-204-8838","addr":"경기도 화성시 반월동 869번지 현대프라자제4층","category":"회원제형태 - 레져업소"},{"name":"김밥촌","tel":"031-205-8879","addr":"경기도 화성시 반월동 869번지 현대프라자 111호","category":"일반휴게음식 - 스넥"},{"name":"꼬미곶닭발&마늘통닭","tel":"031-205-5777","addr":"경기도 화성시 반월동 869번지 1층 119,120호","category":"일반휴게음식 - 일반한식"},{"name":"끌레오","tel":"031-267-7420","addr":"경기도 화성시 반월동 869번지 현대프라자 1층 130호","category":"신변잡화 - 귀금속"},{"name":"나오미","tel":"031-203-4948","addr":"경기도 화성시 반월동 869번지 현대프라자 104호","category":"의류 - 정장"},{"name":"대구왕뽈찜","tel":"031-206-3189","addr":"경기도 화성시 반월동 869번지 현대프라자 115호","category":"일반휴게음식 - 일반한식"},{"name":"도담도담","tel":"031-204-4948","addr":"경기도 화성시 반월동 869번지 현대프라자 122,123호","category":"일반휴게음식 - 일반한식"},{"name":"따봉짐","tel":"031-204-1033","addr":"경기도 화성시 반월동 869번지 현대프라자 306호","category":"레저업소 - 헬스클럽"},{"name":"루비라이브","tel":"031-204-7080","addr":"경기도 화성시 반월동 869번지 현대프라자 301호","category":"일반휴게음식 - 스넥"},{"name":"림 Hairsalon","tel":"031-202-9701","addr":"경기도 화성시 반월동 869번지 현대프라자 110호","category":"보건위생 - 미용원"},{"name":"마니또김밥","tel":"031-202-0977","addr":"경기도 화성시 반월동 869번지 현대프라자 1층 112호","category":"일반휴게음식 - 스넥"},{"name":"만나온열건강센터","tel":"070-7645-1692","addr":"경기도 화성시 반월동 869번지 현대프라자 204호","category":"건강식품 - 기타건강식품"},{"name":"맥주집","tel":"031-205-2227","addr":"경기도 화성시 반월동 869번지 현대프라자 105호","category":"일반휴게음식 - 주점"},{"name":"미니스톱 화성현대점","tel":"031-1577-9621","addr":"경기도 화성시 반월동 869번지 현대프라자 1층 113호","category":"유통업 영리 - 편 의 점"},{"name":"미랜반월1호점","tel":"031-273-2600","addr":"경기도 화성시 반월동 869번지 현대프라자 414-1호","category":"주방용구 - 주방용구"},{"name":"민속주점(봉숙이주막)","tel":"031-202-0054","addr":"경기도 화성시 반월동 869번지 현대프라자 205호","category":"일반휴게음식 - 일반한식"},{"name":"밤마을, 카페","tel":"","addr":"경기도 화성시 반월동 869번지 현대프라자 1층 129호","category":"일반휴게음식 - 서양음식"},{"name":"별밤","tel":"031-206-4981","addr":"경기도 화성시 반월동 869번지 현대프라자 214호","category":"일반휴게음식 - 일반한식"},{"name":"블리스커피(BLISS COFFEE)","tel":"031-204-2951","addr":"경기도 화성시 반월동 869번지 현대프라자","category":"일반휴게음식 - 서양음식"},{"name":"삼성당구장","tel":"031-273-4988","addr":"경기도 화성시 반월동 869번지 현대프라자 2층 212, 213호","category":"레저업소 - 당 구 장"},{"name":"수아로마","tel":"031-203-3138","addr":"경기도 화성시 반월동 869번지 현대프라자 3층 301-1호","category":"보건위생 - 화장품"},{"name":"스타덤PC 반월점","tel":"070-8332-6004","addr":"경기도 화성시 반월동 869번지 현대프라자 3층 301-2, 302호","category":"레저업소 - 기타레져업소"},{"name":"스튜디오 시소","tel":"070-4191-0319","addr":"경기도 화성시 반월동 869번지 현대프라자 3층 307-1호","category":"광학제품 - 사진관"},{"name":"신영통 옷수선","tel":"031-203-4948","addr":"경기도 화성시 반월동 869번지 현대프라자 104호","category":"수리서비스 - 세탁소"},{"name":"신영통파스칼학원","tel":"031-205-0994","addr":"경기도 화성시 반월동 869번지 현대프라자 413호","category":"학원 - 보습학원"},{"name":"에벤학원","tel":"070-8628-8944","addr":"경기도 화성시 반월동 869번지 현대프라자 412호","category":"학원 - 보습학원"},{"name":"연세길한의원","tel":"031-203-1075","addr":"경기도 화성시 반월동 869번지 현대프라자 308호","category":"의원 - 한의원"},{"name":"영희비어&포차 화성점","tel":"031-206-8998","addr":"경기도 화성시 반월동 869번지 현대프라자 124호","category":"일반휴게음식 - 주점"},{"name":"예리나","tel":"031-613-6454","addr":"경기도 화성시 반월동 869번지 현대프라자 104호","category":"의류 - 정장"},{"name":"예성피아노교습소","tel":"031-273-8911","addr":"경기도 화성시 반월동 869번지 현대프라자 404호","category":"학원 - 예·체능계학원"},{"name":"유쾌한 상상","tel":"031-204-0969","addr":"경기도 화성시 반월동 869번지 현대프라자 3층 309호","category":"서적문구 - 일반서적"},{"name":"은하수노래연습장","tel":"031-204-0035","addr":"경기도 화성시 반월동 869번지 현대프라자 210,211호","category":"레저업소 - 노 래 방"},{"name":"자담치킨 신영통점","tel":"031-202-5992","addr":"경기도 화성시 반월동 869번지 현대프라자 109호","category":"일반휴게음식 - 스넥"},{"name":"주미이룸이","tel":"031-223-4203","addr":"경기도 화성시 반월동 869번지 현대프라자 307-1호","category":"회원제형태 - 서적"},{"name":"주식회사 강토디앤아이씨_w더퍼스트타워3","tel":"031-205-5805","addr":"경기도 화성시 반월동 869번지 현대프라자 304호","category":"자동차정비 유지 - 주차장"},{"name":"최강영수학원","tel":"031-203-7154","addr":"경기도 화성시 반월동 869번지 현대프라자 403호","category":"학원 - 보습학원"},{"name":"태영생막창","tel":"","addr":"경기도 화성시 반월동 869번지 현대프라자 116호","category":"일반휴게음식 - 일반한식"},{"name":"투다리신영통점","tel":"031-203-1457","addr":"경기도 화성시 반월동 869번지 현대프라자","category":"일반휴게음식 - 주점"},{"name":"파워점프","tel":"","addr":"경기도 화성시 반월동 869번지 현대프라자 125호","category":"건강식품 - 기타건강식품"},{"name":"해법중국어학원","tel":"031-206-4062","addr":"경기도 화성시 반월동 869번지 현대프라자 402호","category":"학원 - 외국어학원"},{"name":"향단이민속주점","tel":"031-206-5171","addr":"경기도 화성시 반월동 869번지 현대프라자 117호","category":"일반휴게음식 - 스넥"},{"name":"휴먼씨앤씨","tel":"031-239-4969","addr":"경기도 화성시 반월동 869번지 현대프라자 206호","category":"사무통신 - 컴퓨터"}]},{"lat":"37.221106226","long":"127.05908193","items":[{"name":"JM GOLF","tel":"031-111-1111","addr":"경기도 화성시 반월동 545-1번지 2층 203-3호","category":"레져용품 - 골프용품 전문점"},{"name":"빛의정원 엘이디모카","tel":"031-8015-5033","addr":"경기도 화성시 반월동 545-1번지 2층","category":"건축자재 - 조명기구"},{"name":"에스피엔에프 (주)","tel":"031-654-1519","addr":"경기도 화성시 반월동 545-1번지 2층 221호","category":"신변잡화 - 기타잡화"},{"name":"주식회사 이즈투엠","tel":"070-4244-1227","addr":"경기도 화성시 반월동 545-1번지 2층 212호","category":"건축자재 - 조명기구"}]},{"lat":"37.234412316","long":"127.0635318","items":[{"name":"KCC상사","tel":"031-352-3605","addr":"경기도 화성시 반월동 63-9번지","category":"건축자재 - 페인트"}]},{"lat":"37.226823824","long":"127.04722109","items":[{"name":"KDC자동차외형복원","tel":"031-223-7370","addr":"경기도 화성시 반월동 263-17번지 외1필지","category":"자동차정비 유지 - 카인테리어"},{"name":"KDC자동차외형복원","tel":"031-223-7370","addr":"경기도 화성시 반월동 263-17번지 외1필지","category":"자동차정비 유지 - 카인테리어"},{"name":"덴트히어로","tel":"","addr":"경기도 화성시 반월동 263-17번지","category":"자동차정비 유지 - 카인테리어"}]},{"lat":"37.221295572","long":"127.05881166","items":[{"name":"K아크릴","tel":"031-326-6016","addr":"경기도 화성시 반월동 545번지","category":"건축자재 - 기타건축자재"},{"name":"아이에스에스","tel":"031-898-5053","addr":"경기도 화성시 반월동 545번지","category":"전기제품 - 기타전기제품"}]},{"lat":"37.222136964","long":"127.05100413","items":[{"name":"LETS수학학원","tel":"031-238-6123","addr":"경기도 화성시 반월동 717번지 신풍프라자 303호","category":"회원제형태 - 학원"},{"name":"그린비바디쉐이핑","tel":"031-0000-0000","addr":"경기도 화성시 반월동 717번지 신풍프라자 4층 401호","category":"레저업소 - 헬스클럽"},{"name":"기산온누리약국","tel":"031-225-2755","addr":"경기도 화성시 반월동 717번지 신풍프라자 1층 109호","category":"약국 - 약국"},{"name":"다겸","tel":"031-224-4593","addr":"경기도 화성시 반월동 717번지 신풍프라자 101호","category":"일반휴게음식 - 서양음식"},{"name":"떡향기","tel":"031-221-9936","addr":"경기도 화성시 반월동 717번지 신풍프라자 111호","category":"음료식품 - 제과점"},{"name":"봄인테리어","tel":"031-267-4255","addr":"경기도 화성시 반월동 717번지 신풍프라자 112호","category":"건축자재 - 인테리어전문"},{"name":"봉이네순대국","tel":"031-202-7072","addr":"경기도 화성시 반월동 717번지 신품프라자 115호,116호","category":"일반휴게음식 - 일반한식"},{"name":"블럭&키즈","tel":"031-237-7979","addr":"경기도 화성시 반월동 717번지 신풍프라자 2층 205호","category":"학원 - 기타 교육기관"},{"name":"아이패밀리","tel":"031-222-2727","addr":"경기도 화성시 반월동 717번지 신풍프라자 111호","category":"보건위생 - 안경"},{"name":"아임헤어 화장품","tel":"031-238-6636","addr":"경기도 화성시 반월동 717번지 신풍프라자 105호","category":"보건위생 - 화장품"},{"name":"엠에스짐(MSGym)","tel":"","addr":"경기도 화성시 반월동 717번지 신풍프라자 3층 305호","category":"레저업소 - 헬스클럽"},{"name":"일랑일랑뷰티","tel":"031-232-0822","addr":"경기도 화성시 반월동 717번지 신풍프라자 1층 114호 반월동신풍프자","category":"보건위생 - 화장품"},{"name":"족미가","tel":"031-224-3354","addr":"경기도 화성시 반월동 717번지 신풍프라자 103,104호","category":"일반휴게음식 - 일반한식"},{"name":"투다리","tel":"031-239-8911","addr":"경기도 화성시 반월동 717번지 신풍프라자","category":"일반휴게음식 - 주점"},{"name":"파리바게뜨 화성기산점","tel":"","addr":"경기도 화성시 반월동 717번지 신풍프라자 106호","category":"음료식품 - 제과점"},{"name":"프라임치과","tel":"031-898-7528","addr":"경기도 화성시 반월동 717번지 신풍프라자 3층 304호","category":"의원 - 치과의원"},{"name":"행복한가정의학과의원","tel":"031-236-7572","addr":"경기도 화성시 반월동 717번지 신풍프라자 302호","category":"의원 - 의원"}]},{"lat":"37.235440777","long":"127.06097452","items":[{"name":"PLACAVE(프라케이브)","tel":"031-111-1111","addr":"경기도 화성시 반월동 864-1번지 제일프라자 상가동 3층 303호","category":"문화.취미 - 문화취미기타"},{"name":"spoonful","tel":"031-202-2553","addr":"경기도 화성시 반월동 867-1제일프라자102","category":"신변잡화 - 기타잡화"},{"name":"강내과","tel":"031-205-5656","addr":"경기도 화성시 반월동 165-24번지 제일프라자 312동 313호","category":"의원 - 의원"},{"name":"경희한방체질크리닉","tel":"031-273-3687","addr":"경기도 화성시 반월동 864-1번지 제일프라자 307호","category":"회원제형태 - 기타4"},{"name":"고려개발","tel":"031-203-3889","addr":"경기도 화성시 반월동 864-1번지 제일프라자 B01호","category":"음료식품 - 기타음료식품"},{"name":"나이스남성커트전문점","tel":"031-292-6239","addr":"경기도 화성시 반월동 864-1번지 제일프라자 113호","category":"보건위생 - 미용원"},{"name":"네꼬야","tel":"031-202-1755","addr":"경기도 화성시 반월동 864-1번지 제일프라자 상가 130호","category":"일반휴게음식 - 서양음식"},{"name":"놀이터 스크린","tel":"031-202-6320","addr":"경기도 화성시 반월동 864-1번지 제일프라자 401~404호","category":"레져용품 - 골프용품 전문점"},{"name":"늘마루블럭학원","tel":"031-204-9905","addr":"경기도 화성시 반월동 864-1번지 제일프라자 407호","category":"학원 - 기타 교육기관"},{"name":"디자인화장품","tel":"031-202-7211","addr":"경기도 화성시 반월동 864-1번지 제일프라자 110호","category":"보건위생 - 화장품"},{"name":"딸기노래연습장","tel":"031-203-2672","addr":"경기도 화성시 반월동 864-1번지 제일프라자 2층 213호","category":"레저업소 - 노 래 방"},{"name":"로사플로스","tel":"","addr":"경기도 화성시 반월동 864-1번지 제일프라자 125호","category":"문화.취미 - 화원"},{"name":"마임","tel":"031-203-0377","addr":"경기도 화성시 반월동 864-1번지 제일프라자 5층 512호","category":"보건위생 - 화장품"},{"name":"미니헤어#","tel":"031-202-6267","addr":"경기도 화성시 반월동 864-1번지 제일프라자 1층 129호","category":"보건위생 - 미용원"},{"name":"미서울치과","tel":"031-202-2822","addr":"경기도 화성시 반월동 864-1번지 제일프라자 3층","category":"의원 - 치과의원"},{"name":"미스터빅","tel":"031-205-1177","addr":"경기도 화성시 반월동 864-1번지 제일프라자 206호","category":"일반휴게음식 - 일반한식"},{"name":"민소희쁘띠끄","tel":"031-273-1666","addr":"경기도 화성시 반월동 864-1번지 제일프라자 116호","category":"의류 - 정장"},{"name":"반월이룸프리미엄스터디센터독서실","tel":"031-273-3533","addr":"경기도 화성시 반월동 864-1번지 601호일부,602호일부","category":"학원 - 독서실"},{"name":"베스킨라빈스반월점","tel":"031-202-3131","addr":"경기도 화성시 반월동 864-1 제일프라자106호~107호","category":"음료식품 - 제과점"},{"name":"본죽(화성반월점)","tel":"031-203-0949","addr":"경기도 화성시 반월동 864-1번지 제일프라자 109호","category":"일반휴게음식 - 일반한식"},{"name":"부어치킨 신영통점","tel":"031-202-0508","addr":"경기도 화성시 반월동 864-1번지 제일프라자 105호","category":"일반휴게음식 - 스넥"},{"name":"빈요가","tel":"031-221-2884","addr":"경기도 화성시 반월동 864-1번지 제일프라자 411,412호","category":"레저업소 - 헬스클럽"},{"name":"쁘띠네일","tel":"031-206-9486","addr":"경기도 화성시 반월동 864-1번지 제일프라자 126호","category":"보건위생 - 피부미용실"},{"name":"샵플랫음악학원","tel":"031-273-9905","addr":"경기도 화성시 반월동 864-1번지 제일프라자 503호","category":"학원 - 예·체능계학원"},{"name":"서울튼튼이치과의원","tel":"031-205-4285","addr":"경기도 화성시 반월동 864-1번지 제일프라자 211호","category":"의원 - 치과의원"},{"name":"설송원","tel":"031-203-9991","addr":"경기도 화성시 반월동 864-1번지 제일프라자 1층 110호","category":"음료식품 - 기타음료식품"},{"name":"세계맥주.아이스크림","tel":"","addr":"경기도 화성시 반월동 864-1번지 제일프라자 1층 114호","category":"음료식품 - 기타음료식품"},{"name":"셀렉토커피화성반월점","tel":"031-202-6982","addr":"경기도 화성시 반월동 864-1번지 제일프라자 1층 102호","category":"일반휴게음식 - 서양음식"},{"name":"신명품세탁소","tel":"031-206-0036","addr":"경기도 화성시 반월동 864-1번지 제일프라자 123호","category":"수리서비스 - 세탁소"},{"name":"아름드리한약국","tel":"031-224-7585","addr":"경기도 화성시 반월동 864-1번지 제일프라자 108호","category":"의원 - 한의원"},{"name":"아이사랑 태권도장","tel":"031-203-9379","addr":"경기도 화성시 반월동 864-1번지 제일프라자 304호","category":"학원 - 예·체능계학원"},{"name":"아주상쾌한이비인후과의원","tel":"031-202-4450","addr":"경기도 화성시 반월동 864-1번지 제일프라자 4층 406호","category":"의원 - 의원"},{"name":"안경나라(반월점)","tel":"02-1111-1111","addr":"경기도 화성시 반월동 864-1번지 제일프라자 1층","category":"보건위생 - 안경"},{"name":"알파피부관리","tel":"","addr":"경기도 화성시 반월동 864-1번지 제일프라자 210-2호","category":"회원제형태 - 기타1"},{"name":"에이앤(AN)신영통지사","tel":"031-273-1268","addr":"경기도 화성시 반월동 864-1번지 제일프라자 410호","category":"보건위생 - 화장품"},{"name":"오션스어학원","tel":"","addr":"경기도 화성시 반월동 864-1번지 제일프라자 506호","category":"학원 - 외국어학원"},{"name":"월드스튜디오","tel":"031-203-8866","addr":"경기도 화성시 반월동 165-24번지 제일프라자 211","category":"광학제품 - 사진관"},{"name":"위너학원","tel":"","addr":"경기도 화성시 반월동 864-1번지 제일프라자 5층 507호","category":"학원 - 보습학원"},{"name":"위드(WITH)필라테스앤요가","tel":"031-206-0109","addr":"경기도 화성시 반월동 864-1번지 제일프라자 302호","category":"레저업소 - 헬스클럽"},{"name":"유진헤어뱅크","tel":"031-205-8883","addr":"경기도 화성시 반월동 864-1번지 제일프라자 122호","category":"보건위생 - 미용원"},{"name":"이네이처PC방신영통점","tel":"070-8861-3009","addr":"경기도 화성시 반월동 864-1번지 제일프라자 505호","category":"레저업소 - 기타레져업소"},{"name":"잉글리쉬아이영수학원","tel":"031-204-0555","addr":"경기도 화성시 반월동 864-1번지 제일프라자 5층 509,510호","category":"학원 - 보습학원"},{"name":"장주은피부과","tel":"031-202-9229","addr":"경기도 화성시 반월동 864-1번지 제일프라자 3층 301호","category":"의원 - 의원"},{"name":"제니얌얌","tel":"031-0000-0000","addr":"경기도 화성시 반월동 864-1번지 제일프라자 2층 214호 일부","category":"음료식품 - 기타음료식품"},{"name":"제일당구클럽","tel":"031-206-3949","addr":"경기도 화성시 반월동 864-1번지 제일프라자 B04호","category":"레저업소 - 당 구 장"},{"name":"조인순 뷰티","tel":"031-273-9949","addr":"경기도 화성시 반월동 864-1번지 제일프라자 405호","category":"보건위생 - 피부미용실"},{"name":"진주굴밥","tel":"031-206-0361","addr":"경기도 화성시 반월동 864-1번지","category":"일반휴게음식 - 일반한식"},{"name":"총각네옛날통닭","tel":"02-1833-5788","addr":"경기도 화성시 반월동 864-1번지 제일프라자 1층 113호","category":"일반휴게음식 - 일반한식"},{"name":"카카오노래연습장","tel":"031-7617-2591","addr":"경기도 화성시 반월동 864-1번지 208,209호","category":"레저업소 - 노 래 방"},{"name":"커피에반하다","tel":"","addr":"경기도 화성시 반월동 864-1번지 제일프라자 1층 115호","category":"일반휴게음식 - 서양음식"},{"name":"파리바게뜨신영통점","tel":"031-273-7001","addr":"경기도 화성시 반월동 864-1번지 제일프라자 1층 120호","category":"음료식품 - 제과점"},{"name":"풍기고려인삼","tel":"031-205-8907","addr":"경기도 화성시 반월동 165-24번지 외4필지제일프라자 1층 12호","category":"건강식품 - 인삼제품"},{"name":"프로메이트골프","tel":"031-202-6320","addr":"경기도 화성시 반월동 864-1제일프라자401,402,403,404,411,412,413호","category":"레져용품 - 골프용품 전문점"},{"name":"피자마루신영통점","tel":"031-205-8182","addr":"경기도 화성시 반월동 864-1번지 제일프라자 118호","category":"일반휴게음식 - 서양음식"},{"name":"하얀풍차제과점","tel":"031-202-8830","addr":"경기도 화성시 반월동 165-24번지 제일프라자 1층 114호 ,115,409,410호","category":"음료식품 - 제과점"},{"name":"해인떡마을","tel":"031-203-8241","addr":"경기도 화성시 반월동 864-1번지 제일프라자 121호","category":"음료식품 - 기타음료식품"},{"name":"행복나눔약국","tel":"031-273-8933","addr":"경기도 화성시 반월동 864-1번지 제일프라자 제 1층 117호","category":"약국 - 약국"},{"name":"현대온누리약국","tel":"031-273-0187","addr":"경기도 화성시 반월동 864-1번지 제일프라자","category":"약국 - 약국"},{"name":"황제한의원","tel":"031-206-8575","addr":"경기도 화성시 반월동 864-1번지 제일프라자 3층 14호","category":"의원 - 한의원"}]},{"lat":"37.233322992","long":"127.0616941","items":[{"name":"SARANGEUN","tel":"","addr":"경기도 화성시 반월동 870번지 신영통현대타운 상가동 1층 103호","category":"일반휴게음식 - 서양음식"},{"name":"가르마헤어","tel":"031-204-5677","addr":"경기도 화성시 반월동 870 신영동현대타운상가 104","category":"보건위생 - 미용원"},{"name":"꽃을담다","tel":"031-111-1111","addr":"경기도 화성시 반월동 870번지 신영통현대타운 상가동 101호","category":"문화.취미 - 화원"}]},{"lat":"37.22865849","long":"127.07300371","items":[{"name":"SS주식회사","tel":"031-205-0091","addr":"경기도 화성시 반월동 359-8번지","category":"회원제형태 - 학원"}]},{"lat":"37.228072624","long":"127.07332994","items":[{"name":"bhc치킨 반월삼성점","tel":"031-273-9280","addr":"경기도 화성시 반월동 360-20번지","category":"일반휴게음식 - 스넥"}]},{"lat":"37.225824856","long":"127.06469676","items":[{"name":"가구대통령","tel":"031-282-5496","addr":"경기도 화성시 반월동 455-5번지","category":"가구 - 일반가구"}]},{"lat":"37.232627422","long":"127.06516433","items":[{"name":"가리스시","tel":"031-204-8388","addr":"경기도 화성시 반월동 90-2번지 1층 3호","category":"일반휴게음식 - 일식·회집"},{"name":"명품 고치는 남자","tel":"","addr":"경기도 화성시 반월동 90-2번지 1층 203호 명품고치는남자","category":"수리서비스 - 세탁소"},{"name":"수건쟁이","tel":"031-203-4427","addr":"경기도 화성시 반월동 90-2번지","category":"직물 - 옷감·직물"},{"name":"예인종합장식","tel":"031-204-0676","addr":"경기도 화성시 반월동 90-2번지","category":"직물 - 카페트,커튼,천막,지물"}]},{"lat":"37.228905544","long":"127.04633213","items":[{"name":"가미래감자탕","tel":"031-234-9484","addr":"경기도 화성시 반월동 248-4","category":"일반휴게음식 - 일반한식"},{"name":"장가네우렁쌈밥","tel":"031-237-3694","addr":"경기도 화성시 반월동 248-4번지","category":"일반휴게음식 - 일반한식"}]},{"lat":"37.231469465","long":"127.0561936","items":[{"name":"가위반장","tel":"031-204-7768","addr":"경기도 화성시 반월동 868번지 신영통현대타운 203호","category":"보건위생 - 미용원"},{"name":"고향정육점","tel":"031-273-9338","addr":"경기도 화성시 반월동 868현대타운2단지상가104호","category":"음료식품 - 정육점"},{"name":"돌체음악학원","tel":"031-202-2771","addr":"경기도 화성시 반월동 868번지 상가동 2층 201호,202호","category":"학원 - 예·체능계학원"},{"name":"뮤엠영어 신영통학원","tel":"031-206-0305","addr":"경기도 화성시 반월동 868번지","category":"학원 - 외국어학원"},{"name":"미플러스인테리어","tel":"031-273-0326","addr":"경기도 화성시 반월동 868번지 현대타운 상가 108호","category":"건축자재 - 인테리어전문"},{"name":"신영통학원","tel":"031-203-9817","addr":"경기도 화성시 반월동 868번지 신영통현대타운 상가동 3층 303호","category":"학원 - 보습학원"},{"name":"아트갤러리미술교습소","tel":"031-204-6555","addr":"경기도 화성시 반월동 868번지 신영통현대타운 제상가동 제2층 제204호","category":"학원 - 예·체능계학원"},{"name":"용인대동학태권도","tel":"031-273-9009","addr":"경기도 화성시 반월동 868번지 신영통현대타운 3층 302호","category":"학원 - 예·체능계학원"},{"name":"제이엠음악학원","tel":"031-273-0773","addr":"경기도 화성시 반월동 868번지 신영통현대타운 상가동 301호","category":"학원 - 예·체능계학원"},{"name":"제일할인마트","tel":"031-205-2334","addr":"경기도 화성시 반월동 868현대타운2단지상가101","category":"유통업 영리 - 슈퍼마켓"},{"name":"하베스헤어샵","tel":"031-205-2689","addr":"경기도 화성시 반월동 868번지 신영통현대타운제 상가동 105호","category":"보건위생 - 미용원"},{"name":"해나라어린이집[아이행복]","tel":"031-202-2026","addr":"경기도 화성시 반월동 868번지 신영통현대타운","category":"학원 - 유아원"},{"name":"현대 세탁소","tel":"031-273-5523","addr":"경기도 화성시 반월동 868 제상가동 103호","category":"수리서비스 - 세탁소"}]},{"lat":"37.23377227","long":"127.0641398","items":[{"name":"감로옥","tel":"031-205-3300","addr":"경기도 화성시 반월동 65-1번지","category":"일반휴게음식 - 일반한식"},{"name":"동신주유소","tel":"031-205-3000","addr":"경기도 화성시 반월동 65-1번지","category":"연료판매점 - SK주유소"}]},{"lat":"37.230051834","long":"127.06250288","items":[{"name":"강성씨푸드","tel":"031-203-4110","addr":"경기도 화성시 반월동 331-1번지","category":"음료식품 - 농·축·수산품"}]},{"lat":"37.232690988","long":"127.06421781","items":[{"name":"갤럭시펫 동물병원","tel":"031-202-0987","addr":"경기도 화성시 반월동 135-10번지 2층","category":"기타의료기관 - 동물병원"},{"name":"갤럭시펫 신영통점","tel":"031-204-1982","addr":"경기도 화성시 반월동 135-10번지","category":"문화.취미 - 애완동물"},{"name":"갤럭시펫애견미용실","tel":"070-8856-2972","addr":"경기도 화성시 반월동 135-10번지","category":"문화.취미 - 애완동물"},{"name":"다솔낚시유통 주식회사","tel":"031-206-0302","addr":"경기도 화성시 반월동 135-10번지 지하2층","category":"레져용품 - 스포츠·레져용품"},{"name":"워크엔도그 (work&dog)","tel":"070-7784-0674","addr":"경기도 화성시 반월동 135-10번지 3층","category":"일반휴게음식 - 서양음식"},{"name":"주식회사 키움애견센타","tel":"070-8856-2974","addr":"경기도 화성시 반월동 135-10번지 3층","category":"일반휴게음식 - 일반한식"}]},{"lat":"37.232356538","long":"127.06624591","items":[{"name":"갤럭시펫화성","tel":"","addr":"경기도 화성시 반월동 100-18번지 성우주택 B동 3층 303호","category":"문화.취미 - 애완동물"},{"name":"배터리총판","tel":"031-202-2255","addr":"경기도 화성시 반월동 100-18번지 1층","category":"자동차정비 유지 - 자동차부품"}]},{"lat":"37.23416048","long":"127.06264135","items":[{"name":"검도교실초헌당","tel":"031-205-9919","addr":"경기도 화성시 반월동 162-6번지","category":"학원 - 예·체능계학원"}]},{"lat":"37.228906092","long":"127.06527396","items":[{"name":"격동포장상사","tel":"031-206-0553","addr":"경기도 화성시 반월동 347-18번지 104호","category":"의류 - 기타의류"},{"name":"대일공구","tel":"031-202-0931","addr":"경기도 화성시 반월동 347-18번지 108호","category":"기타 - 기계공구"}]},{"lat":"37.227984386","long":"127.07011846","items":[{"name":"경복궁개성손만두","tel":"","addr":"경기도 화성시 반월동 357-27번지 A동 1층","category":"일반휴게음식 - 일반한식"}]},{"lat":"37.22865921","long":"127.07177548","items":[{"name":"경복궁삼계탕","tel":"031-202-6996","addr":"경기도 화성시 반월동 359-15번지 2동","category":"일반휴게음식 - 일반한식"},{"name":"양심소","tel":"031-205-1618","addr":"경기도 화성시 반월동 359-15번지 1동 1층","category":"일반휴게음식 - 일반한식"},{"name":"육대장 (신영통삼성반도체점)","tel":"031-204-6611","addr":"경기도 화성시 반월동 359-15번지 1동 1층 일부호","category":"일반휴게음식 - 일반한식"},{"name":"커피마마 화성반월점","tel":"031-000-0000","addr":"경기도 화성시 반월동 359-15번지 1동 1층 일부호","category":"일반휴게음식 - 서양음식"},{"name":"해송손칼국수제주산족발보쌈","tel":"031-273-6886","addr":"경기도 화성시 반월동 359-15번지 3동","category":"일반휴게음식 - 일반한식"}]},{"lat":"37.225331119","long":"127.06107944","items":[{"name":"고기바보푸줏간","tel":"","addr":"경기도 화성시 반월동 960번지 e편한세상신동탄 201동 116호","category":"음료식품 - 정육점"},{"name":"그리밍고 아트","tel":"031-898-5636","addr":"경기도 화성시 반월동 960번지 e편한세상신동탄 201동 213호","category":"학원 - 예·체능계학원"},{"name":"그린어린이집[아이행복]","tel":"031-226-9600","addr":"경기도 화성시 반월동 960번지 e편한세상화성 102동 101호","category":"학원 - 유아원"},{"name":"김단아수학교습소","tel":"031-222-1209","addr":"경기도 화성시 반월동 960번지 e편한세상신동탄 201동 206호","category":"학원 - 보습학원"},{"name":"꿈꾸는창의수학교습소","tel":"","addr":"경기도 화성시 반월동 960번지 e편한세상 신동탄 201동 118호","category":"학원 - 기타 교육기관"},{"name":"노수형","tel":"031-111-1111","addr":"경기도 화성시 반월동 960번지 e편한세상신동탄 111동 404호","category":"학원 - 기타 교육기관"},{"name":"대림꿈나무어린이집[아이행복]","tel":"031-226-3600","addr":"경기도 화성시 반월동 960번지 e편한세상신동탄 108동 104호","category":"학원 - 유아원"},{"name":"대하이든 음악학원","tel":"031-267-1010","addr":"경기도 화성시 반월동 960번지 이편한세상신동탄 201동 204호,205호","category":"학원 - 예·체능계학원"},{"name":"럭키케이(LuckyK)","tel":"","addr":"경기도 화성시 반월동 960번지 e편한세상신동탄 103동 901호","category":"신변잡화 - 액세서리"},{"name":"루크헤어","tel":"031-891-1007","addr":"경기도 화성시 반월동 960번지 e편한세상신동탄 110호","category":"보건위생 - 미용원"},{"name":"마리웨일237 화성캠퍼스H1점","tel":"031-239-3375","addr":"경기도 화성시 반월동 960번지 e편한세상신동탄 201동 1층 106호","category":"일반휴게음식 - 서양음식"},{"name":"마약먹태","tel":"031-238-9204","addr":"경기도 화성시 반월동 960번지 e편한세상신동탄 201동 104호","category":"일반휴게음식 - 일반한식"},{"name":"명품세탁소","tel":"031-238-9887","addr":"경기도 화성시 반월동 960번지 e편한세상단지내상가 119호","category":"수리서비스 - 세탁소"},{"name":"반월분식","tel":"031-232-1005","addr":"경기도 화성시 반월동 960번지 e편한세상신동탄 201동 117호","category":"일반휴게음식 - 스넥"},{"name":"셀파우등생교실 신동탄 e편한세상점","tel":"","addr":"경기도 화성시 반월동 960번지 e편한세상 신동탄 110동 403호","category":"학원 - 기타 교육기관"},{"name":"슈슈맘","tel":"","addr":"경기도 화성시 반월동 960번지 e편한세상신동탄 108동 1601호","category":"의류 - 아동의류"},{"name":"오븐마루치킨(동탄2호점)","tel":"031-222-9984","addr":"경기도 화성시 반월동 960번지 e편한세상신동탄 201동 112호","category":"일반휴게음식 - 스넥"},{"name":"유담피아노음악교습소","tel":"031-731-9709","addr":"경기도 화성시 반월동 960번지 e편한세상신동탄 상가동 114호","category":"학원 - 예·체능계학원"},{"name":"이엔에프잉글리쉬(E&F잉글리쉬)","tel":"031-000-0000","addr":"경기도 화성시 반월동 960번지 e편한세상신동탄 102동 302호","category":"학원 - 기타 교육기관"},{"name":"이편한아이세상어린이집[아이행복]","tel":"031-234-4872","addr":"경기도 화성시 반월동 960번지 e편한세상신동탄 관리동","category":"학원 - 유아원"},{"name":"이편한어린이집[아이행복]","tel":"031-222-3004","addr":"경기도 화성시 반월동 960번지 e편한세상 신동탄 107동 101호","category":"학원 - 유아원"},{"name":"제이엘영어교습소","tel":"031-233-8102","addr":"경기도 화성시 반월동 960번지 e편한세상신동탄 201동 212호","category":"학원 - 외국어학원"},{"name":"젤리아트스튜디오","tel":"","addr":"경기도 화성시 반월동 960번지 e편한세상신동탄 102동 904호","category":"학원 - 기타 교육기관"},{"name":"코끼리가반한핫도그(화성반월점)","tel":"031-223-2050","addr":"경기도 화성시 반월동 960번지 e편한세상신동탄 201동 105호","category":"일반휴게음식 - 서양음식"},{"name":"푸른동산어린이집[아이행복]","tel":"031-233-0070","addr":"경기도 화성시 반월동 960번지 e편한세상신동탄 111동 102호","category":"학원 - 유아원"},{"name":"피자스쿨 화성반월초점","tel":"031-221-1300","addr":"경기도 화성시 반월동 960번지 e편한세상신동탄 201동 107호","category":"일반휴게음식 - 서양음식"},{"name":"한텍","tel":"","addr":"경기도 화성시 반월동 960번지 e편한세상신동탄 106동 1805호","category":"전기제품 - 기타전기제품"}]},{"lat":"37.22871465","long":"127.06936414","items":[{"name":"고매철물건재공구","tel":"031-285-9796","addr":"경기도 화성시 반월동 110-10 B동9호~10호","category":"기타 - 기계공구"},{"name":"돈까스클럽","tel":"031-203-5859","addr":"경기도 화성시 반월동 110-10번지","category":"일반휴게음식 - 일반한식"},{"name":"호칼국수","tel":"","addr":"경기도 화성시 반월동 110-10번지 2층","category":"일반휴게음식 - 일반한식"}]},{"lat":"37.233996934","long":"127.06527815","items":[{"name":"고씨상회","tel":"031-205-5678","addr":"경기도 화성시 반월동 66-9번지 명성프라자 116호","category":"일반휴게음식 - 일반한식"},{"name":"나무","tel":"031-202-8889","addr":"경기도 화성시 반월동 66-9번지 명성프라자 107호","category":"의류 - 정장"},{"name":"나우점핑휘트니스","tel":"031-714-6132","addr":"경기도 화성시 반월동 66-9번지 명성프라자 203호","category":"건강식품 - 기타건강식품"},{"name":"다빈치헤어","tel":"031-205-0541","addr":"경기도 화성시 반월동 66-9번지 명성프라자 1층 106호","category":"보건위생 - 미용원"},{"name":"돈카냉면&파스타","tel":"031-203-8833","addr":"경기도 화성시 반월동 66-9번지 명성프라자 1층 111호","category":"일반휴게음식 - 일반한식"},{"name":"동탄메르덴치과","tel":"031-202-2829","addr":"경기도 화성시 반월동 66-9번지 외4필지명성프라자 3층 303호","category":"의원 - 치과의원"},{"name":"멕시카나 신영통점","tel":"031-0312-0392","addr":"경기도 화성시 반월동 66-9번지 명성프라자 102호","category":"일반휴게음식 - 스넥"},{"name":"백리향","tel":"031-206-6695","addr":"경기도 화성시 반월동 66-9번지 명성프라자 112,113호","category":"일반휴게음식 - 중국식"},{"name":"소리카페","tel":"031-111-1111","addr":"경기도 화성시 반월동 66-9번지 명성프라자 1층 104호","category":"일반휴게음식 - 서양음식"},{"name":"신전떡볶이","tel":"031-205-8882","addr":"경기도 화성시 반월동 66-9번지 명성프라자 1층 105호","category":"일반휴게음식 - 일반한식"},{"name":"신촌수제비","tel":"031-203-7132","addr":"경기도 화성시 반월동 66-9번지 명성프라자 117호","category":"일반휴게음식 - 일반한식"},{"name":"쑥향기","tel":"","addr":"경기도 화성시 반월동 66-9번지 명성프라자 4층 403 일부호","category":"보건위생 - 피부미용실"},{"name":"아이코어 필라테스","tel":"","addr":"경기도 화성시 반월동 66-9번지 명성프라자 3층 305,306호","category":"레저업소 - 헬스클럽"},{"name":"액션점핑다이어트","tel":"","addr":"경기도 화성시 반월동 66-9번지 명성프라자 203호","category":"건강식품 - 기타건강식품"},{"name":"용인대인성태권도","tel":"031-203-2475","addr":"경기도 화성시 반월동 66-9번지 명성프라자 5층 501호","category":"학원 - 예·체능계학원"},{"name":"주막포차","tel":"031-212-1528","addr":"경기도 화성시 반월동 66-9번지 명성프라자 1층 115-1호","category":"일반휴게음식 - 일반한식"},{"name":"주식회사 구티인테리어","tel":"031-267-0152","addr":"경기도 화성시 반월동 66-9번지 명성프라자 103호","category":"건축자재 - 인테리어전문"},{"name":"지 필라테스(g pilates)","tel":"031-203-3358","addr":"경기도 화성시 반월동 66-9번지 명성프라자 2층 208호","category":"레저업소 - 헬스클럽"},{"name":"지혜림","tel":"","addr":"경기도 화성시 반월동 66-9번지 명성프라자 2층 204호","category":"용역 서비스 - 사무서비스"},{"name":"차와타로이야기","tel":"031-273-2004","addr":"경기도 화성시 반월동 66-9번지 명성프라자 104호","category":"일반휴게음식 - 서양음식"},{"name":"착한족발","tel":"031-206-7882","addr":"경기도 화성시 반월동 66-9번지 명성프라자 109호","category":"일반휴게음식 - 일반한식"},{"name":"투다리반달점","tel":"031-205-7718","addr":"경기도 화성시 반월동 66-9번지 외4필지 명성프라자 110호","category":"일반휴게음식 - 스넥"},{"name":"포시즌 스크린골프","tel":"031-273-5665","addr":"경기도 화성시 반월동 66-9번지 명성프라자 2층 206, 207호","category":"레저업소 - 스크린골프"},{"name":"행복한약국","tel":"031-203-1244","addr":"경기도 화성시 반월동 66-9번지 명성프라자 4층 406호","category":"약국 - 약국"}]},{"lat":"37.23149232","long":"127.06478027","items":[{"name":"고페르가구","tel":"031-273-3335","addr":"경기도 화성시 반월동 125-1번지","category":"가구 - 일반가구"},{"name":"이팔봉가구","tel":"031-205-6856","addr":"경기도 화성시 반월동 125-1번지","category":"가구 - 일반가구"}]},{"lat":"37.219548493","long":"127.05680488","items":[{"name":"골프존파크 반월신동탄점","tel":"031-222-1120","addr":"경기도 화성시 반월동 639번지","category":"레저업소 - 스크린골프"},{"name":"삼라스크린골프장","tel":"031-222-1120","addr":"경기도 화성시 반월동 639","category":"회원제형태 - 레져업소"}]},{"lat":"37.235493998","long":"127.06266494","items":[{"name":"공간인테리어","tel":"031-205-7666","addr":"경기도 화성시 반월동 32-5번지 1층 5호","category":"건축자재 - 인테리어전문"},{"name":"단아플라워","tel":"031-203-3317","addr":"경기도 화성시 반월동 32-5번지 3호","category":"문화.취미 - 화원"},{"name":"신영통오토바이","tel":"031-206-4456","addr":"경기도 화성시 반월동 32-5번지 1층","category":"자동차판매 - 이륜차판매"},{"name":"황금수산","tel":"031-205-7765","addr":"경기도 화성시 반월동 32-5번지","category":"음료식품 - 농·축·수산품"},{"name":"황금어장","tel":"031-205-7765","addr":"경기도 화성시 반월동 32-5번지","category":"일반휴게음식 - 일식·회집"}]},{"lat":"37.23099495","long":"127.06813788","items":[{"name":"공임나라 동탄점","tel":"031-273-3477","addr":"경기도 화성시 반월동 102-8번지","category":"자동차정비 유지 - 자동차정비"}]},{"lat":"37.231968999","long":"127.04650291","items":[{"name":"광교꽃조경","tel":"031-204-6282","addr":"경기도 화성시 반월동 311-68","category":"문화.취미 - 화원"}]},{"lat":"37.235683351","long":"127.06239462","items":[{"name":"교동짬뽕","tel":"031-202-1503","addr":"경기도 화성시 반월동 31-1번지 1층 일부","category":"일반휴게음식 - 중국식"},{"name":"돈주막","tel":"031-206-7777","addr":"경기도 화성시 반월동 31-1번지","category":"일반휴게음식 - 일반한식"},{"name":"천사의바늘","tel":"031-205-1270","addr":"경기도 화성시 반월동 31-1번지","category":"직물 - 침구·수예점"},{"name":"퍼주리","tel":"031-202-9239","addr":"경기도 화성시 반월동 31-1번지","category":"음료식품 - 기타음료식품"}]},{"lat":"37.229636337","long":"127.06449704","items":[{"name":"국제당구클럽","tel":"031-204-4243","addr":"경기도 화성시 반월동 344-4번지 4층","category":"레저업소 - 당 구 장"},{"name":"핀란디아","tel":"031-222-7112","addr":"경기도 화성시 반월동 344-4번지 강남빌딩 1층 101호,3층","category":"가구 - 기타가구"},{"name":"현디자인","tel":"031-203-8549","addr":"경기도 화성시 반월동 344-4번지 1층 일부","category":"건축자재 - 인테리어전문"}]},{"lat":"37.231988634","long":"127.06333829","items":[{"name":"국제모터스","tel":"031-203-0527","addr":"경기도 화성시 반월동 138-2번지 외2필지","category":"자동차정비 유지 - 자동차정비"},{"name":"에이치하우징(H.housing)","tel":"031-206-0316","addr":"경기도 화성시 반월동 138-2번지","category":"건축자재 - 인테리어전문"}]},{"lat":"37.222745848","long":"127.05963524","items":[{"name":"굽네치킨 반월점","tel":"031-222-9294","addr":"경기도 화성시 반월동 550-3번지 101호","category":"일반휴게음식 - 스넥"}]},{"lat":"37.230969461","long":"127.06527566","items":[{"name":"그린약국","tel":"031-206-6048","addr":"경기도 화성시 반월동 125-13번지","category":"약국 - 약국"},{"name":"막창의 효능","tel":"031-204-3882","addr":"경기도 화성시 반월동 125-13번지 1층","category":"일반휴게음식 - 일반한식"},{"name":"막창의효능","tel":"031-204-3882","addr":"경기도 화성시 반월동 125-13번지 1층 101호","category":"일반휴게음식 - 일반한식"},{"name":"프리마(PRIMA)","tel":"031-202-5331","addr":"경기도 화성시 반월동 125-13번지 1층","category":"자동차정비 유지 - 자동차부품"}]},{"lat":"37.228411129","long":"127.06411293","items":[{"name":"금강모터스","tel":"031-213-8875","addr":"경기도 화성시 반월동 341","category":"자동차정비 유지 - 자동차정비"}]},{"lat":"37.226215504","long":"127.0582181","items":[{"name":"기배무역/원격지","tel":"031-221-4625","addr":"경기도 화성시 반월동 566번지","category":"기타 - 기타 전문점"}]},{"lat":"37.224380733","long":"127.05053232","items":[{"name":"기산초등학교병설유치원[아이행복]","tel":"031-224-9013","addr":"경기도 화성시 반월동 705-4번지 기산초등학교","category":"학원 - 유치원"}]},{"lat":"37.226327927","long":"127.04808843","items":[{"name":"기산칼국수","tel":"031-232-5264","addr":"경기도 화성시 반월동 264-2번지 1층","category":"일반휴게음식 - 일반한식"}]},{"lat":"37.228018259","long":"127.07383695","items":[{"name":"기흥식당","tel":"031-202-5471","addr":"경기도 화성시 반월동 359-1번지","category":"일반휴게음식 - 일반한식"},{"name":"몽노래연습장","tel":"02-466-6664","addr":"경기도 화성시 반월동 359-1번지 지하","category":"레저업소 - 노 래 방"},{"name":"세븐일레븐화성반월점","tel":"031-1577-0711","addr":"경기도 화성시 반월동 359-1번지","category":"유통업 영리 - 편 의 점"},{"name":"아리따움(기흥반도체점)","tel":"031-202-1070","addr":"경기도 화성시 반월동 359-1,1층3,4호","category":"보건위생 - 화장품"},{"name":"엄니네스넥","tel":"031-205-8377","addr":"경기도 화성시 반월동 359-1번지","category":"일반휴게음식 - 일반한식"},{"name":"에스원 당구클럽(S1)","tel":"031-206-1714","addr":"경기도 화성시 반월동 359-1번지 2층 201호","category":"레저업소 - 당 구 장"},{"name":"요거프레소( 기흥반도체점)","tel":"031-203-1477","addr":"경기도 화성시 반월동 359-1번지","category":"일반휴게음식 - 서양음식"},{"name":"원조춘천닭갈비","tel":"031-202-6592","addr":"경기도 화성시 반월동 359-1번지","category":"일반휴게음식 - 일반한식"},{"name":"장금이","tel":"031-206-0546","addr":"경기도 화성시 반월동 359-1번지 2층 1호","category":"일반휴게음식 - 일반한식"}]},{"lat":"37.227356266","long":"127.06536282","items":[{"name":"김경자대구왕뽈찜(동탄반월점)","tel":"031-204-2992","addr":"경기도 화성시 반월동 452-20번지 1층","category":"일반휴게음식 - 일반한식"}]},{"lat":"37.229354681","long":"127.06883509","items":[{"name":"김치찌개 미화식당","tel":"","addr":"경기도 화성시 반월동 110-1번지 B동","category":"일반휴게음식 - 일반한식"},{"name":"디샵","tel":"031-202-9799","addr":"경기도 화성시 반월동 110-1번지 A동","category":"자동차정비 유지 - 카인테리어"}]},{"lat":"37.227991463","long":"127.07344254","items":[{"name":"까사로사","tel":"031-206-8520","addr":"경기도 화성시 반월동 359-5번지 1층","category":"의류 - 정장"},{"name":"예술헤어라인","tel":"031-204-8212","addr":"경기도 화성시 반월동 359-5번지","category":"보건위생 - 미용원"},{"name":"카페페리스휠","tel":"02-1577-0000","addr":"경기도 화성시 반월동 359-5번지 1층","category":"음료식품 - 기타음료식품"},{"name":"컴119","tel":"031-205-6878","addr":"경기도 화성시 반월동 359-5번지","category":"사무통신 - 컴퓨터"}]},{"lat":"37.231771059","long":"127.06588482","items":[{"name":"까치노래연습장","tel":"031-202-6662","addr":"경기도 화성시 반월동 100-8번지","category":"레저업소 - 노 래 방"},{"name":"순복음은혜의목장교회","tel":"031-244-2823","addr":"경기도 화성시 반월동 100-8번지","category":"보건위생 - 기타대인서비스"},{"name":"시크릿뷰","tel":"","addr":"경기도 화성시 반월동 100-8번지","category":"직물 - 카페트,커튼,천막,지물"},{"name":"이지타일","tel":"031-273-9690","addr":"경기도 화성시 반월동 100-8번지 1층","category":"건축자재 - 건축용 요업제품"}]},{"lat":"37.219296202","long":"127.0568047","items":[{"name":"까페뉴욕","tel":"031-548-2236","addr":"경기도 화성시 반월동 640-4번지 1층 일부호","category":"일반휴게음식 - 서양음식"},{"name":"동탄차유리","tel":"031-222-8335","addr":"경기도 화성시 반월동 640-4번지","category":"자동차정비 유지 - 자동차부품"},{"name":"삼성아크릴","tel":"031-236-2676","addr":"경기도 화성시 반월동 640-4번지","category":"건축자재 - 기타건축자재"},{"name":"수도금속","tel":"031-221-7280","addr":"경기도 화성시 반월동 640-4번지","category":"건축자재 - 목재·석재·철물"}]},{"lat":"37.235745978","long":"127.06327367","items":[{"name":"꺼먹우리","tel":"031-204-3392","addr":"경기도 화성시 반월동 33-1번지 나동 1층","category":"일반휴게음식 - 일반한식"}]},{"lat":"37.228136056","long":"127.07272152","items":[{"name":"꼬꼬닭치킨","tel":"031-204-5592","addr":"경기도 화성시 반월동 360-12번지 201호","category":"일반휴게음식 - 스넥"},{"name":"꽃찬찜닭반월점","tel":"031-204-5737","addr":"경기도 화성시 반월동 360-12번지","category":"일반휴게음식 - 일반한식"},{"name":"돈대감솥뚜껑삼겹살","tel":"031-204-3351","addr":"경기도 화성시 반월동 360-12번지 월정빌딩 203호","category":"일반휴게음식 - 일반한식"},{"name":"레이걸(Ray Garl)","tel":"031-205-0113","addr":"경기도 화성시 반월동 360-12번지","category":"의류 - 정장"},{"name":"앤숍","tel":"031-0000-0000","addr":"경기도 화성시 반월동 360-12번지","category":"의류 - 정장"}]},{"lat":"37.235827685","long":"127.06205666","items":[{"name":"꼬꾸이","tel":"031-205-5392","addr":"경기도 화성시 반월동 30번지 신영통상가 C동 4호","category":"일반휴게음식 - 주점"},{"name":"대박예감","tel":"031-205-5729","addr":"경기도 화성시 반월동 30번지","category":"문화.취미 - 문화취미기타"},{"name":"매리해피","tel":"031-273-0734","addr":"경기도 화성시 반월동 30번지 1층","category":"문화.취미 - 애완동물"},{"name":"미래정보","tel":"031-206-1553","addr":"경기도 화성시 반월동 30근린상가5","category":"사무통신 - 컴퓨터"},{"name":"정가네무쇠판구이","tel":"031-206-7567","addr":"경기도 화성시 반월동 30번지","category":"일반휴게음식 - 일반한식"},{"name":"토토슈퍼","tel":"031-205-2729","addr":"경기도 화성시 반월동 30번지","category":"유통업 영리 - 슈퍼마켓"}]},{"lat":"37.234743528","long":"127.067634","items":[{"name":"꽃그리고나무","tel":"031-202-5177","addr":"경기도 화성시 반월동 77번지","category":"문화.취미 - 화원"},{"name":"멜라카스토리","tel":"031-202-5267","addr":"경기도 화성시 반월동 77번지 107,108,109호","category":"일반휴게음식 - 서양음식"},{"name":"소보로","tel":"031-273-9196","addr":"경기도 화성시 반월동 77번지 2층 202호","category":"광학제품 - 사진관"},{"name":"안경창고싸군서천점","tel":"","addr":"경기도 화성시 반월동 77번지 103,104,105호","category":"보건위생 - 안경"},{"name":"알케이샵","tel":"031-204-3828","addr":"경기도 화성시 반월동 77번지 1층 106호","category":"보건위생 - 미용원"},{"name":"요거프레소 화성반월1호점","tel":"031-202-8658","addr":"경기도 화성시 반월동 77번지","category":"일반휴게음식 - 서양음식"}]},{"lat":"37.23571129","long":"127.06055777","items":[{"name":"꽃담남원추어탕","tel":"031-202-1977","addr":"경기도 화성시 반월동 169-1번지 1층","category":"일반휴게음식 - 일반한식"},{"name":"명품생태집","tel":"031-203-6333","addr":"경기도 화성시 반월동 169-1","category":"일반휴게음식 - 일반한식"},{"name":"지인인테리어","tel":"031-206-0605","addr":"경기도 화성시 반월동 169-1","category":"직물 - 카페트,커튼,천막,지물"}]},{"lat":"37.231494453","long":"127.06055455","items":[{"name":"꾼떡","tel":"031-203-8082","addr":"경기도 화성시 반월동 860번지 신영통현대아파트 102호","category":"일반휴게음식 - 스넥"},{"name":"봄빛약국","tel":"031-206-0313","addr":"경기도 화성시 반월동 860신영통현대타운3단지상가1층","category":"약국 - 약국"}]},{"lat":"37.233662189","long":"127.06781338","items":[{"name":"나비들의정원","tel":"031-8002-0873","addr":"경기도 화성시 반월동 885번지 반달마을푸르지오 302동 101호","category":"문화.취미 - 화원"}]},{"lat":"37.218716247","long":"127.06360936","items":[{"name":"나우약국","tel":"031-208-5589","addr":"경기도 화성시 반월동 948번지 식당동내약국코너","category":"약국 - 약국"},{"name":"던킨도너츠 화성삼성전자1호","tel":"031-325-5002","addr":"경기도 화성시 반월동 948번지 삼성전자(주) 1층 일부호","category":"음료식품 - 제과점"},{"name":"뚜레주르(삼성DSR점)","tel":"031-8096-0177","addr":"경기도 화성시 반월동 948번지 삼성전자(주) B112호","category":"음료식품 - 제과점"},{"name":"레오나의로스팅하우스","tel":"031-208-0404","addr":"경기도 화성시 반월동 948번지 2층 삼성전자(주)","category":"일반휴게음식 - 서양음식"},{"name":"레퍼런스 삼성3호점","tel":"031-8096-0157","addr":"경기도 화성시 반월동 948번지 삼성전자(주) 부품연구동 A타워동 지하1층 일부호","category":"일반휴게음식 - 일반한식"},{"name":"레퍼런스카페 삼성2호점","tel":"031-8096-0257","addr":"경기도 화성시 반월동 948번지 삼성전자(주) B타워 부품연구동 1층 115호","category":"일반휴게음식 - 서양음식"},{"name":"베스킨라빈스 화성삼성전자1호점","tel":"031-325-5003","addr":"경기도 화성시 반월동 948번지 삼성전자(주) 1층 일부호","category":"음료식품 - 제과점"},{"name":"붐(BOOM)","tel":"031-208-5670","addr":"경기도 화성시 반월동 948번지","category":"서적문구 - 문구용품"},{"name":"삼성웰스토리(주) 16라인 Cafeteria","tel":"031-8096-0635","addr":"경기도 화성시 반월동 948번지 삼성전자(주)","category":"일반휴게음식 - 위탁급식업"},{"name":"삼성웰스토리(주) 17라인 Cafeteria","tel":"031-8096-0635","addr":"경기도 화성시 반월동 948번지 삼성전자(주)","category":"일반휴게음식 - 위탁급식업"},{"name":"삼성웰스토리(주) DSR Cafeteria","tel":"031-8096-0635","addr":"경기도 화성시 반월동 948번지 삼성전자(주)","category":"일반휴게음식 - 위탁급식업"},{"name":"삼성웰스토리(주) MR1 Cafeteria","tel":"031-8096-0635","addr":"경기도 화성시 반월동 948번지 삼성전자(주)","category":"일반휴게음식 - 위탁급식업"},{"name":"삼성웰스토리(주) MR2 Cafeteria","tel":"031-8096-0635","addr":"경기도 화성시 반월동 948번지 삼성전자(주)","category":"일반휴게음식 - 위탁급식업"},{"name":"삼성전자화성OK한의원","tel":"031-208-5995","addr":"경기도 화성시 반월동 948번지","category":"의원 - 한의원"},{"name":"솔라마","tel":"031-8096-0156","addr":"경기도 화성시 반월동 948번지 삼성전자(주) 부품연구동 지하1층 172호","category":"일반휴게음식 - 서양음식"},{"name":"이디아동탄삼성점/(주)에이치쓰리빈","tel":"031-208-4343","addr":"경기도 화성시 반월동 948번지 GATE2경비동2층","category":"일반휴게음식 - 서양음식"},{"name":"이디아커피삼성전자화성점","tel":"031-208-5546","addr":"경기도 화성시 반월동 948번지 1층 식당동","category":"일반휴게음식 - 서양음식"},{"name":"일공공일안경콘택트","tel":"031-208-0088","addr":"경기도 화성시 반월동 948번지 삼성전자화성반도체복지매장내","category":"보건위생 - 안경"},{"name":"카페솔라마","tel":"031-8043-9075","addr":"경기도 화성시 반월동 948번지 삼성전자(주) (113)부품연구동 5층 582호","category":"일반휴게음식 - 서양음식"}]},{"lat":"37.231102874","long":"127.06849856","items":[{"name":"나이스워시","tel":"031-204-0410","addr":"경기도 화성시 반월동 102-22번지","category":"자동차정비 유지 - 세차장"},{"name":"원스크린앤골프스쿨","tel":"031-202-7270","addr":"경기도 화성시 반월동 102-22번지 2층","category":"회원제형태 - 레져업소"}]},{"lat":"37.230246767","long":"127.06872319","items":[{"name":"낙지랑동태랑","tel":"031-202-1988","addr":"경기도 화성시 반월동 109-3번지","category":"일반휴게음식 - 일반한식"},{"name":"비지니스당구클럽","tel":"031-203-5968","addr":"경기도 화성시 반월동 109-3번지 2층","category":"레저업소 - 당 구 장"},{"name":"우리기획","tel":"031-206-1140","addr":"경기도 화성시 반월동 109-3번지 1층","category":"서적문구 - 출판 및 인쇄물"}]},{"lat":"37.226217755","long":"127.05317013","items":[{"name":"남도한식부페","tel":"031-232-4401","addr":"경기도 화성시 반월동 590-2번지 1층","category":"일반휴게음식 - 일반한식"}]},{"lat":"37.226052603","long":"127.05972786","items":[{"name":"넥스트","tel":"031-225-4244","addr":"경기도 화성시 반월동 563-21","category":"기타 - 기타 전문점"},{"name":"동명하이테크","tel":"031-225-7377","addr":"경기도 화성시 반월동 563-21","category":"기타 - 기계공구"}]},{"lat":"37.232826739","long":"127.06305724","items":[{"name":"노리통아트센터학원","tel":"","addr":"경기도 화성시 반월동 138번지","category":"학원 - 예·체능계학원"},{"name":"용인대 JS영웅태권도장&JS체육교실","tel":"","addr":"경기도 화성시 반월동 138번지 지하1층","category":"학원 - 기타 교육기관"},{"name":"지에스(GS)글로벌어학원","tel":"","addr":"경기도 화성시 반월동 138번지 2층","category":"학원 - 외국어학원"}]},{"lat":"37.227911847","long":"127.07091843","items":[{"name":"녹십초알로에권선지사","tel":"031-224-5569","addr":"경기도 화성시 반월동 359-16","category":"보건위생 - 화장품"}]},{"lat":"37.232329858","long":"127.04527483","items":[{"name":"농업회사법인 풀 주식회사","tel":"031-203-6136","addr":"경기도 화성시 반월동 311-90번지 가동","category":"음료식품 - 농·축·수산품"},{"name":"동탄가구를 만드는 사람들","tel":"031-202-8390","addr":"경기도 화성시 반월동 311-90번지","category":"가구 - 일반가구"},{"name":"지은홀딩스","tel":"070-8281-5200","addr":"경기도 화성시 반월동 311-90번지","category":"직물 - 침구·수예점"}]},{"lat":"37.226219376","long":"127.0491926","items":[{"name":"농업회사법인햇살주식회사","tel":"031-000-0000","addr":"경기도 화성시 반월동 700번지","category":"음료식품 - 기타음료식품"},{"name":"도담도담","tel":"","addr":"경기도 화성시 반월동 700번지 일부","category":"음료식품 - 기타음료식품"}]},{"lat":"37.232349623","long":"127.06220044","items":[{"name":"뉴진로마트","tel":"031-204-8218","addr":"경기도 화성시 반월동 144-1번지 1층 뉴진로마트","category":"유통업 영리 - 슈퍼마켓"},{"name":"예담음악학원","tel":"031-202-8588","addr":"경기도 화성시 반월동 144-1번지 2층 일부호","category":"학원 - 예·체능계학원"},{"name":"잉글리쉬무무신영통보습학원","tel":"031-205-0553","addr":"경기도 화성시 반월동 144-1번지 2층 2호","category":"학원 - 보습학원"}]},{"lat":"37.236657254","long":"127.06080641","items":[{"name":"늘푸른약국","tel":"031-273-0451","addr":"경기도 화성시 반월동 25-9번지","category":"약국 - 약국"}]},{"lat":"37.228880181","long":"127.06311044","items":[{"name":"다승기획","tel":"031-9314-2077","addr":"경기도 화성시 반월동 335-6번지","category":"용역 서비스 - 종합용역"}]},{"lat":"37.22479798","long":"127.06411001","items":[{"name":"다온카페(다온CAFE)","tel":"031-273-5823","addr":"경기도 화성시 반월동 462번지 1층 102호","category":"일반휴게음식 - 서양음식"},{"name":"삼성똑배기","tel":"031-273-1221","addr":"경기도 화성시 반월동 462번지 2층","category":"일반휴게음식 - 일반한식"},{"name":"예가네춘천닭갈비","tel":"031-225-7892","addr":"경기도 화성시 반월동 462번지","category":"일반휴게음식 - 일반한식"},{"name":"육체발전소","tel":"031-203-2660","addr":"경기도 화성시 반월동 462번지 대경빌딩 3층","category":"레저업소 - 헬스클럽"},{"name":"정오밥상","tel":"031-203-0224","addr":"경기도 화성시 반월동 462번지 지하1층","category":"일반휴게음식 - 일반한식"}]},{"lat":"37.228020714","long":"127.0510304","items":[{"name":"다원교육사 1","tel":"031-898-8558","addr":"경기도 화성시 반월동 275-3번지 남영빌딩 1층","category":"회원제형태 - 서적"},{"name":"에스케이테크","tel":"070-7578-6672","addr":"경기도 화성시 반월동 275-3번지 남영빌딩 5층","category":"전기제품 - 기타전기제품"},{"name":"엘리트교육","tel":"031-285-5674","addr":"경기도 화성시 반월동 275-3번지 5층","category":"서적문구 - 기타서적문구"},{"name":"주식회사쏘쿨","tel":"070-7578-6672","addr":"경기도 화성시 반월동 275-3번지 남영빌딩 5층","category":"레져용품 - 스포츠·레져용품"}]},{"lat":"37.219602442","long":"127.05705279","items":[{"name":"대경건재","tel":"031-234-1080","addr":"경기도 화성시 반월동 638번지","category":"기타 - 기계공구"},{"name":"오렌지카케어","tel":"","addr":"경기도 화성시 반월동 638번지 A동 1층","category":"자동차정비 유지 - 카인테리어"}]},{"lat":"37.23171736","long":"127.06519739","items":[{"name":"대구탕.찜 내담 해물갈비찜","tel":"031-273-1011","addr":"경기도 화성시 반월동 124-2번지 2,3층","category":"일반휴게음식 - 일반한식"}]},{"lat":"37.228466042","long":"127.06244529","items":[{"name":"대동전자","tel":"031-898-8839","addr":"경기도 화성시 반월동 333-2번지","category":"전기제품 - 기타전기제품"}]},{"lat":"37.235322659","long":"127.06294653","items":[{"name":"대명종합설비인테리어","tel":"031-273-0472","addr":"경기도 화성시 반월동 32-6번지","category":"건축자재 - 목재·석재·철물"},{"name":"대박숯불꼼장어","tel":"031-202-9286","addr":"경기도 화성시 반월동 32-6번지","category":"일반휴게음식 - 일반한식"},{"name":"세민상사","tel":"031-202-8775","addr":"경기도 화성시 반월동 32-6번지","category":"자동차정비 유지 - 자동차부품"},{"name":"세민자동차용품","tel":"031-202-8775","addr":"경기도 화성시 반월동 32-6번지","category":"자동차정비 유지 - 카인테리어"}]},{"lat":"37.234213991","long":"127.06372321","items":[{"name":"대박고깃집","tel":"031-1111-1111","addr":"경기도 화성시 반월동 63-4번지 1층","category":"일반휴게음식 - 일반한식"},{"name":"우미관","tel":"","addr":"경기도 화성시 반월동 63-4번지 2층","category":"보건위생 - 기타대인서비스"}]},{"lat":"37.238682684","long":"127.06456075","items":[{"name":"대성산업","tel":"031-234-1619","addr":"경기도 화성시 반월동 19-6번지","category":"건축자재 - 기타건축자재"}]},{"lat":"37.229130712","long":"127.04658016","items":[{"name":"대성퍼니쳐","tel":"031-306-0304","addr":"경기도 화성시 반월동 248-22번지","category":"가구 - 일반가구"},{"name":"대양엔지니어링(주)","tel":"031-222-4061","addr":"경기도 화성시 반월동 248-22번지","category":"용역 서비스 - 기타용역서비스"}]},{"lat":"37.227941956","long":"127.0653295","items":[{"name":"대영종합상사","tel":"031-204-0480","addr":"경기도 화성시 반월동 348-18번지 대영종합상사","category":"기타 - 기계공구"}]},{"lat":"37.228689354","long":"127.04617425","items":[{"name":"대우인테리어","tel":"031-239-8883","addr":"경기도 화성시 반월동 248-3번지","category":"직물 - 카페트,커튼,천막,지물"},{"name":"라온조명","tel":"031-234-5552","addr":"경기도 화성시 반월동 248-3번지 1층","category":"건축자재 - 조명기구"},{"name":"오리온 이엔지","tel":"031-234-5552","addr":"경기도 화성시 반월동 248-3번지 1층","category":"건축자재 - 조명기구"}]},{"lat":"37.225965215","long":"127.05375589","items":[{"name":"대일푸드","tel":"070-4179-2229","addr":"경기도 화성시 반월동 590-11번지","category":"음료식품 - 기타음료식품"}]},{"lat":"37.228941643","long":"127.04617439","items":[{"name":"대진종합건재","tel":"031-231-2880","addr":"경기도 화성시 반월동 248-2상가1-2호","category":"기타 - 기계공구"},{"name":"쎄미헤어라인","tel":"031-231-8806","addr":"경기도 화성시 반월동 248-2,6","category":"보건위생 - 미용원"}]},{"lat":"37.231329904","long":"127.06521961","items":[{"name":"대한민국대표국수","tel":"031-202-8043","addr":"경기도 화성시 반월동 125-3번지","category":"일반휴게음식 - 일반한식"},{"name":"명성종합공사","tel":"031-202-1980","addr":"경기도 화성시 반월동 125-3번지","category":"용역 서비스 - 종합용역"},{"name":"반달마트","tel":"031-202-5111","addr":"경기도 화성시 반월동 125-3번지","category":"유통업 영리 - 편 의 점"}]},{"lat":"37.222470416","long":"127.05083533","items":[{"name":"대한체대입시","tel":"031-111-1111","addr":"경기도 화성시 반월동 713-23번지","category":"레저업소 - 헬스클럽"},{"name":"우리해사랑어린이집[아이행복]","tel":"031-204-0089","addr":"경기도 화성시 반월동 713-23번지","category":"학원 - 유아원"}]},{"lat":"37.222881596","long":"127.05838468","items":[{"name":"더예원음악학원","tel":"031-233-8567","addr":"경기도 화성시 반월동 607-12번지 303호","category":"학원 - 예·체능계학원"},{"name":"동탄연세병원","tel":"031-898-9595","addr":"경기도 화성시 반월동 607-12번지 2층 202호,203호","category":"의원 - 의원"},{"name":"동탄연세의원","tel":"031-898-9595","addr":"경기도 화성시 반월동 607-12번지 2층","category":"의원 - 의원"},{"name":"반월석사태권도아카데미 주식회사","tel":"031-237-0707","addr":"경기도 화성시 반월동 607-12번지 4층","category":"학원 - 예·체능계학원"},{"name":"버무리떡볶이","tel":"070-4139-1953","addr":"경기도 화성시 반월동 607-12번지 105호","category":"일반휴게음식 - 일반한식"},{"name":"샴푸헤어","tel":"031-234-5332","addr":"경기도 화성시 반월동 607-12번지 102호","category":"보건위생 - 미용원"},{"name":"예본미술학원","tel":"031-233-2006","addr":"경기도 화성시 반월동 607-12번지 연진빌딩 302호","category":"학원 - 예·체능계학원"},{"name":"율약국","tel":"031-232-3371","addr":"경기도 화성시 반월동 607-12번지 1층 101호","category":"약국 - 약국"},{"name":"커피에반하다반월초점","tel":"031-222-5094","addr":"경기도 화성시 반월동 607-12번지","category":"일반휴게음식 - 서양음식"},{"name":"튼튼영어마스터클럽","tel":"031-238-1222","addr":"경기도 화성시 반월동 607-12번지 연진빌딩 3층 301호","category":"학원 - 보습학원"}]},{"lat":"37.22310549","long":"127.06122421","items":[{"name":"더장어","tel":"031-235-8004","addr":"경기도 화성시 반월동 538-4번지 1층","category":"일반휴게음식 - 일반한식"},{"name":"복사난방에너지(두모리커피)","tel":"031-235-6333","addr":"경기도 화성시 반월동 538-4번지 2층","category":"일반휴게음식 - 서양음식"},{"name":"카르텐에덴학원","tel":"031-233-1250","addr":"경기도 화성시 반월동 538-4번지 2층 201호","category":"학원 - 보습학원"}]},{"lat":"37.232996905","long":"127.06505195","items":[{"name":"더헤어프레스티지(THE HAIR prestige)","tel":"031-206-3651","addr":"경기도 화성시 반월동 88-4번지 토마토프라자 207호","category":"보건위생 - 미용원"},{"name":"미라클에스테틱","tel":"031-202-6702","addr":"경기도 화성시 반월동 88-4번지 토마토프라자 2층","category":"회원제형태 - 기타4"},{"name":"미라클의원","tel":"031-202-6701","addr":"경기도 화성시 반월동 88-4 토마토프라자2층 201호~203호","category":"의원 - 의원"},{"name":"미르커피","tel":"070-1111-1111","addr":"경기도 화성시 반월동 88-4번지 토마토프라자 110호","category":"일반휴게음식 - 서양음식"},{"name":"사암약손한의원","tel":"031-204-8575","addr":"경기도 화성시 반월동 88-4번지 토마토프라자 306호","category":"의원 - 한의원"},{"name":"위슬런학원","tel":"031-203-6377","addr":"경기도 화성시 반월동 88-4번지 토마토프라자 301,302,303호","category":"학원 - 보습학원"},{"name":"주식회사매스토피아","tel":"070-7098-0022","addr":"경기도 화성시 반월동 88-4번지 토마토프라자 2층","category":"학원 - 보습학원"},{"name":"주식회사위무/매스토피아","tel":"070-7098-0022","addr":"경기도 화성시 반월동 88-4번지 토마토프라자 2층","category":"학원 - 보습학원"},{"name":"파리바게뜨(화성반월점)","tel":"031-273-8778","addr":"경기도 화성시 반월동 88-4번지","category":"음료식품 - 제과점"},{"name":"한스치과","tel":"031-204-2815","addr":"경기도 화성시 반월동 88-4번지 토마토프라자 304동 305호","category":"의원 - 치과의원"},{"name":"회박사","tel":"031-205-7258","addr":"경기도 화성시 반월동 88-4번지 토마토프라자 1층 109호","category":"음료식품 - 기타음료식품"},{"name":"휘트니스&유","tel":"031-202-8682","addr":"경기도 화성시 반월동 88-4번지 토마토프라자 308,309,401호,402호","category":"레저업소 - 헬스클럽"}]},{"lat":"37.225409972","long":"127.06547389","items":[{"name":"데르나(derna)","tel":"070-8810-3519","addr":"경기도 화성시 반월동 466-9번지","category":"자동차정비 유지 - 자동차부품"},{"name":"데르나(derna)","tel":"070-8810-3519","addr":"경기도 화성시 반월동 466-9번지","category":"자동차정비 유지 - 자동차부품"}]},{"lat":"37.226996059","long":"127.06496815","items":[{"name":"데이(They)먹소","tel":"031-747-8874","addr":"경기도 화성시 반월동 452-4번지 1층","category":"일반휴게음식 - 일반한식"},{"name":"새불씨운동","tel":"031-206-8500","addr":"경기도 화성시 반월동 452-4","category":"회원제형태 - 학원"}]},{"lat":"37.228967054","long":"127.06916153","items":[{"name":"도화","tel":"","addr":"경기도 화성시 반월동 110-9번지 1층","category":"일반휴게음식 - 중국식"},{"name":"장성예가","tel":"031-273-4412","addr":"경기도 화성시 반월동 110-9번지","category":"건축자재 - 인테리어전문"}]},{"lat":"37.230077984","long":"127.06422696","items":[{"name":"돈가네김치찌개","tel":"031-202-7007","addr":"경기도 화성시 반월동 344번지","category":"일반휴게음식 - 일반한식"},{"name":"전통미꾸라지마을","tel":"031-206-7555","addr":"경기도 화성시 반월동 344번지","category":"일반휴게음식 - 일반한식"}]},{"lat":"37.236134261","long":"127.06160613","items":[{"name":"돌구이삼겹살","tel":"031-206-2002","addr":"경기도 화성시 반월동 28-1번지","category":"일반휴게음식 - 일반한식"},{"name":"째즈노래연습장","tel":"031-203-4382","addr":"경기도 화성시 반월동 28-1번지 4층","category":"레저업소 - 노 래 방"}]},{"lat":"37.22910413","long":"127.0656347","items":[{"name":"동성한식부페","tel":"031-205-6746","addr":"경기도 화성시 반월동 347-66번지 1층","category":"일반휴게음식 - 일반한식"}]},{"lat":"37.226048038","long":"127.04955307","items":[{"name":"동이메디텍","tel":"031-203-3222","addr":"경기도 화성시 반월동 699-5번지","category":"기타 - 기계공구"}]},{"lat":"37.232766181","long":"127.05788483","items":[{"name":"동학중학교","tel":"031-204-6227","addr":"경기도 화성시 반월동 184-8번지 동학중학교","category":"학원 - 초중고교육기관"}]},{"lat":"37.232774459","long":"127.05943992","items":[{"name":"동학초등학교병설유치원[아이행복]","tel":"031-205-0236","addr":"경기도 화성시 반월동 165-2번지","category":"학원 - 유치원"}]},{"lat":"37.22324085","long":"127.06080742","items":[{"name":"동훈카정비공업사","tel":"031-204-4887","addr":"경기도 화성시 반월동 540-10번지","category":"자동차정비 유지 - 자동차정비"}]},{"lat":"37.231546134","long":"127.06525359","items":[{"name":"두리맛감자탕(신영통점)","tel":"031-273-2525","addr":"경기도 화성시 반월동 125-11번지","category":"일반휴게음식 - 일반한식"},{"name":"영의정","tel":"031-273-2525","addr":"경기도 화성시 반월동 125-11번지","category":"일반휴게음식 - 일반한식"}]},{"lat":"37.222907643","long":"127.06044661","items":[{"name":"드림스테이션독서실","tel":"03-100-0000","addr":"경기도 화성시 반월동 540-8번지 3,4층","category":"학원 - 독서실"},{"name":"로이안경","tel":"031-000-0000","addr":"경기도 화성시 반월동 540-8번지 1층","category":"보건위생 - 안경"},{"name":"비터스위트","tel":"","addr":"경기도 화성시 반월동 540-8번지 1층 101호","category":"일반휴게음식 - 서양음식"},{"name":"진아스시","tel":"031-235-8788","addr":"경기도 화성시 반월동 540-8번지 2층 일부호","category":"일반휴게음식 - 일식·회집"}]},{"lat":"37.229491467","long":"127.06583785","items":[{"name":"디스토리","tel":"070-8623-9075","addr":"경기도 화성시 반월동 347-79번지","category":"회원제형태 - 기타3"}]},{"lat":"37.23030209","long":"127.06641321","items":[{"name":"라브리지","tel":"","addr":"경기도 화성시 반월동 123-5번지 3층 일부호","category":"보건위생 - 미용원"},{"name":"오토오아시스 빅마켓 신영통점","tel":"031-204-5189","addr":"경기도 화성시 반월동 123-5번지 3층 주차장","category":"자동차정비 유지 - 자동차부품"}]},{"lat":"37.22507472","long":"127.05005951","items":[{"name":"라일모터스","tel":"031-624-8162","addr":"경기도 화성시 반월동 778-22번지","category":"자동차정비 유지 - 자동차정비"}]},{"lat":"37.221686313","long":"127.05133059","items":[{"name":"러브라이트(LOVEWRIGHT)","tel":"031-234-1230","addr":"경기도 화성시 반월동 717-4 플라온스퀘이에이동501호,504호","category":"광학제품 - 사진관"},{"name":"지오반니마테오","tel":"031-221-6842","addr":"경기도 화성시 반월동 717-4번지","category":"의류 - 정장"}]},{"lat":"37.225518551","long":"127.06460637","items":[{"name":"로아스테","tel":"","addr":"경기도 화성시 반월동 458번지","category":"음료식품 - 기타음료식품"},{"name":"양평해장국 반월동점","tel":"031-203-3982","addr":"경기도 화성시 반월동 458번지 101호","category":"일반휴게음식 - 일반한식"}]},{"lat":"37.231050861","long":"127.06468976","items":[{"name":"루이네 워시존","tel":"031-205-8587","addr":"경기도 화성시 반월동 126-10번지","category":"자동차정비 유지 - 세차장"}]},{"lat":"37.227770461","long":"127.06589276","items":[{"name":"루헨쇼파&수입매트리스 식탁(수원동탄점)","tel":"031-273-7007","addr":"경기도 화성시 반월동 348-15번지 1층","category":"가구 - 일반가구"}]},{"lat":"37.22765903","long":"127.07183091","items":[{"name":"리얼야구장편의점","tel":"031-202-0666","addr":"경기도 화성시 반월동 364-5번지","category":"레저업소 - 기타레져업소"},{"name":"어사출또삼성점","tel":"031-203-5475","addr":"경기도 화성시 반월동 364-5번지 2층 전부호","category":"일반휴게음식 - 일식·회집"}]},{"lat":"37.227164182","long":"127.07057972","items":[{"name":"리얼자동차복원달인","tel":"031-9104-7819","addr":"경기도 화성시 반월동 370-3번지 1층","category":"자동차정비 유지 - 자동차정비"}]},{"lat":"37.236070465","long":"127.06304855","items":[{"name":"마이디어(MIDEA)","tel":"031-273-8080","addr":"경기도 화성시 반월동 33번지 가동","category":"서적문구 - 과학기자재"}]},{"lat":"37.232995744","long":"127.06722683","items":[{"name":"마이카케어","tel":"031-457-8526","addr":"경기도 화성시 반월동 885번지 반달마을푸르지오 303동 903호","category":"자동차정비 유지 - 카인테리어"}]},{"lat":"37.228325194","long":"127.07285691","items":[{"name":"마이큐","tel":"","addr":"경기도 화성시 반월동 360-1번지 1층","category":"레저업소 - 당 구 장"},{"name":"불로만 숯불닭바베큐","tel":"031-205-0904","addr":"경기도 화성시 반월동 360-1번지","category":"일반휴게음식 - 스넥"},{"name":"에프에스","tel":"031-216-3722","addr":"경기도 화성시 반월동 360-1번지","category":"일반휴게음식 - 주점"},{"name":"채리티스헤어","tel":"031-203-2611","addr":"경기도 화성시 반월동 360-1번지 1층 일부","category":"보건위생 - 미용원"}]},{"lat":"37.22154739","long":"127.05980335","items":[{"name":"만나한식부페","tel":"031-222-5020","addr":"경기도 화성시 반월동 543-1번지","category":"일반휴게음식 - 일반한식"},{"name":"맑은밥상","tel":"031-226-3845","addr":"경기도 화성시 반월동 543-1번지","category":"일반휴게음식 - 일반한식"}]},{"lat":"37.234079118","long":"127.06317092","items":[{"name":"만미정.게판","tel":"031-206-7792","addr":"경기도 화성시 반월동 163-4번지 1층","category":"일반휴게음식 - 일반한식"},{"name":"만미정.게판","tel":"031-206-7792","addr":"경기도 화성시 반월동 163-4번지 1층","category":"음료식품 - 농·축·수산품"},{"name":"유달중고타이어","tel":"031-202-6221","addr":"경기도 화성시 반월동 163-4번지","category":"자동차정비 유지 - 자동차시트·타이어"}]},{"lat":"37.226382241","long":"127.04742366","items":[{"name":"맛보래식당","tel":"031-223-8004","addr":"경기도 화성시 반월동 702-1번지","category":"일반휴게음식 - 일반한식"}]},{"lat":"37.226518523","long":"127.06494522","items":[{"name":"망향비빔국수","tel":"031-273-3575","addr":"경기도 화성시 반월동 453번지","category":"일반휴게음식 - 스넥"}]},{"lat":"37.229409752","long":"127.04733529","items":[{"name":"매직세븐수원총판","tel":"031-222-3833","addr":"경기도 화성시 반월동 244-3번지 외5필지가동일부","category":"주방용구 - 주방용구"}]},{"lat":"37.232104585","long":"127.06561465","items":[{"name":"매직터치","tel":"031-202-0488","addr":"경기도 화성시 반월동 91-7번지","category":"자동차정비 유지 - 카인테리어"},{"name":"송월타월,큐피트","tel":"031-273-8842","addr":"경기도 화성시 반월동 91-7번지 104호","category":"직물 - 옷감·직물"}]},{"lat":"37.232825503","long":"127.045061","items":[{"name":"맥스휠타이어(MAXWHEELTIRE)","tel":"031-202-9331","addr":"경기도 화성시 반월동 230-1번지","category":"자동차정비 유지 - 자동차시트·타이어"}]},{"lat":"37.23102224","long":"127.06766462","items":[{"name":"명성카클리닉","tel":"031-204-6900","addr":"경기도 화성시 반월동 102-16번지 나","category":"자동차정비 유지 - 자동차정비"}]},{"lat":"37.228076106","long":"127.04763875","items":[{"name":"명품세탁자이","tel":"031-222-6298","addr":"경기도 화성시 반월동 959번지 반월자이에뜨 상가동 201호","category":"수리서비스 - 세탁소"},{"name":"미라주헤어","tel":"031-222-2279","addr":"경기도 화성시 반월동 959번지 반월자이에뜨 상가동 2층 202호","category":"보건위생 - 미용원"},{"name":"씨유화성반월자이에뜨점","tel":"02-1577-8007","addr":"경기도 화성시 반월동 959번지 반월자이에뜨 102호","category":"유통업 영리 - 편 의 점"},{"name":"자이에뜨어린이집[아이행복]","tel":"031-233-8370","addr":"경기도 화성시 반월동 959번지 반월자이에뜨 관리동","category":"학원 - 유아원"}]},{"lat":"37.228905461","long":"127.04655749","items":[{"name":"모이세돼지갈비","tel":"031-222-2892","addr":"경기도 화성시 반월동 248-16번지","category":"일반휴게음식 - 일반한식"}]},{"lat":"37.231518649","long":"127.06610998","items":[{"name":"모터풀(MOTOR POOL)","tel":"031-273-5850","addr":"경기도 화성시 반월동 100-12번지 1층","category":"자동차정비 유지 - 자동차부품"},{"name":"타이어하그네(기흥점)","tel":"031-204-1989","addr":"경기도 화성시 반월동 100-12번지","category":"자동차정비 유지 - 자동차시트·타이어"},{"name":"파브노래연습장","tel":"031-202-7898","addr":"경기도 화성시 반월동 100-12번지","category":"레저업소 - 노 래 방"}]},{"lat":"37.222326218","long":"127.05091411","items":[{"name":"목포식당","tel":"031-613-7860","addr":"경기도 화성시 반월동 713-6번지","category":"일반휴게음식 - 일반한식"}]},{"lat":"37.219719411","long":"127.05741341","items":[{"name":"몬스터","tel":"031-223-3589","addr":"경기도 화성시 반월동 636-2번지 101호,102호","category":"자동차정비 유지 - 자동차부품"},{"name":"엔에스웨이(NS WAY)","tel":"031-221-2623","addr":"경기도 화성시 반월동 636-2번지","category":"전기제품 - 기타전기제품"},{"name":"엔오원정보기술","tel":"031-235-3014","addr":"경기도 화성시 반월동 636-2번지 108호","category":"사무통신 - 컴퓨터"},{"name":"주식회사크린텍","tel":"031-238-4675","addr":"경기도 화성시 반월동 636-2번지 (103호104동) 103","category":"신변잡화 - 기타잡화"}]},{"lat":"37.232239698","long":"127.06569364","items":[{"name":"무지개제경사","tel":"031-203-5330","addr":"경기도 화성시 반월동 91-3번지","category":"건축자재 - 유리"}]},{"lat":"37.228518731","long":"127.06511588","items":[{"name":"문구SHOP","tel":"031-206-9451","addr":"경기도 화성시 반월동 347-20번지","category":"사무통신 - 기타 사무용품"},{"name":"에이스테크","tel":"031-273-4280","addr":"경기도 화성시 반월동 347-20번지 3호","category":"건축자재 - 조명기구"}]},{"lat":"37.23131718","long":"127.05417642","items":[{"name":"문정환","tel":"","addr":"경기도 화성시 반월동 868번지 신영통현대타운 209동 704호","category":"학원 - 기타 교육기관"},{"name":"엠비씨휘트니스(MBC fitness)","tel":"02-303-0071","addr":"경기도 화성시 반월동 868번지 신영통현대타운 209동 804호","category":"레저업소 - 헬스클럽"}]},{"lat":"37.223885407","long":"127.04992356","items":[{"name":"뮤엠영어 기산그레이스영어교습소","tel":"031-111-1111","addr":"경기도 화성시 반월동 706-18번지 1층 102호","category":"학원 - 외국어학원"}]},{"lat":"37.236242508","long":"127.06135829","items":[{"name":"미니박스카페","tel":"031-1111-1111","addr":"경기도 화성시 반월동 27-5번지 1층 101호","category":"일반휴게음식 - 서양음식"},{"name":"힐링동물의료센터","tel":"031-202-7512","addr":"경기도 화성시 반월동 27-5번지 2층","category":"기타의료기관 - 동물병원"}]},{"lat":"37.226713122","long":"127.05364371","items":[{"name":"미래정공","tel":"031-238-1239","addr":"경기도 화성시 반월동 581-7번지 A동","category":"기타 - 기계공구"}]},{"lat":"37.23376456","long":"127.06157049","items":[{"name":"미소어린이집[아이행복]","tel":"031-203-5716","addr":"경기도 화성시 반월동 870번지 신영통현대타운 402동 101호","category":"학원 - 유아원"}]},{"lat":"37.22074602","long":"127.05864225","items":[{"name":"미소펫","tel":"031-224-7532","addr":"경기도 화성시 반월동 631번지","category":"문화.취미 - 애완동물"},{"name":"샤인갤러리","tel":"031-226-3925","addr":"경기도 화성시 반월동 631번지","category":"가구 - 일반가구"}]},{"lat":"37.227803097","long":"127.07200006","items":[{"name":"민스키친","tel":"031-206-6687","addr":"경기도 화성시 반월동 364-1번지 1층 일부호","category":"일반휴게음식 - 일식·회집"},{"name":"수원신닭발","tel":"031-202-9597","addr":"경기도 화성시 반월동 364-1번지","category":"일반휴게음식 - 일반한식"},{"name":"짬뽕의전설","tel":"031-205-7999","addr":"경기도 화성시 반월동 364-1번지","category":"일반휴게음식 - 일반한식"}]},{"lat":"37.228217039","long":"127.05550396","items":[{"name":"민옥스파워","tel":"031-237-1500","addr":"경기도 화성시 반월동 292-9번지","category":"자동차정비 유지 - 자동차부품"}]},{"lat":"37.233412525","long":"127.06283233","items":[{"name":"밀푀이","tel":"031-205-5590","addr":"경기도 화성시 반월동 165-17번지 1층","category":"음료식품 - 제과점"}]},{"lat":"37.230717272","long":"127.06508388","items":[{"name":"박은자맛사랑 (삼성반도체점)","tel":"031-204-8954","addr":"경기도 화성시 반월동 126번지 1층","category":"일반휴게음식 - 일반한식"},{"name":"화성조명전기","tel":"031-237-8378","addr":"경기도 화성시 반월동 126번지","category":"건축자재 - 조명기구"}]},{"lat":"37.231411127","long":"127.06497177","items":[{"name":"반달화원","tel":"031-202-5111","addr":"경기도 화성시 반월동 125-14번지","category":"문화.취미 - 화원"}]},{"lat":"37.228769895","long":"127.06722324","items":[{"name":"반도기업","tel":"031-239-2300","addr":"경기도 화성시 반월동 351-3번지","category":"건축자재 - 기타건축자재"}]},{"lat":"37.2298505","long":"127.06838479","items":[{"name":"반월 세차장","tel":"031-202-8611","addr":"경기도 화성시 반월동 113-1번지","category":"자동차정비 유지 - 세차장"}]},{"lat":"37.220439879","long":"127.05819135","items":[{"name":"방일해장국","tel":"031-239-8829","addr":"경기도 화성시 반월동 633-17번지","category":"일반휴게음식 - 일반한식"}]},{"lat":"37.229851154","long":"127.06719035","items":[{"name":"백리원","tel":"031-204-9245","addr":"경기도 화성시 반월동 120-6번지 1,2층","category":"일반휴게음식 - 일반한식"}]},{"lat":"37.230712904","long":"127.05550569","items":[{"name":"백코치 농구교실","tel":"","addr":"경기도 화성시 반월동 286-17번지","category":"학원 - 예·체능계학원"}]},{"lat":"37.23343916","long":"127.0636099","items":[{"name":"벽산건재유통ALC건설","tel":"031-418-0981","addr":"경기도 화성시 반월동 160-1번지 103호","category":"건축자재 - 기타건축자재"},{"name":"원BIKE","tel":"031-203-1402","addr":"경기도 화성시 반월동 160-1번지 103호","category":"레져용품 - 스포츠·레져용품"},{"name":"컴뱅크","tel":"031-202-7774","addr":"경기도 화성시 반월동 160-1번지","category":"사무통신 - 컴퓨터"}]},{"lat":"37.227768061","long":"127.07025348","items":[{"name":"별난돼지김치찌개","tel":"031-273-0305","addr":"경기도 화성시 반월동 357-24번지 1층 전체호","category":"일반휴게음식 - 일반한식"},{"name":"흙과사람들","tel":"031-204-3388","addr":"경기도 화성시 반월동 357-24번지","category":"신변잡화 - 기타잡화"}]},{"lat":"37.223190731","long":"127.05208646","items":[{"name":"보광테크","tel":"031-225-2272","addr":"경기도 화성시 반월동 678번지","category":"기타 - 기계공구"}]},{"lat":"37.223384839","long":"127.06116809","items":[{"name":"보물촌꺼먹돼지","tel":"031-267-1787","addr":"경기도 화성시 반월동 538-18번지","category":"일반휴게음식 - 일반한식"}]},{"lat":"37.221244644","long":"127.05172465","items":[{"name":"봉이네감자탕해장국","tel":"02-233-7072","addr":"경기도 화성시 반월동 718-9번지 창우빌딩 1층","category":"일반휴게음식 - 일반한식"},{"name":"와이즈공간","tel":"031-224-7333","addr":"경기도 화성시 반월동 718-9번지 외5필지 103호","category":"건축자재 - 인테리어전문"},{"name":"킹케어","tel":"","addr":"경기도 화성시 반월동 718-9번지 창우빌딩 202호","category":"보건위생 - 미용재료"},{"name":"해솔 유아체육","tel":"","addr":"경기도 화성시 반월동 718-9번지 창우빌딩 305호","category":"학원 - 기타 교육기관"},{"name":"행복한의원","tel":"031-224-4906","addr":"경기도 화성시 반월동 718-9번지 창우빌딩","category":"의원 - 한의원"}]},{"lat":"37.228851328","long":"127.04674902","items":[{"name":"붕붕토탈케어","tel":"031-206-7987","addr":"경기도 화성시 반월동 248-20번지","category":"자동차정비 유지 - 가타자동차서비스"}]},{"lat":"37.227965138","long":"127.0722481","items":[{"name":"블루문가든","tel":"031-307-8479","addr":"경기도 화성시 반월동 360-8번지 1층","category":"문화.취미 - 화원"},{"name":"순대구청 곱창동","tel":"031-204-4868","addr":"경기도 화성시 반월동 360-8번지 2층 전체","category":"일반휴게음식 - 일반한식"},{"name":"아름다운삼겹","tel":"031-206-3887","addr":"경기도 화성시 반월동 360-8번지","category":"일반휴게음식 - 일반한식"},{"name":"전복삼합","tel":"031-235-7949","addr":"경기도 화성시 반월동 360-8번지","category":"일반휴게음식 - 일반한식"},{"name":"처갓집양념통닭","tel":"031-202-2374","addr":"경기도 화성시 반월동 360-8번지","category":"일반휴게음식 - 주점"},{"name":"청기와","tel":"","addr":"경기도 화성시 반월동 360-8번지 일부호","category":"일반휴게음식 - 일반한식"}]},{"lat":"37.223606032","long":"127.0500586","items":[{"name":"빌드업영어학원","tel":"","addr":"경기도 화성시 반월동 706-16번지 2층","category":"학원 - 외국어학원"},{"name":"아이엘음악학원","tel":"031-232-9610","addr":"경기도 화성시 반월동 706-16번지 301호","category":"학원 - 예·체능계학원"},{"name":"용인대기산태권도","tel":"031-221-9123","addr":"경기도 화성시 반월동 706-16번지 이도원빌딩 5층","category":"학원 - 예·체능계학원"}]},{"lat":"37.22580244","long":"127.05510791","items":[{"name":"사랑","tel":"031-234-5040","addr":"경기도 화성시 반월동 590-17번지 1층","category":"일반휴게음식 - 일반한식"}]},{"lat":"37.22802318","long":"127.06508167","items":[{"name":"사훈카서비스","tel":"031-206-0053","addr":"경기도 화성시 반월동 347-6번지","category":"자동차정비 유지 - 카인테리어"},{"name":"세기건철","tel":"031-206-0303","addr":"경기도 화성시 반월동 347-6번지","category":"건축자재 - 기타건축자재"}]},{"lat":"37.226240076","long":"127.06325482","items":[{"name":"삼경산업(주)/원격지","tel":"031-421-7000","addr":"경기도 화성시 반월동 488-4번지","category":"기타 - 기타 전문점"}]},{"lat":"37.219053097","long":"127.05642146","items":[{"name":"삼성건철","tel":"070-4241-0568","addr":"경기도 화성시 반월동 641번지","category":"기타 - 기계공구"},{"name":"혼다모터사이클화성점","tel":"031-222-1596","addr":"경기도 화성시 반월동 641번지","category":"자동차판매 - 이륜차판매"}]},{"lat":"37.231184105","long":"127.06825072","items":[{"name":"삼성모터스","tel":"031-203-4052","addr":"경기도 화성시 반월동 102-9번지","category":"자동차정비 유지 - 자동차정비"},{"name":"삼성카인테리어","tel":"031-202-9958","addr":"경기도 화성시 반월동 102-9번지 1층","category":"자동차정비 유지 - 자동차시트·타이어"}]},{"lat":"37.234493381","long":"127.06358821","items":[{"name":"삼오정","tel":"031-202-4189","addr":"경기도 화성시 반월동 63-3번지","category":"일반휴게음식 - 일반한식"},{"name":"신영통노래방","tel":"031-206-5777","addr":"경기도 화성시 반월동 63-3번지","category":"레저업소 - 노 래 방"},{"name":"청담뷰티","tel":"031-206-2555","addr":"경기도 화성시 반월동 63-3번지 3층","category":"보건위생 - 화장품"}]},{"lat":"37.235628982","long":"127.06300312","items":[{"name":"삼진인쇄","tel":"031-202-2095","addr":"경기도 화성시 반월동 32-1번지","category":"서적문구 - 출판 및 인쇄물"}]},{"lat":"37.228825406","long":"127.06449638","items":[{"name":"삼흥볼트","tel":"031-205-8932","addr":"경기도 화성시 반월동 341-3번지","category":"기타 - 기계공구"}]},{"lat":"37.221962745","long":"127.05794458","items":[{"name":"상상톡톡미술교습소","tel":"031-222-0228","addr":"경기도 화성시 반월동 627-3번지 2층 일부","category":"학원 - 예·체능계학원"},{"name":"서울두리치과","tel":"031-223-2823","addr":"경기도 화성시 반월동 627-3번지 201호","category":"의원 - 치과의원"},{"name":"엠티에이(MTA)태권도","tel":"031-223-8780","addr":"경기도 화성시 반월동 627-3번지 3층","category":"학원 - 예·체능계학원"},{"name":"파리바게뜨 화성반월SK점","tel":"031-222-4532","addr":"경기도 화성시 반월동 627-3번지 102,103호","category":"음료식품 - 제과점"}]},{"lat":"37.229437542","long":"127.06557864","items":[{"name":"서호 코스메틱","tel":"","addr":"경기도 화성시 반월동 347-17번지 덕산빌딩 3층 A호","category":"보건위생 - 화장품"},{"name":"장수돌침대","tel":"031-273-8885","addr":"경기도 화성시 반월동 347-17,1층102호-104호","category":"가구 - 일반가구"}]},{"lat":"37.22810024","long":"127.07233837","items":[{"name":"서후개발 주식회사","tel":"","addr":"경기도 화성시 반월동 360-7번지 7","category":"자동차정비 유지 - 주차장"}]},{"lat":"37.225185367","long":"127.064223","items":[{"name":"성북동 돈까스","tel":"031-206-8629","addr":"경기도 화성시 반월동 460번지 2층","category":"일반휴게음식 - 서양음식"},{"name":"우리한식부페","tel":"","addr":"경기도 화성시 반월동 460번지 지하1층","category":"일반휴게음식 - 일반한식"},{"name":"위드미 화성효행로점","tel":"031-273-1608","addr":"경기도 화성시 반월동 460번지 1층 101,102호","category":"유통업 영리 - 편 의 점"},{"name":"카페이엘반월점(CAFE E-EL)","tel":"031-202-9591","addr":"경기도 화성시 반월동 460번지 1층 일부호","category":"일반휴게음식 - 서양음식"}]},{"lat":"37.21980121","long":"127.05585865","items":[{"name":"성진공구상사","tel":"054-000-0000","addr":"경기도 화성시 반월동 645번지","category":"기타 - 기계공구"}]},{"lat":"37.227301465","long":"127.06674874","items":[{"name":"세원옵틱스(주)","tel":"031-202-7995","addr":"경기도 화성시 반월동 348-6번지","category":"광학제품 - 기타광학제품"}]},{"lat":"37.230437683","long":"127.04528504","items":[{"name":"세일꽃농원","tel":"031-239-8668","addr":"경기도 화성시 반월동 311-83 2호","category":"문화.취미 - 화원"}]},{"lat":"37.23013304","long":"127.06227758","items":[{"name":"소망식당","tel":"031-203-3741","addr":"경기도 화성시 반월동 331-4번지","category":"일반휴게음식 - 일반한식"}]},{"lat":"37.222907179","long":"127.06139306","items":[{"name":"송이복칼국수","tel":"031-236-0076","addr":"경기도 화성시 반월동 538-11번지 1층","category":"일반휴게음식 - 일반한식"},{"name":"쎈스타일","tel":"031-223-3110","addr":"경기도 화성시 반월동 538-11,538-20","category":"건축자재 - 건축용 요업제품"}]},{"lat":"37.23043727","long":"127.04642315","items":[{"name":"쇳대장식철물","tel":"031-215-3189","addr":"경기도 화성시 반월동 311-74번지","category":"건축자재 - 목재·석재·철물"}]},{"lat":"37.224856028","long":"127.05583965","items":[{"name":"쇼룸샤인","tel":"111-1111-111","addr":"경기도 화성시 반월동 593-2번지","category":"자동차정비 유지 - 세차장"}]},{"lat":"37.23838532","long":"127.06460559","items":[{"name":"수원서울벽지","tel":"031-206-0028","addr":"경기도 화성시 반월동 37-8번지","category":"직물 - 카페트,커튼,천막,지물"}]},{"lat":"37.237826849","long":"127.06427832","items":[{"name":"수원실내바다랍스터 낚시터","tel":"031-206-5133","addr":"경기도 화성시 반월동 38번지 B동","category":"레저업소 - 기타레져업소"}]},{"lat":"37.232160406","long":"127.06220029","items":[{"name":"수타일","tel":"031-202-9645","addr":"경기도 화성시 반월동 143-2번지","category":"건축자재 - 건축용 요업제품"}]},{"lat":"37.22943811","long":"127.06449688","items":[{"name":"순둥이네손두부","tel":"031-203-5278","addr":"경기도 화성시 반월동 344-3번지 남양빌딩 1층","category":"일반휴게음식 - 일반한식"},{"name":"예담한식부페","tel":"031-206-3741","addr":"경기도 화성시 반월동 344-3번지 남양빌딩 1층 일부호","category":"일반휴게음식 - 일반한식"},{"name":"유명양평해장국","tel":"031-204-4434","addr":"경기도 화성시 반월동 344-3번지 외1필지","category":"일반휴게음식 - 일반한식"}]},{"lat":"37.223546735","long":"127.06175411","items":[{"name":"숯고개송탄부대찌개","tel":"031-226-0565","addr":"경기도 화성시 반월동 536-3번지 1층 일부","category":"일반휴게음식 - 일반한식"}]},{"lat":"37.229689873","long":"127.06549997","items":[{"name":"슈팅스타 사격교실","tel":"","addr":"경기도 화성시 반월동 347-5번지 2층","category":"레저업소 - 기타레져업소"},{"name":"한울종합환경","tel":"031-206-2050","addr":"경기도 화성시 반월동 347-5번지 1층 1호","category":"용역 서비스 - 종합용역"}]},{"lat":"37.228045786","long":"127.07300314","items":[{"name":"스뎅","tel":"031-205-0904","addr":"경기도 화성시 반월동 360-2번지 2층","category":"일반휴게음식 - 일반한식"}]},{"lat":"37.22735327","long":"127.07080524","items":[{"name":"스마일슈퍼","tel":"","addr":"경기도 화성시 반월동 357-28번지","category":"유통업 영리 - 슈퍼마켓"}]},{"lat":"37.226965851","long":"127.05260724","items":[{"name":"시골백반","tel":"031-235-0422","addr":"경기도 화성시 반월동 589","category":"일반휴게음식 - 일반한식"}]},{"lat":"37.232652901","long":"127.06804915","items":[{"name":"신영농산","tel":"031-205-8549","addr":"경기도 화성시 반월동 885 반달마을푸르지오 306-302","category":"음료식품 - 농·축·수산품"}]},{"lat":"37.230520552","long":"127.06214266","items":[{"name":"쎄넥스","tel":"031-203-7467","addr":"경기도 화성시 반월동 132번지","category":"주방용구 - 정수기"},{"name":"오케이 테크","tel":"031-221-1929","addr":"경기도 화성시 반월동 132번지","category":"전기제품 - 기타전기제품"}]},{"lat":"37.226747626","long":"127.05711424","items":[{"name":"쎈스세라믹","tel":"031-223-3110","addr":"경기도 화성시 반월동 775번지","category":"건축자재 - 건축용 요업제품"}]},{"lat":"37.231370199","long":"127.05653159","items":[{"name":"쎈에듀","tel":"","addr":"경기도 화성시 반월동 868번지 신영통현대타운 212동 1701호","category":"학원 - 기타 교육기관"}]},{"lat":"37.223741223","long":"127.04996854","items":[{"name":"씨유화성기산점","tel":"031-898-7525","addr":"경기도 화성시 반월동 706-17번지","category":"유통업 영리 - 편 의 점"}]},{"lat":"37.229131711","long":"127.06458678","items":[{"name":"씨유화성반월점","tel":"031-898-6567","addr":"경기도 화성시 반월동 342번지 1층","category":"유통업 영리 - 편 의 점"},{"name":"커튼이야기천","tel":"070-8879-0882","addr":"경기도 화성시 반월동 342번지 2층","category":"가구 - 일반가구"},{"name":"화성페인트","tel":"031-203-5812","addr":"경기도 화성시 반월동 342번지 1층","category":"건축자재 - 페인트"}]},{"lat":"37.224822648","long":"127.04950724","items":[{"name":"아이드E.N.G/원격지","tel":"","addr":"경기도 화성시 반월동 778-1번지","category":"기타 - 기타 전문점"}]},{"lat":"37.230934579","long":"127.0630332","items":[{"name":"아이케이(IK)하나인테리어","tel":"031-235-8600","addr":"경기도 화성시 반월동 134-6번지","category":"건축자재 - 인테리어전문"}]},{"lat":"37.226381279","long":"127.04991384","items":[{"name":"아이팡팡체육교실","tel":"070-7690-1288","addr":"경기도 화성시 반월동 265-12번지 1동","category":"학원 - 기타 교육기관"}]},{"lat":"37.225911441","long":"127.05307979","items":[{"name":"아쿠아펠라","tel":"070-4799-2151","addr":"경기도 화성시 반월동 612-4번지","category":"문화.취미 - 수족관"}]},{"lat":"37.231908105","long":"127.06222263","items":[{"name":"아트비미술학원","tel":"031-256-6339","addr":"경기도 화성시 반월동 144-2번지 201호","category":"학원 - 예·체능계학원"}]},{"lat":"37.226155686","long":"127.05074752","items":[{"name":"알베로목공방","tel":"031-224-5770","addr":"경기도 화성시 반월동 265-23번지","category":"가구 - 일반가구"}]},{"lat":"37.233907524","long":"127.06394834","items":[{"name":"액상나라(화성신영통점)","tel":"031-204-0116","addr":"경기도 화성시 반월동 64-3번지 1층","category":"신변잡화 - 기타잡화"}]},{"lat":"37.235882705","long":"127.06010713","items":[{"name":"어죽이네철렵국","tel":"031-202-0995","addr":"경기도 화성시 반월동 171-1번지","category":"일반휴게음식 - 일반한식"}]},{"lat":"37.223637006","long":"127.06141616","items":[{"name":"에스에스주방","tel":"031-267-3389","addr":"경기도 화성시 반월동 535-6번지","category":"주방용구 - 주방용구"}]},{"lat":"37.23015705","long":"127.06802447","items":[{"name":"에스에프씨모터스","tel":"031-203-0955","addr":"경기도 화성시 반월동 115-1번지 1층","category":"자동차정비 유지 - 카인테리어"}]},{"lat":"37.226379893","long":"127.05328292","items":[{"name":"에스엠씨","tel":"031-252-4812","addr":"경기도 화성시 반월동 589-8번지","category":"전기제품 - 기타전기제품"}]},{"lat":"37.225218564","long":"127.0508596","items":[{"name":"에스와이모터스(SY_MOTORS)","tel":"031-000-0000","addr":"경기도 화성시 반월동 694-9번지","category":"자동차정비 유지 - 자동차부품"}]},{"lat":"37.22641335","long":"127.05902953","items":[{"name":"에스피테크(SP TECH)","tel":"031-223-6864","addr":"경기도 화성시 반월동 564-7번지","category":"전기제품 - 기타전기제품"}]},{"lat":"37.228300003","long":"127.06966802","items":[{"name":"에이치에스모터스","tel":"031-204-7888","addr":"경기도 화성시 반월동 357-1번지","category":"자동차정비 유지 - 자동차정비"},{"name":"용수산","tel":"031-203-9990","addr":"경기도 화성시 반월동 357-1번지","category":"음료식품 - 농·축·수산품"},{"name":"용장어구이","tel":"031-203-9033","addr":"경기도 화성시 반월동 357-1번지 1층","category":"일반휴게음식 - 일반한식"}]},{"lat":"37.228462557","long":"127.05019684","items":[{"name":"에이치제이종합유통","tel":"","addr":"경기도 화성시 반월동 279-3번지","category":"주방용구 - 주방용구"}]},{"lat":"37.238656269","long":"127.06336615","items":[{"name":"에코채널","tel":"031-205-9445","addr":"경기도 화성시 반월동 21","category":"건축자재 - 조명기구"}]},{"lat":"37.220242012","long":"127.05741379","items":[{"name":"엘에스시스템(LS SYSTEM)","tel":"031-226-1537","addr":"경기도 화성시 반월동 636-9번지","category":"전기제품 - 기타전기제품"}]},{"lat":"37.224525253","long":"127.04964227","items":[{"name":"엠에스모터스(MS모터스)","tel":"031-256-9737","addr":"경기도 화성시 반월동 705-14번지","category":"자동차정비 유지 - 자동차정비"}]},{"lat":"37.229044868","long":"127.05797227","items":[{"name":"엠에스텍/원격지","tel":"031-204-0187","addr":"경기도 화성시 반월동 295-17번지","category":"기타 - 기타 전문점"}]},{"lat":"37.227524628","long":"127.0705237","items":[{"name":"엠제이(MJ coffee)","tel":"031-203-0234","addr":"경기도 화성시 반월동 357-4번지 1층","category":"일반휴게음식 - 서양음식"},{"name":"차카 튜닝샵","tel":"031-205-8818","addr":"경기도 화성시 반월동 357-4번지 4,5호","category":"자동차정비 유지 - 카인테리어"},{"name":"커피맨의커피박스","tel":"031-613-2187","addr":"경기도 화성시 반월동 357-4번지 1층","category":"일반휴게음식 - 서양음식"}]},{"lat":"37.231775443","long":"127.05701642","items":[{"name":"엠지바이오텍","tel":"070-5022-4846","addr":"경기도 화성시 반월동 868번지 신영통현대타운 204동 1801호","category":"서적문구 - 과학기자재"}]},{"lat":"37.226516845","long":"127.04886602","items":[{"name":"엠테크","tel":"031-354-3505","addr":"경기도 화성시 반월동 264-5","category":"기타 - 기타 전문점"}]},{"lat":"37.231518494","long":"127.04646885","items":[{"name":"예당란식물원","tel":"031-214-2271","addr":"경기도 화성시 반월동 311-70","category":"문화.취미 - 화원"}]},{"lat":"37.229192388","long":"127.06902651","items":[{"name":"예림쇼파","tel":"031-204-5092","addr":"경기도 화성시 반월동 110-8번지","category":"수리서비스 - 가정용품수리"}]},{"lat":"37.233799769","long":"127.06322704","items":[{"name":"오백(500)번의인연","tel":"","addr":"경기도 화성시 반월동 161번지","category":"일반휴게음식 - 일반한식"}]},{"lat":"37.223717826","long":"127.06196833","items":[{"name":"오토오아시스동탄신도시점","tel":"031-222-3532","addr":"경기도 화성시 반월동 536번지","category":"자동차정비 유지 - 자동차정비"},{"name":"지에스칼텍스(주)동탄신도시주유소","tel":"031-225-5101","addr":"경기도 화성시 반월동 536번지","category":"연료판매점 - GS주유소"}]},{"lat":"37.225768264","long":"127.05069094","items":[{"name":"와이즈닉","tel":"031-223-2035","addr":"경기도 화성시 반월동 268-7번지","category":"기타 - 기계공구"}]},{"lat":"37.226712185","long":"127.05578461","items":[{"name":"외식창고 3.0","tel":"031-222-0310","addr":"경기도 화성시 반월동 575-2번지 1,2층","category":"일반휴게음식 - 일반한식"}]},{"lat":"37.226995894","long":"127.06528365","items":[{"name":"우리꿈작은도서관","tel":"031-222-3504","addr":"경기도 화성시 반월동 452-34번지","category":"용역 서비스 - 사무서비스"}]},{"lat":"37.223132332","long":"127.06160732","items":[{"name":"운암명가부대찌개","tel":"031-223-0025","addr":"경기도 화성시 반월동 535-2번지","category":"일반휴게음식 - 일반한식"}]},{"lat":"37.225302402","long":"127.06441465","items":[{"name":"원프로카오디오","tel":"031-233-6651","addr":"경기도 화성시 반월동 459번지","category":"자동차정비 유지 - 자동차부품"}]},{"lat":"37.230330086","long":"127.06458776","items":[{"name":"월드공구","tel":"031-204-4909","addr":"경기도 화성시 반월동 128-8번지","category":"기타 - 기계공구"},{"name":"하이퍼테크/원격지","tel":"031-206-9773","addr":"경기도 화성시 반월동 128-8번지","category":"기타 - 기타 전문점"}]},{"lat":"37.22893647","long":"127.05855814","items":[{"name":"위너스/원격지","tel":"031-213-1988","addr":"경기도 화성시 반월동 320-13번지","category":"기타 - 기타 전문점"}]},{"lat":"37.223907522","long":"127.06099948","items":[{"name":"유니세라","tel":"031-898-7164","addr":"경기도 화성시 반월동 534번지","category":"보건위생 - 의료용품"},{"name":"유니세라/원격지","tel":"031-898-7164","addr":"경기도 화성시 반월동 534번지","category":"기타 - 기타 전문점"},{"name":"주식회사 본갤러리","tel":"031-238-6768","addr":"경기도 화성시 반월동 534번지","category":"가구 - 일반가구"}]},{"lat":"37.227018426","long":"127.05603271","items":[{"name":"유니텍","tel":"031-211-7173","addr":"경기도 화성시 반월동 570-11번지","category":"수리서비스 - 기타수리서비스"}]},{"lat":"37.236574343","long":"127.06441254","items":[{"name":"율목초병설유치원[아이행복]","tel":"031-204-9859","addr":"경기도 화성시 반월동 879번지","category":"학원 - 유치원"}]},{"lat":"37.225775867","long":"127.05405999","items":[{"name":"은성공조","tel":"031-222-6852","addr":"경기도 화성시 반월동 591번지 나동","category":"전기제품 - 냉열기기"}]},{"lat":"37.234602393","long":"127.06183032","items":[{"name":"의류병원","tel":"031-204-0076","addr":"경기도 화성시 반월동 869-2번지","category":"수리서비스 - 세탁소"}]},{"lat":"37.236016778","long":"127.06230473","items":[{"name":"이오필","tel":"031-204-8657","addr":"경기도 화성시 반월동 30-2번지","category":"가구 - 일반가구"}]},{"lat":"37.230996634","long":"127.06500523","items":[{"name":"이유앤컴퍼니 주식회사","tel":"031-204-1230","addr":"경기도 화성시 반월동 126-7번지","category":"자동차정비 유지 - 자동차정비"},{"name":"이유앤컴퍼니 주식회사","tel":"031-204-1230","addr":"경기도 화성시 반월동 126-7번지","category":"자동차정비 유지 - 자동차정비"}]},{"lat":"37.236107866","long":"127.06031014","items":[{"name":"잉컴넷","tel":"031-204-2650","addr":"경기도 화성시 반월동 170-1번지","category":"사무통신 - 기타 사무용품"}]},{"lat":"37.233406118","long":"127.05744581","items":[{"name":"자연유치원[아이행복]","tel":"031-273-7171","addr":"경기도 화성시 반월동 865-3번지","category":"학원 - 유치원"}]},{"lat":"37.224942047","long":"127.06430168","items":[{"name":"자연한정식","tel":"031-206-3392","addr":"경기도 화성시 반월동 463번지","category":"일반휴게음식 - 일반한식"},{"name":"커피맨의커피박스화성점","tel":"031-206-8527","addr":"경기도 화성시 반월동 463번지 2층 일부호","category":"일반휴게음식 - 서양음식"}]},{"lat":"37.227356456","long":"127.06500225","items":[{"name":"장난감왕국","tel":"031-202-1110","addr":"경기도 화성시 반월동 452-2번지","category":"서적문구 - 완구점"}]},{"lat":"37.237710732","long":"127.06228352","items":[{"name":"장삼인","tel":"031-205-5363","addr":"경기도 화성시 반월동 22-3번지","category":"음료식품 - 농·축·수산품"}]},{"lat":"37.231342343","long":"127.05832327","items":[{"name":"정말심","tel":"","addr":"경기도 화성시 반월동 868번지 신영통현대타운 216동 201호","category":"학원 - 기타 교육기관"}]},{"lat":"37.228019522","long":"127.07169602","items":[{"name":"제영D&C","tel":"031-203-2851","addr":"경기도 화성시 반월동 360-14번지 101호","category":"서적문구 - 문구용품"},{"name":"커피맨의 커피박스","tel":"031-205-0825","addr":"경기도 화성시 반월동 360-14번지 103호","category":"일반휴게음식 - 서양음식"},{"name":"커피맨의커피박스/(주)엠제이컨설팅","tel":"031-205-0825","addr":"경기도 화성시 반월동 360-14번지 103호","category":"일반휴게음식 - 서양음식"}]},{"lat":"37.228047054","long":"127.0708284","items":[{"name":"제이모터스 (J MOTORS)","tel":"031-273-3423","addr":"경기도 화성시 반월동 358-2번지 359-16,19","category":"자동차정비 유지 - 자동차시트·타이어"},{"name":"카샤인","tel":"031-202-3533","addr":"경기도 화성시 반월동 358-2번지 외 359-16,19","category":"자동차정비 유지 - 세차장"}]},{"lat":"37.23266316","long":"127.04550039","items":[{"name":"조앤에프","tel":"031-221-6691","addr":"경기도 화성시 반월동 228-1번지","category":"가구 - 일반가구"}]},{"lat":"37.232771345","long":"127.04533142","items":[{"name":"조은목재","tel":"031-234-7001","addr":"경기도 화성시 반월동 229-3번지","category":"건축자재 - 목재·석재·철물"}]},{"lat":"37.232519657","long":"127.06447685","items":[{"name":"조이앤카","tel":"031-204-4600","addr":"경기도 화성시 반월동 135-11번지","category":"자동차정비 유지 - 자동차부품"},{"name":"차사랑타이어","tel":"031-202-2501","addr":"경기도 화성시 반월동 135-11번지","category":"자동차정비 유지 - 자동차정비"}]},{"lat":"37.226329347","long":"127.06486619","items":[{"name":"좋아3급자동차공업사","tel":"031-202-8855","addr":"경기도 화성시 반월동 454번지","category":"자동차정비 유지 - 자동차정비"}]},{"lat":"37.229187872","long":"127.06041758","items":[{"name":"주식회사 경우이엔씨","tel":"031-276-8608","addr":"경기도 화성시 반월동 323-5번지","category":"전기제품 - 기타전기제품"}]},{"lat":"37.228414223","long":"127.05780279","items":[{"name":"주식회사 대형디앤씨","tel":"031-236-6570","addr":"경기도 화성시 반월동 320-4번지 302호","category":"음료식품 - 기타음료식품"}]},{"lat":"37.229185336","long":"127.06542067","items":[{"name":"주식회사 세도축산도매센터","tel":"031-202-7073","addr":"경기도 화성시 반월동 347-42번지 동양빌딩 1층","category":"유통업 영리 - 슈퍼마켓"},{"name":"퍼니처케이","tel":"02-6340-5385","addr":"경기도 화성시 반월동 347-42번지 동양빌딩 2층","category":"가구 - 일반가구"}]},{"lat":"37.229656179","long":"127.0608912","items":[{"name":"주식회사 스톰스프링","tel":"031-291-4499","addr":"경기도 화성시 반월동 324-31번지","category":"자동차정비 유지 - 자동차부품"}]},{"lat":"37.236467039","long":"127.06281221","items":[{"name":"주식회사 아이디","tel":"031-212-2162","addr":"경기도 화성시 반월동 33번지 다동","category":"학원 - 예·체능계학원"}]},{"lat":"37.225327263","long":"127.04941741","items":[{"name":"주식회사 알비티모터스","tel":"031-111-1111","addr":"경기도 화성시 반월동 696-6번지","category":"자동차정비 유지 - 윤활유 전문 판매"}]},{"lat":"37.237547785","long":"127.06378224","items":[{"name":"주식회사 에코플랜","tel":"031-205-3307","addr":"경기도 화성시 반월동 37-4번지","category":"용역 서비스 - 기타용역서비스"}]},{"lat":"37.230408941","long":"127.06874587","items":[{"name":"주식회사 이담","tel":"031-231-4721","addr":"경기도 화성시 반월동 109-1번지 이담빌딩 402호","category":"수리서비스 - 사무·통신기기수리"},{"name":"지니스(JINIS)반월동삼성반도체점","tel":"032-637-8444","addr":"경기도 화성시 반월동 109-1번지 1층 전체","category":"보건위생 - 안경"}]},{"lat":"37.230519666","long":"127.06388927","items":[{"name":"주식회사 지구산업","tel":"02-1577-0000","addr":"경기도 화성시 반월동 130-2번지","category":"기타 - 기계공구"}]},{"lat":"37.229240284","long":"127.06371921","items":[{"name":"주식회사 프리엠텍/원격지","tel":"031-238-2740","addr":"경기도 화성시 반월동 335-3번지","category":"기타 - 기타 전문점"},{"name":"프리엠텍(FREEMTECK)","tel":"031-238-2740","addr":"경기도 화성시 반월동 335-3번지","category":"기타 - 기타 전문점"}]},{"lat":"37.227966875","long":"127.05047823","items":[{"name":"주식회사미라클글라스","tel":"031-898-8236","addr":"경기도 화성시 반월동 275-6번지","category":"용역 서비스 - 기타용역서비스"}]},{"lat":"37.233187899","long":"127.06157004","items":[{"name":"주원공조","tel":"","addr":"경기도 화성시 반월동 870번지 신영통현대타운 404동 1803호","category":"용역 서비스 - 기타용역서비스"}]},{"lat":"37.228663331","long":"127.06428216","items":[{"name":"중앙공구상사","tel":"031-203-5909","addr":"경기도 화성시 반월동 341-4","category":"기타 - 기계공구"}]},{"lat":"37.227658252","long":"127.05583034","items":[{"name":"지산모터스","tel":"031-213-6995","addr":"경기도 화성시 반월동 572-1번지","category":"자동차정비 유지 - 자동차정비"}]},{"lat":"37.232572692","long":"127.04650326","items":[{"name":"지성꽃식물원","tel":"031-204-1836","addr":"경기도 화성시 반월동 311-65,311-66","category":"문화.취미 - 화원"}]},{"lat":"37.239132692","long":"127.06553032","items":[{"name":"지엔미헤어샵","tel":"031-208-5533","addr":"경기도 화성시 반월동 16","category":"보건위생 - 미용원"}]},{"lat":"37.233994358","long":"127.05155257","items":[{"name":"지초농원","tel":"031-275-5135","addr":"경기도 화성시 반월동 214-2","category":"문화.취미 - 화원"}]},{"lat":"37.229215131","long":"127.05994433","items":[{"name":"지피코리아(GP korea)","tel":"031-8017-8150","addr":"경기도 화성시 반월동 323-3번지 A동","category":"자동차정비 유지 - 카인테리어"}]},{"lat":"37.221601316","long":"127.06008507","items":[{"name":"지호한방삼계탕 신동탄점","tel":"031-226-3330","addr":"경기도 화성시 반월동 542번지 1층","category":"일반휴게음식 - 일반한식"}]},{"lat":"37.229743774","long":"127.06580426","items":[{"name":"직거래수산","tel":"031-291-9523","addr":"경기도 화성시 반월동 118-1번지 3동","category":"음료식품 - 농·축·수산품"}]},{"lat":"37.238548036","long":"127.06358019","items":[{"name":"진성기획","tel":"031-205-1704","addr":"경기도 화성시 반월동 21-1","category":"건축자재 - 인테리어전문"}]},{"lat":"37.224330122","long":"127.06278007","items":[{"name":"진토김치생고기","tel":"031-238-6214","addr":"경기도 화성시 반월동 524번지","category":"일반휴게음식 - 일반한식"}]},{"lat":"37.229134761","long":"127.05842306","items":[{"name":"창공","tel":"070-8231-8887","addr":"경기도 화성시 반월동 295-15번지","category":"용역 서비스 - 기타용역서비스"}]},{"lat":"37.232853273","long":"127.06402637","items":[{"name":"청도열쇠상사","tel":"031-205-1389","addr":"경기도 화성시 반월동 135-1번지 1호","category":"기타 - 기계공구"}]},{"lat":"37.234024716","long":"127.06383575","items":[{"name":"체크오토3급자동차정비공업사","tel":"031-205-1112","addr":"경기도 화성시 반월동 63-8번지","category":"자동차정비 유지 - 자동차정비"}]},{"lat":"37.22785727","long":"127.07180855","items":[{"name":"치킨인더키친동탄점","tel":"031-202-2269","addr":"경기도 화성시 반월동 364-6번지 1층","category":"일반휴게음식 - 스넥"}]},{"lat":"37.231802908","long":"127.05605861","items":[{"name":"카앤피플수원영통구2호점","tel":"","addr":"경기도 화성시 반월동 868번지 신영통현대타운 206동 801호","category":"자동차정비 유지 - 세차장"}]},{"lat":"37.231962207","long":"127.06214379","items":[{"name":"카페투어","tel":"070-2268-4151","addr":"경기도 화성시 반월동 144-13번지 B동 1층","category":"일반휴게음식 - 서양음식"}]},{"lat":"37.226496602","long":"127.05427457","items":[{"name":"케이엔테크/원격지","tel":"031-223-2634","addr":"경기도 화성시 반월동 580-2번지 다동","category":"기타 - 기타 전문점"}]},{"lat":"37.231989283","long":"127.06205366","items":[{"name":"크린토피아 화성반월현대점","tel":"031-202-4151","addr":"경기도 화성시 반월동 144-13번지 1층","category":"수리서비스 - 세탁소"}]},{"lat":"37.232851492","long":"127.06738447","items":[{"name":"키즈파크어린이집[아이행복]","tel":"031-205-8279","addr":"경기도 화성시 반월동 885번지 반달마을푸르지오 관리동","category":"학원 - 유아원"}]},{"lat":"37.227517937","long":"127.066332","items":[{"name":"킹콩반품마트","tel":"031-205-5547","addr":"경기도 화성시 반월동 348-2번지 1층","category":"신변잡화 - 기타잡화"}]},{"lat":"37.223547191","long":"127.06083019","items":[{"name":"타이어보이","tel":"031-267-0846","addr":"경기도 화성시 반월동 538-14번지","category":"자동차정비 유지 - 자동차시트·타이어"}]},{"lat":"37.228047574","long":"127.06991569","items":[{"name":"타이어월드반월점","tel":"031-206-6767","addr":"경기도 화성시 반월동 357-26번지","category":"자동차정비 유지 - 자동차시트·타이어"}]},{"lat":"37.231191384","long":"127.053365","items":[{"name":"탄탄가베교구연구소","tel":"031-234-9655","addr":"경기도 화성시 반월동 868번지 신영통현대타운 210동 604호","category":"회원제형태 - 서적"}]},{"lat":"37.225489097","long":"127.05030766","items":[{"name":"태봉이네밥집","tel":"031-232-9161","addr":"경기도 화성시 반월동 695번지 B동 1층","category":"일반휴게음식 - 일반한식"}]},{"lat":"37.228547484","long":"127.06174673","items":[{"name":"태장공업사","tel":"031-233-9330","addr":"경기도 화성시 반월동 333-5번지","category":"자동차정비 유지 - 자동차정비"}]},{"lat":"37.228661966","long":"127.06686256","items":[{"name":"태장공업사","tel":"031-273-7375","addr":"경기도 화성시 반월동 347-82번지","category":"자동차정비 유지 - 자동차정비"}]},{"lat":"37.230356888","long":"127.06502725","items":[{"name":"토탈카정비샵","tel":"031-203-4835","addr":"경기도 화성시 반월동 128번지","category":"자동차정비 유지 - 자동차정비"}]},{"lat":"37.237521656","long":"127.06200164","items":[{"name":"퍼플하우스 퍼니쳐","tel":"031-203-4379","addr":"경기도 화성시 반월동 24-1번지","category":"가구 - 일반가구"}]},{"lat":"37.229635356","long":"127.06635631","items":[{"name":"페이지원 튜닝","tel":"070-8623-2415","addr":"경기도 화성시 반월동 119-1번지","category":"자동차정비 유지 - 자동차부품"}]},{"lat":"37.226164412","long":"127.05144613","items":[{"name":"프렌즈","tel":"","addr":"경기도 화성시 반월동 268-11번지","category":"주방용구 - 주방용구"}]},{"lat":"37.231995712","long":"127.06701187","items":[{"name":"프롬지나","tel":"","addr":"경기도 화성시 반월동 885번지 반달마을푸르지오 307동 904호","category":"신변잡화 - 기타잡화"}]},{"lat":"37.230131659","long":"127.06497072","items":[{"name":"필세차장","tel":"031-204-6496","addr":"경기도 화성시 반월동 128-11번지","category":"자동차정비 유지 - 세차장"}]},{"lat":"37.233547399","long":"127.06338461","items":[{"name":"한국주방","tel":"031-202-4747","addr":"경기도 화성시 반월동 160-5번지","category":"주방용구 - 주방용식기"}]},{"lat":"37.219935556","long":"127.05763891","items":[{"name":"한국타이어T-스테이션(화성반월점)","tel":"031-206-5577","addr":"경기도 화성시 반월동 636-4번지 B동","category":"자동차정비 유지 - 자동차시트·타이어"}]},{"lat":"37.22882942","long":"127.05622554","items":[{"name":"한들","tel":"070-8235-3529","addr":"경기도 화성시 반월동 295-5번지","category":"전기제품 - 기타전기제품"}]},{"lat":"37.23071828","long":"127.06313444","items":[{"name":"한성유통","tel":"031-203-3703","addr":"경기도 화성시 반월동 131번지","category":"음료식품 - 기타음료식품"}]},{"lat":"37.228825762","long":"127.06380903","items":[{"name":"한신에어시스템","tel":"031-283-8548","addr":"경기도 화성시 반월동 338-1번지","category":"기타 - 기계공구"}]},{"lat":"37.228330562","long":"127.06308747","items":[{"name":"한양아크릴","tel":"031-267-2006","addr":"경기도 화성시 반월동 340번지","category":"건축자재 - 기타건축자재"}]},{"lat":"37.231544224","long":"127.06878066","items":[{"name":"한우회매점","tel":"031-695-0199","addr":"경기도 화성시 반월동 104번지","category":"음료식품 - 기타음료식품"}]},{"lat":"37.228461684","long":"127.07055834","items":[{"name":"항아리보쌈반도체점","tel":"031-202-8890","addr":"경기도 화성시 반월동 359-38번지","category":"일반휴게음식 - 일반한식"}]},{"lat":"37.230574811","long":"127.06174831","items":[{"name":"해미테크","tel":"031-273-8082","addr":"경기도 화성시 반월동 132-5번지","category":"건축자재 - 기타건축자재"}]},{"lat":"37.227600471","long":"127.06358268","items":[{"name":"해피홀","tel":"02-111-1111","addr":"경기도 화성시 반월동 493번지 나동 1층","category":"일반휴게음식 - 서양음식"}]},{"lat":"37.228962327","long":"127.06100335","items":[{"name":"행복한밥상","tel":"031-202-6442","addr":"경기도 화성시 반월동 323-9번지","category":"음료식품 - 기타음료식품"},{"name":"행복한사람들","tel":"031-273-4238","addr":"경기도 화성시 반월동 323-9번지 1층","category":"일반휴게음식 - 일반한식"},{"name":"행복한사람들","tel":"031-202-6442","addr":"경기도 화성시 반월동 323-9번지 1층","category":"일반휴게음식 - 일반한식"}]},{"lat":"37.229157186","long":"127.06750527","items":[{"name":"행운손세차장","tel":"031-888-8593","addr":"경기도 화성시 반월동 111-5번지","category":"자동차정비 유지 - 세차장"}]},{"lat":"37.221295283","long":"127.05942008","items":[{"name":"현대동탄서비스 (주)","tel":"031-223-2700","addr":"경기도 화성시 반월동 545-4번지","category":"자동차정비 유지 - 자동차정비"}]},{"lat":"37.233880793","long":"127.06336234","items":[{"name":"현대손세차장","tel":"031-213-1288","addr":"경기도 화성시 반월동 163-5번지","category":"자동차정비 유지 - 세차장"}]},{"lat":"37.23488138","long":"127.06249542","items":[{"name":"홍갤러리까페","tel":"031-203-0936","addr":"경기도 화성시 반월동 164-1번지 2층","category":"일반휴게음식 - 서양음식"}]},{"lat":"37.230357264","long":"127.06430607","items":[{"name":"홍우사(동탄점)","tel":"031-222-2545","addr":"경기도 화성시 반월동 128-6번지","category":"자동차정비 유지 - 자동차부품"}]},{"lat":"37.223358762","long":"127.05919628","items":[{"name":"화성반월초등학교병설유치원[아이행복]","tel":"031-548-4247","addr":"경기도 화성시 반월동 947번지","category":"학원 - 유치원"}]},{"lat":"37.228519779","long":"127.06308762","items":[{"name":"화성뷔페식당","tel":"031-222-3741","addr":"경기도 화성시 반월동 339-6번지","category":"일반휴게음식 - 일반한식"}]},{"lat":"37.233080273","long":"127.06055576","items":[{"name":"화성시니어클럽 노노카페 (반달문화복지센","tel":"031-8059-4349","addr":"경기도 화성시 반월동 856번지 반달문화복지센터 가동 1층","category":"일반휴게음식 - 서양음식"}]},{"lat":"37.23457487","long":"127.06281071","items":[{"name":"화성옥반월점","tel":"031-205-3346","addr":"경기도 화성시 반월동 163-1번지 1층","category":"일반휴게음식 - 일반한식"}]},{"lat":"37.232185474","long":"127.06599785","items":[{"name":"황궁쟁반짜장","tel":"031-206-8441","addr":"경기도 화성시 반월동 100-1번지 1층","category":"일반휴게음식 - 중국식"}]}]