[{"lat":"37.876481484","long":"127.52535737","imageIndex":7,"items":[{"name":"가평연인산잣집","tel":"031-582-9954","addr":"경기도 가평군 북면 이곡리 493-1번지","indutype":"음료식품 - 농·축·수산품","category":"food"}]},{"lat":"37.876280813","long":"127.52591289","imageIndex":7,"items":[{"name":"가평잣마을","tel":"031-581-9233","addr":"경기도 가평군 북면 이곡리 494번지","indutype":"음료식품 - 농·축·수산품","category":"food"}]},{"lat":"37.874230495","long":"127.52302289","imageIndex":7,"items":[{"name":"가평잣소라네농원","tel":"031-582-7389","addr":"경기도 가평군 북면 이곡리 544-2번지","indutype":"음료식품 - 농·축·수산품","category":"food"}]},{"lat":"37.874033552","long":"127.52273736","imageIndex":7,"items":[{"name":"가평잣이곡농산","tel":"031-582-0141","addr":"경기도 가평군 북면 이곡리 558번지","indutype":"음료식품 - 농·축·수산품","category":"food"}]},{"lat":"37.87731081","long":"127.52929591","imageIndex":7,"items":[{"name":"내촌잣","tel":"031-582-0465","addr":"경기도 가평군 북면 이곡리 211번지","indutype":"음료식품 - 농·축·수산품","category":"food"}]},{"lat":"37.874288783","long":"127.52410303","imageIndex":7,"items":[{"name":"박가네잣명가영농조합법인","tel":"031-582-7093","addr":"경기도 가평군 북면 이곡리 544-20번지","indutype":"음료식품 - 농·축·수산품","category":"food"}]},{"lat":"37.876060555","long":"127.52682061","imageIndex":7,"items":[{"name":"승예담","tel":"031-582-8253","addr":"경기도 가평군 북면 이곡리 530-1번지","indutype":"음료식품 - 기타음료식품","category":"food"}]},{"lat":"37.876173606","long":"127.53774408","imageIndex":7,"items":[{"name":"풍년농원","tel":"031-111-1111","addr":"경기도 가평군 북면 이곡리 187-4번지","indutype":"음료식품 - 농·축·수산품","category":"food"}]},{"lat":"37.879807409","long":"127.52501714","imageIndex":7,"items":[{"name":"한진아이템","tel":"031-582-9338","addr":"경기도 가평군 북면 이곡리 465번지","indutype":"음료식품 - 기타음료식품","category":"food"}]}]