[{"lat":"37.064743124","long":"127.35789518","imageIndex":17,"items":[{"name":"(주)두네이처 (Do Nature Co. Ltd)","tel":"031-000-0000","addr":"경기도 안성시 삼죽면 내강리 507-7번지","indutype":"신변잡화 - 기타잡화","category":"other"}]},{"lat":"37.072632823","long":"127.36502753","imageIndex":17,"items":[{"name":"동수기업","tel":"031-631-4489","addr":"경기도 안성시 삼죽면 내강리 322번지","indutype":"서적문구 - 과학기자재","category":"other"}]},{"lat":"37.068516084","long":"127.36761665","imageIndex":17,"items":[{"name":"세종 클래스","tel":"031-673-6169","addr":"경기도 안성시 삼죽면 내강리 238번지","indutype":"용역 서비스 - 사무서비스","category":"other"}]},{"lat":"37.07698711","long":"127.36133718","imageIndex":17,"items":[{"name":"신도서","tel":"02-1111-1111","addr":"경기도 안성시 삼죽면 내강리 429-1번지","indutype":"서적문구 - 일반서적","category":"other"}]},{"lat":"37.071043839","long":"127.37189051","imageIndex":17,"items":[{"name":"안성여물통","tel":"031-672-4003","addr":"경기도 안성시 삼죽면 내강리 65-4","indutype":"문화.취미 - 화원","category":"other"}]},{"lat":"37.065323574","long":"127.35964069","imageIndex":17,"items":[{"name":"이래마케팅(주)","tel":"02-595-5536","addr":"경기도 안성시 삼죽면 내강리 507-3","indutype":"신변잡화 - 기타잡화","category":"other"}]}]