[{"lat":"37.000076605","long":"127.0778712","items":[{"name":"(주)신대태평양유통","tel":"031-657-8245","addr":"경기도 평택시 신대동 118-2번지","category":"음료식품 - 정육점"},{"name":"엔오에스마트 평택중앙점(NOS마트 평택중앙","tel":"031-657-8245","addr":"경기도 평택시 신대동 118-2번지","category":"유통업 영리 - 슈퍼마켓"}]},{"lat":"37.001519838","long":"127.05876265","items":[{"name":"(주)오엔에이치","tel":"031-692-4315","addr":"경기도 평택시 신대동 185-11번지","category":"전기제품 - 기타전기제품"}]},{"lat":"37.001905826","long":"127.06180751","items":[{"name":"(주)제성","tel":"031-656-4287","addr":"경기도 평택시 신대동 429-2번지","category":"기타 - 기계공구"},{"name":"㈜제성","tel":"","addr":"경기도 평택시 신대동 429-2번지","category":"소매업 - 농기계, 부품"},{"name":"매직카멀티샵","tel":"031-653-0080","addr":"경기도 평택시 신대동 429-2번지","category":"자동차정비 유지 - 자동차부품"},{"name":"밀워키모터스","tel":"","addr":"경기도 평택시 신대동 429-2번지","category":"자동차판매 - 이륜차판매"}]},{"lat":"36.997216963","long":"127.06811735","items":[{"name":"(주)지니","tel":"","addr":"경기도 평택시 신대동 407-1번지 1층","category":"서적문구 - 문구용품"},{"name":"가마솥추어탕","tel":"031-655-5935","addr":"경기도 평택시 신대동 407-1번지","category":"일반휴게음식 - 일반한식"},{"name":"금오상사","tel":"031-651-3232","addr":"경기도 평택시 신대동 407-1번지","category":"기타 - 기계공구"},{"name":"대주컨테이너","tel":"031-656-8585","addr":"경기도 평택시 신대동 407-1번지","category":"건축자재 - 기타건축자재"},{"name":"투Bro","tel":"","addr":"경기도 평택시 신대동 407-1번지","category":"자동차정비 유지 - 자동차부품"},{"name":"평택카다이","tel":"031-618-3637","addr":"경기도 평택시 신대동 407-1번지","category":"자동차정비 유지 - 자동차부품"},{"name":"피티씨","tel":"031-654-3559","addr":"경기도 평택시 신대동 407-1번지 D동","category":"자동차정비 유지 - 자동차부품"}]},{"lat":"36.998219218","long":"127.07972299","items":[{"name":"VIP헬스클럽","tel":"031-655-1311","addr":"경기도 평택시 신대동 111-1번지","category":"서비스업 - 헬스"},{"name":"VIP헬스클럽","tel":"031-653-7441","addr":"경기도 평택시 신대동 111-1번지 2층","category":"회원제형태 - 레져업소"},{"name":"공룡고기평택점","tel":"031-651-7230","addr":"경기도 평택시 신대동 111-1번지","category":"일반휴게음식 - 일반한식"},{"name":"김명자낙지마당","tel":"031-651-6606","addr":"경기도 평택시 신대동 111-1번지","category":"음식점 - 한식"},{"name":"김명자낙지마당 세교점","tel":"031-658-5777","addr":"경기도 평택시 신대동 111-1 외2필지 A","category":"일반휴게음식 - 일반한식"},{"name":"일품","tel":"031-223-9159","addr":"경기도 평택시 신대동 111-1번지 B동 2층","category":"보건위생 - 기타대인서비스"},{"name":"조선의육개장","tel":"031-655-1809","addr":"경기도 평택시 신대동 111-1번지 B동 1층","category":"일반휴게음식 - 일반한식"},{"name":"칠보수산","tel":"031-658-6999","addr":"경기도 평택시 신대동 111-1외2필지(111-2,112-35)B동 1층","category":"일반휴게음식 - 일반한식"},{"name":"칠보수산","tel":"031-653-7441","addr":"경기도 평택시 신대동 111-1번지","category":"음식점 - 한식"},{"name":"항아리보쌈","tel":"031-656-5592","addr":"경기도 평택시 신대동 111-1번지","category":"음식점 - 한식"},{"name":"항아리보쌈(평택점)","tel":"031-655-1311","addr":"경기도 평택시 신대동 111-1번지 A동1층4,5,6호","category":"일반휴게음식 - 일반한식"}]},{"lat":"37.00043648","long":"127.06300846","items":[{"name":"Y-GYM","tel":"031-654-2400","addr":"경기도 평택시 신대동 438-5번지","category":"회원제형태 - 레져업소"}]},{"lat":"36.998633942","long":"127.07936392","items":[{"name":"㈜예스네트웍스","tel":"031-653-9245","addr":"경기도 평택시 신대동 112-15번지 1층","category":"소매업 - 컴퓨터 및 주변기기"},{"name":"주식회사 예스네트웍스","tel":"031-651-5578","addr":"경기도 평택시 신대동 112-15번지 1층","category":"용역 서비스 - 사무서비스"}]},{"lat":"37.001157949","long":"127.06178446","items":[{"name":"가나건축","tel":"031-658-9022","addr":"경기도 평택시 신대동 434-17번지","category":"수리서비스 - 기타수리서비스"}]},{"lat":"36.999301036","long":"127.07889275","items":[{"name":"거상식당","tel":"031-655-0547","addr":"경기도 평택시 신대동 112-19번지","category":"일반휴게음식 - 일반한식"},{"name":"타이어프로","tel":"031-656-8586","addr":"경기도 평택시 신대동 112-19번지","category":"자동차정비 유지 - 자동차시트·타이어"}]},{"lat":"37.000878804","long":"127.07747878","items":[{"name":"경기건설공구","tel":"031-657-0151","addr":"경기도 평택시 신대동 124-5번지","category":"수리서비스 - 기타수리서비스"}]},{"lat":"37.000491118","long":"127.0778379","items":[{"name":"경기상사","tel":"031-656-0020","addr":"경기도 평택시 신대동 119-7번지","category":"건축자재 - 보일러·펌프·샷시"},{"name":"이십일세기신상품","tel":"031-655-7098","addr":"경기도 평택시 신대동 119-7번지","category":"기타 - 기타 전문점"}]},{"lat":"37.003131139","long":"127.06208932","items":[{"name":"경원산기","tel":"031-653-8445","addr":"경기도 평택시 신대동 210-8번지","category":"기타 - 기계공구"}]},{"lat":"37.000879581","long":"127.07623176","items":[{"name":"골프존","tel":"031-654-1836","addr":"경기도 평택시 신대동 126번지 1동","category":"유통업 영리 - 편 의 점"},{"name":"골프존","tel":"031-662-1700","addr":"경기도 평택시 신대동 126번지 1동","category":"회원제형태 - 레져업소"}]},{"lat":"37.000354815","long":"127.06412059","items":[{"name":"광신공업사","tel":"031-652-0991","addr":"경기도 평택시 신대동 263-1","category":"건축자재 - 기타건축자재"}]},{"lat":"37.002691138","long":"127.0589545","items":[{"name":"금광토종가시오가피","tel":"031-651-8386","addr":"경기도 평택시 신대동 76-7번지","category":"회원제형태 - 건강식품"},{"name":"씨유평택신대점","tel":"02-1577-8007","addr":"경기도 평택시 신대동 76-7번지 1층","category":"유통업 영리 - 편 의 점"}]},{"lat":"37.001826221","long":"127.07539007","items":[{"name":"길호카센터","tel":"031-656-5668","addr":"경기도 평택시 신대동 133번지","category":"자동차정비 유지 - 자동차정비"}]},{"lat":"36.999941695","long":"127.06140156","items":[{"name":"꿈이크는일터","tel":"031-651-6514","addr":"경기도 평택시 신대동 240-1번지","category":"유통업 영리 - 기타유통업"}]},{"lat":"36.999463336","long":"127.0787244","items":[{"name":"남전사오토바이","tel":"031-657-3222","addr":"경기도 평택시 신대동 112-18번지","category":"자동차판매 - 이륜차판매"},{"name":"삼보자동차정비공업사","tel":"031-654-2557","addr":"경기도 평택시 신대동 112-18번지","category":"자동차정비 유지 - 자동차정비"},{"name":"삼흥정밀","tel":"031-658-9666","addr":"경기도 평택시 신대동 112-18번지 4호","category":"수리서비스 - 기타수리서비스"},{"name":"세교탁구클럽","tel":"031-652-6679","addr":"경기도 평택시 신대동 112-18번지 2층","category":"레저업소 - 기타레져업소"},{"name":"신일상사","tel":"031-655-5494","addr":"경기도 평택시 신대동 112-18번지","category":"자동차정비 유지 - 자동차부품"},{"name":"평택청년회의소","tel":"031-655-2730","addr":"경기도 평택시 신대동 112-18번지","category":"기타 - 비영리/대상"},{"name":"평택청년회의소특우회","tel":"031-651-2730","addr":"경기도 평택시 신대동 112-18번지","category":"기타 - 비영리/대상"}]},{"lat":"37.004302123","long":"127.06289915","items":[{"name":"뉴화신씽크","tel":"","addr":"경기도 평택시 신대동 209-13번지","category":"주방용구 - 주방용구"},{"name":"대일코리아(평택점)","tel":"031-666-0622","addr":"경기도 평택시 신대동 209-13번지","category":"건축자재 - 건축용 요업제품"},{"name":"포스코스틸","tel":"031-656-5064","addr":"경기도 평택시 신대동 209-13번지","category":"건축자재 - 기타건축자재"}]},{"lat":"37.001050148","long":"127.07725426","items":[{"name":"담뱃잎가게","tel":"031-000-0000","addr":"경기도 평택시 신대동 124-6번지 2호","category":"음료식품 - 기타음료식품"},{"name":"평택세교타일","tel":"","addr":"경기도 평택시 신대동 124-6번지","category":"건축자재 - 건축용 요업제품"}]},{"lat":"36.998913324","long":"127.07928556","items":[{"name":"대성종합상사","tel":"031-653-4544","addr":"경기도 평택시 신대동 1-5번지","category":"기타 - 기계공구"}]},{"lat":"37.0024657","long":"127.05931384","items":[{"name":"대한유통","tel":"070-4204-0796","addr":"경기도 평택시 신대동 188-1","category":"신변잡화 - 기타잡화"}]},{"lat":"36.999914135","long":"127.07830918","items":[{"name":"덱스크루평택","tel":"031-657-1114","addr":"경기도 평택시 신대동 117-5번지","category":"자동차정비 유지 - 자동차부품"}]},{"lat":"37.001409985","long":"127.06231268","items":[{"name":"동양창호 주식회사","tel":"031-651-3033","addr":"경기도 평택시 신대동 434-5번지","category":"건축자재 - 유리"},{"name":"만남낚시","tel":"031-656-1020","addr":"경기도 평택시 신대동 434-5번지","category":"레져용품 - 스포츠·레져용품"}]},{"lat":"36.998659936","long":"127.06578189","items":[{"name":"디자인그룹 수풀","tel":"031-618-7772","addr":"경기도 평택시 신대동 329-7번지","category":"서적문구 - 출판 및 인쇄물"},{"name":"디자인그룹수풀","tel":"031-618-8901","addr":"경기도 평택시 신대동 329-7번지","category":"서비스업 - 인쇄, 광고"}]},{"lat":"36.996632849","long":"127.06517359","items":[{"name":"맛집칼럼","tel":"031-654-5242","addr":"경기도 평택시 신대동 362-3번지","category":"용역 서비스 - 종합용역"}]},{"lat":"37.00407269","long":"127.07063983","items":[{"name":"명성샤링","tel":"031-653-6667","addr":"경기도 평택시 신대동 166-1번지","category":"기타 - 기타 전문점"}]},{"lat":"37.000628504","long":"127.05720041","items":[{"name":"명일페이퍼","tel":"031-652-3277","addr":"경기도 평택시 신대동 319-6번지","category":"유통업 영리 - 기타유통업"},{"name":"명일페이퍼","tel":"","addr":"경기도 평택시 신대동 319-6번지","category":"소매업 - 복사용지"}]},{"lat":"37.002549192","long":"127.07184059","items":[{"name":"목공방 Made by","tel":"031-000-0000","addr":"경기도 평택시 신대동 395-16번지 B동","category":"가구 - 일반가구"},{"name":"조인테크","tel":"031-653-4226","addr":"경기도 평택시 신대동 395-16번지","category":"농업 - 농기계"}]},{"lat":"36.99493866","long":"127.06550922","items":[{"name":"보금자리요양원","tel":"031-651-3988","addr":"경기도 평택시 신대동 423-1번지","category":"기타의료기관 - 기타의료기관 및 기타"}]},{"lat":"37.004183226","long":"127.06628077","items":[{"name":"볼보삼성부품","tel":"031-655-4745","addr":"경기도 평택시 신대동 279-1번지","category":"자동차정비 유지 - 자동차부품"}]},{"lat":"36.9967474","long":"127.0699256","items":[{"name":"부일농기구부속","tel":"031-651-4982","addr":"경기도 평택시 신대동 453-13번지","category":"농업 - 농기계"}]},{"lat":"37.000301388","long":"127.06287354","items":[{"name":"비젼","tel":"031-657-5771","addr":"경기도 평택시 신대동 378-4","category":"신변잡화 - 기타잡화"}]},{"lat":"36.996523459","long":"127.0675326","items":[{"name":"새싹어린이집[아이행복]","tel":"031-655-3980","addr":"경기도 평택시 신대동 407-3번지","category":"학원 - 유아원"},{"name":"새싹어린이집[아이행복]","tel":"031-655-3980","addr":"경기도 평택시 신대동 407-3번지","category":"학원 - 유아원"}]},{"lat":"37.001133302","long":"127.05676263","items":[{"name":"샬롬어린이집[아이행복]","tel":"031-651-5743","addr":"경기도 평택시 신대동 320번지","category":"학원 - 유아원"}]},{"lat":"37.000743127","long":"127.06244698","items":[{"name":"성도카서비스","tel":"031-652-2310","addr":"경기도 평택시 신대동 436-2번지","category":"서비스업 - 자동차정비"}]},{"lat":"36.999989409","long":"127.05572826","items":[{"name":"신대상사","tel":"031-691-8223","addr":"경기도 평택시 신대동 331-4번지 1층","category":"건축자재 - 목재·석재·철물"}]},{"lat":"37.00102226","long":"127.0628404","items":[{"name":"신영문짝","tel":"031-657-7897","addr":"경기도 평택시 신대동 439-11번지","category":"건축자재 - 보일러·펌프·샷시"}]},{"lat":"37.000716541","long":"127.07759097","items":[{"name":"에어컨거래소","tel":"031-658-4080","addr":"경기도 평택시 신대동 123-29번지 1층","category":"전기제품 - 냉열기기"},{"name":"한잔수산","tel":"031-652-7913","addr":"경기도 평택시 신대동 123-29번지","category":"일반휴게음식 - 일식·회집"},{"name":"힐스템 건강 세교점","tel":"","addr":"경기도 평택시 신대동 123-29번지 1층 오른쪽호","category":"보건위생 - 피부미용실"}]},{"lat":"37.001158382","long":"127.07708585","items":[{"name":"오성특수방수","tel":"031-657-4966","addr":"경기도 평택시 신대동 123-4번지 1층","category":"건축자재 - 기타건축자재"},{"name":"칠만표방수제평택대리점","tel":"031-657-4966","addr":"경기도 평택시 신대동 123-4번지 1층","category":"건축자재 - 기타건축자재"}]},{"lat":"36.99982668","long":"127.05691899","items":[{"name":"운성종합샷시","tel":"031-652-6082","addr":"경기도 평택시 신대동 347-1번지 1층","category":"건축자재 - 보일러·펌프·샷시"}]},{"lat":"37.000716872","long":"127.07706295","items":[{"name":"월드교육","tel":"031-657-6014","addr":"경기도 평택시 신대동 123-19번지 월드빌","category":"서적문구 - 일반서적"}]},{"lat":"36.999520429","long":"127.05667162","items":[{"name":"유성 주식회사","tel":"031-656-8058","addr":"경기도 평택시 신대동 182-4번지","category":"건축자재 - 인테리어전문"}]},{"lat":"37.001266972","long":"127.07634447","items":[{"name":"은실세차장","tel":"031-655-6493","addr":"경기도 평택시 신대동 127-3번지","category":"자동차정비 유지 - 세차장"}]},{"lat":"37.000601626","long":"127.05686336","items":[{"name":"이마트24/위드미평택신대점","tel":"","addr":"경기도 평택시 신대동 149-12번지 101호","category":"유통업 영리 - 편 의 점"}]},{"lat":"36.996108188","long":"127.0689477","items":[{"name":"주식회사 대부","tel":"031`-684-1198","addr":"경기도 평택시 신대동 408-3번지","category":"서적문구 - 출판 및 인쇄물"}]},{"lat":"36.996189639","long":"127.06830745","items":[{"name":"주식회사 사랑나눔21","tel":"031-111-1111","addr":"경기도 평택시 신대동 523번지","category":"신변잡화 - 기타잡화"}]},{"lat":"37.003185024","long":"127.06244888","items":[{"name":"주식회사 새마을칼라강판","tel":"031-657-4089","addr":"경기도 평택시 신대동 209-10번지","category":"건축자재 - 기타건축자재"}]},{"lat":"37.001546718","long":"127.07567067","items":[{"name":"주식회사 신우","tel":"031-656-9890","addr":"경기도 평택시 신대동 128번지","category":"레저업소 - 볼 링 장"},{"name":"퍼펙트사우나 매점","tel":"031-000-0000","addr":"경기도 평택시 신대동 128번지","category":"음료식품 - 기타음료식품"},{"name":"퍼펙트스포츠센타","tel":"031-658-9898","addr":"경기도 평택시 신대동 128번지","category":"회원제형태 - 레져업소"},{"name":"픽트 (PICT)","tel":"032-816-9930","addr":"경기도 평택시 신대동 128번지","category":"문화.취미 - 화원"}]},{"lat":"36.996802545","long":"127.06798219","items":[{"name":"주식회사 폴라리스","tel":"031-656-6663","addr":"경기도 평택시 신대동 407-23번지","category":"서적문구 - 과학기자재"}]},{"lat":"37.003855676","long":"127.07195412","items":[{"name":"주식회사중앙자동차운전전문학원","tel":"031-656-0007","addr":"경기도 평택시 신대동 142-1번지","category":"학원 - 기능학원"}]},{"lat":"36.999660443","long":"127.06517606","items":[{"name":"진주공업사","tel":"031-655-9382","addr":"경기도 평택시 신대동 263-9번지","category":"수리서비스 - 기타수리서비스"}]},{"lat":"36.996712135","long":"127.06853257","items":[{"name":"촌집","tel":"031-656-9008","addr":"경기도 평택시 신대동 518-10번지","category":"일반휴게음식 - 일반한식"}]},{"lat":"37.003741786","long":"127.06612312","items":[{"name":"충주기계","tel":"031-652-1603","addr":"경기도 평택시 신대동 279-7번지","category":"수리서비스 - 기타수리서비스"}]},{"lat":"37.002186025","long":"127.06003265","items":[{"name":"카앤타이어","tel":"031-652-7133","addr":"경기도 평택시 신대동 188-11번지","category":"자동차정비 유지 - 자동차부품"}]},{"lat":"37.003462812","long":"127.0654488","items":[{"name":"타이어아울렛(휠썬)","tel":"031-668-8942","addr":"경기도 평택시 신대동 280-6번지","category":"자동차정비 유지 - 자동차시트·타이어"},{"name":"평택로컬푸드 생산자 협동조합","tel":"070-4800-5868","addr":"경기도 평택시 신대동 280-6번지","category":"음료식품 - 농·축·수산품"}]},{"lat":"36.996380313","long":"127.06562274","items":[{"name":"평택보육교사교육원","tel":"031-656-8820","addr":"경기도 평택시 신대동 370-1번지","category":"학원 - 기타 교육기관"},{"name":"평택보육교사교육원부설예자람어린이집[아","tel":"031-657-8820","addr":"경기도 평택시 신대동 370-1번지","category":"학원 - 유아원"}]},{"lat":"36.995883503","long":"127.06789154","items":[{"name":"평택종합중기","tel":"031-657-4203","addr":"경기도 평택시 신대동 528-3번지","category":"자동차정비 유지 - 자동차부품"}]},{"lat":"37.00335069","long":"127.07261652","items":[{"name":"평택중공업","tel":"031-618-2245","addr":"경기도 평택시 신대동 141-1번지","category":"기타 - 기계공구"}]},{"lat":"36.998831358","long":"127.06536636","items":[{"name":"한성건조기","tel":"031-653-8697","addr":"경기도 평택시 신대동 329-8번지","category":"농업 - 농기계"}]},{"lat":"36.994380908","long":"127.06375633","items":[{"name":"해병대평택시전우회","tel":"031-656-4112","addr":"경기도 평택시 신대동 574-2번지","category":"기타 - 비영리/비대상"}]},{"lat":"36.996857007","long":"127.08214814","items":[{"name":"현대베아링","tel":"031-655-2687","addr":"경기도 평택시 신대동 8-2번지","category":"기타 - 기타 전문점"}]},{"lat":"36.996603682","long":"127.06911664","items":[{"name":"현대산업","tel":"031-653-5400","addr":"경기도 평택시 신대동 408-1번지","category":"건축자재 - 기타건축자재"}]},{"lat":"36.997407219","long":"127.08130616","items":[{"name":"효성전기","tel":"031-651-4566","addr":"경기도 평택시 신대동 4-11번지","category":"건축자재 - 보일러·펌프·샷시"}]}]