[{"lat":"37.303199935","long":"126.81035626","imageIndex":7,"items":[{"name":"(주)아스카트레이딩","tel":"02-546-9927","addr":"경기도 안산시 단원구 초지동 742-1번지 107호 , 108 키즈타운I","indutype":"음료식품 - 주류 판매점","category":"food"},{"name":"다인유통","tel":"031-401-8860","addr":"경기도 안산시 단원구 초지동 742-1번지 키즈타워1 101-2호","indutype":"음료식품 - 기타음료식품","category":"food"}]},{"lat":"37.313890912","long":"126.81908294","imageIndex":7,"items":[{"name":"(주)안산종합물류","tel":"031-401-5016","addr":"경기도 안산시 단원구 초지동 711번지","indutype":"음료식품 - 기타음료식품","category":"food"}]},{"lat":"37.325086399","long":"126.80530228","imageIndex":7,"items":[{"name":"가월가물치","tel":"031-486-9824","addr":"경기도 안산시 단원구 초지동 604-4번지","indutype":"건강식품 - 기타건강식품","category":"food"},{"name":"금산인삼","tel":"031-401-6669","addr":"경기도 안산시 단원구 초지동 604-4시민시장10동33,334","indutype":"건강식품 - 인삼제품","category":"food"},{"name":"동물농장축산","tel":"031-480-7844","addr":"경기도 안산시 단원구 초지동 604-4시민시장12-21","indutype":"음료식품 - 정육점","category":"food"},{"name":"선경유통","tel":"","addr":"경기도 안산시 단원구 초지동 604-4번지 안산시민시장","indutype":"음료식품 - 기타음료식품","category":"food"},{"name":"시민시장정육점","tel":"031-484-6241","addr":"경기도 안산시 단원구 초지동 604-4안산시민시장10-2","indutype":"음료식품 - 정육점","category":"food"},{"name":"시민제과","tel":"031-403-6224","addr":"경기도 안산시 단원구 초지동 604-4번 9-24","indutype":"음료식품 - 제과점","category":"food"},{"name":"오복청과","tel":"031-484-2738","addr":"경기도 안산시 단원구 초지동 604-4시민시장11-13","indutype":"음료식품 - 농·축·수산품","category":"food"},{"name":"충북건어물","tel":"031-475-0121","addr":"경기도 안산시 단원구 초지동 604-4번지 시민시장 10동 4-5호","indutype":"음료식품 - 농·축·수산품","category":"food"},{"name":"토종마을","tel":"031-483-9282","addr":"경기도 안산시 단원구 초지동 604-4시민시장12-19","indutype":"음료식품 - 정육점","category":"food"},{"name":"풍년방앗간","tel":"031-401-7709","addr":"경기도 안산시 단원구 초지동 604-4 시민시장 10-15","indutype":"음료식품 - 제과점","category":"food"}]},{"lat":"37.30967725","long":"126.8153256","imageIndex":7,"items":[{"name":"강서방 푸줏간","tel":"031-483-9555","addr":"경기도 안산시 단원구 초지동 726-2번지 골드프라자 106호","indutype":"음료식품 - 정육점","category":"food"},{"name":"또와김밥","tel":"031-439-6046","addr":"경기도 안산시 단원구 초지동 726-2번지 골드프라자 110호","indutype":"음료식품 - 기타음료식품","category":"food"},{"name":"축산물도소매","tel":"031-405-9619","addr":"경기도 안산시 단원구 초지동 726-2번지 골드프라자 1층 106호","indutype":"음료식품 - 정육점","category":"food"}]},{"lat":"37.314810632","long":"126.81952066","imageIndex":7,"items":[{"name":"건국T.G","tel":"031-402-3105","addr":"경기도 안산시 단원구 초지동 700-9번지","indutype":"음료식품 - 기타음료식품","category":"food"}]},{"lat":"37.307838941","long":"126.81518353","imageIndex":7,"items":[{"name":"고잔우리들","tel":"031-411-5005","addr":"경기도 안산시 단원구 초지동 735-1번지 세종프라자 305호","indutype":"회원제형태 - 건강식품","category":"food"},{"name":"삼촌네고기가게","tel":"031-475-7800","addr":"경기도 안산시 단원구 초지동 735-1번지","indutype":"음료식품 - 정육점","category":"food"},{"name":"소풍","tel":"070-4113-7001","addr":"경기도 안산시 단원구 초지동 735-1번지 세종프라자 408호","indutype":"음료식품 - 기타음료식품","category":"food"},{"name":"숟가락젓가락","tel":"031-414-9116","addr":"경기도 안산시 단원구 초지동 735-1번지 세종프라자 130호","indutype":"음료식품 - 기타음료식품","category":"food"},{"name":"천지인홍삼초지점","tel":"031-414-5933","addr":"경기도 안산시 단원구 초지동 735-1번지 세종프라자 107호","indutype":"건강식품 - 홍삼제품","category":"food"}]},{"lat":"37.315007314","long":"126.81852745","imageIndex":7,"items":[{"name":"고향농산","tel":"031-411-2888","addr":"경기도 안산시 단원구 초지동 699-2번지","indutype":"음료식품 - 제과점","category":"food"},{"name":"고향시루떡/고향떡방앗간","tel":"031-401-3226","addr":"경기도 안산시 단원구 초지동 699-2번지 1동","indutype":"음료식품 - 기타음료식품","category":"food"}]},{"lat":"37.315035048","long":"126.81327043","imageIndex":7,"items":[{"name":"공단게토레이상사","tel":"031-483-3288","addr":"경기도 안산시 단원구 초지동 679-23번지","indutype":"음료식품 - 기타음료식품","category":"food"}]},{"lat":"37.306811602","long":"126.81507329","imageIndex":7,"items":[{"name":"구스토스낵","tel":"031-401-4945","addr":"경기도 안산시 단원구 초지동 735-4번지 태영프라자 110호","indutype":"음료식품 - 기타음료식품","category":"food"}]},{"lat":"37.325159271","long":"126.80577596","imageIndex":7,"items":[{"name":"권가네수산물","tel":"031-413-3715","addr":"경기도 안산시 단원구 초지동 604-4시민시장11동16호~17호","indutype":"음료식품 - 농·축·수산품","category":"food"},{"name":"시민건강원","tel":"031-402-3919","addr":"경기도 안산시 단원구 초지동 604-4번지 시민시장 11동 1호","indutype":"건강식품 - 기타건강식품","category":"food"}]},{"lat":"37.304344525","long":"126.81616225","imageIndex":7,"items":[{"name":"극동스포츠","tel":"031-484-0061","addr":"경기도 안산시 단원구 초지동 740-2번지 극동스포랜드 2층 남자사우나내 매점","indutype":"음료식품 - 기타음료식품","category":"food"}]},{"lat":"37.307425223","long":"126.81565831","imageIndex":7,"items":[{"name":"금산인삼","tel":"031-414-8333","addr":"경기도 안산시 단원구 초지동 734-13번지 한양프라자 104호","indutype":"건강식품 - 홍삼제품","category":"food"}]},{"lat":"37.301033178","long":"126.81327175","imageIndex":7,"items":[{"name":"금천축산초지점","tel":"031-480-2588","addr":"경기도 안산시 단원구 초지동 745번지 서해프라자 109호","indutype":"음료식품 - 정육점","category":"food"},{"name":"오리온글로벌","tel":"","addr":"경기도 안산시 단원구 초지동 745번지 서해프라자 105호","indutype":"음료식품 - 농·축·수산품","category":"food"},{"name":"착한과일","tel":"031-414-1225","addr":"경기도 안산시 단원구 초지동 745번지 서해프라자 120호","indutype":"음료식품 - 농·축·수산품","category":"food"},{"name":"착한과일","tel":"031-414-1225","addr":"경기도 안산시 단원구 초지동 745번지 서해프라자 120호","indutype":"음료식품 - 농·축·수산품","category":"food"},{"name":"착한과일","tel":"031-414-1225","addr":"경기도 안산시 단원구 초지동 745번지 서해프라자 120호","indutype":"음료식품 - 농·축·수산품","category":"food"}]},{"lat":"37.314976444","long":"126.81607955","imageIndex":7,"items":[{"name":"기풍미트","tel":"031-402-6162","addr":"경기도 안산시 단원구 초지동 697-10번지 101호","indutype":"음료식품 - 정육점","category":"food"}]},{"lat":"37.306759823","long":"126.81651723","imageIndex":7,"items":[{"name":"낙원떡마당","tel":"031-410-1335","addr":"경기도 안산시 단원구 초지동 733-5번지 한남타운 101호","indutype":"음료식품 - 기타음료식품","category":"food"}]},{"lat":"37.303173711","long":"126.81085262","imageIndex":7,"items":[{"name":"농업회사법인 양촌종합농산 주식회사","tel":"031-111-1111","addr":"경기도 안산시 단원구 초지동 742-2번지 키즈타워2 1층 101호","indutype":"음료식품 - 농·축·수산품","category":"food"},{"name":"주식회사 산천","tel":"031-418-9973","addr":"경기도 안산시 단원구 초지동 742-2번지 키즈타워2 108호","indutype":"음료식품 - 농·축·수산품","category":"food"},{"name":"푸드에프앤원","tel":"031-000-0000","addr":"경기도 안산시 단원구 초지동 742-2번지 키즈타워2 1층 114호","indutype":"음료식품 - 기타음료식품","category":"food"}]},{"lat":"37.315336584","long":"126.81590944","imageIndex":7,"items":[{"name":"다영이네","tel":"031-475-8833","addr":"경기도 안산시 단원구 초지동 695-11번지 102호","indutype":"음료식품 - 기타음료식품","category":"food"}]},{"lat":"37.309316807","long":"126.81530394","imageIndex":7,"items":[{"name":"다와점핑다이어트클럽","tel":"031-497-5279","addr":"경기도 안산시 단원구 초지동 726-3번지 대일타운 402호","indutype":"건강식품 - 기타건강식품","category":"food"},{"name":"오레시피","tel":"031-410-5330","addr":"경기도 안산시 단원구 초지동 726-3번지 대일타운 104호","indutype":"음료식품 - 기타음료식품","category":"food"}]},{"lat":"37.314229649","long":"126.81674697","imageIndex":7,"items":[{"name":"다진미","tel":"031-413-9872","addr":"경기도 안산시 단원구 초지동 706-6번지 103호","indutype":"음료식품 - 기타음료식품","category":"food"},{"name":"앙금플라워꽃그린아뜰리에","tel":"031-421-3003","addr":"경기도 안산시 단원구 초지동 706-6번지 1층 103호","indutype":"음료식품 - 제과점","category":"food"}]},{"lat":"37.30015009","long":"126.81321757","imageIndex":7,"items":[{"name":"단원상조구내식당","tel":"031-475-5177","addr":"경기도 안산시 단원구 초지동 745-2번지 동의성병원&제이씨팜빌딩 지하2층","indutype":"음료식품 - 기타음료식품","category":"food"},{"name":"편의점","tel":"031-8040-5562","addr":"경기도 안산시 단원구 초지동 745-2번지 단원병원매점 1층","indutype":"음료식품 - 기타음료식품","category":"food"}]},{"lat":"37.30147909","long":"126.81604526","imageIndex":7,"items":[{"name":"대가떡집","tel":"031-411-3113","addr":"경기도 안산시 단원구 초지동 741번지 행복한마을 102호","indutype":"음료식품 - 제과점","category":"food"}]},{"lat":"37.325060027","long":"126.80569724","imageIndex":7,"items":[{"name":"대덕상회","tel":"031-486-5240","addr":"경기도 안산시 단원구 초지동 604-4번지 시민시장 10동 13호","indutype":"음료식품 - 농·축·수산품","category":"food"},{"name":"속초상회","tel":"031-405-6263","addr":"경기도 안산시 단원구 초지동 604-4번지 안산시민시장 10동 1층 6호","indutype":"음료식품 - 농·축·수산품","category":"food"},{"name":"엄마손반찬","tel":"031-411-1601","addr":"경기도 안산시 단원구 초지동 604-4번지 안산시민시장 10동 22호","indutype":"음료식품 - 기타음료식품","category":"food"}]},{"lat":"37.301788785","long":"126.8124916","imageIndex":7,"items":[{"name":"대한미트","tel":"031-483-9555","addr":"경기도 안산시 단원구 초지동 743-6번지 제일프라자 117호","indutype":"음료식품 - 정육점","category":"food"}]},{"lat":"37.3250863991","long":"126.8053022830","imageIndex":7,"items":[{"name":"동남상회","tel":"","addr":"경기도 안산시 단원구 초지동 604-4번지 안산시민시장","indutype":"도매 및 소매업 - 식품","category":"food"}]},{"lat":"37.306922007","long":"126.81651683","imageIndex":7,"items":[{"name":"두부만드는사람들","tel":"031-405-0777","addr":"경기도 안산시 단원구 초지동 733-4번지 1층 103호","indutype":"음료식품 - 기타음료식품","category":"food"}]},{"lat":"37.307118002","long":"126.81510636","imageIndex":7,"items":[{"name":"떡마루","tel":"031-439-5989","addr":"경기도 안산시 단원구 초지동 735-3번지 한솔프라자 지상 1층 101호","indutype":"음료식품 - 제과점","category":"food"},{"name":"맛샘반찬","tel":"031-414-9993","addr":"경기도 안산시 단원구 초지동 735-3번지","indutype":"음료식품 - 기타음료식품","category":"food"}]},{"lat":"37.31022696","long":"126.81538064","imageIndex":7,"items":[{"name":"떡쟁이","tel":"031-484-4653","addr":"경기도 안산시 단원구 초지동 726번지 포커스프라자 108호","indutype":"음료식품 - 제과점","category":"food"},{"name":"성지축산","tel":"031-482-6669","addr":"경기도 안산시 단원구 초지동 726번지 포커스프라자 1층 111호","indutype":"음료식품 - 정육점","category":"food"},{"name":"홍삼백화점","tel":"031-410-7968","addr":"경기도 안산시 단원구 초지동 726번지 포커스프라자 110호","indutype":"건강식품 - 홍삼제품","category":"food"}]},{"lat":"37.308731878","long":"126.81576787","imageIndex":7,"items":[{"name":"명품청과","tel":"031-487-3500","addr":"경기도 안산시 단원구 초지동 729번지 1층 107호 (21세기타워)","indutype":"음료식품 - 농·축·수산품","category":"food"}]},{"lat":"37.308066441","long":"126.81660424","imageIndex":7,"items":[{"name":"목장이야기","tel":"031-485-0506","addr":"경기도 안산시 단원구 초지동 732-2번지 현대프라자 110동 111호","indutype":"음료식품 - 정육점","category":"food"},{"name":"종로떡집","tel":"031-487-8090","addr":"경기도 안산시 단원구 초지동 732-2번지 현대프라자 109호","indutype":"음료식품 - 기타음료식품","category":"food"}]},{"lat":"37.314031106","long":"126.8165444","imageIndex":7,"items":[{"name":"미소네과일","tel":"","addr":"경기도 안산시 단원구 초지동 714-4번지 101호","indutype":"음료식품 - 농·축·수산품","category":"food"}]},{"lat":"37.303226102","long":"126.80982607","imageIndex":7,"items":[{"name":"민물장어셀프타운","tel":"031-413-2297","addr":"경기도 안산시 단원구 초지동 742번지 프라임아트 117호","indutype":"음료식품 - 농·축·수산품","category":"food"},{"name":"토마토","tel":"031-413-7907","addr":"경기도 안산시 단원구 초지동 742번지 프라임아트 1층 121호","indutype":"음료식품 - 기타음료식품","category":"food"}]},{"lat":"37.302425921","long":"126.81088835","imageIndex":7,"items":[{"name":"민성푸드","tel":"","addr":"경기도 안산시 단원구 초지동 743-2번지 신명트윈타워 A동 208호","indutype":"음료식품 - 정육점","category":"food"},{"name":"소이바이오틱스(SoyMiotics)","tel":"070-8837-9600","addr":"경기도 안산시 단원구 초지동 743-2번지 신명트윈타워 B동 421호","indutype":"음료식품 - 기타음료식품","category":"food"},{"name":"정관장초지점","tel":"031-403-8448","addr":"경기도 안산시 단원구 초지동 743-2번지 외1필지 태영타운 124호","indutype":"건강식품 - 홍삼제품","category":"food"},{"name":"정관장초지점","tel":"031-403-8448","addr":"경기도 안산시 단원구 초지동 743-2번지 외1필지 태영타운 124호","indutype":"건강식품 - 홍삼제품","category":"food"}]},{"lat":"37.308705738","long":"126.81633194","imageIndex":7,"items":[{"name":"베스킨라빈스안산고잔점","tel":"031-405-3133","addr":"경기도 안산시 단원구 초지동 729-1번지 신명프라자 1층 115호","indutype":"음료식품 - 제과점","category":"food"}]},{"lat":"37.308758087","long":"126.81524893","imageIndex":7,"items":[{"name":"베스킨라빈스초지점","tel":"031-475-1012","addr":"경기도 안산시 단원구 초지동 726-5번지 주공프라자 113동 114호","indutype":"음료식품 - 제과점","category":"food"},{"name":"세계과자","tel":"031-439-1808","addr":"경기도 안산시 단원구 초지동 726-5번지 주공프라자 115호","indutype":"음료식품 - 기타음료식품","category":"food"},{"name":"효소가와","tel":"031-507-5078","addr":"경기도 안산시 단원구 초지동 726-5번지 주공프라자 506호","indutype":"음료식품 - 기타음료식품","category":"food"}]},{"lat":"37.301673299","long":"126.81351828","imageIndex":7,"items":[{"name":"비케이(BK)건강식품","tel":"031-475-3582","addr":"경기도 안산시 단원구 초지동 742-9번지 메가쇼핑타운 16층","indutype":"건강식품 - 기타건강식품","category":"food"}]},{"lat":"37.315697258","long":"126.81607776","imageIndex":7,"items":[{"name":"사랑N","tel":"031-475-5491","addr":"경기도 안산시 단원구 초지동 687-2번지 201호","indutype":"음료식품 - 기타음료식품","category":"food"}]},{"lat":"37.325220986","long":"126.80496345","imageIndex":7,"items":[{"name":"서울정육점","tel":"031-495-9166","addr":"경기도 안산시 단원구 초지동 604-4 시민시장3동29호","indutype":"음료식품 - 정육점","category":"food"}]},{"lat":"37.304605212","long":"126.81016093","imageIndex":7,"items":[{"name":"서원캐터링","tel":"031-411-4516","addr":"경기도 안산시 단원구 초지동 738번지 그린빌주공18단지 1824동 901호","indutype":"음료식품 - 기타음료식품","category":"food"}]},{"lat":"37.313535777","long":"126.81669228","imageIndex":7,"items":[{"name":"세모안산","tel":"031-493-8803","addr":"경기도 안산시 단원구 초지동 715-6번지 1층","indutype":"건강식품 - 기타건강식품","category":"food"}]},{"lat":"37.302364637","long":"126.81199386","imageIndex":7,"items":[{"name":"소리바이오","tel":"031-658-4511","addr":"경기도 안산시 단원구 초지동 743-4번지 태영타운 310호","indutype":"건강식품 - 기타건강식품","category":"food"},{"name":"주식회사 한승푸드","tel":"031-484-8871","addr":"경기도 안산시 단원구 초지동 743-4번지 태영타운 150호","indutype":"음료식품 - 기타음료식품","category":"food"},{"name":"쭈앤닭","tel":"031-504-2585","addr":"경기도 안산시 단원구 초지동 743-4번지 외1필지 태영타운 1층 113호","indutype":"음료식품 - 기타음료식품","category":"food"}]},{"lat":"37.30314754","long":"126.81138281","imageIndex":7,"items":[{"name":"스위트밀 (주)","tel":"02-3677-8900","addr":"경기도 안산시 단원구 초지동 742-3번지 다인프라자 603호","indutype":"음료식품 - 기타음료식품","category":"food"},{"name":"스위트밀(주)","tel":"02-3677-7919","addr":"경기도 안산시 단원구 초지동 742-3번지 다인프라자 603호","indutype":"음료식품 - 기타음료식품","category":"food"},{"name":"스위트밀(주)","tel":"031-2120-7910","addr":"경기도 안산시 단원구 초지동 742-3번지 다인프라자 603호","indutype":"음료식품 - 기타음료식품","category":"food"},{"name":"스위트밀(주)","tel":"02-2120-7910","addr":"경기도 안산시 단원구 초지동 742-3번지 다인프라자 603호","indutype":"음료식품 - 기타음료식품","category":"food"}]},{"lat":"37.307201375","long":"126.81654998","imageIndex":7,"items":[{"name":"신남부정육점","tel":"031-410-6828","addr":"경기도 안산시 단원구 초지동 733-3번지 아성프라자 103호","indutype":"음료식품 - 정육점","category":"food"}]},{"lat":"37.311617961","long":"126.80638662","imageIndex":7,"items":[{"name":"신안산대학교 사회과학관매점","tel":"","addr":"경기도 안산시 단원구 초지동 671번지 신안산대학교 사회과학관","indutype":"음료식품 - 기타음료식품","category":"food"}]},{"lat":"37.309037438","long":"126.81527079","imageIndex":7,"items":[{"name":"쌀눈쌀현미누룽지","tel":"031-405-7579","addr":"경기도 안산시 단원구 초지동 726-4번지 미강프라자 102호","indutype":"음료식품 - 기타음료식품","category":"food"}]},{"lat":"37.315314694","long":"126.81919228","imageIndex":7,"items":[{"name":"씨앤씨커피","tel":"031-482-3101","addr":"경기도 안산시 단원구 초지동 692번지 101호","indutype":"음료식품 - 기타음료식품","category":"food"}]},{"lat":"37.311148522","long":"126.81132867","imageIndex":7,"items":[{"name":"아가페","tel":"031-410-0151","addr":"경기도 안산시 단원구 초지동 724-2번지","indutype":"음료식품 - 기타음료식품","category":"food"}]},{"lat":"37.3043445254","long":"126.8161622459","imageIndex":7,"items":[{"name":"아리따움안산호수마을점","tel":"031-480-2171","addr":"경기도 안산시 단원구 초지동 740-2번지","indutype":"도매 및 소매업 - 화장품,건강식품","category":"food"}]},{"lat":"37.32744749","long":"126.80555561","imageIndex":7,"items":[{"name":"아싸비어 안산점","tel":"031-222-4425","addr":"경기도 안산시 단원구 초지동 801번지 롯데캐슬더퍼스트 상가 104호","indutype":"음료식품 - 기타음료식품","category":"food"}]},{"lat":"37.314836366","long":"126.8186858","imageIndex":7,"items":[{"name":"아티소몰 (atisomall)","tel":"031-405-4556","addr":"경기도 안산시 단원구 초지동 699-6번지 201호","indutype":"건강식품 - 기타건강식품","category":"food"}]},{"lat":"37.331085478","long":"126.81532882","imageIndex":7,"items":[{"name":"안산시다문화가족지원센터","tel":"031-599-1710","addr":"경기도 안산시 단원구 초지동 667-2번지","indutype":"음료식품 - 기타음료식품","category":"food"}]},{"lat":"37.309733066","long":"126.81080209","imageIndex":7,"items":[{"name":"영진","tel":"","addr":"경기도 안산시 단원구 초지동 725-1번지","indutype":"음료식품 - 기타음료식품","category":"food"},{"name":"초지고등학교 매점","tel":"","addr":"경기도 안산시 단원구 초지동 725-1번지 초지고등학교 1층","indutype":"음료식품 - 기타음료식품","category":"food"},{"name":"초지고등학교매점","tel":"070-7725-0406","addr":"경기도 안산시 단원구 초지동 725-1번지","indutype":"음료식품 - 기타음료식품","category":"food"}]},{"lat":"37.304419368","long":"126.79614107","imageIndex":7,"items":[{"name":"월드플렉스","tel":"031-692-3887","addr":"경기도 안산시 단원구 초지동 645번지 (주)성보산업 301호","indutype":"음료식품 - 기타음료식품","category":"food"}]},{"lat":"37.299562287","long":"126.81188816","imageIndex":7,"items":[{"name":"월드휴먼브리지카페파구스안산빛나점","tel":"031-496-3888","addr":"경기도 안산시 단원구 초지동 745-4번지","indutype":"음료식품 - 기타음료식품","category":"food"}]},{"lat":"37.313952684","long":"126.81824801","imageIndex":7,"items":[{"name":"이천농산","tel":"031-413-8265","addr":"경기도 안산시 단원구 초지동 712-1번지 102호","indutype":"음료식품 - 미곡상","category":"food"}]},{"lat":"37.3248976","long":"126.80555099","imageIndex":7,"items":[{"name":"인천상회","tel":"","addr":"경기도 안산시 단원구 초지동 604-4번지 안산시민시장 9동 29호","indutype":"음료식품 - 농·축·수산품","category":"food"},{"name":"풍년쌀상회","tel":"031-494-6655","addr":"경기도 안산시 단원구 초지동 604-4번지 안산시민시장 9동 23호","indutype":"음료식품 - 미곡상","category":"food"}]},{"lat":"37.31319655","long":"126.81871237","imageIndex":7,"items":[{"name":"장흥축산","tel":"031-415-2622","addr":"경기도 안산시 단원구 초지동 720-4번지 1층","indutype":"음료식품 - 정육점","category":"food"}]},{"lat":"37.325258533","long":"126.80586596","imageIndex":7,"items":[{"name":"전라도가축","tel":"031-402-1510","addr":"경기도 안산시 단원구 초지동 604-4번지 안산시민시장 12동 28호","indutype":"음료식품 - 정육점","category":"food"},{"name":"충남가축","tel":"031-482-4195","addr":"경기도 안산시 단원구 초지동 604-4시민시장12동32","indutype":"음료식품 - 정육점","category":"food"}]},{"lat":"37.308092957","long":"126.81627706","imageIndex":7,"items":[{"name":"주식회사 서하유통","tel":"031-413-5401","addr":"경기도 안산시 단원구 초지동 732-1번지 아트프라자 205호","indutype":"음료식품 - 기타음료식품","category":"food"}]},{"lat":"37.313899484","long":"126.8188009","imageIndex":7,"items":[{"name":"주식회사라이프유통","tel":"031-1600-0392","addr":"경기도 안산시 단원구 초지동 712-4번지 1층 101호","indutype":"음료식품 - 기타음료식품","category":"food"}]},{"lat":"37.299428572","long":"126.79153047","imageIndex":7,"items":[{"name":"주식회사진로발효","tel":"031-491-7038","addr":"경기도 안산시 단원구 초지동 650번지","indutype":"음료식품 - 기타음료식품","category":"food"}]},{"lat":"37.314673322","long":"126.81813343","imageIndex":7,"items":[{"name":"주주르 (JuJur)","tel":"031-405-5482","addr":"경기도 안산시 단원구 초지동 702번지 1층 102호","indutype":"음료식품 - 기타음료식품","category":"food"}]},{"lat":"37.307534805","long":"126.81658299","imageIndex":7,"items":[{"name":"진이찬방(초지점)","tel":"031-1111-1111","addr":"경기도 안산시 단원구 초지동 733-1번지 한남메디컬 111호","indutype":"음료식품 - 기타음료식품","category":"food"},{"name":"진이찬방(초지점)","tel":"031-413-6727","addr":"경기도 안산시 단원구 초지동 733-1번지 한남메디칼 111호","indutype":"음료식품 - 기타음료식품","category":"food"}]},{"lat":"37.3063723499","long":"126.8164956238","imageIndex":7,"items":[{"name":"참다한홍삼 고잔점","tel":"031-405-9553","addr":"경기도 안산시 단원구 초지동 733-7번지","indutype":"도매 및 소매업 - 건강기능식품","category":"food"}]},{"lat":"37.30637235","long":"126.81649562","imageIndex":7,"items":[{"name":"참다한흑홍삼고잔점","tel":"031-405-9553","addr":"경기도 안산시 단원구 초지동 733-7번지 풍림타운 107호","indutype":"건강식품 - 홍삼제품","category":"food"},{"name":"코코호도전문점","tel":"031-481-8110","addr":"경기도 안산시 단원구 초지동 733-7번지 풍림타운 108호","indutype":"음료식품 - 제과점","category":"food"},{"name":"토우축산물도매센타","tel":"070-8942-2060","addr":"경기도 안산시 단원구 초지동 733-7번지 풍림타운 106호","indutype":"음료식품 - 정육점","category":"food"},{"name":"파리바게트 안산풍림점","tel":"031-411-8203","addr":"경기도 안산시 단원구 초지동 733-7번지 (1층104,105)","indutype":"음료식품 - 제과점","category":"food"},{"name":"힐링엔젤스","tel":"031-475-7782","addr":"경기도 안산시 단원구 초지동 733-7번지 풍림타운 401호","indutype":"건강식품 - 기타건강식품","category":"food"}]},{"lat":"37.313231818","long":"126.81821593","imageIndex":7,"items":[{"name":"참한삼 경기총판","tel":"031-402-8436","addr":"경기도 안산시 단원구 초지동 720-1번지 102호","indutype":"건강식품 - 홍삼제품","category":"food"}]},{"lat":"37.3250600274","long":"126.8056972400","imageIndex":7,"items":[{"name":"풍년방앗간","tel":"031-401-7709","addr":"경기도 안산시 단원구 초지동 604-4번지","indutype":"제조업 - 가공식품","category":"food"}]},{"lat":"37.308119097","long":"126.81571299","imageIndex":7,"items":[{"name":"프렌드유 베이커리","tel":"031-411-7396","addr":"경기도 안산시 단원구 초지동 732번지 로얄프라자,107,108호","indutype":"음료식품 - 제과점","category":"food"}]},{"lat":"37.314065972","long":"126.81579978","imageIndex":7,"items":[{"name":"한국야쿠르트호수점","tel":"031-486-5559","addr":"경기도 안산시 단원구 초지동 714번지","indutype":"음료식품 - 기타음료식품","category":"food"}]},{"lat":"37.319589131","long":"126.81574096","imageIndex":7,"items":[{"name":"한울","tel":"031-8085-7407","addr":"경기도 안산시 단원구 초지동 666번지 와스타디움 매점","indutype":"음료식품 - 기타음료식품","category":"food"}]},{"lat":"37.314089993","long":"126.81963522","imageIndex":7,"items":[{"name":"행복축산","tel":"070-4007-7877","addr":"경기도 안산시 단원구 초지동 709-8번지 102호","indutype":"음료식품 - 정육점","category":"food"}]},{"lat":"37.313144222","long":"126.81982929","imageIndex":7,"items":[{"name":"허니베이킹","tel":"","addr":"경기도 안산시 단원구 초지동 719-5번지 203호","indutype":"음료식품 - 제과점","category":"food"}]},{"lat":"37.3102269600","long":"126.8153806396","imageIndex":7,"items":[{"name":"홍삼백화점","tel":"031-410-7968","addr":"경기도 안산시 단원구 초지동 726번지","indutype":"도매 및 소매업 - 건강기능식품,잡화","category":"food"}]},{"lat":"37.325506583","long":"126.81432725","imageIndex":7,"items":[{"name":"화랑 1호점 매점","tel":"","addr":"경기도 안산시 단원구 초지동 667번지 화랑유원지 내","indutype":"음료식품 - 기타음료식품","category":"food"},{"name":"화랑유원지 2호점 매점","tel":"","addr":"경기도 안산시 단원구 초지동 667번지 화랑유원지내 2호 매점","indutype":"음료식품 - 기타음료식품","category":"food"}]}]