[{"lat":"37.236292461","long":"126.86385277","items":[{"name":"(주)마루금","tel":"031-357-7157","addr":"경기도 화성시 비봉면 삼화리 544-1번지","category":"문화.취미 - 화원"},{"name":"바이오테크","tel":"","addr":"경기도 화성시 비봉면 삼화리 544-1번지 2층 2호","category":"문화.취미 - 화원"},{"name":"삼백식당","tel":"031-355-7710","addr":"경기도 화성시 비봉면 삼화리 544-1번지","category":"일반휴게음식 - 일반한식"}]},{"lat":"37.244075585","long":"126.85493482","items":[{"name":"153중고성구사","tel":"031-357-8153","addr":"경기도 화성시 비봉면 삼화리 692","category":"신변잡화 - 기타잡화"}]},{"lat":"37.236960621","long":"126.86504609","items":[{"name":"금성HS","tel":"031-355-9675","addr":"경기도 화성시 비봉면 삼화리 543-11,541-16","category":"용역 서비스 - 기타용역서비스"}]},{"lat":"37.241042016","long":"126.85012847","items":[{"name":"농업회사법인 주식회사 한들이엔지","tel":"070-8849-0772","addr":"경기도 화성시 비봉면 삼화리 1709","category":"농업 - 농기계"},{"name":"야목농장","tel":"031-245-3475","addr":"경기도 화성시 비봉면 삼화리 1709번지 1층","category":"문화.취미 - 화원"}]},{"lat":"37.244236414","long":"126.85385254","items":[{"name":"다모링 영농조합법인","tel":"031-502-1640","addr":"경기도 화성시 비봉면 삼화리 696번지","category":"건강식품 - 기타건강식품"}]},{"lat":"37.236602073","long":"126.86665826","items":[{"name":"맥코윈치킨","tel":"031-366-7112","addr":"경기도 화성시 비봉면 삼화리 539-14번지 1동 1층","category":"일반휴게음식 - 스넥"}]},{"lat":"37.236292236","long":"126.86366119","items":[{"name":"박가유통","tel":"070-8202-0503","addr":"경기도 화성시 비봉면 삼화리 544-8번지","category":"의류 - 내의판매"},{"name":"인사동설농탕","tel":"031-355-5524","addr":"경기도 화성시 비봉면 삼화리 544-8번지","category":"일반휴게음식 - 일반한식"}]},{"lat":"37.266013357","long":"126.8530994","items":[{"name":"비봉육묘장","tel":"","addr":"경기도 화성시 비봉면 삼화리 85-669번지","category":"음료식품 - 농·축·수산품"}]},{"lat":"37.253934591","long":"126.85632453","items":[{"name":"비봉자연주말농장","tel":"031-356-9999","addr":"경기도 화성시 비봉면 삼화리 1061","category":"음료식품 - 농·축·수산품"}]},{"lat":"37.258955175","long":"126.85782534","items":[{"name":"비봉자연주말농장","tel":"031-356-8622","addr":"경기도 화성시 비봉면 삼화리 61번지","category":"음료식품 - 농·축·수산품"}]},{"lat":"37.236659113","long":"126.86927264","items":[{"name":"비봉초등학교병설유치원[아이행복]","tel":"031-356-2085","addr":"경기도 화성시 비봉면 삼화리 537번지 비봉초등학교","category":"학원 - 유치원"}]},{"lat":"37.237818713","long":"126.85924073","items":[{"name":"비봉푸드","tel":"031-356-2272","addr":"경기도 화성시 비봉면 삼화리 600번지 1층","category":"일반휴게음식 - 일반한식"}]},{"lat":"37.236409992","long":"126.86419063","items":[{"name":"삼화떡방아간","tel":"031-356-0867","addr":"경기도 화성시 비봉면 삼화리 544-4번지","category":"음료식품 - 제과점"}]},{"lat":"37.236408707","long":"126.86309751","items":[{"name":"시원에어컨","tel":"","addr":"경기도 화성시 비봉면 삼화리 544-3번지 102호","category":"전기제품 - 냉열기기"}]},{"lat":"37.24107401","long":"126.86137585","items":[{"name":"안골농원","tel":"031-355-5752","addr":"경기도 화성시 비봉면 삼화리 573","category":"일반휴게음식 - 일반한식"}]},{"lat":"37.236546722","long":"126.8655427","items":[{"name":"옛날짜장","tel":"031-356-2706","addr":"경기도 화성시 비봉면 삼화리 542-4번지 A동 1층","category":"일반휴게음식 - 중국식"}]},{"lat":"37.251654263","long":"126.85574283","items":[{"name":"전원애견카페","tel":"031-357-3126","addr":"경기도 화성시 비봉면 삼화리 1048번지","category":"문화.취미 - 애완동물"}]},{"lat":"37.240044367","long":"126.85932667","items":[{"name":"주식회사 부안전기","tel":"031-355-8834","addr":"경기도 화성시 비봉면 삼화리 621-11번지","category":"용역 서비스 - 종합용역"}]},{"lat":"37.246344268","long":"126.85340883","items":[{"name":"주식회사 빅포유","tel":"050-5898-8080","addr":"경기도 화성시 비봉면 삼화리 711-4번지","category":"기타 - 기계공구"}]},{"lat":"37.247933254","long":"126.8488522","items":[{"name":"풍천가스충전소","tel":"031-355-9669","addr":"경기도 화성시 비봉면 삼화리 773-1번지","category":"연료판매점 - SK가스충전소"}]},{"lat":"37.248317384","long":"126.86060715","items":[{"name":"하루버섯농원","tel":"031-111-1111","addr":"경기도 화성시 비봉면 삼화리 962-1번지","category":"음료식품 - 농·축·수산품"},{"name":"하루버섯농원","tel":"03-111-1111","addr":"경기도 화성시 비봉면 삼화리 962-1번지","category":"음료식품 - 농·축·수산품"}]},{"lat":"37.237289275","long":"126.86877568","items":[{"name":"한울(Edu&E) 네트워크","tel":"","addr":"경기도 화성시 비봉면 삼화리 537-5번지 중앙그린빌라 C동 402호","category":"용역 서비스 - 사무서비스"}]},{"lat":"37.245322094","long":"126.85026635","items":[{"name":"향기농원","tel":"031-357-7511","addr":"경기도 화성시 비봉면 삼화리 757","category":"문화.취미 - 화원"}]},{"lat":"37.252683053","long":"126.85704835","items":[{"name":"호현인테리어","tel":"031-409-7194","addr":"경기도 화성시 비봉면 삼화리 1037-8번지","category":"건축자재 - 인테리어전문"}]},{"lat":"37.260426851","long":"126.85299773","items":[{"name":"화성대어 낚시터","tel":"031-355-7350","addr":"경기도 화성시 비봉면 삼화리 15-1번지","category":"레저업소 - 기타레져업소"}]}]