[{"lat":"37.681345587","long":"126.78879657","items":[{"name":"OUR골프","tel":"031-976-5004","addr":"경기도 고양시 일산동구 성석로","category":"회원제형태 - 레져업소"}]},{"lat":"37.685820609","long":"126.79226415","items":[{"name":"고봉산재래한증막","tel":"031-975-2535","addr":"경기도 고양시 일산동구 성석로","category":"보건위생 - 사우나"}]},{"lat":"37.684740004","long":"126.7925733","items":[{"name":"우담골한우가마솥국밥","tel":"031-975-1177","addr":"경기도 고양시 일산동구 성석로","category":"일반휴게음식 - 일반한식"}]},{"lat":"37.695766899","long":"126.79717958","items":[{"name":"주식회사 카맥스","tel":"031-911-4989","addr":"경기도 고양시 일산동구 성석로","category":"자동차판매 - 중고자동차판매"}]},{"lat":"37.682102536","long":"126.78887375","items":[{"name":"포소바","tel":"031-976-9171","addr":"경기도 고양시 일산동구 성석로","category":"자동차정비 유지 - 카인테리어"}]},{"lat":"37.682238338","long":"126.78923613","items":[{"name":"하이디(Hi-D)","tel":"031-811-0334","addr":"경기도 고양시 일산동구 성석로","category":"건축자재 - 인테리어전문"}]},{"lat":"37.693045117","long":"126.79667689","items":[{"name":"한라상사","tel":"031-976-8288","addr":"경기도 고양시 일산동구 성석로","category":"자동차정비 유지 - 자동차부품"}]}]