[{"lat":"37.331894197","long":"127.12279228","imageIndex":13,"items":[{"name":"(단)헤어","tel":"031-889-3305","addr":"경기도 용인시 수지구 죽전동 1177-4번지 105호 에메랄드존","indutype":"보건위생 - 미용원","category":"beauty"},{"name":"케리헤어","tel":"031-898-2460","addr":"경기도 용인시 수지구 죽전동 1177-4번지 에메랄드존 1층 207호","indutype":"보건위생 - 미용원","category":"beauty"}]},{"lat":"37.323756917","long":"127.12385118","imageIndex":13,"items":[{"name":"(주)미플 죽전점","tel":"031-889-4567","addr":"경기도 용인시 수지구 죽전동 1328-1번지 보람프라자 302호","indutype":"보건위생 - 피부미용실","category":"beauty"},{"name":"마리하우스","tel":"031-261-1543","addr":"경기도 용인시 수지구 죽전동 1328-1번지 보람프라자 102호","indutype":"보건위생 - 화장품","category":"beauty"},{"name":"터치맨","tel":"031-898-2220","addr":"경기도 용인시 수지구 죽전동 1328-1번지 보람프라자 104호","indutype":"보건위생 - 미용원","category":"beauty"}]},{"lat":"37.32681731","long":"127.10821813","imageIndex":13,"items":[{"name":"(주)정원에스와이","tel":"070-7435-2212","addr":"경기도 용인시 수지구 죽전동 1003-111번지 죽전테이스티에비뉴 302호","indutype":"보건위생 - 화장품","category":"beauty"}]},{"lat":"37.331427281","long":"127.12118929","imageIndex":13,"items":[{"name":"712네일","tel":"031-362-6000","addr":"경기도 용인시 수지구 죽전동 1205-3번지 삼성프라자 106호","indutype":"보건위생 - 피부미용실","category":"beauty"},{"name":"롯폰기힐즈헤어살롱","tel":"031-889-1137","addr":"경기도 용인시 수지구 죽전동 1205-3번지 삼성프라자 109호","indutype":"보건위생 - 미용원","category":"beauty"},{"name":"수지 렘포레","tel":"031-897-8887","addr":"경기도 용인시 수지구 죽전동 1205-3번지 703호 704호","indutype":"보건위생 - 기타대인서비스","category":"beauty"},{"name":"태후사랑 죽전1호점","tel":"031-898-1123","addr":"경기도 용인시 수지구 죽전동 1205-3번지 삼성프라자 104호","indutype":"보건위생 - 이용원","category":"beauty"}]},{"lat":"37.328674745","long":"127.11651378","imageIndex":13,"items":[{"name":"JR코스메틱","tel":"070-7748-2021","addr":"경기도 용인시 수지구 죽전동 1115번지 도담마을롯데캐슬 301동 1704호","indutype":"보건위생 - 화장품","category":"beauty"}]},{"lat":"37.327398575","long":"127.11304802","imageIndex":13,"items":[{"name":"Reborn왁싱앤브로우","tel":"","addr":"경기도 용인시 수지구 죽전동 1084-2번지 4층","indutype":"보건위생 - 피부미용실","category":"beauty"}]},{"lat":"37.326150214","long":"127.11824751","imageIndex":13,"items":[{"name":"SMC챠밍클럽","tel":"031-262-4074","addr":"경기도 용인시 수지구 죽전동 1259-1번지 그랜드프라자 2층 203호","indutype":"보건위생 - 미용재료","category":"beauty"}]},{"lat":"37.331708489","long":"127.12810653","imageIndex":13,"items":[{"name":"TOP","tel":"031-896-1369","addr":"경기도 용인시 수지구 죽전동 1375-4번지 105호","indutype":"보건위생 - 화장품","category":"beauty"},{"name":"헤어플레이","tel":"031-261-4060","addr":"경기도 용인시 수지구 죽전동 1375-4번지 현대프라자 2층","indutype":"보건위생 - 미용원","category":"beauty"}]},{"lat":"37.331817231","long":"127.12751996","imageIndex":13,"items":[{"name":"가온안경원","tel":"031-262-8010","addr":"경기도 용인시 수지구 죽전동 1188-5번지 에이스프라자 107호","indutype":"보건위생 - 안경","category":"beauty"},{"name":"마니스헤어","tel":"","addr":"경기도 용인시 수지구 죽전동 1188-5번지 에이스프라자 112호","indutype":"보건위생 - 미용원","category":"beauty"},{"name":"아리(Ari)","tel":"031-214-2451","addr":"경기도 용인시 수지구 죽전동 1188-5번지 에이스프라자 108호","indutype":"보건위생 - 미용원","category":"beauty"},{"name":"트원클","tel":"031-898-0552","addr":"경기도 용인시 수지구 죽전동 1188-5번지 에이스프라자 101호","indutype":"보건위생 - 미용원","category":"beauty"}]},{"lat":"37.336370408","long":"127.10560225","imageIndex":13,"items":[{"name":"강남김수진미용실","tel":"031-261-1999","addr":"경기도 용인시 수지구 죽전동 832벽산타운1단지상가201","indutype":"보건위생 - 미용원","category":"beauty"},{"name":"올가드림뷰티","tel":"031-261-6643","addr":"경기도 용인시 수지구 죽전동 832번지 벽산타운1단지 108호","indutype":"보건위생 - 화장품","category":"beauty"}]},{"lat":"37.327929163","long":"127.11413196","imageIndex":13,"items":[{"name":"건강미인만들기","tel":"031-896-7003","addr":"경기도 용인시 수지구 죽전동 484-12번지 311호 죽전위드어반","indutype":"보건위생 - 화장품","category":"beauty"}]},{"lat":"37.33420639","long":"127.12612471","imageIndex":13,"items":[{"name":"건강창조","tel":"031-901-1245","addr":"경기도 용인시 수지구 죽전동 1182번지 내대지마을건영캐스빌 801동 201호","indutype":"보건위생 - 화장품","category":"beauty"}]},{"lat":"37.331454672","long":"127.12082826","imageIndex":13,"items":[{"name":"그레이스 헤어(GRACE HAIR)","tel":"031-262-2644","addr":"경기도 용인시 수지구 죽전동 1205-2번지 삼성프라자 1층 111호","indutype":"보건위생 - 미용원","category":"beauty"}]},{"lat":"37.331902105","long":"127.12387552","imageIndex":13,"items":[{"name":"글램아이","tel":"031-000-0000","addr":"경기도 용인시 수지구 죽전동 1178-3번지 C.H리베로II 305호","indutype":"보건위생 - 미용원","category":"beauty"},{"name":"메디써브","tel":"031-262-9956","addr":"경기도 용인시 수지구 죽전동 1178-3씨.에이치리베로501","indutype":"보건위생 - 의료용품","category":"beauty"},{"name":"샤보이","tel":"031-896-0031","addr":"경기도 용인시 수지구 죽전동 1178-3번지 CH리베로 2107호","indutype":"보건위생 - 미용원","category":"beauty"},{"name":"이니스프리","tel":"031-889-2515","addr":"경기도 용인시 수지구 죽전동 1178-3번지 C.H리베로II 1층 101호","indutype":"보건위생 - 화장품","category":"beauty"},{"name":"킴스헤어","tel":"","addr":"경기도 용인시 수지구 죽전동 1178-3번지 씨에이치리베로투 108호","indutype":"보건위생 - 미용원","category":"beauty"},{"name":"힐링","tel":"031-897-8865","addr":"경기도 용인시 수지구 죽전동 1178-3번지 에이치리베로투 403호 죽전동,씨","indutype":"보건위생 - 피부미용실","category":"beauty"}]},{"lat":"37.323315901","long":"127.12337661","imageIndex":13,"items":[{"name":"글로리네일","tel":"031-889-5897","addr":"경기도 용인시 수지구 죽전동 1325-4번지 1층","indutype":"보건위생 - 피부미용실","category":"beauty"}]},{"lat":"37.333256691","long":"127.11143171","imageIndex":13,"items":[{"name":"글로벌","tel":"031-276-2620","addr":"경기도 용인시 수지구 죽전동 589-24번지 중앙프라자 305호","indutype":"보건위생 - 화장품","category":"beauty"},{"name":"베쎄베제","tel":"031-276-2620","addr":"경기도 용인시 수지구 죽전동 589-24번지 중앙프라자 207호","indutype":"보건위생 - 화장품","category":"beauty"},{"name":"올디브헤어","tel":"031-261-3888","addr":"경기도 용인시 수지구 죽전동 589-24번지 중앙프라자 113호","indutype":"보건위생 - 미용원","category":"beauty"}]},{"lat":"37.331874241","long":"127.12468789","imageIndex":13,"items":[{"name":"꽃피는봄이오면","tel":"031-898-1117","addr":"경기도 용인시 수지구 죽전동 1189-2번지 동산프라자 107호","indutype":"보건위생 - 미용원","category":"beauty"},{"name":"메모네일","tel":"031-261-9386","addr":"경기도 용인시 수지구 죽전동 1189-2번지 동산프라자 103호","indutype":"보건위생 - 피부미용실","category":"beauty"}]},{"lat":"37.332763666","long":"127.10863265","imageIndex":13,"items":[{"name":"나무헤어살롱","tel":"031-889-8908","addr":"경기도 용인시 수지구 죽전동 876-6번지 코디클럽상가 1층 107호","indutype":"보건위생 - 미용원","category":"beauty"}]},{"lat":"37.331872628","long":"127.12624501","imageIndex":13,"items":[{"name":"나인원뷰티","tel":"031-889-9182","addr":"경기도 용인시 수지구 죽전동 1188-1번지 건영타운 104호","indutype":"보건위생 - 피부미용실","category":"beauty"},{"name":"바르다코리아","tel":"031-896-4141","addr":"경기도 용인시 수지구 죽전동 1188-1번지 건영타운 114호","indutype":"보건위생 - 미용재료","category":"beauty"},{"name":"헤어팡팡","tel":"031-898-0664","addr":"경기도 용인시 수지구 죽전동 1188-1번지 건영타운빌딩 207,208호","indutype":"보건위생 - 미용원","category":"beauty"}]},{"lat":"37.327092439","long":"127.11282191","imageIndex":13,"items":[{"name":"네모안경","tel":"031-264-4523","addr":"경기도 용인시 수지구 죽전동 452-6번지 그린피아 112호","indutype":"보건위생 - 안경","category":"beauty"},{"name":"새생명의료기","tel":"031-897-7585","addr":"경기도 용인시 수지구 죽전동 452-6번지 그린피아 204호","indutype":"보건위생 - 의료용품","category":"beauty"},{"name":"스타스파","tel":"031-265-6642","addr":"경기도 용인시 수지구 죽전동 452-6번지 그린피아 B-101 201호","indutype":"보건위생 - 사우나","category":"beauty"},{"name":"아모레(방문판매원)","tel":"031-706-2374","addr":"경기도 용인시 수지구 죽전동 452-6번지 그린피아빌딩 3층 306호","indutype":"보건위생 - 화장품","category":"beauty"},{"name":"아모레카운셀러","tel":"031-261-7125","addr":"경기도 용인시 수지구 죽전동 452-6번지 그린피아빌딩 3층 306호","indutype":"보건위생 - 화장품","category":"beauty"},{"name":"아모레카운셀러/성양제","tel":"031-261-7125","addr":"경기도 용인시 수지구 죽전동 452-6번지 그린피아빌딩 306호","indutype":"보건위생 - 화장품","category":"beauty"},{"name":"예송장애인가족협회","tel":"031-8005-6382","addr":"경기도 용인시 수지구 죽전동 452-6번지 그린피아 306호","indutype":"보건위생 - 기타대인서비스","category":"beauty"}]},{"lat":"37.326452915","long":"127.11260661","imageIndex":13,"items":[{"name":"네일테라스","tel":"031-263-2333","addr":"경기도 용인시 수지구 죽전동 1488번지 죽전역월드메르디앙 102동 109호","indutype":"보건위생 - 피부미용실","category":"beauty"}]},{"lat":"37.334039256","long":"127.1221638","imageIndex":13,"items":[{"name":"노블헤어","tel":"031-897-5565","addr":"경기도 용인시 수지구 죽전동 1165번지 새터마을죽전힐스테이트 상가동 212호","indutype":"보건위생 - 미용원","category":"beauty"},{"name":"바비라인","tel":"070-8858-6218","addr":"경기도 용인시 수지구 죽전동 1165번지 새터마을죽전힐스테이트아파트 상가동 204호","indutype":"보건위생 - 피부미용실","category":"beauty"}]},{"lat":"37.330172197","long":"127.11466558","imageIndex":13,"items":[{"name":"누벨마리","tel":"031-266-2706","addr":"경기도 용인시 수지구 죽전동 488번지 죽전퍼스트하임 205동 103호","indutype":"보건위생 - 화장품","category":"beauty"}]},{"lat":"37.326930768","long":"127.11226882","imageIndex":13,"items":[{"name":"다모가발","tel":"031-266-6886","addr":"경기도 용인시 수지구 죽전동 451-5번지 죽전빌딩 204호","indutype":"보건위생 - 미용재료","category":"beauty"},{"name":"아이통곡모유육아상담실","tel":"031-262-1772","addr":"경기도 용인시 수지구 죽전동 451-5번지 죽전빌딩 303호","indutype":"보건위생 - 기타대인서비스","category":"beauty"}]},{"lat":"37.331455065","long":"127.12043334","imageIndex":13,"items":[{"name":"다비치안경원 용인죽전점","tel":"031-898-3570","addr":"경기도 용인시 수지구 죽전동 1205-1번지","indutype":"보건위생 - 안경","category":"beauty"}]},{"lat":"37.328622925","long":"127.11415554","imageIndex":13,"items":[{"name":"다이아","tel":"031-262-8551","addr":"경기도 용인시 수지구 죽전동 484-9번지 금강프라자 204호","indutype":"보건위생 - 화장품","category":"beauty"},{"name":"아르뉴네일","tel":"031-261-8090","addr":"경기도 용인시 수지구 죽전동 484-9번지 금강프라자 101-1호","indutype":"보건위생 - 피부미용실","category":"beauty"},{"name":"플랜에이치","tel":"031-272-1530","addr":"경기도 용인시 수지구 죽전동 484-9번지 금강프라자 203호","indutype":"보건위생 - 미용원","category":"beauty"}]},{"lat":"37.321257671","long":"127.12715278","imageIndex":13,"items":[{"name":"단국대학교구내안경원","tel":"031-8005-4070","addr":"경기도 용인시 수지구 죽전동 산44-1 단국대학교혜당관 220","indutype":"보건위생 - 안경","category":"beauty"}]},{"lat":"37.32398092","long":"127.12507003","imageIndex":13,"items":[{"name":"더-에스헤어","tel":"031-265-4488","addr":"경기도 용인시 수지구 죽전동 1335-3번지 단대프라자I 105-1호","indutype":"보건위생 - 미용원","category":"beauty"},{"name":"서울사진치료연구소","tel":"031-889-2755","addr":"경기도 용인시 수지구 죽전동 1335-3번지 단대프라자I7층","indutype":"보건위생 - 기타대인서비스","category":"beauty"},{"name":"와이즈 메디칼","tel":"031-897-8871","addr":"경기도 용인시 수지구 죽전동 1335-3번지 단대프라자1 304호","indutype":"보건위생 - 의료용품","category":"beauty"}]},{"lat":"37.331424554","long":"127.12388603","imageIndex":13,"items":[{"name":"더모멘트(THE MOMENT)","tel":"031-889-9936","addr":"경기도 용인시 수지구 죽전동 1197-2번지 C.H리베로1 107호","indutype":"보건위생 - 미용원","category":"beauty"},{"name":"사와디","tel":"","addr":"경기도 용인시 수지구 죽전동 1197-2번지 C.H리베로I 602호","indutype":"보건위생 - 화장품","category":"beauty"},{"name":"짐아동발달센타","tel":"031-896-3119","addr":"경기도 용인시 수지구 죽전동 1197-2 리베로원501","indutype":"보건위생 - 기타대인서비스","category":"beauty"}]},{"lat":"37.328343949","long":"127.11379408","imageIndex":13,"items":[{"name":"더웰헤어","tel":"031-264-5444","addr":"경기도 용인시 수지구 죽전동 465-1번지 양지프라자 201호","indutype":"보건위생 - 미용원","category":"beauty"},{"name":"청담타이","tel":"031-264-1104","addr":"경기도 용인시 수지구 죽전동 465-1번지 양지프라자 2층","indutype":"보건위생 - 화장품","category":"beauty"}]},{"lat":"37.326731612","long":"127.1132727","imageIndex":13,"items":[{"name":"더헤어 팝스(The Hair POPs)","tel":"070-7501-4376","addr":"경기도 용인시 수지구 죽전동 472-5번지 101호","indutype":"보건위생 - 미용원","category":"beauty"}]},{"lat":"37.331894608","long":"127.12238608","imageIndex":13,"items":[{"name":"더헤어샵더블유","tel":"031-896-1179","addr":"경기도 용인시 수지구 죽전동 2004-3,죽전메디뷰상가104","indutype":"보건위생 - 미용원","category":"beauty"},{"name":"보솜에스테틱","tel":"031-897-0542","addr":"경기도 용인시 수지구 죽전동 1177-3번지 죽전메디뷰 3층 304호","indutype":"보건위생 - 피부미용실","category":"beauty"},{"name":"제이드 네일 스튜디오","tel":"031-263-8219","addr":"경기도 용인시 수지구 죽전동 1177-3번지 죽전메디뷰 107호","indutype":"보건위생 - 미용원","category":"beauty"}]},{"lat":"37.324368579","long":"127.12485629","imageIndex":13,"items":[{"name":"데뷰미용실","tel":"031-264-8051","addr":"경기도 용인시 수지구 죽전동 1335-1번지","indutype":"보건위생 - 미용원","category":"beauty"}]},{"lat":"37.331900899","long":"127.125049","imageIndex":13,"items":[{"name":"디마리아","tel":"031-362-6001","addr":"경기도 용인시 수지구 죽전동 1189-3번지 성운코아 2층 203호","indutype":"보건위생 - 미용원","category":"beauty"},{"name":"주식회사 엔제이메디","tel":"","addr":"경기도 용인시 수지구 죽전동 1189-3번지 성운코아 603호","indutype":"보건위생 - 의료용품","category":"beauty"}]},{"lat":"37.327512616","long":"127.11632022","imageIndex":13,"items":[{"name":"라라헤어","tel":"031-261-0120","addr":"경기도 용인시 수지구 죽전동 339번지 도담마을죽전파크빌 상가동 105호","indutype":"보건위생 - 미용원","category":"beauty"},{"name":"오이소 컬러하우스","tel":"031-262-4623","addr":"경기도 용인시 수지구 죽전동 339번지 도담마을죽전파크빌 상가 110호","indutype":"보건위생 - 미용원","category":"beauty"}]},{"lat":"37.332229707","long":"127.11123841","imageIndex":13,"items":[{"name":"랑스헤어","tel":"031-754-7009","addr":"경기도 용인시 수지구 죽전동 1151번지 인현마을현대홈타운 상가 2동 104호","indutype":"보건위생 - 미용원","category":"beauty"}]},{"lat":"37.331873156","long":"127.12573725","imageIndex":13,"items":[{"name":"로와살롱","tel":"031-889-8891","addr":"경기도 용인시 수지구 죽전동 1189-5번지 우성메디피아 3층 303호","indutype":"보건위생 - 미용원","category":"beauty"},{"name":"연희헤어","tel":"","addr":"경기도 용인시 수지구 죽전동 1189-5번지 우성메디피아 1층 108호","indutype":"보건위생 - 미용원","category":"beauty"}]},{"lat":"37.332145771","long":"127.12349227","imageIndex":13,"items":[{"name":"루아스킨앤바디","tel":"031-897-2960","addr":"경기도 용인시 수지구 죽전동 1178-1번지 그린프라자 201호","indutype":"보건위생 - 화장품","category":"beauty"},{"name":"미스터컷트클럽","tel":"031-262-3939","addr":"경기도 용인시 수지구 죽전동 1178-1번지 그린프라자 202호 일부","indutype":"보건위생 - 미용원","category":"beauty"},{"name":"초이헤어","tel":"031-889-7052","addr":"경기도 용인시 수지구 죽전동 1178-1번지 그린프라자 102호","indutype":"보건위생 - 미용원","category":"beauty"}]},{"lat":"37.328594732","long":"127.11538536","imageIndex":13,"items":[{"name":"마뮤즈헤어(죽전)","tel":"031-261-0959","addr":"경기도 용인시 수지구 죽전동 1254-3번지 외1필지제가동114호,115호","indutype":"보건위생 - 미용원","category":"beauty"},{"name":"머리못하는집","tel":"031-889-1944","addr":"경기도 용인시 수지구 죽전동 1254-3번지 선진포리스트 나동 101호","indutype":"보건위생 - 미용원","category":"beauty"},{"name":"아모레 카운셀러","tel":"031-261-7125","addr":"경기도 용인시 수지구 죽전동 1254-3번지 선진포리스트 204호","indutype":"보건위생 - 화장품","category":"beauty"},{"name":"아모레 카운셀러","tel":"031-261-7125","addr":"경기도 용인시 수지구 죽전동 1254-3번지 선진포리스트 205호","indutype":"보건위생 - 화장품","category":"beauty"},{"name":"아모레 카운셀러","tel":"031-261-7125","addr":"경기도 용인시 수지구 죽전동 1254-3번지 선진포리스트 205호","indutype":"보건위생 - 화장품","category":"beauty"},{"name":"아모레 카운셀러","tel":"031-261-7125","addr":"경기도 용인시 수지구 죽전동 1254-3번지 선진포리스트 205호","indutype":"보건위생 - 화장품","category":"beauty"},{"name":"아모레 카운셀러","tel":"031-261-7125","addr":"경기도 용인시 수지구 죽전동 1254-3번지 선진포리스트 204호","indutype":"보건위생 - 화장품","category":"beauty"},{"name":"아모레 카운셀러","tel":"031-261-7125","addr":"경기도 용인시 수지구 죽전동 1254-3번지 선진포리스트 205호","indutype":"보건위생 - 화장품","category":"beauty"},{"name":"아모레 카운셀러","tel":"031-261-7125","addr":"경기도 용인시 수지구 죽전동 1254-3번지 선진포리스트 205호","indutype":"보건위생 - 화장품","category":"beauty"},{"name":"아모레 카운셀러","tel":"031-261-7125","addr":"경기도 용인시 수지구 죽전동 1254-3번지 선진포리스트 204호","indutype":"보건위생 - 화장품","category":"beauty"},{"name":"아모레 카운셀러","tel":"031-261-7125","addr":"경기도 용인시 수지구 죽전동 1254-3번지","indutype":"보건위생 - 화장품","category":"beauty"},{"name":"아모레 카운셀러","tel":"031-261-7125","addr":"경기도 용인시 수지구 죽전동 1254-3번지 선진포리스트 205호","indutype":"보건위생 - 화장품","category":"beauty"},{"name":"아모레카운셀러","tel":"031-261-7125","addr":"경기도 용인시 수지구 죽전동 1254-3번지 선진포레스트 203호","indutype":"보건위생 - 화장품","category":"beauty"},{"name":"아모레카운셀러","tel":"031-261-7125","addr":"경기도 용인시 수지구 죽전동 1254-1 선진포리스트 204.205호","indutype":"보건위생 - 화장품","category":"beauty"},{"name":"아모레카운셀러","tel":"031-261-7125","addr":"경기도 용인시 수지구 죽전동 1254-3번지 선진포리스트 204호","indutype":"보건위생 - 화장품","category":"beauty"},{"name":"아모레카운셀러","tel":"031-261-7125","addr":"경기도 용인시 수지구 죽전동 1254-3번지 선진포리스트 204호","indutype":"보건위생 - 화장품","category":"beauty"},{"name":"아모레카운셀러","tel":"031-261-7125","addr":"경기도 용인시 수지구 죽전동 1254-3번지 선진포리스트 204호","indutype":"보건위생 - 화장품","category":"beauty"},{"name":"아모레카운셀러","tel":"031-261-7125","addr":"경기도 용인시 수지구 죽전동 1254-3번지 선진포리스트 205호","indutype":"보건위생 - 화장품","category":"beauty"},{"name":"아모레카운셀러","tel":"031-261-7125","addr":"경기도 용인시 수지구 죽전동 1254-3번지 선진포리스트 205호","indutype":"보건위생 - 화장품","category":"beauty"},{"name":"아모레카운셀러","tel":"031-261-7125","addr":"경기도 용인시 수지구 죽전동 1254-3번지 선진포리스트 205호","indutype":"보건위생 - 화장품","category":"beauty"},{"name":"아모레카운셀러","tel":"031-261-7125","addr":"경기도 용인시 수지구 죽전동 1254-3번지 선진포리스트 204호","indutype":"보건위생 - 화장품","category":"beauty"},{"name":"아모레카운셀러","tel":"031-261-7125","addr":"경기도 용인시 수지구 죽전동 1254-3번지 선진포리스트 204호","indutype":"보건위생 - 화장품","category":"beauty"},{"name":"아모레카운셀러","tel":"031-261-7125","addr":"경기도 용인시 수지구 죽전동 1254-3번지 선진포리스트 204호","indutype":"보건위생 - 화장품","category":"beauty"},{"name":"아모레카운셀러","tel":"031-261-7125","addr":"경기도 용인시 수지구 죽전동 1254-3번지","indutype":"보건위생 - 화장품","category":"beauty"},{"name":"아모레카운셀러","tel":"031-261-7125","addr":"경기도 용인시 수지구 죽전동 1254-3번지","indutype":"보건위생 - 화장품","category":"beauty"},{"name":"아모레카운셀러","tel":"031-261-7125","addr":"경기도 용인시 수지구 죽전동 1254-3번지 선진프리스트 204호","indutype":"보건위생 - 화장품","category":"beauty"},{"name":"아모레카운셀러","tel":"031-261-7125","addr":"경기도 용인시 수지구 죽전동 1254-3번지 선진포리스트 204호","indutype":"보건위생 - 화장품","category":"beauty"},{"name":"아모레카운셀러","tel":"031-719-7050","addr":"경기도 용인시 수지구 죽전동 1254-3번지","indutype":"보건위생 - 화장품","category":"beauty"},{"name":"아모레카운셀러","tel":"031-261-7125","addr":"경기도 용인시 수지구 죽전동 1254-3번지 선진포리스트 204호","indutype":"보건위생 - 화장품","category":"beauty"},{"name":"아모레카운셀러","tel":"031-261-7125","addr":"경기도 용인시 수지구 죽전동 1254-3번지 선진포리스트 204호","indutype":"보건위생 - 화장품","category":"beauty"},{"name":"아모레카운셀러","tel":"031-261-7125","addr":"경기도 용인시 수지구 죽전동 1254-3번지 선진포리스트 204호","indutype":"보건위생 - 화장품","category":"beauty"},{"name":"아모레카운셀러","tel":"031-261-7125","addr":"경기도 용인시 수지구 죽전동 1254-3번지","indutype":"보건위생 - 화장품","category":"beauty"},{"name":"올가휴스킨앤바디(용인죽전뷰티센타)","tel":"031-896-1363","addr":"경기도 용인시 수지구 죽전동 1254-3번지 선진포리스트 201-2호","indutype":"보건위생 - 피부미용실","category":"beauty"},{"name":"유니베라","tel":"031-261-3887","addr":"경기도 용인시 수지구 죽전동 1254-3번지 선진포리스트 나동 202호","indutype":"보건위생 - 화장품","category":"beauty"},{"name":"주식회사 노바메디","tel":"031-896-6392","addr":"경기도 용인시 수지구 죽전동 1254-3번지 선진포리스트 나동 303호","indutype":"보건위생 - 의료용품","category":"beauty"},{"name":"지엔진헤어","tel":"031-276-3356","addr":"경기도 용인시 수지구 죽전동 1254-3번지 A-106, 4선진포리스트","indutype":"보건위생 - 미용원","category":"beauty"},{"name":"포나인안경원(죽전점)","tel":"031-889-2828","addr":"경기도 용인시 수지구 죽전동 1254-3번지 외1필지제1층 103호","indutype":"보건위생 - 안경","category":"beauty"}]},{"lat":"37.332367246","long":"127.11824574","imageIndex":13,"items":[{"name":"메이컵하우스(죽전점)","tel":"031-897-3364","addr":"경기도 용인시 수지구 죽전동 1169-8번지 1층 상가","indutype":"보건위생 - 미용원","category":"beauty"}]},{"lat":"37.332150844","long":"127.12729484","imageIndex":13,"items":[{"name":"메종드보떼","tel":"031-265-2856","addr":"경기도 용인시 수지구 죽전동 1186-1번지 상생프라자 A동 102호","indutype":"보건위생 - 미용원","category":"beauty"}]},{"lat":"37.32367505","long":"127.12460696","imageIndex":13,"items":[{"name":"메종드헤어0403죽전점","tel":"031-889-3082","addr":"경기도 용인시 수지구 죽전동 1328-4번지 단대프라자II 201호","indutype":"보건위생 - 미용원","category":"beauty"}]},{"lat":"37.331895844","long":"127.12115617","imageIndex":13,"items":[{"name":"명성지압안마원","tel":"031-897-6636","addr":"경기도 용인시 수지구 죽전동 1176-3번지 SR프라자 202호","indutype":"보건위생 - 안마시술소","category":"beauty"},{"name":"올가뷰티","tel":"","addr":"경기도 용인시 수지구 죽전동 1176-3번지 SR프라자 108호","indutype":"보건위생 - 화장품","category":"beauty"}]},{"lat":"37.327928748","long":"127.11457199","imageIndex":13,"items":[{"name":"명품헤어샵","tel":"","addr":"경기도 용인시 수지구 죽전동 484-14번지 단대프라자 107호","indutype":"보건위생 - 미용원","category":"beauty"}]},{"lat":"37.326564418","long":"127.11851893","imageIndex":13,"items":[{"name":"미솜헤어","tel":"","addr":"경기도 용인시 수지구 죽전동 1245-4번지 102호","indutype":"보건위생 - 미용원","category":"beauty"},{"name":"보라네일","tel":"031-266-0546","addr":"경기도 용인시 수지구 죽전동 1245-4번지 1층 103호","indutype":"보건위생 - 피부미용실","category":"beauty"}]},{"lat":"37.335233006","long":"127.10801549","imageIndex":13,"items":[{"name":"미엔지","tel":"031-261-0931","addr":"경기도 용인시 수지구 죽전동 916번지 동림 상가 106호","indutype":"보건위생 - 미용원","category":"beauty"}]},{"lat":"37.333539838","long":"127.12593179","imageIndex":13,"items":[{"name":"미지헤어샵","tel":"031-898-0474","addr":"경기도 용인시 수지구 죽전동 1182번지 내대지마을건영캐스빌 상가 204호","indutype":"보건위생 - 미용원","category":"beauty"},{"name":"바비스타일","tel":"","addr":"경기도 용인시 수지구 죽전동 1182번지 내대지마을건영캐스빌 상가 101호","indutype":"보건위생 - 피부미용실","category":"beauty"}]},{"lat":"37.331422647","long":"127.12573652","imageIndex":13,"items":[{"name":"밝은세상 안경원","tel":"031-889-9888","addr":"경기도 용인시 수지구 죽전동 1191-5번지 죽전스카이프라자 105호","indutype":"보건위생 - 안경","category":"beauty"},{"name":"정","tel":"031-263-6388","addr":"경기도 용인시 수지구 죽전동 1191-5번지 죽전스카이프라자 303호","indutype":"보건위생 - 화장품","category":"beauty"}]},{"lat":"37.33142336","long":"127.12504823","imageIndex":13,"items":[{"name":"백지연미용실","tel":"031-264-8372","addr":"경기도 용인시 수지구 죽전동 2010-3우곡프라자204","indutype":"보건위생 - 미용원","category":"beauty"},{"name":"아리따움 용인 죽전점","tel":"031-889-5147","addr":"경기도 용인시 수지구 죽전동 1191-3번지 우곡프라자 103호","indutype":"보건위생 - 화장품","category":"beauty"},{"name":"쟈크헤어","tel":"031-889-5771","addr":"경기도 용인시 수지구 죽전동 1191-3번지 우곡프라자 104호","indutype":"보건위생 - 미용원","category":"beauty"},{"name":"제이플랜","tel":"031-546-0426","addr":"경기도 용인시 수지구 죽전동 1191-3번지 우곡프라자 601호","indutype":"보건위생 - 의료용품","category":"beauty"}]},{"lat":"37.331896204","long":"127.1207951","imageIndex":13,"items":[{"name":"보다안경원","tel":"02-413-4005","addr":"경기도 용인시 수지구 죽전동 1176-2번지 명지프라자 1층 102, 103호","indutype":"보건위생 - 안경","category":"beauty"}]},{"lat":"37.331422154","long":"127.12621043","imageIndex":13,"items":[{"name":"본라프스","tel":"031-897-0872","addr":"경기도 용인시 수지구 죽전동 1190-1번지 외1필지거풍프라자 304호","indutype":"보건위생 - 화장품","category":"beauty"},{"name":"쉐젤헤어","tel":"031-261-4770","addr":"경기도 용인시 수지구 죽전동 2009-1.거풍프라자.113","indutype":"보건위생 - 미용원","category":"beauty"},{"name":"휴","tel":"","addr":"경기도 용인시 수지구 죽전동 1190-1번지 거풍프라자 303호","indutype":"보건위생 - 화장품","category":"beauty"}]},{"lat":"37.324179249","long":"127.12496881","imageIndex":13,"items":[{"name":"봄날안경원","tel":"031-889-7301","addr":"경기도 용인시 수지구 죽전동 1335-2번지 단대성지프라자 103호","indutype":"보건위생 - 안경","category":"beauty"}]},{"lat":"37.329205137","long":"127.11776701","imageIndex":13,"items":[{"name":"부러워","tel":"031-897-7907","addr":"경기도 용인시 수지구 죽전동 331번지 도담마을아이파크 상가 301호","indutype":"보건위생 - 화장품","category":"beauty"}]},{"lat":"37.326789838","long":"127.11835004","imageIndex":13,"items":[{"name":"뷰벨르","tel":"070-4158-2131","addr":"경기도 용인시 수지구 죽전동 1245-2번지 101호","indutype":"보건위생 - 피부미용실","category":"beauty"}]},{"lat":"37.329983548","long":"127.12327443","imageIndex":13,"items":[{"name":"뷰티콜라겐","tel":"031-306-0015","addr":"경기도 용인시 수지구 죽전동 1219-2번지 101호","indutype":"보건위생 - 화장품","category":"beauty"}]},{"lat":"37.325287652","long":"127.12482393","imageIndex":13,"items":[{"name":"비밀리에","tel":"031-889-8874","addr":"경기도 용인시 수지구 죽전동 1342-2번지 WHITEZONE 1층 104호","indutype":"보건위생 - 피부미용실","category":"beauty"}]},{"lat":"37.327369572","long":"127.12427443","imageIndex":13,"items":[{"name":"빠마머리","tel":"031-889-8279","addr":"경기도 용인시 수지구 죽전동 1233번지 성현마을주공3단지 상가동 103호","indutype":"보건위생 - 미용원","category":"beauty"}]},{"lat":"37.32501417","long":"127.11902427","imageIndex":13,"items":[{"name":"새앙머리","tel":"031-889-1118","addr":"경기도 용인시 수지구 죽전동 1262 도담마을아이월드상가202호","indutype":"보건위생 - 미용원","category":"beauty"},{"name":"올가스킨","tel":"031-265-2828","addr":"경기도 용인시 수지구 죽전동 1262번지 도담마을한양수자인 상가동 202호","indutype":"보건위생 - 화장품","category":"beauty"}]},{"lat":"37.325675883","long":"127.11490713","imageIndex":13,"items":[{"name":"샤론미용실","tel":"031-898-2929","addr":"경기도 용인시 수지구 죽전동 425-2번지 현대프라자 1층 102호","indutype":"보건위생 - 미용원","category":"beauty"},{"name":"타야미용실","tel":"031-266-8232","addr":"경기도 용인시 수지구 죽전동 425-2번지 현대프라자 105호 파야미용실","indutype":"보건위생 - 미용원","category":"beauty"}]},{"lat":"37.335478303","long":"127.10571387","imageIndex":13,"items":[{"name":"서민호미용실","tel":"031-261-5687","addr":"경기도 용인시 수지구 죽전동 832-1번지 벽산타운2단지 상가 104호","indutype":"보건위생 - 미용원","category":"beauty"}]},{"lat":"37.33309345","long":"127.13054611","imageIndex":13,"items":[{"name":"소노하우스","tel":"031-889-3356","addr":"경기도 용인시 수지구 죽전동 1381번지 내대지마을진흥더블파크 상가동 101호","indutype":"보건위생 - 의료용품","category":"beauty"}]},{"lat":"37.334675134","long":"127.10715713","imageIndex":13,"items":[{"name":"송유정에스테틱","tel":"031-262-9676","addr":"경기도 용인시 수지구 죽전동 941번지 벽산타운3단지상가동1층 107호","indutype":"보건위생 - 화장품","category":"beauty"},{"name":"제브라","tel":"031-264-2681","addr":"경기도 용인시 수지구 죽전동 941,벽산3단지상가105","indutype":"보건위생 - 미용원","category":"beauty"}]},{"lat":"37.331869969","long":"127.11999393","imageIndex":13,"items":[{"name":"수안헤어","tel":"031-889-3487","addr":"경기도 용인시 수지구 죽전동 1175-9번지 채성프라자 106호","indutype":"보건위생 - 미용원","category":"beauty"},{"name":"희망부부가족상담센터","tel":"","addr":"경기도 용인시 수지구 죽전동 1175-9번지 재성프라자 201호","indutype":"보건위생 - 기타대인서비스","category":"beauty"}]},{"lat":"37.331370919","long":"127.12346846","imageIndex":13,"items":[{"name":"스타일스토리","tel":"031-272-4763","addr":"경기도 용인시 수지구 죽전동 1197-1번지 센타프라자 201호","indutype":"보건위생 - 미용원","category":"beauty"},{"name":"주식회사 미피션","tel":"031-897-7662","addr":"경기도 용인시 수지구 죽전동 1197-1번지 센타프라자 401호","indutype":"보건위생 - 화장품","category":"beauty"}]},{"lat":"37.323819445","long":"127.12438155","imageIndex":13,"items":[{"name":"스타파인더안경원(단국대점)","tel":"031-897-1101","addr":"경기도 용인시 수지구 죽전동 1328-3번지 단대프라자III 109호","indutype":"보건위생 - 안경","category":"beauty"},{"name":"진앤수 교육심리상담연구소","tel":"070-4158-6330","addr":"경기도 용인시 수지구 죽전동 1328-3번지 단대프라자III 301호","indutype":"보건위생 - 기타대인서비스","category":"beauty"}]},{"lat":"37.331895335","long":"127.12166393","imageIndex":13,"items":[{"name":"식스메이크","tel":"031-889-5677","addr":"경기도 용인시 수지구 죽전동 1177-1번지 진성프라자 202호","indutype":"보건위생 - 미용원","category":"beauty"}]},{"lat":"37.328288835","long":"127.11491101","imageIndex":13,"items":[{"name":"아모레퍼시픽","tel":"031-261-7125","addr":"경기도 용인시 수지구 죽전동 1254-1","indutype":"보건위생 - 화장품","category":"beauty"}]},{"lat":"37.331844901","long":"127.1269107","imageIndex":13,"items":[{"name":"아이데코안경원","tel":"031-897-3239","addr":"경기도 용인시 수지구 죽전동 1188-3번지 한솔프라자 105호 106호","indutype":"보건위생 - 안경","category":"beauty"},{"name":"주네일","tel":"031-261-7796","addr":"경기도 용인시 수지구 죽전동 1188-3번지 한솔프라자 104호","indutype":"보건위생 - 피부미용실","category":"beauty"}]},{"lat":"37.324260885","long":"127.10540525","imageIndex":13,"items":[{"name":"아이돌스타 출장부페","tel":"031-896-6868","addr":"경기도 용인시 수지구 죽전동 1291번지 5층","indutype":"보건위생 - 기타대인서비스","category":"beauty"}]},{"lat":"37.331896586","long":"127.12041146","imageIndex":13,"items":[{"name":"아이맥스 안경","tel":"031-276-3455","addr":"경기도 용인시 수지구 죽전동 1176-1번지","indutype":"보건위생 - 안경","category":"beauty"},{"name":"에스더헤어SNT","tel":"031-272-2111","addr":"경기도 용인시 수지구 죽전동 1176-1번지 애플프라자 202호","indutype":"보건위생 - 미용원","category":"beauty"},{"name":"죽전샵","tel":"031-797-6689","addr":"경기도 용인시 수지구 죽전동 1176-1번지 애플프라자 503호","indutype":"보건위생 - 화장품","category":"beauty"}]},{"lat":"37.323622156","long":"127.12346736","imageIndex":13,"items":[{"name":"아이안경원","tel":"031-898-0701","addr":"경기도 용인시 수지구 죽전동 1327-3번지 유니프라자 101호","indutype":"보건위생 - 안경","category":"beauty"}]},{"lat":"37.335503431","long":"127.10788045","imageIndex":13,"items":[{"name":"안경마을수지점","tel":"031-896-0605","addr":"경기도 용인시 수지구 죽전동 851-3번지 추진빌딩 A동 103호","indutype":"보건위생 - 안경","category":"beauty"}]},{"lat":"37.327289185","long":"127.1144018","imageIndex":13,"items":[{"name":"압구정헤어","tel":"031-261-8560","addr":"경기도 용인시 수지구 죽전동 474번지 동남3차 가동 105호","indutype":"보건위생 - 미용원","category":"beauty"}]},{"lat":"37.332456869","long":"127.1276","imageIndex":13,"items":[{"name":"앤스네일(앤's Nail)","tel":"031-548-0038","addr":"경기도 용인시 수지구 죽전동 1185-2번지 유토피아 104호","indutype":"보건위생 - 피부미용실","category":"beauty"}]},{"lat":"37.32976265","long":"127.109328","imageIndex":13,"items":[{"name":"약손명가 에스테틱(용인죽전점)","tel":"031-272-2333","addr":"경기도 용인시 수지구 죽전동 902-2번지 영일죽전빌딩","indutype":"보건위생 - 피부미용실","category":"beauty"}]},{"lat":"37.328924225","long":"127.10985713","imageIndex":13,"items":[{"name":"에덴피부관리","tel":"031-262-3447","addr":"경기도 용인시 수지구 죽전동 1003-8 207","indutype":"보건위생 - 화장품","category":"beauty"}]},{"lat":"37.325843736","long":"127.11838244","imageIndex":13,"items":[{"name":"엔케이헤어","tel":"02-000-0000","addr":"경기도 용인시 수지구 죽전동 1259-3번지 은성프라자 102호","indutype":"보건위생 - 미용원","category":"beauty"},{"name":"헤나샵","tel":"031-889-8708","addr":"경기도 용인시 수지구 죽전동 1259-3번지 은성프라자 105호","indutype":"보건위생 - 미용원","category":"beauty"}]},{"lat":"37.331789346","long":"127.11951989","imageIndex":13,"items":[{"name":"엠씨에스","tel":"031-262-5663","addr":"경기도 용인시 수지구 죽전동 1175-7번지 407-1호","indutype":"보건위생 - 의료용품","category":"beauty"},{"name":"힐링","tel":"","addr":"경기도 용인시 수지구 죽전동 1175-7번지 현대프라자 4층 401호","indutype":"보건위생 - 화장품","category":"beauty"}]},{"lat":"37.328637166","long":"127.11810464","imageIndex":13,"items":[{"name":"연세MK심리연구소","tel":"02-585-5026","addr":"경기도 용인시 수지구 죽전동 331번지 도담마을아이파크 103동 102호","indutype":"보건위생 - 기타대인서비스","category":"beauty"}]},{"lat":"37.326402554","long":"127.11819149","imageIndex":13,"items":[{"name":"예쁜데이","tel":"031-262-3389","addr":"경기도 용인시 수지구 죽전동 1258-4번지 101호","indutype":"보건위생 - 미용원","category":"beauty"}]},{"lat":"37.322510824","long":"127.11749733","imageIndex":13,"items":[{"name":"올가드림뷰티","tel":"","addr":"경기도 용인시 수지구 죽전동 1304번지 꽃메마을현대홈타운3단지아파트 상가동 110호","indutype":"보건위생 - 피부미용실","category":"beauty"}]},{"lat":"37.326903142","long":"127.12220893","imageIndex":13,"items":[{"name":"옻안타는천연염색 죽전점","tel":"031-000-0000","addr":"경기도 용인시 수지구 죽전동 1235번지 성현마을반도유보라 104호","indutype":"보건위생 - 이용원","category":"beauty"}]},{"lat":"37.334339697","long":"127.10946987","imageIndex":13,"items":[{"name":"용인이용원","tel":"","addr":"경기도 용인시 수지구 죽전동 811번지 경방프라자 1층 105호","indutype":"보건위생 - 이용원","category":"beauty"}]},{"lat":"37.324928609","long":"127.12349201","imageIndex":13,"items":[{"name":"우미헤어샵","tel":"031-305-1925","addr":"경기도 용인시 수지구 죽전동 1329번지 성현마을우미이노스빌제 상가동 107호","indutype":"보건위생 - 미용원","category":"beauty"}]},{"lat":"37.326735181","long":"127.11895922","imageIndex":13,"items":[{"name":"이쁜화장품","tel":"031-889-7887","addr":"경기도 용인시 수지구 죽전동 1245-7번지 상가 101호","indutype":"보건위생 - 화장품","category":"beauty"}]},{"lat":"37.331177508","long":"127.12751891","imageIndex":13,"items":[{"name":"이승란헤어샵","tel":"031-897-1322","addr":"경기도 용인시 수지구 죽전동 1190-5번지 신주프라자 107호","indutype":"보건위생 - 미용원","category":"beauty"}]},{"lat":"37.325284081","long":"127.10988581","imageIndex":13,"items":[{"name":"이철헤어커커 죽전점","tel":"031-898-2326","addr":"경기도 용인시 수지구 죽전동 1282번지 죽전이마트 2층","indutype":"보건위생 - 미용원","category":"beauty"},{"name":"해맑은 안경원","tel":"031-898-1282","addr":"경기도 용인시 수지구 죽전동 1282번지 이마트","indutype":"보건위생 - 안경","category":"beauty"},{"name":"황금희에스테틱하우스","tel":"031-898-1448","addr":"경기도 용인시 수지구 죽전동 1282번지 2층","indutype":"보건위생 - 피부미용실","category":"beauty"}]},{"lat":"37.331873495","long":"127.12541003","imageIndex":13,"items":[{"name":"잰틀맨","tel":"070-7759-0004","addr":"경기도 용인시 수지구 죽전동 1189-4번지 테마프라자 102호","indutype":"보건위생 - 미용원","category":"beauty"}]},{"lat":"37.331874554","long":"127.12438323","imageIndex":13,"items":[{"name":"쟈스민헤어스튜디오","tel":"031-000-0000","addr":"경기도 용인시 수지구 죽전동 1189-1번지 베스트프라자 104호","indutype":"보건위생 - 미용원","category":"beauty"}]},{"lat":"37.324925292","long":"127.1080801","imageIndex":13,"items":[{"name":"정샘물더라운지","tel":"031-695-1945","addr":"경기도 용인시 수지구 죽전동 1285번지 (주)신세계백화점경기점 7층","indutype":"보건위생 - 미용원","category":"beauty"}]},{"lat":"37.327425058","long":"127.11363477","imageIndex":13,"items":[{"name":"주식회사 스카이기공소","tel":"031-266-2877","addr":"경기도 용인시 수지구 죽전동 470번지 진양빌딩 301호","indutype":"보건위생 - 의료용품","category":"beauty"}]},{"lat":"37.331526731","long":"127.12085094","imageIndex":13,"items":[{"name":"죽전2에듀플렉스심리상담연구소","tel":"031-898-1195","addr":"경기도 용인시 수지구 죽전동 1205-3번지 삼성프라자 A동 401호","indutype":"보건위생 - 기타대인서비스","category":"beauty"}]},{"lat":"37.331708476","long":"127.1192941","imageIndex":13,"items":[{"name":"지노헤어 죽전점","tel":"031-889-8685","addr":"경기도 용인시 수지구 죽전동 1175-6번지 일성빌딩 2층","indutype":"보건위생 - 미용원","category":"beauty"}]},{"lat":"37.327758414","long":"127.11365782","imageIndex":13,"items":[{"name":"지니미용실","tel":"031-897-4484","addr":"경기도 용인시 수지구 죽전동 468-5번지 신흥빌딩 202호","indutype":"보건위생 - 미용원","category":"beauty"}]},{"lat":"37.335395359","long":"127.10782388","imageIndex":13,"items":[{"name":"진프로헤어","tel":"031-261-9344","addr":"경기도 용인시 수지구 죽전동 851-3번지 죽전빌딩 104호","indutype":"보건위생 - 미용원","category":"beauty"}]},{"lat":"37.335123713","long":"127.10932428","imageIndex":13,"items":[{"name":"태양","tel":"031-266-0366","addr":"경기도 용인시 수지구 죽전동 915-3번지 남곡빌딩 3층 311,312호","indutype":"보건위생 - 미용원","category":"beauty"}]},{"lat":"37.33245719","long":"127.12729535","imageIndex":13,"items":[{"name":"태후사랑죽전점","tel":"031-276-1510","addr":"경기도 용인시 수지구 죽전동 1185-3번지 블루씨티오피스빌딩 101호","indutype":"보건위생 - 미용원","category":"beauty"}]},{"lat":"37.331286306","long":"127.12687593","imageIndex":13,"items":[{"name":"토니모리 용인죽전점","tel":"02-593-3191","addr":"경기도 용인시 수지구 죽전동 1190-3번지 예타운 103호","indutype":"보건위생 - 화장품","category":"beauty"}]},{"lat":"37.324954748","long":"127.11524454","imageIndex":13,"items":[{"name":"피네","tel":"031-889-1492","addr":"경기도 용인시 수지구 죽전동 1273번지 센타프라자 104호","indutype":"보건위생 - 미용원","category":"beauty"}]},{"lat":"37.332194116","long":"127.12897617","imageIndex":13,"items":[{"name":"한미이크린","tel":"","addr":"경기도 용인시 수지구 죽전동 89-1번지 현대1차아파트","indutype":"보건위생 - 의료용품","category":"beauty"}]},{"lat":"37.326681274","long":"127.11880118","imageIndex":13,"items":[{"name":"헤어아트수","tel":"031-889-9062","addr":"경기도 용인시 수지구 죽전동 1245-6번지","indutype":"보건위생 - 미용원","category":"beauty"}]},{"lat":"37.32498392","long":"127.11296551","imageIndex":13,"items":[{"name":"헤어에비뉴","tel":"031-889-8066","addr":"경기도 용인시 수지구 죽전동 1279번지 도담마을주공 상가 104호","indutype":"보건위생 - 미용원","category":"beauty"}]},{"lat":"37.331980456","long":"127.11757941","imageIndex":13,"items":[{"name":"황후(죽전)","tel":"031-896-3638","addr":"경기도 용인시 수지구 죽전동 301-1번지 새터빌딩 401호","indutype":"보건위생 - 피부미용실","category":"beauty"}]},{"lat":"37.331817587","long":"127.12718146","imageIndex":13,"items":[{"name":"힐스템 죽전점","tel":"031-889-9494","addr":"경기도 용인시 수지구 죽전동 1188-4번지 에코프라자 1동 2층 203호","indutype":"보건위생 - 화장품","category":"beauty"}]}]