[{"lat":"37.331810445","long":"126.86407186","items":[{"name":"(재)기독교대한감리회부암교","tel":"031-501-0196","addr":"경기도 안산시 상록구 부곡동 540-2번지","category":"학원 - 유치원"}]},{"lat":"37.341140693","long":"126.86815112","items":[{"name":"(주) 광명프라캔","tel":"031-411-8971","addr":"경기도 안산시 상록구 부곡동 69-6번지","category":"유통업 영리 - 기타유통업"}]},{"lat":"37.332723278","long":"126.8588797","items":[{"name":"(주) 삼보전자통신","tel":"031-495-4700","addr":"경기도 안산시 상록구 부곡동 735-9번지","category":"용역 서비스 - 소프트웨어"},{"name":"드림씽크","tel":"031-401-1183","addr":"경기도 안산시 상록구 부곡동 735-9번지 1층","category":"주방용구 - 주방용구"}]},{"lat":"37.332865397","long":"126.85720944","items":[{"name":"(주)그린","tel":"031-483-5624","addr":"경기도 안산시 상록구 부곡동 738-6번지 1층 3호","category":"음료식품 - 기타음료식품"},{"name":"가나안천막산업","tel":"031-483-3800","addr":"경기도 안산시 상록구 부곡동 738-6번지","category":"직물 - 카페트,커튼,천막,지물"},{"name":"창대 폴딩도어","tel":"031-503-1466","addr":"경기도 안산시 상록구 부곡동 738-6번지 103호","category":"건축자재 - 기타건축자재"},{"name":"황제중고가전,냉난방에어컨","tel":"031-439-7414","addr":"경기도 안산시 상록구 부곡동 738-6번지 1층 101,102호","category":"전기제품 - 가전제품"}]},{"lat":"37.322756724","long":"126.85782691","items":[{"name":"(주)다함석재","tel":"031-502-2430","addr":"경기도 안산시 상록구 부곡동 695-23번지","category":"건축자재 - 기타건축자재"},{"name":"녹원칼국수","tel":"031-406-7733","addr":"경기도 안산시 상록구 부곡동 695-23번지","category":"일반휴게음식 - 일반한식"},{"name":"잔치집국시랑족발","tel":"031-406-4111","addr":"경기도 안산시 상록구 부곡동 695-23번지 102호","category":"일반휴게음식 - 일반한식"}]},{"lat":"37.345257169","long":"126.86712807","items":[{"name":"(주)라라활어유통","tel":"031-410-7771","addr":"경기도 안산시 상록구 부곡동 45-1번지 A동 1층","category":"음료식품 - 농·축·수산품"},{"name":"(주)라라활어유통","tel":"031-410-7771","addr":"경기도 안산시 상록구 부곡동 45-1번지 A동 1층","category":"음료식품 - 농·축·수산품"},{"name":"초장집","tel":"031-405-9972","addr":"경기도 안산시 상록구 부곡동 45-1번지 A동 1층","category":"일반휴게음식 - 일식·회집"}]},{"lat":"37.338252002","long":"126.87132723","items":[{"name":"(주)범양산업기계","tel":"031-485-9861","addr":"경기도 안산시 상록구 부곡동 273-2번지","category":"건축자재 - 기타건축자재"},{"name":"현대기전","tel":"031-486-9052","addr":"경기도 안산시 상록구 부곡동 273-2번지","category":"전기제품 - 기타전기제품"}]},{"lat":"37.334362007","long":"126.86551151","items":[{"name":"(주)보아스여행사","tel":"031-408-0372","addr":"경기도 안산시 상록구 부곡동 646-10번지 부곡쇼핑 202호","category":"여행 - 관광여행"}]},{"lat":"37.341591643","long":"126.86082635","items":[{"name":"(주)삼화타이어","tel":"031-413-2294","addr":"경기도 안산시 상록구 부곡동 115-8번지","category":"자동차정비 유지 - 자동차시트·타이어"}]},{"lat":"37.324731371","long":"126.85898521","items":[{"name":"(주)세계푸드","tel":"031-502-2092","addr":"경기도 안산시 상록구 부곡동 690-3번지 1층","category":"음료식품 - 농·축·수산품"}]},{"lat":"37.341642944","long":"126.86613021","items":[{"name":"(주)세원정밀","tel":"031-484-8095","addr":"경기도 안산시 상록구 부곡동 75-82번지","category":"기타 - 기계공구"}]},{"lat":"37.338308292","long":"126.87334705","items":[{"name":"(주)세종비앤피","tel":"031-475-7800","addr":"경기도 안산시 상록구 부곡동 273-16번지","category":"음료식품 - 정육점"}]},{"lat":"37.340340582","long":"126.86195719","items":[{"name":"(주)안산동서물류","tel":"031-485-8222","addr":"경기도 안산시 상록구 부곡동 115-54번지","category":"음료식품 - 기타음료식품"}]},{"lat":"37.332926002","long":"126.8626255","items":[{"name":"(주)지놈오피니언","tel":"","addr":"경기도 안산시 상록구 부곡동 665-9번지 103호","category":"용역 서비스 - 사무서비스"},{"name":"(주)지놈오피니언","tel":"031-1111-1111","addr":"경기도 안산시 상록구 부곡동 665-9번지 103호","category":"용역 서비스 - 사무서비스"},{"name":"또래오래","tel":"031-406-5580","addr":"경기도 안산시 상록구 부곡동 665-9번지","category":"일반휴게음식 - 스넥"},{"name":"보그헤어","tel":"031-417-3144","addr":"경기도 안산시 상록구 부곡동 665-9번지","category":"보건위생 - 미용원"}]},{"lat":"37.343807259","long":"126.86776266","items":[{"name":"(주)지원산업","tel":"031-475-1546","addr":"경기도 안산시 상록구 부곡동 산9-9번지","category":"용역 서비스 - 기타용역서비스"},{"name":"매직쇼파","tel":"031-418-4789","addr":"경기도 안산시 상록구 부곡동 산9-9번지 공장B동 1호","category":"가구 - 일반가구"}]},{"lat":"37.326370589","long":"126.85846308","items":[{"name":"(주)집과사람","tel":"031-406-1233","addr":"경기도 안산시 상록구 부곡동 685-11번지 안산제2종합시장 3004호","category":"주방용구 - 주방용구"},{"name":"(주)한샘할인마트부곡점","tel":"031-501-0270","addr":"경기도 안산시 상록구 부곡동 685-11번지 안산제2종합시장 1045호","category":"유통업 영리 - 슈퍼마켓"},{"name":"가구아울렛직판장, 종합가구","tel":"031-484-0689","addr":"경기도 안산시 상록구 부곡동 685-11번지 ***연번지,25","category":"전기제품 - 가전제품"},{"name":"갤러리가구","tel":"031-419-2484","addr":"경기도 안산시 상록구 부곡동 685-11번지 지하 외 49호","category":"가구 - 일반가구"},{"name":"골방","tel":"","addr":"경기도 안산시 상록구 부곡동 685-11번지 안산제2종합시장 1층 1013호","category":"주방용구 - 주방용식기"},{"name":"그린환경","tel":"031-406-0738","addr":"경기도 안산시 상록구 부곡동 685-11번지 안산제2종합시장 3층 3043호","category":"용역 서비스 - 종합용역"},{"name":"꽃댕기노래봉사예술단","tel":"","addr":"경기도 안산시 상록구 부곡동 685-11번지 안산제2종합시장 3층 3011호","category":"용역 서비스 - 종합용역"},{"name":"대한시스템","tel":"031-439-7129","addr":"경기도 안산시 상록구 부곡동 685-11번지 안산제2종합시장 1025호","category":"전기제품 - 냉열기기"},{"name":"동우씨엔씨","tel":"031-417-0365","addr":"경기도 안산시 상록구 부곡동 685-11번지 안산제2종합시장 4층 402호","category":"신변잡화 - 기타잡화"},{"name":"동우환경","tel":"031-417-0365","addr":"경기도 안산시 상록구 부곡동 685-11번지 안산제2종합시장 4층 402호","category":"신변잡화 - 기타잡화"},{"name":"버스사랑","tel":"070-8944-0015","addr":"경기도 안산시 상록구 부곡동 685-11번지 안산제2종합시장 1012호","category":"용역 서비스 - 종합용역"},{"name":"부곡파크볼링장","tel":"031-437-0929","addr":"경기도 안산시 상록구 부곡동 685-11번지 안산제2종합시장 4층 404호","category":"레저업소 - 볼 링 장"},{"name":"샘골동태탕","tel":"","addr":"경기도 안산시 상록구 부곡동 685-11번지 안산제2종합시장 1034,1035호","category":"일반휴게음식 - 일반한식"},{"name":"서진상사","tel":"070-7556-7078","addr":"경기도 안산시 상록구 부곡동 685-11번지 안산제2종합시장3015호","category":"직물 - 옷감·직물"},{"name":"손님식당","tel":"031-111-1111","addr":"경기도 안산시 상록구 부곡동 685-11번지 안산제2종합시장 1027호","category":"일반휴게음식 - 일반한식"},{"name":"술먹기좋은날","tel":"031-409-9167","addr":"경기도 안산시 상록구 부곡동 685-11번지 1042","category":"일반휴게음식 - 주점"},{"name":"쌤터","tel":"031-487-8430","addr":"경기도 안산시 상록구 부곡동 685-11번지 안산제2종합시장2층2025호","category":"서적문구 - 문구용품"},{"name":"아바이","tel":"031-409-6666","addr":"경기도 안산시 상록구 부곡동 685-11번지 1005,1006호","category":"일반휴게음식 - 일반한식"},{"name":"아울렛마트","tel":"031-416-1500","addr":"경기도 안산시 상록구 부곡동 685-11번지 안산제2종합시장 1045호","category":"유통업 영리 - 슈퍼마켓"},{"name":"얼큰이포차","tel":"031-502-5752","addr":"경기도 안산시 상록구 부곡동 685-11번지 안산제2종합시장 1층 1041호","category":"일반휴게음식 - 주점"},{"name":"예일산업","tel":"031-407-4802","addr":"경기도 안산시 상록구 부곡동 685-11번지 안산제2종합시장2층2201호","category":"용역 서비스 - 종합용역"},{"name":"옛날통닭(부곡점)","tel":"031-408-6396","addr":"경기도 안산시 상록구 부곡동 685-11번지 안산제2종합시장 1002호","category":"일반휴게음식 - 스넥"},{"name":"옛날통닭(부곡점)","tel":"031-408-6396","addr":"경기도 안산시 상록구 부곡동 685-11번지 안산제2종합시장 1층 1002호","category":"일반휴게음식 - 스넥"},{"name":"올스윌(AllsWell)","tel":"031-418-0404","addr":"경기도 안산시 상록구 부곡동 685-11번지 제2종합상가 1014호","category":"서적문구 - 출판 및 인쇄물"},{"name":"월드당구장","tel":"031-409-0077","addr":"경기도 안산시 상록구 부곡동 685-11번지 안산제2종합시장 405호","category":"레저업소 - 당 구 장"},{"name":"일삼오칠호프","tel":"031-416-3400","addr":"경기도 안산시 상록구 부곡동 685-11번지 안산제2종합시장 1층 1002호","category":"일반휴게음식 - 주점"},{"name":"잇츠들","tel":"031-494-4902","addr":"경기도 안산시 상록구 부곡동 685-11번지 안산제2종합시장 1021호","category":"일반휴게음식 - 일반한식"},{"name":"잇츠들/피엘닷컴","tel":"031-494-4902","addr":"경기도 안산시 상록구 부곡동 685-11번지 안산제2종합시장1021호","category":"일반휴게음식 - 서양음식"},{"name":"장안에곱창","tel":"031-416-0066","addr":"경기도 안산시 상록구 부곡동 685-11번지 제2종합시장 1027호","category":"일반휴게음식 - 일반한식"},{"name":"제주오겹살참숯깡통구이","tel":"031-406-5592","addr":"경기도 안산시 상록구 부곡동 685-11번지 1039호 1038호","category":"일반휴게음식 - 일반한식"},{"name":"주식회사 파워쎄라","tel":"031-485-8989","addr":"경기도 안산시 상록구 부곡동 685-11번지 안산제2종합시장 3075호","category":"가구 - 일반가구"},{"name":"코리아에어컨","tel":"031-484-0520","addr":"경기도 안산시 상록구 부곡동 685-11번지 제2종합상가지하1층216","category":"전기제품 - 가전제품"},{"name":"코리아에어컨","tel":"031-484-0520","addr":"경기도 안산시 상록구 부곡동 685-11번지 제2종합상가 지하1층-216","category":"전기제품 - 가전제품"},{"name":"클커피컴퍼니","tel":"031-408-7977","addr":"경기도 안산시 상록구 부곡동 685-11번지 안산제2종합시장 1층 1033호","category":"음료식품 - 기타음료식품"},{"name":"토리몰","tel":"070-4643-7206","addr":"경기도 안산시 상록구 부곡동 685-11번지 안산제2종합시장 1008호","category":"의류 - 정장"},{"name":"페리카나종합시장점","tel":"031-416-7532","addr":"경기도 안산시 상록구 부곡동 685-11번지 안산제2종합시장 1003호","category":"일반휴게음식 - 주점"},{"name":"포리피아노","tel":"031-437-4213","addr":"경기도 안산시 상록구 부곡동 685-11번지 지하1층 32호 안산제2종합시장","category":"레져용품 - 피아노대리점"},{"name":"하우스씨엠(주)","tel":"031-406-6985","addr":"경기도 안산시 상록구 부곡동 685-11번지 3004-1호","category":"건축자재 - 기타건축자재"},{"name":"행복한꽃집","tel":"031-520-4880","addr":"경기도 안산시 상록구 부곡동 685-11번지 안산제2종합시장 1033호","category":"문화.취미 - 화원"},{"name":"홍어와생막걸리","tel":"031-416-2258","addr":"경기도 안산시 상록구 부곡동 685-11번지 안산제2종합시장 1030호","category":"일반휴게음식 - 일반한식"}]},{"lat":"37.345444428","long":"126.8654349","items":[{"name":"(주)태영유통","tel":"031-411-0223","addr":"경기도 안산시 상록구 부곡동 4-1번지","category":"음료식품 - 기타음료식품"}]},{"lat":"37.341695997","long":"126.86526117","items":[{"name":"(주)태원에이티에스","tel":"031-411-6456","addr":"경기도 안산시 상록구 부곡동 81-13번지 2층","category":"일반휴게음식 - 서양음식"},{"name":"이비가짬뽕안산부곡점","tel":"031-439-6577","addr":"경기도 안산시 상록구 부곡동 81-13번지","category":"일반휴게음식 - 중국식"},{"name":"자담","tel":"031-486-6588","addr":"경기도 안산시 상록구 부곡동 81-13번지 2층","category":"건축자재 - 기타건축자재"}]},{"lat":"37.334418842","long":"126.86024181","items":[{"name":"(주)한국피엠지제약","tel":"031-439-0889","addr":"경기도 안산시 상록구 부곡동 726-4번지","category":"약국 - 제약회사"},{"name":"(주)한국피엠지제약","tel":"031-439-0889","addr":"경기도 안산시 상록구 부곡동 726-4번지","category":"약국 - 제약회사"}]},{"lat":"37.333197917","long":"126.86399032","items":[{"name":"14일의약속","tel":"031-406-1409","addr":"경기도 안산시 상록구 부곡동 533-1번지","category":"보건위생 - 미용재료"},{"name":"고향촌","tel":"031-501-6469","addr":"경기도 안산시 상록구 부곡동 533-1번지 외1필지","category":"일반휴게음식 - 일반한식"},{"name":"구워더존치킨","tel":"031-406-9282","addr":"경기도 안산시 상록구 부곡동 533-1번지 1층 104,105호","category":"일반휴게음식 - 스넥"},{"name":"금강지물장식","tel":"031-407-0896","addr":"경기도 안산시 상록구 부곡동 533-1번지","category":"건축자재 - 인테리어전문"},{"name":"부곡불가마","tel":"031-409-5551","addr":"경기도 안산시 상록구 부곡동 533-1번지","category":"보건위생 - 사우나"},{"name":"부곡불가마사우나","tel":"031-409-5551","addr":"경기도 안산시 상록구 부곡동 533-1,533-2","category":"보건위생 - 사우나"},{"name":"이박사참숯갈비","tel":"031-406-2463","addr":"경기도 안산시 상록구 부곡동 533-1번지 1층","category":"일반휴게음식 - 일반한식"}]},{"lat":"37.3331979174","long":"126.8639903243","items":[{"name":"14일의약속","tel":"031-406-1409","addr":"경기도 안산시 상록구 부곡동 533-1번지","category":"도매 및 소매업 - 미용기구"},{"name":"고향촌","tel":"031-501-6469","addr":"경기도 안산시 상록구 부곡동 533-1번지","category":"숙박 및 음식점업 - 기타음식"},{"name":"부곡불가마사우나","tel":"031-409-5551","addr":"경기도 안산시 상록구 부곡동 533-1번지","category":"협회 및 단체, 수리 및 기타 개인서"},{"name":"이박사참숯갈비","tel":"031-406-2463","addr":"경기도 안산시 상록구 부곡동 533-1번지","category":"숙박 및 음식점업 - 기타음식"}]},{"lat":"37.332142772","long":"126.86317985","items":[{"name":"20세기김태연헤어짱","tel":"031-417-3343","addr":"경기도 안산시 상록구 부곡동 538-4번지 서광빌딩 1층","category":"보건위생 - 미용원"},{"name":"7080민속주점","tel":"031-417-2062","addr":"경기도 안산시 상록구 부곡동 538-4번지","category":"일반휴게음식 - 주점"},{"name":"가을놀이터","tel":"031-111-1111","addr":"경기도 안산시 상록구 부곡동 538-4번지 서광빌딩 2층 202호","category":"일반휴게음식 - 일반한식"},{"name":"나리네일","tel":"070-7568-8597","addr":"경기도 안산시 상록구 부곡동 538-4번지 서광빌딩 107호","category":"보건위생 - 피부미용실"},{"name":"돼지복권슈퍼","tel":"031-417-4737","addr":"경기도 안산시 상록구 부곡동 538-4번지 서광빌딩 102호","category":"유통업 영리 - 슈퍼마켓"},{"name":"라미옷가게","tel":"","addr":"경기도 안산시 상록구 부곡동 538-4번지 서광빌딩 103호","category":"의류 - 정장"},{"name":"아브라함교역","tel":"031-417-4996","addr":"경기도 안산시 상록구 부곡동 538-4 지하","category":"레져용품 - 스포츠·레져용품"},{"name":"점핑24다이어트","tel":"","addr":"경기도 안산시 상록구 부곡동 538-4번지 서광빌딩 3층 301호","category":"레저업소 - 헬스클럽"}]},{"lat":"37.327950061","long":"126.8606828","items":[{"name":"21세기태권도","tel":"031-419-7987","addr":"경기도 안산시 상록구 부곡동 620번지 2층","category":"학원 - 예·체능계학원"},{"name":"아지트","tel":"070-8817-9295","addr":"경기도 안산시 상록구 부곡동 620번지 1층","category":"일반휴게음식 - 주점"},{"name":"해법수학영어전문학원","tel":"031-417-2242","addr":"경기도 안산시 상록구 부곡동 620번지 3층","category":"회원제형태 - 학원"}]},{"lat":"37.3264805335","long":"126.8599634697","items":[{"name":"24시 옛날집","tel":"031-480-9502","addr":"경기도 안산시 상록구 부곡동 613-10번지","category":"숙박 및 음식점업 - 일반음식점업"}]},{"lat":"37.326480534","long":"126.85996347","items":[{"name":"24시옛날집","tel":"031-480-9502","addr":"경기도 안산시 상록구 부곡동 613-10번지 1층","category":"일반휴게음식 - 일반한식"}]},{"lat":"37.333197294","long":"126.86345999","items":[{"name":"25시노래연습장","tel":"031-408-7287","addr":"경기도 안산시 상록구 부곡동 662-5번지 지층","category":"레저업소 - 노 래 방"},{"name":"GS25안산정재로점","tel":"","addr":"경기도 안산시 상록구 부곡동 662-5번지","category":"유통업 영리 - 편 의 점"},{"name":"지리산약국","tel":"031-409-5596","addr":"경기도 안산시 상록구 부곡동 662-5번지","category":"약국 - 약국"},{"name":"토리헤어","tel":"031-407-9701","addr":"경기도 안산시 상록구 부곡동 662-5번지 2층","category":"보건위생 - 미용원"}]},{"lat":"37.335227194","long":"126.85813017","items":[{"name":"365열린의원","tel":"031-405-0365","addr":"경기도 안산시 상록구 부곡동 727-16번지 도원빌딩 2층","category":"의원 - 의원"},{"name":"부곡늘푸른약국","tel":"031-411-6325","addr":"경기도 안산시 상록구 부곡동 727-16번지 도원빌딩 1층","category":"약국 - 약국"}]},{"lat":"37.333702221","long":"126.86376372","items":[{"name":"7080좋은사람들","tel":"031-418-4222","addr":"경기도 안산시 상록구 부곡동 661-6번지 지하1층","category":"일반휴게음식 - 주점"},{"name":"과일생각","tel":"","addr":"경기도 안산시 상록구 부곡동 661-6번지 1층","category":"음료식품 - 농·축·수산품"},{"name":"용인축산정육점","tel":"031-418-2952","addr":"경기도 안산시 상록구 부곡동 661-6번지","category":"음료식품 - 정육점"},{"name":"젠틀맨","tel":"031-409-5955","addr":"경기도 안산시 상록구 부곡동 661-6번지","category":"일반휴게음식 - 일반한식"}]},{"lat":"37.324920584","long":"126.85898485","items":[{"name":"ABC어린이집","tel":"031-416-0773","addr":"경기도 안산시 상록구 부곡동 690-2번지","category":"기타 - 비영리/비대상"},{"name":"ABC어린이집[아이행복]","tel":"031-416-0773","addr":"경기도 안산시 상록구 부곡동 690-2번지","category":"학원 - 유아원"}]},{"lat":"37.332507296","long":"126.86671095","items":[{"name":"BS닷컴","tel":"031-417-1236","addr":"경기도 안산시 상록구 부곡동 535-4번지 지하 101호","category":"수리서비스 - 사무·통신기기수리"}]},{"lat":"37.339369198","long":"126.86340344","items":[{"name":"D&J푸드양평해장국","tel":"031-411-6162","addr":"경기도 안산시 상록구 부곡동 214-18번지","category":"일반휴게음식 - 일반한식"},{"name":"양평해장국","tel":"031-411-6162","addr":"경기도 안산시 상록구 부곡동 214-18번지 1층","category":"일반휴게음식 - 일반한식"}]},{"lat":"37.341362438","long":"126.86510379","items":[{"name":"E.F.A대명","tel":"031-692-5633","addr":"경기도 안산시 상록구 부곡동 75-57번지","category":"주방용구 - 주방용구"},{"name":"대명퍼니쳐","tel":"031-970-3059","addr":"경기도 안산시 상록구 부곡동 75-57번지","category":"주방용구 - 주방용구"}]},{"lat":"37.321197949","long":"126.85781862","items":[{"name":"ENG SHOP","tel":"","addr":"경기도 안산시 상록구 부곡동 696-7번지 4층","category":"사무통신 - 통신기기"},{"name":"엠케이앵글","tel":"031-417-8117","addr":"경기도 안산시 상록구 부곡동 696-7번지 1층","category":"건축자재 - 기타건축자재"}]},{"lat":"37.328563253","long":"126.86109911","items":[{"name":"G-IF(지-아이에프)","tel":"031-398-3700","addr":"경기도 안산시 상록구 부곡동 622-12번지 1층","category":"건축자재 - 인테리어전문"},{"name":"월드버티칼","tel":"031-416-2071","addr":"경기도 안산시 상록구 부곡동 622-12번지","category":"직물 - 카페트,커튼,천막,지물"}]},{"lat":"37.327697206","long":"126.86020939","items":[{"name":"GS25부곡대로점","tel":"","addr":"경기도 안산시 상록구 부곡동 684-1번지 101~102호","category":"유통업 영리 - 편 의 점"},{"name":"원미슈퍼","tel":"031-416-0393","addr":"경기도 안산시 상록구 부곡동 684-1번지","category":"유통업 영리 - 슈퍼마켓"}]},{"lat":"37.324452535","long":"126.85938062","items":[{"name":"GS25상록부곡로점","tel":"","addr":"경기도 안산시 상록구 부곡동 692-4번지 1층 상가","category":"유통업 영리 - 편 의 점"}]},{"lat":"37.335361662","long":"126.86510346","items":[{"name":"GS25상록부곡점","tel":"080-555-2525","addr":"경기도 안산시 상록구 부곡동 647-17번지","category":"유통업 영리 - 편 의 점"},{"name":"수인상사","tel":"031-409-7243","addr":"경기도 안산시 상록구 부곡동 647-17번지","category":"건축자재 - 목재·석재·철물"},{"name":"유정아머리박사","tel":"031-501-7883","addr":"경기도 안산시 상록구 부곡동 647-17번지 1층","category":"보건위생 - 미용원"}]},{"lat":"37.331696186","long":"126.86654316","items":[{"name":"GS25상록하이츠점","tel":"","addr":"경기도 안산시 상록구 부곡동 543-5번지 1층","category":"유통업 영리 - 편 의 점"}]},{"lat":"37.333865009","long":"126.85679001","items":[{"name":"GS25시낭한울점","tel":"","addr":"경기도 안산시 상록구 부곡동 734-16번지 1층","category":"유통업 영리 - 편 의 점"},{"name":"치킨쉐프 (부곡점)","tel":"031-413-5592","addr":"경기도 안산시 상록구 부곡동 734-16번지 104호","category":"일반휴게음식 - 스넥"},{"name":"치킨쉐프(부곡점)","tel":"031-413-5592","addr":"경기도 안산시 상록구 부곡동 734-16번지 1층","category":"일반휴게음식 - 스넥"},{"name":"치킨쉐프(부곡점)","tel":"031-413-5592","addr":"경기도 안산시 상록구 부곡동 734-16번지 1층 104호","category":"일반휴게음식 - 일반한식"}]},{"lat":"37.335562328","long":"126.85957389","items":[{"name":"GS25안산공고점","tel":"","addr":"경기도 안산시 상록구 부곡동 724-8번지 103호","category":"유통업 영리 - 편 의 점"}]},{"lat":"37.330591874","long":"126.86221235","items":[{"name":"GS25안산부곡점","tel":"02-2006-2118","addr":"경기도 안산시 상록구 부곡동 627-15번지 다청림 101호","category":"유통업 영리 - 편 의 점"}]},{"lat":"37.326668832","long":"126.85920717","items":[{"name":"K골프연습장","tel":"031-407-3645","addr":"경기도 안산시 상록구 부곡동 685-8번지","category":"회원제형태 - 레져업소"},{"name":"친구야","tel":"031-416-8584","addr":"경기도 안산시 상록구 부곡동 685-8번지 상록빌딩 203호","category":"레저업소 - 당 구 장"}]},{"lat":"37.326120725","long":"126.86046059","items":[{"name":"LG휘센시스템에어컨","tel":"070-4090-6443","addr":"경기도 안산시 상록구 부곡동 614-8번지","category":"자동차정비 유지 - 세차장"},{"name":"게러지코리아","tel":"","addr":"경기도 안산시 상록구 부곡동 614-8번지 101,102","category":"자동차정비 유지 - 자동차부품"}]},{"lat":"37.327030494","long":"126.8602445","items":[{"name":"LK슈퍼마켓","tel":"031-419-6080","addr":"경기도 안산시 상록구 부곡동 619-6번지","category":"유통업 영리 - 슈퍼마켓"},{"name":"세븐일레븐부곡신라점","tel":"02-3284-8168","addr":"경기도 안산시 상록구 부곡동 619-6번지 1층","category":"유통업 영리 - 편 의 점"}]},{"lat":"37.3294468571","long":"126.8616051954","items":[{"name":"M헤어","tel":"031-419-1580","addr":"경기도 안산시 상록구 부곡동 623-9번지","category":"협회 및 단체, 수리 및 기타 개인서"}]},{"lat":"37.335335339","long":"126.86571285","items":[{"name":"SK가스경인센터","tel":"032-224-4229","addr":"경기도 안산시 상록구 부곡동 647-4번지 102호","category":"건축자재 - 보일러·펌프·샷시"}]},{"lat":"37.325588622","long":"126.86004414","items":[{"name":"The style factory","tel":"031-409-2178","addr":"경기도 안산시 상록구 부곡동 612-5번지 영월드빌 401호","category":"직물 - 침구·수예점"}]},{"lat":"37.326814114","long":"126.86013208","items":[{"name":"YES냉난방시스템","tel":"031-415-6189","addr":"경기도 안산시 상록구 부곡동 613번지 1층","category":"전기제품 - 냉열기기"}]},{"lat":"37.3282554","long":"126.85984728","items":[{"name":"ing공조","tel":"031-417-3277","addr":"경기도 안산시 상록구 부곡동 682-3번지 102호","category":"용역 서비스 - 기타용역서비스"}]},{"lat":"37.3336479080","long":"126.8635494273","items":[{"name":"the 한잔","tel":"","addr":"경기도 안산시 상록구 부곡동 661-8번지","category":"숙박 및 음식점업 - 기타음식점"}]},{"lat":"37.3333627801","long":"126.8662919090","items":[{"name":"가가건설중기","tel":"","addr":"경기도 안산시 상록구 부곡동 638-11번지","category":"협회 및 단체, 수리 및 기타 개인서"}]},{"lat":"37.3263705894","long":"126.8584630762","items":[{"name":"가구아울렛직판장, 종합가구","tel":"031-416-4310","addr":"경기도 안산시 상록구 부곡동 685-11번지","category":"도매 및 소매업 - 가구"},{"name":"갤러리가구","tel":"031-419-2484","addr":"경기도 안산시 상록구 부곡동 685-11번지","category":"도매 및 소매업 - 가구"},{"name":"샘골동태탕","tel":"","addr":"경기도 안산시 상록구 부곡동 685-11번지","category":"숙박 및 음식점업 - 한식"},{"name":"손님식당","tel":"031-416-2500","addr":"경기도 안산시 상록구 부곡동 685-11번지","category":"숙박 및 음식점업 - 일반음식"},{"name":"아바이","tel":"","addr":"경기도 안산시 상록구 부곡동 685-11번지","category":"숙박 및 음식점업 - 기타음식"},{"name":"옛날통닭(부곡점)","tel":"031-408-6396","addr":"경기도 안산시 상록구 부곡동 685-11번지","category":"숙박 및 음식점업 - 치킨"},{"name":"잇츠들","tel":"031-494-4902","addr":"경기도 안산시 상록구 부곡동 685-11번지","category":"숙박 및 음식점업 - 일반음식점"},{"name":"페리카나 종합시장점","tel":"0504-3143-5168","addr":"경기도 안산시 상록구 부곡동 685-11번지","category":"숙박 및 음식점업 - 치킨"}]},{"lat":"37.330419226","long":"126.86099408","items":[{"name":"가람유통","tel":"031-438-0702","addr":"경기도 안산시 상록구 부곡동 673-16번지","category":"유통업 영리 - 기타유통업"}]},{"lat":"37.3295640566","long":"126.8616613920","items":[{"name":"가마솥 토종순대국","tel":"031-416-0094","addr":"경기도 안산시 상록구 부곡동 623번지","category":"숙박 및 음식점업 - 한식"}]},{"lat":"37.333731112","long":"126.86535469","items":[{"name":"가마치통닭부곡점","tel":"","addr":"경기도 안산시 상록구 부곡동 641-2번지 102호","category":"일반휴게음식 - 스넥"}]},{"lat":"37.3337311118","long":"126.8653546850","items":[{"name":"가마치통닭부곡점","tel":"031-438-9282","addr":"경기도 안산시 상록구 부곡동 641-2번지","category":"숙박 및 음식점업 - 치킨"}]},{"lat":"37.333588164","long":"126.86640434","items":[{"name":"가뮤라 슈즈1","tel":"031-000-0000","addr":"경기도 안산시 상록구 부곡동 638-9번지 B04호","category":"신변잡화 - 신발"}]},{"lat":"37.325786846","long":"126.86004376","items":[{"name":"가야공조","tel":"031-438-7777","addr":"경기도 안산시 상록구 부곡동 612-2번지 상가 101호","category":"전기제품 - 냉열기기"},{"name":"미니네세탁","tel":"031-407-0770","addr":"경기도 안산시 상록구 부곡동 612-2번지 1층 103호","category":"수리서비스 - 세탁소"}]},{"lat":"37.3309525085","long":"126.8624034979","items":[{"name":"가휘헤어샵&샵","tel":"031-416-6659","addr":"경기도 안산시 상록구 부곡동 627-12번지","category":"협회 및 단체, 수리 및 기타 개인서"},{"name":"가휘헤어샵&샵","tel":"031-416-6659","addr":"경기도 안산시 상록구 부곡동 627-12번지","category":"협회 및 단체, 수리 및 기타 개인서"}]},{"lat":"37.330952508","long":"126.8624035","items":[{"name":"가휘헤어샵&샵","tel":"031-814-6659","addr":"경기도 안산시 상록구 부곡동 627-12번지 1층","category":"보건위생 - 미용원"}]},{"lat":"37.335389473","long":"126.85820885","items":[{"name":"강원세탁","tel":"031-411-8555","addr":"경기도 안산시 상록구 부곡동 727-17번지","category":"수리서비스 - 세탁소"},{"name":"라라헤어","tel":"031-403-2255","addr":"경기도 안산시 상록구 부곡동 727-17번지 1층","category":"보건위생 - 미용원"},{"name":"맛돼지네양푼","tel":"031-410-2750","addr":"경기도 안산시 상록구 부곡동 727-17번지","category":"일반휴게음식 - 일반한식"},{"name":"푸른솔밭오리농장","tel":"031-484-3077","addr":"경기도 안산시 상록구 부곡동 727-17번지 1층","category":"일반휴게음식 - 일반한식"},{"name":"피어나","tel":"031-410-5315","addr":"경기도 안산시 상록구 부곡동 727-17번지 103호","category":"문화.취미 - 화원"}]},{"lat":"37.3353894729","long":"126.8582088462","items":[{"name":"강원세탁","tel":"","addr":"경기도 안산시 상록구 부곡동 727-17번지","category":"협회 및 단체, 수리 및 기타 개인서"},{"name":"라라헤어","tel":"031-403-2255","addr":"경기도 안산시 상록구 부곡동 727-17번지","category":"협회 및 단체, 수리 및 기타 개인서"},{"name":"맛돼지네양푼","tel":"031-410-2750","addr":"경기도 안산시 상록구 부곡동 727-17번지","category":"숙박 및 음식점업 - 한식"},{"name":"아뉴","tel":"","addr":"경기도 안산시 상록구 부곡동 727-17번지","category":"도매 및 소매업 - 구제의류"}]},{"lat":"37.3312856299","long":"126.8621884920","items":[{"name":"강원카인테리어","tel":"031-416-8145","addr":"경기도 안산시 상록구 부곡동 670-5번지","category":"도매 및 소매업 - 자동차내장품"}]},{"lat":"37.329870065","long":"126.86137874","items":[{"name":"강원카인테리어","tel":"031-416-8145","addr":"경기도 안산시 상록구 부곡동 673-10번지","category":"자동차정비 유지 - 카인테리어"},{"name":"김밥천국","tel":"031-471-6787","addr":"경기도 안산시 상록구 부곡동 673-10번지 1층","category":"일반휴게음식 - 일반한식"},{"name":"아지매순대","tel":"031-416-8887","addr":"경기도 안산시 상록구 부곡동 673-10번지 1층","category":"일반휴게음식 - 일반한식"},{"name":"하늘아이학원","tel":"031-407-3508","addr":"경기도 안산시 상록구 부곡동 673-10번지 3층","category":"학원 - 보습학원"}]},{"lat":"37.33373119","long":"126.85787351","items":[{"name":"강해법수학","tel":"031-461-6641","addr":"경기도 안산시 상록구 부곡동 734-6번지 101호","category":"회원제형태 - 학원"},{"name":"매일좋은날헤어샵","tel":"031-000-0000","addr":"경기도 안산시 상록구 부곡동 734-6번지 102호","category":"보건위생 - 미용원"}]},{"lat":"37.335616224","long":"126.85943838","items":[{"name":"개올화실","tel":"031-485-4742","addr":"경기도 안산시 상록구 부곡동 724-9번지 우암파크빌 202호","category":"회원제형태 - 기타4"}]},{"lat":"37.333285953","long":"126.86224118","items":[{"name":"거리가게","tel":"031-409-0108","addr":"경기도 안산시 상록구 부곡동 664-2번지 부곡파크타운 302호","category":"음료식품 - 기타음료식품"}]},{"lat":"37.3327852283","long":"126.8655143808","items":[{"name":"거성유통","tel":"070-4046-1068","addr":"경기도 안산시 상록구 부곡동 534-10번지","category":"도매 및 소매업 - 농공산품식자재"},{"name":"대성유통","tel":"031-509-5664","addr":"경기도 안산시 상록구 부곡동 534-10번지","category":"도매 및 소매업 - 농공산품식자재"}]},{"lat":"37.332867606","long":"126.85901482","items":[{"name":"경기금속","tel":"031-414-8608","addr":"경기도 안산시 상록구 부곡동 735-8번지","category":"건축자재 - 기타건축자재"},{"name":"경기철강","tel":"031-414-8618","addr":"경기도 안산시 상록구 부곡동 735-8번지 1층 101호102호","category":"건축자재 - 기타건축자재"}]},{"lat":"37.327147259","long":"126.85993964","items":[{"name":"경기난방관리","tel":"031-509-7599","addr":"경기도 안산시 상록구 부곡동 684-4번지 1층 101호","category":"용역 서비스 - 기타용역서비스"},{"name":"예당인테리어","tel":"031-415-1204","addr":"경기도 안산시 상록구 부곡동 684-4번지 101호","category":"건축자재 - 인테리어전문"},{"name":"헤어사랑","tel":"031-406-3640","addr":"경기도 안산시 상록구 부곡동 684-4번지 103호","category":"보건위생 - 미용원"}]},{"lat":"37.333451362","long":"126.85745655","items":[{"name":"경기에어컨","tel":"031-403-1786","addr":"경기도 안산시 상록구 부곡동 736-3번지","category":"용역 서비스 - 기타용역서비스"}]},{"lat":"37.322198604","long":"126.85824542","items":[{"name":"경안열쇠","tel":"031-501-1382","addr":"경기도 안산시 상록구 부곡동 697번지 302호","category":"수리서비스 - 기타수리서비스"},{"name":"디자인(Design)좋은생각","tel":"031-407-5390","addr":"경기도 안산시 상록구 부곡동 697번지 1층 101호","category":"건축자재 - 인테리어전문"},{"name":"반월열기","tel":"031-484-1421","addr":"경기도 안산시 상록구 부곡동 697번지 1층","category":"수리서비스 - 기타수리서비스"},{"name":"종합슈퍼","tel":"","addr":"경기도 안산시 상록구 부곡동 697번지 103호","category":"유통업 영리 - 슈퍼마켓"}]},{"lat":"37.335083851","long":"126.86640163","items":[{"name":"경일메디칼","tel":"031-415-1300","addr":"경기도 안산시 상록구 부곡동 637번지","category":"회원제형태 - 기타4"}]},{"lat":"37.322201232","long":"126.86041158","items":[{"name":"계룡산건강원","tel":"031-406-9142","addr":"경기도 안산시 상록구 부곡동 699-2번지 1층","category":"건강식품 - 기타건강식품"}]},{"lat":"37.325561196","long":"126.85971699","items":[{"name":"고깃간","tel":"031-502-3398","addr":"경기도 안산시 상록구 부곡동 612-11번지 102호","category":"음료식품 - 정육점"},{"name":"훌랄라숯불바베큐","tel":"031-409-3292","addr":"경기도 안산시 상록구 부곡동 612-11번지 1층","category":"일반휴게음식 - 스넥"},{"name":"훌랄라숯불바베큐","tel":"031-409-3292","addr":"경기도 안산시 상록구 부곡동 612-11번지 1층","category":"일반휴게음식 - 스넥"}]},{"lat":"37.3255611960","long":"126.8597169937","items":[{"name":"고깃간","tel":"031-502-3398","addr":"경기도 안산시 상록구 부곡동 612-11번지","category":"도매 및 소매업 - 식육판매점"}]},{"lat":"37.332585293","long":"126.86404787","items":[{"name":"고손맛두부","tel":"031-416-6622","addr":"경기도 안산시 상록구 부곡동 539번지 부곡쇼핑 101호","category":"음료식품 - 기타음료식품"},{"name":"굽모닝닭오리숯불바베큐","tel":"031-418-9192","addr":"경기도 안산시 상록구 부곡동 539번지 1층 108호 ,109,110호","category":"일반휴게음식 - 일반한식"},{"name":"비에이치씨부곡점","tel":"031-417-4777","addr":"경기도 안산시 상록구 부곡동 539번지 지하1층 B03호","category":"일반휴게음식 - 스넥"},{"name":"사철축산생고기직매장","tel":"031-501-6467","addr":"경기도 안산시 상록구 부곡동 539번지 부곡쇼핑 112호","category":"음료식품 - 정육점"},{"name":"안산농협부곡지점","tel":"031-416-6300","addr":"경기도 안산시 상록구 부곡동 539번지 청해빌딩 102호","category":"유통업 비영리 - 농,축협 직영매장"},{"name":"오케이헤어샵","tel":"032-415-4357","addr":"경기도 안산시 상록구 부곡동 539번지 부곡쇼핑 201호","category":"보건위생 - 미용원"},{"name":"이삭토스트부곡점","tel":"031-501-5544","addr":"경기도 안산시 상록구 부곡동 539번지 부곡쇼핑 113호","category":"일반휴게음식 - 스넥"},{"name":"조아당구장","tel":"031-000-0000","addr":"경기도 안산시 상록구 부곡동 539번지 301,302호","category":"레저업소 - 당 구 장"},{"name":"주식회사태랑","tel":"031-501-5470","addr":"경기도 안산시 상록구 부곡동 539번지 부곡쇼핑 202호","category":"용역 서비스 - 종합용역"},{"name":"축산물직판장","tel":"031-407-4985","addr":"경기도 안산시 상록구 부곡동 539번지 부곡쇼핑 1층 114호","category":"음료식품 - 정육점"},{"name":"플존PC방","tel":"070-4717-1439","addr":"경기도 안산시 상록구 부곡동 539번지 지하 1-4호","category":"레저업소 - 기타레져업소"},{"name":"헬로우영어학원","tel":"070-7581-6993","addr":"경기도 안산시 상록구 부곡동 539번지 부곡쇼핑 402호","category":"회원제형태 - 학원"}]},{"lat":"37.332502952","long":"126.86298736","items":[{"name":"고잔정보","tel":"031-501-6665","addr":"경기도 안산시 상록구 부곡동 666-3번지 2,3호","category":"사무통신 - 통신기기"},{"name":"요거프레소(부곡점)","tel":"","addr":"경기도 안산시 상록구 부곡동 666-3번지 1층","category":"일반휴게음식 - 서양음식"}]},{"lat":"37.3325029518","long":"126.8629873601","items":[{"name":"고잔정보","tel":"","addr":"경기도 안산시 상록구 부곡동 666-3번지","category":"도매 및 소매업 - 휴대폰,담배"}]},{"lat":"37.332503671","long":"126.86359668","items":[{"name":"고향방앗간","tel":"031-416-0889","addr":"경기도 안산시 상록구 부곡동 538-1번지","category":"음료식품 - 기타음료식품"},{"name":"라이브","tel":"031-416-8600","addr":"경기도 안산시 상록구 부곡동 538-1번지 은성빌딩 201호","category":"일반휴게음식 - 일반한식"},{"name":"콘서트노래연습장","tel":"031-000-0000","addr":"경기도 안산시 상록구 부곡동 538-1번지 은성빌딩 3층","category":"레저업소 - 노 래 방"},{"name":"콘서트라이브","tel":"031-416-4939","addr":"경기도 안산시 상록구 부곡동 538-1번지 은성빌딩 201호","category":"일반휴게음식 - 주점"},{"name":"폼당구장","tel":"","addr":"경기도 안산시 상록구 부곡동 538-1번지 은성빌딩 102,103호","category":"레저업소 - 당 구 장"}]},{"lat":"37.3325036707","long":"126.8635966751","items":[{"name":"고향방앗간","tel":"031-416-0889","addr":"경기도 안산시 상록구 부곡동 538-1번지","category":"제조업 - 방앗간"},{"name":"콘서트 노래연습장","tel":"","addr":"경기도 안산시 상록구 부곡동 538-1번지","category":"협회 및 단체, 수리 및 기타 개인서"}]},{"lat":"37.345950886","long":"126.86707039","items":[{"name":"골드문","tel":"031-481-9545","addr":"경기도 안산시 상록구 부곡동 3-2번지","category":"건축자재 - 인테리어전문"}]},{"lat":"37.324308768","long":"126.85970809","items":[{"name":"골목길","tel":"","addr":"경기도 안산시 상록구 부곡동 606-9번지 1층 104호","category":"일반휴게음식 - 일반한식"},{"name":"애목원","tel":"031-501-4049","addr":"경기도 안산시 상록구 부곡동 606-9번지","category":"문화.취미 - 화원"},{"name":"우연호프","tel":"031-501-1800","addr":"경기도 안산시 상록구 부곡동 606-9번지 1층","category":"일반휴게음식 - 주점"},{"name":"전이랑술이랑","tel":"","addr":"경기도 안산시 상록구 부곡동 606-9번지 1층","category":"일반휴게음식 - 일반한식"},{"name":"프린스호프","tel":"031-501-1800","addr":"경기도 안산시 상록구 부곡동 606-9번지 1층 102호","category":"일반휴게음식 - 주점"},{"name":"헤어일번지","tel":"031-416-1151","addr":"경기도 안산시 상록구 부곡동 606-9번지 1층","category":"보건위생 - 미용원"}]},{"lat":"37.3301414597","long":"126.8622921751","items":[{"name":"골프메인","tel":"031-417-4464","addr":"경기도 안산시 상록구 부곡동 624-1번지","category":"도매 및 소매업 - 골프용품, 통신판"}]},{"lat":"37.33014146","long":"126.86229218","items":[{"name":"골프메인","tel":"031-417-4464","addr":"경기도 안산시 상록구 부곡동 624-1번지","category":"레져용품 - 골프용품 전문점"}]},{"lat":"37.3326453979","long":"126.8615427877","items":[{"name":"곰망치모듬생선구이","tel":"031-409-0215","addr":"경기도 안산시 상록구 부곡동 667-12번지","category":"숙박 및 음식점업 - 한식"}]},{"lat":"37.332645398","long":"126.86154279","items":[{"name":"곰망치모듬생선구이","tel":"","addr":"경기도 안산시 상록구 부곡동 667-12번지 1층","category":"일반휴게음식 - 일반한식"}]},{"lat":"37.33072712","long":"126.86229108","items":[{"name":"곱깨비(부곡점)","tel":"","addr":"경기도 안산시 상록구 부곡동 627-10번지 1층","category":"일반휴게음식 - 일반한식"},{"name":"동진인테리어","tel":"031-417-6789","addr":"경기도 안산시 상록구 부곡동 627-10번지 1층","category":"직물 - 카페트,커튼,천막,지물"}]},{"lat":"37.332394763","long":"126.86293114","items":[{"name":"공때리는클럽","tel":"031-000-0000","addr":"경기도 안산시 상록구 부곡동 666-4번지 부곡웨스턴빌딩 202호","category":"레저업소 - 당 구 장"},{"name":"도그카페","tel":"031-407-9489","addr":"경기도 안산시 상록구 부곡동 666-4번지 부곡웨스턴빌딩 2층 201호","category":"음료식품 - 기타음료식품"},{"name":"버블캐슬","tel":"031-409-2263","addr":"경기도 안산시 상록구 부곡동 666-4번지 1층","category":"일반휴게음식 - 주점"},{"name":"부곡스튜디오","tel":"031-411-5206","addr":"경기도 안산시 상록구 부곡동 666-4번지 부곡웨스턴빌딩 1층 103호","category":"광학제품 - 사진관"},{"name":"슈올즈 부곡점","tel":"051-531-7257","addr":"경기도 안산시 상록구 부곡동 666-4번지 1층","category":"신변잡화 - 신발"},{"name":"이디야커피 (안산부곡동점)","tel":"031-502-1587","addr":"경기도 안산시 상록구 부곡동 666-4번지 부곡웨스턴빌딩 103호","category":"일반휴게음식 - 서양음식"}]},{"lat":"37.33383793","long":"126.86423739","items":[{"name":"공방DC마트","tel":"031-416-6860","addr":"경기도 안산시 상록구 부곡동 643-11번지","category":"신변잡화 - 기타잡화"}]},{"lat":"37.3337022213","long":"126.8637637195","items":[{"name":"과일생각","tel":"031-416-8333","addr":"경기도 안산시 상록구 부곡동 661-6번지","category":"도매 및 소매업 - 청과"},{"name":"용인축산","tel":"031-418-2952","addr":"경기도 안산시 상록구 부곡동 661-6번지","category":"도매 및 소매업 - 육류"}]},{"lat":"37.336675587","long":"126.86376952","items":[{"name":"광동보신원","tel":"031-483-8548","addr":"경기도 안산시 상록구 부곡동 654번지 공원그린빌","category":"건강식품 - 기타건강식품"}]},{"lat":"37.324477667","long":"126.8578236","items":[{"name":"광신천막공업사","tel":"031-493-8272","addr":"경기도 안산시 상록구 부곡동 689-7번지 102호","category":"직물 - 카페트,커튼,천막,지물"}]},{"lat":"37.323398741","long":"126.85970981","items":[{"name":"교동태권도","tel":"051-555-0075","addr":"경기도 안산시 상록구 부곡동 605-9번지 하나파크빌 4층","category":"학원 - 예·체능계학원"}]},{"lat":"37.329257509","long":"126.86149272","items":[{"name":"교촌치킨(부곡점)","tel":"031-501-9924","addr":"경기도 안산시 상록구 부곡동 623-7번지 101호","category":"일반휴게음식 - 스넥"},{"name":"호식이두마리치킨(부곡점)","tel":"031-419-9925","addr":"경기도 안산시 상록구 부곡동 623-7번지 101호","category":"일반휴게음식 - 일반한식"}]},{"lat":"37.333396366","long":"126.86418178","items":[{"name":"구들장생삼겹살","tel":"031-403-4139","addr":"경기도 안산시 상록구 부곡동 643-7번지 1층","category":"일반휴게음식 - 일반한식"},{"name":"돈이랑김치랑","tel":"031-417-5550","addr":"경기도 안산시 상록구 부곡동 643-7번지","category":"일반휴게음식 - 일반한식"}]},{"lat":"37.330313215","long":"126.86276575","items":[{"name":"구이동","tel":"031-417-9290","addr":"경기도 안산시 상록구 부곡동 626-7번지","category":"음료식품 - 정육점"},{"name":"구이동","tel":"031-417-9290","addr":"경기도 안산시 상록구 부곡동 626-7번지","category":"일반휴게음식 - 일반한식"}]},{"lat":"37.3303132150","long":"126.8627657541","items":[{"name":"구이동","tel":"031-417-9290","addr":"경기도 안산시 상록구 부곡동 626-7번지","category":"숙박 및 음식점업 - 한식점업"}]},{"lat":"37.332556786","long":"126.86279544","items":[{"name":"구제","tel":"","addr":"경기도 안산시 상록구 부곡동 666-2번지 1층","category":"의류 - 기타의류"},{"name":"구제#","tel":"","addr":"경기도 안산시 상록구 부곡동 666-2번지 102호","category":"의류 - 정장"}]},{"lat":"37.33491944","long":"126.86448365","items":[{"name":"구제","tel":"031-000-0000","addr":"경기도 안산시 상록구 부곡동 657-7번지 B01호","category":"의류 - 정장"}]},{"lat":"37.33336989","long":"126.86465575","items":[{"name":"구제샵","tel":"","addr":"경기도 안산시 상록구 부곡동 642-6번지 지층 102호","category":"의류 - 정장"}]},{"lat":"37.332395841","long":"126.86384511","items":[{"name":"국가대표족발","tel":"031-437-9233","addr":"경기도 안산시 상록구 부곡동 539-6번지 104호","category":"일반휴게음식 - 일반한식"},{"name":"또와막썰어회","tel":"031-416-8254","addr":"경기도 안산시 상록구 부곡동 539-6번지 101호","category":"일반휴게음식 - 일반한식"},{"name":"한판승","tel":"070-8613-7534","addr":"경기도 안산시 상록구 부곡동 539-6번지 102,103호","category":"일반휴게음식 - 일반한식"}]},{"lat":"37.325785972","long":"126.85932168","items":[{"name":"국민미니왕족발","tel":"031-111-1111","addr":"경기도 안산시 상록구 부곡동 686-7번지 105호","category":"일반휴게음식 - 일반한식"},{"name":"대경텔레콤","tel":"031-415-3010","addr":"경기도 안산시 상록구 부곡동 686-7번지 101호","category":"사무통신 - 통신기기"},{"name":"빵의나라","tel":"031-416-2795","addr":"경기도 안산시 상록구 부곡동 686-7번지","category":"음료식품 - 제과점"},{"name":"제일디자인앤인테리어","tel":"031-409-9776","addr":"경기도 안산시 상록구 부곡동 686-7번지 104호","category":"직물 - 카페트,커튼,천막,지물"},{"name":"제일종합인테리어","tel":"031-409-9776","addr":"경기도 안산시 상록구 부곡동 686-7번지 104호","category":"직물 - 카페트,커튼,천막,지물"},{"name":"제일종합인테리어","tel":"031-409-9776","addr":"경기도 안산시 상록구 부곡동 686-7번지","category":"직물 - 카페트,커튼,천막,지물"}]},{"lat":"37.3257859718","long":"126.8593216751","items":[{"name":"국민미니왕족발","tel":"031-417-1236","addr":"경기도 안산시 상록구 부곡동 686-7번지","category":"숙박 및 음식점업 - 일반음식점"},{"name":"대경텔레콤","tel":"031-415-3010","addr":"경기도 안산시 상록구 부곡동 686-7번지","category":"도매 및 소매업 - 통신기기"},{"name":"빵의나라","tel":"031-416-2795","addr":"경기도 안산시 상록구 부곡동 686-7번지","category":"숙박 및 음식점업 - 제과점"},{"name":"제일디자인앤인테리어","tel":"031-409-9776","addr":"경기도 안산시 상록구 부곡동 686-7번지","category":"도매 및 소매업 - 벽지,장판,문구"}]},{"lat":"37.333335157","long":"126.85821279","items":[{"name":"국제공업","tel":"031-484-4524","addr":"경기도 안산시 상록구 부곡동 735-16번지","category":"건축자재 - 기타건축자재"},{"name":"국제종합건재(주)","tel":"031-484-4524","addr":"경기도 안산시 상록구 부곡동 735-16번지","category":"건축자재 - 기타건축자재"}]},{"lat":"37.332867351","long":"126.86640564","items":[{"name":"국제세탁소","tel":"031-501-5772","addr":"경기도 안산시 상록구 부곡동 630-9번지","category":"수리서비스 - 세탁소"},{"name":"에어컨이사나라","tel":"031-507-4804","addr":"경기도 안산시 상록구 부곡동 630-9번지 그린상가103","category":"용역 서비스 - 기타용역서비스"}]},{"lat":"37.333592526","long":"126.86243243","items":[{"name":"굴바다","tel":"031-417-8881","addr":"경기도 안산시 상록구 부곡동 663-7번지 1층","category":"일반휴게음식 - 일반한식"},{"name":"신경화굴바다보쌈삼합","tel":"031-417-9882","addr":"경기도 안산시 상록구 부곡동 663-7번지 101호","category":"일반휴게음식 - 일반한식"}]},{"lat":"37.3325852926","long":"126.8640478704","items":[{"name":"굽모닝닭오리숯불바베큐","tel":"031-418-9192","addr":"경기도 안산시 상록구 부곡동 539번지","category":"숙박 및 음식점업 - 일반음식"},{"name":"오케이헤어샵","tel":"031-415-1357","addr":"경기도 안산시 상록구 부곡동 539번지","category":"협회 및 단체, 수리 및 기타 개인서"},{"name":"이삭토스트 부곡점","tel":"031-501-5544","addr":"경기도 안산시 상록구 부곡동 539번지","category":"숙박 및 음식점업 - 기타음식"},{"name":"축산물직판장","tel":"031-407-4985","addr":"경기도 안산시 상록구 부곡동 539번지","category":"도매 및 소매업 - 식육즉석판매제공업"}]},{"lat":"37.333341004","long":"126.86307608","items":[{"name":"굿서플라이","tel":"031-407-9921","addr":"경기도 안산시 상록구 부곡동 662-8번지 전부 1층","category":"회원제형태 - 건강식품"},{"name":"킹당구클럽","tel":"","addr":"경기도 안산시 상록구 부곡동 662-8번지","category":"레저업소 - 당 구 장"}]},{"lat":"37.3333410035","long":"126.8630760761","items":[{"name":"굿서플라이(모닝글로리)","tel":"031-407-9921","addr":"경기도 안산시 상록구 부곡동 662-8번지","category":"도매 및 소매업 - 문구 잡화"}]},{"lat":"37.346194379","long":"126.86726181","items":[{"name":"귀인촌버섯샤브샤브","tel":"031-484-4885","addr":"경기도 안산시 상록구 부곡동 2-44번지","category":"일반휴게음식 - 일반한식"}]},{"lat":"37.34631155","long":"126.86729546","items":[{"name":"귀인한우촌","tel":"031-485-4885","addr":"경기도 안산시 상록구 부곡동 2번지 귀인한우촌가든목장 가동 1층","category":"일반휴게음식 - 일반한식"},{"name":"주식회사 귀인한우유통","tel":"031-484-4885","addr":"경기도 안산시 상록구 부곡동 2번지 귀인한우촌가든목장 나동","category":"음료식품 - 정육점"}]},{"lat":"37.332728991","long":"126.86365268","items":[{"name":"귀일만두","tel":"","addr":"경기도 안산시 상록구 부곡동 538번지 부곡프라자 105호","category":"일반휴게음식 - 스넥"},{"name":"뉴프라자커피까페","tel":"031-416-0877","addr":"경기도 안산시 상록구 부곡동 538번지 부곡프라자","category":"일반휴게음식 - 서양음식"},{"name":"달달한친구들북카페협동조합","tel":"031-319-3089","addr":"경기도 안산시 상록구 부곡동 538번지 부곡프라자 3층 304호","category":"일반휴게음식 - 서양음식"},{"name":"마음수련","tel":"070-9144-7213","addr":"경기도 안산시 상록구 부곡동 538번지 부곡프라자 305호","category":"레저업소 - 헬스클럽"},{"name":"보옥당","tel":"031-417-0326","addr":"경기도 안산시 상록구 부곡동 538번지 부곡프라자 108호","category":"신변잡화 - 귀금속"},{"name":"부곡치과의원","tel":"031-416-2994","addr":"경기도 안산시 상록구 부곡동 538번지 부곡프라자 301호","category":"의원 - 치과의원"},{"name":"뻘떡빨닭","tel":"031-502-9966","addr":"경기도 안산시 상록구 부곡동 538번지 부곡프라자 103호","category":"일반휴게음식 - 일반한식"},{"name":"뻘떡빨닭","tel":"031-502-9966","addr":"경기도 안산시 상록구 부곡동 538번지 부곡프라자 103호","category":"일반휴게음식 - 일반한식"},{"name":"손한의원","tel":"031-409-8856","addr":"경기도 안산시 상록구 부곡동 538번지 부곡프라자","category":"의원 - 한의원"},{"name":"스타헬스에어로빅","tel":"031-416-0787","addr":"경기도 안산시 상록구 부곡동 538번지 부곡프라자 601호","category":"회원제형태 - 레져업소"},{"name":"씨유안산부곡타워점","tel":"031-406-0151","addr":"경기도 안산시 상록구 부곡동 538번지 부곡프라자 110동 111호","category":"유통업 영리 - 편 의 점"},{"name":"애플김밥","tel":"031-408-1272","addr":"경기도 안산시 상록구 부곡동 538번지 부곡프라자 112호","category":"일반휴게음식 - 일반한식"},{"name":"오케이","tel":"070-9148-1124","addr":"경기도 안산시 상록구 부곡동 538번지 부곡프라자 305호","category":"보건위생 - 미용재료"},{"name":"팔도청과","tel":"","addr":"경기도 안산시 상록구 부곡동 538번지 부곡프라자 106호","category":"음료식품 - 농·축·수산품"},{"name":"프라자신발가방","tel":"031-438-6561","addr":"경기도 안산시 상록구 부곡동 538번지 부곡프라자 1층 104호","category":"신변잡화 - 신발"},{"name":"피카소안경","tel":"031-416-1245","addr":"경기도 안산시 상록구 부곡동 538번지 부곡프라자 107호","category":"보건위생 - 안경"},{"name":"헤어토크","tel":"031-409-8694","addr":"경기도 안산시 상록구 부곡동 538번지 부곡프라자 1층 109호","category":"보건위생 - 미용원"}]},{"lat":"37.322954948","long":"126.85782653","items":[{"name":"그러니까두루현대모터클럽안산점","tel":"031-416-0930","addr":"경기도 안산시 상록구 부곡동 695번지","category":"자동차정비 유지 - 자동차정비"}]},{"lat":"37.325174222","long":"126.86010133","items":[{"name":"그루터기","tel":"070-8031-4038","addr":"경기도 안산시 상록구 부곡동 610-11번지 201호","category":"학원 - 기타 교육기관"}]},{"lat":"37.327003627","long":"126.86037994","items":[{"name":"그린공조","tel":"031-548-6643","addr":"경기도 안산시 상록구 부곡동 619-5번지 302호","category":"용역 서비스 - 기타용역서비스"}]},{"lat":"37.334057795","long":"126.85971215","items":[{"name":"그린에어컨","tel":"031-482-5031","addr":"경기도 안산시 상록구 부곡동 729-12번지 301호","category":"용역 서비스 - 기타용역서비스"},{"name":"다온시큐","tel":"031-123-4567","addr":"경기도 안산시 상록구 부곡동 729-12번지 402호","category":"용역 서비스 - 기타용역서비스"}]},{"lat":"37.33636956","long":"126.86404091","items":[{"name":"그린워터정수기","tel":"02-2697-2526","addr":"경기도 안산시 상록구 부곡동 654-10번지","category":"주방용구 - 정수기"},{"name":"루시앤폴","tel":"031-506-5535","addr":"경기도 안산시 상록구 부곡동 654-10번지 101호","category":"문화.취미 - 화원"},{"name":"소중하개 사랑하개","tel":"031-506-9943","addr":"경기도 안산시 상록구 부곡동 654-10번지 101호","category":"문화.취미 - 애완동물"},{"name":"시장통닭개장","tel":"031-507-0240","addr":"경기도 안산시 상록구 부곡동 654-10번지 102호","category":"일반휴게음식 - 일반한식"}]},{"lat":"37.333063188","long":"126.86435165","items":[{"name":"그린콘트롤","tel":"031-406-1359","addr":"경기도 안산시 상록구 부곡동 533-4번지 부곡 상가 203호","category":"전기제품 - 기타전기제품"},{"name":"내손에피어나","tel":"031-438-1163","addr":"경기도 안산시 상록구 부곡동 533-4번지 부곡시장 114,115호","category":"보건위생 - 미용원"},{"name":"대가.우복당식품","tel":"","addr":"경기도 안산시 상록구 부곡동 533-4번지 부곡시장 1층 109호","category":"음료식품 - 기타음료식품"},{"name":"럭키할인마트","tel":"031-406-0610","addr":"경기도 안산시 상록구 부곡동 533-4번지","category":"유통업 영리 - 슈퍼마켓"},{"name":"럭키할인마트","tel":"031-406-0610","addr":"경기도 안산시 상록구 부곡동 533-4번지 지하","category":"유통업 영리 - 슈퍼마켓"},{"name":"먹어보3","tel":"031-501-3080","addr":"경기도 안산시 상록구 부곡동 533-4번지 부곡시장 1층 102호","category":"일반휴게음식 - 일반한식"},{"name":"미니펫","tel":"031-417-7009","addr":"경기도 안산시 상록구 부곡동 533-4번지 부곡시장 106호","category":"문화.취미 - 애완동물"},{"name":"바이올렛","tel":"031-501-5013","addr":"경기도 안산시 상록구 부곡동 533-4번지 부곡시장 105호","category":"의류 - 정장"},{"name":"부곡반찬","tel":"031-1111-1111","addr":"경기도 안산시 상록구 부곡동 533-4번지 부곡시장 1층 113호","category":"음료식품 - 기타음료식품"},{"name":"부곡상가번영회","tel":"031-416-5960","addr":"경기도 안산시 상록구 부곡동 533-4번지 시장상가","category":"기타 - 비영리/대상"},{"name":"부곡피아노.속셈학원","tel":"031-417-4146","addr":"경기도 안산시 상록구 부곡동 533-4번지 부곡시장상가 602호","category":"학원 - 기타 교육기관"},{"name":"뷰티챠밍","tel":"031-409-7077","addr":"경기도 안산시 상록구 부곡동 533-4번지 부곡시장 302호","category":"보건위생 - 화장품"},{"name":"샘","tel":"","addr":"경기도 안산시 상록구 부곡동 533-4번지 304,305호","category":"일반휴게음식 - 일반한식"},{"name":"엘리","tel":"031-000-0000","addr":"경기도 안산시 상록구 부곡동 533-4번지 부곡시장 1층 108호","category":"의류 - 정장"},{"name":"예니악세사리","tel":"031-406-7628","addr":"경기도 안산시 상록구 부곡동 533-4번지 부곡시장 104호","category":"신변잡화 - 액세서리"},{"name":"콜라","tel":"","addr":"경기도 안산시 상록구 부곡동 533-4번지 부곡시장 110호","category":"의류 - 정장"},{"name":"티엔티 (TNT)","tel":"02-1111-1111","addr":"경기도 안산시 상록구 부곡동 533-4번지 부곡시장 1동 110층","category":"의류 - 정장"},{"name":"패션하우스","tel":"031-415-7475","addr":"경기도 안산시 상록구 부곡동 533-4번지 부곡시장 1층 119호","category":"의류 - 정장"},{"name":"홀리키즈","tel":"031-111-1111","addr":"경기도 안산시 상록구 부곡동 533-4번지 부곡시장 1층 117호","category":"의류 - 아동의류"}]},{"lat":"37.32931107","long":"126.86107514","items":[{"name":"그림동화미술교습소","tel":"031-417-9792","addr":"경기도 안산시 상록구 부곡동 674-3번지","category":"학원 - 예·체능계학원"},{"name":"재능음악학원","tel":"","addr":"경기도 안산시 상록구 부곡동 674-3번지","category":"학원 - 예·체능계학원"}]},{"lat":"37.333668298","long":"126.85802032","items":[{"name":"그옛날치킨","tel":"031-480-3533","addr":"경기도 안산시 상록구 부곡동 734-7번지 1층","category":"일반휴게음식 - 스넥"},{"name":"복덩이포차","tel":"","addr":"경기도 안산시 상록구 부곡동 734-7번지 1층","category":"일반휴게음식 - 일반한식"},{"name":"우리자판기","tel":"","addr":"경기도 안산시 상록구 부곡동 734-7번지 104호","category":"음료식품 - 기타음료식품"},{"name":"우리자판기","tel":"031-410-2131","addr":"경기도 안산시 상록구 부곡동 734-7번지 104호","category":"음료식품 - 기타음료식품"},{"name":"우리자판기/삼원FA(일반)","tel":"031-410-2131","addr":"경기도 안산시 상록구 부곡동 734-7번지 104호","category":"기타 - 기타 전문점"},{"name":"이레코스","tel":"031-411-8177","addr":"경기도 안산시 상록구 부곡동 734-7번지","category":"보건위생 - 화장품"}]},{"lat":"37.330445116","long":"126.86004623","items":[{"name":"금강산숯불갈비","tel":"031-406-3992","addr":"경기도 안산시 상록구 부곡동 678-7번지 1층","category":"일반휴게음식 - 일반한식"},{"name":"블루머큐리코리아","tel":"031-410-8488","addr":"경기도 안산시 상록구 부곡동 678-7번지 1층","category":"음료식품 - 기타음료식품"}]},{"lat":"37.3304451160","long":"126.8600462268","items":[{"name":"금강산숯불갈비","tel":"031-406-3992","addr":"경기도 안산시 상록구 부곡동 678-7번지","category":"숙박 및 음식점업 - 한식"}]},{"lat":"37.322558527","long":"126.85784985","items":[{"name":"금도끼은도끼","tel":"","addr":"경기도 안산시 상록구 부곡동 695-22번지 1층","category":"일반휴게음식 - 일반한식"}]},{"lat":"37.3257849972","long":"126.8585206101","items":[{"name":"금메달햇순대국밥","tel":"031-407-5525","addr":"경기도 안산시 상록구 부곡동 686-2번지","category":"숙박 및 음식점업 - 한식"}]},{"lat":"37.325784997","long":"126.85852061","items":[{"name":"금메달햇순대국밥","tel":"031-407-5525","addr":"경기도 안산시 상록구 부곡동 686-2번지 1층","category":"일반휴게음식 - 일반한식"}]},{"lat":"37.336974555","long":"126.85763031","items":[{"name":"금성냉열","tel":"031-111-1111","addr":"경기도 안산시 상록구 부곡동 714-1번지 대경마로니에 302호","category":"전기제품 - 냉열기기"}]},{"lat":"37.341281036","long":"126.87278899","items":[{"name":"기린기업","tel":"031-480-5288","addr":"경기도 안산시 상록구 부곡동 234-14번지","category":"용역 서비스 - 종합용역"}]},{"lat":"37.324614718","long":"126.85938032","items":[{"name":"기분전환헤어샵","tel":"031-417-9285","addr":"경기도 안산시 상록구 부곡동 692-3번지 1층","category":"보건위생 - 미용원"},{"name":"미녀는 개로워","tel":"","addr":"경기도 안산시 상록구 부곡동 692-3번지 101호","category":"문화.취미 - 애완동물"},{"name":"스마트텔레콤","tel":"031-416-4016","addr":"경기도 안산시 상록구 부곡동 692-3번지 1층 102호","category":"사무통신 - 통신기기"},{"name":"여우와솜사탕","tel":"031-406-8969","addr":"경기도 안산시 상록구 부곡동 692-3번지","category":"서적문구 - 문구용품"},{"name":"제이뷰티살롱","tel":"031-407-6018","addr":"경기도 안산시 상록구 부곡동 692-3번지 101호","category":"보건위생 - 미용원"}]},{"lat":"37.333251819","long":"126.86385482","items":[{"name":"기화정","tel":"031-416-6249","addr":"경기도 안산시 상록구 부곡동 533번지 연세성모의원 1층 105호","category":"음료식품 - 농·축·수산품"},{"name":"부곡라성약국","tel":"031-8044-8180","addr":"경기도 안산시 상록구 부곡동 533번지","category":"약국 - 약국"},{"name":"연세성모의원","tel":"031-502-7575","addr":"경기도 안산시 상록구 부곡동 533번지","category":"의원 - 의원"},{"name":"제이와이(JY)댄스에어로빅","tel":"031-409-1554","addr":"경기도 안산시 상록구 부곡동 533번지 지층 상가","category":"회원제형태 - 레져업소"}]},{"lat":"37.3274542304","long":"126.8604580723","items":[{"name":"김가네한우사골","tel":"","addr":"경기도 안산시 상록구 부곡동 619-9번지","category":"도매 및 소매업 - 즉석판매제조가공업"},{"name":"디디치킨(부곡점)","tel":"031-410-8266","addr":"경기도 안산시 상록구 부곡동 619-9번지","category":"숙박 및 음식점업 - 치킨,피자"}]},{"lat":"37.32745423","long":"126.86045807","items":[{"name":"김가네한우사골","tel":"070-7803-8787","addr":"경기도 안산시 상록구 부곡동 619-9번지 1층 103호","category":"음료식품 - 기타음료식품"},{"name":"디디치킨부곡점(피자명)","tel":"031-475-8255","addr":"경기도 안산시 상록구 부곡동 619-9번지","category":"일반휴게음식 - 스넥"},{"name":"샘헤어","tel":"031-407-2220","addr":"경기도 안산시 상록구 부곡동 619-9번지 1층","category":"보건위생 - 미용원"},{"name":"자연인테리어","tel":"031-437-9248","addr":"경기도 안산시 상록구 부곡동 619-9번지 1층 101호","category":"가구 - 기타가구"}]},{"lat":"37.329644676","long":"126.86126633","items":[{"name":"김밥사랑","tel":"031-416-3383","addr":"경기도 안산시 상록구 부곡동 674-1번지 동현빌딩 1층 102호","category":"일반휴게음식 - 스넥"},{"name":"커피하우스","tel":"070-3611-1872","addr":"경기도 안산시 상록구 부곡동 674-1번지 동현빌딩 1층 4호","category":"일반휴게음식 - 서양음식"},{"name":"태룡관총본관","tel":"031-416-1204","addr":"경기도 안산시 상록구 부곡동 674-1번지","category":"학원 - 예·체능계학원"}]},{"lat":"37.3298700652","long":"126.8613787381","items":[{"name":"김밥천국","tel":"031-471-6787","addr":"경기도 안산시 상록구 부곡동 673-10번지","category":"숙박 및 음식점업 - 분식"},{"name":"아지매순대","tel":"031-416-8887","addr":"경기도 안산시 상록구 부곡동 673-10번지","category":"숙박 및 음식점업 - 한식"}]},{"lat":"37.333394891","long":"126.86292929","items":[{"name":"김밥천국","tel":"031-417-0109","addr":"경기도 안산시 상록구 부곡동 662-9번지 1층","category":"일반휴게음식 - 스넥"},{"name":"이네이처PC방","tel":"031-407-8824","addr":"경기도 안산시 상록구 부곡동 662-9번지 2층","category":"레저업소 - 기타레져업소"},{"name":"플러스영수전문학원","tel":"","addr":"경기도 안산시 상록구 부곡동 662-9번지 201호","category":"학원 - 보습학원"}]},{"lat":"37.335478465","long":"126.86482115","items":[{"name":"김서방","tel":"031-408-2466","addr":"경기도 안산시 상록구 부곡동 655-11번지 102호","category":"가구 - 일반가구"},{"name":"호프일번가","tel":"031-501-3769","addr":"경기도 안산시 상록구 부곡동 655-11번지 101호","category":"일반휴게음식 - 주점"}]},{"lat":"37.33611812","long":"126.86476356","items":[{"name":"김선희어학원","tel":"031-408-9704","addr":"경기도 안산시 상록구 부곡동 649-12번지 2층","category":"회원제형태 - 학원"}]},{"lat":"37.326812459","long":"126.85876687","items":[{"name":"김포농산주식회사","tel":"031-408-6484","addr":"경기도 안산시 상록구 부곡동 685-2번지","category":"음료식품 - 미곡상"},{"name":"더조은스크린","tel":"031-418-6607","addr":"경기도 안산시 상록구 부곡동 685-2번지","category":"레저업소 - 스크린골프"},{"name":"조은식당","tel":"031-418-6607","addr":"경기도 안산시 상록구 부곡동 685-2번지","category":"일반휴게음식 - 일반한식"}]},{"lat":"37.322731591","long":"126.8593839","items":[{"name":"까끌레뽀끌레","tel":"031-413-0232","addr":"경기도 안산시 상록구 부곡동 695-11,1층","category":"보건위생 - 미용원"},{"name":"씨엔제이세탁","tel":"","addr":"경기도 안산시 상록구 부곡동 695-11번지 1층 103,104호","category":"수리서비스 - 세탁소"},{"name":"씨엔제이세탁","tel":"031-409-3650","addr":"경기도 안산시 상록구 부곡동 695-11번지 1층 103,104호","category":"수리서비스 - 세탁소"}]},{"lat":"37.333449379","long":"126.86329027","items":[{"name":"꼬꼬씨참숯닭갈비(부곡점)","tel":"031-415-7115","addr":"경기도 안산시 상록구 부곡동 662-2번지 1층","category":"일반휴게음식 - 일반한식"},{"name":"부곡역","tel":"031-406-8979","addr":"경기도 안산시 상록구 부곡동 662-2번지 1층","category":"일반휴게음식 - 일반한식"},{"name":"후루룩칼국수","tel":"031-417-9659","addr":"경기도 안산시 상록구 부곡동 662-2번지 1층 101호","category":"일반휴게음식 - 일반한식"}]},{"lat":"37.334342367","long":"126.86412362","items":[{"name":"꼬리치는강아지","tel":"031-505-2823","addr":"경기도 안산시 상록구 부곡동 661-1번지 102동 103호","category":"문화.취미 - 애완동물"},{"name":"보석노래연습장","tel":"031-408-4402","addr":"경기도 안산시 상록구 부곡동 661-1번지 지층","category":"레저업소 - 노 래 방"},{"name":"부곡수산활어센터","tel":"","addr":"경기도 안산시 상록구 부곡동 661-1번지 2층 202호","category":"일반휴게음식 - 일식·회집"},{"name":"부곡수산활어직판장","tel":"031-501-5050","addr":"경기도 안산시 상록구 부곡동 661-1번지","category":"일반휴게음식 - 일식·회집"},{"name":"원조 꼼장어 숯불구이","tel":"031-418-4168","addr":"경기도 안산시 상록구 부곡동 661-1번지 1층","category":"일반휴게음식 - 일반한식"}]},{"lat":"37.325785574","long":"126.85899448","items":[{"name":"꽃분이낙지마당(부곡동)","tel":"031-407-1103","addr":"경기도 안산시 상록구 부곡동 686-5번지","category":"일반휴게음식 - 일반한식"}]},{"lat":"37.33472456","long":"126.8673727","items":[{"name":"꽃블리 꽃자판기","tel":"070-5121-6776","addr":"경기도 안산시 상록구 부곡동 633번지 정상캐슬 502호","category":"문화.취미 - 화원"},{"name":"대명유통","tel":"031-409-6840","addr":"경기도 안산시 상록구 부곡동 633번지 정상캐슬","category":"음료식품 - 기타음료식품"},{"name":"원진상사","tel":"031-423-7090","addr":"경기도 안산시 상록구 부곡동 633번지 정상캐슬","category":"의류 - 정장"}]},{"lat":"37.3300844777","long":"126.8598550939","items":[{"name":"꽃이야기","tel":"","addr":"경기도 안산시 상록구 부곡동 679번지","category":"도매 및 소매업 - 꽃"}]},{"lat":"37.332307912","long":"126.86570707","items":[{"name":"꿀벅지","tel":"031-000-0000","addr":"경기도 안산시 상록구 부곡동 537-9번지","category":"일반휴게음식 - 일반한식"},{"name":"주방장허준","tel":"031-407-7963","addr":"경기도 안산시 상록구 부곡동 537-9번지 1층","category":"일반휴게음식 - 일반한식"}]},{"lat":"37.335812812","long":"126.85809519","items":[{"name":"꿀잼블럭","tel":"031-439-6660","addr":"경기도 안산시 상록구 부곡동 715-5번지 102호","category":"서적문구 - 완구점"},{"name":"헤어스타일","tel":"031-405-7797","addr":"경기도 안산시 상록구 부곡동 715-5번지 101호","category":"보건위생 - 미용원"},{"name":"효미네김치","tel":"031-507-8043","addr":"경기도 안산시 상록구 부곡동 715-5번지 102호","category":"음료식품 - 기타음료식품"}]},{"lat":"37.33528398","long":"126.86037559","items":[{"name":"꿈이자라는어린이집[아이행복]","tel":"031-439-8778","addr":"경기도 안산시 상록구 부곡동 723-13번지","category":"학원 - 유아원"}]},{"lat":"37.332753655","long":"126.86165542","items":[{"name":"나드리","tel":"031-411-1660","addr":"경기도 안산시 상록구 부곡동 667-13번지","category":"일반휴게음식 - 일반한식"},{"name":"장수풍천민물장어","tel":"031-438-9295","addr":"경기도 안산시 상록구 부곡동 667-13번지 1층 101,102호","category":"일반휴게음식 - 일반한식"},{"name":"최영숙한식부페","tel":"031-111-1111","addr":"경기도 안산시 상록구 부곡동 667-13번지","category":"일반휴게음식 - 일반한식"}]},{"lat":"37.321396173","long":"126.85781824","items":[{"name":"나들이식당","tel":"031-406-3123","addr":"경기도 안산시 상록구 부곡동 696-8번지 1층","category":"일반휴게음식 - 일반한식"},{"name":"지나씨","tel":"031-406-4010","addr":"경기도 안산시 상록구 부곡동 696-8번지 1층 2호","category":"일반휴게음식 - 서양음식"},{"name":"해물짬뽕","tel":"","addr":"경기도 안산시 상록구 부곡동 696-8번지 103호","category":"일반휴게음식 - 중국식"}]},{"lat":"37.3321427719","long":"126.8631798488","items":[{"name":"나리네일","tel":"070-7568-8597","addr":"경기도 안산시 상록구 부곡동 538-4번지","category":"협회 및 단체, 수리 및 기타 개인서"},{"name":"돼지복권슈퍼","tel":"","addr":"경기도 안산시 상록구 부곡동 538-4번지","category":"도매 및 소매업 - 슈퍼마켓"}]},{"lat":"37.329535348","long":"126.86026233","items":[{"name":"나린수산","tel":"031-480-3060","addr":"경기도 안산시 상록구 부곡동 675-1번지 1층","category":"음료식품 - 농·축·수산품"},{"name":"드림종합건축하우징","tel":"","addr":"경기도 안산시 상록구 부곡동 675-1번지 101호","category":"건축자재 - 인테리어전문"}]},{"lat":"37.334336942","long":"126.86721543","items":[{"name":"나린중문","tel":"","addr":"경기도 안산시 상록구 부곡동 632번지 202호","category":"용역 서비스 - 기타용역서비스"}]},{"lat":"37.334064671","long":"126.86551205","items":[{"name":"나무무","tel":"","addr":"경기도 안산시 상록구 부곡동 646-7번지 1층","category":"문화.취미 - 문화취미기타"}]},{"lat":"37.333172062","long":"126.86499462","items":[{"name":"나이스건축설비","tel":"031-437-9248","addr":"경기도 안산시 상록구 부곡동 641-6번지 104호","category":"건축자재 - 인테리어전문"},{"name":"태후사랑","tel":"031-415-0066","addr":"경기도 안산시 상록구 부곡동 641-6번지","category":"보건위생 - 화장품"},{"name":"힐링","tel":"031-416-3354","addr":"경기도 안산시 상록구 부곡동 641-6번지 101호","category":"일반휴게음식 - 일반한식"}]},{"lat":"37.3278961627","long":"126.8608182925","items":[{"name":"낙원타일","tel":"031-401-2524","addr":"경기도 안산시 상록구 부곡동 620-1번지","category":"도매 및 소매업 - 타일,도기"}]},{"lat":"37.334000343","long":"126.85693643","items":[{"name":"낙원타일","tel":"031-401-2524","addr":"경기도 안산시 상록구 부곡동 734-17번지 101호","category":"건축자재 - 건축용 요업제품"},{"name":"부곡가든","tel":"031-504-4015","addr":"경기도 안산시 상록구 부곡동 734-17번지 101호","category":"일반휴게음식 - 일반한식"},{"name":"세희닭발","tel":"031-410-3318","addr":"경기도 안산시 상록구 부곡동 734-17번지 103호","category":"일반휴게음식 - 일반한식"},{"name":"스타일바이쥴리 (style by julie)","tel":"031-402-4892","addr":"경기도 안산시 상록구 부곡동 734-17번지 102호","category":"보건위생 - 미용원"},{"name":"훈이네","tel":"","addr":"경기도 안산시 상록구 부곡동 734-17번지 103호","category":"일반휴게음식 - 일반한식"}]},{"lat":"37.327534928","long":"126.86013072","items":[{"name":"남산전","tel":"031-000-0000","addr":"경기도 안산시 상록구 부곡동 684-2번지 101호","category":"일반휴게음식 - 주점"},{"name":"샤론의꽃","tel":"031-417-2931","addr":"경기도 안산시 상록구 부곡동 684-2번지 101호","category":"문화.취미 - 화원"},{"name":"오다야","tel":"031-406-2861","addr":"경기도 안산시 상록구 부곡동 684-2번지 1층","category":"일반휴게음식 - 일반한식"},{"name":"정다운친구","tel":"031-407-0233","addr":"경기도 안산시 상록구 부곡동 684-2번지 1층 102호","category":"일반휴게음식 - 일반한식"},{"name":"헤어아트","tel":"031-417-3433","addr":"경기도 안산시 상록구 부곡동 684-2번지 103호","category":"보건위생 - 미용원"}]},{"lat":"37.32492146","long":"126.85970692","items":[{"name":"낭만통신","tel":"031-501-0288","addr":"경기도 안산시 상록구 부곡동 606번지 1층","category":"사무통신 - 통신기기"},{"name":"정성약국","tel":"031-416-6272","addr":"경기도 안산시 상록구 부곡동 606번지","category":"약국 - 약국"},{"name":"참사랑의원","tel":"031-502-4077","addr":"경기도 안산시 상록구 부곡동 606번지","category":"의원 - 의원"}]},{"lat":"37.3330631883","long":"126.8643516514","items":[{"name":"내손에피어나","tel":"031-438-1163","addr":"경기도 안산시 상록구 부곡동 533-4번지","category":"협회 및 단체, 수리 및 기타 개인서"},{"name":"먹어보3","tel":"031-501-3080","addr":"경기도 안산시 상록구 부곡동 533-4번지","category":"숙박 및 음식점업 - 일반음식"},{"name":"바이올렛","tel":"031-501-5013","addr":"경기도 안산시 상록구 부곡동 533-4번지","category":"도매 및 소매업 - 의류"},{"name":"부곡반찬","tel":"","addr":"경기도 안산시 상록구 부곡동 533-4번지","category":"도매 및 소매업 - 반찬"},{"name":"부곡태권도,피아노,속셈학원","tel":"031-417-4146","addr":"경기도 안산시 상록구 부곡동 533-4번지","category":"교육서비스업 - 피아노,속셈학원,태권"},{"name":"예니악세사리","tel":"031-406-7628","addr":"경기도 안산시 상록구 부곡동 533-4번지","category":"도매 및 소매업 - 악세사리"},{"name":"패션하우스","tel":"031-415-7475","addr":"경기도 안산시 상록구 부곡동 533-4번지","category":"도매 및 소매업 - 의류,잡화"},{"name":"홀라키즈","tel":"","addr":"경기도 안산시 상록구 부곡동 533-4번지","category":"도매 및 소매업 - 아동복"}]},{"lat":"37.3340903731","long":"126.8643723330","items":[{"name":"네일에 반하다","tel":"","addr":"경기도 안산시 상록구 부곡동 643-13번지","category":"협회 및 단체, 수리 및 기타 개인서"},{"name":"이불나라","tel":"031-408-1440","addr":"경기도 안산시 상록구 부곡동 643-13번지","category":"도매 및 소매업 - 이불"}]},{"lat":"37.334090373","long":"126.86437233","items":[{"name":"네일에반하다","tel":"","addr":"경기도 안산시 상록구 부곡동 643-13번지 102호","category":"보건위생 - 피부미용실"},{"name":"이불나라","tel":"031-408-1440","addr":"경기도 안산시 상록구 부곡동 643-13번지","category":"직물 - 침구·수예점"},{"name":"헤어존","tel":"031-438-4009","addr":"경기도 안산시 상록구 부곡동 643-13번지 1층","category":"보건위생 - 미용원"}]},{"lat":"37.334532174","long":"126.86463105","items":[{"name":"노란참새","tel":"031-111-1111","addr":"경기도 안산시 상록구 부곡동 644-9번지 101호","category":"일반휴게음식 - 일반한식"},{"name":"이안헤어","tel":"031-419-1397","addr":"경기도 안산시 상록구 부곡동 644-9번지 상가 1층 2호","category":"보건위생 - 미용원"},{"name":"현대테크컴퓨터","tel":"031-417-2255","addr":"경기도 안산시 상록구 부곡동 644-9번지 1층 2호","category":"사무통신 - 컴퓨터"}]},{"lat":"37.333280604","long":"126.86535551","items":[{"name":"노랑머리","tel":"031-438-2022","addr":"경기도 안산시 상록구 부곡동 640-13번지 102호","category":"보건위생 - 미용원"},{"name":"명군전기","tel":"031-405-3847","addr":"경기도 안산시 상록구 부곡동 640-13번지 101호","category":"용역 서비스 - 기타용역서비스"}]},{"lat":"37.334561392","long":"126.85891004","items":[{"name":"노스(Noh''s)태권도","tel":"031-475-9503","addr":"경기도 안산시 상록구 부곡동 728-7번지 3층","category":"학원 - 예·체능계학원"},{"name":"대성헤어칼라","tel":"031-411-8769","addr":"경기도 안산시 상록구 부곡동 728-7번지","category":"보건위생 - 미용원"},{"name":"보배당구장","tel":"","addr":"경기도 안산시 상록구 부곡동 728-7번지 201호","category":"레저업소 - 당 구 장"},{"name":"브로스호프","tel":"031-405-2164","addr":"경기도 안산시 상록구 부곡동 728-7번지 1층","category":"일반휴게음식 - 주점"},{"name":"왕발이할인마트","tel":"031-405-9197","addr":"경기도 안산시 상록구 부곡동 728-7번지 1층 101호","category":"유통업 영리 - 슈퍼마켓"}]},{"lat":"37.332478888","long":"126.85796619","items":[{"name":"녹색가구 도소매 센타","tel":"031-410-5954","addr":"경기도 안산시 상록구 부곡동 737-6번지","category":"가구 - 일반가구"}]},{"lat":"37.3227567236","long":"126.8578269078","items":[{"name":"녹원칼국수","tel":"031-406-7733","addr":"경기도 안산시 상록구 부곡동 695-23번지","category":"숙박 및 음식점업 - 한식"}]},{"lat":"37.328644412","long":"126.86115538","items":[{"name":"놀러와","tel":"031-501-2977","addr":"경기도 안산시 상록구 부곡동 622-13번지 1층","category":"일반휴게음식 - 일반한식"},{"name":"에밀리해법영어교습소","tel":"031-501-0519","addr":"경기도 안산시 상록구 부곡동 622-13번지 102호","category":"학원 - 보습학원"},{"name":"토마토","tel":"031-409-7465","addr":"경기도 안산시 상록구 부곡동 622-13번지 1층","category":"일반휴게음식 - 일반한식"},{"name":"토마토","tel":"","addr":"경기도 안산시 상록구 부곡동 622-13번지 103호","category":"일반휴게음식 - 스넥"}]},{"lat":"37.324306943","long":"126.85820753","items":[{"name":"농산물유통","tel":"031-501-6534","addr":"경기도 안산시 상록구 부곡동 691-11번지 101,103호","category":"음료식품 - 기타음료식품"},{"name":"베베크린","tel":"070-8288-5681","addr":"경기도 안산시 상록구 부곡동 691-11 202호","category":"용역 서비스 - 종합용역"}]},{"lat":"37.3225338048","long":"126.8597453010","items":[{"name":"농수산물슈퍼","tel":"031-409-0187","addr":"경기도 안산시 상록구 부곡동 600-10번지","category":"도매 및 소매업 - 슈퍼마켓"}]},{"lat":"37.322533805","long":"126.8597453","items":[{"name":"농수산물슈퍼","tel":"031-409-0187","addr":"경기도 안산시 상록구 부곡동 600-10번지 1층상가","category":"유통업 영리 - 슈퍼마켓"},{"name":"농수산물직판장","tel":"031-409-7436","addr":"경기도 안산시 상록구 부곡동 600-10번지 농수산물직판장內정육코너 1층","category":"음료식품 - 정육점"}]},{"lat":"37.334696232","long":"126.86624436","items":[{"name":"농심가마트","tel":"031-416-8691","addr":"경기도 안산시 상록구 부곡동 639번지 103호","category":"유통업 영리 - 슈퍼마켓"},{"name":"농심가마트","tel":"031-416-8691","addr":"경기도 안산시 상록구 부곡동 639번지 103호","category":"유통업 영리 - 슈퍼마켓"}]},{"lat":"37.3346962318","long":"126.8662443588","items":[{"name":"농심가마트","tel":"031-416-8691","addr":"경기도 안산시 상록구 부곡동 639번지","category":"도매 및 소매업 - 슈퍼,담배"}]},{"lat":"37.341337301","long":"126.86674015","items":[{"name":"농협회사법인 자연수레(주)","tel":"031-501-1685","addr":"경기도 안산시 상록구 부곡동 75-19번지 C동","category":"음료식품 - 농·축·수산품"},{"name":"주식회사신선유통","tel":"031-405-0900","addr":"경기도 안산시 상록구 부곡동 75-19 75-86","category":"음료식품 - 기타음료식품"}]},{"lat":"37.334785254","long":"126.85776993","items":[{"name":"누리노래연습장","tel":"031-486-3622","addr":"경기도 안산시 상록구 부곡동 728-15번지 지층","category":"레저업소 - 노 래 방"},{"name":"누리노래연습장","tel":"","addr":"경기도 안산시 상록구 부곡동 728-15번지","category":"레저업소 - 노 래 방"},{"name":"두리아(부곡점)","tel":"031-484-9595","addr":"경기도 안산시 상록구 부곡동 728-15번지 1층","category":"일반휴게음식 - 일반한식"},{"name":"진장어탕구이","tel":"031-483-5482","addr":"경기도 안산시 상록구 부곡동 728-15번지","category":"일반휴게음식 - 일반한식"}]},{"lat":"37.334809366","long":"126.86282511","items":[{"name":"누리예능어린이집[아이행복]","tel":"031-416-0366","addr":"경기도 안산시 상록구 부곡동 660번지","category":"학원 - 유아원"}]},{"lat":"37.3328907220","long":"126.8632687334","items":[{"name":"뉴월드베이커리","tel":"031-416-3490","addr":"경기도 안산시 상록구 부곡동 665-4번지","category":"숙박 및 음식점업 - 제과점"}]},{"lat":"37.332890722","long":"126.86326873","items":[{"name":"뉴월드베이커리","tel":"031-416-3490","addr":"경기도 안산시 상록구 부곡동 665-4번지 1층","category":"음료식품 - 제과점"}]},{"lat":"37.329446857","long":"126.8616052","items":[{"name":"뉴토종순대국","tel":"031-416-0094","addr":"경기도 안산시 상록구 부곡동 623-9,103번지","category":"일반휴게음식 - 일반한식"},{"name":"엠헤어","tel":"031-419-1580","addr":"경기도 안산시 상록구 부곡동 623-9번지 103호","category":"보건위생 - 미용원"}]},{"lat":"37.333613875","long":"126.86526463","items":[{"name":"느루부곡점","tel":"031-406-5559","addr":"경기도 안산시 상록구 부곡동 641-3번지 1층","category":"일반휴게음식 - 일반한식"}]},{"lat":"37.333171864","long":"126.86482537","items":[{"name":"다둥이네 쌈밥","tel":"031-501-1186","addr":"경기도 안산시 상록구 부곡동 641-7번지 102호","category":"일반휴게음식 - 일반한식"},{"name":"럭키철물","tel":"031-417-6477","addr":"경기도 안산시 상록구 부곡동 641-7번지 1층점포","category":"건축자재 - 목재·석재·철물"}]},{"lat":"37.3331718642","long":"126.8648253688","items":[{"name":"다둥이네쌈밥","tel":"031-501-1186","addr":"경기도 안산시 상록구 부곡동 641-7번지","category":"숙박 및 음식점업 - 한식"},{"name":"럭키철물","tel":"031-417-6477","addr":"경기도 안산시 상록구 부곡동 641-7번지","category":"도매 및 소매업 - 철물점"}]},{"lat":"37.335278215","long":"126.86309505","items":[{"name":"다옴","tel":"","addr":"경기도 안산시 상록구 부곡동 656-15번지 1동 102호","category":"용역 서비스 - 종합용역"}]},{"lat":"37.336585777","long":"126.86401794","items":[{"name":"다원종합전기공사","tel":"031-415-3242","addr":"경기도 안산시 상록구 부곡동 654-2번지 대광아트빌 101호","category":"용역 서비스 - 기타용역서비스"},{"name":"현대지바트","tel":"031-501-4178","addr":"경기도 안산시 상록구 부곡동 654-2번지 대광아트빌 201호","category":"자동차정비 유지 - 자동차부품"}]},{"lat":"37.3327289911","long":"126.8636526775","items":[{"name":"달달한친구들","tel":"","addr":"경기도 안산시 상록구 부곡동 538번지","category":"교육서비스업 - 심리상담, 카페, 댄"},{"name":"부곡치과의원","tel":"031-416-2994","addr":"경기도 안산시 상록구 부곡동 538번지","category":"보건업 및 사회복지서비스업 - 치과"},{"name":"뻘떡빨닭","tel":"031-502-9966","addr":"경기도 안산시 상록구 부곡동 538번지","category":"숙박 및 음식점업 - 기타 음식점업"},{"name":"손한의원","tel":"031-409-8856","addr":"경기도 안산시 상록구 부곡동 538번지","category":"보건업 및 사회복지서비스업 - 한의원"},{"name":"스타헬스에어로빅","tel":"031-416-0787","addr":"경기도 안산시 상록구 부곡동 538번지","category":"예술, 스포츠 및 여가관련 서비스업"},{"name":"헤어토크","tel":"031-409-8694","addr":"경기도 안산시 상록구 부곡동 538번지","category":"협회 및 단체, 수리 및 기타 개인서"}]},{"lat":"37.331560291","long":"126.86590025","items":[{"name":"대건유통","tel":"","addr":"경기도 안산시 상록구 부곡동 544-2번지 베이아트빌 201호","category":"음료식품 - 농·축·수산품"}]},{"lat":"37.332197458","long":"126.86371008","items":[{"name":"대경 유통","tel":"031-000-0000","addr":"경기도 안산시 상록구 부곡동 539-5번지 4동 407호","category":"음료식품 - 농·축·수산품"},{"name":"바이올렛","tel":"031-227-2163","addr":"경기도 안산시 상록구 부곡동 539-5번지 1층 104,105호","category":"일반휴게음식 - 일반한식"},{"name":"현이네조개전골","tel":"","addr":"경기도 안산시 상록구 부곡동 539-5번지 101-103호","category":"일반휴게음식 - 일반한식"},{"name":"호프짱","tel":"031-000-0000","addr":"경기도 안산시 상록구 부곡동 539-5번지","category":"일반휴게음식 - 주점"}]},{"lat":"37.336868403","long":"126.85924416","items":[{"name":"대광리싸이클","tel":"","addr":"경기도 안산시 상록구 부곡동 720-1번지 1층","category":"전기제품 - 가전제품"}]},{"lat":"37.324003904","long":"126.86093844","items":[{"name":"대림케미칼","tel":"070-7779-5445","addr":"경기도 안산시 상록구 부곡동 604-3번지 하나화이트빌 101호","category":"직물 - 기타직물"}]},{"lat":"37.335525328","long":"126.85878407","items":[{"name":"대명사","tel":"031-407-1678","addr":"경기도 안산시 상록구 부곡동 725-21번지 한라하이츠빌라 나동 B01호","category":"보건위생 - 기타대인서비스"}]},{"lat":"37.333144099","long":"126.85671242","items":[{"name":"대민철물점","tel":"031-405-6276","addr":"경기도 안산시 상록구 부곡동 738-10번지","category":"건축자재 - 목재·석재·철물"}]},{"lat":"37.33270363","long":"126.85754826","items":[{"name":"대신철강","tel":"031-486-4520","addr":"경기도 안산시 상록구 부곡동 737-9번지","category":"건축자재 - 기타건축자재"}]},{"lat":"37.334536273","long":"126.86048984","items":[{"name":"대야농협안산직판장","tel":"031-411-0673","addr":"경기도 안산시 상록구 부곡동 726-2번지","category":"음료식품 - 미곡상"}]},{"lat":"37.330006803","long":"126.86270991","items":[{"name":"대영중문","tel":"","addr":"경기도 안산시 상록구 부곡동 625-1번지","category":"용역 서비스 - 기타용역서비스"},{"name":"북경중화요리","tel":"031-416-0844","addr":"경기도 안산시 상록구 부곡동 625-1번지 1층","category":"일반휴게음식 - 중국식"},{"name":"홀인원","tel":"070-4655-7803","addr":"경기도 안산시 상록구 부곡동 625-1번지 101호","category":"의류 - 정장"}]},{"lat":"37.339837858","long":"126.86351542","items":[{"name":"대웅세차장","tel":"","addr":"경기도 안산시 상록구 부곡동 214-21번지 1층 일부호","category":"자동차정비 유지 - 세차장"}]},{"lat":"37.339892119","long":"126.86368459","items":[{"name":"대웅주유소","tel":"","addr":"경기도 안산시 상록구 부곡동 214-13번지","category":"유통업 영리 - 편 의 점"}]},{"lat":"37.3325011","long":"126.86143022","items":[{"name":"대진주방","tel":"031-415-9689","addr":"경기도 안산시 상록구 부곡동 667-11번지 102호","category":"주방용구 - 기타주방용구"},{"name":"서신유통","tel":"031-418-5467","addr":"경기도 안산시 상록구 부곡동 667-11번지 101호","category":"음료식품 - 농·축·수산품"}]},{"lat":"37.336868198","long":"126.8590749","items":[{"name":"대창물산(주)","tel":"031-402-4252","addr":"경기도 안산시 상록구 부곡동 720번지","category":"건축자재 - 보일러·펌프·샷시"}]},{"lat":"37.332452179","long":"126.86579708","items":[{"name":"대한난방관리","tel":"031-415-6769","addr":"경기도 안산시 상록구 부곡동 537-8번지 101호","category":"용역 서비스 - 기타용역서비스"},{"name":"버르장머리미용실","tel":"031-417-1634","addr":"경기도 안산시 상록구 부곡동 537-8번지 1층","category":"보건위생 - 미용원"}]},{"lat":"37.335531456","long":"126.86390704","items":[{"name":"대한난방시설관리","tel":"080-076-0909","addr":"경기도 안산시 상록구 부곡동 656-4번지 1층","category":"수리서비스 - 기타수리서비스"},{"name":"세종산업","tel":"031-406-3100","addr":"경기도 안산시 상록구 부곡동 656-4번지 101호","category":"건축자재 - 기타건축자재"},{"name":"크리스탈생수","tel":"031-438-6633","addr":"경기도 안산시 상록구 부곡동 656-4","category":"음료식품 - 기타음료식품"}]},{"lat":"37.324612819","long":"126.85782334","items":[{"name":"대흥상사","tel":"031-408-7704","addr":"경기도 안산시 상록구 부곡동 689-8번지","category":"건축자재 - 페인트"},{"name":"제이앤비호프(J&B)","tel":"031-407-7692","addr":"경기도 안산시 상록구 부곡동 689-8번지 101호","category":"일반휴게음식 - 일반한식"}]},{"lat":"37.3268124591","long":"126.8587668658","items":[{"name":"더조은온스크린","tel":"","addr":"경기도 안산시 상록구 부곡동 685-2번지","category":"협회 및 단체, 수리 및 기타 개인서"}]},{"lat":"37.335280044","long":"126.86465225","items":[{"name":"더컴시스템","tel":"070-7524-5964","addr":"경기도 안산시 상록구 부곡동 657-4번지 105호","category":"사무통신 - 컴퓨터"},{"name":"태영이엔지","tel":"031-406-2407","addr":"경기도 안산시 상록구 부곡동 657-4번지 101호","category":"용역 서비스 - 기타용역서비스"}]},{"lat":"37.333647908","long":"126.86354943","items":[{"name":"더한잔","tel":"","addr":"경기도 안산시 상록구 부곡동 661-8번지 1층 103호","category":"일반휴게음식 - 일반한식"},{"name":"뚝방길호프","tel":"031-402-6769","addr":"경기도 안산시 상록구 부곡동 661-8번지 1층","category":"일반휴게음식 - 주점"},{"name":"부담없는포차","tel":"031-406-7693","addr":"경기도 안산시 상록구 부곡동 661-8번지 1층","category":"일반휴게음식 - 주점"},{"name":"탁가네","tel":"031-409-2728","addr":"경기도 안산시 상록구 부곡동 661-8번지","category":"일반휴게음식 - 일반한식"}]},{"lat":"37.336639803","long":"126.85651381","items":[{"name":"더헤어","tel":"031-487-9787","addr":"경기도 안산시 상록구 부곡동 717번지","category":"보건위생 - 미용원"},{"name":"류바의커피가게","tel":"070-8755-8480","addr":"경기도 안산시 상록구 부곡동 717번지","category":"일반휴게음식 - 서양음식"},{"name":"삼성영어교습소","tel":"031-401-9648","addr":"경기도 안산시 상록구 부곡동 717번지 101호","category":"학원 - 외국어학원"},{"name":"태양문구점","tel":"031-405-7602","addr":"경기도 안산시 상록구 부곡동 717번지","category":"서적문구 - 문구용품"}]},{"lat":"37.3366398025","long":"126.8565138099","items":[{"name":"더헤어","tel":"031-487-9787","addr":"경기도 안산시 상록구 부곡동 717번지","category":"협회 및 단체, 수리 및 기타 개인서"}]},{"lat":"37.334198138","long":"126.86406747","items":[{"name":"덤불포차","tel":"031-408-5758","addr":"경기도 안산시 상록구 부곡동 661-2번지","category":"일반휴게음식 - 주점"},{"name":"서박사곱창","tel":"031-415-9207","addr":"경기도 안산시 상록구 부곡동 661-2번지 포도나무교회 1층 102호","category":"일반휴게음식 - 일반한식"},{"name":"청춘호프","tel":"031-417-9787","addr":"경기도 안산시 상록구 부곡동 661-2번지 포도나무교회 101호","category":"일반휴게음식 - 일반한식"}]},{"lat":"37.3323947631","long":"126.8629311426","items":[{"name":"도그카페","tel":"031-407-9489","addr":"경기도 안산시 상록구 부곡동 666-4번지","category":"숙박 및 음식점업 - 음료"},{"name":"부곡스튜디오","tel":"031-417-7388","addr":"경기도 안산시 상록구 부곡동 666-4번지","category":"협회 및 단체, 수리 및 기타 개인서"},{"name":"행복당구클럽","tel":"031-502-6711","addr":"경기도 안산시 상록구 부곡동 666-4번지","category":"협회 및 단체, 수리 및 기타 개인서"}]},{"lat":"37.331337829","long":"126.86063128","items":[{"name":"도도해","tel":"031-437-6969","addr":"경기도 안산시 상록구 부곡동 672번지 1층","category":"일반휴게음식 - 일반한식"},{"name":"예궁","tel":"031-407-2235","addr":"경기도 안산시 상록구 부곡동 672번지 101호","category":"일반휴게음식 - 중국식"}]},{"lat":"37.3313378291","long":"126.8606312768","items":[{"name":"도도해","tel":"031-437-6969","addr":"경기도 안산시 상록구 부곡동 672번지","category":"숙박 및 음식점업 - 한식"},{"name":"예궁","tel":"031-407-2235","addr":"경기도 안산시 상록구 부곡동 672번지","category":"숙박 및 음식점업 - 중식"}]},{"lat":"37.333088319","long":"126.86273803","items":[{"name":"돈가네","tel":"031-403-9250","addr":"경기도 안산시 상록구 부곡동 665번지 1층","category":"일반휴게음식 - 일반한식"},{"name":"청솔얼음막걸리","tel":"031-415-1566","addr":"경기도 안산시 상록구 부곡동 665번지 1층","category":"일반휴게음식 - 칵테일바"},{"name":"헤어탤런트샵","tel":"031-408-5833","addr":"경기도 안산시 상록구 부곡동 665번지 근린상가 102호","category":"보건위생 - 미용원"}]},{"lat":"37.324785911","long":"126.85937999","items":[{"name":"돈기부여부곡점","tel":"031-406-2663","addr":"경기도 안산시 상록구 부곡동 692-2번지 103호","category":"일반휴게음식 - 일반한식"},{"name":"초콜릿헤어","tel":"031-407-0593","addr":"경기도 안산시 상록구 부곡동 692-2번지","category":"보건위생 - 미용원"},{"name":"행복한미용실","tel":"031-000-0000","addr":"경기도 안산시 상록구 부곡동 692-2번지 101호","category":"보건위생 - 미용원"},{"name":"현대세탁소","tel":"031-416-7989","addr":"경기도 안산시 상록구 부곡동 692-2번지","category":"수리서비스 - 세탁소"}]},{"lat":"37.3333963660","long":"126.8641817831","items":[{"name":"돈이랑김치랑","tel":"031-417-5550","addr":"경기도 안산시 상록구 부곡동 643-7번지","category":"숙박 및 음식점업 - 한식"}]},{"lat":"37.329473348","long":"126.86115382","items":[{"name":"동산건강원","tel":"031-408-7537","addr":"경기도 안산시 상록구 부곡동 674-2번지 일부 1층 102호","category":"건강식품 - 기타건강식품"}]},{"lat":"37.328229674","long":"126.86093049","items":[{"name":"동신철물상사","tel":"031-417-1972","addr":"경기도 안산시 상록구 부곡동 622-9번지","category":"기타 - 기계공구"}]},{"lat":"37.3282296743","long":"126.8609304945","items":[{"name":"동신철물상사","tel":"031-417-1972","addr":"경기도 안산시 상록구 부곡동 622-9번지","category":"도매 및 소매업 - 철물"}]},{"lat":"37.3283378369","long":"126.8609641401","items":[{"name":"동안스킨케어","tel":"","addr":"경기도 안산시 상록구 부곡동 622-10번지","category":"협회 및 단체, 수리 및 기타 개인서"},{"name":"커피나루","tel":"031-495-0200","addr":"경기도 안산시 상록구 부곡동 622-10번지","category":"숙박 및 음식점업 - 카페"}]},{"lat":"37.331730462","long":"126.86501983","items":[{"name":"동화사랑어린이집[아이행복]","tel":"031-418-2282","addr":"경기도 안산시 상록구 부곡동 541-7번지","category":"학원 - 유아원"}]},{"lat":"37.333784976","long":"126.86518533","items":[{"name":"동화속다락방","tel":"","addr":"경기도 안산시 상록구 부곡동 641-12번지","category":"문화.취미 - 문화취미기타"}]},{"lat":"37.3330010918","long":"126.8651867601","items":[{"name":"두꺼비","tel":"031-406-2588","addr":"경기도 안산시 상록구 부곡동 534번지","category":"숙박 및 음식점업 - 한식"}]},{"lat":"37.333001092","long":"126.86518676","items":[{"name":"두꺼비","tel":"","addr":"경기도 안산시 상록구 부곡동 534번지 102호","category":"일반휴게음식 - 일반한식"}]},{"lat":"37.327560138","long":"126.85863004","items":[{"name":"두리","tel":"031-482-5277","addr":"경기도 안산시 상록구 부곡동 681-8번지 1층 102호","category":"용역 서비스 - 기타용역서비스"},{"name":"세계텐트칼라(세덴)","tel":"031-406-5008","addr":"경기도 안산시 상록구 부곡동 681-8번지 1층","category":"자동차정비 유지 - 카인테리어"}]},{"lat":"37.331895936","long":"126.86787426","items":[{"name":"두리냉동설비","tel":"070-4792-6033","addr":"경기도 안산시 상록구 부곡동 548-2번지 102호","category":"용역 서비스 - 기타용역서비스"}]},{"lat":"37.334143825","long":"126.86385318","items":[{"name":"드림MGB","tel":"031-406-1260","addr":"경기도 안산시 상록구 부곡동 661-18번지 102호","category":"용역 서비스 - 기타용역서비스"},{"name":"주식회사 엠지비상사","tel":"031-416-1919","addr":"경기도 안산시 상록구 부곡동 661-18번지 103호","category":"레져용품 - 스포츠·레져용품"}]},{"lat":"37.32575942","long":"126.85971662","items":[{"name":"드림태권아카데미","tel":"031-408-8972","addr":"경기도 안산시 상록구 부곡동 612번지 2층","category":"학원 - 예·체능계학원"},{"name":"미니스톱안산부곡로점","tel":"031-1577-9621","addr":"경기도 안산시 상록구 부곡동 612번지 1층","category":"유통업 영리 - 편 의 점"},{"name":"술잔비어스 (Beer, s)","tel":"031-406-6605","addr":"경기도 안산시 상록구 부곡동 612번지 4층","category":"일반휴게음식 - 주점"},{"name":"스카이당구클럽","tel":"","addr":"경기도 안산시 상록구 부곡동 612번지 4층","category":"레저업소 - 당 구 장"},{"name":"스카이당구클럽","tel":"","addr":"경기도 안산시 상록구 부곡동 612번지 4층","category":"레저업소 - 당 구 장"},{"name":"파스텔노래연습장","tel":"","addr":"경기도 안산시 상록구 부곡동 612번지 3층","category":"레저업소 - 노 래 방"}]},{"lat":"37.332056437","long":"126.86640711","items":[{"name":"드링크업","tel":"00-000-0000","addr":"경기도 안산시 상록구 부곡동 536-8번지 지하1층","category":"음료식품 - 농·축·수산품"},{"name":"엘림화학","tel":"031-416-1277","addr":"경기도 안산시 상록구 부곡동 536-8번지","category":"기타 - 기타 전문점"}]},{"lat":"37.3447842165","long":"126.8633257151","items":[{"name":"디자인솔","tel":"","addr":"경기도 안산시 상록구 부곡동 38-2번지","category":"제조업 - 인쇄,실내장식"}]},{"lat":"37.333007561","long":"126.86302028","items":[{"name":"땅땅치킨(부곡프라자점)","tel":"031-417-6663","addr":"경기도 안산시 상록구 부곡동 665-2번지 101호 102호 상가","category":"일반휴게음식 - 스넥"},{"name":"스시애참치","tel":"031-408-5635","addr":"경기도 안산시 상록구 부곡동 665-2번지","category":"일반휴게음식 - 일반한식"},{"name":"크린토피아 부곡점","tel":"031-405-0440","addr":"경기도 안산시 상록구 부곡동 665-2번지 101,102호","category":"수리서비스 - 세탁소"}]},{"lat":"37.323696076","long":"126.85970925","items":[{"name":"떡볶이와친구들","tel":"070-7520-3834","addr":"경기도 안산시 상록구 부곡동 605-13번지","category":"일반휴게음식 - 일반한식"},{"name":"풍미가","tel":"031-415-5901","addr":"경기도 안산시 상록구 부곡동 605-13번지 1층","category":"일반휴게음식 - 일반한식"}]},{"lat":"37.332280016","long":"126.8649624","items":[{"name":"또봉이통닭(부곡점)","tel":"031-406-9956","addr":"경기도 안산시 상록구 부곡동 542번지 효성빌딩 102호","category":"일반휴게음식 - 스넥"}]},{"lat":"37.3323958407","long":"126.8638451139","items":[{"name":"또와막썰어회","tel":"031-416-8254","addr":"경기도 안산시 상록구 부곡동 539-6번지","category":"숙박 및 음식점업 - 한식"},{"name":"한판승","tel":"070-8613-7534","addr":"경기도 안산시 상록구 부곡동 539-6번지","category":"숙박 및 음식점업 - 한식점업"}]},{"lat":"37.324308331","long":"126.85934705","items":[{"name":"똘이국밥","tel":"031-407-9882","addr":"경기도 안산시 상록구 부곡동 692-5번지 102호","category":"일반휴게음식 - 일반한식"},{"name":"이모네서한잔","tel":"031-410-7115","addr":"경기도 안산시 상록구 부곡동 692-5번지","category":"일반휴게음식 - 주점"}]},{"lat":"37.3243083309","long":"126.8593470509","items":[{"name":"똘이국밥","tel":"031-407-9882","addr":"경기도 안산시 상록구 부곡동 692-5번지","category":"숙박 및 음식점업 - 한식"},{"name":"이모네서한잔","tel":"031-419-0985","addr":"경기도 안산시 상록구 부곡동 692-5번지","category":"숙박 및 음식점업 - 호프"}]},{"lat":"37.325477796","long":"126.85782168","items":[{"name":"라라 잡화점","tel":"","addr":"경기도 안산시 상록구 부곡동 688-8번지 이든하우스 301호","category":"신변잡화 - 액세서리"},{"name":"온누리광고기획","tel":"031-417-7542","addr":"경기도 안산시 상록구 부곡동 688-8번지","category":"수리서비스 - 기타수리서비스"}]},{"lat":"37.327698777","long":"126.86151821","items":[{"name":"라온투어","tel":"","addr":"경기도 안산시 상록구 부곡동 620-6번지 501호","category":"용역 서비스 - 사무서비스"}]},{"lat":"37.335640753","long":"126.86491112","items":[{"name":"라피노호프","tel":"031-417-6163","addr":"경기도 안산시 상록구 부곡동 655-10번지 1층","category":"일반휴게음식 - 칵테일바"}]},{"lat":"37.333560411","long":"126.85821235","items":[{"name":"럭키슈퍼렛","tel":"031-403-5979","addr":"경기도 안산시 상록구 부곡동 735번지","category":"유통업 영리 - 슈퍼마켓"},{"name":"터줏대감","tel":"031-410-0292","addr":"경기도 안산시 상록구 부곡동 735번지","category":"일반휴게음식 - 일반한식"}]},{"lat":"37.3331734755","long":"126.8662132656","items":[{"name":"럭키슈퍼렛","tel":"031-403-5979","addr":"경기도 안산시 상록구 부곡동 640-6번지","category":"도매 및 소매업 - 슈퍼마켓,담배"}]},{"lat":"37.333173475","long":"126.86621327","items":[{"name":"럭키슈퍼렛","tel":"031-416-4478","addr":"경기도 안산시 상록구 부곡동 640-6번지","category":"유통업 영리 - 슈퍼마켓"},{"name":"에어컨설치센터","tel":"","addr":"경기도 안산시 상록구 부곡동 640-6번지 201호","category":"용역 서비스 - 기타용역서비스"}]},{"lat":"37.3337589102","long":"126.8584376497","items":[{"name":"럭키슈퍼마켓","tel":"031-403-5979","addr":"경기도 안산시 상록구 부곡동 730-12번지","category":"도매 및 소매업 - 슈퍼"}]},{"lat":"37.333306555","long":"126.86443019","items":[{"name":"레알컴퓨터","tel":"031-406-5025","addr":"경기도 안산시 상록구 부곡동 642-8번지 1층 101호","category":"사무통신 - 컴퓨터"},{"name":"부자식당","tel":"031-406-0375","addr":"경기도 안산시 상록구 부곡동 642-8번지 1층","category":"일반휴게음식 - 일반한식"},{"name":"옛날장터치킨","tel":"031-417-2288","addr":"경기도 안산시 상록구 부곡동 642-8번지 1층","category":"일반휴게음식 - 일반한식"}]},{"lat":"37.334364944","long":"126.86037732","items":[{"name":"로또네","tel":"031-413-1164","addr":"경기도 안산시 상록구 부곡동 726-3번지 101호","category":"일반휴게음식 - 일반한식"}]},{"lat":"37.322946614","long":"126.85837937","items":[{"name":"롯대푸드유통","tel":"031-417-1263","addr":"경기도 안산시 상록구 부곡동 694-1번지 1층","category":"음료식품 - 기타음료식품"}]},{"lat":"37.332368199","long":"126.86332612","items":[{"name":"롯데리아 안산부곡점","tel":"031-418-0502","addr":"경기도 안산시 상록구 부곡동 538-5번지 삼성타워 102호 ,103,104호","category":"일반휴게음식 - 서양음식"},{"name":"본죽","tel":"031-417-0288","addr":"경기도 안산시 상록구 부곡동 538-5번지","category":"일반휴게음식 - 일반한식"},{"name":"삼성고시텔","tel":"031-437-5917","addr":"경기도 안산시 상록구 부곡동 538-5번지 삼성타워","category":"학원 - 독서실"},{"name":"스카이노래연습장","tel":"031-437-3353","addr":"경기도 안산시 상록구 부곡동 538-5번지 4층","category":"레저업소 - 노 래 방"}]},{"lat":"37.325784791","long":"126.85835137","items":[{"name":"리앤지컴퍼니(Lee&Ji company)","tel":"031-406-5512","addr":"경기도 안산시 상록구 부곡동 686-1번지 202호","category":"레져용품 - 스포츠·레져용품"},{"name":"주식회사케이넌코리아","tel":"031-418-5315","addr":"경기도 안산시 상록구 부곡동 686-1번지 광산빌딩 2층","category":"보건위생 - 의료용품"},{"name":"투다리(부곡점)","tel":"031-417-3459","addr":"경기도 안산시 상록구 부곡동 686-1번지 101호","category":"일반휴게음식 - 스넥"}]},{"lat":"37.333868377","long":"126.85954326","items":[{"name":"리치","tel":"070-4150-5894","addr":"경기도 안산시 상록구 부곡동 731-5번지 르네상스빌 3층 302호","category":"의류 - 내의판매"}]},{"lat":"37.336534589","long":"126.8588837","items":[{"name":"리틀베이비어린이집[아이행복]","tel":"031-486-0190","addr":"경기도 안산시 상록구 부곡동 720-9번지 102호","category":"학원 - 유아원"}]},{"lat":"37.333395491","long":"126.86343706","items":[{"name":"마마닭강정","tel":"031-406-6188","addr":"경기도 안산시 상록구 부곡동 662-3번지 1층","category":"일반휴게음식 - 일반한식"},{"name":"부탁해요밥상","tel":"031-419-3338","addr":"경기도 안산시 상록구 부곡동 662-3번지 1층","category":"일반휴게음식 - 일반한식"},{"name":"세자매누룽지","tel":"","addr":"경기도 안산시 상록구 부곡동 662-3번지 1층 102호","category":"음료식품 - 기타음료식품"},{"name":"전마을","tel":"031-408-5682","addr":"경기도 안산시 상록구 부곡동 662-3번지 1층","category":"일반휴게음식 - 일반한식"}]},{"lat":"37.3333954906","long":"126.8634370558","items":[{"name":"마마닭강정","tel":"031-406-6188","addr":"경기도 안산시 상록구 부곡동 662-3번지","category":"숙박 및 음식점업 - 기타음식"}]},{"lat":"37.331700954","long":"126.86290986","items":[{"name":"마엑스(X)포차","tel":"031-500-8815","addr":"경기도 안산시 상록구 부곡동 628-12번지 1층","category":"일반휴게음식 - 주점"}]},{"lat":"37.3317009539","long":"126.8629098625","items":[{"name":"마엑스(X)포차","tel":"031-500-8815","addr":"경기도 안산시 상록구 부곡동 628-12번지","category":"숙박 및 음식점업 - 기타주점"},{"name":"삼화페인트(버들상사)","tel":"031-417-0063","addr":"경기도 안산시 상록구 부곡동 628-12번지","category":"도매 및 소매업 - 페인트"}]},{"lat":"37.321585939","long":"126.85826916","items":[{"name":"마임(안산 한대지사)","tel":"031-406-9232","addr":"경기도 안산시 상록구 부곡동 704-10번지 302호","category":"보건위생 - 화장품"}]},{"lat":"37.328337837","long":"126.86096414","items":[{"name":"막퍼주는집","tel":"031-409-0920","addr":"경기도 안산시 상록구 부곡동 622-10번지 2호","category":"음료식품 - 농·축·수산품"},{"name":"카페에이치(cafe H)","tel":"","addr":"경기도 안산시 상록구 부곡동 622-10번지 1층","category":"일반휴게음식 - 서양음식"}]},{"lat":"37.333117117","long":"126.86423872","items":[{"name":"만사태평정육식당","tel":"031-416-9930","addr":"경기도 안산시 상록구 부곡동 533-3번지 1층","category":"일반휴게음식 - 일반한식"},{"name":"신용정육생고기","tel":"031-416-9930","addr":"경기도 안산시 상록구 부곡동 533-3번지 1층","category":"일반휴게음식 - 일반한식"},{"name":"영재해법학원","tel":"031-413-2096","addr":"경기도 안산시 상록구 부곡동 533-3번지 3층","category":"학원 - 보습학원"},{"name":"요가 스튜디오 율","tel":"031-449-6886","addr":"경기도 안산시 상록구 부곡동 533-3 2층","category":"회원제형태 - 레져업소"}]},{"lat":"37.3320889107","long":"126.8633492022","items":[{"name":"맘스터치","tel":"031-406-4122","addr":"경기도 안산시 상록구 부곡동 538-3번지","category":"숙박 및 음식점업 - 치킨"},{"name":"코리엔탈깻잎치킨","tel":"0507-0493-1725","addr":"경기도 안산시 상록구 부곡동 538-3번지","category":"숙박 및 음식점업 - 피자, 치킨"}]},{"lat":"37.332088911","long":"126.8633492","items":[{"name":"맘스터치(부곡,월피점)","tel":"031-406-4122","addr":"경기도 안산시 상록구 부곡동 538-3번지 금신부곡빌딩 1층 105호","category":"일반휴게음식 - 스넥"},{"name":"브이아이피(VIP)노래연습장","tel":"031-417-5160","addr":"경기도 안산시 상록구 부곡동 538-3번지 금신부곡빌딩 301호","category":"레저업소 - 노 래 방"},{"name":"영선횟집","tel":"031-407-1664","addr":"경기도 안산시 상록구 부곡동 538-3번지 (1층상가103호)","category":"일반휴게음식 - 일반한식"},{"name":"전주식당","tel":"031-501-1765","addr":"경기도 안산시 상록구 부곡동 538-3번지 금신부곡빌딩 101,102호","category":"일반휴게음식 - 일반한식"},{"name":"코리엔탈깻잎칩킨","tel":"031-501-5009","addr":"경기도 안산시 상록구 부곡동 538-3번지 금신부곡빌딩 104호","category":"일반휴게음식 - 서양음식"}]},{"lat":"37.3337311896","long":"126.8578735118","items":[{"name":"매일좋은날헤어샵","tel":"","addr":"경기도 안산시 상록구 부곡동 734-6번지","category":"협회 및 단체, 수리 및 기타 개인서"}]},{"lat":"37.325785766","long":"126.85915244","items":[{"name":"맥스","tel":"031-407-0843","addr":"경기도 안산시 상록구 부곡동 686-6번지 1층","category":"일반휴게음식 - 주점"},{"name":"조개가끝내주는집","tel":"031-410-1133","addr":"경기도 안산시 상록구 부곡동 686-6번지 101호","category":"일반휴게음식 - 일반한식"},{"name":"착한통닭","tel":"031-417-6336","addr":"경기도 안산시 상록구 부곡동 686-6번지 1층 상가동","category":"일반휴게음식 - 스넥"},{"name":"하면돼지","tel":"031-410-1133","addr":"경기도 안산시 상록구 부곡동 686-6번지 101호","category":"일반휴게음식 - 일반한식"}]},{"lat":"37.324308973","long":"126.85987732","items":[{"name":"머리사랑","tel":"031-408-2456","addr":"경기도 안산시 상록구 부곡동 606-8번지 1층","category":"보건위생 - 미용원"},{"name":"명성건축설비","tel":"031-407-0404","addr":"경기도 안산시 상록구 부곡동 606-8번지 101호","category":"용역 서비스 - 기타용역서비스"}]},{"lat":"37.327814814","long":"126.86060407","items":[{"name":"먹고반","tel":"","addr":"경기도 안산시 상록구 부곡동 620-15번지 1층","category":"일반휴게음식 - 일반한식"},{"name":"송학추어탕","tel":"031-406-3105","addr":"경기도 안산시 상록구 부곡동 620-15번지","category":"일반휴게음식 - 일반한식"},{"name":"재도유통","tel":"","addr":"경기도 안산시 상록구 부곡동 620-15번지 102호","category":"음료식품 - 기타음료식품"}]},{"lat":"37.3278148136","long":"126.8606040699","items":[{"name":"먹고반","tel":"","addr":"경기도 안산시 상록구 부곡동 620-15번지","category":"숙박 및 음식점업 - 한식"}]},{"lat":"37.322532421","long":"126.85860581","items":[{"name":"명성지물포","tel":"031-485-3411","addr":"경기도 안산시 상록구 부곡동 695-17번지","category":"직물 - 카페트,커튼,천막,지물"}]},{"lat":"37.3225324210","long":"126.8586058069","items":[{"name":"명성지물포","tel":"031-485-3411","addr":"경기도 안산시 상록구 부곡동 695-17번지","category":"도매 및 소매업 - 지물"}]},{"lat":"37.334923207","long":"126.8600716","items":[{"name":"명수건설","tel":"","addr":"경기도 안산시 상록구 부곡동 725-12번지 502호","category":"용역 서비스 - 기타용역서비스"},{"name":"유쌤 손부림","tel":"","addr":"경기도 안산시 상록구 부곡동 725-12번지 502호","category":"학원 - 기타 교육기관"}]},{"lat":"37.324921064","long":"126.85937973","items":[{"name":"명품바른고기","tel":"031-409-1660","addr":"경기도 안산시 상록구 부곡동 692-1번지 103호","category":"음료식품 - 정육점"},{"name":"신화태권도","tel":"031-416-5123","addr":"경기도 안산시 상록구 부곡동 692-1번지 3층","category":"학원 - 예·체능계학원"},{"name":"장터치킨","tel":"031-507-2599","addr":"경기도 안산시 상록구 부곡동 692-1번지 1층","category":"일반휴게음식 - 스넥"},{"name":"전원당구장","tel":"031-000-0000","addr":"경기도 안산시 상록구 부곡동 692-1번지 201호","category":"레저업소 - 당 구 장"},{"name":"퀸헤어샵","tel":"031-416-9370","addr":"경기도 안산시 상록구 부곡동 692-1번지 1층 102호","category":"보건위생 - 미용원"}]},{"lat":"37.3249210637","long":"126.8593797330","items":[{"name":"명품바른고기","tel":"031-409-1660","addr":"경기도 안산시 상록구 부곡동 692-1번지","category":"도매 및 소매업 - 육류"},{"name":"장터치킨","tel":"031-507-2599","addr":"경기도 안산시 상록구 부곡동 692-1번지","category":"숙박 및 음식점업 - 기타음식"},{"name":"퀸헤어?","tel":"031-416-9370","addr":"경기도 안산시 상록구 부곡동 692-1번지","category":"협회 및 단체, 수리 및 기타 개인서"}]},{"lat":"37.326120453","long":"126.86023494","items":[{"name":"명품세탁소","tel":"031-406-4089","addr":"경기도 안산시 상록구 부곡동 613-5번지 선샤인 101호","category":"수리서비스 - 세탁소"}]},{"lat":"37.329564057","long":"126.86166139","items":[{"name":"명품학원","tel":"031-000-0000","addr":"경기도 안산시 상록구 부곡동 623번지 201호","category":"학원 - 보습학원"},{"name":"뮤엠영어부곡교습소","tel":"031-111-1111","addr":"경기도 안산시 상록구 부곡동 623번지 3층","category":"학원 - 외국어학원"}]},{"lat":"37.334920544","long":"126.85788251","items":[{"name":"모닝마트","tel":"031-498-4507","addr":"경기도 안산시 상록구 부곡동 728번지","category":"유통업 영리 - 슈퍼마켓"},{"name":"우성마트","tel":"031-487-4944","addr":"경기도 안산시 상록구 부곡동 728번지 지층,1층","category":"유통업 영리 - 슈퍼마켓"}]},{"lat":"37.334063896","long":"126.8648463","items":[{"name":"모델미용실","tel":"031-406-1010","addr":"경기도 안산시 상록구 부곡동 642번지 진우아트빌 1층","category":"보건위생 - 미용원"}]},{"lat":"37.334756383","long":"126.86373921","items":[{"name":"미강","tel":"031-494-6800","addr":"경기도 안산시 상록구 부곡동 658-15번지 동부빌라 102호","category":"보건위생 - 의료용품"}]},{"lat":"37.3246147179","long":"126.8593803156","items":[{"name":"미녀는개로워","tel":"","addr":"경기도 안산시 상록구 부곡동 692-3번지","category":"도매 및 소매업 - 동물미용업, 애견"},{"name":"여우와솜사탕","tel":"031-406-8969","addr":"경기도 안산시 상록구 부곡동 692-3번지","category":"도매 및 소매업 - 생활,식품잡화,복"},{"name":"헤어기분전환","tel":"031-417-9285","addr":"경기도 안산시 상록구 부곡동 692-3번지","category":"협회 및 단체, 수리 및 기타 개인서"}]},{"lat":"37.332700614","long":"126.86251308","items":[{"name":"미니스톱 안산럭키점","tel":"031-1577-9621","addr":"경기도 안산시 상록구 부곡동 666번지 1층","category":"유통업 영리 - 편 의 점"}]},{"lat":"37.334813978","long":"126.8591578","items":[{"name":"미니스톱안산시낭북로점","tel":"031-1577-9621","addr":"경기도 안산시 상록구 부곡동 727-9번지 1층","category":"유통업 영리 - 편 의 점"}]},{"lat":"37.335279304","long":"126.86402034","items":[{"name":"미니플러스","tel":"031-411-3617","addr":"경기도 안산시 상록구 부곡동 657-18번지","category":"유통업 영리 - 슈퍼마켓"}]},{"lat":"37.327866649","long":"126.85876485","items":[{"name":"미래종합기획","tel":"031-501-3368","addr":"경기도 안산시 상록구 부곡동 681-10번지 우석팰리스 104호","category":"용역 서비스 - 종합용역"},{"name":"하나","tel":"031-406-4221","addr":"경기도 안산시 상록구 부곡동 681-10번지 우석팰리스 101호","category":"용역 서비스 - 기타용역서비스"}]},{"lat":"37.336423461","long":"126.8639054","items":[{"name":"미선웰빙산채","tel":"031-408-2150","addr":"경기도 안산시 상록구 부곡동 654-11번지 1층","category":"일반휴게음식 - 일반한식"}]},{"lat":"37.331141896","long":"126.86254983","items":[{"name":"미성컴퓨터세탁","tel":"031-416-1970","addr":"경기도 안산시 상록구 부곡동 627번지","category":"수리서비스 - 세탁소"},{"name":"압구정본가불닭발","tel":"031-407-0098","addr":"경기도 안산시 상록구 부곡동 627번지","category":"일반휴게음식 - 일반한식"},{"name":"훌랄라베이크치킨","tel":"031-407-9205","addr":"경기도 안산시 상록구 부곡동 627번지 1층","category":"일반휴게음식 - 주점"}]},{"lat":"37.333809625","long":"126.86315419","items":[{"name":"미소","tel":"031-407-6033","addr":"경기도 안산시 상록구 부곡동 661-11번지 101호","category":"보건위생 - 미용원"},{"name":"푼푼","tel":"","addr":"경기도 안산시 상록구 부곡동 661-11번지 1층 102호","category":"일반휴게음식 - 서양음식"}]},{"lat":"37.337000905","long":"126.85707732","items":[{"name":"미예뜰어린이집","tel":"031-439-5566","addr":"경기도 안산시 상록구 부곡동 713-5번지","category":"학원 - 유치원"},{"name":"미예뜰어린이집[아이행복]","tel":"031-439-5566","addr":"경기도 안산시 상록구 부곡동 713-5번지","category":"학원 - 유아원"}]},{"lat":"37.334370232","long":"126.85731937","items":[{"name":"민피부사랑","tel":"031-403-6528","addr":"경기도 안산시 상록구 부곡동 733-11번지 103호","category":"보건위생 - 피부미용실"},{"name":"순헤어 화장품 잡화","tel":"031-481-8926","addr":"경기도 안산시 상록구 부곡동 733-11번지 1층 103호","category":"보건위생 - 화장품"},{"name":"주식회사 포유컴퍼니","tel":"031-413-4130","addr":"경기도 안산시 상록구 부곡동 733-11번지 1층 104호","category":"주방용구 - 주방용구"},{"name":"착하면돼지","tel":"031-410-4343","addr":"경기도 안산시 상록구 부곡동 733-11번지 101호","category":"음료식품 - 정육점"}]},{"lat":"37.32217109","long":"126.8578506","items":[{"name":"바비와몰티","tel":"070-8246-7778","addr":"경기도 안산시 상록구 부곡동 696번지 102호","category":"문화.취미 - 애완동물"},{"name":"산새알물새알","tel":"031-406-3852","addr":"경기도 안산시 상록구 부곡동 696번지","category":"일반휴게음식 - 칵테일바"}]},{"lat":"37.33308953","long":"126.86376485","items":[{"name":"박승철내과의원","tel":"031-438-1175","addr":"경기도 안산시 상록구 부곡동 533-11번지 2층","category":"의원 - 의원"},{"name":"정민약국","tel":"031-417-8160","addr":"경기도 안산시 상록구 부곡동 533-11번지","category":"약국 - 약국"}]},{"lat":"37.326147321","long":"126.86009949","items":[{"name":"박여사부곡곱창","tel":"031-406-3330","addr":"경기도 안산시 상록구 부곡동 613-6번지 1층","category":"일반휴게음식 - 일반한식"},{"name":"와PC방","tel":"031-0000-0000","addr":"경기도 안산시 상록구 부곡동 613-6번지 2층","category":"레저업소 - 기타레져업소"}]},{"lat":"37.333585487","long":"126.86410245","items":[{"name":"박현진헤어창작공간","tel":"031-487-6649","addr":"경기도 안산시 상록구 부곡동 643-9번지 1층 103호","category":"보건위생 - 미용원"},{"name":"오페라당구클럽","tel":"031-495-4637","addr":"경기도 안산시 상록구 부곡동 643-9번지 2층","category":"레저업소 - 당 구 장"},{"name":"피자헐(3호점)","tel":"031-407-7748","addr":"경기도 안산시 상록구 부곡동 643-9번지","category":"일반휴게음식 - 서양음식"},{"name":"하나꽃집","tel":"031-416-2698","addr":"경기도 안산시 상록구 부곡동 643-9번지 1층","category":"문화.취미 - 화원"}]},{"lat":"37.324784013","long":"126.85782301","items":[{"name":"발렌타인","tel":"031-415-1228","addr":"경기도 안산시 상록구 부곡동 689-9번지 1층","category":"일반휴게음식 - 주점"}]},{"lat":"37.3325575456","long":"126.8634386046","items":[{"name":"밝은안경","tel":"031-406-9009","addr":"경기도 안산시 상록구 부곡동 538-6번지","category":"도매 및 소매업 - 안경"}]},{"lat":"37.332557546","long":"126.8634386","items":[{"name":"밝은안경원","tel":"070-5088-3251","addr":"경기도 안산시 상록구 부곡동 538-6번지 1층 4호, 5호","category":"보건위생 - 안경"},{"name":"커피생각","tel":"031-418-6618","addr":"경기도 안산시 상록구 부곡동 538-6번지 부곡주유소 1층 3호","category":"일반휴게음식 - 서양음식"},{"name":"헤어락","tel":"031-408-9928","addr":"경기도 안산시 상록구 부곡동 538-6번지","category":"보건위생 - 미용원"}]},{"lat":"37.333529589","long":"126.86254539","items":[{"name":"방플러스창","tel":"031-415-7866","addr":"경기도 안산시 상록구 부곡동 663-6번지 영동아트빌5차 상가 1층 104호","category":"직물 - 침구·수예점"}]},{"lat":"37.333169142","long":"126.86251221","items":[{"name":"백년순대","tel":"031-417-6678","addr":"경기도 안산시 상록구 부곡동 664-4번지 1층","category":"일반휴게음식 - 일반한식"},{"name":"부곡당구클럽","tel":"","addr":"경기도 안산시 상록구 부곡동 664-4번지 2층","category":"레저업소 - 당 구 장"}]},{"lat":"37.3331691425","long":"126.8625122078","items":[{"name":"백년순대","tel":"031-417-6678","addr":"경기도 안산시 상록구 부곡동 664-4번지","category":"숙박 및 음식점업 - 일반음식점"}]},{"lat":"37.335086259","long":"126.86079347","items":[{"name":"백두산통돼지바베큐","tel":"","addr":"경기도 안산시 상록구 부곡동 723-8번지 1층 102호","category":"일반휴게음식 - 일반한식"}]},{"lat":"37.335866707","long":"126.85795968","items":[{"name":"뱃살도둑","tel":"031-405-1154","addr":"경기도 안산시 상록구 부곡동 715-6 1층일부(3호)","category":"회원제형태 - 건강식품"},{"name":"빨주노초","tel":"","addr":"경기도 안산시 상록구 부곡동 715-6번지 1층","category":"일반휴게음식 - 스넥"},{"name":"정원","tel":"","addr":"경기도 안산시 상록구 부곡동 715-6번지 102호","category":"의류 - 정장"}]},{"lat":"37.338945401","long":"126.8631334","items":[{"name":"별빛마을기프트샵","tel":"","addr":"경기도 안산시 상록구 부곡동 216-3번지 1층","category":"신변잡화 - 기념품점"},{"name":"웅카센타","tel":"031-411-7676","addr":"경기도 안산시 상록구 부곡동 216-3번지 5","category":"자동차정비 유지 - 자동차정비"}]},{"lat":"37.338088836","long":"126.86262718","items":[{"name":"별빛새길갤러리&카페","tel":"","addr":"경기도 안산시 상록구 부곡동 215-1번지 1층","category":"일반휴게음식 - 서양음식"},{"name":"지에스(GS)인터내셔널","tel":"","addr":"경기도 안산시 상록구 부곡동 215-1번지 외1필지","category":"신변잡화 - 액세서리"}]},{"lat":"37.333891567","long":"126.86387621","items":[{"name":"별진모바일","tel":"070-8264-8010","addr":"경기도 안산시 상록구 부곡동 661-4번지 103호","category":"사무통신 - 통신기기"},{"name":"부곡고려정형외과의원","tel":"031-417-7588","addr":"경기도 안산시 상록구 부곡동 661-4번지 지상1층~3층","category":"의원 - 의원"},{"name":"삼성약국","tel":"031-417-9517","addr":"경기도 안산시 상록구 부곡동 661-4번지 제일빌딩 1층","category":"약국 - 약국"},{"name":"신발창고","tel":"070-0000-0000","addr":"경기도 안산시 상록구 부곡동 661-4번지 1층","category":"신변잡화 - 신발"},{"name":"효성한의원","tel":"031-408-7576","addr":"경기도 안산시 상록구 부곡동 661-4번지 302호","category":"의원 - 한의원"}]},{"lat":"37.324946196","long":"126.8578227","items":[{"name":"별찌바이크","tel":"031-438-3003","addr":"경기도 안산시 상록구 부곡동 689번지 102호","category":"레져용품 - 스포츠·레져용품"},{"name":"현디자인","tel":"031-485-1560","addr":"경기도 안산시 상록구 부곡동 689번지 1층 101호","category":"건축자재 - 인테리어전문"},{"name":"협동1급카서비스","tel":"031-414-1997","addr":"경기도 안산시 상록구 부곡동 689번지","category":"자동차정비 유지 - 자동차정비"}]},{"lat":"37.331619796","long":"126.8628536","items":[{"name":"보물창고","tel":"031-415-7393","addr":"경기도 안산시 상록구 부곡동 628-11번지 1층 1","category":"의류 - 정장"}]},{"lat":"37.322534037","long":"126.8599371","items":[{"name":"보미클린홈","tel":"","addr":"경기도 안산시 상록구 부곡동 600-9번지 부원빌라 102호","category":"용역 서비스 - 종합용역"}]},{"lat":"37.335756126","long":"126.86341012","items":[{"name":"보은집","tel":"031-418-9492","addr":"경기도 안산시 상록구 부곡동 656번지","category":"일반휴게음식 - 일반한식"}]},{"lat":"37.335639246","long":"126.86362474","items":[{"name":"보은집1호점","tel":"031-415-7180","addr":"경기도 안산시 상록구 부곡동 656-1번지","category":"일반휴게음식 - 일반한식"}]},{"lat":"37.334417668","long":"126.8592714","items":[{"name":"복영슈퍼","tel":"031-414-7022","addr":"경기도 안산시 상록구 부곡동 729-1번지 1층","category":"유통업 영리 - 슈퍼마켓"}]},{"lat":"37.332863105","long":"126.8627723","items":[{"name":"본향들깨수제비","tel":"031-501-1139","addr":"경기도 안산시 상록구 부곡동 665-8번지 1층 102호","category":"일반휴게음식 - 일반한식"},{"name":"영자네손맛김치","tel":"031-520-7422","addr":"경기도 안산시 상록구 부곡동 665-8번지 102호 상가","category":"음료식품 - 기타음료식품"}]},{"lat":"37.3328631046","long":"126.8627723021","items":[{"name":"본향들깨수제비","tel":"031-501-1139","addr":"경기도 안산시 상록구 부곡동 665-8번지","category":"숙박 및 음식점업 - 일반음식"}]},{"lat":"37.325784321","long":"126.85796776","items":[{"name":"봄빛치과의원","tel":"031-418-2822","addr":"경기도 안산시 상록구 부곡동 688-1번지 2층","category":"의원 - 치과의원"},{"name":"해오름노래연습장","tel":"031-486-4323","addr":"경기도 안산시 상록구 부곡동 688-1번지 지층","category":"레저업소 - 노 래 방"},{"name":"황금돼지","tel":"031-416-1703","addr":"경기도 안산시 상록구 부곡동 688-1번지","category":"일반휴게음식 - 일반한식"}]},{"lat":"37.333034418","long":"126.86287354","items":[{"name":"봉구스밥버거(부곡점)","tel":"031-417-2434","addr":"경기도 안산시 상록구 부곡동 665-1번지 1층","category":"일반휴게음식 - 스넥"},{"name":"신성푸드","tel":"031-407-1648","addr":"경기도 안산시 상록구 부곡동 665-1","category":"음료식품 - 기타음료식품"},{"name":"장터공방","tel":"","addr":"경기도 안산시 상록구 부곡동 665-1번지 102호","category":"일반휴게음식 - 일반한식"}]},{"lat":"37.333224165","long":"126.86332454","items":[{"name":"부곡D.C마트","tel":"031-417-1666","addr":"경기도 안산시 상록구 부곡동 662-6번지","category":"유통업 영리 - 기타유통업"}]},{"lat":"37.3340003428","long":"126.8569364340","items":[{"name":"부곡가든","tel":"031-504-4015","addr":"경기도 안산시 상록구 부곡동 734-17번지","category":"숙박 및 음식점업 - 기타음식"}]},{"lat":"37.331279775","long":"126.8573479","items":[{"name":"부곡고등학교","tel":"031-363-0254","addr":"경기도 안산시 상록구 부곡동 446-3번지","category":"학원 - 초중고교육기관"},{"name":"부곡고등학교_수업료","tel":"031-363-0254","addr":"경기도 안산시 상록구 부곡동 446-3번지 부곡고등학교","category":"학원 - 초중고교육기관"}]},{"lat":"37.324481808","long":"126.86124217","items":[{"name":"부곡과일(알뜰장)","tel":"","addr":"경기도 안산시 상록구 부곡동 607-5번지 1층","category":"음료식품 - 농·축·수산품"}]},{"lat":"37.3352271935","long":"126.8581301691","items":[{"name":"부곡늘푸른약국","tel":"031-411-6325","addr":"경기도 안산시 상록구 부곡동 727-16번지","category":"도매 및 소매업 - 양약"}]},{"lat":"37.333195422","long":"126.86188027","items":[{"name":"부곡닭한마리칼국수","tel":"","addr":"경기도 안산시 상록구 부곡동 664-9번지 1층 103,104호","category":"일반휴게음식 - 일반한식"},{"name":"생불고기하우스","tel":"031-408-5855","addr":"경기도 안산시 상록구 부곡동 664-9번지 101호 102호","category":"일반휴게음식 - 일반한식"},{"name":"아쿠아비","tel":"070-8802-6012","addr":"경기도 안산시 상록구 부곡동 664-9번지","category":"문화.취미 - 수족관"},{"name":"착한찜","tel":"031-407-7721","addr":"경기도 안산시 상록구 부곡동 664-9번지 1층","category":"일반휴게음식 - 일반한식"}]},{"lat":"37.333728827","long":"126.86340259","items":[{"name":"부곡동맛집","tel":"031-416-1291","addr":"경기도 안산시 상록구 부곡동 661-9번지 1층","category":"일반휴게음식 - 일반한식"},{"name":"영미미술학원","tel":"031-406-7829","addr":"경기도 안산시 상록구 부곡동 661-9번지 2층","category":"학원 - 예·체능계학원"},{"name":"제이엠음악학원","tel":"031-406-7578","addr":"경기도 안산시 상록구 부곡동 661-9번지","category":"학원 - 예·체능계학원"}]},{"lat":"37.3332518193","long":"126.8638548201","items":[{"name":"부곡라성약국","tel":"031-8044-8180","addr":"경기도 안산시 상록구 부곡동 533번지","category":"도매 및 소매업 - 양약"},{"name":"연세성모의원","tel":"031-502-7575","addr":"경기도 안산시 상록구 부곡동 533번지","category":"보건업 및 사회복지서비스업 - 가정의"},{"name":"제이와이 댄스에어로빅","tel":"031-409-1554","addr":"경기도 안산시 상록구 부곡동 533번지","category":"예술, 스포츠 및 여가관련 서비스업"},{"name":"제이와이(JY)댄스에어로빅","tel":"031-409-1554","addr":"경기도 안산시 상록구 부곡동 533번지","category":"예술, 스포츠 및 여가관련 서비스업"}]},{"lat":"37.3346403886","long":"126.8647098418","items":[{"name":"부곡명가찜마을","tel":"031-416-8292","addr":"경기도 안산시 상록구 부곡동 644-10번지","category":"숙박 및 음식점업 - 한식"}]},{"lat":"37.33647739","long":"126.86379245","items":[{"name":"부곡모터스","tel":"031-407-0848","addr":"경기도 안산시 상록구 부곡동 654-12번지","category":"자동차정비 유지 - 자동차정비"},{"name":"애니카랜드 부곡점","tel":"031-413-4086","addr":"경기도 안산시 상록구 부곡동 654-12번지","category":"자동차정비 유지 - 자동차정비"}]},{"lat":"37.33297269","long":"126.86401331","items":[{"name":"부곡상회(BYC)","tel":"031-417-9236","addr":"경기도 안산시 상록구 부곡동 533-9번지","category":"의류 - 내의판매"},{"name":"부름코인","tel":"","addr":"경기도 안산시 상록구 부곡동 533-9번지 문화빌딩 2층","category":"레저업소 - 노 래 방"}]},{"lat":"37.332171828","long":"126.86490618","items":[{"name":"부곡식당","tel":"031-403-6012","addr":"경기도 안산시 상록구 부곡동 542-9번지 1층","category":"일반휴게음식 - 일반한식"},{"name":"주식화사 파스텔블루코리아","tel":"031-312-2246","addr":"경기도 안산시 상록구 부곡동 542-9번지 2층","category":"용역 서비스 - 종합용역"}]},{"lat":"37.337036528","long":"126.85673873","items":[{"name":"부곡아구탕","tel":"031-410-1177","addr":"경기도 안산시 상록구 부곡동 713-3번지","category":"일반휴게음식 - 일반한식"}]},{"lat":"37.328752602","long":"126.86121159","items":[{"name":"부곡아이네트학원","tel":"031-416-0006","addr":"경기도 안산시 상록구 부곡동 622-14번지 2층","category":"학원 - 보습학원"},{"name":"선경문구","tel":"031-437-0553","addr":"경기도 안산시 상록구 부곡동 622-14번지","category":"서적문구 - 문구용품"},{"name":"써니도그","tel":"031-1111-111","addr":"경기도 안산시 상록구 부곡동 622-14번지 1층 101호","category":"문화.취미 - 애완동물"}]},{"lat":"37.3325011005","long":"126.8614302216","items":[{"name":"부곡영양탕","tel":"031-416-1939","addr":"경기도 안산시 상록구 부곡동 667-11번지","category":"숙박 및 음식점업 - 한식점업"},{"name":"서신유통","tel":"031-418-5467","addr":"경기도 안산시 상록구 부곡동 667-11번지","category":"도매 및 소매업 - 농수산물"}]},{"lat":"37.332059211","long":"126.86110383","items":[{"name":"부곡영양탕","tel":"031-416-1939","addr":"경기도 안산시 상록구 부곡동 671-3번지 디자인뷰 1층","category":"일반휴게음식 - 일반한식"}]},{"lat":"37.331168431","long":"126.86213229","items":[{"name":"부곡유치원[아이행복]","tel":"031-418-5708","addr":"경기도 안산시 상록구 부곡동 670-6번지","category":"학원 - 유치원"}]},{"lat":"37.327779531","long":"126.86123598","items":[{"name":"부곡유통","tel":"031-111-1111","addr":"경기도 안산시 상록구 부곡동 620-4번지 동현쎈스빌2차 201호","category":"의류 - 정장"}]},{"lat":"37.328057816","long":"126.86037795","items":[{"name":"부곡윤피아노음악학원","tel":"031-417-6657","addr":"경기도 안산시 상록구 부곡동 682-7번지","category":"학원 - 예·체능계학원"},{"name":"승승장구","tel":"031-438-0991","addr":"경기도 안산시 상록구 부곡동 682-7번지","category":"일반휴게음식 - 일반한식"},{"name":"아이스크림천국","tel":"02-1111-1111","addr":"경기도 안산시 상록구 부곡동 682-7번지 101호","category":"음료식품 - 제과점"}]},{"lat":"37.33389049","long":"126.86296222","items":[{"name":"부곡족발","tel":"","addr":"경기도 안산시 상록구 부곡동 660-9번지 104호","category":"일반휴게음식 - 일반한식"},{"name":"유진토탈인테리어","tel":"031-437-1056","addr":"경기도 안산시 상록구 부곡동 660-9번지","category":"건축자재 - 인테리어전문"}]},{"lat":"37.332254145","long":"126.85838411","items":[{"name":"부곡중고타이어","tel":"031-475-7868","addr":"경기도 안산시 상록구 부곡동 737-3번지","category":"자동차정비 유지 - 자동차시트·타이어"},{"name":"월드음향","tel":"031-410-1472","addr":"경기도 안산시 상록구 부곡동 737-3번지","category":"전기제품 - 기타전기제품"},{"name":"토탈음향","tel":"","addr":"경기도 안산시 상록구 부곡동 737-3번지 1층 103호","category":"전기제품 - 가전제품"}]},{"lat":"37.332341978","long":"126.86401447","items":[{"name":"부곡진로할인마트","tel":"031-438-2545","addr":"경기도 안산시 상록구 부곡동 539-1번지 1층","category":"유통업 영리 - 슈퍼마켓"},{"name":"부곡진로할인마트","tel":"031-438-2545","addr":"경기도 안산시 상록구 부곡동 539-1번지 1층","category":"유통업 영리 - 슈퍼마켓"},{"name":"태산축산","tel":"031-415-3376","addr":"경기도 안산시 상록구 부곡동 539-1번지","category":"음료식품 - 정육점"}]},{"lat":"37.329753432","long":"126.86179644","items":[{"name":"부곡하나로마트","tel":"031-406-8884","addr":"경기도 안산시 상록구 부곡동 624-7번지 현진프라자","category":"유통업 영리 - 슈퍼마켓"},{"name":"윤선생보습학원","tel":"031-416-5747","addr":"경기도 안산시 상록구 부곡동 624-7번지 2층","category":"학원 - 보습학원"},{"name":"장치봉의맵꼬만명태찜","tel":"031-415-1467","addr":"경기도 안산시 상록구 부곡동 624-7번지 1층","category":"일반휴게음식 - 일반한식"}]},{"lat":"37.3297534316","long":"126.8617964362","items":[{"name":"부곡하나로마트","tel":"031-406-8884","addr":"경기도 안산시 상록구 부곡동 624-7번지","category":"도매 및 소매업 - 슈퍼마켓,담배소매"}]},{"lat":"37.325173745","long":"126.85970645","items":[{"name":"부곡한수위학원","tel":"031-408-2601","addr":"경기도 안산시 상록구 부곡동 612-9번지 2층","category":"학원 - 보습학원"},{"name":"씨유안산부곡제일점","tel":"031-502-9897","addr":"경기도 안산시 상록구 부곡동 612-9번지 1층","category":"유통업 영리 - 편 의 점"},{"name":"헤어피카소","tel":"031-419-1530","addr":"경기도 안산시 상록구 부곡동 612-9번지 102호","category":"보건위생 - 미용원"}]},{"lat":"37.335417461","long":"126.86660414","items":[{"name":"부곡홈마트","tel":"031-416-0045","addr":"경기도 안산시 상록구 부곡동 636-13번지 1층","category":"유통업 영리 - 슈퍼마켓"},{"name":"부곡홍마트정육점","tel":"031-416-0045","addr":"경기도 안산시 상록구 부곡동 636-13번지","category":"음료식품 - 정육점"}]},{"lat":"37.3354174610","long":"126.8666041428","items":[{"name":"부곡홈마트","tel":"031-416-0045","addr":"경기도 안산시 상록구 부곡동 636-13번지","category":"도매 및 소매업 - 슈퍼,담배"}]},{"lat":"37.331945928","long":"126.8643537","items":[{"name":"부암어린이집[아이행복]","tel":"031-501-0196","addr":"경기도 안산시 상록구 부곡동 540-1번지","category":"학원 - 유아원"}]},{"lat":"37.332254569","long":"126.86632777","items":[{"name":"부여버섯","tel":"","addr":"경기도 안산시 상록구 부곡동 536-2번지","category":"음료식품 - 농·축·수산품"}]},{"lat":"37.3322545691","long":"126.8663277663","items":[{"name":"부여버섯","tel":"","addr":"경기도 안산시 상록구 부곡동 536-2번지","category":"도매 및 소매업 - 버섯"}]},{"lat":"37.3300068025","long":"126.8627099068","items":[{"name":"북경","tel":"031-416-0844","addr":"경기도 안산시 상록구 부곡동 625-1번지","category":"숙박 및 음식점업 - 중식"},{"name":"홀인원(더골프스토링앤카페)","tel":"","addr":"경기도 안산시 상록구 부곡동 625-1번지","category":"도매 및 소매업 - 의류"}]},{"lat":"37.325362972","long":"126.85971737","items":[{"name":"브로스라이크 (BrosLike)","tel":"031-000-0000","addr":"경기도 안산시 상록구 부곡동 612-10번지 301호","category":"용역 서비스 - 종합용역"},{"name":"서광인테리어","tel":"031-406-0291","addr":"경기도 안산시 상록구 부곡동 612-10번지 101호","category":"건축자재 - 인테리어전문"},{"name":"프리모 학생복","tel":"031-416-4234","addr":"경기도 안산시 상록구 부곡동 612-10번지 103호","category":"의류 - 맞춤복점"}]},{"lat":"37.334111559","long":"126.86710299","items":[{"name":"비비드아쿠아","tel":"031-504-2005","addr":"경기도 안산시 상록구 부곡동 632-20번지 엘리시움 402호","category":"문화.취미 - 수족관"}]},{"lat":"37.333703266","long":"126.86465514","items":[{"name":"빅쳇","tel":"000-000-0000","addr":"경기도 안산시 상록구 부곡동 642-11번지 303호","category":"전기제품 - 기타전기제품"}]},{"lat":"37.334225631","long":"126.86446236","items":[{"name":"빠당구장","tel":"031-000-0000","addr":"경기도 안산시 상록구 부곡동 643번지 2층","category":"레저업소 - 당 구 장"},{"name":"원샷호프&소주","tel":"031-111-1111","addr":"경기도 안산시 상록구 부곡동 643번지 1층","category":"일반휴게음식 - 주점"},{"name":"프랑소아과자점","tel":"031-417-4429","addr":"경기도 안산시 상록구 부곡동 643번지 101호","category":"음료식품 - 제과점"}]},{"lat":"37.337000697","long":"126.85690806","items":[{"name":"뽕나무상계탕","tel":"031-412-9567","addr":"경기도 안산시 상록구 부곡동 713-4번지 1층","category":"일반휴게음식 - 일반한식"},{"name":"토속정","tel":"031-487-9567","addr":"경기도 안산시 상록구 부곡동 713-4번지 1층","category":"일반휴게음식 - 일반한식"}]},{"lat":"37.3370006966","long":"126.8569080605","items":[{"name":"뽕나무상계탕","tel":"031-411-9567","addr":"경기도 안산시 상록구 부곡동 713-4번지","category":"숙박 및 음식점업 - 한식업"}]},{"lat":"37.328869802","long":"126.86126778","items":[{"name":"뿌리","tel":"031-419-5226","addr":"경기도 안산시 상록구 부곡동 622-15번지 1층","category":"신변잡화 - 신발"},{"name":"언니야네일","tel":"031-415-0441","addr":"경기도 안산시 상록구 부곡동 622-15번지 1층 2호","category":"보건위생 - 피부미용실"},{"name":"열린ENG","tel":"031-000-0000","addr":"경기도 안산시 상록구 부곡동 622-15번지 302호","category":"건축자재 - 인테리어전문"},{"name":"팝콘(popcorn)","tel":"","addr":"경기도 안산시 상록구 부곡동 622-15번지 101호","category":"의류 - 정장"}]},{"lat":"37.333948023","long":"126.86592977","items":[{"name":"뿌리유치원","tel":"031-415-5400","addr":"경기도 안산시 상록구 부곡동 639-6번지","category":"학원 - 유치원"}]},{"lat":"37.332754354","long":"126.86224217","items":[{"name":"쁘띠꼬까.심심이네 (simsimnaposs house)","tel":"070-4645-1184","addr":"경기도 안산시 상록구 부곡동 667-3번지 해성빌라4차 102호","category":"의류 - 아동의류"}]},{"lat":"37.325171934","long":"126.85821715","items":[{"name":"사계절에어컨","tel":"","addr":"경기도 안산시 상록구 부곡동 687-11번지 302호","category":"용역 서비스 - 기타용역서비스"},{"name":"솔이네특종","tel":"031-415-5519","addr":"경기도 안산시 상록구 부곡동 687-11번지 금강홈타운 102호","category":"수리서비스 - 기타수리서비스"}]},{"lat":"37.334613853","long":"126.857601","items":[{"name":"사랑지물인테리어","tel":"031-411-0555","addr":"경기도 안산시 상록구 부곡동 733번지","category":"직물 - 카페트,커튼,천막,지물"},{"name":"풍네프제과점","tel":"031-439-0095","addr":"경기도 안산시 상록구 부곡동 733번지 101호","category":"음료식품 - 제과점"}]},{"lat":"37.325477962","long":"126.85795707","items":[{"name":"사무기마트","tel":"031-501-2748","addr":"경기도 안산시 상록구 부곡동 688-3번지","category":"사무통신 - 사무용 OA기기"}]},{"lat":"37.3302313064","long":"126.8620776251","items":[{"name":"삼성골프스포츠","tel":"031-502-9787","addr":"경기도 안산시 상록구 부곡동 624번지","category":"도매 및 소매업 - 스포츠용품"}]},{"lat":"37.330231306","long":"126.86207763","items":[{"name":"삼성스포츠","tel":"031-502-9787","addr":"경기도 안산시 상록구 부곡동 624번지 전체 1층","category":"레져용품 - 스포츠·레져용품"}]},{"lat":"37.323840239","long":"126.85970898","items":[{"name":"삼성시스템에어컨","tel":"031-415-1581","addr":"경기도 안산시 상록구 부곡동 605-11번지 101호","category":"전기제품 - 냉열기기"},{"name":"카페아이엔지(cafe ing)","tel":"031-416-1658","addr":"경기도 안산시 상록구 부곡동 605-11번지 1층","category":"일반휴게음식 - 서양음식"},{"name":"카페옆과자점","tel":"","addr":"경기도 안산시 상록구 부곡동 605-11번지 102호","category":"음료식품 - 기타음료식품"}]},{"lat":"37.334778649","long":"126.85974464","items":[{"name":"삼성에어컨","tel":"031-403-1786","addr":"경기도 안산시 상록구 부곡동 726-13번지","category":"회원제형태 - 기타4"}]},{"lat":"37.328473381","long":"126.86129109","items":[{"name":"삼성열기","tel":"070-4733-6644","addr":"경기도 안산시 상록구 부곡동 622-5번지 302호","category":"수리서비스 - 기타수리서비스"},{"name":"한국냉열기","tel":"","addr":"경기도 안산시 상록구 부곡동 622-5번지 302호","category":"수리서비스 - 가정용품수리"}]},{"lat":"37.330508718","long":"126.86818139","items":[{"name":"삼신유통","tel":"031-407-4114","addr":"경기도 안산시 상록구 부곡동 553-1번지","category":"유통업 영리 - 기타유통업"}]},{"lat":"37.336947691","long":"126.85776577","items":[{"name":"삼일공사","tel":"031-401-3104","addr":"경기도 안산시 상록구 부곡동 714-2번지 102호","category":"용역 서비스 - 기타용역서비스"}]},{"lat":"37.326309613","long":"126.86018945","items":[{"name":"삼주실업","tel":"031-407-0930","addr":"경기도 안산시 상록구 부곡동 613-4번지","category":"신변잡화 - 기타잡화"}]},{"lat":"37.335422484","long":"126.86318506","items":[{"name":"삼진사","tel":"031-407-0039","addr":"경기도 안산시 상록구 부곡동 656-16번지","category":"자동차정비 유지 - 자동차부품"}]},{"lat":"37.330895896","long":"126.86027104","items":[{"name":"삼천리가스프라자","tel":"031-417-3002","addr":"경기도 안산시 상록구 부곡동 678번지 102호","category":"건축자재 - 보일러·펌프·샷시"},{"name":"씨유안산부곡대로점","tel":"031-898-6569","addr":"경기도 안산시 상록구 부곡동 678번지 102(102호~103호)","category":"유통업 영리 - 편 의 점"},{"name":"피오레","tel":"031-502-7502","addr":"경기도 안산시 상록구 부곡동 678번지","category":"건축자재 - 인테리어전문"}]},{"lat":"37.328281597","long":"126.85915897","items":[{"name":"삼화상사","tel":"031-417-2866","addr":"경기도 안산시 상록구 부곡동 681-2번지","category":"건축자재 - 목재·석재·철물"}]},{"lat":"37.328335452","long":"126.85898962","items":[{"name":"상도프라스틱산업(주)","tel":"031-417-2866","addr":"경기도 안산시 상록구 부곡동 681-13","category":"건축자재 - 기타건축자재"}]},{"lat":"37.327616481","long":"126.86051418","items":[{"name":"상록멀티짐","tel":"031-403-0059","addr":"경기도 안산시 상록구 부곡동 619번지 102호","category":"기타 - 기타 전문점"},{"name":"티톡","tel":"031-410-7611","addr":"경기도 안산시 상록구 부곡동 619번지 103호","category":"사무통신 - 통신기기"}]},{"lat":"37.327896163","long":"126.86081829","items":[{"name":"상록보신장","tel":"031-418-3429","addr":"경기도 안산시 상록구 부곡동 620-1번지 1층","category":"일반휴게음식 - 일반한식"}]},{"lat":"37.327869308","long":"126.86096502","items":[{"name":"새꾸러기어린이집[아이행복]","tel":"031-416-0605","addr":"경기도 안산시 상록구 부곡동 620-2번지","category":"학원 - 유아원"},{"name":"새꾸러기어린이집[아이행복]","tel":"031-416-0605","addr":"경기도 안산시 상록구 부곡동 620-2번지","category":"학원 - 유아원"}]},{"lat":"37.323399218","long":"126.86010469","items":[{"name":"새농심원마트","tel":"031-416-5380","addr":"경기도 안산시 상록구 부곡동 602-11번지","category":"유통업 영리 - 슈퍼마켓"},{"name":"씨유안산부곡중앙점","tel":"080-080-3663","addr":"경기도 안산시 상록구 부곡동 602-11번지 1층","category":"유통업 영리 - 편 의 점"}]},{"lat":"37.331060201","long":"126.86204223","items":[{"name":"새별나라어린이집[아이행복]","tel":"031-418-5708","addr":"경기도 안산시 상록구 부곡동 670-7번지","category":"학원 - 유아원"}]},{"lat":"37.327506242","long":"126.85876554","items":[{"name":"생각창고","tel":"","addr":"경기도 안산시 상록구 부곡동 681-7번지","category":"서적문구 - 기타서적문구"}]},{"lat":"37.327363625","long":"126.86004078","items":[{"name":"샤이닝스타커피비어","tel":"031-000-0000","addr":"경기도 안산시 상록구 부곡동 684-3번지 101호","category":"일반휴게음식 - 서양음식"},{"name":"스타당구크럽","tel":"","addr":"경기도 안산시 상록구 부곡동 684-3번지 2층","category":"레저업소 - 당 구 장"},{"name":"정나곱창","tel":"031-501-4028","addr":"경기도 안산시 상록구 부곡동 684-3번지 105호","category":"일반휴게음식 - 일반한식"},{"name":"피자스쿨(안산부곡점)","tel":"031-501-0789","addr":"경기도 안산시 상록구 부곡동 684-3번지 1층 102호","category":"일반휴게음식 - 서양음식"}]},{"lat":"37.334226762","long":"126.85788384","items":[{"name":"샬롬크린","tel":"031-458-2659","addr":"경기도 안산시 상록구 부곡동 733-4번지 행복마을 301호","category":"용역 서비스 - 종합용역"}]},{"lat":"37.330032908","long":"126.86193131","items":[{"name":"서가네우렁쌈밥","tel":"031-415-6555","addr":"경기도 안산시 상록구 부곡동 624-9번지","category":"일반휴게음식 - 일반한식"}]},{"lat":"37.3300329081","long":"126.8619313128","items":[{"name":"서가네우렁쌈밥","tel":"031-415-6555","addr":"경기도 안산시 상록구 부곡동 624-9번지","category":"숙박 및 음식점업 - 기타음식"}]},{"lat":"37.327975045","long":"126.8589903","items":[{"name":"서남지사","tel":"031-414-6633","addr":"경기도 안산시 상록구 부곡동 681-4번지","category":"서적문구 - 일반서적"}]},{"lat":"37.3341981379","long":"126.8640674700","items":[{"name":"서박사곱창","tel":"031-415-9207","addr":"경기도 안산시 상록구 부곡동 661-2번지","category":"숙박 및 음식점업 - 곱창"}]},{"lat":"37.329750897","long":"126.85968648","items":[{"name":"서안산정비","tel":"031-437-9943","addr":"경기도 안산시 상록구 부곡동 679-4번지","category":"자동차정비 유지 - 자동차정비"}]},{"lat":"37.334396956","long":"126.86457488","items":[{"name":"서울구제","tel":"","addr":"경기도 안산시 상록구 부곡동 644-8번지 1층 101호","category":"의류 - 기타의류"},{"name":"수입상가","tel":"","addr":"경기도 안산시 상록구 부곡동 644-8번지","category":"신변잡화 - 기타잡화"},{"name":"언니포차","tel":"031-416-7493","addr":"경기도 안산시 상록구 부곡동 644-8번지 1층 103호","category":"일반휴게음식 - 일반한식"}]},{"lat":"37.322532035","long":"126.85828991","items":[{"name":"서울우유성호동대리점","tel":"031-416-1146","addr":"경기도 안산시 상록구 부곡동 695-19번지 1층","category":"음료식품 - 기타음료식품"}]},{"lat":"37.335145287","long":"126.86499102","items":[{"name":"서울홍익어린이집","tel":"031-484-5917","addr":"경기도 안산시 상록구 부곡동 644번지","category":"학원 - 유치원"},{"name":"서울홍익어린이집[아이행복]","tel":"031-438-5604","addr":"경기도 안산시 상록구 부곡동 644번지","category":"학원 - 유아원"}]},{"lat":"37.332979043","long":"126.86176784","items":[{"name":"서진카인테리어","tel":"031-416-8225","addr":"경기도 안산시 상록구 부곡동 667번지","category":"자동차정비 유지 - 자동차정비"}]},{"lat":"37.3287526021","long":"126.8612115877","items":[{"name":"선경문구","tel":"031-437-0553","addr":"경기도 안산시 상록구 부곡동 622-14번지","category":"도매 및 소매업 - 문구,완구,팬시,"},{"name":"써니도그","tel":"070-8650-5500","addr":"경기도 안산시 상록구 부곡동 622-14번지","category":"협회 및 단체, 수리 및 기타 개인서"}]},{"lat":"37.326995754","long":"126.86132771","items":[{"name":"선디자인","tel":"031-416-5673","addr":"경기도 안산시 상록구 부곡동 617-4번지 다솜빌 A동 302호","category":"회원제형태 - 사무서비스"},{"name":"세진냉난방전문점","tel":"031-000-0000","addr":"경기도 안산시 상록구 부곡동 617-4번지 다솜빌 A동 401호","category":"용역 서비스 - 기타용역서비스"}]},{"lat":"37.331865706","long":"126.86509856","items":[{"name":"선영테크","tel":"031-502-0496","addr":"경기도 안산시 상록구 부곡동 541-2번지 지층","category":"건축자재 - 기타건축자재"}]},{"lat":"37.332782333","long":"126.86304326","items":[{"name":"선우모터스","tel":"070-8724-9533","addr":"경기도 안산시 상록구 부곡동 665-6번지 현진에버빌 302호","category":"자동차정비 유지 - 자동차부품"}]},{"lat":"37.3340010227","long":"126.8650156771","items":[{"name":"성대유통","tel":"070-4634-0791","addr":"경기도 안산시 상록구 부곡동 642-1번지","category":"도매 및 소매업 - 농공산식품"}]},{"lat":"37.3345055646","long":"126.8574658016","items":[{"name":"성신음악전문학원","tel":"031-414-7358","addr":"경기도 안산시 상록구 부곡동 733-12번지","category":"교육서비스업 - 예체능계 학원"},{"name":"윤헤어비스","tel":"031-484-4396","addr":"경기도 안산시 상록구 부곡동 733-12번지","category":"협회 및 단체, 수리 및 기타 개인서"}]},{"lat":"37.334505565","long":"126.8574658","items":[{"name":"성신피아노학원","tel":"031-414-7358","addr":"경기도 안산시 상록구 부곡동 733-12번지","category":"학원 - 예·체능계학원"},{"name":"윤헤어뷰티","tel":"031-484-4396","addr":"경기도 안산시 상록구 부곡동 733-12번지 102호","category":"보건위생 - 미용재료"},{"name":"윤헤어비스","tel":"031-484-4396","addr":"경기도 안산시 상록구 부곡동 733-12번지 101호","category":"보건위생 - 미용원"}]},{"lat":"37.338641272","long":"126.87298538","items":[{"name":"성원엔지니어링","tel":"031-480-9120","addr":"경기도 안산시 상록구 부곡동 261-4번지","category":"기타 - 기타 전문점"}]},{"lat":"37.339423961","long":"126.8719007","items":[{"name":"성해양조","tel":"031-403-7706","addr":"경기도 안산시 상록구 부곡동 260-4번지","category":"음료식품 - 주류 판매점"}]},{"lat":"37.331864122","long":"126.86374454","items":[{"name":"성현건설","tel":"031-406-2503","addr":"경기도 안산시 상록구 부곡동 539-7번지 삼성파크빌 401호","category":"건축자재 - 기타건축자재"}]},{"lat":"37.326310102","long":"126.86059562","items":[{"name":"세나카독크","tel":"043-263-1193","addr":"경기도 안산시 상록구 부곡동 614-10번지 경진아트빌 502호","category":"자동차정비 유지 - 자동차정비"}]},{"lat":"37.33622586","long":"126.86443612","items":[{"name":"세븐일레븐안산성호로점","tel":"031-1577-0711","addr":"경기도 안산시 상록구 부곡동 654-7번지 1층 101호","category":"유통업 영리 - 편 의 점"}]},{"lat":"37.332064481","long":"126.86557211","items":[{"name":"세븐일레븐안산정재로점","tel":"031-1577-0711","addr":"경기도 안산시 상록구 부곡동 542-4번지 1층","category":"유통업 영리 - 편 의 점"}]},{"lat":"37.327759404","long":"126.85948716","items":[{"name":"세원방수","tel":"070-8173-6542","addr":"경기도 안산시 상록구 부곡동 683-7번지","category":"수리서비스 - 기타수리서비스"}]},{"lat":"37.341723578","long":"126.86573509","items":[{"name":"세원정밀제작소","tel":"031-484-8095","addr":"경기도 안산시 상록구 부곡동 75-38번지","category":"기타 - 기계공구"}]},{"lat":"37.3308353094","long":"126.8623472991","items":[{"name":"세일공사","tel":"031-417-3104","addr":"경기도 안산시 상록구 부곡동 627-11번지","category":"제조업 - 창호제작"}]},{"lat":"37.331812967","long":"126.8662383","items":[{"name":"세자매(SEJAME)","tel":"031-401-5566","addr":"경기도 안산시 상록구 부곡동 543-3번지 북경아트빌 506호","category":"의류 - 정장"}]},{"lat":"37.330175911","long":"126.86096068","items":[{"name":"세찬씨푸드","tel":"070-4122-7038","addr":"경기도 안산시 상록구 부곡동 677-4번지 301호","category":"음료식품 - 농·축·수산품"}]},{"lat":"37.325787918","long":"126.86093509","items":[{"name":"소상공번영회","tel":"","addr":"경기도 안산시 상록구 부곡동 611-3번지 명인파크빌 201호","category":"용역 서비스 - 종합용역"}]},{"lat":"37.3313359355","long":"126.8666792163","items":[{"name":"소소디자인","tel":"","addr":"경기도 안산시 상록구 부곡동 545-7번지","category":"도매 및 소매업 - 광고대행,슈퍼마켓"}]},{"lat":"37.331335936","long":"126.86667922","items":[{"name":"소소디자인","tel":"02-1234-1234","addr":"경기도 안산시 상록구 부곡동 545-7번지 1층","category":"용역 서비스 - 종합용역"}]},{"lat":"37.334784657","long":"126.86479985","items":[{"name":"소소한카페","tel":"02-1111-1111","addr":"경기도 안산시 상록구 부곡동 644-11번지 1층","category":"일반휴게음식 - 서양음식"},{"name":"신데렐라 헤어팜","tel":"070-8114-6366","addr":"경기도 안산시 상록구 부곡동 644-11번지 103호","category":"보건위생 - 미용원"},{"name":"제일양봉","tel":"031-417-5782","addr":"경기도 안산시 상록구 부곡동 644-11번지","category":"건강식품 - 기타건강식품"},{"name":"제일카센타","tel":"031-417-5782","addr":"경기도 안산시 상록구 부곡동 644-11번지","category":"자동차정비 유지 - 자동차정비"},{"name":"좋은사람","tel":"","addr":"경기도 안산시 상록구 부곡동 644-11번지 2호","category":"자동차정비 유지 - 자동차부품"}]},{"lat":"37.3347846566","long":"126.8647998494","items":[{"name":"소소한카페","tel":"","addr":"경기도 안산시 상록구 부곡동 644-11번지","category":"숙박 및 음식점업 - 휴게음식"},{"name":"좋은사람","tel":"","addr":"경기도 안산시 상록구 부곡동 644-11번지","category":"도매 및 소매업 - 자동차부품판매"}]},{"lat":"37.335724004","long":"126.85915607","items":[{"name":"소원수산","tel":"031-111-1111","addr":"경기도 안산시 상록구 부곡동 724-11번지","category":"음료식품 - 농·축·수산품"},{"name":"소은수산","tel":"","addr":"경기도 안산시 상록구 부곡동 724-11번지 104호","category":"음료식품 - 농·축·수산품"},{"name":"웃자콩","tel":"","addr":"경기도 안산시 상록구 부곡동 724-11번지 휴캐슬 202호","category":"건강식품 - 기타건강식품"},{"name":"정다운수산","tel":"","addr":"경기도 안산시 상록구 부곡동 724-11번지 301호","category":"음료식품 - 농·축·수산품"}]},{"lat":"37.3363695596","long":"126.8640409058","items":[{"name":"소중하개 사랑하개","tel":"031-506-9943","addr":"경기도 안산시 상록구 부곡동 654-10번지","category":"도매 및 소매업 - 애견용품,애견미용"},{"name":"시장가마솥통닭","tel":"031-507-0240","addr":"경기도 안산시 상록구 부곡동 654-10번지","category":"숙박 및 음식점업 - 일반음식"}]},{"lat":"37.3280578165","long":"126.8603779522","items":[{"name":"소풍","tel":"031-407-7518","addr":"경기도 안산시 상록구 부곡동 682-7번지","category":"숙박 및 음식점업 - 일반음식점"},{"name":"승승장구","tel":"031-438-0991","addr":"경기도 안산시 상록구 부곡동 682-7번지","category":"숙박 및 음식점업 - 한식"}]},{"lat":"37.330841998","long":"126.86040654","items":[{"name":"송담추어탕","tel":"031-406-7988","addr":"경기도 안산시 상록구 부곡동 678-1번지 1층","category":"일반휴게음식 - 일반한식"}]},{"lat":"37.3308419985","long":"126.8604065439","items":[{"name":"송담추어탕","tel":"031-406-7988","addr":"경기도 안산시 상록구 부곡동 678-1번지","category":"숙박 및 음식점업 - 한식"}]},{"lat":"37.334697885","long":"126.86001561","items":[{"name":"수리홈케어","tel":"","addr":"경기도 안산시 상록구 부곡동 726-15번지 지층 103호","category":"용역 서비스 - 기타용역서비스"}]},{"lat":"37.345418911","long":"126.86674407","items":[{"name":"수성산업(캐터소형장비)","tel":"031-403-9749","addr":"경기도 안산시 상록구 부곡동 45번지","category":"수리서비스 - 기타수리서비스"}]},{"lat":"37.322171256","long":"126.85798598","items":[{"name":"수영공조시스템","tel":"031-416-2233","addr":"경기도 안산시 상록구 부곡동 696-1번지 로얄주택 상가 104호","category":"용역 서비스 - 기타용역서비스"}]},{"lat":"37.326561147","long":"126.85956842","items":[{"name":"수원화로","tel":"031-256-0391","addr":"경기도 안산시 상록구 부곡동 685-7번지 1-2층","category":"일반휴게음식 - 일반한식"},{"name":"수원화로","tel":"031-493-1313","addr":"경기도 안산시 상록구 부곡동 685-7번지 ,1,2층","category":"일반휴게음식 - 일반한식"}]},{"lat":"37.3343702319","long":"126.8573193716","items":[{"name":"순헤어, 화장품 잡화","tel":"031-481-8926","addr":"경기도 안산시 상록구 부곡동 733-11번지","category":"도매 및 소매업 - 화장품"},{"name":"주식회사 포유컴퍼니","tel":"031-413-4130","addr":"경기도 안산시 상록구 부곡동 733-11번지","category":"도매 및 소매업 - 음식물처리기 등"},{"name":"착하면돼지","tel":"031-410-4343","addr":"경기도 안산시 상록구 부곡동 733-11번지","category":"도매 및 소매업 - 육류"}]},{"lat":"37.331974641","long":"126.86579795","items":[{"name":"스토리PC방","tel":"","addr":"경기도 안산시 상록구 부곡동 543번지 1층","category":"레저업소 - 기타레져업소"}]},{"lat":"37.325370157","long":"126.85821677","items":[{"name":"스팀앤트","tel":"","addr":"경기도 안산시 상록구 부곡동 687번지 1층 계단 코너쪽","category":"수리서비스 - 레져용품수리"}]},{"lat":"37.3350923722","long":"126.8584012444","items":[{"name":"슬로미헤어샵","tel":"031-482-2575","addr":"경기도 안산시 상록구 부곡동 727-14번지","category":"협회 및 단체, 수리 및 기타 개인서"},{"name":"아지네포차","tel":"","addr":"경기도 안산시 상록구 부곡동 727-14번지","category":"숙박 및 음식점업 - 일반음식"},{"name":"조은옷방","tel":"031-487-5205","addr":"경기도 안산시 상록구 부곡동 727-14번지","category":"도매 및 소매업 - 의류"}]},{"lat":"37.334417092","long":"126.85879748","items":[{"name":"슬로미헤어샵","tel":"031-482-2575","addr":"경기도 안산시 상록구 부곡동 728-8번지 103호","category":"보건위생 - 미용원"},{"name":"친구네","tel":"031-410-2443","addr":"경기도 안산시 상록구 부곡동 728-8번지 1층","category":"일반휴게음식 - 일반한식"},{"name":"행복한음식점","tel":"031-411-1940","addr":"경기도 안산시 상록구 부곡동 728-8번지 1층 일부","category":"일반휴게음식 - 일반한식"}]},{"lat":"37.337036291","long":"126.85654689","items":[{"name":"시낭골영양탕","tel":"031-487-2399","addr":"경기도 안산시 상록구 부곡동 713-2번지 1층","category":"일반휴게음식 - 일반한식"}]},{"lat":"37.334144714","long":"126.85710541","items":[{"name":"시낭카마스타","tel":"031-485-8383","addr":"경기도 안산시 상록구 부곡동 734번지 시낭원룸","category":"자동차정비 유지 - 자동차정비"},{"name":"아이(i)-시원해에어컨","tel":"","addr":"경기도 안산시 상록구 부곡동 734번지 시낭원룸 204호","category":"용역 서비스 - 기타용역서비스"}]},{"lat":"37.336119847","long":"126.85865881","items":[{"name":"시낭할인마트","tel":"031-495-4302","addr":"경기도 안산시 상록구 부곡동 724번지","category":"유통업 영리 - 슈퍼마켓"}]},{"lat":"37.3361198466","long":"126.8586588125","items":[{"name":"시낭할인마트","tel":"031-495-4302","addr":"경기도 안산시 상록구 부곡동 724번지","category":"도매 및 소매업 - 슈퍼"}]},{"lat":"37.33611636","long":"126.85582649","items":[{"name":"시랑초등학교","tel":"","addr":"경기도 안산시 상록구 부곡동 719-3번지 시랑초등학교","category":"학원 - 초중고교육기관"},{"name":"시랑초등학교병설유치원[아이행복]","tel":"031-439-2964","addr":"경기도 안산시 상록구 부곡동 719-3번지 시랑초등학교","category":"학원 - 유치원"}]},{"lat":"37.333948831","long":"126.86662936","items":[{"name":"시립부곡어린이집[아이행복]","tel":"031-416-0012","addr":"경기도 안산시 상록구 부곡동 638-5번지 시립부곡어린이집","category":"학원 - 유아원"}]},{"lat":"37.343310913","long":"126.86707515","items":[{"name":"시온팜","tel":"031-1111-1111","addr":"경기도 안산시 상록구 부곡동 64-10번지","category":"음료식품 - 기타음료식품"}]},{"lat":"37.331755268","long":"126.86312415","items":[{"name":"시원나라","tel":"070-8940-6286","addr":"경기도 안산시 상록구 부곡동 628-2번지 B02호","category":"용역 서비스 - 기타용역서비스"}]},{"lat":"37.333477259","long":"126.86401238","items":[{"name":"시후모바일","tel":"031-416-6330","addr":"경기도 안산시 상록구 부곡동 643-8번지 1층 102,103호","category":"사무통신 - 통신기기"},{"name":"주식회사케이원텔레콤","tel":"031-416-6330","addr":"경기도 안산시 상록구 부곡동 643-8번지","category":"사무통신 - 통신기기"}]},{"lat":"37.3334772589","long":"126.8640123776","items":[{"name":"시후모바일","tel":"031-416-6330","addr":"경기도 안산시 상록구 부곡동 643-8번지","category":"도매 및 소매업 - 휴대폰수리"}]},{"lat":"37.3335925263","long":"126.8624324334","items":[{"name":"신경화굴바다보쌈삼합","tel":"031-419-8882","addr":"경기도 안산시 상록구 부곡동 663-7번지","category":"숙박 및 음식점업 - 한식"}]},{"lat":"37.332613695","long":"126.85768384","items":[{"name":"신광콘크리트","tel":"031-484-8882","addr":"경기도 안산시 상록구 부곡동 737-8번지","category":"건축자재 - 기타건축자재"}]},{"lat":"37.324505924","long":"126.85882768","items":[{"name":"신발의제왕","tel":"","addr":"경기도 안산시 상록구 부곡동 691-4번지 101호","category":"신변잡화 - 신발"}]},{"lat":"37.325342643","long":"126.85782194","items":[{"name":"신성슁글기와","tel":"031-409-2277","addr":"경기도 안산시 상록구 부곡동 688-7번지 1층","category":"건축자재 - 기타건축자재"},{"name":"한일종합주방","tel":"031-416-2575","addr":"경기도 안산시 상록구 부곡동 688-7번지 1층 102호","category":"주방용구 - 주방용구"}]},{"lat":"37.333029994","long":"126.85918377","items":[{"name":"신성테크","tel":"031-484-8771","addr":"경기도 안산시 상록구 부곡동 735-7번지 1층 103호~104호","category":"건축자재 - 기타건축자재"}]},{"lat":"37.3413351178","long":"126.8648555670","items":[{"name":"신진휴게식당","tel":"031-484-7154","addr":"경기도 안산시 상록구 부곡동 75-43번지","category":"숙박 및 음식점업 - 한식,식잡,담배"}]},{"lat":"37.341335118","long":"126.86485557","items":[{"name":"신진휴게식당","tel":"031-484-7154","addr":"경기도 안산시 상록구 부곡동 75-43번지","category":"일반휴게음식 - 일반한식"}]},{"lat":"37.327174752","long":"126.86032321","items":[{"name":"신통치킨","tel":"031-419-8772","addr":"경기도 안산시 상록구 부곡동 619-7번지 1층","category":"일반휴게음식 - 일반한식"},{"name":"씨컴","tel":"031-388-6824","addr":"경기도 안산시 상록구 부곡동 619-7번지","category":"용역 서비스 - 기타용역서비스"}]},{"lat":"37.341535966","long":"126.86712348","items":[{"name":"신한종합상사","tel":"031-484-0292","addr":"경기도 안산시 상록구 부곡동 75-40번지","category":"직물 - 카페트,커튼,천막,지물"}]},{"lat":"37.334147884","long":"126.86735117","items":[{"name":"신현대물류","tel":"031-402-5815","addr":"경기도 안산시 상록구 부곡동 632-2번지 레이크빌 501호","category":"신변잡화 - 기타잡화"}]},{"lat":"37.3249214601","long":"126.8597069248","items":[{"name":"신화태권도","tel":"031-416-5123","addr":"경기도 안산시 상록구 부곡동 606번지","category":"협회 및 단체, 수리 및 기타 개인서"},{"name":"정성약국","tel":"031-416-6272","addr":"경기도 안산시 상록구 부곡동 606번지","category":"도매 및 소매업 - 양약 의약품 의료"},{"name":"차은아피부관리실","tel":"031-503-8487","addr":"경기도 안산시 상록구 부곡동 606번지","category":"협회 및 단체, 수리 및 기타 개인서"}]},{"lat":"37.333252692","long":"126.86459955","items":[{"name":"심봉사도로케","tel":"070-0000-0000","addr":"경기도 안산시 상록구 부곡동 642-7번지 102호","category":"일반휴게음식 - 서양음식"},{"name":"왔다노래연습장","tel":"031-505-7007","addr":"경기도 안산시 상록구 부곡동 642-7번지 지하1층","category":"레저업소 - 노 래 방"},{"name":"장터정육점","tel":"031-111-1111","addr":"경기도 안산시 상록구 부곡동 642-7번지 1층","category":"음료식품 - 정육점"},{"name":"짱구오빠네","tel":"031-502-0958","addr":"경기도 안산시 상록구 부곡동 642-7번지 1층 103호","category":"일반휴게음식 - 일반한식"}]},{"lat":"37.3332526921","long":"126.8645995459","items":[{"name":"심봉사도로케","tel":"031-407-0888","addr":"경기도 안산시 상록구 부곡동 642-7번지","category":"숙박 및 음식점업 - 기타 음식점업"}]},{"lat":"37.336838681","long":"126.85704379","items":[{"name":"싼카","tel":"","addr":"경기도 안산시 상록구 부곡동 713-8번지 부곡그린빌 402호","category":"자동차정비 유지 - 자동차부품"}]},{"lat":"37.3325598","long":"126.85781935","items":[{"name":"씨유안산부곡고점","tel":"031-402-6802","addr":"경기도 안산시 상록구 부곡동 737-7번지 조은빌라 102호","category":"유통업 영리 - 편 의 점"}]},{"lat":"37.335560804","long":"126.85832136","items":[{"name":"씨유안산부곡본점","tel":"031-410-5681","addr":"경기도 안산시 상록구 부곡동 727번지 101호","category":"유통업 영리 - 편 의 점"}]},{"lat":"37.332282651","long":"126.86724169","items":[{"name":"씨유안산부곡사랑점","tel":"080-080-3663","addr":"경기도 안산시 상록구 부곡동 546-4번지 101호","category":"유통업 영리 - 편 의 점"}]},{"lat":"37.328978018","long":"126.86134656","items":[{"name":"씨유안산부곡타운점","tel":"031-437-9531","addr":"경기도 안산시 상록구 부곡동 622번지 1층","category":"유통업 영리 - 편 의 점"}]},{"lat":"37.334531752","long":"126.86426997","items":[{"name":"씨유안산아리랑점","tel":"080-080-3663","addr":"경기도 안산시 상록구 부곡동 657-10번지 1층 1호","category":"유통업 영리 - 편 의 점"},{"name":"은혜헤어라인","tel":"031-487-9559","addr":"경기도 안산시 상록구 부곡동 657-10번지","category":"보건위생 - 미용원"}]},{"lat":"37.33206116","long":"126.86273994","items":[{"name":"씨이오정보통신(주)","tel":"051-517-1500","addr":"경기도 안산시 상록구 부곡동 666-7번지 3층","category":"사무통신 - 통신기기"}]},{"lat":"37.333669034","long":"126.86621237","items":[{"name":"아기별사랑어린이집[아이행복]","tel":"031-417-3533","addr":"경기도 안산시 상록구 부곡동 638-14번지 해성빌라 102호","category":"학원 - 유아원"}]},{"lat":"37.3370011","long":"126.8572353","items":[{"name":"아이지에이마트 안산부곡점","tel":"031-768-0708","addr":"경기도 안산시 상록구 부곡동 713-6번지","category":"유통업 영리 - 편 의 점"}]},{"lat":"37.335092372","long":"126.85840124","items":[{"name":"아지네포차","tel":"","addr":"경기도 안산시 상록구 부곡동 727-14번지 1층","category":"일반휴게음식 - 일반한식"},{"name":"조은옷방","tel":"031-487-5205","addr":"경기도 안산시 상록구 부곡동 727-14번지 102호","category":"의류 - 정장"},{"name":"페리아치킨","tel":"031-483-3322","addr":"경기도 안산시 상록구 부곡동 727-14번지 1층","category":"일반휴게음식 - 주점"}]},{"lat":"37.335040243","long":"126.85999239","items":[{"name":"아쿠아월드","tel":"031-403-4415","addr":"경기도 안산시 상록구 부곡동 725-13번지 재민하이츠빌라 B동 401호","category":"회원제형태 - 기타4"}]},{"lat":"37.333001276","long":"126.86534473","items":[{"name":"아트글라스","tel":"031-401-8116","addr":"경기도 안산시 상록구 부곡동 534-1번지","category":"건축자재 - 유리"}]},{"lat":"37.335226956","long":"126.86548737","items":[{"name":"안산LG공조","tel":"031-402-1052","addr":"경기도 안산시 상록구 부곡동 647-14번지 305호","category":"수리서비스 - 기타수리서비스"}]},{"lat":"37.33620322","long":"126.86054311","items":[{"name":"안산공업고등학교","tel":"031-486-4295","addr":"경기도 안산시 상록구 부곡동 722번지 안산공업고등학교","category":"학원 - 초중고교육기관"}]},{"lat":"37.322946407","long":"126.85821014","items":[{"name":"안산롯데유통","tel":"031-417-1263","addr":"경기도 안산시 상록구 부곡동 694번지","category":"음료식품 - 기타음료식품"}]},{"lat":"37.339116754","long":"126.86326849","items":[{"name":"안산별빛마을","tel":"031-484-5050","addr":"경기도 안산시 상록구 부곡동 214-9번지 215-2,216-3,216-8","category":"문화.취미 - 티켓"}]},{"lat":"37.323586611","long":"126.85860379","items":[{"name":"안산부곡중학교","tel":"031-487-2238","addr":"경기도 안산시 상록구 부곡동 693번지","category":"학원 - 초중고교육기관"}]},{"lat":"37.328949456","long":"126.86007162","items":[{"name":"안산부곡초등학교","tel":"031-487-7293","addr":"경기도 안산시 상록구 부곡동 680번지 안산부곡초등학교","category":"학원 - 초중고교육기관"}]},{"lat":"37.341444041","long":"126.86554375","items":[{"name":"안산샤링","tel":"031-487-1416","addr":"경기도 안산시 상록구 부곡동 75-23번지","category":"건축자재 - 기타건축자재"}]},{"lat":"37.3367231827","long":"126.8583755523","items":[{"name":"안산제일복지재단 빛과둥지","tel":"031-405-0957","addr":"경기도 안산시 상록구 부곡동 714-11번지","category":"제조업 - 세척제"}]},{"lat":"37.336723183","long":"126.85837555","items":[{"name":"안산제일복지재단빛과둥지","tel":"031-405-0957","addr":"경기도 안산시 상록구 부곡동 714-11번지","category":"보건위생 - 화장품"}]},{"lat":"37.330589877","long":"126.86054242","items":[{"name":"안산콜밴","tel":"031-416-6056","addr":"경기도 안산시 상록구 부곡동 673-19번지","category":"여행 - 기타교통수단"}]},{"lat":"37.3311418961","long":"126.8625498299","items":[{"name":"압구정본가불닭발","tel":"031-407-0098","addr":"경기도 안산시 상록구 부곡동 627번지","category":"숙박 및 음식점업 - 한식"}]},{"lat":"37.332203468","long":"126.86118254","items":[{"name":"앗싸노래연습장","tel":"","addr":"경기도 안산시 상록구 부곡동 671번지 지층 101호","category":"레저업소 - 노 래 방"},{"name":"월드컵체육사","tel":"031-501-0894","addr":"경기도 안산시 상록구 부곡동 671번지","category":"레져용품 - 스포츠·레져용품"},{"name":"자매끼리초콜릿","tel":"","addr":"경기도 안산시 상록구 부곡동 671번지 1층 102호","category":"음료식품 - 기타음료식품"}]},{"lat":"37.3360641912","long":"126.8648764964","items":[{"name":"애니카랜드 부곡점","tel":"031-413-4086","addr":"경기도 안산시 상록구 부곡동 649-11번지","category":"협회 및 단체, 수리 및 기타 개인서"}]},{"lat":"37.3243087683","long":"126.8597080873","items":[{"name":"애목원","tel":"031-501-4049","addr":"경기도 안산시 상록구 부곡동 606-9번지","category":"도매 및 소매업 - 생화"},{"name":"헤어일번가","tel":"031-416-1151","addr":"경기도 안산시 상록구 부곡동 606-9번지","category":"협회 및 단체, 수리 및 기타 개인서"}]},{"lat":"37.3307521684","long":"126.8606323810","items":[{"name":"양근해장국","tel":"031-407-1188","addr":"경기도 안산시 상록구 부곡동 673번지","category":"숙박 및 음식점업 - 한식"}]},{"lat":"37.330752168","long":"126.86063238","items":[{"name":"양근해장국","tel":"","addr":"경기도 안산시 상록구 부곡동 673번지 1층","category":"일반휴게음식 - 일반한식"}]},{"lat":"37.3219818485","long":"126.8578283971","items":[{"name":"양양입암리막국수","tel":"031-502-6590","addr":"경기도 안산시 상록구 부곡동 696-11번지","category":"숙박 및 음식점업 - 한식"}]},{"lat":"37.3393691977","long":"126.8634034430","items":[{"name":"양평해장국","tel":"031-411-6162","addr":"경기도 안산시 상록구 부곡동 214-18번지","category":"숙박 및 음식점업 - 한식"}]},{"lat":"37.3306444123","long":"126.8609372348","items":[{"name":"양평해장국","tel":"031-407-6162","addr":"경기도 안산시 상록구 부곡동 673-2번지","category":"숙박 및 음식점업 - 한식"}]},{"lat":"37.330644412","long":"126.86093723","items":[{"name":"양평해장국(부곡점)","tel":"031-407-6162","addr":"경기도 안산시 상록구 부곡동 673-2번지 1층","category":"일반휴게음식 - 일반한식"}]},{"lat":"37.338535213","long":"126.85918457","items":[{"name":"어리골화원","tel":"031-487-2340","addr":"경기도 안산시 상록구 부곡동 174-2번지","category":"문화.취미 - 화원"}]},{"lat":"37.3343969561","long":"126.8645748806","items":[{"name":"언니포차","tel":"031-416-7493","addr":"경기도 안산시 상록구 부곡동 644-8번지","category":"숙박 및 음식점업 - 일반음식점업"}]},{"lat":"37.336642298","long":"126.85854497","items":[{"name":"엄마사랑어린이집","tel":"031-486-1803","addr":"경기도 안산시 상록구 부곡동 714-10번지","category":"학원 - 유아원"},{"name":"엄마사랑어린이집[아이행복]","tel":"031-486-1803","addr":"경기도 안산시 상록구 부곡동 714-10번지","category":"학원 - 유아원"}]},{"lat":"37.327668535","long":"126.85885549","items":[{"name":"에너지세이버","tel":"070-8736-7119","addr":"경기도 안산시 상록구 부곡동 681-6번지 401호","category":"용역 서비스 - 기타용역서비스"}]},{"lat":"37.334120154","long":"126.86674189","items":[{"name":"에스앤피","tel":"031-504-2655","addr":"경기도 안산시 상록구 부곡동 638-4번지 202호","category":"용역 서비스 - 기타용역서비스"}]},{"lat":"37.333227406","long":"126.86610033","items":[{"name":"에스엔커뮤니케이션","tel":"031-415-8954","addr":"경기도 안산시 상록구 부곡동 640-5번지 성신아트빌 402호","category":"용역 서비스 - 사무서비스"}]},{"lat":"37.322723917","long":"126.86048956","items":[{"name":"에어컨 마스터","tel":"031-410-7712","addr":"경기도 안산시 상록구 부곡동 599번지","category":"용역 서비스 - 기타용역서비스"}]},{"lat":"37.327309973","long":"126.86037936","items":[{"name":"에이스컴","tel":"031-480-2382","addr":"경기도 안산시 상록구 부곡동 619-8번지 102호","category":"사무통신 - 컴퓨터"},{"name":"헤어머리꾼","tel":"031-418-6179","addr":"경기도 안산시 상록구 부곡동 619-8번지 1층","category":"보건위생 - 미용원"}]},{"lat":"37.332559974","long":"126.86551479","items":[{"name":"에이스포토기획","tel":"031-410-2660","addr":"경기도 안산시 상록구 부곡동 537-6번지 1층","category":"광학제품 - 사진관"}]},{"lat":"37.3339731485","long":"126.8642935612","items":[{"name":"엘사론염색방","tel":"","addr":"경기도 안산시 상록구 부곡동 643-12번지","category":"협회 및 단체, 수리 및 기타 개인서"}]},{"lat":"37.333973149","long":"126.86429356","items":[{"name":"엘샤론","tel":"031-234-6126","addr":"경기도 안산시 상록구 부곡동 643-12번지 103호","category":"보건위생 - 이용원"}]},{"lat":"37.326146953","long":"126.85979486","items":[{"name":"엠(M)이동통신","tel":"070-8637-7566","addr":"경기도 안산시 상록구 부곡동 613-8번지","category":"사무통신 - 통신기기"},{"name":"커트보이","tel":"031-406-8400","addr":"경기도 안산시 상록구 부곡동 613-8번지 1층 일부","category":"보건위생 - 미용원"}]},{"lat":"37.330060663","long":"126.86254056","items":[{"name":"엠디모터스","tel":"031-635-5722","addr":"경기도 안산시 상록구 부곡동 625번지 1층 102호","category":"수리서비스 - 레져용품수리"},{"name":"현일병까스돈","tel":"031-1111-1111","addr":"경기도 안산시 상록구 부곡동 625번지 102호","category":"일반휴게음식 - 일반한식"}]},{"lat":"37.331058812","long":"126.86088004","items":[{"name":"엠케이(MK)냉열기","tel":"","addr":"경기도 안산시 상록구 부곡동 672-34번지 창원그린빌 11동 201호","category":"수리서비스 - 기타수리서비스"}]},{"lat":"37.327895566","long":"126.86032184","items":[{"name":"여기서헤어","tel":"031-501-1314","addr":"경기도 안산시 상록구 부곡동 682-8번지 1층 102호","category":"보건위생 - 미용원"}]},{"lat":"37.3278955656","long":"126.8603218439","items":[{"name":"여기서헤어","tel":"031-501-1314","addr":"경기도 안산시 상록구 부곡동 682-8번지","category":"협회 및 단체, 수리 및 기타 개인서"},{"name":"한빛재활용센터","tel":"031-407-8949","addr":"경기도 안산시 상록구 부곡동 682-8번지","category":"도매 및 소매업 - 중고가전재활용,중"}]},{"lat":"37.3318641217","long":"126.8637445419","items":[{"name":"여성의도시","tel":"031-408-9965","addr":"경기도 안산시 상록구 부곡동 539-7번지 삼성파크빌","category":"협회 및 단체, 수리 및 기타 개인서"}]},{"lat":"37.331963273","long":"126.86377821","items":[{"name":"여성의도시2","tel":"031-408-9965","addr":"경기도 안산시 상록구 부곡동 539-7번지 삼성파크빌 B동 102호","category":"보건위생 - 미용원"}]},{"lat":"37.332918761","long":"126.86412624","items":[{"name":"역전꽈배기","tel":"031-415-8230","addr":"경기도 안산시 상록구 부곡동 533-8번지","category":"일반휴게음식 - 스넥"},{"name":"주부연출","tel":"031-416-7152","addr":"경기도 안산시 상록구 부곡동 533-8번지","category":"신변잡화 - 기타잡화"}]},{"lat":"37.3329187612","long":"126.8641262426","items":[{"name":"역전꽈베기","tel":"","addr":"경기도 안산시 상록구 부곡동 533-8번지","category":"숙박 및 음식점업 - 분식(꽈베기)"},{"name":"주부연출","tel":"031-416-7152","addr":"경기도 안산시 상록구 부곡동 533-8번지","category":"도매 및 소매업 - 커튼, 이불"}]},{"lat":"37.334000885","long":"126.8573765","items":[{"name":"연세우유중앙보급소","tel":"031-402-2670","addr":"경기도 안산시 상록구 부곡동 734-2번지","category":"음료식품 - 기타음료식품"},{"name":"진선미미용실","tel":"031-414-8754","addr":"경기도 안산시 상록구 부곡동 734-2번지","category":"보건위생 - 미용원"}]},{"lat":"37.33486935","long":"126.86024096","items":[{"name":"열두샘 피아노학원","tel":"031-487-1541","addr":"경기도 안산시 상록구 부곡동 725-11번지 1층","category":"학원 - 예·체능계학원"}]},{"lat":"37.330309855","long":"126.85995622","items":[{"name":"영광노래연습장","tel":"","addr":"경기도 안산시 상록구 부곡동 678-6번지","category":"레저업소 - 노 래 방"},{"name":"후크커피(HOOK COFFEE)","tel":"031-520-2501","addr":"경기도 안산시 상록구 부곡동 678-6번지 1층","category":"일반휴게음식 - 서양음식"}]},{"lat":"37.329924719","long":"126.8618751","items":[{"name":"영광의맛찜","tel":"031-416-1768","addr":"경기도 안산시 상록구 부곡동 624-8번지 102호","category":"일반휴게음식 - 일반한식"}]},{"lat":"37.3299247189","long":"126.8618750987","items":[{"name":"영광의맛찜","tel":"031-416-1768","addr":"경기도 안산시 상록구 부곡동 624-8번지","category":"숙박 및 음식점업 - 기타음식"}]},{"lat":"37.3337288266","long":"126.8634025882","items":[{"name":"영미미술학원","tel":"031-406-7829","addr":"경기도 안산시 상록구 부곡동 661-9번지","category":"교육서비스업 - 학원"},{"name":"제이엠음악학원","tel":"031-406-7578","addr":"경기도 안산시 상록구 부곡동 661-9번지","category":"교육서비스업 - 학원"}]},{"lat":"37.325173349","long":"126.85937925","items":[{"name":"영사모","tel":"031-419-4471","addr":"경기도 안산시 상록구 부곡동 686-11번지","category":"회원제형태 - 학원"}]},{"lat":"37.328148786","long":"126.86109989","items":[{"name":"영심노래연습장","tel":"031-502-5672","addr":"경기도 안산시 상록구 부곡동 622-8번지 지층","category":"레저업소 - 노 래 방"}]},{"lat":"37.324479962","long":"126.85970776","items":[{"name":"영일","tel":"031-408-9508","addr":"경기도 안산시 상록구 부곡동 606-12번지","category":"의류 - 내의판매"}]},{"lat":"37.3244799616","long":"126.8597077625","items":[{"name":"영일 BYC","tel":"031-408-9508","addr":"경기도 안산시 상록구 부곡동 606-12번지","category":"도매 및 소매업 - 메리야스 임대"}]},{"lat":"37.33466697","long":"126.86432614","items":[{"name":"예담","tel":"031-8044-0635","addr":"경기도 안산시 상록구 부곡동 657-9번지 1층 103호","category":"회원제형태 - 기타4"},{"name":"태양지물포","tel":"031-416-0808","addr":"경기도 안산시 상록구 부곡동 657-9번지","category":"직물 - 카페트,커튼,천막,지물"}]},{"lat":"37.326669842","long":"126.86004209","items":[{"name":"예당민물매운탕","tel":"031-406-0025","addr":"경기도 안산시 상록구 부곡동 613-11번지 101,102","category":"일반휴게음식 - 일반한식"},{"name":"쭈노치킨부곡월피점","tel":"031-502-4060","addr":"경기도 안산시 상록구 부곡동 613-11번지 1층","category":"일반휴게음식 - 주점"}]},{"lat":"37.3266698424","long":"126.8600420905","items":[{"name":"예당민물매운탕","tel":"031-406-0025","addr":"경기도 안산시 상록구 부곡동 613-11번지","category":"숙박 및 음식점업 - 일반음식"}]},{"lat":"37.333729715","long":"126.8641586","items":[{"name":"오렌지","tel":"031-410-5605","addr":"경기도 안산시 상록구 부곡동 643-10번지 102호","category":"의류 - 정장"},{"name":"포인트","tel":"031-416-9569","addr":"경기도 안산시 상록구 부곡동 643-10번지","category":"의류 - 정장"}]},{"lat":"37.3337297155","long":"126.8641586025","items":[{"name":"오렌지","tel":"031-410-5605","addr":"경기도 안산시 상록구 부곡동 643-10번지","category":"도매 및 소매업 - 의류"}]},{"lat":"37.3330356020","long":"126.8638777860","items":[{"name":"오복떡 방앗간","tel":"031-418-7118","addr":"경기도 안산시 상록구 부곡동 533-10번지","category":"제조업 - 방앗간,농산물"}]},{"lat":"37.333035602","long":"126.86387779","items":[{"name":"오복떡방앗간","tel":"031-418-7118","addr":"경기도 안산시 상록구 부곡동 533-10번지 1층","category":"음료식품 - 제과점"},{"name":"원노래연습장","tel":"031-418-2524","addr":"경기도 안산시 상록구 부곡동 533-10번지 2층","category":"레저업소 - 노 래 방"}]},{"lat":"37.334031062","long":"126.8676222","items":[{"name":"오에이누리 (OANURI)","tel":"","addr":"경기도 안산시 상록구 부곡동 631-21번지 퀸즈트윈빌 202호","category":"사무통신 - 사무용 OA기기"}]},{"lat":"37.341840356","long":"126.86543018","items":[{"name":"오자네왔는가","tel":"031-482-5289","addr":"경기도 안산시 상록구 부곡동 81-12번지","category":"음료식품 - 기타음료식품"}]},{"lat":"37.328479711","long":"126.85906832","items":[{"name":"오토클럽","tel":"031-416-4361","addr":"경기도 안산시 상록구 부곡동 681번지","category":"자동차정비 유지 - 카인테리어"}]},{"lat":"37.3284797109","long":"126.8590683234","items":[{"name":"오토클럽","tel":"031-416-4361","addr":"경기도 안산시 상록구 부곡동 681번지","category":"협회 및 단체, 수리 및 기타 개인서"}]},{"lat":"37.336504261","long":"126.86365699","items":[{"name":"오투하우스카페(O2HOUSECAFE)","tel":"031-406-3013","addr":"경기도 안산시 상록구 부곡동 654-13 (정재로 128) 1층","category":"일반휴게음식 - 서양음식"}]},{"lat":"37.335007723","long":"126.86293758","items":[{"name":"옥류정","tel":"031-407-6214","addr":"경기도 안산시 상록구 부곡동 656-13번지","category":"일반휴게음식 - 일반한식"}]},{"lat":"37.3350077230","long":"126.8629375791","items":[{"name":"옥류정","tel":"031-407-6214","addr":"경기도 안산시 상록구 부곡동 656-13번지","category":"숙박 및 음식점업 - 한식점업"}]},{"lat":"37.3253629722","long":"126.8597173697","items":[{"name":"옥스포드학생복","tel":"031-416-4234","addr":"경기도 안산시 상록구 부곡동 612-10번지","category":"도매 및 소매업 - 교복"}]},{"lat":"37.3331954216","long":"126.8618802694","items":[{"name":"옥천 순대국밥","tel":"031-481-0588","addr":"경기도 안산시 상록구 부곡동 664-9번지","category":"숙박 및 음식점업 - 한식"}]},{"lat":"37.324785706","long":"126.85921075","items":[{"name":"올뎃모드","tel":"031-408-0654","addr":"경기도 안산시 상록구 부곡동 692-9번지 한양센스빌 201호","category":"의류 - 정장"}]},{"lat":"37.33953242","long":"126.8722052","items":[{"name":"옹기갤러리","tel":"031-486-1113","addr":"경기도 안산시 상록구 부곡동 261-9번지 ,1-2층","category":"일반휴게음식 - 일반한식"}]},{"lat":"37.327696511","long":"126.85963396","items":[{"name":"완도특산","tel":"031-501-0716","addr":"경기도 안산시 상록구 부곡동 683-6번지 1층","category":"음료식품 - 농·축·수산품"},{"name":"하하호호","tel":"031-8044-4328","addr":"경기도 안산시 상록구 부곡동 683-6번지","category":"학원 - 예·체능계학원"}]},{"lat":"37.3345613919","long":"126.8589100389","items":[{"name":"왕발이할인마트","tel":"031-405-9137","addr":"경기도 안산시 상록구 부곡동 728-7번지","category":"도매 및 소매업 - 슈퍼마켓"}]},{"lat":"37.3338904899","long":"126.8629622194","items":[{"name":"용화건강원","tel":"","addr":"경기도 안산시 상록구 부곡동 660-9번지","category":"제조업 - 즉석판매제조가공업"}]},{"lat":"37.3315922704","long":"126.8624361572","items":[{"name":"우리동네","tel":"031-407-8814","addr":"경기도 안산시 상록구 부곡동 670-2번지","category":"숙박 및 음식점업 - 기타음식"}]},{"lat":"37.33159227","long":"126.86243616","items":[{"name":"우리동네","tel":"031-407-8814","addr":"경기도 안산시 상록구 부곡동 670-2번지 1층 101호","category":"일반휴게음식 - 일반한식"},{"name":"진보석","tel":"051-513-1141","addr":"경기도 안산시 상록구 부곡동 670-2번지","category":"신변잡화 - 시계"}]},{"lat":"37.331814781","long":"126.86781799","items":[{"name":"우리아이어린이집[아이행복]","tel":"031-416-0601","addr":"경기도 안산시 상록구 부곡동 548-3번지","category":"학원 - 유아원"}]},{"lat":"37.3349205442","long":"126.8578825096","items":[{"name":"우성마트","tel":"031-482-5490","addr":"경기도 안산시 상록구 부곡동 728번지","category":"도매 및 소매업 - 슈퍼마켓"}]},{"lat":"37.34133605","long":"126.8656568","items":[{"name":"우신F.S","tel":"031-501-5901","addr":"경기도 안산시 상록구 부곡동 75-63","category":"음료식품 - 기타음료식품"}]},{"lat":"37.326147157","long":"126.8599641","items":[{"name":"우신창호","tel":"031-409-9118","addr":"경기도 안산시 상록구 부곡동 613-7번지 101호","category":"건축자재 - 보일러·펌프·샷시"}]},{"lat":"37.332389462","long":"126.85851926","items":[{"name":"우주요업","tel":"031-403-8181","addr":"경기도 안산시 상록구 부곡동 737-2번지","category":"건축자재 - 건축용 요업제품"}]},{"lat":"37.341978306","long":"126.86018238","items":[{"name":"우진하우징","tel":"02-866-0022","addr":"경기도 안산시 상록구 부곡동 109-2번지","category":"건축자재 - 기타건축자재"}]},{"lat":"37.330473719","long":"126.86135504","items":[{"name":"원배추해장국","tel":"031-408-2881","addr":"경기도 안산시 상록구 부곡동 673-5번지","category":"일반휴게음식 - 일반한식"}]},{"lat":"37.3304737193","long":"126.8613550393","items":[{"name":"원배추해장국","tel":"031-408-2881","addr":"경기도 안산시 상록구 부곡동 673-5번지","category":"숙박 및 음식점업 - 한식"}]},{"lat":"37.3353616619","long":"126.8651034629","items":[{"name":"유정아 머리박사","tel":"031-501-7883","addr":"경기도 안산시 상록구 부곡동 647-17번지","category":"협회 및 단체, 수리 및 기타 개인서"}]},{"lat":"37.33336862","long":"126.86357251","items":[{"name":"유준헤어샵","tel":"031-501-4213","addr":"경기도 안산시 상록구 부곡동 662-4번지","category":"보건위생 - 미용원"},{"name":"쿵쿵따노래연습장","tel":"031-402-5719","addr":"경기도 안산시 상록구 부곡동 662-4번지 2층","category":"레저업소 - 노 래 방"},{"name":"파리바게뜨안산부곡점","tel":"031-406-8249","addr":"경기도 안산시 상록구 부곡동 662-4번지 1층","category":"음료식품 - 제과점"},{"name":"학사태권도전문체육관","tel":"031-417-6626","addr":"경기도 안산시 상록구 부곡동 662-4번지 3층","category":"학원 - 예·체능계학원"}]},{"lat":"37.3333686196","long":"126.8635725107","items":[{"name":"유준헤어첸지","tel":"031-501-4213","addr":"경기도 안산시 상록구 부곡동 662-4번지","category":"협회 및 단체, 수리 및 기타 개인서"}]},{"lat":"37.334837183","long":"126.86349081","items":[{"name":"유진유통","tel":"070-8600-2335","addr":"경기도 안산시 상록구 부곡동 659-4번지 퀸즈트윈빌 B동 502호","category":"의류 - 정장"}]},{"lat":"37.33617326","long":"126.85812835","items":[{"name":"은별어린이집[아이행복]","tel":"031-402-2408","addr":"경기도 안산시 상록구 부곡동 715-8번지 장수그린빌 101호","category":"학원 - 유아원"},{"name":"한울어린이집[아이행복]","tel":"031-403-2408","addr":"경기도 안산시 상록구 부곡동 715-8번지 102호","category":"학원 - 유아원"}]},{"lat":"37.3345317520","long":"126.8642699671","items":[{"name":"은혜미용실","tel":"","addr":"경기도 안산시 상록구 부곡동 657-10번지","category":"협회 및 단체, 수리 및 기타 개인서"}]},{"lat":"37.324588084","long":"126.85970756","items":[{"name":"이기가머리하는곳","tel":"031-417-4678","addr":"경기도 안산시 상록구 부곡동 606-10번지","category":"보건위생 - 미용원"}]},{"lat":"37.323533893","long":"126.85970956","items":[{"name":"이든샘어린이집[아이행복]","tel":"031-415-9330","addr":"경기도 안산시 상록구 부곡동 605-10번지","category":"학원 - 유아원"},{"name":"이든샘어린이집[아이행복]","tel":"031-415-9330","addr":"경기도 안산시 상록구 부곡동 605-10번지","category":"학원 - 유아원"}]},{"lat":"37.3396957314","long":"126.8577153440","items":[{"name":"이디피(EDP)월피점","tel":"","addr":"경기도 안산시 상록구 부곡동 169-2번지","category":"숙박 및 음식점업 - 음료"}]},{"lat":"37.335085526","long":"126.86018413","items":[{"name":"이레인테리어","tel":"070-8268-3918","addr":"경기도 안산시 상록구 부곡동 725-9번지","category":"건축자재 - 인테리어전문"}]},{"lat":"37.321585594","long":"126.85798711","items":[{"name":"이쁜여우","tel":"","addr":"경기도 안산시 상록구 부곡동 696-4번지 401호","category":"의류 - 정장"}]},{"lat":"37.332392884","long":"126.86135144","items":[{"name":"이삭365마트","tel":"031-406-7081","addr":"경기도 안산시 상록구 부곡동 667-10번지 1층 101호","category":"유통업 영리 - 슈퍼마켓"}]},{"lat":"37.332200143","long":"126.86601192","items":[{"name":"이은경헤어샵","tel":"031-418-8766","addr":"경기도 안산시 상록구 부곡동 536-10번지 106호","category":"보건위생 - 미용원"},{"name":"향기나세탁","tel":"031-406-0422","addr":"경기도 안산시 상록구 부곡동 536-10번지 1층","category":"수리서비스 - 세탁소"}]},{"lat":"37.3321693488","long":"126.8627961577","items":[{"name":"이즈컴","tel":"031-418-9140","addr":"경기도 안산시 상록구 부곡동 666-6번지","category":"도매 및 소매업 - 컴퓨터및주변기기,"}]},{"lat":"37.332169349","long":"126.86279616","items":[{"name":"이즈컴","tel":"031-418-9140","addr":"경기도 안산시 상록구 부곡동 666-6번지 1층","category":"사무통신 - 컴퓨터"}]},{"lat":"37.329365698","long":"126.86154893","items":[{"name":"이화수선","tel":"031-407-2412","addr":"경기도 안산시 상록구 부곡동 623-8번지","category":"수리서비스 - 세탁소"},{"name":"이화크린텍","tel":"031-407-2434","addr":"경기도 안산시 상록구 부곡동 623-8번지 1층","category":"수리서비스 - 세탁소"}]},{"lat":"37.334286443","long":"126.86254398","items":[{"name":"이희정 잭니클라우스","tel":"02-919-4040","addr":"경기도 안산시 상록구 부곡동 660-15번지","category":"레저업소 - 골프연습장"}]},{"lat":"37.341005862","long":"126.86843349","items":[{"name":"인스타스포츠(Instearsports Company)","tel":"070-7720-4521","addr":"경기도 안산시 상록구 부곡동 69-8번지","category":"레져용품 - 스포츠·레져용품"}]},{"lat":"37.333254231","long":"126.85834835","items":[{"name":"인천미라클","tel":"02-2631-2461","addr":"경기도 안산시 상록구 부곡동 735-15번지 301호","category":"신변잡화 - 기타잡화"}]},{"lat":"37.345503046","long":"126.86165412","items":[{"name":"인트라디자인","tel":"031-401-5755","addr":"경기도 안산시 상록구 부곡동 11번지","category":"사무통신 - 컴퓨터"},{"name":"주식회사태림중문","tel":"031-317-0049","addr":"경기도 안산시 상록구 부곡동 11번지 가동","category":"건축자재 - 기타건축자재"}]},{"lat":"37.334670033","long":"126.86696658","items":[{"name":"인트로덕션 미디어","tel":"031-408-9333","addr":"경기도 안산시 상록구 부곡동 637-8번지 J파크리움 1층","category":"용역 서비스 - 종합용역"}]},{"lat":"37.32203682","long":"126.85857291","items":[{"name":"일동포장기계","tel":"031-430-0297","addr":"경기도 안산시 상록구 부곡동 697-7번지","category":"기타 - 기타 전문점"}]},{"lat":"37.340142198","long":"126.86182214","items":[{"name":"일육육에프에스","tel":"031-411-6761","addr":"경기도 안산시 상록구 부곡동 115-12번지","category":"음료식품 - 기타음료식품"}]},{"lat":"37.321981849","long":"126.8578284","items":[{"name":"입암리막국수","tel":"031-502-6590","addr":"경기도 안산시 상록구 부곡동 696-11번지","category":"일반휴게음식 - 일반한식"},{"name":"후레쉬베이커리","tel":"031-416-4455","addr":"경기도 안산시 상록구 부곡동 696-11번지","category":"음료식품 - 제과점"}]},{"lat":"37.33386717","long":"126.85855028","items":[{"name":"자동차출장써비스","tel":"031-439-8076","addr":"경기도 안산시 상록구 부곡동 730-13번지 운암빌리지 402호","category":"자동차정비 유지 - 자동차정비"}]},{"lat":"37.3322034681","long":"126.8611825406","items":[{"name":"자매끼리초콜릿","tel":"","addr":"경기도 안산시 상록구 부곡동 671번지","category":"제조업 - 초콜릿"}]},{"lat":"37.33164708","long":"126.86306793","items":[{"name":"자연생생한의원","tel":"031-502-0075","addr":"경기도 안산시 상록구 부곡동 628-3번지 4층","category":"의원 - 한의원"}]},{"lat":"37.334002515","long":"126.858708","items":[{"name":"자연을 닮은 어린이집[아이행복]","tel":"031-482-5655","addr":"경기도 안산시 상록구 부곡동 731-11번지","category":"학원 - 유아원"}]},{"lat":"37.334674107","long":"126.86273509","items":[{"name":"장강중화요리","tel":"031-408-3009","addr":"경기도 안산시 상록구 부곡동 660-18번지 1층","category":"일반휴게음식 - 중국식"}]},{"lat":"37.3327536546","long":"126.8616554216","items":[{"name":"장수풍천민물장어","tel":"031-501-0034","addr":"경기도 안산시 상록구 부곡동 667-13번지","category":"숙박 및 음식점업 - 기타음식"}]},{"lat":"37.322532984","long":"126.85906837","items":[{"name":"장우녹차오리농장","tel":"031-416-5292","addr":"경기도 안산시 상록구 부곡동 695-14번지 1층","category":"일반휴게음식 - 일반한식"},{"name":"카프리","tel":"031-000-0000","addr":"경기도 안산시 상록구 부곡동 695-14번지","category":"용역 서비스 - 종합용역"}]},{"lat":"37.3225329841","long":"126.8590683738","items":[{"name":"장우녹차오리농장","tel":"031-416-5292","addr":"경기도 안산시 상록구 부곡동 695-14번지","category":"숙박 및 음식점업 - 한식"}]},{"lat":"37.3330344179","long":"126.8628735374","items":[{"name":"장터곰탕","tel":"","addr":"경기도 안산시 상록구 부곡동 665-1번지","category":"숙박 및 음식점업 - 한식"}]},{"lat":"37.33186323","long":"126.86298855","items":[{"name":"쟁반노래연습장","tel":"","addr":"경기도 안산시 상록구 부곡동 628번지 2층","category":"레저업소 - 노 래 방"},{"name":"제일당구클럽","tel":"02-1111-1111","addr":"경기도 안산시 상록구 부곡동 628번지 4층","category":"레저업소 - 당 구 장"},{"name":"착한숯불닭갈비","tel":"031-406-4067","addr":"경기도 안산시 상록구 부곡동 628번지 1층","category":"일반휴게음식 - 일반한식"},{"name":"펀비어킹(부곡점)","tel":"031-500-8760","addr":"경기도 안산시 상록구 부곡동 628번지 1층","category":"일반휴게음식 - 일반한식"}]},{"lat":"37.341422025","long":"126.86993365","items":[{"name":"전통농업연구소","tel":"","addr":"경기도 안산시 상록구 부곡동 66-17번지","category":"농업 - 기타농업관련"}]},{"lat":"37.3330895303","long":"126.8637648494","items":[{"name":"정민약국","tel":"031-417-8160","addr":"경기도 안산시 상록구 부곡동 533-11번지","category":"도매 및 소매업 - 양약"}]},{"lat":"37.338974809","long":"126.8731315","items":[{"name":"정수샤링","tel":"031-483-6766","addr":"경기도 안산시 상록구 부곡동 261-18번지","category":"건축자재 - 기타건축자재"}]},{"lat":"37.3345321744","long":"126.8646310524","items":[{"name":"정쌤헤어","tel":"","addr":"경기도 안산시 상록구 부곡동 644-9번지","category":"협회 및 단체, 수리 및 기타 개인서"}]},{"lat":"37.3358667073","long":"126.8579596799","items":[{"name":"정원","tel":"","addr":"경기도 안산시 상록구 부곡동 715-6번지","category":"도매 및 소매업 - 의류"}]},{"lat":"37.338091028","long":"126.86448912","items":[{"name":"정재초등학교","tel":"031-487-4152","addr":"경기도 안산시 상록구 부곡동 225-5번지 정재초등학교","category":"학원 - 초중고교육기관"}]},{"lat":"37.3246128194","long":"126.8578233401","items":[{"name":"제이앤비","tel":"031-417-0242","addr":"경기도 안산시 상록구 부곡동 689-8번지","category":"숙박 및 음식점업 - 기타음식"}]},{"lat":"37.333228492","long":"126.85940907","items":[{"name":"제이에스종합건설 주식회사","tel":"02-2684-0472","addr":"경기도 안산시 상록구 부곡동 730-5번지 지층","category":"용역 서비스 - 기타용역서비스"}]},{"lat":"37.33033889","long":"126.86162609","items":[{"name":"제이제이(JJ)스크린골프","tel":"","addr":"경기도 안산시 상록구 부곡동 673-7번지 301,401호","category":"레져용품 - 골프용품 전문점"},{"name":"제일생고기","tel":"031-052-1373","addr":"경기도 안산시 상록구 부곡동 673-7번지 1층","category":"일반휴게음식 - 일반한식"},{"name":"제일정육점","tel":"031-052-1373","addr":"경기도 안산시 상록구 부곡동 673-7번지","category":"음료식품 - 정육점"}]},{"lat":"37.336703359","long":"126.86440139","items":[{"name":"제일마트","tel":"031-409-8892","addr":"경기도 안산시 상록구 부곡동 652-9번지 1층 101호","category":"유통업 영리 - 슈퍼마켓"},{"name":"제일마트","tel":"031-318-4252","addr":"경기도 안산시 상록구 부곡동 652-9번지","category":"유통업 영리 - 슈퍼마켓"}]},{"lat":"37.3307271204","long":"126.8622910838","items":[{"name":"제일솥뚜껑감자탕","tel":"031-416-1616","addr":"경기도 안산시 상록구 부곡동 627-10번지","category":"숙박 및 음식점업 - 한식"}]},{"lat":"37.3324247301","long":"126.8654360518","items":[{"name":"제일애드","tel":"031-417-5756","addr":"경기도 안산시 상록구 부곡동 537-11번지","category":"제조업 - 광고간판"}]},{"lat":"37.33242473","long":"126.86543605","items":[{"name":"제일애드","tel":"031-417-5756","addr":"경기도 안산시 상록구 부곡동 537-11번지 101동 102호","category":"용역 서비스 - 종합용역"}]},{"lat":"37.330141138","long":"126.86202138","items":[{"name":"제일호프","tel":"031-000-0000","addr":"경기도 안산시 상록구 부곡동 624-10번지 1층","category":"일반휴게음식 - 주점"}]},{"lat":"37.341250514","long":"126.86965182","items":[{"name":"제주삼다수(안산단원)","tel":"031-431-0043","addr":"경기도 안산시 상록구 부곡동 66-4번지","category":"유통업 영리 - 기타유통업"},{"name":"형우통상","tel":"031-356-6172","addr":"경기도 안산시 상록구 부곡동 66-4번지","category":"유통업 영리 - 기타유통업"},{"name":"형우통상","tel":"031-222-2222","addr":"경기도 안산시 상록구 부곡동 66-4번지","category":"유통업 영리 - 기타유통업"}]},{"lat":"37.324315484","long":"126.85782391","items":[{"name":"제주해양수산","tel":"031-408-2976","addr":"경기도 안산시 상록구 부곡동 689-6번지 1층","category":"일반휴게음식 - 일반한식"}]},{"lat":"37.335389243","long":"126.86557734","items":[{"name":"조은이헤어라인","tel":"031-417-0325","addr":"경기도 안산시 상록구 부곡동 647-3번지","category":"보건위생 - 미용원"}]},{"lat":"37.3323079122","long":"126.8657070713","items":[{"name":"조은이헤어라인","tel":"","addr":"경기도 안산시 상록구 부곡동 537-9번지","category":"협회 및 단체, 수리 및 기타 개인서"},{"name":"주방장허준","tel":"031-407-7963","addr":"경기도 안산시 상록구 부곡동 537-9번지","category":"숙박 및 음식점업 - 한식"}]},{"lat":"37.333287103","long":"126.86321158","items":[{"name":"종로해장국감자탕","tel":"031-415-6808","addr":"경기도 안산시 상록구 부곡동 662-7번지 1층","category":"일반휴게음식 - 일반한식"}]},{"lat":"37.334812528","long":"126.86552197","items":[{"name":"주몽푸드","tel":"031-498-4295","addr":"경기도 안산시 상록구 부곡동 645-2번지 302호","category":"음료식품 - 기타음료식품"},{"name":"현대지바트광택","tel":"031-548-9210","addr":"경기도 안산시 상록구 부곡동 645-2번지 201호","category":"자동차정비 유지 - 세차장"}]},{"lat":"37.340476593","long":"126.86267917","items":[{"name":"주식회사 대신유통","tel":"02-1577-0000","addr":"경기도 안산시 상록구 부곡동 93-22번지","category":"음료식품 - 기타음료식품"}]},{"lat":"37.343420492","long":"126.86835018","items":[{"name":"주식회사 에코랜드 (ECO LAND)","tel":"031-1600-6484","addr":"경기도 안산시 상록구 부곡동 65번지","category":"건축자재 - 기타건축자재"}]},{"lat":"37.335146152","long":"126.86573576","items":[{"name":"주식회사나노시스템","tel":"031-406-9271","addr":"경기도 안산시 상록구 부곡동 647-12번지 101호","category":"사무통신 - 컴퓨터"},{"name":"청룡상가","tel":"031-411-1782","addr":"경기도 안산시 상록구 부곡동 647-12번지 101호","category":"건축자재 - 기타건축자재"}]},{"lat":"37.340952619","long":"126.86915581","items":[{"name":"주식회사대운에프앤비","tel":"031-481-9585","addr":"경기도 안산시 상록구 부곡동 66-37번지","category":"음료식품 - 정육점"}]},{"lat":"37.339307054","long":"126.87210403","items":[{"name":"주식회사델코코/원격지","tel":"031-357-3474","addr":"경기도 안산시 상록구 부곡동 260-1번지","category":"기타 - 기타 전문점"}]},{"lat":"37.333002178","long":"126.86612331","items":[{"name":"주식회사민팩키지","tel":"02-2275-1042","addr":"경기도 안산시 상록구 부곡동 640-7번지","category":"기타 - 기타 전문점"}]},{"lat":"37.339424992","long":"126.86488163","items":[{"name":"주식회사부국스틸","tel":"031-409-5577","addr":"경기도 안산시 상록구 부곡동 220-3번지","category":"건축자재 - 기타건축자재"}]},{"lat":"37.332784541","long":"126.85740142","items":[{"name":"주식회사서울종합상사","tel":"031-402-7553","addr":"경기도 안산시 상록구 부곡동 737-10번지","category":"건축자재 - 목재·석재·철물"}]},{"lat":"37.33222957","long":"126.86809934","items":[{"name":"주식회사에이치앤디엔터테인먼트","tel":"070-7534-2299","addr":"경기도 안산시 상록구 부곡동 547-5번지 2층","category":"용역 서비스 - 종합용역"}]},{"lat":"37.332335057","long":"126.85823727","items":[{"name":"주식회사이화세라믹","tel":"031-403-8181","addr":"경기도 안산시 상록구 부곡동 737-4번지","category":"건축자재 - 기타건축자재"}]},{"lat":"37.3273986","long":"126.85916065","items":[{"name":"주연도어","tel":"","addr":"경기도 안산시 상록구 부곡동 684-9번지 제너빌 201호","category":"건축자재 - 인테리어전문"}]},{"lat":"37.324309409","long":"126.86023836","items":[{"name":"준트레이딩","tel":"031-501-2171","addr":"경기도 안산시 상록구 부곡동 606-6번지 쎈스빌 302호","category":"가구 - 일반가구"}]},{"lat":"37.335729971","long":"126.86415492","items":[{"name":"줄리건축","tel":"031-483-0402","addr":"경기도 안산시 상록구 부곡동 655-16번지 드림파크빌 202호","category":"용역 서비스 - 기타용역서비스"}]},{"lat":"37.325785162","long":"126.858656","items":[{"name":"중국관","tel":"031-407-5123","addr":"경기도 안산시 상록구 부곡동 686-3번지 101호","category":"일반휴게음식 - 중국식"}]},{"lat":"37.3257851623","long":"126.8586560014","items":[{"name":"중국관","tel":"031-407-5123","addr":"경기도 안산시 상록구 부곡동 686-3번지","category":"숙박 및 음식점업 - 중식"}]},{"lat":"37.334640389","long":"126.86470984","items":[{"name":"중독곱창구이","tel":"031-416-8292","addr":"경기도 안산시 상록구 부곡동 644-10번지 1층","category":"일반휴게음식 - 일반한식"}]},{"lat":"37.3213961732","long":"126.8578182407","items":[{"name":"지나씨","tel":"031-406-4010","addr":"경기도 안산시 상록구 부곡동 696-8번지","category":"숙박 및 음식점업 - 커피"}]},{"lat":"37.332703625","long":"126.86507447","items":[{"name":"지니갤러리&젬카페","tel":"070-4379-7307","addr":"경기도 안산시 상록구 부곡동 537-3번지 1층","category":"일반휴게음식 - 서양음식"}]},{"lat":"37.3331972936","long":"126.8634599896","items":[{"name":"지리산약국","tel":"031-409-5596","addr":"경기도 안산시 상록구 부곡동 662-5번지","category":"도매 및 소매업 - 양약, 한약"}]},{"lat":"37.333724692","long":"126.85993846","items":[{"name":"지바트","tel":"031-482-3996","addr":"경기도 안산시 상록구 부곡동 730-1번지","category":"자동차정비 유지 - 카인테리어"}]},{"lat":"37.337063112","long":"126.85637758","items":[{"name":"진광금속(주)","tel":"031-483-6597","addr":"경기도 안산시 상록구 부곡동 713-1번지","category":"기타 - 기타 전문점"}]},{"lat":"37.335256146","long":"126.85970988","items":[{"name":"진도건업","tel":"031-402-2350","addr":"경기도 안산시 상록구 부곡동 725-6번지","category":"용역 서비스 - 기타용역서비스"}]},{"lat":"37.322199416","long":"126.85891106","items":[{"name":"진흥콤프중부대리점","tel":"031-417-8244","addr":"경기도 안산시 상록구 부곡동 697-4번지 신지하우스 3층","category":"기타 - 기계공구"}]},{"lat":"37.324002627","long":"126.8598779","items":[{"name":"쭈꾸미술관","tel":"031-501-7818","addr":"경기도 안산시 상록구 부곡동 605-1번지 1층 102,103호","category":"일반휴게음식 - 일반한식"}]},{"lat":"37.3240026271","long":"126.8598779036","items":[{"name":"쭈꾸미술관","tel":"031-501-7818","addr":"경기도 안산시 상록구 부곡동 605-1번지","category":"숙박 및 음식점업 - 한식"}]},{"lat":"37.330005312","long":"126.86145747","items":[{"name":"쭌호프","tel":"","addr":"경기도 안산시 상록구 부곡동 673-9번지 1층 101호","category":"일반휴게음식 - 주점"},{"name":"한결카써비스","tel":"031-415-0079","addr":"경기도 안산시 상록구 부곡동 673-9번지","category":"자동차정비 유지 - 자동차정비"}]},{"lat":"37.3318632303","long":"126.8629885463","items":[{"name":"착한숯불닭갈비","tel":"031-406-6097","addr":"경기도 안산시 상록구 부곡동 628번지","category":"숙박 및 음식점업 - 한식"}]},{"lat":"37.3257857663","long":"126.8591524360","items":[{"name":"착한통닭","tel":"031-417-6336","addr":"경기도 안산시 상록구 부곡동 686-6번지","category":"숙박 및 음식점업 - 치킨"},{"name":"하면돼지","tel":"031-410-1133","addr":"경기도 안산시 상록구 부곡동 686-6번지","category":"숙박 및 음식점업 - 한식"}]},{"lat":"37.329418691","long":"126.86065746","items":[{"name":"천지상사","tel":"031-484-7727","addr":"경기도 안산시 상록구 부곡동 675-3번지 신진쎈스빌 101호","category":"기타 - 기타 전문점"}]},{"lat":"37.336001278","long":"126.86501202","items":[{"name":"천지축산(주)","tel":"031-408-5193","addr":"경기도 안산시 상록구 부곡동 649-10번지","category":"음료식품 - 정육점"}]},{"lat":"37.3388698196","long":"126.8760205384","items":[{"name":"청곡농원","tel":"031-413-3133","addr":"경기도 안산시 상록구 부곡동 262-2번지","category":"농업, 임업 및 어업 - 작물재배"}]},{"lat":"37.33886982","long":"126.87602054","items":[{"name":"청곡농원","tel":"031-413-3133","addr":"경기도 안산시 상록구 부곡동 262-2번지 265","category":"음료식품 - 농·축·수산품"}]},{"lat":"37.338722152","long":"126.8727934","items":[{"name":"청곡한우촌","tel":"031-411-6725","addr":"경기도 안산시 상록구 부곡동 261-5번지","category":"일반휴게음식 - 일반한식"}]},{"lat":"37.34086125","long":"126.86803877","items":[{"name":"청산곡물센타","tel":"031-405-9495","addr":"경기도 안산시 상록구 부곡동 74-3 나동","category":"음료식품 - 미곡상"}]},{"lat":"37.3305905137","long":"126.8610727365","items":[{"name":"청석골유황오리","tel":"031-409-7716","addr":"경기도 안산시 상록구 부곡동 673-3번지","category":"숙박 및 음식점업 - 한식점업"}]},{"lat":"37.330590514","long":"126.86107274","items":[{"name":"청석골유황오리","tel":"031-409-7716","addr":"경기도 안산시 상록구 부곡동 673-3번지","category":"일반휴게음식 - 일반한식"}]},{"lat":"37.332397962","long":"126.85810175","items":[{"name":"청진목재","tel":"031-483-8850","addr":"경기도 안산시 상록구 부곡동 737-5","category":"건축자재 - 목재·석재·철물"}]},{"lat":"37.334480561","long":"126.85912459","items":[{"name":"청춘회포차","tel":"","addr":"경기도 안산시 상록구 부곡동 729번지 101호","category":"일반휴게음식 - 일반한식"}]},{"lat":"37.3322872673","long":"126.8634616714","items":[{"name":"취홍루","tel":"","addr":"경기도 안산시 상록구 부곡동 538-2번지","category":"숙박 및 음식점업 - 중식"}]},{"lat":"37.332287267","long":"126.86346167","items":[{"name":"취흥루","tel":"031-402-8452","addr":"경기도 안산시 상록구 부곡동 538-2번지 1층","category":"일반휴게음식 - 중국식"}]},{"lat":"37.3338650094","long":"126.8567900059","items":[{"name":"치킨쉐프(부곡점)","tel":"031-413-5592","addr":"경기도 안산시 상록구 부곡동 734-16번지","category":"숙박 및 음식점업 - 기타음식"}]},{"lat":"37.3344170920","long":"126.8587974750","items":[{"name":"친구네","tel":"031-410-2443","addr":"경기도 안산시 상록구 부곡동 728-8번지","category":"숙박 및 음식점업 - 기타음식"},{"name":"행복한음식점","tel":"031-411-1940","addr":"경기도 안산시 상록구 부곡동 728-8번지","category":"숙박 및 음식점업 - 일반음식"}]},{"lat":"37.328120752","long":"126.860265","items":[{"name":"친절한꿈나무미술학원","tel":"031-417-9733","addr":"경기도 안산시 상록구 부곡동 682-6번지 101호","category":"학원 - 예·체능계학원"}]},{"lat":"37.33041982","long":"126.86149054","items":[{"name":"카페329","tel":"070-8688-0319","addr":"경기도 안산시 상록구 부곡동 673-6번지 102호","category":"일반휴게음식 - 서양음식"}]},{"lat":"37.333974851","long":"126.85818899","items":[{"name":"카페샬롬","tel":"031-410-9420","addr":"경기도 안산시 상록구 부곡동 733-6번지 1층","category":"일반휴게음식 - 서양음식"}]},{"lat":"37.333835573","long":"126.86224016","items":[{"name":"카페펠리체","tel":"031-416-4931","addr":"경기도 안산시 상록구 부곡동 663번지 외4필지 1층","category":"일반휴게음식 - 서양음식"}]},{"lat":"37.3338355727","long":"126.8622401557","items":[{"name":"카페펠리체","tel":"031-416-4931","addr":"경기도 안산시 상록구 부곡동 663번지","category":"숙박 및 음식점업 - 커피외"}]},{"lat":"37.3261469526","long":"126.8597948612","items":[{"name":"커트보이","tel":"031-406-8400","addr":"경기도 안산시 상록구 부곡동 613-8번지","category":"협회 및 단체, 수리 및 기타 개인서"}]},{"lat":"37.3273636254","long":"126.8600407772","items":[{"name":"커피콩","tel":"070-7778-7503","addr":"경기도 안산시 상록구 부곡동 684-3번지","category":"숙박 및 음식점업 - 휴게음식점"},{"name":"피자스쿨(안산 부곡점)","tel":"0507-0493-0560","addr":"경기도 안산시 상록구 부곡동 684-3번지","category":"숙박 및 음식점업 - 휴게음식점"}]},{"lat":"37.33295366","long":"126.86315578","items":[{"name":"커피하우스","tel":"031-416-0094","addr":"경기도 안산시 상록구 부곡동 665-3번지 101층","category":"일반휴게음식 - 서양음식"}]},{"lat":"37.3329536599","long":"126.8631557799","items":[{"name":"커피하우스","tel":"070-3611-1872","addr":"경기도 안산시 상록구 부곡동 665-3번지","category":"숙박 및 음식점업 - 커피숍, 카페"}]},{"lat":"37.3296446761","long":"126.8612663287","items":[{"name":"커피하우스","tel":"070-3611-1872","addr":"경기도 안산시 상록구 부곡동 674-1번지","category":"숙박 및 음식점업 - 커피"}]},{"lat":"37.332861844","long":"126.86171164","items":[{"name":"케이준치킨","tel":"031-415-5525","addr":"경기도 안산시 상록구 부곡동 667-14번지 1층","category":"일반휴게음식 - 스넥"},{"name":"파마쟁이","tel":"031-111-1111","addr":"경기도 안산시 상록구 부곡동 667-14번지 1층","category":"보건위생 - 미용원"},{"name":"행복편의점","tel":"070-7840-0898","addr":"경기도 안산시 상록구 부곡동 667-14번지 1층 103호","category":"유통업 영리 - 슈퍼마켓"}]},{"lat":"37.334923981","long":"126.86071479","items":[{"name":"코드(CODE)/원격지","tel":"031-410-9984","addr":"경기도 안산시 상록구 부곡동 723-9번지","category":"기타 - 기타 전문점"}]},{"lat":"37.336972731","long":"126.85615207","items":[{"name":"큐브월드","tel":"070-1111-1111","addr":"경기도 안산시 상록구 부곡동 713-15번지 301호","category":"서적문구 - 완구점"}]},{"lat":"37.3345856145","long":"126.8641006089","items":[{"name":"크린위드","tel":"","addr":"경기도 안산시 상록구 부곡동 657-11번지","category":"협회 및 단체, 수리 및 기타 개인서"}]},{"lat":"37.333922274","long":"126.85940775","items":[{"name":"클로버 에어컨","tel":"","addr":"경기도 안산시 상록구 부곡동 731-4번지 지오트레벨 302호","category":"수리서비스 - 가정용품수리"}]},{"lat":"37.330084478","long":"126.85985509","items":[{"name":"클린팜","tel":"070-8187-1373","addr":"경기도 안산시 상록구 부곡동 679번지 102,103호","category":"보건위생 - 의료용품"}]},{"lat":"37.333697348","long":"126.85967899","items":[{"name":"키즈맘","tel":"031-942-2726","addr":"경기도 안산시 상록구 부곡동 730-21번지","category":"신변잡화 - 신발"}]},{"lat":"37.332002532","long":"126.86654261","items":[{"name":"태산유통","tel":"031-502-2087","addr":"경기도 안산시 상록구 부곡동 536-7번지 1층","category":"음료식품 - 기타음료식품"}]},{"lat":"37.334752449","long":"126.86043301","items":[{"name":"태웅시스템","tel":"","addr":"경기도 안산시 상록구 부곡동 726번지 4층 401호","category":"용역 서비스 - 기타용역서비스"}]},{"lat":"37.330698297","long":"126.86079045","items":[{"name":"태진카서비스","tel":"031-414-6792","addr":"경기도 안산시 상록구 부곡동 673-1번지","category":"자동차정비 유지 - 자동차정비"}]},{"lat":"37.3306982973","long":"126.8607904497","items":[{"name":"태진카서비스","tel":"031-414-6792","addr":"경기도 안산시 상록구 부곡동 673-1번지","category":"협회 및 단체, 수리 및 기타 개인서"}]},{"lat":"37.3331720615","long":"126.8649946245","items":[{"name":"태후사랑","tel":"031-415-0066","addr":"경기도 안산시 상록구 부곡동 641-6번지","category":"도매 및 소매업 - 화장품용품"}]},{"lat":"37.3335604110","long":"126.8582123539","items":[{"name":"터줏대감","tel":"031-410-0292","addr":"경기도 안산시 상록구 부곡동 735번지","category":"숙박 및 음식점업 - 일반음식"}]},{"lat":"37.331836426","long":"126.86318042","items":[{"name":"털보카마스타","tel":"031-418-6974","addr":"경기도 안산시 상록구 부곡동 628-1번지","category":"자동차정비 유지 - 자동차정비"}]},{"lat":"37.3318364264","long":"126.8631804161","items":[{"name":"털보카마스터","tel":"031-418-6974","addr":"경기도 안산시 상록구 부곡동 628-1번지","category":"협회 및 단체, 수리 및 기타 개인서"}]},{"lat":"37.336201542","long":"126.85915516","items":[{"name":"토끼네정원","tel":"","addr":"경기도 안산시 상록구 부곡동 721-5번지 동화하이츠빌 401호","category":"문화.취미 - 화원"}]},{"lat":"37.3286444125","long":"126.8611553755","items":[{"name":"토마토","tel":"031-409-7465","addr":"경기도 안산시 상록구 부곡동 622-13번지","category":"숙박 및 음식점업 - 분식"},{"name":"해법영어교실","tel":"031-501-0519","addr":"경기도 안산시 상록구 부곡동 622-13번지","category":"교육서비스업 - 교습소"}]},{"lat":"37.331202541","long":"126.8605187","items":[{"name":"토속음식초원","tel":"031-415-7020","addr":"경기도 안산시 상록구 부곡동 672-22번지","category":"일반휴게음식 - 일반한식"}]},{"lat":"37.3369727309","long":"126.8561520662","items":[{"name":"토속정","tel":"031-411-6889","addr":"경기도 안산시 상록구 부곡동 713-15번지","category":"숙박 및 음식점업 - 한식"}]},{"lat":"37.333946963","long":"126.85748945","items":[{"name":"투다리(시낭점)","tel":"031-410-7115","addr":"경기도 안산시 상록구 부곡동 734-3번지 1층","category":"일반휴게음식 - 일반한식"}]},{"lat":"37.329922894","long":"126.86035186","items":[{"name":"투핸테크(주)","tel":"070-8623-0481","addr":"경기도 안산시 상록구 부곡동 676-1번지 1층","category":"수리서비스 - 가정용품수리"}]},{"lat":"37.329778663","long":"126.86029572","items":[{"name":"튜닝사령부","tel":"031-8044-5417","addr":"경기도 안산시 상록구 부곡동 676-10번지 그림아트빌 202호","category":"자동차정비 유지 - 자동차부품"}]},{"lat":"37.3276164813","long":"126.8605141806","items":[{"name":"티톡","tel":"031-410-7611","addr":"경기도 안산시 상록구 부곡동 619번지","category":"도매 및 소매업 - 휴대폰"}]},{"lat":"37.334562829","long":"126.86776793","items":[{"name":"티티샵","tel":"","addr":"경기도 안산시 상록구 부곡동 633-3번지 명진아트빌라 202호","category":"의류 - 아동의류"}]},{"lat":"37.336864511","long":"126.85607329","items":[{"name":"파랑새보습학원","tel":"031-480-2128","addr":"경기도 안산시 상록구 부곡동 713-14번지 101호","category":"학원 - 보습학원"},{"name":"한샘태권도장","tel":"031-410-5077","addr":"경기도 안산시 상록구 부곡동 713-14번지","category":"학원 - 예·체능계학원"}]},{"lat":"37.3368645111","long":"126.8560732867","items":[{"name":"파랑새학원","tel":"031-480-2128","addr":"경기도 안산시 상록구 부곡동 713-14번지","category":"교육서비스업 - 보습학원"}]},{"lat":"37.3328618438","long":"126.8617116375","items":[{"name":"파마쟁이","tel":"","addr":"경기도 안산시 상록구 부곡동 667-14번지","category":"협회 및 단체, 수리 및 기타 개인서"}]},{"lat":"37.336035958","long":"126.86384969","items":[{"name":"퍼니키즈","tel":"032-466-0428","addr":"경기도 안산시 상록구 부곡동 655-2번지 신진쎈스빌 302호","category":"학원 - 기타 교육기관"}]},{"lat":"37.3346138528","long":"126.8576010003","items":[{"name":"퐁네프제과점","tel":"031-439-0095","addr":"경기도 안산시 상록구 부곡동 733번지","category":"숙박 및 음식점업 - 제과"}]},{"lat":"37.334336261","long":"126.85901202","items":[{"name":"풍림목재","tel":"031-413-1697","addr":"경기도 안산시 상록구 부곡동 729-17번지","category":"건축자재 - 기타건축자재"}]},{"lat":"37.3236960765","long":"126.8597092497","items":[{"name":"풍미가","tel":"031-415-5901","addr":"경기도 안산시 상록구 부곡동 605-13번지","category":"숙박 및 음식점업 - 기타음식점"}]},{"lat":"37.3342256311","long":"126.8644623558","items":[{"name":"프랑소아 과자점","tel":"031-417-4429","addr":"경기도 안산시 상록구 부곡동 643번지","category":"숙박 및 음식점업 - 제과점"}]},{"lat":"37.3335854867","long":"126.8641024488","items":[{"name":"피자헐","tel":"031-407-7748","addr":"경기도 안산시 상록구 부곡동 643-9번지","category":"숙박 및 음식점업 - 휴게음식점업"},{"name":"하나꽃집","tel":"031-416-2698","addr":"경기도 안산시 상록구 부곡동 643-9번지","category":"농업, 임업 및 어업 - 화훼.생화"}]},{"lat":"37.326283816","long":"126.86121622","items":[{"name":"하나린i어린이집[아이행복]","tel":"031-417-2332","addr":"경기도 안산시 상록구 부곡동 614-14번지","category":"학원 - 유아원"}]},{"lat":"37.326446093","long":"126.8612949","items":[{"name":"하나린어린이집[아이행복]","tel":"031-417-2332","addr":"경기도 안산시 상록구 부곡동 614번지","category":"학원 - 유아원"}]},{"lat":"37.341841196","long":"126.85856888","items":[{"name":"하림ENG/원격지","tel":"070-4010-1806","addr":"경기도 안산시 상록구 부곡동 107-1번지 일부 1층","category":"기타 - 기타 전문점"}]},{"lat":"37.3322261522","long":"126.8651317565","items":[{"name":"하림각","tel":"031-416-4401","addr":"경기도 안산시 상록구 부곡동 542-1번지","category":"숙박 및 음식점업 - 중식"}]},{"lat":"37.332226152","long":"126.86513176","items":[{"name":"하림각","tel":"031-416-4401","addr":"경기도 안산시 상록구 부곡동 542-1번지 1층 부곡동0","category":"일반휴게음식 - 중국식"}]},{"lat":"37.341366511","long":"126.86092834","items":[{"name":"하음리프트","tel":"070-4070-1077","addr":"경기도 안산시 상록구 부곡동 115-38번지","category":"기타 - 기계공구"}]},{"lat":"37.336973861","long":"126.86457016","items":[{"name":"하이파이브스포츠","tel":"031-000-0000","addr":"경기도 안산시 상록구 부곡동 652-12번지 202호","category":"레져용품 - 스포츠·레져용품"}]},{"lat":"37.331700459","long":"126.86249237","items":[{"name":"한국불교토속금강종정심사","tel":"031-438-5030","addr":"경기도 안산시 상록구 부곡동 670-1번지","category":"보건위생 - 기타대인서비스"},{"name":"해피트리","tel":"031-417-9869","addr":"경기도 안산시 상록구 부곡동 670-1번지","category":"문화.취미 - 화원"},{"name":"현아네일(Hyun a-Nail)","tel":"031-417-4112","addr":"경기도 안산시 상록구 부곡동 670-1번지 1층","category":"보건위생 - 피부미용실"}]},{"lat":"37.345617381","long":"126.86695814","items":[{"name":"한국상사","tel":"031-483-6500","addr":"경기도 안산시 상록구 부곡동 3번지","category":"건축자재 - 기타건축자재"}]},{"lat":"37.333667739","long":"126.86509527","items":[{"name":"한눌아람","tel":"000-1688-5625","addr":"경기도 안산시 상록구 부곡동 641-11번지 1층","category":"회원제형태 - 기타4"}]},{"lat":"37.333366749","long":"126.86199279","items":[{"name":"한방전주콩나물국밥","tel":"031-408-8848","addr":"경기도 안산시 상록구 부곡동 664번지 102,103호","category":"일반휴게음식 - 일반한식"}]},{"lat":"37.33442534","long":"126.86573707","items":[{"name":"한서형공연기획사","tel":"031-502-1580","addr":"경기도 안산시 상록구 부곡동 646-4번지 1층 102호","category":"문화.취미 - 티켓"}]},{"lat":"37.330673915","long":"126.86301332","items":[{"name":"한솔냉열기","tel":"070-8031-4038","addr":"경기도 안산시 상록구 부곡동 626-17번지 트라움하우스 301호","category":"수리서비스 - 가정용품수리"}]},{"lat":"37.330670683","long":"126.86798929","items":[{"name":"한솔누수탐지방수","tel":"031-409-1474","addr":"경기도 안산시 상록구 부곡동 551-5번지 현대맨션 201호","category":"건축자재 - 인테리어전문"}]},{"lat":"37.333056517","long":"126.85876622","items":[{"name":"한솔플러스 수학교실","tel":"031-475-7110","addr":"경기도 안산시 상록구 부곡동 735-12번지 보강팰리스 401호","category":"학원 - 보습학원"}]},{"lat":"37.3220302690","long":"126.8606036934","items":[{"name":"한양열쇠","tel":"031-486-1565","addr":"경기도 안산시 상록구 부곡동 699-10번지","category":"도매 및 소매업 - 열쇠"}]},{"lat":"37.341616421","long":"126.86657037","items":[{"name":"한화하우징상재","tel":"031-311-2301","addr":"경기도 안산시 상록구 부곡동 75-6번지","category":"직물 - 카페트,커튼,천막,지물"}]},{"lat":"37.333585023","long":"126.86370752","items":[{"name":"해바라기치과","tel":"031-417-8275","addr":"경기도 안산시 상록구 부곡동 661-7.1층1,2,3호","category":"의원 - 치과의원"}]},{"lat":"37.33056189","long":"126.86740275","items":[{"name":"행복 in","tel":"","addr":"경기도 안산시 상록구 부곡동 552-2번지 지하층 101호","category":"직물 - 카페트,커튼,천막,지물"}]},{"lat":"37.33075162","long":"126.86785374","items":[{"name":"행복유지","tel":"031-410-2400","addr":"경기도 안산시 상록구 부곡동 551-4번지","category":"음료식품 - 기타음료식품"}]},{"lat":"37.3247859112","long":"126.8593799900","items":[{"name":"행복한미용실","tel":"","addr":"경기도 안산시 상록구 부곡동 692-2번지","category":"협회 및 단체, 수리 및 기타 개인서"},{"name":"현대세탁소","tel":"031-416-7989","addr":"경기도 안산시 상록구 부곡동 692-2번지","category":"협회 및 단체, 수리 및 기타 개인서"}]},{"lat":"37.3322001431","long":"126.8660119242","items":[{"name":"향기나세탁","tel":"031-406-0422","addr":"경기도 안산시 상록구 부곡동 536-10번지","category":"협회 및 단체, 수리 및 기타 개인서"}]},{"lat":"37.3225326134","long":"126.8587637566","items":[{"name":"헤어닥터","tel":"","addr":"경기도 안산시 상록구 부곡동 695-16번지","category":"협회 및 단체, 수리 및 기타 개인서"}]},{"lat":"37.322532613","long":"126.85876376","items":[{"name":"헤어닥터미용실","tel":"","addr":"경기도 안산시 상록구 부곡동 695-16번지 1층","category":"보건위생 - 미용원"}]},{"lat":"37.3271472587","long":"126.8599396412","items":[{"name":"헤어사랑","tel":"031-406-3640","addr":"경기도 안산시 상록구 부곡동 684-4번지","category":"협회 및 단체, 수리 및 기타 개인서"}]},{"lat":"37.3341447376","long":"126.8646317624","items":[{"name":"헤어존","tel":"031-438-4009","addr":"경기도 안산시 상록구 부곡동 643-1번지","category":"협회 및 단체, 수리 및 기타 개인서"}]},{"lat":"37.3330883185","long":"126.8627380326","items":[{"name":"헤어탤런트샵","tel":"031-408-5833","addr":"경기도 안산시 상록구 부곡동 665번지","category":"협회 및 단체, 수리 및 기타 개인서"}]},{"lat":"37.33847698","long":"126.87107857","items":[{"name":"현대디자인","tel":"031-416-1055","addr":"경기도 안산시 상록구 부곡동 273-2번지 가동 1층","category":"가구 - 일반가구"}]},{"lat":"37.3229549475","long":"126.8578265268","items":[{"name":"현대모터클럽안산점","tel":"031-416-0930","addr":"경기도 안산시 상록구 부곡동 695번지","category":"도매 및 소매업 - 자동차수리,타이어"}]},{"lat":"37.339889577","long":"126.8615405","items":[{"name":"현대후렘","tel":"031-405-4504","addr":"경기도 안산시 상록구 부곡동 212-6","category":"기타 - 기타 전문점"}]},{"lat":"37.3249461958","long":"126.8578226993","items":[{"name":"협동1급카서비스","tel":"031-414-1997","addr":"경기도 안산시 상록구 부곡동 689번지","category":"협회 및 단체, 수리 및 기타 개인서"}]},{"lat":"37.334698551","long":"126.86056852","items":[{"name":"협성카인테리어","tel":"031-403-7488","addr":"경기도 안산시 상록구 부곡동 726-1번지 산호아트","category":"자동차정비 유지 - 자동차정비"}]},{"lat":"37.3278677994","long":"126.8597126174","items":[{"name":"홀릭떡볶이","tel":"031-406-7977","addr":"경기도 안산시 상록구 부곡동 683-3번지","category":"숙박 및 음식점업 - 분식"}]},{"lat":"37.324922833","long":"126.86084646","items":[{"name":"홈 솔루션","tel":"031-000-0000","addr":"경기도 안산시 상록구 부곡동 609-5번지 302호","category":"용역 서비스 - 종합용역"}]},{"lat":"37.3323928841","long":"126.8613514392","items":[{"name":"홈쇼핑명품마켓(아르케유통)","tel":"031-416-5889","addr":"경기도 안산시 상록구 부곡동 667-10번지","category":"도매 및 소매업 - 유통"}]},{"lat":"37.333980925","long":"126.86324415","items":[{"name":"화이트","tel":"031-416-9779","addr":"경기도 안산시 상록구 부곡동 661-12번지 103호","category":"수리서비스 - 세탁소"}]},{"lat":"37.3339809248","long":"126.8632441481","items":[{"name":"화이트세탁소","tel":"","addr":"경기도 안산시 상록구 부곡동 661-12번지","category":"협회 및 단체, 수리 및 기타 개인서"}]},{"lat":"37.3257843214","long":"126.8579677624","items":[{"name":"황금돼지","tel":"031-416-1703","addr":"경기도 안산시 상록구 부곡동 688-1번지","category":"숙박 및 음식점업 - 한식"}]},{"lat":"37.3358128122","long":"126.8580951930","items":[{"name":"효미네김치","tel":"031-507-8043","addr":"경기도 안산시 상록구 부곡동 715-5번지","category":"도매 및 소매업 - 반찬"}]},{"lat":"37.3338915673","long":"126.8638762088","items":[{"name":"효성한의원","tel":"031-408-7576","addr":"경기도 안산시 상록구 부곡동 661-4번지","category":"보건업 및 사회복지서비스업 - 한의원"}]},{"lat":"37.3303098545","long":"126.8599562164","items":[{"name":"후크커피","tel":"031-520-2501","addr":"경기도 안산시 상록구 부곡동 678-6번지","category":"숙박 및 음식점업 - 음식"}]},{"lat":"37.333755697","long":"126.86326713","items":[{"name":"희망슈퍼","tel":"031-501-3089","addr":"경기도 안산시 상록구 부곡동 661-10번지","category":"유통업 영리 - 슈퍼마켓"}]},{"lat":"37.3337556974","long":"126.8632671326","items":[{"name":"희망슈퍼","tel":"031-501-3089","addr":"경기도 안산시 상록구 부곡동 661-10번지","category":"도매 및 소매업 - 슈퍼마켓"}]}]