[{"lat":"37.193969655","long":"127.02250213","items":[{"name":"(주)더드림홀딩스(카페드림한신대60주년기","tel":"02-866-6451","addr":"경기도 오산시 양산동 400번지 한신대학교 1층 60주년기념관","category":"음료식품 - 기타음료식품"},{"name":"(주)더큰도시락 한신대임마누엘관","tel":"031-379-0291","addr":"경기도 오산시 양산동 400번지 한신대학교 1층 임마누엘관","category":"일반휴게음식 - 위탁급식업"},{"name":"(주)이안씨엔티","tel":"031-8055-8006","addr":"경기도 오산시 양산동 400번지 한신대학교 9205호","category":"용역 서비스 - 기타용역서비스"},{"name":"(주)제영산업","tel":"031-8059-2821","addr":"경기도 오산시 양산동 400번지 한신대학교 창업보육센터동 9214호","category":"유통업 영리 - 기타유통업"},{"name":"더큰도시락한신대60주년기념관","tel":"031-379-0289","addr":"경기도 오산시 양산동 400번지 한신대학교 20동 1층 60주년기념관","category":"일반휴게음식 - 위탁급식업"},{"name":"세븐일레븐한신대기숙사점","tel":"031-1577-0711","addr":"경기도 오산시 양산동 400번지 한신대학교 성빈학사","category":"유통업 영리 - 편 의 점"},{"name":"세븐일레븐한신대송암관점","tel":"031-1577-0711","addr":"경기도 오산시 양산동 400번지 한신대학교 송암관","category":"유통업 영리 - 편 의 점"},{"name":"시립한신어린이집[아이행복]","tel":"031-375-7578","addr":"경기도 오산시 양산동 400번지 한신대학교 내","category":"학원 - 유아원"},{"name":"씨유한신대60주년관점","tel":"080-080-3663","addr":"경기도 오산시 양산동 400번지 한신대학교60주년관","category":"유통업 영리 - 편 의 점"},{"name":"에스에이치코리아 (SH KOREA)","tel":"070-8031-4038","addr":"경기도 오산시 양산동 400번지 창업보육센터 9201호","category":"사무통신 - 기타 사무용품"},{"name":"옵티라제","tel":"070-7869-9964","addr":"경기도 오산시 양산동 400번지 한신대학교 창업보육센터 9309호","category":"서적문구 - 과학기자재"},{"name":"이마트24 한신대임마누엘관점","tel":"031-000-0000","addr":"경기도 오산시 양산동 400번지 한신대학교 임마누엘관 1층","category":"유통업 영리 - 편 의 점"},{"name":"지수(주)카페아지트365한신대2호점","tel":"031-572-0304","addr":"경기도 오산시 양산동 400번지 3층","category":"일반휴게음식 - 서양음식"},{"name":"지수(주)카페아지트365한신대점","tel":"02-572-0304","addr":"경기도 오산시 양산동 400번지 한신대학교","category":"일반휴게음식 - 서양음식"},{"name":"카페드림한신대경삼관점","tel":"02-866-6451","addr":"경기도 오산시 양산동 400번지 한신대학교 경삼관","category":"음료식품 - 기타음료식품"},{"name":"팬도로시(한신대점)","tel":"000-0000-0000","addr":"경기도 오산시 양산동 400번지 한신대학교 탁구동 201호","category":"음료식품 - 기타음료식품"},{"name":"한신대학교 산학협력단","tel":"031-379-0244","addr":"경기도 오산시 양산동 400번지 한신대학교","category":"보건위생 - 기타대인서비스"},{"name":"한신서관","tel":"031-372-7880","addr":"경기도 오산시 양산동 411 한신대학교구내서점","category":"서적문구 - 일반서적"}]},{"lat":"37.194383309","long":"127.02697367","items":[{"name":"(주)디에스비투비","tel":"031-233-5005","addr":"경기도 오산시 양산동 271-7번지","category":"전기제품 - 가전제품"}]},{"lat":"37.195797918","long":"127.02708675","items":[{"name":"E.M.모터스","tel":"031-376-3354","addr":"경기도 오산시 양산동 318번지","category":"자동차정비 유지 - 자동차정비"}]},{"lat":"37.195805201","long":"127.0344304","items":[{"name":"GS25오산세마대림점","tel":"","addr":"경기도 오산시 양산동 668-1번지 세마이편한세상 상가 101, 102호","category":"유통업 영리 - 편 의 점"},{"name":"경희대L.S태권도","tel":"031-378-8870","addr":"경기도 오산시 양산동 668-1번지 3층","category":"학원 - 예·체능계학원"},{"name":"이편한안경","tel":"031-373-5025","addr":"경기도 오산시 양산동 668-1 이편한세상단지내상가-205","category":"보건위생 - 안경"},{"name":"토이다에듀","tel":"031-295-6667","addr":"경기도 오산시 양산동 668-1번지 세마이편한세상 12동 902호","category":"회원제형태 - 서적"}]},{"lat":"37.19582565","long":"127.02336988","items":[{"name":"GS25한신대점","tel":"","addr":"경기도 오산시 양산동 382-4번지","category":"유통업 영리 - 편 의 점"}]},{"lat":"37.194554961","long":"127.02461974","items":[{"name":"HUE","tel":"031-372-0835","addr":"경기도 오산시 양산동 396-2번지 206호","category":"회원제형태 - 건강식품"}]},{"lat":"37.19635726","long":"127.02339255","items":[{"name":"SBS당구클럽","tel":"031-373-3611","addr":"경기도 오산시 양산동 377-5번지","category":"레저업소 - 당 구 장"},{"name":"SBS당구클럽","tel":"031-373-3611","addr":"경기도 오산시 양산동 377-5번지 3층","category":"레저업소 - 당 구 장"},{"name":"새벽날개보습학원","tel":"031-375-5575","addr":"경기도 오산시 양산동 377-5번지 4층 402호 중앙메티칼의원","category":"학원 - 보습학원"},{"name":"소명약국","tel":"031-378-5999","addr":"경기도 오산시 양산동 377-5번지 소명빌딩 101호","category":"약국 - 약국"},{"name":"신할매콩나물국밥","tel":"031-377-2990","addr":"경기도 오산시 양산동 377-5번지 1층","category":"일반휴게음식 - 일반한식"},{"name":"에듀뱅크(edu bank)","tel":"031-225-3565","addr":"경기도 오산시 양산동 377-5번지","category":"서적문구 - 전문서적"},{"name":"에이스 노래연습장","tel":"031-377-3310","addr":"경기도 오산시 양산동 377-5번지 지층","category":"레저업소 - 노 래 방"},{"name":"전설의치킨 한신대점","tel":"031-376-0585","addr":"경기도 오산시 양산동 377-5번지 중앙메티칼의원 1층 102호","category":"일반휴게음식 - 스넥"},{"name":"중앙메디칼의원","tel":"031-376-8575","addr":"경기도 오산시 양산동 377-5번지","category":"의원 - 의원"}]},{"lat":"37.196077419","long":"127.02619704","items":[{"name":"가미원","tel":"031-377-1187","addr":"경기도 오산시 양산동 358-1번지","category":"일반휴게음식 - 일반한식"}]},{"lat":"37.193579318","long":"127.03558956","items":[{"name":"강씨가문의 족발","tel":"031-377-1152","addr":"경기도 오산시 양산동 673-4번지 1층","category":"일반휴게음식 - 일반한식"}]},{"lat":"37.193606712","long":"127.03424928","items":[{"name":"강아지땡큐","tel":"031-372-2488","addr":"경기도 오산시 양산동 672-5","category":"문화.취미 - 애완동물"},{"name":"나이스헤어클럽","tel":"031-000-0000","addr":"경기도 오산시 양산동 672-5번지 103호","category":"보건위생 - 미용원"},{"name":"세븐일레븐오산대림점","tel":"","addr":"경기도 오산시 양산동 672-5","category":"유통업 영리 - 편 의 점"}]},{"lat":"37.197689281","long":"127.03081559","items":[{"name":"강으로바다로","tel":"031-376-1771","addr":"경기도 오산시 양산동 188-3번지","category":"음료식품 - 농·축·수산품"},{"name":"강으로바다로","tel":"031-376-1771","addr":"경기도 오산시 양산동 188-3번지","category":"음료식품 - 농·축·수산품"}]},{"lat":"37.181690002","long":"127.00739771","items":[{"name":"거성식당","tel":"031-372-4368","addr":"경기도 오산시 양산동 611번지","category":"일반휴게음식 - 일반한식"}]},{"lat":"37.184969633","long":"127.01053991","items":[{"name":"경기ENG (경기이엔지)","tel":"031-375-5305","addr":"경기도 오산시 양산동 545번지","category":"기타 - 기계공구"}]},{"lat":"37.195112392","long":"127.03045422","items":[{"name":"경희대 석사태권도장","tel":"031-372-1566","addr":"경기도 오산시 양산동 669-6번지 4층 401호","category":"학원 - 예·체능계학원"},{"name":"나무가있는치과의원","tel":"031-378-2877","addr":"경기도 오산시 양산동 669-6번지 평강빌딩 3층","category":"의원 - 치과의원"},{"name":"주식회사 한길알엠비","tel":"031-373-5302","addr":"경기도 오산시 양산동 669-6번지 평강빌딩 2층 201호","category":"건축자재 - 인테리어전문"},{"name":"천연머리염색","tel":"031-376-8489","addr":"경기도 오산시 양산동 669-6번지 1층 104호","category":"보건위생 - 이용원"},{"name":"파리바게뜨 오산양산점","tel":"031-378-8211","addr":"경기도 오산시 양산동 669-6번지 101,102호","category":"음료식품 - 제과점"}]},{"lat":"37.194690326","long":"127.02344841","items":[{"name":"고(GO)치불치킨","tel":"031-377-4210","addr":"경기도 오산시 양산동 399번지 2층","category":"일반휴게음식 - 스넥"},{"name":"여기서먹자","tel":"031-372-6117","addr":"경기도 오산시 양산동 399번지 1층 2호","category":"일반휴게음식 - 일반한식"},{"name":"찌게동아리","tel":"031-372-7900","addr":"경기도 오산시 양산동 399번지","category":"일반휴게음식 - 일반한식"}]},{"lat":"37.193111249","long":"127.03383235","items":[{"name":"고구려시스템 넘버원","tel":"031-8050-2999","addr":"경기도 오산시 양산동 671-6번지 103호","category":"건축자재 - 기타건축자재"},{"name":"다메이드","tel":"031-373-7370","addr":"경기도 오산시 양산동 671-6번지 101호","category":"건축자재 - 인테리어전문"}]},{"lat":"37.196104547","long":"127.02570146","items":[{"name":"고궁","tel":"031-372-0238","addr":"경기도 오산시 양산동 358-2번지","category":"일반휴게음식 - 일반한식"}]},{"lat":"37.195472976","long":"127.02972224","items":[{"name":"고기 굽는날","tel":"","addr":"경기도 오산시 양산동 669-3번지 1층","category":"일반휴게음식 - 일반한식"},{"name":"모모엘","tel":"031-372-0402","addr":"경기도 오산시 양산동 669-3번지 1층","category":"보건위생 - 미용원"},{"name":"비상잉글리시아이영어교습소","tel":"031-374-0936","addr":"경기도 오산시 양산동 669-3번지 202호","category":"학원 - 외국어학원"},{"name":"이화음악학원","tel":"031-378-8888","addr":"경기도 오산시 양산동 669-3번지 코나하우스 201호","category":"학원 - 예·체능계학원"}]},{"lat":"37.192832336","long":"127.03222165","items":[{"name":"구름에달가듯이","tel":"031-372-2110","addr":"경기도 오산시 양산동 84-5번지 1층","category":"일반휴게음식 - 일반한식"}]},{"lat":"37.194690287","long":"127.02367368","items":[{"name":"굿후렌드","tel":"00-0000-0000","addr":"경기도 오산시 양산동 398-3번지 청명빌 101호","category":"일반휴게음식 - 스넥"},{"name":"소문난부대찌개","tel":"031-375-4777","addr":"경기도 오산시 양산동 398-3번지","category":"일반휴게음식 - 일반한식"},{"name":"주식회사 제이디하이테크","tel":"031-375-1905","addr":"경기도 오산시 양산동 398-3번지 청명빌 1층 101호","category":"전기제품 - 기타전기제품"}]},{"lat":"37.192939527","long":"127.03578075","items":[{"name":"그래요","tel":"070-7722-4609","addr":"경기도 오산시 양산동 674-1번지 1층","category":"일반휴게음식 - 서양음식"}]},{"lat":"37.197328734","long":"127.03136737","items":[{"name":"그린나래어린이집[아이행복]","tel":"","addr":"경기도 오산시 양산동 667-1번지 오산세마효성백년가약 104동 101호","category":"학원 - 유아원"}]},{"lat":"37.190660484","long":"127.03358358","items":[{"name":"글라우베","tel":"055-352-5053","addr":"경기도 오산시 양산동 666번지 늘푸른오스카빌 102동 1704호","category":"회원제형태 - 기타1"}]},{"lat":"37.193579417","long":"127.03522915","items":[{"name":"글림(GLEAM)","tel":"031-374-4224","addr":"경기도 오산시 양산동 673-2번지 1층 102호","category":"보건위생 - 미용원"},{"name":"에델바움","tel":"031-375-5436","addr":"경기도 오산시 양산동 673-2번지 1층","category":"일반휴게음식 - 스넥"},{"name":"올가스킨 양산점","tel":"","addr":"경기도 오산시 양산동 673-2번지","category":"보건위생 - 피부미용실"},{"name":"헬로아이","tel":"","addr":"경기도 오산시 양산동 673-2번지 상가 1층 101호","category":"음료식품 - 제과점"}]},{"lat":"37.196888867","long":"127.02342648","items":[{"name":"깐돌이네","tel":"031-305-1707","addr":"경기도 오산시 양산동 376-2번지 101호","category":"일반휴게음식 - 일반한식"},{"name":"커피더테이블","tel":"070-7760-1382","addr":"경기도 오산시 양산동 376-2번지","category":"일반휴게음식 - 서양음식"}]},{"lat":"37.195825519","long":"127.02411325","items":[{"name":"꼬꼬마루","tel":"","addr":"경기도 오산시 양산동 378-5번지","category":"일반휴게음식 - 스넥"}]},{"lat":"37.195744563","long":"127.02333607","items":[{"name":"꼽발딛고파닭앤날마다좋은술","tel":"031-377-8290","addr":"경기도 오산시 양산동 382-1번지 2층","category":"일반휴게음식 - 일반한식"},{"name":"청반점","tel":"031-377-9270","addr":"경기도 오산시 양산동 382-1번지 경원빌딩 1층","category":"일반휴게음식 - 중국식"},{"name":"커플노래연습장","tel":"031-376-1678","addr":"경기도 오산시 양산동 382-1번지 경원빌딩 지하1층","category":"레저업소 - 노 래 방"}]},{"lat":"37.19563677","long":"127.02130865","items":[{"name":"꽃돼지유통","tel":"031-346-7677","addr":"경기도 오산시 양산동 457-2번지 1동 1층","category":"음료식품 - 정육점"}]},{"lat":"37.195636503","long":"127.02295309","items":[{"name":"나누리","tel":"031-372-2036","addr":"경기도 오산시 양산동 440번지","category":"일반휴게음식 - 서양음식"},{"name":"봉구스밥버거 한신대점","tel":"031-375-6799","addr":"경기도 오산시 양산동 440번지 1층","category":"일반휴게음식 - 스넥"},{"name":"탑노래연습장","tel":"031-375-7117","addr":"경기도 오산시 양산동 440번지","category":"레저업소 - 노 래 방"}]},{"lat":"37.196023806","long":"127.02378667","items":[{"name":"남원순대국","tel":"031-8043-8330","addr":"경기도 오산시 양산동 378-1번지","category":"일반휴게음식 - 일반한식"},{"name":"이모네","tel":"031-372-4339","addr":"경기도 오산시 양산동 378-1번지","category":"일반휴게음식 - 일반한식"}]},{"lat":"37.196077932","long":"127.02342626","items":[{"name":"내가찜한닭","tel":"031-372-2356","addr":"경기도 오산시 양산동 379-1번지","category":"일반휴게음식 - 일반한식"},{"name":"띠아모과자점","tel":"031-372-2215","addr":"경기도 오산시 양산동 379-1번지","category":"음료식품 - 제과점"},{"name":"스토리 PC LAB","tel":"070-9443-8464","addr":"경기도 오산시 양산동 379-1번지 대성빌딩 2층","category":"레저업소 - 기타레져업소"},{"name":"아벡데프리츠","tel":"070-4042-1132","addr":"경기도 오산시 양산동 379-1번지 대성빌딩 1층 102호","category":"일반휴게음식 - 주점"},{"name":"정감포차","tel":"02-1111-1111","addr":"경기도 오산시 양산동 379-1번지 대성빌딩 1층 105호","category":"일반휴게음식 - 일반한식"}]},{"lat":"37.193606658","long":"127.03445202","items":[{"name":"네일플레이스","tel":"031-378-0147","addr":"경기도 오산시 양산동 672-6번지 103호","category":"보건위생 - 피부미용실"},{"name":"소반","tel":"031-377-4095","addr":"경기도 오산시 양산동 672-6번지 101,102호","category":"일반휴게음식 - 일반한식"}]},{"lat":"37.196276321","long":"127.0224802","items":[{"name":"농업회사법인 주식회사 굼벅스","tel":"","addr":"경기도 오산시 양산동 447번지","category":"용역 서비스 - 사무서비스"}]},{"lat":"37.1921377","long":"127.03542","items":[{"name":"누보디자인","tel":"031-268-6442","addr":"경기도 오산시 양산동 677-7번지 2층","category":"건축자재 - 인테리어전문"}]},{"lat":"37.193606798","long":"127.03392266","items":[{"name":"느루찬","tel":"031-8055-7472","addr":"경기도 오산시 양산동 672-3번지","category":"음료식품 - 기타음료식품"}]},{"lat":"37.193022477","long":"127.02822341","items":[{"name":"느림","tel":"031-378-6889","addr":"경기도 오산시 양산동 266번지 1층","category":"일반휴게음식 - 일반한식"}]},{"lat":"37.19002095","long":"127.03278369","items":[{"name":"늘푸른세탁","tel":"031-375-2085","addr":"경기도 오산시 양산동 666번지 늘푸른오스카빌 상가 2층 201호","category":"수리서비스 - 세탁소"}]},{"lat":"37.195364749","long":"127.03017273","items":[{"name":"다비드헤어","tel":"031-372-6200","addr":"경기도 오산시 양산동 669-5번지 엠스퀘어빌딩 101호","category":"보건위생 - 미용원"},{"name":"더레드커피(theRed coffee)","tel":"031-377-5775","addr":"경기도 오산시 양산동 669-5번지 105호","category":"일반휴게음식 - 서양음식"},{"name":"삼성영어캐피타운학원","tel":"031-373-8979","addr":"경기도 오산시 양산동 669-5번지 엠스퀘어빌딩 201호","category":"학원 - 보습학원"},{"name":"양산도미넌트음악학원","tel":"031-376-9876","addr":"경기도 오산시 양산동 669-5번지 엠스퀘어빌딩 302,303,402호","category":"학원 - 예·체능계학원"},{"name":"양산색깔구름미술학원","tel":"031-376-0004","addr":"경기도 오산시 양산동 669-5번지 401호","category":"학원 - 예·체능계학원"},{"name":"양산키즈짐 태권스쿨","tel":"031-378-0314","addr":"경기도 오산시 양산동 669-5번지","category":"학원 - 예·체능계학원"},{"name":"엠키친(M KITCHEN)","tel":"031-373-3133","addr":"경기도 오산시 양산동 669-5번지 엠스퀘어빌딩 1층 107호","category":"일반휴게음식 - 일반한식"},{"name":"예일약국","tel":"031-374-0986","addr":"경기도 오산시 양산동 669-5번지 엠스퀘어빌딩 1층 104호","category":"약국 - 약국"},{"name":"유준상가정의학과의원","tel":"031-377-9922","addr":"경기도 오산시 양산동 669-5번지 엠스퀘어빌딩 306호","category":"의원 - 의원"},{"name":"이엔씨 학원(E&C ACADEMY)","tel":"031-377-3791","addr":"경기도 오산시 양산동 669-5번지 엠스퀘어빌딩 2층 202호","category":"서적문구 - 일반서적"},{"name":"조이블럭","tel":"031-377-1455","addr":"경기도 오산시 양산동 669-5번지 엠스퀘어빌딩 301호","category":"학원 - 기타 교육기관"}]},{"lat":"37.193606504","long":"127.03502643","items":[{"name":"다은텔레콤","tel":"031-378-9407","addr":"경기도 오산시 양산동 673-1번지 1층 101호","category":"사무통신 - 통신기기"},{"name":"백마크리닝","tel":"031-375-2615","addr":"경기도 오산시 양산동 673-1번지 102호","category":"수리서비스 - 세탁소"},{"name":"정다운닭발","tel":"031-372-1060","addr":"경기도 오산시 양산동 673-1번지 103호","category":"일반휴게음식 - 일반한식"}]},{"lat":"37.194798546","long":"127.02289655","items":[{"name":"달보드레","tel":"031-378-8993","addr":"경기도 오산시 양산동 434번지 1층","category":"일반휴게음식 - 일반한식"},{"name":"삼원문구","tel":"031-372-3159","addr":"경기도 오산시 양산동 434번지","category":"서적문구 - 문구용품"},{"name":"우리슈퍼","tel":"031-373-8438","addr":"경기도 오산시 양산동 434번지","category":"유통업 영리 - 슈퍼마켓"},{"name":"코바김밥","tel":"031-372-2376","addr":"경기도 오산시 양산동 434번지 1층 코바즉석김밥","category":"일반휴게음식 - 스넥"}]},{"lat":"37.190191619","long":"127.03481099","items":[{"name":"닭이닭숯불닭갈비","tel":"","addr":"경기도 오산시 양산동 79-1번지 1층","category":"일반휴게음식 - 일반한식"},{"name":"센시빌리티","tel":"031-376-3370","addr":"경기도 오산시 양산동 79-1번지 2층","category":"일반휴게음식 - 서양음식"}]},{"lat":"37.193553772","long":"127.02967651","items":[{"name":"더사랑요양원","tel":"031-377-7211","addr":"경기도 오산시 양산동 256-3번지","category":"기타의료기관 - 기타의료기관 및 기타"}]},{"lat":"37.195798686","long":"127.02297566","items":[{"name":"더좋은식당","tel":"031-373-7555","addr":"경기도 오산시 양산동 441번지 1층","category":"일반휴게음식 - 일반한식"},{"name":"우정노래연습장","tel":"031-372-5174","addr":"경기도 오산시 양산동 441번지","category":"레저업소 - 노 래 방"},{"name":"제우스 당구클럽","tel":"031-374-7429","addr":"경기도 오산시 양산동 441번지 후지빌딩 2층","category":"레저업소 - 당 구 장"}]},{"lat":"37.195744529","long":"127.02352754","items":[{"name":"도담치킨 한신대점","tel":"031-373-6408","addr":"경기도 오산시 양산동 382-7번지 101호","category":"일반휴게음식 - 스넥"}]},{"lat":"37.195158948","long":"127.02297549","items":[{"name":"도스마스(한신대점)","tel":"031-8043-3644","addr":"경기도 오산시 양산동 437번지","category":"일반휴게음식 - 일반한식"},{"name":"이삭","tel":"031-372-3751","addr":"경기도 오산시 양산동 437번지","category":"일반휴게음식 - 일반한식"}]},{"lat":"37.184329637","long":"127.01381696","items":[{"name":"독산산성간이매점","tel":"031-250-0000","addr":"경기도 오산시 양산동 산19-60번지","category":"음료식품 - 기타음료식품"}]},{"lat":"37.192110783","long":"127.03500327","items":[{"name":"라라패션","tel":"031-352-1673","addr":"경기도 오산시 양산동 671-15번지 301호","category":"의류 - 내의판매"},{"name":"현미마을오산점","tel":"031-373-5211","addr":"경기도 오산시 양산동 671-15번지 1층 102호","category":"음료식품 - 기타음료식품"}]},{"lat":"37.189588597","long":"127.03219787","items":[{"name":"라움건축","tel":"","addr":"경기도 오산시 양산동 666번지 늘푸른오스카빌 107동 503호","category":"건축자재 - 인테리어전문"}]},{"lat":"37.194582302","long":"127.0228627","items":[{"name":"레스큐맥스","tel":"070-8780-9119","addr":"경기도 오산시 양산동 419번지 B1층","category":"자동차정비 유지 - 자동차시트·타이어"}]},{"lat":"37.192751397","long":"127.0315909","items":[{"name":"루마프라임","tel":"031-374-1561","addr":"경기도 오산시 양산동 117-14번지 106호","category":"용역 서비스 - 기타용역서비스"}]},{"lat":"37.194996765","long":"127.02295292","items":[{"name":"루비헤어","tel":"031-375-5667","addr":"경기도 오산시 양산동 436번지","category":"보건위생 - 미용원"},{"name":"지에스코리아주식회사","tel":"031-233-0634","addr":"경기도 오산시 양산동 436번지","category":"레져용품 - 스포츠·레져용품"}]},{"lat":"37.192633544","long":"127.03441782","items":[{"name":"리마커블커피로스터스","tel":"031-378-7730","addr":"경기도 오산시 양산동 671-10번지 1층 102호","category":"음료식품 - 기타음료식품"}]},{"lat":"37.195355795","long":"127.02992494","items":[{"name":"리헤어","tel":"031-377-0987","addr":"경기도 오산시 양산동 669-4번지 203호","category":"보건위생 - 미용원"},{"name":"빈티지살롱","tel":"031-377-6799","addr":"경기도 오산시 양산동 669-4번지 1층 2호","category":"의류 - 정장"},{"name":"세븐일레븐오산양산점","tel":"031-1577-0711","addr":"경기도 오산시 양산동 669-4번지 1층 101호","category":"유통업 영리 - 편 의 점"},{"name":"아이팡팡","tel":"070-7581-3541","addr":"경기도 오산시 양산동 669-4번지 효성타운 301호","category":"학원 - 기타 교육기관"},{"name":"야채바구니","tel":"031-377-6799","addr":"경기도 오산시 양산동 669-4번지","category":"음료식품 - 농·축·수산품"},{"name":"우성학원","tel":"031-375-8687","addr":"경기도 오산시 양산동 669-4번지 201호","category":"학원 - 보습학원"},{"name":"크린토피아오산양산점","tel":"031-377-1166","addr":"경기도 오산시 양산동 669-4번지","category":"수리서비스 - 세탁소"},{"name":"훌랄라치킨(양산점)","tel":"031-376-9582","addr":"경기도 오산시 양산동 669-4번지 1층","category":"일반휴게음식 - 스넥"}]},{"lat":"37.196330451","long":"127.02206347","items":[{"name":"몽블랑 루핑","tel":"031-376-5418","addr":"경기도 오산시 양산동 447-5번지","category":"일반휴게음식 - 일반한식"}]},{"lat":"37.195825554","long":"127.02392178","items":[{"name":"몽상","tel":"","addr":"경기도 오산시 양산동 378-4번지","category":"일반휴게음식 - 일반한식"}]},{"lat":"37.196132062","long":"127.02303206","items":[{"name":"미가한식뷔페","tel":"031-377-0301","addr":"경기도 오산시 양산동 379-5번지 1층 2,3,4호","category":"일반휴게음식 - 일반한식"},{"name":"한신철물","tel":"031-376-0978","addr":"경기도 오산시 양산동 379-5번지 현대E마트 112호","category":"기타 - 기계공구"},{"name":"해뜨는집","tel":"031-378-7825","addr":"경기도 오산시 양산동 379-5번지 1층 전체","category":"일반휴게음식 - 일반한식"},{"name":"현대E마트","tel":"031-372-7743","addr":"경기도 오산시 양산동 379-5번지","category":"유통업 영리 - 슈퍼마켓"}]},{"lat":"37.195357106","long":"127.02339228","items":[{"name":"미니스톱오산한신대점","tel":"031-340-4261","addr":"경기도 오산시 양산동 385번지","category":"유통업 영리 - 편 의 점"}]},{"lat":"37.19513185","long":"127.02336969","items":[{"name":"미리내분식","tel":"031-378-0257","addr":"경기도 오산시 양산동 386번지 1층","category":"일반휴게음식 - 스넥"},{"name":"행복한 축산 도.소매","tel":"","addr":"경기도 오산시 양산동 386번지","category":"음료식품 - 정육점"}]},{"lat":"37.193110725","long":"127.03578083","items":[{"name":"미스터코다리","tel":"","addr":"경기도 오산시 양산동 673-8번지 1층","category":"일반휴게음식 - 일반한식"}]},{"lat":"37.195303047","long":"127.02336974","items":[{"name":"밥피씨랩(BOB PC LAB)","tel":"02-2222-2222","addr":"경기도 오산시 양산동 385-1번지","category":"레저업소 - 기타레져업소"}]},{"lat":"37.195663463","long":"127.02336983","items":[{"name":"배꼽","tel":"031-372-6544","addr":"경기도 오산시 양산동 382-8번지","category":"일반휴게음식 - 스넥"},{"name":"배꼽노래방","tel":"031-375-3372","addr":"경기도 오산시 양산동 382-8번지","category":"레저업소 - 노 래 방"}]},{"lat":"37.193606857","long":"127.0336974","items":[{"name":"봉바우봉평막국수","tel":"","addr":"경기도 오산시 양산동 672-1번지 1층","category":"일반휴게음식 - 일반한식"}]},{"lat":"37.191660149","long":"127.03541979","items":[{"name":"브런치그램","tel":"031-377-3408","addr":"경기도 오산시 양산동 671-19번지 1층","category":"일반휴게음식 - 서양음식"}]},{"lat":"37.195915339","long":"127.02564509","items":[{"name":"뿌리유치원[아이행복]","tel":"031-374-9495","addr":"경기도 오산시 양산동 359-3번지","category":"학원 - 유치원"}]},{"lat":"37.191579034","long":"127.0354986","items":[{"name":"산짬뽕","tel":"031-374-6242","addr":"경기도 오산시 양산동 671-20번지","category":"일반휴게음식 - 중국식"}]},{"lat":"37.19054349","long":"127.03303167","items":[{"name":"색동어린이집[아이행복]","tel":"031-377-0374","addr":"경기도 오산시 양산동 666번지 늘푸른오스카빌 103동 103호","category":"학원 - 유아원"}]},{"lat":"37.191255212","long":"127.03342614","items":[{"name":"성호휘트니스","tel":"031-378-2291","addr":"경기도 오산시 양산동 666번지 늘푸른오스카빌 101동 104호","category":"회원제형태 - 레져업소"}]},{"lat":"37.184996684","long":"127.01022459","items":[{"name":"세마쌈밥앤드커피","tel":"031-375-2266","addr":"경기도 오산시 양산동 546번지","category":"일반휴게음식 - 일반한식"},{"name":"솔마루숯불갈비","tel":"","addr":"경기도 오산시 양산동 546번지 1층","category":"일반휴게음식 - 일반한식"},{"name":"이연건축사무소","tel":"031-372-6386","addr":"경기도 오산시 양산동 546번지","category":"용역 서비스 - 사무서비스"}]},{"lat":"37.186528331","long":"127.01200412","items":[{"name":"세마오리농원","tel":"031-375-5299","addr":"경기도 오산시 양산동 539번지","category":"일반휴게음식 - 일반한식"}]},{"lat":"37.195221716","long":"127.02469877","items":[{"name":"세븐일레븐오산한신대점","tel":"031-1577-0711","addr":"경기도 오산시 양산동 306-5번지 1층","category":"유통업 영리 - 편 의 점"}]},{"lat":"37.193245881","long":"127.03578089","items":[{"name":"소모코리아","tel":"070-4007-7271","addr":"경기도 오산시 양산동 673-7번지 상가 1층","category":"건축자재 - 목재·석재·철물"}]},{"lat":"37.196454983","long":"127.03027449","items":[{"name":"수려한","tel":"02-1588-1654","addr":"경기도 오산시 양산동 667-1번지 오산세마효성백년가약 102동 301호","category":"회원제형태 - 기타3"}]},{"lat":"37.193219401","long":"127.03373103","items":[{"name":"싱글오커피","tel":"031-373-6600","addr":"경기도 오산시 양산동 671-5번지 1층 일부","category":"일반휴게음식 - 서양음식"}]},{"lat":"37.194438171","long":"127.02264867","items":[{"name":"씨유한신대점","tel":"070-8817-5032","addr":"경기도 오산시 양산동 417 외 1필지","category":"유통업 영리 - 편 의 점"}]},{"lat":"37.181302587","long":"127.00642924","items":[{"name":"알로하","tel":"031-376-1118","addr":"경기도 오산시 양산동 609-3번지 1층","category":"일반휴게음식 - 서양음식"}]},{"lat":"37.196744648","long":"127.02373056","items":[{"name":"양산골주막","tel":"031-377-7371","addr":"경기도 오산시 양산동 375번지","category":"일반휴게음식 - 일반한식"},{"name":"진영빌딩(양산사우나)","tel":"031-373-7555","addr":"경기도 오산시 양산동 375번지","category":"보건위생 - 사우나"},{"name":"진영빌딩(토담골)","tel":"031-373-7555","addr":"경기도 오산시 양산동 375번지","category":"일반휴게음식 - 일반한식"}]},{"lat":"37.195690005","long":"127.02602797","items":[{"name":"양산에너지","tel":"031-241-0090","addr":"경기도 오산시 양산동 310-1번지","category":"연료판매점 - 유류판매"}]},{"lat":"37.196887044","long":"127.03211059","items":[{"name":"양산초등학교","tel":"031-378-5861","addr":"경기도 오산시 양산동 667-3번지 양산초등학교","category":"학원 - 초중고교육기관"},{"name":"양산초등학교병설유치원[아이행복]","tel":"031-378-5862","addr":"경기도 오산시 양산동 667-3번지 양산초등학교","category":"학원 - 유치원"}]},{"lat":"37.195771684","long":"127.0228067","items":[{"name":"양산카공업사","tel":"031-8059-1744","addr":"경기도 오산시 양산동 442-1번지","category":"자동차정비 유지 - 자동차부품"}]},{"lat":"37.1946364","long":"127.02264872","items":[{"name":"영광교역","tel":"031-375-5309","addr":"경기도 오산시 양산동 420번지 201호","category":"음료식품 - 농·축·수산품"},{"name":"우리반점","tel":"031-372-7551","addr":"경기도 오산시 양산동 420번지","category":"일반휴게음식 - 중국식"}]},{"lat":"37.193606571","long":"127.03477864","items":[{"name":"예원헤어샵","tel":"031-374-8259","addr":"경기도 오산시 양산동 672-8번지 A동 102호","category":"보건위생 - 미용원"},{"name":"효림돈가스&덮밥","tel":"031-377-2166","addr":"경기도 오산시 양산동 672-8번지 103호","category":"일반휴게음식 - 스넥"}]},{"lat":"37.194526455","long":"127.03155779","items":[{"name":"오산시육아종합지원센터[아이행복]","tel":"031-3745-563","addr":"경기도 오산시 양산동 670-2번지","category":"학원 - 유아원"}]},{"lat":"37.190066053","long":"127.03258098","items":[{"name":"올케어(ALL-care)","tel":"031-323-6016","addr":"경기도 오산시 양산동 666번지 늘푸른오스카빌 105동 601호","category":"용역 서비스 - 종합용역"}]},{"lat":"37.195492262","long":"127.02339231","items":[{"name":"요거프레소 한신대점","tel":"031-373-7147","addr":"경기도 오산시 양산동 382-3번지 1층","category":"일반휴게음식 - 서양음식"}]},{"lat":"37.193381655","long":"127.03347205","items":[{"name":"워시피플셀프빨래방오산시양산동점","tel":"","addr":"경기도 오산시 양산동 671-3번지 102호","category":"수리서비스 - 세탁소"},{"name":"이마트24오산양산점","tel":"","addr":"경기도 오산시 양산동 671-3번지 101호","category":"유통업 영리 - 편 의 점"}]},{"lat":"37.193606613","long":"127.03462096","items":[{"name":"육칠이-칠 (672-7)","tel":"031-377-4253","addr":"경기도 오산시 양산동 672-7번지 1층","category":"일반휴게음식 - 일반한식"}]},{"lat":"37.191885462","long":"127.03522842","items":[{"name":"은비찬","tel":"070-7359-0017","addr":"경기도 오산시 양산동 671-17번지 1층","category":"음료식품 - 기타음료식품"}]},{"lat":"37.195582633","long":"127.0217817","items":[{"name":"이마트24 오산한신대점","tel":"","addr":"경기도 오산시 양산동 443-2번지 1층","category":"유통업 영리 - 편 의 점"}]},{"lat":"37.192300053","long":"127.03481188","items":[{"name":"전진카센타","tel":"031-239-3173","addr":"경기도 오산시 양산동 671-13번지","category":"자동차정비 유지 - 자동차정비"}]},{"lat":"37.194501131","long":"127.0233132","items":[{"name":"제일복사","tel":"031-372-3318","addr":"경기도 오산시 양산동 398-6번지","category":"용역 서비스 - 사무서비스"},{"name":"제일식당","tel":"031-372-9412","addr":"경기도 오산시 양산동 398-6번지","category":"일반휴게음식 - 일반한식"},{"name":"해우리","tel":"070-8232-2031","addr":"경기도 오산시 양산동 398-6번지","category":"일반휴게음식 - 주점"}]},{"lat":"37.194248335","long":"127.02606132","items":[{"name":"주식회사큐텍","tel":"070-8291-6246","addr":"경기도 오산시 양산동 291번지","category":"전기제품 - 기타전기제품"}]},{"lat":"37.193300532","long":"127.03358465","items":[{"name":"지성타일","tel":"031-378-6317","addr":"경기도 오산시 양산동 671-4번지 1층","category":"용역 서비스 - 기타용역서비스"}]},{"lat":"37.195771762","long":"127.02233364","items":[{"name":"진현가든","tel":"031-372-9971","addr":"경기도 오산시 양산동 444-1번지","category":"일반휴게음식 - 일반한식"}]},{"lat":"37.193887445","long":"127.02837012","items":[{"name":"진현농원","tel":"031-372-3813","addr":"경기도 오산시 양산동 272-7번지","category":"음료식품 - 농·축·수산품"}]},{"lat":"37.193579371","long":"127.03539809","items":[{"name":"처갓집양념치킨 세마점","tel":"031-373-9212","addr":"경기도 오산시 양산동 673-3번지 상가동 102호","category":"일반휴게음식 - 스넥"},{"name":"컬러하우스","tel":"031-378-2104","addr":"경기도 오산시 양산동 673-3번지 1층 103호","category":"보건위생 - 미용원"}]},{"lat":"37.195834428","long":"127.02467642","items":[{"name":"치어스오산한신대점","tel":"031-375-3303","addr":"경기도 오산시 양산동 307-2번지 1층","category":"일반휴게음식 - 주점"}]},{"lat":"37.191777306","long":"127.03534101","items":[{"name":"카&제이","tel":"031-378-3177","addr":"경기도 오산시 양산동 671-18번지 1층","category":"자동차정비 유지 - 자동차부품"},{"name":"카&제이","tel":"031-378-3177","addr":"경기도 오산시 양산동 671-18번지 1층","category":"자동차정비 유지 - 자동차부품"}]},{"lat":"37.196581626","long":"127.02803312","items":[{"name":"카토리존 (CARTORY ZONE)","tel":"031-000-0000","addr":"경기도 오산시 양산동 321번지","category":"자동차정비 유지 - 자동차부품"}]},{"lat":"37.196500248","long":"127.02933965","items":[{"name":"케이씨티","tel":"031-372-8409","addr":"경기도 오산시 양산동 246-1번지","category":"기타 - 기계공구"}]},{"lat":"37.19252538","long":"127.03456419","items":[{"name":"풍년떡방앗간","tel":"","addr":"경기도 오산시 양산동 671-11번지 1층 101호","category":"음료식품 - 제과점"}]},{"lat":"37.193606753","long":"127.0340916","items":[{"name":"프소미","tel":"","addr":"경기도 오산시 양산동 672-4번지 101,102호","category":"음료식품 - 제과점"}]},{"lat":"37.192771262","long":"127.02255813","items":[{"name":"하이팜텍주식회사","tel":"031-378-9063","addr":"경기도 오산시 양산동 411한신대학교창업보육센타9214","category":"기타의료기관 - 기타의료기관 및 기타"},{"name":"한신대학교","tel":"031-379-0075","addr":"경기도 오산시 양산동 411번지","category":"자동차정비 유지 - 주차장"},{"name":"한신대학교","tel":"031-379-0075","addr":"경기도 오산시 양산동 411번지","category":"기타 - 비영리/대상"},{"name":"한신대학교","tel":"031-379-0075","addr":"경기도 오산시 양산동 411","category":"학원 - 대학등록금"},{"name":"한신대학우체국","tel":"031-372-3325","addr":"경기도 오산시 양산동 411번지","category":"용역 서비스 - 공공요금대행서비스/소"}]},{"lat":"37.186222","long":"127.01170001","items":[{"name":"한들주식회사","tel":"031-372-4511","addr":"경기도 오산시 양산동 540-2번지","category":"음료식품 - 기타음료식품"}]},{"lat":"37.194383708","long":"127.02492379","items":[{"name":"한신식당","tel":"031-372-3727","addr":"경기도 오산시 양산동 294-26번지","category":"일반휴게음식 - 일반한식"}]},{"lat":"37.193743175","long":"127.02884312","items":[{"name":"행복한콩박사","tel":"031-372-1232","addr":"경기도 오산시 양산동 259-1번지 1층","category":"일반휴게음식 - 일반한식"}]},{"lat":"37.196131787","long":"127.0245864","items":[{"name":"홍스커피","tel":"031-373-6096","addr":"경기도 오산시 양산동 362-2번지 1층 ,102,103호","category":"일반휴게음식 - 서양음식"}]},{"lat":"37.196554001","long":"127.03069127","items":[{"name":"효성자연숲어린이집[아이행복]","tel":"031-375-5567","addr":"경기도 오산시 양산동 667-1번지 오산세마효성백년가약 관리동","category":"학원 - 유아원"}]}]