[{"lat":"37.526560384","long":"126.78034784","imageIndex":7,"items":[{"name":"(주) 맘스","tel":"02-1111-1111","addr":"경기도 부천시 내동 212-34번지 이소빌딩 4층 1호","indutype":"음료식품 - 농·축·수산품","category":"food"},{"name":"(주)바다드림","tel":"032-676-0870","addr":"경기도 부천시 내동 212-34번지 이소빌딩 3층","indutype":"음료식품 - 농·축·수산품","category":"food"},{"name":"(주)태강씨푸드","tel":"032-672-5081","addr":"경기도 부천시 내동 212-34번지 4층 3호","indutype":"음료식품 - 농·축·수산품","category":"food"},{"name":"주식회사 마음들","tel":"032-574-9394","addr":"경기도 부천시 내동 212-34번지 2층 2호","indutype":"음료식품 - 농·축·수산품","category":"food"}]},{"lat":"37.516509537","long":"126.77779871","imageIndex":7,"items":[{"name":"구내매점","tel":"032-678-1991","addr":"경기도 부천시 내동 104-3번지 1층","indutype":"음료식품 - 기타음료식품","category":"food"}]},{"lat":"37.52315127","long":"126.78335571","imageIndex":7,"items":[{"name":"구스쿠커","tel":"031-000-0000","addr":"경기도 부천시 내동 243-3번지 5층","indutype":"음료식품 - 기타음료식품","category":"food"}]},{"lat":"37.520396744","long":"126.77987973","imageIndex":7,"items":[{"name":"대성유통","tel":"070-8252-8552","addr":"경기도 부천시 내동 160번지 1층","indutype":"음료식품 - 농·축·수산품","category":"food"}]},{"lat":"37.522757598","long":"126.78001976","imageIndex":7,"items":[{"name":"더바른푸드","tel":"032-244-5254","addr":"경기도 부천시 내동 169-5번지 2층 일부","indutype":"음료식품 - 기타음료식품","category":"food"}]},{"lat":"37.521757613","long":"126.7800793","imageIndex":7,"items":[{"name":"더버터랩(주)","tel":"031-000-0000","addr":"경기도 부천시 내동 167-2번지 3층 일부호","indutype":"음료식품 - 기타음료식품","category":"food"}]},{"lat":"37.519233817","long":"126.78435131","imageIndex":7,"items":[{"name":"더존술","tel":"032-674-5452","addr":"경기도 부천시 내동 271-2번지","indutype":"음료식품 - 기타음료식품","category":"food"}]},{"lat":"37.517454681","long":"126.7726605","imageIndex":7,"items":[{"name":"도매유통","tel":"","addr":"경기도 부천시 내동 32-6번지 1층 일부","indutype":"음료식품 - 농·축·수산품","category":"food"},{"name":"장흥축산","tel":"070-7797-7385","addr":"경기도 부천시 내동 32-6번지","indutype":"음료식품 - 정육점","category":"food"}]},{"lat":"37.517178387","long":"126.774211","imageIndex":7,"items":[{"name":"비엠푸드","tel":"","addr":"경기도 부천시 내동 34-2번지","indutype":"음료식품 - 기타음료식품","category":"food"}]},{"lat":"37.517177861","long":"126.77393953","imageIndex":7,"items":[{"name":"사회적협동조합 행복나눔","tel":"070-7518-7362","addr":"경기도 부천시 내동 34-13번지 1층","indutype":"음료식품 - 미곡상","category":"food"}]},{"lat":"37.520676227","long":"126.78479958","imageIndex":7,"items":[{"name":"새마을","tel":"032-243-6963","addr":"경기도 부천시 내동 301-2번지 그랜드타운 1층 101호","indutype":"음료식품 - 기타음료식품","category":"food"}]},{"lat":"37.527369113","long":"126.77449666","imageIndex":7,"items":[{"name":"서호유통","tel":"032-216-4415","addr":"경기도 부천시 내동 222-11번지 부천생활용품도매단지 C동 330호","indutype":"음료식품 - 기타음료식품","category":"food"}]},{"lat":"37.517733766","long":"126.77254652","imageIndex":7,"items":[{"name":"어비아이스","tel":"031-879-4676","addr":"경기도 부천시 내동 32번지 1층","indutype":"음료식품 - 기타음료식품","category":"food"}]},{"lat":"37.518120703","long":"126.77229648","imageIndex":7,"items":[{"name":"영진축산유통","tel":"032-679-6734","addr":"경기도 부천시 내동 31-28번지 효마을타운 상가 101동 102호","indutype":"음료식품 - 정육점","category":"food"}]},{"lat":"37.521317644","long":"126.78088376","imageIndex":7,"items":[{"name":"온누리식품","tel":"032-671-1750","addr":"경기도 부천시 내동 182-18,13","indutype":"음료식품 - 기타음료식품","category":"food"}]},{"lat":"37.520809978","long":"126.78896197","imageIndex":7,"items":[{"name":"우리축산물판매장","tel":"070-7310-8448","addr":"경기도 부천시 내동 354번지 1층 5-1호","indutype":"음료식품 - 정육점","category":"food"}]},{"lat":"37.521732854","long":"126.79110863","imageIndex":7,"items":[{"name":"우일식품","tel":"032-673-8825","addr":"경기도 부천시 내동 377-5번지 대보아트빌 3동 101호","indutype":"음료식품 - 정육점","category":"food"}]},{"lat":"37.51872845","long":"126.78391163","imageIndex":7,"items":[{"name":"제이어스(JUS)","tel":"070-4641-6841","addr":"경기도 부천시 내동 267-1번지 2층","indutype":"음료식품 - 기타음료식품","category":"food"}]},{"lat":"37.517425948","long":"126.78118938","imageIndex":7,"items":[{"name":"주식회사 동원미트","tel":"032-673-6955","addr":"경기도 부천시 내동 201-1번지 지층","indutype":"음료식품 - 농·축·수산품","category":"food"}]},{"lat":"37.517491448","long":"126.77303366","imageIndex":7,"items":[{"name":"찬","tel":"070-8886-2670","addr":"경기도 부천시 내동 32-4번지 JP제니스 3동 101호","indutype":"음료식품 - 기타음료식품","category":"food"}]},{"lat":"37.518260813","long":"126.77485246","imageIndex":7,"items":[{"name":"챨리제과","tel":"032-674-5686","addr":"경기도 부천시 내동 27-8번지 1층","indutype":"음료식품 - 제과점","category":"food"}]},{"lat":"37.527006043","long":"126.78257514","imageIndex":7,"items":[{"name":"코사마트","tel":"032-683-8870","addr":"경기도 부천시 내동 99-2번지","indutype":"음료식품 - 기타음료식품","category":"food"}]},{"lat":"37.523074906","long":"126.78591251","imageIndex":7,"items":[{"name":"태일유통","tel":"032-252-9875","addr":"경기도 부천시 내동 289-5번지 성진그린타운 6동 1층 102호","indutype":"음료식품 - 기타음료식품","category":"food"}]},{"lat":"37.517179568","long":"126.77482181","imageIndex":7,"items":[{"name":"현대식육백화점","tel":"032-679-4624","addr":"경기도 부천시 내동 54번지 1층","indutype":"음료식품 - 정육점","category":"food"}]},{"lat":"37.517177093","long":"126.77354364","imageIndex":7,"items":[{"name":"형제푸드","tel":"032-674-1280","addr":"경기도 부천시 내동 33-5번지 1층","indutype":"음료식품 - 정육점","category":"food"}]},{"lat":"37.519815482","long":"126.78221169","imageIndex":7,"items":[{"name":"힐링라이프","tel":"02-3411-8878","addr":"경기도 부천시 내동 216-4번지 2층","indutype":"음료식품 - 기타음료식품","category":"food"}]}]