[{"lat":"37.725154565","long":"126.8425608","imageIndex":7,"items":[{"name":"대창DC마트","tel":"031-962-8631","addr":"경기도 고양시 덕양구 내유동 307-11번지","indutype":"유통업 영리 - 슈퍼마켓","category":"mart"}]},{"lat":"37.71606557","long":"126.85062154","imageIndex":7,"items":[{"name":"연수마트","tel":"031-969-0660","addr":"경기도 고양시 덕양구 내유동 433-3번지 광산쉐르빌3차","indutype":"유통업 영리 - 슈퍼마켓","category":"mart"}]},{"lat":"37.721981023","long":"126.84767174","imageIndex":7,"items":[{"name":"원월드주식회사(ONE WORLD Co.,Ltd.)","tel":"031-964-5690","addr":"경기도 고양시 덕양구 내유동","indutype":"유통업 영리 - 슈퍼마켓","category":"mart"}]},{"lat":"37.725072729","long":"126.84875421","imageIndex":7,"items":[{"name":"킹스슈퍼","tel":"031-971-4711","addr":"경기도 고양시 덕양구 내유동","indutype":"유통업 영리 - 슈퍼마켓","category":"mart"}]},{"lat":"37.725515962","long":"126.84330865","imageIndex":7,"items":[{"name":"홈런토토방","tel":"031-963-1787","addr":"경기도 고양시 덕양구 내유동 676-19번지","indutype":"유통업 영리 - 슈퍼마켓","category":"mart"}]}]