[{"lat":"37.226106437","long":"127.08980159","items":[{"name":"(주)아미테크","tel":"031-217-4554","addr":"경기도 용인시 기흥구 농서동 4-2번지","category":"기타 - 기계공구"}]},{"lat":"37.222609163","long":"127.09149893","items":[{"name":"(주)에이앤케이에이엠씨","tel":"02-508-5758","addr":"경기도 용인시 기흥구 농서동 32-2번지 지하 1층 25호","category":"회원제형태 - 기타4"}]},{"lat":"37.234462949","long":"127.0842781","items":[{"name":"(주)피와이언홀딩스/키오스크푸드점","tel":"031-209-5692","addr":"경기도 용인시 기흥구 농서동 산24번지 외36필지","category":"일반휴게음식 - 스넥"},{"name":"강북삼성기흥치과의원","tel":"031-209-7148","addr":"경기도 용인시 기흥구 농서동 산24번지","category":"의원 - 치과의원"},{"name":"경보석악세사리","tel":"031-283-8452","addr":"경기도 용인시 기흥구 농서동 산24번지","category":"신변잡화 - 액세서리"},{"name":"굿데이마트 (GOODAY MART)","tel":"031-8000-4177","addr":"경기도 용인시 기흥구 농서동 산24번지 기흥캠퍼스 SB5","category":"유통업 영리 - 슈퍼마켓"},{"name":"다래약국","tel":"031-209-2117","addr":"경기도 용인시 기흥구 농서동 산24번지 삼성전자(주)기흥캠퍼스 세미콘프라자 3층","category":"약국 - 약국"},{"name":"던킨도너츠 기흥삼성전자점","tel":"031-8000-1654","addr":"경기도 용인시 기흥구 농서동 산24번지 1층","category":"일반휴게음식 - 서양음식"},{"name":"베스킨라빈스 기흥삼성전자K1","tel":"031-8000-3131","addr":"경기도 용인시 기흥구 농서동 산24번지 1층 외47필지 GATE 1","category":"음료식품 - 제과점"},{"name":"베스킨라빈스 기흥삼성전자K2점","tel":"031-8000-1653","addr":"경기도 용인시 기흥구 농서동 산24번지","category":"음료식품 - 제과점"},{"name":"베스킨라빈스기흥삼성전자K1","tel":"031-8000-3131","addr":"경기도 용인시 기흥구 농서동 산24번지 1층 외 47필지 GATE 1","category":"음료식품 - 제과점"},{"name":"삼성웰스토리(주) 6라인Cafeteria","tel":"031-8096-0635","addr":"경기도 용인시 기흥구 농서동 산24번지 삼성전자(주)기흥캠퍼스","category":"일반휴게음식 - 위탁급식업"},{"name":"삼성웰스토리(주) SR1 Cafeteria","tel":"031-8096-0635","addr":"경기도 용인시 기흥구 농서동 산24번지 삼성전자(주)기흥캠퍼스","category":"일반휴게음식 - 위탁급식업"},{"name":"삼성웰스토리(주) SR3 Cafeteria","tel":"031-8096-0635","addr":"경기도 용인시 기흥구 농서동 산24번지 삼성전자(주)기흥캠퍼스","category":"일반휴게음식 - 위탁급식업"},{"name":"삼성웰스토리(주) SR5 Cafeteria","tel":"031-8096-0635","addr":"경기도 용인시 기흥구 농서동 산24번지","category":"일반휴게음식 - 위탁급식업"},{"name":"삼성웰스토리(주) SR6 Cafeteria","tel":"031-8096-0635","addr":"경기도 용인시 기흥구 농서동 산24번지 삼성전자(주)기흥캠퍼스","category":"일반휴게음식 - 위탁급식업"},{"name":"삼성웰스토리(주) 남자기숙사 Cafeteria","tel":"031-8096-0635","addr":"경기도 용인시 기흥구 농서동 산24번지 삼성전자(주)기흥캠퍼스","category":"일반휴게음식 - 위탁급식업"},{"name":"삼성웰스토리(주) 여자기숙사 Cafeteria","tel":"031-8096-0635","addr":"경기도 용인시 기흥구 농서동 산24번지","category":"일반휴게음식 - 위탁급식업"},{"name":"삼성전자OK한의원","tel":"031-209-8080","addr":"경기도 용인시 기흥구 농서동 산24번지","category":"의원 - 한의원"},{"name":"세미문고","tel":"031-281-6042","addr":"경기도 용인시 기흥구 농서동 산24번지 삼성전자기흥사업장내세미콘프라자 3층","category":"서적문구 - 일반서적"},{"name":"스타일리쉬(stylish)","tel":"031-209-2706","addr":"경기도 용인시 기흥구 농서동 산24번지 세미콘프라자 3층","category":"의류 - 정장"},{"name":"엔젤리너스","tel":"031-8000-1702","addr":"경기도 용인시 기흥구 농서동 산24번지 삼성반도체기흥점 SR3동 1층 면회실","category":"일반휴게음식 - 서양음식"},{"name":"엠디스페이스","tel":"031-209-8751","addr":"경기도 용인시 기흥구 농서동 산24번지 3층일부호 삼성전자기흥캠퍼스세미콘프라자(57)","category":"보건위생 - 피부미용실"},{"name":"이디야 기흥삼성점","tel":"","addr":"경기도 용인시 기흥구 농서동 산24번지 삼성전자(주) 와이즈뷰홀 (79)1층일부","category":"일반휴게음식 - 서양음식"},{"name":"제이허브","tel":"031-209-5868","addr":"경기도 용인시 기흥구 농서동 산24번지 세미콘프라자 3층 쇼핑센터","category":"음료식품 - 기타음료식품"},{"name":"카페아리에스(Cafe Aries)","tel":"031-8000-4177","addr":"경기도 용인시 기흥구 농서동 산24번지 SR5식당동 1층","category":"일반휴게음식 - 서양음식"},{"name":"케이비젼안경 기흥점","tel":"031-209-9167","addr":"경기도 용인시 기흥구 농서동 산24번지","category":"보건위생 - 안경"},{"name":"코나헤이븐 (기흥2호점)","tel":"031-8000-7308","addr":"경기도 용인시 기흥구 농서동 산24번지 삼성전자 내","category":"일반휴게음식 - 서양음식"},{"name":"크린에이드(삼성점)","tel":"","addr":"경기도 용인시 기흥구 농서동 산24번지 삼성전자(주)기흥캠퍼스","category":"수리서비스 - 세탁소"},{"name":"태산유통","tel":"031-281-9222","addr":"경기도 용인시 기흥구 농서동 산24번지","category":"전기제품 - 가전제품"},{"name":"파리바게뜨 기흥삼성전자점","tel":"031-8000-1703","addr":"경기도 용인시 기흥구 농서동 산24번지 삼성전자내 K2 SR3 지하1층","category":"음료식품 - 제과점"}]},{"lat":"37.234605631","long":"127.0724683","items":[{"name":"1987락짬뽕","tel":"031-233-9636","addr":"경기도 용인시 기흥구 농서동 430번지 102호","category":"일반휴게음식 - 중국식"},{"name":"깡통집","tel":"070-4100-0107","addr":"경기도 용인시 기흥구 농서동 430번지 101호","category":"일반휴게음식 - 일반한식"}]},{"lat":"37.228243172","long":"127.07441183","items":[{"name":"65도씨","tel":"031-203-3779","addr":"경기도 용인시 기흥구 농서동 279-1번지 삼성가든 가동 103호","category":"일반휴게음식 - 서양음식"},{"name":"명동찌개","tel":"031-202-3294","addr":"경기도 용인시 기흥구 농서동 279-1번지 1층","category":"일반휴게음식 - 일반한식"},{"name":"아이홀릭안경원","tel":"031-205-0265","addr":"경기도 용인시 기흥구 농서동 279-1번지","category":"보건위생 - 안경"},{"name":"압구정김밥","tel":"031-204-0283","addr":"경기도 용인시 기흥구 농서동 279-1번지","category":"일반휴게음식 - 일반한식"},{"name":"왕발이스넥","tel":"031-204-1733","addr":"경기도 용인시 기흥구 농서동 279-1번지","category":"일반휴게음식 - 일반한식"},{"name":"이마트24 삼성반도체후문점","tel":"031-205-3070","addr":"경기도 용인시 기흥구 농서동 279-1번지","category":"유통업 영리 - 슈퍼마켓"},{"name":"쥬씨(삼성반도체점)","tel":"031-204-5652","addr":"경기도 용인시 기흥구 농서동 279-1번지 삼성가든 가동 107호","category":"일반휴게음식 - 서양음식"},{"name":"청년국물떡볶이","tel":"031-205-9993","addr":"경기도 용인시 기흥구 농서동 279-1번지 삼성가든 가동 103호","category":"일반휴게음식 - 일반한식"}]},{"lat":"37.232688399","long":"127.06902957","items":[{"name":"GL인테리어","tel":"031-222-4420","addr":"경기도 용인시 기흥구 농서동 406번지","category":"건축자재 - 인테리어전문"},{"name":"롬","tel":"","addr":"경기도 용인시 기흥구 농서동 406번지","category":"문화.취미 - 민예·공예품"}]},{"lat":"37.224824162","long":"127.08088746","items":[{"name":"GS25기흥농서점","tel":"","addr":"경기도 용인시 기흥구 농서동 149-4번지","category":"유통업 영리 - 편 의 점"},{"name":"차이나","tel":"031-285-3523","addr":"경기도 용인시 기흥구 농서동 149-4번지 지하1층","category":"일반휴게음식 - 중국식"}]},{"lat":"37.230192054","long":"127.06988378","items":[{"name":"GS25서천스마트점","tel":"","addr":"경기도 용인시 기흥구 농서동 418-1번지","category":"유통업 영리 - 편 의 점"},{"name":"라일라 (LAYLA)어학원","tel":"031-548-0031","addr":"경기도 용인시 기흥구 농서동 418-1번지 304호","category":"학원 - 외국어학원"},{"name":"몽구비어(기흥점)","tel":"02-0000-0000","addr":"경기도 용인시 기흥구 농서동 418-1번지 외1필지 스마트밸리 1층 108호","category":"일반휴게음식 - 일반한식"},{"name":"사랑돌봄산후조리원","tel":"031-548-2705","addr":"경기도 용인시 기흥구 농서동 418-1번지 5층","category":"기타의료기관 - 산후조리원"},{"name":"영에스테틱","tel":"031-205-2872","addr":"경기도 용인시 기흥구 농서동 418-1번지 3층 302호,303호","category":"보건위생 - 피부미용실"},{"name":"이모분식","tel":"031-204-8733","addr":"경기도 용인시 기흥구 농서동 418-1번지 1층 112호","category":"일반휴게음식 - 일반한식"},{"name":"조선화로집 서천점","tel":"031-203-9393","addr":"경기도 용인시 기흥구 농서동 418-1번지 2층","category":"일반휴게음식 - 일반한식"}]},{"lat":"37.233551745","long":"127.07191515","items":[{"name":"GS25서천타운점","tel":"02-2006-2485","addr":"경기도 용인시 기흥구 농서동 438-5번지 1층","category":"유통업 영리 - 편 의 점"}]},{"lat":"37.235661702","long":"127.06922374","items":[{"name":"GS25용인서천마을점","tel":"080-555-2525","addr":"경기도 용인시 기흥구 농서동 395번지 서천휴먼시아 상가동104호(농서동310-5,0번지","category":"유통업 영리 - 편 의 점"},{"name":"고향농산","tel":"031-271-4119","addr":"경기도 용인시 기흥구 농서동 395번지 서천마을3단지","category":"음료식품 - 농·축·수산품"},{"name":"씨유용인서천마을점","tel":"080-080-3663","addr":"경기도 용인시 기흥구 농서동 395번지 서천마을 휴먼시아 제나상가동 1층 102호","category":"유통업 영리 - 편 의 점"},{"name":"엄's김밥","tel":"031-205-4310","addr":"경기도 용인시 기흥구 농서동 395번지 서천마을휴먼시아 101호","category":"일반휴게음식 - 스넥"},{"name":"엄마집밥","tel":"031-203-5066","addr":"경기도 용인시 기흥구 농서동 395번지 서천마을휴먼시아3단지 1층 102호","category":"일반휴게음식 - 일반한식"},{"name":"올가스킨케어","tel":"031-275-7105","addr":"경기도 용인시 기흥구 농서동 395번지 101호 서천휴먼시아나상가","category":"보건위생 - 화장품"},{"name":"이금헤어","tel":"031-203-9780","addr":"경기도 용인시 기흥구 농서동 395 서천마을휴먼시아3단지가상가동 101","category":"보건위생 - 미용원"},{"name":"주식회사 티아이에프","tel":"031-206-1177","addr":"경기도 용인시 기흥구 농서동 395번지 서천마을휴먼시아 가상가동 201호","category":"건축자재 - 인테리어전문"},{"name":"피아노 클래식","tel":"","addr":"경기도 용인시 기흥구 농서동 395번지 서천마을휴먼시아 310동 202호","category":"보건위생 - 기타대인서비스"},{"name":"하나코스메틱","tel":"070-8238-1387","addr":"경기도 용인시 기흥구 농서동 395번지 서천마을3단지","category":"회원제형태 - 기타1"}]},{"lat":"37.232634009","long":"127.06961549","items":[{"name":"JYP코리아","tel":"031-1800-7683","addr":"경기도 용인시 기흥구 농서동 406-3번지 101호","category":"자동차정비 유지 - 카인테리어"}]},{"lat":"37.22310619","long":"127.08952773","items":[{"name":"TP기흥삼성점","tel":"031-374-5595","addr":"경기도 용인시 기흥구 농서동 42-3번지","category":"자동차정비 유지 - 자동차시트·타이어"},{"name":"한마음건설","tel":"031-282-0308","addr":"경기도 용인시 기흥구 농서동 42-3번지 203호","category":"건축자재 - 인테리어전문"}]},{"lat":"37.233551076","long":"127.07305331","items":[{"name":"강미용실","tel":"031-205-9915","addr":"경기도 용인시 기흥구 농서동 447-5번지 101호","category":"보건위생 - 미용원"},{"name":"찜닭집","tel":"031-205-9915","addr":"경기도 용인시 기흥구 농서동 447-5번지 102호","category":"일반휴게음식 - 일반한식"}]},{"lat":"37.229940107","long":"127.06927507","items":[{"name":"갤럭시노래연습장","tel":"031-205-8734","addr":"경기도 용인시 기흥구 농서동 416번지 203,204호","category":"레저업소 - 노 래 방"},{"name":"소고기꾼","tel":"031-205-4004","addr":"경기도 용인시 기흥구 농서동 416번지 102호","category":"일반휴게음식 - 일반한식"},{"name":"우리종합개발 주식회사","tel":"031-237-1027","addr":"경기도 용인시 기흥구 농서동 416번지 1층","category":"자동차정비 유지 - 주차장"},{"name":"포차(POCHA)","tel":"031-203-5851","addr":"경기도 용인시 기흥구 농서동 416번지 1층 104호","category":"일반휴게음식 - 일반한식"},{"name":"힐링","tel":"","addr":"경기도 용인시 기흥구 농서동 416번지 드림갤럭시타워 2층 201호,202호","category":"보건위생 - 미용재료"}]},{"lat":"37.225130529","long":"127.08086524","items":[{"name":"관악장","tel":"031-693-5798","addr":"경기도 용인시 기흥구 농서동 151-6번지","category":"일반휴게음식 - 일반한식"}]},{"lat":"37.232767734","long":"127.07210601","items":[{"name":"그린나래","tel":"","addr":"경기도 용인시 기흥구 농서동 449-3번지 302호","category":"신변잡화 - 기타잡화"},{"name":"피치노","tel":"031-203-5203","addr":"경기도 용인시 기흥구 농서동 449-3번지 1층 101호","category":"일반휴게음식 - 서양음식"}]},{"lat":"37.222441499","long":"127.08664256","items":[{"name":"금봉빌딩","tel":"031-275-2006","addr":"경기도 용인시 기흥구 농서동 183번지","category":"자동차정비 유지 - 주차장"},{"name":"별난김치찌개전문점","tel":"031-286-4050","addr":"경기도 용인시 기흥구 농서동 183번지 1층","category":"일반휴게음식 - 일반한식"}]},{"lat":"37.22538335","long":"127.08005423","items":[{"name":"금상첨화","tel":"031-286-1966","addr":"경기도 용인시 기흥구 농서동 150-6번지","category":"일반휴게음식 - 일반한식"}]},{"lat":"37.230768652","long":"127.06999698","items":[{"name":"기흥농업협동조합 농서지점","tel":"031-203-5013","addr":"경기도 용인시 기흥구 농서동 413-2번지 외1필지 스마트밸리2 1층105호,2층201,202호","category":"유통업 비영리 - 농,축협 직영매장"},{"name":"포대포","tel":"031-898-9956","addr":"경기도 용인시 기흥구 농서동 413-2번지 스마트밸리2 108동 110호","category":"일반휴게음식 - 일반한식"}]},{"lat":"37.225823758","long":"127.0817223","items":[{"name":"기흥삼성점","tel":"","addr":"경기도 용인시 기흥구 농서동 158번지 (삼성2로 95, 농서동)","category":"보건위생 - 화장품"},{"name":"청담맑은피부과의원","tel":"031-209-8665","addr":"경기도 용인시 기흥구 농서동 158번지 세미콘프라자 3층","category":"의원 - 의원"}]},{"lat":"37.230327678","long":"127.06905004","items":[{"name":"깐부치킨","tel":"031-202-9282","addr":"경기도 용인시 기흥구 농서동 414번지","category":"일반휴게음식 - 스넥"},{"name":"놀뫼황소곱창","tel":"031-206-2992","addr":"경기도 용인시 기흥구 농서동 414번지 써밋테라스 111호","category":"일반휴게음식 - 일반한식"},{"name":"베이징양꼬치 양다리구이","tel":"031-204-7779","addr":"경기도 용인시 기흥구 농서동 414번지 1층 104,105호","category":"일반휴게음식 - 일반한식"},{"name":"투썸플레이스","tel":"031-202-0195","addr":"경기도 용인시 기흥구 농서동 414번지 써밋테라스 101호","category":"일반휴게음식 - 서양음식"},{"name":"한숍","tel":"031-202-7113","addr":"경기도 용인시 기흥구 농서동 414번지 써밋테라스 3층 301호","category":"보건위생 - 화장품"},{"name":"홍학표 엉성갈비","tel":"031-205-9233","addr":"경기도 용인시 기흥구 농서동 414번지 2층 201,202호","category":"일반휴게음식 - 일반한식"}]},{"lat":"37.233048844","long":"127.06897354","items":[{"name":"나루네일","tel":"031-204-0509","addr":"경기도 용인시 기흥구 농서동 404번지 1층 일부호","category":"보건위생 - 피부미용실"}]},{"lat":"37.229354201","long":"127.06969148","items":[{"name":"남도락","tel":"031-206-1349","addr":"경기도 용인시 기흥구 농서동 416-4번지","category":"일반휴게음식 - 일반한식"}]},{"lat":"37.223104141","long":"127.07942094","items":[{"name":"너른마당","tel":"031-286-0089","addr":"경기도 용인시 기흥구 농서동 119-1번지","category":"일반휴게음식 - 일반한식"}]},{"lat":"37.233795005","long":"127.07194918","items":[{"name":"네일리스트꼬지비(naillst GGOGIBI)","tel":"031-202-2365","addr":"경기도 용인시 기흥구 농서동 436-5번지 103호","category":"보건위생 - 피부미용실"}]},{"lat":"37.23393964","long":"127.07113795","items":[{"name":"네일봉봉","tel":"031-205-4153","addr":"경기도 용인시 기흥구 농서동 436번지 1층 102호","category":"보건위생 - 피부미용실"},{"name":"열정과일","tel":"031-205-5249","addr":"경기도 용인시 기흥구 농서동 436번지 삼일해미안 101호","category":"음료식품 - 농·축·수산품"}]},{"lat":"37.233767796","long":"127.07225342","items":[{"name":"네잎크로바호프","tel":"031-203-5068","addr":"경기도 용인시 기흥구 농서동 445번지 103호","category":"일반휴게음식 - 주점"},{"name":"청춘고기백화점","tel":"031-205-1253","addr":"경기도 용인시 기흥구 농서동 445번지 101호","category":"음료식품 - 정육점"}]},{"lat":"37.225519508","long":"127.07849943","items":[{"name":"농서리순대국","tel":"031-274-4352","addr":"경기도 용인시 기흥구 농서동 142-2번지","category":"일반휴게음식 - 일반한식"},{"name":"오토테크카센타","tel":"031-287-0951","addr":"경기도 용인시 기흥구 농서동 142-2번지","category":"자동차정비 유지 - 자동차정비"},{"name":"차와 사람","tel":"031-287-0951","addr":"경기도 용인시 기흥구 농서동 142-2번지","category":"자동차정비 유지 - 자동차정비"}]},{"lat":"37.232795198","long":"127.07136229","items":[{"name":"대한냉열","tel":"031-202-0071","addr":"경기도 용인시 기흥구 농서동 443-2번지 1층","category":"전기제품 - 가전제품"}]},{"lat":"37.224941423","long":"127.08069603","items":[{"name":"동백가든","tel":"031-286-6808","addr":"경기도 용인시 기흥구 농서동 149-3번지","category":"일반휴게음식 - 일반한식"}]},{"lat":"37.233858371","long":"127.07144214","items":[{"name":"라떼야","tel":"070-8831-7425","addr":"경기도 용인시 기흥구 농서동 436-2번지 1층","category":"일반휴게음식 - 서양음식"}]},{"lat":"37.223106838","long":"127.08863762","items":[{"name":"레디PC","tel":"070-7365-0039","addr":"경기도 용인시 기흥구 농서동 43-2번지 2층","category":"레저업소 - 기타레져업소"},{"name":"와촌식육식당 기흥점","tel":"031-283-8892","addr":"경기도 용인시 기흥구 농서동 43-2번지 1동","category":"일반휴게음식 - 일반한식"},{"name":"이마트24 기흥삼성기숙사점","tel":"","addr":"경기도 용인시 기흥구 농서동 43-2번지 1층 일부","category":"유통업 영리 - 편 의 점"},{"name":"이마트24 기흥삼성기숙사점","tel":"031-282-7711","addr":"경기도 용인시 기흥구 농서동 43-2번지 1층일부","category":"유통업 영리 - 편 의 점"}]},{"lat":"37.233822232","long":"127.07161114","items":[{"name":"롤앤밥스","tel":"031-206-1237","addr":"경기도 용인시 기흥구 농서동 436-3번지","category":"일반휴게음식 - 스넥"},{"name":"신통치킨","tel":"031-206-9282","addr":"경기도 용인시 기흥구 농서동 436-3번지 101호","category":"일반휴게음식 - 스넥"}]},{"lat":"37.23352455","long":"127.07219685","items":[{"name":"멍발소","tel":"031-225-8784","addr":"경기도 용인시 기흥구 농서동 447번지 1충 101호","category":"문화.취미 - 애완동물"},{"name":"스시노유메","tel":"031-273-0927","addr":"경기도 용인시 기흥구 농서동 447번지","category":"일반휴게음식 - 일반한식"},{"name":"에스아이디헤어(sid hair)","tel":"070-4113-6003","addr":"경기도 용인시 기흥구 농서동 447번지 102호","category":"보건위생 - 미용원"}]},{"lat":"37.233380562","long":"127.07189246","items":[{"name":"메르시헤어","tel":"","addr":"경기도 용인시 기흥구 농서동 438-6번지 나리빌 1층 일부","category":"보건위생 - 미용원"},{"name":"티제이시스템","tel":"031-273-3232","addr":"경기도 용인시 기흥구 농서동 438-6번지 나리빌 102호","category":"수리서비스 - 사무·통신기기수리"}]},{"lat":"37.225157782","long":"127.08052724","items":[{"name":"명품관","tel":"031-287-7978","addr":"경기도 용인시 기흥구 농서동 150-3번지","category":"일반휴게음식 - 중국식"}]},{"lat":"37.225241324","long":"127.07669633","items":[{"name":"모박사부대찌개","tel":"031-204-0081","addr":"경기도 용인시 기흥구 농서동 267-7번지","category":"일반휴게음식 - 일반한식"}]},{"lat":"37.233380404","long":"127.07216291","items":[{"name":"미소야(서천마을점)","tel":"031-205-2626","addr":"경기도 용인시 기흥구 농서동 447-13번지 베네치아빌 상가 102호","category":"일반휴게음식 - 일반한식"}]},{"lat":"37.228858473","long":"127.06997275","items":[{"name":"반월점현대자동차","tel":"031-273-7600","addr":"경기도 용인시 기흥구 농서동 416-7번지","category":"자동차정비 유지 - 자동차정비"}]},{"lat":"37.223610015","long":"127.09055364","items":[{"name":"버스터콜","tel":"031-274-1585","addr":"경기도 용인시 기흥구 농서동 11-13번지 101호","category":"일반휴게음식 - 일반한식"},{"name":"포커스당구장","tel":"031-285-0050","addr":"경기도 용인시 기흥구 농서동 11-13번지 지하1층","category":"레저업소 - 당 구 장"}]},{"lat":"37.225078672","long":"127.07743983","items":[{"name":"본구이","tel":"031-281-8133","addr":"경기도 용인시 기흥구 농서동 267-5번지 1층","category":"일반휴게음식 - 일반한식"}]},{"lat":"37.232489938","long":"127.06944634","items":[{"name":"브라더샤인","tel":"031-273-6505","addr":"경기도 용인시 기흥구 농서동 406-5번지 1층","category":"자동차정비 유지 - 자동차정비"},{"name":"카페좋은날","tel":"031-205-1193","addr":"경기도 용인시 기흥구 농서동 406-5번지 1층","category":"일반휴게음식 - 서양음식"}]},{"lat":"37.232687204","long":"127.07113682","items":[{"name":"빛홈(BITHOME)","tel":"070-8198-2237","addr":"경기도 용인시 기흥구 농서동 443-8번지 3층 302호","category":"가구 - 기타가구"}]},{"lat":"37.232795067","long":"127.07158767","items":[{"name":"살롬카페","tel":"031-231-2988","addr":"경기도 용인시 기흥구 농서동 443-3번지 101호","category":"일반휴게음식 - 서양음식"}]},{"lat":"37.223382544","long":"127.08082964","items":[{"name":"삼성대반점","tel":"031-286-9997","addr":"경기도 용인시 기흥구 농서동 111-2번지 1층","category":"일반휴게음식 - 중국식"}]},{"lat":"37.223581045","long":"127.08041295","items":[{"name":"삼성밧데리","tel":"031-283-0084","addr":"경기도 용인시 기흥구 농서동 126번지","category":"자동차정비 유지 - 자동차정비"}]},{"lat":"37.223328792","long":"127.08035636","items":[{"name":"삼성오토","tel":"031-286-0084","addr":"경기도 용인시 기흥구 농서동 114-2번지","category":"자동차정비 유지 - 자동차정비"}]},{"lat":"37.225275715","long":"127.07929919","items":[{"name":"세븐일레븐기흥반도체주유소점","tel":"","addr":"경기도 용인시 기흥구 농서동 146-1번지","category":"유통업 영리 - 편 의 점"},{"name":"케이디씨기흥점","tel":"031-274-7082","addr":"경기도 용인시 기흥구 농서동 146-1번지 제가, 1필지","category":"자동차정비 유지 - 카인테리어"}]},{"lat":"37.232273614","long":"127.06958137","items":[{"name":"세아공조","tel":"031-294-6242","addr":"경기도 용인시 기흥구 농서동 409번지","category":"수리서비스 - 가정용품수리"},{"name":"윤교육","tel":"031-212-3510","addr":"경기도 용인시 기흥구 농서동 409번지 1층","category":"서적문구 - 기타서적문구"}]},{"lat":"37.232912715","long":"127.07069754","items":[{"name":"소문난 수원갈비","tel":"031-000-0000","addr":"경기도 용인시 기흥구 농서동 433-6번지 1층","category":"음료식품 - 기타음료식품"},{"name":"주식회사 에어야크","tel":"031-264-1990","addr":"경기도 용인시 기흥구 농서동 433-6번지 1층","category":"레져용품 - 스포츠·레져용품"}]},{"lat":"37.233633211","long":"127.0712729","items":[{"name":"쉐프삼촌영통점","tel":"070-4112-2044","addr":"경기도 용인시 기흥구 농서동 438-1번지 1층","category":"음료식품 - 기타음료식품"}]},{"lat":"37.233767703","long":"127.07241118","items":[{"name":"스시하쯔","tel":"031-203-5035","addr":"경기도 용인시 기흥구 농서동 445-1번지 102호","category":"일반휴게음식 - 일식·회집"}]},{"lat":"37.225358634","long":"127.07641475","items":[{"name":"스피드메이트 기흥톨게이트점","tel":"031-285-8944","addr":"경기도 용인시 기흥구 농서동 267-2번지","category":"자동차정비 유지 - 자동차정비"}]},{"lat":"37.233795103","long":"127.07178015","items":[{"name":"신군컴퍼니","tel":"031-891-8988","addr":"경기도 용인시 기흥구 농서동 436-4번지 상가 1층 101호","category":"음료식품 - 농·축·수산품"},{"name":"오렌지헤어","tel":"031-203-8361","addr":"경기도 용인시 기흥구 농서동 436-4번지 102호","category":"보건위생 - 미용원"},{"name":"제이슨 건어물","tel":"031-891-8988","addr":"경기도 용인시 기흥구 농서동 436-4번지 1층 101호","category":"음료식품 - 농·축·수산품"}]},{"lat":"37.23312895","long":"127.07072027","items":[{"name":"아크메","tel":"070-5214-0920","addr":"경기도 용인시 기흥구 농서동 433-5번지 1층 101호","category":"일반휴게음식 - 서양음식"}]},{"lat":"37.233966801","long":"127.0709126","items":[{"name":"앤스타일 (AnnE Style)","tel":"031-000-0000","addr":"경기도 용인시 기흥구 농서동 433번지","category":"건축자재 - 인테리어전문"}]},{"lat":"37.229741537","long":"127.06988338","items":[{"name":"엄지","tel":"","addr":"경기도 용인시 기흥구 농서동 420번지 드림갤럭시타워2 2층 202호","category":"보건위생 - 미용재료"}]},{"lat":"37.231714833","long":"127.06982879","items":[{"name":"오리엔트","tel":"031-205-3316","addr":"경기도 용인시 기흥구 농서동 410번지 스마트프라자","category":"신변잡화 - 귀금속"},{"name":"우리꼴자연가구","tel":"031-204-7950","addr":"경기도 용인시 기흥구 농서동 410번지 스마트프라자 203호","category":"가구 - 일반가구"},{"name":"이브자리","tel":"031-204-1437","addr":"경기도 용인시 기흥구 농서동 410번지 104호","category":"직물 - 침구·수예점"},{"name":"주식회사노송가구전시판매장","tel":"02-4412-9700","addr":"경기도 용인시 기흥구 농서동 410번지","category":"가구 - 일반가구"},{"name":"키친라인","tel":"031-376-7337","addr":"경기도 용인시 기흥구 농서동 410번지 스마트프라자","category":"주방용구 - 주방용구"}]},{"lat":"37.225133116","long":"127.07683144","items":[{"name":"오토모빌자동차정비써비스","tel":"031-274-0641","addr":"경기도 용인시 기흥구 농서동 267-3번지","category":"자동차정비 유지 - 자동차정비"}]},{"lat":"37.23071473","long":"127.06974902","items":[{"name":"요진알루미늄(주)","tel":"031-372-3550","addr":"경기도 용인시 기흥구 농서동 341-1번지","category":"건축자재 - 기타건축자재"}]},{"lat":"37.223520402","long":"127.08988876","items":[{"name":"용정마트","tel":"031-286-1653","addr":"경기도 용인시 기흥구 농서동 11-2번지","category":"유통업 영리 - 슈퍼마켓"},{"name":"이조목장","tel":"031-285-9508","addr":"경기도 용인시 기흥구 농서동 11-2번지","category":"일반휴게음식 - 일반한식"}]},{"lat":"37.222970911","long":"127.08969659","items":[{"name":"우리집 한식뷔페","tel":"031-8005-8882","addr":"경기도 용인시 기흥구 농서동 40-3번지","category":"일반휴게음식 - 일반한식"},{"name":"좋은식당","tel":"031-287-1252","addr":"경기도 용인시 기흥구 농서동 40-3번지 2층","category":"일반휴게음식 - 일반한식"}]},{"lat":"37.225275174","long":"127.080133","items":[{"name":"위드미삼성반도체정문점","tel":"02-6916-1500","addr":"경기도 용인시 기흥구 농서동 150-5번지 1층","category":"유통업 영리 - 편 의 점"}]},{"lat":"37.230102072","long":"127.0696696","items":[{"name":"이디야커피(용인농서점)","tel":"031-203-0700","addr":"경기도 용인시 기흥구 농서동 418번지 1층 101,102호","category":"일반휴게음식 - 서양음식"}]},{"lat":"37.222963257","long":"127.08782621","items":[{"name":"이마트24 기흥삼성점","tel":"","addr":"경기도 용인시 기흥구 농서동 185-10번지","category":"유통업 영리 - 편 의 점"},{"name":"이마트24 기흥삼성점","tel":"","addr":"경기도 용인시 기흥구 농서동 185-10번지","category":"유통업 영리 - 편 의 점"}]},{"lat":"37.232246488","long":"127.06975038","items":[{"name":"인정생고기","tel":"031-205-4209","addr":"경기도 용인시 기흥구 농서동 409-1번지","category":"일반휴게음식 - 일반한식"}]},{"lat":"37.225051917","long":"127.07700037","items":[{"name":"장지리가마솥해장국","tel":"031-203-1072","addr":"경기도 용인시 기흥구 농서동 267-4번지 1층 일부층","category":"일반휴게음식 - 일반한식"},{"name":"토프레소 용인삼성2로점","tel":"031-284-7367","addr":"경기도 용인시 기흥구 농서동 267-4번지 1층","category":"일반휴게음식 - 서양음식"}]},{"lat":"37.233551176","long":"127.07288428","items":[{"name":"좋은한식","tel":"031-205-6633","addr":"경기도 용인시 기흥구 농서동 447-4번지 1층","category":"일반휴게음식 - 일반한식"}]},{"lat":"37.221525378","long":"127.08238259","items":[{"name":"주식회사비에스엠","tel":"070-8785-0191","addr":"경기도 용인시 기흥구 농서동 101-6","category":"용역 서비스 - 소프트웨어"}]},{"lat":"37.223133468","long":"127.08918974","items":[{"name":"주식회사한마음렌트카","tel":"031-286-3366","addr":"경기도 용인시 기흥구 농서동 42-6번지","category":"여행 - 렌터카"}]},{"lat":"37.230525513","long":"127.06974886","items":[{"name":"지식한식뷔페","tel":"031-202-5679","addr":"경기도 용인시 기흥구 농서동 413-4번지 1층일부, 2층일부","category":"일반휴게음식 - 일반한식"}]},{"lat":"37.233578966","long":"127.07158838","items":[{"name":"진성아구찜","tel":"031-205-4959","addr":"경기도 용인시 기흥구 농서동 438-3번지","category":"일반휴게음식 - 일반한식"}]},{"lat":"37.233327158","long":"127.07075426","items":[{"name":"카페위스테이드(cafe we stayed)","tel":"031-203-2406","addr":"경기도 용인시 기흥구 농서동 433-4번지 스테이드 1동 카페 위","category":"일반휴게음식 - 서양음식"},{"name":"칼리스타","tel":"031-225-2038","addr":"경기도 용인시 기흥구 농서동 433-4번지","category":"건축자재 - 인테리어전문"}]},{"lat":"37.233830343","long":"127.07314372","items":[{"name":"카페필로스","tel":"031-273-7776","addr":"경기도 용인시 기흥구 농서동 445-5번지 1층","category":"일반휴게음식 - 서양음식"}]},{"lat":"37.222935983","long":"127.0881642","items":[{"name":"커피맨의커피박스","tel":"031-287-0978","addr":"경기도 용인시 기흥구 농서동 45-5번지 101호","category":"일반휴게음식 - 서양음식"}]},{"lat":"37.233767491","long":"127.07277179","items":[{"name":"커피보이스","tel":"031-000-0000","addr":"경기도 용인시 기흥구 농서동 445-3번지 1층","category":"일반휴게음식 - 서양음식"}]},{"lat":"37.233767584","long":"127.07261402","items":[{"name":"커피산책","tel":"031-205-5501","addr":"경기도 용인시 기흥구 농서동 445-2번지","category":"일반휴게음식 - 서양음식"}]},{"lat":"37.233794422","long":"127.07294085","items":[{"name":"컬러가이드","tel":"031-202-8011","addr":"경기도 용인시 기흥구 농서동 445-4번지 1층 상가","category":"건축자재 - 페인트"}]},{"lat":"37.2338855","long":"127.07127313","items":[{"name":"크린토피아 코인워시 용인서천지구점","tel":"031-283-4589","addr":"경기도 용인시 기흥구 농서동 436-1번지 1층","category":"수리서비스 - 세탁소"}]},{"lat":"37.232660043","long":"127.07136217","items":[{"name":"태림가스산업","tel":"031-222-3034","addr":"경기도 용인시 기흥구 농서동 443-7번지","category":"용역 서비스 - 기타용역서비스"}]},{"lat":"37.233578007","long":"127.07322237","items":[{"name":"틴트플러스","tel":"031-202-0933","addr":"경기도 용인시 기흥구 농서동 447-6번지","category":"자동차정비 유지 - 카인테리어"}]},{"lat":"37.219325621","long":"127.08419423","items":[{"name":"파인관광호텔","tel":"031-8015-0404","addr":"경기도 용인시 기흥구 농서동 98번지 외2필지","category":"숙박업 - 여관/기타숙박업"}]},{"lat":"37.233524451","long":"127.07236588","items":[{"name":"폴스개러지","tel":"031-273-1101","addr":"경기도 용인시 기흥구 농서동 447-1번지 1층","category":"자동차정비 유지 - 자동차부품"}]},{"lat":"37.233128128","long":"127.07214014","items":[{"name":"헤어어베인","tel":"031-204-8024","addr":"경기도 용인시 기흥구 농서동 449번지 1층","category":"보건위생 - 미용원"},{"name":"희야뷰티","tel":"","addr":"경기도 용인시 기흥구 농서동 449번지 상가 1층 전면 가운데","category":"보건위생 - 화장품"}]}]