[{"lat":"36.986579044","long":"126.86744234","imageIndex":0,"items":[{"name":"(주)강남상사","tel":"031-681-2367","addr":"경기도 평택시 포승읍 도곡리 759-1번지","indutype":"자동차정비 유지 - 자동차부품","category":"car"}]},{"lat":"36.989265723","long":"126.86100122","imageIndex":0,"items":[{"name":"REC블랙박스","tel":"031-684-0627","addr":"경기도 평택시 포승읍 도곡리 705-5번지","indutype":"자동차정비 유지 - 자동차부품","category":"car"},{"name":"삼백육십오 (365)타이어","tel":"031-682-9734","addr":"경기도 평택시 포승읍 도곡리 705-5번지 1층 5.6호","indutype":"자동차정비 유지 - 자동차시트·타이어","category":"car"},{"name":"스팀보이 평택포승점","tel":"031-683-0333","addr":"경기도 평택시 포승읍 도곡리 705-5번지 2,3호","indutype":"자동차정비 유지 - 세차장","category":"car"}]},{"lat":"36.989798877","long":"126.86228077","imageIndex":0,"items":[{"name":"㈜서평택총판","tel":"031-686-5430","addr":"경기도 평택시 포승읍 도곡리 138번지","indutype":"서비스업 - 자동차정비","category":"car"}]},{"lat":"36.982996128","long":"126.8787479","imageIndex":0,"items":[{"name":"고쳐드림모터스","tel":"","addr":"경기도 평택시 포승읍 도곡리 942번지","indutype":"자동차정비 유지 - 자동차정비","category":"car"}]},{"lat":"36.984271375","long":"126.87472477","imageIndex":0,"items":[{"name":"늘푸른자동차공업사","tel":"031-682-8397","addr":"경기도 평택시 포승읍 도곡리 884-1번지","indutype":"서비스업 - 자동차정비","category":"car"},{"name":"늘푸른자동차공업사","tel":"031-683-8813","addr":"경기도 평택시 포승읍 도곡리 884-1","indutype":"자동차정비 유지 - 자동차정비","category":"car"}]},{"lat":"36.983410597","long":"126.87872476","imageIndex":0,"items":[{"name":"덴트천재","tel":"031-683-8656","addr":"경기도 평택시 포승읍 도곡리 943-32번지","indutype":"자동차정비 유지 - 카인테리어","category":"car"}]},{"lat":"36.988576507","long":"126.86491145","imageIndex":0,"items":[{"name":"도곡세차장","tel":"031-682-7808","addr":"경기도 평택시 포승읍 도곡리 745-2번지","indutype":"자동차정비 유지 - 세차장","category":"car"}]},{"lat":"36.985767196","long":"126.85903084","imageIndex":0,"items":[{"name":"디젤파워요소수","tel":"","addr":"경기도 평택시 포승읍 도곡리 631-28번지","indutype":"자동차정비 유지 - 자동차부품","category":"car"}]},{"lat":"36.99401403","long":"126.85338736","imageIndex":0,"items":[{"name":"만호상사","tel":"031-681-5911","addr":"경기도 평택시 포승읍 도곡리 150-61번지 A동 1층","indutype":"자동차정비 유지 - 자동차시트·타이어","category":"car"},{"name":"승창1급자동차","tel":"031-684-5077","addr":"경기도 평택시 포승읍 도곡리 150-61","indutype":"자동차정비 유지 - 자동차정비","category":"car"},{"name":"천마상사","tel":"031-682-6760","addr":"경기도 평택시 포승읍 도곡리 150-61번지","indutype":"자동차정비 유지 - 자동차시트·타이어","category":"car"}]},{"lat":"36.988154395","long":"126.8661141","imageIndex":0,"items":[{"name":"모터스라인","tel":"031-682-4400","addr":"경기도 평택시 포승읍 도곡리 745-1번지 A동 4,5,6호","indutype":"자동차정비 유지 - 자동차부품","category":"car"},{"name":"서평택밧데리","tel":"031-683-0006","addr":"경기도 평택시 포승읍 도곡리 745-1번지","indutype":"자동차정비 유지 - 자동차부품","category":"car"},{"name":"애니카랜드포승점","tel":"","addr":"경기도 평택시 포승읍 도곡리 745-1번지","indutype":"서비스업 - 자동차정비","category":"car"}]},{"lat":"36.989600375","long":"126.86205648","imageIndex":0,"items":[{"name":"배터리마트","tel":"031-681-7990","addr":"경기도 평택시 포승읍 도곡리 137-5번지","indutype":"자동차정비 유지 - 자동차부품","category":"car"}]},{"lat":"36.985742637","long":"126.86108638","imageIndex":0,"items":[{"name":"서평택테크","tel":"031-681-1316","addr":"경기도 평택시 포승읍 도곡리 631-8번지 1동","indutype":"자동차정비 유지 - 자동차부품","category":"car"}]},{"lat":"36.986963467","long":"126.84324707","imageIndex":0,"items":[{"name":"스키드정비","tel":"031-684-1705","addr":"경기도 평택시 포승읍 도곡리 1124-1번지","indutype":"자동차정비 유지 - 자동차정비","category":"car"}]},{"lat":"36.984606734","long":"126.87655503","imageIndex":0,"items":[{"name":"신화모터스","tel":"031-681-7568","addr":"경기도 평택시 포승읍 도곡리 937번지","indutype":"자동차정비 유지 - 자동차정비","category":"car"},{"name":"신화모터스(신화T&D)","tel":"031-682-6371","addr":"경기도 평택시 포승읍 도곡리 937번지 신화모터스","indutype":"자동차정비 유지 - 자동차정비","category":"car"}]},{"lat":"36.985376813","long":"126.87208335","imageIndex":0,"items":[{"name":"안중종합밋션","tel":"031-684-6782","addr":"경기도 평택시 포승읍 도곡리 898-9번지","indutype":"자동차정비 유지 - 자동차정비","category":"car"}]},{"lat":"36.985051035","long":"126.87082591","imageIndex":0,"items":[{"name":"원정카센타","tel":"031-682-8119","addr":"경기도 평택시 포승읍 도곡리 853번지","indutype":"자동차정비 유지 - 자동차정비","category":"car"}]},{"lat":"36.994655636","long":"126.84780304","imageIndex":0,"items":[{"name":"이명기외형복원광택전문샵","tel":"031-681-9950","addr":"경기도 평택시 포승읍 도곡리 210-10","indutype":"자동차정비 유지 - 카인테리어","category":"car"}]},{"lat":"36.986438594","long":"126.87074489","imageIndex":0,"items":[{"name":"제일라이닝","tel":"031-683-7737","addr":"경기도 평택시 포승읍 도곡리 851-4번지","indutype":"자동차정비 유지 - 자동차부품","category":"car"},{"name":"제일라이닝","tel":"031-683-7737","addr":"경기도 평택시 포승읍 도곡리 851-4번지","indutype":"자동차정비 유지 - 자동차부품","category":"car"}]},{"lat":"36.986856207","long":"126.86555481","imageIndex":0,"items":[{"name":"종합카에어콘","tel":"031-684-1098","addr":"경기도 평택시 포승읍 도곡리 754-1번지 외2필지","indutype":"자동차정비 유지 - 자동차부품","category":"car"}]},{"lat":"36.994767616","long":"126.8507797","imageIndex":0,"items":[{"name":"주식회사 영광이엔지","tel":"031-681-7740","addr":"경기도 평택시 포승읍 도곡리 175-13번지","indutype":"자동차정비 유지 - 자동차시트·타이어","category":"car"}]},{"lat":"36.9870707","long":"126.87196813","imageIndex":0,"items":[{"name":"주식회사유진엔지니어링","tel":"031-681-3111","addr":"경기도 평택시 포승읍 도곡리 845-13번지","indutype":"자동차정비 유지 - 자동차정비","category":"car"}]},{"lat":"36.985966035","long":"126.86719632","imageIndex":0,"items":[{"name":"차고치는집","tel":"061-684-6610","addr":"경기도 평택시 포승읍 도곡리 759-5번지","indutype":"자동차정비 유지 - 자동차정비","category":"car"}]},{"lat":"36.982211089","long":"126.84722179","imageIndex":0,"items":[{"name":"트럭스토리(티에스테크)","tel":"031-684-6190","addr":"경기도 평택시 포승읍 도곡리 1213-1번지 1층(삼우공무(주))","indutype":"자동차정비 유지 - 자동차부품","category":"car"}]},{"lat":"36.989431462","long":"126.86400006","imageIndex":0,"items":[{"name":"평택그린택","tel":"031-683-0907","addr":"경기도 평택시 포승읍 도곡리 137-35번지","indutype":"자동차정비 유지 - 자동차부품","category":"car"}]},{"lat":"36.991522861","long":"126.85724518","imageIndex":0,"items":[{"name":"평택항만자동차공업사","tel":"031-111-1111","addr":"경기도 평택시 포승읍 도곡리 148-6","indutype":"자동차정비 유지 - 자동차정비","category":"car"}]},{"lat":"36.997188442","long":"126.85550435","imageIndex":0,"items":[{"name":"평화부품센터","tel":"031-683-8567","addr":"경기도 평택시 포승읍 도곡리 160-8번지","indutype":"자동차정비 유지 - 자동차부품","category":"car"}]},{"lat":"36.989185082","long":"126.86138328","imageIndex":0,"items":[{"name":"포승쌍용차정비전문점","tel":"031-686-5581","addr":"경기도 평택시 포승읍 도곡리 705-26번지","indutype":"자동차정비 유지 - 자동차정비","category":"car"},{"name":"현대렉카,크레인","tel":"031-1588-4521","addr":"경기도 평택시 포승읍 도곡리 705-26번지","indutype":"자동차정비 유지 - 견인서비스","category":"car"}]}]