[{"lat":"37.786180234","long":"127.12170605","items":[{"name":"(주)가우","tel":"031-541-7741","addr":"경기도 포천시 소흘읍 이동교리 613-2번지","category":"용역 서비스 - 종합용역"}]},{"lat":"37.779201028","long":"127.11853925","items":[{"name":"(주)리더스산업개발","tel":"031-543-8288","addr":"경기도 포천시 소흘읍 이동교리 733-4번지","category":"음료식품 - 농·축·수산품"},{"name":"전주식당","tel":"031-536-1602","addr":"경기도 포천시 소흘읍 이동교리 733-4번지 1층","category":"일반휴게음식 - 일반한식"},{"name":"큐파크","tel":"031-541-8786","addr":"경기도 포천시 소흘읍 이동교리 733-4번지","category":"숙박업 - 여관/기타숙박업"}]},{"lat":"37.784954923","long":"127.1217268","items":[{"name":"(주)민축산유통","tel":"031-544-2780","addr":"경기도 포천시 소흘읍 이동교리 581-2번지","category":"음료식품 - 정육점"},{"name":"바로크 소파","tel":"031-543-6039","addr":"경기도 포천시 소흘읍 이동교리 581-2번지","category":"가구 - 일반가구"},{"name":"퀸우드 가구","tel":"031-542-7850","addr":"경기도 포천시 소흘읍 이동교리 581-2번지","category":"가구 - 일반가구"},{"name":"퀸우드가구","tel":"542-7850","addr":"경기도 포천시 소흘읍 이동교리 581-2번지","category":"도소매 - 가구"}]},{"lat":"37.808753686","long":"127.13422214","items":[{"name":"(주)바이크림슨","tel":"02-1599-7035","addr":"경기도 포천시 소흘읍 이동교리 266-8번지 101,202,201,202호","category":"문화.취미 - 민예·공예품"},{"name":"The Living-room (더 리빙-룸)","tel":"031-544-9860","addr":"경기도 포천시 소흘읍 이동교리 266-8번지 나동 102,103호","category":"가구 - 일반가구"},{"name":"올림공방","tel":"031-000-0000","addr":"경기도 포천시 소흘읍 이동교리 266-8번지 다동 101호","category":"문화.취미 - 민예·공예품"},{"name":"조이너스","tel":"031-544-8942","addr":"경기도 포천시 소흘읍 이동교리 266-8번지 외2필지에코아울렛제 가동 104호","category":"의류 - 스포츠의류"}]},{"lat":"37.813919517","long":"127.13111961","items":[{"name":"(주)비엠폴리머","tel":"031-853-0472","addr":"경기도 포천시 소흘읍 이동교리 215-1번지","category":"의류 - 정장"}]},{"lat":"37.805729088","long":"127.13188896","items":[{"name":"(주)신한남유통 지점","tel":"031-544-0880","addr":"경기도 포천시 소흘읍 이동교리 294-19번지","category":"음료식품 - 정육점"},{"name":"(주)주명배관","tel":"070-4656-7131","addr":"경기도 포천시 소흘읍 이동교리 294-19번지","category":"건축자재 - 기타건축자재"},{"name":"한국새노방수산업","tel":"031-531-5287","addr":"경기도 포천시 소흘읍 이동교리 294-19번지","category":"건축자재 - 기타건축자재"}]},{"lat":"37.812419317","long":"127.13530748","items":[{"name":"(주)이새FNC 이새포천점","tel":"031-541-5321","addr":"경기도 포천시 소흘읍 이동교리 74-1번지","category":"의류 - 정장"},{"name":"FILA송우대리점","tel":"031-541-5877","addr":"경기도 포천시 소흘읍 이동교리 74-1","category":"레져용품 - 스포츠·레져용품"},{"name":"PAT","tel":"031-544-0855","addr":"경기도 포천시 소흘읍 이동교리 74-1번지","category":"의류 - 스포츠의류"},{"name":"Ping 포천","tel":"070-8880-6379","addr":"경기도 포천시 소흘읍 이동교리 74-1번지","category":"레져용품 - 스포츠·레져용품"},{"name":"fila송우대리점","tel":"031-541-5877","addr":"경기도 포천시 소흘읍 이동교리 74-1","category":"소매업 - 의류"},{"name":"뉴발란스 포천","tel":"031-541-8845","addr":"경기도 포천시 소흘읍 이동교리 74-1번지","category":"의류 - 스포츠의류"},{"name":"다이나핏포천점","tel":"031-542-3301","addr":"경기도 포천시 소흘읍 이동교리 74-1번지","category":"레져용품 - 스포츠·레져용품"},{"name":"버버리힐스폴로클럽 송우점","tel":"031-541-0052","addr":"경기도 포천시 소흘읍 이동교리 74-1번지","category":"레져용품 - 스포츠·레져용품"},{"name":"세기스포츠","tel":"031-543-9980","addr":"경기도 포천시 소흘읍 이동교리 74-1번지 르꼬끄스포르티브 매장","category":"레져용품 - 스포츠·레져용품"},{"name":"소르지오.잔피넬(송우점)","tel":"541-0052","addr":"경기도 포천시 소흘읍 이동교리 74-1번지","category":"소매업 - 의류"},{"name":"씨(si)포천송우리점","tel":"","addr":"경기도 포천시 소흘읍 이동교리 74-1번지 1층","category":"레져용품 - 스포츠·레져용품"},{"name":"올리비아하슬러","tel":"031-544-8624","addr":"경기도 포천시 소흘읍 이동교리 74-1번지","category":"레져용품 - 스포츠·레져용품"},{"name":"올리비아하슬러 송우점","tel":"544-8624","addr":"경기도 포천시 소흘읍 이동교리 74-1번지","category":"소매업 - 의류"},{"name":"올리통산(지센)","tel":"541-4601","addr":"경기도 포천시 소흘읍 이동교리 74-1번지","category":"도소매 - 의류"},{"name":"올리통상","tel":"031-541-4601","addr":"경기도 포천시 소흘읍 이동교리 74-1","category":"레져용품 - 스포츠·레져용품"},{"name":"올리통상(지센)","tel":"541-4601","addr":"경기도 포천시 소흘읍 이동교리 74-1번지","category":"도소매 - 의류 등"},{"name":"주희유통","tel":"031-544-4404","addr":"경기도 포천시 소흘읍 이동교리 74-1번지","category":"레져용품 - 스포츠·레져용품"},{"name":"푸마골프 포천점","tel":"070-4214-4006","addr":"경기도 포천시 소흘읍 이동교리 74-1번지","category":"레져용품 - 스포츠·레져용품"},{"name":"현대교역","tel":"541-3875","addr":"경기도 포천시 소흘읍 이동교리 74-1번지","category":"도소매 - 스포츠"}]},{"lat":"37.819452814","long":"127.13784137","items":[{"name":"(주)좋은날지디기획","tel":"031-541-6750","addr":"경기도 포천시 소흘읍 이동교리 39-5번지 나동","category":"용역 서비스 - 사무서비스"},{"name":"태흥톱공구","tel":"031-542-3022","addr":"경기도 포천시 소흘읍 이동교리 39-5번지","category":"기타 - 기계공구"},{"name":"프로윈도우필름","tel":"031-535-2020","addr":"경기도 포천시 소흘읍 이동교리 39-5번지","category":"자동차정비 유지 - 자동차부품"},{"name":"프로카인테리어","tel":"031-542-2020","addr":"경기도 포천시 소흘읍 이동교리 39-5번지","category":"자동차정비 유지 - 카인테리어"}]},{"lat":"37.781011062","long":"127.11942748","items":[{"name":"(주)축석령중고차","tel":"031-544-5452","addr":"경기도 포천시 소흘읍 이동교리 729-2번지 1층","category":"자동차판매 - 중고자동차판매"},{"name":"GS25축석휴게소점","tel":"","addr":"경기도 포천시 소흘읍 이동교리 729-2번지","category":"편의점 - 편의점"},{"name":"만찬 부페","tel":"532-7779","addr":"경기도 포천시 소흘읍 이동교리 729-2번지","category":"음식 - 한식"},{"name":"만찬부페","tel":"031-532-7779","addr":"경기도 포천시 소흘읍 이동교리 729-2번지","category":"일반휴게음식 - 일반한식"},{"name":"이공칼국수","tel":"541-1125","addr":"경기도 포천시 소흘읍 이동교리 729-2번지","category":"음식 - 한식"},{"name":"이공칼국수","tel":"031-541-1125","addr":"경기도 포천시 소흘읍 이동교리 729-2번지 1층","category":"일반휴게음식 - 일반한식"},{"name":"퀸즈커피","tel":"031-543-7400","addr":"경기도 포천시 소흘읍 이동교리 729-2번지","category":"일반휴게음식 - 서양음식"}]},{"lat":"37.811699859","long":"127.13414786","items":[{"name":"(주)한누리소방","tel":"031-544-4119","addr":"경기도 포천시 소흘읍 이동교리 93-2번지 3층","category":"용역 서비스 - 기타용역서비스"},{"name":"리츠교역","tel":"031-541-3875","addr":"경기도 포천시 소흘읍 이동교리 93-2번지 2층 101호","category":"레져용품 - 스포츠·레져용품"},{"name":"리츠교역","tel":"541-7666","addr":"경기도 포천시 소흘읍 이동교리 93-2번지","category":"소매업 - 의류"},{"name":"먹거리","tel":"031-543-5291","addr":"경기도 포천시 소흘읍 이동교리 93-2번지","category":"일반휴게음식 - 일반한식"},{"name":"먹거리","tel":"","addr":"경기도 포천시 소흘읍 이동교리 93-2번지 가동 2층","category":"음식 - 한식"},{"name":"목향가구","tel":"031-541-1188","addr":"경기도 포천시 소흘읍 이동교리 93-2번지","category":"가구 - 일반가구"},{"name":"씨유포천노블랜드점","tel":"031-878-8205","addr":"경기도 포천시 소흘읍 이동교리 93-2번지 나동","category":"유통업 영리 - 편 의 점"},{"name":"우리약국","tel":"541-4581","addr":"경기도 포천시 소흘읍 이동교리 93-2번지","category":"보건업 - 약국"},{"name":"유명약국","tel":"031-541-4581","addr":"경기도 포천시 소흘읍 이동교리 93-2번지 1층 우 2호","category":"약국 - 약국"},{"name":"유행가노래연습장","tel":"031-542-5952","addr":"경기도 포천시 소흘읍 이동교리 93-2번지","category":"레저업소 - 노 래 방"}]},{"lat":"37.812393065","long":"127.1346147","items":[{"name":"(주)한성에프아이 포천송우리","tel":"031-541-3788","addr":"경기도 포천시 소흘읍 이동교리 90-4번지","category":"레져용품 - 스포츠·레져용품"},{"name":"프로스팩스 포천송우점","tel":"031-543-1626","addr":"경기도 포천시 소흘읍 이동교리 90-4번지","category":"레져용품 - 스포츠·레져용품"},{"name":"프로스펙스(포천송우점)","tel":"543-1626","addr":"경기도 포천시 소흘읍 이동교리 90-4번지","category":"도소매 - 의류"},{"name":"현대교역","tel":"031-541-3875","addr":"경기도 포천시 소흘읍 이동교리 90-4번지 1층(외2필지)","category":"레져용품 - 스포츠·레져용품"},{"name":"형지송우멀티점","tel":"031-541-3788","addr":"경기도 포천시 소흘읍 이동교리 90-4","category":"의류 - 스포츠의류"}]},{"lat":"37.816120663","long":"127.13666555","items":[{"name":"1호점쌈밥","tel":"031-543-8244","addr":"경기도 포천시 소흘읍 이동교리 135-1번지 외1필지","category":"일반휴게음식 - 일반한식"},{"name":"가산식당","tel":"542-5788","addr":"경기도 포천시 소흘읍 이동교리 135-1번지","category":"음식 - 한식"},{"name":"가산식당","tel":"031-542-5788","addr":"경기도 포천시 소흘읍 이동교리 135-1번지","category":"일반휴게음식 - 일반한식"},{"name":"박은희 대가","tel":"031-543-4933","addr":"경기도 포천시 소흘읍 이동교리 135-1번지","category":"일반휴게음식 - 일반한식"},{"name":"박은희 대가","tel":"543-4933","addr":"경기도 포천시 소흘읍 이동교리 135-1번지","category":"음식 - 한식"}]},{"lat":"37.807899502","long":"127.13267627","items":[{"name":"21세기식당","tel":"031-111-1111","addr":"경기도 포천시 소흘읍 이동교리 281-18번지 지하1층","category":"일반휴게음식 - 일반한식"}]},{"lat":"37.798038895","long":"127.1282877","items":[{"name":"503하우스","tel":"031-544-5035","addr":"경기도 포천시 소흘읍 이동교리 380-1번지","category":"직물 - 침구·수예점"},{"name":"라오메뜨포천","tel":"031-541-4888","addr":"경기도 포천시 소흘읍 이동교리 380-1번지","category":"가구 - 일반가구"},{"name":"프라임사료","tel":"031-829-6860","addr":"경기도 포천시 소흘읍 이동교리 380-1번지","category":"농업 - 비료,사료,종자"}]},{"lat":"37.778871121","long":"127.11497448","items":[{"name":"CLOBAL-MOTORS(글로벌모터스)","tel":"031-1522-0219","addr":"경기도 포천시 소흘읍 이동교리 718-10번지","category":"자동차정비 유지 - 자동차정비"}]},{"lat":"37.779093492","long":"127.11794882","items":[{"name":"DNS 모터스","tel":"","addr":"경기도 포천시 소흘읍 이동교리 733-11번지","category":"서비스 - 자동차 수리"},{"name":"DNS모터스","tel":"070-8832-1677","addr":"경기도 포천시 소흘읍 이동교리 733-11번지","category":"자동차정비 유지 - 자동차정비"},{"name":"에스앤디 골프존","tel":"031-544-0770","addr":"경기도 포천시 소흘읍 이동교리 733-11번지 2층","category":"레저업소 - 골프연습장"},{"name":"에스앤디골프아카데미","tel":"070-4132-8770","addr":"경기도 포천시 소흘읍 이동교리 733-11번지 1층","category":"레저업소 - 스크린골프"},{"name":"에스앤디골프존","tel":"544-0770","addr":"경기도 포천시 소흘읍 이동교리 733-11번지","category":"도소매 - 스포츠"},{"name":"에스텔라","tel":"031-542-3153","addr":"경기도 포천시 소흘읍 이동교리 733-11번지 1층","category":"직물 - 카페트,커튼,천막,지물"},{"name":"우리샤시","tel":"031-543-2464","addr":"경기도 포천시 소흘읍 이동교리 733-11번지","category":"용역 서비스 - 기타용역서비스"},{"name":"이마트24 광릉수목원로점","tel":"031-111-1111","addr":"경기도 포천시 소흘읍 이동교리 733-11번지 733-11","category":"유통업 영리 - 편 의 점"},{"name":"커피앤","tel":"031-8952-3533","addr":"경기도 포천시 소흘읍 이동교리 733-11번지","category":"일반휴게음식 - 서양음식"}]},{"lat":"37.78373188","long":"127.11947716","items":[{"name":"DS MOLD/원격지","tel":"031-541-9331","addr":"경기도 포천시 소흘읍 이동교리 696","category":"기타 - 기타 전문점"}]},{"lat":"37.811952653","long":"127.13367135","items":[{"name":"GS25 포천태환","tel":"031-543-8145","addr":"경기도 포천시 소흘읍 이동교리 95-1번지","category":"편의점 - 편의점"},{"name":"GS25포천태화점","tel":"543-8145","addr":"경기도 포천시 소흘읍 이동교리 95-1번지","category":"소매업 - 편의점"},{"name":"GS25포천태환점","tel":"080-555-2525","addr":"경기도 포천시 소흘읍 이동교리 95-1번지 (외1)","category":"유통업 영리 - 편 의 점"},{"name":"꾸시꾸시베이커리","tel":"031-544-8789","addr":"경기도 포천시 소흘읍 이동교리 95-1번지 1층 103호","category":"음료식품 - 제과점"},{"name":"꾸시꾸시베이커리","tel":"544-8789","addr":"경기도 포천시 소흘읍 이동교리 95-1번지 엘프라자 103호","category":"음식 - 제과"},{"name":"누리네집밥","tel":"","addr":"경기도 포천시 소흘읍 이동교리 95-1번지 101호","category":"일반휴게음식 - 일반한식"},{"name":"대방 당구클럽","tel":"","addr":"경기도 포천시 소흘읍 이동교리 95-1번지 2층","category":"서비스 - 당구장"},{"name":"대방당구클럽","tel":"070-8990-5893","addr":"경기도 포천시 소흘읍 이동교리 95-1번지 2층","category":"레저업소 - 당 구 장"},{"name":"더샵아이스크림포천태봉점","tel":"","addr":"경기도 포천시 소흘읍 이동교리 95-1번지 110호","category":"소매업 - 아이스크림"},{"name":"모꼬지","tel":"544-8751","addr":"경기도 포천시 소흘읍 이동교리 95-1번지 1층","category":"음식 - 한식"},{"name":"모꼬지","tel":"031-544-8751","addr":"경기도 포천시 소흘읍 이동교리 95-1번지","category":"일반휴게음식 - 일반한식"},{"name":"봉수플라워","tel":"","addr":"경기도 포천시 소흘읍 이동교리 95-1번지 301호","category":"소매업 - 공방"},{"name":"봉스플라워","tel":"","addr":"경기도 포천시 소흘읍 이동교리 95-1번지 301호 (주)엘프라자","category":"신변잡화 - 기타잡화"},{"name":"천하불닭발","tel":"031-541-9282","addr":"경기도 포천시 소흘읍 이동교리 95-1번지 102호","category":"일반휴게음식 - 일반한식"},{"name":"쾰른음악학원","tel":"544-1149","addr":"경기도 포천시 소흘읍 이동교리 95-1번지 엘프라자 3층","category":"교육서비스 - 학원"},{"name":"크린토피아코인워시포천대방점","tel":"031-541-7145","addr":"경기도 포천시 소흘읍 이동교리 95-1번지 엘프라자빌딩 1층 104호 105호","category":"수리서비스 - 세탁소"}]},{"lat":"37.820032201","long":"127.13538922","items":[{"name":"GS25포천마루점","tel":"","addr":"경기도 포천시 소흘읍 이동교리 156번지","category":"유통업 영리 - 편 의 점"},{"name":"GS25포천마루점","tel":"031-543-9689","addr":"경기도 포천시 소흘읍 이동교리 156번지","category":"편의점 - 편의점"}]},{"lat":"37.793977443","long":"127.12656646","items":[{"name":"GS25포천무봉점","tel":"02-2006-2485","addr":"경기도 포천시 소흘읍 이동교리 408-1","category":"유통업 영리 - 편 의 점"},{"name":"미군만물P.X","tel":"031-541-3334","addr":"경기도 포천시 소흘읍 이동교리 408-1번지","category":"신변잡화 - 기념품점"},{"name":"부동산  공인중개사무소","tel":"031-543-8282","addr":"경기도 포천시 소흘읍 이동교리 408-1","category":"용역 서비스 - 부동산 중개·임대"},{"name":"이불왕도매","tel":"031-541-5617","addr":"경기도 포천시 소흘읍 이동교리 408-1번지 103,104,105호","category":"직물 - 침구·수예점"},{"name":"이불왕도매","tel":"031-541-3454","addr":"경기도 포천시 소흘읍 이동교리 408-1번지 103,104,105호","category":"직물 - 침구·수예점"},{"name":"하동제치국 전문점","tel":"031-543-7230","addr":"경기도 포천시 소흘읍 이동교리 408-1번지","category":"일반휴게음식 - 일반한식"}]},{"lat":"37.794373692","long":"127.12672607","items":[{"name":"GS25포천무봉점","tel":"031-543-3263","addr":"경기도 포천시 소흘읍 이동교리 406-1","category":"편의점 - 편의점"}]},{"lat":"37.813780212","long":"127.13488972","items":[{"name":"JDX포천대리점","tel":"031-541-0696","addr":"경기도 포천시 소흘읍 이동교리 81-2","category":"레져용품 - 스포츠·레져용품"},{"name":"㈜지앤프 크록스","tel":"544-7369","addr":"경기도 포천시 소흘읍 이동교리 81-2번지","category":"도소매 - 스포츠"},{"name":"다인","tel":"02-6965-6231","addr":"경기도 포천시 소흘읍 이동교리 81-2번지 나동","category":"의류 - 정장"},{"name":"아사코 포천송우","tel":"","addr":"경기도 포천시 소흘읍 이동교리 81-2번지","category":"의류 - 스포츠의류"},{"name":"엠피엠 리테일","tel":"031-544-7369","addr":"경기도 포천시 소흘읍 이동교리 81-2번지 드래곤타워","category":"신변잡화 - 신발"},{"name":"올리비아로렌,NII송우점","tel":"031-544-1884","addr":"경기도 포천시 소흘읍 이동교리 81-2","category":"레져용품 - 스포츠·레져용품"},{"name":"이오유통","tel":"031-541-5409","addr":"경기도 포천시 소흘읍 이동교리 81-2번지 1층","category":"의류 - 스포츠의류"},{"name":"컬리수포천점","tel":"031-544-2230","addr":"경기도 포천시 소흘읍 이동교리 81-2번지","category":"레져용품 - 스포츠·레져용품"},{"name":"팜스프링골프","tel":"543-3408","addr":"경기도 포천시 소흘읍 이동교리 81-2번지","category":"도소매 - 스포츠"}]},{"lat":"37.809420902","long":"127.13375773","items":[{"name":"JP유통(LPGA스포츠)","tel":"031-544-9149","addr":"경기도 포천시 소흘읍 이동교리 266-3번지","category":"의류 - 스포츠의류"},{"name":"jp유통(LPGA스포츠)","tel":"544-9149","addr":"경기도 포천시 소흘읍 이동교리 266-3번지","category":"소매업 - 의류"},{"name":"성실유통","tel":"031-541-2889","addr":"경기도 포천시 소흘읍 이동교리 266-3번지 에코아울렛 나동 104호","category":"의류 - 정장"}]},{"lat":"37.804838181","long":"127.13094493","items":[{"name":"K.D.C포천점","tel":"031-543-0322","addr":"경기도 포천시 소흘읍 이동교리 311-9번지","category":"자동차정비 유지 - 카인테리어"}]},{"lat":"37.780570314","long":"127.1187003","items":[{"name":"LH mall (엘에이치몰)","tel":"070-4401-8674","addr":"경기도 포천시 소흘읍 이동교리 730번지 3층","category":"음료식품 - 기타음료식품"},{"name":"팔당냉면 포천직영점","tel":"031-544-1387","addr":"경기도 포천시 소흘읍 이동교리 730번지","category":"일반휴게음식 - 일반한식"}]},{"lat":"37.814419498","long":"127.13523155","items":[{"name":"Le Shop","tel":"541-9849","addr":"경기도 포천시 소흘읍 이동교리 83-2번지","category":"소매업 - 의류"},{"name":"보니스팍스","tel":"031-541-9706","addr":"경기도 포천시 소흘읍 이동교리 83-2번지","category":"레져용품 - 스포츠·레져용품"},{"name":"비키","tel":"031-544-8624","addr":"경기도 포천시 소흘읍 이동교리 83-2번지","category":"레져용품 - 스포츠·레져용품"},{"name":"제이앤에치","tel":"031-541-9849","addr":"경기도 포천시 소흘읍 이동교리 83-2번지 1층일부","category":"의류 - 스포츠의류"},{"name":"파크랜드 포천상설점","tel":"031-541-7009","addr":"경기도 포천시 소흘읍 이동교리 83-2번지","category":"도소매 - 의류"}]},{"lat":"37.815310715","long":"127.13586912","items":[{"name":"Lynxgdlf(보화유통","tel":"544-5968","addr":"경기도 포천시 소흘읍 이동교리 80-1번지","category":"소매업 - 의류"},{"name":"대신함석닥트","tel":"031-541-7148","addr":"경기도 포천시 소흘읍 이동교리 80-1","category":"건축자재 - 보일러·펌프·샷시"},{"name":"디즈니골프웨어","tel":"031-543-4149","addr":"경기도 포천시 소흘읍 이동교리 80-1번지 1층","category":"의류 - 스포츠의류"},{"name":"보화유통","tel":"031-544-5968","addr":"경기도 포천시 소흘읍 이동교리 80-1번지 1층","category":"의류 - 스포츠의류"},{"name":"주골프","tel":"541-5410","addr":"경기도 포천시 소흘읍 이동교리 80-1번지","category":"도소매 - 스포츠"},{"name":"헤지스골프 포천송우점","tel":"031-543-4050","addr":"경기도 포천시 소흘읍 이동교리 80-1번지","category":"레져용품 - 스포츠·레져용품"},{"name":"헤지스골프포천송우점","tel":"543-4050","addr":"경기도 포천시 소흘읍 이동교리 80-1번지","category":"소매업 - 의류"}]},{"lat":"37.808592714","long":"127.13314306","items":[{"name":"MLB","tel":"031-544-0808","addr":"경기도 포천시 소흘읍 이동교리 267-5번지 포천아울렛다동 A동 111호","category":"의류 - 스포츠의류"},{"name":"MLB포천점","tel":"544-0808","addr":"경기도 포천시 소흘읍 이동교리 267-5번지","category":"소매업 - 의류"},{"name":"보스렌자","tel":"031-542-0770","addr":"경기도 포천시 소흘읍 이동교리 267-5번지 포천그린아울렛 다동 B114,B115호","category":"의류 - 정장"},{"name":"볼빅","tel":"031-542-3797","addr":"경기도 포천시 소흘읍 이동교리 267-5번지 가동 1층","category":"레져용품 - 스포츠·레져용품"},{"name":"펠프(포인트재료)","tel":"542-8132","addr":"경기도 포천시 소흘읍 이동교리 267-5번지","category":"도매 - 의류.액세서리"},{"name":"포인트제로","tel":"031-542-8132","addr":"경기도 포천시 소흘읍 이동교리 267-5번지","category":"의류 - 정장"}]},{"lat":"37.821092058","long":"127.13825323","items":[{"name":"MOM'S 한식부페 감자탕","tel":"031-1111-1111","addr":"경기도 포천시 소흘읍 이동교리 32-2번지 1층","category":"일반휴게음식 - 일반한식"}]},{"lat":"37.796643585","long":"127.12719537","items":[{"name":"OK낚시","tel":"031-542-2839","addr":"경기도 포천시 소흘읍 이동교리 402-1","category":"레져용품 - 스포츠·레져용품"}]},{"lat":"37.806594775","long":"127.13117507","items":[{"name":"STCO포천송우상설","tel":"031-542-7146","addr":"경기도 포천시 소흘읍 이동교리 298-23번지","category":"의류 - 스포츠의류"}]},{"lat":"37.802477732","long":"127.13091815","items":[{"name":"TDC","tel":"031-824-2881","addr":"경기도 포천시 소흘읍 이동교리 347-1번지","category":"의류 - 정장"},{"name":"덕성이엔지","tel":"031-543-2478","addr":"경기도 포천시 소흘읍 이동교리 347-1번지","category":"전기제품 - 가전제품"}]},{"lat":"37.785791619","long":"127.12289741","items":[{"name":"ziben/동현F&C","tel":"031-543-5564","addr":"경기도 포천시 소흘읍 이동교리 607-1번지 1층","category":"의류 - 기타의류"},{"name":"또왔다식당","tel":"031-542-8245","addr":"경기도 포천시 소흘읍 이동교리 607-1.2","category":"일반휴게음식 - 일반한식"},{"name":"아이닉스","tel":"070-7430-4570","addr":"경기도 포천시 소흘읍 이동교리 607-1번지 2호","category":"의류 - 정장"},{"name":"일신풍력","tel":"031-541-1828","addr":"경기도 포천시 소흘읍 이동교리 607-1번지","category":"전기제품 - 기타전기제품"},{"name":"주식회사이레이드인코","tel":"031-544-7025","addr":"경기도 포천시 소흘읍 이동교리 607-1번지 607-1호 동소","category":"건축자재 - 보일러·펌프·샷시"}]},{"lat":"37.808979654","long":"127.13356391","items":[{"name":"㈜동방스포츠노스페이스송우점","tel":"544-3337","addr":"경기도 포천시 소흘읍 이동교리 266-6번지","category":"도소매 - 의류"},{"name":"노블리(스타일)","tel":"031-541-5577","addr":"경기도 포천시 소흘읍 이동교리 266-6번지 라동 102호","category":"신변잡화 - 제화"},{"name":"미 공방","tel":"","addr":"경기도 포천시 소흘읍 이동교리 266-6번지 포천프리미엄에코아울렛 A-라동 103호","category":"문화.취미 - 문화취미기타"},{"name":"버거빌런(BURGER VILLAIN)","tel":"","addr":"경기도 포천시 소흘읍 이동교리 266-6번지","category":"일반휴게음식 - 서양음식"},{"name":"보그너.커터앤벅골프","tel":"541-2834","addr":"경기도 포천시 소흘읍 이동교리 266-6번지","category":"도소매 - 스포츠"},{"name":"본 포천점","tel":"02-795-0153","addr":"경기도 포천시 소흘읍 이동교리 266-6번지 라동 101호","category":"의류 - 스포츠의류"},{"name":"본포천점","tel":"542-0152","addr":"경기도 포천시 소흘읍 이동교리 266-6번지 라동 101호","category":"도소매 - 남성의류.스포츠의류"},{"name":"사레와 포천점","tel":"031-544-9799","addr":"경기도 포천시 소흘읍 이동교리 266-6 에코아울렛가동 101호~102호","category":"레져용품 - 스포츠·레져용품"},{"name":"상수포카챠","tel":"","addr":"경기도 포천시 소흘읍 이동교리 266-6번지","category":"일반휴게음식 - 일반한식"},{"name":"윤스갤러리","tel":"","addr":"경기도 포천시 소흘읍 이동교리 266-6번지 라동 105호","category":"소매업 - 공방"},{"name":"윤스갤러리","tel":"031-566-8664","addr":"경기도 포천시 소흘읍 이동교리 266-6번지 라동 105호","category":"문화.취미 - 문화취미기타"},{"name":"한사랑","tel":"070-4203-2856","addr":"경기도 포천시 소흘읍 이동교리 266-6번지 나동 104호","category":"소매업 - 잡화"},{"name":"한사랑","tel":"070-4203-2856","addr":"경기도 포천시 소흘읍 이동교리 266-6번지 나동 104호","category":"유통업 영리 - 편 의 점"},{"name":"현서아트","tel":"","addr":"경기도 포천시 소흘읍 이동교리 266-6번지 A동 나 102호","category":"문화.취미 - 문화취미기타"},{"name":"현초공예종이접기협회포천지회","tel":"","addr":"경기도 포천시 소흘읍 이동교리 266-6번지 A동 103호","category":"서비스 - 체험학습,공예재료"}]},{"lat":"37.801704503","long":"127.12945207","items":[{"name":"㈜아트빌가구","tel":"544-0538","addr":"경기도 포천시 소흘읍 이동교리 338-15번지","category":"도소매 - 가구"}]},{"lat":"37.792842227","long":"127.12658728","items":[{"name":"가구대통령","tel":"542-2098","addr":"경기도 포천시 소흘읍 이동교리 409-10번지","category":"도소매 - 가구"},{"name":"가구대통령","tel":"031-777-8888","addr":"경기도 포천시 소흘읍 이동교리 409-10번지","category":"가구 - 일반가구"},{"name":"상일리베가구","tel":"031-542-4654","addr":"경기도 포천시 소흘읍 이동교리 409-10번지","category":"가구 - 일반가구"}]},{"lat":"37.780229471","long":"127.11714464","items":[{"name":"가구백화점(축석점)","tel":"541-7868","addr":"경기도 포천시 소흘읍 이동교리 714-1번지","category":"도소매 - 가구"},{"name":"라센느디자인","tel":"542-6066","addr":"경기도 포천시 소흘읍 이동교리 714-1번지","category":"도소매 - 가구"},{"name":"한샘 인테리어(포천점)","tel":"542-5670","addr":"경기도 포천시 소흘읍 이동교리 714-1번지","category":"도소매 - 가구"},{"name":"한샘부엌(포천점)","tel":"542-5670","addr":"경기도 포천시 소흘읍 이동교리 714-1번지","category":"도소매 - 생활"},{"name":"한샘인테리어 포천대리점","tel":"031-542-5670","addr":"경기도 포천시 소흘읍 이동교리 714-1번지 통덕 106호","category":"가구 - 일반가구"}]},{"lat":"37.787231856","long":"127.12414851","items":[{"name":"가구오구(가구59)","tel":"031-541-0996","addr":"경기도 포천시 소흘읍 이동교리 636-4번지","category":"가구 - 일반가구"}]},{"lat":"37.813842115","long":"127.13592327","items":[{"name":"가구창고","tel":"031-541-6293","addr":"경기도 포천시 소흘읍 이동교리 77-1번지","category":"가구 - 일반가구"},{"name":"웰메이드 송우점","tel":"031-543-0853","addr":"경기도 포천시 소흘읍 이동교리 77-1번지","category":"의류 - 스포츠의류"},{"name":"중소기업도매가구","tel":"031-542-1870","addr":"경기도 포천시 소흘읍 이동교리 77-1번지","category":"가구 - 일반가구"}]},{"lat":"37.795455636","long":"127.12595583","items":[{"name":"각시방이브자리한국도자기","tel":"031-543-7743","addr":"경기도 포천시 소흘읍 이동교리 389-1번지","category":"직물 - 침구·수예점"}]},{"lat":"37.818759634","long":"127.13736311","items":[{"name":"강나루 생선구이","tel":"541-8864","addr":"경기도 포천시 소흘읍 이동교리 39-12번지","category":"음식 - 한식"},{"name":"애숙씨 콩나물국밥","tel":"031-541-8864","addr":"경기도 포천시 소흘읍 이동교리 39-12번지 1층","category":"일반휴게음식 - 일반한식"},{"name":"제시 뉴욕 ","tel":"544-6745","addr":"경기도 포천시 소흘읍 이동교리 39-12번지","category":"소매업 - 의류"},{"name":"제시뉴욕","tel":"031-544-6745","addr":"경기도 포천시 소흘읍 이동교리 39-12번지","category":"의류 - 정장"}]},{"lat":"37.800618585","long":"127.12545344","items":[{"name":"강희F.A","tel":"070-1478-1236","addr":"경기도 포천시 소흘읍 이동교리 374-75번지 107호,108호","category":"전기제품 - 기타전기제품"}]},{"lat":"37.814147869","long":"127.12822408","items":[{"name":"개랑와바","tel":"","addr":"경기도 포천시 소흘읍 이동교리 214-6번지","category":"문화.취미 - 애완동물"}]},{"lat":"37.810393529","long":"127.13411148","items":[{"name":"거성풍력","tel":"031-541-8478","addr":"경기도 포천시 소흘읍 이동교리 269-1","category":"기타 - 기타 전문점"},{"name":"전자담배 라미야 포천점","tel":"031-544-8884","addr":"경기도 포천시 소흘읍 이동교리 269-1번지","category":"기타 - 기타 전문점"},{"name":"좋은사람들","tel":"031-544-2680","addr":"경기도 포천시 소흘읍 이동교리 269-1번지","category":"레져용품 - 스포츠·레져용품"},{"name":"지이크 할인매장","tel":"031-542-5477","addr":"경기도 포천시 소흘읍 이동교리 269-1번지","category":"레져용품 - 스포츠·레져용품"},{"name":"지이크할인매장","tel":"542-5477","addr":"경기도 포천시 소흘읍 이동교리 269-1번지","category":"소매업 - 의류"},{"name":"트루젠 포천점","tel":"031-541-5473","addr":"경기도 포천시 소흘읍 이동교리 269-1번지","category":"의류 - 정장"}]},{"lat":"37.804953903","long":"127.13222826","items":[{"name":"거성풍력기계","tel":"031-856-1527","addr":"경기도 포천시 소흘읍 이동교리 290-4","category":"전기제품 - 냉열기기"}]},{"lat":"37.809150038","long":"127.13427962","items":[{"name":"건국우유(경기북부특판)","tel":"031-541-7620","addr":"경기도 포천시 소흘읍 이동교리 266-10번지 가동 101호","category":"음료식품 - 기타음료식품"},{"name":"수다인","tel":"","addr":"경기도 포천시 소흘읍 이동교리 266-10번지 에코아울렛 라동 101호","category":"가구 - 기타가구"},{"name":"와이지(YG)인터내셔널","tel":"02-2625-4013","addr":"경기도 포천시 소흘읍 이동교리 266-10번지 (D동라-101호)","category":"의류 - 정장"}]},{"lat":"37.800338225","long":"127.12647488","items":[{"name":"경기DPF","tel":"","addr":"경기도 포천시 소흘읍 이동교리 374-57번지 포천공구상가 22동 110호","category":"기타 - 기계공구"},{"name":"에이지알스포츠 (AGR SPORTS)","tel":"031-864-7040","addr":"경기도 포천시 소흘읍 이동교리 374-57번지 22동 101호","category":"자동차정비 유지 - 자동차부품"},{"name":"용하건설기계","tel":"","addr":"경기도 포천시 소흘읍 이동교리 374-57번지 22동 1층 110호","category":"자동차정비 유지 - 자동차부품"}]},{"lat":"37.813230573","long":"127.13494552","items":[{"name":"경기스톤","tel":"031-543-2385","addr":"경기도 포천시 소흘읍 이동교리 82-2번지","category":"건축자재 - 목재·석재·철물"},{"name":"네파(송우리)","tel":"542-9377","addr":"경기도 포천시 소흘읍 이동교리 82-2번지","category":"소매업 - 스포츠"},{"name":"빈폴스포츠","tel":"544-1014","addr":"경기도 포천시 소흘읍 이동교리 82-2번지","category":"소매업 - 의류"},{"name":"빈폴스포츠 포천송우점","tel":"031-544-1014","addr":"경기도 포천시 소흘읍 이동교리 82-2번지","category":"의류 - 스포츠의류"},{"name":"영어패럴","tel":"031-542-5598","addr":"경기도 포천시 소흘읍 이동교리 82-2번지 2층 1호","category":"의류 - 정장"},{"name":"용주유소","tel":"031-542-9377","addr":"경기도 포천시 소흘읍 이동교리 82-2번지","category":"연료판매점 - 쌍용S-OIL"},{"name":"트레비스","tel":"031-544-8583","addr":"경기도 포천시 소흘읍 이동교리 82-2번지","category":"레져용품 - 스포츠·레져용품"},{"name":"트레비스","tel":"544-8583","addr":"경기도 포천시 소흘읍 이동교리 82-2번지","category":"도소매 - 의류"}]},{"lat":"37.795672443","long":"127.12539985","items":[{"name":"경동자동차매매상사","tel":"031-543-0505","addr":"경기도 포천시 소흘읍 이동교리 389-24번지 외2필지","category":"자동차판매 - 중고자동차판매"}]},{"lat":"37.807422314","long":"127.13239154","items":[{"name":"경원에어콤프","tel":"031-544-2883","addr":"경기도 포천시 소흘읍 이동교리 282-1번지","category":"기타 - 기계공구"}]},{"lat":"37.80272996","long":"127.13095265","items":[{"name":"고려가구","tel":"031-542-2323","addr":"경기도 포천시 소흘읍 이동교리 347-2번지 외1필지","category":"가구 - 기타가구"}]},{"lat":"37.77743073","long":"127.1229747","items":[{"name":"곤충테마여행","tel":"031-531-7993","addr":"경기도 포천시 소흘읍 이동교리 526-2","category":"문화.취미 - 애완동물"}]},{"lat":"37.815335977","long":"127.13742504","items":[{"name":"골드마트","tel":"031-542-4820","addr":"경기도 포천시 소흘읍 이동교리 64-1번지","category":"유통업 영리 - 슈퍼마켓"},{"name":"서울우유포천송우고객센터","tel":"031-541-2970","addr":"경기도 포천시 소흘읍 이동교리 64-1번지","category":"음료식품 - 기타음료식품"}]},{"lat":"37.796400354","long":"127.12717225","items":[{"name":"공간과 가구","tel":"","addr":"경기도 포천시 소흘읍 이동교리 403-3번지 가동","category":"가구 - 일반가구"},{"name":"더가구샵(공간과 가구)","tel":"542-0074","addr":"경기도 포천시 소흘읍 이동교리 403-3번지 가동","category":"도소매 - 가구"},{"name":"베스트골프","tel":"031-542-1283","addr":"경기도 포천시 소흘읍 이동교리 403-3번지 나동","category":"레져용품 - 골프용품 전문점"}]},{"lat":"37.793951376","long":"127.12564679","items":[{"name":"공장가구유통","tel":"031-544-4022","addr":"경기도 포천시 소흘읍 이동교리 391-2번지","category":"가구 - 일반가구"},{"name":"수가구갤러리","tel":"031-542-3070","addr":"경기도 포천시 소흘읍 이동교리 391-2번지","category":"가구 - 일반가구"}]},{"lat":"37.821175294","long":"127.13636802","items":[{"name":"광릉능이마을","tel":"544-5255","addr":"경기도 포천시 소흘읍 이동교리 170-3번지","category":"음식 - 한식"},{"name":"민물장어(민찬수산)","tel":"031-000-0000","addr":"경기도 포천시 소흘읍 이동교리 170-3번지","category":"일반휴게음식 - 일반한식"},{"name":"민찬수산 (민물장어)","tel":"","addr":"경기도 포천시 소흘읍 이동교리 170-3번지","category":"음료식품 - 농·축·수산품"},{"name":"소흘궁","tel":"031-544-5255","addr":"경기도 포천시 소흘읍 이동교리 170-3번지","category":"일반휴게음식 - 중국식"},{"name":"소흘궁","tel":"544-5255","addr":"경기도 포천시 소흘읍 이동교리 170-3번지","category":"음식 - 중식"}]},{"lat":"37.819003476","long":"127.12867523","items":[{"name":"광일기업","tel":"031-532-9393","addr":"경기도 포천시 소흘읍 이동교리 196-8","category":"용역 서비스 - 종합용역"}]},{"lat":"37.779401727","long":"127.11597419","items":[{"name":"구제상회","tel":"","addr":"경기도 포천시 소흘읍 이동교리 719-1번지 1층","category":"의류 - 기타의류"},{"name":"파로마 갤러리","tel":"031-544-5753","addr":"경기도 포천시 소흘읍 이동교리 719-1번지 102호","category":"가구 - 일반가구"}]},{"lat":"37.800289775","long":"127.12967674","items":[{"name":"구포잔치국수","tel":"031-543-6239","addr":"경기도 포천시 소흘읍 이동교리 371-5번지","category":"일반휴게음식 - 일반한식"},{"name":"부인터 여성전용 한증막","tel":"031-543-3200","addr":"경기도 포천시 소흘읍 이동교리 371-5번지","category":"보건위생 - 사우나"}]},{"lat":"37.797786993","long":"127.12794665","items":[{"name":"국제매니아","tel":"031-542-8789","addr":"경기도 포천시 소흘읍 이동교리 380-7번지","category":"가구 - 일반가구"}]},{"lat":"37.778562717","long":"127.11714207","items":[{"name":"굿모닝홈케어","tel":"031-1600-0843","addr":"경기도 포천시 소흘읍 이동교리 733-19번지","category":"용역 서비스 - 종합용역"},{"name":"제일싼중고차","tel":"031-542-4136","addr":"경기도 포천시 소흘읍 이동교리 733-19번지","category":"자동차판매 - 중고자동차판매"}]},{"lat":"37.773094691","long":"127.11637319","items":[{"name":"그대를 읽다","tel":"031-544-3456","addr":"경기도 포천시 소흘읍 이동교리 765-27번지","category":"숙박업 - 여관/기타숙박업"}]},{"lat":"37.812205446","long":"127.13319484","items":[{"name":"그린마트","tel":"031-541-1110","addr":"경기도 포천시 소흘읍 이동교리 96-5번지 외 1필지 남일상가","category":"유통업 영리 - 슈퍼마켓"},{"name":"차오름태권도","tel":"544-3885","addr":"경기도 포천시 소흘읍 이동교리 96-5번지","category":"교육서비스 - 학원"},{"name":"차오름태권도","tel":"031-544-3880","addr":"경기도 포천시 소흘읍 이동교리 96-5번지","category":"학원 - 예·체능계학원"}]},{"lat":"37.794563961","long":"127.12570457","items":[{"name":"그린자동차공업사","tel":"031-542-7147","addr":"경기도 포천시 소흘읍 이동교리 389-4","category":"자동차정비 유지 - 자동차정비"},{"name":"보성자동차마을","tel":"031-542-7147","addr":"경기도 포천시 소흘읍 이동교리 389-4번지","category":"자동차정비 유지 - 자동차부품"}]},{"lat":"37.800727194","long":"127.12497673","items":[{"name":"그림자아트스튜디오(GRIMZA ARTSTUDIO)","tel":"","addr":"경기도 포천시 소흘읍 이동교리 374-73번지 포천공구단지 6동 B06호","category":"문화.취미 - 화랑"}]},{"lat":"37.821947219","long":"127.13889083","items":[{"name":"꽃이랑난이랑","tel":"031-544-2202","addr":"경기도 포천시 소흘읍 이동교리 26-2","category":"문화.취미 - 화원"}]},{"lat":"37.780315898","long":"127.12086802","items":[{"name":"나나디자인","tel":"031-541-5358","addr":"경기도 포천시 소흘읍 이동교리 552-2번지 가동","category":"가구 - 일반가구"}]},{"lat":"37.799922437","long":"127.12775723","items":[{"name":"나노 앤 씨앤","tel":"070-1478-1236","addr":"경기도 포천시 소흘읍 이동교리 산76번지 포천공구단지 17동 106호","category":"용역 서비스 - 기타용역서비스"}]},{"lat":"37.798868151","long":"127.12792576","items":[{"name":"나눔유통","tel":"544-8907","addr":"경기도 포천시 소흘읍 이동교리 374-24번지","category":"도소매 - 애견"},{"name":"명가홈데코","tel":"543-5560","addr":"경기도 포천시 소흘읍 이동교리 374-24번지","category":"도소매 - 침구류"},{"name":"은미침구","tel":"031-542-4494","addr":"경기도 포천시 소흘읍 이동교리 374-24번지","category":"직물 - 침구·수예점"}]},{"lat":"37.778427915","long":"127.11678998","items":[{"name":"나목","tel":"031-544-0277","addr":"경기도 포천시 소흘읍 이동교리 738-6번지","category":"가구 - 일반가구"}]},{"lat":"37.77829297","long":"127.11658545","items":[{"name":"나우유통","tel":"","addr":"경기도 포천시 소흘읍 이동교리 738-14번지 A동 2층 201호","category":"신변잡화 - 기타잡화"},{"name":"비젼카센타","tel":"031-544-0723","addr":"경기도 포천시 소흘읍 이동교리 738-14번지","category":"자동차정비 유지 - 자동차정비"}]},{"lat":"37.79953292","long":"127.12973222","items":[{"name":"남가네","tel":"031-544-6235","addr":"경기도 포천시 소흘읍 이동교리 370번지 가동 1층","category":"일반휴게음식 - 일반한식"},{"name":"엠와이 인테리어","tel":"031-546-0636","addr":"경기도 포천시 소흘읍 이동교리 370번지 E동","category":"가구 - 기타가구"},{"name":"포천패션타운","tel":"031-543-3702","addr":"경기도 포천시 소흘읍 이동교리 370번지 369동 10호 ,11,12","category":"레져용품 - 스포츠·레져용품"}]},{"lat":"37.814094315","long":"127.1359805","items":[{"name":"남성 크로크다일","tel":"544-2833","addr":"경기도 포천시 소흘읍 이동교리 77-4번지","category":"도소매 - 의류"},{"name":"크로커다일","tel":"031-544-2833","addr":"경기도 포천시 소흘읍 이동교리 77-4번지","category":"의류 - 스포츠의류"},{"name":"한독패션","tel":"031-541-2834","addr":"경기도 포천시 소흘읍 이동교리 77-4번지","category":"의류 - 스포츠의류"}]},{"lat":"37.792427995","long":"127.12639358","items":[{"name":"노송가구 포천점","tel":"543-8111","addr":"경기도 포천시 소흘읍 이동교리 410-1번지","category":"도소매 - 가구"},{"name":"레이디 가구","tel":"031-541-6420","addr":"경기도 포천시 소흘읍 이동교리 410-1번지","category":"가구 - 일반가구"},{"name":"레이디가구","tel":"541-6420","addr":"경기도 포천시 소흘읍 이동교리 410-1번지","category":"도소매 - 가구"},{"name":"주식회사센스21","tel":"031-541-6171","addr":"경기도 포천시 소흘읍 이동교리 410-1 다동","category":"가구 - 일반가구"}]},{"lat":"37.800281667","long":"127.1288365","items":[{"name":"노원분식","tel":"031-542-2209","addr":"경기도 포천시 소흘읍 이동교리 373-1","category":"일반휴게음식 - 스넥"},{"name":"노원분식","tel":"542-2209","addr":"경기도 포천시 소흘읍 이동교리 373-1번지","category":"음식 - 분식"},{"name":"등심퐁당 샤브퐁당","tel":"031-544-8999","addr":"경기도 포천시 소흘읍 이동교리 373-1번지","category":"일반휴게음식 - 일반한식"},{"name":"미니스톱포천이동교점","tel":"031-1577-9621","addr":"경기도 포천시 소흘읍 이동교리 373-1번지 가동","category":"유통업 영리 - 편 의 점"}]},{"lat":"37.819728137","long":"127.13336706","items":[{"name":"누나홀닭 포천 (송우점)","tel":"031-543-9292","addr":"경기도 포천시 소흘읍 이동교리 160-3번지","category":"일반휴게음식 - 스넥"}]},{"lat":"37.779984507","long":"127.11889236","items":[{"name":"늘푸른마트","tel":"541-1424","addr":"경기도 포천시 소흘읍 이동교리 731-21번지","category":"도소매 - 잡화"},{"name":"늘푸른마트","tel":"031-541-1424","addr":"경기도 포천시 소흘읍 이동교리 731-21번지","category":"유통업 영리 - 슈퍼마켓"},{"name":"다올 축산","tel":"541-6321","addr":"경기도 포천시 소흘읍 이동교리 731-21번지","category":"도소매 - 축산물"},{"name":"어죽이네철렵국","tel":"031-544-4566","addr":"경기도 포천시 소흘읍 이동교리 731-21번지 외2필지","category":"일반휴게음식 - 일반한식"},{"name":"축석정육점","tel":"031-541-1424","addr":"경기도 포천시 소흘읍 이동교리 731-21번지","category":"음료식품 - 정육점"}]},{"lat":"37.775842892","long":"127.11605957","items":[{"name":"다올풍천장어 (수산물)","tel":"031-543-0506","addr":"경기도 포천시 소흘읍 이동교리 748-7번지","category":"음료식품 - 농·축·수산품"},{"name":"포천풍천장어셀프장","tel":"031-541-0506","addr":"경기도 포천시 소흘읍 이동교리 748-7번지","category":"일반휴게음식 - 일반한식"}]},{"lat":"37.823616754","long":"127.13645192","items":[{"name":"담을농산","tel":"544-8960","addr":"경기도 포천시 소흘읍 이동교리 183-3번지","category":"도소매 - 잡곡"}]},{"lat":"37.796067994","long":"127.12622933","items":[{"name":"대경가구","tel":"031-542-7101","addr":"경기도 포천시 소흘읍 이동교리 392-6번지","category":"가구 - 일반가구"},{"name":"이상(주)","tel":"031-846-3231","addr":"경기도 포천시 소흘읍 이동교리 392-6번지","category":"건축자재 - 인테리어전문"}]},{"lat":"37.782317448","long":"127.11941818","items":[{"name":"대도의자씽크","tel":"031-542-1227","addr":"경기도 포천시 소흘읍 이동교리 708-1번지","category":"주방용구 - 주방용구"}]},{"lat":"37.795202562","long":"127.12672745","items":[{"name":"대박낚시할인마트","tel":"031-541-7624","addr":"경기도 포천시 소흘읍 이동교리 401-1번지","category":"레져용품 - 스포츠·레져용품"}]},{"lat":"37.787097227","long":"127.12364878","items":[{"name":"대성조명","tel":"031-542-5063","addr":"경기도 포천시 소흘읍 이동교리 624-13","category":"건축자재 - 조명기구"},{"name":"대성철물","tel":"031-542-1262","addr":"경기도 포천시 소흘읍 이동교리 624-13번지","category":"건축자재 - 목재·석재·철물"},{"name":"대성페인트포천점","tel":"031-544-6718","addr":"경기도 포천시 소흘읍 이동교리 624-13번지","category":"건축자재 - 페인트"}]},{"lat":"37.819975814","long":"127.13744481","items":[{"name":"대성중고타이어전문점","tel":"031-821-6803","addr":"경기도 포천시 소흘읍 이동교리 36-1번지","category":"자동차정비 유지 - 자동차시트·타이어"},{"name":"엘리스튜디오","tel":"031-544-5771","addr":"경기도 포천시 소흘읍 이동교리 36-1번지","category":"광학제품 - 사진관"}]},{"lat":"37.786180074","long":"127.12186498","items":[{"name":"대양유니온","tel":"031-542-0866","addr":"경기도 포천시 소흘읍 이동교리 613-9번지","category":"건축자재 - 기타건축자재"}]},{"lat":"37.778510947","long":"127.11475826","items":[{"name":"대일스텐","tel":"031-544-7200","addr":"경기도 포천시 소흘읍 이동교리 718-16","category":"주방용구 - 주방용구"}]},{"lat":"37.81550437","long":"127.13186054","items":[{"name":"대진상사","tel":"031-543-5657","addr":"경기도 포천시 소흘읍 이동교리 109-9번지 소망빌라 107동 401호","category":"신변잡화 - 기타잡화"}]},{"lat":"37.800258325","long":"127.1253393","items":[{"name":"대현볼트","tel":"032-678-9530","addr":"경기도 포천시 소흘읍 이동교리 374-77번지 11동 101호","category":"기타 - 기계공구"},{"name":"주식회사 스탠스골프","tel":"031-8089-7955","addr":"경기도 포천시 소흘읍 이동교리 374-77번지 포천공구상가 11동 B03호","category":"레져용품 - 스포츠·레져용품"},{"name":"태오스포츠","tel":"055-520-8027","addr":"경기도 포천시 소흘읍 이동교리 374-77번지 포천공구유통단지 11동 805호","category":"레져용품 - 스포츠·레져용품"}]},{"lat":"37.785702423","long":"127.1220118","items":[{"name":"대현슈퍼","tel":"031-543-0337","addr":"경기도 포천시 소흘읍 이동교리 613-1번지","category":"유통업 영리 - 슈퍼마켓"}]},{"lat":"37.819391905","long":"127.13594459","items":[{"name":"대호모터스","tel":"031-541-7878","addr":"경기도 포천시 소흘읍 이동교리 150-5번지 외1필지","category":"자동차판매 - 중고자동차판매"},{"name":"삼정물류유통","tel":"031-542-1715","addr":"경기도 포천시 소흘읍 이동교리 150-5번지","category":"용역 서비스 - 보관및 창고업"},{"name":"삼정코퍼레이션 주식회사","tel":"031-542-1715","addr":"경기도 포천시 소흘읍 이동교리 150-5번지","category":"건축자재 - 기타건축자재"},{"name":"신화모터스","tel":"031-541-3773","addr":"경기도 포천시 소흘읍 이동교리 150-5번지","category":"자동차판매 - 중고자동차판매"},{"name":"허니워니","tel":"031-544-4580","addr":"경기도 포천시 소흘읍 이동교리 150-5번지 2호-전대차:10평","category":"의류 - 정장"}]},{"lat":"37.782452287","long":"127.11972489","items":[{"name":"더에이치금계나무(The H)","tel":"031-544-7111","addr":"경기도 포천시 소흘읍 이동교리 569-5번지","category":"가구 - 일반가구"}]},{"lat":"37.814977238","long":"127.13598209","items":[{"name":"데상트골프 포천점","tel":"031-827-0326","addr":"경기도 포천시 소흘읍 이동교리 80-2번지 1층","category":"레져용품 - 스포츠·레져용품"},{"name":"에스앤씨 트레이딩","tel":"031-827-0326","addr":"경기도 포천시 소흘읍 이동교리 80-2번지","category":"의류 - 스포츠의류"}]},{"lat":"37.818922528","long":"127.1367274","items":[{"name":"돈까스클럽(포천점)","tel":"543-1701","addr":"경기도 포천시 소흘읍 이동교리 149-4번지","category":"음식 - 양식"},{"name":"돈까스클럽(포천점)","tel":"031-543-1701","addr":"경기도 포천시 소흘읍 이동교리 149-4번지","category":"일반휴게음식 - 서양음식"}]},{"lat":"37.785340717","long":"127.12331671","items":[{"name":"돌침대돌쇼파흙침대옥침대 공장전시장","tel":"031-542-8621","addr":"경기도 포천시 소흘읍 이동교리 597-4번지","category":"가구 - 일반가구"}]},{"lat":"37.80322591","long":"127.13055608","items":[{"name":"동서","tel":"","addr":"경기도 포천시 소흘읍 이동교리 312-1번지","category":"가구 - 일반가구"}]},{"lat":"37.791842403","long":"127.1263699","items":[{"name":"동서가구 이태리가구","tel":"031-542-5677","addr":"경기도 포천시 소흘읍 이동교리 410-3번지","category":"가구 - 일반가구"},{"name":"레이디가구","tel":"031-542-5677","addr":"경기도 포천시 소흘읍 이동교리 410-3번지","category":"가구 - 일반가구"}]},{"lat":"37.788429858","long":"127.12440022","items":[{"name":"동성","tel":"02-468-3700","addr":"경기도 포천시 소흘읍 이동교리 638-1번지","category":"의류 - 기타의류"}]},{"lat":"37.808009083","long":"127.1313365","items":[{"name":"동신크레인","tel":"031-542-2122","addr":"경기도 포천시 소흘읍 이동교리 297-12번지","category":"기타 - 기계공구"}]},{"lat":"37.7863419","long":"127.12220581","items":[{"name":"동원작","tel":"031-543-3612","addr":"경기도 포천시 소흘읍 이동교리 608-3번지","category":"레져용품 - 스포츠·레져용품"},{"name":"에프오피(F.O.P)","tel":"031-544-9985","addr":"경기도 포천시 소흘읍 이동교리 608-3번지","category":"회원제형태 - 건강식품"}]},{"lat":"37.806810071","long":"127.1320271","items":[{"name":"두리랑","tel":"070-8633-0786","addr":"경기도 포천시 소흘읍 이동교리 296-1번지","category":"직물 - 침구·수예점"}]},{"lat":"37.788951491","long":"127.12528658","items":[{"name":"듀오백코리아의정부총판","tel":"031-847-7106","addr":"경기도 포천시 소흘읍 이동교리 665-2번지","category":"가구 - 일반가구"},{"name":"에넥스 포천점","tel":"031-543-6204","addr":"경기도 포천시 소흘읍 이동교리 665-2번지","category":"주방용구 - 주방용구"},{"name":"유노인터내셔날","tel":"031-541-0411","addr":"경기도 포천시 소흘읍 이동교리 665-2번지 다동","category":"가구 - 일반가구"},{"name":"창이야기","tel":"031-544-8773","addr":"경기도 포천시 소흘읍 이동교리 665-2번지 다동","category":"직물 - 카페트,커튼,천막,지물"},{"name":"창이야기","tel":"544-8773","addr":"경기도 포천시 소흘읍 이동교리 665-2번지 다동","category":"도소매 - 침구류"}]},{"lat":"37.79220252","long":"127.12662027","items":[{"name":"드라마가구","tel":"543-6066","addr":"경기도 포천시 소흘읍 이동교리 410-4번지","category":"도소매 - 가구"},{"name":"드라마가구","tel":"031-543-6068","addr":"경기도 포천시 소흘읍 이동교리 410-4번지","category":"가구 - 일반가구"}]},{"lat":"37.802226611","long":"127.12986173","items":[{"name":"드림가구","tel":"031-543-8051","addr":"경기도 포천시 소흘읍 이동교리 340-1","category":"가구 - 일반가구"}]},{"lat":"37.79403535","long":"127.12284262","items":[{"name":"드림셔터","tel":"","addr":"경기도 포천시 소흘읍 이동교리 390-49번지 가동","category":"용역 서비스 - 기타용역서비스"}]},{"lat":"37.817644129","long":"127.13589602","items":[{"name":"드림카오디오","tel":"031-541-2472","addr":"경기도 포천시 소흘읍 이동교리 140-4번지","category":"자동차정비 유지 - 자동차부품"}]},{"lat":"37.800175757","long":"127.12675847","items":[{"name":"디에스에프에이","tel":"031-544-1800","addr":"경기도 포천시 소흘읍 이동교리 374-59 포천공구유통단지24동104호","category":"기타 - 기계공구"},{"name":"우진무역","tel":"031-543-5003","addr":"경기도 포천시 소흘읍 이동교리 374-59번지 포천공구유통단지 24동 105호","category":"전기제품 - 기타전기제품"}]},{"lat":"37.818426532","long":"127.13714672","items":[{"name":"디엔씨","tel":"070-7717-8311","addr":"경기도 포천시 소흘읍 이동교리 39-14번지 1층","category":"문화.취미 - 애완동물"},{"name":"빈스트명품구제","tel":"02-3667-2068","addr":"경기도 포천시 소흘읍 이동교리 39-14번지","category":"의류 - 기타의류"},{"name":"성현 스크린골프","tel":"541-0255","addr":"경기도 포천시 소흘읍 이동교리 39-14번지 2층","category":"서비스 - 골프연습장"},{"name":"성현스크린골프","tel":"031-541-0255","addr":"경기도 포천시 소흘읍 이동교리 39-14번지","category":"레저업소 - 스크린골프"},{"name":"파사디골프 포천","tel":"543-0749","addr":"경기도 포천시 소흘읍 이동교리 39-14번지","category":"도소매 - 의류"},{"name":"파사디골프포천점","tel":"031-543-0749","addr":"경기도 포천시 소흘읍 이동교리 39-14","category":"레져용품 - 스포츠·레져용품"}]},{"lat":"37.779868496","long":"127.11775705","items":[{"name":"디자인루카스","tel":"542-0358","addr":"경기도 포천시 소흘읍 이동교리 725-5번지","category":"도소매 - 가구"},{"name":"우리사무용가구","tel":"543-0777","addr":"경기도 포천시 소흘읍 이동교리 725-5번지","category":"도소매 - 가구"},{"name":"주식회사 디자인루카스","tel":"031-544-9351","addr":"경기도 포천시 소흘읍 이동교리 725-5번지","category":"가구 - 일반가구"}]},{"lat":"37.812780813","long":"127.13430877","items":[{"name":"디자인씨티","tel":"031-000-0000","addr":"경기도 포천시 소흘읍 이동교리 91-2번지","category":"가구 - 일반가구"}]},{"lat":"37.794896301","long":"127.12667018","items":[{"name":"디자인엘가","tel":"","addr":"경기도 포천시 소흘읍 이동교리 406-3번지","category":"가구 - 일반가구"},{"name":"신세계알뜰할인매장","tel":"031-544-7758","addr":"경기도 포천시 소흘읍 이동교리 406-3번지","category":"신변잡화 - 기타잡화"}]},{"lat":"37.778096608","long":"127.1237817","items":[{"name":"딩가댕가","tel":"","addr":"경기도 포천시 소흘읍 이동교리 523-3번지 나동 1층","category":"일반휴게음식 - 서양음식"},{"name":"쭈꾸미킹 광릉수목원점","tel":"031-543-7191","addr":"경기도 포천시 소흘읍 이동교리 523-3번지 외2필지","category":"일반휴게음식 - 일반한식"},{"name":"쭈꾸미킹 광릉수목원점/주식회사 엠제이오","tel":"031-543-7292","addr":"경기도 포천시 소흘읍 이동교리 523-3번지 외 2필지","category":"일반휴게음식 - 일반한식"},{"name":"축석자연농원","tel":"031-541-0181","addr":"경기도 포천시 소흘읍 이동교리 523-3번지","category":"농업 - 비료,사료,종자"}]},{"lat":"37.792257681","long":"127.12556451","items":[{"name":"라자가구","tel":"031-544-2240","addr":"경기도 포천시 소흘읍 이동교리 412-6번지","category":"가구 - 일반가구"},{"name":"플리코","tel":"031-544-2240","addr":"경기도 포천시 소흘읍 이동교리 412-6번지","category":"가구 - 일반가구"}]},{"lat":"37.773149228","long":"127.11587386","items":[{"name":"락앤아이스","tel":"031-544-8851","addr":"경기도 포천시 소흘읍 이동교리 765-12번지","category":"레져용품 - 스포츠·레져용품"}]},{"lat":"37.799345362","long":"127.12819907","items":[{"name":"러브하우스","tel":"031-542-6435","addr":"경기도 포천시 소흘읍 이동교리 374-32번지","category":"직물 - 카페트,커튼,천막,지물"}]},{"lat":"37.812753162","long":"127.13486518","items":[{"name":"레스모아 송우점","tel":"544-1666","addr":"경기도 포천시 소흘읍 이동교리 90-3번지","category":"소매업 - 스포츠"},{"name":"밀레","tel":"031-543-2888","addr":"경기도 포천시 소흘읍 이동교리 90-3번지 1층 2호","category":"레져용품 - 스포츠·레져용품"},{"name":"밀레 송우점","tel":"543-2888","addr":"경기도 포천시 소흘읍 이동교리 90-3번지","category":"도소매 - 스포츠"},{"name":"포천송우 레스모아","tel":"031-544-1666","addr":"경기도 포천시 소흘읍 이동교리 90-3번지 90-3,90-10","category":"레져용품 - 스포츠·레져용품"}]},{"lat":"37.807620184","long":"127.13269849","items":[{"name":"렉산테크","tel":"031-853-6475","addr":"경기도 포천시 소흘읍 이동교리 282번지","category":"기타 - 기타 전문점"},{"name":"삼원철강(주)","tel":"031-541-6177","addr":"경기도 포천시 소흘읍 이동교리 282","category":"건축자재 - 기타건축자재"}]},{"lat":"37.81483947","long":"127.13828724","items":[{"name":"로얄베딩","tel":"031-544-9050","addr":"경기도 포천시 소흘읍 이동교리 64-21번지","category":"직물 - 침구·수예점"}]},{"lat":"37.778816664","long":"127.11539439","items":[{"name":"로하스퍼니처","tel":"031-544-5753","addr":"경기도 포천시 소흘읍 이동교리 719-6번지","category":"가구 - 일반가구"},{"name":"이마트24 포천축석고개점","tel":"031-564-1703","addr":"경기도 포천시 소흘읍 이동교리 719-6번지","category":"유통업 영리 - 슈퍼마켓"},{"name":"이마트24 포천축석고개점","tel":"031-542-5635","addr":"경기도 포천시 소흘읍 이동교리 719-6번지","category":"유통업 영리 - 편 의 점"},{"name":"치킨마루축석고개점","tel":"031-542-5633","addr":"경기도 포천시 소흘읍 이동교리 719-6번지","category":"일반휴게음식 - 스넥"},{"name":"파트너스","tel":"031-544-5588","addr":"경기도 포천시 소흘읍 이동교리 719-6번지","category":"전기제품 - 기타전기제품"}]},{"lat":"37.795005341","long":"127.12578478","items":[{"name":"롯데리아포천dt점","tel":"544-9200","addr":"경기도 포천시 소흘읍 이동교리 389-3번지","category":"음식 - 햄버거"}]},{"lat":"37.814426246","long":"127.13723032","items":[{"name":"롯데칠성 동명","tel":"031-532-7734","addr":"경기도 포천시 소흘읍 이동교리 64-6번지","category":"음료식품 - 기타음료식품"},{"name":"주식회사은가비","tel":"070-1111-1111","addr":"경기도 포천시 소흘읍 이동교리 64-6번지","category":"건축자재 - 기타건축자재"}]},{"lat":"37.814337544","long":"127.13600365","items":[{"name":"르꼬끄골프 포천점","tel":"031-544-0708","addr":"경기도 포천시 소흘읍 이동교리 78-4번지","category":"레져용품 - 스포츠·레져용품"},{"name":"쌤소나이트포천아울렛","tel":"543-2526","addr":"경기도 포천시 소흘읍 이동교리 78-4번지","category":"도소매 - 잡화"},{"name":"쌤소나이트포천아울렛점","tel":"031-543-2526","addr":"경기도 포천시 소흘읍 이동교리 78-4번지","category":"레져용품 - 스포츠·레져용품"}]},{"lat":"37.805953988","long":"127.13219594","items":[{"name":"리퍼브 마트","tel":"031-542-8947","addr":"경기도 포천시 소흘읍 이동교리 294-16번지","category":"신변잡화 - 기타잡화"}]},{"lat":"37.801622463","long":"127.13033759","items":[{"name":"린다데코","tel":"031-543-5989","addr":"경기도 포천시 소흘읍 이동교리 349-5번지","category":"가구 - 일반가구"}]},{"lat":"37.821398247","long":"127.13836737","items":[{"name":"마사지이야기2호점","tel":"031-542-5859","addr":"경기도 포천시 소흘읍 이동교리 34-5번지 2층","category":"보건위생 - 화장품"},{"name":"박홍근홈패션아울렛(송우점)","tel":"031-543-9339","addr":"경기도 포천시 소흘읍 이동교리 34-5번지 1층","category":"직물 - 침구·수예점"},{"name":"박홍근홈패션아울렛송우점","tel":"","addr":"경기도 포천시 소흘읍 이동교리 34-5번지 1층","category":"소매업 - 침구류"},{"name":"비너멜랑쉬커피","tel":"02-1111-1111","addr":"경기도 포천시 소흘읍 이동교리 34-5번지","category":"일반휴게음식 - 서양음식"}]},{"lat":"37.777736765","long":"127.11408739","items":[{"name":"맛의전당45년짬뽕전문점","tel":"031-543-3369","addr":"경기도 포천시 소흘읍 이동교리 770-1번지","category":"일반휴게음식 - 중국식"}]},{"lat":"37.809646327","long":"127.13358779","items":[{"name":"매트박스","tel":"031-543-2118","addr":"경기도 포천시 소흘읍 이동교리 269-5번지 1층","category":"직물 - 침구·수예점"},{"name":"몽피크(포천점)","tel":"031-543-7034","addr":"경기도 포천시 소흘읍 이동교리 269-5번지","category":"의류 - 스포츠의류"},{"name":"몽피크포천점","tel":"543-7034","addr":"경기도 포천시 소흘읍 이동교리 269-5번지","category":"소매업 - 의류"}]},{"lat":"37.807980436","long":"127.13281268","items":[{"name":"머렐포천송우점","tel":"031-542-0326","addr":"경기도 포천시 소흘읍 이동교리 281-16","category":"레져용품 - 스포츠·레져용품"}]},{"lat":"37.778230112","long":"127.11636969","items":[{"name":"메리퀸","tel":"031-542-2773","addr":"경기도 포천시 소흘읍 이동교리 738-4 에이동","category":"직물 - 침구·수예점"}]},{"lat":"37.804954214","long":"127.13194439","items":[{"name":"명성종합상사","tel":"031-544-3202","addr":"경기도 포천시 소흘읍 이동교리 290","category":"신변잡화 - 기타잡화"}]},{"lat":"37.788647459","long":"127.12306097","items":[{"name":"명작커피 코리아(Korea)","tel":"","addr":"경기도 포천시 소흘읍 이동교리 642번지","category":"음료식품 - 기타음료식품"}]},{"lat":"37.81209476","long":"127.13549995","items":[{"name":"명품수선","tel":"031-542-3612","addr":"경기도 포천시 소흘읍 이동교리 73-2번지","category":"수리서비스 - 세탁소"},{"name":"조이너스 송우점","tel":"544-8942","addr":"경기도 포천시 소흘읍 이동교리 73-2번지","category":"소매업 - 의류"}]},{"lat":"37.808034593","long":"127.13272193","items":[{"name":"명품아이아동복","tel":"031-541-0550","addr":"경기도 포천시 소흘읍 이동교리 281-17번지","category":"의류 - 아동의류"},{"name":"엘림이불","tel":"031-544-4117","addr":"경기도 포천시 소흘읍 이동교리 281-17번지","category":"직물 - 침구·수예점"}]},{"lat":"37.784648852","long":"127.12147656","items":[{"name":"모빈스","tel":"541-7114","addr":"경기도 포천시 소흘읍 이동교리 581-12번지","category":"도소매 - 가구"},{"name":"모빈스","tel":"031-541-7114","addr":"경기도 포천시 소흘읍 이동교리 581-12번지","category":"신변잡화 - 기타잡화"}]},{"lat":"37.780263466","long":"127.11923334","items":[{"name":"모월모일","tel":"03-111-1111","addr":"경기도 포천시 소흘읍 이동교리 731-3번지","category":"일반휴게음식 - 일반한식"},{"name":"모월모일","tel":"541-5123","addr":"경기도 포천시 소흘읍 이동교리 731-3번지","category":"음식 - 한식"},{"name":"상하이문 (포천점)","tel":"031-541-5567","addr":"경기도 포천시 소흘읍 이동교리 731-3번지 1층","category":"일반휴게음식 - 중국식"},{"name":"헤어프로","tel":"031-543-5428","addr":"경기도 포천시 소흘읍 이동교리 731-3","category":"보건위생 - 미용재료"}]},{"lat":"37.801533421","long":"127.12936094","items":[{"name":"목림방가구","tel":"031-541-0545","addr":"경기도 포천시 소흘읍 이동교리 338-16번지","category":"가구 - 일반가구"}]},{"lat":"37.810897741","long":"127.13439628","items":[{"name":"몽스커피","tel":"031-111-1111","addr":"경기도 포천시 소흘읍 이동교리 260-2번지","category":"일반휴게음식 - 서양음식"}]},{"lat":"37.815122119","long":"127.13533502","items":[{"name":"무봉리스크린골프","tel":"031-544-4492","addr":"경기도 포천시 소흘읍 이동교리 84-1번지 2층","category":"회원제형태 - 레져업소"}]},{"lat":"37.800345472","long":"127.12814399","items":[{"name":"무봉콘테이너","tel":"031-543-6842","addr":"경기도 포천시 소흘읍 이동교리 374-1번지","category":"건축자재 - 기타건축자재"},{"name":"진성","tel":"031-852-1983","addr":"경기도 포천시 소흘읍 이동교리 374-1번지","category":"광학제품 - 사진관"}]},{"lat":"37.787537897","long":"127.12442147","items":[{"name":"미성자동차공업사","tel":"031-543-4434","addr":"경기도 포천시 소흘읍 이동교리 634-8","category":"자동차정비 유지 - 자동차정비"},{"name":"서윤상사","tel":"031-543-5183","addr":"경기도 포천시 소흘읍 이동교리 634-8번지","category":"자동차정비 유지 - 윤활유 전문 판매"}]},{"lat":"37.820177002","long":"127.13481025","items":[{"name":"미소만찬밥상","tel":"542-1415","addr":"경기도 포천시 소흘읍 이동교리 157-1번지","category":"음식 - 한식"},{"name":"유천카센타","tel":"543-3157","addr":"경기도 포천시 소흘읍 이동교리 157-1","category":"서비스 - 자동차 수리"},{"name":"유천카센타","tel":"031-543-3157","addr":"경기도 포천시 소흘읍 이동교리 157-1번지 외 1필지","category":"자동차정비 유지 - 자동차정비"}]},{"lat":"37.801983527","long":"127.12970235","items":[{"name":"미젠미가구점","tel":"031-543-6625","addr":"경기도 포천시 소흘읍 이동교리 338-4번지","category":"가구 - 일반가구"},{"name":"미젠미가구점","tel":"543-6625","addr":"경기도 포천시 소흘읍 이동교리 338-4번지","category":"소매업 - 가구"},{"name":"벨메종가구","tel":"031-542-3633","addr":"경기도 포천시 소흘읍 이동교리 338-4","category":"가구 - 일반가구"}]},{"lat":"37.793094552","long":"127.12653093","items":[{"name":"밀라노가구","tel":"031-542-5696","addr":"경기도 포천시 소흘읍 이동교리 409-9번지","category":"가구 - 일반가구"},{"name":"임가공예","tel":"031-542-2085","addr":"경기도 포천시 소흘읍 이동교리 409-9번지","category":"가구 - 일반가구"},{"name":"탑 디자인가구","tel":"031-544-9995","addr":"경기도 포천시 소흘읍 이동교리 409-9번지 2호","category":"가구 - 일반가구"},{"name":"포천가국박람회","tel":"544-9995","addr":"경기도 포천시 소흘읍 이동교리 409-9번지","category":"도소매 - 가구"}]},{"lat":"37.785569509","long":"127.11978656","items":[{"name":"밀천지","tel":"031-852-8220","addr":"경기도 포천시 소흘읍 이동교리 690-20번지","category":"일반휴게음식 - 일반한식"}]},{"lat":"37.794562807","long":"127.12680586","items":[{"name":"밥애구이","tel":"031-541-7656","addr":"경기도 포천시 소흘읍 이동교리 406번지","category":"일반휴게음식 - 일반한식"},{"name":"버디스크린골프","tel":"031-541-5510","addr":"경기도 포천시 소흘읍 이동교리 406번지","category":"레저업소 - 스크린골프"},{"name":"우리생고기","tel":"031-541-2014","addr":"경기도 포천시 소흘읍 이동교리 406번지 1층","category":"일반휴게음식 - 일반한식"}]},{"lat":"37.779732922","long":"127.11819954","items":[{"name":"방일해장국","tel":"031-544-8201","addr":"경기도 포천시 소흘읍 이동교리 731-12번지","category":"일반휴게음식 - 일반한식"}]},{"lat":"37.815453669","long":"127.13692555","items":[{"name":"버들메라민","tel":"02-494-6262","addr":"경기도 포천시 소흘읍 이동교리 134-8","category":"주방용구 - 주방용구"}]},{"lat":"37.799452555","long":"127.12906218","items":[{"name":"벤제프(포천송우리점)","tel":"031-541-7758","addr":"경기도 포천시 소흘읍 이동교리 368-1번지 F동 3호","category":"레져용품 - 스포츠·레져용품"},{"name":"슈페리얼임페리얼","tel":"031-542-2835","addr":"경기도 포천시 소흘읍 이동교리 368-1번지 F동 4호","category":"레져용품 - 스포츠·레져용품"},{"name":"우주기획","tel":"070-1111-1111","addr":"경기도 포천시 소흘읍 이동교리 368-1번지 포천패션타운 풍기인견 F동 1층 4호","category":"레져용품 - 스포츠·레져용품"}]},{"lat":"37.80131635","long":"127.13014403","items":[{"name":"벽창호세사리빙","tel":"031-541-4443","addr":"경기도 포천시 소흘읍 이동교리 350-1번지","category":"직물 - 침구·수예점"}]},{"lat":"37.811392802","long":"127.13480598","items":[{"name":"별님 어패럴","tel":"031-543-7826","addr":"경기도 포천시 소흘읍 이동교리 262-1번지","category":"레져용품 - 스포츠·레져용품"},{"name":"별님어패럴","tel":"031-543-7826","addr":"경기도 포천시 소흘읍 이동교리 262-1번지","category":"소매업 - 의류"},{"name":"아이더포천송우점㈜제이케이비니","tel":"541-6864","addr":"경기도 포천시 소흘읍 이동교리 262-1번지","category":"도소매 - 의류"},{"name":"와이드앵글 포천송우점","tel":"541-7901","addr":"경기도 포천시 소흘읍 이동교리 262-1번지","category":"도소매 - 의류"},{"name":"와이드앵글포천송우점","tel":"031-541-7901","addr":"경기도 포천시 소흘읍 이동교리 262-1번지 B동","category":"레져용품 - 스포츠·레져용품"}]},{"lat":"37.796509374","long":"127.12630954","items":[{"name":"보루네오 송우리점","tel":"542-7662","addr":"경기도 포천시 소흘읍 이동교리 392-29번지 1층","category":"도소매 - 가구"},{"name":"보루네오송우리점&가구빅마켓","tel":"031-542-7662","addr":"경기도 포천시 소흘읍 이동교리 392-29번지","category":"가구 - 일반가구"}]},{"lat":"37.777230004","long":"127.11642491","items":[{"name":"보쉬카워시","tel":"","addr":"경기도 포천시 소흘읍 이동교리 746번지","category":"자동차정비 유지 - 세차장"}]},{"lat":"37.779316672","long":"127.12003779","items":[{"name":"복숭아꽃 살구꽃","tel":"","addr":"경기도 포천시 소흘읍 이동교리 529번지 가동 1,2호","category":"일반휴게음식 - 서양음식"}]},{"lat":"37.797894901","long":"127.12813985","items":[{"name":"부흥ID부엌가구","tel":"031-541-6695","addr":"경기도 포천시 소흘읍 이동교리 380-4,6","category":"주방용구 - 주방용구"}]},{"lat":"37.796284221","long":"127.12622969","items":[{"name":"북성코퍼레이션","tel":"070-8654-4969","addr":"경기도 포천시 소흘읍 이동교리 392-1번지 북성유통","category":"레져용품 - 스포츠·레져용품"},{"name":"침대백화점","tel":"070-8959-5820","addr":"경기도 포천시 소흘읍 이동교리 392-1번지 지하층","category":"가구 - 일반가구"}]},{"lat":"37.815005735","long":"127.13467612","items":[{"name":"브래드팩토리","tel":"031-544-5427","addr":"경기도 포천시 소흘읍 이동교리 84-3번지","category":"일반휴게음식 - 일반한식"},{"name":"비채리움","tel":"","addr":"경기도 포천시 소흘읍 이동교리 84-3번지 건물 나동 일부","category":"가구 - 기타가구"}]},{"lat":"37.799786886","long":"127.12814305","items":[{"name":"블랙야크 포천점","tel":"544-4429","addr":"경기도 포천시 소흘읍 이동교리 374-4번지","category":"소매업 - 의류"}]},{"lat":"37.81736503","long":"127.13572516","items":[{"name":"블랙피그","tel":"031-543-5449","addr":"경기도 포천시 소흘읍 이동교리 140-1번지","category":"일반휴게음식 - 일반한식"},{"name":"블랙피그","tel":"543-5449","addr":"경기도 포천시 소흘읍 이동교리 140-1번지 1층","category":"음식 - 한식"},{"name":"우리캠핑","tel":"031-541-1670","addr":"경기도 포천시 소흘읍 이동교리 140-1번지 1층","category":"레져용품 - 스포츠·레져용품"},{"name":"푸른밥상","tel":"031-543-0177","addr":"경기도 포천시 소흘읍 이동교리 140-1번지 나동 1층","category":"일반휴게음식 - 일반한식"},{"name":"해동무역","tel":"031-544-0635","addr":"경기도 포천시 소흘읍 이동교리 140-1","category":"유통업 영리 - 기타유통업"}]},{"lat":"37.814869919","long":"127.13527778","items":[{"name":"블루페페","tel":"543-8624","addr":"경기도 포천시 소흘읍 이동교리 84-2번지","category":"소매업 - 의류"},{"name":"블루페페","tel":"031-543-8624","addr":"경기도 포천시 소흘읍 이동교리 84-2번지","category":"레져용품 - 스포츠·레져용품"},{"name":"세영상사","tel":"031-543-8748","addr":"경기도 포천시 소흘읍 이동교리 84-2번지","category":"의류 - 정장"},{"name":"예진어패럴","tel":"031-541-9702","addr":"경기도 포천시 소흘읍 이동교리 84-2번지 1층","category":"레져용품 - 스포츠·레져용품"}]},{"lat":"37.780895898","long":"127.11742945","items":[{"name":"산비탈 플러스","tel":"031-542-6232","addr":"경기도 포천시 소흘읍 이동교리 713번지","category":"일반휴게음식 - 일반한식"}]},{"lat":"37.801425454","long":"127.1292245","items":[{"name":"삼익가구송우대리점","tel":"031-542-1125","addr":"경기도 포천시 소흘읍 이동교리 338-17번지","category":"가구 - 일반가구"}]},{"lat":"37.816311298","long":"127.13539393","items":[{"name":"삼일철물","tel":"031-542-1673","addr":"경기도 포천시 소흘읍 이동교리 131-1번지","category":"기타 - 기계공구"},{"name":"연승원","tel":"031-542-3090","addr":"경기도 포천시 소흘읍 이동교리 131-1번지","category":"일반휴게음식 - 일반한식"},{"name":"연승원","tel":"542-3090","addr":"경기도 포천시 소흘읍 이동교리 131-1번지","category":"음식 - 중식"},{"name":"이동교상회","tel":"031-544-1236","addr":"경기도 포천시 소흘읍 이동교리 131-1번지 1층","category":"유통업 영리 - 슈퍼마켓"}]},{"lat":"37.800672878","long":"127.12522644","items":[{"name":"삼흥에이텍","tel":"070-1478-1236","addr":"경기도 포천시 소흘읍 이동교리 374-74번지 비동 102호(7)","category":"기타 - 기계공구"}]},{"lat":"37.779706547","long":"127.11752977","items":[{"name":"상일리베가구","tel":"031-541-2196","addr":"경기도 포천시 소흘읍 이동교리 725-6번지","category":"가구 - 일반가구"}]},{"lat":"37.812006091","long":"127.1342279","items":[{"name":"상일리베침대가구","tel":"031-543-5409","addr":"경기도 포천시 소흘읍 이동교리 90-12","category":"가구 - 일반가구"}]},{"lat":"37.810452179","long":"127.12992123","items":[{"name":"상진테크","tel":"031-543-8094","addr":"경기도 포천시 소흘읍 이동교리 243-2","category":"기타 - 기계공구"},{"name":"제이엘(JL)인터네셔널","tel":"031-796-2554","addr":"경기도 포천시 소흘읍 이동교리 243-2번지","category":"자동차정비 유지 - 자동차부품"}]},{"lat":"37.811368145","long":"127.13267098","items":[{"name":"샤니미용실","tel":"543-2012","addr":"경기도 포천시 소흘읍 이동교리 256번지 대방노블랜드1차아파트 202호","category":"서비스 - 미용"}]},{"lat":"37.782150162","long":"127.12448075","items":[{"name":"서울산업잠수아카데미","tel":"031-543-2994","addr":"경기도 포천시 소흘읍 이동교리 539-5번지","category":"학원 - 기능학원"}]},{"lat":"37.780117882","long":"127.12067473","items":[{"name":"서울패키지","tel":"02-2273-9460","addr":"경기도 포천시 소흘읍 이동교리 553-4","category":"신변잡화 - 기타잡화"}]},{"lat":"37.780066517","long":"127.11795033","items":[{"name":"서종","tel":"031-544-9351","addr":"경기도 포천시 소흘읍 이동교리 725-1번지","category":"가구 - 일반가구"}]},{"lat":"37.800923636","long":"127.12666888","items":[{"name":"선진산업","tel":"031-543-5680","addr":"경기도 포천시 소흘읍 이동교리 374-120번지 외2필지","category":"건축자재 - 기타건축자재"}]},{"lat":"37.819119751","long":"127.13759091","items":[{"name":"성민냉열","tel":"031-541-4354","addr":"경기도 포천시 소흘읍 이동교리 39-3번지","category":"전기제품 - 냉열기기"},{"name":"주현뷰티","tel":"031-542-5202","addr":"경기도 포천시 소흘읍 이동교리 39-3번지 2층 205호","category":"보건위생 - 피부미용실"},{"name":"통일순대국","tel":"544-0504","addr":"경기도 포천시 소흘읍 이동교리 39-3번지","category":"음식 - 한식"},{"name":"통일순대국","tel":"031-544-0504","addr":"경기도 포천시 소흘읍 이동교리 39-3번지 A동 1층","category":"일반휴게음식 - 일반한식"}]},{"lat":"37.815366682","long":"127.13416571","items":[{"name":"성일씨씨티비(CCTV)","tel":"031-541-1458","addr":"경기도 포천시 소흘읍 이동교리 782-53번지 동궁뉴타운 109동 203호","category":"전기제품 - 기타전기제품"}]},{"lat":"37.800784375","long":"127.13052917","items":[{"name":"성지 에프엔지","tel":"031-544-8147","addr":"경기도 포천시 소흘읍 이동교리 361-1번지","category":"음료식품 - 기타음료식품"}]},{"lat":"37.799704613","long":"127.12925563","items":[{"name":"셀바스가구","tel":"031-543-0645","addr":"경기도 포천시 소흘읍 이동교리 369-1","category":"가구 - 일반가구"},{"name":"셀바스가구","tel":"543-0645","addr":"경기도 포천시 소흘읍 이동교리 369-1번지","category":"도소매 - 가구"},{"name":"양지말공인중개사사무소(양지말고전가구)","tel":"031-840-0500","addr":"경기도 포천시 소흘읍 이동교리 369-1","category":"용역 서비스 - 부동산 중개·임대"}]},{"lat":"37.820396211","long":"127.13211891","items":[{"name":"소나무둥지","tel":"031-544-5078","addr":"경기도 포천시 소흘읍 이동교리 164-1번지","category":"일반휴게음식 - 일반한식"}]},{"lat":"37.792617834","long":"127.12578082","items":[{"name":"소낭구","tel":"031-543-7203","addr":"경기도 포천시 소흘읍 이동교리 412-35번지","category":"가구 - 일반가구"}]},{"lat":"37.807170199","long":"127.13225484","items":[{"name":"소방가게","tel":"031-542-9400","addr":"경기도 포천시 소흘읍 이동교리 281-14번지","category":"기타 - 기계공구"}]},{"lat":"37.791618363","long":"127.12522286","items":[{"name":"소성티에스 주식회사","tel":"02-978-9933","addr":"경기도 포천시 소흘읍 이동교리 677-2번지","category":"기타 - 기계공구"}]},{"lat":"37.820418542","long":"127.13633258","items":[{"name":"송담추어탕","tel":"031-544-7756","addr":"경기도 포천시 소흘읍 이동교리 154번지","category":"일반휴게음식 - 일반한식"},{"name":"송담추어탕 포천점","tel":"544-7756","addr":"경기도 포천시 소흘읍 이동교리 154번지","category":"음식 - 한식"},{"name":"올리앤 포천송우점","tel":"031-543-9590","addr":"경기도 포천시 소흘읍 이동교리 154번지 제다동호","category":"일반휴게음식 - 서양음식"},{"name":"용삼골흑산도홍어","tel":"031-544-0502","addr":"경기도 포천시 소흘읍 이동교리 154번지","category":"일반휴게음식 - 일반한식"},{"name":"휴림","tel":"031-542-5580","addr":"경기도 포천시 소흘읍 이동교리 154번지 동원빌딩 가동 2층","category":"보건위생 - 피부미용실"}]},{"lat":"37.801761419","long":"127.12676111","items":[{"name":"수가구","tel":"031-573-3320","addr":"경기도 포천시 소흘읍 이동교리 331-3번지","category":"가구 - 일반가구"}]},{"lat":"37.784261639","long":"127.12128296","items":[{"name":"수앤홈","tel":"031-542-0650","addr":"경기도 포천시 소흘읍 이동교리 570번지","category":"가구 - 일반가구"}]},{"lat":"37.792672753","long":"127.12495212","items":[{"name":"수연재","tel":"031-541-0830","addr":"경기도 포천시 소흘읍 이동교리 678번지 바동","category":"서적문구 - 완구점"},{"name":"씨엔제이","tel":"","addr":"경기도 포천시 소흘읍 이동교리 678번지 1층","category":"가구 - 일반가구"}]},{"lat":"37.803172087","long":"127.13034025","items":[{"name":"스마트가구","tel":"031-543-4953","addr":"경기도 포천시 소흘읍 이동교리 312-4번지","category":"가구 - 일반가구"}]},{"lat":"37.776373544","long":"127.11700249","items":[{"name":"스타케이스","tel":"070-7425-7509","addr":"경기도 포천시 소흘읍 이동교리 749번지 다동 1,2층","category":"기타 - 기계공구"}]},{"lat":"37.805089293","long":"127.1320014","items":[{"name":"신영남식당","tel":"031-541-2050","addr":"경기도 포천시 소흘읍 이동교리 290-2번지","category":"일반휴게음식 - 일반한식"},{"name":"영남슈퍼","tel":"031-541-5982","addr":"경기도 포천시 소흘읍 이동교리 290-2","category":"유통업 영리 - 슈퍼마켓"},{"name":"원볼트","tel":"031-543-0122","addr":"경기도 포천시 소흘읍 이동교리 290-2번지 1층","category":"기타 - 기계공구"}]},{"lat":"37.80303713","long":"127.13016969","items":[{"name":"신줌마의상실","tel":"","addr":"경기도 포천시 소흘읍 이동교리 314-8번지","category":"의류 - 정장"}]},{"lat":"37.780479233","long":"127.11969908","items":[{"name":"신태양보일러","tel":"031-876-9979","addr":"경기도 포천시 소흘읍 이동교리 731-2","category":"건축자재 - 보일러·펌프·샷시"}]},{"lat":"37.793734283","long":"127.12647523","items":[{"name":"신포천낚시","tel":"031-542-3070","addr":"경기도 포천시 소흘읍 이동교리 408-4번지","category":"레져용품 - 스포츠·레져용품"},{"name":"신포천낚시","tel":"542-3070","addr":"경기도 포천시 소흘읍 이동교리 408-4번지","category":"소매업 - 스포츠"}]},{"lat":"37.779148575","long":"127.11689325","items":[{"name":"싸인아트","tel":"031-541-1518","addr":"경기도 포천시 소흘읍 이동교리 723-6번지","category":"용역 서비스 - 종합용역"},{"name":"주식회사예스종합관리","tel":"031-541-7172","addr":"경기도 포천시 소흘읍 이동교리 723-6번지 2층","category":"용역 서비스 - 종합용역"}]},{"lat":"37.80630873","long":"127.1290852","items":[{"name":"썬자동차공업사","tel":"031-542-4982","addr":"경기도 포천시 소흘읍 이동교리 306-3번지","category":"자동차정비 유지 - 자동차정비"}]},{"lat":"37.801730453","long":"127.13045132","items":[{"name":"쏨모가구포천대리점","tel":"031-541-1313","addr":"경기도 포천시 소흘읍 이동교리 349-2번지","category":"가구 - 일반가구"}]},{"lat":"37.785152765","long":"127.12209038","items":[{"name":"씨앤에이치(C&H)가구","tel":"031-543-6399","addr":"경기도 포천시 소흘읍 이동교리 583-4번지","category":"가구 - 일반가구"},{"name":"씨앤에이치가구","tel":"543-6399","addr":"경기도 포천시 소흘읍 이동교리 583-4번지","category":"도소매 - 가구"}]},{"lat":"37.808341551","long":"127.13214333","items":[{"name":"씨유송우부인터점","tel":"031-544-6695","addr":"경기도 포천시 소흘읍 이동교리 278-1번지","category":"유통업 영리 - 편 의 점"},{"name":"파주골(송우점)","tel":"031-533-6633","addr":"경기도 포천시 소흘읍 이동교리 278-1번지 1층","category":"일반휴게음식 - 일반한식"}]},{"lat":"37.815340512","long":"127.13339341","items":[{"name":"씨유포천용상골점","tel":"031-541-1116","addr":"경기도 포천시 소흘읍 이동교리 106-8번지 1층","category":"유통업 영리 - 편 의 점"},{"name":"용상골횟집","tel":"543-4105","addr":"경기도 포천시 소흘읍 이동교리 106-8번지","category":"음식 - 한식"}]},{"lat":"37.781957416","long":"127.11906572","items":[{"name":"아람아크릴","tel":"031-544-2877","addr":"경기도 포천시 소흘읍 이동교리 709-3번지 1층","category":"기타 - 기타 전문점"}]},{"lat":"37.817284226","long":"127.13547517","items":[{"name":"아리랑이발관","tel":"031-542-6220","addr":"경기도 포천시 소흘읍 이동교리 145-2번지","category":"보건위생 - 이용원"},{"name":"주식회사제이에이치코퍼레이션 (JH Co. Ltd","tel":"031-542-2251","addr":"경기도 포천시 소흘읍 이동교리 145-2번지 1층 좌 2,3호","category":"유통업 영리 - 슈퍼마켓"},{"name":"주식회사포일","tel":"","addr":"경기도 포천시 소흘읍 이동교리 145-2","category":"건축자재 - 보일러·펌프·샷시"}]},{"lat":"37.802622548","long":"127.13030524","items":[{"name":"아씨방","tel":"543-4945","addr":"경기도 포천시 소흘읍 이동교리 343-3번지","category":"도소매 - 가구"},{"name":"아씨방가구","tel":"031-543-4945","addr":"경기도 포천시 소흘읍 이동교리 343-3번지","category":"가구 - 일반가구"}]},{"lat":"37.775536384","long":"127.11625206","items":[{"name":"아이엠티","tel":"031-544-9500","addr":"경기도 포천시 소흘읍 이동교리 748-3번지","category":"숙박업 - 여관/기타숙박업"},{"name":"아이엠티호텔","tel":"031-544-9500","addr":"경기도 포천시 소흘읍 이동교리 748-3번지 748-4, 748-10, 748-11, 766-2","category":"숙박업 - 여관/기타숙박업"}]},{"lat":"37.821507924","long":"127.12883849","items":[{"name":"아프리카노","tel":"","addr":"경기도 포천시 소흘읍 이동교리 193-1번지 청소년교육문화센터 1층","category":"일반휴게음식 - 서양음식"}]},{"lat":"37.817869185","long":"127.13605542","items":[{"name":"알천비빔국수","tel":"031-541-5388","addr":"경기도 포천시 소흘읍 이동교리 140-3번지 1층","category":"일반휴게음식 - 일반한식"},{"name":"알천비빔국수","tel":"541-5388","addr":"경기도 포천시 소흘읍 이동교리 140-3번지 1층","category":"음식 - 한식"}]},{"lat":"37.819202322","long":"127.13628497","items":[{"name":"알파문구","tel":"031-533-8668","addr":"경기도 포천시 소흘읍 이동교리 150-6번지","category":"사무통신 - 컴퓨터"},{"name":"장위동유성집 (포천점)","tel":"032-544-0128","addr":"경기도 포천시 소흘읍 이동교리 150-6번지","category":"일반휴게음식 - 일반한식"},{"name":"장위동유성집(포천점)","tel":"544-0128","addr":"경기도 포천시 소흘읍 이동교리 150-6번지","category":"음식 - 한식"},{"name":"탑클래스 스크린골프","tel":"031-543-3838","addr":"경기도 포천시 소흘읍 이동교리 150-6번지 2층","category":"회원제형태 - 레져업소"},{"name":"홍OA스포츠","tel":"533-8778","addr":"경기도 포천시 소흘읍 이동교리 150-6번지","category":"도소매 - 스포츠"}]},{"lat":"37.791762278","long":"127.12545016","items":[{"name":"양학균가구","tel":"031-542-8074","addr":"경기도 포천시 소흘읍 이동교리 414-1번지","category":"가구 - 일반가구"},{"name":"현대리바트 가구 송우점","tel":"543-8497","addr":"경기도 포천시 소흘읍 이동교리 414-1번지","category":"도소매 - 가구"}]},{"lat":"37.78931161","long":"127.12553694","items":[{"name":"얼씨마씨양평해장국","tel":"031-543-2038","addr":"경기도 포천시 소흘읍 이동교리 665-6번지 1층","category":"일반휴게음식 - 일반한식"}]},{"lat":"37.818843824","long":"127.1346148","items":[{"name":"에셀어린이집","tel":"031-543-8293","addr":"경기도 포천시 소흘읍 이동교리 146-6번지 외4필지","category":"학원 - 유아원"}]},{"lat":"37.776563488","long":"127.11623093","items":[{"name":"에스디아이","tel":"031-543-4504","addr":"경기도 포천시 소흘읍 이동교리 747-1번지","category":"건축자재 - 인테리어전문"}]},{"lat":"37.805620364","long":"127.13244517","items":[{"name":"영신기계공업사","tel":"031-543-5404","addr":"경기도 포천시 소흘읍 이동교리 289-4번지","category":"기타 - 기계공구"}]},{"lat":"37.808646154","long":"127.13369959","items":[{"name":"오로라 모터스","tel":"031-848-3310","addr":"경기도 포천시 소흘읍 이동교리 267-17번지","category":"자동차정비 유지 - 세차장"}]},{"lat":"37.777980274","long":"127.12300964","items":[{"name":"오리킹광릉수목원지점","tel":"031-544-7393","addr":"경기도 포천시 소흘읍 이동교리 526번지 나동 1층","category":"일반휴게음식 - 일반한식"}]},{"lat":"37.77965208","long":"127.11794969","items":[{"name":"오일나라","tel":"031-544-5182","addr":"경기도 포천시 소흘읍 이동교리 731-9번지","category":"자동차정비 유지 - 자동차정비"},{"name":"이공비빔국수","tel":"542-1158","addr":"경기도 포천시 소흘읍 이동교리 731-9번지","category":"음식 - 한식"},{"name":"이공비빔국수","tel":"031-542-1158","addr":"경기도 포천시 소흘읍 이동교리 731-9번지","category":"일반휴게음식 - 일반한식"}]},{"lat":"37.793230561","long":"127.12570236","items":[{"name":"오크코러스가구","tel":"031-541-1259","addr":"경기도 포천시 소흘읍 이동교리 412-2번지","category":"가구 - 일반가구"},{"name":"포천가구광장","tel":"031-541-0877","addr":"경기도 포천시 소흘읍 이동교리 412-2","category":"가구 - 일반가구"}]},{"lat":"37.803008919","long":"127.13125971","items":[{"name":"온누리자전거","tel":"","addr":"경기도 포천시 소흘읍 이동교리 345-3번지","category":"레져용품 - 스포츠·레져용품"}]},{"lat":"37.823752499","long":"127.13591834","items":[{"name":"올리어린이집[아이행복]","tel":"","addr":"경기도 포천시 소흘읍 이동교리 183번지","category":"학원 - 유아원"}]},{"lat":"37.774178432","long":"127.12284459","items":[{"name":"옹달샘가든","tel":"031-544-1652","addr":"경기도 포천시 소흘읍 이동교리 512-3번지","category":"일반휴게음식 - 일반한식"}]},{"lat":"37.810370493","long":"127.13047754","items":[{"name":"요나단푸드","tel":"031-544-6630","addr":"경기도 포천시 소흘읍 이동교리 243-5번지 제가동,제나동","category":"음료식품 - 정육점"}]},{"lat":"37.818396792","long":"127.13150214","items":[{"name":"용상골순두부","tel":"031-544-3333","addr":"경기도 포천시 소흘읍 이동교리 122-3","category":"일반휴게음식 - 일반한식"}]},{"lat":"37.792897211","long":"127.12570181","items":[{"name":"우리꼴자연가구(오크코러스)","tel":"541-1259","addr":"경기도 포천시 소흘읍 이동교리 412-20번지","category":"도소매 - 가구"},{"name":"포천가구갤러리","tel":"542-9869","addr":"경기도 포천시 소흘읍 이동교리 412-20번지","category":"도소매 - 가구"},{"name":"포천가구갤러리","tel":"031-877-3635","addr":"경기도 포천시 소흘읍 이동교리 412-20번지","category":"가구 - 일반가구"}]},{"lat":"37.773986642","long":"127.1163632","items":[{"name":"우성가스","tel":"031-875-4242","addr":"경기도 포천시 소흘읍 이동교리 765-2번지","category":"연료판매점 - LPG 취급점"}]},{"lat":"37.81892072","long":"127.13023103","items":[{"name":"웅진산업","tel":"070-7590-4625","addr":"경기도 포천시 소흘읍 이동교리 197-1번지","category":"자동차정비 유지 - 자동차부품"}]},{"lat":"37.776593437","long":"127.12239446","items":[{"name":"원.엔테프라이즈","tel":"031-543-0931","addr":"경기도 포천시 소흘읍 이동교리 519-24번지","category":"건축자재 - 기타건축자재"}]},{"lat":"37.798507157","long":"127.12850422","items":[{"name":"월드매트리스369","tel":"031-1588-0612","addr":"경기도 포천시 소흘읍 이동교리 367-7번지 A동 1층 1,2호","category":"가구 - 일반가구"}]},{"lat":"37.794699622","long":"127.12520524","items":[{"name":"월드하이텍","tel":"543-5791","addr":"경기도 포천시 소흘읍 이동교리 389-20번지","category":"도소매 - 생활용품"},{"name":"월드하이텍","tel":"031-513-5791","addr":"경기도 포천시 소흘읍 이동교리 389-20번지 1층","category":"유통업 영리 - 기타유통업"}]},{"lat":"37.795562917","long":"127.12675076","items":[{"name":"웨스턴가구","tel":"070-8666-4178","addr":"경기도 포천시 소흘읍 이동교리 401-5번지","category":"가구 - 일반가구"}]},{"lat":"37.815483056","long":"127.13483597","items":[{"name":"위드미 포천이동교점","tel":"031-323-6016","addr":"경기도 포천시 소흘읍 이동교리 132-14번지 201동 102호","category":"유통업 영리 - 편 의 점"},{"name":"이마트24포천이동교리점","tel":"541-9237","addr":"경기도 포천시 소흘읍 이동교리 132-14번지 201동 102호","category":"소매업 - 편의점"}]},{"lat":"37.818391564","long":"127.13620401","items":[{"name":"위드패션","tel":"031-544-8934","addr":"경기도 포천시 소흘읍 이동교리 149-22번지","category":"의류 - 정장"},{"name":"할리스커피 포천송우점","tel":"031-541-5130","addr":"경기도 포천시 소흘읍 이동교리 149-22번지 1층 1-6호","category":"일반휴게음식 - 서양음식"}]},{"lat":"37.77423003","long":"127.11622737","items":[{"name":"유나퍼니처","tel":"031-541-2348","addr":"경기도 포천시 소흘읍 이동교리 766-6번지 1층","category":"가구 - 일반가구"}]},{"lat":"37.811371825","long":"127.12928687","items":[{"name":"유행가","tel":"031-535-0825","addr":"경기도 포천시 소흘읍 이동교리 224-6번지","category":"의류 - 정장"}]},{"lat":"37.795788903","long":"127.12603586","items":[{"name":"육대장","tel":"031-544-6610","addr":"경기도 포천시 소흘읍 이동교리 392-13번지","category":"일반휴게음식 - 일반한식"},{"name":"육대장 송우점","tel":"544-6610","addr":"경기도 포천시 소흘읍 이동교리 392-13번지","category":"음식 - 한식"}]},{"lat":"37.81575492","long":"127.13341685","items":[{"name":"육천닭칼국수","tel":"031-541-0517","addr":"경기도 포천시 소흘읍 이동교리 116-9번지 청솔타운 101동 101호","category":"일반휴게음식 - 일반한식"},{"name":"육천닭칼국수","tel":"541-0517","addr":"경기도 포천시 소흘읍 이동교리 116-9번지 청솔타운 101동 101호","category":"음식 - 한식"}]},{"lat":"37.798812494","long":"127.12942442","items":[{"name":"이동수골프웨어","tel":"031-533-1467","addr":"경기도 포천시 소흘읍 이동교리 369-30번지 C동 4호","category":"레져용품 - 스포츠·레져용품"}]},{"lat":"37.817058863","long":"127.13558833","items":[{"name":"이디야 커피숍","tel":"031-543-5061","addr":"경기도 포천시 소흘읍 이동교리 140-17번지 1,2층","category":"일반휴게음식 - 서양음식"},{"name":"이디야커피 포천소흘점","tel":"031-543-5061","addr":"경기도 포천시 소흘읍 이동교리 140-17번지 1,2층","category":"일반휴게음식 - 서양음식"}]},{"lat":"37.787340145","long":"127.1239784","items":[{"name":"이우무역","tel":"031-542-4025","addr":"경기도 포천시 소흘읍 이동교리 636-3번지","category":"기타 - 기계공구"}]},{"lat":"37.821251781","long":"127.14036604","items":[{"name":"이종구 낙지세상","tel":"031-544-1789","addr":"경기도 포천시 소흘읍 이동교리 14-1번지","category":"일반휴게음식 - 일반한식"}]},{"lat":"37.806728212","long":"127.13273099","items":[{"name":"이지모터스","tel":"031-543-6948","addr":"경기도 포천시 소흘읍 이동교리 296-6번지","category":"자동차정비 유지 - 자동차정비"},{"name":"탑스틸","tel":"031-542-6683","addr":"경기도 포천시 소흘읍 이동교리 296-6번지","category":"건축자재 - 기타건축자재"}]},{"lat":"37.814282573","long":"127.13680987","items":[{"name":"일등교육","tel":"031-544-2854","addr":"경기도 포천시 소흘읍 이동교리 64-7번지","category":"회원제형태 - 서적"}]},{"lat":"37.788842311","long":"127.12630814","items":[{"name":"임진농원","tel":"031-541-4279","addr":"경기도 포천시 소흘읍 이동교리 424-9번지","category":"문화.취미 - 화원"}]},{"lat":"37.8157243","long":"127.13661941","items":[{"name":"장독대삼겹살","tel":"031-543-5179","addr":"경기도 포천시 소흘읍 이동교리 134-2번지 1층","category":"일반휴게음식 - 일반한식"},{"name":"평양초계탕막국수","tel":"031-541-1897","addr":"경기도 포천시 소흘읍 이동교리 134-2번지","category":"일반휴게음식 - 일반한식"}]},{"lat":"37.797786836","long":"127.12809425","items":[{"name":"장수돌침대","tel":"031-542-1613","addr":"경기도 포천시 소흘읍 이동교리 380-5,7","category":"가구 - 일반가구"}]},{"lat":"37.800149975","long":"127.12556621","items":[{"name":"장안ELC","tel":"031-542-1255","addr":"경기도 포천시 소흘읍 이동교리 374-76번지 12동 B5호","category":"건축자재 - 기타건축자재"}]},{"lat":"37.793618145","long":"127.1255327","items":[{"name":"장인가구","tel":"031-541-1442","addr":"경기도 포천시 소흘읍 이동교리 391-6번지","category":"가구 - 일반가구"}]},{"lat":"37.776899931","long":"127.12222469","items":[{"name":"전라도 한정식","tel":"031-541-1722","addr":"경기도 포천시 소흘읍 이동교리 519-26번지","category":"일반휴게음식 - 일반한식"}]},{"lat":"37.789229718","long":"127.12630879","items":[{"name":"조선 된장","tel":"031-531-0512","addr":"경기도 포천시 소흘읍 이동교리 424-4번지","category":"음료식품 - 기타음료식품"}]},{"lat":"37.780649248","long":"127.12086855","items":[{"name":"주식회사 꾸미룸","tel":"031-541-7149","addr":"경기도 포천시 소흘읍 이동교리 556-2번지","category":"가구 - 일반가구"}]},{"lat":"37.81469982","long":"127.13431217","items":[{"name":"주식회사 대형특수기어","tel":"031-541-1249","addr":"경기도 포천시 소흘읍 이동교리 85-2번지","category":"기타 - 기계공구"}]},{"lat":"37.815535167","long":"127.13656229","items":[{"name":"주식회사 맛칸","tel":"02-3280-9753","addr":"경기도 포천시 소흘읍 이동교리 134-13번지 B동","category":"전기제품 - 기타전기제품"},{"name":"해솔씽크","tel":"031-544-1175","addr":"경기도 포천시 소흘읍 이동교리 134-13번지 좌측 마지막","category":"주방용구 - 주방용구"}]},{"lat":"37.776869756","long":"127.11628815","items":[{"name":"주식회사 선진모터스","tel":"031-541-1701","addr":"경기도 포천시 소흘읍 이동교리 746-2번지","category":"자동차정비 유지 - 자동차정비"}]},{"lat":"37.81394885","long":"127.13713861","items":[{"name":"주식회사 에이치앤코리아","tel":"031-541-7742","addr":"경기도 포천시 소흘읍 이동교리 67-6번지","category":"신변잡화 - 기타잡화"}]},{"lat":"37.776819202","long":"127.12187268","items":[{"name":"주식회사 오성공조","tel":"031-541-1256","addr":"경기도 포천시 소흘읍 이동교리 519-12번지","category":"전기제품 - 가전제품"}]},{"lat":"37.801759277","long":"127.12878224","items":[{"name":"주식회사 오투오","tel":"070-4349-0020","addr":"경기도 포천시 소흘읍 이동교리 338-2번지","category":"기타 - 기계공구"}]},{"lat":"37.794314423","long":"127.12305879","items":[{"name":"주식회사 제로시스템","tel":"031-541-0995","addr":"경기도 포천시 소흘읍 이동교리 390-16번지","category":"주방용구 - 주방용구"}]},{"lat":"37.780118932","long":"127.11961906","items":[{"name":"중앙오토미션","tel":"031-544-6945","addr":"경기도 포천시 소흘읍 이동교리 731-29번지 4.40","category":"자동차정비 유지 - 자동차정비"}]},{"lat":"37.783037406","long":"127.12022529","items":[{"name":"찬진주유소","tel":"031-541-7120","addr":"경기도 포천시 소흘읍 이동교리 569-7번지","category":"연료판매점 - 쌍용S-OIL"},{"name":"찬진주유소","tel":"031-541-7120","addr":"경기도 포천시 소흘읍 이동교리 569-7번지","category":"연료판매점 - 쌍용S-OIL"}]},{"lat":"37.776070967","long":"127.12231416","items":[{"name":"참봉에프엔비","tel":"031-8089-7667","addr":"경기도 포천시 소흘읍 이동교리 519-29번지 다동 1층","category":"일반휴게음식 - 일반한식"}]},{"lat":"37.779596652","long":"127.11934581","items":[{"name":"초이스","tel":"031-541-5287","addr":"경기도 포천시 소흘읍 이동교리 732-12번지 8호","category":"신변잡화 - 기타잡화"}]},{"lat":"37.778868466","long":"127.1177328","items":[{"name":"축석돌솥순대국","tel":"031-543-7376","addr":"경기도 포천시 소흘읍 이동교리 733-15번지","category":"일반휴게음식 - 일반한식"}]},{"lat":"37.785705995","long":"127.11842451","items":[{"name":"축석실버센터","tel":"031-541-9399","addr":"경기도 포천시 소흘읍 이동교리 691-24번지","category":"기타의료기관 - 기타의료기관 및 기타"}]},{"lat":"37.778097198","long":"127.11403117","items":[{"name":"축석중고재활용","tel":"031-541-4169","addr":"경기도 포천시 소흘읍 이동교리 768-2번지","category":"기타 - 기타 전문점"}]},{"lat":"37.788152781","long":"127.12223143","items":[{"name":"축석초등학교","tel":"031-542-1341","addr":"경기도 포천시 소흘읍 이동교리 645번지 축석초등학교","category":"학원 - 초중고교육기관"},{"name":"축석초등학교병설유치원[아이행복]","tel":"031-543-1226","addr":"경기도 포천시 소흘읍 이동교리 645번지 축석초등학교","category":"학원 - 유치원"}]},{"lat":"37.813617072","long":"127.13575252","items":[{"name":"크로커다일레이디","tel":"031-541-9060","addr":"경기도 포천시 소흘읍 이동교리 77-5번지","category":"레져용품 - 스포츠·레져용품"}]},{"lat":"37.818640677","long":"127.13092334","items":[{"name":"크리시나의식국제협회","tel":"031-542-5955","addr":"경기도 포천시 소흘읍 이동교리 122번지","category":"기타 - 비영리/대상"}]},{"lat":"37.784063647","long":"127.12106696","items":[{"name":"타이어마을","tel":"031-543-6006","addr":"경기도 포천시 소흘읍 이동교리 571-3번지","category":"자동차정비 유지 - 자동차시트·타이어"}]},{"lat":"37.802261617","long":"127.13081558","items":[{"name":"타이어창고","tel":"031-542-8889","addr":"경기도 포천시 소흘읍 이동교리 347-6번지","category":"자동차정비 유지 - 자동차시트·타이어"}]},{"lat":"37.796841697","long":"127.12728653","items":[{"name":"타이어휠마트","tel":"542-4487","addr":"경기도 포천시 소흘읍 이동교리 403-2","category":"도소매 - 타이어등"},{"name":"타이어휠마트","tel":"031-855-4487","addr":"경기도 포천시 소흘읍 이동교리 403-2번지 1층","category":"자동차정비 유지 - 자동차시트·타이어"}]},{"lat":"37.818895783","long":"127.13647749","items":[{"name":"탑매점","tel":"031-543-3838","addr":"경기도 포천시 소흘읍 이동교리 149-6번지 외3필지 2층","category":"음료식품 - 기타음료식품"}]},{"lat":"37.803288038","long":"127.13141916","items":[{"name":"태양철물","tel":"031-542-9336","addr":"경기도 포천시 소흘읍 이동교리 345-1번지","category":"건축자재 - 목재·석재·철물"}]},{"lat":"37.811365303","long":"127.1352261","items":[{"name":"텍스월드","tel":"031-541-4584","addr":"경기도 포천시 소흘읍 이동교리 263번지 2층","category":"직물 - 옷감·직물"}]},{"lat":"37.814508697","long":"127.13602667","items":[{"name":"토이타운","tel":"031-541-6404","addr":"경기도 포천시 소흘읍 이동교리 80-9번지","category":"서적문구 - 완구점"},{"name":"토이타운","tel":"541-6404","addr":"경기도 포천시 소흘읍 이동교리 80-9번지","category":"도소매 - 완구"}]},{"lat":"37.800983295","long":"127.12987095","items":[{"name":"통보목가구","tel":"031-544-7600","addr":"경기도 포천시 소흘읍 이동교리 350-4번지","category":"가구 - 일반가구"}]},{"lat":"37.785092142","long":"127.11964958","items":[{"name":"파랑마트","tel":"031-543-8366","addr":"경기도 포천시 소흘읍 이동교리 692-7번지 1층","category":"유통업 영리 - 슈퍼마켓"}]},{"lat":"37.792401666","long":"127.1257237","items":[{"name":"파로마가구","tel":"031-543-6055","addr":"경기도 포천시 소흘읍 이동교리 412-34번지","category":"가구 - 일반가구"}]},{"lat":"37.780208475","long":"127.12017541","items":[{"name":"평화산업","tel":"031-541-5516","addr":"경기도 포천시 소흘읍 이동교리 554-2번지","category":"전기제품 - 기타전기제품"}]},{"lat":"37.773842621","long":"127.11622678","items":[{"name":"포유","tel":"031-544-5106","addr":"경기도 포천시 소흘읍 이동교리 765-3번지 외 5필지","category":"숙박업 - 여관/기타숙박업"}]},{"lat":"37.818287259","long":"127.14072397","items":[{"name":"포천하늘딸기","tel":"","addr":"경기도 포천시 소흘읍 이동교리 51-4번지","category":"음료식품 - 농·축·수산품"}]},{"lat":"37.819864755","long":"127.13202713","items":[{"name":"폴스컴퍼니(주)","tel":"070-4004-8700","addr":"경기도 포천시 소흘읍 이동교리 163-7번지","category":"문화.취미 - 애완동물"}]},{"lat":"37.821532947","long":"127.13070119","items":[{"name":"푸르미어린이집[아이행복]","tel":"031-541-1010","addr":"경기도 포천시 소흘읍 이동교리 193번지 푸르미아르미소아파트","category":"학원 - 유아원"}]},{"lat":"37.811151242","long":"127.13328383","items":[{"name":"풍선쟁이","tel":"","addr":"경기도 포천시 소흘읍 이동교리 256번지 대방노블랜드1차아파트 105동 601호","category":"용역 서비스 - 사무서비스"}]},{"lat":"37.818760513","long":"127.13659082","items":[{"name":"하늘만큼땅만큼생고기두루치기","tel":"542-9188","addr":"경기도 포천시 소흘읍 이동교리 149-5번지","category":"음식 - 한식"},{"name":"하늘만큼땅만큼생고기두루치기전문점","tel":"031-542-9188","addr":"경기도 포천시 소흘읍 이동교리 149-5번지 1층","category":"일반휴게음식 - 일반한식"}]},{"lat":"37.77670695","long":"127.11694625","items":[{"name":"하비비","tel":"031-541-6682","addr":"경기도 포천시 소흘읍 이동교리 755-4번지 636-19 1~3층","category":"숙박업 - 여관/기타숙박업"}]},{"lat":"37.801761132","long":"127.12703362","items":[{"name":"한얼도검제작소","tel":"","addr":"경기도 포천시 소흘읍 이동교리 331-2번지","category":"레져용품 - 총포류판매점"}]},{"lat":"37.78542494","long":"127.12020636","items":[{"name":"함민코리아","tel":"031-853-2358","addr":"경기도 포천시 소흘읍 이동교리 575번지 외1필지","category":"보건위생 - 미용재료"}]},{"lat":"37.77912041","long":"127.11806237","items":[{"name":"현대공구상사","tel":"031-542-0918","addr":"경기도 포천시 소흘읍 이동교리 733-8","category":"기타 - 기계공구"}]},{"lat":"37.797949896","long":"127.12725433","items":[{"name":"현승패션","tel":"031-542-2432","addr":"경기도 포천시 소흘읍 이동교리 376-11번지 1층","category":"의류 - 정장"}]},{"lat":"37.776284357","long":"127.11606024","items":[{"name":"호텔로제토","tel":"031-541-2900","addr":"경기도 포천시 소흘읍 이동교리 747-2번지","category":"숙박업 - 여관/기타숙박업"}]},{"lat":"37.791978364","long":"127.12558676","items":[{"name":"홍대디자인가구","tel":"543-6262","addr":"경기도 포천시 소흘읍 이동교리 412-31번지","category":"도소매 - 가구"},{"name":"홍대디자인가구","tel":"031-544-5953","addr":"경기도 포천시 소흘읍 이동교리 412-31번지","category":"가구 - 일반가구"}]},{"lat":"37.815643627","long":"127.13625585","items":[{"name":"홍테크","tel":"","addr":"경기도 포천시 소흘읍 이동교리 134-1번지 B동","category":"기타 - 기계공구"}]}]