[{"lat":"37.831557875","long":"127.06773166","items":[{"name":"(아동도서)가이드북","tel":"031-857-5389","addr":"경기도 양주시 고암동 128-1번지","category":"서적문구 - 전문서적"},{"name":"다찜(고암점)","tel":"031-863-3233","addr":"경기도 양주시 고암동 128-1번지 104호","category":"일반휴게음식 - 일반한식"},{"name":"닭꼬치","tel":"031-527-0217","addr":"경기도 양주시 고암동 128-1번지","category":"일반휴게음식 - 일반한식"},{"name":"산청들깨수제비전문점","tel":"031-858-2597","addr":"경기도 양주시 고암동 128-1번지 세진프라자 102호","category":"일반휴게음식 - 일반한식"},{"name":"아이스크림전문점","tel":"032-821-5698","addr":"경기도 양주시 고암동 128-1번지 세진프라자 101호","category":"음료식품 - 기타음료식품"},{"name":"엠비씨 이에스피엔 당구클럽","tel":"070-7435-3993","addr":"경기도 양주시 고암동 128-1번지 3층","category":"레저업소 - 당 구 장"},{"name":"청춘노래연습장","tel":"031-975-3774","addr":"경기도 양주시 고암동 128-1번지 2층","category":"레저업소 - 노 래 방"}]},{"lat":"37.818976735","long":"127.07459181","items":[{"name":"(주)고려인더스트리","tel":"031-858-3311","addr":"경기도 양주시 고암동 363-4,5","category":"직물 - 침구·수예점"}]},{"lat":"37.815509362","long":"127.07248746","items":[{"name":"(주)인텍","tel":"031-866-9424","addr":"경기도 양주시 고암동 459번지","category":"용역 서비스 - 종합용역"},{"name":"(주)인텍","tel":"031-866-9424","addr":"경기도 양주시 고암동 459번지","category":"자동차판매 - 기타운송"},{"name":"(주)인텍","tel":"031-866-9424","addr":"경기도 양주시 고암동 459번지","category":"자동차판매 - 기타운송"}]},{"lat":"37.831557181","long":"127.06898117","items":[{"name":"19포차","tel":"070-4112-5062","addr":"경기도 양주시 고암동 129번지 동아프라자 1층 106호,107,108호","category":"일반휴게음식 - 일반한식"},{"name":"강남스타일","tel":"031-858-3444","addr":"경기도 양주시 고암동 129번지 동아프라자 103호","category":"보건위생 - 미용원"},{"name":"국제어린이외국어학원덕정캠퍼스","tel":"031-859-3459","addr":"경기도 양주시 고암동 129동아프라자3.4층","category":"회원제형태 - 학원"},{"name":"씨유양주회천점","tel":"031-861-7761","addr":"경기도 양주시 고암동 129번지 동아프라자 101,102호","category":"유통업 영리 - 편 의 점"},{"name":"양주스포츠","tel":"031-859-8404","addr":"경기도 양주시 고암동 129번지 동아프라자 103호","category":"레져용품 - 스포츠·레져용품"},{"name":"영실용음악학원","tel":"031-859-1303","addr":"경기도 양주시 고암동 129번지 3층","category":"학원 - 예·체능계학원"},{"name":"유로코피자 양주점","tel":"031-859-2501","addr":"경기도 양주시 고암동 129번지 동아프라자 1층 109호","category":"일반휴게음식 - 서양음식"}]},{"lat":"37.830639294","long":"127.06703795","items":[{"name":"1박2일포차","tel":"031-865-8735","addr":"경기도 양주시 고암동 156번지","category":"일반휴게음식 - 주점"}]},{"lat":"37.830891681","long":"127.06681099","items":[{"name":"49대패삼겹살","tel":"031-857-9954","addr":"경기도 양주시 고암동 134-7번지 1층","category":"일반휴게음식 - 일반한식"}]},{"lat":"37.831305705","long":"127.06756105","items":[{"name":"79대포양주고암점","tel":"070-8426-4233","addr":"경기도 양주시 고암동 136-1번지","category":"일반휴게음식 - 일반한식"}]},{"lat":"37.838890074","long":"127.07033959","items":[{"name":"93회수산","tel":"","addr":"경기도 양주시 고암동 181-3번지 1층 101호","category":"일반휴게음식 - 일반한식"},{"name":"올리앤","tel":"031-868-4101","addr":"경기도 양주시 고암동 181-3번지 1동 2층","category":"일반휴게음식 - 일반한식"},{"name":"팡코","tel":"031-861-9607","addr":"경기도 양주시 고암동 181-3번지 103 ,104","category":"음료식품 - 제과점"}]},{"lat":"37.817195154","long":"127.0707287","items":[{"name":"C.D.C","tel":"031-859-4264","addr":"경기도 양주시 고암동 451-5번지","category":"의류 - 내의판매"},{"name":"농업회사법인주식회사 경기북부한돈조합","tel":"031-869-7118","addr":"경기도 양주시 고암동 451-5번지","category":"음료식품 - 정육점"},{"name":"물레방아","tel":"031-867-7890","addr":"경기도 양주시 고암동 451-5번지 가동 1층","category":"일반휴게음식 - 일반한식"},{"name":"케이앤에이치(K&H)무역","tel":"031-846-8878","addr":"경기도 양주시 고암동 451-5번지 1층","category":"의류 - 기타의류"},{"name":"풍차","tel":"031-861-7890","addr":"경기도 양주시 고암동 451-5번지","category":"일반휴게음식 - 일반한식"}]},{"lat":"37.818810347","long":"127.06623271","items":[{"name":"GL교육(Global Leader Education)","tel":"","addr":"경기도 양주시 고암동 493-55번지","category":"학원 - 기타 교육기관"}]},{"lat":"37.831557612","long":"127.06820875","items":[{"name":"GS25고암두언점","tel":"","addr":"경기도 양주시 고암동 128-3번지 두언비젼센터 101~105호","category":"유통업 영리 - 편 의 점"},{"name":"제시카영어학원","tel":"070-8612-1633","addr":"경기도 양주시 고암동 128-3번지 두언비젼센터 301호","category":"학원 - 보습학원"},{"name":"하늘소리음악학원","tel":"031-859-0101","addr":"경기도 양주시 고암동 128-3번지 두언비젼센터 2층","category":"회원제형태 - 학원"}]},{"lat":"37.830639083","long":"127.06742416","items":[{"name":"GS25양주고암점","tel":"","addr":"경기도 양주시 고암동 157번지 1층","category":"유통업 영리 - 편 의 점"}]},{"lat":"37.834475203","long":"127.07078996","items":[{"name":"GS25양주동안점","tel":"","addr":"경기도 양주시 고암동 122-4번지 동안마을주공3단지아파트 상가동 107호","category":"유통업 영리 - 편 의 점"},{"name":"가랑","tel":"031-859-8288","addr":"경기도 양주시 고암동 122-4번지 동안마을 상가 106호","category":"건축자재 - 인테리어전문"},{"name":"꽁지머리","tel":"031-857-2247","addr":"경기도 양주시 고암동 122-4번지 동안마을 상가 101호","category":"보건위생 - 미용원"},{"name":"또래오래","tel":"031-859-9905","addr":"경기도 양주시 고암동 122-4번지 동안마을 상가 104호","category":"일반휴게음식 - 스넥"},{"name":"빨강머리","tel":"031-857-0056","addr":"경기도 양주시 고암동 122-4번지 동안마을 상가 201호","category":"보건위생 - 미용원"}]},{"lat":"37.836230346","long":"127.07366563","items":[{"name":"GS25양주조은점","tel":"02-2006-2485","addr":"경기도 양주시 고암동 580번지 조은마을제나상가동102호~103호 제나상가-102","category":"유통업 영리 - 편 의 점"},{"name":"베스트헤어","tel":"031-865-7840","addr":"경기도 양주시 고암동 580 조은마을상가동 101호","category":"보건위생 - 미용원"}]},{"lat":"37.831557021","long":"127.06926515","items":[{"name":"IL수학학원","tel":"031-858-1166","addr":"경기도 양주시 고암동 129-1번지 재성빌딩 202호","category":"회원제형태 - 학원"},{"name":"라파의료기(C.H.C)","tel":"031-863-4588","addr":"경기도 양주시 고암동 129-1번지 301호","category":"보건위생 - 의료용품"},{"name":"로얄동물병원","tel":"031-857-7570","addr":"경기도 양주시 고암동 129-1번지 재성빌딩 103호","category":"문화.취미 - 애완동물"},{"name":"만나떡집","tel":"031-857-1253","addr":"경기도 양주시 고암동 129-1번지 1층","category":"음료식품 - 제과점"},{"name":"자전거탄풍경","tel":"070-8682-2632","addr":"경기도 양주시 고암동 129-1번지 재성빌딩 102호","category":"레져용품 - 스포츠·레져용품"},{"name":"장원교육","tel":"031-858-0979","addr":"경기도 양주시 고암동 129-1번지 201호","category":"회원제형태 - 서적"},{"name":"청솔당구장","tel":"031-859-0970","addr":"경기도 양주시 고암동 129-1번지 재성빌딩 4층 402호","category":"레저업소 - 당 구 장"},{"name":"칸타빌레음악학원","tel":"031-857-5535","addr":"경기도 양주시 고암동 129-1번지","category":"회원제형태 - 학원"}]},{"lat":"37.834833614","long":"127.07411869","items":[{"name":"J헤어","tel":"031-861-2956","addr":"경기도 양주시 고암동 580-8번지 골드프라자 1층 111호","category":"보건위생 - 미용원"},{"name":"골드독서실","tel":"031-861-0953","addr":"경기도 양주시 고암동 580-8번지 302호 301호, 302호","category":"학원 - 독서실"},{"name":"세르크코리아","tel":"031-871-8787","addr":"경기도 양주시 고암동 580-8번지 골드프라자 205호","category":"보건위생 - 기타대인서비스"},{"name":"소담칼국수&삼겹살","tel":"031-859-7159","addr":"경기도 양주시 고암동 580-8번지 골드프라자 1층 110호","category":"일반휴게음식 - 일반한식"},{"name":"수학의달인프라임영어덕정학원","tel":"","addr":"경기도 양주시 고암동 580-8번지 골드프라자 3층 307,308호","category":"학원 - 보습학원"},{"name":"엠스터디학원","tel":"031-858-8949","addr":"경기도 양주시 고암동 580-8번지 골드프라자 306 3층 305","category":"학원 - 보습학원"},{"name":"연세대혁승태권도장","tel":"031-858-7060","addr":"경기도 양주시 고암동 580-8 골드프라자 4층 405,406호","category":"회원제형태 - 학원"},{"name":"영어서당학원","tel":"031-1234-5678","addr":"경기도 양주시 고암동 580-8번지 골드프라자 303,304호","category":"학원 - 보습학원"},{"name":"오늘은 분식","tel":"031-859-6667","addr":"경기도 양주시 고암동 580-8번지 골드프라자 107,108호","category":"일반휴게음식 - 스넥"},{"name":"위드아이스","tel":"","addr":"경기도 양주시 고암동 580-8번지 골드프라자","category":"음료식품 - 기타음료식품"},{"name":"자연식탁","tel":"031-859-8597","addr":"경기도 양주시 고암동 580-8번지 외2필지 골드프라자 112호","category":"음료식품 - 기타음료식품"},{"name":"청어람153영어교습소","tel":"031-864-1533","addr":"경기도 양주시 고암동 580-8번지 골드프라자","category":"회원제형태 - 학원"},{"name":"카페봄(Cafe Bom)","tel":"","addr":"경기도 양주시 고암동 580-8번지 골드프라자 119호","category":"일반휴게음식 - 서양음식"},{"name":"크린토피아덕정신시가지점","tel":"031-878-2259","addr":"경기도 양주시 고암동 580-8번지 골드프라자 105호 (고암동 580-8,9,10 )","category":"수리서비스 - 세탁소"},{"name":"클라라슈만음악학원","tel":"031-861-1636","addr":"경기도 양주시 고암동 580-8번지 골드프라자 4층 407,408호","category":"학원 - 예·체능계학원"},{"name":"풀앤에듀학원","tel":"031-1111-1111","addr":"경기도 양주시 고암동 580-8번지 골드프라자 4층 409,410호","category":"학원 - 보습학원"},{"name":"하랑교육","tel":"031-864-7070","addr":"경기도 양주시 고암동 580-8번지 골드프라자 2층 203호","category":"학원 - 학습지 교육"}]},{"lat":"37.809590384","long":"127.0720958","items":[{"name":"OK 365 (경동대점)","tel":"031-821-1035","addr":"경기도 양주시 고암동 417-52번지 2동 101호","category":"유통업 영리 - 편 의 점"},{"name":"뽕스","tel":"031-868-7995","addr":"경기도 양주시 고암동 417-52번지","category":"일반휴게음식 - 일반한식"}]},{"lat":"37.836061146","long":"127.07029158","items":[{"name":"Socks4 (삭스포)","tel":"031-4221-3849","addr":"경기도 양주시 고암동 121-2번지 주원마을","category":"의류 - 기타의류"}]},{"lat":"37.830639418","long":"127.06681077","items":[{"name":"S헤어","tel":"031-858-0709","addr":"경기도 양주시 고암동 152-1번지 1층","category":"보건위생 - 미용원"}]},{"lat":"37.821727186","long":"127.07023311","items":[{"name":"YS통상","tel":"031-8082-4009","addr":"경기도 양주시 고암동 342-1번지","category":"주방용구 - 주방용구"}]},{"lat":"37.83155775","long":"127.06795884","items":[{"name":"가래원","tel":"","addr":"경기도 양주시 고암동 128-2번지 101호","category":"음료식품 - 기타음료식품"},{"name":"상구비어 고암점","tel":"031-859-3938","addr":"경기도 양주시 고암동 128-2번지 1층 103호","category":"일반휴게음식 - 일반한식"},{"name":"커피베이 (덕정점)","tel":"031-858-8581","addr":"경기도 양주시 고암동 128-2번지 대영빌딩 1층 102호","category":"일반휴게음식 - 서양음식"}]},{"lat":"37.839115166","long":"127.07058973","items":[{"name":"가야","tel":"","addr":"경기도 양주시 고암동 181-1번지 소노펠리체 1동 202호","category":"음료식품 - 기타음료식품"},{"name":"우석유통","tel":"070-7761-7769","addr":"경기도 양주시 고암동 181-1번지 소노펠리체 3동 501호","category":"음료식품 - 기타음료식품"}]},{"lat":"37.831557492","long":"127.06842457","items":[{"name":"가온누리태권도-양주관","tel":"031-863-5962","addr":"경기도 양주시 고암동 128-4번지 행전빌딩 301호","category":"학원 - 예·체능계학원"},{"name":"네일#","tel":"031-861-4179","addr":"경기도 양주시 고암동 128-4번지 행전빌딩 104호","category":"보건위생 - 피부미용실"},{"name":"성희포차","tel":"031-855-1622","addr":"경기도 양주시 고암동 128-4번지 행전빌딩 106호","category":"일반휴게음식 - 일반한식"},{"name":"스마트영어전문학원","tel":"031-857-6872","addr":"경기도 양주시 고암동 128-4번지 행전빌딩 2층 201호","category":"학원 - 외국어학원"},{"name":"아띠헤어","tel":"031-859-6577","addr":"경기도 양주시 고암동 128-4번지 행전빌딩 101호","category":"보건위생 - 미용원"},{"name":"어썸블티","tel":"070-8888-0727","addr":"경기도 양주시 고암동 128-4번지 행전빌딩 105호","category":"일반휴게음식 - 서양음식"},{"name":"코디미용실","tel":"031-858-5876","addr":"경기도 양주시 고암동 128-4번지","category":"보건위생 - 미용원"},{"name":"황금찹쌀꽈배기","tel":"031-866-8858","addr":"경기도 양주시 고암동 128-4번지 행전빌딩 1층 103호","category":"일반휴게음식 - 서양음식"}]},{"lat":"37.830638588","long":"127.06832153","items":[{"name":"가장맛있는족발 고암점","tel":"031-864-5849","addr":"경기도 양주시 고암동 159-1번지 1층 전체","category":"일반휴게음식 - 일반한식"}]},{"lat":"37.832085454","long":"127.07459313","items":[{"name":"가전몰","tel":"031-858-9114","addr":"경기도 양주시 고암동 586-3번지","category":"전기제품 - 가전제품"}]},{"lat":"37.838754822","long":"127.0705326","items":[{"name":"강쇠장어","tel":"031-859-8918","addr":"경기도 양주시 고암동 182-3번지 1층","category":"일반휴게음식 - 일반한식"},{"name":"꾸미오리선교센타","tel":"031-827-0691","addr":"경기도 양주시 고암동 182-3번지","category":"기타 - 비영리/대상"},{"name":"양주쭈꾸미","tel":"031-859-5955","addr":"경기도 양주시 고암동 182-3번지 1층","category":"일반휴게음식 - 일반한식"},{"name":"원황성","tel":"031-837-8513","addr":"경기도 양주시 고암동 182-3번지","category":"일반휴게음식 - 일반한식"}]},{"lat":"37.831304648","long":"127.06945803","items":[{"name":"개성생고기","tel":"031-859-5988","addr":"경기도 양주시 고암동 146-1번지 101호","category":"일반휴게음식 - 일반한식"}]},{"lat":"37.830170593","long":"127.06742375","items":[{"name":"거시기닭갈비","tel":"031-859-9989","addr":"경기도 양주시 고암동 157-6번지","category":"일반휴게음식 - 일반한식"}]},{"lat":"37.83249997","long":"127.07445722","items":[{"name":"걸작떡볶이(양주점)","tel":"031-867-9977","addr":"경기도 양주시 고암동 585번지 A동 1층","category":"일반휴게음식 - 일반한식"}]},{"lat":"37.830891072","long":"127.06792418","items":[{"name":"경기생고기전문점","tel":"031-858-6692","addr":"경기도 양주시 고암동 140-7번지","category":"일반휴게음식 - 일반한식"}]},{"lat":"37.825836693","long":"127.06809012","items":[{"name":"경기창호금속","tel":"031-848-6354","addr":"경기도 양주시 고암동 541-8번지","category":"용역 서비스 - 기타용역서비스"}]},{"lat":"37.809870757","long":"127.0702337","items":[{"name":"경동대점 오니기리와 이규동","tel":"02-598-0290","addr":"경기도 양주시 고암동 417-8번지","category":"일반휴게음식 - 일식·회집"},{"name":"오니기리와이규동 경동대학점","tel":"02-1600-8904","addr":"경기도 양주시 고암동 417-8번지 경동대학교양주캠퍼스 2층","category":"일반휴게음식 - 일반한식"},{"name":"코베티 경동대 양주점","tel":"031-852-0276","addr":"경기도 양주시 고암동 417-8번지 학생회관 양주캠퍼스 지하1층 일부 경동대학교","category":"일반휴게음식 - 서양음식"}]},{"lat":"37.831169288","long":"127.06984412","items":[{"name":"고가보신탕","tel":"031-866-3244","addr":"경기도 양주시 고암동 148-3번지","category":"일반휴게음식 - 일반한식"}]},{"lat":"37.835889968","long":"127.07029142","items":[{"name":"고운소리 피아노","tel":"031-858-0066","addr":"경기도 양주시 고암동 121-2번지 주원마을 219동 103호","category":"학원 - 예·체능계학원"}]},{"lat":"37.831035423","long":"127.06756081","items":[{"name":"고향부대찌개","tel":"031-859-5627","addr":"경기도 양주시 고암동 136-5번지","category":"일반휴게음식 - 일반한식"}]},{"lat":"37.830638468","long":"127.06853735","items":[{"name":"공원소갈비살","tel":"","addr":"경기도 양주시 고암동 160번지","category":"일반휴게음식 - 일반한식"}]},{"lat":"37.831304507","long":"127.06970793","items":[{"name":"구들장생고기","tel":"031-858-7892","addr":"경기도 양주시 고암동 148번지 1층","category":"일반휴게음식 - 일반한식"}]},{"lat":"37.831531693","long":"127.06617542","items":[{"name":"굴사냥","tel":"031-868-9220","addr":"경기도 양주시 고암동 126번지 1층","category":"일반휴게음식 - 일반한식"},{"name":"노아","tel":"031-858-3020","addr":"경기도 양주시 고암동 126번지 1층","category":"일반휴게음식 - 일반한식"}]},{"lat":"37.830891755","long":"127.06667468","items":[{"name":"굿모닝마트","tel":"031-862-4109","addr":"경기도 양주시 고암동 134-6번지","category":"유통업 영리 - 슈퍼마켓"},{"name":"씨유양주고암행복점","tel":"031-862-4109","addr":"경기도 양주시 고암동 134-6번지","category":"유통업 영리 - 편 의 점"}]},{"lat":"37.835318683","long":"127.07645927","items":[{"name":"그레이스 피아노","tel":"","addr":"경기도 양주시 고암동 582번지 덕정중흥에스클래스 105동 301호","category":"학원 - 기타 교육기관"}]},{"lat":"37.813255087","long":"127.07565378","items":[{"name":"금강자동차공업사","tel":"031-859-4553","addr":"경기도 양주시 고암동 391-10번지","category":"자동차정비 유지 - 자동차정비"}]},{"lat":"37.830638252","long":"127.06892356","items":[{"name":"금복정","tel":"031-866-2662","addr":"경기도 양주시 고암동 166번지 박씨근생1층","category":"일반휴게음식 - 일반한식"}]},{"lat":"37.830504078","long":"127.06717414","items":[{"name":"기똥찬족발","tel":"031-858-1133","addr":"경기도 양주시 고암동 156-3번지 1층","category":"일반휴게음식 - 일반한식"}]},{"lat":"37.832193753","long":"127.07428654","items":[{"name":"김윤미 피부샵","tel":"031-863-0488","addr":"경기도 양주시 고암동 587번지","category":"회원제형태 - 기타4"},{"name":"오빠돼지","tel":"031-864-9233","addr":"경기도 양주시 고암동 587번지 102호","category":"일반휴게음식 - 일반한식"}]},{"lat":"37.83089042","long":"127.06909417","items":[{"name":"까스까스","tel":"031-858-0034","addr":"경기도 양주시 고암동 144-7번지 101호","category":"일반휴게음식 - 일반한식"},{"name":"코뚜레","tel":"031-868-5176","addr":"경기도 양주시 고암동 144-7번지 A동 1층 101호","category":"일반휴게음식 - 일반한식"}]},{"lat":"37.832365035","long":"127.07411631","items":[{"name":"까칠한그녀","tel":"031-857-5335","addr":"경기도 양주시 고암동 585-2번지 상가 102호","category":"보건위생 - 미용원"},{"name":"돌쇠옛날통닭","tel":"031-858-9288","addr":"경기도 양주시 고암동 585-2번지 1층","category":"일반휴게음식 - 스넥"}]},{"lat":"37.830638808","long":"127.06792396","items":[{"name":"꽁군이네곱창","tel":"031-863-2228","addr":"경기도 양주시 고암동 158-1번지","category":"일반휴게음식 - 일반한식"},{"name":"뉴욕피자(양주점)","tel":"031-865-8484","addr":"경기도 양주시 고암동 158-1번지 1층 일부","category":"일반휴게음식 - 서양음식"}]},{"lat":"37.832257134","long":"127.07376407","items":[{"name":"나르는꿀꿀이","tel":"031-859-9933","addr":"경기도 양주시 고암동 585-4번지","category":"일반휴게음식 - 일반한식"},{"name":"빠빠독","tel":"031-861-3233","addr":"경기도 양주시 고암동 585-4번지","category":"문화.취미 - 애완동물"},{"name":"윤정헤어비스","tel":"031-858-8832","addr":"경기도 양주시 고암동 585-4번지","category":"보건위생 - 미용원"}]},{"lat":"37.830890516","long":"127.06892378","items":[{"name":"낙지한마리","tel":"031-865-2153","addr":"경기도 양주시 고암동 144-6번지 101호","category":"일반휴게음식 - 일반한식"},{"name":"묵호집","tel":"031-861-6001","addr":"경기도 양주시 고암동 144-6번지 1층","category":"일반휴게음식 - 일반한식"}]},{"lat":"37.833610476","long":"127.07048246","items":[{"name":"남양알로에","tel":"031-827-6122","addr":"경기도 양주시 고암동 122번지 덕정리동안마을 312호","category":"보건위생 - 화장품"},{"name":"덕정할인매장","tel":"031-857-8882","addr":"경기도 양주시 고암동 122번지 주공3단지 지하층","category":"유통업 영리 - 슈퍼마켓"}]},{"lat":"37.818087134","long":"127.07065002","items":[{"name":"농업회사법인(주)청미원식품고암공장","tel":"031-862-9100","addr":"경기도 양주시 고암동 454-9번지","category":"음료식품 - 농·축·수산품"}]},{"lat":"37.831557994","long":"127.06751583","items":[{"name":"다광고","tel":"031-861-9942","addr":"경기도 양주시 고암동 128번지 성광프라자 105호","category":"용역 서비스 - 종합용역"},{"name":"명성가츠","tel":"","addr":"경기도 양주시 고암동 128번지 1층","category":"일반휴게음식 - 서양음식"},{"name":"백번노래연습장","tel":"031-861-8832","addr":"경기도 양주시 고암동 128번지","category":"레저업소 - 노 래 방"},{"name":"사과머리","tel":"031-859-6625","addr":"경기도 양주시 고암동 128번지 성광프라자 104호","category":"보건위생 - 미용원"},{"name":"어반","tel":"","addr":"경기도 양주시 고암동 128번지 103호","category":"보건위생 - 미용원"},{"name":"원(  )건강힐링","tel":"031-859-1202","addr":"경기도 양주시 고암동 128번지 성광프라자 202호","category":"보건위생 - 의료용품"},{"name":"임마누엘 장식","tel":"031-862-3278","addr":"경기도 양주시 고암동 128번지 성광프라자 1층 101호","category":"직물 - 카페트,커튼,천막,지물"}]},{"lat":"37.820591422","long":"127.07123154","items":[{"name":"다빛테크","tel":"031-840-7781","addr":"경기도 양주시 고암동 351-10번지","category":"건축자재 - 조명기구"},{"name":"아이시스양주점","tel":"","addr":"경기도 양주시 고암동 351-10번지 101호","category":"음료식품 - 기타음료식품"}]},{"lat":"37.831312965","long":"127.07067347","items":[{"name":"다영이네포차","tel":"031-864-6677","addr":"경기도 양주시 고암동 150-1번지 1층","category":"일반휴게음식 - 일반한식"},{"name":"돈가네곱창","tel":"031-863-9253","addr":"경기도 양주시 고암동 150-1번지 101호","category":"일반휴게음식 - 일반한식"}]},{"lat":"37.830673989","long":"127.06945747","items":[{"name":"닥치고 곱창","tel":"031-840-7664","addr":"경기도 양주시 고암동 166-3번지 102호","category":"일반휴게음식 - 일반한식"},{"name":"참조은건강즙","tel":"031-868-7259","addr":"경기도 양주시 고암동 166-3번지","category":"건강식품 - 기타건강식품"}]},{"lat":"37.830332763","long":"127.06742389","items":[{"name":"단골돼지","tel":"031-861-3535","addr":"경기도 양주시 고암동 157-4번지","category":"일반휴게음식 - 일반한식"}]},{"lat":"37.831035285","long":"127.06781072","items":[{"name":"달려라 달봉이떡볶이 양주점","tel":"031-861-6676","addr":"경기도 양주시 고암동 140-4번지","category":"일반휴게음식 - 스넥"}]},{"lat":"37.821394919","long":"127.06831337","items":[{"name":"더드림 농.수산","tel":"031-796-2554","addr":"경기도 양주시 고암동 508-10번지","category":"음료식품 - 농·축·수산품"}]},{"lat":"37.8178915","long":"127.06601614","items":[{"name":"더불어재활용","tel":"031-825-4989","addr":"경기도 양주시 고암동 493-75번지","category":"신변잡화 - 기타잡화"}]},{"lat":"37.831557365","long":"127.06865175","items":[{"name":"더블유학원","tel":"031-861-7778","addr":"경기도 양주시 고암동 128-5번지 양덕프라자 201호","category":"학원 - 보습학원"},{"name":"동해회수산","tel":"031-858-0050","addr":"경기도 양주시 고암동 128-5번지 양덕프라자 106호","category":"일반휴게음식 - 일식·회집"},{"name":"매티스학원","tel":"031-861-0234","addr":"경기도 양주시 고암동 128-5번지 3층","category":"학원 - 보습학원"},{"name":"부어치킨","tel":"031-857-8899","addr":"경기도 양주시 고암동 128-5번지","category":"일반휴게음식 - 주점"},{"name":"신전떡볶이 양주덕정점","tel":"031-862-0281","addr":"경기도 양주시 고암동 128-5번지 1층 105호","category":"일반휴게음식 - 스넥"},{"name":"안경기업 양주점","tel":"031-862-5556","addr":"경기도 양주시 고암동 128-5번지 103호 102호, 103호","category":"보건위생 - 안경"},{"name":"오구피자(덕정점)","tel":"031-859-5982","addr":"경기도 양주시 고암동 128-5번지 1층","category":"일반휴게음식 - 서양음식"}]},{"lat":"37.817645013","long":"127.07178532","items":[{"name":"더좋은날","tel":"031-844-1113","addr":"경기도 양주시 고암동 468-25번지","category":"서적문구 - 출판 및 인쇄물"}]},{"lat":"37.83719561","long":"127.07154222","items":[{"name":"덕정고등학교매점","tel":"031-000-0000","addr":"경기도 양주시 고암동 121-1번지","category":"음료식품 - 기타음료식품"},{"name":"덕정고매점","tel":"","addr":"경기도 양주시 고암동 121-1번지 덕정고등학교","category":"음료식품 - 기타음료식품"}]},{"lat":"37.83155688","long":"127.06951505","items":[{"name":"독도회수산","tel":"031-863-8256","addr":"경기도 양주시 고암동 129-2번지 한성빌딩","category":"일반휴게음식 - 일반한식"},{"name":"드림디포","tel":"031-863-4652","addr":"경기도 양주시 고암동 129-2번지","category":"서적문구 - 문구용품"},{"name":"부티크","tel":"031-541-0884","addr":"경기도 양주시 고암동 129-2번지 한성빌딩 105호","category":"보건위생 - 미용원"},{"name":"행복애견방","tel":"031-859-3175","addr":"경기도 양주시 고암동 129-2번지 한성빌딩 104호","category":"문화.취미 - 애완동물"}]},{"lat":"37.83063867","long":"127.06817386","items":[{"name":"돈통마늘보쌈 양주덕정점","tel":"031-859-0053","addr":"경기도 양주시 고암동 159번지 101호","category":"일반휴게음식 - 일반한식"}]},{"lat":"37.826972503","long":"127.06695527","items":[{"name":"동서철물공구","tel":"031-859-4294","addr":"경기도 양주시 고암동 543번지","category":"건축자재 - 목재·석재·철물"}]},{"lat":"37.822861261","long":"127.07215362","items":[{"name":"동일공업사","tel":"031-859-4300","addr":"경기도 양주시 고암동 324-15번지","category":"자동차정비 유지 - 자동차정비"}]},{"lat":"37.832194205","long":"127.07353682","items":[{"name":"레이디코코헤어","tel":"031-861-1221","addr":"경기도 양주시 고암동 588번지 1층","category":"보건위생 - 미용원"},{"name":"부르쥬아복덕방","tel":"031-866-2555","addr":"경기도 양주시 고암동 588번지","category":"일반휴게음식 - 일반한식"},{"name":"이가네 족발 맥꼬","tel":"031-858-1707","addr":"경기도 양주시 고암동 588번지 104호","category":"일반휴게음식 - 일반한식"}]},{"lat":"37.831306188","long":"127.06667504","items":[{"name":"리얼호프","tel":"031-861-7292","addr":"경기도 양주시 고암동 134번지","category":"일반휴게음식 - 일반한식"},{"name":"요나스 Flower shop","tel":"","addr":"경기도 양주시 고암동 134번지 301호","category":"문화.취미 - 화원"}]},{"lat":"37.818647679","long":"127.0671525","items":[{"name":"링크","tel":"031-863-1922","addr":"경기도 양주시 고암동 486-2번지","category":"의류 - 정장"},{"name":"양주자동차극장","tel":"031-866-5080","addr":"경기도 양주시 고암동 486-2","category":"문화.취미 - 티켓"}]},{"lat":"37.831305761","long":"127.06745882","items":[{"name":"맛나슈퍼 (양주고암점)","tel":"031-858-2644","addr":"경기도 양주시 고암동 136번지","category":"일반휴게음식 - 주점"}]},{"lat":"37.832418988","long":"127.07428675","items":[{"name":"맥주고소주대학","tel":"031-862-9282","addr":"경기도 양주시 고암동 585-1번지 A동 1층","category":"일반휴게음식 - 주점"}]},{"lat":"37.831170364","long":"127.06792443","items":[{"name":"맥주마켓","tel":"070-8849-5220","addr":"경기도 양주시 고암동 140-3번지","category":"일반휴게음식 - 주점"}]},{"lat":"37.826143919","long":"127.06643207","items":[{"name":"멋내기 대박","tel":"031-857-8182","addr":"경기도 양주시 고암동 538-2번지 102호","category":"의류 - 정장"}]},{"lat":"37.825972364","long":"127.06712478","items":[{"name":"명신식당","tel":"031-861-9254","addr":"경기도 양주시 고암동 540-1번지 (고암동외1필지540-3)","category":"일반휴게음식 - 일반한식"},{"name":"아이스토리","tel":"070-8031-4038","addr":"경기도 양주시 고암동 540-1번지 나동 3호","category":"학원 - 기타 교육기관"},{"name":"이성중고가전마트","tel":"031-859-0036","addr":"경기도 양주시 고암동 540-1번지 가동","category":"전기제품 - 가전제품"}]},{"lat":"37.830891558","long":"127.06703817","items":[{"name":"명태본가","tel":"031-859-7517","addr":"경기도 양주시 고암동 135-6번지 1층","category":"일반휴게음식 - 일반한식"}]},{"lat":"37.83153162","long":"127.06631174","items":[{"name":"명품노래연습장","tel":"031-858-8874","addr":"경기도 양주시 고암동 126-1번지 지하","category":"레저업소 - 노 래 방"},{"name":"회랑참치사냥","tel":"031-837-6973","addr":"경기도 양주시 고암동 126-1번지","category":"일반휴게음식 - 일식·회집"}]},{"lat":"37.831170639","long":"127.06742462","items":[{"name":"모이모이닭갈비","tel":"031-861-8892","addr":"경기도 양주시 고암동 136-2번지 1층","category":"일반휴게음식 - 일반한식"}]},{"lat":"37.832364711","long":"127.0746502","items":[{"name":"모터리 (MOTOR. LEE)","tel":"031-111-1111","addr":"경기도 양주시 고암동 586번지","category":"자동차정비 유지 - 자동차부품"},{"name":"부추삼겹살","tel":"031-863-7771","addr":"경기도 양주시 고암동 586번지 1층","category":"일반휴게음식 - 일반한식"}]},{"lat":"37.831304853","long":"127.06909454","items":[{"name":"문스포차(Moon's 포차)","tel":"031-862-3191","addr":"경기도 양주시 고암동 144-1번지","category":"일반휴게음식 - 일반한식"}]},{"lat":"37.820952264","long":"127.07042549","items":[{"name":"밀밭칼국수","tel":"031-861-8833","addr":"경기도 양주시 고암동 342-3번지 1층","category":"일반휴게음식 - 일반한식"}]},{"lat":"37.832310738","long":"127.07451384","items":[{"name":"바움","tel":"031-859-2515","addr":"경기도 양주시 고암동 586-1번지 1층","category":"일반휴게음식 - 일반한식"}]},{"lat":"37.831556738","long":"127.06976496","items":[{"name":"박범진검도관","tel":"031-861-8881","addr":"경기도 양주시 고암동 129-3번지 5층","category":"회원제형태 - 학원"},{"name":"아스트로헤어","tel":"02-864-1270","addr":"경기도 양주시 고암동 129-3번지 1층 102호","category":"보건위생 - 미용원"},{"name":"양주 투혼정심관","tel":"031-857-3676","addr":"경기도 양주시 고암동 129-3번지 4층","category":"레저업소 - 헬스클럽"},{"name":"와니네일","tel":"031-535-0825","addr":"경기도 양주시 고암동 129-3번지 101호","category":"보건위생 - 피부미용실"}]},{"lat":"37.830674098","long":"127.06926436","items":[{"name":"백년삼계탕","tel":"031-867-4733","addr":"경기도 양주시 고암동 166-2번지 1층","category":"일반휴게음식 - 일반한식"}]},{"lat":"37.830639008","long":"127.06756047","items":[{"name":"백정이네","tel":"031-858-2363","addr":"경기도 양주시 고암동 157-1번지 1층","category":"일반휴게음식 - 일반한식"}]},{"lat":"37.830638865","long":"127.06782173","items":[{"name":"봉쥬르","tel":"031-858-8770","addr":"경기도 양주시 고암동 158번지","category":"일반휴게음식 - 서양음식"},{"name":"윤가네일품요리","tel":"031-858-8007","addr":"경기도 양주시 고암동 158번지","category":"일반휴게음식 - 일반한식"}]},{"lat":"37.831035222","long":"127.06792431","items":[{"name":"부라더포차","tel":"031-861-8255","addr":"경기도 양주시 고암동 140-5번지 101호","category":"일반휴게음식 - 일반한식"}]},{"lat":"37.831305917","long":"127.06717484","items":[{"name":"부원생고기식당","tel":"031-858-5392","addr":"경기도 양주시 고암동 135-1번지 1층","category":"일반휴게음식 - 일반한식"}]},{"lat":"37.830646852","long":"127.06965055","items":[{"name":"브라운씨(Brown.C)","tel":"","addr":"경기도 양주시 고암동 166-4번지 1층","category":"일반휴게음식 - 서양음식"},{"name":"자연지향","tel":"032-123-1234","addr":"경기도 양주시 고암동 166-4번지 101호","category":"가구 - 일반가구"}]},{"lat":"37.831252248","long":"127.06645917","items":[{"name":"비바체PC방","tel":"070-3639-2565","addr":"경기도 양주시 고암동 133-1번지","category":"레저업소 - 기타레져업소"}]},{"lat":"37.830891272","long":"127.06756069","items":[{"name":"비어포차","tel":"031-866-7779","addr":"경기도 양주시 고암동 136-7번지 1층","category":"일반휴게음식 - 주점"}]},{"lat":"37.80975195","long":"127.07311798","items":[{"name":"비전","tel":"070-7763-6343","addr":"경기도 양주시 고암동 416-2,3,4","category":"전기제품 - 가전제품"}]},{"lat":"37.832311075","long":"127.07395723","items":[{"name":"뺑덕어멈","tel":"031-861-5785","addr":"경기도 양주시 고암동 585-3번지 101,102호 뺑덕어멈","category":"일반휴게음식 - 일반한식"},{"name":"짱PC","tel":"031-858-0405","addr":"경기도 양주시 고암동 585-3번지 104호","category":"수리서비스 - 사무·통신기기수리"}]},{"lat":"37.831531374","long":"127.0667661","items":[{"name":"섭이네 춘천닭갈비","tel":"031-858-4676","addr":"경기도 양주시 고암동 126-4번지","category":"일반휴게음식 - 일반한식"}]},{"lat":"37.836223992","long":"127.06909893","items":[{"name":"세븐일레븐양주덕정주공점","tel":"031-1577-0711","addr":"경기도 양주시 고암동 121-5번지","category":"유통업 영리 - 편 의 점"},{"name":"숲풀림곱창","tel":"031-857-4439","addr":"경기도 양주시 고암동 121-5번지 주원마을 상가 103호","category":"일반휴게음식 - 일반한식"},{"name":"한솔세탁","tel":"031-857-7627","addr":"경기도 양주시 고암동 121-5번지 주원마을 상가 203호","category":"수리서비스 - 세탁소"},{"name":"해법영어","tel":"","addr":"경기도 양주시 고암동 121-5번지 주공마을 주상가 205호","category":"학원 - 외국어학원"},{"name":"행복한 Hair","tel":"031-861-4452","addr":"경기도 양주시 고암동 121-5번지 주암마을 주상가 204호","category":"보건위생 - 미용원"}]},{"lat":"37.830170512","long":"127.06757142","items":[{"name":"세현중국어교실","tel":"031-861-5509","addr":"경기도 양주시 고암동 157-7번지 킴스빌리지 302호","category":"학원 - 외국어학원"}]},{"lat":"37.830638373","long":"127.06870773","items":[{"name":"소문난쭈꾸미생삼겹","tel":"031-857-4473","addr":"경기도 양주시 고암동 160-1번지","category":"일반휴게음식 - 일반한식"}]},{"lat":"37.82114154","long":"127.07028937","items":[{"name":"수인유통","tel":"031-860-4802","addr":"경기도 양주시 고암동 342-11번지 1동","category":"의류 - 정장"}]},{"lat":"37.830891347","long":"127.06742438","items":[{"name":"수작","tel":"031-861-4486","addr":"경기도 양주시 고암동 136-6번지","category":"일반휴게음식 - 주점"}]},{"lat":"37.839088482","long":"127.0699876","items":[{"name":"수지스 카페(suji's cafe)","tel":"070-1111-1111","addr":"경기도 양주시 고암동 181-9번지","category":"일반휴게음식 - 서양음식"}]},{"lat":"37.836809437","long":"127.06939482","items":[{"name":"숲","tel":"","addr":"경기도 양주시 고암동 121-2번지 주원마을 201동 1704호","category":"건축자재 - 인테리어전문"}]},{"lat":"37.830332488","long":"127.06792369","items":[{"name":"숲속에","tel":"","addr":"경기도 양주시 고암동 158-5번지 1층","category":"일반휴게음식 - 일반한식"}]},{"lat":"37.831034571","long":"127.0690943","items":[{"name":"슝카롱","tel":"","addr":"경기도 양주시 고암동 144-5번지 1층","category":"음료식품 - 제과점"}]},{"lat":"37.825035235","long":"127.06739656","items":[{"name":"스포피아","tel":"031-848-3324","addr":"경기도 양주시 고암동 527-1번지","category":"회원제형태 - 기타4"}]},{"lat":"37.831313439","long":"127.06984425","items":[{"name":"시골숯불치킨","tel":"031-865-9282","addr":"경기도 양주시 고암동 148-1번지 1층","category":"일반휴게음식 - 일반한식"}]},{"lat":"37.831034147","long":"127.069844","items":[{"name":"신당동피렌체피자인","tel":"031-862-0707","addr":"경기도 양주시 고암동 148-5번지","category":"일반휴게음식 - 일반한식"}]},{"lat":"37.82814097","long":"127.07184051","items":[{"name":"신영합성공업사","tel":"031-858-7248","addr":"경기도 양주시 고암동 294-4번지","category":"기타 - 기타 전문점"}]},{"lat":"37.831531454","long":"127.06661843","items":[{"name":"싹쓰리 삼겹살","tel":"031-858-1142","addr":"경기도 양주시 고암동 126-3번지 1층","category":"일반휴게음식 - 일반한식"}]},{"lat":"37.825395749","long":"127.067147","items":[{"name":"쌍둥이네","tel":"02-1577-0000","addr":"경기도 양주시 고암동 527-2번지 1층","category":"음료식품 - 기타음료식품"}]},{"lat":"37.830890074","long":"127.06970756","items":[{"name":"써니꼬꼬 양주고암점","tel":"031-862-8295","addr":"경기도 양주시 고암동 148-6번지 모아빌상가 1층 상가","category":"일반휴게음식 - 스넥"}]},{"lat":"37.834616472","long":"127.07561795","items":[{"name":"씨유주영고암점","tel":"031-866-2046","addr":"경기도 양주시 고암동 582번지 중흥에스클래스상가108호~109호 108호","category":"유통업 영리 - 편 의 점"},{"name":"인홈인테리어","tel":"031-859-4237","addr":"경기도 양주시 고암동 582번지 덕정중흥에스클래스 상가동 101호","category":"건축자재 - 인테리어전문"},{"name":"중흥S","tel":"031-865-4109","addr":"경기도 양주시 고암동 582번지 중흥에스클래스 상가동 103호","category":"보건위생 - 미용원"},{"name":"환's 헤어","tel":"","addr":"경기도 양주시 고암동 582번지 덕정중흥에스클래스 상가동 107호","category":"보건위생 - 미용원"}]},{"lat":"37.831169584","long":"127.0693216","items":[{"name":"아마데우스모차르트음악학원2관","tel":"031-859-1303","addr":"경기도 양주시 고암동 146-2번지 상가 1층","category":"회원제형태 - 학원"}]},{"lat":"37.836223652","long":"127.06970101","items":[{"name":"아소비 교육원","tel":"","addr":"경기도 양주시 고암동 121-2번지 주원마을 220동 705호","category":"학원 - 기타 교육기관"}]},{"lat":"37.830197758","long":"127.06717388","items":[{"name":"안다미로 샤브샤브","tel":"031-858-2233","addr":"경기도 양주시 고암동 156-6번지","category":"일반휴게음식 - 일반한식"}]},{"lat":"37.831305991","long":"127.06703853","items":[{"name":"알콜충전","tel":"031-862-4395","addr":"경기도 양주시 고암동 135번지","category":"일반휴게음식 - 주점"}]},{"lat":"37.831170426","long":"127.06781083","items":[{"name":"야한소갈비살(덕정점)","tel":"031-859-8859","addr":"경기도 양주시 고암동 140-2번지 101호","category":"일반휴게음식 - 일반한식"}]},{"lat":"37.83152938","long":"127.07034425","items":[{"name":"양주공구.전기철물","tel":"031-858-1176","addr":"경기도 양주시 고암동 130-2번지","category":"건축자재 - 목재·석재·철물"}]},{"lat":"37.831529522","long":"127.07009435","items":[{"name":"양주문구도소매쎈타","tel":"031-863-6610","addr":"경기도 양주시 고암동 130번지","category":"서적문구 - 문구용품"}]},{"lat":"37.831170564","long":"127.06756093","items":[{"name":"양주임꺽정순대국","tel":"031-865-7288","addr":"경기도 양주시 고암동 136-3번지 1층","category":"일반휴게음식 - 일반한식"}]},{"lat":"37.825944862","long":"127.06798799","items":[{"name":"양주전단","tel":"031-111-1111","addr":"경기도 양주시 고암동 541-7번지","category":"용역 서비스 - 종합용역"}]},{"lat":"37.826638987","long":"127.06726166","items":[{"name":"양주종합광고기획","tel":"031-858-9595","addr":"경기도 양주시 고암동 541-2번지","category":"용역 서비스 - 종합용역"}]},{"lat":"37.830891483","long":"127.06717448","items":[{"name":"엄상궁칼국수","tel":"031-858-4100","addr":"경기도 양주시 고암동 135-7번지","category":"일반휴게음식 - 일반한식"}]},{"lat":"37.825476466","long":"127.0678172","items":[{"name":"에프씨프랜즈","tel":"031-858-9022","addr":"경기도 양주시 고암동 525-1번지","category":"음료식품 - 기타음료식품"}]},{"lat":"37.831313075","long":"127.07048036","items":[{"name":"엘에이갈비찜닭&숯불고기냉면(덕정점)","tel":"031-863-2586","addr":"경기도 양주시 고암동 150번지","category":"일반휴게음식 - 일반한식"}]},{"lat":"37.809842173","long":"127.07290231","items":[{"name":"엘프라자 (EL Plaza)","tel":"070-4100-5668","addr":"경기도 양주시 고암동 416-3번지","category":"가구 - 일반가구"}]},{"lat":"37.833392389","long":"127.07365156","items":[{"name":"엠마오","tel":"031-864-0784","addr":"경기도 양주시 고암동 583번지 하늘빛마을제 상가동 105호","category":"음료식품 - 제과점"},{"name":"장끼미장","tel":"031-857-1173","addr":"경기도 양주시 고암동 583 하늘빛마을상가 103","category":"보건위생 - 미용원"},{"name":"졸리헤어","tel":"031-858-5979","addr":"경기도 양주시 고암동 583번지 상가하늘빛마을 204호","category":"보건위생 - 미용원"},{"name":"치킨마루 덕정점","tel":"031-859-0777","addr":"경기도 양주시 고암동 583번지 하늘빛마을 상가동 104호","category":"일반휴게음식 - 스넥"}]},{"lat":"37.831142118","long":"127.070094","items":[{"name":"여수돌게장꽃게간장게장","tel":"031-865-8911","addr":"경기도 양주시 고암동 149-2번지 1층","category":"일반휴게음식 - 일반한식"}]},{"lat":"37.831169808","long":"127.06892403","items":[{"name":"영진닭한마리전문점","tel":"031-861-1112","addr":"경기도 양주시 고암동 144-2번지","category":"일반휴게음식 - 일반한식"}]},{"lat":"37.830225492","long":"127.06586762","items":[{"name":"예능(인)","tel":"031-821-2017","addr":"경기도 양주시 고암동 185-1번지 103호","category":"건축자재 - 인테리어전문"}]},{"lat":"37.831558193","long":"127.06715234","items":[{"name":"오드리","tel":"","addr":"경기도 양주시 고암동 126-7번지 1층","category":"의류 - 정장"}]},{"lat":"37.831529158","long":"127.07073046","items":[{"name":"오이시이모노카타리","tel":"031-859-5533","addr":"경기도 양주시 고암동 130-5번지 1층","category":"일반휴게음식 - 일반한식"}]},{"lat":"37.831168925","long":"127.07048023","items":[{"name":"오토크리닉","tel":"031-859-4544","addr":"경기도 양주시 고암동 150-2번지","category":"자동차정비 유지 - 자동차정비"}]},{"lat":"37.834862595","long":"127.07081303","items":[{"name":"용인대꿈나무태권도","tel":"031-862-5677","addr":"경기도 양주시 고암동 121-7번지 주원마을 유치원 3층","category":"회원제형태 - 학원"}]},{"lat":"37.831170775","long":"127.06717472","items":[{"name":"용피리흑염소","tel":"031-862-7008","addr":"경기도 양주시 고암동 135-3번지","category":"일반휴게음식 - 일반한식"}]},{"lat":"37.810752476","long":"127.07231265","items":[{"name":"용현상회","tel":"031-859-2021","addr":"경기도 양주시 고암동 산75-12번지","category":"음료식품 - 기타음료식품"}]},{"lat":"37.831277181","long":"127.07023043","items":[{"name":"우리동네 담뱃잎 가게","tel":"031-000-0000","addr":"경기도 양주시 고암동 149-1번지","category":"음료식품 - 기타음료식품"},{"name":"조개구이","tel":"031-859-9366","addr":"경기도 양주시 고암동 149-1번지","category":"일반휴게음식 - 일반한식"}]},{"lat":"37.831034666","long":"127.06892391","items":[{"name":"우리동네생고기","tel":"031-859-3993","addr":"경기도 양주시 고암동 144-4번지","category":"일반휴게음식 - 일반한식"}]},{"lat":"37.83063922","long":"127.06717426","items":[{"name":"원조다래솥뚜껑","tel":"031-862-8322","addr":"경기도 양주시 고암동 156-1번지 1층","category":"일반휴게음식 - 일반한식"}]},{"lat":"37.832697341","long":"127.07582054","items":[{"name":"유미용실","tel":"031-858-5242","addr":"경기도 양주시 고암동 584번지 행복한마을 상가동 102호","category":"보건위생 - 미용원"}]},{"lat":"37.838033099","long":"127.07220189","items":[{"name":"육마니(육개장보쌈전문점)","tel":"031-861-7521","addr":"경기도 양주시 고암동 170번지","category":"일반휴게음식 - 일반한식"},{"name":"주식회사수평/무진장숯불갈비","tel":"031-862-8293","addr":"경기도 양주시 고암동 170번지","category":"일반휴게음식 - 일반한식"}]},{"lat":"37.826089094","long":"127.06784046","items":[{"name":"은곡도마","tel":"031-858-6019","addr":"경기도 양주시 고암동 541-6번지 가동 1층","category":"가구 - 일반가구"}]},{"lat":"37.826170831","long":"127.0666479","items":[{"name":"이마트24 고암지혜점","tel":"031-111-1111","addr":"경기도 양주시 고암동 528-1번지","category":"유통업 영리 - 편 의 점"}]},{"lat":"37.825864926","long":"127.06587527","items":[{"name":"이조명가","tel":"031-868-1237","addr":"경기도 양주시 고암동 534-1번지","category":"일반휴게음식 - 일반한식"}]},{"lat":"37.831360526","long":"127.06615256","items":[{"name":"일초닭발&갈매기살","tel":"070-4763-5091","addr":"경기도 양주시 고암동 132번지 1층","category":"일반휴게음식 - 일반한식"}]},{"lat":"37.819195052","long":"127.07107125","items":[{"name":"자연맞춤가구","tel":"031-847-4007","addr":"경기도 양주시 고암동 348-14번지","category":"주방용구 - 주방용구"}]},{"lat":"37.809842649","long":"127.07209604","items":[{"name":"작은커피","tel":"031-858-4707","addr":"경기도 양주시 고암동 417-2번지 1층","category":"일반휴게음식 - 서양음식"}]},{"lat":"37.830891135","long":"127.06781059","items":[{"name":"족발야시장","tel":"031-859-4969","addr":"경기도 양주시 고암동 140-6번지","category":"일반휴게음식 - 일반한식"}]},{"lat":"37.816475716","long":"127.06839988","items":[{"name":"주식회사 비엔씨모터스","tel":"031-859-5254","addr":"경기도 양주시 고암동 493-119번지","category":"자동차정비 유지 - 자동차정비"}]},{"lat":"37.832743766","long":"127.07356007","items":[{"name":"지혜교육","tel":"031-853-8007","addr":"경기도 양주시 고암동 583번지 하늘빛마을 706동 203호","category":"학원 - 기타 교육기관"}]},{"lat":"37.831305568","long":"127.06781095","items":[{"name":"쭈노치킨","tel":"031-866-9255","addr":"경기도 양주시 고암동 140번지","category":"일반휴게음식 - 주점"}]},{"lat":"37.831556042","long":"127.07098039","items":[{"name":"참새방앗간","tel":"031-859-5072","addr":"경기도 양주시 고암동 130-7번지 1층","category":"일반휴게음식 - 주점"}]},{"lat":"37.831034353","long":"127.06948051","items":[{"name":"찾아가면 돼지","tel":"","addr":"경기도 양주시 고암동 146-5번지 1층","category":"일반휴게음식 - 일반한식"}]},{"lat":"37.831169494","long":"127.06948063","items":[{"name":"천운장묘컨설팅","tel":"031-859-3990","addr":"경기도 양주시 고암동 146-3번지 102호","category":"용역 서비스 - 가례서비스업"}]},{"lat":"37.83033235","long":"127.06817359","items":[{"name":"청춘보감","tel":"031-556-8855","addr":"경기도 양주시 고암동 159-4번지 202호","category":"음료식품 - 기타음료식품"}]},{"lat":"37.81750139","long":"127.07087662","items":[{"name":"체험카페 쏘쿡","tel":"031-858-0997","addr":"경기도 양주시 고암동 454-8번지 2층","category":"일반휴게음식 - 일반한식"}]},{"lat":"37.826918521","long":"127.06681892","items":[{"name":"촌두부집","tel":"031-875-2220","addr":"경기도 양주시 고암동 543-1번지","category":"일반휴게음식 - 일반한식"}]},{"lat":"37.831304712","long":"127.06934444","items":[{"name":"치킨명작 (엄상마을점)","tel":"070-6404-0118","addr":"경기도 양주시 고암동 146번지 1층","category":"일반휴게음식 - 스넥"}]},{"lat":"37.82905884","long":"127.0736815","items":[{"name":"케이플호텔","tel":"031-867-2600","addr":"경기도 양주시 고암동 256-3번지 4층~9층","category":"숙박업 - 여관/기타숙박업"}]},{"lat":"37.837403975","long":"127.06954303","items":[{"name":"쿨워터피아","tel":"031-866-3316","addr":"경기도 양주시 고암동 121-2 주원마을 202-101 4/3","category":"주방용구 - 정수기"}]},{"lat":"37.832086072","long":"127.0735708","items":[{"name":"통골뱅이삼촌네","tel":"031-863-5008","addr":"경기도 양주시 고암동 588-1번지 1층","category":"일반휴게음식 - 주점"}]},{"lat":"37.830333091","long":"127.06682187","items":[{"name":"폼파스코리아(주)","tel":"031-521-1654","addr":"경기도 양주시 고암동 152-5번지","category":"음료식품 - 기타음료식품"},{"name":"피자르방덕정점","tel":"031-859-0221","addr":"경기도 양주시 고암동 152-5번지 1층","category":"일반휴게음식 - 서양음식"}]},{"lat":"37.82683759","long":"127.06653489","items":[{"name":"푸른카정비공업사","tel":"031-857-6996","addr":"경기도 양주시 고암동 545","category":"자동차정비 유지 - 자동차정비"}]},{"lat":"37.831306114","long":"127.06681135","items":[{"name":"피쉬엔그릴 양주","tel":"031-863-8941","addr":"경기도 양주시 고암동 134-1번지 1층","category":"일반휴게음식 - 일반한식"}]},{"lat":"37.840393415","long":"127.07245403","items":[{"name":"하나로스포츠","tel":"031-859-0086","addr":"경기도 양주시 고암동 산13-1","category":"레져용품 - 스포츠·레져용품"}]},{"lat":"37.834464028","long":"127.07444776","items":[{"name":"하늘빛수학","tel":"","addr":"경기도 양주시 고암동 583번지 하늘빛마을 702동 502호","category":"학원 - 기타 교육기관"}]},{"lat":"37.831529092","long":"127.07084406","items":[{"name":"하트이불","tel":"","addr":"경기도 양주시 고암동 130-6번지 1층","category":"직물 - 침구·수예점"}]},{"lat":"37.831277259","long":"127.07009412","items":[{"name":"한동길 감자탕","tel":"031-859-1847","addr":"경기도 양주시 고암동 149번지 1층","category":"일반휴게음식 - 일반한식"}]},{"lat":"37.83153154","long":"127.0664594","items":[{"name":"한마리생고기","tel":"031-862-5456","addr":"경기도 양주시 고암동 126-2번지","category":"일반휴게음식 - 일반한식"}]},{"lat":"37.832058577","long":"127.0743432","items":[{"name":"한우풍경","tel":"031-866-0876","addr":"경기도 양주시 고암동 587-7번지","category":"일반휴게음식 - 일반한식"}]},{"lat":"37.831304949","long":"127.06892415","items":[{"name":"한장군부대찌개","tel":"031-863-2852","addr":"경기도 양주시 고암동 144번지","category":"일반휴게음식 - 일반한식"}]},{"lat":"37.830476914","long":"127.06742402","items":[{"name":"할매뼈다귀진감자탕","tel":"031-859-1551","addr":"경기도 양주시 고암동 157-2번지 1층","category":"일반휴게음식 - 일반한식"}]},{"lat":"37.83083572","long":"127.07023003","items":[{"name":"항아리묵은지김치찌개","tel":"031-859-7762","addr":"경기도 양주시 고암동 149-7번지","category":"일반휴게음식 - 일반한식"}]},{"lat":"37.830890731","long":"127.06853757","items":[{"name":"행복한 삼겹살","tel":"031-863-3331","addr":"경기도 양주시 고암동 143-2번지","category":"일반휴게음식 - 일반한식"}]},{"lat":"37.830890637","long":"127.06870796","items":[{"name":"홍박이네옹심이메밀칼국수","tel":"031-858-0907","addr":"경기도 양주시 고암동 143-3번지","category":"일반휴게음식 - 일반한식"}]},{"lat":"37.831305505","long":"127.06792454","items":[{"name":"홍성녹우촌 덕정2호점","tel":"031-858-4570","addr":"경기도 양주시 고암동 140-1번지 1층","category":"일반휴게음식 - 일반한식"}]},{"lat":"37.831170973","long":"127.06681123","items":[{"name":"황가네칡냉면","tel":"031-857-1007","addr":"경기도 양주시 고암동 134-3번지","category":"일반휴게음식 - 일반한식"}]},{"lat":"37.825034696","long":"127.06837337","items":[{"name":"휠판다","tel":"031-000-0000","addr":"경기도 양주시 고암동 524-9번지","category":"자동차정비 유지 - 자동차시트·타이어"}]}]