[{"lat":"37.351033632","long":"126.94559211","imageIndex":5,"items":[{"name":"(주)서림물산","tel":"031-477-9962","addr":"경기도 군포시 당동 783-62번지","indutype":"숙박업 - 여관/기타숙박업","category":"hotel"}]},{"lat":"37.352503148","long":"126.94739685","imageIndex":5,"items":[{"name":"군포여관","tel":"031-452-7501","addr":"경기도 군포시 당동 778-24 2,3층","indutype":"숙박업 - 여관/기타숙박업","category":"hotel"},{"name":"군포여관","tel":"031-452-7501","addr":"경기도 군포시 당동 778-24번지 2층 3층","indutype":"숙박업 - 여관/기타숙박업","category":"hotel"},{"name":"군포여관","tel":"031-452-7501","addr":"경기도 군포시 당동 778-24번지 2,3층","indutype":"숙박업 - 여관/기타숙박업","category":"hotel"}]},{"lat":"37.352863491","long":"126.94726115","imageIndex":5,"items":[{"name":"금성장여관","tel":"031-452-8088","addr":"경기도 군포시 당동 778-28번지","indutype":"숙박업 - 여관/기타숙박업","category":"hotel"}]},{"lat":"37.352944122","long":"126.94629043","imageIndex":5,"items":[{"name":"금전장여관","tel":"031-456-1103","addr":"경기도 군포시 당동 777-22번지","indutype":"숙박업 - 여관/기타숙박업","category":"hotel"}]},{"lat":"37.350727352","long":"126.94572778","imageIndex":5,"items":[{"name":"뉴월드장여관","tel":"031-454-5242","addr":"경기도 군포시 당동 783-59번지","indutype":"숙박업 - 여관/기타숙박업","category":"hotel"},{"name":"뉴월드장여관","tel":"031-454-5242","addr":"경기도 군포시 당동 783-59번지","indutype":"숙박업 - 여관/기타숙박업","category":"hotel"}]},{"lat":"37.352890308","long":"126.94680966","imageIndex":5,"items":[{"name":"목화장","tel":"031-458-6664","addr":"경기도 군포시 당동 777-10번지","indutype":"숙박업 - 여관/기타숙박업","category":"hotel"}]},{"lat":"37.357116504","long":"126.94773208","imageIndex":5,"items":[{"name":"베니스모텔","tel":"031-453-9441","addr":"경기도 군포시 당동 747-2번지","indutype":"숙박업 - 여관/기타숙박업","category":"hotel"}]},{"lat":"37.352727732","long":"126.94598585","imageIndex":5,"items":[{"name":"뷰모텔","tel":"031-452-6894","addr":"경기도 군포시 당동 776-1번지","indutype":"숙박업 - 여관/기타숙박업","category":"hotel"}]},{"lat":"37.351980379","long":"126.94701349","imageIndex":5,"items":[{"name":"비바체모텔","tel":"031-427-2724","addr":"경기도 군포시 당동 780-4번지 비바체모텔","indutype":"숙박업 - 여관/기타숙박업","category":"hotel"},{"name":"비바체호텔","tel":"031-427-2726","addr":"경기도 군포시 당동 780-4번지","indutype":"숙박업 - 여관/기타숙박업","category":"hotel"}]},{"lat":"37.352142535","long":"126.94695694","imageIndex":5,"items":[{"name":"애니콜","tel":"031-457-3800","addr":"경기도 군포시 당동 780-3번지","indutype":"숙박업 - 여관/기타숙박업","category":"hotel"}]},{"lat":"37.351367959","long":"126.94758956","imageIndex":5,"items":[{"name":"엘리제모텔","tel":"031-453-9510","addr":"경기도 군포시 당동 783-14번지","indutype":"숙박업 - 여관/기타숙박업","category":"hotel"}]},{"lat":"37.351754379","long":"126.94545612","imageIndex":5,"items":[{"name":"오투","tel":"031-456-6797","addr":"경기도 군포시 당동 784-1번지","indutype":"숙박업 - 여관/기타숙박업","category":"hotel"}]},{"lat":"37.35289019","long":"126.94656135","imageIndex":5,"items":[{"name":"유림장","tel":"031-454-0422","addr":"경기도 군포시 당동 777-18번지 1층","indutype":"숙박업 - 여관/기타숙박업","category":"hotel"}]},{"lat":"37.35147608","long":"126.94758948","imageIndex":5,"items":[{"name":"하트모텔","tel":"031-457-3235","addr":"경기도 군포시 당동 783-13번지","indutype":"숙박업 - 여관/기타숙박업","category":"hotel"}]}]