[{"lat":"37.844704679","long":"127.50488761","imageIndex":7,"items":[{"name":"가평잣진우농산","tel":"031-582-0859","addr":"경기도 가평군 가평읍 마장리 738-4번지","indutype":"음료식품 - 농·축·수산품","category":"food"}]},{"lat":"37.86731265","long":"127.52068997","imageIndex":7,"items":[{"name":"노루목휴양지","tel":"031-582-5609","addr":"경기도 가평군 가평읍 마장리 175","indutype":"음료식품 - 기타음료식품","category":"food"}]},{"lat":"37.865978168","long":"127.52094202","imageIndex":7,"items":[{"name":"농업회사법인 주식회사 태복","tel":"031-1111-1111","addr":"경기도 가평군 가평읍 마장리 167-1번지","indutype":"음료식품 - 농·축·수산품","category":"food"}]},{"lat":"37.859010142","long":"127.51771152","imageIndex":7,"items":[{"name":"잣이야기농원","tel":"031-581-5669","addr":"경기도 가평군 가평읍 마장리 375번지","indutype":"음료식품 - 농·축·수산품","category":"food"}]},{"lat":"37.843983228","long":"127.50505313","imageIndex":7,"items":[{"name":"차이나","tel":"031-582-5501","addr":"경기도 가평군 가평읍 마장리 737-5번지","indutype":"음료식품 - 농·축·수산품","category":"food"}]},{"lat":"37.867170204","long":"127.52030258","imageIndex":7,"items":[{"name":"휴","tel":"031-582-5609","addr":"경기도 가평군 가평읍 마장리 178번지","indutype":"음료식품 - 기타음료식품","category":"food"}]}]