[{"lat":"37.28285263","long":"127.15340832","imageIndex":7,"items":[{"name":"(주)테라커피","tel":"032-665-2213","addr":"경기도 용인시 기흥구 동백동 619-1번지 1층","indutype":"음료식품 - 기타음료식품","category":"food"},{"name":"쿠키상자","tel":"031-309-9125","addr":"경기도 용인시 기흥구 동백동 619-1번지","indutype":"음료식품 - 제과점","category":"food"}]},{"lat":"37.27693296","long":"127.15335143","imageIndex":7,"items":[{"name":"M&M웰빙몰","tel":"031-8005-8488","addr":"경기도 용인시 기흥구 동백동 2202-1외2필지동백훼미리프라자403호~404호","indutype":"건강식품 - 기타건강식품","category":"food"}]},{"lat":"37.28162741","long":"127.15327056","imageIndex":7,"items":[{"name":"가정식즉석반찬점","tel":"031-281-8251","addr":"경기도 용인시 기흥구 동백동 623-7번지 1층 101호","indutype":"음료식품 - 기타음료식품","category":"food"},{"name":"고마워아이야","tel":"031-238-2848","addr":"경기도 용인시 기흥구 동백동 623-7번지 103호","indutype":"음료식품 - 기타음료식품","category":"food"}]},{"lat":"37.283879724","long":"127.15346674","imageIndex":7,"items":[{"name":"감동창고","tel":"","addr":"경기도 용인시 기흥구 동백동 614-2번지 1층 101호","indutype":"음료식품 - 기타음료식품","category":"food"}]},{"lat":"37.283683369","long":"127.15198915","imageIndex":7,"items":[{"name":"강성원우유","tel":"031-272-5655","addr":"경기도 용인시 기흥구 동백동 612-1번지","indutype":"음료식품 - 기타음료식품","category":"food"},{"name":"기흥대리점","tel":"031-298-9608","addr":"경기도 용인시 기흥구 동백동 612-1번지 101호","indutype":"음료식품 - 기타음료식품","category":"food"}]},{"lat":"37.282293995","long":"127.1534072","imageIndex":7,"items":[{"name":"과일나라","tel":"031-281-4848","addr":"경기도 용인시 기흥구 동백동 619-5번지 1층","indutype":"음료식품 - 농·축·수산품","category":"food"}]},{"lat":"37.284348228","long":"127.15349023","imageIndex":7,"items":[{"name":"늘찬 정육점","tel":"031-274-5382","addr":"경기도 용인시 기흥구 동백동 605-12번지","indutype":"음료식품 - 정육점","category":"food"}]},{"lat":"37.282908375","long":"127.15207783","imageIndex":7,"items":[{"name":"달달코롬","tel":"","addr":"경기도 용인시 기흥구 동백동 618-1번지 강미라씨근생주택 1층 101 일부호","indutype":"음료식품 - 기타음료식품","category":"food"},{"name":"참선진","tel":"031-281-8111","addr":"경기도 용인시 기흥구 동백동 618-1번지 102호","indutype":"음료식품 - 기타음료식품","category":"food"}]},{"lat":"37.281464398","long":"127.16082517","imageIndex":7,"items":[{"name":"더스팟(The Spot)","tel":"031-274-4743","addr":"경기도 용인시 기흥구 동백동 597-1번지 미래도프라자 102호","indutype":"건강식품 - 기타건강식품","category":"food"},{"name":"아침에떡","tel":"031-693-8873","addr":"경기도 용인시 기흥구 동백동 597-1번지 미래도프라자 109호","indutype":"음료식품 - 제과점","category":"food"},{"name":"효재찬방","tel":"031-8005-7767","addr":"경기도 용인시 기흥구 동백동 597-1번지 미래도프라자 110호","indutype":"음료식품 - 기타음료식품","category":"food"}]},{"lat":"37.282520023","long":"127.15279874","imageIndex":7,"items":[{"name":"돈까스어랏(돈까스 a lot)","tel":"031-283-6201","addr":"경기도 용인시 기흥구 동백동 620-10번지 102호","indutype":"음료식품 - 기타음료식품","category":"food"}]},{"lat":"37.281906755","long":"127.16018336","imageIndex":7,"items":[{"name":"동백떡집","tel":"031-693-7353","addr":"경기도 용인시 기흥구 동백동 598-4번지 유타운 상가 101호","indutype":"음료식품 - 제과점","category":"food"},{"name":"아이스몬동백점","tel":"","addr":"경기도 용인시 기흥구 동백동 598-4번지 유타운 109호","indutype":"음료식품 - 기타음료식품","category":"food"},{"name":"조령한우직판장","tel":"031-283-8362","addr":"경기도 용인시 기흥구 동백동 598-4번지 유타운 상가 103호","indutype":"음료식품 - 정육점","category":"food"}]},{"lat":"37.290434935","long":"127.15677279","imageIndex":7,"items":[{"name":"드림푸드시스템","tel":"031-283-8596","addr":"경기도 용인시 기흥구 동백동 381-9번지","indutype":"음료식품 - 농·축·수산품","category":"food"}]},{"lat":"37.284990137","long":"127.1517662","imageIndex":7,"items":[{"name":"또바기오색반찬","tel":"070-8825-2464","addr":"경기도 용인시 기흥구 동백동 608-16번지 1층","indutype":"음료식품 - 기타음료식품","category":"food"}]},{"lat":"37.27921248","long":"127.15341234","imageIndex":7,"items":[{"name":"르뺑데쟈코벵","tel":"031-285-3643","addr":"경기도 용인시 기흥구 동백동 633-12번지 101호","indutype":"음료식품 - 제과점","category":"food"}]},{"lat":"37.281934529","long":"127.15266227","imageIndex":7,"items":[{"name":"미랑","tel":"031-284-9686","addr":"경기도 용인시 기흥구 동백동 622-2번지 1층 1호","indutype":"음료식품 - 기타음료식품","category":"food"}]},{"lat":"37.280373289","long":"127.15459862","imageIndex":7,"items":[{"name":"바나나콩","tel":"031-000-0000","addr":"경기도 용인시 기흥구 동백동 627-5번지 1층","indutype":"음료식품 - 기타음료식품","category":"food"}]},{"lat":"37.281240383","long":"127.14565851","imageIndex":7,"items":[{"name":"버니스위츠","tel":"","addr":"경기도 용인시 기흥구 동백동 653번지 호수마을상록롯데캐슬 상가동 1층 102호","indutype":"음료식품 - 기타음료식품","category":"food"}]},{"lat":"37.284240134","long":"127.15346746","imageIndex":7,"items":[{"name":"보성떡","tel":"031-693-8887","addr":"경기도 용인시 기흥구 동백동 605-13번지 상가 102호","indutype":"음료식품 - 제과점","category":"food"}]},{"lat":"37.282042208","long":"127.15995812","imageIndex":7,"items":[{"name":"블럭제빵소","tel":"031-282-7111","addr":"경기도 용인시 기흥구 동백동 598-3번지 백현프라자 1층 102호","indutype":"음료식품 - 제과점","category":"food"}]},{"lat":"37.283901493","long":"127.15754883","imageIndex":7,"items":[{"name":"사각사각","tel":"031-679-4343","addr":"경기도 용인시 기흥구 동백동 602번지 c4 2BL5 단지내상가 104호","indutype":"음료식품 - 농·축·수산품","category":"food"}]},{"lat":"37.281600227","long":"127.16031803","imageIndex":7,"items":[{"name":"서부축산","tel":"031-111-1111","addr":"경기도 용인시 기흥구 동백동 598-5번지 중앙프라자","indutype":"음료식품 - 정육점","category":"food"},{"name":"수산백화점","tel":"031-287-1771","addr":"경기도 용인시 기흥구 동백동 598-5번지 중앙프라자 농수축할인마트 내","indutype":"음료식품 - 농·축·수산품","category":"food"},{"name":"스시앤마구로","tel":"031-245-1412","addr":"경기도 용인시 기흥구 동백동 598-5번지 1층 117,118호","indutype":"음료식품 - 농·축·수산품","category":"food"},{"name":"아성 글로벌 미트","tel":"","addr":"경기도 용인시 기흥구 동백동 598-5번지 중앙프라자","indutype":"음료식품 - 정육점","category":"food"},{"name":"이성옥의 오늘반찬","tel":"031-285-8891","addr":"경기도 용인시 기흥구 동백동 598-5번지 중앙프라자 1층 114호","indutype":"음료식품 - 기타음료식품","category":"food"}]},{"lat":"37.281654053","long":"127.15357507","imageIndex":7,"items":[{"name":"섬김유통","tel":"031-285-0755","addr":"경기도 용인시 기흥구 동백동 626-1번지 302호","indutype":"음료식품 - 기타음료식품","category":"food"},{"name":"열방유통","tel":"031-285-0755","addr":"경기도 용인시 기흥구 동백동 626-1번지 302호","indutype":"음료식품 - 기타음료식품","category":"food"}]},{"lat":"37.284434071","long":"127.16358283","imageIndex":7,"items":[{"name":"소영건어물","tel":"","addr":"경기도 용인시 기흥구 동백동 581번지 백현마을주공7단지아파트","indutype":"음료식품 - 농·축·수산품","category":"food"}]},{"lat":"37.282159586","long":"127.15282058","imageIndex":7,"items":[{"name":"수지 상하목장 DS 대리점","tel":"031-800-5556","addr":"경기도 용인시 기흥구 동백동 621-11번지 상가동 1층","indutype":"음료식품 - 기타음료식품","category":"food"}]},{"lat":"37.281186437","long":"127.15285248","imageIndex":7,"items":[{"name":"쉐프삼촌동백점","tel":"031-223-1332","addr":"경기도 용인시 기흥구 동백동 624-2번지","indutype":"음료식품 - 기타음료식품","category":"food"}]},{"lat":"37.281790205","long":"127.15974335","imageIndex":7,"items":[{"name":"신개념푸줏간","tel":"000-000-000","addr":"경기도 용인시 기흥구 동백동 598-7번지 여강빌딩","indutype":"음료식품 - 정육점","category":"food"}]},{"lat":"37.283041459","long":"127.16062549","imageIndex":7,"items":[{"name":"야미","tel":"031-8273-2595","addr":"경기도 용인시 기흥구 동백동 599번지 백현마을모아미래도1단지아파트 상가동 106-2호","indutype":"음료식품 - 기타음료식품","category":"food"}]},{"lat":"37.281906455","long":"127.15348536","imageIndex":7,"items":[{"name":"올리브그린","tel":"070-4418-3051","addr":"경기도 용인시 기흥구 동백동 619-8번지 101호","indutype":"음료식품 - 기타음료식품","category":"food"}]},{"lat":"37.28210311","long":"127.15471485","imageIndex":7,"items":[{"name":"요리의여왕","tel":"031-281-0423","addr":"경기도 용인시 기흥구 동백동 654 호수마을동보노빌리티 상가-102","indutype":"음료식품 - 기타음료식품","category":"food"}]},{"lat":"37.280342409","long":"127.1505167","imageIndex":7,"items":[{"name":"유한바이오","tel":"031-282-3579","addr":"경기도 용인시 기흥구 동백동 689번지 해든마을동문굿모닝힐","indutype":"회원제형태 - 건강식품","category":"food"}]},{"lat":"37.284376389","long":"127.15259945","imageIndex":7,"items":[{"name":"이수떡볶이","tel":"070-8879-1949","addr":"경기도 용인시 기흥구 동백동 610-7번지 102호","indutype":"음료식품 - 기타음료식품","category":"food"}]},{"lat":"37.284906862","long":"127.15349134","imageIndex":7,"items":[{"name":"정[  ]:육점","tel":"","addr":"경기도 용인시 기흥구 동백동 605-7번지 103호","indutype":"음료식품 - 정육점","category":"food"},{"name":"정재스반찬","tel":"031-000-0000","addr":"경기도 용인시 기흥구 동백동 605-7번지 1층","indutype":"음료식품 - 기타음료식품","category":"food"}]},{"lat":"37.28134905","long":"127.15251452","imageIndex":7,"items":[{"name":"주식회사찬원상사","tel":"070-8879-2837","addr":"경기도 용인시 기흥구 동백동 623-13번지 1층","indutype":"음료식품 - 기타음료식품","category":"food"}]},{"lat":"37.280906519","long":"127.15332551","imageIndex":7,"items":[{"name":"참미트","tel":"031-283-6509","addr":"경기도 용인시 기흥구 동백동 625-6번지 1층","indutype":"음료식품 - 정육점","category":"food"}]},{"lat":"37.283655427","long":"127.15271078","imageIndex":7,"items":[{"name":"커스텀컴퍼니","tel":"070-4458-7007","addr":"경기도 용인시 기흥구 동백동 612-6번지 102호","indutype":"음료식품 - 기타음료식품","category":"food"}]},{"lat":"37.281425113","long":"127.16323815","imageIndex":7,"items":[{"name":"코디세핀신동무역","tel":"070-8223-1026","addr":"경기도 용인시 기흥구 동백동 593번지 백현마을모아미래도2단지아파트","indutype":"건강식품 - 기타건강식품","category":"food"}]},{"lat":"37.28207","long":"127.15938309","imageIndex":7,"items":[{"name":"파리바게뜨동백백현점","tel":"031-287-8201","addr":"경기도 용인시 기흥구 동백동 3101-8신동백빌딩105","indutype":"음료식품 - 제과점","category":"food"},{"name":"푸릇푸릇 Friut","tel":"","addr":"경기도 용인시 기흥구 동백동 598-9번지 신동백빌딩 1층 105호","indutype":"음료식품 - 농·축·수산품","category":"food"}]},{"lat":"37.282520693","long":"127.15226876","imageIndex":7,"items":[{"name":"프랜차이즈 새늘","tel":"031-896-8089","addr":"경기도 용인시 기흥구 동백동 620-13번지","indutype":"음료식품 - 기타음료식품","category":"food"}]},{"lat":"37.281547132","long":"127.15262767","imageIndex":7,"items":[{"name":"행복과일","tel":"031-261-0815","addr":"경기도 용인시 기흥구 동백동 623-2번지","indutype":"음료식품 - 농·축·수산품","category":"food"}]},{"lat":"37.280013759","long":"127.15391007","imageIndex":7,"items":[{"name":"홀핸즈","tel":"070-8825-7852","addr":"경기도 용인시 기흥구 동백동 631-6번지 102호","indutype":"음료식품 - 농·축·수산품","category":"food"}]}]