[{"lat":"37.521430532","long":"127.1532867","items":[{"name":"(유)오성건해","tel":"02-407-1312","addr":"경기도 하남시 감북동 267-1번지","category":"음료식품 - 농·축·수산품"}]},{"lat":"37.518152202","long":"127.15228471","items":[{"name":"(주) 비비랜드","tel":"02-472-0183","addr":"경기도 하남시 감북동 239번지","category":"서적문구 - 완구점"}]},{"lat":"37.517707206","long":"127.14787235","items":[{"name":"(주) 한일테크닉스_마들프라자","tel":"02-2202-7581","addr":"경기도 하남시 감북동 413-110번지 한일빌딩 3층","category":"자동차정비 유지 - 주차장"},{"name":"(주)한일테크닉스_경서프라자","tel":"02-2202-7581","addr":"경기도 하남시 감북동 413-110번지 한일빌딩 3층","category":"자동차정비 유지 - 주차장"},{"name":"(주)한일테크닉스_단디프라자","tel":"02-2202-7581","addr":"경기도 하남시 감북동 413-110번지 한일빌딩","category":"자동차정비 유지 - 주차장"},{"name":"(주)한일테크닉스_리더스프라자","tel":"02-2202-7581","addr":"경기도 하남시 감북동 413-110번지 한일빌딩 3층","category":"자동차정비 유지 - 주차장"},{"name":"(주)한일테크닉스_마곡GMG엘스타","tel":"02-2202-7581","addr":"경기도 하남시 감북동 413-110번지 한일빌딩","category":"자동차정비 유지 - 주차장"},{"name":"(주)한일테크닉스_미림프라자","tel":"02-2202-7581","addr":"경기도 하남시 감북동 413-110번지 한일빌딩","category":"자동차정비 유지 - 주차장"},{"name":"(주)한일테크닉스_반안프라자3","tel":"02-2202-7581","addr":"경기도 하남시 감북동 413-110번지 한일빌딩 3층","category":"자동차정비 유지 - 주차장"},{"name":"(주)한일테크닉스_소하람1차 오피스텔","tel":"02-2202-7581","addr":"경기도 하남시 감북동 413-110번지 한일빌딩","category":"자동차정비 유지 - 주차장"},{"name":"(주)한일테크닉스_스카이스퀘어3","tel":"02-2202-7581","addr":"경기도 하남시 감북동 413-110번지 한일빌딩 3층","category":"자동차정비 유지 - 주차장"},{"name":"(주)한일테크닉스_신창프라자","tel":"02-2202-7581","addr":"경기도 하남시 감북동 413-110번지 한일빌딩","category":"자동차정비 유지 - 주차장"},{"name":"(주)한일테크닉스_신해센트럴타워1","tel":"02-2202-7581","addr":"경기도 하남시 감북동 413-110번지 한일빌딩 3층","category":"자동차정비 유지 - 주차장"},{"name":"(주)한일테크닉스_신해센트럴타워2","tel":"02-2202-7581","addr":"경기도 하남시 감북동 413-110번지 한일빌딩","category":"자동차정비 유지 - 주차장"},{"name":"(주)한일테크닉스_에이스프라자","tel":"02-2202-7581","addr":"경기도 하남시 감북동 413-110번지 감북동,한일빌딩, 3층","category":"자동차정비 유지 - 주차장"},{"name":"(주)한일테크닉스_유미어스2차 오피스텔","tel":"02-2202-7581","addr":"경기도 하남시 감북동 413-110번지 한일빌딩 3층","category":"자동차정비 유지 - 주차장"},{"name":"(주)한일테크닉스_중일라크리움","tel":"02-2202-7581","addr":"경기도 하남시 감북동 413-110번지 한일빌딩","category":"자동차정비 유지 - 주차장"},{"name":"(주)한일테크닉스_캠퍼스타운","tel":"02-2202-7581","addr":"경기도 하남시 감북동 413-110번지 한일빌딩 3층","category":"자동차정비 유지 - 주차장"},{"name":"(주)한일테크닉스_클래시아 오르세움오피스","tel":"02-2202-7581","addr":"경기도 하남시 감북동 413-110번지 한일빌딩 3층","category":"자동차정비 유지 - 주차장"},{"name":"(주)한일테크닉스_탄현신한헤센스마트","tel":"02-2202-7581","addr":"경기도 하남시 감북동 413-110번지 한일빌딩 3층","category":"자동차정비 유지 - 주차장"},{"name":"(주)한일테크닉스_파워프라자","tel":"02-2202-7581","addr":"경기도 하남시 감북동 413-110번지 한일빌딩 3층","category":"자동차정비 유지 - 주차장"}]},{"lat":"37.519762739","long":"127.15404125","items":[{"name":"(주)게임스페이스","tel":"031-476-5811","addr":"경기도 하남시 감북동 253-3번지","category":"레져용품 - 스포츠·레져용품"}]},{"lat":"37.525068038","long":"127.16206125","items":[{"name":"(주)대경플로어","tel":"02-529-5347","addr":"경기도 하남시 감북동 39-1번지","category":"건축자재 - 기타건축자재"},{"name":"최신특장","tel":"02-465-3245","addr":"경기도 하남시 감북동 39-1번지","category":"자동차판매 - 기타운송"}]},{"lat":"37.525483162","long":"127.15470892","items":[{"name":"(주)동양기업","tel":"02-3675-5559","addr":"경기도 하남시 감북동 174번지","category":"건축자재 - 인테리어전문"}]},{"lat":"37.515542572","long":"127.14970057","items":[{"name":"(주)성운하우징","tel":"02-476-6531","addr":"경기도 하남시 감북동 391-20번지 102호","category":"건축자재 - 건축용 요업제품"},{"name":"(주)유웹스","tel":"02-474-4381","addr":"경기도 하남시 감북동 391-20번지","category":"용역 서비스 - 소프트웨어"}]},{"lat":"37.515596407","long":"127.15695112","items":[{"name":"(주)세계티지","tel":"02-412-8925","addr":"경기도 하남시 감북동 367-41번지","category":"건축자재 - 기타건축자재"},{"name":"천호풍력","tel":"02-474-2283","addr":"경기도 하남시 감북동 367-41번지","category":"건축자재 - 보일러·펌프·샷시"}]},{"lat":"37.516262839","long":"127.16393152","items":[{"name":"(주)승보산전/비씨","tel":"02-487-9893","addr":"경기도 하남시 감북동 321-3번지","category":"별도관리 - 자체물품대금"},{"name":"가든디자인","tel":"02-487-5597","addr":"경기도 하남시 감북동 321-3번지","category":"직물 - 카페트,커튼,천막,지물"}]},{"lat":"37.516709561","long":"127.15311887","items":[{"name":"(주)싱그린푸드빌","tel":"02-335-7091","addr":"경기도 하남시 감북동 386-1번지","category":"음료식품 - 기타음료식품"}]},{"lat":"37.518214333","long":"127.15995406","items":[{"name":"(주)와이앤케이","tel":"02-485-2043","addr":"경기도 하남시 감북동 354-22번지","category":"음료식품 - 기타음료식품"}]},{"lat":"37.526233832","long":"127.15942786","items":[{"name":"(주)우일정밀","tel":"02-488-6940","addr":"경기도 하남시 감북동 98번지","category":"기타 - 기계공구"}]},{"lat":"37.517739232","long":"127.1581206","items":[{"name":"(주)위성","tel":"02-488-6670","addr":"경기도 하남시 감북동 362-15번지","category":"전기제품 - 기타전기제품"},{"name":"(주)푸드웨이","tel":"070-7435-8883","addr":"경기도 하남시 감북동 362-15번지","category":"음료식품 - 기타음료식품"},{"name":"KS편의점","tel":"02-470-2958","addr":"경기도 하남시 감북동 362-15번지 근린상가 102호","category":"유통업 영리 - 편 의 점"},{"name":"명진미트","tel":"02-401-6469","addr":"경기도 하남시 감북동 362-15번지","category":"음료식품 - 정육점"},{"name":"승호조명공구","tel":"031-488-0985","addr":"경기도 하남시 감북동 362-15번지 2층","category":"기타 - 기계공구"},{"name":"씨유하남감북점","tel":"031-898-6569","addr":"경기도 하남시 감북동 362-15번지 근린상가 102","category":"유통업 영리 - 편 의 점"},{"name":"태백고냉지김치","tel":"031-485-0887","addr":"경기도 하남시 감북동 362-15번지","category":"음료식품 - 기타음료식품"}]},{"lat":"37.520852077","long":"127.15471085","items":[{"name":"(주)이노에이브이","tel":"02-459-5945","addr":"경기도 하남시 감북동 278-5번지","category":"전기제품 - 가전제품"}]},{"lat":"37.518797067","long":"127.14814594","items":[{"name":"(주)일도옵티칼","tel":"02-448-7117","addr":"경기도 하남시 감북동 413-29번지 2층","category":"보건위생 - 안경"},{"name":"주식회사 퍼니뷰","tel":"070-4246-6431","addr":"경기도 하남시 감북동 413-29번지 1층","category":"보건위생 - 안경"}]},{"lat":"37.518907581","long":"127.16034011","items":[{"name":"(주)재원에프앤에스","tel":"02-403-8295","addr":"경기도 하남시 감북동 345-37번지","category":"일반휴게음식 - 일반한식"}]},{"lat":"37.523401053","long":"127.1553495","items":[{"name":"(주)제이에스홀딩스원(JS Holdings one Co.","tel":"02-501-7778","addr":"경기도 하남시 감북동 135-1번지","category":"회원제형태 - 기타4"}]},{"lat":"37.518295371","long":"127.15306549","items":[{"name":"(주)제일테스팅","tel":"031-472-0075","addr":"경기도 하남시 감북동 246-2번지","category":"용역 서비스 - 기타용역서비스"}]},{"lat":"37.523294443","long":"127.16764576","items":[{"name":"(주)제일푸드시스템","tel":"02-400-4789","addr":"경기도 하남시 감북동 6번지 나동","category":"음료식품 - 기타음료식품"}]},{"lat":"37.521268671","long":"127.15303752","items":[{"name":"(주)지산코리아","tel":"02-488-5991","addr":"경기도 하남시 감북동 265-8번지","category":"건축자재 - 기타건축자재"},{"name":"대희공조","tel":"02-544-6167","addr":"경기도 하남시 감북동 265-8번지 1층","category":"용역 서비스 - 기타용역서비스"},{"name":"주식회사 참살이에프앤비","tel":"02-471-0342","addr":"경기도 하남시 감북동 265-8번지 101호","category":"음료식품 - 기타음료식품"}]},{"lat":"37.51665591","long":"127.15973588","items":[{"name":"(주)클라우딕","tel":"070-7700-7672","addr":"경기도 하남시 감북동 344-12번지","category":"레져용품 - 스포츠·레져용품"}]},{"lat":"37.526211032","long":"127.15620368","items":[{"name":"(주)탑스틸","tel":"02-473-6363","addr":"경기도 하남시 감북동 146-4번지","category":"건축자재 - 기타건축자재"}]},{"lat":"37.520599917","long":"127.15461984","items":[{"name":"(주)투디코리아","tel":"02-2272-9604","addr":"경기도 하남시 감북동 278-2번지 2층","category":"기타 - 기타 전문점"}]},{"lat":"37.516186263","long":"127.14645551","items":[{"name":"(주)팔복강동제1지점","tel":"02-488-1488","addr":"경기도 하남시 감북동 444-13번지","category":"일반휴게음식 - 일반한식"}]},{"lat":"37.522039992","long":"127.1625978","items":[{"name":"(주)한국냉동산업","tel":"02-419-9393","addr":"경기도 하남시 감북동 산19-11번지","category":"전기제품 - 냉열기기"}]},{"lat":"37.516487901","long":"127.16406774","items":[{"name":"(주)헤이스우드","tel":"02-571-6123","addr":"경기도 하남시 감북동 323-7번지","category":"건축자재 - 인테리어전문"},{"name":"마루공간","tel":"02-400-4950","addr":"경기도 하남시 감북동 323-7번지","category":"직물 - 카페트,커튼,천막,지물"}]},{"lat":"37.521012106","long":"127.15637403","items":[{"name":"(주)효승","tel":"031-796-2531","addr":"경기도 하남시 감북동 281-3번지","category":"건축자재 - 유리"}]},{"lat":"37.519318635","long":"127.14896139","items":[{"name":"B.B인터네셔널","tel":"02-473-0140","addr":"경기도 하남시 감북동 413-91번지","category":"레져용품 - 스포츠·레져용품"}]},{"lat":"37.521761302","long":"127.15531223","items":[{"name":"DN축산유통","tel":"02-471-4063","addr":"경기도 하남시 감북동 273-5번지 1층 3호","category":"음료식품 - 정육점"},{"name":"한아름슈퍼","tel":"02-478-5447","addr":"경기도 하남시 감북동 273-5번지","category":"유통업 영리 - 슈퍼마켓"}]},{"lat":"37.51990733","long":"127.15370218","items":[{"name":"DreamTime(드림타임)","tel":"070-7594-0900","addr":"경기도 하남시 감북동 255-1번지 1층","category":"자동차정비 유지 - 자동차정비"},{"name":"디카이거코리아(Dkiger Korea)","tel":"031-111-1111","addr":"경기도 하남시 감북동 255-1번지 2층","category":"자동차정비 유지 - 자동차부품"},{"name":"우솔비앤비","tel":"","addr":"경기도 하남시 감북동 255-1번지","category":"유통업 영리 - 슈퍼마켓"}]},{"lat":"37.515325602","long":"127.15028832","items":[{"name":"G.N.K(Golf Networks Korea)","tel":"02-3437-1131","addr":"경기도 하남시 감북동 391-42번지 3층","category":"레져용품 - 골프용품 전문점"},{"name":"대원슈퍼","tel":"031-485-5494","addr":"경기도 하남시 감북동 391-42번지","category":"음료식품 - 기타음료식품"}]},{"lat":"37.521151859","long":"127.15278842","items":[{"name":"GL아트시스템","tel":"02-488-8977","addr":"경기도 하남시 감북동 265-6번지","category":"전기제품 - 냉열기기"}]},{"lat":"37.517567574","long":"127.15148043","items":[{"name":"GS25감북서하남로점","tel":"","addr":"경기도 하남시 감북동 398-6번지 1층","category":"유통업 영리 - 편 의 점"}]},{"lat":"37.519846124","long":"127.15919959","items":[{"name":"GS25하남감북점","tel":"02-2006-2118","addr":"경기도 하남시 감북동 346-13번지","category":"유통업 영리 - 편 의 점"},{"name":"돈치맘","tel":"02-477-9112","addr":"경기도 하남시 감북동 346-13번지 1층","category":"일반휴게음식 - 일반한식"}]},{"lat":"37.515547071","long":"127.15328621","items":[{"name":"GS25하남도로공사점","tel":"","addr":"경기도 하남시 감북동 378-3번지 1층","category":"유통업 영리 - 편 의 점"},{"name":"다온정","tel":"02-488-9010","addr":"경기도 하남시 감북동 378-3번지 1층 B02호","category":"일반휴게음식 - 일반한식"},{"name":"포스타 골프존","tel":"02-476-7766","addr":"경기도 하남시 감북동 378-3번지 1층","category":"레저업소 - 스크린골프"}]},{"lat":"37.516013168","long":"127.14801612","items":[{"name":"GS25하남배다리점","tel":"","addr":"경기도 하남시 감북동 419-11번지 1층","category":"유통업 영리 - 편 의 점"},{"name":"영아어닝스시스템","tel":"02-483-4989","addr":"경기도 하남시 감북동 419-11번지 2층","category":"직물 - 카페트,커튼,천막,지물"},{"name":"천안호두과자","tel":"02-2299-6535","addr":"경기도 하남시 감북동 419-11번지","category":"일반휴게음식 - 스넥"}]},{"lat":"37.516295328","long":"127.14567524","items":[{"name":"GS25하남충전소점","tel":"","addr":"경기도 하남시 감북동 446-1번지","category":"유통업 영리 - 편 의 점"},{"name":"주식회사삼표에너지삼표충전소","tel":"02-471-1151","addr":"경기도 하남시 감북동 446-1번지","category":"연료판매점 - GS 가스충전소"}]},{"lat":"37.520158424","long":"127.16148523","items":[{"name":"HAPS","tel":"02-478-1212","addr":"경기도 하남시 감북동 307-10번지","category":"건축자재 - 건축용 요업제품"}]},{"lat":"37.515380229","long":"127.15690543","items":[{"name":"L.K 무역","tel":"031-510-5911","addr":"경기도 하남시 감북동 372-4번지","category":"의류 - 정장"},{"name":"감북식당","tel":"02-488-8253","addr":"경기도 하남시 감북동 372-4번지","category":"일반휴게음식 - 일반한식"},{"name":"아라데코","tel":"02-933-6545","addr":"경기도 하남시 감북동 372-4번지","category":"건축자재 - 인테리어전문"},{"name":"인텍컨스주식회사","tel":"02-486-0150","addr":"경기도 하남시 감북동 372-4번지","category":"건축자재 - 기타건축자재"}]},{"lat":"37.527067921","long":"127.16229176","items":[{"name":"S.K공조(에스케이)","tel":"02-470-7040","addr":"경기도 하남시 감북동 50-5번지","category":"전기제품 - 냉열기기"}]},{"lat":"37.516185616","long":"127.14698713","items":[{"name":"SK서하남IC주유소","tel":"02-478-6051","addr":"경기도 하남시 감북동 441-3번지","category":"연료판매점 - SK주유소"}]},{"lat":"37.525959898","long":"127.15532077","items":[{"name":"TOSS.CO","tel":"02-470-9119","addr":"경기도 하남시 감북동 158번지","category":"음료식품 - 농·축·수산품"}]},{"lat":"37.515823139","long":"127.14868311","items":[{"name":"가람식품","tel":"02-485-0220","addr":"경기도 하남시 감북동 419-21번지","category":"유통업 영리 - 슈퍼마켓"},{"name":"신바람난찐빵","tel":"031-479-4479","addr":"경기도 하남시 감북동 419-21번지","category":"일반휴게음식 - 스넥"}]},{"lat":"37.514904439","long":"127.15556975","items":[{"name":"가람코퍼레이션","tel":"02-482-0610","addr":"경기도 하남시 감북동 374-4번지","category":"건축자재 - 기타건축자재"},{"name":"선영성재","tel":"020-2470-1234","addr":"경기도 하남시 감북동 374-4번지","category":"건축자재 - 기타건축자재"}]},{"lat":"37.516516844","long":"127.14872971","items":[{"name":"가온엘이디(가온LED)","tel":"02-474-7900","addr":"경기도 하남시 감북동 412-14번지","category":"건축자재 - 조명기구"},{"name":"두리천막앵글","tel":"031-472-6105","addr":"경기도 하남시 감북동 412-14번지","category":"직물 - 카페트,커튼,천막,지물"},{"name":"스타하우징","tel":"02-478-8522","addr":"경기도 하남시 감북동 412-14번지","category":"건축자재 - 기타건축자재"}]},{"lat":"37.525207919","long":"127.15850939","items":[{"name":"가을농부","tel":"02-913-8851","addr":"경기도 하남시 감북동 101-3번지","category":"음료식품 - 기타음료식품"}]},{"lat":"37.518459471","long":"127.15854062","items":[{"name":"감북동 권다방","tel":"02-0000-0000","addr":"경기도 하남시 감북동 353-8번지","category":"일반휴게음식 - 주점"}]},{"lat":"37.520736689","long":"127.16026477","items":[{"name":"강동드라이브","tel":"02-470-1203","addr":"경기도 하남시 감북동 289-1번지 1층","category":"자동차정비 유지 - 자동차부품"},{"name":"세븐일레븐하남감북점","tel":"","addr":"경기도 하남시 감북동 289-1번지","category":"유통업 영리 - 편 의 점"}]},{"lat":"37.522960226","long":"127.15483955","items":[{"name":"개화냉동","tel":"02-471-3831","addr":"경기도 하남시 감북동 275-3번지","category":"전기제품 - 냉열기기"}]},{"lat":"37.518657986","long":"127.1583148","items":[{"name":"건양산업","tel":"031-470-0138","addr":"경기도 하남시 감북동 352-2번지","category":"직물 - 카페트,커튼,천막,지물"},{"name":"디오기획","tel":"02-911-6011","addr":"경기도 하남시 감북동 352-2번지","category":"용역 서비스 - 사무서비스"},{"name":"생활건강","tel":"02-470-2168","addr":"경기도 하남시 감북동 352-2번지 2층","category":"유통업 영리 - 기타유통업"}]},{"lat":"37.516988239","long":"127.14637786","items":[{"name":"겟백R&D(GETBACK R&D)","tel":"","addr":"경기도 하남시 감북동 451-13번지 나동 3층","category":"문화.취미 - 애완동물"}]},{"lat":"37.517963095","long":"127.15220515","items":[{"name":"경기쌀백화점","tel":"02-409-6168","addr":"경기도 하남시 감북동 240-1","category":"음료식품 - 미곡상"}]},{"lat":"37.519707795","long":"127.15473115","items":[{"name":"고려냉동산업","tel":"02-416-0992","addr":"경기도 하남시 감북동 253-9번지","category":"전기제품 - 냉열기기"}]},{"lat":"37.516300339","long":"127.16285704","items":[{"name":"고은농산직영직판장","tel":"","addr":"경기도 하남시 감북동 493번지 삼현팰리체 103동 502호","category":"음료식품 - 농·축·수산품"}]},{"lat":"37.515349959","long":"127.15937119","items":[{"name":"공구매장코리아상사","tel":"02-471-1203","addr":"경기도 하남시 감북동 371-7번지","category":"기타 - 기계공구"}]},{"lat":"37.517489771","long":"127.14884472","items":[{"name":"광일주차시스템","tel":"02-470-2601","addr":"경기도 하남시 감북동 412-2번지 2층","category":"자동차정비 유지 - 주차장"}]},{"lat":"37.520519293","long":"127.1542577","items":[{"name":"국수나무 군포아이티(IT)밸리점","tel":"02-404-8733","addr":"경기도 하남시 감북동 271-12번지 1층 121호","category":"일반휴게음식 - 스넥"}]},{"lat":"37.515457368","long":"127.14570758","items":[{"name":"국제자동차","tel":"","addr":"경기도 하남시 감북동 433-2번지","category":"자동차정비 유지 - 자동차정비"},{"name":"오토크루","tel":"","addr":"경기도 하남시 감북동 433-2번지","category":"자동차정비 유지 - 자동차정비"},{"name":"유케이플랜주식회사","tel":"02-470-4273","addr":"경기도 하남시 감북동 433-2번지","category":"용역 서비스 - 종합용역"}]},{"lat":"37.518297517","long":"127.15837061","items":[{"name":"권 당구의신","tel":"031-489-6669","addr":"경기도 하남시 감북동 352-5번지 2층","category":"레저업소 - 당 구 장"},{"name":"권가밥상","tel":"02-470-9001","addr":"경기도 하남시 감북동 352-5번지","category":"일반휴게음식 - 일반한식"},{"name":"박가네식당","tel":"02-486-6944","addr":"경기도 하남시 감북동 352-5번지 1층","category":"일반휴게음식 - 일반한식"}]},{"lat":"37.518625322","long":"127.14859807","items":[{"name":"규수당출장뷔페","tel":"02-473-2220","addr":"경기도 하남시 감북동 413-41번지","category":"일반휴게음식 - 일반한식"}]},{"lat":"37.519269043","long":"127.15953774","items":[{"name":"그랑","tel":"","addr":"경기도 하남시 감북동 345-5번지","category":"음료식품 - 기타음료식품"}]},{"lat":"37.516457693","long":"127.15973546","items":[{"name":"그린웰","tel":"070-4161-9946","addr":"경기도 하남시 감북동 344-4번지 1층","category":"음료식품 - 농·축·수산품"}]},{"lat":"37.518045568","long":"127.15812124","items":[{"name":"그린포장산업","tel":"02-477-7346","addr":"경기도 하남시 감북동 355-14번지 1층","category":"유통업 영리 - 기타유통업"},{"name":"대성공구백화점","tel":"02-486-0944","addr":"경기도 하남시 감북동 355-14번지 나동","category":"기타 - 기계공구"}]},{"lat":"37.520457123","long":"127.14631663","items":[{"name":"깔멜","tel":"02-484-8260","addr":"경기도 하남시 감북동 456-2번지 2층","category":"일반휴게음식 - 서양음식"},{"name":"드까르멜릿/(주)와이씨알씨(YCRC Co.,Ltd.)","tel":"02-484-8260","addr":"경기도 하남시 감북동 456-2번지 1층","category":"일반휴게음식 - 서양음식"}]},{"lat":"37.520490967","long":"127.16209677","items":[{"name":"나래산업","tel":"031-476-7680","addr":"경기도 하남시 감북동 302-1번지","category":"신변잡화 - 기타잡화"}]},{"lat":"37.514903074","long":"127.15662167","items":[{"name":"나무소리","tel":"02-484-3522","addr":"경기도 하남시 감북동 372-6번지 2층","category":"건축자재 - 기타건축자재"},{"name":"장흥출장뷔페 3호점","tel":"02-470-0771","addr":"경기도 하남시 감북동 372-6번지 1층","category":"일반휴게음식 - 일반한식"}]},{"lat":"37.521068822","long":"127.15431537","items":[{"name":"나섬푸드고매출장연회","tel":"02-578-8899","addr":"경기도 하남시 감북동 271-4번지 1층","category":"일반휴게음식 - 서양음식"}]},{"lat":"37.518040057","long":"127.14829152","items":[{"name":"내집처럼 인테리어","tel":"080-409-1004","addr":"경기도 하남시 감북동 413-56번지 1층","category":"건축자재 - 인테리어전문"}]},{"lat":"37.519185397","long":"127.15459435","items":[{"name":"다쥬자미용가구","tel":"031-949-6134","addr":"경기도 하남시 감북동 252-5번지","category":"보건위생 - 화장품"}]},{"lat":"37.517235117","long":"127.16451049","items":[{"name":"대광냉동","tel":"02-406-9705","addr":"경기도 하남시 감북동 321-2번지","category":"수리서비스 - 기타수리서비스"}]},{"lat":"37.515817737","long":"127.15992641","items":[{"name":"대림인테리어","tel":"02-472-0948","addr":"경기도 하남시 감북동 344-7번지","category":"건축자재 - 인테리어전문"}]},{"lat":"37.515067477","long":"127.15490273","items":[{"name":"대명금속","tel":"02-488-3522","addr":"경기도 하남시 감북동 374-1번지","category":"기타 - 기타 전문점"},{"name":"대명테크","tel":"02-486-8564","addr":"경기도 하남시 감북동 374-1번지","category":"건축자재 - 목재·석재·철물"},{"name":"옐로바이크","tel":"02-969-5124","addr":"경기도 하남시 감북동 374-1번지 2층","category":"레져용품 - 스포츠·레져용품"},{"name":"장수특장","tel":"02-477-0447","addr":"경기도 하남시 감북동 374-1번지","category":"기타 - 기계공구"}]},{"lat":"37.524065994","long":"127.15673097","items":[{"name":"대명창호(Technology)","tel":"02-426-1996","addr":"경기도 하남시 감북동 137-4번지","category":"건축자재 - 보일러·펌프·샷시"}]},{"lat":"37.518764235","long":"127.15972898","items":[{"name":"대성공조","tel":"02-422-6543","addr":"경기도 하남시 감북동 354-8번지","category":"전기제품 - 가전제품"}]},{"lat":"37.515596828","long":"127.14954232","items":[{"name":"대성기업","tel":"02-483-6303","addr":"경기도 하남시 감북동 391-15번지","category":"문화.취미 - 민예·공예품"},{"name":"세븐일레븐서하남로드점","tel":"","addr":"경기도 하남시 감북동 391-15번지 1층","category":"유통업 영리 - 편 의 점"}]},{"lat":"37.515180921","long":"127.15070655","items":[{"name":"대신화물방이동취급소","tel":"02-417-2500","addr":"경기도 하남시 감북동 391-4번지 1층","category":"용역 서비스 - 보관및 창고업"}]},{"lat":"37.521686148","long":"127.1576763","items":[{"name":"대영공업사","tel":"02-488-5109","addr":"경기도 하남시 감북동 282-2번지","category":"자동차정비 유지 - 자동차정비"},{"name":"대영타이어","tel":"02-488-5109","addr":"경기도 하남시 감북동 282-2번지","category":"자동차정비 유지 - 자동차시트·타이어"}]},{"lat":"37.521679107","long":"127.16295902","items":[{"name":"대원금속","tel":"02-430-3757","addr":"경기도 하남시 감북동 298-2번지","category":"건축자재 - 기타건축자재"}]},{"lat":"37.516208606","long":"127.15731434","items":[{"name":"대일종합상사","tel":"02-484-3434","addr":"경기도 하남시 감북동 366번지 1층","category":"건축자재 - 목재·석재·철물"},{"name":"미소","tel":"02-484-0455","addr":"경기도 하남시 감북동 366","category":"건축자재 - 기타건축자재"}]},{"lat":"37.515427804","long":"127.14778877","items":[{"name":"대창스텐","tel":"02-409-7492","addr":"경기도 하남시 감북동 427-4번지","category":"기타 - 기계공구"}]},{"lat":"37.516460764","long":"127.15740535","items":[{"name":"대형TOOL","tel":"02-486-0994","addr":"경기도 하남시 감북동 364번지 1동","category":"건축자재 - 목재·석재·철물"}]},{"lat":"37.516651448","long":"127.16306139","items":[{"name":"덕성전자","tel":"070-4416-0017","addr":"경기도 하남시 감북동 324-1번지","category":"서적문구 - 완구점"}]},{"lat":"37.516652772","long":"127.14809654","items":[{"name":"동경바닥재","tel":"02-487-9775","addr":"경기도 하남시 감북동 417-5번지 102호","category":"직물 - 카페트,커튼,천막,지물"},{"name":"영진골프마켓","tel":"02-487-1872","addr":"경기도 하남시 감북동 417-5번지 201호","category":"레져용품 - 골프용품 전문점"},{"name":"주신전기난방","tel":"02-484-6888","addr":"경기도 하남시 감북동 417-5번지 201호","category":"용역 서비스 - 기타용역서비스"}]},{"lat":"37.515348493","long":"127.15356859","items":[{"name":"동래복국","tel":"02-488-7647","addr":"경기도 하남시 감북동 378-20번지","category":"일반휴게음식 - 일반한식"}]},{"lat":"37.518067767","long":"127.14773731","items":[{"name":"동부연합전단","tel":"02-483-8343","addr":"경기도 하남시 감북동 413-111번지 102호","category":"용역 서비스 - 종합용역"}]},{"lat":"37.517789086","long":"127.16128792","items":[{"name":"동아냉난방기","tel":"02-482-3633","addr":"경기도 하남시 감북동 340-1","category":"전기제품 - 냉열기기"}]},{"lat":"37.517575218","long":"127.15951157","items":[{"name":"동우씨엠","tel":"031-404-6697","addr":"경기도 하남시 감북동 360-1번지","category":"신변잡화 - 기타잡화"},{"name":"지앤지스포츠","tel":"031-485-3722","addr":"경기도 하남시 감북동 360-1번지","category":"레져용품 - 스포츠·레져용품"}]},{"lat":"37.518098871","long":"127.15170772","items":[{"name":"드림주방","tel":"02-401-5236","addr":"경기도 하남시 감북동 240-2번지","category":"주방용구 - 주방용구"}]},{"lat":"37.517599295","long":"127.14770247","items":[{"name":"드림하우징","tel":"02-484-6286","addr":"경기도 하남시 감북동 413-109번지 202호","category":"건축자재 - 인테리어전문"},{"name":"주식회사 발도코리아","tel":"02-455-1855","addr":"경기도 하남시 감북동 413-109번지 동양빌딩 2층 201호","category":"레져용품 - 스포츠·레져용품"}]},{"lat":"37.519206323","long":"127.1450134","items":[{"name":"디와이(DY)모터스","tel":"02-6405-7205","addr":"경기도 하남시 감북동 449-9번지","category":"자동차정비 유지 - 자동차정비"},{"name":"조원골프","tel":"02-488-1791","addr":"경기도 하남시 감북동 449-9번지","category":"레져용품 - 골프용품 전문점"}]},{"lat":"37.51796165","long":"127.16025894","items":[{"name":"레인보우끼니 주식회사","tel":"02-473-0963","addr":"경기도 하남시 감북동 345-11번지","category":"의류 - 정장"}]},{"lat":"37.524490354","long":"127.15604178","items":[{"name":"롯데우유송파대리점","tel":"02-402-8400","addr":"경기도 하남시 감북동 141-1번지","category":"음료식품 - 기타음료식품"}]},{"lat":"37.523434905","long":"127.15703511","items":[{"name":"롯데칠성음료 신잠실점","tel":"070-8031-4038","addr":"경기도 하남시 감북동 115번지","category":"음료식품 - 기타음료식품"}]},{"lat":"37.518791842","long":"127.14503523","items":[{"name":"리빙하프물류","tel":"02-476-7671","addr":"경기도 하남시 감북동 449-5번지 가동 101호","category":"유통업 영리 - 기타유통업"}]},{"lat":"37.516434578","long":"127.14967969","items":[{"name":"리오닉스 송파","tel":"02-477-3277","addr":"경기도 하남시 감북동 404번지 1층","category":"자동차정비 유지 - 카인테리어"},{"name":"서하남공인중개사사무소","tel":"02-473-4131","addr":"경기도 하남시 감북동 404번지","category":"용역 서비스 - 부동산 중개·임대"},{"name":"엘림자전거","tel":"02-483-0688","addr":"경기도 하남시 감북동 404번지 ,1,2층","category":"레져용품 - 스포츠·레져용품"}]},{"lat":"37.521377802","long":"127.15920278","items":[{"name":"마루하우스","tel":"02-441-2019","addr":"경기도 하남시 감북동 286-1번지","category":"건축자재 - 기타건축자재"}]},{"lat":"37.518935903","long":"127.15936736","items":[{"name":"마일레 강동올림픽센터/(주)윤건스마트테크","tel":"02-485-8251","addr":"경기도 하남시 감북동 354-15번지 기백빌딩 1,2층","category":"자동차정비 유지 - 자동차정비"}]},{"lat":"37.515128144","long":"127.15675787","items":[{"name":"만수카서비스","tel":"02-475-9426","addr":"경기도 하남시 감북동 372-5번지","category":"자동차정비 유지 - 자동차정비"},{"name":"오토의 반란(TM)","tel":"070-4417-1807","addr":"경기도 하남시 감북동 372-5번지 4층","category":"서적문구 - 완구점"},{"name":"주식회사 일양","tel":"02-512-5522","addr":"경기도 하남시 감북동 372-5번지","category":"음료식품 - 기타음료식품"},{"name":"호영축산유통","tel":"02-488-9996","addr":"경기도 하남시 감북동 372-5번지 1층","category":"음료식품 - 정육점"}]},{"lat":"37.520125235","long":"127.15934722","items":[{"name":"맛나식당","tel":"02-488-4553","addr":"경기도 하남시 감북동 346-6번지 1층","category":"일반휴게음식 - 일반한식"},{"name":"황제짜장","tel":"02-487-4123","addr":"경기도 하남시 감북동 346-6번지","category":"일반휴게음식 - 중국식"}]},{"lat":"37.515768772","long":"127.14893185","items":[{"name":"맛나치킨","tel":"02-474-6248","addr":"경기도 하남시 감북동 420-2번지 1층","category":"일반휴게음식 - 스넥"}]},{"lat":"37.519485602","long":"127.14503655","items":[{"name":"맵 포커스","tel":"070-8160-8979","addr":"경기도 하남시 감북동 449-4번지 1층","category":"자동차정비 유지 - 자동차부품"},{"name":"스파이더.플라이","tel":"02-477-3333","addr":"경기도 하남시 감북동 449-4번지","category":"레져용품 - 스포츠·레져용품"},{"name":"제앤에스(주)","tel":"02-6358-3747","addr":"경기도 하남시 감북동 449-4번지","category":"유통업 영리 - 기타유통업"}]},{"lat":"37.519573532","long":"127.15404086","items":[{"name":"멀티에어컨","tel":"031-1588-9629","addr":"경기도 하남시 감북동 251-1번지 3층 302호","category":"전기제품 - 냉열기기"}]},{"lat":"37.525041577","long":"127.15478721","items":[{"name":"미래포장기계","tel":"02-454-9046","addr":"경기도 하남시 감북동 170번지","category":"기타 - 기계공구"}]},{"lat":"37.517984347","long":"127.14962617","items":[{"name":"미주강화주식회사","tel":"02-472-9924","addr":"경기도 하남시 감북동 407-5번지 하남에코빌딩","category":"보건위생 - 피부미용실"},{"name":"윤복모","tel":"02-475-1736","addr":"경기도 하남시 감북동 407-5번지 하남에코빌딩","category":"건축자재 - 인테리어전문"}]},{"lat":"37.519764676","long":"127.14522938","items":[{"name":"반누리 반품닷컴 하남점","tel":"02-485-3366","addr":"경기도 하남시 감북동 457-4번지 2층","category":"전기제품 - 가전제품"}]},{"lat":"37.515380942","long":"127.14925912","items":[{"name":"배다리","tel":"070-7558-8853","addr":"경기도 하남시 감북동 421번지 1층","category":"일반휴게음식 - 서양음식"},{"name":"제이원미니카","tel":"","addr":"경기도 하남시 감북동 421번지 3층","category":"서적문구 - 완구점"}]},{"lat":"37.519491091","long":"127.14793236","items":[{"name":"백마테니스장","tel":"02-486-6069","addr":"경기도 하남시 감북동 413-18번지","category":"레저업소 - 테니스장"}]},{"lat":"37.515573032","long":"127.15412329","items":[{"name":"별난매운탕","tel":"031-000-0000","addr":"경기도 하남시 감북동 378-25번지 1층","category":"일반휴게음식 - 일반한식"}]},{"lat":"37.524319502","long":"127.16259135","items":[{"name":"보경 꽃 식물","tel":"02-478-0283","addr":"경기도 하남시 감북동 37-2번지","category":"문화.취미 - 화원"}]},{"lat":"37.521872536","long":"127.16645486","items":[{"name":"보라매레저","tel":"031-478-1521","addr":"경기도 하남시 감북동 22-2번지","category":"레져용품 - 스포츠·레져용품"}]},{"lat":"37.523878079","long":"127.15573509","items":[{"name":"본나무카페","tel":"","addr":"경기도 하남시 감북동 136-2번지 2층 201호","category":"일반휴게음식 - 서양음식"}]},{"lat":"37.517095766","long":"127.16095842","items":[{"name":"부광냉동산업","tel":"02-415-0271","addr":"경기도 하남시 감북동 342-1번지","category":"전기제품 - 냉열기기"}]},{"lat":"37.517043175","long":"127.14565404","items":[{"name":"비손칼국수","tel":"02-470-4243","addr":"경기도 하남시 감북동 447-7번지 1층","category":"일반휴게음식 - 일반한식"},{"name":"삼봉냉면","tel":"02-474-3960","addr":"경기도 하남시 감북동 447-7번지","category":"일반휴게음식 - 일반한식"},{"name":"장어의꿈","tel":"02-476-4193","addr":"경기도 하남시 감북동 447-7번지","category":"일반휴게음식 - 일반한식"},{"name":"청수산","tel":"02-476-4194","addr":"경기도 하남시 감북동 447-7번지 1층","category":"음료식품 - 농·축·수산품"}]},{"lat":"37.520880742","long":"127.16034425","items":[{"name":"삼성건철","tel":"02-484-8495","addr":"경기도 하남시 감북동 292-1번지","category":"용역 서비스 - 기타용역서비스"},{"name":"현대카클리닉","tel":"02-474-4631","addr":"경기도 하남시 감북동 292-1번지","category":"자동차정비 유지 - 자동차정비"}]},{"lat":"37.516630646","long":"127.15840109","items":[{"name":"삼성종합주방","tel":"02-474-4951","addr":"경기도 하남시 감북동 361-2번지","category":"주방용구 - 주방용구"}]},{"lat":"37.518013916","long":"127.14756754","items":[{"name":"삼우디자인","tel":"02-446-6606","addr":"경기도 하남시 감북동 413-67번지","category":"용역 서비스 - 종합용역"}]},{"lat":"37.521408397","long":"127.16326386","items":[{"name":"서린아트","tel":"02-449-8364","addr":"경기도 하남시 감북동 298-20번지 외1필지","category":"용역 서비스 - 종합용역"}]},{"lat":"37.516012146","long":"127.16276593","items":[{"name":"서부농업협동조합감북지","tel":"0002-482-0365","addr":"경기도 하남시 감북동 325번지","category":"유통업 비영리 - 농,축협 직영매장"},{"name":"서부농협감북지점","tel":"02-482-0365","addr":"경기도 하남시 감북동 325번지","category":"유통업 비영리 - 농,축협 직영매장"}]},{"lat":"37.516462295","long":"127.1491255","items":[{"name":"서부한우생고기전문점","tel":"02-485-0412","addr":"경기도 하남시 감북동 406-12번지","category":"일반휴게음식 - 일반한식"},{"name":"자금성","tel":"02-477-3342","addr":"경기도 하남시 감북동 406-12번지","category":"일반휴게음식 - 중국식"}]},{"lat":"37.519514954","long":"127.15048886","items":[{"name":"서울화이바","tel":"02-474-0709","addr":"경기도 하남시 감북동 232-2번지","category":"직물 - 기타직물"}]},{"lat":"37.515904507","long":"127.14845705","items":[{"name":"서종 피혁","tel":"02-478-0508","addr":"경기도 하남시 감북동 419-25번지 103호","category":"직물 - 옷감·직물"},{"name":"주식회사 다원종합주방","tel":"02-476-1828","addr":"경기도 하남시 감북동 419-25번지 지하","category":"주방용구 - 주방용식기"},{"name":"주식회사 케이원컴퍼니","tel":"02-478-0508","addr":"경기도 하남시 감북동 419-25번지 103호","category":"직물 - 옷감·직물"},{"name":"한라종합기계공구","tel":"","addr":"경기도 하남시 감북동 419-25번지 외 4필지","category":"기타 - 기계공구"}]},{"lat":"37.517825505","long":"127.16100521","items":[{"name":"서풍(    )유통","tel":"02-441-3655","addr":"경기도 하남시 감북동 340-2번지","category":"음료식품 - 기타음료식품"}]},{"lat":"37.515628936","long":"127.15267557","items":[{"name":"서하남고속주유소","tel":"02-485-5189","addr":"경기도 하남시 감북동 377-1번지","category":"연료판매점 - SK주유소"},{"name":"아이지에이마트서하남점","tel":"031-000-0000","addr":"경기도 하남시 감북동 377-1번지","category":"유통업 영리 - 편 의 점"}]},{"lat":"37.516851946","long":"127.14731644","items":[{"name":"서하남나들목주유소","tel":"02-470-2606","addr":"경기도 하남시 감북동 442-7번지","category":"연료판매점 - 쌍용S-OIL"}]},{"lat":"37.517402225","long":"127.15397993","items":[{"name":"서하남물류","tel":"02-477-7771","addr":"경기도 하남시 감북동 384번지","category":"용역 서비스 - 보관및 창고업"}]},{"lat":"37.51548802","long":"127.15009635","items":[{"name":"서하남배다리주유소","tel":"02-473-1001","addr":"경기도 하남시 감북동 391-17번지","category":"연료판매점 - 현대정유(오일뱅크)"}]},{"lat":"37.520764801","long":"127.15945037","items":[{"name":"설악산수","tel":"02-547-5242","addr":"경기도 하남시 감북동 286-6번지","category":"음료식품 - 기타음료식품"},{"name":"설악산수","tel":"02-547-5242","addr":"경기도 하남시 감북동 286-6번지","category":"유통업 영리 - 기타유통업"}]},{"lat":"37.52009468","long":"127.15515047","items":[{"name":"성기상사","tel":"02-497-5808","addr":"경기도 하남시 감북동 279-3번지","category":"음료식품 - 기타음료식품"}]},{"lat":"37.518210728","long":"127.14871038","items":[{"name":"성미유통","tel":"02-483-4550","addr":"경기도 하남시 감북동 413-53번지","category":"유통업 영리 - 기타유통업"}]},{"lat":"37.516488328","long":"127.14992865","items":[{"name":"세종카센타","tel":"02-477-3305","addr":"경기도 하남시 감북동 403-5번지","category":"자동차정비 유지 - 자동차부품"},{"name":"장보고홍원웰빙","tel":"02-472-2905","addr":"경기도 하남시 감북동 403-5번지 201호","category":"회원제형태 - 기타1"}]},{"lat":"37.516402793","long":"127.15345759","items":[{"name":"세종합판","tel":"02-489-0522","addr":"경기도 하남시 감북동 381번지","category":"건축자재 - 목재·석재·철물"}]},{"lat":"37.515317452","long":"127.14959833","items":[{"name":"소박사","tel":"02-473-8989","addr":"경기도 하남시 감북동 391-13번지","category":"음료식품 - 정육점"},{"name":"소박사","tel":"02-473-8989","addr":"경기도 하남시 감북동 391-13번지","category":"일반휴게음식 - 일반한식"}]},{"lat":"37.519043012","long":"127.14595195","items":[{"name":"스윗스팟(sweet spot)","tel":"02-485-1123","addr":"경기도 하남시 감북동 452-1번지","category":"레저업소 - 기타레져업소"},{"name":"원창알미늄","tel":"02-476-1235","addr":"경기도 하남시 감북동 452-1번지","category":"건축자재 - 기타건축자재"},{"name":"유영벤딩","tel":"02-486-8060","addr":"경기도 하남시 감북동 452-1번지","category":"건축자재 - 기타건축자재"}]},{"lat":"37.515546638","long":"127.15362554","items":[{"name":"시골남원추어탕","tel":"02-475-7861","addr":"경기도 하남시 감북동 378-17번지","category":"일반휴게음식 - 일반한식"}]},{"lat":"37.517851487","long":"127.16178576","items":[{"name":"시원산업","tel":"02-476-2238","addr":"경기도 하남시 감북동 332-3번지","category":"직물 - 카페트,커튼,천막,지물"},{"name":"주식회사 디피엘컴퍼니(DPL Company)","tel":"070-7539-0981","addr":"경기도 하남시 감북동 332-3번지","category":"의류 - 정장"}]},{"lat":"37.516542935","long":"127.14948762","items":[{"name":"신라Jeep","tel":"031-471-1823","addr":"경기도 하남시 감북동 405-11번지","category":"자동차정비 유지 - 자동차정비"},{"name":"신라편의점","tel":"031-472-1823","addr":"경기도 하남시 감북동 405-11번지","category":"유통업 영리 - 슈퍼마켓"}]},{"lat":"37.518485233","long":"127.14526088","items":[{"name":"신양알미늄","tel":"02-483-5405","addr":"경기도 하남시 감북동 448번지","category":"건축자재 - 보일러·펌프·샷시"}]},{"lat":"37.520511714","long":"127.16006068","items":[{"name":"신양카센타","tel":"02-487-7008","addr":"경기도 하남시 감북동 286-22번지","category":"자동차정비 유지 - 자동차정비"}]},{"lat":"37.522461544","long":"127.15725935","items":[{"name":"신영지엔에스 주식회사","tel":"02-401-6907","addr":"경기도 하남시 감북동 120-1번지","category":"음료식품 - 기타음료식품"}]},{"lat":"37.520404105","long":"127.14545683","items":[{"name":"신한국주유소","tel":"02-486-1066","addr":"경기도 하남시 감북동 458-1번지","category":"연료판매점 - GS주유소"}]},{"lat":"37.519016304","long":"127.15295382","items":[{"name":"싸인산업","tel":"02-487-4142","addr":"경기도 하남시 감북동 249-1번지","category":"건축자재 - 인테리어전문"}]},{"lat":"37.525708409","long":"127.15470938","items":[{"name":"안촌가든","tel":"02-485-0373","addr":"경기도 하남시 감북동 173-1번지","category":"일반휴게음식 - 일반한식"}]},{"lat":"37.519015291","long":"127.16064575","items":[{"name":"에스에이치 오엠씨(SH OMC)","tel":"02-1111-1111","addr":"경기도 하남시 감북동 345-30번지","category":"유통업 영리 - 기타유통업"}]},{"lat":"37.515291696","long":"127.14856897","items":[{"name":"에코바스","tel":"02-408-9074","addr":"경기도 하남시 감북동 424-6번지","category":"건축자재 - 건축용 요업제품"}]},{"lat":"37.51856872","long":"127.15064536","items":[{"name":"엘림물류","tel":"02-2043-8700","addr":"경기도 하남시 감북동 233-1번지","category":"신변잡화 - 기타잡화"}]},{"lat":"37.516823654","long":"127.14834572","items":[{"name":"엘컴퍼니 (L-company)","tel":"070-4568-1687","addr":"경기도 하남시 감북동 417-12번지","category":"자동차정비 유지 - 자동차부품"}]},{"lat":"37.524205399","long":"127.1669577","items":[{"name":"여주주방","tel":"02-486-0410","addr":"경기도 하남시 감북동 11번지","category":"주방용구 - 주방용구"}]},{"lat":"37.516434999","long":"127.14934036","items":[{"name":"예성연구소","tel":"031-477-5969","addr":"경기도 하남시 감북동 405-13번지","category":"신변잡화 - 기타잡화"}]},{"lat":"37.518345849","long":"127.14873327","items":[{"name":"오토라이브주식회사","tel":"02-469-6200","addr":"경기도 하남시 감북동 413-50번지 1층","category":"자동차정비 유지 - 자동차부품"}]},{"lat":"37.519350454","long":"127.14503629","items":[{"name":"우리골프(강동점)","tel":"02-488-4382","addr":"경기도 하남시 감북동 449-8번지","category":"레져용품 - 골프용품 전문점"}]},{"lat":"37.518681518","long":"127.16095046","items":[{"name":"원스메드","tel":"070-7343-9884","addr":"경기도 하남시 감북동 345-56번지 3층","category":"보건위생 - 의료용품"},{"name":"원스메드/원격지","tel":"","addr":"경기도 하남시 감북동 345-56번지 3층","category":"기타 - 기타 전문점"}]},{"lat":"37.52368322","long":"127.16667375","items":[{"name":"웰컴푸드시스템","tel":"02-470-7698","addr":"경기도 하남시 감북동 12-2","category":"주방용구 - 주방용구"}]},{"lat":"37.52082391","long":"127.15559312","items":[{"name":"유니온카페트컴퍼니","tel":"070-4176-6152","addr":"경기도 하남시 감북동 277-6번지","category":"직물 - 카페트,커튼,천막,지물"}]},{"lat":"37.524237461","long":"127.15651639","items":[{"name":"유송상사","tel":"02-449-5585","addr":"경기도 하남시 감북동 137-1번지","category":"음료식품 - 기타음료식품"}]},{"lat":"37.524372165","long":"127.16362089","items":[{"name":"유진창호","tel":"02-473-8518","addr":"경기도 하남시 감북동 33번지","category":"건축자재 - 기타건축자재"}]},{"lat":"37.516151581","long":"127.15262006","items":[{"name":"이레공영","tel":"02-483-0039","addr":"경기도 하남시 감북동 387번지","category":"건축자재 - 기타건축자재"}]},{"lat":"37.518930791","long":"127.16317938","items":[{"name":"이룸교육","tel":"","addr":"경기도 하남시 감북동 313-1번지","category":"학원 - 기타 교육기관"}]},{"lat":"37.516281982","long":"127.16310585","items":[{"name":"재율농수산","tel":"02-404-4860","addr":"경기도 하남시 감북동 493번지 삼현팰리체 102동 501호","category":"음료식품 - 농·축·수산품"}]},{"lat":"37.520851484","long":"127.16200704","items":[{"name":"제주삼다수 (잠실)","tel":"","addr":"경기도 하남시 감북동 301번지 가동","category":"음료식품 - 기타음료식품"}]},{"lat":"37.516242011","long":"127.15931649","items":[{"name":"주식회사 송민메디케어","tel":"02-487-2527","addr":"경기도 하남시 감북동 368-15번지 2층 204호","category":"보건위생 - 의료용품"},{"name":"주식회사 원바이오로직스","tel":"02-482-2520","addr":"경기도 하남시 감북동 368-15번지","category":"보건위생 - 의료용품"}]},{"lat":"37.527375717","long":"127.16120637","items":[{"name":"주식회사 씨앤에스통상","tel":"02-473-4705","addr":"경기도 하남시 감북동 50번지","category":"주방용구 - 주방용구"}]},{"lat":"37.516852469","long":"127.16098053","items":[{"name":"주식회사 참조은농산","tel":"031-000-0000","addr":"경기도 하남시 감북동 342-2번지","category":"음료식품 - 미곡상"}]},{"lat":"37.518515929","long":"127.14962721","items":[{"name":"주식회사 파우 (FAU)","tel":"02-3482-1813","addr":"경기도 하남시 감북동 407-1번지 1층","category":"보건위생 - 화장품"}]},{"lat":"37.524461852","long":"127.15717297","items":[{"name":"주식회사 퍼니메탈(FUNIMETAL Inc.)","tel":"02-426-1996","addr":"경기도 하남시 감북동 139번지","category":"건축자재 - 기타건축자재"}]},{"lat":"37.517432575","long":"127.16506518","items":[{"name":"주식회사비젼네트윅스솔루션","tel":"02-470-8950","addr":"경기도 하남시 감북동 320-2번지","category":"사무통신 - 사무용 OA기기"}]},{"lat":"37.521211188","long":"127.15570703","items":[{"name":"주식회사에스앤에스플러스","tel":"02-488-2544","addr":"경기도 하남시 감북동 277-7번지","category":"직물 - 침구·수예점"}]},{"lat":"37.524096478","long":"127.1675344","items":[{"name":"주식회사정유통","tel":"02-6080-7727","addr":"경기도 하남시 감북동 9번지","category":"유통업 영리 - 슈퍼마켓"}]},{"lat":"37.520402555","long":"127.15395204","items":[{"name":"주식회사펜맨","tel":"02-471-7602","addr":"경기도 하남시 감북동 254-1번지","category":"사무통신 - 통신기기"}]},{"lat":"37.518402129","long":"127.14692353","items":[{"name":"주식회사형동하남지점","tel":"02-485-9935","addr":"경기도 하남시 감북동 453-1번지","category":"건축자재 - 기타건축자재"}]},{"lat":"37.524345991","long":"127.15619986","items":[{"name":"지산인데코","tel":"031-485-2246","addr":"경기도 하남시 감북동 141-3번지","category":"주방용구 - 주방용구"}]},{"lat":"37.518630965","long":"127.16501122","items":[{"name":"지성건설사","tel":"02-474-1933","addr":"경기도 하남시 감북동 319번지","category":"전기제품 - 기타전기제품"}]},{"lat":"37.524462709","long":"127.16329302","items":[{"name":"지세라믹스튜디오","tel":"02-471-5074","addr":"경기도 하남시 감북동 33-4번지","category":"문화.취미 - 문화취미기타"}]},{"lat":"37.523094835","long":"127.15525838","items":[{"name":"진성푸드","tel":"02-485-4545","addr":"경기도 하남시 감북동 131번지","category":"음료식품 - 기타음료식품"}]},{"lat":"37.526323195","long":"127.15998237","items":[{"name":"진우드","tel":"","addr":"경기도 하남시 감북동 45번지","category":"건축자재 - 기타건축자재"},{"name":"창우드","tel":"031-473-0646","addr":"경기도 하남시 감북동 45번지","category":"건축자재 - 기타건축자재"}]},{"lat":"37.515601725","long":"127.15975629","items":[{"name":"진주커피&허브차","tel":"02-470-3116","addr":"경기도 하남시 감북동 370-1번지","category":"음료식품 - 기타음료식품"}]},{"lat":"37.521850742","long":"127.15582146","items":[{"name":"창호지","tel":"","addr":"경기도 하남시 감북동 121-2번지 초석하이츠 101호","category":"용역 서비스 - 기타용역서비스"}]},{"lat":"37.519709934","long":"127.14579486","items":[{"name":"천년소나무","tel":"02-477-4272","addr":"경기도 하남시 감북동 456-8번지 1층","category":"일반휴게음식 - 일반한식"}]},{"lat":"37.515817255","long":"127.16028837","items":[{"name":"천부장정밀","tel":"02-488-0886","addr":"경기도 하남시 감북동 343-4번지","category":"자동차정비 유지 - 자동차부품"}]},{"lat":"37.520514197","long":"127.15818291","items":[{"name":"청풍냉동","tel":"02-473-6846","addr":"경기도 하남시 감북동 285-10번지","category":"전기제품 - 냉열기기"}]},{"lat":"37.516737475","long":"127.16603645","items":[{"name":"카루소","tel":"000-000-0000","addr":"경기도 하남시 감북동 322-2번지 2층","category":"일반휴게음식 - 서양음식"}]},{"lat":"37.51509487","long":"127.15462001","items":[{"name":"타이어마트","tel":"02-475-2257","addr":"경기도 하남시 감북동 376-14번지","category":"자동차정비 유지 - 자동차시트·타이어"}]},{"lat":"37.517656891","long":"127.1590706","items":[{"name":"태영수출포장","tel":"02-478-5471","addr":"경기도 하남시 감북동 357-2번지","category":"유통업 영리 - 기타유통업"}]},{"lat":"37.52445611","long":"127.15465028","items":[{"name":"태인기획","tel":"031-416-0134","addr":"경기도 하남시 감북동 165-4번지","category":"건축자재 - 인테리어전문"}]},{"lat":"37.518684613","long":"127.15862027","items":[{"name":"태평양종합주방","tel":"02-478-2226","addr":"경기도 하남시 감북동 353-20번지 2층","category":"주방용구 - 주방용식기"}]},{"lat":"37.516908457","long":"127.1595328","items":[{"name":"테이즈퍼니처","tel":"02-488-4425","addr":"경기도 하남시 감북동 345-14번지","category":"가구 - 일반가구"}]},{"lat":"37.521460278","long":"127.15815094","items":[{"name":"투에스팩토리 (2S FACTORY)","tel":"02-427-9012","addr":"경기도 하남시 감북동 284번지","category":"건축자재 - 기타건축자재"}]},{"lat":"37.524429574","long":"127.16772744","items":[{"name":"파라","tel":"","addr":"경기도 하남시 감북동 4번지 1층","category":"서적문구 - 완구점"}]},{"lat":"37.525482915","long":"127.15490123","items":[{"name":"팍스무역(PAX Trading)","tel":"031-465-0885","addr":"경기도 하남시 감북동 173-2번지","category":"레져용품 - 스포츠·레져용품"}]},{"lat":"37.515430216","long":"127.15307106","items":[{"name":"펙트론","tel":"02-449-2293","addr":"경기도 하남시 감북동 377-7번지","category":"건축자재 - 기타건축자재"}]},{"lat":"37.517318918","long":"127.14857291","items":[{"name":"푸드벨출장뷔페","tel":"02-415-9800","addr":"경기도 하남시 감북동 412-4번지 1층","category":"일반휴게음식 - 일반한식"}]},{"lat":"37.516210562","long":"127.16261931","items":[{"name":"풍성식당4","tel":"02-482-1967","addr":"경기도 하남시 감북동 326-1번지 ***연번지,2","category":"일반휴게음식 - 일반한식"}]},{"lat":"37.519963133","long":"127.15929033","items":[{"name":"프로광택","tel":"070-4922-1261","addr":"경기도 하남시 감북동 346-12번지","category":"자동차정비 유지 - 카인테리어"}]},{"lat":"37.520934022","long":"127.15404361","items":[{"name":"프로에어컨","tel":"031-000-0000","addr":"경기도 하남시 감북동 269-2번지 1층","category":"전기제품 - 냉열기기"}]},{"lat":"37.51993466","long":"127.1603762","items":[{"name":"픽스미스","tel":"02-474-0111","addr":"경기도 하남시 감북동 347번지","category":"자동차정비 유지 - 자동차부품"}]},{"lat":"37.518846746","long":"127.15865454","items":[{"name":"하남나비","tel":"02-476-5949","addr":"경기도 하남시 감북동 353-2번지 1층","category":"자동차정비 유지 - 자동차부품"}]},{"lat":"37.515740447","long":"127.1570419","items":[{"name":"하남생고기","tel":"02-484-0747","addr":"경기도 하남시 감북동 367-2번지 1층","category":"일반휴게음식 - 일반한식"}]},{"lat":"37.521150856","long":"127.16048056","items":[{"name":"하남장갑","tel":"02-482-1237","addr":"경기도 하남시 감북동 292-6번지","category":"신변잡화 - 기타잡화"}]},{"lat":"37.524324561","long":"127.16548735","items":[{"name":"하이본","tel":"02-428-5822","addr":"경기도 하남시 감북동 16-2번지","category":"직물 - 침구·수예점"}]},{"lat":"37.51909932","long":"127.15842884","items":[{"name":"한국오토미션","tel":"02-474-0505","addr":"경기도 하남시 감북동 351번지","category":"자동차정비 유지 - 자동차정비"}]},{"lat":"37.522319328","long":"127.15576585","items":[{"name":"한국창호시스템","tel":"02-429-4304","addr":"경기도 하남시 감북동 122-3번지","category":"용역 서비스 - 기타용역서비스"}]},{"lat":"37.516067852","long":"127.14750722","items":[{"name":"한국타이어 서하남점","tel":"","addr":"경기도 하남시 감북동 437-2번지","category":"자동차정비 유지 - 자동차시트·타이어"}]},{"lat":"37.52013018","long":"127.15556908","items":[{"name":"한성도서","tel":"02-473-2603","addr":"경기도 하남시 감북동 279-4번지 1층","category":"서적문구 - 일반서적"}]},{"lat":"37.519989855","long":"127.14528637","items":[{"name":"한올쇼파","tel":"02-482-6600","addr":"경기도 하남시 감북동 457-3번지","category":"가구 - 일반가구"}]},{"lat":"37.515848418","long":"127.15715524","items":[{"name":"해봄세라믹","tel":"02-479-0488","addr":"경기도 하남시 감북동 367-7번지","category":"건축자재 - 건축용 요업제품"}]},{"lat":"37.521073299","long":"127.15781078","items":[{"name":"허니비","tel":"","addr":"경기도 하남시 감북동 285-1번지","category":"건강식품 - 기타건강식품"}]},{"lat":"37.517460327","long":"127.15781462","items":[{"name":"화선상사","tel":"02-485-0022","addr":"경기도 하남시 감북동 362-4","category":"서적문구 - 과학기자재"}]},{"lat":"37.519763951","long":"127.15309106","items":[{"name":"히트푸드시스템","tel":"02-430-9907","addr":"경기도 하남시 감북동 256-1번지 1층 좌측","category":"음료식품 - 정육점"}]}]