[{"lat":"37.039159796","long":"127.07136788","items":[{"name":"(주)동양금속","tel":"031-665-5545","addr":"경기도 평택시 모곡동 433-9번지","category":"기타 - 기계공구"}]},{"lat":"37.027770995","long":"127.07022257","items":[{"name":"(주)리마켓 평택화성점","tel":"02-1544-7099","addr":"경기도 평택시 모곡동 313-2번지","category":"가구 - 기타가구"}]},{"lat":"37.032374284","long":"127.07222719","items":[{"name":"(주)미가코스메틱","tel":"031-611-8491","addr":"경기도 평택시 모곡동 449-9번지","category":"보건위생 - 화장품"},{"name":"(주)브니엘코스메틱","tel":"031-662-2665","addr":"경기도 평택시 모곡동 449-9번지","category":"보건위생 - 화장품"}]},{"lat":"37.037242501","long":"127.08263968","items":[{"name":"(주)한독고분자","tel":"02-466-2713","addr":"경기도 평택시 모곡동 439-4번지","category":"신변잡화 - 기타잡화"}]},{"lat":"37.036381717","long":"127.07606357","items":[{"name":"1981박가네병천순대수육국밥","tel":"031-668-1330","addr":"경기도 평택시 모곡동 442-9번지","category":"일반휴게음식 - 일반한식"},{"name":"공단교류전기","tel":"031-666-0339","addr":"경기도 평택시 모곡동 442-9번지 공단교류전기","category":"수리서비스 - 기타수리서비스"},{"name":"카페보나","tel":"031-665-1509","addr":"경기도 평택시 모곡동 442-9번지 명성 상가 1층","category":"일반휴게음식 - 서양음식"}]},{"lat":"37.029688603","long":"127.07309013","items":[{"name":"GS25송탄모곡점","tel":"","addr":"경기도 평택시 모곡동 294-14번지 1층 101호","category":"유통업 영리 - 편 의 점"}]},{"lat":"37.029824884","long":"127.07116844","items":[{"name":"Heal Creek/제이스포츠패션","tel":"031-612-9146","addr":"경기도 평택시 모곡동 299번지 C동 204호","category":"레져용품 - 스포츠·레져용품"}]},{"lat":"37.036652105","long":"127.07595143","items":[{"name":"공단당구장","tel":"031-665-6257","addr":"경기도 평택시 모곡동 442-1번지 2층","category":"레저업소 - 당 구 장"},{"name":"공단슈퍼","tel":"031-665-4406","addr":"경기도 평택시 모곡동 442-1번지","category":"유통업 영리 - 슈퍼마켓"}]},{"lat":"37.035904139","long":"127.07608559","items":[{"name":"공단분식","tel":"031-667-1998","addr":"경기도 평택시 모곡동 443-1번지","category":"일반휴게음식 - 일반한식"},{"name":"대보종합상사","tel":"031-665-7524","addr":"경기도 평택시 모곡동 443-1번지","category":"건축자재 - 목재·석재·철물"},{"name":"대보종합상사","tel":"031-668-0907","addr":"경기도 평택시 모곡동 443-1번지","category":"도매업 - 철물"}]},{"lat":"37.035903986","long":"127.07633286","items":[{"name":"공단사무용품뱅크","tel":"031-665-2222","addr":"경기도 평택시 모곡동 443-2번지","category":"사무통신 - 기타 사무용품"},{"name":"공단송림식당","tel":"031-665-4231","addr":"경기도 평택시 모곡동 443-2번지","category":"일반휴게음식 - 일반한식"}]},{"lat":"37.036850173","long":"127.07622137","items":[{"name":"공단전자담배","tel":"070-8131-9624","addr":"경기도 평택시 모곡동 442-2번지 은혜빌딩 A동 2층 201호","category":"기타 - 기타 전문점"},{"name":"달레나순대국","tel":"031-666-8758","addr":"경기도 평택시 모곡동 442-2번지","category":"음식점 - 한식"},{"name":"달레나순대국","tel":"031-668-5848","addr":"경기도 평택시 모곡동 442-2번지 은혜빌딩 1층","category":"일반휴게음식 - 일반한식"},{"name":"동보성","tel":"031-665-3039","addr":"경기도 평택시 모곡동 442-2번지 은혜빌딩 A동 1층","category":"일반휴게음식 - 중국식"},{"name":"주식회사현대상사","tel":"031-656-7204","addr":"경기도 평택시 모곡동 442-2번지 은혜빌딩 102호","category":"용역 서비스 - 종합용역"}]},{"lat":"37.027797339","long":"127.07142511","items":[{"name":"금빛나라조명","tel":"031-654-1988","addr":"경기도 평택시 모곡동 309-7번지 1층","category":"건축자재 - 조명기구"},{"name":"대성상사","tel":"031-656-3736","addr":"경기도 평택시 모곡동 309-7번지","category":"신변잡화 - 기타잡화"},{"name":"대성청소용품","tel":"031-656-3735","addr":"경기도 평택시 모곡동 309-7번지","category":"신변잡화 - 기타잡화"},{"name":"퍼스트공구","tel":"031-666-5792","addr":"경기도 평택시 모곡동 309-7번지 조양기계","category":"기타 - 기계공구"}]},{"lat":"37.030680039","long":"127.07264149","items":[{"name":"남부햄직매장","tel":"031-611-5115","addr":"경기도 평택시 모곡동 451-6번지","category":"음료식품 - 기타음료식품"}]},{"lat":"37.028715632","long":"127.0727858","items":[{"name":"대경광택","tel":"031-666-4565","addr":"경기도 평택시 모곡동 292-3번지","category":"자동차정비 유지 - 카인테리어"},{"name":"한일 칼라덴트","tel":"031-657-0743","addr":"경기도 평택시 모곡동 292-3번지","category":"자동차정비 유지 - 카인테리어"}]},{"lat":"37.032515023","long":"127.07786936","items":[{"name":"대명자원","tel":"031-667-4012","addr":"경기도 평택시 모곡동 산33","category":"건축자재 - 목재·석재·철물"},{"name":"알뜰중고가전","tel":"031-653-9745","addr":"경기도 평택시 모곡동 산 33","category":"전기제품 - 가전제품"}]},{"lat":"37.029212173","long":"127.07114541","items":[{"name":"대한적재함","tel":"031-656-1788","addr":"경기도 평택시 모곡동 303-23번지","category":"자동차정비 유지 - 자동차부품"},{"name":"이불혼수백화점","tel":"031-666-7080","addr":"경기도 평택시 모곡동 303-23번지","category":"직물 - 침구·수예점"}]},{"lat":"37.026625261","long":"127.07261531","items":[{"name":"대호산업","tel":"031-663-8407","addr":"경기도 평택시 모곡동 281-1번지 1동","category":"건축자재 - 기타건축자재"}]},{"lat":"37.036241245","long":"127.08422343","items":[{"name":"라이트자동차","tel":"031-667-5874","addr":"경기도 평택시 모곡동 23-1번지","category":"자동차정비 유지 - 자동차정비"}]},{"lat":"37.035346596","long":"127.07425301","items":[{"name":"롯데알미늄(주)노조/삼원(담배)","tel":"","addr":"경기도 평택시 모곡동 445번지","category":"기타 - 기타 전문점"}]},{"lat":"37.036741871","long":"127.07650226","items":[{"name":"마니커만물","tel":"031-666-1734","addr":"경기도 평택시 모곡동 442-3번지","category":"음료식품 - 기타음료식품"},{"name":"이화수육개장평택모곡점","tel":"031-665-7024","addr":"경기도 평택시 모곡동 442-3번지","category":"일반휴게음식 - 일반한식"},{"name":"푸드림","tel":"031-665-5100","addr":"경기도 평택시 모곡동 442-3번지 A동 2층","category":"일반휴게음식 - 위탁급식업"},{"name":"하우스호프치킨","tel":"031-665-0066","addr":"경기도 평택시 모곡동 442-3번지","category":"일반휴게음식 - 주점"}]},{"lat":"37.028797702","long":"127.07111133","items":[{"name":"모곡계량증명업","tel":"031-665-4481","addr":"경기도 평택시 모곡동 302-3번지","category":"용역 서비스 - 사무서비스"}]},{"lat":"37.036516255","long":"127.07706403","items":[{"name":"모곡마트","tel":"031-667-1998","addr":"경기도 평택시 모곡동 442-5번지 1층","category":"유통업 영리 - 슈퍼마켓"}]},{"lat":"37.03632207","long":"127.0846169","items":[{"name":"모터풀","tel":"031-611-0117","addr":"경기도 평택시 모곡동 23-3번지","category":"자동차정비 유지 - 자동차정비"}]},{"lat":"37.036381459","long":"127.07647944","items":[{"name":"백두산 당구장","tel":"031-668-5678","addr":"경기도 평택시 모곡동 442-8번지 2층","category":"레저업소 - 당 구 장"},{"name":"한우가즈아","tel":"031-668-1300","addr":"경기도 평택시 모곡동 442-8번지","category":"음식점 - 정육"},{"name":"한우가즈아","tel":"031-662-5297","addr":"경기도 평택시 모곡동 442-8번지 기주빌딩","category":"일반휴게음식 - 일반한식"}]},{"lat":"37.035903672","long":"127.07683864","items":[{"name":"본즈모터존","tel":"","addr":"경기도 평택시 모곡동 443-3번지 1층","category":"자동차정비 유지 - 세차장"},{"name":"비앤비디테일링","tel":"","addr":"경기도 평택시 모곡동 443-3번지","category":"서비스업 - 자동차세차"},{"name":"비앤비디테일링","tel":"070-8966-6992","addr":"경기도 평택시 모곡동 443-3번지","category":"자동차정비 유지 - 세차장"},{"name":"오일스펙 (OIL SPEC)","tel":"031-666-5560","addr":"경기도 평택시 모곡동 443-3번지 103호","category":"자동차정비 유지 - 윤활유 전문 판매"},{"name":"카페본즈","tel":"070-1150-1519","addr":"경기도 평택시 모곡동 443-3번지 1동","category":"일반휴게음식 - 서양음식"}]},{"lat":"37.03762815","long":"127.07108551","items":[{"name":"시립송탄공단어린이집[아이행복]","tel":"031-663-1410","addr":"경기도 평택시 모곡동 432-4번지","category":"학원 - 유아원"}]},{"lat":"37.036408852","long":"127.075895","items":[{"name":"신흥종합상사","tel":"031-665-3271","addr":"경기도 평택시 모곡동 442-15번지","category":"기타 - 기계공구"}]},{"lat":"37.027545073","long":"127.07136869","items":[{"name":"아트앤공예창작소","tel":"031-611-9904","addr":"경기도 평택시 모곡동 309-12번지 2층","category":"문화.취미 - 문화취미기타"}]},{"lat":"37.031821466","long":"127.07745283","items":[{"name":"에코싸인","tel":"031-611-2281","addr":"경기도 평택시 모곡동 151번지","category":"건축자재 - 인테리어전문"}]},{"lat":"37.028959732","long":"127.07139244","items":[{"name":"오통수산","tel":"031-663-3777","addr":"경기도 평택시 모곡동 303-9번지 그린빌라 207호","category":"음료식품 - 농·축·수산품"}]},{"lat":"37.036264703","long":"127.07586114","items":[{"name":"잔다리식당","tel":"031-653-6225","addr":"경기도 평택시 모곡동 442-11번지 우측상가 1층 2호","category":"일반휴게음식 - 일반한식"}]},{"lat":"37.034125979","long":"127.08089432","items":[{"name":"정대네집","tel":"031-663-5223","addr":"경기도 평택시 모곡동 42번지","category":"음식점 - 한식"}]},{"lat":"37.029129482","long":"127.07386508","items":[{"name":"정우에어콘만도플라자","tel":"031-658-3353","addr":"경기도 평택시 모곡동 284-1번지","category":"기타 - 기계공구"}]},{"lat":"37.036823293","long":"127.07597407","items":[{"name":"조우한식부페","tel":"031-611-2523","addr":"경기도 평택시 모곡동 442번지","category":"일반휴게음식 - 일반한식"},{"name":"조우한식부페","tel":"031-665-7524","addr":"경기도 평택시 모곡동 442번지","category":"음식점 - 한식"}]},{"lat":"37.027437455","long":"127.07048076","items":[{"name":"종합자재상사","tel":"031-666-6969","addr":"경기도 평택시 모곡동 310-4번지","category":"건축자재 - 기타건축자재"}]},{"lat":"37.033796208","long":"127.07517318","items":[{"name":"주식회사 승우산업","tel":"031-662-7301","addr":"경기도 평택시 모곡동 450번지","category":"기타 - 기계공구"}]},{"lat":"37.037573389","long":"127.07228812","items":[{"name":"주식회사평택현대페인트","tel":"031-611-7491","addr":"경기도 평택시 모곡동 434번지 2층","category":"건축자재 - 페인트"},{"name":"중앙자동차공업(주)","tel":"031-662-5501","addr":"경기도 평택시 모곡동 434번지","category":"자동차정비 유지 - 자동차정비"}]},{"lat":"37.028292814","long":"127.07161661","items":[{"name":"주식회사현진모터스","tel":"031-652-3306","addr":"경기도 평택시 모곡동 304-1번지","category":"자동차판매 - 중고자동차판매"}]},{"lat":"37.036290989","long":"127.07706381","items":[{"name":"평택송탄공단우체국","tel":"031-668-2005","addr":"경기도 평택시 모곡동 442-6번지","category":"용역 서비스 - 공공요금대행서비스/소"}]},{"lat":"37.030852573","long":"127.07033768","items":[{"name":"평택타이어","tel":"031-667-1584","addr":"경기도 평택시 모곡동 111-4번지","category":"소매업 - 타이어, 배터리"},{"name":"평택타이어","tel":"031-652-2280","addr":"경기도 평택시 모곡동 111-4번지","category":"자동차정비 유지 - 자동차시트·타이어"}]},{"lat":"37.03135459","long":"127.07473255","items":[{"name":"푸드그레이스","tel":"031-666-1718","addr":"경기도 평택시 모곡동 451-4,A","category":"음료식품 - 기타음료식품"}]},{"lat":"37.029544632","long":"127.07275284","items":[{"name":"퓨어시스","tel":"031-618-8364","addr":"경기도 평택시 모곡동 294-10번지","category":"주방용구 - 정수기"}]},{"lat":"37.033767081","long":"127.07853371","items":[{"name":"한솔푸드시스템주식회사","tel":"031-666-1812","addr":"경기도 평택시 모곡동 43-1번지","category":"음료식품 - 기타음료식품"}]},{"lat":"37.03651698","long":"127.0758951","items":[{"name":"향수식당","tel":"031-664-0921","addr":"경기도 평택시 모곡동 442-10번지","category":"일반휴게음식 - 일반한식"},{"name":"향수식당","tel":"031-611-2523","addr":"경기도 평택시 모곡동 442-10번지","category":"음식점 - 한식"}]}]