[{"lat":"37.709381464","long":"127.20799817","items":[{"name":"(주)믿음종합건설","tel":"031-529-6199","addr":"경기도 남양주시 오남읍 양지리 7-9번지 가동","category":"용역 서비스 - 기타용역서비스"},{"name":"한우리","tel":"031-527-4703","addr":"경기도 남양주시 오남읍 양지리 7-9번지 나동","category":"보건위생 - 의료용품"}]},{"lat":"37.698858849","long":"127.18572221","items":[{"name":"(주)비엔디코리아","tel":"02-435-9265","addr":"경기도 남양주시 오남읍 양지리 797-11번지 2동","category":"레져용품 - 스포츠·레져용품"}]},{"lat":"37.704266952","long":"127.18997656","items":[{"name":"(주)삼진유니켐","tel":"031-575-7736","addr":"경기도 남양주시 오남읍 양지리 676번지","category":"기타 - 기계공구"}]},{"lat":"37.702684263","long":"127.19372596","items":[{"name":"(주)성원","tel":"031-527-0780","addr":"경기도 남양주시 오남읍 양지리 467-1번지","category":"기타 - 기계공구"}]},{"lat":"37.699271099","long":"127.19281009","items":[{"name":"(주)원진자동차공업사","tel":"031-527-6155","addr":"경기도 남양주시 오남읍 양지리 618번지 1층","category":"자동차정비 유지 - 자동차정비"}]},{"lat":"37.697770094","long":"127.19056119","items":[{"name":"(주)컨티뉴","tel":"031-511-2111","addr":"경기도 남양주시 오남읍 양지리 625-18번지","category":"신변잡화 - 가방"}]},{"lat":"37.694855674","long":"127.19325236","items":[{"name":"(주)키마(KIMA co.,LTD)","tel":"070-8845-7099","addr":"경기도 남양주시 오남읍 양지리 604-1번지","category":"자동차정비 유지 - 자동차부품"}]},{"lat":"37.697414862","long":"127.20383791","items":[{"name":"1001안경콘택트","tel":"031-575-2345","addr":"경기도 남양주시 오남읍 양지리 95-6번지 1층","category":"보건위생 - 안경"},{"name":"파리바게트양지점","tel":"031-575-8270","addr":"경기도 남양주시 오남읍 양지리 95-6번지 1층","category":"음료식품 - 제과점"},{"name":"하늘바다영재학원","tel":"031-575-9540","addr":"경기도 남양주시 오남읍 양지리 95-6번지 외1필지 3층","category":"학원 - 컴퓨터학원"}]},{"lat":"37.702739695","long":"127.19838664","items":[{"name":"100세행복한의원","tel":"031-573-1075","addr":"경기도 남양주시 오남읍 양지리 496-2번지 해온빌딩101호","category":"의원 - 한의원"}]},{"lat":"37.698046901","long":"127.20303456","items":[{"name":"21세기노래연습장","tel":"031-575-0322","addr":"경기도 남양주시 오남읍 양지리 96번지 양지빌딩 2층 2호","category":"레저업소 - 노 래 방"},{"name":"김밥천국 양지점","tel":"031-575-2155","addr":"경기도 남양주시 오남읍 양지리 96번지 양지빌딩 105호","category":"일반휴게음식 - 스넥"},{"name":"배스킨라빈스오남점","tel":"031-572-3134","addr":"경기도 남양주시 오남읍 양지리 96번지 양지빌딩","category":"음료식품 - 제과점"},{"name":"벨라(BELLA)","tel":"031-528-3395","addr":"경기도 남양주시 오남읍 양지리 96번지 양지빌딩 1층 2호","category":"의류 - 정장"},{"name":"브레이브힐","tel":"","addr":"경기도 남양주시 오남읍 양지리 96번지 양지빌딩 302호","category":"레져용품 - 골프용품 전문점"},{"name":"서울탑치과의원","tel":"031-529-2875","addr":"경기도 남양주시 오남읍 양지리 96번지 양지빌딩 2층","category":"의원 - 치과의원"},{"name":"허성한의원","tel":"031-527-1075","addr":"경기도 남양주시 오남읍 양지리 96번지 양지빌딩 2층","category":"의원 - 한의원"},{"name":"현대장식","tel":"031-574-7771","addr":"경기도 남양주시 오남읍 양지리 96번지 양지빌딩","category":"직물 - 카페트,커튼,천막,지물"}]},{"lat":"37.702352829","long":"127.19805678","items":[{"name":"24시 원조해장국","tel":"031-573-2325","addr":"경기도 남양주시 오남읍 양지리 498-5번지 103호","category":"일반휴게음식 - 일반한식"},{"name":"오남동물병원","tel":"031-575-7598","addr":"경기도 남양주시 오남읍 양지리 498-5번지 101호","category":"기타의료기관 - 동물병원"}]},{"lat":"37.699246269","long":"127.20239146","items":[{"name":"60계 남양주오남점","tel":"031-529-1160","addr":"경기도 남양주시 오남읍 양지리 101-15번지 102호","category":"일반휴게음식 - 스넥"},{"name":"더가루 남양주점","tel":"031-573-2220","addr":"경기도 남양주시 오남읍 양지리 101-15번지 2층","category":"음료식품 - 기타음료식품"},{"name":"양지라임수학보습학원","tel":"031-571-3380","addr":"경기도 남양주시 오남읍 양지리 101-15번지 4층 5호","category":"학원 - 보습학원"},{"name":"오남로또택배","tel":"031-575-1250","addr":"경기도 남양주시 오남읍 양지리 101-15번지 B동 1층 5호","category":"유통업 영리 - 편 의 점"},{"name":"오즈즉석떡볶이 닭발","tel":"031-571-3375","addr":"경기도 남양주시 오남읍 양지리 101-15번지 1층","category":"일반휴게음식 - 일반한식"},{"name":"집시살롱","tel":"031-554-5865","addr":"경기도 남양주시 오남읍 양지리 101-15번지 라임프라자 1층 104호","category":"보건위생 - 미용원"},{"name":"찹찹팬","tel":"031-111-1111","addr":"경기도 남양주시 오남읍 양지리 101-15번지 라임프라자 B동 1층 1호","category":"일반휴게음식 - 서양음식"},{"name":"커피에반하다(남양주오남점)","tel":"","addr":"경기도 남양주시 오남읍 양지리 101-15번지 라임프라자 1층","category":"일반휴게음식 - 서양음식"}]},{"lat":"37.705214424","long":"127.19467365","items":[{"name":"69호프","tel":"031-573-6777","addr":"경기도 남양주시 오남읍 양지리 414-8번지 1층 102호","category":"일반휴게음식 - 주점"},{"name":"엠제이 (MJ) 텍스타일","tel":"070-4224-9007","addr":"경기도 남양주시 오남읍 양지리 414-8번지 2층 203호","category":"직물 - 옷감·직물"},{"name":"황금성","tel":"031-528-2757","addr":"경기도 남양주시 오남읍 양지리 414-8번지 101호","category":"일반휴게음식 - 중국식"}]},{"lat":"37.704384047","long":"127.19559004","items":[{"name":"7179춘천닭갈비","tel":"031-529-7772","addr":"경기도 남양주시 오남읍 양지리 417-9번지 1층","category":"일반휴게음식 - 일반한식"},{"name":"작은음악회","tel":"031-574-3080","addr":"경기도 남양주시 오남읍 양지리 417-9번지","category":"일반휴게음식 - 주점"}]},{"lat":"37.699828266","long":"127.20452477","items":[{"name":"GC바베큐시스템","tel":"031-528-5055","addr":"경기도 남양주시 오남읍 양지리 126번지","category":"일반휴게음식 - 일반한식"}]},{"lat":"37.707434748","long":"127.19775258","items":[{"name":"GS25남양주양지점","tel":"","addr":"경기도 남양주시 오남읍 양지리 363-2번지","category":"유통업 영리 - 편 의 점"}]},{"lat":"37.698131377","long":"127.20102782","items":[{"name":"GS25우리병원점","tel":"02-2006-2485","addr":"경기도 남양주시 오남읍 양지리 106-3번지 104호","category":"유통업 영리 - 편 의 점"},{"name":"김가네김밥","tel":"031-527-5517","addr":"경기도 남양주시 오남읍 양지리 106-3번지 106호","category":"일반휴게음식 - 스넥"},{"name":"남양주우리복지센터","tel":"031-574-9640","addr":"경기도 남양주시 오남읍 양지리 106-3번지 401호","category":"기타의료기관 - 기타의료기관 및 기타"},{"name":"당구장","tel":"031-573-3949","addr":"경기도 남양주시 오남읍 양지리 106-3번지 403호","category":"레저업소 - 당 구 장"},{"name":"동의명가칼국수","tel":"02-1833-9406","addr":"경기도 남양주시 오남읍 양지리 106-3번지 108호 일부","category":"일반휴게음식 - 일식·회집"},{"name":"맑은우리치과의원","tel":"031-571-7575","addr":"경기도 남양주시 오남읍 양지리 106-3번지 307호","category":"의원 - 치과의원"},{"name":"비타민약국","tel":"031-528-7582","addr":"경기도 남양주시 오남읍 양지리 106-3번지 103호","category":"약국 - 약국"},{"name":"사계절 당구장","tel":"","addr":"경기도 남양주시 오남읍 양지리 106-3번지 4층 403호","category":"레저업소 - 당 구 장"},{"name":"사능우리소머리국밥1호점","tel":"031-529-7488","addr":"경기도 남양주시 오남읍 양지리 106-3번지 108호","category":"일반휴게음식 - 일반한식"},{"name":"세븐티스크린골프","tel":"031-574-0905","addr":"경기도 남양주시 오남읍 양지리 106-3번지 402호","category":"레저업소 - 스크린골프"},{"name":"쎈수학학원","tel":"031-528-1752","addr":"경기도 남양주시 오남읍 양지리 106-3번지 메디칼프라자 5층 502호","category":"학원 - 보습학원"},{"name":"양지오남지앤비(GnB)어학원","tel":"031-573-0567","addr":"경기도 남양주시 오남읍 양지리 106-3번지 505호","category":"회원제형태 - 학원"},{"name":"오남진건풀잎문화센터","tel":"031-528-5579","addr":"경기도 남양주시 오남읍 양지리 106-3번지 메디칼프라자 305호","category":"문화.취미 - 문화취미기타"},{"name":"우리실버요양원","tel":"031-529-7925","addr":"경기도 남양주시 오남읍 양지리 106-3번지 601호","category":"기타의료기관 - 기타의료기관 및 기타"},{"name":"우리호프치킨","tel":"031-571-5288","addr":"경기도 남양주시 오남읍 양지리 106-3번지 107-1호","category":"일반휴게음식 - 주점"},{"name":"주식회사 씨유헬스케어 지점","tel":"031-422-0912","addr":"경기도 남양주시 오남읍 양지리 106-3번지","category":"자동차정비 유지 - 주차장"},{"name":"쿠치나요리학원","tel":"031-529-7166","addr":"경기도 남양주시 오남읍 양지리 106-3번지 503호","category":"회원제형태 - 학원"},{"name":"키키스","tel":"070-7447-3372","addr":"경기도 남양주시 오남읍 양지리 106-3번지 107-2호","category":"일반휴게음식 - 서양음식"},{"name":"타이거즈태권도장","tel":"031-575-7678","addr":"경기도 남양주시 오남읍 양지리 106-3번지 306호","category":"학원 - 예·체능계학원"},{"name":"효누리요양원","tel":"031-574-0257","addr":"경기도 남양주시 오남읍 양지리 106-3번지 3층 301호 302호","category":"기타의료기관 - 기타의료기관 및 기타"}]},{"lat":"37.702050569","long":"127.195584","items":[{"name":"GS냉동","tel":"031-575-2802","addr":"경기도 남양주시 오남읍 양지리 459번지 라동","category":"전기제품 - 냉열기기"}]},{"lat":"37.701045638","long":"127.19303006","items":[{"name":"GS넥스테이션오토오아시스뉴오남점","tel":"031-529-5180","addr":"경기도 남양주시 오남읍 양지리 664번지","category":"자동차정비 유지 - 자동차정비"},{"name":"GS넥스테이션오토오아시스뉴오남점","tel":"031-529-5180","addr":"경기도 남양주시 오남읍 양지리 664번지","category":"자동차정비 유지 - 자동차정비"},{"name":"리얼골프존","tel":"031-527-0072","addr":"경기도 남양주시 오남읍 양지리 664번지","category":"레저업소 - 골프연습장"}]},{"lat":"37.703440166","long":"127.19428354","items":[{"name":"MH시스템","tel":"","addr":"경기도 남양주시 오남읍 양지리 449-1번지 201호","category":"용역 서비스 - 기타용역서비스"}]},{"lat":"37.698602115","long":"127.19969108","items":[{"name":"SEVEN BRICKS","tel":"031-527-7901","addr":"경기도 남양주시 오남읍 양지리 110번지","category":"서적문구 - 완구점"},{"name":"꼬꼬의외출","tel":"031-527-6169","addr":"경기도 남양주시 오남읍 양지리 110번지","category":"일반휴게음식 - 주점"},{"name":"마루와모찌","tel":"031-575-3254","addr":"경기도 남양주시 오남읍 양지리 110번지 윤소빌딩 1동 1층 105호","category":"신변잡화 - 기타잡화"},{"name":"빨간여우","tel":"070-8234-1324","addr":"경기도 남양주시 오남읍 양지리 110번지","category":"의류 - 정장"},{"name":"샤브담남양주오남점","tel":"031-573-0056","addr":"경기도 남양주시 오남읍 양지리 110번지 1층 좌측 3호","category":"일반휴게음식 - 일반한식"},{"name":"소주생각","tel":"","addr":"경기도 남양주시 오남읍 양지리 110번지 1층 일부호","category":"일반휴게음식 - 주점"},{"name":"엠베스트 SE웰학원","tel":"031-523-8848","addr":"경기도 남양주시 오남읍 양지리 110번지 2층 일부","category":"학원 - 보습학원"},{"name":"옹기종기 손칼국수","tel":"031-575-5677","addr":"경기도 남양주시 오남읍 양지리 110","category":"일반휴게음식 - 일반한식"},{"name":"육공판 정육식당","tel":"031-574-9233","addr":"경기도 남양주시 오남읍 양지리 110번지","category":"일반휴게음식 - 일반한식"},{"name":"컷&컬러","tel":"031-697-7892","addr":"경기도 남양주시 오남읍 양지리 110번지 1층","category":"보건위생 - 미용원"},{"name":"화랑태권도체육관","tel":"031-575-4387","addr":"경기도 남양주시 오남읍 양지리 110번지 윤소빌딩 2층","category":"학원 - 예·체능계학원"}]},{"lat":"37.704936985","long":"127.19352761","items":[{"name":"SM 빌리어드 클럽3F","tel":"031-574-4939","addr":"경기도 남양주시 오남읍 양지리 443번지 3층","category":"레저업소 - 당 구 장"},{"name":"SM빌리아드클럽","tel":"031-571-4939","addr":"경기도 남양주시 오남읍 양지리 443번지 2층","category":"레저업소 - 당 구 장"},{"name":"리틀cosco","tel":"031-574-3696","addr":"경기도 남양주시 오남읍 양지리 443번지 양지하나빌딩 110호","category":"유통업 영리 - 슈퍼마켓"},{"name":"명자짬뽕","tel":"031-574-4422","addr":"경기도 남양주시 오남읍 양지리 443번지 101동 102호","category":"일반휴게음식 - 중국식"},{"name":"쏘맥","tel":"031-528-6263","addr":"경기도 남양주시 오남읍 양지리 443번지 1층 103호","category":"일반휴게음식 - 주점"},{"name":"양계장집 아들","tel":"031-528-7339","addr":"경기도 남양주시 오남읍 양지리 443번지 1층 104호 양지하나빌딩","category":"일반휴게음식 - 스넥"},{"name":"예담인테리어","tel":"031-527-4665","addr":"경기도 남양주시 오남읍 양지리 443번지 양지하나빌딩 107호 108호","category":"건축자재 - 인테리어전문"},{"name":"종가집보쌈","tel":"031-575-4832","addr":"경기도 남양주시 오남읍 양지리 443번지 1층 106호","category":"일반휴게음식 - 일반한식"}]},{"lat":"37.700107782","long":"127.1935606","items":[{"name":"SP양지","tel":"031-529-3005","addr":"경기도 남양주시 오남읍 양지리 469-31번지","category":"사무통신 - 통신기기"}]},{"lat":"37.707853968","long":"127.19483922","items":[{"name":"SV솔루션","tel":"02-929-2238","addr":"경기도 남양주시 오남읍 양지리 341-5번지","category":"용역 서비스 - 기타용역서비스"}]},{"lat":"37.699245673","long":"127.19181219","items":[{"name":"S헤어","tel":"031-527-6430","addr":"경기도 남양주시 오남읍 양지리 660-5번지","category":"보건위생 - 미용원"},{"name":"더래빗","tel":"070-4065-5457","addr":"경기도 남양주시 오남읍 양지리 660-5번지 1층 105호, 106호","category":"일반휴게음식 - 서양음식"},{"name":"또래오래오남지구점","tel":"031-558-7057","addr":"경기도 남양주시 오남읍 양지리 660-5번지 101호","category":"일반휴게음식 - 스넥"},{"name":"마미","tel":"031-572-9669","addr":"경기도 남양주시 오남읍 양지리 660-5번지 1층 일부호","category":"일반휴게음식 - 서양음식"}]},{"lat":"37.70840866","long":"127.19722213","items":[{"name":"ey","tel":"02-375-7778","addr":"경기도 남양주시 오남읍 양지리 365-1번지 나동 201호","category":"문화.취미 - 화원"},{"name":"참치공작소","tel":"031-572-0006","addr":"경기도 남양주시 오남읍 양지리 365-1번지 다동 1층","category":"일반휴게음식 - 일식·회집"}]},{"lat":"37.705746531","long":"127.19981203","items":[{"name":"e짝태이야기","tel":"070-8955-9233","addr":"경기도 남양주시 오남읍 양지리 195-3번지","category":"일반휴게음식 - 일반한식"},{"name":"씨유오남성호스타점","tel":"080-080-3663","addr":"경기도 남양주시 오남읍 양지리 195-3번지","category":"유통업 영리 - 편 의 점"},{"name":"유호설비","tel":"031-572-9679","addr":"경기도 남양주시 오남읍 양지리 195-3번지 101호","category":"용역 서비스 - 기타용역서비스"}]},{"lat":"37.705824508","long":"127.19067221","items":[{"name":"가구 D.C 아울렛","tel":"031-527-5276","addr":"경기도 남양주시 오남읍 양지리 721-2번지","category":"가구 - 일반가구"},{"name":"구제마켓","tel":"031-572-5289","addr":"경기도 남양주시 오남읍 양지리 721-2번지","category":"의류 - 기타의류"}]},{"lat":"37.705905865","long":"127.19050232","items":[{"name":"가구대통령","tel":"031-575-5944","addr":"경기도 남양주시 오남읍 양지리 721-1번지","category":"가구 - 일반가구"}]},{"lat":"37.706634628","long":"127.1911392","items":[{"name":"가보자순대국오남점","tel":"031-573-1331","addr":"경기도 남양주시 오남읍 양지리 690-6번지 유한프라자 1층","category":"일반휴게음식 - 일반한식"},{"name":"건강해GYM","tel":"031-573-4208","addr":"경기도 남양주시 오남읍 양지리 690-6번지 유한프라자 3층","category":"레저업소 - 헬스클럽"},{"name":"포트커피","tel":"031-528-2851","addr":"경기도 남양주시 오남읍 양지리 690-6번지 유한프라자 1층","category":"일반휴게음식 - 서양음식"}]},{"lat":"37.698439257","long":"127.20541678","items":[{"name":"가온누리 셀파우등생교실 학원","tel":"031-575-4223","addr":"경기도 남양주시 오남읍 양지리 76번지 1동 101호","category":"학원 - 보습학원"}]},{"lat":"37.704547181","long":"127.19500079","items":[{"name":"가위와빗","tel":"031-527-9141","addr":"경기도 남양주시 오남읍 양지리 417-1번지","category":"보건위생 - 미용원"},{"name":"방방뛰자","tel":"","addr":"경기도 남양주시 오남읍 양지리 417-1번지 창성빌딩 지하전부","category":"레저업소 - 기타레져업소"},{"name":"옛날&지금","tel":"031-527-3392","addr":"경기도 남양주시 오남읍 양지리 417-1번지 창성빌딩","category":"건강식품 - 인삼제품"}]},{"lat":"37.701579018","long":"127.19744243","items":[{"name":"가은이네생고기집","tel":"031-574-0776","addr":"경기도 남양주시 오남읍 양지리 487번지 A동 1호","category":"일반휴게음식 - 일반한식"},{"name":"꼬기요","tel":"031-575-8121","addr":"경기도 남양주시 오남읍 양지리 487번지 A동 1층 6호","category":"일반휴게음식 - 일반한식"},{"name":"노가리 골뱅이","tel":"031-527-5128","addr":"경기도 남양주시 오남읍 양지리 487번지 A동 8호, 9호","category":"일반휴게음식 - 주점"},{"name":"대물숯불구이곰장어","tel":"031-527-0288","addr":"경기도 남양주시 오남읍 양지리 487","category":"일반휴게음식 - 일반한식"},{"name":"디블랑","tel":"031-575-1021","addr":"경기도 남양주시 오남읍 양지리 487번지 1층 6호","category":"일반휴게음식 - 일반한식"},{"name":"수산시장","tel":"031-562-5949","addr":"경기도 남양주시 오남읍 양지리 487번지 B동 7호","category":"음료식품 - 농·축·수산품"},{"name":"수산시장","tel":"031-562-5949","addr":"경기도 남양주시 오남읍 양지리 487번지 B동 8,9호","category":"일반휴게음식 - 일식·회집"},{"name":"알피엠모터스(RPM moters)","tel":"031-529-1331","addr":"경기도 남양주시 오남읍 양지리 487","category":"자동차판매 - 이륜차판매"},{"name":"오!곱창","tel":"031-527-9955","addr":"경기도 남양주시 오남읍 양지리 487번지 A동 1층 5호","category":"일반휴게음식 - 일반한식"},{"name":"우대감돈장군","tel":"031-574-1811","addr":"경기도 남양주시 오남읍 양지리 487번지","category":"일반휴게음식 - 일반한식"},{"name":"행복한밥상날개돋친닭","tel":"031-529-5526","addr":"경기도 남양주시 오남읍 양지리 487번지 1층 4호","category":"일반휴게음식 - 일반한식"},{"name":"호우양꼬치","tel":"031-527-2369","addr":"경기도 남양주시 오남읍 양지리 487번지 B동 4호","category":"일반휴게음식 - 중국식"}]},{"lat":"37.697133433","long":"127.2050844","items":[{"name":"가장 맛있는 족발","tel":"031-527-4875","addr":"경기도 남양주시 오남읍 양지리 94-1번지 선일프라자 109호 110호","category":"일반휴게음식 - 일반한식"},{"name":"국수나무오남점","tel":"031-528-8282","addr":"경기도 남양주시 오남읍 양지리 94-1번지 선일프라자 105호","category":"일반휴게음식 - 스넥"},{"name":"노가리앤비어","tel":"031-573-1221","addr":"경기도 남양주시 오남읍 양지리 94-1번지 선일프라자 106호","category":"일반휴게음식 - 서양음식"},{"name":"놀부부대찌개철판구이","tel":"031-527-8891","addr":"경기도 남양주시 오남읍 양지리 94-1번지 선일프라자","category":"일반휴게음식 - 일반한식"},{"name":"더하트","tel":"031-515-5300","addr":"경기도 남양주시 오남읍 양지리 94-1","category":"보건위생 - 기타대인서비스"},{"name":"바이킹 피자","tel":"070-7684-6769","addr":"경기도 남양주시 오남읍 양지리 94-1번지 선일프라자 1층 116호","category":"일반휴게음식 - 서양음식"},{"name":"바이킹피자","tel":"031-571-7010","addr":"경기도 남양주시 오남읍 양지리 94-1번지 선일프라자 116호","category":"일반휴게음식 - 중국식"},{"name":"베도베네안경원오남점","tel":"031-527-0506","addr":"경기도 남양주시 오남읍 양지리 94-1번지 선일프라자 103,104호","category":"보건위생 - 안경"},{"name":"불닭발동대문엽기떡볶이","tel":"031-529-8591","addr":"경기도 남양주시 오남읍 양지리 94-1번지 선일프라자 107호","category":"일반휴게음식 - 일반한식"},{"name":"서울오복치과의원","tel":"031-572-2288","addr":"경기도 남양주시 오남읍 양지리 94-1번지 선일프라자","category":"의원 - 치과의원"},{"name":"서울한빛안과","tel":"031-528-0300","addr":"경기도 남양주시 오남읍 양지리 94-1번지 선일프라자 201호","category":"의원 - 의원"},{"name":"아리","tel":"031-571-6010","addr":"경기도 남양주시 오남읍 양지리 94-1번지 선일프라자 116호","category":"일반휴게음식 - 중국식"},{"name":"애플치과","tel":"031-573-2752","addr":"경기도 남양주시 오남읍 양지리 94-1번지 선일프라자 303호","category":"의원 - 치과의원"},{"name":"어반짐","tel":"031-510-6678","addr":"경기도 남양주시 오남읍 양지리 94-1번지 선일프라자 202호","category":"레저업소 - 헬스클럽"},{"name":"열린약국","tel":"031-528-5783","addr":"경기도 남양주시 오남읍 양지리 94-1번지 선일프라자 1층 112호","category":"약국 - 약국"},{"name":"우리김밥천국","tel":"031-573-6636","addr":"경기도 남양주시 오남읍 양지리 94-1번지 선일프라자 115호","category":"일반휴게음식 - 스넥"},{"name":"이디야 커피","tel":"031-575-2020","addr":"경기도 남양주시 오남읍 양지리 94-1번지 선일프라자 1층 111호","category":"일반휴게음식 - 서양음식"},{"name":"이레심리상담센터","tel":"031-515-5300","addr":"경기도 남양주시 오남읍 양지리 94-1번지 선일프라자 302호","category":"보건위생 - 기타대인서비스"},{"name":"이언도한의원","tel":"031-575-1075","addr":"경기도 남양주시 오남읍 양지리 94-1번지 썬일프라자 3층","category":"의원 - 한의원"},{"name":"주식회사심제","tel":"031-513-7575","addr":"경기도 남양주시 오남읍 양지리 94-1번지 선일프라자 301호 일부","category":"건강식품 - 기타건강식품"}]},{"lat":"37.698608178","long":"127.20144863","items":[{"name":"가족노래연습장 시즌2","tel":"031-575-0595","addr":"경기도 남양주시 오남읍 양지리 100-16번지 202호","category":"레저업소 - 노 래 방"},{"name":"바글바글떡볶이","tel":"031-576-8936","addr":"경기도 남양주시 오남읍 양지리 100-16번지 1층 7호","category":"일반휴게음식 - 일반한식"},{"name":"안경랜드","tel":"031-528-3032","addr":"경기도 남양주시 오남읍 양지리 100-16번지","category":"보건위생 - 안경"},{"name":"옛날통닭&흥부찜닭&삼겹본능","tel":"031-529-5255","addr":"경기도 남양주시 오남읍 양지리 100-16번지 1층 2호","category":"일반휴게음식 - 일반한식"},{"name":"와우곱창","tel":"031-573-2070","addr":"경기도 남양주시 오남읍 양지리 100-16번지 1층 1호","category":"일반휴게음식 - 일반한식"},{"name":"울타리","tel":"031-528-3304","addr":"경기도 남양주시 오남읍 양지리 100-16번지 2층 좌측","category":"일반휴게음식 - 일반한식"},{"name":"울타리당구클럽","tel":"031-528-3304","addr":"경기도 남양주시 오남읍 양지리 100-16번지 2층","category":"레저업소 - 당 구 장"},{"name":"제이더블유푸드(JW푸드)","tel":"031-527-9088","addr":"경기도 남양주시 오남읍 양지리 100-16번지 1층 8호","category":"일반휴게음식 - 일반한식"},{"name":"커피프렌즈","tel":"031-528-6263","addr":"경기도 남양주시 오남읍 양지리 100-16번지 1층 3호","category":"일반휴게음식 - 서양음식"},{"name":"플로라","tel":"","addr":"경기도 남양주시 오남읍 양지리 100-16번지 1층 5호","category":"문화.취미 - 화원"}]},{"lat":"37.698886921","long":"127.2017782","items":[{"name":"강남 미소지음치과의원","tel":"02-552-2080","addr":"경기도 남양주시 오남읍 양지리 100-15번지 2층 202호","category":"의원 - 치과의원"},{"name":"서울드림내과","tel":"031-523-3320","addr":"경기도 남양주시 오남읍 양지리 100-15번지 한양메디컬 4층 402호","category":"의원 - 의원"},{"name":"아빠곰소아청소년과","tel":"031-571-1275","addr":"경기도 남양주시 오남읍 양지리 100-15번지 2층 201호","category":"의원 - 의원"},{"name":"아빠곰소아청소년과 (건식)","tel":"031-571-1275","addr":"경기도 남양주시 오남읍 양지리 100-15번지 201호","category":"건강식품 - 기타건강식품"},{"name":"예스정보통신","tel":"031-572-6664","addr":"경기도 남양주시 오남읍 양지리 100-15번지 한양빌딩 1층 1호","category":"사무통신 - 통신기기"},{"name":"오남마디정형외과의원","tel":"031-572-0335","addr":"경기도 남양주시 오남읍 양지리 100-15번지 황제메디컬 3층 301호","category":"의원 - 의원"},{"name":"한방전주콩나물국밥","tel":"","addr":"경기도 남양주시 오남읍 양지리 100-15번지 1층 106호,107호","category":"일반휴게음식 - 일반한식"}]},{"lat":"37.71035752","long":"127.20625439","items":[{"name":"거산SM","tel":"031-527-8831","addr":"경기도 남양주시 오남읍 양지리 10-2번지","category":"기타 - 기계공구"}]},{"lat":"37.702273856","long":"127.19677521","items":[{"name":"경기차유리썬팅마을","tel":"031-574-6272","addr":"경기도 남양주시 오남읍 양지리 490","category":"자동차정비 유지 - 자동차부품"},{"name":"대한민국배터리","tel":"031-573-9949","addr":"경기도 남양주시 오남읍 양지리 490","category":"자동차정비 유지 - 자동차부품"},{"name":"진도물산","tel":"031-564-5941","addr":"경기도 남양주시 오남읍 양지리 490번지","category":"음료식품 - 농·축·수산품"}]},{"lat":"37.704211788","long":"127.19624729","items":[{"name":"경성인테리어","tel":"031-573-9494","addr":"경기도 남양주시 오남읍 양지리 405-2번지","category":"직물 - 카페트,커튼,천막,지물"},{"name":"광어2마리 15000원","tel":"031-572-2828","addr":"경기도 남양주시 오남읍 양지리 405-2번지","category":"음료식품 - 농·축·수산품"},{"name":"노바사운드","tel":"031-574-6650","addr":"경기도 남양주시 오남읍 양지리 405-2번지","category":"자동차정비 유지 - 자동차부품"},{"name":"마평농원","tel":"031-527-8448","addr":"경기도 남양주시 오남읍 양지리 405-2번지","category":"문화.취미 - 화원"}]},{"lat":"37.702550156","long":"127.19859025","items":[{"name":"경희대석사 MBA 태권도장","tel":"031-528-1055","addr":"경기도 남양주시 오남읍 양지리 496-6번지 4층","category":"학원 - 예·체능계학원"},{"name":"카테크닉스팀세차","tel":"031-527-4204","addr":"경기도 남양주시 오남읍 양지리 496-6번지 102호 일부","category":"자동차정비 유지 - 세차장"},{"name":"협신자동차유리","tel":"031-563-9255","addr":"경기도 남양주시 오남읍 양지리 496-6번지 해온빌딩 1층 101호","category":"자동차정비 유지 - 자동차부품"}]},{"lat":"37.69885782","long":"127.20300272","items":[{"name":"고마워","tel":"070-8824-7788","addr":"경기도 남양주시 오남읍 양지리 102-1번지 1층 101호","category":"보건위생 - 화장품"},{"name":"날개브라더스","tel":"031-572-2535","addr":"경기도 남양주시 오남읍 양지리 102-1번지 1층 102호","category":"일반휴게음식 - 스넥"},{"name":"릴리카롱","tel":"070-7753-8906","addr":"경기도 남양주시 오남읍 양지리 102-1번지 1층 107호","category":"음료식품 - 기타음료식품"},{"name":"모스트헤어","tel":"070-8815-0602","addr":"경기도 남양주시 오남읍 양지리 102-1번지 우리빌딩 202호","category":"보건위생 - 미용원"},{"name":"봉구스밥버거 남양주 양지점","tel":"031-575-0319","addr":"경기도 남양주시 오남읍 양지리 102-1번지 105호","category":"일반휴게음식 - 일반한식"},{"name":"이모네곱창","tel":"031-527-5891","addr":"경기도 남양주시 오남읍 양지리 102-1번지 106호","category":"일반휴게음식 - 일반한식"},{"name":"조정기 테라피","tel":"031-573-2124","addr":"경기도 남양주시 오남읍 양지리 102-1번지 우리빌딩 3층 303호","category":"보건위생 - 피부미용실"},{"name":"쥬씨 (오남점)","tel":"031-513-5829","addr":"경기도 남양주시 오남읍 양지리 102-1번지 104호","category":"일반휴게음식 - 서양음식"},{"name":"카이로스","tel":"031-527-9979","addr":"경기도 남양주시 오남읍 양지리 102-1번지 301호","category":"주방용구 - 주방용구"},{"name":"편안한거북이한의원","tel":"031-574-7582","addr":"경기도 남양주시 오남읍 양지리 102-1번지 202호 201호,202호","category":"의원 - 한의원"},{"name":"함바식당","tel":"031-528-6263","addr":"경기도 남양주시 오남읍 양지리 102-1번지 107호","category":"일반휴게음식 - 일반한식"}]},{"lat":"37.709297979","long":"127.19881212","items":[{"name":"골든조경","tel":"031-573-0710","addr":"경기도 남양주시 오남읍 양지리 354-2,354-3","category":"건축자재 - 인테리어전문"}]},{"lat":"37.704270717","long":"127.19325375","items":[{"name":"공방워너비","tel":"031-529-7554","addr":"경기도 남양주시 오남읍 양지리 708-1번지 1층","category":"문화.취미 - 민예·공예품"},{"name":"오일클로스","tel":"031-573-7117","addr":"경기도 남양주시 오남읍 양지리 708-1번지 1층","category":"신변잡화 - 기타잡화"}]},{"lat":"37.70113309","long":"127.19466314","items":[{"name":"광릉불고기","tel":"031-575-3474","addr":"경기도 남양주시 오남읍 양지리 469-7번지 1층","category":"일반휴게음식 - 일반한식"},{"name":"동서특수램프","tel":"031-575-9988","addr":"경기도 남양주시 오남읍 양지리 469-7","category":"건축자재 - 조명기구"},{"name":"리블리헤어살롱","tel":"070-8628-1145","addr":"경기도 남양주시 오남읍 양지리 469-7번지 1층","category":"보건위생 - 미용원"},{"name":"서울강치과의원","tel":"031-529-2873","addr":"경기도 남양주시 오남읍 양지리 469-7번지 2층","category":"의원 - 치과의원"}]},{"lat":"37.698596711","long":"127.19198063","items":[{"name":"광명정기","tel":"031-573-1106","addr":"경기도 남양주시 오남읍 양지리 613번지 가동 104호","category":"전기제품 - 기타전기제품"},{"name":"빅스타피자 (오남진접점)","tel":"031-574-1082","addr":"경기도 남양주시 오남읍 양지리 613번지 가동 102호","category":"일반휴게음식 - 서양음식"},{"name":"양지리전선생","tel":"031-528-6690","addr":"경기도 남양주시 오남읍 양지리 613번지 가동 1층 103호","category":"일반휴게음식 - 일반한식"}]},{"lat":"37.697495774","long":"127.20394018","items":[{"name":"굿모닝먹거리","tel":"031-528-7978","addr":"경기도 남양주시 오남읍 양지리 95-23번지","category":"일반휴게음식 - 일반한식"},{"name":"미나패션","tel":"031-573-0207","addr":"경기도 남양주시 오남읍 양지리 95-23번지 1층","category":"수리서비스 - 세탁소"},{"name":"온더밥","tel":"031-529-2522","addr":"경기도 남양주시 오남읍 양지리 95-23번지 2층","category":"일반휴게음식 - 일반한식"}]},{"lat":"37.706075462","long":"127.20244379","items":[{"name":"극동미용실","tel":"031-575-7738","addr":"경기도 남양주시 오남읍 양지리 193-1","category":"보건위생 - 미용원"}]},{"lat":"37.692633782","long":"127.19108113","items":[{"name":"금산엔지니어링","tel":"031-574-1943","addr":"경기도 남양주시 오남읍 양지리 574-1번지","category":"건축자재 - 기타건축자재"}]},{"lat":"37.699020646","long":"127.20261764","items":[{"name":"기분조은이비인후과","tel":"031-574-2438","addr":"경기도 남양주시 오남읍 양지리 101-16번지 201호","category":"의원 - 의원"},{"name":"남양주오남 작심스페이스","tel":"031-528-0910","addr":"경기도 남양주시 오남읍 양지리 101-16번지 4층 401호","category":"용역 서비스 - 사무서비스"},{"name":"남양주오남작심독서실","tel":"031-528-0910","addr":"경기도 남양주시 오남읍 양지리 101-16번지 서울프라자 4층 403호","category":"학원 - 독서실"},{"name":"니뽕 내뽕 오남점","tel":"031-574-7744","addr":"경기도 남양주시 오남읍 양지리 101-16번지 1층 6호, 7호","category":"일반휴게음식 - 중국식"},{"name":"다나의원","tel":"031-527-5300","addr":"경기도 남양주시 오남읍 양지리 101-16번지 새솔빌딩 3층","category":"의원 - 의원"},{"name":"맘스터치 오남양지점","tel":"031-574-7503","addr":"경기도 남양주시 오남읍 양지리 101-16번지 1층 1호","category":"일반휴게음식 - 서양음식"},{"name":"새솔프라자","tel":"031-222-4835","addr":"경기도 남양주시 오남읍 양지리 101-16번지","category":"자동차정비 유지 - 주차장"},{"name":"스시신","tel":"031-575-2929","addr":"경기도 남양주시 오남읍 양지리 101-16번지 새솔프라자 1층 105호","category":"일반휴게음식 - 일반한식"},{"name":"연세바른재활의학과의원","tel":"031-527-0775","addr":"경기도 남양주시 오남읍 양지리 101-16번지 새솔프라자 3층","category":"의원 - 의원"},{"name":"족발야시장오남점","tel":"02-111-1111","addr":"경기도 남양주시 오남읍 양지리 101-16번지 새솔프라자 1층 102호1/2,103호","category":"일반휴게음식 - 일반한식"}]},{"lat":"37.709299089","long":"127.19814304","items":[{"name":"길포차","tel":"031-575-0924","addr":"경기도 남양주시 오남읍 양지리 354-9번지 102호","category":"일반휴게음식 - 일반한식"},{"name":"어죽대부","tel":"031-527-0173","addr":"경기도 남양주시 오남읍 양지리 354-9번지 1층 3호","category":"일반휴게음식 - 일반한식"}]},{"lat":"37.698577193","long":"127.20378435","items":[{"name":"꼬마피아니스트의꿈학원","tel":"031-575-7478","addr":"경기도 남양주시 오남읍 양지리 97-13번지 2층","category":"학원 - 예·체능계학원"},{"name":"브리즈스토리","tel":"031-575-9935","addr":"경기도 남양주시 오남읍 양지리 97-13번지 1층","category":"일반휴게음식 - 서양음식"},{"name":"케이에스보습학원","tel":"031-527-6788","addr":"경기도 남양주시 오남읍 양지리 97-13","category":"학원 - 보습학원"}]},{"lat":"37.698911664","long":"127.19221955","items":[{"name":"꽃돼지","tel":"031-572-8943","addr":"경기도 남양주시 오남읍 양지리 614-9번지 2,3,4호","category":"일반휴게음식 - 일반한식"},{"name":"호세야바베큐","tel":"031-574-5293","addr":"경기도 남양주시 오남읍 양지리 614-9번지 101호","category":"일반휴게음식 - 주점"}]},{"lat":"37.700304101","long":"127.20550122","items":[{"name":"꿈나무어린이 스포츠센터","tel":"031-575-5623","addr":"경기도 남양주시 오남읍 양지리 126-4","category":"회원제형태 - 레져업소"}]},{"lat":"37.700664348","long":"127.20558158","items":[{"name":"나르샤","tel":"070-8777-2909","addr":"경기도 남양주시 오남읍 양지리 126-17번지 성원 B동 302호","category":"의류 - 내의판매"}]},{"lat":"37.693997397","long":"127.18908905","items":[{"name":"남부산업","tel":"03-111-1111","addr":"경기도 남양주시 오남읍 양지리 588-1번지 3동","category":"기타 - 기계공구"}]},{"lat":"37.698243762","long":"127.18728546","items":[{"name":"남양공예","tel":"031-574-9208","addr":"경기도 남양주시 오남읍 양지리 798-4번지","category":"가구 - 일반가구"}]},{"lat":"37.699077551","long":"127.20622358","items":[{"name":"남양주양지초등학교병설유치원[아이행복]","tel":"031-574-0843","addr":"경기도 남양주시 오남읍 양지리 74번지 양지초등학교","category":"학원 - 유치원"}]},{"lat":"37.705691602","long":"127.20033352","items":[{"name":"네오카페","tel":"031-000-0000","addr":"경기도 남양주시 오남읍 양지리 195번지 103호","category":"일반휴게음식 - 서양음식"},{"name":"선염색&헤어","tel":"031-527-0866","addr":"경기도 남양주시 오남읍 양지리 195번지 101호","category":"보건위생 - 미용원"}]},{"lat":"37.698353669","long":"127.20277459","items":[{"name":"놀숲 오남점","tel":"031-571-1201","addr":"경기도 남양주시 오남읍 양지리 97-14번지 지하1층","category":"레저업소 - 기타레져업소"},{"name":"두부장수","tel":"031-528-4486","addr":"경기도 남양주시 오남읍 양지리 97-14번지 106호","category":"음료식품 - 기타음료식품"},{"name":"메가엠지씨커피 남양주양지점","tel":"","addr":"경기도 남양주시 오남읍 양지리 97-14번지 1층 일부","category":"일반휴게음식 - 서양음식"},{"name":"양지열쇠","tel":"031-528-1313","addr":"경기도 남양주시 오남읍 양지리 97-14번지 103호","category":"건축자재 - 목재·석재·철물"},{"name":"인스네어(ENSNARE)","tel":"070-5524-9722","addr":"경기도 남양주시 오남읍 양지리 97-14번지 2층","category":"레저업소 - 기타레져업소"},{"name":"해운식당","tel":"031-574-8332","addr":"경기도 남양주시 오남읍 양지리 97-14번지","category":"일반휴게음식 - 일반한식"},{"name":"헤어이벤트","tel":"031-528-8644","addr":"경기도 남양주시 오남읍 양지리 97-14번지 104호","category":"보건위생 - 미용원"},{"name":"화떡남오남점","tel":"031-573-1296","addr":"경기도 남양주시 오남읍 양지리 97-14번지","category":"일반휴게음식 - 일반한식"},{"name":"힐링당구장","tel":"031-574-1870","addr":"경기도 남양주시 오남읍 양지리 97-14번지 지층","category":"레저업소 - 당 구 장"}]},{"lat":"37.697630492","long":"127.20418999","items":[{"name":"농장을 품은 바다","tel":"02-0000-0000","addr":"경기도 남양주시 오남읍 양지리 95-3번지 롯데슈퍼내 1층","category":"음료식품 - 농·축·수산품"}]},{"lat":"37.697604391","long":"127.20364566","items":[{"name":"누나홀닭(오남점)","tel":"031-574-5876","addr":"경기도 남양주시 오남읍 양지리 95-5번지","category":"일반휴게음식 - 스넥"},{"name":"양지주얼리","tel":"031-574-1900","addr":"경기도 남양주시 오남읍 양지리 95-5","category":"신변잡화 - 시계"},{"name":"온누리양지약국","tel":"031-574-2878","addr":"경기도 남양주시 오남읍 양지리 95-5번지","category":"약국 - 약국"},{"name":"해동검도양지도장","tel":"031-528-7008","addr":"경기도 남양주시 오남읍 양지리 95-5번지 양지빌딩 4층","category":"회원제형태 - 레져업소"}]},{"lat":"37.69716298","long":"127.20361046","items":[{"name":"니니핸즈","tel":"070-7789-8679","addr":"경기도 남양주시 오남읍 양지리 106-8번지","category":"사무통신 - 통신기기"},{"name":"명동칼국수","tel":"031-573-5398","addr":"경기도 남양주시 오남읍 양지리 106-8번지","category":"일반휴게음식 - 일반한식"},{"name":"속옷나라","tel":"070-4122-5067","addr":"경기도 남양주시 오남읍 양지리 106-8번지 오른쪽 끝부분에서 두번째호","category":"의류 - 내의판매"},{"name":"아이스킹(오남양지점)","tel":"031-575-7360","addr":"경기도 남양주시 오남읍 양지리 106-8번지","category":"음료식품 - 기타음료식품"},{"name":"짱이네분식","tel":"","addr":"경기도 남양주시 오남읍 양지리 106-8번지 나동일부","category":"일반휴게음식 - 스넥"},{"name":"천마상회","tel":"031-528-5883","addr":"경기도 남양주시 오남읍 양지리 106-8번지","category":"음료식품 - 기타음료식품"}]},{"lat":"37.702244489","long":"127.19819257","items":[{"name":"다빈치 바이씨클","tel":"031-574-5238","addr":"경기도 남양주시 오남읍 양지리 498-18번지","category":"레져용품 - 스포츠·레져용품"}]},{"lat":"37.698245337","long":"127.19197974","items":[{"name":"다올유통","tel":"031-574-1495","addr":"경기도 남양주시 오남읍 양지리 616-3번지 가동","category":"음료식품 - 기타음료식품"},{"name":"엘코퍼레이션","tel":"070-4207-7905","addr":"경기도 남양주시 오남읍 양지리 616-3번지 일부 가동","category":"음료식품 - 기타음료식품"}]},{"lat":"37.704324371","long":"127.19350337","items":[{"name":"다옴광고기획","tel":"031-575-4548","addr":"경기도 남양주시 오남읍 양지리 444-4번지","category":"용역 서비스 - 종합용역"}]},{"lat":"37.699494718","long":"127.20463725","items":[{"name":"달빛정원","tel":"031-574-1554","addr":"경기도 남양주시 오남읍 양지리 101-11","category":"문화.취미 - 화원"}]},{"lat":"37.701302569","long":"127.19011652","items":[{"name":"대경특수칠공업사","tel":"031-528-1997","addr":"경기도 남양주시 오남읍 양지리 646-1번지","category":"기타 - 기계공구"},{"name":"대민케미칼","tel":"031-574-4082","addr":"경기도 남양주시 오남읍 양지리 646-1번지 가동","category":"신변잡화 - 기타잡화"}]},{"lat":"37.699989359","long":"127.18872985","items":[{"name":"대대울식당","tel":"031-529-8124","addr":"경기도 남양주시 오남읍 양지리 648-6번지","category":"일반휴게음식 - 일반한식"}]},{"lat":"37.704636685","long":"127.19536389","items":[{"name":"대림종합상사","tel":"031-574-1660","addr":"경기도 남양주시 오남읍 양지리 417-12번지","category":"건축자재 - 기타건축자재"}]},{"lat":"37.705299013","long":"127.19803048","items":[{"name":"대마족발 오남점","tel":"031-575-5509","addr":"경기도 남양주시 오남읍 양지리 402번지","category":"일반휴게음식 - 일반한식"},{"name":"미니스톱남양주오남점","tel":"031-340-4261","addr":"경기도 남양주시 오남읍 양지리 402번지","category":"유통업 영리 - 편 의 점"}]},{"lat":"37.697413391","long":"127.20469965","items":[{"name":"대박왕꼼장어","tel":"","addr":"경기도 남양주시 오남읍 양지리 93-2번지 우일빌딩","category":"일반휴게음식 - 일반한식"},{"name":"미소분식","tel":"031-526-0232","addr":"경기도 남양주시 오남읍 양지리 93-2번지","category":"일반휴게음식 - 스넥"},{"name":"아모레","tel":"031-573-1455","addr":"경기도 남양주시 오남읍 양지리 93-2번지","category":"보건위생 - 화장품"},{"name":"아모레","tel":"031-573-1455","addr":"경기도 남양주시 오남읍 양지리 93-2번지","category":"보건위생 - 화장품"},{"name":"아모레","tel":"031-573-1455","addr":"경기도 남양주시 오남읍 양지리 93-2번지 우일빌딩 2층","category":"보건위생 - 화장품"},{"name":"아모레","tel":"031-573-1455","addr":"경기도 남양주시 오남읍 양지리 93-2번지 우일빌딩 2층","category":"보건위생 - 화장품"},{"name":"아모레","tel":"031-573-1455","addr":"경기도 남양주시 오남읍 양지리 93-2번지 우일빌딩 2층","category":"보건위생 - 화장품"},{"name":"아모레","tel":"031-573-1455","addr":"경기도 남양주시 오남읍 양지리 93-2번지 2층 우일빌딩","category":"보건위생 - 화장품"},{"name":"아모레","tel":"031-573-1455","addr":"경기도 남양주시 오남읍 양지리 93-2번지 우일빌딩 2층","category":"보건위생 - 화장품"},{"name":"아모레","tel":"031-573-1455","addr":"경기도 남양주시 오남읍 양지리 93-2번지 우일빌딩 2층","category":"보건위생 - 화장품"},{"name":"아모레","tel":"031-573-1455","addr":"경기도 남양주시 오남읍 양지리 93-2번지","category":"보건위생 - 화장품"},{"name":"아모레","tel":"031-573-1455","addr":"경기도 남양주시 오남읍 양지리 93-2번지","category":"보건위생 - 화장품"},{"name":"아모레","tel":"031-573-1455","addr":"경기도 남양주시 오남읍 양지리 93-2번지 2층 우일빌딩","category":"보건위생 - 화장품"},{"name":"아모레","tel":"031-573-1455","addr":"경기도 남양주시 오남읍 양지리 93-2번지 우일빌딩 2층","category":"보건위생 - 화장품"},{"name":"아모레","tel":"031-573-1455","addr":"경기도 남양주시 오남읍 양지리 93-2번지","category":"보건위생 - 화장품"},{"name":"아모레","tel":"031-573-1455","addr":"경기도 남양주시 오남읍 양지리 93-2번지 우일빌딩 2층","category":"보건위생 - 화장품"},{"name":"아모레","tel":"031-573-1455","addr":"경기도 남양주시 오남읍 양지리 93-2번지 우일빌딩","category":"보건위생 - 화장품"},{"name":"아모레","tel":"031-573-1455","addr":"경기도 남양주시 오남읍 양지리 93-2번지 우일빌딩 2층","category":"보건위생 - 화장품"},{"name":"아모레","tel":"031-573-1455","addr":"경기도 남양주시 오남읍 양지리 93-2번지 우일빌딩 2층","category":"보건위생 - 화장품"},{"name":"아모레","tel":"031-573-1455","addr":"경기도 남양주시 오남읍 양지리 93-2번지 우일빌딩","category":"보건위생 - 화장품"},{"name":"아모레","tel":"031-573-1455","addr":"경기도 남양주시 오남읍 양지리 93-2번지 우일빌딩","category":"보건위생 - 화장품"},{"name":"아모레","tel":"031-573-1455","addr":"경기도 남양주시 오남읍 양지리 93-2번지 우일빌딩","category":"보건위생 - 화장품"},{"name":"아모레","tel":"031-573-1455","addr":"경기도 남양주시 오남읍 양지리 93-2번지","category":"보건위생 - 화장품"},{"name":"아모레","tel":"031-573-1455","addr":"경기도 남양주시 오남읍 양지리 93-2번지 우일빌딩 2층","category":"보건위생 - 화장품"},{"name":"아모레","tel":"031-573-1455","addr":"경기도 남양주시 오남읍 양지리 93-2번지 우일빌딩 2층","category":"보건위생 - 화장품"},{"name":"아모레","tel":"031-573-1445","addr":"경기도 남양주시 오남읍 양지리 93-2번지 우일빌딩","category":"보건위생 - 화장품"},{"name":"아모레","tel":"031-573-1455","addr":"경기도 남양주시 오남읍 양지리 93-2번지 2층 우일빌딩","category":"보건위생 - 화장품"},{"name":"아모레","tel":"031-573-1455","addr":"경기도 남양주시 오남읍 양지리 93-2번지 2층 우일빌딩","category":"보건위생 - 화장품"},{"name":"아모레","tel":"031-573-1455","addr":"경기도 남양주시 오남읍 양지리 93-2번지 우일빌딩","category":"보건위생 - 화장품"},{"name":"아모레","tel":"031-573-1455","addr":"경기도 남양주시 오남읍 양지리 93-2번지 우일빌딩","category":"보건위생 - 화장품"},{"name":"아모레","tel":"031-573-1455","addr":"경기도 남양주시 오남읍 양지리 93-2번지 2층 우일빌딩","category":"보건위생 - 화장품"},{"name":"아모레","tel":"031-573-1455","addr":"경기도 남양주시 오남읍 양지리 93-2번지 우일빌딩","category":"보건위생 - 화장품"},{"name":"아모레","tel":"031-573-1455","addr":"경기도 남양주시 오남읍 양지리 93-2번지 우일빌딩","category":"보건위생 - 화장품"},{"name":"아모레","tel":"031-574-1455","addr":"경기도 남양주시 오남읍 양지리 93-2번지 우일빌딩","category":"보건위생 - 화장품"},{"name":"아모레","tel":"031-573-1455","addr":"경기도 남양주시 오남읍 양지리 93-2번지 우일빌딩 2층","category":"보건위생 - 화장품"},{"name":"아모레","tel":"031-573-1455","addr":"경기도 남양주시 오남읍 양지리 93-2번지 우일빌딩 2층","category":"보건위생 - 화장품"},{"name":"아모레","tel":"031-573-1455","addr":"경기도 남양주시 오남읍 양지리 93-2번지 우일빌딩","category":"보건위생 - 화장품"},{"name":"아모레","tel":"031-573-1455","addr":"경기도 남양주시 오남읍 양지리 93-2번지 우일빌딩","category":"보건위생 - 화장품"},{"name":"아모레","tel":"031-573-1455","addr":"경기도 남양주시 오남읍 양지리 93-2번지 2층 우일빌딩","category":"보건위생 - 화장품"},{"name":"아모레","tel":"031-573-1455","addr":"경기도 남양주시 오남읍 양지리 93-2번지","category":"보건위생 - 화장품"},{"name":"아모레","tel":"031-573-1455","addr":"경기도 남양주시 오남읍 양지리 93-2번지 2층 우일빌딩","category":"보건위생 - 화장품"},{"name":"아모레","tel":"031-573-1455","addr":"경기도 남양주시 오남읍 양지리 93-2번지","category":"보건위생 - 화장품"},{"name":"아모레","tel":"031-573-1455","addr":"경기도 남양주시 오남읍 양지리 93-2번지 2층 우일빌딩","category":"보건위생 - 화장품"},{"name":"아모레","tel":"031-573-1455","addr":"경기도 남양주시 오남읍 양지리 93-2번지 2층 우일빌딩","category":"보건위생 - 화장품"},{"name":"아모레","tel":"031-573-1455","addr":"경기도 남양주시 오남읍 양지리 93-2번지","category":"보건위생 - 화장품"},{"name":"아모레","tel":"031-573-1455","addr":"경기도 남양주시 오남읍 양지리 93-2번지 우일빌딩","category":"보건위생 - 화장품"},{"name":"아모레","tel":"031-573-1455","addr":"경기도 남양주시 오남읍 양지리 93-2번지 2층 우일빌딩","category":"보건위생 - 화장품"},{"name":"아모레","tel":"031-573-1455","addr":"경기도 남양주시 오남읍 양지리 93-2번지 2층 우일빌딩","category":"보건위생 - 화장품"},{"name":"아모레","tel":"031-574-1454","addr":"경기도 남양주시 오남읍 양지리 93-2번지 우일빌딩 2층","category":"보건위생 - 화장품"},{"name":"아모레","tel":"031-573-1455","addr":"경기도 남양주시 오남읍 양지리 93-2번지 2층 우일빌딩","category":"보건위생 - 화장품"},{"name":"아모레","tel":"031-573-1455","addr":"경기도 남양주시 오남읍 양지리 93-2번지 우일빌딩 2층","category":"보건위생 - 화장품"},{"name":"아모레","tel":"031-573-1455","addr":"경기도 남양주시 오남읍 양지리 93-2번지 우일빌딩 2층","category":"보건위생 - 화장품"},{"name":"아모레","tel":"031-573-1455","addr":"경기도 남양주시 오남읍 양지리 93-2번지 우일빌딩 2층","category":"보건위생 - 화장품"},{"name":"아모레","tel":"031-573-1455","addr":"경기도 남양주시 오남읍 양지리 93-2번지 2층 우일빌딩","category":"보건위생 - 화장품"},{"name":"아모레","tel":"031-573-1455","addr":"경기도 남양주시 오남읍 양지리 93-2번지 우일빌딩 2층","category":"보건위생 - 화장품"},{"name":"아모레","tel":"031-573-1455","addr":"경기도 남양주시 오남읍 양지리 93-2번지 우일빌딩 2층","category":"보건위생 - 화장품"},{"name":"아모레","tel":"031-573-1455","addr":"경기도 남양주시 오남읍 양지리 우일빌딩2층","category":"보건위생 - 화장품"},{"name":"아모레","tel":"031-573-1455","addr":"경기도 남양주시 오남읍 양지리 93-2번지 우일빌딩 2층","category":"보건위생 - 화장품"},{"name":"아모레","tel":"031-575-1454","addr":"경기도 남양주시 오남읍 양지리 93-2번지 우일빌딩 2층","category":"보건위생 - 화장품"},{"name":"아모레","tel":"031-573-1455","addr":"경기도 남양주시 오남읍 양지리 93-2번지 우일빌딩 2층","category":"보건위생 - 화장품"},{"name":"아모레","tel":"031-573-1455","addr":"경기도 남양주시 오남읍 양지리 93-2번지 우일빌딩 2층","category":"보건위생 - 화장품"},{"name":"아모레","tel":"031-573-1455","addr":"경기도 남양주시 오남읍 양지리 93-2번지 우일빌딩 2층","category":"보건위생 - 화장품"},{"name":"아모레","tel":"031-573-1455","addr":"경기도 남양주시 오남읍 양지리 93-2번지 우일빌딩 2층","category":"보건위생 - 화장품"},{"name":"아모레","tel":"031-573-1455","addr":"경기도 남양주시 오남읍 양지리 93-2번지 우일빌딩","category":"보건위생 - 화장품"},{"name":"아모레","tel":"031-573-1455","addr":"경기도 남양주시 오남읍 양지리 93-2번지 2층 우일빌딩","category":"보건위생 - 화장품"},{"name":"아모레","tel":"031-573-1455","addr":"경기도 남양주시 오남읍 양지리 93-2번지","category":"보건위생 - 화장품"},{"name":"아모레","tel":"031-573-1455","addr":"경기도 남양주시 오남읍 양지리 93-2번지","category":"보건위생 - 화장품"},{"name":"아모레","tel":"031-576-1455","addr":"경기도 남양주시 오남읍 양지리 93-2번지 2층 우일빌딩","category":"보건위생 - 화장품"},{"name":"아모레","tel":"031-573-1455","addr":"경기도 남양주시 오남읍 양지리 93-2번지 우일빌딩","category":"보건위생 - 화장품"},{"name":"아모레","tel":"031-573-1455","addr":"경기도 남양주시 오남읍 양지리 93-2번지 우일빌딩","category":"보건위생 - 화장품"},{"name":"아모레","tel":"031-573-1455","addr":"경기도 남양주시 오남읍 양지리 93-2번지","category":"보건위생 - 화장품"},{"name":"아모레","tel":"031-573-1455","addr":"경기도 남양주시 오남읍 양지리 93-2번지 2층 우일빌딩","category":"보건위생 - 화장품"},{"name":"아모레","tel":"031-573-1455","addr":"경기도 남양주시 오남읍 양지리 93-2번지 우일빌딩","category":"보건위생 - 화장품"},{"name":"아모레","tel":"031-573-1455","addr":"경기도 남양주시 오남읍 양지리 93-2번지 우일빌딩","category":"보건위생 - 화장품"},{"name":"아모레","tel":"031-573-1455","addr":"경기도 남양주시 오남읍 양지리 93-2번지 2층 우일빌딩","category":"보건위생 - 화장품"},{"name":"아모레","tel":"031-573-1455","addr":"경기도 남양주시 오남읍 양지리 93-2번지 우일빌딩 2층","category":"보건위생 - 화장품"},{"name":"아모레카운셀러","tel":"031-573-1455","addr":"경기도 남양주시 오남읍 양지리 93-2번지","category":"보건위생 - 화장품"},{"name":"아모레카운셀러","tel":"031-573-1455","addr":"경기도 남양주시 오남읍 양지리 93-2번지 우일빌딩 2층","category":"보건위생 - 화장품"},{"name":"아모레카운셀러","tel":"031-573-1455","addr":"경기도 남양주시 오남읍 양지리 93-2번지 우일빌딩","category":"보건위생 - 화장품"},{"name":"아모레카운셀러","tel":"031-573-1455","addr":"경기도 남양주시 오남읍 양지리 93-2번지 우일빌딩 2층","category":"보건위생 - 화장품"},{"name":"아모레카운셀러","tel":"031-575-1454","addr":"경기도 남양주시 오남읍 양지리 93-2번지 우일빌딩 2층","category":"보건위생 - 화장품"},{"name":"아모레카운셀러","tel":"031-591-6478","addr":"경기도 남양주시 오남읍 양지리 93-2번지 우일빌딩 2층","category":"보건위생 - 화장품"},{"name":"아모레카운셀러","tel":"031-573-1455","addr":"경기도 남양주시 오남읍 양지리 93-2번지","category":"보건위생 - 화장품"},{"name":"아모레카운셀러","tel":"031-573-1455","addr":"경기도 남양주시 오남읍 양지리 93-2번지","category":"보건위생 - 화장품"},{"name":"아모레카운셀러","tel":"031-573-1455","addr":"경기도 남양주시 오남읍 양지리 93-2번지 우일빌딩","category":"보건위생 - 화장품"},{"name":"아모레카운셀러","tel":"031-573-1455","addr":"경기도 남양주시 오남읍 양지리 93-2번지 2층 우일빌딩","category":"보건위생 - 화장품"},{"name":"아모레카운셀러","tel":"031-573-1455","addr":"경기도 남양주시 오남읍 양지리 93-2번지 우일빌딩","category":"보건위생 - 화장품"},{"name":"아모레퍼시픽","tel":"031-573-1455","addr":"경기도 남양주시 오남읍 양지리 93-2번지","category":"보건위생 - 화장품"}]},{"lat":"37.70174352","long":"127.19602544","items":[{"name":"대박점핑다이어트","tel":"","addr":"경기도 남양주시 오남읍 양지리 474-1번지 3층 일부","category":"건강식품 - 기타건강식품"},{"name":"도그살롱","tel":"031-527-5027","addr":"경기도 남양주시 오남읍 양지리 474-1번지 1층 109호","category":"문화.취미 - 애완동물"},{"name":"아마꾸루 양지점","tel":"031-573-2777","addr":"경기도 남양주시 오남읍 양지리 474-1번지 1층 101호, 102호","category":"일반휴게음식 - 서양음식"},{"name":"양지리떡집","tel":"031-575-0421","addr":"경기도 남양주시 오남읍 양지리 474-1번지 104호","category":"음료식품 - 제과점"},{"name":"에밀리샵","tel":"031-528-7799","addr":"경기도 남양주시 오남읍 양지리 474-1번지 상록빌딩 1층 108호","category":"의류 - 정장"},{"name":"오남김종섭특공무술체육관","tel":"031-575-2888","addr":"경기도 남양주시 오남읍 양지리 474-1번지 201호","category":"회원제형태 - 레져업소"},{"name":"오남홍익미술학원","tel":"031-574-9399","addr":"경기도 남양주시 오남읍 양지리 474-1번지 301호","category":"학원 - 예·체능계학원"},{"name":"오란다파우키친","tel":"070-8692-6098","addr":"경기도 남양주시 오남읍 양지리 474-1번지 103호","category":"일반휴게음식 - 서양음식"},{"name":"청학족발","tel":"031-529-1789","addr":"경기도 남양주시 오남읍 양지리 474-1번지","category":"일반휴게음식 - 일반한식"},{"name":"첼로헤어스튜디오","tel":"031-528-2677","addr":"경기도 남양주시 오남읍 양지리 474-1번지 상록빌딩 105호","category":"보건위생 - 미용원"},{"name":"최강수학학원","tel":"031-527-3618","addr":"경기도 남양주시 오남읍 양지리 474-1번지 상록빌딩 2층 일부","category":"회원제형태 - 학원"},{"name":"크린토피아 남양주오남대리점","tel":"031-529-1441","addr":"경기도 남양주시 오남읍 양지리 474-1번지 1층","category":"수리서비스 - 세탁소"}]},{"lat":"37.709302072","long":"127.20174933","items":[{"name":"대성광고기획","tel":"031-000-0000","addr":"경기도 남양주시 오남읍 양지리 238-2번지 1층","category":"서적문구 - 출판 및 인쇄물"},{"name":"이모밥줘","tel":"031-528-9212","addr":"경기도 남양주시 오남읍 양지리 238-2번지 1층 좌측 1호","category":"일반휴게음식 - 일반한식"},{"name":"함평자동차공업사","tel":"031-529-5801","addr":"경기도 남양주시 오남읍 양지리 238-2","category":"자동차정비 유지 - 자동차정비"}]},{"lat":"37.706017362","long":"127.19400666","items":[{"name":"대원실업","tel":"031-529-7707","addr":"경기도 남양주시 오남읍 양지리 374-5","category":"건축자재 - 페인트"},{"name":"바이크 롤러 스페이스 존","tel":"070-7740-6963","addr":"경기도 남양주시 오남읍 양지리 374-5번지 2층","category":"레져용품 - 스포츠·레져용품"},{"name":"한스(한'S)컴닥터","tel":"031-572-8272","addr":"경기도 남양주시 오남읍 양지리 374-5","category":"수리서비스 - 사무·통신기기수리"}]},{"lat":"37.700386316","long":"127.18839066","items":[{"name":"대하와이어컷","tel":"031-527-0941","addr":"경기도 남양주시 오남읍 양지리 642-2번지","category":"기타 - 기계공구"}]},{"lat":"37.698408273","long":"127.19150392","items":[{"name":"대한방역","tel":"070-4300-8523","addr":"경기도 남양주시 오남읍 양지리 660-15번지","category":"용역 서비스 - 종합용역"}]},{"lat":"37.697964838","long":"127.19272739","items":[{"name":"더미술교습소","tel":"","addr":"경기도 남양주시 오남읍 양지리 616-23번지 1층 105호","category":"학원 - 예·체능계학원"},{"name":"양오음악학원","tel":"070-8832-8000","addr":"경기도 남양주시 오남읍 양지리 616-23번지 201호","category":"학원 - 예·체능계학원"},{"name":"용성2태권도장","tel":"031-575-7852","addr":"경기도 남양주시 오남읍 양지리 616-23번지 3층 301호","category":"학원 - 예·체능계학원"},{"name":"참쉬운수학학원","tel":"031-528-5568","addr":"경기도 남양주시 오남읍 양지리 616-23번지 302호","category":"학원 - 보습학원"}]},{"lat":"37.701882778","long":"127.19349711","items":[{"name":"더블에스컴퍼니","tel":"","addr":"경기도 남양주시 오남읍 양지리 468-4번지 101호","category":"용역 서비스 - 종합용역"},{"name":"심마니산약초백숙","tel":"031-529-7080","addr":"경기도 남양주시 오남읍 양지리 468-4번지 1층","category":"일반휴게음식 - 일반한식"}]},{"lat":"37.70280287","long":"127.19280776","items":[{"name":"더블유골프클럽","tel":"031-573-0163","addr":"경기도 남양주시 오남읍 양지리 667번지","category":"레저업소 - 골프연습장"},{"name":"카페,그늘집","tel":"031-573-0164","addr":"경기도 남양주시 오남읍 양지리 667번지 1층","category":"일반휴게음식 - 서양음식"}]},{"lat":"37.708579879","long":"127.1971999","items":[{"name":"더존블랙박스","tel":"031-528-0639","addr":"경기도 남양주시 오남읍 양지리 365번지 107호","category":"사무통신 - 컴퓨터"},{"name":"싱싱분식","tel":"031-575-8716","addr":"경기도 남양주시 오남읍 양지리 365번지 5호","category":"일반휴게음식 - 일반한식"},{"name":"이쁘다네일","tel":"031-574-8403","addr":"경기도 남양주시 오남읍 양지리 365번지 101호","category":"보건위생 - 피부미용실"}]},{"lat":"37.702020674","long":"127.19733019","items":[{"name":"도예놀이터","tel":"031-574-7087","addr":"경기도 남양주시 오남읍 양지리 498-3번지 1층","category":"문화.취미 - 문화취미기타"},{"name":"주식회사무지개산업","tel":"031-529-1755","addr":"경기도 남양주시 오남읍 양지리 498-3번지","category":"기타 - 기계공구"},{"name":"헤어아트","tel":"","addr":"경기도 남양주시 오남읍 양지리 498-3번지 1층","category":"보건위생 - 미용원"}]},{"lat":"37.697382465","long":"127.19069627","items":[{"name":"동광기업","tel":"031-575-4344","addr":"경기도 남양주시 오남읍 양지리 625-9","category":"건축자재 - 목재·석재·철물"}]},{"lat":"37.698495302","long":"127.18775098","items":[{"name":"동방산업","tel":"031-529-3408","addr":"경기도 남양주시 오남읍 양지리 799-2","category":"농업 - 농기계"}]},{"lat":"37.704241483","long":"127.19461445","items":[{"name":"동태랑황태가맛있는집","tel":"031-527-0788","addr":"경기도 남양주시 오남읍 양지리 441-8번지 외2필지","category":"일반휴게음식 - 일반한식"},{"name":"롤러존","tel":"031-528-6024","addr":"경기도 남양주시 오남읍 양지리 441-8번지 1동 2층","category":"레저업소 - 기타레져업소"},{"name":"소문난감자탕 해장국","tel":"031-575-1057","addr":"경기도 남양주시 오남읍 양지리 441-8번지 1층","category":"일반휴게음식 - 일반한식"},{"name":"씨유오남서일점","tel":"031-529-0240","addr":"경기도 남양주시 오남읍 양지리 441-8번지 스포츠센터 상가 1층","category":"유통업 영리 - 편 의 점"},{"name":"양지골프스크린","tel":"031-528-7850","addr":"경기도 남양주시 오남읍 양지리 441-8번지 지하1층","category":"레저업소 - 스크린골프"},{"name":"점프존남양주","tel":"031-528-6026","addr":"경기도 남양주시 오남읍 양지리 441-8번지 스포츠센터상가건물 4층","category":"레저업소 - 기타레져업소"},{"name":"캉스외국어학원","tel":"031-527-1605","addr":"경기도 남양주시 오남읍 양지리 441-8번지 2층","category":"회원제형태 - 학원"}]},{"lat":"37.704965021","long":"127.19841516","items":[{"name":"두꺼비포차","tel":"031-574-7877","addr":"경기도 남양주시 오남읍 양지리 426-7번지","category":"일반휴게음식 - 일반한식"},{"name":"모아세탁","tel":"031-573-5507","addr":"경기도 남양주시 오남읍 양지리 426-7번지 1층 103호","category":"수리서비스 - 세탁소"},{"name":"삼해회수산","tel":"031-574-4006","addr":"경기도 남양주시 오남읍 양지리 426-7","category":"일반휴게음식 - 일반한식"},{"name":"새능골","tel":"031-575-4233","addr":"경기도 남양주시 오남읍 양지리 426-7번지 101호","category":"일반휴게음식 - 일반한식"}]},{"lat":"37.70121013","long":"127.1971353","items":[{"name":"두뇌로수학진접오남","tel":"031-0000-0000","addr":"경기도 남양주시 오남읍 양지리 807-2번지 남양주양지e-편한세상2단지 204동 1403호","category":"서적문구 - 일반서적"},{"name":"말하는논술","tel":"031-000-0000","addr":"경기도 남양주시 오남읍 양지리 807-2번지 양지e편한세상2단지 204동 1403호","category":"학원 - 기타 교육기관"}]},{"lat":"37.701522468","long":"127.19345083","items":[{"name":"드라곤 모터스(DRAGON MOTORS)","tel":"031-573-7923","addr":"경기도 남양주시 오남읍 양지리 469-42번지","category":"자동차정비 유지 - 자동차정비"}]},{"lat":"37.701941852","long":"127.19036759","items":[{"name":"드림자동차공업사","tel":"031-528-4777","addr":"경기도 남양주시 오남읍 양지리 652-1","category":"자동차정비 유지 - 자동차정비"},{"name":"드림자동차공업사","tel":"031-528-4777","addr":"경기도 남양주시 오남읍 양지리 652-1","category":"자동차정비 유지 - 자동차정비"}]},{"lat":"37.69713452","long":"127.20444944","items":[{"name":"뚜레쥬르","tel":"031-575-0550","addr":"경기도 남양주시 오남읍 양지리 95-9번지","category":"음료식품 - 제과점"},{"name":"영 라이브 카페","tel":"031-527-1878","addr":"경기도 남양주시 오남읍 양지리 95-9번지","category":"일반휴게음식 - 일반한식"}]},{"lat":"37.709936896","long":"127.20460886","items":[{"name":"라온한식부페","tel":"031-576-5545","addr":"경기도 남양주시 오남읍 양지리 15-20번지 1동 1층","category":"일반휴게음식 - 일반한식"}]},{"lat":"37.698886848","long":"127.19083614","items":[{"name":"로커스치킨","tel":"031-529-7251","addr":"경기도 남양주시 오남읍 양지리 622-1번지 101,102호","category":"일반휴게음식 - 일반한식"},{"name":"삼성영어양오학원","tel":"031-527-9934","addr":"경기도 남양주시 오남읍 양지리 622-1번지 2층 201호","category":"학원 - 보습학원"},{"name":"헤어클럽","tel":"070-8834-3264","addr":"경기도 남양주시 오남읍 양지리 622-1","category":"보건위생 - 미용원"}]},{"lat":"37.698524851","long":"127.20277505","items":[{"name":"롯데리아 오남점","tel":"031-575-7721","addr":"경기도 남양주시 오남읍 양지리 97-5번지 1층","category":"일반휴게음식 - 서양음식"}]},{"lat":"37.704245999","long":"127.19735868","items":[{"name":"루시헤어","tel":"031-111-1111","addr":"경기도 남양주시 오남읍 양지리 432-36번지 A동 1층 101호","category":"보건위생 - 미용원"},{"name":"반찬좋은사람","tel":"031-528-5053","addr":"경기도 남양주시 오남읍 양지리 432-36번지 A동 102호","category":"음료식품 - 기타음료식품"}]},{"lat":"37.709741787","long":"127.20803318","items":[{"name":"리드메디칼","tel":"","addr":"경기도 남양주시 오남읍 양지리 7-31번지 (다)","category":"보건위생 - 의료용품"},{"name":"팜메이드","tel":"031-572-8210","addr":"경기도 남양주시 오남읍 양지리 7-31번지 나동","category":"약국 - 제약회사"}]},{"lat":"37.699329845","long":"127.1954749","items":[{"name":"마리헤어","tel":"031-529-4833","addr":"경기도 남양주시 오남읍 양지리 807번지 상가-109(남양주양지e편한세상1단지상가동109호~110호)","category":"보건위생 - 미용원"},{"name":"파리바게뜨양지대림점","tel":"031-529-8270","addr":"경기도 남양주시 오남읍 양지리 807번지 (양지E-편한세상1단지상가102, 103호)","category":"음료식품 - 제과점"},{"name":"한울어린이집[아이행복]","tel":"031-527-0708","addr":"경기도 남양주시 오남읍 양지리 807번지","category":"학원 - 유아원"},{"name":"홍샘미술학원","tel":"031-529-1003","addr":"경기도 남양주시 오남읍 양지리 807 남양주양지e편한세상1단지 202호","category":"학원 - 예·체능계학원"}]},{"lat":"37.700658044","long":"127.19314246","items":[{"name":"마왕카","tel":"031-528-5145","addr":"경기도 남양주시 오남읍 양지리 664-2번지","category":"자동차정비 유지 - 자동차정비"},{"name":"써니조명","tel":"031-528-5936","addr":"경기도 남양주시 오남읍 양지리 664-2번지","category":"건축자재 - 조명기구"},{"name":"타이어맛집","tel":"031-529-8289","addr":"경기도 남양주시 오남읍 양지리 664-2번지","category":"자동차정비 유지 - 자동차시트·타이어"}]},{"lat":"37.705386067","long":"127.1943906","items":[{"name":"마이마이치킨","tel":"031-575-4949","addr":"경기도 남양주시 오남읍 양지리 408-12번지","category":"일반휴게음식 - 스넥"}]},{"lat":"37.708912503","long":"127.19764304","items":[{"name":"만이갈비","tel":"031-572-5688","addr":"경기도 남양주시 오남읍 양지리 356-1번지 주건축물제1동 1층 일부호","category":"일반휴게음식 - 일반한식"}]},{"lat":"37.701272553","long":"127.18628376","items":[{"name":"맑은누리","tel":"070-4064-0706","addr":"경기도 남양주시 오남읍 양지리 777-7번지","category":"건강식품 - 기타건강식품"}]},{"lat":"37.707213846","long":"127.19510973","items":[{"name":"매직터치 오남역점","tel":"031-528-6263","addr":"경기도 남양주시 오남읍 양지리 370-1번지 1층","category":"자동차정비 유지 - 세차장"}]},{"lat":"37.701912914","long":"127.19711446","items":[{"name":"머구리","tel":"031-574-3839","addr":"경기도 남양주시 오남읍 양지리 490-1번지","category":"일반휴게음식 - 일반한식"},{"name":"원시쪽갈비오남점","tel":"031-575-7776","addr":"경기도 남양주시 오남읍 양지리 490-1번지","category":"일반휴게음식 - 일반한식"},{"name":"주전자","tel":"031-527-6241","addr":"경기도 남양주시 오남읍 양지리 490-1번지","category":"일반휴게음식 - 일반한식"}]},{"lat":"37.698885563","long":"127.1916412","items":[{"name":"메소드논술국어교습소","tel":"031-573-6270","addr":"경기도 남양주시 오남읍 양지리 660-3번지","category":"학원 - 보습학원"},{"name":"바글바글오남점","tel":"031-527-1981","addr":"경기도 남양주시 오남읍 양지리 660-3번지 (양지빌딩B동4호)","category":"일반휴게음식 - 스넥"},{"name":"쌍용세탁","tel":"031-529-0575","addr":"경기도 남양주시 오남읍 양지리 660-3번지 양지빌딩 B동 102호","category":"수리서비스 - 세탁소"},{"name":"아셈수학교습소","tel":"031-574-5098","addr":"경기도 남양주시 오남읍 양지리 660-3번지 2층","category":"학원 - 보습학원"},{"name":"오남양지리드앤톡영어학원","tel":"031-529-6951","addr":"경기도 남양주시 오남읍 양지리 660-3번지","category":"회원제형태 - 학원"},{"name":"오남양지리드앤톡영어학원","tel":"070-8846-9343","addr":"경기도 남양주시 오남읍 양지리 660-3번지 양지빌딩 2층","category":"학원 - 외국어학원"},{"name":"운동화수선","tel":"031-575-0131","addr":"경기도 남양주시 오남읍 양지리 660-3번지 B동 1층 3호","category":"수리서비스 - 신변잡화수리"},{"name":"장수국밥","tel":"031-574-2190","addr":"경기도 남양주시 오남읍 양지리 660-3번지","category":"일반휴게음식 - 일반한식"},{"name":"합기도체육관","tel":"031-574-1455","addr":"경기도 남양주시 오남읍 양지리 660-3번지 A동 2층 4-6호","category":"학원 - 예·체능계학원"}]},{"lat":"37.706380123","long":"127.198056","items":[{"name":"메이에르","tel":"","addr":"경기도 남양주시 오남읍 양지리 380번지 이레캐슬3차 1층 101,102","category":"일반휴게음식 - 서양음식"}]},{"lat":"37.705577803","long":"127.19833739","items":[{"name":"명가감자탕 맛군","tel":"","addr":"경기도 남양주시 오남읍 양지리 421-1번지 예그리나 2층","category":"일반휴게음식 - 일반한식"},{"name":"치킨뱅이 오남점","tel":"","addr":"경기도 남양주시 오남읍 양지리 421-1번지","category":"일반휴게음식 - 스넥"}]},{"lat":"37.70410827","long":"127.19342343","items":[{"name":"명성","tel":"031-527-3995","addr":"경기도 남양주시 오남읍 양지리 708-2번지","category":"일반휴게음식 - 일반한식"},{"name":"오남찐빵만두","tel":"031-527-0741","addr":"경기도 남양주시 오남읍 양지리 708-2번지","category":"일반휴게음식 - 일반한식"},{"name":"종로야채곱창","tel":"031-527-3082","addr":"경기도 남양주시 오남읍 양지리 708-2번지","category":"일반휴게음식 - 일반한식"},{"name":"할매밥줘","tel":"031-529-3302","addr":"경기도 남양주시 오남읍 양지리 708-2번지 외1필지","category":"일반휴게음식 - 일반한식"}]},{"lat":"37.705245539","long":"127.19214494","items":[{"name":"명음상사","tel":"031-574-7233","addr":"경기도 남양주시 오남읍 양지리 698번지","category":"자동차정비 유지 - 카인테리어"}]},{"lat":"37.700934437","long":"127.20038894","items":[{"name":"명품가구백화점","tel":"031-571-8980","addr":"경기도 남양주시 오남읍 양지리 124-6번지","category":"가구 - 일반가구"}]},{"lat":"37.701157879","long":"127.19603526","items":[{"name":"모두크린","tel":"031-529-1861","addr":"경기도 남양주시 오남읍 양지리 807-2번지 이편한세상아파트 203동 901호","category":"용역 서비스 - 종합용역"},{"name":"하늘바다","tel":"070-7778-9785","addr":"경기도 남양주시 오남읍 양지리 807-2번지 남양주양지e편한세상2단지 203동 803호","category":"회원제형태 - 기타4"}]},{"lat":"37.705052658","long":"127.19442376","items":[{"name":"물고기 수족관","tel":"031-000-0000","addr":"경기도 남양주시 오남읍 양지리 414-5번지","category":"문화.취미 - 수족관"}]},{"lat":"37.706775491","long":"127.19869208","items":[{"name":"미니상회","tel":"031-575-3206","addr":"경기도 남양주시 오남읍 양지리 363-7","category":"유통업 영리 - 슈퍼마켓"}]},{"lat":"37.702494529","long":"127.19405432","items":[{"name":"미래이앤씨","tel":"031-572-0223","addr":"경기도 남양주시 오남읍 양지리 467-3","category":"기타 - 기계공구"}]},{"lat":"37.707686978","long":"127.19777592","items":[{"name":"미마루퓨전한식","tel":"031-527-8218","addr":"경기도 남양주시 오남읍 양지리 361번지 1층","category":"일반휴게음식 - 일반한식"}]},{"lat":"37.698797894","long":"127.20114298","items":[{"name":"미스사이공 오남점","tel":"031-529-0420","addr":"경기도 남양주시 오남읍 양지리 100-7번지 다인빌딩 1층 105호","category":"일반휴게음식 - 스넥"},{"name":"인스네어(ENSNARE)","tel":"070-3515-0743","addr":"경기도 남양주시 오남읍 양지리 100-7번지 201호,112-1","category":"레저업소 - 기타레져업소"},{"name":"주식회사","tel":"","addr":"경기도 남양주시 오남읍 양지리 100-7번지 1층 일부","category":"일반휴게음식 - 서양음식"},{"name":"천개의 이파리","tel":"031-575-8482","addr":"경기도 남양주시 오남읍 양지리 100-7번지 1층 103호","category":"음료식품 - 제과점"}]},{"lat":"37.698713763","long":"127.19202628","items":[{"name":"미즈헤어","tel":"031-529-6004","addr":"경기도 남양주시 오남읍 양지리 614-10번지 102호","category":"보건위생 - 미용원"},{"name":"영어숲윤선생영어양지학원","tel":"031-572-1211","addr":"경기도 남양주시 오남읍 양지리 614-10번지 2층","category":"학원 - 보습학원"},{"name":"족발보쌈 맛있는 집","tel":"031-575-8292","addr":"경기도 남양주시 오남읍 양지리 614-10번지 104호","category":"일반휴게음식 - 일반한식"},{"name":"진우네옛날통닭양지점","tel":"031-572-5534","addr":"경기도 남양주시 오남읍 양지리 614-10번지 103호","category":"일반휴게음식 - 스넥"},{"name":"카페레드","tel":"070-4112-8789","addr":"경기도 남양주시 오남읍 양지리 614-10번지","category":"일반휴게음식 - 서양음식"}]},{"lat":"37.705135873","long":"127.19310855","items":[{"name":"민들레영토","tel":"031-574-1063","addr":"경기도 남양주시 오남읍 양지리 696-1번지","category":"일반휴게음식 - 일반한식"},{"name":"섬돌모루기사식당","tel":"031-575-3816","addr":"경기도 남양주시 오남읍 양지리 696-1번지 나동 1층","category":"일반휴게음식 - 일반한식"},{"name":"투다리(양지점)","tel":"031-529-5792","addr":"경기도 남양주시 오남읍 양지리 696-1번지 나동 1층","category":"일반휴게음식 - 주점"}]},{"lat":"37.699990376","long":"127.18808352","items":[{"name":"바이오맥스","tel":"031-554-5344","addr":"경기도 남양주시 오남읍 양지리 640-1번지","category":"문화.취미 - 수족관"}]},{"lat":"37.711297668","long":"127.20441975","items":[{"name":"백운면옥","tel":"031-573-4798","addr":"경기도 남양주시 오남읍 양지리 248-14번지 1층","category":"일반휴게음식 - 일반한식"}]},{"lat":"37.703497363","long":"127.19786701","items":[{"name":"백지연미용실(오남점)","tel":"031-527-4282","addr":"경기도 남양주시 오남읍 양지리 434-7번지 양지테라스빌 101호","category":"보건위생 - 미용원"}]},{"lat":"37.711911183","long":"127.19855816","items":[{"name":"보물선","tel":"","addr":"경기도 남양주시 오남읍 양지리 281-3번지 1층","category":"일반휴게음식 - 일반한식"}]},{"lat":"37.708238638","long":"127.19095047","items":[{"name":"보얀트(VOYANT)","tel":"","addr":"경기도 남양주시 오남읍 양지리 742번지","category":"일반휴게음식 - 서양음식"}]},{"lat":"37.705549635","long":"127.19352918","items":[{"name":"본토타이어","tel":"031-571-0717","addr":"경기도 남양주시 오남읍 양지리 718-1번지","category":"자동차정비 유지 - 자동차시트·타이어"}]},{"lat":"37.708186194","long":"127.19553184","items":[{"name":"봄갤러리","tel":"031-527-4456","addr":"경기도 남양주시 오남읍 양지리 340-1번지","category":"가구 - 일반가구"}]},{"lat":"37.696156584","long":"127.19105601","items":[{"name":"봉바위","tel":"031-000-0000","addr":"경기도 남양주시 오남읍 양지리 592-8번지","category":"일반휴게음식 - 일반한식"},{"name":"에어테크","tel":"031-000-0000","addr":"경기도 남양주시 오남읍 양지리 592-8번지 2층","category":"신변잡화 - 기타잡화"}]},{"lat":"37.695688393","long":"127.19086208","items":[{"name":"봉수재미용실","tel":"031-572-6654","addr":"경기도 남양주시 오남읍 양지리 592-19번지 101호","category":"보건위생 - 미용원"}]},{"lat":"37.699995385","long":"127.20161107","items":[{"name":"부릉모터스","tel":"031-0000-0000","addr":"경기도 남양주시 오남읍 양지리 149-10번지 103호","category":"수리서비스 - 레져용품수리"},{"name":"위스파(WE SPA)","tel":"02-111-1111","addr":"경기도 남양주시 오남읍 양지리 149-10번지 1동","category":"보건위생 - 피부미용실"}]},{"lat":"37.695797392","long":"127.19030677","items":[{"name":"부페한울","tel":"031-528-6263","addr":"경기도 남양주시 오남읍 양지리 591-9번지","category":"음료식품 - 기타음료식품"}]},{"lat":"37.704766883","long":"127.19285813","items":[{"name":"북부디젤","tel":"031-111-1111","addr":"경기도 남양주시 오남읍 양지리 711번지 1층","category":"자동차정비 유지 - 중장비수리"},{"name":"삼성오일상사","tel":"","addr":"경기도 남양주시 오남읍 양지리 711번지","category":"자동차정비 유지 - 윤활유 전문 판매"}]},{"lat":"37.705244355","long":"127.19839322","items":[{"name":"불타는 연탄구이","tel":"031-572-0145","addr":"경기도 남양주시 오남읍 양지리 193-7번지 가동 101호","category":"일반휴게음식 - 일반한식"},{"name":"풍양현대모터스","tel":"031-529-9851","addr":"경기도 남양주시 오남읍 양지리 193-7번지","category":"자동차정비 유지 - 자동차정비"},{"name":"피자가닭치네","tel":"031-573-8201","addr":"경기도 남양주시 오남읍 양지리 193-7번지 (가동1층)","category":"일반휴게음식 - 서양음식"}]},{"lat":"37.700135177","long":"127.19333389","items":[{"name":"블루모터스세차장","tel":"031-527-1133","addr":"경기도 남양주시 오남읍 양지리 469-11번지","category":"자동차정비 유지 - 세차장"},{"name":"천북수산","tel":"031-510-9994","addr":"경기도 남양주시 오남읍 양지리 469-11번지 1층","category":"음료식품 - 농·축·수산품"},{"name":"풍천장어촌","tel":"031-510-9994","addr":"경기도 남양주시 오남읍 양지리 469-11번지 1층","category":"일반휴게음식 - 일반한식"}]},{"lat":"37.695102409","long":"127.19108737","items":[{"name":"비엠푸드시스템","tel":"031-594-9232","addr":"경기도 남양주시 오남읍 양지리 599번지 가동","category":"음료식품 - 기타음료식품"}]},{"lat":"37.694104939","long":"127.18945214","items":[{"name":"비원모터스","tel":"031-529-7181","addr":"경기도 남양주시 오남읍 양지리 589-2번지 나동","category":"자동차정비 유지 - 자동차정비"}]},{"lat":"37.705711771","long":"127.19355228","items":[{"name":"빙고노래연습장","tel":"","addr":"경기도 남양주시 오남읍 양지리 410-2번지 2층","category":"레저업소 - 노 래 방"}]},{"lat":"37.70391412","long":"127.20714396","items":[{"name":"사능골프연습장","tel":"031-573-0244","addr":"경기도 남양주시 오남읍 양지리 33번지 훼미리타운 지층","category":"회원제형태 - 레져업소"}]},{"lat":"37.698525216","long":"127.20255961","items":[{"name":"사진사랑","tel":"031-527-6966","addr":"경기도 남양주시 오남읍 양지리 97 105","category":"광학제품 - 사진관"}]},{"lat":"37.695714807","long":"127.19124765","items":[{"name":"삭다니식당","tel":"031-574-9797","addr":"경기도 남양주시 오남읍 양지리 598-8","category":"일반휴게음식 - 일반한식"}]},{"lat":"37.703933568","long":"127.19558887","items":[{"name":"삼천리자전거","tel":"031-574-5101","addr":"경기도 남양주시 오남읍 양지리 435-1번지","category":"레져용품 - 스포츠·레져용품"},{"name":"유성기획","tel":"","addr":"경기도 남양주시 오남읍 양지리 435-1번지","category":"용역 서비스 - 종합용역"}]},{"lat":"37.701270962","long":"127.1873043","items":[{"name":"삼환기업","tel":"031-528-6263","addr":"경기도 남양주시 오남읍 양지리 774번지","category":"건축자재 - 목재·석재·철물"}]},{"lat":"37.705855282","long":"127.19394955","items":[{"name":"새샘유치원[아이행복]","tel":"031-575-1283","addr":"경기도 남양주시 오남읍 양지리 407-1번지","category":"학원 - 유치원"},{"name":"엘피스어린이집[아이행복]","tel":"031-528-9191","addr":"경기도 남양주시 오남읍 양지리 407-1번지","category":"학원 - 유아원"}]},{"lat":"37.700633965","long":"127.19686166","items":[{"name":"색연필양지점","tel":"070-8807-8286","addr":"경기도 남양주시 오남읍 양지리 807-2 양지e-편한세상2단지상가 104","category":"서적문구 - 문구용품"},{"name":"플레이피아노교습소","tel":"031-528-7903","addr":"경기도 남양주시 오남읍 양지리 807-2번지 양지e편한세상2단지 상가동 102호","category":"학원 - 예·체능계학원"}]},{"lat":"37.704021037","long":"127.19164288","items":[{"name":"서울창호","tel":"031-993-0344","addr":"경기도 남양주시 오남읍 양지리 702-2번지 9동","category":"용역 서비스 - 기타용역서비스"}]},{"lat":"37.705242006","long":"127.19433353","items":[{"name":"서일공인중개사사무소","tel":"031-529-7800","addr":"경기도 남양주시 오남읍 양지리 408-2번지","category":"용역 서비스 - 부동산 중개·임대"}]},{"lat":"37.705022463","long":"127.1963628","items":[{"name":"서전실업","tel":"02-978-5550","addr":"경기도 남양주시 오남읍 양지리 416-49번지","category":"신변잡화 - 신발"}]},{"lat":"37.695080419","long":"127.19355907","items":[{"name":"서진오일교환","tel":"","addr":"경기도 남양주시 오남읍 양지리 606번지 가동","category":"자동차정비 유지 - 자동차정비"}]},{"lat":"37.700215056","long":"127.20488867","items":[{"name":"서현기획","tel":"031-528-0826","addr":"경기도 남양주시 오남읍 양지리 126-2번지 102호","category":"건축자재 - 인테리어전문"}]},{"lat":"37.702133373","long":"127.19452964","items":[{"name":"선우상사","tel":"031-529-1972","addr":"경기도 남양주시 오남읍 양지리 467-2번지","category":"건축자재 - 기타건축자재"}]},{"lat":"37.70499139","long":"127.19881213","items":[{"name":"설악본가","tel":"031-575-5952","addr":"경기도 남양주시 오남읍 양지리 193-11번지","category":"음료식품 - 기타음료식품"}]},{"lat":"37.707215464","long":"127.18847572","items":[{"name":"성남열기기","tel":"031-527-5228","addr":"경기도 남양주시 오남읍 양지리 749-2번지 1층","category":"전기제품 - 냉열기기"},{"name":"할리우드 펫","tel":"","addr":"경기도 남양주시 오남읍 양지리 749-2번지","category":"문화.취미 - 애완동물"}]},{"lat":"37.711461908","long":"127.19783117","items":[{"name":"성우시스템","tel":"031-529-2551","addr":"경기도 남양주시 오남읍 양지리 284-9번지","category":"가구 - 일반가구"}]},{"lat":"37.696216487","long":"127.19302907","items":[{"name":"세븐아트","tel":"031-527-8479","addr":"경기도 남양주시 오남읍 양지리 609-2번지 나동","category":"건축자재 - 인테리어전문"}]},{"lat":"37.706686861","long":"127.19780732","items":[{"name":"세븐일레븐남양주해피점","tel":"031-1577-0711","addr":"경기도 남양주시 오남읍 양지리 380-6번지 조은도시 A동 101호","category":"유통업 영리 - 편 의 점"}]},{"lat":"37.709802412","long":"127.20422291","items":[{"name":"세븐일레븐오남양지점","tel":"031-1577-0711","addr":"경기도 남양주시 오남읍 양지리 15-19번지","category":"유통업 영리 - 편 의 점"}]},{"lat":"37.713355873","long":"127.20205503","items":[{"name":"숲속장어","tel":"031-572-1600","addr":"경기도 남양주시 오남읍 양지리 산10-1","category":"음료식품 - 농·축·수산품"}]},{"lat":"37.705803229","long":"127.19822458","items":[{"name":"슈퍼맵짱떡볶이","tel":"031-529-1700","addr":"경기도 남양주시 오남읍 양지리 384-5번지","category":"일반휴게음식 - 스넥"}]},{"lat":"37.700496599","long":"127.18700756","items":[{"name":"스칸비","tel":"031-529-2511","addr":"경기도 남양주시 오남읍 양지리 776번지","category":"의류 - 아동의류"}]},{"lat":"37.706824209","long":"127.19646954","items":[{"name":"스프레이드샵","tel":"031-527-6188","addr":"경기도 남양주시 오남읍 양지리 378-3번지","category":"의류 - 기타의류"}]},{"lat":"37.697937842","long":"127.20358987","items":[{"name":"스피드메이트양지점","tel":"031-483-1000","addr":"경기도 남양주시 오남읍 양지리 95-1번지","category":"자동차정비 유지 - 자동차정비"}]},{"lat":"37.698303015","long":"127.20075614","items":[{"name":"식스데이","tel":"02-1111-1111","addr":"경기도 남양주시 오남읍 양지리 106-5번지 상가동 1층 103호","category":"의류 - 정장"},{"name":"칼라발라","tel":"","addr":"경기도 남양주시 오남읍 양지리 106-5번지 107호","category":"보건위생 - 미용재료"},{"name":"컷팅클럽","tel":"031-527-3515","addr":"경기도 남양주시 오남읍 양지리 106-5","category":"보건위생 - 미용원"},{"name":"홍대언니","tel":"","addr":"경기도 남양주시 오남읍 양지리 106-5번지 103호","category":"의류 - 정장"}]},{"lat":"37.701411833","long":"127.19500404","items":[{"name":"신성기업","tel":"031-575-7881","addr":"경기도 남양주시 오남읍 양지리 469-33번지 1층","category":"건축자재 - 기타건축자재"}]},{"lat":"37.703942085","long":"127.19030459","items":[{"name":"신진철물","tel":"031-575-4755","addr":"경기도 남양주시 오남읍 양지리 676-1번지","category":"건축자재 - 목재·석재·철물"},{"name":"아이엠가설산업","tel":"031-573-4121","addr":"경기도 남양주시 오남읍 양지리 676-1번지","category":"건축자재 - 기타건축자재"}]},{"lat":"37.69405274","long":"127.19391926","items":[{"name":"쌍용자동차 남양주정비사업소(주)","tel":"031-527-5582","addr":"경기도 남양주시 오남읍 양지리 523-2번지","category":"자동차정비 유지 - 자동차정비"}]},{"lat":"37.698434466","long":"127.19202557","items":[{"name":"써니염색","tel":"","addr":"경기도 남양주시 오남읍 양지리 613번지 가동 1층 (1)","category":"보건위생 - 미용원"},{"name":"킴벌리통상","tel":"031-571-8600","addr":"경기도 남양주시 오남읍 양지리 613번지","category":"신변잡화 - 기타잡화"}]},{"lat":"37.698604608","long":"127.20355765","items":[{"name":"쑥사랑","tel":"031-527-8584","addr":"경기도 남양주시 오남읍 양지리 97-9","category":"회원제형태 - 기타4"}]},{"lat":"37.703517697","long":"127.19089319","items":[{"name":"씨에스라이트 (CS LIGHT)","tel":"031-527-9302","addr":"경기도 남양주시 오남읍 양지리 676-2번지","category":"자동차정비 유지 - 자동차부품"},{"name":"애니카랜드 오남점","tel":"031-574-7160","addr":"경기도 남양주시 오남읍 양지리 676-2번지 (양지리 676-2,3)","category":"자동차정비 유지 - 자동차정비"},{"name":"케이스포츠","tel":"031-574-9088","addr":"경기도 남양주시 오남읍 양지리 676-2번지 1층 3,4호","category":"레져용품 - 스포츠·레져용품"}]},{"lat":"37.698636831","long":"127.18941814","items":[{"name":"아르떼음악학원","tel":"031-573-1145","addr":"경기도 남양주시 오남읍 양지리 623번지 상가동102~104호","category":"학원 - 예·체능계학원"}]},{"lat":"37.697272212","long":"127.19203396","items":[{"name":"양오초등학교병설유치원[아이행복]","tel":"031-528-6339","addr":"경기도 남양주시 오남읍 양지리 616-5","category":"학원 - 유치원"}]},{"lat":"37.701297369","long":"127.18770124","items":[{"name":"양지가구","tel":"031-542-9930","addr":"경기도 남양주시 오남읍 양지리 774-1번지","category":"가구 - 일반가구"}]},{"lat":"37.703882627","long":"127.19367233","items":[{"name":"양지건강원","tel":"031-575-6713","addr":"경기도 남양주시 오남읍 양지리 706-4번지","category":"건강식품 - 기타건강식품"},{"name":"양지식당","tel":"031-575-8363","addr":"경기도 남양주시 오남읍 양지리 706-4","category":"일반휴게음식 - 일반한식"},{"name":"인복슈퍼","tel":"031-528-8084","addr":"경기도 남양주시 오남읍 양지리 706-4번지 외1필지","category":"유통업 영리 - 슈퍼마켓"},{"name":"풍양식당","tel":"031-575-3081","addr":"경기도 남양주시 오남읍 양지리 706-4번지","category":"일반휴게음식 - 일반한식"}]},{"lat":"37.698469658","long":"127.2034439","items":[{"name":"양지경원대석사체육관","tel":"031-575-8180","addr":"경기도 남양주시 오남읍 양지리 97-1","category":"학원 - 예·체능계학원"}]},{"lat":"37.709769253","long":"127.19713496","items":[{"name":"양지곤충농장","tel":"031-575-7944","addr":"경기도 남양주시 오남읍 양지리 347번지","category":"음료식품 - 농·축·수산품"}]},{"lat":"37.699605865","long":"127.20285733","items":[{"name":"양지공구철물","tel":"031-529-0956","addr":"경기도 남양주시 오남읍 양지리 101-4번지","category":"건축자재 - 목재·석재·철물"}]},{"lat":"37.706711595","long":"127.19919088","items":[{"name":"양지노벨어린이집[아이행복]","tel":"031-574-0613","addr":"경기도 남양주시 오남읍 양지리 203-5번지","category":"학원 - 유아원"}]},{"lat":"37.705323809","long":"127.19389148","items":[{"name":"양지당구장","tel":"031-529-0050","addr":"경기도 남양주시 오남읍 양지리 411","category":"레저업소 - 당 구 장"},{"name":"케이비에스육공칠공팔공","tel":"031-573-5073","addr":"경기도 남양주시 오남읍 양지리 411번지 2층","category":"일반휴게음식 - 주점"},{"name":"코리엔탈 깻잎 두마리치킨","tel":"","addr":"경기도 남양주시 오남읍 양지리 411번지 외2필지","category":"일반휴게음식 - 스넥"},{"name":"행순네닭한마리","tel":"031-555-7050","addr":"경기도 남양주시 오남읍 양지리 411","category":"일반휴게음식 - 일반한식"}]},{"lat":"37.700886299","long":"127.20222577","items":[{"name":"양지카카오골프","tel":"031-573-0782","addr":"경기도 남양주시 오남읍 양지리 149-1번지","category":"레저업소 - 스크린골프"}]},{"lat":"37.703326424","long":"127.19771914","items":[{"name":"양지화원","tel":"031-575-9875","addr":"경기도 남양주시 오남읍 양지리 434-2","category":"문화.취미 - 화원"},{"name":"청풍면옥","tel":"031-529-4399","addr":"경기도 남양주시 오남읍 양지리 434-2번지 상가좌측 1-5호","category":"일반휴게음식 - 일반한식"}]},{"lat":"37.71146852","long":"127.20461301","items":[{"name":"언덕위에 커피나무","tel":"","addr":"경기도 남양주시 오남읍 양지리 248-1번지","category":"일반휴게음식 - 서양음식"}]},{"lat":"37.691077089","long":"127.18984138","items":[{"name":"에스메디칼","tel":"031-000-0000","addr":"경기도 남양주시 오남읍 양지리 543-2번지 1층","category":"보건위생 - 의료용품"},{"name":"하은메디컬","tel":"","addr":"경기도 남양주시 오남읍 양지리 543-2번지","category":"보건위생 - 의료용품"}]},{"lat":"37.704906157","long":"127.19586354","items":[{"name":"에스파츠","tel":"031-557-0120","addr":"경기도 남양주시 오남읍 양지리 416-1번지","category":"자동차정비 유지 - 자동차부품"}]},{"lat":"37.709936139","long":"127.20505114","items":[{"name":"에어 테크놀로지","tel":"","addr":"경기도 남양주시 오남읍 양지리 9-2번지","category":"전기제품 - 냉열기기"}]},{"lat":"37.703383224","long":"127.19605237","items":[{"name":"에이스콘트롤","tel":"031-575-5759","addr":"경기도 남양주시 오남읍 양지리 419번지","category":"기타 - 기계공구"}]},{"lat":"37.692437015","long":"127.19017359","items":[{"name":"엔젤시요 (Angel-Siyo)","tel":"","addr":"경기도 남양주시 오남읍 양지리 547번지 1동","category":"신변잡화 - 신발"}]},{"lat":"37.697887701","long":"127.20656049","items":[{"name":"오남고매점","tel":"031-570-3308","addr":"경기도 남양주시 오남읍 양지리 80-4번지 오남고등학교","category":"음료식품 - 기타음료식품"}]},{"lat":"37.698693041","long":"127.20453303","items":[{"name":"오남복지어린이집[아이행복]","tel":"031-575-5854","addr":"경기도 남양주시 오남읍 양지리 96-10번지","category":"학원 - 유아원"},{"name":"오남읍사무소","tel":"031-590-2625","addr":"경기도 남양주시 오남읍 양지리 96-10번지 오남읍사무소","category":"용역 서비스 - 사무서비스"},{"name":"오남읍주민자치위원회","tel":"031-529-5098","addr":"경기도 남양주시 오남읍 양지리 96-10번지","category":"문화.취미 - 문화취미기타"}]},{"lat":"37.698551303","long":"127.20311529","items":[{"name":"오남자동차공업사","tel":"031-575-7555","addr":"경기도 남양주시 오남읍 양지리 97-8번지","category":"자동차정비 유지 - 자동차정비"}]},{"lat":"37.700690666","long":"127.20069445","items":[{"name":"오남점기아오토큐","tel":"031-527-8282","addr":"경기도 남양주시 오남읍 양지리 119-6번지","category":"자동차정비 유지 - 자동차정비"},{"name":"진로스장어시대","tel":"031-556-9933","addr":"경기도 남양주시 오남읍 양지리 119-6번지","category":"일반휴게음식 - 일반한식"}]},{"lat":"37.698246341","long":"127.20230941","items":[{"name":"오남제일의원","tel":"031-575-5533","addr":"경기도 남양주시 오남읍 양지리 100-6번지 2층","category":"의원 - 의원"}]},{"lat":"37.69972068","long":"127.19886629","items":[{"name":"오남큐이엠더오름학원","tel":"031-527-7900","addr":"경기도 남양주시 오남읍 양지리 111-2번지 2층","category":"학원 - 외국어학원"}]},{"lat":"37.707323318","long":"127.19974816","items":[{"name":"오비닐닷컴","tel":"031-527-9012","addr":"경기도 남양주시 오남읍 양지리 212번지","category":"유통업 영리 - 기타유통업"}]},{"lat":"37.705664423","long":"127.19496965","items":[{"name":"오성","tel":"02-2216-3833","addr":"경기도 남양주시 오남읍 양지리 398-5","category":"신변잡화 - 기타잡화"}]},{"lat":"37.699019434","long":"127.20333199","items":[{"name":"오성찜요리전문점","tel":"031-527-3355","addr":"경기도 남양주시 오남읍 양지리 102-2번지 1층 2,3호","category":"일반휴게음식 - 일반한식"},{"name":"크리스마스스페셜티커피/몬스터주식회사","tel":"","addr":"경기도 남양주시 오남읍 양지리 102-2번지","category":"일반휴게음식 - 서양음식"}]},{"lat":"37.705827259","long":"127.19456183","items":[{"name":"오양푸드","tel":"031-574-1806","addr":"경기도 남양주시 오남읍 양지리 408-6번지","category":"음료식품 - 기타음료식품"}]},{"lat":"37.699434256","long":"127.1921982","items":[{"name":"옴므라피네","tel":"031-111-1111","addr":"경기도 남양주시 오남읍 양지리 661-3번지 1층 5호 라온누리","category":"보건위생 - 미용원"},{"name":"조호컴퍼니","tel":"","addr":"경기도 남양주시 오남읍 양지리 661-3번지 1층 3호","category":"주방용구 - 주방용구"}]},{"lat":"37.701373384","long":"127.19647805","items":[{"name":"외대홈스쿨","tel":"070-4384-6650","addr":"경기도 남양주시 오남읍 양지리 807-2번지 남양주e편한세상2단지 202동 1층 102호","category":"회원제형태 - 학원"}]},{"lat":"37.699998049","long":"127.19455816","items":[{"name":"용이유통","tel":"","addr":"경기도 남양주시 오남읍 양지리 807번지 남양주양지E-편한세상1단지 103동 704호","category":"음료식품 - 농·축·수산품"}]},{"lat":"37.700885741","long":"127.18589728","items":[{"name":"용진 이엔지(ENG)","tel":"031-0000-0000","addr":"경기도 남양주시 오남읍 양지리 777-2번지 3동 1층","category":"건축자재 - 기타건축자재"}]},{"lat":"37.702435528","long":"127.18581037","items":[{"name":"우드체어WOODCHAIR","tel":"031-593-4272","addr":"경기도 남양주시 오남읍 양지리 770-15번지","category":"가구 - 일반가구"}]},{"lat":"37.69791467","long":"127.20131071","items":[{"name":"우리병원장례식장(주)","tel":"031-529-4442","addr":"경기도 남양주시 오남읍 양지리 104-2번지","category":"용역 서비스 - 가례서비스업"}]},{"lat":"37.691716698","long":"127.18988834","items":[{"name":"우성실업","tel":"031-575-1388","addr":"경기도 남양주시 오남읍 양지리 543","category":"기타 - 기타 전문점"}]},{"lat":"37.703162265","long":"127.19342101","items":[{"name":"웨스턴 소울","tel":"031-573-9767","addr":"경기도 남양주시 오남읍 양지리 669-3번지","category":"레져용품 - 스포츠·레져용품"}]},{"lat":"37.697964961","long":"127.19817","items":[{"name":"윤후 편의점","tel":"070-4025-6227","addr":"경기도 남양주시 오남읍 양지리 512-29번지 지하층 오남도서관지","category":"음료식품 - 기타음료식품"}]},{"lat":"37.701524999","long":"127.20280579","items":[{"name":"이런교실","tel":"031-529-8637","addr":"경기도 남양주시 오남읍 양지리 142-6번지 성우빌라 가동 401호","category":"학원 - 보습학원"}]},{"lat":"37.703047822","long":"127.19175381","items":[{"name":"이마트24 오남양지로점","tel":"","addr":"경기도 남양주시 오남읍 양지리 674번지 3,4호","category":"유통업 영리 - 편 의 점"}]},{"lat":"37.700272226","long":"127.18645139","items":[{"name":"장호농산","tel":"031-527-1866","addr":"경기도 남양주시 오남읍 양지리 777-6번지","category":"음료식품 - 미곡상"}]},{"lat":"37.711099458","long":"127.20441921","items":[{"name":"제이엠시스템","tel":"","addr":"경기도 남양주시 오남읍 양지리 248-5번지 제1호","category":"자동차정비 유지 - 자동차부품"}]},{"lat":"37.700606484","long":"127.20253118","items":[{"name":"주식회사 동화유통","tel":"070-4119-2121","addr":"경기도 남양주시 오남읍 양지리 149-18번지","category":"의류 - 정장"}]},{"lat":"37.704128534","long":"127.1920287","items":[{"name":"주식회사 라이브러리엔","tel":"031-573-5021","addr":"경기도 남양주시 오남읍 양지리 702번지 다동(주3)","category":"가구 - 일반가구"}]},{"lat":"37.694078877","long":"127.18883982","items":[{"name":"주식회사 맘스핸","tel":"031-574-1710","addr":"경기도 남양주시 오남읍 양지리 587-3번지 가동","category":"음료식품 - 기타음료식품"}]},{"lat":"37.708853824","long":"127.2004213","items":[{"name":"주식회사 에스디푸드","tel":"031-1566-4991","addr":"경기도 남양주시 오남읍 양지리 235-6번지 1호","category":"음료식품 - 기타음료식품"}]},{"lat":"37.708689931","long":"127.20672613","items":[{"name":"주식회사 오남에프씨아카데미","tel":"031-846-6264","addr":"경기도 남양주시 오남읍 양지리 9-20번지","category":"학원 - 예·체능계학원"}]},{"lat":"37.698775042","long":"127.19313765","items":[{"name":"주식회사 지엠카마트","tel":"031-573-0005","addr":"경기도 남양주시 오남읍 양지리 617번지","category":"자동차판매 - 중고자동차판매"}]},{"lat":"37.697496143","long":"127.18717022","items":[{"name":"주식회사 초록콩나물(chorockkongnamul Co.","tel":"031-543-4133","addr":"경기도 남양주시 오남읍 양지리 801-2번지 101-1호","category":"보건위생 - 화장품"}]},{"lat":"37.701129527","long":"127.19128403","items":[{"name":"주식회사 케이디플러스","tel":"031-559-3648","addr":"경기도 남양주시 오남읍 양지리 651번지","category":"자동차정비 유지 - 자동차정비"},{"name":"주식회사 케이디플러스","tel":"031-559-3648","addr":"경기도 남양주시 오남읍 양지리 651번지","category":"자동차정비 유지 - 자동차정비"},{"name":"주식회사케이디플러스","tel":"031-559-3648","addr":"경기도 남양주시 오남읍 양지리 651번지","category":"자동차정비 유지 - 자동차부품"},{"name":"주식회사케이디플러스","tel":"031-559-3648","addr":"경기도 남양주시 오남읍 양지리 651번지","category":"자동차정비 유지 - 자동차정비"}]},{"lat":"37.692934785","long":"127.18875759","items":[{"name":"주식회사 홍익특수유리","tel":"031-528-0349","addr":"경기도 남양주시 오남읍 양지리 581번지","category":"건축자재 - 유리"}]},{"lat":"37.695220473","long":"127.19049807","items":[{"name":"주식회사미르온앤담다","tel":"031-514-2225","addr":"경기도 남양주시 오남읍 양지리 592-2번지","category":"음료식품 - 기타음료식품"}]},{"lat":"37.698407983","long":"127.18597056","items":[{"name":"주식회사케이앤케이컴퍼니","tel":"070-7570-9214","addr":"경기도 남양주시 오남읍 양지리 797-2번지 1층","category":"자동차판매 - 이륜차판매"}]},{"lat":"37.709907904","long":"127.20044678","items":[{"name":"진접축산","tel":"031-529-7970","addr":"경기도 남양주시 오남읍 양지리 244-7번지 외1필지","category":"음료식품 - 정육점"},{"name":"진접한우식당","tel":"031-529-5558","addr":"경기도 남양주시 오남읍 양지리 244-7번지 244-13","category":"일반휴게음식 - 일반한식"}]},{"lat":"37.703470199","long":"127.19242391","items":[{"name":"진호상사","tel":"031-574-7045","addr":"경기도 남양주시 오남읍 양지리 668-7번지","category":"자동차정비 유지 - 자동차부품"}]},{"lat":"37.70451919","long":"127.19559039","items":[{"name":"징검다리","tel":"031-574-4170","addr":"경기도 남양주시 오남읍 양지리 417-2","category":"보건위생 - 화장품"}]},{"lat":"37.704684259","long":"127.19381046","items":[{"name":"짱이네맛집","tel":"031-528-6777","addr":"경기도 남양주시 오남읍 양지리 444-2번지","category":"일반휴게음식 - 일반한식"},{"name":"최강푸드(왕실.돼발이)","tel":"031-573-4793","addr":"경기도 남양주시 오남읍 양지리 444-2번지 101호,102호","category":"일반휴게음식 - 일반한식"}]},{"lat":"37.702274503","long":"127.19081067","items":[{"name":"참프레시미트","tel":"031-527-0536","addr":"경기도 남양주시 오남읍 양지리 654번지 1층","category":"음료식품 - 정육점"}]},{"lat":"37.704465688","long":"127.19525005","items":[{"name":"창성셀프세차장","tel":"031-573-2205","addr":"경기도 남양주시 오남읍 양지리 417-11","category":"자동차정비 유지 - 세차장"}]},{"lat":"37.697992343","long":"127.20332922","items":[{"name":"창조자동차공업사","tel":"031-529-4411","addr":"경기도 남양주시 오남읍 양지리 96-21번지","category":"자동차정비 유지 - 자동차정비"}]},{"lat":"37.700212034","long":"127.20136219","items":[{"name":"청비PACK","tel":"031-529-8922","addr":"경기도 남양주시 오남읍 양지리 149-6","category":"유통업 영리 - 기타유통업"}]},{"lat":"37.70110295","long":"127.20197689","items":[{"name":"청포해물찜","tel":"031-529-5979","addr":"경기도 남양주시 오남읍 양지리 152-1번지","category":"일반휴게음식 - 일반한식"}]},{"lat":"37.704351949","long":"127.19316324","items":[{"name":"초연식당","tel":"031-573-5551","addr":"경기도 남양주시 오남읍 양지리 706-1번지","category":"일반휴게음식 - 일반한식"}]},{"lat":"37.704711563","long":"127.19364044","items":[{"name":"카페나즈","tel":"","addr":"경기도 남양주시 오남읍 양지리 444-12번지","category":"일반휴게음식 - 서양음식"}]},{"lat":"37.697656998","long":"127.20449621","items":[{"name":"카페이서","tel":"","addr":"경기도 남양주시 오남읍 양지리 93번지","category":"일반휴게음식 - 서양음식"}]},{"lat":"37.695915003","long":"127.19000093","items":[{"name":"케이엘컴퍼니","tel":"031-528-3725","addr":"경기도 남양주시 오남읍 양지리 595-1번지","category":"유통업 영리 - 기타유통업"}]},{"lat":"37.695103961","long":"127.19011227","items":[{"name":"코렉스","tel":"031-527-0074","addr":"경기도 남양주시 오남읍 양지리 591-7번지","category":"전기제품 - 가전제품"}]},{"lat":"37.698631103","long":"127.18733177","items":[{"name":"코이아메이드푸드 주식회사","tel":"031-575-9687","addr":"경기도 남양주시 오남읍 양지리 798번지 가동1층 ,나동1층,가동 2층 일부","category":"음료식품 - 기타음료식품"}]},{"lat":"37.708743995","long":"127.20144164","items":[{"name":"쿠쿠매트","tel":"","addr":"경기도 남양주시 오남읍 양지리 234번지 양지아파트","category":"신변잡화 - 기타잡화"}]},{"lat":"37.709079452","long":"127.20550243","items":[{"name":"쿨스포츠클럽","tel":"","addr":"경기도 남양주시 오남읍 양지리 15-36번지","category":"학원 - 예·체능계학원"}]},{"lat":"37.698882412","long":"127.1879447","items":[{"name":"큐브랙","tel":"070-4222-0330","addr":"경기도 남양주시 오남읍 양지리 799-1번지","category":"용역 서비스 - 종합용역"}]},{"lat":"37.707852507","long":"127.2011671","items":[{"name":"큰별생선구이전문점","tel":"031-573-6106","addr":"경기도 남양주시 오남읍 양지리 220번지","category":"일반휴게음식 - 일반한식"}]},{"lat":"37.706162787","long":"127.18755456","items":[{"name":"태극곡유리","tel":"031-572-0101","addr":"경기도 남양주시 오남읍 양지리 산47번지","category":"건축자재 - 유리"}]},{"lat":"37.701663348","long":"127.18986796","items":[{"name":"태양난방","tel":"031-574-2767","addr":"경기도 남양주시 오남읍 양지리 643-10번지","category":"전기제품 - 기타전기제품"}]},{"lat":"37.694214646","long":"127.18844332","items":[{"name":"토방푸드","tel":"","addr":"경기도 남양주시 오남읍 양지리 586번지","category":"음료식품 - 기타음료식품"}]},{"lat":"37.69788023","long":"127.20035816","items":[{"name":"토큰시연호프","tel":"031-575-0665","addr":"경기도 남양주시 오남읍 양지리 108번지 2층","category":"일반휴게음식 - 주점"},{"name":"향촌칡냉면","tel":"031-575-8841","addr":"경기도 남양주시 오남읍 양지리 108번지 1층","category":"일반휴게음식 - 일반한식"}]},{"lat":"37.705136677","long":"127.1926096","items":[{"name":"포도송이스튜디오","tel":"031-574-9939","addr":"경기도 남양주시 오남읍 양지리 696-2번지 1,2층","category":"광학제품 - 사진관"}]},{"lat":"37.703414221","long":"127.19361443","items":[{"name":"피자또올","tel":"031-528-4848","addr":"경기도 남양주시 오남읍 양지리 707-4","category":"일반휴게음식 - 서양음식"}]},{"lat":"37.694607983","long":"127.19039448","items":[{"name":"필립상사","tel":"031-528-6376","addr":"경기도 남양주시 오남읍 양지리 591-2번지","category":"가구 - 기타가구"}]},{"lat":"37.700656466","long":"127.19411763","items":[{"name":"하나마트 양지점","tel":"031-527-0030","addr":"경기도 남양주시 오남읍 양지리 470번지 (양지리 469-36,469-40,469-41,470,470-2,471-3)","category":"유통업 영리 - 슈퍼마켓"}]},{"lat":"37.707629319","long":"127.19447575","items":[{"name":"하늘숲어린이집","tel":"031-571-6770","addr":"경기도 남양주시 오남읍 양지리 341-7","category":"학원 - 유아원"}]},{"lat":"37.699250365","long":"127.19448821","items":[{"name":"한경전자","tel":"070-4332-9171","addr":"경기도 남양주시 오남읍 양지리 807번지 양지e편한세상1단지 108동 1901호","category":"용역 서비스 - 기타용역서비스"}]},{"lat":"37.701933975","long":"127.20600459","items":[{"name":"한국차살림협동조합","tel":"031-574-7748","addr":"경기도 남양주시 오남읍 양지리 42-13번지 대림환경 202호","category":"학원 - 기타 교육기관"}]},{"lat":"37.695491193","long":"127.19022663","items":[{"name":"한송전기로","tel":"031-574-4311","addr":"경기도 남양주시 오남읍 양지리 591-1번지","category":"전기제품 - 기타전기제품"}]},{"lat":"37.703795783","long":"127.19719875","items":[{"name":"행복한밥상","tel":"031-575-7174","addr":"경기도 남양주시 오남읍 양지리 434-1번지","category":"일반휴게음식 - 일반한식"}]},{"lat":"37.695882986","long":"127.19311892","items":[{"name":"향기마루","tel":"031-575-3552","addr":"경기도 남양주시 오남읍 양지리 607번지 나동 1층","category":"신변잡화 - 기타잡화"}]},{"lat":"37.6982973","long":"127.19878317","items":[{"name":"헤어스타일","tel":"031-551-0552","addr":"경기도 남양주시 오남읍 양지리 109번지 현대아파트 102호","category":"보건위생 - 미용원"}]},{"lat":"37.694275025","long":"127.1901442","items":[{"name":"현대정밀","tel":"031-529-0711","addr":"경기도 남양주시 오남읍 양지리 590번지","category":"기타 - 기계공구"}]},{"lat":"37.700464951","long":"127.20097733","items":[{"name":"현대철물","tel":"031-527-0955","addr":"경기도 남양주시 오남읍 양지리 124-8번지","category":"기타 - 기계공구"}]},{"lat":"37.698776284","long":"127.19236661","items":[{"name":"현모터스","tel":"031-529-5997","addr":"경기도 남양주시 오남읍 양지리 614-12번지","category":"자동차정비 유지 - 자동차정비"}]},{"lat":"37.690851688","long":"127.18994285","items":[{"name":"호룡특장","tel":"031-527-2431","addr":"경기도 남양주시 오남읍 양지리 543-3번지 나동 다동","category":"자동차정비 유지 - 중장비수리"}]},{"lat":"37.698129827","long":"127.19097029","items":[{"name":"호야 태권도장","tel":"031-574-2883","addr":"경기도 남양주시 오남읍 양지리 625-13번지","category":"학원 - 예·체능계학원"}]}]