[{"lat":"37.217542798","long":"126.71450492","items":[{"name":"(익투스)마산골","tel":"031-356-1503","addr":"경기도 화성시 송산면 사강리 391-22번지 1동 1층","category":"일반휴게음식 - 일반한식"}]},{"lat":"37.220324299","long":"126.72087139","items":[{"name":"(주)세계무역","tel":"031-453-6700","addr":"경기도 화성시 송산면 사강리 239-8","category":"건축자재 - 기타건축자재"}]},{"lat":"37.215436845","long":"126.73078126","items":[{"name":"(학)송산학원(송산중학교)","tel":"031-357-1020","addr":"경기도 화성시 송산면 사강리 551번지 1층","category":"학원 - 초중고교육기관"}]},{"lat":"37.21268261","long":"126.73602973","items":[{"name":"24시해장국","tel":"031-356-2377","addr":"경기도 화성시 송산면 사강리 664번지","category":"일반휴게음식 - 일반한식"},{"name":"중앙회센타","tel":"031-357-7219","addr":"경기도 화성시 송산면 사강리 664번지","category":"일반휴게음식 - 일식·회집"},{"name":"희망회센타","tel":"031-357-4802","addr":"경기도 화성시 송산면 사강리 664번지","category":"일반휴게음식 - 일반한식"}]},{"lat":"37.213323657","long":"126.73661329","items":[{"name":"2호상회","tel":"031-357-8209","addr":"경기도 화성시 송산면 사강리 657 102","category":"음료식품 - 농·축·수산품"},{"name":"목포홍탁","tel":"031-355-9470","addr":"경기도 화성시 송산면 사강리 657번지 112호","category":"일반휴게음식 - 일반한식"},{"name":"수아포차","tel":"031-357-9132","addr":"경기도 화성시 송산면 사강리 657번지 1층","category":"일반휴게음식 - 주점"},{"name":"신광명수산","tel":"031-355-3419","addr":"경기도 화성시 송산면 사강리 657번지 105호","category":"음료식품 - 농·축·수산품"},{"name":"옥이네","tel":"031-356-7850","addr":"경기도 화성시 송산면 사강리 657번지","category":"일반휴게음식 - 일반한식"},{"name":"우리집포장마차","tel":"031-1577-0000","addr":"경기도 화성시 송산면 사강리 657번지 1층 107호","category":"일반휴게음식 - 일반한식"},{"name":"전주수산","tel":"031-111-1111","addr":"경기도 화성시 송산면 사강리 657 103","category":"음료식품 - 농·축·수산품"},{"name":"줘마양다리구이","tel":"031-1111-1111","addr":"경기도 화성시 송산면 사강리 657번지","category":"일반휴게음식 - 일반한식"},{"name":"한마당","tel":"031-355-7993","addr":"경기도 화성시 송산면 사강리 657번지","category":"일반휴게음식 - 일반한식"}]},{"lat":"37.210049298","long":"126.73105971","items":[{"name":"365타이어","tel":"070-5022-4846","addr":"경기도 화성시 송산면 사강리 751-4번지","category":"자동차정비 유지 - 자동차시트·타이어"}]},{"lat":"37.21485279","long":"126.73544751","items":[{"name":"GG25편의점","tel":"031-356-4924","addr":"경기도 화성시 송산면 사강리 682-13번지 1층","category":"유통업 영리 - 편 의 점"},{"name":"특)삼립오산","tel":"031-356-4924","addr":"경기도 화성시 송산면 사강리 682-13번지 1층 101호","category":"음료식품 - 제과점"}]},{"lat":"37.21676406","long":"126.73592522","items":[{"name":"GS25송산공원로점","tel":"","addr":"경기도 화성시 송산면 사강리 590-1번지 1층","category":"유통업 영리 - 편 의 점"}]},{"lat":"37.213655973","long":"126.73613896","items":[{"name":"GS25송산포도점","tel":"","addr":"경기도 화성시 송산면 사강리 660-30번지","category":"유통업 영리 - 편 의 점"}]},{"lat":"37.214016282","long":"126.73609262","items":[{"name":"JAE 영어 공부방","tel":"031-357-0000","addr":"경기도 화성시 송산면 사강리 660-12번지","category":"학원 - 기타 교육기관"},{"name":"원(ONE)카페","tel":"","addr":"경기도 화성시 송산면 사강리 660-12번지","category":"일반휴게음식 - 서양음식"}]},{"lat":"37.213188073","long":"126.73642225","items":[{"name":"O.K수산","tel":"031-356-7730","addr":"경기도 화성시 송산면 사강리 663-1번지","category":"음료식품 - 농·축·수산품"},{"name":"우성수산","tel":"031-356-9587","addr":"경기도 화성시 송산면 사강리 663-1번지","category":"음료식품 - 농·축·수산품"},{"name":"함평천지수산","tel":"031-357-0037","addr":"경기도 화성시 송산면 사강리 663-1","category":"음료식품 - 농·축·수산품"}]},{"lat":"37.212966051","long":"126.73786505","items":[{"name":"SK텔레콤","tel":"031-357-6011","addr":"경기도 화성시 송산면 사강리 642-2번지","category":"사무통신 - 통신기기"},{"name":"이레꽃화원","tel":"031-357-4790","addr":"경기도 화성시 송산면 사강리 642-2번지","category":"문화.취미 - 화원"},{"name":"제비표페인트","tel":"031-357-7277","addr":"경기도 화성시 송산면 사강리 642-2","category":"건축자재 - 페인트"},{"name":"제일농원","tel":"031-357-1065","addr":"경기도 화성시 송산면 사강리 642-2번지","category":"농업 - 비료,사료,종자"}]},{"lat":"37.214600934","long":"126.73563992","items":[{"name":"가나종합설비공사","tel":"031-357-9965","addr":"경기도 화성시 송산면 사강리 682-4","category":"용역 서비스 - 기타용역서비스"}]},{"lat":"37.213686444","long":"126.73767101","items":[{"name":"감초약국","tel":"031-357-1415","addr":"경기도 화성시 송산면 사강리 646-4번지","category":"약국 - 약국"},{"name":"사강행운의BYC","tel":"031-357-0950","addr":"경기도 화성시 송산면 사강리 646-4","category":"의류 - 내의판매"}]},{"lat":"37.210159648","long":"126.72811905","items":[{"name":"강산골 전통 뼈해장국","tel":"031-355-1355","addr":"경기도 화성시 송산면 사강리 773-1번지","category":"일반휴게음식 - 일반한식"}]},{"lat":"37.213407756","long":"126.73795363","items":[{"name":"강치과의원","tel":"031-357-7669","addr":"경기도 화성시 송산면 사강리 643번지 2층","category":"의원 - 의원"},{"name":"동양안경","tel":"031-357-1002","addr":"경기도 화성시 송산면 사강리 643번지","category":"보건위생 - 안경"},{"name":"사강호프","tel":"031-355-7925","addr":"경기도 화성시 송산면 사강리 643번지 2층","category":"일반휴게음식 - 일반한식"},{"name":"세븐 노래연습장","tel":"031-357-8800","addr":"경기도 화성시 송산면 사강리 643번지 지하1층","category":"레저업소 - 노 래 방"},{"name":"수정그릇","tel":"031-357-0774","addr":"경기도 화성시 송산면 사강리 643번지","category":"주방용구 - 주방용식기"},{"name":"여우별헤어","tel":"031-357-1287","addr":"경기도 화성시 송산면 사강리 643번지 A동 1층일부","category":"보건위생 - 미용원"},{"name":"우리농장","tel":"031-57-1214","addr":"경기도 화성시 송산면 사강리 643번지","category":"음료식품 - 농·축·수산품"},{"name":"이디야 화성사강점","tel":"031-355-5801","addr":"경기도 화성시 송산면 사강리 643번지 A-1동 1층 일부","category":"일반휴게음식 - 서양음식"},{"name":"중심한의원","tel":"031-357-8205","addr":"경기도 화성시 송산면 사강리 643번지","category":"의원 - 한의원"},{"name":"태성노래연습장","tel":"031-357-6166","addr":"경기도 화성시 송산면 사강리 643번지","category":"레저업소 - 노 래 방"},{"name":"하얼빈샤브샤브","tel":"","addr":"경기도 화성시 송산면 사강리 643번지 B동 1층","category":"일반휴게음식 - 일반한식"},{"name":"한잔할까","tel":"","addr":"경기도 화성시 송산면 사강리 643번지 B동","category":"일반휴게음식 - 일반한식"}]},{"lat":"37.213737573","long":"126.73636399","items":[{"name":"거기해포장마차","tel":"031-357-9003","addr":"경기도 화성시 송산면 사강리 660-6번지 지하1층","category":"일반휴게음식 - 일반한식"},{"name":"더 레이디","tel":"","addr":"경기도 화성시 송산면 사강리 660-6번지 1층","category":"의류 - 정장"}]},{"lat":"37.211186451","long":"126.73186675","items":[{"name":"경남휀스","tel":"031-355-2007","addr":"경기도 화성시 송산면 사강리 732-1번지 1층","category":"건축자재 - 기타건축자재"},{"name":"신공구철물건재","tel":"031-357-4081","addr":"경기도 화성시 송산면 사강리 732-1","category":"기타 - 기계공구"}]},{"lat":"37.2143755","long":"126.73556186","items":[{"name":"경원미용실","tel":"031-357-1011","addr":"경기도 화성시 송산면 사강리 681-4 1층","category":"보건위생 - 미용원"},{"name":"백연스트레칭관리","tel":"031-357-4232","addr":"경기도 화성시 송산면 사강리 681-4 2층","category":"회원제형태 - 레져업소"},{"name":"수동족발","tel":"031-357-8879","addr":"경기도 화성시 송산면 사강리 681-4번지","category":"일반휴게음식 - 일반한식"}]},{"lat":"37.213349947","long":"126.73230965","items":[{"name":"고봉민김밥인 화성사강점","tel":"031-357-5698","addr":"경기도 화성시 송산면 사강리 708-7번지","category":"일반휴게음식 - 일반한식"},{"name":"더카페화성송산점","tel":"031-357-5985","addr":"경기도 화성시 송산면 사강리 708-7번지 1층","category":"일반휴게음식 - 서양음식"},{"name":"모영주헤어샵","tel":"031-355-0603","addr":"경기도 화성시 송산면 사강리 708-7번지","category":"보건위생 - 미용원"}]},{"lat":"37.213151727","long":"126.73628719","items":[{"name":"고포수산","tel":"031-356-7052","addr":"경기도 화성시 송산면 사강리 663-2번지","category":"음료식품 - 농·축·수산품"}]},{"lat":"37.213020235","long":"126.73392183","items":[{"name":"골프존파크 송산점","tel":"031-356-4240","addr":"경기도 화성시 송산면 사강리 694-8번지","category":"레저업소 - 스크린골프"},{"name":"로뎀웨딩홀부페","tel":"031-357-0752","addr":"경기도 화성시 송산면 사강리 694-8번지 8호","category":"일반휴게음식 - 일반한식"},{"name":"미래약국","tel":"031-355-0513","addr":"경기도 화성시 송산면 사강리 694-8번지","category":"약국 - 약국"},{"name":"서울 선내과의원","tel":"","addr":"경기도 화성시 송산면 사강리 694-8번지 2층","category":"의원 - 의원"}]},{"lat":"37.213545104","long":"126.73492263","items":[{"name":"광릉불고기 (화성송산점)","tel":"031-366-8592","addr":"경기도 화성시 송산면 사강리 673번지 1층 101호","category":"일반휴게음식 - 일반한식"},{"name":"앗싸노래연습장","tel":"","addr":"경기도 화성시 송산면 사강리 673번지 3층","category":"레저업소 - 노 래 방"}]},{"lat":"37.213321094","long":"126.73547545","items":[{"name":"구워더존치킨","tel":"031-355-1810","addr":"경기도 화성시 송산면 사강리 662-5번지 1층","category":"일반휴게음식 - 스넥"},{"name":"농업회사법인 주식회사 송산 바이오팜","tel":"031-355-4260","addr":"경기도 화성시 송산면 사강리 662-5번지 1층","category":"건강식품 - 기타건강식품"},{"name":"미니스톱 화성사강점","tel":"031-1577-9621","addr":"경기도 화성시 송산면 사강리 662-5번지","category":"유통업 영리 - 편 의 점"},{"name":"한가족장충동왕족발","tel":"031-357-0979","addr":"경기도 화성시 송산면 사강리 662-5번지 1층","category":"일반휴게음식 - 일반한식"}]},{"lat":"37.22584559","long":"126.72381424","items":[{"name":"국제의류","tel":"","addr":"경기도 화성시 송산면 사강리 68-6번지","category":"의류 - 정장"}]},{"lat":"37.214127695","long":"126.73755681","items":[{"name":"귀금속프라자","tel":"031-356-7226","addr":"경기도 화성시 송산면 사강리 628-5번지","category":"신변잡화 - 시계"},{"name":"모박사부대찌개","tel":"031-356-8278","addr":"경기도 화성시 송산면 사강리 628-5번지","category":"일반휴게음식 - 일반한식"}]},{"lat":"37.213460682","long":"126.73744648","items":[{"name":"김밥천국","tel":"031-357-5354","addr":"경기도 화성시 송산면 사강리 647-2번지 105동 106호","category":"일반휴게음식 - 일반한식"},{"name":"맛있으면 돼지","tel":"","addr":"경기도 화성시 송산면 사강리 647-2번지 1층 104호","category":"일반휴게음식 - 일반한식"},{"name":"본죽","tel":"031-357-6286","addr":"경기도 화성시 송산면 사강리 647-2번지 107호","category":"일반휴게음식 - 일반한식"}]},{"lat":"37.214016079","long":"126.7360025","items":[{"name":"까꼬뽀꼬","tel":"031-357-6849","addr":"경기도 화성시 송산면 사강리 660-11번지","category":"보건위생 - 미용원"}]},{"lat":"37.213131497","long":"126.73530713","items":[{"name":"깜박이수산","tel":"031-357-9018","addr":"경기도 화성시 송산면 사강리 673-5번지","category":"음료식품 - 농·축·수산품"},{"name":"송산닭갈비","tel":"031-357-4584","addr":"경기도 화성시 송산면 사강리 673-5번지 1층","category":"일반휴게음식 - 일반한식"},{"name":"홍희통닭","tel":"031-357-9018","addr":"경기도 화성시 송산면 사강리 673-5번지","category":"일반휴게음식 - 일반한식"}]},{"lat":"37.212599025","long":"126.73492598","items":[{"name":"깨비닭강정","tel":"031-366-8848","addr":"경기도 화성시 송산면 사강리 672-4번지","category":"일반휴게음식 - 일반한식"},{"name":"마포만두","tel":"031-357-1599","addr":"경기도 화성시 송산면 사강리 672-4번지 1층","category":"일반휴게음식 - 스넥"},{"name":"캔디 타바코","tel":"031-1111-1111","addr":"경기도 화성시 송산면 사강리 672-4번지 107호","category":"음료식품 - 기타음료식품"}]},{"lat":"37.214600324","long":"126.73536954","items":[{"name":"깨사랑","tel":"031-357-1011","addr":"경기도 화성시 송산면 사강리 681-2번지","category":"음료식품 - 기타음료식품"},{"name":"전나라","tel":"031-357-3889","addr":"경기도 화성시 송산면 사강리 681-2번지 1층 일부","category":"일반휴게음식 - 일반한식"},{"name":"제이(J)헤어샵","tel":"031-357-8113","addr":"경기도 화성시 송산면 사강리 681-2번지","category":"보건위생 - 미용원"},{"name":"태영생막창","tel":"031-357-1686","addr":"경기도 화성시 송산면 사강리 681-2번지 1층","category":"일반휴게음식 - 일반한식"}]},{"lat":"37.214517652","long":"126.73467134","items":[{"name":"꼬리빗","tel":"070-7848-9304","addr":"경기도 화성시 송산면 사강리 686-5번지 1층 일부","category":"보건위생 - 미용원"},{"name":"팬시선물코너","tel":"031-357-0646","addr":"경기도 화성시 송산면 사강리 686-5","category":"서적문구 - 문구용품"},{"name":"평화포목","tel":"031-357-0523","addr":"경기도 화성시 송산면 사강리 686-5","category":"직물 - 옷감·직물"}]},{"lat":"37.213712364","long":"126.73717522","items":[{"name":"꼼장어굴찜","tel":"031-357-7726","addr":"경기도 화성시 송산면 사강리 647-1번지 1층","category":"일반휴게음식 - 일반한식"},{"name":"대풍종묘","tel":"031-357-4782","addr":"경기도 화성시 송산면 사강리 647-1번지","category":"농업 - 비료,사료,종자"},{"name":"반달기획","tel":"031-357-4820","addr":"경기도 화성시 송산면 사강리 647-1번지","category":"용역 서비스 - 종합용역"},{"name":"에이스노래연습장","tel":"031-357-0203","addr":"경기도 화성시 송산면 사강리 647-1번지","category":"레저업소 - 노 래 방"},{"name":"에이스노래연습장","tel":"031-357-0203","addr":"경기도 화성시 송산면 사강리 647-1번지 B01호","category":"레저업소 - 노 래 방"},{"name":"에이스당구장","tel":"070-7320-9600","addr":"경기도 화성시 송산면 사강리 647-1번지 2층","category":"레저업소 - 당 구 장"},{"name":"투휘트니스(2FITNESS)","tel":"070-7320-9600","addr":"경기도 화성시 송산면 사강리 647-1번지 3층","category":"레저업소 - 헬스클럽"}]},{"lat":"37.214214559","long":"126.73611446","items":[{"name":"꼼지락","tel":"070-5056-0019","addr":"경기도 화성시 송산면 사강리 631-7번지 1층","category":"보건위생 - 피부미용실"},{"name":"샤넬","tel":"070-8184-8445","addr":"경기도 화성시 송산면 사강리 631-7번지","category":"의류 - 정장"}]},{"lat":"37.214211175","long":"126.7346161","items":[{"name":"꽃커피앤호프","tel":"031-357-3851","addr":"경기도 화성시 송산면 사강리 685-9번지","category":"일반휴게음식 - 일반한식"},{"name":"사강민속품판매","tel":"031-357-7553","addr":"경기도 화성시 송산면 사강리 685-9번지 3호","category":"문화.취미 - 민예·공예품"}]},{"lat":"37.21398948","long":"126.73619411","items":[{"name":"낙원강된장보리밥","tel":"031-355-3730","addr":"경기도 화성시 송산면 사강리 660-14번지","category":"일반휴게음식 - 일반한식"}]},{"lat":"37.214018764","long":"126.73719668","items":[{"name":"남산정육2호점","tel":"031-357-0535","addr":"경기도 화성시 송산면 사강리 631-1","category":"음료식품 - 정육점"},{"name":"사강전자마트","tel":"031-357-0660","addr":"경기도 화성시 송산면 사강리 631-1","category":"전기제품 - 기타전기제품"}]},{"lat":"37.214545371","long":"126.73497543","items":[{"name":"남양포목","tel":"031-357-2634","addr":"경기도 화성시 송산면 사강리 684-1번지","category":"직물 - 옷감·직물"}]},{"lat":"37.21329251","long":"126.73478834","items":[{"name":"내담해물갈비찜 송산점","tel":"031-357-9299","addr":"경기도 화성시 송산면 사강리 671-7번지","category":"일반휴게음식 - 일반한식"}]},{"lat":"37.213715213","long":"126.73844826","items":[{"name":"네잎크로BAR","tel":"031-356-5282","addr":"경기도 화성시 송산면 사강리 639-9번지","category":"일반휴게음식 - 일반한식"}]},{"lat":"37.213459368","long":"126.73686066","items":[{"name":"놀부곱창","tel":"031-357-8998","addr":"경기도 화성시 송산면 사강리 656-7번지 101호","category":"일반휴게음식 - 일반한식"},{"name":"돌판구이4900/주식회사 꽃별","tel":"","addr":"경기도 화성시 송산면 사강리 656-7번지 104호","category":"일반휴게음식 - 일반한식"},{"name":"삼이네","tel":"031-357-0850","addr":"경기도 화성시 송산면 사강리 656-7","category":"일반휴게음식 - 일반한식"},{"name":"이박사 찌개랑 볶음이랑","tel":"031-355-2427","addr":"경기도 화성시 송산면 사강리 656-7번지 103호","category":"일반휴게음식 - 일반한식"},{"name":"해피돈","tel":"031-357-0903","addr":"경기도 화성시 송산면 사강리 656-7","category":"일반휴게음식 - 일반한식"}]},{"lat":"37.209490873","long":"126.72725405","items":[{"name":"농업회사법인 넥스비(주)","tel":"070-7591-4880","addr":"경기도 화성시 송산면 사강리 467-17번지 진하우스 401호","category":"음료식품 - 농·축·수산품"}]},{"lat":"37.212071444","long":"126.72881059","items":[{"name":"농업회사법인 화성햇살드리포도(주)","tel":"031-357-7266","addr":"경기도 화성시 송산면 사강리 477번지 화성햇살드립포도","category":"음료식품 - 농·축·수산품"},{"name":"코리요 송산포도협동조합","tel":"031-357-4900","addr":"경기도 화성시 송산면 사강리 477번지","category":"음료식품 - 농·축·수산품"},{"name":"코리요유통","tel":"031-357-4900","addr":"경기도 화성시 송산면 사강리 477번지 1층","category":"음료식품 - 주류 판매점"}]},{"lat":"37.214767742","long":"126.73370157","items":[{"name":"누리유통","tel":"031-251-6126","addr":"경기도 화성시 송산면 사강리 688번지 외1필지","category":"음료식품 - 기타음료식품"},{"name":"미래카페","tel":"031-357-9442","addr":"경기도 화성시 송산면 사강리 688번지 1층","category":"일반휴게음식 - 일반한식"},{"name":"삼거리철물점","tel":"031-357-0631","addr":"경기도 화성시 송산면 사강리 688","category":"건축자재 - 목재·석재·철물"},{"name":"헤세드학원","tel":"031-357-8879","addr":"경기도 화성시 송산면 사강리 688 외1필지2층","category":"학원 - 보습학원"}]},{"lat":"37.212792987","long":"126.73703199","items":[{"name":"다비 축산물 도소매 직판장","tel":"031-356-0672","addr":"경기도 화성시 송산면 사강리 656-9번지","category":"음료식품 - 정육점"},{"name":"커피카페190","tel":"031-355-8652","addr":"경기도 화성시 송산면 사강리 656-9번지","category":"일반휴게음식 - 스넥"}]},{"lat":"37.213545486","long":"126.73509162","items":[{"name":"대림당구장","tel":"031-357-7407","addr":"경기도 화성시 송산면 사강리 673-10번지 강서빌딩 2층","category":"레저업소 - 당 구 장"},{"name":"삼거리통닭","tel":"031-357-0522","addr":"경기도 화성시 송산면 사강리 673-10번지 강서빌딩 1층","category":"일반휴게음식 - 스넥"}]},{"lat":"37.21310189","long":"126.73416939","items":[{"name":"대민족","tel":"","addr":"경기도 화성시 송산면 사강리 694-4번지 1층 3호","category":"일반휴게음식 - 일반한식"},{"name":"면사랑","tel":"031-357-1866","addr":"경기도 화성시 송산면 사강리 694-4번지 1층","category":"일반휴게음식 - 일반한식"}]},{"lat":"37.214902384","long":"126.73347577","items":[{"name":"대민카공업사","tel":"031-357-1639","addr":"경기도 화성시 송산면 사강리 569-28번지 1동","category":"자동차정비 유지 - 자동차정비"}]},{"lat":"37.213103855","long":"126.73503685","items":[{"name":"더 사강참치","tel":"031-355-1582","addr":"경기도 화성시 송산면 사강리 673-4번지 2층","category":"일반휴게음식 - 일식·회집"},{"name":"수원회집","tel":"031-357-5966","addr":"경기도 화성시 송산면 사강리 673-4번지","category":"일반휴게음식 - 일식·회집"},{"name":"자갈치회집","tel":"031-357-4922","addr":"경기도 화성시 송산면 사강리 673-4번지","category":"일반휴게음식 - 일식·회집"}]},{"lat":"37.213183366","long":"126.73433809","items":[{"name":"더네임(THE NAME)","tel":"031-366-9868","addr":"경기도 화성시 송산면 사강리 668-8번지 101호","category":"일반휴게음식 - 서양음식"},{"name":"옛날통닭","tel":"031-356-2191","addr":"경기도 화성시 송산면 사강리 668-8번지 우남빌딩 103호","category":"일반휴게음식 - 스넥"},{"name":"이마트24 화성송산점","tel":"","addr":"경기도 화성시 송산면 사강리 668-8번지 105호","category":"유통업 영리 - 편 의 점"}]},{"lat":"37.213292867","long":"126.73494606","items":[{"name":"도깨비부대찌개","tel":"031-357-1214","addr":"경기도 화성시 송산면 사강리 673-3번지 1층","category":"일반휴게음식 - 일반한식"}]},{"lat":"37.214349104","long":"126.7358436","items":[{"name":"도도헤어","tel":"031-8058-6005","addr":"경기도 화성시 송산면 사강리 681-1번지 1층","category":"보건위생 - 미용원"},{"name":"한나인테리어","tel":"031-357-0638","addr":"경기도 화성시 송산면 사강리 681-1번지","category":"직물 - 카페트,커튼,천막,지물"}]},{"lat":"37.214991152","long":"126.73288962","items":[{"name":"도레미피아노학원","tel":"031-357-1464","addr":"경기도 화성시 송산면 사강리 567-9번지 3층","category":"학원 - 예·체능계학원"},{"name":"에이블학원","tel":"070-5025-9164","addr":"경기도 화성시 송산면 사강리 567-9번지 대흥빌딩 1층","category":"학원 - 보습학원"},{"name":"하늘소리피아노학원","tel":"031-357-0201","addr":"경기도 화성시 송산면 사강리 567-9번지 1층","category":"학원 - 예·체능계학원"}]},{"lat":"37.213542658","long":"126.7378405","items":[{"name":"도문식당","tel":"031-366-8868","addr":"경기도 화성시 송산면 사강리 645-2번지","category":"일반휴게음식 - 일반한식"},{"name":"여기정육점","tel":"031-357-6924","addr":"경기도 화성시 송산면 사강리 645-2번지","category":"음료식품 - 정육점"},{"name":"와봐","tel":"031-357-6924","addr":"경기도 화성시 송산면 사강리 645-2번지","category":"일반휴게음식 - 일반한식"},{"name":"하우스콜","tel":"031-356-5878","addr":"경기도 화성시 송산면 사강리 645-2번지","category":"일반휴게음식 - 스넥"}]},{"lat":"37.216796625","long":"126.73839244","items":[{"name":"도서관옆작은카페 테힐라","tel":"031-8043-7729","addr":"경기도 화성시 송산면 사강리 625-7번지","category":"일반휴게음식 - 일반한식"}]},{"lat":"37.216983836","long":"126.7295702","items":[{"name":"돈가","tel":"031-357-7531","addr":"경기도 화성시 송산면 사강리 303-4번지 가동 1층 103호","category":"일반휴게음식 - 일반한식"}]},{"lat":"37.213298321","long":"126.73736819","items":[{"name":"돔방노래연습장","tel":"031-356-2179","addr":"경기도 화성시 송산면 사강리 647-7번지 지하1층","category":"레저업소 - 노 래 방"},{"name":"사강중국식품","tel":"070-8874-9840","addr":"경기도 화성시 송산면 사강리 647-7번지","category":"음료식품 - 기타음료식품"},{"name":"송산사강한의원","tel":"031-356-4024","addr":"경기도 화성시 송산면 사강리 647-7번지 한진빌딩 201호","category":"의원 - 한의원"},{"name":"송산한정식","tel":"031-357-5758","addr":"경기도 화성시 송산면 사강리 647-7번지 한진빌딩 1층","category":"일반휴게음식 - 일반한식"},{"name":"웰빙","tel":"031-355-8249","addr":"경기도 화성시 송산면 사강리 647-7번지 한진빌딩 3층 301호","category":"보건위생 - 기타대인서비스"},{"name":"지우정보통신","tel":"031-357-5600","addr":"경기도 화성시 송산면 사강리 647-7번지 1층","category":"사무통신 - 통신기기"},{"name":"파리바게트 화성사강점","tel":"031-357-0459","addr":"경기도 화성시 송산면 사강리 647-7번지 1,2층(외 1필지(648-2호))","category":"음료식품 - 제과점"}]},{"lat":"37.216826623","long":"126.73569967","items":[{"name":"동백호","tel":"","addr":"경기도 화성시 송산면 사강리 590번지 현대월드빌 A동 202호","category":"레저업소 - 기타레져업소"}]},{"lat":"37.211681268","long":"126.73153828","items":[{"name":"두산농약.농자재","tel":"031-357-5066","addr":"경기도 화성시 송산면 사강리 732번지","category":"농업 - 비료,사료,종자"}]},{"lat":"37.213293554","long":"126.73525023","items":[{"name":"라이빠","tel":"031-901-6774","addr":"경기도 화성시 송산면 사강리 673-12번지","category":"일반휴게음식 - 주점"}]},{"lat":"37.213962779","long":"126.73634066","items":[{"name":"럭셔리","tel":"031-111-1111","addr":"경기도 화성시 송산면 사강리 660-3번지","category":"의류 - 정장"},{"name":"오솔길","tel":"031-355-5171","addr":"경기도 화성시 송산면 사강리 660-3","category":"일반휴게음식 - 일반한식"}]},{"lat":"37.213270153","long":"126.73686133","items":[{"name":"럭키마트 정육코너","tel":"031-357-8045","addr":"경기도 화성시 송산면 사강리 656-8번지","category":"음료식품 - 정육점"},{"name":"럭키수산코너","tel":"031-357-7254","addr":"경기도 화성시 송산면 사강리 656-8번지","category":"음료식품 - 농·축·수산품"}]},{"lat":"37.212326879","long":"126.73411581","items":[{"name":"레인보우호","tel":"031-357-7743","addr":"경기도 화성시 송산면 사강리 667-1번지","category":"레저업소 - 기타레져업소"}]},{"lat":"37.212240602","long":"126.73184045","items":[{"name":"롯데리아 화성사강D/T점","tel":"031-357-4723","addr":"경기도 화성시 송산면 사강리 736-8번지","category":"일반휴게음식 - 서양음식"}]},{"lat":"37.213490149","long":"126.73452852","items":[{"name":"리얼호프","tel":"070-8947-4490","addr":"경기도 화성시 송산면 사강리 670-3번지 2층","category":"일반휴게음식 - 주점"},{"name":"할머니밥상","tel":"031-357-8215","addr":"경기도 화성시 송산면 사강리 670-3번지","category":"일반휴게음식 - 일반한식"}]},{"lat":"37.214457659","long":"126.73603474","items":[{"name":"마담보바리","tel":"070-4690-1036","addr":"경기도 화성시 송산면 사강리 630-2번지","category":"의류 - 정장"}]},{"lat":"37.213322922","long":"126.73628658","items":[{"name":"마산식당","tel":"031-357-5001","addr":"경기도 화성시 송산면 사강리 661-2번지","category":"일반휴게음식 - 일반한식"},{"name":"메카PC방","tel":"031-366-7809","addr":"경기도 화성시 송산면 사강리 661-2번지","category":"레저업소 - 기타레져업소"},{"name":"송산그린한의원","tel":"031-355-7089","addr":"경기도 화성시 송산면 사강리 661-2번지 2층","category":"의원 - 한의원"},{"name":"처갓집양념치킨 송산점","tel":"031-357-2353","addr":"경기도 화성시 송산면 사강리 661-2번지","category":"일반휴게음식 - 스넥"}]},{"lat":"37.214597238","long":"126.7380058","items":[{"name":"마이다스옷수선전문","tel":"031-356-6830","addr":"경기도 화성시 송산면 사강리 635-4번지 101호","category":"수리서비스 - 세탁소"}]},{"lat":"37.211627465","long":"126.73165113","items":[{"name":"마포굴다리 사강점","tel":"031-356-5570","addr":"경기도 화성시 송산면 사강리 732번지 3동","category":"일반휴게음식 - 일반한식"}]},{"lat":"37.217907117","long":"126.7275051","items":[{"name":"메리그린(Merry grin)","tel":"031-357-7200","addr":"경기도 화성시 송산면 사강리 340-3 3/","category":"문화.취미 - 화원"}]},{"lat":"37.212875191","long":"126.7375274","items":[{"name":"명성숯불양꼬치","tel":"031-355-5869","addr":"경기도 화성시 송산면 사강리 648번지 1층 102호","category":"일반휴게음식 - 중국식"},{"name":"사천마라탕면식","tel":"","addr":"경기도 화성시 송산면 사강리 648번지","category":"일반휴게음식 - 일반한식"},{"name":"왕십리곱창","tel":"031-355-3133","addr":"경기도 화성시 송산면 사강리 648번지","category":"일반휴게음식 - 스넥"},{"name":"피싱&또또&토토샵","tel":"031-236-8252","addr":"경기도 화성시 송산면 사강리 648번지","category":"문화.취미 - 애완동물"},{"name":"피싱&또또&토토샵","tel":"031-356-2737","addr":"경기도 화성시 송산면 사강리 648번지 104호","category":"문화.취미 - 애완동물"}]},{"lat":"37.214214255","long":"126.73597927","items":[{"name":"명성호프","tel":"","addr":"경기도 화성시 송산면 사강리 631-8번지","category":"일반휴게음식 - 주점"}]},{"lat":"37.213458893","long":"126.73266977","items":[{"name":"명신건축설비","tel":"","addr":"경기도 화성시 송산면 사강리 700-10번지","category":"건축자재 - 인테리어전문"}]},{"lat":"37.220458972","long":"126.72447629","items":[{"name":"명태본가","tel":"031-355-2628","addr":"경기도 화성시 송산면 사강리 267-1번지","category":"일반휴게음식 - 일반한식"}]},{"lat":"37.213630386","long":"126.7367812","items":[{"name":"명품노래연습장","tel":"031-355-9584","addr":"경기도 화성시 송산면 사강리 659-3번지 2층","category":"레저업소 - 노 래 방"},{"name":"술퍼맨","tel":"02-355-5536","addr":"경기도 화성시 송산면 사강리 659-3번지","category":"일반휴게음식 - 주점"},{"name":"아지트실내포장마차","tel":"031-357-5163","addr":"경기도 화성시 송산면 사강리 659-3번지 1층","category":"일반휴게음식 - 주점"},{"name":"프리박스","tel":"031-357-0095","addr":"경기도 화성시 송산면 사강리 659-3번지 1층 1호","category":"일반휴게음식 - 서양음식"},{"name":"프리박스","tel":"031-357-0095","addr":"경기도 화성시 송산면 사강리 659-3번지","category":"일반휴게음식 - 주점"}]},{"lat":"37.213739931","long":"126.73342358","items":[{"name":"무지개 카. 세차장","tel":"031-355-8713","addr":"경기도 화성시 송산면 사강리 698-4번지","category":"자동차정비 유지 - 세차장"}]},{"lat":"37.214403597","long":"126.73603493","items":[{"name":"뮬(mule)","tel":"070-8991-0652","addr":"경기도 화성시 송산면 사강리 631-2","category":"의류 - 정장"}]},{"lat":"37.213075282","long":"126.73836036","items":[{"name":"미래광고기획","tel":"031-357-7372","addr":"경기도 화성시 송산면 사강리 641-6번지","category":"용역 서비스 - 사무서비스"}]},{"lat":"37.213295131","long":"126.73594871","items":[{"name":"미소한의원","tel":"031-357-9409","addr":"경기도 화성시 송산면 사강리 662-2번지 4층","category":"의원 - 한의원"}]},{"lat":"37.209380933","long":"126.73036366","items":[{"name":"미스터마트 송산대로점","tel":"031-356-5475","addr":"경기도 화성시 송산면 사강리 765-2번지","category":"유통업 영리 - 슈퍼마켓"}]},{"lat":"37.213683714","long":"126.7364543","items":[{"name":"민규네 수제돈까스","tel":"031-357-5653","addr":"경기도 화성시 송산면 사강리 660-8번지 1층","category":"일반휴게음식 - 서양음식"},{"name":"송죽식당","tel":"031-357-0942","addr":"경기도 화성시 송산면 사강리 660-8번지","category":"일반휴게음식 - 일반한식"}]},{"lat":"37.214014275","long":"126.73520262","items":[{"name":"민속건강원","tel":"031-357-6930","addr":"경기도 화성시 송산면 사강리 679-4","category":"건강식품 - 기타건강식품"}]},{"lat":"37.214186843","long":"126.73581037","items":[{"name":"민속떡집","tel":"031-357-4469","addr":"경기도 화성시 송산면 사강리 681-7","category":"음료식품 - 제과점"},{"name":"초원","tel":"031-356-4584","addr":"경기도 화성시 송산면 사강리 681-7번지","category":"일반휴게음식 - 주점"}]},{"lat":"37.209239109","long":"126.72748027","items":[{"name":"바다양푼이 동대탕","tel":"031-357-0388","addr":"경기도 화성시 송산면 사강리 467-6번지 1층","category":"일반휴게음식 - 일반한식"}]},{"lat":"37.213958125","long":"126.73033594","items":[{"name":"바로보일러","tel":"031-1577-0392","addr":"경기도 화성시 송산면 사강리 542-6번지 1층","category":"건축자재 - 보일러·펌프·샷시"}]},{"lat":"37.213738763","long":"126.73689348","items":[{"name":"박정희포차","tel":"","addr":"경기도 화성시 송산면 사강리 659-1번지","category":"일반휴게음식 - 일반한식"},{"name":"여행","tel":"070-7614-2279","addr":"경기도 화성시 송산면 사강리 659-1번지","category":"의류 - 정장"},{"name":"콜노래방","tel":"070-8947-4490","addr":"경기도 화성시 송산면 사강리 659-1번지","category":"레저업소 - 노 래 방"}]},{"lat":"37.215186829","long":"126.72786424","items":[{"name":"반석생수유통","tel":"031-357-7523","addr":"경기도 화성시 송산면 사강리 314-3번지","category":"음료식품 - 기타음료식품"}]},{"lat":"37.212489754","long":"126.73441941","items":[{"name":"베이커리(Bakery)","tel":"031-355-8484","addr":"경기도 화성시 송산면 사강리 667-4번지","category":"음료식품 - 제과점"}]},{"lat":"37.213602798","long":"126.73653345","items":[{"name":"별이네","tel":"031-357-9932","addr":"경기도 화성시 송산면 사강리 659-2번지","category":"일반휴게음식 - 일반한식"}]},{"lat":"37.213130427","long":"126.73483397","items":[{"name":"본가곰탕","tel":"031-357-5897","addr":"경기도 화성시 송산면 사강리 671-2번지 1층","category":"일반휴게음식 - 일반한식"}]},{"lat":"37.213099689","long":"126.73320054","items":[{"name":"봉가우리밀손칼국수","tel":"031-357-5798","addr":"경기도 화성시 송산면 사강리 696-3번지 105호","category":"일반휴게음식 - 일반한식"},{"name":"비비큐(BBQ)","tel":"031-356-5464","addr":"경기도 화성시 송산면 사강리 696-3번지 106,107호","category":"일반휴게음식 - 스넥"},{"name":"세븐일레븐화성사강로점","tel":"031-1577-0711","addr":"경기도 화성시 송산면 사강리 696-3번지 101호","category":"유통업 영리 - 편 의 점"}]},{"lat":"37.214346023","long":"126.73448043","items":[{"name":"뷰티모아, 피부&네일샵","tel":"031-357-8868","addr":"경기도 화성시 송산면 사강리 686-4번지 4동 1층일부","category":"보건위생 - 피부미용실"},{"name":"소림식당","tel":"031-357-1420","addr":"경기도 화성시 송산면 사강리 686-4","category":"일반휴게음식 - 일반한식"}]},{"lat":"37.212569044","long":"126.73761859","items":[{"name":"비너스가게","tel":"031-000-0000","addr":"경기도 화성시 송산면 사강리 649-3번지 2층","category":"보건위생 - 화장품"}]},{"lat":"37.215687284","long":"126.72609363","items":[{"name":"비손조립식판넬","tel":"031-356-7790","addr":"경기도 화성시 송산면 사강리 334-5번지","category":"건축자재 - 기타건축자재"}]},{"lat":"37.213624733","long":"126.73827959","items":[{"name":"빵구네볏짚닭발(사강점)","tel":"031-355-5071","addr":"경기도 화성시 송산면 사강리 639-10번지 1층","category":"일반휴게음식 - 일반한식"}]},{"lat":"37.211376929","long":"126.73241808","items":[{"name":"사강 유공압 호스","tel":"031-366-8868","addr":"경기도 화성시 송산면 사강리 726-1번지 1층 1호","category":"기타 - 기계공구"}]},{"lat":"37.21449006","long":"126.73442359","items":[{"name":"사강농원","tel":"031-357-0639","addr":"경기도 화성시 송산면 사강리 687-1번지","category":"농업 - 비료,사료,종자"}]},{"lat":"37.213652568","long":"126.73864","items":[{"name":"사강모타펌프","tel":"031-357-0902","addr":"경기도 화성시 송산면 사강리 639-2번지 102호","category":"수리서비스 - 기타수리서비스"},{"name":"오복떡집","tel":"031-357-7260","addr":"경기도 화성시 송산면 사강리 639-2번지 오복떡집","category":"음료식품 - 제과점"},{"name":"천하종합사료","tel":"031-357-6771","addr":"경기도 화성시 송산면 사강리 639-2번지 2층","category":"문화.취미 - 애완동물"}]},{"lat":"37.214158871","long":"126.73539363","items":[{"name":"사강순대국","tel":"031-357-1039","addr":"경기도 화성시 송산면 사강리 684-7번지 1층","category":"일반휴게음식 - 일반한식"}]},{"lat":"37.212209924","long":"126.73419509","items":[{"name":"사강아울렛세차장","tel":"031-000-0000","addr":"경기도 화성시 송산면 사강리 667-6번지","category":"자동차정비 유지 - 세차장"}]},{"lat":"37.214321536","long":"126.73164148","items":[{"name":"사강어린이집[아이행복]","tel":"031-357-5755","addr":"경기도 화성시 송산면 사강리 705-4번지","category":"학원 - 유아원"}]},{"lat":"37.214964763","long":"126.73317137","items":[{"name":"사강엘림피아노학원","tel":"031-357-4346","addr":"경기도 화성시 송산면 사강리 567-2번지 3층","category":"학원 - 예·체능계학원"},{"name":"세븐일레븐화성사강점","tel":"","addr":"경기도 화성시 송산면 사강리 567-2번지","category":"유통업 영리 - 편 의 점"},{"name":"스칼렛영어학원","tel":"031-357-6965","addr":"경기도 화성시 송산면 사강리 567-2번지 301호","category":"학원 - 보습학원"},{"name":"용인대석사 사강체육관","tel":"031-357-6592","addr":"경기도 화성시 송산면 사강리 567-2번지 302호","category":"학원 - 예·체능계학원"},{"name":"파란수학전문학원","tel":"031-257-0360","addr":"경기도 화성시 송산면 사강리 567-2번지 201호","category":"학원 - 보습학원"}]},{"lat":"37.212572121","long":"126.7349824","items":[{"name":"사강유통","tel":"031-357-1600","addr":"경기도 화성시 송산면 사강리 666","category":"음료식품 - 정육점"}]},{"lat":"37.211794765","long":"126.73789168","items":[{"name":"사강타일","tel":"031-356-6785","addr":"경기도 화성시 송산면 사강리 649-12번지","category":"건축자재 - 건축용 요업제품"}]},{"lat":"37.212847681","long":"126.73731344","items":[{"name":"사강프라자약국","tel":"031-356-5132","addr":"경기도 화성시 송산면 사강리 647-3번지","category":"약국 - 약국"}]},{"lat":"37.212737483","long":"126.73639004","items":[{"name":"사강회집","tel":"031-357-9805","addr":"경기도 화성시 송산면 사강리 663-4번지 1층","category":"일반휴게음식 - 일반한식"},{"name":"신선수산","tel":"031-357-4054","addr":"경기도 화성시 송산면 사강리 663-4번지","category":"음료식품 - 농·축·수산품"},{"name":"신선횟집","tel":"031-357-4054","addr":"경기도 화성시 송산면 사강리 663-4번지","category":"일반휴게음식 - 일식·회집"}]},{"lat":"37.214437452","long":"126.73506593","items":[{"name":"사랑담은분식","tel":"031-357-0537","addr":"경기도 화성시 송산면 사강리 684-3번지","category":"일반휴게음식 - 스넥"},{"name":"크리닝화이트","tel":"031-357-7566","addr":"경기도 화성시 송산면 사강리 684-3번지","category":"수리서비스 - 세탁소"}]},{"lat":"37.212575247","long":"126.73636808","items":[{"name":"산더미숯불구이","tel":"031-357-1888","addr":"경기도 화성시 송산면 사강리 655-2번지 1층","category":"일반휴게음식 - 일반한식"}]},{"lat":"37.222488474","long":"126.72158443","items":[{"name":"샌드리버","tel":"031-366-8339","addr":"경기도 화성시 송산면 사강리 135-3번지","category":"일반휴게음식 - 일반한식"}]},{"lat":"37.213739875","long":"126.73738918","items":[{"name":"샘터떡집","tel":"031-357-6914","addr":"경기도 화성시 송산면 사강리 646-3번지","category":"음료식품 - 제과점"},{"name":"우진집수리전기철물","tel":"031-357-3674","addr":"경기도 화성시 송산면 사강리 646-3","category":"건축자재 - 목재·석재·철물"}]},{"lat":"37.214074264","long":"126.73783864","items":[{"name":"서울사진관","tel":"031-357-0914","addr":"경기도 화성시 송산면 사강리 634-9","category":"광학제품 - 사진관"}]},{"lat":"37.213434964","long":"126.73403302","items":[{"name":"서울상사","tel":"031-357-7047","addr":"경기도 화성시 송산면 사강리 694-1번지","category":"자동차정비 유지 - 자동차부품"}]},{"lat":"37.212681187","long":"126.73539885","items":[{"name":"성화종합상사","tel":"031-357-5022","addr":"경기도 화성시 송산면 사강리 665-5번지","category":"건축자재 - 조명기구"},{"name":"유신철공소","tel":"031-3570-2795","addr":"경기도 화성시 송산면 사강리 665-5","category":"건축자재 - 목재·석재·철물"}]},{"lat":"37.215408338","long":"126.7301392","items":[{"name":"세븐뚝배기","tel":"031-357-7406","addr":"경기도 화성시 송산면 사강리 552-6번지","category":"일반휴게음식 - 일반한식"}]},{"lat":"37.21454093","long":"126.73700332","items":[{"name":"소향","tel":"031-355-0004","addr":"경기도 화성시 송산면 사강리 629번지","category":"일반휴게음식 - 중국식"},{"name":"송산유통","tel":"031-357-6235","addr":"경기도 화성시 송산면 사강리 629번지 송산체육사","category":"레져용품 - 스포츠·레져용품"}]},{"lat":"37.213075896","long":"126.73067708","items":[{"name":"솔마루","tel":"031-357-5892","addr":"경기도 화성시 송산면 사강리 521-1번지","category":"일반휴게음식 - 일반한식"}]},{"lat":"37.213741185","long":"126.7339756","items":[{"name":"송산24시사우나 매점","tel":"032-866-1275","addr":"경기도 화성시 송산면 사강리 693-5번지 필라델피아","category":"음료식품 - 기타음료식품"}]},{"lat":"37.214764186","long":"126.73611252","items":[{"name":"송산국수집","tel":"031-356-5305","addr":"경기도 화성시 송산면 사강리 630-1번지","category":"일반휴게음식 - 일반한식"}]},{"lat":"37.21412714","long":"126.73730896","items":[{"name":"송산농원","tel":"031-357-0735","addr":"경기도 화성시 송산면 사강리 632-2","category":"농업 - 비료,사료,종자"},{"name":"영생기름집","tel":"031-355-1128","addr":"경기도 화성시 송산면 사강리 632-2번지","category":"음료식품 - 기타음료식품"}]},{"lat":"37.214074088","long":"126.73775978","items":[{"name":"송산약국","tel":"031-355-0217","addr":"경기도 화성시 송산면 사강리 634-5번지 102호","category":"약국 - 약국"},{"name":"아서원","tel":"031-357-0164","addr":"경기도 화성시 송산면 사강리 634-5번지","category":"일반휴게음식 - 중국식"}]},{"lat":"37.213159596","long":"126.7357802","items":[{"name":"송산월드마트","tel":"031-357-2788","addr":"경기도 화성시 송산면 사강리 662-8번지","category":"유통업 영리 - 슈퍼마켓"}]},{"lat":"37.214323776","long":"126.73262162","items":[{"name":"송산초등학교병설유치원[아이행복]","tel":"031-357-6160","addr":"경기도 화성시 송산면 사강리 701번지 송산초등학교","category":"학원 - 유치원"}]},{"lat":"37.21270865","long":"126.73559027","items":[{"name":"송산포도횟집","tel":"031-357-8839","addr":"경기도 화성시 송산면 사강리 665-4번지","category":"일반휴게음식 - 일반한식"}]},{"lat":"37.211870561","long":"126.7315714","items":[{"name":"송산한식부페","tel":"031-355-3128","addr":"경기도 화성시 송산면 사강리 732번지 1동","category":"일반휴게음식 - 일반한식"}]},{"lat":"37.213652346","long":"126.73058489","items":[{"name":"수연배관테크","tel":"031-8059-1272","addr":"경기도 화성시 송산면 사강리 545-11번지 1층","category":"건축자재 - 기타건축자재"},{"name":"태화미용실","tel":"031-355-4747","addr":"경기도 화성시 송산면 사강리 545-11번지","category":"보건위생 - 미용원"}]},{"lat":"37.214237133","long":"126.73414283","items":[{"name":"수진","tel":"031-357-3934","addr":"경기도 화성시 송산면 사강리 687-5번지 1층","category":"일반휴게음식 - 주점"}]},{"lat":"37.213463302","long":"126.73861812","items":[{"name":"스마트창호","tel":"","addr":"경기도 화성시 송산면 사강리 640-4번지","category":"용역 서비스 - 기타용역서비스"},{"name":"정다운재가복지센터","tel":"031-357-5840","addr":"경기도 화성시 송산면 사강리 640-4번지 2,3층","category":"기타의료기관 - 기타의료기관 및 기타"}]},{"lat":"37.217317871","long":"126.71464098","items":[{"name":"스위스모텔","tel":"","addr":"경기도 화성시 송산면 사강리 391-23번지","category":"숙박업 - 여관/기타숙박업"}]},{"lat":"37.219935529","long":"126.72411768","items":[{"name":"시골미꾸리매운탕","tel":"031-366-9021","addr":"경기도 화성시 송산면 사강리 265-5번지 1층","category":"일반휴게음식 - 일반한식"}]},{"lat":"37.214183379","long":"126.73427821","items":[{"name":"시크릿","tel":"031-357-4151","addr":"경기도 화성시 송산면 사강리 686-3번지","category":"일반휴게음식 - 주점"},{"name":"천신암(경신연합회)","tel":"031-357-6678","addr":"경기도 화성시 송산면 사강리 686-3번지 1층","category":"보건위생 - 기타대인서비스"}]},{"lat":"37.215518939","long":"126.73517477","items":[{"name":"신흥식당","tel":"031-357-1523","addr":"경기도 화성시 송산면 사강리 603-2번지","category":"일반휴게음식 - 일반한식"}]},{"lat":"37.214243161","long":"126.73681285","items":[{"name":"아모르","tel":"031-356-5913","addr":"경기도 화성시 송산면 사강리 631-3","category":"의류 - 정장"},{"name":"원풍종합유통","tel":"031-357-7970","addr":"경기도 화성시 송산면 사강리 631-3번지","category":"유통업 영리 - 슈퍼마켓"},{"name":"지짐이","tel":"031-357-1897","addr":"경기도 화성시 송산면 사강리 631-3번지","category":"일반휴게음식 - 일반한식"}]},{"lat":"37.219963408","long":"126.72447812","items":[{"name":"아이지에이마트(IGA MART) 송산사강점","tel":"","addr":"경기도 화성시 송산면 사강리 265-17번지 1층","category":"유통업 영리 - 편 의 점"}]},{"lat":"37.213736888","long":"126.73605981","items":[{"name":"애드윈","tel":"031-356-5773","addr":"경기도 화성시 송산면 사강리 660-23번지 B동 202호","category":"서적문구 - 출판 및 인쇄물"},{"name":"요거프레소 화성사강점","tel":"070-7404-1468","addr":"경기도 화성시 송산면 사강리 660-23번지","category":"일반휴게음식 - 서양음식"}]},{"lat":"37.214098237","long":"126.73647538","items":[{"name":"에스제이비학원","tel":"031-355-7768","addr":"경기도 화성시 송산면 사강리 631-4번지","category":"학원 - 보습학원"}]},{"lat":"37.213152672","long":"126.73272719","items":[{"name":"에이스학생복","tel":"031-357-1027","addr":"경기도 화성시 송산면 사강리 697-13번지 1층","category":"의류 - 단체복"}]},{"lat":"37.215908097","long":"126.71664046","items":[{"name":"엘세븐카팩토리(L7 CAR FACTORY)","tel":"031-356-0701","addr":"경기도 화성시 송산면 사강리 391-53번지 (2)","category":"자동차정비 유지 - 카인테리어"}]},{"lat":"37.214072219","long":"126.73692611","items":[{"name":"여진헤어팜므","tel":"070-7531-7987","addr":"경기도 화성시 송산면 사강리 631-10번지","category":"보건위생 - 미용원"},{"name":"오로라","tel":"031-357-0708","addr":"경기도 화성시 송산면 사강리 631-10번지","category":"일반휴게음식 - 주점"},{"name":"태후사랑","tel":"031-357-7735","addr":"경기도 화성시 송산면 사강리 631-10번지","category":"보건위생 - 미용원"}]},{"lat":"37.213874852","long":"126.73730984","items":[{"name":"연세홍내과","tel":"031-357-1150","addr":"경기도 화성시 송산면 사강리 632-3","category":"의원 - 의원"}]},{"lat":"37.214936474","long":"126.73261943","items":[{"name":"예일학원","tel":"070-8170-4120","addr":"경기도 화성시 송산면 사강리 567-11번지 101호","category":"학원 - 보습학원"},{"name":"카스토 영어 교습소","tel":"070-8170-4120","addr":"경기도 화성시 송산면 사강리 567-11번지 은혜빌딩 1층 102호","category":"학원 - 외국어학원"}]},{"lat":"37.210347154","long":"126.73128395","items":[{"name":"오케이광고기획","tel":"","addr":"경기도 화성시 송산면 사강리 746-2번지","category":"유통업 영리 - 기타유통업"}]},{"lat":"37.214904226","long":"126.73428693","items":[{"name":"옷빨","tel":"031-358-2044","addr":"경기도 화성시 송산면 사강리 569-14번지 1층","category":"의류 - 정장"}]},{"lat":"37.213936989","long":"126.73689278","items":[{"name":"우리동네생활용품이랑광고","tel":"031-357-1233","addr":"경기도 화성시 송산면 사강리 631-14번지","category":"신변잡화 - 기타잡화"}]},{"lat":"37.212405925","long":"126.73720233","items":[{"name":"우리종합상사","tel":"031-335-0088","addr":"경기도 화성시 송산면 사강리 652-6번지","category":"건축자재 - 목재·석재·철물"}]},{"lat":"37.223571441","long":"126.72231279","items":[{"name":"우성정밀","tel":"031-356-8742","addr":"경기도 화성시 송산면 사강리 135-9번지","category":"기타 - 기계공구"}]},{"lat":"37.213826686","long":"126.7359243","items":[{"name":"원조큰맘할매순대국","tel":"031-355-8554","addr":"경기도 화성시 송산면 사강리 660-21번지 천지가마솥곰탕","category":"일반휴게음식 - 일반한식"}]},{"lat":"37.213131664","long":"126.73142043","items":[{"name":"유신세차장","tel":"031-357-7581","addr":"경기도 화성시 송산면 사강리 710-5번지 102호","category":"자동차정비 유지 - 세차장"},{"name":"유신자동차용품","tel":"031-357-8204","addr":"경기도 화성시 송산면 사강리 710-5번지","category":"자동차정비 유지 - 자동차부품"},{"name":"유신타이어","tel":"031-357-7225","addr":"경기도 화성시 송산면 사강리 710-5,7~10번지","category":"자동차정비 유지 - 자동차시트·타이어"}]},{"lat":"37.213270201","long":"126.72897525","items":[{"name":"유진농원","tel":"031-352-1673","addr":"경기도 화성시 송산면 사강리 512번지","category":"음료식품 - 농·축·수산품"}]},{"lat":"37.21407444","long":"126.7379175","items":[{"name":"유헤어라인","tel":"031-356-5369","addr":"경기도 화성시 송산면 사강리 634-10번지","category":"보건위생 - 미용원"},{"name":"투존치킨 송산점","tel":"031-355-8216","addr":"경기도 화성시 송산면 사강리 634-10번지","category":"일반휴게음식 - 일반한식"}]},{"lat":"37.214182337","long":"126.73781573","items":[{"name":"윤가네가정식백반","tel":"031-356-0435","addr":"경기도 화성시 송산면 사강리 634-3번지 1층","category":"일반휴게음식 - 일반한식"}]},{"lat":"37.216769556","long":"126.73437044","items":[{"name":"이가렌탈 (egarental)","tel":"070-4177-3231","addr":"경기도 화성시 송산면 사강리 580-3번지","category":"전기제품 - 가전제품"}]},{"lat":"37.214239659","long":"126.73525816","items":[{"name":"이모네식당","tel":"031-1577-0000","addr":"경기도 화성시 송산면 사강리 684-6번지 1층","category":"일반휴게음식 - 일반한식"}]},{"lat":"37.214187782","long":"126.73622721","items":[{"name":"자꾸땡기네","tel":"031-357-6560","addr":"경기도 화성시 송산면 사강리 631-6번지","category":"일반휴게음식 - 일반한식"}]},{"lat":"37.212993711","long":"126.7381466","items":[{"name":"장문오서방순대국","tel":"031-357-8588","addr":"경기도 화성시 송산면 사강리 642-6번지 1층","category":"일반휴게음식 - 일반한식"}]},{"lat":"37.210376025","long":"126.7281746","items":[{"name":"쟈바시티화성송산점","tel":"031-356-6449","addr":"경기도 화성시 송산면 사강리 773-7번지","category":"일반휴게음식 - 서양음식"}]},{"lat":"37.222318081","long":"126.72192308","items":[{"name":"전라도한식뷔페","tel":"031-366-7051","addr":"경기도 화성시 송산면 사강리 187-4번지 101호","category":"일반휴게음식 - 일반한식"}]},{"lat":"37.213293198","long":"126.73509251","items":[{"name":"전주토속음식점","tel":"031-366-8312","addr":"경기도 화성시 송산면 사강리 673-11번지","category":"일반휴게음식 - 일반한식"}]},{"lat":"37.214290763","long":"126.73795055","items":[{"name":"제일의원","tel":"031-357-1503","addr":"경기도 화성시 송산면 사강리 634-1번지","category":"의원 - 의원"}]},{"lat":"37.211931824","long":"126.73078258","items":[{"name":"조대감 숯불갈비","tel":"031-357-0756","addr":"경기도 화성시 송산면 사강리 740-2번지","category":"일반휴게음식 - 일반한식"}]},{"lat":"37.214041687","long":"126.73537151","items":[{"name":"중앙세탁소","tel":"031-357-1206","addr":"경기도 화성시 송산면 사강리 679-2번지","category":"수리서비스 - 세탁소"}]},{"lat":"37.214929671","long":"126.73358834","items":[{"name":"중앙아뜰리에미술교습소","tel":"","addr":"경기도 화성시 송산면 사강리 569-26번지 1층","category":"학원 - 예·체능계학원"}]},{"lat":"37.213907397","long":"126.73575503","items":[{"name":"즐겨찾기","tel":"031-333-9776","addr":"경기도 화성시 송산면 사강리 676-1","category":"보건위생 - 기타대인서비스"}]},{"lat":"37.216377749","long":"126.72467155","items":[{"name":"진미숯불갈비","tel":"","addr":"경기도 화성시 송산면 사강리 355-1번지 1층","category":"일반휴게음식 - 일반한식"}]},{"lat":"37.216875634","long":"126.7295368","items":[{"name":"진미아바이순대","tel":"031-366-7996","addr":"경기도 화성시 송산면 사강리 303-4번지 103호","category":"일반휴게음식 - 일반한식"},{"name":"차이나타운","tel":"031-356-7758","addr":"경기도 화성시 송산면 사강리 303-4번지 (가동101,102호)","category":"일반휴게음식 - 중국식"}]},{"lat":"37.215962104","long":"126.72803042","items":[{"name":"창대산업","tel":"031-356-6459","addr":"경기도 화성시 송산면 사강리 312-2번지 1호","category":"전기제품 - 냉열기기"}]},{"lat":"37.212541667","long":"126.7334729","items":[{"name":"채영시스템","tel":"031-357-5373","addr":"경기도 화성시 송산면 사강리 713-2","category":"수리서비스 - 사무·통신기기수리"}]},{"lat":"37.21457342","long":"126.73542597","items":[{"name":"천일인테리어","tel":"031-357-0339","addr":"경기도 화성시 송산면 사강리 681-16번지","category":"건축자재 - 인테리어전문"},{"name":"화성신발총판","tel":"031-357-0602","addr":"경기도 화성시 송산면 사강리 681-16","category":"신변잡화 - 신발"}]},{"lat":"37.214157675","long":"126.73486414","items":[{"name":"천지목공소","tel":"031-357-0724","addr":"경기도 화성시 송산면 사강리 685-7","category":"건축자재 - 목재·석재·철물"}]},{"lat":"37.212130697","long":"126.73106351","items":[{"name":"천지토종닭","tel":"031-355-6644","addr":"경기도 화성시 송산면 사강리 739-2번지","category":"일반휴게음식 - 일반한식"}]},{"lat":"37.20890476","long":"126.72706468","items":[{"name":"철원한우직판장","tel":"031-366-7930","addr":"경기도 화성시 송산면 사강리 467-10번지","category":"음료식품 - 정육점"}]},{"lat":"37.213159164","long":"126.73558868","items":[{"name":"청미식당","tel":"031-357-7822","addr":"경기도 화성시 송산면 사강리 662-7번지","category":"일반휴게음식 - 일반한식"}]},{"lat":"37.214570514","long":"126.73414165","items":[{"name":"칠칠다방","tel":"031-357-9477","addr":"경기도 화성시 송산면 사강리 687-11번지","category":"일반휴게음식 - 서양음식"}]},{"lat":"37.214103946","long":"126.73105643","items":[{"name":"카페카작","tel":"031-357-1166","addr":"경기도 화성시 송산면 사강리 548-1번지","category":"일반휴게음식 - 서양음식"}]},{"lat":"37.214850853","long":"126.7345913","items":[{"name":"컴퓨터수리방","tel":"031-357-0772","addr":"경기도 화성시 송산면 사강리 569-8번지","category":"수리서비스 - 사무·통신기기수리"}]},{"lat":"37.21243525","long":"126.73822741","items":[{"name":"태일전기조명","tel":"031-357-7305","addr":"경기도 화성시 송산면 사강리 649-2번지 1층 103호","category":"전기제품 - 기타전기제품"}]},{"lat":"37.214208308","long":"126.73734247","items":[{"name":"터미널호프","tel":"031-355-5814","addr":"경기도 화성시 송산면 사강리 628-2번지 2층","category":"일반휴게음식 - 주점"}]},{"lat":"37.214624958","long":"126.73431045","items":[{"name":"튜티피아노 교습소","tel":"031-356-3652","addr":"경기도 화성시 송산면 사강리 687-12번지","category":"학원 - 예·체능계학원"}]},{"lat":"37.224540215","long":"126.71673178","items":[{"name":"팔도유황송산오리","tel":"031-357-5295","addr":"경기도 화성시 송산면 사강리 116-1번지","category":"일반휴게음식 - 일반한식"}]},{"lat":"37.213097082","long":"126.73602827","items":[{"name":"폭포횟집","tel":"031-357-0382","addr":"경기도 화성시 송산면 사강리 663-8번지","category":"일반휴게음식 - 일반한식"}]},{"lat":"37.21593392","long":"126.73539863","items":[{"name":"하은유통","tel":"031-357-5703","addr":"경기도 화성시 송산면 사강리 594-1번지","category":"유통업 영리 - 기타유통업"}]},{"lat":"37.21638058","long":"126.73369584","items":[{"name":"하이즈먼어린이집[아이행복]","tel":"031-366-7915","addr":"경기도 화성시 송산면 사강리 583-1번지","category":"학원 - 유아원"}]},{"lat":"37.210855027","long":"126.73272411","items":[{"name":"한일공구철물","tel":"031-357-6033","addr":"경기도 화성시 송산면 사강리 728-3","category":"기타 - 기계공구"}]},{"lat":"37.214632094","long":"126.73747618","items":[{"name":"한일미용실","tel":"031-357-0667","addr":"경기도 화성시 송산면 사강리 628-1번지 송산아파트 103호","category":"보건위생 - 미용원"}]},{"lat":"37.213207247","long":"126.73295231","items":[{"name":"헤어톡","tel":"031-403-8988","addr":"경기도 화성시 송산면 사강리 697-14번지 1층 101호","category":"보건위생 - 미용원"}]},{"lat":"37.212905761","long":"126.73113959","items":[{"name":"현대벽적돌","tel":"031-357-6138","addr":"경기도 화성시 송산면 사강리 710-4","category":"건축자재 - 기타건축자재"}]},{"lat":"37.217463405","long":"126.71520375","items":[{"name":"호남식당","tel":"031-357-9910","addr":"경기도 화성시 송산면 사강리 386-15번지","category":"일반휴게음식 - 일반한식"}]},{"lat":"37.211460541","long":"126.72959013","items":[{"name":"호호락","tel":"031-357-6402","addr":"경기도 화성시 송산면 사강리 518-6번지 1층","category":"일반휴게음식 - 일반한식"}]},{"lat":"37.212962325","long":"126.73223217","items":[{"name":"화성시니어클럽 노노카페 여울림종합사회복","tel":"031-8059-4349","addr":"경기도 화성시 송산면 사강리 711-2번지 3동 1층","category":"일반휴게음식 - 서양음식"},{"name":"화성시서부종합사회복지관","tel":"031-366-7390","addr":"경기도 화성시 송산면 사강리 711-2번지","category":"문화.취미 - 문화취미기타"}]}]