[{"lat":"37.72342326","long":"126.53678979","imageIndex":4,"items":[{"name":"5번지짬뽕전문점","tel":"","addr":"경기도 김포시 월곶면 포내리 161번지 5번지 5번지짬뽕전문점","indutype":"일반음식점","category":"restaurant"}]},{"lat":"37.729253118","long":"126.5324314","imageIndex":4,"items":[{"name":"강화섬쌀밥집(허일범)","tel":"","addr":"경기도 김포시 월곶면 포내리 28-1번지 2층","indutype":"일반음식점","category":"restaurant"}]},{"lat":"37.727892379","long":"126.53461791","imageIndex":4,"items":[{"name":"김포G가든","tel":"","addr":"경기도 김포시 월곶면 포내리 37-5번지 김포G가든","indutype":"일반음식점","category":"restaurant"}]},{"lat":"37.731363482","long":"126.52623568","imageIndex":4,"items":[{"name":"나룻터숯불장어","tel":"031-981-1071","addr":"경기도 김포시 월곶면 포내리 7-8번지 김포시월곶면 김포대로 3023번길96","indutype":"일반음식점","category":"restaurant"}]},{"lat":"37.729560005","long":"126.53031956","imageIndex":4,"items":[{"name":"대관령황태해장국","tel":"","addr":"경기도 김포시 월곶면 포내리 15-1번지 2층","indutype":"일반음식점","category":"restaurant"}]},{"lat":"37.728642512","long":"126.54670523","imageIndex":4,"items":[{"name":"박가네김밥","tel":"","addr":"경기도 김포시 월곶면 포내리 111-3번지","indutype":"일반음식점","category":"restaurant"}]},{"lat":"37.727863142","long":"126.53406227","imageIndex":4,"items":[{"name":"손짜장마을","tel":"","addr":"경기도 김포시 월곶면 포내리 32-2번지 1층","indutype":"일반음식점","category":"restaurant"}]},{"lat":"37.724452963","long":"126.53745256","imageIndex":17,"items":[{"name":"발품인력사무소","tel":"","addr":"경기도 김포시 월곶면 포내리 79-27번지 1층 발품인력","indutype":"기타","category":"other"},{"name":"카페쉼표","tel":"","addr":"경기도 김포시 월곶면 포내리 79-27번지 카페쉼표","indutype":"카페/베이커리","category":"other"}]},{"lat":"37.728760818","long":"126.54701078","imageIndex":17,"items":[{"name":"아딸김포대학점","tel":"","addr":"경기도 김포시 월곶면 포내리 111-11번지 아딸 김포대학점","indutype":"분식","category":"other"}]},{"lat":"37.729004065","long":"126.53098101","imageIndex":17,"items":[{"name":"우광타이어","tel":"","addr":"경기도 김포시 월곶면 포내리 17-3번지 우광타이어","indutype":"기타","category":"other"}]},{"lat":"37.726586799","long":"126.53481896","imageIndex":17,"items":[{"name":"천안진명불허전호두과자","tel":"","addr":"경기도 김포시 월곶면 포내리 60-6번지 천안진호두과자","indutype":"카페/베이커리","category":"other"}]},{"lat":"37.729201063","long":"126.54206233","imageIndex":17,"items":[{"name":"포내양계","tel":"","addr":"경기도 김포시 월곶면 포내리 106-12번지 포내양계","indutype":"기타","category":"other"}]},{"lat":"37.724759189","long":"126.53742796","imageIndex":17,"items":[{"name":"항만식당","tel":"","addr":"경기도 김포시 월곶면 포내리 79-12 항만식당","indutype":"분식","category":"other"}]},{"lat":"37.724452963","long":"126.53745256","imageIndex":7,"items":[{"name":"세븐일레븐 김포월곶점","tel":"","addr":"경기도 김포시 월곶면 포내리 김포대학로4","indutype":"슈퍼/마트","category":"mart"}]},{"lat":"37.717616966","long":"126.53573737","imageIndex":7,"items":[{"name":"통진쉼터","tel":"","addr":"경기도 김포시 월곶면 포내리 168-7번지 통진쉼터","indutype":"슈퍼/마트","category":"mart"}]}]