[{"lat":"37.291510262","long":"127.0430525","imageIndex":8,"items":[{"name":"(주)비엔씨바이오팜","tel":"031-888-9474","addr":"경기도 수원시 영통구 이의동 906-5,차세대융합기술연구원","indutype":"약국 - 제약회사","category":"medical"}]},{"lat":"37.29170549","long":"127.05108222","imageIndex":8,"items":[{"name":"e튼튼치과의원","tel":"031-212-3575","addr":"경기도 수원시 영통구 이의동 1325-6번지 402호 광교대림프라자제4층","indutype":"의원 - 치과의원","category":"medical"}]},{"lat":"37.292877855","long":"127.04847782","imageIndex":8,"items":[{"name":"경희365늘한의원","tel":"031-214-3656","addr":"경기도 수원시 영통구 이의동 1329번지 4층 402호","indutype":"의원 - 한의원","category":"medical"},{"name":"웃는E치과교정과치과의원","tel":"031-289-3489","addr":"경기도 수원시 영통구 이의동 1329번지 3층 303호","indutype":"의원 - 치과의원","category":"medical"}]},{"lat":"37.298682052","long":"127.0441165","imageIndex":8,"items":[{"name":"경희남정우한의원","tel":"031-212-5272","addr":"경기도 수원시 영통구 이의동 1271-2번지 101호","indutype":"의원 - 한의원","category":"medical"}]},{"lat":"37.284704157","long":"127.0519686","imageIndex":8,"items":[{"name":"경희닥터최한의원","tel":"031-212-7890","addr":"경기도 수원시 영통구 이의동 1369-1번지 광교프라자 201호","indutype":"의원 - 한의원","category":"medical"}]},{"lat":"37.304988136","long":"127.04710902","imageIndex":8,"items":[{"name":"경희바른한의원","tel":"031-217-0363","addr":"경기도 수원시 영통구 이의동 1202번지 골드클래스5 303호","indutype":"의원 - 한의원","category":"medical"},{"name":"고려웰가정의학과의원","tel":"031-797-9540","addr":"경기도 수원시 영통구 이의동 1202번지 골든클래스5 302","indutype":"의원 - 의원","category":"medical"},{"name":"고려웰가정의학과의원","tel":"031-217-8871","addr":"경기도 수원시 영통구 이의동 1202번지 302호","indutype":"의원 - 의원","category":"medical"},{"name":"웰빙약국","tel":"031-213-5682","addr":"경기도 수원시 영통구 이의동 1202번지 골드클래스 107호","indutype":"약국 - 약국","category":"medical"}]},{"lat":"37.289184098","long":"127.04730276","imageIndex":8,"items":[{"name":"경희자연한의원","tel":"031-214-6262","addr":"경기도 수원시 영통구 이의동 1347-3번지 에듀프라자 302호","indutype":"의원 - 한의원","category":"medical"},{"name":"광교플란트치과의원","tel":"031-216-2855","addr":"경기도 수원시 영통구 이의동 1347-3번지 에듀프라자 3층 301호","indutype":"의원 - 치과의원","category":"medical"},{"name":"자연앤약국","tel":"031-214-7525","addr":"경기도 수원시 영통구 이의동 1347-3번지번에듀프라자109호자연앤약국","indutype":"약국 - 약국","category":"medical"},{"name":"코즈이비인후과","tel":"031-251-5100","addr":"경기도 수원시 영통구 이의동 1347-3번지 에듀프라자 305호","indutype":"의원 - 의원","category":"medical"}]},{"lat":"37.289662398","long":"127.04523931","imageIndex":8,"items":[{"name":"광교 우리들 동물병원","tel":"031-256-0075","addr":"경기도 수원시 영통구 이의동 1352번지 에듀하임1309오피스텔 102동 210호 ,211,212호","indutype":"기타의료기관 - 동물병원","category":"medical"}]},{"lat":"37.292651957","long":"127.05011294","imageIndex":8,"items":[{"name":"광교경희한의원","tel":"031-217-3335","addr":"경기도 수원시 영통구 이의동 1322-5번지 광교센트럴프라자 407호","indutype":"의원 - 한의원","category":"medical"},{"name":"광교센트럴가정의학과의원","tel":"031-217-8575","addr":"경기도 수원시 영통구 이의동 1322-5번지 센트럴프라자 312호","indutype":"의원 - 의원","category":"medical"},{"name":"광교연세정신건강의학과","tel":"031-8004-3311","addr":"경기도 수원시 영통구 이의동 1322-5번지 센트럴프라자 4층 402호","indutype":"의원 - 의원","category":"medical"},{"name":"광교은산부인과의원","tel":"","addr":"경기도 수원시 영통구 이의동 1322-5번지 센트럴프라자 2층 206,207호","indutype":"의원 - 의원","category":"medical"},{"name":"마리마취통증의학과","tel":"031-213-1515","addr":"경기도 수원시 영통구 이의동 1322-5번지 센트럴프라자 203,204,205호","indutype":"의원 - 의원","category":"medical"},{"name":"프라자치과","tel":"031-212-2879","addr":"경기도 수원시 영통구 이의동 1322-5 광교센트럴프라자 305,306호","indutype":"의원 - 치과의원","category":"medical"},{"name":"함소아한의원 광교점","tel":"031-215-1077","addr":"경기도 수원시 영통구 이의동 1322-5번지 센트럴프라자 2층 215,216호","indutype":"의원 - 한의원","category":"medical"}]},{"lat":"37.300736016","long":"127.04516656","imageIndex":8,"items":[{"name":"광교백두산약국","tel":"031-213-1442","addr":"경기도 수원시 영통구 이의동 1248번지 102호","indutype":"약국 - 약국","category":"medical"},{"name":"광교탑치과의원","tel":"031-215-0707","addr":"경기도 수원시 영통구 이의동 1248번지 리치프라자1 3층 1호","indutype":"의원 - 치과의원","category":"medical"},{"name":"누리이비인후과의원","tel":"031-213-0113","addr":"경기도 수원시 영통구 이의동 1248번지 리치프라자1 501호","indutype":"의원 - 의원","category":"medical"},{"name":"리치프라자약국","tel":"031-212-1442","addr":"경기도 수원시 영통구 이의동 1248번지 505호","indutype":"약국 - 약국","category":"medical"},{"name":"수원 메디휴제일내과","tel":"031-8019-9798","addr":"경기도 수원시 영통구 이의동 1248번지 502,503,504호","indutype":"의원 - 의원","category":"medical"}]},{"lat":"37.284929041","long":"127.05285959","imageIndex":8,"items":[{"name":"광교본치과","tel":"031-212-9875","addr":"경기도 수원시 영통구 이의동 1341-2번지 201호","indutype":"의원 - 치과의원","category":"medical"},{"name":"쓰담쓰담약국","tel":"031-255-3434","addr":"경기도 수원시 영통구 이의동 1341-2번지 103호","indutype":"약국 - 약국","category":"medical"}]},{"lat":"37.286045836","long":"127.05397673","imageIndex":8,"items":[{"name":"광교삼성화이트치과의원","tel":"031-215-7335","addr":"경기도 수원시 영통구 이의동 1340번지 성희프라자 305호","indutype":"의원 - 치과의원","category":"medical"},{"name":"광교푸른내과","tel":"031-216-8366","addr":"경기도 수원시 영통구 이의동 1340번지 201,202호","indutype":"의원 - 의원","category":"medical"},{"name":"호수약국","tel":"031-212-7579","addr":"경기도 수원시 영통구 이의동 1340번지 성희프라자 104호","indutype":"약국 - 약국","category":"medical"}]},{"lat":"37.292039048","long":"127.05064261","imageIndex":8,"items":[{"name":"광교연세안과","tel":"031-8019-8081","addr":"경기도 수원시 영통구 이의동 1325-4번지 경현빌딩 3층","indutype":"의원 - 의원","category":"medical"},{"name":"광교조은약국","tel":"031-216-8722","addr":"경기도 수원시 영통구 이의동 1325-4번지 경현빌딩 106호","indutype":"약국 - 약국","category":"medical"},{"name":"몸바로한의원","tel":"031-221-1075","addr":"경기도 수원시 영통구 이의동 1325-4번지 경현빌딩 5층 501호","indutype":"의원 - 한의원","category":"medical"},{"name":"서울베스트치과","tel":"031-212-2833","addr":"경기도 수원시 영통구 이의동 1325-4번지 경현빌딩 202호","indutype":"의원 - 치과의원","category":"medical"},{"name":"유디트의원","tel":"031-216-9611","addr":"경기도 수원시 영통구 이의동 1325-4번지 경현빌딩 4층","indutype":"의원 - 의원","category":"medical"}]},{"lat":"37.290597476","long":"127.05047254","imageIndex":8,"items":[{"name":"광교온누리약국","tel":"031-211-0535","addr":"경기도 수원시 영통구 이의동 1332번지 제Cb 11호","indutype":"약국 - 약국","category":"medical"},{"name":"맘동물병원","tel":"031-548-1175","addr":"경기도 수원시 영통구 이의동 1332번지 반베르디움 203동 1호 CB12호 광교C","indutype":"기타의료기관 - 동물병원","category":"medical"},{"name":"미러의원","tel":"031-207-7279","addr":"경기도 수원시 영통구 이의동 1332번지 광교아브뉴프랑 C동 1층 104호","indutype":"의원 - 의원","category":"medical"},{"name":"선한이웃치과의원","tel":"031-213-2275","addr":"경기도 수원시 영통구 이의동 1332번지 C동 106호 ,C107,C108호","indutype":"의원 - 치과의원","category":"medical"},{"name":"위드아이소아청소년과의원","tel":"031-217-7572","addr":"경기도 수원시 영통구 이의동 1332번지 써밋플레이스광교 1층 C103호","indutype":"의원 - 의원","category":"medical"},{"name":"폴리어린이한의원","tel":"031-548-2253","addr":"경기도 수원시 영통구 이의동 1332번지 C동 101호 광교아브뉴프랑","indutype":"의원 - 한의원","category":"medical"}]},{"lat":"37.28937322","long":"127.04755097","imageIndex":8,"items":[{"name":"광교호치과","tel":"031-211-2870","addr":"경기도 수원시 영통구 이의동 1347-2,401호","indutype":"의원 - 치과의원","category":"medical"}]},{"lat":"37.286954208","long":"127.0576987","imageIndex":8,"items":[{"name":"닥터스피부과의원 광교점","tel":"031-360-0055","addr":"경기도 수원시 영통구 이의동 1336-1번지 2층 일부","indutype":"의원 - 의원","category":"medical"},{"name":"엘포트 해피치과","tel":"031-211-2899","addr":"경기도 수원시 영통구 이의동 1336-1번지 2층","indutype":"의원 - 치과의원","category":"medical"}]},{"lat":"37.291876777","long":"127.05085678","imageIndex":8,"items":[{"name":"대림약국","tel":"031-214-2234","addr":"경기도 수원시 영통구 이의동 1325-5번지 앤에스코어빌딩 106호","indutype":"약국 - 약국","category":"medical"},{"name":"도원한의원","tel":"031-212-2577","addr":"경기도 수원시 영통구 이의동 1325-5번지 앤에스코어빌딩 402호","indutype":"의원 - 한의원","category":"medical"},{"name":"서울위즈소아청소년과의원","tel":"031-212-1275","addr":"경기도 수원시 영통구 이의동 1325-5,NS코어빌딩 302호","indutype":"의원 - 의원","category":"medical"}]},{"lat":"37.289850958","long":"127.0470325","imageIndex":8,"items":[{"name":"루약국","tel":"031-212-1025","addr":"경기도 수원시 영통구 이의동 1348-3번지 이루리타워 101호","indutype":"약국 - 약국","category":"medical"}]},{"lat":"37.292454128","long":"127.04910911","imageIndex":8,"items":[{"name":"맑은해든약국","tel":"031-214-8681","addr":"경기도 수원시 영통구 이의동 1330번지 303-1호","indutype":"약국 - 약국","category":"medical"}]},{"lat":"37.304321379","long":"127.04710863","imageIndex":8,"items":[{"name":"박현성치과의원","tel":"031-211-2872","addr":"경기도 수원시 영통구 이의동 1202-3번지 드림스퀘어1 301호, 302호","indutype":"의원 - 치과의원","category":"medical"}]},{"lat":"37.294541614","long":"127.05600123","imageIndex":8,"items":[{"name":"봄나래동물병원","tel":"031-217-9550","addr":"경기도 수원시 영통구 이의동 1316-2번지","indutype":"기타의료기관 - 동물병원","category":"medical"}]},{"lat":"37.293624987","long":"127.05030528","imageIndex":8,"items":[{"name":"수약국","tel":"031-211-3222","addr":"경기도 수원시 영통구 이의동 1322-3번지 농업회사법인 (주) 농우바이오 202호","indutype":"약국 - 약국","category":"medical"}]},{"lat":"37.28957136","long":"127.04777663","imageIndex":8,"items":[{"name":"연세광교정형외과의원","tel":"031-213-3478","addr":"경기도 수원시 영통구 이의동 1347-1번지","indutype":"의원 - 의원","category":"medical"},{"name":"자연앤치과","tel":"031-216-5544","addr":"경기도 수원시 영통구 이의동 1347-1번지 월드프라자 4층 자연앤치과","indutype":"의원 - 치과의원","category":"medical"}]},{"lat":"37.28576664","long":"127.05369462","imageIndex":8,"items":[{"name":"연세웰키즈치과","tel":"031-217-7928","addr":"경기도 수원시 영통구 이의동 1340-1번지 광교평은프라자 202호 201","indutype":"의원 - 치과의원","category":"medical"}]},{"lat":"37.291850743","long":"127.04833059","imageIndex":8,"items":[{"name":"오아시스 정형외과 신경외과 동물병원","tel":"031-215-7474","addr":"경기도 수원시 영통구 이의동 1331번지 204동 2-06, 2-07, 2-08, 2-09호","indutype":"기타의료기관 - 동물병원","category":"medical"}]},{"lat":"37.288044605","long":"127.05736118","imageIndex":8,"items":[{"name":"온유동물병원","tel":"031-211-1313","addr":"경기도 수원시 영통구 이의동 1335번지 아이플렉스 142호","indutype":"기타의료기관 - 동물병원","category":"medical"},{"name":"우리동네치과의원","tel":"02-0000-0000","addr":"경기도 수원시 영통구 이의동 1335번지 아이플렉스 2층 210호","indutype":"의원 - 치과의원","category":"medical"},{"name":"클린서울이비인후과","tel":"031-216-9035","addr":"경기도 수원시 영통구 이의동 1335번지 아이플렉스 303호","indutype":"의원 - 의원","category":"medical"}]},{"lat":"37.305042548","long":"127.04616157","imageIndex":8,"items":[{"name":"웰빙동물병원","tel":"031-212-5567","addr":"경기도 수원시 영통구 이의동 1201번지 골드클래스2 1층 104호202호","indutype":"기타의료기관 - 동물병원","category":"medical"},{"name":"행복한김치과","tel":"031-213-2835","addr":"경기도 수원시 영통구 이의동 1201번지 4층 401호","indutype":"의원 - 치과의원","category":"medical"}]},{"lat":"37.299204809","long":"127.04364308","imageIndex":8,"items":[{"name":"인생치과의원","tel":"031-213-2370","addr":"경기도 수원시 영통구 이의동 1258-4번지 301호","indutype":"의원 - 치과의원","category":"medical"}]},{"lat":"37.28448777","long":"127.05230675","imageIndex":8,"items":[{"name":"자연앤동물병원","tel":"031-215-7582","addr":"경기도 수원시 영통구 이의동 1369-2번지 국제프라자 108호","indutype":"기타의료기관 - 동물병원","category":"medical"}]},{"lat":"37.285154553","long":"127.05225081","imageIndex":8,"items":[{"name":"정성담은치과","tel":"031-217-2872","addr":"경기도 수원시 영통구 이의동 1341-4번지 그린메디칼 2층 201호","indutype":"의원 - 치과의원","category":"medical"}]},{"lat":"37.294929718","long":"127.05450152","imageIndex":8,"items":[{"name":"카페거리동물병원동행","tel":"031-211-7550","addr":"경기도 수원시 영통구 이의동 1306-15번지 1층","indutype":"기타의료기관 - 동물병원","category":"medical"}]}]