[{"lat":"37.524819388","long":"127.23124815","items":[{"name":"(재)대한불교조계종백련불교문화재단","tel":"031-791-7732","addr":"경기도 하남시 하산곡동 9-16번지 정심사","category":"기타 - 비영리/대상"}]},{"lat":"37.523934316","long":"127.22764811","items":[{"name":"(주)가온축산유통","tel":"031-791-6142","addr":"경기도 하남시 하산곡동 39번지","category":"음료식품 - 정육점"},{"name":"제이앤에스테크(J&S Tech)","tel":"02-2245-7937","addr":"경기도 하남시 하산곡동 39번지 1층","category":"주방용구 - 주방용구"}]},{"lat":"37.520874233","long":"127.22591952","items":[{"name":"(주)경은에너지(강남태양열)","tel":"031-796-1233","addr":"경기도 하남시 하산곡동 119번지","category":"건축자재 - 보일러·펌프·샷시"}]},{"lat":"37.52521356","long":"127.22773113","items":[{"name":"(주)굿모닝렌탈","tel":"02-1988-5133","addr":"경기도 하남시 하산곡동 34-3번지","category":"신변잡화 - 기타잡화"}]},{"lat":"37.524989648","long":"127.22702908","items":[{"name":"(주)네오아트","tel":"031-747-3133","addr":"경기도 하남시 하산곡동 44-2번지 1층","category":"건축자재 - 조명기구"},{"name":"(주)베스트약품","tel":"031-798-5880","addr":"경기도 하남시 하산곡동 44-2번지","category":"약국 - 약국"},{"name":"네오아트","tel":"031-747-3133","addr":"경기도 하남시 하산곡동 44-2번지","category":"신변잡화 - 기타잡화"}]},{"lat":"37.518238771","long":"127.22355888","items":[{"name":"(주)대성푸드","tel":"031-795-4120","addr":"경기도 하남시 하산곡동 206-3번지 1층","category":"음료식품 - 정육점"}]},{"lat":"37.526572018","long":"127.22403593","items":[{"name":"(주)대양푸드","tel":"","addr":"경기도 하남시 하산곡동 54-4번지","category":"음료식품 - 농·축·수산품"},{"name":"나누리전산","tel":"031-794-1807","addr":"경기도 하남시 하산곡동 54-4번지","category":"사무통신 - 기타 사무용품"},{"name":"우리도예","tel":"031-795-3362","addr":"경기도 하남시 하산곡동 54-4번지","category":"문화.취미 - 민예·공예품"}]},{"lat":"37.522101573","long":"127.22485983","items":[{"name":"(주)대흥안전교육연구소","tel":"070-8018-7484","addr":"경기도 하남시 하산곡동 75-5번지 202호","category":"학원 - 기타 교육기관"},{"name":"씨유하남경찰서점","tel":"031-795-3035","addr":"경기도 하남시 하산곡동 75-5번지","category":"유통업 영리 - 편 의 점"},{"name":"아모스하남점","tel":"02-477-7924","addr":"경기도 하남시 하산곡동 75-5번지 (2층) 203","category":"보건위생 - 미용재료"},{"name":"홍익돈까스 하남점","tel":"031-792-3581","addr":"경기도 하남시 하산곡동 75-5번지 1층","category":"일반휴게음식 - 서양음식"}]},{"lat":"37.508293044","long":"127.227703","items":[{"name":"(주)비젼21","tel":"031-792-1739","addr":"경기도 하남시 하산곡동 324-14번지","category":"건축자재 - 기타건축자재"},{"name":"미래냉동산업","tel":"031-903-6117","addr":"경기도 하남시 하산곡동 324-14번지","category":"전기제품 - 냉열기기"},{"name":"미래씽크","tel":"031-793-9744","addr":"경기도 하남시 하산곡동 324-14번지 1층","category":"주방용구 - 주방용구"},{"name":"신장공예가구","tel":"031-793-1988","addr":"경기도 하남시 하산곡동 324-14번지","category":"가구 - 일반가구"}]},{"lat":"37.520127399","long":"127.22539695","items":[{"name":"(주)차신","tel":"031-791-8297","addr":"경기도 하남시 하산곡동 166-6번지 1층","category":"자동차정비 유지 - 자동차정비"}]},{"lat":"37.518763706","long":"127.22708964","items":[{"name":"(주)치즈랑","tel":"070-4247-5721","addr":"경기도 하남시 하산곡동 152-1번지","category":"음료식품 - 기타음료식품"},{"name":"대양전동지게차 판매","tel":"031-796-4451","addr":"경기도 하남시 하산곡동 152-1번지","category":"수리서비스 - 기타수리서비스"}]},{"lat":"37.512072091","long":"127.22564449","items":[{"name":"(주)친환경산업","tel":"031-794-8853","addr":"경기도 하남시 하산곡동 241-12번지","category":"용역 서비스 - 종합용역"}]},{"lat":"37.516490841","long":"127.22356504","items":[{"name":"(주)혜창건축자재","tel":"031-796-8806","addr":"경기도 하남시 하산곡동 205-3번지 1동","category":"건축자재 - 기타건축자재"}]},{"lat":"37.520263121","long":"127.22509193","items":[{"name":"CAR  FIX","tel":"0505-712-7120","addr":"경기도 하남시 하산곡동 166-1번지","category":"자동차정비 유지 - 자동차정비"},{"name":"카닥터모터스","tel":"031-792-7637","addr":"경기도 하남시 하산곡동 166-1번지","category":"자동차정비 유지 - 자동차정비"}]},{"lat":"37.522156821","long":"127.22422652","items":[{"name":"GS25하남경찰서점","tel":"","addr":"경기도 하남시 하산곡동 71-4번지","category":"유통업 영리 - 편 의 점"}]},{"lat":"37.511350193","long":"127.22623049","items":[{"name":"GS25하남중대점","tel":"02-2006-2118","addr":"경기도 하남시 하산곡동 315-4번지 1층","category":"유통업 영리 - 편 의 점"},{"name":"주식회사 돌출지붕공사","tel":"031-793-9060","addr":"경기도 하남시 하산곡동 315-4번지","category":"건축자재 - 기타건축자재"},{"name":"하남지역자활센터","tel":"031-791-3660","addr":"경기도 하남시 하산곡동 315-4번지","category":"문화.취미 - 민예·공예품"}]},{"lat":"37.518957057","long":"127.22489576","items":[{"name":"GS25하남하산곡동점","tel":"","addr":"경기도 하남시 하산곡동 173-5번지 1층","category":"유통업 영리 - 편 의 점"},{"name":"고향골 밥상","tel":"031-794-0290","addr":"경기도 하남시 하산곡동 173-5번지","category":"일반휴게음식 - 일반한식"}]},{"lat":"37.520067655","long":"127.2283944","items":[{"name":"PLSports","tel":"031-765-6069","addr":"경기도 하남시 하산곡동 132-7번지","category":"레져용품 - 스포츠·레져용품"}]},{"lat":"37.519152971","long":"127.226118","items":[{"name":"Smart buy","tel":"031-0000-0000","addr":"경기도 하남시 하산곡동 155-10번지","category":"가구 - 일반가구"}]},{"lat":"37.511457904","long":"127.22644571","items":[{"name":"The 쉼","tel":"02-1111-1111","addr":"경기도 하남시 하산곡동 312-4번지 1층","category":"일반휴게음식 - 서양음식"}]},{"lat":"37.507490068","long":"127.22827739","items":[{"name":"U.S 특수장비 만물","tel":"031-795-0956","addr":"경기도 하남시 하산곡동 326-9번지","category":"기타 - 기계공구"}]},{"lat":"37.526932262","long":"127.22411618","items":[{"name":"거상식품","tel":"031-795-8990","addr":"경기도 하남시 하산곡동 54-12번지","category":"음료식품 - 기타음료식품"}]},{"lat":"37.520825925","long":"127.22763879","items":[{"name":"거성","tel":"031-795-6209","addr":"경기도 하남시 하산곡동 132-3번지","category":"자동차정비 유지 - 자동차부품"}]},{"lat":"37.522630423","long":"127.22630936","items":[{"name":"검단골프존","tel":"031-794-0705","addr":"경기도 하남시 하산곡동 87-13번지","category":"레저업소 - 스크린골프"},{"name":"장용삼 F&B","tel":"031-796-6121","addr":"경기도 하남시 하산곡동 87-13번지","category":"음료식품 - 기타음료식품"}]},{"lat":"37.520047055","long":"127.2250008","items":[{"name":"검단동태찜","tel":"031-791-5044","addr":"경기도 하남시 하산곡동 166-24번지 1층","category":"일반휴게음식 - 일반한식"}]},{"lat":"37.519597286","long":"127.22461487","items":[{"name":"검단반점","tel":"031-795-1475","addr":"경기도 하남시 하산곡동 176-4번지 1층","category":"일반휴게음식 - 중국식"}]},{"lat":"37.511410688","long":"127.22758793","items":[{"name":"경우하이테크","tel":"031-795-9916","addr":"경기도 하남시 하산곡동 301-1번지","category":"건축자재 - 기타건축자재"}]},{"lat":"37.509929986","long":"127.22920086","items":[{"name":"경인카써비스","tel":"031-794-7818","addr":"경기도 하남시 하산곡동 294-11번지","category":"자동차정비 유지 - 자동차정비"}]},{"lat":"37.52162696","long":"127.22808236","items":[{"name":"고구려시스템안전방충망","tel":"070-7557-5839","addr":"경기도 하남시 하산곡동 133번지","category":"건축자재 - 기타건축자재"},{"name":"대성냉동기계","tel":"031-795-0292","addr":"경기도 하남시 하산곡동 133번지","category":"수리서비스 - 기타수리서비스"}]},{"lat":"37.504494722","long":"127.23039457","items":[{"name":"광명공업사","tel":"031-795-0109","addr":"경기도 하남시 하산곡동 387-1번지","category":"자동차정비 유지 - 자동차정비"},{"name":"서오릉다슬기해장국","tel":"031-793-5230","addr":"경기도 하남시 하산곡동 387-1번지","category":"일반휴게음식 - 일반한식"},{"name":"아이지에이마트 하남산곡점","tel":"031-768-0708","addr":"경기도 하남시 하산곡동 387-1번지 1층","category":"유통업 영리 - 편 의 점"}]},{"lat":"37.511624746","long":"127.22873094","items":[{"name":"광주리유통","tel":"031-792-8802","addr":"경기도 하남시 하산곡동 287번지 103호","category":"음료식품 - 정육점"},{"name":"정 미트","tel":"031-8028-1590","addr":"경기도 하남시 하산곡동 287번지 1층 104호","category":"음료식품 - 정육점"}]},{"lat":"37.5108241","long":"127.22808383","items":[{"name":"광희식당","tel":"031-795-7788","addr":"경기도 하남시 하산곡동 298번지","category":"일반휴게음식 - 일반한식"}]},{"lat":"37.517103257","long":"127.22370258","items":[{"name":"국제자동차공업사","tel":"031-793-8478","addr":"경기도 하남시 하산곡동 205-29번지","category":"자동차정비 유지 - 자동차정비"}]},{"lat":"37.51823627","long":"127.22489363","items":[{"name":"궁중국악기","tel":"031-791-9927","addr":"경기도 하남시 하산곡동 159-1,160-1","category":"레져용품 - 악기점"}]},{"lat":"37.524575303","long":"127.22697128","items":[{"name":"길가온","tel":"031-793-1220","addr":"경기도 하남시 하산곡동 87-1번지","category":"일반휴게음식 - 서양음식"}]},{"lat":"37.521768022","long":"127.22970041","items":[{"name":"꽃누리","tel":"031-796-4173","addr":"경기도 하남시 하산곡동 100-12번지","category":"일반휴게음식 - 중국식"},{"name":"꽃누리","tel":"031-796-4173","addr":"경기도 하남시 하산곡동 100-12번지","category":"일반휴게음식 - 중국식"}]},{"lat":"37.507515912","long":"127.2335592","items":[{"name":"노인요양시설 청담","tel":"031-794-0936","addr":"경기도 하남시 하산곡동 355-11번지","category":"기타의료기관 - 기타의료기관 및 기타"},{"name":"로하스청담의원","tel":"031-794-0936","addr":"경기도 하남시 하산곡동 355-11번지","category":"의원 - 의원"}]},{"lat":"37.518548006","long":"127.22680621","items":[{"name":"농업회사법인 드림팜 주식회사","tel":"031-792-5071","addr":"경기도 하남시 하산곡동 152-8번지","category":"학원 - 기타 교육기관"}]},{"lat":"37.519020487","long":"127.22470365","items":[{"name":"농업회사법인주식회사영진유통","tel":"031-796-3426","addr":"경기도 하남시 하산곡동 173-9번지 1층","category":"음료식품 - 정육점"}]},{"lat":"37.522184677","long":"127.22378543","items":[{"name":"느티나무언덕","tel":"031-792-9266","addr":"경기도 하남시 하산곡동 72-6번지 2층","category":"일반휴게음식 - 스넥"}]},{"lat":"37.519767538","long":"127.22511309","items":[{"name":"니드포스피드","tel":"","addr":"경기도 하남시 하산곡동 166-2번지","category":"자동차정비 유지 - 카인테리어"}]},{"lat":"37.521297268","long":"127.22614702","items":[{"name":"다모아당구장","tel":"031-795-0508","addr":"경기도 하남시 하산곡동 115-25번지 2층 1호","category":"레저업소 - 당 구 장"},{"name":"다산조명전기","tel":"031-794-5522","addr":"경기도 하남시 하산곡동 115-25번지 1층","category":"건축자재 - 조명기구"}]},{"lat":"37.52426854","long":"127.22719661","items":[{"name":"다현하우징","tel":"031-796-1324","addr":"경기도 하남시 하산곡동 41번지 1층","category":"신변잡화 - 기타잡화"}]},{"lat":"37.52420915","long":"127.2252507","items":[{"name":"달란트","tel":"031-795-8835","addr":"경기도 하남시 하산곡동 81번지","category":"서적문구 - 기타서적문구"}]},{"lat":"37.523956662","long":"127.22536307","items":[{"name":"대광테크","tel":"031-796-6400","addr":"경기도 하남시 하산곡동 80-6번지","category":"유통업 영리 - 기타유통업"}]},{"lat":"37.511402151","long":"127.22733908","items":[{"name":"대성상회","tel":"031-792-3124","addr":"경기도 하남시 하산곡동 313-3번지","category":"음료식품 - 기타음료식품"}]},{"lat":"37.523573514","long":"127.22786196","items":[{"name":"대승기업","tel":"02-464-2259","addr":"경기도 하남시 하산곡동 38-1번지","category":"사무통신 - 기타 사무용품"},{"name":"주식회사 대승","tel":"02-756-2268","addr":"경기도 하남시 하산곡동 38-1번지","category":"사무통신 - 기타 사무용품"}]},{"lat":"37.509347691","long":"127.22744603","items":[{"name":"대신상사","tel":"031-793-8448","addr":"경기도 하남시 하산곡동 329-30번지","category":"가구 - 기타가구"}]},{"lat":"37.52146196","long":"127.22481269","items":[{"name":"대지합판","tel":"031-795-1110","addr":"경기도 하남시 하산곡동 112-4번지","category":"건축자재 - 기타건축자재"},{"name":"동아사무용가구","tel":"02-598-0993","addr":"경기도 하남시 하산곡동 112-4번지","category":"가구 - 기타가구"},{"name":"베스트글로벌","tel":"031-796-0579","addr":"경기도 하남시 하산곡동 112-4번지","category":"신변잡화 - 기타잡화"}]},{"lat":"37.515543983","long":"127.22400339","items":[{"name":"동서울철물","tel":"031-796-0472","addr":"경기도 하남시 하산곡동 207-15번지","category":"건축자재 - 목재·석재·철물"}]},{"lat":"37.51867911","long":"127.224171","items":[{"name":"드림공조시스템","tel":"031-795-8026","addr":"경기도 하남시 하산곡동 172-6번지 2층","category":"용역 서비스 - 기타용역서비스"}]},{"lat":"37.501881646","long":"127.23049973","items":[{"name":"드림푸드","tel":"031-794-9287","addr":"경기도 하남시 하산곡동 418-1번지 1층","category":"음료식품 - 정육점"}]},{"lat":"37.502546059","long":"127.23170052","items":[{"name":"디자인 라움","tel":"031-794-7735","addr":"경기도 하남시 하산곡동 420-1번지 1층","category":"가구 - 일반가구"}]},{"lat":"37.51001586","long":"127.23139532","items":[{"name":"라인핏","tel":"","addr":"경기도 하남시 하산곡동 산18-41번지","category":"의류 - 정장"},{"name":"신장바이오스","tel":"031-791-2549","addr":"경기도 하남시 하산곡동 산18-41번지","category":"레져용품 - 스포츠·레져용품"}]},{"lat":"37.524933997","long":"127.22786605","items":[{"name":"렌탈스퀘어","tel":"031-523-4002","addr":"경기도 하남시 하산곡동 34-1번지","category":"가구 - 기타가구"}]},{"lat":"37.526042888","long":"127.22272209","items":[{"name":"렌탈큐브","tel":"02-919-0138","addr":"경기도 하남시 하산곡동 60-13번지 101호","category":"신변잡화 - 기타잡화"}]},{"lat":"37.51160408","long":"127.23011076","items":[{"name":"리본피쉬(RIBBONFISH)","tel":"031-792-0206","addr":"경기도 하남시 하산곡동 279-13번지","category":"신변잡화 - 기타잡화"},{"name":"하남공예","tel":"031-792-0206","addr":"경기도 하남시 하산곡동 279-13번지","category":"문화.취미 - 화방·표구점"}]},{"lat":"37.506242698","long":"127.23036594","items":[{"name":"마이개러지카페","tel":"02-929-9005","addr":"경기도 하남시 하산곡동 339-12번지 2층","category":"일반휴게음식 - 서양음식"}]},{"lat":"37.510714016","long":"127.22911275","items":[{"name":"매일유통","tel":"031-699-7867","addr":"경기도 하남시 하산곡동 292-6번지 1층","category":"음료식품 - 기타음료식품"}]},{"lat":"37.522544103","long":"127.22905796","items":[{"name":"맥스통상","tel":"070-8267-7075","addr":"경기도 하남시 하산곡동 98-2번지 1층","category":"레져용품 - 스포츠·레져용품"}]},{"lat":"37.525544326","long":"127.22433834","items":[{"name":"명성우드메탈","tel":"","addr":"경기도 하남시 하산곡동 54-14번지","category":"가구 - 기타가구"},{"name":"신우오일","tel":"070-7756-7725","addr":"경기도 하남시 하산곡동 54-14번지","category":"자동차정비 유지 - 자동차부품"}]},{"lat":"37.521513354","long":"127.22622684","items":[{"name":"미래컴퍼니","tel":"02-4613-1828","addr":"경기도 하남시 하산곡동 115-2번지 1층","category":"신변잡화 - 기타잡화"},{"name":"주식회사 이엘씨","tel":"031-000-0000","addr":"경기도 하남시 하산곡동 115-2번지 3층","category":"용역 서비스 - 종합용역"}]},{"lat":"37.522319766","long":"127.22858217","items":[{"name":"반석컴퍼니","tel":"031-795-6085","addr":"경기도 하남시 하산곡동 104-1번지","category":"농업 - 기타농업관련"}]},{"lat":"37.507767882","long":"127.22905862","items":[{"name":"부성기계","tel":"031-795-1106","addr":"경기도 하남시 하산곡동 328-9번지","category":"기타 - 기계공구"}]},{"lat":"37.516991136","long":"127.23055692","items":[{"name":"사단법인한국불교태고종천도암","tel":"031-791-3959","addr":"경기도 하남시 하산곡동 142-4번지","category":"기타 - 비영리/대상"}]},{"lat":"37.516237804","long":"127.2239715","items":[{"name":"산곡상회","tel":"031-792-2437","addr":"경기도 하남시 하산곡동 207-26번지 1층","category":"유통업 영리 - 슈퍼마켓"}]},{"lat":"37.511575824","long":"127.22602757","items":[{"name":"산곡정육점","tel":"02-1111-1111","addr":"경기도 하남시 하산곡동 241-7번지","category":"음료식품 - 정육점"},{"name":"산곡한우마을","tel":"031-791-5861","addr":"경기도 하남시 하산곡동 241-7번지","category":"일반휴게음식 - 일반한식"}]},{"lat":"37.511515892","long":"127.22911517","items":[{"name":"삼부","tel":"031-793-8486","addr":"경기도 하남시 하산곡동 286-17번지","category":"기타 - 기계공구"}]},{"lat":"37.517879096","long":"127.22317323","items":[{"name":"삼성 스파클","tel":"031-791-5531","addr":"경기도 하남시 하산곡동 204-52번지 강남물류센터 스파클","category":"유통업 영리 - 기타유통업"}]},{"lat":"37.51246009","long":"127.22534026","items":[{"name":"삼성물류","tel":"031-793-6010","addr":"경기도 하남시 하산곡동 245-1번지","category":"기타 - 기계공구"}]},{"lat":"37.512739395","long":"127.22534109","items":[{"name":"샤르망가구","tel":"031-793-8284","addr":"경기도 하남시 하산곡동 239-10번지","category":"가구 - 일반가구"}]},{"lat":"37.522102338","long":"127.2244526","items":[{"name":"샹하이","tel":"031-795-5257","addr":"경기도 하남시 하산곡동 74-24번지 선정빌딩 202호","category":"일반휴게음식 - 중국식"}]},{"lat":"37.502104134","long":"127.22723208","items":[{"name":"송림국악기연구소","tel":"031-793-3906","addr":"경기도 하남시 하산곡동 445번지","category":"레져용품 - 악기점"}]},{"lat":"37.51990243","long":"127.22524923","items":[{"name":"수리수리차수리","tel":"031-793-7812","addr":"경기도 하남시 하산곡동 166-22번지","category":"자동차정비 유지 - 자동차정비"}]},{"lat":"37.503325418","long":"127.22936188","items":[{"name":"시너스","tel":"070-8153-1446","addr":"경기도 하남시 하산곡동 390-12번지 다동 1층","category":"신변잡화 - 제화"}]},{"lat":"37.519070267","long":"127.22216999","items":[{"name":"신장과일","tel":"","addr":"경기도 하남시 하산곡동 187-1번지","category":"음료식품 - 농·축·수산품"}]},{"lat":"37.511293603","long":"127.22756496","items":[{"name":"실사스타","tel":"031-792-0946","addr":"경기도 하남시 하산곡동 301-8번지 외1필지 2층","category":"건축자재 - 인테리어전문"}]},{"lat":"37.522597902","long":"127.22919387","items":[{"name":"아르스커뮤니케이션즈","tel":"031-794-2521","addr":"경기도 하남시 하산곡동 98-10번지","category":"문화.취미 - 티켓"}]},{"lat":"37.522485731","long":"127.22659173","items":[{"name":"아우토반","tel":"070-8236-5906","addr":"경기도 하남시 하산곡동 87-23번지","category":"자동차정비 유지 - 자동차정비"}]},{"lat":"37.524214051","long":"127.2274227","items":[{"name":"아이꿈터 광주하남점","tel":"031-765-3826","addr":"경기도 하남시 하산곡동 42번지","category":"서적문구 - 기타서적문구"}]},{"lat":"37.526213564","long":"127.22777939","items":[{"name":"아이씨모형","tel":"031-791-5600","addr":"경기도 하남시 하산곡동 27-1번지","category":"기타 - 기타 전문점"}]},{"lat":"37.502879906","long":"127.23145273","items":[{"name":"아트 스페이스 유(Art Space.You)","tel":"031-793-3682","addr":"경기도 하남시 하산곡동 426-4번지","category":"문화.취미 - 민예·공예품"},{"name":"오스테리아308(OSTERIA 308)","tel":"070-8834-6673","addr":"경기도 하남시 하산곡동 426-4번지","category":"일반휴게음식 - 서양음식"}]},{"lat":"37.501575615","long":"127.23034048","items":[{"name":"아트건설","tel":"","addr":"경기도 하남시 하산곡동 548-4번지","category":"서적문구 - 완구점"}]},{"lat":"37.504322313","long":"127.23102737","items":[{"name":"알핀코리아(주)","tel":"031-796-5781","addr":"경기도 하남시 하산곡동 386-2번지","category":"연료판매점 - 유류판매"}]},{"lat":"37.522019272","long":"127.22550438","items":[{"name":"약사 선원","tel":"031-975-8173","addr":"경기도 하남시 하산곡동 111-2번지","category":"신변잡화 - 기념품점"}]},{"lat":"37.522102041","long":"127.22461097","items":[{"name":"엄메디칼","tel":"","addr":"경기도 하남시 하산곡동 74-16번지 경환빌딩","category":"보건위생 - 의료용품"}]},{"lat":"37.507353061","long":"127.22924963","items":[{"name":"에이엔씨 (ANC)","tel":"031-8027-2083","addr":"경기도 하남시 하산곡동 328-2번지","category":"의류 - 정장"}]},{"lat":"37.518936328","long":"127.22633228","items":[{"name":"엠디리빙","tel":"031-792-0601","addr":"경기도 하남시 하산곡동 155-2번지","category":"신변잡화 - 기타잡화"}]},{"lat":"37.504575658","long":"127.23047398","items":[{"name":"오복식당","tel":"031-793-6572","addr":"경기도 하남시 하산곡동 387-5번지 외 1필지 1층","category":"일반휴게음식 - 일반한식"},{"name":"평창송어","tel":"031-794-7829","addr":"경기도 하남시 하산곡동 387-5번지 외1필지","category":"일반휴게음식 - 일식·회집"}]},{"lat":"37.51217974","long":"127.22589364","items":[{"name":"우드올렌스 하남점","tel":"02-1111-1111","addr":"경기도 하남시 하산곡동 246-1번지 2층","category":"가구 - 일반가구"}]},{"lat":"37.515742813","long":"127.22367595","items":[{"name":"우선타이어공업사","tel":"031-795-3222","addr":"경기도 하남시 하산곡동 204-18번지","category":"자동차정비 유지 - 자동차시트·타이어"}]},{"lat":"37.519486035","long":"127.22627736","items":[{"name":"우소한제원","tel":"031-723-4652","addr":"경기도 하남시 하산곡동 154-2번지","category":"약국 - 한약방"}]},{"lat":"37.508516608","long":"127.22858585","items":[{"name":"은성가구","tel":"02-1661-1780","addr":"경기도 하남시 하산곡동 328-1번지","category":"가구 - 기타가구"},{"name":"창훈미디어","tel":"031-699-1260","addr":"경기도 하남시 하산곡동 328-1번지","category":"전기제품 - 가전제품"}]},{"lat":"37.511294763","long":"127.2269542","items":[{"name":"자매식당","tel":"031-795-1885","addr":"경기도 하남시 하산곡동 313-18번지 1층","category":"일반휴게음식 - 일반한식"}]},{"lat":"37.506882354","long":"127.2303905","items":[{"name":"자올","tel":"031-794-9595","addr":"경기도 하남시 하산곡동 346-1번지","category":"일반휴게음식 - 일반한식"}]},{"lat":"37.519430132","long":"127.22725","items":[{"name":"자현수산","tel":"031-791-0726","addr":"경기도 하남시 하산곡동 127-3번지","category":"음료식품 - 농·축·수산품"}]},{"lat":"37.510713647","long":"127.22930502","items":[{"name":"주식회사 네프로메디","tel":"031-793-0382","addr":"경기도 하남시 하산곡동 292-8번지 3층","category":"약국 - 제약회사"}]},{"lat":"37.511015458","long":"127.22695336","items":[{"name":"주식회사 디에스산업","tel":"031-791-1006","addr":"경기도 하남시 하산곡동 314-2번지 101호","category":"건축자재 - 보일러·펌프·샷시"}]},{"lat":"37.526406502","long":"127.22581154","items":[{"name":"주식회사 생생포크","tel":"031-792-8519","addr":"경기도 하남시 하산곡동 51-1번지","category":"음료식품 - 정육점"}]},{"lat":"37.519568","long":"127.22581382","items":[{"name":"주식회사 수자연프레쉬","tel":"031-8028-1080","addr":"경기도 하남시 하산곡동 155-4번지","category":"음료식품 - 농·축·수산품"}]},{"lat":"37.518490502","long":"127.22861589","items":[{"name":"주식회사 엘림인더스트리","tel":"02-3392-5711","addr":"경기도 하남시 하산곡동 146-1번지","category":"건축자재 - 기타건축자재"}]},{"lat":"37.525158768","long":"127.2281156","items":[{"name":"주식회사 지지테크","tel":"031-796-1228","addr":"경기도 하남시 하산곡동 33번지","category":"농업 - 비료,사료,종자"},{"name":"지지그린주식회사","tel":"031-795-8013","addr":"경기도 하남시 하산곡동 33번지","category":"음료식품 - 농·축·수산품"}]},{"lat":"37.504655197","long":"127.23127719","items":[{"name":"주식회사꿈동산","tel":"","addr":"경기도 하남시 하산곡동 379-4번지","category":"용역 서비스 - 사무서비스"}]},{"lat":"37.521881815","long":"127.22672567","items":[{"name":"주식회사동천에프앤지","tel":"031-794-5262","addr":"경기도 하남시 하산곡동 89-3번지","category":"음료식품 - 정육점"}]},{"lat":"37.507768078","long":"127.23361653","items":[{"name":"주식회사청담","tel":"031-795-7919","addr":"경기도 하남시 하산곡동 364-2번지","category":"기타의료기관 - 기타의료기관 및 기타"}]},{"lat":"37.520464306","long":"127.22350887","items":[{"name":"중고부자","tel":"02-443-7515","addr":"경기도 하남시 하산곡동 204-94번지 1층","category":"가구 - 일반가구"}]},{"lat":"37.51682505","long":"127.22311357","items":[{"name":"진성어패럴","tel":"031-796-0790","addr":"경기도 하남시 하산곡동 204-3번지","category":"의류 - 정장"}]},{"lat":"37.519207671","long":"127.22577882","items":[{"name":"청렴 컴퍼니","tel":"070-8621-3678","addr":"경기도 하남시 하산곡동 163-3번지 202호","category":"용역 서비스 - 종합용역"}]},{"lat":"37.52104009","long":"127.22872537","items":[{"name":"캔들헤윰","tel":"","addr":"경기도 하남시 하산곡동 135-12번지","category":"신변잡화 - 기타잡화"}]},{"lat":"37.511349101","long":"127.22680732","items":[{"name":"코지플레이스(Cosy place)","tel":"031-796-6794","addr":"경기도 하남시 하산곡동 313-15번지","category":"가구 - 일반가구"},{"name":"한성","tel":"031-794-4266","addr":"경기도 하남시 하산곡동 313-15번지 1층","category":"유통업 영리 - 기타유통업"}]},{"lat":"37.519569045","long":"127.22525955","items":[{"name":"키토식품산업","tel":"031-795-1562","addr":"경기도 하남시 하산곡동 167-1번지","category":"유통업 영리 - 기타유통업"}]},{"lat":"37.523240452","long":"127.22770259","items":[{"name":"태영E.N.G","tel":"031-792-8458","addr":"경기도 하남시 하산곡동 92번지","category":"전기제품 - 냉열기기"}]},{"lat":"37.519572649","long":"127.22333657","items":[{"name":"포니자동차공업사","tel":"031-794-0113","addr":"경기도 하남시 하산곡동 185-2번지","category":"자동차정비 유지 - 자동차정비"}]},{"lat":"37.525628335","long":"127.22756269","items":[{"name":"푸른숲어린이집[아이행복]","tel":"031-795-5683","addr":"경기도 하남시 하산곡동 31-2번지","category":"학원 - 유아원"}]},{"lat":"37.505709983","long":"127.23095243","items":[{"name":"하남쎈팔","tel":"031-792-7603","addr":"경기도 하남시 하산곡동 337-1번지","category":"기타 - 기타 전문점"}]},{"lat":"37.511906337","long":"127.22753286","items":[{"name":"하남요양병원","tel":"031-795-3805","addr":"경기도 하남시 하산곡동 303번지","category":"의원 - 한의원"}]},{"lat":"37.51571517","long":"127.22400389","items":[{"name":"하남종합개발공사","tel":"031-796-0472","addr":"경기도 하남시 하산곡동 207-13번지","category":"건축자재 - 기타건축자재"}]},{"lat":"37.521491744","long":"127.22334221","items":[{"name":"하남탑차냉동","tel":"031-792-9920","addr":"경기도 하남시 하산곡동 558번지","category":"수리서비스 - 기타수리서비스"}]},{"lat":"37.506987193","long":"127.2320873","items":[{"name":"한국유아숲인성연구소","tel":"","addr":"경기도 하남시 하산곡동 352-10번지","category":"용역 서비스 - 사무서비스"}]},{"lat":"37.51579505","long":"127.22464886","items":[{"name":"한길","tel":"","addr":"경기도 하남시 하산곡동 209-1번지 1층","category":"자동차정비 유지 - 자동차정비"}]},{"lat":"37.507688285","long":"127.22827799","items":[{"name":"한라물산","tel":"031-795-4358","addr":"경기도 하남시 하산곡동 326-31번지","category":"의류 - 정장"}]},{"lat":"37.507768791","long":"127.2285836","items":[{"name":"한려정밀","tel":"031-792-3074","addr":"경기도 하남시 하산곡동 326-8번지","category":"기타 - 기계공구"}]},{"lat":"37.50559972","long":"127.23206044","items":[{"name":"한미특수정밀","tel":"031-796-1557","addr":"경기도 하남시 하산곡동 372-1번지","category":"자동차정비 유지 - 자동차부품"}]},{"lat":"37.526101","long":"127.22536944","items":[{"name":"한성시스템창호","tel":"031-796-0952","addr":"경기도 하남시 하산곡동 51-3번지","category":"건축자재 - 보일러·펌프·샷시"}]},{"lat":"37.515958436","long":"127.22400461","items":[{"name":"한신정보통신","tel":"02-1111-1111","addr":"경기도 하남시 하산곡동 207-29번지","category":"사무통신 - 통신기기"}]},{"lat":"37.522568188","long":"127.225868","items":[{"name":"해오름 요양센터","tel":"031-791-0032","addr":"경기도 하남시 하산곡동 79-5번지 ,1-3층","category":"기타의료기관 - 기타의료기관 및 기타"}]},{"lat":"37.503294358","long":"127.22674934","items":[{"name":"햇살란농원","tel":"031-793-7332","addr":"경기도 하남시 하산곡동 산74-4번지","category":"문화.취미 - 화원"}]},{"lat":"37.504572487","long":"127.23211384","items":[{"name":"헤레이스","tel":"02-755-6446","addr":"경기도 하남시 하산곡동 381번지","category":"보건위생 - 화장품"}]},{"lat":"37.511661086","long":"127.24230369","items":[{"name":"훈트켄넬","tel":"031-794-7104","addr":"경기도 하남시 하산곡동 산18-1","category":"문화.취미 - 애완동물"}]}]