[{"lat":"37.617331473","long":"126.62098551","imageIndex":4,"items":[{"name":"60계 치킨 양촌점","tel":"031-999-7272","addr":"경기도 김포시 양촌읍 학운리 2979번지 이젠몰 다동 122호","indutype":"일반음식점","category":"restaurant"},{"name":"가정식자연밥상","tel":"","addr":"경기도 김포시 양촌읍 학운리 2979번지 이젠몰 다동 218호","indutype":"일반음식점","category":"restaurant"},{"name":"김밥천국학운리","tel":"","addr":"경기도 김포시 양촌읍 학운리 2979번지 이젠아파트형공장 다동 104호","indutype":"일반음식점","category":"restaurant"},{"name":"진천토종순대국","tel":"031-999-5989","addr":"경기도 김포시 양촌읍 학운리 2979번지 이젠아파트형공장 103호","indutype":"일반음식점","category":"restaurant"},{"name":"훌랄라치킨","tel":"","addr":"경기도 김포시 양촌읍 학운리 2979번지 이젠몰 상가 가동 104호","indutype":"일반음식점","category":"restaurant"}]},{"lat":"37.620188865","long":"126.62700814","imageIndex":4,"items":[{"name":"L'scafe(엘스카페)","tel":"031-997-7923","addr":"경기도 김포시 양촌읍 학운리 2863번지 1층L's cafe","indutype":"일반음식점","category":"restaurant"}]},{"lat":"37.610771481","long":"126.6179272","imageIndex":4,"items":[{"name":"가마솥순대국","tel":"","addr":"경기도 김포시 양촌읍 학운리 3560번지 골드프라자 1층","indutype":"일반음식점","category":"restaurant"},{"name":"중화요리남경","tel":"","addr":"경기도 김포시 양촌읍 학운리 3560번지 골드프라자 1층","indutype":"일반음식점","category":"restaurant"}]},{"lat":"37.619962796","long":"126.62674876","imageIndex":4,"items":[{"name":"금성숯불장어","tel":"050-7130-34473","addr":"경기도 김포시 양촌읍 학운리 2844번지 1층 금성숯불갈비","indutype":"일반음식점","category":"restaurant"}]},{"lat":"37.617713461","long":"126.62209356","imageIndex":4,"items":[{"name":"놀부부대찌개&족발,보쌈(김포양","tel":"","addr":"경기도 김포시 양촌읍 학운리 2987번지 119호 놀부부대찌개","indutype":"일반음식점","category":"restaurant"},{"name":"명동칼국수","tel":"031-986-6822","addr":"경기도 김포시 양촌읍 학운리 2987번지 동양빌딜 111호","indutype":"일반음식점","category":"restaurant"},{"name":"용감자탕","tel":"031-982-8928","addr":"경기도 김포시 양촌읍 학운리 2987번지 동양프라자 용감자탕","indutype":"일반음식점","category":"restaurant"},{"name":"전주미콩나물국밥","tel":"031-997-9672","addr":"경기도 김포시 양촌읍 학운리 2987번지 동양프라자 106호","indutype":"일반음식점","category":"restaurant"}]},{"lat":"37.619961387","long":"126.62630702","imageIndex":4,"items":[{"name":"땅끝산장","tel":"031-984-7191","addr":"경기도 김포시 양촌읍 학운리 2839번지 1층 땅끝산장","indutype":"일반음식점","category":"restaurant"}]},{"lat":"37.60519192","long":"126.59308706","imageIndex":4,"items":[{"name":"또봉이통닭(학운점)","tel":"","addr":"경기도 김포시 양촌읍 학운리 3306번지","indutype":"일반음식점","category":"restaurant"}]},{"lat":"37.606937352","long":"126.59498006","imageIndex":4,"items":[{"name":"란나타이식당","tel":"","addr":"경기도 김포시 양촌읍 학운리 3792번지 105호 란나타이식당","indutype":"일반음식점","category":"restaurant"}]},{"lat":"37.620911324","long":"126.62753688","imageIndex":4,"items":[{"name":"맛고을영양탕","tel":"","addr":"경기도 김포시 양촌읍 학운리 2885번지 맛고을영양탕","indutype":"일반음식점","category":"restaurant"}]},{"lat":"37.603159769","long":"126.59425329","imageIndex":4,"items":[{"name":"방가네밥상","tel":"","addr":"경기도 김포시 양촌읍 학운리 448-324번지 1층","indutype":"일반음식점","category":"restaurant"}]},{"lat":"37.619907633","long":"126.62358884","imageIndex":4,"items":[{"name":"수랏간김상궁","tel":"","addr":"경기도 김포시 양촌읍 학운리 2821번지 1층","indutype":"일반음식점","category":"restaurant"}]},{"lat":"37.619969059","long":"126.62588789","imageIndex":4,"items":[{"name":"수페리올피자양촌점","tel":"","addr":"경기도 김포시 양촌읍 학운리 2837번지 수페리올피자","indutype":"일반음식점","category":"restaurant"}]},{"lat":"37.619962002","long":"126.62649958","imageIndex":4,"items":[{"name":"오가네맛집","tel":"031-984-5868","addr":"경기도 김포시 양촌읍 학운리 2840번지 1층","indutype":"일반음식점","category":"restaurant"}]},{"lat":"37.619964744","long":"126.62736041","imageIndex":4,"items":[{"name":"요리왕","tel":"","addr":"경기도 김포시 양촌읍 학운리 2847번지 요리왕","indutype":"일반음식점","category":"restaurant"}]},{"lat":"37.615073699","long":"126.62211835","imageIndex":4,"items":[{"name":"한식뷔페엄마밥상","tel":"","addr":"경기도 김포시 양촌읍 학운리 2980-3번지 뉴테크산업지식센터 1호","indutype":"일반음식점","category":"restaurant"}]},{"lat":"37.621408002","long":"126.62789685","imageIndex":4,"items":[{"name":"흥부가반해버리고놀부가기절한닭강정","tel":"031-986-9844","addr":"경기도 김포시 양촌읍 학운리 2879번지 팰리스마트","indutype":"일반음식점","category":"restaurant"}]}]