[{"lat":"37.336475378","long":"126.775279","items":[{"name":"#h첫번째이야기","tel":"031-508-6562","addr":"경기도 안산시 단원구 신길동 1445번지 두산위브아파트 상가동 2층 201호","category":"보건위생 - 미용원"},{"name":"신길 인테리어","tel":"031-491-8746","addr":"경기도 안산시 단원구 신길동 1445번지 두산위브아파트 상가동 101호","category":"건축자재 - 인테리어전문"}]},{"lat":"37.330478341","long":"126.78688506","items":[{"name":"(사)대한산업보건협회 안산산업보건센터","tel":"031-498-1063","addr":"경기도 안산시 단원구 신길동 1614번지","category":"기타 - 비영리/대상"},{"name":"(주) 한트럭","tel":"","addr":"경기도 안산시 단원구 신길동 1614번지 신우프라자 603호","category":"용역 서비스 - 사무서비스"},{"name":"동네전집","tel":"031-494-7679","addr":"경기도 안산시 단원구 신길동 1614번지 1동 105호","category":"일반휴게음식 - 일반한식"},{"name":"또봉이치킨 (신길휴먼시아점)","tel":"031-492-7005","addr":"경기도 안산시 단원구 신길동 1614번지 신우프라자 101호","category":"일반휴게음식 - 일반한식"},{"name":"성화테크","tel":"031-434-7452","addr":"경기도 안산시 단원구 신길동 1614번지 603호","category":"용역 서비스 - 기타용역서비스"},{"name":"엔와이투커피","tel":"031-411-8401","addr":"경기도 안산시 단원구 신길동 1614번지 602호","category":"음료식품 - 기타음료식품"},{"name":"예쁜마음치과의원","tel":"031-494-7940","addr":"경기도 안산시 단원구 신길동 1614번지","category":"의원 - 치과의원"},{"name":"입시의한수학원","tel":"031-504-6335","addr":"경기도 안산시 단원구 신길동 1614번지 702호,703호","category":"학원 - 보습학원"},{"name":"카툰명가신길점","tel":"031-111-1111","addr":"경기도 안산시 단원구 신길동 1614번지 7층","category":"레저업소 - 기타레져업소"},{"name":"카페리빈","tel":"031-492-9977","addr":"경기도 안산시 단원구 신길동 1614번지 104호","category":"일반휴게음식 - 서양음식"},{"name":"행복한밥상","tel":"070-6524-6868","addr":"경기도 안산시 단원구 신길동 1614번지 103호","category":"일반휴게음식 - 일반한식"},{"name":"홍춘천","tel":"031-491-9293","addr":"경기도 안산시 단원구 신길동 1614번지 102호","category":"일반휴게음식 - 일반한식"}]},{"lat":"37.324368921","long":"126.75880936","items":[{"name":"(주) 아워홈뉴프렉스안산점","tel":"02-6966-9049","addr":"경기도 안산시 단원구 신길동 1055번지","category":"일반휴게음식 - 위탁급식업"},{"name":"(주)엔트리씨에스전자파연구원/원격지","tel":"031-493-2001","addr":"경기도 안산시 단원구 신길동 1055번지 반월공단603-4","category":"기타 - 기타 전문점"}]},{"lat":"37.329865138","long":"126.78660474","items":[{"name":"(주) 에스엠케이","tel":"031-364-8740","addr":"경기도 안산시 단원구 신길동 1623번지 모리아오피스텔 3층 301호","category":"용역 서비스 - 종합용역"},{"name":"Avec cafe(아베크카페)","tel":"031-495-7787","addr":"경기도 안산시 단원구 신길동 1623번지 모리아오피스텔 111호","category":"일반휴게음식 - 일반한식"},{"name":"강남포차","tel":"031-1111-1111","addr":"경기도 안산시 단원구 신길동 1623번지 모리아오피스텔 119호","category":"일반휴게음식 - 일반한식"},{"name":"광원떡방앗간(신길점)","tel":"031-495-0988","addr":"경기도 안산시 단원구 신길동 1623번지 모리아오피스텔 101호","category":"음료식품 - 제과점"},{"name":"굿마트 안산모리아점","tel":"","addr":"경기도 안산시 단원구 신길동 1623번지 외1필지 108호","category":"유통업 영리 - 슈퍼마켓"},{"name":"낚시백화점","tel":"031-495-7335","addr":"경기도 안산시 단원구 신길동 1623번지 모리아오피스텔 102호","category":"레져용품 - 스포츠·레져용품"},{"name":"더달달안산신길점","tel":"","addr":"경기도 안산시 단원구 신길동 1623번지 모리아오피스텔 110호","category":"음료식품 - 기타음료식품"},{"name":"밥포유","tel":"031-433-1119","addr":"경기도 안산시 단원구 신길동 1623번지 모리아오피스텔 115호","category":"일반휴게음식 - 일반한식"},{"name":"서설화장품","tel":"","addr":"경기도 안산시 단원구 신길동 1623번지 모리아오피스텔 105호","category":"보건위생 - 화장품"},{"name":"서희모바일","tel":"031-493-4866","addr":"경기도 안산시 단원구 신길동 1623번지 모리아오피스텔 1층 113호","category":"사무통신 - 통신기기"},{"name":"쉬즈타임네일","tel":"031-493-9393","addr":"경기도 안산시 단원구 신길동 1623번지 모리아오피스텔 120호","category":"보건위생 - 피부미용실"},{"name":"아베크카페","tel":"031-495-7787","addr":"경기도 안산시 단원구 신길동 1623번지 모리아오피스텔 111호","category":"일반휴게음식 - 서양음식"},{"name":"앱스","tel":"031-495-7335","addr":"경기도 안산시 단원구 신길동 1623번지 모리아오피스텔 103호","category":"레져용품 - 스포츠·레져용품"},{"name":"에스(S)헤어앤네일","tel":"031-492-0202","addr":"경기도 안산시 단원구 신길동 1623번지 모리아오피스텔 116호","category":"보건위생 - 미용원"},{"name":"연세약국","tel":"031-491-7576","addr":"경기도 안산시 단원구 신길동 1623번지 모리아오피스텔 107호","category":"약국 - 약국"},{"name":"연세킹의원","tel":"031-508-0365","addr":"경기도 안산시 단원구 신길동 1623번지 모리아오피스텔302-1,302-3,303,304호","category":"의원 - 의원"},{"name":"온새미로","tel":"031-493-3141","addr":"경기도 안산시 단원구 신길동 1623번지 모리아오피스텔 1층 118호","category":"일반휴게음식 - 일반한식"},{"name":"치킨마루(안산신길점)","tel":"031-492-6667","addr":"경기도 안산시 단원구 신길동 1623번지 모리아오피스텔 114호","category":"일반휴게음식 - 스넥"},{"name":"치킨마루(안산신길점)","tel":"031-492-6667","addr":"경기도 안산시 단원구 신길동 1623번지 모리아오피스텔 114호","category":"일반휴게음식 - 스넥"},{"name":"쿠(COO)안산점","tel":"031-493-3010","addr":"경기도 안산시 단원구 신길동 1623번지 모리아오피스텔 113호","category":"일반휴게음식 - 서양음식"},{"name":"팡팡노래연습장","tel":"070-8112-3733","addr":"경기도 안산시 단원구 신길동 1623번지 모리아오피스텔 205호 206","category":"레저업소 - 노 래 방"},{"name":"포레스트엘피","tel":"031-493-4819","addr":"경기도 안산시 단원구 신길동 1623번지 모리아오피스텔 201,207호","category":"레저업소 - 기타레져업소"},{"name":"플라워 스튜디오 노아","tel":"","addr":"경기도 안산시 단원구 신길동 1623번지 모리아오피스텔 119호","category":"문화.취미 - 화원"},{"name":"홍두깨손칼국수","tel":"031-493-7978","addr":"경기도 안산시 단원구 신길동 1623번지 모리아오피스텔 113호","category":"일반휴게음식 - 일반한식"}]},{"lat":"37.324341286","long":"126.77197601","items":[{"name":"(주) 엠씨에이","tel":"031-495-1260","addr":"경기도 안산시 단원구 신길동 1080-7번지","category":"건축자재 - 기타건축자재"},{"name":"세영에이엠","tel":"031-502-6061","addr":"경기도 안산시 단원구 신길동 1080-7번지 102호 사무동","category":"기타 - 기계공구"}]},{"lat":"37.336391871","long":"126.77402671","items":[{"name":"(주)가가","tel":"031-494-4660","addr":"경기도 안산시 단원구 신길동 658-9번지","category":"유통업 영리 - 기타유통업"},{"name":"더스킨앤바디","tel":"031-405-6256","addr":"경기도 안산시 단원구 신길동 658-9번지 1층 102호","category":"보건위생 - 피부미용실"},{"name":"미가밥상","tel":"031-493-5377","addr":"경기도 안산시 단원구 신길동 658-9번지","category":"일반휴게음식 - 일반한식"},{"name":"엘이디(LED)루미피아","tel":"031-495-6826","addr":"경기도 안산시 단원구 신길동 658-9번지","category":"건축자재 - 조명기구"},{"name":"요거프레소안산신길점","tel":"031-494-7161","addr":"경기도 안산시 단원구 신길동 658-9번지 101호","category":"일반휴게음식 - 서양음식"}]},{"lat":"37.323200941","long":"126.77871499","items":[{"name":"(주)강동전력공사","tel":"031-310-8744","addr":"경기도 안산시 단원구 신길동 1123번지 안산디지털파크 1002호","category":"용역 서비스 - 기타용역서비스"},{"name":"(주)씨엔에이시스템","tel":"031-310-8931","addr":"경기도 안산시 단원구 신길동 1123번지 안산디지털파크 3015호","category":"전기제품 - 기타전기제품"},{"name":"(주)에프엘솔루션","tel":"031-310-1840","addr":"경기도 안산시 단원구 신길동 1123번지 안산디지털파크 B116호","category":"기타 - 기계공구"},{"name":"(주)커뮤니케이션어드벤스드테크놀러지","tel":"070-7711-1385","addr":"경기도 안산시 단원구 신길동 1123번지 안산디지털파크 1035,1036호","category":"전기제품 - 기타전기제품"},{"name":"(주)티원엔지니어링","tel":"031-310-4797","addr":"경기도 안산시 단원구 신길동 1123번지 안산디지털파크 3011호","category":"기타 - 기계공구"},{"name":"(주)한길에이치씨/원격지","tel":"031-431-2005","addr":"경기도 안산시 단원구 신길동 1123번지 안산디지털파크 4006호","category":"기타 - 기타 전문점"},{"name":"K2 파워콤프레샤","tel":"031-430-3184","addr":"경기도 안산시 단원구 신길동 1123번지 안산디지털파크 5층 5006호","category":"기타 - 기계공구"},{"name":"고려씰링산업사","tel":"031-310-8811","addr":"경기도 안산시 단원구 신길동 1123번지 안산디지털파크 B130호","category":"기타 - 기계공구"},{"name":"기성테크","tel":"031-310-8808","addr":"경기도 안산시 단원구 신길동 1123번지 만산디지털파크 제 5층 5028호","category":"전기제품 - 기타전기제품"},{"name":"뉴텍엔지니어링","tel":"031-310-1906","addr":"경기도 안산시 단원구 신길동 1123번지 1층 비126호,6층 6001,6013호","category":"기타 - 기계공구"},{"name":"늘한식부페","tel":"031-301-8399","addr":"경기도 안산시 단원구 신길동 1123번지 1층 1028,1929,1030호","category":"일반휴게음식 - 일반한식"},{"name":"대망기업","tel":"031-310-8320","addr":"경기도 안산시 단원구 신길동 1123번지 안산디지털파크 2027호","category":"용역 서비스 - 종합용역"},{"name":"대승산업","tel":"031-310-8677","addr":"경기도 안산시 단원구 신길동 1123번지 안산디지털파크 B동 106호","category":"건축자재 - 목재·석재·철물"},{"name":"대진기연","tel":"031-310-8544","addr":"경기도 안산시 단원구 신길동 1123번지 안산디지털파크 1층 1074호","category":"기타 - 기계공구"},{"name":"대하수중펌프","tel":"031-485-4781","addr":"경기도 안산시 단원구 신길동 1123번지 안산디지털파크 1063호","category":"건축자재 - 보일러·펌프·샷시"},{"name":"동방환기","tel":"031-492-8360","addr":"경기도 안산시 단원구 신길동 1123번지 안산디지털파크 1080호","category":"용역 서비스 - 종합용역"},{"name":"디엔에스솔루텍","tel":"031-310-8835","addr":"경기도 안산시 단원구 신길동 1123 안산디지털파크 2004","category":"기타 - 기계공구"},{"name":"디엠에프씨(주)","tel":"031-310-8777","addr":"경기도 안산시 단원구 신길동 1123번지 B115,112,119호","category":"기타 - 기계공구"},{"name":"디지털 카 플라자","tel":"031-310-8655","addr":"경기도 안산시 단원구 신길동 1123번지 안산디지털파크 1053호","category":"자동차정비 유지 - 자동차정비"},{"name":"디지털파크식당","tel":"031-310-8565","addr":"경기도 안산시 단원구 신길동 1123번지 안산디지털파크 1층 1041호","category":"일반휴게음식 - 일반한식"},{"name":"린/원격지","tel":"031-310-8346","addr":"경기도 안산시 단원구 신길동 1123 안산디지털3층3044호","category":"기타 - 기타 전문점"},{"name":"미래정보기술","tel":"031-310-8828","addr":"경기도 안산시 단원구 신길동 1123번지 안산디지털파크 5003호","category":"전기제품 - 기타전기제품"},{"name":"반석이엔지","tel":"031-310-1946","addr":"경기도 안산시 단원구 신길동 1123번지 안산디지털파크 1층 1019호","category":"기타 - 기계공구"},{"name":"비젼시스템","tel":"031-310-1808","addr":"경기도 안산시 단원구 신길동 1123번지 안산디지털파크 5002호","category":"서적문구 - 출판 및 인쇄물"},{"name":"선경반점","tel":"031-310-1995","addr":"경기도 안산시 단원구 신길동 1123번지 안산디지털파크 1001호","category":"일반휴게음식 - 중국식"},{"name":"성부조명","tel":"070-4235-2518","addr":"경기도 안산시 단원구 신길동 1123번지 안산디지털파크 2019","category":"건축자재 - 조명기구"},{"name":"신성플라텍","tel":"031-310-8660","addr":"경기도 안산시 단원구 신길동 1123번지 안산디지털파크 1013호","category":"기타 - 기타 전문점"},{"name":"아름푸드","tel":"031-310-8989","addr":"경기도 안산시 단원구 신길동 1123번지 지하 101-2호","category":"일반휴게음식 - 일반한식"},{"name":"에스피전자","tel":"031-310-8524","addr":"경기도 안산시 단원구 신길동 1123번지 안산디지털파크 6층 6011호","category":"전기제품 - 기타전기제품"},{"name":"에이스텍/원격지","tel":"","addr":"경기도 안산시 단원구 신길동 1123 안산디지탈파크6003","category":"기타 - 기타 전문점"},{"name":"용암골순대국","tel":"031-310-8399","addr":"경기도 안산시 단원구 신길동 1123번지 안산디지털파크 1028,1029,1030호","category":"일반휴게음식 - 일반한식"},{"name":"우리토방","tel":"031-495-0630","addr":"경기도 안산시 단원구 신길동 1123번지 안산디지털파크 3024호","category":"문화.취미 - 민예·공예품"},{"name":"위드미안산디지털점","tel":"02-6916-1500","addr":"경기도 안산시 단원구 신길동 1123번지 안산디지털파크 1009호","category":"유통업 영리 - 편 의 점"},{"name":"윈텍코리아","tel":"031-310-1992","addr":"경기도 안산시 단원구 신길동 1123번지","category":"건축자재 - 보일러·펌프·샷시"},{"name":"이노레이저테크","tel":"031-310-8626","addr":"경기도 안산시 단원구 신길동 1123번지 안산디지털파크 6층 6022호","category":"전기제품 - 기타전기제품"},{"name":"이유시스템","tel":"031-310-8605","addr":"경기도 안산시 단원구 신길동 1123번지 안산디지털파크 B116호","category":"기타 - 기계공구"},{"name":"이젠커머스","tel":"070-4694-0059","addr":"경기도 안산시 단원구 신길동 1123번지 안산디지털파크 2층 2004호","category":"자동차정비 유지 - 자동차부품"},{"name":"인스포츠","tel":"031-310-8392","addr":"경기도 안산시 단원구 신길동 1123번지 안산디지털파크 6013호","category":"레져용품 - 골프용품 전문점"},{"name":"일풍산업","tel":"031-310-8866","addr":"경기도 안산시 단원구 신길동 1123번지 안산디지털파크 3028호","category":"직물 - 기타직물"},{"name":"정성기공","tel":"031-431-6133","addr":"경기도 안산시 단원구 신길동 1123 안산디지털파크1층1105호,1106호","category":"기타 - 기계공구"},{"name":"제이앤이테크","tel":"031-310-8512","addr":"경기도 안산시 단원구 신길동 1123","category":"전기제품 - 기타전기제품"},{"name":"주식회사 위너","tel":"031-494-3306","addr":"경기도 안산시 단원구 신길동 1123번지 3018, 3019, 3020호","category":"기타 - 기계공구"},{"name":"주식회사 일정아이앤씨","tel":"031-310-1897","addr":"경기도 안산시 단원구 신길동 1123번지 안산디지털파크 5039호","category":"기타 - 기계공구"},{"name":"주식회사 플러스전기","tel":"031-310-8847","addr":"경기도 안산시 단원구 신길동 1123번지 안산디지털파크 B137호","category":"용역 서비스 - 기타용역서비스"},{"name":"주식회사 해피존","tel":"031-310-1944","addr":"경기도 안산시 단원구 신길동 1123번지 안산디지털파크 3049호","category":"가구 - 일반가구"},{"name":"지산무역","tel":"031-310-8718","addr":"경기도 안산시 단원구 신길동 1123번지 안산디지털파크 6014호","category":"기타 - 기계공구"},{"name":"커피노커스(안산디지털파크점)","tel":"031-310-8963","addr":"경기도 안산시 단원구 신길동 1123번지 안산디지털파크 1007호","category":"일반휴게음식 - 서양음식"},{"name":"커피앤","tel":"031-310-8783","addr":"경기도 안산시 단원구 신길동 1123번지 B112호","category":"일반휴게음식 - 일반한식"},{"name":"코엔","tel":"031-310-8391","addr":"경기도 안산시 단원구 신길동 1123번지 안산디지털파크 5층 5031호","category":"서적문구 - 과학기자재"},{"name":"코엔/원격지","tel":"02-833-8391","addr":"경기도 안산시 단원구 신길동 1123번지 안산디지털파크 5층 5031호","category":"기타 - 기타 전문점"},{"name":"쿨텍","tel":"031-310-8882","addr":"경기도 안산시 단원구 신길동 1123번지 안산디지털파크 6028호","category":"전기제품 - 기타전기제품"},{"name":"포원 로보틱스(For-one ROBOTICS)","tel":"070-4141-1155","addr":"경기도 안산시 단원구 신길동 1123번지 안산디지털파크 5031호","category":"수리서비스 - 기타수리서비스"},{"name":"포크돈까스","tel":"031-310-8579","addr":"경기도 안산시 단원구 신길동 1123번지 안산디지털파크 1011호","category":"일반휴게음식 - 일반한식"},{"name":"하늘기업","tel":"031-310-8781","addr":"경기도 안산시 단원구 신길동 1123 안산디지털파크 2층 2025,2026호","category":"기타 - 기계공구"},{"name":"한정식부페","tel":"031-310-1828","addr":"경기도 안산시 단원구 신길동 1123번지 안산디지털파크 공장동 1010호","category":"일반휴게음식 - 일반한식"}]},{"lat":"37.319671215","long":"126.75716614","items":[{"name":"(주)나노시스안산지점","tel":"031-494-4368","addr":"경기도 안산시 단원구 신길동 1060-1 605블럭21롯트","category":"전기제품 - 기타전기제품"}]},{"lat":"37.33486381","long":"126.76225087","items":[{"name":"(주)대하에스코","tel":"031-434-9777","addr":"경기도 안산시 단원구 신길동 1429-3번지 대하빌딩","category":"전기제품 - 기타전기제품"}]},{"lat":"37.322783116","long":"126.75021748","items":[{"name":"(주)동화전자","tel":"031-432-8418","addr":"경기도 안산시 단원구 신길동 1070-9번지 1층","category":"전기제품 - 기타전기제품"}]},{"lat":"37.334700893","long":"126.76189031","items":[{"name":"(주)맑은누리","tel":"031-405-1203","addr":"경기도 안산시 단원구 신길동 1429-5번지","category":"용역 서비스 - 종합용역"}]},{"lat":"37.325005446","long":"126.7848586","items":[{"name":"(주)메카전자/원격지","tel":"031-493-1908","addr":"경기도 안산시 단원구 신길동 1228-1번지 정우벤처2 526호","category":"기타 - 기타 전문점"},{"name":"(주)모터라인","tel":"031-494-9611","addr":"경기도 안산시 단원구 신길동 1228-1번지 정우벤처타운 101호","category":"기타 - 기타 전문점"},{"name":"(주)시흥이엔지","tel":"031-492-8788","addr":"경기도 안산시 단원구 신길동 1228-1번지 정우벤처타운2차 116호","category":"용역 서비스 - 기타용역서비스"},{"name":"(주)신한이엔지/원격지","tel":"031-366-7060","addr":"경기도 안산시 단원구 신길동 1228-1번지 정우벤처타운2 218호","category":"기타 - 기타 전문점"},{"name":"(주)에이썬테크놀러지","tel":"031-492-8332","addr":"경기도 안산시 단원구 신길동 1228-1번지 정우벤쳐타운2 315호","category":"전기제품 - 기타전기제품"},{"name":"(주)영진유통","tel":"031-494-1300","addr":"경기도 안산시 단원구 신길동 1228-1번지 정우벤처타운2 104호","category":"음료식품 - 농·축·수산품"},{"name":"(주)이컴정보기술","tel":"031-481-4645","addr":"경기도 안산시 단원구 신길동 1228-1번지 정우벤처2차 407,408호","category":"사무통신 - 컴퓨터"},{"name":"(주)조은커뮤니케이션","tel":"031-492-5070","addr":"경기도 안산시 단원구 신길동 1228-1번지 정우벤처타운2 508호","category":"사무통신 - 통신기기"},{"name":"(주)조은커뮤니케이션/원격지","tel":"031-492-5070","addr":"경기도 안산시 단원구 신길동 1228-1번지 정우벤쳐타운2 508호","category":"기타 - 기타 전문점"},{"name":"(주)파라테크","tel":"031-319-1241","addr":"경기도 안산시 단원구 신길동 1228-1번지 정우벤처타운2차 803호","category":"서적문구 - 과학기자재"},{"name":"(주)퓨어엔비텍","tel":"031-495-0575","addr":"경기도 안산시 단원구 신길동 1228-1번지 정우벤쳐타운2차 511호","category":"기타 - 기타 전문점"},{"name":"AM메탈","tel":"031-498-9213","addr":"경기도 안산시 단원구 신길동 1288-1 정우벤쳐타운2차119호","category":"건축자재 - 기타건축자재"},{"name":"강산바이오워터","tel":"031-446-0154","addr":"경기도 안산시 단원구 신길동 1228-1번지 정우벤처타운 310호","category":"주방용구 - 정수기"},{"name":"공구도우미","tel":"031-492-0950","addr":"경기도 안산시 단원구 신길동 1228-1번지 정우벤쳐II 121-1호","category":"기타 - 기계공구"},{"name":"광운엔지니어링","tel":"031-491-4261","addr":"경기도 안산시 단원구 신길동 1228-1번지 정우벤처타운Ⅱ 704호","category":"전기제품 - 기타전기제품"},{"name":"구도","tel":"031-495-0282","addr":"경기도 안산시 단원구 신길동 1228-1번지 정우벤쳐타운2 719호","category":"기타 - 기계공구"},{"name":"권세기건","tel":"031-8839-1971","addr":"경기도 안산시 단원구 신길동 1228-1번지 418 정우벤처타운2","category":"건축자재 - 기타건축자재"},{"name":"금룡TS","tel":"031-493-1983","addr":"경기도 안산시 단원구 신길동 1228-1번지 정우벤처타운2 201호","category":"서적문구 - 출판 및 인쇄물"},{"name":"남선프로파일총판","tel":"031-508-4678","addr":"경기도 안산시 단원구 신길동 1228-1번지 정우벤처타운 120호","category":"기타 - 기계공구"},{"name":"다인메카테크","tel":"031-508-2238","addr":"경기도 안산시 단원구 신길동 1228-1번지 정우벤처타운 227호","category":"기타 - 기계공구"},{"name":"메카전자","tel":"031-493-1908","addr":"경기도 안산시 단원구 신길동 1228-1번지 정우벤처 2동 526호","category":"전기제품 - 기타전기제품"},{"name":"모터라인","tel":"031-494-9611","addr":"경기도 안산시 단원구 신길동 1228-1번지 정우벤쳐타운2 1층 제101호","category":"기타 - 기계공구"},{"name":"새한테크","tel":"031-508-6931","addr":"경기도 안산시 단원구 신길동 1228-1번지 정우벤처타운2차 509호","category":"기타 - 기타 전문점"},{"name":"새한테크/원격지","tel":"031-508-6931","addr":"경기도 안산시 단원구 신길동 1228-1번지 정우벤처타운2차 509호","category":"기타 - 기타 전문점"},{"name":"선흥토탈","tel":"031-495-5404","addr":"경기도 안산시 단원구 신길동 1228-1정우벤처타운112-1","category":"서적문구 - 출판 및 인쇄물"},{"name":"성목엔지니어링","tel":"031-491-4803","addr":"경기도 안산시 단원구 신길동 1228-1번지 정우벤처타운II 311호","category":"전기제품 - 기타전기제품"},{"name":"세원소방","tel":"031-495-8247","addr":"경기도 안산시 단원구 신길동 1228-1번지 정우벤처2 125호","category":"기타 - 기타 전문점"},{"name":"세진테크","tel":"031-492-8952","addr":"경기도 안산시 단원구 신길동 1228-1번지 정우벤처타운2 103호","category":"기타 - 기계공구"},{"name":"신영EDM","tel":"031-493-7932","addr":"경기도 안산시 단원구 신길동 1228-1번지 정우벤처타운2 1층 113호","category":"기타 - 기계공구"},{"name":"쓰리데이즈빈(Three Days Bean)","tel":"070-4208-8976","addr":"경기도 안산시 단원구 신길동 1228-1번지 정우벤쳐타운2 422호","category":"음료식품 - 기타음료식품"},{"name":"씨엠피프라자(CMPplaza)","tel":"031-493-4556","addr":"경기도 안산시 단원구 신길동 1228-1번지 정우벤처타운2차 705호","category":"서적문구 - 문구용품"},{"name":"아띠식당","tel":"031-507-3830","addr":"경기도 안산시 단원구 신길동 1228-1번지 130동 1호 정우벤처타운2","category":"일반휴게음식 - 일반한식"},{"name":"아띠식당","tel":"031-507-3830","addr":"경기도 안산시 단원구 신길동 1228-1번지 103-1호","category":"일반휴게음식 - 일반한식"},{"name":"아인커뮤니케이션","tel":"070-7017-6870","addr":"경기도 안산시 단원구 신길동 1228-1번지 정우벤처빌딩2차 710호","category":"용역 서비스 - 소프트웨어"},{"name":"에스엔피(S&P)","tel":"031-493-0329","addr":"경기도 안산시 단원구 신길동 1228-1번지 정우벤처타운2차 815호","category":"전기제품 - 기타전기제품"},{"name":"에스제이반도체","tel":"031-311-6483","addr":"경기도 안산시 단원구 신길동 1228-1번지 정우벤처타운 727호","category":"전기제품 - 기타전기제품"},{"name":"에이펙스코웍주식회사","tel":"031-491-3503","addr":"경기도 안산시 단원구 신길동 1228-1번지 정우벤쳐타운2차 602호","category":"기타 - 기계공구"},{"name":"에이펙스코윅주식회사/원격지","tel":"031-491-3503","addr":"경기도 안산시 단원구 신길동 1228-1번지 정우벤쳐타운2차 602호","category":"기타 - 기타 전문점"},{"name":"익수정밀","tel":"031-492-9519","addr":"경기도 안산시 단원구 신길동 1228-1번지 정우벤쳐타운 413호","category":"기타 - 기타 전문점"},{"name":"인창문화사","tel":"031-495-5340","addr":"경기도 안산시 단원구 신길동 1228-1번지 정우벤쳐타운II 224호","category":"서적문구 - 출판 및 인쇄물"},{"name":"재경산업","tel":"031-494-9371","addr":"경기도 안산시 단원구 신길동 1228-1번지 정우벤처타운 7층 724호","category":"자동차정비 유지 - 자동차부품"},{"name":"정우매점","tel":"031-431-0681","addr":"경기도 안산시 단원구 신길동 1228-1번지","category":"음료식품 - 기타음료식품"},{"name":"정우벤처ll구내식당매점","tel":"031-495-7880","addr":"경기도 안산시 단원구 신길동 1228-1정우벤처타운ll801-801-1","category":"일반휴게음식 - 일반한식"},{"name":"정우부페식당","tel":"031-431-0681","addr":"경기도 안산시 단원구 신길동 1228-1번지 정우벤처타운2제1층117호~118호","category":"일반휴게음식 - 위탁급식업"},{"name":"주식회사 목성","tel":"031-494-5708","addr":"경기도 안산시 단원구 신길동 1228-1번지 정우벤처타운2 525호","category":"기타 - 기계공구"},{"name":"주식회사삼이코포레이션","tel":"031-492-1691","addr":"경기도 안산시 단원구 신길동 1228-1번지 정우벤쳐타운2차 401호","category":"기타 - 기타 전문점"},{"name":"주식회사에스알씨","tel":"031-493-9433","addr":"경기도 안산시 단원구 신길동 1228-1번지 장우벤처타운2차219,220호","category":"사무통신 - 통신기기"},{"name":"주식회사프로센","tel":"031-508-3456","addr":"경기도 안산시 단원구 신길동 1228-1번지 정우벤처2차 211호","category":"기타 - 기계공구"},{"name":"중앙PVC아크릴","tel":"031-508-0508","addr":"경기도 안산시 단원구 신길동 1228-1번지 정우벤처타운2차 124,124-1호","category":"건축자재 - 기타건축자재"},{"name":"천년거북희상","tel":"031-492-0781","addr":"경기도 안산시 단원구 신길동 1228-1 808","category":"신변잡화 - 기타잡화"},{"name":"현대전력제어중부A/S","tel":"031-492-5281","addr":"경기도 안산시 단원구 신길동 1228-1번지 정우밴처타운2차 6층 610 611호","category":"용역 서비스 - 기타용역서비스"},{"name":"현주산업","tel":"032-435-8516","addr":"경기도 안산시 단원구 신길동 1228-1번지 정우벤처타운2 412호","category":"보건위생 - 안경"},{"name":"호스코리아","tel":"031-508-3315","addr":"경기도 안산시 단원구 신길동 1228-1번지 정우벤처타운 127호","category":"신변잡화 - 기타잡화"}]},{"lat":"37.325422341","long":"126.77655342","items":[{"name":"(주)모스트 레이져","tel":"031-429-2666","addr":"경기도 안산시 단원구 신길동 1121-2번지 정우벤처타운1 404호","category":"전기제품 - 기타전기제품"},{"name":"PSTech(피에스테크)/원격지","tel":"031-495-3735","addr":"경기도 안산시 단원구 신길동 1121-2번지 정우벤처타운 407호","category":"기타 - 기타 전문점"},{"name":"매직코리아","tel":"031-993-3122","addr":"경기도 안산시 단원구 신길동 1121-2번지 정우벤처1차401호","category":"기타 - 기계공구"},{"name":"주식회사 에프티랩/원격지","tel":"070-4906-4702","addr":"경기도 안산시 단원구 신길동 1121-2번지 정우벤처타운1차 503호","category":"기타 - 기타 전문점"},{"name":"주식회사 케이엔티이엔지","tel":"031-494-7175","addr":"경기도 안산시 단원구 신길동 1121-2번지 정우벤처타운1 108-1호","category":"기타 - 기계공구"},{"name":"주식회사에프티랩","tel":"070-4906-4702","addr":"경기도 안산시 단원구 신길동 1121-2번지 정우벤처1차 503호","category":"기타 - 기계공구"},{"name":"주식회사케이디티엠에스","tel":"031-415-3653","addr":"경기도 안산시 단원구 신길동 1121-2번지 정우벤처타운1 508호","category":"기타 - 기계공구"}]},{"lat":"37.323250594","long":"126.7539729","items":[{"name":"(주)미라클기계","tel":"031-315-3993","addr":"경기도 안산시 단원구 신길동 1058-7번지 신길동103동605블럭7로트","category":"기타 - 기계공구"},{"name":"(주)성광스틸","tel":"031-434-5676","addr":"경기도 안산시 단원구 신길동 1058-7번지","category":"건축자재 - 기타건축자재"}]},{"lat":"37.335027847","long":"126.76316435","items":[{"name":"(주)미래페인트","tel":"031-432-3983","addr":"경기도 안산시 단원구 신길동 1421-2번지 1층","category":"건축자재 - 페인트"},{"name":"안산중고타이어","tel":"031-402-9277","addr":"경기도 안산시 단원구 신길동 1421-2번지 1층","category":"자동차정비 유지 - 자동차시트·타이어"}]},{"lat":"37.330361866","long":"126.76379976","items":[{"name":"(주)봉현","tel":"031-402-9000","addr":"경기도 안산시 단원구 신길동 345-2번지","category":"건축자재 - 기타건축자재"},{"name":"봉현골재","tel":"031-402-9000","addr":"경기도 안산시 단원구 신길동 345-2번지","category":"건축자재 - 기타건축자재"}]},{"lat":"37.325781989","long":"126.76693956","items":[{"name":"(주)뷰센","tel":"031-365-5822","addr":"경기도 안산시 단원구 신길동 1052-2번지 가동","category":"신변잡화 - 기타잡화"},{"name":"탑플란 (주)","tel":"070-5147-2191","addr":"경기도 안산시 단원구 신길동 1052-2번지","category":"보건위생 - 의료용품"}]},{"lat":"37.326642429","long":"126.76919341","items":[{"name":"(주)세원에이엠티","tel":"031-499-4179","addr":"경기도 안산시 단원구 신길동 1049-6번지","category":"보건위생 - 화장품"}]},{"lat":"37.326339839","long":"126.7757496","items":[{"name":"(주)신세계푸드동서반월공장","tel":"02-3397-6176","addr":"경기도 안산시 단원구 신길동 1114번지","category":"일반휴게음식 - 위탁급식업"}]},{"lat":"37.320418704","long":"126.75269611","items":[{"name":"(주)신세계푸드코리아서키트2공장","tel":"02-3397-6176","addr":"경기도 안산시 단원구 신길동 1061-6번지","category":"일반휴게음식 - 위탁급식업"}]},{"lat":"37.323756111","long":"126.77222601","items":[{"name":"(주)아산","tel":"031-319-6614","addr":"경기도 안산시 단원구 신길동 1080-5번지","category":"전기제품 - 냉열기기"}]},{"lat":"37.325702189","long":"126.77216365","items":[{"name":"(주)알루피아 코리아","tel":"031-491-1521","addr":"경기도 안산시 단원구 신길동 1047-3번지","category":"가구 - 일반가구"}]},{"lat":"37.322949688","long":"126.75228156","items":[{"name":"(주)에스케이에스","tel":"031-433-7028","addr":"경기도 안산시 단원구 신길동 1057-3번지606블럭2호","category":"유통업 영리 - 기타유통업"}]},{"lat":"37.325084966","long":"126.75221806","items":[{"name":"(주)영등포특수강","tel":"031-492-7635","addr":"경기도 안산시 단원구 신길동 1070-2번지","category":"기타 - 기계공구"}]},{"lat":"37.325171692","long":"126.75489173","items":[{"name":"(주)영재철강","tel":"031-319-0424","addr":"경기도 안산시 단원구 신길동 1056-5번지","category":"건축자재 - 기타건축자재"}]},{"lat":"37.33081151","long":"126.78677128","items":[{"name":"(주)우리스크린","tel":"031-493-1005","addr":"경기도 안산시 단원구 신길동 1612번지 6층","category":"레저업소 - 스크린골프"},{"name":"무한리필생고기 더떠블","tel":"031-495-7728","addr":"경기도 안산시 단원구 신길동 1612번지 한중빌딩 107호","category":"일반휴게음식 - 일반한식"},{"name":"바디 오리진(BODY ORIGIN)","tel":"031-493-6464","addr":"경기도 안산시 단원구 신길동 1612번지 5층","category":"레저업소 - 헬스클럽"},{"name":"본스치킨 신길거모점/(주)비디씨푸드 (BDC)","tel":"031-494-7898","addr":"경기도 안산시 단원구 신길동 1612번지 103호","category":"일반휴게음식 - 스넥"},{"name":"봄약국","tel":"031-493-4590","addr":"경기도 안산시 단원구 신길동 1612번지 한중빌딩 107호","category":"약국 - 약국"},{"name":"스타노래연습장","tel":"031-8044-0204","addr":"경기도 안산시 단원구 신길동 1612번지 한중빌딩 3층 301호","category":"레저업소 - 노 래 방"},{"name":"스테이","tel":"031-491-1388","addr":"경기도 안산시 단원구 신길동 1612번지 한중빌딩 201호","category":"일반휴게음식 - 일반한식"},{"name":"우리당구클럽","tel":"031-491-1022","addr":"경기도 안산시 단원구 신길동 1612번지 3층 302호","category":"레저업소 - 당 구 장"},{"name":"우리펫동물병원","tel":"031-493-3535","addr":"경기도 안산시 단원구 신길동 1612번지 한중빌딩 1층 104-1호","category":"기타의료기관 - 동물병원"},{"name":"토마토김밥","tel":"031-491-8383","addr":"경기도 안산시 단원구 신길동 1612번지 한중빌딩 105호","category":"일반휴게음식 - 일반한식"},{"name":"펀비어킹 안산신길점","tel":"031-495-8864","addr":"경기도 안산시 단원구 신길동 1612번지 101-102호","category":"일반휴게음식 - 일반한식"},{"name":"한중메디컬의원","tel":"031-495-8877","addr":"경기도 안산시 단원구 신길동 1612번지 401호,402호","category":"의원 - 의원"},{"name":"후타이","tel":"031-495-3838","addr":"경기도 안산시 단원구 신길동 1612번지 202호","category":"신변잡화 - 기타잡화"}]},{"lat":"37.32483681","long":"126.78138408","items":[{"name":"(주)잉크테크","tel":"031-490-6202","addr":"경기도 안산시 단원구 신길동 1124번지","category":"사무통신 - 기타 사무용품"},{"name":"(주)잉크테크/원격지","tel":"031-490-6202","addr":"경기도 안산시 단원구 신길동 1124번지","category":"기타 - 기타 전문점"}]},{"lat":"37.33508428","long":"126.76433771","items":[{"name":"(주)자동차마을","tel":"031-494-9003","addr":"경기도 안산시 단원구 신길동 1419-6번지","category":"자동차정비 유지 - 자동차정비"},{"name":"대동종합타일","tel":"031-494-9366","addr":"경기도 안산시 단원구 신길동 1419-6번지","category":"건축자재 - 건축용 요업제품"},{"name":"레이저O.A","tel":"031-491-8687","addr":"경기도 안산시 단원구 신길동 1419-6번지 2층","category":"사무통신 - 사무용 OA기기"}]},{"lat":"37.338364707","long":"126.78333043","items":[{"name":"(주)제일연쇄점본부","tel":"031-495-2227","addr":"경기도 안산시 단원구 신길동 7-5번지","category":"유통업 영리 - 기타유통업"}]},{"lat":"37.325702419","long":"126.75880505","items":[{"name":"(주)조일전자","tel":"031-495-1631","addr":"경기도 안산시 단원구 신길동 1054-10 반월공단603블럭 11-1 롯트","category":"전기제품 - 기타전기제품"},{"name":"마이크로텍","tel":"031-433-1366","addr":"경기도 안산시 단원구 신길동 1054-10번지","category":"전기제품 - 기타전기제품"}]},{"lat":"37.325702112","long":"126.76754907","items":[{"name":"(주)주영","tel":"031-493-5343","addr":"경기도 안산시 단원구 신길동 1052-1번지","category":"음료식품 - 기타음료식품"}]},{"lat":"37.325194532","long":"126.77058565","items":[{"name":"(주)중우엠텍","tel":"031-494-0561","addr":"경기도 안산시 단원구 신길동 1048-7번지","category":"건축자재 - 조명기구"},{"name":"성환테크","tel":"031-493-1408","addr":"경기도 안산시 단원구 신길동 1048-7 반월공단601 B-7L","category":"건축자재 - 기타건축자재"}]},{"lat":"37.326417003","long":"126.75152539","items":[{"name":"(주)지원통상","tel":"031-494-0255","addr":"경기도 안산시 단원구 신길동 290-6번지","category":"전기제품 - 기타전기제품"}]},{"lat":"37.33325515","long":"126.77810965","items":[{"name":"(주)진삼누룽닭","tel":"031-492-9424","addr":"경기도 안산시 단원구 신길동 778번지","category":"일반휴게음식 - 일반한식"},{"name":"초가원","tel":"031-494-5567","addr":"경기도 안산시 단원구 신길동 778번지","category":"일반휴게음식 - 일반한식"}]},{"lat":"37.337723461","long":"126.75952221","items":[{"name":"(주)진영정밀금속","tel":"031-495-8528","addr":"경기도 안산시 단원구 신길동 1393-6번지","category":"기타 - 기계공구"},{"name":"진영정밀금속","tel":"031-495-8528","addr":"경기도 안산시 단원구 신길동 1393-6번지 2층","category":"기타 - 기계공구"}]},{"lat":"37.330421843","long":"126.78555379","items":[{"name":"(주)코레드","tel":"031-478-5338","addr":"경기도 안산시 단원구 신길동 1627번지 907호","category":"건축자재 - 인테리어전문"},{"name":"거기스크린골프","tel":"02-2679-6605","addr":"경기도 안산시 단원구 신길동 1627번지 201,202호","category":"레저업소 - 스크린골프"},{"name":"거기스크린골프","tel":"031-439-1872","addr":"경기도 안산시 단원구 신길동 1627번지 201동 208호","category":"레저업소 - 스크린골프"},{"name":"거기스크린골프샵","tel":"031-439-1872","addr":"경기도 안산시 단원구 신길동 1627번지 201-1호","category":"유통업 영리 - 편 의 점"},{"name":"거기스크린골프샵","tel":"031-439-1872","addr":"경기도 안산시 단원구 신길동 1627번지 203호","category":"유통업 영리 - 편 의 점"},{"name":"디자인샵","tel":"","addr":"경기도 안산시 단원구 신길동 1627번지 811호","category":"건축자재 - 인테리어전문"},{"name":"촉천하마라샹궈","tel":"031-494-8818","addr":"경기도 안산시 단원구 신길동 1627번지 102호","category":"일반휴게음식 - 중국식"},{"name":"크린에이드 안산 신길동점","tel":"031-495-5011","addr":"경기도 안산시 단원구 신길동 1627번지 110호","category":"수리서비스 - 세탁소"}]},{"lat":"37.33027981","long":"126.78671638","items":[{"name":"(주)코리아세븐 안산신길그린점","tel":"031-1577-0711","addr":"경기도 안산시 단원구 신길동 1615번지","category":"유통업 영리 - 편 의 점"},{"name":"굿프렌즈독서실","tel":"02-854-8255","addr":"경기도 안산시 단원구 신길동 1615번지 그린프라자 4층 403호 일부","category":"학원 - 독서실"},{"name":"그린당구장","tel":"070-8714-6897","addr":"경기도 안산시 단원구 신길동 1615번지 3층","category":"레저업소 - 당 구 장"},{"name":"까페모두","tel":"031-492-7508","addr":"경기도 안산시 단원구 신길동 1615번지 104호","category":"일반휴게음식 - 서양음식"},{"name":"명태   명태간장조림","tel":"031-495-8292","addr":"경기도 안산시 단원구 신길동 1615번지 (101호 102호)","category":"일반휴게음식 - 일반한식"},{"name":"수미정보통신신길점","tel":"031-493-5663","addr":"경기도 안산시 단원구 신길동 1615번지","category":"사무통신 - 통신기기"},{"name":"아우라헤어","tel":"031-484-5934","addr":"경기도 안산시 단원구 신길동 1615번지 107호","category":"보건위생 - 미용원"},{"name":"응급실 국물떡볶이 안산신길점","tel":"031-494-1191","addr":"경기도 안산시 단원구 신길동 1615번지 1층 103호","category":"일반휴게음식 - 일반한식"},{"name":"제이 스터디(J Study)","tel":"02-854-8255","addr":"경기도 안산시 단원구 신길동 1615번지 그린프라자 4층 403호 일부","category":"용역 서비스 - 사무서비스"},{"name":"카페꽃피오","tel":"070-4200-3222","addr":"경기도 안산시 단원구 신길동 1615번지 203호","category":"일반휴게음식 - 서양음식"},{"name":"힐링","tel":"031-495-1525","addr":"경기도 안산시 단원구 신길동 1615번지 그린프라자 8층 801호","category":"일반휴게음식 - 일반한식"}]},{"lat":"37.337805339","long":"126.78783454","items":[{"name":"(주)코리아세븐안산신길점","tel":"02-3284-8185","addr":"경기도 안산시 단원구 신길동 1546 주공프라자 104호","category":"유통업 영리 - 편 의 점"},{"name":"SSMA상승10도장","tel":"031-491-0828","addr":"경기도 안산시 단원구 신길동 1546번지 주공프라자1 204호","category":"학원 - 예·체능계학원"},{"name":"멘토링학원","tel":"031-491-1543","addr":"경기도 안산시 단원구 신길동 1546번지 주공프라자1 301호","category":"학원 - 보습학원"},{"name":"봄날헤어","tel":"031-407-5931","addr":"경기도 안산시 단원구 신길동 1546번지 주공프라자1 202호","category":"보건위생 - 미용원"},{"name":"신길지앤비영어전문학원","tel":"031-495-8505","addr":"경기도 안산시 단원구 신길동 1546 주공프라자 302,303호","category":"학원 - 보습학원"},{"name":"싱싱축산","tel":"031-493-6246","addr":"경기도 안산시 단원구 신길동 1546번지 주공프라자1 103호","category":"음료식품 - 정육점"},{"name":"아라뷰티샵","tel":"031-493-3224","addr":"경기도 안산시 단원구 신길동 1546 주공프라자204호","category":"회원제형태 - 기타4"},{"name":"용인대대월태권도장","tel":"031-483-9898","addr":"경기도 안산시 단원구 신길동 1546번지 주공프라자 105,106호","category":"학원 - 예·체능계학원"},{"name":"잉글리시아이에이스학원","tel":"031-492-1105","addr":"경기도 안산시 단원구 신길동 1546번지 주공프라자 201호","category":"학원 - 보습학원"},{"name":"찐하우스(JJIN HOUSE)","tel":"031-492-2231","addr":"경기도 안산시 단원구 신길동 1546번지 주공프라자 102호","category":"일반휴게음식 - 일반한식"},{"name":"하이젠사관학원","tel":"031-492-4520","addr":"경기도 안산시 단원구 신길동 1546 302호~303호","category":"회원제형태 - 학원"},{"name":"훌랄라숯불바베큐신길2호점","tel":"031-493-9005","addr":"경기도 안산시 단원구 신길동 1546번지 주공프라자 101호","category":"일반휴게음식 - 일반한식"}]},{"lat":"37.326227003","long":"126.75977366","items":[{"name":"(주)티오피에스","tel":"070-4849-5161","addr":"경기도 안산시 단원구 신길동 1054-7번지","category":"주방용구 - 주방용구"}]},{"lat":"37.322530405","long":"126.78149239","items":[{"name":"(주)티지앤컴퍼니","tel":"02-3787-3361","addr":"경기도 안산시 단원구 신길동 1125-1번지 2층일부","category":"사무통신 - 컴퓨터"},{"name":"DP전략솔루션","tel":"031-310-0605","addr":"경기도 안산시 단원구 신길동 1125-1번지 1층","category":"용역 서비스 - 종합용역"},{"name":"주식회사티지삼보","tel":"02-3787-3312","addr":"경기도 안산시 단원구 신길동 1125-1번지","category":"사무통신 - 컴퓨터"},{"name":"주식회사티지삼보서비스","tel":"031-489-3612","addr":"경기도 안산시 단원구 신길동 1125-1번지","category":"사무통신 - 컴퓨터"}]},{"lat":"37.322892864","long":"126.75524897","items":[{"name":"(주)한세이엔지","tel":"031-494-1511","addr":"경기도 안산시 단원구 신길동 1058-3반월공단605블럭3롯트","category":"기타 - 기타 전문점"},{"name":"(주)한세이엔지/원격지","tel":"031-494-1511","addr":"경기도 안산시 단원구 신길동 1058-3,605BL-3LOT","category":"기타 - 기타 전문점"}]},{"lat":"37.323424933","long":"126.75547286","items":[{"name":"(주)한창시스템","tel":"031-493-0960","addr":"경기도 안산시 단원구 신길동 1058-2번지","category":"사무통신 - 통신기기"},{"name":"정광식당","tel":"","addr":"경기도 안산시 단원구 신길동 1058-2번지","category":"일반휴게음식 - 위탁급식업"}]},{"lat":"37.33705432","long":"126.77647339","items":[{"name":"21C한국태권도장","tel":"031-493-3836","addr":"경기도 안산시 단원구 신길동 710번지","category":"학원 - 예·체능계학원"},{"name":"BHC(신길점)","tel":"031-414-0002","addr":"경기도 안산시 단원구 신길동 710번지","category":"일반휴게음식 - 서양음식"},{"name":"밸런스태권도","tel":"031-493-3836","addr":"경기도 안산시 단원구 신길동 710번지 엘림교회 401호","category":"학원 - 예·체능계학원"},{"name":"신길당구장","tel":"031-493-1377","addr":"경기도 안산시 단원구 신길동 710번지 지하1층 제비 1호","category":"레저업소 - 당 구 장"},{"name":"참건강약국","tel":"031-493-1550","addr":"경기도 안산시 단원구 신길동 710번지 일산 상가 103호","category":"약국 - 약국"},{"name":"태권도장SK","tel":"","addr":"경기도 안산시 단원구 신길동 710번지 엘림교회 401호","category":"학원 - 예·체능계학원"},{"name":"햇살가득의원","tel":"031-492-7515","addr":"경기도 안산시 단원구 신길동 710번지 2층","category":"의원 - 의원"}]},{"lat":"37.3385555505","long":"126.7891414104","items":[{"name":"5단지백양세탁소","tel":"031-406-9966","addr":"경기도 안산시 단원구 신길동 1561번지 휴먼시아","category":"협회 및 단체, 수리 및 기타 개인서"},{"name":"백송비앤비(BNB)","tel":"031-501-0024","addr":"경기도 안산시 단원구 신길동 1561번지 휴먼시아","category":"도매 및 소매업 - 기능성속옷"}]},{"lat":"37.33855555","long":"126.78914141","items":[{"name":"5단지백양세탁소","tel":"031-406-9966","addr":"경기도 안산시 단원구 신길동 1561번지 휴먼시아","category":"수리서비스 - 세탁소"},{"name":"꾼떡신길1호점","tel":"031-493-9204","addr":"경기도 안산시 단원구 신길동 1561 휴먼시아5단지 104","category":"일반휴게음식 - 주점"},{"name":"대월삼성영어교습소","tel":"031-508-0542","addr":"경기도 안산시 단원구 신길동 1561 휴먼시아5단지상가 202,203호","category":"회원제형태 - 학원"},{"name":"맛짱","tel":"031-491-5855","addr":"경기도 안산시 단원구 신길동 1561번지 휴먼시아 상가 103호","category":"일반휴게음식 - 스넥"},{"name":"이탈리안피자","tel":"031-491-8933","addr":"경기도 안산시 단원구 신길동 1561번지 휴먼시아 상가동 101호","category":"일반휴게음식 - 서양음식"},{"name":"집밥반찬","tel":"031-508-0565","addr":"경기도 안산시 단원구 신길동 1561번지 휴먼시아 상가동 104호","category":"음료식품 - 기타음료식품"}]},{"lat":"37.332613947","long":"126.78699179","items":[{"name":"60계 안산신길점","tel":"031-494-9293","addr":"경기도 안산시 단원구 신길동 1656번지 1층","category":"일반휴게음식 - 일반한식"}]},{"lat":"37.336684458","long":"126.78585171","items":[{"name":"911헤어샵(#)","tel":"031-317-6997","addr":"경기도 안산시 단원구 신길동 1537번지 상가동 휴먼시아 103호","category":"보건위생 - 미용원"},{"name":"WI 아이스크림 할인점","tel":"070-997-9970","addr":"경기도 안산시 단원구 신길동 1537번지 휴먼시아 상가동 101호","category":"음료식품 - 제과점"},{"name":"공감헤어","tel":"031-493-0489","addr":"경기도 안산시 단원구 신길동 1537번지 휴먼시아 상가동 103호","category":"보건위생 - 미용원"},{"name":"씨유신길휴먼시아점","tel":"031-493-9915","addr":"경기도 안산시 단원구 신길동 1537번지 휴먼시아 상가동 104호","category":"유통업 영리 - 편 의 점"},{"name":"창의예원어린이집[아이행복]","tel":"031-492-5202","addr":"경기도 안산시 단원구 신길동 1537번지 휴먼시아4단지 관리동","category":"학원 - 유아원"}]},{"lat":"37.3373391750","long":"126.7746670399","items":[{"name":"CU안산휴먼빌점","tel":"031-493-1525","addr":"경기도 안산시 단원구 신길동 1447번지 안산신길온천역휴먼빌2차아파트","category":"도매 및 소매업 - 편의점"},{"name":"비어캐빈","tel":"031-318-4144","addr":"경기도 안산시 단원구 신길동 1447번지 안산신길온천역휴먼빌2차아파트","category":"숙박 및 음식점업 - 일반음식점"},{"name":"쿠아안경원","tel":"031-492-8008","addr":"경기도 안산시 단원구 신길동 1447번지 안산신길온천역휴먼빌2차아파트","category":"도매 및 소매업 - 안경"},{"name":"한아름떡","tel":"031-520-5232","addr":"경기도 안산시 단원구 신길동 1447번지 안산신길온천역휴먼빌2차아파트","category":"제조업 - 떡"},{"name":"한우리축산","tel":"031-493-3616","addr":"경기도 안산시 단원구 신길동 1447번지 안산신길온천역휴먼빌2차아파트","category":"도매 및 소매업 - 정육점"},{"name":"헤어코코","tel":"031-494-7271","addr":"경기도 안산시 단원구 신길동 1447번지 안산신길온천역휴먼빌2차아파트","category":"협회 및 단체, 수리 및 기타 개인서"}]},{"lat":"37.33622468","long":"126.76241579","items":[{"name":"DC마트","tel":"031-492-3793","addr":"경기도 안산시 단원구 신길동 1400-9번지","category":"신변잡화 - 기타잡화"}]},{"lat":"37.338581944","long":"126.76074945","items":[{"name":"GS25신길야구장점","tel":"","addr":"경기도 안산시 단원구 신길동 1384-16번지 101호","category":"유통업 영리 - 편 의 점"}]},{"lat":"37.337083133","long":"126.76364305","items":[{"name":"GS25신길온천역점","tel":"","addr":"경기도 안산시 단원구 신길동 1404-18번지 101호","category":"유통업 영리 - 편 의 점"}]},{"lat":"37.337587727","long":"126.77741968","items":[{"name":"GS25안산삼익점","tel":"","addr":"경기도 안산시 단원구 신길동 1438번지 삼익@상가 A동 105~106호","category":"유통업 영리 - 편 의 점"},{"name":"삼익마트","tel":"031-494-5087","addr":"경기도 안산시 단원구 신길동 1438삼익B상가103호","category":"유통업 영리 - 슈퍼마켓"},{"name":"정일피아노학원","tel":"031-497-7596","addr":"경기도 안산시 단원구 신길동 1438 302호~304호","category":"학원 - 예·체능계학원"},{"name":"한우촌","tel":"031-494-0155","addr":"경기도 안산시 단원구 신길동 1438번지 삼익아에이 상가동 106호","category":"음료식품 - 정육점"}]},{"lat":"37.336780547","long":"126.76105991","items":[{"name":"GS25안산신길점","tel":"","addr":"경기도 안산시 단원구 신길동 1395-6번지 1층","category":"유통업 영리 - 편 의 점"},{"name":"옛이야기","tel":"031-491-4513","addr":"경기도 안산시 단원구 신길동 1395-6번지 3층","category":"일반휴게음식 - 주점"},{"name":"중앙노래연습장","tel":"031-492-9041","addr":"경기도 안산시 단원구 신길동 1395-6번지 2층","category":"레저업소 - 노 래 방"},{"name":"중앙당구장","tel":"031-493-4330","addr":"경기도 안산시 단원구 신길동 1395-6번지","category":"레저업소 - 당 구 장"}]},{"lat":"37.330143502","long":"126.78608491","items":[{"name":"GS25안산위너스점","tel":"","addr":"경기도 안산시 단원구 신길동 1625번지 위너스타워오피스텔 114호","category":"유통업 영리 - 편 의 점"},{"name":"구제마켓","tel":"","addr":"경기도 안산시 단원구 신길동 1625번지 위너스타워 1층 115호","category":"의류 - 정장"},{"name":"놀부골 게르마늄돌판구이","tel":"031-505-7007","addr":"경기도 안산시 단원구 신길동 1625번지 위너스타워 103호","category":"일반휴게음식 - 일반한식"},{"name":"닭사부(신길점)","tel":"031-494-9233","addr":"경기도 안산시 단원구 신길동 1625번지 위너스타워 112호","category":"일반휴게음식 - 스넥"},{"name":"닭사부(신길점)","tel":"031-494-9233","addr":"경기도 안산시 단원구 신길동 1625번지 위너스타워 112호","category":"일반휴게음식 - 스넥"},{"name":"동경야시장","tel":"031-493-4680","addr":"경기도 안산시 단원구 신길동 1625번지 위너스타워 1층 104호","category":"일반휴게음식 - 주점"},{"name":"마스터피스헤어샵(MASTER PIECE헤어#)","tel":"","addr":"경기도 안산시 단원구 신길동 1625번지 위너스타워 1층 107호","category":"보건위생 - 미용원"},{"name":"만취","tel":"031-111-1111","addr":"경기도 안산시 단원구 신길동 1625번지 102호","category":"일반휴게음식 - 일반한식"},{"name":"베트남쌀국수","tel":"","addr":"경기도 안산시 단원구 신길동 1625번지 위너스타워 1층 117호","category":"일반휴게음식 - 서양음식"},{"name":"비비큐(신길거모점)","tel":"031-494-9285","addr":"경기도 안산시 단원구 신길동 1625번지 105호","category":"일반휴게음식 - 스넥"},{"name":"삼파기타마트/대부","tel":"031-492-7129","addr":"경기도 안산시 단원구 신길동 1625번지 위너스타워 108호","category":"유통업 영리 - 슈퍼마켓"},{"name":"오븐마루 치킨호프 안산신길점","tel":"031-495-3337","addr":"경기도 안산시 단원구 신길동 1625번지 위너스타워 101호","category":"일반휴게음식 - 일반한식"},{"name":"케이티에스/원격지","tel":"","addr":"경기도 안산시 단원구 신길동 1625번지 위너스타워오피스텔 1008호","category":"기타 - 기타 전문점"},{"name":"큰맘할매순대(안산역점)","tel":"031-495-0275","addr":"경기도 안산시 단원구 신길동 1625번지 위너스타워 1층 118호","category":"일반휴게음식 - 일반한식"},{"name":"테스트인디아","tel":"031-494-4292","addr":"경기도 안산시 단원구 신길동 1625번지 위너스타워 113호","category":"일반휴게음식 - 일반한식"},{"name":"투게더국제결혼","tel":"031-503-8078","addr":"경기도 안산시 단원구 신길동 1625번지 위너스타워 5층 509호","category":"용역 서비스 - 혼례서비스"},{"name":"해피드론","tel":"031-495-8963","addr":"경기도 안산시 단원구 신길동 1625번지 위너스타워 115호","category":"광학제품 - 기타광학제품"}]},{"lat":"37.3388878583","long":"126.7836335939","items":[{"name":"HS HOME TECH","tel":"031-494-1670","addr":"경기도 안산시 단원구 신길동 3-5번지","category":"건설업 - 창호"}]},{"lat":"37.3367569217","long":"126.7764404301","items":[{"name":"KH실용음악학원","tel":"031-495-6114","addr":"경기도 안산시 단원구 신길동 710-2번지","category":"교육서비스업 - 음악학원"},{"name":"신길공판장","tel":"031-493-5964","addr":"경기도 안산시 단원구 신길동 710-2번지","category":"도매 및 소매업 - 슈퍼마켓"},{"name":"신길공판장정육점","tel":"031-493-0753","addr":"경기도 안산시 단원구 신길동 710-2번지","category":"도매 및 소매업 - 식육"}]},{"lat":"37.337895993","long":"126.78813897","items":[{"name":"K슈퍼안산신길점","tel":"031-493-5115","addr":"경기도 안산시 단원구 신길동 1545번지 104호 ,105,106호","category":"유통업 영리 - 슈퍼마켓"},{"name":"대월아카데미학원","tel":"031-503-8509","addr":"경기도 안산시 단원구 신길동 1545번지 301-302호","category":"학원 - 보습학원"},{"name":"반올림음악교습소","tel":"031-495-6873","addr":"경기도 안산시 단원구 신길동 1545번지 202-1호","category":"학원 - 예·체능계학원"},{"name":"비비큐(BBQ)올리브떡볶이","tel":"031-494-6777","addr":"경기도 안산시 단원구 신길동 1545번지 103호","category":"일반휴게음식 - 스넥"},{"name":"신길케이타이거스(K-TIGERS)태권도","tel":"031-491-7333","addr":"경기도 안산시 단원구 신길동 1545번지 신길프라자 402호","category":"학원 - 예·체능계학원"},{"name":"아트캠프미술학원","tel":"031-493-2002","addr":"경기도 안산시 단원구 신길동 1545번지 신길프라자 303호","category":"학원 - 예·체능계학원"},{"name":"에튜드음악학원","tel":"031-495-8665","addr":"경기도 안산시 단원구 신길동 1545번지 401호","category":"학원 - 예·체능계학원"},{"name":"오케이떡볶이","tel":"031-493-4456","addr":"경기도 안산시 단원구 신길동 1545번지 101호","category":"일반휴게음식 - 일반한식"},{"name":"유니스킨케어","tel":"031-494-6636","addr":"경기도 안산시 단원구 신길동 1545번지 신길프라자 301호","category":"보건위생 - 화장품"},{"name":"초록마을","tel":"031-453-9599","addr":"경기도 안산시 단원구 신길동 1545번지 신길프라자 105호","category":"유통업 영리 - 슈퍼마켓"},{"name":"치킨매니아 신길1호점","tel":"031-495-9242","addr":"경기도 안산시 단원구 신길동 1545번지 107호","category":"일반휴게음식 - 스넥"},{"name":"치킨매니아신길1호점","tel":"031-495-9242","addr":"경기도 안산시 단원구 신길동 1545번지 107호","category":"일반휴게음식 - 주점"},{"name":"토이&팬시","tel":"031-494-7643","addr":"경기도 안산시 단원구 신길동 1545번지 103호","category":"서적문구 - 문구용품"},{"name":"파리바게뜨신길휴먼시아점","tel":"031-493-8203","addr":"경기도 안산시 단원구 신길동 1545번지 102호","category":"음료식품 - 제과점"},{"name":"해법수학뮤엠영어학원","tel":"031-491-0301","addr":"경기도 안산시 단원구 신길동 1545번지 203호","category":"학원 - 보습학원"}]},{"lat":"37.337810642","long":"126.76250101","items":[{"name":"LG에어컨사업부/경기서부","tel":"031-497-3481","addr":"경기도 안산시 단원구 신길동 1404-27번지 104호","category":"전기제품 - 냉열기기"},{"name":"성호크린","tel":"02-000-0000","addr":"경기도 안산시 단원구 신길동 1404-27번지 201호","category":"용역 서비스 - 종합용역"},{"name":"한강디지탈솔루션","tel":"031-495-6601","addr":"경기도 안산시 단원구 신길동 1404-27 102호~103호","category":"사무통신 - 사무용 OA기기"}]},{"lat":"37.333666523","long":"126.78124532","items":[{"name":"NARU SOUNDS SYSTEM(나루사운드시스템)","tel":"031-313-1143","addr":"경기도 안산시 단원구 신길동 1729번지 104호","category":"전기제품 - 가전제품"}]},{"lat":"37.336999871","long":"126.77627044","items":[{"name":"NEW삼익반점","tel":"031-494-9300","addr":"경기도 안산시 단원구 신길동 709-2번지 삼창A상가 201호","category":"일반휴게음식 - 중국식"},{"name":"반월반점","tel":"031-493-4494","addr":"경기도 안산시 단원구 신길동 709-2번지 삼창A상가 2층 201호","category":"일반휴게음식 - 중국식"}]},{"lat":"37.334113005","long":"126.76524349","items":[{"name":"OK난도매","tel":"031-494-9339","addr":"경기도 안산시 단원구 신길동 420-3","category":"문화.취미 - 화원"},{"name":"삼영꽃도매","tel":"031-494-4748","addr":"경기도 안산시 단원구 신길동 420-3","category":"문화.취미 - 화원"},{"name":"장미꽃화원","tel":"031-495-1233","addr":"경기도 안산시 단원구 신길동 420-3","category":"문화.취미 - 화원"}]},{"lat":"37.33450692","long":"126.75522213","items":[{"name":"RoseDay","tel":"031-319-4430","addr":"경기도 안산시 단원구 신길동 249-25번지 하우스","category":"문화.취미 - 화원"},{"name":"들꽃조경","tel":"031-494-9031","addr":"경기도 안산시 단원구 신길동 249-25번지 바동하우스","category":"문화.취미 - 화원"},{"name":"비에스플라워","tel":"031-491-1354","addr":"경기도 안산시 단원구 신길동 249-25번지","category":"문화.취미 - 화원"},{"name":"산들플라워","tel":"031-495-0242","addr":"경기도 안산시 단원구 신길동 249-25번지","category":"문화.취미 - 화원"},{"name":"원플라워","tel":"031-494-1021","addr":"경기도 안산시 단원구 신길동 249-25번지","category":"문화.취미 - 화원"},{"name":"자연풍경","tel":"031-493-7778","addr":"경기도 안산시 단원구 신길동 249-25번지 A동","category":"문화.취미 - 화원"},{"name":"풀잎사랑","tel":"031-494-9015","addr":"경기도 안산시 단원구 신길동 249-25번지 하우스","category":"문화.취미 - 화원"},{"name":"화수목flower","tel":"031-491-8870","addr":"경기도 안산시 단원구 신길동 249-25번지 하우스","category":"문화.취미 - 화원"}]},{"lat":"37.3378053388","long":"126.7878345438","items":[{"name":"SSMA상승10도장","tel":"031-491-0828","addr":"경기도 안산시 단원구 신길동 1546번지","category":"예술, 스포츠 및 여가관련 서비스업"},{"name":"멘토링학원","tel":"031-493-2887","addr":"경기도 안산시 단원구 신길동 1546번지","category":"교육서비스업 - 교과교습학원,"},{"name":"봄날헤어","tel":"031-407-5931","addr":"경기도 안산시 단원구 신길동 1546번지","category":"협회 및 단체, 수리 및 기타 개인서"},{"name":"싱싱축산","tel":"031-493-6246","addr":"경기도 안산시 단원구 신길동 1546번지","category":"도매 및 소매업 - 식육판매"},{"name":"용인대대월태권도","tel":"031-483-9898","addr":"경기도 안산시 단원구 신길동 1546번지","category":"예술, 스포츠 및 여가관련 서비스업"},{"name":"잉글리시아이에이스학원","tel":"031-492-1105","addr":"경기도 안산시 단원구 신길동 1546번지","category":"교육서비스업 - 학원,서적"},{"name":"찐하우스(JJIN HOUSE)","tel":"031-492-2231","addr":"경기도 안산시 단원구 신길동 1546번지","category":"숙박 및 음식점업 - 일반음식점"}]},{"lat":"37.3298651375","long":"126.7866047379","items":[{"name":"S헤어","tel":"031-492-0202","addr":"경기도 안산시 단원구 신길동 1623번지","category":"협회 및 단체, 수리 및 기타 개인서"},{"name":"강남포차","tel":"031-491-9990","addr":"경기도 안산시 단원구 신길동 1623번지","category":"숙박 및 음식점업 - 한식"},{"name":"광원떡방앗간","tel":"031-495-0988","addr":"경기도 안산시 단원구 신길동 1623번지","category":"제조업 - 떡방앗간"},{"name":"낚시백화점","tel":"","addr":"경기도 안산시 단원구 신길동 1623번지","category":"도매 및 소매업 - 슈퍼마켓,낚시"},{"name":"밥포유","tel":"031-433-1119","addr":"경기도 안산시 단원구 신길동 1623번지","category":"숙박 및 음식점업 - 한식"},{"name":"쉬즈타임네일","tel":"031-493-9396","addr":"경기도 안산시 단원구 신길동 1623번지","category":"협회 및 단체, 수리 및 기타 개인서"},{"name":"치킨마루","tel":"031-492-6667","addr":"경기도 안산시 단원구 신길동 1623번지","category":"숙박 및 음식점업 - 치킨"},{"name":"팡팡노래연습장","tel":"070-8112-3733","addr":"경기도 안산시 단원구 신길동 1623번지","category":"협회 및 단체, 수리 및 기타 개인서"}]},{"lat":"37.322782945","long":"126.78650093","items":[{"name":"autoOasis안산공단점","tel":"02-465-3988","addr":"경기도 안산시 단원구 신길동 1230번지 GS안산공단주유소내","category":"자동차정비 유지 - 자동차부품"}]},{"lat":"37.3363918710","long":"126.7740267063","items":[{"name":"㈜가가","tel":"031-494-4660","addr":"경기도 안산시 단원구 신길동 658-9번지","category":"제조업 - 곡물조리식품,채소 외 단무"},{"name":"더스킨앤바디","tel":"","addr":"경기도 안산시 단원구 신길동 658-9번지","category":"협회 및 단체, 수리 및 기타 개인서"},{"name":"요거프레소 안산신길","tel":"031-414-7161","addr":"경기도 안산시 단원구 신길동 658-9번지","category":"숙박 및 음식점업 - 커피숍"}]},{"lat":"37.3254223410","long":"126.7765534236","items":[{"name":"㈜모스트레이져","tel":"","addr":"경기도 안산시 단원구 신길동 1121-2번지","category":"제조업 - 전자부품"},{"name":"이에스티","tel":"031-491-1205","addr":"경기도 안산시 단원구 신길동 1121-2번지","category":"도매 및 소매업 - 전기전환장치"},{"name":"정우식당","tel":"","addr":"경기도 안산시 단원구 신길동 1121-2번지","category":"숙박 및 음식점업 - 구내식당"}]},{"lat":"37.3359428146","long":"126.7611641546","items":[{"name":"㈜미도","tel":"031-491-9359","addr":"경기도 안산시 단원구 신길동 1425번지","category":"출판, 영상, 방송통신 및 정보서비스"},{"name":"㈜미도","tel":"031-491-9359","addr":"경기도 안산시 단원구 신길동 1425번지","category":"제조업 - 간판"}]},{"lat":"37.3329761575","long":"126.7782797368","items":[{"name":"㈜야구장농원","tel":"031-493-5292","addr":"경기도 안산시 단원구 신길동 776-3번지","category":"숙박 및 음식점업 - 한식"}]},{"lat":"37.3356116030","long":"126.7622259198","items":[{"name":"가나안기업","tel":"031-492-7562","addr":"경기도 안산시 단원구 신길동 1422-2번지","category":"제조업 - 샷시,칸막이"},{"name":"진성종합공사","tel":"","addr":"경기도 안산시 단원구 신길동 1422-2번지","category":"건설업 - 배관설비"}]},{"lat":"37.339113069","long":"126.78361037","items":[{"name":"가나안미용실","tel":"031-491-4637","addr":"경기도 안산시 단원구 신길동 3-14번지","category":"보건위생 - 미용원"},{"name":"새집왕생고기","tel":"031-492-0052","addr":"경기도 안산시 단원구 신길동 3-14번지 1층","category":"일반휴게음식 - 일반한식"},{"name":"오복상사","tel":"031-494-5414","addr":"경기도 안산시 단원구 신길동 3-14번지","category":"기타 - 기계공구"},{"name":"오복종합상사","tel":"031-494-5414","addr":"경기도 안산시 단원구 신길동 3-14번지","category":"건축자재 - 목재·석재·철물"}]},{"lat":"37.336978192","long":"126.76077717","items":[{"name":"가람부엌가구","tel":"","addr":"경기도 안산시 단원구 신길동 1395-3번지 104,105,106호","category":"주방용구 - 주방용구"},{"name":"신길노래연습장","tel":"070-4799-5688","addr":"경기도 안산시 단원구 신길동 1395-3번지 2층","category":"레저업소 - 노 래 방"},{"name":"옛날통닭","tel":"031-1111-1111","addr":"경기도 안산시 단원구 신길동 1395-3번지 102호","category":"일반휴게음식 - 스넥"},{"name":"진소정육점","tel":"031-494-1009","addr":"경기도 안산시 단원구 신길동 1395-3번지","category":"음료식품 - 정육점"}]},{"lat":"37.336534907","long":"126.76433312","items":[{"name":"가마솥한식뷔페","tel":"031-433-7891","addr":"경기도 안산시 단원구 신길동 1417-24번지 101호,102호","category":"일반휴게음식 - 일반한식"},{"name":"주식회사 플라이존","tel":"031-411-3219","addr":"경기도 안산시 단원구 신길동 1417-24번지 신길프라자 302호","category":"학원 - 기능학원"},{"name":"투썸플레이스(신길온천역점)","tel":"031-491-0221","addr":"경기도 안산시 단원구 신길동 1417-24번지 103,104,105호","category":"일반휴게음식 - 서양음식"},{"name":"플라이존 드론교육원","tel":"031-411-3219","addr":"경기도 안산시 단원구 신길동 1417-24번지 신길프라자 3층 302호","category":"학원 - 기능학원"},{"name":"홈마트","tel":"031-506-4833","addr":"경기도 안산시 단원구 신길동 1417-24번지 1층 109,110호","category":"유통업 영리 - 슈퍼마켓"},{"name":"홍익돈까스 (신길온천역점)","tel":"031-494-0221","addr":"경기도 안산시 단원구 신길동 1417-24번지 신길프라자 1층 106-108호","category":"일반휴게음식 - 일반한식"},{"name":"홍익돈까스(신길온천역점)","tel":"031-494-0221","addr":"경기도 안산시 단원구 신길동 1417-24번지 1층 106,107,108호","category":"일반휴게음식 - 일반한식"},{"name":"홍익돈까스(신길온천역점)/(주)시흥관광호","tel":"031-494-0221","addr":"경기도 안산시 단원구 신길동 1417-24번지 신길프라자 103,104,105호","category":"일반휴게음식 - 서양음식"}]},{"lat":"37.3365349068","long":"126.7643331239","items":[{"name":"가마솥한식뷔페","tel":"031-433-7891","addr":"경기도 안산시 단원구 신길동 1417-24번지","category":"숙박 및 음식점업 - 한식음식점"}]},{"lat":"37.337110538","long":"126.7823862","items":[{"name":"가야가든","tel":"031-493-6006","addr":"경기도 안산시 단원구 신길동 35-1번지 1,2층","category":"일반휴게음식 - 일반한식"},{"name":"늘푸른정육식당","tel":"031-494-5052","addr":"경기도 안산시 단원구 신길동 35-1번지 1,2층","category":"일반휴게음식 - 일반한식"},{"name":"늘푸른정육점","tel":"031-494-5052","addr":"경기도 안산시 단원구 신길동 35-1번지","category":"음료식품 - 정육점"}]},{"lat":"37.328836764","long":"126.78594198","items":[{"name":"가옥수리골재","tel":"031-494-2725","addr":"경기도 안산시 단원구 신길동 1209","category":"건축자재 - 기타건축자재"}]},{"lat":"37.3338967267","long":"126.7888273794","items":[{"name":"가위소리","tel":"031-520-7877","addr":"경기도 안산시 단원구 신길동 1574번지","category":"협회 및 단체, 수리 및 기타 개인서"},{"name":"세븐일레븐 안산신길고점","tel":"031-508-0006","addr":"경기도 안산시 단원구 신길동 1574번지","category":"도매 및 소매업 - 편의점,담배"},{"name":"하노버피아노교습소","tel":"031-493-3610","addr":"경기도 안산시 단원구 신길동 1574번지","category":"교육서비스업 - 음악학원"}]},{"lat":"37.336636355","long":"126.78912428","items":[{"name":"가인헤어","tel":"031-1111-1111","addr":"경기도 안산시 단원구 신길동 1563번지 휴먼시아 상가동 103호","category":"보건위생 - 미용원"},{"name":"대월떡볶이","tel":"031-493-3688","addr":"경기도 안산시 단원구 신길동 1563번지 휴먼시아 상가 101호","category":"일반휴게음식 - 스넥"},{"name":"대월떡볶이","tel":"031-493-3688","addr":"경기도 안산시 단원구 신길동 1563번지 휴먼시아 101호","category":"일반휴게음식 - 일반한식"},{"name":"세븐일레븐안산대월초교점","tel":"031-1577-0711","addr":"경기도 안산시 단원구 신길동 1563번지 휴먼시아 상가동 1층 104호","category":"유통업 영리 - 편 의 점"},{"name":"하노버피아노교습소","tel":"031-493-3610","addr":"경기도 안산시 단원구 신길동 1563번지 휴먼시아 102호","category":"학원 - 예·체능계학원"}]},{"lat":"37.331866416","long":"126.78716318","items":[{"name":"가장맛있는족발 신길점","tel":"031-494-5849","addr":"경기도 안산시 단원구 신길동 1647번지 1층","category":"일반휴게음식 - 일반한식"},{"name":"명동칼국수보쌈샤브샤브","tel":"031-494-5954","addr":"경기도 안산시 단원구 신길동 1647번지 1층","category":"일반휴게음식 - 일반한식"}]},{"lat":"37.330702026","long":"126.78602689","items":[{"name":"갈비야","tel":"031-493-0990","addr":"경기도 안산시 단원구 신길동 1631번지 201,202,203호","category":"일반휴게음식 - 일반한식"},{"name":"벨라플레이스","tel":"031-493-3303","addr":"경기도 안산시 단원구 신길동 1631번지 103,104호","category":"일반휴게음식 - 서양음식"},{"name":"본죽(안산신길지구점)","tel":"031-480-6233","addr":"경기도 안산시 단원구 신길동 1631번지 월드타워 116호","category":"일반휴게음식 - 일반한식"},{"name":"비즈인터내셔날 코퍼레이션","tel":"","addr":"경기도 안산시 단원구 신길동 1631번지 715호","category":"보건위생 - 화장품"},{"name":"씨유안산신길월드점","tel":"031-508-0370","addr":"경기도 안산시 단원구 신길동 1631번지 월드타워 115호","category":"유통업 영리 - 편 의 점"},{"name":"월드노래연습장","tel":"031-494-1631","addr":"경기도 안산시 단원구 신길동 1631번지 204호","category":"레저업소 - 노 래 방"},{"name":"주식회사진우헬스케어","tel":"02-2157-3380","addr":"경기도 안산시 단원구 신길동 1631번지 704호","category":"음료식품 - 기타음료식품"},{"name":"한뚝수육국밥","tel":"02-1111-1111","addr":"경기도 안산시 단원구 신길동 1631번지 월드타워 109,110,111호","category":"일반휴게음식 - 일반한식"},{"name":"홍대 양푼 김치찌개 신길점","tel":"031-493-7942","addr":"경기도 안산시 단원구 신길동 1631번지 월드타워 101호","category":"일반휴게음식 - 일반한식"}]},{"lat":"37.332751685","long":"126.78841313","items":[{"name":"강남스타일","tel":"031-508-0321","addr":"경기도 안산시 단원구 신길동 1583번지 1층","category":"보건위생 - 미용재료"},{"name":"강남스타일미용실","tel":"031-508-0321","addr":"경기도 안산시 단원구 신길동 1583번지","category":"보건위생 - 미용원"},{"name":"헤어스프레이","tel":"031-508-0321","addr":"경기도 안산시 단원구 신길동 1583번지 1층 상가전체","category":"보건위생 - 미용재료"}]},{"lat":"37.3374170720","long":"126.7777022964","items":[{"name":"개별화물","tel":"","addr":"경기도 안산시 단원구 신길동 1438번지 삼익아파트","category":"운수업 - 화물운송"}]},{"lat":"37.331060288","long":"126.78002309","items":[{"name":"건영상사","tel":"031-413-3333","addr":"경기도 안산시 단원구 신길동 939-1번지","category":"음료식품 - 기타음료식품"},{"name":"안산롯데","tel":"031-495-3773","addr":"경기도 안산시 단원구 신길동 939-1번지","category":"유통업 영리 - 기타유통업"}]},{"lat":"37.335644292","long":"126.76502427","items":[{"name":"경기건축설비","tel":"031-491-9083","addr":"경기도 안산시 단원구 신길동 1419-1번지","category":"건축자재 - 보일러·펌프·샷시"}]},{"lat":"37.3323372191","long":"126.7884143110","items":[{"name":"경기토탈디자인","tel":"031-494-4422","addr":"경기도 안산시 단원구 신길동 1586번지","category":"도매 및 소매업 - 간판자재 및 현수"}]},{"lat":"37.333229218","long":"126.7517735","items":[{"name":"경도천막기업","tel":"031-494-0415","addr":"경기도 안산시 단원구 신길동 264-4번지","category":"직물 - 카페트,커튼,천막,지물"}]},{"lat":"37.3370342344","long":"126.7617474407","items":[{"name":"경성술집","tel":"031-495-8238","addr":"경기도 안산시 단원구 신길동 1403-8번지","category":"숙박 및 음식점업 - 호프"}]},{"lat":"37.337034234","long":"126.76174744","items":[{"name":"경성술집(신길점)","tel":"031-495-8238","addr":"경기도 안산시 단원구 신길동 1403-8번지 101,102호","category":"일반휴게음식 - 주점"}]},{"lat":"37.337475798","long":"126.76177988","items":[{"name":"경인냉동","tel":"031-342-0806","addr":"경기도 안산시 단원구 신길동 1385-2번지 101호","category":"전기제품 - 냉열기기"}]},{"lat":"37.325973745","long":"126.75930061","items":[{"name":"경인코마텍","tel":"031-1111-1111","addr":"경기도 안산시 단원구 신길동 1054-12번지 반월공단 1층 603블럭 11롯트","category":"수리서비스 - 기타수리서비스"}]},{"lat":"37.334034368","long":"126.75761586","items":[{"name":"고구려 다육식물원","tel":"031-000-0000","addr":"경기도 안산시 단원구 신길동 249-15번지","category":"문화.취미 - 화원"},{"name":"신바람꽃직매장2호점","tel":"031-494-9740","addr":"경기도 안산시 단원구 신길동 249-15","category":"문화.취미 - 화원"}]},{"lat":"37.335916195","long":"126.77036081","items":[{"name":"고려덴트칼라안산공단점","tel":"031-492-6373","addr":"경기도 안산시 단원구 신길동 586-3번지","category":"자동차정비 유지 - 카인테리어"}]},{"lat":"37.324751516","long":"126.75647265","items":[{"name":"고려은단헬스케어 주식회사","tel":"","addr":"경기도 안산시 단원구 신길동 1056-3번지 3층","category":"건강식품 - 기타건강식품"},{"name":"전주식당","tel":"031-491-9727","addr":"경기도 안산시 단원구 신길동 1056-3번지","category":"일반휴게음식 - 위탁급식업"}]},{"lat":"37.331889537","long":"126.78018989","items":[{"name":"고창복의착한갈비","tel":"031-494-5292","addr":"경기도 안산시 단원구 신길동 932번지","category":"일반휴게음식 - 일반한식"}]},{"lat":"37.332083665","long":"126.78771545","items":[{"name":"곱창고","tel":"031-494-8892","addr":"경기도 안산시 단원구 신길동 1582번지 1층","category":"일반휴게음식 - 일반한식"},{"name":"천사곱창","tel":"02-1111-1111","addr":"경기도 안산시 단원구 신길동 1582번지 1층","category":"일반휴게음식 - 일반한식"}]},{"lat":"37.3366844578","long":"126.7858517112","items":[{"name":"공감헤어","tel":"031-493-0489","addr":"경기도 안산시 단원구 신길동 1537번지 휴먼시아","category":"협회 및 단체, 수리 및 기타 개인서"}]},{"lat":"37.3301435016","long":"126.7860849095","items":[{"name":"구제마켓","tel":"","addr":"경기도 안산시 단원구 신길동 1625번지","category":"도매 및 소매업 - 의류"},{"name":"마스터피스헤어샵","tel":"031-493-6777","addr":"경기도 안산시 단원구 신길동 1625번지","category":"협회 및 단체, 수리 및 기타 개인서"},{"name":"큰맘할매순대국안산역점","tel":"031-495-0275","addr":"경기도 안산시 단원구 신길동 1625번지","category":"숙박 및 음식점업 - 한식"},{"name":"태스트인디아","tel":"","addr":"경기도 안산시 단원구 신길동 1625번지","category":"숙박 및 음식점업 - 일반음식점"}]},{"lat":"37.3312528209","long":"126.7866684607","items":[{"name":"군자농업협동조합 신길동지점","tel":"031-508-3451","addr":"경기도 안산시 단원구 신길동 1635번지","category":"도매 및 소매업 - 여수신,식품,잡화"}]},{"lat":"37.331252821","long":"126.78666846","items":[{"name":"군자농업협동조합신길동지점","tel":"031-508-3451","addr":"경기도 안산시 단원구 신길동 1635번지","category":"유통업 비영리 - 농,축협 직영매장"}]},{"lat":"37.3306948316","long":"126.7870198437","items":[{"name":"군자새마을금고 스크린골프","tel":"031-494-3600","addr":"경기도 안산시 단원구 신길동 1613번지","category":"금융 및 보험업 - 마을금고,잡화,스"}]},{"lat":"37.33825422","long":"126.75911426","items":[{"name":"군자소금","tel":"070-7425-4545","addr":"경기도 안산시 단원구 신길동 1392-6번지 101호","category":"음료식품 - 기타음료식품"}]},{"lat":"37.330694832","long":"126.78701984","items":[{"name":"군자스크린골프","tel":"031-491-0525","addr":"경기도 안산시 단원구 신길동 1613번지","category":"레저업소 - 스크린골프"}]},{"lat":"37.336725864","long":"126.78879678","items":[{"name":"굿마더어린이집[아이행복]","tel":"031-409-7550","addr":"경기도 안산시 단원구 신길동 1563번지 휴먼시아 603동 102호","category":"학원 - 유아원"}]},{"lat":"37.336422885","long":"126.77144253","items":[{"name":"굿부대찌개","tel":"031-508-1100","addr":"경기도 안산시 단원구 신길동 582-8번지 1층","category":"일반휴게음식 - 일반한식"}]},{"lat":"37.3364228849","long":"126.7714425286","items":[{"name":"굿부대찌개","tel":"","addr":"경기도 안산시 단원구 신길동 582-8번지","category":"숙박 및 음식점업 - 한식"}]},{"lat":"37.329361356","long":"126.76361112","items":[{"name":"그날밥집","tel":"031-491-4845","addr":"경기도 안산시 단원구 신길동 338-2번지 글로리가든 A동 1층","category":"일반휴게음식 - 일반한식"},{"name":"이화칼국수","tel":"031-495-3788","addr":"경기도 안산시 단원구 신길동 338-2번지 글로리가든 A동 1층","category":"일반휴게음식 - 일반한식"}]},{"lat":"37.325531691","long":"126.7771962","items":[{"name":"극동하이텍 (주)","tel":"070-7201-1208","addr":"경기도 안산시 단원구 신길동 1122번지 3층","category":"전기제품 - 기타전기제품"},{"name":"세화스크린","tel":"031-499-5595","addr":"경기도 안산시 단원구 신길동 1122번지 3층","category":"서적문구 - 출판 및 인쇄물"}]},{"lat":"37.336359442","long":"126.76222353","items":[{"name":"글로벌세탁","tel":"031-491-4446","addr":"경기도 안산시 단원구 신길동 1401-8번지 101호","category":"수리서비스 - 세탁소"},{"name":"이향훈제주점","tel":"","addr":"경기도 안산시 단원구 신길동 1401-8번지 1층","category":"일반휴게음식 - 중국식"}]},{"lat":"37.337584149","long":"126.76189238","items":[{"name":"금강사","tel":"031-432-1770","addr":"경기도 안산시 단원구 신길동 1385-1번지 102호","category":"자동차정비 유지 - 자동차정비"},{"name":"인텍문화사","tel":"031-493-9150","addr":"경기도 안산시 단원구 신길동 1385-1번지","category":"용역 서비스 - 종합용역"}]},{"lat":"37.32852995","long":"126.74944228","items":[{"name":"금호타이어시화공단대리점","tel":"031-495-1250","addr":"경기도 안산시 단원구 신길동 283-9번지","category":"자동차정비 유지 - 자동차시트·타이어"}]},{"lat":"37.329034013","long":"126.78541111","items":[{"name":"금호타이어안산점","tel":"031-480-7114","addr":"경기도 안산시 단원구 신길동 1203-2번지","category":"자동차정비 유지 - 자동차시트·타이어"}]},{"lat":"37.3258951351","long":"126.7518656073","items":[{"name":"기러기산장","tel":"031-493-0153","addr":"경기도 안산시 단원구 신길동 292번지","category":"숙박 및 음식점업 - 일반음식"}]},{"lat":"37.325895135","long":"126.75186561","items":[{"name":"기러기산장","tel":"031-453-0153","addr":"경기도 안산시 단원구 신길동 292번지 1층 동","category":"일반휴게음식 - 일반한식"}]},{"lat":"37.337106173","long":"126.77532223","items":[{"name":"김남균","tel":"02-2200-1616","addr":"경기도 안산시 단원구 신길동 1447번지 안산신길온천역휴먼빌2차 207동 1502호","category":"레저업소 - 골프연습장"}]},{"lat":"37.331838417","long":"126.78663293","items":[{"name":"김명자낙지마당","tel":"031-508-1141","addr":"경기도 안산시 단원구 신길동 1644번지 1층","category":"일반휴게음식 - 일반한식"}]},{"lat":"37.336756922","long":"126.77644043","items":[{"name":"김성수요가","tel":"031-492-8778","addr":"경기도 안산시 단원구 신길동 710-2번지 월산빌딩 4층 401호","category":"레저업소 - 헬스클럽"},{"name":"남스짐","tel":"031-492-3337","addr":"경기도 안산시 단원구 신길동 710-2번지 월산빌딩 3층 301호","category":"레저업소 - 헬스클럽"},{"name":"신길 공판장","tel":"031-493-5964","addr":"경기도 안산시 단원구 신길동 710-2번지 월산빌딩 1층","category":"유통업 영리 - 슈퍼마켓"},{"name":"신길공판장","tel":"031-493-5964","addr":"경기도 안산시 단원구 신길동 710-2번지 101,102호","category":"유통업 영리 - 슈퍼마켓"},{"name":"신길공판장정육점","tel":"031-493-0753","addr":"경기도 안산시 단원구 신길동 710-2번지","category":"음료식품 - 정육점"},{"name":"에듀메카신길캠퍼스학원","tel":"031-493-7297","addr":"경기도 안산시 단원구 신길동 710-2 4층(401호)","category":"학원 - 보습학원"},{"name":"케이에이치 (KH)실용음악학원","tel":"031-495-6114","addr":"경기도 안산시 단원구 신길동 710-2번지 월산빌딩 202호","category":"학원 - 예·체능계학원"}]},{"lat":"37.33694312","long":"126.76125122","items":[{"name":"김치솥뚜껑삼겹살","tel":"031-491-7737","addr":"경기도 안산시 단원구 신길동 1385-7번지 101호","category":"일반휴게음식 - 일반한식"},{"name":"누나네춘천닭갈비","tel":"031-491-7737","addr":"경기도 안산시 단원구 신길동 1385-7번지 101호","category":"일반휴게음식 - 일반한식"},{"name":"클로이헤어","tel":"031-111-1111","addr":"경기도 안산시 단원구 신길동 1385-7번지 1층","category":"보건위생 - 미용원"}]},{"lat":"37.336562408","long":"126.77368766","items":[{"name":"김희중골프아카데미","tel":"031-491-3900","addr":"경기도 안산시 단원구 신길동 656-1번지 새뿔프라자 404호","category":"레저업소 - 스크린골프"},{"name":"마티마부힐링센타","tel":"031-492-2322","addr":"경기도 안산시 단원구 신길동 656-1번지 새뿔프라자 301호,302호","category":"건강식품 - 기타건강식품"},{"name":"비상아이비츠학원","tel":"031-495-9555","addr":"경기도 안산시 단원구 신길동 656-1번지 새뿔프라자 304호","category":"회원제형태 - 학원"},{"name":"새뿔제주조릿대감자탕","tel":"031-494-7004","addr":"경기도 안산시 단원구 신길동 656-1번지 새뿔프라자 201,202,203호","category":"일반휴게음식 - 일반한식"},{"name":"에듀인학원","tel":"031-492-3210","addr":"경기도 안산시 단원구 신길동 656-1번지 새뿔프라자 4층","category":"학원 - 보습학원"}]},{"lat":"37.331894206","long":"126.78758059","items":[{"name":"깐부치킨","tel":"031-493-1213","addr":"경기도 안산시 단원구 신길동 1593번지","category":"일반휴게음식 - 스넥"},{"name":"취향","tel":"02-1111-1111","addr":"경기도 안산시 단원구 신길동 1593번지 203호","category":"문화.취미 - 문화취미기타"}]},{"lat":"37.332507756","long":"126.78805275","items":[{"name":"깔끄미세탁","tel":"031-319-3389","addr":"경기도 안산시 단원구 신길동 1579번지 1층 101호","category":"수리서비스 - 세탁소"},{"name":"황가네김밥","tel":"031-495-5353","addr":"경기도 안산시 단원구 신길동 1579번지 102호","category":"일반휴게음식 - 일반한식"}]},{"lat":"37.335755236","long":"126.76196593","items":[{"name":"꼬꼬C","tel":"031-495-6322","addr":"경기도 안산시 단원구 신길동 1422번지 101호","category":"일반휴게음식 - 일반한식"},{"name":"한솔그린에너지개발","tel":"031-497-6223","addr":"경기도 안산시 단원구 신길동 1422번지","category":"건축자재 - 보일러·펌프·샷시"}]},{"lat":"37.339644519","long":"126.78352983","items":[{"name":"꼬리치는강아지","tel":"031-493-2272","addr":"경기도 안산시 단원구 신길동 2-6번지 1층","category":"문화.취미 - 애완동물"},{"name":"도일노래연습장","tel":"031-494-0066","addr":"경기도 안산시 단원구 신길동 2-6번지 지하층","category":"레저업소 - 노 래 방"},{"name":"예쁜이불","tel":"031-495-0393","addr":"경기도 안산시 단원구 신길동 2-6번지","category":"직물 - 침구·수예점"},{"name":"예쁜이불","tel":"031-495-0393","addr":"경기도 안산시 단원구 신길동 2-6번지 1층","category":"직물 - 침구·수예점"},{"name":"유림호프커피","tel":"031-494-5009","addr":"경기도 안산시 단원구 신길동 2-6번지 황토참숯개발 G동 1층","category":"일반휴게음식 - 주점"}]},{"lat":"37.33158741","long":"126.78733323","items":[{"name":"꼬지사께 (안산신길점)","tel":"","addr":"경기도 안산시 단원구 신길동 1595번지 102호","category":"일반휴게음식 - 주점"},{"name":"달에서온산오징어(신길본점)","tel":"031-493-7284","addr":"경기도 안산시 단원구 신길동 1595번지 1층 102호","category":"일반휴게음식 - 일반한식"},{"name":"헤어존","tel":"031-494-9408","addr":"경기도 안산시 단원구 신길동 1595번지 101호","category":"보건위생 - 미용원"}]},{"lat":"37.331091336","long":"126.78216684","items":[{"name":"꽃이랑 다육이","tel":"031-494-6418","addr":"경기도 안산시 단원구 신길동 923번지","category":"문화.취미 - 화원"}]},{"lat":"37.335831942","long":"126.7828413","items":[{"name":"꿈꾸는뜰어린이집[아이행복]","tel":"031-506-0328","addr":"경기도 안산시 단원구 신길동 1518번지 휴먼시아 307동 104호","category":"학원 - 유아원"}]},{"lat":"37.3309206608","long":"126.7873351324","items":[{"name":"꿈노래연습장","tel":"031-491-7195","addr":"경기도 안산시 단원구 신길동 1611번지","category":"예술, 스포츠 및 여가관련 서비스업"},{"name":"신길당구클럽","tel":"031-494-7989","addr":"경기도 안산시 단원구 신길동 1611번지","category":"예술, 스포츠 및 여가관련 서비스업"}]},{"lat":"37.330920661","long":"126.78733513","items":[{"name":"꿈노래연습장","tel":"031-491-7195","addr":"경기도 안산시 단원구 신길동 1611번지 301호","category":"레저업소 - 노 래 방"},{"name":"단장하기","tel":"031-494-2514","addr":"경기도 안산시 단원구 신길동 1611번지 102호","category":"보건위생 - 화장품"},{"name":"바나나리프(BANANA LEAF)","tel":"070-8112-1128","addr":"경기도 안산시 단원구 신길동 1611번지 1층 101호","category":"일반휴게음식 - 서양음식"},{"name":"신길당구클럽","tel":"031-494-7989","addr":"경기도 안산시 단원구 신길동 1611번지 201호","category":"레저업소 - 당 구 장"},{"name":"타이 인디 (Thai INDY)","tel":"070-8991-9969","addr":"경기도 안산시 단원구 신길동 1611번지 103호","category":"유통업 영리 - 슈퍼마켓"}]},{"lat":"37.337056891","long":"126.77313323","items":[{"name":"꿈담터어린이집[아이행복]","tel":"031-494-7010","addr":"경기도 안산시 단원구 신길동 155-6번지 꿈담터어린이집","category":"학원 - 유아원"}]},{"lat":"37.332506237","long":"126.78721777","items":[{"name":"낭만닭발 신길점","tel":"031-493-2886","addr":"경기도 안산시 단원구 신길동 1662번지 102호","category":"일반휴게음식 - 일반한식"},{"name":"돈대박집","tel":"070-7862-1697","addr":"경기도 안산시 단원구 신길동 1662번지 1층","category":"일반휴게음식 - 일반한식"},{"name":"알마루","tel":"031-493-2886","addr":"경기도 안산시 단원구 신길동 1662번지 102호","category":"일반휴게음식 - 일반한식"},{"name":"전라양푼찌개","tel":"031-495-6388","addr":"경기도 안산시 단원구 신길동 1662번지 101호","category":"일반휴게음식 - 일반한식"}]},{"lat":"37.336834377","long":"126.7609469","items":[{"name":"낮에밥밤술포차","tel":"","addr":"경기도 안산시 단원구 신길동 1395-5번지 1층 일부","category":"일반휴게음식 - 일반한식"}]},{"lat":"37.3368343765","long":"126.7609468966","items":[{"name":"낮엔밥 밤술포차","tel":"","addr":"경기도 안산시 단원구 신길동 1395-5번지","category":"숙박 및 음식점업 - 일반음식점"}]},{"lat":"37.333585658","long":"126.76288684","items":[{"name":"내외전기조명","tel":"031-494-0202","addr":"경기도 안산시 단원구 신길동 403-1번지","category":"건축자재 - 조명기구"}]},{"lat":"37.337168834","long":"126.76147619","items":[{"name":"내차야 사랑해","tel":"031-520-2528","addr":"경기도 안산시 단원구 신길동 1385-5번지 1층","category":"자동차정비 유지 - 자동차정비"}]},{"lat":"37.332683902","long":"126.78582937","items":[{"name":"네네치킨","tel":"031-508-0202","addr":"경기도 안산시 단원구 신길동 1684번지 휴먼시아 102호","category":"일반휴게음식 - 스넥"},{"name":"봄뜰화원","tel":"031-495-4688","addr":"경기도 안산시 단원구 신길동 1684번지 휴먼시아 103호","category":"문화.취미 - 화원"}]},{"lat":"37.332480008","long":"126.7876579","items":[{"name":"노가리앤비어","tel":"070-4649-1101","addr":"경기도 안산시 단원구 신길동 1666번지 1층","category":"일반휴게음식 - 주점"}]},{"lat":"37.330423518","long":"126.78646774","items":[{"name":"노랑통닭","tel":"031-0000-0000","addr":"경기도 안산시 단원구 신길동 1616번지 108,109호","category":"일반휴게음식 - 스넥"},{"name":"맘스터치 안산신길점","tel":"031-494-9295","addr":"경기도 안산시 단원구 신길동 1616번지 삼익리베리움 1층 102,103호","category":"일반휴게음식 - 서양음식"}]},{"lat":"37.339887793","long":"126.78352912","items":[{"name":"뉴남대문안경","tel":"031-493-4942","addr":"경기도 안산시 단원구 신길동 2-3번지","category":"보건위생 - 안경"},{"name":"비네거인네이쳐","tel":"031-508-5575","addr":"경기도 안산시 단원구 신길동 2-3번지","category":"음료식품 - 기타음료식품"}]},{"lat":"37.337419356","long":"126.78371685","items":[{"name":"뉴월드카정비세차","tel":"031-493-5336","addr":"경기도 안산시 단원구 신길동 26-7번지","category":"자동차정비 유지 - 자동차정비"}]},{"lat":"37.335750459","long":"126.7640535","items":[{"name":"능길초등학교","tel":"031-493-8092","addr":"경기도 안산시 단원구 신길동 1417-22번지 능길초등학교","category":"학원 - 초중고교육기관"},{"name":"능길초등학교병설유치원[아이행복]","tel":"031-495-5036","addr":"경기도 안산시 단원구 신길동 1417-22번지","category":"학원 - 유치원"}]},{"lat":"37.332972783","long":"126.76727815","items":[{"name":"다온창호","tel":"031-482-5504","addr":"경기도 안산시 단원구 신길동 422-1","category":"기타 - 기계공구"}]},{"lat":"37.336423773","long":"126.75844312","items":[{"name":"다육공주농장","tel":"031-492-9553","addr":"경기도 안산시 단원구 신길동 219-5","category":"문화.취미 - 화원"}]},{"lat":"37.335476887","long":"126.76244075","items":[{"name":"다있소축산","tel":"031-493-9955","addr":"경기도 안산시 단원구 신길동 1422-4번지","category":"음료식품 - 정육점"}]},{"lat":"37.332391034","long":"126.78827875","items":[{"name":"달동네","tel":"031-493-5810","addr":"경기도 안산시 단원구 신길동 1590번지 1층","category":"일반휴게음식 - 주점"}]},{"lat":"37.338807283","long":"126.78883601","items":[{"name":"담터에듀케이션","tel":"031-413-3361","addr":"경기도 안산시 단원구 신길동 1561번지 휴먼시아 503동 204호","category":"학원 - 학습지 교육"},{"name":"문앤문","tel":"","addr":"경기도 안산시 단원구 신길동 1561번지 휴먼시아 503동 405호","category":"건축자재 - 인테리어전문"}]},{"lat":"37.333506709","long":"126.75091501","items":[{"name":"대건유통","tel":"031-403-2205","addr":"경기도 안산시 단원구 신길동 산39","category":"음료식품 - 기타음료식품"}]},{"lat":"37.337437643","long":"126.78878348","items":[{"name":"대국종합식품","tel":"031-411-3903","addr":"경기도 안산시 단원구 신길동 1563번지 휴먼시아 604동 403호","category":"회원제형태 - 기타4"},{"name":"정해웅","tel":"031-411-7526","addr":"경기도 안산시 단원구 신길동 1563번지 휴먼시아 604동 504호","category":"여행 - 기타교통수단"}]},{"lat":"37.329867849","long":"126.78318591","items":[{"name":"대명오토카센타","tel":"031-491-9812","addr":"경기도 안산시 단원구 신길동 912-2","category":"자동차정비 유지 - 자동차정비"}]},{"lat":"37.331423394","long":"126.78632947","items":[{"name":"대박로또","tel":"031-491-8202","addr":"경기도 안산시 단원구 신길동 1633번지 1층 102호","category":"음료식품 - 기타음료식품"},{"name":"라라감자탕","tel":"031-494-0926","addr":"경기도 안산시 단원구 신길동 1633번지 1층 101호","category":"일반휴게음식 - 일반한식"},{"name":"이디야안산신길점","tel":"031-491-4343","addr":"경기도 안산시 단원구 신길동 1633번지 메디프라자 103호","category":"일반휴게음식 - 서양음식"}]},{"lat":"37.337142585","long":"126.76185994","items":[{"name":"대박삼겹살앤두루치기","tel":"031-493-3395","addr":"경기도 안산시 단원구 신길동 1403-9번지 1층","category":"일반휴게음식 - 일반한식"}]},{"lat":"37.336547372","long":"126.77523365","items":[{"name":"대성냉장파라솔","tel":"031-508-1489","addr":"경기도 안산시 단원구 신길동 1445번지 안산신길두산위브 101동 1104호","category":"전기제품 - 냉열기기"},{"name":"숲속아침어린이집[아이행복]","tel":"031-508-0010","addr":"경기도 안산시 단원구 신길동 1445번지 안산신길두산위브 101동 103호","category":"학원 - 유아원"}]},{"lat":"37.336304531","long":"126.76180619","items":[{"name":"대양적벽돌","tel":"031-492-2879","addr":"경기도 안산시 단원구 신길동 1396-4","category":"건축자재 - 기타건축자재"}]},{"lat":"37.338752665","long":"126.78361142","items":[{"name":"대영목재","tel":"031-315-0604","addr":"경기도 안산시 단원구 신길동 3-11번지","category":"건축자재 - 목재·석재·철물"}]},{"lat":"37.336003781","long":"126.77368936","items":[{"name":"대운상사","tel":"031-491-2648","addr":"경기도 안산시 단원구 신길동 658-2번지 연번지 304호","category":"직물 - 옷감·직물"},{"name":"동양사무용가구","tel":"031-493-6080","addr":"경기도 안산시 단원구 신길동 658-2번지","category":"가구 - 일반가구"}]},{"lat":"37.3232009405","long":"126.7787149919","items":[{"name":"대원인터내셔널","tel":"031-310-1940","addr":"경기도 안산시 단원구 신길동 1123번지","category":"도매 및 소매업 - 기계부품,무역,전"},{"name":"대흥천막공업사","tel":"","addr":"경기도 안산시 단원구 신길동 1123번지","category":"출판, 영상, 방송통신 및 정보서비스"},{"name":"우리토방","tel":"031-495-6300","addr":"경기도 안산시 단원구 신길동 1123번지","category":"제조업 - 판촉물,경인쇄"}]},{"lat":"37.335226869","long":"126.76355866","items":[{"name":"대원전자","tel":"031-508-5370","addr":"경기도 안산시 단원구 신길동 1420-3번지 101호","category":"자동차정비 유지 - 자동차부품"}]},{"lat":"37.3378959934","long":"126.7881389650","items":[{"name":"대월아카데미학원","tel":"","addr":"경기도 안산시 단원구 신길동 1545번지","category":"교육서비스업 - 교습학원"},{"name":"반올림음악교습소","tel":"031-495-6873","addr":"경기도 안산시 단원구 신길동 1545번지","category":"교육서비스업 - 음악교습소"},{"name":"토이앤팬시","tel":"031-494-7643","addr":"경기도 안산시 단원구 신길동 1545번지","category":"도매 및 소매업 - 문구,팬시,과자,"}]},{"lat":"37.330588575","long":"126.78313868","items":[{"name":"대준화원","tel":"031-495-9331","addr":"경기도 안산시 단원구 신길동 911-8","category":"문화.취미 - 화원"},{"name":"스피드얼음","tel":"031-495-3334","addr":"경기도 안산시 단원구 신길동 911-8번지","category":"유통업 영리 - 기타유통업"},{"name":"장미  화원","tel":"031-493-3924","addr":"경기도 안산시 단원구 신길동 911-8번지 2호","category":"문화.취미 - 화원"}]},{"lat":"37.336923658","long":"126.7788322","items":[{"name":"더피아니스트음악학원","tel":"031-492-3235","addr":"경기도 안산시 단원구 신길동 727번지 402호","category":"학원 - 예·체능계학원"},{"name":"비비아나","tel":"031-491-4790","addr":"경기도 안산시 단원구 신길동 727번지 105호","category":"보건위생 - 미용원"},{"name":"신성학원","tel":"031-402-1902","addr":"경기도 안산시 단원구 신길동 727번지 삼익빌딩 501동 502호","category":"회원제형태 - 학원"},{"name":"아이스크림할인점","tel":"070-997-9970","addr":"경기도 안산시 단원구 신길동 727번지 삼익빌딩 1층 104호","category":"음료식품 - 기타음료식품"},{"name":"이모네컵밥","tel":"031-495-6311","addr":"경기도 안산시 단원구 신길동 727번지 삼익빌딩 103호","category":"일반휴게음식 - 일반한식"},{"name":"쨍하고회뜰날","tel":"031-508-0778","addr":"경기도 안산시 단원구 신길동 727번지 삼익빌딩, 101,102호","category":"일반휴게음식 - 일반한식"},{"name":"털보 전풍경 빈대떡 신길점","tel":"031-406-7175","addr":"경기도 안산시 단원구 신길동 727번지 삼익빌딩 106호","category":"일반휴게음식 - 일반한식"}]},{"lat":"37.324753412","long":"126.77077881","items":[{"name":"데칼코마니","tel":"031-414-0934","addr":"경기도 안산시 단원구 신길동 1048-6 601블럭6롯트","category":"서적문구 - 출판 및 인쇄물"}]},{"lat":"37.335784651","long":"126.76313938","items":[{"name":"데코사랑","tel":"031-493-9112","addr":"경기도 안산시 단원구 신길동 1398-8번지 101호","category":"회원제형태 - 기타4"}]},{"lat":"37.334644355","long":"126.77897437","items":[{"name":"도도헤어","tel":"031-493-1155","addr":"경기도 안산시 단원구 신길동 1509번지 휴먼시아 상가동 104호","category":"보건위생 - 미용원"},{"name":"모데미","tel":"070-8879-4187","addr":"경기도 안산시 단원구 신길동 1509번지 휴먼시아2단지 104호 상가","category":"의류 - 정장"},{"name":"시립신길어린이집[아이행복]","tel":"031-520-0903","addr":"경기도 안산시 단원구 신길동 1509번지 휴먼시아","category":"학원 - 유아원"},{"name":"열린마트","tel":"070-8171-0083","addr":"경기도 안산시 단원구 신길동 1509번지 휴먼시아 상가동 101호","category":"유통업 영리 - 슈퍼마켓"},{"name":"은혜세탁","tel":"031-491-8885","addr":"경기도 안산시 단원구 신길동 1509번지 휴먼시아 상가동 103호","category":"수리서비스 - 세탁소"},{"name":"은혜세탁","tel":"031-491-8885","addr":"경기도 안산시 단원구 신길동 1509번지 휴먼시아 상가동 105호","category":"수리서비스 - 세탁소"},{"name":"해맑은소리음악학원","tel":"031-487-6924","addr":"경기도 안산시 단원구 신길동 1509번지 휴먼시아상가동 201,202호","category":"학원 - 예·체능계학원"}]},{"lat":"37.3346443553","long":"126.7789743747","items":[{"name":"도도헤어","tel":"031-493-1115","addr":"경기도 안산시 단원구 신길동 1509번지","category":"예술, 스포츠 및 여가관련 서비스업"},{"name":"열린마트","tel":"070-8171-0083","addr":"경기도 안산시 단원구 신길동 1509번지 휴먼시아","category":"도매 및 소매업 - 슈퍼"},{"name":"은혜세탁","tel":"031-491-8885","addr":"경기도 안산시 단원구 신길동 1509번지","category":"협회 및 단체, 수리 및 기타 개인서"},{"name":"해맑은소리음악학원","tel":"031-487-6924","addr":"경기도 안산시 단원구 신길동 1509번지","category":"교육서비스업 - 음악학원"}]},{"lat":"37.331478363","long":"126.78682578","items":[{"name":"도모","tel":"031-318-4252","addr":"경기도 안산시 단원구 신길동 1650번지 4층","category":"의류 - 정장"},{"name":"오땅비어(신길점)","tel":"031-714-4686","addr":"경기도 안산시 단원구 신길동 1650번지 102호","category":"일반휴게음식 - 주점"},{"name":"요거프레소 (신길지구점)","tel":"031-495-5515","addr":"경기도 안산시 단원구 신길동 1650번지","category":"일반휴게음식 - 일반한식"}]},{"lat":"37.324645246","long":"126.77075658","items":[{"name":"도움테크","tel":"","addr":"경기도 안산시 단원구 신길동 1048-6번지 다동 1층","category":"신변잡화 - 기타잡화"}]},{"lat":"37.3375877269","long":"126.7774196774","items":[{"name":"도원","tel":"","addr":"경기도 안산시 단원구 신길동 1438번지 삼익아파트","category":"숙박 및 음식점업 - 커피숍"},{"name":"박여사네곱창","tel":"031-492-3377","addr":"경기도 안산시 단원구 신길동 1438번지 삼익아파트","category":"숙박 및 음식점업 - 한식"},{"name":"신길삼익세탁소","tel":"031-483-6701","addr":"경기도 안산시 단원구 신길동 1438번지 삼익아파트","category":"협회 및 단체, 수리 및 기타 개인서"},{"name":"행복한도시농부","tel":"","addr":"경기도 안산시 단원구 신길동 1438번지 삼익아파트","category":"도매 및 소매업 - 인삼"}]},{"lat":"37.335756774","long":"126.76272196","items":[{"name":"도일방화문","tel":"031-495-3721","addr":"경기도 안산시 단원구 신길동 1397-4번지 103호","category":"건축자재 - 기타건축자재"},{"name":"한일상사","tel":"031-414-6090","addr":"경기도 안산시 단원구 신길동 1397-4번지 103호","category":"전기제품 - 기타전기제품"},{"name":"현대자동차광택","tel":"031-492-8818","addr":"경기도 안산시 단원구 신길동 1397-4번지 1층 101호","category":"자동차정비 유지 - 카인테리어"}]},{"lat":"37.338806265","long":"126.783363","items":[{"name":"도일카센타","tel":"031-491-6115","addr":"경기도 안산시 단원구 신길동 5-3번지","category":"자동차정비 유지 - 자동차정비"}]},{"lat":"37.337277116","long":"126.76155483","items":[{"name":"돌핀안산영업소","tel":"031-494-8237","addr":"경기도 안산시 단원구 신길동 1385-4번지 1층상가전체","category":"주방용구 - 주방용식기"}]},{"lat":"37.335388549","long":"126.7633099","items":[{"name":"동방인테리어","tel":"031-494-9422","addr":"경기도 안산시 단원구 신길동 1420-1번지 1층","category":"직물 - 카페트,커튼,천막,지물"}]},{"lat":"37.33236667","long":"126.77997409","items":[{"name":"동산꽃화원","tel":"031-492-5469","addr":"경기도 안산시 단원구 신길동 952-1번지","category":"문화.취미 - 화원"},{"name":"수목란원","tel":"031-494-0665","addr":"경기도 안산시 단원구 신길동 952-1번지","category":"문화.취미 - 화원"},{"name":"신동산화원","tel":"031-411-3173","addr":"경기도 안산시 단원구 신길동 952-1번지 104호","category":"문화.취미 - 화원"}]},{"lat":"37.337451405","long":"126.76307766","items":[{"name":"동우상사","tel":"031-499-7269","addr":"경기도 안산시 단원구 신길동 1404-22번지","category":"신변잡화 - 기타잡화"}]},{"lat":"37.325059013","long":"126.77503137","items":[{"name":"동진단철공업(주)","tel":"031-494-3141","addr":"경기도 안산시 단원구 신길동 1121번지","category":"기타 - 기계공구"}]},{"lat":"37.328646122","long":"126.76192093","items":[{"name":"동해복집","tel":"031-492-0011","addr":"경기도 안산시 단원구 신길동 332-9,332-201,2층","category":"일반휴게음식 - 일반한식"}]},{"lat":"37.3361902","long":"126.78168927","items":[{"name":"동화세상어린이집[아이사랑]","tel":"031-414-6120","addr":"경기도 안산시 단원구 신길동 1518번지 휴먼시아 301동 101호","category":"학원 - 유아원"}]},{"lat":"37.3379158194","long":"126.7610562723","items":[{"name":"동화창호","tel":"","addr":"경기도 안산시 단원구 신길동 1387-13번지","category":"건설업 - 알미늄조립"}]},{"lat":"37.326201886","long":"126.75205639","items":[{"name":"두레기계","tel":"031-492-6007","addr":"경기도 안산시 단원구 신길동 294번지","category":"기타 - 기계공구"}]},{"lat":"37.332722131","long":"126.78702533","items":[{"name":"두리아","tel":"031-491-9282","addr":"경기도 안산시 단원구 신길동 1655번지 1층","category":"일반휴게음식 - 일반한식"},{"name":"부산뒷고기","tel":"031-498-5025","addr":"경기도 안산시 단원구 신길동 1655번지 1층 102호","category":"일반휴게음식 - 일반한식"},{"name":"웅자네오돌뼈","tel":"031-491-9282","addr":"경기도 안산시 단원구 신길동 1655번지 1층","category":"일반휴게음식 - 일반한식"},{"name":"한우곱창","tel":"031-493-8767","addr":"경기도 안산시 단원구 신길동 1655번지 1층 102호","category":"일반휴게음식 - 일반한식"}]},{"lat":"37.332588294","long":"126.78774786","items":[{"name":"두리유통","tel":"031-313-5900","addr":"경기도 안산시 단원구 신길동 1665번지 101호","category":"일반휴게음식 - 서양음식"},{"name":"피자파는집 안산신길점","tel":"031-313-5900","addr":"경기도 안산시 단원구 신길동 1665번지 101호","category":"일반휴게음식 - 서양음식"}]},{"lat":"37.325841234","long":"126.76058725","items":[{"name":"두성플렉스/원격지","tel":"031-492-1440","addr":"경기도 안산시 단원구 신길동 1054-9반월공단603BL-1LT","category":"기타 - 기타 전문점"}]},{"lat":"37.334251475","long":"126.75803266","items":[{"name":"들꽃피는화원","tel":"031-411-0094","addr":"경기도 안산시 단원구 신길동 224-9번지","category":"문화.취미 - 화원"},{"name":"신바람 꽃 직매장","tel":"031-494-9740","addr":"경기도 안산시 단원구 신길동 224-9번지 비닐하우스 바,사동","category":"문화.취미 - 화원"}]},{"lat":"37.339167694","long":"126.7839149","items":[{"name":"또봉이통닭(안산신길점)","tel":"031-493-1630","addr":"경기도 안산시 단원구 신길동 3-7번지 1층","category":"일반휴게음식 - 스넥"},{"name":"시골식당","tel":"031-493-5743","addr":"경기도 안산시 단원구 신길동 3-7번지","category":"일반휴게음식 - 일반한식"}]},{"lat":"37.334054163","long":"126.75847337","items":[{"name":"뜨락플라워","tel":"031-493-1885","addr":"경기도 안산시 단원구 신길동 224-33번지","category":"문화.취미 - 화원"}]},{"lat":"37.335005326","long":"126.75658586","items":[{"name":"띵호아청춘부대찌개","tel":"031-495-7080","addr":"경기도 안산시 단원구 신길동 249-4번지","category":"일반휴게음식 - 일반한식"}]},{"lat":"37.3350053260","long":"126.7565858573","items":[{"name":"띵호아청춘부대찌개","tel":"031-495-7080","addr":"경기도 안산시 단원구 신길동 249-4번지","category":"숙박 및 음식점업 - 일반음식"}]},{"lat":"37.3314233942","long":"126.7863294680","items":[{"name":"라라감자탕","tel":"031-494-0926","addr":"경기도 안산시 단원구 신길동 1633번지","category":"숙박 및 음식점업 - 한식"}]},{"lat":"37.335321266","long":"126.7795817","items":[{"name":"라로즈봉봉","tel":"","addr":"경기도 안산시 단원구 신길동 1509번지 휴먼시아 211동 1304호","category":"문화.취미 - 화원"}]},{"lat":"37.334113843","long":"126.76566099","items":[{"name":"락카오디오용품점","tel":"031-495-8489","addr":"경기도 안산시 단원구 신길동 420번지 1층","category":"자동차정비 유지 - 자동차부품"}]},{"lat":"37.334278238","long":"126.78557654","items":[{"name":"레드헤어","tel":"031-508-0117","addr":"경기도 안산시 단원구 신길동 1679번지 안산아이파크 제상가동 1층 102호","category":"보건위생 - 미용원"},{"name":"베스트올","tel":"031-495-6774","addr":"경기도 안산시 단원구 신길동 1679번지 안산아이파크 상가동 1층 101호","category":"유통업 영리 - 편 의 점"},{"name":"삼겹본능 신길점","tel":"031-495-3889","addr":"경기도 안산시 단원구 신길동 1679번지 안산아이파크 104호","category":"일반휴게음식 - 일반한식"},{"name":"아이파크어린이집[아이행복]","tel":"031-494-3030","addr":"경기도 안산시 단원구 신길동 1679번지 안산아이파크 관리동","category":"학원 - 유아원"}]},{"lat":"37.336696706","long":"126.77324717","items":[{"name":"레몬트리","tel":"031-493-9687","addr":"경기도 안산시 단원구 신길동 655-1번지 101호","category":"보건위생 - 화장품"},{"name":"뮤엠영어안산학원","tel":"031-508-1105","addr":"경기도 안산시 단원구 신길동 655-1번지 3층","category":"학원 - 외국어학원"},{"name":"시원한한의원","tel":"","addr":"경기도 안산시 단원구 신길동 655-1번지 2층","category":"의원 - 한의원"},{"name":"오뎅사께","tel":"031-494-2080","addr":"경기도 안산시 단원구 신길동 655-1번지 1층 101호","category":"일반휴게음식 - 주점"},{"name":"점핑하이","tel":"070-4254-0160","addr":"경기도 안산시 단원구 신길동 655-1번지 4층 401호","category":"레저업소 - 헬스클럽"},{"name":"퇘랑숯돌생고기","tel":"031-508-3395","addr":"경기도 안산시 단원구 신길동 655-1번지 1층 102호","category":"일반휴게음식 - 일반한식"}]},{"lat":"37.331307726","long":"126.78713092","items":[{"name":"롯데마켓999안산신길가맹점","tel":"031-495-9949","addr":"경기도 안산시 단원구 신길동 1597번지 101호","category":"유통업 영리 - 슈퍼마켓"}]},{"lat":"37.33719455","long":"126.7608329","items":[{"name":"루디아헤어","tel":"031-495-8251","addr":"경기도 안산시 단원구 신길동 1386-8번지","category":"보건위생 - 미용원"}]},{"lat":"37.3355307185","long":"126.7623277345","items":[{"name":"리무진스토어","tel":"031-491-8448","addr":"경기도 안산시 단원구 신길동 1422-3번지","category":"협회 및 단체, 수리 및 기타 개인서"},{"name":"플러스 전설","tel":"","addr":"경기도 안산시 단원구 신길동 1422-3번지","category":"건설업 - 전기공사"}]},{"lat":"37.325339164","long":"126.76627527","items":[{"name":"리얼스핀(주)","tel":"031-310-1886","addr":"경기도 안산시 단원구 신길동 1052-3번지 1층 유진정밀(주)","category":"레져용품 - 스포츠·레져용품"},{"name":"유진정밀(주)","tel":"031-459-1415","addr":"경기도 안산시 단원구 신길동 1052-3번지","category":"신변잡화 - 시계"}]},{"lat":"37.336671887","long":"126.77910377","items":[{"name":"리틀엔젤어린이집[아이행복]","tel":"031-495-8007","addr":"경기도 안산시 단원구 신길동 1482번지","category":"학원 - 유아원"}]},{"lat":"37.3365624078","long":"126.7736876620","items":[{"name":"마티마부","tel":"","addr":"경기도 안산시 단원구 신길동 656-1번지","category":"도매 및 소매업 - 화장품,카페,피부"},{"name":"반찬스토리","tel":"031-495-1051","addr":"경기도 안산시 단원구 신길동 656-1번지","category":"도매 및 소매업 - 즉석반찬"},{"name":"새뿔제주조릿대감자탕","tel":"031-494-7004","addr":"경기도 안산시 단원구 신길동 656-1번지","category":"숙박 및 음식점업 - 한식"},{"name":"신길캠퍼스와이비엠잉글루영어학원","tel":"031-493-4999","addr":"경기도 안산시 단원구 신길동 656-1번지","category":"교육서비스업 - 영어학원"}]},{"lat":"37.3366099079","long":"126.7613312805","items":[{"name":"만두박사","tel":"031-491-8595","addr":"경기도 안산시 단원구 신길동 1396번지","category":"숙박 및 음식점업 - 분식"}]},{"lat":"37.336609908","long":"126.76133128","items":[{"name":"만두박사","tel":"031-491-8595","addr":"경기도 안산시 단원구 신길동 1396번지 102호","category":"일반휴게음식 - 스넥"},{"name":"신길회실내포장마차","tel":"031-491-1006","addr":"경기도 안산시 단원구 신길동 1396번지 1층","category":"일반휴게음식 - 일반한식"},{"name":"오마이PC방","tel":"","addr":"경기도 안산시 단원구 신길동 1396번지 2층","category":"레저업소 - 기타레져업소"},{"name":"지성중국슈퍼","tel":"031-491-1882","addr":"경기도 안산시 단원구 신길동 1396번지 101호","category":"유통업 영리 - 슈퍼마켓"}]},{"lat":"37.3307020261","long":"126.7860268878","items":[{"name":"만취","tel":"070-4224-1631","addr":"경기도 안산시 단원구 신길동 1631번지","category":"숙박 및 음식점업 - 일반음식점"},{"name":"씨유 안산신길원드점","tel":"031-508-0370","addr":"경기도 안산시 단원구 신길동 1631번지","category":"도매 및 소매업 - 편의점"},{"name":"월드노래연습장","tel":"031-494-1631","addr":"경기도 안산시 단원구 신길동 1631번지","category":"예술, 스포츠 및 여가관련 서비스업"},{"name":"홍대 양푼 김치찌개","tel":"031-493-7942","addr":"경기도 안산시 단원구 신길동 1631번지","category":"숙박 및 음식점업 - 한식"}]},{"lat":"37.326979689","long":"126.75344159","items":[{"name":"만해가든","tel":"031-495-7070","addr":"경기도 안산시 단원구 신길동 297-6번지 에이,시동 1층","category":"일반휴게음식 - 일반한식"}]},{"lat":"37.327475198","long":"126.75341739","items":[{"name":"만해부대찌개","tel":"031-493-2265","addr":"경기도 안산시 단원구 신길동 295-1번지 1,2층","category":"일반휴게음식 - 일반한식"}]},{"lat":"37.327973639","long":"126.75052731","items":[{"name":"만해상사","tel":"031-491-9566","addr":"경기도 안산시 단원구 신길동 285","category":"건축자재 - 기타건축자재"}]},{"lat":"37.32830535","long":"126.74974767","items":[{"name":"만해식당","tel":"031-494-3338","addr":"경기도 안산시 단원구 신길동 283-2번지","category":"일반휴게음식 - 위탁급식업"}]},{"lat":"37.326834122","long":"126.75277639","items":[{"name":"만해추어탕","tel":"031-492-7070","addr":"경기도 안산시 단원구 신길동 294-2번지 1층","category":"일반휴게음식 - 일반한식"}]},{"lat":"37.3268341220","long":"126.7527763881","items":[{"name":"만해추어탕","tel":"031-492-7070","addr":"경기도 안산시 단원구 신길동 294-2번지","category":"숙박 및 음식점업 - 한식"}]},{"lat":"37.328144349","long":"126.75030108","items":[{"name":"만해카센타","tel":"031-495-8688","addr":"경기도 안산시 단원구 신길동 283-75번지","category":"자동차정비 유지 - 자동차정비"}]},{"lat":"37.326474528","long":"126.75316119","items":[{"name":"만해통통이두루치기","tel":"031-493-3660","addr":"경기도 안산시 단원구 신길동 291-3번지","category":"일반휴게음식 - 일반한식"}]},{"lat":"37.3304235179","long":"126.7864677375","items":[{"name":"맘스터치 신길점","tel":"031-494-9295","addr":"경기도 안산시 단원구 신길동 1616번지","category":"숙박 및 음식점업 - 프랜차이즈"}]},{"lat":"37.324005113","long":"126.75286474","items":[{"name":"맛있는구내식당","tel":"031-508-1409","addr":"경기도 안산시 단원구 신길동 1057-1번지 606블럭 1-1호","category":"음료식품 - 기타음료식품"}]},{"lat":"37.331168199","long":"126.75286357","items":[{"name":"메이챤","tel":"031-495-9970","addr":"경기도 안산시 단원구 신길동 271번지 1층","category":"일반휴게음식 - 중국식"}]},{"lat":"37.336338552","long":"126.77441053","items":[{"name":"멘토교실","tel":"031-495-0419","addr":"경기도 안산시 단원구 신길동 658-14번지 대한빌라 302호","category":"학원 - 기타 교육기관"}]},{"lat":"37.336781649","long":"126.77997233","items":[{"name":"멘토영어","tel":"","addr":"경기도 안산시 단원구 신길동 1498번지 201호","category":"학원 - 기타 교육기관"}]},{"lat":"37.33256237","long":"126.78835725","items":[{"name":"명문닭발","tel":"031-111-1111","addr":"경기도 안산시 단원구 신길동 1591번지 1층","category":"일반휴게음식 - 일반한식"}]},{"lat":"37.33881085","long":"126.7715819","items":[{"name":"명성진열장","tel":"031-495-1543","addr":"경기도 안산시 단원구 신길동 606-4번지","category":"가구 - 기타가구"}]},{"lat":"37.337612029","long":"126.76230981","items":[{"name":"명인","tel":"031-494-8281","addr":"경기도 안산시 단원구 신길동 1403번지","category":"일반휴게음식 - 중국식"}]},{"lat":"37.3302798096","long":"126.7867163822","items":[{"name":"명태가명태간장조림","tel":"031-495-8292","addr":"경기도 안산시 단원구 신길동 1615번지","category":"숙박 및 음식점업 - 한식"},{"name":"아우라헤어","tel":"031-484-5934","addr":"경기도 안산시 단원구 신길동 1615번지","category":"협회 및 단체, 수리 및 기타 개인서"},{"name":"응급실 국물떡볶이안산신길점","tel":"031-494-1191","addr":"경기도 안산시 단원구 신길동 1615번지","category":"숙박 및 음식점업 - 일반음식"},{"name":"카페모두","tel":"031-492-7508","addr":"경기도 안산시 단원구 신길동 1615번지","category":"숙박 및 음식점업 - 카페"}]},{"lat":"37.336756598","long":"126.77627117","items":[{"name":"모닝글로리신길점","tel":"031-493-6922","addr":"경기도 안산시 단원구 신길동 709-7번지 삼창B상가 102호","category":"서적문구 - 문구용품"},{"name":"삼익노래연습장","tel":"","addr":"경기도 안산시 단원구 신길동 709-7번지 삼창B상가 지하 B01호","category":"레저업소 - 노 래 방"},{"name":"삼익떡방앗간","tel":"031-495-4525","addr":"경기도 안산시 단원구 신길동 709-7번지 삼창B상가 103호","category":"음료식품 - 제과점"},{"name":"이영규치과의원","tel":"031-492-7522","addr":"경기도 안산시 단원구 신길동 709-7번지 삼창B상가 2층 201호","category":"의원 - 치과의원"},{"name":"파리바게뜨","tel":"031-491-4443","addr":"경기도 안산시 단원구 신길동 709-7번지 삼창B상가 101호","category":"음료식품 - 제과점"},{"name":"효천무예합기도장","tel":"031-494-3070","addr":"경기도 안산시 단원구 신길동 709-7번지 심창 상가 301호","category":"학원 - 예·체능계학원"}]},{"lat":"37.3367565977","long":"126.7762711672","items":[{"name":"모닝글로리신길점","tel":"031-493-6922","addr":"경기도 안산시 단원구 신길동 709-7번지","category":"도매 및 소매업 - 문구완구"},{"name":"삼익떡방앗간","tel":"031-495-4525","addr":"경기도 안산시 단원구 신길동 709-7번지","category":"제조업 - 방앗간"},{"name":"파리바게뜨 안산신길점","tel":"031-491-4443","addr":"경기도 안산시 단원구 신길동 709-7번지","category":"숙박 및 음식점업 - 제과점"},{"name":"효천합기도","tel":"031-494-3070","addr":"경기도 안산시 단원구 신길동 709-7번지","category":"예술, 스포츠 및 여가관련 서비스업"}]},{"lat":"37.330112774","long":"126.78407658","items":[{"name":"모닝플라워","tel":"031-475-5004","addr":"경기도 안산시 단원구 신길동 891-7","category":"문화.취미 - 화원"},{"name":"모닝플라워&조경","tel":"031-475-5004","addr":"경기도 안산시 단원구 신길동 891-7","category":"문화.취미 - 화원"}]},{"lat":"37.336615023","long":"126.77294274","items":[{"name":"무수골토종순대국","tel":"031-491-0234","addr":"경기도 안산시 단원구 신길동 643번지 1층","category":"일반휴게음식 - 일식·회집"},{"name":"승진자동차공업사","tel":"031-492-3307","addr":"경기도 안산시 단원구 신길동 643번지 1동","category":"자동차정비 유지 - 자동차부품"},{"name":"유가네한우곰탕","tel":"031-491-0234","addr":"경기도 안산시 단원구 신길동 643번지 201호","category":"일반휴게음식 - 일반한식"}]},{"lat":"37.33172145","long":"126.78672354","items":[{"name":"문숙이네연탄구이","tel":"031-493-6514","addr":"경기도 안산시 단원구 신길동 1641번지 101호","category":"일반휴게음식 - 일반한식"},{"name":"최가네 춘천 닭갈비","tel":"","addr":"경기도 안산시 단원구 신길동 1641번지 101호","category":"일반휴게음식 - 일반한식"}]},{"lat":"37.337338319","long":"126.7606406","items":[{"name":"미가구이","tel":"031-508-5832","addr":"경기도 안산시 단원구 신길동 1387-7번지","category":"일반휴게음식 - 일반한식"}]},{"lat":"37.336362485","long":"126.76372432","items":[{"name":"미래공사","tel":"070-8816-8255","addr":"경기도 안산시 단원구 신길동 1398-3번지","category":"회원제형태 - 기타4"}]},{"lat":"37.337240173","long":"126.77472376","items":[{"name":"미래상사","tel":"031-479-6864","addr":"경기도 안산시 단원구 신길동 1447번지 안산신길온천역휴먼빌2차 208동 1002호","category":"유통업 영리 - 기타유통업"}]},{"lat":"37.3327235484","long":"126.7878038952","items":[{"name":"바다양푼이동태탕","tel":"031-492-7089","addr":"경기도 안산시 단원구 신길동 1664번지","category":"숙박 및 음식점업 - 한식"}]},{"lat":"37.3323079735","long":"126.7871957658","items":[{"name":"바다포차","tel":"031-499-4187","addr":"경기도 안산시 단원구 신길동 1661번지","category":"숙박 및 음식점업 - 한식"}]},{"lat":"37.332307974","long":"126.78719577","items":[{"name":"바다포차","tel":"070-7614-3579","addr":"경기도 안산시 단원구 신길동 1661번지","category":"일반휴게음식 - 일식·회집"}]},{"lat":"37.3310356076","long":"126.7861387631","items":[{"name":"바바헤어?","tel":"031-492-3636","addr":"경기도 안산시 단원구 신길동 1629번지","category":"협회 및 단체, 수리 및 기타 개인서"},{"name":"얌샘김밥","tel":"031-503-1612","addr":"경기도 안산시 단원구 신길동 1629번지","category":"숙박 및 음식점업 - 한식"},{"name":"옥이네양평해장국","tel":"031-493-9289","addr":"경기도 안산시 단원구 신길동 1629번지","category":"숙박 및 음식점업 - 일반음식"},{"name":"이솝가드닝","tel":"031-493-9692","addr":"경기도 안산시 단원구 신길동 1629번지","category":"숙박 및 음식점업 - 음식,음료,커피"},{"name":"풍광양고기참숯화로구이전문점","tel":"070-8181-5948","addr":"경기도 안산시 단원구 신길동 1629번지","category":"숙박 및 음식점업 - 중화식"},{"name":"풍광쟈창차이","tel":"070-8116-5948","addr":"경기도 안산시 단원구 신길동 1629번지","category":"숙박 및 음식점업 - 중화식"}]},{"lat":"37.331035608","long":"126.78613876","items":[{"name":"바바헤어샵","tel":"031-492-3636","addr":"경기도 안산시 단원구 신길동 1629번지 태인오피스텔 107호","category":"보건위생 - 미용원"},{"name":"얌샘김밥 안산 e-트레이더스점","tel":"031-503-1612","addr":"경기도 안산시 단원구 신길동 1629번지 110호","category":"일반휴게음식 - 일반한식"},{"name":"옥이네양평해장국","tel":"031-503-1612","addr":"경기도 안산시 단원구 신길동 1629번지 109호","category":"일반휴게음식 - 일반한식"},{"name":"을지로 빈대떡","tel":"031-508-1211","addr":"경기도 안산시 단원구 신길동 1629번지 태인오피스텔 1층 106호","category":"일반휴게음식 - 일반한식"},{"name":"이솝가드닝","tel":"031-494-9692","addr":"경기도 안산시 단원구 신길동 1629번지 태인오피스텔 112,113호","category":"일반휴게음식 - 일반한식"},{"name":"일품양평해장국","tel":"031-508-5967","addr":"경기도 안산시 단원구 신길동 1629번지 태인오피스텔 102호","category":"일반휴게음식 - 일반한식"},{"name":"치칵치칵","tel":"031-493-7978","addr":"경기도 안산시 단원구 신길동 1629번지 104,105호","category":"일반휴게음식 - 일반한식"},{"name":"풍광양고기참숯화로구이전문점","tel":"070-8181-5948","addr":"경기도 안산시 단원구 신길동 1629번지 101호","category":"일반휴게음식 - 중국식"},{"name":"풍광쟈창차이","tel":"070-8116-5948","addr":"경기도 안산시 단원구 신길동 1629번지 태인오피스텔 115호","category":"일반휴게음식 - 중국식"},{"name":"한중마트","tel":"031-5882-3588","addr":"경기도 안산시 단원구 신길동 1629번지 103호","category":"유통업 영리 - 슈퍼마켓"}]},{"lat":"37.336581781","long":"126.77438723","items":[{"name":"바보스","tel":"031-414-5560","addr":"경기도 안산시 단원구 신길동 658-1번지 101호","category":"일반휴게음식 - 주점"},{"name":"신겁없는닭발(신길점)","tel":"031-508-0092","addr":"경기도 안산시 단원구 신길동 658-1번지 1층","category":"일반휴게음식 - 일반한식"},{"name":"티앤피시카페(신길점)","tel":"","addr":"경기도 안산시 단원구 신길동 658-1번지 2층","category":"레저업소 - 기타레져업소"},{"name":"프렌즈노래연습장","tel":"02-000-0000","addr":"경기도 안산시 단원구 신길동 658-1번지 지하","category":"레저업소 - 노 래 방"}]},{"lat":"37.330112444","long":"126.76077664","items":[{"name":"바이오메드지노믹스(주)","tel":"031-375-2313","addr":"경기도 안산시 단원구 신길동 364건영상가116","category":"건강식품 - 기타건강식품"}]},{"lat":"37.338145517","long":"126.7588325","items":[{"name":"반도유통","tel":"031-494-4560","addr":"경기도 안산시 단원구 신길동 1393번지 101호","category":"건축자재 - 건축용 요업제품"},{"name":"휠튠","tel":"","addr":"경기도 안산시 단원구 신길동 1393번지 상가동 101호","category":"자동차정비 유지 - 자동차시트·타이어"}]},{"lat":"37.336590246","long":"126.77410509","items":[{"name":"반찬스토리","tel":"031-495-1051","addr":"경기도 안산시 단원구 신길동 657번지","category":"음료식품 - 기타음료식품"},{"name":"피자마루(신길온천점)","tel":"031-492-1088","addr":"경기도 안산시 단원구 신길동 657번지 1층","category":"일반휴게음식 - 서양음식"}]},{"lat":"37.336301662","long":"126.78348313","items":[{"name":"밝은아이어린이집[아이행복]","tel":"031-506-0133","addr":"경기도 안산시 단원구 신길동 1518번지 휴먼시아 305동 101호","category":"학원 - 유아원"},{"name":"이쁜이","tel":"","addr":"경기도 안산시 단원구 신길동 1518번지 휴먼시아 305동 402호","category":"의류 - 정장"}]},{"lat":"37.337418161","long":"126.76003099","items":[{"name":"백년교동짬뽕","tel":"031-493-0022","addr":"경기도 안산시 단원구 신길동 1394-2번지 1층","category":"일반휴게음식 - 중국식"},{"name":"백년교동짬뽕","tel":"031-493-0022","addr":"경기도 안산시 단원구 신길동 1394-2번지 1층","category":"일반휴게음식 - 중국식"},{"name":"수산시장","tel":"031-494-4440","addr":"경기도 안산시 단원구 신길동 1394-2번지 1층","category":"일반휴게음식 - 일반한식"}]},{"lat":"37.3322286473","long":"126.7881663808","items":[{"name":"백마강꼬치","tel":"031-494-9868","addr":"경기도 안산시 단원구 신길동 1589번지","category":"숙박 및 음식점업 - 중식"}]},{"lat":"37.332228647","long":"126.78816638","items":[{"name":"백마강꼬치(2호점)","tel":"031-494-9868","addr":"경기도 안산시 단원구 신길동 1589번지 1층","category":"일반휴게음식 - 중국식"},{"name":"백마강꼬치(2호점)","tel":"031-494-9868","addr":"경기도 안산시 단원구 신길동 1589번지","category":"일반휴게음식 - 중국식"}]},{"lat":"37.338257046","long":"126.78357901","items":[{"name":"백마모터샵","tel":"031-491-7578","addr":"경기도 안산시 단원구 신길동 6-6번지","category":"자동차판매 - 이륜차판매"}]},{"lat":"37.3368087057","long":"126.7616127505","items":[{"name":"베니스마트","tel":"031-405-8915","addr":"경기도 안산시 단원구 신길동 1403-7번지","category":"도매 및 소매업 - 슈퍼마켓"}]},{"lat":"37.336808706","long":"126.76161275","items":[{"name":"베니스마트","tel":"031-494-8919","addr":"경기도 안산시 단원구 신길동 1403-7번지","category":"유통업 영리 - 슈퍼마켓"}]},{"lat":"37.337339175","long":"126.77466704","items":[{"name":"벨르헤어","tel":"031-494-7271","addr":"경기도 안산시 단원구 신길동 1447번지 안산신길온천역휴먼빌2차 2층 7호","category":"보건위생 - 미용원"},{"name":"쿠아안경원","tel":"031-492-8008","addr":"경기도 안산시 단원구 신길동 1447번지 휴먼빌 상가동 2호","category":"보건위생 - 안경"},{"name":"한아름떡","tel":"031-520-5232","addr":"경기도 안산시 단원구 신길동 1447번지 안산신길온천역휴먼빌2차 상가동 지하2층 8호","category":"음료식품 - 제과점"},{"name":"한우리축산","tel":"031-493-3616","addr":"경기도 안산시 단원구 신길동 1447번지 안산신길온천역휴먼빌2차 상가동 5호","category":"음료식품 - 정육점"},{"name":"해법영어","tel":"031-493-0585","addr":"경기도 안산시 단원구 신길동 1447번지 안산신길온천역휴먼빌2.207 602호","category":"회원제형태 - 학원"},{"name":"휴먼꿈나무어린이집[아이행복]","tel":"031-493-3719","addr":"경기도 안산시 단원구 신길동 1447번지 안산신길온천역휴먼빌2차 204호","category":"학원 - 유아원"}]},{"lat":"37.335891421","long":"126.76247328","items":[{"name":"별미식당","tel":"031-494-9609","addr":"경기도 안산시 단원구 신길동 1397-2번지","category":"일반휴게음식 - 일반한식"}]},{"lat":"37.336582438","long":"126.78427221","items":[{"name":"보네헤어","tel":"070-4254-0160","addr":"경기도 안산시 단원구 신길동 1529번지 센터프라자 1층 103호","category":"보건위생 - 미용원"},{"name":"신길스튜디오","tel":"031-495-9054","addr":"경기도 안산시 단원구 신길동 1529번지 센터프라자 202호","category":"광학제품 - 사진관"},{"name":"신길제일약국","tel":"031-495-0206","addr":"경기도 안산시 단원구 신길동 1529번지","category":"약국 - 약국"},{"name":"에스엔티학원","tel":"031-508-3600","addr":"경기도 안산시 단원구 신길동 1529번지 401호","category":"회원제형태 - 학원"},{"name":"에이치앤에이치치과의원","tel":"031-495-2275","addr":"경기도 안산시 단원구 신길동 1529번지","category":"의원 - 치과의원"},{"name":"웅지학당학원","tel":"031-492-3434","addr":"경기도 안산시 단원구 신길동 1529번지 401호","category":"학원 - 보습학원"},{"name":"육해공포차앤(&)치킨","tel":"031-000-0000","addr":"경기도 안산시 단원구 신길동 1529번지 101, 102","category":"일반휴게음식 - 일반한식"},{"name":"이지의원","tel":"031-409-8133","addr":"경기도 안산시 단원구 신길동 1529번지 센터프라자 201호","category":"의원 - 의원"},{"name":"해법상승학원","tel":"031-508-0533","addr":"경기도 안산시 단원구 신길동 1529번지 301호","category":"학원 - 보습학원"}]},{"lat":"37.336331612","long":"126.78506283","items":[{"name":"보따리코리아","tel":"031-7579-1340","addr":"경기도 안산시 단원구 신길동 1537번지 휴먼시아 404동 402호","category":"문화.취미 - 문화취미기타"}]},{"lat":"37.337277967","long":"126.76197235","items":[{"name":"봄비식당","tel":"031-495-0676","addr":"경기도 안산시 단원구 신길동 1403-10번지 1층","category":"일반휴게음식 - 일반한식"},{"name":"봄비식당","tel":"031-495-0676","addr":"경기도 안산시 단원구 신길동 1403-10번지","category":"일반휴게음식 - 일반한식"}]},{"lat":"37.3372779669","long":"126.7619723482","items":[{"name":"봄비식당","tel":"031-495-0676","addr":"경기도 안산시 단원구 신길동 1403-10번지","category":"숙박 및 음식점업 - 한식"}]},{"lat":"37.33680428","long":"126.77296473","items":[{"name":"봉 교동반점","tel":"031-495-2582","addr":"경기도 안산시 단원구 신길동 640-2번지 1층 101호","category":"일반휴게음식 - 중국식"}]},{"lat":"37.336026114","long":"126.76224717","items":[{"name":"블루","tel":"031-493-6670","addr":"경기도 안산시 단원구 신길동 1397번지 1층","category":"일반휴게음식 - 주점"},{"name":"블루","tel":"031-493-6770","addr":"경기도 안산시 단원구 신길동 1397번지","category":"일반휴게음식 - 주점"},{"name":"양지촌양꼬치","tel":"031-318-4252","addr":"경기도 안산시 단원구 신길동 1397번지 1층","category":"일반휴게음식 - 일반한식"}]},{"lat":"37.336888514","long":"126.77930624","items":[{"name":"비바식당","tel":"031-495-0980","addr":"경기도 안산시 단원구 신길동 1483번지 3층 일부","category":"일반휴게음식 - 일반한식"},{"name":"주식회사 비바스크린골프","tel":"031-503-9345","addr":"경기도 안산시 단원구 신길동 1483번지 연우빌딩주건축몰 1동","category":"레저업소 - 스크린골프"}]},{"lat":"37.336033607","long":"126.76150239","items":[{"name":"비어사랑","tel":"031-495-7042","addr":"경기도 안산시 단원구 신길동 1423-4번지 1층","category":"일반휴게음식 - 주점"},{"name":"에이티에스(ATS)","tel":"031-493-1479","addr":"경기도 안산시 단원구 신길동 1423-4번지 1층 101호","category":"자동차정비 유지 - 자동차부품"},{"name":"프로덴트칼라","tel":"031-497-6245","addr":"경기도 안산시 단원구 신길동 1423-4번지 상가1층 1","category":"자동차정비 유지 - 카인테리어"}]},{"lat":"37.333717238","long":"126.78922282","items":[{"name":"빛그린청소","tel":"031-403-3325","addr":"경기도 안산시 단원구 신길동 1574번지 휴먼시아 707동 505호","category":"용역 서비스 - 종합용역"},{"name":"홈케어","tel":"","addr":"경기도 안산시 단원구 신길동 1574번지 휴먼시아 707동 902호","category":"보건위생 - 화장품"}]},{"lat":"37.3342514751","long":"126.7580326552","items":[{"name":"사랑이꽃피는화원","tel":"031-491-8105","addr":"경기도 안산시 단원구 신길동 224-9번지","category":"도매 및 소매업 - 생화"},{"name":"주식회사 들꽃피는화원","tel":"031-486-7873","addr":"경기도 안산시 단원구 신길동 224-9번지","category":"도매 및 소매업 - 생화,화원"}]},{"lat":"37.325752672","long":"126.77033571","items":[{"name":"사이먼앤코(주)","tel":"031-8042-3368","addr":"경기도 안산시 단원구 신길동 1048-9번지","category":"음료식품 - 기타음료식품"}]},{"lat":"37.333720719","long":"126.75844059","items":[{"name":"산삼전시장","tel":"031-486-4908","addr":"경기도 안산시 단원구 신길동 224-8번지","category":"건강식품 - 인삼제품"}]},{"lat":"37.331118225","long":"126.7869735","items":[{"name":"삼곱식당","tel":"031-493-3292","addr":"경기도 안산시 단원구 신길동 1609번지 1층 102호","category":"일반휴게음식 - 일반한식"},{"name":"삼곱식당","tel":"031-493-3292","addr":"경기도 안산시 단원구 신길동 1609번지 102호","category":"일반휴게음식 - 일반한식"},{"name":"앵콜노래연습장","tel":"","addr":"경기도 안산시 단원구 신길동 1609번지 301호","category":"레저업소 - 노 래 방"},{"name":"왕족","tel":"031-491-8660","addr":"경기도 안산시 단원구 신길동 1609번지 401호","category":"보건위생 - 피부미용실"}]},{"lat":"37.3311182253","long":"126.7869734987","items":[{"name":"삼곱식당","tel":"031-493-3292","addr":"경기도 안산시 단원구 신길동 1609번지","category":"숙박 및 음식점업 - 한식"},{"name":"앵콜노래연습장","tel":"031-495-3515","addr":"경기도 안산시 단원구 신길동 1609번지","category":"협회 및 단체, 수리 및 기타 개인서"}]},{"lat":"37.336168298","long":"126.76127627","items":[{"name":"삼사자동차","tel":"031-431-3434","addr":"경기도 안산시 단원구 신길동 1423-2번지","category":"자동차정비 유지 - 자동차정비"}]},{"lat":"37.3361682977","long":"126.7612762737","items":[{"name":"삼사자동차","tel":"031-431-3434","addr":"경기도 안산시 단원구 신길동 1423-2번지","category":"협회 및 단체, 수리 및 기타 개인서"}]},{"lat":"37.334726928","long":"126.75702684","items":[{"name":"삼성꽃도매","tel":"031-418-0236","addr":"경기도 안산시 단원구 신길동 249-11 7호","category":"문화.취미 - 화원"},{"name":"영동꽃도매","tel":"031-492-4714","addr":"경기도 안산시 단원구 신길동 249-11 하우스1동","category":"문화.취미 - 화원"}]},{"lat":"37.330920922","long":"126.78258483","items":[{"name":"삼성종합주방","tel":"031-508-1068","addr":"경기도 안산시 단원구 신길동 922","category":"주방용구 - 주방용식기"},{"name":"삼성종합주방설비","tel":"031-111-1111","addr":"경기도 안산시 단원구 신길동 922번지","category":"주방용구 - 주방용구"},{"name":"송미자플라워","tel":"031-491-9779","addr":"경기도 안산시 단원구 신길동 922번지","category":"문화.취미 - 화원"}]},{"lat":"37.3341130047","long":"126.7652434912","items":[{"name":"삼영꽃도매","tel":"031-494-4748","addr":"경기도 안산시 단원구 신길동 420-3번지","category":"도매 및 소매업 - 꽃집"}]},{"lat":"37.3347920636","long":"126.7857104641","items":[{"name":"상운유통","tel":"","addr":"경기도 안산시 단원구 신길동 1679번지 안산아이파크","category":"협회 및 단체, 수리 및 기타 개인서"}]},{"lat":"37.337617223","long":"126.78352444","items":[{"name":"새싹키즈스쿨어린이집[아이행복]","tel":"031-491-4281","addr":"경기도 안산시 단원구 신길동 25-3번지","category":"학원 - 유아원"}]},{"lat":"37.3315860924","long":"126.7866110882","items":[{"name":"새장터순대국소머리곰탕","tel":"031-495-8728","addr":"경기도 안산시 단원구 신길동 1642번지","category":"숙박 및 음식점업 - 일반음식"}]},{"lat":"37.331586092","long":"126.78661109","items":[{"name":"새장터순대국소머리곰탕","tel":"031-495-8728","addr":"경기도 안산시 단원구 신길동 1642번지 101호","category":"일반휴게음식 - 일반한식"}]},{"lat":"37.3391130693","long":"126.7836103700","items":[{"name":"새집왕생고기","tel":"031-492-0052","addr":"경기도 안산시 단원구 신길동 3-14번지","category":"숙박 및 음식점업 - 한식"}]},{"lat":"37.337723333","long":"126.77297322","items":[{"name":"샛뿔추어탕","tel":"031-494-1341","addr":"경기도 안산시 단원구 신길동 627-9번지 1층","category":"일반휴게음식 - 일반한식"}]},{"lat":"37.337777985","long":"126.77327773","items":[{"name":"샛뿔추어탕","tel":"031-494-1341","addr":"경기도 안산시 단원구 신길동 159-2번지","category":"일반휴게음식 - 일반한식"}]},{"lat":"37.334443918","long":"126.76852607","items":[{"name":"샛뿔충전소","tel":"031-492-9788","addr":"경기도 안산시 단원구 신길동 216-131번지","category":"연료판매점 - E1가스충전소"}]},{"lat":"37.33939156","long":"126.77366778","items":[{"name":"샛뿔표고버섯","tel":"031-493-3627","addr":"경기도 안산시 단원구 신길동 136번지","category":"음료식품 - 농·축·수산품"}]},{"lat":"37.336422283","long":"126.76211049","items":[{"name":"샤론헤어","tel":"031-493-5562","addr":"경기도 안산시 단원구 신길동 1401-9번지 1층 101호","category":"보건위생 - 미용원"},{"name":"일미얼큰탕","tel":"031-494-9363","addr":"경기도 안산시 단원구 신길동 1401-9번지 1층 102호","category":"일반휴게음식 - 일반한식"}]},{"lat":"37.3311191713","long":"126.7874925332","items":[{"name":"서봉삼계탕","tel":"031-491-7077","addr":"경기도 안산시 단원구 신길동 1603번지","category":"숙박 및 음식점업 - 한식"}]},{"lat":"37.331119171","long":"126.78749253","items":[{"name":"서봉삼계탕","tel":"031-491-7077","addr":"경기도 안산시 단원구 신길동 1603번지 1층","category":"일반휴게음식 - 일반한식"},{"name":"원조국수앤동동주","tel":"031-491-7077","addr":"경기도 안산시 단원구 신길동 1603번지 1층","category":"일반휴게음식 - 일반한식"}]},{"lat":"37.3357014055","long":"126.7620789400","items":[{"name":"선진사무용가구","tel":"031-493-1612","addr":"경기도 안산시 단원구 신길동 1422-1번지","category":"도매 및 소매업 - 사무용가구"}]},{"lat":"37.335701405","long":"126.76207894","items":[{"name":"선진사무용가구","tel":"031-493-1612","addr":"경기도 안산시 단원구 신길동 1422-1번지","category":"사무통신 - 사무용 OA기기"}]},{"lat":"37.32280754","long":"126.78032951","items":[{"name":"성원","tel":"031-495-5334","addr":"경기도 안산시 단원구 신길동 1125-4번지 구내식당","category":"일반휴게음식 - 위탁급식업"}]},{"lat":"37.329922329","long":"126.78341142","items":[{"name":"성진공업","tel":"031-493-3135","addr":"경기도 안산시 단원구 신길동 912-13번지","category":"기타 - 기계공구"}]},{"lat":"37.339138626","long":"126.75979976","items":[{"name":"성호모터스","tel":"031-492-7131","addr":"경기도 안산시 단원구 신길동 1378번지","category":"자동차정비 유지 - 자동차정비"}]},{"lat":"37.336029786","long":"126.78263761","items":[{"name":"세븐마트","tel":"031-488-9848","addr":"경기도 안산시 단원구 신길동 1518번지 휴먼시아 101호","category":"유통업 영리 - 슈퍼마켓"},{"name":"애플트리어린이집[아이행복]","tel":"031-492-9750","addr":"경기도 안산시 단원구 신길동 1518번지 휴먼시아 408동 102호","category":"학원 - 유아원"},{"name":"연이네포차","tel":"031-000-0000","addr":"경기도 안산시 단원구 신길동 1518번지 상가동 103,104호","category":"일반휴게음식 - 일반한식"},{"name":"컷앤펌","tel":"031-494-1022","addr":"경기도 안산시 단원구 신길동 1518번지 휴먼시아 상가 103호","category":"보건위생 - 미용원"}]},{"lat":"37.3360297865","long":"126.7826376116","items":[{"name":"세븐마트","tel":"031-488-9848","addr":"경기도 안산시 단원구 신길동 1518번지","category":"도매 및 소매업 - 슈퍼"}]},{"lat":"37.333896727","long":"126.78882738","items":[{"name":"세븐일레븐안산신길고점","tel":"031-1577-0711","addr":"경기도 안산시 단원구 신길동 1574번지 휴먼시아 101호","category":"유통업 영리 - 편 의 점"},{"name":"웰워터스","tel":"031-509-1870","addr":"경기도 안산시 단원구 신길동 1574","category":"수리서비스 - 가정용품수리"}]},{"lat":"37.336417874","long":"126.77349627","items":[{"name":"세븐일레븐안산신길로점","tel":"031-1577-0711","addr":"경기도 안산시 단원구 신길동 656-2번지 1층","category":"유통업 영리 - 편 의 점"}]},{"lat":"37.332001773","long":"126.78727563","items":[{"name":"세븐일레븐안산신길이마트점","tel":"031-1577-0711","addr":"경기도 안산시 단원구 신길동 1646번지 1층 102호","category":"유통업 영리 - 편 의 점"},{"name":"칭다오양꼬치","tel":"031-493-9670","addr":"경기도 안산시 단원구 신길동 1646번지 103호","category":"일반휴게음식 - 중국식"},{"name":"콩불 (안산신길점)","tel":"031-494-4136","addr":"경기도 안산시 단원구 신길동 1646번지 101호","category":"일반휴게음식 - 일반한식"}]},{"lat":"37.326281087","long":"126.76872066","items":[{"name":"세원강판(주)","tel":"031-494-1652","addr":"경기도 안산시 단원구 신길동 1049-4번지","category":"건축자재 - 기타건축자재"}]},{"lat":"37.333283633","long":"126.76058592","items":[{"name":"소금과다육","tel":"070-4106-0929","addr":"경기도 안산시 단원구 신길동 228-5","category":"문화.취미 - 화원"}]},{"lat":"37.332894187","long":"126.78749875","items":[{"name":"소야 돼지야","tel":"031-493-2577","addr":"경기도 안산시 단원구 신길동 1654번지 1층","category":"음료식품 - 정육점"},{"name":"훈장골","tel":"031-493-2577","addr":"경기도 안산시 단원구 신길동 1654번지","category":"일반휴게음식 - 일반한식"}]},{"lat":"37.339527535","long":"126.78360917","items":[{"name":"수다방","tel":"031-494-4741","addr":"경기도 안산시 단원구 신길동 2-7번지","category":"일반휴게음식 - 서양음식"},{"name":"신촌한우정육점","tel":"031-494-9696","addr":"경기도 안산시 단원구 신길동 2-7번지","category":"음료식품 - 정육점"}]},{"lat":"37.3338336582","long":"126.7790896191","items":[{"name":"수빈다육","tel":"031-491-9457","addr":"경기도 안산시 단원구 신길동 1509번지 휴먼시아","category":"도매 및 소매업 - 다육식물"}]},{"lat":"37.330283821","long":"126.7839971","items":[{"name":"수연","tel":"031-491-6474","addr":"경기도 안산시 단원구 신길동 909-6번지","category":"문화.취미 - 화원"}]},{"lat":"37.334085302","long":"126.76047051","items":[{"name":"쉼터","tel":"031-418-1472","addr":"경기도 안산시 단원구 신길동 224-23번지","category":"문화.취미 - 화원"}]},{"lat":"37.3308115102","long":"126.7867712757","items":[{"name":"스타노래연습장","tel":"070-8044-0204","addr":"경기도 안산시 단원구 신길동 1612번지","category":"예술, 스포츠 및 여가관련 서비스업"},{"name":"우리당구클럽","tel":"031-491-1022","addr":"경기도 안산시 단원구 신길동 1612번지","category":"협회 및 단체, 수리 및 기타 개인서"},{"name":"우리펫동물병원","tel":"031-493-3535","addr":"경기도 안산시 단원구 신길동 1612번지","category":"보건업 및 사회복지서비스업 - 수의업"},{"name":"토마토김밥","tel":"031-491-8383","addr":"경기도 안산시 단원구 신길동 1612번지","category":"숙박 및 음식점업 - 한식"}]},{"lat":"37.331534212","long":"126.78780729","items":[{"name":"스타덤 PC 안산신길점","tel":"070-2043-2839","addr":"경기도 안산시 단원구 신길동 1600번지 1층","category":"레저업소 - 기타레져업소"}]},{"lat":"37.332003189","long":"126.78805419","items":[{"name":"스피드메이트 안산점","tel":"031-494-8585","addr":"경기도 안산시 단원구 신길동 1588번지","category":"자동차정비 유지 - 자동차정비"},{"name":"스피드메이트안산점","tel":"031-494-8585","addr":"경기도 안산시 단원구 신길동 1588번지","category":"자동차정비 유지 - 카인테리어"}]},{"lat":"37.327116377","long":"126.7499209","items":[{"name":"승일철재","tel":"031-499-7080","addr":"경기도 안산시 단원구 신길동 산 60-4","category":"건축자재 - 목재·석재·철물"}]},{"lat":"37.3366150234","long":"126.7729427425","items":[{"name":"승진자동차공업사","tel":"031-492-3307","addr":"경기도 안산시 단원구 신길동 643번지","category":"협회 및 단체, 수리 및 기타 개인서"},{"name":"유가네한우곰탕","tel":"031-491-0234","addr":"경기도 안산시 단원구 신길동 643번지","category":"숙박 및 음식점업 - 음식"}]},{"lat":"37.338880729","long":"126.78959187","items":[{"name":"시립아기별어린이집[아이행복]","tel":"031-492-7087","addr":"경기도 안산시 단원구 신길동 1561번지 휴먼시아 507동 1층","category":"학원 - 유아원"},{"name":"해피홈시스","tel":"031-8948-5521","addr":"경기도 안산시 단원구 신길동 1561번지 휴먼시아 507동 1005호","category":"회원제형태 - 기타4"},{"name":"해피홈크린","tel":"","addr":"경기도 안산시 단원구 신길동 1561번지 휴먼시아 507동 1005호","category":"용역 서비스 - 종합용역"}]},{"lat":"37.33799866","long":"126.76191362","items":[{"name":"시립안산보듬이나눔이어린이집[아이행복]","tel":"031-495-2179","addr":"경기도 안산시 단원구 신길동 1384-11번지","category":"학원 - 유아원"}]},{"lat":"37.337974907","long":"126.75911516","items":[{"name":"시원 냉동 부품","tel":"031-419-7400","addr":"경기도 안산시 단원구 신길동 1393-2번지 102,103호","category":"전기제품 - 냉열기기"},{"name":"태양전력(주)","tel":"031-492-0848","addr":"경기도 안산시 단원구 신길동 1393-2번지 101호","category":"용역 서비스 - 기타용역서비스"}]},{"lat":"37.331284612","long":"126.76119036","items":[{"name":"시원냉동공조시스템","tel":"031-492-4004","addr":"경기도 안산시 단원구 신길동 369","category":"전기제품 - 냉열기기"}]},{"lat":"37.333110543","long":"126.75966121","items":[{"name":"시크릿가든","tel":"031-494-5577","addr":"경기도 안산시 단원구 신길동 228-4","category":"문화.취미 - 화원"},{"name":"시화화원","tel":"031-491-6622","addr":"경기도 안산시 단원구 신길동 228-4번지","category":"문화.취미 - 화원"}]},{"lat":"37.3331105430","long":"126.7596612123","items":[{"name":"시크릿가든","tel":"031-493-5577","addr":"경기도 안산시 단원구 신길동 228-4번지","category":"도매 및 소매업 - 생화"}]},{"lat":"37.337804273","long":"126.75938654","items":[{"name":"시화,안산중고타이어","tel":"031-493-3124","addr":"경기도 안산시 단원구 신길동 1393-5번지","category":"자동차정비 유지 - 자동차시트·타이어"}]},{"lat":"37.334338947","long":"126.76113544","items":[{"name":"신길LPG충전소","tel":"031-492-8543","addr":"경기도 안산시 단원구 신길동 216-269번지","category":"연료판매점 - E1가스충전소"}]},{"lat":"37.334110553","long":"126.78749528","items":[{"name":"신길고등학교","tel":"031-599-9895","addr":"경기도 안산시 단원구 신길동 1672번지 신길고등학교","category":"학원 - 초중고교육기관"},{"name":"신길고등학교_수업료","tel":"031-599-9895","addr":"경기도 안산시 단원구 신길동 1672번지 신길택지지구내","category":"학원 - 초중고교육기관"},{"name":"신길고마을교육공동체개방형사회적협동조합","tel":"031-599-9892","addr":"경기도 안산시 단원구 신길동 1672번지 신길고등학교","category":"음료식품 - 기타음료식품"}]},{"lat":"37.335889951","long":"126.7617511","items":[{"name":"신길당구장","tel":"031-491-4363","addr":"경기도 안산시 단원구 신길동 1423-6번지 3층","category":"레저업소 - 당 구 장"},{"name":"신길반점","tel":"031-495-0850","addr":"경기도 안산시 단원구 신길동 1423-6번지 1층","category":"일반휴게음식 - 중국식"},{"name":"신통치킨","tel":"031-494-0997","addr":"경기도 안산시 단원구 신길동 1423-6번지","category":"일반휴게음식 - 스넥"},{"name":"일품향","tel":"031-495-0851","addr":"경기도 안산시 단원구 신길동 1423-6번지","category":"일반휴게음식 - 중국식"},{"name":"일품향","tel":"031-495-0851","addr":"경기도 안산시 단원구 신길동 1423-6번지","category":"일반휴게음식 - 중국식"},{"name":"터진목노래연습장","tel":"031-491-7856","addr":"경기도 안산시 단원구 신길동 1423-6번지 2층","category":"레저업소 - 노 래 방"},{"name":"터진목노래연습장","tel":"031-494-0013","addr":"경기도 안산시 단원구 신길동 1423-6번지 2층","category":"레저업소 - 노 래 방"}]},{"lat":"37.33158669","long":"126.78693831","items":[{"name":"신길두루치기","tel":"031-493-3233","addr":"경기도 안산시 단원구 신길동 1649번지 1층","category":"일반휴게음식 - 일반한식"}]},{"lat":"37.3356669014","long":"126.7628350844","items":[{"name":"신길배터리","tel":"031-491-8985","addr":"경기도 안산시 단원구 신길동 1397-5번지","category":"도매 및 소매업 - 베터리"}]},{"lat":"37.335666901","long":"126.76283508","items":[{"name":"신길배터리","tel":"031-491-8985","addr":"경기도 안산시 단원구 신길동 1397-5번지 103호","category":"자동차정비 유지 - 자동차부품"},{"name":"희망디자인","tel":"031-495-1533","addr":"경기도 안산시 단원구 신길동 1397-5번지 상가 102호","category":"서적문구 - 출판 및 인쇄물"}]},{"lat":"37.329087388","long":"126.76180669","items":[{"name":"신길복집","tel":"031-492-6995","addr":"경기도 안산시 단원구 신길동 332-2번지","category":"일반휴게음식 - 일반한식"}]},{"lat":"37.332279498","long":"126.75863709","items":[{"name":"신길수산물","tel":"031-492-0275","addr":"경기도 안산시 단원구 신길동 236번지 1층","category":"회원제형태 - 기타1"},{"name":"신길장어","tel":"031-492-0275","addr":"경기도 안산시 단원구 신길동 236 1,2층","category":"일반휴게음식 - 일반한식"}]},{"lat":"37.33657096","long":"126.78294071","items":[{"name":"신길아이사랑어린이집[아이행복]","tel":"031-439-1101","addr":"경기도 안산시 단원구 신길동 1518번지 휴먼시아 303동 102호","category":"학원 - 유아원"}]},{"lat":"37.338445262","long":"126.78794556","items":[{"name":"신길어린이집[아이행복]","tel":"031-493-3453","addr":"경기도 안산시 단원구 신길동 1543번지","category":"학원 - 유아원"}]},{"lat":"37.338057868","long":"126.78796924","items":[{"name":"신길유치원","tel":"031-493-2493","addr":"경기도 안산시 단원구 신길동 1544번지","category":"학원 - 유치원"},{"name":"신길유치원[아이행복]","tel":"031-493-2493","addr":"경기도 안산시 단원구 신길동 1544번지","category":"학원 - 유치원"}]},{"lat":"37.3368954101","long":"126.7734948175","items":[{"name":"신길정보통신","tel":"031-492-1999","addr":"경기도 안산시 단원구 신길동 640-5번지","category":"도매 및 소매업 - 휴대폰 및 액세서"}]},{"lat":"37.33689541","long":"126.77349482","items":[{"name":"신길정보통신","tel":"031-492-1999","addr":"경기도 안산시 단원구 신길동 640-5번지","category":"사무통신 - 통신기기"}]},{"lat":"37.336922081","long":"126.78769037","items":[{"name":"신길중학교","tel":"031-364-3230","addr":"경기도 안산시 단원구 신길동 1549번지 신길중학교","category":"학원 - 초중고교육기관"}]},{"lat":"37.3318942064","long":"126.7875805888","items":[{"name":"신길지구깐부치킨","tel":"031-493-1213","addr":"경기도 안산시 단원구 신길동 1593번지","category":"숙박 및 음식점업 - 호프"}]},{"lat":"37.335478353","long":"126.76316292","items":[{"name":"신길철물건재","tel":"031-492-0243","addr":"경기도 안산시 단원구 신길동 1420번지","category":"건축자재 - 기타건축자재"},{"name":"한국전지산업(배터리마트)","tel":"031-491-2223","addr":"경기도 안산시 단원구 신길동 1420번지","category":"자동차정비 유지 - 자동차부품"}]},{"lat":"37.335584387","long":"126.78055136","items":[{"name":"신길초등학교","tel":"031-492-7983","addr":"경기도 안산시 단원구 신길동 1513번지 신길초등학교","category":"학원 - 초중고교육기관"}]},{"lat":"37.336447286","long":"126.7842726","items":[{"name":"신길치과","tel":"031-494-7582","addr":"경기도 안산시 단원구 신길동 1530번지 세현빌딩 2층","category":"의원 - 치과의원"},{"name":"존슨부대찌개","tel":"031-491-7617","addr":"경기도 안산시 단원구 신길동 1530번지 102호,103호","category":"일반휴게음식 - 일반한식"}]},{"lat":"37.336394402","long":"126.76169307","items":[{"name":"신길카오디오용품점","tel":"031-520-7766","addr":"경기도 안산시 단원구 신길동 1396-3번지 1층","category":"자동차정비 유지 - 카인테리어"}]},{"lat":"37.3363595934","long":"126.7713298808","items":[{"name":"신꽃소한우","tel":"031-495-6255","addr":"경기도 안산시 단원구 신길동 582-7번지","category":"숙박 및 음식점업 - 한식"}]},{"lat":"37.3323666701","long":"126.7799740917","items":[{"name":"신동산화원","tel":"031-411-3173","addr":"경기도 안산시 단원구 신길동 952-1번지","category":"도매 및 소매업 - 화훼"}]},{"lat":"37.332867813","long":"126.7878599","items":[{"name":"신마약포차","tel":"031-111-1111","addr":"경기도 안산시 단원구 신길동 1663번지 101호","category":"일반휴게음식 - 일반한식"},{"name":"헤어스토리","tel":"031-493-2151","addr":"경기도 안산시 단원구 신길동 1663번지 1층 102호","category":"보건위생 - 미용원"}]},{"lat":"37.337058936","long":"126.76060765","items":[{"name":"신성오토카써비스","tel":"031-491-8773","addr":"경기도 안산시 단원구 신길동 1395-2번지","category":"자동차정비 유지 - 자동차정비"}]},{"lat":"37.339392383","long":"126.78360956","items":[{"name":"신촌정육식당","tel":"031-495-3989","addr":"경기도 안산시 단원구 신길동 3-3번지 1층 일부","category":"일반휴게음식 - 일반한식"},{"name":"한방족발","tel":"031-508-4497","addr":"경기도 안산시 단원구 신길동 3-3번지","category":"일반휴게음식 - 일반한식"}]},{"lat":"37.330337213","long":"126.78363588","items":[{"name":"쌍용화원","tel":"031-491-6474","addr":"경기도 안산시 단원구 신길동 909-11번지","category":"문화.취미 - 화원"},{"name":"쌍용화원","tel":"031-491-6474","addr":"경기도 안산시 단원구 신길동 909-11번지","category":"문화.취미 - 화원"}]},{"lat":"37.340728513","long":"126.76180334","items":[{"name":"썬텍프로","tel":"031-431-2181","addr":"경기도 안산시 단원구 신길동 214-2번지 1층","category":"주방용구 - 주방용구"}]},{"lat":"37.330030524","long":"126.7693296","items":[{"name":"씨유안산반월공단로드점","tel":"031-898-6568","addr":"경기도 안산시 단원구 신길동 1037-14번지 남안산주유소","category":"유통업 영리 - 편 의 점"}]},{"lat":"37.33561307","long":"126.7629481","items":[{"name":"씨유안산신길온천역점","tel":"031-493-4380","addr":"경기도 안산시 단원구 신길동 1397-6번지 1층","category":"유통업 영리 - 편 의 점"}]},{"lat":"37.332805336","long":"126.78818731","items":[{"name":"씨유안산신길중앙점","tel":"031-494-2017","addr":"경기도 안산시 단원구 신길동 1577번지 101호","category":"유통업 영리 - 편 의 점"},{"name":"정상유통","tel":"070-4318-3917","addr":"경기도 안산시 단원구 신길동 1577번지 1층 상가전체","category":"사무통신 - 통신기기"}]},{"lat":"37.337471269","long":"126.77308683","items":[{"name":"아구가 좋아","tel":"031-493-1149","addr":"경기도 안산시 단원구 신길동 630-2번지 1층 101호","category":"일반휴게음식 - 일반한식"}]},{"lat":"37.331865798","long":"126.78682467","items":[{"name":"아구랑뼈다귀랑","tel":"031-493-1191","addr":"경기도 안산시 단원구 신길동 1640번지 1층","category":"일반휴게음식 - 일반한식"}]},{"lat":"37.331201604","long":"126.76468849","items":[{"name":"아르마다","tel":"031-403-3697","addr":"경기도 안산시 단원구 신길동 438-3번지","category":"레저업소 - 헬스클럽"}]},{"lat":"37.336391565","long":"126.76030512","items":[{"name":"아름다운 세상만들기 아세만화원","tel":"031-508-0411","addr":"경기도 안산시 단원구 신길동 217-4번지","category":"문화.취미 - 화원"},{"name":"한짬뽕","tel":"031-495-0609","addr":"경기도 안산시 단원구 신길동 217-4번지 1층","category":"일반휴게음식 - 중국식"}]},{"lat":"37.33575056","long":"126.78758087","items":[{"name":"안산대월초등학교","tel":"031-508-6915","addr":"경기도 안산시 단원구 신길동 1551번지 안산대월초등학교","category":"학원 - 초중고교육기관"}]},{"lat":"37.3357537","long":"126.77482981","items":[{"name":"안산복지매장","tel":"031-491-9496","addr":"경기도 안산시 단원구 신길동 1454번지 안산개인택시운송사업조합","category":"자동차정비 유지 - 자동차부품"},{"name":"주식회사 평우서비스/안산조합점","tel":"031-763-2946","addr":"경기도 안산시 단원구 신길동 1454번지 안산개인택시조합정비사업소내","category":"자동차정비 유지 - 자동차부품"}]},{"lat":"37.332165822","long":"126.78830196","items":[{"name":"안산상담심리연구소","tel":"031-493-8007","addr":"경기도 안산시 단원구 신길동 1587번지 102호","category":"보건위생 - 기타대인서비스"}]},{"lat":"37.336249158","long":"126.76116317","items":[{"name":"안산환경산업 (주)","tel":"031-111-1111","addr":"경기도 안산시 단원구 신길동 1423-1번지 5층","category":"용역 서비스 - 종합용역"},{"name":"케이원특수렉카","tel":"031-111-1111","addr":"경기도 안산시 단원구 신길동 1423-1번지","category":"자동차정비 유지 - 견인서비스"}]},{"lat":"37.336831814","long":"126.77322419","items":[{"name":"안양원예농업협동조합신길지소","tel":"031-493-9620","addr":"경기도 안산시 단원구 신길동 640-3번지","category":"유통업 비영리 - 농,축협 직영매장"}]},{"lat":"37.337361533","long":"126.76319079","items":[{"name":"애니멀팜","tel":"031-504-9655","addr":"경기도 안산시 단원구 신길동 1404-21번지","category":"레저업소 - 기타레져업소"}]},{"lat":"37.337217336","long":"126.78654981","items":[{"name":"애플트리어린이집[아이행복]","tel":"031-492-9750","addr":"경기도 안산시 단원구 신길동 1537번지 휴먼시아 408동 102호","category":"학원 - 유아원"}]},{"lat":"37.3312000158","long":"126.7873569012","items":[{"name":"야들야들한족발","tel":"031-493-4936","addr":"경기도 안산시 단원구 신길동 1604번지","category":"숙박 및 음식점업 - 일반음식점"}]},{"lat":"37.331200016","long":"126.7873569","items":[{"name":"야들야들한족발","tel":"031-493-4936","addr":"경기도 안산시 단원구 신길동 1604번지 101호","category":"일반휴게음식 - 일반한식"}]},{"lat":"37.335810559","long":"126.76258638","items":[{"name":"엄마손밥상","tel":"031-495-5988","addr":"경기도 안산시 단원구 신길동 1397-3번지 103호","category":"일반휴게음식 - 일반한식"}]},{"lat":"37.324118297","long":"126.75100278","items":[{"name":"엄마손식당","tel":"031-491-4975","addr":"경기도 안산시 단원구 신길동 1070-6번지","category":"일반휴게음식 - 일반한식"}]},{"lat":"37.335437478","long":"126.78883429","items":[{"name":"엄마품어린이집[아이행복]","tel":"031-433-0702","addr":"경기도 안산시 단원구 신길동 1563번지 휴먼시아 601동 103호","category":"학원 - 유아원"}]},{"lat":"37.331479679","long":"126.78754792","items":[{"name":"엄청난속초생선찜","tel":"031-413-2348","addr":"경기도 안산시 단원구 신길동 1606번지 101호","category":"일반휴게음식 - 일반한식"}]},{"lat":"37.3314796790","long":"126.7875479213","items":[{"name":"엄청난속초생선찜","tel":"031-413-2348","addr":"경기도 안산시 단원구 신길동 1606번지","category":"숙박 및 음식점업 - 한식음식점업"}]},{"lat":"37.336169839","long":"126.76203231","items":[{"name":"업빈네노래연습장","tel":"031-491-3567","addr":"경기도 안산시 단원구 신길동 1396-6번지 201호","category":"레저업소 - 노 래 방"},{"name":"플러스마트","tel":"031-491-0530","addr":"경기도 안산시 단원구 신길동 1396-6번지 1층","category":"유통업 영리 - 슈퍼마켓"}]},{"lat":"37.321281773","long":"126.75607783","items":[{"name":"엘티엘(LTL)","tel":"070-4032-7070","addr":"경기도 안산시 단원구 신길동 1060-7번지 2층","category":"전기제품 - 기타전기제품"}]},{"lat":"37.332723548","long":"126.7878039","items":[{"name":"역전할머니맥주","tel":"031-111-1111","addr":"경기도 안산시 단원구 신길동 1664번지","category":"일반휴게음식 - 일반한식"}]},{"lat":"37.322973034","long":"126.7548087","items":[{"name":"영창산업기계/원격지","tel":"031-319-3893","addr":"경기도 안산시 단원구 신길동 1058-3번지 106동","category":"기타 - 기타 전문점"}]},{"lat":"37.3366146133","long":"126.7774113017","items":[{"name":"예감터치미술","tel":"031-491-1954","addr":"경기도 안산시 단원구 신길동 1439번지","category":"교육서비스업 - 미술학원"}]},{"lat":"37.3325882940","long":"126.7877478626","items":[{"name":"오구쌀피자","tel":"031-313-5900","addr":"경기도 안산시 단원구 신길동 1665번지","category":"숙박 및 음식점업 - 피자"}]},{"lat":"37.337395328","long":"126.76208482","items":[{"name":"오리맘","tel":"031-494-9855","addr":"경기도 안산시 단원구 신길동 1403-11번지 1층","category":"일반휴게음식 - 일반한식"}]},{"lat":"37.326230014","long":"126.76569706","items":[{"name":"오제이씨(주) ASF","tel":"02-2165-8375","addr":"경기도 안산시 단원구 신길동 1052-4번지","category":"기타 - 기계공구"},{"name":"오제이씨(주)ASF","tel":"02-2165-8375","addr":"경기도 안산시 단원구 신길동 1052-4번지 1층","category":"기타 - 기계공구"}]},{"lat":"37.336323701","long":"126.78566092","items":[{"name":"오케이청과","tel":"031-111-1111","addr":"경기도 안산시 단원구 신길동 1537번지 휴먼시아 405동 6층 601호","category":"음료식품 - 농·축·수산품"}]},{"lat":"37.337309131","long":"126.77310989","items":[{"name":"오케이플라워","tel":"031-495-0688","addr":"경기도 안산시 단원구 신길동 630-3","category":"문화.취미 - 화원"}]},{"lat":"37.335251608","long":"126.75371891","items":[{"name":"온누리꽃직매장","tel":"031-495-8873","addr":"경기도 안산시 단원구 신길동 255-1번지","category":"문화.취미 - 화원"},{"name":"현대플라워","tel":"031-494-9878","addr":"경기도 안산시 단원구 신길동 255-1","category":"문화.취미 - 화원"}]},{"lat":"37.327944002","long":"126.75786131","items":[{"name":"옹달샘꽃조경","tel":"031-401-5550","addr":"경기도 안산시 단원구 신길동 321-2","category":"문화.취미 - 화원"}]},{"lat":"37.335923607","long":"126.77416354","items":[{"name":"왕지게차매매상사","tel":"031-401-0008","addr":"경기도 안산시 단원구 신길동 661-2번지","category":"기타 - 기계공구"}]},{"lat":"37.3366967062","long":"126.7732471683","items":[{"name":"왕푸짐3.3","tel":"031-508-3395","addr":"경기도 안산시 단원구 신길동 655-1번지","category":"숙박 및 음식점업 - 한식"},{"name":"점핑하이","tel":"","addr":"경기도 안산시 단원구 신길동 655-1번지","category":"예술, 스포츠 및 여가관련 서비스업"}]},{"lat":"37.3314783626","long":"126.7868257829","items":[{"name":"요거프레소(신길지구점)","tel":"031-495-5515","addr":"경기도 안산시 단원구 신길동 1650번지","category":"숙박 및 음식점업 - 일반음식점"}]},{"lat":"37.331811444","long":"126.76327613","items":[{"name":"용신금속","tel":"031-485-0160","addr":"경기도 안산시 단원구 신길동 394-1번지","category":"건축자재 - 기타건축자재"}]},{"lat":"37.336919631","long":"126.77205036","items":[{"name":"용인대열정태권도장","tel":"031-508-3363","addr":"경기도 안산시 단원구 신길동 1446번지 안산신길온천역 휴먼빌@상가 2층","category":"학원 - 예·체능계학원"}]},{"lat":"37.332336359","long":"126.7879404","items":[{"name":"용팔이네","tel":"031-495-9822","addr":"경기도 안산시 단원구 신길동 1580번지","category":"일반휴게음식 - 일반한식"}]},{"lat":"37.3323363591","long":"126.7879404022","items":[{"name":"용팔이네","tel":"","addr":"경기도 안산시 단원구 신길동 1580번지","category":"숙박 및 음식점업 - 일반음식점"}]},{"lat":"37.332201002","long":"126.78782795","items":[{"name":"우수리마트","tel":"031-405-4404","addr":"경기도 안산시 단원구 신길동 1581번지 103호","category":"유통업 영리 - 슈퍼마켓"},{"name":"후레쉬마트","tel":"031-493-0360","addr":"경기도 안산시 단원구 신길동 1581번지 102호","category":"유통업 영리 - 슈퍼마켓"}]},{"lat":"37.3322010022","long":"126.7878279521","items":[{"name":"우수리마트","tel":"","addr":"경기도 안산시 단원구 신길동 1581번지","category":"도매 및 소매업 - 마트"}]},{"lat":"37.322199203","long":"126.75530765","items":[{"name":"울트라","tel":"02-1566-7399","addr":"경기도 안산시 단원구 신길동 1058-4번지","category":"주방용구 - 주방용식기"},{"name":"주식회사 현대프린팅","tel":"031-491-8754","addr":"경기도 안산시 단원구 신길동 1058-4 605 블럭5호","category":"서적문구 - 출판 및 인쇄물"}]},{"lat":"37.3327221306","long":"126.7870253269","items":[{"name":"웅자네 오돌뼈","tel":"031-499-9277","addr":"경기도 안산시 단원구 신길동 1655번지","category":"숙박 및 음식점업 - 한식"}]},{"lat":"37.3313898446","long":"126.7876948627","items":[{"name":"원두막","tel":"031-434-4887","addr":"경기도 안산시 단원구 신길동 1601번지","category":"숙박 및 음식점업 - 한식"}]},{"lat":"37.331389845","long":"126.78769486","items":[{"name":"원두막","tel":"031-434-4887","addr":"경기도 안산시 단원구 신길동 1601번지 1층","category":"일반휴게음식 - 일반한식"}]},{"lat":"37.335970766","long":"126.76161543","items":[{"name":"유천자동차공업사","tel":"031-493-6314","addr":"경기도 안산시 단원구 신길동 1423-5번지","category":"자동차정비 유지 - 카인테리어"}]},{"lat":"37.3359707662","long":"126.7616154305","items":[{"name":"유천자동차공업사","tel":"031-493-6314","addr":"경기도 안산시 단원구 신길동 1423-5번지","category":"협회 및 단체, 수리 및 기타 개인서"}]},{"lat":"37.331669548","long":"126.78790845","items":[{"name":"육회지존신길점","tel":"031-493-9040","addr":"경기도 안산시 단원구 신길동 1599번지 102호","category":"일반휴게음식 - 일반한식"},{"name":"태실내포차","tel":"031-494-9040","addr":"경기도 안산시 단원구 신길동 1599번지 1층","category":"일반휴게음식 - 주점"}]},{"lat":"37.324365311","long":"126.7846348","items":[{"name":"윤태정 볼링샵","tel":"031-494-0630","addr":"경기도 안산시 단원구 신길동 1228번지 지하 22호,23호,비3호","category":"레져용품 - 스포츠·레져용품"}]},{"lat":"37.335754225","long":"126.76146943","items":[{"name":"으뜸정보통신","tel":"031-415-9900","addr":"경기도 안산시 단원구 신길동 1426번지 101호","category":"용역 서비스 - 기타용역서비스"}]},{"lat":"37.337144513","long":"126.76280781","items":[{"name":"은초롱어린이집[아이행복]","tel":"031-493-9677","addr":"경기도 안산시 단원구 신길동 1401-15번지","category":"학원 - 유아원"}]},{"lat":"37.334117198","long":"126.78133427","items":[{"name":"이로카","tel":"02-790-2623","addr":"경기도 안산시 단원구 신길동 1724번지 102호","category":"신변잡화 - 기타잡화"}]},{"lat":"37.3356123134","long":"126.7762746047","items":[{"name":"이룸미디어","tel":"","addr":"경기도 안산시 단원구 신길동 1457번지","category":"도매 및 소매업 - 인쇄디자인,판촉,"}]},{"lat":"37.337588773","long":"126.75974833","items":[{"name":"이마트24 안산신길점","tel":"031-000-0000","addr":"경기도 안산시 단원구 신길동 1394번지","category":"유통업 영리 - 편 의 점"},{"name":"이마트24 안산신길점","tel":"031-494-1144","addr":"경기도 안산시 단원구 신길동 1394번지","category":"유통업 영리 - 편 의 점"}]},{"lat":"37.336804755","long":"126.76410659","items":[{"name":"인과나무","tel":"031-434-6354","addr":"경기도 안산시 단원구 신길동 1404-14번지","category":"문화.취미 - 민예·공예품"}]},{"lat":"37.3326430517","long":"126.7881313505","items":[{"name":"인생극장","tel":"031-492-7080","addr":"경기도 안산시 단원구 신길동 1578번지","category":"숙박 및 음식점업 - 한식"}]},{"lat":"37.332643052","long":"126.78813135","items":[{"name":"인생극장","tel":"031-492-7080","addr":"경기도 안산시 단원구 신길동 1578번지 1층","category":"일반휴게음식 - 일반한식"}]},{"lat":"37.335396026","long":"126.76255385","items":[{"name":"인치업매니아","tel":"031-505-8699","addr":"경기도 안산시 단원구 신길동 1422-5번지 1층상가","category":"자동차정비 유지 - 자동차시트·타이어"}]},{"lat":"37.3364222827","long":"126.7621104915","items":[{"name":"일미얼큰탕","tel":"031-494-9363","addr":"경기도 안산시 단원구 신길동 1401-9번지","category":"숙박 및 음식점업 - 한식"}]},{"lat":"37.3358899513","long":"126.7617510985","items":[{"name":"일품향","tel":"031-495-0851","addr":"경기도 안산시 단원구 신길동 1423-6번지","category":"숙박 및 음식점업 - 중화식"}]},{"lat":"37.331722048","long":"126.78705076","items":[{"name":"장군집","tel":"","addr":"경기도 안산시 단원구 신길동 1648번지 1층 일부(102호)","category":"일반휴게음식 - 일반한식"},{"name":"진화쿵부마라탕&마라샹궈안산신길점","tel":"","addr":"경기도 안산시 단원구 신길동 1648번지 1층 101호","category":"일반휴게음식 - 중국식"}]},{"lat":"37.3305885754","long":"126.7831386794","items":[{"name":"장미화원","tel":"","addr":"경기도 안산시 단원구 신길동 911-8번지","category":"도매 및 소매업 - 화원"}]},{"lat":"37.337799973","long":"126.77533143","items":[{"name":"장바구니유통","tel":"031-408-8484","addr":"경기도 안산시 단원구 신길동 1447번지 안산신길온천역 204동 1701호","category":"음료식품 - 농·축·수산품"}]},{"lat":"37.332779026","long":"126.77885579","items":[{"name":"장수촌","tel":"031-495-8666","addr":"경기도 안산시 단원구 신길동 783번지","category":"일반휴게음식 - 갈비전문점"}]},{"lat":"37.3327790259","long":"126.7788557906","items":[{"name":"장수촌","tel":"031-495-8666","addr":"경기도 안산시 단원구 신길동 783번지","category":"숙박 및 음식점업 - 전문한식,식육"}]},{"lat":"37.338861455","long":"126.78397221","items":[{"name":"장터소머리순대국밥","tel":"031-495-2027","addr":"경기도 안산시 단원구 신길동 3-9 1층","category":"일반휴게음식 - 일반한식"},{"name":"카페나루","tel":"070-7405-0531","addr":"경기도 안산시 단원구 신길동 3-9번지 102호","category":"일반휴게음식 - 서양음식"},{"name":"희망통신","tel":"031-495-6999","addr":"경기도 안산시 단원구 신길동 3-9번지 101호","category":"사무통신 - 통신기기"}]},{"lat":"37.331667904","long":"126.75916939","items":[{"name":"전국난원","tel":"031-494-1030","addr":"경기도 안산시 단원구 신길동 232","category":"문화.취미 - 화원"}]},{"lat":"37.33261477","long":"126.78744313","items":[{"name":"전라도회집","tel":"031-495-9294","addr":"경기도 안산시 단원구 신길동 1659번지 101호","category":"일반휴게음식 - 일식·회집"}]},{"lat":"37.3326147700","long":"126.7874431288","items":[{"name":"전라도횟집","tel":"031-495-9294","addr":"경기도 안산시 단원구 신길동 1659번지","category":"숙박 및 음식점업 - 횟집"}]},{"lat":"37.329614027","long":"126.76380213","items":[{"name":"제이제이부대찌개","tel":"031-508-5556","addr":"경기도 안산시 단원구 신길동 338-7번지 1층","category":"일반휴게음식 - 일반한식"}]},{"lat":"37.339284826","long":"126.78391456","items":[{"name":"제일농자재","tel":"","addr":"경기도 안산시 단원구 신길동 3-6번지","category":"농업 - 비료,사료,종자"}]},{"lat":"37.337193579","long":"126.76035896","items":[{"name":"제일철물건재","tel":"031-492-1017","addr":"경기도 안산시 단원구 신길동 1395번지","category":"건축자재 - 기타건축자재"}]},{"lat":"37.3321184522","long":"126.7870270541","items":[{"name":"조박사부대찌개","tel":"031-494-0041","addr":"경기도 안산시 단원구 신길동 1638번지","category":"숙박 및 음식점업 - 한식"}]},{"lat":"37.332118452","long":"126.78702705","items":[{"name":"조박사옥돌부대찌개","tel":"031-494-0041","addr":"경기도 안산시 단원구 신길동 1638번지 1층","category":"일반휴게음식 - 일반한식"}]},{"lat":"37.3369196313","long":"126.7720503557","items":[{"name":"조이아트미술교습소","tel":"070-8286-0592","addr":"경기도 안산시 단원구 신길동 1446번지 안산신길온천역휴먼빌아파트","category":"교육서비스업 - 미술학원"}]},{"lat":"37.330284635","long":"126.76571816","items":[{"name":"주식회사 동경","tel":"031-495-7781","addr":"경기도 안산시 단원구 신길동 447-1번지","category":"음료식품 - 미곡상"}]},{"lat":"37.32555521","long":"126.75302884","items":[{"name":"주식회사 리안물류","tel":"031-401-2294","addr":"경기도 안산시 단원구 신길동 1070번지","category":"용역 서비스 - 보관및 창고업"}]},{"lat":"37.335942815","long":"126.76116415","items":[{"name":"주식회사 미도","tel":"031-491-9359","addr":"경기도 안산시 단원구 신길동 1425번지","category":"건축자재 - 인테리어전문"}]},{"lat":"37.328833008","long":"126.76078074","items":[{"name":"주식회사 백두산업","tel":"031-493-8825","addr":"경기도 안산시 단원구 신길동 331-2번지","category":"건축자재 - 기타건축자재"}]},{"lat":"37.32064398","long":"126.75700503","items":[{"name":"주식회사 사조대림안산공장","tel":"051-254-7521","addr":"경기도 안산시 단원구 신길동 1060번지","category":"음료식품 - 농·축·수산품"},{"name":"주식회사사조대림안산공장","tel":"02-3470-6136","addr":"경기도 안산시 단원구 신길동 1060번지","category":"음료식품 - 농·축·수산품"}]},{"lat":"37.324143405","long":"126.76757649","items":[{"name":"주식회사 신광테크놀러지","tel":"031-499-1121","addr":"경기도 안산시 단원구 신길동 1051-3번지 (주)신광테크놀러지","category":"자동차정비 유지 - 자동차부품"}]},{"lat":"37.332976157","long":"126.77827974","items":[{"name":"주식회사 야구장농원","tel":"031-493-5293","addr":"경기도 안산시 단원구 신길동 776-3번지","category":"일반휴게음식 - 일반한식"}]},{"lat":"37.325557045","long":"126.75821882","items":[{"name":"주식회사 웰바스","tel":"031-492-5551","addr":"경기도 안산시 단원구 신길동 1054-4번지 B층 603동 111호","category":"기타 - 기계공구"}]},{"lat":"37.3342831772","long":"126.7559450336","items":[{"name":"주식회사 유일이엔티 안산 II","tel":"031-493-0790","addr":"경기도 안산시 단원구 신길동 249-21번지","category":"도매 및 소매업 - 전기용 기계장비,"}]},{"lat":"37.334283177","long":"126.75594503","items":[{"name":"주식회사 유일이엔티 안산 ll","tel":"031-493-0790","addr":"경기도 안산시 단원구 신길동 249-21번지","category":"자동차정비 유지 - 자동차부품"},{"name":"티플러스텍","tel":"031-493-0790","addr":"경기도 안산시 단원구 신길동 249-21번지","category":"자동차정비 유지 - 자동차시트·타이어"}]},{"lat":"37.33519849","long":"126.762893","items":[{"name":"주식회사 일조철강","tel":"031-495-2929","addr":"경기도 안산시 단원구 신길동 1421번지","category":"건축자재 - 목재·석재·철물"}]},{"lat":"37.321948061","long":"126.77847051","items":[{"name":"주식회사 허브그립","tel":"070-4900-9217","addr":"경기도 안산시 단원구 신길동 1123-1번지","category":"신변잡화 - 기타잡화"},{"name":"주식회사해동조구","tel":"031-501-8816","addr":"경기도 안산시 단원구 신길동 1123-1번지 풍산전기 D동 203호","category":"레져용품 - 스포츠·레져용품"}]},{"lat":"37.331139177","long":"126.7836674","items":[{"name":"주식회사 현성물류","tel":"031-494-8889","addr":"경기도 안산시 단원구 신길동 1702번지 2층","category":"신변잡화 - 기타잡화"},{"name":"한국유통","tel":"031-494-6811","addr":"경기도 안산시 단원구 신길동 1702번지","category":"음료식품 - 농·축·수산품"}]},{"lat":"37.338473288","long":"126.78357838","items":[{"name":"주식회사그린푸드락","tel":"031-501-0707","addr":"경기도 안산시 단원구 신길동 4-4번지 2층","category":"음료식품 - 기타음료식품"}]},{"lat":"37.337447686","long":"126.76124961","items":[{"name":"주식회사부건유통","tel":"031-493-0957","addr":"경기도 안산시 단원구 신길동 1386-4","category":"음료식품 - 기타음료식품"}]},{"lat":"37.3373674471","long":"126.7616673851","items":[{"name":"주전자속 얼음막걸리","tel":"031-508-0116","addr":"경기도 안산시 단원구 신길동 1385-3번지","category":"숙박 및 음식점업 - 한식"}]},{"lat":"37.337367447","long":"126.76166739","items":[{"name":"주전자속의얼음막걸리","tel":"031-508-0116","addr":"경기도 안산시 단원구 신길동 1385-3번지 1층","category":"일반휴게음식 - 서양음식"}]},{"lat":"37.331001444","long":"126.78716565","items":[{"name":"중국전통","tel":"031-494-1858","addr":"경기도 안산시 단원구 신길동 1610번지 201호","category":"보건위생 - 화장품"},{"name":"짱스넥","tel":"031-493-3943","addr":"경기도 안산시 단원구 신길동 1610번지 103호","category":"일반휴게음식 - 스넥"},{"name":"하남돼지집 안산신길점","tel":"031-493-3992","addr":"경기도 안산시 단원구 신길동 1610번지 1층","category":"일반휴게음식 - 일반한식"},{"name":"힐링노래연습장","tel":"031-438-5303","addr":"경기도 안산시 단원구 신길동 1610번지","category":"레저업소 - 노 래 방"}]},{"lat":"37.33220148","long":"126.7783836","items":[{"name":"지니펫","tel":"031-495-1178","addr":"경기도 안산시 단원구 신길동 956-1번지","category":"문화.취미 - 애완동물"}]},{"lat":"37.332478692","long":"126.78693575","items":[{"name":"지브릭","tel":"031-492-0486","addr":"경기도 안산시 단원구 신길동 1657번지 101호","category":"일반휴게음식 - 서양음식"}]},{"lat":"37.3324786925","long":"126.7869357545","items":[{"name":"지브릭","tel":"031-492-0486","addr":"경기도 안산시 단원구 신길동 1657번지","category":"숙박 및 음식점업 - 커피숍"}]},{"lat":"37.3348113471","long":"126.7543071301","items":[{"name":"지앤미플라워","tel":"031-493-5556","addr":"경기도 안산시 단원구 신길동 255번지","category":"농업, 임업 및 어업 - 생화"}]},{"lat":"37.334811347","long":"126.75430713","items":[{"name":"지앤미플라워","tel":"031-494-3500","addr":"경기도 안산시 단원구 신길동 255번지","category":"문화.취미 - 화원"}]},{"lat":"37.3369781919","long":"126.7607771710","items":[{"name":"진소정육점","tel":"031-494-1009","addr":"경기도 안산시 단원구 신길동 1395-3번지","category":"도매 및 소매업 - 정육,쌀"}]},{"lat":"37.331722768","long":"126.78744568","items":[{"name":"짱 실내포차","tel":"031-492-9869","addr":"경기도 안산시 단원구 신길동 1594번지 101호","category":"일반휴게음식 - 일반한식"}]},{"lat":"37.3369236581","long":"126.7788321978","items":[{"name":"쨍하고 회 뜰날","tel":"031-508-0780","addr":"경기도 안산시 단원구 신길동 727번지","category":"숙박 및 음식점업 - 일반음식"}]},{"lat":"37.3315880058","long":"126.7876604470","items":[{"name":"착한남자 한우곱창","tel":"031-494-7292","addr":"경기도 안산시 단원구 신길동 1607번지","category":"숙박 및 음식점업 - 한식"}]},{"lat":"37.331588006","long":"126.78766045","items":[{"name":"착한남자한우곱창","tel":"031-494-7292","addr":"경기도 안산시 단원구 신길동 1607번지 1층 101호","category":"일반휴게음식 - 일반한식"}]},{"lat":"37.3370543202","long":"126.7764733902","items":[{"name":"참건강약국","tel":"031-493-1550","addr":"경기도 안산시 단원구 신길동 710번지","category":"도매 및 소매업 - 양약"},{"name":"태권도장 SK","tel":"","addr":"경기도 안산시 단원구 신길동 710번지","category":"교육서비스업 - 태권도장"}]},{"lat":"37.335663373","long":"126.779434","items":[{"name":"참좋은기획","tel":"031-486-0560","addr":"경기도 안산시 단원구 신길동 1509번지 휴먼시아 210동 606호","category":"회원제형태 - 기타4"},{"name":"해뜨는창","tel":"","addr":"경기도 안산시 단원구 신길동 1509번지 휴먼시아 210동 306호","category":"직물 - 카페트,커튼,천막,지물"}]},{"lat":"37.3320011559","long":"126.7869371213","items":[{"name":"참치앤사케","tel":"031-494-0413","addr":"경기도 안산시 단원구 신길동 1639번지","category":"숙박 및 음식점업 - 한식점업"}]},{"lat":"37.332001156","long":"126.78693712","items":[{"name":"참치앤사케","tel":"031-494-0413","addr":"경기도 안산시 단원구 신길동 1639번지 1층","category":"일반휴게음식 - 일식·회집"}]},{"lat":"37.338363131","long":"126.75949758","items":[{"name":"창대식품","tel":"031-566-2476","addr":"경기도 안산시 단원구 신길동 1391-9번지 201호","category":"음료식품 - 농·축·수산품"}]},{"lat":"37.330172135","long":"126.78207926","items":[{"name":"청구목재합판상사","tel":"031-494-3006","addr":"경기도 안산시 단원구 신길동 920-6번지","category":"건축자재 - 건축용 요업제품"}]},{"lat":"37.332668625","long":"126.78733014","items":[{"name":"청년장어","tel":"031-498-4407","addr":"경기도 안산시 단원구 신길동 1658번지 101호","category":"일반휴게음식 - 일반한식"}]},{"lat":"37.335339921","long":"126.76154974","items":[{"name":"최쌤중국어","tel":"","addr":"경기도 안산시 단원구 신길동 1427-10번지 302호","category":"학원 - 기타 교육기관"}]},{"lat":"37.336251803","long":"126.77149947","items":[{"name":"최애곱창","tel":"031-493-2231","addr":"경기도 안산시 단원구 신길동 582-9번지 101호","category":"일반휴게음식 - 일반한식"},{"name":"홍희통닭","tel":"031-495-9393","addr":"경기도 안산시 단원구 신길동 582-9번지 101호","category":"일반휴게음식 - 스넥"}]},{"lat":"37.3362518032","long":"126.7714994744","items":[{"name":"최애곱창","tel":"031-493-2231","addr":"경기도 안산시 단원구 신길동 582-9번지","category":"숙박 및 음식점업 - 한식"},{"name":"홍희통닭","tel":"031-495-9393","addr":"경기도 안산시 단원구 신길동 582-9번지","category":"숙박 및 음식점업 - 치킨"}]},{"lat":"37.335337594","long":"126.75605442","items":[{"name":"추오정남원추어탕","tel":"031-491-0775","addr":"경기도 안산시 단원구 신길동 253-19번지 1층","category":"일반휴게음식 - 일반한식"}]},{"lat":"37.338057182","long":"126.7596904","items":[{"name":"춘희브리스","tel":"031-483-3060","addr":"경기도 안산시 단원구 신길동 1390-8번지 204호","category":"의류 - 내의판매"}]},{"lat":"37.331452053","long":"126.78722078","items":[{"name":"치어스(신길점)","tel":"031-494-7759","addr":"경기도 안산시 단원구 신길동 1596번지 101호","category":"일반휴게음식 - 서양음식"}]},{"lat":"37.3320008675","long":"126.7867791524","items":[{"name":"칭다오마라탕양꼬치","tel":"031-493-9671","addr":"경기도 안산시 단원구 신길동 1645번지","category":"숙박 및 음식점업 - 중화식"}]},{"lat":"37.332000868","long":"126.78677915","items":[{"name":"칭다오마라탕양꼬치","tel":"031-493-9671","addr":"경기도 안산시 단원구 신길동 1645번지","category":"일반휴게음식 - 중국식"}]},{"lat":"37.336529047","long":"126.76144438","items":[{"name":"카스광장","tel":"070-7848-4869","addr":"경기도 안산시 단원구 신길동 1396-1번지 홍원빌딩 1층","category":"일반휴게음식 - 주점"}]},{"lat":"37.3304783415","long":"126.7868850632","items":[{"name":"카페리빈","tel":"031-492-9977","addr":"경기도 안산시 단원구 신길동 1614번지","category":"숙박 및 음식점업 - 휴게음식"},{"name":"행복한밥상","tel":"","addr":"경기도 안산시 단원구 신길동 1614번지","category":"숙박 및 음식점업 - 한식"},{"name":"홍춘천 치즈닭갈비 신길1점","tel":"031-491-9293","addr":"경기도 안산시 단원구 신길동 1614번지","category":"숙박 및 음식점업 - 한식"}]},{"lat":"37.334572118","long":"126.78862235","items":[{"name":"커스트린 (Curstlin)","tel":"070-4063-0171","addr":"경기도 안산시 단원구 신길동 1574번지 휴먼시아 704동 803호","category":"의류 - 정장"}]},{"lat":"37.33697902","long":"126.77952038","items":[{"name":"커피마마 안산나무","tel":"031-499-2353","addr":"경기도 안산시 단원구 신길동 1484번지 1층","category":"일반휴게음식 - 서양음식"},{"name":"커피마마 안산나무","tel":"031-499-2353","addr":"경기도 안산시 단원구 신길동 1484번지 1층","category":"일반휴게음식 - 서양음식"}]},{"lat":"37.337977879","long":"126.78365881","items":[{"name":"케이디 (KD)창호샷시부속","tel":"031-493-3603","addr":"경기도 안산시 단원구 신길동 6-8번지","category":"용역 서비스 - 기타용역서비스"}]},{"lat":"37.328229537","long":"126.76532972","items":[{"name":"케이에스파렛트","tel":"031-498-2235","addr":"경기도 안산시 단원구 신길동 474-17번지","category":"건축자재 - 목재·석재·철물"}]},{"lat":"37.328561027","long":"126.76439218","items":[{"name":"케이에스팔렛트","tel":"031-498-2235","addr":"경기도 안산시 단원구 신길동 474-31번지","category":"건축자재 - 목재·석재·철물"}]},{"lat":"37.338222383","long":"126.76561422","items":[{"name":"코레일네트웍스(주)신길온천","tel":"02-3271-0715","addr":"경기도 안산시 단원구 신길동 216-2번지","category":"자동차정비 유지 - 주차장"}]},{"lat":"37.335088489","long":"126.76196806","items":[{"name":"코리아쇼파","tel":"031-498-5180","addr":"경기도 안산시 단원구 신길동 1428-3번지","category":"가구 - 일반가구"}]},{"lat":"37.3320017732","long":"126.7872756260","items":[{"name":"콩불 안산신길점","tel":"031-494-4136","addr":"경기도 안산시 단원구 신길동 1646번지","category":"숙박 및 음식점업 - 한식"}]},{"lat":"37.3315866901","long":"126.7869383076","items":[{"name":"쿠커피","tel":"031-493-3010","addr":"경기도 안산시 단원구 신길동 1649번지","category":"숙박 및 음식점업 - 커피숍"}]},{"lat":"37.33602838","long":"126.76336429","items":[{"name":"큐티걸","tel":"070-8808-4642","addr":"경기도 안산시 단원구 신길동 1398-6번지","category":"신변잡화 - 액세서리"}]},{"lat":"37.330444707","long":"126.78329706","items":[{"name":"타이어뱅크안산역점","tel":"031-508-0330","addr":"경기도 안산시 단원구 신길동 911-3번지","category":"자동차정비 유지 - 자동차시트·타이어"}]},{"lat":"37.335002346","long":"126.76392046","items":[{"name":"타이어테크 안산점","tel":"031-491-4903","addr":"경기도 안산시 단원구 신길동 1420-6번지","category":"자동차정비 유지 - 자동차시트·타이어"}]},{"lat":"37.334368202","long":"126.76669831","items":[{"name":"타이어프로 서안산점","tel":"031-493-8688","addr":"경기도 안산시 단원구 신길동 216-315번지","category":"자동차정비 유지 - 자동차시트·타이어"}]},{"lat":"37.337337278","long":"126.76013281","items":[{"name":"타임월드창호","tel":"031-495-5610","addr":"경기도 안산시 단원구 신길동 1394-3번지","category":"건축자재 - 보일러·펌프·샷시"}]},{"lat":"37.331666977","long":"126.78649802","items":[{"name":"탐나석기","tel":"031-495-8892","addr":"경기도 안산시 단원구 신길동 1643번지 1층","category":"일반휴게음식 - 일반한식"}]},{"lat":"37.322311452","long":"126.78004892","items":[{"name":"태원식품산업(주)","tel":"031-491-7912","addr":"경기도 안산시 단원구 신길동 1125-2번지","category":"음료식품 - 기타음료식품"}]},{"lat":"37.332416765","long":"126.75966345","items":[{"name":"태화컨테이너","tel":"031-495-1444","addr":"경기도 안산시 단원구 신길동 238","category":"건축자재 - 기타건축자재"}]},{"lat":"37.337060482","long":"126.76136369","items":[{"name":"통큰푸드(신길정왕점)","tel":"031-495-0739","addr":"경기도 안산시 단원구 신길동 1385-6번지 1층","category":"일반휴게음식 - 일반한식"}]},{"lat":"37.335530719","long":"126.76232773","items":[{"name":"펫조이","tel":"070-4300-7545","addr":"경기도 안산시 단원구 신길동 1422-3번지","category":"문화.취미 - 애완동물"}]},{"lat":"37.338668845","long":"126.77268822","items":[{"name":"푸르네농장","tel":"031-111-1111","addr":"경기도 안산시 단원구 신길동 176번지","category":"음료식품 - 농·축·수산품"}]},{"lat":"37.326117743","long":"126.76813447","items":[{"name":"풍원화학(주)/원격지","tel":"031-493-0600","addr":"경기도 안산시 단원구 신길동 1049-5번지","category":"기타 - 기타 전문점"}]},{"lat":"37.338645108","long":"126.78391641","items":[{"name":"프라임교역","tel":"031-493-4155","addr":"경기도 안산시 단원구 신길동 3-10번지","category":"사무통신 - 컴퓨터"}]},{"lat":"37.3361698391","long":"126.7620323080","items":[{"name":"플러스마트","tel":"031-491-0530","addr":"경기도 안산시 단원구 신길동 1396-6번지","category":"도매 및 소매업 - 슈퍼"}]},{"lat":"37.3365902462","long":"126.7741050941","items":[{"name":"피자마루","tel":"031-492-1088","addr":"경기도 안산시 단원구 신길동 657번지","category":"숙박 및 음식점업 - 피자"}]},{"lat":"37.338365787","long":"126.78883727","items":[{"name":"하나공부방","tel":"031-413-5617","addr":"경기도 안산시 단원구 신길동 1561번지 휴먼시아 502동 106호","category":"회원제형태 - 학원"}]},{"lat":"37.337673331","long":"126.77980043","items":[{"name":"하나냉장","tel":"031-431-7153","addr":"경기도 안산시 단원구 신길동 47-1번지 A동","category":"주방용구 - 주방용구"}]},{"lat":"37.3375322904","long":"126.7629758451","items":[{"name":"하나로마트","tel":"031-508-3984","addr":"경기도 안산시 단원구 신길동 1404-23번지","category":"도매 및 소매업 - 슈퍼마켓"}]},{"lat":"37.33753229","long":"126.76297585","items":[{"name":"하나로슈퍼","tel":"031-508-3984","addr":"경기도 안산시 단원구 신길동 1404-23번지","category":"유통업 영리 - 슈퍼마켓"}]},{"lat":"37.328339318","long":"126.76169625","items":[{"name":"하나로카프라자","tel":"031-494-7274","addr":"경기도 안산시 단원구 신길동 332-22번지","category":"자동차정비 유지 - 자동차정비"},{"name":"하나모터스","tel":"031-494-7274","addr":"경기도 안산시 단원구 신길동 332-22번지","category":"자동차정비 유지 - 자동차시트·타이어"}]},{"lat":"37.3366363546","long":"126.7891242801","items":[{"name":"하을토건","tel":"","addr":"경기도 안산시 단원구 신길동 1563번지 휴먼시아","category":"건설업 - 건설기계임대"},{"name":"하을토건","tel":"","addr":"경기도 안산시 단원구 신길동 1563번지 휴먼시아","category":"건설업 - 건설기계임대"}]},{"lat":"37.324336025","long":"126.77861008","items":[{"name":"하주구내식당","tel":"031-493-0405","addr":"경기도 안산시 단원구 신길동 1122-5번지","category":"일반휴게음식 - 위탁급식업"}]},{"lat":"37.32458795","long":"126.75153148","items":[{"name":"한&올테크","tel":"031-492-2491","addr":"경기도 안산시 단원구 신길동 1070-4번지 반월공단 702블럭5롯트","category":"전기제품 - 가전제품"}]},{"lat":"37.335420715","long":"126.76585999","items":[{"name":"한국토탈이엔지","tel":"031-508-0482","addr":"경기도 안산시 단원구 신길동 1417-15번지 102호","category":"건축자재 - 인테리어전문"},{"name":"현우중기센타","tel":"031-494-0008","addr":"경기도 안산시 단원구 신길동 1417-15번지","category":"자동차정비 유지 - 자동차부품"}]},{"lat":"37.336610875","long":"126.76180522","items":[{"name":"한돈모듬구이","tel":"031-493-5333","addr":"경기도 안산시 단원구 신길동 1402-9번지 1층","category":"일반휴게음식 - 일반한식"}]},{"lat":"37.336456987","long":"126.78958744","items":[{"name":"한라종합상사","tel":"031-418-5759","addr":"경기도 안산시 단원구 신길동 1563번지 휴먼시아 607동 103호","category":"전기제품 - 기타전기제품"}]},{"lat":"37.335700394","long":"126.76158244","items":[{"name":"한마음마트","tel":"031-495-0341","addr":"경기도 안산시 단원구 신길동 1426-1,102번지","category":"유통업 영리 - 슈퍼마켓"}]},{"lat":"37.3357003940","long":"126.7615824430","items":[{"name":"한마음마트","tel":"031-495-0341","addr":"경기도 안산시 단원구 신길동 1426-1번지","category":"도매 및 소매업 - 식잡"}]},{"lat":"37.339503765","long":"126.78052852","items":[{"name":"한맛가든","tel":"","addr":"경기도 안산시 단원구 신길동 55-1번지 1층","category":"일반휴게음식 - 일반한식"}]},{"lat":"37.3353062","long":"126.76268954","items":[{"name":"한방족발","tel":"031-494-4497","addr":"경기도 안산시 단원구 신길동 1422-6번지 1층","category":"일반휴게음식 - 일반한식"}]},{"lat":"37.325286022","long":"126.77594458","items":[{"name":"한성기계공업(주)","tel":"031-491-3111","addr":"경기도 안산시 단원구 신길동 1121-1번지","category":"기타 - 기계공구"}]},{"lat":"37.324758087","long":"126.77786418","items":[{"name":"한신기계공업(주)","tel":"031-493-8855","addr":"경기도 안산시 단원구 신길동 1122-6번지","category":"기타 - 기계공구"}]},{"lat":"37.333082213","long":"126.76344135","items":[{"name":"한신산업","tel":"031-492-0695","addr":"경기도 안산시 단원구 신길동 405번지","category":"건축자재 - 기타건축자재"}]},{"lat":"37.337974793","long":"126.782","items":[{"name":"한우리","tel":"031-492-4689","addr":"경기도 안산시 단원구 신길동 37-2번지 1층","category":"일반휴게음식 - 일반한식"},{"name":"한우리농장","tel":"031-492-4689","addr":"경기도 안산시 단원구 신길동 37-2번지 1층","category":"일반휴게음식 - 일반한식"}]},{"lat":"37.336359593","long":"126.77132988","items":[{"name":"한우신꽃소","tel":"031-495-6255","addr":"경기도 안산시 단원구 신길동 582-7번지 1층","category":"일반휴게음식 - 일반한식"}]},{"lat":"37.332535133","long":"126.77852929","items":[{"name":"해피다육카페","tel":"","addr":"경기도 안산시 단원구 신길동 773번지","category":"문화.취미 - 화원"}]},{"lat":"37.3321949886","long":"126.7797150767","items":[{"name":"행복을 파는 꽃집","tel":"031-508-5249","addr":"경기도 안산시 단원구 신길동 951번지","category":"도매 및 소매업 - 생화"}]},{"lat":"37.332194989","long":"126.77971508","items":[{"name":"행복을파는꽃집","tel":"031-508-5249","addr":"경기도 안산시 단원구 신길동 951","category":"문화.취미 - 화원"}]},{"lat":"37.331254528","long":"126.78760498","items":[{"name":"행복한유황오리쌈밥","tel":"031-495-5292","addr":"경기도 안산시 단원구 신길동 1602번지 1층","category":"일반휴게음식 - 일반한식"}]},{"lat":"37.3312545285","long":"126.7876049811","items":[{"name":"행복한유황오리쌈밥","tel":"031-495-5292","addr":"경기도 안산시 단원구 신길동 1602번지","category":"숙박 및 음식점업 - 한식점업"}]},{"lat":"37.338887858","long":"126.78363359","items":[{"name":"행운식당","tel":"031-508-3989","addr":"경기도 안산시 단원구 신길동 3-5번지 1층","category":"일반휴게음식 - 일반한식"}]},{"lat":"37.3315874102","long":"126.7873332276","items":[{"name":"헤어존","tel":"031-494-9408","addr":"경기도 안산시 단원구 신길동 1595번지","category":"협회 및 단체, 수리 및 기타 개인서"}]},{"lat":"37.335972283","long":"126.76236018","items":[{"name":"헤어코코(hair coco)","tel":"031-494-5809","addr":"경기도 안산시 단원구 신길동 1397-1번지","category":"보건위생 - 미용원"}]},{"lat":"37.3317233629","long":"126.7877728960","items":[{"name":"화로싸나이(안산신길점)","tel":"031-508-5592","addr":"경기도 안산시 단원구 신길동 1598번지","category":"숙박 및 음식점업 - 일반음식점"}]},{"lat":"37.331723363","long":"126.7877729","items":[{"name":"화로싸나이(안산신길점)","tel":"031-508-5592","addr":"경기도 안산시 단원구 신길동 1598번지 101호","category":"일반휴게음식 - 일반한식"}]},{"lat":"37.332227335","long":"126.78744424","items":[{"name":"화통삼(신길점)","tel":"031-494-7720","addr":"경기도 안산시 단원구 신길동 1668번지 1층","category":"일반휴게음식 - 일반한식"}]},{"lat":"37.3325077564","long":"126.7880527502","items":[{"name":"황가네김밥","tel":"031-495-5353","addr":"경기도 안산시 단원구 신길동 1579번지","category":"숙박 및 음식점업 - 기타음식"}]},{"lat":"37.339284199","long":"126.78357602","items":[{"name":"황궁","tel":"031-435-0639","addr":"경기도 안산시 단원구 신길동 3-13번지 1층","category":"일반휴게음식 - 중국식"}]},{"lat":"37.335083209","long":"126.76380737","items":[{"name":"황실가구","tel":"031-494-9991","addr":"경기도 안산시 단원구 신길동 1420-5번지 1층 101호","category":"가구 - 일반가구"}]},{"lat":"37.332335661","long":"126.78755676","items":[{"name":"횡성생고기","tel":"031-492-9289","addr":"경기도 안산시 단원구 신길동 1667번지 1층 101호","category":"일반휴게음식 - 일반한식"}]},{"lat":"37.3324523823","long":"126.7873307564","items":[{"name":"횡성생고기","tel":"031-492-9289","addr":"경기도 안산시 단원구 신길동 1660번지","category":"숙박 및 음식점업 - 한식점업"}]},{"lat":"37.332452382","long":"126.78733076","items":[{"name":"횡성생고기","tel":"031-492-9289","addr":"경기도 안산시 단원구 신길동 1660번지 1층","category":"일반휴게음식 - 일반한식"}]},{"lat":"37.3328941866","long":"126.7874987493","items":[{"name":"훈장골","tel":"031-493-2577","addr":"경기도 안산시 단원구 신길동 1654번지","category":"숙박 및 음식점업 - 한식"}]},{"lat":"37.335970502","long":"126.78962267","items":[{"name":"휴먼시아어린이집[아이행복]","tel":"031-508-1341","addr":"경기도 안산시 단원구 신길동 1563번지 휴먼시아 608동 101호","category":"학원 - 유아원"}]},{"lat":"37.319674027","long":"126.75419905","items":[{"name":"휴먼텍(주)","tel":"031-434-6223","addr":"경기도 안산시 단원구 신길동 1061-4번지","category":"서적문구 - 과학기자재"}]},{"lat":"37.3310014435","long":"126.7871656506","items":[{"name":"힐링노래연습장","tel":"031-438-5303","addr":"경기도 안산시 단원구 신길동 1610번지","category":"예술, 스포츠 및 여가관련 서비스업"}]}]