[{"lat":"37.218827318","long":"127.1197739","items":[{"name":"(유)이크리너스","tel":"031-377-2537","addr":"경기도 화성시 중동 41번지","category":"수리서비스 - 세탁소"},{"name":"대디크린/유한회사 이크리너스","tel":"031-377-2537","addr":"경기도 화성시 중동 41번지","category":"수리서비스 - 세탁소"},{"name":"유한회사 이크리너스","tel":"031-377-2537","addr":"경기도 화성시 중동 41번지","category":"수리서비스 - 세탁소"},{"name":"유한회사 이크리너스","tel":"031-377-2537","addr":"경기도 화성시 중동 41번지","category":"수리서비스 - 세탁소"},{"name":"유한회사 이크리너스","tel":"031-377-2537","addr":"경기도 화성시 중동 41번지","category":"수리서비스 - 세탁소"},{"name":"유한회사 이크리너스","tel":"031-377-2537","addr":"경기도 화성시 중동 41번지","category":"수리서비스 - 세탁소"},{"name":"유한회사 이크리너스","tel":"031-377-2537","addr":"경기도 화성시 중동 41번지","category":"수리서비스 - 세탁소"},{"name":"유한회사 이크리너스2","tel":"031-377-2537","addr":"경기도 화성시 중동 41번지","category":"수리서비스 - 세탁소"}]},{"lat":"37.205219897","long":"127.13835087","items":[{"name":"감골오리(동탄점)","tel":"031-377-5289","addr":"경기도 화성시 중동 213","category":"일반휴게음식 - 일반한식"}]},{"lat":"37.218246239","long":"127.12416698","items":[{"name":"고매골","tel":"031-285-8915","addr":"경기도 화성시 중동 67-1번지 1층","category":"일반휴게음식 - 일반한식"}]},{"lat":"37.20427262","long":"127.13938551","items":[{"name":"곤드레향기","tel":"031-375-9555","addr":"경기도 화성시 중동 162-1번지","category":"일반휴게음식 - 일반한식"},{"name":"다담농산물","tel":"031-375-9555","addr":"경기도 화성시 중동 162-1번지 1층","category":"음료식품 - 농·축·수산품"}]},{"lat":"37.203695606","long":"127.13968861","items":[{"name":"관악장","tel":"031-353-6847","addr":"경기도 화성시 중동 244번지 1층","category":"일반휴게음식 - 일반한식"}]},{"lat":"37.203499073","long":"127.13007972","items":[{"name":"그늘집","tel":"031-378-3877","addr":"경기도 화성시 중동 371 1층2호","category":"음료식품 - 기타음료식품"}]},{"lat":"37.20355242","long":"127.13074441","items":[{"name":"꾸메뜨락그집참숯민물장어","tel":"031-378-8896","addr":"경기도 화성시 중동 371-1번지 1층","category":"일반휴게음식 - 일반한식"},{"name":"씨엔지개발(주)","tel":"031-378-4074","addr":"경기도 화성시 중동 371-1번지","category":"레져용품 - 스포츠·레져용품"}]},{"lat":"37.203974445","long":"127.1401059","items":[{"name":"남사골","tel":"031-375-2633","addr":"경기도 화성시 중동 249-4번지","category":"일반휴게음식 - 일반한식"},{"name":"벌떡장어","tel":"031-8015-4423","addr":"경기도 화성시 중동 249-4번지 101호","category":"일반휴게음식 - 일반한식"},{"name":"카페202","tel":"031-373-1202","addr":"경기도 화성시 중동 249-4번지 202호","category":"일반휴게음식 - 서양음식"}]},{"lat":"37.204110057","long":"127.13971189","items":[{"name":"단풍한정식","tel":"031-8003-4707","addr":"경기도 화성시 중동 249-2번지 201호","category":"일반휴게음식 - 일반한식"},{"name":"중리장수촌","tel":"031-353-4939","addr":"경기도 화성시 중동 249-2번지 1층 101호","category":"일반휴게음식 - 일반한식"}]},{"lat":"37.209521979","long":"127.14999561","items":[{"name":"대한불교조계종만의사","tel":"031-376-6005","addr":"경기도 화성시 중동 140","category":"보건위생 - 기타대인서비스"},{"name":"대한불교조계종만의사","tel":"031-376-6005","addr":"경기도 화성시 중동 140","category":"보건위생 - 기타대인서비스"}]},{"lat":"37.218998958","long":"127.11932349","items":[{"name":"독썸플래이스","tel":"01-7457-5730","addr":"경기도 화성시 중동 37번지 C동 1층","category":"일반휴게음식 - 일반한식"}]},{"lat":"37.202606417","long":"127.13066396","items":[{"name":"메밀래 동탄점","tel":"031-373-4217","addr":"경기도 화성시 중동 366번지 1층","category":"일반휴게음식 - 일반한식"}]},{"lat":"37.205022299","long":"127.13779855","items":[{"name":"무봉산장","tel":"031-375-3934","addr":"경기도 화성시 중동 231번지 1층 전체호","category":"일반휴게음식 - 일반한식"}]},{"lat":"37.206579984","long":"127.1387701","items":[{"name":"석정","tel":"031-376-4316","addr":"경기도 화성시 중동 192-2번지","category":"일반휴게음식 - 일반한식"}]},{"lat":"37.201331111","long":"127.13507734","items":[{"name":"수향한정식","tel":"031-374-5130","addr":"경기도 화성시 중동 339번지 1동 1층","category":"일반휴게음식 - 일반한식"}]},{"lat":"37.196665736","long":"127.13326706","items":[{"name":"아론더기버헬프(TGH)","tel":"070-7514-3494","addr":"경기도 화성시 중동 산170번지 주차장2층","category":"자동차정비 유지 - 세차장"}]},{"lat":"37.202748871","long":"127.13224121","items":[{"name":"아이비상","tel":"031-376-8303","addr":"경기도 화성시 중동 326","category":"회원제형태 - 서적"}]},{"lat":"37.202640414","long":"127.13254516","items":[{"name":"에스티티솔루션","tel":"031-375-5891","addr":"경기도 화성시 중동 326-2","category":"전기제품 - 기타전기제품"}]},{"lat":"37.203551765","long":"127.13940674","items":[{"name":"영산포","tel":"031-375-0344","addr":"경기도 화성시 중동 242-2번지 1층","category":"일반휴게음식 - 일반한식"}]},{"lat":"37.204553889","long":"127.13768507","items":[{"name":"중리저수지가든","tel":"031-376-6309","addr":"경기도 화성시 중동 234-3번지 1층","category":"일반휴게음식 - 일반한식"}]},{"lat":"37.203389644","long":"127.13935013","items":[{"name":"털보회관","tel":"031-376-2479","addr":"경기도 화성시 중동 243","category":"일반휴게음식 - 일반한식"}]},{"lat":"37.205802776","long":"127.14077383","items":[{"name":"토종시골집","tel":"031-376-6269","addr":"경기도 화성시 중동 167","category":"일반휴게음식 - 일반한식"}]},{"lat":"37.204723333","long":"127.13921736","items":[{"name":"화성시니어클럽 노노카페 (중리무봉산점)","tel":"031-8059-4349","addr":"경기도 화성시 중동 164","category":"일반휴게음식 - 서양음식"}]},{"lat":"37.201637902","long":"127.13468363","items":[{"name":"황소고집","tel":"031-376-4803","addr":"경기도 화성시 중동 338-1","category":"일반휴게음식 - 일반한식"}]}]