[{"lat":"37.069128693","long":"127.44210273","imageIndex":17,"items":[{"name":"(주)안성테라죠","tel":"031-675-9909","addr":"경기도 안성시 죽산면 용설리 743-4번지","indutype":"건축자재 - 기타건축자재","category":"other"}]},{"lat":"37.056657949","long":"127.45177816","imageIndex":17,"items":[{"name":"극단 서라벌","tel":"","addr":"경기도 안성시 죽산면 용설리 산12번지","indutype":"문화.취미 - 티켓","category":"other"}]},{"lat":"37.042302919","long":"127.43264105","imageIndex":17,"items":[{"name":"도피안사","tel":"031-676-8700","addr":"경기도 안성시 죽산면 용설리 1178-1","indutype":"회원제형태 - 기타4","category":"other"},{"name":"도피안사","tel":"02-419-8704","addr":"경기도 안성시 죽산면 용설리 1178-1","indutype":"회원제형태 - 서적","category":"other"}]},{"lat":"37.050161923","long":"127.44199342","imageIndex":17,"items":[{"name":"용설호수 편의점","tel":"031-676-6665","addr":"경기도 안성시 죽산면 용설리 940-8","indutype":"유통업 영리 - 편 의 점","category":"other"}]},{"lat":"37.053134589","long":"127.43977337","imageIndex":17,"items":[{"name":"한사랑너싱홈","tel":"031-675-0911","addr":"경기도 안성시 죽산면 용설리 899번지","indutype":"기타의료기관 - 기타의료기관 및 기타","category":"other"}]}]