[{"lat":"37.759835995","long":"127.0413411","imageIndex":4,"items":[{"name":"(주)이오팔공","tel":"070-8748-0000","addr":"경기도 의정부시 녹양동 412-7번지 키움프라자 203호","indutype":"일반휴게음식 - 일반한식","category":"restaurant"},{"name":"김밥나라","tel":"031-0000-0000","addr":"경기도 의정부시 녹양동 412-7번지 키움프라자 103호","indutype":"일반휴게음식 - 스넥","category":"restaurant"},{"name":"링팡도너츠(녹양역점)","tel":"031-837-2351","addr":"경기도 의정부시 녹양동 412-7번지 키움프라자 101호","indutype":"일반휴게음식 - 스넥","category":"restaurant"},{"name":"봄봄커피","tel":"031-7620-5336","addr":"경기도 의정부시 녹양동 412-7번지 키움프라자 101호","indutype":"일반휴게음식 - 서양음식","category":"restaurant"},{"name":"치킨밸리","tel":"031-872-7782","addr":"경기도 의정부시 녹양동 412-7번지 키움프라자 104호","indutype":"일반휴게음식 - 스넥","category":"restaurant"}]},{"lat":"37.757872719","long":"127.03879814","imageIndex":4,"items":[{"name":"1박2일","tel":"031-829-7859","addr":"경기도 의정부시 녹양동 330-5번지","indutype":"일반휴게음식 - 주점","category":"restaurant"},{"name":"골목길","tel":"031-829-0525","addr":"경기도 의정부시 녹양동 330-5번지 1층","indutype":"일반휴게음식 - 일반한식","category":"restaurant"}]},{"lat":"37.756513566","long":"127.03429244","imageIndex":4,"items":[{"name":"60계 녹양가능점","tel":"031-876-8388","addr":"경기도 의정부시 녹양동 347-6번지 1층","indutype":"일반휴게음식 - 스넥","category":"restaurant"},{"name":"좋은친구들","tel":"031-829-3323","addr":"경기도 의정부시 녹양동 347-6번지","indutype":"일반휴게음식 - 주점","category":"restaurant"}]},{"lat":"37.763760376","long":"127.01852062","imageIndex":4,"items":[{"name":"Cafe 여로","tel":"","addr":"경기도 의정부시 녹양동 231-31번지 1층 지상1층","indutype":"일반휴게음식 - 갈비전문점","category":"restaurant"}]},{"lat":"37.759234858","long":"127.03270485","imageIndex":4,"items":[{"name":"가장맛있는족발 (녹양점)","tel":"031-877-5849","addr":"경기도 의정부시 녹양동 381-10번지 1층","indutype":"일반휴게음식 - 일반한식","category":"restaurant"}]},{"lat":"37.760124282","long":"127.04139799","imageIndex":4,"items":[{"name":"가츠야 우동","tel":"031-871-5547","addr":"경기도 의정부시 녹양동 412-10번지 센츄럴프라자 106호","indutype":"일반휴게음식 - 스넥","category":"restaurant"},{"name":"나들목전집","tel":"031-829-9878","addr":"경기도 의정부시 녹양동 412-10번지 센츄럴프라자 1층 101호","indutype":"일반휴게음식 - 일반한식","category":"restaurant"},{"name":"커피215","tel":"031-551-1765","addr":"경기도 의정부시 녹양동 412-10번지 센츄럴프라자 102호","indutype":"일반휴게음식 - 서양음식","category":"restaurant"}]},{"lat":"37.758368932","long":"127.03646069","imageIndex":4,"items":[{"name":"감탄(녹양점)","tel":"031-836-5889","addr":"경기도 의정부시 녹양동 83-55번지","indutype":"일반휴게음식 - 스넥","category":"restaurant"},{"name":"본죽(녹양점)","tel":"031-855-0307","addr":"경기도 의정부시 녹양동 83-55번지 1층 일부","indutype":"일반휴게음식 - 일반한식","category":"restaurant"}]},{"lat":"37.765764863","long":"127.03946021","imageIndex":4,"items":[{"name":"강남","tel":"031-829-2577","addr":"경기도 의정부시 녹양동 37-7번지 1층","indutype":"일반휴게음식 - 일반한식","category":"restaurant"}]},{"lat":"37.756432309","long":"127.03492788","imageIndex":4,"items":[{"name":"강원식당","tel":"031-855-5796","addr":"경기도 의정부시 녹양동 345-5번지 1층","indutype":"일반휴게음식 - 일반한식","category":"restaurant"},{"name":"바다양푼이동태탕","tel":"031-855-9393","addr":"경기도 의정부시 녹양동 345-5번지 1층","indutype":"일반휴게음식 - 일반한식","category":"restaurant"}]},{"lat":"37.760036181","long":"127.03471381","imageIndex":4,"items":[{"name":"경기부페","tel":"031-829-6680","addr":"경기도 의정부시 녹양동 378-3번지","indutype":"일반휴게음식 - 일반한식","category":"restaurant"}]},{"lat":"37.757847115","long":"127.033771","imageIndex":4,"items":[{"name":"경동포차1978","tel":"","addr":"경기도 의정부시 녹양동 154-17번지","indutype":"일반휴게음식 - 일반한식","category":"restaurant"},{"name":"김밥타운","tel":"031-829-6381","addr":"경기도 의정부시 녹양동 154-17번지","indutype":"일반휴게음식 - 일반한식","category":"restaurant"},{"name":"난전","tel":"031-872-2636","addr":"경기도 의정부시 녹양동 154-17번지 105,106호","indutype":"일반휴게음식 - 일반한식","category":"restaurant"}]},{"lat":"37.7581522","long":"127.03818549","imageIndex":4,"items":[{"name":"고포영양탕","tel":"031-829-8808","addr":"경기도 의정부시 녹양동 327-1번지","indutype":"일반휴게음식 - 일반한식","category":"restaurant"},{"name":"치킨플러스 의정부녹양점","tel":"031-837-7060","addr":"경기도 의정부시 녹양동 327-1번지 1층 지상 1층","indutype":"일반휴게음식 - 주점","category":"restaurant"}]},{"lat":"37.761540787","long":"127.03465771","imageIndex":4,"items":[{"name":"광릉불고기","tel":"031-875-0809","addr":"경기도 의정부시 녹양동 400-22외1필지101호~103호","indutype":"일반휴게음식 - 일반한식","category":"restaurant"},{"name":"라비에벨","tel":"","addr":"경기도 의정부시 녹양동 400-22번지 휴먼프라자 1층 106호","indutype":"일반휴게음식 - 서양음식","category":"restaurant"}]},{"lat":"37.758098391","long":"127.03734571","imageIndex":4,"items":[{"name":"굽네치킨","tel":"031-829-9244","addr":"경기도 의정부시 녹양동 326-2번지 1층","indutype":"일반휴게음식 - 주점","category":"restaurant"}]},{"lat":"37.757071383","long":"127.03707289","imageIndex":4,"items":[{"name":"기운내","tel":"031-871-1144","addr":"경기도 의정부시 녹양동 341-4번지","indutype":"일반휴게음식 - 일반한식","category":"restaurant"}]},{"lat":"37.76026195","long":"127.03268256","imageIndex":4,"items":[{"name":"김밥애","tel":"070-4641-1629","addr":"경기도 의정부시 녹양동 375-4번지 1층","indutype":"일반휴게음식 - 스넥","category":"restaurant"}]},{"lat":"37.756125975","long":"127.03496179","imageIndex":4,"items":[{"name":"까망김하얀밥","tel":"031-844-9000","addr":"경기도 의정부시 녹양동 344-3번지 지하1층","indutype":"일반휴게음식 - 일반한식","category":"restaurant"}]},{"lat":"37.758098437","long":"127.03718684","imageIndex":4,"items":[{"name":"꿈의 김밥","tel":"031-878-3336","addr":"경기도 의정부시 녹양동 326-1번지 1층","indutype":"일반휴게음식 - 스넥","category":"restaurant"},{"name":"부자순대국","tel":"031-877-7497","addr":"경기도 의정부시 녹양동 326-1번지","indutype":"일반휴게음식 - 일반한식","category":"restaurant"}]},{"lat":"37.761316327","long":"127.03162758","imageIndex":4,"items":[{"name":"나능이백숙","tel":"031-878-4026","addr":"경기도 의정부시 녹양동 62-42번지 1층","indutype":"일반휴게음식 - 일반한식","category":"restaurant"}]},{"lat":"37.75792783","long":"127.03515548","imageIndex":4,"items":[{"name":"나뚜루팝 녹양점","tel":"031-855-6133","addr":"경기도 의정부시 녹양동 85-7번지 1층","indutype":"일반휴게음식 - 일반한식","category":"restaurant"}]},{"lat":"37.758901482","long":"127.0327955","imageIndex":4,"items":[{"name":"내가사케","tel":"031-855-4737","addr":"경기도 의정부시 녹양동 388-1번지 원민빌딩 1층","indutype":"일반휴게음식 - 일반한식","category":"restaurant"}]},{"lat":"37.75785641","long":"127.0326589","imageIndex":4,"items":[{"name":"노가리삼촌","tel":"070-7013-8875","addr":"경기도 의정부시 녹양동 154-6번지 2동 1층","indutype":"일반휴게음식 - 일반한식","category":"restaurant"}]},{"lat":"37.757675898","long":"127.0339071","imageIndex":4,"items":[{"name":"뉴욕핫도그 앤 커피","tel":"031-877-5945","addr":"경기도 의정부시 녹양동 142-5번지 1층 죄측","indutype":"일반휴게음식 - 서양음식","category":"restaurant"}]},{"lat":"37.757820231","long":"127.03321494","imageIndex":4,"items":[{"name":"니커피즈","tel":"031-829-3757","addr":"경기도 의정부시 녹양동 154-42번지 인창빌딩 1층","indutype":"일반휴게음식 - 서양음식","category":"restaurant"},{"name":"더 (The)청춘곱창","tel":"031-111-1111","addr":"경기도 의정부시 녹양동 154-42번지 인창빌딩 1층","indutype":"일반휴게음식 - 일반한식","category":"restaurant"},{"name":"오시리해장국","tel":"031-855-5722","addr":"경기도 의정부시 녹양동 154-42번지 인창빌딩 1층","indutype":"일반휴게음식 - 일반한식","category":"restaurant"},{"name":"우거지품은 순대국 녹양점","tel":"031-876-3820","addr":"경기도 의정부시 녹양동 154-42번지 인창빌딩 105,106호","indutype":"일반휴게음식 - 일반한식","category":"restaurant"}]},{"lat":"37.758124885","long":"127.03912736","imageIndex":4,"items":[{"name":"다윗","tel":"031-829-3341","addr":"경기도 의정부시 녹양동 328번지 1층","indutype":"일반휴게음식 - 일반한식","category":"restaurant"},{"name":"써니","tel":"031-111-1111","addr":"경기도 의정부시 녹양동 328번지 2층","indutype":"일반휴게음식 - 일반한식","category":"restaurant"},{"name":"쿡앤호프","tel":"031-829-9479","addr":"경기도 의정부시 녹양동 328번지 2층","indutype":"일반휴게음식 - 주점","category":"restaurant"},{"name":"화인부대찌개","tel":"031-878-8255","addr":"경기도 의정부시 녹양동 328번지 화인빌딩","indutype":"일반휴게음식 - 일반한식","category":"restaurant"}]},{"lat":"37.759568059","long":"127.03329509","imageIndex":4,"items":[{"name":"달달구리","tel":"031-000-0000","addr":"경기도 의정부시 녹양동 379-10번지","indutype":"일반휴게음식 - 서양음식","category":"restaurant"}]},{"lat":"37.766756882","long":"127.03618075","imageIndex":4,"items":[{"name":"담소","tel":"031-877-9921","addr":"경기도 의정부시 녹양동 40-4번지","indutype":"일반휴게음식 - 일반한식","category":"restaurant"}]},{"lat":"37.757568951","long":"127.02909555","imageIndex":4,"items":[{"name":"대천식객도락","tel":"031-873-1888","addr":"경기도 의정부시 녹양동 174-1번지 1층","indutype":"일반휴게음식 - 일반한식","category":"restaurant"}]},{"lat":"37.759594898","long":"127.03402138","imageIndex":4,"items":[{"name":"더팬","tel":"","addr":"경기도 의정부시 녹양동 379-7번지 삼전네오빌3차 101호","indutype":"일반휴게음식 - 서양음식","category":"restaurant"}]},{"lat":"37.757036245","long":"127.03381605","imageIndex":4,"items":[{"name":"돈92","tel":"","addr":"경기도 의정부시 녹양동 352-1번지 1층","indutype":"일반휴게음식 - 일반한식","category":"restaurant"}]},{"lat":"37.759903732","long":"127.02232147","imageIndex":4,"items":[{"name":"돈블리","tel":"031-000-0000","addr":"경기도 의정부시 녹양동 282-6번지 1층","indutype":"일반휴게음식 - 일반한식","category":"restaurant"}]},{"lat":"37.759998141","long":"127.04142062","imageIndex":4,"items":[{"name":"돈삼겹","tel":"031-826-9295","addr":"경기도 의정부시 녹양동 412-8번지 굿모닝프라자 1층 102호","indutype":"일반휴게음식 - 일반한식","category":"restaurant"},{"name":"치어스 녹양역점","tel":"031-855-7870","addr":"경기도 의정부시 녹양동 412-8번지 (1층103,104,108호)","indutype":"일반휴게음식 - 주점","category":"restaurant"},{"name":"홍짜장","tel":"031-876-3558","addr":"경기도 의정부시 녹양동 412-8번지 굿모닝프라자 101,105호","indutype":"일반휴게음식 - 중국식","category":"restaurant"}]},{"lat":"37.757043993","long":"127.03829844","imageIndex":4,"items":[{"name":"동해초밥참치","tel":"031-837-8089","addr":"경기도 의정부시 녹양동 340-4번지 1층","indutype":"일반휴게음식 - 일식·회집","category":"restaurant"}]},{"lat":"37.766819846","long":"127.03654396","imageIndex":4,"items":[{"name":"뒷골마당","tel":"031-878-3461","addr":"경기도 의정부시 녹양동 40-2번지","indutype":"일반휴게음식 - 일반한식","category":"restaurant"}]},{"lat":"37.758757455","long":"127.03229613","imageIndex":4,"items":[{"name":"드럼통장작구이","tel":"031-876-8592","addr":"경기도 의정부시 녹양동 387-4번지","indutype":"일반휴게음식 - 일반한식","category":"restaurant"}]},{"lat":"37.756594718","long":"127.03404282","imageIndex":4,"items":[{"name":"들르고싶은집","tel":"031-876-2706","addr":"경기도 의정부시 녹양동 353-4번지 1층","indutype":"일반휴게음식 - 일반한식","category":"restaurant"}]},{"lat":"37.757540779","long":"127.03381626","imageIndex":4,"items":[{"name":"디미방","tel":"031-855-7793","addr":"경기도 의정부시 녹양동 142-9번지 1층","indutype":"일반휴게음식 - 일반한식","category":"restaurant"}]},{"lat":"37.757820145","long":"127.03354403","imageIndex":4,"items":[{"name":"따순둥","tel":"031-829-7441","addr":"경기도 의정부시 녹양동 154-40번지","indutype":"일반휴게음식 - 일반한식","category":"restaurant"}]},{"lat":"37.760320933","long":"127.04590337","imageIndex":4,"items":[{"name":"또다른세상","tel":"031-842-4736","addr":"경기도 의정부시 녹양동 108-17번지","indutype":"일반휴게음식 - 일반한식","category":"restaurant"}]},{"lat":"37.75664847","long":"127.03517762","imageIndex":4,"items":[{"name":"뚜껑삼겹","tel":"031-878-7150","addr":"경기도 의정부시 녹양동 346-4번지","indutype":"일반휴게음식 - 일반한식","category":"restaurant"}]},{"lat":"37.75662209","long":"127.03271515","imageIndex":4,"items":[{"name":"뚱스밥버거","tel":"031-855-1670","addr":"경기도 의정부시 녹양동 146-14번지 1층","indutype":"일반휴게음식 - 일반한식","category":"restaurant"},{"name":"커피나무","tel":"031-853-9117","addr":"경기도 의정부시 녹양동 146-14번지 1층","indutype":"일반휴게음식 - 서양음식","category":"restaurant"}]},{"lat":"37.756729998","long":"127.03352088","imageIndex":4,"items":[{"name":"락궁감자탕","tel":"031-874-2643","addr":"경기도 의정부시 녹양동 354-4번지 1층","indutype":"일반휴게음식 - 일반한식","category":"restaurant"}]},{"lat":"37.760928761","long":"127.03226294","imageIndex":4,"items":[{"name":"로산젤라/협동조합살길","tel":"031-1544-1985","addr":"경기도 의정부시 녹양동 168-23번지","indutype":"일반휴게음식 - 서양음식","category":"restaurant"}]},{"lat":"37.759538806","long":"127.0409551","imageIndex":4,"items":[{"name":"롯데리아녹양역점","tel":"031-829-9204","addr":"경기도 의정부시 녹양동 412-6번지","indutype":"일반휴게음식 - 서양음식","category":"restaurant"},{"name":"숲을지나서","tel":"","addr":"경기도 의정부시 녹양동 412-6번지 씨에스타워 108호","indutype":"일반휴게음식 - 서양음식","category":"restaurant"},{"name":"이탈리아로 떠난 꼬마","tel":"031-847-8030","addr":"경기도 의정부시 녹양동 412-6번지 씨에스타워 1층 상가","indutype":"일반휴게음식 - 일반한식","category":"restaurant"},{"name":"탐앤탐스 녹양점","tel":"031-829-7770","addr":"경기도 의정부시 녹양동 412-6번지 씨에스타워 202호 104 201 CSTOWER","indutype":"일반휴게음식 - 서양음식","category":"restaurant"},{"name":"해늘찹쌀순대","tel":"031-855-5180","addr":"경기도 의정부시 녹양동 412-6번지 씨에스타워 1층","indutype":"일반휴게음식 - 일반한식","category":"restaurant"}]},{"lat":"37.761343595","long":"127.03062892","imageIndex":4,"items":[{"name":"마미손감자탕","tel":"031-873-4999","addr":"경기도 의정부시 녹양동 62-48번지 1층","indutype":"일반휴게음식 - 일반한식","category":"restaurant"}]},{"lat":"37.757404808","long":"127.03682339","imageIndex":4,"items":[{"name":"만두나라","tel":"031-829-0025","addr":"경기도 의정부시 녹양동 335-6번지","indutype":"일반휴게음식 - 일반한식","category":"restaurant"}]},{"lat":"37.760619949","long":"127.04095566","imageIndex":4,"items":[{"name":"만세옥","tel":"031-855-0018","addr":"경기도 의정부시 녹양동 412-2번지 크로바프라자 1층 지상 1층","indutype":"일반휴게음식 - 일반한식","category":"restaurant"}]},{"lat":"37.756621883","long":"127.03352084","imageIndex":4,"items":[{"name":"맘스터치","tel":"031-837-8822","addr":"경기도 의정부시 녹양동 354-6번지 1층","indutype":"일반휴게음식 - 스넥","category":"restaurant"}]},{"lat":"37.75962293","long":"127.02995874","imageIndex":4,"items":[{"name":"맛고을","tel":"031-826-2416","addr":"경기도 의정부시 녹양동 384-3번지 선경하이빌 103,104호","indutype":"일반휴게음식 - 일반한식","category":"restaurant"}]},{"lat":"37.759261989","long":"127.03229632","imageIndex":4,"items":[{"name":"맨도롱","tel":"031-855-3528","addr":"경기도 의정부시 녹양동 382-19번지 선웅빌딩 102호","indutype":"일반휴게음식 - 일반한식","category":"restaurant"}]},{"lat":"37.75740473","long":"127.03709574","imageIndex":4,"items":[{"name":"먹거리식당","tel":"031-829-3345","addr":"경기도 의정부시 녹양동 336번지","indutype":"일반휴게음식 - 일반한식","category":"restaurant"},{"name":"피에스타치킨","tel":"031-875-3929","addr":"경기도 의정부시 녹양동 336번지","indutype":"일반휴게음식 - 스넥","category":"restaurant"}]},{"lat":"37.758179105","long":"127.03859403","imageIndex":4,"items":[{"name":"면사랑","tel":"031-879-5634","addr":"경기도 의정부시 녹양동 327-4번지 1층 지상","indutype":"일반휴게음식 - 일반한식","category":"restaurant"},{"name":"전국5대짬뽕 교동짬뽕","tel":"031-826-4504","addr":"경기도 의정부시 녹양동 327-4번지","indutype":"일반휴게음식 - 중국식","category":"restaurant"}]},{"lat":"37.757260695","long":"127.03668715","imageIndex":4,"items":[{"name":"명가","tel":"","addr":"경기도 의정부시 녹양동 335-8번지","indutype":"일반휴게음식 - 일반한식","category":"restaurant"}]},{"lat":"37.760043229","long":"127.04129581","imageIndex":4,"items":[{"name":"무한버섯나라","tel":"031-872-4988","addr":"경기도 의정부시 녹양동 412-9번지 2층","indutype":"일반휴게음식 - 일반한식","category":"restaurant"},{"name":"좋은날식당","tel":"031-873-5566","addr":"경기도 의정부시 녹양동 412-9번지","indutype":"일반휴게음식 - 일반한식","category":"restaurant"},{"name":"쭈꾸미 아저씨","tel":"031-858-4550","addr":"경기도 의정부시 녹양동 412-9번지 성해프라자 1층 지상","indutype":"일반휴게음식 - 일반한식","category":"restaurant"},{"name":"투투치킨","tel":"031-855-3880","addr":"경기도 의정부시 녹양동 412-9번지 성해프라자 101호","indutype":"일반휴게음식 - 서양음식","category":"restaurant"},{"name":"포차천국","tel":"031-826-4868","addr":"경기도 의정부시 녹양동 412-9번지 성해프라자 102호","indutype":"일반휴게음식 - 일반한식","category":"restaurant"}]},{"lat":"37.761066083","long":"127.02157278","imageIndex":4,"items":[{"name":"버드","tel":"070-4225-3268","addr":"경기도 의정부시 녹양동 223-10번지 1층","indutype":"일반휴게음식 - 서양음식","category":"restaurant"}]},{"lat":"37.759208055","long":"127.03179699","imageIndex":4,"items":[{"name":"베이커리렌느(reine)","tel":"","addr":"경기도 의정부시 녹양동 386-2번지 미주그린빌라 1층 102호","indutype":"일반휴게음식 - 서양음식","category":"restaurant"}]},{"lat":"37.760403721","long":"127.04095555","imageIndex":4,"items":[{"name":"불닭발땡초동대문엽기떡볶이(녹양점)","tel":"031-875-8593","addr":"경기도 의정부시 녹양동 412-3번지 현대프라자 104호","indutype":"일반휴게음식 - 일반한식","category":"restaurant"}]},{"lat":"37.765097106","long":"127.04270571","imageIndex":4,"items":[{"name":"불만난쭈꾸미","tel":"031-837-3359","addr":"경기도 의정부시 녹양동 32-11번지","indutype":"일반휴게음식 - 일반한식","category":"restaurant"}]},{"lat":"37.757459597","long":"127.03417936","imageIndex":4,"items":[{"name":"불티나 호떡집","tel":"","addr":"경기도 의정부시 녹양동 351-14번지 1층","indutype":"일반휴게음식 - 스넥","category":"restaurant"}]},{"lat":"37.756955186","long":"127.03371389","imageIndex":4,"items":[{"name":"불티나호떡집","tel":"031-879-6245","addr":"경기도 의정부시 녹양동 352-2번지 1층","indutype":"일반휴게음식 - 스넥","category":"restaurant"}]},{"lat":"37.758180859","long":"127.03223916","imageIndex":4,"items":[{"name":"빨간포차","tel":"031-1111-1111","addr":"경기도 의정부시 녹양동 387-8번지 1층","indutype":"일반휴게음식 - 일반한식","category":"restaurant"},{"name":"사대명가뼈다귀","tel":"031-873-1020","addr":"경기도 의정부시 녹양동 387-8번지 102호","indutype":"일반휴게음식 - 일반한식","category":"restaurant"},{"name":"엉터리생고기(녹양점)","tel":"031-829-1182","addr":"경기도 의정부시 녹양동 387-8번지 1층 103호","indutype":"일반휴게음식 - 일반한식","category":"restaurant"}]},{"lat":"37.757036425","long":"127.03312383","imageIndex":4,"items":[{"name":"산쪼메","tel":"02-511-8355","addr":"경기도 의정부시 녹양동 146-11번지","indutype":"일반휴게음식 - 일반한식","category":"restaurant"}]},{"lat":"37.757928002","long":"127.03451999","imageIndex":4,"items":[{"name":"삼탱이오삼시","tel":"031-877-5392","addr":"경기도 의정부시 녹양동 85-1번지 1층","indutype":"일반휴게음식 - 일반한식","category":"restaurant"}]},{"lat":"37.758261266","long":"127.03484923","imageIndex":4,"items":[{"name":"샘물분식","tel":"031-855-6611","addr":"경기도 의정부시 녹양동 83-57번지","indutype":"일반휴게음식 - 일반한식","category":"restaurant"}]},{"lat":"37.76004334","long":"127.04095536","imageIndex":4,"items":[{"name":"생활의달인문영숙족발보쌈","tel":"031-855-5552","addr":"경기도 의정부시 녹양동 412-4번지","indutype":"일반휴게음식 - 일반한식","category":"restaurant"},{"name":"으리으리호프","tel":"031-836-2895","addr":"경기도 의정부시 녹양동 412-4번지 1층","indutype":"일반휴게음식 - 주점","category":"restaurant"},{"name":"이흥선참치 녹양점","tel":"031-837-5654","addr":"경기도 의정부시 녹양동 412-4번지","indutype":"일반휴게음식 - 일반한식","category":"restaurant"}]},{"lat":"37.759901165","long":"127.03423713","imageIndex":4,"items":[{"name":"서산식당","tel":"031-796-2554","addr":"경기도 의정부시 녹양동 378-6번지 1층 102호","indutype":"일반휴게음식 - 일반한식","category":"restaurant"}]},{"lat":"37.760901259","long":"127.03410137","imageIndex":4,"items":[{"name":"선운수산 풍천장어","tel":"031-836-7592","addr":"경기도 의정부시 녹양동 168-42번지","indutype":"일반휴게음식 - 일반한식","category":"restaurant"}]},{"lat":"37.758036678","long":"127.03235258","imageIndex":4,"items":[{"name":"소심","tel":"031-4622-3805","addr":"경기도 의정부시 녹양동 387-9번지 나동 1층","indutype":"일반휴게음식 - 주점","category":"restaurant"}]},{"lat":"37.75775728","long":"127.03276099","imageIndex":4,"items":[{"name":"소우리.가","tel":"031-855-5544","addr":"경기도 의정부시 녹양동 154-6번지 인창사우나빌딩 1층 101호","indutype":"일반휴게음식 - 일반한식","category":"restaurant"},{"name":"의정부행복부대찌개","tel":"031-877-2410","addr":"경기도 의정부시 녹양동 154-6번지","indutype":"일반휴게음식 - 일반한식","category":"restaurant"}]},{"lat":"37.757514148","long":"127.03226159","imageIndex":4,"items":[{"name":"수원이네연탄구이","tel":"031-874-2346","addr":"경기도 의정부시 녹양동 145-5번지","indutype":"일반휴게음식 - 일반한식","category":"restaurant"}]},{"lat":"37.759649704","long":"127.03104818","imageIndex":4,"items":[{"name":"신도분식","tel":"031-855-3101","addr":"경기도 의정부시 녹양동 383-2번지 102호","indutype":"일반휴게음식 - 스넥","category":"restaurant"}]},{"lat":"37.758566608","long":"127.03828782","imageIndex":4,"items":[{"name":"신바람포차","tel":"031-855-5423","addr":"경기도 의정부시 녹양동 83-4번지","indutype":"일반휴게음식 - 일반한식","category":"restaurant"},{"name":"원조할머니뼈다귀감자탕","tel":"031-855-0809","addr":"경기도 의정부시 녹양동 83-4번지 1층","indutype":"일반휴게음식 - 일반한식","category":"restaurant"},{"name":"자갈치산곰장어","tel":"031-879-8860","addr":"경기도 의정부시 녹양동 83-4번지 1층","indutype":"일반휴게음식 - 일반한식","category":"restaurant"},{"name":"한국관","tel":"031-870-0069","addr":"경기도 의정부시 녹양동 83-4번지","indutype":"일반휴게음식 - 일반한식","category":"restaurant"},{"name":"한군 도너츠 클럽","tel":"031-836-0707","addr":"경기도 의정부시 녹양동 83-4번지 1층","indutype":"일반휴게음식 - 일반한식","category":"restaurant"}]},{"lat":"37.757954911","long":"127.03496258","imageIndex":4,"items":[{"name":"신전떡볶이 녹양점","tel":"031-855-2212","addr":"경기도 의정부시 녹양동 85-5번지","indutype":"일반휴게음식 - 스넥","category":"restaurant"}]},{"lat":"37.757873666","long":"127.03554129","imageIndex":4,"items":[{"name":"아구랑 꽃게랑","tel":"031-878-0094","addr":"경기도 의정부시 녹양동 85-11번지 지하1층","indutype":"일반휴게음식 - 일반한식","category":"restaurant"}]},{"lat":"37.761536935","long":"127.04667577","imageIndex":4,"items":[{"name":"아빠꽃게촌","tel":"031-840-5456","addr":"경기도 의정부시 녹양동 1-1번지","indutype":"일반휴게음식 - 일반한식","category":"restaurant"}]},{"lat":"37.758459881","long":"127.03331733","imageIndex":4,"items":[{"name":"알바트로스","tel":"031-879-5450","addr":"경기도 의정부시 녹양동 158-283번지","indutype":"일반휴게음식 - 주점","category":"restaurant"}]},{"lat":"37.758901593","long":"127.03235292","imageIndex":4,"items":[{"name":"앗싸곱창","tel":"031-829-8259","addr":"경기도 의정부시 녹양동 387-3번지 1층 지상 1층","indutype":"일반휴게음식 - 일반한식","category":"restaurant"}]},{"lat":"37.757738171","long":"127.0367895","imageIndex":4,"items":[{"name":"양계장집아들 녹양점","tel":"031-877-5326","addr":"경기도 의정부시 녹양동 333-5번지","indutype":"일반휴게음식 - 스넥","category":"restaurant"}]},{"lat":"37.757486748","long":"127.03371411","imageIndex":4,"items":[{"name":"양꼬치하오츠","tel":"031-875-7710","addr":"경기도 의정부시 녹양동 142-4번지 1층","indutype":"일반휴게음식 - 일반한식","category":"restaurant"}]},{"lat":"37.758035634","long":"127.03626763","imageIndex":4,"items":[{"name":"엉클K비어","tel":"031-855-5592","addr":"경기도 의정부시 녹양동 325-4번지 1층","indutype":"일반휴게음식 - 주점","category":"restaurant"}]},{"lat":"37.760180864","long":"127.03268253","imageIndex":4,"items":[{"name":"에이디엠하우스","tel":"02-858-0689","addr":"경기도 의정부시 녹양동 375-5번지 1층","indutype":"일반휴게음식 - 서양음식","category":"restaurant"},{"name":"오즈커피","tel":"031-877-4892","addr":"경기도 의정부시 녹양동 375-5번지","indutype":"일반휴게음식 - 서양음식","category":"restaurant"}]},{"lat":"37.762203619","long":"127.04673291","imageIndex":4,"items":[{"name":"예향재","tel":"031-848-8845","addr":"경기도 의정부시 녹양동 2-13번지 1층 2층","indutype":"일반휴게음식 - 일반한식","category":"restaurant"}]},{"lat":"37.758179054","long":"127.03876425","imageIndex":4,"items":[{"name":"옛날","tel":"031-829-8592","addr":"경기도 의정부시 녹양동 327-5번지","indutype":"일반휴게음식 - 일반한식","category":"restaurant"}]},{"lat":"37.756820274","long":"127.03281736","imageIndex":4,"items":[{"name":"오꾸꼬 녹양점","tel":"031-874-5992","addr":"경기도 의정부시 녹양동 146-13번지 101호","indutype":"일반휴게음식 - 스넥","category":"restaurant"},{"name":"행운돈까스","tel":"031-878-5999","addr":"경기도 의정부시 녹양동 146-13번지","indutype":"일반휴게음식 - 일반한식","category":"restaurant"}]},{"lat":"37.759370001","long":"127.0327049","imageIndex":4,"items":[{"name":"왕십리불곱창","tel":"031-855-3097","addr":"경기도 의정부시 녹양동 381-11번지 1층","indutype":"일반휴게음식 - 일반한식","category":"restaurant"}]},{"lat":"37.757260656","long":"127.03682332","imageIndex":4,"items":[{"name":"우성토스트","tel":"031-871-2425","addr":"경기도 의정부시 녹양동 335-7번지 1층","indutype":"일반휴게음식 - 일반한식","category":"restaurant"}]},{"lat":"37.758125222","long":"127.03801525","imageIndex":4,"items":[{"name":"이디야 녹양점","tel":"031-855-7111","addr":"경기도 의정부시 녹양동 327번지 1층","indutype":"일반휴게음식 - 서양음식","category":"restaurant"},{"name":"이디야 녹양점","tel":"031-333-4444","addr":"경기도 의정부시 녹양동 327번지 1층","indutype":"일반휴게음식 - 서양음식","category":"restaurant"}]},{"lat":"37.758152159","long":"127.03832166","imageIndex":4,"items":[{"name":"이락곱창","tel":"031-837-9792","addr":"경기도 의정부시 녹양동 327-2번지","indutype":"일반휴게음식 - 일반한식","category":"restaurant"}]},{"lat":"37.759090802","long":"127.03231895","imageIndex":4,"items":[{"name":"이정도는돼야지","tel":"031-843-4868","addr":"경기도 의정부시 녹양동 382-20번지","indutype":"일반휴게음식 - 일반한식","category":"restaurant"}]},{"lat":"37.757260478","long":"127.03743611","imageIndex":4,"items":[{"name":"일미닭갈비막국수","tel":"031-875-3685","addr":"경기도 의정부시 녹양동 336-5번지 1층","indutype":"일반휴게음식 - 일반한식","category":"restaurant"}]},{"lat":"37.758397082","long":"127.03226194","imageIndex":4,"items":[{"name":"일차돌의정부녹양점","tel":"031-855-4969","addr":"경기도 의정부시 녹양동 387-7번지 1층","indutype":"일반휴게음식 - 일반한식","category":"restaurant"},{"name":"일촌회마차","tel":"031-829-7710","addr":"경기도 의정부시 녹양동 387-7번지 일해 1층","indutype":"일반휴게음식 - 일반한식","category":"restaurant"}]},{"lat":"37.757927378","long":"127.03676689","imageIndex":4,"items":[{"name":"자금성반점","tel":"031-874-3480","addr":"경기도 의정부시 녹양동 325-8번지","indutype":"일반휴게음식 - 중국식","category":"restaurant"}]},{"lat":"37.757008486","long":"127.03648277","imageIndex":4,"items":[{"name":"자담치킨녹양가능점","tel":"031-875-4492","addr":"경기도 의정부시 녹양동 341번지 1층","indutype":"일반휴게음식 - 스넥","category":"restaurant"}]},{"lat":"37.758487043","long":"127.03279533","imageIndex":4,"items":[{"name":"장비","tel":"031-826-5955","addr":"경기도 의정부시 녹양동 388-8번지","indutype":"일반휴게음식 - 일반한식","category":"restaurant"},{"name":"총각수산","tel":"031-855-9229","addr":"경기도 의정부시 녹양동 388-8번지","indutype":"일반휴게음식 - 일반한식","category":"restaurant"}]},{"lat":"37.759901569","long":"127.03268242","imageIndex":4,"items":[{"name":"정성담어","tel":"031-829-9992","addr":"경기도 의정부시 녹양동 375-7번지","indutype":"일반휴게음식 - 일반한식","category":"restaurant"}]},{"lat":"37.76006372","long":"127.03276192","imageIndex":4,"items":[{"name":"중화원","tel":"031-879-6681","addr":"경기도 의정부시 녹양동 375-6번지 1층","indutype":"일반휴게음식 - 중국식","category":"restaurant"}]},{"lat":"37.761429217","long":"127.0455976","imageIndex":4,"items":[{"name":"착한낙지","tel":"031-841-5456","addr":"경기도 의정부시 녹양동 108-34번지","indutype":"일반휴게음식 - 일반한식","category":"restaurant"}]},{"lat":"37.757927299","long":"127.03703924","imageIndex":4,"items":[{"name":"착한미(  )식당","tel":"031-876-8989","addr":"경기도 의정부시 녹양동 326-11번지 1층","indutype":"일반휴게음식 - 일반한식","category":"restaurant"},{"name":"추억82찹쌀꽈배기","tel":"031-836-5267","addr":"경기도 의정부시 녹양동 326-11번지","indutype":"일반휴게음식 - 스넥","category":"restaurant"}]},{"lat":"37.759818101","long":"127.04095525","imageIndex":4,"items":[{"name":"착한회집","tel":"031-863-7739","addr":"경기도 의정부시 녹양동 412-5번지 1층 101호","indutype":"일반휴게음식 - 일식·회집","category":"restaurant"},{"name":"펠어커피","tel":"","addr":"경기도 의정부시 녹양동 412-5번지 1층 102호","indutype":"일반휴게음식 - 서양음식","category":"restaurant"}]},{"lat":"37.756261171","long":"127.03476893","imageIndex":4,"items":[{"name":"처갓집양념통닭","tel":"031-874-5895","addr":"경기도 의정부시 녹양동 345-3번지 1층","indutype":"일반휴게음식 - 스넥","category":"restaurant"}]},{"lat":"37.767207956","long":"127.03399053","imageIndex":4,"items":[{"name":"천년의세월콩두부","tel":"031-877-5463","addr":"경기도 의정부시 녹양동 46-13번지","indutype":"일반휴게음식 - 일반한식","category":"restaurant"}]},{"lat":"37.758676244","long":"127.03279541","imageIndex":4,"items":[{"name":"철원막국수&김재원의생고기","tel":"031-856-7171","addr":"경기도 의정부시 녹양동 388-7번지 1층","indutype":"일반휴게음식 - 일반한식","category":"restaurant"}]},{"lat":"37.758098341","long":"127.03751593","imageIndex":4,"items":[{"name":"청수식당","tel":"031-872-2669","addr":"경기도 의정부시 녹양동 326-3번지","indutype":"일반휴게음식 - 일반한식","category":"restaurant"},{"name":"코드세븐 (code7)녹양점","tel":"031-855-6705","addr":"경기도 의정부시 녹양동 326-3번지 1층","indutype":"일반휴게음식 - 일반한식","category":"restaurant"},{"name":"퓨처호프","tel":"031-837-0678","addr":"경기도 의정부시 녹양동 326-3번지 1층일부","indutype":"일반휴게음식 - 스넥","category":"restaurant"}]},{"lat":"37.760874174","long":"127.03431698","imageIndex":4,"items":[{"name":"청와미당갈비탕,찜전문점","tel":"031-876-4311","addr":"경기도 의정부시 녹양동 168-41번지 1층 지상","indutype":"일반휴게음식 - 일반한식","category":"restaurant"}]},{"lat":"37.758261497","long":"127.03398678","imageIndex":4,"items":[{"name":"추억의 옛날통닭","tel":"031-855-9293","addr":"경기도 의정부시 녹양동 154-30번지 1층","indutype":"일반휴게음식 - 스넥","category":"restaurant"}]},{"lat":"37.75751412","long":"127.03237507","imageIndex":4,"items":[{"name":"춘천명물 닭갈비","tel":"031-877-7748","addr":"경기도 의정부시 녹양동 145-6번지 1층","indutype":"일반휴게음식 - 일반한식","category":"restaurant"}]},{"lat":"37.75964983","long":"127.03051481","imageIndex":4,"items":[{"name":"치킨홀릭 녹양점","tel":"","addr":"경기도 의정부시 녹양동 384-13번지 103호,104호","indutype":"일반휴게음식 - 주점","category":"restaurant"}]},{"lat":"37.757035385","long":"127.0369367","imageIndex":4,"items":[{"name":"친절상회","tel":"031-826-2648","addr":"경기도 의정부시 녹양동 341-3번지","indutype":"일반휴게음식 - 일반한식","category":"restaurant"},{"name":"피자마루","tel":"031-855-1082","addr":"경기도 의정부시 녹양동 341-3번지","indutype":"일반휴게음식 - 서양음식","category":"restaurant"}]},{"lat":"37.761621738","long":"127.03515708","imageIndex":4,"items":[{"name":"카페 위드","tel":"","addr":"경기도 의정부시 녹양동 400-26번지 1층 102호","indutype":"일반휴게음식 - 서양음식","category":"restaurant"}]},{"lat":"37.755846799","long":"127.03451911","imageIndex":4,"items":[{"name":"카페 휘게","tel":"","addr":"경기도 의정부시 녹양동 355번지 녹양힐스테이트 상가동 104호","indutype":"일반휴게음식 - 서양음식","category":"restaurant"},{"name":"현대분식","tel":"031-878-1671","addr":"경기도 의정부시 녹양동 355번지 녹양힐스테이트 상가동 110호","indutype":"일반휴게음식 - 스넥","category":"restaurant"}]},{"lat":"37.757955601","long":"127.0323185","imageIndex":4,"items":[{"name":"킴스패밀리","tel":"031-877-1660","addr":"경기도 의정부시 녹양동 387-9번지 1,층","indutype":"일반휴게음식 - 일반한식","category":"restaurant"}]},{"lat":"37.757153499","long":"127.03331679","imageIndex":4,"items":[{"name":"토개피","tel":"031-871-9295","addr":"경기도 의정부시 녹양동 146-10번지","indutype":"일반휴게음식 - 일반한식","category":"restaurant"}]},{"lat":"37.75890163","long":"127.0322054","imageIndex":4,"items":[{"name":"투다리 녹양점","tel":"031-839-0149","addr":"경기도 의정부시 녹양동 387-2번지 1층","indutype":"일반휴게음식 - 일반한식","category":"restaurant"}]},{"lat":"37.757847064","long":"127.03396391","imageIndex":4,"items":[{"name":"파라나","tel":"031-822-9390","addr":"경기도 의정부시 녹양동 154-24번지","indutype":"일반휴게음식 - 서양음식","category":"restaurant"}]},{"lat":"37.76312438","long":"127.04162652","imageIndex":4,"items":[{"name":"파스티안","tel":"070-8118-8274","addr":"경기도 의정부시 녹양동 404번지 행복주택 단지내상가 102호","indutype":"일반휴게음식 - 서양음식","category":"restaurant"}]},{"lat":"37.757397044","long":"127.03218211","imageIndex":4,"items":[{"name":"팍스팍스","tel":"031-872-4111","addr":"경기도 의정부시 녹양동 145-13번지","indutype":"일반휴게음식 - 일반한식","category":"restaurant"}]},{"lat":"37.759090702","long":"127.03271614","imageIndex":4,"items":[{"name":"펍's펍","tel":"031-829-8251","addr":"경기도 의정부시 녹양동 381-9번지 상가 1층","indutype":"일반휴게음식 - 일반한식","category":"restaurant"}]},{"lat":"37.756676029","long":"127.03318043","imageIndex":4,"items":[{"name":"피자스쿨","tel":"031-874-6644","addr":"경기도 의정부시 녹양동 354-2번지 1층","indutype":"일반휴게음식 - 일반한식","category":"restaurant"}]},{"lat":"37.75820749","long":"127.03379384","imageIndex":4,"items":[{"name":"하오하오","tel":"031-826-3381","addr":"경기도 의정부시 녹양동 154-11번지","indutype":"일반휴게음식 - 중국식","category":"restaurant"}]},{"lat":"37.758152118","long":"127.03845784","imageIndex":4,"items":[{"name":"한라산도야지","tel":"031-871-3137","addr":"경기도 의정부시 녹양동 327-3번지 1층","indutype":"일반휴게음식 - 일반한식","category":"restaurant"}]},{"lat":"37.757396245","long":"127.03523468","imageIndex":4,"items":[{"name":"해뜨는집","tel":"031-875-2834","addr":"경기도 의정부시 녹양동 132-2번지","indutype":"일반휴게음식 - 일반한식","category":"restaurant"}]},{"lat":"37.758153705","long":"127.03273846","imageIndex":4,"items":[{"name":"현대식당","tel":"031-837-2378","addr":"경기도 의정부시 녹양동 388-11번지 용광빌딩 1층","indutype":"일반휴게음식 - 일반한식","category":"restaurant"}]},{"lat":"37.761370142","long":"127.03260357","imageIndex":4,"items":[{"name":"호명참숯골","tel":"031-837-9998","addr":"경기도 의정부시 녹양동 61-1번지","indutype":"일반휴게음식 - 일반한식","category":"restaurant"}]},{"lat":"37.757008564","long":"127.03621043","imageIndex":4,"items":[{"name":"호식이 두마리치킨 녹양점","tel":"031-874-8999","addr":"경기도 의정부시 녹양동 342-2번지","indutype":"일반휴게음식 - 스넥","category":"restaurant"}]},{"lat":"37.759541182","long":"127.03270497","imageIndex":4,"items":[{"name":"홍천화로구이","tel":"031-877-1800","addr":"경기도 의정부시 녹양동 381-13번지","indutype":"일반휴게음식 - 중국식","category":"restaurant"}]},{"lat":"37.756981192","long":"127.03740193","imageIndex":4,"items":[{"name":"횡성생고기","tel":"031-855-5948","addr":"경기도 의정부시 녹양동 341-6번지 1층 지상 1층","indutype":"일반휴게음식 - 일반한식","category":"restaurant"}]},{"lat":"37.757648767","long":"127.03429292","imageIndex":4,"items":[{"name":"흑산도물회","tel":"031-836-8233","addr":"경기도 의정부시 녹양동 351-1번지 1층","indutype":"일반휴게음식 - 일반한식","category":"restaurant"}]},{"lat":"37.760261708","long":"127.03362447","imageIndex":4,"items":[{"name":"흑산도선착장","tel":"031-829-8233","addr":"경기도 의정부시 녹양동 376-4번지 1층","indutype":"일반휴게음식 - 일반한식","category":"restaurant"}]},{"lat":"37.760872216","long":"127.04095579","imageIndex":4,"items":[{"name":"힐링카페","tel":"","addr":"경기도 의정부시 녹양동 412-1번지 1층 102-2호","indutype":"일반휴게음식 - 서양음식","category":"restaurant"}]}]