[{"lat":"37.915267559","long":"127.0605042","imageIndex":0,"items":[{"name":"경환카서비스","tel":"031-862-6865","addr":"경기도 동두천시 보산동 387-7번지","indutype":"자동차정비 유지 - 세차장","category":"car"}]},{"lat":"37.91335764","long":"127.06040036","imageIndex":0,"items":[{"name":"광산카센타","tel":"031-865-1396","addr":"경기도 동두천시 보산동 407-53번지","indutype":"자동차정비 유지 - 자동차정비","category":"car"}]},{"lat":"37.913159909","long":"127.05942224","imageIndex":0,"items":[{"name":"대성카센타","tel":"031-864-0942","addr":"경기도 동두천시 보산동 407-5번지","indutype":"자동차정비 유지 - 자동차정비","category":"car"}]},{"lat":"37.913719143","long":"127.0580353","imageIndex":0,"items":[{"name":"대성카프라자","tel":"031-000-0000","addr":"경기도 동두천시 보산동 412-24번지 대성카프라자","indutype":"자동차정비 유지 - 자동차정비","category":"car"}]},{"lat":"37.913267845","long":"127.05978622","imageIndex":0,"items":[{"name":"보산세차장","tel":"031-861-4782","addr":"경기도 동두천시 보산동 407-12번지","indutype":"자동차정비 유지 - 세차장","category":"car"}]},{"lat":"37.916133945","long":"127.05736614","imageIndex":0,"items":[{"name":"켄치디스인베스트먼트 주식회사","tel":"070-0000-0000","addr":"경기도 동두천시 보산동 417-13번지 1층(1층)","indutype":"자동차판매 - 중고자동차판매","category":"car"}]}]