[{"lat":"37.294381385","long":"127.41882307","items":[{"name":"(박)달재반점","tel":"031-634-2858","addr":"경기도 이천시 사음동 191-4번지 2,3층 외1필지","category":"일반휴게음식 - 중국식"}]},{"lat":"37.301272851","long":"127.40882279","items":[{"name":"(주)임호산업","tel":"031-767-2042","addr":"경기도 이천시 사음동 631번지","category":"전기제품 - 기타전기제품"}]},{"lat":"37.295906931","long":"127.42057957","items":[{"name":"GS25이천동아점","tel":"","addr":"경기도 이천시 사음동 203-1번지","category":"유통업 영리 - 편 의 점"},{"name":"사음공판장","tel":"031-637-4170","addr":"경기도 이천시 사음동 203-1번지","category":"유통업 영리 - 슈퍼마켓"}]},{"lat":"37.303182084","long":"127.4270715","items":[{"name":"MA퍼니텍","tel":"031-631-5402","addr":"경기도 이천시 사음동 18-9 외6필지(18-2,18-5~8,18-10)","category":"주방용구 - 주방용구"}]},{"lat":"37.2920774","long":"127.42571223","items":[{"name":"N포인트","tel":"031-632-1032","addr":"경기도 이천시 사음동 152-3번지 나동 201호","category":"전기제품 - 기타전기제품"},{"name":"유원상사","tel":"031-638-0967","addr":"경기도 이천시 사음동 152-3번지 나동","category":"기타 - 기계공구"}]},{"lat":"37.295715667","long":"127.4134395","items":[{"name":"VIP스크린골프","tel":"031-633-1872","addr":"경기도 이천시 사음동 444-6번지 2층","category":"레져용품 - 스포츠·레져용품"}]},{"lat":"37.304521294","long":"127.42799265","items":[{"name":"WIN10 하우스","tel":"070-4254-5115","addr":"경기도 이천시 사음동 13번지","category":"자동차정비 유지 - 자동차정비"}]},{"lat":"37.295184691","long":"127.4158501","items":[{"name":"yellow latte (옐로우라떼)","tel":"031-634-3722","addr":"경기도 이천시 사음동 448-2번지 1동","category":"일반휴게음식 - 서양음식"}]},{"lat":"37.299324509","long":"127.42235793","items":[{"name":"가감한하루","tel":"","addr":"경기도 이천시 사음동 224-3번지 OK전력옆주택","category":"음료식품 - 기타음료식품"}]},{"lat":"37.294439878","long":"127.41238372","items":[{"name":"가마공방","tel":"","addr":"경기도 이천시 사음동 470-4번지 가마공방","category":"주방용구 - 주방용식기"},{"name":"그릇가게baao","tel":"031-635-7373","addr":"경기도 이천시 사음동 470-4번지 1층","category":"주방용구 - 주방용식기"},{"name":"세라믹하우스","tel":"","addr":"경기도 이천시 사음동 470-4번지","category":"주방용구 - 주방용식기"},{"name":"신창희그릇","tel":"031-631-9022","addr":"경기도 이천시 사음동 470-4번지","category":"주방용구 - 주방용식기"},{"name":"토미153","tel":"","addr":"경기도 이천시 사음동 470-4번지","category":"문화.취미 - 민예·공예품"},{"name":"토판그릇","tel":"031-631-8034","addr":"경기도 이천시 사음동 470-4번지","category":"주방용구 - 주방용식기"}]},{"lat":"37.294188609","long":"127.42238581","items":[{"name":"가마솥쌀밥집","tel":"031-633-8816","addr":"경기도 이천시 사음동 162-2번지","category":"일반휴게음식 - 일반한식"}]},{"lat":"37.295162629","long":"127.41182374","items":[{"name":"가치","tel":"031-635-3692","addr":"경기도 이천시 사음동 544-9번지","category":"주방용구 - 주방용식기"},{"name":"다정도예","tel":"031-631-7600","addr":"경기도 이천시 사음동 544-9번지","category":"문화.취미 - 민예·공예품"},{"name":"도향원","tel":"031-633-9955","addr":"경기도 이천시 사음동 544-9번지","category":"문화.취미 - 민예·공예품"},{"name":"알천도예","tel":"031-635-9313","addr":"경기도 이천시 사음동 544-9번지","category":"문화.취미 - 화랑"}]},{"lat":"37.295349269","long":"127.41516304","items":[{"name":"갑오종합주방설비","tel":"031-633-5154","addr":"경기도 이천시 사음동 425-4번지","category":"주방용구 - 주방용식기"}]},{"lat":"37.293244062","long":"127.41940325","items":[{"name":"강원위니아서비스","tel":"","addr":"경기도 이천시 사음동 170-5번지","category":"수리서비스 - 가정용품수리"}]},{"lat":"37.291295122","long":"127.40982926","items":[{"name":"강철컴퓨터","tel":"","addr":"경기도 이천시 사음동 479-2번지 그린하우스 101호","category":"수리서비스 - 사무·통신기기수리"}]},{"lat":"37.295712824","long":"127.41165755","items":[{"name":"고요재","tel":"031-631-3303","addr":"경기도 이천시 사음동 544-23번지","category":"가구 - 일반가구"},{"name":"고요재","tel":"031-631-3303","addr":"경기도 이천시 사음동 544-23번지 1층","category":"문화.취미 - 문화취미기타"},{"name":"한국도자관","tel":"031-634-5100","addr":"경기도 이천시 사음동 544-23번지","category":"용역 서비스 - 기타용역서비스"},{"name":"한국도자관","tel":"031-000-0000","addr":"경기도 이천시 사음동 544-23번지","category":"문화.취미 - 민예·공예품"}]},{"lat":"37.29634823","long":"127.41029633","items":[{"name":"고향집 (사음점)","tel":"031-637-3234","addr":"경기도 이천시 사음동 552번지","category":"일반휴게음식 - 일반한식"}]},{"lat":"37.294935624","long":"127.41233002","items":[{"name":"곰아저씨","tel":"","addr":"경기도 이천시 사음동 541-2번지","category":"주방용구 - 주방용식기"},{"name":"라기환세라믹스튜디오","tel":"02-1111-1111","addr":"경기도 이천시 사음동 541-2번지","category":"주방용구 - 주방용식기"},{"name":"무경","tel":"031-635-6432","addr":"경기도 이천시 사음동 541-2번지","category":"주방용구 - 주방용식기"},{"name":"임의섭도예작업장","tel":"02-1111-1111","addr":"경기도 이천시 사음동 541-2번지","category":"문화.취미 - 민예·공예품"},{"name":"정담","tel":"031-638-5518","addr":"경기도 이천시 사음동 541-2번지","category":"주방용구 - 주방용식기"}]},{"lat":"37.302292299","long":"127.42896138","items":[{"name":"공간","tel":"031-000-0000","addr":"경기도 이천시 사음동 65-1번지","category":"가구 - 기타가구"},{"name":"소강도예연구소","tel":"031-631-7391","addr":"경기도 이천시 사음동 65-1번지","category":"문화.취미 - 골동품점"},{"name":"주식회사 공간","tel":"031-632-6661","addr":"경기도 이천시 사음동 65-1번지","category":"유통업 영리 - 기타유통업"}]},{"lat":"37.296713005","long":"127.41682838","items":[{"name":"공간다락","tel":"031-8259-2930","addr":"경기도 이천시 사음동 420번지","category":"일반휴게음식 - 서양음식"}]},{"lat":"37.298634771","long":"127.42121497","items":[{"name":"공방카페 커피뜰","tel":"031-634-1798","addr":"경기도 이천시 사음동 291-20번지 104동 지하1층","category":"일반휴게음식 - 서양음식"}]},{"lat":"37.294463743","long":"127.41846263","items":[{"name":"관촌","tel":"031-635-6561","addr":"경기도 이천시 사음동 192-1번지","category":"음료식품 - 미곡상"},{"name":"관촌순두부","tel":"031-635-6561","addr":"경기도 이천시 사음동 192-1번지","category":"일반휴게음식 - 일반한식"}]},{"lat":"37.293768691","long":"127.42137975","items":[{"name":"교동짬뽕","tel":"031-633-8907","addr":"경기도 이천시 사음동 164-15번지","category":"일반휴게음식 - 중국식"},{"name":"궁사주카페","tel":"","addr":"경기도 이천시 사음동 164-15번지 가동 105호","category":"일반휴게음식 - 서양음식"},{"name":"다락","tel":"","addr":"경기도 이천시 사음동 164-15번지","category":"가구 - 기타가구"},{"name":"다래","tel":"031-632-7609","addr":"경기도 이천시 사음동 164-15번지","category":"문화.취미 - 민예·공예품"},{"name":"봄봄","tel":"031-635-5632","addr":"경기도 이천시 사음동 164-15번지","category":"문화.취미 - 민예·공예품"},{"name":"이진도예","tel":"031-632-5661","addr":"경기도 이천시 사음동 164-15번지","category":"주방용구 - 주방용식기"},{"name":"이진도예","tel":"031-632-5661","addr":"경기도 이천시 사음동 164-15번지","category":"문화.취미 - 민예·공예품"},{"name":"춘강흙내음","tel":"031-631-7673","addr":"경기도 이천시 사음동 164-15번지","category":"문화.취미 - 민예·공예품"},{"name":"혜화요","tel":"031-634-3722","addr":"경기도 이천시 사음동 164-15번지","category":"문화.취미 - 민예·공예품"}]},{"lat":"37.294162205","long":"127.41190855","items":[{"name":"그릇나들이","tel":"031-631-2343","addr":"경기도 이천시 사음동 529-1번지","category":"문화.취미 - 민예·공예품"},{"name":"무아공방","tel":"031-637-8925","addr":"경기도 이천시 사음동 529-1번지 1층","category":"문화.취미 - 민예·공예품"},{"name":"이안애","tel":"031-631-0771","addr":"경기도 이천시 사음동 529-1번지","category":"가구 - 기타가구"}]},{"lat":"37.293848685","long":"127.41137679","items":[{"name":"금석도요","tel":"031-637-3407","addr":"경기도 이천시 사음동 513번지","category":"문화.취미 - 골동품점"}]},{"lat":"37.294933728","long":"127.41804793","items":[{"name":"금호타이어신둔대리점","tel":"031-633-3739","addr":"경기도 이천시 사음동 455-4번지","category":"자동차정비 유지 - 자동차시트·타이어"}]},{"lat":"37.298766868","long":"127.40915896","items":[{"name":"나랏님 장작불곰탕","tel":"031-638-7188","addr":"경기도 이천시 사음동 576-4번지","category":"일반휴게음식 - 일반한식"}]},{"lat":"37.294799811","long":"127.41252101","items":[{"name":"농담과토리","tel":"031-632-1321","addr":"경기도 이천시 사음동 470번지 1층 지족암","category":"문화.취미 - 민예·공예품"},{"name":"도예공방 민","tel":"031-634-4703","addr":"경기도 이천시 사음동 470번지","category":"문화.취미 - 민예·공예품"},{"name":"도토리 도예공방","tel":"031-634-5555","addr":"경기도 이천시 사음동 470번지","category":"문화.취미 - 민예·공예품"},{"name":"동광요","tel":"031-633-8706","addr":"경기도 이천시 사음동 470번지","category":"문화.취미 - 민예·공예품"},{"name":"랑","tel":"031-631-7566","addr":"경기도 이천시 사음동 470번지","category":"문화.취미 - 민예·공예품"}]},{"lat":"37.295684829","long":"127.42223622","items":[{"name":"누리어린이집[아이행복]","tel":"031-635-8520","addr":"경기도 이천시 사음동 206-3번지","category":"학원 - 유아원"}]},{"lat":"37.292384546","long":"127.4254884","items":[{"name":"님프만이천점","tel":"031-633-4250","addr":"경기도 이천시 사음동 152-1번지","category":"직물 - 카페트,커튼,천막,지물"}]},{"lat":"37.291267432","long":"127.42796318","items":[{"name":"다산고등학교","tel":"031-645-7113","addr":"경기도 이천시 사음동 150-6번지 다산고등학교","category":"학원 - 초중고교육기관"}]},{"lat":"37.304492278","long":"127.42854517","items":[{"name":"대우센타","tel":"031-637-2319","addr":"경기도 이천시 사음동 14-1번지","category":"자동차정비 유지 - 자동차정비"}]},{"lat":"37.295829458","long":"127.41955284","items":[{"name":"대웅식당","tel":"031-632-5315","addr":"경기도 이천시 사음동 255번지 대웅빌라","category":"일반휴게음식 - 일반한식"}]},{"lat":"37.303851555","long":"127.42882355","items":[{"name":"대원지하수","tel":"031-637-0628","addr":"경기도 이천시 사음동 16-11번지 B동","category":"용역 서비스 - 기타용역서비스"},{"name":"엘지스틸하우스&건설","tel":"031-635-1301","addr":"경기도 이천시 사음동 16-11번지","category":"전기제품 - 기타전기제품"}]},{"lat":"37.297185307","long":"127.41054896","items":[{"name":"대창이불혼수품","tel":"031-633-6853","addr":"경기도 이천시 사음동 558-7번지","category":"직물 - 침구·수예점"},{"name":"씨유이천도예점","tel":"031-633-6853","addr":"경기도 이천시 사음동 558-7번지","category":"유통업 영리 - 편 의 점"}]},{"lat":"37.298323286","long":"127.40976561","items":[{"name":"대풍","tel":"031-635-3315","addr":"경기도 이천시 사음동 566-2번지","category":"일반휴게음식 - 일반한식"},{"name":"사음상회","tel":"031-636-7118","addr":"경기도 이천시 사음동 566-2번지","category":"음료식품 - 기타음료식품"},{"name":"신흥방화문","tel":"031-632-0512","addr":"경기도 이천시 사음동 566-2번지","category":"건축자재 - 기타건축자재"}]},{"lat":"37.290655751","long":"127.42516297","items":[{"name":"더 라인하우스","tel":"031-637-2400","addr":"경기도 이천시 사음동 150-8번지","category":"일반휴게음식 - 일반한식"}]},{"lat":"37.299104529","long":"127.40790886","items":[{"name":"도예골프존","tel":"031-637-0841","addr":"경기도 이천시 사음동 572-1번지","category":"회원제형태 - 레져업소"},{"name":"도예당구장","tel":"031-637-0841","addr":"경기도 이천시 사음동 572-1번지 2층","category":"레저업소 - 당 구 장"}]},{"lat":"37.298492348","long":"127.42326687","items":[{"name":"도예공방예작","tel":"031-631-5621","addr":"경기도 이천시 사음동 218-1번지","category":"문화.취미 - 민예·공예품"}]},{"lat":"37.296565497","long":"127.42034637","items":[{"name":"로샤(이루리)","tel":"","addr":"경기도 이천시 사음동 246-2번지 유광빌라 A동 402호","category":"의류 - 내의판매"}]},{"lat":"37.295826636","long":"127.42035357","items":[{"name":"로즈비헤어샵","tel":"031-631-0028","addr":"경기도 이천시 사음동 202번지 102호","category":"보건위생 - 미용원"},{"name":"후다닭","tel":"031-634-8982","addr":"경기도 이천시 사음동 202번지","category":"일반휴게음식 - 일반한식"}]},{"lat":"37.297881679","long":"127.40979707","items":[{"name":"리노","tel":"031-638-0006","addr":"경기도 이천시 사음동 564-8번지","category":"숙박업 - 여관/기타숙박업"}]},{"lat":"37.29560295","long":"127.41216447","items":[{"name":"명성도예","tel":"031-637-8760","addr":"경기도 이천시 사음동 545-2번지","category":"문화.취미 - 골동품점"}]},{"lat":"37.304269737","long":"127.42527291","items":[{"name":"명품산업안전용품","tel":"031-638-5121","addr":"경기도 이천시 사음동 9-2번지 2층","category":"기타 - 기계공구"}]},{"lat":"37.298743163","long":"127.40818888","items":[{"name":"목우해장국","tel":"031-632-6377","addr":"경기도 이천시 사음동 570번지","category":"일반휴게음식 - 일반한식"},{"name":"삼일수석","tel":"031-637-2933","addr":"경기도 이천시 사음동 570번지","category":"문화.취미 - 화원"}]},{"lat":"37.293962932","long":"127.41221197","items":[{"name":"무갤러리","tel":"031-634-5770","addr":"경기도 이천시 사음동 539-2번지 2층","category":"일반휴게음식 - 일반한식"},{"name":"향토빛","tel":"031-638-5771","addr":"경기도 이천시 사음동 539-2번지","category":"주방용구 - 주방용식기"}]},{"lat":"37.293686227","long":"127.41921396","items":[{"name":"미소원 고기마을","tel":"031-638-1171","addr":"경기도 이천시 사음동 172-3번지","category":"음료식품 - 정육점"},{"name":"미소원정육식당","tel":"031-638-1171","addr":"경기도 이천시 사음동 172-3번지","category":"일반휴게음식 - 일반한식"},{"name":"주식회사코주부비앤씨","tel":"031-633-9494","addr":"경기도 이천시 사음동 172-3번지","category":"일반휴게음식 - 일반한식"},{"name":"주식회사코주부비앤씨","tel":"031-633-9494","addr":"경기도 이천시 사음동 172-3번지","category":"일반휴게음식 - 일반한식"}]},{"lat":"37.295102814","long":"127.41607521","items":[{"name":"봉평","tel":"031-634-2026","addr":"경기도 이천시 사음동 448-3번지 1동 1층","category":"일반휴게음식 - 일반한식"}]},{"lat":"37.294547574","long":"127.41510228","items":[{"name":"브라운돈가스","tel":"031-631-7706","addr":"경기도 이천시 사음동 463-2번지 COFFEE ME YOU","category":"일반휴게음식 - 서양음식"},{"name":"임금님토종염소탕","tel":"031-633-8253","addr":"경기도 이천시 사음동 463-2번지 1동 1층","category":"일반휴게음식 - 일반한식"}]},{"lat":"37.297907351","long":"127.41019195","items":[{"name":"비비큐(신둔사음점)","tel":"031-634-9282","addr":"경기도 이천시 사음동 564-4번지","category":"일반휴게음식 - 스넥"},{"name":"현대카모터샵","tel":"031-637-7835","addr":"경기도 이천시 사음동 564-4번지","category":"자동차정비 유지 - 자동차정비"}]},{"lat":"37.295352307","long":"127.41168943","items":[{"name":"사과나무","tel":"031-635-6465","addr":"경기도 이천시 사음동 544-6번지 2층","category":"주방용구 - 주방용식기"},{"name":"사기막골도예촌시장번영회","tel":"031-635-4955","addr":"경기도 이천시 사음동 544-6번지 2층","category":"문화.취미 - 민예·공예품"},{"name":"승주도예","tel":"031-632-7656","addr":"경기도 이천시 사음동 544-6번지","category":"문화.취미 - 골동품점"},{"name":"운공방그릇집","tel":"031-694-3840","addr":"경기도 이천시 사음동 544-6번지","category":"주방용구 - 주방용식기"},{"name":"토화담","tel":"02-1111-1111","addr":"경기도 이천시 사음동 544-6번지","category":"주방용구 - 주방용식기"},{"name":"휘","tel":"031-635-8561","addr":"경기도 이천시 사음동 544-6번지","category":"문화.취미 - 민예·공예품"}]},{"lat":"37.303877267","long":"127.42668063","items":[{"name":"사랑마트","tel":"070-4441-5431","addr":"경기도 이천시 사음동 11번지","category":"유통업 영리 - 슈퍼마켓"}]},{"lat":"37.295656997","long":"127.41991279","items":[{"name":"사음세탁소","tel":"031-635-8029","addr":"경기도 이천시 사음동 184-3번지","category":"수리서비스 - 세탁소"}]},{"lat":"37.298543889","long":"127.41887982","items":[{"name":"산내들 토마토 딸기농장","tel":"031-637-2901","addr":"경기도 이천시 사음동 261-5번지","category":"음료식품 - 농·축·수산품"}]},{"lat":"37.294045153","long":"127.41188536","items":[{"name":"산아래","tel":"031-631-7590","addr":"경기도 이천시 사음동 529-2번지","category":"문화.취미 - 골동품점"},{"name":"아침일찍","tel":"031-633-6161","addr":"경기도 이천시 사음동 529-2번지 2층","category":"주방용구 - 주방용식기"},{"name":"해나온","tel":"031-635-3695","addr":"경기도 이천시 사음동 529-2번지","category":"문화.취미 - 민예·공예품"}]},{"lat":"37.293740253","long":"127.41146643","items":[{"name":"상민도예","tel":"031-634-0894","addr":"경기도 이천시 사음동 508-1번지","category":"문화.취미 - 민예·공예품"},{"name":"운문요","tel":"031-632-0578","addr":"경기도 이천시 사음동 508-1번지","category":"문화.취미 - 민예·공예품"}]},{"lat":"37.29504765","long":"127.41896207","items":[{"name":"샘물유통","tel":"031-637-3030","addr":"경기도 이천시 사음동 187-4번지 성심빌라","category":"유통업 영리 - 기타유통업"}]},{"lat":"37.302570099","long":"127.40888616","items":[{"name":"석청도예","tel":"031-636-5473","addr":"경기도 이천시 사음동 638번지","category":"문화.취미 - 민예·공예품"},{"name":"이천한내송어회","tel":"031-635-6088","addr":"경기도 이천시 사음동 638","category":"일반휴게음식 - 일반한식"}]},{"lat":"37.293992339","long":"127.41152418","items":[{"name":"선","tel":"031-634-4614","addr":"경기도 이천시 사음동 512번지","category":"주방용구 - 주방용식기"}]},{"lat":"37.294242243","long":"127.41221348","items":[{"name":"선수도예","tel":"031-635-8166","addr":"경기도 이천시 사음동 539번지","category":"문화.취미 - 골동품점"},{"name":"이천도예","tel":"031-637-5669","addr":"경기도 이천시 사음동 539번지","category":"문화.취미 - 민예·공예품"}]},{"lat":"37.293466452","long":"127.42021647","items":[{"name":"설봉숯불장어구이","tel":"031-633-4754","addr":"경기도 이천시 사음동 169-16번지","category":"일반휴게음식 - 일반한식"}]},{"lat":"37.29435254","long":"127.41677034","items":[{"name":"세븐일레븐이천대로점","tel":"031-1577-0711","addr":"경기도 이천시 사음동 452-5번지","category":"유통업 영리 - 편 의 점"}]},{"lat":"37.298911686","long":"127.408968","items":[{"name":"소문난민속품","tel":"031-636-9060","addr":"경기도 이천시 사음동 573-11, 574-3","category":"문화.취미 - 민예·공예품"}]},{"lat":"37.295292299","long":"127.4211288","items":[{"name":"소율뷰티스토리","tel":"0505-195-8370","addr":"경기도 이천시 사음동 182-1번지 국제아트빌라 B동 206호","category":"회원제형태 - 기타1"}]},{"lat":"37.29634866","long":"127.42051435","items":[{"name":"손칼국수밀사랑","tel":"031-631-2767","addr":"경기도 이천시 사음동 246-3번지","category":"일반휴게음식 - 일반한식"}]},{"lat":"37.29427052","long":"127.41185274","items":[{"name":"송운도예","tel":"031-638-3304","addr":"경기도 이천시 사음동 530번지","category":"문화.취미 - 민예·공예품"}]},{"lat":"37.293408906","long":"127.4108782","items":[{"name":"송월요","tel":"031-635-5754","addr":"경기도 이천시 사음동 504","category":"문화.취미 - 민예·공예품"},{"name":"숨(Soom)","tel":"070-7791-3576","addr":"경기도 이천시 사음동 504번지","category":"문화.취미 - 화랑"}]},{"lat":"37.300076027","long":"127.40837649","items":[{"name":"수안요","tel":"031-637-2734","addr":"경기도 이천시 사음동 629-14","category":"문화.취미 - 민예·공예품"}]},{"lat":"37.294495381","long":"127.41196674","items":[{"name":"식구","tel":"031-637-6823","addr":"경기도 이천시 사음동 532번지","category":"문화.취미 - 민예·공예품"}]},{"lat":"37.295989294","long":"127.42021913","items":[{"name":"신마트할인판매점","tel":"031-633-1100","addr":"경기도 이천시 사음동 248번지","category":"유통업 영리 - 슈퍼마켓"}]},{"lat":"37.299965989","long":"127.40630062","items":[{"name":"씨유서이천점","tel":"031-638-2027","addr":"경기도 이천시 사음동 650번지","category":"유통업 영리 - 편 의 점"}]},{"lat":"37.293494476","long":"127.41993468","items":[{"name":"아이앤아이","tel":"070-8745-7244","addr":"경기도 이천시 사음동 169-3번지","category":"전기제품 - 가전제품"},{"name":"정연가구","tel":"031-638-0723","addr":"경기도 이천시 사음동 169-3번지 102호","category":"가구 - 일반가구"}]},{"lat":"37.291134491","long":"127.4093773","items":[{"name":"아카밸리숲유치원[아이행복]","tel":"031-633-5115","addr":"경기도 이천시 사음동 482-68번지","category":"학원 - 유치원"},{"name":"아카밸리어린이집[아이행복]","tel":"031-1688-3424","addr":"경기도 이천시 사음동 482-68번지","category":"학원 - 유아원"}]},{"lat":"37.298102597","long":"127.418821","items":[{"name":"야멍애견","tel":"031-635-2000","addr":"경기도 이천시 사음동 261-25번지","category":"문화.취미 - 애완동물"}]},{"lat":"37.296654283","long":"127.42071904","items":[{"name":"어깨동무교육","tel":"031-635-0098","addr":"경기도 이천시 사음동 246번지","category":"서적문구 - 기타서적문구"}]},{"lat":"37.29879969","long":"127.42298662","items":[{"name":"엠플라워","tel":"070-0000-0000","addr":"경기도 이천시 사음동 221번지","category":"문화.취미 - 화원"}]},{"lat":"37.301158928","long":"127.40788603","items":[{"name":"옛날쌀밥집","tel":"031-633-3010","addr":"경기도 이천시 사음동 641번지","category":"일반휴게음식 - 일반한식"}]},{"lat":"37.296795972","long":"127.4110995","items":[{"name":"옥천도요","tel":"031-633-9665","addr":"경기도 이천시 사음동 555-6번지","category":"문화.취미 - 민예·공예품"}]},{"lat":"37.294099914","long":"127.41168265","items":[{"name":"온고당","tel":"031-631-8614","addr":"경기도 이천시 사음동 527-1번지","category":"주방용구 - 주방용구"}]},{"lat":"37.298432259","long":"127.40951807","items":[{"name":"우리공구","tel":"031-635-0901","addr":"경기도 이천시 사음동 578-2번지","category":"기타 - 기계공구"}]},{"lat":"37.296241057","long":"127.42036714","items":[{"name":"우리분식","tel":"031-000-0000","addr":"경기도 이천시 사음동 247-2번지 동우빌라 나동 103호","category":"일반휴게음식 - 스넥"}]},{"lat":"37.300771691","long":"127.40782756","items":[{"name":"우리자기","tel":"031-637-0215","addr":"경기도 이천시 사음동 642-3번지","category":"문화.취미 - 민예·공예품"}]},{"lat":"37.302745111","long":"127.42832102","items":[{"name":"우리저울","tel":"","addr":"경기도 이천시 사음동 64-3번지","category":"기타 - 기계공구"}]},{"lat":"37.293604325","long":"127.41169125","items":[{"name":"우비그릇","tel":"","addr":"경기도 이천시 사음동 509번지","category":"주방용구 - 주방용식기"},{"name":"정광도예연구소","tel":"031-632-0682","addr":"경기도 이천시 사음동 509번지","category":"문화.취미 - 골동품점"}]},{"lat":"37.300348941","long":"127.42565702","items":[{"name":"우원건설주식회사","tel":"031-632-2904","addr":"경기도 이천시 사음동 53번지","category":"용역 서비스 - 기타용역서비스"}]},{"lat":"37.294683461","long":"127.41229482","items":[{"name":"우치","tel":"031-638-8710","addr":"경기도 이천시 사음동 540번지","category":"문화.취미 - 민예·공예품"}]},{"lat":"37.298545407","long":"127.40805248","items":[{"name":"이래도토","tel":"031-638-7937","addr":"경기도 이천시 사음동 570-4번지","category":"문화.취미 - 문화취미기타"}]},{"lat":"37.293849794","long":"127.41882014","items":[{"name":"이젠모텔","tel":"031-638-2231","addr":"경기도 이천시 사음동 192-22번지","category":"숙박업 - 여관/기타숙박업"}]},{"lat":"37.294408058","long":"127.41635336","items":[{"name":"이조갈비","tel":"031-637-7026","addr":"경기도 이천시 사음동 452-4번지","category":"일반휴게음식 - 일반한식"}]},{"lat":"37.296284458","long":"127.42337864","items":[{"name":"이지워터","tel":"031-635-2000","addr":"경기도 이천시 사음동 209번지 골든리치빌빌라 1동 202호","category":"유통업 영리 - 기타유통업"}]},{"lat":"37.301268128","long":"127.40757081","items":[{"name":"이천도예자동차공업사","tel":"031-638-5800","addr":"경기도 이천시 사음동 648-5번지","category":"자동차정비 유지 - 자동차정비"}]},{"lat":"37.293522975","long":"127.41951756","items":[{"name":"이천돼지","tel":"031-635-9393","addr":"경기도 이천시 사음동 171-1번지","category":"일반휴게음식 - 일반한식"}]},{"lat":"37.297462791","long":"127.41108054","items":[{"name":"이천리페어샵","tel":"031-634-1470","addr":"경기도 이천시 사음동 582-2번지","category":"수리서비스 - 사무·통신기기수리"}]},{"lat":"37.29540698","long":"127.41926856","items":[{"name":"이천면옥","tel":"031-634-8252","addr":"경기도 이천시 사음동 200-5번지","category":"일반휴게음식 - 일반한식"}]},{"lat":"37.297074232","long":"127.41140551","items":[{"name":"이천쌀초밥","tel":"031-637-7778","addr":"경기도 이천시 사음동 555-1번지","category":"일반휴게음식 - 일반한식"}]},{"lat":"37.294106744","long":"127.41749077","items":[{"name":"이천종합주방","tel":"031-638-3505","addr":"경기도 이천시 사음동 457-6번지","category":"주방용구 - 주방용구"}]},{"lat":"37.291941014","long":"127.42098619","items":[{"name":"잣나무집","tel":"031-635-4537","addr":"경기도 이천시 사음동 167-2번지","category":"일반휴게음식 - 일반한식"}]},{"lat":"37.297265271","long":"127.41087647","items":[{"name":"장원염소탕","tel":"031-633-8852","addr":"경기도 이천시 사음동 558-11번지","category":"일반휴게음식 - 일반한식"}]},{"lat":"37.296410456","long":"127.42087559","items":[{"name":"주민쎈타","tel":"031-632-5000","addr":"경기도 이천시 사음동 245번지 1층","category":"일반휴게음식 - 일반한식"}]},{"lat":"37.302966734","long":"127.42682215","items":[{"name":"주식회사 정한시스템","tel":"031-631-1455","addr":"경기도 이천시 사음동 18-2번지","category":"용역 서비스 - 기타용역서비스"}]},{"lat":"37.303161887","long":"127.41493499","items":[{"name":"주식회사 한국콜드체인","tel":"031-769-5260","addr":"경기도 이천시 사음동 349-1번지","category":"유통업 영리 - 기타유통업"}]},{"lat":"37.295493822","long":"127.41505105","items":[{"name":"지강도요","tel":"031-631-5867","addr":"경기도 이천시 사음동 425-9번지","category":"문화.취미 - 민예·공예품"}]},{"lat":"37.295321493","long":"127.41537717","items":[{"name":"지천요","tel":"031-633-0796","addr":"경기도 이천시 사음동 425-11번지","category":"문화.취미 - 민예·공예품"}]},{"lat":"37.293797952","long":"127.4181883","items":[{"name":"진안추어탕","tel":"031-634-7576","addr":"경기도 이천시 사음동 193번지","category":"일반휴게음식 - 일반한식"}]},{"lat":"37.29585346","long":"127.42295896","items":[{"name":"참좋은어린이집[아이행복]","tel":"031-635-3222","addr":"경기도 이천시 사음동 206-1번지","category":"학원 - 유아원"}]},{"lat":"37.297022467","long":"127.41073982","items":[{"name":"청기와","tel":"031-637-0150","addr":"경기도 이천시 사음동 558-13번지","category":"문화.취미 - 민예·공예품"}]},{"lat":"37.292516214","long":"127.41107637","items":[{"name":"청파요","tel":"031-635-5791","addr":"경기도 이천시 사음동 490","category":"문화.취미 - 민예·공예품"}]},{"lat":"37.295410531","long":"127.41568217","items":[{"name":"최가네감자탕(사음점)","tel":"031-632-3277","addr":"경기도 이천시 사음동 425-2번지","category":"일반휴게음식 - 일반한식"},{"name":"토문방","tel":"031-633-9820","addr":"경기도 이천시 사음동 425-2번지","category":"문화.취미 - 골동품점"},{"name":"토천도예관","tel":"031-635-2304","addr":"경기도 이천시 사음동 425-2번지","category":"문화.취미 - 민예·공예품"}]},{"lat":"37.29920921","long":"127.40891321","items":[{"name":"카페 카펠라","tel":"031-631-3877","addr":"경기도 이천시 사음동 573-1번지","category":"일반휴게음식 - 서양음식"}]},{"lat":"37.294739041","long":"127.41185528","items":[{"name":"카페토루","tel":"031-635-4955","addr":"경기도 이천시 사음동 536번지","category":"일반휴게음식 - 서양음식"},{"name":"카페토루","tel":"031-635-4955","addr":"경기도 이천시 사음동 536번지 1층","category":"일반휴게음식 - 서양음식"},{"name":"토루","tel":"031-635-4955","addr":"경기도 이천시 사음동 536번지","category":"문화.취미 - 민예·공예품"},{"name":"토루","tel":"031-635-4955","addr":"경기도 이천시 사음동 536번지","category":"문화.취미 - 화랑"},{"name":"토월도요","tel":"031-635-5565","addr":"경기도 이천시 사음동 536번지","category":"문화.취미 - 골동품점"}]},{"lat":"37.298349152","long":"127.41010411","items":[{"name":"태관도요","tel":"031-633-2969","addr":"경기도 이천시 사음동 565-2번지","category":"주방용구 - 주방용구"}]},{"lat":"37.295684742","long":"127.41970993","items":[{"name":"파스퇴르유업대리점","tel":"031-633-8567","addr":"경기도 이천시 사음동 201번지","category":"음료식품 - 기타음료식품"}]},{"lat":"37.298570089","long":"127.41135721","items":[{"name":"평화어린이집[아이행복]","tel":"031-694-2366","addr":"경기도 이천시 사음동 586-5번지 서이천교회 1층","category":"학원 - 유아원"}]},{"lat":"37.294662042","long":"127.41844117","items":[{"name":"하이텔포차상회","tel":"031-633-4008","addr":"경기도 이천시 사음동 190-1번지","category":"음료식품 - 기타음료식품"}]},{"lat":"37.289135081","long":"127.41174601","items":[{"name":"한국불교화계사","tel":"031-637-7820","addr":"경기도 이천시 사음동 474-1번지","category":"기타 - 비영리/대상"}]},{"lat":"37.304544227","long":"127.429132","items":[{"name":"한승모터스","tel":"031-637-7875","addr":"경기도 이천시 사음동 16-5번지","category":"자동차정비 유지 - 자동차정비"}]},{"lat":"37.298855729","long":"127.40952035","items":[{"name":"한중명가","tel":"031-633-1324","addr":"경기도 이천시 사음동 575-1번지","category":"일반휴게음식 - 일반한식"}]},{"lat":"37.293575385","long":"127.4122437","items":[{"name":"현대공예사","tel":"031-635-2114","addr":"경기도 이천시 사음동 470-14번지","category":"문화.취미 - 민예·공예품"}]},{"lat":"37.293329551","long":"127.42071194","items":[{"name":"현준판넬","tel":"031-631-7177","addr":"경기도 이천시 사음동 164-18번지","category":"건축자재 - 기타건축자재"}]},{"lat":"37.297660661","long":"127.41118312","items":[{"name":"효천요","tel":"031-635-2638","addr":"경기도 이천시 사음동 582-3번지","category":"문화.취미 - 민예·공예품"}]},{"lat":"37.294079525","long":"127.41496439","items":[{"name":"흙도공","tel":"031-634-7948","addr":"경기도 이천시 사음동 468번지","category":"문화.취미 - 민예·공예품"}]}]