[{"lat":"37.840505655","long":"127.13972013","items":[{"name":"B.T.YArN (비.티.얀)","tel":"031-543-2003","addr":"경기도 포천시 동교동 499-26번지","category":"의류 - 기타의류"}]},{"lat":"37.838943502","long":"127.12661878","items":[{"name":"GS25포천동교점","tel":"","addr":"경기도 포천시 동교동 541-4번지","category":"유통업 영리 - 편 의 점"},{"name":"GS25포천동교점","tel":"031-541-7717","addr":"경기도 포천시 동교동 541-4번지","category":"편의점 - 편의점"},{"name":"GS포천동교점","tel":"541-7717","addr":"경기도 포천시 동교동 541-4번지","category":"소매업 - 편의점"},{"name":"백반전문","tel":"543-8427","addr":"경기도 포천시 동교동 541-4","category":"음식 - 한식"},{"name":"백반전문","tel":"031-543-8427","addr":"경기도 포천시 동교동 541-4번지","category":"일반휴게음식 - 일반한식"},{"name":"신 천보산 쉼터","tel":"031-541-5557","addr":"경기도 포천시 동교동 541-4번지","category":"음료식품 - 기타음료식품"},{"name":"신천보 쉼터","tel":"541-5557","addr":"경기도 포천시 동교동 541-4번지","category":"소매업 - 잡화"},{"name":"우성각","tel":"542-0208","addr":"경기도 포천시 동교동 541-4번지","category":"음식 - 중식"},{"name":"정윤관","tel":"031-541-0305","addr":"경기도 포천시 동교동 541-4번지","category":"일반휴게음식 - 일반한식"},{"name":"정윤관","tel":"541-0305","addr":"경기도 포천시 동교동 541-4번지","category":"음식 - 한식"},{"name":"정윤관","tel":"541-0305","addr":"경기도 포천시 동교동 541-4번지","category":"음식 - 한식"},{"name":"천보산휴게소편의점","tel":"031-541-5557","addr":"경기도 포천시 동교동 541-4번지","category":"음료식품 - 기타음료식품"}]},{"lat":"37.855112244","long":"127.13766773","items":[{"name":"GS25포천차의대","tel":"-","addr":"경기도 포천시 동교동 192번지","category":"편의점 - 편의점"},{"name":"gs차의대점","tel":"","addr":"경기도 포천시 동교동 192번지","category":"편의점 - 편의점"},{"name":"동교무지개송어장","tel":"541-0766","addr":"경기도 포천시 동교동 192번지","category":"음식 - 한식"},{"name":"동교무지개송어장","tel":"031-541-0766","addr":"경기도 포천시 동교동 192번지","category":"일반휴게음식 - 일반한식"}]},{"lat":"37.841005146","long":"127.13625606","items":[{"name":"JH SYSTEM (제이에이치 씨스템)","tel":"031-542-2771","addr":"경기도 포천시 동교동 419-40번지","category":"사무통신 - 컴퓨터"},{"name":"로드스타","tel":"","addr":"경기도 포천시 동교동 419-40번지","category":"도소매 - 편의점"},{"name":"오복한식","tel":"031-543-8887","addr":"경기도 포천시 동교동 419-40번지","category":"일반휴게음식 - 일반한식"},{"name":"크린에어존","tel":"","addr":"경기도 포천시 동교동 419-40번지 1층","category":"신변잡화 - 기타잡화"},{"name":"호남식당","tel":"031-541-2669","addr":"경기도 포천시 동교동 419-40번지","category":"일반휴게음식 - 일반한식"},{"name":"호남식당","tel":"541-2669","addr":"경기도 포천시 동교동 419-40번지","category":"음식 - 한식"}]},{"lat":"37.853777046","long":"127.1312227","items":[{"name":"TROIS POINT (트로이스포인트)","tel":"070-7166-7189","addr":"경기도 포천시 동교동 637번지","category":"문화.취미 - 애완동물"}]},{"lat":"37.843835144","long":"127.12705867","items":[{"name":"가구니","tel":"070-8118-5522","addr":"경기도 포천시 동교동 558-13번지","category":"가구 - 일반가구"}]},{"lat":"37.847252443","long":"127.13287018","items":[{"name":"가진모터스","tel":"031-542-7830","addr":"경기도 포천시 동교동 396-2번지","category":"자동차정비 유지 - 자동차정비"}]},{"lat":"37.842999552","long":"127.13328308","items":[{"name":"경기소방산업","tel":"031-541-5119","addr":"경기도 포천시 동교동 409-1번지 1호","category":"기타 - 기계공구"},{"name":"다인상사","tel":"031-403-8654","addr":"경기도 포천시 동교동 409-1번지","category":"자동차정비 유지 - 윤활유 전문 판매"}]},{"lat":"37.840589128","long":"127.12952984","items":[{"name":"경기연합뉴스","tel":"070-8864-8177","addr":"경기도 포천시 동교동 549-9번지 202호","category":"용역 서비스 - 종합용역"},{"name":"세븐일레븐포천동교점","tel":"","addr":"경기도 포천시 동교동 549-9번지","category":"유통업 영리 - 편 의 점"}]},{"lat":"37.838645053","long":"127.12769751","items":[{"name":"공간","tel":"544-9396","addr":"경기도 포천시 동교동 538-22번지 1층","category":"음식 - 양식"}]},{"lat":"37.847949987","long":"127.12936064","items":[{"name":"극동전기","tel":"031-541-7118","addr":"경기도 포천시 동교동 583-2번지","category":"전기제품 - 기타전기제품"}]},{"lat":"37.84336077","long":"127.12405857","items":[{"name":"기운찬식품","tel":"031-542-0089","addr":"경기도 포천시 동교동 690-17번지","category":"음료식품 - 제과점"},{"name":"태조에프앤디","tel":"-","addr":"경기도 포천시 동교동 690-17번지","category":"음식 - 식품"}]},{"lat":"37.841671713","long":"127.1281684","items":[{"name":"나무그림","tel":"031-541-4022","addr":"경기도 포천시 동교동 553-9번지","category":"건축자재 - 인테리어전문"}]},{"lat":"37.84066923","long":"127.13850485","items":[{"name":"노소리음향방음","tel":"031-543-9008","addr":"경기도 포천시 동교동 499-11번지","category":"건축자재 - 인테리어전문"}]},{"lat":"37.841582488","long":"127.14336892","items":[{"name":"대림화학","tel":"031-541-0842","addr":"경기도 포천시 동교동 79-1번지","category":"기타 - 기타 전문점"}]},{"lat":"37.844975741","long":"127.13042352","items":[{"name":"대원방화문","tel":"031-544-8970","addr":"경기도 포천시 동교동 561-2","category":"기타 - 기타 전문점"}]},{"lat":"37.840695223","long":"127.13139316","items":[{"name":"대한불교일월사","tel":"031-544-8595","addr":"경기도 포천시 동교동 427번지","category":"보건위생 - 기타대인서비스"},{"name":"동교정육식당","tel":"031-544-8595","addr":"경기도 포천시 동교동 427번지","category":"일반휴게음식 - 일반한식"}]},{"lat":"37.857085384","long":"127.13759178","items":[{"name":"더필(The필)","tel":"","addr":"경기도 포천시 동교동 198-1번지 차의과학대학교 212B호","category":"신변잡화 - 기타잡화"},{"name":"엔씨브이아이엔지(주)","tel":"031-542-2027","addr":"경기도 포천시 동교동 198-1번지 포천중문의과대학 1층","category":"일반휴게음식 - 서양음식"},{"name":"토프레소","tel":"070-1111-1111","addr":"경기도 포천시 동교동 198-1번지 차의과학대학교 1층","category":"일반휴게음식 - 서양음식"},{"name":"학생식당","tel":"","addr":"경기도 포천시 동교동 198-1번지 차의과학대학교 1층","category":"일반휴게음식 - 일반한식"}]},{"lat":"37.840312274","long":"127.14327563","items":[{"name":"도원기계","tel":"031-543-4038","addr":"경기도 포천시 동교동 76-10번지","category":"수리서비스 - 기타수리서비스"}]},{"lat":"37.850804626","long":"127.12200283","items":[{"name":"동교 낚시터","tel":"031-543-4332","addr":"경기도 포천시 동교동 산36-2번지","category":"레저업소 - 기타레져업소"},{"name":"동교낚시터","tel":"543-4332","addr":"경기도 포천시 동교동 산36-2번지","category":"도소매 - 매점.낚시용품"}]},{"lat":"37.847587013","long":"127.13175733","items":[{"name":"동교갈비","tel":"031-541-7292","addr":"경기도 포천시 동교동 574-24번지","category":"일반휴게음식 - 일반한식"},{"name":"미니스톱 포천동교점","tel":"031-1577-9621","addr":"경기도 포천시 동교동 574-24번지","category":"유통업 영리 - 편 의 점"},{"name":"미니스톱 포천동교점","tel":"031-1577-9621","addr":"경기도 포천시 동교동 574-24번지","category":"유통업 영리 - 편 의 점"}]},{"lat":"37.840696063","long":"127.13062064","items":[{"name":"동교갈비","tel":"541-7292","addr":"경기도 포천시 동교동 549-23번지 가동 101호","category":"음식 - 한식"}]},{"lat":"37.846193709","long":"127.13700389","items":[{"name":"동교리 손두부","tel":"541-8980","addr":"경기도 포천시 동교동 163-2","category":"음식 - 한식"}]},{"lat":"37.845923363","long":"127.13706021","items":[{"name":"동교리순두부","tel":"070-4922-1261","addr":"경기도 포천시 동교동 163-3번지","category":"일반휴게음식 - 일반한식"}]},{"lat":"37.851200705","long":"127.12233298","items":[{"name":"동교산장","tel":"031-541-4248","addr":"경기도 포천시 동교동 670-2번지","category":"일반휴게음식 - 일반한식"},{"name":"동교산장","tel":"541-4248","addr":"경기도 포천시 동교동 670-2번지","category":"음식 - 한식"}]},{"lat":"37.851308609","long":"127.12253767","items":[{"name":"동교실내낚시터","tel":"031-536-6418","addr":"경기도 포천시 동교동 659-2번지","category":"레저업소 - 기타레져업소"}]},{"lat":"37.847811862","long":"127.13210993","items":[{"name":"동네편의점","tel":"031-541-3384","addr":"경기도 포천시 동교동 366-1번지","category":"유통업 영리 - 슈퍼마켓"}]},{"lat":"37.837395911","long":"127.12467361","items":[{"name":"동방오에이(OA)","tel":"070-7773-9614","addr":"경기도 포천시 동교동 539-18번지","category":"가구 - 일반가구"}]},{"lat":"37.84291742","long":"127.13422589","items":[{"name":"동부기계","tel":"031-542-0065","addr":"경기도 포천시 동교동 410-6번지","category":"기타 - 기계공구"}]},{"lat":"37.841698522","long":"127.144278","items":[{"name":"매일유업(주)포천송우대리점","tel":"031-541-6773","addr":"경기도 포천시 동교동 72-1번지","category":"음료식품 - 기타음료식품"}]},{"lat":"37.840451136","long":"127.14011765","items":[{"name":"먹고나식당","tel":"031-542-6288","addr":"경기도 포천시 동교동 499-28번지","category":"일반휴게음식 - 일반한식"},{"name":"먹고나식당","tel":"542-6288","addr":"경기도 포천시 동교동 499-28번지","category":"음식 - 한식"},{"name":"우리냉동설비","tel":"031-542-9536","addr":"경기도 포천시 동교동 499-28번지","category":"수리서비스 - 기타수리서비스"}]},{"lat":"37.839835983","long":"127.13442491","items":[{"name":"명지상사","tel":"02-469-5043","addr":"경기도 포천시 동교동 510-1번지","category":"유통업 영리 - 기타유통업"}]},{"lat":"37.84089657","long":"127.13666484","items":[{"name":"미락생선구이","tel":"031-542-5864","addr":"경기도 포천시 동교동 431-1번지","category":"일반휴게음식 - 일반한식"}]},{"lat":"37.843395594","long":"127.14149779","items":[{"name":"밈조형연구소","tel":"031-947-5672","addr":"경기도 포천시 동교동 461-1번지","category":"건축자재 - 인테리어전문"}]},{"lat":"37.840617819","long":"127.14392376","items":[{"name":"백미식품","tel":"031-544-6732","addr":"경기도 포천시 동교동 73-9번지","category":"음료식품 - 기타음료식품"}]},{"lat":"37.837891545","long":"127.12456083","items":[{"name":"삼정기업","tel":"031-542-4007","addr":"경기도 포천시 동교동 539-17번지","category":"직물 - 카페트,커튼,천막,지물"}]},{"lat":"37.840251136","long":"127.1337781","items":[{"name":"삼호보일러","tel":"031-542-5395","addr":"경기도 포천시 동교동 511","category":"건축자재 - 보일러·펌프·샷시"}]},{"lat":"37.84097268","long":"127.13306366","items":[{"name":"샛터식당","tel":"541-6779","addr":"경기도 포천시 동교동 423-1","category":"음식 - 한식"},{"name":"샛터식당","tel":"031-541-6779","addr":"경기도 포천시 동교동 423-1번지","category":"일반휴게음식 - 일반한식"}]},{"lat":"37.848586755","long":"127.13203175","items":[{"name":"성은상사","tel":"031-544-2320","addr":"경기도 포천시 동교동 362-1","category":"서적문구 - 과학기자재"}]},{"lat":"37.840949797","long":"127.1292578","items":[{"name":"성진식품","tel":"02-965-0351","addr":"경기도 포천시 동교동 550-2번지","category":"음료식품 - 농·축·수산품"}]},{"lat":"37.840027246","long":"127.13256213","items":[{"name":"세븐호프치킨","tel":"031-541-3030","addr":"경기도 포천시 동교동 513-2","category":"일반휴게음식 - 스넥"},{"name":"우성각","tel":"031-542-0208","addr":"경기도 포천시 동교동 513-2","category":"일반휴게음식 - 중국식"}]},{"lat":"37.845002846","long":"127.1384219","items":[{"name":"송우현대자동차공업사","tel":"031-541-3189","addr":"경기도 포천시 동교동 159-7번지","category":"자동차정비 유지 - 자동차정비"}]},{"lat":"37.846836904","long":"127.13386927","items":[{"name":"신대성산업가스","tel":"","addr":"경기도 포천시 동교동 390-2번지","category":"연료판매점 - LPG 취급점"}]},{"lat":"37.840638198","long":"127.13408552","items":[{"name":"씨스페이스포천동교점","tel":"031-544-4135","addr":"경기도 포천시 동교동 430-8번지 외1필지","category":"유통업 영리 - 편 의 점"},{"name":"투바위","tel":"544-5517","addr":"경기도 포천시 동교동 430-8번지","category":"음식 - 한식"},{"name":"투바위","tel":"031-544-5517","addr":"경기도 포천시 동교동 430-8번지","category":"일반휴게음식 - 일반한식"},{"name":"해피타임","tel":"031-544-4135","addr":"경기도 포천시 동교동 430-8번지 외1필지","category":"유통업 영리 - 편 의 점"}]},{"lat":"37.838863558","long":"127.12552805","items":[{"name":"씨유포천동교제일점","tel":"080-080-3663","addr":"경기도 포천시 동교동 540번지 왼쪽상가","category":"유통업 영리 - 편 의 점"},{"name":"일등엔지니어링","tel":"031-543-8067","addr":"경기도 포천시 동교동 540번지","category":"수리서비스 - 기타수리서비스"},{"name":"트윈스가구","tel":"031-543-7760","addr":"경기도 포천시 동교동 540번지","category":"가구 - 일반가구"},{"name":"트윈스가구","tel":"","addr":"경기도 포천시 동교동 540","category":"도소매 - 가구"}]},{"lat":"37.840033004","long":"127.1272227","items":[{"name":"엄마손맛그대로","tel":"543-9791","addr":"경기도 포천시 동교동 542-12번지","category":"음식 - 한식"},{"name":"엄마손맛그대로","tel":"031-543-9791","addr":"경기도 포천시 동교동 542-12번지","category":"일반휴게음식 - 일반한식"}]},{"lat":"37.840416548","long":"127.13886793","items":[{"name":"영광파이프","tel":"031-542-7806","addr":"경기도 포천시 동교동 499-22번지","category":"건축자재 - 기타건축자재"}]},{"lat":"37.84045185","long":"127.13950418","items":[{"name":"예손침장","tel":"031-535-9936","addr":"경기도 포천시 동교동 499-24번지","category":"직물 - 침구·수예점"}]},{"lat":"37.840561795","long":"127.12981381","items":[{"name":"오늘도 맛있는 밥상","tel":"031-541-8500","addr":"경기도 포천시 동교동 549-10번지","category":"일반휴게음식 - 일반한식"},{"name":"오늘도맛있는밥상","tel":"541-8500","addr":"경기도 포천시 동교동 549-10번지","category":"음식 - 한식"}]},{"lat":"37.84092182","long":"127.1382213","items":[{"name":"윌리 하우스","tel":"031-000-0000","addr":"경기도 포천시 동교동 499-7번지","category":"가구 - 일반가구"},{"name":"윌리하우스","tel":"544-7920","addr":"경기도 포천시 동교동 499-7","category":"제조업 - 가구"}]},{"lat":"37.846057676","long":"127.12967553","items":[{"name":"유니크 커텐&블라인드","tel":"02-2263-8440","addr":"경기도 포천시 동교동 567-10번지","category":"직물 - 카페트,커튼,천막,지물"}]},{"lat":"37.840999129","long":"127.13358629","items":[{"name":"장수동","tel":"031-1111-1111","addr":"경기도 포천시 동교동 421-1번지 1층 (2,4호)","category":"용역 서비스 - 부동산 중개·임대"}]},{"lat":"37.840562454","long":"127.12920033","items":[{"name":"정담은 미니족발","tel":"","addr":"경기도 포천시 동교동 549번지","category":"소매업 - 족발"},{"name":"정담은 미니족발","tel":"","addr":"경기도 포천시 동교동 549번지","category":"음료식품 - 기타음료식품"},{"name":"한신공압","tel":"031-541-7802","addr":"경기도 포천시 동교동 549번지","category":"건축자재 - 보일러·펌프·샷시"}]},{"lat":"37.854393792","long":"127.13564386","items":[{"name":"주식회사 라룩스코리아","tel":"070-5043-8198","addr":"경기도 포천시 동교동 293-1번지","category":"용역 서비스 - 소프트웨어"}]},{"lat":"37.843307646","long":"127.13167036","items":[{"name":"주식회사 청한","tel":"031-541-6979","addr":"경기도 포천시 동교동 409-9,2동","category":"숙박업 - 여관/기타숙박업"}]},{"lat":"37.849867306","long":"127.12234219","items":[{"name":"천보산가든","tel":"031-541-5888","addr":"경기도 포천시 동교동 673-3번지 1-2동 1층","category":"일반휴게음식 - 일반한식"}]},{"lat":"37.84045046","long":"127.14069704","items":[{"name":"천보자동차공업사","tel":"031-541-3228","addr":"경기도 포천시 동교동 500번지","category":"자동차정비 유지 - 자동차정비"}]},{"lat":"37.842701734","long":"127.12536399","items":[{"name":"천일직물","tel":"031-541-2230","addr":"경기도 포천시 동교동 687-5번지","category":"회원제형태 - 기타4"}]},{"lat":"37.850228187","long":"127.12184284","items":[{"name":"체형관리 운동지도사","tel":"031-542-1795","addr":"경기도 포천시 동교동 671번지","category":"보건위생 - 피부미용실"}]},{"lat":"37.841362795","long":"127.13864245","items":[{"name":"탑고무사","tel":"031-541-4146","addr":"경기도 포천시 동교동 499-1번지","category":"직물 - 옷감·직물"}]},{"lat":"37.840778775","long":"127.13725538","items":[{"name":"태광엔지니어링","tel":"031-543-1212","addr":"경기도 포천시 동교동 432-2번지","category":"기타 - 기계공구"}]},{"lat":"37.845224267","long":"127.11647226","items":[{"name":"투바위고개식당","tel":"","addr":"경기도 포천시 동교동 25-5","category":"일반휴게음식 - 일반한식"}]},{"lat":"37.839366513","long":"127.12702846","items":[{"name":"투바위비닐포장","tel":"031-544-9788","addr":"경기도 포천시 동교동 542-7번지","category":"유통업 영리 - 기타유통업"},{"name":"투바위비닐포장","tel":"544-9788","addr":"경기도 포천시 동교동 542-7번지","category":"도소매 - 잡화"},{"name":"투바위카센타","tel":"031-542-2861","addr":"경기도 포천시 동교동 542-7번지","category":"자동차정비 유지 - 자동차정비"},{"name":"한일종합공사","tel":"031-836-7736","addr":"경기도 포천시 동교동 542-7번지","category":"건축자재 - 인테리어전문"}]},{"lat":"37.840949663","long":"127.14517406","items":[{"name":"푸른언덕","tel":"541-0184","addr":"경기도 포천시 동교동 75-11번지","category":"음식 - 한식"},{"name":"푸른언덕","tel":"031-541-0184","addr":"경기도 포천시 동교동 75-11번지","category":"일반휴게음식 - 일반한식"}]},{"lat":"37.840395878","long":"127.15572696","items":[{"name":"하나천막","tel":"031-535-3563","addr":"경기도 포천시 동교동 2-13번지","category":"직물 - 카페트,커튼,천막,지물"}]},{"lat":"37.840862131","long":"127.12697416","items":[{"name":"한신크린에어","tel":"031-541-2113","addr":"경기도 포천시 동교동 556-13번지","category":"기타 - 기계공구"}]},{"lat":"37.840337219","long":"127.12919995","items":[{"name":"홍천상회","tel":"031-541-3432","addr":"경기도 포천시 동교동 547-3번지","category":"유통업 영리 - 슈퍼마켓"}]},{"lat":"37.848752236","long":"127.1289757","items":[{"name":"화창기업사","tel":"031-543-7923","addr":"경기도 포천시 동교동 582-7번지","category":"기타 - 기타 전문점"}]}]