[{"lat":"37.684384364","long":"127.19456333","items":[{"name":"(주) 웰빈","tel":"031-574-6747","addr":"경기도 남양주시 진건읍 용정리 36-14번지 2층","category":"음료식품 - 기타음료식품"},{"name":"드래곤즈","tel":"031-575-4105","addr":"경기도 남양주시 진건읍 용정리 36-14번지 가동","category":"문화.취미 - 수족관"}]},{"lat":"37.654721467","long":"127.17922258","items":[{"name":"(주)가나다건축사사무소","tel":"031-528-8858","addr":"경기도 남양주시 진건읍 용정리 794-124번지 광인빌딩 602호","category":"용역 서비스 - 사무서비스"},{"name":"남북통일","tel":"031-528-5310","addr":"경기도 남양주시 진건읍 용정리 794-124번지 2층","category":"일반휴게음식 - 일반한식"},{"name":"노바악기","tel":"031-1566-7127","addr":"경기도 남양주시 진건읍 용정리 794-124번지 지층","category":"레져용품 - 악기점"},{"name":"세븐일레븐진건중학교점","tel":"","addr":"경기도 남양주시 진건읍 용정리 794-124번지 외1필지","category":"유통업 영리 - 편 의 점"},{"name":"이박사약국","tel":"031-571-8075","addr":"경기도 남양주시 진건읍 용정리 794-124번지 101호","category":"약국 - 약국"},{"name":"제이원학원","tel":"031-529-2990","addr":"경기도 남양주시 진건읍 용정리 794-124번지 외1필지 6층","category":"학원 - 보습학원"},{"name":"콜라겐하우스","tel":"031-574-4597","addr":"경기도 남양주시 진건읍 용정리 794-124번지 1층","category":"일반휴게음식 - 일반한식"}]},{"lat":"37.680743188","long":"127.18974743","items":[{"name":"(주)나눔터","tel":"031-572-2300","addr":"경기도 남양주시 진건읍 용정리 110-2번지 1층","category":"사무통신 - 기타 사무용품"}]},{"lat":"37.656994628","long":"127.17739208","items":[{"name":"(주)나진건설","tel":"031-592-7554","addr":"경기도 남양주시 진건읍 용정리 775-34번지","category":"용역 서비스 - 기타용역서비스"},{"name":"더 삼성통닭","tel":"031-529-9511","addr":"경기도 남양주시 진건읍 용정리 775-34번지 1층","category":"일반휴게음식 - 스넥"},{"name":"티엔엠","tel":"031-1544-0393","addr":"경기도 남양주시 진건읍 용정리 775-34번지 3층 1호","category":"용역 서비스 - 종합용역"}]},{"lat":"37.655999955","long":"127.17981488","items":[{"name":"(주)대성관광","tel":"031-574-3395","addr":"경기도 남양주시 진건읍 용정리 794-4번지 2층","category":"여행 - 고속버스"}]},{"lat":"37.684694067","long":"127.19799917","items":[{"name":"(주)대진보일러","tel":"031-573-5144","addr":"경기도 남양주시 진건읍 용정리 35-5번지 2층","category":"건축자재 - 보일러·펌프·샷시"},{"name":"세원용접기","tel":"031-574-7208","addr":"경기도 남양주시 진건읍 용정리 35-5번지 2층","category":"기타 - 기계공구"},{"name":"효승보일러","tel":"031-573-5114","addr":"경기도 남양주시 진건읍 용정리 35-5","category":"건축자재 - 보일러·펌프·샷시"}]},{"lat":"37.680274656","long":"127.19536895","items":[{"name":"(주)더이앤토","tel":"031-529-9964","addr":"경기도 남양주시 진건읍 용정리 23-4번지","category":"서적문구 - 완구점"}]},{"lat":"37.680075758","long":"127.1901992","items":[{"name":"(주)마이오투존","tel":"031-527-2370","addr":"경기도 남양주시 진건읍 용정리 155-5번지","category":"전기제품 - 기타전기제품"}]},{"lat":"37.680325823","long":"127.19158283","items":[{"name":"(주)미림테크","tel":"031-575-8132","addr":"경기도 남양주시 진건읍 용정리 121번지","category":"건축자재 - 인테리어전문"},{"name":"스마일휠","tel":"031-528-7568","addr":"경기도 남양주시 진건읍 용정리 121번지","category":"기타 - 기계공구"},{"name":"스마트휠","tel":"031-528-7568","addr":"경기도 남양주시 진건읍 용정리 121번지 1동","category":"자동차정비 유지 - 카인테리어"}]},{"lat":"37.656720607","long":"127.17989592","items":[{"name":"(주)슬리테크","tel":"031-576-8362","addr":"경기도 남양주시 진건읍 용정리 786-17번지 17 상가 2층","category":"음료식품 - 기타음료식품"}]},{"lat":"37.685412765","long":"127.1992481","items":[{"name":"(주)앤디","tel":"02-3446-3245","addr":"경기도 남양주시 진건읍 용정리 34-31","category":"보건위생 - 의료용품"},{"name":"ND향기로","tel":"02-3446-3245","addr":"경기도 남양주시 진건읍 용정리 34-31","category":"보건위생 - 화장품"}]},{"lat":"37.680051328","long":"127.18855541","items":[{"name":"(주)에코폰아이엔씨","tel":"02-333-3877","addr":"경기도 남양주시 진건읍 용정리 173-2번지 2동","category":"사무통신 - 통신기기"}]},{"lat":"37.66446719","long":"127.18691853","items":[{"name":"(주)해동글로벌","tel":"","addr":"경기도 남양주시 진건읍 용정리 444-1번지","category":"신변잡화 - 기타잡화"},{"name":"천마산","tel":"031-573-9209","addr":"경기도 남양주시 진건읍 용정리 444-1번지","category":"음료식품 - 기타음료식품"},{"name":"황제인터내셔널","tel":"031-527-3014","addr":"경기도 남양주시 진건읍 용정리 444-1번지","category":"음료식품 - 농·축·수산품"}]},{"lat":"37.655388756","long":"127.17883886","items":[{"name":"180도 모가비","tel":"031-529-7042","addr":"경기도 남양주시 진건읍 용정리 794-90번지 1층 102호","category":"보건위생 - 미용원"},{"name":"옷이 날개","tel":"031-510-6000","addr":"경기도 남양주시 진건읍 용정리 794-90번지 101호","category":"의류 - 정장"}]},{"lat":"37.670385239","long":"127.18774924","items":[{"name":"21블럭 (21block)","tel":"031-529-6056","addr":"경기도 남양주시 진건읍 용정리 270-2번지 창고 1","category":"가구 - 기타가구"},{"name":"참 모터스","tel":"031-560-3223","addr":"경기도 남양주시 진건읍 용정리 270-2번지 B동 1층","category":"자동차정비 유지 - 자동차부품"}]},{"lat":"37.65585768","long":"127.17855665","items":[{"name":"2층노래연습장","tel":"031-575-8544","addr":"경기도 남양주시 진건읍 용정리 794-63번지 2층","category":"레저업소 - 노 래 방"}]},{"lat":"37.658165026","long":"127.17797279","items":[{"name":"59피자","tel":"031-528-5958","addr":"경기도 남양주시 진건읍 용정리 774-17번지 1층","category":"일반휴게음식 - 서양음식"},{"name":"강무합기도사능도장","tel":"031-574-3002","addr":"경기도 남양주시 진건읍 용정리 774-17번지 용정빌딩 2층","category":"학원 - 예·체능계학원"},{"name":"더블유헤어","tel":"031-572-0599","addr":"경기도 남양주시 진건읍 용정리 774-17번지 1호","category":"보건위생 - 미용원"},{"name":"더페이스샵 진건점","tel":"031-575-5160","addr":"경기도 남양주시 진건읍 용정리 774-17번지 103호","category":"보건위생 - 화장품"},{"name":"뚜레쥬르 남양주진건","tel":"031-575-2203","addr":"경기도 남양주시 진건읍 용정리 774-17 1층6호7호","category":"음료식품 - 제과점"},{"name":"수라간","tel":"031-573-2865","addr":"경기도 남양주시 진건읍 용정리 774-17번지","category":"음료식품 - 기타음료식품"},{"name":"아리랑수제핫도그(진건점)","tel":"031-510-1271","addr":"경기도 남양주시 진건읍 용정리 774-17번지 1층 104호","category":"일반휴게음식 - 일반한식"},{"name":"은성학원","tel":"031-573-0887","addr":"경기도 남양주시 진건읍 용정리 774-17번지 용정빌딩 3층","category":"학원 - 보습학원"},{"name":"팀건복싱","tel":"070-5033-1282","addr":"경기도 남양주시 진건읍 용정리 774-17번지 4층","category":"레저업소 - 헬스클럽"}]},{"lat":"37.655973639","long":"127.17933886","items":[{"name":"AMUSE 네일","tel":"","addr":"경기도 남양주시 진건읍 용정리 794-12번지 진건우체국 1층 1호","category":"보건위생 - 피부미용실"},{"name":"브릭스","tel":"","addr":"경기도 남양주시 진건읍 용정리 794-12번지 진건우체국 지하 1호","category":"일반휴게음식 - 주점"},{"name":"산울림노래방","tel":"031-573-9950","addr":"경기도 남양주시 진건읍 용정리 794-12번지 지하","category":"레저업소 - 노 래 방"},{"name":"주수미머리하는날","tel":"031-592-9169","addr":"경기도 남양주시 진건읍 용정리 794-12","category":"보건위생 - 미용원"}]},{"lat":"37.657417259","long":"127.17794837","items":[{"name":"CXC월드퓨젼스토아","tel":"031-573-4578","addr":"경기도 남양주시 진건읍 용정리 779-7번지 롯데리아 201호","category":"음료식품 - 기타음료식품"},{"name":"롯데리아진건점","tel":"031-527-3977","addr":"경기도 남양주시 진건읍 용정리 779-7번지","category":"일반휴게음식 - 일반한식"},{"name":"본죽사능점","tel":"031-528-6233","addr":"경기도 남양주시 진건읍 용정리 779-7번지","category":"일반휴게음식 - 일반한식"},{"name":"블루컷","tel":"031-516-6127","addr":"경기도 남양주시 진건읍 용정리 779-7","category":"보건위생 - 미용원"},{"name":"지앤비사능영어학원","tel":"031-575-0522","addr":"경기도 남양주시 진건읍 용정리 779-7번지","category":"회원제형태 - 학원"},{"name":"키친앤리빙(삼흥)","tel":"031-575-0187","addr":"경기도 남양주시 진건읍 용정리 779-7번지 1층","category":"주방용구 - 주방용구"}]},{"lat":"37.658133587","long":"127.18091922","items":[{"name":"D.S 푸드대왕","tel":"","addr":"경기도 남양주시 진건읍 용정리 785-35번지 가동 3호","category":"음료식품 - 기타음료식품"},{"name":"대영닭곰탕","tel":"070-8151-7879","addr":"경기도 남양주시 진건읍 용정리 785-35번지 1층","category":"일반휴게음식 - 일반한식"},{"name":"미인스킨앤바디","tel":"070-8263-5148","addr":"경기도 남양주시 진건읍 용정리 785-35번지 가동 4호","category":"보건위생 - 피부미용실"},{"name":"백지연헤어라인","tel":"031-574-4730","addr":"경기도 남양주시 진건읍 용정리 785-35번지","category":"보건위생 - 미용원"},{"name":"스킨하이","tel":"070-4300-1050","addr":"경기도 남양주시 진건읍 용정리 785-35번지 가동 102호","category":"보건위생 - 화장품"},{"name":"이모네반찬","tel":"031-529-5824","addr":"경기도 남양주시 진건읍 용정리 785-35번지 101호","category":"음료식품 - 기타음료식품"}]},{"lat":"37.679382018","long":"127.19019745","items":[{"name":"GS25용정공단점","tel":"02-2006-2118","addr":"경기도 남양주시 진건읍 용정리 148-3","category":"유통업 영리 - 편 의 점"}]},{"lat":"37.656551625","long":"127.1784223","items":[{"name":"GS25진건사랑점","tel":"","addr":"경기도 남양주시 진건읍 용정리 796-4번지","category":"유통업 영리 - 편 의 점"},{"name":"엄마네옷방","tel":"031-594-5683","addr":"경기도 남양주시 진건읍 용정리 796-4","category":"의류 - 정장"},{"name":"이원용치과의원","tel":"031-573-7741","addr":"경기도 남양주시 진건읍 용정리 796-4번지","category":"의원 - 치과의원"}]},{"lat":"37.6568306","long":"127.18458785","items":[{"name":"GS25진건주공점","tel":"","addr":"경기도 남양주시 진건읍 용정리 856번지 101~102호(상가)","category":"유통업 영리 - 편 의 점"}]},{"lat":"37.657305024","long":"127.18070192","items":[{"name":"J&S헤어캘러리","tel":"031-574-7730","addr":"경기도 남양주시 진건읍 용정리 786-43번지","category":"보건위생 - 미용원"},{"name":"드림팩토리","tel":"031-527-4911","addr":"경기도 남양주시 진건읍 용정리 786-43번지","category":"건축자재 - 조명기구"}]},{"lat":"37.655667598","long":"127.17914549","items":[{"name":"JK댄스스쿨","tel":"031-553-1374","addr":"경기도 남양주시 진건읍 용정리 794-32번지 2층","category":"회원제형태 - 레져업소"},{"name":"화인하우스가구","tel":"031-574-0408","addr":"경기도 남양주시 진건읍 용정리 794-32","category":"가구 - 일반가구"}]},{"lat":"37.657635951","long":"127.17628298","items":[{"name":"J골프존","tel":"031-557-0753","addr":"경기도 남양주시 진건읍 용정리 722-8번지 5층","category":"레저업소 - 스크린골프"},{"name":"꿈의궁전","tel":"070-8150-3879","addr":"경기도 남양주시 진건읍 용정리 722-8번지","category":"일반휴게음식 - 주점"},{"name":"동성당구장","tel":"031-000-0000","addr":"경기도 남양주시 진건읍 용정리 722-8번지 동구빌딩 301호","category":"레저업소 - 당 구 장"},{"name":"동성종합공구","tel":"031-574-0945","addr":"경기도 남양주시 진건읍 용정리 722-8번지","category":"기타 - 기계공구"},{"name":"샤넬노래연습장","tel":"031-558-9663","addr":"경기도 남양주시 진건읍 용정리 722-8번지 지하층","category":"레저업소 - 노 래 방"},{"name":"육공판 축산물 도매센터","tel":"031-574-6092","addr":"경기도 남양주시 진건읍 용정리 722-8번지 102호","category":"음료식품 - 정육점"},{"name":"육공판사릉점","tel":"031-574-6092","addr":"경기도 남양주시 진건읍 용정리 722-8번지 1층 일부","category":"일반휴게음식 - 일반한식"},{"name":"지니휘트니스","tel":"031-572-9899","addr":"경기도 남양주시 진건읍 용정리 722-8번지 동구빌딩 2층","category":"레저업소 - 헬스클럽"},{"name":"크라운담배잎","tel":"031-527-3112","addr":"경기도 남양주시 진건읍 용정리 722-8번지","category":"음료식품 - 기타음료식품"}]},{"lat":"37.659194786","long":"127.17617328","items":[{"name":"J인테리어","tel":"02-1670-6704","addr":"경기도 남양주시 진건읍 용정리 806-10번지","category":"건축자재 - 인테리어전문"},{"name":"필로프린트","tel":"031-925-3610","addr":"경기도 남양주시 진건읍 용정리 806-10번지","category":"문화.취미 - 화방·표구점"}]},{"lat":"37.657696642","long":"127.17789236","items":[{"name":"KCT","tel":"031-527-9356","addr":"경기도 남양주시 진건읍 용정리 780-4번지 심미에셈빌 3층 103호","category":"문화.취미 - 문화취미기타"},{"name":"국제전기통신(주)","tel":"031-553-6677","addr":"경기도 남양주시 진건읍 용정리 780-4 심미에셈빌406호~407호","category":"전기제품 - 기타전기제품"},{"name":"네일앤미니","tel":"070-8210-3012","addr":"경기도 남양주시 진건읍 용정리 780-4번지 심미에셈빌 308호 일부","category":"보건위생 - 피부미용실"},{"name":"리코플라워케이크","tel":"02-1111-1111","addr":"경기도 남양주시 진건읍 용정리 780-4번지 심미에셈빌 1층 108호","category":"일반휴게음식 - 일반한식"},{"name":"미요가","tel":"031-574-3553","addr":"경기도 남양주시 진건읍 용정리 780-4번지 심미에셈빌 309호","category":"회원제형태 - 레져업소"},{"name":"봉구스밥버거 사능점","tel":"031-595-0116","addr":"경기도 남양주시 진건읍 용정리 780-4번지 심미에셈빌 101호","category":"일반휴게음식 - 일반한식"},{"name":"빨리강해지는수학교습소","tel":"031-515-8287","addr":"경기도 남양주시 진건읍 용정리 780-4번지 심미에셈빌 210호","category":"학원 - 기타 교육기관"},{"name":"스마일꽈배기","tel":"031-111-1111","addr":"경기도 남양주시 진건읍 용정리 780-4번지 심미에셈빌 104호","category":"일반휴게음식 - 일반한식"},{"name":"스터디클리닉학원","tel":"031-574-3911","addr":"경기도 남양주시 진건읍 용정리 780-4번지 외1필지 심미에셈빌 2층","category":"회원제형태 - 학원"},{"name":"엠베스트SE진건학원","tel":"031-528-0549","addr":"경기도 남양주시 진건읍 용정리 780-4번지 심미에셈빌 402호","category":"학원 - 보습학원"},{"name":"유정","tel":"031-527-2573","addr":"경기도 남양주시 진건읍 용정리 780-4번지 심미에셈빌 109호","category":"의류 - 내의판매"},{"name":"제이비건설 주식회사","tel":"031-572-0482","addr":"경기도 남양주시 진건읍 용정리 780-4번지 심미에셈빌 2층 204호","category":"용역 서비스 - 기타용역서비스"},{"name":"주주미용재료","tel":"031-574-3376","addr":"경기도 남양주시 진건읍 용정리 780-4번지 심미에셈빌 상가 1층 111호","category":"보건위생 - 미용재료"},{"name":"진우네옛날통닭","tel":"031-574-9277","addr":"경기도 남양주시 진건읍 용정리 780-4번지 105,106호","category":"일반휴게음식 - 스넥"},{"name":"크린토피아 (사능점)","tel":"031-529-3242","addr":"경기도 남양주시 진건읍 용정리 780-4번지 심미에셈빌 107호","category":"수리서비스 - 세탁소"},{"name":"태조","tel":"070-8183-1800","addr":"경기도 남양주시 진건읍 용정리 780-4번지 심미에셈빌 3층 304호","category":"신변잡화 - 기타잡화"},{"name":"해충크리닉","tel":"031-515-6004","addr":"경기도 남양주시 진건읍 용정리 780-4번지 심미에셈빌 213호","category":"용역 서비스 - 종합용역"},{"name":"행복한 식당","tel":"031-573-7760","addr":"경기도 남양주시 진건읍 용정리 780-4번지 심미에셈빌 124호,125호,126호","category":"일반휴게음식 - 일반한식"},{"name":"호성상사","tel":"070-8152-3535","addr":"경기도 남양주시 진건읍 용정리 780-4번지 심미에셈빌 121호,123호","category":"주방용구 - 주방용식기"}]},{"lat":"37.657752142","long":"127.17691788","items":[{"name":"K공조","tel":"031-1522-3558","addr":"경기도 남양주시 진건읍 용정리 775-9번지 101호","category":"전기제품 - 냉열기기"}]},{"lat":"37.658025356","long":"127.17492396","items":[{"name":"OK노래연습장","tel":"070-8160-0238","addr":"경기도 남양주시 진건읍 용정리 800-4번지 금강빌딩 201호","category":"레저업소 - 노 래 방"},{"name":"스카이 노래연습장","tel":"031-000-0000","addr":"경기도 남양주시 진건읍 용정리 800-4번지 금강빌딩 301호","category":"레저업소 - 노 래 방"},{"name":"옛날솥뚜껑삼겹살","tel":"031-573-2791","addr":"경기도 남양주시 진건읍 용정리 800-4번지 금강빌딩 105호","category":"일반휴게음식 - 일반한식"},{"name":"오향족발(진건점)","tel":"031-529-2366","addr":"경기도 남양주시 진건읍 용정리 800-4번지 금강빌딩 103호","category":"일반휴게음식 - 일반한식"},{"name":"추억의닭발","tel":"031-529-9285","addr":"경기도 남양주시 진건읍 용정리 800-4번지 금강빌딩","category":"일반휴게음식 - 일반한식"},{"name":"프리즐PC방","tel":"070-4764-7196","addr":"경기도 남양주시 진건읍 용정리 800-4번지 401호,402호","category":"레저업소 - 기타레져업소"},{"name":"형제네밥집","tel":"031-521-7612","addr":"경기도 남양주시 진건읍 용정리 800-4번지 금강빌딩 104호","category":"일반휴게음식 - 일반한식"}]},{"lat":"37.656441648","long":"127.17966861","items":[{"name":"SJ헤어","tel":"031-575-4909","addr":"경기도 남양주시 진건읍 용정리 786-53","category":"보건위생 - 미용원"},{"name":"드림라이브","tel":"031-575-5089","addr":"경기도 남양주시 진건읍 용정리 786-53번지","category":"일반휴게음식 - 주점"},{"name":"우리밥상","tel":"031-529-3314","addr":"경기도 남양주시 진건읍 용정리 786-53","category":"일반휴게음식 - 일반한식"}]},{"lat":"37.655749226","long":"127.17878304","items":[{"name":"가람화원","tel":"031-573-5722","addr":"경기도 남양주시 진건읍 용정리 794-61번지","category":"문화.취미 - 화원"},{"name":"김영규법무사사무소","tel":"031-575-6400","addr":"경기도 남양주시 진건읍 용정리 794-61, 794-97 2층","category":"용역 서비스 - 법률회계서비스(개인)"},{"name":"디바","tel":"031-574-9742","addr":"경기도 남양주시 진건읍 용정리 794-61번지 1층","category":"보건위생 - 미용원"}]},{"lat":"37.66027586","long":"127.17623245","items":[{"name":"가위소리","tel":"031-528-1528","addr":"경기도 남양주시 진건읍 용정리 761-5번지 1층","category":"보건위생 - 미용원"},{"name":"보아라 갸또","tel":"","addr":"경기도 남양주시 진건읍 용정리 761-5번지 102호","category":"음료식품 - 기타음료식품"},{"name":"유가네칼국수&돈가스","tel":"031-573-6661","addr":"경기도 남양주시 진건읍 용정리 761-5번지 105호","category":"일반휴게음식 - 일반한식"},{"name":"이데스포츠(IDEE SPORTS)","tel":"02-478-0441","addr":"경기도 남양주시 진건읍 용정리 761-5번지 동해빌딩 301호","category":"레져용품 - 스포츠·레져용품"}]},{"lat":"37.658141721","long":"127.17544553","items":[{"name":"가족공인중개사사무소","tel":"031-573-8400","addr":"경기도 남양주시 진건읍 용정리 799-1번지","category":"용역 서비스 - 부동산 중개·임대"},{"name":"쇼미더코인","tel":"","addr":"경기도 남양주시 진건읍 용정리 799-1번지 지하층","category":"레저업소 - 노 래 방"},{"name":"진성기획인쇄","tel":"031-528-3321","addr":"경기도 남양주시 진건읍 용정리 799-1번지","category":"용역 서비스 - 종합용역"}]},{"lat":"37.684745484","long":"127.19411079","items":[{"name":"간판THE하기","tel":"031-559-0658","addr":"경기도 남양주시 진건읍 용정리 40-3번지","category":"건축자재 - 인테리어전문"}]},{"lat":"37.656191694","long":"127.17811547","items":[{"name":"강원유통","tel":"031-529-8827","addr":"경기도 남양주시 진건읍 용정리 794-142번지","category":"음료식품 - 정육점"}]},{"lat":"37.660032899","long":"127.17602789","items":[{"name":"강화도어 방화문 유리문 시공수리","tel":"070-4104-7514","addr":"경기도 남양주시 진건읍 용정리 809번지 한보하이츠2차 1동 402호","category":"건축자재 - 기타건축자재"}]},{"lat":"37.657112367","long":"127.18297931","items":[{"name":"개별화물","tel":"031-527-1852","addr":"경기도 남양주시 진건읍 용정리 367-42번지 성신빌라 마동 403호","category":"용역 서비스 - 기타용역서비스"}]},{"lat":"37.681943256","long":"127.1886168","items":[{"name":"개울가슈퍼","tel":"031-527-3273","addr":"경기도 남양주시 진건읍 용정리 101-2번지 용정1리경로당","category":"유통업 영리 - 슈퍼마켓"},{"name":"씨유진건용정공단점","tel":"080-080-3663","addr":"경기도 남양주시 진건읍 용정리 101-2번지 1층","category":"유통업 영리 - 편 의 점"}]},{"lat":"37.663332753","long":"127.18641706","items":[{"name":"거성","tel":"031-595-2183","addr":"경기도 남양주시 진건읍 용정리 401번지 CJ인터내셔널","category":"기타 - 기타 전문점"}]},{"lat":"37.66627924","long":"127.18031531","items":[{"name":"경기상사","tel":"031-528-4377","addr":"경기도 남양주시 진건읍 용정리 692-4번지","category":"건축자재 - 조명기구"}]},{"lat":"37.658023704","long":"127.18208623","items":[{"name":"경진축산물","tel":"031-527-7946","addr":"경기도 남양주시 진건읍 용정리 790 한신상가 105","category":"음료식품 - 정육점"},{"name":"다빈치미술교습소","tel":"031-573-6978","addr":"경기도 남양주시 진건읍 용정리 790 한신상가202호","category":"학원 - 예·체능계학원"},{"name":"시저스벨리","tel":"070-4224-9956","addr":"경기도 남양주시 진건읍 용정리 790 한신상가1층106호","category":"보건위생 - 미용원"}]},{"lat":"37.655918664","long":"127.17995068","items":[{"name":"경춘떡방앗간","tel":"031-513-3484","addr":"경기도 남양주시 진건읍 용정리 794-21번지 1층","category":"일반휴게음식 - 일반한식"},{"name":"경춘떡방앗간","tel":"031-573-8173","addr":"경기도 남양주시 진건읍 용정리 794-21번지 1층","category":"음료식품 - 제과점"},{"name":"구찌노래연습장","tel":"031-574-3434","addr":"경기도 남양주시 진건읍 용정리 794-21번지 지하1층","category":"레저업소 - 노 래 방"},{"name":"사랑방당구장","tel":"","addr":"경기도 남양주시 진건읍 용정리 794-21번지","category":"레저업소 - 당 구 장"}]},{"lat":"37.666772965","long":"127.18736625","items":[{"name":"경춘상회","tel":"070-3342-2487","addr":"경기도 남양주시 진건읍 용정리 450번지","category":"음료식품 - 농·축·수산품"}]},{"lat":"37.660057706","long":"127.17753524","items":[{"name":"경희대 B.T.A 태권도","tel":"031-573-2772","addr":"경기도 남양주시 진건읍 용정리 757번지","category":"학원 - 예·체능계학원"},{"name":"동대문곱창","tel":"031-591-0707","addr":"경기도 남양주시 진건읍 용정리 757번지 205호","category":"일반휴게음식 - 일반한식"},{"name":"쏠 안경원","tel":"031-572-8189","addr":"경기도 남양주시 진건읍 용정리 757번지","category":"보건위생 - 안경"},{"name":"아이파크공인중개사무소","tel":"031-575-8889","addr":"경기도 남양주시 진건읍 용정리 757번지 202호","category":"용역 서비스 - 부동산 중개·임대"},{"name":"청하헤어샵","tel":"070-8950-8617","addr":"경기도 남양주시 진건읍 용정리 757번지 201호","category":"보건위생 - 미용원"},{"name":"황토방","tel":"031-527-2548","addr":"경기도 남양주시 진건읍 용정리 757번지","category":"일반휴게음식 - 일반한식"},{"name":"황토방","tel":"031-527-2548","addr":"경기도 남양주시 진건읍 용정리 757번지","category":"일반휴게음식 - 일반한식"}]},{"lat":"37.656551001","long":"127.1788416","items":[{"name":"경희보성한의원","tel":"031-573-2211","addr":"경기도 남양주시 진건읍 용정리 781-4번지","category":"의원 - 한의원"},{"name":"김밥천국","tel":"031-529-6304","addr":"경기도 남양주시 진건읍 용정리 781-4","category":"일반휴게음식 - 스넥"},{"name":"도도","tel":"031-574-1870","addr":"경기도 남양주시 진건읍 용정리 781-4번지 2층","category":"보건위생 - 피부미용실"},{"name":"백옥당","tel":"031-556-0903","addr":"경기도 남양주시 진건읍 용정리 781-4번지","category":"신변잡화 - 시계"},{"name":"부흥생활건강","tel":"031-575-2589","addr":"경기도 남양주시 진건읍 용정리 781-4번지 3층","category":"보건위생 - 의료용품"},{"name":"신이랑발이랑","tel":"070-7078-4488","addr":"경기도 남양주시 진건읍 용정리 781-4번지","category":"신변잡화 - 신발"},{"name":"영재치과의원","tel":"031-573-5353","addr":"경기도 남양주시 진건읍 용정리 781-4번지","category":"의원 - 치과의원"},{"name":"우리약국","tel":"031-574-2211","addr":"경기도 남양주시 진건읍 용정리 781-4번지","category":"약국 - 약국"},{"name":"이상훈이비인후과","tel":"031-573-2444","addr":"경기도 남양주시 진건읍 용정리 781-4번지","category":"의원 - 의원"},{"name":"케이와이케이(KYK)","tel":"031-111-1111","addr":"경기도 남양주시 진건읍 용정리 781-4번지","category":"신변잡화 - 기타잡화"},{"name":"플러스마트","tel":"031-574-8245","addr":"경기도 남양주시 진건읍 용정리 781-4번지 지하","category":"유통업 영리 - 슈퍼마켓"},{"name":"피엠피에듀학원","tel":"031-527-2358","addr":"경기도 남양주시 진건읍 용정리 781-4번지 대흥빌딩","category":"회원제형태 - 학원"},{"name":"흐름수학학원","tel":"031-572-8209","addr":"경기도 남양주시 진건읍 용정리 781-4번지 3층 일부","category":"회원제형태 - 학원"}]},{"lat":"37.659056897","long":"127.17803154","items":[{"name":"계륵장군","tel":"031-527-0252","addr":"경기도 남양주시 진건읍 용정리 772-12번지 2층","category":"일반휴게음식 - 일반한식"},{"name":"나래이동통신","tel":"031-574-0016","addr":"경기도 남양주시 진건읍 용정리 772-12번지 1층 나래이동통신","category":"사무통신 - 통신기기"},{"name":"사능열쇠","tel":"031-574-4000","addr":"경기도 남양주시 진건읍 용정리 772-12번지","category":"기타 - 기계공구"},{"name":"샘안경제작소","tel":"031-571-9007","addr":"경기도 남양주시 진건읍 용정리 772-12번지 3층 샘안경제작소","category":"보건위생 - 안경"},{"name":"석희는떡장이1호점","tel":"031-573-0072","addr":"경기도 남양주시 진건읍 용정리 772-12번지 1층","category":"음료식품 - 기타음료식품"},{"name":"은방울노래연습장","tel":"031-573-3779","addr":"경기도 남양주시 진건읍 용정리 772-12번지 외1필지 지층","category":"레저업소 - 노 래 방"},{"name":"피자스쿨사능점","tel":"031-527-8293","addr":"경기도 남양주시 진건읍 용정리 772-12번지 101호","category":"일반휴게음식 - 서양음식"}]},{"lat":"37.657112373","long":"127.17697305","items":[{"name":"고등어구이","tel":"031-528-3123","addr":"경기도 남양주시 진건읍 용정리 776-2번지 1층","category":"일반휴게음식 - 일반한식"},{"name":"진건종합떡방앗간","tel":"031-573-8174","addr":"경기도 남양주시 진건읍 용정리 776-2번지 103호","category":"음료식품 - 제과점"}]},{"lat":"37.65796984","long":"127.17592111","items":[{"name":"고리개국밥","tel":"031-575-5547","addr":"경기도 남양주시 진건읍 용정리 771-2","category":"일반휴게음식 - 일반한식"},{"name":"날","tel":"031-513-7082","addr":"경기도 남양주시 진건읍 용정리 771-2번지","category":"일반휴게음식 - 일반한식"}]},{"lat":"37.658724313","long":"127.17750945","items":[{"name":"고조선","tel":"031-528-7055","addr":"경기도 남양주시 진건읍 용정리 770-4번지","category":"일반휴게음식 - 스넥"},{"name":"늘건강약국","tel":"031-529-3930","addr":"경기도 남양주시 진건읍 용정리 770-4번지 (104호,105호)","category":"약국 - 약국"},{"name":"부어치킨","tel":"031-575-9940","addr":"경기도 남양주시 진건읍 용정리 770-4","category":"일반휴게음식 - 주점"},{"name":"주식회사늘품슬로푸드","tel":"031-571-5111","addr":"경기도 남양주시 진건읍 용정리 770-4번지 경진빌딩 109호 109호~110호","category":"일반휴게음식 - 일반한식"},{"name":"풍양칡냉면","tel":"031-574-0277","addr":"경기도 남양주시 진건읍 용정리 770-4번지","category":"일반휴게음식 - 일반한식"},{"name":"항아리","tel":"031-571-5111","addr":"경기도 남양주시 진건읍 용정리 770-4번지 110호 109호경진빌딩","category":"일반휴게음식 - 일반한식"}]},{"lat":"37.668691466","long":"127.18772237","items":[{"name":"고향산천","tel":"031-571-2866","addr":"경기도 남양주시 진건읍 용정리 458번지","category":"일반휴게음식 - 일반한식"}]},{"lat":"37.656530536","long":"127.18047343","items":[{"name":"골드라인","tel":"031-512-0403","addr":"경기도 남양주시 진건읍 용정리 791-18번지 101호","category":"의류 - 정장"},{"name":"맘대로","tel":"031-574-8550","addr":"경기도 남양주시 진건읍 용정리 791-18번지","category":"음료식품 - 기타음료식품"}]},{"lat":"37.687185466","long":"127.18950283","items":[{"name":"공덕상회(주)","tel":"02-535-3909","addr":"경기도 남양주시 진건읍 용정리 64-5번지","category":"신변잡화 - 기타잡화"}]},{"lat":"37.657164905","long":"127.17800444","items":[{"name":"공릉동원조멸치국수","tel":"","addr":"경기도 남양주시 진건읍 용정리 779-3번지","category":"일반휴게음식 - 일반한식"},{"name":"대박점핑다이어트","tel":"","addr":"경기도 남양주시 진건읍 용정리 779-3번지 2층 일부호","category":"건강식품 - 기타건강식품"},{"name":"서민상회","tel":"","addr":"경기도 남양주시 진건읍 용정리 779-3번지","category":"음료식품 - 기타음료식품"},{"name":"스킨사랑","tel":"031-529-3225","addr":"경기도 남양주시 진건읍 용정리 779-3번지","category":"보건위생 - 화장품"},{"name":"에스제이(SJ)","tel":"031-573-2181","addr":"경기도 남양주시 진건읍 용정리 779-3번지","category":"사무통신 - 통신기기"},{"name":"연어FACTORY","tel":"031-111-1111","addr":"경기도 남양주시 진건읍 용정리 779-3번지","category":"음료식품 - 농·축·수산품"},{"name":"진건철물","tel":"031-573-5656","addr":"경기도 남양주시 진건읍 용정리 779-3번지","category":"기타 - 기계공구"}]},{"lat":"37.658554701","long":"127.17644377","items":[{"name":"공부방","tel":"031-527-5760","addr":"경기도 남양주시 진건읍 용정리 805-2번지 한신빌라4차 가동 105호","category":"학원 - 기타 교육기관"}]},{"lat":"37.660862634","long":"127.17545183","items":[{"name":"관인신중앙음악학원","tel":"031-573-5026","addr":"경기도 남양주시 진건읍 용정리 816-5번지 현대상가 203호","category":"회원제형태 - 학원"},{"name":"씨유진건현대점","tel":"031-574-5550","addr":"경기도 남양주시 진건읍 용정리 816-5번지 상가-104(상가동104호~105호)","category":"유통업 영리 - 편 의 점"},{"name":"언니랑","tel":"","addr":"경기도 남양주시 진건읍 용정리 816-5번지 현대아파트","category":"의류 - 정장"}]},{"lat":"37.678442851","long":"127.19155539","items":[{"name":"광일산소","tel":"031-573-7324","addr":"경기도 남양주시 진건읍 용정리 140-4","category":"기타 - 기타 전문점"}]},{"lat":"37.685916768","long":"127.19409112","items":[{"name":"구리퓨리스대리점","tel":"031-566-3592","addr":"경기도 남양주시 진건읍 용정리 55","category":"유통업 영리 - 기타유통업"}]},{"lat":"37.659051446","long":"127.17561763","items":[{"name":"국제타일","tel":"031-571-4104","addr":"경기도 남양주시 진건읍 용정리 803-1번지 1층","category":"건축자재 - 건축용 요업제품"},{"name":"바비헤어","tel":"070-4151-2828","addr":"경기도 남양주시 진건읍 용정리 803-1번지 1층 일부","category":"보건위생 - 미용원"},{"name":"오피니오","tel":"031-573-3496","addr":"경기도 남양주시 진건읍 용정리 803-1번지 1층","category":"의류 - 정장"},{"name":"주식회사 디케이엘물류","tel":"031-532-4093","addr":"경기도 남양주시 진건읍 용정리 803-1번지 1층 일부호","category":"의류 - 정장"},{"name":"펍볼 JK클럽","tel":"070-1111-1111","addr":"경기도 남양주시 진건읍 용정리 803-1번지 2층","category":"레저업소 - 당 구 장"}]},{"lat":"37.656833275","long":"127.17683641","items":[{"name":"군산아구찜","tel":"031-574-4461","addr":"경기도 남양주시 진건읍 용정리 794-129번지","category":"일반휴게음식 - 일반한식"},{"name":"노아포차","tel":"","addr":"경기도 남양주시 진건읍 용정리 794-129번지","category":"일반휴게음식 - 주점"},{"name":"오리천하부대찌개마을","tel":"031-527-4269","addr":"경기도 남양주시 진건읍 용정리 794-129번지 1층","category":"일반휴게음식 - 일반한식"},{"name":"용정고기사랑","tel":"","addr":"경기도 남양주시 진건읍 용정리 794-129번지","category":"일반휴게음식 - 일반한식"},{"name":"용정고기사랑","tel":"031-528-9291","addr":"경기도 남양주시 진건읍 용정리 794-129번지","category":"음료식품 - 정육점"},{"name":"우리풍천장어","tel":"031-573-1391","addr":"경기도 남양주시 진건읍 용정리 794-129번지","category":"일반휴게음식 - 일반한식"},{"name":"푸드시스템","tel":"031-571-3111","addr":"경기도 남양주시 진건읍 용정리 794-129번지","category":"일반휴게음식 - 일반한식"}]},{"lat":"37.660023074","long":"127.17658319","items":[{"name":"굽네치킨","tel":"031-527-9294","addr":"경기도 남양주시 진건읍 용정리 761-3번지 2층 1호","category":"일반휴게음식 - 스넥"},{"name":"엘음악교습소","tel":"031-111-1111","addr":"경기도 남양주시 진건읍 용정리 761-3번지 2층 일부","category":"학원 - 예·체능계학원"},{"name":"자연사랑어린이집[아이행복]","tel":"031-573-0256","addr":"경기도 남양주시 진건읍 용정리 761-3번지","category":"학원 - 유아원"}]},{"lat":"37.659363427","long":"127.17789627","items":[{"name":"굿모닝한의원","tel":"031-529-1075","addr":"경기도 남양주시 진건읍 용정리 768-1번지 경진빌딩 2층","category":"의원 - 한의원"},{"name":"김밥천국","tel":"031-575-6009","addr":"경기도 남양주시 진건읍 용정리 768-1번지 외1필지","category":"일반휴게음식 - 일반한식"},{"name":"리더스치과","tel":"070-7721-2828","addr":"경기도 남양주시 진건읍 용정리 768-1번지 경진빌딩 401호","category":"의원 - 치과의원"},{"name":"봉주르휘트니스","tel":"031-527-8338","addr":"경기도 남양주시 진건읍 용정리 768-1번지 3층","category":"회원제형태 - 레져업소"},{"name":"빙그레약국","tel":"031-574-4574","addr":"경기도 남양주시 진건읍 용정리 768-1번지 경진빌딩 105호","category":"약국 - 약국"},{"name":"씨유사능경진점","tel":"031-575-9283","addr":"경기도 남양주시 진건읍 용정리 768-1번지 경진빌딩 1층 101호","category":"유통업 영리 - 편 의 점"},{"name":"와바(진건점)","tel":"031-529-6655","addr":"경기도 남양주시 진건읍 용정리 768-1번지 외1필지","category":"일반휴게음식 - 주점"},{"name":"원인영헤어살롱","tel":"031-529-2289","addr":"경기도 남양주시 진건읍 용정리 768-1번지 경진빌딩 201호","category":"보건위생 - 미용원"},{"name":"진건메디의원","tel":"031-514-5194","addr":"경기도 남양주시 진건읍 용정리 768-1번지 경진빌딩 203호","category":"의원 - 의원"},{"name":"파리바게뜨(사능점)","tel":"031-575-0566","addr":"경기도 남양주시 진건읍 용정리 768-1","category":"음료식품 - 제과점"}]},{"lat":"37.657889765","long":"127.17522963","items":[{"name":"궁전","tel":"031-527-9970","addr":"경기도 남양주시 진건읍 용정리 800-5번지","category":"일반휴게음식 - 주점"},{"name":"용인대용진태권도체육관","tel":"031-111-1111","addr":"경기도 남양주시 진건읍 용정리 800-5번지","category":"학원 - 예·체능계학원"},{"name":"용진스포츠관","tel":"031-573-2484","addr":"경기도 남양주시 진건읍 용정리 800-5번지","category":"문화.취미 - 문화취미기타"},{"name":"정승숯불갈비","tel":"031-573-5737","addr":"경기도 남양주시 진건읍 용정리 800-5번지 25","category":"일반휴게음식 - 일반한식"},{"name":"할매식당","tel":"031-573-0419","addr":"경기도 남양주시 진건읍 용정리 800-5번지","category":"일반휴게음식 - 일반한식"}]},{"lat":"37.656886227","long":"127.17758448","items":[{"name":"그린당구장","tel":"031-516-7962","addr":"경기도 남양주시 진건읍 용정리 777-1번지 2층","category":"레저업소 - 당 구 장"},{"name":"나리타","tel":"031-571-8575","addr":"경기도 남양주시 진건읍 용정리 777-1번지","category":"일반휴게음식 - 일반한식"},{"name":"대일샷시","tel":"031-573-7245","addr":"경기도 남양주시 진건읍 용정리 777-1번지 유성 상가 104호","category":"건축자재 - 보일러·펌프·샷시"},{"name":"도그조아","tel":"031-527-1219","addr":"경기도 남양주시 진건읍 용정리 777-1번지 1층 유성상가","category":"문화.취미 - 애완동물"},{"name":"라파엘장수건강원","tel":"031-574-3880","addr":"경기도 남양주시 진건읍 용정리 777-1번지 1층","category":"건강식품 - 기타건강식품"},{"name":"바운스","tel":"","addr":"경기도 남양주시 진건읍 용정리 777-1번지 2층 왼쪽(유성상가)","category":"일반휴게음식 - 일반한식"},{"name":"옛날의정부부대찌개","tel":"031-573-6691","addr":"경기도 남양주시 진건읍 용정리 777-1번지 유성 상가 1층 108호","category":"일반휴게음식 - 일반한식"},{"name":"지니스타일","tel":"031-574-5111","addr":"경기도 남양주시 진건읍 용정리 777-1번지 유성 상가 103호","category":"보건위생 - 미용원"}]},{"lat":"37.680411884","long":"127.19408833","items":[{"name":"그린에스앤지(그린S&G)","tel":"02-929-3300","addr":"경기도 남양주시 진건읍 용정리 20-2번지","category":"용역 서비스 - 종합용역"}]},{"lat":"37.655307669","long":"127.17883866","items":[{"name":"금다방","tel":"031-574-8009","addr":"경기도 남양주시 진건읍 용정리 794-91번지","category":"일반휴게음식 - 서양음식"},{"name":"동우세무회계사무소","tel":"031-573-5900","addr":"경기도 남양주시 진건읍 용정리 794-91번지 2층","category":"용역 서비스 - 법률회계서비스(개인)"},{"name":"훈비네곱창","tel":"031-574-3434","addr":"경기도 남양주시 진건읍 용정리 794-91번지","category":"일반휴게음식 - 일반한식"}]},{"lat":"37.65796849","long":"127.17683905","items":[{"name":"금목지물","tel":"031-574-4628","addr":"경기도 남양주시 진건읍 용정리 722-12번지","category":"직물 - 카페트,커튼,천막,지물"}]},{"lat":"37.660022087","long":"127.17725183","items":[{"name":"금아전기","tel":"031-527-0460","addr":"경기도 남양주시 진건읍 용정리 758번지","category":"전기제품 - 기타전기제품"},{"name":"더(THE)꾸미다","tel":"031-528-6263","addr":"경기도 남양주시 진건읍 용정리 758번지 2층 3호","category":"의류 - 정장"},{"name":"피엔씨(PnC)푸드(사릉점)","tel":"","addr":"경기도 남양주시 진건읍 용정리 758번지 2층 3호","category":"음료식품 - 기타음료식품"},{"name":"필노래연습장","tel":"070-8160-1670","addr":"경기도 남양주시 진건읍 용정리 758번지","category":"레저업소 - 노 래 방"},{"name":"흥진건설기공","tel":"031-594-0108","addr":"경기도 남양주시 진건읍 용정리 758번지 2층 201호","category":"전기제품 - 냉열기기"}]},{"lat":"37.658878815","long":"127.17660319","items":[{"name":"금화신궁","tel":"031-000-0000","addr":"경기도 남양주시 진건읍 용정리 805번지 한신빌라4차 다동 102호","category":"보건위생 - 기타대인서비스"}]},{"lat":"37.655000342","long":"127.17950654","items":[{"name":"길르앗커피숍","tel":"031-574-8026","addr":"경기도 남양주시 진건읍 용정리 794-107번지 1층","category":"일반휴게음식 - 서양음식"}]},{"lat":"37.656503337","long":"127.18058669","items":[{"name":"까까머리미용실","tel":"031-575-9608","addr":"경기도 남양주시 진건읍 용정리 792-8번지 103호","category":"보건위생 - 미용원"}]},{"lat":"37.655523444","long":"127.17914515","items":[{"name":"까까멍멍","tel":"031-574-6553","addr":"경기도 남양주시 진건읍 용정리 794-45번지","category":"문화.취미 - 애완동물"}]},{"lat":"37.674942414","long":"127.18883739","items":[{"name":"까사비바(CASAVIVA)","tel":"031-528-7355","addr":"경기도 남양주시 진건읍 용정리 213-4번지","category":"가구 - 일반가구"},{"name":"더나은","tel":"031-575-3988","addr":"경기도 남양주시 진건읍 용정리 213-4번지","category":"문화.취미 - 애완동물"}]},{"lat":"37.656079712","long":"127.180699","items":[{"name":"꼬꼬숯불바베큐","tel":"031-574-2030","addr":"경기도 남양주시 진건읍 용정리 793-2번지 신한빌딩","category":"일반휴게음식 - 주점"},{"name":"나이스 당구장","tel":"","addr":"경기도 남양주시 진건읍 용정리 793-2번지 3층","category":"레저업소 - 당 구 장"},{"name":"우돈닭화로구이","tel":"031-527-9220","addr":"경기도 남양주시 진건읍 용정리 793-2번지 1층","category":"일반휴게음식 - 일반한식"},{"name":"주식회사 빅엔빅","tel":"031-852-3200","addr":"경기도 남양주시 진건읍 용정리 793-2번지 신한빌딩 2층","category":"의류 - 정장"},{"name":"행운식당","tel":"031-528-8115","addr":"경기도 남양주시 진건읍 용정리 793-2번지","category":"일반휴게음식 - 일반한식"}]},{"lat":"37.656580134","long":"127.17742511","items":[{"name":"꼼닭잔치","tel":"031-573-7886","addr":"경기도 남양주시 진건읍 용정리 794-151번지","category":"일반휴게음식 - 주점"},{"name":"명동양푼이찌개마을","tel":"031-529-8818","addr":"경기도 남양주시 진건읍 용정리 794-151번지 진건새마을금고 107호","category":"일반휴게음식 - 일반한식"},{"name":"영광홍어","tel":"031-529-8843","addr":"경기도 남양주시 진건읍 용정리 794-151번지","category":"일반휴게음식 - 일반한식"}]},{"lat":"37.656280339","long":"127.17909027","items":[{"name":"나눔케어의료기","tel":"031-528-9355","addr":"경기도 남양주시 진건읍 용정리 781-14번지 2층","category":"기타의료기관 - 기타의료기관 및 기타"},{"name":"신광","tel":"031-575-8683","addr":"경기도 남양주시 진건읍 용정리 781-14번지 1호","category":"사무통신 - 통신기기"}]},{"lat":"37.665112576","long":"127.18902821","items":[{"name":"나라아쿠아 (NARA AQUA)","tel":"02-1111-1111","addr":"경기도 남양주시 진건읍 용정리 289번지 1층","category":"문화.취미 - 수족관"}]},{"lat":"37.657724745","long":"127.17716713","items":[{"name":"나무그늘","tel":"070-5022-4846","addr":"경기도 남양주시 진건읍 용정리 775-12번지","category":"의류 - 정장"}]},{"lat":"37.680634411","long":"127.19575531","items":[{"name":"나무하우스","tel":"031-529-3534","addr":"경기도 남양주시 진건읍 용정리 27번지 외2필지","category":"학원 - 독서실"}]},{"lat":"37.666638086","long":"127.18719591","items":[{"name":"남양주먹골배영농조합","tel":"070-8831-5791","addr":"경기도 남양주시 진건읍 용정리 450-5","category":"음료식품 - 농·축·수산품"}]},{"lat":"37.66472131","long":"127.19145265","items":[{"name":"남양주유기견보호소","tel":"031-000-0000","addr":"경기도 남양주시 진건읍 용정리 288-2번지","category":"문화.취미 - 애완동물"}]},{"lat":"37.656973302","long":"127.17961321","items":[{"name":"낭만식당","tel":"031-528-4521","addr":"경기도 남양주시 진건읍 용정리 786-1번지 102호","category":"일반휴게음식 - 일반한식"},{"name":"동해바다","tel":"031-573-4523","addr":"경기도 남양주시 진건읍 용정리 786-1번지 101호","category":"일반휴게음식 - 일반한식"},{"name":"땡기네","tel":"031-573-4630","addr":"경기도 남양주시 진건읍 용정리 786-1번지","category":"일반휴게음식 - 일반한식"},{"name":"씨드(SEED)","tel":"031-575-0105","addr":"경기도 남양주시 진건읍 용정리 786-1번지 105호","category":"의류 - 정장"},{"name":"한포차","tel":"031-520-4200","addr":"경기도 남양주시 진건읍 용정리 786-1번지","category":"일반휴게음식 - 주점"}]},{"lat":"37.657886918","long":"127.17716751","items":[{"name":"네버시스템 (never system)","tel":"031-000-0000","addr":"경기도 남양주시 진건읍 용정리 775-14번지 덕성빌라 101호","category":"용역 서비스 - 기타용역서비스"}]},{"lat":"37.656997361","long":"127.18158513","items":[{"name":"노바삭스 (NOVA SAX)","tel":"","addr":"경기도 남양주시 진건읍 용정리 791-35번지 현대주택 14동 201호","category":"레져용품 - 악기점"}]},{"lat":"37.66113718","long":"127.17867109","items":[{"name":"누에보(NUEVO)","tel":"031-1566-5586","addr":"경기도 남양주시 진건읍 용정리 721-10번지 1층","category":"가구 - 일반가구"}]},{"lat":"37.65714022","long":"127.17641782","items":[{"name":"눈맞은짝태앤노가리","tel":"031-565-3592","addr":"경기도 남양주시 진건읍 용정리 797-4번지 1층","category":"일반휴게음식 - 주점"},{"name":"사능건설기계부품정비","tel":"031-574-2373","addr":"경기도 남양주시 진건읍 용정리 797-4번지","category":"자동차정비 유지 - 자동차부품"},{"name":"사능엔진부품수리","tel":"031-573-7959","addr":"경기도 남양주시 진건읍 용정리 797-4번지","category":"수리서비스 - 기타수리서비스"},{"name":"연탄에누워버린삼겹살","tel":"031-574-1827","addr":"경기도 남양주시 진건읍 용정리 797-4번지","category":"일반휴게음식 - 일반한식"}]},{"lat":"37.655830195","long":"127.17886256","items":[{"name":"눈사랑안경","tel":"031-527-7956","addr":"경기도 남양주시 진건읍 용정리 794-59번지 60","category":"보건위생 - 안경"}]},{"lat":"37.658529251","long":"127.1753671","items":[{"name":"늘푸른 하이테크","tel":"031-1899-3610","addr":"경기도 남양주시 진건읍 용정리 801번지 1층","category":"전기제품 - 가전제품"},{"name":"명가갈비","tel":"031-573-2118","addr":"경기도 남양주시 진건읍 용정리 801번지","category":"일반휴게음식 - 일반한식"},{"name":"주식회사 에코홀딩스","tel":"031-1811-9255","addr":"경기도 남양주시 진건읍 용정리 801번지","category":"신변잡화 - 기타잡화"},{"name":"카멘토","tel":"031-529-8851","addr":"경기도 남양주시 진건읍 용정리 801번지","category":"자동차정비 유지 - 세차장"}]},{"lat":"37.659166238","long":"127.1772045","items":[{"name":"늘푸른로뎀나무","tel":"031-527-2266","addr":"경기도 남양주시 진건읍 용정리 767번지","category":"일반휴게음식 - 일반한식"}]},{"lat":"37.656306673","long":"127.17955497","items":[{"name":"능동종묘사","tel":"031-573-7140","addr":"경기도 남양주시 진건읍 용정리 795-1번지","category":"농업 - 비료,사료,종자"},{"name":"달콤데이","tel":"031-111-1111","addr":"경기도 남양주시 진건읍 용정리 795-1번지 2층 일부층","category":"음료식품 - 제과점"},{"name":"사장님이미쳤닭","tel":"031-000-0000","addr":"경기도 남양주시 진건읍 용정리 795-1번지","category":"일반휴게음식 - 일반한식"},{"name":"숙미용실","tel":"031-574-8117","addr":"경기도 남양주시 진건읍 용정리 795-1번지 1층","category":"보건위생 - 미용원"},{"name":"순이네지짐이","tel":"031-573-3686","addr":"경기도 남양주시 진건읍 용정리 795-1번지 102호","category":"일반휴게음식 - 일반한식"},{"name":"씨유진건우량점","tel":"031-529-7680","addr":"경기도 남양주시 진건읍 용정리 795-1","category":"유통업 영리 - 편 의 점"}]},{"lat":"37.656747976","long":"127.17966934","items":[{"name":"님이랑전이랑","tel":"031-529-1149","addr":"경기도 남양주시 진건읍 용정리 786-6번지","category":"일반휴게음식 - 주점"},{"name":"현대보수공사","tel":"031-574-8810","addr":"경기도 남양주시 진건읍 용정리 786-6번지 외1필지","category":"건축자재 - 목재·석재·철물"}]},{"lat":"37.679329451","long":"127.18925644","items":[{"name":"다물김치","tel":"031-575-1631","addr":"경기도 남양주시 진건읍 용정리 163","category":"음료식품 - 미곡상"},{"name":"라인3D","tel":"031-575-5867","addr":"경기도 남양주시 진건읍 용정리 163번지 외5필지","category":"기타 - 기계공구"}]},{"lat":"37.657022794","long":"127.17662153","items":[{"name":"다보약국","tel":"031-573-9028","addr":"경기도 남양주시 진건읍 용정리 794-135번지","category":"약국 - 약국"},{"name":"대조식품유통","tel":"031-529-5162","addr":"경기도 남양주시 진건읍 용정리 794-135번지 2층","category":"음료식품 - 기타음료식품"},{"name":"엄가네닭발","tel":"031-573-1414","addr":"경기도 남양주시 진건읍 용정리 794-135번지","category":"일반휴게음식 - 일반한식"},{"name":"형제포차","tel":"031-573-3530","addr":"경기도 남양주시 진건읍 용정리 794-135번지 1층","category":"일반휴게음식 - 일반한식"}]},{"lat":"37.656692334","long":"127.18072313","items":[{"name":"다온사이언스","tel":"031-573-6266","addr":"경기도 남양주시 진건읍 용정리 792-5번지","category":"서적문구 - 과학기자재"},{"name":"휴. .","tel":"070-3047-5814","addr":"경기도 남양주시 진건읍 용정리 792-5번지 102호","category":"직물 - 침구·수예점"}]},{"lat":"37.657358877","long":"127.18083804","items":[{"name":"다우","tel":"031-591-6124","addr":"경기도 남양주시 진건읍 용정리 786-70번지 오룡빌딩 104호","category":"서적문구 - 출판 및 인쇄물"}]},{"lat":"37.655388265","long":"127.17916749","items":[{"name":"다이소(진건점)","tel":"031-527-2340","addr":"경기도 남양주시 진건읍 용정리 794-47번지 (외2필지101-2호,201호)","category":"신변잡화 - 기타잡화"},{"name":"두리서사능점","tel":"031-528-6012","addr":"경기도 남양주시 진건읍 용정리 794-47번지 794-48,794-49 외2필지","category":"사무통신 - 통신기기"},{"name":"뮤엠영어진건학원","tel":"031-573-0534","addr":"경기도 남양주시 진건읍 용정리 794-47번지 4층","category":"회원제형태 - 학원"},{"name":"미스사이공 진건점","tel":"031-528-7019","addr":"경기도 남양주시 진건읍 용정리 794-47번지 덕성빌딩 1층 4호","category":"일반휴게음식 - 서양음식"},{"name":"비에이치씨치킨 진건점","tel":"031-562-9922","addr":"경기도 남양주시 진건읍 용정리 794-47번지 1층 덕성빌딩","category":"일반휴게음식 - 일반한식"},{"name":"커피베이남양주진건점","tel":"031-528-6267","addr":"경기도 남양주시 진건읍 용정리 794-47번지 1층","category":"일반휴게음식 - 서양음식"},{"name":"힐링건강관리","tel":"031-575-9111","addr":"경기도 남양주시 진건읍 용정리 794-47번지 덕성빌딩 4층","category":"보건위생 - 화장품"}]},{"lat":"37.656530075","long":"127.1807794","items":[{"name":"다정식품","tel":"031-893-4495","addr":"경기도 남양주시 진건읍 용정리 792-7번지","category":"음료식품 - 기타음료식품"},{"name":"동신건축설비","tel":"031-527-5430","addr":"경기도 남양주시 진건읍 용정리 792-7번지 1층","category":"건축자재 - 보일러·펌프·샷시"},{"name":"손발","tel":"070-4379-8134","addr":"경기도 남양주시 진건읍 용정리 792-7번지 재현주택 402호","category":"회원제형태 - 기타1"},{"name":"와이텍","tel":"","addr":"경기도 남양주시 진건읍 용정리 792-7번지 재현주택 상가동 1층 2호","category":"전기제품 - 기타전기제품"}]},{"lat":"37.678415278","long":"127.19189539","items":[{"name":"다해림식품","tel":"031-527-3723","addr":"경기도 남양주시 진건읍 용정리 139-8","category":"음료식품 - 기타음료식품"}]},{"lat":"37.656501779","long":"127.18161794","items":[{"name":"대부설비","tel":"031-574-0733","addr":"경기도 남양주시 진건읍 용정리 793-13","category":"건축자재 - 보일러·펌프·샷시"}]},{"lat":"37.656691325","long":"127.18139174","items":[{"name":"대성공조","tel":"031-572-4464","addr":"경기도 남양주시 진건읍 용정리 793-8번지 3층 306호","category":"용역 서비스 - 기타용역서비스"},{"name":"부성사(Drindi)","tel":"070-7864-1177","addr":"경기도 남양주시 진건읍 용정리 793-8번지","category":"건축자재 - 기타건축자재"}]},{"lat":"37.658447667","long":"127.17570689","items":[{"name":"대정상사","tel":"070-7620-1164","addr":"경기도 남양주시 진건읍 용정리 767-6번지 영주빌라 3동 302호","category":"자동차정비 유지 - 윤활유 전문 판매"}]},{"lat":"37.668496426","long":"127.17977654","items":[{"name":"대진강화도어","tel":"031-573-3326","addr":"경기도 남양주시 진건읍 용정리 637","category":"건축자재 - 기타건축자재"}]},{"lat":"37.655775714","long":"127.17914574","items":[{"name":"대진상사","tel":"031-591-3434","addr":"경기도 남양주시 진건읍 용정리 794-31","category":"건축자재 - 기타건축자재"}]},{"lat":"37.655891975","long":"127.17972397","items":[{"name":"대천항","tel":"031-575-7384","addr":"경기도 남양주시 진건읍 용정리 794-19번지","category":"일반휴게음식 - 일반한식"}]},{"lat":"37.656308786","long":"127.17813841","items":[{"name":"대한종합사무기","tel":"031-595-1003","addr":"경기도 남양주시 진건읍 용정리 794-138번지","category":"사무통신 - 사무용 OA기기"},{"name":"디지털OA랜드","tel":"031-573-0433","addr":"경기도 남양주시 진건읍 용정리 794-138번지","category":"사무통신 - 사무용 OA기기"},{"name":"복사기마트","tel":"031-573-0433","addr":"경기도 남양주시 진건읍 용정리 794-138번지 793-138번지상가4호","category":"사무통신 - 기타 사무용품"},{"name":"수숯불직화꼬치구이","tel":"031-573-7592","addr":"경기도 남양주시 진건읍 용정리 794-138번지","category":"일반휴게음식 - 주점"},{"name":"유진ENG","tel":"031-529-5222","addr":"경기도 남양주시 진건읍 용정리 794-138번지 일부","category":"용역 서비스 - 기타용역서비스"},{"name":"한성건철","tel":"031-575-0903","addr":"경기도 남양주시 진건읍 용정리 794-138번지 동북용정상가1동9호","category":"건축자재 - 기타건축자재"}]},{"lat":"37.682388733","long":"127.18605588","items":[{"name":"대흥상사","tel":"031-595-2661","addr":"경기도 남양주시 진건읍 용정리 533-25번지 1층","category":"음료식품 - 기타음료식품"}]},{"lat":"37.656025227","long":"127.18098218","items":[{"name":"동대문떡볶이동떡진건점","tel":"031-529-7607","addr":"경기도 남양주시 진건읍 용정리 793-24번지 1층","category":"일반휴게음식 - 스넥"},{"name":"세븐일레븐남양주사능점","tel":"031-1577-0711","addr":"경기도 남양주시 진건읍 용정리 793-24번지 1층","category":"유통업 영리 - 편 의 점"},{"name":"온새미로","tel":"02-413-0331","addr":"경기도 남양주시 진건읍 용정리 793-24번지 1층","category":"음료식품 - 농·축·수산품"},{"name":"풍기지방특산물","tel":"031-528-2194","addr":"경기도 남양주시 진건읍 용정리 793-24번지","category":"건강식품 - 기타건강식품"}]},{"lat":"37.660640194","long":"127.17964457","items":[{"name":"동성기와","tel":"031-592-1408","addr":"경기도 남양주시 진건읍 용정리 747-2","category":"건축자재 - 기타건축자재"}]},{"lat":"37.660273283","long":"127.17797774","items":[{"name":"동양분식","tel":"031-527-6136","addr":"경기도 남양주시 진건읍 용정리 745-14번지","category":"일반휴게음식 - 스넥"},{"name":"동양족발","tel":"031-573-9585","addr":"경기도 남양주시 진건읍 용정리 745-14번지","category":"일반휴게음식 - 일반한식"},{"name":"동양회센타","tel":"031-574-1760","addr":"경기도 남양주시 진건읍 용정리 745-14번지","category":"일반휴게음식 - 일반한식"},{"name":"열쇠나라","tel":"031-574-6000","addr":"경기도 남양주시 진건읍 용정리 745-14번지","category":"건축자재 - 목재·석재·철물"}]},{"lat":"37.656300214","long":"127.17784375","items":[{"name":"동화이발관","tel":"031-574-3205","addr":"경기도 남양주시 진건읍 용정리 794-7번지","category":"보건위생 - 이용원"},{"name":"종점카센타","tel":"031-573-8855","addr":"경기도 남양주시 진건읍 용정리 794-7번지","category":"자동차정비 유지 - 자동차정비"}]},{"lat":"37.68422032","long":"127.19011892","items":[{"name":"두산공예사","tel":"031-527-0257","addr":"경기도 남양주시 진건읍 용정리 69","category":"문화.취미 - 민예·공예품"}]},{"lat":"37.656668464","long":"127.17861523","items":[{"name":"둘&셋바베큐","tel":"031-574-2320","addr":"경기도 남양주시 진건읍 용정리 796-1번지","category":"일반휴게음식 - 일반한식"}]},{"lat":"37.655773965","long":"127.18031297","items":[{"name":"디즈니컴퓨터","tel":"031-573-5606","addr":"경기도 남양주시 진건읍 용정리 794-121","category":"사무통신 - 컴퓨터"},{"name":"미도파장식","tel":"031-573-8211","addr":"경기도 남양주시 진건읍 용정리 794-121번지","category":"직물 - 카페트,커튼,천막,지물"},{"name":"사릉가나한의원","tel":"031-573-3880","addr":"경기도 남양주시 진건읍 용정리 794-121번지","category":"의원 - 한의원"},{"name":"썬LED전기조명","tel":"031-574-4665","addr":"경기도 남양주시 진건읍 용정리 794-121번지 1층 2호","category":"건축자재 - 조명기구"},{"name":"우리축산","tel":"031-574-1117","addr":"경기도 남양주시 진건읍 용정리 794-121번지 1층 4호","category":"음료식품 - 정육점"}]},{"lat":"37.655918408","long":"127.18012067","items":[{"name":"따따포차","tel":"031-527-0852","addr":"경기도 남양주시 진건읍 용정리 794-23번지 2층","category":"일반휴게음식 - 주점"}]},{"lat":"37.65794306","long":"127.17575106","items":[{"name":"떳다 소곱창","tel":"031-528-6450","addr":"경기도 남양주시 진건읍 용정리 771-10번지","category":"일반휴게음식 - 일반한식"},{"name":"세븐일레븐사능점","tel":"","addr":"경기도 남양주시 진건읍 용정리 771-10","category":"유통업 영리 - 편 의 점"},{"name":"용정낚시","tel":"031-528-2733","addr":"경기도 남양주시 진건읍 용정리 771-10","category":"레져용품 - 스포츠·레져용품"},{"name":"장수한방족발","tel":"031-574-7800","addr":"경기도 남양주시 진건읍 용정리 771-10번지","category":"일반휴게음식 - 일반한식"}]},{"lat":"37.656693","long":"127.18028116","items":[{"name":"또래오래치킨","tel":"031-527-9982","addr":"경기도 남양주시 진건읍 용정리 786-59","category":"일반휴게음식 - 주점"}]},{"lat":"37.657058064","long":"127.17714291","items":[{"name":"램&램","tel":"031-573-8030","addr":"경기도 남양주시 진건읍 용정리 776-6번지","category":"일반휴게음식 - 중국식"},{"name":"머리사랑헤어연출","tel":"031-574-8682","addr":"경기도 남양주시 진건읍 용정리 776-6","category":"보건위생 - 미용원"},{"name":"이가네멧돌빈대떡","tel":"031-573-9959","addr":"경기도 남양주시 진건읍 용정리 776-6","category":"일반휴게음식 - 주점"}]},{"lat":"37.660026274","long":"127.17439592","items":[{"name":"로뎀어린이집","tel":"031-575-6380","addr":"경기도 남양주시 진건읍 용정리 812-1","category":"학원 - 유아원"},{"name":"로뎀어린이집[아이행복]","tel":"031-575-6380","addr":"경기도 남양주시 진건읍 용정리 812-1","category":"학원 - 유아원"},{"name":"로뎀어린이집[아이행복]","tel":"031-575-6380","addr":"경기도 남양주시 진건읍 용정리 812-1번지","category":"학원 - 유아원"}]},{"lat":"37.656027493","long":"127.17947498","items":[{"name":"로또호프","tel":"031-573-6332","addr":"경기도 남양주시 진건읍 용정리 794-8번지 2층","category":"일반휴게음식 - 주점"},{"name":"혜민약국","tel":"031-573-4422","addr":"경기도 남양주시 진건읍 용정리 794-8번지","category":"약국 - 약국"}]},{"lat":"37.658723573","long":"127.1780081","items":[{"name":"로즈피플(유아용품,완구할인매장)","tel":"031-575-9073","addr":"경기도 남양주시 진건읍 용정리 772-6번지 지하1층","category":"서적문구 - 완구점"},{"name":"베스킨라빈스남양주진건점","tel":"031-527-3121","addr":"경기도 남양주시 진건읍 용정리 772-6번지 1층 103호,104호","category":"음료식품 - 제과점"},{"name":"진건K2학원","tel":"031-575-7737","addr":"경기도 남양주시 진건읍 용정리 772-6번지 2층","category":"학원 - 보습학원"},{"name":"코리엔탈깻잎칩킨","tel":"031-573-5225","addr":"경기도 남양주시 진건읍 용정리 772-6번지","category":"일반휴게음식 - 스넥"}]},{"lat":"37.656860391","long":"127.18278605","items":[{"name":"르네셀","tel":"070-4131-2797","addr":"경기도 남양주시 진건읍 용정리 367-4번지 303호","category":"보건위생 - 화장품"}]},{"lat":"37.656609431","long":"127.18192417","items":[{"name":"마당","tel":"031-527-4220","addr":"경기도 남양주시 진건읍 용정리 793-10번지","category":"일반휴게음식 - 일반한식"}]},{"lat":"37.657302027","long":"127.17666751","items":[{"name":"마돈나","tel":"031-574-0664","addr":"경기도 남양주시 진건읍 용정리 776-13번지 1층","category":"일반휴게음식 - 일반한식"},{"name":"북서울부품센터","tel":"031-529-5930","addr":"경기도 남양주시 진건읍 용정리 776-13","category":"자동차정비 유지 - 자동차부품"},{"name":"중화관","tel":"031-573-6770","addr":"경기도 남양주시 진건읍 용정리 776-13번지","category":"일반휴게음식 - 중국식"},{"name":"진건공조","tel":"031-1588-3366","addr":"경기도 남양주시 진건읍 용정리 776-13번지","category":"용역 서비스 - 기타용역서비스"}]},{"lat":"37.661162124","long":"127.18006513","items":[{"name":"마들렌정원","tel":"031-574-6111","addr":"경기도 남양주시 진건읍 용정리 736","category":"문화.취미 - 화원"}]},{"lat":"37.656307046","long":"127.17930565","items":[{"name":"마시자","tel":"","addr":"경기도 남양주시 진건읍 용정리 795-3번지 2층","category":"일반휴게음식 - 일반한식"},{"name":"빵굽는사능마을","tel":"031-573-7137","addr":"경기도 남양주시 진건읍 용정리 795-3번지","category":"음료식품 - 제과점"},{"name":"쉬즈 아울렛","tel":"031-528-0192","addr":"경기도 남양주시 진건읍 용정리 795-3번지 1층","category":"의류 - 정장"}]},{"lat":"37.656938017","long":"127.18504141","items":[{"name":"마이엔 (maien)","tel":"031-111-1111","addr":"경기도 남양주시 진건읍 용정리 855번지 진건주공2단지 205동 1405호","category":"서적문구 - 완구점"}]},{"lat":"37.656161465","long":"127.18025723","items":[{"name":"마이핏 휘트니스","tel":"0507-1310-9218","addr":"경기도 남양주시 진건읍 용정리 786-2번지 노아쇼핑센터 4층","category":"레저업소 - 헬스클럽"},{"name":"마이핏 휘트니스","tel":"031-575-9218","addr":"경기도 남양주시 진건읍 용정리 786-2번지 4층","category":"레저업소 - 헬스클럽"},{"name":"미성당","tel":"031-573-5117","addr":"경기도 남양주시 진건읍 용정리 786-2번지 노아쇼핑","category":"신변잡화 - 시계"},{"name":"사능락볼링장","tel":"031-573-8116","addr":"경기도 남양주시 진건읍 용정리 786-2번지 5층","category":"레저업소 - 볼 링 장"},{"name":"팡팡존 진건점","tel":"031-529-5421","addr":"경기도 남양주시 진건읍 용정리 786-2번지 201호","category":"레저업소 - 기타레져업소"}]},{"lat":"37.656662178","long":"127.18278557","items":[{"name":"만복","tel":"031-528-2981","addr":"경기도 남양주시 진건읍 용정리 367-26번지 1층","category":"유통업 영리 - 슈퍼마켓"}]},{"lat":"37.655641735","long":"127.17836349","items":[{"name":"말자","tel":"031-111-1111","addr":"경기도 남양주시 진건읍 용정리 794-74번지","category":"일반휴게음식 - 주점"},{"name":"수정","tel":"031-573-8805","addr":"경기도 남양주시 진건읍 용정리 794-74번지","category":"일반휴게음식 - 주점"},{"name":"첫사랑","tel":"070-8987-2232","addr":"경기도 남양주시 진건읍 용정리 794-74번지 1층 일부","category":"일반휴게음식 - 주점"}]},{"lat":"37.656777372","long":"127.17808285","items":[{"name":"맛있는찌개한상","tel":"031-573-3553","addr":"경기도 남양주시 진건읍 용정리 779-1번지","category":"일반휴게음식 - 일반한식"}]},{"lat":"37.658462731","long":"127.17771283","items":[{"name":"맞춤홈패션","tel":"031-571-5083","addr":"경기도 남양주시 진건읍 용정리 772-9 경신1차 다-101 28/","category":"회원제형태 - 기타4"}]},{"lat":"37.660247864","long":"127.1768897","items":[{"name":"맨투맨","tel":"","addr":"경기도 남양주시 진건읍 용정리 761-8번지 103호","category":"보건위생 - 미용원"},{"name":"아는사람","tel":"031-523-2001","addr":"경기도 남양주시 진건읍 용정리 761-8번지 101호","category":"일반휴게음식 - 주점"},{"name":"집수리&홍반장","tel":"","addr":"경기도 남양주시 진건읍 용정리 761-8번지","category":"건축자재 - 인테리어전문"}]},{"lat":"37.659467065","long":"127.17481396","items":[{"name":"명성그린에어컨","tel":"031-527-9707","addr":"경기도 남양주시 진건읍 용정리 811-8번지 만정2차주택 201호","category":"회원제형태 - 기타1"}]},{"lat":"37.65994247","long":"127.17625434","items":[{"name":"명성종합가구유통","tel":"070-4109-0896","addr":"경기도 남양주시 진건읍 용정리 809-4번지 2차한보하이츠 5동 402호","category":"회원제형태 - 기타4"}]},{"lat":"37.683717119","long":"127.19489037","items":[{"name":"명진아크릴","tel":"031-573-1207","addr":"경기도 남양주시 진건읍 용정리 36-2번지","category":"건축자재 - 기타건축자재"}]},{"lat":"37.672298566","long":"127.19136981","items":[{"name":"목자농원","tel":"070-4227-9033","addr":"경기도 남양주시 진건읍 용정리 247","category":"음료식품 - 농·축·수산품"}]},{"lat":"37.658661158","long":"127.18934076","items":[{"name":"몬스터","tel":"","addr":"경기도 남양주시 진건읍 용정리 326-18번지 외2필지","category":"문화.취미 - 화랑"}]},{"lat":"37.685358944","long":"127.19361354","items":[{"name":"묘한공간","tel":"031-527-5182","addr":"경기도 남양주시 진건읍 용정리 57-3번지","category":"문화.취미 - 애완동물"}]},{"lat":"37.67329838","long":"127.19153103","items":[{"name":"무쇠막88찌개","tel":"031-572-6022","addr":"경기도 남양주시 진건읍 용정리 240-2번지","category":"일반휴게음식 - 일반한식"}]},{"lat":"37.660860185","long":"127.1771178","items":[{"name":"미래키움학원","tel":"070-7794-2519","addr":"경기도 남양주시 진건읍 용정리 757-1번지 상가동 303호~304호","category":"학원 - 보습학원"},{"name":"장군보쌈","tel":"031-529-5984","addr":"경기도 남양주시 진건읍 용정리 757-1 세아상가107","category":"일반휴게음식 - 일반한식"},{"name":"한국바이오사이언스","tel":"031-575-8188","addr":"경기도 남양주시 진건읍 용정리 757-1 진건세아@상가동지하2호","category":"사무통신 - 컴퓨터"}]},{"lat":"37.657079407","long":"127.1809507","items":[{"name":"미스미스터피자","tel":"031-529-2101","addr":"경기도 남양주시 진건읍 용정리 791-2번지 1층","category":"일반휴게음식 - 서양음식"},{"name":"삼우 유니크","tel":"","addr":"경기도 남양주시 진건읍 용정리 791-2번지 대명빌딩 205호","category":"수리서비스 - 기타수리서비스"},{"name":"환 이앤지","tel":"02-1111-1111","addr":"경기도 남양주시 진건읍 용정리 791-2번지 301호","category":"용역 서비스 - 기타용역서비스"}]},{"lat":"37.657189483","long":"127.17964772","items":[{"name":"미주식당","tel":"031-527-5975","addr":"경기도 남양주시 진건읍 용정리 785-7번지 1층 일부","category":"일반휴게음식 - 일반한식"},{"name":"히카루","tel":"","addr":"경기도 남양주시 진건읍 용정리 785-7번지 일부호","category":"일반휴게음식 - 일식·회집"}]},{"lat":"37.655496127","long":"127.17933773","items":[{"name":"민산부인과","tel":"031-574-2233","addr":"경기도 남양주시 진건읍 용정리 794-43","category":"의원 - 의원"}]},{"lat":"37.656804148","long":"127.1782529","items":[{"name":"바다약국","tel":"031-573-4883","addr":"경기도 남양주시 진건읍 용정리 779번지 상가 1층 102호","category":"약국 - 약국"},{"name":"안상용내과의원","tel":"031-574-3998","addr":"경기도 남양주시 진건읍 용정리 779번지","category":"의원 - 의원"},{"name":"옻안타는천연염색(진건점)","tel":"031-529-3071","addr":"경기도 남양주시 진건읍 용정리 779번지 1층","category":"보건위생 - 미용원"}]},{"lat":"37.656055013","long":"127.1791464","items":[{"name":"바른고기정육점","tel":"031-574-4668","addr":"경기도 남양주시 진건읍 용정리 794-5번지","category":"음료식품 - 정육점"}]},{"lat":"37.656028441","long":"127.17884036","items":[{"name":"바오","tel":"031-510-6473","addr":"경기도 남양주시 진건읍 용정리 794-3번지","category":"의류 - 정장"},{"name":"보스 당구장","tel":"031-573-8560","addr":"경기도 남양주시 진건읍 용정리 794-3번지","category":"레저업소 - 당 구 장"},{"name":"해피인테리어","tel":"031-528-2928","addr":"경기도 남양주시 진건읍 용정리 794-3번지 외1필지","category":"건축자재 - 인테리어전문"}]},{"lat":"37.676441809","long":"127.1921171","items":[{"name":"밤나무집","tel":"031-573-9944","addr":"경기도 남양주시 진건읍 용정리 221-1","category":"일반휴게음식 - 일반한식"}]},{"lat":"37.656943972","long":"127.18114303","items":[{"name":"백곰","tel":"031-527-1466","addr":"경기도 남양주시 진건읍 용정리 791-32번지 104호","category":"레져용품 - 스포츠·레져용품"},{"name":"부경마트","tel":"031-528-0067","addr":"경기도 남양주시 진건읍 용정리 791-32번지 103호","category":"유통업 영리 - 슈퍼마켓"},{"name":"소양","tel":"02-562-9005","addr":"경기도 남양주시 진건읍 용정리 791-32번지 거상빌딩 3층 1호","category":"보건위생 - 화장품"}]},{"lat":"37.684413339","long":"127.19336171","items":[{"name":"벨로엠 (Bello M)","tel":"070-7793-7078","addr":"경기도 남양주시 진건읍 용정리 39번지","category":"가구 - 일반가구"}]},{"lat":"37.667854775","long":"127.18694957","items":[{"name":"별골갈비탕","tel":"031-573-5211","addr":"경기도 남양주시 진건읍 용정리 460번지 일송 G동 1층","category":"일반휴게음식 - 일반한식"}]},{"lat":"37.65744568","long":"127.17700782","items":[{"name":"보니또(BONITO)","tel":"02-1111-1111","addr":"경기도 남양주시 진건읍 용정리 775-7번지 101호","category":"의류 - 정장"}]},{"lat":"37.658031022","long":"127.17720185","items":[{"name":"본진관순대국감자탕","tel":"031-574-1799","addr":"경기도 남양주시 진건읍 용정리 773-5번지 외1필지","category":"일반휴게음식 - 일반한식"}]},{"lat":"37.682194751","long":"127.183312","items":[{"name":"봉화상사","tel":"031-592-6144","addr":"경기도 남양주시 진건읍 용정리 521-1번지","category":"신변잡화 - 기타잡화"}]},{"lat":"37.657551004","long":"127.17888929","items":[{"name":"뷰티레이디","tel":"070-4234-2772","addr":"경기도 남양주시 진건읍 용정리 780-1 심미에셈빌3층308-B호","category":"보건위생 - 화장품"},{"name":"진건초등학교병설유치원[아이행복]","tel":"031-574-5156","addr":"경기도 남양주시 진건읍 용정리 780-1번지 진건초등학교","category":"학원 - 유치원"}]},{"lat":"37.658751928","long":"127.17711287","items":[{"name":"뷰티플러스","tel":"070-4816-9909","addr":"경기도 남양주시 진건읍 용정리 769-3번지 1층","category":"보건위생 - 화장품"}]},{"lat":"37.659469652","long":"127.17916581","items":[{"name":"브레이브힐 기구필라테스(진건점)","tel":"031-529-2800","addr":"경기도 남양주시 진건읍 용정리 750-1번지 상가동 204,205호","category":"레저업소 - 헬스클럽"},{"name":"한신공인중개사사무소","tel":"031-573-3307","addr":"경기도 남양주시 진건읍 용정리 750-1번지 한신그린아파트 101호","category":"용역 서비스 - 부동산 중개·임대"},{"name":"한신그린유치원[아이행복]","tel":"031-574-0575","addr":"경기도 남양주시 진건읍 용정리 750-1번지","category":"학원 - 유치원"},{"name":"한신로얄세탁소","tel":"031-574-8033","addr":"경기도 남양주시 진건읍 용정리 750-1","category":"수리서비스 - 세탁소"},{"name":"한주아이엔티","tel":"070-4922-1261","addr":"경기도 남양주시 진건읍 용정리 750-1번지 한신그린상가동 지하2호,3호","category":"건강식품 - 기타건강식품"}]},{"lat":"37.679968972","long":"127.18936006","items":[{"name":"브이아이피(VIP)바베큐 한식부페","tel":"031-529-7580","addr":"경기도 남양주시 진건읍 용정리 160-12번지 1층","category":"일반휴게음식 - 일반한식"}]},{"lat":"37.658470562","long":"127.17850614","items":[{"name":"블링블링","tel":"031-566-9557","addr":"경기도 남양주시 진건읍 용정리 753-2번지 4호","category":"보건위생 - 피부미용실"},{"name":"안단테","tel":"031-527-7415","addr":"경기도 남양주시 진건읍 용정리 753-2번지 3호","category":"의류 - 정장"}]},{"lat":"37.656975584","long":"127.17808332","items":[{"name":"비비드","tel":"031-528-9682","addr":"경기도 남양주시 진건읍 용정리 779-10번지","category":"레저업소 - 헬스클럽"}]},{"lat":"37.657752224","long":"127.18286753","items":[{"name":"비어킹","tel":"031-529-9995","addr":"경기도 남양주시 진건읍 용정리 751-13번지 킹빌딩 101호","category":"일반휴게음식 - 주점"},{"name":"소라헤어샵","tel":"031-527-2997","addr":"경기도 남양주시 진건읍 용정리 751-13번지","category":"보건위생 - 미용원"},{"name":"청우마트","tel":"031-528-7445","addr":"경기도 남양주시 진건읍 용정리 751-13번지","category":"유통업 영리 - 슈퍼마켓"},{"name":"청우식당","tel":"031-528-7445","addr":"경기도 남양주시 진건읍 용정리 751-13","category":"일반휴게음식 - 일반한식"},{"name":"태양설비","tel":"","addr":"경기도 남양주시 진건읍 용정리 751-13번지 102호","category":"용역 서비스 - 기타용역서비스"}]},{"lat":"37.657634145","long":"127.1775069","items":[{"name":"비엔씨(B&C)","tel":"031-959-3781","addr":"경기도 남양주시 진건읍 용정리 775-17번지 심미에셈빌 204호","category":"서적문구 - 문구용품"}]},{"lat":"37.67702132","long":"127.19030487","items":[{"name":"비즈니스메이트","tel":"031-1644-5447","addr":"경기도 남양주시 진건읍 용정리 201-4번지 외2필지","category":"사무통신 - 사무용 OA기기"}]},{"lat":"37.682021923","long":"127.19014741","items":[{"name":"비즈테크(TecH)","tel":"031-572-6922","addr":"경기도 남양주시 진건읍 용정리 80-5번지 (80-5,81-1)","category":"문화.취미 - 수족관"},{"name":"주식회사대농시스템","tel":"031-851-9497","addr":"경기도 남양주시 진건읍 용정리 80-5번지 주10동 1층","category":"전기제품 - 기타전기제품"}]},{"lat":"37.656775582","long":"127.1792841","items":[{"name":"비타민케어","tel":"031-528-1281","addr":"경기도 남양주시 진건읍 용정리 781-2번지 2층","category":"보건위생 - 화장품"},{"name":"시립진건어린이집[아이행복]","tel":"031-573-3663","addr":"경기도 남양주시 진건읍 용정리 781-2","category":"학원 - 유아원"}]},{"lat":"37.657356235","long":"127.17656564","items":[{"name":"빨간석쇠진건사릉점","tel":"031-575-9245","addr":"경기도 남양주시 진건읍 용정리 776-1번지","category":"일반휴게음식 - 일반한식"},{"name":"예성지물장식","tel":"031-573-9974","addr":"경기도 남양주시 진건읍 용정리 776-1번지","category":"직물 - 카페트,커튼,천막,지물"}]},{"lat":"37.658777143","long":"127.17833687","items":[{"name":"빵할인마트","tel":"02-2179-9447","addr":"경기도 남양주시 진건읍 용정리 774-2, 774-2~3,774-9~10,754-4","category":"음료식품 - 제과점"}]},{"lat":"37.656641975","long":"127.17825252","items":[{"name":"사능딱다구리","tel":"031-573-8229","addr":"경기도 남양주시 진건읍 용정리 779-4번지","category":"일반휴게음식 - 일반한식"},{"name":"와이비엠잉글루사능제1학원","tel":"031-527-5333","addr":"경기도 남양주시 진건읍 용정리 779-4번지 3층","category":"학원 - 보습학원"},{"name":"잉어","tel":"031-573-5295","addr":"경기도 남양주시 진건읍 용정리 779-4번지","category":"의류 - 정장"},{"name":"전유나낙지마당","tel":"031-529-8808","addr":"경기도 남양주시 진건읍 용정리 779-4번지 2층","category":"일반휴게음식 - 일반한식"},{"name":"쪼끼쪼끼","tel":"031-527-3651","addr":"경기도 남양주시 진건읍 용정리 779-4번지","category":"일반휴게음식 - 주점"}]},{"lat":"37.655388959","long":"127.17870287","items":[{"name":"사능본동식당","tel":"031-528-8207","addr":"경기도 남양주시 진건읍 용정리 794-89번지","category":"일반휴게음식 - 일반한식"}]},{"lat":"37.657275648","long":"127.17622548","items":[{"name":"사능부란자","tel":"031-573-6592","addr":"경기도 남양주시 진건읍 용정리 800-12","category":"전기제품 - 기타전기제품"}]},{"lat":"37.655892348","long":"127.17947466","items":[{"name":"사능장여관","tel":"031-573-9971","addr":"경기도 남양주시 진건읍 용정리 794-17번지","category":"숙박업 - 여관/기타숙박업"}]},{"lat":"37.655028775","long":"127.17856603","items":[{"name":"사릉 검도관","tel":"031-528-6191","addr":"경기도 남양주시 진건읍 용정리 794-9번지 지하","category":"학원 - 예·체능계학원"},{"name":"사릉검도관","tel":"031-528-6191","addr":"경기도 남양주시 진건읍 용정리 794-9번지 지하1층","category":"학원 - 예·체능계학원"}]},{"lat":"37.658194065","long":"127.17661293","items":[{"name":"사릉삼육어린이집[아이행복]","tel":"031-527-4007","addr":"경기도 남양주시 진건읍 용정리 771-20번지","category":"학원 - 유아원"}]},{"lat":"37.658807205","long":"127.1762857","items":[{"name":"사케427","tel":"031-573-0427","addr":"경기도 남양주시 진건읍 용정리 806-15번지 1층 101호","category":"일반휴게음식 - 일식·회집"}]},{"lat":"37.656000209","long":"127.1796449","items":[{"name":"삼보컴퓨터진건읍점","tel":"031-512-6787","addr":"경기도 남양주시 진건읍 용정리 794-14번지","category":"사무통신 - 컴퓨터"},{"name":"삼보컴퓨터진건읍점","tel":"031-512-6787","addr":"경기도 남양주시 진건읍 용정리 794-14번지 1층","category":"사무통신 - 컴퓨터"},{"name":"아트 코딱지","tel":"","addr":"경기도 남양주시 진건읍 용정리 794-14번지 1층 좌측","category":"의류 - 정장"},{"name":"지원시스템","tel":"031-512-6787","addr":"경기도 남양주시 진건읍 용정리 794-14번지 1층","category":"사무통신 - 컴퓨터"},{"name":"쩡's 눈썹살롱","tel":"","addr":"경기도 남양주시 진건읍 용정리 794-14번지 2층","category":"보건위생 - 피부미용실"}]},{"lat":"37.676133073","long":"127.19361259","items":[{"name":"상아드림도어","tel":"031-571-0484","addr":"경기도 남양주시 진건읍 용정리 234-11번지","category":"건축자재 - 보일러·펌프·샷시"}]},{"lat":"37.658502951","long":"127.1748684","items":[{"name":"상아쌀슈퍼","tel":"031-528-2324","addr":"경기도 남양주시 진건읍 용정리 800-2번지","category":"유통업 영리 - 슈퍼마켓"}]},{"lat":"37.656558774","long":"127.17966889","items":[{"name":"새암분식","tel":"031-574-5227","addr":"경기도 남양주시 진건읍 용정리 786-50","category":"일반휴게음식 - 스넥"}]},{"lat":"37.680077606","long":"127.18903159","items":[{"name":"샘 터","tel":"031-529-7888","addr":"경기도 남양주시 진건읍 용정리 160-11번지","category":"일반휴게음식 - 일반한식"}]},{"lat":"37.655804195","long":"127.17817123","items":[{"name":"서울이앤피","tel":"031-528-0981","addr":"경기도 남양주시 진건읍 용정리 794-67번지 102호","category":"자동차정비 유지 - 자동차부품"}]},{"lat":"37.677278902","long":"127.19261799","items":[{"name":"서울자동차공업사","tel":"031-527-6155","addr":"경기도 남양주시 진건읍 용정리 230-1번지","category":"자동차정비 유지 - 자동차정비"},{"name":"서울자동차공업사","tel":"031-527-6155","addr":"경기도 남양주시 진건읍 용정리 230-1번지","category":"자동차정비 유지 - 자동차정비"},{"name":"카이튜닝","tel":"","addr":"경기도 남양주시 진건읍 용정리 230-1번지","category":"자동차정비 유지 - 자동차부품"}]},{"lat":"37.660078014","long":"127.17598267","items":[{"name":"섬마을","tel":"031-527-5456","addr":"경기도 남양주시 진건읍 용정리 815번지","category":"일반휴게음식 - 일반한식"}]},{"lat":"37.6808894","long":"127.18844413","items":[{"name":"성균관","tel":"00-1566-1972","addr":"경기도 남양주시 진건읍 용정리 104-20","category":"용역 서비스 - 사무서비스"},{"name":"홍우상사","tel":"031-527-4363","addr":"경기도 남양주시 진건읍 용정리 104-20","category":"보건위생 - 미용재료"}]},{"lat":"37.657752709","long":"127.17653257","items":[{"name":"성진기업","tel":"031-573-5569","addr":"경기도 남양주시 진건읍 용정리 722-5번지","category":"건축자재 - 기타건축자재"}]},{"lat":"37.657361785","long":"127.18483846","items":[{"name":"세빛어린이집[아이행복]","tel":"031-574-9299","addr":"경기도 남양주시 진건읍 용정리 855번지 진건주공2단지","category":"학원 - 유아원"}]},{"lat":"37.663274651","long":"127.17720277","items":[{"name":"쇼 이펙트(Show Effect)","tel":"031-528-7725","addr":"경기도 남양주시 진건읍 용정리 732-3번지 나동","category":"신변잡화 - 기타잡화"}]},{"lat":"37.65694","long":"127.17777726","items":[{"name":"수정대중목욕탕","tel":"031-574-2743","addr":"경기도 남양주시 진건읍 용정리 778-9","category":"보건위생 - 사우나"}]},{"lat":"37.658723119","long":"127.17831408","items":[{"name":"스시테헤란","tel":"031-528-1011","addr":"경기도 남양주시 진건읍 용정리 754-4번지 용정상가 108호","category":"일반휴게음식 - 일식·회집"},{"name":"에스와이통신","tel":"","addr":"경기도 남양주시 진건읍 용정리 754-4번지 용정상가 1층 104호","category":"사무통신 - 통신기기"},{"name":"예약국","tel":"031-528-3070","addr":"경기도 남양주시 진건읍 용정리 754-4번지","category":"약국 - 약국"},{"name":"오케이호프","tel":"031-573-1801","addr":"경기도 남양주시 진건읍 용정리 754-4번지 (9.10)","category":"일반휴게음식 - 주점"},{"name":"이디야","tel":"031-575-8706","addr":"경기도 남양주시 진건읍 용정리 754-4번지","category":"일반휴게음식 - 서양음식"},{"name":"진건중앙음악학원","tel":"031-574-0560","addr":"경기도 남양주시 진건읍 용정리 754-4번지 용정상가 3층 1호","category":"학원 - 예·체능계학원"},{"name":"참식품","tel":"031-516-4569","addr":"경기도 남양주시 진건읍 용정리 754-4번지 외4필지","category":"음료식품 - 기타음료식품"},{"name":"킹 아이스크림 할인점","tel":"070-2636-1786","addr":"경기도 남양주시 진건읍 용정리 754-4번지 용정상가 104호","category":"음료식품 - 기타음료식품"},{"name":"퍼팩트잉글리쉬어학원","tel":"031-527-7905","addr":"경기도 남양주시 진건읍 용정리 754-4번지 2층 일부","category":"학원 - 외국어학원"},{"name":"현무체육관","tel":"031-574-0085","addr":"경기도 남양주시 진건읍 용정리 754-4번지 용정상가 3층 302호","category":"학원 - 예·체능계학원"}]},{"lat":"37.658105714","long":"127.18733348","items":[{"name":"스텔라하우징(STELLA HOUSING)","tel":"031-528-8821","addr":"경기도 남양주시 진건읍 용정리 348-2번지","category":"건축자재 - 건축용 요업제품"}]},{"lat":"37.657691271","long":"127.17542183","items":[{"name":"신광오토바이폐차장","tel":"031-573-7262","addr":"경기도 남양주시 진건읍 용정리 800-16번지","category":"자동차정비 유지 - 가타자동차서비스"}]},{"lat":"37.655946813","long":"127.17920281","items":[{"name":"신예작헤어샵","tel":"031-527-5957","addr":"경기도 남양주시 진건읍 용정리 794-15번지 102호","category":"보건위생 - 미용원"}]},{"lat":"37.683858962","long":"127.19073019","items":[{"name":"신흥내추럴허브","tel":"031-575-2558","addr":"경기도 남양주시 진건읍 용정리 85번지 1층","category":"약국 - 한약방"}]},{"lat":"37.656777658","long":"127.1778902","items":[{"name":"쎄븐당구장","tel":"070-7633-5745","addr":"경기도 남양주시 진건읍 용정리 777-5번지","category":"레저업소 - 당 구 장"},{"name":"춤추는본도너츠","tel":"070-7529-8843","addr":"경기도 남양주시 진건읍 용정리 777-5번지 1층","category":"일반휴게음식 - 서양음식"},{"name":"할매순대국","tel":"070-7573-8931","addr":"경기도 남양주시 진건읍 용정리 777-5번지","category":"일반휴게음식 - 일반한식"}]},{"lat":"37.658467149","long":"127.18078402","items":[{"name":"씽크어린이집[아이행복]","tel":"031-527-5881","addr":"경기도 남양주시 진건읍 용정리 785-33번지","category":"학원 - 유아원"},{"name":"크린위드편의점","tel":"031-574-2928","addr":"경기도 남양주시 진건읍 용정리 785-33","category":"수리서비스 - 세탁소"},{"name":"한신김밥세상","tel":"031-573-0020","addr":"경기도 남양주시 진건읍 용정리 785-33번지 102호","category":"일반휴게음식 - 스넥"},{"name":"헤라미용실","tel":"031-527-0017","addr":"경기도 남양주시 진건읍 용정리 785-33","category":"보건위생 - 미용원"}]},{"lat":"37.655614166","long":"127.17872606","items":[{"name":"아담","tel":"031-529-3207","addr":"경기도 남양주시 진건읍 용정리 794-76번지","category":"일반휴게음식 - 주점"}]},{"lat":"37.662474691","long":"127.18194959","items":[{"name":"아론오츠카","tel":"031-529-0502","addr":"경기도 남양주시 진건읍 용정리 384-7번지","category":"가구 - 일반가구"}]},{"lat":"37.687882984","long":"127.19278105","items":[{"name":"아임키트(AIM KIT)","tel":"031-527-9542","addr":"경기도 남양주시 진건읍 용정리 산31번지","category":"가구 - 일반가구"}]},{"lat":"37.684968288","long":"127.19560782","items":[{"name":"알곡이야기","tel":"031-573-4879","addr":"경기도 남양주시 진건읍 용정리 38-1번지","category":"음료식품 - 기타음료식품"}]},{"lat":"37.684745545","long":"127.19955244","items":[{"name":"애니타임","tel":"031-528-4800","addr":"경기도 남양주시 진건읍 용정리 34-23","category":"음료식품 - 기타음료식품"},{"name":"원패스트캣 (One Fast Cat)","tel":"070-8733-2662","addr":"경기도 남양주시 진건읍 용정리 34-23번지 2층 성진데코","category":"가구 - 일반가구"}]},{"lat":"37.67663969","long":"127.1746722","items":[{"name":"애완견돌봄원","tel":"031-527-3277","addr":"경기도 남양주시 진건읍 용정리 848-3번지","category":"문화.취미 - 애완동물"}]},{"lat":"37.655776829","long":"127.17839781","items":[{"name":"어머니돌솥한정식","tel":"031-573-2945","addr":"경기도 남양주시 진건읍 용정리 794-65번지 1층","category":"일반휴게음식 - 일반한식"}]},{"lat":"37.658331321","long":"127.17517399","items":[{"name":"얼큰이맛동태탕","tel":"031-574-5487","addr":"경기도 남양주시 진건읍 용정리 800-1번지 1층","category":"일반휴게음식 - 일반한식"},{"name":"은비노래방","tel":"031-573-8536","addr":"경기도 남양주시 진건읍 용정리 800-1번지","category":"레저업소 - 노 래 방"},{"name":"제일 당구장","tel":"031-529-9515","addr":"경기도 남양주시 진건읍 용정리 800-1번지 3층","category":"레저업소 - 당 구 장"},{"name":"진건전기조명","tel":"031-574-0555","addr":"경기도 남양주시 진건읍 용정리 800-1번지","category":"건축자재 - 조명기구"},{"name":"효성상사","tel":"031-573-6495","addr":"경기도 남양주시 진건읍 용정리 800-1번지","category":"기타 - 기타 전문점"}]},{"lat":"37.655857342","long":"127.1787833","items":[{"name":"에스케이(SK)","tel":"070-7689-2564","addr":"경기도 남양주시 진건읍 용정리 794-60번지 1층","category":"기타 - 기계공구"},{"name":"오페라노래연습장","tel":"031-574-0635","addr":"경기도 남양주시 진건읍 용정리 794-60번지 B1층","category":"레저업소 - 노 래 방"},{"name":"주당클럽","tel":"031-574-1060","addr":"경기도 남양주시 진건읍 용정리 794-60번지","category":"일반휴게음식 - 주점"}]},{"lat":"37.65638837","long":"127.17914719","items":[{"name":"에임하이영어수학학원","tel":"031-527-2010","addr":"경기도 남양주시 진건읍 용정리 781-13번지 2층","category":"학원 - 보습학원"},{"name":"울엄마칼국시","tel":"","addr":"경기도 남양주시 진건읍 용정리 781-13번지 1층","category":"일반휴게음식 - 일반한식"},{"name":"티니미용실","tel":"031-527-3444","addr":"경기도 남양주시 진건읍 용정리 781-13번지 1층","category":"보건위생 - 미용원"}]},{"lat":"37.660552582","long":"127.17797839","items":[{"name":"엔젤프로방스","tel":"031-527-0015","addr":"경기도 남양주시 진건읍 용정리 744-2번지","category":"음료식품 - 제과점"}]},{"lat":"37.658356189","long":"127.1766473","items":[{"name":"엔터아트","tel":"031-528-3999","addr":"경기도 남양주시 진건읍 용정리 771-5번지","category":"직물 - 카페트,커튼,천막,지물"},{"name":"은혜산업","tel":"031-573-8113","addr":"경기도 남양주시 진건읍 용정리 771-5번지","category":"직물 - 카페트,커튼,천막,지물"}]},{"lat":"37.684745171","long":"127.19430351","items":[{"name":"엣지-테크(EDGE-TECH)","tel":"02-491-9688","addr":"경기도 남양주시 진건읍 용정리 36-4번지","category":"자동차정비 유지 - 자동차부품"}]},{"lat":"37.65988607","long":"127.17784083","items":[{"name":"연세본치과의원","tel":"031-573-2292","addr":"경기도 남양주시 진건읍 용정리 756번지","category":"의원 - 치과의원"}]},{"lat":"37.657417602","long":"127.183694","items":[{"name":"영이","tel":"031-575-3654","addr":"경기도 남양주시 진건읍 용정리 365번지 1층 일부","category":"음료식품 - 기타음료식품"},{"name":"영이네","tel":"","addr":"경기도 남양주시 진건읍 용정리 365번지","category":"일반휴게음식 - 일반한식"}]},{"lat":"37.677603485","long":"127.19247145","items":[{"name":"영창기계","tel":"031-573-9720","addr":"경기도 남양주시 진건읍 용정리 231-8","category":"기타 - 기계공구"}]},{"lat":"37.660410972","long":"127.17625543","items":[{"name":"예린어린이집[아이행복]","tel":"031-0000-0000","addr":"경기도 남양주시 진건읍 용정리 816번지","category":"학원 - 유아원"},{"name":"토끼네창고","tel":"031-527-5281","addr":"경기도 남양주시 진건읍 용정리 816번지 2층","category":"신변잡화 - 신발"}]},{"lat":"37.656666889","long":"127.17966914","items":[{"name":"예삐헤어샵","tel":"031-575-8552","addr":"경기도 남양주시 진건읍 용정리 786-7번지","category":"보건위생 - 미용원"},{"name":"횡성해장국","tel":"031-574-7333","addr":"경기도 남양주시 진건읍 용정리 786-7번지","category":"일반휴게음식 - 일반한식"}]},{"lat":"37.677855845","long":"127.19241542","items":[{"name":"예스투탐(주)","tel":"070-5138-7538","addr":"경기도 남양주시 진건읍 용정리 231-1번지 2층","category":"보건위생 - 화장품"}]},{"lat":"37.660080084","long":"127.17456604","items":[{"name":"예원음악학원","tel":"031-528-0545","addr":"경기도 남양주시 진건읍 용정리 812-34 3층","category":"학원 - 예·체능계학원"}]},{"lat":"37.65758059","long":"127.1771668","items":[{"name":"예일어린이집[아이행복]","tel":"031-574-3849","addr":"경기도 남양주시 진건읍 용정리 775-11번지","category":"학원 - 유아원"}]},{"lat":"37.658470731","long":"127.17839282","items":[{"name":"오겹살에소주한잔","tel":"031-571-6383","addr":"경기도 남양주시 진건읍 용정리 774-1번지","category":"일반휴게음식 - 일반한식"}]},{"lat":"37.65744581","long":"127.18292345","items":[{"name":"오마이바디","tel":"031-527-3432","addr":"경기도 남양주시 진건읍 용정리 790-16번지 314호","category":"보건위생 - 화장품"}]},{"lat":"37.658165345","long":"127.17775747","items":[{"name":"오케이 스크린골프","tel":"031-573-0753","addr":"경기도 남양주시 진건읍 용정리 774-4번지","category":"레저업소 - 스크린골프"},{"name":"화성옥","tel":"031-574-3777","addr":"경기도 남양주시 진건읍 용정리 774-4번지","category":"일반휴게음식 - 일반한식"}]},{"lat":"37.660857966","long":"127.17861377","items":[{"name":"온누리공구","tel":"031-572-7909","addr":"경기도 남양주시 진건읍 용정리 721-1","category":"기타 - 기계공구"},{"name":"진카오디오","tel":"070-4079-1333","addr":"경기도 남양주시 진건읍 용정리 721-1번지 1","category":"자동차정비 유지 - 자동차부품"},{"name":"타이어테크남양주점","tel":"031-528-3363","addr":"경기도 남양주시 진건읍 용정리 721-1","category":"자동차정비 유지 - 자동차시트·타이어"}]},{"lat":"37.655469843","long":"127.17883905","items":[{"name":"와이제이인터내셔널","tel":"031-573-7179","addr":"경기도 남양주시 진건읍 용정리 794-78번지 상가 1층","category":"레져용품 - 스포츠·레져용품"}]},{"lat":"37.658223039","long":"127.17528706","items":[{"name":"외갓집밥상","tel":"031-529-6333","addr":"경기도 남양주시 진건읍 용정리 799번지","category":"일반휴게음식 - 일반한식"}]},{"lat":"37.65577546","long":"127.17931573","items":[{"name":"용정장여관","tel":"031-573-1013","addr":"경기도 남양주시 진건읍 용정리 794-30번지","category":"숙박업 - 여관/기타숙박업"}]},{"lat":"37.658249172","long":"127.17589909","items":[{"name":"우리미용실","tel":"031-574-0798","addr":"경기도 남양주시 진건읍 용정리 767-30번지","category":"보건위생 - 미용원"}]},{"lat":"37.67963836","long":"127.19328149","items":[{"name":"우리쌤","tel":"031-544-1912","addr":"경기도 남양주시 진건읍 용정리 15번지 1층","category":"서적문구 - 기타서적문구"}]},{"lat":"37.656720437","long":"127.18000925","items":[{"name":"우링두링","tel":"031-512-6641","addr":"경기도 남양주시 진건읍 용정리 786-24번지 1층 101호","category":"신변잡화 - 귀금속"}]},{"lat":"37.659418307","long":"127.17734109","items":[{"name":"우스(진건)","tel":"031-575-9293","addr":"경기도 남양주시 진건읍 용정리 766-7","category":"일반휴게음식 - 일반한식"}]},{"lat":"37.680465467","long":"127.18874915","items":[{"name":"웅진","tel":"031-573-1537","addr":"경기도 남양주시 진건읍 용정리 104-16번지","category":"기타 - 기계공구"}]},{"lat":"37.669304881","long":"127.19291505","items":[{"name":"유. 소놀이공예사","tel":"031-571-0238","addr":"경기도 남양주시 진건읍 용정리 251","category":"회원제형태 - 기타4"}]},{"lat":"37.656917815","long":"127.18056501","items":[{"name":"유몬","tel":"0507-1358-6123","addr":"경기도 남양주시 진건읍 용정리 791-9번지","category":"주방용구 - 주방용구"}]},{"lat":"37.668494875","long":"127.18080796","items":[{"name":"유신개발","tel":"031-512-9791","addr":"경기도 남양주시 진건읍 용정리 639-2번지","category":"전기제품 - 기타전기제품"}]},{"lat":"37.668080405","long":"127.18670077","items":[{"name":"이대감버섯생고기","tel":"031-527-7434","addr":"경기도 남양주시 진건읍 용정리 460-3","category":"일반휴게음식 - 일반한식"}]},{"lat":"37.656142147","long":"127.18111845","items":[{"name":"이모감자탕","tel":"031-528-6611","addr":"경기도 남양주시 진건읍 용정리 793-3번지 1층","category":"일반휴게음식 - 일반한식"}]},{"lat":"37.679466903","long":"127.19345109","items":[{"name":"인 메탈","tel":"031-528-8758","addr":"경기도 남양주시 진건읍 용정리 15-1번지 1층(15-1,15-6번지)","category":"용역 서비스 - 기타용역서비스"},{"name":"태성상사","tel":"031-527-3403","addr":"경기도 남양주시 진건읍 용정리 15-1번지","category":"서적문구 - 완구점"}]},{"lat":"37.655613963","long":"127.17886205","items":[{"name":"자매분식","tel":"","addr":"경기도 남양주시 진건읍 용정리 794-77번지 1층","category":"일반휴게음식 - 스넥"},{"name":"주성텔레콤","tel":"070-7527-6139","addr":"경기도 남양주시 진건읍 용정리 794-77","category":"사무통신 - 통신기기"}]},{"lat":"37.671112342","long":"127.18945125","items":[{"name":"자원농원","tel":"","addr":"경기도 남양주시 진건읍 용정리 267-3번지 1층","category":"음료식품 - 농·축·수산품"}]},{"lat":"37.679826455","long":"127.19944876","items":[{"name":"작은결혼식","tel":"02-2212-2219","addr":"경기도 남양주시 진건읍 용정리 3-3번지","category":"용역 서비스 - 혼례서비스"}]},{"lat":"37.657582508","long":"127.17586355","items":[{"name":"작은공간","tel":"031-573-3618","addr":"경기도 남양주시 진건읍 용정리 800-11번지","category":"일반휴게음식 - 주점"}]},{"lat":"37.679055903","long":"127.19130755","items":[{"name":"정가네","tel":"031-527-0206","addr":"경기도 남양주시 진건읍 용정리 146-7번지 외1필지","category":"일반휴게음식 - 스넥"}]},{"lat":"37.664745017","long":"127.18785992","items":[{"name":"주식회사 디오","tel":"031-1111-1111","addr":"경기도 남양주시 진건읍 용정리 446-1번지","category":"음료식품 - 기타음료식품"}]},{"lat":"37.686774749","long":"127.19281223","items":[{"name":"주식회사 아이리스오토캠핑","tel":"070-8810-7011","addr":"경기도 남양주시 진건읍 용정리 59-1번지","category":"레져용품 - 스포츠·레져용품"}]},{"lat":"37.684717949","long":"127.19989247","items":[{"name":"주식회사 에이티에스코퍼레이션","tel":"02-996-7056","addr":"경기도 남양주시 진건읍 용정리 34-43번지","category":"유통업 영리 - 기타유통업"}]},{"lat":"37.657208026","long":"127.18522339","items":[{"name":"주식회사 운산미디어","tel":"070-7788-1654","addr":"경기도 남양주시 진건읍 용정리 855번지 진건주공2단지 204동 901호","category":"용역 서비스 - 종합용역"}]},{"lat":"37.680575629","long":"127.18744577","items":[{"name":"주식회사엠케이카라반","tel":"031-575-1988","addr":"경기도 남양주시 진건읍 용정리 508번지","category":"레져용품 - 스포츠·레져용품"}]},{"lat":"37.657304358","long":"127.18114389","items":[{"name":"주식회사와이에스케이","tel":"070-8758-1672","addr":"경기도 남양주시 진건읍 용정리 791-47번지","category":"서적문구 - 과학기자재"}]},{"lat":"37.680304484","long":"127.19364594","items":[{"name":"주식회사클립","tel":"031-524-9911","addr":"경기도 남양주시 진건읍 용정리 17번지","category":"서적문구 - 문구용품"}]},{"lat":"37.680443961","long":"127.19094831","items":[{"name":"준푸드","tel":"","addr":"경기도 남양주시 진건읍 용정리 127-2번지","category":"음료식품 - 정육점"}]},{"lat":"37.660138105","long":"127.17800009","items":[{"name":"쥬씨 사능점","tel":"070-4115-1028","addr":"경기도 남양주시 진건읍 용정리 745-7번지","category":"일반휴게음식 - 서양음식"}]},{"lat":"37.681583015","long":"127.18852521","items":[{"name":"지엠컴퍼니","tel":"031-527-0267","addr":"경기도 남양주시 진건읍 용정리 104-22번지","category":"건축자재 - 기타건축자재"}]},{"lat":"37.680132183","long":"127.18870298","items":[{"name":"지현키즈","tel":"070-7520-1017","addr":"경기도 남양주시 진건읍 용정리 160-3번지 1층","category":"음료식품 - 농·축·수산품"}]},{"lat":"37.662584025","long":"127.18114518","items":[{"name":"창원꽃농원","tel":"031-574-1881","addr":"경기도 남양주시 진건읍 용정리 713-1번지","category":"문화.취미 - 화원"}]},{"lat":"37.658495814","long":"127.17969615","items":[{"name":"천마호키태권도장","tel":"031-527-5193","addr":"경기도 남양주시 진건읍 용정리 750-5번지 한신A2 차상가 201","category":"학원 - 기타 교육기관"}]},{"lat":"37.657857473","long":"127.18473768","items":[{"name":"천만텔레콤","tel":"031-568-3030","addr":"경기도 남양주시 진건읍 용정리 855번지 진건주공2단지 202동 102호","category":"회원제형태 - 기타1"}]},{"lat":"37.657860458","long":"127.17678214","items":[{"name":"최가네칼국수","tel":"031-527-0042","addr":"경기도 남양주시 진건읍 용정리 722-6번지 1층","category":"일반휴게음식 - 일반한식"}]},{"lat":"37.655497901","long":"127.17814784","items":[{"name":"친구카정비센타","tel":"031-527-1229","addr":"경기도 남양주시 진건읍 용정리 794-71번지 1층","category":"자동차정비 유지 - 자동차정비"}]},{"lat":"37.657165476","long":"127.17761913","items":[{"name":"칠성에이앤에스","tel":"","addr":"경기도 남양주시 진건읍 용정리 778-1번지 로얄하이빌 203호","category":"용역 서비스 - 기타용역서비스"}]},{"lat":"37.657417662","long":"127.17767638","items":[{"name":"카페비아","tel":"070-4408-3729","addr":"경기도 남양주시 진건읍 용정리 778번지","category":"일반휴게음식 - 서양음식"}]},{"lat":"37.680274545","long":"127.18983694","items":[{"name":"커피플라","tel":"","addr":"경기도 남양주시 진건읍 용정리 156번지 1층","category":"일반휴게음식 - 서양음식"}]},{"lat":"37.677883311","long":"127.19214343","items":[{"name":"코지펀 플레이","tel":"031-572-4197","addr":"경기도 남양주시 진건읍 용정리 231-5번지","category":"학원 - 기타 교육기관"}]},{"lat":"37.678054402","long":"127.19220054","items":[{"name":"콜드메이크","tel":"031-573-8444","addr":"경기도 남양주시 진건읍 용정리 231번지","category":"전기제품 - 냉열기기"}]},{"lat":"37.681857712","long":"127.18570315","items":[{"name":"콩마당손두부","tel":"031-574-8188","addr":"경기도 남양주시 진건읍 용정리 515-7번지","category":"일반휴게음식 - 일반한식"}]},{"lat":"37.670799504","long":"127.18786361","items":[{"name":"큰맘할매순대국 (송능점)","tel":"031-573-7564","addr":"경기도 남양주시 진건읍 용정리 270-3번지 1층","category":"일반휴게음식 - 일반한식"}]},{"lat":"37.656109731","long":"127.17870457","items":[{"name":"탑인테리어","tel":"031-592-9737","addr":"경기도 남양주시 진건읍 용정리 794-56번지","category":"건축자재 - 인테리어전문"}]},{"lat":"37.681357149","long":"127.18892142","items":[{"name":"태성옻칠공방","tel":"031-573-3879","addr":"경기도 남양주시 진건읍 용정리 104-1번지","category":"문화.취미 - 민예·공예품"}]},{"lat":"37.657801731","long":"127.17992115","items":[{"name":"태후사랑","tel":"031-571-5324","addr":"경기도 남양주시 진건읍 용정리 750-8번지 그린힐 상가 103호","category":"보건위생 - 미용원"}]},{"lat":"37.655750927","long":"127.17763848","items":[{"name":"테마스크린골프","tel":"031-573-0244","addr":"경기도 남양주시 진건읍 용정리 794-10번지 1층","category":"레저업소 - 스크린골프"},{"name":"테마식품","tel":"031-573-0244","addr":"경기도 남양주시 진건읍 용정리 794-10번지","category":"음료식품 - 기타음료식품"}]},{"lat":"37.686664553","long":"127.1826426","items":[{"name":"팡팡이노테크","tel":"031-575-5630","addr":"경기도 남양주시 진건읍 용정리 565번지","category":"자동차정비 유지 - 자동차부품"}]},{"lat":"37.665855838","long":"127.1802803","items":[{"name":"패밀리에어컨","tel":"","addr":"경기도 남양주시 진건읍 용정리 692번지","category":"전기제품 - 냉열기기"}]},{"lat":"37.682078353","long":"127.18283559","items":[{"name":"펫앤코","tel":"031-000-0000","addr":"경기도 남양주시 진건읍 용정리 520-1번지","category":"문화.취미 - 애완동물"}]},{"lat":"37.682360841","long":"127.1866113","items":[{"name":"포커스","tel":"031-185-0883","addr":"경기도 남양주시 진건읍 용정리 537-2번지","category":"유통업 영리 - 기타유통업"}]},{"lat":"37.658167609","long":"127.18808159","items":[{"name":"한국기독공사","tel":"031-527-5010","addr":"경기도 남양주시 진건읍 용정리 339","category":"건축자재 - 인테리어전문"}]},{"lat":"37.683634047","long":"127.19052557","items":[{"name":"한국불교복지종","tel":"02-540-5811","addr":"경기도 남양주시 진건읍 용정리 86-3","category":"신변잡화 - 기념품점"}]},{"lat":"37.682887204","long":"127.18992285","items":[{"name":"한밀제분","tel":"031-911-1784","addr":"경기도 남양주시 진건읍 용정리 91-1번지 외3필지","category":"음료식품 - 기타음료식품"}]},{"lat":"37.684995946","long":"127.19522244","items":[{"name":"한성네온","tel":"031-574-1538","addr":"경기도 남양주시 진건읍 용정리 36-9","category":"용역 서비스 - 종합용역"}]},{"lat":"37.680769642","long":"127.19011025","items":[{"name":"한스우드","tel":"031-527-2133","addr":"경기도 남양주시 진건읍 용정리 153-1번지 153-4,152-2","category":"가구 - 일반가구"}]},{"lat":"37.658223307","long":"127.18116876","items":[{"name":"한신마트","tel":"031-574-4999","addr":"경기도 남양주시 진건읍 용정리 751-7","category":"유통업 영리 - 슈퍼마켓"}]},{"lat":"37.660498272","long":"127.17814826","items":[{"name":"한신자동차3급공업사","tel":"031-573-1480","addr":"경기도 남양주시 진건읍 용정리 745-1번지","category":"자동차정비 유지 - 자동차정비"}]},{"lat":"37.668501042","long":"127.17667095","items":[{"name":"해밝음장애인화훼작업장","tel":"031-573-7123","addr":"경기도 남양주시 진건읍 용정리 670","category":"문화.취미 - 화원"}]},{"lat":"37.680021916","long":"127.19006303","items":[{"name":"햇고을","tel":"031-575-2027","addr":"경기도 남양주시 진건읍 용정리 155번지","category":"음료식품 - 기타음료식품"}]},{"lat":"37.656662782","long":"127.18238894","items":[{"name":"행복의집","tel":"031-573-1956","addr":"경기도 남양주시 진건읍 용정리 367-24","category":"기타의료기관 - 기타의료기관 및 기타"}]},{"lat":"37.656414279","long":"127.17989519","items":[{"name":"허브약국","tel":"031-575-7571","addr":"경기도 남양주시 진건읍 용정리 786-14번지 101호","category":"약국 - 약국"}]},{"lat":"37.663358854","long":"127.18114704","items":[{"name":"헬스윈","tel":"031-529-2543","addr":"경기도 남양주시 진건읍 용정리 710-2번지","category":"레져용품 - 스포츠·레져용품"}]},{"lat":"37.657473577","long":"127.17641859","items":[{"name":"홍익공조시스템","tel":"02-1661-0336","addr":"경기도 남양주시 진건읍 용정리 776-8번지 노아5차 가동 103호","category":"회원제형태 - 기타4"}]},{"lat":"37.656441852","long":"127.17953262","items":[{"name":"홍천자매식당","tel":"031-574-8522","addr":"경기도 남양주시 진건읍 용정리 786-52번지","category":"일반휴게음식 - 일반한식"}]}]