[{"lat":"37.285235461","long":"126.88823295","imageIndex":4,"items":[{"name":"(주)아워홈 두산인프라코어안산점","tel":"031-400-2290","addr":"경기도 안산시 상록구 팔곡이동 85-1번지 2층","indutype":"일반휴게음식 - 위탁급식업","category":"restaurant"}]},{"lat":"37.292374661","long":"126.88226752","imageIndex":4,"items":[{"name":"감골오리향","tel":"031-438-1868","addr":"경기도 안산시 상록구 팔곡이동 477번지","indutype":"일반휴게음식 - 일반한식","category":"restaurant"}]},{"lat":"37.297316777","long":"126.88677098","imageIndex":4,"items":[{"name":"고기나라","tel":"031-407-9233","addr":"경기도 안산시 상록구 팔곡이동 364-6번지 1호","indutype":"일반휴게음식 - 일반한식","category":"restaurant"},{"name":"장터치킨","tel":"031-502-8892","addr":"경기도 안산시 상록구 팔곡이동 364-6번지 4호","indutype":"일반휴게음식 - 주점","category":"restaurant"},{"name":"친구네김치찌개","tel":"031-407-8768","addr":"경기도 안산시 상록구 팔곡이동 364-6번지 1층 3호","indutype":"일반휴게음식 - 일반한식","category":"restaurant"}]},{"lat":"37.297318097","long":"126.88812439","imageIndex":4,"items":[{"name":"곤드레만드레","tel":"031-437-2214","addr":"경기도 안산시 상록구 팔곡이동 356-1번지","indutype":"일반휴게음식 - 주점","category":"restaurant"},{"name":"열린라이브","tel":"031-437-7173","addr":"경기도 안산시 상록구 팔곡이동 356-1번지 3층","indutype":"일반휴게음식 - 주점","category":"restaurant"},{"name":"열린라이브","tel":"","addr":"경기도 안산시 상록구 팔곡이동 356-1번지 3층","indutype":"일반휴게음식 - 주점","category":"restaurant"},{"name":"우묵골식당","tel":"031-437-1017","addr":"경기도 안산시 상록구 팔곡이동 356-1번지","indutype":"일반휴게음식 - 일반한식","category":"restaurant"}]},{"lat":"37.296117896","long":"126.88624275","imageIndex":4,"items":[{"name":"꽃돼지순대국","tel":"031-405-5536","addr":"경기도 안산시 상록구 팔곡이동 408-1번지 1층","indutype":"일반휴게음식 - 일반한식","category":"restaurant"},{"name":"팔곡가든","tel":"031-407-6200","addr":"경기도 안산시 상록구 팔곡이동 408-1번지","indutype":"일반휴게음식 - 일반한식","category":"restaurant"}]},{"lat":"37.297092711","long":"126.88798939","imageIndex":4,"items":[{"name":"달달커피","tel":"031-415-8920","addr":"경기도 안산시 상록구 팔곡이동 356-7번지","indutype":"일반휴게음식 - 서양음식","category":"restaurant"}]},{"lat":"37.293872716","long":"126.88459965","imageIndex":4,"items":[{"name":"담원골","tel":"031-437-2233","addr":"경기도 안산시 상록구 팔곡이동 442-5번지 1층","indutype":"일반휴게음식 - 일반한식","category":"restaurant"}]},{"lat":"37.287098029","long":"126.88562517","imageIndex":4,"items":[{"name":"대일식당","tel":"070-4110-2699","addr":"경기도 안산시 상록구 팔곡이동 75-13번지 지층 대일강업","indutype":"일반휴게음식 - 위탁급식업","category":"restaurant"}]},{"lat":"37.297263059","long":"126.8871207","imageIndex":4,"items":[{"name":"동네감자탕","tel":"031-501-4642","addr":"경기도 안산시 상록구 팔곡이동 357-3번지 풍강빌딩 나동 1층","indutype":"일반휴게음식 - 일반한식","category":"restaurant"}]},{"lat":"37.293736247","long":"126.88329163","imageIndex":4,"items":[{"name":"두례갤러리","tel":"031-242-6019","addr":"경기도 안산시 상록구 팔곡이동 449-6번지","indutype":"일반휴게음식 - 일반한식","category":"restaurant"}]},{"lat":"37.297272322","long":"126.88738008","imageIndex":4,"items":[{"name":"또봉이통닭(팔곡점)","tel":"031-501-9292","addr":"경기도 안산시 상록구 팔곡이동 357-3번지 풍강빌딩 가동 102호","indutype":"일반휴게음식 - 스넥","category":"restaurant"}]},{"lat":"37.290118353","long":"126.8875489","imageIndex":4,"items":[{"name":"만리장성","tel":"031-438-0566","addr":"경기도 안산시 상록구 팔곡이동 51-1번지","indutype":"일반휴게음식 - 중국식","category":"restaurant"}]},{"lat":"37.294311976","long":"126.88237721","imageIndex":4,"items":[{"name":"산들토종닭","tel":"031-438-0001","addr":"경기도 안산시 상록구 팔곡이동 456-3번지 8(1층)","indutype":"일반휴게음식 - 일반한식","category":"restaurant"}]},{"lat":"37.293485084","long":"126.88440853","imageIndex":4,"items":[{"name":"색동면옥","tel":"031-501-4100","addr":"경기도 안산시 상록구 팔곡이동 444-4번지 1층","indutype":"일반휴게음식 - 일반한식","category":"restaurant"},{"name":"화수목중화요리","tel":"031-501-4100","addr":"경기도 안산시 상록구 팔곡이동 444-4번지","indutype":"일반휴게음식 - 중국식","category":"restaurant"}]},{"lat":"37.297369246","long":"126.88515809","imageIndex":4,"items":[{"name":"손커피연구소","tel":"","addr":"경기도 안산시 상록구 팔곡이동 377-1번지 ,1-2층","indutype":"일반휴게음식 - 서양음식","category":"restaurant"},{"name":"손커피연구소","tel":"070-8268-3357","addr":"경기도 안산시 상록구 팔곡이동 377-1번지 ,1,2층","indutype":"일반휴게음식 - 서양음식","category":"restaurant"}]},{"lat":"37.289784048","long":"126.88660212","imageIndex":4,"items":[{"name":"오뚜기식당","tel":"031-437-2560","addr":"경기도 안산시 상록구 팔곡이동 49-2번지","indutype":"일반휴게음식 - 일반한식","category":"restaurant"}]},{"lat":"37.294674738","long":"126.88471117","imageIndex":4,"items":[{"name":"오쇼비어","tel":"031-501-6530","addr":"경기도 안산시 상록구 팔곡이동 424-8번지 1층","indutype":"일반휴게음식 - 스넥","category":"restaurant"}]},{"lat":"37.2971731","long":"126.88726745","imageIndex":4,"items":[{"name":"장수식당","tel":"031-418-9580","addr":"경기도 안산시 상록구 팔곡이동 357-3번지","indutype":"일반휴게음식 - 일반한식","category":"restaurant"},{"name":"장수식당","tel":"031-418-9580","addr":"경기도 안산시 상록구 팔곡이동 357-3번지 풍강빌딩 105호","indutype":"일반휴게음식 - 일반한식","category":"restaurant"},{"name":"중화루","tel":"031-438-6668","addr":"경기도 안산시 상록구 팔곡이동 357-3번지 가동상가 1층","indutype":"일반휴게음식 - 중국식","category":"restaurant"},{"name":"현대한식뷔페","tel":"031-403-7100","addr":"경기도 안산시 상록구 팔곡이동 357-3번지 풍강빌딩 1층 101호","indutype":"일반휴게음식 - 일반한식","category":"restaurant"}]},{"lat":"37.296479422","long":"126.8873813","imageIndex":4,"items":[{"name":"청담추어정","tel":"031-502-4200","addr":"경기도 안산시 상록구 팔곡이동 358-6번지 외1필지","indutype":"일반휴게음식 - 일반한식","category":"restaurant"}]},{"lat":"37.287313423","long":"126.88476779","imageIndex":4,"items":[{"name":"한성기공구내식당","tel":"031-502-5002","addr":"경기도 안산시 상록구 팔곡이동 75-12번지","indutype":"일반휴게음식 - 위탁급식업","category":"restaurant"}]}]