[{"lat":"37.791897861","long":"127.01031822","items":[{"name":"(주) 백경이엔지","tel":"031-847-0404","addr":"경기도 양주시 백석읍 방성리 545-3번지","category":"용역 서비스 - 기타용역서비스"},{"name":"우리건재","tel":"031-829-5005","addr":"경기도 양주시 백석읍 방성리 545-3번지 가동","category":"건축자재 - 기타건축자재"}]},{"lat":"37.79914166","long":"127.0064585","items":[{"name":"(주)대한종합상사","tel":"031-871-0945","addr":"경기도 양주시 백석읍 방성리 473-4번지 1동","category":"기타 - 기계공구"}]},{"lat":"37.788537501","long":"127.00651476","items":[{"name":"(주)시에스유통","tel":"031-826-6076","addr":"경기도 양주시 백석읍 방성리 776-2번지","category":"음료식품 - 기타음료식품"}]},{"lat":"37.808033888","long":"126.99660226","items":[{"name":"(주)이조테크","tel":"031-855-0945","addr":"경기도 양주시 백석읍 방성리 8-6번지","category":"기타 - 기계공구"},{"name":"양주기술학원","tel":"031-837-8181","addr":"경기도 양주시 백석읍 방성리 8-6번지 2층","category":"학원 - 기능학원"}]},{"lat":"37.799646005","long":"126.99537671","items":[{"name":"4인종합카센타","tel":"031-878-0843","addr":"경기도 양주시 백석읍 방성리 220-11번지","category":"자동차정비 유지 - 자동차정비"}]},{"lat":"37.801700344","long":"127.00665166","items":[{"name":"7856부대","tel":"031-855-3054","addr":"경기도 양주시 백석읍 방성리 93번지","category":"기타 - 비영리/대상"},{"name":"소공화 카페/제8기계화보병사단","tel":"031-1111-1111","addr":"경기도 양주시 백석읍 방성리 93번지","category":"일반휴게음식 - 서양음식"},{"name":"제8기계화보병사단","tel":"070-4176-9931","addr":"경기도 양주시 백석읍 방성리 93번지","category":"일반휴게음식 - 일반한식"},{"name":"제8기계화보병사단","tel":"070-4176-9931","addr":"경기도 양주시 백석읍 방성리 93번지","category":"일반휴게음식 - 일반한식"},{"name":"카페(공감)/7856부대","tel":"031-866-4593","addr":"경기도 양주시 백석읍 방성리 93번지","category":"일반휴게음식 - 서양음식"}]},{"lat":"37.788843811","long":"127.00691211","items":[{"name":"AL(에이엘)","tel":"031-843-1946","addr":"경기도 양주시 백석읍 방성리 777-5번지","category":"문화.취미 - 애완동물"}]},{"lat":"37.803565363","long":"127.00313172","items":[{"name":"EDP신양주점","tel":"031-000-0000","addr":"경기도 양주시 백석읍 방성리 105-4번지","category":"음료식품 - 기타음료식품"},{"name":"왕카자동차공업사","tel":"031-829-3008","addr":"경기도 양주시 백석읍 방성리 105-4번지","category":"자동차정비 유지 - 자동차정비"}]},{"lat":"37.808286132","long":"126.99621615","items":[{"name":"GS25양주백석점","tel":"","addr":"경기도 양주시 백석읍 방성리 8-7번지","category":"유통업 영리 - 편 의 점"}]},{"lat":"37.801466127","long":"127.00017952","items":[{"name":"GS25양주해오름점","tel":"","addr":"경기도 양주시 백석읍 방성리 888번지 101호 휴먼시아 제상가동","category":"유통업 영리 - 편 의 점"}]},{"lat":"37.793645736","long":"127.00971667","items":[{"name":"HAM무선통신","tel":"031-875-4528","addr":"경기도 양주시 백석읍 방성리 537-4번지","category":"사무통신 - 통신기기"},{"name":"불쌈곱닭","tel":"031-855-1205","addr":"경기도 양주시 백석읍 방성리 537-4번지","category":"일반휴게음식 - 일반한식"},{"name":"서연상회","tel":"031-879-6784","addr":"경기도 양주시 백석읍 방성리 537-4번지 가동 3호","category":"의류 - 정장"},{"name":"장터원조국수집","tel":"031-875-6791","addr":"경기도 양주시 백석읍 방성리 537-4번지 나동","category":"일반휴게음식 - 일반한식"},{"name":"지우스페이스가구","tel":"031-826-1929","addr":"경기도 양주시 백석읍 방성리 537-4번지 나동 1,2호","category":"가구 - 일반가구"},{"name":"케이삼덕","tel":"031-868-0701","addr":"경기도 양주시 백석읍 방성리 537-4번지","category":"기타 - 기타 전문점"}]},{"lat":"37.809114969","long":"126.99565964","items":[{"name":"OK비니루","tel":"031-829-0412","addr":"경기도 양주시 백석읍 방성리 6-3","category":"신변잡화 - 기타잡화"},{"name":"디엠오피스","tel":"031-855-1120","addr":"경기도 양주시 백석읍 방성리 6-3번지","category":"사무통신 - 기타 사무용품"},{"name":"모닝토스트커피","tel":"031-873-8253","addr":"경기도 양주시 백석읍 방성리 6-3번지","category":"일반휴게음식 - 서양음식"},{"name":"미니스톱양주백석점","tel":"031-426-3992","addr":"경기도 양주시 백석읍 방성리 6-3번지 1층","category":"유통업 영리 - 편 의 점"},{"name":"행복한식당","tel":"031-855-7760","addr":"경기도 양주시 백석읍 방성리 6-3번지","category":"일반휴게음식 - 일반한식"}]},{"lat":"37.799339866","long":"126.99921448","items":[{"name":"PC아울렛","tel":"031-829-3598","addr":"경기도 양주시 백석읍 방성리 244-1번지","category":"사무통신 - 컴퓨터"}]},{"lat":"37.806394097","long":"126.99541009","items":[{"name":"SNC골프아카데미","tel":"","addr":"경기도 양주시 백석읍 방성리 57번지","category":"레저업소 - 골프연습장"}]},{"lat":"37.783095747","long":"127.00712749","items":[{"name":"가나안 천년초 건강원","tel":"031-871-2005","addr":"경기도 양주시 백석읍 방성리 798-2번지","category":"건강식품 - 기타건강식품"}]},{"lat":"37.793952082","long":"127.00929662","items":[{"name":"가나약국","tel":"031-879-3163","addr":"경기도 양주시 백석읍 방성리 511-8","category":"약국 - 약국"}]},{"lat":"37.804591727","long":"126.98990306","items":[{"name":"가드24","tel":"","addr":"경기도 양주시 백석읍 방성리 23번지 드림팩토리","category":"전기제품 - 기타전기제품"}]},{"lat":"37.808006877","long":"126.99693158","items":[{"name":"가보자손칼국수","tel":"031-862-8971","addr":"경기도 양주시 백석읍 방성리 8-1번지","category":"일반휴게음식 - 일반한식"}]},{"lat":"37.804114941","long":"127.0026321","items":[{"name":"가성천막사","tel":"031-836-4444","addr":"경기도 양주시 백석읍 방성리 119-3번지 1층","category":"직물 - 카페트,커튼,천막,지물"}]},{"lat":"37.785537395","long":"127.00223484","items":[{"name":"가온누리","tel":"031-829-7880","addr":"경기도 양주시 백석읍 방성리 827번지 1층","category":"보건위생 - 미용재료"},{"name":"도라에멍","tel":"","addr":"경기도 양주시 백석읍 방성리 827번지 3호","category":"문화.취미 - 애완동물"},{"name":"만복도가니탕","tel":"031-855-3828","addr":"경기도 양주시 백석읍 방성리 827번지","category":"일반휴게음식 - 일반한식"},{"name":"미니스톱 백석타운점","tel":"031-1577-9621","addr":"경기도 양주시 백석읍 방성리 827번지","category":"유통업 영리 - 편 의 점"},{"name":"한울타리","tel":"031-878-6011","addr":"경기도 양주시 백석읍 방성리 827번지 주건축물 1동 1층 8호","category":"일반휴게음식 - 일반한식"}]},{"lat":"37.786816744","long":"127.0027911","items":[{"name":"감동CLEAN협동조합","tel":"031-829-1130","addr":"경기도 양주시 백석읍 방성리 700번지 2층 201호","category":"용역 서비스 - 종합용역"}]},{"lat":"37.809114996","long":"126.99610252","items":[{"name":"강북징크","tel":"031-871-9060","addr":"경기도 양주시 백석읍 방성리 6-1번지","category":"건축자재 - 기타건축자재"},{"name":"늘기쁜주간보호센타","tel":"031-878-3545","addr":"경기도 양주시 백석읍 방성리 6-1번지 3층","category":"기타의료기관 - 기타의료기관 및 기타"},{"name":"백석요양원","tel":"031-877-3535","addr":"경기도 양주시 백석읍 방성리 6-1번지 2층","category":"기타의료기관 - 기타의료기관 및 기타"},{"name":"큰길주야간보호센터","tel":"031-877-3535","addr":"경기도 양주시 백석읍 방성리 6-1번지 2층","category":"기타의료기관 - 기타의료기관 및 기타"}]},{"lat":"37.800339959","long":"127.00480081","items":[{"name":"경인","tel":"","addr":"경기도 양주시 백석읍 방성리 432-1번지","category":"음료식품 - 기타음료식품"}]},{"lat":"37.794537714","long":"127.00901283","items":[{"name":"경진자동차공업사","tel":"031-879-1330","addr":"경기도 양주시 백석읍 방성리 511-16번지","category":"자동차정비 유지 - 자동차정비"},{"name":"준식당","tel":"031-877-3170","addr":"경기도 양주시 백석읍 방성리 511-16번지 1층","category":"일반휴게음식 - 일반한식"}]},{"lat":"37.808646455","long":"126.9952963","items":[{"name":"광원정공","tel":"031-855-4644","addr":"경기도 양주시 백석읍 방성리 7-5번지","category":"기타 - 기계공구"},{"name":"대명기계공업사","tel":"031-855-9424","addr":"경기도 양주시 백석읍 방성리 7-5","category":"기타 - 기계공구"},{"name":"양주현대기계","tel":"031-840-9311","addr":"경기도 양주시 백석읍 방성리 7-5번지 외2필지","category":"기타 - 기계공구"},{"name":"현대함석닥트","tel":"031-877-3621","addr":"경기도 양주시 백석읍 방성리 7-5번지 나동","category":"건축자재 - 보일러·펌프·샷시"},{"name":"홍진기아","tel":"031-855-6315","addr":"경기도 양주시 백석읍 방성리 7-5번지 가동 1층","category":"기타 - 기계공구"},{"name":"흥덕전기재료","tel":"031-879-7084","addr":"경기도 양주시 백석읍 방성리 7-5번지 나동 4호","category":"건축자재 - 조명기구"}]},{"lat":"37.786870799","long":"127.00213266","items":[{"name":"구리청과 식자재","tel":"031-873-5658","addr":"경기도 양주시 백석읍 방성리 697-3번지","category":"음료식품 - 기타음료식품"},{"name":"아이케이(Ik)컴퍼니","tel":"031-829-8648","addr":"경기도 양주시 백석읍 방성리 697-3번지 가동 104호","category":"신변잡화 - 기타잡화"},{"name":"파티&파티(자담)","tel":"031-829-9877","addr":"경기도 양주시 백석읍 방성리 697-3번지","category":"일반휴게음식 - 일반한식"}]},{"lat":"37.806060964","long":"127.00065627","items":[{"name":"균프로카","tel":"031-874-4050","addr":"경기도 양주시 백석읍 방성리 87-7번지 1층 103호, 104호","category":"자동차정비 유지 - 자동차부품"},{"name":"하늘광고","tel":"031-837-1177","addr":"경기도 양주시 백석읍 방성리 87-7번지 B동","category":"건축자재 - 인테리어전문"}]},{"lat":"37.792285261","long":"127.01043179","items":[{"name":"금강","tel":"031-826-3652","addr":"경기도 양주시 백석읍 방성리 542","category":"용역 서비스 - 종합용역"},{"name":"밧데리 뱅크","tel":"","addr":"경기도 양주시 백석읍 방성리 542번지","category":"자동차정비 유지 - 자동차부품"}]},{"lat":"37.785645507","long":"127.00198509","items":[{"name":"꿀잼점핑24","tel":"","addr":"경기도 양주시 백석읍 방성리 827번지 1호","category":"건강식품 - 기타건강식품"}]},{"lat":"37.80111461","long":"126.99640982","items":[{"name":"꿈나무애견미용실","tel":"031-836-1999","addr":"경기도 양주시 백석읍 방성리 185-4번지 A동 2층","category":"문화.취미 - 애완동물"}]},{"lat":"37.802141859","long":"127.00148529","items":[{"name":"나눔팩","tel":"031-879-1108","addr":"경기도 양주시 백석읍 방성리 115-2번지 1층","category":"유통업 영리 - 기타유통업"}]},{"lat":"37.789420474","long":"127.00113359","items":[{"name":"나무와선녀군공방","tel":"070-7109-2232","addr":"경기도 양주시 백석읍 방성리 690-4번지 1층","category":"가구 - 일반가구"},{"name":"트로닉스","tel":"031-866-2237","addr":"경기도 양주시 백석읍 방성리 690-4","category":"레져용품 - 스포츠·레져용품"}]},{"lat":"37.794699933","long":"127.00799102","items":[{"name":"네박자노래연습장","tel":"03-111-1111","addr":"경기도 양주시 백석읍 방성리 511-2번지 대교산과내아파트","category":"레저업소 - 노 래 방"},{"name":"에이스전자저울","tel":"","addr":"경기도 양주시 백석읍 방성리 511-2번지 대교산과내아파트","category":"기타 - 기계공구"}]},{"lat":"37.806700261","long":"126.99324117","items":[{"name":"농업회사법인주식회사 삼부","tel":"031-000-0000","addr":"경기도 양주시 백석읍 방성리 16-14번지","category":"음료식품 - 기타음료식품"}]},{"lat":"37.79215015","long":"127.00993224","items":[{"name":"뉴수호렌트카주식회사양주백석영업소","tel":"031-853-0418","addr":"경기도 양주시 백석읍 방성리 526-25번지","category":"여행 - 렌터카"},{"name":"만남의광장","tel":"031-879-9252","addr":"경기도 양주시 백석읍 방성리 526-25번지","category":"일반휴게음식 - 일반한식"},{"name":"행복한정육식당","tel":"031-877-3363","addr":"경기도 양주시 백석읍 방성리 526-25번지","category":"일반휴게음식 - 일반한식"}]},{"lat":"37.803232013","long":"127.00263211","items":[{"name":"다모아종합건축","tel":"031-829-5915","addr":"경기도 양주시 백석읍 방성리 106-5번지","category":"건축자재 - 인테리어전문"}]},{"lat":"37.795870737","long":"127.01415619","items":[{"name":"다빈치쇼파","tel":"031-864-1348","addr":"경기도 양주시 백석읍 방성리 산109번지","category":"가구 - 일반가구"}]},{"lat":"37.797141605","long":"127.00168975","items":[{"name":"다육이랑 옹이랑","tel":"031-847-9380","addr":"경기도 양주시 백석읍 방성리 398번지","category":"문화.취미 - 화원"}]},{"lat":"37.791087017","long":"127.0101592","items":[{"name":"대성공업주식회사","tel":"031-879-4036","addr":"경기도 양주시 백석읍 방성리 552-5번지","category":"자동차정비 유지 - 자동차정비"}]},{"lat":"37.804952815","long":"127.00171234","items":[{"name":"대성장여관","tel":"070-7792-1820","addr":"경기도 양주시 백석읍 방성리 85-14번지 2층","category":"숙박업 - 여관/기타숙박업"},{"name":"유정식당","tel":"031-855-5163","addr":"경기도 양주시 백석읍 방성리 85-14번지","category":"일반휴게음식 - 일반한식"}]},{"lat":"37.788204202","long":"127.00196236","items":[{"name":"대한모터스","tel":"070-8234-4229","addr":"경기도 양주시 백석읍 방성리 712-8번지 2층","category":"자동차정비 유지 - 자동차부품"}]},{"lat":"37.798646187","long":"127.00168973","items":[{"name":"대한불교조계종불국사","tel":"031-836-2563","addr":"경기도 양주시 백석읍 방성리 450번지","category":"신변잡화 - 기념품점"}]},{"lat":"37.798420866","long":"127.0075144","items":[{"name":"대한전기","tel":"031-878-2413","addr":"경기도 양주시 백석읍 방성리 472-9","category":"기타 - 기계공구"}]},{"lat":"37.801114775","long":"127.00113331","items":[{"name":"도담도담 산후도우미(양주점)","tel":"031-855-9120","addr":"경기도 양주시 백석읍 방성리 114-2번지","category":"보건위생 - 기타대인서비스"},{"name":"태민측량설계사무소","tel":"031-829-3869","addr":"경기도 양주시 백석읍 방성리 114-2","category":"용역 서비스 - 사무서비스"}]},{"lat":"37.795618856","long":"127.00891073","items":[{"name":"돈까스일번지","tel":"031-877-9952","addr":"경기도 양주시 백석읍 방성리 489-1번지 외1필지","category":"일반휴게음식 - 일반한식"},{"name":"비달삼순헤어샵","tel":"","addr":"경기도 양주시 백석읍 방성리 489-1번지","category":"보건위생 - 미용원"},{"name":"사랑할인마트","tel":"070-8864-2812","addr":"경기도 양주시 백석읍 방성리 489-1번지","category":"유통업 영리 - 편 의 점"},{"name":"세븐일레븐양주부흥로점","tel":"031-1577-0711","addr":"경기도 양주시 백석읍 방성리 489-1번지","category":"유통업 영리 - 편 의 점"}]},{"lat":"37.791870897","long":"127.00921697","items":[{"name":"동산무역","tel":"031-836-4789","addr":"경기도 양주시 백석읍 방성리 526-21번지 2호","category":"의류 - 기타의류"},{"name":"주식회사 백마광고종합건설","tel":"031-879-2679","addr":"경기도 양주시 백석읍 방성리 526-21번지","category":"용역 서비스 - 기타용역서비스"}]},{"lat":"37.807592472","long":"126.99754481","items":[{"name":"동아기계","tel":"031-859-9580","addr":"경기도 양주시 백석읍 방성리 47-3번지","category":"기타 - 기계공구"}]},{"lat":"37.804394206","long":"127.00032703","items":[{"name":"동훈기획","tel":"031-877-2394","addr":"경기도 양주시 백석읍 방성리 83-14번지","category":"건축자재 - 인테리어전문"},{"name":"동훈기획","tel":"031-877-2394","addr":"경기도 양주시 백석읍 방성리 83-14번지 1호","category":"건축자재 - 인테리어전문"},{"name":"세븐일레븐양주꿈나무로점","tel":"031-1577-0711","addr":"경기도 양주시 백석읍 방성리 83-14번지 103호 102호, 103호","category":"유통업 영리 - 편 의 점"},{"name":"원조왕족발보쌈","tel":"031-879-7077","addr":"경기도 양주시 백석읍 방성리 83-14번지","category":"일반휴게음식 - 일반한식"}]},{"lat":"37.808115033","long":"126.99782866","items":[{"name":"두영정밀","tel":"031-826-0773","addr":"경기도 양주시 백석읍 방성리 5-14","category":"신변잡화 - 기타잡화"}]},{"lat":"37.802114837","long":"127.00215521","items":[{"name":"디엠비(DMB)카워시","tel":"031-829-2929","addr":"경기도 양주시 백석읍 방성리 109-43번지 35번지,47번지","category":"자동차정비 유지 - 세차장"},{"name":"불무리 모터스","tel":"031-872-1282","addr":"경기도 양주시 백석읍 방성리 109-43번지 전체","category":"자동차정비 유지 - 윤활유 전문 판매"}]},{"lat":"37.80534015","long":"126.998601","items":[{"name":"따복이포차","tel":"031-111-1111","addr":"경기도 양주시 백석읍 방성리 77-7번지 1층 101호","category":"일반휴게음식 - 일반한식"}]},{"lat":"37.802520233","long":"127.00014542","items":[{"name":"룬코어(RUNE CORE)","tel":"","addr":"경기도 양주시 백석읍 방성리 164-11번지 영진아트빌라 나동 301호","category":"주방용구 - 주방용구"}]},{"lat":"37.800141731","long":"127.00004331","items":[{"name":"마마스","tel":"","addr":"경기도 양주시 백석읍 방성리 238-1번지 1층 103호","category":"일반휴게음식 - 주점"},{"name":"유(U)마트","tel":"031-877-8245","addr":"경기도 양주시 백석읍 방성리 238-1번지 101호","category":"유통업 영리 - 슈퍼마켓"}]},{"lat":"37.804619463","long":"127.0015193","items":[{"name":"만남노래방","tel":"031-879-4896","addr":"경기도 양주시 백석읍 방성리 85-32번지 2층","category":"레저업소 - 노 래 방"}]},{"lat":"37.78572659","long":"127.00171264","items":[{"name":"만듦","tel":"031-837-5030","addr":"경기도 양주시 백석읍 방성리 863-1번지 3호","category":"건축자재 - 인테리어전문"},{"name":"베이징","tel":"031-855-7666","addr":"경기도 양주시 백석읍 방성리 863-1번지","category":"일반휴게음식 - 중국식"},{"name":"원탑기획","tel":"","addr":"경기도 양주시 백석읍 방성리 863-1번지 4호","category":"건축자재 - 인테리어전문"}]},{"lat":"37.805754629","long":"127.0000431","items":[{"name":"만석 지물 페인트","tel":"031-873-7041","addr":"경기도 양주시 백석읍 방성리 80-3번지 102호","category":"건축자재 - 페인트"},{"name":"조은미용실","tel":"031-878-7063","addr":"경기도 양주시 백석읍 방성리 80-3번지 1층","category":"보건위생 - 미용원"},{"name":"태영카센타","tel":"031-879-2009","addr":"경기도 양주시 백석읍 방성리 80-3번지","category":"자동차정비 유지 - 자동차정비"}]},{"lat":"37.80489874","long":"127.00048598","items":[{"name":"맘스데일리","tel":"070-7425-4545","addr":"경기도 양주시 백석읍 방성리 81-18번지 1층","category":"직물 - 침구·수예점"}]},{"lat":"37.803475269","long":"127.00282514","items":[{"name":"먹기좋은날","tel":"031-826-3900","addr":"경기도 양주시 백석읍 방성리 105-1번지","category":"일반휴게음식 - 일반한식"},{"name":"미륵궁","tel":"031-861-8832","addr":"경기도 양주시 백석읍 방성리 105-1번지 2층","category":"보건위생 - 기타대인서비스"},{"name":"아사도","tel":"031-858-7070","addr":"경기도 양주시 백석읍 방성리 105-1번지","category":"일반휴게음식 - 일반한식"}]},{"lat":"37.805087935","long":"127.00034971","items":[{"name":"멋부림 미용실","tel":"032-612-1414","addr":"경기도 양주시 백석읍 방성리 81-10번지 1층 일부","category":"보건위생 - 미용원"},{"name":"정민의료기업","tel":"031-877-6089","addr":"경기도 양주시 백석읍 방성리 81-10번지","category":"보건위생 - 의료용품"}]},{"lat":"37.801312954","long":"126.99972534","items":[{"name":"명품농산","tel":"031-876-0133","addr":"경기도 양주시 백석읍 방성리 888번지 휴먼시아 104동 604호","category":"음료식품 - 농·축·수산품"}]},{"lat":"37.806502397","long":"126.99940717","items":[{"name":"명품해물모듬짱뽕&수제돈까스","tel":"031-836-4800","addr":"경기도 양주시 백석읍 방성리 50-22번지","category":"일반휴게음식 - 중국식"},{"name":"주식회사우진디피피","tel":"031-843-5550","addr":"경기도 양주시 백석읍 방성리 50-22번지","category":"서적문구 - 출판 및 인쇄물"}]},{"lat":"37.796114386","long":"127.00874047","items":[{"name":"문스타이어","tel":"02-477-8189","addr":"경기도 양주시 백석읍 방성리 490-4번지","category":"자동차정비 유지 - 자동차시트·타이어"},{"name":"백석자동차공업사","tel":"031-855-8442","addr":"경기도 양주시 백석읍 방성리 490-4번지 일부","category":"자동차정비 유지 - 자동차정비"},{"name":"장작구이한마당","tel":"031-829-9279","addr":"경기도 양주시 백석읍 방성리 490-4","category":"일반휴게음식 - 일반한식"}]},{"lat":"37.806313216","long":"127.00007714","items":[{"name":"물오른유통","tel":"031-877-0302","addr":"경기도 양주시 백석읍 방성리 50-20","category":"음료식품 - 농·축·수산품"}]},{"lat":"37.795591898","long":"127.00732121","items":[{"name":"미소헤어","tel":"031-878-8790","addr":"경기도 양주시 백석읍 방성리 502-9번지","category":"보건위생 - 미용원"}]},{"lat":"37.792870872","long":"127.01052268","items":[{"name":"민물털랭이매운탕","tel":"031-836-0606","addr":"경기도 양주시 백석읍 방성리 538-3번지 1동 1층","category":"일반휴게음식 - 일반한식"}]},{"lat":"37.792005915","long":"127.01121513","items":[{"name":"밥이랑 반찬이랑","tel":"031-829-5989","addr":"경기도 양주시 백석읍 방성리 546-2번지 1층","category":"일반휴게음식 - 일반한식"},{"name":"삼거리치킨","tel":"031-878-7567","addr":"경기도 양주시 백석읍 방성리 546-2","category":"일반휴게음식 - 일반한식"},{"name":"하니컴비닐","tel":"031-855-4619","addr":"경기도 양주시 백석읍 방성리 546-2번지 6호","category":"농업 - 기타농업관련"}]},{"lat":"37.79517752","long":"127.00534566","items":[{"name":"배프(BAEF)","tel":"","addr":"경기도 양주시 백석읍 방성리 362-11번지","category":"자동차정비 유지 - 자동차부품"}]},{"lat":"37.807060957","long":"126.99860091","items":[{"name":"백석센터","tel":"031-879-3355","addr":"경기도 양주시 백석읍 방성리 51-36번지 1층","category":"자동차정비 유지 - 자동차부품"},{"name":"수미밥집","tel":"031-829-2348","addr":"경기도 양주시 백석읍 방성리 51-36번지 1층 일부","category":"일반휴게음식 - 일반한식"},{"name":"죠스상사","tel":"031-836-7942","addr":"경기도 양주시 백석읍 방성리 51-36번지","category":"유통업 영리 - 기타유통업"}]},{"lat":"37.804835679","long":"127.00079257","items":[{"name":"백석우체국","tel":"031-879-2004","addr":"경기도 양주시 백석읍 방성리 81-15번지","category":"용역 서비스 - 공공요금대행서비스/소"}]},{"lat":"37.808619532","long":"126.99715864","items":[{"name":"백운칡냉면","tel":"","addr":"경기도 양주시 백석읍 방성리 5-23번지 가동 1층","category":"일반휴게음식 - 일반한식"},{"name":"커피이야기","tel":"031-836-1003","addr":"경기도 양주시 백석읍 방성리 5-23번지 1층","category":"일반휴게음식 - 서양음식"},{"name":"화해농원","tel":"031-855-0343","addr":"경기도 양주시 백석읍 방성리 5-23번지","category":"문화.취미 - 화원"}]},{"lat":"37.792285226","long":"127.01096539","items":[{"name":"베스트 올","tel":"070-8128-7775","addr":"경기도 양주시 백석읍 방성리 544-3번지","category":"유통업 영리 - 슈퍼마켓"},{"name":"삼거리식당","tel":"031-878-7175","addr":"경기도 양주시 백석읍 방성리 544-3번지 나동 1층","category":"일반휴게음식 - 일반한식"}]},{"lat":"37.792393447","long":"127.00921701","items":[{"name":"베스트폴딩도어(Best Folding Door)","tel":"031-848-9157","addr":"경기도 양주시 백석읍 방성리 528-3번지","category":"건축자재 - 기타건축자재"}]},{"lat":"37.793204244","long":"127.01018211","items":[{"name":"불곡산보신탕능이오리","tel":"031-855-0102","addr":"경기도 양주시 백석읍 방성리 537-3","category":"일반휴게음식 - 일반한식"},{"name":"하나광고","tel":"031-877-4148","addr":"경기도 양주시 백석읍 방성리 537-3번지","category":"건축자재 - 인테리어전문"}]},{"lat":"37.806006928","long":"127.0026321","items":[{"name":"불무리 군장","tel":"031-855-4301","addr":"경기도 양주시 백석읍 방성리 87-19","category":"신변잡화 - 기념품점"}]},{"lat":"37.80575465","long":"127.00115591","items":[{"name":"불무리군장","tel":"031-855-4301","addr":"경기도 양주시 백석읍 방성리 87-11번지","category":"신변잡화 - 기념품점"},{"name":"삼성모터스","tel":"031-878-2982","addr":"경기도 양주시 백석읍 방성리 87-11번지","category":"자동차판매 - 이륜차판매"},{"name":"혜성전기히타","tel":"031-837-9666","addr":"경기도 양주시 백석읍 방성리 87-11번지","category":"전기제품 - 냉열기기"}]},{"lat":"37.793808092","long":"127.00465305","items":[{"name":"블루ENG(청소나라)","tel":"","addr":"경기도 양주시 백석읍 방성리 354-4번지 해송그린빌라 E동 403호","category":"용역 서비스 - 종합용역"}]},{"lat":"37.786393109","long":"126.99621812","items":[{"name":"비엔비(BNB) 모터스","tel":"031-836-5205","addr":"경기도 양주시 백석읍 방성리 886-1번지","category":"자동차정비 유지 - 자동차부품"}]},{"lat":"37.806169033","long":"126.99898704","items":[{"name":"빠삭한옛날통닭","tel":"031-875-6402","addr":"경기도 양주시 백석읍 방성리 79-4번지","category":"일반휴게음식 - 일반한식"},{"name":"천복도가니탕","tel":"031-837-1030","addr":"경기도 양주시 백석읍 방성리 79-4번지 1층","category":"일반휴게음식 - 일반한식"}]},{"lat":"37.805231705","long":"126.99307104","items":[{"name":"사단법인 미래한도여성협회문화복지사업단","tel":"","addr":"경기도 양주시 백석읍 방성리 28-1번지","category":"신변잡화 - 기타잡화"}]},{"lat":"37.808286202","long":"126.99760154","items":[{"name":"삼보(SAMBO)","tel":"031-871-1233","addr":"경기도 양주시 백석읍 방성리 5-5번지","category":"건축자재 - 보일러·펌프·샷시"},{"name":"신화모타전기","tel":"031-879-3303","addr":"경기도 양주시 백석읍 방성리 5-5번지","category":"수리서비스 - 기타수리서비스"},{"name":"우진철물","tel":"031-879-8383","addr":"경기도 양주시 백석읍 방성리 5-5","category":"기타 - 기계공구"}]},{"lat":"37.805619489","long":"127.00015666","items":[{"name":"삼성당약국","tel":"031-855-2506","addr":"경기도 양주시 백석읍 방성리 80-4번지","category":"약국 - 약국"}]},{"lat":"37.799592154","long":"127.00570914","items":[{"name":"삼성피브이씨종합상사","tel":"031-879-0175","addr":"경기도 양주시 백석읍 방성리 428-3번지","category":"건축자재 - 기타건축자재"}]},{"lat":"37.806114744","long":"126.99451305","items":[{"name":"서남피혁회사","tel":"031-878-0185","addr":"경기도 양주시 백석읍 방성리 36-3","category":"직물 - 옷감·직물"}]},{"lat":"37.80395272","long":"126.99943","items":[{"name":"선진정보통신","tel":"031-879-4111","addr":"경기도 양주시 백석읍 방성리 122-9번지","category":"회원제형태 - 기타1"},{"name":"성연헤어","tel":"031-837-0977","addr":"경기도 양주시 백석읍 방성리 122-9번지 1층 102호","category":"보건위생 - 미용원"}]},{"lat":"37.798339777","long":"127.00760523","items":[{"name":"성림 E. N. G","tel":"070-8810-9607","addr":"경기도 양주시 백석읍 방성리 472-4번지","category":"기타 - 기계공구"}]},{"lat":"37.797204435","long":"126.99532018","items":[{"name":"성림자동차공업사","tel":"031-855-1871","addr":"경기도 양주시 백석읍 방성리 282","category":"자동차정비 유지 - 자동차정비"}]},{"lat":"37.793087334","long":"127.00459627","items":[{"name":"성원건축","tel":"031-855-3018","addr":"경기도 양주시 백석읍 방성리 575-12번지","category":"기타 - 기계공구"}]},{"lat":"37.798006403","long":"127.00816156","items":[{"name":"성진복층유리","tel":"031-826-6282","addr":"경기도 양주시 백석읍 방성리 471-8","category":"건축자재 - 유리"}]},{"lat":"37.79175389","long":"126.9993511","items":[{"name":"성호유통","tel":"031-844-5105","addr":"경기도 양주시 백석읍 방성리 646-4번지","category":"신변잡화 - 기타잡화"}]},{"lat":"37.807835745","long":"126.99796495","items":[{"name":"세븐일레븐양주방성점","tel":"031-1577-0711","addr":"경기도 양주시 백석읍 방성리 5-21번지 1층","category":"유통업 영리 - 편 의 점"}]},{"lat":"37.790114149","long":"127.00687813","items":[{"name":"세진악기","tel":"031-842-2502","addr":"경기도 양주시 백석읍 방성리 559-7번지","category":"레져용품 - 악기점"}]},{"lat":"37.805952854","long":"127.00084932","items":[{"name":"송원장갑","tel":"031-826-2663","addr":"경기도 양주시 백석읍 방성리 87-8","category":"의류 - 기타의류"}]},{"lat":"37.804619459","long":"127.00121272","items":[{"name":"신명산업","tel":"031-876-7672","addr":"경기도 양주시 백석읍 방성리 85-34번지","category":"직물 - 카페트,커튼,천막,지물"},{"name":"우리집밥상","tel":"031-836-0023","addr":"경기도 양주시 백석읍 방성리 85-34번지","category":"일반휴게음식 - 일반한식"},{"name":"이모네포차","tel":"031-836-0023","addr":"경기도 양주시 백석읍 방성리 85-34번지 1층 일부","category":"일반휴게음식 - 일반한식"}]},{"lat":"37.802502238","long":"127.00432397","items":[{"name":"신지전자","tel":"02-6409-7372","addr":"경기도 양주시 백석읍 방성리 109-18번지","category":"레져용품 - 스포츠·레져용품"}]},{"lat":"37.795726993","long":"127.00843389","items":[{"name":"실내포장마차","tel":"031-878-3275","addr":"경기도 양주시 백석읍 방성리 509-1","category":"일반휴게음식 - 주점"}]},{"lat":"37.787420368","long":"127.00121311","items":[{"name":"실버들","tel":"070-4910-2304","addr":"경기도 양주시 백석읍 방성리 692-20번지","category":"건강식품 - 기타건강식품"}]},{"lat":"37.80459244","long":"127.00215519","items":[{"name":"씨유양주26사단점","tel":"031-836-4715","addr":"경기도 양주시 백석읍 방성리 85-3번지 1층","category":"유통업 영리 - 편 의 점"}]},{"lat":"37.802033651","long":"126.99796533","items":[{"name":"아리아노래연습장","tel":"031-879-5570","addr":"경기도 양주시 백석읍 방성리 177-3번지","category":"레저업소 - 노 래 방"}]},{"lat":"37.8005021","long":"126.99963454","items":[{"name":"아쏨","tel":"","addr":"경기도 양주시 백석읍 방성리 238번지 나동","category":"신변잡화 - 신발"}]},{"lat":"37.798835325","long":"127.00687859","items":[{"name":"양주가구백화점","tel":"031-878-2567","addr":"경기도 양주시 백석읍 방성리 473-8번지","category":"가구 - 일반가구"}]},{"lat":"37.807862811","long":"126.99896424","items":[{"name":"양주골 이가 전통주","tel":"","addr":"경기도 양주시 백석읍 방성리 51-6번지","category":"음료식품 - 주류 판매점"}]},{"lat":"37.806673498","long":"126.99735183","items":[{"name":"양주적벽돌","tel":"031-877-9880","addr":"경기도 양주시 백석읍 방성리 53-46번지","category":"건축자재 - 기타건축자재"}]},{"lat":"37.801862463","long":"126.99777232","items":[{"name":"양주큰손식당","tel":"031-877-5907","addr":"경기도 양주시 백석읍 방성리 176번지 1층","category":"일반휴게음식 - 일반한식"}]},{"lat":"37.798537992","long":"127.00743493","items":[{"name":"양주함석닥트","tel":"031-829-3389","addr":"경기도 양주시 백석읍 방성리 472-10번지","category":"용역 서비스 - 기타용역서비스"}]},{"lat":"37.783122818","long":"127.00574257","items":[{"name":"어둔골 손두부","tel":"","addr":"경기도 양주시 백석읍 방성리 841-2번지","category":"일반휴게음식 - 일반한식"}]},{"lat":"37.791114226","long":"126.99965766","items":[{"name":"어르신밥상/(주)아들과딸","tel":"031-836-7088","addr":"경기도 양주시 백석읍 방성리 647번지 1층","category":"일반휴게음식 - 일반한식"}]},{"lat":"37.799502011","long":"126.9984878","items":[{"name":"어썸","tel":"","addr":"경기도 양주시 백석읍 방성리 251-9번지 삼송에코빌2차 2동 2층 201호","category":"레져용품 - 스포츠·레져용품"}]},{"lat":"37.799592188","long":"127.00315442","items":[{"name":"에듀바비서울노원지사","tel":"02-1522-0701","addr":"경기도 양주시 백석읍 방성리 440-1번지","category":"용역 서비스 - 사무서비스"}]},{"lat":"37.799700301","long":"127.00240503","items":[{"name":"에코상사","tel":"031-875-2081","addr":"경기도 양주시 백석읍 방성리 439-13번지","category":"자동차정비 유지 - 자동차부품"}]},{"lat":"37.79347475","long":"127.00393778","items":[{"name":"에클레시아","tel":"031-829-1639","addr":"경기도 양주시 백석읍 방성리 575-9번지 일부 1층","category":"일반휴게음식 - 일반한식"},{"name":"주식회사 초광씨유아이엔씨","tel":"031-829-1619","addr":"경기도 양주시 백석읍 방성리 575-9번지 102호","category":"의류 - 기타의류"}]},{"lat":"37.802231867","long":"126.998147","items":[{"name":"엠에스 (M.S) 유통","tel":"031-829-7579","addr":"경기도 양주시 백석읍 방성리 177-4번지 태성아트빌 A동 203호","category":"음료식품 - 농·축·수산품"},{"name":"엠에스(M.S)유통","tel":"031-836-8969","addr":"경기도 양주시 백석읍 방성리 177-4번지 태성아트빌 A동 203호","category":"음료식품 - 농·축·수산품"}]},{"lat":"37.805700523","long":"126.99846472","items":[{"name":"엠지개발산업주식회사","tel":"031-544-0431","addr":"경기도 양주시 백석읍 방성리 77-2번지","category":"기타 - 기계공구"}]},{"lat":"37.806502356","long":"126.99821485","items":[{"name":"여우야여우야뭐하니","tel":"031-872-6900","addr":"경기도 양주시 백석읍 방성리 53-23번지 뉴월드빌","category":"의류 - 정장"}]},{"lat":"37.789897874","long":"127.00810422","items":[{"name":"예성목재","tel":"031-829-5958","addr":"경기도 양주시 백석읍 방성리 783-3","category":"건축자재 - 목재·석재·철물"}]},{"lat":"37.800565149","long":"126.99907817","items":[{"name":"예원미용재료","tel":"03-100-0000","addr":"경기도 양주시 백석읍 방성리 236번지","category":"보건위생 - 미용재료"}]},{"lat":"37.801619213","long":"126.99790859","items":[{"name":"옛날보신탕","tel":"031-829-1677","addr":"경기도 양주시 백석읍 방성리 175-2번지","category":"일반휴게음식 - 일반한식"}]},{"lat":"37.800871516","long":"127.00490302","items":[{"name":"오성종합부품센타","tel":"031-840-4205","addr":"경기도 양주시 백석읍 방성리 461번지","category":"기타 - 기계공구"}]},{"lat":"37.793087265","long":"126.99852224","items":[{"name":"오토피아자동차공업사","tel":"031-879-0220","addr":"경기도 양주시 백석읍 방성리 634-4번지","category":"자동차정비 유지 - 자동차정비"}]},{"lat":"37.801835539","long":"127.00421041","items":[{"name":"온유스틸","tel":"031-874-3538","addr":"경기도 양주시 백석읍 방성리 109-5번지","category":"건축자재 - 기타건축자재"},{"name":"우성금속산업","tel":"031-874-0494","addr":"경기도 양주시 백석읍 방성리 109-5번지","category":"용역 서비스 - 기타용역서비스"}]},{"lat":"37.801231897","long":"127.00476677","items":[{"name":"용천공업사","tel":"031-879-6748","addr":"경기도 양주시 백석읍 방성리 111","category":"자동차정비 유지 - 자동차정비"}]},{"lat":"37.805952815","long":"126.99923687","items":[{"name":"우리네베이커리","tel":"031-877-0029","addr":"경기도 양주시 백석읍 방성리 78-4번지","category":"음료식품 - 제과점"}]},{"lat":"37.802006593","long":"126.99729541","items":[{"name":"우리샤시","tel":"031-875-8860","addr":"경기도 양주시 백석읍 방성리 179번지","category":"건축자재 - 보일러·펌프·샷시"}]},{"lat":"37.795204561","long":"127.00463038","items":[{"name":"우리이엔지","tel":"","addr":"경기도 양주시 백석읍 방성리 365번지","category":"기타 - 기계공구"},{"name":"햇빛천년초","tel":"031-846-7505","addr":"경기도 양주시 백석읍 방성리 365번지","category":"음료식품 - 농·축·수산품"}]},{"lat":"37.80136704","long":"127.00471","items":[{"name":"우성금속","tel":"031-878-6500","addr":"경기도 양주시 백석읍 방성리 111-8","category":"용역 서비스 - 기타용역서비스"}]},{"lat":"37.803754519","long":"126.99971388","items":[{"name":"위드유통","tel":"","addr":"경기도 양주시 백석읍 방성리 122-8번지","category":"음료식품 - 정육점"}]},{"lat":"37.804646472","long":"127.00034973","items":[{"name":"유진","tel":"070-8987-3408","addr":"경기도 양주시 백석읍 방성리 82-2번지","category":"신변잡화 - 신발"}]},{"lat":"37.794952157","long":"127.00887662","items":[{"name":"은혜미용실","tel":"031-843-9275","addr":"경기도 양주시 백석읍 방성리 511-24번지 상가동 101호","category":"보건위생 - 미용원"}]},{"lat":"37.802727479","long":"127.00390385","items":[{"name":"이공 비빔국수 왕돈까스","tel":"070-4194-6596","addr":"경기도 양주시 백석읍 방성리 109-49번지 1층","category":"일반휴게음식 - 일반한식"},{"name":"짜장군 짬뽕걸","tel":"070-8821-8787","addr":"경기도 양주시 백석읍 방성리 109-49번지","category":"일반휴게음식 - 중국식"},{"name":"짜장군짬뽕걸","tel":"070-8821-8787","addr":"경기도 양주시 백석읍 방성리 109-49번지 1층","category":"일반휴게음식 - 중국식"}]},{"lat":"37.806781395","long":"126.99385436","items":[{"name":"이엔테크","tel":"070-7394-0482","addr":"경기도 양주시 백석읍 방성리 16-1번지","category":"가구 - 일반가구"}]},{"lat":"37.802286019","long":"127.00251856","items":[{"name":"주식회사 성심통상","tel":"031-926-3543","addr":"경기도 양주시 백석읍 방성리 109-22번지 1층","category":"용역 서비스 - 가례서비스업"}]},{"lat":"37.803808522","long":"126.99810148","items":[{"name":"주식회사 유진파워텍","tel":"031-837-3200","addr":"경기도 양주시 백석읍 방성리 127-3번지","category":"건축자재 - 기타건축자재"}]},{"lat":"37.793618862","long":"126.99965755","items":[{"name":"주식회사태영자동차공업","tel":"031-879-8036","addr":"경기도 양주시 백석읍 방성리 625-1번지","category":"자동차정비 유지 - 자동차정비"}]},{"lat":"37.791312442","long":"126.99996418","items":[{"name":"주신산업","tel":"031-829-9156","addr":"경기도 양주시 백석읍 방성리 616-2","category":"기타 - 기계공구"},{"name":"지소비닐","tel":"031-829-9831","addr":"경기도 양주시 백석읍 방성리 616-2번지","category":"유통업 영리 - 기타유통업"}]},{"lat":"37.784816632","long":"127.00396036","items":[{"name":"중고 가전가구 재활용","tel":"02-1800-5024","addr":"경기도 양주시 백석읍 방성리 835번지","category":"전기제품 - 가전제품"}]},{"lat":"37.807727637","long":"126.99810122","items":[{"name":"진격의 타이어","tel":"031-855-8338","addr":"경기도 양주시 백석읍 방성리 5-25번지","category":"자동차정비 유지 - 자동차시트·타이어"}]},{"lat":"37.805979807","long":"126.99821489","items":[{"name":"채움미술","tel":"070-4176-4145","addr":"경기도 양주시 백석읍 방성리 76-3번지 창원빌라 402호","category":"회원제형태 - 학원"}]},{"lat":"37.790780747","long":"127.00926228","items":[{"name":"코인테크","tel":"070-1111-1111","addr":"경기도 양주시 백석읍 방성리 553-2번지","category":"농업 - 비료,사료,종자"}]},{"lat":"37.804114893","long":"126.99954354","items":[{"name":"쿠치나펠리체","tel":"","addr":"경기도 양주시 백석읍 방성리 122-3번지 1층","category":"일반휴게음식 - 서양음식"}]},{"lat":"37.799925509","long":"127.00551613","items":[{"name":"타이어장터","tel":"031-878-9421","addr":"경기도 양주시 백석읍 방성리 430-10","category":"자동차정비 유지 - 자동차시트·타이어"}]},{"lat":"37.789924909","long":"127.00795663","items":[{"name":"태양쏠트","tel":"031-837-7533","addr":"경기도 양주시 백석읍 방성리 783-1","category":"음료식품 - 기타음료식품"}]},{"lat":"37.793726968","long":"126.99940777","items":[{"name":"태영 타이어","tel":"031-879-8036","addr":"경기도 양주시 백석읍 방성리 304-3번지","category":"자동차정비 유지 - 자동차시트·타이어"}]},{"lat":"37.806619406","long":"126.99665916","items":[{"name":"태진기계철강","tel":"031-877-1368","addr":"경기도 양주시 백석읍 방성리 53-16번지","category":"기타 - 기계공구"}]},{"lat":"37.792258346","long":"127.00837686","items":[{"name":"토속식품","tel":"031-872-1706","addr":"경기도 양주시 백석읍 방성리 528-2번지","category":"음료식품 - 기타음료식품"}]},{"lat":"37.808502354","long":"126.99612528","items":[{"name":"토종병천순대","tel":"031-864-4375","addr":"경기도 양주시 백석읍 방성리 7-8번지 1층2층","category":"일반휴게음식 - 일반한식"}]},{"lat":"37.800421034","long":"127.00042935","items":[{"name":"티바두마리치킨 백석점","tel":"031-826-9966","addr":"경기도 양주시 백석읍 방성리 238-9번지","category":"일반휴게음식 - 스넥"}]},{"lat":"37.801448047","long":"126.99823788","items":[{"name":"퓨리피아","tel":"031-1644-3596","addr":"경기도 양주시 백석읍 방성리 173-3번지","category":"주방용구 - 정수기"}]},{"lat":"37.804448289","long":"127.00229145","items":[{"name":"피자에땅(광백점)","tel":"031-879-0852","addr":"경기도 양주시 백석읍 방성리 119-1번지","category":"일반휴게음식 - 서양음식"}]},{"lat":"37.80272742","long":"126.99902128","items":[{"name":"핑크헤어","tel":"070-8157-6250","addr":"경기도 양주시 백석읍 방성리 160-1번지","category":"보건위생 - 미용원"}]},{"lat":"37.79920466","long":"126.99754541","items":[{"name":"항아뜰건강원","tel":"031-829-7512","addr":"경기도 양주시 백석읍 방성리 252-13번지 1층","category":"건강식품 - 기타건강식품"}]},{"lat":"37.801781459","long":"127.00021357","items":[{"name":"행운","tel":"","addr":"경기도 양주시 백석읍 방성리 888번지 휴먼시아 105동 403호","category":"음료식품 - 농·축·수산품"}]},{"lat":"37.805835704","long":"126.99965702","items":[{"name":"행운편의점 러키세븐(Lucky7)","tel":"031-841-4949","addr":"경기도 양주시 백석읍 방성리 80-15번지","category":"유통업 영리 - 편 의 점"}]},{"lat":"37.805033894","long":"127.00119","items":[{"name":"헤어갤러리","tel":"031-878-2818","addr":"경기도 양주시 백석읍 방성리 81-26번지","category":"보건위생 - 미용원"}]}]