[{"lat":"37.829509154","long":"127.51461","items":[{"name":"(사)자라섬청소년재즈센터","tel":"031-581-2813","addr":"경기도 가평군 가평읍 읍내리 426","category":""},{"name":"래티오커피(RATIO COFFEE)","tel":"031-111-1111","addr":"경기도 가평군 가평읍 읍내리 403번지","category":"일반휴게음식 - 서양음식"},{"name":"리에또 파니노","tel":"","addr":"경기도 가평군 가평읍 읍내리 403","category":"일반휴게음식 - 서양음식"},{"name":"리에또 파니노","tel":"","addr":"경기도 가평군 가평읍 읍내리 403번지","category":"일반휴게음식 - 서양음식"},{"name":"백스도그","tel":"","addr":"경기도 가평군 가평읍 읍내리 403","category":"일반휴게음식 - 서양음식"},{"name":"백스도그","tel":"","addr":"경기도 가평군 가평읍 읍내리 403번지","category":"일반휴게음식 - 서양음식"},{"name":"불로초밥","tel":"","addr":"경기도 가평군 가평읍 읍내리 403","category":"간이음식포장 - 판매전문점"},{"name":"잣고을 꼬꼬치","tel":"031-3901-1164","addr":"경기도 가평군 가평읍 읍내리 403번지","category":"일반휴게음식 - 서양음식"},{"name":"잣고을 꼬꼬치","tel":"031-3901-1164","addr":"경기도 가평군 가평읍 읍내리 403","category":"일반휴게음식 - 서양음식"},{"name":"잣고을153닭강정","tel":"","addr":"경기도 가평군 가평읍 읍내리 403번지","category":"일반휴게음식 - 스넥"},{"name":"잣고을153닭강정","tel":"031-581-7719","addr":"경기도 가평군 가평읍 읍내리 403","category":"일반휴게음식 - 스넥"},{"name":"중앙철물","tel":"031-582-2578","addr":"경기도 가평군 가평읍 읍내리 456","category":"건축자재 - 목재·석재·철물"},{"name":"팟타임","tel":"","addr":"경기도 가평군 가평읍 읍내리 403","category":"일반휴게음식 - 서양음식"},{"name":"팟타임","tel":"","addr":"경기도 가평군 가평읍 읍내리 403번지","category":"일반휴게음식 - 서양음식"},{"name":"휴일어때","tel":"","addr":"경기도 가평군 가평읍 읍내리 403","category":"일반휴게음식 - 서양음식"},{"name":"휴일어때?","tel":"031-000-0000","addr":"경기도 가평군 가평읍 읍내리 403번지","category":"일반휴게음식 - 서양음식"}]},{"lat":"37.836343374","long":"127.50924992","items":[{"name":"(유)세화상사","tel":"031-582-3494","addr":"경기도 가평군 가평읍 읍내리 742번지","category":"음료식품 - 기타음료식품"}]},{"lat":"37.830791293","long":"127.51188134","items":[{"name":"(주)굿버스 두레관광","tel":"","addr":"경기도 가평군 가평읍 읍내리 461-1번지 2층","category":"여행 - 관광여행"}]},{"lat":"37.829317239","long":"127.5110761","items":[{"name":"(주)다우건축사사무소","tel":"031-585-1755","addr":"경기도 가평군 가평읍 읍내리 488-6번지 2층","category":"용역 서비스 - 기타용역서비스"}]},{"lat":"37.83601399","long":"127.50832753","items":[{"name":"(주)명보주유소","tel":"031-582-6611","addr":"경기도 가평군 가평읍 읍내리 745","category":"연료판매점 - SK주유소"},{"name":"공용카센타","tel":"031-581-7975","addr":"경기도 가평군 가평읍 읍내리 745번지","category":"자동차정비 유지 - 자동차정비"},{"name":"명보주유소","tel":"031-582-6611","addr":"경기도 가평군 가평읍 읍내리 745번지","category":"연료판매점 - SK주유소"}]},{"lat":"37.838203241","long":"127.5083311","items":[{"name":"(주)에코에너지","tel":"031-582-6204","addr":"경기도 가평군 가평읍 읍내리 751번지 1층","category":"용역 서비스 - 기타용역서비스"}]},{"lat":"37.833815864","long":"127.5186837","items":[{"name":"(주)연방산업","tel":"031-582-5791","addr":"경기도 가평군 가평읍 읍내리 289-8번지","category":"건축자재 - 목재·석재·철물"}]},{"lat":"37.831207035","long":"127.5115775","items":[{"name":"(주)일진건축사사무소","tel":"031-581-2877","addr":"경기도 가평군 가평읍 읍내리 457-7번지","category":"용역 서비스 - 법률회계서비스(개인)"}]},{"lat":"37.829095082","long":"127.51452763","items":[{"name":"1001안경원","tel":"031-582-2138","addr":"경기도 가평군 가평읍 읍내리 475-1번지","category":"보건위생 - 안경"},{"name":"일공공일안경원","tel":"031-582-2138","addr":"경기도 가평군 가평읍 읍내리 350-1번지","category":"보건위생 - 안경"}]},{"lat":"37.835731734","long":"127.50901854","items":[{"name":"201410화정족발","tel":"031-581-1818","addr":"경기도 가평군 가평읍 읍내리 738-8번지 1층","category":"일반휴게음식 - 일반한식"},{"name":"연인산잣닭갈비","tel":"031-581-5589","addr":"경기도 가평군 가평읍 읍내리 738-8번지","category":"일반휴게음식 - 일반한식"}]},{"lat":"37.826681933","long":"127.51835009","items":[{"name":"6호점읍내7리마을회","tel":"070-7013-8871","addr":"경기도 가평군 가평읍 읍내리 1035 외9필지","category":"일반휴게음식 - 일반한식"},{"name":"현기네송어구이","tel":"070-7013-8874","addr":"경기도 가평군 가평읍 읍내리 1035 외 14필지","category":"일반휴게음식 - 일반한식"}]},{"lat":"37.83373094","long":"127.50918663","items":[{"name":"BBMS헬스클럽","tel":"031-582-5694","addr":"경기도 가평군 가평읍 읍내리 637-6번지 준수상가 304동 306호","category":"레저업소 - 헬스클럽"},{"name":"GS25가평중앙점","tel":"02-2006-2485","addr":"경기도 가평군 가평읍 읍내리 637-6번지 준수빌딩 105호","category":"유통업 영리 - 편 의 점"},{"name":"갤럭시당구장","tel":"031-582-0891","addr":"경기도 가평군 가평읍 읍내리 637-6번지 준수상가 2층 201-3호","category":"레저업소 - 당 구 장"},{"name":"동양철물","tel":"031-582-0993","addr":"경기도 가평군 가평읍 읍내리 637-6번지 준수빌딩 109호","category":"건축자재 - 목재·석재·철물"},{"name":"명성황후노래연습장","tel":"031-581-8259","addr":"경기도 가평군 가평읍 읍내리 637-6번지","category":"레저업소 - 노 래 방"},{"name":"부뚜막야식","tel":"","addr":"경기도 가평군 가평읍 읍내리 637-6번지 준수대중목욕탕 103호","category":"일반휴게음식 - 일반한식"},{"name":"조일종합분식","tel":"031-582-5857","addr":"경기도 가평군 가평읍 읍내리 637-6","category":"일반휴게음식 - 스넥"},{"name":"준수대중목욕탕","tel":"031-581-4554","addr":"경기도 가평군 가평읍 읍내리 637-6번지 지하층","category":"보건위생 - 사우나"}]},{"lat":"37.833729133","long":"127.50960691","items":[{"name":"BHC치킨 가평점","tel":"031-581-2930","addr":"경기도 가평군 가평읍 읍내리 635-2번지 에이스1차","category":"일반휴게음식 - 스넥"},{"name":"가평 올바른 치과의원","tel":"031-582-2822","addr":"경기도 가평군 가평읍 읍내리 635-2번지 에이스1차 2층","category":"의원 - 치과의원"},{"name":"안동닭갈비","tel":"031-582-4760","addr":"경기도 가평군 가평읍 읍내리 635-2","category":"일반휴게음식 - 일반한식"},{"name":"안동닭갈비","tel":"031-582-4760","addr":"경기도 가평군 가평읍 읍내리 635-2 1층상가 4호,5호","category":"일반휴게음식 - 일반한식"},{"name":"유니넷PC존","tel":"","addr":"경기도 가평군 가평읍 읍내리 635-2번지 에이스1차","category":"레저업소 - 기타레져업소"}]},{"lat":"37.833042146","long":"127.5101361","items":[{"name":"CU가평군청점","tel":"031-581-7075","addr":"경기도 가평군 가평읍 읍내리 495-30번지","category":"유통업 영리 - 편 의 점"},{"name":"가평 탑 골프존","tel":"031-581-6221","addr":"경기도 가평군 가평읍 읍내리 616-6번지 외1필지","category":"레저업소 - 골프연습장"},{"name":"가평탑골프존","tel":"031-581-6221","addr":"경기도 가평군 가평읍 읍내리 616-6번지","category":"레져용품 - 골프용품 전문점"},{"name":"가평특선주영농조합법인","tel":"031-581-5009","addr":"경기도 가평군 가평읍 읍내리 615-12번지","category":"음료식품-주류판매"},{"name":"누나홀닭 가평점","tel":"031-582-9992","addr":"경기도 가평군 가평읍 읍내리 616-6번지 1층 2호","category":"일반휴게음식 - 일반한식"},{"name":"상신양복세탁점","tel":"031-582-1764","addr":"경기도 가평군 가평읍 읍내리 487-7번지","category":"수리서비스 - 세탁소"},{"name":"세븐일레븐 가평군청점","tel":"","addr":"경기도 가평군 가평읍 읍내리 617-6번지","category":"편의점 담배"},{"name":"승리손칼국수","tel":"","addr":"경기도 가평군 가평읍 읍내리 609번지","category":"일반휴게음식 - 일반한식"},{"name":"엄마네집밥","tel":"031-581-1250","addr":"경기도 가평군 가평읍 읍내리 616-6번지 1층","category":"일반휴게음식 - 일반한식"},{"name":"제이(J)헤어","tel":"031-581-0807","addr":"경기도 가평군 가평읍 읍내리 616-6번지","category":"보건위생 - 미용원"},{"name":"참새와방앗간","tel":"","addr":"경기도 가평군 가평읍 읍내리 329-1번지","category":"일반휴게음식 - 일반한식"},{"name":"참조은고기","tel":"","addr":"경기도 가평군 가평읍 읍내리 615-2번지","category":"음료식품 - 정육점"},{"name":"태양부숯불양꼬치","tel":"031-581-2555","addr":"경기도 가평군 가평읍 읍내리 616-6번지","category":"일반휴게음식 - 일반한식"},{"name":"태양부숯불양꼬치","tel":"031-581-2555","addr":"경기도 가평군 가평읍 읍내리 616-6번지","category":"일반휴게음식 - 일반한식"}]},{"lat":"37.826623636","long":"127.51519206","items":[{"name":"Dragon 스피닝","tel":"031-582-9996","addr":"경기도 가평군 가평읍 읍내리 363-1번지","category":"회원제형태 - 레져업소"},{"name":"송원막국수","tel":"031-582-1408","addr":"경기도 가평군 가평읍 읍내리 363-1번지","category":"일반휴게음식 - 일반한식"}]},{"lat":"37.838037425","long":"127.50708036","items":[{"name":"GS25가평파란채점","tel":"","addr":"경기도 가평군 가평읍 읍내리 767번지 1층 103호","category":"유통업 영리 - 편 의 점"}]},{"lat":"37.830570823","long":"127.510778","items":[{"name":"JB카인테리어","tel":"031-582-4881","addr":"경기도 가평군 가평읍 읍내리 495-25번지","category":"자동차정비 유지 - 카인테리어"},{"name":"자유여행사","tel":"031-581-8338","addr":"경기도 가평군 가평읍 읍내리 495-25번지","category":"여행 - 관광여행"}]},{"lat":"37.834820695","long":"127.50927359","items":[{"name":"K-마트 정육점","tel":"031-581-8911","addr":"경기도 가평군 가평읍 읍내리 673번지","category":"음료식품 - 정육점"},{"name":"K마트클럽","tel":"031-581-8913","addr":"경기도 가평군 가평읍 읍내리 673번지","category":"유통업 영리 - 슈퍼마켓"},{"name":"멕시카나가평행복점","tel":"031-558-9969","addr":"경기도 가평군 가평읍 읍내리 673번지","category":"일반휴게음식 - 스넥"},{"name":"멕시카나가평행복점","tel":"031-558-9969","addr":"경기도 가평군 가평읍 읍내리 673번지 A동 1층","category":"일반휴게음식 - 스넥"},{"name":"조일약국","tel":"031-581-1718","addr":"경기도 가평군 가평읍 읍내리 673번지","category":"약국 - 약국"},{"name":"참이맛 감자탕","tel":"031-581-8818","addr":"경기도 가평군 가평읍 읍내리 673번지","category":"일반휴게음식 - 일반한식"},{"name":"투다리","tel":"031-581-5792","addr":"경기도 가평군 가평읍 읍내리 673번지","category":"일반휴게음식 - 일반한식"}]},{"lat":"37.829733348","long":"127.50648999","items":[{"name":"Kids JAM","tel":"","addr":"경기도 가평군 가평읍 읍내리 579-15번지","category":"학원 - 기타 교육기관"},{"name":"한카페","tel":"","addr":"경기도 가평군 가평읍 읍내리 579-15번지","category":"일반휴게음식 - 서양음식"}]},{"lat":"37.829152884","long":"127.51366476","items":[{"name":"MJ 댄스스쿨","tel":"031-584-5954","addr":"경기도 가평군 가평읍 읍내리 476-3번지 2층","category":"학원 - 예·체능계학원"},{"name":"금호전기","tel":"031-581-0589","addr":"경기도 가평군 가평읍 읍내리 476-3번지","category":"전기제품 - 기타전기제품"},{"name":"참새방아","tel":"031-582-2198","addr":"경기도 가평군 가평읍 읍내리 476-3번지 참새방아","category":"음료식품 - 기타음료식품"}]},{"lat":"37.830762055","long":"127.51447098","items":[{"name":"OK카센타","tel":"031-582-9393","addr":"경기도 가평군 가평읍 읍내리 408-8번지","category":"자동차정비 유지 - 자동차부품"},{"name":"가평겔러리","tel":"031-581-0210","addr":"경기도 가평군 가평읍 읍내리 408-8","category":"가구 - 일반가구"}]},{"lat":"37.830509913","long":"127.51027779","items":[{"name":"PIS학원","tel":"031-582-3373","addr":"경기도 가평군 가평읍 읍내리 495-30번지 4층","category":"회원제형태 - 학원"},{"name":"씨유가평군청점","tel":"031-581-7570","addr":"경기도 가평군 가평읍 읍내리 495-30번지 태우빌딩 1층 1호","category":"유통업 영리 - 편 의 점"},{"name":"짚라인가평 주식회사","tel":"","addr":"경기도 가평군 가평읍 읍내리 495-30번지 태우빌딩 3층 302호","category":"레저업소 - 기타레져업소"}]},{"lat":"37.830455895","long":"127.51235611","items":[{"name":"SKY당구장","tel":"031-000-0000","addr":"경기도 가평군 가평읍 읍내리 464-5번지 2층","category":"레저업소 - 당 구 장"}]},{"lat":"37.829869225","long":"127.51260197","items":[{"name":"VIP당구장","tel":"031-582-1441","addr":"경기도 가평군 가평읍 읍내리 461-21","category":"레저업소 - 당 구 장"},{"name":"가평평화렉카","tel":"031-582-6985","addr":"경기도 가평군 가평읍 읍내리 461-21번지 외1필지","category":"자동차정비 유지 - 자동차정비"}]},{"lat":"37.830793321","long":"127.51349433","items":[{"name":"㈜코리아세븐 가평자라섬점","tel":"","addr":"경기도 가평군 가평읍 읍내리 432번지","category":"편의점"},{"name":"골목집","tel":"031-582-2855","addr":"경기도 가평군 가평읍 읍내리 402-30번지","category":"일반휴게음식 - 일반한식"},{"name":"본푸드","tel":"031-582-9200","addr":"경기도 가평군 가평읍 읍내리 433-2번지","category":"음료식품 - 정육점"},{"name":"용성각","tel":"02-582-8852","addr":"경기도 가평군 가평읍 읍내리 471-4번지","category":"일반휴게음식 - 중국식"},{"name":"용성각","tel":"02-582-8852","addr":"경기도 가평군 가평읍 읍내리 471-4번지","category":"일반휴게음식 - 중국식"},{"name":"장군한정식","tel":"031-582-7885","addr":"경기도 가평군 가평읍 읍내리 464-5번지","category":"일반휴게음식 - 일반한식"}]},{"lat":"37.833289008","long":"127.5092972","items":[{"name":"가람헤어샵","tel":"031-581-5933","addr":"경기도 가평군 가평읍 읍내리 615-9","category":"보건위생 - 미용원"},{"name":"돈통","tel":"031-581-0778","addr":"경기도 가평군 가평읍 읍내리 615-9번지","category":"일반휴게음식 - 일반한식"},{"name":"박원철자이언트피자","tel":"031-581-7700","addr":"경기도 가평군 가평읍 읍내리 615-9번지 푸른농수산슈퍼 2동","category":"일반휴게음식 - 서양음식"},{"name":"상록수","tel":"070-7793-4843","addr":"경기도 가평군 가평읍 읍내리 615-9번지","category":"일반휴게음식 - 일반한식"},{"name":"와사비","tel":"031-582-0059","addr":"경기도 가평군 가평읍 읍내리 615-9번지","category":"일반휴게음식 - 일반한식"},{"name":"유명서적","tel":"031-582-3825","addr":"경기도 가평군 가평읍 읍내리 615-9","category":"서적문구 - 일반서적"}]},{"lat":"37.831815788","long":"127.51038897","items":[{"name":"가리온야식","tel":"031-581-6883","addr":"경기도 가평군 가평읍 읍내리 508-8번지 우진빌딩 2층","category":"일반휴게음식 - 일반한식"},{"name":"세무법인한맥","tel":"031-581-6201","addr":"경기도 가평군 가평읍 읍내리 508-8번지 우진빌딩 2층","category":"용역 서비스 - 법률회계서비스(법인)"},{"name":"주식회사 대성투어","tel":"031-584-3300","addr":"경기도 가평군 가평읍 읍내리 508-8번지 우진빌딩 3층","category":"여행 - 관광여행"}]},{"lat":"37.83103615","long":"127.51566557","items":[{"name":"가명 에어컨","tel":"031-581-3891","addr":"경기도 가평군 가평읍 읍내리 416-2번지","category":"전기제품 - 냉열기기"},{"name":"강변노래연습장","tel":"031-582-5978","addr":"경기도 가평군 가평읍 읍내리 416-2번지","category":"레저업소 - 노 래 방"},{"name":"달 그리고 별 다방","tel":"031-582-7574","addr":"경기도 가평군 가평읍 읍내리 416-2번지 1층","category":"일반휴게음식 - 서양음식"}]},{"lat":"37.8290921","long":"127.50896183","items":[{"name":"가우스 수학교습소","tel":"","addr":"경기도 가평군 가평읍 읍내리 539-5번지 1층 101호","category":"학원 - 보습학원"}]},{"lat":"37.829565182","long":"127.51415603","items":[{"name":"가평 미샤점","tel":"031-582-6749","addr":"경기도 가평군 가평읍 읍내리 474-3번지","category":"보건위생 - 화장품"},{"name":"메가엠지씨커피가평점","tel":"","addr":"경기도 가평군 가평읍 읍내리 474-3번지 1층","category":"일반휴게음식 - 서양음식"},{"name":"신용문객잔","tel":"02-977-7411","addr":"경기도 가평군 가평읍 읍내리 474-3번지 1호","category":"일반휴게음식 - 일반한식"},{"name":"종합판매장","tel":"031-582-2497","addr":"경기도 가평군 가평읍 읍내리 474-3번지","category":"신변잡화 - 시계"},{"name":"종합판매장","tel":"031-582-2497","addr":"경기도 가평군 가평읍 읍내리 474-3","category":"신변잡화 - 시계"},{"name":"호프타임","tel":"","addr":"경기도 가평군 가평읍 읍내리 474-3번지","category":"일반휴게음식 - 일반한식"}]},{"lat":"37.827707193","long":"127.51463163","items":[{"name":"가평17분칼라","tel":"031-582-2973","addr":"경기도 가평군 가평읍 읍내리 475-34","category":"광학제품 - 사진관"},{"name":"경북상회","tel":"031-582-2672","addr":"경기도 가평군 가평읍 읍내리 475-34번지","category":"음료식품 - 농·축·수산품"},{"name":"경북상회","tel":"031-582-2672","addr":"경기도 가평군 가평읍 읍내리 475-34번지","category":"음료식품 - 농·축·수산품"},{"name":"경북청과마트","tel":"031-582-2672","addr":"경기도 가평군 가평읍 읍내리 475-34번지","category":"유통업 영리 - 슈퍼마켓"},{"name":"트윈스안경원","tel":"031-582-2670","addr":"경기도 가평군 가평읍 읍내리 475-34번지 트윈스안경원","category":"보건위생 - 안경"},{"name":"트윈스안경원","tel":"031-582-2670","addr":"경기도 가평군 가평읍 읍내리 475-34번지","category":"보건위생 - 안경"},{"name":"한탕품건강원","tel":"031-582-7316","addr":"경기도 가평군 가평읍 읍내리 475-37번지","category":"건강식품 - 기타건강식품"},{"name":"한탕품건강원","tel":"031-582-7316","addr":"경기도 가평군 가평읍 읍내리 475-34","category":"건강식품 - 기타건강식품"}]},{"lat":"37.828565964","long":"127.5139674","items":[{"name":"가평JC특우회","tel":"031-582-2226","addr":"경기도 가평군 가평읍 읍내리 476-23 1/4","category":"기타 - 비영리/비대상"},{"name":"커피홀 가평점","tel":"031-582-2226","addr":"경기도 가평군 가평읍 읍내리 476-23번지","category":"일반휴게음식 - 서양음식"}]},{"lat":"37.834812328","long":"127.51121603","items":[{"name":"가평가전가구재활용센타","tel":"031-582-8245","addr":"경기도 가평군 가평읍 읍내리 686-1번지","category":"신변잡화 - 기타잡화"}]},{"lat":"37.825708115","long":"127.51232347","items":[{"name":"가평감자탕","tel":"031-582-0225","addr":"경기도 가평군 가평읍 읍내리 615-9번지 푸른농수산슈퍼 2동","category":"일반휴게음식 - 일반한식"},{"name":"감자보리밥","tel":"031-582-4934","addr":"경기도 가평군 가평읍 읍내리 613-1번지","category":"일반휴게음식 - 일반한식"}]},{"lat":"37.831509117","long":"127.51463517","items":[{"name":"가평건강원","tel":"031-582-3481","addr":"경기도 가평군 가평읍 읍내리 426-7번지","category":"건강식품 - 기타건강식품"}]},{"lat":"37.830840916","long":"127.52116197","items":[{"name":"가평건축자재중고백화점","tel":"031-582-4682","addr":"경기도 가평군 가평읍 읍내리 295-3번지","category":"건축자재 - 기타건축자재"}]},{"lat":"37.830425845","long":"127.51097011","items":[{"name":"가평검도관","tel":"031-581-0085","addr":"경기도 가평군 가평읍 읍내리 492-4","category":"학원 - 예·체능계학원"},{"name":"가평검도관","tel":"031-581-0085","addr":"경기도 가평군 가평읍 읍내리 492-4번지","category":"학원 - 예·체능계학원"},{"name":"비비큐올리브카페치킨","tel":"031-582-9289","addr":"경기도 가평군 가평읍 읍내리 496-11번지","category":"기타음식점"},{"name":"정관장가평점/상품권사용","tel":"031-581-2305","addr":"경기도 가평군 가평읍 읍내리 492-4","category":"건강식품 - 홍삼제품"},{"name":"정관장홍삼가평점","tel":"031-581-2305","addr":"경기도 가평군 가평읍 읍내리 492-4,1/1","category":"건강식품 - 홍삼제품"},{"name":"정관장홍삼가평점","tel":"031-581-2305","addr":"경기도 가평군 가평읍 읍내리 492-4번지","category":"건강식품 - 홍삼제품"},{"name":"태은건축사사무소","tel":"031-582-8700","addr":"경기도 가평군 가평읍 읍내리 492-4번지","category":"용역 서비스 - 사무서비스"}]},{"lat":"37.831345621","long":"127.51494073","items":[{"name":"가평골프존","tel":"031-581-0003","addr":"경기도 가평군 가평읍 읍내리 426-6번지","category":"레져용품 - 스포츠·레져용품"}]},{"lat":"37.829515537","long":"127.51105474","items":[{"name":"가평국제어학원","tel":"031-582-8711","addr":"경기도 가평군 가평읍 읍내리 489-10번지 2층","category":"학원 - 외국어학원"},{"name":"우렁촌쌈밥","tel":"031-582-9385","addr":"경기도 가평군 가평읍 읍내리 489-10번지","category":"일반휴게음식 - 일반한식"}]},{"lat":"37.830376098","long":"127.50997019","items":[{"name":"가평군건강가정지원센터/아이돌봄","tel":"070-7510-5870","addr":"경기도 가평군 가평읍 읍내리 528번지 1층","category":"기타 - 비영리/대상"}]},{"lat":"37.8310709","long":"127.51596115","items":[{"name":"가평군농협농자재백화점","tel":"031-581-2391","addr":"경기도 가평군 가평읍 읍내리 417-1번지 가평군농협농용자재백화점","category":"음료식품 - 농·축·수산품"},{"name":"가평군농협농자재백화점","tel":"031-581-2391","addr":"경기도 가평군 가평읍 읍내리 417-1번지","category":"유통업 비영리 - 농,축협 직영매장"},{"name":"가평군농협농자재백화점","tel":"031-581-2391","addr":"경기도 가평군 가평읍 읍내리 417-1번지 가평군농협농용자재백화점","category":"농업 - 농기계"}]},{"lat":"37.830287484","long":"127.51379753","items":[{"name":"가평군농협본점하나로마트 ","tel":"031-582-2390","addr":"경기도 가평군 가평읍 읍내리 472 가평군농협하나로마트","category":"유통업 비영리 - 농,축협 직영매장"},{"name":"가평군농협하나로마트","tel":"031-581-2390","addr":"경기도 가평군 가평읍 읍내리 472번지","category":"유통업 비영리 - 농,축협 직영매장"},{"name":"가평꽃화원","tel":"031-582-1512","addr":"경기도 가평군 가평읍 읍내리 471","category":"문화.취미 - 화원"},{"name":"가평잉크충전소","tel":"031-582-1922","addr":"경기도 가평군 가평읍 읍내리 475","category":"사무통신 - 기타 사무용품"},{"name":"고향집","tel":"","addr":"경기도 가평군 가평읍 읍내리 475","category":"일반휴게음식- 일반한식"},{"name":"예쁜강아지","tel":"031-582-1788","addr":"경기도 가평군 가평읍 읍내리 475","category":"문화.취미 - 애완동물"},{"name":"용운상회","tel":"031-582-2110","addr":"경기도 가평군 가평읍 읍내리 476","category":"음료식품 - 미곡상"},{"name":"하나로약국","tel":"031-58-4994","addr":"경기도 가평군 가평읍 읍내리 471-4","category":"약국-약국"}]},{"lat":"37.833373573","long":"127.51058139","items":[{"name":"가평군보건소","tel":"031-580-2844","addr":"경기도 가평군 가평읍 읍내리 624-1번지 가평군보건소","category":"기타의료기관 - 기타의료기관 및 기타"}]},{"lat":"37.831149863","long":"127.50177425","items":[{"name":"가평군장애인복지관","tel":"031-581-9785","addr":"경기도 가평군 가평읍 읍내리 861번지","category":"학원 - 기타 교육기관"}]},{"lat":"37.83128748","long":"127.50963565","items":[{"name":"가평군청","tel":"031-580-2932","addr":"경기도 가평군 가평읍 읍내리 513번지","category":"자동차정비 유지 - 주차장"},{"name":"가평군청","tel":"031-580-2932","addr":"경기도 가평군 가평읍 읍내리 513번지 가평군청","category":"자동차정비 유지 - 주차장"},{"name":"가평군청(가평썰매장식당매점)","tel":"031-580-2932","addr":"경기도 가평군 가평읍 읍내리 513번지","category":"음료식품 - 기타음료식품"},{"name":"가평군청(가평썰매장입장료)","tel":"031-580-2932","addr":"경기도 가평군 가평읍 읍내리 513번지 가평군청","category":"문화.취미 - 티켓"},{"name":"가평군청(가평체육관)","tel":"031-580-2932","addr":"경기도 가평군 가평읍 읍내리 513번지","category":"레저업소 - 기타레져업소"},{"name":"가평군청(산장관광지)","tel":"031-580-2932","addr":"경기도 가평군 가평읍 읍내리 513번지 가평군청","category":"문화.취미 - 티켓"},{"name":"가평군청(여성회관)","tel":"031-580-2932","addr":"경기도 가평군 가평읍 읍내리 513번지","category":"학원 - 기타 교육기관"},{"name":"가평군청(조종국민체육센터)","tel":"031-580-2932","addr":"경기도 가평군 가평읍 읍내리 513번지","category":"레저업소 - 기타레져업소"},{"name":"가평군청(지방세수납)","tel":"031-580-2932","addr":"경기도 가평군 가평읍 읍내리 513번지 가평군청","category":"용역 서비스 - 조세서비스"},{"name":"가평군청직장금고","tel":"031-580-4917","addr":"경기도 가평군 가평읍 읍내리 513번지","category":"유통업 비영리 - 구내매점(국가기관"},{"name":"가평군청직장금고","tel":"031-580-4917","addr":"경기도 가평군 가평읍 읍내리 513번지","category":"유통업 비영리 - 구내매점(국가기관"}]},{"lat":"37.830035575","long":"127.51371628","items":[{"name":"가평금방","tel":"031-582-8550","addr":"경기도 가평군 가평읍 읍내리 473-15번지","category":"신변잡화 - 귀금속"}]},{"lat":"37.826344009","long":"127.51526964","items":[{"name":"가평기계공구","tel":"031-581-2145","addr":"경기도 가평군 가평읍 읍내리 362-3번지","category":"건축자재 - 목재·석재·철물"}]},{"lat":"37.838649117","long":"127.50730037","items":[{"name":"가평기사식당","tel":"031-582-5155","addr":"경기도 가평군 가평읍 읍내리 764-1번지","category":"일반휴게음식 - 일반한식"},{"name":"가평기사식당","tel":"031-582-5155","addr":"경기도 가평군 가평읍 읍내리 764-1번지","category":"일반휴게음식 - 일반한식"},{"name":"이마트24 가화로점","tel":"031-1111-1111","addr":"경기도 가평군 가평읍 읍내리 764-1번지","category":"유통업 영리 - 편 의 점"},{"name":"타이푸샤브샤브양꼬치","tel":"070-7543-5157","addr":"경기도 가평군 가평읍 읍내리 764-1번지","category":"일반휴게음식 - 일반한식"}]},{"lat":"37.835674797","long":"127.50968838","items":[{"name":"가평나이스볼링장","tel":"031-582-5730","addr":"경기도 가평군 가평읍 읍내리 678번지","category":"레저업소 - 볼 링 장"}]},{"lat":"37.832702051","long":"127.50961125","items":[{"name":"가평다문화가족카페A-ha","tel":"070-7510-5875","addr":"경기도 가평군 가평읍 읍내리 613-3번지","category":"일반휴게음식 - 서양음식"},{"name":"먹거리식당","tel":"031-582-7216","addr":"경기도 가평군 가평읍 읍내리 613-3번지","category":"일반휴게음식 - 일반한식"}]},{"lat":"37.826287879","long":"127.5157463","items":[{"name":"가평두꺼비왕식자재마트 주식회사","tel":"031-582-3024","addr":"경기도 가평군 가평읍 읍내리 362-7번지","category":"유통업 영리 - 슈퍼마켓"},{"name":"가평두꺼비왕식자재마트 주식회사","tel":"02-957-3024","addr":"경기도 가평군 가평읍 읍내리 362-7번지","category":"유통업 영리 - 슈퍼마켓"},{"name":"빵굽는아빠","tel":"031-581-2710","addr":"경기도 가평군 가평읍 읍내리 362-7번지","category":"음료식품 - 제과점"},{"name":"커피앤카피","tel":"031-581-8215","addr":"경기도 가평군 가평읍 읍내리 362-7번지 1층","category":"일반휴게음식 - 서양음식"},{"name":"플러스축산","tel":"031-581-1060","addr":"경기도 가평군 가평읍 읍내리 362-7번지 플러스마트내","category":"음료식품 - 정육점"}]},{"lat":"37.830210215","long":"127.51083233","items":[{"name":"가평디지털OA","tel":"031-581-0256","addr":"경기도 가평군 가평읍 읍내리 493-8번지","category":"사무통신 - 사무용 OA기기"},{"name":"모아기획렌탈(MOA)","tel":"031-581-8984","addr":"경기도 가평군 가평읍 읍내리 493-8번지","category":"용역 서비스 - 종합용역"},{"name":"수컴퓨터","tel":"031-581-0193","addr":"경기도 가평군 가평읍 읍내리 493-8번지","category":"수리서비스 - 사무·통신기기수리"},{"name":"수컴퓨터","tel":"031-581-0193","addr":"경기도 가평군 가평읍 읍내리 493-8번지","category":"수리서비스 - 사무·통신기기수리"}]},{"lat":"37.853424626","long":"127.51143469","items":[{"name":"가평면역공방펜션","tel":"031-581-6716","addr":"경기도 가평군 가평읍 읍내리 75-4번지","category":"숙박업 - 여관/기타숙박업"}]},{"lat":"37.828124266","long":"127.51194253","items":[{"name":"가평빅마트","tel":"031-582-1446","addr":"경기도 가평군 가평읍 읍내리 329-27번지","category":"유통업 영리 - 슈퍼마켓"}]},{"lat":"37.83159754","long":"127.51294327","items":[{"name":"가평사랑정형외과의원","tel":"031-581-6737","addr":"경기도 가평군 가평읍 읍내리 445번지","category":"의원 - 의원"},{"name":"대신약국","tel":"031-581-6881","addr":"경기도 가평군 가평읍 읍내리 445번지 1층","category":"약국 - 약국"}]},{"lat":"37.832565155","long":"127.51001924","items":[{"name":"가평삼성의원","tel":"031-585-3658","addr":"경기도 가평군 가평읍 읍내리 615-5번지","category":"의원 - 의원"},{"name":"내고향밥상","tel":"031-582-2400","addr":"경기도 가평군 가평읍 읍내리 615-5번지 616동 2호","category":"일반휴게음식 - 일반한식"},{"name":"생선구이전문점","tel":"031-582-4571","addr":"경기도 가평군 가평읍 읍내리 615-5번지","category":"일반휴게음식 - 일반한식"},{"name":"소명약국","tel":"","addr":"경기도 가평군 가평읍 읍내리 615-5번지","category":"약국 - 약국"},{"name":"소명약국","tel":"","addr":"경기도 가평군 가평읍 읍내리 615-5번지","category":"약국 - 약국"},{"name":"원조통큰할매순대국","tel":"031-581-3789","addr":"경기도 가평군 가평읍 읍내리 615-5번지","category":"일반휴게음식 - 일반한식"},{"name":"콩두레","tel":"031-581-0988","addr":"경기도 가평군 가평읍 읍내리 615-5번지","category":"일반휴게음식 - 일반한식"}]},{"lat":"37.830342603","long":"127.50937929","items":[{"name":"가평소미아트미술학원","tel":"031-582-7024","addr":"경기도 가평군 가평읍 읍내리 530-3번지","category":"학원 - 예·체능계학원"}]},{"lat":"37.82943055","long":"127.52227663","items":[{"name":"가평수상레저 쇼타임 빠지","tel":"031-6340-7762","addr":"경기도 가평군 가평읍 읍내리 316-4번지","category":"용역 서비스 - 종합용역"},{"name":"라바빌리지","tel":"031-000-0000","addr":"경기도 가평군 가평읍 읍내리 316-4번지","category":"일반휴게음식 - 일반한식"}]},{"lat":"37.831952758","long":"127.52440711","items":[{"name":"가평수상레저K2수상레저","tel":"031-574-5618","addr":"경기도 가평군 가평읍 읍내리 산 159","category":"레저업소 - 기타레져업소"},{"name":"자라섬수상레저","tel":"031-582-1255","addr":"경기도 가평군 가평읍 읍내리 산 159","category":"레저업소 - 기타레져업소"}]},{"lat":"37.82670536","long":"127.51504497","items":[{"name":"가평숯불고기","tel":"031-582-4331","addr":"경기도 가평군 가평읍 읍내리 349-5번지","category":"일반휴게음식 - 일반한식"},{"name":"삼천리자전거대리점","tel":"031-582-6637","addr":"경기도 가평군 가평읍 읍내리 361-3번지","category":"레져용품 - 스포츠·레져용품"},{"name":"삼천리자전거대리점","tel":"031-582-6637","addr":"경기도 가평군 가평읍 읍내리 360-3번지","category":"레져용품 - 스포츠·레져용품"}]},{"lat":"37.828371015","long":"127.51321639","items":[{"name":"가평신진오토바이","tel":"031-582-1368","addr":"경기도 가평군 가평읍 읍내리 338-2","category":"자동차판매 - 이륜차판매"},{"name":"중소기업가구전시장","tel":"031-582-4155","addr":"경기도 가평군 가평읍 읍내리 338-2번지","category":"가구 - 일반가구"}]},{"lat":"37.828349007","long":"127.51413628","items":[{"name":"가평쌈지","tel":"031-581-1959","addr":"경기도 가평군 가평읍 읍내리 476-12번지","category":"신변잡화 - 가방"}]},{"lat":"37.833678216","long":"127.5109697","items":[{"name":"가평어린이집[아이행복]","tel":"031-582-3069","addr":"경기도 가평군 가평읍 읍내리 625-2번지","category":"학원 - 유아원"}]},{"lat":"37.825898658","long":"127.51616386","items":[{"name":"가평열쇠","tel":"031-582-7476","addr":"경기도 가평군 가평읍 읍내리 364-4","category":"기타 - 기계공구"}]},{"lat":"37.829649958","long":"127.51330471","items":[{"name":"가평온누리약국","tel":"031-581-8777","addr":"경기도 가평군 가평읍 읍내리 468-22번지","category":"약국 - 약국"},{"name":"가평온누리약국","tel":"031-581-8777","addr":"경기도 가평군 가평읍 읍내리 468-22번지","category":"약국 - 약국"},{"name":"커피인더카툰 가평점","tel":"031-581-4637","addr":"경기도 가평군 가평읍 읍내리 468-22번지 2층","category":"일반휴게음식 - 서양음식"}]},{"lat":"37.83095836","long":"127.51074658","items":[{"name":"가평우체국","tel":"031-582-2005","addr":"경기도 가평군 가평읍 읍내리 495-6번지","category":"용역 서비스 - 공공요금대행서비스/소"},{"name":"우정사업본부(우체국)","tel":"031-582-2001","addr":"경기도 가평군 가평읍 읍내리 495-6번지","category":"용역 서비스 - 공공요금대행서비스/소"}]},{"lat":"37.830485589","long":"127.50755148","items":[{"name":"가평유치원[아이행복]","tel":"0331-582-4982","addr":"경기도 가평군 가평읍 읍내리 553번지 가평초등학교","category":"학원 - 유치원"},{"name":"가평초등학교","tel":"031-582-2493","addr":"경기도 가평군 가평읍 읍내리 553번지","category":"학원 - 초중고교육기관"}]},{"lat":"37.828237889","long":"127.51482839","items":[{"name":"가평자동차정비공업사","tel":"","addr":"경기도 가평군 가평읍 읍내리 351-4번지","category":"자동차정비 유지 - 자동차정비"}]},{"lat":"37.82892514","long":"127.51216384","items":[{"name":"가평잣 림의향기","tel":"031-581-2822","addr":"경기도 가평군 가평읍 읍내리 468-24번지 1층","category":"음료식품 - 농·축·수산품"},{"name":"가평잣림의향기","tel":"031-581-2822","addr":"경기도 가평군 가평읍 읍내리 468-24번지","category":"회원제형태 - 기타1"}]},{"lat":"37.831153471","long":"127.51146354","items":[{"name":"가평전자담배멀티샵","tel":"031-573-7804","addr":"경기도 가평군 가평읍 읍내리 499-7번지 1층 나호","category":"기타 - 기타 전문점"}]},{"lat":"37.830845102","long":"127.5119385","items":[{"name":"가평정육점","tel":"031-582-4850","addr":"경기도 가평군 가평읍 읍내리 497-5번지","category":"음료식품 - 정육점"},{"name":"가평정육점","tel":"031-582-4850","addr":"경기도 가평군 가평읍 읍내리 495-7번지","category":"음료식품 - 정육점"},{"name":"지암막국수","tel":"031-581-8838","addr":"경기도 가평군 가평읍 읍내리 497-5번지 외3필지","category":"일반휴게음식 - 일반한식"}]},{"lat":"37.834040469","long":"127.50843902","items":[{"name":"가평종합사무기기","tel":"031-582-9486","addr":"경기도 가평군 가평읍 읍내리 637번지 준수아파트 선일상가","category":"사무통신 - 사무용 OA기기"}]},{"lat":"37.835258772","long":"127.50585732","items":[{"name":"가평종합상사","tel":"031-581-9940","addr":"경기도 가평군 가평읍 읍내리 828-2번지","category":"건축자재 - 보일러·펌프·샷시"}]},{"lat":"37.832096184","long":"127.51221972","items":[{"name":"가평종합장식","tel":"031-582-4488","addr":"경기도 가평군 가평읍 읍내리 443-18번지","category":"직물 - 카페트,커튼,천막,지물"},{"name":"옛날통닭 부뚜막치킨","tel":"","addr":"경기도 가평군 가평읍 읍내리 443-18번지","category":"일반휴게음식 - 일반한식"},{"name":"옛날통닭 부뚜막치킨","tel":"","addr":"경기도 가평군 가평읍 읍내리 443-18번지","category":"일반휴게음식 - 일반한식"}]},{"lat":"37.828485868","long":"127.51373967","items":[{"name":"가평철물","tel":"031-582-1115","addr":"경기도 가평군 가평읍 읍내리 478-14번지","category":"기타 - 기계공구"},{"name":"육가원","tel":"031-581-8443","addr":"경기도 가평군 가평읍 읍내리 478-14번지","category":"음료식품 - 정육점"}]},{"lat":"37.828564386","long":"127.51433087","items":[{"name":"가평추어탕","tel":"031-582-7051","addr":"경기도 가평군 가평읍 읍내리 476-2번지","category":"일반휴게음식 - 일반한식"},{"name":"또뽀끼야","tel":"031-581-3082","addr":"경기도 가평군 가평읍 읍내리 475-29번지","category":"일반휴게음식 - 일반한식"},{"name":"또뽀끼야가평점","tel":"031-581-3082","addr":"경기도 가평군 가평읍 읍내리 475-29번지","category":"일반휴게음식 - 일반한식"}]},{"lat":"37.830317367","long":"127.51313892","items":[{"name":"가평축협 읍내지점","tel":"031-581-9111","addr":"경기도 가평군 가평읍 읍내리 468-8번지 유진빌딩","category":"유통업 비영리 - 농,축협 직영매장"},{"name":"가평축협읍내지점","tel":"031-581-9111","addr":"경기도 가평군 가평읍 읍내리 468-8번지 유진빌딩","category":"유통업 비영리 - 농,축협 직영매장"},{"name":"마리끌레르","tel":"031-582-6675","addr":"경기도 가평군 가평읍 읍내리 468-19번지","category":"의류 - 내의판매"},{"name":"연세복치과","tel":"031-581-2804","addr":"경기도 가평군 가평읍 읍내리 468-8번지 유진빌딩","category":"의원 - 치과의원"}]},{"lat":"37.837067466","long":"127.50847103","items":[{"name":"가평카센타","tel":"031-582-9093","addr":"경기도 가평군 가평읍 읍내리 748-9번지","category":"자동차정비 유지 - 카인테리어"}]},{"lat":"37.826646631","long":"127.51196645","items":[{"name":"가평카인테리어","tel":"031-582-8508","addr":"경기도 가평군 가평읍 읍내리 332-16번지 자동차용품백화점","category":"자동차정비 유지 - 자동차부품"},{"name":"번호판제작소","tel":"031-582-8508","addr":"경기도 가평군 가평읍 읍내리 332-16번지 자동차용품백화점","category":"자동차정비 유지 - 가타자동차서비스"}]},{"lat":"37.829568415","long":"127.51132771","items":[{"name":"가평타임즈","tel":"031-581-1110","addr":"경기도 가평군 가평읍 읍내리 489-13번지","category":"서적문구 - 출판 및 인쇄물"}]},{"lat":"37.826981304","long":"127.51374066","items":[{"name":"가평펫","tel":"031-582-4949","addr":"경기도 가평군 가평읍 읍내리 345-1번지","category":"문화.취미 - 애완동물"},{"name":"성민부부한의원","tel":"031-582-5145","addr":"경기도 가평군 가평읍 읍내리 345-1번지","category":"의원 - 한의원"}]},{"lat":"37.827349485","long":"127.5119372","items":[{"name":"가평하림","tel":"031-581-1586","addr":"경기도 가평군 가평읍 읍내리 329-49번지","category":"음료식품 - 정육점"},{"name":"유한회사 가라바라","tel":"031-000-0000","addr":"경기도 가평군 가평읍 읍내리 329-49번지 1층","category":"신변잡화 - 기념품점"}]},{"lat":"37.827285444","long":"127.51424253","items":[{"name":"간지","tel":"031-581-1182","addr":"경기도 가평군 가평읍 읍내리 349-14","category":"의류 - 정장"},{"name":"간지","tel":"031-581-1182","addr":"경기도 가평군 가평읍 읍내리 349-14","category":"의류 - 정장"},{"name":"이쁜헤어","tel":"031-582-7104","addr":"경기도 가평군 가평읍 읍내리 349-14번지","category":"보건위생 - 미용원"},{"name":"투썸플레이스가평점","tel":"031-582-1313","addr":"경기도 가평군 가평읍 읍내리 349-14","category":"일반휴게음식 - 서양음식"}]},{"lat":"37.829709672","long":"127.51407752","items":[{"name":"감자옹심이칼국수","tel":"031-582-5355","addr":"경기도 가평군 가평읍 읍내리 474-1","category":"일반휴게음식 - 일반한식"},{"name":"기냥돼지투","tel":"031-581-3395","addr":"경기도 가평군 가평읍 읍내리 474-1번지","category":"일반휴게음식 - 일반한식"},{"name":"류치과의원","tel":"031-582-6768","addr":"경기도 가평군 가평읍 읍내리 474-1번지","category":"의원 - 치과의원"},{"name":"미당등촌샤브샤브","tel":"031-582-8215","addr":"경기도 가평군 가평읍 읍내리 474-1","category":"일반휴게음식 - 일반한식"},{"name":"선우소막창","tel":"031-581-7386","addr":"경기도 가평군 가평읍 읍내리 474-1번지 B동","category":"일반휴게음식 - 일반한식"},{"name":"오 필승닭발","tel":"031-581-0556","addr":"경기도 가평군 가평읍 읍내리 474-1번지 B동","category":"일반휴게음식 - 일반한식"},{"name":"토박이순대국","tel":"031-581-1591","addr":"경기도 가평군 가평읍 읍내리 474-1 제2호","category":"일반휴게음식 - 일반한식"},{"name":"프로스펙스 가평점","tel":"031-582-4346","addr":"경기도 가평군 가평읍 읍내리 474-1번지","category":"레져용품 - 스포츠·레져용품"}]},{"lat":"37.830732177","long":"127.5130509","items":[{"name":"강원사","tel":"031-582-8121","addr":"경기도 가평군 가평읍 읍내리 467-6번지","category":"수리서비스 - 신변잡화수리"},{"name":"강원사","tel":"031-582-8121","addr":"경기도 가평군 가평읍 읍내리 467-6번지","category":"수리서비스 - 신변잡화수리"}]},{"lat":"37.82898796","long":"127.51429971","items":[{"name":"강은지댄스스포츠&줌바","tel":"031-581-7556","addr":"경기도 가평군 가평읍 읍내리 475-1번지 3층","category":"학원 - 예·체능계학원"},{"name":"교동짬뽕","tel":"031-582-8489","addr":"경기도 가평군 가평읍 읍내리 475-1번지","category":"일반휴게음식 - 중국식"},{"name":"백세치과의원","tel":"031-581-7528","addr":"경기도 가평군 가평읍 읍내리 475-1번지","category":"의원 - 치과의원"},{"name":"해성당","tel":"031-582-2605","addr":"경기도 가평군 가평읍 읍내리 475-1번지","category":"신변잡화 - 시계"},{"name":"해성당","tel":"031-582-2605","addr":"경기도 가평군 가평읍 읍내리 475-1번지 1층","category":"신변잡화 - 시계"}]},{"lat":"37.832189462","long":"127.50939192","items":[{"name":"강촌","tel":"031-581-7775","addr":"경기도 가평군 가평읍 읍내리 609번지 B동","category":"일반휴게음식 - 일반한식"},{"name":"승리 손칼국수","tel":"031-581-7775","addr":"경기도 가평군 가평읍 읍내리 609번지 B동","category":"일반휴게음식 - 일반한식"}]},{"lat":"37.832312549","long":"127.51218713","items":[{"name":"강포차","tel":"","addr":"경기도 가평군 가평읍 읍내리 267-4번지","category":"일반휴게음식 - 일반한식"},{"name":"스마일 명품 찹쌀 꽈배기","tel":"031-582-6232","addr":"경기도 가평군 가평읍 읍내리 267-4번지","category":"일반휴게음식 - 일반한식"},{"name":"허브생삼겹","tel":"031-581-8208","addr":"경기도 가평군 가평읍 읍내리 267-4번지","category":"일반휴게음식 - 일반한식"}]},{"lat":"37.826452365","long":"127.5152136","items":[{"name":"개꿈","tel":"031-582-2223","addr":"경기도 가평군 가평읍 읍내리 362-2번지","category":"문화.취미 - 애완동물"},{"name":"씽씽낚시","tel":"031-582-6810","addr":"경기도 가평군 가평읍 읍내리 362-2","category":"레져용품 - 스포츠·레져용품"},{"name":"약손약국","tel":"031-582-8230","addr":"경기도 가평군 가평읍 읍내리 362-2번지","category":"약국 - 약국"},{"name":"원할머니보쌈","tel":"031-582-6117","addr":"경기도 가평군 가평읍 읍내리 362-2번지","category":"일반휴게음식 - 일반한식"}]},{"lat":"37.830873664","long":"127.51366526","items":[{"name":"개코막걸리","tel":"031-582-7228","addr":"경기도 가평군 가평읍 읍내리 408-4번지 1층","category":"일반휴게음식 - 일반한식"},{"name":"스텔라","tel":"","addr":"경기도 가평군 가평읍 읍내리 408-4번지","category":"의류 - 정장"}]},{"lat":"37.836426847","long":"127.50869386","items":[{"name":"거북선횟집","tel":"031-582-3203","addr":"경기도 가평군 가평읍 읍내리 636번지","category":"일반휴게음식 - 일반한식"},{"name":"서진건축설비","tel":"031-581-1793","addr":"경기도 가평군 가평읍 읍내리 744-2","category":"용역 서비스 - 기타용역서비스"}]},{"lat":"37.832009771","long":"127.51552464","items":[{"name":"거성철거","tel":"031-582-6203","addr":"경기도 가평군 가평읍 읍내리 282-5번지","category":"신변잡화 - 기타잡화"}]},{"lat":"37.831153191","long":"127.5136104","items":[{"name":"건방진고양이","tel":"031-582-3440","addr":"경기도 가평군 가평읍 읍내리 433-2번지","category":"의류 - 기타의류"},{"name":"건방진고양이","tel":"031-582-3440","addr":"경기도 가평군 가평읍 읍내리 433-2번지 고기백화점","category":"의류 - 기타의류"},{"name":"에스원푸드","tel":"031-582-9200","addr":"경기도 가평군 가평읍 읍내리 433-2번지","category":"음료식품 - 정육점"}]},{"lat":"37.828877532","long":"127.51483281","items":[{"name":"경기닭집","tel":"031-582-2202","addr":"경기도 가평군 가평읍 읍내리 402-10번지","category":"음료식품 - 정육점"}]},{"lat":"37.83004061","long":"127.51046768","items":[{"name":"경기종합주방","tel":"031-585-3268","addr":"경기도 가평군 가평읍 읍내리 494-10번지","category":"주방용구 - 주방용구"},{"name":"바이크버디","tel":"031-581-6100","addr":"경기도 가평군 가평읍 읍내리 494-10번지 외2필지 1층 107호","category":"레져용품 - 스포츠·레져용품"},{"name":"아삭김밥전문점","tel":"031-582-5479","addr":"경기도 가평군 가평읍 읍내리 494-10번지 외2필지","category":"일반휴게음식 - 스넥"},{"name":"이삭","tel":"070-7504-1080","addr":"경기도 가평군 가평읍 읍내리 494-10번지 외2필지","category":"일반휴게음식 - 스넥"},{"name":"핸드폰 마켓","tel":"031-581-4044","addr":"경기도 가평군 가평읍 읍내리 494-10번지 외 2필지","category":"사무통신 - 통신기기"},{"name":"핸드폰 마켓","tel":"031-581-4044","addr":"경기도 가평군 가평읍 읍내리 494-10번지 외 2필지","category":"음료식품 - 기타음료식품"}]},{"lat":"37.828591068","long":"127.51441056","items":[{"name":"경남상회","tel":"031-582-2441","addr":"경기도 가평군 가평읍 읍내리 475-17번지","category":"의류 - 정장"}]},{"lat":"37.828346004","long":"127.51275051","items":[{"name":"경민도매유통","tel":"031-582-6429","addr":"경기도 가평군 가평읍 읍내리 338-16번지","category":"음료식품 - 기타음료식품"}]},{"lat":"37.828595288","long":"127.51135511","items":[{"name":"경춘공업사","tel":"031-582-2954","addr":"경기도 가평군 가평읍 읍내리 331-3","category":"수리서비스 - 기타수리서비스"}]},{"lat":"37.831924078","long":"127.51243436","items":[{"name":"경희동가원한의원","tel":"031-581-3375","addr":"경기도 가평군 가평읍 읍내리 443-13번지 1층","category":"의원 - 한의원"},{"name":"삼화장","tel":"031-582-2321","addr":"경기도 가평군 가평읍 읍내리 443-13번지","category":"숙박업 - 여관/기타숙박업"},{"name":"세기조명","tel":"031-582-9095","addr":"경기도 가평군 가평읍 읍내리 443-13","category":"건축자재 - 조명기구"}]},{"lat":"37.832038272","long":"127.51102661","items":[{"name":"고려건강원","tel":"031-582-8566","addr":"경기도 가평군 가평읍 읍내리 503-4번지","category":"건강식품 - 기타건강식품"}]},{"lat":"37.832481088","long":"127.51071158","items":[{"name":"고은골","tel":"031-581-1211","addr":"경기도 가평군 가평읍 읍내리 622-1","category":"일반휴게음식 - 일반한식"}]},{"lat":"37.831842505","long":"127.51254739","items":[{"name":"고은김밥","tel":"031-582-8862","addr":"경기도 가평군 가평읍 읍내리 443-6번지","category":"일반휴게음식 - 일반한식"},{"name":"고은김밥","tel":"031-582-8862","addr":"경기도 가평군 가평읍 읍내리 443-6번지","category":"일반휴게음식 - 일반한식"}]},{"lat":"37.829400016","long":"127.51276912","items":[{"name":"고향마을","tel":"031-581-5259","addr":"경기도 가평군 가평읍 읍내리 468-46번지","category":"일반휴게음식 - 일반한식"}]},{"lat":"37.827264761","long":"127.51485574","items":[{"name":"공주눈썹","tel":"","addr":"경기도 가평군 가평읍 읍내리 475-13번지","category":"보건위생 - 피부미용실"},{"name":"대지라사","tel":"031-582-1962","addr":"경기도 가평군 가평읍 읍내리 475-13번지","category":"의류 - 맞춤복점"},{"name":"헤라헤어","tel":"031-581-0508","addr":"경기도 가평군 가평읍 읍내리 475-13번지","category":"보건위생 - 미용원"}]},{"lat":"37.831844519","long":"127.51208168","items":[{"name":"곽금례뷰티","tel":"031-581-8200","addr":"경기도 가평군 가평읍 읍내리 454-3","category":"보건위생 - 미용원"}]},{"lat":"37.832151711","long":"127.51187932","items":[{"name":"광창철물","tel":"031-582-2475","addr":"경기도 가평군 가평읍 읍내리 618-5번지 광창철물","category":"건축자재 - 목재·석재·철물"},{"name":"만나반찬","tel":"031-584-3343","addr":"경기도 가평군 가평읍 읍내리 618-5번지 1층 2호","category":"음료식품 - 기타음료식품"},{"name":"지호정보통신","tel":"","addr":"경기도 가평군 가평읍 읍내리 618-5번지","category":"사무통신 - 통신기기"}]},{"lat":"37.830513548","long":"127.51360599","items":[{"name":"교동식당","tel":"031-582-2151","addr":"경기도 가평군 가평읍 읍내리 471-2번지","category":"일반휴게음식 - 일반한식"},{"name":"노블 (Noble)","tel":"031-582-2222","addr":"경기도 가평군 가평읍 읍내리 471-2번지","category":"숙박업 - 여관/기타숙박업"},{"name":"바우네 나주곰탕","tel":"031-582-3335","addr":"경기도 가평군 가평읍 읍내리 471-2번지 1층","category":"일반휴게음식 - 일반한식"},{"name":"삼삼(33)떡볶이","tel":"031-582-3352","addr":"경기도 가평군 가평읍 읍내리 471-2번지 1층","category":"일반휴게음식 - 스넥"},{"name":"칸베이커리","tel":"031-581-0122","addr":"경기도 가평군 가평읍 읍내리 471-2번지","category":"음료식품 - 제과점"},{"name":"케이(K)헤어미용실","tel":"031-581-3310","addr":"경기도 가평군 가평읍 읍내리 471-2번지 1층","category":"보건위생 - 미용원"},{"name":"태양문구","tel":"031-582-3086","addr":"경기도 가평군 가평읍 읍내리 471-2","category":"서적문구 - 문구용품"},{"name":"풍성장터","tel":"031-582-7115","addr":"경기도 가평군 가평읍 읍내리 471-2번지","category":"음료식품 - 정육점"},{"name":"피자스쿨 가평점","tel":"031-581-6988","addr":"경기도 가평군 가평읍 읍내리 471-2번지","category":"일반휴게음식 - 서양음식"}]},{"lat":"37.835652799","long":"127.50851818","items":[{"name":"국제타일","tel":"031-582-6353","addr":"경기도 가평군 가평읍 읍내리 671","category":"건축자재 - 건축용 요업제품"}]},{"lat":"37.82773639","long":"127.51413206","items":[{"name":"굿 센트","tel":"031-581-2543","addr":"경기도 가평군 가평읍 읍내리 349-31번지","category":"신변잡화 - 기타잡화"},{"name":"마린","tel":"031-582-0381","addr":"경기도 가평군 가평읍 읍내리 349-31번지","category":"의류 - 정장"},{"name":"해바라기","tel":"031-581-8977","addr":"경기도 가평군 가평읍 읍내리 349-31번지","category":"의류 - 정장"},{"name":"해바라기","tel":"031-581-8977","addr":"경기도 가평군 가평읍 읍내리 349-31번지","category":"의류 - 정장"}]},{"lat":"37.830763039","long":"127.51216512","items":[{"name":"굿데이쭈꾸미","tel":"031-581-9001","addr":"경기도 가평군 가평읍 읍내리 459-4번지 1동 1층","category":"일반휴게음식 - 일반한식"}]},{"lat":"37.831234651","long":"127.51144138","items":[{"name":"권덕희전통된장","tel":"031-581-0089","addr":"경기도 가평군 가평읍 읍내리 499-2","category":"음료식품 - 기타음료식품"}]},{"lat":"37.83323535","long":"127.51129608","items":[{"name":"권칠남법무사&공인중개사사무소","tel":"031-581-2325","addr":"경기도 가평군 가평읍 읍내리 625-1","category":"용역 서비스 - 법률회계서비스(개인)"}]},{"lat":"37.836065655","long":"127.50888451","items":[{"name":"그램그램","tel":"031-582-5567","addr":"경기도 가평군 가평읍 읍내리 738-2번지 1층","category":"일반휴게음식 - 일반한식"},{"name":"도연식품","tel":"031-581-8574","addr":"경기도 가평군 가평읍 읍내리 738-2번지","category":"음료식품 - 정육점"},{"name":"하우디몬","tel":"031-581-2577","addr":"경기도 가평군 가평읍 읍내리 738-2번지","category":"직물 - 침구·수예점"},{"name":"하우디몬","tel":"031-581-2577","addr":"경기도 가평군 가평읍 읍내리 738-2","category":"직물 - 침구·수예점"},{"name":"힐링왓포","tel":"031-581-1323","addr":"경기도 가평군 가평읍 읍내리 738-2번지","category":"회원제형태 - 기타4"}]},{"lat":"37.826319906","long":"127.51666654","items":[{"name":"그린푸드","tel":"031-582-8366","addr":"경기도 가평군 가평읍 읍내리 376-5번지 1층","category":"음료식품 - 기타음료식품"}]},{"lat":"37.827535626","long":"127.51472131","items":[{"name":"금강정육할인마트","tel":"031-582-2571","addr":"경기도 가평군 가평읍 읍내리 475-19","category":"음료식품 - 정육점"},{"name":"금강정육할인마트","tel":"031-582-2571","addr":"경기도 가평군 가평읍 읍내리 475-19번지","category":"음료식품 - 정육점"},{"name":"잘 자라","tel":"031-582-9119","addr":"경기도 가평군 가평읍 읍내리 475-19번지","category":"직물 - 침구·수예점"}]},{"lat":"37.830708297","long":"127.51232377","items":[{"name":"금강한의원","tel":"031-581-6611","addr":"경기도 가평군 가평읍 읍내리 464-1번지","category":"의원 - 한의원"},{"name":"마당왕족발보쌈","tel":"031-581-9797","addr":"경기도 가평군 가평읍 읍내리 464-1번지 **연번지 2","category":"일반휴게음식 - 일반한식"}]},{"lat":"37.830563609","long":"127.51452641","items":[{"name":"금잔디식당","tel":"031-581-5578","addr":"경기도 가평군 가평읍 읍내리 407-1번지","category":"일반휴게음식 - 일반한식"}]},{"lat":"37.830736113","long":"127.51422091","items":[{"name":"기사식당","tel":"031-582-3411","addr":"경기도 가평군 가평읍 읍내리 408-1","category":"일반휴게음식 - 일반한식"},{"name":"로뎀해장국가평점","tel":"031-582-2505","addr":"경기도 가평군 가평읍 읍내리 408-1번지","category":"일반휴게음식 - 일반한식"}]},{"lat":"37.829819345","long":"127.51163612","items":[{"name":"기준건축사무소","tel":"031-581-5987","addr":"경기도 가평군 가평읍 읍내리 489-1번지","category":"용역 서비스 - 사무서비스"}]},{"lat":"37.828900383","long":"127.51371981","items":[{"name":"길다방","tel":"031-582-0708","addr":"경기도 가평군 가평읍 읍내리 476-9번지","category":"일반휴게음식 - 서양음식"},{"name":"꼬슬란꽃집","tel":"031-581-9998","addr":"경기도 가평군 가평읍 읍내리 476-9번지","category":"문화.취미 - 화원"},{"name":"꼬슬란꽃집","tel":"031-581-9998","addr":"경기도 가평군 가평읍 읍내리 476-9","category":"문화.취미 - 화원"},{"name":"뚱청과","tel":"031-581-2409","addr":"경기도 가평군 가평읍 읍내리 476-9번지","category":"음료식품 - 농·축·수산품"},{"name":"영진상회(뚱청과)","tel":"031-581-2409","addr":"경기도 가평군 가평읍 읍내리 476-9번지","category":"음료식품 - 농·축·수산품"},{"name":"중화루","tel":"031-582-6920","addr":"경기도 가평군 가평읍 읍내리 476-9번지","category":"일반휴게음식 - 중국식"}]},{"lat":"37.836595285","long":"127.50933116","items":[{"name":"김밥이다","tel":"031-581-1397","addr":"경기도 가평군 가평읍 읍내리 741-7번지 1층","category":"일반휴게음식 - 스넥"},{"name":"서울우유가평대리점","tel":"031-582-2656","addr":"경기도 가평군 가평읍 읍내리 741-7","category":"음료식품 - 기타음료식품"},{"name":"육공판","tel":"031-581-8830","addr":"경기도 가평군 가평읍 읍내리 741-7번지","category":"일반휴게음식 - 일반한식"}]},{"lat":"37.831039814","long":"127.51274633","items":[{"name":"김밥천국(읍내점)","tel":"031-582-0805","addr":"경기도 가평군 가평읍 읍내리 449-1번지","category":"일반휴게음식 - 일반한식"},{"name":"이태원다방","tel":"031-581-4884","addr":"경기도 가평군 가평읍 읍내리 449-1번지","category":"일반휴게음식 - 서양음식"},{"name":"이태원장여관","tel":"031-582-5595","addr":"경기도 가평군 가평읍 읍내리 449-1번지 2층","category":"숙박업 - 여관/기타숙박업"}]},{"lat":"37.829313094","long":"127.51618751","items":[{"name":"깻잎두마리 칩킨","tel":"031-582-9071","addr":"경기도 가평군 가평읍 읍내리 392-3번지","category":"일반휴게음식 - 스넥"}]},{"lat":"37.830452143","long":"127.51529804","items":[{"name":"깻잎두마리칩킨","tel":"","addr":"경기도 가평군 가평읍 읍내리 392-3번지","category":"일반휴게음식 - 스넥"},{"name":"할머니손순대","tel":"031-582-8058","addr":"경기도 가평군 가평읍 읍내리 411-1번지","category":"일반휴게음식 - 일반한식"},{"name":"할머니손순대","tel":"031-582-8058","addr":"경기도 가평군 가평읍 읍내리 411-1번지","category":"일반휴게음식 - 일반한식"}]},{"lat":"37.827897713","long":"127.51224765","items":[{"name":"꽃나라","tel":"031-581-0115","addr":"경기도 가평군 가평읍 읍내리 329-7","category":"문화.취미 - 화원"},{"name":"우두머리 국밥","tel":"","addr":"경기도 가평군 가평읍 읍내리 329-7번지","category":"일반휴게음식 - 일반한식"},{"name":"행복식당","tel":"031-581-3138","addr":"경기도 가평군 가평읍 읍내리 329-7","category":"일반휴게음식 - 일반한식"},{"name":"행복예식장","tel":"031-582-3138","addr":"경기도 가평군 가평읍 읍내리 329-7번지","category":"용역 서비스 - 혼례서비스"}]},{"lat":"37.831014212","long":"127.51241674","items":[{"name":"꾸미지오","tel":"031-581-7281","addr":"경기도 가평군 가평읍 읍내리 450-1번지","category":"직물 - 침구·수예점"},{"name":"마임 가평비젼지사","tel":"031-582-7512","addr":"경기도 가평군 가평읍 읍내리 450-1번지 2층","category":"보건위생 - 화장품"},{"name":"마임가평 가화지사","tel":"031-582-7512","addr":"경기도 가평군 가평읍 읍내리 450-1번지 2층","category":"보건위생 - 화장품"},{"name":"마임가평사랑지사","tel":"031-582-7512","addr":"경기도 가평군 가평읍 읍내리 450-1번지 2층","category":"보건위생 - 화장품"},{"name":"마임가평승리지사","tel":"031-582-7512","addr":"경기도 가평군 가평읍 읍내리 450-1번지 2층","category":"보건위생 - 화장품"},{"name":"마임가평제일지사","tel":"031-582-7512","addr":"경기도 가평군 가평읍 읍내리 450-1번지 2층","category":"보건위생 - 화장품"},{"name":"마임가평지사","tel":"031-582-7512","addr":"경기도 가평군 가평읍 읍내리 450-1번지 2층","category":"보건위생 - 화장품"},{"name":"마임소망 가평지사","tel":"031-582-7512","addr":"경기도 가평군 가평읍 읍내리 450-1번지 2층","category":"보건위생 - 화장품"},{"name":"위더스넷","tel":"031-582-3999","addr":"경기도 가평군 가평읍 읍내리 450-1번지","category":"보건위생 - 화장품"}]},{"lat":"37.83531717","long":"127.50904979","items":[{"name":"나는포차","tel":"031-582-7536","addr":"경기도 가평군 가평읍 읍내리 672-4번지","category":"일반휴게음식 - 일반한식"},{"name":"손씨네캠프식당","tel":"031-581-2652","addr":"경기도 가평군 가평읍 읍내리 672-4번지 일억조참치삼치 A동","category":"일반휴게음식 - 일반한식"},{"name":"왕대구막창","tel":"031-582-3206","addr":"경기도 가평군 가평읍 읍내리 672-4번지","category":"일반휴게음식 - 일반한식"},{"name":"은성칼국수 비빔국수","tel":"031-582-2277","addr":"경기도 가평군 가평읍 읍내리 672-4번지 일억조참치삼치 A동 1층","category":"일반휴게음식 - 일반한식"},{"name":"캠프부대찌개","tel":"031-581-2652","addr":"경기도 가평군 가평읍 읍내리 672-4번지","category":"일반휴게음식 - 일반한식"}]},{"lat":"37.834007925","long":"127.50972241","items":[{"name":"남자만들기","tel":"031-581-2483","addr":"경기도 가평군 가평읍 읍내리 635-1번지","category":"보건위생 - 이용원"},{"name":"동이 동치미 메밀 막국수","tel":"031-582-3432","addr":"경기도 가평군 가평읍 읍내리 635-1번지","category":"일반휴게음식 - 일반한식"},{"name":"우렁각시쌈밥","tel":"031-581-1239","addr":"경기도 가평군 가평읍 읍내리 635-1번지","category":"일반휴게음식 - 일반한식"},{"name":"지중해","tel":"031-582-4689","addr":"경기도 가평군 가평읍 읍내리 635-1번지 지중해갈락탕","category":"일반휴게음식 - 일반한식"}]},{"lat":"37.834402564","long":"127.51013406","items":[{"name":"넘버원카테크","tel":"031-582-1500","addr":"경기도 가평군 가평읍 읍내리 680-5번지","category":"자동차정비 유지 - 자동차정비"}]},{"lat":"37.829286344","long":"127.51405188","items":[{"name":"네이처 컬렉션","tel":"031-581-3044","addr":"경기도 가평군 가평읍 읍내리 474-13번지","category":"보건위생 - 화장품"}]},{"lat":"37.830705642","long":"127.51293713","items":[{"name":"다다스튜디오","tel":"031-582-9998","addr":"경기도 가평군 가평읍 읍내리 467-1번지","category":"광학제품 - 사진관"}]},{"lat":"37.832258211","long":"127.51016481","items":[{"name":"다빈치","tel":"031-582-9510","addr":"경기도 가평군 가평읍 읍내리 617-5","category":"일반휴게음식 - 일반한식"}]},{"lat":"37.829983195","long":"127.51332972","items":[{"name":"다이소 가평점","tel":"070-8831-9749","addr":"경기도 가평군 가평읍 읍내리 468-13번지","category":"신변잡화 - 기타잡화"},{"name":"다이소가평점","tel":"070-8831-9749","addr":"경기도 가평군 가평읍 읍내리 468-13번지","category":"신변잡화 - 기타잡화"}]},{"lat":"37.83229273","long":"127.51051719","items":[{"name":"다조은","tel":"031-582-2232","addr":"경기도 가평군 가평읍 읍내리 617-3번지 거창빌딩","category":"유통업 영리 - 기타유통업"}]},{"lat":"37.834204289","long":"127.50805391","items":[{"name":"다짐","tel":"031-000-0000","addr":"경기도 가평군 가평읍 읍내리 664-3번지","category":"레저업소 - 헬스클럽"}]},{"lat":"37.823430538","long":"127.51191029","items":[{"name":"다한우","tel":"031-581-9227","addr":"경기도 가평군 가평읍 읍내리 342-3번지","category":"일반휴게음식 - 일반한식"}]},{"lat":"37.831317767","long":"127.51305494","items":[{"name":"당구마을","tel":"","addr":"경기도 가평군 가평읍 읍내리 446-5번지 2층","category":"레저업소 - 당 구 장"},{"name":"삼성오토바이","tel":"031-582-2025","addr":"경기도 가평군 가평읍 읍내리 446-5번지","category":"자동차판매 - 이륜차판매"},{"name":"씨유가평읍내점","tel":"031-581-7142","addr":"경기도 가평군 가평읍 읍내리 446-5","category":"유통업 영리 - 편 의 점"},{"name":"씨유가평읍내점","tel":"031-581-7142","addr":"경기도 가평군 가평읍 읍내리 446-5번지","category":"유통업 영리 - 편 의 점"}]},{"lat":"37.831014949","long":"127.51224636","items":[{"name":"대나무통와인삼겹","tel":"031-582-7545","addr":"경기도 가평군 가평읍 읍내리 457-10번지","category":"일반휴게음식 - 일반한식"}]},{"lat":"37.828626364","long":"127.51458118","items":[{"name":"대림소방","tel":"031-582-2997","addr":"경기도 가평군 가평읍 읍내리 350-38","category":"기타 - 기계공구"}]},{"lat":"37.826848764","long":"127.51521634","items":[{"name":"대박장어","tel":"031-581-5646","addr":"경기도 가평군 가평읍 읍내리 360-3번지","category":"일반휴게음식 - 일반한식"}]},{"lat":"37.828931982","long":"127.51474232","items":[{"name":"대박장작(광수장작)","tel":"","addr":"경기도 가평군 가평읍 읍내리 402-6번지","category":"연료판매점 - 기타연료"}]},{"lat":"37.830904424","long":"127.51488089","items":[{"name":"대선타일","tel":"","addr":"경기도 가평군 가평읍 읍내리 412-1번지","category":"용역 서비스 - 기타용역서비스"}]},{"lat":"37.834125679","long":"127.50957555","items":[{"name":"대선할인마트","tel":"031-581-9075","addr":"경기도 가평군 가평읍 읍내리 635-3번지","category":"유통업 영리 - 슈퍼마켓"},{"name":"대선할인마트","tel":"031-581-9075","addr":"경기도 가평군 가평읍 읍내리 635-3번지","category":"유통업 영리 - 슈퍼마켓"},{"name":"몰디브","tel":"031-581-9494","addr":"경기도 가평군 가평읍 읍내리 635-3번지","category":"일반휴게음식 - 일반한식"}]},{"lat":"37.835480812","long":"127.5108003","items":[{"name":"대성건재","tel":"031-582-2326","addr":"경기도 가평군 가평읍 읍내리 684-1번지","category":"건축자재 - 건축용 요업제품"}]},{"lat":"37.832903376","long":"127.50888563","items":[{"name":"대영카써비스","tel":"031-582-8204","addr":"경기도 가평군 가평읍 읍내리 602-1","category":"자동차정비 유지 - 자동차정비"}]},{"lat":"37.828986974","long":"127.51452688","items":[{"name":"대일상사","tel":"031-581-0487","addr":"경기도 가평군 가평읍 읍내리 350-23번지","category":"신변잡화 - 기타잡화"},{"name":"장터 칡 냉면","tel":"031-582-7676","addr":"경기도 가평군 가평읍 읍내리 350-23번지","category":"일반휴게음식 - 일반한식"}]},{"lat":"37.832207529","long":"127.50938068","items":[{"name":"대일전기주식회사","tel":"031-582-6854","addr":"경기도 가평군 가평읍 읍내리 609","category":"용역 서비스 - 기타용역서비스"},{"name":"대호건설중기","tel":"","addr":"경기도 가평군 가평읍 읍내리 609번지","category":"기타 - 기계공구"},{"name":"장은영음악학원","tel":"031-582-6070","addr":"경기도 가평군 가평읍 읍내리 609","category":"학원 - 예·체능계학원"},{"name":"착한식당","tel":"031-582-4000","addr":"경기도 가평군 가평읍 읍내리 609번지","category":"일반휴게음식 - 일반한식"}]},{"lat":"37.829091179","long":"127.51126765","items":[{"name":"대한지적공사가평군지사","tel":"031-582-1138","addr":"경기도 가평군 가평읍 읍내리 487-5번지","category":"기타 - 비영리/대상"}]},{"lat":"37.83162373","long":"127.51313656","items":[{"name":"대흥각","tel":"031-581-1195","addr":"경기도 가평군 가평읍 읍내리 445-2번지 1층","category":"일반휴게음식 - 일반한식"}]},{"lat":"37.830091894","long":"127.51319416","items":[{"name":"댑 가평점","tel":"031-582-6675","addr":"경기도 가평군 가평읍 읍내리 468-19번지","category":"의류 - 내의판매"},{"name":"인스타일","tel":"031-582-6485","addr":"경기도 가평군 가평읍 읍내리 468-19번지","category":"의류 - 정장"}]},{"lat":"37.829260549","long":"127.51376773","items":[{"name":"더루비","tel":"031-111-1111","addr":"경기도 가평군 가평읍 읍내리 476-8번지","category":"보건위생 - 피부미용실"},{"name":"루비","tel":"","addr":"경기도 가평군 가평읍 읍내리 476-8번지 1층","category":"보건위생 - 피부미용실"}]},{"lat":"37.831788628","long":"127.51871503","items":[{"name":"더스테이(the stay)","tel":"031-581-5711","addr":"경기도 가평군 가평읍 읍내리 291-13번지","category":"숙박업 - 여관/기타숙박업"}]},{"lat":"37.829872919","long":"127.51382875","items":[{"name":"더캠프PC방 가평점","tel":"","addr":"경기도 가평군 가평읍 읍내리 473-16번지 2층","category":"레저업소 - 기타레져업소"},{"name":"피자랑쥬(가평점)","tel":"031-581-5585","addr":"경기도 가평군 가평읍 읍내리 473-16","category":"일반휴게음식 - 서양음식"},{"name":"피자랑쥬가평점","tel":"031-581-5585","addr":"경기도 가평군 가평읍 읍내리 473-16번지","category":"일반휴게음식 - 서양음식"}]},{"lat":"37.832458854","long":"127.51168833","items":[{"name":"덕성원","tel":"031-582-9057","addr":"경기도 가평군 가평읍 읍내리 619-1번지 덕성원","category":"일반휴게음식 - 중국식"},{"name":"덕성원","tel":"031-582-9057","addr":"경기도 가평군 가평읍 읍내리 619-1번지","category":"일반휴게음식 - 중국식"}]},{"lat":"37.831010966","long":"127.51316641","items":[{"name":"던킨도너츠","tel":"031-582-2622","addr":"경기도 가평군 가평읍 읍내리 447-1번지 1층","category":"음료식품 - 제과점"}]},{"lat":"37.828898215","long":"127.51421958","items":[{"name":"데코라인","tel":"031-82-2267","addr":"경기도 가평군 가평읍 읍내리 475-8번지","category":"가구 - 일반가구"}]},{"lat":"37.829564303","long":"127.51019181","items":[{"name":"도원 뚝배기 짬뽕","tel":"031-582-5552","addr":"경기도 가평군 가평읍 읍내리 535번지","category":"일반휴게음식 - 중국식"}]},{"lat":"37.830710072","long":"127.51399355","items":[{"name":"동신자동차정비공업사","tel":"031-581-1236","addr":"경기도 가평군 가평읍 읍내리 408-2번지","category":"자동차정비 유지 - 자동차정비"}]},{"lat":"37.833371172","long":"127.51113798","items":[{"name":"동운택시(주)","tel":"031-581-2121","addr":"경기도 가평군 가평읍 읍내리 625-7번지","category":"여행 - 택시회사"},{"name":"쉐보레가평지정써비스","tel":"031-581-2121","addr":"경기도 가평군 가평읍 읍내리 625-7번지","category":"자동차정비 유지 - 자동차정비"}]},{"lat":"37.828652701","long":"127.51474039","items":[{"name":"동진판매상사","tel":"031-582-7544","addr":"경기도 가평군 가평읍 읍내리 402-21번지","category":"직물 - 카페트,커튼,천막,지물"},{"name":"마초보양원","tel":"031-582-5945","addr":"경기도 가평군 가평읍 읍내리 402-21번지","category":"건강식품 - 기타건강식품"}]},{"lat":"37.827844253","long":"127.51418959","items":[{"name":"두레고속관광주식회사","tel":"02-465-0700","addr":"경기도 가평군 가평읍 읍내리 349-3","category":"여행 - 관광여행"},{"name":"영천해장국","tel":"031-581-0627","addr":"경기도 가평군 가평읍 읍내리 349-3","category":"일반휴게음식 - 일반한식"}]},{"lat":"37.830511035","long":"127.51418528","items":[{"name":"두리회수산","tel":"031-582-8808","addr":"경기도 가평군 가평읍 읍내리 407-11번지","category":"일반휴게음식 - 일반한식"},{"name":"추억의옛날통닭","tel":"031-581-7209","addr":"경기도 가평군 가평읍 읍내리 407-11번지","category":"일반휴게음식 - 스넥"}]},{"lat":"37.829736692","long":"127.51199904","items":[{"name":"드림기획","tel":"031-581-1414","addr":"경기도 가평군 가평읍 읍내리 461-18번지","category":"유통업 영리 - 기타유통업"},{"name":"제비표페인트사","tel":"031-582-8777","addr":"경기도 가평군 가평읍 읍내리 461-18","category":"회원제형태 - 기타4"}]},{"lat":"37.833063537","long":"127.50935246","items":[{"name":"등갈비 먹고 껍데기","tel":"031-581-7317","addr":"경기도 가평군 가평읍 읍내리 613-1번지 순덕이네 102호","category":"일반휴게음식 - 일반한식"},{"name":"쏘맥포차","tel":"031-582-3340","addr":"경기도 가평군 가평읍 읍내리 613-1번지 순덕이네 B동","category":"일반휴게음식 - 일반한식"},{"name":"옛날옛적","tel":"031-582-0006","addr":"경기도 가평군 가평읍 읍내리 613-1번지","category":"일반휴게음식 - 일반한식"},{"name":"옛날옛적","tel":"031-582-0006","addr":"경기도 가평군 가평읍 읍내리 613-1번지","category":"일반휴게음식 - 일반한식"}]},{"lat":"37.828181677","long":"127.51324916","items":[{"name":"디자인포스미술학원","tel":"031-581-7833","addr":"경기도 가평군 가평읍 읍내리 338-13번지 2층","category":"학원 - 예·체능계학원"},{"name":"알쓰","tel":"070-4318-6444","addr":"경기도 가평군 가평읍 읍내리 338-13번지","category":"일반휴게음식 - 일반한식"}]},{"lat":"37.829732","long":"127.51099943","items":[{"name":"땡촌 닭발","tel":"031-581-4578","addr":"경기도 가평군 가평읍 읍내리 493-3번지 1층","category":"일반휴게음식 - 일반한식"},{"name":"우리동네꽃족발","tel":"031-581-7999","addr":"경기도 가평군 가평읍 읍내리 493-3번지","category":"일반휴게음식 - 일반한식"},{"name":"주식회사 한서건축사사무소","tel":"031-581-1140","addr":"경기도 가평군 가평읍 읍내리 493-3","category":"용역 서비스 - 사무서비스"},{"name":"한성건축사사무소","tel":"031-581-1143","addr":"경기도 가평군 가평읍 읍내리 493-3번지 2층","category":"용역 서비스 - 사무서비스"}]},{"lat":"37.832098285","long":"127.5054383","items":[{"name":"뚝배기짬뽕패밀리","tel":"031-582-1003","addr":"경기도 가평군 가평읍 읍내리 867-5번지 A동 1층","category":"일반휴게음식 - 중국식"}]},{"lat":"37.832202622","long":"127.51260666","items":[{"name":"띠울애견미용","tel":"031-582-3613","addr":"경기도 가평군 가평읍 읍내리 268-9번지","category":"문화.취미 - 애완동물"},{"name":"인팩트인쇄기획","tel":"","addr":"경기도 가평군 가평읍 읍내리 268-9번지","category":"용역 서비스 - 사무서비스"}]},{"lat":"37.8295091541","long":"127.5146099969","items":[{"name":"래티오커피","tel":"","addr":"경기도 가평군 가평읍 읍내리 403","category":"일반휴게음식 - 서양음식"}]},{"lat":"37.829123836","long":"127.51413027","items":[{"name":"롯데리아 가평점 ","tel":"031-581-0055","addr":"경기도 가평군 가평읍 읍내리 474-15번지","category":"일반휴게음식 - 서양음식"},{"name":"롯데리아가평점","tel":"031-581-0055","addr":"경기도 가평군 가평읍 읍내리 474-15번지 외1필지","category":"일반휴게음식 - 서양음식"}]},{"lat":"37.830985415","long":"127.51282547","items":[{"name":"룩앳히얼","tel":"070-4233-7943","addr":"경기도 가평군 가평읍 읍내리 448-1번지","category":"의류 - 정장"},{"name":"이모김밥","tel":"031-582-2220","addr":"경기도 가평군 가평읍 읍내리 448-1번지","category":"일반휴게음식 - 일반한식"},{"name":"이모김밥","tel":"031-582-2220","addr":"경기도 가평군 가평읍 읍내리 448-1번지","category":"일반휴게음식 - 일반한식"},{"name":"정인당","tel":"031-582-4802","addr":"경기도 가평군 가평읍 읍내리 448-1","category":"기타 - 기계공구"},{"name":"정인당","tel":"031-582-4802","addr":"경기도 가평군 가평읍 읍내리 448-1번지","category":"기타 - 기계공구"},{"name":"홍양희헤어","tel":"031-582-0466","addr":"경기도 가평군 가평읍 읍내리 448-1번지","category":"보건위생 - 미용원"}]},{"lat":"37.827509931","long":"127.51441446","items":[{"name":"륭림닭발","tel":"031-582-2236","addr":"경기도 가평군 가평읍 읍내리 349-13번지 1층","category":"일반휴게음식 - 일반한식"},{"name":"요거프레소 가평점","tel":"070-7404-1465","addr":"경기도 가평군 가평읍 읍내리 349-13번지","category":"일반휴게음식 - 서양음식"}]},{"lat":"37.832736572","long":"127.50996362","items":[{"name":"르봉뺑","tel":"080-8252-1880","addr":"경기도 가평군 가평읍 읍내리 615-12번지","category":"음료식품 - 제과점"},{"name":"르봉뺑","tel":"080-8252-1880","addr":"경기도 가평군 가평읍 읍내리 615-12번지 101호","category":"음료식품 - 제과점"}]},{"lat":"37.829682704","long":"127.52230111","items":[{"name":"리사","tel":"031-000-0000","addr":"경기도 가평군 가평읍 읍내리 316-3번지 1층","category":"음료식품 - 기타음료식품"}]},{"lat":"37.829011888","long":"127.51293683","items":[{"name":"리얼야구존 가평점","tel":"031-582-1929","addr":"경기도 가평군 가평읍 읍내리 481-7번지","category":"레저업소 - 기타레져업소"}]},{"lat":"37.850317339","long":"127.50912959","items":[{"name":"마루","tel":"031-582-1133","addr":"경기도 가평군 가평읍 읍내리 97-3번지 외1필지","category":"숙박업 - 여관/기타숙박업"}]},{"lat":"37.834126659","long":"127.51143851","items":[{"name":"마루까페","tel":"031-581-6466","addr":"경기도 가평군 가평읍 읍내리 627-2번지","category":"일반휴게음식 - 서양음식"},{"name":"부자종합광고","tel":"031-582-5013","addr":"경기도 가평군 가평읍 읍내리 627-2번지","category":"건축자재 - 인테리어전문"},{"name":"카라피부미용관리실","tel":"031-581-8816","addr":"경기도 가평군 가평읍 읍내리 627-2번지","category":"보건위생 - 피부미용실"},{"name":"하나재가노인복지센터","tel":"031-581-0042","addr":"경기도 가평군 가평읍 읍내리 627-2번지","category":"기타의료기관 - 기타의료기관 및 기타"}]},{"lat":"37.828430335","long":"127.51408005","items":[{"name":"마시멜로","tel":"031-582-2887","addr":"경기도 가평군 가평읍 읍내리 476-5번지","category":"의류 - 정장"},{"name":"마시멜로","tel":"031-582-2887","addr":"경기도 가평군 가평읍 읍내리 476-5","category":"의류 - 정장"}]},{"lat":"37.829259902","long":"127.50974673","items":[{"name":"마이피아노","tel":"031-582-9078","addr":"경기도 가평군 가평읍 읍내리 538-4번지 1층","category":"학원 - 예·체능계학원"}]},{"lat":"37.830956106","long":"127.51126908","items":[{"name":"만물PX","tel":"031-582-5080","addr":"경기도 가평군 가평읍 읍내리 495-38번지","category":"음료식품 - 기타음료식품"},{"name":"만물PX","tel":"031-582-5080","addr":"경기도 가평군 가평읍 읍내리 495-38번지","category":"음료식품 - 기타음료식품"},{"name":"어머니손맛","tel":"031-582-1414","addr":"경기도 가평군 가평읍 읍내리 495-38번지","category":"일반휴게음식 - 일반한식"},{"name":"어머니손맛","tel":"031-582-1414","addr":"경기도 가평군 가평읍 읍내리 495-38번지","category":"일반휴게음식 - 일반한식"}]},{"lat":"37.830733014","long":"127.51285781","items":[{"name":"만백사","tel":"031-528-8312","addr":"경기도 가평군 가평읍 읍내리 467-4번지 1층","category":"수리서비스 - 세탁소"},{"name":"명동미용실","tel":"031-582-0523","addr":"경기도 가평군 가평읍 읍내리 467-4","category":"보건위생 - 미용원"},{"name":"피자에땅(가평점)","tel":"031-581-1588","addr":"경기도 가평군 가평읍 읍내리 467-4번지","category":"일반휴게음식 - 서양음식"}]},{"lat":"37.833237443","long":"127.50871752","items":[{"name":"만터부대찌개","tel":"031-582-1515","addr":"경기도 가평군 가평읍 읍내리 639-1번지 만터부대찌개","category":"일반휴게음식 - 일반한식"},{"name":"머리사랑","tel":"","addr":"경기도 가평군 가평읍 읍내리 639-1번지","category":"보건위생 - 미용원"},{"name":"아가페헤어샵","tel":"070-8956-0779","addr":"경기도 가평군 가평읍 읍내리 639-1","category":"보건위생 - 미용원"}]},{"lat":"37.826516172","long":"127.51711088","items":[{"name":"맘스터치치킨","tel":"031-581-5556","addr":"경기도 가평군 가평읍 읍내리 380-32번지","category":"일반휴게음식 - 스넥"}]},{"lat":"37.837455002","long":"127.5084396","items":[{"name":"맛깔촌","tel":"031-582-6311","addr":"경기도 가평군 가평읍 읍내리 749-5","category":"일반휴게음식 - 일반한식"}]},{"lat":"37.829625489","long":"127.51271388","items":[{"name":"맛있는술집 미술관","tel":"02-111-1111","addr":"경기도 가평군 가평읍 읍내리 468-45번지 1층","category":"일반휴게음식 - 주점"}]},{"lat":"37.829288266","long":"127.5136089","items":[{"name":"머리여행","tel":"","addr":"경기도 가평군 가평읍 읍내리 476-7번지","category":"보건위생 - 미용원"},{"name":"임내과","tel":"031-581-0675","addr":"경기도 가평군 가평읍 읍내리 476-7번지 2층","category":"의원 - 의원"},{"name":"한마음 약국","tel":"031-582-2173","addr":"경기도 가평군 가평읍 읍내리 476-7번지","category":"약국 - 약국"}]},{"lat":"37.832673992","long":"127.51193971","items":[{"name":"머리이야기","tel":"031-582-2448","addr":"경기도 가평군 가평읍 읍내리 267-1번지","category":"보건위생 - 미용원"}]},{"lat":"37.834367946","long":"127.50980439","items":[{"name":"명석손세차장","tel":"031-581-1080","addr":"경기도 가평군 가평읍 읍내리 680-3번지","category":"자동차정비 유지 - 세차장"},{"name":"명석카센타","tel":"031-581-1080","addr":"경기도 가평군 가평읍 읍내리 680-3번지","category":"자동차정비 유지 - 자동차정비"}]},{"lat":"37.827654816","long":"127.51424508","items":[{"name":"명품","tel":"031-582-9952","addr":"경기도 가평군 가평읍 읍내리 349-4번지","category":"의류 - 정장"}]},{"lat":"37.828261232","long":"127.51360182","items":[{"name":"명품J","tel":"031-581-9492","addr":"경기도 가평군 가평읍 읍내리 339-2번지","category":"의류 - 캐주얼의류"}]},{"lat":"37.831953365","long":"127.51191204","items":[{"name":"모던필","tel":"031-582-7945","addr":"경기도 가평군 가평읍 읍내리 454-2번지","category":"직물 - 침구·수예점"},{"name":"모던필","tel":"031-582-7945","addr":"경기도 가평군 가평읍 읍내리 454-2번지","category":"직물 - 침구·수예점"},{"name":"아모레카운셀러","tel":"031-581-7979","addr":"경기도 가평군 가평읍 읍내리 454-2번지","category":"보건위생 - 화장품"},{"name":"아모레카운셀러","tel":"033-256-6895","addr":"경기도 가평군 가평읍 읍내리 454-2번지","category":"보건위생 - 화장품"},{"name":"아모레카운셀러","tel":"031-581-7979","addr":"경기도 가평군 가평읍 읍내리 454-2번지 2층","category":"보건위생 - 화장품"},{"name":"아모레카운셀러","tel":"031-581-7979","addr":"경기도 가평군 가평읍 읍내리 454-2","category":"보건위생 - 화장품"},{"name":"아모레카운셀러","tel":"031-581-7979","addr":"경기도 가평군 가평읍 읍내리 454-2번지","category":"보건위생 - 화장품"},{"name":"아모레카운셀러","tel":"031-581-7979","addr":"경기도 가평군 가평읍 읍내리 454-2번지","category":"보건위생 - 화장품"},{"name":"아모레카운셀러","tel":"031-581-7979","addr":"경기도 가평군 가평읍 읍내리 454-2번지","category":"보건위생 - 화장품"},{"name":"아모레카운셀러","tel":"031-581-1833","addr":"경기도 가평군 가평읍 읍내리 454-2번지","category":"보건위생 - 화장품"},{"name":"아모레퍼시픽 방문판매","tel":"031-581-7979","addr":"경기도 가평군 가평읍 읍내리 454-2번지","category":"보건위생 - 화장품"},{"name":"연인산건강원","tel":"031-582-5978","addr":"경기도 가평군 가평읍 읍내리 454-2번지","category":"건강식품 - 기타건강식품"},{"name":"연인산건강원","tel":"031-582-5978","addr":"경기도 가평군 가평읍 읍내리 454-2번지","category":"건강식품 - 기타건강식품"}]},{"lat":"37.831708696","long":"127.51223977","items":[{"name":"모두리 옷수선","tel":"031-111-1111","addr":"경기도 가평군 가평읍 읍내리 454-6번지","category":"수리서비스 - 세탁소"},{"name":"클레이이야기","tel":"031-581-1701","addr":"경기도 가평군 가평읍 읍내리 454-6","category":"문화.취미 - 문화취미기타"}]},{"lat":"37.828514175","long":"127.51344455","items":[{"name":"모터플랜","tel":"","addr":"경기도 가평군 가평읍 읍내리 480-5번지","category":"자동차정비 유지 - 자동차부품"}]},{"lat":"37.828817133","long":"127.51421902","items":[{"name":"목동상회","tel":"031-582-3996","addr":"경기도 가평군 가평읍 읍내리 475-6번지 상가","category":"신변잡화 - 신발"},{"name":"미미화장품","tel":"031-582-2517","addr":"경기도 가평군 가평읍 읍내리 475-6번지","category":"보건위생 - 화장품"}]},{"lat":"37.8300387","long":"127.51091066","items":[{"name":"뮤엠영어가평학원","tel":"031-581-0579","addr":"경기도 가평군 가평읍 읍내리 493-6번지 원희빌딩 2층","category":"학원 - 외국어학원"},{"name":"충효체육관","tel":"031-582-9466","addr":"경기도 가평군 가평읍 읍내리 493-6번지 원희빌딩 3층","category":"학원 - 예·체능계학원"},{"name":"헤븐","tel":"031-581-5486","addr":"경기도 가평군 가평읍 읍내리 493-6번지","category":"일반휴게음식 - 일반한식"},{"name":"헤븐","tel":"031-581-5486","addr":"경기도 가평군 가평읍 읍내리 493-6번지 원희빌딩","category":"일반휴게음식 - 일반한식"}]},{"lat":"37.831819741","long":"127.51571643","items":[{"name":"미래에너지","tel":"031-582-6667","addr":"경기도 가평군 가평읍 읍내리 424-1","category":"전기제품 - 냉열기기"}]},{"lat":"37.828154207","long":"127.5133512","items":[{"name":"미르정보","tel":"031-582-0886","addr":"경기도 가평군 가평읍 읍내리 339-5번지","category":"사무통신 - 컴퓨터"}]},{"lat":"37.830154515","long":"127.51329682","items":[{"name":"미리내인테리어","tel":"031-582-4674","addr":"경기도 가평군 가평읍 읍내리 469-4번지","category":"직물 - 카페트,커튼,천막,지물"},{"name":"미리내인테리어","tel":"031-582-4674","addr":"경기도 가평군 가평읍 읍내리 469-4번지","category":"직물 - 카페트,커튼,천막,지물"},{"name":"바우네 나주곰탕","tel":"031-581-3335","addr":"경기도 가평군 가평읍 읍내리 471-2번지","category":"일반휴게음식 - 일반한식"},{"name":"보령약국","tel":"031-582-7639","addr":"경기도 가평군 가평읍 읍내리 470-3번지","category":"약국 의료기기"},{"name":"주식회사 케이앤씨트레이딩","tel":"070-5147-0817","addr":"경기도 가평군 가평읍 읍내리 469-4번지 신영빌딩 3층","category":"의류 - 정장"}]},{"lat":"37.832041967","long":"127.50807324","items":[{"name":"미소참치","tel":"031-581-7787","addr":"경기도 가평군 가평읍 읍내리 584-7","category":"일반휴게음식 - 일식·회집"}]},{"lat":"37.829286098","long":"127.50994001","items":[{"name":"미화석유","tel":"031-582-5100","addr":"경기도 가평군 가평읍 읍내리 533번지","category":"연료판매점 - 유류판매"}]},{"lat":"37.833454392","long":"127.50854861","items":[{"name":"민선네막창","tel":"031-582-9290","addr":"경기도 가평군 가평읍 읍내리 639번지","category":"일반휴게음식 - 일반한식"}]},{"lat":"37.835426513","long":"127.51085673","items":[{"name":"믿음공업사","tel":"031-582-5732","addr":"경기도 가평군 가평읍 읍내리 684-2번지","category":"건축자재 - 건축용 요업제품"}]},{"lat":"37.832430158","long":"127.51207434","items":[{"name":"바디힐요가&필라테스","tel":"031-581-7849","addr":"경기도 가평군 가평읍 읍내리 267-3번지 3층","category":"레저업소 - 헬스클럽"}]},{"lat":"37.833205533","long":"127.51402212","items":[{"name":"바로콜대리운전","tel":"","addr":"경기도 가평군 가평읍 읍내리 273-1번지 덕화주택 305호","category":"보건위생 - 기타대인서비스"}]},{"lat":"37.831096767","long":"127.51207654","items":[{"name":"바른손","tel":"031-582-3445","addr":"경기도 가평군 가평읍 읍내리 457-2번지","category":"음료식품 - 농·축·수산품"},{"name":"사거리부대찌개","tel":"031-582-3445","addr":"경기도 가평군 가평읍 읍내리 457-2번지 1층","category":"일반휴게음식 - 일반한식"}]},{"lat":"37.830372623","long":"127.51077665","items":[{"name":"바이밍 (by ming)","tel":"","addr":"경기도 가평군 가평읍 읍내리 492-21번지 1층","category":"일반휴게음식 - 서양음식"},{"name":"이오투어","tel":"031-581-5810","addr":"경기도 가평군 가평읍 읍내리 492-21번지","category":"여행 - 관광여행"},{"name":"호야넷","tel":"031-000-0000","addr":"경기도 가평군 가평읍 읍내리 492-21번지 지하","category":"용역 서비스 - 소프트웨어"}]},{"lat":"37.829621489","long":"127.51155525","items":[{"name":"바하음악학원","tel":"031-582-4834","addr":"경기도 가평군 가평읍 읍내리 489-23번지 2층","category":"학원 - 예·체능계학원"},{"name":"용꿈돼지꿈","tel":"031-581-1221","addr":"경기도 가평군 가평읍 읍내리 489-23번지","category":"음료식품 - 기타음료식품"}]},{"lat":"37.830649009","long":"127.50935867","items":[{"name":"박피아노음악학원","tel":"031-582-8685","addr":"경기도 가평군 가평읍 읍내리 563-5번지 101호","category":"학원 - 예·체능계학원"},{"name":"주식회사 일리노이학원","tel":"031-581-3663","addr":"경기도 가평군 가평읍 읍내리 563-5번지","category":"학원 - 보습학원"}]},{"lat":"37.828647292","long":"127.51391117","items":[{"name":"백년족발보쌈 가평점","tel":"031-581-0110","addr":"경기도 가평군 가평읍 읍내리 476-2번지","category":"일반휴게음식 - 일반한식"},{"name":"술이랑전이랑","tel":"031-581-0850","addr":"경기도 가평군 가평읍 읍내리 476-2번지","category":"일반휴게음식 - 일반한식"}]},{"lat":"37.835014495","long":"127.51029728","items":[{"name":"법무사박민주","tel":"031-581-8485","addr":"경기도 가평군 가평읍 읍내리 681-3번지","category":"용역 서비스 - 법률회계서비스(개인)"}]},{"lat":"37.831454593","long":"127.5105796","items":[{"name":"법무사한영길사무소","tel":"031-581-0301","addr":"경기도 가평군 가평읍 읍내리 506-6번지 505-32 층","category":"용역 서비스 - 법률회계서비스(개인)"},{"name":"세진건축사사무소","tel":"031-581-8668","addr":"경기도 가평군 가평읍 읍내리 506-6번지 1층","category":"용역 서비스 - 사무서비스"},{"name":"해동검도 가평 본관","tel":"031-581-5730","addr":"경기도 가평군 가평읍 읍내리 506-6번지","category":"레저업소 - 기타레져업소"}]},{"lat":"37.830676056","long":"127.51352759","items":[{"name":"베스킨라빈스 (가평점)","tel":"031-581-8858","addr":"경기도 가평군 가평읍 읍내리 471-3번지","category":"음료식품 - 제과점"}]},{"lat":"37.83331413","long":"127.50974039","items":[{"name":"벨라","tel":"031-581-0858","addr":"경기도 가평군 가평읍 읍내리 615-2","category":"의류 - 정장"},{"name":"영화식당","tel":"031-582-3929","addr":"경기도 가평군 가평읍 읍내리 615-2","category":"일반휴게음식 - 일반한식"},{"name":"영화식당","tel":"031-582-3929","addr":"경기도 가평군 가평읍 읍내리 615-2번지","category":"일반휴게음식 - 일반한식"},{"name":"오늘도떡볶이","tel":"031-582-5347","addr":"경기도 가평군 가평읍 읍내리 615-2번지","category":"일반휴게음식 - 일반한식"},{"name":"참 조은고기","tel":"031-581-7005","addr":"경기도 가평군 가평읍 읍내리 615-2번지","category":"음료식품 - 정육점"},{"name":"하나식당","tel":"031-582-0773","addr":"경기도 가평군 가평읍 읍내리 615-2번지","category":"일반휴게음식 - 일반한식"},{"name":"하나식당","tel":"031-582-0773","addr":"경기도 가평군 가평읍 읍내리 615-2","category":"일반휴게음식 - 일반한식"}]},{"lat":"37.830876557","long":"127.5150738","items":[{"name":"변산횟집","tel":"031-582-3197","addr":"경기도 가평군 가평읍 읍내리 413-2번지","category":"일반휴게음식 - 일반한식"}]},{"lat":"37.83309781","long":"127.51185174","items":[{"name":"변호사 박종군 법률사무소","tel":"031-581-3355","addr":"경기도 가평군 가평읍 읍내리 626-2번지 203호","category":"용역 서비스 - 법률회계서비스(개인)"},{"name":"카붐 스팀세차","tel":"","addr":"경기도 가평군 가평읍 읍내리 626-2번지 1층 102호","category":"자동차정비 유지 - 세차장"}]},{"lat":"37.830092373","long":"127.51515925","items":[{"name":"별미촌 얼큰순대국","tel":"","addr":"경기도 가평군 가평읍 읍내리 397-9번지 1,층","category":"일반휴게음식 - 일반한식"}]},{"lat":"37.830788145","long":"127.51468698","items":[{"name":"보람종합설비","tel":"031-582-6465","addr":"경기도 가평군 가평읍 읍내리 410-1","category":"용역 서비스 - 기타용역서비스"},{"name":"춘천카세차장","tel":"031-582-2858","addr":"경기도 가평군 가평읍 읍내리 410-1번지","category":"자동차정비 유지 - 자동차정비"}]},{"lat":"37.830452995","long":"127.51302626","items":[{"name":"보령약국","tel":"031-528-7639","addr":"경기도 가평군 가평읍 읍내리 470-3번지","category":"약국 - 약국"}]},{"lat":"37.828207163","long":"127.51152283","items":[{"name":"보양식오리","tel":"031-581-2715","addr":"경기도 가평군 가평읍 읍내리 329-1번지","category":"일반휴게음식 - 일반한식"},{"name":"선희네","tel":"031-581-5567","addr":"경기도 가평군 가평읍 읍내리 329-1번지 외1필지","category":"일반휴게음식 - 일반한식"},{"name":"잘살아보세","tel":"031-582-7586","addr":"경기도 가평군 가평읍 읍내리 329-1번지","category":"일반휴게음식 - 일반한식"},{"name":"청양골","tel":"031-582-1079","addr":"경기도 가평군 가평읍 읍내리 329-1번지","category":"일반휴게음식 - 일반한식"},{"name":"청평어죽 추어탕","tel":"031-582-9200","addr":"경기도 가평군 가평읍 읍내리 329-1번지","category":"일반휴게음식 - 일반한식"}]},{"lat":"37.830008203","long":"127.51379561","items":[{"name":"본죽엔비빔밥","tel":"031-582-1111","addr":"경기도 가평군 가평읍 읍내리 473-20번지 1층","category":"일반휴게음식 - 일반한식"},{"name":"본죽엔비빔밥","tel":"031-582-1111","addr":"경기도 가평군 가평읍 읍내리 473-20번지","category":"일반휴게음식 - 일반한식"},{"name":"빠리바게뜨","tel":"031-582-8886","addr":"경기도 가평군 가평읍 읍내리 473-20번지","category":"음료식품 - 제과점"},{"name":"파리바게뜨","tel":"031-582-8886","addr":"경기도 가평군 가평읍 읍내리 473-20","category":"음료식품 - 제과점"}]},{"lat":"37.828710355","long":"127.5139116","items":[{"name":"봉구비어","tel":"031-581-9909","addr":"경기도 가평군 가평읍 읍내리 476-6번지","category":"일반휴게음식 - 일반한식"},{"name":"봉구비어","tel":"02-000-0000","addr":"경기도 가평군 가평읍 읍내리 476-6번지","category":"일반휴게음식 - 주점"}]},{"lat":"37.832126205","long":"127.51152701","items":[{"name":"북성로연탄불고기","tel":"031-581-8892","addr":"경기도 가평군 가평읍 읍내리 618-6번지 1호","category":"일반휴게음식 - 일반한식"}]},{"lat":"37.829344634","long":"127.51307543","items":[{"name":"붕붕카센타","tel":"031-581-2929","addr":"경기도 가평군 가평읍 읍내리 479-1","category":"자동차정비 유지 - 자동차정비"}]},{"lat":"37.834678601","long":"127.50879552","items":[{"name":"븟석쇠불고기백반","tel":"031-581-6359","addr":"경기도 가평군 가평읍 읍내리 669-3번지","category":"일반휴게음식 - 일반한식"}]},{"lat":"37.830785031","long":"127.51124519","items":[{"name":"비비큐(bbq)올리브카페치킨","tel":"031-582-9289","addr":"경기도 가평군 가평읍 읍내리 496-11번지","category":"일반휴게음식 - 일반한식"}]},{"lat":"37.827429342","long":"127.51430031","items":[{"name":"뼈다귀천국","tel":"031-581-3359","addr":"경기도 가평군 가평읍 읍내리 349-6번지","category":"일반휴게음식 - 일반한식"},{"name":"뼈다귀천국","tel":"031-581-3359","addr":"경기도 가평군 가평읍 읍내리 349-6번지 외3필지","category":"일반휴게음식 - 일반한식"}]},{"lat":"37.827871668","long":"127.5120203","items":[{"name":"뿌리깊은수학전문학원","tel":"031-581-3100","addr":"경기도 가평군 가평읍 읍내리 329-29번지 2층","category":"학원 - 보습학원"}]},{"lat":"37.831178938","long":"127.51390591","items":[{"name":"사단법인자라섬청소년재즈센터","tel":"031-581-2813","addr":"경기도 가평군 가평읍 읍내리 432","category":"용역 서비스 - 사무서비스"}]},{"lat":"37.832341736","long":"127.51168752","items":[{"name":"산골냉면","tel":"031-582-2178","addr":"경기도 가평군 가평읍 읍내리 618-14번지","category":"일반휴게음식 - 일반한식"},{"name":"트윈버거","tel":"031-581-7785","addr":"경기도 가평군 가평읍 읍내리 618-14번지","category":"일반휴게음식 - 서양음식"},{"name":"호식이두마리치킨(가평점)","tel":"031-582-9989","addr":"경기도 가평군 가평읍 읍내리 618-14번지","category":"일반휴게음식 - 스넥"}]},{"lat":"37.831011545","long":"127.51510881","items":[{"name":"산성생고기마을","tel":"031-582-6147","addr":"경기도 가평군 가평읍 읍내리 415-6","category":"일반휴게음식 - 일반한식"},{"name":"산정정육점","tel":"031-582-6147","addr":"경기도 가평군 가평읍 읍내리 415-6번지","category":"음료식품 - 정육점"}]},{"lat":"37.833765315","long":"127.51166322","items":[{"name":"삼교리 동치미 막국수","tel":"031-581-3922","addr":"경기도 가평군 가평읍 읍내리 626-1번지","category":"일반휴게음식 - 일반한식"},{"name":"삼교리 동치미 막국수","tel":"031-581-3922","addr":"경기도 가평군 가평읍 읍내리 626-1번지","category":"일반휴게음식 - 일반한식"}]},{"lat":"37.827682404","long":"127.51618757","items":[{"name":"삼보환경기술주식회사","tel":"031-582-6955","addr":"경기도 가평군 가평읍 읍내리 357번지 3층","category":"용역 서비스 - 기타용역서비스"}]},{"lat":"37.83584372","long":"127.51021208","items":[{"name":"삼삼구이","tel":"031-581-9235","addr":"경기도 가평군 가평읍 읍내리 737번지 디지털프라자 1층","category":"일반휴게음식 - 일반한식"},{"name":"삼성디지털프라자가평점","tel":"031-582-4440","addr":"경기도 가평군 가평읍 읍내리 737번지","category":"전기제품 - 가전제품"},{"name":"삼성전자판매(주)가평모바일점","tel":"031-582-4469","addr":"경기도 가평군 가평읍 읍내리 737번지 디지털프라자","category":"전기제품 - 가전제품"}]},{"lat":"37.838514923","long":"127.50497062","items":[{"name":"삽다리곱창","tel":"031-582-9450","addr":"경기도 가평군 가평읍 읍내리 797번지","category":"일반휴게음식 - 일반한식"},{"name":"정칼국수","tel":"031-581-9980","addr":"경기도 가평군 가평읍 읍내리 797번지","category":"일반휴게음식 - 일반한식"}]},{"lat":"37.828150704","long":"127.51207901","items":[{"name":"상일리베가구점","tel":"031-582-1777","addr":"경기도 가평군 가평읍 읍내리 329-44,329-39","category":"가구 - 일반가구"}]},{"lat":"37.828205672","long":"127.51602082","items":[{"name":"새시대상회","tel":"031-582-3206","addr":"경기도 가평군 가평읍 읍내리 376-5번지","category":"유통업 영리 - 슈퍼마켓"},{"name":"소문난 정통 닭갈비","tel":"031-581-7250","addr":"경기도 가평군 가평읍 읍내리 400-3번지","category":"일반휴게음식 - 일반한식"},{"name":"소문난정통닭갈비","tel":"031-581-7250","addr":"경기도 가평군 가평읍 읍내리 400-3","category":"일반휴게음식 - 일반한식"}]},{"lat":"37.829731187","long":"127.51327119","items":[{"name":"새희망마취통증의학과의원","tel":"031-581-7200","addr":"경기도 가평군 가평읍 읍내리 468-21번지","category":"의원 - 의원"}]},{"lat":"37.827842576","long":"127.51457577","items":[{"name":"샵(Shop)","tel":"031-582-8624","addr":"경기도 가평군 가평읍 읍내리 475-20번지","category":"의류 - 정장"},{"name":"여우솜씨","tel":"070-4696-6321","addr":"경기도 가평군 가평읍 읍내리 475-20번지","category":"회원제형태 - 기타1"}]},{"lat":"37.830452306","long":"127.51318529","items":[{"name":"서울가정의학과의원","tel":"031-581-7558","addr":"경기도 가평군 가평읍 읍내리 470-6번지","category":"의원 - 의원"}]},{"lat":"37.831679949","long":"127.51263714","items":[{"name":"서울베스트치과","tel":"031-286-8606","addr":"경기도 가평군 가평읍 읍내리 443-17번지 2층","category":"의원 - 치과의원"},{"name":"장충동왕족발보쌈","tel":"031-581-3380","addr":"경기도 가평군 가평읍 읍내리 443-17번지","category":"일반휴게음식 - 주점"},{"name":"청강화원","tel":"031-582-6536","addr":"경기도 가평군 가평읍 읍내리 443-17","category":"문화.취미 - 화원"}]},{"lat":"37.828708926","long":"127.51424099","items":[{"name":"서울이동통신","tel":"031-581-1004","addr":"경기도 가평군 가평읍 읍내리 475-16번지","category":"사무통신 - 통신기기"}]},{"lat":"37.830125665","long":"127.5137169","items":[{"name":"서울정형외과","tel":"031-581-4562","addr":"경기도 가평군 가평읍 읍내리 473-1번지","category":"의원 - 의원"},{"name":"천병철내과의원","tel":"031-582-0075","addr":"경기도 가평군 가평읍 읍내리 473-1번지","category":"의원 - 의원"},{"name":"한천당약국","tel":"031-582-6465","addr":"경기도 가평군 가평읍 읍내리 473-1번지","category":"약국 - 약국"}]},{"lat":"37.836483193","long":"127.50816033","items":[{"name":"서울철물건재","tel":"031-582-2840","addr":"경기도 가평군 가평읍 읍내리 746번지","category":"건축자재 - 기타건축자재"}]},{"lat":"37.829652361","long":"127.5148268","items":[{"name":"선죽","tel":"031-581-4452","addr":"경기도 가평군 가평읍 읍내리 406-2 3호점","category":"일반휴게음식 - 일반한식"}]},{"lat":"37.832095803","long":"127.5102205","items":[{"name":"세븐일레븐가평군청점","tel":"031-1577-0711","addr":"경기도 가평군 가평읍 읍내리 617-6번지 외 1필지","category":"유통업 영리 - 편 의 점"},{"name":"청담이라인 치과","tel":"031-581-5421","addr":"경기도 가평군 가평읍 읍내리 617-6번지 2,3층","category":"의원 - 치과의원"}]},{"lat":"37.836312396","long":"127.50596672","items":[{"name":"세븐일레븐가평남이옥점","tel":"031-1577-0711","addr":"경기도 가평군 가평읍 읍내리 786-2번지","category":"유통업 영리 - 편 의 점"},{"name":"세븐일레븐가평남이옥점","tel":"031-1577-0711","addr":"경기도 가평군 가평읍 읍내리 786-2번지","category":"유통업 영리 - 편 의 점"},{"name":"화덕닭갈비 가평점","tel":"","addr":"경기도 가평군 가평읍 읍내리 786-2번지","category":"일반휴게음식 - 일반한식"}]},{"lat":"37.837014971","long":"127.50810716","items":[{"name":"세븐일레븐가평읍내리점","tel":"","addr":"경기도 가평군 가평읍 읍내리 766-8번지","category":"유통업 영리 - 편 의 점"}]},{"lat":"37.830793814","long":"127.51338074","items":[{"name":"세븐일레븐가평중앙점","tel":"","addr":"경기도 가평군 가평읍 읍내리 471-6번지","category":"유통업 영리 - 편 의 점"}]},{"lat":"37.832840716","long":"127.51088444","items":[{"name":"세움","tel":"","addr":"경기도 가평군 가평읍 읍내리 621-14번지 1층","category":"일반휴게음식 - 일반한식"}]},{"lat":"37.829373106","long":"127.51065621","items":[{"name":"세이퍼A/S센타","tel":"031-581-0092","addr":"경기도 가평군 가평읍 읍내리 487-1번지","category":"수리서비스 - 사무·통신기기수리"}]},{"lat":"37.830597386","long":"127.51297046","items":[{"name":"속옷상설할인매장","tel":"031-582-1045","addr":"경기도 가평군 가평읍 읍내리 470-1번지","category":"의류 - 내의판매"}]},{"lat":"37.831348039","long":"127.51438416","items":[{"name":"손빨래방","tel":"031-581-2499","addr":"경기도 가평군 가평읍 읍내리 426-10","category":"수리서비스 - 세탁소"}]},{"lat":"37.827537698","long":"127.51424427","items":[{"name":"수미쥬얼리","tel":"031-582-9982","addr":"경기도 가평군 가평읍 읍내리 349-5번지","category":"신변잡화 - 액세서리"}]},{"lat":"37.82898555","long":"127.51277763","items":[{"name":"수원갈비본가","tel":"031-581-0307","addr":"경기도 가평군 가평읍 읍내리 482-10번지 1층","category":"일반휴게음식 - 일반한식"}]},{"lat":"37.831182631","long":"127.51305401","items":[{"name":"수제파이&퀼트사랑","tel":"031-581-8203","addr":"경기도 가평군 가평읍 읍내리 446-16번지","category":"일반휴게음식 - 서양음식"},{"name":"쿡이랑찬이랑","tel":"031-581-8203","addr":"경기도 가평군 가평읍 읍내리 446-16번지","category":"음료식품 - 기타음료식품"}]},{"lat":"37.836428748","long":"127.50191204","items":[{"name":"숲B B U 갤러리숲","tel":"031-581-9175","addr":"경기도 가평군 가평읍 읍내리 817번지","category":"문화.취미 - 화랑"},{"name":"펜션 숲","tel":"031-581-9175","addr":"경기도 가평군 가평읍 읍내리 817번지","category":"숙박업 - 여관/기타숙박업"}]},{"lat":"37.831928981","long":"127.50288134","items":[{"name":"시골국수","tel":"031-582-0722","addr":"경기도 가평군 가평읍 읍내리 855-10","category":"일반휴게음식 - 일반한식"}]},{"lat":"37.834543074","long":"127.50888547","items":[{"name":"신성루","tel":"031-581-8255","addr":"경기도 가평군 가평읍 읍내리 669-6번지","category":"일반휴게음식 - 중국식"},{"name":"한미닭갈비","tel":"031-582-8388","addr":"경기도 가평군 가평읍 읍내리 669-6번지","category":"일반휴게음식 - 일반한식"}]},{"lat":"37.828789268","long":"127.51441193","items":[{"name":"쌍가마상회","tel":"031-582-2239","addr":"경기도 가평군 가평읍 읍내리 475-45","category":"의류 - 정장"}]},{"lat":"37.829372439","long":"127.51497253","items":[{"name":"쌍둥이네","tel":"031-582-1908","addr":"경기도 가평군 가평읍 읍내리 404번지 가평재래시장 A동 107호","category":"일반휴게음식 - 일반한식"}]},{"lat":"37.835375787","long":"127.51008392","items":[{"name":"씨비엠엠엔터 주식회사","tel":"031-582-9035","addr":"경기도 가평군 가평읍 읍내리 681-1번지","category":"용역 서비스 - 종합용역"},{"name":"원식품","tel":"031-581-3483","addr":"경기도 가평군 가평읍 읍내리 681-1번지","category":"음료식품 - 기타음료식품"}]},{"lat":"37.828955994","long":"127.51127808","items":[{"name":"씨앤씨레져 주식회사","tel":"031-585-9802","addr":"경기도 가평군 가평읍 읍내리 486-1번지 1층 일부호","category":"숙박업 - 여관/기타숙박업"}]},{"lat":"37.833539843","long":"127.51171847","items":[{"name":"씨유가평대로점","tel":"031-581-6555","addr":"경기도 가평군 가평읍 읍내리 626-13번지 정명빌라","category":"유통업 영리 - 편 의 점"}]},{"lat":"37.831535214","long":"127.51277246","items":[{"name":"아라돈","tel":"031-582-8381","addr":"경기도 가평군 가평읍 읍내리 444-1번지","category":"음료식품 - 정육점"},{"name":"주식회사민정농업회사법인","tel":"031-582-8381","addr":"경기도 가평군 가평읍 읍내리 444-1번지","category":"음료식품 - 정육점"}]},{"lat":"37.830011895","long":"127.51294372","items":[{"name":"아리아세차","tel":"031-582-1076","addr":"경기도 가평군 가평읍 읍내리 463-11번지","category":"자동차정비 유지 - 세차장"}]},{"lat":"37.83134594","long":"127.51899592","items":[{"name":"알프스","tel":"031-581-2544","addr":"경기도 가평군 가평읍 읍내리 300-6번지","category":"숙박업 - 여관/기타숙박업"},{"name":"알프스모텔","tel":"031-581-2544","addr":"경기도 가평군 가평읍 읍내리 300-6번지","category":"숙박업 - 여관/기타숙박업"}]},{"lat":"37.829121764","long":"127.51460732","items":[{"name":"애향식당","tel":"031-582-7044","addr":"경기도 가평군 가평읍 읍내리 402-26","category":"일반휴게음식 - 일반한식"}]},{"lat":"37.827093498","long":"127.51279869","items":[{"name":"어부네집","tel":"031-582-5515","addr":"경기도 가평군 가평읍 읍내리 342-3번지 1층","category":"일반휴게음식 - 일반한식"}]},{"lat":"37.854062942","long":"127.51174586","items":[{"name":"에벤에셀","tel":"070-8742-7141","addr":"경기도 가평군 가평읍 읍내리 76-3번지","category":"숙박업 - 여관/기타숙박업"}]},{"lat":"37.829980821","long":"127.51179626","items":[{"name":"연담정","tel":"031-582-5550","addr":"경기도 가평군 가평읍 읍내리 489-4번지 1동 1층","category":"일반휴게음식 - 일반한식"}]},{"lat":"37.830758024","long":"127.5133237","items":[{"name":"예쁜걸","tel":"031-581-9992","addr":"경기도 가평군 가평읍 읍내리 471-9번지","category":"의류 - 정장"},{"name":"오티콘보청기 가평센터","tel":"031-402-9272","addr":"경기도 가평군 가평읍 읍내리 471-9번지 2층","category":"보건위생 - 의료용품"},{"name":"티움","tel":"031-582-9588","addr":"경기도 가평군 가평읍 읍내리 471-9번지","category":"신변잡화 - 기타잡화"},{"name":"티움","tel":"031-582-8330","addr":"경기도 가평군 가평읍 읍내리 471-9번지","category":"의류 - 캐주얼의류"},{"name":"티움","tel":"031-582-8330","addr":"경기도 가평군 가평읍 읍내리 471-9","category":"의류 - 캐주얼의류"}]},{"lat":"37.836785208","long":"127.50916206","items":[{"name":"예원어린이집","tel":"031-581-7292","addr":"경기도 가평군 가평읍 읍내리 741-5","category":"학원 - 유아원"},{"name":"예원어린이집[아이행복]","tel":"031-581-7292","addr":"경기도 가평군 가평읍 읍내리 741-5번지","category":"학원 - 유아원"},{"name":"예원어린이집[아이행복]","tel":"031-581-7292","addr":"경기도 가평군 가평읍 읍내리 741-5","category":"학원 - 유아원"}]},{"lat":"37.838233386","long":"127.50760426","items":[{"name":"옛촌가든","tel":"031-581-6789","addr":"경기도 가평군 가평읍 읍내리 765-1번지","category":"일반휴게음식 - 일반한식"}]},{"lat":"37.829376583","long":"127.51401843","items":[{"name":"오양근치과의원","tel":"031-582-5566","addr":"경기도 가평군 가평읍 읍내리 474-4번지","category":"의원 - 의원"},{"name":"종로떡집","tel":"031-582-3666","addr":"경기도 가평군 가평읍 읍내리 474-4번지","category":"음료식품 - 제과점"}]},{"lat":"37.83418198","long":"127.50905339","items":[{"name":"우담골","tel":"031-582-7559","addr":"경기도 가평군 가평읍 읍내리 636번지","category":"일반휴게음식 - 일반한식"}]},{"lat":"37.83286931","long":"127.51052114","items":[{"name":"우림약국","tel":"031-582-5661","addr":"경기도 가평군 가평읍 읍내리 624-13번지","category":"약국 - 약국"}]},{"lat":"37.83095164","long":"127.51230272","items":[{"name":"우정잔치국수","tel":"031-581-2532","addr":"경기도 가평군 가평읍 읍내리 457-13번지 1층","category":"일반휴게음식 - 일반한식"}]},{"lat":"37.832873614","long":"127.50952155","items":[{"name":"우주라이크커피","tel":"031-582-8523","addr":"경기도 가평군 가평읍 읍내리 613-2번지 1층 2호","category":"일반휴게음식 - 서양음식"}]},{"lat":"37.829127186","long":"127.5133579","items":[{"name":"울엄마네","tel":"031-581-3020","addr":"경기도 가평군 가평읍 읍내리 479-6번지","category":"일반휴게음식 - 일반한식"},{"name":"홍가네해물탕","tel":"031-581-1373","addr":"경기도 가평군 가평읍 읍내리 479-6번지","category":"일반휴게음식 - 일반한식"}]},{"lat":"37.83142853","long":"127.51244231","items":[{"name":"유미미용실","tel":"031-582-2515","addr":"경기도 가평군 가평읍 읍내리 453-3번지 외1필지","category":"보건위생 - 미용원"}]},{"lat":"37.828538444","long":"127.5140808","items":[{"name":"유성소아과","tel":"031-582-2519","addr":"경기도 가평군 가평읍 읍내리 476-4번지 2층","category":"의원 - 의원"},{"name":"육가원 맛보기터","tel":"031-581-8443","addr":"경기도 가평군 가평읍 읍내리 476-4번지","category":"일반휴게음식 - 일반한식"},{"name":"쿨하우스","tel":"031-581-0880","addr":"경기도 가평군 가평읍 읍내리 476-4번지 외2필지","category":"일반휴게음식 - 일반한식"},{"name":"형제축산육가공","tel":"","addr":"경기도 가평군 가평읍 읍내리 476-4번지","category":"음료식품 - 정육점"}]},{"lat":"37.829821524","long":"127.51321502","items":[{"name":"유타카","tel":"031-582-8125","addr":"경기도 가평군 가평읍 읍내리 468-7번지","category":"일반휴게음식 - 일반한식"}]},{"lat":"37.828349746","long":"127.51396591","items":[{"name":"은혜약국","tel":"031-581-7227","addr":"경기도 가평군 가평읍 읍내리 478-23번지","category":"약국 - 약국"}]},{"lat":"37.848814928","long":"127.50863076","items":[{"name":"이가네 손두부","tel":"031-581-9534","addr":"경기도 가평군 가평읍 읍내리 98-2번지 B동 1층","category":"일반휴게음식 - 일반한식"}]},{"lat":"37.828871089","long":"127.51424211","items":[{"name":"이디야","tel":"031-582-0049","addr":"경기도 가평군 가평읍 읍내리 475-9번지 1층","category":"일반휴게음식 - 서양음식"},{"name":"이디야","tel":"031-582-0049","addr":"경기도 가평군 가평읍 읍내리 475-9번지","category":"일반휴게음식 - 서양음식"},{"name":"한우리식당","tel":"031-581-7652","addr":"경기도 가평군 가평읍 읍내리 475-9번지","category":"일반휴게음식 - 일반한식"},{"name":"한우리축산","tel":"031-581-7652","addr":"경기도 가평군 가평읍 읍내리 475-9번지","category":"음료식품 - 정육점"}]},{"lat":"37.827182939","long":"127.51502555","items":[{"name":"이마트24 가평읍내","tel":"","addr":"경기도 가평군 가평읍 읍내리 360-2번지","category":"유통업 영리 - 편 의 점"},{"name":"이마트24 가평읍내","tel":"","addr":"경기도 가평군 가평읍 읍내리 360-2번지 1층","category":"유통업 영리 - 편 의 점"}]},{"lat":"37.83198505","long":"127.51083313","items":[{"name":"이숙자피자","tel":"02-000-0000","addr":"경기도 가평군 가평읍 읍내리 503-9번지","category":"일반휴게음식 - 서양음식"}]},{"lat":"37.832928987","long":"127.50921522","items":[{"name":"이쎈피자","tel":"031-582-3356","addr":"경기도 가평군 가평읍 읍내리 613번지","category":"일반휴게음식 - 서양음식"}]},{"lat":"37.834317604","long":"127.50894073","items":[{"name":"이프","tel":"031-584-4679","addr":"경기도 가평군 가평읍 읍내리 669-5번지 1층 2층","category":"일반휴게음식 - 일반한식"}]},{"lat":"37.828071781","long":"127.51157869","items":[{"name":"인팩토리디자인","tel":"031-781-8322","addr":"경기도 가평군 가평읍 읍내리 329-21번지 튼튼체육관 102호","category":"서적문구 - 출판 및 인쇄물"}]},{"lat":"37.830121642","long":"127.51047959","items":[{"name":"인헤어","tel":"031-582-1255","addr":"경기도 가평군 가평읍 읍내리 494-10번지 A동 4호","category":"보건위생 - 미용원"}]},{"lat":"37.831598769","long":"127.5126593","items":[{"name":"자라헤어","tel":"031-581-9919","addr":"경기도 가평군 가평읍 읍내리 444-2번지","category":"보건위생 - 미용원"}]},{"lat":"37.828849233","long":"127.5130493","items":[{"name":"자연유통","tel":"031-582-9566","addr":"경기도 가평군 가평읍 읍내리 481-1번지","category":"음료식품 - 정육점"}]},{"lat":"37.829511716","long":"127.50985068","items":[{"name":"잣고을곰탕","tel":"031-581-2966","addr":"경기도 가평군 가평읍 읍내리 532번지 잣고을곰탕","category":"일반휴게음식 - 일반한식"}]},{"lat":"37.830121326","long":"127.51471645","items":[{"name":"장터해장국","tel":"031-582-7935","addr":"경기도 가평군 가평읍 읍내리 407-5번지","category":"일반휴게음식 - 일반한식"}]},{"lat":"37.831037157","long":"127.5133597","items":[{"name":"전원다실","tel":"031-582-3426","addr":"경기도 가평군 가평읍 읍내리 447-5번지","category":"일반휴게음식 - 서양음식"}]},{"lat":"37.831319581","long":"127.51471337","items":[{"name":"전원식당","tel":"031-581-2867","addr":"경기도 가평군 가평읍 읍내리 426-8","category":"일반휴게음식 - 일반한식"}]},{"lat":"37.830956898","long":"127.51524474","items":[{"name":"정'S 짬뽕","tel":"031-582-9898","addr":"경기도 가평군 가평읍 읍내리 415-2번지","category":"일반휴게음식 - 일반한식"}]},{"lat":"37.830122413","long":"127.51238789","items":[{"name":"정동통신","tel":"070-4624-2322","addr":"경기도 가평군 가평읍 읍내리 461-3번지","category":"사무통신 - 통신기기"}]},{"lat":"37.830401706","long":"127.51029977","items":[{"name":"정풍건축사사무소","tel":"031-582-6945","addr":"경기도 가평군 가평읍 읍내리 495-31","category":"용역 서비스 - 법률회계서비스(개인)"}]},{"lat":"37.828737629","long":"127.513855","items":[{"name":"제일떡집","tel":"031-582-8682","addr":"경기도 가평군 가평읍 읍내리 478-6번지 제일떡집","category":"음료식품 - 제과점"}]},{"lat":"37.830230779","long":"127.5102418","items":[{"name":"조이스학원","tel":"031-581-0534","addr":"경기도 가평군 가평읍 읍내리 495-28번지 4층","category":"학원 - 보습학원"},{"name":"피자집 가평점","tel":"031-582-5578","addr":"경기도 가평군 가평읍 읍내리 495-28번지 1층","category":"일반휴게음식 - 서양음식"}]},{"lat":"37.834569084","long":"127.51121436","items":[{"name":"조흥식품","tel":"031-1899-3818","addr":"경기도 가평군 가평읍 읍내리 686-3번지","category":"음료식품 - 기타음료식품"}]},{"lat":"37.85484137","long":"127.51298975","items":[{"name":"죠이아","tel":"031-582-3390","addr":"경기도 가평군 가평읍 읍내리 75-2번지","category":"숙박업 - 여관/기타숙박업"}]},{"lat":"37.832452023","long":"127.51326721","items":[{"name":"주공회관","tel":"031-582-5982","addr":"경기도 가평군 가평읍 읍내리 270-2번지","category":"일반휴게음식 - 일반한식"}]},{"lat":"37.834508519","long":"127.5106346","items":[{"name":"주식회사대건건업","tel":"031-582-8384","addr":"경기도 가평군 가평읍 읍내리 629-7번지","category":"용역 서비스 - 기타용역서비스"}]},{"lat":"37.829347633","long":"127.51238256","items":[{"name":"주식회사일진환경건설","tel":"031-581-2061","addr":"경기도 가평군 가평읍 읍내리 468-34","category":"용역 서비스 - 종합용역"},{"name":"천계닭갈비","tel":"031-582-8725","addr":"경기도 가평군 가평읍 읍내리 468-34번지 1층","category":"일반휴게음식 - 일반한식"}]},{"lat":"37.8283710147","long":"127.5132163866","items":[{"name":"중소기업가구전시장","tel":"","addr":"경기도 가평군 가평읍 읍내리 338-2","category":"가구- 일반가구"}]},{"lat":"37.832757232","long":"127.51144047","items":[{"name":"진옥사","tel":"031-582-1628","addr":"경기도 가평군 가평읍 읍내리 621-7","category":"신변잡화 - 액세서리"},{"name":"진옥사","tel":"031-582-1628","addr":"경기도 가평군 가평읍 읍내리 621-7번지","category":"신변잡화 - 액세서리"}]},{"lat":"37.828510233","long":"127.51435321","items":[{"name":"쪼치킨바","tel":"031-582-0404","addr":"경기도 가평군 가평읍 읍내리 475-24번지 1층","category":"일반휴게음식 - 스넥"}]},{"lat":"37.831536885","long":"127.51238626","items":[{"name":"쫄깃한 떡뽁기","tel":"031-582-9179","addr":"경기도 가평군 가평읍 읍내리 453-5번지","category":"일반휴게음식 - 스넥"}]},{"lat":"37.829013314","long":"127.51260744","items":[{"name":"쭌당구장","tel":"033-000-0000","addr":"경기도 가평군 가평읍 읍내리 482-7번지","category":"레저업소 - 당 구 장"}]},{"lat":"37.831265778","long":"127.5125775","items":[{"name":"처갓집양념치킨 가평점","tel":"031-582-9191","addr":"경기도 가평군 가평읍 읍내리 452번지 1층","category":"일반휴게음식 - 스넥"},{"name":"현대방앗간","tel":"031-581-0230","addr":"경기도 가평군 가평읍 읍내리 452번지","category":"음료식품 - 제과점"},{"name":"현대방앗간","tel":"031-581-0230","addr":"경기도 가평군 가평읍 읍내리 452","category":"음료식품 - 제과점"},{"name":"휘트니스짐","tel":"031-581-0588","addr":"경기도 가평군 가평읍 읍내리 452번지 2층","category":"회원제형태 - 레져업소"}]},{"lat":"37.830844611","long":"127.51205209","items":[{"name":"천일인쇄소","tel":"031-582-2072","addr":"경기도 가평군 가평읍 읍내리 459-5번지","category":"서적문구 - 출판 및 인쇄물"}]},{"lat":"37.829870159","long":"127.51238616","items":[{"name":"천지항아리갈비","tel":"031-582-1347","addr":"경기도 가평군 가평읍 읍내리 461-16번지 외1필지","category":"일반휴게음식 - 일반한식"}]},{"lat":"37.828788545","long":"127.51041367","items":[{"name":"청명멘토르학원","tel":"031-582-4567","addr":"경기도 가평군 가평읍 읍내리 536-5번지","category":"학원 - 보습학원"}]},{"lat":"37.834702503","long":"127.50952269","items":[{"name":"청춘식당 가평점","tel":"","addr":"경기도 가평군 가평읍 읍내리 675번지 1층","category":"일반휴게음식 - 일반한식"}]},{"lat":"37.831987328","long":"127.50820918","items":[{"name":"초원화로구이","tel":"070-1111-1111","addr":"경기도 가평군 가평읍 읍내리 584-7번지","category":"일반휴게음식 - 일반한식"},{"name":"초원화로구이","tel":"070-1111-1111","addr":"경기도 가평군 가평읍 읍내리 584-7번지 B동 1층","category":"일반휴게음식 - 일반한식"}]},{"lat":"37.834179634","long":"127.51168878","items":[{"name":"카라자연벌꿀농산물","tel":"031-581-8816","addr":"경기도 가평군 가평읍 읍내리 627-11번지 102호","category":"음료식품 - 농·축·수산품"}]},{"lat":"37.828869906","long":"127.51243607","items":[{"name":"컴퓨터가게","tel":"031-581-9988","addr":"경기도 가평군 가평읍 읍내리 484-2번지","category":"사무통신 - 컴퓨터"}]},{"lat":"37.829708978","long":"127.51215787","items":[{"name":"코콜가평점","tel":"031-581-2240","addr":"경기도 가평군 가평읍 읍내리 461-20번지 1/4","category":"사무통신 - 컴퓨터"}]},{"lat":"37.833624979","long":"127.50868609","items":[{"name":"쿠치나","tel":"031-582-3848","addr":"경기도 가평군 가평읍 읍내리 637-4번지","category":"일반휴게음식 - 일반한식"}]},{"lat":"37.833316963","long":"127.50908156","items":[{"name":"크린토피아 코인워시 경기 가평읍점","tel":"031-582-3989","addr":"경기도 가평군 가평읍 읍내리 615번지 1층 101호","category":"수리서비스 - 세탁소"},{"name":"헤어로드","tel":"031-582-5525","addr":"경기도 가평군 가평읍 읍내리 615번지 1층","category":"보건위생 - 미용원"}]},{"lat":"37.834763513","long":"127.51000021","items":[{"name":"크림슨피자","tel":"031-581-5812","addr":"경기도 가평군 가평읍 읍내리 680-10번지 크림슨피자","category":"일반휴게음식 - 서양음식"}]},{"lat":"37.830982397","long":"127.51143965","items":[{"name":"큰손왕만두","tel":"031-581-5848","addr":"경기도 가평군 가평읍 읍내리 495-3번지 1층","category":"일반휴게음식 - 일반한식"}]},{"lat":"37.850065184","long":"127.50910514","items":[{"name":"키즈풀빌라 똥강아지","tel":"031-000-0000","addr":"경기도 가평군 가평읍 읍내리 97-5번지","category":"숙박업 - 여관/기타숙박업"}]},{"lat":"37.837346161","long":"127.50860925","items":[{"name":"태강전기","tel":"031-582-8763","addr":"경기도 가평군 가평읍 읍내리 749-1번지","category":"전기제품 - 기타전기제품"}]},{"lat":"37.83873331","long":"127.50657389","items":[{"name":"태양씽크","tel":"031-581-4762","addr":"경기도 가평군 가평읍 읍내리 764-2번지 혜민싱크","category":"주방용구 - 주방용구"}]},{"lat":"37.832757326","long":"127.50932764","items":[{"name":"태운상사","tel":"031-582-5243","addr":"경기도 가평군 가평읍 읍내리 611번지","category":"건축자재 - 페인트"}]},{"lat":"37.830731931","long":"127.5131077","items":[{"name":"페리카나양념통닭","tel":"031-582-5555","addr":"경기도 가평군 가평읍 읍내리 467-5","category":"일반휴게음식 - 일반한식"}]},{"lat":"37.848985856","long":"127.50868874","items":[{"name":"펜션레몬","tel":"031-581-8826","addr":"경기도 가평군 가평읍 읍내리 98-5","category":"숙박업 - 여관/기타숙박업"}]},{"lat":"37.829652828","long":"127.51055589","items":[{"name":"풍기인견","tel":"031-581-1186","addr":"경기도 가평군 가평읍 읍내리 495-32번지","category":"의류 - 정장"},{"name":"한성슈퍼","tel":"031-582-5175","addr":"경기도 가평군 가평읍 읍내리 495-32번지","category":"유통업 영리 - 슈퍼마켓"},{"name":"한성슈퍼","tel":"031-582-5175","addr":"경기도 가평군 가평읍 읍내리 495-32번지","category":"유통업 영리 - 슈퍼마켓"}]},{"lat":"37.831791909","long":"127.52002135","items":[{"name":"프라자/(주)한별글로벌 가평지점","tel":"031-582-7889","addr":"경기도 가평군 가평읍 읍내리 292-2번지","category":"숙박업 - 여관/기타숙박업"},{"name":"프라자여관","tel":"031-582-7889","addr":"경기도 가평군 가평읍 읍내리 292-2번지","category":"숙박업 - 여관/기타숙박업"}]},{"lat":"37.835761347","long":"127.50841668","items":[{"name":"프로미월드베스트카센타","tel":"031-582-5556","addr":"경기도 가평군 가평읍 읍내리 672-2","category":"자동차정비 유지 - 자동차정비"}]},{"lat":"37.828563696","long":"127.51448988","items":[{"name":"플로리안","tel":"031-582-5007","addr":"경기도 가평군 가평읍 읍내리 350-17번지 1층","category":"일반휴게음식 - 서양음식"}]},{"lat":"37.836706177","long":"127.5086844","items":[{"name":"하늘시스템","tel":"031-581-4004","addr":"경기도 가평군 가평읍 읍내리 743-2번지","category":"수리서비스 - 가정용품수리"}]},{"lat":"37.831926018","long":"127.50779983","items":[{"name":"하모니","tel":"031-1111-111","addr":"경기도 가평군 가평읍 읍내리 583-1번지","category":"일반휴게음식 - 일반한식"}]},{"lat":"37.826154849","long":"127.50690864","items":[{"name":"한까페","tel":"","addr":"경기도 가평군 가평읍 읍내리 579-15번지","category":"일반휴게음식-서양음식"}]},{"lat":"37.82915336","long":"127.51147253","items":[{"name":"한성건축","tel":"031-582-3503","addr":"경기도 가평군 가평읍 읍내리 489-18","category":"건축자재 - 인테리어전문"}]},{"lat":"37.827598689","long":"127.51472175","items":[{"name":"한솥도시락가평점","tel":"031-582-4884","addr":"경기도 가평군 가평읍 읍내리 475-11번지 1층","category":"일반휴게음식 - 일반한식"}]},{"lat":"37.835980177","long":"127.5099063","items":[{"name":"한일산업","tel":"031-582-3700","addr":"경기도 가평군 가평읍 읍내리 738-1번지","category":"주방용구 - 주방용구"}]},{"lat":"37.830230177","long":"127.51246814","items":[{"name":"해누리","tel":"031-581-8821","addr":"경기도 가평군 가평읍 읍내리 459-10번지","category":"일반휴게음식 - 일반한식"}]},{"lat":"37.831096423","long":"127.51215605","items":[{"name":"해물은홍가네요","tel":"031-581-1373","addr":"경기도 가평군 가평읍 읍내리 457-12번지","category":"일반휴게음식 - 일반한식"}]},{"lat":"37.829569003","long":"127.51119141","items":[{"name":"현대동물병원","tel":"031-582-2752","addr":"경기도 가평군 가평읍 읍내리 489-14번지","category":"기타의료기관 - 동물병원"}]},{"lat":"37.831734495","long":"127.51252393","items":[{"name":"형제자전거","tel":"031-582-3088","addr":"경기도 가평군 가평읍 읍내리 443-15","category":"레져용품 - 스포츠·레져용품"}]},{"lat":"37.826181599","long":"127.51532531","items":[{"name":"형제철물건재","tel":"031-582-7733","addr":"경기도 가평군 가평읍 읍내리 362-6번지","category":"기타 - 기계공구"},{"name":"형제철물건재","tel":"031-582-7733","addr":"경기도 가평군 가평읍 읍내리 362-6번지","category":"기타 - 기계공구"}]},{"lat":"37.83062534","long":"127.51483353","items":[{"name":"홍가냉면","tel":"02-581-9981","addr":"경기도 가평군 가평읍 읍내리 410-2번지","category":"일반휴게음식 - 일반한식"}]},{"lat":"37.836895611","long":"127.5086289","items":[{"name":"화객","tel":"031-582-8989","addr":"경기도 가평군 가평읍 읍내리 748-8번지","category":"일반휴게음식 - 일반한식"}]},{"lat":"37.831346772","long":"127.52085882","items":[{"name":"황태천국","tel":"031-582-1818","addr":"경기도 가평군 가평읍 읍내리 295-30번지","category":"일반휴게음식 - 일반한식"},{"name":"황태천국","tel":"031-582-1818","addr":"경기도 가평군 가평읍 읍내리 295-30번지","category":"일반휴게음식 - 일반한식"}]},{"lat":"37.844761443","long":"127.50846675","items":[{"name":"효인네가평잣농원","tel":"","addr":"경기도 가평군 가평읍 읍내리 162-1번지","category":"음료식품 - 농·축·수산품"}]},{"lat":"37.83170139","long":"127.5034364","items":[{"name":"효자원식품","tel":"031-581-4940","addr":"경기도 가평군 가평읍 읍내리 864","category":"음료식품 - 기타음료식품"}]},{"lat":"37.834345768","long":"127.5107698","items":[{"name":"희망의료기센타","tel":"031-581-9411","addr":"경기도 가평군 가평읍 읍내리 631번지","category":"보건위생 - 의료용품"}]}]