[{"lat":"37.133951036","long":"127.02267795","items":[{"name":"(주)라임시스/원격지","tel":"031-280-9088","addr":"경기도 화성시 정남면 덕절리 227","category":"기타 - 기타 전문점"}]},{"lat":"37.136309063","long":"127.03509221","items":[{"name":"24시클럽당구","tel":"031-374-0905","addr":"경기도 화성시 정남면 덕절리 495-4번지 보화빌딩 3층 1,2호","category":"레저업소 - 당 구 장"},{"name":"스타쭈꾸미","tel":"031-372-3522","addr":"경기도 화성시 정남면 덕절리 495-4번지 1층 일부호","category":"일반휴게음식 - 일반한식"},{"name":"이화수육개장 화성정남점","tel":"031-377-3522","addr":"경기도 화성시 정남면 덕절리 495-4번지","category":"일반휴게음식 - 일반한식"},{"name":"캘러웨이","tel":"031-376-8066","addr":"경기도 화성시 정남면 덕절리 495-4번지 4층 보화빌딩","category":"레져용품 - 스포츠·레져용품"}]},{"lat":"37.141139668","long":"127.03123374","items":[{"name":"EST (이에스티)","tel":"070-4076-5883","addr":"경기도 화성시 정남면 덕절리 465번지 B동","category":"전기제품 - 냉열기기"}]},{"lat":"37.133751635","long":"127.02875509","items":[{"name":"가족건강원","tel":"031-373-3858","addr":"경기도 화성시 정남면 덕절리 45","category":"건강식품 - 기타건강식품"},{"name":"선미용실","tel":"031-377-6116","addr":"경기도 화성시 정남면 덕절리 45번지","category":"보건위생 - 미용원"},{"name":"정우캐터링","tel":"031-378-5085","addr":"경기도 화성시 정남면 덕절리 45번지 306호","category":"일반휴게음식 - 위탁급식업"},{"name":"풍년","tel":"031-376-8868","addr":"경기도 화성시 정남면 덕절리 45번지","category":"일반휴게음식 - 중국식"}]},{"lat":"37.140582447","long":"127.02444672","items":[{"name":"강동특수가스","tel":"031-376-6144","addr":"경기도 화성시 정남면 덕절리 437-2번지","category":"연료판매점 - LPG 취급점"}]},{"lat":"37.134418207","long":"127.02967816","items":[{"name":"경기카센타","tel":"031-376-6698","addr":"경기도 화성시 정남면 덕절리 27-13","category":"자동차정비 유지 - 자동차부품"},{"name":"세븐","tel":"031-377-6969","addr":"경기도 화성시 정남면 덕절리 27-13번지 1층.2층","category":"레저업소 - 노 래 방"}]},{"lat":"37.136555245","long":"127.02158694","items":[{"name":"경기화환","tel":"031-372-3281","addr":"경기도 화성시 정남면 덕절리 315","category":"문화.취미 - 화원"}]},{"lat":"37.140555353","long":"127.02478436","items":[{"name":"경인상사","tel":"031-378-0887","addr":"경기도 화성시 정남면 덕절리 286-2번지","category":"건축자재 - 목재·석재·철물"}]},{"lat":"37.135642678","long":"127.03361761","items":[{"name":"고려베아링상사","tel":"031-373-7022","addr":"경기도 화성시 정남면 덕절리 6-10번지 상가제101","category":"건축자재 - 기타건축자재"},{"name":"세창세이프랜드","tel":"031-372-4361","addr":"경기도 화성시 정남면 덕절리 6-10번지 1층","category":"기타 - 기계공구"}]},{"lat":"37.134256472","long":"127.02758483","items":[{"name":"그린마트 세탁소","tel":"031-373-0226","addr":"경기도 화성시 정남면 덕절리 498 근형심포니상가 101","category":"수리서비스 - 세탁소"},{"name":"윤헤어","tel":"031-373-0997","addr":"경기도 화성시 정남면 덕절리 498번지 근형 상가 102호","category":"보건위생 - 미용원"}]},{"lat":"37.134391238","long":"127.02939679","items":[{"name":"그린산업","tel":"070-4606-2539","addr":"경기도 화성시 정남면 덕절리 27-11번지","category":"레져용품 - 골프용품 전문점"}]},{"lat":"37.133778469","long":"127.02964417","items":[{"name":"금강밴드","tel":"031-372-4091","addr":"경기도 화성시 정남면 덕절리 28-1번지","category":"기타 - 기계공구"}]},{"lat":"37.133589584","long":"127.02811355","items":[{"name":"길약국","tel":"031-372-4655","addr":"경기도 화성시 정남면 덕절리 47-4번지 1층","category":"약국 - 약국"},{"name":"백프로수제찐빵","tel":"031-373-3698","addr":"경기도 화성시 정남면 덕절리 47-4번지","category":"일반휴게음식 - 스넥"}]},{"lat":"37.134562331","long":"127.02986953","items":[{"name":"김치찌개 미화식당","tel":"031-375-0808","addr":"경기도 화성시 정남면 덕절리 27-1번지 1층","category":"일반휴게음식 - 일반한식"},{"name":"페리카나","tel":"031-373-2660","addr":"경기도 화성시 정남면 덕절리 27-1번지","category":"일반휴게음식 - 스넥"}]},{"lat":"37.134229179","long":"127.02881152","items":[{"name":"뉴포지션당구장","tel":"031-377-4939","addr":"경기도 화성시 정남면 덕절리 31-1번지 2층","category":"레저업소 - 당 구 장"},{"name":"보건약국","tel":"031-372-2768","addr":"경기도 화성시 정남면 덕절리 31-1번지","category":"약국 - 약국"}]},{"lat":"37.133059754","long":"127.01745587","items":[{"name":"다원푸드","tel":"031-376-3994","addr":"경기도 화성시 정남면 덕절리 380-33번지 다동 1층","category":"일반휴게음식 - 일반한식"}]},{"lat":"37.130284466","long":"127.01789423","items":[{"name":"대상천막기업","tel":"031-374-8531","addr":"경기도 화성시 정남면 덕절리 381-5","category":"직물 - 카페트,커튼,천막,지물"}]},{"lat":"37.140779143","long":"127.03167256","items":[{"name":"대화지게차산업","tel":"031-378-4995","addr":"경기도 화성시 정남면 덕절리 113-1번지","category":"자동차판매 - 기타운송"}]},{"lat":"37.134175054","long":"127.02909286","items":[{"name":"덕절노래연습장","tel":"031-372-5504","addr":"경기도 화성시 정남면 덕절리 29-1번지","category":"레저업소 - 노 래 방"},{"name":"장독대","tel":"031-372-2417","addr":"경기도 화성시 정남면 덕절리 29-1번지","category":"일반휴게음식 - 일반한식"}]},{"lat":"37.139862076","long":"127.0217003","items":[{"name":"동흥셀프식당","tel":"031-372-4007","addr":"경기도 화성시 정남면 덕절리 296-3번지 1층","category":"일반휴게음식 - 일반한식"}]},{"lat":"37.134562947","long":"127.02701097","items":[{"name":"두메산골","tel":"031-373-0907","addr":"경기도 화성시 정남면 덕절리 74-1번지 1층","category":"일반휴게음식 - 일반한식"}]},{"lat":"37.13386873","long":"127.02894645","items":[{"name":"럭키할인마트","tel":"031-373-4812","addr":"경기도 화성시 정남면 덕절리 29-7","category":"유통업 영리 - 슈퍼마켓"},{"name":"세븐일레븐화성정남로드점","tel":"","addr":"경기도 화성시 정남면 덕절리 29-7번지","category":"유통업 영리 - 편 의 점"}]},{"lat":"37.133670619","long":"127.02839493","items":[{"name":"미광(MK)조명","tel":"031-378-5623","addr":"경기도 화성시 정남면 덕절리 46-5번지 1층","category":"건축자재 - 조명기구"}]},{"lat":"37.13530964","long":"127.0322332","items":[{"name":"배터리할인점(에이스특수)","tel":"031-378-0940","addr":"경기도 화성시 정남면 덕절리 11-1번지","category":"전기제품 - 가전제품"}]},{"lat":"37.139283045","long":"127.03311261","items":[{"name":"북경반점","tel":"031-373-1057","addr":"경기도 화성시 정남면 덕절리 472-1번지","category":"일반휴게음식 - 중국식"}]},{"lat":"37.131446582","long":"127.01967255","items":[{"name":"블랙박스 네비게이션 바론","tel":"031-1544-5625","addr":"경기도 화성시 정남면 덕절리 231-25번지","category":"자동차정비 유지 - 자동차부품"},{"name":"스팀세차 바론","tel":"031-1544-5625","addr":"경기도 화성시 정남면 덕절리 231-25번지","category":"자동차정비 유지 - 세차장"}]},{"lat":"37.138616274","long":"127.03308984","items":[{"name":"산정한식뷔페","tel":"031-376-1156","addr":"경기도 화성시 정남면 덕절리 486-16번지","category":"일반휴게음식 - 일반한식"},{"name":"세븐일레븐화성덕절리점","tel":"031-1577-0711","addr":"경기도 화성시 정남면 덕절리 486-16번지 101호","category":"유통업 영리 - 편 의 점"},{"name":"에프앤에프","tel":"031-375-7721","addr":"경기도 화성시 정남면 덕절리 486-16번지 103호","category":"의류 - 정장"}]},{"lat":"37.138228818","long":"127.03311219","items":[{"name":"산해진미","tel":"031-377-2688","addr":"경기도 화성시 정남면 덕절리 488번지 1층","category":"일반휴게음식 - 일반한식"}]},{"lat":"37.135111526","long":"127.03176044","items":[{"name":"삼진기계","tel":"031-375-1438","addr":"경기도 화성시 정남면 덕절리 12-1번지","category":"기타 - 기계공구"},{"name":"오산시재활용센타","tel":"","addr":"경기도 화성시 정남면 덕절리 12-1번지","category":"전기제품 - 가전제품"}]},{"lat":"37.140420337","long":"127.02400773","items":[{"name":"성민ENG","tel":"031-664-1726","addr":"경기도 화성시 정남면 덕절리 435-3","category":"수리서비스 - 기타수리서비스"}]},{"lat":"37.135777459","long":"127.03503572","items":[{"name":"세이프존","tel":"031-375-2123","addr":"경기도 화성시 정남면 덕절리 2-4번지","category":"자동차정비 유지 - 자동차부품"},{"name":"씨유화성수연점","tel":"031-374-8085","addr":"경기도 화성시 정남면 덕절리 2-4번지","category":"유통업 영리 - 편 의 점"}]},{"lat":"37.133922965","long":"127.02814743","items":[{"name":"신가네왕족발","tel":"031-297-3401","addr":"경기도 화성시 정남면 덕절리 46-1번지","category":"일반휴게음식 - 일반한식"}]},{"lat":"37.130167351","long":"127.0177254","items":[{"name":"신도시슈퍼","tel":"031-373-8927","addr":"경기도 화성시 정남면 덕절리 381-1번지","category":"유통업 영리 - 슈퍼마켓"}]},{"lat":"37.135030513","long":"127.03142278","items":[{"name":"신진상사","tel":"031-374-0058","addr":"경기도 화성시 정남면 덕절리 12-5번지","category":"건축자재 - 페인트"},{"name":"커피하라","tel":"031-374-0808","addr":"경기도 화성시 정남면 덕절리 12-5번지 1층","category":"일반휴게음식 - 서양음식"},{"name":"피엔티","tel":"031-3782-7735","addr":"경기도 화성시 정남면 덕절리 12-5번지","category":"사무통신 - 기타 사무용품"}]},{"lat":"37.139861926","long":"127.02262321","items":[{"name":"씨유화성덕절리점","tel":"031-373-1620","addr":"경기도 화성시 정남면 덕절리 429번지","category":"유통업 영리 - 편 의 점"},{"name":"정가네한식부페","tel":"031-355-8284","addr":"경기도 화성시 정남면 덕절리 429번지","category":"일반휴게음식 - 일반한식"}]},{"lat":"37.134139169","long":"127.02837258","items":[{"name":"아보컴퍼니(A&BO company)","tel":"031-375-4113","addr":"경기도 화성시 정남면 덕절리 43-1번지","category":"신변잡화 - 기타잡화"}]},{"lat":"37.140112299","long":"127.03195368","items":[{"name":"아트센터 움(WOM)","tel":"031-375-0315","addr":"경기도 화성시 정남면 덕절리 104-2번지","category":"문화.취미 - 민예·공예품"}]},{"lat":"37.13991605","long":"127.02225181","items":[{"name":"애니카랜드정남점","tel":"031-376-0199","addr":"경기도 화성시 정남면 덕절리 295-7번지","category":"자동차정비 유지 - 자동차정비"}]},{"lat":"37.133085459","long":"127.02584009","items":[{"name":"에스피코리아 (SPKOREA)","tel":"031-377-6621","addr":"경기도 화성시 정남면 덕절리 55-1번지 103호","category":"건축자재 - 기타건축자재"},{"name":"제이디켐","tel":"031-376-9411","addr":"경기도 화성시 정남면 덕절리 55-1번지","category":"서적문구 - 과학기자재"},{"name":"해피홈(덕절점)","tel":"031-377-5877","addr":"경기도 화성시 정남면 덕절리 55-1번지","category":"일반휴게음식 - 서양음식"}]},{"lat":"37.135977381","long":"127.02803557","items":[{"name":"에이치엔에이치심리치료센터","tel":"070-8200-8477","addr":"경기도 화성시 정남면 덕절리 85번지","category":"보건위생 - 기타대인서비스"}]},{"lat":"37.134337243","long":"127.02909291","items":[{"name":"원조설악추어탕","tel":"031-378-7999","addr":"경기도 화성시 정남면 덕절리 30-1번지","category":"일반휴게음식 - 일반한식"}]},{"lat":"37.136083913","long":"127.0346757","items":[{"name":"월드카오일","tel":"031-372-7023","addr":"경기도 화성시 정남면 덕절리 1-1번지","category":"자동차정비 유지 - 윤활유 전문 판매"},{"name":"타이어월드 화성점","tel":"031-377-0882","addr":"경기도 화성시 정남면 덕절리 1-1번지","category":"자동차정비 유지 - 자동차시트·타이어"}]},{"lat":"37.137726117","long":"127.02447967","items":[{"name":"웰토르","tel":"031-376-1668","addr":"경기도 화성시 정남면 덕절리 260-3번지","category":"전기제품 - 기타전기제품"}]},{"lat":"37.141446131","long":"127.03078365","items":[{"name":"유림식당","tel":"031-663-0447","addr":"경기도 화성시 정남면 덕절리 114-6번지 1층","category":"일반휴게음식 - 일반한식"}]},{"lat":"37.131167315","long":"127.0192561","items":[{"name":"이마트24 화성정남점","tel":"","addr":"경기도 화성시 정남면 덕절리 231-9번지","category":"유통업 영리 - 편 의 점"},{"name":"정이가교동짬뽕","tel":"031-373-4187","addr":"경기도 화성시 정남면 덕절리 231-9번지","category":"일반휴게음식 - 중국식"},{"name":"큰집 부대찌개","tel":"031-376-6497","addr":"경기도 화성시 정남면 덕절리 231-9번지 1층","category":"일반휴게음식 - 일반한식"}]},{"lat":"37.139419482","long":"127.02758651","items":[{"name":"전원어린이집[아이행복]","tel":"031-377-5252","addr":"경기도 화성시 정남면 덕절리 132-1번지","category":"학원 - 유아원"}]},{"lat":"37.140445802","long":"127.03148109","items":[{"name":"주식회사 더마스내추럴","tel":"031-891-8209","addr":"경기도 화성시 정남면 덕절리 467-1번지","category":"보건위생 - 화장품"}]},{"lat":"37.139447201","long":"127.02402997","items":[{"name":"주식회사 파인셈","tel":"031-111-1111","addr":"경기도 화성시 정남면 덕절리 292-1번지","category":"보건위생 - 의료용품"}]},{"lat":"37.140221268","long":"127.02828458","items":[{"name":"케이에이앤(KAN, Korea Aqua Nax)","tel":"031-374-5624","addr":"경기도 화성시 정남면 덕절리 121-1번지","category":"신변잡화 - 기타잡화"}]},{"lat":"37.133031796","long":"127.02366805","items":[{"name":"코리아특장","tel":"031-378-7878","addr":"경기도 화성시 정남면 덕절리 213-1번지","category":"수리서비스 - 기타수리서비스"}]},{"lat":"37.138311457","long":"127.0262806","items":[{"name":"통통 어린이집[아이행복]","tel":"031-375-7141","addr":"경기도 화성시 정남면 덕절리 443번지","category":"학원 - 유아원"}]},{"lat":"37.136921837","long":"127.03486738","items":[{"name":"티지(TG)전기조명","tel":"031-372-4117","addr":"경기도 화성시 정남면 덕절리 103-23번지 101호","category":"전기제품 - 기타전기제품"},{"name":"황제짬뽕","tel":"031-374-0008","addr":"경기도 화성시 정남면 덕절리 103-23번지","category":"일반휴게음식 - 중국식"}]},{"lat":"37.134446622","long":"127.0226218","items":[{"name":"티텍(T-TECH)","tel":"031-374-0809","addr":"경기도 화성시 정남면 덕절리 226-4","category":"사무통신 - 기타 사무용품"}]},{"lat":"37.141392249","long":"127.03000702","items":[{"name":"한신에어텍","tel":"031-375-8479","addr":"경기도 화성시 정남면 덕절리 463-2번지 가동","category":"기타 - 기계공구"}]},{"lat":"37.139562523","long":"127.03250496","items":[{"name":"현대지게차토탈서비스","tel":"","addr":"경기도 화성시 정남면 덕절리 104-3번지","category":"기타 - 기계공구"}]},{"lat":"37.130807106","long":"127.01764675","items":[{"name":"화성위생산업","tel":"031-372-7475","addr":"경기도 화성시 정남면 덕절리 381-3번지","category":"유통업 영리 - 기타유통업"}]}]