[{"lat":"37.678800307","long":"126.88028437","items":[{"name":"(주)공신개발","tel":"031-969-0501","addr":"경기도 고양시 덕양구 신원동 298-31번지","category":"회원제형태 - 기타4"},{"name":"(주)공신개발","tel":"031-969-0501","addr":"경기도 고양시 덕양구 신원동 298-31번지","category":""}]},{"lat":"37.663801392","long":"126.8915633","items":[{"name":"(주)아이러브투어","tel":"02-734-5677","addr":"경기도 고양시 덕양구 신원동 629번지","category":"여행 - 관광여행"},{"name":"(주)아이러브투어","tel":"02-734-5677","addr":"경기도 고양시 덕양구 신원동 629번지","category":""},{"name":"S-CLASSY헤어","tel":"02-381-7775","addr":"경기도 고양시 덕양구 신원동 629번지","category":""},{"name":"V골프,오디션라이브카페","tel":"02-371-0759","addr":"경기도 고양시 덕양구 신원동 629번지","category":""},{"name":"V골프,오디션라이브카페","tel":"02-371-0759","addr":"경기도 고양시 덕양구 신원동 629번지","category":"레저업소 - 스크린골프"},{"name":"V골프. 오디션라이브카페","tel":"02-371-0759","addr":"경기도 고양시 덕양구 신원동 629번지","category":"일반휴게음식 - 주점"},{"name":"V골프. 오디션라이브카페","tel":"02-371-0759","addr":"경기도 고양시 덕양구 신원동 629번지","category":""},{"name":"V탁구장","tel":"02-381-0759","addr":"경기도 고양시 덕양구 신원동 629번지","category":""},{"name":"곰방와","tel":"070-8976-2425","addr":"경기도 고양시 덕양구 신원동 629번지","category":""},{"name":"냉삼집","tel":"02-381-8253","addr":"경기도 고양시 덕양구 신원동 629번지","category":"일반휴게음식 - 일반한식"},{"name":"도희네식당","tel":"","addr":"경기도 고양시 덕양구 신원동 629번지","category":""},{"name":"땡초꼬마김밥","tel":"02-381-2233","addr":"경기도 고양시 덕양구 신원동 629번지","category":""},{"name":"땡초꼬마김밥","tel":"02-381-2233","addr":"경기도 고양시 덕양구 신원동 629번지","category":"일반휴게음식 - 일반한식"},{"name":"삼송월드 24시 여탕매점 7층","tel":"","addr":"경기도 고양시 덕양구 신원동 629번지","category":""},{"name":"삼송월드미용실","tel":"","addr":"경기도 고양시 덕양구 신원동 629번지","category":"보건위생 - 미용원"},{"name":"삼송월드사우나","tel":"031-813-2038","addr":"경기도 고양시 덕양구 신원동 629번지","category":"음료식품 - 기타음료식품"},{"name":"삼송월드스낵","tel":"031-111-1111","addr":"경기도 고양시 덕양구 신원동 629번지","category":"음료식품 - 기타음료식품"},{"name":"삼송월드스넥","tel":"031-968-6664","addr":"경기도 고양시 덕양구 신원동 629번지","category":""},{"name":"삼송월드스넥","tel":"02-381-3222","addr":"경기도 고양시 덕양구 신원동 629번지","category":""},{"name":"삼송월드식당","tel":"","addr":"경기도 고양시 덕양구 신원동 629번지","category":"일반휴게음식 - 일반한식"},{"name":"삼송월드피부실","tel":"02-371-2313","addr":"경기도 고양시 덕양구 신원동 629번지","category":""},{"name":"스마트네트웍스","tel":"02-381-8010","addr":"경기도 고양시 덕양구 신원동 629번지","category":""},{"name":"스마트네트웍스","tel":"02-381-8010","addr":"경기도 고양시 덕양구 신원동 629번지","category":"사무통신 - 통신기기"},{"name":"스페셜헤어","tel":"02-381-7775","addr":"경기도 고양시 덕양구 신원동 629번지","category":""},{"name":"스페셜헤어","tel":"02-381-7775","addr":"경기도 고양시 덕양구 신원동 629번지","category":"보건위생 - 미용원"},{"name":"시연테라피","tel":"02-371-2534","addr":"경기도 고양시 덕양구 신원동 629번지","category":""},{"name":"신원통신","tel":"02-381-8010","addr":"경기도 고양시 덕양구 신원동 629번지","category":""},{"name":"신원통신","tel":"02-381-8010","addr":"경기도 고양시 덕양구 신원동 629번지","category":""},{"name":"안경창고 싸군","tel":"02-381-4002","addr":"경기도 고양시 덕양구 신원동 629번지","category":"보건위생 - 안경"},{"name":"안경창고싸군","tel":"02-381-4002","addr":"경기도 고양시 덕양구 신원동 629번지","category":""},{"name":"안경창고싸군","tel":"02-381-4002","addr":"경기도 고양시 덕양구 신원동 629번지","category":"보건위생 - 안경"},{"name":"원흥통신","tel":"031-965-8010","addr":"경기도 고양시 덕양구 신원동 629번지","category":""},{"name":"월드한식당","tel":"02-416-6426","addr":"경기도 고양시 덕양구 신원동 629번지","category":""},{"name":"이모네밥집","tel":"031-911-6247","addr":"경기도 고양시 덕양구 신원동 629번지","category":""},{"name":"장미의 꿈","tel":"02-371-1817","addr":"경기도 고양시 덕양구 신원동 629번지","category":""},{"name":"장미의 꿈","tel":"02-371-1817","addr":"경기도 고양시 덕양구 신원동 629번지","category":"보건위생 - 피부미용실"},{"name":"제주도야지 삼송점","tel":"02-381-0078","addr":"경기도 고양시 덕양구 신원동 629번지","category":""},{"name":"제주도야지 삼송점","tel":"02-381-0078","addr":"경기도 고양시 덕양구 신원동 629번지","category":"일반휴게음식 - 일반한식"},{"name":"채선당월남쌈&샤브샤브","tel":"02-371-3335","addr":"경기도 고양시 덕양구 신원동 629번지","category":"일반휴게음식 - 일반한식"},{"name":"채선당플러스 삼송점","tel":"02-371-3335","addr":"경기도 고양시 덕양구 신원동 629번지","category":""},{"name":"화통삼 삼송점","tel":"02-381-7008","addr":"경기도 고양시 덕양구 신원동 629번지","category":""},{"name":"화통삼 삼송점","tel":"02-381-7008","addr":"경기도 고양시 덕양구 신원동 629번지","category":""}]},{"lat":"37.661551554","long":"126.88494804","items":[{"name":"(주)우성아이앤디","tel":"02-381-6339","addr":"경기도 고양시 덕양구 신원동 658번지 신원마을호반베르디움9단지","category":"건축자재 - 인테리어전문"},{"name":"네네치킨","tel":"02-381-4490","addr":"경기도 고양시 덕양구 신원동 658번지 신원마을호반베르디움9단지","category":"일반휴게음식 - 스넥"},{"name":"네네치킨","tel":"02-381-4490","addr":"경기도 고양시 덕양구 신원동 658번지 신원마을호반베르디움9단지","category":""},{"name":"베라체어린이집[아이행복]","tel":"070-8737-5557","addr":"경기도 고양시 덕양구 신원동 658번지 신원마을호반베르디움9단지","category":"학원 - 유아원"},{"name":"이음공방","tel":"031-000-0000","addr":"경기도 고양시 덕양구 신원동 658번지 신원마을호반베르디움9단지","category":"문화.취미 - 문화취미기타"},{"name":"축구클럽","tel":"02-371-1101","addr":"경기도 고양시 덕양구 신원동 658번지 신원마을호반베르디움9단지","category":""},{"name":"허그","tel":"070-8672-1056","addr":"경기도 고양시 덕양구 신원동 658번지 신원마을호반베르디움9단지","category":""}]},{"lat":"37.662800396","long":"126.89059012","items":[{"name":"(주)제이원인터내셔널","tel":"02-6953-7179","addr":"경기도 고양시 덕양구 신원동 634-1번지","category":""},{"name":"(주)제이원인터내셔널","tel":"02-6953-7179","addr":"경기도 고양시 덕양구 신원동 634-1번지","category":"보건위생 - 화장품"},{"name":"시크릿쥬쥬 또봇 키즈카페 고양점","tel":"02-6953-9963","addr":"경기도 고양시 덕양구 신원동 634-1번지","category":""},{"name":"시크릿쥬쥬 또봇 키즈카페 고양점","tel":"02-6953-9963","addr":"경기도 고양시 덕양구 신원동 634-1번지","category":"일반휴게음식 - 서양음식"},{"name":"오당구장","tel":"","addr":"경기도 고양시 덕양구 신원동 634-1번지","category":"레저업소 - 당 구 장"}]},{"lat":"37.664602565","long":"126.89083675","items":[{"name":"(주)케이엔","tel":"02-6900-9202","addr":"경기도 고양시 덕양구 신원동 618-2번지","category":""},{"name":"(주)케이엔","tel":"02-6900-9202","addr":"경기도 고양시 덕양구 신원동 618-2번지","category":"자동차정비 유지 - 주차장"},{"name":"(주)케이엔 펫스팟 삼송지점","tel":"02-381-9640","addr":"경기도 고양시 덕양구 신원동 618-2번지","category":"문화.취미 - 애완동물"},{"name":"BBQ프리미엄카페고양삼송점","tel":"02-381-7070","addr":"경기도 고양시 덕양구 신원동 618-2번지","category":""},{"name":"삼송약국","tel":"02-381-2003","addr":"경기도 고양시 덕양구 신원동 618-2번지","category":"약국 - 약국"},{"name":"삼송약국","tel":"02-381-2003","addr":"경기도 고양시 덕양구 신원동 618-2번지","category":""},{"name":"애견신문사","tel":"02-1566-5663","addr":"경기도 고양시 덕양구 신원동 618-2번지","category":"서적문구 - 정기간행물"},{"name":"플로라플라워","tel":"02-353-7977","addr":"경기도 고양시 덕양구 신원동 618-2번지","category":"문화.취미 - 화원"},{"name":"플로라플라워","tel":"02-353-7977","addr":"경기도 고양시 덕양구 신원동 618-2번지","category":""}]},{"lat":"37.66288079","long":"126.88986466","items":[{"name":"(주)파마메디스","tel":"","addr":"경기도 고양시 덕양구 신원동 627번지","category":"약국 - 제약회사"},{"name":"33떡볶이신원점","tel":"02-381-9369","addr":"경기도 고양시 덕양구 신원동 627번지","category":"일반휴게음식 - 스넥"},{"name":"나오미왁싱","tel":"02-381-1505","addr":"경기도 고양시 덕양구 신원동 627번지","category":""},{"name":"나오미왁싱","tel":"02-381-1505","addr":"경기도 고양시 덕양구 신원동 627번지","category":"보건위생 - 피부미용실"},{"name":"나인","tel":"02-371-1080","addr":"경기도 고양시 덕양구 신원동 627번지","category":""},{"name":"나인노래연습장","tel":"02-371-1080","addr":"경기도 고양시 덕양구 신원동 627번지","category":"레저업소 - 노 래 방"},{"name":"나인노래연습장","tel":"02-371-1080","addr":"경기도 고양시 덕양구 신원동 627번지","category":""},{"name":"네일엘","tel":"02-371-1116","addr":"경기도 고양시 덕양구 신원동 627번지","category":"보건위생 - 피부미용실"},{"name":"네일엘","tel":"02-371-1116","addr":"경기도 고양시 덕양구 신원동 627번지","category":""},{"name":"농업회사법인 주식회사 우리터","tel":"031-966-9913","addr":"경기도 고양시 덕양구 신원동 627번지","category":"음료식품 - 농·축·수산품"},{"name":"대세국어학원","tel":"02-371-3351","addr":"경기도 고양시 덕양구 신원동 627번지","category":"학원 - 보습학원"},{"name":"롯데리아 삼송신원점","tel":"02-381-2355","addr":"경기도 고양시 덕양구 신원동 627번지","category":""},{"name":"롯데리아 삼송신원점","tel":"02-381-2355","addr":"경기도 고양시 덕양구 신원동 627번지","category":"일반휴게음식 - 서양음식"},{"name":"매직아이","tel":"02-381-1399","addr":"경기도 고양시 덕양구 신원동 627번지","category":"보건위생 - 화장품"},{"name":"매직아이","tel":"02-381-1399","addr":"경기도 고양시 덕양구 신원동 627번지","category":""},{"name":"메이킴어학원","tel":"031-383-0509","addr":"경기도 고양시 덕양구 신원동 627번지","category":""},{"name":"메이킴어학원","tel":"02-383-0509","addr":"경기도 고양시 덕양구 신원동 627번지","category":"회원제형태 - 학원"},{"name":"보그헤어","tel":"02-381-3019","addr":"경기도 고양시 덕양구 신원동 627번지","category":"보건위생 - 미용원"},{"name":"보그헤어","tel":"02-381-3019","addr":"경기도 고양시 덕양구 신원동 627번지","category":""},{"name":"브라운 치킨","tel":"02-381-6669","addr":"경기도 고양시 덕양구 신원동 627번지","category":""},{"name":"신원떡집","tel":"02-371-3331","addr":"경기도 고양시 덕양구 신원동 627번지","category":""},{"name":"신원떡집","tel":"02-371-3331","addr":"경기도 고양시 덕양구 신원동 627번지","category":"음료식품 - 제과점"},{"name":"씨오터스낵","tel":"02-2135-7537","addr":"경기도 고양시 덕양구 신원동 627번지","category":"음료식품 - 제과점"},{"name":"엔케이상위권수학","tel":"02-371-2005","addr":"경기도 고양시 덕양구 신원동 627번지","category":""},{"name":"엔케이상위권수학학원","tel":"02-371-2005","addr":"경기도 고양시 덕양구 신원동 627번지","category":""},{"name":"정민","tel":"070-7012-4552","addr":"경기도 고양시 덕양구 신원동 627번지","category":""},{"name":"조우","tel":"02-381-6660","addr":"경기도 고양시 덕양구 신원동 627번지","category":""},{"name":"초마맨1981","tel":"","addr":"경기도 고양시 덕양구 신원동 627번지","category":""},{"name":"초마맨1981","tel":"","addr":"경기도 고양시 덕양구 신원동 627번지","category":"일반휴게음식 - 중국식"},{"name":"테라필라테스","tel":"02-381-7678","addr":"경기도 고양시 덕양구 신원동 627번지","category":""},{"name":"테라필라테스","tel":"02-381-7678","addr":"경기도 고양시 덕양구 신원동 627번지","category":""},{"name":"테라필라테스","tel":"02-381-7678","addr":"경기도 고양시 덕양구 신원동 627번지","category":"레저업소 - 헬스클럽"},{"name":"파란영어학원","tel":"02-381-0582","addr":"경기도 고양시 덕양구 신원동 627번지","category":""},{"name":"파란영어학원","tel":"02-381-0582","addr":"경기도 고양시 덕양구 신원동 627번지","category":"학원 - 보습학원"},{"name":"현진디엠디(DMD)","tel":"02-1670-7688","addr":"경기도 고양시 덕양구 신원동 627번지","category":"직물 - 카페트,커튼,천막,지물"},{"name":"현진디엠디(DMD)","tel":"02-1670-7688","addr":"경기도 고양시 덕양구 신원동 627번지","category":""}]},{"lat":"37.664084228","long":"126.88590739","items":[{"name":"100세시대좋은가족경영연구소","tel":"","addr":"경기도 고양시 덕양구 신원동 654번지 신원마을5단지우림필유아파트","category":"보건위생 - 기타대인서비스"}]},{"lat":"37.66238515","long":"126.88975208","items":[{"name":"24시전주명가콩나물국밥","tel":"070-7012-8677","addr":"경기도 고양시 덕양구 신원동 626-1번지","category":""},{"name":"고기대장","tel":"02-371-3257","addr":"경기도 고양시 덕양구 신원동 626-1번지","category":""},{"name":"고기대장","tel":"02-371-3257","addr":"경기도 고양시 덕양구 신원동 626-1번지","category":"일반휴게음식 - 일반한식"},{"name":"교촌치킨 삼송점","tel":"02-381-1991","addr":"경기도 고양시 덕양구 신원동 626-1번지","category":"일반휴게음식 - 스넥"},{"name":"교촌치킨 삼송점","tel":"02-381-1991","addr":"경기도 고양시 덕양구 신원동 626-1번지","category":""},{"name":"바로바로전","tel":"","addr":"경기도 고양시 덕양구 신원동 626-1번지","category":"일반휴게음식 - 일반한식"},{"name":"홍익궁중전통육개장 일산신원점","tel":"02-371-1688","addr":"경기도 고양시 덕양구 신원동 626-1번지","category":""},{"name":"홍익궁중전통육개장 일산신원점","tel":"02-371-1688","addr":"경기도 고양시 덕양구 신원동 626-1번지","category":"일반휴게음식 - 일반한식"}]},{"lat":"37.662438521","long":"126.88903799","items":[{"name":"59쌀피자","tel":"02-381-5995","addr":"경기도 고양시 덕양구 신원동 639-4번지","category":""},{"name":"59쌀피자","tel":"02-381-5995","addr":"경기도 고양시 덕양구 신원동 639-4번지","category":"일반휴게음식 - 서양음식"},{"name":"본죽(삼송지구)","tel":"02-381-6288","addr":"경기도 고양시 덕양구 신원동 639-4번지","category":"일반휴게음식 - 일반한식"},{"name":"본죽(삼송지구)","tel":"02-381-6288","addr":"경기도 고양시 덕양구 신원동 639-4번지","category":""},{"name":"오마이컷","tel":"070-4036-6348","addr":"경기도 고양시 덕양구 신원동 639-4번지","category":""},{"name":"헤어살롱디오","tel":"","addr":"경기도 고양시 덕양구 신원동 639-4번지","category":"보건위생 - 미용원"}]},{"lat":"37.662240494","long":"126.88923096","items":[{"name":"640번지 사진관","tel":"070-8800-6400","addr":"경기도 고양시 덕양구 신원동 640번지","category":""},{"name":"640번지 사진관","tel":"070-8800-6400","addr":"경기도 고양시 덕양구 신원동 640번지","category":"광학제품 - 사진관"},{"name":"레인헤어","tel":"","addr":"경기도 고양시 덕양구 신원동 640번지","category":"보건위생 - 미용원"},{"name":"야과시장","tel":"02-381-9397","addr":"경기도 고양시 덕양구 신원동 640번지","category":""}]},{"lat":"37.663879474","long":"126.88842378","items":[{"name":"AJ에스테틱","tel":"02-357-1227","addr":"경기도 고양시 덕양구 신원동 621번지","category":""},{"name":"AJ에스테틱","tel":"02-357-1227","addr":"경기도 고양시 덕양구 신원동 621번지","category":"보건위생 - 화장품"},{"name":"GS25북삼송점","tel":"02-2006-2485","addr":"경기도 고양시 덕양구 신원동 621번지","category":""},{"name":"GS25북삼송점","tel":"02-2006-2485","addr":"경기도 고양시 덕양구 신원동","category":"유통업 영리 - 편 의 점"},{"name":"GS25북삼송점","tel":"02-2006-2485","addr":"경기도 고양시 덕양구 신원동 621번지","category":""},{"name":"강아주니어 신원동 러닝센터학원","tel":"02-381-4655","addr":"경기도 고양시 덕양구 신원동 621번지","category":""},{"name":"강의하는아이들삼송학원","tel":"02-381-4655","addr":"경기도 고양시 덕양구 신원동 621번지","category":"회원제형태 - 학원"},{"name":"나무치과","tel":"02-371-2080","addr":"경기도 고양시 덕양구 신원동 621번지","category":""},{"name":"단비한의원","tel":"02-371-1075","addr":"경기도 고양시 덕양구 신원동 621번지","category":"의원 - 한의원"},{"name":"단비한의원","tel":"02-371-1075","addr":"경기도 고양시 덕양구 신원동 621번지","category":""},{"name":"달콤한상상헤어","tel":"02-371-3382","addr":"경기도 고양시 덕양구 신원동 621번지","category":""},{"name":"달콤한상상헤어","tel":"02-371-3382","addr":"경기도 고양시 덕양구 신원동 621번지","category":"보건위생 - 미용원"},{"name":"도매폰마트(호두텔레콤)","tel":"031-0-0000","addr":"경기도 고양시 덕양구 신원동 621번지","category":""},{"name":"도매폰마트(호두텔레콤)","tel":"031-000-0000","addr":"경기도 고양시 덕양구 신원동 621번지","category":"사무통신 - 통신기기"},{"name":"드림디포 고양신원점","tel":"02-371-3373","addr":"경기도 고양시 덕양구 신원동 621번지","category":"서적문구 - 문구용품"},{"name":"드림디포 고양신원점","tel":"02-371-3373","addr":"경기도 고양시 덕양구 신원동 621번지","category":""},{"name":"뮤엠영어어학원","tel":"02-371-0579","addr":"경기도 고양시 덕양구 신원동 621번지","category":""},{"name":"블랙타이거짐","tel":"02-381-7789","addr":"경기도 고양시 덕양구 신원동 621번지","category":"레저업소 - 헬스클럽"},{"name":"블랙타이거짐","tel":"02-381-7789","addr":"경기도 고양시 덕양구 신원동 621번지","category":""},{"name":"삼성키즈아이소아청소년과의원","tel":"02-371-1275","addr":"경기도 고양시 덕양구 신원동 621번지","category":""},{"name":"삼송연세보습학원","tel":"070-5031-0327","addr":"경기도 고양시 덕양구 신원동 621번지","category":""},{"name":"삼송예일음악학원","tel":"031-411-1803","addr":"경기도 고양시 덕양구 신원동 621번지","category":""},{"name":"삼송프라자약국","tel":"02-381-8896","addr":"경기도 고양시 덕양구 신원동 621번지","category":""},{"name":"삼송프라자약국","tel":"02-381-8896","addr":"경기도 고양시 덕양구 신원동 621번지","category":"약국 - 약국"},{"name":"삼송프라자약국","tel":"02-381-8896","addr":"경기도 고양시 덕양구 신원동 621번지","category":""},{"name":"상송예일음악학원","tel":"02-371-0456","addr":"경기도 고양시 덕양구 신원동 621번지","category":""},{"name":"상송예일음악학원","tel":"02-371-0456","addr":"경기도 고양시 덕양구 신원동 621번지","category":"학원 - 예·체능계학원"},{"name":"신원동 낙원떡집","tel":"02-381-7411","addr":"경기도 고양시 덕양구 신원동 621번지","category":"음료식품 - 제과점"},{"name":"신원동 낙원떡집","tel":"02-381-7411","addr":"경기도 고양시 덕양구 신원동 621번지","category":""},{"name":"아트플러스미술학원","tel":"02-381-3802","addr":"경기도 고양시 덕양구 신원동 621번지","category":"학원 - 예·체능계학원"},{"name":"아트플러스미술학원","tel":"02-381-3802","addr":"경기도 고양시 덕양구 신원동 621번지","category":""},{"name":"아하영어학원","tel":"02-381-5535","addr":"경기도 고양시 덕양구 신원동 621번지","category":"학원 - 외국어학원"},{"name":"아하영어학원","tel":"02-381-5535","addr":"경기도 고양시 덕양구 신원동 621번지","category":""},{"name":"용인대백호아이튠태권스쿨","tel":"02-381-7007","addr":"경기도 고양시 덕양구 신원동 621번지","category":"학원 - 예·체능계학원"},{"name":"용인대백호아이튠태권스쿨","tel":"02-381-7007","addr":"경기도 고양시 덕양구 신원동 621번지","category":""},{"name":"용인대백호아이튠태권스쿨","tel":"02-381-7007","addr":"경기도 고양시 덕양구 신원동 621번지","category":""},{"name":"윤선생동산우리집앞영어교실영어교습소","tel":"02-371-0502","addr":"경기도 고양시 덕양구 신원동 621번지","category":""},{"name":"임가떡방","tel":"02-381-7411","addr":"경기도 고양시 덕양구 신원동 621번지","category":""},{"name":"필즈보습학원","tel":"02-371-0503","addr":"경기도 고양시 덕양구 신원동 621번지","category":""},{"name":"필즈학원","tel":"041-554-5445","addr":"경기도 고양시 덕양구 신원동 621번지","category":"학원 - 보습학원"}]},{"lat":"37.663881263","long":"126.89028248","items":[{"name":"BYC신원점","tel":"031-969-6870","addr":"경기도 고양시 덕양구 신원동 619번지","category":"의류 - 내의판매"},{"name":"BYC신원점","tel":"031-969-6870","addr":"경기도 고양시 덕양구 신원동 619번지","category":""},{"name":"가쯔레쯔","tel":"02-381-4772","addr":"경기도 고양시 덕양구 신원동 619번지","category":""},{"name":"고여사 보쌈냉면","tel":"031-371-1771","addr":"경기도 고양시 덕양구 신원동 619번지","category":"일반휴게음식 - 일반한식"},{"name":"뉴욕핫도그 앤 커피","tel":"02-381-5082","addr":"경기도 고양시 덕양구 신원동 619번지","category":""},{"name":"담아담아 아이스크림 할인점","tel":"02-353-0143","addr":"경기도 고양시 덕양구 신원동 619번지","category":""},{"name":"더빵긋","tel":"031-0000-0000","addr":"경기도 고양시 덕양구 신원동 619번지","category":"음료식품 - 제과점"},{"name":"락","tel":"02-385-3831","addr":"경기도 고양시 덕양구 신원동 619번지","category":""},{"name":"몸예뻐짐","tel":"02-381-9679","addr":"경기도 고양시 덕양구 신원동 619번지","category":""},{"name":"몸예뻐짐","tel":"02-381-9679","addr":"경기도 고양시 덕양구 신원동 619번지","category":"레저업소 - 헬스클럽"},{"name":"세븐당구장","tel":"02-381-4088","addr":"경기도 고양시 덕양구 신원동 619번지","category":"레저업소 - 당 구 장"},{"name":"세븐당구장","tel":"02-381-4088","addr":"경기도 고양시 덕양구 신원동 619번지","category":""},{"name":"소윤이네 손만두&김밥","tel":"02-371-2119","addr":"경기도 고양시 덕양구 신원동 619번지","category":"일반휴게음식 - 일반한식"},{"name":"소윤이네 손만두&김밥","tel":"02-371-2119","addr":"경기도 고양시 덕양구 신원동 619번지","category":""},{"name":"쉐프의 부대찌개 삼송점","tel":"02-388-9878","addr":"경기도 고양시 덕양구 신원동 619번지","category":""},{"name":"쉐프의부대찌개삼송점","tel":"02-388-9878","addr":"경기도 고양시 덕양구 신원동 619번지","category":""},{"name":"쉐프의부대찌개삼송점","tel":"02-388-9878","addr":"경기도 고양시 덕양구 신원동 619번지","category":""},{"name":"쉐프의부대찌개삼송점","tel":"02-388-9878","addr":"경기도 고양시 덕양구 신원동 619번지","category":"일반휴게음식 - 일반한식"},{"name":"스카이","tel":"02-381-8825","addr":"경기도 고양시 덕양구 신원동 619번지","category":""},{"name":"양평해장국 김치찌개","tel":"02-381-8550","addr":"경기도 고양시 덕양구 신원동 619번지","category":""},{"name":"양평해장국김치찌개","tel":"","addr":"경기도 고양시 덕양구 신원동 619번지","category":""},{"name":"양평해장국김치찌개","tel":"","addr":"경기도 고양시 덕양구 신원동 619번지","category":"일반휴게음식 - 일반한식"},{"name":"연세아이웃음꽃치과","tel":"02-6338-2828","addr":"경기도 고양시 덕양구 신원동 619번지","category":""},{"name":"연세아이웃음꽃치과","tel":"02-6338-2828","addr":"경기도 고양시 덕양구 신원동 619번지","category":"의원 - 치과의원"},{"name":"예쁜여우","tel":"02-381-8825","addr":"경기도 고양시 덕양구 신원동 619번지","category":""},{"name":"자매양꼬치","tel":"02-381-5188","addr":"경기도 고양시 덕양구 신원동 619번지","category":""},{"name":"자매양꼬치","tel":"02-381-5188","addr":"경기도 고양시 덕양구 신원동 619번지","category":""},{"name":"주식회사 제이앤에스솔루션","tel":"02-1877-5037","addr":"경기도 고양시 덕양구 신원동 619번지","category":""},{"name":"카페앤허브","tel":"02-1877-5097","addr":"경기도 고양시 덕양구 신원동 619번지","category":""},{"name":"카페앤허브/주식회사제이앤에스솔루션","tel":"02-1877-5097","addr":"경기도 고양시 덕양구 신원동 619번지","category":""},{"name":"크레프트 한스","tel":"031-0-0000","addr":"경기도 고양시 덕양구 신원동 619번지","category":""},{"name":"크레프트 한스","tel":"031-000-0000","addr":"경기도 고양시 덕양구 신원동 619번지","category":"일반휴게음식 - 주점"},{"name":"포스","tel":"070-7782-7737","addr":"경기도 고양시 덕양구 신원동 619번지","category":"보건위생 - 안경"},{"name":"포스","tel":"070-7782-7737","addr":"경기도 고양시 덕양구 신원동 619번지","category":""},{"name":"허브","tel":"02-381-8825","addr":"경기도 고양시 덕양구 신원동 619번지","category":"보건위생 - 미용재료"},{"name":"헤어디자인상상&네일","tel":"02-381-0311","addr":"경기도 고양시 덕양구 신원동 619번지","category":"보건위생 - 미용원"},{"name":"헤어디자인상상&네일","tel":"02-381-0311","addr":"경기도 고양시 덕양구 신원동 619번지","category":""},{"name":"형제양꼬치","tel":"02-381-5188","addr":"경기도 고양시 덕양구 신원동 619번지","category":""},{"name":"형제양꼬치","tel":"02-381-5188","addr":"경기도 고양시 덕양구 신원동 619번지","category":"일반휴게음식 - 중국식"},{"name":"홍보석","tel":"02-381-5477","addr":"경기도 고양시 덕양구 신원동 619번지","category":""},{"name":"홍보석","tel":"02-381-5477","addr":"경기도 고양시 덕양구 신원동 619번지","category":"신변잡화 - 귀금속"},{"name":"홍짜장","tel":"02-381-8959","addr":"경기도 고양시 덕양구 신원동 619번지","category":""}]},{"lat":"37.664467","long":"126.89039494","items":[{"name":"COUGAR ZONE PC","tel":"070-5105-3432","addr":"경기도 고양시 덕양구 신원동 624-2번지","category":"레저업소 - 기타레져업소"},{"name":"COUGAR ZONE PC","tel":"070-5105-3432","addr":"경기도 고양시 덕양구 신원동 624-2번지","category":""},{"name":"맘스케익(청주오믈렛)고양삼송점","tel":"02-381-8828","addr":"경기도 고양시 덕양구 신원동 624-2번지","category":""},{"name":"비엔나커피하우스고양삼송신원점","tel":"02-0000-0000","addr":"경기도 고양시 덕양구 신원동 624-2번지","category":"일반휴게음식 - 서양음식"},{"name":"비엔나커피하우스고양삼송신원점","tel":"","addr":"경기도 고양시 덕양구 신원동 624-2번지","category":""},{"name":"신원골숯불갈비","tel":"02-371-0989","addr":"경기도 고양시 덕양구 신원동 624-2번지","category":""},{"name":"신원골숯불갈비","tel":"02-371-0989","addr":"경기도 고양시 덕양구 신원동 624-2번지","category":"일반휴게음식 - 일반한식"},{"name":"청년다방 삼송지구점","tel":"02-371-1120","addr":"경기도 고양시 덕양구 신원동 624-2번지","category":""},{"name":"청년다방 삼송지구점","tel":"02-371-1120","addr":"경기도 고양시 덕양구 신원동 624-2번지","category":"일반휴게음식 - 스넥"},{"name":"할매순대국앤양선지해장국","tel":"070-4223-1900","addr":"경기도 고양시 덕양구 신원동 624-2번지","category":""},{"name":"할매순대국앤양선지해장국","tel":"070-4223-9593","addr":"경기도 고양시 덕양구 신원동 624-2번지","category":"일반휴게음식 - 일반한식"},{"name":"할매순대국앤양선지해장국","tel":"070-4223-9593","addr":"경기도 고양시 덕양구 신원동 624-2번지","category":""}]},{"lat":"37.660518892","long":"126.8884516","items":[{"name":"DAINmotors(신원점)","tel":"02-381-5109","addr":"경기도 고양시 덕양구 신원동 644-2번지","category":"자동차정비 유지 - 자동차정비"},{"name":"DAINmotors(신원점)","tel":"02-381-5109","addr":"경기도 고양시 덕양구 신원동 644-2번지","category":""},{"name":"다인모터스","tel":"02-381-5109","addr":"경기도 고양시 덕양구 신원동 644-2번지","category":""}]},{"lat":"37.663520269","long":"126.88964835","items":[{"name":"EOS당구클럽","tel":"02-381-3214","addr":"경기도 고양시 덕양구 신원동 620-1번지","category":""},{"name":"ON세계맥주","tel":"","addr":"경기도 고양시 덕양구 신원동 620-1번지","category":"일반휴게음식 - 주점"},{"name":"ON세계맥주","tel":"","addr":"경기도 고양시 덕양구 신원동 620-1번지","category":""},{"name":"고기야","tel":"02-381-0264","addr":"경기도 고양시 덕양구 신원동 620-1번지","category":""},{"name":"김가네고양신원점","tel":"02-381-9382","addr":"경기도 고양시 덕양구 신원동 620-1번지","category":""},{"name":"김가네고양신원점","tel":"02-381-9382","addr":"경기도 고양시 덕양구 신원동 620-1번지","category":"일반휴게음식 - 스넥"},{"name":"노메 삼송점","tel":"02-381-3632","addr":"경기도 고양시 덕양구 신원동 620-1번지","category":""},{"name":"뉴젠어학원","tel":"031-371-0588","addr":"경기도 고양시 덕양구 신원동 620-1번지","category":"학원 - 외국어학원"},{"name":"뉴젠어학원","tel":"031-371-0588","addr":"경기도 고양시 덕양구 신원동 620-1번지","category":""},{"name":"드림모바일","tel":"070-4222-4011","addr":"경기도 고양시 덕양구 신원동 620-1번지","category":""},{"name":"라본느베이커리 삼송점","tel":"070-8844-7223","addr":"경기도 고양시 덕양구 신원동 620-1번지","category":""},{"name":"라본느베이커리 삼송점","tel":"070-8844-7223","addr":"경기도 고양시 덕양구 신원동 620-1번지","category":"음료식품 - 제과점"},{"name":"릴리펏 삼송점","tel":"02-381-6560","addr":"경기도 고양시 덕양구 신원동 620-1번지","category":""},{"name":"릴리펏 삼송점","tel":"02-381-6560","addr":"경기도 고양시 덕양구 신원동 620-1번지","category":""},{"name":"마마몽떼 삼송원흥지점","tel":"031-901-4877","addr":"경기도 고양시 덕양구 신원동 620-1번지","category":"학원 - 기타 교육기관"},{"name":"마마몽떼 삼송원흥지점","tel":"031-901-4877","addr":"경기도 고양시 덕양구 신원동 620-1번지","category":""},{"name":"비엔이(BNE) 어학원","tel":"02-381-3350","addr":"경기도 고양시 덕양구 신원동 620-1번지","category":"학원 - 외국어학원"},{"name":"비엔이(BNE) 어학원","tel":"02-381-3350","addr":"경기도 고양시 덕양구 신원동 620-1번지","category":""},{"name":"세솔메디컬의원","tel":"02-6964-7582","addr":"경기도 고양시 덕양구 신원동 620-1번지","category":"의원 - 의원"},{"name":"세솔메디컬의원","tel":"02-6964-7582","addr":"경기도 고양시 덕양구 신원동 620-1번지","category":""},{"name":"세솔약국","tel":"02-371-2408","addr":"경기도 고양시 덕양구 신원동 620-1번지","category":"약국 - 약국"},{"name":"세솔약국","tel":"02-371-2408","addr":"경기도 고양시 덕양구 신원동 620-1번지","category":""},{"name":"스카이락볼링장","tel":"02-381-6607","addr":"경기도 고양시 덕양구 신원동 620-1번지","category":"레저업소 - 볼 링 장"},{"name":"스카이락볼링장","tel":"02-381-6607","addr":"경기도 고양시 덕양구 신원동 620-1번지","category":""},{"name":"스카이매점","tel":"02-381-6607","addr":"경기도 고양시 덕양구 신원동 620-1번지","category":"음료식품 - 기타음료식품"},{"name":"스카이매점","tel":"02-381-6607","addr":"경기도 고양시 덕양구 신원동 620-1번지","category":""},{"name":"아리따움 삼송점","tel":"02-371-2286","addr":"경기도 고양시 덕양구 신원동 620-1번지","category":""},{"name":"알마니","tel":"02-381-7075","addr":"경기도 고양시 덕양구 신원동 620-1번지","category":""},{"name":"알파문구","tel":"02-381-7006","addr":"경기도 고양시 덕양구 신원동 620-1번지","category":"서적문구 - 문구용품"},{"name":"알파문구","tel":"02-381-7006","addr":"경기도 고양시 덕양구 신원동 620-1번지","category":""},{"name":"어울놀이 키즈카페","tel":"02-381-6560","addr":"경기도 고양시 덕양구 신원동 620-1번지","category":"일반휴게음식 - 서양음식"},{"name":"에이임헤어","tel":"02-371-0609","addr":"경기도 고양시 덕양구 신원동 620-1번지","category":"보건위생 - 미용원"},{"name":"엔스타네일","tel":"02-381-3080","addr":"경기도 고양시 덕양구 신원동 620-1번지","category":"보건위생 - 피부미용실"},{"name":"엔스타네일","tel":"02-381-3080","addr":"경기도 고양시 덕양구 신원동 620-1번지","category":""},{"name":"영헤어","tel":"02-381-1993","addr":"경기도 고양시 덕양구 신원동 620-1번지","category":""},{"name":"위드미삼송파스텔시티점","tel":"02-6916-1500","addr":"경기도 고양시 덕양구 신원동 620-1번지","category":""},{"name":"이마트24 삼송파스텔시티점","tel":"","addr":"경기도 고양시 덕양구 신원동 620-1번지","category":""},{"name":"이마트24 삼송파스텔시티점","tel":"","addr":"경기도 고양시 덕양구 신원동 620-1번지","category":"유통업 영리 - 편 의 점"},{"name":"이엠멘토학원","tel":"02-305-2340","addr":"경기도 고양시 덕양구 신원동 620-1번지","category":""},{"name":"이오에스(EOS)당구클럽","tel":"02-381-3214","addr":"경기도 고양시 덕양구 신원동 620-1번지","category":"레저업소 - 당 구 장"},{"name":"이오에스(EOS)당구클럽","tel":"02-381-3214","addr":"경기도 고양시 덕양구 신원동 620-1번지","category":""},{"name":"재능스스로러닝센터 고양신원학원","tel":"02-371-0801","addr":"경기도 고양시 덕양구 신원동 620-1번지","category":""},{"name":"재능스스로러닝센터 고양신원학원","tel":"02-371-0801","addr":"경기도 고양시 덕양구 신원동 620-1번지","category":"학원 - 보습학원"},{"name":"조마루감자탕","tel":"02-371-2800","addr":"경기도 고양시 덕양구 신원동 620-1번지","category":"일반휴게음식 - 일반한식"},{"name":"조마루감자탕","tel":"02-371-2800","addr":"경기도 고양시 덕양구 신원동 620-1번지","category":""},{"name":"커피에반하다","tel":"02-2088-2668","addr":"경기도 고양시 덕양구 신원동 620-1번지","category":""},{"name":"커피에반하다","tel":"02-2088-2668","addr":"경기도 고양시 덕양구 신원동 620-1번지","category":"일반휴게음식 - 서양음식"},{"name":"하디아동발달센터 삼송2호점","tel":"02-381-9915","addr":"경기도 고양시 덕양구 신원동 620-1번지","category":""},{"name":"하디아동발달센터 삼송2호점","tel":"02-381-9915","addr":"경기도 고양시 덕양구 신원동 620-1번지","category":"보건위생 - 기타대인서비스"},{"name":"휴 아로마","tel":"02-381-7786","addr":"경기도 고양시 덕양구 신원동 620-1번지","category":"보건위생 - 화장품"},{"name":"휴 아로마","tel":"02-381-7786","addr":"경기도 고양시 덕양구 신원동 620-1번지","category":""},{"name":"휴아로마","tel":"02-381-7786","addr":"경기도 고양시 덕양구 신원동 620-1번지","category":""}]},{"lat":"37.66546523","long":"126.88847801","items":[{"name":"GS25삼송사랑점","tel":"","addr":"경기도 고양시 덕양구 신원동 616번지 신원마을4단지","category":"유통업 영리 - 편 의 점"},{"name":"GS25삼송사랑점","tel":"","addr":"경기도 고양시 덕양구 신원동 616번지 신원마을4단지","category":""},{"name":"Y에어컨","tel":"","addr":"경기도 고양시 덕양구 신원동 616번지 신원마을4단지","category":"용역 서비스 - 기타용역서비스"},{"name":"고양시립 무궁화어린이집[아이행복]","tel":"02-381-6651","addr":"경기도 고양시 덕양구 신원동 616번지 신원마을4단지","category":"학원 - 유아원"},{"name":"삼성서비스에어컨","tel":"","addr":"경기도 고양시 덕양구 신원동 616번지 신원마을4단지","category":"용역 서비스 - 기타용역서비스"},{"name":"에코끼리","tel":"","addr":"경기도 고양시 덕양구 신원동 616번지 신원마을4단지","category":"신변잡화 - 기타잡화"},{"name":"자동차배터리","tel":"","addr":"경기도 고양시 덕양구 신원동 616번지 신원마을4단지","category":"자동차정비 유지 - 자동차부품"},{"name":"정원방수페인트","tel":"031-942-0302","addr":"경기도 고양시 덕양구 신원동 616번지 신원마을4단지","category":"건축자재 - 인테리어전문"},{"name":"주공마트","tel":"02-381-4031","addr":"경기도 고양시 덕양구 신원동 616번지 신원마을4단지","category":""},{"name":"진로할인마트","tel":"02-381-1148","addr":"경기도 고양시 덕양구 신원동 616번지 신원마을4단지","category":""},{"name":"친환경에코","tel":"","addr":"경기도 고양시 덕양구 신원동 616번지 신원마을4단지","category":"신변잡화 - 기타잡화"},{"name":"커머스(COMERS)","tel":"0506-384-0106","addr":"경기도 고양시 덕양구 신원동 616번지 신원마을4단지","category":"회원제형태 - 기타3"}]},{"lat":"37.65965866","long":"126.88408973","items":[{"name":"GS25삼송스위트점","tel":"","addr":"경기도 고양시 덕양구 신원동 667번지","category":"유통업 영리 - 편 의 점"},{"name":"GS25삼송스위트점","tel":"","addr":"경기도 고양시 덕양구 신원동 667번지","category":""},{"name":"GS25삼송스위트점","tel":"","addr":"경기도 고양시 덕양구 신원동 667번지","category":""}]},{"lat":"37.661492986","long":"126.8895381","items":[{"name":"GS25삼송신원점","tel":"","addr":"경기도 고양시 덕양구 신원동 649-1번지","category":"유통업 영리 - 편 의 점"},{"name":"GS25삼송신원점","tel":"","addr":"경기도 고양시 덕양구 신원동 649-1번지","category":""},{"name":"GS25삼송신원점","tel":"","addr":"경기도 고양시 덕양구 신원동 649-1번지","category":""}]},{"lat":"37.665079711","long":"126.89045068","items":[{"name":"GS25삼송유창점","tel":"","addr":"경기도 고양시 덕양구 신원동 618번지","category":""},{"name":"GS25삼송유창점","tel":"","addr":"경기도 고양시 덕양구 신원동 618번지","category":"유통업 영리 - 편 의 점"},{"name":"GS25삼송유창점","tel":"","addr":"경기도 고양시 덕양구 신원동 618번지","category":""},{"name":"기프트샵","tel":"070-8819-2802","addr":"경기도 고양시 덕양구 신원동 618번지","category":""},{"name":"기프트샵","tel":"070-8819-2802","addr":"경기도 고양시 덕양구 신원동 618번지","category":"레져용품 - 골프용품 전문점"},{"name":"다이어트 스쿨(뉴트리션)","tel":"02-381-7131","addr":"경기도 고양시 덕양구 신원동 618번지","category":""},{"name":"다이어트 스쿨(뉴트리션)","tel":"02-381-7131","addr":"경기도 고양시 덕양구 신원동 618번지","category":"건강식품 - 기타건강식품"},{"name":"다이어트스쿨(뷰티)","tel":"","addr":"경기도 고양시 덕양구 신원동 618번지","category":""},{"name":"다이어트스쿨(뷰티)","tel":"","addr":"경기도 고양시 덕양구 신원동 618번지","category":"건강식품 - 기타건강식품"},{"name":"더홈기타교습소","tel":"","addr":"경기도 고양시 덕양구 신원동 618번지","category":"학원 - 예·체능계학원"},{"name":"더홈기타교습소","tel":"","addr":"경기도 고양시 덕양구 신원동 618번지","category":""},{"name":"메이드에이(made A)","tel":"","addr":"경기도 고양시 덕양구 신원동 618번지","category":""},{"name":"삼송신원리딩비영어독서학원","tel":"031-381-0584","addr":"경기도 고양시 덕양구 신원동 618번지","category":""},{"name":"삼송신원리딩비영어독서학원","tel":"031-381-0584","addr":"경기도 고양시 덕양구 신원동 618번지","category":"학원 - 외국어학원"},{"name":"스마일","tel":"02-371-0439","addr":"경기도 고양시 덕양구 신원동 618번지","category":"보건위생 - 화장품"},{"name":"시에스에듀학원","tel":"02-381-7496","addr":"경기도 고양시 덕양구 신원동 618번지","category":"학원 - 보습학원"},{"name":"애기야목욕가자","tel":"031-111-1111","addr":"경기도 고양시 덕양구 신원동 618번지","category":""},{"name":"애기야목욕가자","tel":"031-111-1111","addr":"경기도 고양시 덕양구 신원동 618번지","category":"문화.취미 - 애완동물"},{"name":"어라운드스터디룸 삼송신원점","tel":"070-7358-0904","addr":"경기도 고양시 덕양구 신원동 618번지","category":"용역 서비스 - 사무서비스"},{"name":"와락","tel":"","addr":"경기도 고양시 덕양구 신원동 618번지","category":""},{"name":"와락","tel":"02-000-0000","addr":"경기도 고양시 덕양구 신원동 618번지","category":"일반휴게음식 - 서양음식"},{"name":"와이비엠잉글루신원학원","tel":"02-355-0352","addr":"경기도 고양시 덕양구 신원동 618번지","category":"학원 - 외국어학원"},{"name":"와이비엠잉글루신원학원","tel":"02-355-0352","addr":"경기도 고양시 덕양구 신원동 618번지","category":""},{"name":"키즈카페 타블도트","tel":"031-1111-1111","addr":"경기도 고양시 덕양구 신원동 618번지","category":""},{"name":"키즈카페 타블도트","tel":"031-1111-1111","addr":"경기도 고양시 덕양구 신원동 618번지","category":"일반휴게음식 - 서양음식"},{"name":"탕맥집","tel":"02-381-4556","addr":"경기도 고양시 덕양구 신원동 618번지","category":"일반휴게음식 - 중국식"},{"name":"탕맥집","tel":"02-381-4556","addr":"경기도 고양시 덕양구 신원동 618번지","category":""},{"name":"한솔플러스 수학교습소","tel":"02-381-8926","addr":"경기도 고양시 덕양구 신원동 618번지","category":"학원 - 보습학원"},{"name":"한솔플러스 수학교습소","tel":"02-381-8926","addr":"경기도 고양시 덕양구 신원동 618번지","category":""}]},{"lat":"37.67560574","long":"126.87542674","items":[{"name":"Green/chaopai (그린차오파이)","tel":"02-381-5544","addr":"경기도 고양시 덕양구 신원동 439-1번지","category":""},{"name":"이레원","tel":"02-381-7893","addr":"경기도 고양시 덕양구 신원동 439-1번지","category":""},{"name":"이레원","tel":"02-381-7893","addr":"경기도 고양시 덕양구 신원동 439-1번지","category":"문화.취미 - 화원"},{"name":"진성농원","tel":"02-381-8252","addr":"경기도 고양시 덕양구 신원동 439-1번지","category":""},{"name":"한병철플라워","tel":"031-908-7804","addr":"경기도 고양시 덕양구 신원동 439-1번지","category":""},{"name":"한병철플라워","tel":"031-908-7804","addr":"경기도 고양시 덕양구 신원동","category":"문화.취미 - 화원"}]},{"lat":"37.664105144","long":"126.88886544","items":[{"name":"G헤어갤러리","tel":"031-7723-7772","addr":"경기도 고양시 덕양구 신원동 622번지","category":""},{"name":"G헤어갤러리","tel":"031-7723-7772","addr":"경기도 고양시 덕양구 신원동 622번지","category":"보건위생 - 미용원"},{"name":"귀성족발","tel":"02-371-3371","addr":"경기도 고양시 덕양구 신원동 622번지","category":"일반휴게음식 - 일반한식"},{"name":"귀성족발","tel":"02-371-3371","addr":"경기도 고양시 덕양구 신원동 622번지","category":""},{"name":"꼬꼬장터","tel":"02-381-9959","addr":"경기도 고양시 덕양구 신원동 622번지","category":"일반휴게음식 - 스넥"},{"name":"꼬꼬장터","tel":"02-381-9959","addr":"경기도 고양시 덕양구 신원동 622번지","category":""},{"name":"더고기앤쌈밥","tel":"02-381-8392","addr":"경기도 고양시 덕양구 신원동 622번지","category":"일반휴게음식 - 일반한식"},{"name":"더고기앤쌈밥","tel":"02-381-8392","addr":"경기도 고양시 덕양구 신원동 622번지","category":""},{"name":"마이봉김밥 신원점","tel":"02-381-4791","addr":"경기도 고양시 덕양구 신원동 622번지","category":""},{"name":"메이저진","tel":"02-381-0204","addr":"경기도 고양시 덕양구 신원동 622번지","category":"일반휴게음식 - 중국식"},{"name":"메이저진","tel":"02-381-0204","addr":"경기도 고양시 덕양구 신원동 622번지","category":""},{"name":"슈쥬이슈","tel":"","addr":"경기도 고양시 덕양구 신원동 622번지","category":""},{"name":"슈쥬이슈","tel":"","addr":"경기도 고양시 덕양구 신원동 622번지","category":"신변잡화 - 신발"},{"name":"시골목장 정육점","tel":"02-371-1201","addr":"경기도 고양시 덕양구 신원동 622번지","category":"음료식품 - 정육점"},{"name":"시골목장 정육점","tel":"02-371-1201","addr":"경기도 고양시 덕양구 신원동 622번지","category":""},{"name":"싱싱막회포차","tel":"02-381-4791","addr":"경기도 고양시 덕양구 신원동 622번지","category":""},{"name":"아라 어린이 수영장","tel":"02-381-7920","addr":"경기도 고양시 덕양구 신원동 622번지","category":"레저업소 - 수 영 장"},{"name":"아라 어린이 수영장","tel":"02-381-7920","addr":"경기도 고양시 덕양구 신원동 622번지","category":""},{"name":"연어가참치에게","tel":"031-968-6664","addr":"경기도 고양시 덕양구 신원동 622번지","category":""},{"name":"주민상회 삼송신원점","tel":"02-381-4321","addr":"경기도 고양시 덕양구 신원동 622번지","category":""},{"name":"주민상회 삼송신원점","tel":"02-381-4321","addr":"경기도 고양시 덕양구 신원동 622번지","category":"일반휴게음식 - 일반한식"},{"name":"총각네 과일야채","tel":"02-371-2739","addr":"경기도 고양시 덕양구 신원동 622번지","category":""},{"name":"피온음악학원","tel":"02-381-7125","addr":"경기도 고양시 덕양구 신원동 622번지","category":"학원 - 예·체능계학원"},{"name":"피온음악학원","tel":"02-381-7125","addr":"경기도 고양시 덕양구 신원동 622번지","category":""}]},{"lat":"37.664384848","long":"126.88928436","items":[{"name":"JM헤어&뷰티","tel":"","addr":"경기도 고양시 덕양구 신원동 622-2번지","category":""},{"name":"JM헤어&뷰티","tel":"","addr":"경기도 고양시 덕양구 신원동 622-2번지","category":"보건위생 - 미용원"},{"name":"돌리(dolly)","tel":"","addr":"경기도 고양시 덕양구 신원동 622-2번지","category":""},{"name":"돌리(dolly)","tel":"000-0000-0000","addr":"경기도 고양시 덕양구 신원동 622-2번지","category":"의류 - 정장"},{"name":"장보고할인매장","tel":"02-381-3890","addr":"경기도 고양시 덕양구 신원동 622-2번지","category":"음료식품 - 농·축·수산품"},{"name":"장보고할인매장","tel":"02-381-3890","addr":"경기도 고양시 덕양구 신원동 622-2번지","category":""},{"name":"징기스칸양꼬치","tel":"031-371-2666","addr":"경기도 고양시 덕양구 신원동 622-2번지","category":"일반휴게음식 - 중국식"},{"name":"징기스칸양꼬치","tel":"031-371-2666","addr":"경기도 고양시 덕양구 신원동 622-2번지","category":""},{"name":"치킨마루 신원마을점","tel":"061-682-9998","addr":"경기도 고양시 덕양구 신원동 622-2번지","category":"일반휴게음식 - 스넥"},{"name":"치킨마루 신원마을점","tel":"061-682-9998","addr":"경기도 고양시 덕양구 신원동 622-2번지","category":""},{"name":"캠프브이알 신원점","tel":"031-915-5655","addr":"경기도 고양시 덕양구 신원동 622-2번지","category":""},{"name":"캠프브이알 신원점","tel":"031-915-5655","addr":"경기도 고양시 덕양구 신원동 622-2번지","category":"레저업소 - 기타레져업소"},{"name":"토드컴퍼니(신원점)","tel":"031-000-0000","addr":"경기도 고양시 덕양구 신원동 622-2번지","category":"사무통신 - 통신기기"},{"name":"한고집","tel":"02-371-1033","addr":"경기도 고양시 덕양구 신원동 622-2번지","category":"일반휴게음식 - 일반한식"},{"name":"한고집","tel":"02-371-1033","addr":"경기도 고양시 덕양구 신원동 622-2번지","category":""}]},{"lat":"37.661294926","long":"126.88969706","items":[{"name":"J헤어샵","tel":"","addr":"경기도 고양시 덕양구 신원동 649-3번지","category":""},{"name":"J헤어샵","tel":"","addr":"경기도 고양시 덕양구 신원동 649-3번지","category":"보건위생 - 미용원"},{"name":"J헤어샵","tel":"031-0-0000","addr":"경기도 고양시 덕양구 신원동 649-3번지","category":""}]},{"lat":"37.663494484","long":"126.89095175","items":[{"name":"KINGSMAN PC","tel":"","addr":"경기도 고양시 덕양구 신원동 628-1번지","category":"레저업소 - 기타레져업소"},{"name":"도란도자기공방","tel":"02-371-3327","addr":"경기도 고양시 덕양구 신원동 628-1번지","category":""},{"name":"도란도자기공방","tel":"02-371-3327","addr":"경기도 고양시 덕양구 신원동 628-1번지","category":"문화.취미 - 문화취미기타"},{"name":"리치랜드","tel":"02-381-5537","addr":"경기도 고양시 덕양구 신원동 628-1번지","category":"직물 - 침구·수예점"},{"name":"리치랜드","tel":"02-381-5537","addr":"경기도 고양시 덕양구 신원동 628-1번지","category":""},{"name":"맥캔들 고양점","tel":"031-968-8568","addr":"경기도 고양시 덕양구 신원동 628-1번지","category":"신변잡화 - 기타잡화"},{"name":"맥캔들 고양점","tel":"031-968-8568","addr":"경기도 고양시 덕양구 신원동 628-1번지","category":""},{"name":"보물섬","tel":"070-4046-6670","addr":"경기도 고양시 덕양구 신원동 628-1번지","category":"신변잡화 - 기타잡화"},{"name":"삼송점핑다이어트","tel":"031-1111-1111","addr":"경기도 고양시 덕양구 신원동 628-1번지","category":""},{"name":"삼송점핑다이어트","tel":"031-1111-1111","addr":"경기도 고양시 덕양구 신원동 628-1번지","category":"건강식품 - 기타건강식품"},{"name":"순자국수","tel":"02-381-1288","addr":"경기도 고양시 덕양구 신원동 628-1번지","category":"일반휴게음식 - 일반한식"},{"name":"올릭프라이빗헤어살롱(Olig)","tel":"02-371-1190","addr":"경기도 고양시 덕양구 신원동 628-1번지","category":"보건위생 - 미용원"},{"name":"올릭프라이빗헤어살롱(Olig)","tel":"02-371-1190","addr":"경기도 고양시 덕양구 신원동 628-1번지","category":""},{"name":"웨일무용학원","tel":"02-381-8860","addr":"경기도 고양시 덕양구 신원동 628-1번지","category":""},{"name":"웨일무용학원","tel":"02-381-8860","addr":"경기도 고양시 덕양구 신원동 628-1번지","category":"학원 - 예·체능계학원"},{"name":"잼잼하우스","tel":"","addr":"경기도 고양시 덕양구 신원동 628-1번지","category":"음료식품 - 기타음료식품"},{"name":"잼잼하우스","tel":"","addr":"경기도 고양시 덕양구 신원동 628-1번지","category":""},{"name":"킹스맨PC","tel":"","addr":"경기도 고양시 덕양구 신원동 628-1번지","category":"레저업소 - 기타레져업소"},{"name":"킹스맨PC","tel":"","addr":"경기도 고양시 덕양구 신원동 628-1번지","category":""},{"name":"토이토핑슬라임","tel":"","addr":"경기도 고양시 덕양구 신원동 628-1번지","category":""},{"name":"토이토핑슬라임","tel":"","addr":"경기도 고양시 덕양구 신원동 628-1번지","category":"레저업소 - 기타레져업소"},{"name":"해피월드쇼핑몰","tel":"070-4355-2938","addr":"경기도 고양시 덕양구 신원동 628-1번지","category":""}]},{"lat":"37.663213352","long":"126.88903681","items":[{"name":"KJ유통","tel":"031-875-4618","addr":"경기도 고양시 덕양구 신원동 621-3번지","category":""},{"name":"KJ유통","tel":"031-875-4618","addr":"경기도 고양시 덕양구 신원동 621-3번지","category":"음료식품 - 기타음료식품"},{"name":"공부인스터디윅스 신원센터","tel":"","addr":"경기도 고양시 덕양구 신원동 621-3번지","category":"용역 서비스 - 사무서비스"},{"name":"구구숯불돼지갈비","tel":"02-381-5727","addr":"경기도 고양시 덕양구 신원동 621-3번지","category":"일반휴게음식 - 일반한식"},{"name":"구구숯불돼지갈비","tel":"02-381-5727","addr":"경기도 고양시 덕양구 신원동 621-3번지","category":""},{"name":"글라스스토리(삼송점)","tel":"02-381-6006","addr":"경기도 고양시 덕양구 신원동 621-3번지","category":""},{"name":"글라스스토리(삼송점)","tel":"02-381-6006","addr":"경기도 고양시 덕양구 신원동 621-3번지","category":"보건위생 - 안경"},{"name":"다솜한의원","tel":"02-881-5432","addr":"경기도 고양시 덕양구 신원동 621-3번지","category":"의원 - 한의원"},{"name":"다솜한의원","tel":"02-881-5432","addr":"경기도 고양시 덕양구 신원동 621-3번지","category":""},{"name":"뚜레쥬르 북삼송점","tel":"02-371-3700","addr":"경기도 고양시 덕양구 신원동 621-3번지","category":""},{"name":"라인건강약국","tel":"02-381-2231","addr":"경기도 고양시 덕양구 신원동 621-3번지","category":"약국 - 약국"},{"name":"로맨틱싸롱","tel":"070-8945-3313","addr":"경기도 고양시 덕양구 신원동 621-3번지","category":""},{"name":"리다 이비인후과 의원","tel":"02-381-2580","addr":"경기도 고양시 덕양구 신원동 621-3번지","category":"의원 - 의원"},{"name":"리다 이비인후과 의원","tel":"02-381-2580","addr":"경기도 고양시 덕양구 신원동 621-3번지","category":""},{"name":"리즈발레학원","tel":"02-6940-5359","addr":"경기도 고양시 덕양구 신원동 621-3번지","category":"학원 - 예·체능계학원"},{"name":"리즈발레학원","tel":"02-6940-5359","addr":"경기도 고양시 덕양구 신원동 621-3번지","category":""},{"name":"만삼이","tel":"02-381-4544","addr":"경기도 고양시 덕양구 신원동 621-3번지","category":""},{"name":"만삼이","tel":"02-381-4544","addr":"경기도 고양시 덕양구 신원동 621-3번지","category":""},{"name":"만삼이","tel":"02-381-4544","addr":"경기도 고양시 덕양구 신원동 621-3번지","category":"일반휴게음식 - 일반한식"},{"name":"명품","tel":"02-381-5542","addr":"경기도 고양시 덕양구 신원동 621-3번지","category":""},{"name":"분위기좋은술집","tel":"070-8945-3313","addr":"경기도 고양시 덕양구 신원동 621-3번지","category":""},{"name":"블럭업","tel":"02-371-3330","addr":"경기도 고양시 덕양구 신원동 621-3번지","category":""},{"name":"블럭업","tel":"","addr":"경기도 고양시 덕양구 신원동 621-3번지","category":"학원 - 기타 교육기관"},{"name":"블록업","tel":"02-371-3330","addr":"경기도 고양시 덕양구 신원동 621-3번지","category":""},{"name":"삼송쎈수학학원","tel":"02-371-0982","addr":"경기도 고양시 덕양구 신원동 621-3번지","category":"학원 - 보습학원"},{"name":"삼송쎈수학학원","tel":"02-371-0982","addr":"경기도 고양시 덕양구 신원동 621-3번지","category":""},{"name":"삼송플러스약국","tel":"02-831-2231","addr":"경기도 고양시 덕양구 신원동 621-3번지","category":""},{"name":"수당구클럽","tel":"031-966-3764","addr":"경기도 고양시 덕양구 신원동 621-3번지","category":""},{"name":"수당구클럽","tel":"031-966-3764","addr":"경기도 고양시 덕양구 신원동 621-3번지","category":""},{"name":"스시노백쉐프 고양삼송점","tel":"02-381-5804","addr":"경기도 고양시 덕양구 신원동 621-3번지","category":"일반휴게음식 - 일식·회집"},{"name":"스시노백쉐프 고양삼송점","tel":"02-381-5804","addr":"경기도 고양시 덕양구 신원동 621-3번지","category":""},{"name":"스카이노래연습장","tel":"02-371-1647","addr":"경기도 고양시 덕양구 신원동 621-3번지","category":"레저업소 - 노 래 방"},{"name":"스카이노래연습장","tel":"02-371-1647","addr":"경기도 고양시 덕양구 신원동 621-3번지","category":""},{"name":"신김밥천국","tel":"02-381-7422","addr":"경기도 고양시 덕양구 신원동 621-3번지","category":""},{"name":"신김밥천국","tel":"02-381-7422","addr":"경기도 고양시 덕양구 신원동 621-3번지","category":"일반휴게음식 - 스넥"},{"name":"신원에꼴드에땅 미술학원","tel":"","addr":"경기도 고양시 덕양구 신원동 621-3번지","category":"학원 - 예·체능계학원"},{"name":"신원에꼴드에땅 미술학원","tel":"02-381-9222","addr":"경기도 고양시 덕양구 신원동 621-3번지","category":""},{"name":"유와디닷컴","tel":"02-371-2493","addr":"경기도 고양시 덕양구 신원동 621-3번지","category":"사무통신 - 통신기기"},{"name":"이디야커피 삼송신원마을점","tel":"02-231-1181","addr":"경기도 고양시 덕양구 신원동 621-3번지","category":""},{"name":"이디야커피 삼송신원마을점","tel":"02-371-1181","addr":"경기도 고양시 덕양구 신원동 621-3번지","category":"일반휴게음식 - 서양음식"},{"name":"장독대 신원점","tel":"","addr":"경기도 고양시 덕양구 신원동 621-3번지","category":""},{"name":"제주특별자치도 경제통상진흥원 고양점","tel":"02-371-0747","addr":"경기도 고양시 덕양구 신원동 621-3번지","category":"음료식품 - 기타음료식품"},{"name":"주식회사 마나","tel":"02-1588-7659","addr":"경기도 고양시 덕양구 신원동 621-3번지","category":""},{"name":"주식회사 마나","tel":"02-1588-7659","addr":"경기도 고양시 덕양구 신원동 621-3번지","category":"레저업소 - 기타레져업소"},{"name":"참이맛농부치킨","tel":"02-371-2579","addr":"경기도 고양시 덕양구 신원동 621-3번지","category":"일반휴게음식 - 스넥"},{"name":"참이맛농부치킨","tel":"02-371-2579","addr":"경기도 고양시 덕양구 신원동 621-3번지","category":""},{"name":"채혜선음악학원","tel":"02-371-0009","addr":"경기도 고양시 덕양구 신원동 621-3번지","category":"학원 - 예·체능계학원"},{"name":"채혜선음악학원","tel":"02-371-0009","addr":"경기도 고양시 덕양구 신원동 621-3번지","category":""},{"name":"최강학원","tel":"02-371-0100","addr":"경기도 고양시 덕양구 신원동 621-3번지","category":""},{"name":"최강학원","tel":"02-371-0100","addr":"경기도 고양시 덕양구 신원동 621-3번지","category":"학원 - 보습학원"},{"name":"커브스 삼송클럽","tel":"02-381-8230","addr":"경기도 고양시 덕양구 신원동 621-3번지","category":""},{"name":"커브스 삼송클럽","tel":"02-381-8230","addr":"경기도 고양시 덕양구 신원동 621-3번지","category":"레저업소 - 헬스클럽"},{"name":"헤어에비뉴S","tel":"02-381-3631","addr":"경기도 고양시 덕양구 신원동 621-3번지","category":""},{"name":"헤어에비뉴S","tel":"02-381-3631","addr":"경기도 고양시 덕양구 신원동 621-3번지","category":"보건위생 - 미용원"}]},{"lat":"37.669101885","long":"126.88517412","items":[{"name":"MTA 신원태권도장","tel":"","addr":"경기도 고양시 덕양구 신원동 600번지 신원마을고양삼송아이파크","category":""},{"name":"MTA태권도","tel":"070-4241-9997","addr":"경기도 고양시 덕양구 신원동 600번지 신원마을고양삼송아이파크","category":""},{"name":"MTA태권도","tel":"070-4142-9997","addr":"경기도 고양시 덕양구 신원동 600번지 신원마을고양삼송아이파크","category":""},{"name":"SEW영어교습소","tel":"070-4645-8597","addr":"경기도 고양시 덕양구 신원동 600번지 신원마을고양삼송아이파크","category":""},{"name":"SEW영어교습소","tel":"070-4645-8597","addr":"경기도 고양시 덕양구 신원동 600번지 신원마을고양삼송아이파크","category":"회원제형태 - 학원"},{"name":"라임오렌지미술교습소","tel":"02-381-3858","addr":"경기도 고양시 덕양구 신원동 600번지 신원마을고양삼송아이파크","category":"학원 - 예·체능계학원"},{"name":"라임오렌지미술교습소","tel":"02-381-3858","addr":"경기도 고양시 덕양구 신원동 600번지 신원마을고양삼송아이파크","category":""},{"name":"루다헤어","tel":"02-381-7226","addr":"경기도 고양시 덕양구 신원동 600번지 신원마을고양삼송아이파크","category":"보건위생 - 미용원"},{"name":"루다헤어","tel":"02-381-7226","addr":"경기도 고양시 덕양구 신원동 600번지 신원마을고양삼송아이파크","category":""},{"name":"모든","tel":"","addr":"경기도 고양시 덕양구 신원동 600번지 신원마을고양삼송아이파크","category":"의류 - 기타의류"},{"name":"백양세탁소","tel":"031-381-0789","addr":"경기도 고양시 덕양구 신원동 600번지 신원마을고양삼송아이파크","category":""},{"name":"백양세탁소","tel":"031-381-0789","addr":"경기도 고양시 덕양구 신원동 600번지 신원마을고양삼송아이파크","category":"수리서비스 - 세탁소"},{"name":"브레인수학교습소","tel":"031-0000-0000","addr":"경기도 고양시 덕양구 신원동 600번지 신원마을고양삼송아이파크","category":"학원 - 보습학원"},{"name":"소리건업","tel":"02-381-8177","addr":"경기도 고양시 덕양구 신원동 600번지 신원마을고양삼송아이파크","category":"사무통신 - 컴퓨터"},{"name":"소리건업","tel":"02-381-8177","addr":"경기도 고양시 덕양구 신원동 600번지 신원마을고양삼송아이파크","category":""},{"name":"송음악교습소","tel":"02-371-1188","addr":"경기도 고양시 덕양구 신원동 600번지 신원마을고양삼송아이파크","category":"학원 - 예·체능계학원"},{"name":"스페셜유 (special u)","tel":"031-000-0000","addr":"경기도 고양시 덕양구 신원동 600번지 신원마을고양삼송아이파크","category":"음료식품 - 제과점"},{"name":"스페셜유 (special u)","tel":"031-0-0000","addr":"경기도 고양시 덕양구 신원동 600번지 신원마을고양삼송아이파크","category":""},{"name":"신원 아이파크 독서교실","tel":"070-4038-3114","addr":"경기도 고양시 덕양구 신원동 600번지 신원마을고양삼송아이파크","category":""},{"name":"신원 아이파크 독서교실","tel":"070-4038-3114","addr":"경기도 고양시 덕양구 신원동 600번지 신원마을고양삼송아이파크","category":"학원 - 기타 교육기관"},{"name":"신원분식","tel":"02-381-7225","addr":"경기도 고양시 덕양구 신원동 600번지 신원마을고양삼송아이파크","category":""},{"name":"신원분식","tel":"02-371-2428","addr":"경기도 고양시 덕양구 신원동 600번지 신원마을고양삼송아이파크","category":""},{"name":"신원분식","tel":"02-371-1111","addr":"경기도 고양시 덕양구 신원동 600번지 신원마을고양삼송아이파크","category":""},{"name":"신원분식","tel":"02-371-1111","addr":"경기도 고양시 덕양구 신원동 600번지 신원마을고양삼송아이파크","category":"일반휴게음식 - 스넥"},{"name":"에띠임 오로라","tel":"070-2699-0807","addr":"경기도 고양시 덕양구 신원동 600번지 신원마을고양삼송아이파크","category":"의류 - 내의판매"},{"name":"예쁜꿈어린이집[아이행복]","tel":"070-8292-3288","addr":"경기도 고양시 덕양구 신원동 600번지 신원마을고양삼송아이파크","category":"학원 - 유아원"},{"name":"용인대청운태권도장","tel":"031-999-8888","addr":"경기도 고양시 덕양구 신원동 600번지 신원마을고양삼송아이파크","category":""},{"name":"진부띠크","tel":"","addr":"경기도 고양시 덕양구 신원동 600번지 신원마을고양삼송아이파크","category":"보건위생 - 피부미용실"},{"name":"키즈파크어린이집[아이행복]","tel":"031-381-3363","addr":"경기도 고양시 덕양구 신원동 600번지 신원마을고양삼송아이파크","category":"학원 - 유아원"},{"name":"퐁당","tel":"02-381-9047","addr":"경기도 고양시 덕양구 신원동 600번지 신원마을고양삼송아이파크","category":"음료식품 - 제과점"},{"name":"퐁당","tel":"02-381-9047","addr":"경기도 고양시 덕양구 신원동 600번지 신원마을고양삼송아이파크","category":""},{"name":"하나크리닝상사","tel":"02-383-0592","addr":"경기도 고양시 덕양구 신원동 600번지 신원마을고양삼송아이파크","category":""},{"name":"하나크리닝상사","tel":"02-383-0592","addr":"경기도 고양시 덕양구 신원동 600번지 신원마을고양삼송아이파크","category":"용역 서비스 - 기타용역서비스"},{"name":"한국체대새나라태권도장","tel":"02-988-6532","addr":"경기도 고양시 덕양구 신원동 600번지 신원마을고양삼송아이파크","category":""},{"name":"한국체대새나라태권도장","tel":"02-988-6532","addr":"경기도 고양시 덕양구 신원동 600번지 신원마을고양삼송아이파크","category":"학원 - 예·체능계학원"},{"name":"해법수공부방","tel":"070-7634-1845","addr":"경기도 고양시 덕양구 신원동 600번지 신원마을고양삼송아이파크","category":""},{"name":"해법수공부방","tel":"070-7634-1845","addr":"경기도 고양시 덕양구 신원동 600번지 신원마을고양삼송아이파크","category":"학원 - 보습학원"}]},{"lat":"37.661601341","long":"126.88978726","items":[{"name":"MYJE (마이제이이)","tel":"","addr":"경기도 고양시 덕양구 신원동 641번지","category":""},{"name":"MYJE (마이제이이)","tel":"","addr":"경기도 고양시 덕양구 신원동 641번지","category":"의류 - 정장"},{"name":"마왕족발 (삼송점)","tel":"02-381-1231","addr":"경기도 고양시 덕양구 신원동 641번지","category":""},{"name":"마왕족발 (삼송점)","tel":"02-381-1231","addr":"경기도 고양시 덕양구 신원동 641번지","category":"일반휴게음식 - 일반한식"}]},{"lat":"37.661636354","long":"126.88872188","items":[{"name":"SEO HEE CERAMIC STUDIO(서희 도자기공방)","tel":"","addr":"경기도 고양시 덕양구 신원동 647-3번지","category":"문화.취미 - 문화취미기타"},{"name":"SEO HEE CERAMIC STUDIO(서희 도자기공방)","tel":"","addr":"경기도 고양시 덕양구 신원동 647-3번지","category":""}]},{"lat":"37.668881125","long":"126.88975355","items":[{"name":"SSYONG쿠 SSYONG쿠","tel":"","addr":"경기도 고양시 덕양구 신원동 609번지 신원마을1단지우남퍼스트빌","category":""},{"name":"SSYONG쿠 SSYONG쿠","tel":"","addr":"경기도 고양시 덕양구 신원동 609번지 신원마을1단지우남퍼스트빌","category":"문화.취미 - 애완동물"},{"name":"공방카페작은정원","tel":"070-4763-5713","addr":"경기도 고양시 덕양구 신원동 609번지 신원마을1단지우남퍼스트빌","category":""},{"name":"리드앤톡 영어도서관 고양신원센터","tel":"02-381-6331","addr":"경기도 고양시 덕양구 신원동 609번지 신원마을1단지우남퍼스트빌","category":""},{"name":"리드앤톡 영어도서관 고양신원센터","tel":"02-381-6331","addr":"경기도 고양시 덕양구 신원동 609번지 신원마을1단지우남퍼스트빌","category":"학원 - 기타 교육기관"},{"name":"사진인","tel":"02-6013-2264","addr":"경기도 고양시 덕양구 신원동 609번지 신원마을1단지우남퍼스트빌","category":""},{"name":"사진인","tel":"02-6013-2264","addr":"경기도 고양시 덕양구 신원동 609번지 신원마을1단지우남퍼스트빌","category":"광학제품 - 사진관"},{"name":"수경사","tel":"02-374-5754","addr":"경기도 고양시 덕양구 신원동 609번지 신원마을1단지우남퍼스트빌","category":""},{"name":"수경사","tel":"02-374-5754","addr":"경기도 고양시 덕양구 신원동 609번지 신원마을1단지우남퍼스트빌","category":"수리서비스 - 세탁소"},{"name":"슈가박스","tel":"","addr":"경기도 고양시 덕양구 신원동 609번지 신원마을1단지우남퍼스트빌","category":"음료식품 - 기타음료식품"},{"name":"슈가박스","tel":"","addr":"경기도 고양시 덕양구 신원동 609번지 신원마을1단지우남퍼스트빌","category":""},{"name":"씨에프헤어샵","tel":"02-381-7660","addr":"경기도 고양시 덕양구 신원동 609번지 신원마을1단지우남퍼스트빌","category":""},{"name":"씨에프헤어샵","tel":"02-381-7660","addr":"경기도 고양시 덕양구 신원동 609번지 신원마을1단지우남퍼스트빌","category":"보건위생 - 미용원"},{"name":"씨유삼송우남점","tel":"02-381-4731","addr":"경기도 고양시 덕양구 신원동 609번지 신원마을1단지우남퍼스트빌","category":"유통업 영리 - 편 의 점"},{"name":"씨유삼송우남점","tel":"02-381-4731","addr":"경기도 고양시 덕양구 신원동 609번지 신원마을1단지우남퍼스트빌","category":""},{"name":"아모토탈","tel":"02-446-0560","addr":"경기도 고양시 덕양구 신원동 609번지 신원마을1단지우남퍼스트빌","category":""},{"name":"아모토탈","tel":"02-446-0560","addr":"경기도 고양시 덕양구 신원동 609번지 신원마을1단지우남퍼스트빌","category":"건축자재 - 인테리어전문"},{"name":"어반프레소","tel":"","addr":"경기도 고양시 덕양구 신원동 609번지 신원마을1단지우남퍼스트빌","category":"일반휴게음식 - 서양음식"},{"name":"어반프레소","tel":"","addr":"경기도 고양시 덕양구 신원동 609번지 신원마을1단지우남퍼스트빌","category":""},{"name":"여름하 스튜디오","tel":"","addr":"경기도 고양시 덕양구 신원동 609번지 신원마을1단지우남퍼스트빌","category":"광학제품 - 사진관"},{"name":"여름하 스튜디오","tel":"","addr":"경기도 고양시 덕양구 신원동 609번지 신원마을1단지우남퍼스트빌","category":""},{"name":"유니클럽","tel":"02-381-0880","addr":"경기도 고양시 덕양구 신원동 609번지 신원마을1단지우남퍼스트빌","category":""},{"name":"유니클럽","tel":"02-381-0880","addr":"경기도 고양시 덕양구 신원동 609번지 신원마을1단지우남퍼스트빌","category":"의류 - 정장"},{"name":"해법영어수학","tel":"02-6013-0383","addr":"경기도 고양시 덕양구 신원동 609번지 신원마을1단지우남퍼스트빌","category":""},{"name":"해피트리어린이집[아이행복]","tel":"031-371-0041","addr":"경기도 고양시 덕양구 신원동 609번지 신원마을1단지우남퍼스트빌","category":"학원 - 유아원"}]},{"lat":"37.665325142","long":"126.89275108","items":[{"name":"SY에어컨","tel":"","addr":"경기도 고양시 덕양구 신원동 611번지 신원마을엘에이치2단지","category":"전기제품 - 냉열기기"},{"name":"SY에어컨","tel":"","addr":"경기도 고양시 덕양구 신원동 611번지 신원마을엘에이치2단지","category":""}]},{"lat":"37.662655233","long":"126.88953633","items":[{"name":"TOP당구클럽","tel":"02-381-3949","addr":"경기도 고양시 덕양구 신원동 626번지","category":""},{"name":"김명자 낙지마당","tel":"031-381-1522","addr":"경기도 고양시 덕양구 신원동 626번지","category":""},{"name":"김명자 낙지마당","tel":"031-381-1522","addr":"경기도 고양시 덕양구 신원동 626번지","category":"일반휴게음식 - 일반한식"},{"name":"김명자낙지마당","tel":"02-381-1522","addr":"경기도 고양시 덕양구 신원동 626번지","category":""},{"name":"김앤유내과의원","tel":"02-381-3551","addr":"경기도 고양시 덕양구 신원동 626번지","category":""},{"name":"김앤유내과의원","tel":"02-381-3551","addr":"경기도 고양시 덕양구 신원동 626번지","category":"의원 - 의원"},{"name":"다인주차관리","tel":"","addr":"경기도 고양시 덕양구 신원동 626번지","category":""},{"name":"리드골프 (삼송점)","tel":"02-6953-9005","addr":"경기도 고양시 덕양구 신원동 626번지","category":""},{"name":"리드골프 (삼송점)","tel":"02-6953-9005","addr":"경기도 고양시 덕양구 신원동 626번지","category":"레져용품 - 골프용품 전문점"},{"name":"몽실이비어 신원점","tel":"02-381-5280","addr":"경기도 고양시 덕양구 신원동 626번지","category":""},{"name":"밀리언텔레콤","tel":"02-381-7222","addr":"경기도 고양시 덕양구 신원동 626번지","category":""},{"name":"별장군집","tel":"070-4187-6998","addr":"경기도 고양시 덕양구 신원동 626번지","category":""},{"name":"별장군집","tel":"070-4187-6998","addr":"경기도 고양시 덕양구 신원동 626번지","category":"일반휴게음식 - 일반한식"},{"name":"북촌손만두","tel":"031-381-2016","addr":"경기도 고양시 덕양구 신원동 626번지","category":""},{"name":"북촌손만두","tel":"02-381-2016","addr":"경기도 고양시 덕양구 신원동 626번지","category":"일반휴게음식 - 스넥"},{"name":"북촌손만두","tel":"031-381-2016","addr":"경기도 고양시 덕양구 신원동 626번지","category":"일반휴게음식 - 일반한식"},{"name":"북촌손만두","tel":"02-381-2016","addr":"경기도 고양시 덕양구 신원동 626번지","category":""},{"name":"브라운치킨&조우새벽포차","tel":"02-381-6669","addr":"경기도 고양시 덕양구 신원동 626번지","category":"일반휴게음식 - 스넥"},{"name":"브라운치킨&조우새벽포차","tel":"02-381-6669","addr":"경기도 고양시 덕양구 신원동 626번지","category":""},{"name":"비상하이톱학원","tel":"02-371-1002","addr":"경기도 고양시 덕양구 신원동 626번지","category":""},{"name":"비상하이톱학원","tel":"02-371-1002","addr":"경기도 고양시 덕양구 신원동 626번지","category":"학원 - 보습학원"},{"name":"빨강떡볶이삼송점","tel":"02-371-3370","addr":"경기도 고양시 덕양구 신원동 626번지","category":"일반휴게음식 - 스넥"},{"name":"빨강떡볶이삼송점","tel":"02-371-3370","addr":"경기도 고양시 덕양구 신원동 626번지","category":""},{"name":"삼송상쾌한이비인후과의원","tel":"02-381-9136","addr":"경기도 고양시 덕양구 신원동 626번지","category":""},{"name":"삼송상쾌한이비인후과의원","tel":"02-381-9136","addr":"경기도 고양시 덕양구 신원동 626번지","category":"의원 - 의원"},{"name":"수주차관리","tel":"","addr":"경기도 고양시 덕양구 신원동 626번지","category":"자동차정비 유지 - 주차장"},{"name":"수화장품","tel":"031-381-0330","addr":"경기도 고양시 덕양구 신원동 626번지","category":"보건위생 - 화장품"},{"name":"수화장품","tel":"031-381-8330","addr":"경기도 고양시 덕양구 신원동 626번지","category":"보건위생 - 화장품"},{"name":"수화장품","tel":"031-381-8330","addr":"경기도 고양시 덕양구 신원동 626번지","category":""},{"name":"수화장품","tel":"031-381-8330","addr":"경기도 고양시 덕양구 신원동 626번지","category":""},{"name":"수화장품","tel":"02-381-8330","addr":"경기도 고양시 덕양구 신원동 626번지","category":""},{"name":"수화장품","tel":"031-381-0330","addr":"경기도 고양시 덕양구 신원동 626번지","category":""},{"name":"스타노래방","tel":"02-371-0072","addr":"경기도 고양시 덕양구 신원동 626번지","category":""},{"name":"스타노래연습장","tel":"02-371-0072","addr":"경기도 고양시 덕양구 신원동 626번지","category":""},{"name":"스타노래연습장","tel":"031-111-1111","addr":"경기도 고양시 덕양구 신원동 626번지","category":"레저업소 - 노 래 방"},{"name":"시창이네반찬가게","tel":"02-2679-6605","addr":"경기도 고양시 덕양구 신원동 626번지","category":""},{"name":"신원한우리독서토론논술교습소","tel":"02-371-3114","addr":"경기도 고양시 덕양구 신원동 626번지","category":""},{"name":"신원한우리독서토론논술교습소","tel":"02-371-3114","addr":"경기도 고양시 덕양구 신원동 626번지","category":"회원제형태 - 학원"},{"name":"신호등술집","tel":"","addr":"경기도 고양시 덕양구 신원동 626번지","category":"일반휴게음식 - 주점"},{"name":"신호등술집","tel":"","addr":"경기도 고양시 덕양구 신원동 626번지","category":""},{"name":"씨유삼송호평점","tel":"02-381-0686","addr":"경기도 고양시 덕양구 신원동 626번지","category":""},{"name":"씨유삼송호평점","tel":"02-381-0686","addr":"경기도 고양시 덕양구 신원동 626번지","category":"유통업 영리 - 편 의 점"},{"name":"요가스테이(Yogastay)","tel":"070-8257-9231","addr":"경기도 고양시 덕양구 신원동 626번지","category":"레저업소 - 헬스클럽"},{"name":"요가스테이(Yogastay)","tel":"070-8257-9231","addr":"경기도 고양시 덕양구 신원동 626번지","category":""},{"name":"우신 NTI","tel":"02-2088-0093","addr":"경기도 고양시 덕양구 신원동 626번지","category":"주방용구 - 주방용구"},{"name":"우신 NTI","tel":"02-2088-0093","addr":"경기도 고양시 덕양구 신원동 626번지","category":""},{"name":"윤선생영어교실 삼송센터","tel":"02-381-0506","addr":"경기도 고양시 덕양구 신원동 626번지","category":""},{"name":"윤선생영어교실삼송센터","tel":"","addr":"경기도 고양시 덕양구 신원동 626번지","category":""},{"name":"윤선생영어교실삼송센터","tel":"","addr":"경기도 고양시 덕양구 신원동 626번지","category":"학원 - 학습지 교육"},{"name":"이앤아이영어학원","tel":"02-6339-9771","addr":"경기도 고양시 덕양구 신원동 626번지","category":""},{"name":"이앤아이영어학원","tel":"02-6339-9771","addr":"경기도 고양시 덕양구 신원동 626번지","category":"학원 - 외국어학원"},{"name":"젤리펫살롱","tel":"02-381-8324","addr":"경기도 고양시 덕양구 신원동 626번지","category":""},{"name":"젤리펫살롱","tel":"02-381-8324","addr":"경기도 고양시 덕양구 신원동 626번지","category":"문화.취미 - 애완동물"},{"name":"카페인헤븐","tel":"070-8883-3642","addr":"경기도 고양시 덕양구 신원동 626번지","category":"일반휴게음식 - 일반한식"},{"name":"카페인헤븐","tel":"070-8883-3642","addr":"경기도 고양시 덕양구 신원동 626번지","category":""},{"name":"클래스PC방","tel":"02-381-9262","addr":"경기도 고양시 덕양구 신원동 626번지","category":""},{"name":"클래스PC방","tel":"02-381-9262","addr":"경기도 고양시 덕양구 신원동 626번지","category":"레저업소 - 기타레져업소"},{"name":"탑(TOP)당구클럽","tel":"031-381-3949","addr":"경기도 고양시 덕양구 신원동 626번지","category":""},{"name":"파리바게뜨 삼송신원마을점","tel":"02-381-3813","addr":"경기도 고양시 덕양구 신원동 626번지","category":""},{"name":"파리바게뜨 삼송신원마을점","tel":"02-381-3813","addr":"경기도 고양시 덕양구 신원동 626번지","category":"음료식품 - 제과점"},{"name":"폰스토리(Phone Story)","tel":"031-1111-1111","addr":"경기도 고양시 덕양구 신원동 626번지","category":"사무통신 - 통신기기"}]},{"lat":"37.663384906","long":"126.88942189","items":[{"name":"The Pastel(더파스텔)","tel":"02-304-7083","addr":"경기도 고양시 덕양구 신원동 620번지","category":"문화.취미 - 화원"},{"name":"The Pastel(더파스텔)","tel":"02-304-7083","addr":"경기도 고양시 덕양구 신원동 620번지","category":""},{"name":"고시독서실","tel":"02-371-0999","addr":"경기도 고양시 덕양구 신원동 620번지","category":""},{"name":"국수나무 고양삼송점","tel":"02-381-4323","addr":"경기도 고양시 덕양구 신원동 620번지","category":""},{"name":"국수나무삼송점","tel":"02-381-4323","addr":"경기도 고양시 덕양구 신원동 620번지","category":""},{"name":"국수나무삼송점","tel":"02-381-4323","addr":"경기도 고양시 덕양구 신원동 620번지","category":"일반휴게음식 - 스넥"},{"name":"메이블","tel":"070-6253-3253","addr":"경기도 고양시 덕양구 신원동 620번지","category":""},{"name":"메이블","tel":"070-6253-3253","addr":"경기도 고양시 덕양구 신원동 620번지","category":"의류 - 정장"},{"name":"메이블 Mable","tel":"031-573-6221","addr":"경기도 고양시 덕양구 신원동 620번지","category":""},{"name":"미샤 고양신원점","tel":"02-381-8835","addr":"경기도 고양시 덕양구 신원동 620번지","category":""},{"name":"미샤 고양신원점","tel":"02-381-8835","addr":"경기도 고양시 덕양구 신원동 620번지","category":"보건위생 - 화장품"},{"name":"삼송가정의학과의원","tel":"02-586-0110","addr":"경기도 고양시 덕양구 신원동 620번지","category":"의원 - 의원"},{"name":"삼송가정의학과의원","tel":"02-586-0110","addr":"경기도 고양시 덕양구 신원동 620번지","category":""},{"name":"샵스카이 독서실","tel":"02-371-0999","addr":"경기도 고양시 덕양구 신원동 620번지","category":""},{"name":"샵스카이독서실","tel":"02-371-0999","addr":"경기도 고양시 덕양구 신원동 620번지","category":"학원 - 독서실"},{"name":"야간얼큰우동","tel":"02-371-2015","addr":"경기도 고양시 덕양구 신원동 620번지","category":"일반휴게음식 - 일반한식"},{"name":"야간얼큰우동","tel":"02-371-2015","addr":"경기도 고양시 덕양구 신원동 620번지","category":""},{"name":"에뛰드 하우스 고양삼송점","tel":"02-381-7054","addr":"경기도 고양시 덕양구 신원동 620번지","category":""},{"name":"에뛰드하우스 고양삼송점","tel":"02-381-8832","addr":"경기도 고양시 덕양구 신원동 620번지","category":""},{"name":"에뛰드하우스 고양삼송점","tel":"02-381-8832","addr":"경기도 고양시 덕양구 신원동 620번지","category":"보건위생 - 화장품"},{"name":"왕기샤브샤브","tel":"","addr":"경기도 고양시 덕양구 신원동 620번지","category":"일반휴게음식 - 중국식"},{"name":"원앤탑학원","tel":"02-381-7813","addr":"경기도 고양시 덕양구 신원동 620번지","category":""},{"name":"원앤탑학원","tel":"031-1544-1621","addr":"경기도 고양시 덕양구 신원동 620번지","category":""},{"name":"원앤탑학원","tel":"02-381-7813","addr":"경기도 고양시 덕양구 신원동 620번지","category":""},{"name":"원앤탑학원","tel":"02-381-7813","addr":"경기도 고양시 덕양구 신원동 620번지","category":"학원 - 보습학원"},{"name":"유후 삼송점","tel":"02-371-0823","addr":"경기도 고양시 덕양구 신원동 620번지","category":""},{"name":"이아이이고대삼송어학원","tel":"02-6956-1223","addr":"경기도 고양시 덕양구 신원동 620번지","category":"학원 - 외국어학원"},{"name":"이철헤어커커","tel":"02-371-2326","addr":"경기도 고양시 덕양구 신원동 620번지","category":""},{"name":"이철헤어커커 삼송신원점","tel":"02-371-2326","addr":"경기도 고양시 덕양구 신원동 620번지","category":"보건위생 - 미용원"},{"name":"일오닭갈비","tel":"02-381-9515","addr":"경기도 고양시 덕양구 신원동 620번지","category":""},{"name":"정다운온누리약국","tel":"02-381-0975","addr":"경기도 고양시 덕양구 신원동 620번지","category":"약국 - 약국"},{"name":"정다운온누리약국","tel":"02-381-0975","addr":"경기도 고양시 덕양구 신원동 620번지","category":""},{"name":"카페게이트 삼송신원점","tel":"02-381-8992","addr":"경기도 고양시 덕양구 신원동 620번지","category":""},{"name":"카페게이트 삼송신원점","tel":"02-381-8992","addr":"경기도 고양시 덕양구 신원동 620번지","category":"일반휴게음식 - 서양음식"},{"name":"피자스쿨(신원마을점)","tel":"02-381-9898","addr":"경기도 고양시 덕양구 신원동 620번지","category":"일반휴게음식 - 서양음식"},{"name":"피자스쿨(신원마을점)","tel":"02-381-9898","addr":"경기도 고양시 덕양구 신원동 620번지","category":""}]},{"lat":"37.663160544","long":"126.89034024","items":[{"name":"VIP당구클럽","tel":"070-4711-8151","addr":"경기도 고양시 덕양구 신원동 627-2번지","category":""},{"name":"VIP당구클럽","tel":"","addr":"경기도 고양시 덕양구 신원동 627-2번지","category":""},{"name":"VIP당구클럽","tel":"02-000-0000","addr":"경기도 고양시 덕양구 신원동 627-2번지","category":"레저업소 - 당 구 장"},{"name":"개성진 찹쌀순대(신원점)","tel":"","addr":"경기도 고양시 덕양구 신원동 627-2번지","category":"일반휴게음식 - 일반한식"},{"name":"개성진 찹쌀순대(신원점)","tel":"","addr":"경기도 고양시 덕양구 신원동 627-2번지","category":""},{"name":"놀숲 고양삼송점","tel":"02-381-1204","addr":"경기도 고양시 덕양구 신원동 627-2번지","category":""},{"name":"놀숲 고양삼송점","tel":"02-381-1204","addr":"경기도 고양시 덕양구 신원동 627-2번지","category":"서적문구 - 일반서적"},{"name":"맥스피드pc","tel":"02-381-5090","addr":"경기도 고양시 덕양구 신원동 627-2번지","category":"레저업소 - 기타레져업소"},{"name":"맥스피드pc","tel":"02-381-5090","addr":"경기도 고양시 덕양구 신원동 627-2번지","category":""},{"name":"브이아이피(VIP)당구클럽","tel":"","addr":"경기도 고양시 덕양구 신원동 627-2번지","category":"레저업소 - 당 구 장"},{"name":"산야초서서갈비","tel":"02-371-1999","addr":"경기도 고양시 덕양구 신원동 627-2번지","category":"일반휴게음식 - 일반한식"},{"name":"산야초서서갈비","tel":"02-371-1999","addr":"경기도 고양시 덕양구 신원동 627-2번지","category":""},{"name":"삼송건강생활","tel":"02-381-1009","addr":"경기도 고양시 덕양구 신원동 627-2번지","category":"건강식품 - 기타건강식품"},{"name":"삼송건강생활","tel":"02-381-1009","addr":"경기도 고양시 덕양구 신원동 627-2번지","category":""},{"name":"수노래연습장","tel":"","addr":"경기도 고양시 덕양구 신원동 627-2번지","category":"레저업소 - 노 래 방"},{"name":"수노래연습장","tel":"02-371-0789","addr":"경기도 고양시 덕양구 신원동 627-2번지","category":""},{"name":"스며듬","tel":"02-371-3321","addr":"경기도 고양시 덕양구 신원동 627-2번지","category":"일반휴게음식 - 주점"},{"name":"스며듬","tel":"02-371-3321","addr":"경기도 고양시 덕양구 신원동 627-2번지","category":""},{"name":"신원cc스크린골프연습장","tel":"02-371-0753","addr":"경기도 고양시 덕양구 신원동 627-2번지","category":""},{"name":"신원cc스크린골프연습장","tel":"02-371-0753","addr":"경기도 고양시 덕양구 신원동 627-2번지","category":"레저업소 - 스크린골프"},{"name":"신원씨씨","tel":"02-371-0753","addr":"경기도 고양시 덕양구 신원동 627-2번지","category":""},{"name":"양꼬치샤브샤브","tel":"02-341-8868","addr":"경기도 고양시 덕양구 신원동 627-2번지","category":"일반휴게음식 - 중국식"},{"name":"양꼬치샤브샤브","tel":"02-341-8868","addr":"경기도 고양시 덕양구 신원동 627-2번지","category":""},{"name":"에스오에스(SOS)영양채우기","tel":"070-8899-0918","addr":"경기도 고양시 덕양구 신원동 627-2번지","category":"건강식품 - 기타건강식품"},{"name":"에스오에스(SOS)영양채우기","tel":"070-8899-0918","addr":"경기도 고양시 덕양구 신원동 627-2번지","category":""},{"name":"제임스치즈등갈비 삼송점","tel":"070-7609-9872","addr":"경기도 고양시 덕양구 신원동 627-2번지","category":"일반휴게음식 - 일반한식"},{"name":"제임스치즈등갈비 삼송점","tel":"070-7609-9872","addr":"경기도 고양시 덕양구 신원동 627-2번지","category":""},{"name":"주얼리","tel":"02-381-9318","addr":"경기도 고양시 덕양구 신원동 627-2번지","category":""},{"name":"착한제주도니","tel":"02-381-9981","addr":"경기도 고양시 덕양구 신원동 627-2번지","category":""},{"name":"커피팩토리","tel":"031-1588-1870","addr":"경기도 고양시 덕양구 신원동 627-2번지","category":""},{"name":"키즈 에스오에스(KIDS SOS)","tel":"070-8899-0918","addr":"경기도 고양시 덕양구 신원동 627-2번지","category":""},{"name":"해까득비빔밥&죽","tel":"02-381-5433","addr":"경기도 고양시 덕양구 신원동 627-2번지","category":"일반휴게음식 - 일반한식"}]},{"lat":"37.664133987","long":"126.89075812","items":[{"name":"j&j헤어(제이앤제이 헤어)","tel":"02-381-7690","addr":"경기도 고양시 덕양구 신원동 619-2번지","category":""},{"name":"j&j헤어(제이앤제이 헤어)","tel":"02-381-7690","addr":"경기도 고양시 덕양구 신원동 619-2번지","category":"보건위생 - 미용원"},{"name":"걸작떡볶이 삼송점","tel":"02-381-0300","addr":"경기도 고양시 덕양구 신원동 619-2번지","category":""},{"name":"구제","tel":"02-381-8194","addr":"경기도 고양시 덕양구 신원동 619-2번지","category":""},{"name":"더착한커피 신원점","tel":"070-4910-9976","addr":"경기도 고양시 덕양구 신원동 619-2번지","category":""},{"name":"바퀴달린그림책플러스미술학원","tel":"02-381-1050","addr":"경기도 고양시 덕양구 신원동 619-2번지","category":""},{"name":"바퀴달린그림책플러스미술학원","tel":"02-381-1050","addr":"경기도 고양시 덕양구 신원동 619-2번지","category":"학원 - 예·체능계학원"},{"name":"블루클럽 고양신원마을점","tel":"02-381-6089","addr":"경기도 고양시 덕양구 신원동 619-2번지","category":"보건위생 - 미용원"},{"name":"블루클럽 고양신원마을점","tel":"02-381-6089","addr":"경기도 고양시 덕양구 신원동 619-2번지","category":""},{"name":"스위티하우스","tel":"02-381-6400","addr":"경기도 고양시 덕양구 신원동 619-2번지","category":""},{"name":"스위티하우스","tel":"02-381-6400","addr":"경기도 고양시 덕양구 신원동 619-2번지","category":"유통업 영리 - 슈퍼마켓"},{"name":"시크릿네일","tel":"070-8945-3313","addr":"경기도 고양시 덕양구 신원동 619-2번지","category":"보건위생 - 피부미용실"},{"name":"아리따움 고양신원점","tel":"","addr":"경기도 고양시 덕양구 신원동 619-2번지","category":"보건위생 - 화장품"},{"name":"아발론 삼송어학원","tel":"02-371-0991","addr":"경기도 고양시 덕양구 신원동 619-2번지","category":"학원 - 외국어학원"},{"name":"아발론 삼송어학원","tel":"02-371-0991","addr":"경기도 고양시 덕양구 신원동 619-2번지","category":""},{"name":"아이조아책조아","tel":"02-371-3350","addr":"경기도 고양시 덕양구 신원동 619-2번지","category":""},{"name":"아이조아책조아","tel":"02-371-3350","addr":"경기도 고양시 덕양구 신원동 619-2번지","category":"서적문구 - 일반서적"},{"name":"용인대 한울태권도","tel":"02-381-8818","addr":"경기도 고양시 덕양구 신원동 619-2번지","category":"학원 - 예·체능계학원"},{"name":"용인대 한울태권도","tel":"02-381-8818","addr":"경기도 고양시 덕양구 신원동 619-2번지","category":""},{"name":"용인대한울태권도","tel":"02-381-8818","addr":"경기도 고양시 덕양구 신원동 619-2번지","category":"학원 - 예·체능계학원"},{"name":"이가곱창","tel":"02-371-3020","addr":"경기도 고양시 덕양구 신원동 619-2번지","category":"일반휴게음식 - 일반한식"},{"name":"이가곱창","tel":"02-371-3020","addr":"경기도 고양시 덕양구 신원동 619-2번지","category":""},{"name":"인 베스트수학학원","tel":"","addr":"경기도 고양시 덕양구 신원동 619-2번지","category":"학원 - 보습학원"},{"name":"인베스트 수학학원","tel":"02-381-7738","addr":"경기도 고양시 덕양구 신원동 619-2번지","category":""},{"name":"정현왕만두","tel":"","addr":"경기도 고양시 덕양구 신원동 619-2번지","category":"일반휴게음식 - 일반한식"},{"name":"좌명은한의원","tel":"02-371-1072","addr":"경기도 고양시 덕양구 신원동 619-2번지","category":"의원 - 한의원"},{"name":"좌명은한의원","tel":"02-371-1072","addr":"경기도 고양시 덕양구 신원동 619-2번지","category":""},{"name":"축산명가","tel":"02-381-9279","addr":"경기도 고양시 덕양구 신원동 619-2번지","category":"음료식품 - 정육점"},{"name":"축산명가","tel":"02-381-9279","addr":"경기도 고양시 덕양구 신원동 619-2번지","category":""},{"name":"춤추는 왕만두","tel":"","addr":"경기도 고양시 덕양구 신원동 619-2번지","category":""},{"name":"케이앤비 발레학원","tel":"02-381-1225","addr":"경기도 고양시 덕양구 신원동 619-2번지","category":"학원 - 예·체능계학원"},{"name":"케이앤비 발레학원","tel":"02-381-1225","addr":"경기도 고양시 덕양구 신원동 619-2번지","category":""},{"name":"퀼른음악학원","tel":"02-371-3060","addr":"경기도 고양시 덕양구 신원동 619-2번지","category":""},{"name":"퀼른음악학원","tel":"02-371-3060","addr":"경기도 고양시 덕양구 신원동 619-2번지","category":"학원 - 예·체능계학원"},{"name":"현헤어","tel":"02-381-7890","addr":"경기도 고양시 덕양구 신원동 619-2번지","category":""}]},{"lat":"37.66193446","long":"126.88953743","items":[{"name":"jennifer","tel":"02-381-4145","addr":"경기도 고양시 덕양구 신원동 640-3번지","category":"의류 - 정장"},{"name":"jennifer","tel":"02-381-4145","addr":"경기도 고양시 덕양구 신원동 640-3번지","category":""},{"name":"삼송미술집","tel":"02-381-9190","addr":"경기도 고양시 덕양구 신원동 640-3번지","category":""},{"name":"삼송미술집","tel":"02-381-9190","addr":"경기도 고양시 덕양구 신원동 640-3번지","category":"일반휴게음식 - 주점"}]},{"lat":"37.666523645","long":"126.88370477","items":[{"name":"sos정보기술 경기지사","tel":"","addr":"경기도 고양시 덕양구 신원동 595번지 신원마을7단지삼송동일스위트1차","category":""},{"name":"sos정보기술 경기지사","tel":"","addr":"경기도 고양시 덕양구 신원동 595번지 신원마을7단지삼송동일스위트1차","category":"사무통신 - 통신기기"},{"name":"고양시립송강어린이집[아이행복]","tel":"02-371-3811","addr":"경기도 고양시 덕양구 신원동 595번지 신원마을7단지삼송동일스위트1차","category":"학원 - 유아원"},{"name":"네일하우스","tel":"032-567-8226","addr":"경기도 고양시 덕양구 신원동 595번지 신원마을7단지삼송동일스위트1차","category":""},{"name":"네일하우스","tel":"032-567-8226","addr":"경기도 고양시 덕양구 신원동 595번지 신원마을7단지삼송동일스위트1차","category":"보건위생 - 화장품"},{"name":"동일삼송공인중개사사무소","tel":"02-381-2080","addr":"경기도 고양시 덕양구 신원동 595번지 신원마을7단지삼송동일스위트1차","category":"용역 서비스 - 부동산 중개·임대"},{"name":"러브로샤","tel":"070-2699-0807","addr":"경기도 고양시 덕양구 신원동 595번지 신원마을7단지삼송동일스위트1차","category":""},{"name":"러브로샤","tel":"070-2699-0807","addr":"경기도 고양시 덕양구 신원동 595번지 신원마을7단지삼송동일스위트1차","category":"의류 - 내의판매"},{"name":"솜담리틀성균관어린이집[아이행복]","tel":"02-381-9020","addr":"경기도 고양시 덕양구 신원동 595번지 신원마을7단지삼송동일스위트1차","category":"학원 - 유아원"},{"name":"씨유삼송신원7단지점","tel":"02-371-1151","addr":"경기도 고양시 덕양구 신원동 595번지 신원마을7단지삼송동일스위트1차","category":"유통업 영리 - 편 의 점"},{"name":"씨유삼송신원7단지점","tel":"02-371-1151","addr":"경기도 고양시 덕양구 신원동 595번지 신원마을7단지삼송동일스위트1차","category":""},{"name":"아소비","tel":"","addr":"경기도 고양시 덕양구 신원동 595번지 신원마을7단지삼송동일스위트1차","category":""},{"name":"아소비","tel":"","addr":"경기도 고양시 덕양구 신원동 595번지 신원마을7단지삼송동일스위트1차","category":"학원 - 기타 교육기관"},{"name":"재미솔솔어린이집[아이행복]","tel":"02-6012-0109","addr":"경기도 고양시 덕양구 신원동 595번지 신원마을7단지삼송동일스위트1차","category":"학원 - 유아원"},{"name":"진로마트","tel":"02-371-1151","addr":"경기도 고양시 덕양구 신원동 595번지 신원마을7단지삼송동일스위트1차","category":"유통업 영리 - 슈퍼마켓"},{"name":"진로마트","tel":"02-371-1151","addr":"경기도 고양시 덕양구 신원동 595번지 신원마을7단지삼송동일스위트1차","category":""},{"name":"크린토피아 고양삼송동일스위트1차점","tel":"02-381-8848","addr":"경기도 고양시 덕양구 신원동 595번지 신원마을7단지삼송동일스위트1차","category":"수리서비스 - 세탁소"},{"name":"크린토피아고양삼송동일스위트1차","tel":"02-381-8848","addr":"경기도 고양시 덕양구 신원동 595번지 신원마을7단지삼송동일스위트1차","category":""},{"name":"탑브레인아카데미","tel":"02-111-1111","addr":"경기도 고양시 덕양구 신원동 595번지 신원마을7단지삼송동일스위트1차","category":"학원 - 기타 교육기관"},{"name":"탑브레인아카데미","tel":"","addr":"경기도 고양시 덕양구 신원동 595번지 신원마을7단지삼송동일스위트1차","category":""}]},{"lat":"37.666648936","long":"126.89208041","items":[{"name":"가나테크","tel":"","addr":"경기도 고양시 덕양구 신원동 611번지 신원마을엘에이치2단지","category":""},{"name":"야호 스카이","tel":"","addr":"경기도 고양시 덕양구 신원동 611번지 신원마을엘에이치2단지","category":""}]},{"lat":"37.67113329","long":"126.88047834","items":[{"name":"가와지생태교육농원","tel":"","addr":"경기도 고양시 덕양구 신원동 238-4번지","category":"학원 - 기타 교육기관"}]},{"lat":"37.66377206","long":"126.88914929","items":[{"name":"가장맛있는족발 고양삼송점","tel":"02-371-1009","addr":"경기도 고양시 덕양구 신원동 625번지","category":"일반휴게음식 - 일반한식"},{"name":"가장맛있는족발 고양삼송점","tel":"02-371-1009","addr":"경기도 고양시 덕양구 신원동 625번지","category":""},{"name":"바른생활피트니스","tel":"02-371-1987","addr":"경기도 고양시 덕양구 신원동 625번지","category":""},{"name":"바른생활피트니스","tel":"02-371-1987","addr":"경기도 고양시 덕양구 신원동 625번지","category":"레저업소 - 헬스클럽"},{"name":"소풍가는돼지","tel":"","addr":"경기도 고양시 덕양구 신원동 625번지","category":"음료식품 - 정육점"},{"name":"스몰하노이신원점","tel":"031-946-9553","addr":"경기도 고양시 덕양구 신원동 625번지","category":""},{"name":"스몰하노이신원점","tel":"031-946-9553","addr":"경기도 고양시 덕양구 신원동","category":"일반휴게음식 - 일반한식"},{"name":"엉터리생고기삼송점","tel":"02-381-9737","addr":"경기도 고양시 덕양구 신원동 625번지","category":""},{"name":"엉터리생고기삼송점","tel":"02-381-9737","addr":"경기도 고양시 덕양구 신원동 625번지","category":"일반휴게음식 - 일반한식"},{"name":"연희서서갈비","tel":"031-111-1111","addr":"경기도 고양시 덕양구 신원동 625번지","category":"일반휴게음식 - 일반한식"},{"name":"육회본가 신원점","tel":"","addr":"경기도 고양시 덕양구 신원동 625번지","category":""},{"name":"이누 네꼬 petshop","tel":"02-371-2897","addr":"경기도 고양시 덕양구 신원동 625번지","category":""},{"name":"이누 네꼬 petshop","tel":"02-371-2897","addr":"경기도 고양시 덕양구 신원동 625번지","category":"문화.취미 - 애완동물"},{"name":"이누네꼬","tel":"","addr":"경기도 고양시 덕양구 신원동 625번지","category":"문화.취미 - 애완동물"},{"name":"이누네꼬","tel":"02-371-2897","addr":"경기도 고양시 덕양구 신원동 625번지","category":""},{"name":"토리광","tel":"070-3791-3464","addr":"경기도 고양시 덕양구 신원동 625번지","category":""},{"name":"토리광","tel":"070-3791-3464","addr":"경기도 고양시 덕양구 신원동 625번지","category":"일반휴게음식 - 일반한식"}]},{"lat":"37.678240109","long":"126.87875496","items":[{"name":"감나무집","tel":"02-381-4633","addr":"경기도 고양시 덕양구 신원동 297-2번지","category":""},{"name":"감나무집","tel":"02-381-4633","addr":"경기도 고양시 덕양구 신원동 297-2번지","category":"일반휴게음식 - 일반한식"}]},{"lat":"37.661240279","long":"126.88908515","items":[{"name":"개성설렁탕","tel":"02-381-7977","addr":"경기도 고양시 덕양구 신원동 650-1번지","category":""},{"name":"개성설렁탕","tel":"02-381-7977","addr":"경기도 고양시 덕양구 신원동 650-1번지","category":"일반휴게음식 - 일반한식"},{"name":"김가네설렁탕","tel":"02-381-2777","addr":"경기도 고양시 덕양구 신원동 650-1번지","category":""}]},{"lat":"37.663163718","long":"126.89371762","items":[{"name":"개성식품","tel":"031-964-1883","addr":"경기도 고양시 덕양구 신원동 613번지 신원마을엘에이치3단지","category":""}]},{"lat":"37.664121575","long":"126.88723337","items":[{"name":"건강과행복","tel":"070-8888-8603","addr":"경기도 고양시 덕양구 신원동 654번지 신원마을5단지우림필유아파트","category":"건강식품 - 기타건강식품"},{"name":"준기획","tel":"","addr":"경기도 고양시 덕양구 신원동 654번지 신원마을5단지우림필유아파트","category":"용역 서비스 - 종합용역"}]},{"lat":"37.663989595","long":"126.89050899","items":[{"name":"경희명인당 한의원","tel":"02-381-3075","addr":"경기도 고양시 덕양구 신원동 619-1번지","category":""},{"name":"경희명인당 한의원","tel":"02-381-3075","addr":"경기도 고양시 덕양구 신원동 619-1번지","category":"의원 - 한의원"},{"name":"고봉민김밥인 고양신원점","tel":"02-381-7773","addr":"경기도 고양시 덕양구 신원동 619-1번지","category":"일반휴게음식 - 일반한식"},{"name":"고봉민김밥인고양신원점","tel":"02-2651-2065","addr":"경기도 고양시 덕양구 신원동 619-1번지","category":""},{"name":"더프라임영수학원","tel":"","addr":"경기도 고양시 덕양구 신원동 619-1번지","category":"학원 - 보습학원"},{"name":"더프라임영수학원","tel":"","addr":"경기도 고양시 덕양구 신원동 619-1번지","category":""},{"name":"두레옛날통닭","tel":"","addr":"경기도 고양시 덕양구 신원동 619-1번지","category":""},{"name":"두레옛날통닭","tel":"031-111-1111","addr":"경기도 고양시 덕양구 신원동 619-1번지","category":"일반휴게음식 - 스넥"},{"name":"로봇앤코딩학원","tel":"031-355-7709","addr":"경기도 고양시 덕양구 신원동 619-1번지","category":"학원 - 컴퓨터학원"},{"name":"반월당고로케","tel":"02-381-1239","addr":"경기도 고양시 덕양구 신원동 619-1번지","category":"일반휴게음식 - 스넥"},{"name":"반월당고로케","tel":"02-381-1239","addr":"경기도 고양시 덕양구 신원동 619-1번지","category":""},{"name":"삼송캐슬부동산 공인중개사사무소","tel":"02-381-5589","addr":"경기도 고양시 덕양구 신원동 619-1번지","category":""},{"name":"스터디플래닛 멤버쉽라운지 고양삼송센타","tel":"02-381-6720","addr":"경기도 고양시 덕양구 신원동 619-1번지","category":"용역 서비스 - 사무서비스"},{"name":"스터디플래닛 멤버쉽라운지 고양삼송센타","tel":"02-381-6720","addr":"경기도 고양시 덕양구 신원동 619-1번지","category":""},{"name":"신원대게","tel":"","addr":"경기도 고양시 덕양구 신원동 619-1번지","category":""},{"name":"써브웨이 일산고양삼송점","tel":"02-381-9257","addr":"경기도 고양시 덕양구 신원동 619-1번지","category":""},{"name":"써브웨이 일산고양삼송점","tel":"02-381-9257","addr":"경기도 고양시 덕양구 신원동 619-1번지","category":"일반휴게음식 - 스넥"},{"name":"아바꼬 삼송신원점","tel":"031-381-1229","addr":"경기도 고양시 덕양구 신원동 619-1번지","category":""},{"name":"아바꼬 삼송신원점","tel":"031-381-1229","addr":"경기도 고양시 덕양구 신원동 619-1번지","category":"일반휴게음식 - 일식·회집"},{"name":"윈도우홈스토리","tel":"02-381-8445","addr":"경기도 고양시 덕양구 신원동 619-1번지","category":"직물 - 카페트,커튼,천막,지물"},{"name":"윈도우홈스토리","tel":"02-381-8445","addr":"경기도 고양시 덕양구 신원동 619-1번지","category":""},{"name":"유클리드 수학학원","tel":"02-382-6729","addr":"경기도 고양시 덕양구 신원동 619-1번지","category":"학원 - 보습학원"},{"name":"유클리드 수학학원","tel":"02-382-6729","addr":"경기도 고양시 덕양구 신원동 619-1번지","category":""},{"name":"이브무용학원","tel":"02-371-1555","addr":"경기도 고양시 덕양구 신원동 619-1번지","category":""},{"name":"이브무용학원","tel":"02-371-1555","addr":"경기도 고양시 덕양구 신원동 619-1번지","category":"학원 - 예·체능계학원"},{"name":"자이로토닉(R.)함께","tel":"02-381-8288","addr":"경기도 고양시 덕양구 신원동 619-1번지","category":"레저업소 - 헬스클럽"}]},{"lat":"37.664240508","long":"126.88909191","items":[{"name":"고다와리야","tel":"","addr":"경기도 고양시 덕양구 신원동 622-1번지","category":""},{"name":"그루스터디카페 고양신원센터","tel":"","addr":"경기도 고양시 덕양구 신원동 622-1번지","category":""},{"name":"그루스터디카페 고양신원센터","tel":"","addr":"경기도 고양시 덕양구 신원동 622-1번지","category":"용역 서비스 - 사무서비스"},{"name":"신원샤브","tel":"031-371-0071","addr":"경기도 고양시 덕양구 신원동 622-1번지","category":""},{"name":"우한판","tel":"02-381-2484","addr":"경기도 고양시 덕양구 신원동 622-1번지","category":""},{"name":"우한판","tel":"02-381-2484","addr":"경기도 고양시 덕양구 신원동 622-1번지","category":"일반휴게음식 - 일반한식"},{"name":"작은뜰","tel":"02-3667-2068","addr":"경기도 고양시 덕양구 신원동 622-1번지","category":"일반휴게음식 - 스넥"},{"name":"작은뜰","tel":"02-3667-2068","addr":"경기도 고양시 덕양구 신원동 622-1번지","category":""}]},{"lat":"37.659913258","long":"126.88642392","items":[{"name":"고양시립사랑어린이집[아이행복]","tel":"02-381-2019","addr":"경기도 고양시 덕양구 신원동 661번지 삼송동일스위트2차","category":"학원 - 유아원"},{"name":"과일내음","tel":"","addr":"경기도 고양시 덕양구 신원동 661번지 삼송동일스위트2차","category":"음료식품 - 농·축·수산품"},{"name":"씨유삼송동일2차점","tel":"02-371-3294","addr":"경기도 고양시 덕양구 신원동 661번지 삼송동일스위트2차","category":""},{"name":"씨유삼송동일2차점","tel":"02-371-3294","addr":"경기도 고양시 덕양구 신원동 661번지 삼송동일스위트2차","category":"유통업 영리 - 편 의 점"},{"name":"아이아이에듀(IIEDU)","tel":"","addr":"경기도 고양시 덕양구 신원동 661번지 삼송동일스위트2차","category":"학원 - 기타 교육기관"},{"name":"이든 어린이집[아이행복]","tel":"02-381-2220","addr":"경기도 고양시 덕양구 신원동 661번지 삼송동일스위트2차","category":"학원 - 유아원"},{"name":"크린토피아 삼송동일스위트2차점","tel":"","addr":"경기도 고양시 덕양구 신원동 661번지 삼송동일스위트2차","category":"수리서비스 - 세탁소"},{"name":"크린토피아 삼송동일스위트2차점","tel":"","addr":"경기도 고양시 덕양구 신원동 661번지 삼송동일스위트2차","category":""},{"name":"행복나무 어린이집[아이행복]","tel":"070-8785-7142","addr":"경기도 고양시 덕양구 신원동 661번지 삼송동일스위트2차","category":"학원 - 유아원"}]},{"lat":"37.66671534","long":"126.88619795","items":[{"name":"고양시립신원어린이집[아이행복]","tel":"02-381-6622","addr":"경기도 고양시 덕양구 신원동","category":"학원 - 유아원"}]},{"lat":"37.676186756","long":"126.8795632","items":[{"name":"곡릉천농원","tel":"02-371-0092","addr":"경기도 고양시 덕양구 신원동 269번지","category":""},{"name":"곡릉천농원","tel":"02-371-0092","addr":"경기도 고양시 덕양구 신원동 269번지","category":"일반휴게음식 - 일반한식"}]},{"lat":"37.662160125","long":"126.88997908","items":[{"name":"구이가","tel":"070-7383-0519","addr":"경기도 고양시 덕양구 신원동 626-2번지","category":""},{"name":"구이가","tel":"070-7383-0519","addr":"경기도 고양시 덕양구 신원동 626-2번지","category":"일반휴게음식 - 일반한식"},{"name":"김밥하우스","tel":"02-371-0490","addr":"경기도 고양시 덕양구 신원동 626-2번지","category":""},{"name":"김치부루스","tel":"","addr":"경기도 고양시 덕양구 신원동 626-2번지","category":"일반휴게음식 - 일반한식"},{"name":"노가리까자신원점","tel":"031-972-1328","addr":"경기도 고양시 덕양구 신원동 626-2번지","category":"일반휴게음식 - 주점"},{"name":"노가리까자신원점","tel":"031-972-1328","addr":"경기도 고양시 덕양구 신원동 626-2번지","category":""},{"name":"비빔밥&죽해까득","tel":"02-371-3393","addr":"경기도 고양시 덕양구 신원동 626-2번지","category":""},{"name":"오락쭈꾸미","tel":"070-4412-9587","addr":"경기도 고양시 덕양구 신원동 626-2번지","category":"일반휴게음식 - 일반한식"},{"name":"오락쭈꾸미","tel":"070-4412-9587","addr":"경기도 고양시 덕양구 신원동 626-2번지","category":""},{"name":"오첩반상","tel":"02-831-8939","addr":"경기도 고양시 덕양구 신원동 626-2번지","category":""},{"name":"오첩반상","tel":"02-831-8939","addr":"경기도 고양시 덕양구 신원동 626-2번지","category":"일반휴게음식 - 일반한식"},{"name":"울엄마삼계탕","tel":"02-381-9595","addr":"경기도 고양시 덕양구 신원동 626-2번지","category":""},{"name":"울엄마삼계탕","tel":"02-381-9595","addr":"경기도 고양시 덕양구 신원동 626-2번지","category":""},{"name":"젠틀맨","tel":"070-4193-0029","addr":"경기도 고양시 덕양구 신원동 626-2번지","category":""},{"name":"젠틀맨","tel":"070-4193-0029","addr":"경기도 고양시 덕양구 신원동 626-2번지","category":"보건위생 - 미용원"}]},{"lat":"37.663044109","long":"126.89106576","items":[{"name":"군산","tel":"","addr":"경기도 고양시 덕양구 신원동 635번지","category":"일반휴게음식 - 일반한식"},{"name":"막내딸집","tel":"02-994-7933","addr":"경기도 고양시 덕양구 신원동 635번지","category":""},{"name":"삼송수제비","tel":"02-381-3727","addr":"경기도 고양시 덕양구 신원동 635번지","category":"일반휴게음식 - 일반한식"},{"name":"씨유삼송유성점","tel":"02-381-0686","addr":"경기도 고양시 덕양구 신원동 635번지","category":"유통업 영리 - 편 의 점"},{"name":"씨유삼송유성점","tel":"02-381-0686","addr":"경기도 고양시 덕양구 신원동 635번지","category":""},{"name":"언니네다락","tel":"02-382-8862","addr":"경기도 고양시 덕양구 신원동 635번지","category":""},{"name":"제주오라방","tel":"02-371-0533","addr":"경기도 고양시 덕양구 신원동 635번지","category":""},{"name":"제주오라방","tel":"02-371-0533","addr":"경기도 고양시 덕양구 신원동 635번지","category":"일반휴게음식 - 일반한식"},{"name":"투썸플레이스 고양삼송신원점","tel":"02-2138-8766","addr":"경기도 고양시 덕양구 신원동 635번지","category":"일반휴게음식 - 서양음식"},{"name":"투썸플레이스 고양삼송신원점","tel":"02-2138-8766","addr":"경기도 고양시 덕양구 신원동 635번지","category":""}]},{"lat":"37.660636555","long":"126.88900674","items":[{"name":"귀뚜라미보일러 전문수리점","tel":"02-2681-0578","addr":"경기도 고양시 덕양구 신원동 651-4번지","category":""},{"name":"귀뚜라미보일러 전문수리점","tel":"02-2681-0578","addr":"경기도 고양시 덕양구 신원동 651-4번지","category":"수리서비스 - 기타수리서비스"}]},{"lat":"37.678852561","long":"126.87856123","items":[{"name":"그린블라썸","tel":"070-8836-3106","addr":"경기도 고양시 덕양구 신원동 298-5번지","category":""}]},{"lat":"37.673320487","long":"126.8784231","items":[{"name":"기림","tel":"02-381-2997","addr":"경기도 고양시 덕양구 신원동 251-1번지","category":"레져용품 - 스포츠·레져용품"}]},{"lat":"37.665153087","long":"126.89182196","items":[{"name":"김용식","tel":"","addr":"경기도 고양시 덕양구 신원동 55-1번지 203-701","category":""}]},{"lat":"37.664002078","long":"126.89421507","items":[{"name":"꼼지락꼼지락 핸드메이드","tel":"02-6020-3070","addr":"경기도 고양시 덕양구 신원동 613번지 신원마을엘에이치3단지","category":""},{"name":"인견사랑","tel":"02-352-9238","addr":"경기도 고양시 덕양구 신원동 613번지 신원마을엘에이치3단지","category":""},{"name":"지오북스","tel":"","addr":"경기도 고양시 덕양구 신원동 613번지 신원마을엘에이치3단지","category":"서적문구 - 출판 및 인쇄물"},{"name":"지오북스","tel":"","addr":"경기도 고양시 덕양구 신원동 613번지 신원마을엘에이치3단지","category":""}]},{"lat":"37.661241269","long":"126.89011647","items":[{"name":"꾸니","tel":"","addr":"경기도 고양시 덕양구 신원동 641-3번지","category":"일반휴게음식 - 일반한식"},{"name":"백반하우스","tel":"02-381-3738","addr":"경기도 고양시 덕양구 신원동 641-3번지","category":""},{"name":"백반하우스","tel":"02-381-3738","addr":"경기도 고양시 덕양구 신원동 641-3번지","category":"일반휴게음식 - 일반한식"},{"name":"쩡우네식품","tel":"","addr":"경기도 고양시 덕양구 신원동 641-3번지","category":"음료식품 - 기타음료식품"},{"name":"쩡우네식품","tel":"","addr":"경기도 고양시 덕양구 신원동 641-3번지","category":""}]},{"lat":"37.66118553","long":"126.88837125","items":[{"name":"꿈나라국제어학원","tel":"02-371-3398","addr":"경기도 고양시 덕양구 신원동 646-1번지","category":"학원 - 외국어학원"},{"name":"꿈나라국제어학원","tel":"02-371-3398","addr":"경기도 고양시 덕양구 신원동 646-1번지","category":""},{"name":"꿈나라국제어학원","tel":"02-371-3396","addr":"경기도 고양시 덕양구 신원동 646-1번지","category":""},{"name":"꿈나라유치원","tel":"02-371-3394","addr":"경기도 고양시 덕양구 신원동 646-1번지","category":"학원 - 유치원"},{"name":"꿈나라유치원[아이행복]","tel":"02-371-3394","addr":"경기도 고양시 덕양구 신원동 646-1번지","category":"학원 - 유치원"}]},{"lat":"37.676687459","long":"126.87594633","items":[{"name":"나눔워터","tel":"02-904-4798","addr":"경기도 고양시 덕양구 신원동 437-3번지","category":""},{"name":"나눔워터","tel":"02-904-4798","addr":"경기도 고양시 덕양구 신원동 437-3번지","category":"회원제형태 - 기타3"},{"name":"남양부품","tel":"031-963-4496","addr":"경기도 고양시 덕양구 신원동 437-3번지","category":""},{"name":"너멍골","tel":"02-381-8949","addr":"경기도 고양시 덕양구 신원동 437-3번지","category":"일반휴게음식 - 일반한식"},{"name":"너멍골","tel":"02-381-8949","addr":"경기도 고양시 덕양구 신원동 437-3번지","category":""},{"name":"너멍골상회","tel":"02-381-6600","addr":"경기도 고양시 덕양구 신원동 437-3번지","category":""},{"name":"너멍골상회","tel":"02-381-6600","addr":"경기도 고양시 덕양구 신원동 437-3번지","category":"음료식품 - 기타음료식품"},{"name":"동부상사","tel":"02-1599-2343","addr":"경기도 고양시 덕양구 신원동 437-3번지","category":""}]},{"lat":"37.682103983","long":"126.8775582","items":[{"name":"나산조경","tel":"031-381-6785","addr":"경기도 고양시 덕양구 신원동 303-16번지","category":""},{"name":"나산조경","tel":"031-381-6785","addr":"경기도 고양시 덕양구 신원동 303-16번지","category":"건축자재 - 인테리어전문"},{"name":"밴크래프트","tel":"031-976-9855","addr":"경기도 고양시 덕양구 신원동 303-16번지","category":""},{"name":"밴크래프트","tel":"031-976-9855","addr":"경기도 고양시 덕양구 신원동 303-16번지","category":"건축자재 - 목재·석재·철물"}]},{"lat":"37.676822543","long":"126.87588942","items":[{"name":"나이스우주","tel":"02-921-0421","addr":"경기도 고양시 덕양구 신원동 437-2번지","category":""},{"name":"나이스우주","tel":"02-921-0421","addr":"경기도 고양시 덕양구 신원동 437-2번지","category":"사무통신 - 통신기기"}]},{"lat":"37.662242238","long":"126.89105563","items":[{"name":"남양홈마트","tel":"02-381-5353","addr":"경기도 고양시 덕양구 신원동 637-1번지","category":""},{"name":"타고놀자","tel":"02-381-9500","addr":"경기도 고양시 덕양구 신원동 637-1번지","category":"레져용품 - 스포츠·레져용품"}]},{"lat":"37.665675391","long":"126.89154917","items":[{"name":"남일클럽","tel":"","addr":"경기도 고양시 덕양구 신원동 611번지 신원마을엘에이치2단지","category":""},{"name":"이지스터디","tel":"","addr":"경기도 고양시 덕양구 신원동 611번지 신원마을엘에이치2단지","category":"학원 - 기타 교육기관"},{"name":"이지스터디","tel":"","addr":"경기도 고양시 덕양구 신원동 611번지 신원마을엘에이치2단지","category":""}]},{"lat":"37.660743946","long":"126.88825859","items":[{"name":"네일쇼룸","tel":"031-371-0414","addr":"경기도 고양시 덕양구 신원동 644번지","category":"보건위생 - 피부미용실"},{"name":"네일쇼룸","tel":"031-371-0414","addr":"경기도 고양시 덕양구 신원동 644번지","category":""},{"name":"더끌림","tel":"032-000-0000","addr":"경기도 고양시 덕양구 신원동 644번지","category":"보건위생 - 미용원"},{"name":"더끌림","tel":"032-0-0000","addr":"경기도 고양시 덕양구 신원동 644번지","category":""}]},{"lat":"37.661294664","long":"126.88942507","items":[{"name":"노이드비","tel":"070-4790-5602","addr":"경기도 고양시 덕양구 신원동 649-11번지","category":"의류 - 정장"},{"name":"노이드비","tel":"070-4790-5602","addr":"경기도 고양시 덕양구 신원동 649-11번지","category":""}]},{"lat":"37.664322607","long":"126.89014581","items":[{"name":"다온","tel":"02-381-2498","addr":"경기도 고양시 덕양구 신원동 624-1번지","category":"보건위생 - 화장품"},{"name":"다온","tel":"02-381-2498","addr":"경기도 고양시 덕양구 신원동 624-1번지","category":""},{"name":"더돼지","tel":"02-381-5392","addr":"경기도 고양시 덕양구 신원동 624-1번지","category":"일반휴게음식 - 일반한식"},{"name":"더돼지","tel":"02-381-5392","addr":"경기도 고양시 덕양구 신원동 624-1번지","category":""},{"name":"라무진 삼송점","tel":"02-371-2772","addr":"경기도 고양시 덕양구 신원동 624-1번지","category":"일반휴게음식 - 일반한식"},{"name":"라무진 삼송점","tel":"02-371-2772","addr":"경기도 고양시 덕양구 신원동 624-1번지","category":""},{"name":"뮤즈","tel":"031-381-4036","addr":"경기도 고양시 덕양구 신원동 624-1번지","category":""},{"name":"방아깐통골뱅이","tel":"031-371-1225","addr":"경기도 고양시 덕양구 신원동 624-1번지","category":"일반휴게음식 - 일반한식"},{"name":"방아깐통골뱅이","tel":"031-371-1225","addr":"경기도 고양시 덕양구 신원동 624-1번지","category":""},{"name":"썰전","tel":"02-381-2627","addr":"경기도 고양시 덕양구 신원동 624-1번지","category":""},{"name":"썰전","tel":"02-381-2627","addr":"경기도 고양시 덕양구 신원동 624-1번지","category":""},{"name":"썰전포차","tel":"02-381-2627","addr":"경기도 고양시 덕양구 신원동 624-1번지","category":"일반휴게음식 - 일반한식"},{"name":"얼쑤노래연습장","tel":"02-381-4036","addr":"경기도 고양시 덕양구 신원동 624-1번지","category":"레저업소 - 노 래 방"},{"name":"얼쑤노래연습장","tel":"02-381-4036","addr":"경기도 고양시 덕양구 신원동 624-1번지","category":""},{"name":"용범이네인계동껍데기삼송점","tel":"","addr":"경기도 고양시 덕양구 신원동 624-1번지","category":"일반휴게음식 - 일반한식"},{"name":"전설의치킨","tel":"031-111-1111","addr":"경기도 고양시 덕양구 신원동 624-1번지","category":""},{"name":"참치어록","tel":"02-336-3742","addr":"경기도 고양시 덕양구 신원동 624-1번지","category":"일반휴게음식 - 일반한식"},{"name":"참치어록","tel":"02-336-3742","addr":"경기도 고양시 덕양구 신원동 624-1번지","category":""}]},{"lat":"37.664452069","long":"126.89368173","items":[{"name":"다츠(DOTS)","tel":"","addr":"경기도 고양시 덕양구 신원동 613번지 신원마을엘에이치3단지","category":"건축자재 - 기타건축자재"},{"name":"프로틴팅","tel":"031-969-8247","addr":"경기도 고양시 덕양구 신원동 613번지 신원마을엘에이치3단지","category":""},{"name":"프로틴팅","tel":"031-969-8247","addr":"경기도 고양시 덕양구 신원동 613번지 신원마을엘에이치3단지","category":"자동차정비 유지 - 카인테리어"}]},{"lat":"37.661691035","long":"126.8893678","items":[{"name":"단미곡간","tel":"031-978-1211","addr":"경기도 고양시 덕양구 신원동 648-5번지","category":""},{"name":"소소컴퍼니","tel":"","addr":"경기도 고양시 덕양구 신원동 648-5번지","category":""},{"name":"에이치룸","tel":"","addr":"경기도 고양시 덕양구 신원동 648-5번지","category":"의류 - 정장"},{"name":"에이치룸(H room)","tel":"","addr":"경기도 고양시 덕양구 신원동 648-5번지","category":""},{"name":"해피해피츄","tel":"070-7818-9072","addr":"경기도 고양시 덕양구 신원동 648-5번지","category":""},{"name":"해피해피츄","tel":"070-7818-9072","addr":"경기도 고양시 덕양구 신원동 648-5번지","category":"신변잡화 - 기타잡화"}]},{"lat":"37.660969001","long":"126.88806558","items":[{"name":"달고오묘","tel":"","addr":"경기도 고양시 덕양구 신원동 645-4번지","category":"일반휴게음식 - 서양음식"},{"name":"달고오묘","tel":"","addr":"경기도 고양시 덕양구 신원동 645-4번지","category":""},{"name":"오늘한잔","tel":"031-111-1111","addr":"경기도 고양시 덕양구 신원동 645-4번지","category":"일반휴게음식 - 일반한식"}]},{"lat":"37.664827624","long":"126.89064374","items":[{"name":"달로하","tel":"031-0-0000","addr":"경기도 고양시 덕양구 신원동 618-1번지","category":""},{"name":"마지살롱","tel":"02-371-2470","addr":"경기도 고양시 덕양구 신원동 618-1번지","category":"보건위생 - 피부미용실"},{"name":"물들기이야기극장 (삼송점)","tel":"031-0-0000","addr":"경기도 고양시 덕양구 신원동 618-1번지","category":""},{"name":"물들기이야기극장 (삼송점)","tel":"031-000-0000","addr":"경기도 고양시 덕양구 신원동 618-1번지","category":"문화.취미 - 티켓"},{"name":"삼송루체테 영어학원","tel":"02-2088-2525","addr":"경기도 고양시 덕양구 신원동 618-1번지","category":"학원 - 외국어학원"},{"name":"삼송상상삼점칠학원","tel":"02-381-3700","addr":"경기도 고양시 덕양구 신원동 618-1번지","category":""},{"name":"송여사네 맛있는 집","tel":"02-381-8937","addr":"경기도 고양시 덕양구 신원동 618-1번지","category":""},{"name":"스카이","tel":"02-371-0439","addr":"경기도 고양시 덕양구 신원동 618-1번지","category":""},{"name":"오브유 스튜디오","tel":"","addr":"경기도 고양시 덕양구 신원동 618-1번지","category":""},{"name":"오브유 스튜디오","tel":"","addr":"경기도 고양시 덕양구 신원동 618-1번지","category":"광학제품 - 사진관"},{"name":"이봄메디","tel":"02-381-3644","addr":"경기도 고양시 덕양구 신원동 618-1번지","category":"보건위생 - 의료용품"},{"name":"전형주막","tel":"031-473-9107","addr":"경기도 고양시 덕양구 신원동 618-1번지","category":""},{"name":"전형주막","tel":"031-473-9107","addr":"경기도 고양시 덕양구 신원동 618-1번지","category":"일반휴게음식 - 일반한식"},{"name":"제주킹대패1900/주식회사 세라이앤에프","tel":"070-7766-3392","addr":"경기도 고양시 덕양구 신원동 618-1번지","category":"일반휴게음식 - 일반한식"},{"name":"플레이","tel":"","addr":"경기도 고양시 덕양구 신원동 618-1번지","category":""},{"name":"플레이","tel":"","addr":"경기도 고양시 덕양구 신원동 618-1번지","category":""}]},{"lat":"37.661572106","long":"126.88750932","items":[{"name":"대산","tel":"02-381-0572","addr":"경기도 고양시 덕양구 신원동 638번지","category":""},{"name":"대산","tel":"02-381-0572","addr":"경기도 고양시 덕양구 신원동 638번지","category":"직물 - 침구·수예점"},{"name":"모리아트","tel":"031-0-0000","addr":"경기도 고양시 덕양구 신원동 638번지","category":""}]},{"lat":"37.683823819","long":"126.87661436","items":[{"name":"대원","tel":"031-962-2986","addr":"경기도 고양시 덕양구 신원동 332-5","category":""}]},{"lat":"37.661773024","long":"126.89030834","items":[{"name":"더테라스앤펍","tel":"02-381-3812","addr":"경기도 고양시 덕양구 신원동 633번지","category":""},{"name":"더테라스앤펍","tel":"02-381-3812","addr":"경기도 고양시 덕양구 신원동 633번지","category":"일반휴게음식 - 서양음식"},{"name":"미 디자인 리하우스","tel":"031-967-9515","addr":"경기도 고양시 덕양구 신원동 633번지","category":"건축자재 - 인테리어전문"},{"name":"이미지랩","tel":"02-381-8552","addr":"경기도 고양시 덕양구 신원동 633번지","category":"보건위생 - 피부미용실"},{"name":"키친633(kitchen 633)","tel":"02-8245-0622","addr":"경기도 고양시 덕양구 신원동 633번지","category":""},{"name":"키친633(kitchen 633)","tel":"02-8245-0622","addr":"경기도 고양시 덕양구 신원동 633번지","category":"일반휴게음식 - 서양음식"},{"name":"하이런","tel":"031-0-0000","addr":"경기도 고양시 덕양구 신원동 633번지","category":""},{"name":"하이런","tel":"","addr":"경기도 고양시 덕양구 신원동 633번지","category":"레저업소 - 당 구 장"},{"name":"황제짬뽕","tel":"031-381-7825","addr":"경기도 고양시 덕양구 신원동 633번지","category":"일반휴게음식 - 중국식"},{"name":"황제짬뽕","tel":"031-381-7825","addr":"경기도 고양시 덕양구 신원동 633번지","category":""}]},{"lat":"37.660906362","long":"126.88850767","items":[{"name":"델리지오소","tel":"02-381-8583","addr":"경기도 고양시 덕양구 신원동 651번지","category":""},{"name":"델리지오소","tel":"02-381-8583","addr":"경기도 고양시 덕양구 신원동 651번지","category":"일반휴게음식 - 서양음식"}]},{"lat":"37.661050999","long":"126.88900611","items":[{"name":"도도도","tel":"02-6448-0744","addr":"경기도 고양시 덕양구 신원동 650-11번지","category":""},{"name":"도도도","tel":"02-6448-0744","addr":"경기도 고양시 덕양구 신원동 650-11번지","category":"의류 - 정장"}]},{"lat":"37.663663429","long":"126.88861678","items":[{"name":"도도텐","tel":"02-381-4416","addr":"경기도 고양시 덕양구 신원동 621-1번지","category":"일반휴게음식 - 서양음식"},{"name":"도도텐","tel":"02-381-4416","addr":"경기도 고양시 덕양구 신원동 621-1번지","category":""},{"name":"맘스터치 신원마을점","tel":"02-371-3202","addr":"경기도 고양시 덕양구 신원동 621-1번지","category":"일반휴게음식 - 서양음식"},{"name":"맘스터치(신원마을점)","tel":"02-371-3202","addr":"경기도 고양시 덕양구 신원동 621-1번지","category":""},{"name":"브레드코코아미","tel":"02-381-0415","addr":"경기도 고양시 덕양구 신원동 621-1번지","category":""},{"name":"브레드코코아미","tel":"02-381-0415","addr":"경기도 고양시 덕양구 신원동 621-1번지","category":"음료식품 - 제과점"},{"name":"삼송중국어교습소","tel":"02-371-2278","addr":"경기도 고양시 덕양구 신원동 621-1번지","category":""},{"name":"상상리움얼리러닝익스피리언스 학원","tel":"","addr":"경기도 고양시 덕양구 신원동 621-1번지","category":"학원 - 보습학원"},{"name":"소굴 삼송점","tel":"02-381-9949","addr":"경기도 고양시 덕양구 신원동 621-1번지","category":"일반휴게음식 - 주점"},{"name":"소굴 삼송점","tel":"02-381-9949","addr":"경기도 고양시 덕양구 신원동 621-1번지","category":""},{"name":"아딸삼송점","tel":"02-381-6253","addr":"경기도 고양시 덕양구 신원동 621-1번지","category":""},{"name":"에꼴노르말음악학원","tel":"02-371-0282","addr":"경기도 고양시 덕양구 신원동 621-1번지","category":""},{"name":"에꼴노르말음악학원","tel":"02-371-0282","addr":"경기도 고양시 덕양구 신원동 621-1번지","category":"학원 - 예·체능계학원"},{"name":"엠티에이태권도(MTA태권도)","tel":"02-381-9998","addr":"경기도 고양시 덕양구 신원동 621-1번지","category":""},{"name":"웰비스","tel":"02-381-6656","addr":"경기도 고양시 덕양구 신원동 621-1번지","category":""},{"name":"웰비스","tel":"02-381-6656","addr":"경기도 고양시 덕양구 신원동 621-1번지","category":"보건위생 - 화장품"},{"name":"웰비스풋클럽","tel":"02-381-6656","addr":"경기도 고양시 덕양구 신원동 621-1번지","category":""},{"name":"채움교육학원","tel":"02-381-1135","addr":"경기도 고양시 덕양구 신원동 621-1번지","category":""},{"name":"채움교육학원","tel":"031-381-1135","addr":"경기도 고양시 덕양구 신원동 621-1번지","category":""},{"name":"케이로고스수학학원","tel":"02-371-1511","addr":"경기도 고양시 덕양구 신원동 621-1번지","category":"학원 - 보습학원"},{"name":"케이로고스수학학원","tel":"02-371-1511","addr":"경기도 고양시 덕양구 신원동 621-1번지","category":""},{"name":"토즈멤버십라운지 신원센터","tel":"02-381-5111","addr":"경기도 고양시 덕양구 신원동 621-1번지","category":""},{"name":"토즈스터디센터 신원독서실","tel":"02-381-5111","addr":"경기도 고양시 덕양구 신원동 621-1번지","category":""},{"name":"토즈스터디센터 신원독서실","tel":"02-381-5111","addr":"경기도 고양시 덕양구 신원동 621-1번지","category":""},{"name":"토즈스터디센터 신원독서실","tel":"02-381-5111","addr":"경기도 고양시 덕양구 신원동 621-1번지","category":"학원 - 독서실"},{"name":"토즈스터디센터 신원센터","tel":"02-381-5111","addr":"경기도 고양시 덕양구 신원동 621-1번지","category":"용역 서비스 - 사무서비스"},{"name":"토즈스터디센터 신원센터","tel":"02-381-5111","addr":"경기도 고양시 덕양구 신원동 621-1번지","category":""},{"name":"포유리폼","tel":"02-371-2448","addr":"경기도 고양시 덕양구 신원동 621-1번지","category":""},{"name":"필라테스포유","tel":"","addr":"경기도 고양시 덕양구 신원동 621-1번지","category":""},{"name":"필라테스포유","tel":"","addr":"경기도 고양시 덕양구 신원동 621-1번지","category":"레저업소 - 헬스클럽"},{"name":"한수위학원","tel":"031-381-1135","addr":"경기도 고양시 덕양구 신원동 621-1번지","category":"학원 - 보습학원"},{"name":"행복한 경희대 멘토 태권도장","tel":"02-381-9998","addr":"경기도 고양시 덕양구 신원동 621-1번지","category":""},{"name":"행복한 경희대 멘토 태권도장","tel":"02-381-9998","addr":"경기도 고양시 덕양구 신원동 621-1번지","category":"학원 - 예·체능계학원"}]},{"lat":"37.66090815","long":"126.89036631","items":[{"name":"동해안저도어장","tel":"02-381-6111","addr":"경기도 고양시 덕양구 신원동 642-4번지","category":"일반휴게음식 - 일식·회집"},{"name":"동해안저도어장","tel":"02-381-6111","addr":"경기도 고양시 덕양구 신원동 642-4번지","category":""}]},{"lat":"37.661771158","long":"126.88837035","items":[{"name":"디빠빠키친","tel":"02-371-0740","addr":"경기도 고양시 덕양구 신원동 647번지","category":""},{"name":"디빠빠키친","tel":"02-371-0740","addr":"경기도 고양시 덕양구 신원동 647번지","category":""}]},{"lat":"37.661852432","long":"126.88856289","items":[{"name":"띵크메이","tel":"02-381-9380","addr":"경기도 고양시 덕양구 신원동 647-1번지","category":""},{"name":"빨간냄비","tel":"031-381-9877","addr":"경기도 고양시 덕양구 신원동 647-1번지","category":""},{"name":"순아반","tel":"031-000-0000","addr":"경기도 고양시 덕양구 신원동 647-1번지","category":"음료식품 - 기타음료식품"},{"name":"스무살,더하기","tel":"02-381-9380","addr":"경기도 고양시 덕양구 신원동 647-1번지","category":"의류 - 정장"},{"name":"짝비어포차","tel":"031-997-2960","addr":"경기도 고양시 덕양구 신원동 647-1번지","category":""}]},{"lat":"37.661186918","long":"126.88981056","items":[{"name":"라니&kint","tel":"02-381-5784","addr":"경기도 고양시 덕양구 신원동 649-4번지","category":""},{"name":"라니&kint","tel":"02-381-5784","addr":"경기도 고양시 덕양구 신원동 649-4번지","category":"수리서비스 - 세탁소"}]},{"lat":"37.675464351","long":"126.87801145","items":[{"name":"라이네쎄","tel":"031-381-3136","addr":"경기도 고양시 덕양구 신원동 278-2번지","category":""}]},{"lat":"37.663386153","long":"126.89072524","items":[{"name":"레디 바디","tel":"02-371-2684","addr":"경기도 고양시 덕양구 신원동 628번지","category":"레져용품 - 스포츠·레져용품"},{"name":"마마쿡","tel":"02-371-1700","addr":"경기도 고양시 덕양구 신원동 628번지","category":""},{"name":"바라보다안경","tel":"02-371-3700","addr":"경기도 고양시 덕양구 신원동 628번지","category":"보건위생 - 안경"},{"name":"바라보다안경","tel":"02-371-3700","addr":"경기도 고양시 덕양구 신원동 628번지","category":""},{"name":"살롱드보떼 원흥점","tel":"02-381-5999","addr":"경기도 고양시 덕양구 신원동 628번지","category":"보건위생 - 피부미용실"},{"name":"살롱드보떼 원흥점","tel":"02-381-5999","addr":"경기도 고양시 덕양구 신원동 628번지","category":""},{"name":"신의주순대와쭈꾸미","tel":"02-381-8905","addr":"경기도 고양시 덕양구 신원동 628번지","category":"일반휴게음식 - 일반한식"},{"name":"신의주순대와쭈꾸미","tel":"02-381-8905","addr":"경기도 고양시 덕양구 신원동 628번지","category":""},{"name":"언니네 사진관","tel":"070-997-9970","addr":"경기도 고양시 덕양구 신원동 628번지","category":"광학제품 - 사진관"},{"name":"에스","tel":"02-371-1999","addr":"경기도 고양시 덕양구 신원동 628번지","category":""},{"name":"에스","tel":"02-371-1999","addr":"경기도 고양시 덕양구 신원동 628번지","category":"보건위생 - 화장품"},{"name":"주식회사 제이에스드림 고양점","tel":"02-371-1700","addr":"경기도 고양시 덕양구 신원동 628번지","category":"음료식품 - 기타음료식품"}]},{"lat":"37.661936808","long":"126.89200809","items":[{"name":"레인보우 (Rainbow)","tel":"","addr":"경기도 고양시 덕양구 신원동 631번지","category":""},{"name":"레인보우 (Rainbow)","tel":"","addr":"경기도 고양시 덕양구 신원동 631번지","category":"자동차정비 유지 - 세차장"}]},{"lat":"37.663465403","long":"126.88880975","items":[{"name":"로이원케어헤어살롱","tel":"031-923-9200","addr":"경기도 고양시 덕양구 신원동 621-2번지","category":"보건위생 - 미용원"},{"name":"로이원케어헤어살롱","tel":"031-923-9200","addr":"경기도 고양시 덕양구 신원동 621-2번지","category":""},{"name":"맘스9단","tel":"02-381-9953","addr":"경기도 고양시 덕양구 신원동 621-2번지","category":""},{"name":"미래365소아청소년과","tel":"02-381-0365","addr":"경기도 고양시 덕양구 신원동 621-2번지","category":"건강식품 - 기타건강식품"},{"name":"미래365소아청소년과","tel":"02-381-0365","addr":"경기도 고양시 덕양구 신원동 621-2번지","category":""},{"name":"미래열린약국","tel":"02-371-1371","addr":"경기도 고양시 덕양구 신원동 621-2번지","category":""},{"name":"미래열린약국","tel":"02-371-1371","addr":"경기도 고양시 덕양구 신원동 621-2번지","category":"약국 - 약국"},{"name":"사라스시","tel":"031-1588-1000","addr":"경기도 고양시 덕양구 신원동 621-2번지","category":""},{"name":"사랑가득합기도","tel":"02-381-2660","addr":"경기도 고양시 덕양구 신원동 621-2번지","category":"학원 - 예·체능계학원"},{"name":"사랑가득합기도","tel":"02-381-2660","addr":"경기도 고양시 덕양구 신원동 621-2번지","category":""},{"name":"성모튼튼정형외과의원","tel":"02-381-6789","addr":"경기도 고양시 덕양구 신원동 621-2번지","category":""},{"name":"성모튼튼정형외과의원","tel":"02-381-6789","addr":"경기도 고양시 덕양구 신원동 621-2번지","category":"의원 - 의원"},{"name":"신원미래학원","tel":"","addr":"경기도 고양시 덕양구 신원동 621-2번지","category":"학원 - 보습학원"},{"name":"오와스시 삼송점","tel":"070-4268-7172","addr":"경기도 고양시 덕양구 신원동 621-2번지","category":""},{"name":"커피N수다","tel":"02-371-2009","addr":"경기도 고양시 덕양구 신원동 621-2번지","category":""},{"name":"포차천국삼송점","tel":"031-381-1090","addr":"경기도 고양시 덕양구 신원동 621-2번지","category":"일반휴게음식 - 주점"},{"name":"플레이소프트삼송센터영재코딩학원","tel":"02-381-6838","addr":"경기도 고양시 덕양구 신원동 621-2번지","category":"학원 - 컴퓨터학원"},{"name":"한별이네밥상","tel":"02-371-0832","addr":"경기도 고양시 덕양구 신원동 621-2번지","category":""}]},{"lat":"37.660744561","long":"126.88889325","items":[{"name":"루아봉봉","tel":"070-8028-1009","addr":"경기도 고양시 덕양구 신원동 651-3번지","category":""}]},{"lat":"37.664187278","long":"126.88995335","items":[{"name":"리얼펍","tel":"02-1599-7944","addr":"경기도 고양시 덕양구 신원동 624번지","category":""},{"name":"리얼펍","tel":"02-1599-7944","addr":"경기도 고양시 덕양구 신원동 624번지","category":"일반휴게음식 - 주점"},{"name":"명동칼국수샤브샤브삼송신원점","tel":"02-381-8450","addr":"경기도 고양시 덕양구 신원동 624번지","category":""},{"name":"명동칼국수샤브샤브삼송신원점","tel":"02-381-8450","addr":"경기도 고양시 덕양구 신원동 624번지","category":"일반휴게음식 - 일반한식"},{"name":"바른치킨 고양삼송신원점","tel":"02-381-7172","addr":"경기도 고양시 덕양구 신원동 624번지","category":""},{"name":"바른치킨 고양삼송신원점","tel":"02-381-7172","addr":"경기도 고양시 덕양구 신원동 624번지","category":"일반휴게음식 - 스넥"},{"name":"수철이네 왕새우튀김 신원점","tel":"02-381-9594","addr":"경기도 고양시 덕양구 신원동 624번지","category":"일반휴게음식 - 일반한식"},{"name":"수철이네 왕새우튀김 신원점","tel":"02-381-9594","addr":"경기도 고양시 덕양구 신원동 624번지","category":""},{"name":"언니반지","tel":"02-381-5142","addr":"경기도 고양시 덕양구 신원동 624번지","category":""},{"name":"언니반지","tel":"02-381-5142","addr":"경기도 고양시 덕양구 신원동 624번지","category":"신변잡화 - 귀금속"},{"name":"유막창집","tel":"02-381-0855","addr":"경기도 고양시 덕양구 신원동 624번지","category":""},{"name":"유막창집","tel":"02-381-0855","addr":"경기도 고양시 덕양구 신원동 624번지","category":"일반휴게음식 - 일반한식"},{"name":"이삭토스트고양삼송점","tel":"02-381-8920","addr":"경기도 고양시 덕양구 신원동 624번지","category":"일반휴게음식 - 서양음식"},{"name":"이삭토스트고양삼송점","tel":"02-381-8920","addr":"경기도 고양시 덕양구 신원동 624번지","category":""},{"name":"키키카페","tel":"02-371-1711","addr":"경기도 고양시 덕양구 신원동 624번지","category":""},{"name":"키키카페","tel":"02-371-1711","addr":"경기도 고양시 덕양구 신원동 624번지","category":"일반휴게음식 - 일반한식"},{"name":"타임헤어","tel":"031-381-7880","addr":"경기도 고양시 덕양구 신원동 624번지","category":"보건위생 - 미용원"},{"name":"타임헤어","tel":"031-381-7880","addr":"경기도 고양시 덕양구 신원동 624번지","category":""},{"name":"토모루 삼송신원점","tel":"","addr":"경기도 고양시 덕양구 신원동 624번지","category":""},{"name":"토모루 삼송신원점","tel":"000-000-0000","addr":"경기도 고양시 덕양구 신원동 624번지","category":"일반휴게음식 - 일식·회집"}]},{"lat":"37.664208029","long":"126.8928434","items":[{"name":"리치샵","tel":"070-8877-0469","addr":"경기도 고양시 덕양구 신원동 613번지 신원마을엘에이치3단지","category":"의류 - 내의판매"},{"name":"리치샵","tel":"070-8877-0469","addr":"경기도 고양시 덕양구 신원동 613번지 신원마을엘에이치3단지","category":""}]},{"lat":"37.661546367","long":"126.88883535","items":[{"name":"린","tel":"031-6834-1880","addr":"경기도 고양시 덕양구 신원동 647-4번지","category":""},{"name":"투어투게더(Two to)","tel":"","addr":"경기도 고양시 덕양구 신원동 647-4번지","category":"사무통신 - 기타 사무용품"},{"name":"투어투게더(Two to)","tel":"","addr":"경기도 고양시 덕양구 신원동 647-4번지","category":""}]},{"lat":"37.679239473","long":"126.87808447","items":[{"name":"마당갈비","tel":"02-371-1117","addr":"경기도 고양시 덕양구 신원동 209-1번지","category":"일반휴게음식 - 일반한식"},{"name":"마당갈비","tel":"02-371-1117","addr":"경기도 고양시 덕양구 신원동 209-1번지","category":""}]},{"lat":"37.66066331","long":"126.88872337","items":[{"name":"마에스트로카케어","tel":"02-371-0992","addr":"경기도 고양시 덕양구 신원동 651-8번지","category":"자동차정비 유지 - 카인테리어"},{"name":"마에스트로카케어","tel":"02-371-0992","addr":"경기도 고양시 덕양구 신원동 651-8번지","category":""}]},{"lat":"37.661159039","long":"126.88892661","items":[{"name":"마이247","tel":"02-371-2470","addr":"경기도 고양시 덕양구 신원동 650번지","category":""},{"name":"마이247","tel":"02-371-2470","addr":"경기도 고양시 덕양구 신원동 650번지","category":"의류 - 정장"},{"name":"씨유고양신원점","tel":"031-371-0686","addr":"경기도 고양시 덕양구 신원동 650번지","category":"유통업 영리 - 편 의 점"},{"name":"씨유고양신원점","tel":"031-371-0686","addr":"경기도 고양시 덕양구 신원동 650번지","category":""}]},{"lat":"37.662828059","long":"126.89125875","items":[{"name":"명륜진사갈비 신원삼송점","tel":"031-371-1192","addr":"경기도 고양시 덕양구 신원동 635-3번지","category":"일반휴게음식 - 일반한식"}]},{"lat":"37.660635929","long":"126.88836076","items":[{"name":"명품 세탁 빨래방","tel":"02-371-2771","addr":"경기도 고양시 덕양구 신원동 644-1번지","category":""},{"name":"명품 세탁 빨래방","tel":"02-371-2771","addr":"경기도 고양시 덕양구 신원동 644-1번지","category":"수리서비스 - 세탁소"}]},{"lat":"37.679127775","long":"126.86670339","items":[{"name":"모아패션","tel":"02-382-3737","addr":"경기도 고양시 덕양구 신원동 394-1","category":""}]},{"lat":"37.66233024","long":"126.88886816","items":[{"name":"무스앤피스","tel":"070-7793-0408","addr":"경기도 고양시 덕양구 신원동 639-3번지","category":"일반휴게음식 - 서양음식"},{"name":"무스앤피스","tel":"070-7793-0408","addr":"경기도 고양시 덕양구 신원동 639-3번지","category":""}]},{"lat":"37.661879779","long":"126.88889151","items":[{"name":"문라이트(Moon Light)","tel":"02-6369-8288","addr":"경기도 고양시 덕양구 신원동 648-9번지","category":"건축자재 - 조명기구"}]},{"lat":"37.665432545","long":"126.88278847","items":[{"name":"미담골","tel":"02-381-9238","addr":"경기도 고양시 덕양구 신원동 141-2번지","category":""},{"name":"미담골","tel":"02-381-9238","addr":"경기도 고양시 덕양구 신원동 141-2번지","category":"일반휴게음식 - 일반한식"},{"name":"미담골정육","tel":"02-381-9238","addr":"경기도 고양시 덕양구 신원동 141-2번지","category":""}]},{"lat":"37.663907445","long":"126.88939842","items":[{"name":"미스사이공","tel":"02-371-2420","addr":"경기도 고양시 덕양구 신원동 625-1번지","category":""},{"name":"빨간닭","tel":"02-371-1720","addr":"경기도 고양시 덕양구 신원동 625-1번지","category":""},{"name":"빽다방 고양삼송신원점","tel":"02-381-8929","addr":"경기도 고양시 덕양구 신원동 625-1번지","category":"일반휴게음식 - 서양음식"},{"name":"빽다방 고양삼송신원점","tel":"02-381-8929","addr":"경기도 고양시 덕양구 신원동 625-1번지","category":""},{"name":"소플러스 삼송점","tel":"02-371-2677","addr":"경기도 고양시 덕양구 신원동 625-1번지","category":""},{"name":"소플러스 삼송점","tel":"02-371-2677","addr":"경기도 고양시 덕양구 신원동 625-1번지","category":"일반휴게음식 - 일반한식"},{"name":"어가감자탕신원점","tel":"02-381-2779","addr":"경기도 고양시 덕양구 신원동 625-1번지","category":""},{"name":"어가감자탕신원점","tel":"02-381-2779","addr":"경기도 고양시 덕양구 신원동 625-1번지","category":"일반휴게음식 - 일반한식"},{"name":"엄마바라기","tel":"070-4085-5949","addr":"경기도 고양시 덕양구 신원동 625-1번지","category":"음료식품 - 기타음료식품"},{"name":"엄마바라기","tel":"070-4085-5949","addr":"경기도 고양시 덕양구 신원동 625-1번지","category":""},{"name":"여기는미장원","tel":"","addr":"경기도 고양시 덕양구 신원동 625-1번지","category":"보건위생 - 미용원"},{"name":"위로","tel":"031-371-0992","addr":"경기도 고양시 덕양구 신원동 625-1번지","category":"일반휴게음식 - 주점"},{"name":"위로","tel":"031-371-0992","addr":"경기도 고양시 덕양구 신원동 625-1번지","category":""},{"name":"지티에스 스포츠","tel":"02-381-5587","addr":"경기도 고양시 덕양구 신원동 625-1번지","category":"학원 - 예·체능계학원"},{"name":"쿠키헤어","tel":"070-8945-3313","addr":"경기도 고양시 덕양구 신원동 625-1번지","category":""},{"name":"탕수가맥","tel":"02-371-1720","addr":"경기도 고양시 덕양구 신원동 625-1번지","category":"일반휴게음식 - 중국식"},{"name":"행복한한잔","tel":"031-111-1111","addr":"경기도 고양시 덕양구 신원동 625-1번지","category":"일반휴게음식 - 일반한식"},{"name":"허브나라","tel":"02-381-5149","addr":"경기도 고양시 덕양구 신원동 625-1번지","category":""},{"name":"허브나라","tel":"031-381-5149","addr":"경기도 고양시 덕양구 신원동 625-1번지","category":""},{"name":"허브나라","tel":"031-381-5149","addr":"경기도 고양시 덕양구 신원동 625-1번지","category":"보건위생 - 화장품"}]},{"lat":"37.676462997","long":"126.87667218","items":[{"name":"미전표구","tel":"02-381-4868","addr":"경기도 고양시 덕양구 신원동 437-21번지","category":""},{"name":"미전표구","tel":"02-381-4868","addr":"경기도 고양시 덕양구 신원동 437-21번지","category":"문화.취미 - 화방·표구점"},{"name":"해밀건설중기","tel":"02-381-7904","addr":"경기도 고양시 덕양구 신원동 437-21번지","category":"기타 - 기계공구"},{"name":"해밀건설중기","tel":"02-381-7904","addr":"경기도 고양시 덕양구 신원동 437-21번지","category":""}]},{"lat":"37.66252202","long":"126.89156521","items":[{"name":"밀레피자","tel":"031-000-0000","addr":"경기도 고양시 덕양구 신원동 636번지","category":"일반휴게음식 - 서양음식"}]},{"lat":"37.662132476","long":"126.88933313","items":[{"name":"바른 미용실","tel":"02-381-5053","addr":"경기도 고양시 덕양구 신원동 640-1번지","category":"보건위생 - 미용원"},{"name":"제이블라썸(J BLOSSOM)","tel":"02-381-5053","addr":"경기도 고양시 덕양구 신원동 640-1번지","category":""},{"name":"크리스피파이","tel":"02-381-8290","addr":"경기도 고양시 덕양구 신원동 640-1번지","category":""}]},{"lat":"37.666324076","long":"126.89153687","items":[{"name":"바보스 신원점","tel":"031-371-9636","addr":"경기도 고양시 덕양구 신원동 611번지 신원마을엘에이치2단지","category":""},{"name":"삼송축산","tel":"02-956-8746","addr":"경기도 고양시 덕양구 신원동 611번지 신원마을엘에이치2단지","category":""},{"name":"서연헤어","tel":"02-381-9850","addr":"경기도 고양시 덕양구 신원동 611번지 신원마을엘에이치2단지","category":""},{"name":"서연헤어","tel":"02-381-9850","addr":"경기도 고양시 덕양구 신원동 611번지 신원마을엘에이치2단지","category":"보건위생 - 미용원"},{"name":"쏭쏭퓨전포차","tel":"02-371-9636","addr":"경기도 고양시 덕양구 신원동 611번지 신원마을엘에이치2단지","category":"일반휴게음식 - 일반한식"},{"name":"쏭쏭퓨전포차","tel":"02-371-9636","addr":"경기도 고양시 덕양구 신원동 611번지 신원마을엘에이치2단지","category":""},{"name":"씨유삼송신원2단지점","tel":"02-371-3337","addr":"경기도 고양시 덕양구 신원동 611번지 신원마을엘에이치2단지","category":"유통업 영리 - 편 의 점"},{"name":"영원영어교습소","tel":"02-371-0109","addr":"경기도 고양시 덕양구 신원동 611번지 신원마을엘에이치2단지","category":""},{"name":"영원영어교습소","tel":"02-371-0109","addr":"경기도 고양시 덕양구 신원동 611번지 신원마을엘에이치2단지","category":"학원 - 외국어학원"},{"name":"정.가이버열쇠","tel":"02-6401-6923","addr":"경기도 고양시 덕양구 신원동 611번지 신원마을엘에이치2단지","category":"건축자재 - 목재·석재·철물"},{"name":"정.가이버열쇠","tel":"02-6401-6923","addr":"경기도 고양시 덕양구 신원동 611번지 신원마을엘에이치2단지","category":""},{"name":"크린위드","tel":"02-371-3434","addr":"경기도 고양시 덕양구 신원동 611번지 신원마을엘에이치2단지","category":""},{"name":"크린토피아","tel":"02-381-9638","addr":"경기도 고양시 덕양구 신원동 611번지 신원마을엘에이치2단지","category":""},{"name":"크린토피아 신원마을점","tel":"02-381-9638","addr":"경기도 고양시 덕양구 신원동 611번지 신원마을엘에이치2단지","category":"수리서비스 - 세탁소"},{"name":"크린토피아 신원마을점","tel":"02-381-9638","addr":"경기도 고양시 덕양구 신원동 611번지 신원마을엘에이치2단지","category":""},{"name":"현음악교습소","tel":"02-381-8847","addr":"경기도 고양시 덕양구 신원동 611번지 신원마을엘에이치2단지","category":""},{"name":"현음악교습소","tel":"02-381-8847","addr":"경기도 고양시 덕양구 신원동 611번지 신원마을엘에이치2단지","category":"학원 - 예·체능계학원"},{"name":"힘찬효태권도장","tel":"02-371-0301","addr":"경기도 고양시 덕양구 신원동 611번지 신원마을엘에이치2단지","category":""},{"name":"힘찬효태권도장","tel":"02-371-0301","addr":"경기도 고양시 덕양구 신원동 611번지 신원마을엘에이치2단지","category":"학원 - 예·체능계학원"}]},{"lat":"37.661797746","long":"126.88791697","items":[{"name":"바빈스고양신원점","tel":"02-371-0266","addr":"경기도 고양시 덕양구 신원동 638-3번지","category":""},{"name":"베로키오커피","tel":"031-000-0000","addr":"경기도 고양시 덕양구 신원동 638-3번지","category":"일반휴게음식 - 서양음식"},{"name":"베로키오커피","tel":"031-0-0000","addr":"경기도 고양시 덕양구 신원동 638-3번지","category":""}]},{"lat":"37.661493323","long":"126.88988943","items":[{"name":"바울아저씨 삼송점","tel":"02-381-7952","addr":"경기도 고양시 덕양구 신원동 641-1번지","category":""},{"name":"바울아저씨 삼송점","tel":"02-381-7952","addr":"경기도 고양시 덕양구 신원동 641-1번지","category":"일반휴게음식 - 서양음식"}]},{"lat":"37.663629866","long":"126.89120088","items":[{"name":"배스킨라빈스(고양신원마을)","tel":"031-911-6937","addr":"경기도 고양시 덕양구 신원동 628-2번지","category":"음료식품 - 제과점"},{"name":"배스킨라빈스(고양신원마을)","tel":"031-911-6937","addr":"경기도 고양시 덕양구 신원동 628-2번지","category":""},{"name":"쏘렌토앳홈","tel":"02-381-8098","addr":"경기도 고양시 덕양구 신원동 628-2번지","category":""},{"name":"쏘렌토앳홈","tel":"02-381-8098","addr":"경기도 고양시 덕양구 신원동 628-2번지","category":"일반휴게음식 - 서양음식"},{"name":"어바웃","tel":"02-381-5585","addr":"경기도 고양시 덕양구 신원동 628-2번지","category":""},{"name":"어바웃","tel":"031-381-5585","addr":"경기도 고양시 덕양구 신원동 628-2번지","category":"레저업소 - 골프연습장"},{"name":"주식회사 우리컴퍼니","tel":"070-4135-8904","addr":"경기도 고양시 덕양구 신원동 628-2번지","category":"레저업소 - 헬스클럽"},{"name":"주식회사 우리컴퍼니","tel":"070-4135-8904","addr":"경기도 고양시 덕양구 신원동 628-2번지","category":""},{"name":"크리니끄드엠","tel":"02-381-8864","addr":"경기도 고양시 덕양구 신원동 628-2번지","category":""},{"name":"파리스짐","tel":"031-000-0000","addr":"경기도 고양시 덕양구 신원동 628-2번지","category":"레저업소 - 헬스클럽"},{"name":"파리스짐","tel":"031-0-0000","addr":"경기도 고양시 덕양구 신원동 628-2번지","category":""},{"name":"헤어살롱수","tel":"031-381-8864","addr":"경기도 고양시 덕양구 신원동 628-2번지","category":""},{"name":"헤어살롱수","tel":"031-381-8864","addr":"경기도 고양시 덕양구 신원동 628-2번지","category":"보건위생 - 미용원"}]},{"lat":"37.661933167","long":"126.8882001","items":[{"name":"버거307(삼송점)","tel":"031-371-3200","addr":"경기도 고양시 덕양구 신원동 638-5번지","category":""}]},{"lat":"37.66113225","long":"126.88917598","items":[{"name":"별미냉면","tel":"02-371-2693","addr":"경기도 고양시 덕양구 신원동 650-2번지","category":""},{"name":"별미냉면","tel":"02-371-2693","addr":"경기도 고양시 덕양구 신원동 650-2번지","category":"일반휴게음식 - 일반한식"},{"name":"별미냉면","tel":"02-371-2693","addr":"경기도 고양시 덕양구 신원동 650-2번지","category":""},{"name":"별미냉면","tel":"02-371-2693","addr":"경기도 고양시 덕양구 신원동 650-2번지","category":"일반휴게음식 - 일반한식"}]},{"lat":"37.667824655","long":"126.88734097","items":[{"name":"봉산실업","tel":"02-381-5852","addr":"경기도 고양시 덕양구 신원동","category":"건축자재 - 기타건축자재"}]},{"lat":"37.672241159","long":"126.88017048","items":[{"name":"부원산업","tel":"02-371-1232","addr":"경기도 고양시 덕양구 신원동 242-1번지","category":"기타 - 기계공구"},{"name":"부원산업","tel":"02-371-1232","addr":"경기도 고양시 덕양구 신원동 242-1번지","category":""}]},{"lat":"37.661384674","long":"126.88933426","items":[{"name":"부페식집밥","tel":"02-371-0678","addr":"경기도 고양시 덕양구 신원동 649번지","category":"일반휴게음식 - 일반한식"},{"name":"부페식집밥","tel":"02-371-0678","addr":"경기도 고양시 덕양구 신원동 649번지","category":""}]},{"lat":"37.676801002","long":"126.88109248","items":[{"name":"블루베리세상","tel":"02-382-1212","addr":"경기도 고양시 덕양구 신원동 265-32","category":""},{"name":"블루베리세상","tel":"02-382-1212","addr":"경기도 고양시 덕양구 신원동","category":"문화.취미 - 화원"}]},{"lat":"37.665225218","long":"126.89187852","items":[{"name":"비엣커(Vietkor)","tel":"","addr":"경기도 고양시 덕양구 신원동 611번지 신원마을엘에이치2단지","category":"신변잡화 - 가방"}]},{"lat":"37.663025161","long":"126.89009111","items":[{"name":"살롱드프롬 (삼송점)","tel":"02-381-9181","addr":"경기도 고양시 덕양구 신원동 627-1번지","category":"보건위생 - 미용원"},{"name":"살롱드프롬 (삼송점)","tel":"02-381-9181","addr":"경기도 고양시 덕양구 신원동 627-1번지","category":""},{"name":"얼큰이네","tel":"02-381-3952","addr":"경기도 고양시 덕양구 신원동 627-1번지","category":"일반휴게음식 - 일반한식"},{"name":"얼큰이네","tel":"02-381-3952","addr":"경기도 고양시 덕양구 신원동 627-1번지","category":""},{"name":"커피랑맥주랑","tel":"","addr":"경기도 고양시 덕양구 신원동 627-1번지","category":""},{"name":"커피프렌드","tel":"02-2039-0987","addr":"경기도 고양시 덕양구 신원동 627-1번지","category":"일반휴게음식 - 서양음식"},{"name":"한울","tel":"02-2088-2668","addr":"경기도 고양시 덕양구 신원동 627-1번지","category":""},{"name":"할리스커피","tel":"02-381-2840","addr":"경기도 고양시 덕양구 신원동 627-1번지","category":""},{"name":"행운복권","tel":"02-2039-0987","addr":"경기도 고양시 덕양구 신원동 627-1번지","category":"음료식품 - 기타음료식품"}]},{"lat":"37.66021321","long":"126.88912072","items":[{"name":"삼송갤러리","tel":"070-7469-5050","addr":"경기도 고양시 덕양구 신원동 643-2번지","category":"가구 - 일반가구"}]},{"lat":"37.661690762","long":"126.88908447","items":[{"name":"삼송찻집","tel":"02-381-9044","addr":"경기도 고양시 덕양구 신원동 648-7번지","category":""}]},{"lat":"37.663857316","long":"126.89355793","items":[{"name":"선우당","tel":"031-901-6774","addr":"경기도 고양시 덕양구 신원동 613번지 신원마을엘에이치3단지","category":"음료식품 - 기타음료식품"},{"name":"선우당","tel":"031-901-6774","addr":"경기도 고양시 덕양구 신원동 613번지 신원마을엘에이치3단지","category":""},{"name":"정다운미용실","tel":"02-6015-2950","addr":"경기도 고양시 덕양구 신원동 613번지 신원마을엘에이치3단지","category":"보건위생 - 미용원"},{"name":"정다운미용실","tel":"02-6015-2950","addr":"경기도 고양시 덕양구 신원동 613번지 신원마을엘에이치3단지","category":""}]},{"lat":"37.662659188","long":"126.89372969","items":[{"name":"세일유통","tel":"031-381-4590","addr":"경기도 고양시 덕양구 신원동","category":"의류 - 정장"},{"name":"세일유통","tel":"031-381-4590","addr":"경기도 고양시 덕양구 신원동 4-2번지","category":""}]},{"lat":"37.679518798","long":"126.86986541","items":[{"name":"소나무건축사사무소","tel":"02-371-1118","addr":"경기도 고양시 덕양구 신원동 387-1번지","category":""}]},{"lat":"37.662941409","long":"126.8873372","items":[{"name":"솔숲어린이집[아이행복]","tel":"02-381-1279","addr":"경기도 고양시 덕양구 신원동 653번지 삼송힐스테이트","category":"학원 - 유아원"},{"name":"송희자 리듬체조 아카데미","tel":"070-8945-3313","addr":"경기도 고양시 덕양구 신원동 653번지 삼송힐스테이트","category":"학원 - 예·체능계학원"},{"name":"한우세상","tel":"02-381-6555","addr":"경기도 고양시 덕양구 신원동 653번지 삼송힐스테이트","category":""},{"name":"한우세상","tel":"02-381-6555","addr":"경기도 고양시 덕양구 신원동 653번지 삼송힐스테이트","category":"음료식품 - 정육점"}]},{"lat":"37.660879597","long":"126.88877971","items":[{"name":"슈프림이매진","tel":"031-1111-1111","addr":"경기도 고양시 덕양구 신원동 651-2번지","category":""}]},{"lat":"37.661711193","long":"126.89161176","items":[{"name":"스타 셀프 세차장","tel":"","addr":"경기도 고양시 덕양구 신원동 632-2번지","category":"자동차정비 유지 - 세차장"},{"name":"스타 셀프 세차장","tel":"","addr":"경기도 고양시 덕양구 신원동 632-2번지","category":""},{"name":"스타셀프커피숍","tel":"","addr":"경기도 고양시 덕양구 신원동 632-2번지","category":"일반휴게음식 - 서양음식"}]},{"lat":"37.660519538","long":"126.88912025","items":[{"name":"스튜디오 호제","tel":"031-0-0000","addr":"경기도 고양시 덕양구 신원동 651-5번지","category":""},{"name":"스튜디오 호제","tel":"031-0000-0000","addr":"경기도 고양시 덕양구 신원동 651-5번지","category":"광학제품 - 사진관"}]},{"lat":"37.671549648","long":"126.88233656","items":[{"name":"신덕양화물","tel":"031-969-2482","addr":"경기도 고양시 덕양구 신원동 262번지","category":"용역 서비스 - 사무서비스"},{"name":"신덕양화물","tel":"031-969-2482","addr":"경기도 고양시 덕양구 신원동 262번지","category":""}]},{"lat":"37.666134498","long":"126.89114046","items":[{"name":"신원공조","tel":"","addr":"경기도 고양시 덕양구 신원동 611번지 신원마을엘에이치2단지","category":"용역 서비스 - 기타용역서비스"},{"name":"신화전자","tel":"031-963-4982","addr":"경기도 고양시 덕양구 신원동","category":"전기제품 - 가전제품"},{"name":"신화전자","tel":"031-963-4982","addr":"경기도 고양시 덕양구 신원동 611번지 신원마을엘에이치2단지","category":""}]},{"lat":"37.661878977","long":"126.88806418","items":[{"name":"신원동물메디컬센타","tel":"02-381-0507","addr":"경기도 고양시 덕양구 신원동 638-4번지","category":""},{"name":"신원동물메디컬센타","tel":"02-381-0507","addr":"경기도 고양시 덕양구 신원동 638-4번지","category":"기타의료기관 - 동물병원"},{"name":"신원애견","tel":"02-381-0507","addr":"경기도 고양시 덕양구 신원동 638-4번지","category":""}]},{"lat":"37.664183839","long":"126.88641725","items":[{"name":"신원세탁소","tel":"031-381-3053","addr":"경기도 고양시 덕양구 신원동 654번지 신원마을5단지우림필유아파트","category":"수리서비스 - 세탁소"},{"name":"우리동네1퍼센트수제간식공방","tel":"02-1111-1111","addr":"경기도 고양시 덕양구 신원동 654번지 신원마을5단지우림필유아파트","category":"음료식품 - 제과점"}]},{"lat":"37.668266483","long":"126.88770298","items":[{"name":"신원전파사","tel":"031-387-3931","addr":"경기도 고양시 덕양구 신원동 107동 14호","category":""}]},{"lat":"37.667329479","long":"126.88770443","items":[{"name":"신원중학교","tel":"02-381-0992","addr":"경기도 고양시 덕양구 신원동 605번지","category":"학원 - 초중고교육기관"}]},{"lat":"37.667633831","long":"126.88569781","items":[{"name":"신원초등학교","tel":"02-371-0205","addr":"경기도 고양시 덕양구 신원동 601번지","category":"학원 - 초중고교육기관"},{"name":"신원초등학교병설유치원[아이행복]","tel":"02-381-1787","addr":"경기도 고양시 덕양구 신원동 601번지","category":"학원 - 유치원"}]},{"lat":"37.662158761","long":"126.88856242","items":[{"name":"쌈밥공주 족발왕자","tel":"02-1111-1111","addr":"경기도 고양시 덕양구 신원동 639-1번지","category":"일반휴게음식 - 일반한식"},{"name":"쌈밥공주 족발왕자","tel":"02-381-7733","addr":"경기도 고양시 덕양구 신원동 639-1번지","category":""},{"name":"허브관세무역컨설팅","tel":"","addr":"경기도 고양시 덕양구 신원동 639-1번지","category":"레져용품 - 스포츠·레져용품"}]},{"lat":"37.661133262","long":"126.89022997","items":[{"name":"아더스랩","tel":"02-381-8200","addr":"경기도 고양시 덕양구 신원동 641-4번지","category":"레져용품 - 스포츠·레져용품"},{"name":"아더스랩","tel":"02-381-8200","addr":"경기도 고양시 덕양구 신원동 641-4번지","category":""}]},{"lat":"37.66196601","long":"126.88495872","items":[{"name":"아트 스튜디오(Art Studio)","tel":"","addr":"경기도 고양시 덕양구 신원동 658번지 신원마을호반베르디움9단지","category":"학원 - 기타 교육기관"}]},{"lat":"37.661716527","long":"126.8877811","items":[{"name":"앞선동물병원","tel":"02-381-0075","addr":"경기도 고양시 덕양구 신원동","category":"기타의료기관 - 동물병원"},{"name":"앞선동물병원","tel":"02-381-0075","addr":"경기도 고양시 덕양구 신원동 638-2번지","category":""}]},{"lat":"37.678518822","long":"126.87819904","items":[{"name":"양촌","tel":"02-381-7789","addr":"경기도 고양시 덕양구 신원동 290-1번지","category":""}]},{"lat":"37.661385316","long":"126.89000292","items":[{"name":"여우(女友)","tel":"070-9449-7575","addr":"경기도 고양시 덕양구 신원동 641-2번지","category":""},{"name":"여우뷰티","tel":"031-747-8874","addr":"경기도 고양시 덕양구 신원동 641-2번지","category":"보건위생 - 피부미용실"},{"name":"여우뷰티","tel":"031-111-1111","addr":"경기도 고양시 덕양구 신원동 641-2번지","category":"보건위생 - 피부미용실"},{"name":"여우뷰티","tel":"031-111-1111","addr":"경기도 고양시 덕양구 신원동 641-2번지","category":""},{"name":"탓푸리","tel":"02-371-1284","addr":"경기도 고양시 덕양구 신원동 641-2번지","category":""},{"name":"탓푸리","tel":"02-990-1560","addr":"경기도 고양시 덕양구 신원동 641-2번지","category":"일반휴게음식 - 일식·회집"},{"name":"탓푸리","tel":"02-990-1560","addr":"경기도 고양시 덕양구 신원동 641-2번지","category":""}]},{"lat":"37.677430984","long":"126.88042265","items":[{"name":"영진도서","tel":"031-949-5507","addr":"경기도 고양시 덕양구 신원동 265-10번지","category":""},{"name":"영진도서","tel":"031-949-5507","addr":"경기도 고양시 덕양구 신원동 265-10번지","category":"회원제형태 - 서적"}]},{"lat":"37.660627895","long":"126.88936942","items":[{"name":"오롯이뷰티","tel":"","addr":"경기도 고양시 덕양구 신원동 650-7번지","category":""},{"name":"오롯이뷰티","tel":"","addr":"경기도 고양시 덕양구 신원동 650-7번지","category":"보건위생 - 피부미용실"}]},{"lat":"37.661744393","long":"126.88864239","items":[{"name":"온누리시스템","tel":"02-381-8886","addr":"경기도 고양시 덕양구 신원동 647-2번지","category":"전기제품 - 냉열기기"}]},{"lat":"37.661330058","long":"126.88875635","items":[{"name":"와락커피(Warac Coffee)","tel":"070-4922-1261","addr":"경기도 고양시 덕양구 신원동 647-6번지","category":"일반휴게음식 - 서양음식"},{"name":"와락커피(Warac Coffee)","tel":"070-4922-1261","addr":"경기도 고양시 덕양구 신원동 647-6번지","category":""}]},{"lat":"37.662601859","long":"126.89025042","items":[{"name":"원","tel":"","addr":"경기도 고양시 덕양구 신원동 634번지","category":"보건위생 - 기타대인서비스"},{"name":"월드당구클럽","tel":"02-381-0223","addr":"경기도 고양시 덕양구 신원동 634번지","category":""},{"name":"월드당구클럽","tel":"02-381-0223","addr":"경기도 고양시 덕양구 신원동 634번지","category":"레저업소 - 당 구 장"},{"name":"제주근고기","tel":"02-381-9284","addr":"경기도 고양시 덕양구 신원동 634번지","category":"일반휴게음식 - 일반한식"}]},{"lat":"37.676129725","long":"126.87675209","items":[{"name":"월드컵","tel":"02-376-9292","addr":"경기도 고양시 덕양구 신원동 286-5번지","category":""}]},{"lat":"37.667594255","long":"126.89134229","items":[{"name":"유니식품","tel":"050-165-8472","addr":"경기도 고양시 덕양구 신원동 611번지 신원마을엘에이치2단지","category":""},{"name":"유니식품","tel":"050-0165-8472","addr":"경기도 고양시 덕양구 신원동 611번지 신원마을엘에이치2단지","category":"회원제형태 - 기타1"}]},{"lat":"37.661996828","long":"126.888812","items":[{"name":"윤참치","tel":"02-371-1255","addr":"경기도 고양시 덕양구 신원동 648번지","category":"일반휴게음식 - 일반한식"},{"name":"윤참치","tel":"02-371-1255","addr":"경기도 고양시 덕양구 신원동 648번지","category":""}]},{"lat":"37.660826183","long":"126.88944845","items":[{"name":"이누네코식당","tel":"","addr":"경기도 고양시 덕양구 신원동 650-5번지","category":""},{"name":"이누네코식당","tel":"02-1111-1111","addr":"경기도 고양시 덕양구 신원동 650-5번지","category":"일반휴게음식 - 일반한식"}]},{"lat":"37.662575337","long":"126.89078313","items":[{"name":"이차돌 삼송신원점","tel":"02-381-8866","addr":"경기도 고양시 덕양구 신원동 634-2번지","category":""},{"name":"이차돌 삼송신원점","tel":"02-381-8866","addr":"경기도 고양시 덕양구 신원동 634-2번지","category":"일반휴게음식 - 일반한식"},{"name":"헤븐","tel":"","addr":"경기도 고양시 덕양구 신원동 634-2번지","category":"일반휴게음식 - 서양음식"}]},{"lat":"37.661383091","long":"126.88770228","items":[{"name":"일레븐이얼스","tel":"02-381-1179","addr":"경기도 고양시 덕양구 신원동 645번지","category":""},{"name":"일레븐이얼스","tel":"02-381-1179","addr":"경기도 고양시 덕양구 신원동 645번지","category":"일반휴게음식 - 서양음식"},{"name":"일레븐이얼스","tel":"02-381-1179","addr":"경기도 고양시 덕양구 신원동 645번지","category":""}]},{"lat":"37.662105108","long":"126.88898183","items":[{"name":"일품산꼼장어","tel":"02-371-1888","addr":"경기도 고양시 덕양구 신원동 648-1번지","category":""},{"name":"일품산꼼장어","tel":"02-371-1888","addr":"경기도 고양시 덕양구 신원동 648-1번지","category":"일반휴게음식 - 일반한식"},{"name":"카리스헤어","tel":"02-381-4272","addr":"경기도 고양시 덕양구 신원동 648-1번지","category":""},{"name":"카리스헤어","tel":"02-381-4272","addr":"경기도 고양시 덕양구 신원동 648-1번지","category":"보건위생 - 미용원"}]},{"lat":"37.678348368","long":"126.87889081","items":[{"name":"잉큼잉큼","tel":"02-381-2929","addr":"경기도 고양시 덕양구 신원동 297-1번지","category":"학원 - 기타 교육기관"},{"name":"잉큼잉큼","tel":"02-381-2929","addr":"경기도 고양시 덕양구 신원동 297-1번지","category":"일반휴게음식 - 일반한식"},{"name":"잉큼잉큼","tel":"02-381-2929","addr":"경기도 고양시 덕양구 신원동 297-1번지","category":""},{"name":"잉큼잉큼","tel":"02-381-2929","addr":"경기도 고양시 덕양구 신원동 297-1번지","category":""}]},{"lat":"37.676216177","long":"126.8654278","items":[{"name":"작은숲","tel":"031-968-6161","addr":"경기도 고양시 덕양구 신원동 405-1번지","category":"일반휴게음식 - 서양음식"},{"name":"작은숲","tel":"031-968-6161","addr":"경기도 고양시 덕양구 신원동 405-1번지","category":""}]},{"lat":"37.661635307","long":"126.88764523","items":[{"name":"잼파파","tel":"02-381-2754","addr":"경기도 고양시 덕양구 신원동 638-1번지","category":""}]},{"lat":"37.678266696","long":"126.87833549","items":[{"name":"전골전문 한마당","tel":"","addr":"경기도 고양시 덕양구 신원동 291-1번지","category":"일반휴게음식 - 일반한식"},{"name":"전골전문 한마당","tel":"","addr":"경기도 고양시 덕양구 신원동 291-1번지","category":""}]},{"lat":"37.661614042","long":"126.88436995","items":[{"name":"정소","tel":"","addr":"경기도 고양시 덕양구 신원동 658번지 신원마을호반베르디움9단지","category":""}]},{"lat":"37.660996613","long":"126.8886662","items":[{"name":"정이품","tel":"02-381-3330","addr":"경기도 고양시 덕양구 신원동 651-1번지","category":""},{"name":"정이품","tel":"02-381-3330","addr":"경기도 고양시 덕양구 신원동 651-1번지","category":"일반휴게음식 - 일반한식"}]},{"lat":"37.661186646","long":"126.88952723","items":[{"name":"제이엔베이킹","tel":"02-381-5505","addr":"경기도 고양시 덕양구 신원동 649-10번지","category":"음료식품 - 기타음료식품"},{"name":"제이엔베이킹","tel":"02-381-5505","addr":"경기도 고양시 덕양구 신원동 649-10번지","category":""}]},{"lat":"37.671710915","long":"126.88145218","items":[{"name":"제일토탈디자인","tel":"02-381-1577","addr":"경기도 고양시 덕양구 신원동 241-2번지","category":""},{"name":"제일토탈디자인","tel":"02-381-1577","addr":"경기도 고양시 덕양구 신원동 241-2번지","category":"건축자재 - 목재·석재·철물"}]},{"lat":"37.66088059","long":"126.88981102","items":[{"name":"제킨","tel":"0507-1425-9395","addr":"경기도 고양시 덕양구 신원동 649-7번지","category":""}]},{"lat":"37.670826844","long":"126.88036549","items":[{"name":"주식회사 마이에벤에셀","tel":"02-381-3106","addr":"경기도 고양시 덕양구 신원동 237번지","category":""}]},{"lat":"37.677548743","long":"126.88103458","items":[{"name":"주식회사 뿌리","tel":"02-381-4991","addr":"경기도 고양시 덕양구 신원동 265-8번지","category":""},{"name":"주식회사 뿌리","tel":"02-381-4991","addr":"경기도 고양시 덕양구 신원동 265-8번지","category":"용역 서비스 - 가례서비스업"},{"name":"현리빙","tel":"02-381-4032","addr":"경기도 고양시 덕양구 신원동 265-8번지","category":""},{"name":"혜지낚시","tel":"031-965-8882","addr":"경기도 고양시 덕양구 신원동 265-8번지","category":""},{"name":"혜지낚시","tel":"031-965-8882","addr":"경기도 고양시 덕양구 신원동 265-8번지","category":"레져용품 - 스포츠·레져용품"}]},{"lat":"37.661438064","long":"126.88864286","items":[{"name":"주식회사 준라텍스","tel":"02-381-0611","addr":"경기도 고양시 덕양구 신원동 647-7번지","category":"가구 - 일반가구"},{"name":"주식회사 준라텍스","tel":"02-381-0611","addr":"경기도 고양시 덕양구 신원동 647-7번지","category":""},{"name":"카엔피플 덕양구점","tel":"02-353-0113","addr":"경기도 고양시 덕양구 신원동 647-7번지","category":""}]},{"lat":"37.672549302","long":"126.88192688","items":[{"name":"주식회사팀워크(TEAMWORK Inc.)","tel":"02-3445-3600","addr":"경기도 고양시 덕양구 신원동 260-2번지","category":"건축자재 - 인테리어전문"},{"name":"주식회사팀워크(TEAMWORK Inc.)","tel":"02-3445-3600","addr":"경기도 고양시 덕양구 신원동 260-2번지","category":""}]},{"lat":"37.661573724","long":"126.88917531","items":[{"name":"쥬스키친","tel":"02-371-1070","addr":"경기도 고양시 덕양구 신원동 648-6번지","category":""}]},{"lat":"37.667376816","long":"126.89007319","items":[{"name":"진로투어","tel":"","addr":"경기도 고양시 덕양구 신원동 611번지 신원마을엘에이치2단지","category":"보건위생 - 기타대인서비스"},{"name":"진로투어","tel":"","addr":"경기도 고양시 덕양구 신원동 611번지 신원마을엘에이치2단지","category":""}]},{"lat":"37.664848063","long":"126.89321647","items":[{"name":"청춘스카이","tel":"070-0-0000","addr":"경기도 고양시 덕양구 신원동 613번지 신원마을엘에이치3단지","category":""}]},{"lat":"37.662240012","long":"126.88873229","items":[{"name":"최고수산","tel":"02-381-3566","addr":"경기도 고양시 덕양구 신원동 639-2번지","category":""},{"name":"최고수산","tel":"02-381-3566","addr":"경기도 고양시 덕양구 신원동 639-2번지","category":"음료식품 - 농·축·수산품"}]},{"lat":"37.66013198","long":"126.88897351","items":[{"name":"치킨버스 고양신원점","tel":"02-381-0755","addr":"경기도 고양시 덕양구 신원동 643-1번지","category":""},{"name":"치킨버스 고양신원점","tel":"02-381-0755","addr":"경기도 고양시 덕양구 신원동 643-1번지","category":"일반휴게음식 - 스넥"}]},{"lat":"37.66026683","long":"126.88866732","items":[{"name":"치킨플러스 고양신원점","tel":"02-381-9212","addr":"경기도 고양시 덕양구 신원동 644-4번지","category":"일반휴게음식 - 스넥"}]},{"lat":"37.661880053","long":"126.88917484","items":[{"name":"카페헤이즈","tel":"031-947-2502","addr":"경기도 고양시 덕양구 신원동 648-3번지","category":""},{"name":"카페헤이즈","tel":"031-947-2502","addr":"경기도 고양시 덕양구 신원동 648-3번지","category":"일반휴게음식 - 서양음식"}]},{"lat":"37.66362663","long":"126.88783482","items":[{"name":"칼라시대 중북부점","tel":"031-000-0000","addr":"경기도 고양시 덕양구 신원동 653번지 삼송힐스테이트","category":"수리서비스 - 신변잡화수리"},{"name":"칼라시대 중북부점","tel":"031-0-0000","addr":"경기도 고양시 덕양구 신원동 653번지 삼송힐스테이트","category":""}]},{"lat":"37.667602523","long":"126.89056022","items":[{"name":"캔비공방","tel":"","addr":"경기도 고양시 덕양구 신원동 611번지 신원마을엘에이치2단지","category":"문화.취미 - 문화취미기타"}]},{"lat":"37.661669425","long":"126.88569585","items":[{"name":"커뮤니케이션즈엠","tel":"02-541-1673","addr":"경기도 고양시 덕양구 신원동 658번지 신원마을호반베르디움9단지","category":""},{"name":"커뮤니케이션즈엠","tel":"02-541-1673","addr":"경기도 고양시 덕양구 신원동 658번지 신원마을호반베르디움9단지","category":"용역 서비스 - 종합용역"}]},{"lat":"37.661663141","long":"126.88847251","items":[{"name":"케어셀라","tel":"031-371-3232","addr":"경기도 고양시 덕양구 신원동 647-9번지","category":""}]},{"lat":"37.662077509","long":"126.88839254","items":[{"name":"케익 아뜰리에 (Cake Atelier)","tel":"","addr":"경기도 고양시 덕양구 신원동 639번지","category":""}]},{"lat":"37.660383856","long":"126.88856514","items":[{"name":"코션코리아 일산점","tel":"070-4176-9272","addr":"경기도 고양시 덕양구 신원동 644-3번지","category":""},{"name":"코션코리아 일산점","tel":"070-4176-9272","addr":"경기도 고양시 덕양구 신원동 644-3번지","category":"자동차정비 유지 - 카인테리어"}]},{"lat":"37.660988868","long":"126.88998086","items":[{"name":"쿠킹스튜디오파티더하다","tel":"02-445-4540","addr":"경기도 고양시 덕양구 신원동 649-6번지","category":""}]},{"lat":"37.661049999","long":"126.88797479","items":[{"name":"탑클래스","tel":"02-381-1235","addr":"경기도 고양시 덕양구 신원동 645-3번지","category":""},{"name":"탑클래스","tel":"02-381-1235","addr":"경기도 고양시 덕양구 신원동 645-3번지","category":"자동차정비 유지 - 자동차부품"},{"name":"탑클래스(TOP CLASS)","tel":"02-381-1235","addr":"경기도 고양시 덕양구 신원동 645-3번지","category":""}]},{"lat":"37.660992432","long":"126.8844276","items":[{"name":"티앤에프","tel":"070-8650-5500","addr":"경기도 고양시 덕양구 신원동 658번지 신원마을호반베르디움9단지","category":"전기제품 - 가전제품"}]},{"lat":"37.661078618","long":"126.88961806","items":[{"name":"팡이365","tel":"031-9189-6544","addr":"경기도 고양시 덕양구 신원동 649-9번지","category":"용역 서비스 - 종합용역"},{"name":"팡이365","tel":"031-9189-6544","addr":"경기도 고양시 덕양구 신원동 649-9번지","category":""}]},{"lat":"37.677242017","long":"126.88064967","items":[{"name":"푸른원예자재","tel":"02-382-1213","addr":"경기도 고양시 덕양구 신원동 265-27번지","category":""},{"name":"푸른원예자재","tel":"02-382-1213","addr":"경기도 고양시 덕양구 신원동 265-27번지","category":"신변잡화 - 기타잡화"}]},{"lat":"37.660411258","long":"126.88895042","items":[{"name":"플랜(PLAN)","tel":"02-371-2427","addr":"경기도 고양시 덕양구 신원동 651-6번지","category":"용역 서비스 - 사무서비스"},{"name":"플랜(PLAN)","tel":"02-371-2427","addr":"경기도 고양시 덕양구 신원동 651-6번지","category":""}]},{"lat":"37.660745173","long":"126.8895279","items":[{"name":"필더바이크","tel":"070-7757-8931","addr":"경기도 고양시 덕양구 신원동 650-6번지","category":""}]},{"lat":"37.660997607","long":"126.88969752","items":[{"name":"하이앙포레 경기북부지사","tel":"070-8257-7471","addr":"경기도 고양시 덕양구 신원동 649-8번지","category":"보건위생 - 미용재료"},{"name":"하이앙포레 경기북부지사","tel":"070-8257-7471","addr":"경기도 고양시 덕양구 신원동 649-8번지","category":""},{"name":"하이앙포레경기북부지사","tel":"070-8257-7471","addr":"경기도 고양시 덕양구 신원동 649-8번지","category":""},{"name":"하이앙포레경기북부지사","tel":"070-8257-7471","addr":"경기도 고양시 덕양구 신원동 649-8번지","category":"보건위생 - 미용재료"}]},{"lat":"37.662051476","long":"126.88942392","items":[{"name":"해도리","tel":"02-381-7887","addr":"경기도 고양시 덕양구 신원동 640-2번지","category":"일반휴게음식 - 일반한식"},{"name":"해도리","tel":"02-381-7887","addr":"경기도 고양시 덕양구 신원동 640-2번지","category":""},{"name":"해도리","tel":"02-381-7887","addr":"경기도 고양시 덕양구 신원동 640-2번지","category":""}]},{"lat":"37.668796739","long":"126.88636471","items":[{"name":"헤세드","tel":"02-381-6275","addr":"경기도 고양시 덕양구 신원동 108-2아이피크상가103","category":""},{"name":"헤세드","tel":"02-381-6275","addr":"경기도 고양시 덕양구 신원동","category":"의류 - 정장"},{"name":"현대마트","tel":"02-381-3688","addr":"경기도 고양시 덕양구 신원동 108-2 삼송택지개발지구A-고양삼송8B/L상가109호","category":""},{"name":"현대마트","tel":"02-381-3688","addr":"경기도 고양시 덕양구 신원동","category":"유통업 영리 - 슈퍼마켓"}]},{"lat":"37.6764908","long":"126.87739761","items":[{"name":"홍능골가든","tel":"02-381-0323","addr":"경기도 고양시 덕양구 신원동 277번지","category":""}]},{"lat":"37.676460388","long":"126.87425772","items":[{"name":"홍천강매운탕","tel":"02-371-1321","addr":"경기도 고양시 덕양구 신원동 434-3번지","category":""}]}]