[{"lat":"37.218479418","long":"127.5357357","imageIndex":17,"items":[{"name":"GS25가남행복점","tel":"","addr":"경기도 여주시 가남읍 신해리 620-17번지 동남아파트","indutype":"유통업 영리 - 편 의 점","category":"other"}]},{"lat":"37.218891752","long":"127.52814493","imageIndex":17,"items":[{"name":"GS25여주신해리점","tel":"02-2006-2485","addr":"경기도 여주시 가남읍 신해리 603-3번지","indutype":"유통업 영리 - 편 의 점","category":"other"}]},{"lat":"37.218202023","long":"127.53128349","imageIndex":17,"items":[{"name":"꿈이있는로또","tel":"031-884-6586","addr":"경기도 여주시 가남읍 신해리 621-5번지","indutype":"기타 - 기타 전문점","category":"other"}]},{"lat":"37.214695576","long":"127.55142508","imageIndex":17,"items":[{"name":"너싱홈 돌체","tel":"031-883-9393","addr":"경기도 여주시 가남읍 신해리 12번지","indutype":"기타의료기관 - 기타의료기관 및 기타","category":"other"}]},{"lat":"37.217971931","long":"127.53034677","imageIndex":17,"items":[{"name":"대광천막사","tel":"031-881-2236","addr":"경기도 여주시 가남읍 신해리 602-5번지","indutype":"직물 - 카페트,커튼,천막,지물","category":"other"}]},{"lat":"37.219615931","long":"127.53345656","imageIndex":17,"items":[{"name":"보석정원","tel":"","addr":"경기도 여주시 가남읍 신해리 575-44번지 블렌하임타운힐스 102동 301호","indutype":"신변잡화 - 액세서리","category":"other"}]},{"lat":"37.215138996","long":"127.53520523","imageIndex":17,"items":[{"name":"씨유가남현진점","tel":"031-881-0987","addr":"경기도 여주시 가남읍 신해리 635-36번지","indutype":"유통업 영리 - 편 의 점","category":"other"}]},{"lat":"37.234777464","long":"127.54598114","imageIndex":17,"items":[{"name":"여주교도소","tel":"031-887-6402","addr":"경기도 여주시 가남읍 신해리 212번지","indutype":"유통업 비영리 - 구내매점(국가기관","category":"other"}]},{"lat":"37.228390028","long":"127.53987316","imageIndex":17,"items":[{"name":"영성(    )","tel":"031-882-9555","addr":"경기도 여주시 가남읍 신해리 474-5번지","indutype":"건축자재 - 기타건축자재","category":"other"}]},{"lat":"37.217947722","long":"127.53374907","imageIndex":17,"items":[{"name":"와이엘 교육","tel":"031-735-0324","addr":"경기도 여주시 가남읍 신해리 620-8번지 현진에버빌2단지 205동 4층 02호","indutype":"서적문구 - 기타서적문구","category":"other"}]},{"lat":"37.21619587","long":"127.53259891","imageIndex":17,"items":[{"name":"준GOLF","tel":"031-884-0546","addr":"경기도 여주시 가남읍 신해리 616번지","indutype":"레져용품 - 스포츠·레져용품","category":"other"}]},{"lat":"37.193391262","long":"127.55034738","imageIndex":17,"items":[{"name":"지구공업사","tel":"031-881-5903","addr":"경기도 여주시 가남읍 신해리 620-17번지 동남아파트","indutype":"회원제형태 - 기타4","category":"other"}]},{"lat":"37.229557609","long":"127.5466198","imageIndex":17,"items":[{"name":"피노키오(문구,완구)","tel":"031-883-3626","addr":"경기도 여주시 가남읍 신해리 620-17번지","indutype":"서적문구 - 문구용품","category":"other"}]},{"lat":"37.218195959","long":"127.53465212","imageIndex":17,"items":[{"name":"하수구 누수 처리맨","tel":"031-637-0643","addr":"경기도 여주시 가남읍 신해리 620-8번지 현진에버빌2단지 203동 504호","indutype":"용역 서비스 - 기타용역서비스","category":"other"}]},{"lat":"37.21700122","long":"127.53384383","imageIndex":17,"items":[{"name":"현진세탁소","tel":"031-882-9926","addr":"경기도 여주시 가남읍 신해리 632번지 현진에버빌 상가 104호","indutype":"수리서비스 - 세탁소","category":"other"}]},{"lat":"37.218975156","long":"127.54561998","imageIndex":5,"items":[{"name":"ZaZa무인텔","tel":"031-884-5854","addr":"경기도 여주시 가남읍 신해리 398-2번지","indutype":"숙박업 - 여관/기타숙박업","category":"hotel"}]},{"lat":"37.217423175","long":"127.53015142","imageIndex":5,"items":[{"name":"강","tel":"031-883-2788","addr":"경기도 여주시 가남읍 신해리 609-6번지","indutype":"숙박업 - 여관/기타숙박업","category":"hotel"}]},{"lat":"37.214007847","long":"127.53828413","imageIndex":5,"items":[{"name":"무인텔 오렌지","tel":"031-884-0778","addr":"경기도 여주시 가남읍 신해리 635-71번지","indutype":"숙박업 - 여관/기타숙박업","category":"hotel"}]},{"lat":"37.217250481","long":"127.53048821","imageIndex":5,"items":[{"name":"소설","tel":"031-883-4788","addr":"경기도 여주시 가남읍 신해리 609-9번지","indutype":"숙박업 - 여관/기타숙박업","category":"hotel"},{"name":"소설","tel":"031-883-2788","addr":"경기도 여주시 가남읍 신해리 609-9번지","indutype":"숙박업 - 여관/기타숙박업","category":"hotel"}]},{"lat":"37.217032534","long":"127.53086975","imageIndex":5,"items":[{"name":"숲","tel":"031-883-2788","addr":"경기도 여주시 가남읍 신해리 609-2번지","indutype":"숙박업 - 여관/기타숙박업","category":"hotel"}]},{"lat":"37.213919732","long":"127.53784414","imageIndex":5,"items":[{"name":"애플","tel":"031-886-8090","addr":"경기도 여주시 가남읍 신해리 635번지","indutype":"숙박업 - 여관/기타숙박업","category":"hotel"}]},{"lat":"37.21384027","long":"127.53748307","imageIndex":5,"items":[{"name":"토마토무인모텔","tel":"031-885-6969","addr":"경기도 여주시 가남읍 신해리 635-69번지","indutype":"숙박업 - 여관/기타숙박업","category":"hotel"}]},{"lat":"37.214784273","long":"127.53192435","imageIndex":5,"items":[{"name":"파인관광농원","tel":"031-883-7103","addr":"경기도 여주시 가남읍 신해리 649-10번지","indutype":"숙박업 - 여관/기타숙박업","category":"hotel"}]},{"lat":"37.220141861","long":"127.55054064","imageIndex":5,"items":[{"name":"파인모텔","tel":"031-882-9114","addr":"경기도 여주시 가남읍 신해리 60-2번지","indutype":"숙박업 - 여관/기타숙박업","category":"hotel"}]},{"lat":"37.218479418","long":"127.5357357","imageIndex":4,"items":[{"name":"계동치킨(가남점)","tel":"031-881-1892","addr":"경기도 여주시 가남읍 신해리 620-17번지 동남아파트","indutype":"일반휴게음식 - 주점","category":"restaurant"},{"name":"돈키돈키치킨","tel":"031-883-7033","addr":"경기도 여주시 가남읍 신해리 620-17번지 동남아파트","indutype":"일반휴게음식 - 칵테일바","category":"restaurant"},{"name":"명동식당","tel":"031-884-1226","addr":"경기도 여주시 가남읍 신해리 620-17번지","indutype":"일반휴게음식 - 일반한식","category":"restaurant"},{"name":"엄마손김밥","tel":"031-886-3733","addr":"경기도 여주시 가남읍 신해리 620-17번지 동남아파트","indutype":"일반휴게음식 - 일반한식","category":"restaurant"}]},{"lat":"37.214279915","long":"127.53187576","imageIndex":4,"items":[{"name":"권혜정의 꽃차이야기","tel":"02-1577-0000","addr":"경기도 여주시 가남읍 신해리 649-10번지 1층","indutype":"일반휴게음식 - 서양음식","category":"restaurant"}]},{"lat":"37.217697755","long":"127.54517144","imageIndex":4,"items":[{"name":"늘꽃","tel":"031-111-1111","addr":"경기도 여주시 가남읍 신해리 404-3번지","indutype":"일반휴게음식 - 일반한식","category":"restaurant"}]},{"lat":"37.219834357","long":"127.53497909","imageIndex":4,"items":[{"name":"배밭가든","tel":"031-634-3722","addr":"경기도 여주시 가남읍 신해리 627-2번지 1층","indutype":"일반휴게음식 - 일반한식","category":"restaurant"}]},{"lat":"37.21700122","long":"127.53384383","imageIndex":4,"items":[{"name":"뽀끼랑김밥","tel":"031-883-8256","addr":"경기도 여주시 가남읍 신해리 632번지 현진에버빌1차아파트 1층 101호","indutype":"일반휴게음식 - 스넥","category":"restaurant"}]},{"lat":"37.218501814","long":"127.53073352","imageIndex":4,"items":[{"name":"수라온쌀밥","tel":"031-885-8188","addr":"경기도 여주시 가남읍 신해리 621번지","indutype":"일반휴게음식 - 일반한식","category":"restaurant"}]},{"lat":"37.214589741","long":"127.53512251","imageIndex":4,"items":[{"name":"열짬뽕","tel":"031-886-0999","addr":"경기도 여주시 가남읍 신해리 636번지","indutype":"일반휴게음식 - 중국식","category":"restaurant"}]},{"lat":"37.219863216","long":"127.54648261","imageIndex":4,"items":[{"name":"우리네밥상","tel":"031-882-2935","addr":"경기도 여주시 가남읍 신해리 357-2번지 2동 1층","indutype":"일반휴게음식 - 일반한식","category":"restaurant"},{"name":"화룡각","tel":"031-881-1140","addr":"경기도 여주시 가남읍 신해리 357-2번지","indutype":"일반휴게음식 - 중국식","category":"restaurant"}]},{"lat":"37.21897655","long":"127.52933977","imageIndex":4,"items":[{"name":"응암본가","tel":"031-883-7047","addr":"경기도 여주시 가남읍 신해리 598번지","indutype":"일반휴게음식 - 일반한식","category":"restaurant"}]},{"lat":"37.22025106","long":"127.52842476","imageIndex":4,"items":[{"name":"퀸즈카페 (Queens Cafe)","tel":"031-637-0369","addr":"경기도 여주시 가남읍 신해리 596-1번지","indutype":"일반휴게음식 - 서양음식","category":"restaurant"}]},{"lat":"37.216529995","long":"127.53243225","imageIndex":4,"items":[{"name":"토부리병천순대국해장국","tel":"031-884-1928","addr":"경기도 여주시 가남읍 신해리 616-4번지","indutype":"일반휴게음식 - 일반한식","category":"restaurant"}]},{"lat":"37.216062158","long":"127.53629327","imageIndex":4,"items":[{"name":"피그감자","tel":"031-883-8422","addr":"경기도 여주시 가남읍 신해리 633번지","indutype":"일반휴게음식 - 일반한식","category":"restaurant"}]},{"lat":"37.219032518","long":"127.54489932","imageIndex":4,"items":[{"name":"흑돼지","tel":"031-881-6938","addr":"경기도 여주시 가남읍 신해리 397-4번지","indutype":"일반휴게음식 - 일반한식","category":"restaurant"}]},{"lat":"37.214473978","long":"127.53481752","imageIndex":7,"items":[{"name":"고기천국","tel":"031-882-0467","addr":"경기도 여주시 가남읍 신해리 638번지 1층","indutype":"음료식품 - 정육점","category":"food"}]},{"lat":"37.215283409","long":"127.53514992","imageIndex":7,"items":[{"name":"과일사랑","tel":"031-000-0000","addr":"경기도 여주시 가남읍 신해리 635-36번지 203호","indutype":"음료식품 - 농·축·수산품","category":"food"}]},{"lat":"37.217971931","long":"127.53034677","imageIndex":7,"items":[{"name":"다모아유통","tel":"031-881-3410","addr":"경기도 여주시 가남읍 신해리 602-5번지","indutype":"음료식품 - 농·축·수산품","category":"food"}]},{"lat":"37.21700122","long":"127.53384383","imageIndex":7,"items":[{"name":"만복상회","tel":"031-883-0441","addr":"경기도 여주시 가남읍 신해리 632번지 현진상가 B동 102호","indutype":"음료식품 - 기타음료식품","category":"food"}]},{"lat":"37.234777464","long":"127.54598114","imageIndex":7,"items":[{"name":"여주교도소","tel":"031-887-6402","addr":"경기도 여주시 가남읍 신해리 212번지 1층","indutype":"음료식품 - 기타음료식품","category":"food"}]},{"lat":"37.218812016","long":"127.52986816","imageIndex":0,"items":[{"name":"구룡세차장","tel":"031-883-5958","addr":"경기도 여주시 가남읍 신해리 600-7번지","indutype":"자동차정비 유지 - 세차장","category":"car"},{"name":"현대카서비스","tel":"031-881-5915","addr":"경기도 여주시 가남읍 신해리 600-7번지","indutype":"자동차정비 유지 - 자동차정비","category":"car"}]},{"lat":"37.218584413","long":"127.52836813","imageIndex":0,"items":[{"name":"대형손세차","tel":"031-881-4160","addr":"경기도 여주시 가남읍 신해리 603-19번지","indutype":"자동차정비 유지 - 세차장","category":"car"}]},{"lat":"37.219476901","long":"127.52826165","imageIndex":0,"items":[{"name":"동부자동차공업사","tel":"031-882-6213","addr":"경기도 여주시 가남읍 신해리 596-2번지","indutype":"자동차정비 유지 - 자동차정비","category":"car"}]},{"lat":"37.224950578","long":"127.54722897","imageIndex":0,"items":[{"name":"몬스터","tel":"031-881-4448","addr":"경기도 여주시 가남읍 신해리 302-1번지","indutype":"자동차정비 유지 - 카인테리어","category":"car"}]},{"lat":"37.21897655","long":"127.52933977","imageIndex":0,"items":[{"name":"밧데리아","tel":"031-885-8312","addr":"경기도 여주시 가남읍 신해리 598번지","indutype":"자동차정비 유지 - 자동차시트·타이어","category":"car"}]},{"lat":"37.214257732","long":"127.53881539","imageIndex":0,"items":[{"name":"셀세모종이학 (가남타이어)","tel":"031-883-3328","addr":"경기도 여주시 가남읍 신해리 635-72번지","indutype":"자동차정비 유지 - 자동차시트·타이어","category":"car"}]},{"lat":"37.21964018","long":"127.52801492","imageIndex":0,"items":[{"name":"신명중고타이어","tel":"031-884-3560","addr":"경기도 여주시 가남읍 신해리 596-6번지","indutype":"자동차정비 유지 - 자동차시트·타이어","category":"car"}]},{"lat":"37.218479418","long":"127.5357357","imageIndex":13,"items":[{"name":"권영순헤어클럽","tel":"031-884-7759","addr":"경기도 여주시 가남읍 신해리 620-17번지 동남아파트","indutype":"보건위생 - 미용원","category":"beauty"}]},{"lat":"37.21700122","long":"127.53384383","imageIndex":13,"items":[{"name":"샤론뷰티","tel":"031-881-4777","addr":"경기도 여주시 가남읍 신해리 632번지 현진에버빌단지 상가","indutype":"보건위생 - 미용원","category":"beauty"}]},{"lat":"37.215283409","long":"127.53514992","imageIndex":13,"items":[{"name":"수아스킨","tel":"031-633-8147","addr":"경기도 여주시 가남읍 신해리 635-36번지","indutype":"보건위생 - 화장품","category":"beauty"},{"name":"압구정헤어","tel":"031-882-6880","addr":"경기도 여주시 가남읍 신해리 635-36번지 103호","indutype":"보건위생 - 미용원","category":"beauty"}]},{"lat":"37.21700122","long":"127.53384383","imageIndex":16,"items":[{"name":"리틀엔젤스 어린이집[아이행복]","tel":"031-882-3393","addr":"경기도 여주시 가남읍 신해리 632번지 1층 현진에버빌","indutype":"학원 - 유아원","category":"study"}]},{"lat":"37.217464481","long":"127.53501878","imageIndex":16,"items":[{"name":"베베짐가정어린이집[아이행복]","tel":"031-884-2859","addr":"경기도 여주시 가남읍 신해리 620-8번지 현진에버빌2단지 201동 103호","indutype":"학원 - 유아원","category":"study"}]},{"lat":"37.217479564","long":"127.53567233","imageIndex":16,"items":[{"name":"아이뜰어린이집[아이행복]","tel":"031-882-9652","addr":"경기도 여주시 가남읍 신해리 620-33번지","indutype":"학원 - 유아원","category":"study"},{"name":"아이뜰어린이집[아이행복]","tel":"031-882-9652","addr":"경기도 여주시 가남읍 신해리 620-33번지","indutype":"학원 - 유아원","category":"study"},{"name":"프라임넷큐브학원","tel":"031-881-5422","addr":"경기도 여주시 가남읍 신해리 620-33번지","indutype":"학원 - 보습학원","category":"study"},{"name":"현진 참사랑 인성 태권도장","tel":"031-886-0527","addr":"경기도 여주시 가남읍 신해리 620-33번지","indutype":"학원 - 예·체능계학원","category":"study"}]},{"lat":"37.217799924","long":"127.53455921","imageIndex":16,"items":[{"name":"엠베스트","tel":"031-884-7467","addr":"경기도 여주시 가남읍 신해리 620-8번지 현진에버빌2단지 202동 101호","indutype":"학원 - 기타 교육기관","category":"study"}]},{"lat":"37.23216612","long":"127.54168037","imageIndex":13,"items":[{"name":"호수산장 관광농원","tel":"031-882-9779","addr":"경기도 여주시 가남읍 신해리 222-2","indutype":"레저업소 - 기타레져업소","category":"leisure"}]}]