[{"lat":"37.726270361","long":"127.05451578","imageIndex":13,"items":[{"name":"(주)황제홍삼스파","tel":"031-876-6110","addr":"경기도 의정부시 장암동 20-9번지 장암골드프라자 201호","indutype":"보건위생 - 사우나","category":"beauty"},{"name":"이레스파","tel":"","addr":"경기도 의정부시 장암동 20-9번지","indutype":"보건위생 - 기타대인서비스","category":"beauty"},{"name":"헤어바라기","tel":"031-877-4534","addr":"경기도 의정부시 장암동 20-9번지 장암골드프라자 102호","indutype":"보건위생 - 미용원","category":"beauty"}]},{"lat":"37.723990081","long":"127.05643112","imageIndex":13,"items":[{"name":"H헤어","tel":"031-826-4172","addr":"경기도 의정부시 장암동 37-4번지 외1필지장암푸르지오2차상가 101동 102호","indutype":"보건위생 - 미용원","category":"beauty"}]},{"lat":"37.724792272","long":"127.05568307","imageIndex":13,"items":[{"name":"J헤어","tel":"031-872-3690","addr":"경기도 의정부시 장암동 24-1번지","indutype":"보건위생 - 미용원","category":"beauty"}]},{"lat":"37.726297871","long":"127.05340417","imageIndex":13,"items":[{"name":"글라스스타","tel":"031-878-9008","addr":"경기도 의정부시 장암동 20-14번지","indutype":"보건위생 - 안경","category":"beauty"},{"name":"듀엣","tel":"031-826-8869","addr":"경기도 의정부시 장암동 20-14번지 발곡프라자 1층 126호","indutype":"보건위생 - 미용원","category":"beauty"},{"name":"듀엣","tel":"","addr":"경기도 의정부시 장암동 20-14번지 1층 126호","indutype":"보건위생 - 피부미용실","category":"beauty"},{"name":"렛츠네일(Let's Nail)","tel":"031-871-8062","addr":"경기도 의정부시 장암동 20-14번지 발곡프라자 2층 213호","indutype":"보건위생 - 피부미용실","category":"beauty"},{"name":"설렘헤어샬롱","tel":"031-871-7778","addr":"경기도 의정부시 장암동 20-14번지 발곡프라자 2층 205호","indutype":"보건위생 - 미용원","category":"beauty"},{"name":"윤선영언어심리발달센터","tel":"02-6340-5385","addr":"경기도 의정부시 장암동 20-14번지 310호","indutype":"보건위생 - 기타대인서비스","category":"beauty"},{"name":"윤헤어(Yun Hair)","tel":"031-877-1283","addr":"경기도 의정부시 장암동 20-14번지 발곡프라자 122호","indutype":"보건위생 - 미용원","category":"beauty"}]},{"lat":"37.724792109","long":"127.05604604","imageIndex":13,"items":[{"name":"네일앤젤(Nail n gel)","tel":"031-855-6441","addr":"경기도 의정부시 장암동 26-9번지 태진아트홈 1층","indutype":"보건위생 - 화장품","category":"beauty"}]},{"lat":"37.725377834","long":"127.0558196","imageIndex":13,"items":[{"name":"라온헤어","tel":"070-7728-1442","addr":"경기도 의정부시 장암동 17-15번지 대현빌딩 1층 107호","indutype":"보건위생 - 미용원","category":"beauty"}]},{"lat":"37.699827371","long":"127.05406655","imageIndex":13,"items":[{"name":"로셀(Laussel) 김이윤 산전산후 홈케어","tel":"","addr":"경기도 의정부시 장암동 160-9번지 마니와빌딩 2층","indutype":"보건위생 - 기타대인서비스","category":"beauty"}]},{"lat":"37.723658122","long":"127.05326627","imageIndex":13,"items":[{"name":"로이드밤 롯데마트장암점","tel":"031-877-0377","addr":"경기도 의정부시 장암동 38-10번지 3층","indutype":"보건위생 - 미용원","category":"beauty"},{"name":"르망안경","tel":"031-872-0337","addr":"경기도 의정부시 장암동 38-10번지 롯데마트장암지상","indutype":"보건위생 - 안경","category":"beauty"}]},{"lat":"37.724710976","long":"127.05614807","imageIndex":13,"items":[{"name":"문혜경 헤어아트","tel":"031-876-6315","addr":"경기도 의정부시 장암동 26-13번지 2층","indutype":"보건위생 - 미용원","category":"beauty"}]},{"lat":"37.725045349","long":"127.0538457","imageIndex":13,"items":[{"name":"미스파마","tel":"031-878-3624","addr":"경기도 의정부시 장암동 20번지 동아상가 2-202호","indutype":"보건위생 - 미용원","category":"beauty"}]},{"lat":"37.724348228","long":"127.06115","imageIndex":13,"items":[{"name":"미헤어","tel":"031-876-6490","addr":"경기도 의정부시 장암동 14-27번지 상가동 제2층 202-1호","indutype":"보건위생 - 미용원","category":"beauty"}]},{"lat":"37.689934818","long":"127.0540144","imageIndex":13,"items":[{"name":"바가지머리","tel":"02-952-5665","addr":"경기도 의정부시 장암동 412수락리버시티2단지상가 204","indutype":"보건위생 - 미용원","category":"beauty"},{"name":"안지민헤어샵","tel":"02-3392-3999","addr":"경기도 의정부시 장암동 412번지 수락리버시티2단지 1층 102호","indutype":"보건위생 - 미용원","category":"beauty"}]},{"lat":"37.707293864","long":"127.05949231","imageIndex":13,"items":[{"name":"수락산편백원","tel":"031-876-0004","addr":"경기도 의정부시 장암동 97-22번지","indutype":"보건위생 - 사우나","category":"beauty"}]},{"lat":"37.726293981","long":"127.06178673","imageIndex":13,"items":[{"name":"은아미용실","tel":"031-837-3379","addr":"경기도 의정부시 장암동 17-33번지 장암주공7단지 102호 상가","indutype":"보건위생 - 미용원","category":"beauty"}]},{"lat":"37.724630696","long":"127.05433316","imageIndex":13,"items":[{"name":"한국바이오초크북부사업소","tel":"02`-975-5568","addr":"경기도 의정부시 장암동 20번지 장암동아아파트 115동 1904호","indutype":"보건위생 - 미용재료","category":"beauty"}]},{"lat":"37.724963368","long":"127.05587602","imageIndex":13,"items":[{"name":"해피헤어","tel":"031-876-8877","addr":"경기도 의정부시 장암동 26-6번지","indutype":"보건위생 - 미용원","category":"beauty"}]},{"lat":"37.706656948","long":"127.05340218","imageIndex":13,"items":[{"name":"호암캐슬","tel":"031-111-1111","addr":"경기도 의정부시 장암동 135번지 아일랜드캐슬 지하2층","indutype":"보건위생 - 기타대인서비스","category":"beauty"}]}]