[{"lat":"37.587733108","long":"127.21286074","items":[{"name":"(옵티마)미소약국","tel":"031-521-1383","addr":"경기도 남양주시 와부읍 덕소리 485외1필지 1층 114호","category":"약국 - 약국"}]},{"lat":"37.584151377","long":"127.21050713","items":[{"name":"(주) 빌더스이앤씨","tel":"02-456-3030","addr":"경기도 남양주시 와부읍 덕소리 518-10번지 현진빌딩 202호","category":"자동차정비 유지 - 주차장"},{"name":"(주)리버럴아츠","tel":"070-4200-1330","addr":"경기도 남양주시 와부읍 덕소리 518-10번지 현진빌딩 401호","category":"회원제형태 - 학원"},{"name":"(주)빌더스개발","tel":"031-111-1111","addr":"경기도 남양주시 와부읍 덕소리 518-10번지 현진빌딩 202호","category":"레저업소 - 기타레져업소"},{"name":"야튼주머니숯불갈비","tel":"031-521-0858","addr":"경기도 남양주시 와부읍 덕소리 518-10번지 현진빌딩 101호","category":"일반휴게음식 - 일반한식"}]},{"lat":"37.585738741","long":"127.20957183","items":[{"name":"(주)리턴포인트","tel":"","addr":"경기도 남양주시 와부읍 덕소리 600-14번지 세양청마루 101동 202호","category":"사무통신 - 통신기기"},{"name":"알포인트(R POINT)","tel":"","addr":"경기도 남양주시 와부읍 덕소리 600-14번지 세양청마루 101동 202호","category":"사무통신 - 통신기기"}]},{"lat":"37.590064008","long":"127.22416703","items":[{"name":"(주)스카이에프앤씨","tel":"032-456-9600","addr":"경기도 남양주시 와부읍 덕소리 87-4번지 1층","category":"일반휴게음식 - 일반한식"},{"name":"봉봉","tel":"031-577-7373","addr":"경기도 남양주시 와부읍 덕소리 87-4번지 1층","category":"일반휴게음식 - 서양음식"}]},{"lat":"37.587282863","long":"127.21272361","items":[{"name":"(주)쏘잉앤맘","tel":"070-7758-8707","addr":"경기도 남양주시 와부읍 덕소리 484-1번지 선플렉스별관 304호","category":"서적문구 - 완구점"},{"name":"국시앤냉면","tel":"031-521-8069","addr":"경기도 남양주시 와부읍 덕소리 484-1번지 선플렉스별관 105호","category":"일반휴게음식 - 일반한식"},{"name":"내고향쌈밥","tel":"031-577-3391","addr":"경기도 남양주시 와부읍 덕소리 484-1번지 외3필지썬플렉스별관 103호","category":"일반휴게음식 - 일반한식"},{"name":"대영각","tel":"031-577-4491","addr":"경기도 남양주시 와부읍 덕소리 484-1번지 외1필지 선플렉스별관 108,109호","category":"일반휴게음식 - 중국식"},{"name":"덕소손칼국수","tel":"031-521-0336","addr":"경기도 남양주시 와부읍 덕소리 484-1번지 선플렉스 1층 102호 별관","category":"일반휴게음식 - 일반한식"},{"name":"성림케어덕소센터요양원","tel":"031-553-2001","addr":"경기도 남양주시 와부읍 덕소리 484-1번지 선플렉스 별관 5층","category":"기타의료기관 - 기타의료기관 및 기타"},{"name":"아거기","tel":"","addr":"경기도 남양주시 와부읍 덕소리 484-1번지 선플렉스별관 104호","category":"일반휴게음식 - 일반한식"},{"name":"팔당매운탕","tel":"031-577-4527","addr":"경기도 남양주시 와부읍 덕소리 484-1번지 106호 선플렉스별관","category":"일반휴게음식 - 일반한식"},{"name":"행복스피치학원","tel":"031-577-3730","addr":"경기도 남양주시 와부읍 덕소리 484-1번지 선플렉스별관 402호","category":"학원 - 기타 교육기관"},{"name":"현빈이네따스한족발","tel":"031-521-0077","addr":"경기도 남양주시 와부읍 덕소리 484-1번지 선플렉스별관 101호","category":"일반휴게음식 - 일반한식"},{"name":"호식이무다리치킨(덕소점)","tel":"031-521-1444","addr":"경기도 남양주시 와부읍 덕소리 484-1번지 선플렉스 별관 1층 107호","category":"일반휴게음식 - 스넥"}]},{"lat":"37.588813086","long":"127.21353178","items":[{"name":"(주)엔엘케이","tel":"031-376-7308","addr":"경기도 남양주시 와부읍 덕소리 434-15번지","category":"회원제형태 - 기타4"},{"name":"보일러365","tel":"070-5180-6778","addr":"경기도 남양주시 와부읍 덕소리 434-15번지 1층 B호","category":"건축자재 - 보일러·펌프·샷시"},{"name":"심마니촌건강원","tel":"031-576-4333","addr":"경기도 남양주시 와부읍 덕소리 434-15번지 비호 1층","category":"건강식품 - 기타건강식품"}]},{"lat":"37.59183736","long":"127.22016406","items":[{"name":"(주)예봉","tel":"031-577-2324","addr":"경기도 남양주시 와부읍 덕소리 254-10번지","category":"주방용구 - 주방용구"},{"name":"침구(레노마홈)","tel":"031-521-8882","addr":"경기도 남양주시 와부읍 덕소리 254-10번지 1층","category":"직물 - 침구·수예점"}]},{"lat":"37.586790214","long":"127.21109187","items":[{"name":"(주)오가","tel":"070-8236-1389","addr":"경기도 남양주시 와부읍 덕소리 462-9번지 벽산메가트리움 상가동 221호","category":"전기제품 - 기타전기제품"},{"name":"(주)위드피앤디(WITH P&P Co.Ltd,)","tel":"031-577-8858","addr":"경기도 남양주시 와부읍 덕소리 462-9번지 상가덕소한강벽산메가트리움 205호","category":"건축자재 - 부동산 분양"},{"name":"Joshephine","tel":"031-510-5455","addr":"경기도 남양주시 와부읍 덕소리 462-9번지 벽산메가트리움 상가 1층 135호","category":"의류 - 정장"},{"name":"난달라(NANDALLA)","tel":"02-2251-5858","addr":"경기도 남양주시 와부읍 덕소리 462-9번지 덕소한강벽산메가트리움 105호","category":"의류 - 정장"},{"name":"달콤뽀네일","tel":"031-552-1043","addr":"경기도 남양주시 와부읍 덕소리 462-9번지 벽산메가트리움 1층 137호","category":"보건위생 - 피부미용실"},{"name":"동성메디칼","tel":"070-7563-9243","addr":"경기도 남양주시 와부읍 덕소리 462-9번지 덕소한강벽산메가트리움 상가 141호","category":"보건위생 - 의료용품"},{"name":"라보떼헤어","tel":"031-577-3296","addr":"경기도 남양주시 와부읍 덕소리 462-9번지 벽산메가트리움 2층 211호","category":"보건위생 - 미용원"},{"name":"미담치과","tel":"031-577-2875","addr":"경기도 남양주시 와부읍 덕소리 462-9번지 덕소한강벽산메가트리움 상가 2층 201호 201호~203호","category":"의원 - 치과의원"},{"name":"뻥튀기공작소 덕소점","tel":"","addr":"경기도 남양주시 와부읍 덕소리 462-9번지 벽산메가트리움 1층 117호","category":"음료식품 - 기타음료식품"},{"name":"상냥한 지영씨","tel":"","addr":"경기도 남양주시 와부읍 덕소리 462-9번지 벽산메가트리움 상가동 137호","category":"신변잡화 - 액세서리"},{"name":"샤트렌 덕소점","tel":"031-577-8771","addr":"경기도 남양주시 와부읍 덕소리 462-9번지 벽산메가트리움 110,111,112호","category":"레져용품 - 스포츠·레져용품"},{"name":"세계주류백화점","tel":"031-521-2449","addr":"경기도 남양주시 와부읍 덕소리 462-9번지 덕소한강벽산메가트리움 상가 101호","category":"음료식품 - 주류 판매점"},{"name":"세인","tel":"031-521-1774","addr":"경기도 남양주시 와부읍 덕소리 462-9번지 벽산메가트리움 134호 상가","category":"의류 - 정장"},{"name":"시저스칸미용재료","tel":"070-8156-7772","addr":"경기도 남양주시 와부읍 덕소리 462-9번지 덕소한강벽산메가트리움내상가1층134,136호","category":"보건위생 - 미용재료"},{"name":"아이브로우 바(eyebrow bar)","tel":"031-1111-1111","addr":"경기도 남양주시 와부읍 덕소리 462-9번지 벽산메가트리움 210호","category":"보건위생 - 화장품"},{"name":"알리사마켓","tel":"","addr":"경기도 남양주시 와부읍 덕소리 462-9번지 벽산메가트리움 221호","category":"의류 - 정장"},{"name":"에스비(SB)수학교습소","tel":"031-576-9767","addr":"경기도 남양주시 와부읍 덕소리 462-9번지 벽산메가트리움 204호","category":"학원 - 보습학원"},{"name":"엘스타일","tel":"031-576-0602","addr":"경기도 남양주시 와부읍 덕소리 462-9번지 덕소한강벽산메가트리움 135호","category":"의류 - 정장"},{"name":"여성크로코다일덕소점","tel":"031-521-2754","addr":"경기도 남양주시 와부읍 덕소리 462-9번지 덕소한강벽산메가트리움 107동 109호","category":"레져용품 - 스포츠·레져용품"},{"name":"올리비아로렌 덕소점","tel":"031-521-6664","addr":"경기도 남양주시 와부읍 덕소리 462-9번지 덕소한강벽산메가트리움 102호~103호","category":"레져용품 - 스포츠·레져용품"},{"name":"제이네일","tel":"","addr":"경기도 남양주시 와부읍 덕소리 462-9번지 벽산메가트리움 1층 128호","category":"보건위생 - 피부미용실"},{"name":"주식회사빈디스코리아","tel":"031-521-1580","addr":"경기도 남양주시 와부읍 덕소리 462-9번지 덕소한강벽산메가트리움 131호","category":"전기제품 - 가전제품"},{"name":"카페베네 (덕소역점)","tel":"031-521-3732","addr":"경기도 남양주시 와부읍 덕소리 462-9번지 114,115,116,212,213호","category":"일반휴게음식 - 서양음식"},{"name":"태후사랑","tel":"031-521-1080","addr":"경기도 남양주시 와부읍 덕소리 462-9번지 외2필지 덕소한강벽산메가트리움 136호","category":"보건위생 - 미용원"},{"name":"팍스잉글리쉬","tel":"031-000-0000","addr":"경기도 남양주시 와부읍 덕소리 462-9번지 벽산메가트리움 상가 2층 209호","category":"학원 - 외국어학원"}]},{"lat":"37.586920981","long":"127.21356041","items":[{"name":"(주)우리관광","tel":"031-521-7838","addr":"경기도 남양주시 와부읍 덕소리 479-6번지 2층","category":"여행 - 관광여행"},{"name":"유미락","tel":"031-576-0022","addr":"경기도 남양주시 와부읍 덕소리 479-6번지 1층","category":"일반휴게음식 - 중국식"}]},{"lat":"37.586508026","long":"127.21272143","items":[{"name":"(주)우리투어","tel":"031-577-0024","addr":"경기도 남양주시 와부읍 덕소리 474-14번지","category":"여행 - 관광여행"},{"name":"덕소 한빛 철물","tel":"031-577-0472","addr":"경기도 남양주시 와부읍 덕소리 474-14번지 1층 2호","category":"건축자재 - 목재·석재·철물"},{"name":"옛집생선구이","tel":"031-577-1277","addr":"경기도 남양주시 와부읍 덕소리 474-14번지","category":"일반휴게음식 - 일반한식"},{"name":"옷바구니","tel":"031-577-0024","addr":"경기도 남양주시 와부읍 덕소리 474-14번지 1층 2호","category":"의류 - 정장"}]},{"lat":"37.587894194","long":"127.21347258","items":[{"name":"(주)주식회사비토피아","tel":"031-521-7063","addr":"경기도 남양주시 와부읍 덕소리 487-1번지 아이비타워 701호","category":"유통업 영리 - 기타유통업"},{"name":"(주)코리아세븐/덕소아이비점","tel":"02-2127-5858","addr":"경기도 남양주시 와부읍 덕소리 487-1번지 IVY Tower 106호","category":"유통업 영리 - 편 의 점"},{"name":"(주)효덕산업","tel":"031-521-1801","addr":"경기도 남양주시 와부읍 덕소리 487-1번지 아이비타워 2층 202호","category":"건축자재 - 인테리어전문"},{"name":"IVY(아이비)학원","tel":"031-577-2299","addr":"경기도 남양주시 와부읍 덕소리 487-1번지 아이비타워 9층","category":"회원제형태 - 학원"},{"name":"다수인학원","tel":"031-577-7117","addr":"경기도 남양주시 와부읍 덕소리 487-1번지","category":"학원 - 보습학원"},{"name":"덕소예인뮤직스쿨학원","tel":"031-577-9713","addr":"경기도 남양주시 와부읍 덕소리 487-1번지 IVY타워 3층 301호","category":"회원제형태 - 학원"},{"name":"덕소지앤비학원","tel":"031-577-3998","addr":"경기도 남양주시 와부읍 덕소리 487-1번지 덕소아이비타원 601호","category":"회원제형태 - 학원"},{"name":"미예원어린이집[아이행복]","tel":"031-577-2130","addr":"경기도 남양주시 와부읍 덕소리 487-1번지","category":"학원 - 유아원"},{"name":"빼라빼라일본어교습소","tel":"031-577-4505","addr":"경기도 남양주시 와부읍 덕소리 487-1번지 IVY Tower 203호","category":"학원 - 외국어학원"},{"name":"영재컴퓨터학원","tel":"031-577-4740","addr":"경기도 남양주시 와부읍 덕소리 487-1번지 덕소IVYTOWER 203호","category":"회원제형태 - 학원"},{"name":"용인대도곡태권도장","tel":"070-4922-1261","addr":"경기도 남양주시 와부읍 덕소리 487-1번지 703호 IVY Tower","category":"학원 - 예·체능계학원"},{"name":"주식회사 크린개발","tel":"032-564-7210","addr":"경기도 남양주시 와부읍 덕소리 487-1번지 아이비타워","category":"용역 서비스 - 종합용역"},{"name":"지산서예교습소","tel":"031-577-2127","addr":"경기도 남양주시 와부읍 덕소리 487-1번지 덕소IVYTOWER 105호","category":"학원 - 예·체능계학원"}]},{"lat":"37.588539201","long":"127.21553503","items":[{"name":"(주)지디이노베이션","tel":"070-8282-7176","addr":"경기도 남양주시 와부읍 덕소리 428-5번지","category":"사무통신 - 컴퓨터"}]},{"lat":"37.585949502","long":"127.21267458","items":[{"name":"1001안경콘택트덕소점","tel":"031-577-7636","addr":"경기도 남양주시 와부읍 덕소리 474-6번지 1층","category":"보건위생 - 안경"},{"name":"헤어스토리","tel":"031-577-1516","addr":"경기도 남양주시 와부읍 덕소리 474-6번지 2층 201호","category":"보건위생 - 미용원"}]},{"lat":"37.586677375","long":"127.2137522","items":[{"name":"100세건강원","tel":"","addr":"경기도 남양주시 와부읍 덕소리 479-17번지 1층","category":"건강식품 - 기타건강식품"}]},{"lat":"37.584563668","long":"127.211731","items":[{"name":"1986덕소닭발","tel":"","addr":"경기도 남양주시 와부읍 덕소리 511-7번지","category":"일반휴게음식 - 일반한식"},{"name":"덕소#PCN","tel":"070-8637-8282","addr":"경기도 남양주시 와부읍 덕소리 511-7번지 지하1층","category":"레저업소 - 기타레져업소"},{"name":"마스터즈 스크린골프","tel":"031-521-1948","addr":"경기도 남양주시 와부읍 덕소리 511-7 외2","category":"회원제형태 - 레져업소"},{"name":"매니아당구클럽","tel":"","addr":"경기도 남양주시 와부읍 덕소리 511-7번지 3층 301호","category":"레저업소 - 당 구 장"},{"name":"쇼스타쇼군","tel":"0031-0576-5765","addr":"경기도 남양주시 와부읍 덕소리 511-7번지","category":"별도관리 - 자체물품대금"},{"name":"쇼스타쇼군","tel":"031-576-5765","addr":"경기도 남양주시 와부읍 덕소리 511-7번지 외2필지 1층","category":"사무통신 - 통신기기"},{"name":"위너스포랜드","tel":"031-576-6929","addr":"경기도 남양주시 와부읍 덕소리 511-7","category":"회원제형태 - 레져업소"},{"name":"카라헤어","tel":"031-521-7414","addr":"경기도 남양주시 와부읍 덕소리 511-7번지 1층 103호","category":"보건위생 - 미용원"},{"name":"케익하우스 구떼","tel":"031-521-8843","addr":"경기도 남양주시 와부읍 덕소리 511-7번지 1층","category":"음료식품 - 제과점"}]},{"lat":"37.586951873","long":"127.21642495","items":[{"name":"24시전주명가콩나물국밥","tel":"031-576-5678","addr":"경기도 남양주시 와부읍 덕소리 138-5번지","category":"일반휴게음식 - 일반한식"}]},{"lat":"37.585401153","long":"127.21197109","items":[{"name":"3000원손칼국수","tel":"031-521-0336","addr":"경기도 남양주시 와부읍 덕소리 512-2번지","category":"일반휴게음식 - 일반한식"},{"name":"와부통신","tel":"031-577-4446","addr":"경기도 남양주시 와부읍 덕소리 512-2번지","category":"사무통신 - 통신기기"},{"name":"화초방","tel":"031-577-2700","addr":"경기도 남양주시 와부읍 덕소리 512-2번지","category":"문화.취미 - 화원"}]},{"lat":"37.587617068","long":"127.21224902","items":[{"name":"30년전통옥수돼지숯불갈비","tel":"031-521-9292","addr":"경기도 남양주시 와부읍 덕소리 462-52번지","category":"일반휴게음식 - 일반한식"}]},{"lat":"37.587646135","long":"127.21614388","items":[{"name":"37수레로","tel":"031-521-7222","addr":"경기도 남양주시 와부읍 덕소리 490-29번지 1층","category":"일반휴게음식 - 서양음식"},{"name":"갤러리","tel":"031-528-7659","addr":"경기도 남양주시 와부읍 덕소리 490-29번지 1층","category":"의류 - 정장"},{"name":"젠틀맨","tel":"031-576-4488","addr":"경기도 남양주시 와부읍 덕소리 490-29번지","category":"보건위생 - 미용원"}]},{"lat":"37.587450809","long":"127.20945202","items":[{"name":"45년부대찌게","tel":"031-521-3945","addr":"경기도 남양주시 와부읍 덕소리 산21-9번지 1층","category":"일반휴게음식 - 일반한식"},{"name":"기아자동차덕소판매점","tel":"031-577-4090","addr":"경기도 남양주시 와부읍 덕소리 산21-9번지","category":"자동차판매 - 국산신차판매"},{"name":"동촌우동","tel":"031-551-5138","addr":"경기도 남양주시 와부읍 덕소리 산21-9번지 1층","category":"일반휴게음식 - 스넥"},{"name":"세븐일레븐덕소역점","tel":"031-1577-0711","addr":"경기도 남양주시 와부읍 덕소리 산21-9번지 1층 우측","category":"유통업 영리 - 편 의 점"}]},{"lat":"37.587004847","long":"127.21199822","items":[{"name":"801살롱","tel":"070-4686-9412","addr":"경기도 남양주시 와부읍 덕소리 465-2번지","category":"의류 - 정장"},{"name":"나라컴","tel":"031-577-1005","addr":"경기도 남양주시 와부읍 덕소리 465-2번지","category":"사무통신 - 컴퓨터"}]},{"lat":"37.586065642","long":"127.21322967","items":[{"name":"A+성심주야간보호센터","tel":"031-553-3200","addr":"경기도 남양주시 와부읍 덕소리 476-3번지 일신프라자 5,6층504B~506호,602~606호","category":"기타의료기관 - 기타의료기관 및 기타"},{"name":"고봉민김밥인 남양주덕소점","tel":"031-577-5771","addr":"경기도 남양주시 와부읍 덕소리 476-3번지 외11필지 일신프라자 102호","category":"일반휴게음식 - 스넥"},{"name":"김현숙관리실","tel":"031-577-5575","addr":"경기도 남양주시 와부읍 덕소리 476-3번지 일신프라자 502호","category":"회원제형태 - 기타4"},{"name":"늘푸른한의원","tel":"031-521-7531","addr":"경기도 남양주시 와부읍 덕소리 476-3번지 일신프라자 4층 401호","category":"의원 - 한의원"},{"name":"덕소미치과의원","tel":"031-576-2875","addr":"경기도 남양주시 와부읍 덕소리 476-3번지 일신프라자 402호","category":"의원 - 치과의원"},{"name":"밝은안과의원","tel":"031-576-7552","addr":"경기도 남양주시 와부읍 덕소리 476-3번지 일신프라자 206동 208호","category":"의원 - 의원"},{"name":"법무사하무홍사무소","tel":"031-576-7000","addr":"경기도 남양주시 와부읍 덕소리 476-3번지 일신프라자 501호","category":"용역 서비스 - 법률회계서비스(개인)"},{"name":"서울림피부과","tel":"031-521-3636","addr":"경기도 남양주시 와부읍 덕소리 476-3번지 일신프라자 2층 201호~205호","category":"의원 - 의원"},{"name":"성심요양보호사교육원","tel":"031-553-3200","addr":"경기도 남양주시 와부읍 덕소리 476-3번지 일신프라자 503~504A호","category":"학원 - 기능학원"},{"name":"아이펄짐","tel":"031-577-7737","addr":"경기도 남양주시 와부읍 덕소리 476-3번지 일신프라자 701,702호","category":"회원제형태 - 레져업소"},{"name":"일신서점","tel":"031-521-5373","addr":"경기도 남양주시 와부읍 덕소리 476-3번지 일신프라자 110호","category":"서적문구 - 일반서적"},{"name":"종로떡집","tel":"031-576-4647","addr":"경기도 남양주시 와부읍 덕소리 476-3번지 일신프라자 1층 104호","category":"음료식품 - 제과점"},{"name":"참 고기간","tel":"031-521-8883","addr":"경기도 남양주시 와부읍 덕소리 476-3번지 일신프라자 105호","category":"음료식품 - 정육점"},{"name":"코코호도(덕소점)","tel":"031-521-8521","addr":"경기도 남양주시 와부읍 덕소리 476-3번지 일신프라자 103호","category":"음료식품 - 제과점"},{"name":"튼튼소아과","tel":"031-576-7575","addr":"경기도 남양주시 와부읍 덕소리 476-3번지","category":"의원 - 의원"},{"name":"풍경","tel":"031-521-5788","addr":"경기도 남양주시 와부읍 덕소리 476-3번지 일신프라자 1층 108호","category":"가구 - 기타가구"},{"name":"프로당구클럽","tel":"070-4213-3949","addr":"경기도 남양주시 와부읍 덕소리 476-3번지 일신프라자 6층 607-611호","category":"레저업소 - 당 구 장"},{"name":"한스장난감할인매장","tel":"031-576-5841","addr":"경기도 남양주시 와부읍 덕소리 476-3번지 일신프라자 214호","category":"서적문구 - 완구점"}]},{"lat":"37.58751019","long":"127.21658505","items":[{"name":"CC헤어","tel":"031-521-5911","addr":"경기도 남양주시 와부읍 덕소리 141-8번지","category":"보건위생 - 미용원"},{"name":"건강하오 바디케어","tel":"031-577-2531","addr":"경기도 남양주시 와부읍 덕소리 141-8번지 3층","category":"보건위생 - 기타대인서비스"},{"name":"노랑고래","tel":"031-576-0325","addr":"경기도 남양주시 와부읍 덕소리 141-8번지 1층","category":"일반휴게음식 - 서양음식"},{"name":"세무사한상덕사무소","tel":"031-577-0056","addr":"경기도 남양주시 와부읍 덕소리 141-8번지 3층","category":"용역 서비스 - 법률회계서비스(개인)"},{"name":"짠투","tel":"031-577-6596","addr":"경기도 남양주시 와부읍 덕소리 141-8번지 1층 2호","category":"일반휴게음식 - 일반한식"},{"name":"초원카페","tel":"031-576-7938","addr":"경기도 남양주시 와부읍 덕소리 141-8번지","category":"일반휴게음식 - 서양음식"}]},{"lat":"37.584956456","long":"127.20867526","items":[{"name":"Cleanup24 빨래방 덕소점","tel":"","addr":"경기도 남양주시 와부읍 덕소리 600-15번지 강변현대홈타운 상가동 1층 107호","category":"수리서비스 - 세탁소"}]},{"lat":"37.58728507","long":"127.2114782","items":[{"name":"E.M.S(주)","tel":"031-576-3901","addr":"경기도 남양주시 와부읍 덕소리 462-50번지 세양아르비채리버 3층 308호","category":"건축자재 - 목재·석재·철물"},{"name":"Jin","tel":"031-521-9400","addr":"경기도 남양주시 와부읍 덕소리 462-50번지 세양아르비채리버 13층 1301호","category":"의류 - 정장"},{"name":"김밥나라","tel":"031-577-0847","addr":"경기도 남양주시 와부읍 덕소리 462-50번지 세양아르비체리버 105호","category":"일반휴게음식 - 스넥"},{"name":"나리타","tel":"031-577-9622","addr":"경기도 남양주시 와부읍 덕소리 462-50번지 세앙아르비채리버 102호","category":"일반휴게음식 - 일식·회집"},{"name":"다교네일","tel":"02-2061-6633","addr":"경기도 남양주시 와부읍 덕소리 462-50번지 세양아르비채리버 1층 116-1호","category":"보건위생 - 피부미용실"},{"name":"더블유영어지엠에스학원","tel":"031-576-0584","addr":"경기도 남양주시 와부읍 덕소리 462-50번지 세양아르비채리버 304-2호, 305-1호, 302호","category":"학원 - 보습학원"},{"name":"덕소노인요양원","tel":"031-577-8030","addr":"경기도 남양주시 와부읍 덕소리 462-50번지 세양아르비채리버 301호","category":"기타의료기관 - 기타의료기관 및 기타"},{"name":"드림프리덤","tel":"070-4792-9016","addr":"경기도 남양주시 와부읍 덕소리 462-50번지 1층 세양아르비체","category":"사무통신 - 통신기기"},{"name":"리본에스테틱","tel":"031-521-6100","addr":"경기도 남양주시 와부읍 덕소리 462-50번지 세앙아르비채리버 2층 204-1호","category":"보건위생 - 피부미용실"},{"name":"마음더하기 심리상담센터","tel":"031-521-2179","addr":"경기도 남양주시 와부읍 덕소리 462-50번지 세양아르비채리버 3층 310호","category":"보건위생 - 기타대인서비스"},{"name":"백세힐링","tel":"031-521-8838","addr":"경기도 남양주시 와부읍 덕소리 462-50번지 세양아르비채리버 309호","category":"보건위생 - 기타대인서비스"},{"name":"불닭발동대문엽기떡볶이덕소점","tel":"031-577-8591","addr":"경기도 남양주시 와부읍 덕소리 462-50번지 세양아르비채리버 1층 109호","category":"일반휴게음식 - 일반한식"},{"name":"성원영어학원","tel":"031-510-5070","addr":"경기도 남양주시 와부읍 덕소리 462-50번지 세양아르비채리버 상가 215호","category":"회원제형태 - 학원"},{"name":"소소구움과자점","tel":"031-000-0000","addr":"경기도 남양주시 와부읍 덕소리 462-50번지 세양아르비채리버 114호","category":"일반휴게음식 - 서양음식"},{"name":"신불떡볶이 남양주 덕소점","tel":"031-521-7050","addr":"경기도 남양주시 와부읍 덕소리 462-50번지 세양아르비채리버 1층 103호","category":"일반휴게음식 - 스넥"},{"name":"아첼음악학원","tel":"031-577-4889","addr":"경기도 남양주시 와부읍 덕소리 462-50번지 세양아르비채리버 212,213호","category":"학원 - 예·체능계학원"},{"name":"엠베스트SE네오학원","tel":"031-521-8250","addr":"경기도 남양주시 와부읍 덕소리 462-50번지 세양아르비채리버 215호 216 204-2","category":"학원 - 보습학원"},{"name":"이차돌 덕소점","tel":"","addr":"경기도 남양주시 와부읍 덕소리 462-50번지 세양아르비채리버 1층 107호, 108호","category":"일반휴게음식 - 일반한식"},{"name":"인다라한의원","tel":"031-576-7055","addr":"경기도 남양주시 와부읍 덕소리 462-50번지 세양아르비채리버 203호","category":"의원 - 한의원"},{"name":"잔잔","tel":"03-111-1111","addr":"경기도 남양주시 와부읍 덕소리 462-50번지 세양아르비채리버 1층 101호","category":"일반휴게음식 - 일반한식"},{"name":"쾌통한의원","tel":"031-577-2234","addr":"경기도 남양주시 와부읍 덕소리 462-50번지 세양아르비채리버 1층 113호","category":"의원 - 한의원"},{"name":"크린월드","tel":"031-515-1358","addr":"경기도 남양주시 와부읍 덕소리 462-50번지 세앙아르비채리버 1층 115호","category":"신변잡화 - 기타잡화"},{"name":"킹 필라테스","tel":"02-2226-1913","addr":"경기도 남양주시 와부읍 덕소리 462-50번지 세양아르비채리버 2층 206호","category":"레저업소 - 헬스클럽"},{"name":"환한법률사무소","tel":"031-521-9036","addr":"경기도 남양주시 와부읍 덕소리 462-50번지 세양아르비채리버 2층 209호","category":"용역 서비스 - 법률회계서비스(개인)"}]},{"lat":"37.589289124","long":"127.21435965","items":[{"name":"GS25남양주인정점","tel":"","addr":"경기도 남양주시 와부읍 덕소리 421-8번지","category":"유통업 영리 - 편 의 점"},{"name":"유신세탁소","tel":"031-577-0932","addr":"경기도 남양주시 와부읍 덕소리 421-8","category":"수리서비스 - 세탁소"}]},{"lat":"37.585422785","long":"127.20992193","items":[{"name":"GS25덕소역점","tel":"080-555-2525","addr":"경기도 남양주시 와부읍 덕소리 600-14번지 세양청마루","category":"유통업 영리 - 편 의 점"},{"name":"KY통신","tel":"031-521-8446","addr":"경기도 남양주시 와부읍 덕소리 600-14번지 세양청마루 107호","category":"사무통신 - 통신기기"},{"name":"간도우초밥","tel":"031-577-5768","addr":"경기도 남양주시 와부읍 덕소리 600-14번지 세양청마루 103호","category":"일반휴게음식 - 일식·회집"},{"name":"덕소곱창","tel":"031-521-4419","addr":"경기도 남양주시 와부읍 덕소리 600-14번지 세양청마루 125호","category":"일반휴게음식 - 일반한식"},{"name":"도마다리 뼈다귀 전문점","tel":"031-521-1577","addr":"경기도 남양주시 와부읍 덕소리 600-14번지 2-126,127,128호(세양청마루)","category":"일반휴게음식 - 일반한식"},{"name":"라임디자인","tel":"070-7699-7174","addr":"경기도 남양주시 와부읍 덕소리 600-14번지 세양청마루","category":"가구 - 기타가구"},{"name":"모닝글로리 덕소점","tel":"070-4788-0005","addr":"경기도 남양주시 와부읍 덕소리 600-14번지 지1층 1-B101호(세양청마루)","category":"서적문구 - 문구용품"},{"name":"뮤직샵","tel":"031-521-9255","addr":"경기도 남양주시 와부읍 덕소리 600-14 세양청마루제1층105호","category":"전기제품 - 기타전기제품"},{"name":"버즈카페","tel":"031-576-0191","addr":"경기도 남양주시 와부읍 덕소리 600-14번지 세양청마루 2동 120호","category":"일반휴게음식 - 스넥"},{"name":"솔헤어","tel":"031-577-7796","addr":"경기도 남양주시 와부읍 덕소리 600-14번지 세양청마루 2동 104호 104~105호","category":"보건위생 - 미용원"},{"name":"신성미래산업","tel":"031-577-0775","addr":"경기도 남양주시 와부읍 덕소리 600-14번지 세양청마루 1동 106호","category":"사무통신 - 기타 사무용품"},{"name":"아이꿈치과의원","tel":"031-521-7580","addr":"경기도 남양주시 와부읍 덕소리 600-14 세양청마루상가동203호~204호","category":"의원 - 치과의원"},{"name":"용인대 신동 태권도장","tel":"031-576-3334","addr":"경기도 남양주시 와부읍 덕소리 600-14번지 1동 3층 305,306호(세양청마루)","category":"학원 - 예·체능계학원"},{"name":"장스치킨","tel":"031-521-2219","addr":"경기도 남양주시 와부읍 덕소리 600-14번지 세양청마루 109,110호","category":"일반휴게음식 - 주점"},{"name":"젠틀콩(덕소점)","tel":"031-576-7970","addr":"경기도 남양주시 와부읍 덕소리 600-14번지 (세양청마루20,2-121호,122호)","category":"일반휴게음식 - 스넥"},{"name":"지우네 염색방","tel":"","addr":"경기도 남양주시 와부읍 덕소리 600-14번지 세양청마루 2동 119호","category":"보건위생 - 미용원"},{"name":"청담Lee끌림","tel":"031-521-5554","addr":"경기도 남양주시 와부읍 덕소리 600-14번지 (세양청마루2층1-208)","category":"회원제형태 - 기타4"},{"name":"포항회집(포장전문점)","tel":"031-521-5967","addr":"경기도 남양주시 와부읍 덕소리 600-14번지 세양청마루상가 103동 103호","category":"일반휴게음식 - 일반한식"},{"name":"프라이빗 필라테스","tel":"031-577-4313","addr":"경기도 남양주시 와부읍 덕소리 600-14번지 2층 1-202호(세양청마루)","category":"레저업소 - 헬스클럽"},{"name":"프라이스 세일","tel":"031-577-4123","addr":"경기도 남양주시 와부읍 덕소리 600-14번지 세양청마루 1동 108호","category":"신변잡화 - 기타잡화"},{"name":"해물마을","tel":"031-9351-5934","addr":"경기도 남양주시 와부읍 덕소리 600-14번지 지1층 3-비105호","category":"일반휴게음식 - 일반한식"},{"name":"홍가네쭈꾸미","tel":"031-576-0708","addr":"경기도 남양주시 와부읍 덕소리 600-14번지 2-114,2-115호(세양청마루)","category":"일반휴게음식 - 일반한식"}]},{"lat":"37.588508674","long":"127.20731506","items":[{"name":"GS25덕소월드점","tel":"","addr":"경기도 남양주시 와부읍 덕소리 604-26번지 덕소주공3단지 에이상가동 101호","category":"유통업 영리 - 편 의 점"}]},{"lat":"37.586647646","long":"127.21525792","items":[{"name":"GS25와부주공점","tel":"","addr":"경기도 남양주시 와부읍 덕소리 496-1번지 고성빌딩","category":"유통업 영리 - 편 의 점"},{"name":"공터영어와부센터학원","tel":"031-577-0531","addr":"경기도 남양주시 와부읍 덕소리 496-1번지 (외1필지 3층일부)","category":"학원 - 외국어학원"},{"name":"담아담아 아이스크림 할인점","tel":"070-7622-3535","addr":"경기도 남양주시 와부읍 덕소리 496-1번지 1층 고성빌딩","category":"음료식품 - 제과점"},{"name":"리헤어뷰","tel":"031-521-9558","addr":"경기도 남양주시 와부읍 덕소리 496-1번지 외1필지 2층","category":"보건위생 - 미용원"},{"name":"브런치카페우리집/(주)보토크리에이티브","tel":"031-521-5219","addr":"경기도 남양주시 와부읍 덕소리 496-1번지 2층","category":"일반휴게음식 - 서양음식"},{"name":"쉼과건강","tel":"031-576-0174","addr":"경기도 남양주시 와부읍 덕소리 496-1번지 고성빌딩 2층","category":"건강식품 - 기타건강식품"},{"name":"아이원안경콘택트","tel":"031-521-4313","addr":"경기도 남양주시 와부읍 덕소리 496-1 7,고성빌딩 1층","category":"보건위생 - 안경"},{"name":"용인대용무체육관","tel":"031-577-6322","addr":"경기도 남양주시 와부읍 덕소리 496-1번지 고성빌딩 5층 502호","category":"학원 - 예·체능계학원"},{"name":"플레이아트미술학원","tel":"031-577-0770","addr":"경기도 남양주시 와부읍 덕소리 496-1번지","category":"학원 - 예·체능계학원"},{"name":"핌스(PIMS)수학교습소","tel":"031-577-7963","addr":"경기도 남양주시 와부읍 덕소리 496-1, 7번지 고성빌딩 302호","category":"회원제형태 - 학원"}]},{"lat":"37.586950528","long":"127.21214526","items":[{"name":"J2당구장","tel":"031-576-5200","addr":"경기도 남양주시 와부읍 덕소리 465-1번지 3층","category":"레저업소 - 당 구 장"},{"name":"건축사무소그린","tel":"031-577-1907","addr":"경기도 남양주시 와부읍 덕소리 465-1번지","category":"용역 서비스 - 법률회계서비스(개인)"},{"name":"대박정육식당생삼겹살","tel":"031-577-2211","addr":"경기도 남양주시 와부읍 덕소리 465-1번지","category":"일반휴게음식 - 일반한식"},{"name":"덕소굿모닝치과의원","tel":"031-577-1400","addr":"경기도 남양주시 와부읍 덕소리 465-1번지 2층","category":"의원 - 치과의원"},{"name":"싼폰마트","tel":"070-7677-7962","addr":"경기도 남양주시 와부읍 덕소리 465-1 1층1호","category":"사무통신 - 통신기기"},{"name":"예라","tel":"031-577-7214","addr":"경기도 남양주시 와부읍 덕소리 465-1번지 1층 104호","category":"의류 - 정장"},{"name":"제이투어","tel":"031-8034-9991","addr":"경기도 남양주시 와부읍 덕소리 465-1번지","category":"여행 - 관광여행"}]},{"lat":"37.585977074","long":"127.21236897","items":[{"name":"JM 텔레콤","tel":"031-521-7308","addr":"경기도 남양주시 와부읍 덕소리 474-8번지 1층","category":"사무통신 - 통신기기"},{"name":"교동짬뽕","tel":"031-111-1111","addr":"경기도 남양주시 와부읍 덕소리 474-8번지","category":"일반휴게음식 - 중국식"},{"name":"사월약방","tel":"031-514-0715","addr":"경기도 남양주시 와부읍 덕소리 474-8번지 3층","category":"일반휴게음식 - 서양음식"},{"name":"선명사진관","tel":"031-576-1192","addr":"경기도 남양주시 와부읍 덕소리 474-8번지","category":"광학제품 - 사진관"},{"name":"아방덕소점","tel":"031-521-0370","addr":"경기도 남양주시 와부읍 덕소리 474-8번지","category":"회원제형태 - 기타4"},{"name":"에이비씨어학원","tel":"031-514-0715","addr":"경기도 남양주시 와부읍 덕소리 474-8번지 3층","category":"학원 - 외국어학원"},{"name":"이니스프리 덕소점","tel":"031-576-3571","addr":"경기도 남양주시 와부읍 덕소리 474-8번지 1층","category":"보건위생 - 화장품"},{"name":"조이점핑클럽 덕소점","tel":"031-577-1011","addr":"경기도 남양주시 와부읍 덕소리 474-8번지 4층","category":"레저업소 - 기타레져업소"},{"name":"파리바게뜨","tel":"031-576-4408","addr":"경기도 남양주시 와부읍 덕소리 474-8번지","category":"음료식품 - 제과점"}]},{"lat":"37.586703999","long":"127.21397871","items":[{"name":"JM금속","tel":"031-576-6140","addr":"경기도 남양주시 와부읍 덕소리 479-15번지 1층","category":"용역 서비스 - 기타용역서비스"},{"name":"명품수제담배","tel":"070-6918-8486","addr":"경기도 남양주시 와부읍 덕소리 479-15번지","category":"음료식품 - 기타음료식품"},{"name":"보물창고","tel":"070-8635-2483","addr":"경기도 남양주시 와부읍 덕소리 479-15번지","category":"음료식품 - 기타음료식품"},{"name":"부케집","tel":"031-521-7765","addr":"경기도 남양주시 와부읍 덕소리 479-15번지","category":"문화.취미 - 화원"},{"name":"삼신장식","tel":"031-577-0128","addr":"경기도 남양주시 와부읍 덕소리 479-15","category":"직물 - 카페트,커튼,천막,지물"},{"name":"인견마을","tel":"070-4799-4011","addr":"경기도 남양주시 와부읍 덕소리 479-15번지","category":"의류 - 정장"},{"name":"핸디페어","tel":"031-576-1472","addr":"경기도 남양주시 와부읍 덕소리 479-15","category":"건축자재 - 인테리어전문"}]},{"lat":"37.590480026","long":"127.21845042","items":[{"name":"LED조명 달빛한스푼","tel":"031-577-3733","addr":"경기도 남양주시 와부읍 덕소리 185-14번지 광동플라워","category":"건축자재 - 조명기구"},{"name":"예봉떡방앗간","tel":"031-576-3347","addr":"경기도 남양주시 와부읍 덕소리 185-14번지","category":"음료식품 - 제과점"}]},{"lat":"37.587088981","long":"127.21533843","items":[{"name":"LIMMIRAE-J","tel":"031-577-2600","addr":"경기도 남양주시 와부읍 덕소리 491-4번지 1층","category":"신변잡화 - 귀금속"},{"name":"러브유어스","tel":"","addr":"경기도 남양주시 와부읍 덕소리 491-4번지 1층 104호 러브유어스","category":"문화.취미 - 화원"}]},{"lat":"37.586838659","long":"127.21425082","items":[{"name":"MILK(밀크)","tel":"031-521-9729","addr":"경기도 남양주시 와부읍 덕소리 488-7번지 1층","category":"의류 - 정장"},{"name":"뮤직앤타임","tel":"031-515-5160","addr":"경기도 남양주시 와부읍 덕소리 488-7번지","category":"레져용품 - 악기점"},{"name":"바이오샵","tel":"031-515-4262","addr":"경기도 남양주시 와부읍 덕소리 488-7번지","category":"주방용구 - 주방용구"},{"name":"백조씽크","tel":"031-577-4705","addr":"경기도 남양주시 와부읍 덕소리 488-7번지","category":"주방용구 - 주방용구"}]},{"lat":"37.588983179","long":"127.21414366","items":[{"name":"ROSE LOVE ME(로즈러브미)","tel":"031-577-5445","addr":"경기도 남양주시 와부읍 덕소리 421-4번지","category":"신변잡화 - 액세서리"},{"name":"두레헤어라인","tel":"031-577-5445","addr":"경기도 남양주시 와부읍 덕소리 421-4","category":"보건위생 - 미용원"}]},{"lat":"37.585678283","long":"127.21319462","items":[{"name":"SBS노래연습장","tel":"031-521-2976","addr":"경기도 남양주시 와부읍 덕소리 111-6번지 지층","category":"레저업소 - 노 래 방"},{"name":"강주영뷰티헤어","tel":"031-576-5402","addr":"경기도 남양주시 와부읍 덕소리 111-6번지 주공2단지 상가 203호","category":"보건위생 - 미용원"},{"name":"또래오래","tel":"031-576-0028","addr":"경기도 남양주시 와부읍 덕소리 111-6번지 덕소주공2단지 상가 204호","category":"일반휴게음식 - 스넥"},{"name":"마녀왁싱","tel":"070-8119-8115","addr":"경기도 남양주시 와부읍 덕소리 111-6번지 덕소주공2단지 201호","category":"보건위생 - 피부미용실"},{"name":"샤네일","tel":"031-528-6263","addr":"경기도 남양주시 와부읍 덕소리 111-6번지 덕소주공2단지 102호","category":"보건위생 - 피부미용실"},{"name":"파리 (PARIS)","tel":"070-4686-9412","addr":"경기도 남양주시 와부읍 덕소리 111-6번지 덕소주공2단지 상가 102호","category":"의류 - 정장"},{"name":"피부사랑","tel":"031-521-6766","addr":"경기도 남양주시 와부읍 덕소리 111-6번지 덕소주공2단지 상가 202호","category":"회원제형태 - 기타4"}]},{"lat":"37.590148337","long":"127.21753235","items":[{"name":"YB디자인","tel":"","addr":"경기도 남양주시 와부읍 덕소리 189-1번지","category":"용역 서비스 - 종합용역"}]},{"lat":"37.586757713","long":"127.21417134","items":[{"name":"know답","tel":"070-8690-8685","addr":"경기도 남양주시 와부읍 덕소리 478-7번지 2층 호","category":"회원제형태 - 학원"}]},{"lat":"37.580625415","long":"127.21730123","items":[{"name":"yesencore","tel":"031-527-0217","addr":"경기도 남양주시 와부읍 덕소리 462-9번지 덕소한강벽산메가트리움 101동 1701호","category":"수리서비스 - 세탁소"}]},{"lat":"37.587561661","long":"127.21300744","items":[{"name":"가나안교역","tel":"031-521-2768","addr":"경기도 남양주시 와부읍 덕소리 483번지 썬플렉스 210호","category":"유통업 영리 - 기타유통업"},{"name":"갤러리진앤어샘블라지","tel":"031-521-6181","addr":"경기도 남양주시 와부읍 덕소리 483번지 선플렉스 1층 101호","category":"의류 - 정장"},{"name":"경희대중앙체육관","tel":"031-577-3082","addr":"경기도 남양주시 와부읍 덕소리 483번지 선플렉스 본관 4층 406호","category":"회원제형태 - 학원"},{"name":"구피샵덕소점","tel":"031-552-7777","addr":"경기도 남양주시 와부읍 덕소리 483번지 선플렉스 1층 110호","category":"보건위생 - 미용원"},{"name":"남도밥상","tel":"031-576-6389","addr":"경기도 남양주시 와부읍 덕소리 483번지 선플렉스 1층 121호","category":"일반휴게음식 - 일반한식"},{"name":"녹십초 덕소지사","tel":"031-527-7703","addr":"경기도 남양주시 와부읍 덕소리 483번지 선플렉스 122호","category":"건강식품 - 기타건강식품"},{"name":"누가의료기","tel":"031-521-7514","addr":"경기도 남양주시 와부읍 덕소리 483번지 선플렉스본관 2층 201호","category":"보건위생 - 의료용품"},{"name":"다촌","tel":"031-521-2485","addr":"경기도 남양주시 와부읍 덕소리 483번지 선플렉스 133호","category":"음료식품 - 기타음료식품"},{"name":"닭이생각나는밤","tel":"","addr":"경기도 남양주시 와부읍 덕소리 483번지 선플렉스본관 105호","category":"일반휴게음식 - 일반한식"},{"name":"덕소 복싱체육관","tel":"031-576-6846","addr":"경기도 남양주시 와부읍 덕소리 483번지 외1필지선플렉스제3층 303호","category":"회원제형태 - 레져업소"},{"name":"덕소간호학원","tel":"031-577-2787","addr":"경기도 남양주시 와부읍 덕소리 483번지 선플렉스 210호","category":"회원제형태 - 학원"},{"name":"덕소스포츠크리닉선테","tel":"031-521-6545","addr":"경기도 남양주시 와부읍 덕소리 483번지 선플렉스본관 701호","category":"레저업소 - 헬스클럽"},{"name":"리빙아울렛","tel":"032-812-9850","addr":"경기도 남양주시 와부읍 덕소리 483번지 지하1층","category":"신변잡화 - 기타잡화"},{"name":"면의혁명","tel":"031-576-7550","addr":"경기도 남양주시 와부읍 덕소리 483번지 선플렉스본관 1층 104호","category":"일반휴게음식 - 일반한식"},{"name":"민이네 수입코너","tel":"031-576-1398","addr":"경기도 남양주시 와부읍 덕소리 483번지 선플렉스본관 126호","category":"의류 - 정장"},{"name":"배달5삼겹.Dr찬의찌개백반","tel":"031-521-9244","addr":"경기도 남양주시 와부읍 덕소리 483번지 선플렉스본관 1층 103호","category":"일반휴게음식 - 일반한식"},{"name":"백향목","tel":"031-000-0000","addr":"경기도 남양주시 와부읍 덕소리 483번지 선플렉스본관 137호","category":"의류 - 정장"},{"name":"보정르네셀","tel":"031-576-3322","addr":"경기도 남양주시 와부읍 덕소리 483번지 선플렉스 108호","category":"회원제형태 - 기타1"},{"name":"뷔보존헤어샵","tel":"031-576-3293","addr":"경기도 남양주시 와부읍 덕소리 483번지 선플렉스 211호","category":"보건위생 - 미용원"},{"name":"블랙트리","tel":"031-577-7826","addr":"경기도 남양주시 와부읍 덕소리 483번지 선플렉스본관 142호","category":"의류 - 정장"},{"name":"비엠레포츠(주)","tel":"031-521-2323","addr":"경기도 남양주시 와부읍 덕소리 483번지 선플렉스 5층","category":"레저업소 - 기타레져업소"},{"name":"성모의원","tel":"031-577-6242","addr":"경기도 남양주시 와부읍 덕소리 483번지 썬플렉스 305호","category":"의원 - 의원"},{"name":"소나무화실미술교습소","tel":"070-8864-2524","addr":"경기도 남양주시 와부읍 덕소리 483번지 선플렉스 1층 112호","category":"학원 - 예·체능계학원"},{"name":"스타일","tel":"031-251-0886","addr":"경기도 남양주시 와부읍 덕소리 483번지 선플렉스 본관 1층 143호","category":"의류 - 정장"},{"name":"실과바늘","tel":"031-577-5772","addr":"경기도 남양주시 와부읍 덕소리 483번지 썬플렉스 본관 1층 144호","category":"직물 - 침구·수예점"},{"name":"아이미인","tel":"031-577-8906","addr":"경기도 남양주시 와부읍 덕소리 483-1 썬플렉스1층 105","category":"보건위생 - 화장품"},{"name":"아이스크림 전문점","tel":"031-577-1542","addr":"경기도 남양주시 와부읍 덕소리 483번지 선플렉스 본관 1층 107호","category":"음료식품 - 기타음료식품"},{"name":"아트펠리아미술학원","tel":"031-577-0663","addr":"경기도 남양주시 와부읍 덕소리 483번지 선플렉스 408호","category":"학원 - 예·체능계학원"},{"name":"안느","tel":"031-577-9399","addr":"경기도 남양주시 와부읍 덕소리 483번지 1층 131호 선플렉스상가","category":"의류 - 정장"},{"name":"애뿌공방","tel":"031-521-3292","addr":"경기도 남양주시 와부읍 덕소리 483번지 113호 , 선플렉스제1층","category":"문화.취미 - 문화취미기타"},{"name":"에이비씨(ABC) 롤러장","tel":"031-000-0000","addr":"경기도 남양주시 와부읍 덕소리 483번지 지하1층","category":"레저업소 - 기타레져업소"},{"name":"연세김치과","tel":"031-577-0031","addr":"경기도 남양주시 와부읍 덕소리 483번지 썬플렉스 306호","category":"의원 - 치과의원"},{"name":"오휘두산위브","tel":"031-577-7818","addr":"경기도 남양주시 와부읍 덕소리 483번지 선플렉스 302호","category":"보건위생 - 화장품"},{"name":"이화클래식음악학원","tel":"031-521-2850","addr":"경기도 남양주시 와부읍 덕소리 483번지 선플렉스 409호 본관","category":"학원 - 예·체능계학원"},{"name":"인우","tel":"031-527-8435","addr":"경기도 남양주시 와부읍 덕소리 483번지 선플렉스 상가 1층 129호","category":"의류 - 정장"},{"name":"커피앤커피","tel":"031-576-0996","addr":"경기도 남양주시 와부읍 덕소리 483번지 선플렉스 115호","category":"일반휴게음식 - 서양음식"},{"name":"케어셀라(남양주덕소점)","tel":"031-576-0466","addr":"경기도 남양주시 와부읍 덕소리 483번지 116호 선플렉스본관","category":"보건위생 - 화장품"},{"name":"코리아발레아카데미학원","tel":"031-521-0777","addr":"경기도 남양주시 와부읍 덕소리 483번지 선플렉스본관 407호","category":"학원 - 예·체능계학원"},{"name":"코스모뷰티샵","tel":"031-577-3328","addr":"경기도 남양주시 와부읍 덕소리 483번지","category":"보건위생 - 화장품"},{"name":"태리맘2","tel":"070-8153-6888","addr":"경기도 남양주시 와부읍 덕소리 483번지 선플렉스 102호","category":"의류 - 정장"},{"name":"토탈뷰티","tel":"031-521-8073","addr":"경기도 남양주시 와부읍 덕소리 483번지 선플렉스 123호","category":"보건위생 - 화장품"},{"name":"트리아트아카데미","tel":"031-521-7046","addr":"경기도 남양주시 와부읍 덕소리 483번지","category":"문화.취미 - 문화취미기타"},{"name":"해피하우스","tel":"031-521-6840","addr":"경기도 남양주시 와부읍 덕소리 483번지 선플렉스 135호","category":"의류 - 정장"}]},{"lat":"37.587341355","long":"127.21528254","items":[{"name":"가시버시인테리어디자인","tel":"031-577-7870","addr":"경기도 남양주시 와부읍 덕소리 491-1번지","category":"건축자재 - 인테리어전문"},{"name":"덕소찌개마을","tel":"031-576-4997","addr":"경기도 남양주시 와부읍 덕소리 491-1번지","category":"일반휴게음식 - 일반한식"},{"name":"써니","tel":"031-577-8331","addr":"경기도 남양주시 와부읍 덕소리 491-1번지","category":"보건위생 - 화장품"},{"name":"씨티케이(더까까주까)","tel":"070-8844-6890","addr":"경기도 남양주시 와부읍 덕소리 491-1번지","category":"음료식품 - 기타음료식품"}]},{"lat":"37.587789246","long":"127.21672171","items":[{"name":"가위소리헤어숍","tel":"031-577-2759","addr":"경기도 남양주시 와부읍 덕소리 141-7번지 외1필지","category":"보건위생 - 미용원"},{"name":"대영냉열","tel":"031-577-2150","addr":"경기도 남양주시 와부읍 덕소리 141-7번지","category":"전기제품 - 냉열기기"},{"name":"쌍용각","tel":"031-577-9462","addr":"경기도 남양주시 와부읍 덕소리 141-7","category":"일반휴게음식 - 일반한식"},{"name":"오유아이(OUI)실용음악학원","tel":"031-577-5665","addr":"경기도 남양주시 와부읍 덕소리 141-7번지 2층","category":"학원 - 예·체능계학원"}]},{"lat":"37.587591401","long":"127.21147905","items":[{"name":"갑부생삼겹살","tel":"031-577-1512","addr":"경기도 남양주시 와부읍 덕소리 462-35번지 1동 1호","category":"일반휴게음식 - 일반한식"},{"name":"다모임헤어","tel":"031-577-0803","addr":"경기도 남양주시 와부읍 덕소리 462-35번지","category":"보건위생 - 미용원"}]},{"lat":"37.585400411","long":"127.21238999","items":[{"name":"강남웰스에듀학원","tel":"031-577-2320","addr":"경기도 남양주시 와부읍 덕소리 112-1번지 동산빌딩 302호","category":"학원 - 보습학원"},{"name":"굿윌(Good Will)","tel":"","addr":"경기도 남양주시 와부읍 덕소리 112-1번지 동산빌딩 5층 503호","category":"용역 서비스 - 사무서비스"},{"name":"김란산부인과","tel":"031-521-0035","addr":"경기도 남양주시 와부읍 덕소리 112-1번지 4층 동산빌딩","category":"의원 - 의원"},{"name":"덕소우리약국","tel":"031-577-7852","addr":"경기도 남양주시 와부읍 덕소리 112-1번지 동산빌딩 5층 502호","category":"약국 - 약국"},{"name":"덕소우리약국","tel":"031-577-7852","addr":"경기도 남양주시 와부읍 덕소리 112-1번지 동산빌딩 5층 502호","category":"약국 - 약국"},{"name":"라파엘치과의원","tel":"031-521-2275","addr":"경기도 남양주시 와부읍 덕소리 112-1번지 동산빌딩 303호","category":"의원 - 치과의원"},{"name":"삼성우리이비인후과의원 덕소점","tel":"031-521-0300","addr":"경기도 남양주시 와부읍 덕소리 112-1번지 동산빌딩 601호 상가","category":"의원 - 의원"},{"name":"슈가헤어","tel":"031-577-7790","addr":"경기도 남양주시 와부읍 덕소리 112-1번지 동산빌딩 301호","category":"보건위생 - 미용원"},{"name":"오케이프린팅(J&H)","tel":"070-4042-7900","addr":"경기도 남양주시 와부읍 덕소리 112-1번지 동산빌딩 604호","category":"용역 서비스 - 종합용역"},{"name":"이정재한의원","tel":"031-597-1800","addr":"경기도 남양주시 와부읍 덕소리 112-1번지 동산빌딩 4층 402호","category":"의원 - 한의원"},{"name":"정의와증명 수학학원","tel":"031-576-0720","addr":"경기도 남양주시 와부읍 덕소리 112-1번지 동산빌딩 상가 501호 일부","category":"학원 - 보습학원"},{"name":"탈렌트노래연습장","tel":"031-111-1111","addr":"경기도 남양주시 와부읍 덕소리 112-1번지 동산빌딩상가 B-101호","category":"레저업소 - 노 래 방"},{"name":"토즈멤버십라운지 덕소센터","tel":"031-577-9988","addr":"경기도 남양주시 와부읍 덕소리 112-1번지 동산빌딩 701호","category":"용역 서비스 - 사무서비스"},{"name":"토즈스터디센터 덕소독서실","tel":"031-577-9988","addr":"경기도 남양주시 와부읍 덕소리 112-1번지 동산빌딩 701호","category":"학원 - 독서실"},{"name":"포메인덕소점","tel":"031-521-7389","addr":"경기도 남양주시 와부읍 덕소리 112-1번지 동산빌딩 201호","category":"일반휴게음식 - 일반한식"}]},{"lat":"37.586535336","long":"127.212563","items":[{"name":"강남찌게나라","tel":"070-4406-2600","addr":"경기도 남양주시 와부읍 덕소리 474-13번지 1층","category":"일반휴게음식 - 일반한식"},{"name":"이브자리 남양주덕소점","tel":"031-1111-1111","addr":"경기도 남양주시 와부읍 덕소리 474-13번지 1층","category":"직물 - 침구·수예점"},{"name":"이브자리 덕소점","tel":"031-521-2980","addr":"경기도 남양주시 와부읍 덕소리 474-13번지","category":"직물 - 침구·수예점"},{"name":"이브자리 덕소점","tel":"031-521-2980","addr":"경기도 남양주시 와부읍 덕소리 474-13번지 1층","category":"직물 - 침구·수예점"},{"name":"이태원의류점","tel":"031-577-7793","addr":"경기도 남양주시 와부읍 덕소리 474-13번지","category":"의류 - 정장"}]},{"lat":"37.588703856","long":"127.20905921","items":[{"name":"강빛어린이집[아이행복]","tel":"031-521-1890","addr":"경기도 남양주시 와부읍 덕소리 606-1번지 주공3단지","category":"학원 - 유아원"}]},{"lat":"37.593841284","long":"127.22300063","items":[{"name":"강창구진찹쌀순대","tel":"031-576-9990","addr":"경기도 남양주시 와부읍 덕소리 36-30번지 1층","category":"일반휴게음식 - 일반한식"},{"name":"착한낙지","tel":"031-577-4444","addr":"경기도 남양주시 와부읍 덕소리 36-30번지","category":"일반휴게음식 - 일반한식"}]},{"lat":"37.587315227","long":"127.20970073","items":[{"name":"개성면옥","tel":"031-576-7474","addr":"경기도 남양주시 와부읍 덕소리 462-19번지 개성면옥","category":"일반휴게음식 - 일반한식"}]},{"lat":"37.590968592","long":"127.2173309","items":[{"name":"경기기와","tel":"","addr":"경기도 남양주시 와부읍 덕소리 213-11번지 전원그린빌 105동 301호","category":"용역 서비스 - 기타용역서비스"}]},{"lat":"37.588415188","long":"127.20926221","items":[{"name":"경기수산","tel":"031-576-3841","addr":"경기도 남양주시 와부읍 덕소리 606-1번지 덕소주공3단지 309동 701호","category":"회원제형태 - 기타1"}]},{"lat":"37.587448615","long":"127.21575837","items":[{"name":"경기지물포","tel":"031-577-1716","addr":"경기도 남양주시 와부읍 덕소리 490-23번지","category":"직물 - 카페트,커튼,천막,지물"},{"name":"덕소국수","tel":"031-515-8028","addr":"경기도 남양주시 와부읍 덕소리 490-23번지","category":"일반휴게음식 - 일반한식"}]},{"lat":"37.587920305","long":"127.20888722","items":[{"name":"경동보일러","tel":"031-521-0014","addr":"경기도 남양주시 와부읍 덕소리 590-44번지","category":"건축자재 - 보일러·펌프·샷시"}]},{"lat":"37.585508085","long":"127.21263937","items":[{"name":"경문보습학원","tel":"031-576-0587","addr":"경기도 남양주시 와부읍 덕소리 112-2번지 덕소중앙프라자 501호","category":"학원 - 보습학원"},{"name":"국제BYC트라이속옷","tel":"02-111-1111","addr":"경기도 남양주시 와부읍 덕소리 112-2번지 덕소중앙프라자 1층 101호","category":"의류 - 내의판매"},{"name":"그린식당","tel":"","addr":"경기도 남양주시 와부읍 덕소리 112-2번지 지층 106,108,109호","category":"일반휴게음식 - 일반한식"},{"name":"김안과의원","tel":"031-576-5335","addr":"경기도 남양주시 와부읍 덕소리 중앙프라자 303호","category":"의원 - 의원"},{"name":"김정하이비인후과","tel":"031-576-3137","addr":"경기도 남양주시 와부읍 덕소리 중앙프라자 302호","category":"의원 - 의원"},{"name":"누가마취통증의학과","tel":"031-577-5020","addr":"경기도 남양주시 와부읍 덕소리 112-2번지 중앙프라자 202호","category":"의원 - 의원"},{"name":"대찬학원","tel":"031-576-1663","addr":"경기도 남양주시 와부읍 덕소리 112-2번지 덕소중앙프라자 502호","category":"학원 - 기타 교육기관"},{"name":"미소치과의원","tel":"031-521-2877","addr":"경기도 남양주시 와부읍 덕소리 112-2번지 중앙프라자 404호","category":"의원 - 치과의원"},{"name":"민속식당","tel":"031-521-1284","addr":"경기도 남양주시 와부읍 덕소리 112-2번지 (중앙프라자B101,102호)","category":"일반휴게음식 - 일반한식"},{"name":"산수갑산","tel":"031-521-5515","addr":"경기도 남양주시 와부읍 덕소리 112-2번지 덕소중앙프라자 지층 113호","category":"일반휴게음식 - 일반한식"},{"name":"샤보이덕소점","tel":"031-577-2232","addr":"경기도 남양주시 와부읍 덕소리 112-2번지 덕소중앙프라자 103호","category":"보건위생 - 미용원"},{"name":"웰빙국수","tel":"070-6228-8921","addr":"경기도 남양주시 와부읍 덕소리 112-2번지 덕소중앙프라자 B107호","category":"일반휴게음식 - 일반한식"},{"name":"이비뇨기과의원","tel":"031-576-7776","addr":"경기도 남양주시 와부읍 덕소리 112-2번지 덕소중앙프라자 403호","category":"의원 - 의원"},{"name":"중앙한의원","tel":"031-576-4087","addr":"경기도 남양주시 와부읍 덕소리 중앙프라자 304호","category":"의원 - 한의원"},{"name":"치어스덕소점","tel":"031-521-9122","addr":"경기도 남양주시 와부읍 덕소리 112-2번지 중앙프라자 2층 201호","category":"일반휴게음식 - 주점"},{"name":"하이킥수학교습소","tel":"031-521-4887","addr":"경기도 남양주시 와부읍 덕소리 112-2번지 덕소중앙프라자 401호","category":"회원제형태 - 학원"}]},{"lat":"37.587256758","long":"127.21220272","items":[{"name":"경성떡집","tel":"031-577-6721","addr":"경기도 남양주시 와부읍 덕소리 462-57번지","category":"음료식품 - 제과점"},{"name":"육림정육점","tel":"031-577-2050","addr":"경기도 남양주시 와부읍 덕소리 462-57번지","category":"음료식품 - 정육점"},{"name":"축산물도매마트","tel":"031-521-7661","addr":"경기도 남양주시 와부읍 덕소리 462-57번지 1층 축산물할인마트","category":"음료식품 - 정육점"}]},{"lat":"37.591003284","long":"127.2229583","items":[{"name":"경주정밀","tel":"02-441-9898","addr":"경기도 남양주시 와부읍 덕소리 613번지 남양주덕소동부센트레빌 105동 801호","category":"수리서비스 - 기타수리서비스"}]},{"lat":"37.588338942","long":"127.21666667","items":[{"name":"경희강동한의원","tel":"031-521-7530","addr":"경기도 남양주시 와부읍 덕소리 196-25번지 101,102호","category":"의원 - 한의원"},{"name":"아이엠뮤직학원","tel":"031-521-0155","addr":"경기도 남양주시 와부읍 덕소리 196-25번지 마이다스빌딩 4층 401호","category":"학원 - 예·체능계학원"},{"name":"촌놈수학교습소","tel":"031-577-5938","addr":"경기도 남양주시 와부읍 덕소리 196-25번지 마이다스빌딩 1동 402호 일부","category":"학원 - 보습학원"},{"name":"피치커머스","tel":"070-4681-5673","addr":"경기도 남양주시 와부읍 덕소리 196-25번지 마이다스빌딩 5층 2호","category":"주방용구 - 주방용구"},{"name":"핏걸 덕소점","tel":"","addr":"경기도 남양주시 와부읍 덕소리 196-25번지 마이다스빌딩 503호","category":"레저업소 - 헬스클럽"},{"name":"홍탕덕소점","tel":"031-577-5080","addr":"경기도 남양주시 와부읍 덕소리 196-25번지 마이다스빌딩 103호","category":"일반휴게음식 - 일반한식"}]},{"lat":"37.586841325","long":"127.21275633","items":[{"name":"경희숙녀복","tel":"031-577-4034","addr":"경기도 남양주시 와부읍 덕소리 480-18번지","category":"의류 - 정장"},{"name":"김순영헤어샵","tel":"031-576-9796","addr":"경기도 남양주시 와부읍 덕소리 480-18번지 1층","category":"보건위생 - 미용원"},{"name":"몬스비","tel":"031-000-0000","addr":"경기도 남양주시 와부읍 덕소리 480-18번지 1층","category":"의류 - 정장"},{"name":"인피니티 텔레콤","tel":"031-521-0517","addr":"경기도 남양주시 와부읍 덕소리 480-18번지 1층","category":"사무통신 - 통신기기"},{"name":"자연애(  )","tel":"031-521-4668","addr":"경기도 남양주시 와부읍 덕소리 480-18번지 1층","category":"음료식품 - 농·축·수산품"}]},{"lat":"37.597867895","long":"127.21852835","items":[{"name":"고릴라키즈(남양주점)","tel":"031-577-9450","addr":"경기도 남양주시 와부읍 덕소리 283-20번지","category":"의류 - 아동의류"}]},{"lat":"37.58483729","long":"127.20984106","items":[{"name":"고슴도치에게 파마를 양에게 생머리를","tel":"031-521-8850","addr":"경기도 남양주시 와부읍 덕소리 567-3번지 레일스타 108호","category":"회원제형태 - 기타4"},{"name":"골뱅이이모네포장마차","tel":"031-576-2248","addr":"경기도 남양주시 와부읍 덕소리 567-3번지 래일스타 112호","category":"일반휴게음식 - 일반한식"},{"name":"곱분이곱창앤구이구닭갈비","tel":"031-1111-1111","addr":"경기도 남양주시 와부읍 덕소리 567-3번지 113,114호","category":"일반휴게음식 - 일반한식"},{"name":"까소빈(casobean)","tel":"031-521-8248","addr":"경기도 남양주시 와부읍 덕소리 567-3번지 래일스타상가 1층 101호","category":"일반휴게음식 - 서양음식"},{"name":"나이스골프","tel":"031-577-5528","addr":"경기도 남양주시 와부읍 덕소리 567-3번지 레일스타빌딩 406호 405호,406호","category":"레저업소 - 골프연습장"},{"name":"남도사랑채","tel":"031-576-0589","addr":"경기도 남양주시 와부읍 덕소리 567-3번지 레일스타 114호","category":"일반휴게음식 - 일반한식"},{"name":"니코니코","tel":"031-528-6263","addr":"경기도 남양주시 와부읍 덕소리 567-3번지 레일스타빌딩 205호","category":"일반휴게음식 - 일반한식"},{"name":"더라이브","tel":"031-577-7080","addr":"경기도 남양주시 와부읍 덕소리 567-3번지 레일스타빌딩 201호","category":"일반휴게음식 - 주점"},{"name":"덕소테라피","tel":"031-576-2029","addr":"경기도 남양주시 와부읍 덕소리 567-3번지 레일스타빌딩 502호","category":"보건위생 - 기타대인서비스"},{"name":"도쿄라멘 덕소점","tel":"031-577-3903","addr":"경기도 남양주시 와부읍 덕소리 567-3번지 레일스타빌딩 108호","category":"일반휴게음식 - 일식·회집"},{"name":"래일스타#PCN","tel":"070-3494-3474","addr":"경기도 남양주시 와부읍 덕소리 567-3번지 레일스타빌딩 3층 1-3호","category":"레저업소 - 기타레져업소"},{"name":"미스코리아족","tel":"031-513-5801","addr":"경기도 남양주시 와부읍 덕소리 567-3번지 래일스타 106호","category":"일반휴게음식 - 일반한식"},{"name":"바다노래방","tel":"031-577-9953","addr":"경기도 남양주시 와부읍 덕소리 567-3번지 레일스타 504동 505호","category":"레저업소 - 노 래 방"},{"name":"본가돈부리","tel":"070-4223-4452","addr":"경기도 남양주시 와부읍 덕소리 567-3번지 레일스타 206호","category":"일반휴게음식 - 일반한식"},{"name":"새정음악학원","tel":"031-521-6066","addr":"경기도 남양주시 와부읍 덕소리 567-3번지 레일스타 상가 4층 402호","category":"회원제형태 - 학원"},{"name":"선에스테틱","tel":"031-576-0123","addr":"경기도 남양주시 와부읍 덕소리 567-3번지 레일스타빌딩 501호 일부","category":"보건위생 - 피부미용실"},{"name":"성진광고","tel":"031-577-4988","addr":"경기도 남양주시 와부읍 덕소리 567-3 레일스타 404","category":"용역 서비스 - 종합용역"},{"name":"세양세탁","tel":"031-521-3210","addr":"경기도 남양주시 와부읍 덕소리 567-3번지 1층 102호 래일스타","category":"수리서비스 - 세탁소"},{"name":"센틴컵","tel":"031-577-2334","addr":"경기도 남양주시 와부읍 덕소리 567-3번지 204호(래일스타)","category":"일반휴게음식 - 서양음식"},{"name":"엘바","tel":"031-521-7877","addr":"경기도 남양주시 와부읍 덕소리 567-3번지 레일스타빌딩 503호","category":"일반휴게음식 - 일반한식"},{"name":"엣지헤어","tel":"031-577-5502","addr":"경기도 남양주시 와부읍 덕소리 567-3번지 레일스타빌딩 2층 202호","category":"보건위생 - 미용원"},{"name":"쭈노치킨가게","tel":"031-521-9242","addr":"경기도 남양주시 와부읍 덕소리 567-3번지 레일스타빌딩 1층 109호","category":"일반휴게음식 - 스넥"},{"name":"치치","tel":"031-521-2677","addr":"경기도 남양주시 와부읍 덕소리 567-3번지 레일스타빌딩 103호","category":"일반휴게음식 - 일반한식"},{"name":"컬미(Curl me)","tel":"","addr":"경기도 남양주시 와부읍 덕소리 567-3번지 레일스타빌딩 501호 일부호","category":"보건위생 - 피부미용실"},{"name":"필O₂독서실","tel":"031-577-9988","addr":"경기도 남양주시 와부읍 덕소리 567-3번지 레일스타 601호 602일부","category":"학원 - 독서실"},{"name":"하남돼지집","tel":"031-521-7676","addr":"경기도 남양주시 와부읍 덕소리 567-3번지 104. 105호","category":"일반휴게음식 - 일반한식"},{"name":"헤어빈","tel":"031-521-5050","addr":"경기도 남양주시 와부읍 덕소리 567-3번지 레일스타빌딩 1층 102호","category":"보건위생 - 미용원"},{"name":"황소곱창","tel":"02-836-1040","addr":"경기도 남양주시 와부읍 덕소리 567-3번지 레일스타빌딩 110호","category":"일반휴게음식 - 일반한식"}]},{"lat":"37.584310513","long":"127.21222844","items":[{"name":"고슴도치에게파마를양에게생머리를","tel":"031-521-8850","addr":"경기도 남양주시 와부읍 덕소리 511-1번지 제 1층 제104호","category":"보건위생 - 미용원"},{"name":"꽈배기마법사덕소점","tel":"031-516-2297","addr":"경기도 남양주시 와부읍 덕소리 511-1번지 덕소빌딩 나동 1층 103호","category":"일반휴게음식 - 서양음식"},{"name":"내고향 왕만두","tel":"031-577-3026","addr":"경기도 남양주시 와부읍 덕소리 511-1번지 성일우리미아파트 1호","category":"일반휴게음식 - 일반한식"},{"name":"더착한커피(덕소점)","tel":"031-1111-1111","addr":"경기도 남양주시 와부읍 덕소리 511-1번지 성일우리미아파트 가동 1층 102호","category":"일반휴게음식 - 서양음식"},{"name":"덕소대학약국","tel":"031-521-9393","addr":"경기도 남양주시 와부읍 덕소리 511-1번지 성일우리미아파트 가동 103호","category":"약국 - 약국"},{"name":"삼성세화의원","tel":"031-576-3077","addr":"경기도 남양주시 와부읍 덕소리 511-1번지 덕소빌딩 2층","category":"의원 - 의원"},{"name":"아름다운턱치과","tel":"031-576-7522","addr":"경기도 남양주시 와부읍 덕소리 511-1번지","category":"의원 - 치과의원"},{"name":"아모레","tel":"031-521-0520","addr":"경기도 남양주시 와부읍 덕소리 511-1번지 4층","category":"보건위생 - 화장품"},{"name":"아모레","tel":"031-576-8816","addr":"경기도 남양주시 와부읍 덕소리 511-1번지 4층","category":"보건위생 - 화장품"},{"name":"아모레","tel":"031-576-8816","addr":"경기도 남양주시 와부읍 덕소리 511-1번지 4층","category":"보건위생 - 화장품"},{"name":"아모레","tel":"031-576-8816","addr":"경기도 남양주시 와부읍 덕소리 511-1번지 4층","category":"보건위생 - 화장품"},{"name":"아모레","tel":"031-575-8816","addr":"경기도 남양주시 와부읍 덕소리 511-1번지 4층","category":"보건위생 - 화장품"},{"name":"아모레","tel":"031-576-8816","addr":"경기도 남양주시 와부읍 덕소리 511-1번지 4층","category":"보건위생 - 화장품"},{"name":"아모레","tel":"031-576-8816","addr":"경기도 남양주시 와부읍 덕소리 511-1번지 4층","category":"보건위생 - 화장품"},{"name":"아모레","tel":"031-576-8816","addr":"경기도 남양주시 와부읍 덕소리 511-1번지 4층","category":"보건위생 - 화장품"},{"name":"아모레","tel":"031-576-8816","addr":"경기도 남양주시 와부읍 덕소리 511-1번지 4층","category":"보건위생 - 화장품"},{"name":"아모레","tel":"031-576-8816","addr":"경기도 남양주시 와부읍 덕소리 511-1번지 4층","category":"보건위생 - 화장품"},{"name":"아모레","tel":"031-576-8816","addr":"경기도 남양주시 와부읍 덕소리 511-1번지 4층","category":"보건위생 - 화장품"},{"name":"아모레","tel":"031-576-8816","addr":"경기도 남양주시 와부읍 덕소리 511-1번지 4층","category":"보건위생 - 화장품"},{"name":"아모레","tel":"031-576-8816","addr":"경기도 남양주시 와부읍 덕소리 511-1번지 4층","category":"보건위생 - 화장품"},{"name":"아모레","tel":"031-576-8816","addr":"경기도 남양주시 와부읍 덕소리 511-1번지","category":"보건위생 - 화장품"},{"name":"아모레","tel":"031-576-8816","addr":"경기도 남양주시 와부읍 덕소리 511-1번지 4층","category":"보건위생 - 화장품"},{"name":"아모레방판","tel":"031-576-8816","addr":"경기도 남양주시 와부읍 덕소리 511-1번지 4층","category":"보건위생 - 화장품"},{"name":"아모레방판","tel":"031-576-8816","addr":"경기도 남양주시 와부읍 덕소리 511-1번지 4층","category":"보건위생 - 화장품"},{"name":"아모레카운셀러","tel":"031-576-8816","addr":"경기도 남양주시 와부읍 덕소리 511-1번지","category":"보건위생 - 화장품"},{"name":"아모레카운셀러","tel":"031-576-8816","addr":"경기도 남양주시 와부읍 덕소리 511-1번지","category":"보건위생 - 화장품"},{"name":"아모레카운셀러","tel":"031-576-8816","addr":"경기도 남양주시 와부읍 덕소리 511-1번지 4층","category":"보건위생 - 화장품"},{"name":"아모레카운셀러","tel":"031-576-8816","addr":"경기도 남양주시 와부읍 덕소리 511-1번지 4층","category":"보건위생 - 화장품"},{"name":"아모레카운셀러","tel":"031-576-8816","addr":"경기도 남양주시 와부읍 덕소리 511-1번지","category":"보건위생 - 화장품"},{"name":"아모레카운셀러","tel":"031-576-8816","addr":"경기도 남양주시 와부읍 덕소리 511-1번지 4층","category":"보건위생 - 화장품"},{"name":"아모레카운셀러","tel":"031-576-8816","addr":"경기도 남양주시 와부읍 덕소리 511-1번지","category":"보건위생 - 화장품"},{"name":"아모레카운셀러","tel":"031-576-8816","addr":"경기도 남양주시 와부읍 덕소리 511-1번지 4층","category":"보건위생 - 화장품"},{"name":"아모레카운셀러","tel":"031-576-8816","addr":"경기도 남양주시 와부읍 덕소리 511-1번지 4층","category":"보건위생 - 화장품"},{"name":"아모레카운셀러","tel":"031-576-8816","addr":"경기도 남양주시 와부읍 덕소리 511-1번지 4층","category":"보건위생 - 화장품"},{"name":"어린왕자이야기","tel":"02-1111-1111","addr":"경기도 남양주시 와부읍 덕소리 511-1번지 성일우리미아파트 나동 1층 106호","category":"가구 - 기타가구"},{"name":"이츠모","tel":"031-521-8997","addr":"경기도 남양주시 와부읍 덕소리 511-1번지 성일우리미아파트 나동 101호","category":"일반휴게음식 - 일식·회집"}]},{"lat":"37.587232629","long":"127.21056097","items":[{"name":"고향다방","tel":"031-577-6252","addr":"경기도 남양주시 와부읍 덕소리 462-29번지","category":"일반휴게음식 - 서양음식"}]},{"lat":"37.5901745","long":"127.21800797","items":[{"name":"고향손칼국수","tel":"031-577-3237","addr":"경기도 남양주시 와부읍 덕소리 187-3","category":"일반휴게음식 - 일반한식"},{"name":"덕소점현대자동차","tel":"031-577-2148","addr":"경기도 남양주시 와부읍 덕소리 187-3","category":"자동차정비 유지 - 자동차정비"},{"name":"이가네통닭","tel":"031-577-5777","addr":"경기도 남양주시 와부읍 덕소리 187-3번지","category":"일반휴게음식 - 주점"}]},{"lat":"37.588842488","long":"127.22212542","items":[{"name":"골든피그패브릭","tel":"070-9160-4486","addr":"경기도 남양주시 와부읍 덕소리 612번지 덕소아이파크 108동 702호","category":"회원제형태 - 기타3"},{"name":"덕소아이마트","tel":"031-521-4455","addr":"경기도 남양주시 와부읍 덕소리 612번지 덕소아이파크 108동 109호 아이파크상가","category":"유통업 영리 - 슈퍼마켓"}]},{"lat":"37.586729141","long":"127.21503172","items":[{"name":"골목집","tel":"031-576-5785","addr":"경기도 남양주시 와부읍 덕소리 491-16번지 양지빌라 101호","category":"일반휴게음식 - 일반한식"}]},{"lat":"37.589427043","long":"127.21781334","items":[{"name":"공룡갈비 덕소점","tel":"031-521-5030","addr":"경기도 남양주시 와부읍 덕소리 168-3번지 훼밀리프라자 101호102,103호","category":"일반휴게음식 - 일반한식"},{"name":"더로드","tel":"","addr":"경기도 남양주시 와부읍 덕소리 168-3번지 훼밀리프라자 2층 202호","category":"일반휴게음식 - 서양음식"},{"name":"일광당구클럽","tel":"031-569-4588","addr":"경기도 남양주시 와부읍 덕소리 168-3번지 훼밀리프라자 3층 301호","category":"레저업소 - 당 구 장"},{"name":"제노PC방","tel":"","addr":"경기도 남양주시 와부읍 덕소리 168-3번지 훼밀리프라자 201호","category":"레저업소 - 기타레져업소"},{"name":"허니비어","tel":"031-577-9233","addr":"경기도 남양주시 와부읍 덕소리 168-3번지 훼밀리프라자 106호","category":"일반휴게음식 - 일반한식"}]},{"lat":"37.586647096","long":"127.21556361","items":[{"name":"공부의신학원","tel":"031-521-2592","addr":"경기도 남양주시 와부읍 덕소리 494 외1필지황록빌딩3층","category":"학원 - 보습학원"},{"name":"더탑학원","tel":"","addr":"경기도 남양주시 와부읍 덕소리 494-4번지 황록빌딩 4층","category":"학원 - 보습학원"},{"name":"맑은숲국어논술학원","tel":"070-7620-3887","addr":"경기도 남양주시 와부읍 덕소리 494-4번지 황록빌딩","category":"학원 - 보습학원"},{"name":"삼성영어덕소제2학원","tel":"031-577-4505","addr":"경기도 남양주시 와부읍 덕소리 494-4번지 4층 황록빌딩","category":"학원 - 보습학원"},{"name":"샐리스 잉글리쉬(Sally's English)","tel":"","addr":"경기도 남양주시 와부읍 덕소리 494-4번지 황록빌딩 3층","category":"학원 - 보습학원"},{"name":"서울음악학원","tel":"031-521-0111","addr":"경기도 남양주시 와부읍 덕소리 494-4번지 황록빌딩 2층","category":"회원제형태 - 학원"},{"name":"원주민컨설팅","tel":"031-521-9999","addr":"경기도 남양주시 와부읍 덕소리 494-4, 5황록빌딩1층","category":"회원제형태 - 기타4"}]},{"lat":"37.588065872","long":"127.21819438","items":[{"name":"공신학원","tel":"02-554-3399","addr":"경기도 남양주시 와부읍 덕소리 144번지 은산빌딩 3층 2호","category":"학원 - 보습학원"},{"name":"국수나무(덕소점)","tel":"031-521-7794","addr":"경기도 남양주시 와부읍 덕소리 144번지","category":"일반휴게음식 - 일반한식"},{"name":"뚜레쥬르 남양주덕소현대(3)","tel":"031-577-7037","addr":"경기도 남양주시 와부읍 덕소리 144번지 (은산빌딩11.12호)","category":"음료식품 - 제과점"},{"name":"바니걸","tel":"031-576-8665","addr":"경기도 남양주시 와부읍 덕소리 144번지 은산빌딩 1층 1호","category":"의류 - 정장"},{"name":"사랑한의원","tel":"031-576-9182","addr":"경기도 남양주시 와부읍 덕소리 144번지 은산빌딩 2층 203호","category":"의원 - 한의원"},{"name":"색연필","tel":"070-4104-2476","addr":"경기도 남양주시 와부읍 덕소리 144번지 은산빌딩 104호","category":"서적문구 - 문구용품"},{"name":"씨유덕소은산점","tel":"02-1577-8007","addr":"경기도 남양주시 와부읍 덕소리 144번지 은산빌딩 1층 6호","category":"유통업 영리 - 편 의 점"},{"name":"와부축산물","tel":"031-521-8720","addr":"경기도 남양주시 와부읍 덕소리 144번지 은산빌딩 1층 10호","category":"음료식품 - 정육점"},{"name":"용인대수호태권도전문도장","tel":"031-521-2778","addr":"경기도 남양주시 와부읍 덕소리 144번지 은산빌딩 2츠 101호","category":"학원 - 예·체능계학원"},{"name":"캘리 잉글리시 Kelly English","tel":"031-592-0506","addr":"경기도 남양주시 와부읍 덕소리 144번지 은산빌딩 2층 203호","category":"학원 - 기타 교육기관"},{"name":"피자가기가막혀","tel":"031-521-7210","addr":"경기도 남양주시 와부읍 덕소리 144번지 1층 은산빌딩","category":"일반휴게음식 - 서양음식"},{"name":"한사랑내과","tel":"031-521-7599","addr":"경기도 남양주시 와부읍 덕소리 144번지 은산빌딩 4층","category":"의원 - 의원"}]},{"lat":"37.586396187","long":"127.21480434","items":[{"name":"곽만근갈비탕(덕소점)","tel":"031-521-5615","addr":"경기도 남양주시 와부읍 덕소리 497-3","category":"일반휴게음식 - 일반한식"}]},{"lat":"37.586397283","long":"127.21419296","items":[{"name":"광성텔레콤","tel":"070-4117-4867","addr":"경기도 남양주시 와부읍 덕소리 478-22번지 1층","category":"사무통신 - 통신기기"},{"name":"펭귄아프리카","tel":"031-111-1111","addr":"경기도 남양주시 와부읍 덕소리 478-22번지","category":"의류 - 정장"}]},{"lat":"37.588392468","long":"127.2067826","items":[{"name":"광일자동차공업사","tel":"031-577-6732","addr":"경기도 남양주시 와부읍 덕소리 604-18번지","category":"자동차정비 유지 - 자동차정비"}]},{"lat":"37.58803954","long":"127.21280499","items":[{"name":"광일카써비스","tel":"031-577-6732","addr":"경기도 남양주시 와부읍 덕소리 461-13번지","category":"자동차정비 유지 - 자동차정비"}]},{"lat":"37.586677961","long":"127.21342387","items":[{"name":"교촌치킨덕소점","tel":"031-577-8080","addr":"경기도 남양주시 와부읍 덕소리 480-13번지","category":"일반휴게음식 - 주점"},{"name":"다모테 당구클럽","tel":"031-900-2388","addr":"경기도 남양주시 와부읍 덕소리 480-13번지 지층","category":"레저업소 - 당 구 장"},{"name":"또순네맛집","tel":"031-521-4554","addr":"경기도 남양주시 와부읍 덕소리 480-13번지","category":"일반휴게음식 - 일반한식"},{"name":"온누리국시면옥","tel":"031-577-8043","addr":"경기도 남양주시 와부읍 덕소리 480-13번지 1층","category":"일반휴게음식 - 일반한식"},{"name":"월드통신","tel":"031-576-7011","addr":"경기도 남양주시 와부읍 덕소리 480-13,14","category":"사무통신 - 통신기기"},{"name":"이레","tel":"031-577-8043","addr":"경기도 남양주시 와부읍 덕소리 480-13번지","category":"신변잡화 - 신발"},{"name":"이레","tel":"031-577-8043","addr":"경기도 남양주시 와부읍 덕소리 480-13번지 1층","category":"신변잡화 - 신발"}]},{"lat":"37.589401757","long":"127.21182377","items":[{"name":"구름과 단비","tel":"","addr":"경기도 남양주시 와부읍 덕소리 453-19번지 진양빌라 다동 401호","category":"수리서비스 - 가정용품수리"}]},{"lat":"37.583616321","long":"127.21247557","items":[{"name":"구이가 덕소점","tel":"031-576-9292","addr":"경기도 남양주시 와부읍 덕소리 541-12번지 우송타운 105호","category":"일반휴게음식 - 일반한식"},{"name":"독일안경원","tel":"031-521-3232","addr":"경기도 남양주시 와부읍 덕소리 541-12번지 우송 상가 106호","category":"보건위생 - 안경"},{"name":"미스터벳(Mr. Vet) 동물병원","tel":"031-577-7555","addr":"경기도 남양주시 와부읍 덕소리 541-12번지 우송타운 102호","category":"기타의료기관 - 동물병원"},{"name":"신앙촌상회","tel":"031-577-8554","addr":"경기도 남양주시 와부읍 덕소리 541-12번지 우송상가타운 101호","category":"직물 - 침구·수예점"},{"name":"펜트리문구센터 덕소점","tel":"031-577-7021","addr":"경기도 남양주시 와부읍 덕소리 541-12번지 우송상가타운 지하동 1호","category":"서적문구 - 문구용품"},{"name":"피쉬엔그릴","tel":"031-521-9282","addr":"경기도 남양주시 와부읍 덕소리 541-12번지 우송상가타운 104호","category":"일반휴게음식 - 주점"}]},{"lat":"37.58990528","long":"127.21741843","items":[{"name":"귀뚜라미종합설비","tel":"031-521-0482","addr":"경기도 남양주시 와부읍 덕소리 190-1번지 진성빌라 나동 101호 일부","category":"건축자재 - 보일러·펌프·샷시"}]},{"lat":"37.589131666","long":"127.21170979","items":[{"name":"그린에어닥터","tel":"031-000-0000","addr":"경기도 남양주시 와부읍 덕소리 453-20번지 백합빌리지 101동 302호","category":"용역 서비스 - 기타용역서비스"}]},{"lat":"37.589617524","long":"127.2171119","items":[{"name":"그린영양탕","tel":"031-576-4177","addr":"경기도 남양주시 와부읍 덕소리 190-4번지","category":"일반휴게음식 - 일반한식"},{"name":"장수건강원","tel":"031-577-7380","addr":"경기도 남양주시 와부읍 덕소리 190-4번지","category":"건강식품 - 기타건강식품"}]},{"lat":"37.586118973","long":"127.21363741","items":[{"name":"그린코스메틱","tel":"031-577-8552","addr":"경기도 남양주시 와부읍 덕소리 477-2번지 동화프라자 601호","category":"보건위생 - 화장품"},{"name":"낙원떡집","tel":"031-576-5989","addr":"경기도 남양주시 와부읍 덕소리 477-2번지 동화프라자 101호","category":"음료식품 - 제과점"},{"name":"라임트리의원","tel":"031-577-8552","addr":"경기도 남양주시 와부읍 덕소리 477-2번지 동화프라자 601호","category":"의원 - 의원"},{"name":"스토피아 덕소센터","tel":"070-7671-2409","addr":"경기도 남양주시 와부읍 덕소리 477-2번지 동화프라자 201호","category":"용역 서비스 - 사무서비스"},{"name":"스튜디오류","tel":"031-577-6517","addr":"경기도 남양주시 와부읍 덕소리 477-2번지 동화프라자 801호","category":"광학제품 - 사진관"},{"name":"아빠맘소아과","tel":"031-576-8275","addr":"경기도 남양주시 와부읍 덕소리 477-2번지 동화프라자 3층","category":"의원 - 의원"},{"name":"윤선생영어교실","tel":"031-553-0579","addr":"경기도 남양주시 와부읍 덕소리 477-2번지 동화프라자 402호","category":"학원 - 학습지 교육"},{"name":"평안마취통증의학과의원","tel":"031-521-1133","addr":"경기도 남양주시 와부읍 덕소리 477-2번지 동화프라자 501,701호","category":"의원 - 의원"},{"name":"해피트리치과의원","tel":"031-521-2857","addr":"경기도 남양주시 와부읍 덕소리 477-2번지 동화프라자 802호","category":"병원 - 치과병원"},{"name":"혜인온누리약국","tel":"031-521-4646","addr":"경기도 남양주시 와부읍 덕소리 477-2번지 동화프라자 102호","category":"약국 - 약국"}]},{"lat":"37.58597635","long":"127.21277655","items":[{"name":"그린하우스","tel":"031-521-1282","addr":"경기도 남양주시 와부읍 덕소리 474-4","category":"음료식품 - 기타음료식품"},{"name":"롯데리아남양주덕소점","tel":"031-577-1149","addr":"경기도 남양주시 와부읍 덕소리 474-4번지","category":"일반휴게음식 - 서양음식"},{"name":"보성약국","tel":"031-521-3646","addr":"경기도 남양주시 와부읍 덕소리 474-4번지 1층","category":"약국 - 약국"},{"name":"서울덕치과","tel":"031-521-2827","addr":"경기도 남양주시 와부읍 덕소리 474-4번지 서울덕치과","category":"의원 - 치과의원"},{"name":"어썸커뮤니티","tel":"031-576-8209","addr":"경기도 남양주시 와부읍 덕소리 474-4번지 401호","category":"용역 서비스 - 사무서비스"},{"name":"어썸팩토리 덕소플레이스독서실","tel":"031-576-8209","addr":"경기도 남양주시 와부읍 덕소리 474-4번지 4층 일부","category":"학원 - 독서실"}]},{"lat":"37.586449636","long":"127.21514414","items":[{"name":"그림속풍경미술학원","tel":"031-577-4469","addr":"경기도 남양주시 와부읍 덕소리 497-9번지 덕소MIN빌딩 3층","category":"학원 - 예·체능계학원"},{"name":"꿀먹은강정","tel":"031-528-6263","addr":"경기도 남양주시 와부읍 덕소리 497-9번지 덕소MIN빌딩 102호","category":"일반휴게음식 - 스넥"},{"name":"필라테스 그릿","tel":"031-521-4034","addr":"경기도 남양주시 와부읍 덕소리 497-9번지 덕소MIN빌딩 2층","category":"레저업소 - 헬스클럽"},{"name":"하여사네","tel":"","addr":"경기도 남양주시 와부읍 덕소리 497-9번지 덕소MIN빌딩 1층 101호","category":"의류 - 정장"}]},{"lat":"37.588427519","long":"127.21750477","items":[{"name":"그집","tel":"031-515-2236","addr":"경기도 남양주시 와부읍 덕소리 141-1번지","category":"일반휴게음식 - 일반한식"}]},{"lat":"37.591566442","long":"127.22050295","items":[{"name":"글씨놀이터","tel":"","addr":"경기도 남양주시 와부읍 덕소리 251-4번지 동부프라자 1층 113호","category":"문화.취미 - 화랑"},{"name":"꿈트리팡팡","tel":"031-576-9804","addr":"경기도 남양주시 와부읍 덕소리 251-4번지 동부플라자 3층","category":"학원 - 기타 교육기관"},{"name":"달탐","tel":"031-111-1111","addr":"경기도 남양주시 와부읍 덕소리 251-4번지 동부프라자 113호","category":"음료식품 - 제과점"},{"name":"도레미피아노음악교습소","tel":"031-123-4567","addr":"경기도 남양주시 와부읍 덕소리 251-4번지 동부프라자 108호","category":"학원 - 예·체능계학원"},{"name":"로컬릿","tel":"","addr":"경기도 남양주시 와부읍 덕소리 251-4번지 동부프라자 110호","category":"일반휴게음식 - 서양음식"},{"name":"블럭꾸러기","tel":"031-577-5456","addr":"경기도 남양주시 와부읍 덕소리 251-4번지 동부프라자 101,102호","category":"서적문구 - 완구점"},{"name":"스프링 창의논술 교습소","tel":"031-551-3405","addr":"경기도 남양주시 와부읍 덕소리 251-4번지 동부프라자 106호","category":"학원 - 보습학원"},{"name":"예봉삼성영어교습소","tel":"031-576-2260","addr":"경기도 남양주시 와부읍 덕소리 251-4번지 동부프라자 104호","category":"학원 - 외국어학원"},{"name":"예쁘게 담 스튜디오","tel":"031-521-3988","addr":"경기도 남양주시 와부읍 덕소리 251-4번지 동부플라자 115호","category":"광학제품 - 사진관"},{"name":"와라떡볶이","tel":"070-8128-1157","addr":"경기도 남양주시 와부읍 덕소리 251-4번지 동부플라자 107호","category":"일반휴게음식 - 스넥"},{"name":"우승태권도장","tel":"031-576-7771","addr":"경기도 남양주시 와부읍 덕소리 251-4번지 동부플라자 4층 403,404호","category":"학원 - 예·체능계학원"},{"name":"주식회사 마린크루","tel":"031-521-8817","addr":"경기도 남양주시 와부읍 덕소리 251-4번지 동부플라자 B1층","category":"학원 - 기타 교육기관"},{"name":"클로버네일","tel":"031-3281-5233","addr":"경기도 남양주시 와부읍 덕소리 251-4번지 동부플라자 1층 109호","category":"보건위생 - 화장품"},{"name":"파인센트","tel":"031-111-1111","addr":"경기도 남양주시 와부읍 덕소리 251-4번지 동부프라자 1층 112호","category":"문화.취미 - 문화취미기타"},{"name":"한나헤어디자인","tel":"","addr":"경기도 남양주시 와부읍 덕소리 251-4번지 동부프라자 103호","category":"보건위생 - 미용원"},{"name":"해법수학예봉수학교습소","tel":"031-521-1141","addr":"경기도 남양주시 와부읍 덕소리 251-4번지 동부프라자 105호","category":"회원제형태 - 학원"}]},{"lat":"37.58981473","long":"127.21766726","items":[{"name":"금강산감자탕덕소점","tel":"031-576-7700","addr":"경기도 남양주시 와부읍 덕소리 189-3","category":"일반휴게음식 - 일반한식"},{"name":"스포츠세상","tel":"031-511-7841","addr":"경기도 남양주시 와부읍 덕소리 189-3번지 경춘빌딩","category":"레져용품 - 스포츠·레져용품"}]},{"lat":"37.589143013","long":"127.22039399","items":[{"name":"금오테크","tel":"070-4415-3268","addr":"경기도 남양주시 와부읍 덕소리 145-4","category":"서적문구 - 과학기자재"},{"name":"꿈과 열정","tel":"031-516-3323","addr":"경기도 남양주시 와부읍 덕소리 145-4번지 강산마을코오롱 111동 103호","category":"학원 - 기타 교육기관"},{"name":"수피부샵","tel":"031-577-9900","addr":"경기도 남양주시 와부읍 덕소리 145-4번지 외1필지강산마을코오롱 대성아프트주 상가동 201호","category":"회원제형태 - 기타4"},{"name":"창대학원","tel":"031-521-5953","addr":"경기도 남양주시 와부읍 덕소리 145-4번지 강산마을코오롱대성아파트 상가동 301호, 302호 일부","category":"학원 - 보습학원"},{"name":"파트너크리닝","tel":"031-521-8282","addr":"경기도 남양주시 와부읍 덕소리 145-4번지 코오롱 상가 205호","category":"수리서비스 - 세탁소"},{"name":"힘멜에듀센터어린이집","tel":"031-576-6777","addr":"경기도 남양주시 와부읍 덕소리 145-4번지 외5필지 강산마을코오롱대성아파트","category":"학원 - 유아원"},{"name":"힘멜에듀센터어린이집[아이행복]","tel":"031-576-6777","addr":"경기도 남양주시 와부읍 덕소리 145-4","category":"학원 - 유아원"}]},{"lat":"37.587011926","long":"127.21308515","items":[{"name":"기분좋은날","tel":"031-528-6263","addr":"경기도 남양주시 와부읍 덕소리 479-13번지 1층","category":"보건위생 - 미용원"},{"name":"동원당한약방","tel":"031-64-6403","addr":"경기도 남양주시 와부읍 덕소리 479-13번지","category":"약국 - 한약방"},{"name":"어제거기","tel":"031-593-1432","addr":"경기도 남양주시 와부읍 덕소리 479-13","category":"일반휴게음식 - 일반한식"},{"name":"차돌꾼","tel":"031-577-1157","addr":"경기도 남양주시 와부읍 덕소리 479-13번지","category":"일반휴게음식 - 주점"}]},{"lat":"37.591481748","long":"127.22245019","items":[{"name":"길국어학원","tel":"031-572-9846","addr":"경기도 남양주시 와부읍 덕소리 50번지 IVYSpa 204호","category":"학원 - 보습학원"},{"name":"덕소불가마 주식회사","tel":"031-521-3333","addr":"경기도 남양주시 와부읍 덕소리 50번지 IVY Spa 401호","category":"레저업소 - 헬스클럽"},{"name":"덕소주식회사","tel":"031-521-3333","addr":"경기도 남양주시 와부읍 덕소리 50번지 301,401,501,601,701호","category":"신변잡화 - 기타잡화"},{"name":"디에스","tel":"","addr":"경기도 남양주시 와부읍 덕소리 50번지 4층 찜질방일부","category":"음료식품 - 기타음료식품"},{"name":"라운지툰","tel":"031-577-2340","addr":"경기도 남양주시 와부읍 덕소리 50번지 2층 201호 IVY SPa","category":"일반휴게음식 - 일반한식"},{"name":"라운지호프","tel":"031-576-9039","addr":"경기도 남양주시 와부읍 덕소리 50번지 외5필지 아이비타워2, 2층 202호","category":"일반휴게음식 - 주점"},{"name":"세븐일레븐덕소아이비스파점","tel":"","addr":"경기도 남양주시 와부읍 덕소리 50번지 107,108호(아이비타워-2)","category":"유통업 영리 - 편 의 점"},{"name":"스타힐","tel":"031-576-5475","addr":"경기도 남양주시 와부읍 덕소리 50번지","category":"보건위생 - 사우나"},{"name":"아이비골프연습장","tel":"031-577-0611","addr":"경기도 남양주시 와부읍 덕소리 50번지 아이비타워 2층 204호 2","category":"레저업소 - 골프연습장"},{"name":"에스엔씨","tel":"070-8820-5151","addr":"경기도 남양주시 와부읍 덕소리 50번지 5층","category":"보건위생 - 화장품"},{"name":"주식회사 디엔디어스(DND earth Co.Ltd)","tel":"070-4232-7890","addr":"경기도 남양주시 와부읍 덕소리 50번지 1층","category":"일반휴게음식 - 서양음식"},{"name":"주식회사더블에스","tel":"031-577-9211","addr":"경기도 남양주시 와부읍 덕소리 50번지 202-1호","category":"레져용품 - 스포츠·레져용품"}]},{"lat":"37.588257136","long":"127.21706271","items":[{"name":"김애란헤어닥터","tel":"031-577-1741","addr":"경기도 남양주시 와부읍 덕소리 141-92번지","category":"보건위생 - 미용원"},{"name":"준당구클럽","tel":"031-577-3949","addr":"경기도 남양주시 와부읍 덕소리 141-92번지 2층","category":"레저업소 - 당 구 장"},{"name":"투존","tel":"031-577-9985","addr":"경기도 남양주시 와부읍 덕소리 141-92","category":"일반휴게음식 - 스넥"}]},{"lat":"37.586064996","long":"127.21359197","items":[{"name":"김정은피부관리실","tel":"031-521-6636","addr":"경기도 남양주시 와부읍 덕소리 477-4번지 이레빌딩 401호","category":"보건위생 - 피부미용실"},{"name":"덕소메디칼 약국","tel":"031-577-3535","addr":"경기도 남양주시 와부읍 덕소리 477-4번지 1층 102호","category":"약국 - 약국"},{"name":"본죽&비빔밥(남양주 덕소점)","tel":"031-577-6777","addr":"경기도 남양주시 와부읍 덕소리 477-4번지 이례빌딩 201호","category":"일반휴게음식 - 일반한식"},{"name":"빨간여우","tel":"031-576-8241","addr":"경기도 남양주시 와부읍 덕소리 477-4번지 이레빌딩 101호","category":"보건위생 - 피부미용실"}]},{"lat":"37.587618204","long":"127.21664197","items":[{"name":"까페 아마떼 덕소점","tel":"031-521-8268","addr":"경기도 남양주시 와부읍 덕소리 141-24번지 1층","category":"일반휴게음식 - 서양음식"},{"name":"차차차노래연습장","tel":"031-577-7632","addr":"경기도 남양주시 와부읍 덕소리 141-24번지 (외1지하1층)","category":"레저업소 - 노 래 방"},{"name":"코지","tel":"031-577-9720","addr":"경기도 남양주시 와부읍 덕소리 141-24번지 2층","category":"일반휴게음식 - 주점"},{"name":"형제식당","tel":"031-575-9913","addr":"경기도 남양주시 와부읍 덕소리 141-24번지","category":"일반휴게음식 - 일반한식"}]},{"lat":"37.591034305","long":"127.21587048","items":[{"name":"깜작가 수제도장","tel":"031-576-8212","addr":"경기도 남양주시 와부읍 덕소리 407-8번지 르비앙휴 101동 101호","category":"건축자재 - 목재·석재·철물"}]},{"lat":"37.587039701","long":"127.21266632","items":[{"name":"꼼꼼학원","tel":"031-576-4747","addr":"경기도 남양주시 와부읍 덕소리 481-1번지 2층","category":"학원 - 보습학원"},{"name":"다드림식자재마트","tel":"031-577-6400","addr":"경기도 남양주시 와부읍 덕소리 481-1번지","category":"유통업 영리 - 슈퍼마켓"},{"name":"미색피부샵","tel":"031-577-2020","addr":"경기도 남양주시 와부읍 덕소리 481-1번지 2층","category":"회원제형태 - 기타4"},{"name":"빌리아드아카데미","tel":"031-576-1322","addr":"경기도 남양주시 와부읍 덕소리 481-1번지","category":"레저업소 - 당 구 장"},{"name":"성심방문요양센터","tel":"031-553-3200","addr":"경기도 남양주시 와부읍 덕소리 481-1번지","category":"기타의료기관 - 기타의료기관 및 기타"}]},{"lat":"37.584148779","long":"127.21197891","items":[{"name":"꿀꿀이병장생삽겹살","tel":"031-576-4568","addr":"경기도 남양주시 와부읍 덕소리 511-12번지","category":"일반휴게음식 - 일반한식"},{"name":"비단결헤어샵","tel":"031-521-7868","addr":"경기도 남양주시 와부읍 덕소리 511-12번지","category":"보건위생 - 미용원"},{"name":"아이스토리안경원","tel":"031-512-7710","addr":"경기도 남양주시 와부읍 덕소리 511-12번지","category":"보건위생 - 안경"},{"name":"정육선생","tel":"050-5700-8989","addr":"경기도 남양주시 와부읍 덕소리 511-12번지 1층","category":"음료식품 - 정육점"},{"name":"티코다방","tel":"031-521-7770","addr":"경기도 남양주시 와부읍 덕소리 511-12번지","category":"일반휴게음식 - 서양음식"},{"name":"필탑수학영어학원","tel":"031-521-7787","addr":"경기도 남양주시 와부읍 덕소리 511-12번지 2층","category":"학원 - 보습학원"},{"name":"헤르메스에듀학원","tel":"031-577-7905","addr":"경기도 남양주시 와부읍 덕소리 511-12번지 4층","category":"학원 - 보습학원"}]},{"lat":"37.587699251","long":"127.21666484","items":[{"name":"나라애견","tel":"031-521-3888","addr":"경기도 남양주시 와부읍 덕소리 141-19","category":"문화.취미 - 애완동물"}]},{"lat":"37.583144034","long":"127.20950805","items":[{"name":"나루갤러리","tel":"","addr":"경기도 남양주시 와부읍 덕소리 558-3번지 1층","category":"문화.취미 - 민예·공예품"}]},{"lat":"37.588344216","long":"127.21373426","items":[{"name":"남도본가추어탕","tel":"031-577-0869","addr":"경기도 남양주시 와부읍 덕소리 432-20번지 진주마을상가동 105동 102호","category":"일반휴게음식 - 일반한식"}]},{"lat":"37.585365196","long":"127.21695253","items":[{"name":"남양주시청/와부체육문화센터","tel":"031-560-1264","addr":"경기도 남양주시 와부읍 덕소리 117-1번지 와부체육문화센터","category":"레저업소 - 기타레져업소"},{"name":"와부스포츠","tel":"031-757-1511","addr":"경기도 남양주시 와부읍 덕소리 117-1번지 와부체육문화센터","category":"레져용품 - 스포츠·레져용품"},{"name":"와부읍사무소","tel":"031-590-4801","addr":"경기도 남양주시 와부읍 덕소리 117-1번지 와부읍사무소","category":"용역 서비스 - 사무서비스"},{"name":"와부읍사무소","tel":"031-590-4801","addr":"경기도 남양주시 와부읍 덕소리 117-1번지","category":"자동차정비 유지 - 주차장"},{"name":"와부읍사무소","tel":"031-590-4801","addr":"경기도 남양주시 와부읍 덕소리 117-1번지","category":"자동차정비 유지 - 주차장"},{"name":"와부읍주민자치위원회","tel":"031-521-6802","addr":"경기도 남양주시 와부읍 덕소리 117-1번지","category":"문화.취미 - 문화취미기타"},{"name":"카페유니","tel":"070-7405-0531","addr":"경기도 남양주시 와부읍 덕소리 117-1번지 1층","category":"일반휴게음식 - 서양음식"}]},{"lat":"37.586338843","long":"127.21662699","items":[{"name":"남양주장뇌삼","tel":"031-577-0883","addr":"경기도 남양주시 와부읍 덕소리 110-1번지 덕소주공1단지 101동 105호","category":"건강식품 - 기타건강식품"}]},{"lat":"37.587394863","long":"127.21558839","items":[{"name":"남이네순대국집","tel":"031-576-5711","addr":"경기도 남양주시 와부읍 덕소리 490-21번지","category":"일반휴게음식 - 일반한식"},{"name":"소망전기","tel":"031-577-8600","addr":"경기도 남양주시 와부읍 덕소리 490-21번지","category":"전기제품 - 기타전기제품"},{"name":"지오헤어샵","tel":"031-577-8107","addr":"경기도 남양주시 와부읍 덕소리 490-21","category":"보건위생 - 미용원"}]},{"lat":"37.587259064","long":"127.2159503","items":[{"name":"내품애동물병원","tel":"031-558-9119","addr":"경기도 남양주시 와부읍 덕소리 141-70번지","category":"기타의료기관 - 동물병원"},{"name":"덕소제일의원","tel":"031-577-4555","addr":"경기도 남양주시 와부읍 덕소리 141-70번지","category":"의원 - 의원"}]},{"lat":"37.586882021","long":"127.21519066","items":[{"name":"너가내가","tel":"031-577-1990","addr":"경기도 남양주시 와부읍 덕소리 491-14번지 양지 8동 101호","category":"일반휴게음식 - 주점"}]},{"lat":"37.589401228","long":"127.21714525","items":[{"name":"네네치킨","tel":"031-521-6249","addr":"경기도 남양주시 와부읍 덕소리 191-4번지","category":"일반휴게음식 - 스넥"},{"name":"버블그린","tel":"031-577-3995","addr":"경기도 남양주시 와부읍 덕소리 191-4번지 1층","category":"보건위생 - 미용원"},{"name":"아트위키드미술학원","tel":"031-521-3763","addr":"경기도 남양주시 와부읍 덕소리 191-4번지 2층 일부","category":"학원 - 예·체능계학원"},{"name":"옹골찬","tel":"031-521-3131","addr":"경기도 남양주시 와부읍 덕소리 191-4번지","category":"일반휴게음식 - 일반한식"},{"name":"외상은어림없다","tel":"070-4254-6740","addr":"경기도 남양주시 와부읍 덕소리 191-4번지 1층","category":"의류 - 정장"},{"name":"춘천원조명물닭갈비","tel":"031-577-9907","addr":"경기도 남양주시 와부읍 덕소리 191-4","category":"일반휴게음식 - 일반한식"}]},{"lat":"37.586562667","long":"127.21239325","items":[{"name":"네일트리(Nail Tree)","tel":"031-521-0600","addr":"경기도 남양주시 와부읍 덕소리 474-12번지","category":"보건위생 - 피부미용실"},{"name":"덕소한의원","tel":"031-576-7971","addr":"경기도 남양주시 와부읍 덕소리 474-12번지","category":"의원 - 한의원"},{"name":"브레드스토리","tel":"031-577-5656","addr":"경기도 남양주시 와부읍 덕소리 474-12번지 1층","category":"음료식품 - 제과점"},{"name":"준원","tel":"031-577-6294","addr":"경기도 남양주시 와부읍 덕소리 474-12번지 지하","category":"자동차정비 유지 - 자동차부품"}]},{"lat":"37.589030945","long":"127.21763104","items":[{"name":"노동자연대다함께","tel":"031-2271-2395","addr":"경기도 남양주시 와부읍 덕소리 163-9번지 문수해오름빌 102동 202호","category":"서적문구 - 출판 및 인쇄물"}]},{"lat":"37.585617528","long":"127.21189245","items":[{"name":"닛시의류","tel":"031-576-2150","addr":"경기도 남양주시 와부읍 덕소리 473-9번지 1층","category":"의류 - 정장"},{"name":"덕소샷시","tel":"031-576-9751","addr":"경기도 남양주시 와부읍 덕소리 473-9번지","category":"건축자재 - 기타건축자재"},{"name":"미친소","tel":"031-521-1515","addr":"경기도 남양주시 와부읍 덕소리 473-9번지 1층","category":"일반휴게음식 - 일반한식"}]},{"lat":"37.586121873","long":"127.21200708","items":[{"name":"닛시의류","tel":"031-576-2150","addr":"경기도 남양주시 와부읍 덕소리 473-2번지","category":"의류 - 정장"},{"name":"다봄안경","tel":"031-577-9337","addr":"경기도 남양주시 와부읍 덕소리 473-2번지","category":"보건위생 - 안경"},{"name":"레드독","tel":"031-577-6023","addr":"경기도 남양주시 와부읍 덕소리 473-2번지","category":"일반휴게음식 - 서양음식"},{"name":"바블리옛날왕만두","tel":"031-111-1111","addr":"경기도 남양주시 와부읍 덕소리 473-2번지","category":"음료식품 - 기타음료식품"},{"name":"배스킨라빈스(남양주덕소점)","tel":"031-576-0310","addr":"경기도 남양주시 와부읍 덕소리 473-2번지 1층","category":"음료식품 - 제과점"},{"name":"빽다방 남양주덕소점","tel":"031-521-7674","addr":"경기도 남양주시 와부읍 덕소리 473-2번지 주 5동 1층","category":"일반휴게음식 - 서양음식"},{"name":"오늘헤어","tel":"","addr":"경기도 남양주시 와부읍 덕소리 473-2번지 1층","category":"보건위생 - 미용원"},{"name":"이삭토스트 남양주 덕소삼거리점","tel":"031-576-2072","addr":"경기도 남양주시 와부읍 덕소리 473-2번지 1호","category":"일반휴게음식 - 스넥"},{"name":"죠스떡볶이(덕소삼거리점)","tel":"031-559-0999","addr":"경기도 남양주시 와부읍 덕소리 473-2번지 주 5동 1층 5호","category":"일반휴게음식 - 스넥"}]},{"lat":"37.594226618","long":"127.21428303","items":[{"name":"다람쥐마을","tel":"031-577-4847","addr":"경기도 남양주시 와부읍 덕소리 388번지","category":"일반휴게음식 - 일반한식"},{"name":"다람쥐마을","tel":"031-577-4847","addr":"경기도 남양주시 와부읍 덕소리 388번지","category":"일반휴게음식 - 일반한식"}]},{"lat":"37.587644433","long":"127.2170836","items":[{"name":"다비수학학원","tel":"031-576-1582","addr":"경기도 남양주시 와부읍 덕소리 141-44번지 지영빌딩 401호","category":"학원 - 보습학원"},{"name":"리안헤어","tel":"031-577-0843","addr":"경기도 남양주시 와부읍 덕소리 141-44번지 지영빌딩 201호","category":"보건위생 - 미용원"},{"name":"아이린의오렌지영어교습소","tel":"031-577-8411","addr":"경기도 남양주시 와부읍 덕소리 141-44번지 지영빌딩 301호","category":"회원제형태 - 학원"},{"name":"이앤아이음악학원","tel":"031-521-7513","addr":"경기도 남양주시 와부읍 덕소리 141-44번지 지영빌딩 401호 일부호","category":"학원 - 예·체능계학원"},{"name":"편의점사랑","tel":"031-577-2798","addr":"경기도 남양주시 와부읍 덕소리 141-44번지 지영빌딩 1층 102호","category":"유통업 영리 - 편 의 점"}]},{"lat":"37.586617709","long":"127.21183863","items":[{"name":"다비치안경 덕소삼거리점","tel":"031-521-1010","addr":"경기도 남양주시 와부읍 덕소리 466-2번지","category":"보건위생 - 안경"},{"name":"덕소아가방","tel":"031-577-5282","addr":"경기도 남양주시 와부읍 덕소리 466-2 (덕소로 84)","category":"의류 - 내의판매"},{"name":"마늘떡볶이","tel":"031-577-0684","addr":"경기도 남양주시 와부읍 덕소리 466-2번지 1층 103호","category":"일반휴게음식 - 스넥"},{"name":"봉구스밥버거","tel":"031-521-1739","addr":"경기도 남양주시 와부읍 덕소리 466-2번지 다세대주택 107호","category":"일반휴게음식 - 스넥"},{"name":"사요(sayo)","tel":"031-597-5999","addr":"경기도 남양주시 와부읍 덕소리 466-2 107","category":"의류 - 기타의류"},{"name":"쥬씨(덕소역점)","tel":"070-4117-1028","addr":"경기도 남양주시 와부읍 덕소리 466-2번지","category":"일반휴게음식 - 서양음식"},{"name":"한솥도시락 덕소삼거리점","tel":"031-576-2676","addr":"경기도 남양주시 와부읍 덕소리 466-2번지 1층","category":"일반휴게음식 - 일반한식"}]},{"lat":"37.599560455","long":"127.21425283","items":[{"name":"다산아크릴","tel":"031-579-9411","addr":"경기도 남양주시 와부읍 덕소리 360번지","category":"건축자재 - 기타건축자재"},{"name":"스크래치하우스","tel":"070-4843-1361","addr":"경기도 남양주시 와부읍 덕소리 360번지","category":"가구 - 일반가구"},{"name":"철물다모아","tel":"031-592-3850","addr":"경기도 남양주시 와부읍 덕소리 360번지","category":"건축자재 - 목재·석재·철물"}]},{"lat":"37.586315547","long":"127.21455503","items":[{"name":"다온베이커리카페","tel":"031-512-9280","addr":"경기도 남양주시 와부읍 덕소리 498번지 1층 일부,2층","category":"일반휴게음식 - 서양음식"}]},{"lat":"37.589076091","long":"127.20742983","items":[{"name":"다올공예","tel":"031-576-3059","addr":"경기도 남양주시 와부읍 덕소리 606-1번지 덕소주공3단지 301동 401호","category":"회원제형태 - 학원"}]},{"lat":"37.586651335","long":"127.21319735","items":[{"name":"달봉이네분식","tel":"031-577-4132","addr":"경기도 남양주시 와부읍 덕소리 480-5번지 1층","category":"일반휴게음식 - 스넥"},{"name":"더맨","tel":"031-576-2777","addr":"경기도 남양주시 와부읍 덕소리 480-5번지 1층","category":"보건위생 - 미용원"},{"name":"신성상회","tel":"031-577-0891","addr":"경기도 남양주시 와부읍 덕소리 480-5","category":"음료식품 - 미곡상"},{"name":"코인","tel":"031-521-1213","addr":"경기도 남양주시 와부읍 덕소리 480-5번지","category":"의류 - 정장"}]},{"lat":"37.598115539","long":"127.21611714","items":[{"name":"달인한상","tel":"031-521-8338","addr":"경기도 남양주시 와부읍 덕소리 298-4번지 1층","category":"일반휴게음식 - 일반한식"}]},{"lat":"37.586400693","long":"127.21227958","items":[{"name":"달커피호프","tel":"031-521-0520","addr":"경기도 남양주시 와부읍 덕소리 474-3번지","category":"일반휴게음식 - 일반한식"},{"name":"엘림광고","tel":"031-576-3038","addr":"경기도 남양주시 와부읍 덕소리 474-3 동남빌딩2층","category":"용역 서비스 - 종합용역"},{"name":"평강약국","tel":"031-576-3002","addr":"경기도 남양주시 와부읍 덕소리 474-3번지","category":"약국 - 약국"}]},{"lat":"37.584033174","long":"127.21111816","items":[{"name":"대광상회","tel":"031-521-8810","addr":"경기도 남양주시 와부읍 덕소리 518-5번지","category":"유통업 영리 - 슈퍼마켓"},{"name":"이상무","tel":"031-8034-4592","addr":"경기도 남양주시 와부읍 덕소리 518-5번지","category":"일반휴게음식 - 일반한식"},{"name":"조일머리쟁이","tel":"031-521-8117","addr":"경기도 남양주시 와부읍 덕소리 518-5번지","category":"보건위생 - 미용원"},{"name":"찾아가는서비스 바이크클린","tel":"031-592-1008","addr":"경기도 남양주시 와부읍 덕소리 518-5번지","category":"수리서비스 - 레져용품수리"}]},{"lat":"37.588726258","long":"127.21672439","items":[{"name":"대복마트","tel":"031-577-0033","addr":"경기도 남양주시 와부읍 덕소리 196-4","category":"유통업 영리 - 슈퍼마켓"}]},{"lat":"37.590867651","long":"127.21833832","items":[{"name":"대비카경정비센타","tel":"031-577-1311","addr":"경기도 남양주시 와부읍 덕소리 184-4번지","category":"자동차정비 유지 - 카인테리어"},{"name":"블루탱크(생활수족관)","tel":"031-577-2886","addr":"경기도 남양주시 와부읍 덕소리 184-4번지 1층","category":"문화.취미 - 수족관"}]},{"lat":"37.58692705","long":"127.21520211","items":[{"name":"대중방앗간","tel":"031-577-1843","addr":"경기도 남양주시 와부읍 덕소리 491-7","category":"음료식품 - 제과점"}]},{"lat":"37.598982939","long":"127.21474944","items":[{"name":"더 모노칼라(TMC)","tel":"031-577-4818","addr":"경기도 남양주시 와부읍 덕소리 369번지","category":"사무통신 - 사무용 OA기기"}]},{"lat":"37.591782989","long":"127.22033374","items":[{"name":"더블루키친","tel":"070-4114-2117","addr":"경기도 남양주시 와부읍 덕소리 251-1번지 예봉빌딩 1층 102호","category":"일반휴게음식 - 일반한식"},{"name":"씨드블라썸(SEED BLOSSOM)","tel":"","addr":"경기도 남양주시 와부읍 덕소리 251-1번지 101호","category":"음료식품 - 기타음료식품"},{"name":"제이와이지 (JYG)","tel":"031-521-1923","addr":"경기도 남양주시 와부읍 덕소리 251-1번지 1층 104-B호","category":"자동차정비 유지 - 자동차부품"},{"name":"카페앳홈","tel":"031-521-4214","addr":"경기도 남양주시 와부읍 덕소리 251-1번지","category":"가구 - 기타가구"}]},{"lat":"37.584232086","long":"127.21072246","items":[{"name":"더블류참치","tel":"031-577-1557","addr":"경기도 남양주시 와부읍 덕소리 518-8번지 1층","category":"일반휴게음식 - 일반한식"}]},{"lat":"37.587393382","long":"127.20620245","items":[{"name":"더카페","tel":"031-521-4568","addr":"경기도 남양주시 와부읍 덕소리 600-7번지","category":"일반휴게음식 - 서양음식"}]},{"lat":"37.585734454","long":"127.21200599","items":[{"name":"더페이스샵 남양주덕소점","tel":"031-576-7600","addr":"경기도 남양주시 와부읍 덕소리 473-8","category":"보건위생 - 화장품"}]},{"lat":"37.586149162","long":"127.21185997","items":[{"name":"덕붕생고기","tel":"031-521-8819","addr":"경기도 남양주시 와부읍 덕소리 473-4번지","category":"일반휴게음식 - 일반한식"},{"name":"덕소자동차매매상사","tel":"031-569-5001","addr":"경기도 남양주시 와부읍 덕소리 473-4번지","category":"자동차판매 - 중고자동차판매"},{"name":"주빌로","tel":"","addr":"경기도 남양주시 와부읍 덕소리 473-4번지 3호","category":"의류 - 정장"}]},{"lat":"37.587149143","long":"127.21191937","items":[{"name":"덕소로타리클럽(3600)","tel":"031-577-0258","addr":"경기도 남양주시 와부읍 덕소리 463-4번지 광성빌딩 5층","category":"기타 - 비영리/비대상"},{"name":"라인 다이어트 복싱","tel":"031-595-9732","addr":"경기도 남양주시 와부읍 덕소리 463-4번지 6층 광성빌딩","category":"회원제형태 - 레져업소"},{"name":"앤젤네일(&젤네일)","tel":"031-4319-7845","addr":"경기도 남양주시 와부읍 덕소리 463-4번지 광성빌딩 6층","category":"보건위생 - 피부미용실"},{"name":"오즈나인","tel":"031-521-4550","addr":"경기도 남양주시 와부읍 덕소리 463-4번지 광성빌딩 3층","category":"주방용구 - 정수기"},{"name":"타임 에스테틱","tel":"031-521-2122","addr":"경기도 남양주시 와부읍 덕소리 463-4번지 광성빌딩 2층","category":"보건위생 - 피부미용실"},{"name":"타임치과의원","tel":"031-577-0000","addr":"경기도 남양주시 와부읍 덕소리 463-4번지 광성빌딩 2층","category":"의원 - 치과의원"}]},{"lat":"37.601340239","long":"127.21655665","items":[{"name":"덕소블루코농원 (블루베리)","tel":"070-6458-3865","addr":"경기도 남양주시 와부읍 덕소리 308번지","category":"음료식품 - 농·축·수산품"}]},{"lat":"37.590704888","long":"127.21367298","items":[{"name":"덕소상회","tel":"031-576-1515","addr":"경기도 남양주시 와부읍 덕소리 416-5","category":"음료식품 - 기타음료식품"}]},{"lat":"37.584594768","long":"127.21450487","items":[{"name":"덕소점점2층 세탁코너","tel":"031-577-0788","addr":"경기도 남양주시 와부읍 덕소리 501-3번지 2층","category":"수리서비스 - 세탁소"},{"name":"로하스동물병원","tel":"031-577-7606","addr":"경기도 남양주시 와부읍 덕소리 501-3 롯데마트3","category":"기타의료기관 - 동물병원"},{"name":"롯데쇼핑(주)롯데마트덕소점/주차장","tel":"02-1577-2500","addr":"경기도 남양주시 와부읍 덕소리 501-3번지","category":"자동차정비 유지 - 주차장"},{"name":"릴렉스샵 덕소점","tel":"031-577-8644","addr":"경기도 남양주시 와부읍 덕소리 501-3번지 2층","category":"보건위생 - 피부미용실"},{"name":"마트온누리약국","tel":"031-577-5529","addr":"경기도 남양주시 와부읍 덕소리 501-3","category":"약국 - 약국"},{"name":"미플(피부관리실)","tel":"031-577-1500","addr":"경기도 남양주시 와부읍 덕소리 501-3번지 3층","category":"보건위생 - 피부미용실"}]},{"lat":"37.587339906","long":"127.2160864","items":[{"name":"덕소조명전기","tel":"031-576-3401","addr":"경기도 남양주시 와부읍 덕소리 141-72번지","category":"건축자재 - 조명기구"},{"name":"영","tel":"031-521-4300","addr":"경기도 남양주시 와부읍 덕소리 141-72번지 지하1층","category":"일반휴게음식 - 일반한식"}]},{"lat":"37.588977566","long":"127.21725726","items":[{"name":"덕소종합공구","tel":"031-577-1409","addr":"경기도 남양주시 와부읍 덕소리 193-3","category":"기타 - 기계공구"},{"name":"동궁","tel":"031-521-2669","addr":"경기도 남양주시 와부읍 덕소리 193-3번지","category":"일반휴게음식 - 중국식"},{"name":"삼보식당","tel":"031-577-6094","addr":"경기도 남양주시 와부읍 덕소리 193-3번지 1층","category":"일반휴게음식 - 일반한식"},{"name":"춤추는머리나라","tel":"031-577-2425","addr":"경기도 남양주시 와부읍 덕소리 193-3번지","category":"보건위생 - 미용원"}]},{"lat":"37.588031716","long":"127.21213696","items":[{"name":"덕소주짓수","tel":"031-576-1637","addr":"경기도 남양주시 와부읍 덕소리 461-4번지","category":"레저업소 - 헬스클럽"}]},{"lat":"37.586420635","long":"127.21119274","items":[{"name":"덕소주차장","tel":"","addr":"경기도 남양주시 와부읍 덕소리 469-1번지","category":"자동차정비 유지 - 주차장"}]},{"lat":"37.587401215","long":"127.2120333","items":[{"name":"덕소집","tel":"070-1111-1111","addr":"경기도 남양주시 와부읍 덕소리 462-27번지","category":"일반휴게음식 - 일반한식"}]},{"lat":"37.587865566","long":"127.21436694","items":[{"name":"덕소초등학교병설유치원[아이행복]","tel":"031-577-6086","addr":"경기도 남양주시 와부읍 덕소리 431-1번지 덕소초등학교","category":"학원 - 유치원"}]},{"lat":"37.588644368","long":"127.20699841","items":[{"name":"덕소축산직화구이","tel":"031-576-3999","addr":"경기도 남양주시 와부읍 덕소리 606-6","category":"일반휴게음식 - 일반한식"}]},{"lat":"37.591144818","long":"127.21950534","items":[{"name":"덕소푸르넷학원","tel":"031-524-9724","addr":"경기도 남양주시 와부읍 덕소리 177-20번지 201호","category":"학원 - 보습학원"},{"name":"레가타커피","tel":"031-577-3997","addr":"경기도 남양주시 와부읍 덕소리 177-20번지 강산빌딩 111호","category":"일반휴게음식 - 서양음식"},{"name":"마플수학학원","tel":"031-521-2172","addr":"경기도 남양주시 와부읍 덕소리 177-20번지 203호","category":"학원 - 보습학원"},{"name":"법무법인 현담 (와부 분사무소)","tel":"031-576-9050","addr":"경기도 남양주시 와부읍 덕소리 177-20번지 204호","category":"용역 서비스 - 법률회계서비스(법인)"},{"name":"벨트잉글리시영어학원","tel":"","addr":"경기도 남양주시 와부읍 덕소리 177-20번지 401호","category":"학원 - 외국어학원"},{"name":"스터디라인 덕소지점 프리미엄 독서실","tel":"031-576-6688","addr":"경기도 남양주시 와부읍 덕소리 177-20번지 402. 403호","category":"학원 - 독서실"},{"name":"쎈ssen수학러닝센터덕소2학원","tel":"031-577-7481","addr":"경기도 남양주시 와부읍 덕소리 177-20번지 303호","category":"학원 - 보습학원"},{"name":"올리브헤어","tel":"031-792-7574","addr":"경기도 남양주시 와부읍 덕소리 177-20번지 110호","category":"보건위생 - 미용원"},{"name":"응답하라 멍냥아","tel":"031-521-9264","addr":"경기도 남양주시 와부읍 덕소리 177-20번지 101,102호","category":"문화.취미 - 애완동물"},{"name":"이마트24 덕소점","tel":"031-111-1111","addr":"경기도 남양주시 와부읍 덕소리 177-20번지 강산빌딩 108호","category":"유통업 영리 - 편 의 점"},{"name":"제이스어학원","tel":"031-555-0533","addr":"경기도 남양주시 와부읍 덕소리 177-20번지 강산빌딩 302호","category":"학원 - 외국어학원"},{"name":"책읽기와글쓰기리딩엠덕소학원","tel":"031-577-8822","addr":"경기도 남양주시 와부읍 덕소리 177-20번지 강산빌딩 304호","category":"학원 - 보습학원"},{"name":"청년떡볶이 남양주덕소점","tel":"031-577-4200","addr":"경기도 남양주시 와부읍 덕소리 177-20번지 109호","category":"일반휴게음식 - 일반한식"},{"name":"플라즈마학원","tel":"031-521-6530","addr":"경기도 남양주시 와부읍 덕소리 177-20번지 4층 404호","category":"학원 - 보습학원"}]},{"lat":"37.58720525","long":"127.21581428","items":[{"name":"덕소프라자약국","tel":"031-577-7607","addr":"경기도 남양주시 와부읍 덕소리 141-69번지 1층","category":"약국 - 약국"}]},{"lat":"37.587095578","long":"127.21667444","items":[{"name":"덕소하이스트학원","tel":"031-576-0791","addr":"경기도 남양주시 와부읍 덕소리 138번지 광림빌딩 2층","category":"학원 - 보습학원"},{"name":"덕소해동검도","tel":"031-576-4458","addr":"경기도 남양주시 와부읍 덕소리 138번지 광림빌딩 3층","category":"학원 - 예·체능계학원"},{"name":"시매쓰학원","tel":"031-521-3002","addr":"경기도 남양주시 와부읍 덕소리 138번지 광림빌딩 4층","category":"학원 - 보습학원"},{"name":"제이브라운","tel":"","addr":"경기도 남양주시 와부읍 덕소리 138번지 1층 우측호 (광림빌딩)","category":"일반휴게음식 - 서양음식"}]},{"lat":"37.584589273","long":"127.2125349","items":[{"name":"덕소화원","tel":"031-577-1363","addr":"경기도 남양주시 와부읍 덕소리 510-16번지","category":"문화.취미 - 화원"}]},{"lat":"37.583397098","long":"127.20905589","items":[{"name":"덕소회관","tel":"031-577-6604","addr":"경기도 남양주시 와부읍 덕소리 559번지","category":"일반휴게음식 - 일식·회집"}]},{"lat":"37.587339661","long":"127.21622226","items":[{"name":"덕차이","tel":"031-000-0000","addr":"경기도 남양주시 와부읍 덕소리 141-74번지 1층","category":"일반휴게음식 - 일반한식"},{"name":"향나무집","tel":"031-521-7784","addr":"경기도 남양주시 와부읍 덕소리 141-74번지 1층","category":"일반휴게음식 - 일반한식"}]},{"lat":"37.590317706","long":"127.21852921","items":[{"name":"도모","tel":"031-577-9950","addr":"경기도 남양주시 와부읍 덕소리 185-7번지 1층","category":"일반휴게음식 - 일식·회집"}]},{"lat":"37.591315233","long":"127.21992477","items":[{"name":"동부광성교회 자작나무카페","tel":"031-576-5360","addr":"경기도 남양주시 와부읍 덕소리 177-2번지","category":"일반휴게음식 - 서양음식"},{"name":"동부광성평생교육문화원","tel":"031-576-5363","addr":"경기도 남양주시 와부읍 덕소리 177-2번지 2층","category":"회원제형태 - 학원"}]},{"lat":"37.599450135","long":"127.22042399","items":[{"name":"동부엠엔피","tel":"031-595-1842","addr":"경기도 남양주시 와부읍 덕소리 337번지","category":"서적문구 - 과학기자재"}]},{"lat":"37.590365216","long":"127.22208459","items":[{"name":"동부이화음악교습소","tel":"031-521-8811","addr":"경기도 남양주시 와부읍 덕소리 613번지 남양주덕소동부센트레빌 307호","category":"학원 - 예·체능계학원"},{"name":"뮤엠영어학원","tel":"031-577-5615","addr":"경기도 남양주시 와부읍 덕소리 613번지 남양주덕소동부센트레빌 상가동 204호","category":"학원 - 보습학원"},{"name":"사과나무어린이집[아이행복]","tel":"031-521-2339","addr":"경기도 남양주시 와부읍 덕소리 613번지 남양주덕소동부센트레빌","category":"학원 - 유아원"},{"name":"쇼팽의집피아노교습소","tel":"031-521-1232","addr":"경기도 남양주시 와부읍 덕소리 613번지 남양주덕소동부센트레빌 상가동 3층 302호","category":"학원 - 예·체능계학원"},{"name":"쎈트레빌마트","tel":"031-577-1580","addr":"경기도 남양주시 와부읍 덕소리 613번지 남양주덕소동부센트레빌 107호","category":"음료식품 - 기타음료식품"},{"name":"아이엠수학교습소","tel":"031-521-3668","addr":"경기도 남양주시 와부읍 덕소리 613번지 남양주덕소동부센트레빌 상가 203호","category":"학원 - 보습학원"},{"name":"오렌지헤어","tel":"031-521-6565","addr":"경기도 남양주시 와부읍 덕소리 613번지 남양주덕소동부센트레빌 110호","category":"보건위생 - 미용원"},{"name":"지성수학학원","tel":"031-577-6007","addr":"경기도 남양주시 와부읍 덕소리 613번지 동부센트레빌 상가동 208호","category":"회원제형태 - 학원"},{"name":"지성영어교습소","tel":"031-577-6027","addr":"경기도 남양주시 와부읍 덕소리 613번지 남양주덕소동부센트레빌 상가동 201호","category":"학원 - 외국어학원"},{"name":"크린위드","tel":"031-521-3489","addr":"경기도 남양주시 와부읍 덕소리 613번지 남양주덕소동부센트레빌 105호","category":"수리서비스 - 세탁소"}]},{"lat":"37.587178527","long":"127.21564438","items":[{"name":"동양합기도무술관","tel":"031-577-7706","addr":"경기도 남양주시 와부읍 덕소리 141-64번지 3층","category":"학원 - 예·체능계학원"},{"name":"브니엘헤어","tel":"031-528-6263","addr":"경기도 남양주시 와부읍 덕소리 141-64번지 1층","category":"보건위생 - 미용원"},{"name":"우리집밥상","tel":"031-576-6855","addr":"경기도 남양주시 와부읍 덕소리 141-64번지 1층 2호","category":"음료식품 - 기타음료식품"},{"name":"코지당구장","tel":"031-571-7282","addr":"경기도 남양주시 와부읍 덕소리 141-64번지 2층","category":"레저업소 - 당 구 장"}]},{"lat":"37.584068333","long":"127.2116164","items":[{"name":"동원떡방앗간","tel":"031-577-1877","addr":"경기도 남양주시 와부읍 덕소리 539-10","category":"음료식품 - 제과점"},{"name":"삼다도아구찜","tel":"031-577-8814","addr":"경기도 남양주시 와부읍 덕소리 539-10번지 동원주택","category":"일반휴게음식 - 일반한식"}]},{"lat":"37.588345422","long":"127.21805931","items":[{"name":"돼지 위에 오리","tel":"031-514-2525","addr":"경기도 남양주시 와부읍 덕소리 163-4번지 풍림빌딩 102호","category":"일반휴게음식 - 일반한식"},{"name":"디긋","tel":"031-521-5272","addr":"경기도 남양주시 와부읍 덕소리 163-4번지 풍림빌딩 지하1층","category":"레저업소 - 기타레져업소"},{"name":"윤선생영어숲덕소동학원","tel":"031-553-0505","addr":"경기도 남양주시 와부읍 덕소리 163-4번지 풍림빌딩 301호","category":"학원 - 학습지 교육"},{"name":"이미나어학원","tel":"031-521-0533","addr":"경기도 남양주시 와부읍 덕소리 163-4번지 풍림빌딩 2층 201호","category":"회원제형태 - 학원"},{"name":"이앤조 음악미술학원","tel":"031-521-5272","addr":"경기도 남양주시 와부읍 덕소리 163-4번지 풍림빌딩 301호","category":"학원 - 예·체능계학원"},{"name":"청년피자덕소점","tel":"031-576-2369","addr":"경기도 남양주시 와부읍 덕소리 163-4번지 풍림빌딩 102호","category":"일반휴게음식 - 서양음식"},{"name":"코지헤어","tel":"031-515-1001","addr":"경기도 남양주시 와부읍 덕소리 163-4 외 1.1층 101","category":"보건위생 - 미용원"}]},{"lat":"37.58739331","long":"127.21644885","items":[{"name":"두뇌로 의왕군포산본지사","tel":"","addr":"경기도 남양주시 와부읍 덕소리 141-29번지 201호","category":"서적문구 - 일반서적"},{"name":"석실한우마을","tel":"031-577-3377","addr":"경기도 남양주시 와부읍 덕소리 141-29번지 1층","category":"일반휴게음식 - 일반한식"}]},{"lat":"37.589395697","long":"127.21522044","items":[{"name":"드림전자","tel":"031-576-5500","addr":"경기도 남양주시 와부읍 덕소리 427-2번지","category":"수리서비스 - 가정용품수리"}]},{"lat":"37.589301607","long":"127.21241225","items":[{"name":"땅강아지","tel":"031-576-1340","addr":"경기도 남양주시 와부읍 덕소리 453-27 유성주택 다 3021","category":"문화.취미 - 애완동물"}]},{"lat":"37.587033713","long":"127.22094263","items":[{"name":"또래어린이집[아이행복]","tel":"031-576-6380","addr":"경기도 남양주시 와부읍 덕소리 612번지 덕소아이파크 115동 102호","category":"학원 - 유아원"}]},{"lat":"37.587115806","long":"127.21545173","items":[{"name":"또봉이통닭 덕소점","tel":"070-9967-7303","addr":"경기도 남양주시 와부읍 덕소리 141-18번지","category":"일반휴게음식 - 주점"},{"name":"임실치즈피자","tel":"031-521-5889","addr":"경기도 남양주시 와부읍 덕소리 141-18번지 2층","category":"일반휴게음식 - 서양음식"}]},{"lat":"37.586788894","long":"127.21183911","items":[{"name":"라미아전자담배","tel":"031-000-0000","addr":"경기도 남양주시 와부읍 덕소리 463-12번지 1층","category":"기타 - 기타 전문점"},{"name":"라벨르헤어","tel":"031-521-9496","addr":"경기도 남양주시 와부읍 덕소리 463-12번지 1층","category":"보건위생 - 미용원"},{"name":"삼화페인트","tel":"031-577-7704","addr":"경기도 남양주시 와부읍 덕소리 463-12번지","category":"건축자재 - 페인트"},{"name":"한샘종합집수리","tel":"031-576-6166","addr":"경기도 남양주시 와부읍 덕소리 463-12번지","category":"건축자재 - 목재·석재·철물"}]},{"lat":"37.58762132","long":"127.20983744","items":[{"name":"라임인솔트","tel":"031-521-7558","addr":"경기도 남양주시 와부읍 덕소리 462-16번지","category":"의류 - 정장"}]},{"lat":"37.587421239","long":"127.21595076","items":[{"name":"레이디 엠(LADY M)","tel":"031-528-6263","addr":"경기도 남양주시 와부읍 덕소리 490-2번지","category":"의류 - 정장"}]},{"lat":"37.584754312","long":"127.21091638","items":[{"name":"레츠팟 덕소점","tel":"031-576-0753","addr":"경기도 남양주시 와부읍 덕소리 513번지 2층 일부호","category":"레저업소 - 기타레져업소"},{"name":"제니스","tel":"070-7617-9849","addr":"경기도 남양주시 와부읍 덕소리 513번지 2층","category":"레저업소 - 기타레져업소"}]},{"lat":"37.587761046","long":"127.21736699","items":[{"name":"로즈마리","tel":"","addr":"경기도 남양주시 와부읍 덕소리 141-81번지 주차장 일부","category":"문화.취미 - 화원"},{"name":"하트","tel":"031-111-1111","addr":"경기도 남양주시 와부읍 덕소리 141-81번지 1층","category":"의류 - 정장"},{"name":"현텔레콤","tel":"031-521-8048","addr":"경기도 남양주시 와부읍 덕소리 141-81번지 1층","category":"사무통신 - 통신기기"}]},{"lat":"37.583923636","long":"127.21192168","items":[{"name":"로즈모텔","tel":"031-577-8756","addr":"경기도 남양주시 와부읍 덕소리 540-5","category":"숙박업 - 여관/기타숙박업"},{"name":"맘스터치덕소점","tel":"031-576-9783","addr":"경기도 남양주시 와부읍 덕소리 540-5번지","category":"일반휴게음식 - 일반한식"},{"name":"모텔로즈","tel":"031-577-8756","addr":"경기도 남양주시 와부읍 덕소리 540-5번지","category":"숙박업 - 여관/기타숙박업"}]},{"lat":"37.587484523","long":"127.21077679","items":[{"name":"리버정보통신","tel":"","addr":"경기도 남양주시 와부읍 덕소리 458-16번지 105호","category":"사무통신 - 통신기기"},{"name":"에이치샵","tel":"031-1111-1111","addr":"경기도 남양주시 와부읍 덕소리 458-16번지 107호","category":"의류 - 정장"},{"name":"이한헤어","tel":"031-577-5689","addr":"경기도 남양주시 와부읍 덕소리 458-16번지","category":"보건위생 - 미용원"},{"name":"제일황소곱창","tel":"031-577-0847","addr":"경기도 남양주시 와부읍 덕소리 458-16번지 1층","category":"일반휴게음식 - 일반한식"}]},{"lat":"37.586953765","long":"127.21031111","items":[{"name":"리빠똥","tel":"031-577-3588","addr":"경기도 남양주시 와부읍 덕소리 462-12","category":"일반휴게음식 - 스넥"}]},{"lat":"37.586865445","long":"127.21438676","items":[{"name":"리얼안심탕수육&리얼하노이 덕소본점","tel":"031-577-2006","addr":"경기도 남양주시 와부읍 덕소리 488-6번지 1층 일부","category":"일반휴게음식 - 일반한식"}]},{"lat":"37.589536137","long":"127.20711407","items":[{"name":"리얼엠(REAL M)","tel":"031-510-4689","addr":"경기도 남양주시 와부읍 덕소리 606번지 1층","category":"자동차정비 유지 - 자동차부품"}]},{"lat":"37.5910761","long":"127.22256223","items":[{"name":"릴리케이","tel":"","addr":"경기도 남양주시 와부읍 덕소리 613번지 남양주덕소동부센트레빌 106동 1104호","category":"문화.취미 - 화원"}]},{"lat":"37.583671864","long":"127.21163794","items":[{"name":"마루머리헤어","tel":"031-577-1713","addr":"경기도 남양주시 와부읍 덕소리 537-3번지 진도 상가 2층 204호","category":"보건위생 - 미용원"},{"name":"요요치과의원","tel":"031-577-2888","addr":"경기도 남양주시 와부읍 덕소리 537-3번지 진도 상가 2층 203호","category":"의원 - 치과의원"},{"name":"하와이사우나 (덕소)","tel":"031-577-3800","addr":"경기도 남양주시 와부읍 덕소리 537-3번지","category":"보건위생 - 사우나"}]},{"lat":"37.589622361","long":"127.2242563","items":[{"name":"마린보이동태해물찜코다리1번가","tel":"031-577-9277","addr":"경기도 남양주시 와부읍 덕소리 86번지 2층","category":"일반휴게음식 - 일반한식"}]},{"lat":"37.591842664","long":"127.22216819","items":[{"name":"마이더스덴트","tel":"031-521-5720","addr":"경기도 남양주시 와부읍 덕소리 43-10번지","category":"자동차정비 유지 - 카인테리어"},{"name":"커피로","tel":"031-521-3443","addr":"경기도 남양주시 와부읍 덕소리 43-10번지","category":"일반휴게음식 - 서양음식"}]},{"lat":"37.587012168","long":"127.21294929","items":[{"name":"만냥회마트","tel":"031-521-8807","addr":"경기도 남양주시 와부읍 덕소리 481-9번지","category":"일반휴게음식 - 일반한식"},{"name":"백마복돼지생삼겹살","tel":"031-577-0234","addr":"경기도 남양주시 와부읍 덕소리 481-9번지","category":"일반휴게음식 - 일반한식"},{"name":"백마정육점","tel":"031-577-0147","addr":"경기도 남양주시 와부읍 덕소리 481-9번지","category":"음료식품 - 정육점"},{"name":"헤어스케치","tel":"02-000-0000","addr":"경기도 남양주시 와부읍 덕소리 481-9번지","category":"보건위생 - 미용원"}]},{"lat":"37.590812785","long":"127.21877974","items":[{"name":"맛들의축제","tel":"031-576-3777","addr":"경기도 남양주시 와부읍 덕소리 185-15번지 1층","category":"일반휴게음식 - 일반한식"}]},{"lat":"37.586955136","long":"127.21461345","items":[{"name":"머리느낌미용실","tel":"031-577-7512","addr":"경기도 남양주시 와부읍 덕소리 488-3번지","category":"보건위생 - 미용원"},{"name":"미","tel":"031-577-5487","addr":"경기도 남양주시 와부읍 덕소리 488-3번지 2층","category":"보건위생 - 피부미용실"},{"name":"세계속셈학원","tel":"031-521-0909","addr":"경기도 남양주시 와부읍 덕소리 488-3번지 3층","category":"회원제형태 - 학원"},{"name":"오뚜기문구","tel":"031-577-9130","addr":"경기도 남양주시 와부읍 덕소리 488-3번지","category":"서적문구 - 문구용품"},{"name":"태종체육관","tel":"031-577-6322","addr":"경기도 남양주시 와부읍 덕소리 488-3번지 4층 2호","category":"학원 - 기타 교육기관"},{"name":"포장마차","tel":"031-000-0000","addr":"경기도 남양주시 와부읍 덕소리 488-3번지","category":"일반휴게음식 - 일반한식"}]},{"lat":"37.586175389","long":"127.21231291","items":[{"name":"메가엠지씨커피(덕소삼거리)","tel":"","addr":"경기도 남양주시 와부읍 덕소리 474-28번지","category":"일반휴게음식 - 서양음식"}]},{"lat":"37.584566462","long":"127.21014599","items":[{"name":"멕시카나 와부덕소점","tel":"","addr":"경기도 남양주시 와부읍 덕소리 567-8번지 1층","category":"일반휴게음식 - 스넥"},{"name":"바비크라운(BOBBI CROWN)","tel":"","addr":"경기도 남양주시 와부읍 덕소리 567-8번지 1층 101호","category":"의류 - 정장"},{"name":"짠","tel":"131-111-1111","addr":"경기도 남양주시 와부읍 덕소리 567-8번지 2층","category":"일반휴게음식 - 일반한식"}]},{"lat":"37.584619505","long":"127.21072354","items":[{"name":"명가부대찌개","tel":"031-576-0551","addr":"경기도 남양주시 와부읍 덕소리 514-1번지","category":"일반휴게음식 - 일반한식"},{"name":"와부당구장","tel":"031-577-6681","addr":"경기도 남양주시 와부읍 덕소리 514-1","category":"레저업소 - 당 구 장"},{"name":"피지에이(PGA)골프스쿨","tel":"031-576-5966","addr":"경기도 남양주시 와부읍 덕소리 514-1번지","category":"레저업소 - 골프연습장"}]},{"lat":"37.586621471","long":"127.21478233","items":[{"name":"명동아구찜","tel":"031-576-7999","addr":"경기도 남양주시 와부읍 덕소리 491-12번지 양지빌라 1층 101호","category":"일반휴게음식 - 일반한식"}]},{"lat":"37.588422689","long":"127.20492585","items":[{"name":"명성카인테리어","tel":"031-577-8574","addr":"경기도 남양주시 와부읍 덕소리 600-29번지","category":"자동차정비 유지 - 자동차정비"}]},{"lat":"37.5875955","long":"127.20914673","items":[{"name":"명진모터스","tel":"031-577-1816","addr":"경기도 남양주시 와부읍 덕소리 590-6번지","category":"자동차정비 유지 - 자동차정비"}]},{"lat":"37.586900779","long":"127.20969958","items":[{"name":"명진오토바이","tel":"031-577-1816","addr":"경기도 남양주시 와부읍 덕소리 590-22번지","category":"수리서비스 - 레져용품수리"}]},{"lat":"37.587035431","long":"127.21505523","items":[{"name":"명희네빈대떡","tel":"031-576-3054","addr":"경기도 남양주시 와부읍 덕소리 491-9번지 외1필지","category":"일반휴게음식 - 일반한식"},{"name":"예인헤어","tel":"031-521-8805","addr":"경기도 남양주시 와부읍 덕소리 491-9번지","category":"보건위생 - 미용원"}]},{"lat":"37.584590317","long":"127.21194618","items":[{"name":"모던데코","tel":"031-577-7732","addr":"경기도 남양주시 와부읍 덕소리 511-8번지","category":"건축자재 - 인테리어전문"},{"name":"모던데코","tel":"031-577-7732","addr":"경기도 남양주시 와부읍 덕소리 511-8","category":"건축자재 - 인테리어전문"},{"name":"백설공주","tel":"031-577-7751","addr":"경기도 남양주시 와부읍 덕소리 511-8번지","category":"일반휴게음식 - 서양음식"},{"name":"비원피시방","tel":"070-2544-0078","addr":"경기도 남양주시 와부읍 덕소리 511-8번지 지하1층","category":"레저업소 - 기타레져업소"},{"name":"새로본안경","tel":"031-577-9350","addr":"경기도 남양주시 와부읍 덕소리 511-8번지","category":"보건위생 - 안경"},{"name":"얌샘덕소점","tel":"031-577-8119","addr":"경기도 남양주시 와부읍 덕소리 511-8번지","category":"일반휴게음식 - 스넥"},{"name":"펀비어킹","tel":"031-577-3374","addr":"경기도 남양주시 와부읍 덕소리 511-8번지","category":"일반휴게음식 - 주점"}]},{"lat":"37.587706782","long":"127.21748005","items":[{"name":"모두모여족발먹자","tel":"031-576-0468","addr":"경기도 남양주시 와부읍 덕소리 141-25번지 1층","category":"일반휴게음식 - 일반한식"},{"name":"블루스카이영어","tel":"","addr":"경기도 남양주시 와부읍 덕소리 141-25번지 2층","category":"학원 - 외국어학원"},{"name":"이니뷰티","tel":"","addr":"경기도 남양주시 와부읍 덕소리 141-25번지 3층","category":"보건위생 - 피부미용실"}]},{"lat":"37.593315987","long":"127.21464279","items":[{"name":"무지개유치원[아이행복]","tel":"031-521-7744","addr":"경기도 남양주시 와부읍 덕소리 391번지","category":"학원 - 유치원"}]},{"lat":"37.588509887","long":"127.20661309","items":[{"name":"미건하우징","tel":"031-521-8234","addr":"경기도 남양주시 와부읍 덕소리 604-35번지 1층","category":"건축자재 - 인테리어전문"}]},{"lat":"37.590498593","long":"127.21315157","items":[{"name":"미스터몽키","tel":"070-4230-2959","addr":"경기도 남양주시 와부읍 덕소리 435번지 광신주택 1동 102호","category":"의류 - 정장"}]},{"lat":"37.585760901","long":"127.2123344","items":[{"name":"미앤느여성의원","tel":"031-576-2840","addr":"경기도 남양주시 와부읍 덕소리 474-5번지 희빌딩 7층","category":"의원 - 의원"},{"name":"선재한의원","tel":"031-577-3838","addr":"경기도 남양주시 와부읍 덕소리 474-5","category":"의원 - 한의원"},{"name":"이씨씨영어학원","tel":"031-521-0506","addr":"경기도 남양주시 와부읍 덕소리 474-5번지","category":"학원 - 외국어학원"},{"name":"화인골드","tel":"031-521-8204","addr":"경기도 남양주시 와부읍 덕소리 474-5번지 희빌딩","category":"신변잡화 - 귀금속"}]},{"lat":"37.589869822","long":"127.21207417","items":[{"name":"미에띠임","tel":"","addr":"경기도 남양주시 와부읍 덕소리 산15-9번지 세종타운 B동 101호","category":"의류 - 내의판매"}]},{"lat":"37.583372414","long":"127.21283717","items":[{"name":"미용길","tel":"031-521-0209","addr":"경기도 남양주시 와부읍 덕소리 541-14번지 1층","category":"보건위생 - 미용원"},{"name":"이근산부인과","tel":"031-577-0336","addr":"경기도 남양주시 와부읍 덕소리 541-14번지","category":"의원 - 의원"},{"name":"한정원수학영어학원","tel":"031-510-7515","addr":"경기도 남양주시 와부읍 덕소리 541-14번지 3층","category":"학원 - 보습학원"}]},{"lat":"37.584428823","long":"127.2115608","items":[{"name":"바로-존","tel":"031-577-6668","addr":"경기도 남양주시 와부읍 덕소리 539-1번지 (반도연립가동3-2호)","category":"레져용품 - 스포츠·레져용품"}]},{"lat":"37.586842029","long":"127.21236007","items":[{"name":"바른생활샌드위치","tel":"031-521-1933","addr":"경기도 남양주시 와부읍 덕소리 481-5번지","category":"일반휴게음식 - 스넥"},{"name":"빈티지","tel":"031-577-4272","addr":"경기도 남양주시 와부읍 덕소리 481-5번지","category":"의류 - 정장"}]},{"lat":"37.589865475","long":"127.22433628","items":[{"name":"박경규항아리보쌈덕소점","tel":"031-521-4500","addr":"경기도 남양주시 와부읍 덕소리 87번지","category":"일반휴게음식 - 일반한식"},{"name":"하나로스포츠","tel":"031-577-8624","addr":"경기도 남양주시 와부읍 덕소리 87번지","category":"레져용품 - 스포츠·레져용품"}]},{"lat":"37.586145638","long":"127.21384127","items":[{"name":"박포삼겹살","tel":"031-576-1577","addr":"경기도 남양주시 와부읍 덕소리 477-6번지 1층 좌측","category":"일반휴게음식 - 일반한식"}]},{"lat":"37.591404316","long":"127.21553186","items":[{"name":"박향희김","tel":"","addr":"경기도 남양주시 와부읍 덕소리 412-36번지 경동아트빌라 36동 101호","category":"음료식품 - 기타음료식품"}]},{"lat":"37.590370637","long":"127.21417023","items":[{"name":"반석설비","tel":"031-594-3077","addr":"경기도 남양주시 와부읍 덕소리 417-1 외1필지1층","category":"용역 서비스 - 기타용역서비스"}]},{"lat":"37.58978545","long":"127.21391948","items":[{"name":"반올림피아노교습소","tel":"031-552-5768","addr":"경기도 남양주시 와부읍 덕소리 436-10번지","category":"학원 - 예·체능계학원"}]},{"lat":"37.588059227","long":"127.21186531","items":[{"name":"발악모터스","tel":"070-8621-7444","addr":"경기도 남양주시 와부읍 덕소리 461-2번지 발악모터스게러지사 업부","category":"자동차정비 유지 - 자동차부품"}]},{"lat":"37.587925111","long":"127.22125093","items":[{"name":"버밍엄 영어 교습소","tel":"031-521-7675","addr":"경기도 남양주시 와부읍 덕소리 612번지 덕소아이파크 상가동 2층 201-2호","category":"학원 - 보습학원"},{"name":"쎈수학러닝센터덕소학원","tel":"031-577-7480","addr":"경기도 남양주시 와부읍 덕소리 612번지 덕소아이파크 상가동 202호","category":"학원 - 보습학원"},{"name":"아이들향기어린이집[아이행복]","tel":"031-515-9499","addr":"경기도 남양주시 와부읍 덕소리 612번지 덕소아이파크관리동 1층","category":"학원 - 유아원"},{"name":"아이존(I'ZON)","tel":"031-521-9898","addr":"경기도 남양주시 와부읍 덕소리 612 덕소아이파크상가지하1층101호","category":"회원제형태 - 레져업소"},{"name":"작은별음악학원","tel":"031-521-2156","addr":"경기도 남양주시 와부읍 덕소리 612번지 덕소아이파크 상가동 301호","category":"학원 - 예·체능계학원"},{"name":"주식회사오타브","tel":"02-3143-5628","addr":"경기도 남양주시 와부읍 덕소리 612번지 덕소아이파크 115호1203동","category":"회원제형태 - 기타4"},{"name":"헤어트리","tel":"031-521-0277","addr":"경기도 남양주시 와부읍 덕소리 612번지 덕소아이파크 상가 -203","category":"보건위생 - 미용원"}]},{"lat":"37.58728429","long":"127.21694671","items":[{"name":"버튼","tel":"","addr":"경기도 남양주시 와부읍 덕소리 138-1번지","category":"의류 - 정장"}]},{"lat":"37.583286641","long":"127.21039151","items":[{"name":"벅구네사철탕삼계탕","tel":"031-577-8895","addr":"경기도 남양주시 와부읍 덕소리 519-1번지 1층","category":"일반휴게음식 - 일반한식"}]},{"lat":"37.585588771","long":"127.21286603","items":[{"name":"법무사구자훈사무소","tel":"031-523-3337","addr":"경기도 남양주시 와부읍 덕소리 112-3번지 덕소빌딩 상가 6층 601호","category":"용역 서비스 - 법률회계서비스(개인)"},{"name":"부부치과의원","tel":"031-577-2878","addr":"경기도 남양주시 와부읍 덕소리 112-3번지 덕소빌딩 301호","category":"의원 - 치과의원"},{"name":"쌈촌 덕소점","tel":"031-577-8547","addr":"경기도 남양주시 와부읍 덕소리 112-3번지 덕소빌딩 701호","category":"일반휴게음식 - 일반한식"},{"name":"한빛의원","tel":"031-577-7766","addr":"경기도 남양주시 와부읍 덕소리 112-3번지 덕소빌딩 3층 302~303호 상가","category":"의원 - 의원"}]},{"lat":"37.585922634","long":"127.21258393","items":[{"name":"법무사박재산","tel":"031-576-9900","addr":"경기도 남양주시 와부읍 덕소리 474-9번지 3층 301호","category":"용역 서비스 - 법률회계서비스(개인)"},{"name":"새아침한의원","tel":"031-576-7975","addr":"경기도 남양주시 와부읍 덕소리 474-9번지","category":"의원 - 한의원"},{"name":"아리따움덕소점","tel":"031-577-8253","addr":"경기도 남양주시 와부읍 덕소리 474-9, 474-24","category":"보건위생 - 화장품"}]},{"lat":"37.587286308","long":"127.21077624","items":[{"name":"벨톤보청기 남양주지사","tel":"031-521-1002","addr":"경기도 남양주시 와부읍 덕소리 462-13번지 1층 106호","category":"보건위생 - 의료용품"},{"name":"씨유덕소중앙점","tel":"070-8269-3399","addr":"경기도 남양주시 와부읍 덕소리 462-13번지","category":"유통업 영리 - 편 의 점"},{"name":"한일전기","tel":"031-577-6742","addr":"경기도 남양주시 와부읍 덕소리 462-13번지","category":"건축자재 - 보일러·펌프·샷시"}]},{"lat":"37.587825585","long":"127.22147708","items":[{"name":"보물지도","tel":"031-471-0876","addr":"경기도 남양주시 와부읍 덕소리 612번지 덕소아이파크 113동 903호","category":"회원제형태 - 기타4"},{"name":"수아빈","tel":"","addr":"경기도 남양주시 와부읍 덕소리 612번지 덕소아이파크 113동 304호","category":"의류 - 정장"}]},{"lat":"37.584422027","long":"127.21030409","items":[{"name":"보배곱창(덕소직영점)","tel":"031-577-8288","addr":"경기도 남양주시 와부읍 덕소리 517-2번지 세훈빌딩 1층 일부","category":"일반휴게음식 - 일반한식"},{"name":"신성서적(주)","tel":"031-577-0775","addr":"경기도 남양주시 와부읍 덕소리 517-2번지 세훈빌딩 4층 402호","category":"서적문구 - 일반서적"},{"name":"신성서적(주)","tel":"031-577-0775","addr":"경기도 남양주시 와부읍 덕소리 517-2번지 세훈빌딩","category":"서적문구 - 일반서적"},{"name":"아카시","tel":"","addr":"경기도 남양주시 와부읍 덕소리 517-2번지 세훈빌딩 1층 102호","category":"일반휴게음식 - 일반한식"},{"name":"엘리팝 남양주덕소점","tel":"031-521-8955","addr":"경기도 남양주시 와부읍 덕소리 517-2번지 2층 세훈빌딩","category":"일반휴게음식 - 주점"},{"name":"웰빙코다리찜아구찜","tel":"031-521-7745","addr":"경기도 남양주시 와부읍 덕소리 517-2번지 세훈빌딩","category":"일반휴게음식 - 일반한식"},{"name":"윤빌리어드","tel":"","addr":"경기도 남양주시 와부읍 덕소리 517-2번지 3층 세훈빌딩","category":"레저업소 - 당 구 장"},{"name":"힐링타이","tel":"031-866-0058","addr":"경기도 남양주시 와부읍 덕소리 517-2번지 5층","category":"회원제형태 - 기타4"}]},{"lat":"37.586675286","long":"127.21491835","items":[{"name":"본가춘천닭갈비","tel":"031-577-6997","addr":"경기도 남양주시 와부읍 덕소리 491-13번지 양지빌라 1층 101호","category":"일반휴게음식 - 일반한식"}]},{"lat":"37.583137415","long":"127.2132554","items":[{"name":"부산꼼장어집","tel":"031-528-6263","addr":"경기도 남양주시 와부읍 덕소리 541-18번지 대영주택 18동 1층 101호","category":"일반휴게음식 - 일반한식"}]},{"lat":"37.588256899","long":"127.21217156","items":[{"name":"불타는조개구이앤찜","tel":"031-577-8672","addr":"경기도 남양주시 와부읍 덕소리 453-51번지","category":"일반휴게음식 - 일반한식"},{"name":"프로헤어","tel":"031-577-8533","addr":"경기도 남양주시 와부읍 덕소리 453-51","category":"보건위생 - 미용원"},{"name":"혜린미술학원","tel":"031-577-3881","addr":"경기도 남양주시 와부읍 덕소리 453-51번지 2층","category":"회원제형태 - 학원"}]},{"lat":"37.597451457","long":"127.21961421","items":[{"name":"비뉴팻","tel":"070-7799-7129","addr":"경기도 남양주시 와부읍 덕소리 283-1번지","category":"문화.취미 - 애완동물"}]},{"lat":"37.588679654","long":"127.21256902","items":[{"name":"비주트리","tel":"070-4403-7650","addr":"경기도 남양주시 와부읍 덕소리 614번지 경남아너스빌 101동 1504호","category":"회원제형태 - 기타4"},{"name":"은성상사","tel":"031-521-3566","addr":"경기도 남양주시 와부읍 덕소리 614번지 경남아너스빌 101동 1108호","category":"회원제형태 - 기타4"}]},{"lat":"37.58784215","long":"127.21234023","items":[{"name":"비타민","tel":"031-521-2427","addr":"경기도 남양주시 와부읍 덕소리 461-3번지","category":"의류 - 정장"}]},{"lat":"37.590203608","long":"127.21686449","items":[{"name":"빨리처리센터","tel":"031-576-7680","addr":"경기도 남양주시 와부읍 덕소리 206-9번지 1층","category":"용역 서비스 - 기타용역서비스"}]},{"lat":"37.586814598","long":"127.21258643","items":[{"name":"뻐꾸기 둥지로 날아오르다","tel":"","addr":"경기도 남양주시 와부읍 덕소리 480-15번지 1층","category":"일반휴게음식 - 일반한식"},{"name":"샤인샵","tel":"031-510-6387","addr":"경기도 남양주시 와부읍 덕소리 480-15번지 3층","category":"보건위생 - 피부미용실"},{"name":"코코옛날통닭","tel":"031-523-3315","addr":"경기도 남양주시 와부읍 덕소리 480-15번지 1층","category":"일반휴게음식 - 스넥"},{"name":"한톨","tel":"031-577-8125","addr":"경기도 남양주시 와부읍 덕소리 480-15번지","category":"음료식품 - 미곡상"},{"name":"히어로","tel":"031-576-2043","addr":"경기도 남양주시 와부읍 덕소리 480-15번지 2층","category":"일반휴게음식 - 일반한식"}]},{"lat":"37.587565252","long":"127.21603043","items":[{"name":"산오징어","tel":"031-521-9847","addr":"경기도 남양주시 와부읍 덕소리 490-28번지","category":"일반휴게음식 - 일반한식"}]},{"lat":"37.593426562","long":"127.2231466","items":[{"name":"산채랑","tel":"031-521-8885","addr":"경기도 남양주시 와부읍 덕소리 38-14번지","category":"일반휴게음식 - 일반한식"}]},{"lat":"37.591009413","long":"127.22449818","items":[{"name":"새롬산업(블라인드세상)","tel":"031-708-3530","addr":"경기도 남양주시 와부읍 덕소리 90번지","category":"직물 - 카페트,커튼,천막,지물"},{"name":"송암골평창송어 덕소점","tel":"031-576-1666","addr":"경기도 남양주시 와부읍 덕소리 90번지 1층","category":"일반휴게음식 - 일반한식"}]},{"lat":"37.585144415","long":"127.20938904","items":[{"name":"생활맥주 덕소점","tel":"","addr":"경기도 남양주시 와부읍 덕소리 600-66번지 1,2층","category":"일반휴게음식 - 주점"}]},{"lat":"37.586226544","long":"127.2139434","items":[{"name":"서박사감자탕","tel":"031-577-9253","addr":"경기도 남양주시 와부읍 덕소리 478-10번지","category":"일반휴게음식 - 일반한식"}]},{"lat":"37.584420692","long":"127.21106263","items":[{"name":"서울반찬","tel":"031-577-0225","addr":"경기도 남양주시 와부읍 덕소리 538-1번지 우송연립 105호","category":"음료식품 - 기타음료식품"},{"name":"우송갈비해장국","tel":"031-551-1212","addr":"경기도 남양주시 와부읍 덕소리 538-1번지 우송연립 101호","category":"일반휴게음식 - 일반한식"},{"name":"중앙상회","tel":"031-577-3355","addr":"경기도 남양주시 와부읍 덕소리 538-1번지 우송연립 101호","category":"음료식품 - 미곡상"},{"name":"형제온족발","tel":"031-521-9749","addr":"경기도 남양주시 와부읍 덕소리 538-1번지 우송연립 102호","category":"일반휴게음식 - 일반한식"}]},{"lat":"37.588005069","long":"127.21694877","items":[{"name":"선비촌","tel":"031-521-9595","addr":"경기도 남양주시 와부읍 덕소리 141-95번지","category":"일반휴게음식 - 일반한식"},{"name":"주신유통","tel":"031-592-7774","addr":"경기도 남양주시 와부읍 덕소리 141-95번지","category":"음료식품 - 정육점"},{"name":"진로닭발상회","tel":"","addr":"경기도 남양주시 와부읍 덕소리 141-95번지 1층 일부","category":"일반휴게음식 - 일반한식"},{"name":"헤어by홍","tel":"031-577-6991","addr":"경기도 남양주시 와부읍 덕소리 141-95번지","category":"보건위생 - 미용원"}]},{"lat":"37.587814377","long":"127.21275907","items":[{"name":"선플렉스사우나","tel":"031-576-4582","addr":"경기도 남양주시 와부읍 덕소리 485-1번지","category":"회원제형태 - 기타4"}]},{"lat":"37.588950641","long":"127.20703321","items":[{"name":"성심리빙환경","tel":"031-555-4663","addr":"경기도 남양주시 와부읍 덕소리 606-2번지 2층(2층일부)","category":"용역 서비스 - 종합용역"},{"name":"흥성공업사","tel":"031-577-5360","addr":"경기도 남양주시 와부읍 덕소리 606-2번지","category":"자동차정비 유지 - 자동차정비"}]},{"lat":"37.589896167","long":"127.21747502","items":[{"name":"세경OA","tel":"","addr":"경기도 남양주시 와부읍 덕소리 189-9번지","category":"사무통신 - 사무용 OA기기"}]},{"lat":"37.589493754","long":"127.21074841","items":[{"name":"세경헤어샵","tel":"03-762-1210","addr":"경기도 남양주시 와부읍 덕소리 456-25번지 강병다세대 가동 302호","category":"보건위생 - 미용원"}]},{"lat":"37.585590298","long":"127.21200559","items":[{"name":"세진골드","tel":"031-521-5777","addr":"경기도 남양주시 와부읍 덕소리 473-7번지","category":"신변잡화 - 액세서리"}]},{"lat":"37.58442163","long":"127.21053052","items":[{"name":"손큰할매순대국","tel":"031-521-2946","addr":"경기도 남양주시 와부읍 덕소리 518-6번지","category":"일반휴게음식 - 일반한식"}]},{"lat":"37.588389447","long":"127.21363249","items":[{"name":"솔테크넷","tel":"02-948-3794","addr":"경기도 남양주시 와부읍 덕소리 432-19번지 진주마을 104동 4층 401호","category":"사무통신 - 컴퓨터"}]},{"lat":"37.59092055","long":"127.21897253","items":[{"name":"수레로돈까스","tel":"031-521-7086","addr":"경기도 남양주시 와부읍 덕소리 185-3번지","category":"일반휴게음식 - 일반한식"},{"name":"옛날아바이순대","tel":"031-577-2771","addr":"경기도 남양주시 와부읍 덕소리 185-3","category":"일반휴게음식 - 일반한식"}]},{"lat":"37.589948373","long":"127.21350101","items":[{"name":"슈즈포유","tel":"02-2654-4411","addr":"경기도 남양주시 와부읍 덕소리 435-9번지 대영빌딩 3층","category":"신변잡화 - 기타잡화"},{"name":"황실헤어아트","tel":"031-577-9901","addr":"경기도 남양주시 와부읍 덕소리 435-9번지","category":"보건위생 - 미용원"}]},{"lat":"37.589138969","long":"127.21267221","items":[{"name":"스마트 에어컨","tel":"031-792-3636","addr":"경기도 남양주시 와부읍 덕소리 614번지 경남아너스빌 103동 502호","category":"용역 서비스 - 기타용역서비스"}]},{"lat":"37.584816981","long":"127.21114298","items":[{"name":"스타일","tel":"031-521-5715","addr":"경기도 남양주시 와부읍 덕소리 539-3번지 대도프라자","category":"의류 - 정장"}]},{"lat":"37.589473042","long":"127.2221952","items":[{"name":"스포비즈","tel":"031-515-4255","addr":"경기도 남양주시 와부읍 덕소리 613번지 남양주덕소동부센트레빌 111동 404호","category":"레저업소 - 수 영 장"}]},{"lat":"37.584428141","long":"127.21194573","items":[{"name":"스피드치킨","tel":"031-577-6896","addr":"경기도 남양주시 와부읍 덕소리 511-9번지","category":"일반휴게음식 - 주점"}]},{"lat":"37.58764562","long":"127.21138863","items":[{"name":"승희네밥상","tel":"031-521-5636","addr":"경기도 남양주시 와부읍 덕소리 458-6번지 1층","category":"일반휴게음식 - 일반한식"}]},{"lat":"37.582151765","long":"127.21525648","items":[{"name":"시온합섬(주)서울직매장","tel":"031-521-1395","addr":"경기도 남양주시 와부읍 덕소리 551-9번지","category":"의류 - 정장"}]},{"lat":"37.590394614","long":"127.21586866","items":[{"name":"시티코리아","tel":"02-463-1927","addr":"경기도 남양주시 와부읍 덕소리 203번지 미니연립 1층 상가","category":"레져용품 - 스포츠·레져용품"}]},{"lat":"37.586148571","long":"127.21721518","items":[{"name":"신나는어린이집[아이행복]","tel":"031-576-5303","addr":"경기도 남양주시 와부읍 덕소리 110-1번지 덕소주공1단지 108동 102호","category":"학원 - 유아원"}]},{"lat":"37.587816745","long":"127.21142307","items":[{"name":"신라장여관","tel":"031-577-2069","addr":"경기도 남양주시 와부읍 덕소리 458-10번지 신라장여관","category":"숙박업 - 여관/기타숙박업"}]},{"lat":"37.586450835","long":"127.21447616","items":[{"name":"신성유치원[아이행복]","tel":"031-577-6458","addr":"경기도 남양주시 와부읍 덕소리 478-2","category":"학원 - 유치원"}]},{"lat":"37.588978079","long":"127.2169742","items":[{"name":"신앙촌상회","tel":"031-577-9898","addr":"경기도 남양주시 와부읍 덕소리 193-9번지 새루상가 1층 101호","category":"신변잡화 - 기타잡화"},{"name":"초은슈퍼","tel":"031-577-3238","addr":"경기도 남양주시 와부읍 덕소리 193-9번지 새루상가 109호","category":"유통업 영리 - 슈퍼마켓"}]},{"lat":"37.586895042","long":"127.21294896","items":[{"name":"썬더치킨","tel":"031-577-8892","addr":"경기도 남양주시 와부읍 덕소리 481-6번지 1층","category":"일반휴게음식 - 스넥"},{"name":"외교","tel":"031-576-5515","addr":"경기도 남양주시 와부읍 덕소리 481-6번지 지하1층","category":"일반휴게음식 - 서양음식"}]},{"lat":"37.586814739","long":"127.21250718","items":[{"name":"쏭쏭돈까스(덕소점)","tel":"","addr":"경기도 남양주시 와부읍 덕소리 480-16번지 1층,2층일부층","category":"일반휴게음식 - 일반한식"}]},{"lat":"37.596146545","long":"127.22366417","items":[{"name":"쑥쑥이네","tel":"","addr":"경기도 남양주시 와부읍 덕소리 29-1번지","category":"농업 - 비료,사료,종자"}]},{"lat":"37.590562022","long":"127.21795247","items":[{"name":"씨유덕소사랑점","tel":"031-521-8910","addr":"경기도 남양주시 와부읍 덕소리 208-1번지 (외 1필지 코너)","category":"유통업 영리 - 편 의 점"}]},{"lat":"37.585844331","long":"127.21605949","items":[{"name":"씨유덕소주공1단지점","tel":"080-080-3663","addr":"경기도 남양주시 와부읍 덕소리 110-5번지 주공아파트 1층 102호","category":"유통업 영리 - 편 의 점"},{"name":"한우마을 정육점","tel":"031-576-1999","addr":"경기도 남양주시 와부읍 덕소리 110-5번지 덕소주공1단지 상가 103호","category":"음료식품 - 정육점"}]},{"lat":"37.599399236","long":"127.21870263","items":[{"name":"씨코","tel":"031-521-2444","addr":"경기도 남양주시 와부읍 덕소리 329-4","category":"자동차정비 유지 - 자동차정비"}]},{"lat":"37.588456296","long":"127.21150411","items":[{"name":"아가랑어린이집[아이행복]","tel":"031-576-7758","addr":"경기도 남양주시 와부읍 덕소리 455-5번지","category":"학원 - 유아원"}]},{"lat":"37.589732734","long":"127.21816521","items":[{"name":"아름다운선택","tel":"031-577-2258","addr":"경기도 남양주시 와부읍 덕소리 168-4번지","category":"보건위생 - 미용원"}]},{"lat":"37.589438117","long":"127.22159502","items":[{"name":"아멜리아","tel":"070-8253-4980","addr":"경기도 남양주시 와부읍 덕소리 613번지 동부센트레빌 112동 901호","category":"회원제형태 - 기타4"}]},{"lat":"37.587420584","long":"127.21631307","items":[{"name":"아보(abo)","tel":"","addr":"경기도 남양주시 와부읍 덕소리 141-75번지","category":"일반휴게음식 - 서양음식"}]},{"lat":"37.588645756","long":"127.20619454","items":[{"name":"아세아카인테리어","tel":"031-577-5073","addr":"경기도 남양주시 와부읍 덕소리 601-7번지","category":"자동차정비 유지 - 자동차정비"}]},{"lat":"37.587760552","long":"127.21763872","items":[{"name":"아이언마스터","tel":"031-577-7740","addr":"경기도 남양주시 와부읍 덕소리 142-3번지 3층","category":"자동차판매 - 이륜차판매"},{"name":"와이비엠잉글루덕소제2영어학원","tel":"031-521-2963","addr":"경기도 남양주시 와부읍 덕소리 142-3번지 2층","category":"학원 - 보습학원"},{"name":"큰맘할매순대국","tel":"031-577-2333","addr":"경기도 남양주시 와부읍 덕소리 142-3번지 1층","category":"일반휴게음식 - 일반한식"},{"name":"파리바게뜨덕소현대점","tel":"031-577-8245","addr":"경기도 남양주시 와부읍 덕소리 142-3번지 외1필지","category":"음료식품 - 제과점"}]},{"lat":"37.586371791","long":"127.21333243","items":[{"name":"안암만두 앤 칼국수","tel":"031-577-0495","addr":"경기도 남양주시 와부읍 덕소리 476-2번지","category":"일반휴게음식 - 일반한식"},{"name":"외갓집","tel":"031-521-0608","addr":"경기도 남양주시 와부읍 덕소리 476-2번지","category":"일반휴게음식 - 일반한식"}]},{"lat":"37.584700892","long":"127.21055394","items":[{"name":"알벤토","tel":"031-521-7323","addr":"경기도 남양주시 와부읍 덕소리 600-77번지 1층","category":"음료식품 - 제과점"}]},{"lat":"37.585059945","long":"127.21131349","items":[{"name":"알캠몰(ALCAMMALL)","tel":"031-521-2808","addr":"경기도 남양주시 와부읍 덕소리 512-5번지","category":"레져용품 - 스포츠·레져용품"}]},{"lat":"37.584340303","long":"127.21066615","items":[{"name":"앗싸노래연습장","tel":"031-577-2201","addr":"경기도 남양주시 와부읍 덕소리 518-7번지","category":"레저업소 - 노 래 방"},{"name":"족발야시장 남양주덕소점","tel":"031-577-4969","addr":"경기도 남양주시 와부읍 덕소리 518-7번지","category":"일반휴게음식 - 일반한식"}]},{"lat":"37.587865982","long":"127.21911089","items":[{"name":"앙꿈","tel":"","addr":"경기도 남양주시 와부읍 덕소리 612번지 덕소아이파크 103동 12층 01호","category":"문화.취미 - 문화취미기타"},{"name":"주니데코","tel":"031-000-0000","addr":"경기도 남양주시 와부읍 덕소리 612번지 덕소아이파크 103동 1201호","category":"문화.취미 - 민예·공예품"}]},{"lat":"37.58739521","long":"127.21539591","items":[{"name":"양기네 불타는 연탄구이","tel":"031-577-1089","addr":"경기도 남양주시 와부읍 덕소리 490-1번지 평원빌딩","category":"일반휴게음식 - 일반한식"}]},{"lat":"37.591063555","long":"127.21463641","items":[{"name":"어택 카워시","tel":"","addr":"경기도 남양주시 와부읍 덕소리 412-25번지 성운빌라 201호","category":"자동차정비 유지 - 세차장"}]},{"lat":"37.585549414","long":"127.21472268","items":[{"name":"엄지","tel":"","addr":"경기도 남양주시 와부읍 덕소리 111-1번지 덕소주공2단지 206동 15층 2호","category":"의류 - 정장"}]},{"lat":"37.583063005","long":"127.20947386","items":[{"name":"에리어","tel":"031-577-1934","addr":"경기도 남양주시 와부읍 덕소리 558-6번지","category":"일반휴게음식 - 일반한식"}]},{"lat":"37.586255905","long":"127.20750137","items":[{"name":"에스엔씨홀딩스(주)","tel":"031-577-0590","addr":"경기도 남양주시 와부읍 덕소리 600-3 덕소강변삼익상가 -302","category":"주방용구 - 주방용구"}]},{"lat":"37.586422912","long":"127.21497424","items":[{"name":"에이비씨영어학원","tel":"031-514-0715","addr":"경기도 남양주시 와부읍 덕소리 497-8번지 우성빌딩 2층","category":"회원제형태 - 학원"}]},{"lat":"37.600148118","long":"127.21811595","items":[{"name":"에이스어닝시스템","tel":"070-4209-4433","addr":"경기도 남양주시 와부읍 덕소리 312-9번지 외3필지","category":"건축자재 - 기타건축자재"}]},{"lat":"37.58692831","long":"127.21450015","items":[{"name":"에이스코리아","tel":"031-511-4607","addr":"경기도 남양주시 와부읍 덕소리 488-4번지","category":"레져용품 - 스포츠·레져용품"}]},{"lat":"37.585278013","long":"127.2102725","items":[{"name":"에이투 세라믹","tel":"031-521-3593","addr":"경기도 남양주시 와부읍 덕소리 600-14번지 세양청마루 102동 606호","category":"건축자재 - 건축용 요업제품"}]},{"lat":"37.586399814","long":"127.21778199","items":[{"name":"에코 베이비 어린이집[아이행복]","tel":"031-576-7946","addr":"경기도 남양주시 와부읍 덕소리 110-1번지 덕소주공1단지 107동 101호","category":"학원 - 유아원"}]},{"lat":"37.587314492","long":"127.21011964","items":[{"name":"에코노래연습장","tel":"031-510-3370","addr":"경기도 남양주시 와부읍 덕소리 462-15번지","category":"레저업소 - 노 래 방"}]},{"lat":"37.587616807","long":"127.2223143","items":[{"name":"에코맘어린이집[아이행복]","tel":"031-521-5326","addr":"경기도 남양주시 와부읍 덕소리 612번지 덕소아이파크 117동 101호","category":"학원 - 유아원"}]},{"lat":"37.584955151","long":"127.20942248","items":[{"name":"엘리유","tel":"070-8552-6699","addr":"경기도 남양주시 와부읍 덕소리 567-2번지 덕소미리드블랑 503호","category":"보건위생 - 화장품"}]},{"lat":"37.59917577","long":"127.21772814","items":[{"name":"엘림Corp","tel":"031-557-5253","addr":"경기도 남양주시 와부읍 덕소리 327번지 외1필지","category":"신변잡화 - 기타잡화"}]},{"lat":"37.587392551","long":"127.21686776","items":[{"name":"엠에스(MS)아카데미수학교습소","tel":"","addr":"경기도 남양주시 와부읍 덕소리 141-15번지 3층 일부","category":"학원 - 보습학원"},{"name":"한우리독서토론논술덕소논술교습소","tel":"031-576-3909","addr":"경기도 남양주시 와부읍 덕소리 141-15번지 외2필지 2층","category":"회원제형태 - 학원"}]},{"lat":"37.588365618","long":"127.2118322","items":[{"name":"영광수퍼","tel":"031-521-0799","addr":"경기도 남양주시 와부읍 덕소리 454-5","category":"유통업 영리 - 슈퍼마켓"}]},{"lat":"37.586367345","long":"127.2158119","items":[{"name":"영신애플트리어학원","tel":"031-576-4680","addr":"경기도 남양주시 와부읍 덕소리 110-4번지 영신유치원 401호","category":"학원 - 외국어학원"},{"name":"영신어린이집[아이행복]","tel":"031-576-4575","addr":"경기도 남양주시 와부읍 덕소리 110-4번지","category":"학원 - 유아원"}]},{"lat":"37.587367657","long":"127.20544381","items":[{"name":"영진건축사사무소","tel":"031-527-2791","addr":"경기도 남양주시 와부읍 덕소리 600-46","category":"용역 서비스 - 사무서비스"}]},{"lat":"37.592087731","long":"127.22119515","items":[{"name":"예봉초등학교병설유치원[아이행복]","tel":"031-521-6307","addr":"경기도 남양주시 와부읍 덕소리 252번지 예봉초등학교","category":"학원 - 유치원"}]},{"lat":"37.590283132","long":"127.21772522","items":[{"name":"오가네두부마을","tel":"031-576-5500","addr":"경기도 남양주시 와부읍 덕소리 208-5번지","category":"일반휴게음식 - 일반한식"}]},{"lat":"37.588119414","long":"127.21847758","items":[{"name":"오땡큐천연염색","tel":"031-576-4970","addr":"경기도 남양주시 와부읍 덕소리 145-16번지 2층,3층","category":"보건위생 - 미용원"},{"name":"핸드폰가게 덕소","tel":"031-577-4010","addr":"경기도 남양주시 와부읍 덕소리 145-16번지","category":"사무통신 - 통신기기"}]},{"lat":"37.5898873","long":"127.21237993","items":[{"name":"오로라","tel":"","addr":"경기도 남양주시 와부읍 덕소리 산15-11번지 세종타운 B동 302호","category":"의류 - 내의판매"}]},{"lat":"37.58845205","long":"127.21389307","items":[{"name":"오성공조","tel":"","addr":"경기도 남양주시 와부읍 덕소리 432-14번지","category":"용역 서비스 - 기타용역서비스"}]},{"lat":"37.587087326","long":"127.2162555","items":[{"name":"오영이","tel":"031-515-5005","addr":"경기도 남양주시 와부읍 덕소리 141-40번지","category":"일반휴게음식 - 일반한식"}]},{"lat":"37.594562209","long":"127.22292349","items":[{"name":"와부고등학교매점","tel":"031-579-6620","addr":"경기도 남양주시 와부읍 덕소리 33번지 와부고등학교 내 매점","category":"음료식품 - 기타음료식품"}]},{"lat":"37.585562362","long":"127.21753051","items":[{"name":"와부도서관매점","tel":"031-521-5320","addr":"경기도 남양주시 와부읍 덕소리 117-18번지","category":"음료식품 - 기타음료식품"}]},{"lat":"37.588478911","long":"127.223834","items":[{"name":"와부수산장어","tel":"031-577-0592","addr":"경기도 남양주시 와부읍 덕소리 95-2번지 1층","category":"일반휴게음식 - 일반한식"}]},{"lat":"37.586841044","long":"127.21291484","items":[{"name":"와부인테리어","tel":"031-577-1104","addr":"경기도 남양주시 와부읍 덕소리 480-20","category":"건축자재 - 인테리어전문"}]},{"lat":"37.586451993","long":"127.21881243","items":[{"name":"와부초병설유치원[아이행복]","tel":"031-576-4215","addr":"경기도 남양주시 와부읍 덕소리 75-5번지 와부초등학교","category":"학원 - 유치원"}]},{"lat":"37.593507396","long":"127.22328272","items":[{"name":"와이비컴퍼니","tel":"031-577-0108","addr":"경기도 남양주시 와부읍 덕소리 38-7번지 1층","category":"신변잡화 - 기타잡화"}]},{"lat":"37.588956656","long":"127.21386053","items":[{"name":"우드스페이스(Wouldspace Instant)","tel":"","addr":"경기도 남양주시 와부읍 덕소리 434-21번지 1층","category":"의류 - 정장"}]},{"lat":"37.585006246","long":"127.21110955","items":[{"name":"우진한방족발순대국","tel":"031-576-0082","addr":"경기도 남양주시 와부읍 덕소리 512-6번지","category":"일반휴게음식 - 일반한식"},{"name":"춘부집","tel":"031-521-1639","addr":"경기도 남양주시 와부읍 덕소리 512-6번지","category":"일반휴게음식 - 일반한식"}]},{"lat":"37.586561822","long":"127.21286877","items":[{"name":"웰빙생선구이","tel":"031-521-8532","addr":"경기도 남양주시 와부읍 덕소리 480-8 1층","category":"일반휴게음식 - 일반한식"},{"name":"청희네개성칡냉면","tel":"031-521-0025","addr":"경기도 남양주시 와부읍 덕소리 480-8번지","category":"일반휴게음식 - 일반한식"},{"name":"태성문고","tel":"031-577-9608","addr":"경기도 남양주시 와부읍 덕소리 480-8번지","category":"서적문구 - 일반서적"}]},{"lat":"37.588897299","long":"127.21680414","items":[{"name":"유경노래방","tel":"031-577-2571","addr":"경기도 남양주시 와부읍 덕소리 193-6번지 유경빌딩 2층","category":"레저업소 - 노 래 방"},{"name":"초원식당","tel":"031-521-8826","addr":"경기도 남양주시 와부읍 덕소리 193-6번지 1층","category":"일반휴게음식 - 일반한식"}]},{"lat":"37.584780423","long":"127.21143724","items":[{"name":"은하미용실","tel":"031-577-0706","addr":"경기도 남양주시 와부읍 덕소리 539-1번지 가동 지하 2호","category":"보건위생 - 미용원"}]},{"lat":"37.589934113","long":"127.22134738","items":[{"name":"이노지스원","tel":"031-553-0893","addr":"경기도 남양주시 와부읍 덕소리 613번지 남양주덕소동부센트레빌 114동 905호","category":"회원제형태 - 기타4"}]},{"lat":"37.586310435","long":"127.2123699","items":[{"name":"이디야","tel":"031-521-8202","addr":"경기도 남양주시 와부읍 덕소리 474-20번지","category":"일반휴게음식 - 서양음식"},{"name":"착한 정육점","tel":"031-577-9987","addr":"경기도 남양주시 와부읍 덕소리 474-20번지 1층","category":"음료식품 - 정육점"}]},{"lat":"37.588777924","long":"127.2229291","items":[{"name":"이안이앤지","tel":"031-521-7560","addr":"경기도 남양주시 와부읍 덕소리 612번지 덕소아이파크 109동 605호","category":"용역 서비스 - 기타용역서비스"}]},{"lat":"37.589698406","long":"127.21722536","items":[{"name":"이안테크놀로지","tel":"070-8843-0722","addr":"경기도 남양주시 와부읍 덕소리 190-7번지 201호","category":"광학제품 - 카메라"}]},{"lat":"37.588760467","long":"127.21773217","items":[{"name":"인더짐스포츠","tel":"031-444-8131","addr":"경기도 남양주시 와부읍 덕소리 163-11번지 문해오름빌라 104동 201호","category":"학원 - 기타 교육기관"}]},{"lat":"37.590038026","long":"127.21375036","items":[{"name":"인재개발원","tel":"031-521-7858","addr":"경기도 남양주시 와부읍 덕소리 435-30번지 402호","category":"용역 서비스 - 사무서비스"},{"name":"플레이팩토(남양주지사)","tel":"031-515-8180","addr":"경기도 남양주시 와부읍 덕소리 435-30번지 1층","category":"회원제형태 - 학원"}]},{"lat":"37.586589395","long":"127.21256315","items":[{"name":"잉어(ing-a)","tel":"031-521-6862","addr":"경기도 남양주시 와부읍 덕소리 480-10 474-13","category":"의류 - 정장"}]},{"lat":"37.593400103","long":"127.22284081","items":[{"name":"잔고개소머리곰탕","tel":"031-577-8871","addr":"경기도 남양주시 와부읍 덕소리 38-5번지 1층","category":"일반휴게음식 - 일반한식"}]},{"lat":"37.588698264","long":"127.21725646","items":[{"name":"잠실감자탕","tel":"031-521-8677","addr":"경기도 남양주시 와부읍 덕소리 194-1번지","category":"일반휴게음식 - 일반한식"}]},{"lat":"37.589145354","long":"127.21414412","items":[{"name":"적십자약국","tel":"031-577-1495","addr":"경기도 남양주시 와부읍 덕소리 421-2번지","category":"약국 - 약국"},{"name":"플러스미디어(PLUS MEDIA)","tel":"031-577-7868","addr":"경기도 남양주시 와부읍 덕소리 421-2번지 1층","category":"신변잡화 - 기타잡화"}]},{"lat":"37.599229127","long":"127.2181133","items":[{"name":"제이제이","tel":"031-551-8958","addr":"경기도 남양주시 와부읍 덕소리 328-2번지","category":"의류 - 정장"}]},{"lat":"37.586399163","long":"127.21314004","items":[{"name":"제이제이호프","tel":"031-577-3806","addr":"경기도 남양주시 와부읍 덕소리 476-1번지 2층","category":"일반휴게음식 - 주점"}]},{"lat":"37.586316378","long":"127.21409084","items":[{"name":"제일공업사","tel":"031-576-5530","addr":"경기도 남양주시 와부읍 덕소리 478-9번지","category":"자동차정비 유지 - 자동차정비"},{"name":"제일공업사 내 손세차장","tel":"031-111-1111","addr":"경기도 남양주시 와부읍 덕소리 478-9번지","category":"자동차정비 유지 - 세차장"}]},{"lat":"37.58828816","long":"127.20977136","items":[{"name":"주공키즈톡톡어린이집[아이행복]","tel":"031-515-4515","addr":"경기도 남양주시 와부읍 덕소리 606-1번지 덕소주공3단지 308동 101호","category":"학원 - 유아원"}]},{"lat":"37.597727528","long":"127.21644441","items":[{"name":"주식회사 뉴딜알브이","tel":"031-1811-2878","addr":"경기도 남양주시 와부읍 덕소리 298-21번지","category":"자동차정비 유지 - 자동차부품"}]},{"lat":"37.588339209","long":"127.21148114","items":[{"name":"주식회사 청봄","tel":"031-523-2238","addr":"경기도 남양주시 와부읍 덕소리 455-6번지 학생선교센터","category":"학원 - 기타 교육기관"}]},{"lat":"37.590759047","long":"127.21361652","items":[{"name":"주은청과","tel":"","addr":"경기도 남양주시 와부읍 덕소리 416번지","category":"음료식품 - 농·축·수산품"}]},{"lat":"37.588344338","long":"127.21366632","items":[{"name":"중국성","tel":"031-576-2045","addr":"경기도 남양주시 와부읍 덕소리 432-20번지","category":"일반휴게음식 - 중국식"}]},{"lat":"37.587701745","long":"127.21528356","items":[{"name":"쥬헤어","tel":"031-000-0000","addr":"경기도 남양주시 와부읍 덕소리 490-4번지 2층","category":"보건위생 - 미용원"}]},{"lat":"37.588566137","long":"127.22536275","items":[{"name":"진성제과기계","tel":"02-926-4848","addr":"경기도 남양주시 와부읍 덕소리 97-14번지 (나)","category":"주방용구 - 기타주방용구"}]},{"lat":"37.586590048","long":"127.21721644","items":[{"name":"창업","tel":"031-576-1071","addr":"경기도 남양주시 와부읍 덕소리 110-1번지 덕소주공1단지 102동 809호","category":"자동차정비 유지 - 자동차정비"}]},{"lat":"37.58814311","long":"127.21028045","items":[{"name":"채원뷰티헤어","tel":"031-521-2112","addr":"경기도 남양주시 와부읍 덕소리 606-14번지 B상가동 101호","category":"보건위생 - 미용원"}]},{"lat":"37.59115722","long":"127.21764847","items":[{"name":"척척C.D","tel":"070-4742-3338","addr":"경기도 남양주시 와부읍 덕소리 210-3번지 금성빌라 5동 102호","category":"보건위생 - 의료용품"}]},{"lat":"37.587435892","long":"127.21780761","items":[{"name":"천관상사","tel":"02-1111-1111","addr":"경기도 남양주시 와부읍 덕소리 110-1번지 덕소주공1단지 104동 1406호","category":"유통업 영리 - 기타유통업"}]},{"lat":"37.587509328","long":"127.21706057","items":[{"name":"철수네 일품고기","tel":"031-512-8587","addr":"경기도 남양주시 와부읍 덕소리 141-54번지","category":"일반휴게음식 - 일반한식"}]},{"lat":"37.585969464","long":"127.21661461","items":[{"name":"최지선영어","tel":"031-576-0582","addr":"경기도 남양주시 와부읍 덕소리 110-1번지 덕소주공1단지 109동 102호","category":"학원 - 기타 교육기관"}]},{"lat":"37.584231008","long":"127.21133382","items":[{"name":"춘향골남원추어탕","tel":"031-577-8866","addr":"경기도 남양주시 와부읍 덕소리 538-3번지","category":"일반휴게음식 - 일반한식"}]},{"lat":"37.585812136","long":"127.21391958","items":[{"name":"친구네어린이집[아이행복]","tel":"031-576-0883","addr":"경기도 남양주시 와부읍 덕소리 111-1번지 덕소주공2단지 201동 105호","category":"학원 - 유아원"}]},{"lat":"37.586428605","long":"127.2117815","items":[{"name":"카앤톡","tel":"031-111-1111","addr":"경기도 남양주시 와부읍 덕소리 466-3번지","category":"자동차정비 유지 - 세차장"}]},{"lat":"37.588587156","long":"127.2139161","items":[{"name":"커피가게","tel":"070-7576-4178","addr":"경기도 남양주시 와부읍 덕소리 432-1번지 101호","category":"일반휴게음식 - 서양음식"}]},{"lat":"37.583228017","long":"127.21297262","items":[{"name":"커피십오일","tel":"031-577-1922","addr":"경기도 남양주시 와부읍 덕소리 541-16번지 대영주택 101호","category":"일반휴게음식 - 스넥"}]},{"lat":"37.589670503","long":"127.21269634","items":[{"name":"커필로그(Coffeelogue)","tel":"070-7514-8208","addr":"경기도 남양주시 와부읍 덕소리 453-24번지 백합맨션 401호","category":"음료식품 - 기타음료식품"}]},{"lat":"37.588575736","long":"127.21019107","items":[{"name":"컴프리스","tel":"031-559-6926","addr":"경기도 남양주시 와부읍 덕소리 606-1번지 덕소주공3단지 307동 1002호","category":"회원제형태 - 기타3"}]},{"lat":"37.58650885","long":"127.21225724","items":[{"name":"케이에스텔레콤2호점","tel":"","addr":"경기도 남양주시 와부읍 덕소리 474-10번지","category":"사무통신 - 통신기기"}]},{"lat":"37.587842545","long":"127.21714078","items":[{"name":"케익인걸","tel":"070-8281-8694","addr":"경기도 남양주시 와부읍 덕소리 141-36번지","category":"음료식품 - 제과점"}]},{"lat":"37.591374872","long":"127.22178185","items":[{"name":"코람데오","tel":"031-794-1230","addr":"경기도 남양주시 와부읍 덕소리 613번지 남양주덕소동부센트레빌 107동 304호","category":"신변잡화 - 신발"}]},{"lat":"37.587922315","long":"127.21786562","items":[{"name":"코리아축산(덕소점)","tel":"031-576-7788","addr":"경기도 남양주시 와부읍 덕소리 142번지","category":"음료식품 - 정육점"}]},{"lat":"37.589977358","long":"127.21741864","items":[{"name":"코리엔탈깻잎칩킨덕소점","tel":"031-576-6589","addr":"경기도 남양주시 와부읍 덕소리 189-8번지","category":"일반휴게음식 - 일반한식"},{"name":"횡성축산","tel":"031-556-2266","addr":"경기도 남양주시 와부읍 덕소리 189-8번지","category":"음료식품 - 정육점"}]},{"lat":"37.587976512","long":"127.21278217","items":[{"name":"크린토피아덕소경남점","tel":"031-577-7995","addr":"경기도 남양주시 와부읍 덕소리 461-14번지 1층","category":"수리서비스 - 세탁소"}]},{"lat":"37.584920961","long":"127.21347553","items":[{"name":"큰꿈어린이집[아이행복]","tel":"031-521-7764","addr":"경기도 남양주시 와부읍 덕소리 111-1번지 덕소주공2단지 209동 103호","category":"학원 - 유아원"}]},{"lat":"37.594811131","long":"127.21986698","items":[{"name":"클래식 귀뚜라미 농장","tel":"","addr":"경기도 남양주시 와부읍 덕소리 258번지","category":"음료식품 - 농·축·수산품"},{"name":"하나농장","tel":"031-554-6223","addr":"경기도 남양주시 와부읍 덕소리 258","category":"음료식품 - 농·축·수산품"}]},{"lat":"37.586843293","long":"127.21164679","items":[{"name":"클레오","tel":"031-521-6771","addr":"경기도 남양주시 와부읍 덕소리 463-13번지","category":"가구 - 일반가구"}]},{"lat":"37.586701215","long":"127.2155298","items":[{"name":"탐라흑돈","tel":"031-521-8892","addr":"경기도 남양주시 와부읍 덕소리 494-3번지","category":"일반휴게음식 - 일반한식"}]},{"lat":"37.587699886","long":"127.21631386","items":[{"name":"태광종합인쇄","tel":"031-577-3919","addr":"경기도 남양주시 와부읍 덕소리 490-31번지","category":"서적문구 - 출판 및 인쇄물"}]},{"lat":"37.586642729","long":"127.21297089","items":[{"name":"폰마트","tel":"031-521-5870","addr":"경기도 남양주시 와부읍 덕소리 480-23번지 1층","category":"사무통신 - 통신기기"}]},{"lat":"37.586783057","long":"127.21511112","items":[{"name":"피자나라 치킨공주","tel":"031-577-9282","addr":"경기도 남양주시 와부읍 덕소리 491-14번지 양지빌라 102호","category":"일반휴게음식 - 일반한식"}]},{"lat":"37.58700957","long":"127.20931494","items":[{"name":"피자스쿨","tel":"031-576-1377","addr":"경기도 남양주시 와부읍 덕소리 590-16번지","category":"일반휴게음식 - 서양음식"}]},{"lat":"37.590292696","long":"127.22232215","items":[{"name":"핑크앤드림","tel":"031-513-7878","addr":"경기도 남양주시 와부읍 덕소리 613번지 남양주덕소동부센트레빌 109동 1101호","category":"회원제형태 - 기타1"}]},{"lat":"37.586956474","long":"127.21386621","items":[{"name":"하늘곱창","tel":"031-577-7005","addr":"경기도 남양주시 와부읍 덕소리 479-5번지","category":"일반휴게음식 - 일반한식"}]},{"lat":"37.584091046","long":"127.20894459","items":[{"name":"하태","tel":"","addr":"경기도 남양주시 와부읍 덕소리 560-1번지 (주)유진건업 205호","category":"레저업소 - 헬스클럽"}]},{"lat":"37.589960121","long":"127.2119612","items":[{"name":"한국벌침연구교육중앙회","tel":"031-553-8116","addr":"경기도 남양주시 와부읍 덕소리 산15-8번지 세종타운 8동 401호","category":"건강식품 - 기타건강식품"}]},{"lat":"37.583065438","long":"127.21319859","items":[{"name":"한국인삼공사정관장홍삼덕소점","tel":"031-521-2304","addr":"경기도 남양주시 와부읍 덕소리 541-18번지 대영주택 1층-102","category":"건강식품 - 홍삼제품"},{"name":"한국인삼공사정관장홍삼덕소점","tel":"031-521-2304","addr":"경기도 남양주시 와부읍 덕소리 541-18","category":"건강식품 - 홍삼제품"}]},{"lat":"37.590092917","long":"127.21827947","items":[{"name":"한국지엠덕소바로서비스","tel":"031-577-5800","addr":"경기도 남양주시 와부읍 덕소리 169-3번지","category":"자동차정비 유지 - 자동차정비"}]},{"lat":"37.598255313","long":"127.21852947","items":[{"name":"한보테크","tel":"02-464-2540","addr":"경기도 남양주시 와부읍 덕소리 284번지 1츠 일부","category":"수리서비스 - 기타수리서비스"}]},{"lat":"37.586956636","long":"127.21377563","items":[{"name":"한양타일도기상사","tel":"031-521-5902","addr":"경기도 남양주시 와부읍 덕소리 479-25","category":"건축자재 - 건축용 요업제품"}]},{"lat":"37.589676888","long":"127.21416826","items":[{"name":"한일정수기","tel":"","addr":"경기도 남양주시 와부읍 덕소리 420번지 2층","category":"주방용구 - 정수기"}]},{"lat":"37.584313552","long":"127.21050758","items":[{"name":"해민수산","tel":"031-576-4429","addr":"경기도 남양주시 와부읍 덕소리 518-9번지","category":"일반휴게음식 - 일반한식"}]},{"lat":"37.586923017","long":"127.21241691","items":[{"name":"해변마을","tel":"031-567-8884","addr":"경기도 남양주시 와부읍 덕소리 481-4번지 1층","category":"일반휴게음식 - 일반한식"}]},{"lat":"37.586534249","long":"127.21317438","items":[{"name":"햅번헤어","tel":"031-521-3854","addr":"경기도 남양주시 와부읍 덕소리 480-6","category":"보건위생 - 미용원"}]},{"lat":"37.586000246","long":"127.21453149","items":[{"name":"행복어린이집[아이행복]","tel":"031-521-3816","addr":"경기도 남양주시 와부읍 덕소리 111-1번지 덕소주공2단지 202동 103호","category":"학원 - 유아원"}]},{"lat":"37.587428795","long":"127.21675465","items":[{"name":"행복한분식","tel":"031-521-5967","addr":"경기도 남양주시 와부읍 덕소리 141-14번지","category":"일반휴게음식 - 스넥"}]},{"lat":"37.595894456","long":"127.21869251","items":[{"name":"행사나라","tel":"070-7740-2225","addr":"경기도 남양주시 와부읍 덕소리 270","category":"레져용품 - 스포츠·레져용품"}]},{"lat":"37.5868149","long":"127.2124166","items":[{"name":"헤어아베끄","tel":"031-521-0108","addr":"경기도 남양주시 와부읍 덕소리 480-17번지 1층 2호","category":"보건위생 - 미용원"},{"name":"황제타이","tel":"031-512-2424","addr":"경기도 남양주시 와부읍 덕소리 480-17번지 2층","category":"보건위생 - 화장품"}]},{"lat":"37.590483709","long":"127.21642371","items":[{"name":"헬로앙쥬(Hello Ange)","tel":"000-000-0000","addr":"경기도 남양주시 와부읍 덕소리 204-13번지","category":"의류 - 정장"}]},{"lat":"37.599311393","long":"127.21245164","items":[{"name":"현철농장","tel":"031-577-4690","addr":"경기도 남양주시 와부읍 덕소리 산9번지","category":"음료식품 - 농·축·수산품"}]},{"lat":"37.5875115","long":"127.21586045","items":[{"name":"훈오토바이","tel":"031-576-5282","addr":"경기도 남양주시 와부읍 덕소리 490-24","category":"자동차판매 - 이륜차판매"}]}]