[{"lat":"37.402588847","long":"127.5463654","items":[{"name":"(이포) E4 커피하우스","tel":"031-882-5397","addr":"경기도 여주시 대신면 천서리 603-3번지 1,2층","category":"일반휴게음식 - 서양음식"}]},{"lat":"37.403116105","long":"127.54730662","items":[{"name":"E4커피전문점","tel":"031-882-5397","addr":"경기도 여주시 대신면 천서리 603-3번지","category":"일반휴게음식 - 서양음식"}]},{"lat":"37.404865713","long":"127.54498135","items":[{"name":"GS25여주천서리점","tel":"","addr":"경기도 여주시 대신면 천서리 644-2번지 1층","category":"유통업 영리 - 편 의 점"}]},{"lat":"37.402037699","long":"127.54670024","items":[{"name":"강촌아구전문","tel":"031-881-0010","addr":"경기도 여주시 대신면 천서리 595-7번지","category":"일반휴게음식 - 일반한식"}]},{"lat":"37.402816601","long":"127.5477788","items":[{"name":"나들이가게","tel":"031-883-9852","addr":"경기도 여주시 대신면 천서리 609-8번지","category":"음료식품 - 농·축·수산품"}]},{"lat":"37.402483532","long":"127.54575476","items":[{"name":"남한민물생선","tel":"031-885-1479","addr":"경기도 여주시 대신면 천서리 597-7번지","category":"음료식품 - 농·축·수산품"},{"name":"대신가든","tel":"","addr":"경기도 여주시 대신면 천서리 597-7번지","category":"일반휴게음식 - 일반한식"}]},{"lat":"37.402254908","long":"127.55233749","items":[{"name":"녹지촌","tel":"031-883-9007","addr":"경기도 여주시 대신면 천서리 448번지","category":"일반휴게음식 - 일반한식"}]},{"lat":"37.393178649","long":"127.55302785","items":[{"name":"농업호사법인(주)부림농산","tel":"02-336-2666","addr":"경기도 여주시 대신면 천서리 523-1번지","category":"음료식품 - 농·축·수산품"}]},{"lat":"37.403818805","long":"127.54927689","items":[{"name":"대가집","tel":"031-886-8823","addr":"경기도 여주시 대신면 천서리 412-1번지","category":"일반휴게음식 - 일반한식"}]},{"lat":"37.407063025","long":"127.54325779","items":[{"name":"대신석재","tel":"031-882-0531","addr":"경기도 여주시 대신면 천서리 672번지","category":"기타 - 기타 전문점"}]},{"lat":"37.403869483","long":"127.54805749","items":[{"name":"동산잡화","tel":"031-884-6860","addr":"경기도 여주시 대신면 천서리 614-8번지","category":"신변잡화 - 기타잡화"}]},{"lat":"37.403871409","long":"127.54763961","items":[{"name":"명가","tel":"031-884-9608","addr":"경기도 여주시 대신면 천서리 615번지","category":"일반휴게음식 - 일반한식"}]},{"lat":"37.402984817","long":"127.54842378","items":[{"name":"봉춘막국수","tel":"031-884-9852","addr":"경기도 여주시 대신면 천서리 609-6번지","category":"일반휴게음식 - 일반한식"}]},{"lat":"37.403700113","long":"127.54961486","items":[{"name":"봉황막국수","tel":"031-882-3369","addr":"경기도 여주시 대신면 천서리 413-1번지","category":"일반휴게음식 - 일반한식"}]},{"lat":"37.40342287","long":"127.5452533","items":[{"name":"씨유천서리점","tel":"031-881-1318","addr":"경기도 여주시 대신면 천서리 620-1번지","category":"유통업 영리 - 편 의 점"},{"name":"이포보 자전거","tel":"","addr":"경기도 여주시 대신면 천서리 620-1번지 1층 103호","category":"레져용품 - 스포츠·레져용품"}]},{"lat":"37.403367076","long":"127.54759079","items":[{"name":"여양커피","tel":"031-883-1500","addr":"경기도 여주시 대신면 천서리 614-6번지 1층","category":"일반휴게음식 - 서양음식"}]},{"lat":"37.402566983","long":"127.547201","items":[{"name":"올드타임갤러리카페","tel":"031-1111-1111","addr":"경기도 여주시 대신면 천서리 605-2번지 1층","category":"일반휴게음식 - 서양음식"}]},{"lat":"37.403173489","long":"127.54658421","items":[{"name":"이포 순두부 막국수","tel":"031-885-0144","addr":"경기도 여주시 대신면 천서리 617-17번지","category":"일반휴게음식 - 일반한식"}]},{"lat":"37.402727312","long":"127.54564358","items":[{"name":"이포약국","tel":"070-4191-4122","addr":"경기도 여주시 대신면 천서리 602-6번지","category":"약국 - 약국"}]},{"lat":"37.402257408","long":"127.54594513","items":[{"name":"이포장어추어탕","tel":"031-886-2930","addr":"경기도 여주시 대신면 천서리 597-5번지","category":"일반휴게음식 - 일반한식"}]},{"lat":"37.40461667","long":"127.5540263","items":[{"name":"정든집","tel":"031-886-6533","addr":"경기도 여주시 대신면 천서리 401-1번지","category":"일반휴게음식 - 일반한식"}]},{"lat":"37.402560935","long":"127.5465572","items":[{"name":"천서리 제면소","tel":"031-883-9799","addr":"경기도 여주시 대신면 천서리 606-4번지","category":"음료식품 - 기타음료식품"}]},{"lat":"37.404011129","long":"127.54664673","items":[{"name":"천서리바지락칼국수","tel":"031-884-7558","addr":"경기도 여주시 대신면 천서리 624-6번지 외1필지","category":"일반휴게음식 - 일반한식"}]},{"lat":"37.408426645","long":"127.55814295","items":[{"name":"천서리손두부","tel":"031-882-8310","addr":"경기도 여주시 대신면 천서리 347-3번지","category":"일반휴게음식 - 일반한식"}]},{"lat":"37.404566625","long":"127.55122494","items":[{"name":"천서영양탕","tel":"031-884-1060","addr":"경기도 여주시 대신면 천서리 403-8번지","category":"일반휴게음식 - 일반한식"}]},{"lat":"37.402372095","long":"127.54647678","items":[{"name":"천서자동차부분정비공업사","tel":"031-882-3813","addr":"경기도 여주시 대신면 천서리 606-4번지","category":"자동차정비 유지 - 자동차정비"}]},{"lat":"37.404010668","long":"127.54870228","items":[{"name":"청정바다회센터","tel":"070-8837-2817","addr":"경기도 여주시 대신면 천서리 412-3번지","category":"일반휴게음식 - 일반한식"}]},{"lat":"37.404011815","long":"127.54845382","items":[{"name":"춘천본가닭갈비","tel":"031-884-1909","addr":"경기도 여주시 대신면 천서리 612번지","category":"일반휴게음식 - 일반한식"}]},{"lat":"37.404506361","long":"127.54475287","items":[{"name":"커피마마 이포보전망대점","tel":"031-881-2593","addr":"경기도 여주시 대신면 천서리 645-1번지 3층","category":"일반휴게음식 - 서양음식"}]},{"lat":"37.402537227","long":"127.54583421","items":[{"name":"통나무정육점","tel":"031-884-2060","addr":"경기도 여주시 대신면 천서리 597-7번지","category":"음료식품 - 정육점"}]},{"lat":"37.404124208","long":"127.55142502","items":[{"name":"파사장여관","tel":"031-883-5350","addr":"경기도 여주시 대신면 천서리 417-3번지","category":"숙박업 - 여관/기타숙박업"}]},{"lat":"37.401259954","long":"127.5492809","items":[{"name":"필우재카페&갤러리","tel":"031-7523-6492","addr":"경기도 여주시 대신면 천서리 436번지","category":"일반휴게음식 - 서양음식"}]},{"lat":"37.400033288","long":"127.54761183","items":[{"name":"한송갈비","tel":"031-881-3292","addr":"경기도 여주시 대신면 천서리 584번지","category":"일반휴게음식 - 일반한식"}]}]