[{"lat":"37.711958643","long":"126.6206932","imageIndex":17,"items":[{"name":"금포왕만두","tel":"","addr":"경기도 김포시 하성면 원산리 610-1번지 금포왕만두","indutype":"분식","category":"other"},{"name":"알투로지스","tel":"","addr":"경기도 김포시 하성면 원산리 610-1번지 105호 알투로지스","indutype":"기타","category":"other"}]},{"lat":"37.700482733","long":"126.6355837","imageIndex":17,"items":[{"name":"드림디포김포하성점","tel":"","addr":"경기도 김포시 하성면 원산리 485-6번지","indutype":"기타","category":"other"}]},{"lat":"37.711145074","long":"126.61985817","imageIndex":17,"items":[{"name":"삼성 신도리코 김포점","tel":"","addr":"경기도 김포시 하성면 원산리 648-5번지 김포복사기 임대.판매.AS 서비스지정점","indutype":"기타","category":"other"}]},{"lat":"37.709925287","long":"126.63575257","imageIndex":17,"items":[{"name":"준상사","tel":"","addr":"경기도 김포시 하성면 원산리 361-2번지","indutype":"기타","category":"other"}]},{"lat":"37.711231856","long":"126.62161554","imageIndex":17,"items":[{"name":"지에스에이치(G.S.H)Motors","tel":"","addr":"경기도 김포시 하성면 원산리 653-1번지 g.s.h모터스","indutype":"기타","category":"other"}]},{"lat":"37.700762025","long":"126.63558232","imageIndex":17,"items":[{"name":"천성카센타","tel":"","addr":"경기도 김포시 하성면 원산리 486-6번지 천성카센타","indutype":"기타","category":"other"}]},{"lat":"37.717452981","long":"126.61472193","imageIndex":17,"items":[{"name":"팔도 리싸이클링","tel":"031-984-7787","addr":"경기도 김포시 하성면 원산리 41-1번지 구) 원산리42-1","indutype":"기타","category":"other"}]},{"lat":"37.708870193","long":"126.63255978","imageIndex":17,"items":[{"name":"헬로카페","tel":"","addr":"경기도 김포시 하성면 원산리 378-8번지 1층","indutype":"카페/베이커리","category":"other"}]},{"lat":"37.711373032","long":"126.62069621","imageIndex":7,"items":[{"name":"금희슈퍼","tel":"","addr":"경기도 김포시 하성면 원산리 608번지 금희슈퍼","indutype":"슈퍼/마트","category":"mart"}]},{"lat":"37.708401667","long":"126.62969301","imageIndex":7,"items":[{"name":"왕도매마트","tel":"","addr":"경기도 김포시 하성면 원산리 386-2번지 1층","indutype":"슈퍼/마트","category":"mart"}]},{"lat":"37.722867544","long":"126.61741588","imageIndex":4,"items":[{"name":"아리랑농원","tel":"031-989-5259","addr":"경기도 김포시 하성면 원산리 17-2번지 아리랑농원","indutype":"일반음식점","category":"restaurant"}]},{"lat":"37.701484192","long":"126.63603233","imageIndex":4,"items":[{"name":"양평해장국","tel":"","addr":"경기도 김포시 하성면 원산리 484-2번지 양평해장국","indutype":"일반음식점","category":"restaurant"}]},{"lat":"37.714146347","long":"126.62019429","imageIndex":4,"items":[{"name":"열린식당","tel":"","addr":"경기도 김포시 하성면 원산리 622-3번지 금희슈퍼 도보5분거리","indutype":"일반음식점","category":"restaurant"}]},{"lat":"37.704125543","long":"126.6365296","imageIndex":4,"items":[{"name":"일미식당","tel":"","addr":"경기도 김포시 하성면 원산리 453-7번지 일미식당","indutype":"일반음식점","category":"restaurant"}]},{"lat":"37.718651119","long":"126.62019381","imageIndex":4,"items":[{"name":"참나무집","tel":"031-997-1532","addr":"경기도 김포시 하성면 원산리 122-13번지 하성교 2분거리","indutype":"일반음식점","category":"restaurant"}]},{"lat":"37.700482203","long":"126.63541361","imageIndex":4,"items":[{"name":"최가네손짜장","tel":"","addr":"경기도 김포시 하성면 원산리 486-4번지","indutype":"일반음식점","category":"restaurant"}]},{"lat":"37.709481244","long":"126.62636483","imageIndex":4,"items":[{"name":"충청도뷔페","tel":"031-988-0987","addr":"경기도 김포시 하성면 원산리 589-22번지 충청도 뷔페 식당","indutype":"일반음식점","category":"restaurant"}]}]