[{"lat":"37.567266933","long":"127.42881344","imageIndex":5,"items":[{"name":"거북바위야영장 유진산업","tel":"031-773-6495","addr":"경기도 양평군 서종면 서후리 234-1번지 1층","indutype":"숙박업 - 여관/기타숙박업","category":"hotel"}]},{"lat":"37.588787958","long":"127.41707044","imageIndex":5,"items":[{"name":"더해밀","tel":"031-636-0180","addr":"경기도 양평군 서종면 서후리 449번지","indutype":"숙박업 - 여관/기타숙박업","category":"hotel"}]},{"lat":"37.566071556","long":"127.41787277","imageIndex":5,"items":[{"name":"별하나나하나","tel":"031-773-6502","addr":"경기도 양평군 서종면 서후리 280-2번지","indutype":"숙박업 - 여관/기타숙박업","category":"hotel"}]},{"lat":"37.582430311","long":"127.42631858","imageIndex":5,"items":[{"name":"보헤미안펜션","tel":"031-772-9258","addr":"경기도 양평군 서종면 서후리 44-3번지","indutype":"숙박업 - 여관/기타숙박업","category":"hotel"}]},{"lat":"37.588427179","long":"127.41718166","imageIndex":5,"items":[{"name":"사랑","tel":"031-754-4708","addr":"경기도 양평군 서종면 서후리 449-6번지","indutype":"숙박업 - 여관/기타숙박업","category":"hotel"}]},{"lat":"37.582599027","long":"127.42196087","imageIndex":5,"items":[{"name":"산타펜션","tel":"031-771-5389","addr":"경기도 양평군 서종면 서후리 80-2번지","indutype":"숙박업 - 여관/기타숙박업","category":"hotel"}]},{"lat":"37.580681889","long":"127.40056492","imageIndex":5,"items":[{"name":"삼촌네 펜션","tel":"031-771-2412","addr":"경기도 양평군 서종면 서후리 557-2번지","indutype":"숙박업 - 여관/기타숙박업","category":"hotel"}]},{"lat":"37.58159449","long":"127.42067596","imageIndex":5,"items":[{"name":"새순펜션","tel":"031-772-9875","addr":"경기도 양평군 서종면 서후리 90-1번지","indutype":"숙박업 - 여관/기타숙박업","category":"hotel"}]},{"lat":"37.572404445","long":"127.42070386","imageIndex":5,"items":[{"name":"서후2리 새마을회","tel":"031-7777-7777","addr":"경기도 양평군 서종면 서후리 159-1번지","indutype":"숙박업 - 여관/기타숙박업","category":"hotel"}]},{"lat":"37.567071064","long":"127.41803678","imageIndex":5,"items":[{"name":"소나무향기펜션","tel":"031-773-5555","addr":"경기도 양평군 서종면 서후리 277-4번지","indutype":"숙박업 - 여관/기타숙박업","category":"hotel"}]},{"lat":"37.575239485","long":"127.42409309","imageIndex":5,"items":[{"name":"솔빛길","tel":"031-773-6495","addr":"경기도 양평군 서종면 서후리 140-3번지","indutype":"숙박업 - 여관/기타숙박업","category":"hotel"}]},{"lat":"37.566184239","long":"127.41657174","imageIndex":5,"items":[{"name":"천년초 한옥민박","tel":"031-774-6923","addr":"경기도 양평군 서종면 서후리 264-1번지","indutype":"숙박업 - 여관/기타숙박업","category":"hotel"}]},{"lat":"37.58251448","long":"127.42545865","imageIndex":5,"items":[{"name":"황토펜션온리유","tel":"031-774-2004","addr":"경기도 양평군 서종면 서후리 42","indutype":"숙박업 - 여관/기타숙박업","category":"hotel"}]},{"lat":"37.560094365","long":"127.40857034","imageIndex":5,"items":[{"name":"힐링캠프촌","tel":"031-772-6390","addr":"경기도 양평군 서종면 서후리 529-40","indutype":"숙박업 - 여관/기타숙박업","category":"hotel"}]}]