[{"lat":"37.315591447","long":"126.749497","items":[{"name":"(주) 도렌버그코리아","tel":"031-498-2018","addr":"경기도 안산시 단원구 성곡동 672-11번지 시화공단5라 312호","category":"건축자재 - 기타건축자재"}]},{"lat":"37.326118579","long":"126.76405014","items":[{"name":"(주) 아워홈 엘에스오토모티브안산2점","tel":"070-8230-6120","addr":"경기도 안산시 단원구 성곡동 646번지 1층","category":"일반휴게음식 - 위탁급식업"},{"name":"그린매점","tel":"031-487-2800","addr":"경기도 안산시 단원구 성곡동 646번지 LS오토모티브테크놀로지스(주)2공장 지하1층","category":"음료식품 - 기타음료식품"}]},{"lat":"37.316586249","long":"126.75549528","items":[{"name":"(주) 우리엠엔에스","tel":"031-508-6060","addr":"경기도 안산시 단원구 성곡동 636-3번지","category":"보건위생 - 화장품"},{"name":"(주)신세계푸드우리조명","tel":"02-3397-6176","addr":"경기도 안산시 단원구 성곡동 636-3번지","category":"일반휴게음식 - 위탁급식업"},{"name":"우리조명(주)","tel":"031-599-3184","addr":"경기도 안산시 단원구 성곡동 636-3번지","category":"건축자재 - 조명기구"}]},{"lat":"37.3140332","long":"126.73341573","items":[{"name":"(주) 유니콘","tel":"031-714-3727","addr":"경기도 안산시 단원구 성곡동 718-8","category":"건축자재 - 인테리어전문"},{"name":"씨에스테크","tel":"031-000-0000","addr":"경기도 안산시 단원구 성곡동 718-8번지 1층 왼쪽 1번째문","category":"전기제품 - 기타전기제품"},{"name":"주식회사 엔엠티","tel":"031-494-4954","addr":"경기도 안산시 단원구 성곡동 718-8번지 시화공단4바 307호","category":"건축자재 - 기타건축자재"}]},{"lat":"37.314694893","long":"126.73120231","items":[{"name":"(주) 이큐스앤자루","tel":"031-888-6725","addr":"경기도 안산시 단원구 성곡동 728-3 시화공단4바204호","category":"레져용품 - 스포츠·레져용품"}]},{"lat":"37.313447234","long":"126.73328246","items":[{"name":"(주)거산정밀","tel":"031-433-7163","addr":"경기도 안산시 단원구 성곡동 719-4 시화공단4바 315호","category":"기타 - 기계공구"}]},{"lat":"37.311114189","long":"126.74158189","items":[{"name":"(주)고려소재개발","tel":"031-319-8070","addr":"경기도 안산시 단원구 성곡동 676-13번지","category":"기타 - 기타 전문점"},{"name":"주식회사 한국툴스틸","tel":"031-498-2018","addr":"경기도 안산시 단원구 성곡동 676-13번지 (주)해남화학 시화공단5바 204호","category":"건축자재 - 기타건축자재"},{"name":"주식회사예스파워","tel":"031-497-9531","addr":"경기도 안산시 단원구 성곡동 676-13시화공단5바204호","category":"기타 - 기타 전문점"},{"name":"하이스트","tel":"031-431-8832","addr":"경기도 안산시 단원구 성곡동 676-13 시화산단5바204호","category":"자동차정비 유지 - 자동차부품"}]},{"lat":"37.316420807","long":"126.72944751","items":[{"name":"(주)광성레이져","tel":"031-498-0163","addr":"경기도 안산시 단원구 성곡동 727-4번지 시화공단4바 102-1호","category":"기타 - 기계공구"}]},{"lat":"37.313420465","long":"126.74971862","items":[{"name":"(주)국민조명","tel":"031-497-2973","addr":"경기도 안산시 단원구 성곡동 673-8번지 (5라408호)","category":"건축자재 - 조명기구"},{"name":"주식회사 인팩사이언스","tel":"070-4263-8111","addr":"경기도 안산시 단원구 성곡동 673-8번지 시화공단5라 408호","category":"기타 - 기계공구"}]},{"lat":"37.305310569","long":"126.74938486","items":[{"name":"(주)그린에너지","tel":"031-494-0154","addr":"경기도 안산시 단원구 성곡동 683-5번지","category":"기타 - 기타 전문점"}]},{"lat":"37.317030133","long":"126.73586436","items":[{"name":"(주)금강강업","tel":"031-499-4315","addr":"경기도 안산시 단원구 성곡동 703-9번지 시화공단 4마 321","category":"건축자재 - 기타건축자재"}]},{"lat":"37.327032741","long":"126.74047748","items":[{"name":"(주)금강콘테이너","tel":"031-497-7500","addr":"경기도 안산시 단원구 성곡동 659번지 시화공단4마 502-1호","category":"기타 - 기타 전문점"},{"name":"(주)아테코","tel":"031-433-0571","addr":"경기도 안산시 단원구 성곡동 659번지 시화공단4바 860호","category":"별도관리 - 자체물품대금"},{"name":"(주)아테코","tel":"031-433-0571","addr":"경기도 안산시 단원구 성곡동 659번지 시화공단4바 860호","category":"기타 - 기계공구"},{"name":"(주)컴베이스","tel":"02-715-2666","addr":"경기도 안산시 단원구 성곡동 659번지 시화공단4바 707호","category":"사무통신 - 컴퓨터"},{"name":"(주)한라콘테이너","tel":"031-432-4112","addr":"경기도 안산시 단원구 성곡동 659번지 시화공단4바 301호","category":"건축자재 - 건축용 요업제품"},{"name":"가나종합철강주식회사","tel":"031-498-2217","addr":"경기도 안산시 단원구 성곡동 659번지 시화공단4바 208호","category":"기타 - 기타 전문점"},{"name":"경일전자(주)","tel":"031-499-4767","addr":"경기도 안산시 단원구 성곡동 659번지 시화공단4바 866호","category":"전기제품 - 가전제품"},{"name":"대현엔지니어링","tel":"031-497-8616","addr":"경기도 안산시 단원구 성곡동 659번지 시화공단4바 408호","category":"기타 - 기타 전문점"},{"name":"선진디자인팩","tel":"031-432-8630","addr":"경기도 안산시 단원구 성곡동 659번지 시화공단4바 206호","category":"건축자재 - 기타건축자재"},{"name":"황해철강(주)","tel":"031-432-6525","addr":"경기도 안산시 단원구 성곡동 659번지 시화공단4바 101호","category":"건축자재 - 기타건축자재"}]},{"lat":"37.324833623","long":"126.76133513","items":[{"name":"(주)남양씨엔에스","tel":"031-434-1626","addr":"경기도 안산시 단원구 성곡동 645-5번지 타원타크라지식산업센터 가동 305호","category":"건축자재 - 보일러·펌프·샷시"},{"name":"(주)미성가스이엔지","tel":"031-318-0611","addr":"경기도 안산시 단원구 성곡동 645-5번지 타원타크라지식산업센타제가동304호","category":"용역 서비스 - 기타용역서비스"},{"name":"(주)앰앤앰즈","tel":"031-319-9574","addr":"경기도 안산시 단원구 성곡동 645-5번지 타원TAKRA 가동 205호","category":"전기제품 - 가전제품"},{"name":"(주)화진정보통신","tel":"031-414-7771","addr":"경기도 안산시 단원구 성곡동 645-5번지 타원타크라 가동 303호","category":"사무통신 - 통신기기"},{"name":"GS25안산타크라점","tel":"","addr":"경기도 안산시 단원구 성곡동 645-5번지 타원타크라 가동 110호","category":"유통업 영리 - 편 의 점"},{"name":"JM산업","tel":"031-494-4783","addr":"경기도 안산시 단원구 성곡동 645-5번지 타원타크라지식산업센터 가동 124호","category":"기타 - 기계공구"},{"name":"경기FA","tel":"031-495-6706","addr":"경기도 안산시 단원구 성곡동 645-5번지 가-121타원타크라지식산업센터","category":"기타 - 기계공구"},{"name":"공단제일치과","tel":"031-508-2875","addr":"경기도 안산시 단원구 성곡동 645-5번지 타원타크라지식산업센타 112호","category":"의원 - 치과의원"},{"name":"두진테크","tel":"","addr":"경기도 안산시 단원구 성곡동 645-5번지 타윈TAKRA 가동 319호","category":"용역 서비스 - 기타용역서비스"},{"name":"명사순대안산점","tel":"031-495-0510","addr":"경기도 안산시 단원구 성곡동 645-5번지 타원TAKRA 가동 106호","category":"일반휴게음식 - 일반한식"},{"name":"봄이든","tel":"031-494-0688","addr":"경기도 안산시 단원구 성곡동 645-5번지 타원타크라 108,109호","category":"일반휴게음식 - 일반한식"},{"name":"성곡점기아오토큐 주식회사","tel":"031-495-8885","addr":"경기도 안산시 단원구 성곡동 645-5번지 타원타크라지식산업센타 나동 129호","category":"자동차정비 유지 - 자동차정비"},{"name":"안산골프존파크","tel":"032-111-1111","addr":"경기도 안산시 단원구 성곡동 645-5번지 타원타크라지식산업센터 가동 6층 612,613,614호","category":"레져용품 - 골프용품 전문점"},{"name":"양푼이찌게전문","tel":"031-503-8018","addr":"경기도 안산시 단원구 성곡동 645-5번지 타원TAKRA 가동 104호","category":"일반휴게음식 - 일반한식"},{"name":"에치이(HE)테크","tel":"031-498-7130","addr":"경기도 안산시 단원구 성곡동 645-5번지 타원TAKRA 나동 138호","category":"전기제품 - 냉열기기"},{"name":"왕김밥","tel":"070-8818-8755","addr":"경기도 안산시 단원구 성곡동 645-5번지 타원TAKRA 가동 114호","category":"일반휴게음식 - 일반한식"},{"name":"웰빙한식부페","tel":"031-433-0190","addr":"경기도 안산시 단원구 성곡동 645-5번지 타원TAKRA 가동 207호","category":"일반휴게음식 - 일반한식"},{"name":"주식회사 신암테크놀러지","tel":"031-495-9633","addr":"경기도 안산시 단원구 성곡동 645-5번지 타원타크라지식산업센터 가동 415호","category":"기타 - 기계공구"},{"name":"주식회사디엠엘이디","tel":"031-432-6769","addr":"경기도 안산시 단원구 성곡동 645-5번지 타원TAKRA 가동 409호","category":"전기제품 - 기타전기제품"},{"name":"캘러웨이스크린골프","tel":"031-508-4567","addr":"경기도 안산시 단원구 성곡동 645-5번지 타원타크라지식산업센터 612,613,614호","category":"회원제형태 - 레져업소"},{"name":"커피디그리","tel":"","addr":"경기도 안산시 단원구 성곡동 645-5번지 타원TAKRA지식산업센타 가동 107호","category":"일반휴게음식 - 서양음식"},{"name":"타원자동차공업사","tel":"031-493-6072","addr":"경기도 안산시 단원구 성곡동 645-5번지 TAKRA지식산업센터 128호","category":"자동차정비 유지 - 자동차정비"},{"name":"타원푸드뱅크","tel":"031-433-0190","addr":"경기도 안산시 단원구 성곡동 645-5번지 타원TAKRA지식산업센터 207호","category":"일반휴게음식 - 일반한식"},{"name":"탑브레이크마스터","tel":"031-506-5912","addr":"경기도 안산시 단원구 성곡동 645-5번지 타원TAKRA 나동 140호","category":"자동차정비 유지 - 자동차부품"},{"name":"태평양계기/원격지","tel":"031-492-8100","addr":"경기도 안산시 단원구 성곡동 645-5번지 타원TAKRA 나동 227호","category":"기타 - 기타 전문점"},{"name":"한국냉열","tel":"031-492-4481","addr":"경기도 안산시 단원구 성곡동 645-5번지","category":"전기제품 - 냉열기기"},{"name":"한신공압기계","tel":"031-495-6544","addr":"경기도 안산시 단원구 성곡동 645-5번지 타원타그라지식산업센터 가동 321호","category":"기타 - 기계공구"}]},{"lat":"37.312586466","long":"126.74736376","items":[{"name":"(주)네오럭스","tel":"031-319-0692","addr":"경기도 안산시 단원구 성곡동 673-17시화공단5라411B-3","category":"건축자재 - 조명기구"},{"name":"(주)코엔","tel":"031-310-8391","addr":"경기도 안산시 단원구 성곡동 673-17 시화공단5라411호(B동3층)","category":"기타 - 기계공구"},{"name":"(주)코엔/원격지","tel":"","addr":"경기도 안산시 단원구 성곡동 673-17 시화공단5라411호(B동3층)","category":"기타 - 기타 전문점"},{"name":"맥스코리아","tel":"","addr":"경기도 안산시 단원구 성곡동 673-17번지 시화공단 5라411 D동 1층","category":"가구 - 일반가구"},{"name":"비비에이치","tel":"02-1811-6732","addr":"경기도 안산시 단원구 성곡동 673-17번지 흥일스텐(주) B동 3층","category":"기타 - 기계공구"},{"name":"윈테크","tel":"070-4246-4763","addr":"경기도 안산시 단원구 성곡동 673-17번지 시화공단5라 411호","category":"기타 - 기계공구"},{"name":"제일콜렛트","tel":"031-488-8157","addr":"경기도 안산시 단원구 성곡동 673-17번지","category":"기타 - 기계공구"},{"name":"주식회사 에스엠페이퍼로(SM Paper RO Co.,","tel":"031-413-3161","addr":"경기도 안산시 단원구 성곡동 673-17번지 시화공단5라 411 B동 1층","category":"유통업 영리 - 기타유통업"},{"name":"청운식당 (구내매점)","tel":"031-405-4404","addr":"경기도 안산시 단원구 성곡동 673-17번지","category":"음료식품 - 기타음료식품"},{"name":"피티에스","tel":"031-434-8169","addr":"경기도 안산시 단원구 성곡동 673-17번지 시화공단","category":"전기제품 - 기타전기제품"}]},{"lat":"37.319559474","long":"126.73474981","items":[{"name":"(주)네오피엠씨","tel":"031-488-8311","addr":"경기도 안산시 단원구 성곡동 699-6번지","category":"기타 - 기계공구"}]},{"lat":"37.315422888","long":"126.75933465","items":[{"name":"(주)네츄럴라이프","tel":"02-3295-5051","addr":"경기도 안산시 단원구 성곡동 638-6번지","category":"회원제형태 - 건강식품"}]},{"lat":"37.322060155","long":"126.73292451","items":[{"name":"(주)뉴오토팰리스","tel":"031-497-8800","addr":"경기도 안산시 단원구 성곡동 710-1번지 4라602호 , 시화공단","category":"자동차정비 유지 - 자동차정비"},{"name":"(주)뉴오토팰리스","tel":"031-497-8800","addr":"경기도 안산시 단원구 성곡동 710-1 시화공단4라602호","category":"자동차정비 유지 - 자동차정비"},{"name":"GS25안산팰리스점","tel":"","addr":"경기도 안산시 단원구 성곡동 710-1번지 삼호 안산 D동 1층","category":"유통업 영리 - 편 의 점"},{"name":"뉴오토손세차","tel":"070-4922-1261","addr":"경기도 안산시 단원구 성곡동 710-1번지 삼호 안산 A동 3층","category":"자동차정비 유지 - 세차장"},{"name":"에이치에스(HS)모터스","tel":"031-497-9117","addr":"경기도 안산시 단원구 성곡동 710-1번지 삼호 안산 B동 2층","category":"자동차정비 유지 - 자동차정비"},{"name":"오버존자동차1급정비","tel":"031-408-3377","addr":"경기도 안산시 단원구 성곡동 710-1번지 시화공단4라 602호","category":"자동차정비 유지 - 자동차정비"},{"name":"오버존자동차1급정비","tel":"031-480-4972","addr":"경기도 안산시 단원구 성곡동 710-1번지 오버존자동차정비공장","category":"자동차정비 유지 - 자동차정비"},{"name":"오토뱅크공업","tel":"031-433-6858","addr":"경기도 안산시 단원구 성곡동 710-1번지 시화공단 4라 602","category":"자동차정비 유지 - 자동차정비"},{"name":"우리식당","tel":"","addr":"경기도 안산시 단원구 성곡동 710-1번지 삼호 안산 D동 2층","category":"일반휴게음식 - 위탁급식업"},{"name":"조이(joy)모터스","tel":"031-499-9182","addr":"경기도 안산시 단원구 성곡동 710-1번지 삼호 안산 B동 1층","category":"자동차정비 유지 - 자동차부품"},{"name":"주식회사 제이지무역","tel":"031-485-8200","addr":"경기도 안산시 단원구 성곡동 710-1번지 A동 3층 3호 1.2","category":"레져용품 - 스포츠·레져용품"},{"name":"펠리스모터스","tel":"070-7404-8255","addr":"경기도 안산시 단원구 성곡동 710-1번지 삼호 안산 A동 3층","category":"자동차정비 유지 - 자동차정비"},{"name":"한주모터스","tel":"031-431-7260","addr":"경기도 안산시 단원구 성곡동 710-1번지 시화공단다동1층4라602호","category":"자동차정비 유지 - 자동차시트·타이어"}]},{"lat":"37.319756352","long":"126.74633542","items":[{"name":"(주)뉴진성테크","tel":"031-498-8358","addr":"경기도 안산시 단원구 성곡동 664-6번지 5다 201-7호","category":"기타 - 기계공구"}]},{"lat":"37.326332624","long":"126.73763668","items":[{"name":"(주)다올스틸","tel":"031-319-7314","addr":"경기도 안산시 단원구 성곡동 660-6번지","category":"건축자재 - 기타건축자재"}]},{"lat":"37.305504593","long":"126.75164013","items":[{"name":"(주)다우철강(지점)","tel":"031-315-6073","addr":"경기도 안산시 단원구 성곡동 682 시화공단6바401호","category":"건축자재 - 기타건축자재"}]},{"lat":"37.319502558","long":"126.73748017","items":[{"name":"(주)대경스틸","tel":"031-499-9334","addr":"경기도 안산시 단원구 성곡동 669-7번지 시화타원지식산업센터 C동 303호","category":"건축자재 - 기타건축자재"},{"name":"씨유안산지식산업센터점","tel":"031-497-4394","addr":"경기도 안산시 단원구 성곡동 669-7번지 시화타원지식산업센터 C동 1층 101호","category":"유통업 영리 - 편 의 점"},{"name":"이삭토스트시화공단점","tel":"031-498-7535","addr":"경기도 안산시 단원구 성곡동 669-7번지 시화타원지식산업센터 C동 104호","category":"일반휴게음식 - 일반한식"}]},{"lat":"37.325610975","long":"126.76255116","items":[{"name":"(주)대성실업","tel":"031-494-5233","addr":"경기도 안산시 단원구 성곡동 646-7번지","category":"기타 - 기계공구"},{"name":"대성실업","tel":"031-492-2145","addr":"경기도 안산시 단원구 성곡동 646-7반월공단 602블럭 10롯트","category":"건축자재 - 기타건축자재"},{"name":"주식회사디에스원","tel":"031-492-3455","addr":"경기도 안산시 단원구 성곡동 646-7번지","category":"기타 - 기계공구"},{"name":"태영기계공업","tel":"031-493-0625","addr":"경기도 안산시 단원구 성곡동 646-7번지","category":"기타 - 기타 전문점"}]},{"lat":"37.316447801","long":"126.74550058","items":[{"name":"(주)대신종합주방기구","tel":"031-464-6133","addr":"경기도 안산시 단원구 성곡동 671-3번지 시화공단 5라 602","category":"주방용구 - 주방용구"},{"name":"(주)키친라이프","tel":"031-433-0541","addr":"경기도 안산시 단원구 성곡동 671-3번지 시화공단 5라 602","category":"기타 - 기타 전문점"},{"name":"주식회사코트랩","tel":"031-499-3123","addr":"경기도 안산시 단원구 성곡동 671-3 시화공단5라602","category":"주방용구 - 주방용구"}]},{"lat":"37.322778662","long":"126.76547098","items":[{"name":"(주)대열보일러","tel":"031-599-9500","addr":"경기도 안산시 단원구 성곡동 647-2번지","category":"건축자재 - 보일러·펌프·샷시"}]},{"lat":"37.308170451","long":"126.73869312","items":[{"name":"(주)대유철강","tel":"031-499-7753","addr":"경기도 안산시 단원구 성곡동 765-4번지 시화공단 905호","category":"건축자재 - 기타건축자재"},{"name":"행복식당","tel":"","addr":"경기도 안산시 단원구 성곡동 765-4번지 1층","category":"일반휴게음식 - 위탁급식업"}]},{"lat":"37.321004864","long":"126.73244317","items":[{"name":"(주)대진/원격지","tel":"031-432-8193","addr":"경기도 안산시 단원구 성곡동 698-1시화공단4마-101-1","category":"기타 - 기타 전문점"}]},{"lat":"37.309339979","long":"126.73389497","items":[{"name":"(주)덕산파이프","tel":"031-499-0061","addr":"경기도 안산시 단원구 성곡동 779-12번지 (주)덕산파이프","category":"건축자재 - 기타건축자재"},{"name":"명성엔지니어링","tel":"031-434-5565","addr":"경기도 안산시 단원구 성곡동 779-12 시화공단4바 1008-2호","category":"기타 - 기계공구"}]},{"lat":"37.299897224","long":"126.7632195","items":[{"name":"(주)동영화성","tel":"031-495-8455","addr":"경기도 안산시 단원구 성곡동 793-7번지","category":"사무통신 - 기타 사무용품"},{"name":"동영화성구내매점식당","tel":"031-431-0630","addr":"경기도 안산시 단원구 성곡동 793-7번지 1층","category":"일반휴게음식 - 위탁급식업"}]},{"lat":"37.319367581","long":"126.7584758","items":[{"name":"(주)동우에스티","tel":"031-493-2450","addr":"경기도 안산시 단원구 성곡동 641-3번지","category":"기타 - 기타 전문점"},{"name":"(주)동우에스티/원격지","tel":"031-493-2450","addr":"경기도 안산시 단원구 성곡동 641-3번지","category":"기타 - 기타 전문점"},{"name":"(주)효진상사","tel":"031-491-5143","addr":"경기도 안산시 단원구 성곡동 641-3번지 가동 반월공단","category":"자동차정비 유지 - 윤활유 전문 판매"}]},{"lat":"37.318751125","long":"126.73192101","items":[{"name":"(주)동화특수강","tel":"031-432-0310","addr":"경기도 안산시 단원구 성곡동 711-6번지 시화공단 4마 807","category":"건축자재 - 기타건축자재"}]},{"lat":"37.325783083","long":"126.76300192","items":[{"name":"(주)드림테크원","tel":"","addr":"경기도 안산시 단원구 성곡동 646-12번지 2층","category":"전기제품 - 기타전기제품"}]},{"lat":"37.313562136","long":"126.74855623","items":[{"name":"(주)디에이치티(D.H.T)","tel":"031-493-9006","addr":"경기도 안산시 단원구 성곡동 673-5 시화공단5라 405호","category":"전기제품 - 기타전기제품"},{"name":"열린문","tel":"031-499-0345","addr":"경기도 안산시 단원구 성곡동 673-5, 시화공단5라 405","category":"일반휴게음식 - 위탁급식업"}]},{"lat":"37.31364702","long":"126.73003287","items":[{"name":"(주)디엠코스메틱","tel":"070-4287-1176","addr":"경기도 안산시 단원구 성곡동 729-9번지 4층","category":"보건위생 - 미용재료"}]},{"lat":"37.310758506","long":"126.73166768","items":[{"name":"(주)디와이에스엠 시화직영점","tel":"031-492-1101","addr":"경기도 안산시 단원구 성곡동 779번지 4바 1001","category":"건축자재 - 기타건축자재"},{"name":"주식회사 한국라바","tel":"031-493-2377","addr":"경기도 안산시 단원구 성곡동 779-4번지 1005호","category":"기타 - 기계공구"}]},{"lat":"37.311975057","long":"126.76527935","items":[{"name":"(주)라임텍","tel":"031-000-0000","addr":"경기도 안산시 단원구 성곡동 602-3번지 1,3층","category":"전기제품 - 기타전기제품"},{"name":"(주)유현전자","tel":"031-493-3571","addr":"경기도 안산시 단원구 성곡동 602-3 20블럭 20롯트","category":"전기제품 - 기타전기제품"},{"name":"위드텍","tel":"031-491-6020","addr":"경기도 안산시 단원구 성곡동 602-3번지","category":"전기제품 - 기타전기제품"},{"name":"주식회사 파루시아코퍼레이션","tel":"031-457-9939","addr":"경기도 안산시 단원구 성곡동 602-3번지 3층","category":"전기제품 - 기타전기제품"}]},{"lat":"37.308532413","long":"126.75610823","items":[{"name":"(주)마린테크","tel":"031-493-3183","addr":"경기도 안산시 단원구 성곡동 624번지","category":"서적문구 - 출판 및 인쇄물"}]},{"lat":"37.31555782","long":"126.73824987","items":[{"name":"(주)민성정밀","tel":"031-497-9774","addr":"경기도 안산시 단원구 성곡동 702-7번지 시화공단4마 411호","category":"전기제품 - 기타전기제품"},{"name":"KPA엔지니어링","tel":"031-431-0914","addr":"경기도 안산시 단원구 성곡동 702-7번지 시화공단 4마 411","category":"기타 - 기계공구"}]},{"lat":"37.325585865","long":"126.76349898","items":[{"name":"(주)배운전자","tel":"031-489-9888","addr":"경기도 안산시 단원구 성곡동 646-8번지","category":"전기제품 - 기타전기제품"},{"name":"알티엠","tel":"031-495-1615","addr":"경기도 안산시 단원구 성곡동 646-8번지 (주)배운전자 다동 2호","category":"기타 - 기계공구"},{"name":"주식회사 엘티엘","tel":"070-4032-7070","addr":"경기도 안산시 단원구 성곡동 646-8번지 (주)배운전자 다동 5호","category":"전기제품 - 기타전기제품"}]},{"lat":"37.31697528","long":"126.7315551","items":[{"name":"(주)부림케터링 경기과학기술대학학생식당","tel":"031-431-1422","addr":"경기도 안산시 단원구 성곡동 713-7번지","category":"음료식품 - 농·축·수산품"},{"name":"한일에스티(주)","tel":"031-488-8577","addr":"경기도 안산시 단원구 성곡동 713-7번지","category":"기타 - 기타 전문점"}]},{"lat":"37.320697772","long":"126.74419995","items":[{"name":"(주)부흥스텐레스","tel":"031-496-8711","addr":"경기도 안산시 단원구 성곡동 663-6번지 시화공단4다 503-2","category":"건축자재 - 기타건축자재"},{"name":"대동풍력공업/원격지","tel":"02-432-6340","addr":"경기도 안산시 단원구 성곡동 663-6시화공단4다503-2호","category":"전기제품 - 기타전기제품"}]},{"lat":"37.314507374","long":"126.74816949","items":[{"name":"(주)블랙큐브","tel":"031-315-1300","addr":"경기도 안산시 단원구 성곡동 672번지 시화지식산업센터 공장동 305호","category":"주방용구 - 주방용구"},{"name":"(주)비엔피시스템","tel":"031-429-7215","addr":"경기도 안산시 단원구 성곡동 672번지 관리동 118-2호","category":"전기제품 - 기타전기제품"},{"name":"(주)삼본스크린","tel":"031-433-9003","addr":"경기도 안산시 단원구 성곡동 672번지 시화공단 4바 603","category":"서적문구 - 출판 및 인쇄물"},{"name":"(주)센서시스템기술","tel":"031-433-0727","addr":"경기도 안산시 단원구 성곡동 672번지 시화공단5라 301호","category":"기타 - 기타 전문점"},{"name":"(주)피에스텍","tel":"031-497-5410","addr":"경기도 안산시 단원구 성곡동 672번지 시화공단 5라 301","category":"용역 서비스 - 기타용역서비스"},{"name":"공단치과의원","tel":"031-431-4001","addr":"경기도 안산시 단원구 성곡동 672번지 시화공단 5라 301","category":"의원 - 치과의원"},{"name":"늘한식뷔페","tel":"","addr":"경기도 안산시 단원구 성곡동 672번지 114호","category":"일반휴게음식 - 일반한식"},{"name":"명성각중화요리","tel":"031-498-2866","addr":"경기도 안산시 단원구 성곡동 672번지 관리동 111호","category":"일반휴게음식 - 중국식"},{"name":"신일식당","tel":"031-431-8265","addr":"경기도 안산시 단원구 성곡동 672번지 114호","category":"일반휴게음식 - 일반한식"},{"name":"안산공단우편취급소","tel":"031-497-7878","addr":"경기도 안산시 단원구 성곡동 672번지 관리동 110호","category":"용역 서비스 - 공공요금대행서비스/소"},{"name":"에스앤제이코리아주식회사","tel":"031-319-0300","addr":"경기도 안산시 단원구 성곡동 672번지 시화지식산업센터공장 224호","category":"기타 - 기계공구"},{"name":"왕애밥상","tel":"031-431-8266","addr":"경기도 안산시 단원구 성곡동 672번지 115호 114","category":"일반휴게음식 - 일반한식"},{"name":"일용할양식","tel":"031-497-5354","addr":"경기도 안산시 단원구 성곡동 672번지 114,115호","category":"일반휴게음식 - 일반한식"},{"name":"청산문구사","tel":"031-432-9151","addr":"경기도 안산시 단원구 성곡동 672번지 시화지식산업센터관리동 102호","category":"사무통신 - 기타 사무용품"},{"name":"푸짐한밥집","tel":"031-432-8113","addr":"경기도 안산시 단원구 성곡동 672번지 관리동 107-108","category":"일반휴게음식 - 일반한식"},{"name":"한샘레포츠타운성곡점","tel":"031-497-3391","addr":"경기도 안산시 단원구 성곡동 672번지 지하1층","category":"회원제형태 - 레져업소"}]},{"lat":"37.319616152","long":"126.76550349","items":[{"name":"(주)비룡엔지니어링","tel":"02-522-5105","addr":"경기도 안산시 단원구 성곡동 598-1번지 21B20L 반월공단","category":"기타 - 기계공구"}]},{"lat":"37.313812379","long":"126.74760779","items":[{"name":"(주)비아이지","tel":"070-8740-7636","addr":"경기도 안산시 단원구 성곡동 673-3 시화공단5라402호","category":"가구 - 기타가구"}]},{"lat":"37.325721806","long":"126.73847374","items":[{"name":"(주)비엔에스","tel":"031-559-9523","addr":"경기도 안산시 단원구 성곡동 661-6번지 시화공단4다 708호","category":"건축자재 - 보일러·펌프·샷시"}]},{"lat":"37.325975775","long":"126.73922878","items":[{"name":"(주)비즈붐","tel":"031-319-7621","addr":"경기도 안산시 단원구 성곡동 661번지 701호 (주)비에스티","category":"건축자재 - 목재·석재·철물"}]},{"lat":"37.307896318","long":"126.7622466","items":[{"name":"(주)비츠로이엠","tel":"02-3436-1900","addr":"경기도 안산시 단원구 성곡동 605-2번지","category":"전기제품 - 기타전기제품"},{"name":"(주)비츠로테크","tel":"02-2024-3109","addr":"경기도 안산시 단원구 성곡동 605-2번지","category":"전기제품 - 기타전기제품"},{"name":"(주)비츠로테크/원격지","tel":"031-489-2000","addr":"경기도 안산시 단원구 성곡동 605-2번지","category":"기타 - 기타 전문점"}]},{"lat":"37.312563084","long":"126.73277798","items":[{"name":"(주)삼본스크린/원격지","tel":"031-433-9003","addr":"경기도 안산시 단원구 성곡동 747-3시화공단4바603","category":"기타 - 기타 전문점"}]},{"lat":"37.31533475","long":"126.74744471","items":[{"name":"(주)삼우전자","tel":"031-494-1368","addr":"경기도 안산시 단원구 성곡동 672-33번지","category":"전기제품 - 기타전기제품"},{"name":"주식회사 이코","tel":"031-493-9922","addr":"경기도 안산시 단원구 성곡동 672-33번지 (5라 301-8호)","category":"전기제품 - 기타전기제품"}]},{"lat":"37.3233963","long":"126.74213733","items":[{"name":"(주)삼원세라믹산업","tel":"02-871-0290","addr":"경기도 안산시 단원구 성곡동 662-10번지","category":"건축자재 - 기타건축자재"},{"name":"(주)원스틸","tel":"031-495-2002","addr":"경기도 안산시 단원구 성곡동 662-10번지 신흥휠타산업(주) 다동","category":"건축자재 - 기타건축자재"},{"name":"우성레이져","tel":"031-499-3501","addr":"경기도 안산시 단원구 성곡동 662-10번지 차동 4다 605-1-9","category":"전기제품 - 기타전기제품"}]},{"lat":"37.308477334","long":"126.74714079","items":[{"name":"(주)서강하이보드","tel":"031-432-8823","addr":"경기도 안산시 단원구 성곡동 684-2번지","category":"기타 - 기타 전문점"}]},{"lat":"37.308501774","long":"126.74594502","items":[{"name":"(주)서흥유화","tel":"031-433-8851","addr":"경기도 안산시 단원구 성곡동 684-14번지 시화공단5바 513호","category":"자동차정비 유지 - 윤활유 전문 판매"}]},{"lat":"37.31422355","long":"126.74608348","items":[{"name":"(주)선기산업","tel":"031-313-8876","addr":"경기도 안산시 단원구 성곡동 673-1번지 사회공단5라 104-2","category":"기타 - 기계공구"},{"name":"(주)세영산업","tel":"031-497-6600","addr":"경기도 안산시 단원구 성곡동 673-1번지","category":"건축자재 - 기타건축자재"}]},{"lat":"37.316722668","long":"126.7393852","items":[{"name":"(주)설산","tel":"031-433-1254","addr":"경기도 안산시 단원구 성곡동 701-1번지","category":"용역 서비스 - 기타용역서비스"}]},{"lat":"37.301732548","long":"126.76186019","items":[{"name":"(주)성신콤프레샤","tel":"031-493-0505","addr":"경기도 안산시 단원구 성곡동 611-9번지 나동","category":"기타 - 기계공구"},{"name":"우리메탈(주)","tel":"031-494-6868","addr":"경기도 안산시 단원구 성곡동 611-9반월공단18블럭52롯트","category":"건축자재 - 목재·석재·철물"},{"name":"천우산업","tel":"031-493-1345","addr":"경기도 안산시 단원구 성곡동 611-9반월공장라동18블럭52롯트","category":"건축자재 - 목재·석재·철물"}]},{"lat":"37.316472934","long":"126.73252709","items":[{"name":"(주)성은스텐레스상사","tel":"031-434-5101","addr":"경기도 안산시 단원구 성곡동 713-5번지 시화단지4마 715호","category":"건축자재 - 기타건축자재"},{"name":"백산철강(주)","tel":"031-499-3127","addr":"경기도 안산시 단원구 성곡동 713-5번지 시화공단 4마 715","category":"건축자재 - 기타건축자재"},{"name":"백산철강(주)/원격지","tel":"031-499-3127","addr":"경기도 안산시 단원구 성곡동 713-5시화공단4마715","category":"기타 - 기타 전문점"}]},{"lat":"37.30814541","long":"126.74366768","items":[{"name":"(주)성진메탈테크","tel":"031-319-2323","addr":"경기도 안산시 단원구 성곡동 686-3번지 시화공단 5바 617","category":"기타 - 기계공구"}]},{"lat":"37.312143184","long":"126.74241309","items":[{"name":"(주)성호스텐","tel":"031-434-5661","addr":"경기도 안산시 단원구 성곡동 676-14번지 시화공단5바 202-1","category":"주방용구 - 주방용식기"},{"name":"티타늄티티아이(주)","tel":"031-432-1399","addr":"경기도 안산시 단원구 성곡동 676-14 시화공단5바202-1","category":"건축자재 - 기타건축자재"}]},{"lat":"37.321111868","long":"126.7440293","items":[{"name":"(주)세계테크원","tel":"031-432-8972","addr":"경기도 안산시 단원구 성곡동 663-8번지 시화공단4다 504-1","category":"전기제품 - 기타전기제품"}]},{"lat":"37.311006497","long":"126.73772437","items":[{"name":"(주)수영피엔에스","tel":"031-499-2200","addr":"경기도 안산시 단원구 성곡동 689번지","category":"유통업 영리 - 기타유통업"}]},{"lat":"37.319349057","long":"126.73733405","items":[{"name":"(주)신성크린텍","tel":"031-431-2713","addr":"경기도 안산시 단원구 성곡동 669-7번지 시화지식산업센터 E동 108호","category":"용역 서비스 - 기타용역서비스"},{"name":"기흥문화사","tel":"031-432-5301","addr":"경기도 안산시 단원구 성곡동 669-7번지 시화타원지식산업센터 E동 103호","category":"서적문구 - 문구용품"}]},{"lat":"37.31553448","long":"126.74814346","items":[{"name":"(주)신성페이퍼텍","tel":"031-431-2697","addr":"경기도 안산시 단원구 성곡동 672-19시화공단5라321","category":"서적문구 - 문구용품"}]},{"lat":"37.316641834","long":"126.76502775","items":[{"name":"(주)신세계푸드 코리아써키트","tel":"02-3397-6076","addr":"경기도 안산시 단원구 성곡동 600번지","category":"일반휴게음식 - 위탁급식업"}]},{"lat":"37.317973607","long":"126.76416617","items":[{"name":"(주)신세계푸드코리아써키트","tel":"02-3397-6176","addr":"경기도 안산시 단원구 성곡동 599번지","category":"일반휴게음식 - 위탁급식업"},{"name":"씨유코리아써키트점","tel":"031-494-1195","addr":"경기도 안산시 단원구 성곡동 599번지 코리아써키트공장","category":"유통업 영리 - 편 의 점"}]},{"lat":"37.320419346","long":"126.74460705","items":[{"name":"(주)신일강업","tel":"031-433-7700","addr":"경기도 안산시 단원구 성곡동 663-7번지 시화공단 4다 503-1","category":"건축자재 - 기타건축자재"},{"name":"(주)신일강업/원격지","tel":"031-433-7700","addr":"경기도 안산시 단원구 성곡동 663-7 시화공단 4다-503-1","category":"기타 - 기타 전문점"}]},{"lat":"37.308449574","long":"126.75961659","items":[{"name":"(주)신진스틸","tel":"031-495-2087","addr":"경기도 안산시 단원구 성곡동 625-9반월동단609블럭20-5롯트","category":"기타 - 기타 전문점"},{"name":"제이에스테크","tel":"031-494-0441","addr":"경기도 안산시 단원구 성곡동 625-9번지","category":"기타 - 기계공구"}]},{"lat":"37.31675698","long":"126.75100478","items":[{"name":"(주)아세아향미","tel":"031-492-6444","addr":"경기도 안산시 단원구 성곡동 633번지","category":"농업 - 비료,사료,종자"}]},{"lat":"37.315558436","long":"126.76394818","items":[{"name":"(주)아워홈 삼화왕관안산점","tel":"02-6966-9049","addr":"경기도 안산시 단원구 성곡동 601번지","category":"일반휴게음식 - 위탁급식업"},{"name":"삼화스토리","tel":"031-409-8409","addr":"경기도 안산시 단원구 성곡동 601번지 1층","category":"음료식품 - 기타음료식품"},{"name":"희망매점","tel":"031-000-0000","addr":"경기도 안산시 단원구 성곡동 601번지 식당건물 1층","category":"음료식품 - 기타음료식품"}]},{"lat":"37.319891837","long":"126.73830237","items":[{"name":"(주)알루원","tel":"031-497-0141","addr":"경기도 안산시 단원구 성곡동 669-8번지 시화공단4라 507호","category":"기타 - 기타 전문점"},{"name":"우신P&T","tel":"031-497-5064","addr":"경기도 안산시 단원구 성곡동 669-8번지 시화공단4라 507호","category":"기타 - 기타 전문점"}]},{"lat":"37.318584536","long":"126.73000375","items":[{"name":"(주)에스에이피","tel":"031-497-8660","addr":"경기도 안산시 단원구 성곡동 712-1번지","category":"직물 - 카페트,커튼,천막,지물"}]},{"lat":"37.312279301","long":"126.7598073","items":[{"name":"(주)에스켐텍/원격지","tel":"031-492-4951","addr":"경기도 안산시 단원구 성곡동 630-5번지","category":"기타 - 기타 전문점"}]},{"lat":"37.31347849","long":"126.73514367","items":[{"name":"(주)에이멘","tel":"031-497-5533","addr":"경기도 안산시 단원구 성곡동 717-3번지 시화단지4바 401-3호","category":"사무통신 - 사무용 OA기기"}]},{"lat":"37.317308783","long":"126.74367006","items":[{"name":"(주)에티케이 전자","tel":"031-499-4991","addr":"경기도 안산시 단원구 성곡동 671번지 시화공단 5라 601호","category":"기타 - 기계공구"},{"name":"주식회사 엔티씨","tel":"031-498-0088","addr":"경기도 안산시 단원구 성곡동 671번지","category":"주방용구 - 주방용구"}]},{"lat":"37.323666915","long":"126.76360661","items":[{"name":"(주)엠아이테크","tel":"031-492-7788","addr":"경기도 안산시 단원구 성곡동 646-10번지","category":"기타 - 기계공구"}]},{"lat":"37.317698161","long":"126.75725153","items":[{"name":"(주)염광산업","tel":"031-491-5751","addr":"경기도 안산시 단원구 성곡동 637-3번지","category":"서적문구 - 출판 및 인쇄물"},{"name":"루미에르 구내식당","tel":"070-4042-5337","addr":"경기도 안산시 단원구 성곡동 637-3번지 105호","category":"일반휴게음식 - 위탁급식업"}]},{"lat":"37.320835746","long":"126.76263406","items":[{"name":"(주)영우켐텍/원격지","tel":"031-495-4164","addr":"경기도 안산시 단원구 성곡동 644-3번지","category":"기타 - 기타 전문점"}]},{"lat":"37.316230562","long":"126.7329228","items":[{"name":"(주)예그린","tel":"031-431-7700","addr":"경기도 안산시 단원구 성곡동 713-6 시화공단4마,715-1호","category":"건축자재 - 기타건축자재"}]},{"lat":"37.320697262","long":"126.76099863","items":[{"name":"(주)예스테크","tel":"031-493-7953","addr":"경기도 안산시 단원구 성곡동 642-8번지 604블럭23롯트","category":"기타 - 기계공구"}]},{"lat":"37.315252427","long":"126.72683454","items":[{"name":"(주)와이포케이텔레콤","tel":"031-434-4391","addr":"경기도 안산시 단원구 성곡동 734-3번지 시화4바 832호","category":"기타 - 기계공구"},{"name":"협성마스터즈(주)","tel":"031-498-5941","addr":"경기도 안산시 단원구 성곡동 734-3번지 1층","category":"자동차정비 유지 - 자동차부품"},{"name":"협성산업","tel":"031-498-5942","addr":"경기도 안산시 단원구 성곡동 734-3번지 시화공단4바 832호","category":"자동차정비 유지 - 자동차부품"}]},{"lat":"37.317534295","long":"126.73172231","items":[{"name":"(주)유니텍시스템","tel":"031-495-1976","addr":"경기도 안산시 단원구 성곡동 713번지 4마 711호","category":"농업 - 농기계"}]},{"lat":"37.311672427","long":"126.74969064","items":[{"name":"(주)유린테크","tel":"031-491-6579","addr":"경기도 안산시 단원구 성곡동 673-13번지 시화공단5라 403-4","category":"전기제품 - 기타전기제품"}]},{"lat":"37.299614586","long":"126.76158498","items":[{"name":"(주)유베이스메탈","tel":"031-319-1010","addr":"경기도 안산시 단원구 성곡동 794번지","category":"용역 서비스 - 기타용역서비스"}]},{"lat":"37.31627815","long":"126.73803301","items":[{"name":"(주)육룡","tel":"031-431-6139","addr":"경기도 안산시 단원구 성곡동 702-1번지 시화공단4마 405호","category":"기타 - 기타 전문점"}]},{"lat":"37.320417286","long":"126.74781109","items":[{"name":"(주)이엔테크/원격지","tel":"031-432-0501","addr":"경기도 안산시 단원구 성곡동 664-1시화공단5다201-2","category":"기타 - 기타 전문점"},{"name":"주식회사 선명시스템","tel":"031-365-5675","addr":"경기도 안산시 단원구 성곡동 664-1번지","category":"사무통신 - 컴퓨터"}]},{"lat":"37.300031371","long":"126.76272281","items":[{"name":"(주)익스톨","tel":"031-492-1853","addr":"경기도 안산시 단원구 성곡동 793-6번지 7사 103호","category":"서적문구 - 과학기자재"}]},{"lat":"37.323670741","long":"126.7610568","items":[{"name":"(주)인터셀","tel":"031-486-6972","addr":"경기도 안산시 단원구 성곡동 645번지 타원 TAKRA III B동 1층 124호","category":"기타 - 기타 전문점"},{"name":"A 타크라 구내식당","tel":"031-380-0303","addr":"경기도 안산시 단원구 성곡동 645번지 타원TAKRA III A동 134,135호","category":"일반휴게음식 - 일반한식"},{"name":"B타크라 구내식당","tel":"031-380-0306","addr":"경기도 안산시 단원구 성곡동 645번지 타원TAKRA III B동 114~117호","category":"일반휴게음식 - 위탁급식업"},{"name":"공단피엔시","tel":"031-380-0350","addr":"경기도 안산시 단원구 성곡동 645번지 1층 C- 115호","category":"건축자재 - 기타건축자재"},{"name":"동부엔지니어링","tel":"031-484-3327","addr":"경기도 안산시 단원구 성곡동 645번지 3층 제에이305호","category":"건축자재 - 보일러·펌프·샷시"},{"name":"디그리","tel":"031-380-0390","addr":"경기도 안산시 단원구 성곡동 645번지 타원 TAKRA III A동 113호","category":"일반휴게음식 - 서양음식"},{"name":"믿음중고공구","tel":"031-486-3854","addr":"경기도 안산시 단원구 성곡동 645번지 타원 TAKRA Ⅲ A동 140호","category":"기타 - 기계공구"},{"name":"씨유안산타크라1호점","tel":"031-898-6569","addr":"경기도 안산시 단원구 성곡동 645번지 타원타크라지식산업센터3차 A동 111호","category":"유통업 영리 - 편 의 점"},{"name":"씨유안산타크라2호점","tel":"031-898-6569","addr":"경기도 안산시 단원구 성곡동 645번지 타원타크라 지식산업센터 3차 B동 118~119호","category":"유통업 영리 - 편 의 점"},{"name":"어니스트","tel":"031-414-3826","addr":"경기도 안산시 단원구 성곡동 645번지 타원 TAKRA 에이동 118호, 119호","category":"가구 - 일반가구"},{"name":"에스디에이치","tel":"031-380-0377","addr":"경기도 안산시 단원구 성곡동 645번지 타원 TAKRA 3 B동 2층 222호","category":"전기제품 - 기타전기제품"},{"name":"우현미트코리아","tel":"031-432-9798","addr":"경기도 안산시 단원구 성곡동 645번지 타원 TAKRA III C동 1층 117호","category":"음료식품 - 정육점"},{"name":"이테크놀로지","tel":"031-111-1111","addr":"경기도 안산시 단원구 성곡동 645번지 타원타크라3 5층 A-516호","category":"용역 서비스 - 소프트웨어"},{"name":"진영풀리","tel":"031-313-2395","addr":"경기도 안산시 단원구 성곡동 645번지 타원TAKRAIII B동 106호","category":"기타 - 기계공구"},{"name":"카페글렌타원타크라점","tel":"070-8252-8552","addr":"경기도 안산시 단원구 성곡동 645번지 B131호","category":"일반휴게음식 - 일반한식"},{"name":"한성수지","tel":"031-310-8313","addr":"경기도 안산시 단원구 성곡동 645번지 A동 5층 504호타원TAKRAIII","category":"건축자재 - 기타건축자재"},{"name":"한신콤프렛서","tel":"031-493-7945","addr":"경기도 안산시 단원구 성곡동 645번지 타원TAKRAIII B동 404호","category":"기타 - 기계공구"}]},{"lat":"37.319280755","long":"126.7310617","items":[{"name":"(주)잭크","tel":"02-3413-5560","addr":"경기도 안산시 단원구 성곡동 711-3 시화공단4마 804","category":"자동차정비 유지 - 자동차부품"}]},{"lat":"37.315589602","long":"126.74447692","items":[{"name":"(주)정석테크","tel":"070-7733-7553","addr":"경기도 안산시 단원구 성곡동 671-5번지 시화공단5라 604호","category":"전기제품 - 기타전기제품"}]},{"lat":"37.319251544","long":"126.73011415","items":[{"name":"(주)정아유압","tel":"031-499-6552","addr":"경기도 안산시 단원구 성곡동 711-12번지 시화공단 4마 813","category":"농업 - 농기계"}]},{"lat":"37.314201617","long":"126.73616767","items":[{"name":"(주)제너럴도크","tel":"031-497-6780","addr":"경기도 안산시 단원구 성곡동 717-14번지 시화공단4 바-401-10","category":"기타 - 기계공구"}]},{"lat":"37.308697955","long":"126.73686391","items":[{"name":"(주)제이엠일렉트로닉스","tel":"031-493-5548","addr":"경기도 안산시 단원구 성곡동 765-1번지 시화공단5바 902호","category":"전기제품 - 기타전기제품"},{"name":"Nano-System","tel":"031-495-4946","addr":"경기도 안산시 단원구 성곡동 765-1번지 시화공당5바 902호","category":"전기제품 - 기타전기제품"},{"name":"비케이프린텍","tel":"031-492-1513","addr":"경기도 안산시 단원구 성곡동 765-1번지 시화공단5바 902호","category":"전기제품 - 기타전기제품"}]},{"lat":"37.305119975","long":"126.75297239","items":[{"name":"(주)제이엠일렉트로닉스/원격지","tel":"031-493-5548","addr":"경기도 안산시 단원구 성곡동 682-4번지 시화공단5바 902호","category":"기타 - 기타 전문점"}]},{"lat":"37.311281082","long":"126.73964108","items":[{"name":"(주)제이텍","tel":"031-497-7100","addr":"경기도 안산시 단원구 성곡동 675-3번지 시화공단 5바 103","category":"기타 - 기타 전문점"}]},{"lat":"37.31277896","long":"126.74472344","items":[{"name":"(주)조호레이저","tel":"031-356-3933","addr":"경기도 안산시 단원구 성곡동 673-20번지","category":"기타 - 기계공구"}]},{"lat":"37.308752351","long":"126.76227771","items":[{"name":"(주)주영-신양피혁","tel":"031-493-5343","addr":"경기도 안산시 단원구 성곡동 605-1번지","category":"일반휴게음식 - 위탁급식업"},{"name":"J.M.C","tel":"031-493-9931","addr":"경기도 안산시 단원구 성곡동 605-1번지","category":"기타 - 기계공구"}]},{"lat":"37.310479983","long":"126.74000484","items":[{"name":"(주)중겸","tel":"031-434-2184","addr":"경기도 안산시 단원구 성곡동 688번지 시화공단5바 701호","category":"서적문구 - 과학기자재"}]},{"lat":"37.318945022","long":"126.75033186","items":[{"name":"(주)지피엔","tel":"031-491-3890","addr":"경기도 안산시 단원구 성곡동 634-3 반월공단 606-9","category":"전기제품 - 기타전기제품"},{"name":"(주)지피엔/원격지","tel":"031-491-3890","addr":"경기도 안산시 단원구 성곡동 634-3,반월공단606-9","category":"기타 - 기타 전문점"}]},{"lat":"37.317229087","long":"126.73221979","items":[{"name":"(주)진성티이씨에이치","tel":"031-498-8898","addr":"경기도 안산시 단원구 성곡동 713-1번지 4마 712","category":"기타 - 기계공구"}]},{"lat":"37.316723953","long":"126.73197341","items":[{"name":"(주)진양테크","tel":"031-499-0534","addr":"경기도 안산시 단원구 성곡동 713-3번지 시화공단 4마 714호","category":"건축자재 - 인테리어전문"}]},{"lat":"37.315058772","long":"126.73669485","items":[{"name":"(주)진영이노텍(JY innotech)","tel":"031-431-0109","addr":"경기도 안산시 단원구 성곡동 716-6 시화공단4마-501-1","category":"기타 - 기계공구"},{"name":"주식회사 대광엘리베이터","tel":"031-497-8988","addr":"경기도 안산시 단원구 성곡동 716-6번지 시화공단4미501-1","category":"기타 - 기타 전문점"}]},{"lat":"37.297614147","long":"126.76150114","items":[{"name":"(주)카넷코리아","tel":"031-432-5634","addr":"경기도 안산시 단원구 성곡동 849-15번지","category":"자동차정비 유지 - 자동차정비"}]},{"lat":"37.316445218","long":"126.76582934","items":[{"name":"(주)케이비엔텍","tel":"031-495-4902","addr":"경기도 안산시 단원구 성곡동 600-1번지","category":"기타 - 기타 전문점"},{"name":"삼성웰스토리 (주)인터플렉스","tel":"031-491-4431","addr":"경기도 안산시 단원구 성곡동 600-1번지","category":"일반휴게음식 - 위탁급식업"},{"name":"삼성웰스토리(주) 인터플렉스","tel":"031-491-4431","addr":"경기도 안산시 단원구 성곡동 600-1번지","category":"일반휴게음식 - 위탁급식업"},{"name":"삼성웰스토리(주) 인터플렉스","tel":"031-491-4431","addr":"경기도 안산시 단원구 성곡동 600-1번지","category":"일반휴게음식 - 위탁급식업"},{"name":"삼성웰스토리(주)인터플렉스","tel":"031-491-4431","addr":"경기도 안산시 단원구 성곡동 600-1번지","category":"일반휴게음식 - 위탁급식업"},{"name":"삼성웰스토리(주)인터플렉스","tel":"031-491-4431","addr":"경기도 안산시 단원구 성곡동 600-1번지","category":"일반휴게음식 - 위탁급식업"},{"name":"씨유인터플렉스점","tel":"031-491-9039","addr":"경기도 안산시 단원구 성곡동 600-1번지 B1","category":"유통업 영리 - 편 의 점"}]},{"lat":"37.320668696","long":"126.73919091","items":[{"name":"(주)케이엔디시스템","tel":"031-499-6730","addr":"경기도 안산시 단원구 성곡동 668-5번지 시화공단 4라 206호","category":"기타 - 기타 전문점"}]},{"lat":"37.313836654","long":"126.72633208","items":[{"name":"(주)케이원스틸","tel":"031-488-9961","addr":"경기도 안산시 단원구 성곡동 778-9번지 시화공단4바 903호","category":"건축자재 - 기타건축자재"}]},{"lat":"37.316282685","long":"126.74831016","items":[{"name":"(주)코디룸","tel":"031-665-4625","addr":"경기도 안산시 단원구 성곡동 672번지 6호 시화지식산업센터지하층비","category":"가구 - 일반가구"}]},{"lat":"37.311834815","long":"126.7295318","items":[{"name":"(주)코멤텍/원격지","tel":"031-497-4070","addr":"경기도 안산시 단원구 성곡동 779 시화공단4바 1001","category":"기타 - 기타 전문점"},{"name":"미가","tel":"031-488-9840","addr":"경기도 안산시 단원구 성곡동 779번지 사회공단4바 1001호","category":"일반휴게음식 - 위탁급식업"},{"name":"스피드켈","tel":"031-319-1202","addr":"경기도 안산시 단원구 성곡동 779번지 (4바1001호)","category":"서적문구 - 과학기자재"},{"name":"인덕M/T","tel":"070-4062-9545","addr":"경기도 안산시 단원구 성곡동 779번지","category":"기타 - 기계공구"},{"name":"지우한식부페","tel":"031-4510-2149","addr":"경기도 안산시 단원구 성곡동 779번지 시화공단4바 1001호 식당","category":"일반휴게음식 - 일반한식"}]},{"lat":"37.314786408","long":"126.76091604","items":[{"name":"(주)큐디씨솔루션","tel":"031-506-2260","addr":"경기도 안산시 단원구 성곡동 638-3번지 501호","category":"기타 - 기계공구"},{"name":"에스엘티","tel":"031-431-1783","addr":"경기도 안산시 단원구 성곡동 638-3, 607B-5L","category":"기타 - 기타 전문점"},{"name":"에프엔씨테크(F&C TECH)","tel":"070-8829-4860","addr":"경기도 안산시 단원구 성곡동 638-3 반월공단607블럭5롯트","category":"전기제품 - 기타전기제품"}]},{"lat":"37.314230805","long":"126.73314429","items":[{"name":"(주)킴스이노베이션","tel":"031-499-6033","addr":"경기도 안산시 단원구 성곡동 718-9번지 시화공단4바 308호","category":"전기제품 - 기타전기제품"}]},{"lat":"37.306156579","long":"126.76186863","items":[{"name":"(주)탑컨테이너","tel":"031-433-7796","addr":"경기도 안산시 단원구 성곡동 615-3번지 A동 121호","category":"건축자재 - 기타건축자재"}]},{"lat":"37.321110872","long":"126.73547762","items":[{"name":"(주)트윈세븐","tel":"070-7450-6990","addr":"경기도 안산시 단원구 성곡동 710-4번지 시화공단4라 613호","category":"회원제형태 - 건강식품"},{"name":"시화용접","tel":"031-499-3177","addr":"경기도 안산시 단원구 성곡동 710-4번지 시화공단 4라 613","category":"기타 - 기계공구"},{"name":"주식회사 랜턴쿡 (QOOK)","tel":"031-319-0867","addr":"경기도 안산시 단원구 성곡동 710-4번지","category":"기타 - 기계공구"},{"name":"칠갑산식당(매점)","tel":"031-499-5689","addr":"경기도 안산시 단원구 성곡동 710-4 시화공단4라602호","category":"일반휴게음식 - 일반한식"}]},{"lat":"37.310784871","long":"126.73533371","items":[{"name":"(주)티케이씨/원격지","tel":"031-432-2121","addr":"경기도 안산시 단원구 성곡동 748-3,시화공단4바504","category":"기타 - 기타 전문점"}]},{"lat":"37.315282145","long":"126.73585926","items":[{"name":"(주)페이퍼월드","tel":"031-432-5444","addr":"경기도 안산시 단원구 성곡동 715-10시화공단4마605-1","category":"서적문구 - 출판 및 인쇄물"},{"name":"뉴월드식당","tel":"031-497-4182","addr":"경기도 안산시 단원구 성곡동 715-10 시화공단4마605-1","category":"일반휴게음식 - 일반한식"}]},{"lat":"37.315338994","long":"126.72919196","items":[{"name":"(주)포토클램인터내셔날","tel":"031-488-9111","addr":"경기도 안산시 단원구 성곡동 730번지 2층 경일종합기계","category":"광학제품 - 카메라"}]},{"lat":"37.317090851","long":"126.73883113","items":[{"name":"(주)풍년그린텍","tel":"031-498-8271","addr":"경기도 안산시 단원구 성곡동 701번지 시화공단4마 401호","category":"유통업 영리 - 기타유통업"}]},{"lat":"37.309834676","long":"126.74155248","items":[{"name":"(주)프로비스","tel":"031-434-0610","addr":"경기도 안산시 단원구 성곡동 687-13 시화공단 5 바 716","category":"전기제품 - 기타전기제품"}]},{"lat":"37.305726841","long":"126.76322356","items":[{"name":"(주)피에스산업","tel":"031-508-1824","addr":"경기도 안산시 단원구 성곡동 608-4번지 반월공단18블럭-4롯트","category":"사무통신 - 기타 사무용품"}]},{"lat":"37.311951862","long":"126.74974611","items":[{"name":"(주)한국금형열처리","tel":"031-499-9572","addr":"경기도 안산시 단원구 성곡동 673-12번지 시화공단5라 403-3호","category":"기타 - 기계공구"}]},{"lat":"37.321895493","long":"126.76093838","items":[{"name":"(주)한국무라가미","tel":"031-495-7344","addr":"경기도 안산시 단원구 성곡동 643-7번지","category":"기타 - 기타 전문점"},{"name":"(주)한국무라가미/원격지","tel":"031-495-7344","addr":"경기도 안산시 단원구 성곡동 643-7번지","category":"기타 - 기타 전문점"}]},{"lat":"37.313474926","long":"126.74572505","items":[{"name":"(주)한국크린알미늄","tel":"031-498-4398","addr":"경기도 안산시 단원구 성곡동 673-26 시화공단5라401-10","category":"건축자재 - 기타건축자재"}]},{"lat":"37.31103571","long":"126.76414298","items":[{"name":"(주)한사랑푸드","tel":"031-1588-1622","addr":"경기도 안산시 단원구 성곡동 603-9번지","category":"음료식품 - 기타음료식품"},{"name":"웰빙시골집밥","tel":"031-362-6004","addr":"경기도 안산시 단원구 성곡동 603-9번지","category":"일반휴게음식 - 위탁급식업"},{"name":"주식회사 두레박","tel":"031-493-3925","addr":"경기도 안산시 단원구 성곡동 603-9번지 1층","category":"음료식품 - 농·축·수산품"}]},{"lat":"37.31728208","long":"126.74796834","items":[{"name":"(주)한샘","tel":"031-719-3100","addr":"경기도 안산시 단원구 성곡동 665번지","category":"건축자재 - 인테리어전문"},{"name":"(주)한샘","tel":"02-6908-3274","addr":"경기도 안산시 단원구 성곡동 665번지","category":"건축자재 - 인테리어전문"},{"name":"(주)한샘","tel":"02-590-3114","addr":"경기도 안산시 단원구 성곡동 665번지","category":"주방용구 - 주방용구"},{"name":"(주)한샘","tel":"02-590-3406","addr":"경기도 안산시 단원구 성곡동 665번지","category":"주방용구 - 주방용구"},{"name":"(주)한샘","tel":"02-590-3438","addr":"경기도 안산시 단원구 성곡동 665번지","category":"주방용구 - 정수기"},{"name":"(주)한샘(A/S팀)","tel":"031-590-3114","addr":"경기도 안산시 단원구 성곡동 665번지","category":"주방용구 - 주방용구"},{"name":"(주)한샘목동전시장","tel":"02-6344-7000","addr":"경기도 안산시 단원구 성곡동 665번지","category":"가구 - 일반가구"},{"name":"(주)한샘신용협동조합","tel":"031-496-1111","addr":"경기도 안산시 단원구 성곡동 665시화공단5라201","category":"유통업 영리 - 복지매장"},{"name":"(주)한샘신용협동조합/삼원FA(담배)","tel":"031-496-1133","addr":"경기도 안산시 단원구 성곡동 665번지 시화공단5라 201호","category":"기타 - 기타 전문점"},{"name":"농업회사법인 향촌개발주식회사","tel":"02-6908-3297","addr":"경기도 안산시 단원구 성곡동 665번지","category":"레저업소 - 기타레져업소"}]},{"lat":"37.3115869","long":"126.73538727","items":[{"name":"(주)한콘체인","tel":"032-821-5526","addr":"경기도 안산시 단원구 성곡동 720-7번지 시화공단4바 418호","category":"전기제품 - 기타전기제품"}]},{"lat":"37.304673476","long":"126.75061646","items":[{"name":"(주)헵스켐/원격지","tel":"031-491-1611","addr":"경기도 안산시 단원구 성곡동 683-4 시화공단6바 505","category":"기타 - 기타 전문점"}]},{"lat":"37.321730353","long":"126.76391736","items":[{"name":"(주)혁진테크","tel":"031-520-1042","addr":"경기도 안산시 단원구 성곡동 644-9번지 안산공장 101동","category":"용역 서비스 - 기타용역서비스"},{"name":"대성식당","tel":"001-0000-0000","addr":"경기도 안산시 단원구 성곡동 644-9번지 1층 식당","category":"일반휴게음식 - 위탁급식업"}]},{"lat":"37.320362796","long":"126.73141882","items":[{"name":"(주)협진기계","tel":"031-432-9023","addr":"경기도 안산시 단원구 성곡동 698-12시화공단4마108","category":"기타 - 기계공구"}]},{"lat":"37.318392541","long":"126.73669437","items":[{"name":"(주)호계","tel":"031-499-4813","addr":"경기도 안산시 단원구 성곡동 700-1번지 시화공단","category":"신변잡화 - 기타잡화"}]},{"lat":"37.32825621","long":"126.73961572","items":[{"name":"(주)호성테크","tel":"031-319-0987","addr":"경기도 안산시 단원구 성곡동 660-1번지 시화공단4다 101-1","category":"기타 - 기계공구"}]},{"lat":"37.313481621","long":"126.73653119","items":[{"name":"(주)황금에스티","tel":"031-363-8041","addr":"경기도 안산시 단원구 성곡동 717-4시화공단4바401-4","category":"기타 - 기타 전문점"}]},{"lat":"37.314281398","long":"126.75633762","items":[{"name":"(주)효산LPL","tel":"031-495-5758","addr":"경기도 안산시 단원구 성곡동 631-7번지","category":"유통업 영리 - 기타유통업"}]},{"lat":"37.322945775","long":"126.76794126","items":[{"name":"(주)흥선","tel":"031-494-3365","addr":"경기도 안산시 단원구 성곡동 594-2번지 반월공단 8호","category":"신변잡화 - 기념품점"},{"name":"JJ엔지니어링","tel":"031-492-2808","addr":"경기도 안산시 단원구 성곡동 594-2번지","category":"기타 - 기계공구"},{"name":"주식회사 에프피자운","tel":"031-495-7524","addr":"경기도 안산시 단원구 성곡동 594-2번지","category":"음료식품 - 기타음료식품"}]},{"lat":"37.316586712","long":"126.7271681","items":[{"name":"Autopro-up","tel":"031-434-9009","addr":"경기도 안산시 단원구 성곡동 732-1번지 시화산단4바 802호","category":"자동차정비 유지 - 자동차부품"},{"name":"주식회사 오토프로업","tel":"031-434-9861","addr":"경기도 안산시 단원구 성곡동 732-1번지 (4바802호)","category":"기타 - 기계공구"}]},{"lat":"37.314504619","long":"126.73869352","items":[{"name":"BigC","tel":"031-432-9907","addr":"경기도 안산시 단원구 성곡동 716-3번지 사화공단4마 502-1","category":"음료식품 - 기타음료식품"}]},{"lat":"37.31550274","long":"126.72986823","items":[{"name":"D.H우드","tel":"031-404-1442","addr":"경기도 안산시 단원구 성곡동 728-7번지 시화공단4바 208호","category":"건축자재 - 기타건축자재"},{"name":"주식회사더리빙","tel":"032-446-0613","addr":"경기도 안산시 단원구 성곡동 728-7번지 시화산단4바 208호","category":"직물 - 카페트,커튼,천막,지물"}]},{"lat":"37.295980169","long":"126.75997254","items":[{"name":"GS25G안산공단점","tel":"","addr":"경기도 안산시 단원구 성곡동 851-7번지 1층","category":"유통업 영리 - 편 의 점"}]},{"lat":"37.320722675","long":"126.76464259","items":[{"name":"GS25스마트허브점","tel":"","addr":"경기도 안산시 단원구 성곡동 598-5번지 1층","category":"유통업 영리 - 편 의 점"}]},{"lat":"37.297146698","long":"126.76203272","items":[{"name":"GS25안산MTV점","tel":"","addr":"경기도 안산시 단원구 성곡동 848-5번지 금성제어기판매(주) 1층 102호","category":"유통업 영리 - 편 의 점"}]},{"lat":"37.315364562","long":"126.72856013","items":[{"name":"HAPPY WON","tel":"031-497-3669","addr":"경기도 안산시 단원구 성곡동 731-3번지 4바 808호","category":"레져용품 - 스포츠·레져용품"}]},{"lat":"37.308308025","long":"126.76089168","items":[{"name":"SJ칼라산업","tel":"031-493-7171","addr":"경기도 안산시 단원구 성곡동 605-3번지","category":"자동차정비 유지 - 자동차부품"}]},{"lat":"37.319562356","long":"126.73602463","items":[{"name":"SK네트웍스(주)시화공단주유소","tel":"031-431-9184","addr":"경기도 안산시 단원구 성곡동 710-11시화공단4라610","category":"자동차정비 유지 - 자동차정비"},{"name":"스피드메이트안산공단점","tel":"031-431-9218","addr":"경기도 안산시 단원구 성곡동 710-11번지","category":"자동차정비 유지 - 자동차정비"},{"name":"영주상사","tel":"031-498-0130","addr":"경기도 안산시 단원구 성곡동 710-11번지","category":"자동차정비 유지 - 자동차부품"}]},{"lat":"37.321452357","long":"126.76013878","items":[{"name":"TH상사","tel":"031-491-1527","addr":"경기도 안산시 단원구 성곡동 642-2번지","category":"일반휴게음식 - 위탁급식업"}]},{"lat":"37.3248336230","long":"126.7613351317","items":[{"name":"㈜화진정보통신","tel":"031-491-2244","addr":"경기도 안산시 단원구 성곡동 645-5번지","category":"도매 및 소매업 - 통신기기"}]},{"lat":"37.314979945","long":"126.72977987","items":[{"name":"가구쟁이김목수","tel":"031-416-8878","addr":"경기도 안산시 단원구 성곡동 730-2번지 4바 703호","category":"가구 - 일반가구"},{"name":"주식회사 선우칼록스","tel":"031-496-8570","addr":"경기도 안산시 단원구 성곡동 730-2번지","category":"기타 - 기계공구"},{"name":"진성워터젯","tel":"031-434-8981","addr":"경기도 안산시 단원구 성곡동 730-2번지 703호 시화공단","category":"기타 - 기계공구"}]},{"lat":"37.295729641","long":"126.76083048","items":[{"name":"가든가마솥국밥","tel":"031-493-5558","addr":"경기도 안산시 단원구 성곡동 851-4번지 2층","category":"일반휴게음식 - 일반한식"},{"name":"아이지에이마트 안산등대점","tel":"031-000-0000","addr":"경기도 안산시 단원구 성곡동 851-4번지 1층","category":"유통업 영리 - 편 의 점"},{"name":"월수금엠티브이점","tel":"031-495-7553","addr":"경기도 안산시 단원구 성곡동 851-4번지 1층 일부","category":"일반휴게음식 - 일반한식"},{"name":"장백산엠티브이점","tel":"031-495-9808","addr":"경기도 안산시 단원구 성곡동 851-4번지 가동 101호","category":"일반휴게음식 - 중국식"}]},{"lat":"37.32133633","long":"126.74366751","items":[{"name":"가람","tel":"031-432-2999","addr":"경기도 안산시 단원구 성곡동 663-3번지 공장 A동","category":"전기제품 - 기타전기제품"}]},{"lat":"37.305760171","long":"126.75319587","items":[{"name":"가온","tel":"","addr":"경기도 안산시 단원구 성곡동 680-6번지","category":"일반휴게음식 - 일반한식"},{"name":"승민구내식당","tel":"031-0000-0000","addr":"경기도 안산시 단원구 성곡동 680-6번지 시화공단","category":"일반휴게음식 - 위탁급식업"}]},{"lat":"37.322143314","long":"126.7676617","items":[{"name":"개그스토리마트 에스아이플렉스","tel":"031-599-2021","addr":"경기도 안산시 단원구 성곡동 594-5번지","category":"유통업 영리 - 편 의 점"}]},{"lat":"37.312039192","long":"126.76580933","items":[{"name":"거송식당","tel":"031-493-7325","addr":"경기도 안산시 단원구 성곡동 602-4번지 나동 1층","category":"일반휴게음식 - 위탁급식업"}]},{"lat":"37.315196482","long":"126.73783374","items":[{"name":"건영콘테이너","tel":"031-499-1386","addr":"경기도 안산시 단원구 성곡동 716-1 시화공단4마 502-1","category":"기타 - 기계공구"}]},{"lat":"37.313919956","long":"126.72727936","items":[{"name":"건이덴텍","tel":"031-498-7520","addr":"경기도 안산시 단원구 성곡동 744-7 시화공단4바851","category":"수리서비스 - 기타수리서비스"}]},{"lat":"37.316308636","long":"126.73556232","items":[{"name":"경민식당","tel":"031-497-1427","addr":"경기도 안산시 단원구 성곡동 715-2번지","category":"일반휴게음식 - 위탁급식업"}]},{"lat":"37.312504682","long":"126.73483127","items":[{"name":"경성시험기주식회사","tel":"031-433-8462","addr":"경기도 안산시 단원구 성곡동 720-1번지 시화공단4바 412호","category":"서적문구 - 과학기자재"}]},{"lat":"37.306725045","long":"126.76227289","items":[{"name":"경원식당","tel":"031-491-7282","addr":"경기도 안산시 단원구 성곡동 615-2번지","category":"일반휴게음식 - 일반한식"},{"name":"이곡주","tel":"031-405-4712","addr":"경기도 안산시 단원구 성곡동 615-2번지 2층","category":"음료식품 - 주류 판매점"}]},{"lat":"37.3067250447","long":"126.7622728884","items":[{"name":"경원식당","tel":"","addr":"경기도 안산시 단원구 성곡동 615-2번지","category":"숙박 및 음식점업 - 음식점"},{"name":"대신스크린","tel":"","addr":"경기도 안산시 단원구 성곡동 615-2번지","category":"제조업 - 인쇄"}]},{"lat":"37.323444276","long":"126.74346847","items":[{"name":"경진식당","tel":"031-431-9975","addr":"경기도 안산시 단원구 성곡동 662-3번지 사화공단4다 604호","category":"일반휴게음식 - 위탁급식업"},{"name":"나노전자","tel":"031-404-0935","addr":"경기도 안산시 단원구 성곡동 662-3번지 시화산단4다 604호","category":"전기제품 - 가전제품"}]},{"lat":"37.312202874","long":"126.72894388","items":[{"name":"고향식당","tel":"031-433-5949","addr":"경기도 안산시 단원구 성곡동 778-11번지 시화공단4바 908-1호","category":"일반휴게음식 - 위탁급식업"}]},{"lat":"37.298150668","long":"126.75950314","items":[{"name":"골드링크","tel":"031-000-0000","addr":"경기도 안산시 단원구 성곡동 795-2번지 G동 201호","category":"일반휴게음식 - 일반한식"},{"name":"스타일모터스","tel":"031-401-1155","addr":"경기도 안산시 단원구 성곡동 795-2번지 G동 101호","category":"자동차정비 유지 - 자동차정비"},{"name":"이마트24 안산엠티브이점","tel":"031-000-0000","addr":"경기도 안산시 단원구 성곡동 795-2번지 지동 1층 102호","category":"유통업 영리 - 편 의 점"},{"name":"주식회사가나배관밸브","tel":"031-319-3777","addr":"경기도 안산시 단원구 성곡동 795-2번지 씨동101호","category":"기타 - 기계공구"},{"name":"주식회사중앙용접봉","tel":"031-493-9056","addr":"경기도 안산시 단원구 성곡동 795-2번지 이동 104,204호","category":"기타 - 기계공구"},{"name":"커피(coffee)나무","tel":"02-000-0000","addr":"경기도 안산시 단원구 성곡동 795-2번지 G동 1층 101호","category":"일반휴게음식 - 서양음식"},{"name":"하늘풍력","tel":"031-415-1250","addr":"경기도 안산시 단원구 성곡동 795-2번지 A동 101,201호","category":"전기제품 - 기타전기제품"}]},{"lat":"37.2981506684","long":"126.7595031379","items":[{"name":"골드링크","tel":"031-495-8901","addr":"경기도 안산시 단원구 성곡동 795-2번지","category":"숙박 및 음식점업 - 일반음식"}]},{"lat":"37.318890781","long":"126.73788846","items":[{"name":"공단서울치과","tel":"031-433-2807","addr":"경기도 안산시 단원구 성곡동 669-7번지 지동 201호 ,202,203호","category":"의원 - 치과의원"},{"name":"공단자연치과의원","tel":"031-433-2807","addr":"경기도 안산시 단원구 성곡동 669-7번지 시화타원지식산업센터 201,202,203호","category":"의원 - 치과의원"},{"name":"국제초경공구","tel":"031-431-0941","addr":"경기도 안산시 단원구 성곡동 669-7번지 시화타원지식산업센터 J동 104호","category":"기타 - 기계공구"},{"name":"금강정공","tel":"031-430-3152","addr":"경기도 안산시 단원구 성곡동 669-7 4라506호지식산업센터","category":"기타 - 기계공구"},{"name":"레이저회사","tel":"031-497-7172","addr":"경기도 안산시 단원구 성곡동 669-7번지 시화타원지식산업센터 지층 105호","category":"기타 - 기계공구"},{"name":"삼원공작소","tel":"031-434-6771","addr":"경기도 안산시 단원구 성곡동 669-7 시화산단4라506호 시화타원지식산업센터 H-106","category":"기타 - 기계공구"},{"name":"삼원상사","tel":"031-430-2090","addr":"경기도 안산시 단원구 성곡동 669-7번지 시화타원지식산업센터 G동 102호 , 시화공단4라506호","category":"기타 - 기계공구"},{"name":"성진ENG","tel":"031-497-8601","addr":"경기도 안산시 단원구 성곡동 669-7 4라506호시화타원지식산업센터A동108호","category":"기타 - 기계공구"},{"name":"오에스지(주)","tel":"031-433-2160","addr":"경기도 안산시 단원구 성곡동 669-7 시화공단4라506호시화타원지식산업센터씨동105호","category":"주방용구 - 주방용구"},{"name":"제이제이식당","tel":"031-431-3309","addr":"경기도 안산시 단원구 성곡동 669-7번지 A동 101-104","category":"일반휴게음식 - 일반한식"},{"name":"주식회사 제이제이푸드","tel":"031-432-5822","addr":"경기도 안산시 단원구 성곡동 669-7 시화공단4라506호 시화타원지식산업센터에이동101호","category":"일반휴게음식 - 일반한식"},{"name":"주식회사아시아써모텍","tel":"031-433-5058","addr":"경기도 안산시 단원구 성곡동 669-7(시화공단4라506호)시화타원지식산업센터 G-105","category":"기타 - 기계공구"}]},{"lat":"37.308924344","long":"126.74552622","items":[{"name":"공단카서비스","tel":"031-499-3114","addr":"경기도 안산시 단원구 성곡동 685-7번지","category":"자동차정비 유지 - 자동차정비"}]},{"lat":"37.327669247","long":"126.73903106","items":[{"name":"광공케미칼(주)","tel":"031-432-6633","addr":"경기도 안산시 단원구 성곡동 660-2 시화공단 4 다 101-2","category":"신변잡화 - 기타잡화"}]},{"lat":"37.313949707","long":"126.74036503","items":[{"name":"광덕철강(주)","tel":"031-416-1131","addr":"경기도 안산시 단원구 성곡동 674-10,시화공단5라506-2","category":"건축자재 - 기타건축자재"}]},{"lat":"37.310036554","long":"126.73913781","items":[{"name":"광림산업기계","tel":"031-432-7151","addr":"경기도 안산시 단원구 성곡동 689-4 시화공단 5바 804","category":"기타 - 기계공구"},{"name":"주성테크","tel":"031-505-9160","addr":"경기도 안산시 단원구 성곡동 689-4번지 5바 804","category":"전기제품 - 기타전기제품"}]},{"lat":"37.322417989","long":"126.74386688","items":[{"name":"광성공업사","tel":"031-433-1050","addr":"경기도 안산시 단원구 성곡동 663-5번지","category":"자동차정비 유지 - 자동차정비"}]},{"lat":"37.315784084","long":"126.73469553","items":[{"name":"광성지엠(주)","tel":"02-2648-5322","addr":"경기도 안산시 단원구 성곡동 715-7번지 시화공단","category":"기타 - 기타 전문점"}]},{"lat":"37.307340337","long":"126.74222662","items":[{"name":"구내식당","tel":"","addr":"경기도 안산시 단원구 성곡동 766-2번지","category":"일반휴게음식 - 위탁급식업"}]},{"lat":"37.310114239","long":"126.74166431","items":[{"name":"구내식당","tel":"031-498-5358","addr":"경기도 안산시 단원구 성곡동 687번지 시화공단 5바 715","category":"일반휴게음식 - 일반한식"}]},{"lat":"37.312696574","long":"126.72814116","items":[{"name":"규연엔지니어링(주)","tel":"031-497-4034","addr":"경기도 안산시 단원구 성곡동 778-6번지 시화공단4바 907호","category":"건축자재 - 기타건축자재"}]},{"lat":"37.31486649","long":"126.72747897","items":[{"name":"그린하우스","tel":"031-491-2383","addr":"경기도 안산시 단원구 성곡동 736-6 시화공단4바 834","category":"직물 - 카페트,커튼,천막,지물"}]},{"lat":"37.314451838","long":"126.73525303","items":[{"name":"극동에너지주식회사","tel":"031-433-5149","addr":"경기도 안산시 단원구 성곡동 718-14번지 시화공단4바 302-4","category":"자동차정비 유지 - 윤활유 전문 판매"}]},{"lat":"37.30861786","long":"126.75388578","items":[{"name":"금강구내식당","tel":"","addr":"경기도 안산시 단원구 성곡동 623-2번지","category":"일반휴게음식 - 위탁급식업"}]},{"lat":"37.296367953","long":"126.76014046","items":[{"name":"금산 인삼 추어탕","tel":"031-493-2150","addr":"경기도 안산시 단원구 성곡동 850-2번지 2층 202호","category":"일반휴게음식 - 일반한식"},{"name":"대왕갈비탕","tel":"031-111-1111","addr":"경기도 안산시 단원구 성곡동 850-2번지 101-103호","category":"일반휴게음식 - 일반한식"},{"name":"버거앤프라이즈 안산시화호수로점","tel":"031-495-8418","addr":"경기도 안산시 단원구 성곡동 850-2번지 106호 107호","category":"일반휴게음식 - 서양음식"},{"name":"오여사부대찌개","tel":"031-493-9711","addr":"경기도 안산시 단원구 성곡동 850-2번지 108,109호","category":"일반휴게음식 - 일반한식"},{"name":"육마니","tel":"031-495-6882","addr":"경기도 안산시 단원구 성곡동 850-2번지 205호","category":"일반휴게음식 - 일반한식"},{"name":"커피베이안산엠티브이점","tel":"031-494-6400","addr":"경기도 안산시 단원구 성곡동 850-2번지 104호 105호","category":"일반휴게음식 - 서양음식"},{"name":"포아이니안산엠티브이(MTV)점","tel":"031-491-9691","addr":"경기도 안산시 단원구 성곡동 850-2번지 2층 204호","category":"일반휴게음식 - 일반한식"}]},{"lat":"37.317088461","long":"126.75869753","items":[{"name":"금성제어기판매(주)","tel":"031-363-6209","addr":"경기도 안산시 단원구 성곡동 637-1번지 1층","category":"전기제품 - 가전제품"}]},{"lat":"37.309949119","long":"126.73233613","items":[{"name":"금성종합철재(주)","tel":"031-431-9496","addr":"경기도 안산시 단원구 성곡동 779-6 시화공단4비 1007","category":"건축자재 - 기타건축자재"}]},{"lat":"37.314164305","long":"126.73164417","items":[{"name":"금정산업","tel":"031-432-8004","addr":"경기도 안산시 단원구 성곡동 719-12번지 B동 324호 시화공단 4바","category":"직물 - 기타직물"}]},{"lat":"37.317947852","long":"126.75172282","items":[{"name":"기양금속공업(주)","tel":"031-494-6213","addr":"경기도 안산시 단원구 성곡동 635-7번지","category":"기타 - 기계공구"},{"name":"소프트전자","tel":"031-493-6711","addr":"경기도 안산시 단원구 성곡동 635-7반월공단4-1나-2","category":"기타 - 기타 전문점"}]},{"lat":"37.321586872","long":"126.74700612","items":[{"name":"나나식당","tel":"02-1111-1111","addr":"경기도 안산시 단원구 성곡동 664-15번지 1층","category":"일반휴게음식 - 위탁급식업"},{"name":"아세아팩케지(주)","tel":"031-431-8015","addr":"경기도 안산시 단원구 성곡동 664-15번지 시화공단5바 908호","category":"기타 - 기타 전문점"}]},{"lat":"37.308449502","long":"126.74264016","items":[{"name":"나래전자","tel":"031-493-3477","addr":"경기도 안산시 단원구 성곡동 686 시화공단5바614호","category":"전기제품 - 기타전기제품"}]},{"lat":"37.315226895","long":"126.72747765","items":[{"name":"남경유화","tel":"031-434-5178","addr":"경기도 안산시 단원구 성곡동 735-2시화공단4바807","category":"자동차정비 유지 - 윤활유 전문 판매"}]},{"lat":"37.309478564","long":"126.74350518","items":[{"name":"남동물산","tel":"031-434-9621","addr":"경기도 안산시 단원구 성곡동 685-1번지 시화공단5바 602호","category":"용역 서비스 - 종합용역"}]},{"lat":"37.314563811","long":"126.7290594","items":[{"name":"남일기계/원격지","tel":"031-1-1","addr":"경기도 안산시 단원구 성곡동 739시화공단4바725호","category":"기타 - 기계공구"}]},{"lat":"37.319779309","long":"126.73236859","items":[{"name":"넘버나인팩토리","tel":"031-242-3475","addr":"경기도 안산시 단원구 성곡동 698-15번지 시화공단 내 4미111호","category":"자동차정비 유지 - 자동차부품"}]},{"lat":"37.311557911","long":"126.75952761","items":[{"name":"다운전자","tel":"031-493-7591","addr":"경기도 안산시 단원구 성곡동 629-1 반월공단609-9","category":"전기제품 - 기타전기제품"},{"name":"인텍전자(주)","tel":"031-491-0539","addr":"경기도 안산시 단원구 성곡동 629-1반월공단609B-9L","category":"기타 - 기계공구"}]},{"lat":"37.325202483","long":"126.74402656","items":[{"name":"대건특수도장","tel":"031-432-7236","addr":"경기도 안산시 단원구 성곡동 658번지 시화 4다 301호","category":"건축자재 - 목재·석재·철물"}]},{"lat":"37.323170299","long":"126.73375543","items":[{"name":"대경식당","tel":"031-434-5926","addr":"경기도 안산시 단원구 성곡동 710번지 대경티엘에스(주) 지층 102호","category":"일반휴게음식 - 위탁급식업"}]},{"lat":"37.319813102","long":"126.73138695","items":[{"name":"대명전자주식회사","tel":"031-491-8668","addr":"경기도 안산시 단원구 성곡동 698-20번지 시화공단 4마 116호","category":"전기제품 - 기타전기제품"}]},{"lat":"37.320477999","long":"126.73852595","items":[{"name":"대산 I.B.F","tel":"031-432-2298","addr":"경기도 안산시 단원구 성곡동 669-1번지 시화공단 4라 502호 A동 101호","category":"음료식품 - 기타음료식품"}]},{"lat":"37.318585385","long":"126.73431329","items":[{"name":"대성P.S","tel":"031-498-3984","addr":"경기도 안산시 단원구 성곡동 704-2번지 209호 4마","category":"서적문구 - 출판 및 인쇄물"}]},{"lat":"37.324528532","long":"126.74075697","items":[{"name":"대성산업","tel":"031-498-9799","addr":"경기도 안산시 단원구 성곡동 661-7","category":"기타 - 기계공구"}]},{"lat":"37.315867117","long":"126.76066439","items":[{"name":"대성엔지니어링/원격지","tel":"031-431-0572","addr":"경기도 안산시 단원구 성곡동 638-8 반월공단 607B4L,105동","category":"기타 - 기타 전문점"}]},{"lat":"37.317702559","long":"126.73044691","items":[{"name":"대성특수강관(주)","tel":"031-432-9958","addr":"경기도 안산시 단원구 성곡동 시화공단 4 마 820호 712-5번지","category":"건축자재 - 기타건축자재"}]},{"lat":"37.313699597","long":"126.72938968","items":[{"name":"대신에프에이(주)","tel":"031-433-1123","addr":"경기도 안산시 단원구 성곡동 741-4번지 (4바 742)","category":"전기제품 - 기타전기제품"}]},{"lat":"37.317032267","long":"126.73681198","items":[{"name":"대영알텍","tel":"031-499-1501","addr":"경기도 안산시 단원구 성곡동 703-4 시화공단4마316","category":"건축자재 - 기타건축자재"}]},{"lat":"37.307425562","long":"126.74411007","items":[{"name":"대영인터내셔날","tel":"031-497-4595","addr":"경기도 안산시 단원구 성곡동 686-8번지 시화공당5바 623호","category":"의류 - 정장"},{"name":"대영인터네셔널(주)","tel":"031-497-4595","addr":"경기도 안산시 단원구 성곡동 686-8시화공단5바623","category":"레져용품 - 스포츠·레져용품"}]},{"lat":"37.313891862","long":"126.74686299","items":[{"name":"대원E.N.G","tel":"031-563-8952","addr":"경기도 안산시 단원구 성곡동 673-2 시화공단5라401-3","category":"건축자재 - 기타건축자재"},{"name":"전주식당","tel":"031-488-9030","addr":"경기도 안산시 단원구 성곡동 673-2 시화공단5라 401-3호","category":"일반휴게음식 - 위탁급식업"},{"name":"준테크","tel":"031-403-5503","addr":"경기도 안산시 단원구 성곡동 673-2 시화공단5라401-3호","category":"기타 - 기계공구"}]},{"lat":"37.324922142","long":"126.76500166","items":[{"name":"대유쿨러","tel":"031-494-8040","addr":"경기도 안산시 단원구 성곡동 646-2번지","category":"기타 - 기계공구"}]},{"lat":"37.313729255","long":"126.73052893","items":[{"name":"대은산업","tel":"031-432-3194","addr":"경기도 안산시 단원구 성곡동 729-3번지","category":"기타 - 기계공구"}]},{"lat":"37.306034977","long":"126.74686707","items":[{"name":"대일개발(주)","tel":"031-498-1451","addr":"경기도 안산시 단원구 성곡동 725-1번지","category":"기타 - 기타 전문점"}]},{"lat":"37.308445769","long":"126.74094817","items":[{"name":"대지금속공업(주)","tel":"031-499-2376","addr":"경기도 안산시 단원구 성곡동 687-8번지 시화공단5바72","category":"기타 - 기계공구"}]},{"lat":"37.327389128","long":"126.73867098","items":[{"name":"대진금속","tel":"031-430-2181","addr":"경기도 안산시 단원구 성곡동 660-3번지 4다 102","category":"건축자재 - 기타건축자재"}]},{"lat":"37.319119791","long":"126.73555236","items":[{"name":"대한정밀","tel":"031-433-5612","addr":"경기도 안산시 단원구 성곡동 699-3시화공단4마2031","category":"사무통신 - 통신기기"},{"name":"동신철강주식회사","tel":"031-431-0415","addr":"경기도 안산시 단원구 성곡동 699-3 시화공단 4 마 -203-1","category":"건축자재 - 기타건축자재"},{"name":"미소한식뷔페","tel":"031-433-7552","addr":"경기도 안산시 단원구 성곡동 699-3번지 시화공단4마 203-1","category":"일반휴게음식 - 위탁급식업"},{"name":"주식회사동신철강안산지점","tel":"031-431-0415","addr":"경기도 안산시 단원구 성곡동 699-3번지","category":"건축자재 - 기타건축자재"}]},{"lat":"37.314339393","long":"126.7294212","items":[{"name":"대한종합철강","tel":"031-434-3631","addr":"경기도 안산시 단원구 성곡동 740번지 시화공단4바727호 765호","category":"건축자재 - 기타건축자재"}]},{"lat":"37.305647878","long":"126.72697117","items":[{"name":"대화기전(주)","tel":"031-494-0545","addr":"경기도 안산시 단원구 성곡동 826번지","category":"기타 - 기계공구"}]},{"lat":"37.311645267","long":"126.75819623","items":[{"name":"대화페인트공업(주)","tel":"031-491-2041","addr":"경기도 안산시 단원구 성곡동 629번지","category":"건축자재 - 페인트"}]},{"lat":"37.31875357","long":"126.75352518","items":[{"name":"덕산약품공업(주)","tel":"02-2633-4255","addr":"경기도 안산시 단원구 성곡동 635-1번지","category":"약국 - 약국"},{"name":"덕산약품공업(주)/원격지","tel":"031-495-4055","addr":"경기도 안산시 단원구 성곡동 635-1번지 덕산약품공업(주) 636호","category":"기타 - 기타 전문점"}]},{"lat":"37.316092452","long":"126.74783699","items":[{"name":"덕원산업","tel":"031-432-2347","addr":"경기도 안산시 단원구 성곡동 672-5 시화공단5라 306","category":"전기제품 - 기타전기제품"}]},{"lat":"37.312503308","long":"126.73028518","items":[{"name":"델타스틸(주)","tel":"031-433-9555","addr":"경기도 안산시 단원구 성곡동 747-12번지 시화공단4바 610-2","category":"건축자재 - 기타건축자재"}]},{"lat":"37.305029897","long":"126.7616692","items":[{"name":"도담","tel":"031-492-0128","addr":"경기도 안산시 단원구 성곡동 616-3번지","category":"용역 서비스 - 기타용역서비스"},{"name":"서전케미칼","tel":"031-494-7103","addr":"경기도 안산시 단원구 성곡동 616-3번지","category":"기타 - 기타 전문점"},{"name":"서전케미칼/원격지","tel":"031-494-7103","addr":"경기도 안산시 단원구 성곡동 616-3번지","category":"기타 - 기타 전문점"},{"name":"제이에스중공업","tel":"031-492-9610","addr":"경기도 안산시 단원구 성곡동 616-3번지","category":"용역 서비스 - 기타용역서비스"}]},{"lat":"37.313090672","long":"126.73497584","items":[{"name":"동명기계공업","tel":"031-497-9302","addr":"경기도 안산시 단원구 성곡동 717-13 시화공단 4바 408호","category":"기타 - 기계공구"},{"name":"서영정밀","tel":"031-434-0770","addr":"경기도 안산시 단원구 성곡동 717-13 시화공단4바 408C-5","category":"기타 - 기계공구"},{"name":"우진특수","tel":"031-319-2677","addr":"경기도 안산시 단원구 성곡동 717-13번지 408호 4바","category":"기타 - 기계공구"},{"name":"유림테크","tel":"031-434-8980","addr":"경기도 안산시 단원구 성곡동 717-13시화공단4바408,C-2","category":"기타 - 기계공구"}]},{"lat":"37.317673953","long":"126.73369605","items":[{"name":"동서기공","tel":"031-432-2206","addr":"경기도 안산시 단원구 성곡동 714-10시화공단4마705-1","category":"기타 - 기타 전문점"},{"name":"동서기공/원격지","tel":"031-432-2206","addr":"경기도 안산시 단원구 성곡동 714-10 시화공단4마 705-1","category":"기타 - 기타 전문점"},{"name":"와우티타늄","tel":"031-508-6444","addr":"경기도 안산시 단원구 성곡동 714-10번지","category":"기타 - 기계공구"}]},{"lat":"37.316336412","long":"126.75666934","items":[{"name":"동성매점","tel":"031-495-3562","addr":"경기도 안산시 단원구 성곡동 637-2번지","category":"음료식품 - 기타음료식품"},{"name":"동성정공(주)","tel":"031-492-8126","addr":"경기도 안산시 단원구 성곡동 637-2번지 607-25","category":"기타 - 기계공구"}]},{"lat":"37.314252236","long":"126.73464457","items":[{"name":"동성전자(주)","tel":"031-494-9572","addr":"경기도 안산시 단원구 성곡동 718-3번지 시화공단 4바 302-2","category":"전기제품 - 기타전기제품"}]},{"lat":"37.298198794","long":"126.76100302","items":[{"name":"동신상사","tel":"031-492-1295","addr":"경기도 안산시 단원구 성곡동 848번지","category":"자동차정비 유지 - 자동차부품"},{"name":"동신자동차정비","tel":"031-508-3378","addr":"경기도 안산시 단원구 성곡동 848번지 시화MTV지원5(13-1)","category":"자동차정비 유지 - 자동차정비"},{"name":"동신자동차정비","tel":"","addr":"경기도 안산시 단원구 성곡동 848번지 13-1","category":"자동차정비 유지 - 자동차정비"}]},{"lat":"37.315612831","long":"126.72683322","items":[{"name":"동진","tel":"031-431-4173","addr":"경기도 안산시 단원구 성곡동 734-7번지 시화공단4바 830호","category":"기타 - 기계공구"}]},{"lat":"37.315869455","long":"126.73659046","items":[{"name":"동현콜렛트","tel":"031-432-1343","addr":"경기도 안산시 단원구 성곡동 715-5번지 4마604-2","category":"기타 - 기계공구"}]},{"lat":"37.2966475","long":"126.76025235","items":[{"name":"두산지게차경기안산판매(주)","tel":"031-508-1212","addr":"경기도 안산시 단원구 성곡동 850-1번지","category":"기타 - 기계공구"}]},{"lat":"37.318359866","long":"126.73819493","items":[{"name":"두현테크","tel":"031-499-7409","addr":"경기도 안산시 단원구 성곡동 669-7번지 시화지식산업센터 H동 105호","category":"자동차정비 유지 - 자동차부품"},{"name":"제이지","tel":"031-8777-9988","addr":"경기도 안산시 단원구 성곡동 669-7번지 시화타원지식산업센터 H동 1층 110호","category":"기타 - 기계공구"},{"name":"혜주엔지니어링","tel":"031-430-4691","addr":"경기도 안산시 단원구 성곡동 669-7시화타원지식산업센터 H동 107","category":"기타 - 기계공구"},{"name":"화성컴퓨터조각","tel":"031-430-2560","addr":"경기도 안산시 단원구 성곡동 669-7번지 시화타원지식산업센터 H동 111호","category":"기타 - 기타 전문점"}]},{"lat":"37.315640739","long":"126.73505703","items":[{"name":"디씨마트","tel":"031-434-4475","addr":"경기도 안산시 단원구 성곡동 715-14시화공단4마606-1호1층","category":"유통업 영리 - 슈퍼마켓"}]},{"lat":"37.324083406","long":"126.76460942","items":[{"name":"디오아이주식회사","tel":"031-492-8352","addr":"경기도 안산시 단원구 성곡동 646-4번지","category":"건강식품 - 인삼제품"}]},{"lat":"37.318195003","long":"126.73699967","items":[{"name":"디케이전자","tel":"031-499-6250","addr":"경기도 안산시 단원구 성곡동 700-2번지 4마 302-1호","category":"전기제품 - 기타전기제품"},{"name":"아이홈텍","tel":"031-432-5841","addr":"경기도 안산시 단원구 성곡동 700-2 시화공단4마 302-1호","category":"전기제품 - 기타전기제품"},{"name":"주식회사 두루하이텍","tel":"031-499-6250","addr":"경기도 안산시 단원구 성곡동 700-2번지 4마 302-1호","category":"전기제품 - 기타전기제품"}]},{"lat":"37.315944626","long":"126.73003585","items":[{"name":"라노펄(주)","tel":"031-319-6707","addr":"경기도 안산시 단원구 성곡동 728-9 시화공단4바210호","category":"보건위생 - 화장품"},{"name":"조이엠(주)","tel":"031-434-8121","addr":"경기도 안산시 단원구 성곡동 728-9시화공단4바210","category":"자동차정비 유지 - 자동차부품"},{"name":"탑엘이디","tel":"031-433-0111","addr":"경기도 안산시 단원구 성곡동 728-9 4바210호","category":"건축자재 - 조명기구"}]},{"lat":"37.313648101","long":"126.72661479","items":[{"name":"라미테크","tel":"031-499-4569","addr":"경기도 안산시 단원구 성곡동 778-2번지 시화공단4바 903호","category":"기타 - 기계공구"},{"name":"주식회사 사이머","tel":"031-434-5052","addr":"경기도 안산시 단원구 성곡동 778-2번지","category":"건축자재 - 기타건축자재"}]},{"lat":"37.312731568","long":"126.73555242","items":[{"name":"롤링메탈(주)","tel":"031-319-3740","addr":"경기도 안산시 단원구 성곡동 717-12번지 407호 시화공단","category":"건축자재 - 기타건축자재"}]},{"lat":"37.306365193","long":"126.73725564","items":[{"name":"롯데푸드 캐논안산점","tel":"02-3469-3114","addr":"경기도 안산시 단원구 성곡동 805번지","category":"일반휴게음식 - 위탁급식업"},{"name":"맘편한어린이집[아이행복]","tel":"031-412-0222","addr":"경기도 안산시 단원구 성곡동 805번지 1층","category":"학원 - 유아원"},{"name":"주식회사 엔젤위드","tel":"031-490-8010","addr":"경기도 안산시 단원구 성곡동 805번지","category":"사무통신 - 사무용 OA기기"},{"name":"주식회사 엔젤위드","tel":"042-489-7885","addr":"경기도 안산시 단원구 성곡동 805번지","category":"수리서비스 - 사무·통신기기수리"},{"name":"주식회사 엔젤위드","tel":"031-490-8010","addr":"경기도 안산시 단원구 성곡동 805번지","category":"사무통신 - 사무용 OA기기"},{"name":"주식회사엔젤위드","tel":"042-489-7885","addr":"경기도 안산시 단원구 성곡동 805번지","category":"음료식품 - 기타음료식품"},{"name":"주식회사엔젤위드","tel":"031-489-7885","addr":"경기도 안산시 단원구 성곡동 805번지","category":"음료식품 - 기타음료식품"}]},{"lat":"37.310947248","long":"126.72756094","items":[{"name":"마루지 주식회사","tel":"031-321-8400","addr":"경기도 안산시 단원구 성곡동 811-4번지","category":"건축자재 - 조명기구"},{"name":"명식당","tel":"","addr":"경기도 안산시 단원구 성곡동 811-4번지 2층","category":"일반휴게음식 - 위탁급식업"}]},{"lat":"37.309644183","long":"126.72903212","items":[{"name":"맛나식당","tel":"","addr":"경기도 안산시 단원구 성곡동 809-2번지 1층 일부","category":"일반휴게음식 - 위탁급식업"}]},{"lat":"37.327895053","long":"126.73927849","items":[{"name":"맛나한식부페","tel":"","addr":"경기도 안산시 단원구 성곡동 660-19번지 B동 1층","category":"일반휴게음식 - 위탁급식업"}]},{"lat":"37.306340649","long":"126.76377431","items":[{"name":"맛있는 구내식당","tel":"070-7750-8801","addr":"경기도 안산시 단원구 성곡동 608-9번지","category":"일반휴게음식 - 일반한식"}]},{"lat":"37.30433779","long":"126.7624948","items":[{"name":"맛있는식당","tel":"031-491-4242","addr":"경기도 안산시 단원구 성곡동 609-2번지 박창반월아파트형공장 110호","category":"일반휴게음식 - 일반한식"},{"name":"삼성메디엔지니어링(주)","tel":"031-494-2821","addr":"경기도 안산시 단원구 성곡동 609-2번지 박창반월아파트형공장 202호","category":"보건위생 - 의료용품"},{"name":"영KOREA","tel":"031-433-6308","addr":"경기도 안산시 단원구 성곡동 609-2번지 박창반월아파트형공장 307호","category":"기타 - 기계공구"}]},{"lat":"37.32250644","long":"126.74725121","items":[{"name":"매점식당","tel":"070-7690-6651","addr":"경기도 안산시 단원구 성곡동 656-3(시화공단5다103-1호)","category":"음료식품 - 기타음료식품"},{"name":"성도기업","tel":"031-497-7793","addr":"경기도 안산시 단원구 성곡동 656-3시화공단5다103","category":"기타 - 기계공구"},{"name":"위트비","tel":"070-7121-3564","addr":"경기도 안산시 단원구 성곡동 656-3 시화공단5다 103-1호","category":"건축자재 - 건축용 요업제품"}]},{"lat":"37.313120014","long":"126.74411311","items":[{"name":"명성F.M.C","tel":"031-295-1550","addr":"경기도 안산시 단원구 성곡동 674-3 시화공단5라503호,3층","category":"일반휴게음식 - 위탁급식업"},{"name":"승화나라","tel":"031-000-0000","addr":"경기도 안산시 단원구 성곡동 674-3번지 시화공단 5라 503 B동 2층","category":"유통업 영리 - 기타유통업"}]},{"lat":"37.32089491","long":"126.73164255","items":[{"name":"모두디자인스튜디오","tel":"031-433-7851","addr":"경기도 안산시 단원구 성곡동 698-26번지","category":"용역 서비스 - 사무서비스"}]},{"lat":"37.309425826","long":"126.75678212","items":[{"name":"미강철강(주)","tel":"031-491-1831","addr":"경기도 안산시 단원구 성곡동 625-3번지","category":"건축자재 - 기타건축자재"}]},{"lat":"37.320393439","long":"126.73299816","items":[{"name":"미래산업","tel":"031-433-7874","addr":"경기도 안산시 단원구 성곡동 698-2번지 ***연번지,4 마 103호","category":"가구 - 일반가구"},{"name":"유에스물류투자(주)","tel":"031-433-1360","addr":"경기도 안산시 단원구 성곡동 698-2시화공단4마103","category":"가구 - 일반가구"},{"name":"주식회사 명익","tel":"070-7709-3559","addr":"경기도 안산시 단원구 성곡동 698-2번지 유에스물류튜자(주) 4마동103호","category":"신변잡화 - 신발"}]},{"lat":"37.310084712","long":"126.72861315","items":[{"name":"미승ENG","tel":"","addr":"경기도 안산시 단원구 성곡동 808-1번지 그린테코(주) 308호","category":"전기제품 - 기타전기제품"}]},{"lat":"37.315366578","long":"126.72555936","items":[{"name":"바이오그린(주)","tel":"031-319-8820","addr":"경기도 안산시 단원구 성곡동 733-8 시화공단4바866","category":"기타 - 기계공구"}]},{"lat":"37.312642474","long":"126.73203318","items":[{"name":"베스텍(주)","tel":"031-432-1494","addr":"경기도 안산시 단원구 성곡동 747-2번지 시화공단4바 602호","category":"기타 - 기타 전문점"}]},{"lat":"37.315976146","long":"126.74822094","items":[{"name":"보라전기남부영업소","tel":"031-496-9864","addr":"경기도 안산시 단원구 성곡동 672-14시화공단5라315","category":"기타 - 기타 전문점"}]},{"lat":"37.324889736","long":"126.74111675","items":[{"name":"보성식당","tel":"031-495-6780","addr":"경기도 안산시 단원구 성곡동 661-3번지 시화공단","category":"일반휴게음식 - 위탁급식업"},{"name":"신일식당","tel":"031-111-1111","addr":"경기도 안산시 단원구 성곡동 661-3번지 시화공단4다 705 H동 1층","category":"일반휴게음식 - 위탁급식업"},{"name":"일미식당","tel":"031-431-7781","addr":"경기도 안산시 단원구 성곡동 661-3번지 시화공단4다 705호","category":"일반휴게음식 - 위탁급식업"}]},{"lat":"37.321835164","long":"126.74516631","items":[{"name":"보은상회","tel":"031-498-6769","addr":"경기도 안산시 단원구 성곡동 663-1번지 시화공단4다 502호","category":"음료식품 - 기타음료식품"}]},{"lat":"37.315087242","long":"126.74966791","items":[{"name":"부성정밀 (주)","tel":"031-495-6163","addr":"경기도 안산시 단원구 성곡동 672-16번지","category":"기타 - 기계공구"}]},{"lat":"37.313981344","long":"126.73438607","items":[{"name":"부용샌딩","tel":"031-496-0550","addr":"경기도 안산시 단원구 성곡동 718-4번지 시화사단4바 302-3호","category":"건축자재 - 기타건축자재"}]},{"lat":"37.316780565","long":"126.73309005","items":[{"name":"사랑식당","tel":"031-498-2041","addr":"경기도 안산시 단원구 성곡동 713-2번지 시화공단4마 715호","category":"일반휴게음식 - 일반한식"},{"name":"성은테크","tel":"031-499-2727","addr":"경기도 안산시 단원구 성곡동 713-2시화공단4마715","category":"기타 - 기타 전문점"}]},{"lat":"37.316030439","long":"126.75255272","items":[{"name":"삼구화학공업(주)","tel":"031-492-1735","addr":"경기도 안산시 단원구 성곡동 633-4번지","category":"기타 - 기타 전문점"}]},{"lat":"37.322583178","long":"126.73311444","items":[{"name":"삼덕자동차정비","tel":"02-494-5252","addr":"경기도 안산시 단원구 성곡동 710-14번지","category":"자동차정비 유지 - 자동차정비"},{"name":"아이지에이마트 성곡점","tel":"031-768-0708","addr":"경기도 안산시 단원구 성곡동 710-14번지 시화공단4라 602-2호","category":"유통업 영리 - 편 의 점"}]},{"lat":"37.321196449","long":"126.76277958","items":[{"name":"삼미화학(주)","tel":"02-804-3001","addr":"경기도 안산시 단원구 성곡동 644-4번지","category":"기타 - 기타 전문점"}]},{"lat":"37.315612589","long":"126.75522772","items":[{"name":"삼봉화학매점","tel":"","addr":"경기도 안산시 단원구 성곡동 632-2번지","category":"음료식품 - 기타음료식품"}]},{"lat":"37.30808987","long":"126.76438917","items":[{"name":"삼성웰스토리(주)테라닉스","tel":"031-436-5978","addr":"경기도 안산시 단원구 성곡동 606-4번지","category":"일반휴게음식 - 위탁급식업"},{"name":"삼성웰스토리(주)테라닉스","tel":"031-436-5978","addr":"경기도 안산시 단원구 성곡동 606-4번지","category":"일반휴게음식 - 위탁급식업"}]},{"lat":"37.308204146","long":"126.74581068","items":[{"name":"삼성테크노글라스","tel":"031-319-0759","addr":"경기도 안산시 단원구 성곡동 684-13번지 시화공단5바 512호","category":"광학제품 - 기타광학제품"}]},{"lat":"37.311896374","long":"126.74081211","items":[{"name":"삼영종합기기(주)","tel":"02-2238-3282","addr":"경기도 안산시 단원구 성곡동 676-15 시화공단 5바 204-2호","category":"기타 - 기계공구"},{"name":"삼영종합기기(주)/원격지","tel":"02-2238-3282","addr":"경기도 안산시 단원구 성곡동 676-15 시화공단 5바 204-2호","category":"기타 - 기타 전문점"}]},{"lat":"37.300059005","long":"126.7500341","items":[{"name":"삼위식당","tel":"031-111-1111","addr":"경기도 안산시 단원구 성곡동 798-4번지 MTV 6사 205호","category":"일반휴게음식 - 위탁급식업"}]},{"lat":"37.304759886","long":"126.72870017","items":[{"name":"삼지식당(부페)","tel":"","addr":"경기도 안산시 단원구 성곡동 826-5번지 나동 시화공단 4사 806호","category":"일반휴게음식 - 위탁급식업"},{"name":"오리진","tel":"031-493-7706","addr":"경기도 안산시 단원구 성곡동 826-5번지 시화MTV 나동 4사 806호","category":"신변잡화 - 기타잡화"}]},{"lat":"37.313593134","long":"126.75900213","items":[{"name":"삼화식당","tel":"031-494-3277","addr":"경기도 안산시 단원구 성곡동 630-7번지","category":"일반휴게음식 - 위탁급식업"},{"name":"서광화학(주)","tel":"031-493-6661","addr":"경기도 안산시 단원구 성곡동 630-7번지 607-12호","category":"서적문구 - 과학기자재"}]},{"lat":"37.310671131","long":"126.74497881","items":[{"name":"삼화페인트공업(주)","tel":"031-499-0394","addr":"경기도 안산시 단원구 성곡동 677번지 영업지원팀","category":"건축자재 - 페인트"}]},{"lat":"37.317115586","long":"126.73780444","items":[{"name":"상산스틸","tel":"031-497-2587","addr":"경기도 안산시 단원구 성곡동 700-6번지 4마306호","category":"기타 - 기계공구"}]},{"lat":"37.31600442","long":"126.75733601","items":[{"name":"새솔다이아몬드공업(주)/원격지","tel":"031-493-5037","addr":"경기도 안산시 단원구 성곡동 637-9번지","category":"기타 - 기타 전문점"}]},{"lat":"37.308537014","long":"126.7374172","items":[{"name":"서진정공","tel":"031-493-6236","addr":"경기도 안산시 단원구 성곡동 765-2번지 5바 903","category":"기타 - 기계공구"}]},{"lat":"37.32211906","long":"126.76011407","items":[{"name":"성곡식당","tel":"031-495-0882","addr":"경기도 안산시 단원구 성곡동 643-6번지 2층","category":"일반휴게음식 - 위탁급식업"},{"name":"주식회사 코어텍","tel":"031-491-4945","addr":"경기도 안산시 단원구 성곡동 643-6번지","category":"유통업 영리 - 기타유통업"},{"name":"클라시스주식회사","tel":"031-708-5062","addr":"경기도 안산시 단원구 성곡동 643-6 반월공단 604블럭 2-1","category":"전기제품 - 기타전기제품"}]},{"lat":"37.313201925","long":"126.72847774","items":[{"name":"성광마그네트","tel":"031-431-5090","addr":"경기도 안산시 단원구 성곡동 743-5번지","category":"기타 - 기계공구"}]},{"lat":"37.306419452","long":"126.74550092","items":[{"name":"성림유화(주)","tel":"031-499-3808","addr":"경기도 안산시 단원구 성곡동 725번지","category":"기타 - 기타 전문점"}]},{"lat":"37.304410192","long":"126.76265248","items":[{"name":"성원지티씨 주식회사","tel":"031-492-9393","addr":"경기도 안산시 단원구 성곡동 609-2번지 박창반월아파트형공장 A동 304호","category":"기타 - 기계공구"}]},{"lat":"37.310058082","long":"126.75752456","items":[{"name":"성원포밍","tel":"031-495-2705","addr":"경기도 안산시 단원구 성곡동 625-5번지 반월공단 609동 19-1호","category":"기타 - 기타 전문점"},{"name":"성원포밍/원격지","tel":"031-495-2705","addr":"경기도 안산시 단원구 성곡동 625-5번지 반월공단 609동 19-1호","category":"기타 - 기타 전문점"},{"name":"이케이","tel":"031-493-5978","addr":"경기도 안산시 단원구 성곡동 625-5번지 반월공단 609동 19-1호","category":"기타 - 기계공구"}]},{"lat":"37.325805927","long":"126.73581074","items":[{"name":"성원피엔씨","tel":"031-497-0988","addr":"경기도 안산시 단원구 성곡동 660-15번지 재우산업(주) 4다 107-5","category":"기타 - 기계공구"}]},{"lat":"37.312591483","long":"126.7294501","items":[{"name":"성진철강","tel":"031-498-2964","addr":"경기도 안산시 단원구 성곡동 742-4번지 시화공단4비 761호","category":"기타 - 기계공구"}]},{"lat":"37.316729327","long":"126.73433117","items":[{"name":"성진테크","tel":"031-498-8058","addr":"경기도 안산시 단원구 성곡동 715-13시화공단4마601-2","category":"기타 - 기계공구"}]},{"lat":"37.320396607","long":"126.73044847","items":[{"name":"세로ENG","tel":"031-365-5278","addr":"경기도 안산시 단원구 성곡동 698-23번지","category":"기타 - 기계공구"}]},{"lat":"37.297146629","long":"126.75761161","items":[{"name":"세븐일레븐로지스밸리안산일층점","tel":"031-1577-0711","addr":"경기도 안산시 단원구 성곡동 796번지 1층 102호","category":"유통업 영리 - 편 의 점"},{"name":"세븐일레븐로지스밸리안산칠층점","tel":"031-1577-0711","addr":"경기도 안산시 단원구 성곡동 796번지 7층 718호 좌측","category":"유통업 영리 - 편 의 점"},{"name":"주식회사 더블루키친푸드","tel":"070-4334-4358","addr":"경기도 안산시 단원구 성곡동 796번지 7층 711호","category":"일반휴게음식 - 일반한식"}]},{"lat":"37.320729424","long":"126.73814149","items":[{"name":"세븐일레븐스마트허브점","tel":"031-1577-0711","addr":"경기도 안산시 단원구 성곡동 669번지 B동 102호","category":"유통업 영리 - 편 의 점"},{"name":"순천식당","tel":"031-319-7378","addr":"경기도 안산시 단원구 성곡동 669번지 A동","category":"일반휴게음식 - 위탁급식업"}]},{"lat":"37.296425196","long":"126.76169667","items":[{"name":"세븐일레븐안산공단중앙점","tel":"","addr":"경기도 안산시 단원구 성곡동 851번지 1층 일부","category":"유통업 영리 - 편 의 점"},{"name":"와와토스트","tel":"070-6251-4115","addr":"경기도 안산시 단원구 성곡동 851번지 1층 일부 (주)모건씨앤에프","category":"일반휴게음식 - 일반한식"}]},{"lat":"37.318979842","long":"126.7583304","items":[{"name":"세종메탈주식회사","tel":"031-491-1850","addr":"경기도 안산시 단원구 성곡동 641-7반원골당604블럭29롯트","category":"건축자재 - 목재·석재·철물"}]},{"lat":"37.320226647","long":"126.73894426","items":[{"name":"세호로보트산업(주)","tel":"031-432-1040","addr":"경기도 안산시 단원구 성곡동 669-2시화공단4라503호","category":"서적문구 - 과학기자재"}]},{"lat":"37.306732218","long":"126.75269634","items":[{"name":"셀프구내식당및매점","tel":"031-493-0811","addr":"경기도 안산시 단원구 성곡동 680-1번지","category":"음료식품 - 기타음료식품"}]},{"lat":"37.313420101","long":"126.72931172","items":[{"name":"솔리드기술","tel":"070-8807-5580","addr":"경기도 안산시 단원구 성곡동 741-2번지","category":"기타 - 기계공구"},{"name":"아트세븐","tel":"031-434-7757","addr":"경기도 안산시 단원구 성곡동 741-2번지 시화공단 바744","category":"레져용품 - 스포츠·레져용품"}]},{"lat":"37.314779522","long":"126.73274749","items":[{"name":"수지식당","tel":"070-7862-1697","addr":"경기도 안산시 단원구 성곡동 718번지","category":"일반휴게음식 - 위탁급식업"}]},{"lat":"37.319923777","long":"126.73647462","items":[{"name":"시화타이어백화점.카","tel":"031-499-4433","addr":"경기도 안산시 단원구 성곡동 710-9시화공단4라608","category":"자동차정비 유지 - 자동차시트·타이어"},{"name":"워시 스테이션","tel":"031-499-4433","addr":"경기도 안산시 단원구 성곡동 710-9번지","category":"자동차정비 유지 - 자동차부품"},{"name":"티스테이션 성곡점.카","tel":"031-403-7435","addr":"경기도 안산시 단원구 성곡동 710-9번지","category":"자동차정비 유지 - 자동차정비"}]},{"lat":"37.31558451","long":"126.72628055","items":[{"name":"신성물산","tel":"031-434-3700","addr":"경기도 안산시 단원구 성곡동 733-3번지 4바 816호","category":"기타 - 기계공구"},{"name":"신성물산/원격지","tel":"031-434-3700","addr":"경기도 안산시 단원구 성곡동 733-3번지 시화공단4바 861호","category":"기타 - 기타 전문점"}]},{"lat":"37.309590799","long":"126.7625232","items":[{"name":"신안포장산업(주)","tel":"031-111-1111","addr":"경기도 안산시 단원구 성곡동 604-3번지","category":"유통업 영리 - 기타유통업"}]},{"lat":"37.308592903","long":"126.74641848","items":[{"name":"신우물산/원격지","tel":"031-431-6737","addr":"경기도 안산시 단원구 성곡동 684-1,5바502","category":"기타 - 기타 전문점"},{"name":"자연맛시골밥상","tel":"031-319-4905","addr":"경기도 안산시 단원구 성곡동 684-1번지","category":"일반휴게음식 - 일반한식"}]},{"lat":"37.31644533","long":"126.72836442","items":[{"name":"신원페이퍼","tel":"031-431-8439","addr":"경기도 안산시 단원구 성곡동 727-8 시화공단4바 106","category":"신변잡화 - 기타잡화"},{"name":"주식회사 클리어","tel":"031-364-8878","addr":"경기도 안산시 단원구 성곡동 727-8번지 2동 4바 106호","category":"보건위생 - 화장품"},{"name":"주식회사엠케이페이퍼","tel":"031-431-8439","addr":"경기도 안산시 단원구 성곡동 727-8번지 시화공단4바 106호","category":"신변잡화 - 기타잡화"}]},{"lat":"37.311504777","long":"126.73894091","items":[{"name":"신일화학공업(주)/원격지","tel":"031-499-2430","addr":"경기도 안산시 단원구 성곡동 675-4번지","category":"기타 - 기타 전문점"}]},{"lat":"37.313203075","long":"126.72897409","items":[{"name":"신한연마","tel":"031-497-3341","addr":"경기도 안산시 단원구 성곡동 742번지 시화공단4바 757호","category":"용역 서비스 - 기타용역서비스"}]},{"lat":"37.31961607","long":"126.73989405","items":[{"name":"신흥테크/원격지","tel":"031-499-3467","addr":"경기도 안산시 단원구 성곡동 669-4번지","category":"기타 - 기타 전문점"}]},{"lat":"37.316869393","long":"126.7573332","items":[{"name":"실력산업(주)/원격지","tel":"031-494-7200","addr":"경기도 안산시 단원구 성곡동 637-7번지","category":"기타 - 기타 전문점"},{"name":"한화호텔앤드리조트 (주) 실력산업점","tel":"031-111-1111","addr":"경기도 안산시 단원구 성곡동 637-7번지 실력산업 주","category":"일반휴게음식 - 위탁급식업"}]},{"lat":"37.313559411","long":"126.73111614","items":[{"name":"씨유백광매점점","tel":"031-431-4395","addr":"경기도 안산시 단원구 성곡동 747-15번지 백광이엔지(주) 2동 1층 101호","category":"유통업 영리 - 편 의 점"},{"name":"씨유안산행복점","tel":"031-431-4395","addr":"경기도 안산시 단원구 성곡동 747-15번지 백광이엔지(주) 101호","category":"유통업 영리 - 편 의 점"}]},{"lat":"37.296900062","long":"126.76038687","items":[{"name":"씨유안산로지스벨리점","tel":"080-080-3663","addr":"경기도 안산시 단원구 성곡동 850번지 신화홀딩스 A동 1층 101호","category":"유통업 영리 - 편 의 점"},{"name":"엠티브이 모터스","tel":"031-493-3538","addr":"경기도 안산시 단원구 성곡동 850번지 신화홀딩스 B동 101호","category":"자동차정비 유지 - 자동차정비"}]},{"lat":"37.317145602","long":"126.72727887","items":[{"name":"아산","tel":"031-000-0000","addr":"경기도 안산시 단원구 성곡동 727-12번지","category":"기타 - 기계공구"},{"name":"엠제이푸드","tel":"031-497-9765","addr":"경기도 안산시 단원구 성곡동 727-12번지","category":"일반휴게음식 - 일반한식"}]},{"lat":"37.318004369","long":"126.73636858","items":[{"name":"아성리드텍","tel":"031-433-2370","addr":"경기도 안산시 단원구 성곡동 700-10번지 시화공단4마 310호","category":"기타 - 기계공구"}]},{"lat":"37.309339604","long":"126.7259199","items":[{"name":"아이엠아이","tel":"","addr":"경기도 안산시 단원구 성곡동 813-5번지 (주)아이엠아이테크 B동 1층","category":"일반휴게음식 - 위탁급식업"}]},{"lat":"37.310309842","long":"126.74047921","items":[{"name":"아트.엠","tel":"031-434-3315","addr":"경기도 안산시 단원구 성곡동 688-14번지 5바701-1","category":"전기제품 - 기타전기제품"}]},{"lat":"37.321307119","long":"126.74680399","items":[{"name":"알루기프트","tel":"","addr":"경기도 안산시 단원구 성곡동 664-16번지 (주)지케이메탈 201호","category":"신변잡화 - 기념품점"},{"name":"주식회사 지케이메탈","tel":"070-8671-1050","addr":"경기도 안산시 단원구 성곡동 664-16번지 (주)지케이메탈 7동","category":"건축자재 - 기타건축자재"}]},{"lat":"37.321308741","long":"126.73933534","items":[{"name":"알루스텍","tel":"031-431-5117","addr":"경기도 안산시 단원구 성곡동 668-7번지 시화공단4라 208호","category":"자동차정비 유지 - 자동차부품"},{"name":"일영식당","tel":"070-4108-2532","addr":"경기도 안산시 단원구 성곡동 668-7번지 4라 208호","category":"일반휴게음식 - 위탁급식업"}]},{"lat":"37.30542257","long":"126.76425096","items":[{"name":"암스텍산업(주)","tel":"031-495-0977","addr":"경기도 안산시 단원구 성곡동 608-3반월공단18B-3L","category":"기타 - 기타 전문점"}]},{"lat":"37.315475786","long":"126.74600026","items":[{"name":"에스아이산업(SIINDUSTRY)","tel":"031-453-1446","addr":"경기도 안산시 단원구 성곡동 672-26시화공단5라301-3","category":"유통업 영리 - 기타유통업"},{"name":"주식회사 태강이엔지","tel":"031-417-0904","addr":"경기도 안산시 단원구 성곡동 672-26번지","category":"가구 - 철제가구"},{"name":"팔팔식당","tel":"03-100-0000","addr":"경기도 안산시 단원구 성곡동 672-26번지 사회공단5라 301-3호","category":"일반휴게음식 - 위탁급식업"}]},{"lat":"37.314335904","long":"126.73578364","items":[{"name":"에스아이티(주)/원격지","tel":"031-497-0871","addr":"경기도 안산시 단원구 성곡동 717시화공단4바401","category":"기타 - 기타 전문점"},{"name":"유성펌프테크","tel":"031-434-6607","addr":"경기도 안산시 단원구 성곡동 717 시화공단 4바 401","category":"건축자재 - 보일러·펌프·샷시"}]},{"lat":"37.309562598","long":"126.76641496","items":[{"name":"에스에이치플러스/원격지","tel":"031-498-2746","addr":"경기도 안산시 단원구 성곡동 602-12,20B-24L","category":"기타 - 기타 전문점"},{"name":"준하정밀","tel":"031-494-5522","addr":"경기도 안산시 단원구 성곡동 602-12번지","category":"기타 - 기계공구"}]},{"lat":"37.305616817","long":"126.75357985","items":[{"name":"에스엠테크","tel":"031-497-6657","addr":"경기도 안산시 단원구 성곡동 680-7번지 6바 204","category":"기타 - 기계공구"}]},{"lat":"37.309224488","long":"126.76405847","items":[{"name":"에스제이에스","tel":"031-493-8731","addr":"경기도 안산시 단원구 성곡동 606-2 반월공단19블럭 12호","category":"전기제품 - 기타전기제품"},{"name":"준하이테크(주)","tel":"031-493-8983","addr":"경기도 안산시 단원구 성곡동 606-2번지","category":"기타 - 기계공구"}]},{"lat":"37.3219758","long":"126.76055454","items":[{"name":"에이엠테크놀로지(주)","tel":"031-493-4959","addr":"경기도 안산시 단원구 성곡동 643-3번지","category":"전기제품 - 기타전기제품"}]},{"lat":"37.302697713","long":"126.76238723","items":[{"name":"에이월드","tel":"070-4446-0755","addr":"경기도 안산시 단원구 성곡동 610-6번지 (188 ,17-1LOT)","category":"기타 - 기계공구"},{"name":"주식회사 선진중기계","tel":"031-404-9761","addr":"경기도 안산시 단원구 성곡동 610-6번지","category":"기타 - 기계공구"}]},{"lat":"37.311502998","long":"126.73414671","items":[{"name":"에치엘팜텍주식회사","tel":"031-434-0126","addr":"경기도 안산시 단원구 성곡동 748-1번지 4바502호","category":"기타 - 기계공구"}]},{"lat":"37.308114604","long":"126.75025529","items":[{"name":"에코자율식당","tel":"031-493-1730","addr":"경기도 안산시 단원구 성곡동 679-6번지","category":"일반휴게음식 - 위탁급식업"}]},{"lat":"37.311420386","long":"126.72567538","items":[{"name":"엠제이FOOD","tel":"","addr":"경기도 안산시 단원구 성곡동 812번지","category":"일반휴게음식 - 위탁급식업"}]},{"lat":"37.318282666","long":"126.73591634","items":[{"name":"엠제이글로벌(주)","tel":"070-7585-5250","addr":"경기도 안산시 단원구 성곡동 700-11 4마311호","category":"기타 - 기계공구"}]},{"lat":"37.315976281","long":"126.7281405","items":[{"name":"엠케이척","tel":"031-434-4412","addr":"경기도 안산시 단원구 성곡동 731번지","category":"기타 - 기계공구"},{"name":"유창공압(주)","tel":"031-433-0066","addr":"경기도 안산시 단원구 성곡동 731번지 시화공단4바 805호","category":"기타 - 기계공구"}]},{"lat":"37.303760177","long":"126.76202291","items":[{"name":"엠티중공업(주)","tel":"031-365-5886","addr":"경기도 안산시 단원구 성곡동 610-11번지","category":"기타 - 기계공구"}]},{"lat":"37.308142621","long":"126.75071768","items":[{"name":"연일푸드","tel":"","addr":"경기도 안산시 단원구 성곡동 679-5번지 1층","category":"일반휴게음식 - 위탁급식업"}]},{"lat":"37.31881076","long":"126.75074973","items":[{"name":"영인플라켐","tel":"031-491-9406","addr":"경기도 안산시 단원구 성곡동 634-6 반월공단 606블럭 9-1호","category":"서적문구 - 과학기자재"}]},{"lat":"37.313834175","long":"126.72914101","items":[{"name":"영진기계","tel":"031-434-2173","addr":"경기도 안산시 단원구 성곡동 740-3번지","category":"기타 - 기계공구"}]},{"lat":"37.307562452","long":"126.74080459","items":[{"name":"예손식당","tel":"","addr":"경기도 안산시 단원구 성곡동 765-8번지","category":"일반휴게음식 - 위탁급식업"}]},{"lat":"37.321139265","long":"126.76124542","items":[{"name":"오스틴제약주식회사","tel":"031-494-5995","addr":"경기도 안산시 단원구 성곡동 642-4번지","category":"약국 - 약국"},{"name":"주식회사창조캐터링(한국웨일즈제약)","tel":"031-211-2547","addr":"경기도 안산시 단원구 성곡동 642-4번지","category":"일반휴게음식 - 위탁급식업"},{"name":"충북상사","tel":"043-216-6105","addr":"경기도 안산시 단원구 성곡동 642-4번지","category":"약국 - 제약회사"}]},{"lat":"37.3225831779","long":"126.7331144381","items":[{"name":"오토뱅크공업","tel":"031-433-6858","addr":"경기도 안산시 단원구 성곡동 710-14번지","category":"협회 및 단체, 수리 및 기타 개인서"},{"name":"태가카센터","tel":"031-492-1983","addr":"경기도 안산시 단원구 성곡동 710-14번지","category":"협회 및 단체, 수리 및 기타 개인서"}]},{"lat":"37.296199482","long":"126.76147183","items":[{"name":"옥이네소고기해장국","tel":"","addr":"경기도 안산시 단원구 성곡동 851-8번지 1동 1층","category":"일반휴게음식 - 일반한식"}]},{"lat":"37.3229457754","long":"126.7679412556","items":[{"name":"온기획","tel":"","addr":"경기도 안산시 단원구 성곡동 594-2번지","category":"협회 및 단체, 수리 및 기타 개인서"}]},{"lat":"37.313978582","long":"126.75372145","items":[{"name":"와이피티주식회사","tel":"070-4350-4896","addr":"경기도 안산시 단원구 성곡동 632-11번지","category":"전기제품 - 기타전기제품"}]},{"lat":"37.32075352","long":"126.73683271","items":[{"name":"용마골재","tel":"070-7404-8255","addr":"경기도 안산시 단원구 성곡동 710-7번지 시화공단4라 606호","category":"건축자재 - 기타건축자재"},{"name":"월드플러스","tel":"031-433-9236","addr":"경기도 안산시 단원구 성곡동 710-7시화공단4라606","category":"유통업 영리 - 슈퍼마켓"}]},{"lat":"37.317032478","long":"126.72900532","items":[{"name":"용진식당","tel":"031-363-2389","addr":"경기도 안산시 단원구 성곡동 727-2번지","category":"일반휴게음식 - 위탁급식업"},{"name":"용진에스티 주식회사","tel":"031-363-2375","addr":"경기도 안산시 단원구 성곡동 727-2번지 시화공단4바 101-1호","category":"건축자재 - 기타건축자재"},{"name":"주식회사 용진스테코","tel":"031-363-2358","addr":"경기도 안산시 단원구 성곡동 727-2 시화공단4바101-1","category":"건축자재 - 기타건축자재"}]},{"lat":"37.296037414","long":"126.76152874","items":[{"name":"우리 대형 카 정비","tel":"031-497-5176","addr":"경기도 안산시 단원구 성곡동 851-1번지","category":"자동차정비 유지 - 자동차시트·타이어"}]},{"lat":"37.309201646","long":"126.74050562","items":[{"name":"우성목재공업(주)","tel":"031-499-3391","addr":"경기도 안산시 단원구 성곡동 688-5번지 시화공단5바 710호","category":"주방용구 - 주방용구"}]},{"lat":"37.316001817","long":"126.72749739","items":[{"name":"우진금속","tel":"031-432-2547","addr":"경기도 안산시 단원구 성곡동 732-4번지 시화단지4바 811호","category":"건축자재 - 목재·석재·철물"}]},{"lat":"37.295872741","long":"126.76031123","items":[{"name":"우현모터스 엠티브이점","tel":"031-502-1293","addr":"경기도 안산시 단원구 성곡동 851-6번지","category":"자동차정비 유지 - 자동차시트·타이어"}]},{"lat":"37.310449083","long":"126.75924918","items":[{"name":"원천식당","tel":"031-494-5553","addr":"경기도 안산시 단원구 성곡동 629-9번지","category":"일반휴게음식 - 위탁급식업"}]},{"lat":"37.312727346","long":"126.75861011","items":[{"name":"월드엔지니어링","tel":"031-492-8130","addr":"경기도 안산시 단원구 성곡동 630-6번지","category":"기타 - 기계공구"}]},{"lat":"37.2957296406","long":"126.7608304783","items":[{"name":"월수금엠티브이","tel":"031-495-7553","addr":"경기도 안산시 단원구 성곡동 851-4번지","category":"숙박 및 음식점업 - 한식"}]},{"lat":"37.29937131","long":"126.74867169","items":[{"name":"유스틸구내식당","tel":"","addr":"경기도 안산시 단원구 성곡동 798-6번지 (주)유스틸 A동 1층","category":"일반휴게음식 - 위탁급식업"}]},{"lat":"37.3203969207","long":"126.7595329596","items":[{"name":"유일디텍","tel":"031-502-8231","addr":"경기도 안산시 단원구 성곡동 641-1번지","category":"제조업 - 광고,판촉"}]},{"lat":"37.320396921","long":"126.75953296","items":[{"name":"유일디텍 (YOOil D Tech)","tel":"031-502-8231","addr":"경기도 안산시 단원구 성곡동 641-1번지","category":"유통업 영리 - 기타유통업"}]},{"lat":"37.321530167","long":"126.76294775","items":[{"name":"은성식당","tel":"070-5647-2525","addr":"경기도 안산시 단원구 성곡동 644-5번지","category":"일반휴게음식 - 위탁급식업"}]},{"lat":"37.317668602","long":"126.73530931","items":[{"name":"은성에이치-티","tel":"031-497-8891","addr":"경기도 안산시 단원구 성곡동 703시화공단4가319","category":"기타 - 기타 전문점"}]},{"lat":"37.313644762","long":"126.73297717","items":[{"name":"은성특수철강","tel":"031-319-3045","addr":"경기도 안산시 단원구 성곡동 719-3번지 시화공단4바 314호","category":"건축자재 - 기타건축자재"}]},{"lat":"37.320897325","long":"126.74480849","items":[{"name":"은성푸드","tel":"031-414-8266","addr":"경기도 안산시 단원구 성곡동 663-2번지 시화공단","category":"일반휴게음식 - 위탁급식업"}]},{"lat":"37.312726423","long":"126.74542302","items":[{"name":"이미트솔루션","tel":"031-432-7869","addr":"경기도 안산시 단원구 성곡동 673-19번지","category":"건축자재 - 조명기구"}]},{"lat":"37.318979367","long":"126.73322885","items":[{"name":"이에스티코리아 주식회사","tel":"031-499-2882","addr":"경기도 안산시 단원구 성곡동 704-9번지 이펙스공장 103호","category":"건축자재 - 기타건축자재"}]},{"lat":"37.311951914","long":"126.73344572","items":[{"name":"이지산기","tel":"031-494-8746","addr":"경기도 안산시 단원구 성곡동 748번지 시화산단4바501호D동","category":"기타 - 기계공구"}]},{"lat":"37.313731452","long":"126.72758463","items":[{"name":"이현금속(주)","tel":"031-497-5165","addr":"경기도 안산시 단원구 성곡동 743-9번지 시화공단4바 769호","category":"기타 - 기계공구"}]},{"lat":"37.318668291","long":"126.73511398","items":[{"name":"일미식당","tel":"031-488-9635","addr":"경기도 안산시 단원구 성곡동 699-5번지","category":"일반휴게음식 - 위탁급식업"}]},{"lat":"37.310112241","long":"126.73672356","items":[{"name":"일미식당","tel":"031-365-5423","addr":"경기도 안산시 단원구 성곡동 690번지","category":"일반휴게음식 - 위탁급식업"},{"name":"일미식당","tel":"","addr":"경기도 안산시 단원구 성곡동 690번지","category":"일반휴게음식 - 위탁급식업"}]},{"lat":"37.322920176","long":"126.7686634","items":[{"name":"일신금속공업(주)","tel":"031-491-3700","addr":"경기도 안산시 단원구 성곡동 594-1번지","category":"건축자재 - 목재·석재·철물"}]},{"lat":"37.316561114","long":"126.73966779","items":[{"name":"재원D.P","tel":"031-433-2843","addr":"경기도 안산시 단원구 성곡동 701-8번지 시화공단4마 402호","category":"용역 서비스 - 종합용역"}]},{"lat":"37.324559031","long":"126.76366019","items":[{"name":"전주식당","tel":"031-000-0000","addr":"경기도 안산시 단원구 성곡동 646-5번지","category":"일반휴게음식 - 위탁급식업"},{"name":"주식회사 이지락","tel":"031-495-3158","addr":"경기도 안산시 단원구 성곡동 646-5번지","category":"기타 - 기계공구"}]},{"lat":"37.315089211","long":"126.75918908","items":[{"name":"전주한식당","tel":"031-000-0000","addr":"경기도 안산시 단원구 성곡동 638-5번지 유진타워테크노벨리3 2층 201호","category":"일반휴게음식 - 위탁급식업"}]},{"lat":"37.310592269","long":"126.75877494","items":[{"name":"정원정밀공업(주)-비씨","tel":"031-491-3435","addr":"경기도 안산시 단원구 성곡동 629-4번지","category":"별도관리 - 자체물품대금"},{"name":"제이피아이헬스케어(주)","tel":"031-491-3435","addr":"경기도 안산시 단원구 성곡동 629-4번지","category":"기타 - 기계공구"}]},{"lat":"37.311476373","long":"126.72649865","items":[{"name":"정한테크 (주)","tel":"031-319-7254","addr":"경기도 안산시 단원구 성곡동 811-1번지","category":"기타 - 기계공구"}]},{"lat":"37.326670156","long":"126.73949714","items":[{"name":"제이디엠(주)","tel":"031-496-0766","addr":"경기도 안산시 단원구 성곡동 659-6번지 제이디엠(주)","category":"전기제품 - 기타전기제품"}]},{"lat":"37.310647758","long":"126.72663705","items":[{"name":"제이텍","tel":"032-322-6563","addr":"경기도 안산시 단원구 성곡동 813-1번지","category":"사무통신 - 통신기기"}]},{"lat":"37.303616932","long":"126.76247454","items":[{"name":"제일강업","tel":"031-319-0051","addr":"경기도 안산시 단원구 성곡동 610반월공단18블럭14롯트","category":"기타 - 기계공구"}]},{"lat":"37.319752204","long":"126.736306","items":[{"name":"제일계량소","tel":"031-499-4433","addr":"경기도 안산시 단원구 성곡동 710-10번지","category":"용역 서비스 - 사무서비스"},{"name":"주식회사시화대형카","tel":"031-431-7282","addr":"경기도 안산시 단원구 성곡동 710-10번지","category":"자동차정비 유지 - 자동차정비"},{"name":"한국타이어TBX","tel":"031-499-4433","addr":"경기도 안산시 단원구 성곡동 710-10번지","category":"자동차정비 유지 - 자동차시트·타이어"}]},{"lat":"37.312647731","long":"126.74652879","items":[{"name":"조호식당","tel":"031-319-1344","addr":"경기도 안산시 단원구 성곡동 673-18번지 1층","category":"일반휴게음식 - 위탁급식업"},{"name":"주식회사준하기업","tel":"031-494-1004","addr":"경기도 안산시 단원구 성곡동 673-18번지 시화공단5라 401-5","category":"건축자재 - 기타건축자재"},{"name":"준영알미늄","tel":"031-488-8178","addr":"경기도 안산시 단원구 성곡동 673-18번지 시화단지5라 401-5호","category":"건축자재 - 보일러·펌프·샷시"},{"name":"지에스산건(주)","tel":"031-498-8800","addr":"경기도 안산시 단원구 성곡동 673-18번지 A동","category":"가구 - 기타가구"}]},{"lat":"37.310336684","long":"126.72461901","items":[{"name":"주)준비엘","tel":"031-433-0147","addr":"경기도 안산시 단원구 성곡동 812-3번지","category":"자동차정비 유지 - 자동차부품"},{"name":"주식회사 스위처코리아","tel":"031-433-0147","addr":"경기도 안산시 단원구 성곡동 812-3번지 시화 MTV4TK 109호","category":"자동차정비 유지 - 자동차부품"}]},{"lat":"37.317835915","long":"126.73758757","items":[{"name":"주식회사 다솜전자","tel":"031-493-7151","addr":"경기도 안산시 단원구 성곡동 700-4번지 4마 304호","category":"전기제품 - 기타전기제품"}]},{"lat":"37.3074771","long":"126.72319701","items":[{"name":"주식회사 다원넥스뷰","tel":"031-8085-7850","addr":"경기도 안산시 단원구 성곡동 822번지 (4사701호)","category":"전기제품 - 기타전기제품"}]},{"lat":"37.304066311","long":"126.75322403","items":[{"name":"주식회사 다임코리아","tel":"0505-719-7123","addr":"경기도 안산시 단원구 성곡동 681-1번지","category":"기타 - 기계공구"}]},{"lat":"37.326361851","long":"126.73861817","items":[{"name":"주식회사 대한슬리팅","tel":"031-497-6906","addr":"경기도 안산시 단원구 성곡동 661-8번지 시화공단4다 701호","category":"기타 - 기계공구"}]},{"lat":"37.312118574","long":"126.73541923","items":[{"name":"주식회사 데오테크","tel":"031-985-0383","addr":"경기도 안산시 단원구 성곡동 720-3번지 협성정밀 2동","category":"기타 - 기계공구"}]},{"lat":"37.315307644","long":"126.7273307","items":[{"name":"주식회사 두레레이져","tel":"031-431-2708","addr":"경기도 안산시 단원구 성곡동 735-4번지","category":"기타 - 기계공구"}]},{"lat":"37.310452597","long":"126.74808165","items":[{"name":"주식회사 루벤틱스","tel":"031-365-3697","addr":"경기도 안산시 단원구 성곡동 678번지","category":"서적문구 - 과학기자재"},{"name":"포스피아 주식회사","tel":"031-365-3690","addr":"경기도 안산시 단원구 성곡동 678번지","category":"직물 - 기타직물"}]},{"lat":"37.303311365","long":"126.76285901","items":[{"name":"주식회사 반석테크","tel":"031-499-0694","addr":"경기도 안산시 단원구 성곡동 610-9번지","category":"기타 - 기계공구"}]},{"lat":"37.308728587","long":"126.75946905","items":[{"name":"주식회사 빛나에스티","tel":"031-491-4512","addr":"경기도 안산시 단원구 성곡동 625-10번지","category":"건축자재 - 기타건축자재"}]},{"lat":"37.321749831","long":"126.74322609","items":[{"name":"주식회사 산성피앤씨","tel":"031-111-1111","addr":"경기도 안산시 단원구 성곡동 663-4번지 1층","category":"유통업 영리 - 기타유통업"}]},{"lat":"37.325063059","long":"126.73802474","items":[{"name":"주식회사 서영산업","tel":"031-492-5199","addr":"경기도 안산시 단원구 성곡동 661-11번지 시화공단 707-1호","category":"건축자재 - 기타건축자재"}]},{"lat":"37.325312303","long":"126.73666996","items":[{"name":"주식회사 서진기업","tel":"031-488-9327","addr":"경기도 안산시 단원구 성곡동 660-13번지 금속협동화(주) A동 1,2층","category":"기타 - 기계공구"}]},{"lat":"37.323808822","long":"126.74125589","items":[{"name":"주식회사 성화스틸","tel":"031-498-5581","addr":"경기도 안산시 단원구 성곡동 662-9번지 시화공단4다 605-6호","category":"건축자재 - 기타건축자재"}]},{"lat":"37.316034952","long":"126.74624654","items":[{"name":"주식회사 승리중량물","tel":"031-439-9999","addr":"경기도 안산시 단원구 성곡동 672-24번지 (5라 301-1)","category":"용역 서비스 - 기타용역서비스"},{"name":"주식회사 한별","tel":"031-434-7457","addr":"경기도 안산시 단원구 성곡동 672-24번지 시화공단5라 301-1","category":"건축자재 - 기타건축자재"},{"name":"한별공업","tel":"031-498-7123","addr":"경기도 안산시 단원구 성곡동 672-24 시화공단5라 301-1","category":"건축자재 - 목재·석재·철물"}]},{"lat":"37.319701126","long":"126.7336437","items":[{"name":"주식회사 아이엔티코리아","tel":"031-431-3357","addr":"경기도 안산시 단원구 성곡동 699-1번지 시화공단4마 202호","category":"자동차정비 유지 - 자동차부품"}]},{"lat":"37.298813532","long":"126.76200485","items":[{"name":"주식회사 에스디비","tel":"031-499-9933","addr":"경기도 안산시 단원구 성곡동 794-3번지","category":"용역 서비스 - 기타용역서비스"}]},{"lat":"37.309869774","long":"126.72530883","items":[{"name":"주식회사 엘지엠호이스트","tel":"031-319-2086","addr":"경기도 안산시 단원구 성곡동 813-6번지 2층","category":"자동차판매 - 기타운송"}]},{"lat":"37.315696992","long":"126.73602701","items":[{"name":"주식회사 창대엔지니어링","tel":"031-434-9834","addr":"경기도 안산시 단원구 성곡동 715-6번지 시화공단4마 605호","category":"신변잡화 - 기타잡화"}]},{"lat":"37.314536537","long":"126.72508861","items":[{"name":"주식회사 케이배관","tel":"031-509-3507","addr":"경기도 안산시 단원구 성곡동 778번지 시화공단4바 901호","category":"건축자재 - 기타건축자재"}]},{"lat":"37.321008973","long":"126.7636376","items":[{"name":"주식회사 풍림특수강","tel":"031-495-9740","addr":"경기도 안산시 단원구 성곡동 644-12번지 101동 반월공단 604블록 6롯트","category":"건축자재 - 기타건축자재"},{"name":"한국특수레이져금속","tel":"031-508-3818","addr":"경기도 안산시 단원구 성곡동 644-12번지 안산공장 102호","category":"기타 - 기계공구"}]},{"lat":"37.319808968","long":"126.74566962","items":[{"name":"주식회사 피엔에프하이텍","tel":"031-432-7812","addr":"경기도 안산시 단원구 성곡동 664-7번지 2층","category":"기타 - 기계공구"}]},{"lat":"37.311031107","long":"126.73267066","items":[{"name":"주식회사 하람스틸","tel":"031-433-1160","addr":"경기도 안산시 단원구 성곡동 748-8번지","category":"건축자재 - 기타건축자재"},{"name":"태양 BOX","tel":"031-432-6244","addr":"경기도 안산시 단원구 성곡동 748-8번지 시화공단4바 507호","category":"유통업 영리 - 기타유통업"}]},{"lat":"37.323029148","long":"126.74730585","items":[{"name":"주식회사 한백냉장","tel":"031-499-2050","addr":"경기도 안산시 단원구 성곡동 656-2번지","category":"음료식품 - 기타음료식품"}]},{"lat":"37.315258822","long":"126.75842142","items":[{"name":"주식회사 형제","tel":"031-434-2728","addr":"경기도 안산시 단원구 성곡동 637-16번지","category":"기타 - 기계공구"}]},{"lat":"37.31583477","long":"126.75808112","items":[{"name":"주식회사 휘찬정밀","tel":"031-434-3996","addr":"경기도 안산시 단원구 성곡동 637-10번지","category":"기타 - 기계공구"}]},{"lat":"37.300787283","long":"126.74930982","items":[{"name":"주식회사넥스트","tel":"031-434-6566","addr":"경기도 안산시 단원구 성곡동 798-9번지 2층 201호","category":"음료식품 - 기타음료식품"}]},{"lat":"37.318252435","long":"126.73055774","items":[{"name":"주식회사대신정공","tel":"031-434-0618","addr":"경기도 안산시 단원구 성곡동 712-3번지 시화공단4마 818호","category":"기타 - 기계공구"}]},{"lat":"37.318006069","long":"126.73314208","items":[{"name":"주식회사더블유티엠","tel":"031-499-8853","addr":"경기도 안산시 단원구 성곡동 714-2번지","category":"기타 - 기계공구"}]},{"lat":"37.313894002","long":"126.73164514","items":[{"name":"주식회사디에스테크","tel":"031-431-5895","addr":"경기도 안산시 단원구 성곡동 719-12시화공단4바324호","category":"기타 - 기타 전문점"}]},{"lat":"37.31492463","long":"126.75802767","items":[{"name":"주식회사디엠","tel":"031-493-9271","addr":"경기도 안산시 단원구 성곡동 631-1 반월공단607블럭 19롯트","category":"기타 - 기타 전문점"}]},{"lat":"37.305117015","long":"126.7432269","items":[{"name":"주식회사무빙파워텍","tel":"031-433-0090","addr":"경기도 안산시 단원구 성곡동 802-2번지 시화엠티브이5사205호","category":"기타 - 기계공구"}]},{"lat":"37.314536844","long":"126.75785971","items":[{"name":"주식회사미성산업","tel":"031-495-5546","addr":"경기도 안산시 단원구 성곡동 631-2번지","category":"기타 - 기타 전문점"}]},{"lat":"37.318502447","long":"126.73350131","items":[{"name":"주식회사삼양토탈비철금속","tel":"031-433-2880","addr":"경기도 안산시 단원구 성곡동 704-11 시화공단4마208-1103호","category":"건축자재 - 기타건축자재"}]},{"lat":"37.31419887","long":"126.73100103","items":[{"name":"주식회사솔팩","tel":"031-431-1877","addr":"경기도 안산시 단원구 성곡동 729-1시화공단4바712호","category":"기타 - 기타 전문점"}]},{"lat":"37.318226285","long":"126.73488992","items":[{"name":"주식회사안산지게차토탈서비스","tel":"031-499-0700","addr":"경기도 안산시 단원구 성곡동 704-6시화공단4마204호","category":"자동차정비 유지 - 가타자동차서비스"}]},{"lat":"37.316000658","long":"126.75125549","items":[{"name":"주식회사에스에이치피테크","tel":"031-495-9892","addr":"경기도 안산시 단원구 성곡동 633-7번지","category":"전기제품 - 기타전기제품"}]},{"lat":"37.326031663","long":"126.73602432","items":[{"name":"주식회사엘.지.에이","tel":"031-433-1522","addr":"경기도 안산시 단원구 성곡동 660-16번지","category":"전기제품 - 냉열기기"},{"name":"주식회사토토청정코리아","tel":"02-887-4899","addr":"경기도 안산시 단원구 성곡동 660-16번지 시화공단4다 107호","category":"주방용구 - 정수기"}]},{"lat":"37.316810312","long":"126.74646953","items":[{"name":"주식회사엠알특수강","tel":"031-319-0070","addr":"경기도 안산시 단원구 성곡동 672-1번지 대광샤링 302호","category":"기타 - 기계공구"}]},{"lat":"37.311251712","long":"126.73458755","items":[{"name":"주식회사와이티/원격지","tel":"031-499-2595","addr":"경기도 안산시 단원구 성곡동 748-2시화공단4바503-1","category":"기타 - 기타 전문점"}]},{"lat":"37.305973958","long":"126.75203336","items":[{"name":"주식회사이레이저","tel":"031-494-0640","addr":"경기도 안산시 단원구 성곡동 680-2번지 203호","category":"기타 - 기계공구"}]},{"lat":"37.312202718","long":"126.74081105","items":[{"name":"주식회사이엔비엔지니어링","tel":"031-404-2935","addr":"경기도 안산시 단원구 성곡동 676-16 시화공단5바205-2호","category":"기타 - 기계공구"}]},{"lat":"37.31761873","long":"126.75805277","items":[{"name":"주식회사코리아데칼","tel":"031-491-5811","addr":"경기도 안산시 단원구 성곡동 637-5번지","category":"서적문구 - 출판 및 인쇄물"},{"name":"후니네밥상","tel":"","addr":"경기도 안산시 단원구 성곡동 637-5번지 1층","category":"일반휴게음식 - 위탁급식업"},{"name":"후니네밥상","tel":"","addr":"경기도 안산시 단원구 성곡동 637-5번지 1층","category":"일반휴게음식 - 위탁급식업"}]},{"lat":"37.315001011","long":"126.7601144","items":[{"name":"주식회사태광스틸테크","tel":"031-432-8321","addr":"경기도 안산시 단원구 성곡동 638-4번지 108호","category":"건축자재 - 기타건축자재"},{"name":"파랑돌","tel":"031-495-8547","addr":"경기도 안산시 단원구 성곡동 638-4번지 102호","category":"음료식품 - 기타음료식품"}]},{"lat":"37.3086178596","long":"126.7538857812","items":[{"name":"주영푸딩","tel":"","addr":"경기도 안산시 단원구 성곡동 623-2번지","category":"숙박 및 음식점업 - 구내식당"}]},{"lat":"37.319746286","long":"126.73768239","items":[{"name":"진명","tel":"031-434-6381","addr":"경기도 안산시 단원구 성곡동 669-7번지 시화타원지식산업센터 A동 105호","category":"기타 - 기계공구"}]},{"lat":"37.312948832","long":"126.74003009","items":[{"name":"진선","tel":"031-433-7994","addr":"경기도 안산시 단원구 성곡동 675-9번지 1층 우측 식당","category":"일반휴게음식 - 위탁급식업"}]},{"lat":"37.312446193","long":"126.73686198","items":[{"name":"진영정공","tel":"031-431-4871","addr":"경기도 안산시 단원구 성곡동 717-9 시화공당4 바 401-9","category":"기타 - 기계공구"}]},{"lat":"37.313975168","long":"126.73563827","items":[{"name":"진영특수강주식회사","tel":"031-433-5490","addr":"경기도 안산시 단원구 성곡동 717-1번지 진영지에이티(주)","category":"건축자재 - 기타건축자재"}]},{"lat":"37.309787064","long":"126.73636374","items":[{"name":"진우기전 주식회사","tel":"031-433-3410","addr":"경기도 안산시 단원구 성곡동 690-14번지","category":"전기제품 - 기타전기제품"}]},{"lat":"37.307897483","long":"126.74566508","items":[{"name":"진테크/원격지","tel":"","addr":"경기도 안산시 단원구 성곡동 684-12번지 시화공단5바 511호","category":"기타 - 기타 전문점"}]},{"lat":"37.317836814","long":"126.75461123","items":[{"name":"진테크놀러지","tel":"031-319-5655","addr":"경기도 안산시 단원구 성곡동 636-1번지","category":"기타 - 기타 전문점"}]},{"lat":"37.314252475","long":"126.75977838","items":[{"name":"천세산업(주)반월공장","tel":"031-493-1003","addr":"경기도 안산시 단원구 성곡동 630-1번지","category":"건축자재 - 보일러·펌프·샷시"}]},{"lat":"37.311946424","long":"126.74307932","items":[{"name":"청목부페","tel":"031-319-5285","addr":"경기도 안산시 단원구 성곡동 676-2번지 (주)제이앤엘테크 B동 1층","category":"일반휴게음식 - 위탁급식업"}]},{"lat":"37.327166038","long":"126.73964209","items":[{"name":"큐필드지게차","tel":"031-431-3242","addr":"경기도 안산시 단원구 성곡동 659-8 시화공단4 다 209","category":"수리서비스 - 기타수리서비스"}]},{"lat":"37.313561893","long":"126.73219909","items":[{"name":"태광가공지산업(주)","tel":"031-431-6303","addr":"경기도 안산시 단원구 성곡동 719-11 4바323","category":"기타 - 기타 전문점"}]},{"lat":"37.320589878","long":"126.76136","items":[{"name":"태성정밀(주)","tel":"031-495-3445","addr":"경기도 안산시 단원구 성곡동 642-7번지","category":"기타 - 기계공구"}]},{"lat":"37.314118625","long":"126.72747041","items":[{"name":"태성중공업","tel":"031-431-7331","addr":"경기도 안산시 단원구 성곡동 744-6번지 시화단지4바 850호","category":"기타 - 기계공구"}]},{"lat":"37.309924776","long":"126.73750256","items":[{"name":"태신무역(주)","tel":"031-432-2570","addr":"경기도 안산시 단원구 성곡동 690-2번지 시화공단5바 815호","category":"유통업 영리 - 기타유통업"}]},{"lat":"37.32097824","long":"126.76627766","items":[{"name":"태양금속공업(주)","tel":"031-490-5500","addr":"경기도 안산시 단원구 성곡동 595번지","category":"기타 - 기타 전문점"}]},{"lat":"37.310029476","long":"126.74000641","items":[{"name":"태영식당","tel":"","addr":"경기도 안산시 단원구 성곡동 688-13번지 지층","category":"일반휴게음식 - 일반한식"}]},{"lat":"37.305620478","long":"126.75105321","items":[{"name":"태정상사","tel":"031-494-4397","addr":"경기도 안산시 단원구 성곡동 683-3번지 시화공단 6바 504","category":"서적문구 - 문구용품"},{"name":"태정상사/원격지","tel":"031-494-4397","addr":"경기도 안산시 단원구 성곡동 683-3시화공단6바504","category":"기타 - 기타 전문점"}]},{"lat":"37.323916819","long":"126.74530587","items":[{"name":"테라트론","tel":"0505-498-0101","addr":"경기도 안산시 단원구 성곡동 657-5 시화공단4다 406","category":"기타 - 기계공구"}]},{"lat":"37.313113581","long":"126.76242174","items":[{"name":"풀무원푸드앤컬처포스코인터내셔널STS","tel":"02-3400-7544","addr":"경기도 안산시 단원구 성곡동 603번지","category":"일반휴게음식 - 위탁급식업"}]},{"lat":"37.310926044","long":"126.72619609","items":[{"name":"풍성한식당","tel":"031-431-8266","addr":"경기도 안산시 단원구 성곡동 813번지 1층","category":"일반휴게음식 - 일반한식"}]},{"lat":"37.317835494","long":"126.73341344","items":[{"name":"하나아이엔디(주)","tel":"031-432-4326","addr":"경기도 안산시 단원구 성곡동 714-3번지 시화공단 4마 704","category":"기타 - 기타 전문점"}]},{"lat":"37.318919443","long":"126.73066815","items":[{"name":"하늘테크","tel":"031-493-0101","addr":"경기도 안산시 단원구 성곡동 711-10번지","category":"기타 - 기계공구"}]},{"lat":"37.305419761","long":"126.74159032","items":[{"name":"하이텍식당","tel":"","addr":"경기도 안산시 단원구 성곡동 802번지 3동 1층","category":"음료식품 - 기타음료식품"}]},{"lat":"37.322091802","long":"126.76894802","items":[{"name":"한국BI중소기업사업협동조합","tel":"031-493-0029","addr":"경기도 안산시 단원구 성곡동 594-4번지","category":"유통업 영리 - 기타유통업"}]},{"lat":"37.315199782","long":"126.73931155","items":[{"name":"한국로스트왁스(주)/원격지","tel":"031-319-4680","addr":"경기도 안산시 단원구 성곡동 702-5번지","category":"기타 - 기타 전문점"}]},{"lat":"37.313120334","long":"126.75693929","items":[{"name":"한국아그파산업(주)","tel":"031-2262-4352","addr":"경기도 안산시 단원구 성곡동 631-4번지","category":"기타 - 기계공구"}]},{"lat":"37.30411759","long":"126.76055545","items":[{"name":"한국인닥타썸(주)/원격지","tel":"031-494-8903","addr":"경기도 안산시 단원구 성곡동 617-2번지","category":"기타 - 기타 전문점"}]},{"lat":"37.306668291","long":"126.74392091","items":[{"name":"한국환경개발(주)","tel":"031-496-5206","addr":"경기도 안산시 단원구 성곡동 724번지 시화공단5바 626호","category":"용역 서비스 - 종합용역"}]},{"lat":"37.305754453","long":"126.75050006","items":[{"name":"한길식당","tel":"","addr":"경기도 안산시 단원구 성곡동 683-2번지 시화공단6바 503호","category":"일반휴게음식 - 위탁급식업"}]},{"lat":"37.314452393","long":"126.72763841","items":[{"name":"한양테크윈","tel":"031-433-4342","addr":"경기도 안산시 단원구 성곡동 737-5번지 4바 839호","category":"기타 - 기계공구"}]},{"lat":"37.309392546","long":"126.73722243","items":[{"name":"한테크생활과학주식회사","tel":"031-499-3846","addr":"경기도 안산시 단원구 성곡동 690-11 시화공단 5바 810","category":"기타 - 기타 전문점"},{"name":"한테크생활과학주식회사","tel":"031-499-3831","addr":"경기도 안산시 단원구 성곡동 690-11 시화공단 5바 810","category":"기타 - 기타 전문점"}]},{"lat":"37.30319957","long":"126.76105468","items":[{"name":"해송식당","tel":"031-495-6626","addr":"경기도 안산시 단원구 성곡동 617-4번지 42호","category":"일반휴게음식 - 위탁급식업"}]},{"lat":"37.31333808","long":"126.74494714","items":[{"name":"현대기계산업","tel":"031-317-9067","addr":"경기도 안산시 단원구 성곡동 673-21번지 시화공단 5라 401-8","category":"기타 - 기계공구"}]},{"lat":"37.321253272","long":"126.76414451","items":[{"name":"현대철강(주)","tel":"031-491-0883","addr":"경기도 안산시 단원구 성곡동 644-11번지 제101동호","category":"건축자재 - 기타건축자재"}]},{"lat":"37.310420965","long":"126.73778283","items":[{"name":"현대체육산업(주)","tel":"031-498-5498","addr":"경기도 안산시 단원구 성곡동 689-8번지 5바 822","category":"레져용품 - 스포츠·레져용품"}]},{"lat":"37.316673104","long":"126.73736603","items":[{"name":"화천정공","tel":"031-498-2477","addr":"경기도 안산시 단원구 성곡동 703-6번지 시화공단 4마 318","category":"기타 - 기계공구"}]},{"lat":"37.313869466","long":"126.74074886","items":[{"name":"황해식당","tel":"031-499-6424","addr":"경기도 안산시 단원구 성곡동 674-12 시화공단5라506-3호","category":"일반휴게음식 - 위탁급식업"}]}]