[{"lat":"37.784864609","long":"126.76940418","items":[{"name":"(주) 더메디펫","tel":"","addr":"경기도 파주시 월롱면 덕은리 223-2번지","category":"문화.취미 - 애완동물"}]},{"lat":"37.78786722","long":"126.77526398","items":[{"name":"(주) 동해","tel":"031-942-4488","addr":"경기도 파주시 월롱면 덕은리 140-29번지","category":"가구 - 일반가구"}]},{"lat":"37.811948031","long":"126.75662271","items":[{"name":"(주)부일렌트카","tel":"031-947-0054","addr":"경기도 파주시 월롱면 덕은리 1250-1번지","category":"여행 - 렌터카"},{"name":"마당쇠","tel":"031-943-4808","addr":"경기도 파주시 월롱면 덕은리 1250-1번지","category":"일반휴게음식 - 일반한식"},{"name":"모던달빛","tel":"","addr":"경기도 파주시 월롱면 덕은리 1250-1번지","category":"일반휴게음식 - 서양음식"},{"name":"송도불고기","tel":"031-944-5200","addr":"경기도 파주시 월롱면 덕은리 1250-1번지","category":"일반휴게음식 - 일반한식"},{"name":"시그니처","tel":"031-941-0406","addr":"경기도 파주시 월롱면 덕은리 1250-1번지","category":"보건위생 - 미용원"},{"name":"오븐에빠진닭파주LCD점","tel":"031-944-2892","addr":"경기도 파주시 월롱면 덕은리 1250-1번지","category":"일반휴게음식 - 주점"},{"name":"황실짬뽕","tel":"031-941-0178","addr":"경기도 파주시 월롱면 덕은리 1250-1번지","category":"일반휴게음식 - 중국식"},{"name":"흑돼지고깃집","tel":"031-943-1121","addr":"경기도 파주시 월롱면 덕은리 1250-1번지","category":"일반휴게음식 - 일반한식"}]},{"lat":"37.793423225","long":"126.77848264","items":[{"name":"(주)애드포에스","tel":"031-947-7414","addr":"경기도 파주시 월롱면 덕은리 117-4번지","category":"용역 서비스 - 종합용역"},{"name":"베스트패키지","tel":"031-944-8368","addr":"경기도 파주시 월롱면 덕은리 117-4번지","category":"유통업 영리 - 기타유통업"}]},{"lat":"37.786367647","long":"126.77320247","items":[{"name":"(주)엔씨페인트","tel":"031-943-8511","addr":"경기도 파주시 월롱면 덕은리 211-4번지","category":"건축자재 - 페인트"}]},{"lat":"37.793864795","long":"126.77853807","items":[{"name":"(주)엔오아이","tel":"031-967-6658","addr":"경기도 파주시 월롱면 덕은리 119-9번지","category":"유통업 영리 - 인터넷 Mall"},{"name":"주식회사 엔오아이","tel":"031-967-6658","addr":"경기도 파주시 월롱면 덕은리 119-9번지","category":"유통업 영리 - 기타유통업"}]},{"lat":"37.797779235","long":"126.77609648","items":[{"name":"(주)오디오데코","tel":"031-8071-1300","addr":"경기도 파주시 월롱면 덕은리 280번지","category":"기타 - 기타 전문점"}]},{"lat":"37.787145434","long":"126.77473263","items":[{"name":"(주)정문에이브이","tel":"031-945-6073","addr":"경기도 파주시 월롱면 덕은리 140-32번지","category":"전기제품 - 가전제품"}]},{"lat":"37.802754582","long":"126.77720539","items":[{"name":"(주)피지에이모터스","tel":"031-945-4972","addr":"경기도 파주시 월롱면 덕은리 390-1번지","category":"자동차정비 유지 - 자동차정비"}]},{"lat":"37.811668384","long":"126.7564533","items":[{"name":"BBQ 치킨앤비어","tel":"031-946-3282","addr":"경기도 파주시 월롱면 덕은리 1248번지","category":"일반휴게음식 - 스넥"},{"name":"kpop노래연습장","tel":"031-000-0000","addr":"경기도 파주시 월롱면 덕은리 1248번지","category":"레저업소 - 노 래 방"},{"name":"대판","tel":"031-947-9234","addr":"경기도 파주시 월롱면 덕은리 1248번지","category":"일반휴게음식 - 일반한식"}]},{"lat":"37.810690244","long":"126.75831893","items":[{"name":"GS25 LGD파주복지동B점/삼원FA(담배)","tel":"","addr":"경기도 파주시 월롱면 덕은리 1251번지","category":"기타 - 기타 전문점"},{"name":"GS25LGD파주복지동B점","tel":"","addr":"경기도 파주시 월롱면 덕은리 1251번지","category":"유통업 영리 - 편 의 점"},{"name":"LGDisplay정다운어린이집[아이행복]","tel":"031-937-8191","addr":"경기도 파주시 월롱면 덕은리 1251번지","category":"학원 - 유아원"},{"name":"정다운 세탁소","tel":"031-933-0914","addr":"경기도 파주시 월롱면 덕은리 1251번지 LCDISPLAY정다운마을G/H동1층","category":"수리서비스 - 세탁소"},{"name":"정다운기숙사매점/삼원FA(담배)","tel":"","addr":"경기도 파주시 월롱면 덕은리 1251번지","category":"기타 - 기타 전문점"}]},{"lat":"37.811044228","long":"126.76398443","items":[{"name":"GS25LGD파주A2동점","tel":"","addr":"경기도 파주시 월롱면 덕은리 1239번지","category":"유통업 영리 - 편 의 점"},{"name":"GS25LGD파주R&D점","tel":"","addr":"경기도 파주시 월롱면 덕은리 1239번지","category":"유통업 영리 - 편 의 점"},{"name":"대오상사/삼원FA(담배)","tel":"","addr":"경기도 파주시 월롱면 덕은리 1239번지","category":"기타 - 기타 전문점"},{"name":"상원유통/삼원FA(담배)","tel":"","addr":"경기도 파주시 월롱면 덕은리 1239번지","category":"기타 - 기타 전문점"},{"name":"해성유통/삼원FA(담배)","tel":"","addr":"경기도 파주시 월롱면 덕은리 1239번지","category":"기타 - 기타 전문점"}]},{"lat":"37.804474329","long":"126.76745753","items":[{"name":"GS25LGD파주러닝센터점","tel":"","addr":"경기도 파주시 월롱면 덕은리 1264번지","category":"유통업 영리 - 편 의 점"}]},{"lat":"37.81155169","long":"126.7566581","items":[{"name":"GS25LG기숙사점","tel":"","addr":"경기도 파주시 월롱면 덕은리 1248-1번지","category":"유통업 영리 - 편 의 점"},{"name":"유기택피자","tel":"031-941-4284","addr":"경기도 파주시 월롱면 덕은리 1248-1번지","category":"일반휴게음식 - 서양음식"}]},{"lat":"37.815444562","long":"126.75276117","items":[{"name":"GS25파주스마트점","tel":"","addr":"경기도 파주시 월롱면 덕은리 1235번지","category":"유통업 영리 - 편 의 점"}]},{"lat":"37.812697276","long":"126.77526727","items":[{"name":"K할인마트","tel":"031-941-5647","addr":"경기도 파주시 월롱면 덕은리 524-8번지","category":"유통업 영리 - 슈퍼마켓"}]},{"lat":"37.816110198","long":"126.76087905","items":[{"name":"L.C.D노래연습장","tel":"031-957-3922","addr":"경기도 파주시 월롱면 덕은리 827번지","category":"레저업소 - 노 래 방"}]},{"lat":"37.809474361","long":"126.78128438","items":[{"name":"LG 부분정비 공업사","tel":"031-941-5459","addr":"경기도 파주시 월롱면 덕은리 443번지","category":"자동차정비 유지 - 자동차정비"}]},{"lat":"37.806700045","long":"126.78159927","items":[{"name":"LG냉난방시스템","tel":"031-945-6333","addr":"경기도 파주시 월롱면 덕은리 406번지","category":"용역 서비스 - 기타용역서비스"}]},{"lat":"37.810664238","long":"126.7768747","items":[{"name":"LG모모닭강정","tel":"031-944-9144","addr":"경기도 파주시 월롱면 덕은리 1300번지","category":"일반휴게음식 - 스넥"},{"name":"LP MAKER(엘피 메이커)","tel":"070-8286-8766","addr":"경기도 파주시 월롱면 덕은리 1300번지","category":"기타 - 기타 전문점"},{"name":"T=I","tel":"031-943-1888","addr":"경기도 파주시 월롱면 덕은리 1300번지","category":"보건위생 - 미용원"},{"name":"금영노래연습장","tel":"031-941-5580","addr":"경기도 파주시 월롱면 덕은리 1300번지","category":"레저업소 - 노 래 방"},{"name":"기린 (중화요리)","tel":"031-946-8368","addr":"경기도 파주시 월롱면 덕은리 1300번지","category":"일반휴게음식 - 중국식"},{"name":"김밥나라","tel":"031-957-0450","addr":"경기도 파주시 월롱면 덕은리 1300번지","category":"일반휴게음식 - 일반한식"},{"name":"김밥나라(LCD점)","tel":"031-957-0450","addr":"경기도 파주시 월롱면 덕은리 1300번지","category":"일반휴게음식 - 일반한식"},{"name":"김밥천국","tel":"031-946-0880","addr":"경기도 파주시 월롱면 덕은리 1300번지","category":"일반휴게음식 - 일반한식"},{"name":"깻잎칩킨피자까로","tel":"031-948-1008","addr":"경기도 파주시 월롱면 덕은리 1300번지 LCD파크 140호","category":"일반휴게음식 - 스넥"},{"name":"레어템옴므","tel":"031-948-9897","addr":"경기도 파주시 월롱면 덕은리 1300번지","category":"의류 - 정장"},{"name":"레전드미니마트","tel":"031-949-4959","addr":"경기도 파주시 월롱면 덕은리 1300번지","category":"음료식품 - 기타음료식품"},{"name":"레전드야구존 파주디스플레이점","tel":"031-949-4959","addr":"경기도 파주시 월롱면 덕은리 1300번지","category":"레저업소 - 기타레져업소"},{"name":"맘","tel":"031-942-7880","addr":"경기도 파주시 월롱면 덕은리 1300번지","category":"일반휴게음식 - 일반한식"},{"name":"뭉탱이","tel":"031-941-5955","addr":"경기도 파주시 월롱면 덕은리 1300번지","category":"일반휴게음식 - 일반한식"},{"name":"보노헤어","tel":"031-948-8177","addr":"경기도 파주시 월롱면 덕은리 1300번지","category":"보건위생 - 미용원"},{"name":"삼시세끼","tel":"031-945-3103","addr":"경기도 파주시 월롱면 덕은리 1300번지","category":"일반휴게음식 - 일반한식"},{"name":"생생돈까스","tel":"031-941-0878","addr":"경기도 파주시 월롱면 덕은리 1300번지","category":"일반휴게음식 - 일반한식"},{"name":"수 양꼬치","tel":"031-000-0000","addr":"경기도 파주시 월롱면 덕은리 1300번지","category":"일반휴게음식 - 일반한식"},{"name":"오사카부루스","tel":"031-942-2344","addr":"경기도 파주시 월롱면 덕은리 1300번지","category":"일반휴게음식 - 일반한식"},{"name":"우마이쇼쿠도","tel":"070-7722-3846","addr":"경기도 파주시 월롱면 덕은리 1300번지","category":"일반휴게음식 - 일반한식"},{"name":"울랄라섹션","tel":"070-5121-6771","addr":"경기도 파주시 월롱면 덕은리 1300번지","category":"신변잡화 - 기타잡화"},{"name":"이대표 파주LCD점","tel":"031-949-5839","addr":"경기도 파주시 월롱면 덕은리 1300번지","category":"일반휴게음식 - 일반한식"},{"name":"임실치즈피자","tel":"02-949-4008","addr":"경기도 파주시 월롱면 덕은리 1300번지","category":"일반휴게음식 - 서양음식"},{"name":"쭈꾸미&삼겹","tel":"031-942-0737","addr":"경기도 파주시 월롱면 덕은리 1300번지 LCD파크상가제에이동 121","category":"일반휴게음식 - 일반한식"},{"name":"컬투치킨 파주LCD사랑점","tel":"031-952-1010","addr":"경기도 파주시 월롱면 덕은리 1300번지","category":"일반휴게음식 - 스넥"},{"name":"큐당구장","tel":"070-8129-9794","addr":"경기도 파주시 월롱면 덕은리 1300번지","category":"레저업소 - 당 구 장"},{"name":"파리바게트(파주LCD점)","tel":"031-949-0459","addr":"경기도 파주시 월롱면 덕은리 1300번지","category":"음료식품 - 제과점"},{"name":"편한몸만들기","tel":"031-946-6018","addr":"경기도 파주시 월롱면 덕은리 1300번지","category":"보건위생 - 기타대인서비스"},{"name":"한양짬뽕플러스","tel":"070-4139-9900","addr":"경기도 파주시 월롱면 덕은리 1300번지","category":"일반휴게음식 - 일반한식"},{"name":"한음컴퓨텍","tel":"070-8286-8766","addr":"경기도 파주시 월롱면 덕은리 1300번지","category":"기타 - 기타 전문점"},{"name":"헤어티지","tel":"031-946-2503","addr":"경기도 파주시 월롱면 덕은리 1300번지","category":"보건위생 - 미용원"}]},{"lat":"37.787254799","long":"126.77537938","items":[{"name":"PM E&C","tel":"031-946-6660","addr":"경기도 파주시 월롱면 덕은리 140-38","category":"기타 - 기계공구"},{"name":"동아목재","tel":"031-953-9817","addr":"경기도 파주시 월롱면 덕은리 140-38번지","category":"건축자재 - 기타건축자재"}]},{"lat":"37.811413518","long":"126.77765599","items":[{"name":"S헤어살롱","tel":"031-959-5430","addr":"경기도 파주시 월롱면 덕은리 1284번지","category":"보건위생 - 미용원"},{"name":"개쫓는닭","tel":"031-942-9691","addr":"경기도 파주시 월롱면 덕은리 1284번지","category":"일반휴게음식 - 일반한식"},{"name":"그린","tel":"031-944-0963","addr":"경기도 파주시 월롱면 덕은리 1284번지 112(DA-LCD플라자12호중일부)","category":"보건위생 - 화장품"},{"name":"다마당구클럽","tel":"031-948-1661","addr":"경기도 파주시 월롱면 덕은리 1284번지","category":"레저업소 - 당 구 장"},{"name":"소담골","tel":"031-946-4982","addr":"경기도 파주시 월롱면 덕은리 1284번지 122(DA-LCD프라자122호~124호)","category":"일반휴게음식 - 일반한식"},{"name":"소문난뼈해장국","tel":"031-957-5510","addr":"경기도 파주시 월롱면 덕은리 1284번지","category":"일반휴게음식 - 일반한식"},{"name":"스마일찹쌀꽈배기","tel":"031-948-5773","addr":"경기도 파주시 월롱면 덕은리 1284번지","category":"일반휴게음식 - 일반한식"},{"name":"씨유파주LCD본점","tel":"080-080-3663","addr":"경기도 파주시 월롱면 덕은리 1284번지","category":"유통업 영리 - 편 의 점"},{"name":"엘지건강","tel":"031-942-2205","addr":"경기도 파주시 월롱면 덕은리 1284번지","category":"신변잡화 - 액세서리"},{"name":"엘지약국","tel":"031-946-9950","addr":"경기도 파주시 월롱면 덕은리 1284번지","category":"약국 - 약국"},{"name":"치킨히어로","tel":"031-946-5552","addr":"경기도 파주시 월롱면 덕은리 1284번지","category":"일반휴게음식 - 일반한식"},{"name":"퀸노래연습장","tel":"031-946-5553","addr":"경기도 파주시 월롱면 덕은리 1284번지","category":"레저업소 - 노 래 방"},{"name":"한솥도시락파주LCD8공구점","tel":"031-942-8046","addr":"경기도 파주시 월롱면 덕은리 1284번지","category":"일반휴게음식 - 일반한식"}]},{"lat":"37.789306636","long":"126.77886973","items":[{"name":"Team R. S (자모)","tel":"031-943-6326","addr":"경기도 파주시 월롱면 덕은리 135-2번지","category":"자동차정비 유지 - 카인테리어"}]},{"lat":"37.81563598","long":"126.7624819","items":[{"name":"거북이감자탕 주식회사","tel":"031-944-5773","addr":"경기도 파주시 월롱면 덕은리 844-1번지","category":"일반휴게음식 - 일반한식"}]},{"lat":"37.78425091","long":"126.76887257","items":[{"name":"검바위식당","tel":"","addr":"경기도 파주시 월롱면 덕은리 223-19번지","category":"일반휴게음식 - 일반한식"}]},{"lat":"37.811445189","long":"126.75743067","items":[{"name":"고기굽는 놈","tel":"031-945-9203","addr":"경기도 파주시 월롱면 덕은리 1250-5번지","category":"일반휴게음식 - 일반한식"},{"name":"네네치킨파주LCD점","tel":"031-949-3536","addr":"경기도 파주시 월롱면 덕은리 1250-5번지","category":"일반휴게음식 - 스넥"},{"name":"숨","tel":"02-000-0000","addr":"경기도 파주시 월롱면 덕은리 1250-5번지","category":"일반휴게음식 - 일반한식"},{"name":"압구정 봉구비어","tel":"070-7539-4137","addr":"경기도 파주시 월롱면 덕은리 1250-5번지","category":"일반휴게음식 - 일반한식"},{"name":"오라이숯불닭갈비","tel":"031-941-2881","addr":"경기도 파주시 월롱면 덕은리 1250-5번지","category":"일반휴게음식 - 일반한식"},{"name":"올리브영파주LCD점","tel":"031-944-6053","addr":"경기도 파주시 월롱면 덕은리 1250-5","category":"유통업 영리 - 편 의 점"},{"name":"위(We)헤어","tel":"031-942-6616","addr":"경기도 파주시 월롱면 덕은리 1250-5번지","category":"보건위생 - 미용원"}]},{"lat":"37.811886958","long":"126.7755423","items":[{"name":"고기야고기야","tel":"031-945-5383","addr":"경기도 파주시 월롱면 덕은리 1278-7번지","category":"일반휴게음식 - 일반한식"}]},{"lat":"37.812055739","long":"126.7564293","items":[{"name":"고집불통","tel":"","addr":"경기도 파주시 월롱면 덕은리 1250번지","category":"일반휴게음식 - 일반한식"},{"name":"메카당구클럽","tel":"","addr":"경기도 파주시 월롱면 덕은리 1250번지","category":"레저업소 - 당 구 장"},{"name":"송희네한식부페","tel":"031-948-1452","addr":"경기도 파주시 월롱면 덕은리 1250번지","category":"일반휴게음식 - 일반한식"},{"name":"오사마LG기숙사점","tel":"","addr":"경기도 파주시 월롱면 덕은리 1250번지","category":"일반휴게음식 - 일반한식"},{"name":"화개장터","tel":"031-941-0018","addr":"경기도 파주시 월롱면 덕은리 1250번지","category":"일반휴게음식 - 일반한식"}]},{"lat":"37.820086835","long":"126.75390397","items":[{"name":"고향한식부페","tel":"031-948-3529","addr":"경기도 파주시 월롱면 덕은리 769-2","category":"일반휴게음식 - 일반한식"}]},{"lat":"37.793250682","long":"126.7777679","items":[{"name":"공간","tel":"031-911-1912","addr":"경기도 파주시 월롱면 덕은리 117-13번지","category":"가구 - 일반가구"}]},{"lat":"37.807971413","long":"126.7821519","items":[{"name":"국신엔지니어링","tel":"031-944-9922","addr":"경기도 파주시 월롱면 덕은리 414-6번지","category":"기타 - 기계공구"},{"name":"마마스식당","tel":"","addr":"경기도 파주시 월롱면 덕은리 414-6번지","category":"일반휴게음식 - 일반한식"},{"name":"씨유파주LCD2호점","tel":"031-949-1608","addr":"경기도 파주시 월롱면 덕은리 414-6번지","category":"유통업 영리 - 편 의 점"}]},{"lat":"37.786088674","long":"126.76878731","items":[{"name":"그린라이프","tel":"02-3393-2206","addr":"경기도 파주시 월롱면 덕은리 226-80번지","category":"신변잡화 - 기타잡화"}]},{"lat":"37.811552899","long":"126.75723726","items":[{"name":"금강산","tel":"031-943-5171","addr":"경기도 파주시 월롱면 덕은리 1250-4번지","category":"일반휴게음식 - 일반한식"},{"name":"불불이족발","tel":"031-943-1592","addr":"경기도 파주시 월롱면 덕은리 1250-4번지","category":"일반휴게음식 - 일반한식"},{"name":"스시락","tel":"031-943-3322","addr":"경기도 파주시 월롱면 덕은리 1250-4번지","category":"일반휴게음식 - 일식·회집"},{"name":"실내포차","tel":"031-949-6981","addr":"경기도 파주시 월롱면 덕은리 1250-4번지","category":"일반휴게음식 - 일반한식"},{"name":"정다운노래연습장","tel":"031-944-2690","addr":"경기도 파주시 월롱면 덕은리 1250-4번지","category":"레저업소 - 노 래 방"}]},{"lat":"37.810996407","long":"126.77626046","items":[{"name":"금강산","tel":"031-941-5156","addr":"경기도 파주시 월롱면 덕은리 1293-4번지","category":"일반휴게음식 - 일반한식"}]},{"lat":"37.783390448","long":"126.77112295","items":[{"name":"금성 E.N.G","tel":"031-942-8085","addr":"경기도 파주시 월롱면 덕은리 223-9번지","category":"기타 - 기계공구"}]},{"lat":"37.808920674","long":"126.76087981","items":[{"name":"김가네 파주 (LCD) 점","tel":"031-933-1004","addr":"경기도 파주시 월롱면 덕은리 1253번지","category":"일반휴게음식 - 스넥"},{"name":"머리를수놓다hair","tel":"070-7614-3579","addr":"경기도 파주시 월롱면 덕은리 1253번지","category":"보건위생 - 미용원"},{"name":"정다운PC방","tel":"070-4032-2037","addr":"경기도 파주시 월롱면 덕은리 1253번지","category":"레저업소 - 기타레져업소"},{"name":"정다운치과","tel":"031-8074-0428","addr":"경기도 파주시 월롱면 덕은리 1253번지","category":"의원 - 치과의원"},{"name":"해늘/삼원FA(담배)","tel":"031-957-9545","addr":"경기도 파주시 월롱면 덕은리 1253번지","category":"기타 - 기타 전문점"}]},{"lat":"37.811309243","long":"126.75704501","items":[{"name":"깜쪽","tel":"031-943-0992","addr":"경기도 파주시 월롱면 덕은리 1248-3번지","category":"일반휴게음식 - 일반한식"},{"name":"유앤아이","tel":"031-949-4185","addr":"경기도 파주시 월롱면 덕은리 1248-3번지","category":"신변잡화 - 액세서리"}]},{"lat":"37.813167137","long":"126.77134788","items":[{"name":"남일벨트산업","tel":"031-957-3315","addr":"경기도 파주시 월롱면 덕은리 659번지","category":"기타 - 기계공구"}]},{"lat":"37.787194673","long":"126.77225766","items":[{"name":"내고향","tel":"031-943-1355","addr":"경기도 파주시 월롱면 덕은리 238-2번지","category":"일반휴게음식 - 일반한식"}]},{"lat":"37.81197635","long":"126.77517863","items":[{"name":"농가골2","tel":"031-946-8555","addr":"경기도 파주시 월롱면 덕은리 1278-5번지","category":"일반휴게음식 - 일반한식"},{"name":"잠실감자탕(LCD점)","tel":"031-942-4600","addr":"경기도 파주시 월롱면 덕은리 1278-5번지","category":"일반휴게음식 - 일반한식"}]},{"lat":"37.794389927","long":"126.7798989","items":[{"name":"농업회사법인 다과 주식회사","tel":"031-954-7786","addr":"경기도 파주시 월롱면 덕은리 103-14번지","category":"음료식품 - 기타음료식품"}]},{"lat":"37.780478746","long":"126.77490069","items":[{"name":"농업회사법인(주)송이원","tel":"031-941-3335","addr":"경기도 파주시 월롱면 덕은리 186-1번지","category":"건강식품 - 인삼제품"},{"name":"프로방스 정원 카페/농업회사법인 프로방스","tel":"070-8778-3100","addr":"경기도 파주시 월롱면 덕은리 186-1번지","category":"문화.취미 - 화원"}]},{"lat":"37.811829982","long":"126.75618021","items":[{"name":"누나홀닭","tel":"031-948-7272","addr":"경기도 파주시 월롱면 덕은리 1247번지","category":"일반휴게음식 - 일반한식"},{"name":"땡기는양꼬치","tel":"031-941-2080","addr":"경기도 파주시 월롱면 덕은리 1247번지","category":"일반휴게음식 - 일반한식"},{"name":"박가부대찌개","tel":"031-944-2995","addr":"경기도 파주시 월롱면 덕은리 1247번지","category":"일반휴게음식 - 일반한식"},{"name":"아구네포차","tel":"031-957-0009","addr":"경기도 파주시 월롱면 덕은리 1247번지","category":"일반휴게음식 - 일반한식"},{"name":"앨리스까페호프","tel":"031-942-9753","addr":"경기도 파주시 월롱면 덕은리 1247번지","category":"일반휴게음식 - 서양음식"},{"name":"월롱찌개","tel":"031-941-3310","addr":"경기도 파주시 월롱면 덕은리 1247번지","category":"일반휴게음식 - 일반한식"},{"name":"청기와감자탕","tel":"031-942-8181","addr":"경기도 파주시 월롱면 덕은리 1247번지","category":"일반휴게음식 - 일반한식"}]},{"lat":"37.811276985","long":"126.77692962","items":[{"name":"뉴 LCD 당구장","tel":"031-000-0000","addr":"경기도 파주시 월롱면 덕은리 1297번지","category":"레저업소 - 당 구 장"},{"name":"뉴LCD노래연습장","tel":"031-947-0491","addr":"경기도 파주시 월롱면 덕은리 1297번지","category":"레저업소 - 노 래 방"},{"name":"닐리비스트로 파주LCD산업단지점","tel":"031-948-1555","addr":"경기도 파주시 월롱면 덕은리 1297번지 시티프라자 101호","category":"일반휴게음식 - 서양음식"},{"name":"리빙웰","tel":"031-948-0070","addr":"경기도 파주시 월롱면 덕은리 1297번지","category":"신변잡화 - 기타잡화"},{"name":"미담","tel":"031-945-2002","addr":"경기도 파주시 월롱면 덕은리 1297번지","category":"일반휴게음식 - 일반한식"},{"name":"카페크림","tel":"031-944-3358","addr":"경기도 파주시 월롱면 덕은리 1297번지","category":"일반휴게음식 - 서양음식"}]},{"lat":"37.811643595","long":"126.77548627","items":[{"name":"뉴그린환경","tel":"031-964-5410","addr":"경기도 파주시 월롱면 덕은리 1291-6번지","category":"용역 서비스 - 기타용역서비스"},{"name":"홍구네두번삶은족발","tel":"031-945-2596","addr":"경기도 파주시 월롱면 덕은리 1291-6번지","category":"일반휴게음식 - 일반한식"}]},{"lat":"37.810726388","long":"126.77639756","items":[{"name":"다담다어시장","tel":"","addr":"경기도 파주시 월롱면 덕은리 1297-3번지","category":"일반휴게음식 - 일반한식"}]},{"lat":"37.793921179","long":"126.77976407","items":[{"name":"다래울","tel":"031-939-8186","addr":"경기도 파주시 월롱면 덕은리 103-2 2/1","category":"일반휴게음식 - 일반한식"},{"name":"다래울","tel":"031-939-8186","addr":"경기도 파주시 월롱면 덕은리 103-2 2/1","category":"사무통신 - 통신기기"},{"name":"다래울","tel":"031-939-8186","addr":"경기도 파주시 월롱면 덕은리 103-2번지","category":"일반휴게음식 - 일반한식"}]},{"lat":"37.818499284","long":"126.75729374","items":[{"name":"다찬뷔페","tel":"031-944-4354","addr":"경기도 파주시 월롱면 덕은리 772-25번지","category":"일반휴게음식 - 일반한식"},{"name":"세븐일레븐파주힐링점","tel":"031-1577-0711","addr":"경기도 파주시 월롱면 덕은리 772-25번지","category":"유통업 영리 - 편 의 점"}]},{"lat":"37.787387808","long":"126.76968006","items":[{"name":"대대숯불갈비","tel":"02-1111-1111","addr":"경기도 파주시 월롱면 덕은리 224-2번지","category":"일반휴게음식 - 일반한식"},{"name":"카페롱","tel":"","addr":"경기도 파주시 월롱면 덕은리 224-2번지","category":"일반휴게음식 - 서양음식"}]},{"lat":"37.799669044","long":"126.78448153","items":[{"name":"대주산업 주식회사","tel":"031-949-2353","addr":"경기도 파주시 월롱면 덕은리 325-4번지","category":"건축자재 - 기타건축자재"}]},{"lat":"37.811357525","long":"126.77664547","items":[{"name":"대통순","tel":"031-947-8598","addr":"경기도 파주시 월롱면 덕은리 1293-7번지","category":"일반휴게음식 - 일반한식"}]},{"lat":"37.811554202","long":"126.77584994","items":[{"name":"더통큰생오리세상월롱점","tel":"031-945-5291","addr":"경기도 파주시 월롱면 덕은리 1292번지 1층","category":"일반휴게음식 - 일반한식"}]},{"lat":"37.788333364","long":"126.76495442","items":[{"name":"더홈 디자인 가구","tel":"","addr":"경기도 파주시 월롱면 덕은리 226-125번지","category":"가구 - 일반가구"},{"name":"더홈디자인가구","tel":"031-408-5997","addr":"경기도 파주시 월롱면 덕은리 226-125번지","category":"가구 - 일반가구"},{"name":"주식회사 황보산업","tel":"031-945-3665","addr":"경기도 파주시 월롱면 덕은리 226-125번지","category":"음료식품 - 기타음료식품"},{"name":"홈 스데이스","tel":"031-944-5620","addr":"경기도 파주시 월롱면 덕은리 226-125번지","category":"가구 - 일반가구"}]},{"lat":"37.801366333","long":"126.7815357","items":[{"name":"덕삼자동차공업사","tel":"031-945-1245","addr":"경기도 파주시 월롱면 덕은리 338-8번지","category":"자동차정비 유지 - 자동차정비"}]},{"lat":"37.817304484","long":"126.75895582","items":[{"name":"덕은슈퍼","tel":"031-845-0874","addr":"경기도 파주시 월롱면 덕은리 816-4","category":"유통업 영리 - 슈퍼마켓"},{"name":"선우모터스","tel":"031-948-1218","addr":"경기도 파주시 월롱면 덕은리 816-4번지","category":"자동차정비 유지 - 카인테리어"},{"name":"편의마트","tel":"070-4245-1871","addr":"경기도 파주시 월롱면 덕은리 816-4번지","category":"유통업 영리 - 슈퍼마켓"}]},{"lat":"37.813332769","long":"126.76854233","items":[{"name":"도매스토리","tel":"031-947-2224","addr":"경기도 파주시 월롱면 덕은리 663-14번지","category":"문화.취미 - 화원"}]},{"lat":"37.803331021","long":"126.78187048","items":[{"name":"도양식당","tel":"070-4686-9412","addr":"경기도 파주시 월롱면 덕은리 60-2번지","category":"일반휴게음식 - 일반한식"}]},{"lat":"37.803140416","long":"126.78112163","items":[{"name":"도영펌프카","tel":"031-957-5888","addr":"경기도 파주시 월롱면 덕은리 377- 11 외1필지","category":"기타 - 기계공구"},{"name":"서영종합상사","tel":"031-957-5887","addr":"경기도 파주시 월롱면 덕은리 377-11","category":"건축자재 - 목재·석재·철물"}]},{"lat":"37.811804249","long":"126.7747022","items":[{"name":"돈이야기","tel":"031-944-9474","addr":"경기도 파주시 월롱면 덕은리 1290번지","category":"일반휴게음식 - 일반한식"}]},{"lat":"37.812279231","long":"126.77340613","items":[{"name":"돌판 고추장불고기","tel":"031-943-1989","addr":"경기도 파주시 월롱면 덕은리 1275번지","category":"일반휴게음식 - 일반한식"}]},{"lat":"37.811087462","long":"126.77675985","items":[{"name":"돌판에누운삼겹살","tel":"02-000-0000","addr":"경기도 파주시 월롱면 덕은리 1297-1번지","category":"일반휴게음식 - 일반한식"},{"name":"슈즈크린 파주LCD점","tel":"031-942-2524","addr":"경기도 파주시 월롱면 덕은리 1297-1번지","category":"수리서비스 - 세탁소"},{"name":"혜림프라자","tel":"031-941-1822","addr":"경기도 파주시 월롱면 덕은리 1297-1번지","category":"학원 - 독서실"}]},{"lat":"37.811500561","long":"126.77606587","items":[{"name":"동대문닭한마리","tel":"031-942-5553","addr":"경기도 파주시 월롱면 덕은리 1292-9번지","category":"일반휴게음식 - 일반한식"}]},{"lat":"37.813055716","long":"126.77426681","items":[{"name":"동양지티씨","tel":"031-942-9556","addr":"경기도 파주시 월롱면 덕은리 522-4번지","category":"기타 - 기계공구"},{"name":"파주식당","tel":"031-948-1399","addr":"경기도 파주시 월롱면 덕은리 522-4번지","category":"일반휴게음식 - 일반한식"}]},{"lat":"37.785999368","long":"126.76918492","items":[{"name":"동현 인터내셔날","tel":"070-4699-1400","addr":"경기도 파주시 월롱면 덕은리 226-10번지","category":"유통업 영리 - 기타유통업"}]},{"lat":"37.78663948","long":"126.76490309","items":[{"name":"드림퍼니쳐","tel":"031-8071-1901","addr":"경기도 파주시 월롱면 덕은리 226-164번지","category":"주방용구 - 주방용구"}]},{"lat":"37.807879536","long":"126.76281365","items":[{"name":"디스플레이 안경원","tel":"031-933-1004","addr":"경기도 파주시 월롱면 덕은리 1253번지","category":"보건위생 - 안경"}]},{"lat":"37.808691909","long":"126.78201349","items":[{"name":"또봉이통닭","tel":"031-948-5511","addr":"경기도 파주시 월롱면 덕은리 414-2번지","category":"일반휴게음식 - 스넥"},{"name":"부산돼지국밥(파주점)","tel":"031-948-5266","addr":"경기도 파주시 월롱면 덕은리 414-2번지","category":"일반휴게음식 - 일반한식"},{"name":"카페코스모","tel":"031-945-3059","addr":"경기도 파주시 월롱면 덕은리 414-2번지","category":"일반휴게음식 - 서양음식"}]},{"lat":"37.812807031","long":"126.77611865","items":[{"name":"루빈루","tel":"031-945-6899","addr":"경기도 파주시 월롱면 덕은리 509-6번지","category":"일반휴게음식 - 중국식"},{"name":"얼큰이부대찌개","tel":"031-957-0105","addr":"경기도 파주시 월롱면 덕은리 509-6번지","category":"일반휴게음식 - 일반한식"}]},{"lat":"37.818361184","long":"126.76021299","items":[{"name":"리첸편의점","tel":"02-2679-6605","addr":"경기도 파주시 월롱면 덕은리 913번지","category":"유통업 영리 - 편 의 점"},{"name":"수원한식부페","tel":"031-943-0211","addr":"경기도 파주시 월롱면 덕은리 913번지","category":"일반휴게음식 - 일반한식"}]},{"lat":"37.811940685","long":"126.7753718","items":[{"name":"마파치킨","tel":"031-947-4777","addr":"경기도 파주시 월롱면 덕은리 1278-6번지","category":"일반휴게음식 - 스넥"}]},{"lat":"37.811390367","long":"126.77498738","items":[{"name":"맛있는고기","tel":"031-944-3392","addr":"경기도 파주시 월롱면 덕은리 1291-2번지","category":"일반휴게음식 - 일반한식"}]},{"lat":"37.812304969","long":"126.77740345","items":[{"name":"맛짱","tel":"031-949-9277","addr":"경기도 파주시 월롱면 덕은리 1034","category":"일반휴게음식 - 일반한식"}]},{"lat":"37.781674688","long":"126.7737051","items":[{"name":"맥과이어스","tel":"031-945-1007","addr":"경기도 파주시 월롱면 덕은리 192-3번지","category":"자동차정비 유지 - 카인테리어"}]},{"lat":"37.811610545","long":"126.78178903","items":[{"name":"모든창","tel":"031-946-4097","addr":"경기도 파주시 월롱면 덕은리 1047-7번지","category":"직물 - 카페트,커튼,천막,지물"}]},{"lat":"37.79928154","long":"126.77962305","items":[{"name":"미강스포츠","tel":"031-945-6884","addr":"경기도 파주시 월롱면 덕은리 306-3 제1호","category":"레져용품 - 스포츠·레져용품"}]},{"lat":"37.812808619","long":"126.76773769","items":[{"name":"미래상사","tel":"031-947-4033","addr":"경기도 파주시 월롱면 덕은리 663-18번지","category":"의류 - 정장"}]},{"lat":"37.811420176","long":"126.77642951","items":[{"name":"미운돼지새끼","tel":"031-000-0000","addr":"경기도 파주시 월롱면 덕은리 1293번지","category":"일반휴게음식 - 일반한식"}]},{"lat":"37.800255181","long":"126.78476367","items":[{"name":"미친찌개","tel":"031-943-2272","addr":"경기도 파주시 월롱면 덕은리 333-3번지","category":"일반휴게음식 - 일반한식"},{"name":"오홍양꼬치","tel":"031-948-0818","addr":"경기도 파주시 월롱면 덕은리 333-3번지","category":"일반휴게음식 - 일반한식"}]},{"lat":"37.819278214","long":"126.76367396","items":[{"name":"민속 칼국수","tel":"031-945-0045","addr":"경기도 파주시 월롱면 덕은리 926-1번지","category":"일반휴게음식 - 일반한식"}]},{"lat":"37.811416952","long":"126.7568516","items":[{"name":"민아트","tel":"070-8979-6224","addr":"경기도 파주시 월롱면 덕은리 1248-2번지 프렌즈 103호","category":"문화.취미 - 민예·공예품"},{"name":"이수정헤어","tel":"031-948-3445","addr":"경기도 파주시 월롱면 덕은리 1248-2번지 102호","category":"보건위생 - 미용원"}]},{"lat":"37.811753086","long":"126.77620137","items":[{"name":"바비큐타임","tel":"031-947-1085","addr":"경기도 파주시 월롱면 덕은리 1281-1번지","category":"일반휴게음식 - 일반한식"}]},{"lat":"37.812198223","long":"126.77811921","items":[{"name":"박사건축공인중개사사무소","tel":"031-944-7665","addr":"경기도 파주시 월롱면 덕은리 1036번지","category":"용역 서비스 - 부동산 중개·임대"}]},{"lat":"37.802139902","long":"126.78087482","items":[{"name":"발해food","tel":"031-948-9877","addr":"경기도 파주시 월롱면 덕은리 376번지","category":"일반휴게음식 - 일반한식"}]},{"lat":"37.811947345","long":"126.77884677","items":[{"name":"백년불보쌈족발","tel":"031-946-7878","addr":"경기도 파주시 월롱면 덕은리 1038번지","category":"일반휴게음식 - 일반한식"}]},{"lat":"37.811699423","long":"126.77640595","items":[{"name":"밸런스커피","tel":"031-948-7919","addr":"경기도 파주시 월롱면 덕은리 1281-2번지","category":"일반휴게음식 - 일반한식"}]},{"lat":"37.811696646","long":"126.75704373","items":[{"name":"별주부전","tel":"070-7517-0999","addr":"경기도 파주시 월롱면 덕은리 1250-3번지","category":"일반휴게음식 - 일반한식"}]},{"lat":"37.81288678","long":"126.77542567","items":[{"name":"빨간분식","tel":"031-947-9467","addr":"경기도 파주시 월롱면 덕은리 509-3번지","category":"일반휴게음식 - 스넥"},{"name":"연경이네","tel":"031-957-2280","addr":"경기도 파주시 월롱면 덕은리 509-3번지","category":"일반휴게음식 - 일반한식"},{"name":"피자스토어","tel":"031-943-5437","addr":"경기도 파주시 월롱면 덕은리 509-3번지","category":"일반휴게음식 - 서양음식"}]},{"lat":"37.811806727","long":"126.77598544","items":[{"name":"산내음","tel":"031-945-4446","addr":"경기도 파주시 월롱면 덕은리 1281번지 103호","category":"일반휴게음식 - 일반한식"}]},{"lat":"37.800781611","long":"126.77725681","items":[{"name":"산마루","tel":"031-942-1567","addr":"경기도 파주시 월롱면 덕은리 387-25번지","category":"일반휴게음식 - 일반한식"},{"name":"씨피씨개발주식회사","tel":"031-947-0754","addr":"경기도 파주시 월롱면 덕은리 387-25","category":"레저업소 - 골프연습장"},{"name":"필립스골프샵","tel":"031-942-1233","addr":"경기도 파주시 월롱면 덕은리 387-25번지 필립스골프아카데미 1층","category":"레져용품 - 골프용품 전문점"}]},{"lat":"37.800808219","long":"126.78178716","items":[{"name":"삼거리식당","tel":"031-945-0637","addr":"경기도 파주시 월롱면 덕은리 340-12번지","category":"일반휴게음식 - 일반한식"}]},{"lat":"37.811529771","long":"126.77720139","items":[{"name":"새벽식당","tel":"031-941-8941","addr":"경기도 파주시 월롱면 덕은리 1281-6번지","category":"일반휴게음식 - 일반한식"}]},{"lat":"37.811192524","long":"126.75723845","items":[{"name":"샌드위치앤커피","tel":"031-945-7782","addr":"경기도 파주시 월롱면 덕은리 1248-4번지","category":"일반휴게음식 - 일반한식"}]},{"lat":"37.811086174","long":"126.77608985","items":[{"name":"서울한식뷔페","tel":"","addr":"경기도 파주시 월롱면 덕은리 1293-3번지","category":"일반휴게음식 - 일반한식"}]},{"lat":"37.807223421","long":"126.78204057","items":[{"name":"선진","tel":"070-8231-8563","addr":"경기도 파주시 월롱면 덕은리 414-7번지","category":"신변잡화 - 기타잡화"}]},{"lat":"37.810529249","long":"126.7817014","items":[{"name":"세양계전","tel":"031-948-0250","addr":"경기도 파주시 월롱면 덕은리 1062번지","category":"전기제품 - 기타전기제품"}]},{"lat":"37.797699185","long":"126.78137633","items":[{"name":"세움시스템","tel":"031-949-6223","addr":"경기도 파주시 월롱면 덕은리 313-8번지","category":"가구 - 일반가구"}]},{"lat":"37.812253374","long":"126.77400809","items":[{"name":"순악갯마을","tel":"031-945-1157","addr":"경기도 파주시 월롱면 덕은리 1275-3번지","category":"일반휴게음식 - 일반한식"}]},{"lat":"37.811804284","long":"126.75681625","items":[{"name":"술그머니","tel":"031-2678-7789","addr":"경기도 파주시 월롱면 덕은리 1250-2번지","category":"일반휴게음식 - 일반한식"},{"name":"한솥도시락LCD기숙사점","tel":"031-933-1544","addr":"경기도 파주시 월롱면 덕은리 1250-2번지","category":"일반휴게음식 - 스넥"}]},{"lat":"37.813196503","long":"126.7725402","items":[{"name":"씨유LG로점","tel":"031-948-5424","addr":"경기도 파주시 월롱면 덕은리 1015번지","category":"유통업 영리 - 편 의 점"},{"name":"한양food","tel":"070-3892-5741","addr":"경기도 파주시 월롱면 덕은리 1015번지","category":"일반휴게음식 - 일반한식"}]},{"lat":"37.811663757","long":"126.77659911","items":[{"name":"씨유파주LCD5호점","tel":"031-945-7445","addr":"경기도 파주시 월롱면 덕은리 1281-3번지","category":"유통업 영리 - 편 의 점"}]},{"lat":"37.800782658","long":"126.7825707","items":[{"name":"씨유파주월롱로드점","tel":"031-941-1748","addr":"경기도 파주시 월롱면 덕은리 341-3번지","category":"유통업 영리 - 편 의 점"},{"name":"한일침구","tel":"","addr":"경기도 파주시 월롱면 덕은리 341-3번지","category":"직물 - 침구·수예점"}]},{"lat":"37.801581832","long":"126.781149","items":[{"name":"아이리스카페","tel":"031-111-1111","addr":"경기도 파주시 월롱면 덕은리 379-1번지","category":"일반휴게음식 - 서양음식"}]},{"lat":"37.813139238","long":"126.77090507","items":[{"name":"알파 파주월롱점","tel":"031-942-5113","addr":"경기도 파주시 월롱면 덕은리 660번지","category":"서적문구 - 문구용품"}]},{"lat":"37.815939743","long":"126.76123167","items":[{"name":"양자강","tel":"031-957-0210","addr":"경기도 파주시 월롱면 덕은리 827-1번지","category":"일반휴게음식 - 중국식"}]},{"lat":"37.799915968","long":"126.78161951","items":[{"name":"엄마손맛식당","tel":"031-945-0150","addr":"경기도 파주시 월롱면 덕은리 335-13번지","category":"일반휴게음식 - 일반한식"}]},{"lat":"37.811304439","long":"126.7819035","items":[{"name":"에이비씨테크","tel":"031-945-0057","addr":"경기도 파주시 월롱면 덕은리 1056-1번지","category":"신변잡화 - 기타잡화"},{"name":"타이거운수(주)","tel":"031-957-6703","addr":"경기도 파주시 월롱면 덕은리 1056-1번지","category":"여행 - 렌터카"}]},{"lat":"37.812137112","long":"126.77445134","items":[{"name":"연탄깡통","tel":"031-945-1367","addr":"경기도 파주시 월롱면 덕은리 1278-1번지","category":"일반휴게음식 - 일반한식"}]},{"lat":"37.818139478","long":"126.7575675","items":[{"name":"연화한식부페","tel":"031-945-2228","addr":"경기도 파주시 월롱면 덕은리 903번지","category":"일반휴게음식 - 일반한식"},{"name":"연화한식부페","tel":"031-945-2228","addr":"경기도 파주시 월롱면 덕은리 903번지","category":"일반휴게음식 - 일반한식"},{"name":"청정슈퍼","tel":"031-945-2229","addr":"경기도 파주시 월롱면 덕은리 903번지","category":"유통업 영리 - 슈퍼마켓"}]},{"lat":"37.815221943","long":"126.76267631","items":[{"name":"옛날통닭엘지로점","tel":"031-949-3909","addr":"경기도 파주시 월롱면 덕은리 845번지","category":"일반휴게음식 - 스넥"}]},{"lat":"37.811525771","long":"126.77512323","items":[{"name":"오리떼","tel":"031-958-7000","addr":"경기도 파주시 월롱면 덕은리 1291-1번지","category":"일반휴게음식 - 일반한식"}]},{"lat":"37.811028215","long":"126.7787587","items":[{"name":"오토오아시스 파주LCD점","tel":"031-957-6003","addr":"경기도 파주시 월롱면 덕은리 555-4번지","category":"자동차정비 유지 - 자동차정비"}]},{"lat":"37.798111379","long":"126.76631961","items":[{"name":"용상사","tel":"031-945-4489","addr":"경기도 파주시 월롱면 덕은리 산137-1번지","category":"기타 - 비영리/대상"}]},{"lat":"37.815941974","long":"126.76232191","items":[{"name":"우리식당","tel":"031-948-4009","addr":"경기도 파주시 월롱면 덕은리 833-1번지","category":"일반휴게음식 - 일반한식"}]},{"lat":"37.784726919","long":"126.76812184","items":[{"name":"우리인쇄","tel":"031-942-7442","addr":"경기도 파주시 월롱면 덕은리 223-17번지","category":"서적문구 - 출판 및 인쇄물"}]},{"lat":"37.816307774","long":"126.76057177","items":[{"name":"원이앤티(원E&T)","tel":"031-948-1875","addr":"경기도 파주시 월롱면 덕은리 826번지","category":"기타 - 기계공구"},{"name":"황소한식부페","tel":"031-948-0056","addr":"경기도 파주시 월롱면 덕은리 826번지","category":"일반휴게음식 - 일반한식"}]},{"lat":"37.801609693","long":"126.78159175","items":[{"name":"월롱 풍요정","tel":"031-942-9254","addr":"경기도 파주시 월롱면 덕은리 338-1번지","category":"일반휴게음식 - 일반한식"}]},{"lat":"37.808143208","long":"126.7824807","items":[{"name":"월롱점 현대자동차","tel":"031-948-2225","addr":"경기도 파주시 월롱면 덕은리 416-3번지","category":"자동차정비 유지 - 자동차정비"}]},{"lat":"37.816301954","long":"126.76212768","items":[{"name":"월롱정육점","tel":"031-945-1255","addr":"경기도 파주시 월롱면 덕은리 831","category":"음료식품 - 정육점"}]},{"lat":"37.812307011","long":"126.77379215","items":[{"name":"윈스크린","tel":"031-944-9984","addr":"경기도 파주시 월롱면 덕은리 1275-2번지","category":"회원제형태 - 레져업소"}]},{"lat":"37.788199822","long":"126.77487697","items":[{"name":"유은","tel":"","addr":"경기도 파주시 월롱면 덕은리 140-25번지","category":"자동차정비 유지 - 주차장"}]},{"lat":"37.791727961","long":"126.7777044","items":[{"name":"유진그라스텍","tel":"031-8071-5528","addr":"경기도 파주시 월롱면 덕은리 117-20","category":"건축자재 - 유리"},{"name":"휴먼텍산업","tel":"031-811-1739","addr":"경기도 파주시 월롱면 덕은리 117-20","category":"기타 - 기계공구"}]},{"lat":"37.81124915","long":"126.77650953","items":[{"name":"윤세프 수타돈가스 양동이얼음 맥주","tel":"031-949-4885","addr":"경기도 파주시 월롱면 덕은리 1293-6번지","category":"일반휴게음식 - 일반한식"}]},{"lat":"37.799084609","long":"126.78511909","items":[{"name":"이레주방","tel":"031-945-2301","addr":"경기도 파주시 월롱면 덕은리 85","category":"주방용구 - 주방용구"}]},{"lat":"37.790478441","long":"126.7698747","items":[{"name":"이앤이(ET Group)","tel":"031-949-5595","addr":"경기도 파주시 월롱면 덕은리 251-3번지","category":"기타 - 기계공구"}]},{"lat":"37.783782421","long":"126.76887405","items":[{"name":"이에스퍼니처","tel":"031-922-3367","addr":"경기도 파주시 월롱면 덕은리 223-14번지","category":"가구 - 일반가구"}]},{"lat":"37.810914623","long":"126.77589732","items":[{"name":"이츠커피(it`s coffee)","tel":"031-943-7975","addr":"경기도 파주시 월롱면 덕은리 1294번지","category":"일반휴게음식 - 서양음식"}]},{"lat":"37.819607438","long":"126.76165129","items":[{"name":"인 베스트 특수용접","tel":"","addr":"경기도 파주시 월롱면 덕은리 920번지","category":"기타 - 기계공구"}]},{"lat":"37.804195454","long":"126.7816181","items":[{"name":"인스토어 휴암로점","tel":"031-945-5581","addr":"경기도 파주시 월롱면 덕은리 368-2번지","category":"유통업 영리 - 슈퍼마켓"}]},{"lat":"37.811337539","long":"126.77562348","items":[{"name":"일월돼지꿈꾸는집","tel":"031-943-2077","addr":"경기도 파주시 월롱면 덕은리 1292-2번지","category":"일반휴게음식 - 일반한식"}]},{"lat":"37.810392869","long":"126.78104316","items":[{"name":"자유로운수(주)","tel":"031-948-6388","addr":"경기도 파주시 월롱면 덕은리 1060-1 ,4","category":"여행 - 렌터카"}]},{"lat":"37.787451525","long":"126.77000908","items":[{"name":"정다운슈퍼","tel":"031-945-5999","addr":"경기도 파주시 월롱면 덕은리 224-12번지","category":"유통업 영리 - 슈퍼마켓"}]},{"lat":"37.812773783","long":"126.77757236","items":[{"name":"정다운식당","tel":"031-948-3457","addr":"경기도 파주시 월롱면 덕은리 504-2번지","category":"일반휴게음식 - 일반한식"}]},{"lat":"37.807583474","long":"126.76342781","items":[{"name":"정다운이모","tel":"031-958-0319","addr":"경기도 파주시 월롱면 덕은리 1256 4/2","category":"유통업 영리 - 슈퍼마켓"}]},{"lat":"37.813222052","long":"126.77642401","items":[{"name":"정일품","tel":"031-944-3006","addr":"경기도 파주시 월롱면 덕은리 508-5번지","category":"일반휴게음식 - 일반한식"}]},{"lat":"37.811392483","long":"126.78081305","items":[{"name":"제이에스이엔지","tel":"031-957-9079","addr":"경기도 파주시 월롱면 덕은리 1053-3번지","category":"건축자재 - 조명기구"}]},{"lat":"37.810025362","long":"126.78204358","items":[{"name":"제이에이치(JH)카멀티샵","tel":"02-000-0000","addr":"경기도 파주시 월롱면 덕은리 19번지","category":"자동차정비 유지 - 자동차부품"}]},{"lat":"37.787001877","long":"126.77503959","items":[{"name":"제이엠전동지게차","tel":"","addr":"경기도 파주시 월롱면 덕은리 140-23번지","category":"자동차판매 - 기타운송"}]},{"lat":"37.792031626","long":"126.7763184","items":[{"name":"주식회사 가구야히메","tel":"031-944-9720","addr":"경기도 파주시 월롱면 덕은리 130-7번지","category":"가구 - 일반가구"},{"name":"태양식당","tel":"031-942-0454","addr":"경기도 파주시 월롱면 덕은리 130-7","category":"일반휴게음식 - 위탁급식업"}]},{"lat":"37.822475321","long":"126.75437297","items":[{"name":"주식회사 드림디자인","tel":"031-941-3293","addr":"경기도 파주시 월롱면 덕은리 762-23번지","category":"가구 - 일반가구"}]},{"lat":"37.815946164","long":"126.76887477","items":[{"name":"주식회사 파주자동차","tel":"070-7718-1244","addr":"경기도 파주시 월롱면 덕은리 663-23번지","category":"자동차정비 유지 - 자동차부품"},{"name":"주식회사 파주자동차","tel":"031-946-1240","addr":"경기도 파주시 월롱면 덕은리 663-23","category":"자동차정비 유지 - 자동차부품"}]},{"lat":"37.792169271","long":"126.77762359","items":[{"name":"주식회사 피앤제이퍼니처","tel":"031-957-6406","addr":"경기도 파주시 월롱면 덕은리 117-15번지","category":"가구 - 일반가구"}]},{"lat":"37.798866418","long":"126.77926097","items":[{"name":"주식회사까사룩스","tel":"031-944-8222","addr":"경기도 파주시 월롱면 덕은리 286-2","category":"건축자재 - 조명기구"}]},{"lat":"37.796250948","long":"126.78259551","items":[{"name":"주식회사레디앙","tel":"031-946-9780","addr":"경기도 파주시 월롱면 덕은리 92-5번지","category":"건축자재 - 기타건축자재"}]},{"lat":"37.799556891","long":"126.78231319","items":[{"name":"주식회사헬스윌","tel":"02-745-7410","addr":"경기도 파주시 월롱면 덕은리 331-1번지","category":"건강식품 - 기타건강식품"}]},{"lat":"37.812976391","long":"126.77517556","items":[{"name":"준스크린골프","tel":"031-957-9797","addr":"경기도 파주시 월롱면 덕은리 509-2","category":"회원제형태 - 레져업소"},{"name":"짱 스크린 골프","tel":"","addr":"경기도 파주시 월롱면 덕은리 509-2번지","category":"레저업소 - 스크린골프"}]},{"lat":"37.812190793","long":"126.77425812","items":[{"name":"지리산 청정 흑돼지","tel":"031-957-1077","addr":"경기도 파주시 월롱면 덕은리 1278번지 1층","category":"일반휴게음식 - 일반한식"},{"name":"지리산흑돼지","tel":"031-957-1077","addr":"경기도 파주시 월롱면 덕은리 1278번지","category":"일반휴게음식 - 일반한식"}]},{"lat":"37.812030077","long":"126.77500812","items":[{"name":"짱노가리호프","tel":"031-941-3323","addr":"경기도 파주시 월롱면 덕은리 1278-4번지","category":"일반휴게음식 - 주점"}]},{"lat":"37.811139486","long":"126.77570358","items":[{"name":"차이나","tel":"031-944-6876","addr":"경기도 파주시 월롱면 덕은리 1292-6번지","category":"일반휴게음식 - 일반한식"}]},{"lat":"37.799027202","long":"126.78331394","items":[{"name":"천지산업","tel":"031-946-0589","addr":"경기도 파주시 월롱면 덕은리 317-11번지","category":"직물 - 기타직물"}]},{"lat":"37.810806839","long":"126.77606799","items":[{"name":"청진동해장국","tel":"031-948-7939","addr":"경기도 파주시 월롱면 덕은리 1294-3번지","category":"일반휴게음식 - 일반한식"}]},{"lat":"37.812108714","long":"126.7784261","items":[{"name":"캐러지","tel":"031-957-9579","addr":"경기도 파주시 월롱면 덕은리 1037번지","category":"자동차정비 유지 - 자동차정비"},{"name":"타이어 팩토리","tel":"031-944-7752","addr":"경기도 파주시 월롱면 덕은리 1037번지","category":"자동차정비 유지 - 자동차시트·타이어"},{"name":"현대 MOTORS","tel":"070-4763-5091","addr":"경기도 파주시 월롱면 덕은리 1037번지","category":"자동차정비 유지 - 자동차정비"}]},{"lat":"37.815275374","long":"126.7623695","items":[{"name":"커피에반하다(엘지로점)","tel":"","addr":"경기도 파주시 월롱면 덕은리 846-1번지","category":"일반휴게음식 - 서양음식"},{"name":"한양타이어","tel":"031-943-8473","addr":"경기도 파주시 월롱면 덕은리 846-1번지","category":"자동차정비 유지 - 자동차시트·타이어"}]},{"lat":"37.811610115","long":"126.77681504","items":[{"name":"투씨엠플러스(2cm)","tel":"031-942-8245","addr":"경기도 파주시 월롱면 덕은리 1281-4번지","category":"일반휴게음식 - 스넥"}]},{"lat":"37.819164045","long":"126.76071008","items":[{"name":"파주 깊은집","tel":"031-946-7085","addr":"경기도 파주시 월롱면 덕은리 917번지","category":"일반휴게음식 - 일반한식"}]},{"lat":"37.821471234","long":"126.76551818","items":[{"name":"파주민통선양봉영농조합법인","tel":"031-111-1111","addr":"경기도 파주시 월롱면 덕은리 689-1번지","category":"건강식품 - 기타건강식품"}]},{"lat":"37.812359835","long":"126.78259309","items":[{"name":"파주현대서비스","tel":"031-954-3611","addr":"경기도 파주시 월롱면 덕은리 14-1번지","category":"자동차정비 유지 - 자동차정비"}]},{"lat":"37.810916823","long":"126.78179109","items":[{"name":"한국호이스트크레인","tel":"070-8628-0857","addr":"경기도 파주시 월롱면 덕은리 1056번지","category":"수리서비스 - 기타수리서비스"}]},{"lat":"37.816499185","long":"126.76165005","items":[{"name":"한양금속","tel":"031-945-6711","addr":"경기도 파주시 월롱면 덕은리 829-1번지","category":"기타 - 기타 전문점"}]},{"lat":"37.8015019","long":"126.78176239","items":[{"name":"헤어프로포즈","tel":"031-957-6489","addr":"경기도 파주시 월롱면 덕은리 339-4번지","category":"보건위생 - 미용원"}]},{"lat":"37.787450396","long":"126.76493454","items":[{"name":"현&현Co","tel":"02-934-9612","addr":"경기도 파주시 월롱면 덕은리 226-96","category":"신변잡화 - 기념품점"}]},{"lat":"37.81261163","long":"126.7823425","items":[{"name":"협진PS","tel":"031-3436-6661","addr":"경기도 파주시 월롱면 덕은리 494번지","category":"유통업 영리 - 기타유통업"}]},{"lat":"37.811611057","long":"126.78206157","items":[{"name":"혜성클린텍","tel":"031-953-4235","addr":"경기도 파주시 월롱면 덕은리 1047-2번지","category":"신변잡화 - 기타잡화"}]},{"lat":"37.812779259","long":"126.77573263","items":[{"name":"홈닥터","tel":"031-947-7687","addr":"경기도 파주시 월롱면 덕은리 510","category":"용역 서비스 - 종합용역"}]},{"lat":"37.801949805","long":"126.78039849","items":[{"name":"황토골숯불갈비","tel":"031-942-6999","addr":"경기도 파주시 월롱면 덕은리 375번지 1층","category":"일반휴게음식 - 일반한식"},{"name":"황토골숯불갈비","tel":"031-942-6999","addr":"경기도 파주시 월롱면 덕은리 375번지","category":"일반휴게음식 - 일반한식"}]},{"lat":"37.808421776","long":"126.78209378","items":[{"name":"휴암식당","tel":"031-944-4016","addr":"경기도 파주시 월롱면 덕은리 414-5번지","category":"일반휴게음식 - 일반한식"}]}]