[{"lat":"37.073295507","long":"127.37508377","items":[{"name":"KBS노래방","tel":"031-674-9199","addr":"경기도 안성시 삼죽면 용월리 467-2번지 지하1층","category":"레저업소 - 노 래 방"}]},{"lat":"37.073681648","long":"127.37550172","items":[{"name":"Miso- L coffee(미소엘커피)","tel":"031-672-9766","addr":"경기도 안성시 삼죽면 용월리 466-11번지","category":"일반휴게음식 - 서양음식"}]},{"lat":"37.074519367","long":"127.37558454","items":[{"name":"낮밤","tel":"031-674-4089","addr":"경기도 안성시 삼죽면 용월리 461-1번지 1층","category":"일반휴게음식 - 일반한식"},{"name":"삼죽철물종합건재","tel":"031-672-4202","addr":"경기도 안성시 삼죽면 용월리 461-1","category":"건축자재 - 목재·석재·철물"}]},{"lat":"37.075716427","long":"127.38169666","items":[{"name":"명가네","tel":"031-676-3202","addr":"경기도 안성시 삼죽면 용월리 449-2번지 나동","category":"일반휴게음식 - 일반한식"},{"name":"미생","tel":"031-000-0000","addr":"경기도 안성시 삼죽면 용월리 449-2번지 1층","category":"일반휴게음식 - 일반한식"}]},{"lat":"37.076853363","long":"127.39232939","items":[{"name":"미래가스산업","tel":"031-672-6971","addr":"경기도 안성시 삼죽면 용월리 61","category":"연료판매점 - LPG 취급점"}]},{"lat":"37.073601331","long":"127.37525394","items":[{"name":"봉짬뽕","tel":"031-672-6633","addr":"경기도 안성시 삼죽면 용월리 467-5번지","category":"일반휴게음식 - 중국식"}]},{"lat":"37.074015986","long":"127.37519974","items":[{"name":"불타는막창구이","tel":"031-672-2511","addr":"경기도 안성시 삼죽면 용월리 464-1번지","category":"일반휴게음식 - 일반한식"},{"name":"샘호프","tel":"031-672-2401","addr":"경기도 안성시 삼죽면 용월리 464-1번지 1층","category":"일반휴게음식 - 주점"},{"name":"세븐일레븐안성삼죽점","tel":"031-1577-0711","addr":"경기도 안성시 삼죽면 용월리 464-1번지 1층","category":"유통업 영리 - 편 의 점"},{"name":"심가네생선국수","tel":"031-674-2970","addr":"경기도 안성시 삼죽면 용월리 464-1번지 1층","category":"일반휴게음식 - 일반한식"}]},{"lat":"37.074708338","long":"127.37566418","items":[{"name":"삼성약국","tel":"031-674-8856","addr":"경기도 안성시 삼죽면 용월리 397-2번지","category":"약국 - 약국"}]},{"lat":"37.074295485","long":"127.37514488","items":[{"name":"삼죽농업협동조합","tel":"031-672-4770","addr":"경기도 안성시 삼죽면 용월리 463-1번지","category":"유통업 비영리 - 농,축협 직영매장"},{"name":"삼죽농업협동조합","tel":"031-672-4770","addr":"경기도 안성시 삼죽면 용월리 463-1번지","category":"연료판매점 - 주유소"},{"name":"삼죽농업협동조합","tel":"031-672-4770","addr":"경기도 안성시 삼죽면 용월리 463-1번지","category":"음료식품 - 미곡상"},{"name":"삼죽농업협동조합","tel":"032-672-4770","addr":"경기도 안성시 삼죽면 용월리 463-1번지","category":"연료판매점 - 주유소"},{"name":"칸노래연습장","tel":"031-672-9960","addr":"경기도 안성시 삼죽면 용월리 463-1번지","category":"레저업소 - 노 래 방"}]},{"lat":"37.07340275","long":"127.37536542","items":[{"name":"삼죽우체국","tel":"031-672-4000","addr":"경기도 안성시 삼죽면 용월리 467-1번지","category":"용역 서비스 - 공공요금대행서비스/소"}]},{"lat":"37.075014868","long":"127.37560945","items":[{"name":"삼흥전자","tel":"031-672-4084","addr":"경기도 안성시 삼죽면 용월리 406-7번지 1층","category":"전기제품 - 기타전기제품"}]},{"lat":"37.075768908","long":"127.38219172","items":[{"name":"세븐일레븐용월산업단지점","tel":"031-1577-0711","addr":"경기도 안성시 삼죽면 용월리 449-1번지","category":"유통업 영리 - 편 의 점"}]},{"lat":"37.074042023","long":"127.39508133","items":[{"name":"안성누리동물약품","tel":"031-677-5740","addr":"경기도 안성시 삼죽면 용월리 16-1번지","category":"기타의료기관 - 동물병원"}]},{"lat":"37.073545078","long":"127.37595086","items":[{"name":"연재숯불갈비","tel":"031-672-6667","addr":"경기도 안성시 삼죽면 용월리 469-5번지 1층","category":"일반휴게음식 - 일반한식"}]},{"lat":"37.075682373","long":"127.38388935","items":[{"name":"용월식당","tel":"031-223-9159","addr":"경기도 안성시 삼죽면 용월리 601-1번지","category":"일반휴게음식 - 일반한식"}]},{"lat":"37.072244678","long":"127.37686657","items":[{"name":"유엔지니","tel":"031-000-0000","addr":"경기도 안성시 삼죽면 용월리 480번지","category":"건강식품 - 기타건강식품"}]},{"lat":"37.076210633","long":"127.37644747","items":[{"name":"이가","tel":"031-671-0028","addr":"경기도 안성시 삼죽면 용월리 401번지","category":"일반휴게음식 - 일반한식"}]},{"lat":"37.07418241","long":"127.39349648","items":[{"name":"잔치촌","tel":"031-673-2919","addr":"경기도 안성시 삼죽면 용월리 23-1","category":"일반휴게음식 - 일반한식"}]},{"lat":"37.072542659","long":"127.37666563","items":[{"name":"주식회사 대영비료","tel":"02-3486-6791","addr":"경기도 안성시 삼죽면 용월리 468-1","category":"농업 - 비료,사료,종자"}]},{"lat":"37.075049673","long":"127.37600321","items":[{"name":"지하식당","tel":"031-672-4395","addr":"경기도 안성시 삼죽면 용월리 398-2번지","category":"일반휴게음식 - 일반한식"}]},{"lat":"37.074795403","long":"127.39066581","items":[{"name":"품원(주)","tel":"02-2059-6026","addr":"경기도 안성시 삼죽면 용월리 46-4번지","category":"용역 서비스 - 사무서비스"}]},{"lat":"37.073458223","long":"127.37491589","items":[{"name":"풍성식당","tel":"031-674-5972","addr":"경기도 안성시 삼죽면 용월리 465-2번지 외2필지","category":"일반휴게음식 - 일반한식"},{"name":"풍성정육점","tel":"031-674-5972","addr":"경기도 안성시 삼죽면 용월리 465-2번지","category":"음료식품 - 정육점"}]},{"lat":"37.073825814","long":"127.37550243","items":[{"name":"한식마당","tel":"031-674-0700","addr":"경기도 안성시 삼죽면 용월리 466-1번지","category":"일반휴게음식 - 일반한식"}]},{"lat":"37.073098276","long":"127.38046917","items":[{"name":"한울조명","tel":"031-677-6395","addr":"경기도 안성시 삼죽면 용월리 454-14번지","category":"건축자재 - 조명기구"}]}]