[{"lat":"37.221352791","long":"127.05166838","imageIndex":7,"items":[{"name":"FOR YOU25반월점","tel":"031-235-2833","addr":"경기도 화성시 반월동 718-1번지 외2필지행복프라자101호-1","indutype":"유통업 영리 - 슈퍼마켓","category":"mart"}]},{"lat":"37.232349623","long":"127.06220044","imageIndex":7,"items":[{"name":"뉴진로마트","tel":"031-204-8218","addr":"경기도 화성시 반월동 144-1번지 1층 뉴진로마트","indutype":"유통업 영리 - 슈퍼마켓","category":"mart"}]},{"lat":"37.22735327","long":"127.07080524","imageIndex":7,"items":[{"name":"스마일슈퍼","tel":"","addr":"경기도 화성시 반월동 357-28번지","indutype":"유통업 영리 - 슈퍼마켓","category":"mart"}]},{"lat":"37.231469465","long":"127.0561936","imageIndex":7,"items":[{"name":"제일할인마트","tel":"031-205-2334","addr":"경기도 화성시 반월동 868현대타운2단지상가101","indutype":"유통업 영리 - 슈퍼마켓","category":"mart"}]},{"lat":"37.229185336","long":"127.06542067","imageIndex":7,"items":[{"name":"주식회사 세도축산도매센터","tel":"031-202-7073","addr":"경기도 화성시 반월동 347-42번지 동양빌딩 1층","indutype":"유통업 영리 - 슈퍼마켓","category":"mart"}]},{"lat":"37.235827685","long":"127.06205666","imageIndex":7,"items":[{"name":"토토슈퍼","tel":"031-205-2729","addr":"경기도 화성시 반월동 30번지","indutype":"유통업 영리 - 슈퍼마켓","category":"mart"}]},{"lat":"37.233771191","long":"127.06619075","imageIndex":7,"items":[{"name":"하모니마트","tel":"031-206-0049","addr":"경기도 화성시 반월동 83번지 신우프라자 102호~107호","indutype":"유통업 영리 - 슈퍼마켓","category":"mart"}]}]