[{"lat":"37.518920722","long":"126.76232847","items":[{"name":"(주) 보성플렉소","tel":"032-621-1900","addr":"경기도 부천시 삼정동 364번지 부천테크노파크 103동 806호","category":"용역 서비스 - 사무서비스"},{"name":"(주)미래여행사","tel":"032-234-1500","addr":"경기도 부천시 삼정동 364번지 부천테크노파크1단지 100동 207호","category":"여행 - 관광여행"},{"name":"(주)미셀코리아","tel":"070-4821-3880","addr":"경기도 부천시 삼정동 364번지 부천테크노파크1단지 101동 801호","category":"보건위생 - 화장품"},{"name":"(주)벤디슨(Vendison Co.,Ltd.)","tel":"032-621-0074","addr":"경기도 부천시 삼정동 364번지 부천테크노파크 102동 707호,100동 비08호 일부","category":"보건위생 - 의료용품"},{"name":"(주)진산물산/원격지","tel":"032-621-2300","addr":"경기도 부천시 삼정동 364번지 부천테크노파크 103동 805호","category":"기타 - 기타 전문점"},{"name":"(주)코리아필터링","tel":"032-324-5502","addr":"경기도 부천시 삼정동 364번지 부천테크노파크1단지 101-B12","category":"자동차정비 유지 - 자동차부품"},{"name":"(주)한국전산개발","tel":"032-234-0023","addr":"경기도 부천시 삼정동 364번지","category":"사무통신 - 컴퓨터"},{"name":"CADLAND/원격지","tel":"032-327-1127","addr":"경기도 부천시 삼정동 364번지 부천테크노파크1단지 102동 705호","category":"기타 - 기타 전문점"},{"name":"HETRONIC KOREA","tel":"032-234-2311","addr":"경기도 부천시 삼정동 364번지 부천테크노파크1단지 103동 802호","category":"회원제형태 - 기타4"},{"name":"L-마트","tel":"032-621-1140","addr":"경기도 부천시 삼정동 364번지 부천테크노파크1단지 100동 103호","category":"유통업 영리 - 슈퍼마켓"},{"name":"TKC","tel":"032-621-1219","addr":"경기도 부천시 삼정동 364번지 부천테크노파크1단지 101동 202호","category":"기타 - 기계공구"},{"name":"강촌삼계탕","tel":"032-323-1999","addr":"경기도 부천시 삼정동 364번지 부천테크노파크 100동 205호,206호","category":"일반휴게음식 - 일반한식"},{"name":"건담구내식당","tel":"070-7013-8874","addr":"경기도 부천시 삼정동 364번지 부천테크노파크 100동 비09,10호","category":"일반휴게음식 - 일반한식"},{"name":"경민금형","tel":"032-621-1819","addr":"경기도 부천시 삼정동 364 부천테크노파크1단지 103-105","category":"기타 - 기계공구"},{"name":"고광철세무회계사무소","tel":"032-621-2233","addr":"경기도 부천시 삼정동 364번지 부천테크노파크1단지 100동 304호","category":"용역 서비스 - 법률회계서비스(개인)"},{"name":"김명자굴국밥전문점","tel":"032-621-1259","addr":"경기도 부천시 삼정동 364번지 부천테크노파크1단지 100동 202호","category":"일반휴게음식 - 일반한식"},{"name":"나래식당","tel":"032-234-2525","addr":"경기도 부천시 삼정동 364","category":"일반휴게음식 - 일반한식"},{"name":"닥터김DK의원","tel":"032-321-8075","addr":"경기도 부천시 삼정동 364번지 부천테크노파크1단지 1,2층","category":"의원 - 의원"},{"name":"대황전자산업","tel":"032-234-0851","addr":"경기도 부천시 삼정동 364번지 부천테크노파크1단지 103동 408호","category":"전기제품 - 기타전기제품"},{"name":"대흥실리콘(주)","tel":"032-234-0333","addr":"경기도 부천시 삼정동 364번지","category":"기타 - 기타 전문점"},{"name":"드림오피스 부천테크노파크점","tel":"032-621-1158","addr":"경기도 부천시 삼정동 364번지","category":"서적문구 - 문구용품"},{"name":"디지프린트","tel":"032-322-9818","addr":"경기도 부천시 삼정동 364번지 부천테크노파크1단지 100호 , 7호 동비","category":"서적문구 - 출판 및 인쇄물"},{"name":"루나","tel":"032-344-3030","addr":"경기도 부천시 삼정동 364번지 부천테크노파크 100동 112호","category":"일반휴게음식 - 서양음식"},{"name":"민투정보통신","tel":"032-234-3011","addr":"경기도 부천시 삼정동 364번지 부천테크노파크1단지 100동 102호","category":"사무통신 - 통신기기"},{"name":"바이아테크(주)","tel":"032-621-2012","addr":"경기도 부천시 삼정동 364번지 부천테크노파크1단지 102동 504호","category":"사무통신 - 컴퓨터"},{"name":"배용철국제특허법률사무소","tel":"032-621-2323","addr":"경기도 부천시 삼정동 364번지","category":"용역 서비스 - 법률회계서비스(개인)"},{"name":"법무사정진현사무소","tel":"032-324-2377","addr":"경기도 부천시 삼정동 364번지 부천테크노파크1단지 100동 302호","category":"용역 서비스 - 법률회계서비스(개인)"},{"name":"보경공방","tel":"032-655-3420","addr":"경기도 부천시 삼정동 364번지 부천테크노파크 102동 905.906호","category":"문화.취미 - 문화취미기타"},{"name":"부천테크노파크1단지 입주사대표회의","tel":"032-621-1170","addr":"경기도 부천시 삼정동 364번지 부천테크노파크1단지","category":"자동차정비 유지 - 주차장"},{"name":"부천테크노파크취급소","tel":"032-621-0031","addr":"경기도 부천시 삼정동 364번지","category":"용역 서비스 - 공공요금대행서비스/소"},{"name":"비룡각","tel":"","addr":"경기도 부천시 삼정동 364번지 부천테크노파크 100동 204호","category":"일반휴게음식 - 중국식"},{"name":"비티지","tel":"032-234-5000","addr":"경기도 부천시 삼정동 364번지 부천테크노파크1단지 관리동 옥상층","category":"레져용품 - 골프용품 전문점"},{"name":"선소프트웨어","tel":"070-7539-6274","addr":"경기도 부천시 삼정동 364번지 부천테크노파크1단지 100동 304호","category":"용역 서비스 - 소프트웨어"},{"name":"성일메디칼","tel":"032-325-0289","addr":"경기도 부천시 삼정동 364번지 부천테크노파크1단지 102동 805호","category":"보건위생 - 의료용품"},{"name":"신도리코경인프라자","tel":"032-666-3211","addr":"경기도 부천시 삼정동 364번지 부천테크노파크1단지 관리동 1층 104호","category":"사무통신 - 사무용 OA기기"},{"name":"에이존덴트코리아산업","tel":"032-327-2123","addr":"경기도 부천시 삼정동 364번지","category":"보건위생 - 의료용품"},{"name":"엘마트24","tel":"032-621-1140","addr":"경기도 부천시 삼정동 364번지","category":"유통업 영리 - 편 의 점"},{"name":"오엠지이화학/원격지","tel":"02-2272-8767","addr":"경기도 부천시 삼정동 364번지 부천테크노파크1단지 103동 407호","category":"기타 - 기타 전문점"},{"name":"원세무회계무소","tel":"031-234-1800","addr":"경기도 부천시 삼정동 364번지 부천테크노파크 100동 302호","category":"용역 서비스 - 법률회계서비스(개인)"},{"name":"이룸전자","tel":"032-327-7611","addr":"경기도 부천시 삼정동 364번지 부천테크노파크1단지 101동 207호","category":"전기제품 - 기타전기제품"},{"name":"이미정 헤어위즈","tel":"032-621-2700","addr":"경기도 부천시 삼정동 364번지 부천테크노파크1단지 1층 관리동","category":"보건위생 - 미용원"},{"name":"이븐컴퍼니","tel":"070-4656-5978","addr":"경기도 부천시 삼정동 364번지 부천테크노파크 102동 806호","category":"레져용품 - 골프용품 전문점"},{"name":"일번지식당","tel":"032-621-1388","addr":"경기도 부천시 삼정동 364번지 부천테크노파크1단지 100동 201호","category":"일반휴게음식 - 일반한식"},{"name":"일신전기","tel":"032-234-0111","addr":"경기도 부천시 삼정동 364번지","category":"전기제품 - 기타전기제품"},{"name":"장모님순두부","tel":"032-328-4242","addr":"경기도 부천시 삼정동 364번지 부천테크노파크 100동 110호","category":"일반휴게음식 - 일반한식"},{"name":"정인디아이와이","tel":"032-663-5773","addr":"경기도 부천시 삼정동 364번지 부천테크노파크1단지 101동 101호","category":"문화.취미 - 민예·공예품"},{"name":"제이케이테크","tel":"032-329-1030","addr":"경기도 부천시 삼정동 364번지 부천테크노파크1단지 102동 505호","category":"전기제품 - 기타전기제품"},{"name":"주식회사 두레넷","tel":"032-326-2421","addr":"경기도 부천시 삼정동 364번지 부천테크노파크1단지 104동 304호","category":"회원제형태 - 사무서비스"},{"name":"주식회사 오빌","tel":"032-1899-9903","addr":"경기도 부천시 삼정동 364번지 부천테크노파크 100동 203호","category":"의류 - 정장"},{"name":"주식회사태성엘이디","tel":"02-6022-1861","addr":"경기도 부천시 삼정동 364번지 부천테크노파크 304동 804호","category":"건축자재 - 조명기구"},{"name":"준컴퓨터네트워크","tel":"032-678-3344","addr":"경기도 부천시 삼정동 364번지 부천테크노파크1단지 100동 108호","category":"사무통신 - 컴퓨터"},{"name":"준컴퓨터네트워크","tel":"032-621-1235","addr":"경기도 부천시 삼정동 364번지","category":"사무통신 - 컴퓨터"},{"name":"차차(chacha)","tel":"032-321-7806","addr":"경기도 부천시 삼정동 364번지 부천테크노파크1단지 100동 101호","category":"일반휴게음식 - 일반한식"},{"name":"착한도너츠(yh)","tel":"032-326-4959","addr":"경기도 부천시 삼정동 364번지 부천테크노파크 100동 1층 106호","category":"일반휴게음식 - 서양음식"},{"name":"크루더도얼(주)","tel":"070-4642-0623","addr":"경기도 부천시 삼정동 364번지 부천테크노파크 103동 902호","category":"보건위생 - 화장품"},{"name":"키즈코딩 (로봇코딩)","tel":"031-325-2829","addr":"경기도 부천시 삼정동 364번지 부천테크노파크1단지 100동 304호","category":"용역 서비스 - 종합용역"},{"name":"테크노미래치과의원","tel":"032-323-8875","addr":"경기도 부천시 삼정동 364번지","category":"의원 - 치과의원"},{"name":"테크노약국","tel":"032-322-2309","addr":"경기도 부천시 삼정동 364번지 부천테크노파크1단지 1층","category":"약국 - 약국"},{"name":"파인모빌리티 주식회사","tel":"032-621-1987","addr":"경기도 부천시 삼정동 364번지 부천테크노파크 102동 904호","category":"자동차판매 - 기타운송"},{"name":"파차이가 주식회사","tel":"070-7559-2647","addr":"경기도 부천시 삼정동 364번지 부천테크노파크 100동 304호 일부","category":"전기제품 - 기타전기제품"},{"name":"푸짐한밥상","tel":"032-612-1388","addr":"경기도 부천시 삼정동 364번지 부천테크노파크 100동 201호","category":"일반휴게음식 - 일반한식"},{"name":"피알테크","tel":"032-111-1111","addr":"경기도 부천시 삼정동 364번지 부천테크노파크1단지 103동 105호","category":"기타 - 기계공구"},{"name":"한양볼트기업","tel":"032-327-2307","addr":"경기도 부천시 삼정동 364번지 부천테크노파크1단지 100동 109호","category":"기타 - 기계공구"},{"name":"해원후코이단","tel":"031-466-1640","addr":"경기도 부천시 삼정동 364번지 부천테크노파크1단지 101동 9층 908호","category":"회원제형태 - 건강식품"},{"name":"홈서비스","tel":"070-5524-3658","addr":"경기도 부천시 삼정동 364번지 부천테크노파크 103동 비04호","category":"주방용구 - 주방용구"}]},{"lat":"37.522839993","long":"126.77133173","items":[{"name":"(주)1급에스티모터스","tel":"032-678-1002","addr":"경기도 부천시 삼정동 222-9번지 1층","category":"자동차정비 유지 - 자동차정비"}]},{"lat":"37.521392529","long":"126.76834984","items":[{"name":"(주)1급테크노자동차공업사","tel":"032-671-6668","addr":"경기도 부천시 삼정동 264번지","category":"자동차정비 유지 - 자동차정비"}]},{"lat":"37.52292084","long":"126.76665953","items":[{"name":"(주)PLS테크코리아","tel":"032-624-2237","addr":"경기도 부천시 삼정동 36-1번지","category":"기타 - 기계공구"},{"name":"(주)디에스아이엔티","tel":"032-624-1400","addr":"경기도 부천시 삼정동 36-1번지 부천테크노파크3 101동 702호","category":"보건위생 - 의료용품"},{"name":"(주)바로나","tel":"032-624-3577","addr":"경기도 부천시 삼정동 36-1번지 부천테크노파크쌍용3차첨단제조 202동 306호","category":"보건위생 - 화장품"},{"name":"(주)세이프텍","tel":"070-7603-0310","addr":"경기도 부천시 삼정동 36-1번지 부천테크노파크쌍용3차 101동 1007호","category":"전기제품 - 기타전기제품"},{"name":"(주)세이프티코리아","tel":"032-624-3512","addr":"경기도 부천시 삼정동 36-1번지 부천테크노파크쌍용3차 101동 B04호","category":"건축자재 - 기타건축자재"},{"name":"(주)씨엠엘코리아(CML KOREA CO.,LTD)","tel":"032-624-1937","addr":"경기도 부천시 삼정동 36-1번지 부천테크노파크쌍용3차 일반제조 102동 807호","category":"기타 - 기계공구"},{"name":"(주)에스엠아이","tel":"070-4224-3355","addr":"경기도 부천시 삼정동 36-1번지 부천테크노파크쌍용3차 103동 310호","category":"음료식품 - 기타음료식품"},{"name":"(주)에이솔","tel":"032-624-4983","addr":"경기도 부천시 삼정동 36-1번지 부천테크노파크3차 102동 1303호","category":"기타 - 기계공구"},{"name":"(주)엠씨에스코리아","tel":"032-624-3510","addr":"경기도 부천시 삼정동 36-1 부천테크노파크3차 101동 비04호","category":"기타 - 기계공구"},{"name":"(주)지엘플러스","tel":"032-624-1290","addr":"경기도 부천시 삼정동 36-1번지 부천테크노파크쌍용3차 102동 405,406,407호","category":"주방용구 - 주방용구"},{"name":"(주)한국자효당","tel":"032-624-4890","addr":"경기도 부천시 삼정동 36-1번지 부천테크노파크쌍용3차 103동 801호","category":"보건위생 - 의료용품"},{"name":"(주)화인에스앤씨","tel":"032-624-2326","addr":"경기도 부천시 삼정동 36-1번지 테크노쌍용3차 302동 1201호","category":"전기제품 - 가전제품"},{"name":"153제본","tel":"032-1544-4153","addr":"경기도 부천시 삼정동 36-1번지 부천테크노파크쌍용3차 104동 515호","category":"용역 서비스 - 사무서비스"},{"name":"365일할인마트","tel":"032-624-3651","addr":"경기도 부천시 삼정동 36-1번지 부천테크노파크 203동 202호","category":"유통업 영리 - 편 의 점"},{"name":"CS TECH(씨에스테크)","tel":"032-624-2722","addr":"경기도 부천시 삼정동 36-1번지 부천테크노파크쌍용3차 102동 901호","category":"건축자재 - 기타건축자재"},{"name":"CS경영파트너","tel":"070-8255-8936","addr":"경기도 부천시 삼정동 부천테크노파크쌍용3차 401-610","category":"용역 서비스 - 사무서비스"},{"name":"FM전장","tel":"032-673-0356","addr":"경기도 부천시 삼정동 36-1번지 부천테크노파크쌍용3차 202동 803호","category":"전기제품 - 기타전기제품"},{"name":"PNP (피앤피)","tel":"032-624-2419","addr":"경기도 부천시 삼정동 36-1번지 부천테크노파크쌍용3차 203동 403호","category":"건강식품 - 기타건강식품"},{"name":"SMTECH(에스엠테크)","tel":"032-624-3077","addr":"경기도 부천시 삼정동 36-1번지 부천테크노파크쌍용3차 101동 109호","category":"건축자재 - 기타건축자재"},{"name":"가온(GAON)","tel":"032-624-2681","addr":"경기도 부천시 삼정동 36-1번지 부천테크노파크쌍용3차 첨단제조동 201동 802호","category":"전기제품 - 가전제품"},{"name":"간식나라","tel":"032-624-4655","addr":"경기도 부천시 삼정동 36-1번지 부천테크노파크쌍용3차 401동 108호","category":"일반휴게음식 - 일반한식"},{"name":"강촌삼계탕","tel":"032-624-1990","addr":"경기도 부천시 삼정동 36-1번지 부천테크노파크쌍용3차 203동 301호","category":"일반휴게음식 - 일반한식"},{"name":"고근숙공인중개사","tel":"032-624-2455","addr":"경기도 부천시 삼정동 36-1번지 부천테크노파크 401동 102호","category":"용역 서비스 - 부동산 중개·임대"},{"name":"고려반도","tel":"032-624-4616","addr":"경기도 부천시 삼정동 36-1번지 부천테크노파크쌍용3차 302동 B07호","category":"기타 - 기계공구"},{"name":"골프존파크 쌍용스크린","tel":"032-624-2200","addr":"경기도 부천시 삼정동 36-1번지 부천테크노파크쌍용3차 302동 B08호","category":"레저업소 - 스크린골프"},{"name":"굿모닝메디칼씨스템","tel":"032-624-2026","addr":"경기도 부천시 삼정동 36-1번지 부천테크노파크쌍용3차 203동 309호","category":"보건위생 - 의료용품"},{"name":"궁중만두","tel":"032-624-4848","addr":"경기도 부천시 삼정동 36-1번지 부천테크노파크쌍용3차 203동 213호","category":"일반휴게음식 - 일반한식"},{"name":"그린코어","tel":"032-624-3495","addr":"경기도 부천시 삼정동 36-1번지 부천테크노파크쌍용3차 202동 1006호","category":"서적문구 - 과학기자재"},{"name":"글로리몰텍","tel":"031-624-0298","addr":"경기도 부천시 삼정동 36-1번지 부천테크노파크쌍용3차 201-B05","category":"기타 - 기계공구"},{"name":"금광산업","tel":"032-624-0783","addr":"경기도 부천시 삼정동 36-1번지 부천테크노파크쌍용3차 201동 104호","category":"레져용품 - 골프용품 전문점"},{"name":"나래산업","tel":"032-671-9833","addr":"경기도 부천시 삼정동 36-1번지 부천테크노파크쌍용3차일반제조 101동 309호","category":"기타 - 기타 전문점"},{"name":"다와신토불이","tel":"031-313-0991","addr":"경기도 부천시 삼정동 36-1번지 부천테크노파크쌍용3차 203동 2층 218호","category":"일반휴게음식 - 일반한식"},{"name":"다인SYSTEM","tel":"032-681-6400","addr":"경기도 부천시 삼정동 36-1번지 부천테크노파크쌍용3차 104동 313호","category":"기타 - 기타 전문점"},{"name":"대당식품","tel":"","addr":"경기도 부천시 삼정동 36-1번지 부천테크노파크쌍용3차 102동 810호","category":"음료식품 - 기타음료식품"},{"name":"대산엔지니어링","tel":"032-624-1588","addr":"경기도 부천시 삼정동 36-1번지 부천테크노파크쌍용3차 102동 504호","category":"기타 - 기계공구"},{"name":"대일법무사사무소","tel":"02-511-8875","addr":"경기도 부천시 삼정동 36-1번지 부천테크노파크쌍용3차 203동 315호","category":"용역 서비스 - 법률회계서비스(개인)"},{"name":"대진하이텍/원격지","tel":"032-624-1941","addr":"경기도 부천시 삼정동 36-1번지 쌍용테크노파크3차 202동 506호","category":"기타 - 기타 전문점"},{"name":"더(The)맛있는밥","tel":"032-624-2358","addr":"경기도 부천시 삼정동 36-1번지 부천테크노파크쌍용3차 203동 313,319호","category":"일반휴게음식 - 일반한식"},{"name":"더카페","tel":"032-624-2689","addr":"경기도 부천시 삼정동 36-1번지 부천테크노파크쌍용3차 203동 209호","category":"일반휴게음식 - 서양음식"},{"name":"동아방전","tel":"032-624-2365","addr":"경기도 부천시 삼정동 36-1번지 부천테크노파크쌍용3차 104동 113호","category":"기타 - 기계공구"},{"name":"동아양행","tel":"032-624-2561","addr":"경기도 부천시 삼정동 36-1번지 부천테크노파크1단지 102동 913호","category":"기타 - 기계공구"},{"name":"동양씨앤씨","tel":"032-624-3582","addr":"경기도 부천시 삼정동 36-1번지 부천테크노파크쌍용3차 302동 B109호","category":"건축자재 - 기타건축자재"},{"name":"두손(기획)","tel":"032-624-0950","addr":"경기도 부천시 삼정동 36-1번지 테크노파크 302동 1006호","category":"의류 - 정장"},{"name":"드림디포(쌍용3차)","tel":"032-624-0990","addr":"경기도 부천시 삼정동 36-1번지 부천테크노파크 쌍용3차 401동 209호 드림디포 쌍용3차(장문천)","category":"서적문구 - 문구용품"},{"name":"디바인","tel":"032-624-0820","addr":"경기도 부천시 삼정동 36-1번지 부천테크노파크쌍용3차 첨단제조 201동 4층 401호","category":"신변잡화 - 기타잡화"},{"name":"디오테크","tel":"032-624-2833","addr":"경기도 부천시 삼정동 36-1번지 부천케크노파크쌍용3차 202동 401호","category":"기타 - 기계공구"},{"name":"라인칼라","tel":"032-624-2092","addr":"경기도 부천시 삼정동 36-1번지 부천테크노파크쌍용3차 401동 501호","category":"건축자재 - 기타건축자재"},{"name":"라코스","tel":"","addr":"경기도 부천시 삼정동 36-1번지 부천테크노파크쌍용3차 203동 304호","category":"신변잡화 - 기타잡화"},{"name":"리플라워","tel":"032-624-1122","addr":"경기도 부천시 삼정동 36-1번지 부천테크노파크쌍용3차 401동 108호","category":"문화.취미 - 화원"},{"name":"마실 (MASIL)","tel":"","addr":"경기도 부천시 삼정동 36-1번지 부천테크노파크쌍용3차 401동 106호","category":"일반휴게음식 - 서양음식"},{"name":"맛있는차이나","tel":"032-624-2020","addr":"경기도 부천시 삼정동 36-1번지 부천테크노파크쌍용3차 109동 401호","category":"일반휴게음식 - 중국식"},{"name":"메디피아","tel":"032-624-4288","addr":"경기도 부천시 삼정동 36-1번지 부천테크노파크쌍용3차일반제조 101동1213호","category":"보건위생 - 의료용품"},{"name":"명가속풀이","tel":"032-624-4610","addr":"경기도 부천시 삼정동 36-1번지 부천테크노파크쌍용3차지원시설 401동 201호","category":"일반휴게음식 - 일반한식"},{"name":"모브컴퍼니","tel":"070-7301-5654","addr":"경기도 부천시 삼정동 36-1번지 부천테크노파크쌍용3차 303동 503호 중일부","category":"신변잡화 - 기타잡화"},{"name":"무쇠솥통돼지김치찌개","tel":"031-111-1111","addr":"경기도 부천시 삼정동 36-1번지 부천테크노파크쌍용3차 청단제조 203동 203호","category":"일반휴게음식 - 일반한식"},{"name":"미니스톱부천테크노점","tel":"032-1577-9621","addr":"경기도 부천시 삼정동 36-1번지 쌍용2차첨단제조 203~202호","category":"유통업 영리 - 편 의 점"},{"name":"미래시스템","tel":"02-624-3636","addr":"경기도 부천시 삼정동 36-1번지 부천쌍용테크노타운3차 101동 1111호","category":"자동차정비 유지 - 자동차부품"},{"name":"미키풀리코리아 주식회사","tel":"032-624-1750","addr":"경기도 부천시 삼정동 36-1번지 부천테크노파크쌍용3차 302동 406호","category":"기타 - 기계공구"},{"name":"미파라주식회사","tel":"032-624-3157","addr":"경기도 부천시 삼정동 36-1번지 부천쌍용테크노파크3차 302동 604호","category":"가구 - 일반가구"},{"name":"바다내음","tel":"032-624-1929","addr":"경기도 부천시 삼정동 36-1번지 부천테크노파크쌍용3차 203동 317호","category":"일반휴게음식 - 일반한식"},{"name":"바이더웨이테크노파크2호점","tel":"032-624-2484","addr":"경기도 부천시 삼정동 36-1번지 부천테크노파크쌍용3차 203동 202호","category":"유통업 영리 - 편 의 점"},{"name":"바이오&내츄럴","tel":"031-312-4550","addr":"경기도 부천시 삼정동 36-1번지 부천테크노파크쌍용3차 101동 711호","category":"서적문구 - 과학기자재"},{"name":"밥샵","tel":"032-111-1111","addr":"경기도 부천시 삼정동 36-1번지 부천테크노파크쌍용3차 203동 303호","category":"일반휴게음식 - 일반한식"},{"name":"보라산업","tel":"02-2103-0991","addr":"경기도 부천시 삼정동 36-1번지 부천테크노파크쌍용3차일반제조 104동 208호","category":"기타 - 기타 전문점"},{"name":"부천테크노파크쌍용3차관리단","tel":"032-624-2960","addr":"경기도 부천시 삼정동 36-1 부천테크노파크쌍용3차 203동 1층","category":"자동차정비 유지 - 주차장"},{"name":"블루라인","tel":"032-624-3773","addr":"경기도 부천시 삼정동 36-1번지 부천테크노파크쌍용3차 201동 906호","category":"전기제품 - 기타전기제품"},{"name":"비에이치전자","tel":"032-624-1782","addr":"경기도 부천시 삼정동 36-1번지 부천테크파크쌍용3차지원시설 401동 506호","category":"전기제품 - 기타전기제품"},{"name":"삼일레이저테크","tel":"032-624-2687","addr":"경기도 부천시 삼정동 36-1번지 부천테크노파크쌍용3차 104동 311호","category":"기타 - 기계공구"},{"name":"삼진정밀","tel":"032-624-2370","addr":"경기도 부천시 삼정동 36-1번지 부천테크노파크쌍용3차 101동 308호","category":"기타 - 기계공구"},{"name":"삼흥금속","tel":"032-624-3011","addr":"경기도 부천시 삼정동 36-1번지 부천테크노파크3차 203동 B1-02호","category":"기타 - 기계공구"},{"name":"상록특허법률사무소","tel":"080-325-7820","addr":"경기도 부천시 삼정동 36-1번지 부천테크노파크쌍용3차 401동 313호 312,313호","category":"용역 서비스 - 법률회계서비스(개인)"},{"name":"선우테크","tel":"032-624-0580","addr":"경기도 부천시 삼정동 36-1번지 부천테크노쌍용3차 202동 103호","category":"기타 - 기계공구"},{"name":"성동정밀","tel":"02-2617-4648","addr":"경기도 부천시 삼정동 36-1번지 부천테크노파크쌍용3차 104동 318호","category":"기타 - 기타 전문점"},{"name":"성동정밀/원격지","tel":"032-0-0","addr":"경기도 부천시 삼정동 36-1번지 부천테크노파크쌍용3차 104동 318호","category":"기타 - 기타 전문점"},{"name":"성보타이어인터내셔날(주)","tel":"032-624-0577","addr":"경기도 부천시 삼정동 36-1번지 부천테크노파크쌍용3차 303동 707호","category":"자동차정비 유지 - 자동차시트·타이어"},{"name":"성심F&S","tel":"032-624-4699","addr":"경기도 부천시 삼정동 36-1번지 부천테크노파크쌍용3차 101동 803,804,811호","category":"음료식품 - 정육점"},{"name":"성암금형에칭","tel":"032-681-4845","addr":"경기도 부천시 삼정동 36-1번지 부천테크노파크쌍용3차 101동 B105호","category":"기타 - 기계공구"},{"name":"성은콜렛","tel":"032-624-4090","addr":"경기도 부천시 삼정동 36-1번지 부천테크노파크쌍용3차 104동 210호","category":"기타 - 기계공구"},{"name":"세광엔터","tel":"032-624-1400","addr":"경기도 부천시 삼정동 36-1번지 부천테크노파크쌍용3차 101동 703호 702,703호","category":"전기제품 - 기타전기제품"},{"name":"세무사송태영사무소","tel":"032-624-3300","addr":"경기도 부천시 삼정동 36-1 부천테크노파크3차 401동 613,614호","category":"용역 서비스 - 법률회계서비스(개인)"},{"name":"세븐일레븐테크노파크1호점","tel":"","addr":"경기도 부천시 삼정동 36-1번지 부천테크노파크3차 401동 110호","category":"유통업 영리 - 편 의 점"},{"name":"세일엠앤티","tel":"032-624-1680","addr":"경기도 부천시 삼정동 36-1 부천테크노파크쌍용3차101동709호~711호","category":"기타 - 기계공구"},{"name":"세종티엠","tel":"031-9085-5282","addr":"경기도 부천시 삼정동 36-1번지 부천테크노파크쌍용3차 202동 B06호","category":"기타 - 기계공구"},{"name":"세한산업기계주식회사","tel":"032-624-2255","addr":"경기도 부천시 삼정동 36-1 부천테크노파크3차 103동 101호, 102호","category":"기타 - 기계공구"},{"name":"세화미터테크","tel":"032-624-3466","addr":"경기도 부천시 삼정동 36-1 부천테크노파크3차 101-1112","category":"회원제형태 - 기타4"},{"name":"소풍나라","tel":"032-624-0310","addr":"경기도 부천시 삼정동 36-1번지 부천테크노파크쌍용3차 203동 215호","category":"일반휴게음식 - 일반한식"},{"name":"신도오에이센터","tel":"032-624-2244","addr":"경기도 부천시 삼정동 36-1번지 부천테크노파크쌍용3차 201동 305호","category":"사무통신 - 사무용 OA기기"},{"name":"신창테크","tel":"032-624-0627","addr":"경기도 부천시 삼정동 36-1번지 부천테크노파크쌍용3차 301동 1105호","category":"자동차정비 유지 - 자동차부품"},{"name":"씨엠엘아시아주식회사","tel":"032-624-1937","addr":"경기도 부천시 삼정동 36-1번지 부천테크노파크쌍용3차 201동 102호","category":"기타 - 기계공구"},{"name":"씨유테크노상가동점","tel":"032-624-2344","addr":"경기도 부천시 삼정동 36-1번지 부천테크노파크쌍용3차 203동 201호","category":"유통업 영리 - 편 의 점"},{"name":"아피스판매서비스주식회사","tel":"032-624-3863","addr":"경기도 부천시 삼정동 36-1번지 부천테크노파크쌍용3차 302동 904호","category":"전기제품 - 냉열기기"},{"name":"안동국밥","tel":"032-624-4433","addr":"경기도 부천시 삼정동 36-1번지 부천테크노파크쌍용3차 401동 202호 ,203,204호","category":"일반휴게음식 - 일반한식"},{"name":"에스씨미디어 주식회사","tel":"032-614-1245","addr":"경기도 부천시 삼정동 36-1번지 부천테크노파크쌍용3차 202동 1001호","category":"서적문구 - 정기간행물"},{"name":"에이-원 SYSTEM","tel":"032-624-1797","addr":"경기도 부천시 삼정동 36-1번지 부천테크노파크쌍용3차 101동 407호","category":"기타 - 기계공구"},{"name":"에이스컴퓨터","tel":"032-624-3535","addr":"경기도 부천시 삼정동 36-1번지 부천테크노파크쌍용3차 203동 214호","category":"사무통신 - 통신기기"},{"name":"엔케이정보통신","tel":"032-624-0555","addr":"경기도 부천시 삼정동 36-1번지 부천테크노파크쌍용3차 302동 603호","category":"사무통신 - 통신기기"},{"name":"엘앤비","tel":"070-8691-2967","addr":"경기도 부천시 삼정동 36-1번지 부천테크노파크3단지 202동 503호","category":"의류 - 기타의류"},{"name":"엘이디조명생산자협동조합","tel":"032-624-3566","addr":"경기도 부천시 삼정동 36-1번지 부천테크노파크쌍용3차 303동 702호","category":"건축자재 - 조명기구"},{"name":"엠아이큐텍","tel":"032-624-2835","addr":"경기도 부천시 삼정동 36-1번지 부천테크노파크쌍용3차 102동 B101호","category":"기타 - 기계공구"},{"name":"엠엔씨오토메이션","tel":"032-324-2355","addr":"경기도 부천시 삼정동 36-1번지 부천테크노파크쌍용3차 101동 1103호","category":"기타 - 기계공구"},{"name":"오백국수부천테크노파크점","tel":"032-624-1997","addr":"경기도 부천시 삼정동 36-1번지 부천테크노파크쌍용3차 203동 208호","category":"일반휴게음식 - 일반한식"},{"name":"오토맥스","tel":"032-624-0269","addr":"경기도 부천시 삼정동 36-1번지 부천테크노파크쌍용3차 201동 501호","category":"기타 - 기계공구"},{"name":"오토맥스/원격지","tel":"032-624-0259","addr":"경기도 부천시 삼정동 36-1번지 부천테크노파크쌍용3차 201동 501호","category":"기타 - 기타 전문점"},{"name":"올필터","tel":"","addr":"경기도 부천시 삼정동 36-1번지 부천테크노파크쌍용3차 303동 11층 1103호","category":"기타 - 기계공구"},{"name":"용코로만두","tel":"","addr":"경기도 부천시 삼정동 36-1번지 부천테크노파크쌍용3차 203동 216호","category":"일반휴게음식 - 스넥"},{"name":"우영기획","tel":"032-624-1515","addr":"경기도 부천시 삼정동 36-1번지 부천테크노파크3차 401동 205호","category":"서적문구 - 출판 및 인쇄물"},{"name":"월드크린에어리어 주식회사","tel":"032-624-3439","addr":"경기도 부천시 삼정동 36-1번지 부천테크노파크쌍용3차 302동 704호","category":"건축자재 - 기타건축자재"},{"name":"유라시아테크","tel":"032-624-3817","addr":"경기도 부천시 삼정동 36-1 부천테크노파트쌍용3차일반제조 101-1305","category":"기타 - 기계공구"},{"name":"이노포스트레이딩","tel":"032-623-6479","addr":"경기도 부천시 삼정동 36-1번지 부천테크노파크쌍용3차 203동 403호","category":"전기제품 - 기타전기제품"},{"name":"이모네집밥","tel":"032-624-1478","addr":"경기도 부천시 삼정동 36-1번지 부천테크노파크쌍용3차 203동 314호","category":"일반휴게음식 - 일반한식"},{"name":"이층밥집","tel":"032-624-2755","addr":"경기도 부천시 삼정동 36-1번지 부천테크노파크쌍용3차 207,208","category":"일반휴게음식 - 일반한식"},{"name":"일층 커피집","tel":"032-624-4566","addr":"경기도 부천시 삼정동 36-1번지 부천테크노파크쌍용3차 401동 108호","category":"일반휴게음식 - 서양음식"},{"name":"좋은생각 국제특허 법률사무소","tel":"032-624-3731","addr":"경기도 부천시 삼정동 36-1번지 부천테크노파크쌍용3차 203동 210호","category":"용역 서비스 - 법률회계서비스(개인)"},{"name":"주식회사 가인워터","tel":"032-624-2238","addr":"경기도 부천시 삼정동 36-1번지 부천테크노파크쌍용3차 103동 703호","category":"신변잡화 - 기타잡화"},{"name":"주식회사 뉴케이","tel":"02-6080-6078","addr":"경기도 부천시 삼정동 36-1번지 부천테크노파크쌍용3차 301동 비103 (8, 9호)","category":"보건위생 - 화장품"},{"name":"주식회사 레이저스","tel":"032-624-0107","addr":"경기도 부천시 삼정동 36-1번지 부천테크노파크쌍용3차 102동 610호","category":"기타 - 기계공구"},{"name":"주식회사 맥스덴탈","tel":"032-624-3277","addr":"경기도 부천시 삼정동 36-1번지 부천테크노파크쌍용3차 203동 605호","category":"전기제품 - 기타전기제품"},{"name":"주식회사 새아스","tel":"032-624-1844","addr":"경기도 부천시 삼정동 36-1번지 부천테크노파크쌍용3차 401동 611호","category":"건축자재 - 기타건축자재"},{"name":"주식회사 씨켐시스템즈","tel":"070-4355-5411","addr":"경기도 부천시 삼정동 36-1번지 부천테크노파크쌍용3차303-708호","category":"전기제품 - 기타전기제품"},{"name":"주식회사 씨투케이크리에이티브","tel":"032-321-9119","addr":"경기도 부천시 삼정동 36-1번지 부천테크노파크쌍용3차 302동 607호","category":"기타 - 기계공구"},{"name":"주식회사 유니코","tel":"032-624-4233","addr":"경기도 부천시 삼정동 36-1번지 부천테크노파크쌍용3차 201동 604호","category":"신변잡화 - 기타잡화"},{"name":"주식회사 이노빌드","tel":"070-7099-0339","addr":"경기도 부천시 삼정동 36-1번지 부천테크노파크쌍용3차 303동 1105호,1106호,1107호","category":"전기제품 - 기타전기제품"},{"name":"주식회사 이노빌드","tel":"070-4099-0339","addr":"경기도 부천시 삼정동 36-1번지 303동 1105호,1106호,1107호","category":"전기제품 - 기타전기제품"},{"name":"주식회사 정훈에프앤비","tel":"032-624-0058","addr":"경기도 부천시 삼정동 36-1번지 부천테크노파크쌍용3차 203동 B05호","category":"음료식품 - 정육점"},{"name":"주식회사 제이비아이(JBI)","tel":"","addr":"경기도 부천시 삼정동 36-1번지 부천테크노파크쌍용3차 첨단제조 201동 506호","category":"가구 - 기타가구"},{"name":"주식회사 제이펀","tel":"070-4120-8606","addr":"경기도 부천시 삼정동 36-1번지 부천테크노파크쌍용3차 303동 702호","category":"전기제품 - 가전제품"},{"name":"주식회사 지티스","tel":"032-624-2336","addr":"경기도 부천시 삼정동 36-1번지 부천테크노파크쌍용3차 203동 B07호","category":"일반휴게음식 - 위탁급식업"},{"name":"주식회사 카라반","tel":"032-624-2095","addr":"경기도 부천시 삼정동 36-1 , 201-1004부천테크노파크쌍용3차","category":"가구 - 기타가구"},{"name":"주식회사 팜앤숲(Farm&Forest co.,Ltd.)","tel":"032-715-5250","addr":"경기도 부천시 삼정동 36-1번지 부천테크노파크쌍용3차 401동 504호","category":"음료식품 - 농·축·수산품"},{"name":"주식회사 한성바이오","tel":"032-624-2324","addr":"경기도 부천시 삼정동 36-1번지 부천테크노파크쌍용3차 103동 1003호","category":"신변잡화 - 기타잡화"},{"name":"주식회사 한스테크놀로지","tel":"070-7404-2100","addr":"경기도 부천시 삼정동 36-1번지 부천테크노파크쌍용3차 301동 707호","category":"전기제품 - 기타전기제품"},{"name":"주식회사 훔볼트","tel":"032-624-0799","addr":"경기도 부천시 삼정동 36-1번지 부천테크노파크쌍용3차 201동 1001호","category":"음료식품 - 기타음료식품"},{"name":"주식회사 휴로트","tel":"0505-350-8100","addr":"경기도 부천시 삼정동 36-1번지 부천테크노파크쌍용3차 203동 404호","category":"기타 - 기계공구"},{"name":"주식회사반도레포츠","tel":"032-624-3571","addr":"경기도 부천시 삼정동 36-1번지 부천테크노파크쌍용3차일반제조 101동 1302호","category":"레져용품 - 스포츠·레져용품"},{"name":"주식회사세인에프엔씨/푸드제일아이티","tel":"032-624-1377","addr":"경기도 부천시 삼정동 36-1번지 부천테크노파크쌍용3차302동비108호","category":"일반휴게음식 - 일반한식"},{"name":"주식회사숲엔들","tel":"070-8255-7059","addr":"경기도 부천시 삼정동 36-1번지 부천테크노파크쌍용3차 103동 1210호","category":"전기제품 - 가전제품"},{"name":"주식회사아이센서코리아","tel":"032-624-1666","addr":"경기도 부천시 삼정동 36-1번지 테크노파크3차 104동 714호","category":"기타 - 기계공구"},{"name":"주식회사우진메이킹","tel":"032-624-3230","addr":"경기도 부천시 삼정동 36-1번지 부천테크노파크쌍용3차첨단제조 203동 502호","category":"유통업 영리 - 기타유통업"},{"name":"주식회사유토테크","tel":"032-327-7931","addr":"경기도 부천시 삼정동 36-1번지 부천테크노파크쌍용3차 303동 503호","category":"자동차정비 유지 - 자동차부품"},{"name":"주식회사인비티","tel":"032-326-8445","addr":"경기도 부천시 삼정동 36-1번지 부천테크노파크3차지원동 401동 405호","category":"서적문구 - 문구용품"},{"name":"주식회사정신","tel":"032-624-3270","addr":"경기도 부천시 삼정동 36-1번지 테크노파크쌍용3차일반제조 101동 1308호","category":"사무통신 - 사무용 OA기기"},{"name":"주식회사제이시스템","tel":"032-624-3377","addr":"경기도 부천시 삼정동 36-1번지 부천테크노파크쌍용3차 103동 1111호","category":"건축자재 - 조명기구"},{"name":"주）한국산업영상","tel":"032-624-3573","addr":"경기도 부천시 삼정동 36-1번지 부천테크노파크쌍용3차 302동 303호","category":"레져용품 - 음반/영상물"},{"name":"지우통상","tel":"032-624-3135","addr":"경기도 부천시 삼정동 36-1번지 부천테크노파크쌍용3차 102동 1109호","category":"전기제품 - 기타전기제품"},{"name":"지원기술/원격지","tel":"032-624-3476","addr":"경기도 부천시 삼정동 36-1번지 부천테크노파크쌍용3차 301동 1005호","category":"기타 - 기타 전문점"},{"name":"지웰전자(주)","tel":"032-624-3720","addr":"경기도 부천시 삼정동 36-1번지 부천테크노파크쌍용3차 303동 503호","category":"사무통신 - 컴퓨터"},{"name":"진바이오메드","tel":"032-624-4890","addr":"경기도 부천시 삼정동 36-1번지 부천테크노파크쌍용3차 101동 1106호","category":"보건위생 - 의료용품"},{"name":"참맛푸드","tel":"032-678-0597","addr":"경기도 부천시 삼정동 36-1번지 쌍용테크노파크3차일반제조 101동 808호","category":"음료식품 - 정육점"},{"name":"청원정밀","tel":"032-624-2794","addr":"경기도 부천시 삼정동 36-1번지 부천테크노파크쌍용3차 103동 104호","category":"기타 - 기계공구"},{"name":"청정테크","tel":"","addr":"경기도 부천시 삼정동 36-1번지 부천테크노파크쌍용3차 101동 311호","category":"주방용구 - 주방용구"},{"name":"청춘국밥","tel":"032-624-1470","addr":"경기도 부천시 삼정동 36-1번지 부천테크노파크쌍용3차 401동 205호","category":"일반휴게음식 - 일반한식"},{"name":"츠판","tel":"032-624-1253","addr":"경기도 부천시 삼정동 36-1번지 부천테크노파크쌍용3차 203동 318호","category":"일반휴게음식 - 중국식"},{"name":"츠판","tel":"032-624-1255","addr":"경기도 부천시 삼정동 36-1번지 부천테크노파크쌍용3차 203동 318호","category":"일반휴게음식 - 중국식"},{"name":"카페티움","tel":"032-624-0654","addr":"경기도 부천시 삼정동 36-1번지 부천테크노파크쌍용3차 203동 207호","category":"일반휴게음식 - 서양음식"},{"name":"커피더캠프(coffe the camp)","tel":"032-624-4501","addr":"경기도 부천시 삼정동 36-1번지 부천테크노파크쌍용3차 지원시설 402동 101호","category":"일반휴게음식 - 서양음식"},{"name":"코리아비즈","tel":"070-7501-6207","addr":"경기도 부천시 삼정동 36-1번지 부천테크노파크쌍용3차 303동 B101호","category":"전기제품 - 기타전기제품"},{"name":"코스모아 (COSMOA)","tel":"02-6335-0114","addr":"경기도 부천시 삼정동 36-1번지 부천테크노파크쌍용3차 203동 304호","category":"보건위생 - 화장품"},{"name":"테크노파크공인중개사사무소","tel":"032-624-1488","addr":"경기도 부천시 삼정동 36-1번지 부천테크노파크쌍용3차 401동 104호","category":"용역 서비스 - 부동산 중개·임대"},{"name":"테크톤","tel":"032-624-0360","addr":"경기도 부천시 삼정동 36-1번지 부천테크노파크쌍용3차 104동 710호","category":"서적문구 - 과학기자재"},{"name":"티에스티","tel":"031-000-0000","addr":"경기도 부천시 삼정동 36-1번지 부천테크노파크쌍용3차 201동 205호","category":"기타 - 기계공구"},{"name":"포스트정공","tel":"032-624-1885","addr":"경기도 부천시 삼정동 36-1번지 부천테크노파크쌍용3차 103동 510호","category":"기타 - 기계공구"},{"name":"푸드제일아이티","tel":"032-624-1377","addr":"경기도 부천시 삼정동 36-1번지 부천테크노파크쌍용3차 302동 B108호","category":"일반휴게음식 - 일반한식"},{"name":"푸드제일아이티","tel":"032-624-1377","addr":"경기도 부천시 삼정동 36-1번지 부천테크노파크쌍용3차 302동 B108호","category":"일반휴게음식 - 일반한식"},{"name":"푸드하우스","tel":"032-624-1377","addr":"경기도 부천시 삼정동 36-1번지 부천테크노파크쌍용3차 203동 B07호","category":"일반휴게음식 - 일반한식"},{"name":"피코젠","tel":"032-624-3256","addr":"경기도 부천시 삼정동 36-1번지 부천테크노파크쌍용3차 102동 1208호","category":"사무통신 - 통신기기"},{"name":"하이-텍/원격지","tel":"","addr":"경기도 부천시 삼정동 36-1번지 부천테크노파크쌍용3차일반제조 101동 707호","category":"기타 - 기타 전문점"},{"name":"하이디어개발주식회사","tel":"032-679-6881","addr":"경기도 부천시 삼정동 36-1 쌍용테크노파크104-508","category":"기타 - 기계공구"},{"name":"한국비엠아이(B.M.I)시스템","tel":"070-4048-0948","addr":"경기도 부천시 삼정동 36-1번지 부천테크노파크쌍용3차 102동 1005호","category":"자동차정비 유지 - 자동차부품"},{"name":"한상차림","tel":"032-624-2119","addr":"경기도 부천시 삼정동 36-1번지 부천테크노파크쌍용3차 203동 316호","category":"일반휴게음식 - 일반한식"},{"name":"해빛(haveit)","tel":"032-111-1111","addr":"경기도 부천시 삼정동 36-1번지 부천테크노파크쌍용3차 303동 1006호","category":"보건위생 - 미용재료"},{"name":"해성엔지니어링","tel":"032-624-1091","addr":"경기도 부천시 삼정동 36-1번지 부천테크노파크쌍용3차 101동 1212호","category":"회원제형태 - 기타4"},{"name":"현정보통신","tel":"070-4922-1261","addr":"경기도 부천시 삼정동 36-1번지 부천테크노파크쌍용3차 첨단제조 203동 211호","category":"사무통신 - 통신기기"},{"name":"홀푸드연구소","tel":"032-624-4099","addr":"경기도 부천시 삼정동 36-1번지 부천테크노파크쌍용3차 203동 311호","category":"일반휴게음식 - 서양음식"},{"name":"휘너스코리아","tel":"070-7012-2854","addr":"경기도 부천시 삼정동 36-1번지 부천테크노파크쌍용3차 302동 1005호","category":"회원제형태 - 기타4"}]},{"lat":"37.523401101","long":"126.77260829","items":[{"name":"(주)경인1급자동차 공업사","tel":"032-676-7368","addr":"경기도 부천시 삼정동 220-1번지","category":"자동차정비 유지 - 자동차정비"},{"name":"경인1급자동차공업사","tel":"032-676-7368","addr":"경기도 부천시 삼정동 220-1번지 1층","category":"자동차정비 유지 - 자동차정비"}]},{"lat":"37.527006028","long":"126.76852458","items":[{"name":"(주)대명테크","tel":"032-678-6161","addr":"경기도 부천시 삼정동 18-35번지","category":"사무통신 - 통신기기"}]},{"lat":"37.523231698","long":"126.7735251","items":[{"name":"(주)더조은푸드","tel":"070-7758-1157","addr":"경기도 부천시 삼정동 203-1번지 2층","category":"음료식품 - 기타음료식품"},{"name":"(주)만어어태치","tel":"032-677-3093","addr":"경기도 부천시 삼정동 203-1번지","category":"기타 - 기계공구"},{"name":"옥진중공업","tel":"032-671-1907","addr":"경기도 부천시 삼정동 203-1번지","category":"기타 - 기계공구"}]},{"lat":"37.526843627","long":"126.76841196","items":[{"name":"(주)메이저텍","tel":"032-671-1372","addr":"경기도 부천시 삼정동 18-34번지","category":"기타 - 기타 전문점"},{"name":"디알테크","tel":"032-676-4226","addr":"경기도 부천시 삼정동 18-34번지","category":"기타 - 기계공구"},{"name":"찬미식당","tel":"032-673-5788","addr":"경기도 부천시 삼정동 18-34번지","category":"일반휴게음식 - 일반한식"}]},{"lat":"37.527058873","long":"126.76791352","items":[{"name":"(주)북일조명","tel":"032-677-9766","addr":"경기도 부천시 삼정동 18-29번지","category":"건축자재 - 조명기구"}]},{"lat":"37.52800319","long":"126.76705077","items":[{"name":"(주)상쿠스","tel":"032-357-5536","addr":"경기도 부천시 삼정동 60-32번지","category":"전기제품 - 기타전기제품"}]},{"lat":"37.518924097","long":"126.76399127","items":[{"name":"(주)새한시트","tel":"031-621-2601","addr":"경기도 부천시 삼정동 365번지 부천테크노파크3단지 301동 501호","category":"건축자재 - 기타건축자재"},{"name":"GS25테크노파크2","tel":"031-321-6546","addr":"경기도 부천시 삼정동 365번지 부천테크노파크 300동 114호","category":"유통업 영리 - 편 의 점"},{"name":"SMT","tel":"032-322-9703","addr":"경기도 부천시 삼정동 365번지 부천테크노파크부대동 가동 410호","category":"서적문구 - 과학기자재"},{"name":"갑승파워시스템","tel":"032-325-9944","addr":"경기도 부천시 삼정동 365외1필지부천테크노파크 302-703","category":"전기제품 - 기타전기제품"},{"name":"거한신소재개발원","tel":"032-325-8790","addr":"경기도 부천시 삼정동 365번지 부천테크노파크3단지 302동 804호","category":"전기제품 - 기타전기제품"},{"name":"그린위치","tel":"032-324-6862","addr":"경기도 부천시 삼정동 365번지 부천테크노파크 300동 109호","category":"일반휴게음식 - 서양음식"},{"name":"나노기술/원격지","tel":"032-234-2662","addr":"경기도 부천시 삼정동 365번지 부천테크노파크3단지 304동 205호 일부","category":"기타 - 기타 전문점"},{"name":"뉴텍인터네셔널","tel":"032-715-7886","addr":"경기도 부천시 삼정동 365번지 부천테크노파크 302동 201호","category":"기타 - 기타 전문점"},{"name":"담배","tel":"032-234-1008","addr":"경기도 부천시 삼정동 365번지 부천테크노3단지 300동 10호 1층","category":"음료식품 - 기타음료식품"},{"name":"대흥와이어컷팅","tel":"032-322-5298","addr":"경기도 부천시 삼정동 365번지 부천테크노파크3단지 304동 304호","category":"전기제품 - 기타전기제품"},{"name":"로맨틱데코","tel":"032-326-4058","addr":"경기도 부천시 삼정동 365번지 부천테크노파크3단지 304동 807호","category":"회원제형태 - 기타4"},{"name":"마당감자탕","tel":"070-8869-2694","addr":"경기도 부천시 삼정동 365번지 부천테크노파크 부대동 2층 204호","category":"일반휴게음식 - 일반한식"},{"name":"메타하이텍/원격지","tel":"032-324-0605","addr":"경기도 부천시 삼정동 365번지 테크노파크 300동 412호","category":"기타 - 기타 전문점"},{"name":"명일엔지니어링","tel":"032-673-9266","addr":"경기도 부천시 삼정동 365번지 부천테크노파크3단지 302동 507호","category":"기타 - 기계공구"},{"name":"미송공인중개사사무소","tel":"032-621-0808","addr":"경기도 부천시 삼정동 365번지 부천테크노파크부대동 107호","category":"용역 서비스 - 부동산 중개·임대"},{"name":"바이오퍼스글로벌 주식회사","tel":"032-323-6851","addr":"경기도 부천시 삼정동 365번지 부천테크노파크3단지 302동 705호","category":"서적문구 - 과학기자재"},{"name":"방일해장국","tel":"032-322-4489","addr":"경기도 부천시 삼정동 365번지 부천테크노파크3단지 203호","category":"일반휴게음식 - 일반한식"},{"name":"봉구스밥버거 부천테크노파크점","tel":"032-327-8909","addr":"경기도 부천시 삼정동 365번지 부천테크노파크 112호","category":"일반휴게음식 - 일반한식"},{"name":"부천테크노파크 3단지 입주사 대표회의","tel":"032-234-3140","addr":"경기도 부천시 삼정동 365번지 부천테크노파크3단지","category":"자동차정비 유지 - 주차장"},{"name":"산너울주식회사","tel":"032-621-1995","addr":"경기도 부천시 삼정동 365번지 부천테크노파크3단지 부대동 가동 305호","category":"직물 - 카페트,커튼,천막,지물"},{"name":"서니로봇","tel":"032-326-4771","addr":"경기도 부천시 삼정동 365번지 부천테크노파크3단지 303동 606호","category":"서적문구 - 과학기자재"},{"name":"서진시스템","tel":"032-323-4631","addr":"경기도 부천시 삼정동 365번지 부천테크노파크3단지 303동 807호","category":"전기제품 - 가전제품"},{"name":"성신MST/원격지","tel":"032-672-4677","addr":"경기도 부천시 삼정동 365번지 외1필지 부천테크노파크 304동 107호","category":"기타 - 기타 전문점"},{"name":"성오인성교육원","tel":"","addr":"경기도 부천시 삼정동 365번지 부천테크노파크 301동 1204호 2호실","category":"학원 - 기타 교육기관"},{"name":"세명이앤티","tel":"032-234-5012","addr":"경기도 부천시 삼정동 365번지 부천테크노파크3단지 301동 1202호","category":"기타 - 기계공구"},{"name":"세무사윤용대사무소","tel":"032-324-5900","addr":"경기도 부천시 삼정동 365번지 부천테크노파크 300동 212호","category":"용역 서비스 - 법률회계서비스(개인)"},{"name":"세종커튼블라인드","tel":"032-327-1430","addr":"경기도 부천시 삼정동 365번지 부천테크노파크 300동 201호","category":"직물 - 카페트,커튼,천막,지물"},{"name":"스타일인","tel":"033-742-5741","addr":"경기도 부천시 삼정동 365번지 부천테크노파크3단지 300동 309호","category":"의류 - 정장"},{"name":"슬립메이트주식회사","tel":"032-1599-9534","addr":"경기도 부천시 삼정동 365번지 부천테크노파크3단지 301동 304호","category":"전기제품 - 기타전기제품"},{"name":"신성정밀","tel":"032-322-2913","addr":"경기도 부천시 삼정동 365번지 부천테크노파크3단지 304동 204호","category":"기타 - 기계공구"},{"name":"신영와이어","tel":"032-324-9654","addr":"경기도 부천시 삼정동 365번지 부천테크노파크3단지 302동 205호","category":"기타 - 기계공구"},{"name":"실로암종합상사","tel":"032-234-4811","addr":"경기도 부천시 삼정동 365번지 부천테크노파크3단지 301동 604호","category":"신변잡화 - 액세서리"},{"name":"씨에스엠유통주식회사","tel":"032-556-1509","addr":"경기도 부천시 삼정동 365번지 부천테크노파크부대동 가동 306호","category":"음료식품 - 농·축·수산품"},{"name":"씨유부천테크노3단지점","tel":"032-662-3088","addr":"경기도 부천시 삼정동 365번지 부천테크노파크 101호","category":"유통업 영리 - 편 의 점"},{"name":"알파 테크노파크점","tel":"032-234-2267","addr":"경기도 부천시 삼정동 365번지 부천테크노파크 300동 108호","category":"서적문구 - 문구용품"},{"name":"알파문구테크노파크점","tel":"032-234-2266","addr":"경기도 부천시 삼정동 365외1필지부천테크노파크제부대동1층108호","category":"서적문구 - 문구용품"},{"name":"에스앤피플래너(S&P planner)","tel":"02-780-9200","addr":"경기도 부천시 삼정동 365번지 부천테크노파크3단지 302동 902호","category":"유통업 영리 - 기타유통업"},{"name":"에스제이상사","tel":"032-234-0989","addr":"경기도 부천시 삼정동 365번지 부천테크노파크부대동 104호","category":"기타 - 기계공구"},{"name":"엠티아이","tel":"032-236-6727","addr":"경기도 부천시 삼정동 365번지 부천테크노파크3단지 304동 208호","category":"기타 - 기타 전문점"},{"name":"엠피일렉트로닉스(주)","tel":"032-234-2532","addr":"경기도 부천시 삼정동 365번지 부천테크노파크3단지 301동 501호","category":"전기제품 - 기타전기제품"},{"name":"올컴","tel":"032-214-0606","addr":"경기도 부천시 삼정동 365번지 부천테크노파크 300동 100호","category":"사무통신 - 컴퓨터"},{"name":"옹기촌","tel":"032-325-6164","addr":"경기도 부천시 삼정동 365외1필지300-207","category":"일반휴게음식 - 일반한식"},{"name":"우정식당","tel":"032-234-3737","addr":"경기도 부천시 삼정동 365번지 부천테크노파크 102호","category":"일반휴게음식 - 일반한식"},{"name":"이안나농장","tel":"032-321-1592","addr":"경기도 부천시 삼정동 365번지 부천테크노파크3단지 302동 203호","category":"음료식품 - 농·축·수산품"},{"name":"이지테크","tel":"032-000-0000","addr":"경기도 부천시 삼정동 365번지 부천테크노파크 304동 505호","category":"서적문구 - 과학기자재"},{"name":"제이비","tel":"032-323-1141","addr":"경기도 부천시 삼정동 365번지 부천테크노파크 300동 103호","category":"일반휴게음식 - 서양음식"},{"name":"주식회사 베이퍼룩스","tel":"032-329-5211","addr":"경기도 부천시 삼정동 365번지 부천테크노파크3단지 304동 804호","category":"레져용품 - 스포츠·레져용품"},{"name":"주식회사 에스티엠솔루션","tel":"032-277-0505","addr":"경기도 부천시 삼정동 365번지 부천테크노파크3단지 301동 503호","category":"전기제품 - 기타전기제품"},{"name":"주식회사 엘리체","tel":"032-328-2181","addr":"경기도 부천시 삼정동 365번지 부천테크노파크3단지 304동 506호","category":"의류 - 기타의류"},{"name":"주식회사다인디피에스","tel":"032-235-1425","addr":"경기도 부천시 삼정동 365번지 부천테크노파크3단지 303동 106호","category":"의류 - 정장"},{"name":"주식회사디시스","tel":"032-621-1897","addr":"경기도 부천시 삼정동 365번지 부천테크노파크 103동 501호","category":"사무통신 - 통신기기"},{"name":"주식회사센서로닉","tel":"032-325-4071","addr":"경기도 부천시 삼정동 365번지 부천테크노파크3단지 301동 802호","category":"기타 - 기계공구"},{"name":"주식회사엔코","tel":"032-322-9831","addr":"경기도 부천시 삼정동 365번지 부천테크노파크3단지 301호","category":"기타 - 기계공구"},{"name":"주식회사유니아","tel":"032-321-0999","addr":"경기도 부천시 삼정동 365번지 부천테크노파크3단지 301동 802호","category":"기타 - 기계공구"},{"name":"주식회사이셀(Ecell)","tel":"032-715-8077","addr":"경기도 부천시 삼정동 365번지 부천테크노파크 304동 808호","category":"기타 - 기계공구"},{"name":"주식회사잉카솔루션","tel":"032-327-3775","addr":"경기도 부천시 삼정동 365번지 부천테크노파크3단지 303동 903호","category":"사무통신 - 통신기기"},{"name":"테두리","tel":"032-613-1996","addr":"경기도 부천시 삼정동 365번지 부천테크노파크3단지 304동 902호","category":"서적문구 - 출판 및 인쇄물"},{"name":"테크노마트","tel":"032-234-1008","addr":"경기도 부천시 삼정동 365번지 부천테크노파크제부대동 1층","category":"유통업 영리 - 슈퍼마켓"},{"name":"파란광학","tel":"032-321-1592","addr":"경기도 부천시 삼정동 365번지 부천테크노파크3단지 302동 202호","category":"서적문구 - 과학기자재"},{"name":"포인트 당구클럽","tel":"032-321-2473","addr":"경기도 부천시 삼정동 365번지 부천테크노파트 3동 단디상가동 202호","category":"레저업소 - 당 구 장"},{"name":"폴리옵틱스","tel":"032-323-2072","addr":"경기도 부천시 삼정동 365번지 부천테크노파크3단지 303동 201호","category":"기타 - 기타 전문점"},{"name":"필드로","tel":"032-431-4565","addr":"경기도 부천시 삼정동 365번지 부천테크노파크 300동 506호","category":"회원제형태 - 건강식품"},{"name":"한국특수인쇄","tel":"032-621-2225","addr":"경기도 부천시 삼정동 365번지 부천테크노파크3단지 302동 101호","category":"서적문구 - 출판 및 인쇄물"},{"name":"현대공구","tel":"032-621-1818","addr":"경기도 부천시 삼정동 365번지 부천테크노파크 300동 1층 106호","category":"기타 - 기계공구"},{"name":"호남추어탕갈치조림전문점","tel":"032-325-9554","addr":"경기도 부천시 삼정동 365번지 부천테크노파크3단지 303동 113호","category":"일반휴게음식 - 일반한식"}]},{"lat":"37.523226309","long":"126.76177166","items":[{"name":"(주)서하모터스","tel":"032-250-7625","addr":"경기도 부천시 삼정동 366-1번지 국민차매매단지 258호","category":"자동차판매 - 중고자동차판매"},{"name":"(주)애니카모터스","tel":"032-250-7310","addr":"경기도 부천시 삼정동 366-1번지 국민차매매단지 246호","category":"자동차판매 - 중고자동차판매"},{"name":"(주)오토매니지먼트렌터카","tel":"031-8025-7822","addr":"경기도 부천시 삼정동 366-1번지 국민차매매단지 401호","category":"여행 - 렌터카"},{"name":"(주)오토매니지먼트렌터카","tel":"031-8025-7822","addr":"경기도 부천시 삼정동 366-1번지 국민차매매단지 401호","category":"여행 - 렌터카"},{"name":"(주)현모터스","tel":"032-250-7164","addr":"경기도 부천시 삼정동 366-1번지 국민차매매단지 261호","category":"자동차판매 - 중고자동차판매"},{"name":"63모터스","tel":"032-000-0000","addr":"경기도 부천시 삼정동 366-1번지 국민차매매단지 106호","category":"자동차판매 - 중고자동차판매"},{"name":"GS25국민차차차점","tel":"","addr":"경기도 부천시 삼정동 366-1번지 국민차매매단지 1102호","category":"유통업 영리 - 편 의 점"},{"name":"국민차광택6호","tel":"02-1111-1111","addr":"경기도 부천시 삼정동 366-1번지 국민차매매단지 B05호","category":"자동차정비 유지 - 카인테리어"},{"name":"그린광택","tel":"032-111-1111","addr":"경기도 부천시 삼정동 366-1번지 부천자동차매매단지 B03호","category":"자동차정비 유지 - 카인테리어"},{"name":"두손모터스2","tel":"032-250-7215","addr":"경기도 부천시 삼정동 366-1번지 국민차매매단지 214호","category":"자동차판매 - 중고자동차판매"},{"name":"두영광택","tel":"032-000-0000","addr":"경기도 부천시 삼정동 366-1번지 부천자동차매매단지 지하1층 B08호","category":"자동차정비 유지 - 카인테리어"},{"name":"믿음모터스 주식회사","tel":"032-250-7250","addr":"경기도 부천시 삼정동 366-1번지 국민차매매단지 2209호","category":"자동차판매 - 중고자동차판매"},{"name":"서로모터스","tel":"032-250-7625","addr":"경기도 부천시 삼정동 366-1번지 국민차매매단지 259호","category":"자동차판매 - 중고자동차판매"},{"name":"석모터스","tel":"032-250-7570","addr":"경기도 부천시 삼정동 366-1번지 국민차매매단지 252호","category":"자동차판매 - 중고자동차판매"},{"name":"송파모터스","tel":"032-250-7309","addr":"경기도 부천시 삼정동 366-1번지 국민차매매단지 309호","category":"자동차판매 - 중고자동차판매"},{"name":"스미일세차","tel":"","addr":"경기도 부천시 삼정동 366-1번지 국민차매매단지 1107호","category":"자동차정비 유지 - 세차장"},{"name":"스타카오디오","tel":"070-3000-1211","addr":"경기도 부천시 삼정동 366-1번지 국민차매매단지 1111호","category":"자동차정비 유지 - 자동차부품"},{"name":"심모터스","tel":"032-250-8210","addr":"경기도 부천시 삼정동 366-1번지 국민차매매단지 111호","category":"자동차판매 - 중고자동차판매"},{"name":"양스부대찌개(국민차점)","tel":"","addr":"경기도 부천시 삼정동 366-1번지 국민차매매단지 1층 1104호","category":"일반휴게음식 - 일반한식"},{"name":"에스앤피(S&P)모터스","tel":"032-250-7219","addr":"경기도 부천시 삼정동 366-1번지 국민차매매단지 219호","category":"자동차판매 - 중고자동차판매"},{"name":"에이스광택","tel":"032-111-1111","addr":"경기도 부천시 삼정동 366-1번지 국민차매매단지 B02 .B09호","category":"자동차정비 유지 - 카인테리어"},{"name":"오케이광택","tel":"032-000-0000","addr":"경기도 부천시 삼정동 366-1번지 부천자동차매매단지 B07호","category":"자동차정비 유지 - 카인테리어"},{"name":"오토매니지먼트컴퍼니","tel":"032-250-7028","addr":"경기도 부천시 삼정동 366-1번지 국민차매매단지 1110호","category":"자동차정비 유지 - 자동차정비"},{"name":"오픈카모터스","tel":"032-250-7555","addr":"경기도 부천시 삼정동 366-1번지 자동차매매단지 266호","category":"자동차판매 - 중고자동차판매"},{"name":"우현모터스","tel":"032-250-7935","addr":"경기도 부천시 삼정동 366-1번지 국민차매매단지 267호","category":"자동차판매 - 중고자동차판매"},{"name":"원컴퍼니","tel":"032-250-7232","addr":"경기도 부천시 삼정동 366-1번지 국민차매매단지 232호","category":"자동차판매 - 중고자동차판매"},{"name":"주식회사 나연모터스","tel":"","addr":"경기도 부천시 삼정동 366-1번지 국민차매매단지 301호","category":"자동차판매 - 중고자동차판매"},{"name":"주식회사 다온오토","tel":"032-250-7680","addr":"경기도 부천시 삼정동 366-1번지 국민차매매단지 304호","category":"자동차판매 - 중고자동차판매"},{"name":"주식회사 케이엠모터스2호점","tel":"032-250-7211","addr":"경기도 부천시 삼정동 366-1번지 국민차매매단지 211호","category":"자동차판매 - 중고자동차판매"},{"name":"주식회사 케이카","tel":"032-250-7290","addr":"경기도 부천시 삼정동 366-1번지 국민차매매단지 263호","category":"자동차판매 - 중고자동차판매"},{"name":"지에스모터스1","tel":"","addr":"경기도 부천시 삼정동 366-1번지 국민차매매단지 270호","category":"자동차판매 - 중고자동차판매"},{"name":"차차차모터스","tel":"032-250-7646","addr":"경기도 부천시 삼정동 366-1번지 국민차매매단지 265호","category":"자동차판매 - 중고자동차판매"},{"name":"착한중고차","tel":"032-250-7104","addr":"경기도 부천시 삼정동 366-1번지 국민차매매단지 104호","category":"자동차판매 - 중고자동차판매"},{"name":"청춘카페","tel":"032-250-7135","addr":"경기도 부천시 삼정동 366-1번지 국민차매매단지 203호","category":"자동차판매 - 중고자동차판매"},{"name":"카맥스","tel":"032-250-7274","addr":"경기도 부천시 삼정동 366-1번지 국민차매매단지 274호","category":"자동차판매 - 중고자동차판매"},{"name":"카스토리2","tel":"","addr":"경기도 부천시 삼정동 366-1번지 국민차매매단지 2층 237호","category":"자동차판매 - 중고자동차판매"},{"name":"카스토리모터스","tel":"","addr":"경기도 부천시 삼정동 366-1번지 국민차매매단지 1109호","category":"자동차정비 유지 - 자동차정비"},{"name":"카카매니저","tel":"032-250-7687","addr":"경기도 부천시 삼정동 366-1번지 국민차매매단지 202호","category":"자동차판매 - 중고자동차판매"},{"name":"클린카","tel":"032-250-7274","addr":"경기도 부천시 삼정동 366-1번지 국민차매매단지 274호","category":"자동차판매 - 중고자동차판매"},{"name":"투맨광택","tel":"02-1111-1111","addr":"경기도 부천시 삼정동 366-1번지 부천자동차매매단지 B05호","category":"자동차정비 유지 - 카인테리어"},{"name":"파스쿠찌(카스퀘어점)","tel":"032-250-8897","addr":"경기도 부천시 삼정동 366-1번지 부천자동차매매단지 1층 1101호","category":"일반휴게음식 - 서양음식"},{"name":"하나오토컴퍼니","tel":"032-250-7308","addr":"경기도 부천시 삼정동 366-1번지 국민차매매단지 308호","category":"자동차판매 - 중고자동차판매"},{"name":"한모터스","tel":"032-250-7224","addr":"경기도 부천시 삼정동 366-1번지 국민차매매단지 224호","category":"자동차판매 - 중고자동차판매"},{"name":"한상가득","tel":"032-250-8153","addr":"경기도 부천시 삼정동 366-1번지 국민차매매단지 1103호","category":"일반휴게음식 - 일반한식"},{"name":"현대모터스","tel":"032-250-7908","addr":"경기도 부천시 삼정동 366-1번지 국민차매매단지 239호","category":"자동차판매 - 중고자동차판매"},{"name":"휠모터스","tel":"032-250-7247","addr":"경기도 부천시 삼정동 366-1번지 국민차매매단지 2층 247호","category":"자동차판매 - 중고자동차판매"}]},{"lat":"37.524508714","long":"126.77229945","items":[{"name":"(주)세광이엔지","tel":"032-674-0611","addr":"경기도 부천시 삼정동 85-47번지","category":"자동차정비 유지 - 자동차부품"}]},{"lat":"37.521061384","long":"126.76947076","items":[{"name":"(주)에스제이네이션","tel":"032-683-6034","addr":"경기도 부천시 삼정동 266-3번지 2층","category":"의류 - 정장"}]},{"lat":"37.52545107","long":"126.77504551","items":[{"name":"(주)이지테크","tel":"032-678-4532","addr":"경기도 부천시 삼정동 48-18번지","category":"기타 - 기계공구"}]},{"lat":"37.51898062","long":"126.76521275","items":[{"name":"(주)일신의료기","tel":"032-234-0008","addr":"경기도 부천시 삼정동 365-1,365번지부천테크노파크2차302-707","category":"보건위생 - 의료용품"},{"name":"(주)휴먼세크","tel":"032-321-0173","addr":"경기도 부천시 삼정동 365-1부천테크노파크304-804","category":"기타 - 기계공구"},{"name":"신성정밀","tel":"032-322-2913","addr":"경기도 부천시 삼정동 365-1부천테크노파크304-204","category":"기타 - 기계공구"},{"name":"우수엔지니어링","tel":"032-324-6245","addr":"경기도 부천시 삼정동 365-1부천테크노파크2차303-410","category":"기타 - 기계공구"},{"name":"우수엔지니어링/원격지","tel":"032-322-8321","addr":"경기도 부천시 삼정동 365-1,365번지부천테크노파크2차303-410","category":"기타 - 기타 전문점"}]},{"lat":"37.520646306","long":"126.76915532","items":[{"name":"(주)조아테크","tel":"032-684-7422","addr":"경기도 부천시 삼정동 267-4번지","category":"보건위생 - 의료용품"},{"name":"성심테크","tel":"032-349-2458","addr":"경기도 부천시 삼정동 267-4번지 2층","category":"서적문구 - 출판 및 인쇄물"},{"name":"센추리공조시스템","tel":"032-666-8577","addr":"경기도 부천시 삼정동 267-4번지","category":"전기제품 - 냉열기기"},{"name":"연호모터스","tel":"032-672-4140","addr":"경기도 부천시 삼정동 267-4번지 2,6층","category":"자동차정비 유지 - 자동차정비"},{"name":"장수모터스","tel":"032-677-5652","addr":"경기도 부천시 삼정동 267-4번지 4층 장수모터스","category":"자동차정비 유지 - 자동차정비"},{"name":"타미드 주식회사","tel":"032-1544-5661","addr":"경기도 부천시 삼정동 267-4번지 4층","category":"레져용품 - 골프용품 전문점"}]},{"lat":"37.526455373","long":"126.7679946","items":[{"name":"(주)참조은에프앤비","tel":"032-677-7723","addr":"경기도 부천시 삼정동 19-22번지 ,3,4층","category":"음료식품 - 기타음료식품"}]},{"lat":"37.522423114","long":"126.77471536","items":[{"name":"(주)케이제이씨","tel":"032-675-0801","addr":"경기도 부천시 삼정동 201-1번지 2층","category":"기타 - 기계공구"},{"name":"공원상회","tel":"032-672-1677","addr":"경기도 부천시 삼정동 201-1번지","category":"신변잡화 - 기타잡화"},{"name":"전주밥상","tel":"032-679-3351","addr":"경기도 부천시 삼정동 201-1번지 1층","category":"일반휴게음식 - 일반한식"}]},{"lat":"37.524950016","long":"126.76315756","items":[{"name":"(주)코스텍코리아","tel":"032-683-3204","addr":"경기도 부천시 삼정동 34-2번지","category":"기타 - 기계공구"},{"name":"S.M ENG","tel":"032-671-9983","addr":"경기도 부천시 삼정동 34-2번지","category":"기타 - 기계공구"}]},{"lat":"37.521927136","long":"126.77449062","items":[{"name":"(주)팍스모리","tel":"032-230-6695","addr":"경기도 부천시 삼정동 201-9번지 오승빌딩","category":"보건위생 - 화장품"}]},{"lat":"37.517729368","long":"126.76577098","items":[{"name":"(주)하나여행사이지","tel":"032-326-0203","addr":"경기도 부천시 삼정동 276-10번지 3층","category":"여행 - 관광여행"},{"name":"에스엔비/주식회사 에스엔비컴퍼니","tel":"02-111-1111","addr":"경기도 부천시 삼정동 276-10번지 1층 일부호","category":"일반휴게음식 - 서양음식"},{"name":"주식회사 에스엔비컴퍼니","tel":"02-1111-1111","addr":"경기도 부천시 삼정동 276-10번지 1층","category":"일반휴게음식 - 서양음식"}]},{"lat":"37.521115152","long":"126.76932353","items":[{"name":"(주)홍성광학","tel":"032-612-1701","addr":"경기도 부천시 삼정동 266-2번지","category":"광학제품 - 기타광학제품"}]},{"lat":"37.51711537","long":"126.76963009","items":[{"name":"007당구클럽","tel":"032-672-1279","addr":"경기도 부천시 삼정동 294-1번지 3층","category":"레저업소 - 당 구 장"},{"name":"도화","tel":"032-684-4488","addr":"경기도 부천시 삼정동 294-1번지 404호","category":"문화.취미 - 문화취미기타"},{"name":"바다수산","tel":"032-684-3322","addr":"경기도 부천시 삼정동 294-1번지","category":"음료식품 - 농·축·수산품"},{"name":"보뜨헤어","tel":"032-673-6311","addr":"경기도 부천시 삼정동 294-1번지 1층 일부","category":"보건위생 - 미용원"},{"name":"에덴인테리어","tel":"032-673-2525","addr":"경기도 부천시 삼정동 294-1번지 108호","category":"직물 - 카페트,커튼,천막,지물"},{"name":"진화원","tel":"032-671-0326","addr":"경기도 부천시 삼정동 294-1번지","category":"문화.취미 - 화원"},{"name":"쿨노래연습장","tel":"","addr":"경기도 부천시 삼정동 294-1번지 지층","category":"레저업소 - 노 래 방"},{"name":"한복한가정의원","tel":"032-672-5311","addr":"경기도 부천시 삼정동 294-1번지","category":"의원 - 의원"},{"name":"한빛약국","tel":"032-674-2912","addr":"경기도 부천시 삼정동 294-1번지","category":"약국 - 약국"},{"name":"행복한가정의원","tel":"032-672-5311","addr":"경기도 부천시 삼정동 294-1번지","category":"의원 - 의원"},{"name":"홈앤오피스가구","tel":"032-1688-1697","addr":"경기도 부천시 삼정동 294-1번지","category":"가구 - 일반가구"}]},{"lat":"37.516619986","long":"126.76971081","items":[{"name":"3일소고기국밥","tel":"032-343-3198","addr":"경기도 부천시 삼정동 294-7번지 1층","category":"일반휴게음식 - 일반한식"},{"name":"맘스앤키즈방방","tel":"032-676-1305","addr":"경기도 부천시 삼정동 294-7번지 지층","category":"레저업소 - 기타레져업소"},{"name":"명품당구장","tel":"032-217-1367","addr":"경기도 부천시 삼정동 294-7번지 2층","category":"레저업소 - 당 구 장"}]},{"lat":"37.524701111","long":"126.77393917","items":[{"name":"5비에프(5BF)","tel":"070-4106-9232","addr":"경기도 부천시 삼정동 48-212번지 2층","category":"신변잡화 - 기타잡화"},{"name":"ALLTHREE","tel":"032-684-0113","addr":"경기도 부천시 삼정동 48-212번지 건물전체","category":"기타 - 기타 전문점"}]},{"lat":"37.517512138","long":"126.76979853","items":[{"name":"BHC치킨","tel":"032-677-9797","addr":"경기도 부천시 삼정동 295-21번지","category":"일반휴게음식 - 서양음식"},{"name":"엠티24시","tel":"032-682-3196","addr":"경기도 부천시 삼정동 295-21번지","category":"유통업 영리 - 편 의 점"},{"name":"현대커텐","tel":"032-675-7840","addr":"경기도 부천시 삼정동 295-21번지","category":"직물 - 카페트,커튼,천막,지물"}]},{"lat":"37.518512117","long":"126.76973886","items":[{"name":"EMI (이엠아이)보습학원","tel":"032-682-1357","addr":"경기도 부천시 삼정동 296-13번지 302호","category":"학원 - 보습학원"},{"name":"김밥하우스","tel":"032-682-2560","addr":"경기도 부천시 삼정동 296-13번지","category":"일반휴게음식 - 스넥"},{"name":"부천명문태권도","tel":"032-674-1525","addr":"경기도 부천시 삼정동 296-13번지","category":"학원 - 예·체능계학원"},{"name":"연세피아노학원","tel":"032-672-7837","addr":"경기도 부천시 삼정동 296-13번지","category":"학원 - 예·체능계학원"},{"name":"중앙철물","tel":"032-672-0885","addr":"경기도 부천시 삼정동 296-13번지","category":"기타 - 기계공구"},{"name":"헤어클릭","tel":"032-671-6146","addr":"경기도 부천시 삼정동 296-13번지","category":"보건위생 - 미용원"},{"name":"형상미술학원","tel":"032-676-8038","addr":"경기도 부천시 삼정동 296-13번지 3층 301호","category":"학원 - 예·체능계학원"}]},{"lat":"37.517929488","long":"126.76672051","items":[{"name":"G&G통상","tel":"032-204-3363","addr":"경기도 부천시 삼정동 283-33번지 지층","category":"신변잡화 - 기타잡화"}]},{"lat":"37.51825594","long":"126.76777145","items":[{"name":"GS25삼정타운점","tel":"","addr":"경기도 부천시 삼정동 283-10번지","category":"유통업 영리 - 편 의 점"}]},{"lat":"37.525477815","long":"126.76574646","items":[{"name":"HOBBY CENTER(하비센타)","tel":"032-681-1624","addr":"경기도 부천시 삼정동 29-17번지 2층","category":"서적문구 - 문구용품"},{"name":"배꼽시계식당","tel":"032-683-3451","addr":"경기도 부천시 삼정동 29-17번지 한신플라스틱","category":"일반휴게음식 - 일반한식"},{"name":"협성테크","tel":"032-672-9766","addr":"경기도 부천시 삼정동 29-17번지","category":"신변잡화 - 기타잡화"}]},{"lat":"37.515227507","long":"126.77177376","items":[{"name":"J.J","tel":"0032-0679-8900","addr":"경기도 부천시 삼정동 315-14번지","category":"별도관리 - 자체물품대금"},{"name":"JJ","tel":"032-679-8900","addr":"경기도 부천시 삼정동 315-14번지 1층","category":"사무통신 - 통신기기"},{"name":"상미유통","tel":"032-674-3731","addr":"경기도 부천시 삼정동 315-14번지","category":"음료식품 - 정육점"}]},{"lat":"37.516340748","long":"126.76974562","items":[{"name":"JJ당구장","tel":"070-4046-0769","addr":"경기도 부천시 삼정동 294-11번지 3층","category":"레저업소 - 당 구 장"},{"name":"럭셔리노래연습장","tel":"032-203-3300","addr":"경기도 부천시 삼정동 294-11번지","category":"레저업소 - 노 래 방"},{"name":"신흥한의원","tel":"032-677-7585","addr":"경기도 부천시 삼정동 294-11번지 2층","category":"의원 - 한의원"},{"name":"이마트24 부천신흥시장점","tel":"032-1111-1111","addr":"경기도 부천시 삼정동 294-11번지 1층 서측일부","category":"유통업 영리 - 편 의 점"},{"name":"크로커다일부천신흥점","tel":"032-678-2829","addr":"경기도 부천시 삼정동 294-11번지 1층 가운데점포","category":"의류 - 정장"}]},{"lat":"37.51737054","long":"126.77109978","items":[{"name":"MIAN. TRADERS","tel":"","addr":"경기도 부천시 삼정동 305-56번지 1층","category":"음료식품 - 기타음료식품"},{"name":"이모네손만두찐빵","tel":"032-682-6992","addr":"경기도 부천시 삼정동 305-56번지","category":"일반휴게음식 - 일반한식"}]},{"lat":"37.529006386","long":"126.76860883","items":[{"name":"Motor City","tel":"032-681-7114","addr":"경기도 부천시 삼정동 54-9번지","category":"자동차정비 유지 - 자동차정비"},{"name":"독도자동차공업사","tel":"032-681-7114","addr":"경기도 부천시 삼정동 54-9번지","category":"자동차정비 유지 - 자동차정비"}]},{"lat":"37.514672842","long":"126.77380014","items":[{"name":"ND기업","tel":"032-683-9197","addr":"경기도 부천시 삼정동 319번지 외1필지","category":"용역 서비스 - 종합용역"},{"name":"라온헤어","tel":"032-221-1589","addr":"경기도 부천시 삼정동 319번지","category":"보건위생 - 미용원"},{"name":"전주순대국","tel":"032-675-2333","addr":"경기도 부천시 삼정동 319번지","category":"일반휴게음식 - 일반한식"}]},{"lat":"37.525560471","long":"126.77107445","items":[{"name":"NFSRACING","tel":"032-683-3142","addr":"경기도 부천시 삼정동 70-39번지 NFS","category":"자동차정비 유지 - 자동차부품"},{"name":"국제자동차유리시트사","tel":"032-676-2213","addr":"경기도 부천시 삼정동 70-39번지 1층 101,102호","category":"자동차정비 유지 - 자동차부품"},{"name":"미도식당","tel":"032-673-6253","addr":"경기도 부천시 삼정동 70-39번지 1층 일부","category":"일반휴게음식 - 일반한식"}]},{"lat":"37.515782071","long":"126.76971342","items":[{"name":"SSS명품치킨","tel":"032-679-8036","addr":"경기도 부천시 삼정동 293-14번지 국제빌딩 1층 101호","category":"일반휴게음식 - 스넥"},{"name":"동경약국","tel":"032-672-6633","addr":"경기도 부천시 삼정동 293-14번지","category":"약국 - 약국"},{"name":"용가리노래연습장","tel":"032-672-8036","addr":"경기도 부천시 삼정동 293-14번지","category":"레저업소 - 노 래 방"},{"name":"허피부피뇨과","tel":"032-681-7500","addr":"경기도 부천시 삼정동 293-14번지 국제빌딩 301호","category":"의원 - 의원"}]},{"lat":"37.514455573","long":"126.77326919","items":[{"name":"S스킨&바디","tel":"070-7664-5991","addr":"경기도 부천시 삼정동 318-10번지 1층 동쪽점포","category":"보건위생 - 피부미용실"},{"name":"라온태권도","tel":"032-674-2106","addr":"경기도 부천시 삼정동 318-10번지 2층 전부","category":"학원 - 예·체능계학원"},{"name":"루브르","tel":"032-673-2268","addr":"경기도 부천시 삼정동 318-10번지","category":"신변잡화 - 기념품점"},{"name":"민구밧데리","tel":"032-684-3169","addr":"경기도 부천시 삼정동 318-10번지","category":"자동차정비 유지 - 자동차정비"},{"name":"삼성스마트존","tel":"070-5022-4846","addr":"경기도 부천시 삼정동 318-10번지","category":"전기제품 - 기타전기제품"},{"name":"약대비어","tel":"032-674-3480","addr":"경기도 부천시 삼정동 318-10번지","category":"일반휴게음식 - 주점"},{"name":"컵오브커피삼정동점","tel":"032-431-7891","addr":"경기도 부천시 삼정동 318-10번지 1층","category":"일반휴게음식 - 서양음식"},{"name":"황금분식","tel":"032-677-7029","addr":"경기도 부천시 삼정동 318-10번지 1층","category":"일반휴게음식 - 스넥"}]},{"lat":"37.516840865","long":"126.77207419","items":[{"name":"fufu coffee(푸푸커피)","tel":"032-673-6980","addr":"경기도 부천시 삼정동 307-23번지 일부 1층","category":"일반휴게음식 - 서양음식"}]},{"lat":"37.528090498","long":"126.76121298","items":[{"name":"가온유통","tel":"032-677-7826","addr":"경기도 부천시 삼정동 16-15 14","category":"음료식품 - 정육점"},{"name":"대박양곱창","tel":"032-679-6500","addr":"경기도 부천시 삼정동 16-15번지 3층","category":"일반휴게음식 - 일반한식"},{"name":"대일축산","tel":"032-683-2003","addr":"경기도 부천시 삼정동 16-15, 2층 3","category":"음료식품 - 정육점"},{"name":"부원축산","tel":"032-681-3785","addr":"경기도 부천시 삼정동 16-15번지 2층 1,2호","category":"음료식품 - 정육점"},{"name":"이루세축산","tel":"","addr":"경기도 부천시 삼정동 16-15번지 1층 9호","category":"음료식품 - 정육점"},{"name":"중동축산","tel":"032-684-0280","addr":"경기도 부천시 삼정동 16-15번지 2층","category":"음료식품 - 정육점"},{"name":"진미식품","tel":"032-675-2163","addr":"경기도 부천시 삼정동 16-15 판매장시설1층 11","category":"음료식품 - 정육점"},{"name":"초산","tel":"032-672-6565","addr":"경기도 부천시 삼정동 16-15번지 2층 7호","category":"음료식품 - 정육점"},{"name":"한국축산유통","tel":"032-682-7378","addr":"경기도 부천시 삼정동 16-15,2층4,5호","category":"음료식품 - 정육점"},{"name":"희망상회","tel":"032-675-2164","addr":"경기도 부천시 삼정동 16-15번지 1층 9호","category":"음료식품 - 정육점"}]},{"lat":"37.519611271","long":"126.76971282","items":[{"name":"가정식백반뷔페","tel":"032-684-1431","addr":"경기도 부천시 삼정동 297-3번지 삼일연립 가동 102호","category":"일반휴게음식 - 일반한식"},{"name":"고홈푸드","tel":"032-682-1231","addr":"경기도 부천시 삼정동 297-3번지 삼일연립 가동 102호","category":"일반휴게음식 - 일반한식"}]},{"lat":"37.526062225","long":"126.76513372","items":[{"name":"강서부천점 싸다모터스","tel":"032-673-5556","addr":"경기도 부천시 삼정동 19-11번지 1층,2층","category":"자동차정비 유지 - 자동차정비"},{"name":"백두차유리","tel":"032-652-5122","addr":"경기도 부천시 삼정동 19-11번지 1층 109호","category":"건축자재 - 유리"},{"name":"소망문구인쇄","tel":"032-674-6948","addr":"경기도 부천시 삼정동 19-11번지","category":"서적문구 - 문구용품"},{"name":"싸다커피(SSADA COFFEE)","tel":"070-4164-8308","addr":"경기도 부천시 삼정동 19-11번지 1층","category":"일반휴게음식 - 서양음식"}]},{"lat":"37.516651128","long":"126.77180331","items":[{"name":"건국우유 북부천 대리점","tel":"032-674-5600","addr":"경기도 부천시 삼정동 309-17번지 1층","category":"음료식품 - 기타음료식품"}]},{"lat":"37.516088517","long":"126.76976902","items":[{"name":"건일바이오","tel":"070-7374-6161","addr":"경기도 부천시 삼정동 293-30번지 세종빌딩 4층","category":"보건위생 - 의료용품"},{"name":"무지개소아과","tel":"032-682-5520","addr":"경기도 부천시 삼정동 293-30번지 세종빌딩 2층","category":"의원 - 의원"},{"name":"수노래연습장","tel":"","addr":"경기도 부천시 삼정동 293-30번지 세종빌딩 3층","category":"레저업소 - 노 래 방"},{"name":"쑥찜","tel":"032-677-2446","addr":"경기도 부천시 삼정동 293-30번지 세종빌딩 지하","category":"보건위생 - 피부미용실"},{"name":"최유희헤어","tel":"032-679-3665","addr":"경기도 부천시 삼정동 293-30번지","category":"보건위생 - 화장품"},{"name":"최유희헤어클럽","tel":"","addr":"경기도 부천시 삼정동 293-30번지 세종빌딩 1층","category":"보건위생 - 미용원"},{"name":"하이크라스","tel":"032-684-1415","addr":"경기도 부천시 삼정동 293-30번지","category":"의류 - 정장"}]},{"lat":"37.51612373","long":"126.7693504","items":[{"name":"게장정식","tel":"032-682-6748","addr":"경기도 부천시 삼정동 293번지 2층","category":"일반휴게음식 - 일반한식"},{"name":"돈사랑","tel":"032-682-6748","addr":"경기도 부천시 삼정동 293번지","category":"일반휴게음식 - 일반한식"}]},{"lat":"37.526704235","long":"126.76182834","items":[{"name":"경남에스앤제이2공장","tel":"032-541-6658","addr":"경기도 부천시 삼정동 17-1 1층,3층","category":"수리서비스 - 세탁소"},{"name":"한양패키지","tel":"032-565-9402","addr":"경기도 부천시 삼정동 17-1번지","category":"서적문구 - 출판 및 인쇄물"},{"name":"행복한식당","tel":"","addr":"경기도 부천시 삼정동 17-1번지","category":"일반휴게음식 - 일반한식"}]},{"lat":"37.528759466","long":"126.77132475","items":[{"name":"경인상사","tel":"032-676-3412","addr":"경기도 부천시 삼정동 48-84번지","category":"음료식품 - 기타음료식품"}]},{"lat":"37.51595337","long":"126.76976944","items":[{"name":"경희바른한의원","tel":"032-721-7510","addr":"경기도 부천시 삼정동 293-31번지 2층","category":"의원 - 한의원"},{"name":"김밥나라","tel":"032-673-1732","addr":"경기도 부천시 삼정동 293-31번지","category":"일반휴게음식 - 일반한식"},{"name":"더키즈스토리","tel":"032-213-1113","addr":"경기도 부천시 삼정동 293-31번지 4층","category":"일반휴게음식 - 서양음식"},{"name":"땡큐노래연습장","tel":"","addr":"경기도 부천시 삼정동 293-31번지 지층","category":"레저업소 - 노 래 방"},{"name":"바우네나주곰탕(신흥시장점)","tel":"032-671-3236","addr":"경기도 부천시 삼정동 293-31번지 1층","category":"일반휴게음식 - 일반한식"}]},{"lat":"37.515731726","long":"126.77160254","items":[{"name":"계양농자재","tel":"032-547-9600","addr":"경기도 부천시 삼정동 313-17번지","category":"농업 - 농기계"}]},{"lat":"37.519540286","long":"126.77026731","items":[{"name":"계양전기","tel":"032-682-2033","addr":"경기도 부천시 삼정동 298-3","category":"전기제품 - 기타전기제품"}]},{"lat":"37.516843979","long":"126.76907668","items":[{"name":"고기백화점","tel":"032-674-5807","addr":"경기도 부천시 삼정동 289-41번지 성경빌라 101호","category":"음료식품 - 정육점"}]},{"lat":"37.514837777","long":"126.77059862","items":[{"name":"고기장사","tel":"032-682-9939","addr":"경기도 부천시 삼정동 342-3번지 1층 104호","category":"음료식품 - 정육점"},{"name":"고기장사꼬기집","tel":"032-682-9939","addr":"경기도 부천시 삼정동 342-3번지 1층 105호","category":"일반휴게음식 - 일반한식"},{"name":"김밥천국","tel":"032-679-3010","addr":"경기도 부천시 삼정동 342-3번지","category":"일반휴게음식 - 일반한식"},{"name":"부천심미치과의원","tel":"032-675-2852","addr":"경기도 부천시 삼정동 342-3번지 2층","category":"의원 - 치과의원"},{"name":"빽다방 부천약대점","tel":"032-672-5040","addr":"경기도 부천시 삼정동 342-3번지 103호","category":"일반휴게음식 - 서양음식"},{"name":"신흥당구장","tel":"070-8990-5231","addr":"경기도 부천시 삼정동 342-3번지 3층","category":"레저업소 - 당 구 장"},{"name":"풀향기산소독서실","tel":"032-679-0919","addr":"경기도 부천시 삼정동 342-3번지 4층","category":"학원 - 독서실"},{"name":"햇빛동물병원","tel":"032-676-7584","addr":"경기도 부천시 삼정동 342-3 1층(101호)","category":"기타의료기관 - 동물병원"}]},{"lat":"37.515201075","long":"126.77207924","items":[{"name":"고향지짐이","tel":"032-682-9384","addr":"경기도 부천시 삼정동 315-18번지","category":"일반휴게음식 - 일반한식"},{"name":"뜨락민속식당","tel":"032-679-3030","addr":"경기도 부천시 삼정동 315-18번지","category":"일반휴게음식 - 일반한식"},{"name":"샤론헤어샵","tel":"032-682-4227","addr":"경기도 부천시 삼정동 315-18번지","category":"보건위생 - 미용원"},{"name":"서원각","tel":"031-1111-1111","addr":"경기도 부천시 삼정동 315-18번지 1층","category":"일반휴게음식 - 중국식"}]},{"lat":"37.515784588","long":"126.77099157","items":[{"name":"공간","tel":"032-674-8144","addr":"경기도 부천시 삼정동 313-23번지","category":"직물 - 카페트,커튼,천막,지물"},{"name":"나드리","tel":"031-676-8508","addr":"경기도 부천시 삼정동 313-23번지 1층 2호","category":"의류 - 정장"},{"name":"노가네족발","tel":"032-671-1960","addr":"경기도 부천시 삼정동 313-23번지","category":"일반휴게음식 - 일반한식"},{"name":"명문수예","tel":"032-673-7505","addr":"경기도 부천시 삼정동 313-23번지","category":"직물 - 침구·수예점"},{"name":"벗이랑부대찌개","tel":"032-677-1936","addr":"경기도 부천시 삼정동 313-23번지","category":"일반휴게음식 - 일반한식"}]},{"lat":"37.515982693","long":"126.77093441","items":[{"name":"공주식당","tel":"032-672-3878","addr":"경기도 부천시 삼정동 313-31번지 1층","category":"일반휴게음식 - 일반한식"},{"name":"열린횟집","tel":"032-678-8985","addr":"경기도 부천시 삼정동 313-31번지 1층","category":"일반휴게음식 - 일반한식"},{"name":"이모드환경","tel":"032-677-7891","addr":"경기도 부천시 삼정동 313-31번지 2층","category":"용역 서비스 - 종합용역"}]},{"lat":"37.517505506","long":"126.76646168","items":[{"name":"광운OA센타","tel":"032-654-6660","addr":"경기도 부천시 삼정동 282-15번지 1층","category":"사무통신 - 사무용 OA기기"}]},{"lat":"37.522256611","long":"126.77248737","items":[{"name":"광진하이텍","tel":"031-671-6602","addr":"경기도 부천시 삼정동 219-15번지","category":"기타 - 기타 전문점"}]},{"lat":"37.522144971","long":"126.77068909","items":[{"name":"구내매점","tel":"032-673-2877","addr":"경기도 부천시 삼정동 271번지","category":"유통업 비영리 - 구내매점(국가기관"}]},{"lat":"37.517373152","long":"126.77243452","items":[{"name":"국민서관","tel":"070-4465-2875","addr":"경기도 부천시 삼정동 305-21번지 지층","category":"서적문구 - 문구용품"},{"name":"마시왕치킨","tel":"032-682-3248","addr":"경기도 부천시 삼정동 305-21번지 1층","category":"일반휴게음식 - 주점"}]},{"lat":"37.514038298","long":"126.77182267","items":[{"name":"군산옛날김치찌개","tel":"032-674-3889","addr":"경기도 부천시 삼정동 346-5번지 월드맨션 14동 101호","category":"일반휴게음식 - 일반한식"},{"name":"신우정보/특별할부","tel":"032-657-8124","addr":"경기도 부천시 삼정동 346-5번지 월드맨션 14동 102호","category":"사무통신 - 사무용 OA기기"}]},{"lat":"37.517504265","long":"126.77037544","items":[{"name":"그린비제과","tel":"032-672-1923","addr":"경기도 부천시 삼정동 303-2번지 삼정연립 A동 103호","category":"음료식품 - 제과점"},{"name":"동네포차","tel":"032-673-4676","addr":"경기도 부천시 삼정동 303-2번지 삼정연립 A동 4호","category":"일반휴게음식 - 일반한식"}]},{"lat":"37.516590046","long":"126.77282151","items":[{"name":"글로벌인터내셔날","tel":"032-676-0786","addr":"경기도 부천시 삼정동 310-3번지 지층","category":"사무통신 - 컴퓨터"},{"name":"동아조명","tel":"032-676-1078","addr":"경기도 부천시 삼정동 310-3번지 지층","category":"건축자재 - 조명기구"},{"name":"모아헤어","tel":"032-469-2406","addr":"경기도 부천시 삼정동 310-3번지","category":"보건위생 - 미용원"},{"name":"이마트24 부천삼정점","tel":"","addr":"경기도 부천시 삼정동 310-3번지 1층 102,103호","category":"유통업 영리 - 편 의 점"},{"name":"케이엔제이코리아","tel":"032-677-2142","addr":"경기도 부천시 삼정동 310-3번지","category":"신변잡화 - 기타잡화"}]},{"lat":"37.528281613","long":"126.77115653","items":[{"name":"금강프린텍","tel":"032-267-9005","addr":"경기도 부천시 삼정동 48-111번지","category":"서적문구 - 출판 및 인쇄물"}]},{"lat":"37.534117361","long":"126.76085412","items":[{"name":"금강화분","tel":"032-675-1006","addr":"경기도 부천시 삼정동 3-13","category":"문화.취미 - 화원"}]},{"lat":"37.519707018","long":"126.76801576","items":[{"name":"금빛솔루션","tel":"","addr":"경기도 부천시 삼정동 274-3번지 1층","category":"신변잡화 - 기타잡화"}]},{"lat":"37.517675296","long":"126.77029573","items":[{"name":"금빛행복나라","tel":"032-676-0612","addr":"경기도 부천시 삼정동 303-1번지 창안빌딩 1층","category":"신변잡화 - 기타잡화"},{"name":"부천교육사","tel":"032-673-6633","addr":"경기도 부천시 삼정동 303-1번지 1층","category":"회원제형태 - 서적"},{"name":"약대종로약국","tel":"032-677-0541","addr":"경기도 부천시 삼정동 303-1번지 창안빌딩 1층","category":"약국 - 약국"},{"name":"한중한방병원","tel":"031-1522-6344","addr":"경기도 부천시 삼정동 303-1번지 창안빌딩 2,3층","category":"병원 - 한방병원"}]},{"lat":"37.516288538","long":"126.77068461","items":[{"name":"금호당","tel":"032-676-0202","addr":"경기도 부천시 삼정동 308-10번지","category":"신변잡화 - 시계"},{"name":"새한사","tel":"032-673-7488","addr":"경기도 부천시 삼정동 308-10번지 1층","category":"수리서비스 - 세탁소"},{"name":"신흥화원","tel":"032-675-5542","addr":"경기도 부천시 삼정동 308-10번지","category":"문화.취미 - 화원"},{"name":"아리아스소주방","tel":"032-679-2807","addr":"경기도 부천시 삼정동 308-10번지 지하층","category":"일반휴게음식 - 칵테일바"},{"name":"아지트","tel":"032-673-0780","addr":"경기도 부천시 삼정동 308-10번지 1층","category":"의류 - 정장"}]},{"lat":"37.527201986","long":"126.76291278","items":[{"name":"기타 스포츠 시설 운영업","tel":"","addr":"경기도 부천시 삼정동 17-28번지 2층","category":"레져용품 - 스포츠·레져용품"}]},{"lat":"37.519452714","long":"126.7669985","items":[{"name":"김가이가콩비지전문점","tel":"032-674-3210","addr":"경기도 부천시 삼정동 275-8번지","category":"일반휴게음식 - 일반한식"}]},{"lat":"37.51745005","long":"126.77029643","items":[{"name":"김밥전문점 (진)","tel":"032-671-4986","addr":"경기도 부천시 삼정동 303-2번지 삼정연립 상가 1층 101호","category":"일반휴게음식 - 스넥"}]},{"lat":"37.514119718","long":"126.77199209","items":[{"name":"김옥헤어월드","tel":"032-676-1355","addr":"경기도 부천시 삼정동 346-4번지 월드맨션 15동상가 101호","category":"보건위생 - 미용원"},{"name":"태영철물","tel":"032-672-9680","addr":"경기도 부천시 삼정동 346-4번지 월드맨션 15동 102호","category":"기타 - 기계공구"}]},{"lat":"37.517397184","long":"126.76636022","items":[{"name":"김정희미용타운","tel":"032-677-2883","addr":"경기도 부천시 삼정동 282-31번지","category":"보건위생 - 미용원"},{"name":"마이데이","tel":"031-682-5864","addr":"경기도 부천시 삼정동 282-31번지 1층","category":"일반휴게음식 - 주점"}]},{"lat":"37.518369951","long":"126.7662101","items":[{"name":"깜시네보쌈집","tel":"070-7375-8554","addr":"경기도 부천시 삼정동 276번지 e-좋은아침 105호","category":"일반휴게음식 - 일반한식"},{"name":"명가부대찌개","tel":"032-674-5210","addr":"경기도 부천시 삼정동 276번지 e-좋은아침 104호","category":"일반휴게음식 - 일반한식"},{"name":"베스트올","tel":"032-677-3526","addr":"경기도 부천시 삼정동 276번지 E-좋은아침 103호","category":"유통업 영리 - 슈퍼마켓"},{"name":"양푼생고기 김치찌개","tel":"032-678-7711","addr":"경기도 부천시 삼정동 276번지 e-좋은아침 101호","category":"일반휴게음식 - 일반한식"},{"name":"쪼만국수&김밥","tel":"032-678-7443","addr":"경기도 부천시 삼정동 276번지 e-좋은아침 1층 102호","category":"일반휴게음식 - 일반한식"},{"name":"태후사랑","tel":"032-671-3211","addr":"경기도 부천시 삼정동 276번지 e-좋은아침 103호","category":"보건위생 - 미용원"}]},{"lat":"37.516062758","long":"126.77041384","items":[{"name":"꼬지사께","tel":"032-677-9749","addr":"경기도 부천시 삼정동 314번지 서경빌딩 1층 12호","category":"일반휴게음식 - 일반한식"},{"name":"덕우볼링장","tel":"032-683-4727","addr":"경기도 부천시 삼정동 314번지","category":"레저업소 - 볼 링 장"},{"name":"미라지피씨방","tel":"032-000-0000","addr":"경기도 부천시 삼정동 314번지 2층 3호","category":"레저업소 - 기타레져업소"},{"name":"미소애 치과의원","tel":"032-676-2804","addr":"경기도 부천시 삼정동 314번지 서경빌딩 3층 전체","category":"의원 - 치과의원"},{"name":"삼성우리이비인후과의원부천점","tel":"032-684-8222","addr":"경기도 부천시 삼정동 314번지 2층 1호","category":"의원 - 의원"},{"name":"서경빌딩","tel":"032-671-0747","addr":"경기도 부천시 삼정동 314번지","category":"의류 - 정장"},{"name":"성주컴퓨터","tel":"032-672-6220","addr":"경기도 부천시 삼정동 314번지 서경빌딩 1층","category":"사무통신 - 컴퓨터"},{"name":"속옷사랑","tel":"032-682-2749","addr":"경기도 부천시 삼정동 314번지","category":"의류 - 내의판매"},{"name":"에이스의류","tel":"032-676-4839","addr":"경기도 부천시 삼정동 314번지 1층 9호","category":"의류 - 정장"},{"name":"올리비아로렌 부천신흥점","tel":"032-678-7723","addr":"경기도 부천시 삼정동 314번지 1-4호","category":"레져용품 - 스포츠·레져용품"},{"name":"은약국","tel":"032-684-8109","addr":"경기도 부천시 삼정동 314번지 서경빌딩 1층 11호","category":"약국 - 약국"},{"name":"이영란스킨케어","tel":"032-673-3389","addr":"경기도 부천시 삼정동 314번지 201호","category":"회원제형태 - 기타4"},{"name":"카페알","tel":"032-672-9171","addr":"경기도 부천시 삼정동 314번지","category":"일반휴게음식 - 서양음식"},{"name":"캔톤","tel":"032-676-4834","addr":"경기도 부천시 삼정동 314번지 서경빌딩 1층 8호","category":"의류 - 정장"}]},{"lat":"37.51550446","long":"126.77057393","items":[{"name":"낙원식품","tel":"032-684-4696","addr":"경기도 부천시 삼정동 314-6번지","category":"음료식품 - 기타음료식품"},{"name":"낙원정육점","tel":"032-684-4696","addr":"경기도 부천시 삼정동 314-6번지","category":"음료식품 - 정육점"}]},{"lat":"37.515426652","long":"126.77224821","items":[{"name":"난영플라워","tel":"032-674-7345","addr":"경기도 부천시 삼정동 316-21번지","category":"문화.취미 - 화원"},{"name":"옛날막창","tel":"032-671-7796","addr":"경기도 부천시 삼정동 316-21번지","category":"일반휴게음식 - 서양음식"}]},{"lat":"37.519837721","long":"126.77032295","items":[{"name":"남도 죽순추어탕","tel":"032-672-5397","addr":"경기도 부천시 삼정동 298번지","category":"일반휴게음식 - 일반한식"}]},{"lat":"37.516845455","long":"126.76982323","items":[{"name":"남양지물","tel":"032-673-9415","addr":"경기도 부천시 삼정동 294-3번지","category":"직물 - 카페트,커튼,천막,지물"}]},{"lat":"37.519343382","long":"126.77093532","items":[{"name":"내쇼날마트","tel":"032-672-1950","addr":"경기도 부천시 삼정동 300번지","category":"유통업 영리 - 슈퍼마켓"}]},{"lat":"37.517035598","long":"126.77029771","items":[{"name":"내컴","tel":"032-678-4910","addr":"경기도 부천시 삼정동 308-15번지 1층","category":"사무통신 - 컴퓨터"},{"name":"씨유부천신흥점","tel":"032-681-9479","addr":"경기도 부천시 삼정동 308-15번지","category":"유통업 영리 - 편 의 점"},{"name":"오프더스튜디오","tel":"070-4354-8941","addr":"경기도 부천시 삼정동 308-15번지 2층","category":"광학제품 - 사진관"},{"name":"월드컵 노래연습장","tel":"032-687-3519","addr":"경기도 부천시 삼정동 308-15번지","category":"레저업소 - 노 래 방"}]},{"lat":"37.516287782","long":"126.77030003","items":[{"name":"노라조 노래연습장","tel":"","addr":"경기도 부천시 삼정동 308-12번지 G동 1층","category":"레저업소 - 노 래 방"},{"name":"비바체당구클럽","tel":"070-7317-1112","addr":"경기도 부천시 삼정동 308-12번지 3층","category":"레저업소 - 당 구 장"},{"name":"정내과","tel":"032-673-7582","addr":"경기도 부천시 삼정동 308-12번지","category":"의원 - 의원"}]},{"lat":"37.516288983","long":"126.77091084","items":[{"name":"놀자노래연습장","tel":"070-7365-9699","addr":"경기도 부천시 삼정동 309-32번지 지층","category":"레저업소 - 노 래 방"},{"name":"이화","tel":"032-111-1111","addr":"경기도 부천시 삼정동 309-32번지 1층 일부","category":"보건위생 - 미용원"},{"name":"일미양꼬치","tel":"02-111-1111","addr":"경기도 부천시 삼정동 309-32번지 1층","category":"일반휴게음식 - 중국식"},{"name":"제이랑호프","tel":"032-000-0000","addr":"경기도 부천시 삼정동 309-32번지","category":"일반휴게음식 - 주점"}]},{"lat":"37.518205738","long":"126.76971719","items":[{"name":"뉴(New)한림보습학원","tel":"","addr":"경기도 부천시 삼정동 295-16번지 202,203호","category":"학원 - 보습학원"},{"name":"삼정전기전자","tel":"032-679-6582","addr":"경기도 부천시 삼정동 295-16번지","category":"수리서비스 - 가정용품수리"},{"name":"엄마손칼국수","tel":"032-676-9887","addr":"경기도 부천시 삼정동 295-16번지","category":"일반휴게음식 - 일반한식"},{"name":"진솔메디텍","tel":"032-678-5303","addr":"경기도 부천시 삼정동 295-16번지 301-3호","category":"보건위생 - 의료용품"},{"name":"코렉스대리점","tel":"032-679-0037","addr":"경기도 부천시 삼정동 295-16번지","category":"레져용품 - 스포츠·레져용품"},{"name":"하나메디텍","tel":"032-674-5304","addr":"경기도 부천시 삼정동 295-16번지 4층","category":"보건위생 - 의료용품"}]},{"lat":"37.51772701","long":"126.76910786","items":[{"name":"뉴보은정성방역","tel":"032-624-0680","addr":"경기도 부천시 삼정동 288-27번지 예인빌라 101호","category":"용역 서비스 - 종합용역"}]},{"lat":"37.519538545","long":"126.76938501","items":[{"name":"뉴칸막이","tel":"032-678-2490","addr":"경기도 부천시 삼정동 297-5번지","category":"건축자재 - 인테리어전문"},{"name":"백두도서","tel":"032-648-9440","addr":"경기도 부천시 삼정동 297-5번지 1층","category":"서적문구 - 일반서적"},{"name":"주식회사 아이콕스","tel":"032-674-5685","addr":"경기도 부천시 삼정동 297-5번지 1층 코너","category":"서적문구 - 출판 및 인쇄물"},{"name":"플러스21","tel":"032-684-9441","addr":"경기도 부천시 삼정동 297-5번지 1층","category":"회원제형태 - 서적"}]},{"lat":"37.519142917","long":"126.76979346","items":[{"name":"니짱","tel":"032-671-7159","addr":"경기도 부천시 삼정동 296-28번지 1층","category":"의류 - 정장"},{"name":"만리향","tel":"032-679-7716","addr":"경기도 부천시 삼정동 296-28번지 1층","category":"일반휴게음식 - 중국식"}]},{"lat":"37.519647087","long":"126.76959959","items":[{"name":"다다커피","tel":"070-484-8454","addr":"경기도 부천시 삼정동 297-3번지 삼일연립 라동 1층 1호","category":"일반휴게음식 - 서양음식"},{"name":"다리원","tel":"032-673-6868","addr":"경기도 부천시 삼정동 297-3번지 삼일연립","category":"일반휴게음식 - 일반한식"},{"name":"부일곱창식당","tel":"032-677-8014","addr":"경기도 부천시 삼정동 297-3번지 삼일연립","category":"일반휴게음식 - 일반한식"}]},{"lat":"37.515451068","long":"126.77091343","items":[{"name":"다미","tel":"070-4922-1261","addr":"경기도 부천시 삼정동 315번지 삼정빌딩 109호","category":"의류 - 정장"},{"name":"대성방앗간","tel":"032-671-6529","addr":"경기도 부천시 삼정동 315번지","category":"음료식품 - 제과점"},{"name":"명동분식","tel":"032-672-7576","addr":"경기도 부천시 삼정동 315번지 삼정상가 D-4호","category":"일반휴게음식 - 스넥"},{"name":"신흥생선","tel":"032-674-7365","addr":"경기도 부천시 삼정동 315번지 삼정빌딩 B동 2호","category":"음료식품 - 농·축·수산품"},{"name":"신흥야채","tel":"032-672-3451","addr":"경기도 부천시 삼정동 315번지 삼정빌딩 101동 102호","category":"음료식품 - 농·축·수산품"},{"name":"튀벅","tel":"032-671-6845","addr":"경기도 부천시 삼정동 315번지 삼정빌딩 108호","category":"일반휴게음식 - 스넥"},{"name":"항구네","tel":"032-676-9958","addr":"경기도 부천시 삼정동 315번지 삼정빌딩 106호","category":"일반휴게음식 - 일반한식"}]},{"lat":"37.517171502","long":"126.77068188","items":[{"name":"다민헤어","tel":"031-678-3774","addr":"경기도 부천시 삼정동 308-23번지 1층","category":"보건위생 - 미용원"},{"name":"모범슈퍼","tel":"032-682-7083","addr":"경기도 부천시 삼정동 308-23번지","category":"유통업 영리 - 슈퍼마켓"},{"name":"카페하루","tel":"032-3433-5410","addr":"경기도 부천시 삼정동 308-23번지","category":"일반휴게음식 - 서양음식"}]},{"lat":"37.52586951","long":"126.76788331","items":[{"name":"다운조명","tel":"032-682-9025","addr":"경기도 부천시 삼정동 19-32번지 3층","category":"건축자재 - 조명기구"}]},{"lat":"37.523176341","long":"126.77285785","items":[{"name":"다음 피앤에스","tel":"032-677-2805","addr":"경기도 부천시 삼정동 220-4번지 2층","category":"수리서비스 - 사무·통신기기수리"}]},{"lat":"37.519010554","long":"126.76666054","items":[{"name":"다정재가노인복지센터","tel":"032-684-0707","addr":"경기도 부천시 삼정동 275-56번지 1층","category":"기타의료기관 - 기타의료기관 및 기타"}]},{"lat":"37.525367009","long":"126.76441192","items":[{"name":"닥터 다니엘","tel":"032-326-1055","addr":"경기도 부천시 삼정동 29-7번지 2층","category":"보건위생 - 의료용품"},{"name":"땡큐","tel":"032-677-4861","addr":"경기도 부천시 삼정동 29-7번지 1층","category":"일반휴게음식 - 서양음식"},{"name":"삼정카오디오","tel":"032-4150-3322","addr":"경기도 부천시 삼정동 29-7번지 1층","category":"자동차정비 유지 - 자동차부품"},{"name":"스피드공인중개사사무소","tel":"032-677-1777","addr":"경기도 부천시 삼정동 29-7번지 1층","category":"용역 서비스 - 부동산 중개·임대"},{"name":"주식회사 덴탈비","tel":"070-4209-2217","addr":"경기도 부천시 삼정동 29-7번지 3층","category":"보건위생 - 의료용품"}]},{"lat":"37.514672512","long":"126.77363048","items":[{"name":"담쟁이북카페","tel":"032-675-2525","addr":"경기도 부천시 삼정동 318-13번지 경원빌딩 2층","category":"일반휴게음식 - 서양음식"},{"name":"담쟁이추억","tel":"032-674-4585","addr":"경기도 부천시 삼정동 318-13번지 경원빌딩 1층","category":"일반휴게음식 - 일반한식"},{"name":"담쟁이추억","tel":"032-674-4585","addr":"경기도 부천시 삼정동 318-13번지 1층","category":"일반휴게음식 - 일반한식"},{"name":"떡카페 달나라토끼","tel":"032-677-2933","addr":"경기도 부천시 삼정동 318-13번지 경원빌딩 지하1층 일부","category":"음료식품 - 제과점"},{"name":"스마트웹","tel":"070-4179-2194","addr":"경기도 부천시 삼정동 318-13번지 경원빌딩 4층","category":"용역 서비스 - 소프트웨어"},{"name":"워크핸즈","tel":"070-5033-2194","addr":"경기도 부천시 삼정동 318-13번지 경원빌딩 4층","category":"용역 서비스 - 소프트웨어"},{"name":"콩나물신문협동조합","tel":"032-672-7472","addr":"경기도 부천시 삼정동 318-13번지 경원빌딩","category":"서적문구 - 정기간행물"}]},{"lat":"37.522537831","long":"126.76887792","items":[{"name":"대가기업","tel":"032-683-5858","addr":"경기도 부천시 삼정동 194-3번지 B동","category":"건축자재 - 기타건축자재"}]},{"lat":"37.519898871","long":"126.76934995","items":[{"name":"대광자동차","tel":"032-672-0820","addr":"경기도 부천시 삼정동 297번지","category":"자동차정비 유지 - 자동차정비"}]},{"lat":"37.517450449","long":"126.76596415","items":[{"name":"대길카센타","tel":"032-327-7977","addr":"경기도 부천시 삼정동 276-29번지","category":"자동차정비 유지 - 자동차정비"}]},{"lat":"37.524976366","long":"126.76729786","items":[{"name":"대도전원","tel":"032-330-0128","addr":"경기도 부천시 삼정동 24-10번지 3층","category":"전기제품 - 기타전기제품"},{"name":"주식회사 엠에프하이테크","tel":"032-667-1021","addr":"경기도 부천시 삼정동 24-10번지 유진빌딩 1동 3층 302호","category":"기타 - 기계공구"}]},{"lat":"37.522838112","long":"126.7749969","items":[{"name":"대림프라스틱산업","tel":"032-683-0089","addr":"경기도 부천시 삼정동 202-2번지 1층","category":"기타 - 기타 전문점"},{"name":"대양아이티에스(ITS)","tel":"032-676-9126","addr":"경기도 부천시 삼정동 202-2번지","category":"기타 - 기계공구"},{"name":"원테크","tel":"032-674-9934","addr":"경기도 부천시 삼정동 202-2번지","category":"기타 - 기계공구"},{"name":"주식회사세기텍","tel":"032-677-8521","addr":"경기도 부천시 삼정동 202-2번지","category":"건축자재 - 기타건축자재"},{"name":"현대자동차공업사","tel":"032-681-7111","addr":"경기도 부천시 삼정동 202-2번지 1층","category":"자동차정비 유지 - 자동차정비"}]},{"lat":"37.526036568","long":"126.77034896","items":[{"name":"대명공구","tel":"032-674-1391","addr":"경기도 부천시 삼정동 70-35번지 대창빌딩 1층 2호","category":"기타 - 기계공구"},{"name":"삼정스크린골프연습장","tel":"032-671-6611","addr":"경기도 부천시 삼정동 70-35번지 대창빌딩 2층","category":"레저업소 - 스크린골프"},{"name":"엔젤상사","tel":"032-674-8575","addr":"경기도 부천시 삼정동 70-35번지","category":"신변잡화 - 기타잡화"},{"name":"오정모터스","tel":"032-677-1101","addr":"경기도 부천시 삼정동 70-35번지","category":"자동차정비 유지 - 자동차정비"},{"name":"진흥전기","tel":"032-671-5853","addr":"경기도 부천시 삼정동 70-35번지","category":"건축자재 - 조명기구"}]},{"lat":"37.5245048","long":"126.76577216","items":[{"name":"대산환경개발","tel":"032-674-8597","addr":"경기도 부천시 삼정동 29-29번지","category":"기타 - 기계공구"}]},{"lat":"37.526983339","long":"126.76618289","items":[{"name":"대성씨앤씨 주식회사","tel":"042-221-6762","addr":"경기도 부천시 삼정동 18-22번지 2층 202호","category":"건축자재 - 페인트"}]},{"lat":"37.527562589","long":"126.76749336","items":[{"name":"대양특수기계","tel":"032-682-2423","addr":"경기도 부천시 삼정동 60-12번지","category":"기타 - 기계공구"},{"name":"인터블루인터내셔널","tel":"02-516-8187","addr":"경기도 부천시 삼정동 60-12번지 2층","category":"주방용구 - 주방용구"}]},{"lat":"37.51737336","long":"126.76796652","items":[{"name":"대원","tel":"032-671-3105","addr":"경기도 부천시 삼정동 288-3번지","category":"용역 서비스 - 기타용역서비스"}]},{"lat":"37.522425408","long":"126.77126514","items":[{"name":"대원공구","tel":"032-673-1064","addr":"경기도 부천시 삼정동 217번지","category":"기타 - 기계공구"},{"name":"대호식당","tel":"032-673-4335","addr":"경기도 부천시 삼정동 217번지","category":"일반휴게음식 - 일반한식"},{"name":"은혜슈퍼","tel":"032-675-9996","addr":"경기도 부천시 삼정동 217번지","category":"유통업 영리 - 슈퍼마켓"},{"name":"제일반점","tel":"032-674-0808","addr":"경기도 부천시 삼정동 217번지","category":"일반휴게음식 - 중국식"}]},{"lat":"37.525396093","long":"126.77457055","items":[{"name":"대원스피드모터스","tel":"032-683-7881","addr":"경기도 부천시 삼정동 48-24번지 1층 일부","category":"자동차정비 유지 - 자동차정비"},{"name":"대원자동차","tel":"032-683-1661","addr":"경기도 부천시 삼정동 48-24번지","category":"자동차정비 유지 - 자동차정비"},{"name":"오정현대자동차공업사","tel":"032-677-1250","addr":"경기도 부천시 삼정동 48-24번지","category":"자동차정비 유지 - 자동차정비"}]},{"lat":"37.518257379","long":"126.76849539","items":[{"name":"대일센추리","tel":"032-675-8187","addr":"경기도 부천시 삼정동 287-5번지 1층","category":"전기제품 - 냉열기기"}]},{"lat":"37.521339368","long":"126.76880248","items":[{"name":"대일전열","tel":"032-676-2332","addr":"경기도 부천시 삼정동 264-7번지","category":"기타 - 기계공구"}]},{"lat":"37.521587783","long":"126.77141479","items":[{"name":"대천식당","tel":"032-682-2642","addr":"경기도 부천시 삼정동 216-6번지","category":"일반휴게음식 - 일반한식"},{"name":"투익상사","tel":"032-655-0247","addr":"경기도 부천시 삼정동 216-6번지 대안빌딩","category":"자동차정비 유지 - 윤활유 전문 판매"}]},{"lat":"37.517726786","long":"126.76899475","items":[{"name":"대한불교법성종천상암","tel":"","addr":"경기도 부천시 삼정동 288-26번지","category":"보건위생 - 기타대인서비스"}]},{"lat":"37.525010916","long":"126.77109877","items":[{"name":"대현식품","tel":"032-1588-9239","addr":"경기도 부천시 삼정동 85-77번지","category":"음료식품 - 기타음료식품"}]},{"lat":"37.514867424","long":"126.77193323","items":[{"name":"대호기업","tel":"","addr":"경기도 부천시 삼정동 338-6번지","category":"기타 - 기계공구"},{"name":"마니아커피","tel":"032-677-1638","addr":"경기도 부천시 삼정동 338-6번지 2층","category":"일반휴게음식 - 서양음식"},{"name":"아성공업사","tel":"032-663-4185","addr":"경기도 부천시 삼정동 338-6번지 1층 아성기업","category":"자동차정비 유지 - 자동차정비"},{"name":"약대종합비철금속","tel":"032-675-7075","addr":"경기도 부천시 삼정동 338-6번지","category":"기타 - 기계공구"}]},{"lat":"37.517540207","long":"126.7657942","items":[{"name":"대흥각","tel":"032-678-4243","addr":"경기도 부천시 삼정동 276-13번지 1층","category":"일반휴게음식 - 중국식"}]},{"lat":"37.517481159","long":"126.77237763","items":[{"name":"더블 현","tel":"032-684-7870","addr":"경기도 부천시 삼정동 305-18번지 1층","category":"사무통신 - 통신기기"}]},{"lat":"37.526671609","long":"126.76799393","items":[{"name":"더쉐이드","tel":"032-672-5028","addr":"경기도 부천시 삼정동 19-20번지 제지하층","category":"직물 - 카페트,커튼,천막,지물"}]},{"lat":"37.516288271","long":"126.77054888","items":[{"name":"도깨비호프","tel":"032-681-0155","addr":"경기도 부천시 삼정동 308-11번지 2층","category":"일반휴게음식 - 주점"},{"name":"막걸리나 파전","tel":"032-677-0553","addr":"경기도 부천시 삼정동 308-11번지","category":"일반휴게음식 - 일반한식"},{"name":"크로바노래연습장","tel":"032-675-5989","addr":"경기도 부천시 삼정동 308-11번지 지하층","category":"레저업소 - 노 래 방"}]},{"lat":"37.520839457","long":"126.77115692","items":[{"name":"도매PC존","tel":"070-8860-6652","addr":"경기도 부천시 삼정동 271-5번지","category":"사무통신 - 컴퓨터"}]},{"lat":"37.525897798","long":"126.76851674","items":[{"name":"도원테크/원격지","tel":"032-345-4708","addr":"경기도 부천시 삼정동 113-3번지 4층","category":"기타 - 기타 전문점"},{"name":"씨유사랑방점","tel":"032-672-8055","addr":"경기도 부천시 삼정동 113-3번지 1층","category":"유통업 영리 - 편 의 점"},{"name":"에이앤피시스템 (ANPS)","tel":"032-676-0401","addr":"경기도 부천시 삼정동 113-3번지 무영빌딩 4층 405호","category":"전기제품 - 기타전기제품"},{"name":"유니텍","tel":"032-678-7179","addr":"경기도 부천시 삼정동 113-3번지 306호","category":"자동차정비 유지 - 자동차부품"},{"name":"주식회사 썬라이즈코리아","tel":"032-322-7509","addr":"경기도 부천시 삼정동 113-3번지 무영빌딩 503호","category":"의류 - 기타의류"},{"name":"주식회사 파스텔로","tel":"032-715-7767","addr":"경기도 부천시 삼정동 113-3번지 무영빌딩 302호","category":"의류 - 아동의류"},{"name":"주식회사광진글로벌","tel":"032-612-7125","addr":"경기도 부천시 삼정동 113-3번지 무영빌딩 202호","category":"기타 - 기계공구"},{"name":"주식회사광진글로벌/원격지","tel":"032-612-7125","addr":"경기도 부천시 삼정동 113-3번지 무영빌딩 202호","category":"기타 - 기타 전문점"},{"name":"파스텔 팩토리","tel":"032-677-0181","addr":"경기도 부천시 삼정동 113-3번지 501호","category":"의류 - 아동의류"},{"name":"행복한식당","tel":"070-7358-9491","addr":"경기도 부천시 삼정동 113-3번지","category":"일반휴게음식 - 일반한식"}]},{"lat":"37.516370071","long":"126.77091058","items":[{"name":"동대문팻션","tel":"032-671-8618","addr":"경기도 부천시 삼정동 309-31번지","category":"의류 - 정장"}]},{"lat":"37.525116695","long":"126.7653856","items":[{"name":"동부산업","tel":"032-677-1100","addr":"경기도 부천시 삼정동 29-30","category":"기타 - 기계공구"}]},{"lat":"37.523258068","long":"126.77318565","items":[{"name":"동신메탈텍","tel":"032-673-4787","addr":"경기도 부천시 삼정동 203번지","category":"건축자재 - 목재·석재·철물"}]},{"lat":"37.51484473","long":"126.77416157","items":[{"name":"동신유압인천영업소","tel":"032-674-6424","addr":"경기도 부천시 삼정동 319-2번지 삼광빌딩 2층","category":"기타 - 기계공구"},{"name":"오거리당구클럽","tel":"031-322-0533","addr":"경기도 부천시 삼정동 319-2번지 삼광빌딩 3층","category":"레저업소 - 당 구 장"}]},{"lat":"37.526476353","long":"126.76948782","items":[{"name":"동양건드릴","tel":"032-661-0301","addr":"경기도 부천시 삼정동 67-6번지 101호","category":"기타 - 기계공구"},{"name":"제일스카이정비","tel":"032-671-8802","addr":"경기도 부천시 삼정동 67-6번지","category":"자동차정비 유지 - 자동차정비"},{"name":"주식회사 동하테크","tel":"032-551-1550","addr":"경기도 부천시 삼정동 67-6번지 인철테크노밸리 601호","category":"전기제품 - 기타전기제품"},{"name":"타이어부천총판","tel":"032-882-8707","addr":"경기도 부천시 삼정동 67-6번지","category":"자동차정비 유지 - 자동차시트·타이어"}]},{"lat":"37.526371283","long":"126.76649027","items":[{"name":"동양철강","tel":"032-683-0660","addr":"경기도 부천시 삼정동 19-8번지","category":"건축자재 - 기타건축자재"}]},{"lat":"37.5224528369","long":"126.7714686738","items":[{"name":"동일정공","tel":"032-682-0712","addr":"경기도 부천시 삼정동 217-4번지","category":"기타 - 기계공구"},{"name":"에이원테크","tel":"032-677-4639","addr":"경기도 부천시 삼정동 217-4번지","category":"기타 - 기계공구"}]},{"lat":"37.517173808","long":"126.77185825","items":[{"name":"두꺼비노래연습장","tel":"032-671-4627","addr":"경기도 부천시 삼정동 307-7번지","category":"레저업소 - 노 래 방"},{"name":"유진정육점","tel":"070-7375-1295","addr":"경기도 부천시 삼정동 307-7번지 1층 103호","category":"음료식품 - 정육점"},{"name":"행복한인테리어","tel":"032-672-1844","addr":"경기도 부천시 삼정동 307-7번지 (1층점포1칸)","category":"직물 - 카페트,커튼,천막,지물"}]},{"lat":"37.519675544","long":"126.77032345","items":[{"name":"두미식당","tel":"032-674-8851","addr":"경기도 부천시 삼정동 298-12번지 1층","category":"일반휴게음식 - 일반한식"}]},{"lat":"37.528030757","long":"126.77188134","items":[{"name":"드림자동차서비스","tel":"031-683-0885","addr":"경기도 부천시 삼정동 48-130번지","category":"자동차정비 유지 - 자동차정비"}]},{"lat":"37.525007865","long":"126.76954896","items":[{"name":"디알 자동차 공업사","tel":"032-225-5545","addr":"경기도 부천시 삼정동 24-2번지","category":"자동차정비 유지 - 자동차정비"}]},{"lat":"37.522951734","long":"126.77318659","items":[{"name":"디에스이노텍 주식회사","tel":"032-678-1017","addr":"경기도 부천시 삼정동 203-5번지","category":"회원제형태 - 기타4"}]},{"lat":"37.519813312","long":"126.77165781","items":[{"name":"디자인포보스(Design phobos)","tel":"032-324-8993","addr":"경기도 부천시 삼정동 299-7번지","category":"건축자재 - 인테리어전문"},{"name":"씨제이채널","tel":"032-675-7772","addr":"경기도 부천시 삼정동 299-7번지","category":"건축자재 - 조명기구"}]},{"lat":"37.518814932","long":"126.767962","items":[{"name":"딱 타이 마트","tel":"","addr":"경기도 부천시 삼정동 286번지","category":"유통업 영리 - 슈퍼마켓"},{"name":"이구오픈 (29OPEN)","tel":"070-8888-0804","addr":"경기도 부천시 삼정동 286번지","category":"신변잡화 - 가방"}]},{"lat":"37.515702031","long":"126.77024529","items":[{"name":"또봉이통닭","tel":"032-677-2677","addr":"경기도 부천시 삼정동 314-7번지 삼정동,비동, 1층","category":"일반휴게음식 - 스넥"},{"name":"영종합화장품","tel":"032-671-1214","addr":"경기도 부천시 삼정동 314-7번지","category":"보건위생 - 화장품"},{"name":"올포유신흥점","tel":"032-679-5085","addr":"경기도 부천시 삼정동 314-7번지 1층","category":"의류 - 정장"},{"name":"피자마루 약대신흥점","tel":"032-676-1253","addr":"경기도 부천시 삼정동 314-7번지 1층","category":"일반휴게음식 - 서양음식"},{"name":"하이젠트","tel":"032-671-3496","addr":"경기도 부천시 삼정동 314-7번지 1층","category":"의류 - 정장"}]},{"lat":"37.519921386","long":"126.77163486","items":[{"name":"라이브노래연습장","tel":"","addr":"경기도 부천시 삼정동 299-6번지","category":"레저업소 - 노 래 방"},{"name":"용추골순대국","tel":"032-681-1278","addr":"경기도 부천시 삼정동 299-6번지 1층","category":"일반휴게음식 - 일반한식"}]},{"lat":"37.519840859","long":"126.76735926","items":[{"name":"란 플라워","tel":"032-666-5144","addr":"경기도 부천시 삼정동 275-32번지 1층","category":"문화.취미 - 화원"}]},{"lat":"37.515262771","long":"126.77137777","items":[{"name":"롯데리아부천약대점","tel":"032-674-1237","addr":"경기도 부천시 삼정동 315-2번지","category":"일반휴게음식 - 서양음식"},{"name":"베스트 당구장","tel":"","addr":"경기도 부천시 삼정동 315-2번지 3층","category":"레저업소 - 당 구 장"},{"name":"삼정고시텔","tel":"032-675-5003","addr":"경기도 부천시 삼정동 315-2번지","category":"학원 - 독서실"},{"name":"삼정고시텔","tel":"02-675-5003","addr":"경기도 부천시 삼정동 315-2번지 4층","category":"학원 - 독서실"},{"name":"일레븐탁구클럽","tel":"032-676-6100","addr":"경기도 부천시 삼정동 315-2번지 2층","category":"레져용품 - 스포츠·레져용품"},{"name":"펀비어킹","tel":"","addr":"경기도 부천시 삼정동 315-2번지 1층","category":"일반휴게음식 - 주점"}]},{"lat":"37.522699502","long":"126.77320999","items":[{"name":"롯데푸드경인지사","tel":"032-215-0930","addr":"경기도 부천시 삼정동 203-4번지 1층 일부","category":"음료식품 - 정육점"},{"name":"제이테크솔루션","tel":"032-682-1461","addr":"경기도 부천시 삼정동 203-4번지","category":"기타 - 기계공구"}]},{"lat":"37.527425947","long":"126.77129493","items":[{"name":"리산이엔지","tel":"032-683-4238","addr":"경기도 부천시 삼정동 48-170번지 1층","category":"기타 - 기계공구"},{"name":"백두엔지니어링","tel":"032-683-4238","addr":"경기도 부천시 삼정동 48-170번지 1층","category":"기타 - 기계공구"},{"name":"버디79","tel":"032-326-7303","addr":"경기도 부천시 삼정동 48-170번지 2층","category":"레져용품 - 골프용품 전문점"}]},{"lat":"37.523011823","long":"126.77165926","items":[{"name":"리연구소","tel":"032-674-4514","addr":"경기도 부천시 삼정동 222-11번지","category":"기타 - 기타 전문점"}]},{"lat":"37.518259194","long":"126.76941161","items":[{"name":"리치헤어","tel":"032-671-6002","addr":"경기도 부천시 삼정동 295번지 광영빌딩 1층","category":"보건위생 - 미용원"},{"name":"핀아팩토리","tel":"032-222-9377","addr":"경기도 부천시 삼정동 295번지 광영빌딩 1층 핀아팩토리","category":"음료식품 - 기타음료식품"}]},{"lat":"37.514561465","long":"126.77212646","items":[{"name":"마라보까헤어샵","tel":"","addr":"경기도 부천시 삼정동 347-1번지 월드베스트 101호","category":"보건위생 - 미용원"}]},{"lat":"37.516596072","long":"126.77129447","items":[{"name":"만복가든","tel":"032-672-3301","addr":"경기도 부천시 삼정동 309-1번지","category":"일반휴게음식 - 일반한식"}]},{"lat":"37.516810241","long":"126.77024185","items":[{"name":"맘스터치(약대점)","tel":"032-673-4512","addr":"경기도 부천시 삼정동 308-28번지","category":"일반휴게음식 - 스넥"}]},{"lat":"37.515789029","long":"126.7732651","items":[{"name":"맛고을","tel":"032-676-3535","addr":"경기도 부천시 삼정동 311-1번지 신한일상가 1층 104호 105호","category":"일반휴게음식 - 일반한식"},{"name":"부리람마트","tel":"","addr":"경기도 부천시 삼정동 311-1번지 신한일 상가 1층 102호","category":"유통업 영리 - 슈퍼마켓"},{"name":"유주조명","tel":"032-683-6371","addr":"경기도 부천시 삼정동 311-1번지 신한일 상가 2층","category":"건축자재 - 조명기구"}]},{"lat":"37.515829192","long":"126.77076521","items":[{"name":"맛있는건어물","tel":"032-681-5174","addr":"경기도 부천시 삼정동 314-14 월드맨션 가","category":"음료식품 - 농·축·수산품"}]},{"lat":"37.529064828","long":"126.76183206","items":[{"name":"매산E.N.G","tel":"032-556-6678","addr":"경기도 부천시 삼정동 14-13번지 4호","category":"기타 - 기계공구"},{"name":"팔팔한우촌","tel":"032-676-3888","addr":"경기도 부천시 삼정동 14-13번지 3동 5호","category":"음료식품 - 정육점"}]},{"lat":"37.519678231","long":"126.77169217","items":[{"name":"멋쟁이여자","tel":"032-675-1960","addr":"경기도 부천시 삼정동 299-18번지","category":"의류 - 정장"}]},{"lat":"37.516953528","long":"126.76980027","items":[{"name":"명동왕돈까스&냉면","tel":"032-671-0445","addr":"경기도 부천시 삼정동 294-2번지","category":"일반휴게음식 - 서양음식"},{"name":"비엔비헤어클럽","tel":"032-0000-0000","addr":"경기도 부천시 삼정동 294-2번지","category":"보건위생 - 미용원"},{"name":"신전떡볶이약대점","tel":"032-682-9888","addr":"경기도 부천시 삼정동 294-2번지 1층 일부","category":"일반휴게음식 - 스넥"}]},{"lat":"37.514787638","long":"126.77260082","items":[{"name":"명성당구클럽","tel":"032-676-8447","addr":"경기도 부천시 삼정동 350-3번지 세림빌딩 2층","category":"레저업소 - 당 구 장"},{"name":"활어포장전문점","tel":"032-675-2687","addr":"경기도 부천시 삼정동 350-3번지 1층","category":"일반휴게음식 - 일식·회집"}]},{"lat":"37.52494753","long":"126.76193581","items":[{"name":"명성매점","tel":"032-672-7833","addr":"경기도 부천시 삼정동 34-38번지","category":"음료식품 - 기타음료식품"}]},{"lat":"37.516090811","long":"126.77093407","items":[{"name":"명월식품","tel":"032-611-8000","addr":"경기도 부천시 삼정동 313번지 1층","category":"신변잡화 - 기타잡화"},{"name":"뽕뜨락피자","tel":"032-679-1082","addr":"경기도 부천시 삼정동 313번지","category":"일반휴게음식 - 서양음식"},{"name":"영자네","tel":"032-221-6946","addr":"경기도 부천시 삼정동 313번지 1층 일부","category":"일반휴게음식 - 일반한식"},{"name":"총회신학연구원","tel":"02-763-0563","addr":"경기도 부천시 삼정동 313번지","category":"학원 - 기타 교육기관"},{"name":"칼라헤어숍","tel":"032-682-9488","addr":"경기도 부천시 삼정동 313번지","category":"보건위생 - 미용원"}]},{"lat":"37.516702123","long":"126.77024219","items":[{"name":"명품","tel":"","addr":"경기도 부천시 삼정동 308-26번지 2층","category":"보건위생 - 화장품"},{"name":"삼우전기","tel":"032-682-6854","addr":"경기도 부천시 삼정동 308-26번지","category":"건축자재 - 조명기구"},{"name":"정다운노래연습장","tel":"032-682-4110","addr":"경기도 부천시 삼정동 308-26번지","category":"레저업소 - 노 래 방"}]},{"lat":"37.525895098","long":"126.77171823","items":[{"name":"모든정공","tel":"032-672-3533","addr":"경기도 부천시 삼정동 70-4번지 1층 일부","category":"기타 - 기계공구"}]},{"lat":"37.519173659","long":"126.77168241","items":[{"name":"모비딕","tel":"032-681-1193","addr":"경기도 부천시 삼정동 300-28번지 1층","category":"일반휴게음식 - 주점"},{"name":"목화밭","tel":"032-675-8916","addr":"경기도 부천시 삼정동 300-28번지 1층","category":"일반휴게음식 - 일반한식"},{"name":"바바(BaBa)","tel":"032-664-1860","addr":"경기도 부천시 삼정동 300-28번지 1층 일부","category":"일반휴게음식 - 서양음식"}]},{"lat":"37.526478606","long":"126.77063041","items":[{"name":"모션스포츠아카데미(Motion Sports Academy","tel":"070-8886-0633","addr":"경기도 부천시 삼정동 70-2번지 3층","category":"레저업소 - 기타레져업소"}]},{"lat":"37.515235143","long":"126.77107245","items":[{"name":"모아닭집","tel":"032-672-5118","addr":"경기도 부천시 삼정동 315-1번지 3","category":"음료식품 - 정육점"},{"name":"순천남도추어탕","tel":"032-675-5868","addr":"경기도 부천시 삼정동 315-1번지 1층 일부","category":"일반휴게음식 - 일반한식"},{"name":"천운쥬얼리","tel":"032-684-2714","addr":"경기도 부천시 삼정동 315-1번지 1층 4호","category":"신변잡화 - 귀금속"},{"name":"헤어피디","tel":"032-677-8862","addr":"경기도 부천시 삼정동 315-1번지","category":"보건위생 - 미용재료"},{"name":"황토숯불닭바베큐","tel":"032-679-9294","addr":"경기도 부천시 삼정동 315-1번지 1층","category":"일반휴게음식 - 스넥"}]},{"lat":"37.51737176","long":"126.76716341","items":[{"name":"미(  )헤어","tel":"","addr":"경기도 부천시 삼정동 282-11번지","category":"보건위생 - 미용원"}]},{"lat":"37.517784153","long":"126.76613277","items":[{"name":"미각찹쌀순대","tel":"032-677-7227","addr":"경기도 부천시 삼정동 276-6번지 삼정뷰그리안 1층 101,106호","category":"일반휴게음식 - 일반한식"},{"name":"신성공구","tel":"032-671-0945","addr":"경기도 부천시 삼정동 276-6번지 삼정뷰그리안 101동 103호","category":"기타 - 기계공구"},{"name":"신솥 해장국 돼지국밥","tel":"032-675-1790","addr":"경기도 부천시 삼정동 276-6번지 삼정뷰그리안 101동 104호","category":"일반휴게음식 - 일반한식"},{"name":"야들리애치킨 약대점","tel":"032-673-1919","addr":"경기도 부천시 삼정동 276-6번지 삼정뷰그리안 101동 103호","category":"일반휴게음식 - 스넥"},{"name":"카젠자동차공업소","tel":"032-672-6777","addr":"경기도 부천시 삼정동 276-6번지 삼정뷰그리안 101동 102호","category":"자동차정비 유지 - 자동차정비"},{"name":"홍대교동짬뽕","tel":"032-682-0419","addr":"경기도 부천시 삼정동 276-6번지 삼정뷰그리안 101동 105호","category":"일반휴게음식 - 일반한식"}]},{"lat":"37.517170745","long":"126.77029729","items":[{"name":"미랑컬(귀빈점)","tel":"032-681-7107","addr":"경기도 부천시 삼정동 308번지","category":"보건위생 - 미용원"},{"name":"부천해법중국어보습학원","tel":"032-681-7666","addr":"경기도 부천시 삼정동 308번지 2층 일부","category":"학원 - 외국어학원"},{"name":"아름당","tel":"032-673-8909","addr":"경기도 부천시 삼정동 308번지","category":"신변잡화 - 시계"},{"name":"전통숫불바베큐","tel":"032-672-6495","addr":"경기도 부천시 삼정동 308번지","category":"일반휴게음식 - 일반한식"},{"name":"충남장수흑염소","tel":"032-672-8555","addr":"경기도 부천시 삼정동 308번지","category":"건강식품 - 기타건강식품"},{"name":"컷앤컷미용실","tel":"032-676-6565","addr":"경기도 부천시 삼정동 308번지","category":"보건위생 - 미용원"}]},{"lat":"37.518831529","long":"126.77180789","items":[{"name":"미래인테리어","tel":"032-684-0455","addr":"경기도 부천시 삼정동 301-22번지 도림채 2동 1층 101호","category":"건축자재 - 인테리어전문"}]},{"lat":"37.526976741","long":"126.7629135","items":[{"name":"미르미스","tel":"070-8278-2263","addr":"경기도 부천시 삼정동 17-29번지 3층 일부","category":"신변잡화 - 기타잡화"}]},{"lat":"37.518726272","long":"126.76868622","items":[{"name":"미스틱옵티컬(mistic optical)","tel":"032-673-6032","addr":"경기도 부천시 삼정동 286-6번지 진도홈빌 105동 101호","category":"보건위생 - 안경"}]},{"lat":"37.515201716","long":"126.77240726","items":[{"name":"미투헤어클럽","tel":"032-677-8681","addr":"경기도 부천시 삼정동 316-7번지","category":"보건위생 - 미용원"},{"name":"빵빠레노래연습장","tel":"032-672-9584","addr":"경기도 부천시 삼정동 316-7번지 지층","category":"레저업소 - 노 래 방"},{"name":"희망건강원","tel":"032-681-2425","addr":"경기도 부천시 삼정동 316-7번지","category":"건강식품 - 기타건강식품"}]},{"lat":"37.52350754","long":"126.77174822","items":[{"name":"믿음정밀","tel":"032-677-1771","addr":"경기도 부천시 삼정동 222-1번지 2층","category":"전기제품 - 기타전기제품"}]},{"lat":"37.524701464","long":"126.76951598","items":[{"name":"밀리미터","tel":"032-321-0346","addr":"경기도 부천시 삼정동 24-33번지 5층","category":"건축자재 - 인테리어전문"}]},{"lat":"37.518484283","long":"126.76933173","items":[{"name":"밀양상회","tel":"032-672-7518","addr":"경기도 부천시 삼정동 296-10번지","category":"유통업 영리 - 슈퍼마켓"}]},{"lat":"37.525953149","long":"126.76465893","items":[{"name":"박사장멀티샵","tel":"032-675-1222","addr":"경기도 부천시 삼정동 19-40번지 1층","category":"자동차정비 유지 - 자동차부품"},{"name":"행복한 식당","tel":"032-677-9688","addr":"경기도 부천시 삼정동 19-40번지 201호","category":"일반휴게음식 - 일반한식"}]},{"lat":"37.526030757","long":"126.76293916","items":[{"name":"밥이야","tel":"032-555-6676","addr":"경기도 부천시 삼정동 17-35번지 1층","category":"유통업 영리 - 편 의 점"}]},{"lat":"37.516124021","long":"126.76949744","items":[{"name":"뱅뱅주점","tel":"032-675-1172","addr":"경기도 부천시 삼정동 293-13번지 지하1층 일부","category":"일반휴게음식 - 일반한식"},{"name":"큰손식당","tel":"032-673-3813","addr":"경기도 부천시 삼정동 293-13번지 1층","category":"일반휴게음식 - 일반한식"},{"name":"호프스쿨","tel":"032-677-1242","addr":"경기도 부천시 삼정동 293-13번지","category":"일반휴게음식 - 주점"}]},{"lat":"37.52497587","long":"126.76704899","items":[{"name":"베스트사무용가구","tel":"032-681-4976","addr":"경기도 부천시 삼정동 24-11번지 1호","category":"가구 - 일반가구"},{"name":"서진엔지니어링","tel":"032-671-7552","addr":"경기도 부천시 삼정동 24-11번지","category":"기타 - 기계공구"}]},{"lat":"37.515234165","long":"126.77057477","items":[{"name":"보물섬미트","tel":"","addr":"경기도 부천시 삼정동 314-13번지 나동","category":"음료식품 - 정육점"},{"name":"봉평메밀막국수","tel":"032-676-7997","addr":"경기도 부천시 삼정동 314-13번지 가동","category":"일반휴게음식 - 일반한식"},{"name":"신흥건어물","tel":"032-672-0319","addr":"경기도 부천시 삼정동 314-13번지 1층","category":"음료식품 - 농·축·수산품"},{"name":"신흥왕불족발","tel":"032-672-4849","addr":"경기도 부천시 삼정동 314-13번지 나동 1층","category":"일반휴게음식 - 일반한식"},{"name":"우리오복떡집","tel":"032-674-9963","addr":"경기도 부천시 삼정동 314-13번지","category":"음료식품 - 제과점"}]},{"lat":"37.514840085","long":"126.77177496","items":[{"name":"본촌숯불갈비","tel":"032-672-9272","addr":"경기도 부천시 삼정동 338-5번지 성광빌딩 1층","category":"일반휴게음식 - 일반한식"},{"name":"성광전기","tel":"032-674-8080","addr":"경기도 부천시 삼정동 338-5","category":"수리서비스 - 가정용품수리"}]},{"lat":"37.514817328","long":"126.77396936","items":[{"name":"부모섬김약대점","tel":"032-679-0116","addr":"경기도 부천시 삼정동 319-1번지","category":"기타의료기관 - 기타의료기관 및 기타"}]},{"lat":"37.528122414","long":"126.76810251","items":[{"name":"부천레미콘 구내식당","tel":"032-671-8117","addr":"경기도 부천시 삼정동 60-9번지 지하1층","category":"일반휴게음식 - 위탁급식업"}]},{"lat":"37.517504932","long":"126.77071478","items":[{"name":"부천신용에어컨","tel":"","addr":"경기도 부천시 삼정동 303-8번지 삼정연립 B동 205호","category":"용역 서비스 - 기타용역서비스"}]},{"lat":"37.523650108","long":"126.77557136","items":[{"name":"부천아이씨충전소 한국타이어","tel":"032-682-0880","addr":"경기도 부천시 삼정동 97-3번지","category":"자동차정비 유지 - 자동차시트·타이어"}]},{"lat":"37.530142803","long":"126.76469086","items":[{"name":"부천축산물농협공판장중도매인82","tel":"032-674-7262","addr":"경기도 부천시 삼정동 12-4번지","category":"음료식품 - 정육점"},{"name":"주식회사지원축산유통","tel":"032-204-1500","addr":"경기도 부천시 삼정동 12-4번지 부천축산물공판장","category":"음료식품 - 정육점"},{"name":"축산물공판장구내식당","tel":"032-620-5127","addr":"경기도 부천시 삼정동 12-4번지 3층 일부","category":"일반휴게음식 - 위탁급식업"}]},{"lat":"37.525231139","long":"126.76855276","items":[{"name":"부흥한식부페","tel":"032-683-1738","addr":"경기도 부천시 삼정동 24-5번지","category":"일반휴게음식 - 일반한식"},{"name":"상진기업","tel":"032-676-5423","addr":"경기도 부천시 삼정동 24-5번지","category":"서적문구 - 과학기자재"},{"name":"충무상사","tel":"032-675-4747","addr":"경기도 부천시 삼정동 24-5번지","category":"회원제형태 - 자동차서비스"},{"name":"흥진공구","tel":"032-673-7886","addr":"경기도 부천시 삼정동 24-5번지","category":"기타 - 기계공구"}]},{"lat":"37.520623665","long":"126.77138383","items":[{"name":"부흥한식중식부페","tel":"032-676-8076","addr":"경기도 부천시 삼정동 271-8번지 1층 일부","category":"일반휴게음식 - 일반한식"}]},{"lat":"37.518256548","long":"126.76807686","items":[{"name":"북경식당","tel":"032-672-1174","addr":"경기도 부천시 삼정동 287-3번지","category":"일반휴게음식 - 중국식"}]},{"lat":"37.520786329","long":"126.77163219","items":[{"name":"분식나라","tel":"032-677-3098","addr":"경기도 부천시 삼정동 209-7번지","category":"일반휴게음식 - 스넥"}]},{"lat":"37.516396389","long":"126.77054854","items":[{"name":"뷰티플건강","tel":"032-675-1734","addr":"경기도 부천시 삼정동 308-8번지 금성연립 101호","category":"건강식품 - 기타건강식품"}]},{"lat":"37.521345612","long":"126.76741109","items":[{"name":"비39 까페","tel":"032-321-3901","addr":"경기도 부천시 삼정동 363-4번지 1층","category":"일반휴게음식 - 서양음식"},{"name":"비39 까페","tel":"070-4238-2433","addr":"경기도 부천시 삼정동 363-4번지","category":"일반휴게음식 - 서양음식"}]},{"lat":"37.516009233","long":"126.77068548","items":[{"name":"비단떡방","tel":"032-672-0700","addr":"경기도 부천시 삼정동 314-1번지","category":"음료식품 - 제과점"},{"name":"하림고추방앗간","tel":"032-675-5404","addr":"경기도 부천시 삼정동 314-1번지 1층","category":"음료식품 - 기타음료식품"},{"name":"힘찬태권도체육관","tel":"032-675-9793","addr":"경기도 부천시 삼정동 314-1번지 2층","category":"학원 - 예·체능계학원"}]},{"lat":"37.528343815","long":"126.77071513","items":[{"name":"비앤에이","tel":"070-4469-6958","addr":"경기도 부천시 삼정동 48-72번지 2층","category":"보건위생 - 화장품"},{"name":"삼정ENG","tel":"070-8201-1784","addr":"경기도 부천시 삼정동 48-72번지","category":"주방용구 - 주방용구"},{"name":"성광기전","tel":"070-3736-9016","addr":"경기도 부천시 삼정동 48-72번지 가동","category":"주방용구 - 주방용구"},{"name":"우진열처리","tel":"032-674-4256","addr":"경기도 부천시 삼정동 48-72번지 나동 5호","category":"건축자재 - 기타건축자재"},{"name":"진미식당","tel":"032-678-4333","addr":"경기도 부천시 삼정동 48-72번지 나동 1층","category":"일반휴게음식 - 일반한식"},{"name":"한솔테크/원격지","tel":"02-2687-8190","addr":"경기도 부천시 삼정동 48-72번지 나동 3호","category":"기타 - 기타 전문점"}]},{"lat":"37.521674817","long":"126.77446877","items":[{"name":"비전에스엔텍","tel":"032-672-3091","addr":"경기도 부천시 삼정동 201-7번지 4층","category":"서적문구 - 과학기자재"},{"name":"비전이노베이션","tel":"032-543-8372","addr":"경기도 부천시 삼정동 201-7번지","category":"서적문구 - 과학기자재"}]},{"lat":"37.51528769","long":"126.77030314","items":[{"name":"빅맨할인매장","tel":"032-674-3400","addr":"경기도 부천시 삼정동 314-9번지","category":"의류 - 내의판매"},{"name":"삼정한의원","tel":"032-679-7575","addr":"경기도 부천시 삼정동 314-9번지","category":"의원 - 한의원"},{"name":"스마트(싸이피아)","tel":"070-3282-3996","addr":"경기도 부천시 삼정동 314-9번지 3층","category":"레저업소 - 기타레져업소"},{"name":"신명철치과","tel":"032-672-8172","addr":"경기도 부천시 삼정동 314-9번지","category":"의원 - 치과의원"},{"name":"신안축산","tel":"032-672-9498","addr":"경기도 부천시 삼정동 314-9번지 109호","category":"음료식품 - 정육점"},{"name":"신흥식품","tel":"032-681-4509","addr":"경기도 부천시 삼정동 314-9번지 107호","category":"음료식품 - 기타음료식품"},{"name":"신흥화장품","tel":"032-672-4723","addr":"경기도 부천시 삼정동 314-9번지 (1층,108호)","category":"보건위생 - 화장품"},{"name":"영스피드","tel":"032-682-9116","addr":"경기도 부천시 삼정동 314-9번지 101호","category":"사무통신 - 통신기기"},{"name":"유가네김밥","tel":"032-675-0212","addr":"경기도 부천시 삼정동 314-9번지 1층","category":"일반휴게음식 - 스넥"},{"name":"케익하우스짱","tel":"032-672-3896","addr":"경기도 부천시 삼정동 314-9번지 1층 103호","category":"음료식품 - 제과점"},{"name":"코닥사진관","tel":"032-673-1494","addr":"경기도 부천시 삼정동 314-9번지","category":"광학제품 - 사진관"},{"name":"킹스타 노래연습장","tel":"","addr":"경기도 부천시 삼정동 314-9번지 201호","category":"레저업소 - 노 래 방"},{"name":"형제청과","tel":"032-674-6824","addr":"경기도 부천시 삼정동 314-9번지 106호","category":"음료식품 - 농·축·수산품"}]},{"lat":"37.518453249","long":"126.77187693","items":[{"name":"빅비어","tel":"032-676-5205","addr":"경기도 부천시 삼정동 301-29번지 101호","category":"일반휴게음식 - 주점"}]},{"lat":"37.51581026","long":"126.77030151","items":[{"name":"빙고노래방","tel":"070-7619-9630","addr":"경기도 부천시 삼정동 314-3번지 2층 202호","category":"레저업소 - 노 래 방"},{"name":"선경서점","tel":"032-674-3851","addr":"경기도 부천시 삼정동 314-3번지","category":"서적문구 - 일반서적"},{"name":"에스케이이엔이(주)","tel":"032-674-3851","addr":"경기도 부천시 삼정동 314-3번지1층1","category":"용역 서비스 - 종합용역"},{"name":"이디야 부천신흥시장점","tel":"","addr":"경기도 부천시 삼정동 314-3번지 1층 101호","category":"일반휴게음식 - 서양음식"},{"name":"황금조끼","tel":"032-672-8064","addr":"경기도 부천시 삼정동 314-3번지 2층","category":"일반휴게음식 - 주점"}]},{"lat":"37.518561101","long":"126.77174086","items":[{"name":"빵비어꾸차","tel":"032-611-0404","addr":"경기도 부천시 삼정동 301-17번지 1층 101호","category":"일반휴게음식 - 일반한식"}]},{"lat":"37.518872622","long":"126.7697943","items":[{"name":"뽀빠이문구슈퍼","tel":"032-674-7938","addr":"경기도 부천시 삼정동 296-32번지","category":"서적문구 - 문구용품"}]},{"lat":"37.517456536","long":"126.76901822","items":[{"name":"산울림","tel":"032-671-3942","addr":"경기도 부천시 삼정동 288-29번지 1층","category":"일반휴게음식 - 주점"},{"name":"청학동빈대떡","tel":"032-678-6641","addr":"경기도 부천시 삼정동 288-29번지 점포 1층","category":"일반휴게음식 - 일반한식"},{"name":"파랑새","tel":"032-672-0013","addr":"경기도 부천시 삼정동 288-29번지 1층","category":"건축자재 - 인테리어전문"}]},{"lat":"37.519370634","long":"126.77104835","items":[{"name":"산이네 건강원","tel":"032-323-9552","addr":"경기도 부천시 삼정동 300-9번지 1층","category":"건강식품 - 기타건강식품"}]},{"lat":"37.522815948","long":"126.77285896","items":[{"name":"삼광공업(주)","tel":"032-566-4111","addr":"경기도 부천시 삼정동 220-8번지 2층","category":"건축자재 - 보일러·펌프·샷시"}]},{"lat":"37.522593166","long":"126.76952254","items":[{"name":"삼덕테크","tel":"032-663-1458","addr":"경기도 부천시 삼정동 224-7번지","category":"기타 - 기계공구"}]},{"lat":"37.524648957","long":"126.76577171","items":[{"name":"삼미산업","tel":"032-679-0026","addr":"경기도 부천시 삼정동 29-28번지","category":"기타 - 기계공구"}]},{"lat":"37.524869548","long":"126.77252459","items":[{"name":"삼성 호이스트","tel":"032-683-8290","addr":"경기도 부천시 삼정동 85-42","category":"건축자재 - 기타건축자재"}]},{"lat":"37.518066003","long":"126.77196862","items":[{"name":"삼일기계중량","tel":"032-686-3131","addr":"경기도 부천시 삼정동 304-14번지","category":"기타 - 기계공구"},{"name":"소문난통닭5900","tel":"032-683-2255","addr":"경기도 부천시 삼정동 304-14번지 부원주택 12동 1층 101호","category":"일반휴게음식 - 스넥"},{"name":"알뜰매장","tel":"070-7360-1217","addr":"경기도 부천시 삼정동 304-14번지 부원주택 12동 101호","category":"전기제품 - 가전제품"},{"name":"양말마트","tel":"032-683-3193","addr":"경기도 부천시 삼정동 304-14번지 1층","category":"의류 - 기타의류"},{"name":"올인","tel":"032-684-7060","addr":"경기도 부천시 삼정동 304-14","category":"일반휴게음식 - 주점"}]},{"lat":"37.516282587","long":"126.77224558","items":[{"name":"삼정미니수퍼","tel":"032-672-7488","addr":"경기도 부천시 삼정동 310-9번지","category":"유통업 영리 - 슈퍼마켓"}]},{"lat":"37.516871501","long":"126.76932545","items":[{"name":"삼정보습학원","tel":"032-209-0999","addr":"경기도 부천시 삼정동 294-5번지 2층","category":"학원 - 보습학원"},{"name":"호박마트","tel":"032-678-0595","addr":"경기도 부천시 삼정동 294-5번지 1층","category":"유통업 영리 - 슈퍼마켓"}]},{"lat":"37.525310588","long":"126.77229698","items":[{"name":"삼정세차","tel":"032-671-8211","addr":"경기도 부천시 삼정동 71-27번지","category":"자동차정비 유지 - 세차장"},{"name":"삼정자동차정비(주)","tel":"032-673-9991","addr":"경기도 부천시 삼정동 71-27번지","category":"자동차정비 유지 - 자동차정비"}]},{"lat":"37.517845345","long":"126.76971831","items":[{"name":"삼정주방가구","tel":"032-681-7737","addr":"경기도 부천시 삼정동 295-13번지 1층","category":"주방용구 - 주방용구"},{"name":"청수지하개발(주)","tel":"032-676-1085","addr":"경기도 부천시 삼정동 295-13번지 1호","category":"용역 서비스 - 기타용역서비스"}]},{"lat":"37.519901391","long":"126.77062817","items":[{"name":"삼정천막","tel":"032-684-7505","addr":"경기도 부천시 삼정동 298-1번지","category":"직물 - 카페트,커튼,천막,지물"}]},{"lat":"37.522399686","long":"126.77193264","items":[{"name":"삼정체육사","tel":"032-673-3080","addr":"경기도 부천시 삼정동 219-1번지","category":"레져용품 - 스포츠·레져용품"}]},{"lat":"37.518479359","long":"126.76685452","items":[{"name":"삼화슈퍼","tel":"032-674-3861","addr":"경기도 부천시 삼정동 275-43번지","category":"유통업 영리 - 슈퍼마켓"}]},{"lat":"37.517200618","long":"126.76718657","items":[{"name":"상하유통","tel":"","addr":"경기도 부천시 삼정동 281-32번지 1층 3호","category":"의류 - 정장"}]},{"lat":"37.51484348","long":"126.77351684","items":[{"name":"상하이자객","tel":"032-679-6955","addr":"경기도 부천시 삼정동 318-5번지","category":"일반휴게음식 - 주점"},{"name":"페리카나","tel":"032-671-5823","addr":"경기도 부천시 삼정동 318-5번지 1층","category":"일반휴게음식 - 주점"}]},{"lat":"37.515261306","long":"126.77063124","items":[{"name":"새살림상회","tel":"032-672-9720","addr":"경기도 부천시 삼정동 314-12번지","category":"주방용구 - 주방용구"},{"name":"흥진한복","tel":"032-671-0641","addr":"경기도 부천시 삼정동 314-12번지 신흥상가","category":"의류 - 맞춤복점"}]},{"lat":"37.519839033","long":"126.77099034","items":[{"name":"새집도배","tel":"032-679-5551","addr":"경기도 부천시 삼정동 299번지 블리체 1층 101호","category":"건축자재 - 인테리어전문"}]},{"lat":"37.517040427","long":"126.77276357","items":[{"name":"새한전기","tel":"032-672-1198","addr":"경기도 부천시 삼정동 306-3번지 신충월드빌라 8동 101호","category":"수리서비스 - 기타수리서비스"}]},{"lat":"37.515200788","long":"126.7719322","items":[{"name":"샤론미용실","tel":"070-8876-5720","addr":"경기도 부천시 삼정동 315-11번지 1층","category":"보건위생 - 미용원"},{"name":"신코다리","tel":"032-674-4170","addr":"경기도 부천시 삼정동 315-11번지","category":"일반휴게음식 - 일반한식"}]},{"lat":"37.525311933","long":"126.77298704","items":[{"name":"서광","tel":"","addr":"경기도 부천시 삼정동 71-39번지","category":"기타 - 기계공구"}]},{"lat":"37.515484903","long":"126.76979352","items":[{"name":"서울 은마 꽈배기","tel":"032-676-7692","addr":"경기도 부천시 삼정동 293-21번지 1층 102호","category":"일반휴게음식 - 스넥"},{"name":"씨유삼정타운점","tel":"031-611-2693","addr":"경기도 부천시 삼정동 293-21번지 1층","category":"유통업 영리 - 편 의 점"},{"name":"이장네포차5000냥","tel":"032-1111-1111","addr":"경기도 부천시 삼정동 293-21번지 2층","category":"일반휴게음식 - 주점"}]},{"lat":"37.521616869","long":"126.77246671","items":[{"name":"서원테크/원격지","tel":"032-671-6081","addr":"경기도 부천시 삼정동 214-4번지 1층","category":"기타 - 기타 전문점"}]},{"lat":"37.527536785","long":"126.77268608","items":[{"name":"선라이즈골프클럽","tel":"032-679-7171","addr":"경기도 부천시 삼정동 48-220번지","category":"레저업소 - 골프연습장"},{"name":"세라스포츠","tel":"032-682-0027","addr":"경기도 부천시 삼정동 48-220번지 2층","category":"레져용품 - 스포츠·레져용품"},{"name":"썬라이즈스크린골프","tel":"032-423-5241","addr":"경기도 부천시 삼정동 48-220번지 4층","category":"레저업소 - 스크린골프"},{"name":"썬라이즈스팀세차","tel":"032-684-5655","addr":"경기도 부천시 삼정동 48-220번지 주차장콘테이너1동","category":"자동차정비 유지 - 세차장"}]},{"lat":"37.527424003","long":"126.76577424","items":[{"name":"선일열처리","tel":"032-672-4782","addr":"경기도 부천시 삼정동 18-4번지 1층","category":"기타 - 기계공구"},{"name":"아미가식당","tel":"032-271-2249","addr":"경기도 부천시 삼정동 18-4번지 2층","category":"일반휴게음식 - 일반한식"}]},{"lat":"37.523005154","long":"126.77285837","items":[{"name":"선일하우징","tel":"032-655-1433","addr":"경기도 부천시 삼정동 220-12번지","category":"건축자재 - 인테리어전문"}]},{"lat":"37.51461808","long":"126.77343836","items":[{"name":"성신유리공사","tel":"032-672-2783","addr":"경기도 부천시 삼정동 318-12번지 삼우아파트","category":"건축자재 - 보일러·펌프·샷시"}]},{"lat":"37.524561689","long":"126.77174497","items":[{"name":"성창테크윈","tel":"032-679-9576","addr":"경기도 부천시 삼정동 85-153번지","category":"전기제품 - 기타전기제품"},{"name":"한양화학","tel":"032-684-3905","addr":"경기도 부천시 삼정동 85-153번지","category":"유통업 영리 - 기타유통업"}]},{"lat":"37.524843158","long":"126.77285273","items":[{"name":"세광조명산업사","tel":"032-679-6121","addr":"경기도 부천시 삼정동 85-149번지","category":"건축자재 - 조명기구"}]},{"lat":"37.5155618","long":"126.7722478","items":[{"name":"세븐일레븐부천평천로점","tel":"031-1577-0711","addr":"경기도 부천시 삼정동 316번지 1층","category":"유통업 영리 - 편 의 점"}]},{"lat":"37.528619166","long":"126.76871186","items":[{"name":"세현산업","tel":"032-674-1136","addr":"경기도 부천시 삼정동 54-6번지","category":"기타 - 기계공구"}]},{"lat":"37.524865448","long":"126.77043178","items":[{"name":"소림사","tel":"032-673-7692","addr":"경기도 부천시 삼정동 91-4번지","category":"일반휴게음식 - 중국식"}]},{"lat":"37.523064129","long":"126.77076543","items":[{"name":"소망산업","tel":"032-682-5225","addr":"경기도 부천시 삼정동 223번지","category":"건축자재 - 기타건축자재"},{"name":"아시아열처리","tel":"032-672-5018","addr":"경기도 부천시 삼정동 223번지","category":"기타 - 기타 전문점"}]},{"lat":"37.517367936","long":"126.76977636","items":[{"name":"소문난해장국","tel":"032-681-3432","addr":"경기도 부천시 삼정동 295-11번지","category":"일반휴게음식 - 일반한식"},{"name":"안경박사","tel":"032-672-1649","addr":"경기도 부천시 삼정동 295-11번지","category":"보건위생 - 안경"}]},{"lat":"37.534757404","long":"126.76102176","items":[{"name":"수림꽃농원","tel":"032-673-3003","addr":"경기도 부천시 삼정동 3-7번지","category":"문화.취미 - 화원"},{"name":"언덕배기꽃식물원","tel":"032-671-2496","addr":"경기도 부천시 삼정동 3-7번지","category":"문화.취미 - 화원"},{"name":"월드플라워","tel":"032-682-8008","addr":"경기도 부천시 삼정동 3-7번지","category":"문화.취미 - 화원"},{"name":"한다리길목","tel":"032-674-4686","addr":"경기도 부천시 삼정동 3-7번지","category":"문화.취미 - 민예·공예품"}]},{"lat":"37.51748296","long":"126.76871273","items":[{"name":"수지테크","tel":"032-1111-1111","addr":"경기도 부천시 삼정동 288-38번지 한솔빌라 102호","category":"용역 서비스 - 기타용역서비스"}]},{"lat":"37.516339474","long":"126.76910088","items":[{"name":"술고래","tel":"032-678-0762","addr":"경기도 부천시 삼정동 290-21번지 에이동1층 1층 일부","category":"일반휴게음식 - 칵테일바"},{"name":"푸짐한두루치기","tel":"032-681-0501","addr":"경기도 부천시 삼정동 290-21번지","category":"일반휴게음식 - 일반한식"}]},{"lat":"37.517701344","long":"126.76979794","items":[{"name":"스타노래연습장","tel":"032-683-8287","addr":"경기도 부천시 삼정동 295-23번지 지층","category":"레저업소 - 노 래 방"}]},{"lat":"37.519534074","long":"126.77169261","items":[{"name":"스티커마루","tel":"032-672-8264","addr":"경기도 부천시 삼정동 299-19번지","category":"건축자재 - 인테리어전문"},{"name":"신도디지탈OA","tel":"032-681-1560","addr":"경기도 부천시 삼정동 299-19번지","category":"사무통신 - 사무용 OA기기"},{"name":"주연상회","tel":"032-681-1404","addr":"경기도 부천시 삼정동 299-19번지 1층","category":"신변잡화 - 기타잡화"}]},{"lat":"37.521310359","long":"126.77237716","items":[{"name":"시골밥상","tel":"032-678-8696","addr":"경기도 부천시 삼정동 213-4번지 A동 1층","category":"일반휴게음식 - 일반한식"}]},{"lat":"37.517372843","long":"126.77227616","items":[{"name":"시프헤어","tel":"","addr":"경기도 부천시 삼정동 305-20번지","category":"보건위생 - 미용원"},{"name":"현대종합설비","tel":"032-673-9799","addr":"경기도 부천시 삼정동 305-20번지","category":"건축자재 - 기타건축자재"}]},{"lat":"37.521647306","long":"126.77421999","items":[{"name":"신성산업","tel":"032-672-1410","addr":"경기도 부천시 삼정동 201-6번지","category":"기타 - 기타 전문점"}]},{"lat":"37.516728215","long":"126.76976703","items":[{"name":"신세계노래연습장","tel":"070-2959-6548","addr":"경기도 부천시 삼정동 294-15번지 지층","category":"레저업소 - 노 래 방"},{"name":"한국유리","tel":"032-874-9046","addr":"경기도 부천시 삼정동 294-15번지","category":"건축자재 - 유리"}]},{"lat":"37.514812767","long":"126.771628","items":[{"name":"신우인테리어","tel":"032-676-0723","addr":"경기도 부천시 삼정동 338-4번지","category":"건축자재 - 인테리어전문"},{"name":"안경이야기","tel":"032-321-4542","addr":"경기도 부천시 삼정동 338-4번지 안경이야기","category":"보건위생 - 안경"}]},{"lat":"37.519615094","long":"126.7670998","items":[{"name":"신일 기업","tel":"032-683-2039","addr":"경기도 부천시 삼정동 275-4번지 102호","category":"건축자재 - 인테리어전문"}]},{"lat":"37.516340189","long":"126.76946284","items":[{"name":"신정희춘천숯불달갈비","tel":"032-684-3737","addr":"경기도 부천시 삼정동 294-10번지 태광빌딩","category":"일반휴게음식 - 일반한식"},{"name":"열창노래연습장","tel":"032-673-9438","addr":"경기도 부천시 삼정동 294-10번지 태광빌딩 2층","category":"레저업소 - 노 래 방"},{"name":"오ㅋ통","tel":"032-674-9792","addr":"경기도 부천시 삼정동 294-10번지 태광빌딩 1층","category":"일반휴게음식 - 일반한식"},{"name":"은하수곱창","tel":"032-671-5932","addr":"경기도 부천시 삼정동 294-10번지 태광빌딩 1층","category":"일반휴게음식 - 일반한식"}]},{"lat":"37.516449959","long":"126.77029953","items":[{"name":"신흥종합알뜰","tel":"032-666-1996","addr":"경기도 부천시 삼정동 308-6번지","category":"전기제품 - 가전제품"}]},{"lat":"37.517367601","long":"126.76960669","items":[{"name":"실버그린(주)","tel":"032-677-6966","addr":"경기도 부천시 삼정동 295-10번지 2층","category":"기타의료기관 - 기타의료기관 및 기타"},{"name":"쿠디코리아","tel":"","addr":"경기도 부천시 삼정동 295-10번지 2층","category":"여행 - 관광여행"}]},{"lat":"37.521177997","long":"126.76921022","items":[{"name":"씨앤케이커피컴퍼니","tel":"032-682-5382","addr":"경기도 부천시 삼정동 266-1번지","category":"음료식품 - 기타음료식품"}]},{"lat":"37.517594062","long":"126.76569223","items":[{"name":"씨유부천테크노파크점","tel":"070-8231-5523","addr":"경기도 부천시 삼정동 276-12번지 1층","category":"유통업 영리 - 편 의 점"}]},{"lat":"37.517616152","long":"126.77229803","items":[{"name":"아띠장와인셀렉션","tel":"032-681-3187","addr":"경기도 부천시 삼정동 305-16번지 202호","category":"음료식품 - 주류 판매점"},{"name":"체크","tel":"032-681-3187","addr":"경기도 부천시 삼정동 305-16번지","category":"건축자재 - 인테리어전문"}]},{"lat":"37.515592977","long":"126.76977057","items":[{"name":"아로마","tel":"032-671-1934","addr":"경기도 부천시 삼정동 293-2번지","category":"회원제형태 - 기타4"},{"name":"체리노래연습장","tel":"032-682-0157","addr":"경기도 부천시 삼정동 293-2번지","category":"레저업소 - 노 래 방"}]},{"lat":"37.522340444","long":"126.76929709","items":[{"name":"아르코","tel":"032-522-2041","addr":"경기도 부천시 삼정동 224-3번지 2층","category":"건축자재 - 조명기구"}]},{"lat":"37.524865893","long":"126.77065803","items":[{"name":"아성핫텍","tel":"032-677-2580","addr":"경기도 부천시 삼정동 85-148번지","category":"기타 - 기계공구"}]},{"lat":"37.517092342","long":"126.76710773","items":[{"name":"아이디퍼포먼스","tel":"070-8867-9160","addr":"경기도 부천시 삼정동 281-31번지 대신연립 지층","category":"문화.취미 - 티켓"}]},{"lat":"37.51895371","long":"126.76979405","items":[{"name":"아이엠아이전기조명","tel":"02-6369-5787","addr":"경기도 부천시 삼정동 296-31번지","category":"건축자재 - 조명기구"}]},{"lat":"37.528091423","long":"126.7616655","items":[{"name":"아이즈온","tel":"032-362-6003","addr":"경기도 부천시 삼정동 16-13번지 2층","category":"용역 서비스 - 소프트웨어"}]},{"lat":"37.52137137","long":"126.77132496","items":[{"name":"아이지에이마트부천삼정점","tel":"","addr":"경기도 부천시 삼정동 209번지 1층","category":"유통업 영리 - 편 의 점"}]},{"lat":"37.5229527","long":"126.77368433","items":[{"name":"아이케이푸드","tel":"032-201-8244","addr":"경기도 부천시 삼정동 203-6번지","category":"음료식품 - 제과점"}]},{"lat":"37.519532544","long":"126.77091211","items":[{"name":"안성집","tel":"032-678-9552","addr":"경기도 부천시 삼정동 299-20번지 1층","category":"일반휴게음식 - 일반한식"}]},{"lat":"37.516478189","long":"126.77091025","items":[{"name":"알뜰","tel":"000-0000-0000","addr":"경기도 부천시 삼정동 309-30번지","category":"음료식품 - 농·축·수산품"}]},{"lat":"37.514784607","long":"126.77105122","items":[{"name":"알로에마임삼정지사","tel":"032-682-5563","addr":"경기도 부천시 삼정동 342-2번지 하양프라자 3층 305호","category":"보건위생 - 화장품"},{"name":"조마루감자탕","tel":"032-682-7394","addr":"경기도 부천시 삼정동 342-2,101~104호","category":"일반휴게음식 - 일반한식"}]},{"lat":"37.529147888","long":"126.76727343","items":[{"name":"애니카자동차공업사","tel":"032-675-4095","addr":"경기도 부천시 삼정동 60-3번지 외1필지","category":"자동차정비 유지 - 자동차정비"}]},{"lat":"37.525449737","long":"126.77435545","items":[{"name":"야베스자동차공업사","tel":"032-675-5553","addr":"경기도 부천시 삼정동 48-57번지","category":"자동차정비 유지 - 자동차정비"}]},{"lat":"37.514373362","long":"126.77269258","items":[{"name":"약대열쇠전기","tel":"032-678-0815","addr":"경기도 부천시 삼정동 349-1번지","category":"유통업 영리 - 슈퍼마켓"}]},{"lat":"37.514346641","long":"126.77285102","items":[{"name":"약대지업사","tel":"032-671-9920","addr":"경기도 부천시 삼정동 349-6번지 1층","category":"직물 - 카페트,커튼,천막,지물"}]},{"lat":"37.517397192","long":"126.7709074","items":[{"name":"양자강","tel":"032-677-3701","addr":"경기도 부천시 삼정동 305-23번지 1층","category":"일반휴게음식 - 중국식"},{"name":"초이스 뮤지컬 컴퍼니(CHOIS MUSICAL COMPA","tel":"02-798-4046","addr":"경기도 부천시 삼정동 305-23번지 지층","category":"문화.취미 - 티켓"}]},{"lat":"37.519342181","long":"126.77032449","items":[{"name":"어랏차회포차","tel":"032-682-9375","addr":"경기도 부천시 삼정동 302번지","category":"일반휴게음식 - 일반한식"},{"name":"인디자인","tel":"032-677-3855","addr":"경기도 부천시 삼정동 302번지","category":"건축자재 - 인테리어전문"}]},{"lat":"37.522397846","long":"126.77099373","items":[{"name":"엄마손 한식뷔페","tel":"032-674-4940","addr":"경기도 부천시 삼정동 271-1번지 지층1층","category":"일반휴게음식 - 일반한식"}]},{"lat":"37.518200265","long":"126.77151574","items":[{"name":"에스알 이노비트(SR innobeat)","tel":"032-527-0818","addr":"경기도 부천시 삼정동 304-19번지 퍼스트빌 102동 501호","category":"용역 서비스 - 종합용역"}]},{"lat":"37.519839588","long":"126.77127313","items":[{"name":"에이비테크","tel":"032-329-5638","addr":"경기도 부천시 삼정동 299-3번지 영동아파트 1층 101호","category":"기타 - 기계공구"}]},{"lat":"37.528426258","long":"126.77140497","items":[{"name":"에이스실버","tel":"032-672-6552","addr":"경기도 부천시 삼정동 48-87번지","category":"주방용구 - 주방용구"}]},{"lat":"37.522842426","long":"126.77257607","items":[{"name":"에이씨씨","tel":"070-7393-5873","addr":"경기도 부천시 삼정동 220-18번지 B01호","category":"자동차정비 유지 - 자동차부품"}]},{"lat":"37.524622894","long":"126.77079453","items":[{"name":"엘리시아","tel":"070-7124-7982","addr":"경기도 부천시 삼정동 85-106번지 2층","category":"의류 - 정장"},{"name":"종가집한식부페","tel":"032-683-5334","addr":"경기도 부천시 삼정동 85-106번지","category":"일반휴게음식 - 일반한식"}]},{"lat":"37.513983862","long":"126.77163056","items":[{"name":"여로집","tel":"032-2675-1113","addr":"경기도 부천시 삼정동 345-5번지 월드맨션 21동 102호","category":"일반휴게음식 - 일반한식"}]},{"lat":"37.525372535","long":"126.76269239","items":[{"name":"여월자동차공업사","tel":"032-672-7717","addr":"경기도 부천시 삼정동 34-5번지 1층","category":"자동차정비 유지 - 자동차정비"}]},{"lat":"37.518728308","long":"126.76971557","items":[{"name":"연합카써비스","tel":"032-683-9292","addr":"경기도 부천시 삼정동 296-25번지","category":"자동차정비 유지 - 자동차정비"},{"name":"튀김나라","tel":"032-677-8141","addr":"경기도 부천시 삼정동 296-25번지","category":"일반휴게음식 - 일반한식"},{"name":"홍어사랑","tel":"032-677-8984","addr":"경기도 부천시 삼정동 296-25번지 1층","category":"일반휴게음식 - 주점"}]},{"lat":"37.51773317","long":"126.77224112","items":[{"name":"열애","tel":"032-676-2759","addr":"경기도 부천시 삼정동 305-15번지 1층 일부","category":"일반휴게음식 - 일반한식"}]},{"lat":"37.514226796","long":"126.77146014","items":[{"name":"예인슈퍼","tel":"032-676-9800","addr":"경기도 부천시 삼정동 345-4번지 예인빌라 101호","category":"유통업 영리 - 슈퍼마켓"}]},{"lat":"37.519313232","long":"126.76935177","items":[{"name":"옛날오복정","tel":"032-679-9856","addr":"경기도 부천시 삼정동 296번지","category":"일반휴게음식 - 일반한식"}]},{"lat":"37.528726191","long":"126.77273899","items":[{"name":"오정매점","tel":"","addr":"경기도 부천시 삼정동 48-139번지 1층","category":"음료식품 - 기타음료식품"},{"name":"주식회사 미진비엔엘","tel":"032-677-7863","addr":"경기도 부천시 삼정동 48-139번지 2층","category":"자동차정비 유지 - 자동차부품"}]},{"lat":"37.526672373","long":"126.76837856","items":[{"name":"오케이씨케미칼","tel":"070-4870-3355","addr":"경기도 부천시 삼정동 19-26번지 4층","category":"신변잡화 - 기타잡화"}]},{"lat":"37.514788409","long":"126.77299671","items":[{"name":"오토박스","tel":"032-675-6125","addr":"경기도 부천시 삼정동 318번지 계남샤이니아파트 101호","category":"자동차정비 유지 - 자동차부품"}]},{"lat":"37.522649299","long":"126.7705744","items":[{"name":"오토원자동차공업사","tel":"032-673-7272","addr":"경기도 부천시 삼정동 225번지","category":"자동차정비 유지 - 자동차정비"}]},{"lat":"37.515342395","long":"126.77063099","items":[{"name":"옴시롱감시롱","tel":"032-678-1947","addr":"경기도 부천시 삼정동 314-11번지","category":"일반휴게음식 - 일반한식"}]},{"lat":"37.527812003","long":"126.76160983","items":[{"name":"와인엔셀러","tel":"032-224-9706","addr":"경기도 부천시 삼정동 16-14번지 가동 3층","category":"음료식품 - 주류 판매점"},{"name":"주식회사 삼락공업","tel":"032-672-3357","addr":"경기도 부천시 삼정동 16-14번지 다동 1층","category":"신변잡화 - 기타잡화"}]},{"lat":"37.515476897","long":"126.77030255","items":[{"name":"요요노래연습장","tel":"032-672-2107","addr":"경기도 부천시 삼정동 314-8번지","category":"레저업소 - 노 래 방"},{"name":"지원헤어샵","tel":"032-684-2686","addr":"경기도 부천시 삼정동 314-8번지","category":"보건위생 - 미용원"},{"name":"파리바게뜨약대점","tel":"032-679-0838","addr":"경기도 부천시 삼정동 314-8제1층5,6호","category":"음료식품 - 제과점"}]},{"lat":"37.517202893","long":"126.76832901","items":[{"name":"우리방앗간","tel":"032-674-9963","addr":"경기도 부천시 삼정동 289-33번지","category":"음료식품 - 제과점"}]},{"lat":"37.529227484","long":"126.76652651","items":[{"name":"우주상회","tel":"032-673-4727","addr":"경기도 부천시 삼정동 12-19번지","category":"유통업 영리 - 슈퍼마켓"}]},{"lat":"37.522005108","long":"126.77288407","items":[{"name":"원일공업사","tel":"032-673-2453","addr":"경기도 부천시 삼정동 214-1번지","category":"주방용구 - 주방용구"}]},{"lat":"37.519337952","long":"126.76818659","items":[{"name":"원주정공","tel":"032-677-0851","addr":"경기도 부천시 삼정동 285-3번지","category":"기타 - 기타 전문점"}]},{"lat":"37.524924511","long":"126.77298823","items":[{"name":"원혜기계","tel":"032-681-1802","addr":"경기도 부천시 삼정동 85-38번지","category":"기타 - 기계공구"}]},{"lat":"37.515621655","long":"126.7706075","items":[{"name":"월드마트","tel":"","addr":"경기도 부천시 삼정동 314-5번지 1층","category":"유통업 영리 - 슈퍼마켓"},{"name":"종합화장품","tel":"032-674-4963","addr":"경기도 부천시 삼정동 314-5번지","category":"보건위생 - 화장품"}]},{"lat":"37.517150314","long":"126.76907573","items":[{"name":"월드태권도","tel":"032-676-1661","addr":"경기도 부천시 삼정동 289-10번지 2층","category":"학원 - 예·체능계학원"}]},{"lat":"37.51953352","long":"126.77140982","items":[{"name":"유니온화스너","tel":"032-679-5302","addr":"경기도 부천시 삼정동 299-15번지","category":"전기제품 - 기타전기제품"}]},{"lat":"37.521815791","long":"126.77282809","items":[{"name":"유일산업","tel":"032-679-8779","addr":"경기도 부천시 삼정동 214-7번지","category":"전기제품 - 기타전기제품"}]},{"lat":"37.51720028","long":"126.7670169","items":[{"name":"유진유통","tel":"032-684-4543","addr":"경기도 부천시 삼정동 281-1번지 1층","category":"음료식품 - 기타음료식품"},{"name":"테크노유통","tel":"032-624-2699","addr":"경기도 부천시 삼정동 281-1","category":"유통업 영리 - 기타유통업"}]},{"lat":"37.519011482","long":"126.77168291","items":[{"name":"육일공구","tel":"032-678-5205","addr":"경기도 부천시 삼정동 300-27번지 2층","category":"기타 - 기계공구"},{"name":"토방","tel":"032-684-5306","addr":"경기도 부천시 삼정동 300-27번지 1층","category":"일반휴게음식 - 일반한식"}]},{"lat":"37.520615187","long":"126.77165534","items":[{"name":"육일슈퍼","tel":"032-684-9387","addr":"경기도 부천시 삼정동 209-8 1층","category":"유통업 영리 - 슈퍼마켓"},{"name":"쥬쥬하우스","tel":"070-8279-7171","addr":"경기도 부천시 삼정동 209-8번지","category":"문화.취미 - 애완동물"},{"name":"팡팡노래연습장","tel":"032-673-9666","addr":"경기도 부천시 삼정동 209-8번지 지하","category":"레저업소 - 노 래 방"}]},{"lat":"37.517365788","long":"126.76869047","items":[{"name":"은헤어","tel":"032-671-7224","addr":"경기도 부천시 삼정동 288-23번지","category":"보건위생 - 미용원"}]},{"lat":"37.52220127","long":"126.77183144","items":[{"name":"은혜주방","tel":"032-679-1513","addr":"경기도 부천시 삼정동 219-2번지","category":"주방용구 - 주방용식기"}]},{"lat":"37.529094291","long":"126.77207038","items":[{"name":"을성정공","tel":"032-677-5730","addr":"경기도 부천시 삼정동 48-80번지","category":"기타 - 기계공구"}]},{"lat":"37.528311806","long":"126.7727742","items":[{"name":"이신포리백","tel":"032-673-7542","addr":"경기도 부천시 삼정동 48-156번지 2층","category":"유통업 영리 - 기타유통업"},{"name":"일성DMI","tel":"032-343-1182","addr":"경기도 부천시 삼정동 48-156번지 1층","category":"기타 - 기계공구"}]},{"lat":"37.524452685","long":"126.77129281","items":[{"name":"이원건재","tel":"032-666-6725","addr":"경기도 부천시 삼정동 85-96번지 2층 좌측 (201호)","category":"건축자재 - 기타건축자재"}]},{"lat":"37.516538897","long":"126.76971107","items":[{"name":"이조숯불갈비","tel":"032-681-1806","addr":"경기도 부천시 삼정동 294-8번지","category":"일반휴게음식 - 일반한식"}]},{"lat":"37.523476464","long":"126.76968948","items":[{"name":"일화산업가스","tel":"070-8936-7470","addr":"경기도 부천시 삼정동 94-2번지","category":"기타 - 기타 전문점"}]},{"lat":"37.527032654","long":"126.76832087","items":[{"name":"잇츠코멜리","tel":"070-8031-4038","addr":"경기도 부천시 삼정동 18-33번지 2층","category":"신변잡화 - 액세서리"}]},{"lat":"37.518618916","long":"126.76907115","items":[{"name":"작은언니네","tel":"032-672-7024","addr":"경기도 부천시 삼정동 286-22번지 1층 일부호","category":"보건위생 - 미용원"}]},{"lat":"37.517675264","long":"126.76574853","items":[{"name":"장수촌","tel":"032-679-0599","addr":"경기도 부천시 삼정동 276-11번지 1층","category":"일반휴게음식 - 일반한식"}]},{"lat":"37.520731561","long":"126.77127038","items":[{"name":"전주식당","tel":"032-673-8620","addr":"경기도 부천시 삼정동 271-7번지 1층","category":"일반휴게음식 - 일반한식"}]},{"lat":"37.525561668","long":"126.77168532","items":[{"name":"정광기계","tel":"032-672-3844","addr":"경기도 부천시 삼정동 71-29번지 1층 105호","category":"기타 - 기계공구"}]},{"lat":"37.523311532","long":"126.77288006","items":[{"name":"정다움식당","tel":"032-684-4741","addr":"경기도 부천시 삼정동 220-3번지 2층","category":"일반휴게음식 - 일반한식"}]},{"lat":"37.514563428","long":"126.77313313","items":[{"name":"정미네포차","tel":"032-676-8822","addr":"경기도 부천시 삼정동 318-9번지 1층","category":"일반휴게음식 - 일반한식"}]},{"lat":"37.519949134","long":"126.7674381","items":[{"name":"정진카프라자","tel":"032-677-0932","addr":"경기도 부천시 삼정동 275-64번지","category":"자동차정비 유지 - 자동차정비"}]},{"lat":"37.517370924","long":"126.76674489","items":[{"name":"제이공조","tel":"","addr":"경기도 부천시 삼정동 282-35번지 1층","category":"전기제품 - 냉열기기"}]},{"lat":"37.519538053","long":"126.76913615","items":[{"name":"제이비(JB) 오토도어","tel":"032-676-6034","addr":"경기도 부천시 삼정동 274-10번지 1층 일부","category":"용역 서비스 - 기타용역서비스"},{"name":"지구냉난방","tel":"032-672-8282","addr":"경기도 부천시 삼정동 274-10번지","category":"전기제품 - 냉열기기"}]},{"lat":"37.521984104","long":"126.771357","items":[{"name":"제이에스테크","tel":"","addr":"경기도 부천시 삼정동 216번지","category":"전기제품 - 가전제품"}]},{"lat":"37.517894939","long":"126.76746718","items":[{"name":"제이엠제이(JMJ)보습학원","tel":"070-8613-1795","addr":"경기도 부천시 삼정동 283-20번지 3층","category":"학원 - 보습학원"},{"name":"하나비젼","tel":"032-502-4580","addr":"경기도 부천시 삼정동 283-20번지 1층","category":"전기제품 - 가전제품"}]},{"lat":"37.517090413","long":"126.77068213","items":[{"name":"조은생활 부천대리점","tel":"","addr":"경기도 부천시 삼정동 308-24번지","category":"주방용구 - 주방용구"}]},{"lat":"37.52142913","long":"126.76863252","items":[{"name":"조은테크","tel":"032-684-8110","addr":"경기도 부천시 삼정동 264-1번지 1층 일부","category":"기타 - 기계공구"}]},{"lat":"37.527059","long":"126.76349019","items":[{"name":"주식회사 래이오","tel":"","addr":"경기도 부천시 삼정동 17-38번지 4층","category":"건축자재 - 조명기구"}]},{"lat":"37.527203157","long":"126.76348973","items":[{"name":"주식회사 마스터","tel":"070-8633-5450","addr":"경기도 부천시 삼정동 17-37번지 3층","category":"건축자재 - 인테리어전문"}]},{"lat":"37.527312182","long":"126.76843312","items":[{"name":"주식회사 성호기계","tel":"032-683-4939","addr":"경기도 부천시 삼정동 60-13번지 4층","category":"전기제품 - 기타전기제품"}]},{"lat":"37.526563491","long":"126.76799426","items":[{"name":"주식회사 아이삭에프앤비","tel":"032-672-5759","addr":"경기도 부천시 삼정동 19-21번지 1층","category":"음료식품 - 기타음료식품"}]},{"lat":"37.52928109","long":"126.76630008","items":[{"name":"주식회사 카런","tel":"032-682-1524","addr":"경기도 부천시 삼정동 33-1번지","category":"자동차정비 유지 - 자동차정비"}]},{"lat":"37.529336804","long":"126.77168499","items":[{"name":"주식회사 포스텍","tel":"031-683-8200","addr":"경기도 부천시 삼정동 48-34번지 1층","category":"용역 서비스 - 기타용역서비스"}]},{"lat":"37.526815735","long":"126.76349097","items":[{"name":"주식회사 한길자동차공업사","tel":"032-673-1412","addr":"경기도 부천시 삼정동 17-39번지","category":"자동차정비 유지 - 자동차정비"}]},{"lat":"37.524506049","long":"126.76193723","items":[{"name":"주식회사선진몰드","tel":"032-681-3329","addr":"경기도 부천시 삼정동 34-40번지","category":"기타 - 기계공구"}]},{"lat":"37.526288687","long":"126.77026899","items":[{"name":"준애드 (Jun ad)","tel":"","addr":"경기도 부천시 삼정동 70-30번지 2층","category":"서적문구 - 출판 및 인쇄물"}]},{"lat":"37.515202047","long":"126.77257693","items":[{"name":"지리산갈비","tel":"032-675-0495","addr":"경기도 부천시 삼정동 316-4번지","category":"일반휴게음식 - 일반한식"}]},{"lat":"37.519012496","long":"126.76763334","items":[{"name":"지비아이","tel":"032-209-0604","addr":"경기도 부천시 삼정동 285-26번지 명성빌라 가동 401호","category":"신변잡화 - 기타잡화"}]},{"lat":"37.527477448","long":"126.76546862","items":[{"name":"지성알미늄","tel":"032-678-6061","addr":"경기도 부천시 삼정동 18-3번지 1층","category":"건축자재 - 기타건축자재"}]},{"lat":"37.526031349","long":"126.76771312","items":[{"name":"진미식당","tel":"032-681-2739","addr":"경기도 부천시 삼정동 19-28번지","category":"일반휴게음식 - 일반한식"}]},{"lat":"37.51850623","long":"126.76677525","items":[{"name":"진민무역","tel":"032-672-9430","addr":"경기도 부천시 삼정동 275-44번지 1층","category":"보건위생 - 미용재료"}]},{"lat":"37.520672336","long":"126.77323883","items":[{"name":"진성자동차공업사","tel":"032-221-8000","addr":"경기도 부천시 삼정동 206-2번지","category":"자동차정비 유지 - 자동차정비"}]},{"lat":"37.516504507","long":"126.77054821","items":[{"name":"진성전산","tel":"032-201-5582","addr":"경기도 부천시 삼정동 308-17번지 중앙연립","category":"사무통신 - 기타 사무용품"}]},{"lat":"37.514733094","long":"126.77235215","items":[{"name":"참숯불화로구이","tel":"032-672-9233","addr":"경기도 부천시 삼정동 348-1번지 1층","category":"일반휴게음식 - 일반한식"}]},{"lat":"37.525225781","long":"126.77502357","items":[{"name":"창성식당","tel":"032-677-6053","addr":"경기도 부천시 삼정동 48-19번지","category":"일반휴게음식 - 일반한식"}]},{"lat":"37.517172436","long":"126.76660978","items":[{"name":"창조하는사람들","tel":"032-677-7742","addr":"경기도 부천시 삼정동 281번지 행운다세대 101호","category":"건축자재 - 인테리어전문"},{"name":"한국난방관리 부천북부지사","tel":"032-676-3747","addr":"경기도 부천시 삼정동 281번지 행운다세대 1층 102호","category":"용역 서비스 - 기타용역서비스"}]},{"lat":"37.528731491","long":"126.76630181","items":[{"name":"천복기계(주)","tel":"032-676-4690","addr":"경기도 부천시 삼정동 32-11번지","category":"기타 - 기계공구"}]},{"lat":"37.517732905","long":"126.77210538","items":[{"name":"천성슈퍼","tel":"032-682-7712","addr":"경기도 부천시 삼정동 305-14번지","category":"유통업 영리 - 슈퍼마켓"}]},{"lat":"37.523535763","long":"126.772359","items":[{"name":"천일열처리","tel":"032-677-9746","addr":"경기도 부천시 삼정동 220-29번지","category":"기타 - 기계공구"}]},{"lat":"37.521649809","long":"126.77088293","items":[{"name":"천일콤프레샤","tel":"032-682-6665","addr":"경기도 부천시 삼정동 271-11번지","category":"기타 - 기계공구"},{"name":"푸짐한한식부페","tel":"032-673-0794","addr":"경기도 부천시 삼정동 271-11번지 2층","category":"일반휴게음식 - 일반한식"}]},{"lat":"37.518258366","long":"126.76899309","items":[{"name":"청룡암","tel":"032-681-8438","addr":"경기도 부천시 삼정동 287-12번지","category":"보건위생 - 기타대인서비스"}]},{"lat":"37.52381141","long":"126.77049161","items":[{"name":"청수산업","tel":"032-683-2555","addr":"경기도 부천시 삼정동 87-12","category":"용역 서비스 - 기타용역서비스"}]},{"lat":"37.51522848","long":"126.77227145","items":[{"name":"청춘포차","tel":"032-684-7776","addr":"경기도 부천시 삼정동 316-8번지 1층","category":"일반휴게음식 - 주점"}]},{"lat":"37.516842123","long":"126.77271893","items":[{"name":"카페 오작교","tel":"070-672-4505","addr":"경기도 부천시 삼정동 306-4번지 월드신풍맨션 1층 102호","category":"일반휴게음식 - 서양음식"}]},{"lat":"37.521176787","long":"126.76859937","items":[{"name":"컴-테크","tel":"032-683-7130","addr":"경기도 부천시 삼정동 264-2번지","category":"기타 - 기계공구"}]},{"lat":"37.526504547","long":"126.76555089","items":[{"name":"코너스톤","tel":"070-8200-3394","addr":"경기도 부천시 삼정동 19-42번지","category":"기타 - 기계공구"}]},{"lat":"37.521787305","long":"126.77208158","items":[{"name":"코알라 컴퍼니","tel":"032-684-8902","addr":"경기도 부천시 삼정동 216-11번지 2층","category":"직물 - 침구·수예점"}]},{"lat":"37.515200102","long":"126.77158156","items":[{"name":"코코","tel":"032-675-8016","addr":"경기도 부천시 삼정동 315-17번지 1층","category":"의류 - 정장"}]},{"lat":"37.515455569","long":"126.76862857","items":[{"name":"크린토피아 코인워시 부천약대아이파크점","tel":"032-672-1056","addr":"경기도 부천시 삼정동 292-10번지 1층","category":"수리서비스 - 세탁소"}]},{"lat":"37.5163959","long":"126.7702997","items":[{"name":"큰맘원조할매순대국","tel":"032-214-2052","addr":"경기도 부천시 삼정동 308-7번지 1,2층","category":"일반휴게음식 - 일반한식"}]},{"lat":"37.52442479","long":"126.77085171","items":[{"name":"탑팩커(TOPPACKER)","tel":"032-681-3836","addr":"경기도 부천시 삼정동 85-141번지 1층","category":"기타 - 기계공구"}]},{"lat":"37.523454078","long":"126.77205382","items":[{"name":"태광저울","tel":"032-684-2959","addr":"경기도 부천시 삼정동 220-28번지 2층","category":"기타 - 기계공구"}]},{"lat":"37.521312912","long":"126.77368934","items":[{"name":"태양상회","tel":"032-671-0181","addr":"경기도 부천시 삼정동 205-2번지","category":"음료식품 - 기타음료식품"}]},{"lat":"37.515756958","long":"126.77068626","items":[{"name":"태환네 싱싱야채","tel":"032-676-1840","addr":"경기도 부천시 삼정동 314-14번지 월드맨션 102호","category":"음료식품 - 농·축·수산품"}]},{"lat":"37.523646567","long":"126.77373877","items":[{"name":"포앤이원(FOUR NE ONE)","tel":"070-7523-7587","addr":"경기도 부천시 삼정동 96-3번지","category":"신변잡화 - 기타잡화"}]},{"lat":"37.522671879","long":"126.77290465","items":[{"name":"풍년식당","tel":"032-673-4914","addr":"경기도 부천시 삼정동 220-9번지 1층","category":"일반휴게음식 - 일반한식"}]},{"lat":"37.515505771","long":"126.77124128","items":[{"name":"피카소유통","tel":"070-4069-7059","addr":"경기도 부천시 삼정동 315-3번지","category":"문화.취미 - 화랑"}]},{"lat":"37.518037711","long":"126.77132395","items":[{"name":"피톤골프","tel":"031-1877-9018","addr":"경기도 부천시 삼정동 304-4번지","category":"레져용품 - 골프용품 전문점"}]},{"lat":"37.516840002","long":"126.77163305","items":[{"name":"하이냉동공조","tel":"","addr":"경기도 부천시 삼정동 307-2번지 아트하우스 101호","category":"전기제품 - 냉열기기"}]},{"lat":"37.518007522","long":"126.76971781","items":[{"name":"하이카스","tel":"032-672-3307","addr":"경기도 부천시 삼정동 295-15번지 1층","category":"일반휴게음식 - 주점"}]},{"lat":"37.517064318","long":"126.76661012","items":[{"name":"하이컴","tel":"031-675-2991","addr":"경기도 부천시 삼정동 281-25번지","category":"사무통신 - 컴퓨터"}]},{"lat":"37.517371914","long":"126.77180108","items":[{"name":"한국금속포장","tel":"032-673-1708","addr":"경기도 부천시 삼정동 305-46번지 1층","category":"기타 - 기계공구"}]},{"lat":"37.529677001","long":"126.77057524","items":[{"name":"한부구리스","tel":"000-0000-0000","addr":"경기도 부천시 삼정동 45-1 1층","category":"자동차정비 유지 - 자동차정비"}]},{"lat":"37.528364606","long":"126.7721292","items":[{"name":"한울기계","tel":"032-678-9345","addr":"경기도 부천시 삼정동 48-73번지 1층","category":"기타 - 기계공구"}]},{"lat":"37.515759618","long":"126.77204359","items":[{"name":"한일크린텍","tel":"070-8031-4038","addr":"경기도 부천시 삼정동 313-12번지","category":"건축자재 - 기타건축자재"}]},{"lat":"37.5193412","long":"126.76982678","items":[{"name":"해물요리전문점대부","tel":"032-682-4477","addr":"경기도 부천시 삼정동 296-27번지","category":"일반휴게음식 - 일반한식"}]},{"lat":"37.524538232","long":"126.77357767","items":[{"name":"행복한밥상","tel":"032-674-8825","addr":"경기도 부천시 삼정동 74-9번지","category":"일반휴게음식 - 일반한식"},{"name":"홍연하이텍","tel":"032-679-2809","addr":"경기도 부천시 삼정동 74-9번지 2층","category":"기타 - 기계공구"}]},{"lat":"37.518587635","long":"126.76693336","items":[{"name":"허지원머리방","tel":"032-671-8163","addr":"경기도 부천시 삼정동 275-41번지","category":"보건위생 - 미용원"}]},{"lat":"37.517366393","long":"126.76899587","items":[{"name":"헤어봄뜰","tel":"070-8260-3322","addr":"경기도 부천시 삼정동 288-14번지","category":"보건위생 - 미용원"}]},{"lat":"37.523867711","long":"126.77163399","items":[{"name":"현대레이저","tel":"032-681-0237","addr":"경기도 부천시 삼정동 85-34번지","category":"기타 - 기계공구"}]},{"lat":"37.518144433","long":"126.76607508","items":[{"name":"현이네 한식부페","tel":"032-672-2025","addr":"경기도 부천시 삼정동 276-2번지 1층","category":"일반휴게음식 - 일반한식"}]},{"lat":"37.523559225","long":"126.77516439","items":[{"name":"협성정밀기계북부영업소(Quest Mecatronics","tel":"032-678-8404","addr":"경기도 부천시 삼정동 97-2번지","category":"기타 - 기계공구"}]},{"lat":"37.527481379","long":"126.77199616","items":[{"name":"협신열교환기공업(주)/원격지","tel":"032-675-5900","addr":"경기도 부천시 삼정동 48-150번지","category":"기타 - 기타 전문점"}]},{"lat":"37.526066882","long":"126.77202315","items":[{"name":"형제세차장","tel":"032-673-4429","addr":"경기도 부천시 삼정동 71-11번지","category":"자동차정비 유지 - 세차장"}]},{"lat":"37.51964617","long":"126.76913581","items":[{"name":"형제화원","tel":"032-552-7094","addr":"경기도 부천시 삼정동 274-9번지","category":"문화.취미 - 화원"}]},{"lat":"37.519317816","long":"126.77168197","items":[{"name":"황금오리","tel":"032-677-7743","addr":"경기도 부천시 삼정동 300-29번지 1층","category":"일반휴게음식 - 일반한식"}]},{"lat":"37.516525609","long":"126.77212041","items":[{"name":"효지노리코","tel":"02-3398-7158","addr":"경기도 부천시 삼정동 309-5번지 주은빌라 2동 401호","category":"의류 - 정장"}]},{"lat":"37.520983681","long":"126.77119041","items":[{"name":"후레쉬워터","tel":"032-342-2725","addr":"경기도 부천시 삼정동 271-4번지 2층","category":"주방용구 - 정수기"}]},{"lat":"37.527758704","long":"126.76644064","items":[{"name":"힐링","tel":"","addr":"경기도 부천시 삼정동 14-33번지","category":"음료식품 - 기타음료식품"}]}]