[{"lat":"37.846811092","long":"127.3826184","items":[{"name":"(KFME)컨벤션 펜션","tel":"031-000-0000","addr":"경기도 가평군 조종면 마일리 300-6번지","category":"숙박업 - 여관/기타숙박업"}]},{"lat":"37.84550594","long":"127.38503166","items":[{"name":"가평스마일","tel":"031-584-3467","addr":"경기도 가평군 조종면 마일리 302번지","category":"음료식품 - 기타음료식품"}]},{"lat":"37.845336899","long":"127.38714399","items":[{"name":"네이처스토리","tel":"031-585-5750","addr":"경기도 가평군 조종면 마일리 91번지","category":"숙박업 - 여관/기타숙박업"}]},{"lat":"37.844091281","long":"127.37094799","items":[{"name":"마일골 갤러리(페니유니)","tel":"070-8801-8823","addr":"경기도 가평군 조종면 마일리 382-1번지","category":"문화.취미 - 화랑"}]},{"lat":"37.841865749","long":"127.3933971","items":[{"name":"매봉산 캠핑장","tel":"032-585-2501","addr":"경기도 가평군 조종면 마일리 산113-1번지","category":"레저업소 - 기타레져업소"}]},{"lat":"37.855370267","long":"127.38530983","items":[{"name":"산골유원지","tel":"031-585-5355","addr":"경기도 가평군 조종면 마일리 317-1","category":"직물 - 카페트,커튼,천막,지물"}]},{"lat":"37.85444859","long":"127.39706542","items":[{"name":"산으로 간 니모","tel":"031-584-5550","addr":"경기도 가평군 조종면 마일리 71번지","category":"음료식품 - 기타음료식품"}]},{"lat":"37.850864166","long":"127.37734444","items":[{"name":"연인산풍경요리사의농원","tel":"031-585-0870","addr":"경기도 가평군 조종면 마일리 360-2번지","category":"레저업소 - 기타레져업소"}]},{"lat":"37.820734222","long":"127.38098558","items":[{"name":"자연우리","tel":"031-585-3401","addr":"경기도 가평군 조종면 마일리 188-4번지","category":"음료식품 - 기타음료식품"}]},{"lat":"37.842366751","long":"127.37214367","items":[{"name":"주식회사 헬로우힐","tel":"031-584-1090","addr":"경기도 가평군 조종면 마일리 382-12번지 1층","category":"건축자재 - 부동산 분양"}]},{"lat":"37.847394359","long":"127.37772455","items":[{"name":"캠핑어클락","tel":"031-585-3501","addr":"경기도 가평군 조종면 마일리 370-8, 370-3, 368","category":"레저업소 - 기타레져업소"}]}]