[{"lat":"37.362421229","long":"126.87496497","imageIndex":17,"items":[{"name":"(주) 코엑트","tel":"031-481-9660","addr":"경기도 안산시 상록구 수암동 504-3번지 엠제이프라자 204호","indutype":"기타 - 기계공구","category":"other"},{"name":"(주)세종언더웨어","tel":"031-485-8141","addr":"경기도 안산시 상록구 수암동 504-3번지 외1필지엠제이프라자 103호","indutype":"의류 - 내의판매","category":"other"},{"name":"JY상사","tel":"031-405-7804","addr":"경기도 안산시 상록구 수암동 504-3번지 501-3호","indutype":"전기제품 - 기타전기제품","category":"other"},{"name":"가구도매총판","tel":"031-483-8975","addr":"경기도 안산시 상록구 수암동 504-3번지 엠제이프라자 116호","indutype":"가구 - 일반가구","category":"other"},{"name":"드림하우스","tel":"031-403-8687","addr":"경기도 안산시 상록구 수암동 504-3번지 엠제이프라자 106,107,108호","indutype":"직물 - 침구·수예점","category":"other"},{"name":"삼성전자서비스(주)B2B안산센터","tel":"032-330-7023","addr":"경기도 안산시 상록구 수암동 504-3번지 엠제이프라자 3층 303호","indutype":"수리서비스 - 가정용품수리","category":"other"},{"name":"안산시영남향우회","tel":"031-495-7804","addr":"경기도 안산시 상록구 수암동 504-3번지 엠제이프라자 501-3호","indutype":"기타 - 비영리/비대상","category":"other"},{"name":"인조이박스(ENJOYBOX)","tel":"031-401-4071","addr":"경기도 안산시 상록구 수암동 504-3번지 엠제이프라자","indutype":"신변잡화 - 기타잡화","category":"other"}]},{"lat":"37.364552544","long":"126.8796009","imageIndex":17,"items":[{"name":"(주)문장군","tel":"070-4082-1836","addr":"경기도 안산시 상록구 수암동 463-12번지","indutype":"용역 서비스 - 기타용역서비스","category":"other"}]},{"lat":"37.361807597","long":"126.87409684","imageIndex":17,"items":[{"name":"(주)인터프라자","tel":"031-411-6724","addr":"경기도 안산시 상록구 수암동 506-12번지","indutype":"신변잡화 - 신발","category":"other"}]},{"lat":"37.364000492","long":"126.87728769","imageIndex":17,"items":[{"name":"(주)코리아세븐안산수암중앙점","tel":"02-3284-8185","addr":"경기도 안산시 상록구 수암동 467-6번지 102호","indutype":"유통업 영리 - 편 의 점","category":"other"}]},{"lat":"37.364693779","long":"126.87682371","imageIndex":17,"items":[{"name":"(주)하나전세","tel":"031-484-0101","addr":"경기도 안산시 상록구 수암동 465-3번지","indutype":"여행 - 고속버스","category":"other"}]},{"lat":"37.362170548","long":"126.87645542","imageIndex":17,"items":[{"name":"GS25수암르네상스점","tel":"","addr":"경기도 안산시 상록구 수암동 500-8번지 101호","indutype":"유통업 영리 - 편 의 점","category":"other"}]},{"lat":"37.362614719","long":"126.87898322","imageIndex":17,"items":[{"name":"GS25안산수암점","tel":"","addr":"경기도 안산시 상록구 수암동 493-1번지","indutype":"유통업 영리 - 편 의 점","category":"other"}]},{"lat":"37.362030659","long":"126.88051936","imageIndex":17,"items":[{"name":"SBJ기계설비","tel":"031-402-0304","addr":"경기도 안산시 상록구 수암동 488-14번지 201호","indutype":"용역 서비스 - 기타용역서비스","category":"other"}]},{"lat":"37.363747174","long":"126.87631732","imageIndex":17,"items":[{"name":"UN한류문화예술원","tel":"031-319-5050","addr":"경기도 안산시 상록구 수암동 502-11번지 3층","indutype":"문화.취미 - 티켓","category":"other"}]},{"lat":"37.364164519","long":"126.87903712","imageIndex":17,"items":[{"name":"건강바디","tel":"031-487-6726","addr":"경기도 안산시 상록구 수암동 477-4 금성그린빌 202 17/3","indutype":"회원제형태 - 기타1","category":"other"}]},{"lat":"37.3631712368","long":"126.8769842925","imageIndex":17,"items":[{"name":"고깃간","tel":"","addr":"경기도 안산시 상록구 수암동 501-3번지","indutype":"도매 및 소매업 - 식육","category":"other"}]},{"lat":"37.363642227","long":"126.87932018","imageIndex":17,"items":[{"name":"꾸꾸텔레콤","tel":"","addr":"경기도 안산시 상록구 수암동 475-7번지 102호","indutype":"사무통신 - 통신기기","category":"other"}]},{"lat":"37.363306952","long":"126.87751461","imageIndex":17,"items":[{"name":"노점의류","tel":"031-000-0000","addr":"경기도 안산시 상록구 수암동 471번지 다미레스빌 3층 302호","indutype":"의류 - 정장","category":"other"}]},{"lat":"37.3640544086","long":"126.8771521424","imageIndex":17,"items":[{"name":"다퍼드려요","tel":"","addr":"경기도 안산시 상록구 수암동 467-7번지","indutype":"도매 및 소매업 - 과일","category":"other"}]},{"lat":"37.363116345","long":"126.8762055","imageIndex":17,"items":[{"name":"대가모바일","tel":"031-410-8829","addr":"경기도 안산시 상록구 수암동 503번지 1층","indutype":"사무통신 - 통신기기","category":"other"},{"name":"에이치엘(HL)","tel":"","addr":"경기도 안산시 상록구 수암동 503번지","indutype":"의류 - 정장","category":"other"}]},{"lat":"37.3631163445","long":"126.8762054970","imageIndex":17,"items":[{"name":"대가모바일","tel":"031-410-8829","addr":"경기도 안산시 상록구 수암동 503번지","indutype":"도매 및 소매업 - 통신기기(휴대폰)","category":"other"},{"name":"수암약국","tel":"031-484-5875","addr":"경기도 안산시 상록구 수암동 503번지","indutype":"도매 및 소매업 - 양약","category":"other"}]},{"lat":"37.36294954","long":"126.88037112","imageIndex":17,"items":[{"name":"대광종합상사","tel":"031-402-2391","addr":"경기도 안산시 상록구 수암동 487-2번지 나동","indutype":"유통업 영리 - 기타유통업","category":"other"}]},{"lat":"37.36167178","long":"126.87348752","imageIndex":17,"items":[{"name":"대명철물설비","tel":"031-487-2585","addr":"경기도 안산시 상록구 수암동 506-16번지 1층","indutype":"용역 서비스 - 기타용역서비스","category":"other"}]},{"lat":"37.3616717804","long":"126.8734875162","imageIndex":17,"items":[{"name":"대명철물설비","tel":"031-487-2585","addr":"경기도 안산시 상록구 수암동 506-16번지","indutype":"도매 및 소매업 - 철물, 설비","category":"other"}]},{"lat":"37.362336336","long":"126.87987544","imageIndex":17,"items":[{"name":"대성지물","tel":"031-480-9929","addr":"경기도 안산시 상록구 수암동 491-27번지 1층","indutype":"직물 - 카페트,커튼,천막,지물","category":"other"},{"name":"제이로그디자인(J LOG DESIGN)","tel":"","addr":"경기도 안산시 상록구 수암동 491-27번지","indutype":"건축자재 - 인테리어전문","category":"other"}]},{"lat":"37.362060726","long":"126.87487528","imageIndex":17,"items":[{"name":"대주사료","tel":"031-482-1474","addr":"경기도 안산시 상록구 수암동 505번지","indutype":"문화.취미 - 애완동물","category":"other"},{"name":"캠퍼스학생복","tel":"031-480-2259","addr":"경기도 안산시 상록구 수암동 505번지","indutype":"의류 - 맞춤복점","category":"other"}]},{"lat":"37.363500506","long":"126.88167967","imageIndex":17,"items":[{"name":"대한개발공사","tel":"031-483-4511","addr":"경기도 안산시 상록구 수암동 484-2번지 1층","indutype":"용역 서비스 - 기타용역서비스","category":"other"}]},{"lat":"37.369079802","long":"126.87504398","imageIndex":17,"items":[{"name":"대호산업","tel":"031-487-2040","addr":"경기도 안산시 상록구 수암동 62-1번지","indutype":"용역 서비스 - 종합용역","category":"other"}]},{"lat":"37.3643659971","long":"126.8821862526","imageIndex":17,"items":[{"name":"대흥상사","tel":"","addr":"경기도 안산시 상록구 수암동 482-2번지 삼성빌라","indutype":"도매 및 소매업 - 잡자재","category":"other"}]},{"lat":"37.363142063","long":"126.87498633","imageIndex":17,"items":[{"name":"더그린(The green)","tel":"031-487-2233","addr":"경기도 안산시 상록구 수암동 121-2","indutype":"문화.취미 - 화원","category":"other"},{"name":"허브마을","tel":"031-417-2222","addr":"경기도 안산시 상록구 수암동 121-2","indutype":"문화.취미 - 화원","category":"other"}]},{"lat":"37.368332826","long":"126.87584677","imageIndex":17,"items":[{"name":"동명디자인","tel":"031-411-0735","addr":"경기도 안산시 상록구 수암동 33-5번지","indutype":"건축자재 - 인테리어전문","category":"other"}]},{"lat":"37.362947275","long":"126.87820379","imageIndex":17,"items":[{"name":"동이종합인테리어","tel":"031-485-8687","addr":"경기도 안산시 상록구 수암동 471-7번지","indutype":"건축자재 - 인테리어전문","category":"other"}]},{"lat":"37.362558103","long":"126.87656766","imageIndex":17,"items":[{"name":"디자인스토리","tel":"031-411-3423","addr":"경기도 안산시 상록구 수암동 500-7번지 정승하이맨션 102호","indutype":"건축자재 - 인테리어전문","category":"other"}]},{"lat":"37.363892992","long":"126.87787487","imageIndex":17,"items":[{"name":"디자인콤마비 (Design comma B)","tel":"031-000-0000","addr":"경기도 안산시 상록구 수암동 469-5번지 203호","indutype":"서적문구 - 문구용품","category":"other"}]},{"lat":"37.3640279649","long":"126.8777053160","imageIndex":17,"items":[{"name":"라라음악교습소","tel":"031-405-8961","addr":"경기도 안산시 상록구 수암동 468-1번지","indutype":"교육서비스업 - 음악교습소","category":"other"}]},{"lat":"37.3638931710","long":"126.8780441900","imageIndex":17,"items":[{"name":"라임공구철물","tel":"031-439-7740","addr":"경기도 안산시 상록구 수암동 469번지","indutype":"건설업 - 철물, 인테리어","category":"other"}]},{"lat":"37.363893171","long":"126.87804419","imageIndex":17,"items":[{"name":"라임공구철물","tel":"031-439-7740","addr":"경기도 안산시 상록구 수암동 469번지 상가동 101호","indutype":"건축자재 - 목재·석재·철물","category":"other"}]},{"lat":"37.362476335","long":"126.87593566","imageIndex":17,"items":[{"name":"러브 펫","tel":"031-401-1133","addr":"경기도 안산시 상록구 수암동 503-10번지 1층","indutype":"문화.취미 - 애완동물","category":"other"},{"name":"수암애견","tel":"031-401-1133","addr":"경기도 안산시 상록구 수암동 503-10 1층 1","indutype":"문화.취미 - 애완동물","category":"other"}]},{"lat":"37.363477027","long":"126.87646452","imageIndex":17,"items":[{"name":"리더스웰빙디씨마트","tel":"","addr":"경기도 안산시 상록구 수암동 502-5번지 동영센트럴타워 2층 201호","indutype":"주방용구 - 주방용구","category":"other"},{"name":"힐링","tel":"070-9122-5751","addr":"경기도 안산시 상록구 수암동 502-5번지 동영센트럴타워 801호","indutype":"의류 - 내의판매","category":"other"}]},{"lat":"37.36433854","long":"126.88176863","imageIndex":17,"items":[{"name":"만주컨설팅","tel":"031-480-5253","addr":"경기도 안산시 상록구 수암동 482-11번지 그린빌라 201호","indutype":"용역 서비스 - 사무서비스","category":"other"}]},{"lat":"37.3638379255","long":"126.8769267370","imageIndex":17,"items":[{"name":"맛고을축산유통","tel":"031-411-8946","addr":"경기도 안산시 상록구 수암동 501번지","indutype":"도매 및 소매업 - 식육","category":"other"}]},{"lat":"37.36140139","long":"126.88192009","imageIndex":17,"items":[{"name":"명승글라스","tel":"031-402-7044","addr":"경기도 안산시 상록구 수암동 489-5번지 명성쉐르빌 가동 402호","indutype":"건축자재 - 보일러·펌프·샷시","category":"other"}]},{"lat":"37.363497628","long":"126.87890275","imageIndex":17,"items":[{"name":"미니스톱안산영인점","tel":"031-1577-9621","addr":"경기도 안산시 상록구 수암동 473번지 영인위드미 1층 101호","indutype":"유통업 영리 - 편 의 점","category":"other"}]},{"lat":"37.364615497","long":"126.87948791","imageIndex":17,"items":[{"name":"미도테크","tel":"031-413-0483","addr":"경기도 안산시 상록구 수암동 463-13번지 201호","indutype":"용역 서비스 - 기타용역서비스","category":"other"}]},{"lat":"37.36327913","long":"126.87676964","imageIndex":17,"items":[{"name":"민 시스템","tel":"031-411-1298","addr":"경기도 안산시 상록구 수암동 501-4번지 선경탑스빌2차 102호","indutype":"용역 서비스 - 기타용역서비스","category":"other"}]},{"lat":"37.364027965","long":"126.87770532","imageIndex":17,"items":[{"name":"베이비스킨","tel":"","addr":"경기도 안산시 상록구 수암동 468-1번지 1층 101호","indutype":"회원제형태 - 기타4","category":"other"}]},{"lat":"37.364081882","long":"126.87756977","imageIndex":17,"items":[{"name":"블룸얼론","tel":"031-747-8874","addr":"경기도 안산시 상록구 수암동 468-4번지 103호","indutype":"신변잡화 - 액세서리","category":"other"}]},{"lat":"37.3632791297","long":"126.8767696356","imageIndex":17,"items":[{"name":"사거리당구장","tel":"","addr":"경기도 안산시 상록구 수암동 501-4번지 선경탑스빌2차","indutype":"예술, 스포츠 및 여가관련 서비스업","category":"other"},{"name":"수암안경마트","tel":"031-483-1776","addr":"경기도 안산시 상록구 수암동 501-4번지 선경탑스빌2차","indutype":"도매 및 소매업 - 안경","category":"other"}]},{"lat":"37.3631636963","long":"126.8783727571","imageIndex":17,"items":[{"name":"삼성철물","tel":"031-485-9775","addr":"경기도 안산시 상록구 수암동 471-4번지","indutype":"도매 및 소매업 - 철물","category":"other"}]},{"lat":"37.3626932913","long":"126.8766012936","imageIndex":17,"items":[{"name":"삼호세탁소","tel":"031-487-9396","addr":"경기도 안산시 상록구 수암동 500-6번지","indutype":"협회 및 단체, 수리 및 기타 개인서","category":"other"},{"name":"삼호세탁소","tel":"031-487-9396","addr":"경기도 안산시 상록구 수암동 500-6번지","indutype":"협회 및 단체, 수리 및 기타 개인서","category":"other"},{"name":"윤헤어멘토","tel":"070-4219-5475","addr":"경기도 안산시 상록구 수암동 500-6번지","indutype":"협회 및 단체, 수리 및 기타 개인서","category":"other"}]},{"lat":"37.362693291","long":"126.87660129","imageIndex":17,"items":[{"name":"삼호세탁소","tel":"031-487-9396","addr":"경기도 안산시 상록구 수암동 500-6번지 정승하이맨션 102호","indutype":"수리서비스 - 세탁소","category":"other"}]},{"lat":"37.3621921505","long":"126.8798531011","imageIndex":17,"items":[{"name":"샤론헤어라인","tel":"031-482-4566","addr":"경기도 안산시 상록구 수암동 491-24번지","indutype":"협회 및 단체, 수리 및 기타 개인서","category":"other"}]},{"lat":"37.363669021","long":"126.87909437","imageIndex":17,"items":[{"name":"서울기계","tel":"031-494-0030","addr":"경기도 안산시 상록구 수암동 475-8번지","indutype":"기타 - 기계공구","category":"other"}]},{"lat":"37.3627197298","long":"126.8760481294","imageIndex":17,"items":[{"name":"서울약국","tel":"031-480-3886","addr":"경기도 안산시 상록구 수암동 503-12번지","indutype":"도매 및 소매업 - 양약, 의료기기","category":"other"},{"name":"수암당구장","tel":"031-409-0971","addr":"경기도 안산시 상록구 수암동 503-12번지","indutype":"협회 및 단체, 수리 및 기타 개인서","category":"other"},{"name":"수암당구장","tel":"031-410-3604","addr":"경기도 안산시 상록구 수암동 503-12번지","indutype":"협회 및 단체, 수리 및 기타 개인서","category":"other"}]},{"lat":"37.362830619","long":"126.87865551","imageIndex":17,"items":[{"name":"세경철물","tel":"031-411-2841","addr":"경기도 안산시 상록구 수암동 472-15번지","indutype":"건축자재 - 목재·석재·철물","category":"other"}]},{"lat":"37.36314465","long":"126.877402","imageIndex":17,"items":[{"name":"세븐일레븐안산수암본점","tel":"","addr":"경기도 안산시 상록구 수암동 471-17번지 101호","indutype":"유통업 영리 - 편 의 점","category":"other"}]},{"lat":"37.362452879","long":"126.87931085","imageIndex":17,"items":[{"name":"소망유통","tel":"031-486-8539","addr":"경기도 안산시 상록구 수암동 33블럭2-2롯트선영하이츠빌B동101호","indutype":"유통업 영리 - 기타유통업","category":"other"}]},{"lat":"37.363831816","long":"126.8796811","imageIndex":17,"items":[{"name":"송이네","tel":"031-411-5089","addr":"경기도 안산시 상록구 수암동 475-4번지 101호","indutype":"문화.취미 - 애완동물","category":"other"}]},{"lat":"37.364220084","long":"126.88048194","imageIndex":17,"items":[{"name":"수리산장","tel":"031-481-8848","addr":"경기도 안산시 상록구 수암동 479번지 상가 1층","indutype":"레져용품 - 스포츠·레져용품","category":"other"}]},{"lat":"37.363914972","long":"126.881679","imageIndex":17,"items":[{"name":"수암마운틴","tel":"031-417-2241","addr":"경기도 안산시 상록구 수암동 483-1번지","indutype":"레져용품 - 스포츠·레져용품","category":"other"},{"name":"수암마운틴","tel":"031-417-2241","addr":"경기도 안산시 상록구 수암동 483-1번지","indutype":"레져용품 - 스포츠·레져용품","category":"other"}]},{"lat":"37.3639149717","long":"126.8816789996","imageIndex":17,"items":[{"name":"수암마운틴","tel":"031-417-2241","addr":"경기도 안산시 상록구 수암동 483-1번지","indutype":"도매 및 소매업 - 등산용품","category":"other"}]},{"lat":"37.3640004918","long":"126.8772876926","imageIndex":17,"items":[{"name":"수암아이스크림할인점","tel":"","addr":"경기도 안산시 상록구 수암동 467-6번지","indutype":"도매 및 소매업 - 아이스크림","category":"other"}]},{"lat":"37.3624212289","long":"126.8749649726","imageIndex":17,"items":[{"name":"수암옥사우나","tel":"031-480-7288","addr":"경기도 안산시 상록구 수암동 504-3번지","indutype":"협회 및 단체, 수리 및 기타 개인서","category":"other"}]},{"lat":"37.3625581033","long":"126.8765676557","imageIndex":17,"items":[{"name":"수암이발관","tel":"","addr":"경기도 안산시 상록구 수암동 500-7번지","indutype":"협회 및 단체, 수리 및 기타 개인서","category":"other"}]},{"lat":"37.362669851","long":"126.88001036","imageIndex":17,"items":[{"name":"수암현대씽크","tel":"031-1111-1111","addr":"경기도 안산시 상록구 수암동 487-8번지 101호","indutype":"주방용구 - 주방용구","category":"other"}]},{"lat":"37.368972192","long":"126.87551831","imageIndex":17,"items":[{"name":"싸인브로","tel":"02-1600-4858","addr":"경기도 안산시 상록구 수암동 36-1번지 1층","indutype":"건축자재 - 인테리어전문","category":"other"}]},{"lat":"37.3629472751","long":"126.8782037917","imageIndex":17,"items":[{"name":"썬헤어","tel":"031-482-7056","addr":"경기도 안산시 상록구 수암동 471-7번지","indutype":"협회 및 단체, 수리 및 기타 개인서","category":"other"}]},{"lat":"37.365144549","long":"126.8770713","imageIndex":17,"items":[{"name":"씨유SK수암주유소점","tel":"031-482-8118","addr":"경기도 안산시 상록구 수암동 465번지","indutype":"유통업 영리 - 편 의 점","category":"other"}]},{"lat":"37.361741115","long":"126.87934588","imageIndex":17,"items":[{"name":"씨유안산수암산점","tel":"080-080-3663","addr":"경기도 안산시 상록구 수암동 494-5번지 수암네오빌 A동 1층 101호","indutype":"유통업 영리 - 편 의 점","category":"other"}]},{"lat":"37.361697762","long":"126.88098271","imageIndex":17,"items":[{"name":"아메리칸스탠다드A/S용인센터","tel":"031-482-0443","addr":"경기도 안산시 상록구 수암동 488-7번지 102호","indutype":"건축자재 - 건축용 요업제품","category":"other"}]},{"lat":"37.3634767492","long":"126.8762048911","imageIndex":17,"items":[{"name":"아이쿠안경","tel":"070-8843-3730","addr":"경기도 안산시 상록구 수암동 502-8번지","indutype":"도매 및 소매업 - 안경","category":"other"},{"name":"열린효태권도장","tel":"031-482-3430","addr":"경기도 안산시 상록구 수암동 502-8번지","indutype":"예술, 스포츠 및 여가관련 서비스업","category":"other"},{"name":"트랙스타","tel":"031-486-8220","addr":"경기도 안산시 상록구 수암동 502-8번지","indutype":"도매 및 소매업 - 레포츠레져등산용품","category":"other"}]},{"lat":"37.363385969","long":"126.8755729","imageIndex":17,"items":[{"name":"안산낚시","tel":"031-482-9713","addr":"경기도 안산시 상록구 수암동 124-7번지","indutype":"레져용품 - 스포츠·레져용품","category":"other"},{"name":"에스씨건설 주식회사","tel":"031-485-7176","addr":"경기도 안산시 상록구 수암동 124-7번지 2층","indutype":"용역 서비스 - 기타용역서비스","category":"other"}]},{"lat":"37.362115809","long":"126.87582338","imageIndex":17,"items":[{"name":"안산농약종묘사","tel":"031-487-9777","addr":"경기도 안산시 상록구 수암동 503-7","indutype":"농업 - 비료,사료,종자","category":"other"},{"name":"인텔마트","tel":"031-411-3299","addr":"경기도 안산시 상록구 수암동 503-7 1층 101","indutype":"사무통신 - 통신기기","category":"other"}]},{"lat":"37.3646937786","long":"126.8768237104","imageIndex":17,"items":[{"name":"안산정육점","tel":"031-486-2254","addr":"경기도 안산시 상록구 수암동 465-3번지","indutype":"도매 및 소매업 - 정육","category":"other"}]},{"lat":"37.363585858","long":"126.87713035","imageIndex":17,"items":[{"name":"안스프리","tel":"0507-1404-5307","addr":"경기도 안산시 상록구 수암동 501-2번지 1104호","indutype":"용역 서비스 - 사무서비스","category":"other"},{"name":"크린토피아","tel":"031-410-1940","addr":"경기도 안산시 상록구 수암동 501-2번지 101호","indutype":"수리서비스 - 세탁소","category":"other"}]},{"lat":"37.363919784","long":"126.87764905","imageIndex":17,"items":[{"name":"에이치케이홈케어","tel":"","addr":"경기도 안산시 상록구 수암동 468-3번지","indutype":"사무통신 - 컴퓨터","category":"other"}]},{"lat":"37.3639197837","long":"126.8776490540","imageIndex":17,"items":[{"name":"오늘네일샵","tel":"070-7714-2710","addr":"경기도 안산시 상록구 수암동 468-3번지","indutype":"협회 및 단체, 수리 및 기타 개인서","category":"other"},{"name":"줌헤어","tel":"031-410-0337","addr":"경기도 안산시 상록구 수암동 468-3번지","indutype":"협회 및 단체, 수리 및 기타 개인서","category":"other"}]},{"lat":"37.363525789","long":"126.87998638","imageIndex":17,"items":[{"name":"이마트24 안산수암점","tel":"031-000-0000","addr":"경기도 안산시 상록구 수암동 474-1번지","indutype":"유통업 영리 - 편 의 점","category":"other"}]},{"lat":"37.362330761","long":"126.87462648","imageIndex":17,"items":[{"name":"이불,커텐할인매장","tel":"031-403-8687","addr":"경기도 안산시 상록구 수암동 504-4 외1필지엠제이프라자106호108동 106","indutype":"직물 - 침구·수예점","category":"other"}]},{"lat":"37.3628912485","long":"126.8763526218","imageIndex":17,"items":[{"name":"조아라 DC백화점","tel":"031-480-7693","addr":"경기도 안산시 상록구 수암동 503-1번지 이림지오팰리스","indutype":"도매 및 소매업 - 생활용품","category":"other"},{"name":"참한우","tel":"031-411-3888","addr":"경기도 안산시 상록구 수암동 503-1번지 이림지오팰리스","indutype":"도매 및 소매업 - 식육","category":"other"}]},{"lat":"37.362891248","long":"126.87635262","imageIndex":17,"items":[{"name":"조아라DC백화점","tel":"031-480-7693","addr":"경기도 안산시 상록구 수암동 503-1번지 이림지오팰리스 1층 1호,2호","indutype":"신변잡화 - 기타잡화","category":"other"},{"name":"폰마트","tel":"031-403-2301","addr":"경기도 안산시 상록구 수암동 503-1번지 이림 상가 105호","indutype":"사무통신 - 통신기기","category":"other"},{"name":"하나공조","tel":"070-4118-9972","addr":"경기도 안산시 상록구 수암동 503-1번지 이림지오팰리스 303호","indutype":"용역 서비스 - 기타용역서비스","category":"other"}]},{"lat":"37.36447383","long":"126.88190387","imageIndex":17,"items":[{"name":"조은문","tel":"","addr":"경기도 안산시 상록구 수암동 482-12번지","indutype":"건축자재 - 인테리어전문","category":"other"}]},{"lat":"37.3626115115","long":"126.8759580064","imageIndex":17,"items":[{"name":"종로떡방앗간","tel":"031-487-4012","addr":"경기도 안산시 상록구 수암동 503-11번지","indutype":"제조업 - 방앗간","category":"other"},{"name":"지미용실","tel":"031-484-9117","addr":"경기도 안산시 상록구 수암동 503-11번지","indutype":"협회 및 단체, 수리 및 기타 개인서","category":"other"}]},{"lat":"37.3618890813","long":"126.8744579142","imageIndex":17,"items":[{"name":"주식회사 일봉","tel":"031-411-6025","addr":"경기도 안산시 상록구 수암동 505-3번지","indutype":"도매 및 소매업 - 전기자재","category":"other"}]},{"lat":"37.3619706251","long":"126.8748754331","imageIndex":17,"items":[{"name":"준스튜디오","tel":"031-405-3424","addr":"경기도 안산시 상록구 수암동 505-1번지","indutype":"협회 및 단체, 수리 및 기타 개인서","category":"other"}]},{"lat":"37.367886063","long":"126.87938096","imageIndex":17,"items":[{"name":"청석플러스","tel":"031-484-4900","addr":"경기도 안산시 상록구 수암동 215번지 이레촌 A동","indutype":"유통업 영리 - 기타유통업","category":"other"}]},{"lat":"37.3637498523","long":"126.8788458979","imageIndex":17,"items":[{"name":"체인지미용실","tel":"","addr":"경기도 안산시 상록구 수암동 475-10번지","indutype":"협회 및 단체, 수리 및 기타 개인서","category":"other"}]},{"lat":"37.3635858584","long":"126.8771303476","imageIndex":17,"items":[{"name":"크린토피아","tel":"031-410-1940","addr":"경기도 안산시 상록구 수암동 501-2번지","indutype":"협회 및 단체, 수리 및 기타 개인서","category":"other"}]},{"lat":"37.363000871","long":"126.87776346","imageIndex":17,"items":[{"name":"타이니(TINY)","tel":"","addr":"경기도 안산시 상록구 수암동 471-12번지","indutype":"의류 - 정장","category":"other"}]},{"lat":"37.362004338","long":"126.87274193","imageIndex":17,"items":[{"name":"태양켄넬","tel":"031-483-6832","addr":"경기도 안산시 상록구 수암동 444번지","indutype":"문화.취미 - 애완동물","category":"other"}]},{"lat":"37.3630285445","long":"126.8783729804","imageIndex":17,"items":[{"name":"태후사랑","tel":"","addr":"경기도 안산시 상록구 수암동 471-5번지","indutype":"협회 및 단체, 수리 및 기타 개인서","category":"other"}]},{"lat":"37.363476749","long":"126.87620489","imageIndex":17,"items":[{"name":"트랙스타(수암점)","tel":"031-486-8220","addr":"경기도 안산시 상록구 수암동 502-8번지 9호,10호","indutype":"레져용품 - 스포츠·레져용품","category":"other"}]},{"lat":"37.3637751309","long":"126.8771864733","imageIndex":17,"items":[{"name":"프라자미용실","tel":"031-480-9668","addr":"경기도 안산시 상록구 수암동 501-1번지 수암베스트타워아파트","indutype":"협회 및 단체, 수리 및 기타 개인서","category":"other"}]},{"lat":"37.3628306186","long":"126.8786555119","imageIndex":17,"items":[{"name":"하임네일","tel":"070-8811-1123","addr":"경기도 안산시 상록구 수암동 472-15번지","indutype":"협회 및 단체, 수리 및 기타 개인서","category":"other"}]},{"lat":"37.3629720374","long":"126.8760702811","imageIndex":17,"items":[{"name":"합기도 수암","tel":"031-486-7989","addr":"경기도 안산시 상록구 수암동 503-15번지","indutype":"교육서비스업 - 합기도","category":"other"}]},{"lat":"37.364001578","long":"126.87831493","imageIndex":17,"items":[{"name":"해피광고","tel":"031-000-0000","addr":"경기도 안산시 상록구 수암동 469-2번지","indutype":"용역 서비스 - 종합용역","category":"other"}]},{"lat":"37.3629741030","long":"126.8780118480","imageIndex":17,"items":[{"name":"헤이지지마","tel":"070-7766-2788","addr":"경기도 안산시 상록구 수암동 471-10번지","indutype":"협회 및 단체, 수리 및 기타 개인서","category":"other"}]},{"lat":"37.369413955","long":"126.87576592","imageIndex":17,"items":[{"name":"현대창호","tel":"031-482-3429","addr":"경기도 안산시 상록구 수암동 62-18번지","indutype":"건축자재 - 기타건축자재","category":"other"}]},{"lat":"37.364219287","long":"126.87971433","imageIndex":17,"items":[{"name":"혜성식품","tel":"031-410-9319","addr":"경기도 안산시 상록구 수암동 478-9번지 302호","indutype":"회원제형태 - 기타4","category":"other"}]},{"lat":"37.364637869","long":"126.88373233","imageIndex":7,"items":[{"name":"(주)지명상사","tel":"031-483-8882","addr":"경기도 안산시 상록구 수암동 284-2번지","indutype":"음료식품 - 농·축·수산품","category":"food"},{"name":"수암콩마을","tel":"031-405-5292","addr":"경기도 안산시 상록구 수암동 284-2번지 외2필지 1층","indutype":"음료식품 - 기타음료식품","category":"food"}]},{"lat":"37.364306404","long":"126.8768808","imageIndex":7,"items":[{"name":"(주)진영에프에스","tel":"031-409-5541","addr":"경기도 안산시 상록구 수암동 467-2번지","indutype":"음료식품 - 기타음료식품","category":"food"}]},{"lat":"37.365893976","long":"126.87857144","imageIndex":7,"items":[{"name":"(주)해밀에프앤에스","tel":"070-4888-1531","addr":"경기도 안산시 상록구 수암동 459-1번지","indutype":"음료식품 - 기타음료식품","category":"food"},{"name":"가온인터내셔날","tel":"070-8744-3358","addr":"경기도 안산시 상록구 수암동 459-1번지","indutype":"음료식품 - 미곡상","category":"food"},{"name":"빵드밀 주식회사","tel":"02-473-7910","addr":"경기도 안산시 상록구 수암동 459-1번지","indutype":"음료식품 - 제과점","category":"food"}]},{"lat":"37.368389979","long":"126.87875924","imageIndex":7,"items":[{"name":"경기유통","tel":"031-413-8722","addr":"경기도 안산시 상록구 수암동 42-1번지","indutype":"음료식품 - 정육점","category":"food"}]},{"lat":"37.36323432","long":"126.87699548","imageIndex":7,"items":[{"name":"고깃간","tel":"","addr":"경기도 안산시 상록구 수암동 501-3번지 A동 102호","indutype":"음료식품 - 정육점","category":"food"}]},{"lat":"37.361499027","long":"126.88048636","imageIndex":7,"items":[{"name":"과일나라","tel":"031-201-1665","addr":"경기도 안산시 상록구 수암동 491-13번지 궁보103타운 103동 202호","indutype":"음료식품 - 농·축·수산품","category":"food"}]},{"lat":"37.371530561","long":"126.88367628","imageIndex":7,"items":[{"name":"농업법인 주식회사 바람부리농장","tel":"031-411-3362","addr":"경기도 안산시 상록구 수암동 4-2번지","indutype":"음료식품 - 농·축·수산품","category":"food"}]},{"lat":"37.367032479","long":"126.8731848","imageIndex":7,"items":[{"name":"농업회사(주)에버그린","tel":"","addr":"경기도 안산시 상록구 수암동 73-3번지","indutype":"음료식품 - 농·축·수산품","category":"food"}]},{"lat":"37.3629741030","long":"126.8780118480","imageIndex":7,"items":[{"name":"대감족발","tel":"031-439-7825","addr":"경기도 안산시 상록구 수암동 471-10번지","indutype":"숙박 및 음식점업 - 한식,식품","category":"food"}]},{"lat":"37.364552544","long":"126.8796009","imageIndex":7,"items":[{"name":"대상F&S","tel":"031-1566-9835","addr":"경기도 안산시 상록구 수암동 463-12번지","indutype":"음료식품 - 기타음료식품","category":"food"}]},{"lat":"37.363837926","long":"126.87692674","imageIndex":7,"items":[{"name":"맛고을축산유통","tel":"031-411-8946","addr":"경기도 안산시 상록구 수암동 501번지","indutype":"음료식품 - 정육점","category":"food"}]},{"lat":"37.3698328","long":"126.87990836","imageIndex":7,"items":[{"name":"베스트바이","tel":"02-2617-8589","addr":"경기도 안산시 상록구 수암동 23-3번지","indutype":"음료식품 - 기타음료식품","category":"food"}]},{"lat":"37.362947774","long":"126.8786779","imageIndex":7,"items":[{"name":"선부청과","tel":"031-484-1599","addr":"경기도 안산시 상록구 수암동 472-16번지 이림샤인빌 301호","indutype":"음료식품 - 농·축·수산품","category":"food"}]},{"lat":"37.364000492","long":"126.87728769","imageIndex":7,"items":[{"name":"수암 아이스크림 할인점","tel":"031-000-0000","addr":"경기도 안산시 상록구 수암동 467-6번지 101호","indutype":"음료식품 - 기타음료식품","category":"food"}]},{"lat":"37.362891248","long":"126.87635262","imageIndex":7,"items":[{"name":"아이스크림할인점","tel":"","addr":"경기도 안산시 상록구 수암동 503-1번지 이림지오팰리스 104호","indutype":"음료식품 - 기타음료식품","category":"food"},{"name":"참한우","tel":"031-411-3888","addr":"경기도 안산시 상록구 수암동 503-1번지 이림지오팰리스 104호","indutype":"음료식품 - 정육점","category":"food"}]},{"lat":"37.364693779","long":"126.87682371","imageIndex":7,"items":[{"name":"안산정육점","tel":"031-486-2254","addr":"경기도 안산시 상록구 수암동 465-3번지","indutype":"음료식품 - 정육점","category":"food"}]},{"lat":"37.363477027","long":"126.87646452","imageIndex":7,"items":[{"name":"오혜숙생활단식처음처럼지사","tel":"070-4113-2613","addr":"경기도 안산시 상록구 수암동 502-5번지 동영센트럴타워 1102호","indutype":"건강식품 - 기타건강식품","category":"food"}]},{"lat":"37.363672264","long":"126.88223252","imageIndex":7,"items":[{"name":"우리가메뉴코칭","tel":"031-410-8489","addr":"경기도 안산시 상록구 수암동 483-4번지","indutype":"음료식품 - 기타음료식품","category":"food"}]},{"lat":"37.36314465","long":"126.877402","imageIndex":7,"items":[{"name":"우리농수산","tel":"031-475-9898","addr":"경기도 안산시 상록구 수암동 471-17번지 102호","indutype":"음료식품 - 농·축·수산품","category":"food"}]},{"lat":"37.363891722","long":"126.8766783","imageIndex":7,"items":[{"name":"육해공푸드마켓","tel":"","addr":"경기도 안산시 상록구 수암동 502-2번지 101호","indutype":"음료식품 - 농·축·수산품","category":"food"}]},{"lat":"37.363137955","long":"126.87960322","imageIndex":7,"items":[{"name":"주식회사보성씨푸드","tel":"031-481-8727","addr":"경기도 안산시 상록구 수암동 473-9번지","indutype":"음료식품 - 농·축·수산품","category":"food"}]},{"lat":"37.362830619","long":"126.87865551","imageIndex":7,"items":[{"name":"충남닭집정육점","tel":"031-486-3017","addr":"경기도 안산시 상록구 수암동 472-15번지","indutype":"음료식품 - 정육점","category":"food"}]},{"lat":"37.363116345","long":"126.8762055","imageIndex":7,"items":[{"name":"파리바게뜨안산수암하늘점","tel":"031-414-4482","addr":"경기도 안산시 상록구 수암동 503번지","indutype":"음료식품 - 제과점","category":"food"}]},{"lat":"37.362163929","long":"126.87871305","imageIndex":7,"items":[{"name":"K1마트","tel":"031-483-4900","addr":"경기도 안산시 상록구 수암동 493-4번지 1층","indutype":"유통업 영리 - 슈퍼마켓","category":"mart"}]},{"lat":"37.363747174","long":"126.87631732","imageIndex":7,"items":[{"name":"경남마트","tel":"031-401-7809","addr":"경기도 안산시 상록구 수암동 502-11번지","indutype":"유통업 영리 - 슈퍼마켓","category":"mart"}]},{"lat":"37.36344251","long":"126.87789819","imageIndex":7,"items":[{"name":"럭키할인마트","tel":"031-439-9971","addr":"경기도 안산시 상록구 수암동 470-10번지 드림캐슬","indutype":"유통업 영리 - 슈퍼마켓","category":"mart"}]},{"lat":"37.361697762","long":"126.88098271","imageIndex":7,"items":[{"name":"미리내슈퍼","tel":"031-405-1991","addr":"경기도 안산시 상록구 수암동 488-7번지 한신맨션 B01호상가","indutype":"유통업 영리 - 슈퍼마켓","category":"mart"}]},{"lat":"37.36167178","long":"126.87348752","imageIndex":7,"items":[{"name":"양구슈퍼","tel":"031-482-7705","addr":"경기도 안산시 상록구 수암동 506-16번지 101호","indutype":"유통업 영리 - 슈퍼마켓","category":"mart"}]},{"lat":"37.362918665","long":"126.8767138","imageIndex":7,"items":[{"name":"에이탑마트","tel":"031-484-3525","addr":"경기도 안산시 상록구 수암동 500번지","indutype":"유통업 영리 - 슈퍼마켓","category":"mart"}]},{"lat":"37.3629186647","long":"126.8767137978","imageIndex":7,"items":[{"name":"에이탑마트","tel":"031-484-3525","addr":"경기도 안산시 상록구 수암동 500번지","indutype":"도매 및 소매업 - 슈퍼마켓","category":"mart"}]},{"lat":"37.363525789","long":"126.87998638","imageIndex":7,"items":[{"name":"우리마트","tel":"032-757-3003","addr":"경기도 안산시 상록구 수암동 474-1번지 1층","indutype":"유통업 영리 - 슈퍼마켓","category":"mart"}]},{"lat":"37.3635257893","long":"126.8799863832","imageIndex":7,"items":[{"name":"우리마트","tel":"","addr":"경기도 안산시 상록구 수암동 474-1번지","indutype":"도매 및 소매업 - 슈퍼마켓","category":"mart"}]},{"lat":"37.363476749","long":"126.87620489","imageIndex":7,"items":[{"name":"천하명당안산","tel":"031-484-4950","addr":"경기도 안산시 상록구 수암동 502-8번지","indutype":"유통업 영리 - 슈퍼마켓","category":"mart"}]},{"lat":"37.3634990753","long":"126.8802912103","imageIndex":5,"items":[{"name":"강남닭요리","tel":"031-483-7366","addr":"경기도 안산시 상록구 수암동 479-7번지","indutype":"숙박 및 음식점업 - 일반음식점","category":"hotel"},{"name":"옛날칼국수","tel":"","addr":"경기도 안산시 상록구 수암동 479-7번지","indutype":"숙박 및 음식점업 - 일반음식점","category":"hotel"}]},{"lat":"37.3631712368","long":"126.8769842925","imageIndex":5,"items":[{"name":"개성진찹쌀순대","tel":"031-481-9106","addr":"경기도 안산시 상록구 수암동 501-3번지","indutype":"숙박 및 음식점업 - 한식","category":"hotel"},{"name":"본숯불곰장어시대","tel":"031-483-9889","addr":"경기도 안산시 상록구 수암동 501-3번지","indutype":"숙박 및 음식점업 - 한식점업","category":"hotel"}]},{"lat":"37.3631163445","long":"126.8762054970","imageIndex":5,"items":[{"name":"개조아","tel":"031-411-0255","addr":"경기도 안산시 상록구 수암동 503번지","indutype":"숙박 및 음식점업 - 카페","category":"hotel"},{"name":"모모닭강정","tel":"031-482-8359","addr":"경기도 안산시 상록구 수암동 503번지","indutype":"숙박 및 음식점업 - 분식","category":"hotel"},{"name":"파리바게뜨 안산수암하늘점","tel":"031-414-4482","addr":"경기도 안산시 상록구 수암동 503번지","indutype":"숙박 및 음식점업 - 제과점","category":"hotel"},{"name":"파리바게뜨 안산수암하늘점","tel":"031-414-4482","addr":"경기도 안산시 상록구 수암동 503번지","indutype":"숙박 및 음식점업 - 제과","category":"hotel"}]},{"lat":"37.3633895066","long":"126.8789029323","imageIndex":5,"items":[{"name":"고기향기","tel":"031-481-8946","addr":"경기도 안산시 상록구 수암동 473-21번지","indutype":"숙박 및 음식점업 - 한식","category":"hotel"}]},{"lat":"37.3632791297","long":"126.8767696356","imageIndex":5,"items":[{"name":"김밥나라","tel":"031-480-2301","addr":"경기도 안산시 상록구 수암동 501-4번지 선경탑스빌2차","indutype":"숙박 및 음식점업 - 분식","category":"hotel"},{"name":"참마누숯불바베큐","tel":"","addr":"경기도 안산시 상록구 수암동 501-4번지 선경탑스빌2차","indutype":"숙박 및 음식점업 - 기타","category":"hotel"}]},{"lat":"37.3633056778","long":"126.8763180612","imageIndex":5,"items":[{"name":"김밥천국","tel":"031-484-7843","addr":"경기도 안산시 상록구 수암동 502-7번지","indutype":"숙박 및 음식점업 - 분식","category":"hotel"}]},{"lat":"37.3619214117","long":"126.8794358855","imageIndex":5,"items":[{"name":"꼬레랑치킨","tel":"031-484-0794","addr":"경기도 안산시 상록구 수암동 492-7번지","indutype":"숙박 및 음식점업 - 치킨","category":"hotel"}]},{"lat":"37.3633605093","long":"126.8770404176","imageIndex":5,"items":[{"name":"남도회무침","tel":"031-403-4464","addr":"경기도 안산시 상록구 수암동 501-7번지 엘리지움아파트","indutype":"숙박 및 음식점업 - 회무침","category":"hotel"}]},{"lat":"37.3616717804","long":"126.8734875162","imageIndex":5,"items":[{"name":"넘버원삼겹살","tel":"031-482-3132","addr":"경기도 안산시 상록구 수암동 506-16번지","indutype":"숙박 및 음식점업 - 한식","category":"hotel"}]},{"lat":"37.3642790723","long":"126.8765986362","imageIndex":5,"items":[{"name":"덤바우록계탕","tel":"031-480-4142","addr":"경기도 안산시 상록구 수암동 467-1번지","indutype":"숙박 및 음식점업 - 한식점업","category":"hotel"}]},{"lat":"37.3637471737","long":"126.8763173197","imageIndex":5,"items":[{"name":"또바기하우스","tel":"031-411-0087","addr":"경기도 안산시 상록구 수암동 502-11번지","indutype":"숙박 및 음식점업 - 분식","category":"hotel"},{"name":"생방송","tel":"031-485-7714","addr":"경기도 안산시 상록구 수암동 502-11번지","indutype":"숙박 및 음식점업 - 일반음식","category":"hotel"}]},{"lat":"37.3641389107","long":"126.8804030531","imageIndex":5,"items":[{"name":"뜰안채검은콩칼국수","tel":"031-493-1112","addr":"경기도 안산시 상록구 수암동 479-14번지","indutype":"숙박 및 음식점업 - 한식","category":"hotel"}]},{"lat":"37.3615607119","long":"126.8791542766","imageIndex":5,"items":[{"name":"로얄반점","tel":"031-485-0233","addr":"경기도 안산시 상록구 수암동 494-6번지 수암네오빌","indutype":"숙박 및 음식점업 - 중식","category":"hotel"}]},{"lat":"37.3646937786","long":"126.8768237104","imageIndex":5,"items":[{"name":"막퍼주는집","tel":"031-486-2254","addr":"경기도 안산시 상록구 수암동 465-3번지","indutype":"숙박 및 음식점업 - 일반음식점","category":"hotel"}]},{"lat":"37.3637229166","long":"126.8789362487","imageIndex":5,"items":[{"name":"박가네쌈밥","tel":"031-483-4050","addr":"경기도 안산시 상록구 수암동 475-9번지","indutype":"숙박 및 음식점업 - 한식","category":"hotel"}]},{"lat":"37.3621161364","long":"126.8761281617","imageIndex":5,"items":[{"name":"번영한식","tel":"031-482-8148","addr":"경기도 안산시 상록구 수암동 503-5번지","indutype":"숙박 및 음식점업 - 한식점업","category":"hotel"}]},{"lat":"37.3628639401","long":"126.8760930394","imageIndex":5,"items":[{"name":"부자식당","tel":"031-411-6286","addr":"경기도 안산시 상록구 수암동 503-13번지","indutype":"숙박 및 음식점업 - 한식","category":"hotel"},{"name":"회포차","tel":"031-411-6432","addr":"경기도 안산시 상록구 수암동 503-13번지","indutype":"숙박 및 음식점업 - 기타음식","category":"hotel"}]},{"lat":"37.3640542285","long":"126.8769828173","imageIndex":5,"items":[{"name":"붐비어","tel":"031-411-3377","addr":"경기도 안산시 상록구 수암동 467-8번지","indutype":"숙박 및 음식점업 - 일반음식","category":"hotel"}]},{"lat":"37.3640596991","long":"126.8822318966","imageIndex":5,"items":[{"name":"산오름묵밥","tel":"031-486-7027","addr":"경기도 안산시 상록구 수암동 482-7번지 삼원주택","indutype":"숙박 및 음식점업 - 음식","category":"hotel"}]},{"lat":"37.3621159548","long":"126.8759588410","imageIndex":5,"items":[{"name":"삼국집","tel":"031-411-8935","addr":"경기도 안산시 상록구 수암동 503-6번지","indutype":"숙박 및 음식점업 - 한식","category":"hotel"}]},{"lat":"37.3621158094","long":"126.8758233844","imageIndex":5,"items":[{"name":"삼국집구이","tel":"031-403-8935","addr":"경기도 안산시 상록구 수암동 503-7번지","indutype":"숙박 및 음식점업 - 한식","category":"hotel"}]},{"lat":"37.3617259893","long":"126.8736228792","imageIndex":5,"items":[{"name":"상하이","tel":"031-482-0770","addr":"경기도 안산시 상록구 수암동 506-15번지","indutype":"숙박 및 음식점업 - 중식","category":"hotel"}]},{"lat":"37.3640544086","long":"126.8771521424","imageIndex":5,"items":[{"name":"속초장터본닭강정","tel":"031-487-9222","addr":"경기도 안산시 상록구 수암동 467-7번지","indutype":"숙박 및 음식점업 - 기타음식","category":"hotel"}]},{"lat":"37.3641951614","long":"126.8825364661","imageIndex":5,"items":[{"name":"수암봉토담집","tel":"031-483-8882","addr":"경기도 안산시 상록구 수암동 276번지","indutype":"숙박 및 음식점업 - 한식","category":"hotel"}]},{"lat":"37.3638073927","long":"126.8822097239","imageIndex":5,"items":[{"name":"수암산쉼터","tel":"031-411-8828","addr":"경기도 안산시 상록구 수암동 483-3번지","indutype":"숙박 및 음식점업 - 일반음식점","category":"hotel"},{"name":"참참참","tel":"031-486-8236","addr":"경기도 안산시 상록구 수암동 483-3번지","indutype":"숙박 및 음식점업 - 한식 음식점","category":"hotel"}]},{"lat":"37.3622807638","long":"126.8784306563","imageIndex":5,"items":[{"name":"수암정","tel":"","addr":"경기도 안산시 상록구 수암동 493-5번지","indutype":"숙박 및 음식점업 - 일반음식","category":"hotel"}]},{"lat":"37.3637751309","long":"126.8771864733","imageIndex":5,"items":[{"name":"술 고픈날","tel":"031-486-9212","addr":"경기도 안산시 상록구 수암동 501-1번지 수암베스트타워아파트","indutype":"숙박 및 음식점업 - 기타음식","category":"hotel"}]},{"lat":"37.3633887234","long":"126.8781579083","imageIndex":5,"items":[{"name":"시골밥상","tel":"031-407-6488","addr":"경기도 안산시 상록구 수암동 470-6번지","indutype":"숙박 및 음식점업 - 한식","category":"hotel"}]},{"lat":"37.3638611998","long":"126.8819612944","imageIndex":5,"items":[{"name":"약수터손두부","tel":"031-482-7952","addr":"경기도 안산시 상록구 수암동 483-2번지","indutype":"숙박 및 음식점업 - 한식","category":"hotel"}]},{"lat":"37.3629741030","long":"126.8780118480","imageIndex":5,"items":[{"name":"엄마의밥상","tel":"031-487-7200","addr":"경기도 안산시 상록구 수암동 471-10번지","indutype":"숙박 및 음식점업 - 한식","category":"hotel"}]},{"lat":"37.3629186647","long":"126.8767137978","imageIndex":5,"items":[{"name":"영계소문옛날통닭","tel":"031-413-9289","addr":"경기도 안산시 상록구 수암동 500번지","indutype":"숙박 및 음식점업 - 일반음식점","category":"hotel"}]},{"lat":"37.3629472751","long":"126.8782037917","imageIndex":5,"items":[{"name":"오커피필터","tel":"070-8823-5961","addr":"경기도 안산시 상록구 수암동 471-7번지","indutype":"숙박 및 음식점업 - 커피숍","category":"hotel"}]},{"lat":"37.3638917215","long":"126.8766783037","imageIndex":5,"items":[{"name":"육해공푸드백화점","tel":"","addr":"경기도 안산시 상록구 수암동 502-2번지","indutype":"숙박 및 음식점업 - 한식","category":"hotel"}]},{"lat":"37.3624212289","long":"126.8749649726","imageIndex":5,"items":[{"name":"이가네늘봄감자탕","tel":"031-411-6070","addr":"경기도 안산시 상록구 수암동 504-3번지","indutype":"숙박 및 음식점업 - 일반음식점","category":"hotel"},{"name":"진미각","tel":"0507-973-1267","addr":"경기도 안산시 상록구 수암동 504-3번지","indutype":"숙박 및 음식점업 - 중식","category":"hotel"}]},{"lat":"37.3633094878","long":"126.8799302947","imageIndex":5,"items":[{"name":"이가돈까스","tel":"031-410-3012","addr":"경기도 안산시 상록구 수암동 473-7번지","indutype":"숙박 및 음식점업 - 일반음식점","category":"hotel"}]},{"lat":"37.3638915528","long":"126.8765202673","imageIndex":5,"items":[{"name":"이쁜이","tel":"","addr":"경기도 안산시 상록구 수암동 502-1번지","indutype":"숙박 및 음식점업 - 기타음식","category":"hotel"}]},{"lat":"37.3634767492","long":"126.8762048911","imageIndex":5,"items":[{"name":"이즈피자","tel":"031-419-3054","addr":"경기도 안산시 상록구 수암동 502-8번지","indutype":"숙박 및 음식점업 - 기타음식","category":"hotel"},{"name":"커피엔줄리엣","tel":"031-401-2342","addr":"경기도 안산시 상록구 수암동 502-8번지","indutype":"숙박 및 음식점업 - 커피","category":"hotel"}]},{"lat":"37.3632788285","long":"126.8764874299","imageIndex":5,"items":[{"name":"중앙한우곱창","tel":"031-413-4248","addr":"경기도 안산시 상록구 수암동 502-6번지","indutype":"숙박 및 음식점업 - 한식","category":"hotel"},{"name":"중앙한우곱창","tel":"031-413-4248","addr":"경기도 안산시 상록구 수암동 502-6번지","indutype":"숙박 및 음식점업 - 한식","category":"hotel"}]},{"lat":"37.3638929922","long":"126.8778748653","imageIndex":5,"items":[{"name":"카페 갤러리","tel":"031-411-3908","addr":"경기도 안산시 상록구 수암동 469-5번지","indutype":"숙박 및 음식점업 - 카페","category":"hotel"}]},{"lat":"37.3618890813","long":"126.8744579142","imageIndex":5,"items":[{"name":"카페드코코","tel":"031-411-7762","addr":"경기도 안산시 상록구 수암동 505-3번지","indutype":"숙박 및 음식점업 - 휴게음식업","category":"hotel"}]},{"lat":"37.3628933927","long":"126.8783732037","imageIndex":5,"items":[{"name":"카페서정시대","tel":"031-411-5947","addr":"경기도 안산시 상록구 수암동 471-6번지","indutype":"숙박 및 음식점업 - 카페","category":"hotel"}]},{"lat":"37.3636422270","long":"126.8793201836","imageIndex":5,"items":[{"name":"카페제멜로","tel":"031-411-3767","addr":"경기도 안산시 상록구 수암동 475-7번지","indutype":"숙박 및 음식점업 - 커피","category":"hotel"}]},{"lat":"37.3633314218","long":"126.8751214632","imageIndex":5,"items":[{"name":"토담골추어탕","tel":"031-480-3377","addr":"경기도 안산시 상록구 수암동 122번지","indutype":"숙박 및 음식점업 - 한식","category":"hotel"}]},{"lat":"37.3624763355","long":"126.8759356578","imageIndex":5,"items":[{"name":"피자스쿨","tel":"031-401-5253","addr":"경기도 안산시 상록구 수암동 503-10번지","indutype":"숙박 및 음식점업 - 피자","category":"hotel"}]},{"lat":"37.3616689750","long":"126.8792895550","imageIndex":5,"items":[{"name":"함평숙이네","tel":"031-482-0833","addr":"경기도 안산시 상록구 수암동 494-5번지 수암네오빌","indutype":"숙박 및 음식점업 - 한식","category":"hotel"}]},{"lat":"37.363499075","long":"126.88029121","imageIndex":4,"items":[{"name":"강남닭요리","tel":"031-483-7366","addr":"경기도 안산시 상록구 수암동 479-7번지","indutype":"일반휴게음식 - 일반한식","category":"restaurant"},{"name":"수암골","tel":"","addr":"경기도 안산시 상록구 수암동 479-7번지","indutype":"일반휴게음식 - 일반한식","category":"restaurant"}]},{"lat":"37.363171237","long":"126.87698429","imageIndex":4,"items":[{"name":"개성진찹쌀순대","tel":"031-481-9106","addr":"경기도 안산시 상록구 수암동 501-3번지 1층 101호","indutype":"일반휴게음식 - 일반한식","category":"restaurant"},{"name":"본숯불꼼장어시대","tel":"031-483-9889","addr":"경기도 안산시 상록구 수암동 501-3번지 A1층","indutype":"일반휴게음식 - 일반한식","category":"restaurant"}]},{"lat":"37.363389507","long":"126.87890293","imageIndex":4,"items":[{"name":"고기향기","tel":"070-7539-9547","addr":"경기도 안산시 상록구 수암동 473-21번지","indutype":"일반휴게음식 - 일반한식","category":"restaurant"}]},{"lat":"37.361915756","long":"126.87413052","imageIndex":4,"items":[{"name":"고향집삼계탕","tel":"031-410-6751","addr":"경기도 안산시 상록구 수암동 506-11번지 1층","indutype":"일반휴게음식 - 일반한식","category":"restaurant"}]},{"lat":"37.363116345","long":"126.8762055","imageIndex":4,"items":[{"name":"곰탱이","tel":"031-487-0442","addr":"경기도 안산시 상록구 수암동 503번지","indutype":"일반휴게음식 - 일반한식","category":"restaurant"},{"name":"모모닭강정","tel":"031-482-8359","addr":"경기도 안산시 상록구 수암동 503번지 1층","indutype":"일반휴게음식 - 스넥","category":"restaurant"},{"name":"피자스쿨안산수암점","tel":"031-401-5254","addr":"경기도 안산시 상록구 수암동 503번지 1층","indutype":"일반휴게음식 - 서양음식","category":"restaurant"}]},{"lat":"37.36327913","long":"126.87676964","imageIndex":4,"items":[{"name":"김밥나라","tel":"031-480-2301","addr":"경기도 안산시 상록구 수암동 21블럭6롯트선경탑스빌2차101","indutype":"일반휴게음식 - 스넥","category":"restaurant"},{"name":"참나무숯불바베큐","tel":"031-402-3579","addr":"경기도 안산시 상록구 수암동 501-4번지 선경탑스빌2차 102호","indutype":"일반휴게음식 - 일반한식","category":"restaurant"}]},{"lat":"37.361921412","long":"126.87943589","imageIndex":4,"items":[{"name":"꼬레랑치킨","tel":"031-484-0794","addr":"경기도 안산시 상록구 수암동 492-7번지 1층","indutype":"일반휴게음식 - 스넥","category":"restaurant"}]},{"lat":"37.371031952","long":"126.88068537","imageIndex":4,"items":[{"name":"낚시터가든","tel":"031-480-6886","addr":"경기도 안산시 상록구 수암동 17번지 2층","indutype":"일반휴게음식 - 일반한식","category":"restaurant"}]},{"lat":"37.363360509","long":"126.87704042","imageIndex":4,"items":[{"name":"남도회무침","tel":"031-403-4464","addr":"경기도 안산시 상록구 수암동 501-7번지 엘리지움아파트 101호","indutype":"일반휴게음식 - 일반한식","category":"restaurant"}]},{"lat":"37.362974103","long":"126.87801185","imageIndex":4,"items":[{"name":"대감족발","tel":"031-439-7825","addr":"경기도 안산시 상록구 수암동 471-10번지","indutype":"일반휴게음식 - 일반한식","category":"restaurant"},{"name":"엄마에밥상","tel":"031-487-7200","addr":"경기도 안산시 상록구 수암동 471-10번지","indutype":"일반휴게음식 - 일반한식","category":"restaurant"}]},{"lat":"37.364054409","long":"126.87715214","imageIndex":4,"items":[{"name":"독도굴꼬막집","tel":"031-405-2193","addr":"경기도 안산시 상록구 수암동 467-7번지","indutype":"일반휴게음식 - 일반한식","category":"restaurant"}]},{"lat":"37.363639643","long":"126.87687063","imageIndex":4,"items":[{"name":"동대문야채곱창","tel":"070-8265-6488","addr":"경기도 안산시 상록구 수암동 501-6번지 101호","indutype":"일반휴게음식 - 일반한식","category":"restaurant"}]},{"lat":"37.363747174","long":"126.87631732","imageIndex":4,"items":[{"name":"또바기하우스","tel":"031-411-0087","addr":"경기도 안산시 상록구 수암동 502-11번지 1층 102호","indutype":"일반휴게음식 - 스넥","category":"restaurant"},{"name":"생방송","tel":"031-485-7714","addr":"경기도 안산시 상록구 수암동 502-11번지 1층","indutype":"일반휴게음식 - 일반한식","category":"restaurant"}]},{"lat":"37.363640947","long":"126.87810105","imageIndex":4,"items":[{"name":"또봉이통닭(수암점)","tel":"031-411-6888","addr":"경기도 안산시 상록구 수암동 470-4번지 1층","indutype":"일반휴게음식 - 스넥","category":"restaurant"}]},{"lat":"37.364138911","long":"126.88040305","imageIndex":4,"items":[{"name":"뜨란채검정콩칼국수","tel":"031-493-1112","addr":"경기도 안산시 상록구 수암동 479-14번지 1층","indutype":"일반휴게음식 - 일반한식","category":"restaurant"}]},{"lat":"37.363672264","long":"126.88223252","imageIndex":4,"items":[{"name":"레인보우커피","tel":"","addr":"경기도 안산시 상록구 수암동 483-4번지 2층","indutype":"일반휴게음식 - 서양음식","category":"restaurant"}]},{"lat":"37.361650849","long":"126.87918799","imageIndex":4,"items":[{"name":"로얄반점","tel":"031-485-0233","addr":"경기도 안산시 상록구 수암동 494-6번지 수암네오빌 B동 1층","indutype":"일반휴게음식 - 중국식","category":"restaurant"}]},{"lat":"37.364693779","long":"126.87682371","imageIndex":4,"items":[{"name":"막퍼주는집","tel":"031-486-2254","addr":"경기도 안산시 상록구 수암동 465-3번지 1층","indutype":"일반휴게음식 - 일반한식","category":"restaurant"},{"name":"막퍼주는집","tel":"031-486-2254","addr":"경기도 안산시 상록구 수암동 465-3번지","indutype":"일반휴게음식 - 일반한식","category":"restaurant"}]},{"lat":"37.363722917","long":"126.87893625","imageIndex":4,"items":[{"name":"박가네쌈밥","tel":"031-483-4050","addr":"경기도 안산시 상록구 수암동 475-9번지 1층","indutype":"일반휴게음식 - 일반한식","category":"restaurant"}]},{"lat":"37.362116136","long":"126.87612816","imageIndex":4,"items":[{"name":"번영한식","tel":"031-481-8146","addr":"경기도 안산시 상록구 수암동 503-5번지 2층","indutype":"일반휴게음식 - 일반한식","category":"restaurant"}]},{"lat":"37.36286394","long":"126.87609304","imageIndex":4,"items":[{"name":"부자식당","tel":"031-411-6286","addr":"경기도 안산시 상록구 수암동 503-13번지 왕성장여관 1층 103호","indutype":"일반휴게음식 - 일반한식","category":"restaurant"},{"name":"회포차","tel":"031-411-6432","addr":"경기도 안산시 상록구 수암동 503-13번지 왕성장여관 104호","indutype":"일반휴게음식 - 일반한식","category":"restaurant"}]},{"lat":"37.363723988","long":"126.87996348","imageIndex":4,"items":[{"name":"부치미","tel":"031-482-4613","addr":"경기도 안산시 상록구 수암동 474번지 1층","indutype":"일반휴게음식 - 일반한식","category":"restaurant"}]},{"lat":"37.364054229","long":"126.87698282","imageIndex":4,"items":[{"name":"붐비어","tel":"031-411-3377","addr":"경기도 안산시 상록구 수암동 467-8번지 1층","indutype":"일반휴게음식 - 주점","category":"restaurant"}]},{"lat":"37.363612324","long":"126.87659975","imageIndex":4,"items":[{"name":"블랙포트","tel":"031-480-3060","addr":"경기도 안산시 상록구 수암동 502-4번지","indutype":"일반휴게음식 - 일반한식","category":"restaurant"}]},{"lat":"37.364059699","long":"126.8822319","imageIndex":4,"items":[{"name":"산오름묵밥","tel":"031-000-0000","addr":"경기도 안산시 상록구 수암동 482-7번지 102,103호","indutype":"일반휴게음식 - 일반한식","category":"restaurant"}]},{"lat":"37.362115955","long":"126.87595884","imageIndex":4,"items":[{"name":"삼국집","tel":"031-411-8935","addr":"경기도 안산시 상록구 수암동 503-6번지","indutype":"일반휴게음식 - 일반한식","category":"restaurant"}]},{"lat":"37.362115809","long":"126.87582338","imageIndex":4,"items":[{"name":"삼국집구이","tel":"031-403-8935","addr":"경기도 안산시 상록구 수암동 503-7번지 1층","indutype":"일반휴게음식 - 일반한식","category":"restaurant"}]},{"lat":"37.361725989","long":"126.87362288","imageIndex":4,"items":[{"name":"상하이","tel":"031-482-0770","addr":"경기도 안산시 상록구 수암동 506-15번지 1층","indutype":"일반휴게음식 - 중국식","category":"restaurant"}]},{"lat":"37.364081882","long":"126.87756977","imageIndex":4,"items":[{"name":"송원족발","tel":"031-401-6680","addr":"경기도 안산시 상록구 수암동 468-4번지","indutype":"일반휴게음식 - 일반한식","category":"restaurant"}]},{"lat":"37.363891553","long":"126.87652027","imageIndex":4,"items":[{"name":"수암동고깃집","tel":"070-5099-0844","addr":"경기도 안산시 상록구 수암동 502-1번지","indutype":"일반휴게음식 - 일반한식","category":"restaurant"},{"name":"이쁜이","tel":"031-411-3848","addr":"경기도 안산시 상록구 수암동 502-1번지","indutype":"일반휴게음식 - 일반한식","category":"restaurant"}]},{"lat":"37.364195161","long":"126.88253647","imageIndex":4,"items":[{"name":"수암봉토담집","tel":"031-483-1929","addr":"경기도 안산시 상록구 수암동 276번지 1층","indutype":"일반휴게음식 - 일반한식","category":"restaurant"}]},{"lat":"37.363807393","long":"126.88220972","imageIndex":4,"items":[{"name":"수암봉황가네","tel":"031-405-4404","addr":"경기도 안산시 상록구 수암동 483-3번지 1층","indutype":"일반휴게음식 - 일반한식","category":"restaurant"},{"name":"수암산쉼터","tel":"031-411-8828","addr":"경기도 안산시 상록구 수암동 483-3번지 101,102호","indutype":"일반휴게음식 - 일반한식","category":"restaurant"},{"name":"참참참","tel":"031-486-8236","addr":"경기도 안산시 상록구 수암동 483-3번지 1층","indutype":"일반휴게음식 - 일반한식","category":"restaurant"}]},{"lat":"37.364637869","long":"126.88373233","imageIndex":4,"items":[{"name":"수암봉휴게소","tel":"031-313-5177","addr":"경기도 안산시 상록구 수암동 284-2번지 1층","indutype":"일반휴게음식 - 일반한식","category":"restaurant"}]},{"lat":"37.362280764","long":"126.87843066","imageIndex":4,"items":[{"name":"수암정","tel":"031-411-0998","addr":"경기도 안산시 상록구 수암동 493-5번지 1층","indutype":"일반휴게음식 - 일반한식","category":"restaurant"}]},{"lat":"37.363388723","long":"126.87815791","imageIndex":4,"items":[{"name":"시골밥상","tel":"","addr":"경기도 안산시 상록구 수암동 470-6번지 1층 전체","indutype":"일반휴게음식 - 일반한식","category":"restaurant"}]},{"lat":"37.363305678","long":"126.87631806","imageIndex":4,"items":[{"name":"신수암식당","tel":"031-411-3959","addr":"경기도 안산시 상록구 수암동 502-7번지 1층","indutype":"일반휴게음식 - 일반한식","category":"restaurant"}]},{"lat":"37.363642227","long":"126.87932018","imageIndex":4,"items":[{"name":"신통치킨(수암점)","tel":"031-401-2202","addr":"경기도 안산시 상록구 수암동 475-7번지 102호","indutype":"일반휴게음식 - 일반한식","category":"restaurant"},{"name":"카페제멜로","tel":"031-411-3767","addr":"경기도 안산시 상록구 수암동 475-7번지 1층","indutype":"일반휴게음식 - 서양음식","category":"restaurant"}]},{"lat":"37.363306952","long":"126.87751461","imageIndex":4,"items":[{"name":"아그집쭈꾸미","tel":"031-401-5220","addr":"경기도 안산시 상록구 수암동 471번지 다미레스빌 1층 101호","indutype":"일반휴게음식 - 일반한식","category":"restaurant"}]},{"lat":"37.364004899","long":"126.88150953","imageIndex":4,"items":[{"name":"엘파","tel":"031-411-6848","addr":"경기도 안산시 상록구 수암동 483번지 1층","indutype":"일반휴게음식 - 서양음식","category":"restaurant"}]},{"lat":"37.362918665","long":"126.8767138","imageIndex":4,"items":[{"name":"영계소문옛날통닭","tel":"031-000-0000","addr":"경기도 안산시 상록구 수암동 500번지 1층","indutype":"일반휴게음식 - 일반한식","category":"restaurant"}]},{"lat":"37.362947275","long":"126.87820379","imageIndex":4,"items":[{"name":"오커피필터","tel":"","addr":"경기도 안산시 상록구 수암동 471-7번지 1층","indutype":"일반휴게음식 - 서양음식","category":"restaurant"}]},{"lat":"37.363891722","long":"126.8766783","imageIndex":4,"items":[{"name":"육해공푸드백화점","tel":"031-000-0000","addr":"경기도 안산시 상록구 수암동 502-2번지 영인 201호","indutype":"일반휴게음식 - 일반한식","category":"restaurant"}]},{"lat":"37.36436339","long":"126.87965765","imageIndex":4,"items":[{"name":"읍성곰탕","tel":"031-411-3932","addr":"경기도 안산시 상록구 수암동 478번지 1층","indutype":"일반휴게음식 - 일반한식","category":"restaurant"}]},{"lat":"37.362421229","long":"126.87496497","imageIndex":4,"items":[{"name":"이가네늘봄감자탕전문점","tel":"031-411-6070","addr":"경기도 안산시 상록구 수암동 504-3번지 엠제이프라자 1층 116호","indutype":"일반휴게음식 - 일반한식","category":"restaurant"},{"name":"진미각","tel":"031-485-5500","addr":"경기도 안산시 상록구 수암동 504-3번지 엠제이프라자 114,115호","indutype":"일반휴게음식 - 중국식","category":"restaurant"}]},{"lat":"37.363476749","long":"126.87620489","imageIndex":4,"items":[{"name":"이즈피자(수암점)","tel":"031-419-3054","addr":"경기도 안산시 상록구 수암동 502-8번지 104호,우성 상가 (1층)","indutype":"일반휴게음식 - 스넥","category":"restaurant"},{"name":"커피엔줄리엣","tel":"031-495-0223","addr":"경기도 안산시 상록구 수암동 502-8번지 우성상가 103호","indutype":"일반휴게음식 - 서양음식","category":"restaurant"}]},{"lat":"37.363278829","long":"126.87648743","imageIndex":4,"items":[{"name":"일번지호프","tel":"031-483-7537","addr":"경기도 안산시 상록구 수암동 502-6번지 2층","indutype":"일반휴게음식 - 주점","category":"restaurant"},{"name":"중앙한우곱창","tel":"031-413-4248","addr":"경기도 안산시 상록구 수암동 502-6번지","indutype":"일반휴게음식 - 일반한식","category":"restaurant"}]},{"lat":"37.360138988","long":"126.88096265","imageIndex":4,"items":[{"name":"촌뜨기(푸마시아그로힐링)","tel":"031-405-6633","addr":"경기도 안산시 상록구 수암동 362번지 1층","indutype":"일반휴게음식 - 일반한식","category":"restaurant"}]},{"lat":"37.363892992","long":"126.87787487","imageIndex":4,"items":[{"name":"카페갤러리","tel":"031-410-3908","addr":"경기도 안산시 상록구 수암동 469-5번지 1층 101호","indutype":"일반휴게음식 - 서양음식","category":"restaurant"}]},{"lat":"37.361889081","long":"126.87445791","imageIndex":4,"items":[{"name":"카페드코코","tel":"031-411-0943","addr":"경기도 안산시 상록구 수암동 505-3번지 101호","indutype":"일반휴게음식 - 일반한식","category":"restaurant"}]},{"lat":"37.362893393","long":"126.8783732","imageIndex":4,"items":[{"name":"카페서정시대","tel":"031-411-5947","addr":"경기도 안산시 상록구 수암동 471-6번지 1층","indutype":"일반휴게음식 - 서양음식","category":"restaurant"}]},{"lat":"37.363914462","long":"126.88118231","imageIndex":4,"items":[{"name":"크래머리(kraemer Lee)","tel":"031-384-6096","addr":"경기도 안산시 상록구 수암동 480-3번지 1층","indutype":"일반휴게음식 - 주점","category":"restaurant"}]},{"lat":"37.363084117","long":"126.87981778","imageIndex":4,"items":[{"name":"클라인 하우제(SW)","tel":"031-111-1111","addr":"경기도 안산시 상록구 수암동 473-8번지 1층","indutype":"일반휴게음식 - 서양음식","category":"restaurant"}]},{"lat":"37.363331422","long":"126.87512146","imageIndex":4,"items":[{"name":"토담골추어탕","tel":"031-480-3377","addr":"경기도 안산시 상록구 수암동 122번지 1층","indutype":"일반휴게음식 - 일반한식","category":"restaurant"}]},{"lat":"37.363450382","long":"126.87682579","imageIndex":4,"items":[{"name":"토속순대국해장국","tel":"031-413-5144","addr":"경기도 안산시 상록구 수암동 501-5번지","indutype":"일반휴게음식 - 일반한식","category":"restaurant"}]},{"lat":"37.361668975","long":"126.87928956","imageIndex":4,"items":[{"name":"함평숙이네식당","tel":"031-481-0833","addr":"경기도 안산시 상록구 수암동 494-5번지 수암네오빌 102호","indutype":"일반휴게음식 - 일반한식","category":"restaurant"}]},{"lat":"37.362891248","long":"126.87635262","imageIndex":4,"items":[{"name":"훌랄라치킨","tel":"031-401-2420","addr":"경기도 안산시 상록구 수암동 503-1 이림지오팰리스 104-1호","indutype":"일반휴게음식 - 주점","category":"restaurant"}]},{"lat":"37.365559314","long":"126.87735283","imageIndex":0,"items":[{"name":"광명자동차정비","tel":"031-438-2222","addr":"경기도 안산시 상록구 수암동 457번지 1층","indutype":"자동차정비 유지 - 자동차정비","category":"car"},{"name":"수NEG","tel":"031-438-2222","addr":"경기도 안산시 상록구 수암동 457번지 1층","indutype":"자동차정비 유지 - 자동차시트·타이어","category":"car"}]},{"lat":"37.362223931","long":"126.8758232","imageIndex":0,"items":[{"name":"안산농협 수암지점","tel":"031-487-8611","addr":"경기도 안산시 상록구 수암동 503-8번지","indutype":"자동차정비 유지 - 주차장","category":"car"}]},{"lat":"37.369079802","long":"126.87504398","imageIndex":0,"items":[{"name":"에이오리진 (A-Origin)","tel":"","addr":"경기도 안산시 상록구 수암동 62-1번지 나동","indutype":"자동차정비 유지 - 카인테리어","category":"car"}]},{"lat":"37.36175318","long":"126.87376958","imageIndex":0,"items":[{"name":"오토조이","tel":"031-410-5634","addr":"경기도 안산시 상록구 수암동 506-14번지 외1필지","indutype":"자동차정비 유지 - 자동차정비","category":"car"}]},{"lat":"37.36230988","long":"126.8804286","imageIndex":0,"items":[{"name":"지프로드","tel":"031-407-2744","addr":"경기도 안산시 상록구 수암동 488번지","indutype":"자동차정비 유지 - 자동차정비","category":"car"}]},{"lat":"37.36155381","long":"126.88118613","imageIndex":0,"items":[{"name":"카앤피플 안산상록구2호점","tel":"","addr":"경기도 안산시 상록구 수암동 489-9번지 강남팰리스 A동 401호","indutype":"자동차정비 유지 - 세차장","category":"car"}]},{"lat":"37.363084117","long":"126.87981778","imageIndex":13,"items":[{"name":"다온헤어","tel":"031-475-8766","addr":"경기도 안산시 상록구 수암동 473-8번지 클라인하우제 102호","indutype":"보건위생 - 미용원","category":"beauty"}]},{"lat":"37.361921412","long":"126.87943589","imageIndex":13,"items":[{"name":"동경헤어","tel":"031-482-7030","addr":"경기도 안산시 상록구 수암동 492-7번지 1층","indutype":"보건위생 - 미용원","category":"beauty"}]},{"lat":"37.36327913","long":"126.87676964","imageIndex":13,"items":[{"name":"수암안경마트","tel":"031-483-1776","addr":"경기도 안산시 상록구 수암동 21블럭6롯트선경탑스빌102","indutype":"보건위생 - 안경","category":"beauty"}]},{"lat":"37.362421229","long":"126.87496497","imageIndex":13,"items":[{"name":"수암옥사우나","tel":"031-480-7288","addr":"경기도 안산시 상록구 수암동 504-3번지 엠제이프라자 4층 401,402,403호","indutype":"보건위생 - 사우나","category":"beauty"},{"name":"황실아로마","tel":"031-439-5888","addr":"경기도 안산시 상록구 수암동 504-3번지 엠제이프라자 201호","indutype":"보건위생 - 화장품","category":"beauty"}]},{"lat":"37.362558103","long":"126.87656766","imageIndex":13,"items":[{"name":"수암이용원","tel":"031-411-6168","addr":"경기도 안산시 상록구 수암동 500-7번지 정승하이맨션 101호","indutype":"보건위생 - 이용원","category":"beauty"}]},{"lat":"37.362947275","long":"126.87820379","imageIndex":13,"items":[{"name":"썬-코스메틱","tel":"031-482-7056","addr":"경기도 안산시 상록구 수암동 471-7번지","indutype":"보건위생 - 화장품","category":"beauty"}]},{"lat":"37.363476749","long":"126.87620489","imageIndex":13,"items":[{"name":"아이쿠안경","tel":"031-411-3730","addr":"경기도 안산시 상록구 수암동 502-8번지","indutype":"보건위생 - 안경","category":"beauty"}]},{"lat":"37.363749852","long":"126.8788459","imageIndex":13,"items":[{"name":"에이원네일랩(A1 NAIL LAB)","tel":"","addr":"경기도 안산시 상록구 수암동 475-10번지","indutype":"보건위생 - 피부미용실","category":"beauty"}]},{"lat":"37.363919784","long":"126.87764905","imageIndex":13,"items":[{"name":"오늘네일샵","tel":"031-411-9876","addr":"경기도 안산시 상록구 수암동 468-3번지","indutype":"보건위생 - 피부미용실","category":"beauty"},{"name":"줌헤어","tel":"031-410-0337","addr":"경기도 안산시 상록구 수암동 468-3번지 양말나라부분","indutype":"보건위생 - 미용원","category":"beauty"}]},{"lat":"37.362830619","long":"126.87865551","imageIndex":13,"items":[{"name":"우명화헤어라인","tel":"031-405-6652","addr":"경기도 안산시 상록구 수암동 472-15번지","indutype":"보건위생 - 미용원","category":"beauty"},{"name":"하임네일","tel":"070-8811-1123","addr":"경기도 안산시 상록구 수암동 472-15번지 1층","indutype":"보건위생 - 피부미용실","category":"beauty"}]},{"lat":"37.364279782","long":"126.87726465","imageIndex":13,"items":[{"name":"유미경더헤어샵","tel":"031-482-9276","addr":"경기도 안산시 상록구 수암동 467-4번지 1층 101호","indutype":"보건위생 - 미용원","category":"beauty"}]},{"lat":"37.362693291","long":"126.87660129","imageIndex":13,"items":[{"name":"윤헤어멘토","tel":"070-4219-5478","addr":"경기도 안산시 상록구 수암동 500-6번지 정승하이맨션 1층 101호","indutype":"보건위생 - 미용원","category":"beauty"}]},{"lat":"37.363000871","long":"126.87776346","imageIndex":13,"items":[{"name":"주식회사 미도코리아","tel":"031-413-0481","addr":"경기도 안산시 상록구 수암동 471-12번지 상가 1층","indutype":"보건위생 - 화장품","category":"beauty"}]},{"lat":"37.363028544","long":"126.87837298","imageIndex":13,"items":[{"name":"태후사랑(수암점)","tel":"","addr":"경기도 안산시 상록구 수암동 471-5번지 1층","indutype":"보건위생 - 이용원","category":"beauty"}]},{"lat":"37.362974103","long":"126.87801185","imageIndex":13,"items":[{"name":"헤어지지마","tel":"031-411-2788","addr":"경기도 안산시 상록구 수암동 471-10번지","indutype":"보건위생 - 미용원","category":"beauty"}]},{"lat":"37.363477027","long":"126.87646452","imageIndex":16,"items":[{"name":"더 (THE) 올림과외교실","tel":"","addr":"경기도 안산시 상록구 수암동 502-5번지 동영센트럴타워 3층 302호","indutype":"학원 - 기타 교육기관","category":"study"}]},{"lat":"37.364027965","long":"126.87770532","imageIndex":16,"items":[{"name":"라라음악교습소","tel":"031-405-8961","addr":"경기도 안산시 상록구 수암동 468-1번지","indutype":"학원 - 예·체능계학원","category":"study"}]},{"lat":"37.362280764","long":"126.87843066","imageIndex":16,"items":[{"name":"베스트해법영어학원","tel":"031-414-0566","addr":"경기도 안산시 상록구 수암동 493-5번지 2층","indutype":"학원 - 보습학원","category":"study"}]},{"lat":"37.3640818822","long":"126.8775697661","imageIndex":16,"items":[{"name":"색깔찾기 미술학원","tel":"031-484-6345","addr":"경기도 안산시 상록구 수암동 468-4번지","indutype":"교육서비스업 - 미술학원","category":"study"}]},{"lat":"37.364081882","long":"126.87756977","imageIndex":16,"items":[{"name":"색깔찾기미술학원","tel":"031-484-6345","addr":"경기도 안산시 상록구 수암동 468-4번지","indutype":"학원 - 예·체능계학원","category":"study"}]},{"lat":"37.3643633899","long":"126.8796576534","imageIndex":16,"items":[{"name":"성균관","tel":"031-411-6135","addr":"경기도 안산시 상록구 수암동 478번지","indutype":"교육서비스업 - 보습학원","category":"study"}]},{"lat":"37.362083653","long":"126.87949206","imageIndex":16,"items":[{"name":"세종영재학원","tel":"031-482-0777","addr":"경기도 안산시 상록구 수암동 492-6번지 1층","indutype":"회원제형태 - 학원","category":"study"}]},{"lat":"37.363419137","long":"126.88140888","imageIndex":16,"items":[{"name":"숲소리어린이집[아이행복]","tel":"031-482-7478","addr":"경기도 안산시 상록구 수암동 484-11번지","indutype":"학원 - 유아원","category":"study"}]},{"lat":"37.362055047","long":"126.87799079","imageIndex":16,"items":[{"name":"시립수암어린이집[아이행복]","tel":"031-482-9663","addr":"경기도 안산시 상록구 수암동 497-1번지","indutype":"학원 - 유아원","category":"study"}]},{"lat":"37.364586974","long":"126.87806562","imageIndex":16,"items":[{"name":"안산초등학교","tel":"031-487-6061","addr":"경기도 안산시 상록구 수암동 177번지 안산초등학교","indutype":"학원 - 초중고교육기관","category":"study"}]},{"lat":"37.361319372","long":"126.88101718","imageIndex":16,"items":[{"name":"엘리지움어린이집[아이행복]","tel":"031-483-7909","addr":"경기도 안산시 상록구 수암동 490번지 엘리지움 103동 104호","indutype":"학원 - 유아원","category":"study"}]},{"lat":"37.364000492","long":"126.87728769","imageIndex":16,"items":[{"name":"한별피아노학원","tel":"031-484-9253","addr":"경기도 안산시 상록구 수암동 467-6번지 2층","indutype":"학원 - 예·체능계학원","category":"study"}]},{"lat":"37.363891553","long":"126.87652027","imageIndex":16,"items":[{"name":"한솔플러스수학영어학원","tel":"031-413-8075","addr":"경기도 안산시 상록구 수암동 502-1번지 백선빌딩 2층","indutype":"회원제형태 - 학원","category":"study"}]},{"lat":"37.362972037","long":"126.87607028","imageIndex":16,"items":[{"name":"합기도 수암","tel":"031-486-7989","addr":"경기도 안산시 상록구 수암동 503-15번지 2층","indutype":"학원 - 예·체능계학원","category":"study"}]},{"lat":"37.36372511","long":"126.88104716","imageIndex":16,"items":[{"name":"해밀유치원[아이행복]","tel":"031-480-6068","addr":"경기도 안산시 상록구 수암동 480-5번지","indutype":"학원 - 유치원","category":"study"}]},{"lat":"37.364894315","long":"126.87901334","imageIndex":16,"items":[{"name":"행복가득한어린이집[아이행복]","tel":"031-483-9930","addr":"경기도 안산시 상록구 수암동 203-1번지","indutype":"학원 - 유아원","category":"study"}]},{"lat":"37.363891553","long":"126.87652027","imageIndex":8,"items":[{"name":"미듬가는한의원","tel":"031-439-5775","addr":"경기도 안산시 상록구 수암동 502-1번지 백선빌딩 3층","indutype":"의원 - 한의원","category":"medical"}]},{"lat":"37.362060726","long":"126.87487528","imageIndex":8,"items":[{"name":"서울동물병원","tel":"031-482-1474","addr":"경기도 안산시 상록구 수암동 505번지 1층","indutype":"기타의료기관 - 동물병원","category":"medical"}]},{"lat":"37.36327913","long":"126.87676964","imageIndex":8,"items":[{"name":"수암성가의원","tel":"031-485-2545","addr":"경기도 안산시 상록구 수암동 21블럭6롯트선경탑스빌2차201","indutype":"의원 - 의원","category":"medical"}]},{"lat":"37.363116345","long":"126.8762055","imageIndex":8,"items":[{"name":"수암치과","tel":"031-480-2877","addr":"경기도 안산시 상록구 수암동 503번지 2층","indutype":"의원 - 치과의원","category":"medical"}]},{"lat":"37.3633056778","long":"126.8763180612","imageIndex":8,"items":[{"name":"수암한의원","tel":"031-484-7511","addr":"경기도 안산시 상록구 수암동 502-7번지","indutype":"보건업 및 사회복지서비스업 - 한의원","category":"medical"}]},{"lat":"37.363305678","long":"126.87631806","imageIndex":8,"items":[{"name":"수암한의원","tel":"031-484-7510","addr":"경기도 안산시 상록구 수암동 502-7번지 2층","indutype":"의원 - 한의원","category":"medical"}]},{"lat":"37.36271973","long":"126.87604813","imageIndex":13,"items":[{"name":"보보스(bobos)PC","tel":"","addr":"경기도 안산시 상록구 수암동 503-12번지 용진빌딩 지하층","indutype":"레저업소 - 기타레져업소","category":"leisure"},{"name":"수암당구장","tel":"02-1111-1111","addr":"경기도 안산시 상록구 수암동 503-12번지 용진빌딩 3층","indutype":"레저업소 - 당 구 장","category":"leisure"},{"name":"신나는 노래연습장","tel":"031-480-4635","addr":"경기도 안산시 상록구 수암동 503-12번지 용진빌딩 1층","indutype":"레저업소 - 노 래 방","category":"leisure"}]},{"lat":"37.36327913","long":"126.87676964","imageIndex":13,"items":[{"name":"사거리당구장","tel":"031-487-2800","addr":"경기도 안산시 상록구 수암동 501-4번지 선경탑스빌2차 301호","indutype":"레저업소 - 당 구 장","category":"leisure"}]},{"lat":"37.363476749","long":"126.87620489","imageIndex":13,"items":[{"name":"수노래연습장","tel":"031-486-9626","addr":"경기도 안산시 상록구 수암동 502-8번지 우성상가 지하","indutype":"레저업소 - 노 래 방","category":"leisure"}]},{"lat":"37.370553984","long":"126.88026844","imageIndex":13,"items":[{"name":"수암낚시터","tel":"031-480-6886","addr":"경기도 안산시 상록구 수암동 20-1","indutype":"레저업소 - 기타레져업소","category":"leisure"}]},{"lat":"37.363305678","long":"126.87631806","imageIndex":13,"items":[{"name":"일천수노래연습장","tel":"031-410-5990","addr":"경기도 안산시 상록구 수암동 502-7번지 지하","indutype":"레저업소 - 노 래 방","category":"leisure"}]},{"lat":"37.366948278","long":"126.87868259","imageIndex":13,"items":[{"name":"트리플밸리","tel":"031-485-0009","addr":"경기도 안산시 상록구 수암동 168-5번지","indutype":"레저업소 - 기타레져업소","category":"leisure"}]},{"lat":"37.363477027","long":"126.87646452","imageIndex":13,"items":[{"name":"특실당구장","tel":"031-405-6280","addr":"경기도 안산시 상록구 수암동 502-5번지 동영센트럴타워 2층 202호","indutype":"레저업소 - 당 구 장","category":"leisure"}]}]