[{"lat":"37.27789951","long":"126.97597865","items":[{"name":"(미정)시골집","tel":"031-295-5777","addr":"경기도 수원시 권선구 구운동 500-4번지 1층","category":"일반휴게음식 - 일반한식"},{"name":"오즈데코","tel":"031-295-2339","addr":"경기도 수원시 권선구 구운동 500-4번지 지하층","category":"직물 - 카페트,커튼,천막,지물"},{"name":"커피아카데미","tel":"031-294-7093","addr":"경기도 수원시 권선구 구운동 500-4번지 지하1층","category":"일반휴게음식 - 서양음식"}]},{"lat":"37.275376163","long":"126.97398386","items":[{"name":"(주)경호통신","tel":"031-296-5019","addr":"경기도 수원시 권선구 구운동 529-3번지","category":"사무통신 - 통신기기"}]},{"lat":"37.277538634","long":"126.97400558","items":[{"name":"(주)대명환경","tel":"031-224-9889","addr":"경기도 수원시 권선구 구운동 493-11번지","category":"용역 서비스 - 종합용역"}]},{"lat":"37.279321452","long":"126.96939314","items":[{"name":"(주)도원커머스","tel":"031-237-3928","addr":"경기도 수원시 권선구 구운동 931-10번지 중앙빌딩 101호","category":"신변잡화 - 기타잡화"},{"name":"(주)베스트리빙","tel":"031-296-0061","addr":"경기도 수원시 권선구 구운동 931-10번지","category":"건축자재 - 인테리어전문"},{"name":"(주)예스인테리어필름","tel":"031-293-4008","addr":"경기도 수원시 권선구 구운동 931-10번지 중앙빌딩 1층 102호","category":"직물 - 카페트,커튼,천막,지물"},{"name":"중고가구4989","tel":"031-293-3232","addr":"경기도 수원시 권선구 구운동 931-10번지 중앙빌딩 1층 102호","category":"가구 - 일반가구"}]},{"lat":"37.280150407","long":"126.9694266","items":[{"name":"(주)맥컴퍼니","tel":"031-253-5820","addr":"경기도 수원시 권선구 구운동 931-4번지 상진빌딩 601호","category":"건강식품 - 기타건강식품"},{"name":"삼일공커스터마이즈","tel":"031-294-3102","addr":"경기도 수원시 권선구 구운동 931-4번지 상진빌딩 1층","category":"자동차정비 유지 - 카인테리어"},{"name":"아우디노래연습장","tel":"031-296-2205","addr":"경기도 수원시 권선구 구운동 931-4번지 2층","category":"레저업소 - 노 래 방"},{"name":"주식회사 바이애틱","tel":"031-292-7989","addr":"경기도 수원시 권선구 구운동 931-4번지 상진빌딩 4층","category":"문화.취미 - 애완동물"}]},{"lat":"37.280430598","long":"126.97267392","items":[{"name":"(주)세정전기","tel":"031-296-2078","addr":"경기도 수원시 권선구 구운동 471-9번지","category":"기타 - 기계공구"}]},{"lat":"37.277737414","long":"126.97637335","items":[{"name":"(주)에니멀클리닉컨설팅","tel":"031-292-2836","addr":"경기도 수원시 권선구 구운동 503-11번지","category":"기타의료기관 - 동물병원"},{"name":"퍼스트샵(First#)","tel":"031-8001-1721","addr":"경기도 수원시 권선구 구운동 503-11번지 1층","category":"보건위생 - 미용원"}]},{"lat":"37.276485432","long":"126.97844844","items":[{"name":"(주)이스페이스","tel":"031-278-7744","addr":"경기도 수원시 권선구 구운동 507-2번지","category":"회원제형태 - 서적"},{"name":"다모광고기획","tel":"031-295-4420","addr":"경기도 수원시 권선구 구운동 507-2번지","category":"서적문구 - 출판 및 인쇄물"},{"name":"사탄곱창","tel":"031-298-9088","addr":"경기도 수원시 권선구 구운동 507-2번지 1층","category":"일반휴게음식 - 일반한식"},{"name":"언제나 봄","tel":"031-292-4560","addr":"경기도 수원시 권선구 구운동 507-2번지 1층","category":"일반휴게음식 - 서양음식"},{"name":"오낙쭈볶음","tel":"031-297-0708","addr":"경기도 수원시 권선구 구운동 507-2번지 1층","category":"일반휴게음식 - 일반한식"}]},{"lat":"37.280458057","long":"126.97439912","items":[{"name":"(주)이원나이스","tel":"031-295-8252","addr":"경기도 수원시 권선구 구운동 476-9번지","category":"의류 - 기타의류"}]},{"lat":"37.281377209","long":"126.97483854","items":[{"name":"(주)인와이저","tel":"031-278-9550","addr":"경기도 수원시 권선구 구운동 111-7번지 다산E/F","category":"사무통신 - 통신기기"},{"name":"(주)지비스","tel":"031-292-7455","addr":"경기도 수원시 권선구 구운동 111-7번지 화이텍신기술창업보육센터 204호","category":"용역 서비스 - 소프트웨어"},{"name":"(주)지비스/비씨","tel":"031-292-7455","addr":"경기도 수원시 권선구 구운동 111-7번지 경기중소기업성장지원센터 204호","category":"별도관리 - 자체물품대금"},{"name":"럭키텍","tel":"031-241-5907","addr":"경기도 수원시 권선구 구운동 111-7번지 창업보육센터 별동 103호","category":"기타 - 기계공구"},{"name":"올커니(주)","tel":"031-546-8180","addr":"경기도 수원시 권선구 구운동 111-7번지 309호","category":"신변잡화 - 기타잡화"}]},{"lat":"37.282483451","long":"126.96731692","items":[{"name":"(주)인정연 던킨도너츠","tel":"031-293-8802","addr":"경기도 수원시 권선구 구운동 218-1번지 농협하나로클럽","category":"음료식품 - 제과점"},{"name":"더카페 서수원점","tel":"031-278-4850","addr":"경기도 수원시 권선구 구운동 218-1번지 수원농수산물종합유통센터 지하1층","category":"일반휴게음식 - 서양음식"},{"name":"배스킨라빈스","tel":"031-295-7737","addr":"경기도 수원시 권선구 구운동 218-1번지","category":"음료식품 - 제과점"},{"name":"스팀파워 수원점","tel":"","addr":"경기도 수원시 권선구 구운동 218-1번지 수원농수산물센터 옥외1층","category":"자동차정비 유지 - 세차장"},{"name":"우리상사","tel":"02-968-9999","addr":"경기도 수원시 권선구 구운동 218-1번지","category":"회원제형태 - 기타1"},{"name":"파파이스수원하나로클럽점","tel":"031-292-8879","addr":"경기도 수원시 권선구 구운동 218-1번지 1층","category":"일반휴게음식 - 서양음식"}]},{"lat":"37.277151151","long":"126.9738366","items":[{"name":"(주)제이에스 크린테크","tel":"070-4922-1261","addr":"경기도 수원시 권선구 구운동 519-6번지 202호","category":"용역 서비스 - 기타용역서비스"},{"name":"리빙. 홈 해결사","tel":"","addr":"경기도 수원시 권선구 구운동 519-6번지","category":"용역 서비스 - 기타용역서비스"},{"name":"상아헤어","tel":"031-296-1544","addr":"경기도 수원시 권선구 구운동 519-6번지","category":"보건위생 - 미용원"}]},{"lat":"37.284591886","long":"126.96742869","items":[{"name":"(주)지에프(Global Food)","tel":"031-291-6633","addr":"경기도 수원시 권선구 구운동 234-4번지","category":"음료식품 - 농·축·수산품"}]},{"lat":"37.280151721","long":"126.97445561","items":[{"name":"(주)파워크리닝시스템","tel":"031-297-5400","addr":"경기도 수원시 권선구 구운동 475번지","category":"용역 서비스 - 종합용역"}]},{"lat":"37.274402086","long":"126.97026349","items":[{"name":"(주)퍼스트조경개발","tel":"031-295-1616","addr":"경기도 수원시 권선구 구운동 312-2번지 1층","category":"문화.취미 - 화원"},{"name":"기프츠커피샵","tel":"","addr":"경기도 수원시 권선구 구운동 312-2번지 1층","category":"일반휴게음식 - 서양음식"}]},{"lat":"37.278204274","long":"126.9697319","items":[{"name":"(주)화이트","tel":"031-291-8884","addr":"경기도 수원시 권선구 구운동 955-1번지 엘리트빌씨동 101호","category":"용역 서비스 - 기타용역서비스"}]},{"lat":"37.280484588","long":"126.972392","items":[{"name":"75분식","tel":"031-291-5111","addr":"경기도 수원시 권선구 구운동 470-2번지 1층 106호","category":"일반휴게음식 - 일반한식"}]},{"lat":"37.276872799","long":"126.97808751","items":[{"name":"79짬뽕","tel":"031-227-1179","addr":"경기도 수원시 권선구 구운동 507-13번지 1층 2호","category":"일반휴게음식 - 중국식"},{"name":"뽀빠이보쌈","tel":"031-309-9777","addr":"경기도 수원시 권선구 구운동 507-13번지 1층","category":"일반휴게음식 - 일반한식"},{"name":"싸다구 밧데리 할인점 수원점","tel":"031-291-8040","addr":"경기도 수원시 권선구 구운동 507-13번지 1층 6호","category":"자동차정비 유지 - 자동차부품"},{"name":"한방전주콩나물국밥","tel":"031-8001-4832","addr":"경기도 수원시 권선구 구운동 507-13번지 1층 4호","category":"일반휴게음식 - 일반한식"},{"name":"힐링하기 좋은날","tel":"031-291-1131","addr":"경기도 수원시 권선구 구운동 507-13번지 2층","category":"보건위생 - 피부미용실"}]},{"lat":"37.278682678","long":"126.97295651","items":[{"name":"8000헤어 (HAIR)","tel":"031-227-4225","addr":"경기도 수원시 권선구 구운동 489-8번지 1층","category":"보건위생 - 미용원"}]},{"lat":"37.275204746","long":"126.97309319","items":[{"name":"BBQ치킨","tel":"031-294-2944","addr":"경기도 수원시 권선구 구운동 530-2번지","category":"일반휴게음식 - 스넥"},{"name":"명인만두 서수원점","tel":"031-293-9992","addr":"경기도 수원시 권선구 구운동 530-2번지","category":"일반휴게음식 - 일반한식"},{"name":"잉큐영어","tel":"031-294-0579","addr":"경기도 수원시 권선구 구운동 530-2번지","category":"학원 - 기타 교육기관"}]},{"lat":"37.281989188","long":"126.97195163","items":[{"name":"BEST-CAR-MOTORS","tel":"031-296-9664","addr":"경기도 수원시 권선구 구운동 921-2번지","category":"자동차정비 유지 - 자동차부품"}]},{"lat":"37.279097606","long":"126.97481683","items":[{"name":"CCTV렌탈","tel":"031-232-2170","addr":"경기도 수원시 권선구 구운동 483-6번지","category":"전기제품 - 기타전기제품"}]},{"lat":"37.277124965","long":"126.97751238","items":[{"name":"Car느낌365","tel":"031-294-2889","addr":"경기도 수원시 권선구 구운동 504-7번지","category":"자동차정비 유지 - 가타자동차서비스"},{"name":"복실강아지","tel":"031-293-9092","addr":"경기도 수원시 권선구 구운동 504-7번지 1층","category":"문화.취미 - 애완동물"},{"name":"세기통신공사","tel":"031-292-4411","addr":"경기도 수원시 권선구 구운동 504-7번지 103호","category":"사무통신 - 통신기기"}]},{"lat":"37.279322128","long":"126.97187379","items":[{"name":"EDP 탑동점","tel":"031-000-0000","addr":"경기도 수원시 권선구 구운동 943-6번지 103호","category":"음료식품 - 기타음료식품"},{"name":"남도의맛","tel":"031-292-5556","addr":"경기도 수원시 권선구 구운동 943-6번지 101호","category":"일반휴게음식 - 일반한식"},{"name":"수원speed밧데리","tel":"031-294-1107","addr":"경기도 수원시 권선구 구운동 943-6번지 1층 103호","category":"자동차정비 유지 - 자동차부품"}]},{"lat":"37.276926477","long":"126.97631726","items":[{"name":"EU정보통신","tel":"031-263-4334","addr":"경기도 수원시 권선구 구운동 497-6번지 1층","category":"사무통신 - 통신기기"},{"name":"장수부건강원","tel":"031-297-8788","addr":"경기도 수원시 권선구 구운동 497-6번지 1층","category":"건강식품 - 기타건강식품"},{"name":"주방용품점","tel":"031-295-0104","addr":"경기도 수원시 권선구 구운동 497-6번지","category":"신변잡화 - 기타잡화"}]},{"lat":"37.281069816","long":"126.9707342","items":[{"name":"FILM37.2","tel":"031-291-4900","addr":"경기도 수원시 권선구 구운동 928-7번지","category":"숙박업 - 여관/기타숙박업"}]},{"lat":"37.277844748","long":"126.97305832","items":[{"name":"GS25구운중앙점","tel":"","addr":"경기도 수원시 권선구 구운동 947-8번지 1층","category":"유통업 영리 - 편 의 점"},{"name":"가인당구장","tel":"031-298-4734","addr":"경기도 수원시 권선구 구운동 947-8번지","category":"레저업소 - 당 구 장"},{"name":"하나로수산","tel":"031-243-3026","addr":"경기도 수원시 권선구 구운동 947-8번지","category":"음료식품 - 농·축·수산품"}]},{"lat":"37.276989634","long":"126.9767006","items":[{"name":"GS25권선구운점","tel":"","addr":"경기도 수원시 권선구 구운동 504-13번지","category":"유통업 영리 - 편 의 점"},{"name":"해주타일상사","tel":"031-278-2265","addr":"경기도 수원시 권선구 구운동 504-13번지","category":"건축자재 - 건축용 요업제품"}]},{"lat":"37.279015214","long":"126.96978792","items":[{"name":"GS25수원서부점","tel":"080-555-2525","addr":"경기도 수원시 권선구 구운동 952-1번지","category":"유통업 영리 - 편 의 점"}]},{"lat":"37.281818072","long":"126.97225615","items":[{"name":"GS25수원수인점","tel":"","addr":"경기도 수원시 권선구 구운동 921-4번지","category":"유통업 영리 - 편 의 점"},{"name":"정관장홍삼(구운점)","tel":"031-292-2304","addr":"경기도 수원시 권선구 구운동 921-4번지 민승빌딩 101호","category":"건강식품 - 홍삼제품"},{"name":"정관장홍삼(구운점)","tel":"031-292-2304","addr":"경기도 수원시 권선구 구운동 921-4번지 민승빌딩 101호","category":"건강식품 - 홍삼제품"}]},{"lat":"37.283683269","long":"126.97253731","items":[{"name":"GS25수원일월점","tel":"031-292-9446","addr":"경기도 수원시 권선구 구운동 901-2번지","category":"유통업 영리 - 편 의 점"},{"name":"비어스카이일월지구","tel":"031-293-2931","addr":"경기도 수원시 권선구 구운동 901-2번지 전체 2층","category":"일반휴게음식 - 칵테일바"},{"name":"일월당구장","tel":"","addr":"경기도 수원시 권선구 구운동 901-2번지 4층","category":"레저업소 - 당 구 장"},{"name":"일월스크린골프","tel":"031-278-0753","addr":"경기도 수원시 권선구 구운동 901-2번지 3층","category":"레저업소 - 스크린골프"},{"name":"일월스크린골프","tel":"031-278-0753","addr":"경기도 수원시 권선구 구운동 901-2번지 3층","category":"레저업소 - 스크린골프"}]},{"lat":"37.275149744","long":"126.96956411","items":[{"name":"GS브라인드","tel":"031-292-3835","addr":"경기도 수원시 권선구 구운동 315-2번지 2층","category":"직물 - 카페트,커튼,천막,지물"}]},{"lat":"37.27901598","long":"126.97265194","items":[{"name":"J.K모터스","tel":"031-298-0372","addr":"경기도 수원시 권선구 구운동 946-9번지","category":"자동차정비 유지 - 자동차정비"},{"name":"장터가마솥통닭숯불닭바베큐","tel":"031-294-9292","addr":"경기도 수원시 권선구 구운동 946-9번지","category":"일반휴게음식 - 주점"}]},{"lat":"37.2792955","long":"126.9734524","items":[{"name":"JK컴퍼니","tel":"","addr":"경기도 수원시 권선구 구운동 486-5번지 1층","category":"용역 서비스 - 기타용역서비스"}]},{"lat":"37.278818274","long":"126.97476056","items":[{"name":"K-마트","tel":"031-297-4989","addr":"경기도 수원시 권선구 구운동 483-3번지","category":"유통업 영리 - 슈퍼마켓"}]},{"lat":"37.277178579","long":"126.97550534","items":[{"name":"LG시스템에어컨","tel":"","addr":"경기도 수원시 권선구 구운동 498-9번지 1층 1호","category":"용역 서비스 - 기타용역서비스"}]},{"lat":"37.284205777","long":"126.9721988","items":[{"name":"MBC노래연습장","tel":"031-295-2364","addr":"경기도 수원시 권선구 구운동 898-7번지 2층","category":"레저업소 - 노 래 방"}]},{"lat":"37.2779538","long":"126.9770047","items":[{"name":"Mr.바비족발","tel":"031-268-1080","addr":"경기도 수원시 권선구 구운동 506번지 1층","category":"일반휴게음식 - 일반한식"},{"name":"대영엔지니어링(로보트보일러)","tel":"031-296-3651","addr":"경기도 수원시 권선구 구운동 506번지","category":"건축자재 - 보일러·펌프·샷시"}]},{"lat":"37.280844336","long":"126.96992243","items":[{"name":"M모텔","tel":"031-294-4282","addr":"경기도 수원시 권선구 구운동 928-12번지","category":"숙박업 - 여관/기타숙박업"}]},{"lat":"37.276710657","long":"126.97829051","items":[{"name":"OK 자동차 밧데리","tel":"031-296-9982","addr":"경기도 수원시 권선구 구운동 507-11번지","category":"자동차정비 유지 - 자동차부품"},{"name":"달콤해 달달해","tel":"031-0000-0000","addr":"경기도 수원시 권선구 구운동 507-11번지","category":"일반휴게음식 - 서양음식"},{"name":"명보석","tel":"031-291-5707","addr":"경기도 수원시 권선구 구운동 507-11번지","category":"신변잡화 - 귀금속"},{"name":"타이거","tel":"031-1111-2222","addr":"경기도 수원시 권선구 구운동 507-11번지 1층","category":"기타 - 기타 전문점"}]},{"lat":"37.284925323","long":"126.96762024","items":[{"name":"STCO서수원점","tel":"031-296-7782","addr":"경기도 수원시 권선구 구운동 221-5번지 아울렛 1층","category":"의류 - 스포츠의류"}]},{"lat":"37.283098196","long":"126.97495066","items":[{"name":"Sera헬스클럽","tel":"031-293-0406","addr":"경기도 수원시 권선구 구운동 912-1번지 2층","category":"회원제형태 - 레져업소"},{"name":"수원마루한태권도장","tel":"031-296-4343","addr":"경기도 수원시 권선구 구운동 912-1번지 3층","category":"학원 - 예·체능계학원"}]},{"lat":"37.281259017","long":"126.97067774","items":[{"name":"hotel AMARE","tel":"031-291-0068","addr":"경기도 수원시 권선구 구운동 928-5번지","category":"숙박업 - 여관/기타숙박업"}]},{"lat":"37.279043431","long":"126.97434327","items":[{"name":"yes미용실","tel":"031-278-1607","addr":"경기도 수원시 권선구 구운동 484-4번지","category":"보건위생 - 미용원"},{"name":"코리아에어시스템","tel":"070-8245-1192","addr":"경기도 수원시 권선구 구운동 484-4번지 101호","category":"용역 서비스 - 기타용역서비스"}]},{"lat":"37.275872415","long":"126.97694904","items":[{"name":"가구랜드","tel":"031-294-0337","addr":"경기도 수원시 권선구 구운동 509-8번지","category":"가구 - 일반가구"},{"name":"커피후","tel":"031-227-7282","addr":"경기도 수원시 권선구 구운동 509-8번지 103호","category":"일반휴게음식 - 서양음식"},{"name":"탑순대","tel":"031-296-7771","addr":"경기도 수원시 권선구 구운동 509-8번지","category":"일반휴게음식 - 일반한식"},{"name":"학교가자구운점","tel":"031-295-5553","addr":"경기도 수원시 권선구 구운동 509-8번지 1층 101호","category":"일반휴게음식 - 스넥"}]},{"lat":"37.283322486","long":"126.97111664","items":[{"name":"가구아울렛","tel":"031-295-9954","addr":"경기도 수원시 권선구 구운동 904-2번지","category":"가구 - 일반가구"}]},{"lat":"37.280124795","long":"126.97489538","items":[{"name":"가나도어테크","tel":"031-227-3034","addr":"경기도 수원시 권선구 구운동 477-1번지 1층","category":"건축자재 - 기타건축자재"},{"name":"에이 스포츠 골프","tel":"031-405-4404","addr":"경기도 수원시 권선구 구운동 477-1번지 2층","category":"레져용품 - 골프용품 전문점"}]},{"lat":"37.282737197","long":"126.97256024","items":[{"name":"가보자해피","tel":"","addr":"경기도 수원시 권선구 구운동 908-6번지 ,7,8층","category":"보건위생 - 피부미용실"},{"name":"긴자참치","tel":"031-291-9757","addr":"경기도 수원시 권선구 구운동 908-6번지 101호","category":"일반휴게음식 - 일반한식"},{"name":"더한디자인(The Han Design)","tel":"031-293-3338","addr":"경기도 수원시 권선구 구운동 908-6 일월스카이빌딩4층","category":"건축자재 - 인테리어전문"},{"name":"스카이당구","tel":"031-294-5009","addr":"경기도 수원시 권선구 구운동 908-6번지 3층","category":"레저업소 - 당 구 장"},{"name":"씨유수원일월점","tel":"031-295-0315","addr":"경기도 수원시 권선구 구운동 908-6번지 1층","category":"유통업 영리 - 편 의 점"},{"name":"아바","tel":"031-252-5211","addr":"경기도 수원시 권선구 구운동 908-6번지 2층","category":"일반휴게음식 - 일반한식"},{"name":"영빈메디텍","tel":"031-283-4318","addr":"경기도 수원시 권선구 구운동 908-6번지 일월스카이빌딩 601호","category":"보건위생 - 의료용품"},{"name":"피앤비 마스터","tel":"031-227-0310","addr":"경기도 수원시 권선구 구운동 908-6번지 4층","category":"주방용구 - 주방용식기"}]},{"lat":"37.283286739","long":"126.972233","items":[{"name":"가야들깨수제비","tel":"031-294-3377","addr":"경기도 수원시 권선구 구운동 901-6번지","category":"일반휴게음식 - 일반한식"}]},{"lat":"37.282233106","long":"126.97451121","items":[{"name":"가연피부관리","tel":"031-227-3377","addr":"경기도 수원시 권선구 구운동 918-5번지 3층","category":"보건위생 - 피부미용실"},{"name":"사보네뜨","tel":"","addr":"경기도 수원시 권선구 구운동 918-5번지 창민빌딩 2층","category":"신변잡화 - 기타잡화"},{"name":"아사쿠사","tel":"","addr":"경기도 수원시 권선구 구운동 918-5번지","category":"일반휴게음식 - 주점"}]},{"lat":"37.27759275","long":"126.97423107","items":[{"name":"가향풍미(양꼬치,고향맛집)","tel":"031-548-2071","addr":"경기도 수원시 권선구 구운동 493-9번지","category":"일반휴게음식 - 일반한식"}]},{"lat":"37.281431568","long":"126.97612398","items":[{"name":"강남유치원[아이행복]","tel":"031-293-7003","addr":"경기도 수원시 권선구 구운동 463","category":"학원 - 유치원"}]},{"lat":"37.276962104","long":"126.97453574","items":[{"name":"강원산야초건강원","tel":"031-294-2228","addr":"경기도 수원시 권선구 구운동 518-3번지 1층","category":"건강식품 - 기타건강식품"},{"name":"행복한밥상","tel":"031-295-5151","addr":"경기도 수원시 권선구 구운동 518-3번지","category":"일반휴게음식 - 일반한식"}]},{"lat":"37.274121424","long":"126.96570854","items":[{"name":"개똥이네수원점","tel":"031-291-2989","addr":"경기도 수원시 권선구 구운동 632-1번지 4층","category":"서적문구 - 일반서적"},{"name":"개똥이네수원점","tel":"031-291-2989","addr":"경기도 수원시 권선구 구운동 632-1번지 4층","category":"서적문구 - 일반서적"},{"name":"스카이골프아카데미","tel":"031-295-0757","addr":"경기도 수원시 권선구 구운동 632-1번지 ,2-3층","category":"레져용품 - 골프용품 전문점"},{"name":"에뜨왈르","tel":"031-292-6311","addr":"경기도 수원시 권선구 구운동 632-1번지 1층","category":"일반휴게음식 - 서양음식"}]},{"lat":"37.278403379","long":"126.97303555","items":[{"name":"개벽1급카센타","tel":"031-297-4550","addr":"경기도 수원시 권선구 구운동 489-6번지","category":"자동차정비 유지 - 카인테리어"}]},{"lat":"37.28443094","long":"126.97183786","items":[{"name":"개성집","tel":"031-294-7887","addr":"경기도 수원시 권선구 구운동 897-11번지 1층","category":"일반휴게음식 - 일반한식"}]},{"lat":"37.274681643","long":"126.97114282","items":[{"name":"개성토종순대국","tel":"031-294-3470","addr":"경기도 수원시 권선구 구운동 541-3번지","category":"일반휴게음식 - 일반한식"}]},{"lat":"37.282565968","long":"126.97242499","items":[{"name":"게이트 (GATE)","tel":"070-7543-3014","addr":"경기도 수원시 권선구 구운동 919-1번지 2층","category":"일반휴게음식 - 일반한식"},{"name":"봉평메밀막국수","tel":"031-227-5944","addr":"경기도 수원시 권선구 구운동 919-1번지 2층","category":"일반휴게음식 - 일반한식"},{"name":"유앤짐","tel":"031-8007-3300","addr":"경기도 수원시 권선구 구운동 919-1번지 3,4층","category":"레져용품 - 스포츠·레져용품"},{"name":"천년면가교동짬뽕","tel":"031-227-5977","addr":"경기도 수원시 권선구 구운동 919-1번지 2층","category":"일반휴게음식 - 중국식"}]},{"lat":"37.279322193","long":"126.97212186","items":[{"name":"경기자동차정비공업사","tel":"031-294-6021","addr":"경기도 수원시 권선구 구운동 942-10번지","category":"자동차정비 유지 - 자동차정비"}]},{"lat":"37.282737818","long":"126.97508611","items":[{"name":"고기정원","tel":"031-7118-0526","addr":"경기도 수원시 권선구 구운동 912-3번지 1층","category":"일반휴게음식 - 일반한식"},{"name":"일월예림음악학원","tel":"031-295-2220","addr":"경기도 수원시 권선구 구운동 912-3번지 2층","category":"학원 - 예·체능계학원"}]},{"lat":"37.277268022","long":"126.97278794","items":[{"name":"고을숯불갈비","tel":"031-296-0052","addr":"경기도 수원시 권선구 구운동 967-5번지","category":"일반휴게음식 - 일반한식"},{"name":"어썸PC","tel":"070-7442-1682","addr":"경기도 수원시 권선구 구운동 967-5번지 2층","category":"레저업소 - 기타레져업소"}]},{"lat":"37.283070641","long":"126.97280818","items":[{"name":"고향마을","tel":"031-294-3592","addr":"경기도 수원시 권선구 구운동 908-1번지","category":"일반휴게음식 - 일반한식"},{"name":"광고백화점","tel":"031-294-0612","addr":"경기도 수원시 권선구 구운동 908-1번지 상가 2층","category":"서적문구 - 출판 및 인쇄물"},{"name":"소백산맥","tel":"031-296-3434","addr":"경기도 수원시 권선구 구운동 908-1번지 B로트 일월지구","category":"일반휴게음식 - 주점"}]},{"lat":"37.27537567","long":"126.97203326","items":[{"name":"고향쌈도둑","tel":"031-296-5958","addr":"경기도 수원시 권선구 구운동 139-40번지 1층","category":"일반휴게음식 - 일반한식"}]},{"lat":"37.279925763","long":"126.97167058","items":[{"name":"광림조경개발","tel":"031-227-2997","addr":"경기도 수원시 권선구 구운동 943-1번지 1층 1호","category":"문화.취미 - 화원"},{"name":"아란유통","tel":"000-0000-0000","addr":"경기도 수원시 권선구 구운동 943-1번지","category":"음료식품 - 기타음료식품"},{"name":"아란유통","tel":"031-278-7244","addr":"경기도 수원시 권선구 구운동 943-1번지 102호","category":"음료식품 - 기타음료식품"}]},{"lat":"37.279925549","long":"126.97087","items":[{"name":"광명수산 서수원점","tel":"031-296-8999","addr":"경기도 수원시 권선구 구운동 935-10번지 1층","category":"일반휴게음식 - 일식·회집"},{"name":"카플러스","tel":"031-292-2815","addr":"경기도 수원시 권선구 구운동 935-10번지","category":"자동차정비 유지 - 자동차정비"}]},{"lat":"37.282620698","long":"126.97514253","items":[{"name":"광혜원한약국","tel":"031-295-7535","addr":"경기도 수원시 권선구 구운동 912-4번지","category":"약국 - 한약방"}]},{"lat":"37.277404288","long":"126.97753484","items":[{"name":"구운 유리","tel":"031-292-5218","addr":"경기도 수원시 권선구 구운동 506-6번지","category":"건축자재 - 유리"},{"name":"구운유리샷시","tel":"031-292-5218","addr":"경기도 수원시 권선구 구운동 506-6번지 구운빌","category":"건축자재 - 유리"}]},{"lat":"37.277267866","long":"126.97217907","items":[{"name":"구운꼬마숲어린이집[아이행복]","tel":"031-278-0877","addr":"경기도 수원시 권선구 구운동 967-1번지 101호","category":"학원 - 유아원"}]},{"lat":"37.277232432","long":"126.97461457","items":[{"name":"구운당구장","tel":"031-227-2820","addr":"경기도 수원시 권선구 구운동 496-4번지 2층","category":"레저업소 - 당 구 장"},{"name":"배터지는생돈까스","tel":"031-227-2033","addr":"경기도 수원시 권선구 구운동 496-4번지","category":"일반휴게음식 - 일반한식"},{"name":"쏜다","tel":"031-291-1317","addr":"경기도 수원시 권선구 구운동 496-4번지 101호","category":"일반휴게음식 - 주점"},{"name":"큐사랑","tel":"031-000-0000","addr":"경기도 수원시 권선구 구운동 496-4번지 1층 102호","category":"보건위생 - 미용원"}]},{"lat":"37.27704242","long":"126.97145754","items":[{"name":"구운동 주민자치위원회","tel":"031-228-6747","addr":"경기도 수원시 권선구 구운동 965번지","category":"문화.취미 - 문화취미기타"}]},{"lat":"37.27793415","long":"126.97039727","items":[{"name":"구운마트/주식회사 제이앤비유통","tel":"031-891-3356","addr":"경기도 수원시 권선구 구운동 954-7번지 1층","category":"유통업 영리 - 슈퍼마켓"},{"name":"논두렁마트","tel":"031-8004-8949","addr":"경기도 수원시 권선구 구운동 954-7번지","category":"유통업 영리 - 슈퍼마켓"}]},{"lat":"37.278349838","long":"126.97517793","items":[{"name":"구운배드민턴샵","tel":"031-295-4425","addr":"경기도 수원시 권선구 구운동 495-15번지","category":"레져용품 - 스포츠·레져용품"}]},{"lat":"37.278871802","long":"126.97259562","items":[{"name":"구운베베사랑어린이집[아이행복]","tel":"031-293-1945","addr":"경기도 수원시 권선구 구운동 946-10번지","category":"학원 - 유아원"},{"name":"구운사임당어린이집[아이행복]","tel":"031-293-1945","addr":"경기도 수원시 권선구 구운동 946-10번지","category":"학원 - 유아원"}]},{"lat":"37.280764283","long":"126.97389159","items":[{"name":"구운자동차나라","tel":"031-296-1100","addr":"경기도 수원시 권선구 구운동 476-5번지 대승빌딩","category":"자동차정비 유지 - 자동차부품"},{"name":"다나한의원","tel":"031-294-0706","addr":"경기도 수원시 권선구 구운동 476-5번지 대승빌딩 2층","category":"의원 - 한의원"}]},{"lat":"37.276431179","long":"126.97753516","items":[{"name":"구운중학교","tel":"031-294-3014","addr":"경기도 수원시 권선구 구운동 508번지 구운중학교","category":"학원 - 초중고교육기관"}]},{"lat":"37.28023359","long":"126.97789471","items":[{"name":"구운초등학교","tel":"031-292-3761","addr":"경기도 수원시 권선구 구운동 465번지 구운초등학교","category":"학원 - 초중고교육기관"},{"name":"구운초등학교병설유치원[아이행복]","tel":"031-292-4609","addr":"경기도 수원시 권선구 구운동 465번지 구운초등학교","category":"학원 - 유치원"}]},{"lat":"37.275132351","long":"126.97187551","items":[{"name":"구운칼라매치","tel":"031-298-7557","addr":"경기도 수원시 권선구 구운동 139-185번지 유성빌라 가동 101호","category":"자동차정비 유지 - 자동차정비"}]},{"lat":"37.27887105","long":"126.96978798","items":[{"name":"구운커피","tel":"","addr":"경기도 수원시 권선구 구운동 952-14번지 101층","category":"일반휴게음식 - 서양음식"}]},{"lat":"37.277898186","long":"126.97067917","items":[{"name":"국보건설 주식회사","tel":"031-296-3368","addr":"경기도 수원시 권선구 구운동 953-9번지 101호","category":"용역 서비스 - 기타용역서비스"}]},{"lat":"37.280347881","long":"126.96686689","items":[{"name":"군들농장","tel":"031-5358-2526","addr":"경기도 수원시 권선구 구운동 319-2번지","category":"음료식품 - 농·축·수산품"}]},{"lat":"37.283899559","long":"126.97270636","items":[{"name":"굴예찬","tel":"031-291-1446","addr":"경기도 수원시 권선구 구운동 899-4번지","category":"일반휴게음식 - 일반한식"}]},{"lat":"37.279431173","long":"126.97561728","items":[{"name":"굿까페","tel":"031-296-3625","addr":"경기도 수원시 권선구 구운동 477-8번지 2층","category":"일반휴게음식 - 서양음식"}]},{"lat":"37.284675014","long":"126.97504029","items":[{"name":"굿라이프연세의원","tel":"031-294-2100","addr":"경기도 수원시 권선구 구운동 890번지 엘비코오롱 상가 104호","category":"의원 - 의원"},{"name":"그레이프트리어학원","tel":"031-296-0339","addr":"경기도 수원시 권선구 구운동 890번지 코오롱하늘채아파트 305,306호","category":"학원 - 외국어학원"},{"name":"서울떡집","tel":"031-298-6001","addr":"경기도 수원시 권선구 구운동 890번지 엘디코오롱 상가 107호","category":"음료식품 - 제과점"},{"name":"일월약국","tel":"031-227-9966","addr":"경기도 수원시 권선구 구운동 890번지 LD코오롱 상가 106호","category":"약국 - 약국"},{"name":"초이미용실","tel":"031-295-0082","addr":"경기도 수원시 권선구 구운동 890번지 코로롱 상가 103호","category":"보건위생 - 미용원"},{"name":"컴사랑","tel":"031-293-5535","addr":"경기도 수원시 권선구 구운동 890번지 코오롱 상가 109호","category":"사무통신 - 컴퓨터"}]},{"lat":"37.276845025","long":"126.97476129","items":[{"name":"굿맘","tel":"031-278-0924","addr":"경기도 수원시 권선구 구운동 518-5번지 1층 102호","category":"일반휴게음식 - 일반한식"},{"name":"굿맘에프앤비","tel":"031-291-1490","addr":"경기도 수원시 권선구 구운동 518-5번지 102호","category":"음료식품 - 기타음료식품"},{"name":"낙원떡집","tel":"031-293-2117","addr":"경기도 수원시 권선구 구운동 518-5번지 1층","category":"음료식품 - 제과점"},{"name":"이레상사","tel":"031-221-5489","addr":"경기도 수원시 권선구 구운동 518-5번지 1층","category":"신변잡화 - 기타잡화"}]},{"lat":"37.277259302","long":"126.97394931","items":[{"name":"금성구운전자","tel":"031-293-7508","addr":"경기도 수원시 권선구 구운동 519-5번지","category":"전기제품 - 가전제품"},{"name":"민헤어#","tel":"031-293-3350","addr":"경기도 수원시 권선구 구운동 519-5번지 1층","category":"보건위생 - 미용원"}]},{"lat":"37.2760154","long":"126.972033","items":[{"name":"기린나비환경(주)","tel":"031-282-9525","addr":"경기도 수원시 권선구 구운동 535-9번지 101호","category":"용역 서비스 - 종합용역"},{"name":"누룽지에 반하다","tel":"","addr":"경기도 수원시 권선구 구운동 535-9번지 1층 102호","category":"음료식품 - 기타음료식품"},{"name":"아마돈","tel":"031-294-3114","addr":"경기도 수원시 권선구 구운동 535-9번지","category":"일반휴게음식 - 일반한식"}]},{"lat":"37.276150893","long":"126.97336342","items":[{"name":"기분좋은날","tel":"031-8004-0042","addr":"경기도 수원시 권선구 구운동 525-3번지 101호","category":"보건위생 - 이용원"},{"name":"나라마트","tel":"031-293-9508","addr":"경기도 수원시 권선구 구운동 525-3번지","category":"유통업 영리 - 슈퍼마켓"}]},{"lat":"37.276512089","long":"126.97670076","items":[{"name":"기분좋은날","tel":"031-294-3218","addr":"경기도 수원시 권선구 구운동 509-2번지 1층","category":"일반휴게음식 - 일반한식"},{"name":"마리(mari)플라워","tel":"070-8540-2406","addr":"경기도 수원시 권선구 구운동 509-2번지 1층 우측호","category":"문화.취미 - 화원"}]},{"lat":"37.276068946","long":"126.97011619","items":[{"name":"기찬FS","tel":"031-294-1882","addr":"경기도 수원시 권선구 구운동 302-1번지 광명타운계단쪽상가 나동 102호","category":"음료식품 - 기타음료식품"}]},{"lat":"37.279817929","long":"126.97278692","items":[{"name":"길","tel":"031-292-4528","addr":"경기도 수원시 권선구 구운동 488-12번지","category":"일반휴게음식 - 스넥"},{"name":"달래푸드","tel":"031-293-5544","addr":"경기도 수원시 권선구 구운동 488-12번지 1층","category":"일반휴게음식 - 일반한식"},{"name":"엘림헤어아트","tel":"031-294-1852","addr":"경기도 수원시 권선구 구운동 488-12번지","category":"보건위생 - 미용원"}]},{"lat":"37.276377316","long":"126.9784823","items":[{"name":"길자동문","tel":"031-271-2351","addr":"경기도 수원시 권선구 구운동 507-3번지 1층","category":"건축자재 - 기타건축자재"},{"name":"벧엘제화","tel":"031-294-3304","addr":"경기도 수원시 권선구 구운동 507-3번지","category":"신변잡화 - 제화"},{"name":"종가집백반","tel":"031-294-1640","addr":"경기도 수원시 권선구 구운동 507-3번지","category":"일반휴게음식 - 일반한식"}]},{"lat":"37.278178714","long":"126.97548243","items":[{"name":"김광배 스포츠","tel":"031-291-0400","addr":"경기도 수원시 권선구 구운동 500번지","category":"레져용품 - 스포츠·레져용품"}]},{"lat":"37.275457082","long":"126.97328477","items":[{"name":"김만두","tel":"031-294-1882","addr":"경기도 수원시 권선구 구운동 531-4번지 1층","category":"음료식품 - 기타음료식품"},{"name":"야리꾸리","tel":"031-224-8320","addr":"경기도 수원시 권선구 구운동 531-4번지","category":"보건위생 - 화장품"}]},{"lat":"37.283404513","long":"126.97481523","items":[{"name":"까까머리미용실","tel":"031-293-4142","addr":"경기도 수원시 권선구 구운동 911-5번지","category":"보건위생 - 미용원"},{"name":"드림스터디학원","tel":"031-294-7509","addr":"경기도 수원시 권선구 구운동 911-5번지 3층","category":"학원 - 보습학원"},{"name":"비너스커피","tel":"031-295-2173","addr":"경기도 수원시 권선구 구운동 911-5번지","category":"일반휴게음식 - 서양음식"},{"name":"일월피아노음악교습소","tel":"031-000-0000","addr":"경기도 수원시 권선구 구운동 911-5번지 상가동 204호","category":"학원 - 예·체능계학원"},{"name":"일월헤럴드외국어학원","tel":"031-298-0505","addr":"경기도 수원시 권선구 구운동 911-5번지 2층","category":"회원제형태 - 학원"},{"name":"크린토피아 수원구운일월초교점","tel":"031-295-8850","addr":"경기도 수원시 권선구 구운동 911-5번지 103호","category":"수리서비스 - 세탁소"}]},{"lat":"37.283124986","long":"126.97394706","items":[{"name":"껍데기클라쓰","tel":"031-298-7338","addr":"경기도 수원시 권선구 구운동 907-8번지 1층","category":"일반휴게음식 - 일반한식"}]},{"lat":"37.28237742","long":"126.97514262","items":[{"name":"꽃길","tel":"","addr":"경기도 수원시 권선구 구운동 918-10번지 명수빌딩 1층","category":"일반휴게음식 - 일반한식"},{"name":"석정","tel":"031-227-6033","addr":"경기도 수원시 권선구 구운동 918-10번지","category":"일반휴게음식 - 일반한식"},{"name":"일월독서실","tel":"031-291-7679","addr":"경기도 수원시 권선구 구운동 918-10번지","category":"학원 - 독서실"},{"name":"장충한방족발","tel":"031-295-8884","addr":"경기도 수원시 권선구 구운동 918-10번지 명수빌딩 102호","category":"일반휴게음식 - 일반한식"}]},{"lat":"37.28017794","long":"126.97125327","items":[{"name":"나누리","tel":"02-292-6408","addr":"경기도 수원시 권선구 구운동 939-3번지","category":"자동차정비 유지 - 세차장"}]},{"lat":"37.28448528","long":"126.97292038","items":[{"name":"날이좋아서","tel":"031-293-2700","addr":"경기도 수원시 권선구 구운동 898-2번지 에이원빌딩 1층 101호","category":"일반휴게음식 - 서양음식"},{"name":"에이원케이메디칼","tel":"031-278-8275","addr":"경기도 수원시 권선구 구운동 898-2번지 에이원빌딩 102호","category":"보건위생 - 의료용품"}]},{"lat":"37.277043083","long":"126.97406215","items":[{"name":"낮에뜨는달","tel":"031-293-1840","addr":"경기도 수원시 권선구 구운동 518-13번지","category":"일반휴게음식 - 일반한식"},{"name":"명화특수중량물","tel":"02-1111-1111","addr":"경기도 수원시 권선구 구운동 518-13번지 1층","category":"용역 서비스 - 종합용역"},{"name":"안다미르락곱새","tel":"031-223-5214","addr":"경기도 수원시 권선구 구운동 518-13번지 1층","category":"일반휴게음식 - 일반한식"},{"name":"원조손칼국수","tel":"031-294-5566","addr":"경기도 수원시 권선구 구운동 518-13번지","category":"일반휴게음식 - 일반한식"}]},{"lat":"37.2858714","long":"126.96761979","items":[{"name":"내쇼날티엠","tel":"031-294-2455","addr":"경기도 수원시 권선구 구운동 225-4번지","category":"기타 - 기계공구"}]},{"lat":"37.282539515","long":"126.97475917","items":[{"name":"너메살","tel":"031-293-6900","addr":"경기도 수원시 권선구 구운동 913-6번지 1층","category":"일반휴게음식 - 일반한식"}]},{"lat":"37.278655555","long":"126.9725957","items":[{"name":"네네치킨","tel":"031-278-3001","addr":"경기도 수원시 권선구 구운동 947-1번지 1층","category":"일반휴게음식 - 일반한식"},{"name":"청춘포차","tel":"","addr":"경기도 수원시 권선구 구운동 947-1번지 102호","category":"일반휴게음식 - 주점"}]},{"lat":"37.277151233","long":"126.97417486","items":[{"name":"네일살롱","tel":"031-295-9154","addr":"경기도 수원시 권선구 구운동 518번지 1층","category":"보건위생 - 피부미용실"}]},{"lat":"37.285402867","long":"126.96762001","items":[{"name":"네파 서수원","tel":"031-293-1369","addr":"경기도 수원시 권선구 구운동 223-1번지 1층","category":"레져용품 - 스포츠·레져용품"},{"name":"아디다스/주식회사 피제이투(PJ TWO)","tel":"031-227-4880","addr":"경기도 수원시 권선구 구운동 223-1번지","category":"레져용품 - 스포츠·레져용품"}]},{"lat":"37.283124961","long":"126.97384558","items":[{"name":"노가리&친구들","tel":"","addr":"경기도 수원시 권선구 구운동 907-9번지 1층","category":"일반휴게음식 - 주점"}]},{"lat":"37.277376957","long":"126.97617052","items":[{"name":"노승건축","tel":"031-294-6565","addr":"경기도 수원시 권선구 구운동 500-8번지","category":"용역 서비스 - 기타용역서비스"},{"name":"하트도시락","tel":"031-291-0405","addr":"경기도 수원시 권선구 구운동 500-8번지 1층 102호","category":"일반휴게음식 - 일반한식"}]},{"lat":"37.274870994","long":"126.97165012","items":[{"name":"농산물직판장","tel":"031-292-9300","addr":"경기도 수원시 권선구 구운동 139-170번지","category":"음료식품 - 농·축·수산품"}]},{"lat":"37.275627241","long":"126.96939477","items":[{"name":"농업회사법인 주식회사 부농종묘","tel":"031-211-6670","addr":"경기도 수원시 권선구 구운동 971번지 아이엘오페라하우스 201호","category":"농업 - 비료,사료,종자"},{"name":"로드이엔씨","tel":"031-278-5373","addr":"경기도 수원시 권선구 구운동 971번지 아이엘오페라하우스 103호","category":"기타 - 기계공구"},{"name":"오페라하우스어린이집[아이행복]","tel":"031-296-4525","addr":"경기도 수원시 권선구 구운동 971번지 아이엘오페라하우스 1층 101호","category":"학원 - 유아원"},{"name":"인컴퍼니","tel":"031-227-2602","addr":"경기도 수원시 권선구 구운동 971번지 오페리하우스 1406호","category":"음료식품 - 기타음료식품"},{"name":"콩새네구멍가개","tel":"","addr":"경기도 수원시 권선구 구운동 971번지 아이엘오페라하우스 506호","category":"신변잡화 - 액세서리"}]},{"lat":"37.282872762","long":"126.97420651","items":[{"name":"누리기업","tel":"031-892-1093","addr":"경기도 수원시 권선구 구운동 914-2번지 403호","category":"자동차정비 유지 - 중장비수리"},{"name":"소문난포차","tel":"031-292-9955","addr":"경기도 수원시 권선구 구운동 914-2번지 보성빌딩 1층 103호","category":"일반휴게음식 - 일반한식"},{"name":"일월건강원","tel":"031-297-2958","addr":"경기도 수원시 권선구 구운동 914-2번지","category":"건강식품 - 기타건강식품"},{"name":"짝태패밀리 구운점","tel":"031-297-1651","addr":"경기도 수원시 권선구 구운동 914-2번지 보성빌딩 1층","category":"일반휴게음식 - 일반한식"}]},{"lat":"37.279925497","long":"126.97067831","items":[{"name":"누리유통","tel":"031-297-8224","addr":"경기도 수원시 권선구 구운동 935-9번지 동화펠리스 101호","category":"음료식품 - 기타음료식품"},{"name":"웅자네오돌뼈","tel":"000-0000-0000","addr":"경기도 수원시 권선구 구운동 935-9번지 동화펠리스","category":"일반휴게음식 - 일반한식"}]},{"lat":"37.284349886","long":"126.97198449","items":[{"name":"뉴드림노래연습장","tel":"031-292-2882","addr":"경기도 수원시 권선구 구운동 897-10번지 1층","category":"레저업소 - 노 래 방"}]},{"lat":"37.280232778","long":"126.974309","items":[{"name":"뉴예스마트","tel":"031-296-7862","addr":"경기도 수원시 권선구 구운동 475-9번지 1층 101호","category":"유통업 영리 - 슈퍼마켓"}]},{"lat":"37.281844994","long":"126.97183893","items":[{"name":"뉴욕호텔","tel":"031-294-8118","addr":"경기도 수원시 권선구 구운동 921-1번지","category":"숙박업 - 여관/기타숙박업"}]},{"lat":"37.276682912","long":"126.97506579","items":[{"name":"늘폼유통","tel":"031-227-1715","addr":"경기도 수원시 권선구 구운동 512번지","category":"음료식품 - 기타음료식품"},{"name":"아리랑식당","tel":"031-278-6462","addr":"경기도 수원시 권선구 구운동 512번지","category":"일반휴게음식 - 일반한식"}]},{"lat":"37.275834713","long":"126.97024032","items":[{"name":"늘푸른공조","tel":"031-291-4665","addr":"경기도 수원시 권선구 구운동 302-5번지 광명타운 가동 101호","category":"전기제품 - 가전제품"}]},{"lat":"37.281150754","long":"126.97017037","items":[{"name":"다뉴브","tel":"031-295-2600","addr":"경기도 수원시 권선구 구운동 928-14번지","category":"숙박업 - 여관/기타숙박업"}]},{"lat":"37.282566151","long":"126.97314667","items":[{"name":"다랑심리상담센터","tel":"031-292-2333","addr":"경기도 수원시 권선구 구운동 909-5번지","category":"보건위생 - 기타대인서비스"},{"name":"카페툰","tel":"031-000-0000","addr":"경기도 수원시 권선구 구운동 909-5번지 2층","category":"일반휴게음식 - 서양음식"},{"name":"큰들","tel":"031-291-3555","addr":"경기도 수원시 권선구 구운동 909-5번지","category":"일반휴게음식 - 일반한식"}]},{"lat":"37.276817704","long":"126.97356612","items":[{"name":"다모사무기","tel":"031-246-0320","addr":"경기도 수원시 권선구 구운동 520-2번지 1층","category":"사무통신 - 사무용 OA기기"},{"name":"룩(LOOK)","tel":"031-294-3265","addr":"경기도 수원시 권선구 구운동 520-2번지 1층","category":"의류 - 정장"},{"name":"미강","tel":"031-297-8028","addr":"경기도 수원시 권선구 구운동 520-2번지","category":"기타의료기관 - 기타의료기관 및 기타"},{"name":"수원프린트컴25시","tel":"031-246-0320","addr":"경기도 수원시 권선구 구운동 520-2번지","category":"사무통신 - 사무용 OA기기"}]},{"lat":"37.277070985","long":"126.97789576","items":[{"name":"다본다 서비스 수원","tel":"031-291-4595","addr":"경기도 수원시 권선구 구운동 507-15번지 1층","category":"자동차정비 유지 - 자동차부품"},{"name":"스포츠&홍삼","tel":"031-296-8005","addr":"경기도 수원시 권선구 구운동 507-15번지","category":"레져용품 - 스포츠·레져용품"}]},{"lat":"37.276178727","long":"126.97677981","items":[{"name":"다오뒷고기숯불구이","tel":"031-297-2274","addr":"경기도 수원시 권선구 구운동 509-10번지 1층","category":"일반휴게음식 - 일반한식"}]},{"lat":"37.275737082","long":"126.97614855","items":[{"name":"다정사진관","tel":"031-255-1030","addr":"경기도 수원시 권선구 구운동 139-87번지 2층","category":"광학제품 - 사진관"}]},{"lat":"37.277845529","long":"126.97633949","items":[{"name":"다정이네칼국수","tel":"031-291-2941","addr":"경기도 수원시 권선구 구운동 503-12번지","category":"일반휴게음식 - 일반한식"}]},{"lat":"37.277070813","long":"126.97709521","items":[{"name":"다플라워","tel":"031-295-0400","addr":"경기도 수원시 권선구 구운동 504-10번지","category":"문화.취미 - 화원"}]},{"lat":"37.276845269","long":"126.9758099","items":[{"name":"달달3.14","tel":"","addr":"경기도 수원시 권선구 구운동 497-10번지 101,102호","category":"일반휴게음식 - 서양음식"},{"name":"마롱쇼룸(Maron showroom)","tel":"031-111-1111","addr":"경기도 수원시 권선구 구운동 497-10번지 1층 101,102호","category":"일반휴게음식 - 서양음식"},{"name":"블룸인","tel":"070-4085-9382","addr":"경기도 수원시 권선구 구운동 497-10번지","category":"의류 - 내의판매"},{"name":"엠제이모터스(MJ motors)","tel":"070-4696-8250","addr":"경기도 수원시 권선구 구운동 497-10번지 1층","category":"수리서비스 - 레져용품수리"}]},{"lat":"37.27773702","long":"126.97467076","items":[{"name":"달봉환경","tel":"031-227-2540","addr":"경기도 수원시 권선구 구운동 495-9번지 101호","category":"용역 서비스 - 종합용역"},{"name":"황칠건강원","tel":"031-293-1563","addr":"경기도 수원시 권선구 구운동 495-9번지","category":"건강식품 - 기타건강식품"}]},{"lat":"37.276709348","long":"126.97264158","items":[{"name":"담뱃잎가게","tel":"","addr":"경기도 수원시 권선구 구운동 522-4번지 1층","category":"음료식품 - 기타음료식품"},{"name":"수원갈비탕찜냉면","tel":"031-293-1731","addr":"경기도 수원시 권선구 구운동 522-4번지 102호","category":"일반휴게음식 - 일반한식"}]},{"lat":"37.283539076","long":"126.9724246","items":[{"name":"대구왕뽈때기","tel":"031-295-0195","addr":"경기도 수원시 권선구 구운동 901-3번지","category":"일반휴게음식 - 일반한식"}]},{"lat":"37.285457285","long":"126.96883786","items":[{"name":"대박식당","tel":"031-291-8675","addr":"경기도 수원시 권선구 구운동 19번지","category":"일반휴게음식 - 일반한식"}]},{"lat":"37.283287259","long":"126.97430784","items":[{"name":"대박집","tel":"031-292-4828","addr":"경기도 수원시 권선구 구운동 911-2번지","category":"음료식품 - 농·축·수산품"}]},{"lat":"37.276735928","long":"126.97092772","items":[{"name":"대상합판목재상사","tel":"031-8061-9198","addr":"경기도 수원시 권선구 구운동 139-168번지","category":"건축자재 - 목재·석재·철물"},{"name":"성수유통","tel":"031-227-0324","addr":"경기도 수원시 권선구 구운동 139-168번지","category":"유통업 영리 - 기타유통업"}]},{"lat":"37.283709967","long":"126.97126307","items":[{"name":"대성냉동","tel":"031-295-8002","addr":"경기도 수원시 권선구 구운동 903-9번지","category":"자동차정비 유지 - 자동차부품"}]},{"lat":"37.276656148","long":"126.97622715","items":[{"name":"대성세탁소","tel":"031-292-6134","addr":"경기도 수원시 권선구 구운동 511-9번지 1층","category":"수리서비스 - 세탁소"},{"name":"승희미용실","tel":"031-297-3235","addr":"경기도 수원시 권선구 구운동 511-9번지","category":"보건위생 - 미용원"}]},{"lat":"37.283350016","long":"126.9730336","items":[{"name":"대양참치","tel":"031-291-5006","addr":"경기도 수원시 권선구 구운동 907-1번지 남성빌딩 1층 1호","category":"일반휴게음식 - 일반한식"},{"name":"훌랄라숯불바베큐","tel":"031-292-3355","addr":"경기도 수원시 권선구 구운동 907-1번지","category":"일반휴게음식 - 주점"}]},{"lat":"37.282845157","long":"126.97192873","items":[{"name":"대원뼈다귀감자탕","tel":"031-297-7749","addr":"경기도 수원시 권선구 구운동 904-9번지","category":"일반휴게음식 - 일반한식"},{"name":"신풍제약(주)경기","tel":"031-252-7064","addr":"경기도 수원시 권선구 구운동 904-9번지 2층","category":"약국 - 제약회사"},{"name":"에쿠스","tel":"031-295-2627","addr":"경기도 수원시 권선구 구운동 904-9번지 3층","category":"레저업소 - 노 래 방"}]},{"lat":"37.279656385","long":"126.97542551","items":[{"name":"대원애드피아","tel":"031-293-7148","addr":"경기도 수원시 권선구 구운동 477-6번지 대원애드피아","category":"용역 서비스 - 종합용역"}]},{"lat":"37.280376997","long":"126.97453446","items":[{"name":"대준유통","tel":"031-292-7184","addr":"경기도 수원시 권선구 구운동 476-10번지 1층","category":"레져용품 - 스포츠·레져용품"},{"name":"동수원소금구이","tel":"031-293-9592","addr":"경기도 수원시 권선구 구운동 476-10번지","category":"일반휴게음식 - 일반한식"}]},{"lat":"37.284205633","long":"126.97164626","items":[{"name":"대한민국정보통신","tel":"031-227-2278","addr":"경기도 수원시 권선구 구운동 903-1번지 A동 4층","category":"사무통신 - 통신기기"},{"name":"신화정보통신","tel":"031-291-9872","addr":"경기도 수원시 권선구 구운동 903-1번지 J&D빌딩 A동 4층 401호일부","category":"사무통신 - 통신기기"},{"name":"아름협동조합","tel":"031-227-2278","addr":"경기도 수원시 권선구 구운동 903-1번지 A동 4층 401호","category":"사무통신 - 통신기기"}]},{"lat":"37.27712378","long":"126.97248356","items":[{"name":"대한에너지","tel":"031-223-4691","addr":"경기도 수원시 권선구 구운동 967-9번지 1층","category":"건축자재 - 보일러·펌프·샷시"}]},{"lat":"37.28379108","long":"126.97134197","items":[{"name":"대형카","tel":"031-297-0951","addr":"경기도 수원시 권선구 구운동 903-10번지","category":"자동차정비 유지 - 자동차정비"}]},{"lat":"37.283260195","long":"126.97417254","items":[{"name":"더맛쪽갈비일월점","tel":"031-293-8591","addr":"경기도 수원시 권선구 구운동 911-1번지","category":"일반휴게음식 - 일반한식"},{"name":"오후엔치킨(일월초교점)","tel":"031-278-9242","addr":"경기도 수원시 권선구 구운동 911-1번지 성심빌딩 1층 101호","category":"일반휴게음식 - 스넥"},{"name":"윤스스킨케어","tel":"031-227-2111","addr":"경기도 수원시 권선구 구운동 911-1번지 2층 윤스스킨케어","category":"보건위생 - 피부미용실"}]},{"lat":"37.277070628","long":"126.97626083","items":[{"name":"더모모","tel":"070-0000-0000","addr":"경기도 수원시 권선구 구운동 497-5번지 101호","category":"일반휴게음식 - 서양음식"},{"name":"조앤리헤어뱅크","tel":"031-295-5034","addr":"경기도 수원시 권선구 구운동 497-5번지 1층 102호","category":"보건위생 - 미용원"},{"name":"현인쑥뜸방","tel":"070-8185-9582","addr":"경기도 수원시 권선구 구운동 497-5번지 1층 103호","category":"보건위생 - 피부미용실"}]},{"lat":"37.275988708","long":"126.97336348","items":[{"name":"더부러공조 시스템에어컨","tel":"031-222-2028","addr":"경기도 수원시 권선구 구운동 525-2번지","category":"용역 서비스 - 기타용역서비스"},{"name":"자연떡집방앗간","tel":"031-111-1111","addr":"경기도 수원시 권선구 구운동 525-2번지 1층","category":"음료식품 - 제과점"}]},{"lat":"37.285540631","long":"126.97787041","items":[{"name":"더존스크린골프","tel":"031-297-0075","addr":"경기도 수원시 권선구 구운동 889번지 일월청구아파트 2층","category":"레저업소 - 스크린골프"},{"name":"미스터헤어","tel":"031-000-0000","addr":"경기도 수원시 권선구 구운동 889번지 일월청구아파트 상가동 102호","category":"보건위생 - 미용원"}]},{"lat":"37.276655709","long":"126.97434418","items":[{"name":"덕창종합공사","tel":"031-227-6910","addr":"경기도 수원시 권선구 구운동 516번지","category":"용역 서비스 - 기타용역서비스"},{"name":"세화전자","tel":"031-293-6185","addr":"경기도 수원시 권선구 구운동 516번지","category":"전기제품 - 기타전기제품"}]},{"lat":"37.282349119","long":"126.97016985","items":[{"name":"던킨도너츠서수원이마트점","tel":"031-297-8802","addr":"경기도 수원시 권선구 구운동 925번지 이마트 1층","category":"음료식품 - 제과점"},{"name":"쿨펫동물병원서수원","tel":"031-292-1275","addr":"경기도 수원시 권선구 구운동 925번지 3층","category":"기타의료기관 - 동물병원"}]},{"lat":"37.276682845","long":"126.9747839","items":[{"name":"도깨비곱창","tel":"070-8947-4490","addr":"경기도 수원시 권선구 구운동 518-7번지","category":"일반휴게음식 - 일반한식"}]},{"lat":"37.280953299","long":"126.97309092","items":[{"name":"도깨비통닭","tel":"031-295-6369","addr":"경기도 수원시 권선구 구운동 471-14번지","category":"일반휴게음식 - 일반한식"},{"name":"두메골","tel":"031-292-9524","addr":"경기도 수원시 권선구 구운동 471-14번지","category":"일반휴게음식 - 일반한식"},{"name":"브라더탕수","tel":"","addr":"경기도 수원시 권선구 구운동 471-14번지 1층","category":"일반휴게음식 - 중국식"}]},{"lat":"37.275764151","long":"126.97631767","items":[{"name":"도레미노래연습장","tel":"031-292-1446","addr":"경기도 수원시 권선구 구운동 139-151번지 지하","category":"레저업소 - 노 래 방"},{"name":"신신고","tel":"","addr":"경기도 수원시 권선구 구운동 139-151번지 1층","category":"신변잡화 - 신발"},{"name":"오오점핑","tel":"070-8780-2150","addr":"경기도 수원시 권선구 구운동 139-151번지 2층","category":"건강식품 - 기타건강식품"}]},{"lat":"37.276295855","long":"126.97675722","items":[{"name":"도우미알뜰마트","tel":"031-292-4984","addr":"경기도 수원시 권선구 구운동 509-4번지 102호","category":"전기제품 - 가전제품"},{"name":"하얀화장품","tel":"031-291-5031","addr":"경기도 수원시 권선구 구운동 509-4번지 101호","category":"보건위생 - 화장품"},{"name":"허민헤어","tel":"031-297-2856","addr":"경기도 수원시 권선구 구운동 509-4번지 1층","category":"보건위생 - 미용원"},{"name":"현대기획","tel":"031-293-2510","addr":"경기도 수원시 권선구 구운동 509-4번지","category":"용역 서비스 - 종합용역"}]},{"lat":"37.281737023","long":"126.97242533","items":[{"name":"돌솥삼계탕","tel":"031-294-9600","addr":"경기도 수원시 권선구 구운동 921-5번지","category":"일반휴게음식 - 일반한식"}]},{"lat":"37.283151506","long":"126.9719286","items":[{"name":"동경타일","tel":"031-291-1164","addr":"경기도 수원시 권선구 구운동 901-9번지","category":"건축자재 - 건축용 요업제품"}]},{"lat":"37.277097199","long":"126.97428763","items":[{"name":"동광지물포","tel":"031-294-0558","addr":"경기도 수원시 권선구 구운동 518-1번지","category":"직물 - 카페트,커튼,천막,지물"}]},{"lat":"37.278791116","long":"126.97423061","items":[{"name":"동명전기공사","tel":"031-227-8404","addr":"경기도 수원시 권선구 구운동 490-7번지 1층","category":"용역 서비스 - 기타용역서비스"},{"name":"왕우반점","tel":"031-293-6943","addr":"경기도 수원시 권선구 구운동 490-7번지","category":"일반휴게음식 - 일반한식"}]},{"lat":"37.277628496","long":"126.97303586","items":[{"name":"동산어린이집[아이행복]","tel":"031-291-9330","addr":"경기도 수원시 권선구 구운동 963-7번지","category":"학원 - 유아원"}]},{"lat":"37.282097816","long":"126.97394746","items":[{"name":"동신유압경기영업소","tel":"031-278-3721","addr":"경기도 수원시 권선구 구운동 918-1번지","category":"기타 - 기타 전문점"},{"name":"속초코다리면옥","tel":"031-294-1233","addr":"경기도 수원시 권선구 구운동 918-1번지","category":"일반휴게음식 - 일반한식"},{"name":"아모레카운셀러","tel":"031-293-9797","addr":"경기도 수원시 권선구 구운동 918-1번지 상진빌딩 4층","category":"보건위생 - 화장품"},{"name":"아모레카운셀러","tel":"031-293-9797","addr":"경기도 수원시 권선구 구운동 918-1번지 상진빌딩 4층","category":"보건위생 - 화장품"},{"name":"아모레카운셀러","tel":"031-293-9797","addr":"경기도 수원시 권선구 구운동 918-1번지 상진빌딩 4층","category":"보건위생 - 화장품"},{"name":"아모레카운셀러","tel":"031-293-9797","addr":"경기도 수원시 권선구 구운동 918-1번지 상진빌딩4층","category":"보건위생 - 화장품"},{"name":"아모레카운셀러","tel":"031-293-9797","addr":"경기도 수원시 권선구 구운동 918-1번지 상진빌딩 4층","category":"보건위생 - 화장품"},{"name":"아모레카운셀러","tel":"031-293-9797","addr":"경기도 수원시 권선구 구운동 918-1번지 상진빌딩 4층","category":"보건위생 - 화장품"},{"name":"아모레카운셀러","tel":"031-293-9797","addr":"경기도 수원시 권선구 구운동 918-1번지 상진빌딩 4층","category":"보건위생 - 화장품"},{"name":"아모레카운셀러","tel":"031-293-9797","addr":"경기도 수원시 권선구 구운동 918-1번지 상진빌딩 4층","category":"보건위생 - 화장품"},{"name":"아모레카운셀러","tel":"031-293-9797","addr":"경기도 수원시 권선구 구운동 918-1번지 상진빌딩 4층","category":"보건위생 - 화장품"},{"name":"아모레카운셀러","tel":"031-293-9797","addr":"경기도 수원시 권선구 구운동 918-1번지 삼진빌딩 4층","category":"보건위생 - 화장품"},{"name":"아모레카운셀러","tel":"031-293-9797","addr":"경기도 수원시 권선구 구운동 918-1번지 4층","category":"보건위생 - 화장품"},{"name":"아모레카운셀러","tel":"031-293-9797","addr":"경기도 수원시 권선구 구운동 918-1번지 상진빌딩 4층","category":"보건위생 - 화장품"},{"name":"아모레카운셀러","tel":"031-293-9797","addr":"경기도 수원시 권선구 구운동 918-1번지 4층","category":"보건위생 - 화장품"},{"name":"아모레카운셀러","tel":"031-293-9797","addr":"경기도 수원시 권선구 구운동 918-1번지 상진빌딩 4층","category":"보건위생 - 화장품"},{"name":"아모레카운셀러","tel":"031-293-9797","addr":"경기도 수원시 권선구 구운동 918-1번지 4층","category":"보건위생 - 화장품"},{"name":"아모레카운셀러","tel":"031-293-9797","addr":"경기도 수원시 권선구 구운동 918-1번지 상진빌딩 4층","category":"보건위생 - 화장품"},{"name":"아모레카운셀러","tel":"031-293-9797","addr":"경기도 수원시 권선구 구운동 918-1번지 4층","category":"보건위생 - 화장품"},{"name":"아모레카운셀러","tel":"031-293-9797","addr":"경기도 수원시 권선구 구운동 918-1번지 상진빌딩 4층","category":"보건위생 - 화장품"},{"name":"일월한의원","tel":"031-291-1075","addr":"경기도 수원시 권선구 구운동 918-1번지 3층","category":"의원 - 한의원"},{"name":"팀엠복싱","tel":"031-296-2108","addr":"경기도 수원시 권선구 구운동 918-1번지 상진빌딩 6층","category":"레저업소 - 헬스클럽"}]},{"lat":"37.278322439","long":"126.97364446","items":[{"name":"동인유통","tel":"070-4649-1101","addr":"경기도 수원시 권선구 구운동 492-1번지 1층","category":"음료식품 - 미곡상"}]},{"lat":"37.276457965","long":"126.9764189","items":[{"name":"돼지꿈","tel":"","addr":"경기도 수원시 권선구 구운동 511-2번지 1층","category":"일반휴게음식 - 일반한식"},{"name":"미스터(Mr. )블랙","tel":"031-292-7733","addr":"경기도 수원시 권선구 구운동 511-2번지 1층","category":"보건위생 - 미용원"}]},{"lat":"37.276683212","long":"126.97637372","items":[{"name":"돼지네엄마밥상","tel":"031-227-7778","addr":"경기도 수원시 권선구 구운동 511번지","category":"일반휴게음식 - 일반한식"},{"name":"분식나라","tel":"031-291-4393","addr":"경기도 수원시 권선구 구운동 511","category":"일반휴게음식 - 스넥"},{"name":"억수르감자탕과닭볶음탕","tel":"031-292-0057","addr":"경기도 수원시 권선구 구운동 511번지","category":"일반휴게음식 - 일반한식"}]},{"lat":"37.280511705","long":"126.97273027","items":[{"name":"두리공조","tel":"031-297-2678","addr":"경기도 수원시 권선구 구운동 471-10번지 102호","category":"전기제품 - 냉열기기"},{"name":"무사보","tel":"031-8067-5410","addr":"경기도 수원시 권선구 구운동 471-10번지 1층","category":"일반휴게음식 - 일반한식"},{"name":"아르코(폭탄쭈꾸미)","tel":"031-307-9292","addr":"경기도 수원시 권선구 구운동 471-10번지 1층 101호","category":"일반휴게음식 - 일반한식"}]},{"lat":"37.284429932","long":"126.96820684","items":[{"name":"두배로축산물직판장","tel":"031-292-9289","addr":"경기도 수원시 권선구 구운동 219-5번지","category":"음료식품 - 정육점"}]},{"lat":"37.279070277","long":"126.97358779","items":[{"name":"드림컴퓨터","tel":"031-295-1482","addr":"경기도 수원시 권선구 구운동 490-2번지","category":"사무통신 - 컴퓨터"},{"name":"트리플에이코포레이션","tel":"031-292-0672","addr":"경기도 수원시 권선구 구운동 490-2번지","category":"별도관리 - 자체물품대금"}]},{"lat":"37.284566182","long":"126.9721761","items":[{"name":"드림테크놀러지","tel":"031-352-6948","addr":"경기도 수원시 권선구 구운동 897-8번지 202호","category":"기타 - 기타 전문점"}]},{"lat":"37.279070153","long":"126.97309167","items":[{"name":"디씨보일러","tel":"031-1670-4876","addr":"경기도 수원시 권선구 구운동 489번지 101호","category":"용역 서비스 - 기타용역서비스"},{"name":"생활하우스 종합유통","tel":"031-832-0930","addr":"경기도 수원시 권선구 구운동 489번지 103호","category":"신변잡화 - 기타잡화"}]},{"lat":"37.280294577","long":"126.96944908","items":[{"name":"디에스(DS)디자인","tel":"031-292-7161","addr":"경기도 수원시 권선구 구운동 931-3번지","category":"용역 서비스 - 사무서비스"},{"name":"용인순대국","tel":"031-291-3854","addr":"경기도 수원시 권선구 구운동 931-3번지 1층","category":"일반휴게음식 - 일반한식"}]},{"lat":"37.279070244","long":"126.97345249","items":[{"name":"디자인큐","tel":"031-293-8898","addr":"경기도 수원시 권선구 구운동 490-1번지","category":"건축자재 - 인테리어전문"}]},{"lat":"37.276629069","long":"126.97601293","items":[{"name":"또래오래","tel":"031-296-8229","addr":"경기도 수원시 권선구 구운동 512-7번지","category":"일반휴게음식 - 서양음식"},{"name":"제일보석","tel":"031-293-6336","addr":"경기도 수원시 권선구 구운동 512-7번지","category":"신변잡화 - 귀금속"}]},{"lat":"37.283287393","long":"126.97487166","items":[{"name":"뚱띵이삼겹살","tel":"031-292-2601","addr":"경기도 수원시 권선구 구운동 911-6번지","category":"일반휴게음식 - 일반한식"},{"name":"백학합기도","tel":"031-227-6009","addr":"경기도 수원시 권선구 구운동 911-6번지 2층","category":"학원 - 기타 교육기관"},{"name":"비에이치씨일월점","tel":"031-293-7557","addr":"경기도 수원시 권선구 구운동 911-6번지","category":"일반휴게음식 - 서양음식"},{"name":"피자투어","tel":"031-298-4904","addr":"경기도 수원시 권선구 구운동 911-6번지","category":"일반휴게음식 - 서양음식"}]},{"lat":"37.274148504","long":"126.96586637","items":[{"name":"뜰에서 화로구이","tel":"031-296-3692","addr":"경기도 수원시 권선구 구운동 632번지 1층","category":"일반휴게음식 - 일반한식"}]},{"lat":"37.281322141","long":"126.97086941","items":[{"name":"라벤더모텔","tel":"031-292-0745","addr":"경기도 수원시 권선구 구운동 928-6번지","category":"숙박업 - 여관/기타숙박업"},{"name":"호텔월","tel":"031-292-0745","addr":"경기도 수원시 권선구 구운동 928-6번지","category":"숙박업 - 여관/기타숙박업"}]},{"lat":"37.275628728","long":"126.9751451","items":[{"name":"라파이비인후과의원","tel":"031-296-4433","addr":"경기도 수원시 권선구 구운동 139-77번지 해주빌딩 3층 301호","category":"의원 - 의원"},{"name":"상록수약국","tel":"031-296-8246","addr":"경기도 수원시 권선구 구운동 139-77번지 해주빌딩 2층","category":"약국 - 약국"},{"name":"어반트리독서실","tel":"031-298-3601","addr":"경기도 수원시 권선구 구운동 139-77번지 해주빌딩 6층","category":"학원 - 독서실"},{"name":"올스본코리아","tel":"031-292-0282","addr":"경기도 수원시 권선구 구운동 139-77번지 해주빌딩 4층 401호","category":"보건위생 - 의료용품"},{"name":"운동하는날","tel":"031-297-8296","addr":"경기도 수원시 권선구 구운동 139-77번지 해주빌딩 5층","category":"레저업소 - 헬스클럽"}]},{"lat":"37.281457407","long":"126.97128656","items":[{"name":"램파트","tel":"","addr":"경기도 수원시 권선구 구운동 924-1번지","category":"숙박업 - 여관/기타숙박업"}]},{"lat":"37.276566083","long":"126.97639631","items":[{"name":"러브레터","tel":"031-295-8892","addr":"경기도 수원시 권선구 구운동 511-1번지","category":"일반휴게음식 - 서양음식"},{"name":"청진횟집","tel":"031-293-2648","addr":"경기도 수원시 권선구 구운동 511-1번지","category":"일반휴게음식 - 일반한식"}]},{"lat":"37.276510534","long":"126.97042043","items":[{"name":"레고에어컨","tel":"031-295-4137","addr":"경기도 수원시 권선구 구운동 537-11번지 202호","category":"용역 서비스 - 기타용역서비스"},{"name":"소와나무","tel":"031-291-0092","addr":"경기도 수원시 권선구 구운동 537-11번지 1층","category":"일반휴게음식 - 일반한식"}]},{"lat":"37.283287015","long":"126.97331553","items":[{"name":"로봇과학클럽학원","tel":"031-292-2697","addr":"경기도 수원시 권선구 구운동 907-3번지 2층","category":"회원제형태 - 학원"}]},{"lat":"37.283178995","long":"126.97373279","items":[{"name":"로이로이키즈카페","tel":"031-295-5648","addr":"경기도 수원시 권선구 구운동 907-6번지","category":"일반휴게음식 - 서양음식"},{"name":"별미닭갈비막국수","tel":"031-293-0292","addr":"경기도 수원시 권선구 구운동 907-6번지 다우빌딩 1층","category":"일반휴게음식 - 일반한식"},{"name":"특공무술","tel":"031-295-2011","addr":"경기도 수원시 권선구 구운동 907-6번지 다우빌딩 301호","category":"회원제형태 - 레져업소"}]},{"lat":"37.277016695","long":"126.97683589","items":[{"name":"로즐리케이크 Roselycake","tel":"","addr":"경기도 수원시 권선구 구운동 504-12번지","category":"음료식품 - 제과점"}]},{"lat":"37.27701649","long":"126.97592259","items":[{"name":"롯데칠성음료 금곡점","tel":"031-546-0556","addr":"경기도 수원시 권선구 구운동 497-15번지 1층","category":"음료식품 - 기타음료식품"},{"name":"화이트크린","tel":"03-100-0000","addr":"경기도 수원시 권선구 구운동 497-15번지 3층","category":"용역 서비스 - 종합용역"}]},{"lat":"37.277043758","long":"126.97698246","items":[{"name":"르네상스팬시문구","tel":"031-296-4278","addr":"경기도 수원시 권선구 구운동 504-11번지","category":"서적문구 - 문구용품"},{"name":"수디아망","tel":"","addr":"경기도 수원시 권선구 구운동 504-11번지 1층","category":"문화.취미 - 문화취미기타"}]},{"lat":"37.281899129","long":"126.97212081","items":[{"name":"리테일구운동점","tel":"031-296-9654","addr":"경기도 수원시 권선구 구운동 921-3번지 3층","category":"보건위생 - 화장품"}]},{"lat":"37.275267881","long":"126.97334122","items":[{"name":"링컨약국","tel":"031-291-1501","addr":"경기도 수원시 권선구 구운동 530-4번지","category":"약국 - 약국"},{"name":"행운열쇠","tel":"031-291-0907","addr":"경기도 수원시 권선구 구운동 530-4번지 1층","category":"수리서비스 - 기타수리서비스"}]},{"lat":"37.275177687","long":"126.97298045","items":[{"name":"마X(엑스)포차","tel":"031-278-2250","addr":"경기도 수원시 권선구 구운동 530-1번지 1층 102호","category":"일반휴게음식 - 스넥"},{"name":"아지트","tel":"","addr":"경기도 수원시 권선구 구운동 530-1번지 1층 102호","category":"일반휴게음식 - 주점"}]},{"lat":"37.277232609","long":"126.97537002","items":[{"name":"마니푸드","tel":"02-1111-1111","addr":"경기도 수원시 권선구 구운동 498-10번지","category":"일반휴게음식 - 일반한식"}]},{"lat":"37.279925646","long":"126.97123082","items":[{"name":"마성의족발","tel":"031-291-2243","addr":"경기도 수원시 권선구 구운동 944-1번지 한아름주택 1층","category":"일반휴게음식 - 일반한식"},{"name":"혜화동돈가스","tel":"031-296-3060","addr":"경기도 수원시 권선구 구운동 944-1번지 한아름주택 1층 102호","category":"일반휴게음식 - 일반한식"}]},{"lat":"37.27901572","long":"126.9716484","items":[{"name":"마이로드","tel":"031-267-3477","addr":"경기도 수원시 권선구 구운동 946-3번지 스위트홈 1층 101호","category":"레져용품 - 스포츠·레져용품"}]},{"lat":"37.277512395","long":"126.97745587","items":[{"name":"만석골","tel":"031-291-4555","addr":"경기도 수원시 권선구 구운동 506-5번지 1층","category":"일반휴게음식 - 일반한식"},{"name":"승미상사","tel":"031-296-7498","addr":"경기도 수원시 권선구 구운동 506-5번지","category":"건축자재 - 페인트"}]},{"lat":"37.277168112","long":"126.9698","items":[{"name":"맘맘어린이집[아이행복]","tel":"031-292-5957","addr":"경기도 수원시 권선구 구운동 973번지 서수원엠코타운르본느 103동 103호","category":"학원 - 유아원"}]},{"lat":"37.27540293","long":"126.97292398","items":[{"name":"맘스어린이집[아이행복]","tel":"031-291-0808","addr":"경기도 수원시 권선구 구운동 532-8번지","category":"학원 - 유아원"}]},{"lat":"37.277988892","long":"126.97297934","items":[{"name":"맛깔해물매운갈비찜","tel":"031-278-1051","addr":"경기도 수원시 권선구 구운동 947-7번지","category":"일반휴게음식 - 일반한식"},{"name":"소문난모자왕족발","tel":"031-298-3991","addr":"경기도 수원시 권선구 구운동 947-7번지 1층","category":"일반휴게음식 - 일반한식"}]},{"lat":"37.279322292","long":"126.97250523","items":[{"name":"맥고","tel":"070-7420-5263","addr":"경기도 수원시 권선구 구운동 942-7번지","category":"일반휴게음식 - 주점"}]},{"lat":"37.283070449","long":"126.97206395","items":[{"name":"머내솔밭","tel":"031-277-4599","addr":"경기도 수원시 권선구 구운동 901-8번지","category":"일반휴게음식 - 일반한식"},{"name":"피부톡톡","tel":"02-3012-1277","addr":"경기도 수원시 권선구 구운동 901-8번지","category":"보건위생 - 화장품"}]},{"lat":"37.278655841","long":"126.97373454","items":[{"name":"멀티 스포츠 기획","tel":"","addr":"경기도 수원시 권선구 구운동 491-3번지 3층","category":"신변잡화 - 기타잡화"}]},{"lat":"37.28226017","long":"126.97464651","items":[{"name":"메디탑","tel":"031-298-0401","addr":"경기도 수원시 권선구 구운동 918-6번지 연안빌딩 4층","category":"보건위생 - 의료용품"},{"name":"메디탑","tel":"031-298-0401","addr":"경기도 수원시 권선구 구운동 918-6번지 연안빌딩 4층","category":"보건위생 - 의료용품"},{"name":"선명디자인","tel":"031-306-1887","addr":"경기도 수원시 권선구 구운동 918-6번지 연안빌딩 5층","category":"서적문구 - 출판 및 인쇄물"},{"name":"위더스","tel":"031-298-0401","addr":"경기도 수원시 권선구 구운동 918-6번지 연안빌딩","category":"보건위생 - 의료용품"},{"name":"이유수학학원","tel":"031-227-2366","addr":"경기도 수원시 권선구 구운동 918-6번지 2층","category":"학원 - 보습학원"},{"name":"쭈꾸미아저씨","tel":"031-296-8377","addr":"경기도 수원시 권선구 구운동 918-6번지","category":"일반휴게음식 - 일반한식"}]},{"lat":"37.275123461","long":"126.97233779","items":[{"name":"메리트카","tel":"031-294-9266","addr":"경기도 수원시 권선구 구운동 139-41번지","category":"자동차정비 유지 - 자동차부품"}]},{"lat":"37.284045048","long":"126.978446","items":[{"name":"메릭스지지이영어수학학원","tel":"031-292-3883","addr":"경기도 수원시 권선구 구운동 462번지 삼환상가3층7호~8호 7","category":"학원 - 보습학원"},{"name":"아트슐레홍익미술교습소","tel":"031-293-4964","addr":"경기도 수원시 권선구 구운동 462번지 삼환아파트 4층 2호","category":"학원 - 예·체능계학원"},{"name":"이솝","tel":"031-294-1928","addr":"경기도 수원시 권선구 구운동 462번지 삼환 상가 201호","category":"의류 - 정장"},{"name":"조치과의원","tel":"031-293-7500","addr":"경기도 수원시 권선구 구운동 462번지 삼환 상가 3층","category":"의원 - 치과의원"},{"name":"창앤홈인테리어","tel":"031-293-0912","addr":"경기도 수원시 권선구 구운동 462번지 삼환상가제1상가동 16","category":"건축자재 - 인테리어전문"},{"name":"퀸네일","tel":"031-111-1111","addr":"경기도 수원시 권선구 구운동 462번지 삼환아파트 상가 1층 23호","category":"보건위생 - 피부미용실"}]},{"lat":"37.28017805","long":"126.97167047","items":[{"name":"메익미커피","tel":"031-295-0303","addr":"경기도 수원시 권선구 구운동 940-10번지 1층","category":"일반휴게음식 - 일반한식"}]},{"lat":"37.276402696","long":"126.97148035","items":[{"name":"며르치국수","tel":"070-8181-2977","addr":"경기도 수원시 권선구 구운동 536-5번지 101호","category":"일반휴게음식 - 일반한식"}]},{"lat":"37.278260082","long":"126.97670016","items":[{"name":"명가","tel":"031-294-7131","addr":"경기도 수원시 권선구 구운동 502-1번지","category":"일반휴게음식 - 일반한식"},{"name":"세무사이기석사무소","tel":"031-292-2700","addr":"경기도 수원시 권선구 구운동 502-1번지","category":"용역 서비스 - 법률회계서비스(개인)"},{"name":"혼담결혼정보회사","tel":"031-214-5712","addr":"경기도 수원시 권선구 구운동 502-1번지","category":"용역 서비스 - 혼례서비스"}]},{"lat":"37.278259138","long":"126.97273117","items":[{"name":"명성자동차정비공업사","tel":"031-297-9289","addr":"경기도 수원시 권선구 구운동 947-4번지","category":"자동차정비 유지 - 자동차정비"},{"name":"수원유일상사","tel":"031-416-0015","addr":"경기도 수원시 권선구 구운동 947-4번지","category":"자동차정비 유지 - 자동차부품"}]},{"lat":"37.279925697","long":"126.97142251","items":[{"name":"명인한약국","tel":"031-226-0040","addr":"경기도 수원시 권선구 구운동 944-2번지 101호","category":"약국 - 약국"}]},{"lat":"37.280177985","long":"126.97142241","items":[{"name":"명진에너텍","tel":"031-293-7757","addr":"경기도 수원시 권선구 구운동 939-2번지","category":"수리서비스 - 기타수리서비스"},{"name":"하이드림서비스 경기남부지사","tel":"031-293-9906","addr":"경기도 수원시 권선구 구운동 939-2번지 1층 102호","category":"주방용구 - 정수기"}]},{"lat":"37.280231638","long":"126.9699227","items":[{"name":"명품","tel":"070-1111-1111","addr":"경기도 수원시 권선구 구운동 932-1번지 대영빌 101호","category":"음료식품 - 정육점"}]},{"lat":"37.284899605","long":"126.97234512","items":[{"name":"명품벽지did수원총판","tel":"031-257-8583","addr":"경기도 수원시 권선구 구운동 897-15번지 1층","category":"직물 - 카페트,커튼,천막,지물"},{"name":"제이에스골프클럽","tel":"031-291-0042","addr":"경기도 수원시 권선구 구운동 897-15번지 3층","category":"레저업소 - 골프연습장"}]},{"lat":"37.278655101","long":"126.97087053","items":[{"name":"명품세탁소","tel":"031-295-9598","addr":"경기도 수원시 권선구 구운동 953-2번지 101호","category":"수리서비스 - 세탁소"},{"name":"비즈앤북","tel":"031-402-1574","addr":"경기도 수원시 권선구 구운동 953-2번지 형원빌딩 202호","category":"서적문구 - 일반서적"}]},{"lat":"37.284070788","long":"126.97284161","items":[{"name":"모도리육회","tel":"","addr":"경기도 수원시 권선구 구운동 899-2번지 1층 101호","category":"일반휴게음식 - 일반한식"},{"name":"서수원 양꼬치양갈비참숯구이","tel":"031-298-2168","addr":"경기도 수원시 권선구 구운동 899-2번지","category":"일반휴게음식 - 일반한식"},{"name":"오징어마을","tel":"031-294-6090","addr":"경기도 수원시 권선구 구운동 899-2번지 1층 102호","category":"일반휴게음식 - 일식·회집"}]},{"lat":"37.276538413","long":"126.97367898","items":[{"name":"모아미용실","tel":"031-293-0302","addr":"경기도 수원시 권선구 구운동 517-6번지","category":"보건위생 - 미용원"}]},{"lat":"37.281177816","long":"126.97028312","items":[{"name":"모텔 실크로드","tel":"031-227-9080","addr":"경기도 수원시 권선구 구운동 928-3번지","category":"숙박업 - 여관/기타숙박업"}]},{"lat":"37.283206234","long":"126.97458978","items":[{"name":"목우촌바베큐마을","tel":"031-292-9245","addr":"경기도 수원시 권선구 구운동 911-8번지 외3필지","category":"일반휴게음식 - 일반한식"},{"name":"목우촌웰빙마을","tel":"031-292-9245","addr":"경기도 수원시 권선구 구운동 911-8번지","category":"음료식품 - 정육점"},{"name":"황소곱창구이","tel":"031-293-9229","addr":"경기도 수원시 권선구 구운동 911-8번지 101호(9,10,11)","category":"일반휴게음식 - 일반한식"}]},{"lat":"37.278259637","long":"126.97476077","items":[{"name":"목화마을","tel":"031-298-1737","addr":"경기도 수원시 권선구 구운동 494-2번지","category":"직물 - 침구·수예점"}]},{"lat":"37.276872357","long":"126.97605794","items":[{"name":"몽","tel":"031-278-7074","addr":"경기도 수원시 권선구 구운동 497-8번지","category":"일반휴게음식 - 일반한식"}]},{"lat":"37.273372542","long":"126.96256323","items":[{"name":"무지개풀","tel":"031-298-2300","addr":"경기도 수원시 권선구 구운동 597번지","category":"신변잡화 - 기타잡화"}]},{"lat":"37.282872958","long":"126.97502968","items":[{"name":"미(  )랑켈헤어테라피","tel":"031-293-7266","addr":"경기도 수원시 권선구 구운동 912-2번지","category":"보건위생 - 미용원"},{"name":"스타K 점핑다이어트","tel":"","addr":"경기도 수원시 권선구 구운동 912-2번지 3층","category":"건강식품 - 기타건강식품"},{"name":"아이앤맘","tel":"031-278-7173","addr":"경기도 수원시 권선구 구운동 912-2번지 101호","category":"의류 - 정장"},{"name":"파스칼비젼일월학원","tel":"031-297-3484","addr":"경기도 수원시 권선구 구운동 912-2번지 2층","category":"학원 - 보습학원"}]},{"lat":"37.277870947","long":"126.96992373","items":[{"name":"미니스톱 구운르본느점","tel":"031-1577-9621","addr":"경기도 수원시 권선구 구운동 955-4번지 1층","category":"유통업 영리 - 편 의 점"}]},{"lat":"37.281124537","long":"126.97325999","items":[{"name":"미니스톱 수원구운점","tel":"031-1577-9621","addr":"경기도 수원시 권선구 구운동 476번지 1층","category":"유통업 영리 - 편 의 점"},{"name":"프로헤어갤러리","tel":"031-295-2506","addr":"경기도 수원시 권선구 구운동 476번지 2층","category":"보건위생 - 미용원"},{"name":"프로헤어네일","tel":"031-295-2506","addr":"경기도 수원시 권선구 구운동 476번지 미용실내 2층","category":"신변잡화 - 액세서리"}]},{"lat":"37.275844496","long":"126.97317186","items":[{"name":"미선이네","tel":"031-291-0031","addr":"경기도 수원시 권선구 구운동 531-1번지 1층 103호","category":"일반휴게음식 - 일반한식"}]},{"lat":"37.276349854","long":"126.97647532","items":[{"name":"미소닭발","tel":"031-298-9929","addr":"경기도 수원시 권선구 구운동 511-3번지 1층","category":"일반휴게음식 - 일반한식"},{"name":"샤인뷰티헤어","tel":"031-278-2928","addr":"경기도 수원시 권선구 구운동 511-3번지 1층","category":"보건위생 - 미용원"}]},{"lat":"37.276538831","long":"126.97542665","items":[{"name":"미자네","tel":"070-8113-6540","addr":"경기도 수원시 권선구 구운동 512-3번지","category":"일반휴게음식 - 일반한식"}]},{"lat":"37.275511206","long":"126.9735328","items":[{"name":"미즈코리아","tel":"070-3369-2458","addr":"경기도 수원시 권선구 구운동 526-6번지 103호","category":"의류 - 내의판매"}]},{"lat":"37.280845156","long":"126.97301203","items":[{"name":"미친꽈배기","tel":"","addr":"경기도 수원시 권선구 구운동 471-13번지 1층","category":"일반휴게음식 - 일반한식"},{"name":"수정보석","tel":"031-292-0060","addr":"경기도 수원시 권선구 구운동 471-13번지 1층","category":"신변잡화 - 귀금속"}]},{"lat":"37.27704317","long":"126.97442296","items":[{"name":"민푸드","tel":"070-4042-5401","addr":"경기도 수원시 권선구 구운동 518-2번지 1층","category":"일반휴게음식 - 일반한식"},{"name":"정숙포차","tel":"031-405-4404","addr":"경기도 수원시 권선구 구운동 518-2번지 1층 101호","category":"일반휴게음식 - 일반한식"}]},{"lat":"37.278762816","long":"126.96939338","items":[{"name":"바른손꼬마또래수원대리점","tel":"031-296-6664","addr":"경기도 수원시 권선구 구운동 956-4번지 102호","category":"서적문구 - 문구용품"}]},{"lat":"37.275573624","long":"126.97100714","items":[{"name":"바하마브리즈 경기점","tel":"031-000-0000","addr":"경기도 수원시 권선구 구운동 538-7번지","category":"음료식품 - 기타음료식품"}]},{"lat":"37.280961299","long":"126.96931348","items":[{"name":"박네집송탄부대찌개전문점","tel":"031-291-7171","addr":"경기도 수원시 권선구 구운동 929-1번지","category":"일반휴게음식 - 일반한식"}]},{"lat":"37.275762961","long":"126.97145807","items":[{"name":"방글방글","tel":"031-000-0000","addr":"경기도 수원시 권선구 구운동 534-3번지 1층 102호","category":"일반휴게음식 - 주점"}]},{"lat":"37.274600469","long":"126.97083843","items":[{"name":"방범창","tel":"031-297-2845","addr":"경기도 수원시 권선구 구운동 541-1번지","category":"건축자재 - 보일러·펌프·샷시"},{"name":"행복푸드","tel":"031-297-4959","addr":"경기도 수원시 권선구 구운동 541-1번지 1층","category":"일반휴게음식 - 일반한식"},{"name":"행족복쌈","tel":"031-297-4959","addr":"경기도 수원시 권선구 구운동 541-1번지 1층","category":"일반휴게음식 - 일반한식"}]},{"lat":"37.284926691","long":"126.97255936","items":[{"name":"방주어린이집[아이행복]","tel":"031-294-1434","addr":"경기도 수원시 권선구 구운동 897-16번지","category":"학원 - 유아원"}]},{"lat":"37.282953621","long":"126.97325928","items":[{"name":"배트맨","tel":"031-293-3507","addr":"경기도 수원시 권선구 구운동 909-1번지 2층","category":"일반휴게음식 - 주점"},{"name":"연가네닭한마리","tel":"070-7545-7464","addr":"경기도 수원시 권선구 구운동 909-1번지","category":"일반휴게음식 - 일반한식"}]},{"lat":"37.283377442","long":"126.9746461","items":[{"name":"밴쿠버주니어칼리지학원","tel":"031-295-7905","addr":"경기도 수원시 권선구 구운동 911-4번지 3층","category":"학원 - 보습학원"},{"name":"이바돔감자탕","tel":"031-296-4800","addr":"경기도 수원시 권선구 구운동 911-4번지","category":"일반휴게음식 - 일반한식"},{"name":"티니팅스/(주)디알컴퍼니","tel":"070-8613-6477","addr":"경기도 수원시 권선구 구운동 911-4번지 2층","category":"직물 - 침구·수예점"}]},{"lat":"37.282926456","long":"126.97272931","items":[{"name":"베니스","tel":"031-1899-3272","addr":"경기도 수원시 권선구 구운동 908-8번지 1층","category":"일반휴게음식 - 일반한식"},{"name":"빙수가","tel":"031-294-7123","addr":"경기도 수원시 권선구 구운동 908-8번지 2층","category":"일반휴게음식 - 서양음식"}]},{"lat":"37.275538586","long":"126.97497601","items":[{"name":"보물찾기","tel":"","addr":"경기도 수원시 권선구 구운동 528-4번지 1층","category":"의류 - 정장"}]},{"lat":"37.276710335","long":"126.9767909","items":[{"name":"본 스튜디오","tel":"031-255-2222","addr":"경기도 수원시 권선구 구운동 509-1번지","category":"광학제품 - 사진관"}]},{"lat":"37.280539122","long":"126.97428633","items":[{"name":"부성 카 인테리어","tel":"031-298-2205","addr":"경기도 수원시 권선구 구운동 476-8번지 1층","category":"자동차정비 유지 - 자동차부품"}]},{"lat":"37.27453736","long":"126.97070315","items":[{"name":"부소곱창","tel":"031-295-2466","addr":"경기도 수원시 권선구 구운동 541번지 1층","category":"일반휴게음식 - 일반한식"}]},{"lat":"37.277512106","long":"126.97614792","items":[{"name":"붐비네식당","tel":"","addr":"경기도 수원시 권선구 구운동 500-7번지 1층","category":"일반휴게음식 - 일반한식"}]},{"lat":"37.283233098","long":"126.97390192","items":[{"name":"브릿지영어전문학원","tel":"","addr":"경기도 수원시 권선구 구운동 907-7번지 4층","category":"학원 - 외국어학원"},{"name":"일월국어수학영재만들기학원","tel":"031-291-5527","addr":"경기도 수원시 권선구 구운동 907-7번지 2층","category":"학원 - 보습학원"},{"name":"치어스구운점","tel":"031-293-0770","addr":"경기도 수원시 권선구 구운동 907-7번지 1층","category":"일반휴게음식 - 주점"}]},{"lat":"37.27784455","long":"126.97228031","items":[{"name":"블루에어컨","tel":"","addr":"경기도 수원시 권선구 구운동 948-9번지 202호","category":"용역 서비스 - 기타용역서비스"}]},{"lat":"37.276205697","long":"126.97650919","items":[{"name":"비비치킨","tel":"031-227-0296","addr":"경기도 수원시 권선구 구운동 511-4번지 1층","category":"일반휴게음식 - 일반한식"}]},{"lat":"37.282620359","long":"126.97373301","items":[{"name":"비아이빈(B I Bean)","tel":"031-227-7111","addr":"경기도 수원시 권선구 구운동 915-8번지","category":"일반휴게음식 - 서양음식"}]},{"lat":"37.27679099","long":"126.97487406","items":[{"name":"비에이치씨치킨 구운점","tel":"031-294-0518","addr":"경기도 수원시 권선구 구운동 518-6번지 1층","category":"일반휴게음식 - 스넥"},{"name":"올리비아하슬러(탑동점)","tel":"031-291-9922","addr":"경기도 수원시 권선구 구운동 518-6번지 상가 1층","category":"레져용품 - 스포츠·레져용품"},{"name":"현대노래연습장","tel":"031-291-3093","addr":"경기도 수원시 권선구 구운동 518-6번지 지층","category":"레저업소 - 노 래 방"}]},{"lat":"37.276176978","long":"126.96978916","items":[{"name":"비와이제이 커뮤니케이션","tel":"031-548-2072","addr":"경기도 수원시 권선구 구운동 297번지 뉴환희빌 401호","category":"건강식품 - 홍삼제품"}]},{"lat":"37.283926264","long":"126.97145467","items":[{"name":"비전수원","tel":"031-419-0396","addr":"경기도 수원시 권선구 구운동 903-11번지 101호","category":"서적문구 - 과학기자재"}]},{"lat":"37.277097873","long":"126.9772305","items":[{"name":"뽀글이빠글이","tel":"031-307-0396","addr":"경기도 수원시 권선구 구운동 504-9번지","category":"보건위생 - 미용원"},{"name":"새솔하우징","tel":"031-8081-4846","addr":"경기도 수원시 권선구 구운동 504-9번지 1층","category":"건축자재 - 목재·석재·철물"}]},{"lat":"37.276988932","long":"126.97370135","items":[{"name":"사랑방","tel":"031-278-7682","addr":"경기도 수원시 권선구 구운동 520번지","category":"일반휴게음식 - 일반한식"}]},{"lat":"37.277070353","long":"126.97506564","items":[{"name":"사회적협동조합경기창의영재교육원","tel":"031--294-0509","addr":"경기도 수원시 권선구 구운동 496-3번지 204호","category":"학원 - 기타 교육기관"},{"name":"진성공조","tel":"031-258-1133","addr":"경기도 수원시 권선구 구운동 496-3번지 (10호)","category":"전기제품 - 냉열기기"}]},{"lat":"37.276565134","long":"126.97244996","items":[{"name":"산내음공조","tel":"031-271-9911","addr":"경기도 수원시 권선구 구운동 522-2번지","category":"전기제품 - 냉열기기"},{"name":"신세기냉열","tel":"031-291-9911","addr":"경기도 수원시 권선구 구운동 522-2번지","category":"수리서비스 - 기타수리서비스"},{"name":"에어컨공조","tel":"031-271-9911","addr":"경기도 수원시 권선구 구운동 522-2번지","category":"전기제품 - 냉열기기"},{"name":"클린냉열시스템","tel":"031-224-2260","addr":"경기도 수원시 권선구 구운동 522-2번지 1층","category":"전기제품 - 냉열기기"}]},{"lat":"37.282458008","long":"126.97306778","items":[{"name":"산들쌈채","tel":"031-292-2345","addr":"경기도 수원시 권선구 구운동 909-6번지","category":"일반휴게음식 - 일반한식"}]},{"lat":"37.280349874","long":"126.97415109","items":[{"name":"산천녹수정","tel":"031-294-8553","addr":"경기도 수원시 권선구 구운동 474번지 1층","category":"일반휴게음식 - 일반한식"},{"name":"오광노래연습장","tel":"031-307-5557","addr":"경기도 수원시 권선구 구운동 474번지","category":"레저업소 - 노 래 방"}]},{"lat":"37.279015352","long":"126.97028405","items":[{"name":"삼성출판사수원유아교육본부","tel":"031-296-2928","addr":"경기도 수원시 권선구 구운동 952-4번지","category":"서적문구 - 출판 및 인쇄물"}]},{"lat":"37.276097967","long":"126.97833581","items":[{"name":"삼우전기조명","tel":"031-291-6872","addr":"경기도 수원시 권선구 구운동 507-6번지","category":"건축자재 - 조명기구"}]},{"lat":"37.286430193","long":"126.96814954","items":[{"name":"삼포수족관","tel":"031-296-4744","addr":"경기도 수원시 권선구 구운동 766번지","category":"문화.취미 - 수족관"}]},{"lat":"37.276791145","long":"126.97553931","items":[{"name":"상하이","tel":"031-292-3982","addr":"경기도 수원시 권선구 구운동 497-12번지 1층","category":"일반휴게음식 - 중국식"}]},{"lat":"37.277404051","long":"126.9764524","items":[{"name":"새길통신","tel":"031-232-4490","addr":"경기도 수원시 권선구 구운동 503-8번지 1층","category":"사무통신 - 통신기기"},{"name":"올댓 블라인드","tel":"031-291-9947","addr":"경기도 수원시 권선구 구운동 503-8번지 1층","category":"직물 - 카페트,커튼,천막,지물"}]},{"lat":"37.279125279","long":"126.97766957","items":[{"name":"새선경피아노교습소","tel":"031-893-5958","addr":"경기도 수원시 권선구 구운동 466번지 선경 상가 104호","category":"학원 - 예·체능계학원"}]},{"lat":"37.279015764","long":"126.97181754","items":[{"name":"샤넬헤어클리닉","tel":"031-293-7424","addr":"경기도 수원시 권선구 구운동 946-4번지","category":"보건위생 - 미용원"}]},{"lat":"37.279295467","long":"126.97331709","items":[{"name":"샤랄라","tel":"031-295-9706","addr":"경기도 수원시 권선구 구운동 486-6번지","category":"보건위생 - 미용원"},{"name":"호야","tel":"031-0000-0000","addr":"경기도 수원시 권선구 구운동 486-6번지 1층","category":"일반휴게음식 - 일반한식"}]},{"lat":"37.28395347","long":"126.97211997","items":[{"name":"샤크 노래연습장","tel":"031-295-1040","addr":"경기도 수원시 권선구 구운동 902-1번지 2층","category":"레저업소 - 노 래 방"}]},{"lat":"37.281097401","long":"126.97284279","items":[{"name":"서구부동산","tel":"031-291-3476","addr":"경기도 수원시 권선구 구운동 469","category":"용역 서비스 - 부동산 중개·임대"},{"name":"에스헤어스타일","tel":"","addr":"경기도 수원시 권선구 구운동 469번지","category":"보건위생 - 미용원"}]},{"lat":"37.276899059","long":"126.97464852","items":[{"name":"서문수족관","tel":"031-242-6364","addr":"경기도 수원시 권선구 구운동 518-4번지 지하상가","category":"문화.취미 - 수족관"}]},{"lat":"37.283988606","long":"126.96881597","items":[{"name":"서수원가하자동차공업사","tel":"031-296-4477","addr":"경기도 수원시 권선구 구운동 217-10번지","category":"자동차정비 유지 - 자동차정비"}]},{"lat":"37.274428944","long":"126.96964335","items":[{"name":"서수원농자재마트","tel":"031-295-7799","addr":"경기도 수원시 권선구 구운동 313-1번지 101호","category":"농업 - 비료,사료,종자"},{"name":"수원밧데리할인매장","tel":"031-291-7447","addr":"경기도 수원시 권선구 구운동 313-1번지 1층","category":"자동차정비 유지 - 자동차부품"},{"name":"어죽이네철렵국","tel":"031-291-1188","addr":"경기도 수원시 권선구 구운동 313-1번지","category":"일반휴게음식 - 일반한식"},{"name":"자연향기","tel":"","addr":"경기도 수원시 권선구 구운동 313-1번지 3층","category":"보건위생 - 화장품"},{"name":"컴테크","tel":"031-295-3633","addr":"경기도 수원시 권선구 구운동 313-1번지 1층","category":"자동차정비 유지 - 자동차부품"},{"name":"필드스크린골프존","tel":"031-296-5050","addr":"경기도 수원시 권선구 구운동 313-1번지","category":"레져용품 - 골프용품 전문점"}]},{"lat":"37.276402785","long":"126.97181861","items":[{"name":"서울우유","tel":"031-294-3433","addr":"경기도 수원시 권선구 구운동 536-7번지","category":"음료식품 - 기타음료식품"},{"name":"서울우유 수원남부가정고객센터","tel":"031-235-4065","addr":"경기도 수원시 권선구 구운동 536-7번지","category":"음료식품 - 기타음료식품"}]},{"lat":"37.277683546","long":"126.97725286","items":[{"name":"서진토스템 주식회사","tel":"031-221-6604","addr":"경기도 수원시 권선구 구운동 506-3번지","category":"용역 서비스 - 기타용역서비스"}]},{"lat":"37.277295655","long":"126.97525724","items":[{"name":"서현공조시스템","tel":"031-295-5150","addr":"경기도 수원시 권선구 구운동 498-11번지","category":"전기제품 - 가전제품"}]},{"lat":"37.278620331","long":"126.9759784","items":[{"name":"서호노인복지관","tel":"031-291-0911","addr":"경기도 수원시 권선구 구운동 501번지","category":"기타 - 비영리/대상"}]},{"lat":"37.274735744","long":"126.97128937","items":[{"name":"석쇠불고깃집","tel":"031-227-5211","addr":"경기도 수원시 권선구 구운동 541-4번지 1층일부","category":"일반휴게음식 - 일반한식"},{"name":"영광페인트","tel":"031-291-9975","addr":"경기도 수원시 권선구 구운동 541-4번지","category":"건축자재 - 페인트"}]},{"lat":"37.277016355","long":"126.97533627","items":[{"name":"선경유리","tel":"031-292-6262","addr":"경기도 수원시 권선구 구운동 497번지","category":"건축자재 - 유리"}]},{"lat":"37.279124477","long":"126.97415156","items":[{"name":"성광설비공사","tel":"031-295-8887","addr":"경기도 수원시 권선구 구운동 485-3번지","category":"용역 서비스 - 기타용역서비스"},{"name":"이문자헤어샵","tel":"031-292-4856","addr":"경기도 수원시 권선구 구운동 485-3번지","category":"보건위생 - 미용원"},{"name":"포도나무피아노교습소","tel":"070-1111-1111","addr":"경기도 수원시 권선구 구운동 485-3번지","category":"학원 - 예·체능계학원"}]},{"lat":"37.27490708","long":"126.97181923","items":[{"name":"성우종합공사","tel":"031-296-2332","addr":"경기도 수원시 권선구 구운동 139-43번지","category":"건축자재 - 보일러·펌프·샷시"},{"name":"에이스노래연습장","tel":"031-0000-0000","addr":"경기도 수원시 권선구 구운동 139-43번지 지층","category":"레저업소 - 노 래 방"}]},{"lat":"37.287870745","long":"126.96461918","items":[{"name":"세광가스(주)행복충전소","tel":"031-296-5151","addr":"경기도 수원시 권선구 구운동 680-1번지","category":"연료판매점 - GS 가스충전소"}]},{"lat":"37.277124357","long":"126.97481756","items":[{"name":"세란의원","tel":"031-294-7557","addr":"경기도 수원시 권선구 구운동 496-2번지","category":"의원 - 의원"},{"name":"준노래연습장","tel":"031-227-0373","addr":"경기도 수원시 권선구 구운동 496-2번지 2층","category":"레저업소 - 노 래 방"},{"name":"페리카나","tel":"031-292-6310","addr":"경기도 수원시 권선구 구운동 496-2번지","category":"일반휴게음식 - 스넥"},{"name":"휴먼의료기","tel":"031-291-2583","addr":"경기도 수원시 권선구 구운동 496-2번지 2층","category":"보건위생 - 의료용품"}]},{"lat":"37.276565925","long":"126.97569724","items":[{"name":"세방헤어샵","tel":"031-293-3025","addr":"경기도 수원시 권선구 구운동 512-5번지","category":"보건위생 - 미용원"},{"name":"시골민물메기매운탕","tel":"031-294-3265","addr":"경기도 수원시 권선구 구운동 512-5번지","category":"일반휴게음식 - 일반한식"},{"name":"왕솥뚜껑 삼겹살","tel":"031-548-0272","addr":"경기도 수원시 권선구 구운동 512-5번지 1층","category":"일반휴게음식 - 일반한식"}]},{"lat":"37.274483222","long":"126.9704213","items":[{"name":"세븐노래연습장","tel":"031-293-1555","addr":"경기도 수원시 권선구 구운동 542-5번지 1층","category":"레저업소 - 노 래 방"},{"name":"야옹아멍멍해봐","tel":"031-298-0049","addr":"경기도 수원시 권선구 구운동 542-5번지 1층","category":"문화.취미 - 애완동물"},{"name":"이쁘개 잘하개","tel":"031-222-7831","addr":"경기도 수원시 권선구 구운동 542-5번지","category":"문화.취미 - 애완동물"}]},{"lat":"37.285736651","long":"126.96900689","items":[{"name":"세이프아이","tel":"031-227-6212","addr":"경기도 수원시 권선구 구운동 20","category":"자동차정비 유지 - 자동차부품"}]},{"lat":"37.281295318","long":"126.97164746","items":[{"name":"세인트모텔","tel":"031-278-9796","addr":"경기도 수원시 권선구 구운동 924-4번지","category":"숙박업 - 여관/기타숙박업"},{"name":"세인트호텔","tel":"031-278-9796","addr":"경기도 수원시 권선구 구운동 924-4번지","category":"숙박업 - 여관/기타숙박업"}]},{"lat":"37.280565226","long":"126.97067804","items":[{"name":"세진켐바이오/원격지","tel":"031-292-4745","addr":"경기도 수원시 권선구 구운동 934-11번지 금호빌딩 2층 202호","category":"기타 - 기타 전문점"}]},{"lat":"37.284097489","long":"126.97156737","items":[{"name":"소명기획","tel":"031-417-9857","addr":"경기도 수원시 권선구 구운동 903-13번지 2층","category":"신변잡화 - 제화"}]},{"lat":"37.27929541","long":"126.97309158","items":[{"name":"소소한달콤함","tel":"031-000-0000","addr":"경기도 수원시 권선구 구운동 488-6번지 1층 1호","category":"음료식품 - 기타음료식품"},{"name":"피부사랑","tel":"031-8002-0013","addr":"경기도 수원시 권선구 구운동 488-6번지","category":"보건위생 - 화장품"}]},{"lat":"37.279205534","long":"126.97400494","items":[{"name":"소울컴패니(다윗)","tel":"031-795-4580","addr":"경기도 수원시 권선구 구운동 485-4번지 1층","category":"자동차정비 유지 - 자동차부품"}]},{"lat":"37.282179018","long":"126.97439847","items":[{"name":"손재환 세무사 사무소","tel":"031-298-9696","addr":"경기도 수원시 권선구 구운동 918-4번지 3층","category":"용역 서비스 - 법률회계서비스(개인)"},{"name":"엘레강스","tel":"031-238-6171","addr":"경기도 수원시 권선구 구운동 918-4번지 4층","category":"보건위생 - 화장품"},{"name":"지점&포차","tel":"031-278-3552","addr":"경기도 수원시 권선구 구운동 918-4번지 1층","category":"일반휴게음식 - 일반한식"}]},{"lat":"37.276763709","long":"126.97383675","items":[{"name":"손톱이야기","tel":"031-278-7681","addr":"경기도 수원시 권선구 구운동 517-8번지 1층","category":"보건위생 - 피부미용실"},{"name":"와이플러스와이 알라섬","tel":"031-294-3265","addr":"경기도 수원시 권선구 구운동 517-8번지 1층","category":"의류 - 정장"},{"name":"인옥헤어카페","tel":"031-293-2590","addr":"경기도 수원시 권선구 구운동 517-8번지","category":"보건위생 - 미용원"}]},{"lat":"37.284150774","long":"126.96875952","items":[{"name":"솔잎향기","tel":"031-293-4321","addr":"경기도 수원시 권선구 구운동 217-9","category":"일반휴게음식 - 일반한식"}]},{"lat":"37.279512155","long":"126.97514367","items":[{"name":"솔크린","tel":"","addr":"경기도 수원시 권선구 구운동 480-3번지 1층 101호","category":"용역 서비스 - 종합용역"}]},{"lat":"37.283260051","long":"126.97358617","items":[{"name":"수레와바퀴","tel":"031-296-2556","addr":"경기도 수원시 권선구 구운동 907-5번지","category":"자동차정비 유지 - 자동차정비"},{"name":"수레와바퀴","tel":"031-291-1272","addr":"경기도 수원시 권선구 구운동 907-5번지","category":"자동차정비 유지 - 자동차정비"}]},{"lat":"37.287015876","long":"126.96820566","items":[{"name":"수성복국","tel":"031-227-7738","addr":"경기도 수원시 권선구 구운동 757번지 1층","category":"일반휴게음식 - 일반한식"}]},{"lat":"37.276593532","long":"126.97833565","items":[{"name":"수원031","tel":"","addr":"경기도 수원시 권선구 구운동 507-1번지","category":"건축자재 - 인테리어전문"},{"name":"엘통상","tel":"031-278-1088","addr":"경기도 수원시 권선구 구운동 507-1","category":"자동차정비 유지 - 자동차부품"}]},{"lat":"37.275015303","long":"126.97220253","items":[{"name":"수원곱창","tel":"031-296-6347","addr":"경기도 수원시 권선구 구운동 139-158번지 1층","category":"일반휴게음식 - 일반한식"}]},{"lat":"37.275376223","long":"126.97423191","items":[{"name":"수원명품전자담배멀티샵","tel":"031-294-4953","addr":"경기도 수원시 권선구 구운동 529-6번지 1층서측","category":"기타 - 기타 전문점"},{"name":"좋은느낌","tel":"031-292-0408","addr":"경기도 수원시 권선구 구운동 529-6번지 1층","category":"의류 - 정장"}]},{"lat":"37.282764811","long":"126.97492823","items":[{"name":"수원성","tel":"031-227-6699","addr":"경기도 수원시 권선구 구운동 912-6번지 한솔홈타운 102호","category":"일반휴게음식 - 중국식"},{"name":"오버도즈(OVER DOZE)","tel":"031-295-1440","addr":"경기도 수원시 권선구 구운동 912-6번지 한솔홈타운 1층 101호","category":"일반휴게음식 - 서양음식"}]},{"lat":"37.275654944","long":"126.97186402","items":[{"name":"수원화성변기하수구막힘뚜러콜","tel":"02-1577-0000","addr":"경기도 수원시 권선구 구운동 139-62번지 구운빌 203호","category":"용역 서비스 - 종합용역"}]},{"lat":"37.276791725","long":"126.97817773","items":[{"name":"수인197김밥","tel":"031-278-0197","addr":"경기도 수원시 권선구 구운동 507-12번지 1층","category":"일반휴게음식 - 일반한식"},{"name":"이루다","tel":"031-295-2999","addr":"경기도 수원시 권선구 구운동 507-12번지 2층","category":"의류 - 기타의류"},{"name":"토속삼계탕","tel":"031-236-2809","addr":"경기도 수원시 권선구 구운동 507-12번지","category":"일반휴게음식 - 일반한식"},{"name":"포맨","tel":"031-291-3786","addr":"경기도 수원시 권선구 구운동 507-12번지","category":"보건위생 - 미용원"},{"name":"행복나눔","tel":"031-893-1963","addr":"경기도 수원시 권선구 구운동 507-12번지 지층","category":"건축자재 - 기타건축자재"}]},{"lat":"37.28076416","long":"126.97339545","items":[{"name":"수인선치킨닭발","tel":"031-295-0052","addr":"경기도 수원시 권선구 구운동 472-10번지","category":"일반휴게음식 - 일반한식"}]},{"lat":"37.278429445","long":"126.96942736","items":[{"name":"수하이테크","tel":"070-7619-5004","addr":"경기도 수원시 권선구 구운동 956-7번지 505호","category":"보건위생 - 화장품"}]},{"lat":"37.277898238","long":"126.97087086","items":[{"name":"수헤어(Soo Hair)","tel":"031-292-6710","addr":"경기도 수원시 권선구 구운동 953-8번지 유정빌딩 1층","category":"보건위생 - 미용원"},{"name":"에코콕(EcoKoch)","tel":"031-295-8112","addr":"경기도 수원시 권선구 구운동 953-8번지 유정빌딩 104호","category":"주방용구 - 주방용구"},{"name":"우성난방공사","tel":"031-892-8232","addr":"경기도 수원시 권선구 구운동 953-8번지 유정빌딩 101호","category":"전기제품 - 냉열기기"},{"name":"호매실장애인보호작업장","tel":"031-893-2192","addr":"경기도 수원시 권선구 구운동 953-8번지 유정빌딩 1층 102호","category":"음료식품 - 제과점"}]},{"lat":"37.275484433","long":"126.97459267","items":[{"name":"쉬즈미스수원탑동점","tel":"031-891-6438","addr":"경기도 수원시 권선구 구운동 528-1번지 1층","category":"의류 - 정장"},{"name":"이디야커피","tel":"031-292-6437","addr":"경기도 수원시 권선구 구운동 528-1번지 1층","category":"일반휴게음식 - 스넥"},{"name":"제이엠도서","tel":"031-293-3999","addr":"경기도 수원시 권선구 구운동 528-1번지 303호","category":"서적문구 - 일반서적"}]},{"lat":"37.275123591","long":"126.97284517","items":[{"name":"스마트스토리","tel":"031-111-1111","addr":"경기도 수원시 권선구 구운동 530-6번지","category":"사무통신 - 통신기기"},{"name":"신원","tel":"","addr":"경기도 수원시 권선구 구운동 530-6번지 1층","category":"레져용품 - 스포츠·레져용품"}]},{"lat":"37.279456963","long":"126.97067851","items":[{"name":"스시바라기","tel":"031-111-1111","addr":"경기도 수원시 권선구 구운동 935-6번지 해피하우스 3동 1층 101호","category":"일반휴게음식 - 일식·회집"}]},{"lat":"37.279015615","long":"126.97125375","items":[{"name":"스시앤참치","tel":"031-296-2933","addr":"경기도 수원시 권선구 구운동 946-1번지","category":"일반휴게음식 - 일반한식"}]},{"lat":"37.284313979","long":"126.97250322","items":[{"name":"스타(star)","tel":"031-298-1155","addr":"경기도 수원시 권선구 구운동 898-4번지 1층","category":"일반휴게음식 - 서양음식"}]},{"lat":"37.275709313","long":"126.97305916","items":[{"name":"스터디캐슬 공부방","tel":"","addr":"경기도 수원시 권선구 구운동 531-7번지 202호","category":"학원 - 기타 교육기관"}]},{"lat":"37.277628203","long":"126.97189704","items":[{"name":"스팅 노래연습장","tel":"031-296-1269","addr":"경기도 수원시 권선구 구운동 962-5번지 2층","category":"레저업소 - 노 래 방"},{"name":"웃으면돼지","tel":"031-2970-0703","addr":"경기도 수원시 권선구 구운동 962-5번지 1층 101호","category":"일반휴게음식 - 일반한식"}]},{"lat":"37.275655874","long":"126.9756412","items":[{"name":"스포츠멀티아울렛","tel":"031-297-4498","addr":"경기도 수원시 권선구 구운동 139-84번지","category":"레져용품 - 스포츠·레져용품"}]},{"lat":"37.279015103","long":"126.96939327","items":[{"name":"스피드메이트서수원","tel":"","addr":"경기도 수원시 권선구 구운동 956-2번지","category":"자동차정비 유지 - 자동차정비"}]},{"lat":"37.282899853","long":"126.97445458","items":[{"name":"승리당구클럽","tel":"031-241-7435","addr":"경기도 수원시 권선구 구운동 913-1번지 2층","category":"레저업소 - 당 구 장"},{"name":"신공부의신독서실","tel":"031-293-2772","addr":"경기도 수원시 권선구 구운동 913-1번지","category":"학원 - 독서실"},{"name":"어촌마을","tel":"031-227-8859","addr":"경기도 수원시 권선구 구운동 913-1번지","category":"음료식품 - 기타음료식품"}]},{"lat":"37.279015893","long":"126.97231367","items":[{"name":"시골밥상","tel":"031-296-0371","addr":"경기도 수원시 권선구 구운동 946-7번지","category":"일반휴게음식 - 일반한식"},{"name":"조원전기","tel":"031-297-2223","addr":"경기도 수원시 권선구 구운동 946-7번지 1층 102호","category":"전기제품 - 기타전기제품"}]},{"lat":"37.278457903","long":"126.97492982","items":[{"name":"시트플러스","tel":"031-8709-8705","addr":"경기도 수원시 권선구 구운동 494번지","category":"자동차정비 유지 - 자동차시트·타이어"}]},{"lat":"37.275294973","long":"126.97358926","items":[{"name":"신김밥나라","tel":"031-292-6088","addr":"경기도 수원시 권선구 구운동 529번지","category":"일반휴게음식 - 일반한식"},{"name":"양지보석","tel":"031-296-5880","addr":"경기도 수원시 권선구 구운동 529번지","category":"신변잡화 - 귀금속"},{"name":"장재성헤어","tel":"031-294-5234","addr":"경기도 수원시 권선구 구운동 529번지","category":"보건위생 - 미용원"}]},{"lat":"37.277178657","long":"126.9758436","items":[{"name":"신세계키즈푸드","tel":"070-4319-2914","addr":"경기도 수원시 권선구 구운동 498-7번지 상가 1층","category":"음료식품 - 기타음료식품"}]},{"lat":"37.277322346","long":"126.97383653","items":[{"name":"신일기획","tel":"031-292-8015","addr":"경기도 수원시 권선구 구운동 519-4번지","category":"유통업 영리 - 기타유통업"}]},{"lat":"37.27887115","long":"126.9701488","items":[{"name":"신흥카서비스","tel":"031-278-4951","addr":"경기도 수원시 권선구 구운동 952-12번지","category":"자동차정비 유지 - 자동차정비"}]},{"lat":"37.285402522","long":"126.96648108","items":[{"name":"싱싱포도원","tel":"070-7077-8147","addr":"경기도 수원시 권선구 구운동 838번지","category":"음료식품 - 농·축·수산품"}]},{"lat":"37.279015806","long":"126.9719754","items":[{"name":"싸인클럽광고","tel":"031-293-0490","addr":"경기도 수원시 권선구 구운동 946-5번지 1층","category":"건축자재 - 인테리어전문"}]},{"lat":"37.28015128","long":"126.97267403","items":[{"name":"쌍둥이(국가대표)","tel":"031-291-8187","addr":"경기도 수원시 권선구 구운동 471-7번지","category":"음료식품 - 정육점"}]},{"lat":"37.279681958","long":"126.96973125","items":[{"name":"쌍용하이테크정비센터","tel":"070-7562-2616","addr":"경기도 수원시 권선구 구운동 932-6번지","category":"자동차정비 유지 - 자동차정비"}]},{"lat":"37.278016","long":"126.97328376","items":[{"name":"썬호프","tel":"","addr":"경기도 수원시 권선구 구운동 493-17번지 101호","category":"일반휴게음식 - 주점"},{"name":"하모니분식","tel":"031-080-8000","addr":"경기도 수원시 권선구 구운동 493-17번지 1층","category":"일반휴게음식 - 일반한식"}]},{"lat":"37.275906839","long":"126.97039814","items":[{"name":"씨스페이스구운점","tel":"031-292-5558","addr":"경기도 수원시 권선구 구운동 537-6번지 1층","category":"유통업 영리 - 편 의 점"}]},{"lat":"37.276683272","long":"126.97664433","items":[{"name":"씨유구운플라워점","tel":"031-278-4333","addr":"경기도 수원시 권선구 구운동 509번지 1층","category":"유통업 영리 - 편 의 점"}]},{"lat":"37.280150754","long":"126.97067821","items":[{"name":"씨유수원구운로점","tel":"031-278-6458","addr":"경기도 수원시 권선구 구운동 934-8번지 1층","category":"유통업 영리 - 편 의 점"}]},{"lat":"37.2774846","long":"126.97411835","items":[{"name":"씨유수원구운점","tel":"031-296-8954","addr":"경기도 수원시 권선구 구운동 493-10번지","category":"유통업 영리 - 편 의 점"},{"name":"정엔지니어링","tel":"031-296-2723","addr":"경기도 수원시 권선구 구운동 493-10번지","category":"건축자재 - 목재·석재·철물"}]},{"lat":"37.285655465","long":"126.9686799","items":[{"name":"씽크박사씽크마트","tel":"031-292-2177","addr":"경기도 수원시 권선구 구운동 18번지 고산빌딩 2층","category":"주방용구 - 주방용구"},{"name":"하드스포츠(Hard Sports)","tel":"031-227-4221","addr":"경기도 수원시 권선구 구운동 18번지 2층 2호","category":"보건위생 - 의료용품"}]},{"lat":"37.277871305","long":"126.97123168","items":[{"name":"씽크빌","tel":"031-292-4561","addr":"경기도 수원시 권선구 구운동 950-9번지","category":"가구 - 일반가구"}]},{"lat":"37.278709833","long":"126.97345263","items":[{"name":"아르미","tel":"070-8210-9352","addr":"경기도 수원시 권선구 구운동 491-1번지","category":"건강식품 - 기타건강식품"}]},{"lat":"37.283151881","long":"126.97339452","items":[{"name":"아리갓뿌","tel":"031-296-1203","addr":"경기도 수원시 권선구 구운동 907-13번지 1층","category":"일반휴게음식 - 일반한식"}]},{"lat":"37.277483959","long":"126.97159266","items":[{"name":"아미텍스타일","tel":"031-5856-9722","addr":"경기도 수원시 권선구 구운동 962-8번지","category":"의류 - 정장"}]},{"lat":"37.277511472","long":"126.97347564","items":[{"name":"아씨방홈패션","tel":"031-291-9347","addr":"경기도 수원시 권선구 구운동 519-1번지","category":"직물 - 카페트,커튼,천막,지물"}]},{"lat":"37.284321943","long":"126.96866923","items":[{"name":"아이더 서수원점","tel":"031-227-3732","addr":"경기도 수원시 권선구 구운동 217-1 1층","category":"의류 - 스포츠의류"}]},{"lat":"37.279656061","long":"126.97406115","items":[{"name":"아이세상어린이집[아이행복]","tel":"031-269-6827","addr":"경기도 수원시 권선구 구운동 486번지","category":"학원 - 유아원"}]},{"lat":"37.27917865","long":"126.97461384","items":[{"name":"아이세움수학교습소","tel":"031-291-5400","addr":"경기도 수원시 권선구 구운동 484-1번지 1층","category":"회원제형태 - 학원"}]},{"lat":"37.27465457","long":"126.97098498","items":[{"name":"아이스빠","tel":"031-293-5084","addr":"경기도 수원시 권선구 구운동 541-2번지 1층","category":"음료식품 - 기타음료식품"},{"name":"일층집","tel":"031-223-5214","addr":"경기도 수원시 권선구 구운동 541-2번지 1층","category":"일반휴게음식 - 일반한식"},{"name":"죽마고우","tel":"031-278-3738","addr":"경기도 수원시 권선구 구운동 541-2번지","category":"일반휴게음식 - 주점"}]},{"lat":"37.277871864","long":"126.97339658","items":[{"name":"아이스빠","tel":"","addr":"경기도 수원시 권선구 구운동 493-16번지 103호","category":"음료식품 - 기타음료식품"},{"name":"하나로종합상사","tel":"031-236-5808","addr":"경기도 수원시 권선구 구운동 493-16번지 1층","category":"기타 - 기계공구"}]},{"lat":"37.27524043","long":"126.97170634","items":[{"name":"아이지니","tel":"070-1111-1111","addr":"경기도 수원시 권선구 구운동 139-65번지 삼성맨션 403호","category":"의류 - 정장"}]},{"lat":"37.279015675","long":"126.97147927","items":[{"name":"아재불닭발","tel":"031-298-3275","addr":"경기도 수원시 권선구 구운동 946-2번지 송학빌딩 102호","category":"일반휴게음식 - 일반한식"},{"name":"주식회사 올유","tel":"031-292-9455","addr":"경기도 수원시 권선구 구운동 946-2번지 송학빌딩 101-1호","category":"사무통신 - 통신기기"},{"name":"치키토스포츠","tel":"","addr":"경기도 수원시 권선구 구운동 946-2번지 송학빌딩 101호","category":"학원 - 기타 교육기관"}]},{"lat":"37.28331433","long":"126.97447698","items":[{"name":"아트앤하트서경미술학원","tel":"031-292-5542","addr":"경기도 수원시 권선구 구운동 911-3번지 2층","category":"학원 - 예·체능계학원"},{"name":"일월서경음악학원","tel":"031-292-5543","addr":"경기도 수원시 권선구 구운동 911-3번지","category":"학원 - 예·체능계학원"},{"name":"파리바게뜨(일월점)","tel":"031-227-2367","addr":"경기도 수원시 권선구 구운동 911-3번지 1층","category":"음료식품 - 제과점"}]},{"lat":"37.277043559","long":"126.97609171","items":[{"name":"야미가","tel":"031-278-2580","addr":"경기도 수원시 권선구 구운동 497-4번지","category":"일반휴게음식 - 일반한식"}]},{"lat":"37.276989604","long":"126.97656529","items":[{"name":"야옹이헤어","tel":"031-296-9989","addr":"경기도 수원시 권선구 구운동 504-14번지 1층","category":"보건위생 - 미용원"}]},{"lat":"37.282539064","long":"126.97292115","items":[{"name":"양지낙지마당","tel":"031-292-3334","addr":"경기도 수원시 권선구 구운동 909-7번지 옥빌딩","category":"일반휴게음식 - 일반한식"},{"name":"인생냉면 구운점/(주)박가네","tel":"031-227-7207","addr":"경기도 수원시 권선구 구운동 909-7번지 옥빌딩 2층","category":"일반휴게음식 - 일반한식"}]},{"lat":"37.276762519","long":"126.96933789","items":[{"name":"양지크레인","tel":"031-338-5555","addr":"경기도 수원시 권선구 구운동 282-4번지","category":"기타 - 기타 전문점"}]},{"lat":"37.274211671","long":"126.96617077","items":[{"name":"양평해장국","tel":"","addr":"경기도 수원시 권선구 구운동 634번지 101호","category":"일반휴게음식 - 일반한식"},{"name":"칠보스크린골프","tel":"","addr":"경기도 수원시 권선구 구운동 634번지 2층","category":"레져용품 - 골프용품 전문점"}]},{"lat":"37.278962366","long":"126.97445606","items":[{"name":"어글리(ugly)케이스","tel":"","addr":"경기도 수원시 권선구 구운동 484-3번지 201호","category":"신변잡화 - 기타잡화"}]},{"lat":"37.279321538","long":"126.96969758","items":[{"name":"억희네감자탕","tel":"031-298-3767","addr":"경기도 수원시 권선구 구운동 935-22번지 1층","category":"일반휴게음식 - 일반한식"},{"name":"유진냉동","tel":"","addr":"경기도 수원시 권선구 구운동 935-22번지 태성빌딩 301호","category":"전기제품 - 가전제품"}]},{"lat":"37.279763364","long":"126.97087007","items":[{"name":"에덴캐터링","tel":"031-278-7798","addr":"경기도 수원시 권선구 구운동 935-11번지","category":"일반휴게음식 - 일반한식"}]},{"lat":"37.280898445","long":"126.97009154","items":[{"name":"에스모텔","tel":"031-291-6030","addr":"경기도 수원시 권선구 구운동 928-11번지","category":"숙박업 - 여관/기타숙박업"}]},{"lat":"37.27923262","long":"126.97423045","items":[{"name":"에어웰","tel":"070-4157-7856","addr":"경기도 수원시 권선구 구운동 485-2번지","category":"회원제형태 - 기타4"}]},{"lat":"37.280096484","long":"126.96992276","items":[{"name":"에어컨오디션2","tel":"031-282-6285","addr":"경기도 수원시 권선구 구운동 932-2 101 21/1","category":"용역 서비스 - 기타용역서비스"}]},{"lat":"37.27901585","long":"126.97214453","items":[{"name":"에이엠집밥피엠고기(AM집밥PM고기)","tel":"031-292-2883","addr":"경기도 수원시 권선구 구운동 946-6번지","category":"일반휴게음식 - 일반한식"}]},{"lat":"37.279763781","long":"126.97244867","items":[{"name":"에이원피씨(A-ONE PC)","tel":"070-6330-8648","addr":"경기도 수원시 권선구 구운동 942-3번지 1층","category":"레저업소 - 기타레져업소"},{"name":"오케이 노래연습장","tel":"031-292-1160","addr":"경기도 수원시 권선구 구운동 942-3번지 2층","category":"레저업소 - 노 래 방"}]},{"lat":"37.275844298","long":"126.97239388","items":[{"name":"에프에스 코리아 (FS KOREA)","tel":"031-296-1358","addr":"경기도 수원시 권선구 구운동 532-1번지","category":"자동차정비 유지 - 윤활유 전문 판매"}]},{"lat":"37.279628627","long":"126.97244873","items":[{"name":"엔씨스포츠(주)","tel":"031-231-2123","addr":"경기도 수원시 권선구 구운동 942-4번지 2층","category":"의류 - 정장"},{"name":"와요와요","tel":"031-278-3255","addr":"경기도 수원시 권선구 구운동 942-4번지","category":"일반휴게음식 - 주점"}]},{"lat":"37.280872235","long":"126.97320371","items":[{"name":"여기식당","tel":"031-291-0895","addr":"경기도 수원시 권선구 구운동 471번지","category":"일반휴게음식 - 일반한식"},{"name":"케어존","tel":"031-292-4847","addr":"경기도 수원시 권선구 구운동 471번지","category":"보건위생 - 의료용품"}]},{"lat":"37.275934502","long":"126.97278847","items":[{"name":"영건","tel":"031-1800-0847","addr":"경기도 수원시 권선구 구운동 532-4번지","category":"건축자재 - 인테리어전문"}]},{"lat":"37.280763771","long":"126.9718732","items":[{"name":"영교서적","tel":"031-298-5700","addr":"경기도 수원시 권선구 구운동 940-4번지","category":"회원제형태 - 서적"}]},{"lat":"37.275817232","long":"126.97225858","items":[{"name":"영우유통","tel":"070-4245-2981","addr":"경기도 수원시 권선구 구운동 532번지","category":"음료식품 - 농·축·수산품"}]},{"lat":"37.276484013","long":"126.97233724","items":[{"name":"영일냉동설비","tel":"031-295-5551","addr":"경기도 수원시 권선구 구운동 522-1번지","category":"전기제품 - 냉열기기"}]},{"lat":"37.277628384","long":"126.97259611","items":[{"name":"예림에어컨","tel":"","addr":"경기도 수원시 권선구 구운동 963-4번지","category":"용역 서비스 - 기타용역서비스"}]},{"lat":"37.276592994","long":"126.97586636","items":[{"name":"예스푸드","tel":"031-298-6611","addr":"경기도 수원시 권선구 구운동 512-6번지 1층 102호","category":"일반휴게음식 - 일반한식"},{"name":"옛날종로빈대떡","tel":"","addr":"경기도 수원시 권선구 구운동 512-6번지","category":"일반휴게음식 - 일반한식"}]},{"lat":"37.275231811","long":"126.97322848","items":[{"name":"예인한복대여전문점","tel":"031-294-5353","addr":"경기도 수원시 권선구 구운동 530-3번지","category":"의류 - 맞춤복점"}]},{"lat":"37.284953765","long":"126.9727285","items":[{"name":"예지주방","tel":"031-294-6984","addr":"경기도 수원시 권선구 구운동 897-17번지","category":"주방용구 - 주방용구"}]},{"lat":"37.280763958","long":"126.97259486","items":[{"name":"옛날국수","tel":"031-292-4506","addr":"경기도 수원시 권선구 구운동 469-3번지","category":"일반휴게음식 - 스넥"},{"name":"위디컴퓨터","tel":"070-8699-6738","addr":"경기도 수원시 권선구 구운동 469-3번지 1층 일부","category":"수리서비스 - 사무·통신기기수리"}]},{"lat":"37.275601233","long":"126.97322833","items":[{"name":"옛날통닭","tel":"","addr":"경기도 수원시 권선구 구운동 531-3번지 1층","category":"일반휴게음식 - 일반한식"}]},{"lat":"37.280592734","long":"126.97248217","items":[{"name":"오거리막창","tel":"031-294-3265","addr":"경기도 수원시 권선구 구운동 470-1번지 1층 101호","category":"일반휴게음식 - 일반한식"}]},{"lat":"37.274708435","long":"126.97026336","items":[{"name":"오대산농산","tel":"031-643-1090","addr":"경기도 수원시 권선구 구운동 309-3번지 1층","category":"음료식품 - 기타음료식품"}]},{"lat":"37.279484046","long":"126.97087018","items":[{"name":"오케이(OK)마트","tel":"031-234-7489","addr":"경기도 수원시 권선구 구운동 935-27번지 가동 1층 101호","category":"유통업 영리 - 슈퍼마켓"}]},{"lat":"37.276179168","long":"126.97886572","items":[{"name":"오토오아시스구운점","tel":"031-295-3944","addr":"경기도 수원시 권선구 구운동 507-20번지","category":"자동차정비 유지 - 자동차정비"}]},{"lat":"37.277484269","long":"126.97278785","items":[{"name":"오토티엠","tel":"031-292-5973","addr":"경기도 수원시 권선구 구운동 963-9번지 1층","category":"자동차정비 유지 - 자동차정비"}]},{"lat":"37.283430933","long":"126.97234571","items":[{"name":"오후(ohoo)","tel":"031-291-8749","addr":"경기도 수원시 권선구 구운동 901-4번지 1층","category":"일반휴게음식 - 주점"},{"name":"자금성","tel":"031-295-3330","addr":"경기도 수원시 권선구 구운동 901-4번지","category":"일반휴게음식 - 중국식"}]},{"lat":"37.27628733","long":"126.97905737","items":[{"name":"옥션빌리어드","tel":"070-7789-3949","addr":"경기도 수원시 권선구 구운동 507-21번지 2층","category":"레져용품 - 스포츠·레져용품"},{"name":"제일광고기획","tel":"031-294-9111","addr":"경기도 수원시 권선구 구운동 507-21번지 외 507-22","category":"건축자재 - 인테리어전문"},{"name":"제일그래픽","tel":"031-292-3323","addr":"경기도 수원시 권선구 구운동 507-21번지 3층","category":"건축자재 - 인테리어전문"}]},{"lat":"37.276565757","long":"126.97497563","items":[{"name":"온누리폐백","tel":"070-7801-4413","addr":"경기도 수원시 권선구 구운동 512-15번지","category":"음료식품 - 기타음료식품"}]},{"lat":"37.275511491","long":"126.97470541","items":[{"name":"올리비아로렌 수원탑동점","tel":"031-293-0521","addr":"경기도 수원시 권선구 구운동 528-2번지","category":"레져용품 - 스포츠·레져용품"},{"name":"탑국수집","tel":"031-0312-9612","addr":"경기도 수원시 권선구 구운동 528-2번지","category":"일반휴게음식 - 일반한식"}]},{"lat":"37.27992596","long":"126.97242606","items":[{"name":"올바로건설(주)","tel":"031-292-0459","addr":"경기도 수원시 권선구 구운동 942-2번지 2층 202호","category":"건축자재 - 인테리어전문"},{"name":"주식회사코넷중부","tel":"031-237-9880","addr":"경기도 수원시 권선구 구운동 942-2번지 정민빌딩 2층","category":"사무통신 - 사무용 OA기기"},{"name":"하모니마트 구운점","tel":"031-292-3633","addr":"경기도 수원시 권선구 구운동 942-2번지 정민빌리지 1층","category":"유통업 영리 - 슈퍼마켓"}]},{"lat":"37.283016622","long":"126.97297735","items":[{"name":"와 스포츠(WA SPORTS)","tel":"031-111-1111","addr":"경기도 수원시 권선구 구운동 908-2번지 한진빌딩 4층 402호","category":"레져용품 - 스포츠·레져용품"},{"name":"한진생고기","tel":"031-291-5775","addr":"경기도 수원시 권선구 구운동 908-2번지","category":"일반휴게음식 - 일반한식"},{"name":"한진육가공","tel":"031-291-5775","addr":"경기도 수원시 권선구 구운동 908-2번지","category":"음료식품 - 정육점"}]},{"lat":"37.282656143","long":"126.97270686","items":[{"name":"와룡각","tel":"031-293-7772","addr":"경기도 수원시 권선구 구운동 908-5번지","category":"일반휴게음식 - 일반한식"}]},{"lat":"37.276042489","long":"126.97225849","items":[{"name":"와이티케이 주식회사(YTK)","tel":"02-324-0236","addr":"경기도 수원시 권선구 구운동 523-5번지 101호","category":"연료판매점 - 유류판매"}]},{"lat":"37.282791322","long":"126.97280829","items":[{"name":"용궁바다횟집","tel":"031-278-3103","addr":"경기도 수원시 권선구 구운동 908-4번지","category":"일반휴게음식 - 일식·회집"}]},{"lat":"37.282287233","long":"126.97478182","items":[{"name":"용쌤의술창고","tel":"031-256-2582","addr":"경기도 수원시 권선구 구운동 918-7번지 1층","category":"일반휴게음식 - 주점"}]},{"lat":"37.282566599","long":"126.97498469","items":[{"name":"용추골미궁순대","tel":"031-296-6750","addr":"경기도 수원시 권선구 구운동 912-5번지","category":"일반휴게음식 - 일반한식"}]},{"lat":"37.279259863","long":"126.97512122","items":[{"name":"우리농산물","tel":"031-111-1111","addr":"경기도 수원시 권선구 구운동 480-5번지","category":"음료식품 - 농·축·수산품"}]},{"lat":"37.279989582","long":"126.97464736","items":[{"name":"우리에스티","tel":"070-4205-7264","addr":"경기도 수원시 권선구 구운동 478-7번지","category":"서적문구 - 과학기자재"}]},{"lat":"37.27640354","long":"126.97484038","items":[{"name":"우리유통","tel":"031-8025-2978","addr":"경기도 수원시 권선구 구운동 514-12번지","category":"음료식품 - 기타음료식품"}]},{"lat":"37.283988097","long":"126.96709068","items":[{"name":"우주정육점","tel":"031-233-7945","addr":"경기도 수원시 권선구 구운동 235-1번지 B동","category":"음료식품 - 정육점"}]},{"lat":"37.278070904","long":"126.97686936","items":[{"name":"웃거리노래연습장","tel":"031-295-6405","addr":"경기도 수원시 권선구 구운동 502-3번지","category":"레저업소 - 노 래 방"},{"name":"장수염소탕","tel":"031-291-9247","addr":"경기도 수원시 권선구 구운동 502-3번지 1층","category":"일반휴게음식 - 일반한식"}]},{"lat":"37.279294633","long":"126.97014862","items":[{"name":"원더킹콩학원","tel":"031-292-2626","addr":"경기도 수원시 권선구 구운동 935-23번지 201,202,301호","category":"학원 - 보습학원"},{"name":"킹콩","tel":"031-255-0037","addr":"경기도 수원시 권선구 구운동 935-23번지 101호","category":"일반휴게음식 - 서양음식"}]},{"lat":"37.27689942","long":"126.97620451","items":[{"name":"월드미용실","tel":"031-000-0000","addr":"경기도 수원시 권선구 구운동 497-7번지","category":"보건위생 - 미용원"},{"name":"월드정수기","tel":"031-296-7115","addr":"경기도 수원시 권선구 구운동 497-7번지 1층","category":"회원제형태 - 기타4"},{"name":"풍경","tel":"031-292-5840","addr":"경기도 수원시 권선구 구운동 497-7번지","category":"의류 - 정장"}]},{"lat":"37.276268152","long":"126.97387076","items":[{"name":"웨이브 (wave)0126","tel":"02-1111-1111","addr":"경기도 수원시 권선구 구운동 516-5번지 102호","category":"기타 - 기계공구"}]},{"lat":"37.28604289","long":"126.96862334","items":[{"name":"위너스크린골프","tel":"031-278-7711","addr":"경기도 수원시 권선구 구운동 13번지 301호","category":"회원제형태 - 레져업소"},{"name":"전국작가의모임 패밀리포토 수원점","tel":"031-243-8880","addr":"경기도 수원시 권선구 구운동 13번지 3층 302호","category":"광학제품 - 사진관"}]},{"lat":"37.276565836","long":"126.97531388","items":[{"name":"유로코피자권선점","tel":"","addr":"경기도 수원시 권선구 구운동 512-2번지 1층","category":"일반휴게음식 - 서양음식"},{"name":"행운건어물포차","tel":"","addr":"경기도 수원시 권선구 구운동 512-2번지 1층","category":"일반휴게음식 - 주점"}]},{"lat":"37.28481846","long":"126.97214217","items":[{"name":"은설보신장","tel":"031-295-1330","addr":"경기도 수원시 권선구 구운동 897-14번지","category":"일반휴게음식 - 일반한식"}]},{"lat":"37.275537433","long":"126.97045468","items":[{"name":"은진요리학원","tel":"031-292-9340","addr":"경기도 수원시 권선구 구운동 538-11번지","category":"회원제형태 - 학원"}]},{"lat":"37.278655198","long":"126.97123135","items":[{"name":"이마트24 수원구운점","tel":"031-000-0000","addr":"경기도 수원시 권선구 구운동 950-1번지 101호","category":"유통업 영리 - 편 의 점"},{"name":"이마트24 수원구운점","tel":"031-000-0000","addr":"경기도 수원시 권선구 구운동 950-1번지 101호","category":"유통업 영리 - 편 의 점"}]},{"lat":"37.276539552","long":"126.97873031","items":[{"name":"이불개는남자","tel":"","addr":"경기도 수원시 권선구 구운동 507-18번지 금둔빌딩 1층 103호","category":"직물 - 침구·수예점"},{"name":"이불개는남자/주식회사 가람테크","tel":"031-294-0877","addr":"경기도 수원시 권선구 구운동 507-18번지 금둔빌딩 1층","category":"직물 - 침구·수예점"}]},{"lat":"37.27612504","long":"126.97853876","items":[{"name":"이지훈동물병원","tel":"031-295-5975","addr":"경기도 수원시 권선구 구운동 507-5번지","category":"기타의료기관 - 동물병원"},{"name":"이플러스","tel":"031-224-4345","addr":"경기도 수원시 권선구 구운동 507-5번지 2층","category":"용역 서비스 - 종합용역"},{"name":"커피랑술이랑","tel":"031-293-7732","addr":"경기도 수원시 권선구 구운동 507-5번지 지하1층","category":"일반휴게음식 - 일반한식"}]},{"lat":"37.282151673","long":"126.97312428","items":[{"name":"이천영양돌솥밥","tel":"031-298-4567","addr":"경기도 수원시 권선구 구운동 919-3번지","category":"일반휴게음식 - 일반한식"},{"name":"허니당구클럽","tel":"070-7756-4139","addr":"경기도 수원시 권선구 구운동 919-3번지 2층","category":"레저업소 - 당 구 장"}]},{"lat":"37.283314009","long":"126.97316893","items":[{"name":"이튼사관학원","tel":"032-548-1557","addr":"경기도 수원시 권선구 구운동 907-2번지 3층","category":"학원 - 보습학원"},{"name":"한가네숯불닭갈비","tel":"031-227-4792","addr":"경기도 수원시 권선구 구운동 907-2번지 1층","category":"일반휴게음식 - 일반한식"}]},{"lat":"37.279322075","long":"126.97167083","items":[{"name":"인정자동차유리","tel":"031-304-8488","addr":"경기도 수원시 권선구 구운동 943-7번지 1층 102호","category":"자동차정비 유지 - 자동차부품"}]},{"lat":"37.280683226","long":"126.97403821","items":[{"name":"인포스","tel":"031-242-6998","addr":"경기도 수원시 권선구 구운동 476-6번지","category":"자동차정비 유지 - 가타자동차서비스"}]},{"lat":"37.276790795","long":"126.97406224","items":[{"name":"인포유디자인","tel":"031-268-4234","addr":"경기도 수원시 권선구 구운동 517번지 202호","category":"건축자재 - 인테리어전문"}]},{"lat":"37.284260024","long":"126.97292047","items":[{"name":"일월보릿길","tel":"031-292-7778","addr":"경기도 수원시 권선구 구운동 899-1번지","category":"일반휴게음식 - 일반한식"},{"name":"일월보릿길","tel":"031-292-7778","addr":"경기도 수원시 권선구 구운동 899-1번지 1층","category":"일반휴게음식 - 일반한식"}]},{"lat":"37.283899932","long":"126.97420612","items":[{"name":"일월초등학교","tel":"031-298-4303","addr":"경기도 수원시 권선구 구운동 891번지 일월초등학교","category":"학원 - 초중고교육기관"},{"name":"일월초등학교병설유치원[아이행복]","tel":"031-298-4330","addr":"경기도 수원시 권선구 구운동 891번지 일월초등학교","category":"학원 - 유치원"}]},{"lat":"37.283565778","long":"126.97117292","items":[{"name":"일월카센타","tel":"031-293-3637","addr":"경기도 수원시 권선구 구운동 903-8번지","category":"자동차정비 유지 - 자동차정비"}]},{"lat":"37.275737039","long":"126.97595687","items":[{"name":"일인자감자탕","tel":"031-269-7930","addr":"경기도 수원시 권선구 구운동 139-85번지","category":"일반휴게음식 - 일반한식"},{"name":"카프로라인","tel":"031-296-0804","addr":"경기도 수원시 권선구 구운동 139-85번지","category":"자동차정비 유지 - 자동차부품"},{"name":"코잠","tel":"031-292-7945","addr":"경기도 수원시 권선구 구운동 139-85번지","category":"직물 - 침구·수예점"}]},{"lat":"37.275592771","long":"126.97550592","items":[{"name":"임나경헤어팰리스","tel":"031-293-0710","addr":"경기도 수원시 권선구 구운동 139-79번지 2층","category":"보건위생 - 미용원"}]},{"lat":"37.27504229","long":"126.9720334","items":[{"name":"자동차마을","tel":"031-297-8572","addr":"경기도 수원시 권선구 구운동 139-42번지","category":"자동차정비 유지 - 자동차정비"}]},{"lat":"37.279070119","long":"126.97295636","items":[{"name":"장금이한식뷔페","tel":"031-295-7140","addr":"경기도 수원시 권선구 구운동 489-11번지 1층","category":"일반휴게음식 - 일반한식"}]},{"lat":"37.278538519","long":"126.97297912","items":[{"name":"장모집밥","tel":"031-1111-1111","addr":"경기도 수원시 권선구 구운동 489-7번지 101호","category":"일반휴게음식 - 일반한식"},{"name":"장원인테리어","tel":"031-893-7970","addr":"경기도 수원시 권선구 구운동 489-7번지","category":"건축자재 - 인테리어전문"}]},{"lat":"37.276267141","long":"126.97000335","items":[{"name":"장수카","tel":"","addr":"경기도 수원시 권선구 구운동 298-3번지 늘푸른주택 지하","category":"자동차정비 유지 - 중장비수리"}]},{"lat":"37.27907021","long":"126.97331718","items":[{"name":"장안대리점","tel":"031-238-3588","addr":"경기도 수원시 권선구 구운동 490번지","category":"음료식품 - 기타음료식품"}]},{"lat":"37.281043479","long":"126.97339534","items":[{"name":"장안순대국","tel":"031-293-6778","addr":"경기도 수원시 권선구 구운동 476-1번지 1층","category":"일반휴게음식 - 일반한식"}]},{"lat":"37.276818142","long":"126.97539272","items":[{"name":"전통뿅닭도리탕&찜닭","tel":"031-292-8211","addr":"경기도 수원시 권선구 구운동 497-13번지 1층","category":"일반휴게음식 - 일반한식"}]},{"lat":"37.277898692","long":"126.97259601","items":[{"name":"전통식품곳간","tel":"031-294-1782","addr":"경기도 수원시 권선구 구운동 947-10번지 1층 101호","category":"음료식품 - 기타음료식품"}]},{"lat":"37.283764327","long":"126.97240196","items":[{"name":"정가네쪽갈비","tel":"031-295-4809","addr":"경기도 수원시 권선구 구운동 901-1번지 1층","category":"일반휴게음식 - 일반한식"}]},{"lat":"37.279015937","long":"126.9724828","items":[{"name":"정가네홍두깨손칼국수","tel":"031-296-1289","addr":"경기도 수원시 권선구 구운동 946-8번지","category":"일반휴게음식 - 일반한식"}]},{"lat":"37.27623254","long":"126.97567481","items":[{"name":"정우테크","tel":"070-8677-1740","addr":"경기도 수원시 권선구 구운동 513-3번지 1층","category":"전기제품 - 가전제품"}]},{"lat":"37.274789295","long":"126.96942897","items":[{"name":"정진건설","tel":"031-293-6561","addr":"경기도 수원시 권선구 구운동 316-1번지","category":"건축자재 - 인테리어전문"}]},{"lat":"37.277295933","long":"126.97647498","items":[{"name":"제비머리헤어샵","tel":"031-292-6355","addr":"경기도 수원시 권선구 구운동 503-7번지 1층","category":"보건위생 - 미용원"}]},{"lat":"37.28048478","long":"126.97314749","items":[{"name":"제이에어컨","tel":"","addr":"경기도 수원시 권선구 구운동 472-7번지 203호","category":"전기제품 - 냉열기기"}]},{"lat":"37.276601204","long":"126.9725627","items":[{"name":"제이엘웰빙","tel":"031-410-0870","addr":"경기도 수원시 권선구 구운동 522-3번지 지성타운 101호","category":"기타 - 기타 전문점"}]},{"lat":"37.284485148","long":"126.97240167","items":[{"name":"제이이엠디자인스","tel":"070-8733-3749","addr":"경기도 수원시 권선구 구운동 898-9번지 403호","category":"용역 서비스 - 사무서비스"},{"name":"카앤","tel":"070-4128-6180","addr":"경기도 수원시 권선구 구운동 898-9번지 1층 101호","category":"자동차정비 유지 - 카인테리어"}]},{"lat":"37.279431089","long":"126.97525646","items":[{"name":"제이제이스포츠","tel":"031-344-4724","addr":"경기도 수원시 권선구 구운동 480번지","category":"레져용품 - 스포츠·레져용품"}]},{"lat":"37.279926623","long":"126.97512097","items":[{"name":"제이티(JT)","tel":"","addr":"경기도 수원시 권선구 구운동 477-3번지 202호","category":"의류 - 내의판매"},{"name":"칠보유화","tel":"031-292-4783","addr":"경기도 수원시 권선구 구운동 477-3번지","category":"연료판매점 - 유류판매"}]},{"lat":"37.280710132","long":"126.97353078","items":[{"name":"젤로스다담교육","tel":"031-000-0000","addr":"경기도 수원시 권선구 구운동 472번지 1층 좌측 상가","category":"서적문구 - 기타서적문구"}]},{"lat":"37.27801552","long":"126.97142331","items":[{"name":"주민세차장","tel":"031-293-4123","addr":"경기도 수원시 권선구 구운동 950-7번지,950-8,950-10","category":"자동차정비 유지 - 세차장"}]},{"lat":"37.278096561","long":"126.97123159","items":[{"name":"주민카","tel":"031-295-5114","addr":"경기도 수원시 권선구 구운동 950-11번지","category":"자동차정비 유지 - 세차장"}]},{"lat":"37.282016649","long":"126.97364303","items":[{"name":"주식회사 보카프","tel":"031-298-2535","addr":"경기도 수원시 권선구 구운동 919-6번지 2층","category":"음료식품 - 기타음료식품"},{"name":"처음처럼","tel":"031-292-0008","addr":"경기도 수원시 권선구 구운동 919-6번지 101호","category":"자동차정비 유지 - 자동차부품"},{"name":"클럽워크","tel":"031-295-5353","addr":"경기도 수원시 권선구 구운동 919-6번지","category":"자동차정비 유지 - 자동차부품"}]},{"lat":"37.275790042","long":"126.97164974","items":[{"name":"주식회사 한결과학","tel":"031-298-9004","addr":"경기도 수원시 권선구 구운동 534-2번지 2층","category":"서적문구 - 과학기자재"}]},{"lat":"37.280655381","long":"126.97086969","items":[{"name":"주식회사 홍익리자드","tel":"031-227-8878","addr":"경기도 수원시 권선구 구운동 934-3번지 3층","category":"문화.취미 - 애완동물"},{"name":"토석한우","tel":"031-5323-8815","addr":"경기도 수원시 권선구 구운동 934-3번지","category":"음료식품 - 정육점"},{"name":"토석한우식당","tel":"011-1111-1111","addr":"경기도 수원시 권선구 구운동 934-3번지 1층","category":"일반휴게음식 - 일반한식"}]},{"lat":"37.27953927","long":"126.97550449","items":[{"name":"주식회사나이테건설","tel":"031-293-7701","addr":"경기도 수원시 권선구 구운동 477-7번지","category":"건축자재 - 페인트"}]},{"lat":"37.279294978","long":"126.97142277","items":[{"name":"주식회사신토불이","tel":"031-292-2364","addr":"경기도 수원시 권선구 구운동 944-7번지 404호","category":"음료식품 - 농·축·수산품"},{"name":"필터라인","tel":"031-292-5931","addr":"경기도 수원시 권선구 구운동 944-7번지","category":"주방용구 - 정수기"}]},{"lat":"37.284980839","long":"126.97289763","items":[{"name":"주식회사일굼","tel":"031-892-9114","addr":"경기도 수원시 권선구 구운동 897-1번지 2층","category":"회원제형태 - 기타4"},{"name":"행복나무","tel":"031-295-9095","addr":"경기도 수원시 권선구 구운동 897-1번지 1층","category":"일반휴게음식 - 서양음식"}]},{"lat":"37.276953875","long":"126.97800855","items":[{"name":"중경한의원","tel":"031-295-1075","addr":"경기도 수원시 권선구 구운동 507-14번지","category":"의원 - 한의원"}]},{"lat":"37.275538554","long":"126.9748407","items":[{"name":"지센(수원탑동점)","tel":"031-000-0000","addr":"경기도 수원시 권선구 구운동 528-3번지 1층","category":"의류 - 정장"},{"name":"태양종합주방","tel":"031-296-9689","addr":"경기도 수원시 권선구 구운동 528-3번지 1층","category":"주방용구 - 주방용구"}]},{"lat":"37.279322243","long":"126.97231354","items":[{"name":"지존PC Zone","tel":"070-7997-4032","addr":"경기도 수원시 권선구 구운동 942-8번지 주성빌딩","category":"레저업소 - 기타레져업소"},{"name":"현대덴트칼라","tel":"031-246-4664","addr":"경기도 수원시 권선구 구운동 942-8번지 주성빌딩 103호","category":"자동차정비 유지 - 카인테리어"}]},{"lat":"37.278511034","long":"126.97123141","items":[{"name":"지혜샘어린이집[아이행복]","tel":"031-294-0098","addr":"경기도 수원시 권선구 구운동 950-14번지","category":"학원 - 유아원"}]},{"lat":"37.278403293","long":"126.97269728","items":[{"name":"진미통닭","tel":"031-223-5252","addr":"경기도 수원시 권선구 구운동 947-3번지 1층","category":"일반휴게음식 - 스넥"}]},{"lat":"37.280511216","long":"126.97086975","items":[{"name":"진수성찬","tel":"031-295-9242","addr":"경기도 수원시 권선구 구운동 934-4번지","category":"일반휴게음식 - 일반한식"}]},{"lat":"37.276070611","long":"126.97681367","items":[{"name":"진흥철물","tel":"031-298-8415","addr":"경기도 수원시 권선구 구운동 509-14번지","category":"건축자재 - 목재·석재·철물"}]},{"lat":"37.281016286","long":"126.97275262","items":[{"name":"짬뽕짜장나라","tel":"031-309-2690","addr":"경기도 수원시 권선구 구운동 469-1번지","category":"일반휴게음식 - 중국식"}]},{"lat":"37.284708958","long":"126.96722566","items":[{"name":"창앤아이블라인드","tel":"031-224-3045","addr":"경기도 수원시 권선구 구운동 234-3번지 2층","category":"직물 - 카페트,커튼,천막,지물"}]},{"lat":"37.276484587","long":"126.97464867","items":[{"name":"창현종합공사","tel":"031-295-0950","addr":"경기도 수원시 권선구 구운동 515번지","category":"건축자재 - 인테리어전문"}]},{"lat":"37.276268049","long":"126.97345358","items":[{"name":"처갓집양념치킨","tel":"031-291-2885","addr":"경기도 수원시 권선구 구운동 525-4번지","category":"일반휴게음식 - 스넥"}]},{"lat":"37.276403974","long":"126.97673463","items":[{"name":"최배달의떡순튀","tel":"031-278-9666","addr":"경기도 수원시 권선구 구운동 509-3번지 1층","category":"일반휴게음식 - 스넥"},{"name":"플러스안경원","tel":"031-295-0675","addr":"경기도 수원시 권선구 구운동 509-3번지","category":"보건위생 - 안경"}]},{"lat":"37.276899203","long":"126.97525739","items":[{"name":"치악산건강원","tel":"031-293-4546","addr":"경기도 수원시 권선구 구운동 497-14번지 1층","category":"건강식품 - 기타건강식품"}]},{"lat":"37.277484681","long":"126.97445662","items":[{"name":"친구 노래연습장","tel":"031-295-7733","addr":"경기도 수원시 권선구 구운동 496번지 지하1층","category":"레저업소 - 노 래 방"}]},{"lat":"37.284124585","long":"126.97181544","items":[{"name":"카랜드자동차공업사","tel":"031-296-9494","addr":"경기도 수원시 권선구 구운동 903-2번지","category":"자동차정비 유지 - 자동차정비"}]},{"lat":"37.284845677","long":"126.97286386","items":[{"name":"카페하비비","tel":"031-292-1820","addr":"경기도 수원시 권선구 구운동 897-2번지 101호","category":"일반휴게음식 - 서양음식"}]},{"lat":"37.275321118","long":"126.97020672","items":[{"name":"카피랜드서수원","tel":"031-296-9244","addr":"경기도 수원시 권선구 구운동 304-1번지 우진맨숀","category":"사무통신 - 사무용 OA기기"}]},{"lat":"37.275511431","long":"126.97445736","items":[{"name":"칸타빌레바이올린생활음악협회수원시금호동","tel":"031-296-9951","addr":"경기도 수원시 권선구 구운동 528번지 1층","category":"학원 - 예·체능계학원"}]},{"lat":"37.275763637","long":"126.97411901","items":[{"name":"커피에반하다(구운점)","tel":"","addr":"경기도 수원시 권선구 구운동 527-1번지 희영아트빌 1층","category":"일반휴게음식 - 서양음식"}]},{"lat":"37.277403413","long":"126.97373502","items":[{"name":"코리아타바코","tel":"02-1111-1111","addr":"경기도 수원시 권선구 구운동 519-3번지","category":"음료식품 - 기타음료식품"}]},{"lat":"37.279845557","long":"126.97523376","items":[{"name":"코베아콜맨수원점","tel":"031-292-9225","addr":"경기도 수원시 권선구 구운동 477-4번지","category":"레져용품 - 스포츠·레져용품"}]},{"lat":"37.276628876","long":"126.97517856","items":[{"name":"크린세탁광장","tel":"031-292-2322","addr":"경기도 수원시 권선구 구운동 512-1번지 1층","category":"수리서비스 - 세탁소"},{"name":"호박꽃","tel":"031-292-8312","addr":"경기도 수원시 권선구 구운동 512-1번지 1층","category":"일반휴게음식 - 주점"}]},{"lat":"37.275322032","long":"126.973702","items":[{"name":"킨아이스토어(kin eyestore)","tel":"031-227-3200","addr":"경기도 수원시 권선구 구운동 529-1번지","category":"보건위생 - 안경"}]},{"lat":"37.274816894","long":"126.97150356","items":[{"name":"탑골순대국","tel":"031-295-4557","addr":"경기도 수원시 권선구 구운동 534-11번지","category":"일반휴게음식 - 일반한식"}]},{"lat":"37.276898684","long":"126.97311507","items":[{"name":"태경ENG","tel":"031-242-0244","addr":"경기도 수원시 권선구 구운동 521-3번지 2층","category":"용역 서비스 - 기타용역서비스"}]},{"lat":"37.283151847","long":"126.9732592","items":[{"name":"태영생막창","tel":"031-255-6720","addr":"경기도 수원시 권선구 구운동 907-14번지","category":"일반휴게음식 - 일반한식"}]},{"lat":"37.274320244","long":"126.96764773","items":[{"name":"토이 판타지","tel":"031-298-0881","addr":"경기도 수원시 권선구 구운동 646번지","category":"서적문구 - 완구점"}]},{"lat":"37.275627777","long":"126.97134537","items":[{"name":"토탈크린설비TCS","tel":"031-296-2585","addr":"경기도 수원시 권선구 구운동 534-15번지 1층","category":"주방용구 - 주방용구"}]},{"lat":"37.276989433","long":"126.97580985","items":[{"name":"튜나 스토어","tel":"031-306-4067","addr":"경기도 수원시 권선구 구운동 497-3번지 1층","category":"음료식품 - 농·축·수산품"}]},{"lat":"37.279737452","long":"126.97531273","items":[{"name":"티스테이션서수원점","tel":"031-295-4700","addr":"경기도 수원시 권선구 구운동 477-5번지","category":"자동차정비 유지 - 자동차시트·타이어"},{"name":"한국타이어 서수원점","tel":"031-295-4700","addr":"경기도 수원시 권선구 구운동 477-5번지","category":"자동차정비 유지 - 자동차정비"}]},{"lat":"37.275349096","long":"126.97383729","items":[{"name":"파리바게트탑동삼성점","tel":"031-294-0003","addr":"경기도 수원시 권선구 구운동 529-2번지","category":"음료식품 - 제과점"}]},{"lat":"37.278204328","long":"126.96992358","items":[{"name":"파인교육","tel":"031-469-4829","addr":"경기도 수원시 권선구 구운동 955-1번지 엘리트빌 101호","category":"학원 - 학습지 교육"}]},{"lat":"37.277790799","long":"126.97350936","items":[{"name":"파파게노","tel":"","addr":"경기도 수원시 권선구 구운동 493-15번지 1층","category":"일반휴게음식 - 서양음식"}]},{"lat":"37.278206296","long":"126.97797431","items":[{"name":"팔규식당(구내식당)","tel":"031-295-0800","addr":"경기도 수원시 권선구 구운동 467번지","category":"일반휴게음식 - 일반한식"}]},{"lat":"37.276845295","long":"126.97592265","items":[{"name":"팡팡노래연습장","tel":"031-294-4392","addr":"경기도 수원시 권선구 구운동 497-9번지 지하","category":"레저업소 - 노 래 방"}]},{"lat":"37.275096517","long":"126.97267605","items":[{"name":"펀비어킹구운점","tel":"031-296-2015","addr":"경기도 수원시 권선구 구운동 143-3번지 1층","category":"일반휴게음식 - 스넥"}]},{"lat":"37.276233156","long":"126.9785049","items":[{"name":"포유인테리어","tel":"031-291-5804","addr":"경기도 수원시 권선구 구운동 507-4번지 1층 북쪽상가","category":"직물 - 카페트,커튼,천막,지물"}]},{"lat":"37.277268128","long":"126.97320513","items":[{"name":"포인트헤어샵","tel":"031-293-0790","addr":"경기도 수원시 권선구 구운동 521-11번지","category":"보건위생 - 미용원"}]},{"lat":"37.275763488","long":"126.97351015","items":[{"name":"풍성","tel":"031-296-4810","addr":"경기도 수원시 권선구 구운동 526-8번지 1층","category":"음료식품 - 정육점"},{"name":"한식나라","tel":"031-295-5698","addr":"경기도 수원시 권선구 구운동 526-8번지 1층","category":"일반휴게음식 - 스넥"}]},{"lat":"37.277233134","long":"126.97772657","items":[{"name":"플랜트배관용접학원","tel":"031-293-2224","addr":"경기도 수원시 권선구 구운동 506-8번지","category":"학원 - 기능학원"}]},{"lat":"37.279403533","long":"126.97309153","items":[{"name":"플러스기획","tel":"031-294-4232","addr":"경기도 수원시 권선구 구운동 488-5번지 101호","category":"문화.취미 - 문화취미기타"}]},{"lat":"37.281150832","long":"126.97045227","items":[{"name":"피렌체","tel":"031-296-2320","addr":"경기도 수원시 권선구 구운동 928-4번지","category":"숙박업 - 여관/기타숙박업"}]},{"lat":"37.275628339","long":"126.97353275","items":[{"name":"피씨가이","tel":"031-293-2982","addr":"경기도 수원시 권선구 구운동 526-7번지","category":"사무통신 - 컴퓨터"}]},{"lat":"37.277232767","long":"126.97605782","items":[{"name":"필터스","tel":"031-252-4966","addr":"경기도 수원시 권선구 구운동 500-10번지 1층","category":"건축자재 - 기타건축자재"}]},{"lat":"37.280619857","long":"126.97284298","items":[{"name":"하나투프로젝터","tel":"031-293-6488","addr":"경기도 수원시 권선구 구운동 471-11번지","category":"사무통신 - 사무용 OA기기"}]},{"lat":"37.278096987","long":"126.97286654","items":[{"name":"하수구1번지","tel":"","addr":"경기도 수원시 권선구 구운동 947-6번지 광진 104호","category":"수리서비스 - 기타수리서비스"}]},{"lat":"37.27837679","long":"126.97483965","items":[{"name":"한결 조은세척기/세제","tel":"031-278-2001","addr":"경기도 수원시 권선구 구운동 494-1번지","category":"주방용구 - 주방용구"}]},{"lat":"37.277593467","long":"126.97736564","items":[{"name":"한진자동문","tel":"031-293-4137","addr":"경기도 수원시 권선구 구운동 506-4번지","category":"기타 - 기타 전문점"}]},{"lat":"37.278069434","long":"126.97087078","items":[{"name":"해동고무","tel":"031-234-7702","addr":"경기도 수원시 권선구 구운동 953-7번지","category":"신변잡화 - 신발"}]},{"lat":"37.283124906","long":"126.97362005","items":[{"name":"해랑","tel":"031-291-5402","addr":"경기도 수원시 권선구 구운동 907-11번지","category":"음료식품 - 농·축·수산품"},{"name":"해랑","tel":"031-293-2292","addr":"경기도 수원시 권선구 구운동 907-11번지","category":"일반휴게음식 - 일반한식"}]},{"lat":"37.274374946","long":"126.96986888","items":[{"name":"해피세차장","tel":"031-298-7960","addr":"경기도 수원시 권선구 구운동 312-4번지","category":"자동차정비 유지 - 세차장"}]},{"lat":"37.274546109","long":"126.96975605","items":[{"name":"해피자동차공업사","tel":"031-298-7960","addr":"경기도 수원시 권선구 구운동 312-5번지","category":"자동차정비 유지 - 자동차정비"}]},{"lat":"37.275762606","long":"126.97015015","items":[{"name":"헤어깜","tel":"031-295-8126","addr":"경기도 수원시 권선구 구운동 302-5번지 외1필지광명타운가동102","category":"보건위생 - 미용원"}]},{"lat":"37.277736771","long":"126.97364469","items":[{"name":"헤어닷컴미용실","tel":"031-295-5116","addr":"경기도 수원시 권선구 구운동 493-14번지 1층","category":"보건위생 - 미용원"}]},{"lat":"37.276898529","long":"126.9725062","items":[{"name":"헤어스케치","tel":"031-295-3859","addr":"경기도 수원시 권선구 구운동 968-2번지 101호","category":"보건위생 - 미용원"}]},{"lat":"37.280375787","long":"126.96986625","items":[{"name":"헬리오스","tel":"031-253-0120","addr":"경기도 수원시 권선구 구운동 932번지","category":"자동차정비 유지 - 카인테리어"},{"name":"헬리오스","tel":"031-253-0120","addr":"경기도 수원시 권선구 구운동 932번지","category":"자동차정비 유지 - 자동차부품"}]},{"lat":"37.276402651","long":"126.97131122","items":[{"name":"현아마트","tel":"031-295-8573","addr":"경기도 수원시 권선구 구운동 536-4번지 가나안주택","category":"유통업 영리 - 슈퍼마켓"}]},{"lat":"37.275483303","long":"126.97020665","items":[{"name":"호수종합상사","tel":"031-293-1743","addr":"경기도 수원시 권선구 구운동 302-2번지 지성타운","category":"보건위생 - 화장품"}]},{"lat":"37.282872721","long":"126.97403737","items":[{"name":"홍대장찜","tel":"031-227-8517","addr":"경기도 수원시 권선구 구운동 914-1번지","category":"일반휴게음식 - 일반한식"}]},{"lat":"37.277845697","long":"126.97709494","items":[{"name":"화도(꽃섬)","tel":"031-293-8285","addr":"경기도 수원시 권선구 구운동 506-1번지 1층","category":"일반휴게음식 - 일식·회집"}]},{"lat":"37.278430284","long":"126.97253941","items":[{"name":"화인텍","tel":"031-295-7794","addr":"경기도 수원시 권선구 구운동 947-13번지 402호","category":"수리서비스 - 가정용품수리"}]},{"lat":"37.277349514","long":"126.97440029","items":[{"name":"황소정육점","tel":"031-298-2015","addr":"경기도 수원시 권선구 구운동 496-6번지","category":"음료식품 - 정육점"}]},{"lat":"37.275483633","long":"126.97142436","items":[{"name":"효원문화사","tel":"031-292-6600","addr":"경기도 수원시 권선구 구운동 534-5번지","category":"용역 서비스 - 사무서비스"}]},{"lat":"37.278232213","long":"126.97314837","items":[{"name":"후레쉬워터안산점","tel":"031-278-1270","addr":"경기도 수원시 권선구 구운동 493-19번지","category":"주방용구 - 정수기"}]},{"lat":"37.282926975","long":"126.97483796","items":[{"name":"흑산도홍어","tel":"031-292-4437","addr":"경기도 수원시 권선구 구운동 912-8번지 1층","category":"일반휴게음식 - 일반한식"}]},{"lat":"37.282926638","long":"126.97345098","items":[{"name":"흑소랑흑돈","tel":"031-291-1331","addr":"경기도 수원시 권선구 구운동 909-2번지 1층","category":"일반휴게음식 - 일반한식"}]}]