[{"lat":"37.394163483","long":"126.96369566","items":[{"name":"미금서적","tel":"02-943-3952","addr":"경기도 안양시 동안구 부림로","category":"서적문구 - 일반서적"}]},{"lat":"37.391110368","long":"126.96786415","items":[{"name":"미송인테리어","tel":"031-421-4586","addr":"경기도 안양시 동안구 부림로","category":"직물 - 카페트,커튼,천막,지물"}]},{"lat":"37.384749303","long":"126.96809294","items":[{"name":"민백문구","tel":"031-387-9275","addr":"경기도 안양시 동안구 부림로","category":"서적문구 - 과학기자재"},{"name":"풍원슈퍼","tel":"031-387-2626","addr":"경기도 안양시 동안구 부림로","category":"유통업 영리 - 슈퍼마켓"}]},{"lat":"37.396668187","long":"126.96338944","items":[{"name":"변호사고성규법률사무소","tel":"031-424-2050","addr":"경기도 안양시 동안구 부림로","category":"용역 서비스 - 법률회계서비스(개인)"}]},{"lat":"37.394055599","long":"126.96441846","items":[{"name":"본도시락평촌점","tel":"031-385-4282","addr":"경기도 안양시 동안구 부림로","category":"일반휴게음식 - 스넥"},{"name":"율리아메이크업","tel":"070-7765-1901","addr":"경기도 안양시 동안구 부림로","category":"보건위생 - 미용원"}]},{"lat":"37.398217221","long":"126.9613445","items":[{"name":"유락복집","tel":"031-469-4004","addr":"경기도 안양시 동안구 부림로","category":"일반휴게음식 - 일반한식"}]},{"lat":"37.393586993","long":"126.96417026","items":[{"name":"유림기업","tel":"031-387-1197","addr":"경기도 안양시 동안구 부림로","category":"가구 - 기타가구"},{"name":"호아빈","tel":"031-383-1888","addr":"경기도 안양시 동안구 부림로","category":"일반휴게음식 - 일반한식"}]},{"lat":"37.389191422","long":"126.96856516","items":[{"name":"카파카","tel":"031-422-6875","addr":"경기도 안양시 동안구 부림로","category":"일반휴게음식 - 서양음식"},{"name":"해법중국어교습소","tel":"031-423-8868","addr":"경기도 안양시 동안구 부림로","category":"회원제형태 - 학원"}]}]