[{"lat":"37.664700583","long":"127.44995146","items":[{"name":"(주)팸택 가평연수원지점","tel":"02-512-3879","addr":"경기도 가평군 설악면 이천리 228-9번지 1층","category":"숙박업 - 여관/기타숙박업"}]},{"lat":"37.656084217","long":"127.4555093","items":[{"name":"(주)평산투자개발","tel":"031-589-2132","addr":"경기도 가평군 설악면 이천리 산2-12번지","category":"레저업소 - 골프경기장"}]},{"lat":"37.654529989","long":"127.44242262","items":[{"name":"다락재 쉼터","tel":"031-585-7261","addr":"경기도 가평군 설악면 이천리 364-1번지","category":"음료식품 - 기타음료식품"}]},{"lat":"37.648868892","long":"127.45042311","items":[{"name":"동원","tel":"031-000-0000","addr":"경기도 가평군 설악면 이천리 66-2번지","category":"음료식품 - 기타음료식품"}]},{"lat":"37.656862036","long":"127.44281033","items":[{"name":"드론이야기 가평점/(주)드론이야기","tel":"02-449-8072","addr":"경기도 가평군 설악면 이천리 128-2번지 2층","category":"일반휴게음식 - 서양음식"}]},{"lat":"37.65006317","long":"127.4443113","items":[{"name":"설악상사","tel":"031-584-9458","addr":"경기도 가평군 설악면 이천리 96-1번지","category":"건축자재 - 기타건축자재"}]},{"lat":"37.668893887","long":"127.45602912","items":[{"name":"설악아로니아체험농원","tel":"031-584-7870","addr":"경기도 가평군 설악면 이천리 8-3번지 1층","category":"학원 - 기타 교육기관"}]},{"lat":"37.658090526","long":"127.4419563","items":[{"name":"숲속의하루펜션","tel":"","addr":"경기도 가평군 설악면 이천리 351-5번지","category":"숙박업 - 여관/기타숙박업"}]},{"lat":"37.667533492","long":"127.44653422","items":[{"name":"에델바이스(주식회사 더츠굿 가평지점)","tel":"031-585-0073","addr":"경기도 가평군 설악면 이천리 306-3번지","category":"일반휴게음식 - 서양음식"}]},{"lat":"37.6654991","long":"127.4531977","items":[{"name":"청평 마이다스 골프클럽","tel":"031-589-9000","addr":"경기도 가평군 설악면 이천리 240번지","category":"레저업소 - 골프경기장"}]}]