[{"lat":"37.387581281","long":"126.93353844","items":[{"name":"(주)경기남부신문","tel":"070-7535-7646","addr":"경기도 안양시 만안구 만안로","category":"서적문구 - 정기간행물"},{"name":"(주)나루미여행사","tel":"031-441-3971","addr":"경기도 안양시 만안구 만안로","category":"여행 - 관광여행"},{"name":"(주)에스씨제이이앤씨","tel":"031-343-8982","addr":"경기도 안양시 만안구 만안로","category":"용역 서비스 - 기타용역서비스"}]},{"lat":"37.396550046","long":"126.92503766","items":[{"name":"2pple[이플]","tel":"031-463-9783","addr":"경기도 안양시 만안구 만안로","category":"신변잡화 - 액세서리"},{"name":"5. 4","tel":"11-1111-1111","addr":"경기도 안양시 만안구 만안로","category":"의류 - 정장"},{"name":"냉장고","tel":"031-463-9212","addr":"경기도 안양시 만안구 만안로","category":"의류 - 정장"},{"name":"냉장고","tel":"031-463-9212","addr":"경기도 안양시 만안구 만안로","category":"의류 - 기타의류"},{"name":"넘버나인","tel":"031-463-9592","addr":"경기도 안양시 만안구 만안로","category":"의류 - 정장"},{"name":"데이지샵(AFS)","tel":"031-463-9555","addr":"경기도 안양시 만안구 만안로","category":"문화.취미 - 화원"},{"name":"루키05(LOOKY05)","tel":"070-8879-3193","addr":"경기도 안양시 만안구 만안로","category":"신변잡화 - 액세서리"},{"name":"맘보","tel":"031-463-9333","addr":"경기도 안양시 만안구 만안로","category":"의류 - 정장"},{"name":"미녀와야수","tel":"031-400-5566","addr":"경기도 안양시 만안구 만안로","category":"신변잡화 - 액세서리"},{"name":"아이유(I you)","tel":"031-463-9080","addr":"경기도 안양시 만안구 만안로","category":"의류 - 정장"},{"name":"안나빅","tel":"031-463-9675","addr":"경기도 안양시 만안구 만안로","category":"의류 - 정장"},{"name":"탱크","tel":"","addr":"경기도 안양시 만안구 만안로","category":"의류 - 기타의류"},{"name":"페이지(PAGE)","tel":"031-469-9435","addr":"경기도 안양시 만안구 만안로","category":"의류 - 정장"}]},{"lat":"37.396974192","long":"126.92606492","items":[{"name":"남도부식","tel":"031-468-0526","addr":"경기도 안양시 만안구 만안로","category":"음료식품 - 미곡상"}]},{"lat":"37.399828853","long":"126.92373549","items":[{"name":"두메골민속주점","tel":"031-464-8824","addr":"경기도 안양시 만안구 만안로","category":"일반휴게음식 - 일반한식"}]},{"lat":"37.399216574","long":"126.92434599","items":[{"name":"디디라운지","tel":"031-448-1322","addr":"경기도 안양시 만안구 만안로","category":"일반휴게음식 - 주점"}]},{"lat":"37.402133594","long":"126.92103379","items":[{"name":"라텔주짓수","tel":"02-2068-1646","addr":"경기도 안양시 만안구 만안로","category":"회원제형태 - 레져업소"}]},{"lat":"37.391499449","long":"126.9314796","items":[{"name":"리즈테일","tel":"031-465-0780","addr":"경기도 안양시 만안구 만안로","category":"신변잡화 - 기타잡화"}]},{"lat":"37.411165998","long":"126.9145065","items":[{"name":"미헤어카페","tel":"031-422-0078","addr":"경기도 안양시 만안구 만안로","category":"보건위생 - 미용원"}]},{"lat":"37.384779771","long":"126.934625","items":[{"name":"비얀코커피","tel":"070-4103-9888","addr":"경기도 안양시 만안구 만안로","category":"일반휴게음식 - 서양음식"},{"name":"코리아헬스플랜(K.H.P)","tel":"031-465-5425","addr":"경기도 안양시 만안구 만안로","category":"레져용품 - 스포츠·레져용품"}]},{"lat":"37.403133461","long":"126.92067128","items":[{"name":"삼창차유리","tel":"031-447-7243","addr":"경기도 안양시 만안구 만안로","category":"자동차정비 유지 - 자동차부품"}]},{"lat":"37.407770963","long":"126.91689371","items":[{"name":"수림카서비스","tel":"031-466-7883","addr":"경기도 안양시 만안구 만안로","category":"자동차정비 유지 - 자동차정비"}]},{"lat":"37.3997208","long":"126.92383725","items":[{"name":"스타독스","tel":"031-465-3188","addr":"경기도 안양시 만안구 만안로","category":"문화.취미 - 애완동물"}]},{"lat":"37.399162235","long":"126.92392819","items":[{"name":"열닭발백숙","tel":"031-465-9996","addr":"경기도 안양시 만안구 만안로","category":"일반휴게음식 - 일반한식"}]},{"lat":"37.403358642","long":"126.92056939","items":[{"name":"위니아서비스안양점","tel":"031-381-7045","addr":"경기도 안양시 만안구 만안로","category":"수리서비스 - 기타수리서비스"},{"name":"자매 웰빙 셀프식당","tel":"031-429-6804","addr":"경기도 안양시 만안구 만안로","category":"일반휴게음식 - 일반한식"}]},{"lat":"37.399189175","long":"126.92379263","items":[{"name":"이디야(안양일번가점)","tel":"031-442-6967","addr":"경기도 안양시 만안구 만안로","category":"일반휴게음식 - 서양음식"}]},{"lat":"37.403799511","long":"126.91967665","items":[{"name":"종가댁양곱창","tel":"031-441-3180","addr":"경기도 안양시 만안구 만안로","category":"일반휴게음식 - 일반한식"}]},{"lat":"37.405609968","long":"126.91887274","items":[{"name":"주식회사 애드하우스","tel":"031-468-0127","addr":"경기도 안양시 만안구 만안로","category":"용역 서비스 - 종합용역"}]},{"lat":"37.385248244","long":"126.93453425","items":[{"name":"청진동해장국","tel":"031-466-7374","addr":"경기도 안양시 만안구 만안로","category":"일반휴게음식 - 일반한식"}]},{"lat":"37.386166973","long":"126.93401399","items":[{"name":"통영굴밥 만안구청점","tel":"031-441-5211","addr":"경기도 안양시 만안구 만안로","category":"일반휴게음식 - 일반한식"}]}]