[{"lat":"37.704850701","long":"127.16703754","items":[{"name":"(주)다림산업개발","tel":"031-529-7223","addr":"경기도 남양주시 진접읍 내각리 275-5","category":"문화.취미 - 화원"},{"name":"사또양념통닭","tel":"031-571-1138","addr":"경기도 남양주시 진접읍 내각리 275-5번지 1층","category":"일반휴게음식 - 스넥"}]},{"lat":"37.711019685","long":"127.17517114","items":[{"name":"(주)리워크","tel":"031-523-2788","addr":"경기도 남양주시 진접읍 내각리 99-2번지","category":"자동차정비 유지 - 자동차정비"},{"name":"(주)모터스벙커","tel":"031-529-5622","addr":"경기도 남양주시 진접읍 내각리 99-2번지","category":"자동차정비 유지 - 자동차정비"}]},{"lat":"37.702656599","long":"127.15722403","items":[{"name":"(주)비엔에이치아트갤러리","tel":"031-541-1247","addr":"경기도 남양주시 진접읍 내각리 625-1번지","category":"가구 - 기타가구"}]},{"lat":"37.704490553","long":"127.16025555","items":[{"name":"GS25내각창조점","tel":"","addr":"경기도 남양주시 진접읍 내각리 765-10 1층내101","category":"유통업 영리 - 편 의 점"}]},{"lat":"37.705241575","long":"127.16453228","items":[{"name":"GS25내각후레쉬점","tel":"","addr":"경기도 남양주시 진접읍 내각리 753번지","category":"유통업 영리 - 편 의 점"}]},{"lat":"37.704741193","long":"127.1680352","items":[{"name":"JC모터스","tel":"031-8034-5775","addr":"경기도 남양주시 진접읍 내각리 258-3번지 1층","category":"자동차정비 유지 - 자동차부품"}]},{"lat":"37.704635903","long":"127.16600514","items":[{"name":"K.J.H 소중한 사람들","tel":"031-514-3700","addr":"경기도 남양주시 진접읍 내각리 323-1번지","category":"신변잡화 - 기타잡화"},{"name":"내각대리점","tel":"031-574-0940","addr":"경기도 남양주시 진접읍 내각리 323-1번지","category":"전기제품 - 가전제품"},{"name":"장터수구레","tel":"031-527-9050","addr":"경기도 남양주시 진접읍 내각리 323-1번지","category":"일반휴게음식 - 일반한식"},{"name":"할머니순대국","tel":"031-528-5028","addr":"경기도 남양주시 진접읍 내각리 323-1","category":"일반휴게음식 - 일반한식"}]},{"lat":"37.707601134","long":"127.16522916","items":[{"name":"MIT학원","tel":"031-575-7994","addr":"경기도 남양주시 진접읍 내각리 192번지 원일대궐터 상가동 201호,202호","category":"학원 - 보습학원"}]},{"lat":"37.70849669","long":"127.1625888","items":[{"name":"S&C ST","tel":"031-529-6171","addr":"경기도 남양주시 진접읍 내각리 187-7번지 외1필지","category":"전기제품 - 기타전기제품"}]},{"lat":"37.704355757","long":"127.16661687","items":[{"name":"W PC방","tel":"","addr":"경기도 남양주시 진접읍 내각리 325-1번지 C동 2층","category":"레저업소 - 기타레져업소"},{"name":"버들약국","tel":"031-527-0774","addr":"경기도 남양주시 진접읍 내각리 325-1번지 A동 1층","category":"약국 - 약국"}]},{"lat":"37.707771843","long":"127.171977","items":[{"name":"가마솥손칼국수온달만","tel":"031-573-3888","addr":"경기도 남양주시 진접읍 내각리 77-1번지","category":"일반휴게음식 - 일반한식"},{"name":"세븐일레븐남양주내각점","tel":"","addr":"경기도 남양주시 진접읍 내각리 77-1번지 1층","category":"유통업 영리 - 편 의 점"},{"name":"우가네풍천장어","tel":"031-575-4334","addr":"경기도 남양주시 진접읍 내각리 77-1번지 1층","category":"일반휴게음식 - 일반한식"}]},{"lat":"37.704239748","long":"127.1658115","items":[{"name":"강릉 감자탕","tel":"031-575-6967","addr":"경기도 남양주시 진접읍 내각리 324-3번지 1층","category":"일반휴게음식 - 일반한식"},{"name":"노다지찌개전문","tel":"031-529-5503","addr":"경기도 남양주시 진접읍 내각리 324-3번지 108호","category":"일반휴게음식 - 일반한식"},{"name":"먹거리","tel":"031-527-3774","addr":"경기도 남양주시 진접읍 내각리 324-3번지 1층 102호","category":"일반휴게음식 - 일반한식"},{"name":"모퉁이포차","tel":"031-571-6180","addr":"경기도 남양주시 진접읍 내각리 324-3번지 1층 일부","category":"일반휴게음식 - 일반한식"},{"name":"블랙차이","tel":"031-571-5881","addr":"경기도 남양주시 진접읍 내각리 324-3번지 1층 10호","category":"일반휴게음식 - 중국식"},{"name":"임도현부띠크","tel":"031-575-2089","addr":"경기도 남양주시 진접읍 내각리 324-3번지 103호","category":"의류 - 정장"},{"name":"자매무한고기","tel":"","addr":"경기도 남양주시 진접읍 내각리 324-3번지","category":"일반휴게음식 - 일반한식"}]},{"lat":"37.703630455","long":"127.1633608","items":[{"name":"개구리노래연습장","tel":"031-528-2466","addr":"경기도 남양주시 진접읍 내각리 732-8번지 지층","category":"레저업소 - 노 래 방"},{"name":"수정커피호프","tel":"031-527-0538","addr":"경기도 남양주시 진접읍 내각리 732-8번지 지하1층 일부","category":"일반휴게음식 - 서양음식"},{"name":"퀸호프","tel":"031-571-9311","addr":"경기도 남양주시 진접읍 내각리 732-8번지","category":"일반휴게음식 - 주점"}]},{"lat":"37.703913894","long":"127.16028835","items":[{"name":"건강한즙","tel":"031-572-4369","addr":"경기도 남양주시 진접읍 내각리 714-3번지 봉화아트빌라 103호","category":"음료식품 - 기타음료식품"},{"name":"김인영미용실","tel":"031-572-2292","addr":"경기도 남양주시 진접읍 내각리 714-3번지 봉화아트빌라 1층","category":"보건위생 - 미용원"}]},{"lat":"37.704877461","long":"127.16723037","items":[{"name":"경동설비","tel":"070-4530-9247","addr":"경기도 남양주시 진접읍 내각리 275-4번지","category":"용역 서비스 - 기타용역서비스"},{"name":"상록당구회관","tel":"031-571-4818","addr":"경기도 남양주시 진접읍 내각리 275-4번지","category":"레저업소 - 당 구 장"},{"name":"상록당구회관","tel":"031-571-4818","addr":"경기도 남양주시 진접읍 내각리 275-4번지 2층","category":"레저업소 - 당 구 장"},{"name":"이안컴퓨터","tel":"031-575-6640","addr":"경기도 남양주시 진접읍 내각리 275-4번지 북쪽에서2번째 1층 상가","category":"사무통신 - 컴퓨터"},{"name":"해담횟집","tel":"031-571-4322","addr":"경기도 남양주시 진접읍 내각리 275-4번지 1층","category":"일반휴게음식 - 일반한식"}]},{"lat":"37.704544312","long":"127.16708222","items":[{"name":"고려도장","tel":"070-4126-7733","addr":"경기도 남양주시 진접읍 내각리 273번지","category":"용역 서비스 - 기타용역서비스"},{"name":"대박노가리","tel":"031-575-2084","addr":"경기도 남양주시 진접읍 내각리 273번지 1층","category":"일반휴게음식 - 일반한식"},{"name":"백암순대","tel":"031-572-2477","addr":"경기도 남양주시 진접읍 내각리 273번지","category":"일반휴게음식 - 일반한식"},{"name":"별피자 별카페","tel":"031-514-3008","addr":"경기도 남양주시 진접읍 내각리 273번지 1층","category":"일반휴게음식 - 서양음식"},{"name":"와이티보습학원","tel":"031-527-3779","addr":"경기도 남양주시 진접읍 내각리 273","category":"학원 - 보습학원"},{"name":"헤어뉴스","tel":"070-8154-5670","addr":"경기도 남양주시 진접읍 내각리 273번지 1층 3호","category":"보건위생 - 미용원"}]},{"lat":"37.700630971","long":"127.16283273","items":[{"name":"곰밥(GoM BaB)","tel":"031-573-6946","addr":"경기도 남양주시 진접읍 내각리 683-6번지 1층","category":"일반휴게음식 - 일반한식"}]},{"lat":"37.703378294","long":"127.16328088","items":[{"name":"공릉동원조 멸치국수","tel":"031-510-0618","addr":"경기도 남양주시 진접읍 내각리 732-14번지","category":"일반휴게음식 - 일반한식"}]},{"lat":"37.703664256","long":"127.17142337","items":[{"name":"공조피아","tel":"031-572-6227","addr":"경기도 남양주시 진접읍 내각리 45-1번지 1층","category":"용역 서비스 - 기타용역서비스"}]},{"lat":"37.704408536","long":"127.16753551","items":[{"name":"광릉내 꾸지뽕","tel":"031-529-7470","addr":"경기도 남양주시 진접읍 내각리 272-1번지","category":"농업 - 비료,사료,종자"},{"name":"국민볼트","tel":"031-571-7451","addr":"경기도 남양주시 진접읍 내각리 272-1번지","category":"기타 - 기계공구"},{"name":"나리천막","tel":"031-573-3900","addr":"경기도 남양주시 진접읍 내각리 272-1번지","category":"직물 - 카페트,커튼,천막,지물"}]},{"lat":"37.706849906","long":"127.17402747","items":[{"name":"광릉로타리클럽","tel":"031-527-1570","addr":"경기도 남양주시 진접읍 내각리 70번지","category":"기타 - 비영리/대상"}]},{"lat":"37.710157404","long":"127.16700388","items":[{"name":"광영키친골드","tel":"070-4147-1900","addr":"경기도 남양주시 진접읍 내각리 223","category":"주방용구 - 주방용구"}]},{"lat":"37.706439475","long":"127.16480704","items":[{"name":"교원사무기","tel":"070-4225-0310","addr":"경기도 남양주시 진접읍 내각리 188-35번지","category":"사무통신 - 사무용 OA기기"},{"name":"다원","tel":"","addr":"경기도 남양주시 진접읍 내각리 188-35번지 대풍빌딩","category":"일반휴게음식 - 일반한식"},{"name":"도시락","tel":"031-574-4972","addr":"경기도 남양주시 진접읍 내각리 188-35번지 대풍빌딩 106호 (주)상신","category":"일반휴게음식 - 일반한식"},{"name":"정미선헤어","tel":"031-527-3395","addr":"경기도 남양주시 진접읍 내각리 188-35","category":"보건위생 - 미용원"},{"name":"즐거운밥상","tel":"031-2100-7159","addr":"경기도 남양주시 진접읍 내각리 188-35번지 대풍빌딩 1층","category":"일반휴게음식 - 일반한식"}]},{"lat":"37.704796927","long":"127.1668333","items":[{"name":"구가네매운탕","tel":"031-574-8383","addr":"경기도 남양주시 진접읍 내각리 274-1번지","category":"일반휴게음식 - 일반한식"},{"name":"한길로학원","tel":"031-515-6054","addr":"경기도 남양주시 진접읍 내각리 274-1번지 유민스테인레스(주) 201호","category":"학원 - 보습학원"}]},{"lat":"37.705601849","long":"127.16461244","items":[{"name":"권서희피부관리실","tel":"031-572-1130","addr":"경기도 남양주시 진접읍 내각리 756-12번지 1층 106호","category":"회원제형태 - 기타4"},{"name":"숨터미용실","tel":"031-000-0000","addr":"경기도 남양주시 진접읍 내각리 756-12번지 102호","category":"보건위생 - 미용원"},{"name":"크린스피드","tel":"031-571-0336","addr":"경기도 남양주시 진접읍 내각리 756-12번지 1호","category":"수리서비스 - 세탁소"}]},{"lat":"37.706602208","long":"127.16439915","items":[{"name":"그린꿈미술교습소","tel":"070-8153-4158","addr":"경기도 남양주시 진접읍 내각리 188-54번지","category":"학원 - 예·체능계학원"}]},{"lat":"37.704573447","long":"127.16556275","items":[{"name":"까르마헤어","tel":"031-529-3336","addr":"경기도 남양주시 진접읍 내각리 322-4번지 104호","category":"보건위생 - 미용원"},{"name":"남양인테리어","tel":"031-572-1508","addr":"경기도 남양주시 진접읍 내각리 322-4","category":"직물 - 카페트,커튼,천막,지물"},{"name":"부어치킨","tel":"031-573-8441","addr":"경기도 남양주시 진접읍 내각리 322-4번지 1층","category":"일반휴게음식 - 스넥"},{"name":"빠께스곱창","tel":"031-528-0687","addr":"경기도 남양주시 진접읍 내각리 322-4","category":"일반휴게음식 - 일반한식"},{"name":"엠플러스","tel":"031-529-2378","addr":"경기도 남양주시 진접읍 내각리 322-4번지 205호","category":"가구 - 기타가구"},{"name":"종로명가떡집","tel":"031-573-0806","addr":"경기도 남양주시 진접읍 내각리 322-4번지 1층 일부","category":"음료식품 - 제과점"}]},{"lat":"37.706683449","long":"127.16428593","items":[{"name":"나라전기","tel":"031-574-6593","addr":"경기도 남양주시 진접읍 내각리 188-14번지 소망 102호","category":"건축자재 - 인테리어전문"},{"name":"세인","tel":"031-552-2379","addr":"경기도 남양주시 진접읍 내각리 188-14번지 소망 101호","category":"사무통신 - 컴퓨터"}]},{"lat":"37.704188168","long":"127.16400837","items":[{"name":"나미네돌솥설렁탕","tel":"031-574-2454","addr":"경기도 남양주시 진접읍 내각리 740-1번지 101 ,102,103","category":"일반휴게음식 - 일반한식"},{"name":"남양주 축산도매","tel":"031-528-9255","addr":"경기도 남양주시 진접읍 내각리 740-1번지 105호","category":"음료식품 - 정육점"},{"name":"내각한의원","tel":"031-574-3332","addr":"경기도 남양주시 진접읍 내각리 740-1번지 원진빌딩 202호","category":"의원 - 한의원"},{"name":"블루밍의원","tel":"031-528-7280","addr":"경기도 남양주시 진접읍 내각리 740-1번지 외1필지","category":"의원 - 의원"},{"name":"엑스노래연습장","tel":"031-574-5822","addr":"경기도 남양주시 진접읍 내각리 740-1번지 2층","category":"레저업소 - 노 래 방"},{"name":"영헤어","tel":"031-572-2969","addr":"경기도 남양주시 진접읍 내각리 740-1번지","category":"보건위생 - 미용원"},{"name":"육공판","tel":"031-528-6091","addr":"경기도 남양주시 진접읍 내각리 740-1번지","category":"일반휴게음식 - 일반한식"},{"name":"헤라헤어","tel":"031-573-6565","addr":"경기도 남양주시 진접읍 내각리 740-1번지 1층 우측 3호","category":"보건위생 - 미용원"}]},{"lat":"37.695407976","long":"127.16091666","items":[{"name":"남양식기세척기","tel":"070-8875-6543","addr":"경기도 남양주시 진접읍 내각리 478-3번지","category":"주방용구 - 주방용구"}]},{"lat":"37.696160686","long":"127.16394564","items":[{"name":"남양주시복합영농조합","tel":"031-528-6615","addr":"경기도 남양주시 진접읍 내각리 473-2","category":"회원제형태 - 레져업소"}]},{"lat":"37.705661579","long":"127.16702798","items":[{"name":"낭만에어컨공조","tel":"","addr":"경기도 남양주시 진접읍 내각리 288-7번지","category":"용역 서비스 - 기타용역서비스"}]},{"lat":"37.703856403","long":"127.16283966","items":[{"name":"내각떡방아간","tel":"031-571-4221","addr":"경기도 남양주시 진접읍 내각리 731-2번지 1층","category":"음료식품 - 제과점"},{"name":"붕붕대리운전","tel":"031-574-0434","addr":"경기도 남양주시 진접읍 내각리 731-2 8/","category":"보건위생 - 기타대인서비스"},{"name":"종합전기","tel":"031-571-9823","addr":"경기도 남양주시 진접읍 내각리 731-2번지","category":"수리서비스 - 가정용품수리"}]},{"lat":"37.703828666","long":"127.16336123","items":[{"name":"내각리연세약국","tel":"031-572-9100","addr":"경기도 남양주시 진접읍 내각리 733-8번지","category":"약국 - 약국"},{"name":"카 매니아","tel":"031-571-9338","addr":"경기도 남양주시 진접읍 내각리 733-8번지 서돌삼계탕 1호","category":"자동차정비 유지 - 세차장"}]},{"lat":"37.70521878","long":"127.16797956","items":[{"name":"내각종합카센타","tel":"031-571-5805","addr":"경기도 남양주시 진접읍 내각리 257-5번지","category":"자동차정비 유지 - 자동차정비"},{"name":"맛있는밥집","tel":"031-575-0612","addr":"경기도 남양주시 진접읍 내각리 257-5번지 1층 일부","category":"일반휴게음식 - 일반한식"},{"name":"용문각","tel":"031-572-3339","addr":"경기도 남양주시 진접읍 내각리 257-5","category":"일반휴게음식 - 중국식"}]},{"lat":"37.704186347","long":"127.16533511","items":[{"name":"내각파리바게트","tel":"031-571-7772","addr":"경기도 남양주시 진접읍 내각리 322-10","category":"음료식품 - 제과점"}]},{"lat":"37.70749428","long":"127.16431037","items":[{"name":"내각해법영어교습소","tel":"070-7516-6424","addr":"경기도 남양주시 진접읍 내각리 188-9번지 107호","category":"회원제형태 - 학원"},{"name":"노랑머리","tel":"031-573-9161","addr":"경기도 남양주시 진접읍 내각리 188-9번지 104호","category":"보건위생 - 미용원"},{"name":"명진유통","tel":"070-4320-9954","addr":"경기도 남양주시 진접읍 내각리 188-9번지 103호","category":"음료식품 - 농·축·수산품"},{"name":"씨유진접원일점","tel":"031-528-4856","addr":"경기도 남양주시 진접읍 내각리 188-9번지 1층 101, 102호","category":"유통업 영리 - 편 의 점"},{"name":"토닉음악학원","tel":"031-529-7585","addr":"경기도 남양주시 진접읍 내각리 188-9번지","category":"학원 - 예·체능계학원"}]},{"lat":"37.699433632","long":"127.16213848","items":[{"name":"농부오리가","tel":"031-571-8164","addr":"경기도 남양주시 진접읍 내각리 574-4","category":"일반휴게음식 - 일반한식"}]},{"lat":"37.703604519","long":"127.16255563","items":[{"name":"다우 에프 앤 에프","tel":"","addr":"경기도 남양주시 진접읍 내각리 730-3번지 305호","category":"보건위생 - 안경"}]},{"lat":"37.704437268","long":"127.16631088","items":[{"name":"다인패널건축","tel":"031-571-2363","addr":"경기도 남양주시 진접읍 내각리 324-8번지","category":"건축자재 - 기타건축자재"},{"name":"풍양하우징","tel":"031-571-2363","addr":"경기도 남양주시 진접읍 내각리 324-8번지","category":"건축자재 - 기타건축자재"}]},{"lat":"37.704546965","long":"127.1651658","items":[{"name":"대궐터 복권나라","tel":"031-572-0645","addr":"경기도 남양주시 진접읍 내각리 318-10번지 1층 1호","category":"기타 - 기타 전문점"},{"name":"수지헤어샵","tel":"031-571-2764","addr":"경기도 남양주시 진접읍 내각리 318-10번지 1층 102호","category":"보건위생 - 미용원"},{"name":"신궁전","tel":"031-528-0803","addr":"경기도 남양주시 진접읍 내각리 318-10번지","category":"보건위생 - 이용원"},{"name":"프로당구장","tel":"070-8666-4178","addr":"경기도 남양주시 진접읍 내각리 318-10번지 2층","category":"레저업소 - 당 구 장"}]},{"lat":"37.711245123","long":"127.17503557","items":[{"name":"대명산업","tel":"031-571-0951","addr":"경기도 남양주시 진접읍 내각리 99-10번지","category":"자동차정비 유지 - 자동차부품"}]},{"lat":"37.705128382","long":"127.16819482","items":[{"name":"대상전기조명","tel":"031-527-8382","addr":"경기도 남양주시 진접읍 내각리 257-11","category":"전기제품 - 기타전기제품"},{"name":"박가네왕족발","tel":"031-572-4493","addr":"경기도 남양주시 진접읍 내각리 257-11외1필지","category":"일반휴게음식 - 일반한식"}]},{"lat":"37.711461353","long":"127.17503607","items":[{"name":"대영상사","tel":"031-571-1503","addr":"경기도 남양주시 진접읍 내각리 99-12번지","category":"자동차정비 유지 - 자동차시트·타이어"},{"name":"진용디젤상사","tel":"031-574-8898","addr":"경기도 남양주시 진접읍 내각리 99-12번지 2층","category":"자동차정비 유지 - 자동차부품"},{"name":"현대엔진","tel":"031-554-7171","addr":"경기도 남양주시 진접읍 내각리 99-12번지","category":"기타 - 기타 전문점"}]},{"lat":"37.702801372","long":"127.16350642","items":[{"name":"대우골재.건재.철물","tel":"031-528-5810","addr":"경기도 남양주시 진접읍 내각리 705-3번지 (704-5, 708, 1)","category":"건축자재 - 기타건축자재"}]},{"lat":"37.700964203","long":"127.16292416","items":[{"name":"대일기공","tel":"031-572-1707","addr":"경기도 남양주시 진접읍 내각리 684-1번지","category":"기타 - 기계공구"},{"name":"성진레이저","tel":"031-527-2258","addr":"경기도 남양주시 진접읍 내각리 684-1번지 전체","category":"기타 - 기계공구"}]},{"lat":"37.712492084","long":"127.15950128","items":[{"name":"대한불교조계종봉영사","tel":"031-571-0555","addr":"경기도 남양주시 진접읍 내각리 148번지","category":"신변잡화 - 기념품점"}]},{"lat":"37.704579718","long":"127.16753589","items":[{"name":"덕신회수산","tel":"031-572-9919","addr":"경기도 남양주시 진접읍 내각리 272-4","category":"일반휴게음식 - 일반한식"},{"name":"소담커피","tel":"031-528-1369","addr":"경기도 남양주시 진접읍 내각리 272-4번지 1층","category":"일반휴게음식 - 일반한식"},{"name":"알엘티비2(R.MTB2)","tel":"031-571-7476","addr":"경기도 남양주시 진접읍 내각리 272-4번지 1층","category":"레져용품 - 스포츠·레져용품"}]},{"lat":"37.705440205","long":"127.16422653","items":[{"name":"돈맛골","tel":"031-528-2348","addr":"경기도 남양주시 진접읍 내각리 754-3","category":"일반휴게음식 - 일반한식"},{"name":"아자노래연습장","tel":"031-529-0153","addr":"경기도 남양주시 진접읍 내각리 754-3번지 외2필지 천보아트빌라 2층","category":"레저업소 - 노 래 방"},{"name":"예쁜여자","tel":"031-527-3220","addr":"경기도 남양주시 진접읍 내각리 754-3번지 1층","category":"의류 - 정장"}]},{"lat":"37.705552213","long":"127.1679236","items":[{"name":"돈사랑","tel":"031-575-3743","addr":"경기도 남양주시 진접읍 내각리 253-1번지 1층","category":"일반휴게음식 - 일반한식"},{"name":"만나밥집","tel":"031-527-3315","addr":"경기도 남양주시 진접읍 내각리 253-1번지","category":"일반휴게음식 - 일반한식"}]},{"lat":"37.706685719","long":"127.16261894","items":[{"name":"동명씽크","tel":"031-528-9918","addr":"경기도 남양주시 진접읍 내각리 760-2","category":"주방용구 - 주방용구"}]},{"lat":"37.707049637","long":"127.16661146","items":[{"name":"동방유리샷시","tel":"031-571-6535","addr":"경기도 남양주시 진접읍 내각리 215-1","category":"건축자재 - 유리"}]},{"lat":"37.711020908","long":"127.17433192","items":[{"name":"동서울엔진","tel":"031-572-3366","addr":"경기도 남양주시 진접읍 내각리 101-1,99-12외2필지(99-6,99-8)","category":"기타 - 기타 전문점"},{"name":"영원엔진","tel":"02-3423-1906","addr":"경기도 남양주시 진접읍 내각리 101-1 ,99-12 외2필지","category":"수리서비스 - 레져용품수리"},{"name":"장현엔진","tel":"02-3421-9522","addr":"경기도 남양주시 진접읍 내각리 101-1,99-12외2필지","category":"수리서비스 - 레져용품수리"},{"name":"제일보링조립부","tel":"031-862-5592","addr":"경기도 남양주시 진접읍 내각리 101-1 ,99-12외2필지","category":"기타 - 기계공구"},{"name":"화인상사","tel":"031-559-9090","addr":"경기도 남양주시 진접읍 내각리 101-1","category":"자동차정비 유지 - 자동차부품"}]},{"lat":"37.706299395","long":"127.16181296","items":[{"name":"동현종합주방","tel":"","addr":"경기도 남양주시 진접읍 내각리 764-4번지","category":"주방용구 - 주방용구"}]},{"lat":"37.705133118","long":"127.16478152","items":[{"name":"돼지머리국밥","tel":"031-572-4356","addr":"경기도 남양주시 진접읍 내각리 754번지 풍암빌딩 108호","category":"일반휴게음식 - 일반한식"},{"name":"불타는연탄구이","tel":"031-571-8964","addr":"경기도 남양주시 진접읍 내각리 754번지","category":"일반휴게음식 - 일반한식"},{"name":"삼원회수산","tel":"031-527-7542","addr":"경기도 남양주시 진접읍 내각리 754번지 내각 754동 105호","category":"일반휴게음식 - 일반한식"},{"name":"소민헤어","tel":"031-513-9858","addr":"경기도 남양주시 진접읍 내각리 754번지 풍양빌딩 1층 107호","category":"보건위생 - 미용원"},{"name":"옛닭","tel":"031-000-0000","addr":"경기도 남양주시 진접읍 내각리 754번지","category":"일반휴게음식 - 스넥"},{"name":"장가네축산","tel":"031-111-1111","addr":"경기도 남양주시 진접읍 내각리 754번지 풍양빌딩 101호","category":"음료식품 - 정육점"},{"name":"청진동해물찜","tel":"031-529-3111","addr":"경기도 남양주시 진접읍 내각리 754번지 풍양빌딩 1층 102호","category":"일반휴게음식 - 일반한식"},{"name":"커피베이(내각점)","tel":"031-572-5345","addr":"경기도 남양주시 진접읍 내각리 754번지 풍양빌딩 2층","category":"일반휴게음식 - 서양음식"},{"name":"파워헬스","tel":"031-528-5345","addr":"경기도 남양주시 진접읍 내각리 754번지 풍양빌딩 3층","category":"레저업소 - 헬스클럽"},{"name":"피에스타PC방 남양주 내각점","tel":"070-5019-9383","addr":"경기도 남양주시 진접읍 내각리 754번지 풍양빌딩 4층","category":"레저업소 - 기타레져업소"}]},{"lat":"37.710410208","long":"127.16661885","items":[{"name":"두영메디앤씨","tel":"031-575-3883","addr":"경기도 남양주시 진접읍 내각리 118-7번지","category":"보건위생 - 의료용품"}]},{"lat":"37.704105558","long":"127.16511948","items":[{"name":"드림호프","tel":"031-528-0210","addr":"경기도 남양주시 진접읍 내각리 322-3번지","category":"일반휴게음식 - 주점"},{"name":"라온텔레콤","tel":"070-8253-7040","addr":"경기도 남양주시 진접읍 내각리 322-3번지","category":"사무통신 - 통신기기"}]},{"lat":"37.704994206","long":"127.16750279","items":[{"name":"등마루","tel":"031-571-5007","addr":"경기도 남양주시 진접읍 내각리 277-1번지","category":"일반휴게음식 - 일반한식"},{"name":"카젠","tel":"031-572-2019","addr":"경기도 남양주시 진접읍 내각리 277-1번지 1층","category":"일반휴게음식 - 주점"},{"name":"태양다방","tel":"031-572-5526","addr":"경기도 남양주시 진접읍 내각리 277-1번지 2층","category":"일반휴게음식 - 서양음식"},{"name":"팡팡노래연습장","tel":"031-574-1069","addr":"경기도 남양주시 진접읍 내각리 277-1번지 지하1층","category":"레저업소 - 노 래 방"}]},{"lat":"37.70535405","long":"127.16788914","items":[{"name":"란 헤어샵","tel":"031-574-0128","addr":"경기도 남양주시 진접읍 내각리 253-2번지 102호","category":"보건위생 - 미용원"},{"name":"풍년떡방앗간","tel":"031-571-8046","addr":"경기도 남양주시 진접읍 내각리 253-2번지 상가 1층 101호","category":"음료식품 - 제과점"}]},{"lat":"37.703468498","long":"127.16320169","items":[{"name":"렉커(Lecker)트레이드","tel":"","addr":"경기도 남양주시 진접읍 내각리 732-11번지 청송빌리지 204호","category":"음료식품 - 기타음료식품"}]},{"lat":"37.70004561","long":"127.16263871","items":[{"name":"로뎀나무아래서","tel":"070-8157-1874","addr":"경기도 남양주시 진접읍 내각리 682-1번지","category":"일반휴게음식 - 스넥"},{"name":"성일로스타 주식회사","tel":"031-529-5757","addr":"경기도 남양주시 진접읍 내각리 682-1번지","category":"주방용구 - 주방용구"}]},{"lat":"37.703158403","long":"127.17234073","items":[{"name":"로드팩토리 주식회사","tel":"070-7728-5970","addr":"경기도 남양주시 진접읍 내각리 373-12번지 2층","category":"자동차정비 유지 - 자동차부품"},{"name":"주식회사 비엠에이","tel":"070-8669-9707","addr":"경기도 남양주시 진접읍 내각리 373-12번지","category":"자동차정비 유지 - 자동차부품"}]},{"lat":"37.705674594","long":"127.16412498","items":[{"name":"만나유통","tel":"031-528-3379","addr":"경기도 남양주시 진접읍 내각리 754-1번지 천보아트빌라 101동 101호","category":"음료식품 - 정육점"}]},{"lat":"37.704799452","long":"127.16500759","items":[{"name":"먹구봐","tel":"031-572-4541","addr":"경기도 남양주시 진접읍 내각리 745번지 1층일부","category":"일반휴게음식 - 일반한식"},{"name":"문화예술심리상담연구센터(통합예술심리교","tel":"031-572-3872","addr":"경기도 남양주시 진접읍 내각리 745번지 경기도 남양주시 진진읍 내각2로 8-8,2층","category":"보건위생 - 기타대인서비스"},{"name":"바글바글","tel":"031-573-7253","addr":"경기도 남양주시 진접읍 내각리 745번지 1층","category":"일반휴게음식 - 스넥"},{"name":"씨에프숯불바베큐치킨","tel":"031-571-8292","addr":"경기도 남양주시 진접읍 내각리 745번지","category":"일반휴게음식 - 주점"},{"name":"오사식품","tel":"031-571-4541","addr":"경기도 남양주시 진접읍 내각리 745","category":"음료식품 - 기타음료식품"},{"name":"왕순대","tel":"031-527-8455","addr":"경기도 남양주시 진접읍 내각리 745","category":"일반휴게음식 - 일반한식"},{"name":"이모네백반","tel":"031-527-5929","addr":"경기도 남양주시 진접읍 내각리 745번지 102호","category":"일반휴게음식 - 일반한식"}]},{"lat":"37.711627553","long":"127.16586169","items":[{"name":"모아유통","tel":"","addr":"경기도 남양주시 진접읍 내각리 125-1번지","category":"음료식품 - 기타음료식품"}]},{"lat":"37.703379003","long":"127.16275926","items":[{"name":"문화예술어린이집[아이행복]","tel":"031-573-3774","addr":"경기도 남양주시 진접읍 내각리 732-17번지","category":"학원 - 유아원"}]},{"lat":"37.697768566","long":"127.16086498","items":[{"name":"뮤지엄키움협동조합","tel":"031-529-3690","addr":"경기도 남양주시 진접읍 내각리 589번지 1층","category":"용역 서비스 - 사무서비스"},{"name":"우석헌자연사박물관","tel":"031-572-9222","addr":"경기도 남양주시 진접읍 내각리 589번지 (내각리 589-1,587,589)","category":"문화.취미 - 티켓"}]},{"lat":"37.705438991","long":"127.16511105","items":[{"name":"미성씨엔에스","tel":"031-123-1234","addr":"경기도 남양주시 진접읍 내각리 756-4번지","category":"건축자재 - 인테리어전문"}]},{"lat":"37.70357407","long":"127.16506162","items":[{"name":"미소유통","tel":"031-575-4407","addr":"경기도 남양주시 진접읍 내각리 702-4번지 1층","category":"음료식품 - 기타음료식품"}]},{"lat":"37.709824949","long":"127.15972248","items":[{"name":"바른시스템","tel":"031-523-8767","addr":"경기도 남양주시 진접읍 내각리 167-8번지","category":"건축자재 - 기타건축자재"},{"name":"청춘공구","tel":"031-529-4200","addr":"경기도 남양주시 진접읍 내각리 167-8번지","category":"기타 - 기계공구"}]},{"lat":"37.705183992","long":"127.16708363","items":[{"name":"법범사","tel":"031-527-1589","addr":"경기도 남양주시 진접읍 내각리 284-3번지","category":"보건위생 - 기타대인서비스"}]},{"lat":"37.709629596","long":"127.16428098","items":[{"name":"벧엘","tel":"031-527-6064","addr":"경기도 남양주시 진접읍 내각리 196번지","category":"직물 - 기타직물"}]},{"lat":"37.704821897","long":"127.16830753","items":[{"name":"병현전자","tel":"031-574-9255","addr":"경기도 남양주시 진접읍 내각리 258-7번지","category":"전기제품 - 가전제품"},{"name":"안성상사","tel":"031-571-0154","addr":"경기도 남양주시 진접읍 내각리 258-7번지","category":"기타 - 기계공구"}]},{"lat":"37.707882374","long":"127.16381224","items":[{"name":"보물선수산","tel":"","addr":"경기도 남양주시 진접읍 내각리 189-7번지 다우에코빌 B동 303호","category":"음료식품 - 농·축·수산품"}]},{"lat":"37.70943826","long":"127.15917732","items":[{"name":"보배산업주식회사","tel":"031-575-3636","addr":"경기도 남양주시 진접읍 내각리 144-14번지","category":"기타 - 기계공구"},{"name":"우드퍼커","tel":"031-529-0441","addr":"경기도 남양주시 진접읍 내각리 144-14번지","category":"건축자재 - 인테리어전문"}]},{"lat":"37.700298767","long":"127.16198158","items":[{"name":"봉식당","tel":"031-574-7003","addr":"경기도 남양주시 진접읍 내각리 678-3번지 1층","category":"일반휴게음식 - 일반한식"}]},{"lat":"37.702298492","long":"127.14834449","items":[{"name":"비비탑주식회사","tel":"031-572-9696","addr":"경기도 남양주시 진접읍 내각리 807-20번지","category":"음료식품 - 농·축·수산품"}]},{"lat":"37.705827431","long":"127.16436345","items":[{"name":"삐아제어린이집[아이행복]","tel":"031-573-2553","addr":"경기도 남양주시 진접읍 내각리 756-6","category":"학원 - 유아원"}]},{"lat":"37.707105289","long":"127.15878686","items":[{"name":"삼광","tel":"070-6385-8090","addr":"경기도 남양주시 진접읍 내각리 165-17번지","category":"자동차정비 유지 - 자동차부품"},{"name":"삼광기어","tel":"070-2366-5469","addr":"경기도 남양주시 진접읍 내각리 165-17번지","category":"자동차정비 유지 - 자동차부품"}]},{"lat":"37.703162142","long":"127.16322371","items":[{"name":"삼정숯불갈비","tel":"","addr":"경기도 남양주시 진접읍 내각리 705-1번지 1층","category":"일반휴게음식 - 일반한식"},{"name":"성우갈비","tel":"031-571-3694","addr":"경기도 남양주시 진접읍 내각리 705-1번지","category":"일반휴게음식 - 일반한식"}]},{"lat":"37.704717256","long":"127.16581254","items":[{"name":"서울철물","tel":"031-571-2411","addr":"경기도 남양주시 진접읍 내각리 322-7","category":"건축자재 - 목재·석재·철물"},{"name":"준흥상사","tel":"","addr":"경기도 남양주시 진접읍 내각리 322-7번지","category":"자동차정비 유지 - 자동차부품"}]},{"lat":"37.703326523","long":"127.16159116","items":[{"name":"서원철공","tel":"031-575-4376","addr":"경기도 남양주시 진접읍 내각리 712-2번지","category":"용역 서비스 - 기타용역서비스"}]},{"lat":"37.706146496","long":"127.1681744","items":[{"name":"성민공조시스템에어컨","tel":"","addr":"경기도 남양주시 진접읍 내각리 237-2번지 천보숲속타운 101동 402호","category":"전기제품 - 냉열기기"},{"name":"아리따운","tel":"031-529-3115","addr":"경기도 남양주시 진접읍 내각리 237-2번지 천보숲속타운 101동 401호","category":"보건위생 - 화장품"}]},{"lat":"37.707437474","long":"127.16630613","items":[{"name":"성산유리","tel":"070-4477-0228","addr":"경기도 남양주시 진접읍 내각리 214번지 이현궁안에 202동 405호","category":"건축자재 - 유리"}]},{"lat":"37.708658755","long":"127.16266853","items":[{"name":"성원푸드","tel":"070-4230-4746","addr":"경기도 남양주시 진접읍 내각리 187-1번지","category":"음료식품 - 기타음료식품"}]},{"lat":"37.706824697","long":"127.1663955","items":[{"name":"세븐일레븐남양주내각리점","tel":"031-1577-0711","addr":"경기도 남양주시 진접읍 내각리 252-34번지 1층","category":"유통업 영리 - 편 의 점"},{"name":"예성어린이집[아이행복]","tel":"031-528-2824","addr":"경기도 남양주시 진접읍 내각리 252-34번지","category":"학원 - 유아원"}]},{"lat":"37.709988108","long":"127.16564263","items":[{"name":"세원수출포장","tel":"031-529-8668","addr":"경기도 남양주시 진접읍 내각리 199-4번지","category":"유통업 영리 - 기타유통업"}]},{"lat":"37.705211636","long":"127.16664144","items":[{"name":"소리봉가든","tel":"031-572-6885","addr":"경기도 남양주시 진접읍 내각리 285번지 1층","category":"일반휴게음식 - 일반한식"}]},{"lat":"37.704076003","long":"127.16694511","items":[{"name":"수성철망","tel":"031-572-7458","addr":"경기도 남양주시 진접읍 내각리 271-1","category":"건축자재 - 목재·석재·철물"}]},{"lat":"37.710550091","long":"127.17591854","items":[{"name":"스피드메이트 보성점","tel":"031-527-0500","addr":"경기도 남양주시 진접읍 내각리 96-1번지","category":"자동차정비 유지 - 자동차정비"}]},{"lat":"37.710049021","long":"127.16719643","items":[{"name":"시내상사","tel":"","addr":"경기도 남양주시 진접읍 내각리 223-2번지","category":"자동차정비 유지 - 자동차부품"}]},{"lat":"37.707605174","long":"127.17508385","items":[{"name":"신우냉동","tel":"031-572-2252","addr":"경기도 남양주시 진접읍 내각리 85-5번지","category":"전기제품 - 냉열기기"}]},{"lat":"37.700746847","long":"127.16375146","items":[{"name":"쌍마기계","tel":"031-529-4200","addr":"경기도 남양주시 진접읍 내각리 688-3번지","category":"기타 - 기계공구"}]},{"lat":"37.705047677","long":"127.16792248","items":[{"name":"씨유진접내각점","tel":"031-575-7977","addr":"경기도 남양주시 진접읍 내각리 257-7번지","category":"유통업 영리 - 편 의 점"},{"name":"진건강원","tel":"031-513-2081","addr":"경기도 남양주시 진접읍 내각리 257-7번지 103호","category":"건강식품 - 기타건강식품"}]},{"lat":"37.705215306","long":"127.16397657","items":[{"name":"아이스크림창고","tel":"031-821-1410","addr":"경기도 남양주시 진접읍 내각리 751-2번지 1층","category":"음료식품 - 기타음료식품"}]},{"lat":"37.705021076","long":"127.16761625","items":[{"name":"엘라헤어","tel":"031-573-8004","addr":"경기도 남양주시 진접읍 내각리 277-5번지 일부 101호","category":"보건위생 - 미용원"}]},{"lat":"37.704688953","long":"127.17309264","items":[{"name":"엘레강스","tel":"031-573-2545","addr":"경기도 남양주시 진접읍 내각리 53-3번지 1층","category":"가구 - 일반가구"}]},{"lat":"37.70626065","long":"127.16380873","items":[{"name":"엠제이 커스텀(MJ Custom)","tel":"","addr":"경기도 남양주시 진접읍 내각리 755-3번지 천보아트빌라 107동 102호","category":"자동차정비 유지 - 세차장"}]},{"lat":"37.709132415","long":"127.15881378","items":[{"name":"영원중기","tel":"031-575-8206","addr":"경기도 남양주시 진접읍 내각리 144-15번지","category":"기타 - 기계공구"}]},{"lat":"37.704520622","long":"127.16466679","items":[{"name":"예랑부엌","tel":"031-529-5245","addr":"경기도 남양주시 진접읍 내각리 747번지 백석빌딩","category":"음료식품 - 농·축·수산품"},{"name":"진접서울치과의원","tel":"031-528-7528","addr":"경기도 남양주시 진접읍 내각리 747번지 백석빌딩 3층","category":"의원 - 치과의원"}]},{"lat":"37.703578425","long":"127.16186385","items":[{"name":"예작인테리어","tel":"070-8956-2618","addr":"경기도 남양주시 진접읍 내각리 722-2번지","category":"건축자재 - 인테리어전문"}]},{"lat":"37.704940213","long":"127.16086885","items":[{"name":"오대양브러쉬","tel":"031-528-9833","addr":"경기도 남양주시 진접읍 내각리 765-17","category":"유통업 영리 - 기타유통업"}]},{"lat":"37.704327956","long":"127.16717246","items":[{"name":"오륜상사","tel":"031-517-0884","addr":"경기도 남양주시 진접읍 내각리 271-4번지","category":"자동차정비 유지 - 자동차시트·타이어"},{"name":"오륜자동차공업사","tel":"031-572-0803","addr":"경기도 남양주시 진접읍 내각리 271-4번지","category":"자동차정비 유지 - 자동차정비"},{"name":"태원메탈","tel":"031-571-4226","addr":"경기도 남양주시 진접읍 내각리 271-4번지","category":"전기제품 - 기타전기제품"}]},{"lat":"37.703878892","long":"127.17253514","items":[{"name":"오브제랩","tel":"070-8031-4038","addr":"경기도 남양주시 진접읍 내각리 43-3번지","category":"신변잡화 - 기타잡화"}]},{"lat":"37.699073845","long":"127.16169549","items":[{"name":"옥화식당진접점","tel":"031-529-1573","addr":"경기도 남양주시 진접읍 내각리 576번지 1층","category":"일반휴게음식 - 일반한식"}]},{"lat":"37.70843956","long":"127.15814325","items":[{"name":"우드악기","tel":"031-000-0000","addr":"경기도 남양주시 진접읍 내각리 164-5번지","category":"레져용품 - 악기점"}]},{"lat":"37.697768186","long":"127.16772492","items":[{"name":"우일기계","tel":"031-527-6774","addr":"경기도 남양주시 진접읍 내각리 421번지","category":"기타 - 기계공구"}]},{"lat":"37.70349619","long":"127.15592171","items":[{"name":"운정가든","tel":"031-571-7214","addr":"경기도 남양주시 진접읍 내각리 628-3번지","category":"일반휴게음식 - 일반한식"}]},{"lat":"37.707854555","long":"127.16439053","items":[{"name":"원일크리닝세탁소","tel":"031-528-6656","addr":"경기도 남양주시 진접읍 내각리 191번지 세진빌딩 105호","category":"수리서비스 - 세탁소"},{"name":"한국축산유통","tel":"031-575-9952","addr":"경기도 남양주시 진접읍 내각리 191번지 102호","category":"음료식품 - 정육점"}]},{"lat":"37.703018327","long":"127.16297393","items":[{"name":"원일한식부페","tel":"031-571-2254","addr":"경기도 남양주시 진접읍 내각리 708-7번지 1층 3호","category":"일반휴게음식 - 일반한식"},{"name":"주식회사 다온코리아","tel":"031-592-5475","addr":"경기도 남양주시 진접읍 내각리 708-7번지","category":"음료식품 - 정육점"}]},{"lat":"37.703352879","long":"127.16209016","items":[{"name":"월간 맛싸","tel":"070-4126-3496","addr":"경기도 남양주시 진접읍 내각리 711번지","category":"서적문구 - 출판 및 인쇄물"}]},{"lat":"37.70354532","long":"127.16630892","items":[{"name":"유진토탈주방","tel":"031-528-7750","addr":"경기도 남양주시 진접읍 내각리 265-15번지","category":"주방용구 - 주방용구"}]},{"lat":"37.701712537","long":"127.16252889","items":[{"name":"으뜸서적","tel":"031-528-5621","addr":"경기도 남양주시 진접읍 내각리 671-1번지 104호","category":"회원제형태 - 서적"},{"name":"이레카오일교환할인점","tel":"031-563-8704","addr":"경기도 남양주시 진접읍 내각리 671-1","category":"자동차정비 유지 - 자동차정비"}]},{"lat":"37.707044124","long":"127.17053515","items":[{"name":"이노션","tel":"031-515-7951","addr":"경기도 남양주시 진접읍 내각리 263-8번지","category":"보건위생 - 화장품"},{"name":"지우아울렛","tel":"031-573-8685","addr":"경기도 남양주시 진접읍 내각리 263-8번지","category":"레져용품 - 스포츠·레져용품"}]},{"lat":"37.703802653","long":"127.16261275","items":[{"name":"정메디칼","tel":"070-7802-3316","addr":"경기도 남양주시 진접읍 내각리 730-2번지","category":"보건위생 - 의료용품"},{"name":"캐리어에어컨(별내센터)","tel":"70-8884-6684","addr":"경기도 남양주시 진접읍 내각리 730-2번지","category":"전기제품 - 냉열기기"},{"name":"태풍에어컨","tel":"070-8225-6297","addr":"경기도 남양주시 진접읍 내각리 730-2번지 내각2리마을회관 204호","category":"용역 서비스 - 기타용역서비스"}]},{"lat":"37.70705208","long":"127.1648424","items":[{"name":"조은인테리어","tel":"031-527-2500","addr":"경기도 남양주시 진접읍 내각리 759-5번지","category":"건축자재 - 인테리어전문"}]},{"lat":"37.703357606","long":"127.17164947","items":[{"name":"좋은성명연구원 타로","tel":"031-528-1369","addr":"경기도 남양주시 진접읍 내각리 372-3번지 동명빌라 101동 201호","category":"보건위생 - 기타대인서비스"}]},{"lat":"37.705823972","long":"127.16686958","items":[{"name":"좋은집만들기","tel":"031-575-8577","addr":"경기도 남양주시 진접읍 내각리 288-3번지","category":"건축자재 - 보일러·펌프·샷시"}]},{"lat":"37.709823313","long":"127.16094726","items":[{"name":"주식회사 스위트컵","tel":"02-468-1855","addr":"경기도 남양주시 진접읍 내각리 169-6번지","category":"음료식품 - 기타음료식품"}]},{"lat":"37.702018893","long":"127.16250687","items":[{"name":"주식회사 천혜인코스메틱","tel":"031-527-3349","addr":"경기도 남양주시 진접읍 내각리 671-7번지 창고","category":"보건위생 - 화장품"}]},{"lat":"37.70738382","long":"127.15936579","items":[{"name":"주식회사베스트인도어","tel":"02-1661-9548","addr":"경기도 남양주시 진접읍 내각리 165-76번지","category":"건축자재 - 목재·석재·철물"}]},{"lat":"37.704689426","long":"127.16639081","items":[{"name":"진주인테리어","tel":"031-571-0823","addr":"경기도 남양주시 진접읍 내각리 323-8","category":"건축자재 - 인테리어전문"}]},{"lat":"37.707214455","long":"127.16469533","items":[{"name":"찬스치킨호프","tel":"031-527-2726","addr":"경기도 남양주시 진접읍 내각리 759-3","category":"일반휴게음식 - 주점"}]},{"lat":"37.697517387","long":"127.16666987","items":[{"name":"채원리빙","tel":"02-3422-6534","addr":"경기도 남양주시 진접읍 내각리 427-1번지 B동","category":"주방용구 - 주방용구"}]},{"lat":"37.704329015","long":"127.15977894","items":[{"name":"처갓집통닭","tel":"031-573-6221","addr":"경기도 남양주시 진접읍 내각리 714-4번지","category":"일반휴게음식 - 스넥"}]},{"lat":"37.703326722","long":"127.15459463","items":[{"name":"청마승마클럽","tel":"031-571-9016","addr":"경기도 남양주시 진접읍 내각리 621-1","category":"레저업소 - 기타레져업소"}]},{"lat":"37.706075593","long":"127.16733508","items":[{"name":"초가집","tel":"031-528-1785","addr":"경기도 남양주시 진접읍 내각리 252-1번지","category":"일반휴게음식 - 일반한식"}]},{"lat":"37.707961807","long":"127.17144444","items":[{"name":"캘리포니아","tel":"031-527-3388","addr":"경기도 남양주시 진접읍 내각리 77-5","category":"숙박업 - 여관/기타숙박업"}]},{"lat":"37.704266196","long":"127.16623113","items":[{"name":"크라운","tel":"","addr":"경기도 남양주시 진접읍 내각리 324-19번지","category":"음료식품 - 기타음료식품"}]},{"lat":"37.709905294","long":"127.16688992","items":[{"name":"클로버쇼파","tel":"031-528-6210","addr":"경기도 남양주시 진접읍 내각리 223-1번지","category":"수리서비스 - 기타수리서비스"}]},{"lat":"37.70760476","long":"127.17536736","items":[{"name":"태성체어","tel":"031-575-3778","addr":"경기도 남양주시 진접읍 내각리 85-12번지","category":"가구 - 일반가구"}]},{"lat":"37.704301085","long":"127.167059","items":[{"name":"태원전기","tel":"031-571-4226","addr":"경기도 남양주시 진접읍 내각리 271-3번지","category":"전기제품 - 기타전기제품"}]},{"lat":"37.712133481","long":"127.17128377","items":[{"name":"테라쇼케이스","tel":"031-1544-4360","addr":"경기도 남양주시 진접읍 내각리 107-1번지 가동","category":"주방용구 - 주방용구"}]},{"lat":"37.703739017","long":"127.16303218","items":[{"name":"토탈의류","tel":"070-7779-1211","addr":"경기도 남양주시 진접읍 내각리 732-2번지","category":"의류 - 정장"}]},{"lat":"37.705794693","long":"127.1684798","items":[{"name":"푸르메스마트팜서울농원시립장애인영농직업","tel":"031-572-4025","addr":"경기도 남양주시 진접읍 내각리 255번지","category":"음료식품 - 농·축·수산품"}]},{"lat":"37.703516364","long":"127.1611153","items":[{"name":"풍양조경자재","tel":"031-575-1170","addr":"경기도 남양주시 진접읍 내각리 713-3번지","category":"건축자재 - 인테리어전문"}]},{"lat":"37.702047086","long":"127.16164513","items":[{"name":"풍양초등학교병설유치원[아이행복]","tel":"031-571-2214","addr":"경기도 남양주시 진접읍 내각리 640-3번지 풍양초등학교","category":"학원 - 유치원"}]},{"lat":"37.707022057","long":"127.1670083","items":[{"name":"한결농산","tel":"031-527-9975","addr":"경기도 남양주시 진접읍 내각리 245번지","category":"음료식품 - 기타음료식품"}]},{"lat":"37.704132087","long":"127.16548241","items":[{"name":"한라장","tel":"031-571-5117","addr":"경기도 남양주시 진접읍 내각리 324-17번지","category":"숙박업 - 여관/기타숙박업"}]},{"lat":"37.705849609","long":"127.16786756","items":[{"name":"한솔마켓","tel":"031-571-2629","addr":"경기도 남양주시 진접읍 내각리 243-7번지","category":"유통업 영리 - 슈퍼마켓"}]},{"lat":"37.705687484","long":"127.16783318","items":[{"name":"한신세탁소","tel":"031-529-7178","addr":"경기도 남양주시 진접읍 내각리 253","category":"수리서비스 - 세탁소"}]},{"lat":"37.708216146","long":"127.16350677","items":[{"name":"한양","tel":"","addr":"경기도 남양주시 진접읍 내각리 187-2번지","category":"가구 - 일반가구"}]},{"lat":"37.704017404","long":"127.16370182","items":[{"name":"해물마을","tel":"031-527-2781","addr":"경기도 남양주시 진접읍 내각리 740-3번지 1층","category":"일반휴게음식 - 일반한식"}]},{"lat":"37.7043221","long":"127.16489316","items":[{"name":"해바라기","tel":"031-575-3969","addr":"경기도 남양주시 진접읍 내각리 745번지 1호","category":"의류 - 정장"}]},{"lat":"37.703660928","long":"127.16080944","items":[{"name":"협성상회","tel":"031-527-0811","addr":"경기도 남양주시 진접읍 내각리 713-1","category":"기타 - 기계공구"}]}]