[{"lat":"37.865718845","long":"127.17072349","items":[{"name":"(사단)쉼터선교복지재단","tel":"031-535-0675","addr":"경기도 포천시 자작동 404-1번지","category":"기타 - 비영리/대상"},{"name":"쉼터선교복지요양원","tel":"031-536-1355","addr":"경기도 포천시 자작동 404-1","category":"기타의료기관 - 기타의료기관 및 기타"},{"name":"쉼터선교복지요양원","tel":"536-1355","addr":"경기도 포천시 자작동 404-1번지","category":"-"},{"name":"십자가복음교회","tel":"031-536-8976","addr":"경기도 포천시 자작동 404-1번지","category":"기타 - 비영리/대상"},{"name":"행복한밥상","tel":"031-536-1355","addr":"경기도 포천시 자작동 404-1번지 1층","category":"일반휴게음식 - 위탁급식업"}]},{"lat":"37.866280713","long":"127.17469098","items":[{"name":"(주)그린건설","tel":"031-532-8844","addr":"경기도 포천시 자작동 258-1번지","category":"건축자재 - 인테리어전문"}]},{"lat":"37.875722105","long":"127.16216486","items":[{"name":"(주)인앤인디엔피","tel":"031-536-1103","addr":"경기도 포천시 자작동 588-4번지 411호, 101호","category":"서적문구 - 문구용품"},{"name":"㈜인앤인디엔피","tel":"536-1103","addr":"경기도 포천시 자작동 588-4번지 411호,101호","category":"제조업 - 판촉,인쇄"},{"name":"농업회사법인 주식회사 과농","tel":"031-531-7715","addr":"경기도 포천시 자작동 588-4번지 경기대진테크노파크 3층 303호","category":"용역 서비스 - 사무서비스"},{"name":"농업회사법인(주)육성에그리/원격지","tel":"031-535-5866","addr":"경기도 포천시 자작동 588-4번지 종합지원센터 103호","category":"기타 - 기타 전문점"},{"name":"농업회사법인주식회사육성에그리","tel":"031-535-5886","addr":"경기도 포천시 자작동 588-4번지 종합지원센터 103호","category":"농업 - 기타농업관련"},{"name":"대진문화사","tel":"02-2273-0209","addr":"경기도 포천시 자작동 588-4번지","category":"서적문구 - 출판 및 인쇄물"},{"name":"마홀디자인협동조합","tel":"031-1111-1111","addr":"경기도 포천시 자작동 588-4번지","category":"가구 - 일반가구"},{"name":"브이아이피여행(주)(VIP Travel Co., Ltd.)","tel":"031-1577-0766","addr":"경기도 포천시 자작동 588-4번지","category":"여행 - 관광여행"},{"name":"스튜디오-엘 (Studio-L)","tel":"","addr":"경기도 포천시 자작동 588-4번지 경기대진테크노파크 2층 시험생산동","category":"가구 - 일반가구"},{"name":"우드스퀘어","tel":"02-111-1111","addr":"경기도 포천시 자작동 588-4번지 2층","category":"가구 - 일반가구"},{"name":"웰코리아","tel":"070-8238-3104","addr":"경기도 포천시 자작동 588-4번지 경기대진테크노파크 301호","category":"서적문구 - 완구점"},{"name":"주식회사 골드타임","tel":"031-533-6551","addr":"경기도 포천시 자작동 588-4번지 (재)경기대진테크노파크 404-2","category":"신변잡화 - 기타잡화"},{"name":"주식회사 더쌤","tel":"031-788-2803","addr":"경기도 포천시 자작동 588-4번지 510호","category":"주방용구 - 정수기"},{"name":"주식회사 오반","tel":"031-868-4577","addr":"경기도 포천시 자작동 588-4번지 4층 411호-2호","category":"신변잡화 - 기타잡화"},{"name":"주식회사 퓨어텍","tel":"031-535-8981","addr":"경기도 포천시 자작동 588-4번지 B104호","category":"신변잡화 - 기타잡화"},{"name":"주식회사레온","tel":"031-533-7915","addr":"경기도 포천시 자작동 588-4번지 경기대진대테크노파크 1층 103호","category":"의류 - 기타의류"},{"name":"주식회사신진에코","tel":"031-536-2500","addr":"경기도 포천시 자작동 588-4번지 414호","category":"주방용구 - 주방용구"},{"name":"창수농원","tel":"070-4202-2676","addr":"경기도 포천시 자작동 588-4번지 경기대진테크노파크종합지원센타 1층 103호","category":"음료식품 - 농·축·수산품"}]},{"lat":"37.863003561","long":"127.17313787","items":[{"name":"(주)타이어스쿨","tel":"031-534-3536","addr":"경기도 포천시 자작동 353-6번지","category":"자동차정비 유지 - 자동차시트·타이어"}]},{"lat":"37.873528646","long":"127.17163909","items":[{"name":"SL싱싱푸드","tel":"031-8080-1230","addr":"경기도 포천시 자작동 144번지 B동 1호","category":"음료식품 - 기타음료식품"}]},{"lat":"37.865802571","long":"127.17513309","items":[{"name":"가야종합렌탈","tel":"","addr":"경기도 포천시 자작동 264-10번지","category":"기타 - 기계공구"}]},{"lat":"37.866532808","long":"127.17480521","items":[{"name":"경원콤프레셔","tel":"031-535-9157","addr":"경기도 포천시 자작동 225-12번지","category":"기타 - 기계공구"},{"name":"스카이오트","tel":"031-535-5393","addr":"경기도 포천시 자작동 225-12번지","category":"자동차정비 유지 - 자동차부품"}]},{"lat":"37.870668079","long":"127.18088384","items":[{"name":"광진상사","tel":"031-535-0490","addr":"경기도 포천시 자작동 27-2번지 1호","category":"건축자재 - 페인트"},{"name":"씨유포천군단점","tel":"031-536-0570","addr":"경기도 포천시 자작동 27-2번지 건물 1층","category":"유통업 영리 - 편 의 점"}]},{"lat":"37.870891796","long":"127.18188452","items":[{"name":"군단카공업사","tel":"031-535-1844","addr":"경기도 포천시 자작동 19-3번지","category":"자동차정비 유지 - 자동차정비"},{"name":"한터광고기획","tel":"031-533-9909","addr":"경기도 포천시 자작동 19-3번지","category":"용역 서비스 - 종합용역"}]},{"lat":"37.876222094","long":"127.18400013","items":[{"name":"귀뚜라미포천철원대리점","tel":"031-535-9000","addr":"경기도 포천시 자작동 5-1번지 2층","category":"기타 - 기계공구"},{"name":"종이학인테리어협동조합","tel":"031-928-5886","addr":"경기도 포천시 자작동 5-1번지","category":"건축자재 - 인테리어전문"}]},{"lat":"37.862418513","long":"127.17275015","items":[{"name":"그린종합주방백화점","tel":"535-9878","addr":"경기도 포천시 자작동 349-1번지","category":"도소매 - 주방가국"},{"name":"그린종합주방백화점","tel":"031-535-9878","addr":"경기도 포천시 자작동 349-1번지","category":"주방용구 - 주방용식기"},{"name":"삼강산업","tel":"031-535-9840","addr":"경기도 포천시 자작동 349-1번지 가동","category":"기타 - 기계공구"},{"name":"삼강산업","tel":"535-9840","addr":"경기도 포천시 자작동 349-1번지 가동","category":"도매 - 산업용바퀴"},{"name":"이재령오백년곰탕","tel":"031-534-7861","addr":"경기도 포천시 자작동 349-1번지 가동 1층","category":"일반휴게음식 - 일반한식"},{"name":"이재령오백년곰탕","tel":"534-7861","addr":"경기도 포천시 자작동 349-1번지 가동 1층","category":"음식 - 한식"}]},{"lat":"37.864002791","long":"127.17369701","items":[{"name":"그린환경닥트","tel":"031-536-3376","addr":"경기도 포천시 자작동 356-4번지","category":"건축자재 - 보일러·펌프·샷시"}]},{"lat":"37.863913832","long":"127.17291268","items":[{"name":"금빛황태","tel":"031-535-0123","addr":"경기도 포천시 자작동 381-5번지 1층","category":"일반휴게음식 - 일반한식"},{"name":"금빛황태","tel":"532-0100","addr":"경기도 포천시 자작동 381-5번지","category":"음식 - 한식"},{"name":"동천면옥","tel":"031-536-6216","addr":"경기도 포천시 자작동 381-5번지 1층","category":"일반휴게음식 - 일반한식"}]},{"lat":"37.869803773","long":"127.17441503","items":[{"name":"금호철물","tel":"031-541-5629","addr":"경기도 포천시 자작동 184-1번지","category":"건축자재 - 기타건축자재"}]},{"lat":"37.875447503","long":"127.18386185","items":[{"name":"기아오토큐포천점","tel":"536-9447","addr":"경기도 포천시 자작동 5-9번지","category":"서비스 - 전문정비업"},{"name":"포천점 기아오토큐","tel":"031-536-9447","addr":"경기도 포천시 자작동 5-9번지","category":"자동차정비 유지 - 자동차정비"}]},{"lat":"37.868836392","long":"127.17671987","items":[{"name":"나능이","tel":"031-535-2811","addr":"경기도 포천시 자작동 276-7번지","category":"일반휴게음식 - 일반한식"},{"name":"나능이","tel":"535-2811","addr":"경기도 포천시 자작동 276-7","category":"음식 - 한식"}]},{"lat":"37.872502817","long":"127.18296814","items":[{"name":"나무와고양이","tel":"031-858-3020","addr":"경기도 포천시 자작동 8-6번지","category":"가구 - 일반가구"},{"name":"우리테크","tel":"535-0110","addr":"경기도 포천시 자작동 8-6번지","category":"서비스 - 자동차 수리"},{"name":"우리테크","tel":"031-535-0110","addr":"경기도 포천시 자작동 8-6번지","category":"자동차정비 유지 - 자동차부품"}]},{"lat":"37.874717958","long":"127.18372367","items":[{"name":"대상에덱스씽크공장","tel":"031-531-4985","addr":"경기도 포천시 자작동 7-2번지","category":"주방용구 - 주방용구"}]},{"lat":"37.868719556","long":"127.17652639","items":[{"name":"대신사무용총판","tel":"031-5369-6401","addr":"경기도 포천시 자작동 222-3번지","category":"가구 - 기타가구"},{"name":"대신사무용총판","tel":"031-536-9640","addr":"경기도 포천시 자작동 222-3번지","category":"가구 - 기타가구"},{"name":"포다미","tel":"031-536-0545","addr":"경기도 포천시 자작동 222-3번지","category":"직물 - 침구·수예점"}]},{"lat":"37.866441817","long":"127.17541869","items":[{"name":"대원장갑","tel":"031-541-7858","addr":"경기도 포천시 자작동 262-5","category":"의류 - 기타의류"}]},{"lat":"37.867306879","long":"127.17530706","items":[{"name":"더블유케이(WK)운반기계","tel":"031-529-3837","addr":"경기도 포천시 자작동 235번지","category":"자동차판매 - 기타운송"},{"name":"산천마을","tel":"031-535-7050","addr":"경기도 포천시 자작동 235번지","category":"음료식품 - 기타음료식품"}]},{"lat":"37.870027095","long":"127.16947173","items":[{"name":"동산카센터","tel":"031-536-5536","addr":"경기도 포천시 자작동 452-2번지","category":"자동차정비 유지 - 자동차정비"}]},{"lat":"37.860969562","long":"127.17166727","items":[{"name":"동아전기조명","tel":"031-536-2305","addr":"경기도 포천시 자작동 401-1번지","category":"전기제품 - 기타전기제품"}]},{"lat":"37.866694943","long":"127.17482832","items":[{"name":"동양기업","tel":"031-543-4144","addr":"경기도 포천시 자작동 225-13번지","category":"건축자재 - 기타건축자재"},{"name":"화이트컴퍼니","tel":"031-541-5417","addr":"경기도 포천시 자작동 225-13번지 1층","category":"가구 - 일반가구"}]},{"lat":"37.862977779","long":"127.17227414","items":[{"name":"동양기업 창호전시장","tel":"031-543-8749","addr":"경기도 포천시 자작동 387-2번지","category":"건축자재 - 기타건축자재"}]},{"lat":"37.872413469","long":"127.17024996","items":[{"name":"동우운수㈜","tel":"535-4947","addr":"경기도 포천시 자작동 479번지","category":"운수업 - 택시"},{"name":"동우운수㈜","tel":"535-4946","addr":"경기도 포천시 자작동 479번지","category":"운수업 -"},{"name":"동일교통㈜","tel":"535-4946","addr":"경기도 포천시 자작동 479번지","category":"운수업 -"},{"name":"동일교통㈜","tel":"535-4946","addr":"경기도 포천시 자작동 479번지","category":"운수업 - 택시"}]},{"lat":"37.861140576","long":"127.1717813","items":[{"name":"두릿골","tel":"","addr":"경기도 포천시 자작동 402-4번지 가동 1층","category":"음식 - 한식"},{"name":"두릿골","tel":"031-111-1111","addr":"경기도 포천시 자작동 402-4번지 가동 1층","category":"일반휴게음식 - 일반한식"}]},{"lat":"37.871251286","long":"127.18246502","items":[{"name":"똘이당구장","tel":"031-541-3672","addr":"경기도 포천시 자작동 30-6번지","category":"레저업소 - 당 구 장"},{"name":"영품종합물류","tel":"535-1580","addr":"경기도 포천시 자작동 30-6번지","category":"도소매 - 문구"},{"name":"영풍종합물류","tel":"031-535-1580","addr":"경기도 포천시 자작동 30-6번지","category":"서적문구 - 문구용품"},{"name":"오리네식당","tel":"031-536-7011","addr":"경기도 포천시 자작동 30-6번지","category":"일반휴게음식 - 일반한식"},{"name":"오리네식당","tel":"031-536-7011","addr":"경기도 포천시 자작동 30-6번지","category":"일반휴게음식 - 일반한식"},{"name":"오리네식당","tel":"536-7011","addr":"경기도 포천시 자작동 30-6번지","category":"음식 - 한식"}]},{"lat":"37.868774432","long":"127.17596964","items":[{"name":"문화종합철물건재","tel":"031-535-5690","addr":"경기도 포천시 자작동 221-1번지","category":"기타 - 기계공구"}]},{"lat":"37.870999476","long":"127.18216891","items":[{"name":"미주 개발 인테리어","tel":"031-535-1752","addr":"경기도 포천시 자작동 19-5번지","category":"건축자재 - 인테리어전문"}]},{"lat":"37.869025219","long":"127.17697034","items":[{"name":"밥한상","tel":"542-7797","addr":"경기도 포천시 자작동 276-2번지","category":"음식 - 한식"},{"name":"밥한상","tel":"031-542-7797","addr":"경기도 포천시 자작동 276-2번지 1층","category":"일반휴게음식 - 일반한식"},{"name":"완전해물짬봉완전손돈까스","tel":"536-0353","addr":"경기도 포천시 자작동 276-2번지","category":"음식 - 피자 등"},{"name":"완전해물짬뽕 완전손 돈까스","tel":"536-0353","addr":"경기도 포천시 자작동 276-2. 1층","category":"음식 - 퓨전"},{"name":"주식회사그린환경산업","tel":"031-536-3376","addr":"경기도 포천시 자작동 276-2번지","category":"기타 - 기계공구"},{"name":"태산철망","tel":"031-535-6620","addr":"경기도 포천시 자작동 276-2번지","category":"기타 - 기계공구"},{"name":"포천팔공짬뽕 수제돈까스","tel":"031-536-0353","addr":"경기도 포천시 자작동 276-2번지","category":"일반휴게음식 - 중국식"},{"name":"포천팔공짬뽕수제돈까스","tel":"031-536-0353","addr":"경기도 포천시 자작동 276-2번지","category":"음식 - 중식"}]},{"lat":"37.871754957","long":"127.18302314","items":[{"name":"본전게장무한리필","tel":"031-536-0888","addr":"경기도 포천시 자작동 11-7번지 1층","category":"일반휴게음식 - 일반한식"},{"name":"본전게장무한리필","tel":"536-0888","addr":"경기도 포천시 자작동 11-7번지","category":"음식 - 한식"}]},{"lat":"37.870727373","long":"127.1833616","items":[{"name":"봉평산골메밀촌","tel":"535-2977","addr":"경기도 포천시 자작동 16-2번지","category":"음식 - 한식"},{"name":"봉평산골메밀촌","tel":"031-535-2977","addr":"경기도 포천시 자작동 16-2번지 1층","category":"일반휴게음식 - 일반한식"}]},{"lat":"37.868477408","long":"127.17577574","items":[{"name":"부흥상회","tel":"031-535-7654","addr":"경기도 포천시 자작동 220-2","category":"음료식품 - 기타음료식품"},{"name":"부흥슈퍼","tel":"-","addr":"경기도 포천시 자작동 220-2번지","category":"소매업 - 잡화"},{"name":"선단스포츠 뱅크","tel":"031-543-1468","addr":"경기도 포천시 자작동 220-2번지","category":"레져용품 - 스포츠·레져용품"}]},{"lat":"37.868225714","long":"127.17538875","items":[{"name":"사단법인더불어사는사회포천노인복지센터","tel":"534-8878","addr":"경기도 포천시 자작동 226-11번지","category":"제조업 - 김구이.즉석판매식품"}]},{"lat":"37.875330717","long":"127.16508506","items":[{"name":"사랑방가구","tel":"031-534-0563","addr":"경기도 포천시 자작동 588-1번지","category":"가구 - 일반가구"}]},{"lat":"37.877885858","long":"127.180026","items":[{"name":"삼성전자랜드","tel":"031-527-1852","addr":"경기도 포천시 자작동 79번지","category":"용역 서비스 - 기타용역서비스"}]},{"lat":"37.863669775","long":"127.17346896","items":[{"name":"상상캠프","tel":"031-533-3114","addr":"경기도 포천시 자작동 356-8번지","category":"레져용품 - 스포츠·레져용품"}]},{"lat":"37.868054337","long":"127.17552473","items":[{"name":"상일자동차공업사","tel":"536-5206","addr":"경기도 포천시 자작동 226-21번지","category":"서비스 - 자동차 수리"},{"name":"상일자동차공업사","tel":"031-536-3206","addr":"경기도 포천시 자작동 226-21번지","category":"자동차정비 유지 - 자동차정비"},{"name":"왕방편의수퍼","tel":"031-535-3698","addr":"경기도 포천시 자작동 226-21번지","category":"유통업 영리 - 슈퍼마켓"}]},{"lat":"37.871970833","long":"127.18325098","items":[{"name":"서현F&B","tel":"080-356-7000","addr":"경기도 포천시 자작동 11번지","category":"음료식품 - 기타음료식품"},{"name":"세종창호","tel":"031-536-2816","addr":"경기도 포천시 자작동 11번지","category":"건축자재 - 기타건축자재"}]},{"lat":"37.864281932","long":"127.17379993","items":[{"name":"성실건축자재백화점","tel":"031-531-7998","addr":"경기도 포천시 자작동 358-4번지","category":"가구 - 일반가구"},{"name":"성실건축자재백화점","tel":"531-7998","addr":"경기도 포천시 자작동 358-4번지","category":"도소매 - 공구 등"}]},{"lat":"37.868611696","long":"127.17635567","items":[{"name":"세종설비","tel":"","addr":"경기도 포천시 자작동 222-4번지","category":"용역 서비스 - 기타용역서비스"},{"name":"왕방건재판넬","tel":"031-535-5690","addr":"경기도 포천시 자작동 222-4번지","category":"건축자재 - 기타건축자재"}]},{"lat":"37.86822473","long":"127.17605927","items":[{"name":"손큰할매순대국","tel":"031-535-0153","addr":"경기도 포천시 자작동 224-1번지","category":"일반휴게음식 - 일반한식"},{"name":"손큰할매순대국","tel":"535-0153","addr":"경기도 포천시 자작동 224-1","category":"음식 - 한식"}]},{"lat":"37.87266388","long":"127.16513604","items":[{"name":"솔모루장갑","tel":"","addr":"경기도 포천시 자작동 592-1번지","category":"신변잡화 - 기타잡화"}]},{"lat":"37.86569567","long":"127.17430323","items":[{"name":"수경타이어","tel":"031-536-3992","addr":"경기도 포천시 자작동 253-1번지","category":"자동차정비 유지 - 자동차시트·타이어"},{"name":"포천천막사","tel":"031-535-9979","addr":"경기도 포천시 자작동 253-1번지","category":"직물 - 카페트,커튼,천막,지물"}]},{"lat":"37.876474529","long":"127.18388709","items":[{"name":"수랏간에서훔친밥상","tel":"031-534-1272","addr":"경기도 포천시 자작동 2번지 제1호","category":"일반휴게음식 - 일반한식"}]},{"lat":"37.863138669","long":"127.17316091","items":[{"name":"수민펫(펫클럽)","tel":"031-533-4061","addr":"경기도 포천시 자작동 354-4번지 1층","category":"문화.취미 - 애완동물"},{"name":"현주전기조명","tel":"031-531-2122","addr":"경기도 포천시 자작동 354-4번지 가동","category":"전기제품 - 기타전기제품"}]},{"lat":"37.866638831","long":"127.16999824","items":[{"name":"스테이크 고릴라","tel":"031-536-0806","addr":"경기도 포천시 자작동 412번지","category":"일반휴게음식 - 서양음식"},{"name":"스테이크고질라","tel":"536-0806","addr":"경기도 포천시 자작동 412번지","category":"음식 - 양식"}]},{"lat":"37.869414621","long":"127.1693567","items":[{"name":"승준 E.N.G","tel":"031-543-8751","addr":"경기도 포천시 자작동 451-1번지 마동","category":"기타 - 기계공구"}]},{"lat":"37.873169002","long":"127.18329936","items":[{"name":"신서울","tel":"031-535-7988","addr":"경기도 포천시 자작동 9-2번지","category":"건축자재 - 기타건축자재"},{"name":"한올페인트","tel":"031-535-7988","addr":"경기도 포천시 자작동 9-2번지 4층","category":"건축자재 - 페인트"}]},{"lat":"37.866892899","long":"127.17499925","items":[{"name":"쌍용자동차서비스프라자","tel":"031-536-5587","addr":"경기도 포천시 자작동 236번지","category":"자동차정비 유지 - 자동차정비"}]},{"lat":"37.869778909","long":"127.17905192","items":[{"name":"에스엠(SM)인테리어","tel":"031-535-6260","addr":"경기도 포천시 자작동 23-4번지","category":"건축자재 - 인테리어전문"},{"name":"행복한 나무","tel":"031-534-2888","addr":"경기도 포천시 자작동 23-4번지 1층","category":"가구 - 일반가구"},{"name":"행복한나무","tel":"534-2888","addr":"경기도 포천시 자작동 23-4번지","category":"소매업 - 일반가구"}]},{"lat":"37.8625547","long":"127.17202317","items":[{"name":"에스지시스템 포천점","tel":"031-1522-4649","addr":"경기도 포천시 자작동 387-7번지","category":"사무통신 - 사무용 OA기기"},{"name":"포천벽지할인매장","tel":"031-541-2320","addr":"경기도 포천시 자작동 387-7번지 가동","category":"직물 - 카페트,커튼,천막,지물"}]},{"lat":"37.87296842","long":"127.16642102","items":[{"name":"에코월드","tel":"02-3771-7683","addr":"경기도 포천시 자작동 526-20번지","category":"회원제형태 - 기타4"}]},{"lat":"37.863833911","long":"127.17210564","items":[{"name":"우드라인","tel":"031-544-8858","addr":"경기도 포천시 자작동 378-10번지 다동 1층","category":"건축자재 - 인테리어전문"}]},{"lat":"37.868449729","long":"127.17621891","items":[{"name":"우림타일조명","tel":"031-535-5788","addr":"경기도 포천시 자작동 221-3번지 1층","category":"건축자재 - 기타건축자재"}]},{"lat":"37.8634718","long":"127.1733094","items":[{"name":"원일상공","tel":"031-532-0948","addr":"경기도 포천시 자작동 356-9번지","category":"기타 - 기계공구"}]},{"lat":"37.869615585","long":"127.17372133","items":[{"name":"유미치킨","tel":"031-536-5554","addr":"경기도 포천시 자작동 185-16번지 1층","category":"일반휴게음식 - 스넥"}]},{"lat":"37.875690719","long":"127.18388517","items":[{"name":"윤영희한복","tel":"535-3122","addr":"경기도 포천시 자작동 6-5","category":"소매업 - 의류"},{"name":"홈타운","tel":"535-3121","addr":"경기도 포천시 자작동 6-5","category":"도소매 - 침구류"}]},{"lat":"37.875195382","long":"127.1837703","items":[{"name":"윤영희한복","tel":"031-535-3122","addr":"경기도 포천시 자작동 5-5번지","category":"의류 - 맞춤복점"}]},{"lat":"37.864609902","long":"127.17127782","items":[{"name":"은연농기계","tel":"031-535-8204","addr":"경기도 포천시 자작동 379-2번지","category":"수리서비스 - 기타수리서비스"}]},{"lat":"37.871143625","long":"127.18216926","items":[{"name":"은총관","tel":"031-531-1600","addr":"경기도 포천시 자작동 30-4번지","category":"일반휴게음식 - 중국식"}]},{"lat":"37.868698278","long":"127.17258272","items":[{"name":"제3169부대","tel":"031-530-5540","addr":"경기도 포천시 자작동 229-8번지","category":"일반휴게음식 - 서양음식"},{"name":"제3169부대 목욕탕","tel":"031-530-5540","addr":"경기도 포천시 자작동 229-8번지","category":"보건위생 - 사우나"},{"name":"포천노인복지센터(노인일자리지원사업)","tel":"031-534-8880","addr":"경기도 포천시 자작동 229-8번지","category":"음료식품 - 기타음료식품"}]},{"lat":"37.868607742","long":"127.17288937","items":[{"name":"제3169부대","tel":"031-530-5540","addr":"경기도 포천시 자작동 229-10","category":"유통업 비영리 - 구내매점(국가기관"},{"name":"제3169부대","tel":"031-530-5540","addr":"경기도 포천시 자작동 229-10","category":"유통업 비영리 - 구내매점(국가기관"}]},{"lat":"37.867638973","long":"127.17616019","items":[{"name":"조은 카센타","tel":"","addr":"경기도 포천시 자작동 269-3번지","category":"자동차정비 유지 - 자동차정비"},{"name":"조은카센타","tel":"536-1704","addr":"경기도 포천시 자작동 269-3번지","category":"서비스 - 자동차 수리"}]},{"lat":"37.870754809","long":"127.16447267","items":[{"name":"주식회사 투엠","tel":"031-536-1352","addr":"경기도 포천시 자작동 597-11번지","category":"가구 - 일반가구"}]},{"lat":"37.87688562","long":"127.18016","items":[{"name":"지엠에스코리아","tel":"031-535-6406","addr":"경기도 포천시 자작동 84-2번지","category":"레져용품 - 음반/영상물"}]},{"lat":"37.868802926","long":"127.17496959","items":[{"name":"천지에어컨","tel":"","addr":"경기도 포천시 자작동 218-5번지","category":"제조업 - 판촉,인쇄"},{"name":"천지에어컨","tel":"031-535-7145","addr":"경기도 포천시 자작동 218-5번지","category":"전기제품 - 냉열기기"}]},{"lat":"37.874970132","long":"127.18378112","items":[{"name":"포원상사","tel":"031-535-9999","addr":"경기도 포천시 자작동 5-6번지","category":"건축자재 - 보일러·펌프·샷시"}]},{"lat":"37.866612845","long":"127.17552137","items":[{"name":"포천볼트","tel":"031-535-2775","addr":"경기도 포천시 자작동 262-2번지","category":"기타 - 기계공구"}]},{"lat":"37.877385251","long":"127.17121597","items":[{"name":"포천사랑이벤트","tel":"031-541-2029","addr":"경기도 포천시 자작동 558-4번지","category":"전기제품 - 가전제품"}]},{"lat":"37.870611532","long":"127.16383591","items":[{"name":"한백과학서비스","tel":"031-529-1312","addr":"경기도 포천시 자작동 597-13번지","category":"서적문구 - 과학기자재"}]},{"lat":"37.868052615","long":"127.1766953","items":[{"name":"현대가전가구재활용센터","tel":"031-535-5466","addr":"경기도 포천시 자작동 274-3번지 같은동281-17","category":"전기제품 - 가전제품"}]},{"lat":"37.868223423","long":"127.17694573","items":[{"name":"효자동설렁탕","tel":"533-3945","addr":"경기도 포천시 자작동 274-11번지","category":"음식 - 한식"},{"name":"효자동설렁탕","tel":"031-533-3945","addr":"경기도 포천시 자작동 274-11번지 1층","category":"일반휴게음식 - 일반한식"}]}]