[{"lat":"37.01140506","long":"127.09994983","items":[{"name":"#NAME?","tel":"","addr":"경기도 평택시 동삭동 679-1번지","category":"음식점 - 한식"},{"name":"먹어섬","tel":"031-657-3937","addr":"경기도 평택시 동삭동 679-1번지","category":"음식점 - 한식"},{"name":"먹어섬2호점","tel":"031-657-5561","addr":"경기도 평택시 동삭동 679-1번지 1층","category":"음료식품 - 농·축·수산품"},{"name":"비엠미트","tel":"031-652-9232","addr":"경기도 평택시 동삭동 679-1번지 102호","category":"음료식품 - 정육점"},{"name":"플러스(+)더드림정육식당","tel":"031-652-9232","addr":"경기도 평택시 동삭동 679-1번지","category":"일반휴게음식 - 일반한식"},{"name":"한살림경기서남부평택매장","tel":"031-656-3656","addr":"경기도 평택시 동삭동 679-1번지 금탑빌딩 6,7호 1층","category":"소매업 - 슈퍼"}]},{"lat":"37.019739063","long":"127.10100549","items":[{"name":"(H)뷰티 인셀덤","tel":"","addr":"경기도 평택시 동삭동 852번지 평택센트럴자이3단지 302동 803호","category":"보건위생 - 화장품"},{"name":"개와당신","tel":"031-656-0202","addr":"경기도 평택시 동삭동 852번지 평택센트럴자이3단지 341동 27호","category":"문화.취미 - 애완동물"},{"name":"갱's Phone","tel":"031-656-0967","addr":"경기도 평택시 동삭동 852번지 평택센트럴자이3단지 근생 3동 36호","category":"사무통신 - 통신기기"},{"name":"내가원조닭","tel":"031-654-9982","addr":"경기도 평택시 동삭동 852번지 평택센트럴자이3단지 3동 0031호","category":"일반휴게음식 - 스넥"},{"name":"늘꽃","tel":"","addr":"경기도 평택시 동삭동 852번지 평택센트럴자이3단지 342동 1층 39호 (39호)","category":"문화.취미 - 화원"},{"name":"늘품어린이집[아이행복]","tel":"031-618-3291","addr":"경기도 평택시 동삭동 852번지 평택센트럴자이3단지 302동 102호","category":"학원 - 유아원"},{"name":"더 플로피아","tel":"031-691-8223","addr":"경기도 평택시 동삭동 852번지 평택센트럴자이3단지 319동 203호","category":"학원 - 기타 교육기관"},{"name":"리틀토리 어린이집[아이행복]","tel":"070-4042-4033","addr":"경기도 평택시 동삭동 852번지 평택센트럴자이3단지 303동 102호","category":"학원 - 유아원"},{"name":"만랩커피 평택센트럴자이점","tel":"031-654-0900","addr":"경기도 평택시 동삭동 852번지 센트럴자이상가 340동 20호","category":"일반휴게음식 - 서양음식"},{"name":"뮤엠영어 자이3차 nest","tel":"031-000-0000","addr":"경기도 평택시 동삭동 852번지 평택센트럴자이3단지 307동 103호","category":"학원 - 기타 교육기관"},{"name":"미승짬뽕","tel":"031-654-7701","addr":"경기도 평택시 동삭동 852번지 평택센트럴자이3단지 341동 30호","category":"일반휴게음식 - 중국식"},{"name":"본죽앤비빔밥카페(센트럴자이점)","tel":"031-652-2111","addr":"경기도 평택시 동삭동 852번지 평택센트럴자이3단지 339동 01호","category":"일반휴게음식 - 일반한식"},{"name":"비어앤크림","tel":"","addr":"경기도 평택시 동삭동 852번지 평택센트럴자이3단지 근생2동 17호","category":"유통업 영리 - 슈퍼마켓"},{"name":"비전치과의원","tel":"031-691-2896","addr":"경기도 평택시 동삭동 852번지 평택센트럴자이3단지 340동1층18,19호","category":"의원 - 치과의원"},{"name":"삼육라이튼어린이집[아이행복]","tel":"031-8054-8536","addr":"경기도 평택시 동삭동 852번지 평택센트럴자이3단지 관리동","category":"학원 - 유아원"},{"name":"센트럴자이3단지점","tel":"","addr":"경기도 평택시 동삭동 852번지 평택센트럴자이3단지 310동 305호","category":"학원 - 기타 교육기관"},{"name":"센트럴자이세탁","tel":"031-691-6600","addr":"경기도 평택시 동삭동 852번지 평택센트럴자이3단지 341동 1층 24호","category":"수리서비스 - 세탁소"},{"name":"소잡는 총각","tel":"031-654-0337","addr":"경기도 평택시 동삭동 852번지 평택센트럴자이3단지 근생1동 9,10호","category":"음료식품 - 정육점"},{"name":"소잡는총각","tel":"031-654-0337","addr":"경기도 평택시 동삭동 852번지 평택센트럴자이3단지 9호","category":"음료식품 - 정육점"},{"name":"씨유평택자이2호점","tel":"080-080-3663","addr":"경기도 평택시 동삭동 852번지 평택센트럴자이3단지근생 1동 0006호","category":"유통업 영리 - 편 의 점"},{"name":"아소비 평택동삭센트럴자이","tel":"","addr":"경기도 평택시 동삭동 852번지 평택센트럴자이3단지 309동 304호","category":"학원 - 기타 교육기관"},{"name":"아이리스Iris","tel":"","addr":"경기도 평택시 동삭동 852번지 평택센트럴자이3단지 근생 2동 16호","category":"문화.취미 - 화원"},{"name":"연세누리소아청소년과의원","tel":"031-647-3373","addr":"경기도 평택시 동삭동 852번지 근생 1동 02,03호","category":"의원 - 의원"},{"name":"열린온누리약국","tel":"031-655-2900","addr":"경기도 평택시 동삭동 852번지 평택센트럴자이3단지 근생 1동 4호","category":"약국 - 약국"},{"name":"오렌지 피아노교실","tel":"","addr":"경기도 평택시 동삭동 852번지 평택센트럴자이3단지 310동 101호","category":"학원 - 기타 교육기관"},{"name":"우리집앞영어교실동삭센트럴자이3단지","tel":"02-1577-0000","addr":"경기도 평택시 동삭동 852번지 평택센트럴자이3단지 301동 404호","category":"학원 - 외국어학원"},{"name":"이마트24 R평택센트럴자이점","tel":"","addr":"경기도 평택시 동삭동 852번지 평택센트럴자이3단지 340동 1층 12,13,14호","category":"유통업 영리 - 편 의 점"},{"name":"이맛시얌","tel":"031-651-9889","addr":"경기도 평택시 동삭동 852번지 평택센트럴자이3단지 341-25","category":"일반휴게음식 - 스넥"},{"name":"일등분식","tel":"031-655-8152","addr":"경기도 평택시 동삭동 852번지 평택센트럴자이3단지 342동 1층 48호","category":"일반휴게음식 - 스넥"},{"name":"잉글리시아이 센트럴자이3차점","tel":"070-2950-1913","addr":"경기도 평택시 동삭동 852번지 평택센트럴자이3단지 302동 301호","category":"학원 - 기타 교육기관"},{"name":"자이1등폰마트 지나텔","tel":"031-656-9593","addr":"경기도 평택시 동삭동 852번지 평택센트럴자이3단지 근생1동 5호","category":"사무통신 - 통신기기"},{"name":"자이고깃간","tel":"031-691-8792","addr":"경기도 평택시 동삭동 852번지 평택센트럴자이3단지 2동 15호","category":"음료식품 - 정육점"},{"name":"자이삼겹살냉면","tel":"031-664-8589","addr":"경기도 평택시 동삭동 852번지 평택센트럴자이3단지 341동 28호","category":"일반휴게음식 - 일반한식"},{"name":"자이연세음악학원","tel":"","addr":"경기도 평택시 동삭동 852번지 상가 342동 40호, 41호","category":"학원 - 예·체능계학원"},{"name":"치순이통닭 센트럴자이점","tel":"070-7614-3579","addr":"경기도 평택시 동삭동 852번지 평택센트럴자이3단지 1층 34,35호","category":"일반휴게음식 - 일반한식"},{"name":"풍성호 평택동삭점","tel":"031-503-8018","addr":"경기도 평택시 동삭동 852번지 평택센트럴자이3단지 340동 16호","category":"일반휴게음식 - 서양음식"},{"name":"한국줄눈공사","tel":"","addr":"경기도 평택시 동삭동 852번지 평택센트럴자이3단지 317동 1901호","category":"용역 서비스 - 기타용역서비스"},{"name":"합덕농산","tel":"031-652-3627","addr":"경기도 평택시 동삭동 852번지 평택센트럴자이3단지 342동 1층 47호","category":"음료식품 - 미곡상"},{"name":"헤어짱짱","tel":"","addr":"경기도 평택시 동삭동 852번지 평택센트럴자이3단지 339동 08호","category":"보건위생 - 미용원"},{"name":"히트(HIT)태권도장2관.3관","tel":"","addr":"경기도 평택시 동삭동 852번지 평택센트럴자이3단지 근생동 44-46호","category":"학원 - 예·체능계학원"}]},{"lat":"37.020881517","long":"127.10327691","items":[{"name":"(HIT)태권도장","tel":"031-526-4578","addr":"경기도 평택시 동삭동 818-4번지 평택센트럴자이5단지 516동 132호,133호","category":"학원 - 예·체능계학원"},{"name":"개인과외","tel":"02-1111-1111","addr":"경기도 평택시 동삭동 818-4번지 평택센트럴자이5단지 503동 103호","category":"학원 - 기타 교육기관"},{"name":"고봉민김밥(센트럴자이점)","tel":"031-658-9642","addr":"경기도 평택시 동삭동 818-4번지 평택센트럴자이5단지 516동 101호","category":"음식점 - 분식"},{"name":"고봉민김밥인평택센트럴자이점","tel":"031-653-0733","addr":"경기도 평택시 동삭동 818-4번지 평택센트럴자이5단지 516동 101호","category":"일반휴게음식 - 스넥"},{"name":"김미성아동발달센터","tel":"031-8029-9135","addr":"경기도 평택시 동삭동 818-4번지 평택센트럴자이5단지 506동 101호","category":"보건위생 - 기타대인서비스"},{"name":"꾸아퍼스트","tel":"031-618-7959","addr":"경기도 평택시 동삭동 818-4번지 센트럴자이5단지 상가동 107호","category":"보건위생 - 미용원"},{"name":"둘마니치킨&튀족본점","tel":"031-652-8898","addr":"경기도 평택시 동삭동 818-4번지 평택센트럴자이5단지 516동 108호","category":"일반휴게음식 - 스넥"},{"name":"루아피아노","tel":"070-7804-5816","addr":"경기도 평택시 동삭동 818-4번지 평택센트럴자이5단지 505동 1층 103호","category":"학원 - 기타 교육기관"},{"name":"리치앤마케팅","tel":"","addr":"경기도 평택시 동삭동 818-4번지 평택센트럴자이5단지 501동 20층 2003호","category":"건축자재 - 인테리어전문"},{"name":"맘스터치 동삭점","tel":"031-655-4205","addr":"경기도 평택시 동삭동 818-4번지 평택센트럴자이5단지 516동 115호 114,115호","category":"일반휴게음식 - 서양음식"},{"name":"버무리떡볶이평택센트럴자이점","tel":"070-7423-6603","addr":"경기도 평택시 동삭동 818-4번지 평택센트럴자이5단지 상가동 1층 35호","category":"일반휴게음식 - 스넥"},{"name":"보또리똥","tel":"","addr":"경기도 평택시 동삭동 818-4번지 평택센트럴자이5단지 상가 516동 130호","category":"문화.취미 - 애완동물"},{"name":"블럭팡팡","tel":"031-658-3583","addr":"경기도 평택시 동삭동 818-4번지 평택센트럴자이5단지 4동 42,43호","category":"학원 - 기타 교육기관"},{"name":"세븐일레븐 평택센트럴자이점","tel":"070-4312-1719","addr":"경기도 평택시 동삭동 818-4번지 평택센트럴자이5단지 109호","category":"소매업 - 편의점"},{"name":"소담평택점","tel":"031-654-5210","addr":"경기도 평택시 동삭동 818-4번지 평택센트럴자이5단지 516동 102호","category":"음료식품 - 기타음료식품"},{"name":"수타5900","tel":"031-658-9981","addr":"경기도 평택시 동삭동 818-4번지 평택센트럴자이5단지 516동 127호","category":"일반휴게음식 - 서양음식"},{"name":"수타5900","tel":"031-654-2299","addr":"경기도 평택시 동삭동 818-4번지 평택센트럴자이5단지 516동 127호","category":"음식점 - 일반"},{"name":"아이러브유","tel":"031-000-0000","addr":"경기도 평택시 동삭동 818-4번지 평택센트럴자이5단지 근생 3동 29호","category":"보건위생 - 화장품"},{"name":"어썸네일","tel":"","addr":"경기도 평택시 동삭동 818-4번지 평택센트럴자이5단지 516동 134호","category":"보건위생 - 피부미용실"},{"name":"일출옥","tel":"","addr":"경기도 평택시 동삭동 818-4번지 평택센트럴자이5단지 516동 113호","category":"일반휴게음식 - 일반한식"},{"name":"잉글리쉬아이 서재센트럴자이점","tel":"","addr":"경기도 평택시 동삭동 818-4번지 평택센트럴자이5단지 501동 301호","category":"학원 - 기타 교육기관"},{"name":"차수학 서재캠퍼스","tel":"","addr":"경기도 평택시 동삭동 818-4번지 평택센트럴자이5단지 503동 704호","category":"학원 - 기타 교육기관"},{"name":"창 예쁜 세상","tel":"","addr":"경기도 평택시 동삭동 818-4번지 평택센트럴자이5단지 507동 1302호","category":"직물 - 카페트,커튼,천막,지물"},{"name":"커피에반하다 평택동삭점","tel":"","addr":"경기도 평택시 동삭동 818-4번지 평택센트럴자이5단지 516동 12호","category":"일반휴게음식 - 서양음식"},{"name":"크린에이드","tel":"031-654-5621","addr":"경기도 평택시 동삭동 818-4번지 평택센트럴자이5단지 상가동 125호","category":"수리서비스 - 세탁소"},{"name":"피스오브케이크","tel":"","addr":"경기도 평택시 동삭동 818-4번지 평택센트럴자이5단지 516동 117호","category":"일반휴게음식 - 서양음식"},{"name":"헤어살롱블랑","tel":"031-655-6005","addr":"경기도 평택시 동삭동 818-4번지 센트럴자이5단지 516동 126호","category":"보건위생 - 미용원"}]},{"lat":"37.007355979","long":"127.09267537","items":[{"name":"(araso)아라서","tel":"070-8807-3659","addr":"경기도 평택시 동삭동 689-3번지 플로렌스 101호","category":"가구 - 기타가구"}]},{"lat":"37.008830272","long":"127.09713765","items":[{"name":"(주)승지컴퍼니","tel":"031-667-9880","addr":"경기도 평택시 동삭동 707-18번지 로얄빌 1층 101호","category":"건축자재 - 목재·석재·철물"}]},{"lat":"37.016186443","long":"127.09267453","items":[{"name":"(주)워러썸 엔지니어링","tel":"031-653-0222","addr":"경기도 평택시 동삭동 388-13","category":"건축자재 - 보일러·펌프·샷시"}]},{"lat":"37.019072228","long":"127.10106082","items":[{"name":"02super모바일","tel":"031-988-4174","addr":"경기도 평택시 동삭동 산104-3번지 평택센트럴자이4단지 416 (근생-1)동 102호","category":"사무통신 - 통신기기"},{"name":"60계치킨(평택동삭점)","tel":"031-658-6060","addr":"경기도 평택시 동삭동 산104-3번지 평택센트럴자이4단지 1동 0003호 (4블럭)","category":"일반휴게음식 - 스넥"},{"name":"국수나무 센트럴자이점","tel":"031-618-5111","addr":"경기도 평택시 동삭동 산104-3번지 평택센트럴자이4단지 상가동 111호","category":"일반휴게음식 - 일반한식"},{"name":"누나홀닭","tel":"031-657-9979","addr":"경기도 평택시 동삭동 산104-3번지 평택센트럴자이4단지 416동 124-125호","category":"일반휴게음식 - 스넥"},{"name":"누나홀닭동삭자이점","tel":"","addr":"경기도 평택시 동삭동 산104-3번지 센트럴자이4단지 416동 124,125호","category":"음식점 - 일반"},{"name":"도담치킨 동삭점","tel":"031-618-0607","addr":"경기도 평택시 동삭동 산104-3번지 센트럴자이4단지 416동 106호","category":"일반휴게음식 - 스넥"},{"name":"도담치킨 동삭점","tel":"","addr":"경기도 평택시 동삭동 산104-3번지 센트럴자이4단지 상가 6호","category":"음식점 - 치킨"},{"name":"돌담인테리어","tel":"031-654-2388","addr":"경기도 평택시 동삭동 산104-3번지 센트럴자이단지내상가 9호","category":"건축자재 - 인테리어전문"},{"name":"동삭자이교실","tel":"031-8094-3263","addr":"경기도 평택시 동삭동 산104-3번지 평택센트럴자이4단지 401동 405호","category":"학원 - 기타 교육기관"},{"name":"두부만드는사람들","tel":"031-656-9476","addr":"경기도 평택시 동삭동 산104-3번지 평택센트럴자이4단지 416동 118호","category":"음료식품 - 기타음료식품"},{"name":"라온피아노","tel":"031-655-8686","addr":"경기도 평택시 동삭동 산104-3번지 평택센트럴자이4단지 401동 304호","category":"학원 - 기타 교육기관"},{"name":"메가엠지씨커피 평택동삭점","tel":"","addr":"경기도 평택시 동삭동 산104-3번지 평택센트럴자이4단지 416동 121호","category":"일반휴게음식 - 서양음식"},{"name":"배스킨라빈스동삭점","tel":"031-8094-3131","addr":"경기도 평택시 동삭동 산104-3번지 평택센트럴자이4단지 416동 129호,130호","category":"음료식품 - 제과점"},{"name":"복덩이공인중개사사무소","tel":"031-618-2489","addr":"경기도 평택시 동삭동 산104-3번지 평택센트럴자이4단지 1동 101호","category":"용역 서비스 - 부동산 중개·임대"},{"name":"비스트로감성 (Bistro감성)","tel":"","addr":"경기도 평택시 동삭동 산104-3번지 평택센트럴자이4단지 416동 1층 122호","category":"일반휴게음식 - 서양음식"},{"name":"서민반찬평택동삭점","tel":"031-616-1014","addr":"경기도 평택시 동삭동 산104-3번지 평택센트럴자이4단지 416동 114호","category":"음료식품 - 기타음료식품"},{"name":"쉬어가다 COFFEE","tel":"","addr":"경기도 평택시 동삭동 산104-3번지 평택센트럴자이4단지 416동 108호","category":"일반휴게음식 - 서양음식"},{"name":"스마트 쎈 클래스","tel":"","addr":"경기도 평택시 동삭동 산104-3번지 평택센트럴자이4단지 402동 1004호","category":"학원 - 기타 교육기관"},{"name":"씨유평택자이점","tel":"080-080-3663","addr":"경기도 평택시 동삭동 산104-3번지 평택센트럴자이4단지 416동 116호","category":"유통업 영리 - 편 의 점"},{"name":"영재아이바둑","tel":"031-657-9988","addr":"경기도 평택시 동삭동 산104-3번지 센트럴자이4단지 402동 604호","category":"학원 - 기타 교육기관"},{"name":"옛날통닭","tel":"031-656-7915","addr":"경기도 평택시 동삭동 산104-3번지 평택센트럴자이4단지 416동 119호","category":"일반휴게음식 - 스넥"},{"name":"이순영달인왕족발","tel":"031-618-0092","addr":"경기도 평택시 동삭동 산104-3번지 평택센트럴자이4단지 1층 107호","category":"일반휴게음식 - 일반한식"},{"name":"축산사랑","tel":"031-651-0512","addr":"경기도 평택시 동삭동 산104-3번지 평택센트럴자이4단지 3동 132호","category":"소매업 - 정육"},{"name":"축산사랑","tel":"031-656-7544","addr":"경기도 평택시 동삭동 산104-3번지 평택센트럴자이4단지 3동 132호","category":"음료식품 - 정육점"},{"name":"쿡1015평택동삭점","tel":"031-691-1016","addr":"경기도 평택시 동삭동 산104-3번지 평택센트럴자이4단지 416동 131호","category":"음료식품 - 기타음료식품"},{"name":"파리바게뜨 평택동삭자이점","tel":"031-655-1451","addr":"경기도 평택시 동삭동 산104-3번지 센트럴자이4단지 416동 126-128호","category":"음식점 - 제과점"},{"name":"파리바게트 평택동삭자이점","tel":"031-651-8208","addr":"경기도 평택시 동삭동 산104-3번지 평택센트럴자이4단지 416동 126~128호","category":"음료식품 - 제과점"},{"name":"한남동그집 동삭자이점","tel":"","addr":"경기도 평택시 동삭동 산104-3번지 평택센트럴자이4단지 416동 123호","category":"일반휴게음식 - 일반한식"},{"name":"한솔 블루문","tel":"","addr":"경기도 평택시 동삭동 산104-3번지 평택센트럴자이4단지 402동 201호","category":"학원 - 기타 교육기관"},{"name":"홍짜장 평택센트럴자이점","tel":"031-618-0022","addr":"경기도 평택시 동삭동 산104-3번지 평택센트럴자이4단지 416동 112호","category":"일반휴게음식 - 중국식"}]},{"lat":"37.016377509","long":"127.10169785","items":[{"name":"11.8헤어","tel":"031-656-5204","addr":"경기도 평택시 동삭동 845번지 평택센트럴자이2단지 110호","category":"보건위생 - 미용원"},{"name":"GS25동삭자이점","tel":"","addr":"경기도 평택시 동삭동 845번지 2블럭 점포14호,15호","category":"유통업 영리 - 편 의 점"},{"name":"모두클린케어","tel":"","addr":"경기도 평택시 동삭동 845번지 평택센트럴자이2단지 207동 22층 03호","category":"용역 서비스 - 종합용역"},{"name":"뮤엠영어","tel":"","addr":"경기도 평택시 동삭동 845번지 평택센트럴자이2단지 203동 1303호","category":"학원 - 기타 교육기관"},{"name":"시립 센트럴자이2단지어린이집[아이행복]","tel":"031-692-7724","addr":"경기도 평택시 동삭동 845번지 평택센트럴자이2단지","category":"학원 - 유아원"},{"name":"아트앤하트 평택 동삭자이 교육원","tel":"","addr":"경기도 평택시 동삭동 845번지 평택센트럴자이2단지 209동 104호","category":"학원 - 보습학원"},{"name":"윤선생 우리집앞 영어교실 동삭 센트럴자이","tel":"","addr":"경기도 평택시 동삭동 845번지 평택센트럴자이2단지 208동 301호","category":"학원 - 외국어학원"},{"name":"자이안치과의원","tel":"031-647-6168","addr":"경기도 평택시 동삭동 845번지 평택센트럴자이2단지 218동 104호","category":"의원 - 치과의원"},{"name":"제니커피","tel":"","addr":"경기도 평택시 동삭동 845번지 평택센트럴자이2단지 218동 108호","category":"일반휴게음식 - 서양음식"},{"name":"주노NJ","tel":"","addr":"경기도 평택시 동삭동 845번지 평택센트럴자이2단지 201동 1002호","category":"문화.취미 - 애완동물"},{"name":"치쿠린홈클린","tel":"02-1811-7671","addr":"경기도 평택시 동삭동 845번지 평택센트럴자이2단지 208동 501호","category":"용역 서비스 - 종합용역"},{"name":"크린토피아 평택센트럴자이점","tel":"031-618-3651","addr":"경기도 평택시 동삭동 845번지 평택센트럴자이2단지 218동 107호","category":"수리서비스 - 세탁소"},{"name":"포숑(동삭자이점)","tel":"031-651-6568","addr":"경기도 평택시 동삭동 845번지 평택센트럴자이2단지","category":"소매업 - 제과점"},{"name":"필아트미술","tel":"","addr":"경기도 평택시 동삭동 845번지 평택센트럴자이2단지 209동 104호","category":"학원 - 기타 교육기관"}]},{"lat":"37.006884791","long":"127.09609036","items":[{"name":"1인자 숯불구이","tel":"031-655-9664","addr":"경기도 평택시 동삭동 704-5번지","category":"일반휴게음식 - 일반한식"},{"name":"돼지창고","tel":"031-651-0555","addr":"경기도 평택시 동삭동 704-5번지 1층","category":"일반휴게음식 - 일반한식"}]},{"lat":"37.009243874","long":"127.09825049","items":[{"name":"B&B이동통신","tel":"031-618-1010","addr":"경기도 평택시 동삭동 705-9번지 서재프라자 102호","category":"사무통신 - 통신기기"},{"name":"두꺼비하우징(주)","tel":"031-691-6119","addr":"경기도 평택시 동삭동 705-9번지 2층","category":"용역 서비스 - 종합용역"},{"name":"명가코다리와아구찜","tel":"031-657-5525","addr":"경기도 평택시 동삭동 705-9번지 101호","category":"일반휴게음식 - 일반한식"},{"name":"명가코다리와아구찜","tel":"","addr":"경기도 평택시 동삭동 705-9번지 서재프라자 101호","category":"음식점 - 한식"},{"name":"본죽동삭동점","tel":"031-655-6266","addr":"경기도 평택시 동삭동 705-9번지 서재프라자 1층 103호","category":"일반휴게음식 - 일반한식"},{"name":"청담연치과","tel":"031-657-2870","addr":"경기도 평택시 동삭동 705-9번지 302호","category":"의원 - 치과의원"},{"name":"크린토피아 코인워시 평택법원점","tel":"031-657-4569","addr":"경기도 평택시 동삭동 705-9번지 106호","category":"수리서비스 - 세탁소"}]},{"lat":"37.012413209","long":"127.1012208","items":[{"name":"BBQ치킨동삭점","tel":"031-655-5933","addr":"경기도 평택시 동삭동 680-4번지 101호","category":"일반휴게음식 - 스넥"},{"name":"비비큐치킨평택동삭점","tel":"050-4359-7567","addr":"경기도 평택시 동삭동 680-4번지 법연빌딩 1층","category":"음식점 - 치킨"},{"name":"평택왕주먹고기","tel":"031-655-6554","addr":"경기도 평택시 동삭동 680-4번지 102호","category":"일반휴게음식 - 일반한식"}]},{"lat":"37.01216118","long":"127.10089462","items":[{"name":"CUTS","tel":"031-652-4648","addr":"경기도 평택시 동삭동 680-1번지","category":"서비스업 - 이미용"},{"name":"C컷헤어","tel":"031-692-3338","addr":"경기도 평택시 동삭동 680-1번지 101호","category":"보건위생 - 미용원"},{"name":"그림이네포차","tel":"031-654-9617","addr":"경기도 평택시 동삭동 680-1번지 102호","category":"음식점 - 포차"},{"name":"그림이네포차","tel":"031-652-9229","addr":"경기도 평택시 동삭동 680-1번지 1층 102호","category":"일반휴게음식 - 주점"},{"name":"민속촌순대국","tel":"031-651-3874","addr":"경기도 평택시 동삭동 680-1번지 1층","category":"일반휴게음식 - 일반한식"}]},{"lat":"37.005219671","long":"127.09369526","items":[{"name":"Clean Trading CO/원격지","tel":"031-618-4496","addr":"경기도 평택시 동삭동 176-1번지","category":"기타 - 기타 전문점"}]},{"lat":"37.008994972","long":"127.09392446","items":[{"name":"FLOWER SHOP 담다","tel":"02-1111-1111","addr":"경기도 평택시 동삭동 693-1번지 101호","category":"문화.취미 - 화원"}]},{"lat":"37.010793953","long":"127.09794906","items":[{"name":"GS25서재빌리지점","tel":"","addr":"경기도 평택시 동삭동 665-5번지 1층","category":"유통업 영리 - 편 의 점"}]},{"lat":"37.012774433","long":"127.10025495","items":[{"name":"GS25서재자이점","tel":"","addr":"경기도 평택시 동삭동 675-4번지","category":"유통업 영리 - 편 의 점"},{"name":"블랑제니","tel":"","addr":"경기도 평택시 동삭동 675-4번지 101호","category":"문화.취미 - 애완동물"},{"name":"앨반스킨케어","tel":"031-651-8691","addr":"경기도 평택시 동삭동 675-4번지 108호","category":"보건위생 - 피부미용실"},{"name":"주인맘대로포차","tel":"031-655-1193","addr":"경기도 평택시 동삭동 675-4번지","category":"일반휴게음식 - 일반한식"},{"name":"콩헤어","tel":"031-691-5333","addr":"경기도 평택시 동삭동 675-4번지 102호","category":"보건위생 - 미용원"}]},{"lat":"37.009406705","long":"127.09745296","items":[{"name":"GS25서재타운점","tel":"","addr":"경기도 평택시 동삭동 705-7번지 1층 일부","category":"유통업 영리 - 편 의 점"},{"name":"GS25서재타운점","tel":"031-658-5220","addr":"경기도 평택시 동삭동 705-7번지","category":"소매업 - 편의점"},{"name":"PC토랑","tel":"031-000-0000","addr":"경기도 평택시 동삭동 705-7번지 2층","category":"레저업소 - 기타레져업소"},{"name":"도미노피자평택소사벌점","tel":"031-655-3082","addr":"경기도 평택시 동삭동 705-7번지 101호","category":"일반휴게음식 - 서양음식"},{"name":"법원앞당구클럽","tel":"","addr":"경기도 평택시 동삭동 705-7번지 5층","category":"레저업소 - 당 구 장"},{"name":"브라보복싱","tel":"031-691-2555","addr":"경기도 평택시 동삭동 705-7번지 3층","category":"레저업소 - 헬스클럽"}]},{"lat":"37.007715688","long":"127.09361958","items":[{"name":"GS25평택서재점","tel":"031-657-8766","addr":"경기도 평택시 동삭동 687-9번지","category":"소매업 - 편의점"},{"name":"GS25평택서재점","tel":"02-2006-2485","addr":"경기도 평택시 동삭동 687-9번지","category":"유통업 영리 - 편 의 점"}]},{"lat":"37.009877698","long":"127.09434124","items":[{"name":"KL당구클럽","tel":"070-4235-0202","addr":"경기도 평택시 동삭동 662-3번지 3층","category":"레저업소 - 당 구 장"},{"name":"제이앤와이스포츠클럽","tel":"031-618-1856","addr":"경기도 평택시 동삭동 662-3번지 비전타워 501호","category":"학원 - 기타 교육기관"},{"name":"코드블랙PC방","tel":"","addr":"경기도 평택시 동삭동 662-3번지 근원빌딩 4동","category":"레저업소 - 기타레져업소"}]},{"lat":"37.010495367","long":"127.09947677","items":[{"name":"MTA태권도","tel":"031-651-0928","addr":"경기도 평택시 동삭동 711-7번지 일조빌딩 2층","category":"학원 - 예·체능계학원"},{"name":"비하인드유(Behindu)","tel":"070-7783-9919","addr":"경기도 평택시 동삭동 711-7번지 301호","category":"의류 - 정장"},{"name":"일조철물","tel":"031-658-2223","addr":"경기도 평택시 동삭동 711-7","category":"건축자재 - 목재·석재·철물"}]},{"lat":"37.00769042","long":"127.09128257","items":[{"name":"PK세라믹","tel":"031-652-6872","addr":"경기도 평택시 동삭동 686-1번지 101호","category":"건축자재 - 건축용 요업제품"}]},{"lat":"37.018688871","long":"127.09596993","items":[{"name":"Q.E.D.학원","tel":"031-657-6351","addr":"경기도 평택시 동삭동 333번지 성원빌딩 201호","category":"학원 - 보습학원"},{"name":"YT어학원","tel":"031-657-6351","addr":"경기도 평택시 동삭동 333번지 성원빌딩 3동","category":"학원 - 보습학원"},{"name":"동삭명가떡","tel":"031-658-9642","addr":"경기도 평택시 동삭동 333번지 성원빌딩 101호","category":"음료식품 - 제과점"},{"name":"동삭명가떡","tel":"031-656-9997","addr":"경기도 평택시 동삭동 333번지","category":"제조업 - 떡"},{"name":"코리아헬스","tel":"031-657-7766","addr":"경기도 평택시 동삭동 333번지 성원빌딩 4층","category":"레저업소 - 헬스클럽"},{"name":"해동검도","tel":"031-656-3552","addr":"경기도 평택시 동삭동 333번지 성원빌딩 3층","category":"학원 - 예·체능계학원"}]},{"lat":"37.009850458","long":"127.09461086","items":[{"name":"TWO현동물병원","tel":"070-4067-7858","addr":"경기도 평택시 동삭동 662-4번지 103호","category":"기타의료기관 - 동물병원"},{"name":"two현동물병원","tel":"031-656-3483","addr":"경기도 평택시 동삭동 662-4번지","category":"서비스업 - 병원(동물병원)"},{"name":"스타펫","tel":"031-658-8255","addr":"경기도 평택시 동삭동 662-4번지 202호","category":"문화.취미 - 애완동물"},{"name":"한솥도시락 평택법원점","tel":"031-653-0045","addr":"경기도 평택시 동삭동 662-4번지 102호","category":"일반휴게음식 - 일반한식"}]},{"lat":"37.011293584","long":"127.09275866","items":[{"name":"YB골프아카데미","tel":"070-0000-0000","addr":"경기도 평택시 동삭동 652-9번지 503호","category":"레저업소 - 골프연습장"}]},{"lat":"37.011855142","long":"127.10050097","items":[{"name":"mood i(무드아이)","tel":"031-658-0314","addr":"경기도 평택시 동삭동 679-6번지 102호","category":"의류 - 정장"},{"name":"아토헤어","tel":"031-657-8454","addr":"경기도 평택시 동삭동 679-6번지 102호","category":"보건위생 - 미용원"},{"name":"아토헤어","tel":"031-656-0389","addr":"경기도 평택시 동삭동 679-6번지 102호","category":"서비스업 - 미용"},{"name":"윤가네","tel":"031-655-8592","addr":"경기도 평택시 동삭동 679-6번지","category":"음식점 - 한식"},{"name":"윤가네포차","tel":"","addr":"경기도 평택시 동삭동 679-6번지 103호","category":"일반휴게음식 - 일반한식"}]},{"lat":"37.009354567","long":"127.09500351","items":[{"name":"㈜옥토산업","tel":"031-655-6103","addr":"경기도 평택시 동삭동 692-7번지 203호","category":"제조업 - 철판"},{"name":"바비스","tel":"031-691-9986","addr":"경기도 평택시 동삭동 692-7번지 1층 103호","category":"일반휴게음식 - 서양음식"},{"name":"이모네","tel":"031-000-0000","addr":"경기도 평택시 동삭동 692-7번지 202호","category":"일반휴게음식 - 일반한식"},{"name":"짝궁노래연습장","tel":"031-692-8383","addr":"경기도 평택시 동삭동 692-7번지 영창빌딩 3층","category":"레저업소 - 노 래 방"}]},{"lat":"37.010216936","long":"127.09836407","items":[{"name":"가빈커튼 평택","tel":"031-657-1125","addr":"경기도 평택시 동삭동 667-5번지 105호","category":"직물 - 카페트,커튼,천막,지물"},{"name":"마이필라테스","tel":"031-656-1227","addr":"경기도 평택시 동삭동 667-5번지 주영빌딩 5층 501호","category":"레저업소 - 헬스클럽"},{"name":"마이필라테스","tel":"031-618-3564","addr":"경기도 평택시 동삭동 667-5번지 주영빌딩 5층 501호","category":"서비스업 - 필라테스"},{"name":"오셀롯PC 평택동삭점","tel":"","addr":"경기도 평택시 동삭동 667-5번지","category":"레저업소 - 기타레져업소"},{"name":"오케이(OK)텔레콤","tel":"031-652-1019","addr":"경기도 평택시 동삭동 667-5번지 102호 101호,102호","category":"사무통신 - 통신기기"},{"name":"할리","tel":"031-000-0000","addr":"경기도 평택시 동삭동 667-5번지 104호","category":"레져용품 - 스포츠·레져용품"}]},{"lat":"37.008911626","long":"127.09681192","items":[{"name":"가온국수","tel":"031-657-3466","addr":"경기도 평택시 동삭동 707-1번지 103호","category":"일반휴게음식 - 일반한식"},{"name":"궁노래연습장","tel":"031-692-3332","addr":"경기도 평택시 동삭동 707-1번지 201호","category":"레저업소 - 노 래 방"},{"name":"다오래우렁쌈밥2호점","tel":"031-658-2970","addr":"경기도 평택시 동삭동 707-1번지","category":"일반휴게음식 - 일반한식"},{"name":"씨유평택서재에이스점","tel":"031-655-3603","addr":"경기도 평택시 동삭동 707-1번지 1층","category":"유통업 영리 - 편 의 점"},{"name":"천하대만족","tel":"031-657-7288","addr":"경기도 평택시 동삭동 707-1번지","category":"음식점 - 한식"},{"name":"천하대만족","tel":"031-657-1513","addr":"경기도 평택시 동삭동 707-1번지","category":"일반휴게음식 - 일반한식"},{"name":"호우양꼬치","tel":"031-651-9288","addr":"경기도 평택시 동삭동 707-1번지 1층","category":"일반휴게음식 - 중국식"}]},{"lat":"37.009852029","long":"127.09255472","items":[{"name":"가장맛있는족발 법원점","tel":"031-654-6647","addr":"경기도 평택시 동삭동 661-2번지 102호","category":"일반휴게음식 - 일반한식"}]},{"lat":"37.007434513","long":"127.09600115","items":[{"name":"가장특별한 뒷고기","tel":"031-658-5252","addr":"경기도 평택시 동삭동 704-1번지 101호","category":"일반휴게음식 - 일반한식"},{"name":"바디케어운동센터","tel":"","addr":"경기도 평택시 동삭동 704-1번지 2층","category":"보건위생 - 화장품"},{"name":"설비어참,연,회","tel":"031-655-8821","addr":"경기도 평택시 동삭동 704-1번지 3층","category":"일반휴게음식 - 주점"}]},{"lat":"37.009850258","long":"127.09486928","items":[{"name":"감성커피평택법원점","tel":"","addr":"경기도 평택시 동삭동 662-5번지","category":"일반휴게음식 - 서양음식"},{"name":"법무법인대민","tel":"031-654-3200","addr":"경기도 평택시 동삭동 662-5번지 법률타워 402호","category":"용역 서비스 - 법률회계서비스(법인)"},{"name":"법무사김중하사무소","tel":"031-618-8686","addr":"경기도 평택시 동삭동 197-18","category":"용역 서비스 - 법률회계서비스(개인)"},{"name":"이득표법무사사무소","tel":"031-618-9090","addr":"경기도 평택시 동삭동 662-5번지 법조타워 302호","category":"서비스업 - 법무사"}]},{"lat":"37.009379413","long":"127.09777876","items":[{"name":"강수정법률사무소","tel":"031-657-9922","addr":"경기도 평택시 동삭동 151-8","category":"용역 서비스 - 법률회계서비스(개인)"}]},{"lat":"37.009795248","long":"127.09608268","items":[{"name":"검찰청매점","tel":"031-650-3695","addr":"경기도 평택시 동삭동 245-1지하1층","category":"유통업 비영리 - 구내매점(국가기관"}]},{"lat":"37.018966146","long":"127.09855481","items":[{"name":"경헤어스타일","tel":"031-655-5115","addr":"경기도 평택시 동삭동 340-6번지 현대아파트 상가 1층 105호","category":"서비스업 - 이미용"},{"name":"푸른어린이집[아이행복]","tel":"031-655-1236","addr":"경기도 평택시 동삭동 340-6번지 현대아파트","category":"학원 - 유아원"},{"name":"푸른어린이집[아이행복]","tel":"031-655-1236","addr":"경기도 평택시 동삭동 340-6번지 현대아파트","category":"학원 - 유아원"}]},{"lat":"37.00980211","long":"127.09877927","items":[{"name":"경희종일한의원","tel":"031-618-5021","addr":"경기도 평택시 동삭동 711-13번지 한주빌딩 201호","category":"의원 - 한의원"},{"name":"고은맘소아청소년과의원","tel":"031-657-2821","addr":"경기도 평택시 동삭동 711-13번지 한주빌딩 3층 302호","category":"의원 - 의원"},{"name":"고은맘소아청소년과의원","tel":"031-657-6296","addr":"경기도 평택시 동삭동 711-13번지 한주빌딩 3층","category":"서비스업 - 병원"},{"name":"서재서울이비인후과의원","tel":"031-691-5213","addr":"경기도 평택시 동삭동 711-13번지 한주빌딩 3층 301호","category":"의원 - 의원"},{"name":"서재서울이비인후과의원","tel":"031-618-8646","addr":"경기도 평택시 동삭동 711-13번지 한주빌딩 3층","category":"서비스업 - 병원"},{"name":"서재중앙약국","tel":"031-652-9982","addr":"경기도 평택시 동삭동 711-13번지 한주빌딩 101호","category":"약국 - 약국"},{"name":"시루향기","tel":"031-657-9491","addr":"경기도 평택시 동삭동 711-13번지 한주빌딩 1층","category":"일반휴게음식 - 일반한식"}]},{"lat":"37.007885047","long":"127.0960017","items":[{"name":"고기주는 냉면 소갈비살","tel":"031-656-3344","addr":"경기도 평택시 동삭동 697-9번지 세진빌딩","category":"일반휴게음식 - 일반한식"},{"name":"석구네마포주먹고기","tel":"031-658-9459","addr":"경기도 평택시 동삭동 697-9번지 세진빌딩 1층","category":"일반휴게음식 - 일반한식"},{"name":"수통골추어탕","tel":"031-618-6399","addr":"경기도 평택시 동삭동 697-9번지 세진빌딩 2층","category":"일반휴게음식 - 일반한식"}]},{"lat":"37.00935576","long":"127.09345299","items":[{"name":"골드노래연습장","tel":"061-657-7900","addr":"경기도 평택시 동삭동 681-8번지 2층","category":"레저업소 - 노 래 방"},{"name":"모박사부대찌개평택점","tel":"031-653-5288","addr":"경기도 평택시 동삭동 681-8번지","category":"일반휴게음식 - 일반한식"},{"name":"모박사부대찌개평택점","tel":"031-655-2397","addr":"경기도 평택시 동삭동 681-8번지","category":"음식점 - 한식"},{"name":"법률사무소 윤조","tel":"031-663-0447","addr":"경기도 평택시 동삭동 681-8번지 301호","category":"용역 서비스 - 법률회계서비스(개인)"}]},{"lat":"37.007381612","long":"127.09450678","items":[{"name":"골든키","tel":"031-654-1319","addr":"경기도 평택시 동삭동 699-5번지 1층","category":"건축자재 - 목재·석재·철물"}]},{"lat":"37.007381932","long":"127.09409107","items":[{"name":"골든키","tel":"031-364-8193","addr":"경기도 평택시 동삭동 699-2번지 상가 1층","category":"건축자재 - 목재·석재·철물"}]},{"lat":"37.009353804","long":"127.09598102","items":[{"name":"공증인 정진용 사무소","tel":"031-663-0447","addr":"경기도 평택시 동삭동 692-11번지 402호","category":"용역 서비스 - 법률회계서비스(개인)"},{"name":"글라스메이커","tel":"031-692-0206","addr":"경기도 평택시 동삭동 692-11번지 104호","category":"보건위생 - 안경"},{"name":"글라스메이커","tel":"031-656-5597","addr":"경기도 평택시 동삭동 692-11번지 104호","category":"소매업 - 안경"},{"name":"배스킨라빈스평택법원점","tel":"031-651-7456","addr":"경기도 평택시 동삭동 692-11번지 훈영빌딩 101,102호","category":"음료식품 - 제과점"},{"name":"법률사무소 범진","tel":"031-658-6550","addr":"경기도 평택시 동삭동 692-11번지 훈영빌딩 4층 401호","category":"용역 서비스 - 법률회계서비스(개인)"},{"name":"법무법인 네이버스 평택지점","tel":"031-657-5300","addr":"경기도 평택시 동삭동 692-11번지 훈영빌딩 301호","category":"용역 서비스 - 법률회계서비스(법인)"},{"name":"법무사법인혜안","tel":"031-654-3800","addr":"경기도 평택시 동삭동 692-11번지 훈영빌딩 102호","category":"용역 서비스 - 법률회계서비스(법인)"},{"name":"법무사최용상사무소","tel":"031-656-7890","addr":"경기도 평택시 동삭동 692-11번지 훈영빌딩 202호","category":"용역 서비스 - 법률회계서비스(개인)"},{"name":"베스킨라빈스평택법원점","tel":"031-655-7184","addr":"경기도 평택시 동삭동 692-11번지 101호","category":"소매업 - 디저트"},{"name":"변호사박한영법률사무소","tel":"031-651-1411","addr":"경기도 평택시 동삭동 692-11번지 훈영빌딩 201호","category":"용역 서비스 - 법률회계서비스(개인)"}]},{"lat":"37.017074107","long":"127.09830522","items":[{"name":"공터영어 동삭센터","tel":"031-654-1080","addr":"경기도 평택시 동삭동 835번지 평택센트럴자이1단지 101동 102호","category":"학원 - 기타 교육기관"},{"name":"김현주개인과외","tel":"031-657-9952","addr":"경기도 평택시 동삭동 835번지 평택센트럴자이1단지 104동 401호","category":"학원 - 기타 교육기관"},{"name":"꼬지사께","tel":"031-658-0423","addr":"경기도 평택시 동삭동 835번지 평택센트럴자이1단지 지층 110호","category":"일반휴게음식 - 일식·회집"},{"name":"더미토탈뷰티샵","tel":"031-657-5559","addr":"경기도 평택시 동삭동 835번지 평택센트럴자이1단지 108호","category":"보건위생 - 피부미용실"},{"name":"시립센트럴자이1단지어린이집[아이행복]","tel":"031-618-2149","addr":"경기도 평택시 동삭동 835번지 평택센트럴자이1단지","category":"학원 - 유아원"},{"name":"아현네일","tel":"031-657-5559","addr":"경기도 평택시 동삭동 835번지 평택센트럴자이1단지 상가동 108호","category":"보건위생 - 피부미용실"},{"name":"업투업수학","tel":"","addr":"경기도 평택시 동삭동 835번지 평택센트럴자이1단지 109동 402호","category":"학원 - 기타 교육기관"},{"name":"에어컨두","tel":"","addr":"경기도 평택시 동삭동 835번지 평택센트럴자이1단지 103동 102호","category":"수리서비스 - 가정용품수리"},{"name":"자이뷰티","tel":"031-651-1196","addr":"경기도 평택시 동삭동 835번지 평택센트럴자이1단지 117호","category":"보건위생 - 미용원"},{"name":"자이뷰티","tel":"031-657-6543","addr":"경기도 평택시 동삭동 835번지 평택센트럴자이1단지 117호","category":"서비스업 - 미용"},{"name":"자이전자담배","tel":"031-000-0000","addr":"경기도 평택시 동삭동 835번지 평택센트럴자이1단지 상가117동 108-1호","category":"기타 - 기타 전문점"},{"name":"자이정육점","tel":"031-651-9294","addr":"경기도 평택시 동삭동 835번지 평택센트럴자이1단지 117동 112호","category":"음료식품 - 정육점"},{"name":"투다리","tel":"031-654-9957","addr":"경기도 평택시 동삭동 835번지 평택센트럴자이1단지","category":"음식점 - 호프"},{"name":"투다리 자이점","tel":"031-658-0113","addr":"경기도 평택시 동삭동 835번지 평택센트럴자이1단지 상가동 114호","category":"일반휴게음식 - 주점"},{"name":"해법이와 삼공이 영수교실","tel":"031-657-0210","addr":"경기도 평택시 동삭동 835번지 평택센트럴자이1단지 103동 803호","category":"학원 - 기타 교육기관"},{"name":"후딱후딱","tel":"031-658-9745","addr":"경기도 평택시 동삭동 835번지 평택센트럴자이1단지 117동 119호","category":"음식점 - 치킨"},{"name":"후딱후딱","tel":"031-654-9957","addr":"경기도 평택시 동삭동 835번지 평택센트럴자이1단지 117동 119호","category":"일반휴게음식 - 일반한식"}]},{"lat":"37.008074288","long":"127.09597946","items":[{"name":"광주집순대국","tel":"031-655-7767","addr":"경기도 평택시 동삭동 697-8번지 1층","category":"일반휴게음식 - 일반한식"},{"name":"육회집","tel":"031-657-7772","addr":"경기도 평택시 동삭동 697-8번지","category":"일반휴게음식 - 일반한식"},{"name":"정가네두껀갈비","tel":"031-657-8303","addr":"경기도 평택시 동삭동 697-8번지 2층","category":"일반휴게음식 - 일반한식"}]},{"lat":"37.009356442","long":"127.09255413","items":[{"name":"광화문법무법인(분사무소)","tel":"031-651-9800","addr":"경기도 평택시 동삭동 197-12","category":"용역 서비스 - 법률회계서비스(법인)"},{"name":"법무사이민권사무소","tel":"031-618-2121","addr":"경기도 평택시 동삭동 197-12번지","category":"용역 서비스 - 법률회계서비스(개인)"}]},{"lat":"37.008524034","long":"127.09697997","items":[{"name":"국제누수방수","tel":"031-655-1788","addr":"경기도 평택시 동삭동 709-2번지 406호","category":"용역 서비스 - 기타용역서비스"}]},{"lat":"37.010517482","long":"127.09430829","items":[{"name":"그리다큐레이팅아트","tel":"031-652-4136","addr":"경기도 평택시 동삭동 659-10번지 101호","category":"학원 - 학습지 교육"}]},{"lat":"37.004716896","long":"127.09127913","items":[{"name":"그린썬팅멀티샵","tel":"031-656-4012","addr":"경기도 평택시 동삭동 181-14번지","category":"자동차정비 유지 - 자동차부품"}]},{"lat":"37.007382576","long":"127.09324841","items":[{"name":"근일설비","tel":"031-618-8961","addr":"경기도 평택시 동삭동 689-8번지 101호","category":"용역 서비스 - 기타용역서비스"}]},{"lat":"37.021716168","long":"127.09633322","items":[{"name":"글라비어음악학원","tel":"031-657-4671","addr":"경기도 평택시 동삭동 343-2번지 삼익 상가 302-1호","category":"서비스업 - 교육(음악학원)"},{"name":"삼익그린마트","tel":"031-651-5171","addr":"경기도 평택시 동삭동 343-2번지 삼익사이버아파트","category":"소매업 - 슈퍼"},{"name":"삼익한우마을","tel":"031-656-3316","addr":"경기도 평택시 동삭동 343-2번지 삼익사이버 상가 1층 106호","category":"음료식품 - 정육점"},{"name":"클라비어음악학원","tel":"031-651-9930","addr":"경기도 평택시 동삭동 343-2삼익상가302-1호(3층)","category":"학원 - 예·체능계학원"}]},{"lat":"37.010604774","long":"127.09789264","items":[{"name":"금강보세","tel":"070-3034-0605","addr":"경기도 평택시 동삭동 250-6, 53블럭6롯트","category":"의류 - 정장"},{"name":"세븐일레븐평택서재중앙점","tel":"","addr":"경기도 평택시 동삭동 250-6(53블럭6롯트)","category":"유통업 영리 - 편 의 점"}]},{"lat":"37.00666191","long":"127.09300038","items":[{"name":"기성금속","tel":"031-654-9113","addr":"경기도 평택시 동삭동 187-3번지","category":"건축자재 - 기타건축자재"},{"name":"자동차꾸밈방","tel":"031-654-7743","addr":"경기도 평택시 동삭동 187-3번지","category":"자동차정비 유지 - 자동차부품"}]},{"lat":"37.009406866","long":"127.09725072","items":[{"name":"김밥나라법원점","tel":"031-651-8221","addr":"경기도 평택시 동삭동 705-6번지 1층","category":"일반휴게음식 - 일반한식"},{"name":"베누스헤어샬롱","tel":"031-656-5944","addr":"경기도 평택시 동삭동 705-6번지 2층","category":"보건위생 - 미용원"},{"name":"쉼터체형관리","tel":"031-654-6088","addr":"경기도 평택시 동삭동 705-6번지 6층","category":"보건위생 - 피부미용실"},{"name":"연노래뮤비방","tel":"031-651-0273","addr":"경기도 평택시 동삭동 705-6번지 4층","category":"용역 서비스 - 종합용역"},{"name":"좋은느낌(NICEFEEL)","tel":"070-7545-3577","addr":"경기도 평택시 동삭동 705-6번지 101호","category":"직물 - 침구·수예점"}]},{"lat":"37.009020409","long":"127.09598061","items":[{"name":"김밥킹 법조타운점","tel":"031-618-3317","addr":"경기도 평택시 동삭동 697-1번지 1층","category":"일반휴게음식 - 일반한식"},{"name":"모나코 (MONACO)","tel":"031-0000-0000","addr":"경기도 평택시 동삭동 697-1번지 2층","category":"일반휴게음식 - 서양음식"},{"name":"치킨퐁(법원점)","tel":"031-664-4876","addr":"경기도 평택시 동삭동 697-1 101호 (비전2로 6)","category":"일반휴게음식 - 스넥"}]},{"lat":"37.019146241","long":"127.09870111","items":[{"name":"꼬마숲어린이집","tel":"031-658-0113","addr":"경기도 평택시 동삭동 340-6번지 현대아파트 102동 106호","category":"서비스업 - 교육"}]},{"lat":"37.00768984","long":"127.09205782","items":[{"name":"나눌컴퓨터","tel":"031-658-3123","addr":"경기도 평택시 동삭동 686-6번지 씨앤빌 101호","category":"사무통신 - 컴퓨터"},{"name":"마마운동화이불빨래방","tel":"031-658-8482","addr":"경기도 평택시 동삭동 686-6번지 101호","category":"수리서비스 - 세탁소"}]},{"lat":"37.008994868","long":"127.09405929","items":[{"name":"네이처시가","tel":"070-7576-0223","addr":"경기도 평택시 동삭동 693-11번지","category":"음료식품 - 기타음료식품"}]},{"lat":"37.009355019","long":"127.09441926","items":[{"name":"노리터 당구클럽","tel":"031-691-3691","addr":"경기도 평택시 동삭동 692-3번지 5층","category":"레저업소 - 당 구 장"},{"name":"노리터PC","tel":"02-555-2580","addr":"경기도 평택시 동삭동 692-3번지","category":"레저업소 - 기타레져업소"},{"name":"노리터만화","tel":"070-8863-3458","addr":"경기도 평택시 동삭동 692-3번지 2층","category":"음료식품 - 기타음료식품"},{"name":"파타야테라피","tel":"","addr":"경기도 평택시 동삭동 692-3번지 4층","category":"보건위생 - 미용재료"}]},{"lat":"37.009407044","long":"127.09702601","items":[{"name":"늘찬속기사무소","tel":"031-651-4448","addr":"경기도 평택시 동삭동 705-5번지 202호","category":"용역 서비스 - 사무서비스"},{"name":"더센","tel":"031-658-7553","addr":"경기도 평택시 동삭동 705-5번지 503호","category":"일반휴게음식 - 주점"},{"name":"더센맛집","tel":"","addr":"경기도 평택시 동삭동 705-5번지 503호","category":"일반휴게음식 - 주점"},{"name":"로엔법률사무소","tel":"031-647-6630","addr":"경기도 평택시 동삭동 705-5번지 2층 201호","category":"용역 서비스 - 법률회계서비스(개인)"},{"name":"명불허전원조골뱅이(평택점)","tel":"031-658-2050","addr":"경기도 평택시 동삭동 705-5번지 101호","category":"일반휴게음식 - 일반한식"},{"name":"법무사 행정사 백종호 사무소","tel":"031-691-7772","addr":"경기도 평택시 동삭동 705-5번지 102호","category":"용역 서비스 - 법률회계서비스(개인)"},{"name":"에스당구클럽","tel":"","addr":"경기도 평택시 동삭동 705-5번지 4층","category":"레저업소 - 당 구 장"},{"name":"엔젤스노래연습장","tel":"","addr":"경기도 평택시 동삭동 705-5번지","category":"레저업소 - 노 래 방"}]},{"lat":"37.007353019","long":"127.09650664","items":[{"name":"다농마트 대일씨푸드","tel":"031-654-8484","addr":"경기도 평택시 동삭동 708-7번지","category":"음료식품 - 농·축·수산품"}]},{"lat":"37.006544172","long":"127.09378671","items":[{"name":"다산종합상사","tel":"031-651-7770","addr":"경기도 평택시 동삭동 184-7번지","category":"건축자재 - 목재·석재·철물"}]},{"lat":"37.005464883","long":"127.09114517","items":[{"name":"대관령황태골","tel":"031-651-9779","addr":"경기도 평택시 동삭동 182-3번지","category":"일반휴게음식 - 일반한식"}]},{"lat":"37.010940532","long":"127.09489307","items":[{"name":"더밍","tel":"","addr":"경기도 평택시 동삭동 660-2번지 101호","category":"의류 - 정장"}]},{"lat":"37.021878977","long":"127.0955468","items":[{"name":"더샾","tel":"031-656-7114","addr":"경기도 평택시 동삭동 343-2번지 삼익사이버A 105동 2002호","category":"소매업 - 화장품"}]},{"lat":"37.007689654","long":"127.092305","items":[{"name":"덱카 Decar","tel":"031-652-0000","addr":"경기도 평택시 동삭동 687-1번지 유니빌 101호","category":"자동차정비 유지 - 자동차부품"}]},{"lat":"37.008992988","long":"127.09647495","items":[{"name":"도리향","tel":"031-618-1140","addr":"경기도 평택시 동삭동 706-1번지 2층","category":"일반휴게음식 - 일반한식"},{"name":"뚜레쥬르 평택법원","tel":"031-655-6741","addr":"경기도 평택시 동삭동 706-1번지 1층","category":"음료식품 - 제과점"},{"name":"명품돌판생삼겹살","tel":"031-654-7754","addr":"경기도 평택시 동삭동 706-1번지 109호","category":"일반휴게음식 - 일반한식"},{"name":"병천순대평택점","tel":"031-692-2554","addr":"경기도 평택시 동삭동 706-1번지 1층","category":"일반휴게음식 - 일반한식"},{"name":"병천순대평택점","tel":"031-653-5141","addr":"경기도 평택시 동삭동 706-1번지","category":"음식점 - 한식"},{"name":"사쿠사쿠(법원점)","tel":"031-611-8862","addr":"경기도 평택시 동삭동 706-1번지 상가 106호","category":"일반휴게음식 - 스넥"},{"name":"사쿠사쿠(법원점)","tel":"","addr":"경기도 평택시 동삭동 706-1번지","category":"음식점 - 한식"},{"name":"일도참치","tel":"031-653-5141","addr":"경기도 평택시 동삭동 706-1번지 상가동 101호","category":"일반휴게음식 - 일반한식"},{"name":"일도참치","tel":"031-654-4789","addr":"경기도 평택시 동삭동 706-1번지 상가동 101호","category":"음식점 - 일식"}]},{"lat":"37.008326587","long":"127.09597977","items":[{"name":"돈코다리백숙","tel":"031-651-9900","addr":"경기도 평택시 동삭동 697-6번지 201호","category":"일반휴게음식 - 일반한식"},{"name":"요리토리","tel":"031-654-0670","addr":"경기도 평택시 동삭동 697-6번지 3층","category":"일반휴게음식 - 일식·회집"}]},{"lat":"37.009878001","long":"127.09394798","items":[{"name":"돈키호테","tel":"031-651-1088","addr":"경기도 평택시 동삭동 662-1번지 서재빌딩 104호","category":"일반휴게음식 - 일반한식"},{"name":"명륜진사갈비평택법원점","tel":"031-654-0393","addr":"경기도 평택시 동삭동 662-1번지 서재빌딩 2층","category":"일반휴게음식 - 일반한식"},{"name":"시크릿헤어","tel":"031-656-6464","addr":"경기도 평택시 동삭동 662-1번지 서재빌딩 101호","category":"보건위생 - 미용원"}]},{"lat":"37.018796495","long":"127.09661058","items":[{"name":"동삭뮤엠영어학원","tel":"031-651-9905","addr":"경기도 평택시 동삭동 339번지 1층","category":"학원 - 외국어학원"},{"name":"셀파우등생동삭학원","tel":"031-651-1885","addr":"경기도 평택시 동삭동 339번지 1층 일부,2층 일부","category":"학원 - 보습학원"},{"name":"셀파우등생동삭학원","tel":"031-651-1885","addr":"경기도 평택시 동삭동 339번지 1층일부,2층일부","category":"학원 - 보습학원"},{"name":"와글와글","tel":"031-656-2290","addr":"경기도 평택시 동삭동 339번지 1층","category":"서적문구 - 문구용품"},{"name":"월드태권아카데미 (동삭관)","tel":"031-653-0995","addr":"경기도 평택시 동삭동 339번지 3층","category":"학원 - 예·체능계학원"},{"name":"제이제이 댄스 스튜디오","tel":"","addr":"경기도 평택시 동삭동 339번지 3층","category":"학원 - 예·체능계학원"}]},{"lat":"37.018516478","long":"127.09747549","items":[{"name":"동삭초등학교","tel":"031-618-9674","addr":"경기도 평택시 동삭동 332-10번지 동삭초등학교","category":"학원 - 초중고교육기관"},{"name":"동삭초등학교_수업료","tel":"031-618-9674","addr":"경기도 평택시 동삭동 332-10번지 동삭초등학교","category":"학원 - 초중고교육기관"},{"name":"동삭초등학교병설유치원[아이행복]","tel":"031-618-9672","addr":"경기도 평택시 동삭동 332-10번지 동삭초등학교","category":"학원 - 유치원"}]},{"lat":"37.020102755","long":"127.09697177","items":[{"name":"동화부동산중개사무소","tel":"031-652-8576","addr":"경기도 평택시 동삭동 340-13번지","category":"서비스업 - 부동산"},{"name":"라인필라테스","tel":"","addr":"경기도 평택시 동삭동 340-13번지 501호","category":"레저업소 - 헬스클럽"},{"name":"미소짓는약국","tel":"","addr":"경기도 평택시 동삭동 340-13번지 1층 102호","category":"소매업 - 약국"},{"name":"미소짓는약국","tel":"","addr":"경기도 평택시 동삭동 340-13번지 1층 102호","category":"약국 - 약국"},{"name":"성모사랑내과의원","tel":"031-8054-7579","addr":"경기도 평택시 동삭동 340-13번지 동화메디컬빌딩 2층 201호","category":"의원 - 의원"},{"name":"평택본플란트치과의원","tel":"031-653-0880","addr":"경기도 평택시 동삭동 340-13번지 동화메디컬빌딩 1동 301호","category":"의원 - 치과의원"}]},{"lat":"37.007830585","long":"127.09650723","items":[{"name":"돼지갈비육미촌 평택본점","tel":"031-618-9618","addr":"경기도 평택시 동삭동 708-5번지 1층","category":"일반휴게음식 - 일반한식"},{"name":"돼지갈비육미촌 평택본점2호","tel":"031-651-9289","addr":"경기도 평택시 동삭동 708-5번지 2층","category":"일반휴게음식 - 일반한식"},{"name":"돼지갈비육미촌평택본점","tel":"031-651-9289","addr":"경기도 평택시 동삭동 708-5번지 2층","category":"일반휴게음식 - 일반한식"}]},{"lat":"37.009021111","long":"127.09508176","items":[{"name":"드레스코드","tel":"031-651-4243","addr":"경기도 평택시 동삭동 695-2번지 동그라미빌 1층 상가","category":"의류 - 정장"}]},{"lat":"37.007129165","long":"127.09469747","items":[{"name":"등산아웃도어","tel":"031-691-7472","addr":"경기도 평택시 동삭동 700-6번지 하늘마루 1층","category":"레져용품 - 스포츠·레져용품"}]},{"lat":"37.011491631","long":"127.09300608","items":[{"name":"디테일링스퀘어","tel":"","addr":"경기도 평택시 동삭동 652-5번지 302호","category":"자동차정비 유지 - 세차장"}]},{"lat":"37.010909363","long":"127.10008403","items":[{"name":"떡퍼맨","tel":"070-8181-6638","addr":"경기도 평택시 동삭동 711-1번지","category":"일반휴게음식 - 일반한식"},{"name":"백의민족","tel":"031-651-5858","addr":"경기도 평택시 동삭동 711-1번지 101호","category":"일반휴게음식 - 일반한식"},{"name":"백의민족","tel":"031-658-9282","addr":"경기도 평택시 동삭동 711-1번지 101호","category":"음식점 - 한식"},{"name":"오잘골프멀티샵","tel":"031-618-5507","addr":"경기도 평택시 동삭동 711-1번지 201호","category":"레져용품 - 골프용품 전문점"},{"name":"워아이니","tel":"031-691-8223","addr":"경기도 평택시 동삭동 711-1번지 2층","category":"일반휴게음식 - 중국식"},{"name":"헤어에이스","tel":"","addr":"경기도 평택시 동삭동 711-1번지","category":"서비스업 - 이미용"},{"name":"헤어에이스","tel":"031-618-9085","addr":"경기도 평택시 동삭동 711-1번지 102호","category":"보건위생 - 미용원"}]},{"lat":"37.009355657","long":"127.09358782","items":[{"name":"띵가띵가 노래연습장","tel":"","addr":"경기도 평택시 동삭동 681-9번지 한동빌딩 2층","category":"레저업소 - 노 래 방"},{"name":"씨유평택서재법원점","tel":"031-691-6668","addr":"경기도 평택시 동삭동 681-9번지 102,103호","category":"유통업 영리 - 편 의 점"},{"name":"씨유평택서재법원점","tel":"02-1577-8007","addr":"경기도 평택시 동삭동 681-9번지 102호, 103호","category":"유통업 영리 - 편 의 점"}]},{"lat":"37.011684124","long":"127.10027603","items":[{"name":"라운지671","tel":"031-651-0671","addr":"경기도 평택시 동삭동 679-4번지 예원빌딩 2층","category":"일반휴게음식 - 서양음식"},{"name":"빠통","tel":"031-618-9985","addr":"경기도 평택시 동삭동 679-4번지 1층","category":"일반휴게음식 - 스넥"},{"name":"빠통","tel":"031-651-5482","addr":"경기도 평택시 동삭동 679-4번지 1층","category":"음식점 - 치킨"}]},{"lat":"37.020797514","long":"127.09578147","items":[{"name":"라움어린이집[아이행복]","tel":"","addr":"경기도 평택시 동삭동 342-2번지","category":"학원 - 유아원"}]},{"lat":"37.009851287","long":"127.09353223","items":[{"name":"렛츠","tel":"061-363-2462","addr":"경기도 평택시 동삭동 661-7번지 원림프라자 3층 302호","category":"보건위생 - 피부미용실"},{"name":"리치노래뮤비방","tel":"031-652-4986","addr":"경기도 평택시 동삭동 661-7번지","category":"용역 서비스 - 종합용역"},{"name":"먹보네","tel":"031-654-3580","addr":"경기도 평택시 동삭동 661-7번지 201,202호","category":"일반휴게음식 - 일반한식"},{"name":"먹보네","tel":"031-658-7516","addr":"경기도 평택시 동삭동 661-7번지 2층","category":"음식점 - 한식"},{"name":"유채돈까스","tel":"031-657-6543","addr":"경기도 평택시 동삭동 661-7번지 102호","category":"일반휴게음식 - 서양음식"},{"name":"유채돈까스","tel":"031-654-3580","addr":"경기도 평택시 동삭동 661-7번지 102호","category":"음식점 - 양식"},{"name":"카페드라페","tel":"031-651-3236","addr":"경기도 평택시 동삭동 661-7번지 107호","category":"일반휴게음식 - 서양음식"},{"name":"프롬 빌리어드","tel":"031-658-0368","addr":"경기도 평택시 동삭동 661-7번지 501-503호","category":"레저업소 - 당 구 장"},{"name":"행복한밥상","tel":"031-651-4848","addr":"경기도 평택시 동삭동 661-7번지 402,403호","category":"일반휴게음식 - 일반한식"},{"name":"휴대폰11번가","tel":"031-652-2939","addr":"경기도 평택시 동삭동 661-7번지 103,104,105호","category":"사무통신 - 통신기기"}]},{"lat":"37.007689941","long":"127.09192299","items":[{"name":"루이건설","tel":"031-655-8303","addr":"경기도 평택시 동삭동 686-5번지 1층","category":"건축자재 - 페인트"}]},{"lat":"37.008524433","long":"127.09647437","items":[{"name":"루체308","tel":"031-692-1045","addr":"경기도 평택시 동삭동 706-4번지","category":"음식점 - 한식"},{"name":"루체308","tel":"031-652-7133","addr":"경기도 평택시 동삭동 706-4번지 1층","category":"일반휴게음식 - 서양음식"},{"name":"수","tel":"031-655-7488","addr":"경기도 평택시 동삭동 706-4번지 3층","category":"일반휴게음식 - 주점"},{"name":"이모네곱창","tel":"031-658-8788","addr":"경기도 평택시 동삭동 706-4번지","category":"일반휴게음식 - 일반한식"},{"name":"파티오펍","tel":"031-658-3771","addr":"경기도 평택시 동삭동 706-4번지 2층","category":"일반휴게음식 - 주점"}]},{"lat":"37.00660531","long":"127.09628102","items":[{"name":"르미엘","tel":"031-618-0889","addr":"경기도 평택시 동삭동 704-7번지","category":"음식점 - 레스토랑"},{"name":"르미엘","tel":"031-657-7288","addr":"경기도 평택시 동삭동 704-7번지 1층3,4호","category":"일반휴게음식 - 서양음식"},{"name":"보드레족발평택점","tel":"031-656-6570","addr":"경기도 평택시 동삭동 704-7번지","category":"일반휴게음식 - 일반한식"},{"name":"송탄연탄불생고기","tel":"070-8842-6773","addr":"경기도 평택시 동삭동 704-7번지","category":"일반휴게음식 - 일반한식"}]},{"lat":"37.00876811","long":"127.09598031","items":[{"name":"마루횟집","tel":"031-654-8008","addr":"경기도 평택시 동삭동 697-3번지 301호","category":"일반휴게음식 - 일식·회집"},{"name":"명동찌개마을 동삭점","tel":"031-691-4792","addr":"경기도 평택시 동삭동 697-3번지","category":"일반휴게음식 - 일반한식"},{"name":"옛날손짜장청빈","tel":"031-657-0082","addr":"경기도 평택시 동삭동 697-3번지 2층","category":"일반휴게음식 - 중국식"},{"name":"황제웰빙","tel":"031-666-0051","addr":"경기도 평택시 동삭동 697-3번지 현대프라자 301호","category":"보건위생 - 화장품"}]},{"lat":"37.008794754","long":"127.0964747","items":[{"name":"맛나양꼬치","tel":"031-656-7712","addr":"경기도 평택시 동삭동 706-2번지 2층","category":"일반휴게음식 - 일반한식"},{"name":"삼식당","tel":"031-654-3559","addr":"경기도 평택시 동삭동 706-2번지 4층","category":"일반휴게음식 - 일반한식"},{"name":"신안왕소금구이","tel":"","addr":"경기도 평택시 동삭동 706-2번지 1층","category":"음식점 - 한식"},{"name":"신안왕소금구이","tel":"031-653-4792","addr":"경기도 평택시 동삭동 706-2번지 1층","category":"일반휴게음식 - 일반한식"},{"name":"썸케어","tel":"031-656-0338","addr":"경기도 평택시 동삭동 706-2번지 3층","category":"보건위생 - 화장품"}]},{"lat":"37.009135566","long":"127.09847507","items":[{"name":"멍냥멍냥 마이펫","tel":"031-651-5668","addr":"경기도 평택시 동삭동 705-10번지 동소빌딩 101호","category":"문화.취미 - 애완동물"},{"name":"멍냥멍냥마이펫","tel":"031-691-6902","addr":"경기도 평택시 동삭동 705-10번지 동소빌딩 101호","category":"소매업 - 애견용품"},{"name":"블레스롤평택법원점","tel":"031-655-2587","addr":"경기도 평택시 동삭동 705-10번지 1층","category":"일반휴게음식 - 서양음식"},{"name":"수노래연습장","tel":"031-657-7454","addr":"경기도 평택시 동삭동 705-10번지 2층 201호","category":"레저업소 - 노 래 방"},{"name":"태양법률사무소","tel":"031-657-9600","addr":"경기도 평택시 동삭동 705-10번지 동소빌딩 3층","category":"용역 서비스 - 법률회계서비스(개인)"},{"name":"파인핏(FINE FIT)","tel":"031-655-2939","addr":"경기도 평택시 동삭동 705-10번지 501,502호","category":"레저업소 - 헬스클럽"}]},{"lat":"37.007740876","long":"127.09600152","items":[{"name":"모녀식당","tel":"031-653-7006","addr":"경기도 평택시 동삭동 697-10번지","category":"일반휴게음식 - 일반한식"},{"name":"스시명","tel":"031-657-9370","addr":"경기도 평택시 동삭동 697-10번지 1층 102호","category":"일반휴게음식 - 일식·회집"},{"name":"진닭한마리칼국수","tel":"031-692-3300","addr":"경기도 평택시 동삭동 697-10번지 덕진빌딩 2층","category":"음식점 - 한식"},{"name":"진닭한마리칼국수&신촌감자탕해물뼈찜","tel":"031-656-7634","addr":"경기도 평택시 동삭동 697-10번지 2층","category":"일반휴게음식 - 일반한식"},{"name":"타이토헤어","tel":"031-691-9363","addr":"경기도 평택시 동삭동 697-10번지","category":"보건위생 - 미용원"},{"name":"호야김밥","tel":"031-618-2655","addr":"경기도 평택시 동삭동 697-10번지 103호","category":"일반휴게음식 - 일반한식"}]},{"lat":"37.007689501","long":"127.09250724","items":[{"name":"모녀작업실","tel":"031-664-2339","addr":"경기도 평택시 동삭동 687-2번지 힐링하우스 1층 101호","category":"문화.취미 - 문화취미기타"}]},{"lat":"37.009380226","long":"127.09675632","items":[{"name":"미남커피평택법원점","tel":"031-653-6668","addr":"경기도 평택시 동삭동 705-3번지 1층","category":"일반휴게음식 - 서양음식"},{"name":"법률사무소 승리","tel":"031-653-8100","addr":"경기도 평택시 동삭동 705-3번지 운성빌딩 3층","category":"용역 서비스 - 법률회계서비스(개인)"},{"name":"변호사장경환법률사무소","tel":"031-654-8312","addr":"경기도 평택시 동삭동 705-3번지 3층","category":"용역 서비스 - 법률회계서비스(개인)"},{"name":"종합법무센타 진성 법무사 전대배","tel":"031-654-0072","addr":"경기도 평택시 동삭동 705-3번지 201호","category":"용역 서비스 - 법률회계서비스(개인)"},{"name":"퀸 노래연습장","tel":"031-658-2402","addr":"경기도 평택시 동삭동 705-3번지 4층","category":"레저업소 - 노 래 방"},{"name":"태유월심리상담센터","tel":"031-657-9350","addr":"경기도 평택시 동삭동 705-3번지 202호","category":"학원 - 기타 교육기관"}]},{"lat":"37.007690168","long":"127.09161963","items":[{"name":"미래OA솔루션","tel":"031-656-5705","addr":"경기도 평택시 동삭동 686-3번지 트리니트 101호","category":"사무통신 - 사무용 OA기기"}]},{"lat":"37.01327036","long":"127.09983984","items":[{"name":"미르정보통신","tel":"031-691-7222","addr":"경기도 평택시 동삭동 675-1번지 루이빌 1층","category":"사무통신 - 통신기기"}]},{"lat":"37.009576753","long":"127.09889135","items":[{"name":"미샤스크린골프","tel":"031-691-7188","addr":"경기도 평택시 동삭동 711-14번지 보우빌딩 4층","category":"레저업소 - 스크린골프"},{"name":"미샤포톤","tel":"031-618-2388","addr":"경기도 평택시 동삭동 711-14번지 402호","category":"보건위생 - 화장품"},{"name":"수라상","tel":"031-653-0777","addr":"경기도 평택시 동삭동 711-14번지 101호","category":"일반휴게음식 - 일반한식"},{"name":"수라상","tel":"031-657-4274","addr":"경기도 평택시 동삭동 711-14번지","category":"음식점 - 한식"},{"name":"아이공간 아동발달센터","tel":"031-654-9979","addr":"경기도 평택시 동삭동 711-14번지 3층","category":"보건위생 - 기타대인서비스"},{"name":"옥상맥주","tel":"070-8875-3350","addr":"경기도 평택시 동삭동 711-14번지 5층","category":"일반휴게음식 - 일반한식"},{"name":"할리스커피","tel":"031-651-2750","addr":"경기도 평택시 동삭동 711-14번지 1층,2층","category":"일반휴게음식 - 서양음식"}]},{"lat":"37.010940662","long":"127.09472453","items":[{"name":"미제노리","tel":"031-652-3567","addr":"경기도 평택시 동삭동 660-1번지 102호","category":"신변잡화 - 기타잡화"}]},{"lat":"37.00991097","long":"127.09786931","items":[{"name":"바다의왕자평택점","tel":"031-691-0022","addr":"경기도 평택시 동삭동 667-3번지 1층","category":"일반휴게음식 - 일반한식"},{"name":"법무사정만기사무소","tel":"031-655-6505","addr":"경기도 평택시 동삭동 667-3번지","category":"용역 서비스 - 법률회계서비스(개인)"},{"name":"임국희헤어드레서","tel":"","addr":"경기도 평택시 동삭동 667-3번지 201호","category":"서비스업 - 미용"}]},{"lat":"37.010351306","long":"127.09934175","items":[{"name":"박군치킨(법원점)","tel":"031-656-8977","addr":"경기도 평택시 동삭동 711-8번지 1층 102호","category":"일반휴게음식 - 스넥"},{"name":"박군치킨법원점","tel":"031-655-4539","addr":"경기도 평택시 동삭동 711-8번지 1층","category":"음식점 - 치킨"},{"name":"법무사박주용사무소","tel":"031-655-8288","addr":"경기도 평택시 동삭동 711-8번지 101호","category":"용역 서비스 - 법률회계서비스(개인)"},{"name":"필아로마","tel":"","addr":"경기도 평택시 동삭동 711-8번지 윤상빌딩 4층","category":"보건위생 - 화장품"}]},{"lat":"37.007128388","long":"127.09569742","items":[{"name":"반짝반짝 빛나는공방","tel":"","addr":"경기도 평택시 동삭동 701-5번지 1층","category":"신변잡화 - 기념품점"},{"name":"현진시스템","tel":"031-665-7712","addr":"경기도 평택시 동삭동 701-5번지 101호","category":"전기제품 - 가전제품"}]},{"lat":"37.007741263","long":"127.09550716","items":[{"name":"버블맨24","tel":"031-111-1111","addr":"경기도 평택시 동삭동 698-11번지","category":"수리서비스 - 세탁소"}]},{"lat":"37.011774157","long":"127.10036603","items":[{"name":"범양종합냉동","tel":"031-654-5430","addr":"경기도 평택시 동삭동 679-5번지 401호","category":"수리서비스 - 가정용품수리"},{"name":"한우옛날불고기","tel":"031-656-5778","addr":"경기도 평택시 동삭동 679-5번지 1층","category":"일반휴게음식 - 일반한식"}]},{"lat":"37.009355166","long":"127.09422825","items":[{"name":"법률사무소 진평","tel":"031-692-2390","addr":"경기도 평택시 동삭동 692-2번지 201호","category":"용역 서비스 - 법률회계서비스(개인)"},{"name":"장터파전","tel":"031-653-0430","addr":"경기도 평택시 동삭동 692-2번지","category":"일반휴게음식 - 일반한식"},{"name":"필노래연습장","tel":"031-652-6072","addr":"경기도 평택시 동삭동 692-2번지 301호","category":"레저업소 - 노 래 방"},{"name":"한국엠알오","tel":"031-1599-0160","addr":"경기도 평택시 동삭동 692-2번지 원강프라자 102호,103호","category":"사무통신 - 기타 사무용품"},{"name":"한국엠알오","tel":"031-618-5452","addr":"경기도 평택시 동삭동 692-2번지 원강프라자 102호","category":"도소매업 - 기념품"}]},{"lat":"37.009354671","long":"127.09486869","items":[{"name":"법률사무소 찬승","tel":"031-691-7011","addr":"경기도 평택시 동삭동 692-6번지 301호","category":"용역 서비스 - 법률회계서비스(개인)"},{"name":"변호사조형래법률사무소","tel":"031-657-5567","addr":"경기도 평택시 동삭동 692-6번지 402호","category":"용역 서비스 - 법률회계서비스(개인)"},{"name":"양권식법무사사무소","tel":"031-658-2220","addr":"경기도 평택시 동삭동 692-6번지","category":"용역 서비스 - 법률회계서비스(개인)"}]},{"lat":"37.009380137","long":"127.09686867","items":[{"name":"법무법인 가우 평택지점","tel":"031-656-8971","addr":"경기도 평택시 동삭동 705-4번지 에스제이프라자 4층","category":"용역 서비스 - 법률회계서비스(법인)"},{"name":"법무법인 트리니티","tel":"031-647-4123","addr":"경기도 평택시 동삭동 705-4번지 3층","category":"용역 서비스 - 법률회계서비스(법인)"},{"name":"법무법인명","tel":"031-658-6100","addr":"경기도 평택시 동삭동 705-4번지 5층 501호","category":"용역 서비스 - 법률회계서비스(법인)"},{"name":"변호사민경태법률사무소","tel":"031-656-8971","addr":"경기도 평택시 동삭동 705-4번지 4층","category":"용역 서비스 - 법률회계서비스(개인)"},{"name":"정수 법무사사무소","tel":"031-658-5002","addr":"경기도 평택시 동삭동 705-4번지 102호","category":"용역 서비스 - 법률회계서비스(개인)"}]},{"lat":"37.009354006","long":"127.0957226","items":[{"name":"법무법인 건승","tel":"070-5055-2394","addr":"경기도 평택시 동삭동 692-10번지 모세빌딩 2층","category":"용역 서비스 - 법률회계서비스(법인)"},{"name":"법무법인지원피앤피(평택분사무소)","tel":"031-651-2510","addr":"경기도 평택시 동삭동 692-10번지 모세빌딩 302호","category":"용역 서비스 - 법률회계서비스(법인)"},{"name":"법무사 정병렬","tel":"031-650-2700","addr":"경기도 평택시 동삭동 692-10번지 모세빌딩 402호","category":"용역 서비스 - 법률회계서비스(개인)"},{"name":"이디야평택법원점(EDIYA)","tel":"031-655-1043","addr":"경기도 평택시 동삭동 692-10번지","category":"일반휴게음식 - 서양음식"},{"name":"진형권법무사사무소","tel":"031-691-8585","addr":"경기도 평택시 동삭동 692-10번지 모세빌딩 1층 4호","category":"용역 서비스 - 법률회계서비스(개인)"}]},{"lat":"37.009877724","long":"127.09430753","items":[{"name":"법무법인 네이버스 평택지점","tel":"031-653-3700","addr":"경기도 평택시 동삭동 197-1번지","category":"용역 서비스 - 법률회계서비스(법인)"},{"name":"법무사박재철사무소","tel":"031-655-5177","addr":"경기도 평택시 동삭동 197-1번지","category":"용역 서비스 - 법률회계서비스(개인)"}]},{"lat":"37.009380341","long":"127.09661025","items":[{"name":"법무법인 덕송","tel":"031-618-5411","addr":"경기도 평택시 동삭동 705-2번지 3층","category":"용역 서비스 - 법률회계서비스(법인)"},{"name":"법무사국명수사무소","tel":"031-8094-1310","addr":"경기도 평택시 동삭동 705-2번지 복자빌딩 201호","category":"용역 서비스 - 법률회계서비스(개인)"},{"name":"법무사김영훈사무소","tel":"031-692-0500","addr":"경기도 평택시 동삭동 705-2","category":"용역 서비스 - 법률회계서비스(개인)"},{"name":"에스(S)노래연습장","tel":"031-656-7488","addr":"경기도 평택시 동삭동 705-2번지 4층","category":"레저업소 - 노 래 방"},{"name":"원스톱녹취행정대서소","tel":"031-654-0224","addr":"경기도 평택시 동삭동 705-2번지 7층","category":"용역 서비스 - 사무서비스"}]},{"lat":"37.009354156","long":"127.09553159","items":[{"name":"법무법인 에이디엘 평택 분사무소","tel":"031-657-1150","addr":"경기도 평택시 동삭동 692-9번지 401호","category":"용역 서비스 - 법률회계서비스(법인)"},{"name":"신해장국","tel":"031-655-3442","addr":"경기도 평택시 동삭동 692-9번지 성진빌딩 1층 104호","category":"일반휴게음식 - 일반한식"}]},{"lat":"37.009352354","long":"127.09781244","items":[{"name":"법무법인한마음","tel":"031-657-9090","addr":"경기도 평택시 동삭동 705-8번지 법률회관 201호","category":"용역 서비스 - 법률회계서비스(개인)"},{"name":"법무법인한마음","tel":"031-657-9922","addr":"경기도 평택시 동삭동 705-8번지 법률회관 201호","category":"용역 서비스 - 법률회계서비스(법인)"},{"name":"법무사최병진사무소","tel":"031-652-8888","addr":"경기도 평택시 동삭동 151-8번지 법률회관 101호","category":"용역 서비스 - 법률회계서비스(개인)"},{"name":"법원앞소풍","tel":"031-655-0506","addr":"경기도 평택시 동삭동 705-8번지 법률회관 지하1층","category":"일반휴게음식 - 일반한식"},{"name":"변호사김동식법률사무소","tel":"031-656-9114","addr":"경기도 평택시 동삭동 151-8번지 법률회관 402호","category":"용역 서비스 - 법률회계서비스(개인)"},{"name":"변호사김운용법률사무소","tel":"031-657-9220","addr":"경기도 평택시 동삭동 705-8번지 법률회관 501호","category":"용역 서비스 - 법률회계서비스(개인)"},{"name":"변호사이원세사무소","tel":"031-657-3900","addr":"경기도 평택시 동삭동 151-8법률회관2층202","category":"용역 서비스 - 법률회계서비스(개인)"},{"name":"서광현법무사사무소","tel":"031-653-4001","addr":"경기도 평택시 동삭동 705-8번지 법률회관 102호","category":"용역 서비스 - 법률회계서비스(개인)"}]},{"lat":"37.009354348","long":"127.09528441","items":[{"name":"법무사김경준사무소","tel":"031-618-4455","addr":"경기도 평택시 동삭동 194-28손문빌딩101","category":"용역 서비스 - 법률회계서비스(개인)"},{"name":"법무사김동래사무소","tel":"031-655-7744","addr":"경기도 평택시 동삭동 194-28손문빌딩202","category":"용역 서비스 - 법률회계서비스(개인)"},{"name":"법무사오병민사무소","tel":"031-652-5507","addr":"경기도 평택시 동삭동 194-28손문빌딩102","category":"용역 서비스 - 법률회계서비스(개인)"},{"name":"법무사유종수사무소","tel":"031-654-3800","addr":"경기도 평택시 동삭동 692-8번지 손문빌딩 501호","category":"용역 서비스 - 법률회계서비스(개인)"},{"name":"변호사 강진사무소","tel":"031-692-4464","addr":"경기도 평택시 동삭동 692-8번지 손문빌딩 402호","category":"용역 서비스 - 법률회계서비스(법인)"},{"name":"양철식당(평택법원점)","tel":"031-000-0000","addr":"경기도 평택시 동삭동 692-8번지 손문빌딩 103호 104호","category":"일반휴게음식 - 일반한식"},{"name":"양철식당(평택법원점)","tel":"031-653-8686","addr":"경기도 평택시 동삭동 692-8번지 103,104호","category":"음식점 - 한식"},{"name":"평택녹취믿음속기사무소","tel":"031-655-1271","addr":"경기도 평택시 동삭동 692-8번지 손문빌딩 101호","category":"용역 서비스 - 사무서비스"},{"name":"평택법무법인","tel":"031-691-4477","addr":"경기도 평택시 동삭동 692-8번지 손문빌딩 201호 401호","category":"용역 서비스 - 법률회계서비스(법인)"},{"name":"평택법무법인","tel":"031-656-9656","addr":"경기도 평택시 동삭동 692-8번지 손문빌딩 2,4층 201,401호","category":"용역 서비스 - 법률회계서비스(개인)"}]},{"lat":"37.004942163","long":"127.09127939","items":[{"name":"법무사선광석사무소","tel":"031-654-7881","addr":"경기도 평택시 동삭동 181-5","category":"용역 서비스 - 법률회계서비스(개인)"}]},{"lat":"37.008130222","long":"127.09356389","items":[{"name":"베스트 테니스","tel":"","addr":"경기도 평택시 동삭동 685-8번지 102호","category":"레져용품 - 스포츠·레져용품"},{"name":"컴케어플러스","tel":"031-654-0818","addr":"경기도 평택시 동삭동 685-8번지 에이스빌 101호","category":"회원제형태 - 기타4"}]},{"lat":"37.020516924","long":"127.08528545","items":[{"name":"벧엘쇼파","tel":"031-656-5308","addr":"경기도 평택시 동삭동 산75-4번지","category":"수리서비스 - 신변잡화수리"}]},{"lat":"37.008712082","long":"127.09845207","items":[{"name":"벨로마이스터","tel":"031-990-6997","addr":"경기도 평택시 동삭동 707-23번지 101호","category":"레져용품 - 스포츠·레져용품"}]},{"lat":"37.009354758","long":"127.09475633","items":[{"name":"변호사 이예리 법률사무소","tel":"031-652-6263","addr":"경기도 평택시 동삭동 692-5번지 3층 301호","category":"용역 서비스 - 법률회계서비스(개인)"},{"name":"아이비에스(IBS)당구장","tel":"031-655-7062","addr":"경기도 평택시 동삭동 692-5번지 서현빌딩 2층","category":"레저업소 - 당 구 장"},{"name":"하우수제샌드위치","tel":"","addr":"경기도 평택시 동삭동 692-5번지 서현빌딩 101호","category":"일반휴게음식 - 서양음식"},{"name":"하우수제샌드위치","tel":"031-692-0206","addr":"경기도 평택시 동삭동 692-5번지 101호","category":"음식점 - 휴게음식"}]},{"lat":"37.010108319","long":"127.09897066","items":[{"name":"별난양꼬치","tel":"031-651-6198","addr":"경기도 평택시 동삭동 711-11번지 동재빌딩","category":"일반휴게음식 - 일반한식"}]},{"lat":"37.00863295","long":"127.09598014","items":[{"name":"별밤","tel":"","addr":"경기도 평택시 동삭동 697-4번지 1층","category":"일반휴게음식 - 서양음식"},{"name":"유림한식","tel":"031-657-5058","addr":"경기도 평택시 동삭동 697-4번지 2층","category":"일반휴게음식 - 일반한식"},{"name":"큰집막창&생고기","tel":"031-691-8295","addr":"경기도 평택시 동삭동 697-4번지 102호","category":"일반휴게음식 - 일반한식"}]},{"lat":"37.007019978","long":"127.09605682","items":[{"name":"본가왕뼈감자탕 평택법원점","tel":"","addr":"경기도 평택시 동삭동 704-4번지","category":"음식점 - 한식"}]},{"lat":"37.008659593","long":"127.09647454","items":[{"name":"불난버섯집 (평택법원점)","tel":"031-663-4598","addr":"경기도 평택시 동삭동 706-3번지 1층","category":"일반휴게음식 - 일반한식"},{"name":"한가네숯불닭갈비 (동삭점)","tel":"031-654-4792","addr":"경기도 평택시 동삭동 706-3번지 1층","category":"일반휴게음식 - 일반한식"},{"name":"현참치","tel":"","addr":"경기도 평택시 동삭동 706-3번지 2층","category":"일반휴게음식 - 일반한식"}]},{"lat":"37.011210878","long":"127.09485969","items":[{"name":"블라인드 굿맨","tel":"","addr":"경기도 평택시 동삭동 655-11번지 가람빌 1층 101호","category":"직물 - 카페트,커튼,천막,지물"},{"name":"정소반쭈꾸미","tel":"031-656-6110","addr":"경기도 평택시 동삭동 655-11번지 1층","category":"일반휴게음식 - 일반한식"}]},{"lat":"37.011238353","long":"127.09428669","items":[{"name":"블링돌","tel":"","addr":"경기도 평택시 동삭동 655-4번지 1층 101호","category":"문화.취미 - 애완동물"}]},{"lat":"37.014406543","long":"127.09880753","items":[{"name":"비와이","tel":"","addr":"경기도 평택시 동삭동 673-17번지 401호","category":"서적문구 - 완구점"}]},{"lat":"37.007382465","long":"127.09339447","items":[{"name":"비전종합철물건재","tel":"031-652-3489","addr":"경기도 평택시 동삭동 689-9번지","category":"소매업 - 철물"}]},{"lat":"37.010629783","long":"127.10038704","items":[{"name":"사계절침구","tel":"031-652-7945","addr":"경기도 평택시 동삭동 712-2","category":"직물 - 침구·수예점"}]},{"lat":"37.012242184","long":"127.10100709","items":[{"name":"산삼창서재점","tel":"031-611-3992","addr":"경기도 평택시 동삭동 680-2번지 1층","category":"일반휴게음식 - 일반한식"},{"name":"씨스페이스 평택서재점","tel":"031-618-8793","addr":"경기도 평택시 동삭동 680-2번지","category":"유통업 영리 - 편 의 점"},{"name":"하니","tel":"031-653-6650","addr":"경기도 평택시 동삭동 680-2번지 201호","category":"보건위생 - 화장품"}]},{"lat":"37.011963131","long":"127.10066965","items":[{"name":"살롱드로얄","tel":"031-658-1082","addr":"경기도 평택시 동삭동 679-7번지 청송프라자 104호","category":"음식점 - 커피"},{"name":"서재김밥","tel":"031-656-6375","addr":"경기도 평택시 동삭동 679-7번지 102호","category":"일반휴게음식 - 스넥"},{"name":"서재김밥","tel":"031-655-9725","addr":"경기도 평택시 동삭동 679-7번지 1층 서재김밥","category":"음식점 - 분식"},{"name":"서재조은약국","tel":"031-654-9617","addr":"경기도 평택시 동삭동 679-7번지","category":"약국 - 약국"},{"name":"서재조은약국","tel":"070-8807-1179","addr":"경기도 평택시 동삭동 679-7번지","category":"소매업 - 약국"},{"name":"수소아청소년과의원","tel":"031-487-7668","addr":"경기도 평택시 동삭동 679-7번지 301호","category":"의원 - 의원"},{"name":"이인숙에스테틱","tel":"031-656-3009","addr":"경기도 평택시 동삭동 679-7번지 2층","category":"보건위생 - 피부미용실"},{"name":"카페 프라하","tel":"","addr":"경기도 평택시 동삭동 679-7번지 104호","category":"일반휴게음식 - 서양음식"},{"name":"한가득축산","tel":"031-656-7395","addr":"경기도 평택시 동삭동 679-7번지 101호","category":"음료식품 - 정육점"},{"name":"한가득축산","tel":"031-657-8454","addr":"경기도 평택시 동삭동 679-7번지 101호","category":"도소매업 - 정육"}]},{"lat":"37.010246693","long":"127.0949147","items":[{"name":"상신사","tel":"031-654-1919","addr":"경기도 평택시 동삭동 660-6번지 상가 101호","category":"건축자재 - 목재·석재·철물"}]},{"lat":"37.011273253","long":"127.09575864","items":[{"name":"상일모터스","tel":"031-652-5679","addr":"경기도 평택시 동삭동 655-8번지 101호","category":"서비스업 - 자동차정비"},{"name":"토프레소","tel":"031-654-8537","addr":"경기도 평택시 동삭동 655-8번지 106호","category":"일반휴게음식 - 서양음식"},{"name":"토프레소동삭점","tel":"031-652-0592","addr":"경기도 평택시 동삭동 655-8번지","category":"음식점 - 카페"},{"name":"향만","tel":"031-657-5525","addr":"경기도 평택시 동삭동 655-8번지","category":"음식점 - 중식"}]},{"lat":"37.004600307","long":"127.09053748","items":[{"name":"서스포츠","tel":"031-656-0004","addr":"경기도 평택시 동삭동 181-7번지","category":"레져용품 - 스포츠·레져용품"}]},{"lat":"37.010630372","long":"127.09966795","items":[{"name":"서재하나마트","tel":"031-655-5556","addr":"경기도 평택시 동삭동 711-5번지","category":"유통업 영리 - 슈퍼마켓"}]},{"lat":"37.00774135","long":"127.09539481","items":[{"name":"서진정보","tel":"031-656-5597","addr":"경기도 평택시 동삭동 698-10번지 101호","category":"사무통신 - 컴퓨터"},{"name":"서진정보","tel":"031-630-2630","addr":"경기도 평택시 동삭동 698-10번지 101호 내부전체","category":"서비스업 - 컴퓨터수리"}]},{"lat":"37.006740858","long":"127.09578683","items":[{"name":"성일판넬","tel":"031-618-9350","addr":"경기도 평택시 동삭동 703-2번지 101호","category":"건축자재 - 기타건축자재"}]},{"lat":"37.011163794","long":"127.0974439","items":[{"name":"세븐스타 빨래방 평택법원점","tel":"070-4210-2569","addr":"경기도 평택시 동삭동 664-18번지 101호","category":"수리서비스 - 세탁소"}]},{"lat":"37.008274436","long":"127.09350788","items":[{"name":"세븐일레븐서재3호점","tel":"031-1577-0711","addr":"경기도 평택시 동삭동 685-7번지","category":"유통업 영리 - 편 의 점"}]},{"lat":"37.012188629","long":"127.10038903","items":[{"name":"세븐일레븐평택동삭원룸점","tel":"","addr":"경기도 평택시 동삭동 676-8번지 101호","category":"유통업 영리 - 편 의 점"}]},{"lat":"37.007129994","long":"127.09361888","items":[{"name":"세븐일레븐평택서재2호점","tel":"031-1577-0711","addr":"경기도 평택시 동삭동 691-8번지 1층","category":"유통업 영리 - 편 의 점"},{"name":"세븐일레븐평택서재2호점","tel":"031-1577-0711","addr":"경기도 평택시 동삭동 691-8번지 센트레빌 1층","category":"유통업 영리 - 편 의 점"}]},{"lat":"37.009020699","long":"127.09560984","items":[{"name":"세븐일레븐평택서재4호점","tel":"031-1577-0711","addr":"경기도 평택시 동삭동 696-2번지","category":"유통업 영리 - 편 의 점"}]},{"lat":"37.010211671","long":"127.09358884","items":[{"name":"세븐일레븐평택서재법원점","tel":"031-656-6101","addr":"경기도 평택시 동삭동 657-5번지 펠리체 1층","category":"유통업 영리 - 편 의 점"}]},{"lat":"37.007969171","long":"127.09205814","items":[{"name":"세븐일레븐평택서재원룸점","tel":"031-1577-0711","addr":"경기도 평택시 동삭동 682-12번지","category":"유통업 영리 - 편 의 점"}]},{"lat":"37.010968205","long":"127.09406164","items":[{"name":"세븐일레븐평택서재점","tel":"","addr":"경기도 평택시 동삭동 658-2","category":"유통업 영리 - 편 의 점"}]},{"lat":"37.010407885","long":"127.09619579","items":[{"name":"수원구치소평택지소","tel":"031-650-5846","addr":"경기도 평택시 동삭동 663번지","category":"유통업 비영리 - 구내매점(국가기관"},{"name":"수원지법평택지원우체국","tel":"031-652-2005","addr":"경기도 평택시 동삭동 663번지","category":"용역 서비스 - 공공요금대행서비스/소"},{"name":"평택법원구내매점","tel":"031-656-8163","addr":"경기도 평택시 동삭동 663번지 수원지방검찰청평택지청","category":"음료식품 - 기타음료식품"}]},{"lat":"37.009877897","long":"127.09408281","items":[{"name":"슈퍼","tel":"031-654-6621","addr":"경기도 평택시 동삭동 662-2번지 5층","category":"보건위생 - 화장품"},{"name":"아름드리","tel":"031-655-7480","addr":"경기도 평택시 동삭동 662-2번지 1동 101호","category":"문화.취미 - 화원"},{"name":"육감만족 평택법원점","tel":"031-655-9212","addr":"경기도 평택시 동삭동 662-2번지 1층","category":"일반휴게음식 - 일반한식"}]},{"lat":"37.007407999","long":"127.09533823","items":[{"name":"스마일","tel":"031-652-2811","addr":"경기도 평택시 동삭동 699-11번지","category":"의류 - 정장"}]},{"lat":"37.018797385","long":"127.09547563","items":[{"name":"스피드메이트 이에스점","tel":"031-655-6720","addr":"경기도 평택시 동삭동 337-1번지","category":"자동차정비 유지 - 자동차정비"}]},{"lat":"37.008326199","long":"127.09647413","items":[{"name":"시골한식당","tel":"031-653-8108","addr":"경기도 평택시 동삭동 708-1번지","category":"일반휴게음식 - 일반한식"},{"name":"이마트24 법원점","tel":"","addr":"경기도 평택시 동삭동 708-1번지 101호","category":"유통업 영리 - 편 의 점"},{"name":"이마트24 법원점","tel":"031-000-0000","addr":"경기도 평택시 동삭동 708-1번지 1층 101호","category":"유통업 영리 - 편 의 점"},{"name":"카페보니또","tel":"031-618-2070","addr":"경기도 평택시 동삭동 708-1번지","category":"음식점 - 커피"},{"name":"카페보니또법원점","tel":"031-691-9058","addr":"경기도 평택시 동삭동 708-1번지 103호","category":"일반휴게음식 - 서양음식"}]},{"lat":"37.007995002","long":"127.09364238","items":[{"name":"시올아트","tel":"070-7584-9099","addr":"경기도 평택시 동삭동 685-12번지 정이하우스 1층 상가","category":"소매업 - 의류"},{"name":"시올아트","tel":"031-665-9406","addr":"경기도 평택시 동삭동 685-12번지 정이하우스 상가 1층","category":"의류 - 정장"}]},{"lat":"37.005185777","long":"127.0908415","items":[{"name":"신우자동차공업사","tel":"031-666-5182","addr":"경기도 평택시 동삭동 182-7번지","category":"서비스업 - 자동차정비"},{"name":"신우자동차공업사","tel":"031-652-5679","addr":"경기도 평택시 동삭동 182-7번지","category":"자동차정비 유지 - 자동차정비"},{"name":"제이원모터스","tel":"031-692-3575","addr":"경기도 평택시 동삭동 182-7번지","category":"자동차정비 유지 - 자동차정비"}]},{"lat":"37.007714946","long":"127.09458582","items":[{"name":"신화텔레콤","tel":"031-692-9005","addr":"경기도 평택시 동삭동 698-15번지 태성빌 101호","category":"사무통신 - 통신기기"},{"name":"신화텔레콤","tel":"031-618-5802","addr":"경기도 평택시 동삭동 698-15번지 태성빌 101호","category":"소매업 - 휴대폰"}]},{"lat":"37.009495091","long":"127.09958786","items":[{"name":"씨유평택서재로점","tel":"031-898-6569","addr":"경기도 평택시 동삭동 713-12번지 1층 101호","category":"유통업 영리 - 편 의 점"},{"name":"아날로그 스튜디오","tel":"031-000-0000","addr":"경기도 평택시 동삭동 713-12번지 상가 1층 103호","category":"가구 - 기타가구"},{"name":"특수열쇠","tel":"031-658-7722","addr":"경기도 평택시 동삭동 713-12번지","category":"소매업 - 열쇠,도장"}]},{"lat":"37.010905963","long":"127.09297168","items":[{"name":"씨유평택서재원룸점","tel":"070-8945-9071","addr":"경기도 평택시 동삭동 656-2번지","category":"유통업 영리 - 편 의 점"}]},{"lat":"37.007356504","long":"127.09197878","items":[{"name":"씨유평택서재점","tel":"031-658-8264","addr":"경기도 평택시 동삭동 688-6번지","category":"유통업 영리 - 편 의 점"}]},{"lat":"37.010829463","long":"127.09861202","items":[{"name":"아뜰리에라솜","tel":"031-654-8537","addr":"경기도 평택시 동삭동 666-2번지","category":"소매업 - 공예"},{"name":"아뜰리에라솜","tel":"031-8029-9864","addr":"경기도 평택시 동삭동 666-2번지 상가 1층","category":"문화.취미 - 민예·공예품"}]},{"lat":"37.009381407","long":"127.09525073","items":[{"name":"아사히일식","tel":"031-658-9979","addr":"경기도 평택시 동삭동 194-28","category":"일반휴게음식 - 일식·회집"}]},{"lat":"37.012575215","long":"127.10144573","items":[{"name":"야호","tel":"031-654-5003","addr":"경기도 평택시 동삭동 680-6번지 태경프라자 2층","category":"보건위생 - 화장품"},{"name":"청춘식당 평택본점","tel":"031-651-1196","addr":"경기도 평택시 동삭동 680-6번지","category":"음식점 - 한식"},{"name":"청춘식당 평택본점","tel":"031-658-9282","addr":"경기도 평택시 동삭동 680-6번지","category":"일반휴게음식 - 일반한식"}]},{"lat":"37.007686414","long":"127.09650705","items":[{"name":"얌얌치킨송탄점","tel":"031-000-0000","addr":"경기도 평택시 동삭동 708-6번지 2층","category":"일반휴게음식 - 스넥"},{"name":"주당천하","tel":"031-652-1364","addr":"경기도 평택시 동삭동 708-6번지 201호","category":"일반휴게음식 - 서양음식"},{"name":"콩스타일","tel":"031-654-1015","addr":"경기도 평택시 동삭동 708-6번지 1층","category":"일반휴게음식 - 서양음식"},{"name":"황금두꺼비곱창","tel":"031-691-7786","addr":"경기도 평택시 동삭동 708-6번지 1층","category":"일반휴게음식 - 일반한식"}]},{"lat":"37.00935673","long":"127.09217212","items":[{"name":"어드레스 골프 평택점","tel":"070-8285-7328","addr":"경기도 평택시 동삭동 681-1번지 상진빌딩 지하1층","category":"레져용품 - 골프용품 전문점"},{"name":"장정숙공인중개사무소","tel":"","addr":"경기도 평택시 동삭동 681-1번지","category":"서비스업 - 부동산"}]},{"lat":"37.006966973","long":"127.09469728","items":[{"name":"어반","tel":"031-691-8223","addr":"경기도 평택시 동삭동 700-7번지 화목빌리지 상가 1층","category":"용역 서비스 - 종합용역"}]},{"lat":"37.008488779","long":"127.09597996","items":[{"name":"어부수산","tel":"031-651-8688","addr":"경기도 평택시 동삭동 697-5번지 1층","category":"일반휴게음식 - 일반한식"}]},{"lat":"37.010246815","long":"127.0947574","items":[{"name":"에스제이유아","tel":"02-851-9679","addr":"경기도 평택시 동삭동 660-7번지 101호","category":"신변잡화 - 기타잡화"}]},{"lat":"37.010683912","long":"127.10030846","items":[{"name":"에찌","tel":"031-692-3338","addr":"경기도 평택시 동삭동 712-1번지 골든파크 1층","category":"소매업 - 의류"},{"name":"에찌(EZZI)","tel":"031-616-5993","addr":"경기도 평택시 동삭동 712-1번지 1층","category":"의류 - 정장"}]},{"lat":"37.012243847","long":"127.09897335","items":[{"name":"에코시스템","tel":"031-655-8827","addr":"경기도 평택시 동삭동 669-7번지 1층","category":"주방용구 - 주방용구"}]},{"lat":"37.009297103","long":"127.09928424","items":[{"name":"에프엑스헤어샵 법원점","tel":"031-652-8422","addr":"경기도 평택시 동삭동 711-16번지 파인빌딩 201호","category":"서비스업 - 이미용"},{"name":"에프엑스헤어샵법원점","tel":"031-652-8434","addr":"경기도 평택시 동삭동 711-16번지 2층 201호","category":"보건위생 - 미용원"},{"name":"투썸 평택법원점","tel":"031-618-2220","addr":"경기도 평택시 동삭동 711-16번지 1층","category":"일반휴게음식 - 서양음식"},{"name":"파인골프","tel":"031-654-5007","addr":"경기도 평택시 동삭동 711-16번지 파인빌딩 5층","category":"레져용품 - 골프용품 전문점"},{"name":"플라이감자댁(FLY감자댁)","tel":"031-000-0000","addr":"경기도 평택시 동삭동 711-16번지 3층","category":"일반휴게음식 - 서양음식"},{"name":"휴","tel":"031-618-0411","addr":"경기도 평택시 동삭동 711-16번지 파인빌딩","category":"보건위생 - 화장품"}]},{"lat":"37.011879115","long":"127.09297283","items":[{"name":"엘 공조 시스템","tel":"031-8054-0098","addr":"경기도 평택시 동삭동 652-2번지 1층","category":"용역 서비스 - 기타용역서비스"}]},{"lat":"37.0076894","long":"127.09264206","items":[{"name":"연희도장","tel":"031-681-2824","addr":"경기도 평택시 동삭동 687-3번지","category":"직물 - 카페트,커튼,천막,지물"}]},{"lat":"37.018653965","long":"127.08197974","items":[{"name":"영신골염소마을","tel":"031-657-5953","addr":"경기도 평택시 동삭동 537-1번지 1층","category":"일반휴게음식 - 일반한식"}]},{"lat":"37.016242253","long":"127.09033735","items":[{"name":"예림유치원[아이행복]","tel":"031-655-9990","addr":"경기도 평택시 동삭동 412-10","category":"학원 - 유치원"}]},{"lat":"37.008912281","long":"127.09598048","items":[{"name":"예촌","tel":"031-656-0313","addr":"경기도 평택시 동삭동 697-2번지","category":"일반휴게음식 - 일반한식"}]},{"lat":"37.007968073","long":"127.09350752","items":[{"name":"오렌지카워시","tel":"031-657-1749","addr":"경기도 평택시 동삭동 685-9번지 101호","category":"자동차정비 유지 - 세차장"}]},{"lat":"37.006993227","long":"127.09569726","items":[{"name":"오후","tel":"031-655-5822","addr":"경기도 평택시 동삭동 701-6번지","category":"의류 - 정장"}]},{"lat":"37.009964257","long":"127.09883565","items":[{"name":"와촌식당평택점","tel":"031-653-8893","addr":"경기도 평택시 동삭동 711-12번지 101호","category":"일반휴게음식 - 일반한식"},{"name":"육품참숯화로구이평택점","tel":"070-7543-5288","addr":"경기도 평택시 동삭동 711-12번지 1층 102호","category":"일반휴게음식 - 일반한식"},{"name":"코드블랙 피씨방 3호점","tel":"070-4650-9572","addr":"경기도 평택시 동삭동 711-12번지 201호","category":"레저업소 - 기타레져업소"}]},{"lat":"37.007191225","long":"127.09600085","items":[{"name":"왕숯불닭갈비","tel":"031-618-9996","addr":"경기도 평택시 동삭동 704-3번지 1층 101,102호","category":"일반휴게음식 - 일반한식"}]},{"lat":"37.006740559","long":"127.09616883","items":[{"name":"우리곰탕","tel":"031-654-6696","addr":"경기도 평택시 동삭동 704-6번지","category":"일반휴게음식 - 일반한식"},{"name":"우리곰탕","tel":"","addr":"경기도 평택시 동삭동 704-6번지 1층","category":"음식점 - 한식"}]},{"lat":"37.009353433","long":"127.09645292","items":[{"name":"원샷당구클럽","tel":"","addr":"경기도 평택시 동삭동 705-1번지 로엠빌딩 6층","category":"레저업소 - 당 구 장"},{"name":"주식회사 한국부동산경매정보","tel":"031-658-3001","addr":"경기도 평택시 동삭동 705-1번지 302호","category":"회원제형태 - 기타4"},{"name":"파리바게뜨 평택법조타운점","tel":"031-651-8235","addr":"경기도 평택시 동삭동 705-1번지","category":"음식점 - 제과점"},{"name":"파리바게뜨평택법조타운점","tel":"031-651-6327","addr":"경기도 평택시 동삭동 705-1번지 1층","category":"음료식품 - 제과점"}]},{"lat":"37.006239516","long":"127.09152807","items":[{"name":"원조설악추어탕","tel":"031-658-1732","addr":"경기도 평택시 동삭동 188-6번지","category":"음식점 - 한식"},{"name":"원조설악추어탕평택점","tel":"031-653-6788","addr":"경기도 평택시 동삭동 188-6번지 1층","category":"일반휴게음식 - 일반한식"}]},{"lat":"37.007382018","long":"127.09397871","items":[{"name":"유한회사 수담산업","tel":"031-656-4594","addr":"경기도 평택시 동삭동 699-1번지","category":"용역 서비스 - 기타용역서비스"}]},{"lat":"37.019437273","long":"127.09530785","items":[{"name":"이안헤어","tel":"031-655-3373","addr":"경기도 평택시 동삭동 650번지 평택이안 상가 103호","category":"보건위생 - 미용원"}]},{"lat":"37.01479941","long":"127.09186387","items":[{"name":"이화음악학원","tel":"031-655-9222","addr":"경기도 평택시 동삭동 401호","category":"학원 - 예·체능계학원"}]},{"lat":"37.011016183","long":"127.10166843","items":[{"name":"일렉콤 평택지사","tel":"031-652-8434","addr":"경기도 평택시 동삭동 715-1번지 서재자이아파트 102동 1005호","category":"서비스업 - 전기설비"},{"name":"한솔평택서재자이교실","tel":"070-8876-7279","addr":"경기도 평택시 동삭동 715-1번지 서재자이아파트 2동 202호","category":"학원 - 보습학원"}]},{"lat":"37.009356502","long":"127.09247548","items":[{"name":"임상빈법률사무소","tel":"031-658-0223","addr":"경기도 평택시 동삭동 197-12정성빌딩5층","category":"용역 서비스 - 법률회계서비스(개인)"}]},{"lat":"37.007715223","long":"127.09422629","items":[{"name":"입주마켓","tel":"070-4045-8980","addr":"경기도 평택시 동삭동 698-2번지 1층 상가","category":"건축자재 - 인테리어전문"}]},{"lat":"37.011576106","long":"127.10014106","items":[{"name":"자이세탁","tel":"031-657-6402","addr":"경기도 평택시 동삭동 679-3번지 1층","category":"수리서비스 - 세탁소"},{"name":"자이세탁","tel":"031-618-5771","addr":"경기도 평택시 동삭동 679-3번지 103~4호","category":"서비스업 - 세탁"},{"name":"최고의식탁","tel":"031-000-0000","addr":"경기도 평택시 동삭동 679-3번지 2층 201호","category":"일반휴게음식 - 일반한식"},{"name":"피자마루","tel":"031-656-6375","addr":"경기도 평택시 동삭동 679-3번지","category":"음식점 - 피자"},{"name":"피자마루&김밥마루(동삭지구점)","tel":"02-842-2642","addr":"경기도 평택시 동삭동 679-3번지 1층","category":"일반휴게음식 - 일반한식"}]},{"lat":"37.008522975","long":"127.09830577","items":[{"name":"제스모렌","tel":"","addr":"경기도 평택시 동삭동 707-11번지 스카이뷰 1층","category":"용역 서비스 - 혼례서비스"},{"name":"하나인테리어","tel":"031-657-0892","addr":"경기도 평택시 동삭동 707-11번지 스카이뷰 101호","category":"건축자재 - 인테리어전문"}]},{"lat":"37.010967886","long":"127.09447737","items":[{"name":"제이케이위너","tel":"031-647-3230","addr":"경기도 평택시 동삭동 659-2번지 수지빌 101호","category":"주방용구 - 주방용구"}]},{"lat":"37.010576983","long":"127.09883642","items":[{"name":"조개나라","tel":"","addr":"경기도 평택시 동삭동 667-8번지 667-7","category":"음료식품 - 농·축·수산품"},{"name":"케미","tel":"031-656-2589","addr":"경기도 평택시 동삭동 667-8번지 103호","category":"의류 - 정장"}]},{"lat":"37.019627101","long":"127.08200322","items":[{"name":"조이상사","tel":"031-611-1038","addr":"경기도 평택시 동삭동 555,555-1,555-2","category":"직물 - 카페트,커튼,천막,지물"}]},{"lat":"37.008851359","long":"127.09319397","items":[{"name":"족발","tel":"031-652-7844","addr":"경기도 평택시 동삭동 684-3번지","category":"음료식품 - 정육점"}]},{"lat":"37.007992777","long":"127.09650743","items":[{"name":"족발꾼평택법원점","tel":"031-654-9582","addr":"경기도 평택시 동삭동 708-3번지 1층","category":"일반휴게음식 - 일반한식"},{"name":"진황태","tel":"031-658-1483","addr":"경기도 평택시 동삭동 708-3번지 2층 201호","category":"일반휴게음식 - 일반한식"},{"name":"타이킹","tel":"031-618-0606","addr":"경기도 평택시 동삭동 708-3번지 3층","category":"보건위생 - 화장품"},{"name":"택이네조개전골평택법원점","tel":"031-656-7280","addr":"경기도 평택시 동삭동 708-3번지 101호","category":"일반휴게음식 - 일반한식"},{"name":"하동만두샤브&석갈비","tel":"","addr":"경기도 평택시 동삭동 708-3번지","category":"일반휴게음식 - 일반한식"}]},{"lat":"37.007382679","long":"127.09311359","items":[{"name":"주식회사 가온산업","tel":"031-655-2582","addr":"경기도 평택시 동삭동 689-7번지 1층","category":"용역 서비스 - 기타용역서비스"}]},{"lat":"37.011185268","long":"127.09300572","items":[{"name":"주식회사 다우테크","tel":"031-657-0910","addr":"경기도 평택시 동삭동 652-13번지 코지하우스 403호","category":"기타 - 기계공구"}]},{"lat":"37.00515831","long":"127.0914257","items":[{"name":"주식회사 비앤에이인더스트리","tel":"031-656-7747","addr":"경기도 평택시 동삭동 182-4번지","category":"건축자재 - 페인트"}]},{"lat":"37.007690277","long":"127.09147357","items":[{"name":"주식회사 우보","tel":"031-692-0811","addr":"경기도 평택시 동삭동 686-2번지 1층","category":"용역 서비스 - 종합용역"}]},{"lat":"37.009022305","long":"127.09353124","items":[{"name":"찰스앤슈트","tel":"031-651-6568","addr":"경기도 평택시 동삭동 685-1번지 101호","category":"의류 - 맞춤복점"},{"name":"찰스앤슈트","tel":"031-684-0646","addr":"경기도 평택시 동삭동 685-1번지 101호","category":"소매업 - 의류"},{"name":"헌터엔지니어링","tel":"031-618-7320","addr":"경기도 평택시 동삭동 685-1번지 1층","category":"용역 서비스 - 기타용역서비스"}]},{"lat":"37.010270301","long":"127.09922929","items":[{"name":"창 테라피스킨케어","tel":"031-657-1919","addr":"경기도 평택시 동삭동 711-9번지 301호","category":"보건위생 - 화장품"}]},{"lat":"37.018940292","long":"127.08494663","items":[{"name":"창성유통","tel":"031-658-6383","addr":"경기도 평택시 동삭동 440-1번지","category":"음료식품 - 정육점"}]},{"lat":"37.007690051","long":"127.09177693","items":[{"name":"청소백화점","tel":"","addr":"경기도 평택시 동삭동 686-4번지","category":"서비스업 - 청소"}]},{"lat":"37.005329906","long":"127.09089785","items":[{"name":"총각수산","tel":"031-618-7498","addr":"경기도 평택시 동삭동 182-5번지","category":"일반휴게음식 - 일반한식"},{"name":"총각수산","tel":"031-618-7498","addr":"경기도 평택시 동삭동 182-5번지","category":"음료식품 - 농·축·수산품"}]},{"lat":"37.009405396","long":"127.09908214","items":[{"name":"캔디","tel":"031-651-6077","addr":"경기도 평택시 동삭동 711-15번지 101호","category":"서비스업 - 미용"},{"name":"캔디","tel":"031-255-8211","addr":"경기도 평택시 동삭동 711-15번지 재우빌딩 101호","category":"보건위생 - 피부미용실"},{"name":"피트니스 에이","tel":"031-651-7777","addr":"경기도 평택시 동삭동 711-15번지 1층","category":"회원제형태 - 레져업소"}]},{"lat":"37.007715439","long":"127.0939454","items":[{"name":"크린&크린","tel":"031-681-5525","addr":"경기도 평택시 동삭동 698-16번지","category":"수리서비스 - 세탁소"}]},{"lat":"37.010774359","long":"127.09989285","items":[{"name":"투다리","tel":"031-651-5858","addr":"경기도 평택시 동삭동 711-3번지","category":"음식점 - 호프"},{"name":"투다리서재점","tel":"031-657-3937","addr":"경기도 평택시 동삭동 711-3번지","category":"일반휴게음식 - 주점"}]},{"lat":"37.013135089","long":"127.0999745","items":[{"name":"투유씨에스","tel":"","addr":"경기도 평택시 동삭동 675-2번지 예원빌 101호","category":"전기제품 - 기타전기제품"}]},{"lat":"37.007408218","long":"127.09505734","items":[{"name":"티티로","tel":"031-618-4589","addr":"경기도 평택시 동삭동 699-9번지 101호","category":"유통업 영리 - 슈퍼마켓"}]},{"lat":"37.008524167","long":"127.09681144","items":[{"name":"페어립트(VERLIEBT)","tel":"031-657-2570","addr":"경기도 평택시 동삭동 709-1번지 상가동 1층 101호","category":"의류 - 정장"}]},{"lat":"37.00541045","long":"127.09163946","items":[{"name":"평택공구알뜰매장","tel":"031-658-3475","addr":"경기도 평택시 동삭동 182-1번지","category":"기타 - 기계공구"}]},{"lat":"37.006518654","long":"127.0917868","items":[{"name":"평택광고기획","tel":"031-656-0011","addr":"경기도 평택시 동삭동 188-1번지","category":"용역 서비스 - 종합용역"}]},{"lat":"37.008912738","long":"127.09539623","items":[{"name":"평택목련로타리클럽","tel":"031-653-4729","addr":"경기도 평택시 동삭동 696-16번지 1층","category":"기타 - 비영리/비대상"},{"name":"평택베스트로타리클럽","tel":"031-653-4729","addr":"경기도 평택시 동삭동 696-16번지 1층","category":"기타 - 비영리/비대상"}]},{"lat":"37.017682421","long":"127.10364352","items":[{"name":"평택서재초등학교","tel":"031-8024-9106","addr":"경기도 평택시 동삭동 산106-2번지","category":"학원 - 초중고교육기관"}]},{"lat":"37.009021276","long":"127.09486828","items":[{"name":"평택스파이썬팅","tel":"031-651-6222","addr":"경기도 평택시 동삭동 695-1번지 크레파스","category":"자동차정비 유지 - 카인테리어"}]},{"lat":"37.009440872","long":"127.0997788","items":[{"name":"프롬코코 124번가","tel":"031-654-5252","addr":"경기도 평택시 동삭동 713-11번지 THE집 101호","category":"소매업 - 의류"},{"name":"프롬코코124번가(FROM COCO 124th)","tel":"031-658-7722","addr":"경기도 평택시 동삭동 713-11번지","category":"의류 - 정장"}]},{"lat":"37.007102687","long":"127.09397838","items":[{"name":"플러스모바일","tel":"031-655-8075","addr":"경기도 평택시 동삭동 700-1번지 클래식 101호 상가","category":"사무통신 - 통신기기"}]},{"lat":"37.00740813","long":"127.0951697","items":[{"name":"하늘꽃도자기","tel":"031-321-9191","addr":"경기도 평택시 동삭동 699-10번지 101호","category":"주방용구 - 주방용식기"}]},{"lat":"37.01590707","long":"127.09273038","items":[{"name":"한영광고","tel":"031-656-9630","addr":"경기도 평택시 동삭동 388-35","category":"용역 서비스 - 종합용역"}]},{"lat":"37.010711376","long":"127.09978041","items":[{"name":"해동찬민물장어","tel":"031-652-0592","addr":"경기도 평택시 동삭동 711-4번지","category":"일반휴게음식 - 일반한식"},{"name":"해동찬민물장어","tel":"031-657-3081","addr":"경기도 평택시 동삭동 711-4번지","category":"음식점 - 한식"}]},{"lat":"37.00738129","long":"127.09492249","items":[{"name":"헤브론(Hevron)","tel":"031-663-0179","addr":"경기도 평택시 동삭동 699-8번지","category":"의류 - 정장"}]},{"lat":"37.010244679","long":"127.09747647","items":[{"name":"화색","tel":"031-000-0000","addr":"경기도 평택시 동삭동 664-11번지 탑캐슬 1층","category":"문화.취미 - 화원"}]}]