[{"lat":"37.449337548","long":"127.53733485","imageIndex":17,"items":[{"name":"(주)우신","tel":"031-775-0610","addr":"경기도 양평군 개군면 불곡리 253번지","indutype":"농업 - 비료,사료,종자","category":"other"},{"name":"경기농자재","tel":"031-775-0610","addr":"경기도 양평군 개군면 불곡리 253번지 외7필지","indutype":"농업 - 기타농업관련","category":"other"},{"name":"곰도리다육","tel":"","addr":"경기도 양평군 개군면 불곡리 253번지","indutype":"문화.취미 - 화원","category":"other"}]},{"lat":"37.453442652","long":"127.53208618","imageIndex":17,"items":[{"name":"꽃, 인삼, 꿀","tel":"","addr":"경기도 양평군 개군면 불곡리 288-2번지 10통2반","indutype":"문화.취미 - 화원","category":"other"}]},{"lat":"37.451250894","long":"127.54059194","imageIndex":17,"items":[{"name":"부처울농장","tel":"031-772-5214","addr":"경기도 양평군 개군면 불곡리 83번지","indutype":"회원제형태 - 기타1","category":"other"}]},{"lat":"37.447699483","long":"127.53695027","imageIndex":17,"items":[{"name":"세븐일레븐양평개군스타점","tel":"031-1577-0711","addr":"경기도 양평군 개군면 불곡리 257번지","indutype":"유통업 영리 - 편 의 점","category":"other"}]},{"lat":"37.448473238","long":"127.53719309","imageIndex":17,"items":[{"name":"재인농원","tel":"","addr":"경기도 양평군 개군면 불곡리 255-1번지","indutype":"문화.취미 - 화원","category":"other"}]},{"lat":"37.459916358","long":"127.53105804","imageIndex":4,"items":[{"name":"가든나들복","tel":"031-774-3889","addr":"경기도 양평군 개군면 불곡리 336번지","indutype":"일반휴게음식 - 갈비전문점","category":"restaurant"}]},{"lat":"37.447699483","long":"127.53695027","imageIndex":4,"items":[{"name":"개군불곰탕","tel":"031-771-8819","addr":"경기도 양평군 개군면 불곡리 257번지","indutype":"일반휴게음식 - 일반한식","category":"restaurant"},{"name":"에이엔에이카페","tel":"031-774-3565","addr":"경기도 양평군 개군면 불곡리 257번지","indutype":"일반휴게음식 - 서양음식","category":"restaurant"}]},{"lat":"37.453642405","long":"127.53774973","imageIndex":4,"items":[{"name":"예닮","tel":"031-000-0000","addr":"경기도 양평군 개군면 불곡리 101번지","indutype":"일반휴게음식 - 서양음식","category":"restaurant"}]},{"lat":"37.450865023","long":"127.54025014","imageIndex":4,"items":[{"name":"하늘촌보리밥","tel":"031-774-2548","addr":"경기도 양평군 개군면 불곡리 128-3번지","indutype":"일반휴게음식 - 일반한식","category":"restaurant"}]},{"lat":"37.447225784","long":"127.54403245","imageIndex":16,"items":[{"name":"주식회사 양평다문화생태마을","tel":"031-772-9464","addr":"경기도 양평군 개군면 불곡리 150-3번지","indutype":"학원 - 기타 교육기관","category":"study"}]},{"lat":"37.445611493","long":"127.54041597","imageIndex":7,"items":[{"name":"진영농장","tel":"031-773-4464","addr":"경기도 양평군 개군면 불곡리 199-1번지","indutype":"음료식품 - 정육점","category":"food"}]},{"lat":"37.457337582","long":"127.5335038","imageIndex":5,"items":[{"name":"큐모텔","tel":"031-771-9678","addr":"경기도 양평군 개군면 불곡리 313-2번지","indutype":"숙박업 - 여관/기타숙박업","category":"hotel"}]},{"lat":"37.456339258","long":"127.53511294","imageIndex":9,"items":[{"name":"해성주유소","tel":"031-775-8863","addr":"경기도 양평군 개군면 불곡리 310-2번지","indutype":"연료판매점 - 현대정유(오일뱅크)","category":"oil"}]},{"lat":"37.442865459","long":"127.53997823","imageIndex":0,"items":[{"name":"해시카","tel":"070-8031-4038","addr":"경기도 양평군 개군면 불곡리 190-2번지","indutype":"자동차정비 유지 - 자동차부품","category":"car"}]}]