[{"lat":"37.480271778","long":"127.38835335","imageIndex":4,"items":[{"name":"갤러리모루","tel":"031-775-5978","addr":"경기도 양평군 강하면 왕창리 697-4번지","indutype":"일반휴게음식 - 서양음식","category":"restaurant"}]},{"lat":"37.480108606","long":"127.38865777","imageIndex":4,"items":[{"name":"고시리","tel":"031-774-0044","addr":"경기도 양평군 강하면 왕창리 697-1번지","indutype":"일반휴게음식 - 일반한식","category":"restaurant"},{"name":"고시리","tel":"031-774-0044","addr":"경기도 양평군 강하면 왕창리 697-1번지","indutype":"일반휴게음식 - 일반한식","category":"restaurant"}]},{"lat":"37.478692338","long":"127.38918185","imageIndex":4,"items":[{"name":"글램피","tel":"","addr":"경기도 양평군 강하면 왕창리 609번지","indutype":"일반휴게음식 - 서양음식","category":"restaurant"},{"name":"뮤직왕창지점","tel":"031-771-9201","addr":"경기도 양평군 강하면 왕창리 609번지","indutype":"일반휴게음식 - 일반한식","category":"restaurant"}]},{"lat":"37.477749451","long":"127.38821604","imageIndex":4,"items":[{"name":"너와집","tel":"031-774-5584","addr":"경기도 양평군 강하면 왕창리 640번지","indutype":"일반휴게음식 - 일반한식","category":"restaurant"}]},{"lat":"37.481548209","long":"127.38926439","imageIndex":4,"items":[{"name":"도자기카페707","tel":"031-775-3436","addr":"경기도 양평군 강하면 왕창리 707번지","indutype":"일반휴게음식 - 서양음식","category":"restaurant"}]},{"lat":"37.482965216","long":"127.38851417","imageIndex":4,"items":[{"name":"예예(yeye)","tel":"031-774-2030","addr":"경기도 양평군 강하면 왕창리 723-1번지","indutype":"일반휴게음식 - 주점","category":"restaurant"}]},{"lat":"37.482604087","long":"127.38873844","imageIndex":4,"items":[{"name":"오온 (갤러리)","tel":"00-0000-0000","addr":"경기도 양평군 강하면 왕창리 723-5번지 1층","indutype":"일반휴게음식 - 서양음식","category":"restaurant"}]},{"lat":"37.478381792","long":"127.38771054","imageIndex":4,"items":[{"name":"왕창아귀찜탕","tel":"031-774-1776","addr":"경기도 양평군 강하면 왕창리 647-2번지","indutype":"일반휴게음식 - 일반한식","category":"restaurant"},{"name":"잘생긴 왕창 아구찜","tel":"","addr":"경기도 양평군 강하면 왕창리 647-2번지 1층 101호","indutype":"일반휴게음식 - 일반한식","category":"restaurant"}]},{"lat":"37.479829562","long":"127.3885772","imageIndex":4,"items":[{"name":"왕창짜장","tel":"031-771-5613","addr":"경기도 양평군 강하면 왕창리 697-2번지","indutype":"일반휴게음식 - 중국식","category":"restaurant"}]},{"lat":"37.480276983","long":"127.38951787","imageIndex":4,"items":[{"name":"초가","tel":"031-774-4849","addr":"경기도 양평군 강하면 왕창리 659-1번지","indutype":"일반휴게음식 - 일반한식","category":"restaurant"}]},{"lat":"37.480297737","long":"127.38868136","imageIndex":4,"items":[{"name":"한여울한정식","tel":"031-774-5949","addr":"경기도 양평군 강하면 왕창리 697","indutype":"일반휴게음식 - 일반한식","category":"restaurant"}]},{"lat":"37.48290968","long":"127.38896613","imageIndex":4,"items":[{"name":"해뜨는집","tel":"031-774-9399","addr":"경기도 양평군 강하면 왕창리 724-3번지 1층","indutype":"일반휴게음식 - 일반한식","category":"restaurant"}]}]