[{"lat":"37.346699432","long":"126.94495211","imageIndex":4,"items":[{"name":"(PBW)긱스피자","tel":"031-397-2749","addr":"경기도 군포시 당동 917-6번지 YB프라자 3층 301호","indutype":"일반휴게음식 - 서양음식","category":"restaurant"},{"name":"CAFE TENDER","tel":"031-0000-0000","addr":"경기도 군포시 당동 917-6번지 YB프라자 3층 303호","indutype":"일반휴게음식 - 서양음식","category":"restaurant"},{"name":"또바기","tel":"","addr":"경기도 군포시 당동 917-6번지 와이비프라자 1층 108호","indutype":"일반휴게음식 - 주점","category":"restaurant"},{"name":"레드락당동점","tel":"031-394-5025","addr":"경기도 군포시 당동 917-6번지 YB프라자 1층 105호","indutype":"일반휴게음식 - 주점","category":"restaurant"},{"name":"마히나로스터스","tel":"","addr":"경기도 군포시 당동 917-6번지 YB프라자 203호","indutype":"일반휴게음식 - 서양음식","category":"restaurant"},{"name":"메가엠지씨커피군포당동점","tel":"","addr":"경기도 군포시 당동 917-6번지 YB프라자 1층 102호","indutype":"일반휴게음식 - 서양음식","category":"restaurant"},{"name":"시골구들장돌구이","tel":"031-397-1209","addr":"경기도 군포시 당동 917-6번지 YB프라자 2층 202호","indutype":"일반휴게음식 - 일반한식","category":"restaurant"},{"name":"연보쌈","tel":"","addr":"경기도 군포시 당동 917-6번지 YB프라자 2층 201호 일부","indutype":"일반휴게음식 - 일반한식","category":"restaurant"},{"name":"제족족발","tel":"031-391-2226","addr":"경기도 군포시 당동 917-6번지 YB프라자 1층 101호","indutype":"일반휴게음식 - 일반한식","category":"restaurant"},{"name":"주마츠리","tel":"","addr":"경기도 군포시 당동 917-6번지 YB프라자 204호","indutype":"일반휴게음식 - 주점","category":"restaurant"},{"name":"주마츠리","tel":"031-000-0000","addr":"경기도 군포시 당동 917-6번지 YB프라자 204호","indutype":"일반휴게음식 - 주점","category":"restaurant"},{"name":"짬뽕타운 (당동점)","tel":"031-394-0999","addr":"경기도 군포시 당동 917-6번지 YB프라자 201-2호","indutype":"일반휴게음식 - 중국식","category":"restaurant"},{"name":"찌개통","tel":"070-4227-4405","addr":"경기도 군포시 당동 917-6번지 YB프라자 109호","indutype":"일반휴게음식 - 일반한식","category":"restaurant"},{"name":"치칵치칵(당동점)","tel":"031-395-7879","addr":"경기도 군포시 당동 917-6번지 YB프라자 1층 107호","indutype":"일반휴게음식 - 주점","category":"restaurant"}]},{"lat":"37.349420312","long":"126.94456629","imageIndex":4,"items":[{"name":"(주)두원엠에프","tel":"033-748-0830","addr":"경기도 군포시 당동 903-7번지 5층","indutype":"일반휴게음식 - 위탁급식업","category":"restaurant"},{"name":"장하루","tel":"031-392-2882","addr":"경기도 군포시 당동 903-7번지","indutype":"일반휴게음식 - 일반한식","category":"restaurant"}]},{"lat":"37.347201639","long":"126.94031324","imageIndex":4,"items":[{"name":"(주)하누와쌈도둑","tel":"031-396-3898","addr":"경기도 군포시 당동 960-3 대림프라자 105호~109호","indutype":"일반휴게음식 - 일반한식","category":"restaurant"},{"name":"동명카츠","tel":"031-344-7070","addr":"경기도 군포시 당동 960-3번지 대림프라자 101호","indutype":"일반휴게음식 - 일반한식","category":"restaurant"},{"name":"신통치킨 당동점","tel":"031-392-9292","addr":"경기도 군포시 당동 960-3번지 대림프라자 1층 102호","indutype":"일반휴게음식 - 스넥","category":"restaurant"},{"name":"신통치킨 당동점","tel":"031-392-9292","addr":"경기도 군포시 당동 960-3번지 대림프라자 1층 102호","indutype":"일반휴게음식 - 스넥","category":"restaurant"},{"name":"웅이네김치부대","tel":"031-454-9646","addr":"경기도 군포시 당동 960-3번지 대림프라자 1층","indutype":"일반휴게음식 - 일반한식","category":"restaurant"},{"name":"좋아서하는 커피","tel":"070-8735-8708","addr":"경기도 군포시 당동 960-3번지 대림프라자 B09호","indutype":"일반휴게음식 - 서양음식","category":"restaurant"},{"name":"지정환임실치즈피자","tel":"031-390-6300","addr":"경기도 군포시 당동 960-3번지 대림프라자 B동 2호","indutype":"일반휴게음식 - 서양음식","category":"restaurant"},{"name":"하늘섬","tel":"031-391-5039","addr":"경기도 군포시 당동 960-3번지 대림프라자 1층 101호","indutype":"일반휴게음식 - 스넥","category":"restaurant"},{"name":"하이난","tel":"031-393-2133","addr":"경기도 군포시 당동 960-3 대림프라자B11,12호","indutype":"일반휴게음식 - 중국식","category":"restaurant"}]},{"lat":"37.34647385","long":"126.94428643","imageIndex":4,"items":[{"name":"5092오뎅사랑구이사랑","tel":"031-394-5092","addr":"경기도 군포시 당동 921-5번지 금강프라자 1층 111호","indutype":"일반휴게음식 - 일반한식","category":"restaurant"},{"name":"가쯔미군포점","tel":"031-393-7960","addr":"경기도 군포시 당동 921-5번지 금강프라자 109호","indutype":"일반휴게음식 - 스넥","category":"restaurant"},{"name":"더맛구이구이쪽갈비당동점","tel":"031-396-8592","addr":"경기도 군포시 당동 921-5번지 금강프라자 117호~ 119호","indutype":"일반휴게음식 - 일반한식","category":"restaurant"},{"name":"동그라밍버블티","tel":"","addr":"경기도 군포시 당동 921-5번지 금강프라자 107호","indutype":"일반휴게음식 - 서양음식","category":"restaurant"},{"name":"명랑쌀핫도그군포당동점","tel":"031-391-3698","addr":"경기도 군포시 당동 921-5번지 금강프라자 1층 103호","indutype":"일반휴게음식 - 일반한식","category":"restaurant"},{"name":"명품철판닭갈비당동점","tel":"031-399-9959","addr":"경기도 군포시 당동 921-5번지 금강프라자 116호","indutype":"일반휴게음식 - 일반한식","category":"restaurant"},{"name":"몽마르치킨호프","tel":"031-394-9998","addr":"경기도 군포시 당동 921-5번지 금강프라자 206호","indutype":"일반휴게음식 - 주점","category":"restaurant"},{"name":"보드람치킨","tel":"031-392-9211","addr":"경기도 군포시 당동 921-5번지 금강프라자 108호","indutype":"일반휴게음식 - 주점","category":"restaurant"},{"name":"본죽","tel":"031-399-6474","addr":"경기도 군포시 당동 921-5번지 금강프라자 102호","indutype":"일반휴게음식 - 일반한식","category":"restaurant"},{"name":"에덴펍","tel":"","addr":"경기도 군포시 당동 921-5번지 금강프라자 112호","indutype":"일반휴게음식 - 주점","category":"restaurant"},{"name":"에덴펍","tel":"031-111-1111","addr":"경기도 군포시 당동 921-5번지 금강프라자 1층 112호","indutype":"일반휴게음식 - 주점","category":"restaurant"},{"name":"쥬씨 당동점","tel":"031-394-0222","addr":"경기도 군포시 당동 921-5번지 금강프라자 101호","indutype":"일반휴게음식 - 서양음식","category":"restaurant"},{"name":"쥬씨 당동점","tel":"031-394-0222","addr":"경기도 군포시 당동 921-5번지 금강프라자 1층 101호","indutype":"일반휴게음식 - 서양음식","category":"restaurant"},{"name":"체리","tel":"031-386-3033","addr":"경기도 군포시 당동 921-5번지 금강프라자 121호","indutype":"일반휴게음식 - 주점","category":"restaurant"},{"name":"피자마루(당동점)","tel":"031-397-1082","addr":"경기도 군포시 당동 921-5번지 금강프라자 1층 113호","indutype":"일반휴게음식 - 서양음식","category":"restaurant"},{"name":"형제곱창","tel":"031-392-5673","addr":"경기도 군포시 당동 921-5번지 금강프라자 120호","indutype":"일반휴게음식 - 일반한식","category":"restaurant"}]},{"lat":"37.349591214","long":"126.94397928","imageIndex":4,"items":[{"name":"59년옛날통닭","tel":"031-393-8585","addr":"경기도 군포시 당동 785-20번지 1층","indutype":"일반휴게음식 - 스넥","category":"restaurant"}]},{"lat":"37.345779526","long":"126.94320354","imageIndex":4,"items":[{"name":"B.B.Q군포당동점","tel":"031-399-0999","addr":"경기도 군포시 당동 872-2번지 신산본리빙스텔 1층 7호","indutype":"일반휴게음식 - 스넥","category":"restaurant"},{"name":"커피에반하다","tel":"070-7722-9976","addr":"경기도 군포시 당동 872-2번지 103호,104호","indutype":"일반휴게음식 - 서양음식","category":"restaurant"}]},{"lat":"37.345200457","long":"126.93858822","imageIndex":4,"items":[{"name":"BHC당동점","tel":"031-399-0988","addr":"경기도 군포시 당동 969-2번지 103호,104호","indutype":"일반휴게음식 - 서양음식","category":"restaurant"}]},{"lat":"37.344447012","long":"126.94520212","imageIndex":4,"items":[{"name":"O.K즉석떡볶이","tel":"031-393-3007","addr":"경기도 군포시 당동 886-3번지","indutype":"일반휴게음식 - 스넥","category":"restaurant"}]},{"lat":"37.35766598","long":"126.94742691","imageIndex":4,"items":[{"name":"cafe카페581","tel":"","addr":"경기도 군포시 당동 731-7번지 1층 일부호","indutype":"일반휴게음식 - 서양음식","category":"restaurant"},{"name":"본죽 군포지샘병원","tel":"031-454-6288","addr":"경기도 군포시 당동 731-7번지 1층","indutype":"일반휴게음식 - 일반한식","category":"restaurant"}]},{"lat":"37.349924618","long":"126.94403545","imageIndex":4,"items":[{"name":"가락","tel":"031-394-0933","addr":"경기도 군포시 당동 785-16번지 동영프라자2차 1층 109호","indutype":"일반휴게음식 - 일반한식","category":"restaurant"},{"name":"깡돈 당동점","tel":"031-454-8094","addr":"경기도 군포시 당동 785-16번지 동영프라자 1층 107호","indutype":"일반휴게음식 - 일반한식","category":"restaurant"},{"name":"수산대첩","tel":"031-399-5688","addr":"경기도 군포시 당동 785-16번지 101,102호","indutype":"일반휴게음식 - 일반한식","category":"restaurant"},{"name":"착한숯불돼지갈비","tel":"031-395-7332","addr":"경기도 군포시 당동 785-16번지 동영프라자","indutype":"일반휴게음식 - 일반한식","category":"restaurant"},{"name":"참나무 한방통닭","tel":"070-8171-7018","addr":"경기도 군포시 당동 785-16번지 동영프라자 1층 109호","indutype":"일반휴게음식 - 일반한식","category":"restaurant"},{"name":"피자사랑","tel":"031-398-8295","addr":"경기도 군포시 당동 29BL5.8LT동영프라자104","indutype":"일반휴게음식 - 서양음식","category":"restaurant"}]},{"lat":"37.358611982","long":"126.94729077","imageIndex":4,"items":[{"name":"가배두림군포샘병원점","tel":"031-427-1158","addr":"경기도 군포시 당동 730번지 지하3층","indutype":"일반휴게음식 - 서양음식","category":"restaurant"},{"name":"맛깔참죽","tel":"031-427-6233","addr":"경기도 군포시 당동 730번지 G샘병원지하3층","indutype":"일반휴게음식 - 일반한식","category":"restaurant"},{"name":"삼성웰스토리(주)지샘병원","tel":"031-3873-0098","addr":"경기도 군포시 당동 730번지 지샘병원 12층","indutype":"일반휴게음식 - 위탁급식업","category":"restaurant"}]},{"lat":"37.347444913","long":"126.94031304","imageIndex":4,"items":[{"name":"가즈아떡볶이","tel":"070-4655-6256","addr":"경기도 군포시 당동 960-1번지 외1태평양프라자 1층 101호","indutype":"일반휴게음식 - 일반한식","category":"restaurant"},{"name":"주주호프","tel":"031-391-8114","addr":"경기도 군포시 당동 960-1번지 태평양프라자 1층 110호","indutype":"일반휴게음식 - 주점","category":"restaurant"},{"name":"주주호프","tel":"031-391-8114","addr":"경기도 군포시 당동 960-1번지 태평양프라자 110호","indutype":"일반휴게음식 - 주점","category":"restaurant"},{"name":"커피하우스","tel":"031-393-7464","addr":"경기도 군포시 당동 960-1번지 태평양프라자 108호","indutype":"일반휴게음식 - 서양음식","category":"restaurant"}]},{"lat":"37.3517278","long":"126.94639292","imageIndex":4,"items":[{"name":"가평민물매운탕.감자탕","tel":"031-501-9998","addr":"경기도 군포시 당동 782-10번지 101호","indutype":"일반휴게음식 - 일반한식","category":"restaurant"},{"name":"오케이커피맥주","tel":"031-427-8199","addr":"경기도 군포시 당동 782-10번지 지하1층","indutype":"일반휴게음식 - 주점","category":"restaurant"},{"name":"해나루한돈","tel":"031-429-0339","addr":"경기도 군포시 당동 782-10번지 1층","indutype":"일반휴게음식 - 일반한식","category":"restaurant"}]},{"lat":"37.346672594","long":"126.94534713","imageIndex":4,"items":[{"name":"갈빗집","tel":"031-394-8892","addr":"경기도 군포시 당동 916-7번지 두산빌딩 1층","indutype":"일반휴게음식 - 일반한식","category":"restaurant"},{"name":"막돼먹은꿀꿀씨","tel":"031-399-7110","addr":"경기도 군포시 당동 916-7번지 두산빌딩 1층","indutype":"일반휴게음식 - 일반한식","category":"restaurant"},{"name":"스카이 4.5","tel":"031-394-9887","addr":"경기도 군포시 당동 916-7번지 두산빌딩 4층","indutype":"일반휴게음식 - 주점","category":"restaurant"},{"name":"황소곱창","tel":"031-453-9792","addr":"경기도 군포시 당동 916-7번지 두산빌딩 1층","indutype":"일반휴게음식 - 일반한식","category":"restaurant"}]},{"lat":"37.350951872","long":"126.94422651","imageIndex":4,"items":[{"name":"감탄당동점","tel":"031-427-3011","addr":"경기도 군포시 당동 771-8번지 1층","indutype":"일반휴게음식 - 스넥","category":"restaurant"},{"name":"군포당동우체국점 빽다방","tel":"031-427-3669","addr":"경기도 군포시 당동 771-8번지 103호","indutype":"일반휴게음식 - 서양음식","category":"restaurant"},{"name":"포차올래","tel":"031-451-6667","addr":"경기도 군포시 당동 771-8번지","indutype":"일반휴게음식 - 일반한식","category":"restaurant"}]},{"lat":"37.347753433","long":"126.94456758","imageIndex":4,"items":[{"name":"강남이반한닭꼬치군포당동점","tel":"031-399-3223","addr":"경기도 군포시 당동 905-1번지 폴리프라자 111호","indutype":"일반휴게음식 - 일반한식","category":"restaurant"},{"name":"구구포차","tel":"070-7799-7166","addr":"경기도 군포시 당동 905-1번지 폴리프라자 107호","indutype":"일반휴게음식 - 일반한식","category":"restaurant"},{"name":"꽃돼지대패삼겹살","tel":"031-395-1177","addr":"경기도 군포시 당동 905-1번지 폴리프라자 1층 103호","indutype":"일반휴게음식 - 일반한식","category":"restaurant"},{"name":"달빛포차","tel":"031-393-6668","addr":"경기도 군포시 당동 905-1번지 폴리프라자 107호","indutype":"일반휴게음식 - 일반한식","category":"restaurant"},{"name":"당동홍미불닭발","tel":"031-424-1151","addr":"경기도 군포시 당동 905-1번지 폴리프라자 1층 105호","indutype":"일반휴게음식 - 일반한식","category":"restaurant"},{"name":"양계장집아들","tel":"031-392-3966","addr":"경기도 군포시 당동 905-1번지 폴리프라자 110호","indutype":"일반휴게음식 - 스넥","category":"restaurant"},{"name":"양계장집아들군포점","tel":"031-392-3966","addr":"경기도 군포시 당동 905-1번지 폴리프라자 110호","indutype":"일반휴게음식 - 스넥","category":"restaurant"},{"name":"우렁추어탕우렁쌈밥","tel":"031-392-5454","addr":"경기도 군포시 당동 905-1번지 외1필지 폴리프라자 101호","indutype":"일반휴게음식 - 일반한식","category":"restaurant"},{"name":"참치사랑","tel":"031-393-3858","addr":"경기도 군포시 당동 905-1번지 폴리프라자 104호","indutype":"일반휴게음식 - 일식·회집","category":"restaurant"},{"name":"피자나라치킨공주 (당동점)","tel":"031-393-9838","addr":"경기도 군포시 당동 905-1번지 폴리프라자 1층 106호","indutype":"일반휴게음식 - 서양음식","category":"restaurant"},{"name":"혼저옵서예","tel":"031-392-9294","addr":"경기도 군포시 당동 905-1번지 폴리프라자","indutype":"일반휴게음식 - 일반한식","category":"restaurant"}]},{"lat":"37.346751828","long":"126.94164534","imageIndex":4,"items":[{"name":"강산풍천민물장어","tel":"031-398-6667","addr":"경기도 군포시 당동 961-4번지 홍솔주상복합 지층 B02호","indutype":"일반휴게음식 - 일반한식","category":"restaurant"},{"name":"샤브샤브.칼국수","tel":"031-391-7422","addr":"경기도 군포시 당동 961-4번지 홍솔주상복합 지층 비03호","indutype":"일반휴게음식 - 일반한식","category":"restaurant"},{"name":"울진물회","tel":"031-391-5060","addr":"경기도 군포시 당동 961-4번지 홍솔주상복합 101호","indutype":"일반휴게음식 - 일반한식","category":"restaurant"},{"name":"통큰생오리세상","tel":"031-393-0592","addr":"경기도 군포시 당동 961-4번지 홍솔주상복합제지층제비02호","indutype":"일반휴게음식 - 일반한식","category":"restaurant"},{"name":"해달","tel":"031-393-7859","addr":"경기도 군포시 당동 961-4번지 홍솔주상복합 107,108호","indutype":"일반휴게음식 - 서양음식","category":"restaurant"}]},{"lat":"37.346113893","long":"126.94520085","imageIndex":4,"items":[{"name":"개성손만두","tel":"031-391-3535","addr":"경기도 군포시 당동 922-28번지 1층","indutype":"일반휴게음식 - 일반한식","category":"restaurant"},{"name":"맘스터치군포당동점","tel":"031-392-0408","addr":"경기도 군포시 당동 922-28번지 1층","indutype":"일반휴게음식 - 서양음식","category":"restaurant"},{"name":"박가네 갑오징어 착한 코다리","tel":"031-398-7780","addr":"경기도 군포시 당동 922-28번지 2층 201호","indutype":"일반휴게음식 - 일반한식","category":"restaurant"}]},{"lat":"37.343840239","long":"126.93917621","imageIndex":4,"items":[{"name":"개성할머니순대국","tel":"031-397-8455","addr":"경기도 군포시 당동 973-12번지 1층","indutype":"일반휴게음식 - 일반한식","category":"restaurant"}]},{"lat":"37.347140129","long":"126.9433379","imageIndex":4,"items":[{"name":"게아랑","tel":"031-396-2225","addr":"경기도 군포시 당동 920-5나동1,2층","indutype":"일반휴게음식 - 일반한식","category":"restaurant"},{"name":"도둑고기(당동점)","tel":"031-393-4898","addr":"경기도 군포시 당동 920-5번지 가동 1층","indutype":"일반휴게음식 - 일반한식","category":"restaurant"},{"name":"카페그리너리","tel":"031-396-5040","addr":"경기도 군포시 당동 920-5번지 2층","indutype":"일반휴게음식 - 서양음식","category":"restaurant"}]},{"lat":"37.353530099","long":"126.94695591","imageIndex":4,"items":[{"name":"경기순대국","tel":"031-457-3098","addr":"경기도 군포시 당동 750-28번지 1층","indutype":"일반휴게음식 - 일반한식","category":"restaurant"},{"name":"베트남쌀국수","tel":"031-427-3102","addr":"경기도 군포시 당동 750-28번지 1층","indutype":"일반휴게음식 - 일반한식","category":"restaurant"},{"name":"일품양꼬치","tel":"031-343-4667","addr":"경기도 군포시 당동 750-28번지","indutype":"일반휴게음식 - 일반한식","category":"restaurant"},{"name":"햇마루","tel":"031-451-8885","addr":"경기도 군포시 당동 750-28번지 1층","indutype":"일반휴게음식 - 일반한식","category":"restaurant"}]},{"lat":"37.346112478","long":"126.94236814","imageIndex":4,"items":[{"name":"경복궁들깨삼계탕","tel":"031-391-3919","addr":"경기도 군포시 당동 872번지 서일빌딩 102호 ,103호,104호","indutype":"일반휴게음식 - 일반한식","category":"restaurant"},{"name":"수산물직판장","tel":"031-399-9923","addr":"경기도 군포시 당동 872번지 서일빌딩 102호","indutype":"일반휴게음식 - 일반한식","category":"restaurant"}]},{"lat":"37.346420172","long":"126.94506518","imageIndex":4,"items":[{"name":"경성양꼬치(당동점)","tel":"031-399-8663","addr":"경기도 군포시 당동 922-2번지 예당프라자 103호","indutype":"일반휴게음식 - 중국식","category":"restaurant"},{"name":"국수이오만두","tel":"031-399-8663","addr":"경기도 군포시 당동 922-2번지 예당프라자 1층","indutype":"일반휴게음식 - 일반한식","category":"restaurant"},{"name":"바다랑횟집","tel":"031-394-0031","addr":"경기도 군포시 당동 922-2번지 예당프라자 1층 102호","indutype":"일반휴게음식 - 일반한식","category":"restaurant"},{"name":"프라이드살롱","tel":"031-344-9292","addr":"경기도 군포시 당동 922-2번지 예당프라자 1층","indutype":"일반휴게음식 - 주점","category":"restaurant"},{"name":"프라이드살롱","tel":"031-344-9292","addr":"경기도 군포시 당동 922-2번지 예당프라자 1층","indutype":"일반휴게음식 - 주점","category":"restaurant"}]},{"lat":"37.353115353","long":"126.94636931","imageIndex":4,"items":[{"name":"고가칼국수","tel":"031-457-8180","addr":"경기도 군포시 당동 777-1번지 정훈빌딩 1층","indutype":"일반휴게음식 - 일반한식","category":"restaurant"}]},{"lat":"37.355888485","long":"126.94233772","imageIndex":4,"items":[{"name":"고갯마루","tel":"031-395-5739","addr":"경기도 군포시 당동 858-2번지 1층","indutype":"일반휴게음식 - 일반한식","category":"restaurant"}]},{"lat":"37.350978377","long":"126.94317686","imageIndex":4,"items":[{"name":"고기먹는날","tel":"031-427-6723","addr":"경기도 군포시 당동 771-2번지 105호","indutype":"일반휴게음식 - 일반한식","category":"restaurant"},{"name":"미스테이크","tel":"031-111-1111","addr":"경기도 군포시 당동 771-2번지 101호","indutype":"일반휴게음식 - 주점","category":"restaurant"},{"name":"삼천죠마라탕","tel":"031-427-7372","addr":"경기도 군포시 당동 771-2번지 105호","indutype":"일반휴게음식 - 중국식","category":"restaurant"}]},{"lat":"37.35095062","long":"126.94175479","imageIndex":4,"items":[{"name":"고담","tel":"031-346-6296","addr":"경기도 군포시 당동 788-5번지","indutype":"일반휴게음식 - 일반한식","category":"restaurant"},{"name":"대박포차","tel":"031-391-1120","addr":"경기도 군포시 당동 788-5번지 1층","indutype":"일반휴게음식 - 주점","category":"restaurant"},{"name":"신정가네맛집","tel":"031-397-8506","addr":"경기도 군포시 당동 788-5번지 1층 105호","indutype":"일반휴게음식 - 일반한식","category":"restaurant"}]},{"lat":"37.358944745","long":"126.94600373","imageIndex":4,"items":[{"name":"고돼지","tel":"","addr":"경기도 군포시 당동 836-2번지 1층 일부","indutype":"일반휴게음식 - 일반한식","category":"restaurant"},{"name":"국수이야기","tel":"031-457-0909","addr":"경기도 군포시 당동 836-2번지 1층","indutype":"일반휴게음식 - 일반한식","category":"restaurant"}]},{"lat":"37.342668422","long":"126.9382631","imageIndex":4,"items":[{"name":"고향산천","tel":"031-392-9259","addr":"경기도 군포시 당동 977-5번지","indutype":"일반휴게음식 - 일반한식","category":"restaurant"},{"name":"육마루당동점","tel":"031-392-9259","addr":"경기도 군포시 당동 977-5번지 2층","indutype":"일반휴게음식 - 일반한식","category":"restaurant"}]},{"lat":"37.351086045","long":"126.94228514","imageIndex":4,"items":[{"name":"고향포차","tel":"031-429-4991","addr":"경기도 군포시 당동 769-26번지","indutype":"일반휴게음식 - 일반한식","category":"restaurant"},{"name":"동민닭집","tel":"031-455-6123","addr":"경기도 군포시 당동 769-26","indutype":"일반휴게음식 - 스넥","category":"restaurant"}]},{"lat":"37.352980372","long":"126.94673058","imageIndex":4,"items":[{"name":"골목집","tel":"031-454-0903","addr":"경기도 군포시 당동 777-19번지 1층 3호","indutype":"일반휴게음식 - 일반한식","category":"restaurant"},{"name":"문가부추곱창","tel":"031-427-5882","addr":"경기도 군포시 당동 777-19번지 2,3층","indutype":"일반휴게음식 - 일반한식","category":"restaurant"},{"name":"밤새보드카페","tel":"031-000-0000","addr":"경기도 군포시 당동 777-19번지 4층","indutype":"일반휴게음식 - 서양음식","category":"restaurant"},{"name":"은이네밥&술","tel":"031-398-9980","addr":"경기도 군포시 당동 777-19번지 102호","indutype":"일반휴게음식 - 일반한식","category":"restaurant"}]},{"lat":"37.346869937","long":"126.94356383","imageIndex":4,"items":[{"name":"곰바우칼국수","tel":"031-392-2245","addr":"경기도 군포시 당동 921외1필지104","indutype":"일반휴게음식 - 일반한식","category":"restaurant"},{"name":"봉평동치미막국수","tel":"031-391-1141","addr":"경기도 군포시 당동 921번지 1층","indutype":"일반휴게음식 - 일반한식","category":"restaurant"},{"name":"손커피연구소 당동점","tel":"031-1111-1111","addr":"경기도 군포시 당동 921번지 2층 201호","indutype":"일반휴게음식 - 서양음식","category":"restaurant"},{"name":"육심쟁이","tel":"","addr":"경기도 군포시 당동 921번지","indutype":"일반휴게음식 - 일반한식","category":"restaurant"}]},{"lat":"37.347834194","long":"126.94390165","imageIndex":4,"items":[{"name":"교촌치킨당동1호점","tel":"031-399-5225","addr":"경기도 군포시 당동 904-5번지 그린프라자 102호","indutype":"일반휴게음식 - 주점","category":"restaurant"},{"name":"굽네치킨 군포당동점","tel":"031-341-9992","addr":"경기도 군포시 당동 904-5번지 그린프라자 지층 103호","indutype":"일반휴게음식 - 주점","category":"restaurant"},{"name":"돈까스남","tel":"031-391-1598","addr":"경기도 군포시 당동 904-5번지 그린프라자 1층 110호","indutype":"일반휴게음식 - 일반한식","category":"restaurant"},{"name":"미스김꼬마김밥","tel":"031-397-5151","addr":"경기도 군포시 당동 904-5번지 그린프라자 106호","indutype":"일반휴게음식 - 스넥","category":"restaurant"},{"name":"예술집","tel":"031-477-2882","addr":"경기도 군포시 당동 904-5번지 그린프라자 지층 104호","indutype":"일반휴게음식 - 주점","category":"restaurant"},{"name":"장강","tel":"031-391-3356","addr":"경기도 군포시 당동 904-5 그린프라자지하 104,105,106,107호","indutype":"일반휴게음식 - 중국식","category":"restaurant"},{"name":"카페두드림","tel":"031-394-3697","addr":"경기도 군포시 당동 904-5번지 그린프라자 104호","indutype":"일반휴게음식 - 일반한식","category":"restaurant"},{"name":"푸드딜라이트 군포점","tel":"031-391-1598","addr":"경기도 군포시 당동 904-5번지 그린프라자 110호","indutype":"일반휴게음식 - 일반한식","category":"restaurant"},{"name":"한솥도시락군포초등학교점","tel":"031-397-3838","addr":"경기도 군포시 당동 904-5번지 그린프라자 107호","indutype":"일반휴게음식 - 일반한식","category":"restaurant"}]},{"lat":"37.353700203","long":"126.94469842","imageIndex":4,"items":[{"name":"국민초밥","tel":"070-4082-3729","addr":"경기도 군포시 당동 752-22번지 1층","indutype":"일반휴게음식 - 일식·회집","category":"restaurant"}]},{"lat":"37.345833988","long":"126.94400478","imageIndex":4,"items":[{"name":"국수나무당동점","tel":"031-396-1700","addr":"경기도 군포시 당동 871-4번지 용호프라자 102호","indutype":"일반휴게음식 - 스넥","category":"restaurant"},{"name":"명인만두군포당동점","tel":"031-391-8166","addr":"경기도 군포시 당동 871-4번지 용호프라자 103호","indutype":"일반휴게음식 - 스넥","category":"restaurant"},{"name":"석스시","tel":"","addr":"경기도 군포시 당동 871-4번지 용호프라자 110호","indutype":"일반휴게음식 - 일식·회집","category":"restaurant"},{"name":"피자스쿨당동점","tel":"031-391-9119","addr":"경기도 군포시 당동 871-4번지 용호프라자 101호","indutype":"일반휴게음식 - 서양음식","category":"restaurant"}]},{"lat":"37.353061767","long":"126.94737387","imageIndex":4,"items":[{"name":"군포돌구이닭갈비","tel":"031-427-3392","addr":"경기도 군포시 당동 778-1번지 라포레 1층 101호","indutype":"일반휴게음식 - 일반한식","category":"restaurant"}]},{"lat":"37.350897342","long":"126.94328978","imageIndex":4,"items":[{"name":"군포생고기숯불구이","tel":"031-455-1117","addr":"경기도 군포시 당동 771-3번지 1층","indutype":"일반휴게음식 - 일반한식","category":"restaurant"},{"name":"미옥이네양꼬치","tel":"031-477-8523","addr":"경기도 군포시 당동 771-3번지 1층 104호","indutype":"일반휴게음식 - 일반한식","category":"restaurant"},{"name":"옛날칼국수","tel":"031-394-1995","addr":"경기도 군포시 당동 771-3번지 1층","indutype":"일반휴게음식 - 일반한식","category":"restaurant"},{"name":"우리포차","tel":"02-1577-0000","addr":"경기도 군포시 당동 771-3번지 1층","indutype":"일반휴게음식 - 일반한식","category":"restaurant"},{"name":"행운식당","tel":"031-427-2230","addr":"경기도 군포시 당동 771-3번지 1층","indutype":"일반휴게음식 - 일반한식","category":"restaurant"}]},{"lat":"37.355422358","long":"126.9472254","imageIndex":4,"items":[{"name":"군포식당","tel":"031-452-0025","addr":"경기도 군포시 당동 748-22번지","indutype":"일반휴게음식 - 일반한식","category":"restaurant"},{"name":"군포식당","tel":"031-452-0025","addr":"경기도 군포시 당동 748-22번지","indutype":"일반휴게음식 - 일반한식","category":"restaurant"}]},{"lat":"37.351166782","long":"126.94159661","imageIndex":4,"items":[{"name":"군포식당","tel":"031-455-2523","addr":"경기도 군포시 당동 763-21번지 1층","indutype":"일반휴게음식 - 일반한식","category":"restaurant"},{"name":"군포식당","tel":"031-455-2523","addr":"경기도 군포시 당동 763-21번지 1층","indutype":"일반휴게음식 - 일반한식","category":"restaurant"}]},{"lat":"37.353972009","long":"126.94783596","imageIndex":4,"items":[{"name":"군포왕족발","tel":"031-454-1560","addr":"경기도 군포시 당동 116-9번지 1층","indutype":"일반휴게음식 - 일반한식","category":"restaurant"}]},{"lat":"37.352700767","long":"126.94612131","imageIndex":4,"items":[{"name":"군포전집","tel":"031-427-1203","addr":"경기도 군포시 당동 776-2번지","indutype":"일반휴게음식 - 일반한식","category":"restaurant"}]},{"lat":"37.352061218","long":"126.94648296","imageIndex":4,"items":[{"name":"굴&매생이 전문","tel":"031-429-1118","addr":"경기도 군포시 당동 780-2번지 당동누리에뜰해밀 124,125호","indutype":"일반휴게음식 - 일반한식","category":"restaurant"},{"name":"맛있는집","tel":"031-455-5372","addr":"경기도 군포시 당동 780-2번지 당동누리에뜰해밀 123호","indutype":"일반휴게음식 - 일반한식","category":"restaurant"},{"name":"백년족발","tel":"031-427-5262","addr":"경기도 군포시 당동 780-2번지 당동누리에뜰해밀 1층 103,104,105호","indutype":"일반휴게음식 - 일반한식","category":"restaurant"},{"name":"참숯풍천장어","tel":"031-429-8857","addr":"경기도 군포시 당동 780-2번지 당동누리에뜰해밀 116,117호","indutype":"일반휴게음식 - 일반한식","category":"restaurant"},{"name":"커피파라다이스","tel":"","addr":"경기도 군포시 당동 780-2번지 당동누리에뜰해밀 1층 120호","indutype":"일반휴게음식 - 서양음식","category":"restaurant"},{"name":"페리카나군포점","tel":"031-454-8174","addr":"경기도 군포시 당동 780-2번지 당동누리에뜰해밀 1층 118호","indutype":"일반휴게음식 - 주점","category":"restaurant"},{"name":"페리카나군포점","tel":"031-454-8174","addr":"경기도 군포시 당동 780-2번지 당동누리에뜰해밀 1층 118호","indutype":"일반휴게음식 - 주점","category":"restaurant"},{"name":"홍시","tel":"031-429-2459","addr":"경기도 군포시 당동 780-2번지 대덕누리에뜰해밀 1층 119호","indutype":"일반휴게음식 - 주점","category":"restaurant"}]},{"lat":"37.342091524","long":"126.9378122","imageIndex":4,"items":[{"name":"굴다리숯불구이본가","tel":"031-391-9291","addr":"경기도 군포시 당동 978-5번지","indutype":"일반휴게음식 - 일반한식","category":"restaurant"},{"name":"일식애해야","tel":"031-396-4042","addr":"경기도 군포시 당동 978-5번지 진방빌딩 4층","indutype":"일반휴게음식 - 일식·회집","category":"restaurant"}]},{"lat":"37.347003925","long":"126.94128399","imageIndex":4,"items":[{"name":"굽네치킨","tel":"031-392-9494","addr":"경기도 군포시 당동 961-2번지 호영빌딩 105호","indutype":"일반휴게음식 - 주점","category":"restaurant"},{"name":"백청우칼국수","tel":"031-392-2777","addr":"경기도 군포시 당동 961-2번지 호영빌딩 1층","indutype":"일반휴게음식 - 일반한식","category":"restaurant"}]},{"lat":"37.346807747","long":"126.94534703","imageIndex":4,"items":[{"name":"굿대디돈까스","tel":"031-399-3851","addr":"경기도 군포시 당동 916-8번지 1층","indutype":"일반휴게음식 - 일식·회집","category":"restaurant"}]},{"lat":"37.350725938","long":"126.94287232","imageIndex":4,"items":[{"name":"귀신반점 당동점","tel":"031-344-2229","addr":"경기도 군포시 당동 786-3번지 1층 101호","indutype":"일반휴게음식 - 중국식","category":"restaurant"}]},{"lat":"37.346114003","long":"126.94542656","imageIndex":4,"items":[{"name":"그램그램 당동점","tel":"070-7864-1177","addr":"경기도 군포시 당동 922-27번지 1층","indutype":"일반휴게음식 - 일반한식","category":"restaurant"},{"name":"어사출또당동점","tel":"031-391-9279","addr":"경기도 군포시 당동 922-27번지 1층","indutype":"일반휴게음식 - 일반한식","category":"restaurant"}]},{"lat":"37.358865137","long":"126.94917561","imageIndex":4,"items":[{"name":"그린팜케터링 (군포점)","tel":"031-456-9458","addr":"경기도 군포시 당동 14-1번지 아이밸리군포 지하 201호","indutype":"일반휴게음식 - 일반한식","category":"restaurant"}]},{"lat":"37.345590534","long":"126.94364383","imageIndex":4,"items":[{"name":"금관가든","tel":"031-397-9292","addr":"경기도 군포시 당동 872-4번지 1층","indutype":"일반휴게음식 - 일반한식","category":"restaurant"},{"name":"이순화명태마을군포점","tel":"031-397-9293","addr":"경기도 군포시 당동 872-4번지 1층","indutype":"일반휴게음식 - 일반한식","category":"restaurant"}]},{"lat":"37.341090471","long":"126.93615418","imageIndex":4,"items":[{"name":"금정부대찌개당동점","tel":"031-392-7888","addr":"경기도 군포시 당동 1031번지 1층","indutype":"일반휴게음식 - 일반한식","category":"restaurant"}]},{"lat":"37.344227298","long":"126.93847619","imageIndex":4,"items":[{"name":"김경자 대구뽈찜","tel":"031-398-1255","addr":"경기도 군포시 당동 971-4번지 1층","indutype":"일반휴게음식 - 일반한식","category":"restaurant"}]},{"lat":"37.349888974","long":"126.9448368","imageIndex":4,"items":[{"name":"김명자낙지마당","tel":"031-393-1522","addr":"경기도 군포시 당동 903-1번지 103(103호~104호)","indutype":"일반휴게음식 - 일반한식","category":"restaurant"},{"name":"투다리","tel":"031-395-9394","addr":"경기도 군포시 당동 903-1번지 1층","indutype":"일반휴게음식 - 주점","category":"restaurant"}]},{"lat":"37.354035744","long":"126.94928063","imageIndex":4,"items":[{"name":"김밥마을","tel":"031-453-4682","addr":"경기도 군포시 당동 135-1번지 동영벤처스텔 1층 101호","indutype":"일반휴게음식 - 스넥","category":"restaurant"}]},{"lat":"37.358944973","long":"126.94647781","imageIndex":4,"items":[{"name":"김밥천국","tel":"031-456-0345","addr":"경기도 군포시 당동 729-1번지 1층","indutype":"일반휴게음식 - 스넥","category":"restaurant"}]},{"lat":"37.350138657","long":"126.93975778","imageIndex":4,"items":[{"name":"김밥천국","tel":"031-392-0078","addr":"경기도 군포시 당동 951-3번지 정마프라자 1층 101호","indutype":"일반휴게음식 - 스넥","category":"restaurant"}]},{"lat":"37.347590807","long":"126.94367612","imageIndex":4,"items":[{"name":"김밥천국","tel":"031-399-5323","addr":"경기도 군포시 당동 920번지 광진빌딩 1층","indutype":"일반휴게음식 - 일반한식","category":"restaurant"},{"name":"비주안밥집","tel":"031-397-5768","addr":"경기도 군포시 당동 920번지","indutype":"일반휴게음식 - 일반한식","category":"restaurant"},{"name":"첫잔과막잔","tel":"031-399-9474","addr":"경기도 군포시 당동 920번지 광진빌딩 102호","indutype":"일반휴게음식 - 주점","category":"restaurant"}]},{"lat":"37.350591274","long":"126.94384306","imageIndex":4,"items":[{"name":"김밥천국","tel":"031-399-8870","addr":"경기도 군포시 당동 785-2번지 1층","indutype":"일반휴게음식 - 스넥","category":"restaurant"},{"name":"카페우리","tel":"031-344-8654","addr":"경기도 군포시 당동 785-2번지 1층","indutype":"일반휴게음식 - 서양음식","category":"restaurant"}]},{"lat":"37.353060797","long":"126.94534226","imageIndex":4,"items":[{"name":"김밥천국 당동점","tel":"031-427-6687","addr":"경기도 군포시 당동 775-6번지","indutype":"일반휴게음식 - 스넥","category":"restaurant"},{"name":"김밥천국당동점","tel":"031-455-0988","addr":"경기도 군포시 당동 775-6번지 1층","indutype":"일반휴게음식 - 스넥","category":"restaurant"},{"name":"통닭원5900","tel":"031-456-7191","addr":"경기도 군포시 당동 775-6번지 1층","indutype":"일반휴게음식 - 스넥","category":"restaurant"}]},{"lat":"37.354530644","long":"126.94784684","imageIndex":4,"items":[{"name":"까치식당","tel":"031-451-3860","addr":"경기도 군포시 당동 115-14번지 1층","indutype":"일반휴게음식 - 일반한식","category":"restaurant"}]},{"lat":"37.354727282","long":"126.94453961","imageIndex":4,"items":[{"name":"꼬꼬야","tel":"053-262-5578","addr":"경기도 군포시 당동 739-7번지 달서시장 가동 1층 4호","indutype":"일반휴게음식 - 일반한식","category":"restaurant"},{"name":"봄봄 (본리점)","tel":"053-525-4426","addr":"경기도 군포시 당동 739-7번지 마동 1층 5호","indutype":"일반휴게음식 - 서양음식","category":"restaurant"}]},{"lat":"37.353555851","long":"126.94431478","imageIndex":4,"items":[{"name":"꿀맛식탁","tel":"031-427-8343","addr":"경기도 군포시 당동 753-4번지 지층 102호","indutype":"일반휴게음식 - 일반한식","category":"restaurant"},{"name":"일이","tel":"031-427-2347","addr":"경기도 군포시 당동 753-4번지 지층 102호","indutype":"일반휴게음식 - 주점","category":"restaurant"}]},{"lat":"37.351611249","long":"126.94762324","imageIndex":4,"items":[{"name":"끌림","tel":"031-458-8882","addr":"경기도 군포시 당동 783-12번지 1층 101호","indutype":"일반휴게음식 - 주점","category":"restaurant"},{"name":"블루레인","tel":"031-452-7126","addr":"경기도 군포시 당동 783-12번지 1층","indutype":"일반휴게음식 - 주점","category":"restaurant"},{"name":"썸앤썸","tel":"031-427-7872","addr":"경기도 군포시 당동 783-12번지 1층 104호","indutype":"일반휴게음식 - 주점","category":"restaurant"},{"name":"아리아","tel":"031-452-7126","addr":"경기도 군포시 당동 783-12번지 1층 103호","indutype":"일반휴게음식 - 주점","category":"restaurant"},{"name":"향기","tel":"031-458-9088","addr":"경기도 군포시 당동 783-12번지","indutype":"일반휴게음식 - 주점","category":"restaurant"}]},{"lat":"37.356557418","long":"126.94676178","imageIndex":4,"items":[{"name":"나누기","tel":"031-427-1500","addr":"경기도 군포시 당동 732-13번지 대창빌딩","indutype":"일반휴게음식 - 서양음식","category":"restaurant"}]},{"lat":"37.357639245","long":"126.94805903","imageIndex":4,"items":[{"name":"남가네설악추어탕","tel":"031-427-4688","addr":"경기도 군포시 당동 54-4번지","indutype":"일반휴게음식 - 일반한식","category":"restaurant"}]},{"lat":"37.352087129","long":"126.94418048","imageIndex":4,"items":[{"name":"남원골추어탕","tel":"031-427-5890","addr":"경기도 군포시 당동 772-2번지 한신시티하우스 201호","indutype":"일반휴게음식 - 일반한식","category":"restaurant"},{"name":"무봉리토종 순대국","tel":"031-427-7723","addr":"경기도 군포시 당동 772-2번지 군포당동한신시티하우스 201호","indutype":"일반휴게음식 - 일반한식","category":"restaurant"}]},{"lat":"37.350168454","long":"126.94517517","imageIndex":4,"items":[{"name":"남원추어탕","tel":"031-451-7576","addr":"경기도 군포시 당동 898-24번지 1층","indutype":"일반휴게음식 - 일반한식","category":"restaurant"}]},{"lat":"37.347339347","long":"126.94534662","imageIndex":4,"items":[{"name":"낭낭카페","tel":"","addr":"경기도 군포시 당동 916번지 1층","indutype":"일반휴게음식 - 서양음식","category":"restaurant"}]},{"lat":"37.349925317","long":"126.94545751","imageIndex":4,"items":[{"name":"너쏠래","tel":"031-391-1214","addr":"경기도 군포시 당동 901-3번지 효성타운빌라 103호","indutype":"일반휴게음식 - 주점","category":"restaurant"},{"name":"카페본(born)","tel":"031-427-7308","addr":"경기도 군포시 당동 901-3번지 효성타운빌라 101호","indutype":"일반휴게음식 - 서양음식","category":"restaurant"}]},{"lat":"37.355638103","long":"126.94617554","imageIndex":4,"items":[{"name":"네오피자","tel":"031-429-4575","addr":"경기도 군포시 당동 746-13번지","indutype":"일반휴게음식 - 서양음식","category":"restaurant"}]},{"lat":"37.342506085","long":"126.93798112","imageIndex":4,"items":[{"name":"노걸대감자탕군포본점","tel":"031-393-2777","addr":"경기도 군포시 당동 977-6번지 (55블럭5롯트)경원빌딩B동","indutype":"일반휴게음식 - 일반한식","category":"restaurant"},{"name":"원조설악추어탕","tel":"031-397-7474","addr":"경기도 군포시 당동 977-6 경원A동 2층","indutype":"일반휴게음식 - 일반한식","category":"restaurant"},{"name":"주식회사 이베리코의전설","tel":"031-396-2328","addr":"경기도 군포시 당동 977-6번지 1층","indutype":"일반휴게음식 - 일반한식","category":"restaurant"}]},{"lat":"37.346590747","long":"126.94381233","imageIndex":4,"items":[{"name":"놀부보쌈","tel":"031-398-8666","addr":"경기도 군포시 당동 921-3번지 1층","indutype":"일반휴게음식 - 일반한식","category":"restaurant"},{"name":"연안식당군포당동점","tel":"031-399-6092","addr":"경기도 군포시 당동 921-3번지 1층","indutype":"일반휴게음식 - 일반한식","category":"restaurant"},{"name":"카페7그램","tel":"031-392-6288","addr":"경기도 군포시 당동 921-3번지 2층","indutype":"일반휴게음식 - 서양음식","category":"restaurant"}]},{"lat":"37.346393504","long":"126.94581006","imageIndex":4,"items":[{"name":"농바우 상륙했소","tel":"031-399-9292","addr":"경기도 군포시 당동 922-6번지","indutype":"일반휴게음식 - 일반한식","category":"restaurant"}]},{"lat":"37.345281659","long":"126.93879129","imageIndex":4,"items":[{"name":"누렁소한우","tel":"031-391-6692","addr":"경기도 군포시 당동 969-1번지 대원프라자 1층","indutype":"일반휴게음식 - 일반한식","category":"restaurant"}]},{"lat":"37.342974768","long":"126.93826284","imageIndex":4,"items":[{"name":"능이버섯백숙","tel":"031-399-3625","addr":"경기도 군포시 당동 977-1번지 은진빌딩 103,104호","indutype":"일반휴게음식 - 일반한식","category":"restaurant"},{"name":"동태촌장 냉면면장","tel":"031-393-1230","addr":"경기도 군포시 당동 977-1번지 은진빌딩 1층","indutype":"일반휴게음식 - 일반한식","category":"restaurant"},{"name":"동태촌장 냉면면장","tel":"031-393-1230","addr":"경기도 군포시 당동 977-1번지","indutype":"일반휴게음식 - 일반한식","category":"restaurant"},{"name":"찬스커피","tel":"031-223-5214","addr":"경기도 군포시 당동 977-1번지 은진빌딩 102호","indutype":"일반휴게음식 - 서양음식","category":"restaurant"},{"name":"촛불조방낙지","tel":"031-393-8882","addr":"경기도 군포시 당동 977-1번지 은진빌딩 202호","indutype":"일반휴게음식 - 일반한식","category":"restaurant"}]},{"lat":"37.352312899","long":"126.94522996","imageIndex":4,"items":[{"name":"니나호프","tel":"031-427-0066","addr":"경기도 군포시 당동 776-16번지 지층","indutype":"일반휴게음식 - 주점","category":"restaurant"}]},{"lat":"37.354917253","long":"126.94609707","imageIndex":4,"items":[{"name":"달구벌삼겹양념숯불갈비","tel":"031-477-9898","addr":"경기도 군포시 당동 745-20번지","indutype":"일반휴게음식 - 일반한식","category":"restaurant"},{"name":"취애루","tel":"031-477-9898","addr":"경기도 군포시 당동 745-20번지 1층","indutype":"일반휴게음식 - 중국식","category":"restaurant"}]},{"lat":"37.353782759","long":"126.94775709","imageIndex":4,"items":[{"name":"달달술래","tel":"","addr":"경기도 군포시 당동 750-10번지 1층 2호","indutype":"일반휴게음식 - 일반한식","category":"restaurant"},{"name":"상아분식","tel":"031-456-2674","addr":"경기도 군포시 당동 750-10번지 1층","indutype":"일반휴게음식 - 스넥","category":"restaurant"},{"name":"숯장군꼬꼬불막창","tel":"031-457-9293","addr":"경기도 군포시 당동 750-10번지 1층","indutype":"일반휴게음식 - 스넥","category":"restaurant"},{"name":"옛날국밥","tel":"031-429-8639","addr":"경기도 군포시 당동 750-10번지","indutype":"일반휴게음식 - 일반한식","category":"restaurant"}]},{"lat":"37.341424497","long":"126.93731623","imageIndex":4,"items":[{"name":"달봉감자당동점","tel":"031-393-8886","addr":"경기도 군포시 당동 1033-1번지","indutype":"일반휴게음식 - 서양음식","category":"restaurant"}]},{"lat":"37.351005544","long":"126.94344771","imageIndex":4,"items":[{"name":"닭이랑 국수랑","tel":"031-453-7737","addr":"경기도 군포시 당동 771-4번지 2층","indutype":"일반휴게음식 - 일반한식","category":"restaurant"},{"name":"닭이랑국수랑","tel":"031-453-7737","addr":"경기도 군포시 당동 771-4번지 2층","indutype":"일반휴게음식 - 일반한식","category":"restaurant"},{"name":"마당호프","tel":"031-429-6465","addr":"경기도 군포시 당동 771-4번지 1층","indutype":"일반휴게음식 - 일반한식","category":"restaurant"}]},{"lat":"37.343506441","long":"126.93839781","imageIndex":4,"items":[{"name":"당동정육점과식당","tel":"","addr":"경기도 군포시 당동 974-3번지 재우빌딩 109호","indutype":"일반휴게음식 - 일반한식","category":"restaurant"},{"name":"베이징스토리","tel":"031-392-1180","addr":"경기도 군포시 당동 974-3번지 1층 101호 , 102호","indutype":"일반휴게음식 - 중국식","category":"restaurant"},{"name":"부산양대창","tel":"031-391-2355","addr":"경기도 군포시 당동 974-3번지 재우빌딩 1층 108,109호","indutype":"일반휴게음식 - 일반한식","category":"restaurant"}]},{"lat":"37.343812726","long":"126.93828469","imageIndex":4,"items":[{"name":"당동포차","tel":"031-391-6321","addr":"경기도 군포시 당동 974-2번지 유승 1층 101호","indutype":"일반휴게음식 - 주점","category":"restaurant"}]},{"lat":"37.35583458","long":"126.94264251","imageIndex":4,"items":[{"name":"당말고깃간","tel":"031-395-9993","addr":"경기도 군포시 당동 858-4번지 1층","indutype":"일반휴게음식 - 일반한식","category":"restaurant"}]},{"lat":"37.355780845","long":"126.94328592","imageIndex":4,"items":[{"name":"당말기사식당","tel":"031-459-5525","addr":"경기도 군포시 당동 736-6번지 1층","indutype":"일반휴게음식 - 스넥","category":"restaurant"},{"name":"치킨더홈 군포당동점","tel":"031-3457-8279","addr":"경기도 군포시 당동 736-6번지 1층","indutype":"일반휴게음식 - 스넥","category":"restaurant"}]},{"lat":"37.355195782","long":"126.94448281","imageIndex":4,"items":[{"name":"당말분식","tel":"031-395-8421","addr":"경기도 군포시 당동 738-4번지 1층","indutype":"일반휴게음식 - 스넥","category":"restaurant"}]},{"lat":"37.347419625","long":"126.94369883","imageIndex":4,"items":[{"name":"당정명가불백","tel":"070-4046-5688","addr":"경기도 군포시 당동 920-2번지 1층","indutype":"일반휴게음식 - 일반한식","category":"restaurant"},{"name":"병천가마솥순대","tel":"070-7420-0290","addr":"경기도 군포시 당동 920-2번지 1층","indutype":"일반휴게음식 - 일반한식","category":"restaurant"}]},{"lat":"37.344390084","long":"126.93959331","imageIndex":4,"items":[{"name":"대가영양탕","tel":"031-393-8883","addr":"경기도 군포시 당동 973-8번지 1층","indutype":"일반휴게음식 - 일반한식","category":"restaurant"},{"name":"자성화맛집코다리네","tel":"031-396-9592","addr":"경기도 군포시 당동 973-8번지 필하우스 1층","indutype":"일반휴게음식 - 일반한식","category":"restaurant"},{"name":"자성화맛집코다리네(별관)","tel":"031-396-9592","addr":"경기도 군포시 당동 973-8번지 1층","indutype":"일반휴게음식 - 일반한식","category":"restaurant"}]},{"lat":"37.34442554","long":"126.93850988","imageIndex":4,"items":[{"name":"대박짬뽕","tel":"031-391-5545","addr":"경기도 군포시 당동 971-3번지 동영프라자 1층 101호,102호","indutype":"일반휴게음식 - 중국식","category":"restaurant"},{"name":"모모","tel":"031-392-0908","addr":"경기도 군포시 당동 971-3번지 동영프라자1차 203호","indutype":"일반휴게음식 - 주점","category":"restaurant"},{"name":"커피언리미티드","tel":"031-398-5875","addr":"경기도 군포시 당동 971-3번지 동영프라자 109호,110호 제1층","indutype":"일반휴게음식 - 서양음식","category":"restaurant"}]},{"lat":"37.350806955","long":"126.94272554","imageIndex":4,"items":[{"name":"대운치킨","tel":"031-443-1470","addr":"경기도 군포시 당동 786-1번지 1층","indutype":"일반휴게음식 - 스넥","category":"restaurant"}]},{"lat":"37.347005767","long":"126.9449293","imageIndex":4,"items":[{"name":"더 힐링","tel":"031-425-6101","addr":"경기도 군포시 당동 917-4번지 203,204호","indutype":"일반휴게음식 - 서양음식","category":"restaurant"},{"name":"예스바","tel":"031-394-8688","addr":"경기도 군포시 당동 917-4번지 당동중앙프라자 210호","indutype":"일반휴게음식 - 주점","category":"restaurant"},{"name":"오부장 치킨","tel":"031-395-9992","addr":"경기도 군포시 당동 917-4번지 당동중앙프라자 1층 103호","indutype":"일반휴게음식 - 일반한식","category":"restaurant"},{"name":"오부장 치킨(당동점)","tel":"031-395-9992","addr":"경기도 군포시 당동 917-4번지 중앙프라자 1층 103호","indutype":"일반휴게음식 - 스넥","category":"restaurant"},{"name":"오부장 치킨(당동점)","tel":"031-395-9992","addr":"경기도 군포시 당동 917-4번지 중앙프라자 103호","indutype":"일반휴게음식 - 스넥","category":"restaurant"}]},{"lat":"37.352007537","long":"126.94728435","imageIndex":4,"items":[{"name":"덕이네막걸리랑부침개","tel":"031-455-5493","addr":"경기도 군포시 당동 778-15번지 대현빌딩 1층","indutype":"일반휴게음식 - 주점","category":"restaurant"},{"name":"동경","tel":"031-477-8600","addr":"경기도 군포시 당동 778-15번지 대현빌딩 1층 6호","indutype":"일반휴게음식 - 주점","category":"restaurant"},{"name":"동래옻닭","tel":"031-453-9166","addr":"경기도 군포시 당동 778-15번지 대현빌딩 1층","indutype":"일반휴게음식 - 일반한식","category":"restaurant"},{"name":"지앤","tel":"031-453-5441","addr":"경기도 군포시 당동 778-15번지","indutype":"일반휴게음식 - 주점","category":"restaurant"},{"name":"핑와","tel":"031-429-6555","addr":"경기도 군포시 당동 778-15번지 1층","indutype":"일반휴게음식 - 주점","category":"restaurant"},{"name":"흑장미","tel":"031-427-7836","addr":"경기도 군포시 당동 778-15번지 1층","indutype":"일반휴게음식 - 주점","category":"restaurant"}]},{"lat":"37.353585149","long":"126.94908907","imageIndex":4,"items":[{"name":"덕춘식당","tel":"031-455-7724","addr":"경기도 군포시 당동 134-13번지 1층","indutype":"일반휴게음식 - 일반한식","category":"restaurant"},{"name":"카페빈스","tel":"","addr":"경기도 군포시 당동 134-13번지 1층 102호","indutype":"일반휴게음식 - 서양음식","category":"restaurant"}]},{"lat":"37.350421127","long":"126.94597631","imageIndex":4,"items":[{"name":"도깨비수산","tel":"","addr":"경기도 군포시 당동 898-13번지 신신빌딩 107호","indutype":"일반휴게음식 - 일반한식","category":"restaurant"},{"name":"명가수제빵","tel":"070-7594-6200","addr":"경기도 군포시 당동 898-13번지 신신빌딩 1층 104호","indutype":"일반휴게음식 - 서양음식","category":"restaurant"},{"name":"모듬식당","tel":"031-344-7620","addr":"경기도 군포시 당동 898-13번지 신신빌딩 1층 105호","indutype":"일반휴게음식 - 일반한식","category":"restaurant"}]},{"lat":"37.341172162","long":"126.93722617","imageIndex":4,"items":[{"name":"독도참치당동점","tel":"031-399-3163","addr":"경기도 군포시 당동 1033-3번지 1층","indutype":"일반휴게음식 - 일반한식","category":"restaurant"}]},{"lat":"37.354504251","long":"126.94923515","imageIndex":4,"items":[{"name":"돈가랑","tel":"031-477-5959","addr":"경기도 군포시 당동 134-7,108~110호","indutype":"일반휴게음식 - 일반한식","category":"restaurant"}]},{"lat":"37.356530307","long":"126.94659249","imageIndex":4,"items":[{"name":"돌쇠마님곱창(군포산본점)","tel":"","addr":"경기도 군포시 당동 732-14번지 102호","indutype":"일반휴게음식 - 일반한식","category":"restaurant"}]},{"lat":"37.355915815","long":"126.94292463","imageIndex":4,"items":[{"name":"동원식당","tel":"031-395-3315","addr":"경기도 군포시 당동 858-6번지","indutype":"일반휴게음식 - 일반한식","category":"restaurant"},{"name":"후랭크 치킨","tel":"031-395-9785","addr":"경기도 군포시 당동 858-6번지 101호","indutype":"일반휴게음식 - 스넥","category":"restaurant"}]},{"lat":"37.353529938","long":"126.94661731","imageIndex":4,"items":[{"name":"동춘식당","tel":"031-427-4888","addr":"경기도 군포시 당동 750-27번지 1층 101호","indutype":"일반휴게음식 - 일반한식","category":"restaurant"},{"name":"발빠닥","tel":"031-427-7092","addr":"경기도 군포시 당동 750-27번지 104호 103","indutype":"일반휴게음식 - 일반한식","category":"restaurant"},{"name":"부부순대국","tel":"031-429-9322","addr":"경기도 군포시 당동 750-27번지","indutype":"일반휴게음식 - 일반한식","category":"restaurant"},{"name":"예감쪽갈비","tel":"031-448-3366","addr":"경기도 군포시 당동 750-27번지 102호","indutype":"일반휴게음식 - 일반한식","category":"restaurant"}]},{"lat":"37.351979862","long":"126.94592998","imageIndex":4,"items":[{"name":"동해막회","tel":"031-452-2914","addr":"경기도 군포시 당동 780-1번지 5호","indutype":"일반휴게음식 - 일반한식","category":"restaurant"},{"name":"라모나","tel":"031-452-3113","addr":"경기도 군포시 당동 780-1번지 1층","indutype":"일반휴게음식 - 주점","category":"restaurant"},{"name":"백조","tel":"031-429-2711","addr":"경기도 군포시 당동 780-1번지 1층","indutype":"일반휴게음식 - 주점","category":"restaurant"},{"name":"왕십리옛날소머리국밥","tel":"031-429-1288","addr":"경기도 군포시 당동 780-1번지 1층","indutype":"일반휴게음식 - 일반한식","category":"restaurant"},{"name":"일미식당","tel":"031-424-7427","addr":"경기도 군포시 당동 780-1번지","indutype":"일반휴게음식 - 일반한식","category":"restaurant"}]},{"lat":"37.340835744","long":"126.93195642","imageIndex":4,"items":[{"name":"두봉빵","tel":"031-344-1235","addr":"경기도 군포시 당동 1020번지 삼성마을3단지 상가동 1층 102호","indutype":"일반휴게음식 - 서양음식","category":"restaurant"}]},{"lat":"37.355222868","long":"126.94459566","imageIndex":4,"items":[{"name":"두부고을","tel":"031-457-7730","addr":"경기도 군포시 당동 738-36,37(1층)","indutype":"일반휴게음식 - 일반한식","category":"restaurant"}]},{"lat":"37.352502941","long":"126.94695667","imageIndex":4,"items":[{"name":"둥지","tel":"031-427-6883","addr":"경기도 군포시 당동 779-2번지 1층 일부","indutype":"일반휴게음식 - 주점","category":"restaurant"},{"name":"불타는깡통","tel":"031-429-5880","addr":"경기도 군포시 당동 779-2번지","indutype":"일반휴게음식 - 일반한식","category":"restaurant"},{"name":"애인","tel":"031-427-4089","addr":"경기도 군포시 당동 779-2번지 1층","indutype":"일반휴게음식 - 주점","category":"restaurant"}]},{"lat":"37.348086557","long":"126.94405945","imageIndex":4,"items":[{"name":"디저트어클락","tel":"031-111-1111","addr":"경기도 군포시 당동 904-4번지 경림빌딩 1층 102호","indutype":"일반휴게음식 - 서양음식","category":"restaurant"},{"name":"박가네칡냉면","tel":"031-393-6768","addr":"경기도 군포시 당동 904-4번지 경림빌딩 B101호","indutype":"일반휴게음식 - 일반한식","category":"restaurant"}]},{"lat":"37.352475295","long":"126.94567002","imageIndex":4,"items":[{"name":"디초콜릿커피앤드 군포새마을금고점","tel":"031-111-1111","addr":"경기도 군포시 당동 776-20번지","indutype":"일반휴게음식 - 서양음식","category":"restaurant"}]},{"lat":"37.351726565","long":"126.94386474","imageIndex":4,"items":[{"name":"딜리버리킹(군포점)","tel":"031-427-9240","addr":"경기도 군포시 당동 772-8번지 송일빌딩 1층 일부호","indutype":"일반휴게음식 - 일반한식","category":"restaurant"}]},{"lat":"37.354169459","long":"126.94619921","imageIndex":4,"items":[{"name":"또래또래식당","tel":"031-455-0016","addr":"경기도 군포시 당동 745-9번지","indutype":"일반휴게음식 - 일반한식","category":"restaurant"},{"name":"엄마손맛탕탕탕","tel":"031-417-1888","addr":"경기도 군포시 당동 745-9번지","indutype":"일반휴게음식 - 일반한식","category":"restaurant"},{"name":"패밀리","tel":"02-1577-0000","addr":"경기도 군포시 당동 745-9번지 105호","indutype":"일반휴게음식 - 주점","category":"restaurant"},{"name":"피자헛(군포점)","tel":"031-459-5587","addr":"경기도 군포시 당동 745-9번지 1층","indutype":"일반휴게음식 - 서양음식","category":"restaurant"}]},{"lat":"37.348366124","long":"126.94456711","imageIndex":4,"items":[{"name":"또봉이통닭당동점","tel":"031-345-9299","addr":"경기도 군포시 당동 904-2번지 101호","indutype":"일반휴게음식 - 스넥","category":"restaurant"},{"name":"부흥각","tel":"031-391-7811","addr":"경기도 군포시 당동 904-2번지 1층","indutype":"일반휴게음식 - 중국식","category":"restaurant"},{"name":"숯향기","tel":"031-392-5151","addr":"경기도 군포시 당동 904-2번지 104호","indutype":"일반휴게음식 - 일반한식","category":"restaurant"},{"name":"왕십리순대국","tel":"031-395-0333","addr":"경기도 군포시 당동 904-2번지 1층","indutype":"일반휴게음식 - 일반한식","category":"restaurant"},{"name":"항아리보쌈","tel":"031-399-0117","addr":"경기도 군포시 당동 904-2번지 104호","indutype":"일반휴게음식 - 일반한식","category":"restaurant"}]},{"lat":"37.341063688","long":"126.93659431","imageIndex":4,"items":[{"name":"라떼야커피(군포신기점)","tel":"031-393-1326","addr":"경기도 군포시 당동 1031-3번지","indutype":"일반휴게음식 - 서양음식","category":"restaurant"}]},{"lat":"37.352754919","long":"126.94631315","imageIndex":4,"items":[{"name":"라연","tel":"031-458-0558","addr":"경기도 군포시 당동 777-16번지 1층","indutype":"일반휴게음식 - 주점","category":"restaurant"}]},{"lat":"37.352647416","long":"126.94762248","imageIndex":4,"items":[{"name":"란이호프","tel":"","addr":"경기도 군포시 당동 778-6번지","indutype":"일반휴게음식 - 주점","category":"restaurant"},{"name":"블루스카이","tel":"031-477-3199","addr":"경기도 군포시 당동 778-6번지 1층","indutype":"일반휴게음식 - 주점","category":"restaurant"}]},{"lat":"37.353674208","long":"126.94684294","imageIndex":4,"items":[{"name":"람콩레스토랑","tel":"031-477-9285","addr":"경기도 군포시 당동 750-33번지 1층","indutype":"일반휴게음식 - 일반한식","category":"restaurant"},{"name":"일품향오리목","tel":"031-429-5763","addr":"경기도 군포시 당동 750-33번지 1층","indutype":"일반휴게음식 - 일반한식","category":"restaurant"}]},{"lat":"37.351139833","long":"126.94175464","imageIndex":4,"items":[{"name":"레인보우","tel":"031-427-0604","addr":"경기도 군포시 당동 763-20번지 101호","indutype":"일반휴게음식 - 주점","category":"restaurant"}]},{"lat":"37.346698744","long":"126.94356396","imageIndex":4,"items":[{"name":"롯데리아 군포당동점","tel":"031-398-0053","addr":"경기도 군포시 당동 921-2번지 1층","indutype":"일반휴게음식 - 서양음식","category":"restaurant"}]},{"lat":"37.343227249","long":"126.93862375","imageIndex":4,"items":[{"name":"루나리치당동점","tel":"031-393-3383","addr":"경기도 군포시 당동 974-4번지 1층","indutype":"일반휴게음식 - 서양음식","category":"restaurant"}]},{"lat":"37.353202169","long":"126.93986808","imageIndex":4,"items":[{"name":"루나커피 로스터스","tel":"031-454-0451","addr":"경기도 군포시 당동 947-7번지 원촌수리산힐하우스 지층 B01호","indutype":"일반휴게음식 - 서양음식","category":"restaurant"},{"name":"봉산수제만두전골","tel":"031-427-9918","addr":"경기도 군포시 당동 947-7 나동 비02호","indutype":"일반휴게음식 - 스넥","category":"restaurant"},{"name":"주마당","tel":"031-477-4300","addr":"경기도 군포시 당동 947-7번지 원촌수리산힐하우스 B03호","indutype":"일반휴게음식 - 주점","category":"restaurant"}]},{"lat":"37.352223754","long":"126.94722776","imageIndex":4,"items":[{"name":"루비호프","tel":"031-429-0837","addr":"경기도 군포시 당동 778-21번지 1층","indutype":"일반휴게음식 - 주점","category":"restaurant"}]},{"lat":"37.355563371","long":"126.94089323","imageIndex":4,"items":[{"name":"마루마루식당","tel":"031-393-4320","addr":"경기도 군포시 당동 861-6번지 102호","indutype":"일반휴게음식 - 일반한식","category":"restaurant"},{"name":"마음을담은군포점","tel":"031-393-2220","addr":"경기도 군포시 당동 861-6번지 102호","indutype":"일반휴게음식 - 일반한식","category":"restaurant"}]},{"lat":"37.352778602","long":"126.93969913","imageIndex":4,"items":[{"name":"마리푸드","tel":"031-456-9977","addr":"경기도 군포시 당동 948-3번지 대준빌딩 103호","indutype":"일반휴게음식 - 일반한식","category":"restaurant"},{"name":"주현푸드","tel":"031-452-8892","addr":"경기도 군포시 당동 948-3번지 대준빌딩 103호","indutype":"일반휴게음식 - 주점","category":"restaurant"}]},{"lat":"37.347059219","long":"126.94369911","imageIndex":4,"items":[{"name":"마포서서갈비","tel":"031-399-9279","addr":"경기도 군포시 당동 919-6번지 1층","indutype":"일반휴게음식 - 일반한식","category":"restaurant"}]},{"lat":"37.351725726","long":"126.94220562","imageIndex":4,"items":[{"name":"만Food(푸드)","tel":"","addr":"경기도 군포시 당동 769-41번지 102호","indutype":"일반휴게음식 - 일반한식","category":"restaurant"},{"name":"콩알분식","tel":"070-8116-7749","addr":"경기도 군포시 당동 769-41번지","indutype":"일반휴게음식 - 스넥","category":"restaurant"}]},{"lat":"37.352115036","long":"126.94597503","imageIndex":4,"items":[{"name":"만수네갈비집","tel":"031-457-0709","addr":"경기도 군포시 당동 780번지 1층","indutype":"일반휴게음식 - 일반한식","category":"restaurant"},{"name":"재래식영양탕","tel":"031-457-9529","addr":"경기도 군포시 당동 780번지","indutype":"일반휴게음식 - 일반한식","category":"restaurant"},{"name":"진미식당","tel":"031-477-4773","addr":"경기도 군포시 당동 780번지 1층 2호","indutype":"일반휴게음식 - 일반한식","category":"restaurant"}]},{"lat":"37.348338943","long":"126.9442624","imageIndex":4,"items":[{"name":"맛나는코다리다","tel":"031-397-9252","addr":"경기도 군포시 당동 904-3번지 106-108호","indutype":"일반휴게음식 - 일반한식","category":"restaurant"},{"name":"불닭발땡초동대문엽기떡볶이당동점","tel":"031-392-8592","addr":"경기도 군포시 당동 904-3번지 군포벤처텔 103호","indutype":"일반휴게음식 - 일반한식","category":"restaurant"},{"name":"소백산갈비","tel":"031-396-7071","addr":"경기도 군포시 당동 904-3군포벤처텔1층106.107.108호","indutype":"일반휴게음식 - 일반한식","category":"restaurant"}]},{"lat":"37.350618209","long":"126.94365117","imageIndex":4,"items":[{"name":"맛닭꼬(군포당동점)","tel":"031-397-3392","addr":"경기도 군포시 당동 785번지 1층","indutype":"일반휴게음식 - 스넥","category":"restaurant"},{"name":"아이스킹","tel":"031-391-5172","addr":"경기도 군포시 당동 785번지 103호","indutype":"일반휴게음식 - 일반한식","category":"restaurant"}]},{"lat":"37.346058983","long":"126.94348547","imageIndex":4,"items":[{"name":"맥도날드군포당동SKDT점","tel":"070-7209-0557","addr":"경기도 군포시 당동 871-2번지","indutype":"일반휴게음식 - 서양음식","category":"restaurant"}]},{"lat":"37.353476218","long":"126.9473397","imageIndex":4,"items":[{"name":"맥시칸치킨","tel":"031-459-7999","addr":"경기도 군포시 당동 750-18번지 1층","indutype":"일반휴게음식 - 일반한식","category":"restaurant"},{"name":"봉봉분식","tel":"031-474-1002","addr":"경기도 군포시 당동 750-18번지 1층","indutype":"일반휴게음식 - 스넥","category":"restaurant"},{"name":"연희장국집","tel":"031-429-6663","addr":"경기도 군포시 당동 750-18번지 1층 102호","indutype":"일반휴게음식 - 일반한식","category":"restaurant"},{"name":"영광양꼬치","tel":"","addr":"경기도 군포시 당동 750-18번지 1층","indutype":"일반휴게음식 - 일반한식","category":"restaurant"},{"name":"제일황소","tel":"031-451-3006","addr":"경기도 군포시 당동 750-18번지 1층","indutype":"일반휴게음식 - 일반한식","category":"restaurant"},{"name":"쭈이메이","tel":"031-457-3637","addr":"경기도 군포시 당동 750-18번지","indutype":"일반휴게음식 - 주점","category":"restaurant"},{"name":"흐엉빗(Huong Viet)","tel":"031-000-0000","addr":"경기도 군포시 당동 750-18번지 1층","indutype":"일반휴게음식 - 일반한식","category":"restaurant"}]},{"lat":"37.35480954","long":"126.94695496","imageIndex":4,"items":[{"name":"맥심커피호프","tel":"031-427-5171","addr":"경기도 군포시 당동 749번지 지층","indutype":"일반휴게음식 - 주점","category":"restaurant"}]},{"lat":"37.355924369","long":"126.94203294","imageIndex":4,"items":[{"name":"멘짱","tel":"031-398-9990","addr":"경기도 군포시 당동 858번지 1층 103호","indutype":"일반휴게음식 - 일반한식","category":"restaurant"}]},{"lat":"37.346725955","long":"126.94392509","imageIndex":4,"items":[{"name":"명륜수제갈비","tel":"031-391-2525","addr":"경기도 군포시 당동 921-1번지 충무빌딩","indutype":"일반휴게음식 - 일반한식","category":"restaurant"},{"name":"술이좋아","tel":"031-395-1555","addr":"경기도 군포시 당동 921-1번지 충무빌딩 201호","indutype":"일반휴게음식 - 주점","category":"restaurant"},{"name":"전주감자탕","tel":"031-394-7999","addr":"경기도 군포시 당동 921-1번지 충무빌딩 1층","indutype":"일반휴게음식 - 일반한식","category":"restaurant"}]},{"lat":"37.358584464","long":"126.94626362","imageIndex":4,"items":[{"name":"명물식당","tel":"031-429-8343","addr":"경기도 군포시 당동 729-19번지","indutype":"일반휴게음식 - 일반한식","category":"restaurant"}]},{"lat":"37.352030535","long":"126.93928216","imageIndex":4,"items":[{"name":"명아이스","tel":"031-3281-5233","addr":"경기도 군포시 당동 949-1번지 무지개마을마젤리안아파트","indutype":"일반휴게음식 - 스넥","category":"restaurant"},{"name":"수리산랜드호프","tel":"031-453-1100","addr":"경기도 군포시 당동 949-1번지 무지개마을마젤리안아파트 지하1층","indutype":"일반휴게음식 - 주점","category":"restaurant"}]},{"lat":"37.350807709","long":"126.94422663","imageIndex":4,"items":[{"name":"모꼬지","tel":"031-454-7811","addr":"경기도 군포시 당동 771-10번지","indutype":"일반휴게음식 - 주점","category":"restaurant"},{"name":"즉석김밥","tel":"031-459-7874","addr":"경기도 군포시 당동 771-10번지","indutype":"일반휴게음식 - 스넥","category":"restaurant"}]},{"lat":"37.3510321","long":"126.94251092","imageIndex":4,"items":[{"name":"모녀랑분식","tel":"031-399-8585","addr":"경기도 군포시 당동 770-16번지 102호","indutype":"일반휴게음식 - 일반한식","category":"restaurant"},{"name":"올래말래","tel":"031-451-0042","addr":"경기도 군포시 당동 770-16번지","indutype":"일반휴게음식 - 주점","category":"restaurant"}]},{"lat":"37.353168554","long":"126.94459725","imageIndex":4,"items":[{"name":"모다기","tel":"031-452-0220","addr":"경기도 군포시 당동 775번지 1층","indutype":"일반휴게음식 - 주점","category":"restaurant"},{"name":"청년피자 군포점","tel":"031-393-7078","addr":"경기도 군포시 당동 775번지 1층","indutype":"일반휴게음식 - 서양음식","category":"restaurant"}]},{"lat":"37.353115578","long":"126.94684335","imageIndex":4,"items":[{"name":"모야왕족발","tel":"031-458-3777","addr":"경기도 군포시 당동 777-5번지 외1필지","indutype":"일반휴게음식 - 일반한식","category":"restaurant"},{"name":"전라도곱창집","tel":"031-454-2257","addr":"경기도 군포시 당동 777-5번지","indutype":"일반휴게음식 - 일반한식","category":"restaurant"}]},{"lat":"37.352340913","long":"126.9472841","imageIndex":4,"items":[{"name":"물의나라","tel":"031-451-2959","addr":"경기도 군포시 당동 778-22번지 1층","indutype":"일반휴게음식 - 주점","category":"restaurant"},{"name":"최가네보신탕","tel":"031-456-6735","addr":"경기도 군포시 당동 778-22번지","indutype":"일반휴게음식 - 일반한식","category":"restaurant"}]},{"lat":"37.34992518","long":"126.94517536","imageIndex":4,"items":[{"name":"미스터연어","tel":"031-427-8088","addr":"경기도 군포시 당동 901번지 효성타운빌라 1층 102호","indutype":"일반휴게음식 - 일식·회집","category":"restaurant"},{"name":"수니열닭발군포점","tel":"031-1234-1234","addr":"경기도 군포시 당동 901번지 효성타운빌라 1층 104호","indutype":"일반휴게음식 - 일반한식","category":"restaurant"}]},{"lat":"37.351755332","long":"126.94745383","imageIndex":4,"items":[{"name":"민들레","tel":"031-427-9856","addr":"경기도 군포시 당동 783-8번지 1층","indutype":"일반휴게음식 - 주점","category":"restaurant"}]},{"lat":"37.347311834","long":"126.94436478","imageIndex":4,"items":[{"name":"민정이네분식","tel":"","addr":"경기도 군포시 당동 919번지 한국유통내","indutype":"일반휴게음식 - 일반한식","category":"restaurant"},{"name":"쁘띠아르브르","tel":"031-393-0726","addr":"경기도 군포시 당동 919번지 1층","indutype":"일반휴게음식 - 서양음식","category":"restaurant"}]},{"lat":"37.358782725","long":"126.94634248","imageIndex":4,"items":[{"name":"밀키웨이카페(Milkywaycafe)","tel":"031-452-2705","addr":"경기도 군포시 당동 729-21번지 1층","indutype":"일반휴게음식 - 서양음식","category":"restaurant"}]},{"lat":"37.355583518","long":"126.94509202","imageIndex":4,"items":[{"name":"바다천국","tel":"031-346-1259","addr":"경기도 군포시 당동 742-31번지","indutype":"일반휴게음식 - 일식·회집","category":"restaurant"}]},{"lat":"37.35069913","long":"126.94331251","imageIndex":4,"items":[{"name":"바람난촌닭바베큐","tel":"031-389-9222","addr":"경기도 군포시 당동 786-6번지 1층","indutype":"일반휴게음식 - 스넥","category":"restaurant"},{"name":"새암유황오리","tel":"031-399-5292","addr":"경기도 군포시 당동 786-6번지 2층","indutype":"일반휴게음식 - 일반한식","category":"restaurant"}]},{"lat":"37.353394984","long":"126.94703502","imageIndex":4,"items":[{"name":"바르바커피","tel":"031-000-0000","addr":"경기도 군포시 당동 750-21번지 1,2층","indutype":"일반휴게음식 - 서양음식","category":"restaurant"},{"name":"웰빙닭발","tel":"031-429-7264","addr":"경기도 군포시 당동 750-21번지 1층 102호","indutype":"일반휴게음식 - 일반한식","category":"restaurant"},{"name":"호프마을","tel":"031-429-2691","addr":"경기도 군포시 당동 750-21번지","indutype":"일반휴게음식 - 주점","category":"restaurant"}]},{"lat":"37.357034993","long":"126.94684044","imageIndex":4,"items":[{"name":"바베큐보스","tel":"031-477-9222","addr":"경기도 군포시 당동 732-3번지 럭키베스티빌 B동 103호","indutype":"일반휴게음식 - 주점","category":"restaurant"}]},{"lat":"37.353088729","long":"126.94722712","imageIndex":4,"items":[{"name":"바이킹락","tel":"031-451-1102","addr":"경기도 군포시 당동 778번지 1층","indutype":"일반휴게음식 - 주점","category":"restaurant"},{"name":"아이러브참치","tel":"031-454-0235","addr":"경기도 군포시 당동 778번지 2층","indutype":"일반휴게음식 - 일식·회집","category":"restaurant"}]},{"lat":"37.343785971","long":"126.93879256","imageIndex":4,"items":[{"name":"바지락 닭칼국수","tel":"031-000-0000","addr":"경기도 군포시 당동 973-6번지 101호","indutype":"일반휴게음식 - 일반한식","category":"restaurant"}]},{"lat":"37.352646744","long":"126.94620036","imageIndex":4,"items":[{"name":"박가네시골밥상","tel":"031-477-7080","addr":"경기도 군포시 당동 776-3번지","indutype":"일반휴게음식 - 일반한식","category":"restaurant"}]},{"lat":"37.341919591","long":"126.93648071","imageIndex":4,"items":[{"name":"박대박한우생고기","tel":"031-392-9222","addr":"경기도 군포시 당동 1027-5번지","indutype":"일반휴게음식 - 일반한식","category":"restaurant"}]},{"lat":"37.351700153","long":"126.94511757","imageIndex":4,"items":[{"name":"박은자맛사랑","tel":"031-454-2451","addr":"경기도 군포시 당동 784번지 2층 201호","indutype":"일반휴게음식 - 일반한식","category":"restaurant"},{"name":"삼동식당","tel":"031-465-1542","addr":"경기도 군포시 당동 784번지 지층","indutype":"일반휴게음식 - 일반한식","category":"restaurant"}]},{"lat":"37.351755226","long":"126.9472281","imageIndex":4,"items":[{"name":"발렌타인","tel":"031-477-0504","addr":"경기도 군포시 당동 783번지 보보스오피스텔 102호","indutype":"일반휴게음식 - 주점","category":"restaurant"}]},{"lat":"37.341090215","long":"126.93570278","imageIndex":4,"items":[{"name":"백기짬뽕","tel":"070-6253-3253","addr":"경기도 군포시 당동 1029-1번지 101호","indutype":"일반휴게음식 - 중국식","category":"restaurant"}]},{"lat":"37.35339492","long":"126.94689958","imageIndex":4,"items":[{"name":"베트남쌀국수","tel":"070-4254-0160","addr":"경기도 군포시 당동 750-22번지 지층","indutype":"일반휴게음식 - 일반한식","category":"restaurant"},{"name":"비어파크","tel":"031-477-3528","addr":"경기도 군포시 당동 750-22번지 1층","indutype":"일반휴게음식 - 주점","category":"restaurant"}]},{"lat":"37.350779856","long":"126.94259012","imageIndex":4,"items":[{"name":"베트남쌀국수","tel":"","addr":"경기도 군포시 당동 786번지 1층","indutype":"일반휴게음식 - 일반한식","category":"restaurant"}]},{"lat":"37.353395063","long":"126.94720432","imageIndex":4,"items":[{"name":"병천토속순대","tel":"031-453-5823","addr":"경기도 군포시 당동 750-20번지 102호","indutype":"일반휴게음식 - 일반한식","category":"restaurant"}]},{"lat":"37.35400701","long":"126.94564628","imageIndex":4,"items":[{"name":"보물섬","tel":"031-397-8934","addr":"경기도 군포시 당동 751-1번지 1층","indutype":"일반휴게음식 - 주점","category":"restaurant"}]},{"lat":"37.341369812","long":"126.93619907","imageIndex":4,"items":[{"name":"보싸마보싸마","tel":"031-396-5222","addr":"경기도 군포시 당동 1030-3번지 1층 101호","indutype":"일반휴게음식 - 일반한식","category":"restaurant"}]},{"lat":"37.353809424","long":"126.94697828","imageIndex":4,"items":[{"name":"보통집","tel":"031-457-7211","addr":"경기도 군포시 당동 750-4번지 외2필지 1층 1호","indutype":"일반휴게음식 - 일반한식","category":"restaurant"},{"name":"불돼지식당","tel":"031-477-9233","addr":"경기도 군포시 당동 750-4번지 102호","indutype":"일반휴게음식 - 일반한식","category":"restaurant"},{"name":"전주집","tel":"031-425-1156","addr":"경기도 군포시 당동 750-4번지 1층","indutype":"일반휴게음식 - 일반한식","category":"restaurant"}]},{"lat":"37.359116577","long":"126.94734683","imageIndex":4,"items":[{"name":"뵈뵈하우스","tel":"031-429-5828","addr":"경기도 군포시 당동 835-65번지","indutype":"일반휴게음식 - 스넥","category":"restaurant"}]},{"lat":"37.355527478","long":"126.94117544","imageIndex":4,"items":[{"name":"부산케키","tel":"031-396-1960","addr":"경기도 군포시 당동 861-8번지 1층","indutype":"일반휴게음식 - 서양음식","category":"restaurant"}]},{"lat":"37.346194797","long":"126.94481707","imageIndex":4,"items":[{"name":"분식회관","tel":"031-397-0909","addr":"경기도 군포시 당동 922-30번지 은하프라자 102호","indutype":"일반휴게음식 - 스넥","category":"restaurant"},{"name":"비어캐빈","tel":"031-399-7041","addr":"경기도 군포시 당동 922-30번지 은하프라자 106동 107호","indutype":"일반휴게음식 - 주점","category":"restaurant"},{"name":"빽다방군포당정역은하점","tel":"031-399-0452","addr":"경기도 군포시 당동 922-30번지 은하프라자 103호","indutype":"일반휴게음식 - 서양음식","category":"restaurant"},{"name":"조은참치","tel":"031-399-9930","addr":"경기도 군포시 당동 922-30번지 은하프라자 1층 107호","indutype":"일반휴게음식 - 일식·회집","category":"restaurant"},{"name":"차이룡","tel":"031-399-8289","addr":"경기도 군포시 당동 922-30번지 은하프라자 2층 201호","indutype":"일반휴게음식 - 중국식","category":"restaurant"},{"name":"통닭연구소","tel":"","addr":"경기도 군포시 당동 922-30번지 은하프라자 1층 101호","indutype":"일반휴게음식 - 스넥","category":"restaurant"}]},{"lat":"37.351645709","long":"126.94433884","imageIndex":4,"items":[{"name":"불맛난매운족발","tel":"031-344-1160","addr":"경기도 군포시 당동 772-13번지 1층","indutype":"일반휴게음식 - 일반한식","category":"restaurant"}]},{"lat":"37.350501841","long":"126.94519749","imageIndex":4,"items":[{"name":"빛고을식당","tel":"031-451-0694","addr":"경기도 군포시 당동 898-5번지","indutype":"일반휴게음식 - 일반한식","category":"restaurant"}]},{"lat":"37.353395191","long":"126.9474752","imageIndex":4,"items":[{"name":"상록수다방","tel":"031-456-7177","addr":"경기도 군포시 당동 750-17번지 지층","indutype":"일반휴게음식 - 서양음식","category":"restaurant"},{"name":"인생뭐있어!","tel":"031-427-7258","addr":"경기도 군포시 당동 750-17번지 2층","indutype":"일반휴게음식 - 일반한식","category":"restaurant"}]},{"lat":"37.353421015","long":"126.94495823","imageIndex":4,"items":[{"name":"새로커피","tel":"","addr":"경기도 군포시 당동 752-14번지 1층","indutype":"일반휴게음식 - 서양음식","category":"restaurant"}]},{"lat":"37.353061884","long":"126.94762217","imageIndex":4,"items":[{"name":"생방송군포역점","tel":"031-4277-822","addr":"경기도 군포시 당동 778-3번지","indutype":"일반휴게음식 - 주점","category":"restaurant"},{"name":"이가네한방족발","tel":"031-477-3222","addr":"경기도 군포시 당동 778-3번지 1층","indutype":"일반휴게음식 - 일반한식","category":"restaurant"},{"name":"황금식당","tel":"031-455-8859","addr":"경기도 군포시 당동 778-3번지","indutype":"일반휴게음식 - 일반한식","category":"restaurant"}]},{"lat":"37.345363595","long":"126.9403712","imageIndex":4,"items":[{"name":"샤브샤브버섯칼국수","tel":"031-399-8799","addr":"경기도 군포시 당동 966-8번지 (23블럭4롯트인호빌딩1층)","indutype":"일반휴게음식 - 일반한식","category":"restaurant"}]},{"lat":"37.352728508","long":"126.94762242","imageIndex":4,"items":[{"name":"서해집","tel":"031-451-1869","addr":"경기도 군포시 당동 778-5번지","indutype":"일반휴게음식 - 일반한식","category":"restaurant"},{"name":"오딧세이","tel":"031-456-2873","addr":"경기도 군포시 당동 778-5번지 1층","indutype":"일반휴게음식 - 주점","category":"restaurant"},{"name":"우리끼리","tel":"031-427-6360","addr":"경기도 군포시 당동 778-5번지 2층","indutype":"일반휴게음식 - 주점","category":"restaurant"},{"name":"조선족뀀점","tel":"031-454-1788","addr":"경기도 군포시 당동 778-5번지 103호","indutype":"일반휴게음식 - 일반한식","category":"restaurant"}]},{"lat":"37.352195452","long":"126.94458672","imageIndex":4,"items":[{"name":"세미김밥","tel":"031-429-6333","addr":"경기도 군포시 당동 775-17번지 1층","indutype":"일반휴게음식 - 스넥","category":"restaurant"},{"name":"한국&베트남식당","tel":"02-1577-0000","addr":"경기도 군포시 당동 775-17번지","indutype":"일반휴게음식 - 일반한식","category":"restaurant"}]},{"lat":"37.359143276","long":"126.94664698","imageIndex":4,"items":[{"name":"소문난감자탕뼈해장국","tel":"031-394-8228","addr":"경기도 군포시 당동 835-90번지 1층","indutype":"일반휴게음식 - 일반한식","category":"restaurant"},{"name":"참맛있는집","tel":"031-394-8228","addr":"경기도 군포시 당동 835-90번지 1층","indutype":"일반휴게음식 - 일반한식","category":"restaurant"}]},{"lat":"37.353168604","long":"126.94469883","imageIndex":4,"items":[{"name":"솥뚜껑바베큐통닭","tel":"031-429-9996","addr":"경기도 군포시 당동 775-1번지","indutype":"일반휴게음식 - 주점","category":"restaurant"},{"name":"행복한밥집","tel":"","addr":"경기도 군포시 당동 775-1번지 1층 일부호","indutype":"일반휴게음식 - 일반한식","category":"restaurant"}]},{"lat":"37.350978177","long":"126.94278183","imageIndex":4,"items":[{"name":"수내닭꼬치군포당동점","tel":"031-429-9294","addr":"경기도 군포시 당동 770-13번지 1층","indutype":"일반휴게음식 - 일반한식","category":"restaurant"},{"name":"스마일명품찹쌀꽈배기","tel":"031-427-0054","addr":"경기도 군포시 당동 770-13번지 1층 103호","indutype":"일반휴게음식 - 스넥","category":"restaurant"},{"name":"큰손꼬마김밥","tel":"031-454-7274","addr":"경기도 군포시 당동 770-13번지","indutype":"일반휴게음식 - 스넥","category":"restaurant"}]},{"lat":"37.353728492","long":"126.94731694","imageIndex":4,"items":[{"name":"순대곱창볶음","tel":"031-452-2305","addr":"경기도 군포시 당동 750-7번지 대성빌딩 1층","indutype":"일반휴게음식 - 일반한식","category":"restaurant"}]},{"lat":"37.353394829","long":"126.9467077","imageIndex":4,"items":[{"name":"술있는마을","tel":"031-405-8508","addr":"경기도 군포시 당동 750-24번지 2층","indutype":"일반휴게음식 - 주점","category":"restaurant"},{"name":"육회지존 (군포역점)","tel":"031-427-6927","addr":"경기도 군포시 당동 750-24번지 1층 나호","indutype":"일반휴게음식 - 일반한식","category":"restaurant"},{"name":"쿨호프(COOL)","tel":"031-457-1773","addr":"경기도 군포시 당동 750-24번지","indutype":"일반휴게음식 - 주점","category":"restaurant"}]},{"lat":"37.353916313","long":"126.94442737","imageIndex":4,"items":[{"name":"쉐프돼지 군포점","tel":"031-427-9574","addr":"경기도 군포시 당동 754-7번지 1호","indutype":"일반휴게음식 - 일반한식","category":"restaurant"}]},{"lat":"37.351250132","long":"126.9461224","imageIndex":4,"items":[{"name":"쉐프의연구소","tel":"031-397-8233","addr":"경기도 군포시 당동 781-10번지 1층","indutype":"일반휴게음식 - 일반한식","category":"restaurant"}]},{"lat":"37.346393263","long":"126.94531349","imageIndex":4,"items":[{"name":"스시네코","tel":"","addr":"경기도 군포시 당동 922-3번지 정명프라자 1층","indutype":"일반휴게음식 - 일식·회집","category":"restaurant"},{"name":"정명(잔비어)","tel":"031-398-9959","addr":"경기도 군포시 당동 922-3번지","indutype":"일반휴게음식 - 주점","category":"restaurant"},{"name":"황제해물포차","tel":"031-393-4209","addr":"경기도 군포시 당동 922-3번지 정명프라자 1층","indutype":"일반휴게음식 - 일반한식","category":"restaurant"}]},{"lat":"37.359611685","long":"126.9463983","imageIndex":4,"items":[{"name":"스윗테이블","tel":"","addr":"경기도 군포시 당동 835-78번지 101호","indutype":"일반휴게음식 - 일반한식","category":"restaurant"},{"name":"시골밥상","tel":"031-427-0874","addr":"경기도 군포시 당동 835-78번지 2층 1호","indutype":"일반휴게음식 - 일반한식","category":"restaurant"}]},{"lat":"37.341450002","long":"126.9346191","imageIndex":4,"items":[{"name":"스토리지","tel":"031-396-9200","addr":"경기도 군포시 당동 1024번지 삼성마을1단지 101호","indutype":"일반휴게음식 - 스넥","category":"restaurant"}]},{"lat":"37.354583969","long":"126.9462892","imageIndex":4,"items":[{"name":"스파게티스토리","tel":"031-429-0034","addr":"경기도 군포시 당동 745-5번지 한림오피스텔 102호","indutype":"일반휴게음식 - 서양음식","category":"restaurant"}]},{"lat":"37.344669459","long":"126.93970593","imageIndex":4,"items":[{"name":"시골집","tel":"031-319-7018","addr":"경기도 군포시 당동 966-12번지 대림프라자 1층 103,104호","indutype":"일반휴게음식 - 일반한식","category":"restaurant"}]},{"lat":"37.353809253","long":"126.9466171","imageIndex":4,"items":[{"name":"시장파전","tel":"031-453-4400","addr":"경기도 군포시 당동 750번지 1층","indutype":"일반휴게음식 - 주점","category":"restaurant"}]},{"lat":"37.355502777","long":"126.94581445","imageIndex":4,"items":[{"name":"신세대분식","tel":"031-456-6449","addr":"경기도 군포시 당동 742-18번지","indutype":"일반휴게음식 - 스넥","category":"restaurant"}]},{"lat":"37.352755209","long":"126.94692263","imageIndex":4,"items":[{"name":"신장미생맥주","tel":"031-477-0858","addr":"경기도 군포시 당동 777-8번지","indutype":"일반휴게음식 - 주점","category":"restaurant"},{"name":"주전자","tel":"031-454-8251","addr":"경기도 군포시 당동 777-8번지","indutype":"일반휴게음식 - 주점","category":"restaurant"},{"name":"천지","tel":"031-477-0858","addr":"경기도 군포시 당동 777-8번지 1층","indutype":"일반휴게음식 - 주점","category":"restaurant"},{"name":"천지","tel":"031-477-0858","addr":"경기도 군포시 당동 777-8번지 1층","indutype":"일반휴게음식 - 주점","category":"restaurant"},{"name":"풍천숯불갈비","tel":"031-454-7900","addr":"경기도 군포시 당동 777-8번지 1층","indutype":"일반휴게음식 - 일반한식","category":"restaurant"}]},{"lat":"37.345500545","long":"126.94386962","imageIndex":4,"items":[{"name":"신전떡볶이 당동점","tel":"031-399-8288","addr":"경기도 군포시 당동 872-5번지 무광프라자 102호","indutype":"일반휴게음식 - 스넥","category":"restaurant"},{"name":"차차커피하우스","tel":"031-394-0002","addr":"경기도 군포시 당동 872-5번지 무광프라자 104호","indutype":"일반휴게음식 - 서양음식","category":"restaurant"}]},{"lat":"37.351005127","long":"126.9426238","imageIndex":4,"items":[{"name":"싸오타이포차","tel":"031-427-9257","addr":"경기도 군포시 당동 770-17번지","indutype":"일반휴게음식 - 주점","category":"restaurant"},{"name":"싸오타이포차","tel":"031-427-9257","addr":"경기도 군포시 당동 770-17번지 1층","indutype":"일반휴게음식 - 일반한식","category":"restaurant"}]},{"lat":"37.35922426","long":"126.94642117","imageIndex":4,"items":[{"name":"썸머타임","tel":"031-454-2555","addr":"경기도 군포시 당동 835-76번지 A동 101호(1층)","indutype":"일반휴게음식 - 주점","category":"restaurant"}]},{"lat":"37.351751414","long":"126.93964356","imageIndex":4,"items":[{"name":"쏭스클럽핫도그수원조원점","tel":"031-303-9824","addr":"경기도 군포시 당동 760-7번지 1층 101호","indutype":"일반휴게음식 - 서양음식","category":"restaurant"}]},{"lat":"37.342063595","long":"126.93619845","imageIndex":4,"items":[{"name":"아라리요","tel":"031-393-0045","addr":"경기도 군포시 당동 1027-3번지 1층 101호","indutype":"일반휴게음식 - 일반한식","category":"restaurant"}]},{"lat":"37.353781784","long":"126.94570289","imageIndex":4,"items":[{"name":"안다미로","tel":"031-455-7395","addr":"경기도 군포시 당동 751-11번지 1층","indutype":"일반휴게음식 - 서양음식","category":"restaurant"}]},{"lat":"37.351980596","long":"126.94747624","imageIndex":4,"items":[{"name":"안부자닭갈비","tel":"031-454-5111","addr":"경기도 군포시 당동 778-14번지","indutype":"일반휴게음식 - 일반한식","category":"restaurant"}]},{"lat":"37.355502712","long":"126.94567901","imageIndex":4,"items":[{"name":"안스까페","tel":"031-429-0528","addr":"경기도 군포시 당동 742-19번지 1층 102호","indutype":"일반휴게음식 - 서양음식","category":"restaurant"}]},{"lat":"37.352340758","long":"126.94695679","imageIndex":4,"items":[{"name":"앙뚜","tel":"031-456-9667","addr":"경기도 군포시 당동 779-3번지 1동","indutype":"일반휴게음식 - 일반한식","category":"restaurant"}]},{"lat":"37.34616786","long":"126.94500895","imageIndex":4,"items":[{"name":"애플김밥","tel":"031-397-3777","addr":"경기도 군포시 당동 922-29번지 군포프라자 101호","indutype":"일반휴게음식 - 스넥","category":"restaurant"}]},{"lat":"37.350727423","long":"126.9458745","imageIndex":4,"items":[{"name":"양지커피앤호프","tel":"031-452-0551","addr":"경기도 군포시 당동 783-58번지 2층","indutype":"일반휴게음식 - 서양음식","category":"restaurant"}]},{"lat":"37.354007844","long":"126.94739574","imageIndex":4,"items":[{"name":"어머니손만두집","tel":"031-427-1169","addr":"경기도 군포시 당동 749-17번지 1층 일부호","indutype":"일반휴게음식 - 일반한식","category":"restaurant"}]},{"lat":"37.352700175","long":"126.94490235","imageIndex":4,"items":[{"name":"어탕철렵국민물매운탕","tel":"031-472-8219","addr":"경기도 군포시 당동 775-11번지 1층","indutype":"일반휴게음식 - 일반한식","category":"restaurant"}]},{"lat":"37.354088712","long":"126.94692164","imageIndex":4,"items":[{"name":"어흥떡볶이","tel":"","addr":"경기도 군포시 당동 749-41번지 1층 D-1호일부","indutype":"일반휴게음식 - 스넥","category":"restaurant"}]},{"lat":"37.355393054","long":"126.94258643","imageIndex":4,"items":[{"name":"엄마손밥상","tel":"031-397-3355","addr":"경기도 군포시 당동 862-8번지 1층","indutype":"일반휴게음식 - 일반한식","category":"restaurant"}]},{"lat":"37.349364792","long":"126.94167707","imageIndex":4,"items":[{"name":"엉클파닭","tel":"031-394-7857","addr":"경기도 군포시 당동 792-31번지 1층","indutype":"일반휴게음식 - 주점","category":"restaurant"}]},{"lat":"37.352282838","long":"126.9393158","imageIndex":4,"items":[{"name":"에스빔브런치카페","tel":"031-456-8899","addr":"경기도 군포시 당동 948-5번지 지층","indutype":"일반휴게음식 - 서양음식","category":"restaurant"}]},{"lat":"37.354638331","long":"126.94692123","imageIndex":4,"items":[{"name":"엔돌핀","tel":"031-395-1086","addr":"경기도 군포시 당동 749-28번지 지층","indutype":"일반휴게음식 - 주점","category":"restaurant"}]},{"lat":"37.347500637","long":"126.94354076","imageIndex":4,"items":[{"name":"엔제리너스","tel":"031-393-8812","addr":"경기도 군포시 당동 920-1번지 1층","indutype":"일반휴게음식 - 서양음식","category":"restaurant"}]},{"lat":"37.353980062","long":"126.9458156","imageIndex":4,"items":[{"name":"연향양꼬치","tel":"031-429-9555","addr":"경기도 군포시 당동 751-3번지 1층","indutype":"일반휴게음식 - 일반한식","category":"restaurant"},{"name":"푸른식당","tel":"031-451-8281","addr":"경기도 군포시 당동 751-3번지 1층","indutype":"일반휴게음식 - 일반한식","category":"restaurant"}]},{"lat":"37.350003685","long":"126.94009648","imageIndex":4,"items":[{"name":"영빈관","tel":"031-456-1122","addr":"경기도 군포시 당동 951-6번지 남광팰리스 지하1층","indutype":"일반휴게음식 - 중국식","category":"restaurant"}]},{"lat":"37.354143112","long":"126.94764396","imageIndex":4,"items":[{"name":"영주식당","tel":"031-453-1768","addr":"경기도 군포시 당동 749-15번지 1층","indutype":"일반휴게음식 - 일반한식","category":"restaurant"}]},{"lat":"37.347618074","long":"126.94415011","imageIndex":4,"items":[{"name":"예산수제유가네국수","tel":"031-398-0460","addr":"경기도 군포시 당동 905-3번지","indutype":"일반휴게음식 - 일반한식","category":"restaurant"},{"name":"청룡각","tel":"031-399-6191","addr":"경기도 군포시 당동 905-3번지 지층","indutype":"일반휴게음식 - 중국식","category":"restaurant"},{"name":"피니치니","tel":"031-393-8882","addr":"경기도 군포시 당동 905-3번지 1층","indutype":"일반휴게음식 - 일반한식","category":"restaurant"},{"name":"홍대불닭발","tel":"031-398-0460","addr":"경기도 군포시 당동 905-3번지 1층","indutype":"일반휴게음식 - 일반한식","category":"restaurant"}]},{"lat":"37.349392991","long":"126.94397943","imageIndex":4,"items":[{"name":"오병이어쌀찐빵","tel":"031-391-5052","addr":"경기도 군포시 당동 794-1번지","indutype":"일반휴게음식 - 일반한식","category":"restaurant"}]},{"lat":"37.353061831","long":"126.94750931","imageIndex":4,"items":[{"name":"오삼파","tel":"031-429-0538","addr":"경기도 군포시 당동 778-2번지 1층","indutype":"일반휴게음식 - 일반한식","category":"restaurant"},{"name":"차와술이 딱이야","tel":"031-427-3766","addr":"경기도 군포시 당동 778-2번지 3층","indutype":"일반휴게음식 - 서양음식","category":"restaurant"}]},{"lat":"37.341973276","long":"126.93581484","imageIndex":4,"items":[{"name":"오프닝(OPENING)","tel":"070-7517-1249","addr":"경기도 군포시 당동 1028번지 1층 101호","indutype":"일반휴게음식 - 서양음식","category":"restaurant"}]},{"lat":"37.358250818","long":"126.9456995","imageIndex":4,"items":[{"name":"옥돌돼지갈비","tel":"031-453-6978","addr":"경기도 군포시 당동 836-11번지 1층","indutype":"일반휴게음식 - 일반한식","category":"restaurant"}]},{"lat":"37.355727514","long":"126.94475329","imageIndex":4,"items":[{"name":"옴마아르빠","tel":"031-477-0101","addr":"경기도 군포시 당동 740-20번지 102호","indutype":"일반휴게음식 - 일반한식","category":"restaurant"},{"name":"화랑","tel":"031-398-0343","addr":"경기도 군포시 당동 740-20번지 1층","indutype":"일반휴게음식 - 중국식","category":"restaurant"}]},{"lat":"37.352890415","long":"126.94703539","imageIndex":4,"items":[{"name":"왕십리고향곱창","tel":"031-456-7775","addr":"경기도 군포시 당동 777-30번지 1층","indutype":"일반휴게음식 - 일반한식","category":"restaurant"}]},{"lat":"37.358944908","long":"126.94634236","imageIndex":4,"items":[{"name":"왕치킨","tel":"031-458-5026","addr":"경기도 군포시 당동 729번지","indutype":"일반휴게음식 - 주점","category":"restaurant"}]},{"lat":"37.359476533","long":"126.9463984","imageIndex":4,"items":[{"name":"요미키친","tel":"070-4063-1812","addr":"경기도 군포시 당동 835-77번지 1층 101호","indutype":"일반휴게음식 - 일반한식","category":"restaurant"}]},{"lat":"37.342144629","long":"126.93609682","imageIndex":4,"items":[{"name":"우렁각시","tel":"031-000-0000","addr":"경기도 군포시 당동 1027-2번지 1층","indutype":"일반휴게음식 - 일반한식","category":"restaurant"}]},{"lat":"37.35300752","long":"126.94697887","imageIndex":4,"items":[{"name":"우리풍천장어","tel":"031-429-9008","addr":"경기도 군포시 당동 777-7번지 1층","indutype":"일반휴게음식 - 일반한식","category":"restaurant"}]},{"lat":"37.34130744","long":"126.93745175","imageIndex":4,"items":[{"name":"원생대구탕","tel":"031-451-2400","addr":"경기도 군포시 당동 1033-5번지 1층","indutype":"일반휴게음식 - 일반한식","category":"restaurant"}]},{"lat":"37.35398017","long":"126.94604134","imageIndex":4,"items":[{"name":"원조집","tel":"031-457-7955","addr":"경기도 군포시 당동 751-5번지 1층","indutype":"일반휴게음식 - 일반한식","category":"restaurant"}]},{"lat":"37.356891208","long":"126.94764194","imageIndex":4,"items":[{"name":"웨일즈빈군포직영점","tel":"","addr":"경기도 군포시 당동 747-4번지 102,103,104호","indutype":"일반휴게음식 - 서양음식","category":"restaurant"}]},{"lat":"37.348528644","long":"126.94525543","imageIndex":4,"items":[{"name":"유담고깃집","tel":"031-464-5288","addr":"경기도 군포시 당동 906-2번지 제일빌라 102호","indutype":"일반휴게음식 - 일반한식","category":"restaurant"}]},{"lat":"37.351085987","long":"126.94217228","imageIndex":4,"items":[{"name":"윤대감참숯불갈비","tel":"031-427-9290","addr":"경기도 군포시 당동 769-27번지 1층","indutype":"일반휴게음식 - 일반한식","category":"restaurant"},{"name":"좋은데이","tel":"031-226-4025","addr":"경기도 군포시 당동 769-27번지 1층 102호","indutype":"일반휴게음식 - 주점","category":"restaurant"}]},{"lat":"37.353980235","long":"126.94617678","imageIndex":4,"items":[{"name":"은하수호프","tel":"031-457-3311","addr":"경기도 군포시 당동 751-6번지 지층","indutype":"일반휴게음식 - 주점","category":"restaurant"}]},{"lat":"37.357422653","long":"126.94731422","imageIndex":4,"items":[{"name":"음매한우소머리","tel":"031-457-6095","addr":"경기도 군포시 당동 731-9번지 외2필지","indutype":"일반휴게음식 - 일반한식","category":"restaurant"}]},{"lat":"37.346923748","long":"126.94306721","imageIndex":4,"items":[{"name":"응답하라멍멍이들","tel":"031-398-0714","addr":"경기도 군포시 당동 920-7번지 동협빌딩 201호","indutype":"일반휴게음식 - 서양음식","category":"restaurant"},{"name":"쿡스마일 (만두&찐빵)","tel":"031-395-4410","addr":"경기도 군포시 당동 920-7번지 동협타워 101호","indutype":"일반휴게음식 - 일반한식","category":"restaurant"}]},{"lat":"37.353836046","long":"126.94612046","imageIndex":4,"items":[{"name":"이디야 군포역점","tel":"031-451-3331","addr":"경기도 군포시 당동 751-7번지 1층","indutype":"일반휴게음식 - 서양음식","category":"restaurant"},{"name":"천풍","tel":"031-456-8838","addr":"경기도 군포시 당동 751-7번지 2층","indutype":"일반휴게음식 - 중국식","category":"restaurant"}]},{"lat":"37.352503254","long":"126.94762258","imageIndex":4,"items":[{"name":"이재격맛짱조개마을","tel":"031-427-0585","addr":"경기도 군포시 당동 778-7번지 1층","indutype":"일반휴게음식 - 일반한식","category":"restaurant"}]},{"lat":"37.346500741","long":"126.94400426","imageIndex":4,"items":[{"name":"이정래식당당동점","tel":"031-394-2354","addr":"경기도 군포시 당동 921-4번지 1층","indutype":"일반휴게음식 - 일반한식","category":"restaurant"}]},{"lat":"37.353674574","long":"126.94762173","imageIndex":4,"items":[{"name":"이조숯불갈비","tel":"031-453-7272","addr":"경기도 군포시 당동 750-11번지","indutype":"일반휴게음식 - 일반한식","category":"restaurant"}]},{"lat":"37.353421779","long":"126.94653838","imageIndex":4,"items":[{"name":"일(1)커피숍","tel":"031-429-6054","addr":"경기도 군포시 당동 750-25번지 지하","indutype":"일반휴게음식 - 주점","category":"restaurant"},{"name":"청사초롱주막골","tel":"031-452-0280","addr":"경기도 군포시 당동 750-25번지 1층","indutype":"일반휴게음식 - 일반한식","category":"restaurant"},{"name":"청사초롱주막골","tel":"031-452-0281","addr":"경기도 군포시 당동 750-25번지 1층","indutype":"일반휴게음식 - 일반한식","category":"restaurant"}]},{"lat":"37.343974908","long":"126.93828456","imageIndex":4,"items":[{"name":"자가제빵선명희피자(군포점)","tel":"031-399-6007","addr":"경기도 군포시 당동 974-1번지 1층","indutype":"일반휴게음식 - 주점","category":"restaurant"}]},{"lat":"37.351700531","long":"126.94589634","imageIndex":4,"items":[{"name":"자매식당","tel":"070-7616-5478","addr":"경기도 군포시 당동 781번지 당동종합상가아파트 105호","indutype":"일반휴게음식 - 일반한식","category":"restaurant"}]},{"lat":"37.341451621","long":"126.93748548","imageIndex":4,"items":[{"name":"자성화맛집코다리네 (신기점)","tel":"031-398-9592","addr":"경기도 군포시 당동 1033-6번지 마이다스빌 101호","indutype":"일반휴게음식 - 일반한식","category":"restaurant"}]},{"lat":"37.344254871","long":"126.93948057","imageIndex":4,"items":[{"name":"자성화맛집코다리네(본관)","tel":"031-399-9592","addr":"경기도 군포시 당동 973-9번지 1층","indutype":"일반휴게음식 - 일반한식","category":"restaurant"}]},{"lat":"37.346672688","long":"126.94553899","imageIndex":4,"items":[{"name":"장구이","tel":"031-398-9255","addr":"경기도 군포시 당동 916-6번지","indutype":"일반휴게음식 - 주점","category":"restaurant"}]},{"lat":"37.350808351","long":"126.94553585","imageIndex":4,"items":[{"name":"전주식당","tel":"031-427-0037","addr":"경기도 군포시 당동 783-61번지 극동군포빌딩 101호","indutype":"일반휴게음식 - 일반한식","category":"restaurant"},{"name":"피쉬콜라보","tel":"031-427-0028","addr":"경기도 군포시 당동 783-61번지 1층","indutype":"일반휴게음식 - 일식·회집","category":"restaurant"}]},{"lat":"37.356755652","long":"126.94678421","imageIndex":4,"items":[{"name":"정성담푸드(무지개요양원)","tel":"031-451-4678","addr":"경기도 군포시 당동 732-12번지","indutype":"일반휴게음식 - 위탁급식업","category":"restaurant"}]},{"lat":"37.343975013","long":"126.93847641","imageIndex":4,"items":[{"name":"조삼시대","tel":"","addr":"경기도 군포시 당동 974-5번지 죽산빌딩 1층","indutype":"일반휴게음식 - 일반한식","category":"restaurant"}]},{"lat":"37.350726092","long":"126.94317706","imageIndex":4,"items":[{"name":"조아조아포차","tel":"031-393-5208","addr":"경기도 군포시 당동 786-5번지 동아빌라 102호","indutype":"일반휴게음식 - 일반한식","category":"restaurant"},{"name":"피자굼터","tel":"031-391-1008","addr":"경기도 군포시 당동 786-5번지 동아다세대주택 101호","indutype":"일반휴게음식 - 서양음식","category":"restaurant"}]},{"lat":"37.350590997","long":"126.94329003","imageIndex":4,"items":[{"name":"좋구만","tel":"031-395-9292","addr":"경기도 군포시 당동 786-7번지","indutype":"일반휴게음식 - 일반한식","category":"restaurant"}]},{"lat":"37.348806562","long":"126.94245627","imageIndex":4,"items":[{"name":"주주돈까스","tel":"031-394-7787","addr":"경기도 군포시 당동 792-15번지","indutype":"일반휴게음식 - 서양음식","category":"restaurant"}]},{"lat":"37.341477762","long":"126.93589428","imageIndex":4,"items":[{"name":"참살이 쌈밥","tel":"031-397-0677","addr":"경기도 군포시 당동 1028-7번지 1층","indutype":"일반휴게음식 - 일반한식","category":"restaurant"}]},{"lat":"37.354503168","long":"126.94689875","imageIndex":4,"items":[{"name":"채원김밥","tel":"031-455-2236","addr":"경기도 군포시 당동 749-27번지 1층","indutype":"일반휴게음식 - 스넥","category":"restaurant"}]},{"lat":"37.346592116","long":"126.94662248","imageIndex":4,"items":[{"name":"처갓집양념치킨군포점","tel":"031-392-9295","addr":"경기도 군포시 당동 914-5번지","indutype":"일반휴게음식 - 스넥","category":"restaurant"}]},{"lat":"37.340892822","long":"126.93718128","imageIndex":4,"items":[{"name":"천손","tel":"031-395-7152","addr":"경기도 군포시 당동 1034번지 102,103,104호","indutype":"일반휴게음식 - 중국식","category":"restaurant"}]},{"lat":"37.346833732","long":"126.94323657","imageIndex":4,"items":[{"name":"청기와집뼈감자탕","tel":"031-391-7111","addr":"경기도 군포시 당동 920-6번지 1층","indutype":"일반휴게음식 - 일반한식","category":"restaurant"}]},{"lat":"37.35308843","long":"126.94659506","imageIndex":4,"items":[{"name":"청진동해장국","tel":"031-456-5925","addr":"경기도 군포시 당동 777-3번지 1층 1호","indutype":"일반휴게음식 - 일반한식","category":"restaurant"}]},{"lat":"37.343893922","long":"126.93847648","imageIndex":4,"items":[{"name":"청춘풀가동","tel":"070-4062-7118","addr":"경기도 군포시 당동 974-6번지 1층","indutype":"일반휴게음식 - 서양음식","category":"restaurant"}]},{"lat":"37.359116523","long":"126.94723396","imageIndex":4,"items":[{"name":"청학골식당","tel":"031-452-2554","addr":"경기도 군포시 당동 835-68번지","indutype":"일반휴게음식 - 일반한식","category":"restaurant"}]},{"lat":"37.35372787","long":"126.94600767","imageIndex":4,"items":[{"name":"치킨플러스군포당동점","tel":"031-456-5100","addr":"경기도 군포시 당동 751-13번지 1층","indutype":"일반휴게음식 - 일반한식","category":"restaurant"}]},{"lat":"37.341370217","long":"126.93692131","imageIndex":4,"items":[{"name":"카페구름","tel":"","addr":"경기도 군포시 당동 1032-1번지 1층","indutype":"일반휴게음식 - 서양음식","category":"restaurant"}]},{"lat":"37.352754665","long":"126.94578267","imageIndex":4,"items":[{"name":"카페나인","tel":"070-4224-1199","addr":"경기도 군포시 당동 776-23번지 2층","indutype":"일반휴게음식 - 서양음식","category":"restaurant"}]},{"lat":"37.350555318","long":"126.94401238","imageIndex":4,"items":[{"name":"카페띠아모당동우체국사거리점","tel":"031--392-1238","addr":"경기도 군포시 당동 785-3번지 군포병원 A동 1층","indutype":"일반휴게음식 - 서양음식","category":"restaurant"}]},{"lat":"37.353529874","long":"126.94648187","imageIndex":4,"items":[{"name":"카페마이(CAFE MY.)","tel":"031-429-8056","addr":"경기도 군포시 당동 750-26번지 1층 103호","indutype":"일반휴게음식 - 서양음식","category":"restaurant"}]},{"lat":"37.341586107","long":"126.93628916","imageIndex":4,"items":[{"name":"카페봉","tel":"031-399-3259","addr":"경기도 군포시 당동 1030-1번지 1층","indutype":"일반휴게음식 - 서양음식","category":"restaurant"}]},{"lat":"37.353503312","long":"126.94747512","imageIndex":4,"items":[{"name":"카페젤리(CafeJelly)","tel":"","addr":"경기도 군포시 당동 750-16번지 1층","indutype":"일반휴게음식 - 서양음식","category":"restaurant"}]},{"lat":"37.351230547","long":"126.94295093","imageIndex":4,"items":[{"name":"카페테바","tel":"031-459-3330","addr":"경기도 군포시 당동 770-5번지 1층 일부","indutype":"일반휴게음식 - 서양음식","category":"restaurant"}]},{"lat":"37.341090547","long":"126.93628959","imageIndex":4,"items":[{"name":"캐미","tel":"070-8837-2302","addr":"경기도 군포시 당동 1031-1번지","indutype":"일반휴게음식 - 서양음식","category":"restaurant"}]},{"lat":"37.341253072","long":"126.93689884","imageIndex":4,"items":[{"name":"커피그린빈","tel":"031-392-2248","addr":"경기도 군포시 당동 1032-2번지 1층","indutype":"일반휴게음식 - 서양음식","category":"restaurant"}]},{"lat":"37.357224636","long":"126.94775457","imageIndex":4,"items":[{"name":"커피베이","tel":"031-456-4688","addr":"경기도 군포시 당동 747-1번지 1층","indutype":"일반휴게음식 - 서양음식","category":"restaurant"}]},{"lat":"37.356862119","long":"126.94339794","imageIndex":4,"items":[{"name":"커피에반하다 군포금당로점","tel":"031-396-8589","addr":"경기도 군포시 당동 852-4번지 상가동 1층 102호","indutype":"일반휴게음식 - 서양음식","category":"restaurant"}]},{"lat":"37.341477953","long":"126.93623283","imageIndex":4,"items":[{"name":"커피인더스트리","tel":"","addr":"경기도 군포시 당동 1030-2번지","indutype":"일반휴게음식 - 서양음식","category":"restaurant"}]},{"lat":"37.350447703","long":"126.94503952","imageIndex":4,"items":[{"name":"큰맘할매순대국","tel":"031-429-0555","addr":"경기도 군포시 당동 898-1번지 1층","indutype":"일반휴게음식 - 일반한식","category":"restaurant"}]},{"lat":"37.34333726","long":"126.94220109","imageIndex":4,"items":[{"name":"키즈앤팡","tel":"031-394-3737","addr":"경기도 군포시 당동 874-2번지 한우리교육문화센타 201호","indutype":"일반휴게음식 - 서양음식","category":"restaurant"}]},{"lat":"37.354277597","long":"126.94623299","imageIndex":4,"items":[{"name":"탑국수집","tel":"031-427-7117","addr":"경기도 군포시 당동 745-8번지 1층","indutype":"일반휴게음식 - 스넥","category":"restaurant"}]},{"lat":"37.346535337","long":"126.94117151","imageIndex":4,"items":[{"name":"택이네 조개전골","tel":"031-392-1357","addr":"경기도 군포시 당동 962-3번지 미성데코플라자 지층","indutype":"일반휴게음식 - 일반한식","category":"restaurant"},{"name":"황소불화로구이","tel":"031-399-0092","addr":"경기도 군포시 당동 962-3번지 미성데코프라자 지하층1층","indutype":"일반휴게음식 - 일반한식","category":"restaurant"}]},{"lat":"37.356304962","long":"126.94640078","imageIndex":4,"items":[{"name":"토브","tel":"031-429-1660","addr":"경기도 군포시 당동 746-1번지 1층 3호","indutype":"일반휴게음식 - 서양음식","category":"restaurant"}]},{"lat":"37.350141258","long":"126.9448366","imageIndex":4,"items":[{"name":"토크쇼","tel":"031-451-7433","addr":"경기도 군포시 당동 898-27번지 1층","indutype":"일반휴게음식 - 일반한식","category":"restaurant"}]},{"lat":"37.354196333","long":"126.94587187","imageIndex":4,"items":[{"name":"톱뉴스군포1호점","tel":"031-452-3770","addr":"경기도 군포시 당동 745-11번지","indutype":"일반휴게음식 - 주점","category":"restaurant"}]},{"lat":"37.345923983","long":"126.94379028","imageIndex":4,"items":[{"name":"투썸플레이스군포당동점","tel":"031-391-0373","addr":"경기도 군포시 당동 871-3번지 103,104호","indutype":"일반휴게음식 - 서양음식","category":"restaurant"}]},{"lat":"37.354196251","long":"126.94570257","imageIndex":4,"items":[{"name":"투존치킨","tel":"031-454-3100","addr":"경기도 군포시 당동 745-14번지 1층","indutype":"일반휴게음식 - 스넥","category":"restaurant"},{"name":"투존치킨","tel":"031-454-3100","addr":"경기도 군포시 당동 745-14번지 1층","indutype":"일반휴게음식 - 일반한식","category":"restaurant"}]},{"lat":"37.358945042","long":"126.94662455","imageIndex":4,"items":[{"name":"파랑새","tel":"031-427-4372","addr":"경기도 군포시 당동 729-2번지 101호","indutype":"일반휴게음식 - 일반한식","category":"restaurant"}]},{"lat":"37.340973725","long":"126.93684266","imageIndex":4,"items":[{"name":"펀비어킹 (군포신기마을점)","tel":"031-397-1746","addr":"경기도 군포시 당동 1031-5번지 1층","indutype":"일반휴게음식 - 주점","category":"restaurant"},{"name":"펀비어킹(군포신기마을점)","tel":"031-397-1746","addr":"경기도 군포시 당동 1031-5번지 1층","indutype":"일반휴게음식 - 서양음식","category":"restaurant"}]},{"lat":"37.34639302","long":"126.94481692","imageIndex":4,"items":[{"name":"펀비어킹(당동점)","tel":"","addr":"경기도 군포시 당동 922-1번지 1층","indutype":"일반휴게음식 - 주점","category":"restaurant"}]},{"lat":"37.341145226","long":"126.93739547","imageIndex":4,"items":[{"name":"평순대국","tel":"031-393-1031","addr":"경기도 군포시 당동 1033-4번지 1층","indutype":"일반휴게음식 - 일반한식","category":"restaurant"}]},{"lat":"37.350841407","long":"126.93967818","imageIndex":4,"items":[{"name":"평양맛고을","tel":"031-394-6048","addr":"경기도 군포시 당동 950-7번지","indutype":"일반휴게음식 - 일반한식","category":"restaurant"}]},{"lat":"37.352449008","long":"126.94722759","imageIndex":4,"items":[{"name":"평행선","tel":"031-225-5852","addr":"경기도 군포시 당동 778-23번지","indutype":"일반휴게음식 - 주점","category":"restaurant"}]},{"lat":"37.355285553","long":"126.94381681","imageIndex":4,"items":[{"name":"푸드빌리지","tel":"","addr":"경기도 군포시 당동 738-44번지 101호","indutype":"일반휴게음식 - 일반한식","category":"restaurant"}]},{"lat":"37.351195191","long":"126.94431662","imageIndex":4,"items":[{"name":"풍","tel":"031-360-1066","addr":"경기도 군포시 당동 772-15번지 1호","indutype":"일반휴게음식 - 서양음식","category":"restaurant"}]},{"lat":"37.354141578","long":"126.94444977","imageIndex":4,"items":[{"name":"피쉬스토어","tel":"031-452-1404","addr":"경기도 군포시 당동 754-4번지 101호","indutype":"일반휴게음식 - 일식·회집","category":"restaurant"}]},{"lat":"37.348564224","long":"126.94431866","imageIndex":4,"items":[{"name":"피자알볼로(당동점)","tel":"031-394-8495","addr":"경기도 군포시 당동 904번지 104호","indutype":"일반휴게음식 - 서양음식","category":"restaurant"}]},{"lat":"37.354583103","long":"126.94450586","imageIndex":4,"items":[{"name":"피자정","tel":"031-392-8233","addr":"경기도 군포시 당동 739-8번지","indutype":"일반휴게음식 - 서양음식","category":"restaurant"}]},{"lat":"37.354060486","long":"126.94444983","imageIndex":4,"items":[{"name":"한나라호프","tel":"031-459-2889","addr":"경기도 군포시 당동 754-5번지","indutype":"일반휴게음식 - 주점","category":"restaurant"}]},{"lat":"37.352503148","long":"126.94739685","imageIndex":4,"items":[{"name":"한우서서갈비","tel":"031-443-4739","addr":"경기도 군포시 당동 778-24번지 지층1층","indutype":"일반휴게음식 - 일반한식","category":"restaurant"}]},{"lat":"37.351367046","long":"126.94567086","imageIndex":4,"items":[{"name":"호남식당","tel":"031-427-5450","addr":"경기도 군포시 당동 781-3번지 103호","indutype":"일반휴게음식 - 일반한식","category":"restaurant"}]},{"lat":"37.356141125","long":"126.94303732","imageIndex":4,"items":[{"name":"호프통","tel":"031-399-7550","addr":"경기도 군포시 당동 858-8번지 1층","indutype":"일반휴게음식 - 주점","category":"restaurant"}]},{"lat":"37.356278061","long":"126.94667169","imageIndex":4,"items":[{"name":"황구네영양탕","tel":"031-427-6630","addr":"경기도 군포시 당동 746-3번지 1층","indutype":"일반휴게음식 - 일반한식","category":"restaurant"}]},{"lat":"37.35927831","long":"126.94639855","imageIndex":4,"items":[{"name":"훌랄라바베큐","tel":"031-477-2555","addr":"경기도 군포시 당동 835-76번지 두아골드빌 상가 A동 101호","indutype":"일반휴게음식 - 일반한식","category":"restaurant"}]},{"lat":"37.350807642","long":"126.94409119","imageIndex":4,"items":[{"name":"훌랄라숯불닭바베큐","tel":"031-477-8585","addr":"경기도 군포시 당동 771-12번지 1층","indutype":"일반휴게음식 - 주점","category":"restaurant"}]}]