[{"lat":"37.874132461","long":"126.9737174","items":[{"name":"(주) 은성","tel":"031-868-4800","addr":"경기도 양주시 남면 상수리 632-1번지","category":"직물 - 옷감·직물"}]},{"lat":"37.865081331","long":"126.99401771","items":[{"name":"GS25검준산업점","tel":"","addr":"경기도 양주시 남면 상수리 475-1번지 가동 1층 1,2,3,4호","category":"유통업 영리 - 편 의 점"},{"name":"전라도식당","tel":"031-868-8843","addr":"경기도 양주시 남면 상수리 475-1번지","category":"일반휴게음식 - 일반한식"},{"name":"흑룡강","tel":"031-857-7771","addr":"경기도 양주시 남면 상수리 475-1번지 가동 1층","category":"일반휴게음식 - 중국식"}]},{"lat":"37.872937609","long":"126.99565341","items":[{"name":"GS25남면상수점","tel":"","addr":"경기도 양주시 남면 상수리 162-166번지","category":"유통업 영리 - 편 의 점"},{"name":"민주네 순대국","tel":"031-862-3492","addr":"경기도 양주시 남면 상수리 162-166번지 1층 일부","category":"일반휴게음식 - 일반한식"},{"name":"참맛집","tel":"031-866-6246","addr":"경기도 양주시 남면 상수리 162-166번지","category":"일반휴게음식 - 일반한식"},{"name":"형제기업","tel":"031-867-7272","addr":"경기도 양주시 남면 상수리 162-166번지","category":"건축자재 - 기타건축자재"}]},{"lat":"37.875297733","long":"126.99151598","items":[{"name":"ID(아이디)시스템","tel":"031-867-7138","addr":"경기도 양주시 남면 상수리 360-5번지","category":"가구 - 일반가구"}]},{"lat":"37.86946921","long":"127.00488215","items":[{"name":"K.R.산업","tel":"031-857-7781","addr":"경기도 양주시 남면 상수리 172-5번지 101호","category":"기타 - 기타 전문점"}]},{"lat":"37.870244016","long":"127.00090437","items":[{"name":"SI HALAL FOOD and FOREIGN MART","tel":"031-868-9473","addr":"경기도 양주시 남면 상수리 147-2번지","category":"음료식품 - 기타음료식품"}]},{"lat":"37.877800762","long":"126.9805471","items":[{"name":"감악산주유소","tel":"031-867-7400","addr":"경기도 양주시 남면 상수리 584-1번지","category":"연료판매점 - GS주유소"}]},{"lat":"37.870361151","long":"127.00373429","items":[{"name":"갓바위숯불구이","tel":"031-866-5444","addr":"경기도 양주시 남면 상수리 152-9번지","category":"일반휴게음식 - 일반한식"}]},{"lat":"37.865693785","long":"126.99184703","items":[{"name":"건강한국수","tel":"031-858-4844","addr":"경기도 양주시 남면 상수리 469번지 1층","category":"음료식품 - 기타음료식품"},{"name":"극동열기","tel":"031-858-4844","addr":"경기도 양주시 남면 상수리 469번지 라동","category":"전기제품 - 냉열기기"},{"name":"대성공구마트","tel":"031-864-0989","addr":"경기도 양주시 남면 상수리 469번지 다동","category":"기타 - 기계공구"},{"name":"성진하이텍","tel":"031-868-2046","addr":"경기도 양주시 남면 상수리 469번지 라동","category":"유통업 영리 - 기타유통업"}]},{"lat":"37.86461303","long":"126.99698384","items":[{"name":"검준공단식당","tel":"031-863-1603","addr":"경기도 양주시 남면 상수리 667-8번지 2층","category":"일반휴게음식 - 일반한식"}]},{"lat":"37.876108556","long":"126.99132263","items":[{"name":"그릴캠프","tel":"031-862-9992","addr":"경기도 양주시 남면 상수리 361-2번지","category":"일반휴게음식 - 일반한식"}]},{"lat":"37.871748559","long":"126.999961","items":[{"name":"금빛포장상사","tel":"031-827-0883","addr":"경기도 양주시 남면 상수리 165-7번지","category":"의류 - 기타의류"},{"name":"채움상사","tel":"031-861-0822","addr":"경기도 양주시 남면 상수리 165-7번지 1층","category":"의류 - 기타의류"}]},{"lat":"37.865441719","long":"126.99418813","items":[{"name":"김준카정비공업사","tel":"031-859-6440","addr":"경기도 양주시 남면 상수리 479-1번지","category":"자동차정비 유지 - 자동차정비"}]},{"lat":"37.87069447","long":"127.00023381","items":[{"name":"꼬꼬치킨호프","tel":"","addr":"경기도 양주시 남면 상수리 140-5번지","category":"일반휴게음식 - 일반한식"},{"name":"동화닥트","tel":"031-859-8927","addr":"경기도 양주시 남면 상수리 140-5번지","category":"용역 서비스 - 기타용역서비스"}]},{"lat":"37.870054833","long":"127.00207498","items":[{"name":"나주식당","tel":"031-861-5429","addr":"경기도 양주시 남면 상수리 148-10번지 1층","category":"일반휴게음식 - 일반한식"}]},{"lat":"37.859000252","long":"126.99840472","items":[{"name":"뉴세진화학","tel":"031-867-0955","addr":"경기도 양주시 남면 상수리 230-3번지","category":"서적문구 - 과학기자재"}]},{"lat":"37.874523114","long":"126.99363014","items":[{"name":"다원가구","tel":"031-862-1750","addr":"경기도 양주시 남면 상수리 353-1번지","category":"가구 - 일반가구"}]},{"lat":"37.870361113","long":"126.99976785","items":[{"name":"달토커피","tel":"031-867-8982","addr":"경기도 양주시 남면 상수리 142번지 1층","category":"일반휴게음식 - 서양음식"}]},{"lat":"37.871080848","long":"126.98712963","items":[{"name":"대기유화","tel":"031-868-4040","addr":"경기도 양주시 남면 상수리 424번지","category":"자동차정비 유지 - 윤활유 전문 판매"},{"name":"대기유화상사","tel":"031-868-1236","addr":"경기도 양주시 남면 상수리 424번지","category":"자동차정비 유지 - 윤활유 전문 판매"}]},{"lat":"37.869973749","long":"127.00357518","items":[{"name":"대림스타릿","tel":"031-861-4325","addr":"경기도 양주시 남면 상수리 152-13번지","category":"기타 - 기계공구"}]},{"lat":"37.869802574","long":"127.00298419","items":[{"name":"대명설비","tel":"031-858-7034","addr":"경기도 양주시 남면 상수리 149-16","category":"용역 서비스 - 기타용역서비스"}]},{"lat":"37.869135853","long":"127.00546176","items":[{"name":"대명소방안전","tel":"031-8870-6119","addr":"경기도 양주시 남면 상수리 176-5번지","category":"기타 - 기계공구"},{"name":"신일정밀","tel":"031-847-6159","addr":"경기도 양주시 남면 상수리 176-5번지","category":"수리서비스 - 기타수리서비스"}]},{"lat":"37.871216836","long":"126.99590361","items":[{"name":"대성배관","tel":"031-864-1075","addr":"경기도 양주시 남면 상수리 111-8번지","category":"건축자재 - 기타건축자재"},{"name":"케이더블유시스템","tel":"031-867-1390","addr":"경기도 양주시 남면 상수리 111-8번지","category":"전기제품 - 기타전기제품"}]},{"lat":"37.870442191","long":"126.99954054","items":[{"name":"대원모터콤푸레샤","tel":"031-879-2744","addr":"경기도 양주시 남면 상수리 143-8번지 1층","category":"수리서비스 - 기타수리서비스"},{"name":"뿔라헤어","tel":"031-857-1071","addr":"경기도 양주시 남면 상수리 143-8번지 가동 1층","category":"보건위생 - 미용원"},{"name":"신흥기연","tel":"031-846-1040","addr":"경기도 양주시 남면 상수리 143-8번지 105호","category":"가구 - 일반가구"},{"name":"에스유통","tel":"031-841-1114","addr":"경기도 양주시 남면 상수리 143-8번지","category":"음료식품 - 농·축·수산품"},{"name":"캄라 (KAMLA)","tel":"070-8957-2942","addr":"경기도 양주시 남면 상수리 143-8번지","category":"일반휴게음식 - 주점"}]},{"lat":"37.869973751","long":"127.00279099","items":[{"name":"대호상사","tel":"031-863-7176","addr":"경기도 양주시 남면 상수리 149-4","category":"기타 - 기계공구"}]},{"lat":"37.861468882","long":"127.00532513","items":[{"name":"도원테크","tel":"031-859-1506","addr":"경기도 양주시 남면 상수리 220-4번지","category":"직물 - 기타직물"}]},{"lat":"37.874413132","long":"126.97995711","items":[{"name":"동보상사","tel":"02-2267-0093","addr":"경기도 양주시 남면 상수리 568-3번지","category":"신변잡화 - 기념품점"}]},{"lat":"37.867359921","long":"126.9866872","items":[{"name":"디에스종합상사","tel":"031-861-8832","addr":"경기도 양주시 남면 상수리 456-2번지","category":"건축자재 - 기타건축자재"}]},{"lat":"37.870000779","long":"127.00240457","items":[{"name":"또아조아할랄푸드","tel":"031-859-2454","addr":"경기도 양주시 남면 상수리 148-2번지 2층","category":"일반휴게음식 - 서양음식"},{"name":"또아조아할랄푸드&마켓","tel":"031-859-2454","addr":"경기도 양주시 남면 상수리 148-2번지 2층","category":"신변잡화 - 기타잡화"}]},{"lat":"37.871883491","long":"126.99528982","items":[{"name":"로랜드 상사","tel":"031-858-6277","addr":"경기도 양주시 남면 상수리 111-4번지","category":"자동차정비 유지 - 자동차부품"}]},{"lat":"37.871640121","long":"126.99365323","items":[{"name":"마미 D/C마트","tel":"031-857-1112","addr":"경기도 양주시 남면 상수리 317-18번지","category":"신변잡화 - 기타잡화"},{"name":"상수떡방앗간","tel":"031-863-8882","addr":"경기도 양주시 남면 상수리 317-18번지 B동 1층","category":"음료식품 - 제과점"}]},{"lat":"37.872000848","long":"127.00440487","items":[{"name":"미니스톱양주상수점","tel":"031-1577-9621","addr":"경기도 양주시 남면 상수리 166-13번지 1층","category":"유통업 영리 - 편 의 점"}]},{"lat":"37.873388063","long":"126.99543742","items":[{"name":"미래정밀기계","tel":"031-863-4562","addr":"경기도 양주시 남면 상수리 110-2","category":"기타 - 기계공구"}]},{"lat":"37.863577101","long":"127.0030751","items":[{"name":"바스바이오","tel":"070-4252-1011","addr":"경기도 양주시 남면 상수리 217-1","category":"농업 - 비료,사료,종자"}]},{"lat":"37.871802448","long":"126.99596038","items":[{"name":"배화정밀기계","tel":"031-868-3007","addr":"경기도 양주시 남면 상수리 111-1번지","category":"기타 - 기계공구"},{"name":"지라완푸드(JIRAWANFOOD)","tel":"031-858-9611","addr":"경기도 양주시 남면 상수리 111-1번지 2층","category":"일반휴게음식 - 서양음식"},{"name":"호성전기엔지니어링","tel":"070-1478-1236","addr":"경기도 양주시 남면 상수리 111-1번지 외1필지","category":"수리서비스 - 기타수리서비스"}]},{"lat":"37.869721489","long":"127.00329105","items":[{"name":"베스트올(상수점)","tel":"031-861-1799","addr":"경기도 양주시 남면 상수리 149-19","category":"음료식품 - 기타음료식품"}]},{"lat":"37.870054801","long":"127.0000179","items":[{"name":"부부밥상","tel":"031-863-3690","addr":"경기도 양주시 남면 상수리 143-20번지 1층","category":"일반휴게음식 - 일반한식"}]},{"lat":"37.873108465","long":"126.99157314","items":[{"name":"상수리막국수","tel":"031-867-5054","addr":"경기도 양주시 남면 상수리 358번지","category":"일반휴게음식 - 일반한식"},{"name":"성원상사","tel":"031-543-0303","addr":"경기도 양주시 남면 상수리 358번지","category":"신변잡화 - 기타잡화"}]},{"lat":"37.871973105","long":"126.98982304","items":[{"name":"상수리식당","tel":"031-868-3574","addr":"경기도 양주시 남면 상수리 314-4번지","category":"일반휴게음식 - 일반한식"}]},{"lat":"37.870216991","long":"127.00113167","items":[{"name":"상수식당","tel":"031-863-3193","addr":"경기도 양주시 남면 상수리 147-1번지","category":"일반휴게음식 - 일반한식"}]},{"lat":"37.866693943","long":"126.9931879","items":[{"name":"생생동태생태","tel":"031-867-9808","addr":"경기도 양주시 남면 상수리 269-2번지","category":"일반휴게음식 - 일반한식"}]},{"lat":"37.87561011","long":"126.97418282","items":[{"name":"샤인하우스","tel":"031-859-5911","addr":"경기도 양주시 남면 상수리 627-2외2필지","category":"레저업소 - 기타레져업소"}]},{"lat":"37.864189509","long":"126.99554062","items":[{"name":"선우자원","tel":"031-859-9189","addr":"경기도 양주시 남면 상수리 249-7번지","category":"건축자재 - 기타건축자재"}]},{"lat":"37.868306689","long":"126.99407415","items":[{"name":"성지카센타","tel":"031-861-2701","addr":"경기도 양주시 남면 상수리 270-12번지","category":"자동차정비 유지 - 자동차정비"}]},{"lat":"37.864613047","long":"126.99732477","items":[{"name":"세강디자인","tel":"031-858-5836","addr":"경기도 양주시 남면 상수리 667-7번지","category":"용역 서비스 - 사무서비스"},{"name":"신명산업","tel":"031-863-2274","addr":"경기도 양주시 남면 상수리 667-7","category":"용역 서비스 - 기타용역서비스"}]},{"lat":"37.870667456","long":"127.00092709","items":[{"name":"신애식당","tel":"031-868-1223","addr":"경기도 양주시 남면 상수리 161-13번지","category":"일반휴게음식 - 일반한식"}]},{"lat":"37.871270865","long":"126.99546036","items":[{"name":"신진상사","tel":"031-862-4116","addr":"경기도 양주시 남면 상수리 112-4번지","category":"자동차정비 유지 - 카인테리어"},{"name":"진명종합상사","tel":"031-863-8766","addr":"경기도 양주시 남면 상수리 112-4","category":"건축자재 - 목재·석재·철물"}]},{"lat":"37.872360482","long":"126.98959567","items":[{"name":"아리랑북경","tel":"031-862-3636","addr":"경기도 양주시 남면 상수리 315-9번지","category":"일반휴게음식 - 일반한식"}]},{"lat":"37.861721058","long":"126.99776818","items":[{"name":"아트리올","tel":"031-826-1742","addr":"경기도 양주시 남면 상수리 239-1번지","category":"건축자재 - 인테리어전문"}]},{"lat":"37.875910668","long":"126.99520984","items":[{"name":"양저우대청마루","tel":"031-867-6282","addr":"경기도 양주시 남면 상수리 106번지","category":"일반휴게음식 - 중국식"}]},{"lat":"37.870162941","long":"127.00163174","items":[{"name":"양주골솥밥","tel":"031-838-9969","addr":"경기도 양주시 남면 상수리 147-20번지","category":"일반휴게음식 - 일반한식"}]},{"lat":"37.8699737","long":"127.006371","items":[{"name":"양주시보건소","tel":"031-8082-7116","addr":"경기도 양주시 남면 상수리 204-11번지","category":"기타의료기관 - 기타의료기관 및 기타"}]},{"lat":"37.870883669","long":"127.00032473","items":[{"name":"양주재활용창고매장","tel":"031-863-3412","addr":"경기도 양주시 남면 상수리 165-12번지","category":"기타 - 기타 전문점"}]},{"lat":"37.871640097","long":"126.99334637","items":[{"name":"얼큰칼국수","tel":"031-859-1357","addr":"경기도 양주시 남면 상수리 317-2번지","category":"일반휴게음식 - 일반한식"}]},{"lat":"37.877188116","long":"126.98049046","items":[{"name":"에이치엘(HL)","tel":"070-7783-9919","addr":"경기도 양주시 남면 상수리 582-1번지","category":"건강식품 - 인삼제품"}]},{"lat":"37.86985663","long":"127.00304102","items":[{"name":"영상노래연습장","tel":"031-866-5585","addr":"경기도 양주시 남면 상수리 149-43번지","category":"레저업소 - 노 래 방"},{"name":"효촌식당","tel":"031-865-1381","addr":"경기도 양주시 남면 상수리 149-43번지","category":"일반휴게음식 - 일반한식"}]},{"lat":"37.869413596","long":"126.98362956","items":[{"name":"영화농원","tel":"031-867-8374","addr":"경기도 양주시 남면 상수리 411-2번지","category":"문화.취미 - 화원"}]},{"lat":"37.871081479","long":"126.99290319","items":[{"name":"우리공구철물마트","tel":"031-864-2300","addr":"경기도 양주시 남면 상수리 319-5번지","category":"건축자재 - 목재·석재·철물"}]},{"lat":"37.872135765","long":"126.995483","items":[{"name":"이모네닭곰탕 닭칼국수","tel":"031-858-4333","addr":"경기도 양주시 남면 상수리 111-20번지 1층","category":"일반휴게음식 - 일반한식"},{"name":"장약국","tel":"070-8958-2939","addr":"경기도 양주시 남면 상수리 111-20번지","category":"약국 - 약국"}]},{"lat":"37.869108809","long":"127.0060982","items":[{"name":"장수건강원","tel":"031-867-6553","addr":"경기도 양주시 남면 상수리 207-4번지","category":"건강식품 - 기타건강식품"}]},{"lat":"37.86572124","long":"126.99826794","items":[{"name":"주식회사 메리트 인터내셔널","tel":"031-863-2383","addr":"경기도 양주시 남면 상수리 665-5번지 1층","category":"직물 - 옷감·직물"}]},{"lat":"37.865414892","long":"126.99757473","items":[{"name":"주식회사 서흥텍스타일","tel":"031-861-2885","addr":"경기도 양주시 남면 상수리 664-11번지","category":"직물 - 옷감·직물"}]},{"lat":"37.866414904","long":"126.9969837","items":[{"name":"주식회사 세진텍스","tel":"031-821-9657","addr":"경기도 양주시 남면 상수리 664-1번지","category":"직물 - 옷감·직물"}]},{"lat":"37.868250816","long":"126.98040225","items":[{"name":"주식회사 이레포장","tel":"031-867-7112","addr":"경기도 양주시 남면 상수리 525번지","category":"유통업 영리 - 기타유통업"}]},{"lat":"37.873333751","long":"126.99213003","items":[{"name":"중부자판기","tel":"031-876-8555","addr":"경기도 양주시 남면 상수리 357-4번지","category":"음료식품 - 기타음료식품"}]},{"lat":"37.863252536","long":"126.99557481","items":[{"name":"진호기업","tel":"031-63-7229","addr":"경기도 양주시 남면 상수리 247번지","category":"기타 - 기타 전문점"}]},{"lat":"37.870307097","long":"127.00251822","items":[{"name":"처갓집양념치킨 양주남면점","tel":"031-859-9592","addr":"경기도 양주시 남면 상수리 149-8번지","category":"일반휴게음식 - 스넥"}]},{"lat":"37.871079287","long":"126.9780715","items":[{"name":"충북기계","tel":"031-867-7742","addr":"경기도 양주시 남면 상수리 543번지","category":"수리서비스 - 기타수리서비스"},{"name":"충북기계","tel":"031-867-7742","addr":"경기도 양주시 남면 상수리 543번지","category":"음료식품 - 기타음료식품"}]},{"lat":"37.87116261","long":"126.99346008","items":[{"name":"크로바물류","tel":"031-494-5857","addr":"경기도 양주시 남면 상수리 334-1번지 1층 4호","category":"용역 서비스 - 사무서비스"}]},{"lat":"37.870334106","long":"127.00073389","items":[{"name":"크루어깐앵","tel":"","addr":"경기도 양주시 남면 상수리 147-41번지","category":"일반휴게음식 - 일반한식"}]},{"lat":"37.872611721","long":"126.98245808","items":[{"name":"터줏대감","tel":"031-868-0008","addr":"경기도 양주시 남면 상수리 559-2번지","category":"일반휴게음식 - 일반한식"}]},{"lat":"37.871640352","long":"126.99732424","items":[{"name":"토탈물류시스템","tel":"031-858-6679","addr":"경기도 양주시 남면 상수리 162-170번지 1호 2","category":"기타 - 기계공구"}]},{"lat":"37.872910538","long":"126.99499421","items":[{"name":"한일여관","tel":"031-863-8687","addr":"경기도 양주시 남면 상수리 346번지","category":"숙박업 - 여관/기타숙박업"}]},{"lat":"37.870388181","long":"127.00232501","items":[{"name":"함양자동차공업사","tel":"031-863-1143","addr":"경기도 양주시 남면 상수리 149-5번지","category":"자동차정비 유지 - 자동차정비"}]},{"lat":"37.870216893","long":"126.99776759","items":[{"name":"현대공업사","tel":"031-858-8878","addr":"경기도 양주시 남면 상수리 118-2번지","category":"수리서비스 - 기타수리서비스"}]},{"lat":"37.87182946","long":"126.99568761","items":[{"name":"형제비니루","tel":"031-864-0644","addr":"경기도 양주시 남면 상수리 111-14","category":"유통업 영리 - 기타유통업"}]},{"lat":"37.870217004","long":"127.00282508","items":[{"name":"혜성종합상사","tel":"031-859-4678","addr":"경기도 양주시 남면 상수리 149-2번지","category":"기타 - 기계공구"}]},{"lat":"37.87008157","long":"126.994574","items":[{"name":"황돈","tel":"031-868-3233","addr":"경기도 양주시 남면 상수리 332-12번지","category":"일반휴게음식 - 일반한식"}]},{"lat":"37.872549575","long":"126.98870912","items":[{"name":"황박사수원왕갈비","tel":"031-861-0414","addr":"경기도 양주시 남면 상수리 404-3번지","category":"일반휴게음식 - 일반한식"}]}]