[{"lat":"37.740487388","long":"127.215413","items":[{"name":"(시립)진벌어린이집[아이행복]","tel":"031-575-4237","addr":"경기도 남양주시 진접읍 진벌리 628-7번지","category":"학원 - 유아원"}]},{"lat":"37.734570138","long":"127.21925317","items":[{"name":"(주)그린나래","tel":"031-721-5311","addr":"경기도 남양주시 진접읍 진벌리 430-2번지","category":"서적문구 - 완구점"}]},{"lat":"37.740545204","long":"127.21830621","items":[{"name":"(주)나우모터스","tel":"031-575-4648","addr":"경기도 남양주시 진접읍 진벌리 468-33번지","category":"자동차정비 유지 - 자동차부품"}]},{"lat":"37.745740088","long":"127.21533725","items":[{"name":"(주)대윤케미텍","tel":"031-529-9568","addr":"경기도 남양주시 진접읍 진벌리 537번지","category":"유통업 영리 - 기타유통업"}]},{"lat":"37.744653481","long":"127.21335996","items":[{"name":"(주)디디엘코리아","tel":"031-527-9532","addr":"경기도 남양주시 진접읍 진벌리 543-5번지 나동","category":"음료식품 - 기타음료식품"}]},{"lat":"37.73637924","long":"127.23443755","items":[{"name":"(주)로이스트","tel":"031-573-7105","addr":"경기도 남양주시 진접읍 진벌리 6-1번지 가동","category":"가구 - 일반가구"},{"name":"하성환경","tel":"031-827-6300","addr":"경기도 남양주시 진접읍 진벌리 6-1번지","category":"용역 서비스 - 종합용역"}]},{"lat":"37.742880298","long":"127.21741667","items":[{"name":"(주)옴므","tel":"031-529-5702","addr":"경기도 남양주시 진접읍 진벌리 506-14번지","category":"문화.취미 - 애완동물"},{"name":"신동양가구","tel":"031-575-4852","addr":"경기도 남양주시 진접읍 진벌리 506-14","category":"가구 - 기타가구"},{"name":"아시아공구철물","tel":"031-527-0995","addr":"경기도 남양주시 진접읍 진벌리 506-14번지","category":"기타 - 기계공구"}]},{"lat":"37.737880315","long":"127.21724341","items":[{"name":"(주)이앤피퍼니처","tel":"031-573-4989","addr":"경기도 남양주시 진접읍 진벌리 435-5번지","category":"가구 - 일반가구"}]},{"lat":"37.743902499","long":"127.21513912","items":[{"name":"GS25진접진벌점","tel":"","addr":"경기도 남양주시 진접읍 진벌리 546-5번지","category":"유통업 영리 - 편 의 점"},{"name":"꾸이세상","tel":"02-000-0000","addr":"경기도 남양주시 진접읍 진벌리 546-5번지 101호,102호","category":"일반휴게음식 - 일반한식"},{"name":"바글바글","tel":"031-111-1111","addr":"경기도 남양주시 진접읍 진벌리 546-5번지 106,107호","category":"일반휴게음식 - 스넥"}]},{"lat":"37.745264933","long":"127.21900065","items":[{"name":"JL 인라인클럽","tel":"031-528-0463","addr":"경기도 남양주시 진접읍 진벌리 528-10번지 1동 2층","category":"레저업소 - 기타레져업소"}]},{"lat":"37.744926957","long":"127.21659432","items":[{"name":"JSC보일러","tel":"031-766-9041","addr":"경기도 남양주시 진접읍 진벌리 657번지 신창비바패밀리 103동 1305호","category":"수리서비스 - 기타수리서비스"}]},{"lat":"37.744047406","long":"127.21471974","items":[{"name":"YS유통","tel":"","addr":"경기도 남양주시 진접읍 진벌리 546-7번지 1층 103호","category":"음료식품 - 기타음료식품"},{"name":"그리지미술교습소","tel":"031--515-9361","addr":"경기도 남양주시 진접읍 진벌리 546-7번지 2층 201호","category":"학원 - 예·체능계학원"},{"name":"미니카페모이","tel":"031-575-2011","addr":"경기도 남양주시 진접읍 진벌리 546-7번지 101호","category":"일반휴게음식 - 스넥"}]},{"lat":"37.744158262","long":"127.21318837","items":[{"name":"갤러리카페수요일","tel":"031-574-1707","addr":"경기도 남양주시 진접읍 진벌리 566-1","category":"일반휴게음식 - 일반한식"}]},{"lat":"37.737765381","long":"127.23049386","items":[{"name":"경원테크","tel":"031-575-0891","addr":"경기도 남양주시 진접읍 진벌리 165-1번지","category":"자동차정비 유지 - 자동차정비"}]},{"lat":"37.740657463","long":"127.21602613","items":[{"name":"공구사랑","tel":"031-527-3526","addr":"경기도 남양주시 진접읍 진벌리 629-1 도윤빌딩1층4호","category":"기타 - 기계공구"},{"name":"주식회사 담원푸드","tel":"031-572-0534","addr":"경기도 남양주시 진접읍 진벌리 629-1번지","category":"일반휴게음식 - 일반한식"}]},{"lat":"37.741377681","long":"127.22124708","items":[{"name":"광릉 골프존","tel":"031-528-0710","addr":"경기도 남양주시 진접읍 진벌리 491번지","category":"레저업소 - 골프연습장"},{"name":"문희네 코다리찜과 명품삼겹살","tel":"031-572-9262","addr":"경기도 남양주시 진접읍 진벌리 491번지","category":"일반휴게음식 - 일반한식"}]},{"lat":"37.743269272","long":"127.21655552","items":[{"name":"국민닥트","tel":"031-572-4336","addr":"경기도 남양주시 진접읍 진벌리 506-2번지 2층","category":"건축자재 - 보일러·펌프·샷시"}]},{"lat":"37.740458103","long":"127.21666089","items":[{"name":"국밥명가","tel":"031-574-6256","addr":"경기도 남양주시 진접읍 진벌리 467-2번지 가동","category":"일반휴게음식 - 일반한식"},{"name":"온누리유통","tel":"031-574-7888","addr":"경기도 남양주시 진접읍 진벌리 467-2","category":"신변잡화 - 기타잡화"},{"name":"제일광고","tel":"031-572-2482","addr":"경기도 남양주시 진접읍 진벌리 467-2번지","category":"용역 서비스 - 종합용역"},{"name":"제일광고기획","tel":"031-572-2482","addr":"경기도 남양주시 진접읍 진벌리 467-2","category":"용역 서비스 - 종합용역"}]},{"lat":"37.739932488","long":"127.2232169","items":[{"name":"굿라이스","tel":"02-6319-0326","addr":"경기도 남양주시 진접읍 진벌리 252-3번지 나동","category":"음료식품 - 기타음료식품"}]},{"lat":"37.738655222","long":"127.22688888","items":[{"name":"궁전쇼파","tel":"","addr":"경기도 남양주시 진접읍 진벌리 274-5번지","category":"가구 - 일반가구"}]},{"lat":"37.739624327","long":"127.22894527","items":[{"name":"극동종합금속","tel":"031-574-5253","addr":"경기도 남양주시 진접읍 진벌리 193-1번지","category":"용역 서비스 - 기타용역서비스"}]},{"lat":"37.74354493","long":"127.21855316","items":[{"name":"꿈사랑그린요양원","tel":"031-528-0936","addr":"경기도 남양주시 진접읍 진벌리 523-4번지","category":"기타의료기관 - 기타의료기관 및 기타"}]},{"lat":"37.74204371","long":"127.22161209","items":[{"name":"나우·2nd","tel":"031-571-9156","addr":"경기도 남양주시 진접읍 진벌리 230-2번지 230-4 본지번내 건물과마당(전부)","category":"자동차정비 유지 - 자동차부품"}]},{"lat":"37.742961899","long":"127.21713327","items":[{"name":"뉴미래자동차공업사","tel":"031-571-2329","addr":"경기도 남양주시 진접읍 진벌리 506-22","category":"자동차정비 유지 - 자동차정비"}]},{"lat":"37.737680706","long":"127.22766874","items":[{"name":"다울상재","tel":"031-594-6427","addr":"경기도 남양주시 진접읍 진벌리 276번지","category":"직물 - 카페트,커튼,천막,지물"},{"name":"아피커피(api coffee)","tel":"070-7612-1047","addr":"경기도 남양주시 진접읍 진벌리 276번지 1층","category":"일반휴게음식 - 서양음식"}]},{"lat":"37.737961383","long":"127.22694352","items":[{"name":"다움식품","tel":"031-574-1112","addr":"경기도 남양주시 진접읍 진벌리 275-8번지","category":"음료식품 - 기타음료식품"},{"name":"종점식당","tel":"031-527-1277","addr":"경기도 남양주시 진접읍 진벌리 275-8번지 1층","category":"일반휴게음식 - 일반한식"}]},{"lat":"37.738714889","long":"127.22391668","items":[{"name":"대박부페","tel":"031-527-5884","addr":"경기도 남양주시 진접읍 진벌리 284-8번지","category":"일반휴게음식 - 일반한식"}]},{"lat":"37.738298427","long":"127.22499321","items":[{"name":"대성톱초경","tel":"031-527-3215","addr":"경기도 남양주시 진접읍 진벌리 283-1번지","category":"기타 - 기계공구"}]},{"lat":"37.742018069","long":"127.22086321","items":[{"name":"대일한우마을식당","tel":"031-527-6876","addr":"경기도 남양주시 진접읍 진벌리 486-5번지","category":"일반휴게음식 - 일반한식"},{"name":"대일한우정육점","tel":"031-527-6876","addr":"경기도 남양주시 진접읍 진벌리 486-5번지","category":"음료식품 - 정육점"}]},{"lat":"37.737488642","long":"127.22916568","items":[{"name":"대한예수장로회삼일교회","tel":"031-528-5927","addr":"경기도 남양주시 진접읍 진벌리 150-4","category":"기타 - 비영리/대상"}]},{"lat":"37.741603233","long":"127.22107756","items":[{"name":"델타코리아","tel":"031-1661-7248","addr":"경기도 남양주시 진접읍 진벌리 491-7번지","category":"유통업 영리 - 기타유통업"}]},{"lat":"37.743631519","long":"127.2155241","items":[{"name":"동원식당","tel":"031-529-2690","addr":"경기도 남양주시 진접읍 진벌리 549-6번지","category":"일반휴게음식 - 일반한식"},{"name":"옛날통닭","tel":"031-573-8611","addr":"경기도 남양주시 진접읍 진벌리 549-6번지","category":"일반휴게음식 - 스넥"}]},{"lat":"37.740265146","long":"127.21374461","items":[{"name":"동천기업사","tel":"031-571-8771","addr":"경기도 남양주시 진접읍 진벌리 627번지 외 2동 4호 3호","category":"전기제품 - 기타전기제품"},{"name":"티제이04(TJ04)","tel":"031-572-1182","addr":"경기도 남양주시 진접읍 진벌리 627번지 공장 2동 1층","category":"건축자재 - 기타건축자재"}]},{"lat":"37.740151965","long":"127.21655791","items":[{"name":"레몬비 진접","tel":"","addr":"경기도 남양주시 진접읍 진벌리 466번지 107호","category":"유통업 영리 - 편 의 점"}]},{"lat":"37.735542946","long":"127.21441189","items":[{"name":"마리텍전자","tel":"031-575-0706","addr":"경기도 남양주시 진접읍 진벌리 655-5번지","category":"전기제품 - 가전제품"}]},{"lat":"37.739466067","long":"127.22210369","items":[{"name":"맛사랑식품","tel":"031-574-9515","addr":"경기도 남양주시 진접읍 진벌리 259번지 나동","category":"음료식품 - 기타음료식품"}]},{"lat":"37.741268406","long":"127.22666985","items":[{"name":"맥스컴이앤티","tel":"031-528-2461","addr":"경기도 남양주시 진접읍 진벌리 241-4번지","category":"전기제품 - 기타전기제품"}]},{"lat":"37.734681585","long":"127.23180037","items":[{"name":"메디라훔","tel":"031-575-3005","addr":"경기도 남양주시 진접읍 진벌리 120번지","category":"보건위생 - 의료용품"}]},{"lat":"37.74479822","long":"127.21303133","items":[{"name":"미래식당","tel":"031-571-5355","addr":"경기도 남양주시 진접읍 진벌리 543-12번지 1층 104호","category":"일반휴게음식 - 일반한식"},{"name":"예멋카","tel":"031-528-3858","addr":"경기도 남양주시 진접읍 진벌리 543-12번지 외2필지 103호","category":"자동차정비 유지 - 자동차정비"},{"name":"태진가구철물장식","tel":"031-574-1230","addr":"경기도 남양주시 진접읍 진벌리 543-12 외2필지101호~102호","category":"직물 - 카페트,커튼,천막,지물"}]},{"lat":"37.740910077","long":"127.21583398","items":[{"name":"미래이엔에프","tel":"031-575-1290","addr":"경기도 남양주시 진접읍 진벌리 629-6번지 바동 1층","category":"전기제품 - 기타전기제품"},{"name":"애니카랜드진접점","tel":"031-527-2657","addr":"경기도 남양주시 진접읍 진벌리 629-6번지","category":"자동차정비 유지 - 자동차정비"},{"name":"준아크릴","tel":"031-573-5155","addr":"경기도 남양주시 진접읍 진벌리 629-6번지 마동","category":"건축자재 - 인테리어전문"}]},{"lat":"37.736681862","long":"127.22703042","items":[{"name":"미성축산푸드","tel":"031-527-1390","addr":"경기도 남양주시 진접읍 진벌리 315-1","category":"음료식품 - 정육점"}]},{"lat":"37.737185357","long":"127.22757649","items":[{"name":"미성한식부페","tel":"031-527-2447","addr":"경기도 남양주시 진접읍 진벌리 277-19번지 1층 일부","category":"일반휴게음식 - 일반한식"}]},{"lat":"37.739402673","long":"127.21738395","items":[{"name":"베스트단조","tel":"031-528-1323","addr":"경기도 남양주시 진접읍 진벌리 438-2번지","category":"건축자재 - 기타건축자재"}]},{"lat":"37.739770932","long":"127.22288741","items":[{"name":"벧엘종합철물","tel":"031-574-8182","addr":"경기도 남양주시 진접읍 진벌리 257번지","category":"건축자재 - 목재·석재·철물"},{"name":"진벌카센타","tel":"031-528-5278","addr":"경기도 남양주시 진접읍 진벌리 257번지","category":"자동차정비 유지 - 자동차정비"}]},{"lat":"37.736518113","long":"127.22785809","items":[{"name":"보드레","tel":"031-569-9500","addr":"경기도 남양주시 진접읍 진벌리 135-2번지","category":"보건위생 - 화장품"}]},{"lat":"37.741542762","long":"127.21967055","items":[{"name":"봉화낚시터","tel":"031-528-1782","addr":"경기도 남양주시 진접읍 진벌리 479","category":"레저업소 - 기타레져업소"}]},{"lat":"37.743767111","long":"127.21527488","items":[{"name":"비어beer치어cheer","tel":"","addr":"경기도 남양주시 진접읍 진벌리 546-2번지 102호","category":"일반휴게음식 - 일반한식"},{"name":"천리향식당","tel":"","addr":"경기도 남양주시 진접읍 진벌리 546-2번지 101호","category":"일반휴게음식 - 일반한식"},{"name":"한국자동차공업사(손세차장)","tel":"032-508-0742","addr":"경기도 남양주시 진접읍 진벌리 546-2","category":"자동차정비 유지 - 자동차정비"}]},{"lat":"37.742933693","long":"127.21777989","items":[{"name":"살리고 액자","tel":"031-527-2289","addr":"경기도 남양주시 진접읍 진벌리 506-4번지","category":"문화.취미 - 화방·표구점"}]},{"lat":"37.738653043","long":"127.21839149","items":[{"name":"샤인퍼니쳐","tel":"031-527-7966","addr":"경기도 남양주시 진접읍 진벌리 439-2번지 외1필지","category":"가구 - 일반가구"}]},{"lat":"37.738570651","long":"127.22871517","items":[{"name":"성광프라스틱","tel":"031-529-4984","addr":"경기도 남양주시 진접읍 진벌리 145번지","category":"기타 - 기타 전문점"}]},{"lat":"37.744436564","long":"127.2137451","items":[{"name":"세븐일레븐남양주진벌리점","tel":"031-1577-0711","addr":"경기도 남양주시 진접읍 진벌리 544-1번지","category":"유통업 영리 - 편 의 점"}]},{"lat":"37.739049388","long":"127.22330504","items":[{"name":"세븐일레븐남양주진접공단점","tel":"","addr":"경기도 남양주시 진접읍 진벌리 264번지","category":"유통업 영리 - 편 의 점"}]},{"lat":"37.744237094","long":"127.21444798","items":[{"name":"세영","tel":"031-573-1654","addr":"경기도 남양주시 진접읍 진벌리 545-5번지","category":"기타 - 기계공구"},{"name":"햇살농산","tel":"031-573-3238","addr":"경기도 남양주시 진접읍 진벌리 545-5번지","category":"음료식품 - 농·축·수산품"}]},{"lat":"37.735235736","long":"127.21985636","items":[{"name":"세종에스씨아이","tel":"031-575-0730","addr":"경기도 남양주시 진접읍 진벌리 430-1번지","category":"서적문구 - 과학기자재"},{"name":"세종에스씨아이/원격지","tel":"031-575-0730","addr":"경기도 남양주시 진접읍 진벌리 430-1번지","category":"기타 - 기타 전문점"}]},{"lat":"37.74490821","long":"127.21197647","items":[{"name":"소명계전","tel":"031-573-4567","addr":"경기도 남양주시 진접읍 진벌리 542-12","category":"기타 - 기계공구"}]},{"lat":"37.743548176","long":"127.21677189","items":[{"name":"솔한식뷔페","tel":"031-575-0985","addr":"경기도 남양주시 진접읍 진벌리 513-7번지","category":"일반휴게음식 - 일반한식"},{"name":"씨유남양주진벌로점","tel":"031-529-6455","addr":"경기도 남양주시 진접읍 진벌리 513-7번지 1층 B동","category":"유통업 영리 - 편 의 점"}]},{"lat":"37.738237443","long":"127.2190256","items":[{"name":"시완사","tel":"031-529-1636","addr":"경기도 남양주시 진접읍 진벌리 444-1번지 나동","category":"신변잡화 - 시계"}]},{"lat":"37.737825658","long":"127.22724942","items":[{"name":"신안수산","tel":"031-528-1085","addr":"경기도 남양주시 진접읍 진벌리 275-12번지","category":"음료식품 - 기타음료식품"}]},{"lat":"37.745214582","long":"127.21696957","items":[{"name":"신창비바 수학교습소","tel":"031-111-1111","addr":"경기도 남양주시 진접읍 진벌리 657번지 신창비바패밀리 상가동 209호","category":"학원 - 보습학원"},{"name":"신창세탁소","tel":"031-527-8817","addr":"경기도 남양주시 진접읍 진벌리 657번지 신창비바패밀리 상가동 201호","category":"수리서비스 - 세탁소"}]},{"lat":"37.740436298","long":"127.22360413","items":[{"name":"쌍둥이네","tel":"031-527-1136","addr":"경기도 남양주시 진접읍 진벌리 253-5번지 1층","category":"일반휴게음식 - 일반한식"}]},{"lat":"37.739436966","long":"127.22321543","items":[{"name":"씨유진접우량점","tel":"031-527-2223","addr":"경기도 남양주시 진접읍 진벌리 265번지 1층","category":"유통업 영리 - 편 의 점"},{"name":"주식회사 대왕푸드","tel":"031-527-7943","addr":"경기도 남양주시 진접읍 진벌리 265번지","category":"일반휴게음식 - 일반한식"}]},{"lat":"37.743236102","long":"127.21496703","items":[{"name":"아름다운 공간","tel":"070-8670-3159","addr":"경기도 남양주시 진접읍 진벌리 552-5번지","category":"신변잡화 - 기타잡화"},{"name":"투맨시스템","tel":"031-527-6114","addr":"경기도 남양주시 진접읍 진벌리 552-5번지","category":"전기제품 - 냉열기기"}]},{"lat":"37.744680428","long":"127.21340542","items":[{"name":"아이룰진접직영학원","tel":"031-575-7052","addr":"경기도 남양주시 진접읍 진벌리 543-5번지 가동 2층 202호","category":"학원 - 보습학원"},{"name":"우정한우명가","tel":"031-573-7066","addr":"경기도 남양주시 진접읍 진벌리 543-5번지 가동 101호","category":"일반휴게음식 - 일반한식"},{"name":"우정한우정육점","tel":"031-573-7066","addr":"경기도 남양주시 진접읍 진벌리 543-5번지 가동 101호","category":"음료식품 - 정육점"},{"name":"조각미남","tel":"02-1111-1111","addr":"경기도 남양주시 진접읍 진벌리 543-5번지 가동 1층 일부","category":"보건위생 - 미용원"},{"name":"홍룡본관태권도장","tel":"031-527-7631","addr":"경기도 남양주시 진접읍 진벌리 543-5번지 가동 201호","category":"학원 - 예·체능계학원"}]},{"lat":"37.743985723","long":"127.21394805","items":[{"name":"아이티매니저","tel":"031-575-8086","addr":"경기도 남양주시 진접읍 진벌리 556-7번지 트윈빌 상가 A동 104호","category":"사무통신 - 컴퓨터"}]},{"lat":"37.733882046","long":"127.23060676","items":[{"name":"알사랑","tel":"031-574-3133","addr":"경기도 남양주시 진접읍 진벌리 90번지","category":"음료식품 - 농·축·수산품"}]},{"lat":"37.739180887","long":"127.22524543","items":[{"name":"알찬기업","tel":"","addr":"경기도 남양주시 진접읍 진벌리 267-2번지","category":"주방용구 - 주방용구"}]},{"lat":"37.744152367","long":"127.21646729","items":[{"name":"에스에이치푸드(SH F.D)","tel":"031-529-7226","addr":"경기도 남양주시 진접읍 진벌리 516번지","category":"음료식품 - 정육점"},{"name":"효성E.N.G","tel":"02-912-8118","addr":"경기도 남양주시 진접읍 진벌리 516","category":"기타 - 기계공구"}]},{"lat":"37.740741104","long":"127.21460821","items":[{"name":"영도특장","tel":"031-575-2292","addr":"경기도 남양주시 진접읍 진벌리 628번지 4동","category":"자동차판매 - 기타운송"}]},{"lat":"37.740797366","long":"127.21836367","items":[{"name":"옐로우엠","tel":"031-575-4641","addr":"경기도 남양주시 진접읍 진벌리 468-1번지","category":"자동차정비 유지 - 자동차부품"}]},{"lat":"37.734715932","long":"127.22800011","items":[{"name":"유니온가구","tel":"031-528-8831","addr":"경기도 남양주시 진접읍 진벌리 105-2번지","category":"가구 - 일반가구"}]},{"lat":"37.736435436","long":"127.21410813","items":[{"name":"유인터내셔널","tel":"070-9979-3434","addr":"경기도 남양주시 진접읍 진벌리 652번지","category":"신변잡화 - 액세서리"}]},{"lat":"37.739042846","long":"127.2267766","items":[{"name":"은성농산","tel":"031-000-0000","addr":"경기도 남양주시 진접읍 진벌리 273번지","category":"음료식품 - 기타음료식품"}]},{"lat":"37.743904292","long":"127.21414069","items":[{"name":"이담부대찌개","tel":"031-529-9443","addr":"경기도 남양주시 진접읍 진벌리 556-3번지","category":"일반휴게음식 - 일반한식"}]},{"lat":"37.739210478","long":"127.2286377","items":[{"name":"이엘오힘(elo HIM)","tel":"","addr":"경기도 남양주시 진접읍 진벌리 187-4번지 1동 1층","category":"용역 서비스 - 기타용역서비스"}]},{"lat":"37.738236464","long":"127.21955881","items":[{"name":"이음기업","tel":"070-8829-5352","addr":"경기도 남양주시 진접읍 진벌리 444-12번지","category":"신변잡화 - 기타잡화"}]},{"lat":"37.740962574","long":"127.21669638","items":[{"name":"임광자동차공업사","tel":"031-572-4970","addr":"경기도 남양주시 진접읍 진벌리 468-28번지 가동","category":"자동차정비 유지 - 자동차정비"}]},{"lat":"37.745206663","long":"127.21636821","items":[{"name":"자라넷","tel":"","addr":"경기도 남양주시 진접읍 진벌리 657번지 신창비바패밀리 105동 903호","category":"레져용품 - 스포츠·레져용품"}]},{"lat":"37.742738123","long":"127.21632708","items":[{"name":"장안식당","tel":"031-528-1999","addr":"경기도 남양주시 진접읍 진벌리 503번지","category":"일반휴게음식 - 일반한식"}]},{"lat":"37.737855484","long":"127.22577468","items":[{"name":"정아식품","tel":"031-573-9013","addr":"경기도 남양주시 진접읍 진벌리 281-4번지","category":"음료식품 - 기타음료식품"}]},{"lat":"37.74079318","long":"127.22546582","items":[{"name":"주식회사 돋움","tel":"031-571-6209","addr":"경기도 남양주시 진접읍 진벌리 234번지","category":"건축자재 - 유리"}]},{"lat":"37.739797913","long":"127.21803176","items":[{"name":"주식회사 부림테크","tel":"031-000-0000","addr":"경기도 남양주시 진접읍 진벌리 460번지","category":"건축자재 - 기타건축자재"},{"name":"주식회사삼도직물","tel":"031-111-1111","addr":"경기도 남양주시 진접읍 진벌리 460번지","category":"직물 - 옷감·직물"}]},{"lat":"37.746179955","long":"127.2162235","items":[{"name":"주식회사 비품센타","tel":"031-533-9911","addr":"경기도 남양주시 진접읍 진벌리 536-3번지","category":"신변잡화 - 기타잡화"}]},{"lat":"37.747076048","long":"127.21889245","items":[{"name":"주식회사 아일에어텍","tel":"031-527-9550","addr":"경기도 남양주시 진접읍 진벌리 535-9번지","category":"기타 - 기계공구"}]},{"lat":"37.737688217","long":"127.21883114","items":[{"name":"주식회사 이에프씨","tel":"031-529-4853","addr":"경기도 남양주시 진접읍 진벌리 444-2번지","category":"신변잡화 - 기타잡화"}]},{"lat":"37.736295539","long":"127.2311587","items":[{"name":"주식회사 이엘티티","tel":"031-528-8370","addr":"경기도 남양주시 진접읍 진벌리 169-3번지","category":"레져용품 - 스포츠·레져용품"},{"name":"주식회사엘티티","tel":"031-528-8372","addr":"경기도 남양주시 진접읍 진벌리 169-3번지","category":"자동차판매 - 기타운송"}]},{"lat":"37.738604707","long":"127.22974767","items":[{"name":"주식회사 해쉬드림","tel":"031-1544-2482","addr":"경기도 남양주시 진접읍 진벌리 185번지","category":"용역 서비스 - 사무서비스"}]},{"lat":"37.741265936","long":"127.23263751","items":[{"name":"주형통상","tel":"031-876-6938","addr":"경기도 남양주시 진접읍 진벌리 200-4번지","category":"주방용구 - 주방용구"}]},{"lat":"37.735964007","long":"127.23021608","items":[{"name":"진벌식당","tel":"031-528-9064","addr":"경기도 남양주시 진접읍 진벌리 159-20번지 1층 일부","category":"일반휴게음식 - 일반한식"}]},{"lat":"37.735544084","long":"127.2137766","items":[{"name":"진접현대자동차공업사","tel":"031-529-7890","addr":"경기도 남양주시 진접읍 진벌리 654-3번지","category":"자동차정비 유지 - 자동차정비"},{"name":"진접현대자동차공업사","tel":"031-595-2520","addr":"경기도 남양주시 진접읍 진벌리 654-3번지","category":"자동차정비 유지 - 자동차정비"},{"name":"진접현대자동차공업사","tel":"031-595-2520","addr":"경기도 남양주시 진접읍 진벌리 654-3번지","category":"자동차정비 유지 - 자동차정비"}]},{"lat":"37.736019995","long":"127.23385786","items":[{"name":"창대가구","tel":"070-8129-8018","addr":"경기도 남양주시 진접읍 진벌리 5번지","category":"가구 - 일반가구"}]},{"lat":"37.744014293","long":"127.21308585","items":[{"name":"카사블링카(casbingcar)","tel":"070-4465-7757","addr":"경기도 남양주시 진접읍 진벌리 565-6번지 1층","category":"자동차정비 유지 - 카인테리어"}]},{"lat":"37.740268857","long":"127.23110283","items":[{"name":"케이제이가구","tel":"031-527-8519","addr":"경기도 남양주시 진접읍 진벌리 196-4번지","category":"가구 - 일반가구"}]},{"lat":"37.735904292","long":"127.23313145","items":[{"name":"태홍산업","tel":"031-527-6638","addr":"경기도 남양주시 진접읍 진벌리 126-6번지","category":"신변잡화 - 기타잡화"}]},{"lat":"37.744709555","long":"127.21724042","items":[{"name":"페스트몰(PEST MALL)","tel":"031-528-7426","addr":"경기도 남양주시 진접읍 진벌리 657번지 신창비바패밀리 110동 102호","category":"회원제형태 - 기타4"}]},{"lat":"37.743766006","long":"127.21588755","items":[{"name":"평원건설기계","tel":"031-527-9218","addr":"경기도 남양주시 진접읍 진벌리 549-1번지","category":"수리서비스 - 기타수리서비스"}]},{"lat":"37.740124056","long":"127.2219468","items":[{"name":"플로우","tel":"031-575-5367","addr":"경기도 남양주시 진접읍 진벌리 493-1번지 1층","category":"건축자재 - 기타건축자재"}]},{"lat":"37.744586484","long":"127.21554952","items":[{"name":"한국발기공","tel":"031-541-6108","addr":"경기도 남양주시 진접읍 진벌리 657번지 신창비바패밀리 101동 904호","category":"회원제형태 - 학원"}]},{"lat":"37.739902929","long":"127.21972249","items":[{"name":"한성제피로스","tel":"02-925-3877","addr":"경기도 남양주시 진접읍 진벌리 454-2번지 1층","category":"건축자재 - 보일러·펌프·샷시"}]},{"lat":"37.74338164","long":"127.21419594","items":[{"name":"해밀 푸드 시스템","tel":"031-574-5313","addr":"경기도 남양주시 진접읍 진벌리 555-2번지 가동","category":"음료식품 - 농·축·수산품"},{"name":"해밀푸드시스템","tel":"031-574-5313","addr":"경기도 남양주시 진접읍 진벌리 555-2번지 가동","category":"음료식품 - 농·축·수산품"},{"name":"해밀푸드시스템","tel":"031-574-5313","addr":"경기도 남양주시 진접읍 진벌리 555-2번지 가동","category":"음료식품 - 미곡상"},{"name":"해밀푸드시스템","tel":"031-574-5313","addr":"경기도 남양주시 진접읍 진벌리 555-2번지 가동","category":"음료식품 - 농·축·수산품"},{"name":"해밀푸드시스템","tel":"031-574-5313","addr":"경기도 남양주시 진접읍 진벌리 555-2번지 가동","category":"음료식품 - 기타음료식품"},{"name":"해온세차장","tel":"031-572-4149","addr":"경기도 남양주시 진접읍 진벌리 555-2번지","category":"자동차정비 유지 - 세차장"},{"name":"현장원","tel":"031-528-6263","addr":"경기도 남양주시 진접읍 진벌리 555-2번지 나동","category":"음료식품 - 기타음료식품"}]},{"lat":"37.744291863","long":"127.21405103","items":[{"name":"현승안전물산","tel":"031-574-2432","addr":"경기도 남양주시 진접읍 진벌리 539-2번지 1층","category":"건축자재 - 목재·석재·철물"}]}]