[{"lat":"37.4513855","long":"127.1680642","items":[{"name":"BYC(은행점)","tel":"031-749-9293","addr":"경기도 성남시 중원구 은행동 2396번지","category":""}]},{"lat":"37.4591352","long":"127.1672336","items":[{"name":"OK미용실","tel":"031-743-9206","addr":"경기도 성남시 중원구 은행동 713번지","category":""}]},{"lat":"37.4587684","long":"127.1653453","items":[{"name":"가마고을","tel":"031-731-1455","addr":"경기도 성남시 중원구 은행동 726번지","category":""}]},{"lat":"37.4570211","long":"127.1648781","items":[{"name":"거부축산","tel":"031-743-8078","addr":"경기도 성남시 중원구 은행동 1549-1번지","category":""},{"name":"속옷나라 BYC","tel":"031-749-0879","addr":"경기도 성남시 중원구 은행동 1549-1번지","category":""}]},{"lat":"37.4573015","long":"127.1640988","items":[{"name":"경기동부인삼농협 성남은행지점","tel":"031-748-7323","addr":"경기도 성남시 중원구 은행동 1554번지","category":""}]},{"lat":"37.4576876","long":"127.1650943","items":[{"name":"경기쌀직판장","tel":"031-731-3793","addr":"경기도 성남시 중원구 은행동 1004번지","category":""}]},{"lat":"37.454853","long":"127.1624322","items":[{"name":"경일음악학원","tel":"031-742-9533","addr":"경기도 성남시 중원구 은행동 1672번지","category":""}]},{"lat":"37.4563822","long":"127.1643229","items":[{"name":"과일가게","tel":"031-732-5401","addr":"경기도 성남시 중원구 은행동 1710번지","category":""}]},{"lat":"37.4608828","long":"127.1674522","items":[{"name":"교촌치킨","tel":"031-745-5494","addr":"경기도 성남시 중원구 은행동 663-3번지","category":""},{"name":"문어폭탄","tel":"031-734-0715","addr":"경기도 성남시 중원구 은행동 663-3번지","category":""}]},{"lat":"37.460998","long":"127.1688992","items":[{"name":"국보할인마트","tel":"031-744-4493","addr":"경기도 성남시 중원구 은행동 640번지","category":""},{"name":"국보할인마트 은행점","tel":"031-744-4493","addr":"경기도 성남시 중원구 은행동 640번지","category":""},{"name":"새음음악학원","tel":"031-742-4268","addr":"경기도 성남시 중원구 은행동 640번지","category":""}]},{"lat":"37.4621869","long":"127.1691505","items":[{"name":"까페 앤드티","tel":"031-735-4991","addr":"경기도 성남시 중원구 은행동 608번지","category":""},{"name":"네파 남한산성점","tel":"031-747-7971","addr":"경기도 성남시 중원구 은행동 608번지","category":""}]},{"lat":"37.4510542","long":"127.1665717","items":[{"name":"낙원숯불갈비","tel":"031-749-8002","addr":"경기도 성남시 중원구 은행동 2444번지","category":""}]},{"lat":"37.4573006","long":"127.1647318","items":[{"name":"남도수산","tel":"031-742-2118","addr":"경기도 성남시 중원구 은행동 1553-1번지","category":""},{"name":"제일한우고기백화점","tel":"031-742-3306","addr":"경기도 성남시 중원구 은행동 1553-1번지","category":""},{"name":"할인마트","tel":"031-745-7654","addr":"경기도 성남시 중원구 은행동 1553-1번지","category":""}]},{"lat":"37.4564646","long":"127.1633172","items":[{"name":"남성크로커다일,올리비안로렌","tel":"031-734-5819","addr":"경기도 성남시 중원구 은행동 1580번지","category":""}]},{"lat":"37.4567152","long":"127.1645723","items":[{"name":"내고향농산물","tel":"031-741-2829","addr":"경기도 성남시 중원구 은행동 1532번지","category":""}]},{"lat":"37.4568592","long":"127.1647082","items":[{"name":"농심축산물도매센터","tel":"031-736-1240","addr":"경기도 성남시 중원구 은행동 1538번지","category":""},{"name":"설악산 직판장","tel":"","addr":"경기도 성남시 중원구 은행동 1538번지","category":""}]},{"lat":"37.4593801","long":"127.16607","items":[{"name":"눈큰나라","tel":"031-733-9898","addr":"경기도 성남시 중원구 은행동 722-8번지","category":""}]},{"lat":"37.4585255","long":"127.1650961","items":[{"name":"다도해막썰어","tel":"031-742-4789","addr":"경기도 성남시 중원구 은행동 979번지","category":""}]},{"lat":"37.4571299","long":"127.1644262","items":[{"name":"다해네 떡볶이","tel":"","addr":"경기도 성남시 중원구 은행동 1556번지","category":""},{"name":"코코샤넬 은행점","tel":"031-735-8828","addr":"경기도 성남시 중원구 은행동 1556번지","category":""}]},{"lat":"37.4558562","long":"127.1668195","items":[{"name":"달봉돈까스","tel":"031-732-0900","addr":"경기도 성남시 중원구 은행동 1346번지 선진빌라","category":""}]},{"lat":"37.4586335","long":"127.1652093","items":[{"name":"대박난소","tel":"070-4065-0078","addr":"경기도 성남시 중원구 은행동 978번지","category":""},{"name":"산성쌈밥","tel":"031-733-6054","addr":"경기도 성남시 중원구 은행동 978번지","category":""}]},{"lat":"37.4516026","long":"127.1674544","items":[{"name":"대성이발관","tel":"031-742-2380","addr":"경기도 성남시 중원구 은행동 2380번지 삼진빌라","category":""}]},{"lat":"37.4574993","long":"127.164427","items":[{"name":"동네 고깃간","tel":"031-735-8882","addr":"경기도 성남시 중원구 은행동 1553번지","category":""},{"name":"못된 고양이 은행점","tel":"070-4296-5978","addr":"경기도 성남시 중원구 은행동 1553번지","category":""},{"name":"미소축산","tel":"","addr":"경기도 성남시 중원구 은행동 1553번지","category":""},{"name":"서울사","tel":"031-749-9989","addr":"경기도 성남시 중원구 은행동 1553번지","category":""},{"name":"아울렛DC백화점","tel":"031-747-8828","addr":"경기도 성남시 중원구 은행동 1553번지","category":""},{"name":"에이스 식자재 할인마트","tel":"031-744-4545","addr":"경기도 성남시 중원구 은행동 1553번지","category":""},{"name":"은행떡방앗간","tel":"031-747-8326","addr":"경기도 성남시 중원구 은행동 1553번지","category":""},{"name":"은행참기름","tel":"031-747-9629","addr":"경기도 성남시 중원구 은행동 1553번지","category":""},{"name":"일심상회","tel":"031-747-7046","addr":"경기도 성남시 중원구 은행동 1553번지","category":""},{"name":"청춘푸줏간","tel":"031-745-9245","addr":"경기도 성남시 중원구 은행동 1553번지","category":""},{"name":"충남기름집","tel":"031-734-4079","addr":"경기도 성남시 중원구 은행동 1553번지","category":""},{"name":"혜원식품","tel":"031-744-5986","addr":"경기도 성남시 중원구 은행동 1553번지","category":""}]},{"lat":"37.4547727","long":"127.1619008","items":[{"name":"동서화장품","tel":"031-741-0154","addr":"경기도 성남시 중원구 은행동 422-4번지","category":""},{"name":"한우리축산","tel":"031-748-9535","addr":"경기도 성남시 중원구 은행동 422-4번지","category":""}]},{"lat":"37.4611346","long":"127.1678144","items":[{"name":"동화침구","tel":"031-731-2737","addr":"경기도 성남시 중원구 은행동 663-60번지","category":""}]},{"lat":"37.4599106","long":"127.1668397","items":[{"name":"돼지저금통","tel":"031-743-5995","addr":"경기도 성남시 중원구 은행동 683번지","category":""}]},{"lat":"37.4607749","long":"127.1673163","items":[{"name":"두꺼비슈퍼","tel":"031-732-1374","addr":"경기도 성남시 중원구 은행동 663-4번지","category":""}]},{"lat":"37.4557716","long":"127.1627393","items":[{"name":"두창정미소","tel":"031-733-3007","addr":"경기도 성남시 중원구 은행동 1630번지","category":""},{"name":"중독","tel":"031-733-3323","addr":"경기도 성남시 중원구 은행동 1630번지","category":""}]},{"lat":"37.4591904","long":"127.1664312","items":[{"name":"디데이프리이엄 독서실","tel":"031-736-3302","addr":"경기도 성남시 중원구 은행동 722-19번지","category":""}]},{"lat":"37.4539986","long":"127.1612889","items":[{"name":"럭키할인마트","tel":"031-744-9033","addr":"경기도 성남시 중원구 은행동 423-22번지","category":""}]},{"lat":"37.4512979","long":"127.1662332","items":[{"name":"마을공판장","tel":"031-731-3327","addr":"경기도 성남시 중원구 은행동 2331-2번지 한성빌라3차","category":""}]},{"lat":"37.4544397","long":"127.1616289","items":[{"name":"막썰어회집","tel":"031-747-0664","addr":"경기도 성남시 중원구 은행동 423-4번지","category":""}]},{"lat":"37.4565267","long":"127.1640407","items":[{"name":"맛찾사","tel":"","addr":"경기도 성남시 중원구 은행동 1609번지 합천빌라","category":""}]},{"lat":"37.4546377","long":"127.1617875","items":[{"name":"멘토 영수 학원","tel":"031-733-7552","addr":"경기도 성남시 중원구 은행동 422-10번지","category":""}]},{"lat":"37.4602983","long":"127.1666823","items":[{"name":"무봉리토종순대국","tel":"031-744-3948","addr":"경기도 성남시 중원구 은행동 667번지","category":""}]},{"lat":"37.4613553","long":"127.1710928","items":[{"name":"뮤즈 음악 학원","tel":"031-746-7788","addr":"경기도 성남시 중원구 은행동 563번지","category":""}]},{"lat":"37.4518532","long":"127.1685964","items":[{"name":"미끼헤어샵","tel":"031-746-5613","addr":"경기도 성남시 중원구 은행동 2358번지","category":""}]},{"lat":"37.4639127","long":"127.1720706","items":[{"name":"민속공예전시관입주자자치회","tel":"031-732-7975","addr":"경기도 성남시 중원구 은행동 82-3번지","category":""}]},{"lat":"37.4618002","long":"127.1686523","items":[{"name":"밀레남한산성점","tel":"031-731-9047","addr":"경기도 성남시 중원구 은행동 611번지","category":""}]},{"lat":"37.4553576","long":"127.1623993","items":[{"name":"밝은안경","tel":"031-754-6165","addr":"경기도 성남시 중원구 은행동 1634번지","category":""},{"name":"신신약국","tel":"031-743-3748","addr":"경기도 성남시 중원구 은행동 1634번지","category":""}]},{"lat":"37.4567427","long":"127.1642333","items":[{"name":"방가로두부이야기","tel":"031-736-3006","addr":"경기도 성남시 중원구 은행동 1572번지","category":""}]},{"lat":"37.4607454","long":"127.1690908","items":[{"name":"번영축산","tel":"031-734-2799","addr":"경기도 성남시 중원구 은행동 651-4번지","category":""}]},{"lat":"37.4615214","long":"127.16829","items":[{"name":"보물촌꺼먹돼지","tel":"031-741-4435","addr":"경기도 성남시 중원구 은행동 613번지 광일빌딩","category":""}]},{"lat":"37.4629689","long":"127.170486","items":[{"name":"봉선정","tel":"031-749-4300","addr":"경기도 성남시 중원구 은행동 589번지","category":""}]},{"lat":"37.4567205","long":"127.1672283","items":[{"name":"부부이불","tel":"031-742-9731","addr":"경기도 성남시 중원구 은행동 1052번지 반석하이츠빌라","category":""}]},{"lat":"37.4612426","long":"127.1679503","items":[{"name":"산성닭한마리","tel":"031-742-7778","addr":"경기도 성남시 중원구 은행동 663-59번지","category":""}]},{"lat":"37.4551597","long":"127.1622294","items":[{"name":"산성철물","tel":"031-745-8796","addr":"경기도 성남시 중원구 은행동 1637번지","category":""}]},{"lat":"37.4574085","long":"127.1649241","items":[{"name":"상설할인매장","tel":"031-742-4383","addr":"경기도 성남시 중원구 은행동 1553-3번지","category":""},{"name":"아라네화장품","tel":"031-747-3729","addr":"경기도 성남시 중원구 은행동 1553-3번지","category":""},{"name":"캡틴파파","tel":"031-741-0430","addr":"경기도 성남시 중원구 은행동 1553-3번지","category":""}]},{"lat":"37.451278","long":"127.1675667","items":[{"name":"생문약국","tel":"031-747-4019","addr":"경기도 성남시 중원구 은행동 2406번지","category":""}]},{"lat":"37.4512154","long":"127.1672841","items":[{"name":"샴푸보이미용실","tel":"031-734-9633","addr":"경기도 성남시 중원구 은행동 2428번지","category":""}]},{"lat":"37.4573272","long":"127.1650935","items":[{"name":"성남정육백화점","tel":"031-746-9005","addr":"경기도 성남시 중원구 은행동 1552번지","category":""},{"name":"은행낙원떡집","tel":"031-744-9333","addr":"경기도 성남시 중원구 은행동 1552번지","category":""}]},{"lat":"37.4627175","long":"127.1698751","items":[{"name":"성원닭갈비 은행점","tel":"031-732-0912","addr":"경기도 성남시 중원구 은행동 599번지","category":""}]},{"lat":"37.4569138","long":"127.1642901","items":[{"name":"성원수산","tel":"031-722-5197","addr":"경기도 성남시 중원구 은행동 1564-1번지","category":""}]},{"lat":"37.4569402","long":"127.1647649","items":[{"name":"소이축산","tel":"031-744-0829","addr":"경기도 성남시 중원구 은행동 1539번지","category":""},{"name":"웰빙가","tel":"031-736-5482","addr":"경기도 성남시 중원구 은행동 1539번지","category":""}]},{"lat":"37.4569405","long":"127.1645388","items":[{"name":"속옷랜드","tel":"031-741-6656","addr":"경기도 성남시 중원구 은행동 1558-1번지","category":""}]},{"lat":"37.4592717","long":"127.1662619","items":[{"name":"솥뚜껑삼겹살","tel":"031-742-7780","addr":"경기도 성남시 중원구 은행동 722-12번지","category":""}]},{"lat":"37.4513585","long":"127.1679851","items":[{"name":"수니샵","tel":"","addr":"경기도 성남시 중원구 은행동 2398-2번지","category":""}]},{"lat":"37.4547724","long":"127.1620929","items":[{"name":"스마일수제찹쌀꽈배기","tel":"031-757-6480","addr":"경기도 성남시 중원구 은행동 422-2번지","category":""}]},{"lat":"37.4549705","long":"127.1622064","items":[{"name":"신맑은소리음악학원","tel":"031-749-7314","addr":"경기도 성남시 중원구 은행동 1640번지","category":""}]},{"lat":"37.4567706","long":"127.1636004","items":[{"name":"신부방홈패션","tel":"031-731-8981","addr":"경기도 성남시 중원구 은행동 1578-1번지","category":""}]},{"lat":"37.4567692","long":"127.1646515","items":[{"name":"신선한 바다","tel":"031-731-7283","addr":"경기도 성남시 중원구 은행동 1533번지","category":""},{"name":"해남수산 은행점","tel":"031-731-7283","addr":"경기도 성남시 중원구 은행동 1533번지","category":""}]},{"lat":"37.4568575","long":"127.1659288","items":[{"name":"씨앤씨 안경원","tel":"031-733-3370","addr":"경기도 성남시 중원구 은행동 1454번지","category":""}]},{"lat":"37.4626366","long":"127.169728","items":[{"name":"아이더 남한산성","tel":"031-731-4277","addr":"경기도 성남시 중원구 은행동 600-1번지","category":""}]},{"lat":"37.460685","long":"127.1672031","items":[{"name":"아일럽파스타","tel":"031-747-6376","addr":"경기도 성남시 중원구 은행동 663-5번지","category":""}]},{"lat":"37.4511348","long":"127.1668996","items":[{"name":"에디슨치킨&본스치킨","tel":"031-749-9945","addr":"경기도 성남시 중원구 은행동 2438번지","category":""}]},{"lat":"37.4564113","long":"127.1693185","items":[{"name":"엘지할인마트","tel":"","addr":"경기도 성남시 중원구 은행동 1155번지","category":""}]},{"lat":"37.4558256","long":"127.1628185","items":[{"name":"오시날개","tel":"031-748-1433","addr":"경기도 성남시 중원구 은행동 1629번지","category":""}]},{"lat":"37.4583275","long":"127.16496","items":[{"name":"올포유 성남은행점","tel":"031-733-9392","addr":"경기도 성남시 중원구 은행동 980번지","category":""},{"name":"크로커다일레이디","tel":"031-736-9393","addr":"경기도 성남시 중원구 은행동 980번지","category":""}]},{"lat":"37.4613594","long":"127.1681201","items":[{"name":"우리산성약국","tel":"031-733-1770","addr":"경기도 성남시 중원구 은행동 663번지","category":""}]},{"lat":"37.4608541","long":"127.1686502","items":[{"name":"월드약국","tel":"031-745-2600","addr":"경기도 성남시 중원구 은행동 663-103번지","category":""},{"name":"월드옵티마약국","tel":"031-745-5600","addr":"경기도 성남시 중원구 은행동 663-103번지","category":""}]},{"lat":"37.4524372","long":"127.1697618","items":[{"name":"월드유통","tel":"031-749-3904","addr":"경기도 성남시 중원구 은행동 1978번지","category":""}]},{"lat":"37.4547181","long":"127.1622398","items":[{"name":"웰라잉글리쉬 은행캠퍼스학원","tel":"","addr":"경기도 성남시 중원구 은행동 422-1번지","category":""}]},{"lat":"37.4547699","long":"127.1639239","items":[{"name":"은빛할인마트 은행점","tel":"031-746-3288","addr":"경기도 성남시 중원구 은행동 1740-8번지","category":""},{"name":"한나헤어샵","tel":"031-731-6591","addr":"경기도 성남시 중원구 은행동 1740-8번지","category":""}]},{"lat":"37.4568867","long":"127.1643692","items":[{"name":"은행건어물","tel":"031-732-2013","addr":"경기도 성남시 중원구 은행동 1565번지","category":""}]},{"lat":"37.4571035","long":"127.1639289","items":[{"name":"은행농산물","tel":"031-734-1555","addr":"경기도 성남시 중원구 은행동 1562번지","category":""}]},{"lat":"37.4570485","long":"127.1645956","items":[{"name":"은행돈","tel":"","addr":"경기도 성남시 중원구 은행동 1557번지","category":""},{"name":"은행동 카페","tel":"031-745-9848","addr":"경기도 성남시 중원구 은행동 1557번지","category":""},{"name":"은행상회","tel":"031-749-2085","addr":"경기도 성남시 중원구 은행동 1557번지","category":""},{"name":"총각야채","tel":"031-731-7314","addr":"경기도 성남시 중원구 은행동 1557번지","category":""}]},{"lat":"37.4562746","long":"127.1639271","items":[{"name":"은행사철탕","tel":"","addr":"경기도 성남시 중원구 은행동 1613번지","category":""}]},{"lat":"37.4568325","long":"127.1644595","items":[{"name":"은행식품","tel":"031-745-6002","addr":"경기도 성남시 중원구 은행동 1565-1번지","category":""}]},{"lat":"37.4616653","long":"127.1684599","items":[{"name":"의정부송가네부대찌개","tel":"031-732-2777","addr":"경기도 성남시 중원구 은행동 612번지","category":""}]},{"lat":"37.4563012","long":"127.1642323","items":[{"name":"이플러스미니마트","tel":"","addr":"경기도 성남시 중원구 은행동 1711번지","category":""}]},{"lat":"37.4554656","long":"127.1625352","items":[{"name":"인매쓰수학학원","tel":"031-733-0320","addr":"경기도 성남시 중원구 은행동 1633번지","category":""}]},{"lat":"37.4627432","long":"127.1707907","items":[{"name":"장마담집(은행동)","tel":"031-745-9665","addr":"경기도 성남시 중원구 은행동 587-1번지","category":""}]},{"lat":"37.4556366","long":"127.162626","items":[{"name":"정관장(남한산성역점)","tel":"031-745-2304","addr":"경기도 성남시 중원구 은행동 1632번지","category":""}]},{"lat":"37.4566316","long":"127.1664257","items":[{"name":"조약국","tel":"031-745-3311","addr":"경기도 성남시 중원구 은행동 1433-2번지","category":""}]},{"lat":"37.4563836","long":"127.1632379","items":[{"name":"좋은축산마을","tel":"031-733-0580","addr":"경기도 성남시 중원구 은행동 1581번지","category":""}]},{"lat":"37.4571381","long":"127.1649575","items":[{"name":"찬의 궁전","tel":"","addr":"경기도 성남시 중원구 은행동 1549번지","category":""}]},{"lat":"37.4566072","long":"127.1644816","items":[{"name":"찬찬찬","tel":"031-742-9848","addr":"경기도 성남시 중원구 은행동 1501번지","category":""}]},{"lat":"37.4515197","long":"127.1687087","items":[{"name":"찬찬참","tel":"031-745-5192","addr":"경기도 성남시 중원구 은행동 2384번지 까치빌라18차","category":""}]},{"lat":"37.4581655","long":"127.1648127","items":[{"name":"창생한의원","tel":"031-746-7975","addr":"경기도 성남시 중원구 은행동 982번지","category":""}]},{"lat":"37.4538","long":"127.1616275","items":[{"name":"천지인의료기","tel":"031-733-6001","addr":"경기도 성남시 중원구 은행동 423-19번지","category":""}]},{"lat":"37.4564419","long":"127.1667304","items":[{"name":"청우철물보일러","tel":"031-743-6359","addr":"경기도 성남시 중원구 은행동 1420번지","category":""}]},{"lat":"37.4567164","long":"127.163702","items":[{"name":"청풍수산(회집)","tel":"031-745-1262","addr":"경기도 성남시 중원구 은행동 1578번지","category":""}]},{"lat":"37.4594704","long":"127.1659232","items":[{"name":"청학동","tel":"031-734-2241","addr":"경기도 성남시 중원구 은행동 722-1번지","category":""}]},{"lat":"37.4566351","long":"127.1638487","items":[{"name":"최가네치킨","tel":"","addr":"경기도 성남시 중원구 은행동 1592번지 희망빌라","category":""}]},{"lat":"37.4604422","long":"127.1668409","items":[{"name":"카페미오","tel":"031-736-3001","addr":"경기도 성남시 중원구 은행동 666번지","category":""}]},{"lat":"37.4577688","long":"127.1649588","items":[{"name":"카페클락 (성남은행점)","tel":"","addr":"경기도 성남시 중원구 은행동 1001번지","category":""},{"name":"홍왕만두","tel":"","addr":"경기도 성남시 중원구 은행동 1001번지","category":""}]},{"lat":"37.4567699","long":"127.1641203","items":[{"name":"통일정육점","tel":"031-741-5992","addr":"경기도 성남시 중원구 은행동 1573번지","category":""}]},{"lat":"37.4542147","long":"127.161425","items":[{"name":"파리바게트 성남중앙점","tel":"031-745-2121","addr":"경기도 성남시 중원구 은행동 423-13번지","category":""}]},{"lat":"37.4610538","long":"127.1676447","items":[{"name":"파파주스(본점)","tel":"","addr":"경기도 성남시 중원구 은행동 663-1번지","category":""}]},{"lat":"37.4588584","long":"127.165402","items":[{"name":"펀비어킹 성남을지대점","tel":"031-747-9279","addr":"경기도 성남시 중원구 은행동 725번지","category":""}]},{"lat":"37.4560807","long":"127.1673399","items":[{"name":"한국유통 럭키점","tel":"031-734-3285","addr":"경기도 성남시 중원구 은행동 1341번지","category":""}]},{"lat":"37.4524095","long":"127.170259","items":[{"name":"한국유통(이준점)","tel":"031-732-4719","addr":"경기도 성남시 중원구 은행동 2056번지","category":""}]},{"lat":"37.4517468","long":"127.1673756","items":[{"name":"한국유통(지혜점)","tel":"031-742-8791","addr":"경기도 성남시 중원구 은행동 2289번지 까치빌라1차","category":""}]},{"lat":"37.4516365","long":"127.1689237","items":[{"name":"한국유통(형제점)","tel":"031-731-4285","addr":"경기도 성남시 중원구 은행동 2222번지","category":""}]},{"lat":"37.4629154","long":"127.1701242","items":[{"name":"할머니순두부집","tel":"031-743-7556","addr":"경기도 성남시 중원구 은행동 591번지","category":""}]},{"lat":"37.4555503","long":"127.1664572","items":[{"name":"헤어아지트","tel":"031-744-1614","addr":"경기도 성남시 중원구 은행동 1352","category":""}]},{"lat":"37.4516099","long":"127.168675","items":[{"name":"형제축산","tel":"","addr":"경기도 성남시 중원구 은행동 2383번지","category":""}]},{"lat":"37.4566896","long":"127.1635098","items":[{"name":"효마트","tel":"031-733-5589","addr":"경기도 성남시 중원구 은행동 1578-2번지","category":""}]},{"lat":"37.4590474","long":"127.1655719","items":[{"name":"휠라스포츠성남은행점","tel":"031-723-9000","addr":"경기도 성남시 중원구 은행동 723번지","category":""}]}]