[{"lat":"37.522934111","long":"127.21802971","imageIndex":7,"items":[{"name":"(주)운강유통하남지점","tel":"031-795-2222","addr":"경기도 하남시 천현동 628번지 하남시마루공원내편의점","indutype":"유통업 영리 - 슈퍼마켓","category":"mart"}]},{"lat":"37.534790684","long":"127.22314376","imageIndex":7,"items":[{"name":"(주)해강","tel":"031-795-7100","addr":"경기도 하남시 천현동 40-19번지","indutype":"유통업 영리 - 슈퍼마켓","category":"mart"}]},{"lat":"37.535510549","long":"127.21377777","imageIndex":7,"items":[{"name":"공원할인마트","tel":"031-795-0802","addr":"경기도 하남시 천현동 614-3번지","indutype":"유통업 영리 - 슈퍼마켓","category":"mart"}]},{"lat":"37.522603171","long":"127.22161472","imageIndex":7,"items":[{"name":"복지슈퍼","tel":"031-792-4791","addr":"경기도 하남시 천현동 525-4번지","indutype":"유통업 영리 - 슈퍼마켓","category":"mart"}]},{"lat":"37.53081925","long":"127.20703307","imageIndex":7,"items":[{"name":"주식회사케이알산업하남(만)휴게소","tel":"031-791-4200","addr":"경기도 하남시 천현동 267번지","indutype":"유통업 영리 - 슈퍼마켓","category":"mart"}]},{"lat":"37.535872756","long":"127.21276051","imageIndex":7,"items":[{"name":"현대할인마트","tel":"031-792-4163","addr":"경기도 하남시 천현동 612-9번지","indutype":"유통업 영리 - 슈퍼마켓","category":"mart"}]}]