[{"lat":"37.15453595","long":"127.17351775","items":[{"name":"(주) 레드컴업 (생활맥주한숲시티점)","tel":"031-333-0344","addr":"경기도 용인시 처인구 남사면 완장리 954번지 e편한세상 용인 한숲시티 1층 109,110호(6블록)","category":"일반휴게음식 - 주점"},{"name":"Bailey garden & flower","tel":"","addr":"경기도 용인시 처인구 남사면 완장리 954번지 e편한세상용인한숲시티 1층 127호","category":"문화.취미 - 화원"},{"name":"던킨도넛츠 용인한숲시티점","tel":"031-321-4662","addr":"경기도 용인시 처인구 남사면 완장리 954번지 e편한세상용인한숲시티 6단지 1층 120호,121호","category":"음료식품 - 제과점"},{"name":"던킨도넛츠(용인한숲시티점)","tel":"031-321-4662","addr":"경기도 용인시 처인구 남사면 완장리 954번지 e편한세상용인한숲시티 120,121호","category":"음료식품 - 제과점"},{"name":"리안헤어용인한숲시티점","tel":"031-334-2518","addr":"경기도 용인시 처인구 남사면 완장리 954번지 e편한세상용인한숲시티 3층 304호","category":"보건위생 - 미용원"},{"name":"백채김치찌개","tel":"031-323-0523","addr":"경기도 용인시 처인구 남사면 완장리 954번지 e편한세상용인한숲시티 106호","category":"일반휴게음식 - 일반한식"},{"name":"베스킨라빈스 용인한숲시티점","tel":"02-0000-0000","addr":"경기도 용인시 처인구 남사면 완장리 954번지 e편한세상 용인 한숲시티 105호 104호,105호","category":"음료식품 - 제과점"},{"name":"비비큐(b.b.q)용인남사점","tel":"031-335-8292","addr":"경기도 용인시 처인구 남사면 완장리 954번지 e편한세상용인한숲시티 상가동 1층 103호","category":"일반휴게음식 - 스넥"},{"name":"수학의 봄-다비수","tel":"070-7722-0709","addr":"경기도 용인시 처인구 남사면 완장리 954번지 e편한세상 용인 한숲시티","category":"학원 - 기타 교육기관"},{"name":"요가사띠","tel":"","addr":"경기도 용인시 처인구 남사면 완장리 954번지 e편한세상 용인 한숲시티","category":"레저업소 - 헬스클럽"},{"name":"요가하는집","tel":"","addr":"경기도 용인시 처인구 남사면 완장리 954번지 e편한세상 용인 한숲시티","category":"레저업소 - 헬스클럽"},{"name":"용인한숲분원정상어학원","tel":"031-333-9921","addr":"경기도 용인시 처인구 남사면 완장리 954번지 e편한세상용인한숲시티 401호~404호","category":"학원 - 외국어학원"},{"name":"용인한숲시티튼튼영어마스터클럽","tel":"","addr":"경기도 용인시 처인구 남사면 완장리 954번지 e편한세상 용인 한숲시티","category":"학원 - 기타 교육기관"},{"name":"용인한숲정상어학원","tel":"031-333-9921","addr":"경기도 용인시 처인구 남사면 완장리 954번지 e편한세상용인한숲시티 403,404호","category":"학원 - 외국어학원"},{"name":"우리들 온누리약국","tel":"031-336-7789","addr":"경기도 용인시 처인구 남사면 완장리 954번지 e편한세상용인한숲시티 1층 129호","category":"약국 - 약국"},{"name":"주식회사 레드컴업","tel":"031-333-0344","addr":"경기도 용인시 처인구 남사면 완장리 954번지 e편한세상 용인 한숲시티","category":"사무통신 - 통신기기"},{"name":"죽이야기(한숲시티점)","tel":"031-333-6288","addr":"경기도 용인시 처인구 남사면 완장리 954번지 e편한세상용인한숲시티 6단지 상가 1층 128호","category":"일반휴게음식 - 일반한식"},{"name":"지니어스브레인","tel":"","addr":"경기도 용인시 처인구 남사면 완장리 954번지 e편한세상 용인 한숲시티","category":"학원 - 기타 교육기관"},{"name":"청년다방 용인한숲점","tel":"070-7543-8542","addr":"경기도 용인시 처인구 남사면 완장리 954번지 e편한세상용인한숲시티 근린생활시설동 1층 122호","category":"일반휴게음식 - 스넥"},{"name":"케이트영어연구소","tel":"","addr":"경기도 용인시 처인구 남사면 완장리 954번지 e편한세상 용인 한숲시티","category":"학원 - 기타 교육기관"},{"name":"투썸플레이스 용인한숲시티점","tel":"031-333-0219","addr":"경기도 용인시 처인구 남사면 완장리 954번지 e편한세상용인한숲시티 1층 123~126호","category":"일반휴게음식 - 서양음식"},{"name":"하남돼지집 용인한숲시티점","tel":"031-339-3292","addr":"경기도 용인시 처인구 남사면 완장리 954번지 e편한세상 용인 한숲시티 1층 112호,113호","category":"일반휴게음식 - 일반한식"},{"name":"하준 수제돈가스&초밥","tel":"031-323-1235","addr":"경기도 용인시 처인구 남사면 완장리 954번지 e편한세상용인한숲시티6단지 108호","category":"일반휴게음식 - 일반한식"},{"name":"한숲우리가정의학과의원","tel":"031-333-5548","addr":"경기도 용인시 처인구 남사면 완장리 954번지 e편한세상용인한숲시티 3층 301~303호","category":"의원 - 의원"},{"name":"한숲코알라이비인후과","tel":"031-322-5075","addr":"경기도 용인시 처인구 남사면 완장리 954번지 e편한세상용인한숲시티 201~203호","category":"의원 - 의원"},{"name":"혼다라멘","tel":"","addr":"경기도 용인시 처인구 남사면 완장리 954번지 e편한세상용인한숲시티 상가동 1층 111호","category":"일반휴게음식 - 일식·회집"}]},{"lat":"37.156198348","long":"127.17038068","items":[{"name":"(주)나노렉스 용인대리점","tel":"031-8097-2667","addr":"경기도 용인시 처인구 남사면 아곡리 681번지 e편한세상용인한숲시티","category":"신변잡화 - 기타잡화"},{"name":"TWORLD 한숲점/주식회사 양지","tel":"031-336-9925","addr":"경기도 용인시 처인구 남사면 아곡리 681번지 e편한세상용인한숲시티 근린생활시설동 1층 5-122호","category":"사무통신 - 통신기기"},{"name":"고봉민김밥인(용인한숲시티점)","tel":"031-333-0949","addr":"경기도 용인시 처인구 남사면 아곡리 681번지 e편한세상용인한숲시티 지하1층 113호","category":"일반휴게음식 - 스넥"},{"name":"다이소 용인아곡점","tel":"031-335-1989","addr":"경기도 용인시 처인구 남사면 아곡리 681번지 1층 104호, 105호, 106호, 107호, 108호","category":"신변잡화 - 기타잡화"},{"name":"라라클로스","tel":"","addr":"경기도 용인시 처인구 남사면 아곡리 681번지 e편한세상용인한숲시티","category":"의류 - 정장"},{"name":"로제타스톤","tel":"031-365-2548","addr":"경기도 용인시 처인구 남사면 아곡리 681번지 e편한세상용인한숲시티","category":"학원 - 기타 교육기관"},{"name":"삼천리자전거","tel":"","addr":"경기도 용인시 처인구 남사면 아곡리 681번지 e편한세상용인한숲시티 112호","category":"레져용품 - 스포츠·레져용품"},{"name":"세븐일레븐용인한숲시티점","tel":"031-1577-0711","addr":"경기도 용인시 처인구 남사면 아곡리 681번지 e편한세상용인한숲시티 상가동 109호","category":"유통업 영리 - 편 의 점"},{"name":"셀렉토커피용인한숲시티점","tel":"031-336-3115","addr":"경기도 용인시 처인구 남사면 아곡리 681번지 e편한세상용인한숲시티 지하1층 115호 스트리트몰","category":"일반휴게음식 - 서양음식"},{"name":"씨제이올리브네트웍스(주)용인한숲시티점","tel":"031-321-3165","addr":"경기도 용인시 처인구 남사면 아곡리 681번지 e편한세상용인한숲시티","category":"유통업 영리 - 편 의 점"},{"name":"아리따움 용인한숲티점","tel":"031-323-3556","addr":"경기도 용인시 처인구 남사면 아곡리 681번지 e편한세상용인한숲시티 상가동 111호","category":"보건위생 - 화장품"},{"name":"엠케이씨 유비라카","tel":"02-523-6118","addr":"경기도 용인시 처인구 남사면 아곡리 681번지 e편한세상용인한숲시티","category":"용역 서비스 - 보관및 창고업"},{"name":"오즈테크","tel":"","addr":"경기도 용인시 처인구 남사면 아곡리 681번지 e편한세상용인한숲시티","category":"보건위생 - 안경"},{"name":"유(YOU)진  수학","tel":"","addr":"경기도 용인시 처인구 남사면 아곡리 681번지 e편한세상용인한숲시티","category":"학원 - 기타 교육기관"},{"name":"윤가우돈","tel":"031-333-5226","addr":"경기도 용인시 처인구 남사면 아곡리 681번지 e편한세상용인한숲시티 119호","category":"음료식품 - 정육점"},{"name":"이츠글라시스 한숲점","tel":"031-323-1776","addr":"경기도 용인시 처인구 남사면 아곡리 681번지 e편한세상용인한숲시티 118,119호","category":"보건위생 - 안경"},{"name":"이편한연세치과의원","tel":"031-333-2884","addr":"경기도 용인시 처인구 남사면 아곡리 681번지 2층 (e편한세상용인한숲시티근린생활 시설동)","category":"의원 - 치과의원"},{"name":"제이잉글리시(JEnglish)","tel":"","addr":"경기도 용인시 처인구 남사면 아곡리 681번지 e편한세상용인한숲시티","category":"학원 - 기타 교육기관"},{"name":"카앤피플 성남분당구2호점","tel":"","addr":"경기도 용인시 처인구 남사면 아곡리 681번지 e편한세상용인한숲시티","category":"자동차정비 유지 - 세차장"},{"name":"크린에이드 용인 한숲점","tel":"031-322-0707","addr":"경기도 용인시 처인구 남사면 아곡리 681번지 e편한세상용인한숲시티 1층 110호","category":"수리서비스 - 세탁소"},{"name":"클랑","tel":"","addr":"경기도 용인시 처인구 남사면 아곡리 681번지 e편한세상용인한숲시티","category":"학원 - 기타 교육기관"},{"name":"파리바게트용인한숲스트릿점","tel":"02-0000-0000","addr":"경기도 용인시 처인구 남사면 아곡리 681번지 e편한세상용인한숲시티 1층","category":"음료식품 - 제과점"},{"name":"한숲5블럭해법&셀파교실","tel":"070-7591-1868","addr":"경기도 용인시 처인구 남사면 아곡리 681번지 e편한세상용인한숲시티","category":"학원 - 기타 교육기관"},{"name":"한숲경희대MTA태권도장","tel":"031-323-5512","addr":"경기도 용인시 처인구 남사면 아곡리 681번지 e편한세상용인한숲시티 2층","category":"학원 - 예·체능계학원"}]},{"lat":"37.117285634","long":"127.1228581","items":[{"name":"(주)다이손","tel":"1666-8543-0000","addr":"경기도 용인시 처인구 남사면 봉명리 210-1번지","category":"주방용구 - 주방용구"}]},{"lat":"37.147254445","long":"127.13152756","items":[{"name":"(주)두윤테크","tel":"031-8003-8913","addr":"경기도 용인시 처인구 남사면 통삼리 641-1번지 라동","category":"사무통신 - 컴퓨터"},{"name":"한타기흥판매","tel":"031-339-6935","addr":"경기도 용인시 처인구 남사면 통삼리 641-1번지","category":"자동차정비 유지 - 자동차시트·타이어"}]},{"lat":"37.147890661","long":"127.15713638","items":[{"name":"(주)레인텍/원격지","tel":"031-321-7850","addr":"경기도 용인시 처인구 남사면 북리 20-8","category":"기타 - 기타 전문점"}]},{"lat":"37.129538659","long":"127.13261166","items":[{"name":"(주)마루테크","tel":"02-1111-1111","addr":"경기도 용인시 처인구 남사면 통삼리 495-2번지 1층","category":"전기제품 - 기타전기제품"}]},{"lat":"37.138616964","long":"127.16532229","items":[{"name":"(주)베스트시스템","tel":"031-526-1322","addr":"경기도 용인시 처인구 남사면 아곡리 559번지","category":"전기제품 - 가전제품"}]},{"lat":"37.112647881","long":"127.12019556","items":[{"name":"(주)비아다빈치","tel":"031-286-9805","addr":"경기도 용인시 처인구 남사면 봉명리 574-6번지","category":"약국 - 제약회사"}]},{"lat":"37.100037506","long":"127.14122313","items":[{"name":"(주)세미글로벌즈","tel":"031-321-6298","addr":"경기도 용인시 처인구 남사면 원암리 401-6번지","category":"전기제품 - 기타전기제품"}]},{"lat":"37.147172665","long":"127.13215776","items":[{"name":"(주)신동탄모터스","tel":"031-322-6967","addr":"경기도 용인시 처인구 남사면 통삼리 630-6번지","category":"자동차정비 유지 - 자동차정비"}]},{"lat":"37.165667335","long":"127.1710771","items":[{"name":"(주)알씨디에이치(부설)연구소","tel":"031-322-8073","addr":"경기도 용인시 처인구 남사면 완장리 457-6번지 2층","category":"학원 - 기능학원"}]},{"lat":"37.152924828","long":"127.17229839","items":[{"name":"(주)이다글로벌 한숲시티점","tel":"070-7797-3393","addr":"경기도 용인시 처인구 남사면 아곡리 699번지 한숲스퀘어 102호 101호, 102호","category":"사무통신 - 통신기기"},{"name":"레드노래연습장","tel":"031-338-5255","addr":"경기도 용인시 처인구 남사면 아곡리 699번지 401,402호","category":"레저업소 - 노 래 방"},{"name":"미미향양꼬치","tel":"031-339-8688","addr":"경기도 용인시 처인구 남사면 아곡리 699번지 2층 205호","category":"일반휴게음식 - 일반한식"},{"name":"스뎅식당","tel":"031-334-8283","addr":"경기도 용인시 처인구 남사면 아곡리 699번지 201호","category":"일반휴게음식 - 일반한식"},{"name":"한숲당구클럽","tel":"","addr":"경기도 용인시 처인구 남사면 아곡리 699번지 4층 403,404호","category":"레저업소 - 당 구 장"}]},{"lat":"37.137169025","long":"127.14938273","items":[{"name":"(주)전원","tel":"031-333-6866","addr":"경기도 용인시 처인구 남사면 봉무리 64번지","category":"건축자재 - 기타건축자재"}]},{"lat":"37.087566876","long":"127.17560572","items":[{"name":"(주)케이엔푸드","tel":"031-336-6533","addr":"경기도 용인시 처인구 남사면 원암리21-2","category":"음료식품 - 농·축·수산품"}]},{"lat":"37.110259427","long":"127.1728221","items":[{"name":"21세기 식물나라","tel":"070-5103-8001","addr":"경기도 용인시 처인구 남사면 방아리 827-1번지","category":"문화.취미 - 화원"},{"name":"그린그로우농업회사법인주식회사","tel":"031-339-2340","addr":"경기도 용인시 처인구 남사면 방아리 827-1번지","category":"문화.취미 - 화원"},{"name":"시온꽃유통","tel":"031-339-9968","addr":"경기도 용인시 처인구 남사면 방아리 827-1번지","category":"문화.취미 - 화원"}]},{"lat":"37.1527567","long":"127.1701367","items":[{"name":"365한숲가정의학과의원","tel":"031-338-3365","addr":"경기도 용인시 처인구 남사면 아곡리 694번지 4층 15호","category":"의원 - 의원"},{"name":"88켄터키치킨(용인점)","tel":"031-322-8882","addr":"경기도 용인시 처인구 남사면 아곡리 694번지 201호 한숲스퀘어옐로우","category":"일반휴게음식 - 스넥"},{"name":"강정구의피자생각","tel":"031-333-8123","addr":"경기도 용인시 처인구 남사면 아곡리 694번지 한숲스퀘어옐로우 1층 110호","category":"일반휴게음식 - 서양음식"},{"name":"공터영어한숲시티학원","tel":"070-4686-9412","addr":"경기도 용인시 처인구 남사면 아곡리 694번지 418호 한숲스퀘어옐로우","category":"학원 - 보습학원"},{"name":"남사수산","tel":"031-322-0181","addr":"경기도 용인시 처인구 남사면 아곡리 694번지 141-2호(한숲스퀘어엘로우)","category":"음료식품 - 농·축·수산품"},{"name":"네일바이쌤(Nail by ssem)","tel":"070-8836-9588","addr":"경기도 용인시 처인구 남사면 아곡리 694번지 B동 4층 417(한숲옐로우)","category":"보건위생 - 피부미용실"},{"name":"놀이나라 키즈카페","tel":"031-333-0188","addr":"경기도 용인시 처인구 남사면 아곡리 694번지 514호 한숲스퀘어옐로우","category":"일반휴게음식 - 서양음식"},{"name":"닭장수후라이드한숲시티점","tel":"031-335-9889","addr":"경기도 용인시 처인구 남사면 아곡리 694번지 1층 143호(한숲스퀘어옐로우)","category":"일반휴게음식 - 스넥"},{"name":"대찬짬뽕","tel":"031-336-0707","addr":"경기도 용인시 처인구 남사면 아곡리 694번지 8동 216호","category":"일반휴게음식 - 중국식"},{"name":"더바스켓한숲시티점","tel":"031-333-7446","addr":"경기도 용인시 처인구 남사면 아곡리 694번지 1층 109호","category":"일반휴게음식 - 스넥"},{"name":"더조은정육식당","tel":"031-332-9242","addr":"경기도 용인시 처인구 남사면 아곡리 694번지 1층 144호(한숲스퀘어옐로우)","category":"일반휴게음식 - 일반한식"},{"name":"돈짱","tel":"031-335-3005","addr":"경기도 용인시 처인구 남사면 아곡리 694번지 1층 123호,123-1호,124호,124-1호","category":"일반휴게음식 - 일반한식"},{"name":"따숩(한숲점)","tel":"","addr":"경기도 용인시 처인구 남사면 아곡리 694번지 한숲스퀘어옐로우 A동 1층 111호","category":"일반휴게음식 - 서양음식"},{"name":"리시움영수학원","tel":"031-333-3660","addr":"경기도 용인시 처인구 남사면 아곡리 694번지 402호 한숲스퀘어옐로우","category":"학원 - 보습학원"},{"name":"마리헤어","tel":"031-335-9848","addr":"경기도 용인시 처인구 남사면 아곡리 694번지 (G블록 한숲스궤어옐로우 2층)","category":"보건위생 - 미용원"},{"name":"마시당","tel":"070-7543-3123","addr":"경기도 용인시 처인구 남사면 아곡리 694번지 205호","category":"일반휴게음식 - 일반한식"},{"name":"마약곱창남사점","tel":"031-333-0082","addr":"경기도 용인시 처인구 남사면 아곡리 694번지 1층 140호","category":"일반휴게음식 - 일반한식"},{"name":"맥주마시는 날","tel":"","addr":"경기도 용인시 처인구 남사면 아곡리 694번지 115호 한숲스퀘어 옐로우상가","category":"일반휴게음식 - 주점"},{"name":"메가엠지씨커피 용인한숲시티점","tel":"031-335-3742","addr":"경기도 용인시 처인구 남사면 아곡리 694번지 1층 136호 (한숲스퀘어옐로우)","category":"일반휴게음식 - 서양음식"},{"name":"메디팜한숲다솜약국","tel":"031-339-4528","addr":"경기도 용인시 처인구 남사면 아곡리 694번지 한숲스퀘어엘로우 1층 132호","category":"약국 - 약국"},{"name":"명품에스테틱","tel":"031-337-2060","addr":"경기도 용인시 처인구 남사면 아곡리 694번지 2층 206호","category":"보건위생 - 피부미용실"},{"name":"명품옷수선","tel":"031-336-5119","addr":"경기도 용인시 처인구 남사면 아곡리 694번지 1층 133-2호","category":"수리서비스 - 세탁소"},{"name":"모두의만족 남사점","tel":"031-322-6796","addr":"경기도 용인시 처인구 남사면 아곡리 694번지 1층 118호","category":"일반휴게음식 - 일반한식"},{"name":"바푸리포베트남쌀국수용인남사점","tel":"031-339-5889","addr":"경기도 용인시 처인구 남사면 아곡리 694번지 135호","category":"일반휴게음식 - 일반한식"},{"name":"벨리헤어샵","tel":"031-339-8280","addr":"경기도 용인시 처인구 남사면 아곡리 694번지 A동 2층","category":"보건위생 - 미용원"},{"name":"본죽&비빔밥CAFE","tel":"031-322-8285","addr":"경기도 용인시 처인구 남사면 아곡리 694번지 1층 126호(한숲스퀘어멜로우)","category":"일반휴게음식 - 일반한식"},{"name":"볼륨헤어","tel":"031-333-0998","addr":"경기도 용인시 처인구 남사면 아곡리 694번지 한숲스퀘어 A동 2층 212호 옐로우","category":"보건위생 - 미용원"},{"name":"봄음악학원","tel":"","addr":"경기도 용인시 처인구 남사면 아곡리 694번지 404호 한숲스퀘어옐로우","category":"학원 - 예·체능계학원"},{"name":"봉닭발","tel":"031-321-7767","addr":"경기도 용인시 처인구 남사면 아곡리 694번지 121호","category":"일반휴게음식 - 일반한식"},{"name":"봉수아피자","tel":"031-332-9898","addr":"경기도 용인시 처인구 남사면 아곡리 694번지 1층 120호","category":"일반휴게음식 - 서양음식"},{"name":"블럭제빵소용인한숲시티점","tel":"031-336-3340","addr":"경기도 용인시 처인구 남사면 아곡리 694번지 134호 한숲스퀘어옐로우","category":"음료식품 - 제과점"},{"name":"비에이치씨 용인남사점","tel":"031-338-9288","addr":"경기도 용인시 처인구 남사면 아곡리 694번지 1층 117호","category":"일반휴게음식 - 스넥"},{"name":"숲속동물병원","tel":"031-335-8385","addr":"경기도 용인시 처인구 남사면 아곡리 694번지 A동 113호","category":"기타의료기관 - 동물병원"},{"name":"신플란트치과의원","tel":"031-323-2279","addr":"경기도 용인시 처인구 남사면 아곡리 694번지 한숲스케어옐로우 3층 12호","category":"의원 - 치과의원"},{"name":"양동떡볶이 한숲시티점","tel":"","addr":"경기도 용인시 처인구 남사면 아곡리 694번지 127호","category":"일반휴게음식 - 스넥"},{"name":"에스(S)필라테스","tel":"031-333-8180","addr":"경기도 용인시 처인구 남사면 아곡리 694번지 401호","category":"레저업소 - 헬스클럽"},{"name":"연&빨주노초록","tel":"","addr":"경기도 용인시 처인구 남사면 아곡리 694번지 2층 218호 한숲스퀘어옐로우","category":"보건위생 - 화장품"},{"name":"오얏골농원","tel":"","addr":"경기도 용인시 처인구 남사면 아곡리 694번지 한숲스퀘어(옐로우) 1층 118호","category":"음료식품 - 농·축·수산품"},{"name":"와이드클로젯","tel":"031-526-7990","addr":"경기도 용인시 처인구 남사면 아곡리 694번지 145호 한숲스퀘어옐로우","category":"의류 - 정장"},{"name":"월드크리닝 한숲시티점","tel":"031-323-3930","addr":"경기도 용인시 처인구 남사면 아곡리 694번지 129호 한숲스퀘어 멜로우 상가","category":"수리서비스 - 세탁소"},{"name":"위너치킨","tel":"031-6586-8017","addr":"경기도 용인시 처인구 남사면 아곡리 694번지 128호","category":"일반휴게음식 - 스넥"},{"name":"육감만족용인한숲시티점","tel":"031-338-9211","addr":"경기도 용인시 처인구 남사면 아곡리 694번지 한숲스퀘어옐로우 142호","category":"일반휴게음식 - 일반한식"},{"name":"이모네바지락칼국수","tel":"031-2343-4649","addr":"경기도 용인시 처인구 남사면 아곡리 694번지 116호","category":"일반휴게음식 - 일반한식"},{"name":"정성가득찬","tel":"031-339-8799","addr":"경기도 용인시 처인구 남사면 아곡리 694번지 4층 421호(한숲스퀘이옐로우)","category":"음료식품 - 기타음료식품"},{"name":"창의숲N사고력수학교습소","tel":"","addr":"경기도 용인시 처인구 남사면 아곡리 694번지 519호 한숲스퀘어옐로우","category":"학원 - 보습학원"},{"name":"투더문(ToTheMoon)","tel":"031-337-1073","addr":"경기도 용인시 처인구 남사면 아곡리 694번지 A동 1층 119호","category":"일반휴게음식 - 서양음식"},{"name":"티하프스토리","tel":"","addr":"경기도 용인시 처인구 남사면 아곡리 694번지 130호 옐로우상가","category":"의류 - 정장"},{"name":"풍성호한숲시티점","tel":"031-503-8018","addr":"경기도 용인시 처인구 남사면 아곡리 694번지 A동 112호","category":"일반휴게음식 - 서양음식"},{"name":"플랜트 스터디 카페 한숲시티점","tel":"031-336-3068","addr":"경기도 용인시 처인구 남사면 아곡리 694번지 5층 513호","category":"용역 서비스 - 사무서비스"},{"name":"피케이대치스마트에듀용인한숲학원","tel":"031-333-7660","addr":"경기도 용인시 처인구 남사면 아곡리 694번지 한숲스퀘어옐로우 4층 9호","category":"학원 - 보습학원"},{"name":"픽미픽미아이스용인한숲시티점","tel":"","addr":"경기도 용인시 처인구 남사면 아곡리 694번지 141호","category":"음료식품 - 기타음료식품"},{"name":"하울검도관","tel":"","addr":"경기도 용인시 처인구 남사면 아곡리 694번지 한숲스퀘어옐로우 B동 511호","category":"학원 - 예·체능계학원"},{"name":"한숲 LNCP 어학원","tel":"031-336-1801","addr":"경기도 용인시 처인구 남사면 아곡리 694번지 416호","category":"학원 - 외국어학원"},{"name":"한숲 밝은아이 소아청소년과의원","tel":"031-334-7577","addr":"경기도 용인시 처인구 남사면 아곡리 694번지 3층 11호","category":"의원 - 의원"},{"name":"한숲독서토론논술교습소","tel":"032-332-7776","addr":"경기도 용인시 처인구 남사면 아곡리 694번지 406호 한숲스퀘어옐로우상가","category":"학원 - 보습학원"},{"name":"한숲메타학원","tel":"031-335-6991","addr":"경기도 용인시 처인구 남사면 아곡리 694번지 한숲스퀘어옐로우 516호","category":"학원 - 보습학원"},{"name":"한숲생고기","tel":"031-333-7236","addr":"경기도 용인시 처인구 남사면 아곡리 694번지 213호","category":"일반휴게음식 - 일반한식"},{"name":"한숲큰별학원","tel":"031-339-2390","addr":"경기도 용인시 처인구 남사면 아곡리 694번지 4층 한숲큰별학원 410호","category":"학원 - 보습학원"},{"name":"한숲파머스학원","tel":"031-335-6991","addr":"경기도 용인시 처인구 남사면 아곡리 694번지 한숲옐로우스퀘어 518호","category":"학원 - 보습학원"}]},{"lat":"37.153196089","long":"127.17163484","items":[{"name":"59쌀피자용인한숲시티점","tel":"031-333-5859","addr":"경기도 용인시 처인구 남사면 아곡리 698번지 213호","category":"일반휴게음식 - 서양음식"},{"name":"GS25용인한숲점","tel":"","addr":"경기도 용인시 처인구 남사면 아곡리 698번지 처인프라자 105호","category":"유통업 영리 - 편 의 점"},{"name":"가마치통닭용인한숲시티점","tel":"031-323-3530","addr":"경기도 용인시 처인구 남사면 아곡리 698번지 2층 202호","category":"일반휴게음식 - 스넥"},{"name":"귀인궁","tel":"031-338-4355","addr":"경기도 용인시 처인구 남사면 아곡리 698번지 305-1호","category":"보건위생 - 피부미용실"},{"name":"남사문고","tel":"031-337-1557","addr":"경기도 용인시 처인구 남사면 아곡리 698번지 301호","category":"서적문구 - 일반서적"},{"name":"더 달달","tel":"","addr":"경기도 용인시 처인구 남사면 아곡리 698번지 213-1호","category":"음료식품 - 제과점"},{"name":"돈치킨","tel":"031-323-0705","addr":"경기도 용인시 처인구 남사면 아곡리 698번지 2층 210호","category":"일반휴게음식 - 스넥"},{"name":"라포레필라테스(La foret pilates)","tel":"","addr":"경기도 용인시 처인구 남사면 아곡리 698번지 처인프라자 412호","category":"레저업소 - 헬스클럽"},{"name":"랄라음악학원","tel":"031-888-8895","addr":"경기도 용인시 처인구 남사면 아곡리 698번지 처인프라자 512호","category":"학원 - 예·체능계학원"},{"name":"명랑핫도그 한숲시티점","tel":"","addr":"경기도 용인시 처인구 남사면 아곡리 698번지 처인프라자 103-1호","category":"일반휴게음식 - 스넥"},{"name":"명품노래연습장","tel":"031-437-8952","addr":"경기도 용인시 처인구 남사면 아곡리 698번지 처인프라자 3층 309호","category":"레저업소 - 노 래 방"},{"name":"박경규항아리보쌈(남사점)","tel":"031-336-3533","addr":"경기도 용인시 처인구 남사면 아곡리 698번지 2층 203호, 204호","category":"일반휴게음식 - 일반한식"},{"name":"신비하우스","tel":"031-000-0000","addr":"경기도 용인시 처인구 남사면 아곡리 698번지 1층 214-1호","category":"의류 - 내의판매"},{"name":"신풍닭발용인한숲점","tel":"","addr":"경기도 용인시 처인구 남사면 아곡리 698번지 104호","category":"일반휴게음식 - 일반한식"},{"name":"쓰담헤어","tel":"031-322-7009","addr":"경기도 용인시 처인구 남사면 아곡리 698번지 304호 일부","category":"보건위생 - 미용원"},{"name":"오늘도네일","tel":"031-000-0000","addr":"경기도 용인시 처인구 남사면 아곡리 698번지 3층 304호","category":"보건위생 - 피부미용실"},{"name":"용인척의원","tel":"031-335-8853","addr":"경기도 용인시 처인구 남사면 아곡리 698번지 처인프라자 405,406,407호","category":"의원 - 의원"},{"name":"용인한숲내과의원","tel":"031-322-7511","addr":"경기도 용인시 처인구 남사면 아곡리 698번지 처인프라자 413호","category":"의원 - 의원"},{"name":"유니팝미술한숲시티학원","tel":"031-333-0313","addr":"경기도 용인시 처인구 남사면 아곡리 698번지 511호","category":"학원 - 예·체능계학원"},{"name":"점프윙스 줄넘기클럽","tel":"031-1577-9005","addr":"경기도 용인시 처인구 남사면 아곡리 698번지 5층","category":"레저업소 - 기타레져업소"},{"name":"조마루감자탕한숲시티점","tel":"031-333-0217","addr":"경기도 용인시 처인구 남사면 아곡리 698번지 306호","category":"일반휴게음식 - 일반한식"},{"name":"커피베이 용인한숲시티점","tel":"031-333-8447","addr":"경기도 용인시 처인구 남사면 아곡리 698번지 2층 212호","category":"일반휴게음식 - 서양음식"},{"name":"크레인PC 용인한숲시티점","tel":"","addr":"경기도 용인시 처인구 남사면 아곡리 698번지 처인프라자 3층 310,311호","category":"레저업소 - 기타레져업소"},{"name":"탑영수학원","tel":"031-323-0543","addr":"경기도 용인시 처인구 남사면 아곡리 698번지 처인프라자 510호","category":"학원 - 보습학원"},{"name":"태영생막창","tel":"031-338-7178","addr":"경기도 용인시 처인구 남사면 아곡리 698번지 2층 208호","category":"일반휴게음식 - 일반한식"},{"name":"펀비어킹남사신도시점","tel":"031-322-4649","addr":"경기도 용인시 처인구 남사면 아곡리 698번지 209호","category":"일반휴게음식 - 주점"},{"name":"한숲 온누리 약국","tel":"031-339-3756","addr":"경기도 용인시 처인구 남사면 아곡리 698번지 처인프라자 205호","category":"약국 - 약국"},{"name":"한숲CBT태권도장","tel":"","addr":"경기도 용인시 처인구 남사면 아곡리 698번지 509호","category":"학원 - 예·체능계학원"},{"name":"한숲김샘학원","tel":"031-335-1209","addr":"경기도 용인시 처인구 남사면 아곡리 698번지 507,508호","category":"학원 - 보습학원"},{"name":"한숲치과","tel":"031-333-0056","addr":"경기도 용인시 처인구 남사면 아곡리 698번지 처인프라자 402,403,404호","category":"의원 - 치과의원"},{"name":"한숲한의원","tel":"031-334-3333","addr":"경기도 용인시 처인구 남사면 아곡리 698번지 처인프라자 401호","category":"의원 - 한의원"}]},{"lat":"37.157365172","long":"127.13061031","items":[{"name":"EK기획","tel":"070-4065-0057","addr":"경기도 용인시 처인구 남사면 북리 859-1번지 한원C.C내 세차장","category":"자동차정비 유지 - 세차장"}]},{"lat":"37.114566917","long":"127.15241076","items":[{"name":"GS25남사봉무로점","tel":"","addr":"경기도 용인시 처인구 남사면 봉무리 449-1번지","category":"유통업 영리 - 편 의 점"},{"name":"경기자동차공업사","tel":"031-332-6667","addr":"경기도 용인시 처인구 남사면 봉무리 449-1번지","category":"자동차정비 유지 - 자동차정비"},{"name":"맨호전기","tel":"031-334-1131","addr":"경기도 용인시 처인구 남사면 봉무리 449-1번지","category":"전기제품 - 기타전기제품"},{"name":"엠마뉴엘떡집","tel":"031-332-6418","addr":"경기도 용인시 처인구 남사면 봉무리 449-1","category":"음료식품 - 제과점"}]},{"lat":"37.140225622","long":"127.15491484","items":[{"name":"GS25북리공단점","tel":"","addr":"경기도 용인시 처인구 남사면 북리 116-7번지","category":"유통업 영리 - 편 의 점"},{"name":"에그로코리아","tel":"070-8991-9979","addr":"경기도 용인시 처인구 남사면 북리 116-7번지","category":"일반휴게음식 - 서양음식"}]},{"lat":"37.146946245","long":"127.13321544","items":[{"name":"GS25용인통삼점","tel":"","addr":"경기도 용인시 처인구 남사면 통삼리 620-8번지","category":"유통업 영리 - 편 의 점"}]},{"lat":"37.159114375","long":"127.17274","items":[{"name":"GS25용인한숲나점","tel":"","addr":"경기도 용인시 처인구 남사면 완장리 949번지 e편한세상용인한숲시티 상가동 107호","category":"유통업 영리 - 편 의 점"},{"name":"깔끔이청소","tel":"","addr":"경기도 용인시 처인구 남사면 완장리 949번지 e편한세상용인한숲시티","category":"용역 서비스 - 종합용역"},{"name":"나나사진관","tel":"","addr":"경기도 용인시 처인구 남사면 완장리 949번지 e편한세상용인한숲시티","category":"광학제품 - 사진관"},{"name":"노드트리 소리 가공소","tel":"","addr":"경기도 용인시 처인구 남사면 완장리 949번지 e편한세상용인한숲시티","category":"학원 - 기타 교육기관"},{"name":"뮤엠영어 한숲시티점","tel":"","addr":"경기도 용인시 처인구 남사면 완장리 949번지 e편한세상용인한숲시티","category":"학원 - 기타 교육기관"},{"name":"브레인1%영수학원","tel":"031-332-6696","addr":"경기도 용인시 처인구 남사면 완장리 949번지 e편한세상용인한숲시티3단지 상가동 4층 401호~4호","category":"학원 - 보습학원"},{"name":"셀파우등생교실3단지","tel":"","addr":"경기도 용인시 처인구 남사면 완장리 949번지 e편한세상용인한숲시티","category":"학원 - 기타 교육기관"},{"name":"소리가공소","tel":"","addr":"경기도 용인시 처인구 남사면 완장리 949번지 e편한세상용인한숲시티","category":"용역 서비스 - 종합용역"},{"name":"소리숲피아노","tel":"","addr":"경기도 용인시 처인구 남사면 완장리 949번지 e편한세상용인한숲시티","category":"학원 - 기타 교육기관"},{"name":"엘라리딩스쿨","tel":"","addr":"경기도 용인시 처인구 남사면 완장리 949번지 e편한세상용인한숲시티","category":"학원 - 기타 교육기관"},{"name":"엠티에이(MTA) 태권도","tel":"","addr":"경기도 용인시 처인구 남사면 완장리 949번지 e편한세상용인한숲시티 3-201-204호","category":"학원 - 예·체능계학원"},{"name":"오너시스","tel":"","addr":"경기도 용인시 처인구 남사면 완장리 949번지 e편한세상용인한숲시티","category":"용역 서비스 - 종합용역"},{"name":"오마뎅 한숲씨티점","tel":"031-336-5505","addr":"경기도 용인시 처인구 남사면 완장리 949번지 e편한세상용인한숲시티 근린생활시설동 1층 3-109호","category":"일반휴게음식 - 스넥"},{"name":"이디야 용인한숲시티점","tel":"031-337-0559","addr":"경기도 용인시 처인구 남사면 완장리 949번지 e편한세상용인한숲시티 3단지 근린생활시설 동지하1층 112호","category":"일반휴게음식 - 서양음식"},{"name":"이알씨영어","tel":"031-338-9702","addr":"경기도 용인시 처인구 남사면 완장리 949번지 e편한세상용인한숲시티","category":"학원 - 기타 교육기관"},{"name":"정쌤수학","tel":"031-6661-0503","addr":"경기도 용인시 처인구 남사면 완장리 949번지 e편한세상용인한숲시티","category":"학원 - 기타 교육기관"},{"name":"참 좋은 데코","tel":"","addr":"경기도 용인시 처인구 남사면 완장리 949번지 e편한세상용인한숲시티","category":"건축자재 - 인테리어전문"},{"name":"카페가득한","tel":"","addr":"경기도 용인시 처인구 남사면 완장리 949번지 e편한세상용인한숲시티 상가동 101호","category":"일반휴게음식 - 서양음식"},{"name":"플레이팩토정의SSAM수학교육원","tel":"","addr":"경기도 용인시 처인구 남사면 완장리 949번지 e편한세상용인한숲시티","category":"학원 - 기타 교육기관"},{"name":"한숲음악학원","tel":"031-333-8828","addr":"경기도 용인시 처인구 남사면 완장리 949번지 e편한세상용인한숲시티3단지근린생활시설 303,304호","category":"학원 - 예·체능계학원"}]},{"lat":"37.095124019","long":"127.14355385","items":[{"name":"J-HUB장제","tel":"","addr":"경기도 용인시 처인구 남사면 원암리 216-1번지","category":"보건위생 - 기타대인서비스"},{"name":"삼대째부대찌개","tel":"031-322-1162","addr":"경기도 용인시 처인구 남사면 원암리 216-1번지","category":"일반휴게음식 - 일반한식"}]},{"lat":"37.113065803","long":"127.1494938","items":[{"name":"JT English 해동검도","tel":"031-339-6334","addr":"경기도 용인시 처인구 남사면 봉무리 661-11","category":"레저업소 - 기타레져업소"},{"name":"노을피아노학원","tel":"031-332-6256","addr":"경기도 용인시 처인구 남사면 봉무리 661-11번지 3층","category":"학원 - 예·체능계학원"},{"name":"처인보습학원","tel":"031-339-2121","addr":"경기도 용인시 처인구 남사면 봉무리 661-11번지 1층","category":"학원 - 보습학원"}]},{"lat":"37.140786886","long":"127.15982318","items":[{"name":"LIVART style shop","tel":"","addr":"경기도 용인시 처인구 남사면 북리 54-10번지 5층","category":"가구 - 일반가구"},{"name":"현대 리바트매점","tel":"","addr":"경기도 용인시 처인구 남사면 북리 54-10번지 (주)현대리바트용인본사2창고4층","category":"음료식품 - 기타음료식품"}]},{"lat":"37.144863504","long":"127.1568601","items":[{"name":"S마트","tel":"031-329-5522","addr":"경기도 용인시 처인구 남사면 북리31-6","category":"유통업 영리 - 복지매장"},{"name":"정아네","tel":"031-339-3372","addr":"경기도 용인시 처인구 남사면 북리 31-6번지 SCD내","category":"음료식품 - 기타음료식품"}]},{"lat":"37.147808676","long":"127.18912616","items":[{"name":"TS푸드","tel":"031-321-5574","addr":"경기도 용인시 처인구 남사면 창리 276-1","category":"음료식품 - 농·축·수산품"}]},{"lat":"37.168895369","long":"127.16291003","items":[{"name":"VIM project","tel":"070-7567-1070","addr":"경기도 용인시 처인구 남사면 완장리 407번지 1호지 완장낚시터","category":"회원제형태 - 기타4"}]},{"lat":"37.093229323","long":"127.14563124","items":[{"name":"s남사타이마트","tel":"031-222-2646","addr":"경기도 용인시 처인구 남사면 원암리 222-9번지","category":"유통업 영리 - 슈퍼마켓"},{"name":"카페애비뉴","tel":"031-335-0105","addr":"경기도 용인시 처인구 남사면 원암리 222-9번지 일부 1동 1층","category":"일반휴게음식 - 서양음식"}]},{"lat":"37.09950697","long":"127.13227922","items":[{"name":"가원","tel":"","addr":"경기도 용인시 처인구 남사면 진목리 615-9번지","category":"보건위생 - 화장품"}]},{"lat":"37.114874391","long":"127.15152252","items":[{"name":"간이역","tel":"031-333-9890","addr":"경기도 용인시 처인구 남사면 봉무리 444-12번지","category":"일반휴게음식 - 일반한식"}]},{"lat":"37.133808525","long":"127.15618496","items":[{"name":"감골오리(남사점)","tel":"031-321-5225","addr":"경기도 용인시 처인구 남사면 봉무리 133번지 1층","category":"일반휴게음식 - 일반한식"}]},{"lat":"37.139587908","long":"127.16691131","items":[{"name":"강원전기","tel":"","addr":"경기도 용인시 처인구 남사면 아곡리 441-11번지","category":"전기제품 - 기타전기제품"},{"name":"무봉리토종순대국(남사점)","tel":"031-332-5708","addr":"경기도 용인시 처인구 남사면 아곡리 441-11번지 남사골가든","category":"일반휴게음식 - 일반한식"},{"name":"미니스톱 용인남곡점","tel":"031-1577-9621","addr":"경기도 용인시 처인구 남사면 아곡리 441-11번지","category":"유통업 영리 - 편 의 점"},{"name":"소쿠리","tel":"031-323-0428","addr":"경기도 용인시 처인구 남사면 아곡리 441-11번지 나동 102호","category":"일반휴게음식 - 일반한식"},{"name":"영농조합법인함봉산양삼","tel":"031-334-3545","addr":"경기도 용인시 처인구 남사면 아곡리 441-11","category":"건강식품 - 인삼제품"},{"name":"이편한아울렛","tel":"031-334-4765","addr":"경기도 용인시 처인구 남사면 아곡리 441-11번지 나동","category":"의류 - 아동의류"}]},{"lat":"37.137005943","long":"127.13479653","items":[{"name":"개성집 남사점","tel":"031-338-1600","addr":"경기도 용인시 처인구 남사면 통삼리 584번지","category":"일반휴게음식 - 일반한식"}]},{"lat":"37.103285527","long":"127.13755043","items":[{"name":"거목농원","tel":"070-7864-6628","addr":"경기도 용인시 처인구 남사면 진목리 142-1","category":"문화.취미 - 화원"},{"name":"혜민꽃농원","tel":"","addr":"경기도 용인시 처인구 남사면 진목리 142-1번지","category":"문화.취미 - 화원"}]},{"lat":"37.139173421","long":"127.17945958","items":[{"name":"건영팩","tel":"031-339-8526","addr":"경기도 용인시 처인구 남사면 창리 396-1번지","category":"건축자재 - 기타건축자재"}]},{"lat":"37.145562444","long":"127.13786171","items":[{"name":"경성과학","tel":"031-339-2281","addr":"경기도 용인시 처인구 남사면 북리 696-5","category":"서적문구 - 과학기자재"}]},{"lat":"37.146253021","long":"127.13268522","items":[{"name":"경희테니스 아카데미","tel":"","addr":"경기도 용인시 처인구 남사면 통삼리 620번지","category":"레저업소 - 테니스장"}]},{"lat":"37.095370755","long":"127.14816615","items":[{"name":"고구려농원","tel":"031-339-0774","addr":"경기도 용인시 처인구 남사면 원암리 318-1번지","category":"농업 - 비료,사료,종자"}]},{"lat":"37.146557554","long":"127.14969349","items":[{"name":"고려특수산업","tel":"031-323-4864","addr":"경기도 용인시 처인구 남사면 북리552-7","category":"건축자재 - 기타건축자재"}]},{"lat":"37.140030693","long":"127.16598935","items":[{"name":"고속모터스","tel":"031-336-4888","addr":"경기도 용인시 처인구 남사면 아곡리 441-21번지","category":"자동차정비 유지 - 자동차정비"}]},{"lat":"37.138676885","long":"127.16760714","items":[{"name":"고향손칼국수","tel":"031-334-8879","addr":"경기도 용인시 처인구 남사면 아곡리 538-3번지 가동 1층","category":"일반휴게음식 - 스넥"},{"name":"남곡건강원","tel":"031-332-3904","addr":"경기도 용인시 처인구 남사면 아곡리 538-3번지","category":"건강식품 - 기타건강식품"},{"name":"남곡실내포장마차","tel":"031-323-1999","addr":"경기도 용인시 처인구 남사면 아곡리 538-3번지","category":"일반휴게음식 - 일반한식"}]},{"lat":"37.150139738","long":"127.1378811","items":[{"name":"관불사","tel":"031-322-9707","addr":"경기도 용인시 처인구 남사면 북리 744번지","category":"기타 - 비영리/대상"}]},{"lat":"37.114783098","long":"127.15246744","items":[{"name":"광명기계","tel":"031-333-3285","addr":"경기도 용인시 처인구 남사면 봉무리 451-5번지","category":"기타 - 기계공구"},{"name":"광명기계/원격지","tel":"031-333-3285","addr":"경기도 용인시 처인구 남사면 봉무리451-5","category":"기타 - 기타 전문점"}]},{"lat":"37.145562764","long":"127.13758032","items":[{"name":"구룡자동차공업사","tel":"031-339-5430","addr":"경기도 용인시 처인구 남사면 북리696-17","category":"자동차정비 유지 - 자동차정비"}]},{"lat":"37.114089361","long":"127.15240982","items":[{"name":"국제공구","tel":"031-322-0945","addr":"경기도 용인시 처인구 남사면 봉무리448-4","category":"기타 - 기계공구"},{"name":"문화노래연습장","tel":"031-334-6040","addr":"경기도 용인시 처인구 남사면 봉무리 448-4","category":"레저업소 - 노 래 방"},{"name":"행복유통","tel":"031-333-3482","addr":"경기도 용인시 처인구 남사면 봉무리 448-4번지","category":"음료식품 - 기타음료식품"}]},{"lat":"37.096008658","long":"127.14219442","items":[{"name":"금강종합상사","tel":"031-321-4285","addr":"경기도 용인시 처인구 남사면 원암리 373-6 제1호","category":"신변잡화 - 기타잡화"},{"name":"남사종합툴링","tel":"031-332-8209","addr":"경기도 용인시 처인구 남사면 원암리373-6","category":"기타 - 기계공구"},{"name":"명성모타","tel":"031-336-6378","addr":"경기도 용인시 처인구 남사면 원암리 373-6","category":"수리서비스 - 기타수리서비스"},{"name":"미니스톱 용인원암점","tel":"031-1577-9621","addr":"경기도 용인시 처인구 남사면 원암리 373-6번지","category":"유통업 영리 - 편 의 점"}]},{"lat":"37.11226197","long":"127.17127395","items":[{"name":"금호타이어 용인점","tel":"031-321-8988","addr":"경기도 용인시 처인구 남사면 방아리 694-8번지","category":"자동차정비 유지 - 자동차시트·타이어"}]},{"lat":"37.108838975","long":"127.13491643","items":[{"name":"기양종합에너지","tel":"031-321-5618","addr":"경기도 용인시 처인구 남사면 봉명리 75-1번지 1층","category":"기타 - 기계공구"}]},{"lat":"37.139561793","long":"127.16624721","items":[{"name":"까사알렉스","tel":"031-339-1108","addr":"경기도 용인시 처인구 남사면 아곡리 439-27번지","category":"가구 - 일반가구"},{"name":"하이엔프라","tel":"031-333-3366","addr":"경기도 용인시 처인구 남사면 아곡리 439-27번지","category":"유통업 영리 - 기타유통업"}]},{"lat":"37.15850787","long":"127.17468623","items":[{"name":"깨끗한우리집","tel":"031-341-1212","addr":"경기도 용인시 처인구 남사면 완장리 952번지 e편한세상 용인 한숲시티","category":"용역 서비스 - 종합용역"},{"name":"돈캠프 (DON CAMP)","tel":"031-339-0414","addr":"경기도 용인시 처인구 남사면 완장리 952번지 e편한세상용인한숲시티 근린생활시설동 2층 201,202호","category":"일반휴게음식 - 일반한식"},{"name":"밝은 미래 한GLO","tel":"","addr":"경기도 용인시 처인구 남사면 완장리 952번지 e편한세상 용인 한숲시티","category":"학원 - 기타 교육기관"},{"name":"빠세빠세","tel":"02-1111-1111","addr":"경기도 용인시 처인구 남사면 완장리 952번지 4단지근린생활시설 203동 204호","category":"일반휴게음식 - 주점"},{"name":"씨엔에이","tel":"","addr":"경기도 용인시 처인구 남사면 완장리 952번지 e편한세상 용인 한숲시티","category":"학원 - 기타 교육기관"},{"name":"엠춘천 닭갈비","tel":"031-338-1183","addr":"경기도 용인시 처인구 남사면 완장리 952번지 e편한세상용인한숲시티 205,206호","category":"일반휴게음식 - 일반한식"},{"name":"예쁜그림","tel":"","addr":"경기도 용인시 처인구 남사면 완장리 952번지 e편한세상 용인 한숲시티","category":"학원 - 기타 교육기관"},{"name":"해법수학·해법영어","tel":"070-7420-1991","addr":"경기도 용인시 처인구 남사면 완장리 952번지 e편한세상 용인 한숲시티","category":"학원 - 기타 교육기관"}]},{"lat":"37.111201605","long":"127.12474987","items":[{"name":"꼬꼬다육","tel":"070-7425-4545","addr":"경기도 용인시 처인구 남사면 봉명리 732번지 F동 3호","category":"문화.취미 - 화원"},{"name":"꽃사랑","tel":"","addr":"경기도 용인시 처인구 남사면 봉명리 732번지","category":"문화.취미 - 화원"},{"name":"남촌원예","tel":"070-5031-0327","addr":"경기도 용인시 처인구 남사면 봉명리 732번지 D동 1,2호","category":"문화.취미 - 화원"},{"name":"더 아침","tel":"031-336-7040","addr":"경기도 용인시 처인구 남사면 봉명리 732번지 G동","category":"문화.취미 - 화원"},{"name":"애플다육","tel":"070-7425-4545","addr":"경기도 용인시 처인구 남사면 봉명리 732번지","category":"문화.취미 - 화원"},{"name":"오케이 (OK)다육","tel":"070-7437-9586","addr":"경기도 용인시 처인구 남사면 봉명리 732번지","category":"문화.취미 - 화원"},{"name":"풍년다육","tel":"03-111-1111","addr":"경기도 용인시 처인구 남사면 봉명리 732번지 F동 2호","category":"문화.취미 - 화원"}]},{"lat":"37.152836392","long":"127.17112748","items":[{"name":"꽃미남푸줏간","tel":"031-333-2639","addr":"경기도 용인시 처인구 남사면 아곡리 701번지 103호","category":"음료식품 - 정육점"},{"name":"네일숲","tel":"","addr":"경기도 용인시 처인구 남사면 아곡리 701번지 마곡프라자 2층 206호","category":"보건위생 - 피부미용실"},{"name":"닭깡","tel":"031-332-8890","addr":"경기도 용인시 처인구 남사면 아곡리 701번지 106호","category":"일반휴게음식 - 일반한식"},{"name":"라온음악학원","tel":"031-338-8604","addr":"경기도 용인시 처인구 남사면 아곡리 701번지 아곡프라자 301호","category":"학원 - 예·체능계학원"},{"name":"롯데리아용인남사점","tel":"031-321-0612","addr":"경기도 용인시 처인구 남사면 아곡리 701번지 아곡프라자 1층 104호","category":"일반휴게음식 - 서양음식"},{"name":"미플러스스킨&바디","tel":"031-322-2235","addr":"경기도 용인시 처인구 남사면 아곡리 701번지 아곡프라자 207-1호","category":"보건위생 - 피부미용실"},{"name":"블럭비즈몬","tel":"","addr":"경기도 용인시 처인구 남사면 아곡리 701번지 4층 406호","category":"서적문구 - 완구점"},{"name":"삼성영어한솔수학학원","tel":"031-323-0944","addr":"경기도 용인시 처인구 남사면 아곡리 701번지 아곡프라자 401, 402호","category":"학원 - 보습학원"},{"name":"순수떡","tel":"031-323-0665","addr":"경기도 용인시 처인구 남사면 아곡리 701번지 아곡프라자 1층 103호","category":"음료식품 - 제과점"},{"name":"아트드리밍미술교습소","tel":"","addr":"경기도 용인시 처인구 남사면 아곡리 701번지 402호 일부","category":"학원 - 예·체능계학원"},{"name":"용인대남곡HIT태권도장","tel":"070-5031-0327","addr":"경기도 용인시 처인구 남사면 아곡리 701번지 2층 201-202호","category":"학원 - 예·체능계학원"},{"name":"전문수선","tel":"031-286-3383","addr":"경기도 용인시 처인구 남사면 아곡리 701번지 아곡프라자 207호","category":"수리서비스 - 세탁소"},{"name":"지오헤어","tel":"031-333-2817","addr":"경기도 용인시 처인구 남사면 아곡리 701번지 206호","category":"보건위생 - 미용원"},{"name":"파리바게트한숲시티점/(주) 삼주산업","tel":"031-338-0445","addr":"경기도 용인시 처인구 남사면 아곡리 701번지","category":"음료식품 - 제과점"}]},{"lat":"37.116089591","long":"127.15249252","items":[{"name":"꾀꼬리노래연습장","tel":"031-322-0553","addr":"경기도 용인시 처인구 남사면 봉무리 474번지 1층","category":"레저업소 - 노 래 방"}]},{"lat":"37.121009877","long":"127.11044157","items":[{"name":"나들목","tel":"031-322-5959","addr":"경기도 용인시 처인구 남사면 봉명리779-1","category":"일반휴게음식 - 일반한식"}]},{"lat":"37.152536074","long":"127.17320933","items":[{"name":"나이스가이(한숲시티점)","tel":"","addr":"경기도 용인시 처인구 남사면 아곡리 700번지 투토빌딩 107호","category":"보건위생 - 미용원"},{"name":"엠엔드더블유코스메틱","tel":"","addr":"경기도 용인시 처인구 남사면 아곡리 700번지 투토빌딩","category":"보건위생 - 화장품"},{"name":"유진춘천닭갈비","tel":"031-333-8082","addr":"경기도 용인시 처인구 남사면 아곡리 700번지 109호 108호,109호","category":"일반휴게음식 - 일반한식"},{"name":"킹콩부대찌개 용인한숲시티점","tel":"031-322-0708","addr":"경기도 용인시 처인구 남사면 아곡리 700번지 투토빌딩 201호","category":"일반휴게음식 - 일반한식"},{"name":"탑플레이스PC 용인한숲점","tel":"070-9147-5198","addr":"경기도 용인시 처인구 남사면 아곡리 700번지 301,302호","category":"레저업소 - 기타레져업소"}]},{"lat":"37.139010271","long":"127.16760786","items":[{"name":"남곡떡,고추방앗간","tel":"031-332-6139","addr":"경기도 용인시 처인구 남사면 아곡리 549-10","category":"음료식품 - 제과점"},{"name":"남곡미용실","tel":"031-335-8009","addr":"경기도 용인시 처인구 남사면 아곡리549-10","category":"보건위생 - 미용원"}]},{"lat":"37.139424752","long":"127.16760876","items":[{"name":"남곡정육점","tel":"031-334-6729","addr":"경기도 용인시 처인구 남사면 아곡리 513-1번지","category":"일반휴게음식 - 일반한식"},{"name":"남곡정육점","tel":"031-334-6729","addr":"경기도 용인시 처인구 남사면 아곡리 513-1번지","category":"음료식품 - 정육점"},{"name":"명가","tel":"031-323-5684","addr":"경기도 용인시 처인구 남사면 아곡리 513-1번지 1층 일부","category":"일반휴게음식 - 일반한식"},{"name":"미래종합상사","tel":"031-322-5842","addr":"경기도 용인시 처인구 남사면 아곡리513-1","category":"건축자재 - 기타건축자재"}]},{"lat":"37.140010055","long":"127.16788015","items":[{"name":"남곡한식부페","tel":"031-334-5870","addr":"경기도 용인시 처인구 남사면 아곡리 513-8번지","category":"일반휴게음식 - 일반한식"},{"name":"남사왕 돈까스","tel":"031-335-0780","addr":"경기도 용인시 처인구 남사면 아곡리 513-8번지","category":"일반휴게음식 - 서양음식"},{"name":"쁘띠아이스크림","tel":"02-1111-1111","addr":"경기도 용인시 처인구 남사면 아곡리 513-8번지 104호","category":"음료식품 - 기타음료식품"},{"name":"쁘띠프루츠 한숲시티점","tel":"02-1111-1111","addr":"경기도 용인시 처인구 남사면 아곡리 513-8번지 104호","category":"음료식품 - 농·축·수산품"}]},{"lat":"37.145368897","long":"127.14160954","items":[{"name":"남도생선구이","tel":"031-332-3242","addr":"경기도 용인시 처인구 남사면 북리 680-15번지 1층","category":"일반휴게음식 - 일반한식"}]},{"lat":"37.098452334","long":"127.12413327","items":[{"name":"남사가야다육","tel":"","addr":"경기도 용인시 처인구 남사면 진목리 869번지","category":"문화.취미 - 화원"}]},{"lat":"37.139258243","long":"127.17693868","items":[{"name":"남사건축소형기기임대","tel":"031-332-9336","addr":"경기도 용인시 처인구 남사면 창리 507-1번지","category":"수리서비스 - 기타수리서비스"}]},{"lat":"37.152474661","long":"127.17204974","items":[{"name":"남사곱창","tel":"","addr":"경기도 용인시 처인구 남사면 아곡리 702번지 120호 121호","category":"일반휴게음식 - 일반한식"},{"name":"미니미","tel":"","addr":"경기도 용인시 처인구 남사면 아곡리 702번지 109호","category":"의류 - 정장"},{"name":"배부장찌개용인한숲시티점","tel":"031-335-3323","addr":"경기도 용인시 처인구 남사면 아곡리 702번지 한숲스퀘어 그린동 1층 115호","category":"일반휴게음식 - 일반한식"},{"name":"비어프렌즈(BeerFriends)","tel":"031-1111-1111","addr":"경기도 용인시 처인구 남사면 아곡리 702번지 1층 119호","category":"일반휴게음식 - 일반한식"},{"name":"심봉사 도로케","tel":"070-4007-1104","addr":"경기도 용인시 처인구 남사면 아곡리 702번지 1층 108호","category":"일반휴게음식 - 스넥"},{"name":"용인한숲주니어축구교실","tel":"031-993-0107","addr":"경기도 용인시 처인구 남사면 아곡리 702번지 한숲스퀘어그린 401동 402호","category":"학원 - 예·체능계학원"},{"name":"존프랭클 용인한숲시티 주짓수던전","tel":"031-254-7853","addr":"경기도 용인시 처인구 남사면 아곡리 702번지 403,404호","category":"레저업소 - 헬스클럽"},{"name":"초록나무약국","tel":"031-322-3427","addr":"경기도 용인시 처인구 남사면 아곡리 702번지 1층 110호 한숲스퀘어그린","category":"약국 - 약국"},{"name":"한숲 골프 아카데미","tel":"031-337-1256","addr":"경기도 용인시 처인구 남사면 아곡리 702번지 503,504호","category":"레저업소 - 스크린골프"},{"name":"한숲회모리","tel":"031-338-6267","addr":"경기도 용인시 처인구 남사면 아곡리 702번지 117호~118호 일부","category":"일반휴게음식 - 일식·회집"}]},{"lat":"37.098370974","long":"127.12439186","items":[{"name":"남사꽃식물원","tel":"031-334-6797","addr":"경기도 용인시 처인구 남사면 진목리 869-2번지","category":"문화.취미 - 화원"}]},{"lat":"37.114345154","long":"127.14960878","items":[{"name":"남사농약종묘사","tel":"031-332-7161","addr":"경기도 용인시 처인구 남사면 봉무리 438번지","category":"농업 - 비료,사료,종자"},{"name":"남사만물건재","tel":"031-334-1529","addr":"경기도 용인시 처인구 남사면 봉무리 438번지 1층","category":"건축자재 - 목재·석재·철물"},{"name":"남사왕수학음악학원","tel":"031-334-7998","addr":"경기도 용인시 처인구 남사면 봉무리 438번지 2층","category":"회원제형태 - 학원"}]},{"lat":"37.114207403","long":"127.15168998","items":[{"name":"남사농협연쇄점","tel":"031-332-6040","addr":"경기도 용인시 처인구 남사면 봉무리 446번지","category":"유통업 비영리 - 농,축협 직영매장"},{"name":"남사장식","tel":"031-332-6168","addr":"경기도 용인시 처인구 남사면 봉무리 446번지","category":"직물 - 카페트,커튼,천막,지물"},{"name":"남사종합장식","tel":"031-332-9021","addr":"경기도 용인시 처인구 남사면 봉무리 446번지","category":"직물 - 카페트,커튼,천막,지물"}]},{"lat":"37.107263573","long":"127.1561877","items":[{"name":"남사다육집하장","tel":"031-336-0026","addr":"경기도 용인시 처인구 남사면 전궁리 330번지","category":"문화.취미 - 화원"}]},{"lat":"37.103007016","long":"127.13682997","items":[{"name":"남사들꽃농원","tel":"","addr":"경기도 용인시 처인구 남사면 진목리 142-3번지","category":"문화.취미 - 화원"}]},{"lat":"37.114509894","long":"127.15473965","items":[{"name":"남사면옥","tel":"031-335-7989","addr":"경기도 용인시 처인구 남사면 봉무리 492-1번지 1층","category":"일반휴게음식 - 일반한식"}]},{"lat":"37.102479566","long":"127.14104758","items":[{"name":"남사방앗간","tel":"031-332-7666","addr":"경기도 용인시 처인구 남사면 진목리 21-1번지","category":"음료식품 - 제과점"}]},{"lat":"37.114118438","long":"127.15077846","items":[{"name":"남사쇼퍼","tel":"031-339-7666","addr":"경기도 용인시 처인구 남사면 봉무리 441-5번지","category":"용역 서비스 - 기타용역서비스"}]},{"lat":"37.141280528","long":"127.16788291","items":[{"name":"남사수산","tel":"031-321-9295","addr":"경기도 용인시 처인구 남사면 아곡리 462-2번지 1층","category":"음료식품 - 농·축·수산품"},{"name":"장어명가풍천민물장어직판장","tel":"031-321-9295","addr":"경기도 용인시 처인구 남사면 아곡리 462-2번지 1층 일부","category":"일반휴게음식 - 일반한식"},{"name":"훈짬뽕","tel":"031-332-3665","addr":"경기도 용인시 처인구 남사면 아곡리 462-2번지 1층","category":"일반휴게음식 - 중국식"}]},{"lat":"37.156228153","long":"127.17473735","items":[{"name":"남사스포츠센터카페테리아","tel":"","addr":"경기도 용인시 처인구 남사면 완장리 952-4번지 1층 남사스포츠센터","category":"일반휴게음식 - 서양음식"}]},{"lat":"37.103291462","long":"127.1549985","items":[{"name":"남사야생화농원","tel":"031-335-9195","addr":"경기도 용인시 처인구 남사면 전궁리404-1","category":"문화.취미 - 화원"},{"name":"산들애야생화","tel":"031-336-6847","addr":"경기도 용인시 처인구 남사면 전궁리 404-1","category":"문화.취미 - 화원"}]},{"lat":"37.11395702","long":"127.15015934","items":[{"name":"남사약국","tel":"031-333-0363","addr":"경기도 용인시 처인구 남사면 봉무리 440-9번지","category":"약국 - 약국"},{"name":"남사의원","tel":"031-339-8259","addr":"경기도 용인시 처인구 남사면 봉무리 440-9","category":"의원 - 의원"},{"name":"남창상회","tel":"031-332-6417","addr":"경기도 용인시 처인구 남사면 봉무리440-9","category":"서적문구 - 문구용품"},{"name":"부뚜막","tel":"031-336-5753","addr":"경기도 용인시 처인구 남사면 봉무리 440-9번지","category":"일반휴게음식 - 일반한식"}]},{"lat":"37.113894421","long":"127.14977668","items":[{"name":"남사연합의원","tel":"031-336-7561","addr":"경기도 용인시 처인구 남사면 봉무리 664-3번지 2층","category":"의원 - 의원"}]},{"lat":"37.109953316","long":"127.1525817","items":[{"name":"남사카","tel":"031-411-5770","addr":"경기도 용인시 처인구 남사면 전궁리 427-4번지","category":"자동차정비 유지 - 자동차정비"}]},{"lat":"37.112588414","long":"127.14935787","items":[{"name":"남사한우도매집","tel":"031-339-6319","addr":"경기도 용인시 처인구 남사면 봉무리 661-27번지","category":"음료식품 - 정육점"},{"name":"남사한우정육식당","tel":"031-338-6319","addr":"경기도 용인시 처인구 남사면 봉무리 661-27번지","category":"일반휴게음식 - 일반한식"}]},{"lat":"37.104701221","long":"127.13663046","items":[{"name":"남사화분","tel":"031-339-0492","addr":"경기도 용인시 처인구 남사면 진목리120-5","category":"문화.취미 - 화원"}]},{"lat":"37.10495382","long":"127.13636091","items":[{"name":"남사화훼집하장","tel":"031-333-5738","addr":"경기도 용인시 처인구 남사면 진목리119","category":"문화.취미 - 화원"}]},{"lat":"37.103597327","long":"127.15538159","items":[{"name":"남해 야생화농원","tel":"","addr":"경기도 용인시 처인구 남사면 전궁리 403번지","category":"문화.취미 - 화원"}]},{"lat":"37.113344513","long":"127.17663184","items":[{"name":"노그노플렉스","tel":"070-4436-0905","addr":"경기도 용인시 처인구 남사면 방아리 761-2번지","category":"직물 - 침구·수예점"}]},{"lat":"37.139640815","long":"127.16774429","items":[{"name":"노브랜드 퍼니처","tel":"","addr":"경기도 용인시 처인구 남사면 아곡리 513-4번지","category":"가구 - 일반가구"}]},{"lat":"37.148258734","long":"127.15113757","items":[{"name":"노아건업","tel":"031-336-6880","addr":"경기도 용인시 처인구 남사면 북리 182-14","category":"용역 서비스 - 기타용역서비스"}]},{"lat":"37.114647173","long":"127.15307474","items":[{"name":"노아토탈인테리어","tel":"031-322-3128","addr":"경기도 용인시 처인구 남사면 봉무리 482-2","category":"건축자재 - 인테리어전문"}]},{"lat":"37.111175461","long":"127.12388353","items":[{"name":"농업회사법인 주식회사 라플랑트","tel":"031-333-8801","addr":"경기도 용인시 처인구 남사면 봉명리 757-609번지","category":"문화.취미 - 화원"}]},{"lat":"37.171777602","long":"127.18254174","items":[{"name":"농업회사법인(주)남사농원","tel":"031-332-6833","addr":"경기도 용인시 처인구 남사면 완장리 177번지","category":"음료식품 - 농·축·수산품"}]},{"lat":"37.129006918","long":"127.13272328","items":[{"name":"농업회사법인그린투모로우(주)","tel":"031-370-5271","addr":"경기도 용인시 처인구 남사면 통삼리 492","category":"음료식품 - 농·축·수산품"}]},{"lat":"37.16364031","long":"127.15054839","items":[{"name":"농업회사법인주식회사용인산토리니","tel":"031-332-6799","addr":"경기도 용인시 처인구 남사면 북리 263","category":"숙박업 - 여관/기타숙박업"}]},{"lat":"37.136834794","long":"127.13475122","items":[{"name":"뉴프라자가든","tel":"031-334-0707","addr":"경기도 용인시 처인구 남사면 통삼리 584-2번지","category":"일반휴게음식 - 일반한식"}]},{"lat":"37.133974489","long":"127.16683167","items":[{"name":"다루남사점","tel":"031-332-9988","addr":"경기도 용인시 처인구 남사면 창리 556-6번지 1층","category":"일반휴게음식 - 일반한식"}]},{"lat":"37.092624544","long":"127.1465187","items":[{"name":"다모아할인마트","tel":"031-334-6514","addr":"경기도 용인시 처인구 남사면 원암리 222-13번지 103동 104호","category":"유통업 영리 - 슈퍼마켓"},{"name":"도두리밥상","tel":"","addr":"경기도 용인시 처인구 남사면 원암리 222-13번지 1동 106호","category":"일반휴게음식 - 일반한식"},{"name":"알파 용인남사점","tel":"031-321-2848","addr":"경기도 용인시 처인구 남사면 원암리 222-13번지","category":"서적문구 - 문구용품"},{"name":"월출감자탕","tel":"031-334-8853","addr":"경기도 용인시 처인구 남사면 원암리 222-13","category":"일반휴게음식 - 일반한식"},{"name":"은산식당","tel":"031-335-3223","addr":"경기도 용인시 처인구 남사면 원암리 222-13번지 1동 102호","category":"일반휴게음식 - 일반한식"},{"name":"표준노래연습장","tel":"031-335-0171","addr":"경기도 용인시 처인구 남사면 원암리 222-13번지 표준그린프라자 201호","category":"레저업소 - 노 래 방"},{"name":"표준노래연습장","tel":"031-335-0171","addr":"경기도 용인시 처인구 남사면 원암리 222-13번지 201호","category":"레저업소 - 노 래 방"},{"name":"표준당구클럽","tel":"","addr":"경기도 용인시 처인구 남사면 원암리 222-13번지 1동 2층 201호","category":"레저업소 - 당 구 장"}]},{"lat":"37.145618897","long":"127.13574572","items":[{"name":"다원맛집","tel":"031-323-1246","addr":"경기도 용인시 처인구 남사면 북리 693-5번지 1층","category":"일반휴게음식 - 일반한식"}]},{"lat":"37.107703028","long":"127.16452499","items":[{"name":"다원화훼조경","tel":"031-321-9149","addr":"경기도 용인시 처인구 남사면 전궁리 34번지","category":"문화.취미 - 화원"}]},{"lat":"37.106429052","long":"127.14621851","items":[{"name":"다육노리터","tel":"","addr":"경기도 용인시 처인구 남사면 전궁리 509-5번지","category":"문화.취미 - 화원"}]},{"lat":"37.107481534","long":"127.15486062","items":[{"name":"다육사랑","tel":"070-7738-7725","addr":"경기도 용인시 처인구 남사면 전궁리 356-2번지","category":"문화.취미 - 화원"}]},{"lat":"37.104787926","long":"127.154439","items":[{"name":"다육이랑 옹기랑","tel":"031-616-1466","addr":"경기도 용인시 처인구 남사면 전궁리 398번지","category":"문화.취미 - 화원"}]},{"lat":"37.10817643","long":"127.13105643","items":[{"name":"다육이야기농원","tel":"031-333-1336","addr":"경기도 용인시 처인구 남사면 봉명리 383-1번지 1층","category":"문화.취미 - 화원"}]},{"lat":"37.103898739","long":"127.13711278","items":[{"name":"다인농원","tel":"031-376-3056","addr":"경기도 용인시 처인구 남사면 진목리 137-3","category":"문화.취미 - 화원"},{"name":"진영농원","tel":"070-7798-9921","addr":"경기도 용인시 처인구 남사면 진목리 137-3","category":"문화.취미 - 화원"}]},{"lat":"37.098761324","long":"127.1302194","items":[{"name":"담수나라/원격지","tel":"031-339-1504","addr":"경기도 용인시 처인구 남사면 진목리601","category":"기타 - 기타 전문점"}]},{"lat":"37.145503672","long":"127.14193621","items":[{"name":"대궐밥상","tel":"031-336-0660","addr":"경기도 용인시 처인구 남사면 북리 680-13번지","category":"일반휴게음식 - 일반한식"},{"name":"북리미용실","tel":"031-321-2828","addr":"경기도 용인시 처인구 남사면 북리 680-13번지 한성빌라 다동 102호","category":"보건위생 - 미용원"},{"name":"오돈이","tel":"031-339-0084","addr":"경기도 용인시 처인구 남사면 북리 680-13번지 다층 101호","category":"일반휴게음식 - 일반한식"},{"name":"처갓집양념통닭","tel":"031-332-0204","addr":"경기도 용인시 처인구 남사면 북리680-13","category":"일반휴게음식 - 일반한식"}]},{"lat":"37.123648979","long":"127.16646057","items":[{"name":"대림철물","tel":"031-322-3310","addr":"경기도 용인시 처인구 남사면 방아리 74번지","category":"건축자재 - 목재·석재·철물"},{"name":"지지맘팝아트","tel":"","addr":"경기도 용인시 처인구 남사면 방아리 74번지","category":"문화.취미 - 화랑"},{"name":"친정슈퍼","tel":"031-334-5512","addr":"경기도 용인시 처인구 남사면 방아리74","category":"유통업 영리 - 슈퍼마켓"}]},{"lat":"37.163896728","long":"127.18038397","items":[{"name":"대림후문함바식당/주식회사 예담푸드","tel":"031-337-3384","addr":"경기도 용인시 처인구 남사면 완장리 527-4번지 1층","category":"일반휴게음식 - 일반한식"}]},{"lat":"37.148028203","long":"127.13257569","items":[{"name":"대명스크린","tel":"031-335-3065","addr":"경기도 용인시 처인구 남사면 통삼리 629-6번지","category":"레저업소 - 스크린골프"},{"name":"돈가네돼지찌개","tel":"031-334-4751","addr":"경기도 용인시 처인구 남사면 통삼리 629-6번지 107호(107호~110호)","category":"일반휴게음식 - 일반한식"},{"name":"신동탄한식","tel":"031-338-2151","addr":"경기도 용인시 처인구 남사면 통삼리 629-6번지","category":"일반휴게음식 - 일반한식"}]},{"lat":"37.162889595","long":"127.17901936","items":[{"name":"대부도바지락칼국수&막국수","tel":"031-000-0000","addr":"경기도 용인시 처인구 남사면 완장리 524-1번지 2동 101호,102호,103호","category":"일반휴게음식 - 일반한식"},{"name":"명륜진사갈비 (남사점)","tel":"031-335-9279","addr":"경기도 용인시 처인구 남사면 완장리 524-1번지","category":"일반휴게음식 - 일반한식"},{"name":"우리민족","tel":"031-333-1901","addr":"경기도 용인시 처인구 남사면 완장리 524-1번지 2동 104호","category":"일반휴게음식 - 일반한식"},{"name":"콩스","tel":"","addr":"경기도 용인시 처인구 남사면 완장리 524-1번지 드림상가 1동 1층105,106호","category":"일반휴게음식 - 일반한식"}]},{"lat":"37.100678974","long":"127.13169625","items":[{"name":"대성농자재산업","tel":"031-333-3855","addr":"경기도 용인시 처인구 남사면 진목리 648-1번지","category":"용역 서비스 - 기타용역서비스"}]},{"lat":"37.094652049","long":"127.14641004","items":[{"name":"대성유통","tel":"031-334-4282","addr":"경기도 용인시 처인구 남사면 원암리235-2","category":"기타 - 기타 전문점"},{"name":"진진씰테크","tel":"031-322-9494","addr":"경기도 용인시 처인구 남사면 원암리 235-2번지","category":"기타 - 기계공구"},{"name":"진진씰테크/원격지","tel":"031-334-7981","addr":"경기도 용인시 처인구 남사면 원암리 235-2번지","category":"기타 - 기타 전문점"}]},{"lat":"37.101950829","long":"127.13854926","items":[{"name":"대영산업","tel":"031-322-3576","addr":"경기도 용인시 처인구 남사면 진목리 128-1","category":"농업 - 기타농업관련"}]},{"lat":"37.173527218","long":"127.18148745","items":[{"name":"대웅철물건재","tel":"031-338-5702","addr":"경기도 용인시 처인구 남사면 완장리 159-17번지","category":"건축자재 - 목재·석재·철물"},{"name":"아이엠에프앤비 (주)","tel":"031-321-9060","addr":"경기도 용인시 처인구 남사면 완장리 159-17번지","category":"일반휴게음식 - 일반한식"},{"name":"정운캐터링(주)","tel":"031-321-9060","addr":"경기도 용인시 처인구 남사면 완장리 159-17번지","category":"음료식품 - 기타음료식품"}]},{"lat":"37.117701802","long":"127.11177585","items":[{"name":"대지남사서비스 (주)","tel":"070-4918-2851","addr":"경기도 용인시 처인구 남사면 봉명리 653-13번지","category":"자동차정비 유지 - 자동차정비"},{"name":"디에스브이하이테크 주식회사","tel":"070-4918-2851","addr":"경기도 용인시 처인구 남사면 봉명리 653-13번지","category":"자동차판매 - 기타운송"}]},{"lat":"37.096369299","long":"127.15660445","items":[{"name":"대한불교조계종도솔암","tel":"070-4133-2891","addr":"경기도 용인시 처인구 남사면 원암리 291-4","category":"기타 - 비영리/대상"}]},{"lat":"37.133864006","long":"127.13232644","items":[{"name":"더플레이스커피","tel":"031-322-4040","addr":"경기도 용인시 처인구 남사면 통삼리 771-3번지","category":"일반휴게음식 - 서양음식"}]},{"lat":"37.095007641","long":"127.14291248","items":[{"name":"돈순","tel":"031-336-1378","addr":"경기도 용인시 처인구 남사면 원암리 208-4번지","category":"일반휴게음식 - 일반한식"},{"name":"함대","tel":"031-336-3589","addr":"경기도 용인시 처인구 남사면 원암리 208-4번지","category":"일반휴게음식 - 일반한식"}]},{"lat":"37.106678163","long":"127.14882899","items":[{"name":"동그라미농장","tel":"031-334-9500","addr":"경기도 용인시 처인구 남사면 전궁리 501-9번지","category":"회원제형태 - 기타1"}]},{"lat":"37.118532133","long":"127.11028054","items":[{"name":"동남카서비스","tel":"031-334-5698","addr":"경기도 용인시 처인구 남사면 봉명리764-8","category":"자동차정비 유지 - 자동차정비"}]},{"lat":"37.140311468","long":"127.16493198","items":[{"name":"동부하나투어(주)","tel":"02-1599-7125","addr":"경기도 용인시 처인구 남사면 아곡리 439-28번지","category":"여행 - 관광여행"},{"name":"모두의식탁","tel":"031-000-0000","addr":"경기도 용인시 처인구 남사면 아곡리 439-28번지 1층","category":"일반휴게음식 - 일반한식"},{"name":"엄마손김밥","tel":"031-333-9380","addr":"경기도 용인시 처인구 남사면 아곡리 439-28번지","category":"일반휴게음식 - 스넥"},{"name":"유정낚시","tel":"031-339-9756","addr":"경기도 용인시 처인구 남사면 아곡리439-28","category":"레져용품 - 스포츠·레져용품"},{"name":"화성포장산업","tel":"031-335-1976","addr":"경기도 용인시 처인구 남사면 아곡리 439-28","category":"기타 - 기계공구"}]},{"lat":"37.177003473","long":"127.18265546","items":[{"name":"동서물류기계","tel":"031-337-3880","addr":"경기도 용인시 처인구 남사면 완장리 57-11번지","category":"자동차정비 유지 - 자동차부품"}]},{"lat":"37.114649552","long":"127.15118454","items":[{"name":"동서한의원","tel":"031-322-2075","addr":"경기도 용인시 처인구 남사면 봉무리 444-16번지","category":"의원 - 한의원"},{"name":"동서한의원","tel":"031-322-2075","addr":"경기도 용인시 처인구 남사면 봉무리 444-16","category":"의원 - 한의원"}]},{"lat":"37.103119626","long":"127.15549313","items":[{"name":"동우씨엠","tel":"031-225-0286","addr":"경기도 용인시 처인구 남사면 406번지","category":"유통업 영리 - 기타유통업"}]},{"lat":"37.102033394","long":"127.12028044","items":[{"name":"동이","tel":"070-4333-4287","addr":"경기도 용인시 처인구 남사면 진목리 949-22","category":"음료식품 - 농·축·수산품"}]},{"lat":"37.092063891","long":"127.14815983","items":[{"name":"동탄판넬오산천막앵글","tel":"031-333-4789","addr":"경기도 용인시 처인구 남사면 원암리 371-66","category":"직물 - 카페트,커튼,천막,지물"}]},{"lat":"37.121199597","long":"127.10989048","items":[{"name":"두드림찻집","tel":"031-322-7593","addr":"경기도 용인시 처인구 남사면 봉명리 783번지 1층","category":"일반휴게음식 - 서양음식"}]},{"lat":"37.093733912","long":"127.14563219","items":[{"name":"두루","tel":"031-332-6732","addr":"경기도 용인시 처인구 남사면 원암리 371-36번지","category":"전기제품 - 냉열기기"}]},{"lat":"37.148480378","long":"127.13105687","items":[{"name":"두부고을","tel":"031-333-5767","addr":"경기도 용인시 처인구 남사면 통삼리 634-13번지 두부고을","category":"일반휴게음식 - 일반한식"}]},{"lat":"37.102236727","long":"127.14066466","items":[{"name":"두산하이서비스","tel":"031-338-9906","addr":"경기도 용인시 처인구 남사면 진목리 27-3번지","category":"기타 - 기계공구"},{"name":"에이스솔루션","tel":"","addr":"경기도 용인시 처인구 남사면 진목리 27-3번지","category":"기타 - 기계공구"}]},{"lat":"37.142476336","long":"127.14926916","items":[{"name":"드림마트","tel":"031-374-9170","addr":"경기도 용인시 처인구 남사면 북리 608-23번지 다이소물류센터내매점","category":"유통업 영리 - 슈퍼마켓"}]},{"lat":"37.148478996","long":"127.13232883","items":[{"name":"디데이랜드","tel":"070-4007-5739","addr":"경기도 용인시 처인구 남사면 통삼리 629-15번지","category":"신변잡화 - 기타잡화"}]},{"lat":"37.117120563","long":"127.1761904","items":[{"name":"딸기랑소풍가기좋은날","tel":"071-4105-5024","addr":"경기도 용인시 처인구 남사면 방아리 330-5번지","category":"음료식품 - 농·축·수산품"}]},{"lat":"37.095367663","long":"127.1432506","items":[{"name":"땡글이네 쌈밥","tel":"031-336-9244","addr":"경기도 용인시 처인구 남사면 원암리 216-19번지 211-1호","category":"일반휴게음식 - 일반한식"},{"name":"사계절밥상","tel":"031-338-1355","addr":"경기도 용인시 처인구 남사면 원암리 216-19번지","category":"일반휴게음식 - 일반한식"}]},{"lat":"37.115171836","long":"127.15144434","items":[{"name":"떡봉이네송탄부대찌개","tel":"031-339-1190","addr":"경기도 용인시 처인구 남사면 봉무리 444-27번지","category":"일반휴게음식 - 일반한식"}]},{"lat":"37.11589965","long":"127.11182952","items":[{"name":"뜰안애야생화","tel":"","addr":"경기도 용인시 처인구 남사면 봉명리 664-2번지","category":"문화.취미 - 화원"}]},{"lat":"37.114342913","long":"127.15140897","items":[{"name":"러브레터","tel":"031-339-8255","addr":"경기도 용인시 처인구 남사면 봉무리 445-3","category":"일반휴게음식 - 서양음식"}]},{"lat":"37.123868746","long":"127.11735471","items":[{"name":"로뎀","tel":"031-329-0120","addr":"경기도 용인시 처인구 남사면 봉명리 646-2번지","category":"음료식품 - 기타음료식품"}]},{"lat":"37.144702789","long":"127.18738517","items":[{"name":"르노삼성특장","tel":"070-4135-4584","addr":"경기도 용인시 처인구 남사면 창리 293","category":"자동차정비 유지 - 자동차부품"},{"name":"유니온모터스(Union Motors)","tel":"031-322-8488","addr":"경기도 용인시 처인구 남사면 창리 293번지 외5필지","category":"자동차판매 - 기타운송"}]},{"lat":"37.107286978","long":"127.1721067","items":[{"name":"리멤버(Remember)","tel":"031-336-7744","addr":"경기도 용인시 처인구 남사면 방아리 883-3번지","category":"문화.취미 - 애완동물"}]},{"lat":"37.166089373","long":"127.17829495","items":[{"name":"마운틴 준","tel":"","addr":"경기도 용인시 처인구 남사면 완장리 508-2번지","category":"문화.취미 - 민예·공예품"},{"name":"히녹건강공예","tel":"031-338-1237","addr":"경기도 용인시 처인구 남사면 완장리 508-2번지","category":"문화.취미 - 민예·공예품"}]},{"lat":"37.114540933","long":"127.15157812","items":[{"name":"마이아","tel":"031-332-7780","addr":"경기도 용인시 처인구 남사면 봉무리 444-15번지 1층 일부","category":"보건위생 - 의료용품"},{"name":"최가네","tel":"031-334-8322","addr":"경기도 용인시 처인구 남사면 봉무리 444-15번지 1층 일부","category":"일반휴게음식 - 일반한식"}]},{"lat":"37.112033959","long":"127.12140971","items":[{"name":"만(MAN)","tel":"031-336-6795","addr":"경기도 용인시 처인구 남사면 봉명리 576-1번지","category":"자동차정비 유지 - 자동차부품"}]},{"lat":"37.139535335","long":"127.16583072","items":[{"name":"만물슈퍼건재","tel":"031-334-7332","addr":"경기도 용인시 처인구 남사면 아곡리439-23","category":"유통업 영리 - 슈퍼마켓"},{"name":"삼시세끼식당","tel":"031-333-5778","addr":"경기도 용인시 처인구 남사면 아곡리 439-23번지 나동 1층","category":"일반휴게음식 - 일반한식"},{"name":"월드낚시마트","tel":"031-322-9855","addr":"경기도 용인시 처인구 남사면 아곡리 439-23번지","category":"레져용품 - 스포츠·레져용품"}]},{"lat":"37.139976501","long":"127.18466124","items":[{"name":"맑은샘","tel":"031-334-1466","addr":"경기도 용인시 처인구 남사면 창리 377-8번지","category":"일반휴게음식 - 일반한식"},{"name":"창리낚시터","tel":"031-334-7666","addr":"경기도 용인시 처인구 남사면 창리377-8","category":"레저업소 - 기타레져업소"}]},{"lat":"37.114119753","long":"127.14972086","items":[{"name":"머거볼래","tel":"031-336-8315","addr":"경기도 용인시 처인구 남사면 봉무리 664-1번지","category":"일반휴게음식 - 스넥"}]},{"lat":"37.119950722","long":"127.1756005","items":[{"name":"명성기획","tel":"031-322-5730","addr":"경기도 용인시 처인구 남사면 방아리 228-11번지","category":"용역 서비스 - 종합용역"}]},{"lat":"37.113900141","long":"127.15240945","items":[{"name":"명품타이거즈","tel":"031-322-3154","addr":"경기도 용인시 처인구 남사면 봉무리 646-1번지 2층","category":"학원 - 예·체능계학원"}]},{"lat":"37.110983078","long":"127.12694341","items":[{"name":"모란농자재","tel":"031-769-3130","addr":"경기도 용인시 처인구 남사면 봉명리 562","category":"농업 - 농기계"}]},{"lat":"37.104346684","long":"127.14699081","items":[{"name":"모아농원","tel":"031-339-9079","addr":"경기도 용인시 처인구 남사면 전궁리509-17","category":"문화.취미 - 화원"}]},{"lat":"37.139392837","long":"127.17732166","items":[{"name":"모터스피드","tel":"031-339-1101","addr":"경기도 용인시 처인구 남사면 창리 506-2 나동","category":"자동차정비 유지 - 자동차부품"},{"name":"조훈타이어","tel":"031-337-0951","addr":"경기도 용인시 처인구 남사면 창리 506-2번지","category":"자동차정비 유지 - 자동차시트·타이어"}]},{"lat":"37.136257886","long":"127.13496405","items":[{"name":"물쑤시개","tel":"031-216-1023","addr":"경기도 용인시 처인구 남사면 통삼리 567-1번지","category":"음료식품 - 기타음료식품"},{"name":"배드민턴","tel":"031-339-0092","addr":"경기도 용인시 처인구 남사면 통삼리 567-1번지 1층","category":"레저업소 - 기타레져업소"},{"name":"퍼주리무한삼겹살북촌순두부","tel":"031-339-0032","addr":"경기도 용인시 처인구 남사면 통삼리 567-1번지 1층","category":"일반휴게음식 - 일반한식"}]},{"lat":"37.107592353","long":"127.17279364","items":[{"name":"뭉치네","tel":"031-334-1999","addr":"경기도 용인시 처인구 남사면 방아리 879-1번지 1층","category":"일반휴게음식 - 일반한식"}]},{"lat":"37.108838699","long":"127.13516393","items":[{"name":"미각","tel":"031-334-2233","addr":"경기도 용인시 처인구 남사면 봉명리 58-2번지","category":"신변잡화 - 기타잡화"}]},{"lat":"37.165504878","long":"127.17749423","items":[{"name":"미니슈퍼","tel":"","addr":"경기도 용인시 처인구 남사면 완장리 491-1번지 103호","category":"유통업 영리 - 슈퍼마켓"},{"name":"부페식해남밥상","tel":"","addr":"경기도 용인시 처인구 남사면 완장리 491-1번지 1층","category":"일반휴게음식 - 일반한식"}]},{"lat":"37.13011927","long":"127.16591181","items":[{"name":"미니슈퍼","tel":"031-111-1111","addr":"경기도 용인시 처인구 남사면 창리 748-7번지 9/1","category":"유통업 영리 - 슈퍼마켓"}]},{"lat":"37.143645994","long":"127.12707551","items":[{"name":"미니스톱 남사IC휴게소점","tel":"031-1577-9621","addr":"경기도 용인시 처인구 남사면 통삼리 811번지 라동","category":"유통업 영리 - 편 의 점"}]},{"lat":"37.151616435","long":"127.13877301","items":[{"name":"미담푸드","tel":"031-332-3592","addr":"경기도 용인시 처인구 남사면 북리749-1","category":"음료식품 - 제과점"}]},{"lat":"37.091261637","long":"127.148417","items":[{"name":"미래페인트","tel":"031-321-2625","addr":"경기도 용인시 처인구 남사면 원암리 194-23번지 외1필지","category":"건축자재 - 페인트"},{"name":"표준바삭","tel":"031-335-4185","addr":"경기도 용인시 처인구 남사면 원암리 194-23번지 1층","category":"일반휴게음식 - 스넥"},{"name":"표준카센타","tel":"031-333-4009","addr":"경기도 용인시 처인구 남사면 원암리 194-23번지 외2필지","category":"자동차정비 유지 - 자동차정비"}]},{"lat":"37.145536243","long":"127.13713004","items":[{"name":"미스터마트용인남사점","tel":"031-339-3228","addr":"경기도 용인시 처인구 남사면 북리 696-6번지","category":"유통업 영리 - 슈퍼마켓"},{"name":"삼거리식당","tel":"031-323-2233","addr":"경기도 용인시 처인구 남사면 북리 696-6번지 나동 1층 일부","category":"일반휴게음식 - 일반한식"}]},{"lat":"37.102956781","long":"127.1488556","items":[{"name":"벧엘화분자재마을","tel":"031-339-7863","addr":"경기도 용인시 처인구 남사면 전궁리 506-7","category":"문화.취미 - 화원"}]},{"lat":"37.102235466","long":"127.13382502","items":[{"name":"보배농원","tel":"","addr":"경기도 용인시 처인구 남사면 진목리 422번지","category":"문화.취미 - 화원"}]},{"lat":"37.112345478","long":"127.14907613","items":[{"name":"부산아구찜해물찜","tel":"031-322-9588","addr":"경기도 용인시 처인구 남사면 봉무리 670-14번지","category":"일반휴게음식 - 일반한식"},{"name":"용우반점","tel":"031-333-9224","addr":"경기도 용인시 처인구 남사면 봉무리 670-14번지","category":"일반휴게음식 - 중국식"}]},{"lat":"37.095314397","long":"127.1425756","items":[{"name":"부성각","tel":"031-338-2276","addr":"경기도 용인시 처인구 남사면 원암리 208-3번지 시누이한식 가동","category":"일반휴게음식 - 중국식"},{"name":"신영천막","tel":"031-377-3193","addr":"경기도 용인시 처인구 남사면 원암리 208-3","category":"직물 - 카페트,커튼,천막,지물"},{"name":"엄마네분식2호점","tel":"","addr":"경기도 용인시 처인구 남사면 원암리 208-3번지","category":"일반휴게음식 - 스넥"},{"name":"짬뽕아울렛","tel":"031-338-2276","addr":"경기도 용인시 처인구 남사면 원암리 208-3번지 시누이한식 가동","category":"일반휴게음식 - 중국식"}]},{"lat":"37.145556914","long":"127.14263417","items":[{"name":"북리중화요리","tel":"031-338-5492","addr":"경기도 용인시 처인구 남사면 북리 676-1번지","category":"일반휴게음식 - 중국식"},{"name":"현대모타","tel":"031-323-1340","addr":"경기도 용인시 처인구 남사면 북리 676-1번지","category":"기타 - 기계공구"}]},{"lat":"37.114477336","long":"127.15199429","items":[{"name":"브림(Brim)","tel":"02-1111-1111","addr":"경기도 용인시 처인구 남사면 봉무리 449-9번지 1층","category":"일반휴게음식 - 서양음식"},{"name":"토브미용실","tel":"031-333-0862","addr":"경기도 용인시 처인구 남사면 봉무리 449-9","category":"보건위생 - 미용원"}]},{"lat":"37.164749082","long":"127.15015649","items":[{"name":"블리블룸","tel":"","addr":"경기도 용인시 처인구 남사면 북리 265-10번지","category":"문화.취미 - 화원"}]},{"lat":"37.123923394","long":"127.12577175","items":[{"name":"산삼구경꾼","tel":"031-338-2457","addr":"경기도 용인시 처인구 남사면 통삼리149-3","category":"회원제형태 - 기타4"}]},{"lat":"37.134675427","long":"127.1318889","items":[{"name":"삼기산업사","tel":"031-334-1854","addr":"경기도 용인시 처인구 남사면 통삼리 762번지","category":"보건위생 - 의료용품"}]},{"lat":"37.101373743","long":"127.13890821","items":[{"name":"삼부자슈퍼","tel":"031-339-0402","addr":"경기도 용인시 처인구 남사면 진목리 130-8","category":"유통업 영리 - 슈퍼마켓"}]},{"lat":"37.166973092","long":"127.17782412","items":[{"name":"삼성각","tel":"031-338-8543","addr":"경기도 용인시 처인구 남사면 완장리 472번지","category":"일반휴게음식 - 중국식"},{"name":"쌔카스팀세차 용인한숲시티점","tel":"031-855-3762","addr":"경기도 용인시 처인구 남사면 완장리 472번지 다동","category":"자동차정비 유지 - 세차장"}]},{"lat":"37.149091966","long":"127.14768351","items":[{"name":"삼성엔에코(samsungneco)","tel":"031-334-5181","addr":"경기도 용인시 처인구 남사면 북리562-2","category":"기타 - 기계공구"}]},{"lat":"37.145034533","long":"127.14244186","items":[{"name":"삼인식당","tel":"031-332-7400","addr":"경기도 용인시 처인구 남사면 북리 658-6번지","category":"일반휴게음식 - 중국식"}]},{"lat":"37.113983421","long":"127.15066569","items":[{"name":"새나라치킨","tel":"031-334-9705","addr":"경기도 용인시 처인구 남사면 봉무리 441-22번지","category":"일반휴게음식 - 칵테일바"}]},{"lat":"37.169917774","long":"127.17899063","items":[{"name":"샘","tel":"031-336-0933","addr":"경기도 용인시 처인구 남사면 완장리 321-6번지","category":"자동차정비 유지 - 자동차시트·타이어"}]},{"lat":"37.09432085","long":"127.12860348","items":[{"name":"샤론다육샤론도예","tel":"031-333-0668","addr":"경기도 용인시 처인구 남사면 진목리 745-1번지","category":"문화.취미 - 화원"}]},{"lat":"37.164866165","long":"127.17679473","items":[{"name":"서울감자탕","tel":"031-323-3329","addr":"경기도 용인시 처인구 남사면 완장리 480번지 1층","category":"일반휴게음식 - 일반한식"},{"name":"황실아로마","tel":"031-339-1135","addr":"경기도 용인시 처인구 남사면 완장리 480번지 2층","category":"보건위생 - 화장품"}]},{"lat":"37.114729983","long":"127.15171351","items":[{"name":"서울곱창","tel":"031-332-6160","addr":"경기도 용인시 처인구 남사면 봉무리 444-11번지","category":"일반휴게음식 - 일반한식"}]},{"lat":"37.131450985","long":"127.16724261","items":[{"name":"성민자동판매기","tel":"031-322-6118","addr":"경기도 용인시 처인구 남사면 창리 540-2번지 1층","category":"기타 - 기계공구"}]},{"lat":"37.091701661","long":"127.12585468","items":[{"name":"성은엔지니어링","tel":"","addr":"경기도 용인시 처인구 남사면 진목리 385-8번지","category":"용역 서비스 - 기타용역서비스"}]},{"lat":"37.107014081","long":"127.1739061","items":[{"name":"성진원예","tel":"031-376-6890","addr":"경기도 용인시 처인구 남사면 방아리 875-8","category":"문화.취미 - 화원"}]},{"lat":"37.115674004","long":"127.1122455","items":[{"name":"세븐일레븐용인남사대로점","tel":"","addr":"경기도 용인시 처인구 남사면 봉명리 668번지","category":"유통업 영리 - 편 의 점"}]},{"lat":"37.108117496","long":"127.17101727","items":[{"name":"세븐일레븐용인남사본점","tel":"031-1577-0711","addr":"경기도 용인시 처인구 남사면 방아리 919-2번지","category":"유통업 영리 - 편 의 점"}]},{"lat":"37.145314347","long":"127.14202591","items":[{"name":"세븐일레븐용인남사점","tel":"031-1577-0711","addr":"경기도 용인시 처인구 남사면 북리 680-1번지","category":"유통업 영리 - 편 의 점"},{"name":"오렌지디자인","tel":"031-338-8745","addr":"경기도 용인시 처인구 남사면 북리 680-1번지","category":"용역 서비스 - 종합용역"}]},{"lat":"37.139950464","long":"127.1653589","items":[{"name":"세븐일레븐용인아곡점","tel":"031-1577-0711","addr":"경기도 용인시 처인구 남사면 아곡리 439-44번지 일부","category":"유통업 영리 - 편 의 점"}]},{"lat":"37.142116356","long":"127.18766027","items":[{"name":"세븐일레븐용인창리점","tel":"031-1577-0711","addr":"경기도 용인시 처인구 남사면 창리 366-6번지","category":"유통업 영리 - 편 의 점"}]},{"lat":"37.114623684","long":"127.15025064","items":[{"name":"세원조경","tel":"","addr":"경기도 용인시 처인구 남사면 봉무리 442-1번지","category":"건축자재 - 인테리어전문"}]},{"lat":"37.095317531","long":"127.1546901","items":[{"name":"세일농장","tel":"","addr":"경기도 용인시 처인구 남사면 원암리 281-9번지","category":"문화.취미 - 화원"}]},{"lat":"37.104341778","long":"127.1509732","items":[{"name":"세진식물원","tel":"","addr":"경기도 용인시 처인구 남사면 전궁리 498-3번지","category":"문화.취미 - 화원"}]},{"lat":"37.093121088","long":"127.14572102","items":[{"name":"소나무웰빙한식뷔페","tel":"070-1111-1111","addr":"경기도 용인시 처인구 남사면 원암리 222-9번지 2동 1층","category":"일반휴게음식 - 일반한식"},{"name":"큰맘할매순대국","tel":"031-336-6126","addr":"경기도 용인시 처인구 남사면 원암리 222-9번지 2동 1층","category":"일반휴게음식 - 일반한식"}]},{"lat":"37.097595813","long":"127.14108371","items":[{"name":"소지테크놀로지","tel":"070-8805-9663","addr":"경기도 용인시 처인구 남사면 원암리 381-7번지 외1필지","category":"용역 서비스 - 기타용역서비스"}]},{"lat":"37.110089211","long":"127.15199694","items":[{"name":"소풍","tel":"031-332-6277","addr":"경기도 용인시 처인구 남사면 전궁리 420-1번지","category":"일반휴게음식 - 일반한식"}]},{"lat":"37.144171051","long":"127.18746267","items":[{"name":"송죽가든","tel":"031-321-4887","addr":"경기도 용인시 처인구 남사면 창리294-1","category":"일반휴게음식 - 일반한식"}]},{"lat":"37.153419131","long":"127.16679483","items":[{"name":"수궁암","tel":"070-5118-2236","addr":"경기도 용인시 처인구 남사면 아곡리 341-2번지","category":"보건위생 - 기타대인서비스"}]},{"lat":"37.108319181","long":"127.13236171","items":[{"name":"수연식당","tel":"031-335-5873","addr":"경기도 용인시 처인구 남사면 봉명리 365-7,9","category":"일반휴게음식 - 일반한식"}]},{"lat":"37.14653529","long":"127.13811107","items":[{"name":"쉐프파트너 주식회사","tel":"031-323-5785","addr":"경기도 용인시 처인구 남사면 북리 685번지 1층","category":"음료식품 - 정육점"}]},{"lat":"37.10053505","long":"127.13147103","items":[{"name":"스마일 슈퍼","tel":"","addr":"경기도 용인시 처인구 남사면 진목리 649-5번지","category":"유통업 영리 - 슈퍼마켓"}]},{"lat":"37.117511311","long":"127.16093405","items":[{"name":"승림마트","tel":"070-8180-5710","addr":"경기도 용인시 처인구 남사면 방아리 111-2번지","category":"유통업 영리 - 슈퍼마켓"}]},{"lat":"37.145474675","long":"127.14360201","items":[{"name":"시골밥집","tel":"031-334-4179","addr":"경기도 용인시 처인구 남사면 북리668-1","category":"일반휴게음식 - 일반한식"}]},{"lat":"37.094176292","long":"127.14491313","items":[{"name":"시골집","tel":"031-336-0993","addr":"경기도 용인시 처인구 남사면 원암리 218-2번지","category":"일반휴게음식 - 일반한식"}]},{"lat":"37.1104532","long":"127.17590519","items":[{"name":"시온가구","tel":"031-332-9790","addr":"경기도 용인시 처인구 남사면 방아리 739-3번지 유신농장","category":"가구 - 일반가구"}]},{"lat":"37.101229446","long":"127.13902044","items":[{"name":"신바람난찐빵집","tel":"031-335-2507","addr":"경기도 용인시 처인구 남사면 진목리 131-1번지 1층","category":"일반휴게음식 - 스넥"},{"name":"행복찬합도시락","tel":"031-321-0640","addr":"경기도 용인시 처인구 남사면 진목리 131-1번지","category":"일반휴게음식 - 일반한식"}]},{"lat":"37.108590011","long":"127.13188965","items":[{"name":"신세계마트","tel":"031-334-6563","addr":"경기도 용인시 처인구 남사면 봉명리 368-1","category":"유통업 영리 - 슈퍼마켓"}]},{"lat":"37.111844592","long":"127.12155567","items":[{"name":"신안만물","tel":"031-337-2283","addr":"경기도 용인시 처인구 남사면 봉명리 575-1번지","category":"신변잡화 - 기타잡화"}]},{"lat":"37.140114216","long":"127.15037885","items":[{"name":"신안빵구및타이어","tel":"031-323-4089","addr":"경기도 용인시 처인구 남사면 북리 648번지","category":"자동차정비 유지 - 자동차정비"},{"name":"원효사","tel":"031-339-9512","addr":"경기도 용인시 처인구 남사면 북리648","category":"기타 - 비영리/대상"}]},{"lat":"37.154780522","long":"127.19615647","items":[{"name":"신제일농장","tel":"031-373-9491","addr":"경기도 용인시 처인구 남사면 창리 20번지","category":"음료식품 - 농·축·수산품"}]},{"lat":"37.134062813","long":"127.13179783","items":[{"name":"신촌설렁탕","tel":"031-322-4040","addr":"경기도 용인시 처인구 남사면 통삼리 762-1번지 2동 1층","category":"일반휴게음식 - 일반한식"}]},{"lat":"37.108785187","long":"127.13466882","items":[{"name":"씨유남사봉명점","tel":"031-239-6683","addr":"경기도 용인시 처인구 남사면 봉명리 74-1번지","category":"유통업 영리 - 편 의 점"}]},{"lat":"37.142007017","long":"127.15698937","items":[{"name":"씨유남사아세아점","tel":"031-898-6567","addr":"경기도 용인시 처인구 남사면 북리 61-6번지","category":"유통업 영리 - 편 의 점"},{"name":"씰리침대 남사점","tel":"031-337-1108","addr":"경기도 용인시 처인구 남사면 북리 61-6번지","category":"가구 - 일반가구"}]},{"lat":"37.114532612","long":"127.1510268","items":[{"name":"씨유남사우리점","tel":"031-335-9765","addr":"경기도 용인시 처인구 남사면 봉무리 445-1번지","category":"유통업 영리 - 편 의 점"},{"name":"우리하우징","tel":"031-322-1258","addr":"경기도 용인시 처인구 남사면 봉무리 445-1번지","category":"건축자재 - 인테리어전문"}]},{"lat":"37.145394327","long":"127.14297154","items":[{"name":"씨유용인남사점","tel":"031-239-6697","addr":"경기도 용인시 처인구 남사면 북리 674-1번지 1층","category":"유통업 영리 - 편 의 점"}]},{"lat":"37.093391566","long":"127.14558656","items":[{"name":"씨유용인원암점","tel":"031-898-6963","addr":"경기도 용인시 처인구 남사면 원암리 222-9번지 1동","category":"유통업 영리 - 편 의 점"}]},{"lat":"37.148172788","long":"127.13219323","items":[{"name":"아담시골닭","tel":"031-339-8188","addr":"경기도 용인시 처인구 남사면 통삼리 629-8번지 1층","category":"일반휴게음식 - 일반한식"},{"name":"유핀","tel":"031-333-1511","addr":"경기도 용인시 처인구 남사면 통삼리 629-8번지 1층","category":"일반휴게음식 - 일반한식"}]},{"lat":"37.152423969","long":"127.19357266","items":[{"name":"아모레퍼시픽카운셀러","tel":"031-2690-9504","addr":"경기도 용인시 처인구 남사면 창리 94-2번지 9층 화곡동유림빌딩","category":"보건위생 - 화장품"}]},{"lat":"37.128170029","long":"127.15457563","items":[{"name":"아이앤티건설기술 주식회사","tel":"031-338-2140","addr":"경기도 용인시 처인구 남사면 봉무리 300번지","category":"용역 서비스 - 사무서비스"}]},{"lat":"37.103486301","long":"127.14313058","items":[{"name":"안개종묘농장","tel":"031-334-3646","addr":"경기도 용인시 처인구 남사면 진목리58-15","category":"문화.취미 - 화원"}]},{"lat":"37.114397946","long":"127.15063274","items":[{"name":"앗싸 노래연습장","tel":"031-322-6033","addr":"경기도 용인시 처인구 남사면 봉무리 441-7번지 지하1층","category":"레저업소 - 노 래 방"}]},{"lat":"37.146612635","long":"127.13341747","items":[{"name":"양평해장국","tel":"031-334-5951","addr":"경기도 용인시 처인구 남사면 통삼리 620-1번지","category":"일반휴게음식 - 일반한식"}]},{"lat":"37.113650453","long":"127.15032751","items":[{"name":"엄마네분식","tel":"","addr":"경기도 용인시 처인구 남사면 봉무리 441-10번지","category":"일반휴게음식 - 일반한식"}]},{"lat":"37.108534373","long":"127.1333296","items":[{"name":"에그로커피(egro coffee)","tel":"031-321-2209","addr":"경기도 용인시 처인구 남사면 봉명리 72-1번지","category":"일반휴게음식 - 서양음식"},{"name":"조이냉동","tel":"031-339-7101","addr":"경기도 용인시 처인구 남사면 봉명리 72-1번지 365-17호 , 동소","category":"용역 서비스 - 기타용역서비스"}]},{"lat":"37.12889619","long":"127.15035708","items":[{"name":"에쓰엘(SL)","tel":"031-322-4461","addr":"경기도 용인시 처인구 남사면 봉무리 246번지 유일하이텍","category":"전기제품 - 기타전기제품"},{"name":"주식회사유일하이텍","tel":"041-542-1947","addr":"경기도 용인시 처인구 남사면 봉무리 246","category":"전기제품 - 기타전기제품"}]},{"lat":"37.134732165","long":"127.15260799","items":[{"name":"에이치앤에스테크놀로지","tel":"031-333-0958","addr":"경기도 용인시 처인구 남사면 봉무리 105-4번지","category":"서적문구 - 과학기자재"}]},{"lat":"37.169915021","long":"127.1867371","items":[{"name":"엠케이 (MK)뷰티플라자","tel":"031-5566-2247","addr":"경기도 용인시 처인구 남사면 완장리 228-1번지","category":"보건위생 - 미용재료"}]},{"lat":"37.105982643","long":"127.13491147","items":[{"name":"연꽃마당","tel":"031-334-7288","addr":"경기도 용인시 처인구 남사면 진목리 202-3, 4","category":"문화.취미 - 화원"}]},{"lat":"37.123786606","long":"127.16466045","items":[{"name":"열매농원","tel":"","addr":"경기도 용인시 처인구 남사면 방아리 95-2번지","category":"문화.취미 - 화원"}]},{"lat":"37.139116673","long":"127.17516009","items":[{"name":"영광굴비","tel":"031-332-6143","addr":"경기도 용인시 처인구 남사면 창리 672-1번지","category":"일반휴게음식 - 일반한식"}]},{"lat":"37.153728098","long":"127.1950506","items":[{"name":"예찬인테리어","tel":"031-335-6964","addr":"경기도 용인시 처인구 남사면 창리 113번지","category":"회원제형태 - 기타4"}]},{"lat":"37.113340779","long":"127.1529709","items":[{"name":"예찬축산도소매센터","tel":"031-323-1265","addr":"경기도 용인시 처인구 남사면 봉무리 631-8번지","category":"음료식품 - 정육점"}]},{"lat":"37.091903729","long":"127.14649484","items":[{"name":"오성토탈인테리어","tel":"031-338-0022","addr":"경기도 용인시 처인구 남사면 원암리 197-1번지 코리아블로우테크 나동","category":"건축자재 - 인테리어전문"}]},{"lat":"37.116984167","long":"127.12686319","items":[{"name":"와이엠자동문","tel":"031-336-8565","addr":"경기도 용인시 처인구 남사면 봉명리 205-3번지","category":"건축자재 - 기타건축자재"}]},{"lat":"37.169253446","long":"127.16463346","items":[{"name":"완장낚시터","tel":"031-339-7399","addr":"경기도 용인시 처인구 남사면 완장리401-1완장1호소류지","category":"문화.취미 - 문화취미기타"}]},{"lat":"37.145501357","long":"127.1361057","items":[{"name":"외할머니집","tel":"031-338-1989","addr":"경기도 용인시 처인구 남사면 북리 693-1번지","category":"일반휴게음식 - 일반한식"}]},{"lat":"37.165478873","long":"127.17679613","items":[{"name":"용갈비","tel":"031-333-5856","addr":"경기도 용인시 처인구 남사면 완장리 493-5번지","category":"일반휴게음식 - 일반한식"}]},{"lat":"37.114371055","long":"127.15052018","items":[{"name":"용인남사우체국","tel":"031-332-6000","addr":"경기도 용인시 처인구 남사면 봉무리 440-10번지","category":"용역 서비스 - 공공요금대행서비스/소"}]},{"lat":"37.114591837","long":"127.13113475","items":[{"name":"용인두원리퍼브","tel":"","addr":"경기도 용인시 처인구 남사면 봉명리 275-3번지","category":"신변잡화 - 기타잡화"}]},{"lat":"37.116763065","long":"127.16121379","items":[{"name":"용인솥짓말식품영농조합법인","tel":"031-332-7693","addr":"경기도 용인시 처인구 남사면 방아리500","category":"음료식품 - 기타음료식품"}]},{"lat":"37.163528378","long":"127.17966257","items":[{"name":"용인자라농장","tel":"031-334-7998","addr":"경기도 용인시 처인구 남사면 완장리 526-2번지","category":"건강식품 - 기타건강식품"}]},{"lat":"37.103012596","long":"127.1398336","items":[{"name":"용인토종순대국","tel":"031-333-8168","addr":"경기도 용인시 처인구 남사면 진목리92-12","category":"일반휴게음식 - 일반한식"}]},{"lat":"37.103148208","long":"127.13944011","items":[{"name":"우리농약사","tel":"031-338-5233","addr":"경기도 용인시 처인구 남사면 진목리 92-10번지","category":"농업 - 기타농업관련"}]},{"lat":"37.139924003","long":"127.16494241","items":[{"name":"우리식품","tel":"031-000-0000","addr":"경기도 용인시 처인구 남사면 아곡리 439-31번지","category":"음료식품 - 기타음료식품"}]},{"lat":"37.124260108","long":"127.13113981","items":[{"name":"우리집가든","tel":"031-321-1884","addr":"경기도 용인시 처인구 남사면 통삼리 210번지 우리집가든 가동 1층","category":"일반휴게음식 - 일반한식"}]},{"lat":"37.158366852","long":"127.14510066","items":[{"name":"우세기술주식회사","tel":"031-311-0194","addr":"경기도 용인시 처인구 남사면 북리 217-1번지","category":"전기제품 - 기타전기제품"}]},{"lat":"37.121067961","long":"127.16279806","items":[{"name":"우송엔지니어링(주)","tel":"031-323-3946","addr":"경기도 용인시 처인구 남사면 방아리768","category":"기타 - 기계공구"}]},{"lat":"37.109283281","long":"127.13238585","items":[{"name":"우진카공업사","tel":"031-333-1098","addr":"경기도 용인시 처인구 남사면 봉명리 364-5번지","category":"자동차정비 유지 - 자동차정비"}]},{"lat":"37.10148205","long":"127.13875091","items":[{"name":"원(  )","tel":"031-333-7735","addr":"경기도 용인시 처인구 남사면 진목리 130-7번지","category":"신변잡화 - 기타잡화"}]},{"lat":"37.091287922","long":"127.14902443","items":[{"name":"원암마트","tel":"031-334-4926","addr":"경기도 용인시 처인구 남사면 원암리 194-14번지","category":"유통업 영리 - 슈퍼마켓"}]},{"lat":"37.091098534","long":"127.14915904","items":[{"name":"원암한식부페","tel":"031-332-3974","addr":"경기도 용인시 처인구 남사면 원암리 415-4번지 창대공인중개사 가동","category":"일반휴게음식 - 일반한식"}]},{"lat":"37.137314328","long":"127.16902226","items":[{"name":"원플라워 2","tel":"02-111-1111","addr":"경기도 용인시 처인구 남사면 창리 573번지","category":"문화.취미 - 화원"}]},{"lat":"37.109508814","long":"127.13213872","items":[{"name":"월남식당","tel":"031-332-6984","addr":"경기도 용인시 처인구 남사면 봉명리368-5","category":"일반휴게음식 - 일반한식"}]},{"lat":"37.141232367","long":"127.15679646","items":[{"name":"위드미용인황금점","tel":"02-6916-1500","addr":"경기도 용인시 처인구 남사면 북리 75-7번지 1층","category":"유통업 영리 - 슈퍼마켓"},{"name":"황금식당","tel":"031-333-9063","addr":"경기도 용인시 처인구 남사면 북리75-7","category":"일반휴게음식 - 일반한식"}]},{"lat":"37.137947038","long":"127.16760555","items":[{"name":"유진산업","tel":"031-373-0393","addr":"경기도 용인시 처인구 남사면 아곡리 539-5번지","category":"주방용구 - 주방용구"},{"name":"태호컨테이너","tel":"031-321-9808","addr":"경기도 용인시 처인구 남사면 아곡리 539-5","category":"전기제품 - 기타전기제품"}]},{"lat":"37.114366964","long":"127.13077433","items":[{"name":"유진특장","tel":"031-323-5587","addr":"경기도 용인시 처인구 남사면 봉명리 276","category":"자동차정비 유지 - 중장비수리"}]},{"lat":"37.141871174","long":"127.18887524","items":[{"name":"이동석재사","tel":"031-336-3754","addr":"경기도 용인시 처인구 남사면 창리 369-3","category":"건축자재 - 기타건축자재"}]},{"lat":"37.108872961","long":"127.1367503","items":[{"name":"이마트24 용인남사봉명점","tel":"","addr":"경기도 용인시 처인구 남사면 봉명리 56-7번지 좌측","category":"유통업 영리 - 편 의 점"}]},{"lat":"37.094429125","long":"127.14446368","items":[{"name":"이마트24 용인원암점","tel":"","addr":"경기도 용인시 처인구 남사면 원암리 216-11번지 1층","category":"유통업 영리 - 편 의 점"},{"name":"이마트24 용인원암점","tel":"","addr":"경기도 용인시 처인구 남사면 원암리 216-11번지 1층","category":"유통업 영리 - 편 의 점"}]},{"lat":"37.105594915","long":"127.13515829","items":[{"name":"이마트24 용인천덕산로점","tel":"031-000-0000","addr":"경기도 용인시 처인구 남사면 진목리 200-1번지","category":"유통업 영리 - 편 의 점"},{"name":"진우캐비어","tel":"031-334-7288","addr":"경기도 용인시 처인구 남사면 진목리 200-1번지","category":"회원제형태 - 기타4"}]},{"lat":"37.114869665","long":"127.15524668","items":[{"name":"임마누엘","tel":"031-332-6158","addr":"경기도 용인시 처인구 남사면 봉무리 496-1번지","category":"광학제품 - 사진관"}]},{"lat":"37.114674944","long":"127.15248973","items":[{"name":"임마뉴엘제분소","tel":"031-332-6844","addr":"경기도 용인시 처인구 남사면 봉무리 449-8번지","category":"음료식품 - 기타음료식품"}]},{"lat":"37.117647185","long":"127.13040854","items":[{"name":"임팩트커피","tel":"0507-1349-2310","addr":"경기도 용인시 처인구 남사면 봉명리 249-3번지 1층 5호","category":"음료식품 - 기타음료식품"}]},{"lat":"37.112677068","long":"127.15052814","items":[{"name":"장수가든","tel":"031-322-8253","addr":"경기도 용인시 처인구 남사면 봉무리 658-10번지 1층","category":"일반휴게음식 - 일반한식"}]},{"lat":"37.140086083","long":"127.16502154","items":[{"name":"장터국밥","tel":"031-333-8099","addr":"경기도 용인시 처인구 남사면 아곡리 439-24번지","category":"일반휴게음식 - 일반한식"}]},{"lat":"37.104594898","long":"127.13502156","items":[{"name":"전궁난","tel":"031-321-7339","addr":"경기도 용인시 처인구 남사면 진목리 197-2","category":"문화.취미 - 화원"}]},{"lat":"37.148561873","long":"127.13068555","items":[{"name":"전통호두과자천안당","tel":"031-322-7080","addr":"경기도 용인시 처인구 남사면 통삼리 634-7","category":"음료식품 - 제과점"},{"name":"전통호두과자천안당","tel":"031-322-7080","addr":"경기도 용인시 처인구 남사면 통삼리 634-7번지 1층","category":"음료식품 - 제과점"}]},{"lat":"37.106596476","long":"127.15643386","items":[{"name":"정우방다육","tel":"","addr":"경기도 용인시 처인구 남사면 전궁리 333-1번지","category":"문화.취미 - 화원"}]},{"lat":"37.136782297","long":"127.14879675","items":[{"name":"정원","tel":"031-334-3615","addr":"경기도 용인시 처인구 남사면 봉무리 64-13번지","category":"음료식품 - 기타음료식품"}]},{"lat":"37.146863959","long":"127.14218633","items":[{"name":"정훈상사","tel":"031-337-0663","addr":"경기도 용인시 처인구 남사면 북리 714번지","category":"자동차정비 유지 - 자동차부품"}]},{"lat":"37.10259328","long":"127.13616553","items":[{"name":"제이원예","tel":"","addr":"경기도 용인시 처인구 남사면 진목리 188번지 비닐하우스 약 30평","category":"문화.취미 - 화원"},{"name":"해림다육","tel":"031-0000-0000","addr":"경기도 용인시 처인구 남사면 진목리 188번지 외1필지","category":"문화.취미 - 화원"}]},{"lat":"37.13772981","long":"127.1617189","items":[{"name":"제일생명일신원매점","tel":"031-333-4410","addr":"경기도 용인시 처인구 남사면 봉무리 2-3번지","category":"유통업 영리 - 복지매장"}]},{"lat":"37.139066102","long":"127.17274019","items":[{"name":"조은건축샷시","tel":"031-335-1760","addr":"경기도 용인시 처인구 남사면 창리 549","category":"건축자재 - 보일러·펌프·샷시"}]},{"lat":"37.107089665","long":"127.15826862","items":[{"name":"조이하우스","tel":"031-1111-1111","addr":"경기도 용인시 처인구 남사면 전궁리 198번지","category":"학원 - 기타 교육기관"}]},{"lat":"37.124837387","long":"127.13057814","items":[{"name":"주식회사 거산시스템창호","tel":"031-339-9607","addr":"경기도 용인시 처인구 남사면 통삼리 322번지","category":"건축자재 - 기타건축자재"}]},{"lat":"37.090979781","long":"127.15046355","items":[{"name":"주식회사 성심","tel":"031-321-9036","addr":"경기도 용인시 처인구 남사면 원암리 180-7번지 1층","category":"문화.취미 - 화원"}]},{"lat":"37.107287883","long":"127.1438576","items":[{"name":"주식회사 성원글램핑파크","tel":"031-337-1200","addr":"경기도 용인시 처인구 남사면 봉무리 678-8번지","category":"숙박업 - 여관/기타숙박업"}]},{"lat":"37.11909114","long":"127.10988752","items":[{"name":"주식회사 엠앤씨렌트카(용인지점)","tel":"031-332-6671","addr":"경기도 용인시 처인구 남사면 봉명리 767-5번지","category":"여행 - 렌터카"}]},{"lat":"37.13789048","long":"127.15602438","items":[{"name":"주식회사 영진그린","tel":"031-9955-6236","addr":"경기도 용인시 처인구 남사면 북리 84-1번지 삼호환경산업 2층 202호","category":"용역 서비스 - 종합용역"}]},{"lat":"37.140672301","long":"127.16462887","items":[{"name":"주식회사 유림티에스","tel":"031-8009-0888","addr":"경기도 용인시 처인구 남사면 아곡리 437-4번지","category":"건축자재 - 기타건축자재"}]},{"lat":"37.132759511","long":"127.17221967","items":[{"name":"주식회사 테라모터스","tel":"031-217-3222","addr":"경기도 용인시 처인구 남사면 창리 593-2번지","category":"자동차판매 - 이륜차판매"}]},{"lat":"37.116091632","long":"127.12733429","items":[{"name":"주식회사그림유통","tel":"031-332-2028","addr":"경기도 용인시 처인구 남사면 봉명리 208-2번지","category":"일반휴게음식 - 일반한식"}]},{"lat":"37.124953012","long":"127.13197368","items":[{"name":"주식회사좋은친구들시스템","tel":"031-226-3879","addr":"경기도 용인시 처인구 남사면 통삼리 271번지","category":"전기제품 - 기타전기제품"}]},{"lat":"37.138175764","long":"127.17776905","items":[{"name":"주주푸드","tel":"031-337-0976","addr":"경기도 용인시 처인구 남사면 창리 617-1번지 나동","category":"음료식품 - 기타음료식품"},{"name":"주주푸드주식회사","tel":"031-337-8742","addr":"경기도 용인시 처인구 남사면 창리 617-1번지","category":"일반휴게음식 - 스넥"}]},{"lat":"37.108675039","long":"127.12822218","items":[{"name":"중앙농원","tel":"031-333-3210","addr":"경기도 용인시 처인구 남사면 봉명리463","category":"문화.취미 - 화원"}]},{"lat":"37.161532873","long":"127.16362629","items":[{"name":"중앙신학대학원대학교","tel":"031-339-9015","addr":"경기도 용인시 처인구 남사면 아곡리 285","category":"학원 - 대학등록금"},{"name":"중앙신학대학원대학교","tel":"031-339-9015","addr":"경기도 용인시 처인구 남사면 아곡리 285","category":"학원 - 대학등록금"}]},{"lat":"37.116589281","long":"127.16313743","items":[{"name":"중앙전기","tel":"031-339-5222","addr":"경기도 용인시 처인구 남사면 방아리 675-1번지","category":"전기제품 - 기타전기제품"}]},{"lat":"37.129116373","long":"127.15438621","items":[{"name":"지산전통옹기","tel":"031-332-3352","addr":"경기도 용인시 처인구 남사면 봉무리 236-2번지 외3필지","category":"문화.취미 - 민예·공예품"}]},{"lat":"37.108674131","long":"127.13727871","items":[{"name":"지장농산","tel":"","addr":"경기도 용인시 처인구 남사면 봉명리 54-1번지","category":"음료식품 - 기타음료식품"}]},{"lat":"37.10250581","long":"127.14172259","items":[{"name":"진목정육점","tel":"031-332-6411","addr":"경기도 용인시 처인구 남사면 진목리 17-8","category":"음료식품 - 정육점"}]},{"lat":"37.102311661","long":"127.13818992","items":[{"name":"진목카센타","tel":"031-655-9436","addr":"경기도 용인시 처인구 남사면 진목리 92-2번지","category":"자동차정비 유지 - 자동차정비"}]},{"lat":"37.11464896","long":"127.15165709","items":[{"name":"쭈노치킨","tel":"031-334-7070","addr":"경기도 용인시 처인구 남사면 봉무리 444-13번지","category":"일반휴게음식 - 스넥"}]},{"lat":"37.097925478","long":"127.12821573","items":[{"name":"참어진농장","tel":"031-0000-0000","addr":"경기도 용인시 처인구 남사면 진목리 665번지","category":"음료식품 - 농·축·수산품"}]},{"lat":"37.16375661","long":"127.17765909","items":[{"name":"창조자원","tel":"031-322-2106","addr":"경기도 용인시 처인구 남사면 완장리 674-2","category":"기타 - 기타 전문점"}]},{"lat":"37.14356136","long":"127.17341431","items":[{"name":"처인서적","tel":"","addr":"경기도 용인시 처인구 남사면 아곡리 61-1번지","category":"서적문구 - 일반서적"}]},{"lat":"37.139089859","long":"127.1686885","items":[{"name":"처인성 꽃 식물원","tel":"031-334-3819","addr":"경기도 용인시 처인구 남사면 아곡리535-10","category":"문화.취미 - 화원"}]},{"lat":"37.168472051","long":"127.16932688","items":[{"name":"처인성토속음식","tel":"031-321-3813","addr":"경기도 용인시 처인구 남사면 완장리 361-3번지 1층","category":"일반휴게음식 - 일반한식"}]},{"lat":"37.095872253","long":"127.14325153","items":[{"name":"처인원예종묘","tel":"031-333-0874","addr":"경기도 용인시 처인구 남사면 원암리371-96","category":"문화.취미 - 화원"}]},{"lat":"37.169887663","long":"127.18105103","items":[{"name":"천일3급카프라자","tel":"031-332-6833","addr":"경기도 용인시 처인구 남사면 완장리 267-2번지 (천일3급카프라자)","category":"자동차정비 유지 - 자동차정비"}]},{"lat":"37.12150523","long":"127.11068982","items":[{"name":"청석골","tel":"031-339-6778","addr":"경기도 용인시 처인구 남사면 봉명리 649-3번지 청석골","category":"일반휴게음식 - 일반한식"}]},{"lat":"37.140175463","long":"127.16555072","items":[{"name":"카엔제이","tel":"031-336-3177","addr":"경기도 용인시 처인구 남사면 아곡리 441-17번지 1층","category":"자동차정비 유지 - 자동차정비"}]},{"lat":"37.145501104","long":"127.13633082","items":[{"name":"카페.사계절","tel":"031-333-3306","addr":"경기도 용인시 처인구 남사면 북리 694-4번지","category":"일반휴게음식 - 서양음식"}]},{"lat":"37.115511443","long":"127.13064124","items":[{"name":"카페델릭","tel":"","addr":"경기도 용인시 처인구 남사면 봉명리 253번지","category":"일반휴게음식 - 서양음식"}]},{"lat":"37.145063029","long":"127.14119252","items":[{"name":"커피콩(COFFEE콩)","tel":"02-1111-1111","addr":"경기도 용인시 처인구 남사면 북리 655-2번지 1층","category":"일반휴게음식 - 서양음식"}]},{"lat":"37.098287905","long":"127.12630402","items":[{"name":"케이식물연구소","tel":"031-334-6189","addr":"경기도 용인시 처인구 남사면 진목리 711-1번지","category":"농업 - 비료,사료,종자"}]},{"lat":"37.141393014","long":"127.16472044","items":[{"name":"코리아재활용센터","tel":"031-338-8240","addr":"경기도 용인시 처인구 남사면 아곡리 429-1번지","category":"전기제품 - 가전제품"}]},{"lat":"37.145530108","long":"127.14244277","items":[{"name":"큰내","tel":"070-8117-1222","addr":"경기도 용인시 처인구 남사면 북리 676-7번지 1층","category":"일반휴게음식 - 일반한식"}]},{"lat":"37.15558729","long":"127.16265683","items":[{"name":"킹스플랜츠 주식회사 농업회사법인","tel":"","addr":"경기도 용인시 처인구 남사면 아곡리 642번지","category":"문화.취미 - 화원"}]},{"lat":"37.165082448","long":"127.1767727","items":[{"name":"탑 워시","tel":"031-1522-8218","addr":"경기도 용인시 처인구 남사면 완장리 481-4번지 1층 1호 2호","category":"자동차정비 유지 - 세차장"}]},{"lat":"37.105261363","long":"127.13530396","items":[{"name":"태양상사","tel":"031-668-3003","addr":"경기도 용인시 처인구 남사면 진목리90-12","category":"신변잡화 - 기타잡화"}]},{"lat":"37.108346037","long":"127.16868896","items":[{"name":"태원화분","tel":"031-375-1870","addr":"경기도 용인시 처인구 남사면 방아리 922","category":"문화.취미 - 화원"}]},{"lat":"37.090508766","long":"127.15941577","items":[{"name":"텃밭한아름 영농조합법인","tel":"031-339-7791","addr":"경기도 용인시 처인구 남사면 원암리137-5","category":"음료식품 - 기타음료식품"}]},{"lat":"37.14036357","long":"127.18490978","items":[{"name":"통삼낚시터","tel":"","addr":"경기도 용인시 처인구 남사면 창리 377-9번지","category":"레저업소 - 기타레져업소"},{"name":"휴쥬공방","tel":"","addr":"경기도 용인시 처인구 남사면 창리 377-9번지 3층","category":"서적문구 - 완구점"},{"name":"힐스템힐링카페","tel":"031-223-5214","addr":"경기도 용인시 처인구 남사면 창리 377-9번지","category":"일반휴게음식 - 서양음식"}]},{"lat":"37.101705433","long":"127.14038246","items":[{"name":"티엠디자인","tel":"031-232-9533","addr":"경기도 용인시 처인구 남사면 진목리 27-8번지","category":"건축자재 - 인테리어전문"}]},{"lat":"37.148397261","long":"127.13291401","items":[{"name":"팜코리아","tel":"031-332-1170","addr":"경기도 용인시 처인구 남사면 통삼리 629-1번지","category":"농업 - 농기계"}]},{"lat":"37.086814921","long":"127.1721849","items":[{"name":"포블리스 에스엔디","tel":"","addr":"경기도 용인시 처인구 남사면 원암리 47번지","category":"가구 - 일반가구"}]},{"lat":"37.09128911","long":"127.14805712","items":[{"name":"표준마트(간이휴게소)","tel":"031-322-5895","addr":"경기도 용인시 처인구 남사면 원암리 195-1","category":"음료식품 - 기타음료식품"}]},{"lat":"37.091460117","long":"127.14821492","items":[{"name":"표준세차장","tel":"031-332-1953","addr":"경기도 용인시 처인구 남사면 원암리 194-9","category":"자동차정비 유지 - 세차장"}]},{"lat":"37.113789206","long":"127.16810452","items":[{"name":"퓨어랑 천연제품","tel":"","addr":"경기도 용인시 처인구 남사면 방아리 415번지","category":"신변잡화 - 기타잡화"}]},{"lat":"37.108839562","long":"127.13438766","items":[{"name":"하이린","tel":"031-333-7736","addr":"경기도 용인시 처인구 남사면 봉명리 73-10번지","category":"일반휴게음식 - 중국식"}]},{"lat":"37.17280747","long":"127.18076513","items":[{"name":"하이파이브","tel":"031-321-7142","addr":"경기도 용인시 처인구 남사면 완장리 149-10번지","category":"전기제품 - 기타전기제품"}]},{"lat":"37.109401579","long":"127.13938383","items":[{"name":"한솔","tel":"031-323-3389","addr":"경기도 용인시 처인구 남사면 봉명리 48-5번지","category":"일반휴게음식 - 일반한식"}]},{"lat":"37.154195099","long":"127.16601977","items":[{"name":"한숲아구찜해물","tel":"031-332-6556","addr":"경기도 용인시 처인구 남사면 아곡리 338-1번지 1층","category":"일반휴게음식 - 일반한식"}]},{"lat":"37.160806616","long":"127.17393714","items":[{"name":"한숲어부가","tel":"","addr":"경기도 용인시 처인구 남사면 완장리 945번지 e편한세상용인한숲시티 101, 102호","category":"일반휴게음식 - 일식·회집"}]},{"lat":"37.172140617","long":"127.18081986","items":[{"name":"한양당","tel":"031-333-2286","addr":"경기도 용인시 처인구 남사면 완장리152-1","category":"문화.취미 - 문화취미기타"}]},{"lat":"37.100149041","long":"127.13013173","items":[{"name":"해양테크","tel":"031-333-6078","addr":"경기도 용인시 처인구 남사면 진목리 544-2번지","category":"문화.취미 - 수족관"}]},{"lat":"37.099069839","long":"127.12819511","items":[{"name":"해풍농원","tel":"","addr":"경기도 용인시 처인구 남사면 진목리 670번지","category":"음료식품 - 농·축·수산품"}]},{"lat":"37.138835939","long":"127.17612737","items":[{"name":"행복분식","tel":"031-339-5300","addr":"경기도 용인시 처인구 남사면 창리 648번지","category":"일반휴게음식 - 스넥"}]},{"lat":"37.139062807","long":"127.17502491","items":[{"name":"허가네족발찬합도시락","tel":"031-332-8233","addr":"경기도 용인시 처인구 남사면 창리673-1","category":"일반휴게음식 - 일반한식"}]},{"lat":"37.112840541","long":"127.14949337","items":[{"name":"현대철물","tel":"031-334-6244","addr":"경기도 용인시 처인구 남사면 봉무리 661-19번지","category":"건축자재 - 목재·석재·철물"}]},{"lat":"37.112984542","long":"127.14962866","items":[{"name":"현대철물","tel":"031-334-6244","addr":"경기도 용인시 처인구 남사면 봉무리 661-13","category":"건축자재 - 목재·석재·철물"}]},{"lat":"37.093649744","long":"127.14816286","items":[{"name":"현지숯다육","tel":"031-338-5919","addr":"경기도 용인시 처인구 남사면 원암리 371-48 외371-49필지","category":"문화.취미 - 화원"}]},{"lat":"37.109254767","long":"127.12529803","items":[{"name":"혜림다육","tel":"","addr":"경기도 용인시 처인구 남사면 봉명리753-3","category":"문화.취미 - 화원"}]},{"lat":"37.144981066","long":"127.14193525","items":[{"name":"홍익광고","tel":"031-322-7657","addr":"경기도 용인시 처인구 남사면 북리 618번지","category":"건축자재 - 인테리어전문"}]},{"lat":"37.108839909","long":"127.16990508","items":[{"name":"화성선인장","tel":"070-7756-0237","addr":"경기도 용인시 처인구 남사면 방아리 916번지","category":"문화.취미 - 화원"}]},{"lat":"37.10458945","long":"127.15462985","items":[{"name":"환히 유한회사 농업회사법인","tel":"031-334-2282","addr":"경기도 용인시 처인구 남사면 전궁리 399-3번지","category":"문화.취미 - 화원"}]},{"lat":"37.142834073","long":"127.13626985","items":[{"name":"횡성한우타운","tel":"031-338-9922","addr":"경기도 용인시 처인구 남사면 통삼리 607번지","category":"일반휴게음식 - 일반한식"}]},{"lat":"37.109594536","long":"127.15127594","items":[{"name":"효성모터펌프","tel":"031-334-8476","addr":"경기도 용인시 처인구 남사면 전궁리 411-4번지","category":"건축자재 - 보일러·펌프·샷시"}]}]