[{"lat":"37.776266058","long":"127.46153039","imageIndex":7,"items":[{"name":"Fly to the Sky (매점)","tel":"031-000-0000","addr":"경기도 가평군 청평면 상천리 296-7번지 5층","indutype":"음료식품 - 기타음료식품","category":"food"}]},{"lat":"37.779821116","long":"127.4647761","imageIndex":7,"items":[{"name":"가평잣한과&에덴떡집","tel":"031-582-7010","addr":"경기도 가평군 청평면 상천리 253-8번지","indutype":"음료식품 - 제과점","category":"food"}]},{"lat":"37.751186696","long":"127.47222312","imageIndex":7,"items":[{"name":"갤러리매점","tel":"031-582-9123","addr":"경기도 가평군 청평면 상천리 산396-6번지","indutype":"음료식품 - 기타음료식품","category":"food"},{"name":"상천4리새마을회","tel":"","addr":"경기도 가평군 청평면 상천리 산396-6번지","indutype":"음료식품 - 기타음료식품","category":"food"}]},{"lat":"37.768962015","long":"127.4585344","imageIndex":7,"items":[{"name":"농업회사법인상천4리마을기업 주식회사","tel":"031-000-0000","addr":"경기도 가평군 청평면 상천리 1354-2번지","indutype":"음료식품 - 기타음료식품","category":"food"},{"name":"농업회사법인상천4리마을기업 주식회사","tel":"031-000-0000","addr":"경기도 가평군 청평면 상천리 1354-2번지","indutype":"음료식품 - 기타음료식품","category":"food"}]},{"lat":"37.785046163","long":"127.43397657","imageIndex":7,"items":[{"name":"농업회사법인주식회사한울","tel":"031-584-3240","addr":"경기도 가평군 청평면 상천리 638-1번지","indutype":"음료식품 - 농·축·수산품","category":"food"}]},{"lat":"37.787351349","long":"127.46289306","imageIndex":7,"items":[{"name":"늘푸른원 농산물","tel":"031-581-0291","addr":"경기도 가평군 청평면 상천리 142-1번지","indutype":"음료식품 - 기타음료식품","category":"food"},{"name":"상천스넥","tel":"031-582-8950","addr":"경기도 가평군 청평면 상천리 142-1번지","indutype":"음료식품 - 기타음료식품","category":"food"}]},{"lat":"37.740796704","long":"127.42006015","imageIndex":7,"items":[{"name":"롯데칠성 가평대리점","tel":"","addr":"경기도 가평군 청평면 상천리 228번지","indutype":"음료식품 - 기타음료식품","category":"food"}]},{"lat":"37.774294213","long":"127.46352723","imageIndex":7,"items":[{"name":"만남의 광장 매점","tel":"031-584-2647","addr":"경기도 가평군 청평면 상천리 304-4","indutype":"음료식품 - 기타음료식품","category":"food"}]},{"lat":"37.766404796","long":"127.44634107","imageIndex":7,"items":[{"name":"맛드림푸드","tel":"031-581-7662","addr":"경기도 가평군 청평면 상천리 1148-1번지","indutype":"음료식품 - 기타음료식품","category":"food"}]},{"lat":"37.773543349","long":"127.45735939","imageIndex":7,"items":[{"name":"미스고기 가평점","tel":"031-585-9295","addr":"경기도 가평군 청평면 상천리 369-4번지","indutype":"음료식품 - 정육점","category":"food"}]},{"lat":"37.770597122","long":"127.45269929","imageIndex":7,"items":[{"name":"불기골산양삼","tel":"031-585-9389","addr":"경기도 가평군 청평면 상천리 1269-10번지 B동 2층(1269-11)","indutype":"건강식품 - 인삼제품","category":"food"}]},{"lat":"37.765708867","long":"127.44931036","imageIndex":7,"items":[{"name":"비오팜","tel":"031-000-0000","addr":"경기도 가평군 청평면 상천리 1226-5번지","indutype":"음료식품 - 농·축·수산품","category":"food"}]},{"lat":"37.766986035","long":"127.44750216","imageIndex":7,"items":[{"name":"쁘띠아미","tel":"","addr":"경기도 가평군 청평면 상천리 1134번지 1층","indutype":"음료식품 - 제과점","category":"food"}]},{"lat":"37.769131698","long":"127.45892133","imageIndex":7,"items":[{"name":"상천상회","tel":"031-584-0823","addr":"경기도 가평군 청평면 상천리 1354-5번지","indutype":"음료식품 - 기타음료식품","category":"food"}]},{"lat":"37.76327077","long":"127.44600459","imageIndex":7,"items":[{"name":"상천정미소","tel":"031-585-4213","addr":"경기도 가평군 청평면 상천리 1171-9","indutype":"음료식품 - 미곡상","category":"food"}]},{"lat":"37.79118019","long":"127.4318892","imageIndex":7,"items":[{"name":"수리봉매점","tel":"031-584-2995","addr":"경기도 가평군 청평면 상천리 971-1번지","indutype":"음료식품 - 기타음료식품","category":"food"}]},{"lat":"37.778210068","long":"127.46435744","imageIndex":7,"items":[{"name":"에덴농산물센터","tel":"031-582-7090","addr":"경기도 가평군 청평면 상천리 257-4번지","indutype":"음료식품 - 농·축·수산품","category":"food"}]},{"lat":"37.763128454","long":"127.48236481","imageIndex":7,"items":[{"name":"옹달샘농원","tel":"031-000-0000","addr":"경기도 가평군 청평면 상천리 1518-2번지","indutype":"음료식품 - 농·축·수산품","category":"food"}]},{"lat":"37.764764833","long":"127.44400475","imageIndex":7,"items":[{"name":"자스로","tel":"031-581-8222","addr":"경기도 가평군 청평면 상천리 1151-53번지","indutype":"음료식품 - 기타음료식품","category":"food"}]},{"lat":"37.762017782","long":"127.44136694","imageIndex":7,"items":[{"name":"청평민물장어","tel":"","addr":"경기도 가평군 청평면 상천리 1160-4번지(양어장내)","indutype":"음료식품 - 농·축·수산품","category":"food"}]},{"lat":"37.762327724","long":"127.44039279","imageIndex":7,"items":[{"name":"하나농원","tel":"031-535-4571","addr":"경기도 가평군 청평면 상천리 1156-4번지 C동 1호","indutype":"음료식품 - 농·축·수산품","category":"food"}]},{"lat":"37.774688061","long":"127.45955702","imageIndex":7,"items":[{"name":"허니시티로스팅","tel":"031-584-6966","addr":"경기도 가평군 청평면 상천리 389-1번지","indutype":"음료식품 - 기타음료식품","category":"food"}]},{"lat":"37.77090663","long":"127.45422204","imageIndex":7,"items":[{"name":"협동조합 공감21","tel":"031-585-9789","addr":"경기도 가평군 청평면 상천리 1262-2번지","indutype":"음료식품 - 농·축·수산품","category":"food"}]},{"lat":"37.768185851","long":"127.4494728","imageIndex":7,"items":[{"name":"호명 농산물","tel":"031-584-1579","addr":"경기도 가평군 청평면 상천리 1275-12번지","indutype":"음료식품 - 농·축·수산품","category":"food"}]},{"lat":"37.762324012","long":"127.44139144","imageIndex":7,"items":[{"name":"효남수산(수산물직판장)","tel":"031-1577-3978","addr":"경기도 가평군 청평면 상천리 1158-10번지 외10필지","indutype":"음료식품 - 농·축·수산품","category":"food"}]},{"lat":"37.761961994","long":"127.4418319","imageIndex":7,"items":[{"name":"효남수산직판장(회)","tel":"031-584-4928","addr":"경기도 가평군 청평면 상천리 1162번지","indutype":"음료식품 - 농·축·수산품","category":"food"}]},{"lat":"37.761685368","long":"127.44111531","imageIndex":7,"items":[{"name":"효남편의점","tel":"000-1577-3978","addr":"경기도 가평군 청평면 상천리 1164-1번지","indutype":"음료식품 - 기타음료식품","category":"food"}]}]