[{"lat":"37.693301249","long":"127.2360496","items":[{"name":"가람가든","tel":"031-574-1314","addr":"경기도 남양주시 오남읍 팔현리 229-6번지 1층","category":"일반휴게음식 - 일반한식"}]},{"lat":"37.685080947","long":"127.23782642","items":[{"name":"고은가든","tel":"031-574-0615","addr":"경기도 남양주시 오남읍 팔현리 274번지","category":"일반휴게음식 - 일반한식"}]},{"lat":"37.696493449","long":"127.25229641","items":[{"name":"공룡가든","tel":"031-0000-0000","addr":"경기도 남양주시 오남읍 팔현리 134-5번지","category":"일반휴게음식 - 일반한식"},{"name":"공룡가든","tel":"031-573-1399","addr":"경기도 남양주시 오남읍 팔현리 134-5번지","category":"일반휴게음식 - 일반한식"}]},{"lat":"37.689277435","long":"127.2342797","items":[{"name":"귀빈","tel":"031-573-5009","addr":"경기도 남양주시 오남읍 팔현리 333-1번지 1층","category":"일반휴게음식 - 일반한식"}]},{"lat":"37.700657859","long":"127.25977154","items":[{"name":"늘푸른별장","tel":"031-574-0709","addr":"경기도 남양주시 오남읍 팔현리 29번지","category":"일반휴게음식 - 일반한식"}]},{"lat":"37.684024953","long":"127.24760663","items":[{"name":"다래산장가든","tel":"031-574-2753","addr":"경기도 남양주시 오남읍 팔현리 399-4번지","category":"일반휴게음식 - 일반한식"}]},{"lat":"37.695908763","long":"127.25185225","items":[{"name":"다맛","tel":"031-575-2438","addr":"경기도 남양주시 오남읍 팔현리 134-4번지","category":"일반휴게음식 - 일반한식"}]},{"lat":"37.697409537","long":"127.25366012","items":[{"name":"대동산장","tel":"031-575-0484","addr":"경기도 남양주시 오남읍 팔현리 132-10번지","category":"일반휴게음식 - 일반한식"},{"name":"항아리집","tel":"031-575-0484","addr":"경기도 남양주시 오남읍 팔현리 132-10번지 대동산장 가동","category":"일반휴게음식 - 일반한식"}]},{"lat":"37.685023035","long":"127.2397535","items":[{"name":"대장엄 불교미술원","tel":"070-4282-2467","addr":"경기도 남양주시 오남읍 팔현리 381-2번지","category":"신변잡화 - 기념품점"}]},{"lat":"37.700360641","long":"127.26382992","items":[{"name":"두솔애드","tel":"031-527-4297","addr":"경기도 남양주시 오남읍 팔현리 12-6번지","category":"용역 서비스 - 종합용역"}]},{"lat":"37.689249443","long":"127.23014144","items":[{"name":"마실","tel":"070-4226-6545","addr":"경기도 남양주시 오남읍 팔현리 250번지","category":"일반휴게음식 - 일반한식"},{"name":"마실가든","tel":"070-4226-6545","addr":"경기도 남양주시 오남읍 팔현리 250번지 2동","category":"음료식품 - 기타음료식품"}]},{"lat":"37.68952021","long":"127.22989285","items":[{"name":"마실","tel":"070-4226-6545","addr":"경기도 남양주시 오남읍 팔현리 249-1번지","category":"숙박업 - 여관/기타숙박업"}]},{"lat":"37.682860902","long":"127.24411117","items":[{"name":"맑은물가든","tel":"031-574-8811","addr":"경기도 남양주시 오남읍 팔현리 396번지","category":"일반휴게음식 - 일반한식"}]},{"lat":"37.683137408","long":"127.24547245","items":[{"name":"먹는아이","tel":"","addr":"경기도 남양주시 오남읍 팔현리 399-3번지","category":"일반휴게음식 - 일반한식"}]},{"lat":"37.683881481","long":"127.24289012","items":[{"name":"무지개농원","tel":"031-574-6922","addr":"경기도 남양주시 오남읍 팔현리 375번지","category":"음료식품 - 농·축·수산품"}]},{"lat":"37.68396645","long":"127.2409745","items":[{"name":"미송유원지","tel":"031-573-2702","addr":"경기도 남양주시 오남읍 팔현리 392번지","category":"일반휴게음식 - 일반한식"}]},{"lat":"37.69383043","long":"127.2372531","items":[{"name":"미송유원지","tel":"031-573-2702","addr":"경기도 남양주시 오남읍 팔현리 225번지","category":"일반휴게음식 - 일반한식"}]},{"lat":"37.685441759","long":"127.23761216","items":[{"name":"백운가든","tel":"031-527-3742","addr":"경기도 남양주시 오남읍 팔현리 279-3번지","category":"일반휴게음식 - 일반한식"}]},{"lat":"37.693492953","long":"127.23478034","items":[{"name":"별장가든","tel":"031-223-5214","addr":"경기도 남양주시 오남읍 팔현리 230번지","category":"일반휴게음식 - 일반한식"}]},{"lat":"37.689944699","long":"127.23399834","items":[{"name":"사계절가든","tel":"031-575-7055","addr":"경기도 남양주시 오남읍 팔현리 300-1번지","category":"일반휴게음식 - 일반한식"}]},{"lat":"37.701716669","long":"127.26174824","items":[{"name":"산내음 카페","tel":"","addr":"경기도 남양주시 오남읍 팔현리 6-3번지 1층","category":"일반휴게음식 - 일반한식"}]},{"lat":"37.684805415","long":"127.24044435","items":[{"name":"산마루가든","tel":"031-575-4560","addr":"경기도 남양주시 오남읍 팔현리 380번지","category":"일반휴게음식 - 일반한식"}]},{"lat":"37.684525034","long":"127.2364756","items":[{"name":"석희는떡장이","tel":"031-573-0072","addr":"경기도 남양주시 오남읍 팔현리 270-16번지","category":"음료식품 - 제과점"}]},{"lat":"37.697186944","long":"127.25241212","items":[{"name":"소나무하우스엔벨로카페","tel":"031-575-4866","addr":"경기도 남양주시 오남읍 팔현리 107-1번지","category":"일반휴게음식 - 일반한식"}]},{"lat":"37.693692802","long":"127.23849987","items":[{"name":"솔뫼","tel":"031-575-5205","addr":"경기도 남양주시 오남읍 팔현리 224번지","category":"일반휴게음식 - 일반한식"}]},{"lat":"37.691189172","long":"127.23341263","items":[{"name":"순덕상회","tel":"031-575-3560","addr":"경기도 남양주시 오남읍 팔현리 336-2","category":"음료식품 - 기타음료식품"},{"name":"팔현가든","tel":"031-575-5739","addr":"경기도 남양주시 오남읍 팔현리 336-2번지 팔현가든","category":"일반휴게음식 - 일반한식"}]},{"lat":"37.685000257","long":"127.24211148","items":[{"name":"시즌파이브","tel":"02-438-0187","addr":"경기도 남양주시 오남읍 팔현리 373번지","category":"숙박업 - 여관/기타숙박업"}]},{"lat":"37.68402789","long":"127.2417796","items":[{"name":"시즌파이브","tel":"02-1111-1111","addr":"경기도 남양주시 오남읍 팔현리 377-6번지","category":"숙박업 - 여관/기타숙박업"}]},{"lat":"37.684270091","long":"127.24230186","items":[{"name":"시즌파이브","tel":"02-438-0187","addr":"경기도 남양주시 오남읍 팔현리 377-1번지","category":"숙박업 - 여관/기타숙박업"}]},{"lat":"37.684667408","long":"127.241861","items":[{"name":"씨즌파이브","tel":"031-575-8799","addr":"경기도 남양주시 오남읍 팔현리 379-1번지","category":"일반휴게음식 - 일반한식"}]},{"lat":"37.695935819","long":"127.23868838","items":[{"name":"억바위가든","tel":"031-575-3317","addr":"경기도 남양주시 오남읍 팔현리 218번지","category":"일반휴게음식 - 일반한식"}]},{"lat":"37.690077771","long":"127.23505314","items":[{"name":"에어컨설치 수리 가스충전","tel":"","addr":"경기도 남양주시 오남읍 팔현리 340-9번지","category":"용역 서비스 - 기타용역서비스"}]},{"lat":"37.699581313","long":"127.24916584","items":[{"name":"오남광택","tel":"031-574-2005","addr":"경기도 남양주시 오남읍 팔현리 89번지","category":"자동차정비 유지 - 카인테리어"}]},{"lat":"37.689166419","long":"127.23575322","items":[{"name":"옻벗은닭한마리","tel":"031-575-1704","addr":"경기도 남양주시 오남읍 팔현리 328번지","category":"일반휴게음식 - 일반한식"}]},{"lat":"37.693579334","long":"127.24116396","items":[{"name":"일억조가든","tel":"031-2828-0909","addr":"경기도 남양주시 오남읍 팔현리 165번지","category":"일반휴게음식 - 일반한식"}]},{"lat":"37.693468813","long":"127.23330631","items":[{"name":"전주가든","tel":"031-574-4940","addr":"경기도 남양주시 오남읍 팔현리 234-1번지","category":"일반휴게음식 - 일반한식"}]},{"lat":"37.6949126","long":"127.2456582","items":[{"name":"진우네농원","tel":"031-575-9351","addr":"경기도 남양주시 오남읍 팔현리 150-2번지","category":"일반휴게음식 - 일반한식"}]},{"lat":"37.698442975","long":"127.25491087","items":[{"name":"천마산 표고버섯","tel":"","addr":"경기도 남양주시 오남읍 팔현리 129번지 1층 토담골산장","category":"농업 - 비료,사료,종자"}]},{"lat":"37.695022253","long":"127.24491023","items":[{"name":"청수원식당","tel":"031-574-0939","addr":"경기도 남양주시 오남읍 팔현리 153번지","category":"일반휴게음식 - 일반한식"}]},{"lat":"37.693854235","long":"127.24333043","items":[{"name":"촌장마을가든","tel":"031-573-0900","addr":"경기도 남양주시 오남읍 팔현리 163번지","category":"일반휴게음식 - 일반한식"}]},{"lat":"37.698745115","long":"127.25686218","items":[{"name":"팔현캠프","tel":"031-575-3688","addr":"경기도 남양주시 오남읍 팔현리 20번지","category":"음료식품 - 기타음료식품"}]},{"lat":"37.700300203","long":"127.2626391","items":[{"name":"팔현펜션","tel":"031-575-3928","addr":"경기도 남양주시 오남읍 팔현리 10번지","category":"숙박업 - 여관/기타숙박업"}]},{"lat":"37.694861045","long":"127.24879874","items":[{"name":"펜션","tel":"031-575-3690","addr":"경기도 남양주시 오남읍 팔현리 143-6","category":"건축자재 - 부동산 분양"}]},{"lat":"37.693718351","long":"127.24369281","items":[{"name":"푸른계곡가든","tel":"031-574-4026","addr":"경기도 남양주시 오남읍 팔현리 162번지","category":"일반휴게음식 - 일반한식"}]},{"lat":"37.689555752","long":"127.23477942","items":[{"name":"해솔유통","tel":"031-575-4901","addr":"경기도 남양주시 오남읍 팔현리 302-1번지","category":"음료식품 - 농·축·수산품"},{"name":"해찬솔","tel":"031-575-4901","addr":"경기도 남양주시 오남읍 팔현리 302-1번지","category":"유통업 영리 - 슈퍼마켓"}]},{"lat":"37.693275362","long":"127.23547128","items":[{"name":"향촌가든","tel":"031-575-2257","addr":"경기도 남양주시 오남읍 팔현리 229번지","category":"일반휴게음식 - 일반한식"}]},{"lat":"37.688661727","long":"127.23583101","items":[{"name":"호남가든","tel":"031-528-5551","addr":"경기도 남양주시 오남읍 팔현리 308번지","category":"일반휴게음식 - 일반한식"}]},{"lat":"37.691685673","long":"127.23291531","items":[{"name":"호박넝쿨","tel":"031-527-1640","addr":"경기도 남양주시 오남읍 팔현리 336-3번지","category":"일반휴게음식 - 일반한식"}]}]