[{"lat":"37.168750293","long":"126.93606957","imageIndex":4,"items":[{"name":"고기굽는이야기고이","tel":"031-227-0999","addr":"경기도 화성시 봉담읍 덕리 178번지","indutype":"일반휴게음식 - 일반한식","category":"restaurant"}]},{"lat":"37.166586386","long":"126.93362829","imageIndex":4,"items":[{"name":"국보966옛날두부","tel":"031-227-9364","addr":"경기도 화성시 봉담읍 덕리 285-7번지","indutype":"일반휴게음식 - 일반한식","category":"restaurant"}]},{"lat":"37.167280011","long":"126.93332366","imageIndex":4,"items":[{"name":"누드추어매운탕","tel":"031-298-2177","addr":"경기도 화성시 봉담읍 덕리 278-1번지","indutype":"일반휴게음식 - 일반한식","category":"restaurant"}]},{"lat":"37.163164915","long":"126.93804471","imageIndex":4,"items":[{"name":"덕산수라간/쓰리원파트너스(주)","tel":"031-8012-2570","addr":"경기도 화성시 봉담읍 덕리 산48번지","indutype":"일반휴게음식 - 일반한식","category":"restaurant"},{"name":"아랑페즈","tel":"031-111-1111","addr":"경기도 화성시 봉담읍 덕리 산48번지","indutype":"일반휴게음식 - 스넥","category":"restaurant"}]},{"lat":"37.174274297","long":"126.93715693","imageIndex":4,"items":[{"name":"돌담맛고을","tel":"031-227-2969","addr":"경기도 화성시 봉담읍 덕리 25-3번지","indutype":"일반휴게음식 - 일반한식","category":"restaurant"}]},{"lat":"37.173048998","long":"126.93737193","imageIndex":4,"items":[{"name":"산촌","tel":"031-293-2245","addr":"경기도 화성시 봉담읍 덕리 22번지","indutype":"일반휴게음식 - 일반한식","category":"restaurant"}]},{"lat":"37.173968005","long":"126.9372698","imageIndex":4,"items":[{"name":"서봉산산장","tel":"031-294-8885","addr":"경기도 화성시 봉담읍 덕리 25-6번지","indutype":"일반휴게음식 - 일반한식","category":"restaurant"}]},{"lat":"37.167666934","long":"126.93243384","imageIndex":4,"items":[{"name":"시골백숙","tel":"02-1111-1111","addr":"경기도 화성시 봉담읍 덕리 279번지 1층","indutype":"일반휴게음식 - 일반한식","category":"restaurant"}]},{"lat":"37.167884196","long":"126.93415628","imageIndex":4,"items":[{"name":"취풍덕","tel":"031-298-9972","addr":"경기도 화성시 봉담읍 덕리 245-2번지","indutype":"일반휴게음식 - 중국식","category":"restaurant"}]},{"lat":"37.165307705","long":"126.93501428","imageIndex":4,"items":[{"name":"한우조아","tel":"031-292-3805","addr":"경기도 화성시 봉담읍 덕리 290번지 1층","indutype":"일반휴게음식 - 일반한식","category":"restaurant"}]},{"lat":"37.173553873","long":"126.93790071","imageIndex":4,"items":[{"name":"화성시니어클럽 노노카페 (봉담로컬푸드점)","tel":"031-8059-4349","addr":"경기도 화성시 봉담읍 덕리 7번지 화성농산물센터 K동","indutype":"일반휴게음식 - 서양음식","category":"restaurant"}]}]