[{"lat":"37.8961421","long":"127.56018314","items":[{"name":"(주)가평캠핑레져파크","tel":"031-584-2695","addr":"경기도 가평군 북면 목동리 692-4번지 1층","category":"레져용품 - 스포츠·레져용품"},{"name":"일진식당","tel":"","addr":"경기도 가평군 북면 목동리 692-4번지 1층","category":"일반휴게음식 - 일반한식"}]},{"lat":"37.894286231","long":"127.55827057","items":[{"name":"(주)경흥시스템","tel":"031-582-9602","addr":"경기도 가평군 북면 목동리 699-24번지","category":"기타 - 기계공구"}]},{"lat":"37.894423509","long":"127.55781685","items":[{"name":"(주)고려상역","tel":"","addr":"경기도 가평군 북면 목동리 699-17번지 1층","category":"음료식품 - 기타음료식품"}]},{"lat":"37.886981977","long":"127.55009925","items":[{"name":"가평군농업협동조합북면지점","tel":"031-582-2590","addr":"경기도 가평군 북면 목동리 893-2번지","category":"유통업 비영리 - 농,축협 직영매장"},{"name":"가평군농협북면지점","tel":"031-582-2590","addr":"경기도 가평군 북면 목동리 893-2번지","category":"유통업 비영리 - 농,축협 직영매장"}]},{"lat":"37.883870061","long":"127.54896224","items":[{"name":"가평군농협북면하나로마트","tel":"031-582-2160","addr":"경기도 가평군 북면 목동리 820-1번지","category":"유통업 비영리 - 농,축협 직영매장"},{"name":"만복수퍼","tel":"031-582-6819","addr":"경기도 가평군 북면 목동리 820-1","category":"유통업 영리 - 슈퍼마켓"},{"name":"만복수퍼","tel":"031-582-6819","addr":"경기도 가평군 북면 목동리 820-1번지","category":"유통업 영리 - 슈퍼마켓"}]},{"lat":"37.891894326","long":"127.55346653","items":[{"name":"가평레져","tel":"031-582-2003","addr":"경기도 가평군 북면 목동리 733-2번지","category":"레저업소 - 기타레져업소"}]},{"lat":"37.882203439","long":"127.5508823","items":[{"name":"가평오가피청국된장","tel":"031-582-4726","addr":"경기도 가평군 북면 목동리 792-1 1/3","category":"음료식품 - 기타음료식품"}]},{"lat":"37.906951418","long":"127.57370477","items":[{"name":"가평잣사랑및산림경영영농조합법인","tel":"031-582-5211","addr":"경기도 가평군 북면 목동리 560","category":"회원제형태 - 기타1"}]},{"lat":"37.889780907","long":"127.54684597","items":[{"name":"가평종합설비","tel":"031-581-1282","addr":"경기도 가평군 북면 목동리 720-2번지","category":"용역 서비스 - 기타용역서비스"}]},{"lat":"37.888779531","long":"127.55102198","items":[{"name":"나린마트","tel":"031-581-0051","addr":"경기도 가평군 북면 목동리 876-8번지","category":"유통업 영리 - 슈퍼마켓"}]},{"lat":"37.886563309","long":"127.54907307","items":[{"name":"네네치킨피자","tel":"031-582-2919","addr":"경기도 가평군 북면 목동리 901-10번지","category":"일반휴게음식 - 스넥"},{"name":"터미널슈퍼","tel":"031-581-5537","addr":"경기도 가평군 북면 목동리 901-10번지","category":"유통업 영리 - 슈퍼마켓"},{"name":"터미널슈퍼","tel":"031-582-7985","addr":"경기도 가평군 북면 목동리 901-10번지","category":"유통업 영리 - 슈퍼마켓"},{"name":"팔복돈까스","tel":"031-581-0708","addr":"경기도 가평군 북면 목동리 901-10번지","category":"일반휴게음식 - 일반한식"}]},{"lat":"37.886147579","long":"127.54935419","items":[{"name":"단비약국","tel":"","addr":"경기도 가평군 북면 목동리 889-4번지","category":"약국 - 약국"}]},{"lat":"37.886480013","long":"127.54954989","items":[{"name":"대선할인마트","tel":"031-581-0034","addr":"경기도 가평군 북면 목동리 890-1번지","category":"유통업 영리 - 슈퍼마켓"},{"name":"목동정육점","tel":"031-582-0033","addr":"경기도 가평군 북면 목동리 890-1번지","category":"음료식품 - 정육점"},{"name":"목동정육점","tel":"031-582-0033","addr":"경기도 가평군 북면 목동리 890-1","category":"음료식품 - 정육점"},{"name":"처가집양념치킨목동점","tel":"031-582-7114","addr":"경기도 가평군 북면 목동리 890-1번지","category":"일반휴게음식 - 스넥"}]},{"lat":"37.886642701","long":"127.54943742","items":[{"name":"대일정육점","tel":"031-582-1190","addr":"경기도 가평군 북면 목동리 891-2","category":"음료식품 - 정육점"}]},{"lat":"37.885592137","long":"127.54867941","items":[{"name":"대창공업사","tel":"031-582-0157","addr":"경기도 가평군 북면 목동리 840-19","category":"수리서비스 - 기타수리서비스"}]},{"lat":"37.887120332","long":"127.54940685","items":[{"name":"대추나무집","tel":"031-582-7064","addr":"경기도 가평군 북면 목동리 891-1번지","category":"일반휴게음식 - 일반한식"}]},{"lat":"37.894500352","long":"127.55871556","items":[{"name":"두색하늘","tel":"031-581-9016","addr":"경기도 가평군 북면 목동리 699-7번지 목동산업단지두색하늘","category":"신변잡화 - 기타잡화"}]},{"lat":"37.886585162","long":"127.55018725","items":[{"name":"또봉이통닭목동점","tel":"031-582-8295","addr":"경기도 가평군 북면 목동리 886-18번지 1층","category":"일반휴게음식 - 일반한식"},{"name":"베스트당구장","tel":"031-1111-1111","addr":"경기도 가평군 북면 목동리 886-18번지 2층","category":"레저업소 - 당 구 장"}]},{"lat":"37.886253364","long":"127.54985514","items":[{"name":"또와마트","tel":"031-581-0035","addr":"경기도 가평군 북면 목동리 886-24번지","category":"유통업 영리 - 슈퍼마켓"},{"name":"또와상회","tel":"031-581-0035","addr":"경기도 가평군 북면 목동리 886-24번지","category":"음료식품 - 기타음료식품"}]},{"lat":"37.886781297","long":"127.55063204","items":[{"name":"마임가평목동지점","tel":"031-3062-0031","addr":"경기도 가평군 북면 목동리 867-8번지","category":"보건위생 - 화장품"}]},{"lat":"37.886397031","long":"127.54995851","items":[{"name":"만나분식","tel":"031-581-0032","addr":"경기도 가평군 북면 목동리 886-22번지 1층","category":"일반휴게음식 - 일반한식"}]},{"lat":"37.899307981","long":"127.56698322","items":[{"name":"메이드","tel":"","addr":"경기도 가평군 북면 목동리 656-3번지","category":"숙박업 - 여관/기타숙박업"}]},{"lat":"37.886784785","long":"127.5498818","items":[{"name":"명지노래연습장","tel":"031-582-0354","addr":"경기도 가평군 북면 목동리 886-10번지","category":"레저업소 - 노 래 방"},{"name":"명지산여관","tel":"031-582-7181","addr":"경기도 가평군 북면 목동리 886-10","category":"숙박업 - 여관/기타숙박업"},{"name":"사랑방이야기","tel":"031-581-0504","addr":"경기도 가평군 북면 목동리 886-10번지 1층","category":"일반휴게음식 - 일반한식"}]},{"lat":"37.887529899","long":"127.54851183","items":[{"name":"명지식당","tel":"031-582-1309","addr":"경기도 가평군 북면 목동리 901-10번지","category":"일반휴게음식 - 일반한식"},{"name":"명지식당","tel":"031-582-1309","addr":"경기도 가평군 북면 목동리 899-2","category":"일반휴게음식 - 일반한식"}]},{"lat":"37.885229566","long":"127.54915416","items":[{"name":"명지정육점","tel":"031-582-8861","addr":"경기도 가평군 북면 목동리 825-10번지","category":"음료식품 - 정육점"}]},{"lat":"37.886809487","long":"127.55038216","items":[{"name":"목동막국수","tel":"031-582-1955","addr":"경기도 가평군 북면 목동리 886-5번지","category":"일반휴게음식 - 일반한식"},{"name":"우가해장국","tel":"031-581-0514","addr":"경기도 가평군 북면 목동리 886-5번지","category":"일반휴게음식 - 일반한식"}]},{"lat":"37.885842805","long":"127.54902228","items":[{"name":"목동문구","tel":"031-582-7060","addr":"경기도 가평군 북면 목동리 840-4번지","category":"서적문구 - 문구용품"},{"name":"목동미용실","tel":"031-582-8691","addr":"경기도 가평군 북면 목동리 840-4번지","category":"보건위생 - 미용원"},{"name":"시골밥상","tel":"031-582-5414","addr":"경기도 가평군 북면 목동리 840-4","category":"일반휴게음식 - 일반한식"},{"name":"후쿠네왕돈가스포장마차","tel":"070-4235-1160","addr":"경기도 가평군 북면 목동리 840-4번지","category":"일반휴게음식 - 일반한식"}]},{"lat":"37.888695946","long":"127.54767921","items":[{"name":"목동종합가스","tel":"031-581-1214","addr":"경기도 가평군 북면 목동리 911-10번지","category":"연료판매점 - LPG 취급점"}]},{"lat":"37.884758252","long":"127.54976451","items":[{"name":"목동철물","tel":"031-582-0717","addr":"경기도 가평군 북면 목동리 840-8번지","category":"건축자재 - 기타건축자재"}]},{"lat":"37.884725013","long":"127.5491618","items":[{"name":"무공산업","tel":"031-581-7828","addr":"경기도 가평군 북면 목동리 824-1번지","category":"전기제품 - 냉열기기"}]},{"lat":"37.889030171","long":"127.54748842","items":[{"name":"범바위방앗간","tel":"031-581-3360","addr":"경기도 가평군 북면 목동리 916-5","category":"회원제형태 - 기타3"}]},{"lat":"37.917782592","long":"127.57881503","items":[{"name":"별비치워터파크","tel":"031-581-4999","addr":"경기도 가평군 북면 목동리 318-1번지","category":"레저업소 - 기타레져업소"}]},{"lat":"37.889370458","long":"127.54793428","items":[{"name":"보리향(이선미보리밥)","tel":"031-111-1111","addr":"경기도 가평군 북면 목동리 916-1번지","category":"일반휴게음식 - 일반한식"},{"name":"하랑카페","tel":"031-111-1111","addr":"경기도 가평군 북면 목동리 916-1번지 1층","category":"일반휴게음식 - 서양음식"}]},{"lat":"37.887204103","long":"127.54882772","items":[{"name":"북면떡방아","tel":"031-582-7890","addr":"경기도 가평군 북면 목동리 898-8번지","category":"음료식품 - 제과점"},{"name":"세븐일레븐가평목동점","tel":"031-1577-0711","addr":"경기도 가평군 북면 목동리 898-8번지 북면떡방앗간 1층 1호","category":"유통업 영리 - 편 의 점"}]},{"lat":"37.884446527","long":"127.54898923","items":[{"name":"북면주유소","tel":"031-582-5189","addr":"경기도 가평군 북면 목동리 823-2번지 북면주유소","category":"연료판매점 - 쌍용S-OIL"},{"name":"에이티알넷(주) 가평지점","tel":"031-581-2233","addr":"경기도 가평군 북면 목동리 823-2번지 북면주유소","category":"연료판매점 - 쌍용S-OIL"}]},{"lat":"37.886172706","long":"127.5497636","items":[{"name":"북면철물건재","tel":"031-582-0555","addr":"경기도 가평군 북면 목동리 887-4번지","category":"건축자재 - 목재·석재·철물"}]},{"lat":"37.885643185","long":"127.54932773","items":[{"name":"북면한식전문점","tel":"031-582-4768","addr":"경기도 가평군 북면 목동리 840-15","category":"일반휴게음식 - 일반한식"},{"name":"씨유가평북면점","tel":"031-582-8029","addr":"경기도 가평군 북면 목동리 840-1번지 1층","category":"유통업 영리 - 편 의 점"}]},{"lat":"37.908721085","long":"127.57476456","items":[{"name":"블루펜션","tel":"031-581-4993","addr":"경기도 가평군 북면 목동리 366-2번지","category":"숙박업 - 여관/기타숙박업"}]},{"lat":"37.916720996","long":"127.57851107","items":[{"name":"비시오네","tel":"031-581-1316","addr":"경기도 가평군 북면 목동리 318-8번지","category":"숙박업 - 여관/기타숙박업"}]},{"lat":"37.908367418","long":"127.5752394","items":[{"name":"빌라지아","tel":"031-111-1111","addr":"경기도 가평군 북면 목동리 366번지","category":"숙박업 - 여관/기타숙박업"}]},{"lat":"37.887031773","long":"127.54907653","items":[{"name":"서울미용실","tel":"031-582-0452","addr":"경기도 가평군 북면 목동리 897번지 1층","category":"보건위생 - 미용원"},{"name":"서울미용실","tel":"031-582-0452","addr":"경기도 가평군 북면 목동리 897번지","category":"보건위생 - 미용원"},{"name":"지암식당","tel":"031-581-1245","addr":"경기도 가평군 북면 목동리 897번지","category":"일반휴게음식 - 일반한식"},{"name":"집빵과커피 따숨","tel":"031-111-1111","addr":"경기도 가평군 북면 목동리 897번지 2층","category":"일반휴게음식 - 서양음식"},{"name":"하나정육점","tel":"031-582-7354","addr":"경기도 가평군 북면 목동리 897번지","category":"음료식품 - 정육점"}]},{"lat":"37.886641064","long":"127.5497898","items":[{"name":"손두부집","tel":"031-582-0155","addr":"경기도 가평군 북면 목동리 886-4번지","category":"일반휴게음식 - 일반한식"}]},{"lat":"37.886759975","long":"127.54940418","items":[{"name":"수연당 닭갈비 막국수","tel":"","addr":"경기도 가평군 북면 목동리 891-3번지","category":"일반휴게음식 - 일반한식"}]},{"lat":"37.881808474","long":"127.55057247","items":[{"name":"숲속의정원","tel":"031-581-0364","addr":"경기도 가평군 북면 목동리 792-4번지","category":"숙박업 - 여관/기타숙박업"}]},{"lat":"37.918839115","long":"127.58015385","items":[{"name":"아띠랑스","tel":"031-582-7787","addr":"경기도 가평군 북면 목동리 311-2번지","category":"숙박업 - 여관/기타숙박업"}]},{"lat":"37.918311385","long":"127.5793764","items":[{"name":"어린왕자의나무별","tel":"031-581-4999","addr":"경기도 가평군 북면 목동리 318","category":"숙박업 - 여관/기타숙박업"}]},{"lat":"37.915034611","long":"127.57700821","items":[{"name":"에이스 팬션","tel":"031-581-1005","addr":"경기도 가평군 북면 목동리 324-5번지 1층","category":"숙박업 - 여관/기타숙박업"}]},{"lat":"37.896696375","long":"127.55918684","items":[{"name":"에코풀빌라펜션","tel":"02-1599-5404","addr":"경기도 가평군 북면 목동리 695-10번지","category":"숙박업 - 여관/기타숙박업"}]},{"lat":"37.885390935","long":"127.54932586","items":[{"name":"이조식당","tel":"031-582-9789","addr":"경기도 가평군 북면 목동리 840-8번지","category":"일반휴게음식 - 일반한식"}]},{"lat":"37.916505451","long":"127.57837293","items":[{"name":"춘향이와 방자","tel":"031-581-4083","addr":"경기도 가평군 북면 목동리 318-10번지","category":"숙박업 - 여관/기타숙박업"}]},{"lat":"37.893503193","long":"127.56001545","items":[{"name":"카프리리조트","tel":"031-581-2075","addr":"경기도 가평군 북면 목동리 688-25 ,26,27","category":"학원 - 독서실"}]},{"lat":"37.915284382","long":"127.59029257","items":[{"name":"코나 펜션","tel":"070-4922-1261","addr":"경기도 가평군 북면 목동리 251번지","category":"숙박업 - 여관/기타숙박업"}]},{"lat":"37.885863919","long":"127.55029559","items":[{"name":"태화루","tel":"031-582-7721","addr":"경기도 가평군 북면 목동리 850-4","category":"일반휴게음식 - 중국식"},{"name":"터미널식당","tel":"031-582-7988","addr":"경기도 가평군 북면 목동리 846번지","category":"일반휴게음식 - 일반한식"},{"name":"평화식당막국수","tel":"031-582-0031","addr":"경기도 가평군 북면 목동리 887","category":"일반휴게음식 - 일반한식"}]},{"lat":"37.914642379","long":"127.58895696","items":[{"name":"폴프랑","tel":"031-582-3080","addr":"경기도 가평군 북면 목동리 214-3번지","category":"숙박업 - 여관/기타숙박업"}]},{"lat":"37.893726009","long":"127.5509336","items":[{"name":"프랜치캣펜션","tel":"031-582-0222","addr":"경기도 가평군 북면 목동리 707-45번지","category":"숙박업 - 여관/기타숙박업"}]},{"lat":"37.901861649","long":"127.56801463","items":[{"name":"하늘숲펜션","tel":"031-581-6387","addr":"경기도 가평군 북면 목동리 648-2","category":"숙박업 - 여관/기타숙박업"}]},{"lat":"37.896451485","long":"127.56143607","items":[{"name":"한림송어횟집","tel":"031-582-5229","addr":"경기도 가평군 북면 목동리 679-2번지","category":"일반휴게음식 - 일식·회집"}]},{"lat":"37.897506763","long":"127.57432535","items":[{"name":"한마음펜션","tel":"03-1582-7550","addr":"경기도 가평군 북면 목동리 403-5","category":"숙박업 - 여관/기타숙박업"}]},{"lat":"37.887175785","long":"127.55104419","items":[{"name":"화악리닭갈비","tel":"031-582-5507","addr":"경기도 가평군 북면 목동리 867-4번지","category":"일반휴게음식 - 일반한식"}]}]