[{"lat":"37.662246788","long":"126.94875377","imageIndex":7,"items":[{"name":"둥글이네","tel":"031-386-3638","addr":"경기도 고양시 덕양구 지축동 153번지","indutype":"음료식품 - 기타음료식품","category":"food"}]},{"lat":"37.659382224","long":"126.93264043","imageIndex":7,"items":[{"name":"북한산 온천","tel":"","addr":"경기도 고양시 덕양구 지축동 408번지","indutype":"음료식품 - 기타음료식품","category":"food"}]},{"lat":"37.666851211","long":"126.9498045","imageIndex":7,"items":[{"name":"북한산농바위캠핑장(매점)","tel":"02-335-4300","addr":"경기도 고양시 덕양구 지축동 127-1번지","indutype":"음료식품 - 기타음료식품","category":"food"}]},{"lat":"37.659967718","long":"126.93241322","imageIndex":7,"items":[{"name":"산가","tel":"02-381-4529","addr":"경기도 고양시 덕양구 지축동 809-18번지","indutype":"음료식품 - 기타음료식품","category":"food"}]},{"lat":"37.65432849","long":"126.89731152","imageIndex":7,"items":[{"name":"유한회사 서울유통","tel":"031-000-0000","addr":"경기도 고양시 덕양구 지축동 786-35번지","indutype":"음료식품 - 기타음료식품","category":"food"}]},{"lat":"37.663995353","long":"126.95027121","imageIndex":7,"items":[{"name":"참목원정육식당","tel":"02-371-1177","addr":"경기도 고양시 덕양구 지축동 134번지","indutype":"음료식품 - 정육점","category":"food"}]}]