[{"lat":"37.775299579","long":"127.50627944","items":[{"name":"Dal.komm pension (달콤)","tel":"070-4882-2822","addr":"경기도 가평군 가평읍 이화리 88-6번지","category":"숙박업 - 여관/기타숙박업"}]},{"lat":"37.772963424","long":"127.51111011","items":[{"name":"가평농가식당","tel":"","addr":"경기도 가평군 가평읍 이화리 84-10번지 가동 1층","category":"일반휴게음식 - 일반한식"}]},{"lat":"37.798102432","long":"127.51255393","items":[{"name":"가평으뜸잣","tel":"031-582-5137","addr":"경기도 가평군 가평읍 이화리 237-14","category":"음료식품 - 농·축·수산품"}]},{"lat":"37.797793882","long":"127.51927334","items":[{"name":"남이섬비둘기","tel":"070-8885-4520","addr":"경기도 가평군 가평읍 이화리 9-6번지","category":"숙박업 - 여관/기타숙박업"}]},{"lat":"37.797347802","long":"127.51827109","items":[{"name":"메이플베이","tel":"031-581-7992","addr":"경기도 가평군 가평읍 이화리 19-1번지","category":"숙박업 - 여관/기타숙박업"}]},{"lat":"37.779657643","long":"127.50896517","items":[{"name":"블루24시편의점","tel":"","addr":"경기도 가평군 가평읍 이화리 107-19번지","category":"유통업 영리 - 편 의 점"}]},{"lat":"37.798040624","long":"127.51641386","items":[{"name":"숲속의설레임","tel":"031-582-5848","addr":"경기도 가평군 가평읍 이화리 253-5번지","category":"숙박업 - 여관/기타숙박업"}]},{"lat":"37.791851332","long":"127.51013821","items":[{"name":"운담사","tel":"031-581-0466","addr":"경기도 가평군 가평읍 이화리 466 71/3","category":"보건위생 - 기타대인서비스"}]},{"lat":"37.801348707","long":"127.51188361","items":[{"name":"이화가든","tel":"031-582-2349","addr":"경기도 가평군 가평읍 이화리 339-6번지","category":"일반휴게음식 - 일반한식"}]},{"lat":"37.775602834","long":"127.50699658","items":[{"name":"쵸코키즈풀빌라","tel":"","addr":"경기도 가평군 가평읍 이화리 88번지","category":"숙박업 - 여관/기타숙박업"}]},{"lat":"37.775378916","long":"127.5066886","items":[{"name":"코코 키즈 펜션","tel":"","addr":"경기도 가평군 가평읍 이화리 88-4번지","category":"음료식품 - 기타음료식품"},{"name":"코코키즈풀빌라","tel":"02-1111-1111","addr":"경기도 가평군 가평읍 이화리 88-4번지","category":"숙박업 - 여관/기타숙박업"},{"name":"코코키즈풀빌라","tel":"02-1111-1111","addr":"경기도 가평군 가평읍 이화리 88-4번지","category":"용역 서비스 - 부동산 중개·임대"}]},{"lat":"37.792988","long":"127.51188302","items":[{"name":"크리플커뮤니케이션","tel":"031-582-3564","addr":"경기도 가평군 가평읍 이화리 197번지","category":"용역 서비스 - 사무서비스"}]},{"lat":"37.77654856","long":"127.50915964","items":[{"name":"하늘숲속","tel":"031-582-9305","addr":"경기도 가평군 가평읍 이화리 93번지","category":"숙박업 - 여관/기타숙박업"}]},{"lat":"37.798789922","long":"127.51191147","items":[{"name":"한울","tel":"031-582-9997","addr":"경기도 가평군 가평읍 이화리 242번지","category":"일반휴게음식 - 일반한식"}]},{"lat":"37.791075919","long":"127.51857947","items":[{"name":"휴먼타운(주)","tel":"02-2243-0114","addr":"경기도 가평군 가평읍 이화리 43-2","category":"회원제형태 - 기타4"}]}]