[{"lat":"36.996376724","long":"126.95143123","imageIndex":7,"items":[{"name":"(주)다드림식자재총판","tel":"031-683-1093","addr":"경기도 평택시 안중읍 금곡리 302번지","indutype":"음료식품 - 기타음료식품","category":"food"}]},{"lat":"36.998910827","long":"126.9565186","imageIndex":7,"items":[{"name":"금곡산약초전시판매장","tel":"","addr":"경기도 평택시 안중읍 금곡리 67-4번지 1층","indutype":"건강식품 - 기타건강식품","category":"food"}]},{"lat":"36.993214411","long":"126.95246683","imageIndex":7,"items":[{"name":"아우네정육점","tel":"031-683-0677","addr":"경기도 평택시 안중읍 금곡리 337-3번지 우림 상가 114호","indutype":"음료식품 - 정육점","category":"food"}]},{"lat":"37.003380967","long":"126.95870668","imageIndex":7,"items":[{"name":"안중백병원매점","tel":"031-645-9440","addr":"경기도 평택시 안중읍 금곡리 205-10번지","indutype":"음료식품 - 기타음료식품","category":"food"}]},{"lat":"36.996438217","long":"126.94790378","imageIndex":7,"items":[{"name":"오렌지유통","tel":"","addr":"경기도 평택시 안중읍 금곡리 387-1번지","indutype":"음료식품 - 기타음료식품","category":"food"}]}]