[{"lat":"37.275377923","long":"126.98242892","imageIndex":17,"items":[{"name":"(사단)한국토양비료학회","tel":"031-295-7335","addr":"경기도 수원시 권선구 서둔동 249","indutype":"기타 - 비영리/대상","category":"other"},{"name":"[지로](사단)한국토양비료학회","tel":"031-295-7335","addr":"경기도 수원시 권선구 서둔동 249","indutype":"유통업 영리 - 인터넷 Mall","category":"other"},{"name":"사단법인한국농약과학회","tel":"031-296-4088","addr":"경기도 수원시 권선구 서둔동 249번지","indutype":"기타 - 비영리/비대상","category":"other"}]},{"lat":"37.271043904","long":"126.98200166","imageIndex":17,"items":[{"name":"(주) 지앤피와함께","tel":"031-298-3033","addr":"경기도 수원시 권선구 서둔동 186-4번지 대성빌딩 205호","indutype":"신변잡화 - 기타잡화","category":"other"}]},{"lat":"37.270071209","long":"126.98450483","imageIndex":17,"items":[{"name":"(주)경기동아애드넷","tel":"031-251-0871","addr":"경기도 수원시 권선구 서둔동 134-2번지 1층","indutype":"용역 서비스 - 종합용역","category":"other"}]},{"lat":"37.267296315","long":"126.9863657","imageIndex":17,"items":[{"name":"(주)블루비에스","tel":"031-292-1447","addr":"경기도 수원시 권선구 서둔동 103-2번지 서울대농생명과학창업지원센터 2동 202호","indutype":"기타 - 기계공구","category":"other"},{"name":"(주)에이피디/원격지","tel":"031-278-4880","addr":"경기도 수원시 권선구 서둔동 103-2번지 서울대학교농업생명과학대학 3동 103호","indutype":"기타 - 기타 전문점","category":"other"},{"name":"(주)지이오플랜트","tel":"031-278-6808","addr":"경기도 수원시 권선구 서둔동 103-2번지 서울대농생명과확창업지원센터 2동 204호","indutype":"서적문구 - 과학기자재","category":"other"},{"name":"주식회사 새길","tel":"02-838-4500","addr":"경기도 수원시 권선구 서둔동 103-2번지 서울대학교농업생명과학대학 5동 106호","indutype":"건축자재 - 기타건축자재","category":"other"},{"name":"주식회사 새길조경","tel":"02-838-4500","addr":"경기도 수원시 권선구 서둔동 103-2번지 서울대학교농업생명과학대학 1동204호.5동106호","indutype":"건축자재 - 인테리어전문","category":"other"},{"name":"주식회사 투비그린","tel":"031-769-3679","addr":"경기도 수원시 권선구 서둔동 103-2번지 서울대농생명과학창업지원센터 2동 201호","indutype":"사무통신 - 통신기기","category":"other"},{"name":"주식회사 플랜티움","tel":"031-294-2283","addr":"경기도 수원시 권선구 서둔동 103-2번지 서울대학교농업생명과학대학 4동 211호","indutype":"건축자재 - 인테리어전문","category":"other"},{"name":"주식회사녹색식물연구소","tel":"031-281-1904","addr":"경기도 수원시 권선구 서둔동 103-2번지 농생명과학창업보육센터 2동 205호","indutype":"회원제형태 - 기타4","category":"other"},{"name":"주식회사큐브라인","tel":"031-291-5840","addr":"경기도 수원시 권선구 서둔동 103-2번지 서울대농업생명과학대학 201호","indutype":"건축자재 - 기타건축자재","category":"other"},{"name":"주식회사퍼피랑키티랑(Puppyrang Kittyrang","tel":"031-227-2575","addr":"경기도 수원시 권선구 서둔동 103-2번지 서울대학교농업생명과학대학 4동 203호","indutype":"문화.취미 - 애완동물","category":"other"},{"name":"중앙바이오팜주식회사","tel":"031-293-5580","addr":"경기도 수원시 권선구 서둔동 103-2번지 창업지원센터 1동 313호","indutype":"농업 - 비료,사료,종자","category":"other"}]},{"lat":"37.263017073","long":"126.9919469","imageIndex":17,"items":[{"name":"(주)이엔비/원격지","tel":"031-295-0331","addr":"경기도 수원시 권선구 서둔동 31-21번지","indutype":"기타 - 기타 전문점","category":"other"}]},{"lat":"37.266071858","long":"126.99583589","imageIndex":17,"items":[{"name":"AMSINTERNATIONAL TRADING","tel":"031-255-1951","addr":"경기도 수원시 권선구 서둔동 320-15번지","indutype":"의류 - 정장","category":"other"},{"name":"건영기업","tel":"031-232-7480","addr":"경기도 수원시 권선구 서둔동 320-15번지","indutype":"용역 서비스 - 기타용역서비스","category":"other"}]},{"lat":"37.26309794","long":"126.98972605","imageIndex":17,"items":[{"name":"DK시스템","tel":"031-000-0000","addr":"경기도 수원시 권선구 서둔동 27-133번지 에스엠 113동 403호","indutype":"용역 서비스 - 기타용역서비스","category":"other"}]},{"lat":"37.279566999","long":"126.97870679","imageIndex":17,"items":[{"name":"E존레포츠","tel":"031-292-5967","addr":"경기도 수원시 권선구 서둔동 260-99번지","indutype":"레져용품 - 스포츠·레져용품","category":"other"},{"name":"하나통신","tel":"070-8249-2799","addr":"경기도 수원시 권선구 서둔동 260-99번지 1층","indutype":"사무통신 - 통신기기","category":"other"},{"name":"한결게이트볼","tel":"031-292-5967","addr":"경기도 수원시 권선구 서둔동 260-99번지","indutype":"레져용품 - 스포츠·레져용품","category":"other"}]},{"lat":"37.278683985","long":"126.97867324","imageIndex":17,"items":[{"name":"GS25수원서둔점","tel":"","addr":"경기도 수원시 권선구 서둔동 260-29번지","indutype":"유통업 영리 - 편 의 점","category":"other"},{"name":"디자인코드","tel":"031-292-3323","addr":"경기도 수원시 권선구 서둔동 260-29번지 2층","indutype":"용역 서비스 - 종합용역","category":"other"}]},{"lat":"37.26707169","long":"126.99178848","imageIndex":17,"items":[{"name":"YG솔루션","tel":"","addr":"경기도 수원시 권선구 서둔동 45-42번지 201호","indutype":"건축자재 - 인테리어전문","category":"other"}]},{"lat":"37.266233733","long":"126.9917886","imageIndex":17,"items":[{"name":"sienamom","tel":"070-8639-9648","addr":"경기도 수원시 권선구 서둔동 17-358번지 1층","indutype":"의류 - 아동의류","category":"other"}]},{"lat":"37.266657378","long":"126.99367127","imageIndex":17,"items":[{"name":"가나종합인테리어","tel":"031-292-8704","addr":"경기도 수원시 권선구 서둔동 17-114번지 나이스밸 103호","indutype":"직물 - 카페트,커튼,천막,지물","category":"other"}]},{"lat":"37.269376578","long":"126.97972473","imageIndex":17,"items":[{"name":"가능실업","tel":"031-226-5621","addr":"경기도 수원시 권선구 서둔동 157-3번지","indutype":"용역 서비스 - 기타용역서비스","category":"other"},{"name":"가능환경(청소대행)","tel":"031-224-3928","addr":"경기도 수원시 권선구 서둔동 157-3번지","indutype":"용역 서비스 - 기타용역서비스","category":"other"},{"name":"웃는아이 이벤트","tel":"","addr":"경기도 수원시 권선구 서둔동 157-3번지","indutype":"용역 서비스 - 종합용역","category":"other"},{"name":"웃는아이이벤트","tel":"","addr":"경기도 수원시 권선구 서둔동 157-3번지 2층","indutype":"용역 서비스 - 종합용역","category":"other"}]},{"lat":"37.266963609","long":"126.99225072","imageIndex":17,"items":[{"name":"가람냉.난방","tel":"031-242-5244","addr":"경기도 수원시 권선구 서둔동 17-6번지 예일어린이집 지하층 102호","indutype":"전기제품 - 냉열기기","category":"other"}]},{"lat":"37.264098671","long":"126.99706488","imageIndex":17,"items":[{"name":"가린(GARIN)","tel":"070-0000-0000","addr":"경기도 수원시 권선구 서둔동 381번지 롯데몰수원 2층","indutype":"신변잡화 - 액세서리","category":"other"},{"name":"명품수선실","tel":"031-000-0000","addr":"경기도 수원시 권선구 서둔동 381번지 롯데백화점수원점 6층","indutype":"수리서비스 - 세탁소","category":"other"},{"name":"주식회사 누리여행사","tel":"031-8066-1870","addr":"경기도 수원시 권선구 서둔동 381번지 롯데몰수원점 3층","indutype":"여행 - 관광여행","category":"other"}]},{"lat":"37.26935135","long":"126.9924195","imageIndex":17,"items":[{"name":"거미특수인쇄","tel":"031-257-2266","addr":"경기도 수원시 권선구 서둔동 14-17번지","indutype":"서적문구 - 출판 및 인쇄물","category":"other"},{"name":"주식회사미래덴한","tel":"031-357-0958","addr":"경기도 수원시 권선구 서둔동 14-17번지","indutype":"농업 - 기타농업관련","category":"other"}]},{"lat":"37.262431653","long":"126.9950922","imageIndex":17,"items":[{"name":"경기시스템에어컨","tel":"031-1599-3644","addr":"경기도 수원시 권선구 서둔동 333-3번지 5호","indutype":"전기제품 - 냉열기기","category":"other"}]},{"lat":"37.278873189","long":"126.9786168","imageIndex":17,"items":[{"name":"경은도예","tel":"","addr":"경기도 수원시 권선구 서둔동 260-18번지 1층 공방","indutype":"문화.취미 - 문화취미기타","category":"other"},{"name":"성일용기","tel":"031-296-9269","addr":"경기도 수원시 권선구 서둔동 260-18번지","indutype":"직물 - 침구·수예점","category":"other"}]},{"lat":"37.270818861","long":"126.98325318","imageIndex":17,"items":[{"name":"경화광고","tel":"031-238-7977","addr":"경기도 수원시 권선구 서둔동 200-47번지 1층","indutype":"용역 서비스 - 종합용역","category":"other"}]},{"lat":"37.278981386","long":"126.97897759","imageIndex":17,"items":[{"name":"고품격명품천연청소","tel":"031-295-9282","addr":"경기도 수원시 권선구 서둔동 260-24번지 우신빌라","indutype":"용역 서비스 - 종합용역","category":"other"}]},{"lat":"37.263124995","long":"126.98995151","imageIndex":17,"items":[{"name":"공감 인테리어필름","tel":"","addr":"경기도 수원시 권선구 서둔동 27-134번지 삼익리베리움 501동 302호","indutype":"건축자재 - 인테리어전문","category":"other"}]},{"lat":"37.267792217","long":"126.98898115","imageIndex":17,"items":[{"name":"광일문화사","tel":"031-291-8084","addr":"경기도 수원시 권선구 서둔동 51-8번지","indutype":"서적문구 - 출판 및 인쇄물","category":"other"}]},{"lat":"37.270845614","long":"126.98164093","imageIndex":17,"items":[{"name":"광하우징","tel":"031-234-2917","addr":"경기도 수원시 권선구 서둔동 184-11번지 부성리치빌 102호","indutype":"건축자재 - 인테리어전문","category":"other"}]},{"lat":"37.264485671","long":"126.99111245","imageIndex":17,"items":[{"name":"국민에어컨","tel":"031-8639-9722","addr":"경기도 수원시 권선구 서둔동 27-122번지 다동 501호","indutype":"용역 서비스 - 기타용역서비스","category":"other"}]},{"lat":"37.269540877","long":"126.99689535","imageIndex":17,"items":[{"name":"굿에너지","tel":"070-4202-8204","addr":"경기도 수원시 권선구 서둔동 288-2번지 4층","indutype":"건축자재 - 조명기구","category":"other"},{"name":"다인에스(DaIn에스)","tel":"031-248-1483","addr":"경기도 수원시 권선구 서둔동 288-2번지 3층","indutype":"수리서비스 - 가정용품수리","category":"other"}]},{"lat":"37.267657332","long":"126.99150654","imageIndex":17,"items":[{"name":"글로리아","tel":"070-8964-3453","addr":"경기도 수원시 권선구 서둔동 45-13번지 202호","indutype":"회원제형태 - 기타4","category":"other"}]},{"lat":"37.268045063","long":"126.9950578","imageIndex":17,"items":[{"name":"금강세탁소","tel":"031-278-3636","addr":"경기도 수원시 권선구 서둔동 371번지 센트라우스 상가동 105호","indutype":"수리서비스 - 세탁소","category":"other"},{"name":"금강세탁소","tel":"031-278-3636","addr":"경기도 수원시 권선구 서둔동 371번지 센트라우스 상가 105호","indutype":"수리서비스 - 세탁소","category":"other"}]},{"lat":"37.270431287","long":"126.98247535","imageIndex":17,"items":[{"name":"금성주방","tel":"031-296-1588","addr":"경기도 수원시 권선구 서둔동 149-17번지","indutype":"수리서비스 - 가정용품수리","category":"other"}]},{"lat":"37.26923442","long":"126.99505768","imageIndex":17,"items":[{"name":"기반유통","tel":"031-204-4115","addr":"경기도 수원시 권선구 서둔동 17-148번지 동서아트빌라","indutype":"전기제품 - 가전제품","category":"other"}]},{"lat":"37.266484881","long":"126.98306265","imageIndex":17,"items":[{"name":"꿈길자사회적협동조합","tel":"031-242-8359","addr":"경기도 수원시 권선구 서둔동 103-25번지 경기상상캠퍼스 1990동 211호","indutype":"용역 서비스 - 사무서비스","category":"other"},{"name":"디자인 홍조","tel":"","addr":"경기도 수원시 권선구 서둔동 103-25번지 경기상상캠퍼스 청년1981동 1층 101호","indutype":"용역 서비스 - 사무서비스","category":"other"},{"name":"락희공방","tel":"070-8875-3783","addr":"경기도 수원시 권선구 서둔동 103-25번지 경기상상캠퍼스 손살이공방 1층 2호","indutype":"문화.취미 - 문화취미기타","category":"other"},{"name":"바이냥","tel":"031-000-0000","addr":"경기도 수원시 권선구 서둔동 103-25번지 경기상상캠퍼스 청년1981 101호","indutype":"문화.취미 - 애완동물","category":"other"},{"name":"썬스코 (SUNSCO)","tel":"","addr":"경기도 수원시 권선구 서둔동 103-25번지","indutype":"문화.취미 - 문화취미기타","category":"other"},{"name":"에스비디자인(Sb.design)","tel":"","addr":"경기도 수원시 권선구 서둔동 103-25번지 경기상상캠퍼스 생활 1980동 3층 303호","indutype":"용역 서비스 - 사무서비스","category":"other"},{"name":"유주디자인","tel":"031-422-2426","addr":"경기도 수원시 권선구 서둔동 103-25번지 3동 301층 경기상상캠퍼스생활1980 301호","indutype":"직물 - 침구·수예점","category":"other"},{"name":"짓거리연구소","tel":"","addr":"경기도 수원시 권선구 서둔동 103-25번지 경기상상캠퍼스 청년 1981동 2층 206호","indutype":"용역 서비스 - 종합용역","category":"other"}]},{"lat":"37.268792753","long":"126.99289309","imageIndex":17,"items":[{"name":"나노뷰","tel":"031-278-5384","addr":"경기도 수원시 권선구 서둔동 17-20번지","indutype":"건축자재 - 조명기구","category":"other"}]},{"lat":"37.269513624","long":"126.99347926","imageIndex":17,"items":[{"name":"낚해낚시점","tel":"031-238-8438","addr":"경기도 수원시 권선구 서둔동 9-36번지 길전빌딩 2층","indutype":"레져용품 - 스포츠·레져용품","category":"other"},{"name":"주식회사 편안들","tel":"031-296-8989","addr":"경기도 수원시 권선구 서둔동 9-36번지 길전빌딩","indutype":"농업 - 기타농업관련","category":"other"}]},{"lat":"37.274810679","long":"126.98490958","imageIndex":17,"items":[{"name":"농촌진흥청/삼원(담배)","tel":"","addr":"경기도 수원시 권선구 서둔동 250","indutype":"기타 - 기타 전문점","category":"other"},{"name":"사단법인한국토종연구회","tel":"031-299-1814","addr":"경기도 수원시 권선구 서둔동 250","indutype":"기타 - 기타 전문점","category":"other"},{"name":"후생식당","tel":"031-292-4370","addr":"경기도 수원시 권선구 서둔동 250번지","indutype":"유통업 비영리 - 공무원 연금 매점","category":"other"}]},{"lat":"37.262323138","long":"126.99050404","imageIndex":17,"items":[{"name":"다모아에스티엠(STM)","tel":"031-296-8272","addr":"경기도 수원시 권선구 서둔동 27-24번지","indutype":"회원제형태 - 기타1","category":"other"}]},{"lat":"37.270764581","long":"126.98197919","imageIndex":17,"items":[{"name":"다솜꽃방","tel":"031-295-8531","addr":"경기도 수원시 권선구 서둔동 185-1번지","indutype":"문화.취미 - 화원","category":"other"}]},{"lat":"37.279377771","long":"126.97865047","imageIndex":17,"items":[{"name":"단미","tel":"031-298-8550","addr":"경기도 수원시 권선구 서둔동 260-10번지 1층 101호","indutype":"의류 - 정장","category":"other"}]},{"lat":"37.268152846","long":"126.99097659","imageIndex":17,"items":[{"name":"대성인테리어","tel":"031-218-4022","addr":"경기도 수원시 권선구 서둔동 45-163번지","indutype":"건축자재 - 인테리어전문","category":"other"}]},{"lat":"37.271260032","long":"126.9813364","imageIndex":17,"items":[{"name":"대성철물","tel":"031-297-2822","addr":"경기도 수원시 권선구 서둔동 187-9번지","indutype":"건축자재 - 목재·석재·철물","category":"other"}]},{"lat":"37.268935107","long":"126.97989397","imageIndex":17,"items":[{"name":"대영정보통신","tel":"031-223-9158","addr":"경기도 수원시 권선구 서둔동 156-16번지 2층 202호","indutype":"사무통신 - 통신기기","category":"other"}]},{"lat":"37.268017695","long":"126.99101043","imageIndex":17,"items":[{"name":"대우발전기","tel":"031-205-8788","addr":"경기도 수원시 권선구 서둔동 45-92번지","indutype":"기타 - 기계공구","category":"other"}]},{"lat":"37.269099098","long":"126.99283668","imageIndex":17,"items":[{"name":"대진공조","tel":"031-294-1052","addr":"경기도 수원시 권선구 서둔동 14-5번지 1층","indutype":"전기제품 - 냉열기기","category":"other"}]},{"lat":"37.276954098","long":"126.97909099","imageIndex":17,"items":[{"name":"동남종합목재","tel":"","addr":"경기도 수원시 권선구 서둔동 243-63번지","indutype":"건축자재 - 목재·석재·철물","category":"other"}]},{"lat":"37.269072184","long":"126.9943136","imageIndex":17,"items":[{"name":"동명농기계","tel":"031-292-2388","addr":"경기도 수원시 권선구 서둔동 17-163번지","indutype":"농업 - 농기계","category":"other"}]},{"lat":"37.261539599","long":"126.99458501","imageIndex":17,"items":[{"name":"동양샷시건축공사","tel":"02-1111-1111","addr":"경기도 수원시 권선구 서둔동 333-37번지","indutype":"용역 서비스 - 기타용역서비스","category":"other"}]},{"lat":"37.26884669","long":"126.99150637","imageIndex":17,"items":[{"name":"동양후레임","tel":"","addr":"경기도 수원시 권선구 서둔동 14-19번지 1층,2층","indutype":"용역 서비스 - 종합용역","category":"other"}]},{"lat":"37.263404671","long":"126.9937844","imageIndex":17,"items":[{"name":"디바이디인테리어","tel":"","addr":"경기도 수원시 권선구 서둔동 23-8번지","indutype":"건축자재 - 인테리어전문","category":"other"}]},{"lat":"37.268098719","long":"126.99034525","imageIndex":17,"items":[{"name":"디자인 봄","tel":"031-236-3883","addr":"경기도 수원시 권선구 서둔동 45-171번지 2층","indutype":"서적문구 - 출판 및 인쇄물","category":"other"}]},{"lat":"37.268459315","long":"126.99222797","imageIndex":17,"items":[{"name":"라미야수원점","tel":"031-291-1070","addr":"경기도 수원시 권선구 서둔동 17-29번지","indutype":"기타 - 기타 전문점","category":"other"},{"name":"잉크몬스터","tel":"031-291-1070","addr":"경기도 수원시 권선구 서둔동 17-29번지","indutype":"사무통신 - 기타 사무용품","category":"other"}]},{"lat":"37.270540792","long":"126.99342276","imageIndex":17,"items":[{"name":"라인테크","tel":"031-292-2280","addr":"경기도 수원시 권선구 서둔동 14-53번지","indutype":"수리서비스 - 가정용품수리","category":"other"},{"name":"서원전자","tel":"031-292-2280","addr":"경기도 수원시 권선구 서둔동 14-53번지","indutype":"전기제품 - 가전제품","category":"other"}]},{"lat":"37.270990174","long":"126.9839747","imageIndex":17,"items":[{"name":"럭셔리패션","tel":"031-295-4465","addr":"경기도 수원시 권선구 서둔동 199-8번지","indutype":"의류 - 정장","category":"other"},{"name":"황성희패션","tel":"031-295-4465","addr":"경기도 수원시 권선구 서둔동 199-8번지","indutype":"의류 - 정장","category":"other"}]},{"lat":"37.267567194","long":"126.99114579","imageIndex":17,"items":[{"name":"로멕스코리아(ROMAX KOREA)","tel":"02-1111-1111","addr":"경기도 수원시 권선구 서둔동 45-136번지 2동 202호","indutype":"수리서비스 - 기타수리서비스","category":"other"}]},{"lat":"37.277098216","long":"126.97886543","imageIndex":17,"items":[{"name":"로샤 채원","tel":"","addr":"경기도 수원시 권선구 서둔동 243-1번지 1층","indutype":"의류 - 내의판매","category":"other"},{"name":"전기온돌판넬,필름총판(창성전기)","tel":"031-255-0494","addr":"경기도 수원시 권선구 서둔동 243-1번지","indutype":"건축자재 - 기타건축자재","category":"other"},{"name":"화씨낙시","tel":"","addr":"경기도 수원시 권선구 서둔동 243-1번지 1층","indutype":"레져용품 - 스포츠·레져용품","category":"other"},{"name":"훈스(HUN''S)드럼","tel":"","addr":"경기도 수원시 권선구 서둔동 243-1번지 B1층","indutype":"용역 서비스 - 사무서비스","category":"other"}]},{"lat":"37.270989729","long":"126.9813703","imageIndex":17,"items":[{"name":"루리아트","tel":"","addr":"경기도 수원시 권선구 서둔동 183-3번지 B1층","indutype":"문화.취미 - 화랑","category":"other"}]},{"lat":"37.264017262","long":"126.99245406","imageIndex":17,"items":[{"name":"리라렌터카(수원영업소)","tel":"031-227-6005","addr":"경기도 수원시 권선구 서둔동 31-2번지 101호","indutype":"여행 - 렌터카","category":"other"}]},{"lat":"37.271403805","long":"126.9792844","imageIndex":17,"items":[{"name":"명에어컨","tel":"031-293-6111","addr":"경기도 수원시 권선구 서둔동 179-12번지 1층","indutype":"전기제품 - 가전제품","category":"other"}]},{"lat":"37.271296839","long":"126.98606041","imageIndex":17,"items":[{"name":"물고랑수족관","tel":"031-296-0246","addr":"경기도 수원시 권선구 서둔동 207-7번지","indutype":"문화.취미 - 수족관","category":"other"},{"name":"주식회사 디오디","tel":"031-291-2491","addr":"경기도 수원시 권선구 서둔동 207-7번지 1층, 2층","indutype":"직물 - 옷감·직물","category":"other"},{"name":"한성","tel":"031-296-0538","addr":"경기도 수원시 권선구 서둔동 207-7번지 3층","indutype":"용역 서비스 - 기타용역서비스","category":"other"}]},{"lat":"37.264098356","long":"126.9924766","imageIndex":17,"items":[{"name":"미니스톱 서둔연화점","tel":"031-1577-9621","addr":"경기도 수원시 권선구 서둔동 33-4번지 1층 지하층","indutype":"유통업 영리 - 편 의 점","category":"other"}]},{"lat":"37.270990284","long":"126.98467372","imageIndex":17,"items":[{"name":"미래LED조명","tel":"031-278-2286","addr":"경기도 수원시 권선구 서둔동 199-2번지 1층","indutype":"건축자재 - 조명기구","category":"other"}]},{"lat":"37.267738389","long":"126.99114577","imageIndex":17,"items":[{"name":"미샵(연이네)","tel":"031-333-5356","addr":"경기도 수원시 권선구 서둔동 45-141번지 1층","indutype":"의류 - 정장","category":"other"}]},{"lat":"37.261296266","long":"126.99384102","imageIndex":17,"items":[{"name":"미스터싸인","tel":"031-293-1224","addr":"경기도 수원시 권선구 서둔동 24-30,13-39,13-183","indutype":"용역 서비스 - 종합용역","category":"other"}]},{"lat":"37.270765139","long":"126.98541789","imageIndex":17,"items":[{"name":"보금당","tel":"031-248-8004","addr":"경기도 수원시 권선구 서둔동 106-17번지 103호","indutype":"신변잡화 - 귀금속","category":"other"}]},{"lat":"37.262124897","long":"126.99036879","imageIndex":17,"items":[{"name":"봄꽃집","tel":"","addr":"경기도 수원시 권선구 서둔동 27-31번지","indutype":"문화.취미 - 화원","category":"other"}]},{"lat":"37.269899935","long":"126.9840088","imageIndex":17,"items":[{"name":"비쥬플래닝","tel":"070-4090-0277","addr":"경기도 수원시 권선구 서둔동 146-18번지 1층","indutype":"의류 - 정장","category":"other"},{"name":"주식회사 대호전기관리공사","tel":"031-227-8227","addr":"경기도 수원시 권선구 서둔동 146-18번지 1층","indutype":"용역 서비스 - 종합용역","category":"other"}]},{"lat":"37.278568056","long":"126.98552884","imageIndex":17,"items":[{"name":"사단법인한국육종학회","tel":"031-296-6898","addr":"경기도 수원시 권선구 서둔동 225-1번지 농촌진흥청국립식량과학원내 중부작물부","indutype":"기타 - 비영리/대상","category":"other"},{"name":"사단법인한국작물학회","tel":"0502-258-1962","addr":"경기도 수원시 권선구 서둔동 225-1번지","indutype":"기타 - 비영리/대상","category":"other"}]},{"lat":"37.271152674","long":"126.98606044","imageIndex":17,"items":[{"name":"삼원건설","tel":"031-293-1263","addr":"경기도 수원시 권선구 서둔동 207-9번지 1층","indutype":"건축자재 - 인테리어전문","category":"other"}]},{"lat":"37.266233969","long":"126.99467468","imageIndex":17,"items":[{"name":"삼원알미늄","tel":"070-8966-6066","addr":"경기도 수원시 권선구 서둔동 20-10번지 102호","indutype":"용역 서비스 - 기타용역서비스","category":"other"}]},{"lat":"37.272323995","long":"126.98594744","imageIndex":17,"items":[{"name":"서둔동주민자치위원회","tel":"031-228-6646","addr":"경기도 수원시 권선구 서둔동 207-13번지","indutype":"문화.취미 - 문화취미기타","category":"other"}]},{"lat":"37.270990266","long":"126.98456098","imageIndex":17,"items":[{"name":"서둔바이크","tel":"031-291-8946","addr":"경기도 수원시 권선구 서둔동 199-11번지","indutype":"수리서비스 - 레져용품수리","category":"other"}]},{"lat":"37.270792121","long":"126.98509092","imageIndex":17,"items":[{"name":"서호보석","tel":"031-295-5537","addr":"경기도 수원시 권선구 서둔동 143-1번지","indutype":"신변잡화 - 시계","category":"other"}]},{"lat":"37.270737883","long":"126.98395222","imageIndex":17,"items":[{"name":"성광지업사","tel":"031-297-1316","addr":"경기도 수원시 권선구 서둔동 200-39번지","indutype":"건축자재 - 인테리어전문","category":"other"}]},{"lat":"37.265900423","long":"126.99256654","imageIndex":17,"items":[{"name":"세븐일레븐수원서둔중앙점","tel":"031-1577-0711","addr":"경기도 수원시 권선구 서둔동 17-276번지","indutype":"유통업 영리 - 편 의 점","category":"other"}]},{"lat":"37.271017285","long":"126.98448205","imageIndex":17,"items":[{"name":"세탁나라","tel":"031-296-8207","addr":"경기도 수원시 권선구 서둔동 199-12번지","indutype":"수리서비스 - 세탁소","category":"other"}]},{"lat":"37.271593487","long":"126.98175347","imageIndex":17,"items":[{"name":"세한설비(열쇠)","tel":"","addr":"경기도 수원시 권선구 서둔동 187-4번지","indutype":"용역 서비스 - 기타용역서비스","category":"other"}]},{"lat":"37.266566887","long":"126.98959016","imageIndex":17,"items":[{"name":"소잉룸 도담","tel":"031-233-5851","addr":"경기도 수원시 권선구 서둔동 39-37번지 1층","indutype":"문화.취미 - 문화취미기타","category":"other"}]},{"lat":"37.271070787","long":"126.98117861","imageIndex":17,"items":[{"name":"수원메디팜","tel":"031-294-8411","addr":"경기도 수원시 권선구 서둔동 183-1번지","indutype":"기타의료기관 - 기타의료기관 및 기타","category":"other"}]},{"lat":"37.267018041","long":"126.99784256","imageIndex":17,"items":[{"name":"스탈보드(stall boards)","tel":"031-292-5939","addr":"경기도 수원시 권선구 서둔동 296-3번지 1층 102호 수원역세권 9-1블럭","indutype":"레져용품 - 스포츠·레져용품","category":"other"}]},{"lat":"37.269628857","long":"126.97967955","imageIndex":17,"items":[{"name":"신원건재","tel":"031-292-6766","addr":"경기도 수원시 권선구 서둔동 158-2번지","indutype":"건축자재 - 기타건축자재","category":"other"}]},{"lat":"37.270791886","long":"126.98359142","imageIndex":17,"items":[{"name":"썬컴퓨터","tel":"","addr":"경기도 수원시 권선구 서둔동 200-41번지","indutype":"사무통신 - 컴퓨터","category":"other"}]},{"lat":"37.266350965","long":"126.99289342","imageIndex":17,"items":[{"name":"씨앤제이(C&J)","tel":"031-893-5977","addr":"경기도 수원시 권선구 서둔동 17-451번지","indutype":"전기제품 - 냉열기기","category":"other"}]},{"lat":"37.269045212","long":"126.99517044","imageIndex":17,"items":[{"name":"씨에스(CS)컴퍼니","tel":"031-893-5062","addr":"경기도 수원시 권선구 서둔동 17-436번지 1층","indutype":"수리서비스 - 기타수리서비스","category":"other"}]},{"lat":"37.268297016","long":"126.99103294","imageIndex":17,"items":[{"name":"씨유수원서둔스카이점","tel":"031-294-1912","addr":"경기도 수원시 권선구 서둔동 46-4번지 1층","indutype":"유통업 영리 - 편 의 점","category":"other"}]},{"lat":"37.270377786","long":"126.98603807","imageIndex":17,"items":[{"name":"씨유수원서둔점","tel":"031-292-0092","addr":"경기도 수원시 권선구 서둔동 106-8번지","indutype":"유통업 영리 - 편 의 점","category":"other"}]},{"lat":"37.270926718","long":"126.98170855","imageIndex":17,"items":[{"name":"씨유수원하이플러스점","tel":"031-296-9602","addr":"경기도 수원시 권선구 서둔동 184-11번지 부성리치빌 107동 101호","indutype":"유통업 영리 - 편 의 점","category":"other"}]},{"lat":"37.269350059","long":"126.98250947","imageIndex":17,"items":[{"name":"아미스토어","tel":"070-8841-0634","addr":"경기도 수원시 권선구 서둔동 150-3번지 101호","indutype":"신변잡화 - 기타잡화","category":"other"}]},{"lat":"37.27768385","long":"126.97869611","imageIndex":17,"items":[{"name":"아지트편의점","tel":"031-000-0000","addr":"경기도 수원시 권선구 서둔동 243-6번지 엔프라자 2층","indutype":"유통업 영리 - 편 의 점","category":"other"}]},{"lat":"37.269593741","long":"126.98501228","imageIndex":17,"items":[{"name":"에스시스템","tel":"070-8286-7610","addr":"경기도 수원시 권선구 서둔동 108-5번지","indutype":"전기제품 - 냉열기기","category":"other"}]},{"lat":"37.26532384","long":"126.99347978","imageIndex":17,"items":[{"name":"에어콘 나라","tel":"031-292-7532","addr":"경기도 수원시 권선구 서둔동 22번지","indutype":"용역 서비스 - 기타용역서비스","category":"other"}]},{"lat":"37.271124564","long":"126.97967909","imageIndex":17,"items":[{"name":"엔테크(N-Tech)","tel":"031-1111-1111","addr":"경기도 수원시 권선구 서둔동 179-15번지 101호","indutype":"서적문구 - 과학기자재","category":"other"}]},{"lat":"37.267296891","long":"126.9912022","imageIndex":17,"items":[{"name":"엘라인","tel":"070-4121-1364","addr":"경기도 수원시 권선구 서둔동 45-52번지 1동","indutype":"건축자재 - 조명기구","category":"other"}]},{"lat":"37.272062162","long":"126.98255383","imageIndex":17,"items":[{"name":"엘지에어컨공조(KID)","tel":"","addr":"경기도 수원시 권선구 서둔동 188-2번지 청한파크맨션 7동 109호","indutype":"용역 서비스 - 기타용역서비스","category":"other"}]},{"lat":"37.27053927","long":"126.98167484","imageIndex":17,"items":[{"name":"엘지유통","tel":"031-309-1882","addr":"경기도 수원시 권선구 서둔동 185-14 제2층 202호","indutype":"유통업 영리 - 기타유통업","category":"other"}]},{"lat":"37.266458996","long":"126.99184494","imageIndex":17,"items":[{"name":"여름n에어컨","tel":"","addr":"경기도 수원시 권선구 서둔동 17-351번지 1층","indutype":"용역 서비스 - 기타용역서비스","category":"other"}]},{"lat":"37.271071482","long":"126.98537272","imageIndex":17,"items":[{"name":"여인여인사진관","tel":"031-291-2058","addr":"경기도 수원시 권선구 서둔동 202-2번지","indutype":"광학제품 - 사진관","category":"other"}]},{"lat":"37.271044045","long":"126.98281342","imageIndex":17,"items":[{"name":"영광종합공사","tel":"031-295-4705","addr":"경기도 수원시 권선구 서둔동 200-50번지","indutype":"용역 서비스 - 기타용역서비스","category":"other"}]},{"lat":"37.265711128","long":"126.99169849","imageIndex":17,"items":[{"name":"영희피부관리","tel":"031-246-1558","addr":"경기도 수원시 권선구 서둔동 36번지","indutype":"회원제형태 - 기타4","category":"other"}]},{"lat":"37.278179382","long":"126.9785381","imageIndex":17,"items":[{"name":"예쁜옷수선집","tel":"031-296-4710","addr":"경기도 수원시 권선구 서둔동 243-51번지","indutype":"수리서비스 - 세탁소","category":"other"}]},{"lat":"37.271233711","long":"126.98567709","imageIndex":17,"items":[{"name":"오세요철물공구","tel":"031-239-3642","addr":"경기도 수원시 권선구 서둔동 207-15번지","indutype":"건축자재 - 목재·석재·철물","category":"other"}]},{"lat":"37.27062982","long":"126.98433557","imageIndex":17,"items":[{"name":"오컨설팅(OH Consulting)","tel":"070-4133-8109","addr":"경기도 수원시 권선구 서둔동 200-35번지 3층 301호","indutype":"용역 서비스 - 소프트웨어","category":"other"}]},{"lat":"37.263764763","long":"126.99028961","imageIndex":17,"items":[{"name":"위드미 수원서둔삼익점","tel":"","addr":"경기도 수원시 권선구 서둔동 27-138번지 삼익리베리움 310동 101호","indutype":"유통업 영리 - 편 의 점","category":"other"},{"name":"위드미 수원서둔삼익점","tel":"","addr":"경기도 수원시 권선구 서둔동 27-138번지 삼익리베리움 310동 101호","indutype":"유통업 영리 - 편 의 점","category":"other"}]},{"lat":"37.263846454","long":"126.99875591","imageIndex":17,"items":[{"name":"위드미 수원환승센터점","tel":"031-323-6016","addr":"경기도 수원시 권선구 서둔동 296-108번지 101호","indutype":"유통업 영리 - 편 의 점","category":"other"}]},{"lat":"37.271430885","long":"126.97953243","imageIndex":17,"items":[{"name":"유화설비","tel":"031-291-3613","addr":"경기도 수원시 권선구 서둔동 179-10번지","indutype":"용역 서비스 - 기타용역서비스","category":"other"}]},{"lat":"37.270538992","long":"126.98017535","imageIndex":17,"items":[{"name":"이디케이코퍼레이션","tel":"031-292-3327","addr":"경기도 수원시 권선구 서둔동 173번지","indutype":"서적문구 - 기타서적문구","category":"other"}]},{"lat":"37.266792147","long":"126.98961267","imageIndex":17,"items":[{"name":"이마트24 수원서둔점","tel":"031-000-0000","addr":"경기도 수원시 권선구 서둔동 39-19번지","indutype":"유통업 영리 - 편 의 점","category":"other"},{"name":"이마트24 수원서둔점","tel":"","addr":"경기도 수원시 권선구 서둔동 39-19번지","indutype":"유통업 영리 - 편 의 점","category":"other"}]},{"lat":"37.264900245","long":"126.9921721","imageIndex":17,"items":[{"name":"이환솔루션","tel":"031-293-2979","addr":"경기도 수원시 권선구 서둔동 17-239번지","indutype":"사무통신 - 기타 사무용품","category":"other"}]},{"lat":"37.263963118","long":"126.99156347","imageIndex":17,"items":[{"name":"자연애 공방","tel":"","addr":"경기도 수원시 권선구 서둔동 32-6번지 1층","indutype":"신변잡화 - 기타잡화","category":"other"}]},{"lat":"37.264179396","long":"126.99189037","imageIndex":17,"items":[{"name":"정호이엔지","tel":"031-278-4874","addr":"경기도 수원시 권선구 서둔동 33-1번지","indutype":"용역 서비스 - 기타용역서비스","category":"other"}]},{"lat":"37.266594162","long":"126.9919802","imageIndex":17,"items":[{"name":"제이난방","tel":"","addr":"경기도 수원시 권선구 서둔동 17-343번지","indutype":"수리서비스 - 기타수리서비스","category":"other"}]},{"lat":"37.26656694","long":"126.99006366","imageIndex":17,"items":[{"name":"제이케이배관","tel":"031-296-3160","addr":"경기도 수원시 권선구 서둔동 39-43번지","indutype":"건축자재 - 보일러·펌프·샷시","category":"other"}]},{"lat":"37.270180354","long":"126.99308457","imageIndex":17,"items":[{"name":"주식회사 경일정보","tel":"031-235-6920","addr":"경기도 수원시 권선구 서둔동 14-44번지 1동","indutype":"사무통신 - 통신기기","category":"other"},{"name":"주식회사 다우에프엔씨","tel":"031-278-0295","addr":"경기도 수원시 권선구 서둔동 14-44번지","indutype":"레져용품 - 스포츠·레져용품","category":"other"}]},{"lat":"37.264152326","long":"126.99147325","imageIndex":17,"items":[{"name":"주식회사 예찬","tel":"031-831-8687","addr":"경기도 수원시 권선구 서둔동 31-95번지 2층","indutype":"용역 서비스 - 종합용역","category":"other"}]},{"lat":"37.271205716","long":"126.97998348","imageIndex":17,"items":[{"name":"주식회사 태경전력","tel":"031-253-2141","addr":"경기도 수원시 권선구 서둔동 180-1번지","indutype":"용역 서비스 - 기타용역서비스","category":"other"}]},{"lat":"37.27472864","long":"126.97949759","imageIndex":17,"items":[{"name":"주식회사 하나환경개발","tel":"031-295-9550","addr":"경기도 수원시 권선구 서둔동 377번지 서수원울트라참누리파크 2층 201호","indutype":"용역 서비스 - 종합용역","category":"other"}]},{"lat":"37.269684053","long":"126.98645537","imageIndex":17,"items":[{"name":"주식회사에텔바이오","tel":"031-548-1680","addr":"경기도 수원시 권선구 서둔동 103-7번지 2층","indutype":"서적문구 - 과학기자재","category":"other"}]},{"lat":"37.262206359","long":"126.99456239","imageIndex":17,"items":[{"name":"진성기획","tel":"070-8991-0151","addr":"경기도 수원시 권선구 서둔동 333-22번지 1층 101호","indutype":"용역 서비스 - 종합용역","category":"other"}]},{"lat":"37.264963116","long":"126.99014285","imageIndex":17,"items":[{"name":"진솔기획","tel":"031-293-0383","addr":"경기도 수원시 권선구 서둔동 40-7번지","indutype":"서적문구 - 출판 및 인쇄물","category":"other"}]},{"lat":"37.268179843","long":"126.99064964","imageIndex":17,"items":[{"name":"진흥전자","tel":"031-295-2190","addr":"경기도 수원시 권선구 서둔동 45-10번지","indutype":"수리서비스 - 가정용품수리","category":"other"}]},{"lat":"37.264206613","long":"126.9941225","imageIndex":17,"items":[{"name":"천마골재수원점","tel":"031-293-9035","addr":"경기도 수원시 권선구 서둔동 323-66번지 정면좌측","indutype":"건축자재 - 기타건축자재","category":"other"}]},{"lat":"37.270755446","long":"126.98128017","imageIndex":17,"items":[{"name":"친절한 낙화씨","tel":"070-4242-8987","addr":"경기도 수원시 권선구 서둔동 184-5번지 부성리치빌 104동 B02호","indutype":"문화.취미 - 화랑","category":"other"}]},{"lat":"37.268324404","long":"126.99540727","imageIndex":17,"items":[{"name":"쿡 앤 베이크","tel":"","addr":"경기도 수원시 권선구 서둔동 371번지 센트라우스 113동 202호","indutype":"문화.취미 - 문화취미기타","category":"other"}]},{"lat":"37.266792463","long":"126.99281444","imageIndex":17,"items":[{"name":"크린워터","tel":"031-226-1347","addr":"경기도 수원시 권선구 서둔동 17-597번지 가동 106호","indutype":"용역 서비스 - 종합용역","category":"other"}]},{"lat":"37.266630375","long":"126.99403203","imageIndex":17,"items":[{"name":"크린토피아센트라우스점","tel":"031-291-7755","addr":"경기도 수원시 권선구 서둔동 17-65번지 정안빌딩 101호","indutype":"수리서비스 - 세탁소","category":"other"}]},{"lat":"37.268430782","long":"126.98122447","imageIndex":17,"items":[{"name":"퍼스트 건축설비","tel":"","addr":"경기도 수원시 권선구 서둔동 95-54번지","indutype":"용역 서비스 - 기타용역서비스","category":"other"}]},{"lat":"37.270404773","long":"126.98573365","imageIndex":17,"items":[{"name":"푸른정보통신","tel":"031-203-8057","addr":"경기도 수원시 권선구 서둔동 107-1번지 2층","indutype":"사무통신 - 통신기기","category":"other"}]},{"lat":"37.27079201","long":"126.98436936","imageIndex":17,"items":[{"name":"프렌즈","tel":"031-293-3620","addr":"경기도 수원시 권선구 서둔동 200-38번지 102호","indutype":"의류 - 정장","category":"other"}]},{"lat":"37.269072049","long":"126.99262248","imageIndex":17,"items":[{"name":"한국계기","tel":"031-295-3431","addr":"경기도 수원시 권선구 서둔동 14-6번지","indutype":"기타 - 기타 전문점","category":"other"}]},{"lat":"37.268873959","long":"126.99433617","imageIndex":17,"items":[{"name":"한국공원조경주식회사","tel":"031-267-1211","addr":"경기도 수원시 권선구 서둔동 17-161번지","indutype":"건축자재 - 인테리어전문","category":"other"}]},{"lat":"37.269296495","long":"126.98564371","imageIndex":17,"items":[{"name":"한국기계공구","tel":"031-254-5050","addr":"경기도 수원시 권선구 서둔동 103-10번지","indutype":"기타 - 기계공구","category":"other"}]},{"lat":"37.272377754","long":"126.98395181","imageIndex":17,"items":[{"name":"한국잡초학회","tel":"031-290-0565","addr":"경기도 수원시 권선구 서둔동 209번지","indutype":"기타 - 비영리/대상","category":"other"}]},{"lat":"37.261872998","long":"126.99484425","imageIndex":17,"items":[{"name":"한양목재","tel":"031-238-3953","addr":"경기도 수원시 권선구 서둔동 333-36번지","indutype":"건축자재 - 기타건축자재","category":"other"}]},{"lat":"37.267792248","long":"126.98925173","imageIndex":17,"items":[{"name":"형민사","tel":"031-292-0100","addr":"경기도 수원시 권선구 서둔동 51-2번지","indutype":"서적문구 - 출판 및 인쇄물","category":"other"}]},{"lat":"37.267143578","long":"126.98988318","imageIndex":17,"items":[{"name":"화성과일상회","tel":"031-303-9686","addr":"경기도 수원시 권선구 서둔동 39-51번지 세종하이빌 107동 201호","indutype":"회원제형태 - 기타1","category":"other"}]}]