[{"lat":"37.630028904","long":"127.28821187","imageIndex":17,"items":[{"name":"(주)비피판넬","tel":"031-000-0000","addr":"경기도 남양주시 화도읍 차산리 837번지 다동 1층","indutype":"건축자재 - 기타건축자재","category":"other"}]},{"lat":"37.62603557","long":"127.30354581","imageIndex":17,"items":[{"name":"(주)서비디자인","tel":"070-7574-5244","addr":"경기도 남양주시 화도읍 차산리 261-2번지","indutype":"가구 - 일반가구","category":"other"}]},{"lat":"37.633973568","long":"127.30688587","imageIndex":17,"items":[{"name":"(주)수목정보시스템","tel":"031-595-8420","addr":"경기도 남양주시 화도읍 차산리 37-18번지","indutype":"전기제품 - 가전제품","category":"other"}]},{"lat":"37.637347173","long":"127.30180132","imageIndex":17,"items":[{"name":"GOGO글로벌","tel":"031-111-1111","addr":"경기도 남양주시 화도읍 차산리 86-17번지 한림로얄팰리스 102동 101호","indutype":"의류 - 아동의류","category":"other"}]},{"lat":"37.631722738","long":"127.30274173","imageIndex":17,"items":[{"name":"간지골프","tel":"031-595-1871","addr":"경기도 남양주시 화도읍 차산리 149-16번지","indutype":"레져용품 - 스포츠·레져용품","category":"other"}]},{"lat":"37.632056644","long":"127.29168622","imageIndex":17,"items":[{"name":"경일금속","tel":"031-594-8074","addr":"경기도 남양주시 화도읍 차산리 737-3","indutype":"신변잡화 - 기타잡화","category":"other"}]},{"lat":"37.627807282","long":"127.30479904","imageIndex":17,"items":[{"name":"고려불상조각원","tel":"031-566-8821","addr":"경기도 남양주시 화도읍 차산리 237-5번지","indutype":"기타 - 기타 전문점","category":"other"}]},{"lat":"37.621644106","long":"127.31196686","imageIndex":17,"items":[{"name":"골프라인샵","tel":"031-592-2292","addr":"경기도 남양주시 화도읍 차산리 369-8번지 그린힐골프클럽1층","indutype":"레져용품 - 스포츠·레져용품","category":"other"},{"name":"그린힐골프클럽","tel":"031-595-5400","addr":"경기도 남양주시 화도읍 차산리 369-8번지 6필지","indutype":"회원제형태 - 레져업소","category":"other"}]},{"lat":"37.633611794","long":"127.28943777","imageIndex":17,"items":[{"name":"굿아트 (good art)","tel":"070-8237-0464","addr":"경기도 남양주시 화도읍 차산리 806-4번지 2층","indutype":"용역 서비스 - 종합용역","category":"other"}]},{"lat":"37.622862328","long":"127.30071252","imageIndex":17,"items":[{"name":"그린앤씨 주식회사","tel":"070-4699-3700","addr":"경기도 남양주시 화도읍 차산리 601-1번지","indutype":"농업 - 농기계","category":"other"}]},{"lat":"37.630952636","long":"127.28997133","imageIndex":17,"items":[{"name":"금강우레탄","tel":"031-594-0139","addr":"경기도 남양주시 화도읍 차산리 711-7","indutype":"직물 - 기타직물","category":"other"}]},{"lat":"37.629643761","long":"127.30184976","imageIndex":17,"items":[{"name":"꿈에가구","tel":"031-559-8821","addr":"경기도 남양주시 화도읍 차산리 200-2번지","indutype":"가구 - 일반가구","category":"other"}]},{"lat":"37.619673378","long":"127.30051857","imageIndex":17,"items":[{"name":"네오퍼니처","tel":"070-4914-0730","addr":"경기도 남양주시 화도읍 차산리 511번지","indutype":"가구 - 일반가구","category":"other"}]},{"lat":"37.617591621","long":"127.30427069","imageIndex":17,"items":[{"name":"다이팩토리","tel":"","addr":"경기도 남양주시 화도읍 차산리 553-4번지","indutype":"전기제품 - 가전제품","category":"other"}]},{"lat":"37.6332265","long":"127.3065996","imageIndex":17,"items":[{"name":"대니버거","tel":"031-511-5589","addr":"경기도 남양주시 화도읍 차산리 30-4번지 101호","indutype":"용역 서비스 - 사무서비스","category":"other"}]},{"lat":"37.63283643","long":"127.30762894","imageIndex":17,"items":[{"name":"대성산업","tel":"031-595-9621","addr":"경기도 남양주시 화도읍 차산리 27-20","indutype":"신변잡화 - 기타잡화","category":"other"}]},{"lat":"37.616784649","long":"127.30273836","imageIndex":17,"items":[{"name":"대영홈케어","tel":"","addr":"경기도 남양주시 화도읍 차산리 532-14번지","indutype":"용역 서비스 - 종합용역","category":"other"}]},{"lat":"37.62439588","long":"127.29635752","imageIndex":17,"items":[{"name":"대운기기산업","tel":"031-593-3228","addr":"경기도 남양주시 화도읍 차산리 645-2","indutype":"전기제품 - 기타전기제품","category":"other"}]},{"lat":"37.621368877","long":"127.30341375","imageIndex":17,"items":[{"name":"두영에스티","tel":"031-594-8328","addr":"경기도 남양주시 화도읍 차산리 350-1번지","indutype":"건축자재 - 기타건축자재","category":"other"}]},{"lat":"37.6260027","long":"127.30229962","imageIndex":17,"items":[{"name":"디에이치업소몰","tel":"070-7684-6486","addr":"경기도 남양주시 화도읍 차산리 274-1번지 가동","indutype":"주방용구 - 주방용구","category":"other"},{"name":"디에이치업소몰","tel":"070-4197-4353","addr":"경기도 남양주시 화도읍 차산리 274-1번지 1층","indutype":"가구 - 일반가구","category":"other"}]},{"lat":"37.632556706","long":"127.28983022","imageIndex":17,"items":[{"name":"디에프(D.F)","tel":"031-542-0950","addr":"경기도 남양주시 화도읍 차산리 750-1번지","indutype":"가구 - 일반가구","category":"other"}]},{"lat":"37.628888751","long":"127.2865196","imageIndex":17,"items":[{"name":"디엔파워 주식회사","tel":"031-593-5548","addr":"경기도 남양주시 화도읍 차산리 839-1번지","indutype":"전기제품 - 기타전기제품","category":"other"}]},{"lat":"37.632281885","long":"127.29168709","imageIndex":17,"items":[{"name":"마강공방","tel":"031-0593-4559","addr":"경기도 남양주시 화도읍 차산리 737-2번지","indutype":"가구 - 일반가구","category":"other"},{"name":"유창근부동산","tel":"031-594-1940","addr":"경기도 남양주시 화도읍 차산리 737-2번지 735동 736호","indutype":"용역 서비스 - 부동산 중개·임대","category":"other"}]},{"lat":"37.63341674","long":"127.30968185","imageIndex":17,"items":[{"name":"마석가구광장","tel":"031-594-0332","addr":"경기도 남양주시 화도읍 차산리 18-1","indutype":"가구 - 일반가구","category":"other"}]},{"lat":"37.63359186","long":"127.30816449","imageIndex":17,"items":[{"name":"명재정밀","tel":"031-571-1182","addr":"경기도 남양주시 화도읍 차산리 17-3번지","indutype":"기타 - 기계공구","category":"other"}]},{"lat":"37.634393898","long":"127.29746177","imageIndex":17,"items":[{"name":"명진아크릴","tel":"031-593-9237","addr":"경기도 남양주시 화도읍 차산리 114","indutype":"용역 서비스 - 종합용역","category":"other"}]},{"lat":"37.638250859","long":"127.30427481","imageIndex":17,"items":[{"name":"모던인테리어","tel":"031-592-6866","addr":"경기도 남양주시 화도읍 차산리 63-1번지","indutype":"건축자재 - 인테리어전문","category":"other"},{"name":"우리네부동산공인중개사사무소","tel":"031-592-5454","addr":"경기도 남양주시 화도읍 차산리 63-1번지 (주)우리네마트 1층 105호","indutype":"용역 서비스 - 부동산 중개·임대","category":"other"},{"name":"창현철물전기","tel":"031-595-5922","addr":"경기도 남양주시 화도읍 차산리 63-1번지 외2필지","indutype":"건축자재 - 목재·석재·철물","category":"other"},{"name":"케이휘트니스","tel":"031-594-9989","addr":"경기도 남양주시 화도읍 차산리 63-1번지 3층","indutype":"회원제형태 - 레져업소","category":"other"}]},{"lat":"37.630257543","long":"127.29052375","imageIndex":17,"items":[{"name":"문성산업","tel":"031-1577-9936","addr":"경기도 남양주시 화도읍 차산리 709-2번지","indutype":"전기제품 - 기타전기제품","category":"other"}]},{"lat":"37.638306969","long":"127.30347062","imageIndex":17,"items":[{"name":"뮤직오페라","tel":"031-511-2060","addr":"경기도 남양주시 화도읍 차산리 94-2번지 2층","indutype":"레져용품 - 음반/영상물","category":"other"}]},{"lat":"37.623672623","long":"127.3044878","imageIndex":17,"items":[{"name":"미피아세","tel":"","addr":"경기도 남양주시 화도읍 차산리 302-1번지","indutype":"의류 - 기타의류","category":"other"}]},{"lat":"37.623620678","long":"127.30010387","imageIndex":17,"items":[{"name":"보성그래픽스","tel":"031-595-9585","addr":"경기도 남양주시 화도읍 차산리 630-1","indutype":"건축자재 - 기타건축자재","category":"other"}]},{"lat":"37.618870495","long":"127.3044684","imageIndex":17,"items":[{"name":"보우팩","tel":"031-592-7752","addr":"경기도 남양주시 화도읍 차산리 557-2번지 주2동","indutype":"기타 - 기계공구","category":"other"}]},{"lat":"37.631563358","long":"127.29076668","imageIndex":17,"items":[{"name":"부성분체도장","tel":"","addr":"경기도 남양주시 화도읍 차산리 740-2번지","indutype":"용역 서비스 - 기타용역서비스","category":"other"}]},{"lat":"37.620282338","long":"127.30551619","imageIndex":17,"items":[{"name":"부흥가설재상사","tel":"031-7864-1177","addr":"경기도 남양주시 화도읍 차산리 357-4번지","indutype":"건축자재 - 기타건축자재","category":"other"}]},{"lat":"37.62989548","long":"127.30560047","imageIndex":17,"items":[{"name":"삼흥화학","tel":"031-593-9334","addr":"경기도 남양주시 화도읍 차산리 226-2번지","indutype":"기타 - 기타 전문점","category":"other"}]},{"lat":"37.63244547","long":"127.29110995","imageIndex":17,"items":[{"name":"상상스토리","tel":"031-594-2229","addr":"경기도 남양주시 화도읍 차산리 746번지","indutype":"주방용구 - 주방용식기","category":"other"}]},{"lat":"37.634033089","long":"127.29763028","imageIndex":17,"items":[{"name":"서울철물","tel":"031-593-2667","addr":"경기도 남양주시 화도읍 차산리 133번지","indutype":"건축자재 - 기타건축자재","category":"other"}]},{"lat":"37.627812078","long":"127.30644163","imageIndex":17,"items":[{"name":"성광모피","tel":"02-2215-7459","addr":"경기도 남양주시 화도읍 차산리 237-29번지 가동","indutype":"의류 - 기타의류","category":"other"}]},{"lat":"37.63511685","long":"127.303741","imageIndex":17,"items":[{"name":"세븐일레븐남양주차산점","tel":"031-1577-0711","addr":"경기도 남양주시 화도읍 차산리 75번지","indutype":"유통업 영리 - 편 의 점","category":"other"}]},{"lat":"37.635917244","long":"127.30782279","imageIndex":17,"items":[{"name":"세븐일레븐차산풍림점","tel":"031-1577-0711","addr":"경기도 남양주시 화도읍 차산리 49번지 늘찬빌 201동 1층 101호","indutype":"유통업 영리 - 편 의 점","category":"other"}]},{"lat":"37.633834418","long":"127.30493671","imageIndex":17,"items":[{"name":"센토사 인터내셔널(SENTO SA INTENNATIONAL","tel":"031-513-4665","addr":"경기도 남양주시 화도읍 차산리 166-13번지 1동","indutype":"가구 - 일반가구","category":"other"}]},{"lat":"37.63275382","long":"127.3082177","imageIndex":17,"items":[{"name":"솔기","tel":"031-515-9389","addr":"경기도 남양주시 화도읍 차산리 19-3번지","indutype":"직물 - 옷감·직물","category":"other"}]},{"lat":"37.630112785","long":"127.3051822","imageIndex":17,"items":[{"name":"송천포장","tel":"031-593-2568","addr":"경기도 남양주시 화도읍 차산리 227-1","indutype":"유통업 영리 - 기타유통업","category":"other"}]},{"lat":"37.627534277","long":"127.30232842","imageIndex":17,"items":[{"name":"씨유화도고래산점","tel":"031-511-0627","addr":"경기도 남양주시 화도읍 차산리 208번지 101호","indutype":"유통업 영리 - 편 의 점","category":"other"}]},{"lat":"37.633451774","long":"127.29224673","imageIndex":17,"items":[{"name":"씨유화도원차산점","tel":"031-592-4483","addr":"경기도 남양주시 화도읍 차산리 771번지","indutype":"유통업 영리 - 편 의 점","category":"other"},{"name":"에드워드소파","tel":"031-511-9580","addr":"경기도 남양주시 화도읍 차산리 771","indutype":"가구 - 일반가구","category":"other"}]},{"lat":"37.633088911","long":"127.31101731","imageIndex":17,"items":[{"name":"아로마코코","tel":"031-594-0912","addr":"경기도 남양주시 화도읍 차산리 10-6번지 나동","indutype":"신변잡화 - 기타잡화","category":"other"}]},{"lat":"37.636113325","long":"127.30514986","imageIndex":17,"items":[{"name":"아쿠아 덴","tel":"031-511-9661","addr":"경기도 남양주시 화도읍 차산리 875번지 신창현풍림아이원1차 102동 1301호","indutype":"전기제품 - 가전제품","category":"other"}]},{"lat":"37.633757151","long":"127.30344097","imageIndex":17,"items":[{"name":"아쿠아가든 남양주점","tel":"","addr":"경기도 남양주시 화도읍 차산리 156-2번지 내 156-15","indutype":"문화.취미 - 애완동물","category":"other"}]},{"lat":"37.619087033","long":"127.30785598","imageIndex":17,"items":[{"name":"알뜰시장","tel":"031-0000-0000","addr":"경기도 남양주시 화도읍 차산리 372-7번지 102호","indutype":"회원제형태 - 기타1","category":"other"}]},{"lat":"37.627000378","long":"127.30324384","imageIndex":17,"items":[{"name":"에스와이 디자인 (SY DESIGN)","tel":"070-4202-1075","addr":"경기도 남양주시 화도읍 차산리 261-4번지 1층","indutype":"가구 - 일반가구","category":"other"}]},{"lat":"37.632728891","long":"127.29310492","imageIndex":17,"items":[{"name":"에스크","tel":"031-592-2494","addr":"경기도 남양주시 화도읍 차산리 725번지","indutype":"가구 - 일반가구","category":"other"}]},{"lat":"37.624756876","long":"127.28876943","imageIndex":17,"items":[{"name":"영광운송","tel":"031-593-0019","addr":"경기도 남양주시 화도읍 차산리 846","indutype":"용역 서비스 - 가례서비스업","category":"other"}]},{"lat":"37.6249538","long":"127.29663158","imageIndex":17,"items":[{"name":"영파이팅","tel":"031-551-9375","addr":"경기도 남양주시 화도읍 차산리 650-2","indutype":"주방용구 - 주방용구","category":"other"}]},{"lat":"37.635946599","long":"127.30340447","imageIndex":17,"items":[{"name":"예맥","tel":"595-595-1127","addr":"경기도 남양주시 화도읍 차산리 76-1번지","indutype":"신변잡화 - 기념품점","category":"other"}]},{"lat":"37.626286583","long":"127.3004883","imageIndex":17,"items":[{"name":"예스 아이템","tel":"","addr":"경기도 남양주시 화도읍 차산리 664-3번지","indutype":"신변잡화 - 기타잡화","category":"other"}]},{"lat":"37.633507666","long":"127.29515849","imageIndex":17,"items":[{"name":"우신기획","tel":"031-877-8650","addr":"경기도 남양주시 화도읍 차산리 775-6번지","indutype":"용역 서비스 - 종합용역","category":"other"}]},{"lat":"37.634251506","long":"127.30035012","imageIndex":17,"items":[{"name":"유명가설산업","tel":"031-595-4204","addr":"경기도 남양주시 화도읍 차산리 140","indutype":"기타 - 기계공구","category":"other"}]},{"lat":"37.62622906","long":"127.30185874","imageIndex":17,"items":[{"name":"유병은부동산","tel":"031-593-1907","addr":"경기도 남양주시 화도읍 차산리 274-2번지 274호","indutype":"용역 서비스 - 부동산 중개·임대","category":"other"}]},{"lat":"37.62739759","long":"127.29210998","imageIndex":17,"items":[{"name":"유엠 주식회사","tel":"031-595-2230","addr":"경기도 남양주시 화도읍 차산리 861-6번지","indutype":"전기제품 - 가전제품","category":"other"}]},{"lat":"37.618282231","long":"127.30549675","imageIndex":17,"items":[{"name":"유원플랜트","tel":"02-478-1194","addr":"경기도 남양주시 화도읍 차산리 561번지","indutype":"용역 서비스 - 기타용역서비스","category":"other"}]},{"lat":"37.633674649","long":"127.30399576","imageIndex":17,"items":[{"name":"윤덕쇼파","tel":"031-511-1356","addr":"경기도 남양주시 화도읍 차산리 166-6번지","indutype":"가구 - 일반가구","category":"other"}]},{"lat":"37.618562893","long":"127.30496554","imageIndex":17,"items":[{"name":"은성퍼니처ESF","tel":"031-593-8136","addr":"경기도 남양주시 화도읍 차산리 559-3","indutype":"가구 - 일반가구","category":"other"}]},{"lat":"37.622342435","long":"127.30321378","imageIndex":17,"items":[{"name":"이마트24 차산공단점","tel":"","addr":"경기도 남양주시 화도읍 차산리 307-3번지 1층","indutype":"유통업 영리 - 편 의 점","category":"other"}]},{"lat":"37.636174532","long":"127.30587519","imageIndex":17,"items":[{"name":"이마트24 차산풍림점","tel":"","addr":"경기도 남양주시 화도읍 차산리 875번지 신창현풍림아이원1차 상가동 103호","indutype":"유통업 영리 - 편 의 점","category":"other"}]},{"lat":"37.623810453","long":"127.28893571","imageIndex":17,"items":[{"name":"재단법인 에덴","tel":"031-591-7758","addr":"경기도 남양주시 화도읍 차산리 850-4번지","indutype":"용역 서비스 - 가례서비스업","category":"other"}]},{"lat":"37.632119017","long":"127.30279996","imageIndex":17,"items":[{"name":"정원산업","tel":"031-594-3007","addr":"경기도 남양주시 화도읍 차산리 150번지","indutype":"기타 - 기계공구","category":"other"}]},{"lat":"37.623868945","long":"127.28710088","imageIndex":17,"items":[{"name":"제영ENG","tel":"031-511-0502","addr":"경기도 남양주시 화도읍 차산리 872-5번지","indutype":"기타 - 기계공구","category":"other"}]},{"lat":"37.628418224","long":"127.30193548","imageIndex":17,"items":[{"name":"제일장갑테이프","tel":"031-593-7373","addr":"경기도 남양주시 화도읍 차산리 204-4번지","indutype":"신변잡화 - 기타잡화","category":"other"}]},{"lat":"37.634673111","long":"127.29749686","imageIndex":17,"items":[{"name":"주식회사 머치슨앤파이워터","tel":"031-595-4559","addr":"경기도 남양주시 화도읍 차산리 114-4번지","indutype":"주방용구 - 정수기","category":"other"}]},{"lat":"37.619643642","long":"127.30512849","imageIndex":17,"items":[{"name":"주식회사 에스케이전기","tel":"031-511-9935","addr":"경기도 남양주시 화도읍 차산리 357-15번지","indutype":"용역 서비스 - 기타용역서비스","category":"other"}]},{"lat":"37.627280802","long":"127.30632619","imageIndex":17,"items":[{"name":"주식회사 원환경솔루션","tel":"031-595-5463","addr":"경기도 남양주시 화도읍 차산리 237-17번지 1층","indutype":"전기제품 - 기타전기제품","category":"other"},{"name":"화도ENG","tel":"031-559-9254","addr":"경기도 남양주시 화도읍 차산리 237-17번지 1층","indutype":"주방용구 - 주방용구","category":"other"}]},{"lat":"37.619338599","long":"127.30812885","imageIndex":17,"items":[{"name":"주식회사 이에프티코리아","tel":"070-8827-2665","addr":"경기도 남양주시 화도읍 차산리 386-2번지","indutype":"서적문구 - 출판 및 인쇄물","category":"other"}]},{"lat":"37.624115656","long":"127.30387791","imageIndex":17,"items":[{"name":"주식회사 인옥션","tel":"031-595-7290","addr":"경기도 남양주시 화도읍 차산리 300-1번지","indutype":"문화.취미 - 골동품점","category":"other"}]},{"lat":"37.630453013","long":"127.28794161","imageIndex":17,"items":[{"name":"주식회사 재림종합상사","tel":"031-574-1118","addr":"경기도 남양주시 화도읍 차산리 827-2번지 가동","indutype":"건축자재 - 기타건축자재","category":"other"}]},{"lat":"37.633839604","long":"127.2920783","imageIndex":17,"items":[{"name":"주식회사 청담아이스","tel":"031-593-0490","addr":"경기도 남양주시 화도읍 차산리 778번지","indutype":"유통업 영리 - 기타유통업","category":"other"}]},{"lat":"37.630336078","long":"127.30594211","imageIndex":17,"items":[{"name":"주식회사전시렌탈일일구","tel":"031-1800-7221","addr":"경기도 남양주시 화도읍 차산리 225-1번지 (전시렌탈119)","indutype":"가구 - 기타가구","category":"other"}]},{"lat":"37.638171824","long":"127.29991256","imageIndex":17,"items":[{"name":"주식회사젠트리움","tel":"031-559-1239","addr":"경기도 남양주시 화도읍 차산리 874번지 신창현풍림아이원2차 상가동 102호","indutype":"건축자재 - 부동산 분양","category":"other"}]},{"lat":"37.636784693","long":"127.30332854","imageIndex":17,"items":[{"name":"주원ENG","tel":"031-592-7402","addr":"경기도 남양주시 화도읍 차산리 83-6번지 2층","indutype":"용역 서비스 - 기타용역서비스","category":"other"}]},{"lat":"37.628200074","long":"127.30621665","imageIndex":17,"items":[{"name":"지미디자인","tel":"031-594-1202","addr":"경기도 남양주시 화도읍 차산리 237-50번지","indutype":"가구 - 일반가구","category":"other"}]},{"lat":"37.620945619","long":"127.29977606","imageIndex":17,"items":[{"name":"차산프레스트빌","tel":"031-2266-6929","addr":"경기도 남양주시 화도읍 차산리 599-13번지","indutype":"건축자재 - 부동산 분양","category":"other"}]},{"lat":"37.631615644","long":"127.29149192","imageIndex":17,"items":[{"name":"창조ENG","tel":"031-594-3083","addr":"경기도 남양주시 화도읍 차산리 734-5번지","indutype":"건축자재 - 인테리어전문","category":"other"}]},{"lat":"37.626453411","long":"127.3022108","imageIndex":17,"items":[{"name":"충남화학","tel":"","addr":"경기도 남양주시 화도읍 차산리 275번지 대영코리아","indutype":"유통업 영리 - 기타유통업","category":"other"}]},{"lat":"37.635714344","long":"127.30614522","imageIndex":17,"items":[{"name":"코벤트","tel":"031-577-9841","addr":"경기도 남양주시 화도읍 차산리 875번지 신창현풍림아이원1차 104동 1102호","indutype":"가구 - 일반가구","category":"other"}]},{"lat":"37.633645362","long":"127.3048793","imageIndex":17,"items":[{"name":"태림문구","tel":"031-559-4901","addr":"경기도 남양주시 화도읍 차산리 166-3번지","indutype":"서적문구 - 문구용품","category":"other"}]},{"lat":"37.634142788","long":"127.29699629","imageIndex":17,"items":[{"name":"태성브라인드","tel":"031-591-2031","addr":"경기도 남양주시 화도읍 차산리 115번지 1,3층","indutype":"직물 - 카페트,커튼,천막,지물","category":"other"}]},{"lat":"37.625837073","long":"127.30010136","imageIndex":17,"items":[{"name":"티알에스(T.R.S)","tel":"031-559-6872","addr":"경기도 남양주시 화도읍 차산리 662-1번지","indutype":"가구 - 일반가구","category":"other"}]},{"lat":"37.629701541","long":"127.3003773","imageIndex":17,"items":[{"name":"티피오인터내셔널","tel":"031-559-5017","addr":"경기도 남양주시 화도읍 차산리 686번지 1층","indutype":"레져용품 - 스포츠·레져용품","category":"other"}]},{"lat":"37.63855918","long":"127.3034943","imageIndex":17,"items":[{"name":"평화모터","tel":"031-594-9197","addr":"경기도 남양주시 화도읍 차산리 94-3","indutype":"기타 - 기계공구","category":"other"}]},{"lat":"37.636063291","long":"127.30357488","imageIndex":17,"items":[{"name":"피알시대","tel":"031-511-1580","addr":"경기도 남양주시 화도읍 차산리 64-2번지","indutype":"용역 서비스 - 종합용역","category":"other"}]},{"lat":"37.630786482","long":"127.291602","imageIndex":17,"items":[{"name":"한국SYSTEM","tel":"031-559-4997","addr":"경기도 남양주시 화도읍 차산리 702","indutype":"건축자재 - 조명기구","category":"other"}]},{"lat":"37.633587219","long":"127.29938451","imageIndex":17,"items":[{"name":"한국중고자원","tel":"031-559-8994","addr":"경기도 남양주시 화도읍 차산리 138-2","indutype":"건축자재 - 목재·석재·철물","category":"other"}]},{"lat":"37.631557476","long":"127.30746512","imageIndex":17,"items":[{"name":"헤르만쇼파","tel":"031-591-3738","addr":"경기도 남양주시 화도읍 차산리 25-2번지","indutype":"가구 - 일반가구","category":"other"}]},{"lat":"37.634277254","long":"127.29726872","imageIndex":17,"items":[{"name":"효실버노인복지센터","tel":"031-555-5095","addr":"경기도 남양주시 화도읍 차산리 115-4번지","indutype":"기타의료기관 - 기타의료기관 및 기타","category":"other"}]},{"lat":"37.636451324","long":"127.30685064","imageIndex":17,"items":[{"name":"희망철물","tel":"031-511-3995","addr":"경기도 남양주시 화도읍 차산리 52","indutype":"건축자재 - 목재·석재·철물","category":"other"}]}]