[{"lat":"37.031548586","long":"127.30217541","items":[{"name":"남당설계연구소","tel":"031-672-7644","addr":"경기도 안성시 보개면 곡천리 4-1번지","category":"문화.취미 - 민예·공예품"}]},{"lat":"37.027914373","long":"127.29975614","items":[{"name":"세븐일레븐안성남사당점","tel":"031-1577-0711","addr":"경기도 안성시 보개면 곡천리 23번지 1층","category":"유통업 영리 - 편 의 점"}]},{"lat":"37.03196222","long":"127.3025142","items":[{"name":"일신기업","tel":"031-671-0707","addr":"경기도 안성시 보개면 곡천리 2-2번지","category":"신변잡화 - 기타잡화"}]},{"lat":"37.030963808","long":"127.30181347","items":[{"name":"지원편의점","tel":"031-675-1868","addr":"경기도 안성시 보개면 곡천리 10-7","category":"유통업 영리 - 슈퍼마켓"}]},{"lat":"37.028406459","long":"127.29754407","items":[{"name":"콩차","tel":"031-1111-1111","addr":"경기도 안성시 보개면 곡천리 33번지 1층","category":"일반휴게음식 - 서양음식"}]},{"lat":"37.031575391","long":"127.30226543","items":[{"name":"프롬(From)302","tel":"031-676-7179","addr":"경기도 안성시 보개면 곡천리 3번지","category":"일반휴게음식 - 서양음식"}]},{"lat":"37.028461917","long":"127.29698236","items":[{"name":"햇병아리어린이집[어린이집]","tel":"031-675-9393","addr":"경기도 안성시 보개면 곡천리 31번지","category":"학원 - 유아원"}]}]