[{"lat":"37.383698087","long":"126.95150649","imageIndex":0,"items":[{"name":"매직터치 호계점","tel":"031-429-3396","addr":"경기도 안양시 동안구 경수대로","indutype":"자동차정비 유지 - 카인테리어","category":"car"}]},{"lat":"37.381031747","long":"126.95303258","imageIndex":0,"items":[{"name":"물좋은 세차장","tel":"070-7503-6424","addr":"경기도 안양시 동안구 경수대로","indutype":"자동차정비 유지 - 세차장","category":"car"}]},{"lat":"37.381671312","long":"126.95267085","imageIndex":0,"items":[{"name":"삼신자동차공업사","tel":"031-429-7282","addr":"경기도 안양시 동안구 경수대로","indutype":"자동차정비 유지 - 자동차정비","category":"car"}]},{"lat":"37.393415189","long":"126.9414493","imageIndex":0,"items":[{"name":"스피드메이트 비산점","tel":"031-468-3295","addr":"경기도 안양시 동안구 경수대로","indutype":"자동차정비 유지 - 자동차부품","category":"car"}]},{"lat":"37.366752598","long":"126.95776074","imageIndex":0,"items":[{"name":"스피드메이트안양호계점","tel":"031-477-0620","addr":"경기도 안양시 동안구 경수대로","indutype":"자동차정비 유지 - 자동차시트·타이어","category":"car"}]},{"lat":"37.366446262","long":"126.9577835","imageIndex":0,"items":[{"name":"쌍용자동차 동안부품대리점","tel":"031-456-8285","addr":"경기도 안양시 동안구 경수대로","indutype":"자동차정비 유지 - 자동차부품","category":"car"}]},{"lat":"37.388003641","long":"126.94864669","imageIndex":0,"items":[{"name":"이카루스","tel":"031-427-7282","addr":"경기도 안양시 동안구 경수대로","indutype":"자동차정비 유지 - 자동차정비","category":"car"}]}]