[{"lat":"37.03958008","long":"127.28245805","imageIndex":17,"items":[{"name":"(주)한국청소년리더십센터","tel":"02-2106-4179","addr":"경기도 안성시 보개면 기좌리 312-4번지","indutype":"용역 서비스 - 사무서비스","category":"other"}]},{"lat":"37.031993398","long":"127.28615035","imageIndex":17,"items":[{"name":"GS25안성보개점","tel":"02-2006-2485","addr":"경기도 안성시 보개면 기좌리 180-15","indutype":"유통업 영리 - 편 의 점","category":"other"}]},{"lat":"37.042321747","long":"127.29637262","imageIndex":17,"items":[{"name":"농업회사법인(주)예송","tel":"031-674-8827","addr":"경기도 안성시 보개면 기좌리 13-2번지","indutype":"용역 서비스 - 기타용역서비스","category":"other"}]},{"lat":"37.042241347","long":"127.2960913","imageIndex":17,"items":[{"name":"농업회사법인주식회사칠장재","tel":"031-674-8827","addr":"경기도 안성시 보개면 기좌리 13-3번지","indutype":"농업 - 기타농업관련","category":"other"}]},{"lat":"37.03690714","long":"127.28867506","imageIndex":17,"items":[{"name":"세븐일레븐안성보개점","tel":"031-1577-0711","addr":"경기도 안성시 보개면 기좌리 247-2번지","indutype":"유통업 영리 - 편 의 점","category":"other"}]},{"lat":"37.039437816","long":"127.28164824","imageIndex":17,"items":[{"name":"수아힐링","tel":"02-1661-6268","addr":"경기도 안성시 보개면 기좌리 312-5번지","indutype":"문화.취미 - 민예·공예품","category":"other"}]},{"lat":"37.036827451","long":"127.28809029","imageIndex":17,"items":[{"name":"스텐레스금강","tel":"031-671-1601","addr":"경기도 안성시 보개면 기좌리 250번지","indutype":"기타 - 기계공구","category":"other"}]},{"lat":"37.033991507","long":"127.28709063","imageIndex":17,"items":[{"name":"엘진산업","tel":"070-4355-4587","addr":"경기도 안성시 보개면 기좌리 206-2번지","indutype":"농업 - 비료,사료,종자","category":"other"}]},{"lat":"37.032434646","long":"127.28626438","imageIndex":17,"items":[{"name":"우리종합부엌가구","tel":"031-676-6866","addr":"경기도 안성시 보개면 기좌리 180-23번지","indutype":"가구 - 기타가구","category":"other"}]},{"lat":"37.029326197","long":"127.28617416","imageIndex":17,"items":[{"name":"중앙타일","tel":"031-674-4104","addr":"경기도 안성시 보개면 기좌리 624번지","indutype":"건축자재 - 건축용 요업제품","category":"other"}]},{"lat":"37.03755029","long":"127.28726125","imageIndex":7,"items":[{"name":"농업회사법인(주)그린푸드시스템","tel":"032-327-1981","addr":"경기도 안성시 보개면 기좌리 303-2번지","indutype":"음료식품 - 농·축·수산품","category":"food"}]},{"lat":"37.031660196","long":"127.28607044","imageIndex":4,"items":[{"name":"맛나식당","tel":"031-671-0929","addr":"경기도 안성시 보개면 기좌리 181-10번지","indutype":"일반휴게음식 - 일반한식","category":"restaurant"},{"name":"맛나식당","tel":"031-671-0929","addr":"경기도 안성시 보개면 기좌리 181-10번지","indutype":"일반휴게음식 - 일반한식","category":"restaurant"}]},{"lat":"37.03958008","long":"127.28245805","imageIndex":4,"items":[{"name":"세연정","tel":"031-676-1700","addr":"경기도 안성시 보개면 기좌리 312-4번지","indutype":"일반휴게음식 - 위탁급식업","category":"restaurant"}]},{"lat":"37.034882876","long":"127.28737494","imageIndex":4,"items":[{"name":"양지가든","tel":"031-676-7944","addr":"경기도 안성시 보개면 기좌리 208외1필지","indutype":"일반휴게음식 - 일반한식","category":"restaurant"}]},{"lat":"37.03690714","long":"127.28867506","imageIndex":4,"items":[{"name":"위대한밥상","tel":"031-676-0652","addr":"경기도 안성시 보개면 기좌리 247-2번지","indutype":"일반휴게음식 - 일반한식","category":"restaurant"}]},{"lat":"37.0320519","long":"127.28428489","imageIndex":4,"items":[{"name":"적재울가든","tel":"031-673-7116","addr":"경기도 안성시 보개면 기좌리 586번지","indutype":"일반휴게음식 - 일반한식","category":"restaurant"}]},{"lat":"37.03958008","long":"127.28245805","imageIndex":16,"items":[{"name":"베일러국제교육어학원/베일러국제교육(주)","tel":"031-677-7761","addr":"경기도 안성시 보개면 기좌리 312-4번지","indutype":"학원 - 외국어학원","category":"study"}]}]