[{"lat":"37.966904195","long":"126.91019154","items":[{"name":"(주)아성텍/원격지","tel":"031-946-6497","addr":"경기도 파주시 적성면 가월리 1847-1번지","category":"기타 - 기타 전문점"}]},{"lat":"37.969734689","long":"126.91224784","items":[{"name":"(주)에스케이엘엠스","tel":"031-963-4900","addr":"경기도 파주시 적성면 가월리 1849-8번지","category":"가구 - 일반가구"}]},{"lat":"37.975812818","long":"126.92029841","items":[{"name":"가마솥영양탕","tel":"","addr":"경기도 파주시 적성면 가월리 156-12번지","category":"일반휴게음식 - 일반한식"},{"name":"일품농장","tel":"","addr":"경기도 파주시 적성면 가월리 156-12번지","category":"음료식품 - 농·축·수산품"}]},{"lat":"37.968235354","long":"126.90743585","items":[{"name":"디에스산업","tel":"","addr":"경기도 파주시 적성면 가월리 1853-9번지","category":"용역 서비스 - 기타용역서비스"}]},{"lat":"37.969344877","long":"126.90916423","items":[{"name":"산단편의점","tel":"031-959-2900","addr":"경기도 파주시 적성면 가월리 1855-3번지","category":"유통업 영리 - 편 의 점"},{"name":"적성산단한식뷔페","tel":"031-959-1900","addr":"경기도 파주시 적성면 가월리 1855-3번지","category":"일반휴게음식 - 일반한식"}]},{"lat":"37.97545257","long":"126.92046953","items":[{"name":"시골반점","tel":"031-958-6663","addr":"경기도 파주시 적성면 가월리 156-8번지","category":"일반휴게음식 - 일반한식"}]},{"lat":"37.976398119","long":"126.91987663","items":[{"name":"전통국악사","tel":"031-958-0095","addr":"경기도 파주시 적성면 가월리 153-7번지","category":"레져용품 - 악기점"},{"name":"홍가네해물칼국수","tel":"031-835-0835","addr":"경기도 파주시 적성면 가월리 153-7번지","category":"일반휴게음식 - 일반한식"}]},{"lat":"37.967595117","long":"126.90671973","items":[{"name":"주식회사 동일프라텍","tel":"031-941-9911","addr":"경기도 파주시 적성면 가월리 1845-3번지","category":"유통업 영리 - 기타유통업"}]},{"lat":"37.964288096","long":"126.90593885","items":[{"name":"주식회사 효진에프티","tel":"031-953-7222","addr":"경기도 파주시 적성면 가월리 1490번지","category":"전기제품 - 냉열기기"}]},{"lat":"37.967928813","long":"126.89665921","items":[{"name":"파주어촌계민물고기직판장","tel":"031-958-8007","addr":"경기도 파주시 적성면 가월리 661-69번지","category":"음료식품 - 농·축·수산품"}]},{"lat":"37.979065198","long":"126.92038582","items":[{"name":"한옥공예교육원","tel":"","addr":"경기도 파주시 적성면 가월리 103-1번지","category":"문화.취미 - 문화취미기타"}]},{"lat":"37.97620899","long":"126.9199679","items":[{"name":"한탄강원조매운탕","tel":"031-959-6363","addr":"경기도 파주시 적성면 가월리 156-4번지","category":"일반휴게음식 - 일반한식"}]},{"lat":"37.978232284","long":"126.91477553","items":[{"name":"해와달 조경","tel":"031-958-1805","addr":"경기도 파주시 적성면 가월리 365-2번지","category":"문화.취미 - 화원"}]}]