[{"lat":"37.279764642","long":"127.02977468","items":[{"name":"(주)경성알앤디","tel":"070-8244-8941","addr":"경기도 수원시 팔달구 지동 482-7번지 2층","category":"유통업 영리 - 기타유통업"}]},{"lat":"37.282765747","long":"127.02656203","items":[{"name":"(주)대진정보통신서비스","tel":"031-222-4700","addr":"경기도 수원시 팔달구 지동 474-16번지 대진빌딩 201호","category":"사무통신 - 통신기기"}]},{"lat":"37.285459688","long":"127.02719436","items":[{"name":"(주)라움시스템","tel":"031-898-9844","addr":"경기도 수원시 팔달구 지동 237-3번지","category":"건축자재 - 기타건축자재"},{"name":"루니제과","tel":"","addr":"경기도 수원시 팔달구 지동 237-3번지 201호","category":"문화.취미 - 문화취미기타"},{"name":"우주불교만물","tel":"031-242-0025","addr":"경기도 수원시 팔달구 지동 237-3번지","category":"기타 - 기타 전문점"},{"name":"한줄종합설비","tel":"031-202-6028","addr":"경기도 수원시 팔달구 지동 237-3번지","category":"건축자재 - 보일러·펌프·샷시"}]},{"lat":"37.28037734","long":"127.0297749","items":[{"name":"(주)베르체","tel":"031-257-7400","addr":"경기도 수원시 팔달구 지동 481-4번지","category":"일반휴게음식 - 일반한식"},{"name":"수매점","tel":"031-273-8290","addr":"경기도 수원시 팔달구 지동 481-4번지","category":"유통업 영리 - 슈퍼마켓"}]},{"lat":"37.27782031","long":"127.01950203","items":[{"name":"(주)세계유통","tel":"031-6-8464","addr":"경기도 수원시 팔달구 지동 402-2번지","category":"유통업 영리 - 기타유통업"},{"name":"강원상회","tel":"031-255-2488","addr":"경기도 수원시 팔달구 지동 402-2번지","category":"음료식품 - 농·축·수산품"},{"name":"경아스넥","tel":"031-253-6136","addr":"경기도 수원시 팔달구 지동 402-2,상가40","category":"일반휴게음식 - 일반한식"},{"name":"고향집","tel":"031-247-9802","addr":"경기도 수원시 팔달구 지동 402-2번지 지동시장 A동 44,45,48,49,82호","category":"일반휴게음식 - 일반한식"},{"name":"남문곱창","tel":"031-256-5526","addr":"경기도 수원시 팔달구 지동 402-2번지 지동시장 1층 1호","category":"일반휴게음식 - 일반한식"},{"name":"남문오뎅","tel":"031-248-5246","addr":"경기도 수원시 팔달구 지동 402-2번지 지동시장 A-74","category":"음료식품 - 기타음료식품"},{"name":"믿음의기업 영광상회","tel":"031-235-1500","addr":"경기도 수원시 팔달구 지동 402-2번지 지동시장 A동 1층 74호","category":"음료식품 - 농·축·수산품"},{"name":"박에스터스킨케어앤왁싱","tel":"031-253-7074","addr":"경기도 수원시 팔달구 지동 402-2번지 A동 2층 4-1호","category":"보건위생 - 피부미용실"},{"name":"방자족발","tel":"031-244-3377","addr":"경기도 수원시 팔달구 지동 402-2번지 지동시장 A동 1층 12호","category":"일반휴게음식 - 일반한식"},{"name":"수원고추기름집","tel":"031-256-5164","addr":"경기도 수원시 팔달구 지동 402-2번지","category":"음료식품 - 기타음료식품"},{"name":"수원곱창","tel":"031-245-2008","addr":"경기도 수원시 팔달구 지동 402-2번지 A52,A53","category":"일반휴게음식 - 일반한식"},{"name":"수진","tel":"02-1111-1111","addr":"경기도 수원시 팔달구 지동 402-2번지 지동시장 1층 3호","category":"일반휴게음식 - 서양음식"},{"name":"신태광정육점","tel":"031-257-8889","addr":"경기도 수원시 팔달구 지동 402-2번지 지동시장 A동 16호","category":"음료식품 - 정육점"},{"name":"엄마네","tel":"031-245-7959","addr":"경기도 수원시 팔달구 지동 402-2번지 지동시장 101호","category":"일반휴게음식 - 일반한식"},{"name":"영동부산물정육점","tel":"031-255-6571","addr":"경기도 수원시 팔달구 지동 402-2번지","category":"음료식품 - 정육점"},{"name":"원조엄마네","tel":"031-253-5210","addr":"경기도 수원시 팔달구 지동 402-2번지","category":"일반휴게음식 - 일반한식"},{"name":"은주스넥","tel":"031-245-9771","addr":"경기도 수원시 팔달구 지동 402-2시장50","category":"일반휴게음식 - 스넥"},{"name":"이모네","tel":"031-254-2662","addr":"경기도 수원시 팔달구 지동 402-2번지 지동시장 1층 108호","category":"일반휴게음식 - 일반한식"},{"name":"자광메디컬co","tel":"031-241-7315","addr":"경기도 수원시 팔달구 지동 402-2번지 지동시장 B동 지하층","category":"보건위생 - 의료용품"},{"name":"자매집","tel":"031-245-2008","addr":"경기도 수원시 팔달구 지동 402-2번지 지동시장 32호","category":"일반휴게음식 - 일반한식"},{"name":"장금이네","tel":"031-245-8777","addr":"경기도 수원시 팔달구 지동 402-2번지","category":"일반휴게음식 - 일반한식"},{"name":"전라도","tel":"031-246-8565","addr":"경기도 수원시 팔달구 지동 402-2번지 지동시장 A동 42호","category":"일반휴게음식 - 일반한식"},{"name":"제일순대","tel":"031-244-2849","addr":"경기도 수원시 팔달구 지동 402-2 상가 11","category":"일반휴게음식 - 일반한식"},{"name":"지동 헬스","tel":"031-243-5272","addr":"경기도 수원시 팔달구 지동 402-2번지 지동시장 2층 203호","category":"레저업소 - 헬스클럽"},{"name":"지동순대집","tel":"031-242-3725","addr":"경기도 수원시 팔달구 지동 402-2번지 에이동 4호,13호","category":"일반휴게음식 - 일반한식"},{"name":"지동회포장","tel":"031-242-9058","addr":"경기도 수원시 팔달구 지동 402-2번지 지동시장 A동 14호","category":"음료식품 - 농·축·수산품"},{"name":"차돌이네","tel":"031-252-7333","addr":"경기도 수원시 팔달구 지동 402-2번지 지동시장 A동 1층 35호,36호,37호","category":"일반휴게음식 - 일반한식"},{"name":"친구네","tel":"031-242-3156","addr":"경기도 수원시 팔달구 지동 402-2번지 지동시장 내제1층 21,22호","category":"일반휴게음식 - 일반한식"},{"name":"한국팜머스협동조합","tel":"031-216-1482","addr":"경기도 수원시 팔달구 지동 402-2번지 지동시장 A동 1층","category":"보건위생 - 화장품"},{"name":"한양순대국","tel":"031-244-5739","addr":"경기도 수원시 팔달구 지동 402-2번지","category":"일반휴게음식 - 일반한식"},{"name":"향바로숙식","tel":"","addr":"경기도 수원시 팔달구 지동 402-2번지 지동시장 A동 1층 2호","category":"일반휴게음식 - 일반한식"},{"name":"호남순대","tel":"031-255-0498","addr":"경기도 수원시 팔달구 지동 402-2번지 지동시장 A동 5호","category":"일반휴게음식 - 일반한식"}]},{"lat":"37.286072447","long":"127.02689009","items":[{"name":"(주)에츠","tel":"070-7010-8401","addr":"경기도 수원시 팔달구 지동 253-6번지","category":"가구 - 일반가구"},{"name":"실버의료기","tel":"070-8800-3259","addr":"경기도 수원시 팔달구 지동 253-6번지 1층","category":"보건위생 - 의료용품"},{"name":"창룡문전자","tel":"031-242-1155","addr":"경기도 수원시 팔달구 지동 253-6번지 1층","category":"사무통신 - 컴퓨터"}]},{"lat":"37.278935549","long":"127.0304171","items":[{"name":"(주)온니원","tel":"031-239-9278","addr":"경기도 수원시 팔달구 지동 483번지 상원빌딩 2층","category":"건축자재 - 인테리어전문"},{"name":"송월타올(동수원진리상사)","tel":"031-246-7995","addr":"경기도 수원시 팔달구 지동 483번지","category":"신변잡화 - 기타잡화"},{"name":"에이스 브리스","tel":"031-254-4355","addr":"경기도 수원시 팔달구 지동 483번지 상원빌딩 201호","category":"의류 - 내의판매"},{"name":"우아한사진관 수원점","tel":"031-000-0000","addr":"경기도 수원시 팔달구 지동 483번지 상원빌딩 2층 202호","category":"광학제품 - 사진관"},{"name":"주식회사 오제이월드","tel":"031-251-6700","addr":"경기도 수원시 팔달구 지동 483번지 상원빌딩 302호","category":"여행 - 관광여행"}]},{"lat":"37.279016795","long":"127.02975186","items":[{"name":"(주)유텍","tel":"031-255-0922","addr":"경기도 수원시 팔달구 지동 482-21번지","category":"용역 서비스 - 종합용역"},{"name":"CN애드(CNAD)","tel":"031-246-5416","addr":"경기도 수원시 팔달구 지동 482-21번지","category":"서적문구 - 출판 및 인쇄물"}]},{"lat":"37.27909781","long":"127.03009016","items":[{"name":"(주)컴퓨터에스오에스","tel":"031-241-1505","addr":"경기도 수원시 팔달구 지동 482-19번지 103호","category":"사무통신 - 컴퓨터"},{"name":"블루씨","tel":"","addr":"경기도 수원시 팔달구 지동 482-19번지 1동 101호","category":"용역 서비스 - 사무서비스"}]},{"lat":"37.277432864","long":"127.01953577","items":[{"name":"(주)한양푸드시스템","tel":"031-258-8484","addr":"경기도 수원시 팔달구 지동 402-28번지 지동시장 B동 2층","category":"음료식품 - 정육점"},{"name":"경기해물","tel":"031-251-8771","addr":"경기도 수원시 팔달구 지동 402-28번지 지동시장 B-98","category":"음료식품 - 농·축·수산품"},{"name":"고은이불","tel":"070-7566-2279","addr":"경기도 수원시 팔달구 지동 402-28번지 1층","category":"직물 - 침구·수예점"},{"name":"목포젓갈","tel":"031-251-2999","addr":"경기도 수원시 팔달구 지동 402-28번지 지동시장 B동 1층","category":"음료식품 - 농·축·수산품"},{"name":"밀알옛장터","tel":"031-242-0042","addr":"경기도 수원시 팔달구 지동 402-28번지","category":"일반휴게음식 - 일반한식"},{"name":"부산어묵","tel":"031-243-7373","addr":"경기도 수원시 팔달구 지동 402-28번지 지동시장","category":"일반휴게음식 - 스넥"},{"name":"서화곱창","tel":"031-241-4123","addr":"경기도 수원시 팔달구 지동 402-28번지","category":"일반휴게음식 - 일반한식"},{"name":"수원해물","tel":"031-246-2092","addr":"경기도 수원시 팔달구 지동 402-28번지","category":"음료식품 - 농·축·수산품"},{"name":"순대지존","tel":"031-255-0498","addr":"경기도 수원시 팔달구 지동 402-28번지 지동시장 B동 1층 69호","category":"일반휴게음식 - 일반한식"},{"name":"시장순대","tel":"031-242-7392","addr":"경기도 수원시 팔달구 지동 402-28번지 지동시장 B동 1층 67호","category":"일반휴게음식 - 일반한식"},{"name":"시장순대곱창타운","tel":"031-242-7392","addr":"경기도 수원시 팔달구 지동 402-28번지","category":"일반휴게음식 - 일반한식"},{"name":"윤희설렁탕","tel":"031-251-3223","addr":"경기도 수원시 팔달구 지동 402-28번지 지동시장 B동 70호","category":"일반휴게음식 - 일반한식"},{"name":"장날만두","tel":"031-252-8599","addr":"경기도 수원시 팔달구 지동 402-28번지 1층","category":"일반휴게음식 - 스넥"},{"name":"제일기름집","tel":"031-225-7739","addr":"경기도 수원시 팔달구 지동 402-28 B동 1층 89,90호","category":"음료식품 - 기타음료식품"},{"name":"제일해물","tel":"031-242-1611","addr":"경기도 수원시 팔달구 지동 402-28번지 점포 96호","category":"음료식품 - 농·축·수산품"},{"name":"주식회사 미르유통","tel":"031-251-1664","addr":"경기도 수원시 팔달구 지동 402-28번지 지동시장 B동 지층","category":"유통업 영리 - 슈퍼마켓"},{"name":"한일엘리베이터 (주)","tel":"031-211-2097","addr":"경기도 수원시 팔달구 지동 402-28번지 지동시장 B동 3층","category":"용역 서비스 - 기타용역서비스"}]},{"lat":"37.277900004","long":"127.0275302","items":[{"name":"(주)한얼 수원지점","tel":"055-339-0167","addr":"경기도 수원시 팔달구 지동 93-6번지 성빈센트병원","category":"자동차정비 유지 - 주차장"},{"name":"이디야커피성빈센트병원점","tel":"031-249-8340","addr":"경기도 수원시 팔달구 지동 93-6번지 성빈센트병원 1층","category":"일반휴게음식 - 서양음식"},{"name":"제일의료기상사","tel":"031-246-8382","addr":"경기도 수원시 팔달구 지동 93-6번지 성빈센트병원 지하2층","category":"보건위생 - 의료용품"},{"name":"카페하랑","tel":"00-0000-0000","addr":"경기도 수원시 팔달구 지동 93-6번지 성빈센트병원 2층","category":"일반휴게음식 - 서양음식"},{"name":"코른베르그 과자점","tel":"031-252-8660","addr":"경기도 수원시 팔달구 지동 93-6번지 성빈센트병원 1층","category":"음료식품 - 제과점"}]},{"lat":"37.28756838","long":"127.02572904","items":[{"name":"101커피","tel":"031-247-1300","addr":"경기도 수원시 팔달구 지동 261-1번지","category":"일반휴게음식 - 서양음식"}]},{"lat":"37.282540045","long":"127.02869316","items":[{"name":"365타이어동수원점","tel":"031-251-2365","addr":"경기도 수원시 팔달구 지동 478-9번지","category":"자동차정비 유지 - 자동차시트·타이어"}]},{"lat":"37.275432312","long":"127.0213619","items":[{"name":"9수9수경진김","tel":"031-235-5724","addr":"경기도 수원시 팔달구 지동 380번지","category":"음료식품 - 기타음료식품"},{"name":"국민약국","tel":"031-247-4310","addr":"경기도 수원시 팔달구 지동 380번지 110호","category":"약국 - 약국"},{"name":"도매유통","tel":"031-967-9226","addr":"경기도 수원시 팔달구 지동 380번지 1층","category":"신변잡화 - 신발"},{"name":"동서의원","tel":"031-247-1002","addr":"경기도 수원시 팔달구 지동 380번지","category":"의원 - 의원"},{"name":"동성분식","tel":"031-256-5470","addr":"경기도 수원시 팔달구 지동 380번지","category":"일반휴게음식 - 스넥"},{"name":"수원스마일치과","tel":"031-248-2275","addr":"경기도 수원시 팔달구 지동 380번지","category":"의원 - 치과의원"},{"name":"아카베화장품","tel":"031-253-3232","addr":"경기도 수원시 팔달구 지동 380번지 105호","category":"보건위생 - 화장품"},{"name":"양인홍삼건강원","tel":"031-241-8683","addr":"경기도 수원시 팔달구 지동 380번지","category":"건강식품 - 기타건강식품"},{"name":"이신우(수원점)","tel":"070-4245-2981","addr":"경기도 수원시 팔달구 지동 380번지 1층 104호","category":"의류 - 정장"},{"name":"종합화장품","tel":"031-0000-0000","addr":"경기도 수원시 팔달구 지동 380번지","category":"보건위생 - 화장품"}]},{"lat":"37.280874045","long":"127.02417094","items":[{"name":"BBQ지동점","tel":"031-258-4410","addr":"경기도 수원시 팔달구 지동 144-7번지","category":"일반휴게음식 - 서양음식"}]},{"lat":"37.283684539","long":"127.02780271","items":[{"name":"GS25수원지동점","tel":"","addr":"경기도 수원시 팔달구 지동 477-13번지 샤인파크 1층","category":"유통업 영리 - 편 의 점"}]},{"lat":"37.278323098","long":"127.02933442","items":[{"name":"GS25팔달유진점","tel":"","addr":"경기도 수원시 팔달구 지동 73-5번지","category":"유통업 영리 - 편 의 점"}]},{"lat":"37.281765898","long":"127.025062","items":[{"name":"H헤어#","tel":"031-242-0706","addr":"경기도 수원시 팔달구 지동 146-17번지 1층","category":"보건위생 - 미용원"}]},{"lat":"37.285234401","long":"127.02734088","items":[{"name":"JJ카오디오","tel":"031-245-7333","addr":"경기도 수원시 팔달구 지동 245-2번지","category":"자동차정비 유지 - 카인테리어"}]},{"lat":"37.280567449","long":"127.02550141","items":[{"name":"L&S 디지털","tel":"031-241-2607","addr":"경기도 수원시 팔달구 지동 138-6번지 진우빌라트 401호","category":"회원제형태 - 기타3"},{"name":"믿음성구사","tel":"031-241-3765","addr":"경기도 수원시 팔달구 지동 138-6번지 진우빌라트 1층 109, 118호","category":"가구 - 기타가구"},{"name":"베스트OA","tel":"031-243-7963","addr":"경기도 수원시 팔달구 지동 138-6번지 진우빌라트 상가 117호","category":"사무통신 - 사무용 OA기기"},{"name":"보니따헤어","tel":"031-241-9916","addr":"경기도 수원시 팔달구 지동 138-6번지 진우빌라트 1층 108호","category":"보건위생 - 미용원"},{"name":"브엘세바미용실","tel":"031-8002-1259","addr":"경기도 수원시 팔달구 지동 138-6번지 진우빌라트 104호","category":"보건위생 - 미용원"},{"name":"서경엘리베이터","tel":"031-243-0631","addr":"경기도 수원시 팔달구 지동 138-6번지 진우빌라트","category":"용역 서비스 - 기타용역서비스"}]},{"lat":"37.283540292","long":"127.02819734","items":[{"name":"OK종합주방","tel":"031-258-2202","addr":"경기도 수원시 팔달구 지동 477-2번지","category":"주방용구 - 주방용구"}]},{"lat":"37.276072253","long":"127.01995265","items":[{"name":"X세대","tel":"031-244-0086","addr":"경기도 수원시 팔달구 지동 415팔달주차타워1층상가3호","category":"신변잡화 - 신발"},{"name":"강원도약초","tel":"031-256-6482","addr":"경기도 수원시 팔달구 지동 415번지 팔달주차타워 20호","category":"약국 - 한약방"},{"name":"규수당","tel":"031-256-4911","addr":"경기도 수원시 팔달구 지동 415번지","category":"일반휴게음식 - 일반한식"},{"name":"대우닭","tel":"031-226-3536","addr":"경기도 수원시 팔달구 지동 415번지","category":"음료식품 - 정육점"},{"name":"동아미용실","tel":"031-256-7360","addr":"경기도 수원시 팔달구 지동 415번지 팔달주차타워내상가 15호","category":"보건위생 - 미용원"},{"name":"로얄야채","tel":"","addr":"경기도 수원시 팔달구 지동 415번지 팔달주차타워 1층 12호","category":"음료식품 - 농·축·수산품"},{"name":"민속떡집","tel":"031-241-9446","addr":"경기도 수원시 팔달구 지동 415번지 팔달주차타워 1층","category":"음료식품 - 제과점"},{"name":"백마전기","tel":"031-251-6996","addr":"경기도 수원시 팔달구 지동 415 팔달주차타워 1층6","category":"전기제품 - 기타전기제품"},{"name":"상신쇼핑","tel":"031-252-1963","addr":"경기도 수원시 팔달구 지동 415번지 팔달주차타워 112호","category":"의류 - 정장"},{"name":"신한일사","tel":"031-242-0078","addr":"경기도 수원시 팔달구 지동 415번지 팔달주차타워 상가 2호","category":"보건위생 - 미용재료"},{"name":"아들네","tel":"031-248-5630","addr":"경기도 수원시 팔달구 지동 415번지 팔달주차타워 1층","category":"일반휴게음식 - 일반한식"},{"name":"아리랑 미니슈퍼","tel":"031-255-8262","addr":"경기도 수원시 팔달구 지동 415번지 팔달주차타워 1층 5호","category":"유통업 영리 - 슈퍼마켓"},{"name":"아리랑반찬(슈퍼)","tel":"031-233-8262","addr":"경기도 수원시 팔달구 지동 415번지 팔달주차타워 5호","category":"음료식품 - 기타음료식품"},{"name":"풍년종묘농약사","tel":"031-256-2073","addr":"경기도 수원시 팔달구 지동 415번지","category":"농업 - 비료,사료,종자"},{"name":"행복한 정원","tel":"031-257-7760","addr":"경기도 수원시 팔달구 지동 415번지 팔달주차타워 1층 18호","category":"문화.취미 - 화원"},{"name":"화성약초","tel":"","addr":"경기도 수원시 팔달구 지동 415번지 팔달주차타워 22호","category":"음료식품 - 농·축·수산품"}]},{"lat":"37.277954529","long":"127.02519619","items":[{"name":"가나안","tel":"","addr":"경기도 수원시 팔달구 지동 121-3번지 1층","category":"의류 - 내의판매"},{"name":"나눔유통","tel":"","addr":"경기도 수원시 팔달구 지동 121-3번지","category":"음료식품 - 농·축·수산품"}]},{"lat":"37.282981973","long":"127.02666358","items":[{"name":"가나장식","tel":"031-247-6852","addr":"경기도 수원시 팔달구 지동 474-8번지","category":"건축자재 - 인테리어전문"},{"name":"명성미용실","tel":"031-251-3669","addr":"경기도 수원시 팔달구 지동 474-8번지","category":"보건위생 - 미용원"}]},{"lat":"37.278351184","long":"127.0240913","items":[{"name":"가비헤어","tel":"031-254-2555","addr":"경기도 수원시 팔달구 지동 124-15번지","category":"보건위생 - 미용원"},{"name":"해법수학지동점수학교습소","tel":"031-891-6488","addr":"경기도 수원시 팔달구 지동 124-15번지","category":"학원 - 보습학원"},{"name":"헤어필미용실","tel":"031-273-9347","addr":"경기도 수원시 팔달구 지동 124-15번지","category":"보건위생 - 미용원"}]},{"lat":"37.277846645","long":"127.0238882","items":[{"name":"가은음식","tel":"","addr":"경기도 수원시 팔달구 지동 123-3번지","category":"일반휴게음식 - 일반한식"},{"name":"고씨네","tel":"031-207-8588","addr":"경기도 수원시 팔달구 지동 123-3번지 1층","category":"일반휴게음식 - 일반한식"},{"name":"동아진열장","tel":"031-269-3680","addr":"경기도 수원시 팔달구 지동 123-3번지","category":"주방용구 - 주방용구"},{"name":"맹호경희대체육관","tel":"031-244-4122","addr":"경기도 수원시 팔달구 지동 123-3번지 2층","category":"학원 - 예·체능계학원"},{"name":"아침빛양갱(주)","tel":"031-224-0191","addr":"경기도 수원시 팔달구 지동 123-3번지","category":"음료식품 - 기타음료식품"},{"name":"책먹는돼지","tel":"031-221-9975","addr":"경기도 수원시 팔달구 지동 123-3번지 1층","category":"일반휴게음식 - 서양음식"},{"name":"책먹는돼지","tel":"031-221-9975","addr":"경기도 수원시 팔달구 지동 123-3번지 1층","category":"서적문구 - 일반서적"},{"name":"카멜레온","tel":"031-245-3901","addr":"경기도 수원시 팔달구 지동 123-3지하1층","category":"레저업소 - 노 래 방"}]},{"lat":"37.279043787","long":"127.02992101","items":[{"name":"가톨릭대학교성빈센트병원새들나라어린이집","tel":"031-244-9392","addr":"경기도 수원시 팔달구 지동 482-20번지","category":"학원 - 유아원"}]},{"lat":"37.276648959","long":"127.01961452","items":[{"name":"갑신정육점","tel":"031-255-9882","addr":"경기도 수원시 팔달구 지동 410-1번지","category":"음료식품 - 정육점"},{"name":"갑신정육점","tel":"031-255-9882","addr":"경기도 수원시 팔달구 지동 410-1번지","category":"음료식품 - 정육점"},{"name":"금산인삼","tel":"031-252-1243","addr":"경기도 수원시 팔달구 지동 410-1번지 1층","category":"건강식품 - 인삼제품"}]},{"lat":"37.282261448","long":"127.02514108","items":[{"name":"거북슈퍼","tel":"031-244-9558","addr":"경기도 수원시 팔달구 지동 225-130번지","category":"유통업 영리 - 슈퍼마켓"}]},{"lat":"37.277513845","long":"127.02031379","items":[{"name":"거성오토바이","tel":"031-251-1946","addr":"경기도 수원시 팔달구 지동 401-12번지","category":"자동차판매 - 이륜차판매"},{"name":"이천인테리어","tel":"031-245-9135","addr":"경기도 수원시 팔달구 지동 401-12번지","category":"직물 - 카페트,커튼,천막,지물"}]},{"lat":"37.278349882","long":"127.03041689","items":[{"name":"건설페인트","tel":"031-255-2896","addr":"경기도 수원시 팔달구 지동 483-3번지","category":"건축자재 - 페인트"}]},{"lat":"37.279151827","long":"127.03028187","items":[{"name":"경기수조냉동산업","tel":"031-245-9666","addr":"경기도 수원시 팔달구 지동 482-5번지 주민맨션","category":"문화.취미 - 수족관"}]},{"lat":"37.275792817","long":"127.02075313","items":[{"name":"경남어물","tel":"000-000-0000","addr":"경기도 수원시 팔달구 지동 386번지","category":"음료식품 - 농·축·수산품"},{"name":"금산인삼사","tel":"031-246-0482","addr":"경기도 수원시 팔달구 지동 386번지","category":"건강식품 - 인삼제품"},{"name":"맷돌수제두부","tel":"","addr":"경기도 수원시 팔달구 지동 386번지 1층","category":"음료식품 - 기타음료식품"},{"name":"완도상회","tel":"031-246-2916","addr":"경기도 수원시 팔달구 지동 386번지","category":"음료식품 - 농·축·수산품"}]},{"lat":"37.277378679","long":"127.02039269","items":[{"name":"경북기름집","tel":"031-243-6598","addr":"경기도 수원시 팔달구 지동 401-6번지","category":"음료식품 - 기타음료식품"}]},{"lat":"37.27782024","long":"127.01999815","items":[{"name":"경북마트","tel":"031-255-3064","addr":"경기도 수원시 팔달구 지동 402-1","category":"유통업 영리 - 슈퍼마켓"},{"name":"동아건어물","tel":"031-256-4268","addr":"경기도 수원시 팔달구 지동 402-1번지","category":"음료식품 - 농·축·수산품"},{"name":"제일흑염소","tel":"031-251-6380","addr":"경기도 수원시 팔달구 지동 402-1번지","category":"건강식품 - 기타건강식품"}]},{"lat":"37.276793127","long":"127.01959201","items":[{"name":"경수상회","tel":"031-294-7061","addr":"경기도 수원시 팔달구 지동 409번지","category":"음료식품 - 농·축·수산품"},{"name":"동신상회","tel":"031-256-5002","addr":"경기도 수원시 팔달구 지동 409번지","category":"음료식품 - 농·축·수산품"},{"name":"상육상회","tel":"031-256-5262","addr":"경기도 수원시 팔달구 지동 409번지","category":"음료식품 - 미곡상"},{"name":"충북상회","tel":"031-244-6742","addr":"경기도 수원시 팔달구 지동 409번지","category":"음료식품 - 농·축·수산품"}]},{"lat":"37.275351325","long":"127.0206741","items":[{"name":"경희척척의원.한의원","tel":"031-207-9716","addr":"경기도 수원시 팔달구 지동 423-2번지 외3필지 1층,2층","category":"의원 - 한의원"}]},{"lat":"37.278045447","long":"127.02033647","items":[{"name":"고기파는김선달","tel":"031-258-8980","addr":"경기도 수원시 팔달구 지동 306-11번지","category":"일반휴게음식 - 일반한식"},{"name":"향나라화장품","tel":"031-245-9201","addr":"경기도 수원시 팔달구 지동 306-11번지 1층","category":"보건위생 - 화장품"}]},{"lat":"37.280234199","long":"127.02481348","items":[{"name":"고향만두","tel":"031-257-8001","addr":"경기도 수원시 팔달구 지동 135-4번지 105호","category":"일반휴게음식 - 스넥"},{"name":"김이호치과","tel":"031-257-2028","addr":"경기도 수원시 팔달구 지동 135-4번지 지동프라자 3층","category":"의원 - 치과의원"},{"name":"로체PC방","tel":"070-5344-7602","addr":"경기도 수원시 팔달구 지동 135-4번지 2층","category":"레저업소 - 기타레져업소"},{"name":"중국식품","tel":"031-000-0000","addr":"경기도 수원시 팔달구 지동 135-4번지 1층","category":"유통업 영리 - 슈퍼마켓"},{"name":"진미정","tel":"031-243-2567","addr":"경기도 수원시 팔달구 지동 135-4번지 외2필지","category":"일반휴게음식 - 일반한식"}]},{"lat":"37.275711827","long":"127.02005405","items":[{"name":"고향촌","tel":"070-8991-9979","addr":"경기도 수원시 팔달구 지동 417-4번지","category":"음료식품 - 정육점"},{"name":"중국식품","tel":"070-5138-5382","addr":"경기도 수원시 팔달구 지동 417-4번지","category":"음료식품 - 기타음료식품"},{"name":"총각네대박집","tel":"031-254-7775","addr":"경기도 수원시 팔달구 지동 417-4번지","category":"음료식품 - 농·축·수산품"},{"name":"한성중국식품","tel":"031-296-5676","addr":"경기도 수원시 팔달구 지동 417-4번지","category":"음료식품 - 기타음료식품"}]},{"lat":"37.28318004","long":"127.02744171","items":[{"name":"광고지기","tel":"031-247-0046","addr":"경기도 수원시 팔달구 지동 476번지","category":"용역 서비스 - 종합용역"}]},{"lat":"37.2789009","long":"127.02358405","items":[{"name":"광명건축","tel":"031-255-9413","addr":"경기도 수원시 팔달구 지동 358-1번지","category":"건축자재 - 인테리어전문"}]},{"lat":"37.277180568","long":"127.01959209","items":[{"name":"광명고추상회","tel":"031-256-4975","addr":"경기도 수원시 팔달구 지동 400-12번지","category":"음료식품 - 기타음료식품"},{"name":"해남보리밥","tel":"031-251-0361","addr":"경기도 수원시 팔달구 지동 400-12번지 1층","category":"일반휴게음식 - 일반한식"}]},{"lat":"37.281071917","long":"127.02605408","items":[{"name":"광신싱크","tel":"032-258-5413","addr":"경기도 수원시 팔달구 지동 141-8번지","category":"가구 - 일반가구"}]},{"lat":"37.27632448","long":"127.0203699","items":[{"name":"국민냉면","tel":"031-246-3433","addr":"경기도 수원시 팔달구 지동 397-6번지","category":"일반휴게음식 - 일반한식"},{"name":"재호이불방","tel":"031-252-4052","addr":"경기도 수원시 팔달구 지동 397-6번지","category":"직물 - 침구·수예점"},{"name":"충남상회","tel":"031-256-4066","addr":"경기도 수원시 팔달구 지동 397-6번지","category":"음료식품 - 농·축·수산품"},{"name":"한빛나노메디칼","tel":"033-244-5500","addr":"경기도 수원시 팔달구 지동 397-6번지 2층","category":"기타의료기관 - 기타의료기관 및 기타"}]},{"lat":"37.277711626","long":"127.02311015","items":[{"name":"궁타이","tel":"070-7420-9911","addr":"경기도 수원시 팔달구 지동 362-10번지","category":"보건위생 - 화장품"}]},{"lat":"37.275432439","long":"127.02052754","items":[{"name":"귀금당","tel":"031-245-6081","addr":"경기도 수원시 팔달구 지동 424-1번지","category":"신변잡화 - 시계"},{"name":"금샘마트","tel":"031-241-6669","addr":"경기도 수원시 팔달구 지동 424-1번지","category":"유통업 영리 - 슈퍼마켓"},{"name":"김경순미용실","tel":"031-244-8220","addr":"경기도 수원시 팔달구 지동 424-1번지 1층","category":"보건위생 - 미용원"},{"name":"배한익치과의원","tel":"031-246-9090","addr":"경기도 수원시 팔달구 지동 424-1번지","category":"의원 - 치과의원"}]},{"lat":"37.277847083","long":"127.02124973","items":[{"name":"그린종합건축","tel":"031-207-2700","addr":"경기도 수원시 팔달구 지동 321번지","category":"용역 서비스 - 종합용역"},{"name":"태광시스템","tel":"031-226-2611","addr":"경기도 수원시 팔달구 지동 321번지","category":"전기제품 - 기타전기제품"},{"name":"행복을 달리는 자전거","tel":"031-221-6404","addr":"경기도 수원시 팔달구 지동 321번지 1층","category":"수리서비스 - 레져용품수리"}]},{"lat":"37.280261421","long":"127.02375356","items":[{"name":"근창설비","tel":"031-225-5881","addr":"경기도 수원시 팔달구 지동 134-11번지 1층","category":"건축자재 - 인테리어전문"},{"name":"애지중지 Pet Boutique","tel":"031-1111-1111","addr":"경기도 수원시 팔달구 지동 134-11번지 1층","category":"문화.취미 - 애완동물"}]},{"lat":"37.28384694","long":"127.02675406","items":[{"name":"금문","tel":"031-244-8373","addr":"경기도 수원시 팔달구 지동 212-20번지 1층","category":"일반휴게음식 - 중국식"}]},{"lat":"37.277072466","long":"127.01944549","items":[{"name":"금산인삼직매장","tel":"031-251-2552","addr":"경기도 수원시 팔달구 지동 406번지","category":"건강식품 - 인삼제품"},{"name":"미나리 광 야채","tel":"031-2206-6460","addr":"경기도 수원시 팔달구 지동 406번지 1층","category":"음료식품 - 농·축·수산품"},{"name":"지동반찬","tel":"031-244-0239","addr":"경기도 수원시 팔달구 지동 406번지 1층","category":"음료식품 - 기타음료식품"},{"name":"지동수산","tel":"031-244-0239","addr":"경기도 수원시 팔달구 지동 406번지","category":"음료식품 - 농·축·수산품"},{"name":"천지호프","tel":"031-256-7611","addr":"경기도 수원시 팔달구 지동 406번지 지하1층","category":"일반휴게음식 - 주점"}]},{"lat":"37.278378298","long":"127.02361773","items":[{"name":"금성가스텍","tel":"031-241-6060","addr":"경기도 수원시 팔달구 지동 360-21번지","category":"연료판매점 - LPG 취급점"},{"name":"정선생짬뽕전골","tel":"031-254-6945","addr":"경기도 수원시 팔달구 지동 360-21번지","category":"일반휴게음식 - 일반한식"}]},{"lat":"37.282955587","long":"127.02320177","items":[{"name":"금실슈퍼","tel":"031-257-2827","addr":"경기도 수원시 팔달구 지동 270-7번지","category":"유통업 영리 - 슈퍼마켓"}]},{"lat":"37.280990585","long":"127.0272493","items":[{"name":"금영시스템","tel":"031-245-6645","addr":"경기도 수원시 팔달구 지동 167-2번지 103호","category":"기타 - 기타 전문점"}]},{"lat":"37.277540289","long":"127.02392194","items":[{"name":"김밥세상","tel":"031-254-3568","addr":"경기도 수원시 팔달구 지동 123-94번지","category":"일반휴게음식 - 스넥"}]},{"lat":"37.27659385","long":"127.02586103","items":[{"name":"김외과","tel":"031-244-3111","addr":"경기도 수원시 팔달구 지동 116-10번지","category":"의원 - 의원"}]},{"lat":"37.279404136","long":"127.03019175","items":[{"name":"김정진법무사사무소","tel":"031-337-2832","addr":"경기도 수원시 팔달구 지동 482-3번지 무등빌딩 3층","category":"용역 서비스 - 법률회계서비스(개인)"},{"name":"수원무등상사","tel":"031-2465-2001","addr":"경기도 수원시 팔달구 지동 482-3번지","category":"의류 - 내의판매"},{"name":"수원지동우체국","tel":"031-241-2005","addr":"경기도 수원시 팔달구 지동 482-3번지","category":"용역 서비스 - 공공요금대행서비스/소"},{"name":"천호","tel":"031-410-1107","addr":"경기도 수원시 팔달구 지동 482-3번지 3층","category":"건축자재 - 인테리어전문"}]},{"lat":"37.284045077","long":"127.02719391","items":[{"name":"까투리","tel":"031-244-4219","addr":"경기도 수원시 팔달구 지동 472-9번지","category":"일반휴게음식 - 주점"},{"name":"다선칼국수","tel":"031-248-6419","addr":"경기도 수원시 팔달구 지동 472-9번지 2호","category":"일반휴게음식 - 일반한식"},{"name":"이모네집","tel":"031-254-1133","addr":"경기도 수원시 팔달구 지동 472-9번지 1층","category":"일반휴게음식 - 일반한식"}]},{"lat":"37.28237847","long":"127.02572747","items":[{"name":"꼬꼬마 어린이집[아이행복]","tel":"031-256-1856","addr":"경기도 수원시 팔달구 지동 225-112번지","category":"학원 - 유아원"}]},{"lat":"37.278432707","long":"127.02153177","items":[{"name":"꽃님이","tel":"031-257-1223","addr":"경기도 수원시 팔달구 지동 309-9번지","category":"보건위생 - 기타대인서비스"}]},{"lat":"37.279323169","long":"127.02963922","items":[{"name":"나노컴텍DQ지노","tel":"031-224-0031","addr":"경기도 수원시 팔달구 지동 482-16번지 1층","category":"주방용구 - 정수기"}]},{"lat":"37.275567404","long":"127.02175656","items":[{"name":"나눔약국","tel":"031-245-4786","addr":"경기도 수원시 팔달구 지동 373번지 쉐마메디컬타워 102,103호","category":"약국 - 약국"},{"name":"슈올즈 수원남문점","tel":"031-252-7725","addr":"경기도 수원시 팔달구 지동 373번지 실로암메디컬타워 101호","category":"신변잡화 - 신발"},{"name":"실로암메디칼타워","tel":"031-352-1673","addr":"경기도 수원시 팔달구 지동 373번지 374-1,374-2","category":"용역 서비스 - 부동산 중개·임대"},{"name":"오케이내과외과의원","tel":"031-243-9100","addr":"경기도 수원시 팔달구 지동 373번지 실로암메디컬타워 2층","category":"의원 - 의원"},{"name":"장우영신경외과","tel":"031-253-8275","addr":"경기도 수원시 팔달구 지동 373번지 ,3,4층","category":"의원 - 의원"}]},{"lat":"37.28295462","long":"127.02821969","items":[{"name":"나는밥조폭이다","tel":"031-245-2030","addr":"경기도 수원시 팔달구 지동 477-8번지 샤인빌 1층 101호","category":"일반휴게음식 - 일반한식"}]},{"lat":"37.280432612","long":"127.02377616","items":[{"name":"나드리미용실","tel":"031-258-5229","addr":"경기도 수원시 팔달구 지동 279-7번지","category":"보건위생 - 미용원"}]},{"lat":"37.277324059","long":"127.02383168","items":[{"name":"나무","tel":"031-225-3020","addr":"경기도 수원시 팔달구 지동 123-110번지","category":"신변잡화 - 기타잡화"},{"name":"미술콩미술교습소","tel":"031-253-4648","addr":"경기도 수원시 팔달구 지동 123-110번지 1층 일부","category":"학원 - 예·체능계학원"}]},{"lat":"37.275567517","long":"127.02103495","items":[{"name":"낙원떡집","tel":"031-256-0311","addr":"경기도 수원시 팔달구 지동 383-1번지 1층","category":"음료식품 - 제과점"},{"name":"남해건어물","tel":"","addr":"경기도 수원시 팔달구 지동 383-1번지","category":"음료식품 - 농·축·수산품"},{"name":"아리곳간","tel":"031-258-5417","addr":"경기도 수원시 팔달구 지동 383-1번지 1층","category":"음료식품 - 기타음료식품"},{"name":"엄지반찬","tel":"031-251-6900","addr":"경기도 수원시 팔달구 지동 383-1번지","category":"음료식품 - 기타음료식품"},{"name":"잠언의료기 지동점","tel":"031-248-7589","addr":"경기도 수원시 팔달구 지동 383-1번지 2층","category":"보건위생 - 의료용품"}]},{"lat":"37.278738358","long":"127.02553469","items":[{"name":"난영미용실","tel":"031-251-8987","addr":"경기도 수원시 팔달구 지동 109-9번지","category":"보건위생 - 미용원"}]},{"lat":"37.284072181","long":"127.02683307","items":[{"name":"남도회식당","tel":"031-252-1040","addr":"경기도 수원시 팔달구 지동 212-3번지 1층","category":"일반휴게음식 - 일반한식"},{"name":"비엔나노래연습장","tel":"031-255-7417","addr":"경기도 수원시 팔달구 지동 212-3번지","category":"레저업소 - 노 래 방"}]},{"lat":"37.276684973","long":"127.01980621","items":[{"name":"남문뻥튀기","tel":"","addr":"경기도 수원시 팔달구 지동 400-26번지","category":"음료식품 - 기타음료식품"},{"name":"목포홍어회","tel":"031-254-0716","addr":"경기도 수원시 팔달구 지동 400-26번지","category":"일반휴게음식 - 일반한식"}]},{"lat":"37.276459672","long":"127.02011059","items":[{"name":"남문상회","tel":"031-244-6004","addr":"경기도 수원시 팔달구 지동 397-14번지","category":"음료식품 - 농·축·수산품"},{"name":"우일상회","tel":"","addr":"경기도 수원시 팔달구 지동 397-14번지 1층","category":"음료식품 - 농·축·수산품"}]},{"lat":"37.277739167","long":"127.01986283","items":[{"name":"남문축산","tel":"031-254-5400","addr":"경기도 수원시 팔달구 지동 402-5번지 남문축산","category":"음료식품 - 정육점"}]},{"lat":"37.275432504","long":"127.02008781","items":[{"name":"남성모사","tel":"031-255-6700","addr":"경기도 수원시 팔달구 지동 418-3번지","category":"직물 - 기타직물"},{"name":"중국식품","tel":"031-241-5688","addr":"경기도 수원시 팔달구 지동 418-3번지 빨강건물","category":"음료식품 - 기타음료식품"}]},{"lat":"37.284513512","long":"127.02766767","items":[{"name":"넥센특판사업","tel":"031-241-1777","addr":"경기도 수원시 팔달구 지동 472-14","category":"자동차정비 유지 - 자동차시트·타이어"}]},{"lat":"37.279711996","long":"127.02258073","items":[{"name":"노을뜨레","tel":"070-4204-6481","addr":"경기도 수원시 팔달구 지동 286-3번지 수원제일교회","category":"일반휴게음식 - 서양음식"}]},{"lat":"37.275405354","long":"127.02088834","items":[{"name":"농가소.돼지도매센타","tel":"031-256-5850","addr":"경기도 수원시 팔달구 지동 423-5번지","category":"음료식품 - 정육점"},{"name":"수원삼성한의원","tel":"031-251-5680","addr":"경기도 수원시 팔달구 지동 423-5번지","category":"의원 - 한의원"}]},{"lat":"37.277738261","long":"127.02530888","items":[{"name":"농부쌀","tel":"","addr":"경기도 수원시 팔달구 지동 120-1번지","category":"음료식품 - 미곡상"}]},{"lat":"37.275513498","long":"127.02075306","items":[{"name":"농심축산물도소매센타","tel":"031-269-2627","addr":"경기도 수원시 팔달구 지동 423-1번지","category":"음료식품 - 정육점"},{"name":"용궁양품","tel":"031-244-0441","addr":"경기도 수원시 팔달구 지동 423-1번지 상가","category":"의류 - 내의판매"},{"name":"월계슈퍼","tel":"031-243-8834","addr":"경기도 수원시 팔달구 지동 423-1번지","category":"유통업 영리 - 슈퍼마켓"}]},{"lat":"37.27976587","long":"127.02367449","items":[{"name":"뉴삼성영어수학학원","tel":"031-245-0365","addr":"경기도 수원시 팔달구 지동 280-16번지 2층","category":"학원 - 보습학원"},{"name":"반품마트","tel":"031-241-3333","addr":"경기도 수원시 팔달구 지동 280-16번지 1층","category":"전기제품 - 가전제품"},{"name":"유황나라","tel":"031-241-3333","addr":"경기도 수원시 팔달구 지동 280-16번지 1층","category":"건강식품 - 기타건강식품"},{"name":"카페로스팅","tel":"031-243-3033","addr":"경기도 수원시 팔달구 지동 280-16번지 103호","category":"일반휴게음식 - 서양음식"}]},{"lat":"37.276432664","long":"127.01995274","items":[{"name":"늘봄푸줏간","tel":"031-245-9292","addr":"경기도 수원시 팔달구 지동 397-15번지","category":"음료식품 - 정육점"},{"name":"다도상회","tel":"031-247-1837","addr":"경기도 수원시 팔달구 지동 397-15번지","category":"음료식품 - 농·축·수산품"},{"name":"반찬맛있는집","tel":"031-111-1111","addr":"경기도 수원시 팔달구 지동 397-15번지","category":"음료식품 - 기타음료식품"},{"name":"봉동상회","tel":"031-254-3824","addr":"경기도 수원시 팔달구 지동 397-15번지","category":"음료식품 - 농·축·수산품"},{"name":"비봉농산물","tel":"031-241-7709","addr":"경기도 수원시 팔달구 지동 397-15번지","category":"음료식품 - 농·축·수산품"},{"name":"영주식품","tel":"031-243-3704","addr":"경기도 수원시 팔달구 지동 397-15번지","category":"음료식품 - 기타음료식품"}]},{"lat":"37.283594714","long":"127.02644952","items":[{"name":"다다홀스(dadahorse)","tel":"031-255-3008","addr":"경기도 수원시 팔달구 지동 221-2번지","category":"레져용품 - 스포츠·레져용품"},{"name":"다다홀스(dadahorse)","tel":"070-7733-4546","addr":"경기도 수원시 팔달구 지동 221-2번지","category":"레져용품 - 스포츠·레져용품"},{"name":"다다홀스(dadahorse)","tel":"031-255-3008","addr":"경기도 수원시 팔달구 지동 221-2번지","category":"레져용품 - 스포츠·레져용품"},{"name":"진두테크놀러지","tel":"031-255-3008","addr":"경기도 수원시 팔달구 지동 221-2번지 3 층전체","category":"레져용품 - 스포츠·레져용품"}]},{"lat":"37.282018467","long":"127.02350597","items":[{"name":"다쎈 공조","tel":"","addr":"경기도 수원시 팔달구 지동 274-1번지","category":"용역 서비스 - 기타용역서비스"}]},{"lat":"37.276485753","long":"127.02572569","items":[{"name":"다연죽","tel":"031-248-1117","addr":"경기도 수원시 팔달구 지동 116-17번지","category":"일반휴게음식 - 일반한식"},{"name":"새소망의료기","tel":"031-248-6617","addr":"경기도 수원시 팔달구 지동 116-17번지","category":"기타의료기관 - 기타의료기관 및 기타"}]},{"lat":"37.280432441","long":"127.02472333","items":[{"name":"다온정보통신(주)","tel":"","addr":"경기도 수원시 팔달구 지동 135-22번지 지층","category":"전기제품 - 기타전기제품"},{"name":"신세기정보통신","tel":"031-223-7571","addr":"경기도 수원시 팔달구 지동 135-22번지","category":"사무통신 - 통신기기"},{"name":"신세기정보통신주식회사","tel":"031-223-7571","addr":"경기도 수원시 팔달구 지동 135-22번지","category":"사무통신 - 통신기기"}]},{"lat":"37.277820207","long":"127.02022366","items":[{"name":"단골양복점","tel":"031-45-9016","addr":"경기도 수원시 팔달구 지동 401-1번지","category":"의류 - 맞춤복점"},{"name":"도문양꼬치","tel":"031-256-8677","addr":"경기도 수원시 팔달구 지동 401-1번지","category":"일반휴게음식 - 일반한식"},{"name":"얌박스","tel":"","addr":"경기도 수원시 팔달구 지동 401-1번지 차없는거리및지동교","category":"일반휴게음식 - 서양음식"}]},{"lat":"37.281432503","long":"127.02514083","items":[{"name":"대림산업","tel":"031-251-3542","addr":"경기도 수원시 팔달구 지동 142-10번지","category":"건축자재 - 보일러·펌프·샷시"}]},{"lat":"37.276099203","long":"127.02050515","items":[{"name":"대박닭강정통닭","tel":"031-000-0000","addr":"경기도 수원시 팔달구 지동 396번지","category":"일반휴게음식 - 일반한식"},{"name":"못골야채","tel":"031-247-9448","addr":"경기도 수원시 팔달구 지동 396번지 1층","category":"음료식품 - 농·축·수산품"},{"name":"족발나라","tel":"111-1111-111","addr":"경기도 수원시 팔달구 지동 396번지 1층","category":"일반휴게음식 - 일반한식"}]},{"lat":"37.282287782","long":"127.02858031","items":[{"name":"대박마트","tel":"031-254-3334","addr":"경기도 수원시 팔달구 지동 478-1번지 101호","category":"유통업 영리 - 슈퍼마켓"},{"name":"세븐일레븐수원지동타운점","tel":"031-1577-0711","addr":"경기도 수원시 팔달구 지동 478-1번지 101호","category":"유통업 영리 - 편 의 점"}]},{"lat":"37.277152492","long":"127.02583865","items":[{"name":"대성슈퍼","tel":"070-3545-6171","addr":"경기도 수원시 팔달구 지동 115-8번지","category":"유통업 영리 - 슈퍼마켓"}]},{"lat":"37.275378401","long":"127.02036968","items":[{"name":"대성의원","tel":"031-256-1100","addr":"경기도 수원시 팔달구 지동 424-3번지 대성빌딩 2층","category":"의원 - 의원"},{"name":"대성한의원","tel":"031-256-2100","addr":"경기도 수원시 팔달구 지동 424-3번지 대성빌딩 1층","category":"의원 - 한의원"}]},{"lat":"37.281846969","long":"127.02517478","items":[{"name":"대양인쇄기획","tel":"031-224-5255","addr":"경기도 수원시 팔달구 지동 146-14번지","category":"서적문구 - 출판 및 인쇄물"},{"name":"으뜸약국","tel":"031-257-7253","addr":"경기도 수원시 팔달구 지동 146-14번지 1층 우측","category":"약국 - 약국"}]},{"lat":"37.281287998","long":"127.02688857","items":[{"name":"대영창호","tel":"031-254-4191","addr":"경기도 수원시 팔달구 지동 152-16번지","category":"용역 서비스 - 기타용역서비스"}]},{"lat":"37.281765519","long":"127.02700148","items":[{"name":"대원유통","tel":"031-244-0035","addr":"경기도 수원시 팔달구 지동 153-70번지","category":"주방용구 - 주방용구"}]},{"lat":"37.28304511","long":"127.02633659","items":[{"name":"대진삼정가스","tel":"031-251-9999","addr":"경기도 수원시 팔달구 지동 225-96번지","category":"연료판매점 - LPG 취급점"}]},{"lat":"37.277378184","long":"127.02347088","items":[{"name":"대한상회","tel":"031-6-5184","addr":"경기도 수원시 팔달구 지동 360-15번지","category":"주방용구 - 주방용식기"},{"name":"디지털사진관","tel":"031-251-3776","addr":"경기도 수원시 팔달구 지동 360-15번지","category":"광학제품 - 사진관"},{"name":"수원슈퍼","tel":"031-252-3779","addr":"경기도 수원시 팔달구 지동 360-15번지","category":"유통업 영리 - 슈퍼마켓"}]},{"lat":"37.275900948","long":"127.02069678","items":[{"name":"대호반찬","tel":"031-241-0208","addr":"경기도 수원시 팔달구 지동 387-1번지","category":"음료식품 - 기타음료식품"}]},{"lat":"37.275963487","long":"127.02394405","items":[{"name":"대흥전자","tel":"031-234-5949","addr":"경기도 수원시 팔달구 지동 123-8번지","category":"기타 - 기타 전문점"},{"name":"스칼렛","tel":"031-244-1114","addr":"경기도 수원시 팔달구 지동 123-8번지 2층","category":"보건위생 - 미용재료"},{"name":"야무진기획","tel":"031-252-3631","addr":"경기도 수원시 팔달구 지동 123-8번지 3층 301호","category":"회원제형태 - 기타4"}]},{"lat":"37.275900546","long":"127.02319987","items":[{"name":"더도노","tel":"070-8841-9806","addr":"경기도 수원시 팔달구 지동 365-20번지 포레스트 401호","category":"회원제형태 - 학원"}]},{"lat":"37.276766033","long":"127.02003174","items":[{"name":"덕대물산","tel":"031-257-0046","addr":"경기도 수원시 팔달구 지동 400-24번지","category":"신변잡화 - 기타잡화"},{"name":"지동뻥튀기","tel":"031-254-7789","addr":"경기도 수원시 팔달구 지동 400-24번지","category":"음료식품 - 기타음료식품"}]},{"lat":"37.276153219","long":"127.02080959","items":[{"name":"도도유통","tel":"031-246-7150","addr":"경기도 수원시 팔달구 지동 393-5번지 1층 창고","category":"음료식품 - 기타음료식품"}]},{"lat":"37.285207751","long":"127.02542386","items":[{"name":"도매유통","tel":"031-252-9837","addr":"경기도 수원시 팔달구 지동 232-42번지","category":"유통업 영리 - 슈퍼마켓"}]},{"lat":"37.278629391","long":"127.02958259","items":[{"name":"독일무역","tel":"070-7844-7855","addr":"경기도 수원시 팔달구 지동 70-9번지 1층 상가","category":"자동차정비 유지 - 자동차부품"},{"name":"원뷰티끄","tel":"","addr":"경기도 수원시 팔달구 지동 70-9번지","category":"보건위생 - 피부미용실"}]},{"lat":"37.281539898","long":"127.02872664","items":[{"name":"동경초밥n덮밥n도시락n","tel":"070-8799-8989","addr":"경기도 수원시 팔달구 지동 480-28번지 1층","category":"일반휴게음식 - 일식·회집"},{"name":"솔버 (SOLVER)","tel":"070-4206-1310","addr":"경기도 수원시 팔달구 지동 480-28번지 1층 3호","category":"사무통신 - 컴퓨터"},{"name":"주영유통","tel":"","addr":"경기도 수원시 팔달구 지동 480-28번지","category":"음료식품 - 기타음료식품"}]},{"lat":"37.27873752","long":"127.02956008","items":[{"name":"동남슈퍼","tel":"031-247-4522","addr":"경기도 수원시 팔달구 지동 70-1번지","category":"유통업 영리 - 슈퍼마켓"}]},{"lat":"37.28248648","long":"127.02630259","items":[{"name":"동동노래연습장","tel":"031-248-5711","addr":"경기도 수원시 팔달구 지동 224-4번지 지층","category":"레저업소 - 노 래 방"},{"name":"에이앤화장품수원중앙지사","tel":"031-258-4986","addr":"경기도 수원시 팔달구 지동 224-4번지","category":"보건위생 - 화장품"},{"name":"한성영양탕","tel":"031-246-5988","addr":"경기도 수원시 팔달구 지동 224-4번지 1층","category":"일반휴게음식 - 일반한식"}]},{"lat":"37.280179773","long":"127.02669653","items":[{"name":"동서커피하우스","tel":"031-214-3364","addr":"경기도 수원시 팔달구 지동 174-7번지","category":"음료식품 - 기타음료식품"}]},{"lat":"37.280629777","long":"127.02910971","items":[{"name":"동수원상사","tel":"031-244-2675","addr":"경기도 수원시 팔달구 지동 480-10번지","category":"신변잡화 - 기타잡화"}]},{"lat":"37.278927857","long":"127.02400125","items":[{"name":"동양타일상사","tel":"031-243-4290","addr":"경기도 수원시 팔달구 지동 129-4번지 1층","category":"건축자재 - 건축용 요업제품"},{"name":"미성광고","tel":"031-244-2022","addr":"경기도 수원시 팔달구 지동 129-4번지","category":"용역 서비스 - 종합용역"}]},{"lat":"37.28156708","long":"127.02802754","items":[{"name":"동우사","tel":"031-243-8011","addr":"경기도 수원시 팔달구 지동 479-18번지","category":"서적문구 - 출판 및 인쇄물"}]},{"lat":"37.284567683","long":"127.02713769","items":[{"name":"동진액자","tel":"031-258-6898","addr":"경기도 수원시 팔달구 지동 212-10번지","category":"문화.취미 - 화방·표구점"},{"name":"미네랄하우스","tel":"031-255-0300","addr":"경기도 수원시 팔달구 지동 212-10번지 동진빌딩 1층","category":"신변잡화 - 기타잡화"},{"name":"소래터예능음악학원","tel":"031-254-6791","addr":"경기도 수원시 팔달구 지동 212-10번지","category":"학원 - 예·체능계학원"}]},{"lat":"37.27728845","long":"127.02122705","items":[{"name":"동현미용실","tel":"031-243-5877","addr":"경기도 수원시 팔달구 지동 333-14번지","category":"보건위생 - 미용원"}]},{"lat":"37.283261257","long":"127.02683281","items":[{"name":"두꺼비곱창","tel":"031-241-8003","addr":"경기도 수원시 팔달구 지동 474번지 동선빌딩 1층","category":"일반휴게음식 - 일반한식"},{"name":"복전나라","tel":"031-241-8003","addr":"경기도 수원시 팔달구 지동 474번지 동선빌딩 1층","category":"음료식품 - 기타음료식품"},{"name":"빌보드노래연습장","tel":"031-256-8488","addr":"경기도 수원시 팔달구 지동 474번지 동선빌딩 지하층","category":"레저업소 - 노 래 방"},{"name":"옛날집","tel":"031-241-3082","addr":"경기도 수원시 팔달구 지동 474번지 동선빌딩 1층","category":"일반휴게음식 - 일반한식"},{"name":"클릭 당구장","tel":"","addr":"경기도 수원시 팔달구 지동 474번지 동선빌딩 2층","category":"레저업소 - 당 구 장"},{"name":"햇살미용실","tel":"031-244-3577","addr":"경기도 수원시 팔달구 지동 474번지","category":"보건위생 - 미용원"}]},{"lat":"37.275540632","long":"127.02005401","items":[{"name":"두발로제화","tel":"031-241-5739","addr":"경기도 수원시 팔달구 지동 418-2번지","category":"신변잡화 - 제화"},{"name":"월드마켓","tel":"031-245-8612","addr":"경기도 수원시 팔달구 지동 418-2번지","category":"유통업 영리 - 슈퍼마켓"}]},{"lat":"37.277901448","long":"127.01917506","items":[{"name":"두현식품","tel":"031-252-0130","addr":"경기도 수원시 팔달구 지동 404-6번지","category":"음료식품 - 농·축·수산품"},{"name":"수원성식당","tel":"031-256-9611","addr":"경기도 수원시 팔달구 지동 404-6번지","category":"일반휴게음식 - 일반한식"}]},{"lat":"37.276846127","long":"127.02591748","items":[{"name":"둥지식당","tel":"031-247-2839","addr":"경기도 수원시 팔달구 지동 116-8번지","category":"일반휴게음식 - 일반한식"}]},{"lat":"37.281513047","long":"127.02789221","items":[{"name":"드림테크","tel":"031-211-6162","addr":"경기도 수원시 팔달구 지동 479-19번지 2층","category":"주방용구 - 정수기"}]},{"lat":"37.281350561","long":"127.0292791","items":[{"name":"디에이치(DH)메디칼","tel":"070-4366-0825","addr":"경기도 수원시 팔달구 지동 480-18번지 1층","category":"보건위생 - 의료용품"}]},{"lat":"37.277711558","long":"127.02350479","items":[{"name":"디지털OA솔루션","tel":"031-213-1595","addr":"경기도 수원시 팔달구 지동 360-4번지","category":"사무통신 - 사무용 OA기기"}]},{"lat":"37.280153298","long":"127.02375353","items":[{"name":"땡큐노래방","tel":"031-256-9155","addr":"경기도 수원시 팔달구 지동 280-10번지","category":"레저업소 - 노 래 방"},{"name":"비에이치씨(BHC)지동점","tel":"031-257-9288","addr":"경기도 수원시 팔달구 지동 280-10번지","category":"일반휴게음식 - 스넥"}]},{"lat":"37.277900764","long":"127.02356122","items":[{"name":"뜨억!떡볶이","tel":"031-252-1255","addr":"경기도 수원시 팔달구 지동 360-13번지 1층","category":"일반휴게음식 - 스넥"},{"name":"현대종합인테리어","tel":"031-242-1104","addr":"경기도 수원시 팔달구 지동 360-13번지","category":"직물 - 카페트,커튼,천막,지물"}]},{"lat":"37.278629284","long":"127.03005617","items":[{"name":"람세스모텔","tel":"031-253-6502","addr":"경기도 수원시 팔달구 지동 483-15번지","category":"숙박업 - 여관/기타숙박업"}]},{"lat":"37.278377083","long":"127.02967271","items":[{"name":"루케헤어(LUCE HAIR)","tel":"031-207-3633","addr":"경기도 수원시 팔달구 지동 71-2번지 우성빌딩 102호","category":"보건위생 - 미용원"},{"name":"명동분식","tel":"031-247-0666","addr":"경기도 수원시 팔달구 지동 71-2번지","category":"일반휴게음식 - 일반한식"},{"name":"성광메디칼","tel":"031-257-7200","addr":"경기도 수원시 팔달구 지동 71-2번지 우성빌딩 3층","category":"보건위생 - 의료용품"},{"name":"현대의료기","tel":"031-242-1177","addr":"경기도 수원시 팔달구 지동 71-2번지 우성빌딩 1층","category":"기타의료기관 - 기타의료기관 및 기타"}]},{"lat":"37.282739278","long":"127.02356255","items":[{"name":"마녀의서랍","tel":"","addr":"경기도 수원시 팔달구 지동 271-91번지 풀하우스 201호","category":"신변잡화 - 기타잡화"}]},{"lat":"37.279765758","long":"127.02430593","items":[{"name":"막창이와곱순이","tel":"031-244-3176","addr":"경기도 수원시 팔달구 지동 134-15번지 외1필지","category":"일반휴게음식 - 일반한식"}]},{"lat":"37.280126178","long":"127.02424966","items":[{"name":"맑은물소리","tel":"","addr":"경기도 수원시 팔달구 지동 134-28번지","category":"용역 서비스 - 종합용역"}]},{"lat":"37.278738735","long":"127.02347125","items":[{"name":"매교중고에어컨","tel":"031-232-5488","addr":"경기도 수원시 팔달구 지동 358-12","category":"수리서비스 - 가정용품수리"}]},{"lat":"37.276377695","long":"127.0253874","items":[{"name":"매듭까페(Knots&coffee)","tel":"031-245-2303","addr":"경기도 수원시 팔달구 지동 116-23번지","category":"일반휴게음식 - 서양음식"}]},{"lat":"37.276071708","long":"127.0233916","items":[{"name":"매화보신탕","tel":"031-245-5911","addr":"경기도 수원시 팔달구 지동 365-17번지 1층","category":"일반휴게음식 - 일반한식"},{"name":"월드스펙프로틴","tel":"02-532-8532","addr":"경기도 수원시 팔달구 지동 365-17번지 3층","category":"음료식품 - 기타음료식품"},{"name":"탑짐","tel":"031-256-5066","addr":"경기도 수원시 팔달구 지동 365-17번지","category":"레저업소 - 헬스클럽"}]},{"lat":"37.2779012","long":"127.02088893","items":[{"name":"멋쟁이미용실","tel":"031-247-8864","addr":"경기도 수원시 팔달구 지동 307-2번지","category":"보건위생 - 미용원"}]},{"lat":"37.283981975","long":"127.02734048","items":[{"name":"메아리노래연습장","tel":"031-242-5253","addr":"경기도 수원시 팔달구 지동 472-5번지 지층","category":"레저업소 - 노 래 방"}]},{"lat":"37.27587398","long":"127.02027959","items":[{"name":"명동만두","tel":"031-241-1984","addr":"경기도 수원시 팔달구 지동 419-1번지","category":"일반휴게음식 - 스넥"},{"name":"종합축산물도매센터","tel":"031-247-9293","addr":"경기도 수원시 팔달구 지동 419-1번지","category":"음료식품 - 정육점"}]},{"lat":"37.276072209","long":"127.02025708","items":[{"name":"명성왕족발","tel":"031-243-9088","addr":"경기도 수원시 팔달구 지동 413-5번지","category":"일반휴게음식 - 일반한식"}]},{"lat":"37.282900727","long":"127.02741906","items":[{"name":"명우전기","tel":"031-242-4688","addr":"경기도 수원시 팔달구 지동 476-28","category":"용역 서비스 - 기타용역서비스"},{"name":"용신상사(대광열쇠)","tel":"031-244-9041","addr":"경기도 수원시 팔달구 지동 476-28번지","category":"수리서비스 - 기타수리서비스"}]},{"lat":"37.28368485","long":"127.02628041","items":[{"name":"모넬로","tel":"","addr":"경기도 수원시 팔달구 지동 221-4번지 가동 501호","category":"문화.취미 - 애완동물"}]},{"lat":"37.280567692","long":"127.0241934","items":[{"name":"모니터뱅크","tel":"031-251-6154","addr":"경기도 수원시 팔달구 지동 279-1번지 1층","category":"사무통신 - 컴퓨터"},{"name":"무노","tel":"031-245-3245","addr":"경기도 수원시 팔달구 지동 279-1번지","category":"의류 - 정장"}]},{"lat":"37.276323992","long":"127.02341421","items":[{"name":"모드니명품구제","tel":"031-221-2208","addr":"경기도 수원시 팔달구 지동 365-57번지 1층","category":"의류 - 기타의류"}]},{"lat":"37.280684636","long":"127.02521954","items":[{"name":"모언니","tel":"031-111-1111","addr":"경기도 수원시 팔달구 지동 136-5번지","category":"직물 - 침구·수예점"}]},{"lat":"37.275711707","long":"127.02086586","items":[{"name":"못골순대","tel":"031-256-4587","addr":"경기도 수원시 팔달구 지동 385번지","category":"일반휴게음식 - 일반한식"},{"name":"지동반찬","tel":"031-248-1465","addr":"경기도 수원시 팔달구 지동 385번지 1층","category":"음료식품 - 기타음료식품"}]},{"lat":"37.275378306","long":"127.02100108","items":[{"name":"못골참맛즉석두부","tel":"","addr":"경기도 수원시 팔달구 지동 422번지","category":"음료식품 - 기타음료식품"},{"name":"봄치과","tel":"031-241-1004","addr":"경기도 수원시 팔달구 지동 422번지 2층","category":"의원 - 치과의원"},{"name":"부부젓갈","tel":"031-248-6382","addr":"경기도 수원시 팔달구 지동 422번지","category":"음료식품 - 농·축·수산품"},{"name":"어사또수산","tel":"031-207-5151","addr":"경기도 수원시 팔달구 지동 422번지 1층","category":"음료식품 - 농·축·수산품"},{"name":"어사출또","tel":"031-207-5151","addr":"경기도 수원시 팔달구 지동 422번지 1층","category":"일반휴게음식 - 일반한식"}]},{"lat":"37.280873496","long":"127.02703502","items":[{"name":"무안골","tel":"031-241-8989","addr":"경기도 수원시 팔달구 지동 167-4번지 1층","category":"일반휴게음식 - 일반한식"}]},{"lat":"37.284234343","long":"127.02694589","items":[{"name":"무한리필 샤브샤브","tel":"031-256-4263","addr":"경기도 수원시 팔달구 지동 212-28번지 101호","category":"일반휴게음식 - 일반한식"},{"name":"콘서트(못골점)","tel":"031-3812-7588","addr":"경기도 수원시 팔달구 지동 212-28번지 1층","category":"일반휴게음식 - 주점"}]},{"lat":"37.283928051","long":"127.02666388","items":[{"name":"뮤즈헤어샵","tel":"031-241-7706","addr":"경기도 수원시 팔달구 지동 216-9번지","category":"보건위생 - 미용원"}]},{"lat":"37.280593592","long":"127.02975242","items":[{"name":"미래사","tel":"031-247-2110","addr":"경기도 수원시 팔달구 지동 481번지","category":"보건위생 - 기타대인서비스"},{"name":"보람정보통신기술","tel":"031-248-8802","addr":"경기도 수원시 팔달구 지동 481번지 1층","category":"사무통신 - 컴퓨터"},{"name":"스마일플러스원 동수원점","tel":"070-7864-1177","addr":"경기도 수원시 팔달구 지동 481번지 1층","category":"유통업 영리 - 편 의 점"},{"name":"이화수약국","tel":"031-207-9777","addr":"경기도 수원시 팔달구 지동 481번지","category":"약국 - 약국"},{"name":"주식회사 경기이엠에스","tel":"031-111-1111","addr":"경기도 수원시 팔달구 지동 481번지 2층","category":"용역 서비스 - 종합용역"},{"name":"주식회사 경기이엠에스","tel":"011-***-****","addr":"경기도 수원시 팔달구 지동 481번지 2층","category":"용역 서비스 - 종합용역"},{"name":"주식회사 경기이엠에스","tel":"011-***-****","addr":"경기도 수원시 팔달구 지동 481번지 2층","category":"용역 서비스 - 종합용역"},{"name":"주식회사 경기이엠에스","tel":"011-***-****","addr":"경기도 수원시 팔달구 지동 481번지 2층","category":"용역 서비스 - 종합용역"},{"name":"주식회사 경기이엠에스","tel":"011-***-****","addr":"경기도 수원시 팔달구 지동 481번지 2층","category":"용역 서비스 - 종합용역"},{"name":"주식회사 경기이엠에스","tel":"031-244-1339","addr":"경기도 수원시 팔달구 지동 481번지 2층","category":"용역 서비스 - 종합용역"},{"name":"주식회사 경기이엠에스","tel":"011-***-****","addr":"경기도 수원시 팔달구 지동 481번지 2층","category":"용역 서비스 - 종합용역"},{"name":"주식회사 경기이엠에스","tel":"011-***-****","addr":"경기도 수원시 팔달구 지동 481번지 2층","category":"용역 서비스 - 종합용역"},{"name":"주식회사경기이엠에스","tel":"031-244-1339","addr":"경기도 수원시 팔달구 지동 481번지 2층","category":"용역 서비스 - 종합용역"},{"name":"주식회사현화아이티에스","tel":"031-248-8801","addr":"경기도 수원시 팔달구 지동 481번지 1층","category":"사무통신 - 컴퓨터"}]},{"lat":"37.279927987","long":"127.02405791","items":[{"name":"미소담은한의원","tel":"031-253-7575","addr":"경기도 수원시 팔달구 지동 134-26번지 2층","category":"의원 - 한의원"},{"name":"아미꼬떼","tel":"031-8004-0414","addr":"경기도 수원시 팔달구 지동 134-26번지 1층","category":"음료식품 - 제과점"},{"name":"지-이레장식","tel":"031-241-1579","addr":"경기도 수원시 팔달구 지동 134-26번지 1층","category":"직물 - 카페트,커튼,천막,지물"}]},{"lat":"37.282459547","long":"127.02580643","items":[{"name":"미소통닭","tel":"031-253-7825","addr":"경기도 수원시 팔달구 지동 225-111번지 1층","category":"일반휴게음식 - 일반한식"},{"name":"애니북스","tel":"031-255-0221","addr":"경기도 수원시 팔달구 지동 225-111번지","category":"서적문구 - 일반서적"}]},{"lat":"37.283315628","long":"127.02525415","items":[{"name":"미스앤미스터","tel":"031-256-8608","addr":"경기도 수원시 팔달구 지동 225-4번지 2층","category":"회원제형태 - 기타4"}]},{"lat":"37.280928031","long":"127.02458816","items":[{"name":"미진새꽃직매장","tel":"031-244-7681","addr":"경기도 수원시 팔달구 지동 143-6번지","category":"문화.취미 - 화원"}]},{"lat":"37.277712123","long":"127.01995302","items":[{"name":"믿음당","tel":"031-246-0023","addr":"경기도 수원시 팔달구 지동 402-4번지","category":"신변잡화 - 시계"},{"name":"커피이야기","tel":"","addr":"경기도 수원시 팔달구 지동 402-4번지","category":"일반휴게음식 - 서양음식"}]},{"lat":"37.277982355","long":"127.02047176","items":[{"name":"믿음중고알뜰매장","tel":"031-243-7732","addr":"경기도 수원시 팔달구 지동 306-12번지","category":"전기제품 - 가전제품"}]},{"lat":"37.279432446","long":"127.02392247","items":[{"name":"밀알유치원","tel":"031-244-2333","addr":"경기도 수원시 팔달구 지동 132-2","category":"학원 - 유치원"}]},{"lat":"37.279378347","long":"127.02413669","items":[{"name":"밀알지엘학원","tel":"031-0000-0000","addr":"경기도 수원시 팔달구 지동 132-1번지 1층 좌측일부","category":"학원 - 보습학원"}]},{"lat":"37.281900943","long":"127.02563712","items":[{"name":"바이크(Bike) 마켓","tel":"031-253-9678","addr":"경기도 수원시 팔달구 지동 148-1번지 레이크빌 1층","category":"레져용품 - 스포츠·레져용품"},{"name":"이해법수학지동초점학원","tel":"031-251-6287","addr":"경기도 수원시 팔달구 지동 148-1번지 2층","category":"학원 - 보습학원"}]},{"lat":"37.281792743","long":"127.02603175","items":[{"name":"밝은나라조명","tel":"031-243-7333","addr":"경기도 수원시 팔달구 지동 149-4번지","category":"레져용품 - 음반/영상물"}]},{"lat":"37.280684874","long":"127.02392281","items":[{"name":"밧데리할인매장","tel":"031-245-0900","addr":"경기도 수원시 팔달구 지동 279-25번지 1층","category":"자동차정비 유지 - 자동차부품"}]},{"lat":"37.281982218","long":"127.0246674","items":[{"name":"백제미용 (백제코스메틱)","tel":"02-1111-1111","addr":"경기도 수원시 팔달구 지동 146-34번지","category":"보건위생 - 미용재료"}]},{"lat":"37.276296653","long":"127.02511677","items":[{"name":"백제보조기상사","tel":"031-253-6884","addr":"경기도 수원시 팔달구 지동 117-2번지","category":"보건위생 - 의료용품"}]},{"lat":"37.278791377","long":"127.03045087","items":[{"name":"베이프샵","tel":"","addr":"경기도 수원시 팔달구 지동 483-1번지 선린 1층 101호","category":"기타 - 기타 전문점"}]},{"lat":"37.282233885","long":"127.02781351","items":[{"name":"벨루가 디자인","tel":"","addr":"경기도 수원시 팔달구 지동 476-36번지 202호","category":"용역 서비스 - 사무서비스"}]},{"lat":"37.280927664","long":"127.02650507","items":[{"name":"보명토탈인테리어","tel":"031-244-2567","addr":"경기도 수원시 팔달구 지동 138-2번지","category":"용역 서비스 - 기타용역서비스"}]},{"lat":"37.275540297","long":"127.02223011","items":[{"name":"보청기매니져","tel":"031-212-1007","addr":"경기도 수원시 팔달구 지동 368-7번지 2층","category":"보건위생 - 의료용품"},{"name":"쓰리팩토리공장형안경원남문점","tel":"031-212-1007","addr":"경기도 수원시 팔달구 지동 368-7번지","category":"보건위생 - 안경"}]},{"lat":"37.278350091","long":"127.02950357","items":[{"name":"본앤본죽동수원사거리점","tel":"031-244-5689","addr":"경기도 수원시 팔달구 지동 73-1번지","category":"일반휴게음식 - 일반한식"}]},{"lat":"37.277018388","long":"127.01955823","items":[{"name":"부산식품","tel":"031-255-4244","addr":"경기도 수원시 팔달구 지동 407번지","category":"음료식품 - 기타음료식품"},{"name":"옥돌떡방앗간","tel":"031-242-8128","addr":"경기도 수원시 팔달구 지동 407번지","category":"음료식품 - 제과점"},{"name":"한성식품","tel":"031-247-2970","addr":"경기도 수원시 팔달구 지동 407","category":"음료식품 - 기타음료식품"}]},{"lat":"37.28290089","long":"127.02661845","items":[{"name":"부성상사","tel":"031-222-5732","addr":"경기도 수원시 팔달구 지동 474-15번지","category":"건축자재 - 보일러·펌프·샷시"}]},{"lat":"37.276711427","long":"127.02344815","items":[{"name":"불타는바베큐","tel":"031-251-8286","addr":"경기도 수원시 팔달구 지동 360-19번지","category":"일반휴게음식 - 주점"},{"name":"수원기독교백화점","tel":"031-251-3116","addr":"경기도 수원시 팔달구 지동 360-19번지","category":"서적문구 - 전문서적"}]},{"lat":"37.276594337","long":"127.02320006","items":[{"name":"뷰티코스메틱","tel":"031-251-0903","addr":"경기도 수원시 팔달구 지동 365-31번지 B1층","category":"회원제형태 - 기타4"},{"name":"유진네일","tel":"","addr":"경기도 수원시 팔달구 지동 365-31번지","category":"보건위생 - 피부미용실"},{"name":"이경화토탈뷰티헤어","tel":"031-251-0903","addr":"경기도 수원시 팔달구 지동 365-31번지","category":"보건위생 - 미용원"}]},{"lat":"37.280539568","long":"127.02958327","items":[{"name":"비엠월드스포츠","tel":"031-665-9942","addr":"경기도 수원시 팔달구 지동 481-1번지 반석맨션 201호","category":"레져용품 - 스포츠·레져용품"},{"name":"아이엘","tel":"02-1111-1111","addr":"경기도 수원시 팔달구 지동 481-1번지 반석빌라 501호","category":"보건위생 - 미용재료"}]},{"lat":"37.282180191","long":"127.02599804","items":[{"name":"비젼한일","tel":"031-253-5056","addr":"경기도 수원시 팔달구 지동 148-7번지","category":"전기제품 - 기타전기제품"},{"name":"에센티아","tel":"070-7789-4238","addr":"경기도 수원시 팔달구 지동 148-7번지 지하1층","category":"의류 - 기타의류"}]},{"lat":"37.277657423","long":"127.02392197","items":[{"name":"빨강머리","tel":"031-258-3571","addr":"경기도 수원시 팔달구 지동 123-91번지","category":"보건위생 - 미용원"},{"name":"아이노스음악학원","tel":"031-258-0014","addr":"경기도 수원시 팔달구 지동 123-91번지 3층","category":"학원 - 예·체능계학원"},{"name":"아트샘미술교습소","tel":"","addr":"경기도 수원시 팔달구 지동 123-91번지 1층","category":"학원 - 예·체능계학원"},{"name":"지동손칼국수","tel":"031-254-4236","addr":"경기도 수원시 팔달구 지동 123-91번지","category":"일반휴게음식 - 일반한식"},{"name":"프라임에듀학원","tel":"031-256-7865","addr":"경기도 수원시 팔달구 지동 123-91번지 2층","category":"학원 - 보습학원"}]},{"lat":"37.285009282","long":"127.02666422","items":[{"name":"사단법인한국공예디자인협회","tel":"031-256-7860","addr":"경기도 수원시 팔달구 지동 235-4번지","category":"기타 - 비영리/대상"}]},{"lat":"37.280712056","long":"127.02305458","items":[{"name":"사랑미니슈퍼","tel":"1111-1111-1111","addr":"경기도 수원시 팔달구 지동 278-19번지","category":"유통업 영리 - 슈퍼마켓"}]},{"lat":"37.280657356","long":"127.02650499","items":[{"name":"산골칼국수냉면전문","tel":"031-246-6066","addr":"경기도 수원시 팔달구 지동 138-42번지","category":"일반휴게음식 - 일반한식"},{"name":"카르페디엠헤어","tel":"031-253-0903","addr":"경기도 수원시 팔달구 지동 138-42번지 1층","category":"보건위생 - 미용원"}]},{"lat":"37.277234023","long":"127.02344829","items":[{"name":"삼성주방","tel":"031-224-5114","addr":"경기도 수원시 팔달구 지동 360-31번지","category":"주방용구 - 주방용구"}]},{"lat":"37.281288901","long":"127.02191585","items":[{"name":"삼영석유상사","tel":"031-251-5145","addr":"경기도 수원시 팔달구 지동 297-51번지","category":"연료판매점 - 주유소"}]},{"lat":"37.281180093","long":"127.02578349","items":[{"name":"삼일산업","tel":"031-212-0350","addr":"경기도 수원시 팔달구 지동 138-60번지 401호","category":"용역 서비스 - 종합용역"},{"name":"엄마손백반","tel":"031-241-6443","addr":"경기도 수원시 팔달구 지동 138-60번지","category":"일반휴게음식 - 일반한식"}]},{"lat":"37.27787419","long":"127.02075362","items":[{"name":"상무체육관","tel":"031-243-6465","addr":"경기도 수원시 팔달구 지동 306-13번지","category":"회원제형태 - 학원"}]},{"lat":"37.276206603","long":"127.02483486","items":[{"name":"상일싱크","tel":"031-215-3389","addr":"경기도 수원시 팔달구 지동 117-8번지 G동 1층","category":"주방용구 - 주방용구"}]},{"lat":"37.276404697","long":"127.02553399","items":[{"name":"상일씽크","tel":"031-215-3389","addr":"경기도 수원시 팔달구 지동 116-22번지 가우디움 1층","category":"주방용구 - 주방용구"}]},{"lat":"37.28162128","long":"127.02736227","items":[{"name":"새광명마트","tel":"070-8223-6340","addr":"경기도 수원시 팔달구 지동 479-12번지","category":"유통업 영리 - 슈퍼마켓"}]},{"lat":"37.275594395","long":"127.02200462","items":[{"name":"새로나침구","tel":"031-248-5542","addr":"경기도 수원시 팔달구 지동 371번지 구새로나백화점","category":"직물 - 침구·수예점"},{"name":"세븐힐여성사우나","tel":"031-244-0071","addr":"경기도 수원시 팔달구 지동 371번지 지하1층","category":"보건위생 - 사우나"},{"name":"신도뉴테크","tel":"02-231-9939","addr":"경기도 수원시 팔달구 지동 371번지 (주)장안유통 8호","category":"용역 서비스 - 기타용역서비스"},{"name":"신도에이테크","tel":"031-300-3873","addr":"경기도 수원시 팔달구 지동 371번지 새로나빌딩 10층 8호","category":"사무통신 - 사무용 OA기기"}]},{"lat":"37.285514099","long":"127.02542395","items":[{"name":"새승리정육점","tel":"031-244-7104","addr":"경기도 수원시 팔달구 지동 232-31번지","category":"음료식품 - 정육점"}]},{"lat":"37.281621683","long":"127.02533258","items":[{"name":"새한사무기","tel":"031-246-1482","addr":"경기도 수원시 팔달구 지동 147-4번지","category":"사무통신 - 사무용 OA기기"},{"name":"새한사무기/특별할부","tel":"031-246-1482","addr":"경기도 수원시 팔달구 지동 147-4번지","category":"사무통신 - 사무용 OA기기"}]},{"lat":"37.280764812","long":"127.02963973","items":[{"name":"색동현수막","tel":"031-258-7711","addr":"경기도 수원시 팔달구 지동 480-7번지","category":"용역 서비스 - 종합용역"},{"name":"주식회사 제이엠디자인","tel":"031-223-4349","addr":"경기도 수원시 팔달구 지동 480-7번지","category":"건축자재 - 인테리어전문"}]},{"lat":"37.275594462","long":"127.02158744","items":[{"name":"생명나무한의원","tel":"031-257-0717","addr":"경기도 수원시 팔달구 지동 378-3번지 실로암메디칼타워 601호","category":"의원 - 한의원"}]},{"lat":"37.27912573","long":"127.02589562","items":[{"name":"샬룸헤어샵","tel":"031-000-0000","addr":"경기도 수원시 팔달구 지동 106-5번지","category":"보건위생 - 미용원"}]},{"lat":"37.275684392","long":"127.02264733","items":[{"name":"서울오토바이","tel":"031-252-4940","addr":"경기도 수원시 팔달구 지동 367-2번지","category":"자동차판매 - 이륜차판매"}]},{"lat":"37.279710516","long":"127.03005656","items":[{"name":"설연세무회계사무소","tel":"","addr":"경기도 수원시 팔달구 지동 482-1번지 202호","category":"용역 서비스 - 법률회계서비스(개인)"},{"name":"슈크레","tel":"031-238-5566","addr":"경기도 수원시 팔달구 지동 482-1번지 1층","category":"일반휴게음식 - 서양음식"}]},{"lat":"37.281954346","long":"127.02883954","items":[{"name":"세광카인테리어","tel":"031-253-8266","addr":"경기도 수원시 팔달구 지동 478-7번지","category":"자동차정비 유지 - 자동차정비"}]},{"lat":"37.280261353","long":"127.02413694","items":[{"name":"세방유통","tel":"031-253-2177","addr":"경기도 수원시 팔달구 지동 134-23번지","category":"주방용구 - 주방용식기"}]},{"lat":"37.278486368","long":"127.0239222","items":[{"name":"세일전자","tel":"031-246-3248","addr":"경기도 수원시 팔달구 지동 360-1번지","category":"보건위생 - 화장품"},{"name":"청호설비","tel":"031-242-8737","addr":"경기도 수원시 팔달구 지동 360-1번지 1층","category":"용역 서비스 - 기타용역서비스"}]},{"lat":"37.280738538","long":"127.02605398","items":[{"name":"소강탕","tel":"031-242-1020","addr":"경기도 수원시 팔달구 지동 138-85번지","category":"보건위생 - 사우나"},{"name":"최고로 식자재 유통","tel":"031-207-6655","addr":"경기도 수원시 팔달구 지동 138-85번지 소강빌딩 1층","category":"음료식품 - 기타음료식품"},{"name":"해피지동어린이집[아이행복]","tel":"031-248-6287","addr":"경기도 수원시 팔달구 지동 138-85번지","category":"학원 - 유아원"}]},{"lat":"37.284126726","long":"127.02430717","items":[{"name":"소연미용실","tel":"031-246-7707","addr":"경기도 수원시 팔달구 지동 270-55번지","category":"보건위생 - 미용원"}]},{"lat":"37.281710989","long":"127.02920029","items":[{"name":"솟아라식품","tel":"031-256-2580","addr":"경기도 수원시 팔달구 지동 480번지 늘푸른오스카빌 1층","category":"회원제형태 - 건강식품"},{"name":"신일모피","tel":"031-256-2530","addr":"경기도 수원시 팔달구 지동 480번지 5층","category":"의류 - 정장"}]},{"lat":"37.28359468","long":"127.02661867","items":[{"name":"송탄부대찌개","tel":"031-258-2100","addr":"경기도 수원시 팔달구 지동 221-28번지 1층","category":"일반휴게음식 - 일반한식"}]},{"lat":"37.282873937","long":"127.02622377","items":[{"name":"수아미헤어","tel":"031-241-3636","addr":"경기도 수원시 팔달구 지동 225-66번지","category":"보건위생 - 미용원"}]},{"lat":"37.281540683","long":"127.02483641","items":[{"name":"수원당구재료","tel":"031-256-4555","addr":"경기도 수원시 팔달구 지동 142-28번지","category":"레져용품 - 스포츠·레져용품"},{"name":"준인테리어","tel":"031-241-8489","addr":"경기도 수원시 팔달구 지동 142-28번지 1층","category":"건축자재 - 인테리어전문"},{"name":"지디자인기획","tel":"031-253-5227","addr":"경기도 수원시 팔달구 지동 142-28번지","category":"용역 서비스 - 종합용역"}]},{"lat":"37.28026119","long":"127.02502773","items":[{"name":"수원디기","tel":"","addr":"경기도 수원시 팔달구 지동 138-4번지","category":"전기제품 - 가전제품"},{"name":"좋은고기푸줏간","tel":"031-207-0222","addr":"경기도 수원시 팔달구 지동 138-4번지 1층","category":"음료식품 - 정육점"}]},{"lat":"37.283846906","long":"127.02692321","items":[{"name":"수원열쇠도장","tel":"031-306-1382","addr":"경기도 수원시 팔달구 지동 499 못골사거리 못골어린이공원옆","category":"건축자재 - 목재·석재·철물"}]},{"lat":"37.284712286","long":"127.02489371","items":[{"name":"수원유명열쇠","tel":"031-241-1304","addr":"경기도 수원시 팔달구 지동 270-1번지 2층","category":"건축자재 - 목재·석재·철물"}]},{"lat":"37.276179597","long":"127.02469955","items":[{"name":"수원천막철재사","tel":"031-224-6600","addr":"경기도 수원시 팔달구 지동 118-4번지 우성빌딩","category":"직물 - 카페트,커튼,천막,지물"},{"name":"애드플라자","tel":"031-252-7625","addr":"경기도 수원시 팔달구 지동 118-4번지 1층","category":"용역 서비스 - 종합용역"}]},{"lat":"37.279657412","long":"127.02550113","items":[{"name":"수원파이모아","tel":"031-245-8223","addr":"경기도 수원시 팔달구 지동 138-7번지 삼호아파트","category":"보건위생 - 미용재료"}]},{"lat":"37.277045379","long":"127.01984012","items":[{"name":"순이네 장아찌 부페식 백반","tel":"","addr":"경기도 수원시 팔달구 지동 400-15번지 105호","category":"일반휴게음식 - 일반한식"},{"name":"시골마당","tel":"031-258-3530","addr":"경기도 수원시 팔달구 지동 400-15번지 104호","category":"일반휴게음식 - 일반한식"},{"name":"제주광어","tel":"031-257-8909","addr":"경기도 수원시 팔달구 지동 400-15번지 103호","category":"일반휴게음식 - 일식·회집"}]},{"lat":"37.280540139","long":"127.02692216","items":[{"name":"슈가 크리에이티브","tel":"031-851-6205","addr":"경기도 수원시 팔달구 지동 169-23번지 103호","category":"용역 서비스 - 종합용역"}]},{"lat":"37.276540232","long":"127.0234481","items":[{"name":"스튜디오티오피(TOP)","tel":"031-252-7447","addr":"경기도 수원시 팔달구 지동 360-17번지","category":"광학제품 - 사진관"}]},{"lat":"37.278512181","long":"127.02992082","items":[{"name":"스파클 수원중앙 대리점","tel":"031-225-4916","addr":"경기도 수원시 팔달구 지동 483-14번지 201호","category":"유통업 영리 - 기타유통업"}]},{"lat":"37.275792845","long":"127.02056145","items":[{"name":"승주패션","tel":"031-244-1804","addr":"경기도 수원시 팔달구 지동 420-6번지","category":"의류 - 정장"},{"name":"영동축산지동점","tel":"031-241-4278","addr":"경기도 수원시 팔달구 지동 420-6번지","category":"음료식품 - 정육점"},{"name":"형제사","tel":"031-244-3540","addr":"경기도 수원시 팔달구 지동 420-6번지","category":"신변잡화 - 시계"}]},{"lat":"37.281955524","long":"127.02275045","items":[{"name":"시립지동어린이집[아이행복]","tel":"031-243-9801","addr":"경기도 수원시 팔달구 지동 297-3번지","category":"학원 - 유아원"}]},{"lat":"37.276486771","long":"127.01963704","items":[{"name":"신성기물","tel":"031-242-2452","addr":"경기도 수원시 팔달구 지동 412번지","category":"주방용구 - 주방용식기"}]},{"lat":"37.282045068","long":"127.02584013","items":[{"name":"신세계마트","tel":"031-212-4633","addr":"경기도 수원시 팔달구 지동 148-9번지","category":"유통업 영리 - 슈퍼마켓"},{"name":"신세계마트정육","tel":"031-1111-1111","addr":"경기도 수원시 팔달구 지동 148-9번지 1층","category":"음료식품 - 정육점"}]},{"lat":"37.275351313","long":"127.02075302","items":[{"name":"신앙촌상회","tel":"031-246-1440","addr":"경기도 수원시 팔달구 지동 423-4번지","category":"음료식품 - 기타음료식품"}]},{"lat":"37.276207343","long":"127.02039242","items":[{"name":"싱싱닭집","tel":"031-246-5935","addr":"경기도 수원시 팔달구 지동 397-8번지","category":"음료식품 - 정육점"},{"name":"오복떡집","tel":"031-252-8070","addr":"경기도 수원시 팔달구 지동 397-8번지","category":"음료식품 - 제과점"}]},{"lat":"37.278684594","long":"127.02392226","items":[{"name":"쌍둥이 주막","tel":"031-256-8492","addr":"경기도 수원시 팔달구 지동 129-13번지 1층","category":"일반휴게음식 - 일반한식"},{"name":"해피하우스인테리어","tel":"031-307-1856","addr":"경기도 수원시 팔달구 지동 129-13번지 1층","category":"건축자재 - 인테리어전문"}]},{"lat":"37.283711793","long":"127.02672019","items":[{"name":"씨유못골프리미엄점","tel":"031-898-6568","addr":"경기도 수원시 팔달구 지동 216-10번지 건물 1층","category":"유통업 영리 - 편 의 점"}]},{"lat":"37.281044748","long":"127.02675318","items":[{"name":"씨유수원지동제일점","tel":"080-080-3663","addr":"경기도 수원시 팔달구 지동 140-9번지 1층","category":"유통업 영리 - 편 의 점"},{"name":"우블리","tel":"031-000-0000","addr":"경기도 수원시 팔달구 지동 140-9번지","category":"음료식품 - 기타음료식품"}]},{"lat":"37.278152988","long":"127.02392211","items":[{"name":"씨유지동프리미엄점","tel":"031-253-0214","addr":"경기도 수원시 팔달구 지동 123-41번지 상건물 1층","category":"유통업 영리 - 편 의 점"}]},{"lat":"37.278513747","long":"127.02185878","items":[{"name":"아모레카운셀러","tel":"031-252-2248","addr":"경기도 수원시 팔달구 지동 314-6번지","category":"보건위생 - 화장품"}]},{"lat":"37.28279248","long":"127.02800539","items":[{"name":"아이들세상어린이집[아이행복]","tel":"031-269-0886","addr":"경기도 수원시 팔달구 지동 476-9번지 1층","category":"학원 - 유아원"}]},{"lat":"37.276684074","long":"127.02522964","items":[{"name":"아이맘어린이집[아이행복]","tel":"031-254-4011","addr":"경기도 수원시 팔달구 지동 115-7번지","category":"학원 - 유아원"}]},{"lat":"37.278180576","long":"127.02050563","items":[{"name":"안성순대국","tel":"031-245-5892","addr":"경기도 수원시 팔달구 지동 306-6","category":"일반휴게음식 - 일반한식"},{"name":"정근이네감자탕","tel":"031-243-6114","addr":"경기도 수원시 팔달구 지동 306-6번지","category":"일반휴게음식 - 일반한식"}]},{"lat":"37.278072373","long":"127.02103555","items":[{"name":"알누리","tel":"031-211-6336","addr":"경기도 수원시 팔달구 지동 308-2번지 1층","category":"음료식품 - 농·축·수산품"}]},{"lat":"37.275324373","long":"127.02014416","items":[{"name":"에스엠(SM)모바일","tel":"031-255-3029","addr":"경기도 수원시 팔달구 지동 427-2번지","category":"사무통신 - 통신기기"}]},{"lat":"37.28348629","long":"127.02791541","items":[{"name":"에어컨마스터","tel":"070-7425-4545","addr":"경기도 수원시 팔달구 지동 477-11번지 동서울하우스 102호","category":"용역 서비스 - 기타용역서비스"}]},{"lat":"37.283712313","long":"127.02398004","items":[{"name":"에이스공조","tel":"031-241-3303","addr":"경기도 수원시 팔달구 지동 270-13번지","category":"용역 서비스 - 기타용역서비스"},{"name":"지동슈퍼","tel":"031-256-4660","addr":"경기도 수원시 팔달구 지동 270-13번지 1층","category":"유통업 영리 - 슈퍼마켓"}]},{"lat":"37.285153732","long":"127.02519831","items":[{"name":"에코하우시스","tel":"080-252-5495","addr":"경기도 수원시 팔달구 지동 267-26번지","category":"건축자재 - 인테리어전문"},{"name":"예인데코","tel":"031-243-0607","addr":"경기도 수원시 팔달구 지동 267-26번지","category":"건축자재 - 인테리어전문"},{"name":"창테크","tel":"031-241-2654","addr":"경기도 수원시 팔달구 지동 267-26번지","category":"신변잡화 - 기타잡화"}]},{"lat":"37.280540278","long":"127.02622305","items":[{"name":"엘에이미용실","tel":"031-258-8022","addr":"경기도 수원시 팔달구 지동 138-46번지 1층","category":"보건위생 - 미용원"},{"name":"온누리새푸른약국","tel":"031-254-5497","addr":"경기도 수원시 팔달구 지동 138-46번지","category":"약국 - 약국"}]},{"lat":"37.275459286","long":"127.02172271","items":[{"name":"연세스토리치과의원","tel":"031-308-2879","addr":"경기도 수원시 팔달구 지동 374-1번지 외 2필지","category":"의원 - 치과의원"}]},{"lat":"37.280900656","long":"127.0263923","items":[{"name":"연세의원","tel":"031-247-2476","addr":"경기도 수원시 팔달구 지동 141-15번지","category":"의원 - 의원"}]},{"lat":"37.276955257","long":"127.0199754","items":[{"name":"연탄구이","tel":"031-242-7921","addr":"경기도 수원시 팔달구 지동 400-18번지 1층","category":"일반휴게음식 - 일반한식"}]},{"lat":"37.280018059","long":"127.02422708","items":[{"name":"예성노래영상","tel":"031-247-8318","addr":"경기도 수원시 팔달구 지동 134-27번지 B동 101호","category":"용역 서비스 - 종합용역"},{"name":"향토골","tel":"031-224-2768","addr":"경기도 수원시 팔달구 지동 134-27번지","category":"일반휴게음식 - 일반한식"}]},{"lat":"37.27568471","long":"127.02064035","items":[{"name":"옛고을떡집","tel":"031-241-7317","addr":"경기도 수원시 팔달구 지동 421번지","category":"음료식품 - 제과점"},{"name":"지동고추상회","tel":"031-242-8673","addr":"경기도 수원시 팔달구 지동 421번지","category":"음료식품 - 농·축·수산품"},{"name":"지동생산(수산)","tel":"031-251-9678","addr":"경기도 수원시 팔달구 지동 421번지","category":"음료식품 - 농·축·수산품"},{"name":"지동야채","tel":"031-257-5809","addr":"경기도 수원시 팔달구 지동 421번지","category":"음료식품 - 농·축·수산품"}]},{"lat":"37.283234799","long":"127.02381076","items":[{"name":"오래우드","tel":"","addr":"경기도 수원시 팔달구 지동 270-32번지","category":"가구 - 일반가구"}]},{"lat":"37.281738622","long":"127.02633618","items":[{"name":"오석건설산업","tel":"031-246-5236","addr":"경기도 수원시 팔달구 지동 152-6번지","category":"용역 서비스 - 기타용역서비스"},{"name":"유전에너지","tel":"031-221-3030","addr":"경기도 수원시 팔달구 지동 152-6번지","category":"연료판매점 - 유류판매"}]},{"lat":"37.284153061","long":"127.02785925","items":[{"name":"오토오아시스평화점","tel":"031-241-2534","addr":"경기도 수원시 팔달구 지동 472-1번지","category":"자동차정비 유지 - 자동차정비"}]},{"lat":"37.281125783","long":"127.0270351","items":[{"name":"와뜨래요","tel":"031-252-9272","addr":"경기도 수원시 팔달구 지동 168-1번지 1층 101호","category":"일반휴게음식 - 일반한식"}]},{"lat":"37.277711954","long":"127.02109185","items":[{"name":"왕대포","tel":"031-244-8736","addr":"경기도 수원시 팔달구 지동 323번지","category":"일반휴게음식 - 일반한식"},{"name":"챤스","tel":"031-254-1943","addr":"경기도 수원시 팔달구 지동 323번지","category":"일반휴게음식 - 주점"}]},{"lat":"37.27671193","long":"127.02031361","items":[{"name":"용궁도령","tel":"031-257-2808","addr":"경기도 수원시 팔달구 지동 400-21번지 3","category":"회원제형태 - 기타4"}]},{"lat":"37.28182043","long":"127.02238958","items":[{"name":"용마루슈퍼","tel":"031-256-5888","addr":"경기도 수원시 팔달구 지동 297-14번지 1층","category":"유통업 영리 - 슈퍼마켓"}]},{"lat":"37.279792758","long":"127.02447508","items":[{"name":"용인대긍휼태권도장","tel":"031-243-7251","addr":"경기도 수원시 팔달구 지동 134-13번지 2층","category":"학원 - 예·체능계학원"},{"name":"프렌드애견","tel":"031-258-6449","addr":"경기도 수원시 팔달구 지동 134-13번지 1층","category":"문화.취미 - 애완동물"}]},{"lat":"37.275792862","long":"127.0204487","items":[{"name":"용인야채","tel":"","addr":"경기도 수원시 팔달구 지동 420-7번지","category":"음료식품 - 농·축·수산품"}]},{"lat":"37.28471187","long":"127.02702497","items":[{"name":"우리옷 다미","tel":"031-241-7080","addr":"경기도 수원시 팔달구 지동 236-12번지","category":"의류 - 맞춤복점"}]},{"lat":"37.279378429","long":"127.02367438","items":[{"name":"우진설비","tel":"070-7514-4922","addr":"경기도 수원시 팔달구 지동 281-14번지 1층","category":"용역 서비스 - 기타용역서비스"}]},{"lat":"37.278017834","long":"127.02392207","items":[{"name":"원조보신탕","tel":"031-244-8633","addr":"경기도 수원시 팔달구 지동 123-40번지 1층","category":"일반휴게음식 - 일반한식"}]},{"lat":"37.284180767","long":"127.02441995","items":[{"name":"유리네옷집","tel":"","addr":"경기도 수원시 팔달구 지동 270-90번지","category":"의류 - 정장"}]},{"lat":"37.28001815","long":"127.02371966","items":[{"name":"유신부동산중개사무소","tel":"031-253-3999","addr":"경기도 수원시 팔달구 지동 280-12/1층","category":"용역 서비스 - 부동산 중개·임대"}]},{"lat":"37.281927669","long":"127.02717067","items":[{"name":"유진상사","tel":"031-242-5549","addr":"경기도 수원시 팔달구 지동 475-20번지","category":"음료식품 - 기타음료식품"}]},{"lat":"37.279738358","long":"127.02625663","items":[{"name":"윤미트","tel":"031-242-4426","addr":"경기도 수원시 팔달구 지동 176-6번지","category":"음료식품 - 정육점"}]},{"lat":"37.277846337","long":"127.02555697","items":[{"name":"은성마트","tel":"031-243-4813","addr":"경기도 수원시 팔달구 지동 111-13번지","category":"유통업 영리 - 슈퍼마켓"}]},{"lat":"37.282044814","long":"127.02711433","items":[{"name":"은진씨앤티","tel":"031-247-9009","addr":"경기도 수원시 팔달구 지동 475-19번지","category":"음료식품 - 기타음료식품"}]},{"lat":"37.278872787","long":"127.02905272","items":[{"name":"은혜인쇄소","tel":"031-247-1517","addr":"경기도 수원시 팔달구 지동 74-6번지","category":"서적문구 - 출판 및 인쇄물"}]},{"lat":"37.276152796","long":"127.02341417","items":[{"name":"을지","tel":"","addr":"경기도 수원시 팔달구 지동 365-36번지 2층","category":"용역 서비스 - 종합용역"},{"name":"천우환경","tel":"031-245-4013","addr":"경기도 수원시 팔달구 지동 365-36번지","category":"용역 서비스 - 기타용역서비스"},{"name":"한빛씽크","tel":"031-257-9788","addr":"경기도 수원시 팔달구 지동 365-36번지","category":"주방용구 - 주방용구"}]},{"lat":"37.282738581","long":"127.02722732","items":[{"name":"이마트24 수원지동점","tel":"","addr":"경기도 수원시 팔달구 지동 475번지","category":"유통업 영리 - 편 의 점"},{"name":"이마트24 수원지동점","tel":"031-257-5736","addr":"경기도 수원시 팔달구 지동 475번지 1층","category":"유통업 영리 - 슈퍼마켓"}]},{"lat":"37.282648718","long":"127.02603201","items":[{"name":"이방카7 (Ivanka7)","tel":"","addr":"경기도 수원시 팔달구 지동 225-77번지 1층","category":"의류 - 정장"}]},{"lat":"37.27659396","long":"127.02528599","items":[{"name":"이벤트하우스","tel":"","addr":"경기도 수원시 팔달구 지동 116-25번지","category":"신변잡화 - 기타잡화"}]},{"lat":"37.281955073","long":"127.0252763","items":[{"name":"이천우의원","tel":"031-251-6339","addr":"경기도 수원시 팔달구 지동 146-13번지","category":"의원 - 의원"}]},{"lat":"37.2795393","long":"127.0301467","items":[{"name":"인스타헤어동수원점","tel":"031-241-3684","addr":"경기도 수원시 팔달구 지동 482-2번지 신환빌 2층 201호","category":"보건위생 - 미용원"}]},{"lat":"37.276928289","long":"127.01953566","items":[{"name":"일미흑염소","tel":"031-256-0984","addr":"경기도 수원시 팔달구 지동 408-2번지","category":"건강식품 - 기타건강식품"}]},{"lat":"37.276793091","long":"127.01984006","items":[{"name":"전주식당","tel":"031-244-4401","addr":"경기도 수원시 팔달구 지동 400-27번지","category":"일반휴게음식 - 일반한식"}]},{"lat":"37.283315418","long":"127.02633667","items":[{"name":"제로마트지동점","tel":"031-248-2858","addr":"경기도 수원시 팔달구 지동 222-4번지","category":"유통업 영리 - 슈퍼마켓"}]},{"lat":"37.281431812","long":"127.02855746","items":[{"name":"제이 앤 제이 시스템","tel":"","addr":"경기도 수원시 팔달구 지동 189-1번지 301호","category":"용역 서비스 - 기타용역서비스"}]},{"lat":"37.278376975","long":"127.03014628","items":[{"name":"제이모","tel":"031-224-0808","addr":"경기도 수원시 팔달구 지동 483-16번지 우성빌딩 2층","category":"보건위생 - 미용재료"},{"name":"좌훈카페","tel":"031-243-1892","addr":"경기도 수원시 팔달구 지동 483-16번지 우성빌딩 202호","category":"보건위생 - 기타대인서비스"},{"name":"코리아오소틱(유진대리점)","tel":"031-252-6988","addr":"경기도 수원시 팔달구 지동 483-16번지 우성빌딩 1층","category":"신변잡화 - 신발"},{"name":"투썸플레이스동수원사거리점","tel":"031-242-3022","addr":"경기도 수원시 팔달구 지동 483-16번지 1층","category":"일반휴게음식 - 서양음식"}]},{"lat":"37.280710882","long":"127.02905336","items":[{"name":"제일슈퍼","tel":"031-242-3845","addr":"경기도 수원시 팔달구 지동 480-11번지","category":"유통업 영리 - 슈퍼마켓"}]},{"lat":"37.275900986","long":"127.02044872","items":[{"name":"종로떡집","tel":"031-256-9421","addr":"경기도 수원시 팔달구 지동 419-3번지","category":"음료식품 - 제과점"}]},{"lat":"37.283099675","long":"127.02364158","items":[{"name":"좋은쌀유통","tel":"031-245-3345","addr":"경기도 수원시 팔달구 지동 270-46번지","category":"음료식품 - 미곡상"}]},{"lat":"37.280621881","long":"127.02347176","items":[{"name":"주식회사 그린비코퍼레이션","tel":"031-000-0000","addr":"경기도 수원시 팔달구 지동 279-11번지","category":"보건위생 - 의료용품"}]},{"lat":"37.279989934","long":"127.0296169","items":[{"name":"주식회사 돌쇠출장세차","tel":"031-255-7634","addr":"경기도 수원시 팔달구 지동 481-14번지","category":"자동차정비 유지 - 세차장"}]},{"lat":"37.2843785","long":"127.02697976","items":[{"name":"주식회사 삼부전력","tel":"031-256-8792","addr":"경기도 수원시 팔달구 지동 212-4번지","category":"용역 서비스 - 기타용역서비스"},{"name":"플러스유","tel":"031-248-7128","addr":"경기도 수원시 팔달구 지동 212-4번지","category":"유통업 영리 - 편 의 점"}]},{"lat":"37.286568122","long":"127.02633768","items":[{"name":"주식회사 플라잉수원","tel":"031-247-1300","addr":"경기도 수원시 팔달구 지동 255-4번지","category":"문화.취미 - 티켓"}]},{"lat":"37.281621105","long":"127.0281967","items":[{"name":"주식회사아이사랑","tel":"031-245-7568","addr":"경기도 수원시 팔달구 지동 479-26번지 1층","category":"용역 서비스 - 종합용역"}]},{"lat":"37.278847223","long":"127.02124998","items":[{"name":"주식회사일공일오컴퍼니","tel":"031-252-1015","addr":"경기도 수원시 팔달구 지동 307-38번지 1층","category":"음료식품 - 제과점"},{"name":"카페하품","tel":"031-244-7988","addr":"경기도 수원시 팔달구 지동 307-38번지","category":"음료식품 - 기타음료식품"}]},{"lat":"37.279044649","long":"127.02583922","items":[{"name":"주식회사창일","tel":"031-829-5549","addr":"경기도 수원시 팔달구 지동 106-6번지","category":"건축자재 - 기타건축자재"}]},{"lat":"37.278901193","long":"127.02183632","items":[{"name":"주주","tel":"","addr":"경기도 수원시 팔달구 지동 313-16번지 116호","category":"의류 - 기타의류"}]},{"lat":"37.283234862","long":"127.02344992","items":[{"name":"지동기물","tel":"031-255-4578","addr":"경기도 수원시 팔달구 지동 270-38번지","category":"주방용구 - 주방용구"}]},{"lat":"37.279846799","long":"127.02458785","items":[{"name":"지동스튜디오","tel":"031-243-3111","addr":"경기도 수원시 팔달구 지동 134-8번지","category":"광학제품 - 사진관"}]},{"lat":"37.280594313","long":"127.02635838","items":[{"name":"지동양꼬치","tel":"031-268-9633","addr":"경기도 수원시 팔달구 지동 138-45번지 1층","category":"일반휴게음식 - 중국식"}]},{"lat":"37.280072086","long":"127.02441878","items":[{"name":"지동어린이집 [아이행복]","tel":"031-248-6287","addr":"경기도 수원시 팔달구 지동 134-34번지","category":"학원 - 유아원"}]},{"lat":"37.277567866","long":"127.02058442","items":[{"name":"지동전자","tel":"031-241-6843","addr":"경기도 수원시 팔달구 지동 401-34번지","category":"전기제품 - 가전제품"}]},{"lat":"37.281072236","long":"127.02436268","items":[{"name":"지동종합건재상사","tel":"031-247-7956","addr":"경기도 수원시 팔달구 지동 144-5번지","category":"건축자재 - 목재·석재·철물"}]},{"lat":"37.281873332","long":"127.02847868","items":[{"name":"지동주민자치위원회","tel":"031-228-7889","addr":"경기도 수원시 팔달구 지동 479번지","category":"문화.취미 - 문화취미기타"}]},{"lat":"37.276657208","long":"127.02433888","items":[{"name":"지동초등학교","tel":"031-241-4081","addr":"경기도 수원시 팔달구 지동 119-1번지 지동초등학교","category":"학원 - 초중고교육기관"}]},{"lat":"37.277315684","long":"127.01986273","items":[{"name":"지동커피숍","tel":"031-247-3888","addr":"경기도 수원시 팔달구 지동 400-8번지 2층","category":"일반휴게음식 - 일반한식"}]},{"lat":"37.283126198","long":"127.02635917","items":[{"name":"지정골","tel":"031-242-1338","addr":"경기도 수원시 팔달구 지동 225-94번지","category":"일반휴게음식 - 일반한식"}]},{"lat":"37.280405668","long":"127.02328001","items":[{"name":"지켜본다CCTV","tel":"031-244-0519","addr":"경기도 수원시 팔달구 지동 286-38번지","category":"용역 서비스 - 기타용역서비스"}]},{"lat":"37.276486682","long":"127.02025718","items":[{"name":"착한칼국수","tel":"","addr":"경기도 수원시 팔달구 지동 397-17번지 1층","category":"일반휴게음식 - 일반한식"}]},{"lat":"37.277847277","long":"127.01995305","items":[{"name":"창성","tel":"031-245-5231","addr":"경기도 수원시 팔달구 지동 402-20번지","category":"음료식품 - 기타음료식품"}]},{"lat":"37.285901397","long":"127.02616833","items":[{"name":"채린에어컨","tel":"","addr":"경기도 수원시 팔달구 지동 260-27번지 4층","category":"용역 서비스 - 기타용역서비스"}]},{"lat":"37.278153367","long":"127.021667","items":[{"name":"천지설비철물","tel":"","addr":"경기도 수원시 팔달구 지동 319-2번지 1층","category":"건축자재 - 목재·석재·철물"},{"name":"초롱홈패션","tel":"031-241-1251","addr":"경기도 수원시 팔달구 지동 319-2번지","category":"직물 - 카페트,커튼,천막,지물"}]},{"lat":"37.281404994","long":"127.02755389","items":[{"name":"천하대장군 성수대신","tel":"031-222-3376","addr":"경기도 수원시 팔달구 지동 479-21번지","category":"보건위생 - 기타대인서비스"}]},{"lat":"37.278099489","long":"127.02047179","items":[{"name":"체리미용실","tel":"031-235-8530","addr":"경기도 수원시 팔달구 지동 306-2번지 1층","category":"보건위생 - 미용원"}]},{"lat":"37.27692766","long":"127.02352713","items":[{"name":"추나교정원","tel":"031-891-1166","addr":"경기도 수원시 팔달구 지동 360-20번지 2층 1호","category":"보건위생 - 피부미용실"}]},{"lat":"37.278071959","long":"127.02356127","items":[{"name":"충남 떡방앗간","tel":"031-242-2285","addr":"경기도 수원시 팔달구 지동 360-25번지","category":"음료식품 - 제과점"}]},{"lat":"37.277351706","long":"127.01999804","items":[{"name":"충남떡집","tel":"031-256-7354","addr":"경기도 수원시 팔달구 지동 400-7번지","category":"음료식품 - 제과점"}]},{"lat":"37.282125918","long":"127.02705798","items":[{"name":"충남상회","tel":"031-255-3831","addr":"경기도 수원시 팔달구 지동 475-15번지 102호","category":"음료식품 - 기타음료식품"}]},{"lat":"37.277847373","long":"127.01927653","items":[{"name":"충남정육점","tel":"031-256-1122","addr":"경기도 수원시 팔달구 지동 404-3번지","category":"음료식품 - 정육점"}]},{"lat":"37.27748674","long":"127.02080991","items":[{"name":"충남집순대국소머리국전문","tel":"031-243-3284","addr":"경기도 수원시 팔달구 지동 328번지 1층","category":"일반휴게음식 - 일반한식"}]},{"lat":"37.283874043","long":"127.02639323","items":[{"name":"취미공작소","tel":"","addr":"경기도 수원시 팔달구 지동 217-4번지","category":"문화.취미 - 문화취미기타"}]},{"lat":"37.281792824","long":"127.02561453","items":[{"name":"카피앤컴렌탈","tel":"031-256-8975","addr":"경기도 수원시 팔달구 지동 147-1번지","category":"사무통신 - 사무용 OA기기"}]},{"lat":"37.283432518","long":"127.02650585","items":[{"name":"코리안숯불닭바베큐","tel":"031-258-8295","addr":"경기도 수원시 팔달구 지동 221-27번지","category":"일반휴게음식 - 주점"}]},{"lat":"37.276927224","long":"127.02589495","items":[{"name":"코리안특급61","tel":"031-254-3267","addr":"경기도 수원시 팔달구 지동 116-7번지","category":"일반휴게음식 - 칵테일바"}]},{"lat":"37.281233862","long":"127.02724938","items":[{"name":"쿠키&케익","tel":"031-246-0245","addr":"경기도 수원시 팔달구 지동 166-1번지 외2필지동쪽","category":"음료식품 - 제과점"},{"name":"헤어꼬삐에","tel":"","addr":"경기도 수원시 팔달구 지동 166-1번지","category":"보건위생 - 미용원"}]},{"lat":"37.28281941","long":"127.028479","items":[{"name":"키노카멀티샵","tel":"031-225-5538","addr":"경기도 수원시 팔달구 지동 477-7번지 나동","category":"자동차정비 유지 - 자동차부품"}]},{"lat":"37.280954457","long":"127.0276665","items":[{"name":"탑시스템","tel":"031-251-2119","addr":"경기도 수원시 팔달구 지동 165.20/2","category":"사무통신 - 사무용 OA기기"}]},{"lat":"37.278288481","long":"127.0219151","items":[{"name":"태광전설","tel":"070-7504-5568","addr":"경기도 수원시 팔달구 지동 354-91번지","category":"용역 서비스 - 기타용역서비스"}]},{"lat":"37.280711391","long":"127.02664032","items":[{"name":"토토노래연습장","tel":"031-292-8609","addr":"경기도 수원시 팔달구 지동 138-31번지","category":"레저업소 - 노 래 방"}]},{"lat":"37.275792403","long":"127.02331259","items":[{"name":"통큰감자탕","tel":"031-242-2451","addr":"경기도 수원시 팔달구 지동 365-2번지","category":"일반휴게음식 - 일반한식"}]},{"lat":"37.276153245","long":"127.02064046","items":[{"name":"통큰칼국수","tel":"031-248-9464","addr":"경기도 수원시 팔달구 지동 395-1번지","category":"일반휴게음식 - 일반한식"}]},{"lat":"37.28276583","long":"127.02614481","items":[{"name":"투다리","tel":"031-258-9949","addr":"경기도 수원시 팔달구 지동 225-67번지 1층 101호","category":"일반휴게음식 - 일반한식"}]},{"lat":"37.282125709","long":"127.02806155","items":[{"name":"파란꿈 어린이집[아이행복]","tel":"031-255-5552","addr":"경기도 수원시 팔달구 지동 476-17번지","category":"학원 - 유아원"}]},{"lat":"37.277621873","long":"127.02094524","items":[{"name":"폰플레이","tel":"070-4667-0600","addr":"경기도 수원시 팔달구 지동 325번지 1층","category":"사무통신 - 통신기기"}]},{"lat":"37.277486785","long":"127.02050547","items":[{"name":"풍원주차장","tel":"032-243-6862","addr":"경기도 수원시 팔달구 지동 401-5","category":"자동차정비 유지 - 주차장"}]},{"lat":"37.278315579","long":"127.02149791","items":[{"name":"피어리스","tel":"031-111-1111","addr":"경기도 수원시 팔달구 지동 309-11번지 1층","category":"일반휴게음식 - 서양음식"},{"name":"호산나헤어클럽","tel":"031-254-4294","addr":"경기도 수원시 팔달구 지동 309-11번지","category":"보건위생 - 미용원"}]},{"lat":"37.277649028","long":"127.02011087","items":[{"name":"피카소베이커리","tel":"031-243-1468","addr":"경기도 수원시 팔달구 지동 401-10번지","category":"음료식품 - 제과점"}]},{"lat":"37.278072357","long":"127.02113703","items":[{"name":"하나로마트","tel":"031-251-1946","addr":"경기도 수원시 팔달구 지동 309-25번지 1층","category":"유통업 영리 - 슈퍼마켓"}]},{"lat":"37.280792426","long":"127.02692224","items":[{"name":"하나로호프","tel":"031-254-5863","addr":"경기도 수원시 팔달구 지동 168-3번지","category":"일반휴게음식 - 주점"}]},{"lat":"37.277982202","long":"127.02147528","items":[{"name":"하은에어컨","tel":"031-248-9221","addr":"경기도 수원시 팔달구 지동 319-4번지","category":"용역 서비스 - 기타용역서비스"}]},{"lat":"37.280540161","long":"127.0268094","items":[{"name":"하이앤시스","tel":"031-238-2524","addr":"경기도 수원시 팔달구 지동 170-1번지 1층상가","category":"사무통신 - 기타 사무용품"}]},{"lat":"37.282928203","long":"127.02516382","items":[{"name":"하이필","tel":"031-703-7750","addr":"경기도 수원시 팔달구 지동 225-12번지","category":"전기제품 - 가전제품"}]},{"lat":"37.276125562","long":"127.02455296","items":[{"name":"한겨례종합설비","tel":"031-248-5084","addr":"경기도 수원시 팔달구 지동 118-5","category":"건축자재 - 보일러·펌프·샷시"}]},{"lat":"37.278872592","long":"127.02992095","items":[{"name":"한모임주야간보호센터","tel":"031-258-9393","addr":"경기도 수원시 팔달구 지동 483-9번지","category":"기타의료기관 - 기타의료기관 및 기타"},{"name":"홈&호스피탈","tel":"031-258-9394","addr":"경기도 수원시 팔달구 지동 483-9번지","category":"기타의료기관 - 기타의료기관 및 기타"}]},{"lat":"37.279432929","long":"127.02100205","items":[{"name":"한빛기술단","tel":"","addr":"경기도 수원시 팔달구 지동 307-45번지","category":"기타 - 기계공구"}]},{"lat":"37.277018312","long":"127.02008817","items":[{"name":"한상차림","tel":"031-111-1111","addr":"경기도 수원시 팔달구 지동 400-17번지 1층","category":"일반휴게음식 - 일반한식"}]},{"lat":"37.280846868","long":"127.02497152","items":[{"name":"한성식품","tel":"070-4001-2278","addr":"경기도 수원시 팔달구 지동 142-22번지","category":"음료식품 - 기타음료식품"}]},{"lat":"37.282071678","long":"127.02791494","items":[{"name":"한울정보통신","tel":"031-244-2310","addr":"경기도 수원시 팔달구 지동 476-38번지","category":"사무통신 - 통신기기"}]},{"lat":"37.275711335","long":"127.02316599","items":[{"name":"한일수도사","tel":"031-244-6500","addr":"경기도 수원시 팔달구 지동 365-11번지","category":"건축자재 - 보일러·펌프·샷시"}]},{"lat":"37.28262159","long":"127.02652815","items":[{"name":"한일슈퍼","tel":"031-245-4947","addr":"경기도 수원시 팔달구 지동 474-18번지 1층","category":"유통업 영리 - 슈퍼마켓"}]},{"lat":"37.276233609","long":"127.02497017","items":[{"name":"한일자동펌프","tel":"031-243-0503","addr":"경기도 수원시 팔달구 지동 117-10번지","category":"건축자재 - 보일러·펌프·샷시"}]},{"lat":"37.276567823","long":"127.01991894","items":[{"name":"한진상사","tel":"031-256-4638","addr":"경기도 수원시 팔달구 지동 400-25번지","category":"음료식품 - 농·축·수산품"}]},{"lat":"37.277207561","long":"127.01986271","items":[{"name":"한천상회","tel":"031-247-9659","addr":"경기도 수원시 팔달구 지동 400-9","category":"음료식품 - 농·축·수산품"}]},{"lat":"37.278602143","long":"127.03052973","items":[{"name":"함흥냉면","tel":"031-241-1525","addr":"경기도 수원시 팔달구 지동 483-2번지","category":"일반휴게음식 - 일반한식"}]},{"lat":"37.277846405","long":"127.02519615","items":[{"name":"해원사","tel":"031-242-0025","addr":"경기도 수원시 팔달구 지동 121-5번지","category":"보건위생 - 기타대인서비스"}]},{"lat":"37.285063511","long":"127.02581849","items":[{"name":"핸디범 집수리","tel":"031-245-9379","addr":"경기도 수원시 팔달구 지동 231-14번지 중앙빌라 라동 202호","category":"건축자재 - 인테리어전문"}]},{"lat":"37.282125975","long":"127.02677607","items":[{"name":"행남자기수원쎈타","tel":"031-252-1633","addr":"경기도 수원시 팔달구 지동 153-5번지","category":"주방용구 - 기타주방용구"}]},{"lat":"37.276928274","long":"127.01963714","items":[{"name":"행복반찬","tel":"031-242-4900","addr":"경기도 수원시 팔달구 지동 408-1번지","category":"음료식품 - 기타음료식품"}]},{"lat":"37.278180078","long":"127.02358385","items":[{"name":"헤어샵오디션","tel":"031-241-8199","addr":"경기도 수원시 팔달구 지동 360-16번지","category":"보건위생 - 미용원"}]},{"lat":"37.277982487","long":"127.01955844","items":[{"name":"협천상회","tel":"031-255-5023","addr":"경기도 수원시 팔달구 지동 402-8번지","category":"음료식품 - 기타음료식품"}]},{"lat":"37.280072606","long":"127.02134048","items":[{"name":"혜원슈퍼","tel":"031-254-8228","addr":"경기도 수원시 팔달구 지동 292-8번지","category":"유통업 영리 - 슈퍼마켓"}]},{"lat":"37.275378335","long":"127.02080941","items":[{"name":"호두야","tel":"031-242-4236","addr":"경기도 수원시 팔달구 지동 423-6번지 1층","category":"일반휴게음식 - 서양음식"}]},{"lat":"37.278351768","long":"127.02052822","items":[{"name":"홈앤인테리어","tel":"031-245-9135","addr":"경기도 수원시 팔달구 지동 306-1번지 아성리치빌 101호","category":"건축자재 - 인테리어전문"}]},{"lat":"37.276594901","long":"127.01959196","items":[{"name":"흥성건강원","tel":"031-256-4368","addr":"경기도 수원시 팔달구 지동 411번지","category":"건강식품 - 기타건강식품"}]}]