[{"lat":"37.042844479","long":"126.93326875","items":[{"name":"39볼트상사","tel":"031-684-3931","addr":"경기도 평택시 청북읍 현곡리 224-19번지 외5필지 1층","category":"기타 - 기계공구"},{"name":"김영희강남동태찜.탕 청북점","tel":"031-683-6471","addr":"경기도 평택시 청북읍 현곡리 224-19","category":"일반휴게음식 - 일반한식"},{"name":"동선바퀴프로파일","tel":"031-684-6290","addr":"경기도 평택시 청북읍 현곡리 224-19번지 외5필지 102호","category":"기타 - 기계공구"},{"name":"삼성종합공구철물","tel":"031-683-0901","addr":"경기도 평택시 청북읍 현곡리 224-19번지 1동 102호","category":"기타 - 기계공구"},{"name":"청북가구갤러리","tel":"031-682-3733","addr":"경기도 평택시 청북읍 현곡리 224-19번지 101호","category":"가구 - 일반가구"},{"name":"청북종합공구","tel":"031-684-0959","addr":"경기도 평택시 청북읍 현곡리 224-19번지 외5필지 1층","category":"기타 - 기계공구"}]},{"lat":"37.046961897","long":"126.93252307","items":[{"name":"GS25청북IC점","tel":"","addr":"경기도 평택시 청북읍 현곡리 342-13번지","category":"유통업 영리 - 편 의 점"}]},{"lat":"37.047510423","long":"126.9306565","items":[{"name":"가마솥보신탕감자탕","tel":"031-683-7763","addr":"경기도 평택시 청북읍 현곡리 384-8","category":"일반휴게음식 - 일반한식"}]},{"lat":"37.04668266","long":"126.9326807","items":[{"name":"가마을생고기","tel":"031-683-4226","addr":"경기도 평택시 청북읍 현곡리 342-18번지","category":"음식점 - 한식"},{"name":"진짬뽕","tel":"031-3880-6143","addr":"경기도 평택시 청북읍 현곡리 342-18번지 1층","category":"일반휴게음식 - 중국식"}]},{"lat":"37.04198847","long":"126.93326953","items":[{"name":"경기베어링청북지사","tel":"031-686-6321","addr":"경기도 평택시 청북읍 현곡리 224-36번지 202호 201호,202호","category":"기타 - 기계공구"},{"name":"만리장성","tel":"031-683-4511","addr":"경기도 평택시 청북읍 현곡리 224-36번지","category":"일반휴게음식 - 중국식"},{"name":"만리장성","tel":"031-683-1481","addr":"경기도 평택시 청북읍 현곡리 224-36번지","category":"음식점 - 중식"},{"name":"청북사료","tel":"031-683-9972","addr":"경기도 평택시 청북읍 현곡리 224-36번지 1층","category":"농업 - 비료,사료,종자"}]},{"lat":"37.039346273","long":"126.94629924","items":[{"name":"금곡카센타","tel":"031-681-0683","addr":"경기도 평택시 청북읍 현곡리 458-1","category":"자동차정비 유지 - 자동차정비"}]},{"lat":"37.040236194","long":"126.94199356","items":[{"name":"금성종합파렛트","tel":"031-684-3533","addr":"경기도 평택시 청북읍 현곡리 260번지","category":"건축자재 - 기타건축자재"}]},{"lat":"37.038706129","long":"126.94549043","items":[{"name":"기영공조냉동산전","tel":"031-658-5285","addr":"경기도 평택시 청북읍 현곡리 455-5번지","category":"전기제품 - 냉열기기"}]},{"lat":"37.046457382","long":"126.93265843","items":[{"name":"꼬끼오닭개장","tel":"031-684-4242","addr":"경기도 평택시 청북읍 현곡리 341-1번지 외1필지","category":"일반휴게음식 - 일반한식"}]},{"lat":"37.040817312","long":"126.93365277","items":[{"name":"꼬추","tel":"031-681-7571","addr":"경기도 평택시 청북읍 현곡리 296-1","category":"일반휴게음식 - 일반한식"},{"name":"신청솔가든","tel":"031-683-6221","addr":"경기도 평택시 청북읍 현곡리 296-1번지","category":"음식점 - 한식"},{"name":"신청솔가든","tel":"031-683-0377","addr":"경기도 평택시 청북읍 현곡리 296-1번지","category":"일반휴게음식 - 일반한식"},{"name":"페리카나치킨","tel":"031-686-6721","addr":"경기도 평택시 청북읍 현곡리 296-1번지","category":"음식점 - 치킨"}]},{"lat":"37.04081681","long":"126.93279851","items":[{"name":"늘봄","tel":"031-683-6252","addr":"경기도 평택시 청북읍 현곡리 300-4번지","category":"일반휴게음식 - 일반한식"},{"name":"늘봄","tel":"031-651-8351","addr":"경기도 평택시 청북읍 현곡리 300-4번지","category":"음식점 - 한식"}]},{"lat":"37.044294679","long":"126.93240188","items":[{"name":"대물낚시타운슈퍼","tel":"031-683-8655","addr":"경기도 평택시 청북읍 현곡리 330-9번지 1층","category":"레져용품 - 스포츠·레져용품"}]},{"lat":"37.040735582","long":"126.93257377","items":[{"name":"대호식당","tel":"031-681-6868","addr":"경기도 평택시 청북읍 현곡리 307-10번지 1층","category":"일반휴게음식 - 일반한식"}]},{"lat":"37.040820125","long":"126.93865472","items":[{"name":"드라발경기","tel":"031-682-7747","addr":"경기도 평택시 청북읍 현곡리 250번지 102-6","category":"농업 - 기타농업관련"}]},{"lat":"37.041763026","long":"126.93296624","items":[{"name":"드라이브카","tel":"031-683-4986","addr":"경기도 평택시 청북읍 현곡리 299-4","category":"자동차정비 유지 - 자동차정비"}]},{"lat":"37.038733614","long":"126.94643457","items":[{"name":"루브네이션","tel":"031-366-5134","addr":"경기도 평택시 청북읍 현곡리 458-5번지 207호","category":"자동차정비 유지 - 윤활유 전문 판매"}]},{"lat":"37.042682209","long":"126.93313401","items":[{"name":"맛나순대국","tel":"031-684-7260","addr":"경기도 평택시 청북읍 현곡리 299-18번지","category":"일반휴게음식 - 일반한식"}]},{"lat":"37.03876337","long":"126.9344864","items":[{"name":"명승공구","tel":"031-683-1209","addr":"경기도 평택시 청북읍 현곡리 418-9번지","category":"건축자재 - 목재·석재·철물"}]},{"lat":"37.052647575","long":"126.94979689","items":[{"name":"명진특장주식회사","tel":"031-681-9922","addr":"경기도 평택시 청북읍 현곡리 16-13번지","category":"자동차판매 - 기타운송"}]},{"lat":"37.040510628","long":"126.93310227","items":[{"name":"목화","tel":"031-683-6546","addr":"경기도 평택시 청북읍 현곡리 297-7번지","category":"일반휴게음식 - 일반한식"}]},{"lat":"37.038679459","long":"126.94624353","items":[{"name":"미니스톱 현곡산단점","tel":"031-1577-9621","addr":"경기도 평택시 청북읍 현곡리 458-9번지","category":"유통업 영리 - 편 의 점"}]},{"lat":"37.040878378","long":"126.93029185","items":[{"name":"미래마트","tel":"031-683-9696","addr":"경기도 평택시 청북읍 현곡리 406-5번지","category":"소매업 - 슈퍼"},{"name":"미래마트정육","tel":"","addr":"경기도 평택시 청북읍 현곡리 406-5번지 미래마트 내","category":"소매업 - 정육"},{"name":"미래마트정육점","tel":"031-682-7193","addr":"경기도 평택시 청북읍 현곡리 406-5번지 미래마트내","category":"음료식품 - 정육점"}]},{"lat":"37.041294928","long":"126.93374226","items":[{"name":"바우네나주곰탕","tel":"031-681-9799","addr":"경기도 평택시 청북읍 현곡리 298-1번지 B동 1층","category":"일반휴게음식 - 일반한식"},{"name":"신포즉석김밥","tel":"031-684-7488","addr":"경기도 평택시 청북읍 현곡리 298-1번지","category":"일반휴게음식 - 일반한식"},{"name":"카페마치","tel":"031-682-6534","addr":"경기도 평택시 청북읍 현곡리 298-1번지 1층","category":"일반휴게음식 - 서양음식"}]},{"lat":"37.037264864","long":"126.94640194","items":[{"name":"밥향기","tel":"031-683-4856","addr":"경기도 평택시 청북읍 현곡리 459-4번지","category":"일반휴게음식 - 일반한식"},{"name":"백암정순대국뼈해장국","tel":"031-684-8303","addr":"경기도 평택시 청북읍 현곡리 459-4번지 1층","category":"일반휴게음식 - 일반한식"},{"name":"백암정순대국뼈해장국","tel":"","addr":"경기도 평택시 청북읍 현곡리 459-4번지","category":"음식점 - 한식"},{"name":"세븐일레븐평택현곡산단점","tel":"031-1577-0711","addr":"경기도 평택시 청북읍 현곡리 459-4번지 104호","category":"유통업 영리 - 편 의 점"},{"name":"셀렉토커피 평택현곡점","tel":"031-681-6522","addr":"경기도 평택시 청북읍 현곡리 459-4번지 1층","category":"일반휴게음식 - 서양음식"},{"name":"셀렉토커피평택현곡점","tel":"031-681-6522","addr":"경기도 평택시 청북읍 현곡리 459-4번지 1층","category":"일반휴게음식 - 서양음식"},{"name":"신세계플라워","tel":"031-684-3671","addr":"경기도 평택시 청북읍 현곡리 459-4번지","category":"문화.취미 - 화원"}]},{"lat":"37.042070767","long":"126.93534895","items":[{"name":"백조세탁소","tel":"031-683-7511","addr":"경기도 평택시 청북읍 현곡리 226번지 황금빌라","category":"서비스업 - 세탁"}]},{"lat":"37.041601092","long":"126.93340477","items":[{"name":"백조세탁소","tel":"031-683-1140","addr":"경기도 평택시 청북읍 현곡리 224-9번지","category":"수리서비스 - 세탁소"}]},{"lat":"37.039460206","long":"126.93993724","items":[{"name":"별난돼지김치찌개","tel":"031-686-9190","addr":"경기도 평택시 청북읍 현곡리 256-7번지 1층","category":"일반휴게음식 - 일반한식"}]},{"lat":"37.040128869","long":"126.94357852","items":[{"name":"보성참숯불구이","tel":"031-683-3492","addr":"경기도 평택시 청북읍 현곡리 268-1","category":"일반휴게음식 - 일반한식"}]},{"lat":"37.040593012","long":"126.93532778","items":[{"name":"부안쌈밥","tel":"031-683-1805","addr":"경기도 평택시 청북읍 현곡리 290번지","category":"음식점 - 한식"},{"name":"부안쌈밥","tel":"031-683-9686","addr":"경기도 평택시 청북읍 현곡리 290번지","category":"일반휴게음식 - 일반한식"}]},{"lat":"37.04173635","long":"126.93357325","items":[{"name":"부엉이다방","tel":"031-684-8288","addr":"경기도 평택시 청북읍 현곡리 224-7번지 1층","category":"음식점 - 카페"},{"name":"부엉이식당","tel":"031-681-6770","addr":"경기도 평택시 청북읍 현곡리 224-7번지 1층","category":"일반휴게음식 - 일반한식"},{"name":"현곡밥집","tel":"031-686-5235","addr":"경기도 평택시 청북읍 현곡리 224-7번지 1층","category":"일반휴게음식 - 일반한식"}]},{"lat":"37.045041915","long":"126.93132206","items":[{"name":"비전건설","tel":"031-681-7725","addr":"경기도 평택시 청북읍 현곡리 산 90-13번지","category":"건축자재 - 기타건축자재"}]},{"lat":"37.046015096","long":"126.93137735","items":[{"name":"빅쭌부대찌개","tel":"031-683-6780","addr":"경기도 평택시 청북읍 현곡리 342-5번지","category":"일반휴게음식 - 일반한식"},{"name":"칠갑산","tel":"031-683-6780","addr":"경기도 평택시 청북읍 현곡리 342-5번지","category":"일반휴게음식 - 일반한식"}]},{"lat":"37.040987926","long":"126.93265222","items":[{"name":"서연칼국수","tel":"031-684-0128","addr":"경기도 평택시 청북읍 현곡리 306-4번지","category":"일반휴게음식 - 일반한식"},{"name":"서현칼국수","tel":"031-683-6252","addr":"경기도 평택시 청북읍 현곡리 306-4번지","category":"음식점 - 한식"}]},{"lat":"37.041844399","long":"126.93343827","items":[{"name":"서울제통의원","tel":"031-683-8275","addr":"경기도 평택시 청북읍 현곡리 224-8","category":"의원 - 의원"}]},{"lat":"37.043763106","long":"126.9324923","items":[{"name":"선우상사","tel":"031-686-7001","addr":"경기도 평택시 청북읍 현곡리 325-10","category":"건축자재 - 기타건축자재"}]},{"lat":"37.049599698","long":"126.94490891","items":[{"name":"세븐일레븐평택청북현곡점","tel":"","addr":"경기도 평택시 청북읍 현곡리 103-24번지 1층","category":"유통업 영리 - 편 의 점"}]},{"lat":"37.040429433","long":"126.93293374","items":[{"name":"소야(soya)","tel":"031-683-1098","addr":"경기도 평택시 청북읍 현곡리 297-3번지 1층 2호","category":"농업 - 농기계"},{"name":"청북동물병원","tel":"031-683-3736","addr":"경기도 평택시 청북읍 현곡리 297-3번지","category":"서비스업 - 수의"},{"name":"청북신포사료","tel":"031-683-1098","addr":"경기도 평택시 청북읍 현곡리 297-3번지","category":"문화.취미 - 애완동물"},{"name":"청북카공업사","tel":"031-683-8398","addr":"경기도 평택시 청북읍 현곡리 297-3","category":"자동차정비 유지 - 자동차정비"},{"name":"청북카공업사","tel":"031-684-6074","addr":"경기도 평택시 청북읍 현곡리 297-3번지","category":"서비스업 - 자동차정비"}]},{"lat":"37.041069008","long":"126.93262967","items":[{"name":"소영미용실","tel":"","addr":"경기도 평택시 청북읍 현곡리 305번지","category":"서비스업 - 이미용"},{"name":"신포떡받아간","tel":"031-683-1137","addr":"경기도 평택시 청북읍 현곡리 305번지","category":"음료식품 - 기타음료식품"}]},{"lat":"37.048069184","long":"126.93082459","items":[{"name":"시골풍경","tel":"031-683-2322","addr":"경기도 평택시 청북읍 현곡리 368-8번지","category":"일반휴게음식 - 일반한식"},{"name":"시골풍경","tel":"031-684-0028","addr":"경기도 평택시 청북읍 현곡리 368-8번지","category":"음식점 - 한식"}]},{"lat":"37.041240442","long":"126.93302292","items":[{"name":"신포호프","tel":"031-683-2630","addr":"경기도 평택시 청북읍 현곡리 300-1번지","category":"일반휴게음식 - 주점"}]},{"lat":"37.042988603","long":"126.93318993","items":[{"name":"신현대자동차공업사","tel":"031-683-8398","addr":"경기도 평택시 청북읍 현곡리 299-30번지","category":"서비스업 - 자동차정비"},{"name":"신현대자동차공업사","tel":"031-683-6468","addr":"경기도 평택시 청북읍 현곡리 299-30번지","category":"자동차정비 유지 - 자동차부품"}]},{"lat":"37.038958481","long":"126.94560264","items":[{"name":"써플라이청북발안점","tel":"031-684-1558","addr":"경기도 평택시 청북읍 현곡리 455-4","category":"서적문구 - 문구용품"}]},{"lat":"37.039157049","long":"126.94629938","items":[{"name":"아시아식당","tel":"031-684-1516","addr":"경기도 평택시 청북읍 현곡리 458-2번지","category":"일반휴게음식 - 일반한식"}]},{"lat":"37.040708416","long":"126.93234899","items":[{"name":"아이 모텔","tel":"031-684-3343","addr":"경기도 평택시 청북읍 현곡리 307-9번지","category":"숙박업 - 여관/기타숙박업"}]},{"lat":"37.039537789","long":"126.93363145","items":[{"name":"안중농협 청북주유소","tel":"031-683-5315","addr":"경기도 평택시 청북읍 현곡리 292-17번지","category":"소매업 - 슈퍼"}]},{"lat":"37.049789351","long":"126.94579685","items":[{"name":"알찬한식뷔페","tel":"031-681-3417","addr":"경기도 평택시 청북읍 현곡리 30번지 2동 1층","category":"일반휴게음식 - 일반한식"}]},{"lat":"37.041627846","long":"126.93293265","items":[{"name":"양자강","tel":"031-683-3757","addr":"경기도 평택시 청북읍 현곡리 299-1번지","category":"일반휴게음식 - 중국식"},{"name":"양자강","tel":"031-683-9686","addr":"경기도 평택시 청북읍 현곡리 299-1번지","category":"음식점 - 중식"}]},{"lat":"37.039264826","long":"126.94556869","items":[{"name":"엠티엠알오 (MTMRO)","tel":"031-686-8452","addr":"경기도 평택시 청북읍 현곡리 455-3번지 1층","category":"기타 - 기계공구"}]},{"lat":"37.037850545","long":"126.94637903","items":[{"name":"용진특장","tel":"","addr":"경기도 평택시 청북읍 현곡리 459-2번지","category":"서비스업 - 자동차정비"}]},{"lat":"37.0410693","long":"126.93312424","items":[{"name":"우리동네담뱃잎가게","tel":"","addr":"경기도 평택시 청북읍 현곡리 298-7번지 2층","category":"음료식품 - 기타음료식품"}]},{"lat":"37.040961678","long":"126.93398985","items":[{"name":"우리모터스","tel":"031-682-1251","addr":"경기도 평택시 청북읍 현곡리 296-6번지","category":"자동차정비 유지 - 자동차정비"}]},{"lat":"37.040294878","long":"126.93396797","items":[{"name":"우리헤어드림","tel":"031-683-7606","addr":"경기도 평택시 청북읍 현곡리 293-9번지","category":"서비스업 - 이미용"},{"name":"우리헤어드림","tel":"031-683-1481","addr":"경기도 평택시 청북읍 현곡리 293-9","category":"보건위생 - 미용원"}]},{"lat":"37.047484825","long":"126.93305093","items":[{"name":"우진산업","tel":"031-662-4141","addr":"경기도 평택시 청북읍 현곡리 342-6번지","category":"주방용구 - 정수기"}]},{"lat":"37.041375615","long":"126.93304528","items":[{"name":"유민네분식","tel":"031-683-4512","addr":"경기도 평택시 청북읍 현곡리 299-8번지","category":"일반휴게음식 - 스넥"},{"name":"청북베이커리","tel":"031-683-3758","addr":"경기도 평택시 청북읍 현곡리 299-8번지","category":"음식점 - 제과점"},{"name":"청북베이커리","tel":"031-683-1737","addr":"경기도 평택시 청북읍 현곡리 299-8","category":"음료식품 - 제과점"}]},{"lat":"37.04942982","long":"126.94768571","items":[{"name":"이가네","tel":"031-682-5025","addr":"경기도 평택시 청북읍 현곡리 40-3번지","category":"일반휴게음식 - 일반한식"}]},{"lat":"37.04142989","long":"126.93340492","items":[{"name":"이마트24 평택대박점","tel":"","addr":"경기도 평택시 청북읍 현곡리 298-21번지","category":"유통업 영리 - 편 의 점"}]},{"lat":"37.040540557","long":"126.93821658","items":[{"name":"일품","tel":"031-683-3011","addr":"경기도 평택시 청북읍 현곡리 251-3번지 1층","category":"일반휴게음식 - 중국식"}]},{"lat":"37.052898105","long":"126.94598564","items":[{"name":"지엠아이 주식회사","tel":"031-647-3486","addr":"경기도 평택시 청북읍 현곡리 9-13번지","category":"기타 - 기계공구"}]},{"lat":"37.04065397","long":"126.93170834","items":[{"name":"창조냉열","tel":"031-667-5500","addr":"경기도 평택시 청북읍 현곡리 406-141번지","category":"전기제품 - 냉열기기"}]},{"lat":"37.040932763","long":"126.9308201","items":[{"name":"청북건강원","tel":"031-683-1105","addr":"경기도 평택시 청북읍 현곡리 406-154번지","category":"건강식품 - 기타건강식품"},{"name":"청북농약사","tel":"031-683-5106","addr":"경기도 평택시 청북읍 현곡리 406-154","category":"농업 - 비료,사료,종자"}]},{"lat":"37.040402546","long":"126.93318106","items":[{"name":"청북동물병원","tel":"031-683-1098","addr":"경기도 평택시 청북읍 현곡리 297-8","category":"기타의료기관 - 동물병원"}]},{"lat":"37.046705581","long":"126.94151626","items":[{"name":"청북양파농산","tel":"","addr":"경기도 평택시 청북읍 현곡리 93번지","category":"음료식품 - 농·축·수산품"}]},{"lat":"37.042204758","long":"126.93332553","items":[{"name":"청북우체국","tel":"031-683-5000","addr":"경기도 평택시 청북읍 현곡리 299-26번지","category":"용역 서비스 - 공공요금대행서비스/소"}]},{"lat":"37.043152094","long":"126.93543792","items":[{"name":"청북초등학교","tel":"031-683-3263","addr":"경기도 평택시 청북읍 현곡리 221번지 청북초등학교","category":"학원 - 초중고교육기관"},{"name":"청북초등학교병설유치원[아이행복]","tel":"031-683-3887","addr":"경기도 평택시 청북읍 현곡리 221번지","category":"학원 - 유치원"}]},{"lat":"37.04079113","long":"126.93512528","items":[{"name":"청북플라워","tel":"031-684-4000","addr":"경기도 평택시 청북읍 현곡리 295-2번지","category":"문화.취미 - 화원"}]},{"lat":"37.047952978","long":"126.93237601","items":[{"name":"클라크토탈지게차판매","tel":"031-684-0766","addr":"경기도 평택시 청북읍 현곡리 342-14번지 A동","category":"기타 - 기타 전문점"}]},{"lat":"37.040403182","long":"126.93427136","items":[{"name":"태양천막기업","tel":"031-683-3133","addr":"경기도 평택시 청북읍 현곡리 293-1번지","category":"직물 - 카페트,커튼,천막,지물"}]},{"lat":"37.039012168","long":"126.94482704","items":[{"name":"텔스타어린이집[아이행복]","tel":"031-646-4011","addr":"경기도 평택시 청북읍 현곡리 455-2번지","category":"학원 - 유아원"}]},{"lat":"37.040600734","long":"126.93310219","items":[{"name":"페리카나치킨","tel":"031-683-3071","addr":"경기도 평택시 청북읍 현곡리 296-3","category":"일반휴게음식 - 일반한식"},{"name":"황금다방","tel":"031-000-0000","addr":"경기도 평택시 청북읍 현곡리 296-3번지 1층","category":"일반휴게음식 - 서양음식"}]},{"lat":"37.040484017","long":"126.93382168","items":[{"name":"하나로마트(안중농협 청북지점)","tel":"","addr":"경기도 평택시 청북읍 현곡리 297-1번지","category":"소매업 - 슈퍼"}]},{"lat":"37.041069121","long":"126.93282075","items":[{"name":"향토식당","tel":"031-683-5281","addr":"경기도 평택시 청북읍 현곡리 300-7","category":"일반휴게음식 - 일반한식"}]},{"lat":"37.051430177","long":"126.94768426","items":[{"name":"현곡 한식 뷔페","tel":"031-686-5122","addr":"경기도 평택시 청북읍 현곡리 12-4번지 1층","category":"일반휴게음식 - 일반한식"}]},{"lat":"37.040766539","long":"126.93954275","items":[{"name":"현곡자동차정비","tel":"031-683-6468","addr":"경기도 평택시 청북읍 현곡리 253-4번지","category":"서비스업 - 자동차정비"},{"name":"현곡자동차정비센타","tel":"031-681-0105","addr":"경기도 평택시 청북읍 현곡리 253-4","category":"자동차정비 유지 - 가타자동차서비스"}]},{"lat":"37.042205831","long":"126.93518022","items":[{"name":"현곡푸드시스템","tel":"031-686-5212","addr":"경기도 평택시 청북읍 현곡리 226-12","category":"음료식품 - 농·축·수산품"}]}]