[{"lat":"37.592588751","long":"127.19745275","items":[{"name":"(유)던필드알파 크로커다일 삼패점","tel":"02-778-5048","addr":"경기도 남양주시 삼패동 350-11번지 3호","category":"레져용품 - 스포츠·레져용품"},{"name":"BTE글로벌","tel":"031-577-5711","addr":"경기도 남양주시 삼패동 350-11번지 1층","category":"레져용품 - 스포츠·레져용품"},{"name":"데니스골프","tel":"031-521-3429","addr":"경기도 남양주시 삼패동 350-11번지 1층 3호","category":"레져용품 - 스포츠·레져용품"}]},{"lat":"37.594480075","long":"127.1923623","items":[{"name":"(주)남영비비안베스트몰삼패점","tel":"","addr":"경기도 남양주시 삼패동 389-7번지 베스트몰 1층 4호","category":"의류 - 내의판매"},{"name":"동원스포츠","tel":"031-521-5454","addr":"경기도 남양주시 삼패동 389-7번지 베스트몰","category":"레져용품 - 스포츠·레져용품"},{"name":"브랜드 키즈","tel":"031-576-0195","addr":"경기도 남양주시 삼패동 389-7번지 1층","category":"의류 - 아동의류"},{"name":"삼진유통","tel":"031-577-2328","addr":"경기도 남양주시 삼패동 389-7번지","category":"레져용품 - 스포츠·레져용품"},{"name":"주식회사발루찌컴퍼니","tel":"031-577-2328","addr":"경기도 남양주시 삼패동 389-7번지","category":"의류 - 정장"},{"name":"지프덕소삼패점","tel":"031-521-0399","addr":"경기도 남양주시 삼패동 389-7번지 발루찌물류센터 1층 2호","category":"레져용품 - 스포츠·레져용품"},{"name":"프로스펙스 삼패점","tel":"031-576-6223","addr":"경기도 남양주시 삼패동 389-7번지 발루찌물류센터 A동 1호","category":"레져용품 - 스포츠·레져용품"}]},{"lat":"37.59422709","long":"127.18125377","items":[{"name":"(주)진호무역","tel":"031-576-1823","addr":"경기도 남양주시 삼패동 627-2번지","category":"의류 - 스포츠의류"}]},{"lat":"37.602727468","long":"127.19019762","items":[{"name":"(주)호성종합상사","tel":"031-577-9244","addr":"경기도 남양주시 삼패동 518번지","category":"건축자재 - 기타건축자재"},{"name":"호성종합상사","tel":"031-577-9244","addr":"경기도 남양주시 삼패동 518번지","category":"기타 - 기계공구"}]},{"lat":"37.598225807","long":"127.1938099","items":[{"name":"AD스포츠","tel":"032-547-6738","addr":"경기도 남양주시 삼패동 308-1번지","category":"의류 - 스포츠의류"}]},{"lat":"37.59476052","long":"127.19164965","items":[{"name":"CH 체널","tel":"031-703-6725","addr":"경기도 남양주시 삼패동 395번지","category":"레져용품 - 스포츠·레져용품"},{"name":"영웅부대찌개&쭈꾸미","tel":"031-577-2582","addr":"경기도 남양주시 삼패동 395번지","category":"일반휴게음식 - 일반한식"}]},{"lat":"37.594615712","long":"127.19205692","items":[{"name":"Elegance Sports","tel":"031-577-4400","addr":"경기도 남양주시 삼패동 390-3번지","category":"의류 - 스포츠의류"},{"name":"UNDER ARMOUR","tel":"031-577-8400","addr":"경기도 남양주시 삼패동 390-3번지 원광산전(주) 1층 1호","category":"의류 - 정장"}]},{"lat":"37.59420347","long":"127.18492237","items":[{"name":"LYNX","tel":"031-576-4845","addr":"경기도 남양주시 삼패동 595번지 1층 3호","category":"레져용품 - 스포츠·레져용품"},{"name":"PAT삼패점","tel":"031-521-4262","addr":"경기도 남양주시 삼패동 595번지","category":"의류 - 스포츠의류"},{"name":"레노마 덕소삼패점","tel":"031-576-8671","addr":"경기도 남양주시 삼패동 595번지 1층","category":"레져용품 - 스포츠·레져용품"},{"name":"마코삼패점","tel":"031-521-7175","addr":"경기도 남양주시 삼패동 595번지","category":"의류 - 스포츠의류"},{"name":"머렐 덕소삼패점","tel":"031-577-4400","addr":"경기도 남양주시 삼패동 595번지 1층","category":"레져용품 - 스포츠·레져용품"},{"name":"올포유 (삼패점)","tel":"031-521-0738","addr":"경기도 남양주시 삼패동 595번지","category":"의류 - 스포츠의류"}]},{"lat":"37.600730562","long":"127.2046194","items":[{"name":"거성시스템","tel":"031-558-7173","addr":"경기도 남양주시 삼패동 21-12번지","category":"음료식품 - 기타음료식품"}]},{"lat":"37.595811233","long":"127.20461745","items":[{"name":"굿프랜드애견훈련학교","tel":"031-521-1354","addr":"경기도 남양주시 삼패동 30-7","category":"문화.취미 - 애완동물"}]},{"lat":"37.599424906","long":"127.19331471","items":[{"name":"꿈에하우스","tel":"031-521-4255","addr":"경기도 남양주시 삼패동 456-3번지 1층","category":"건축자재 - 기타건축자재"},{"name":"마이바이크","tel":"070-7787-8844","addr":"경기도 남양주시 삼패동 456-3번지","category":"레져용품 - 스포츠·레져용품"},{"name":"창림 재활용","tel":"031-577-7677","addr":"경기도 남양주시 삼패동 456-3번지","category":"가구 - 일반가구"}]},{"lat":"37.59542422","long":"127.19353098","items":[{"name":"나래기획","tel":"02-457-4920","addr":"경기도 남양주시 삼패동 388-10번지","category":"신변잡화 - 기타잡화"}]},{"lat":"37.598893076","long":"127.19347189","items":[{"name":"남양주먹골배15호","tel":"031-576-6478","addr":"경기도 남양주시 삼패동 456-23","category":"음료식품 - 농·축·수산품"}]},{"lat":"37.595780625","long":"127.20670085","items":[{"name":"남양주모종농장","tel":"031-577-2555","addr":"경기도 남양주시 삼패동 35","category":"음료식품 - 농·축·수산품"}]},{"lat":"37.594175794","long":"127.18534125","items":[{"name":"내셔널지오그래픽 삼패점","tel":"031-521-4862","addr":"경기도 남양주시 삼패동 595-2번지 101호","category":"레져용품 - 스포츠·레져용품"},{"name":"서린컴퍼니","tel":"031-577-7997","addr":"경기도 남양주시 삼패동 595-2번지 104호","category":"의류 - 정장"},{"name":"신우상사","tel":"031-576-0123","addr":"경기도 남양주시 삼패동 595-2번지","category":"레져용품 - 스포츠·레져용품"},{"name":"오마이캠핑","tel":"031-577-8077","addr":"경기도 남양주시 삼패동 595-2번지","category":"레져용품 - 스포츠·레져용품"}]},{"lat":"37.592677427","long":"127.19831352","items":[{"name":"뉴발란스 덕소삼패","tel":"02-1111-1111","addr":"경기도 남양주시 삼패동 343-18번지","category":"의류 - 스포츠의류"}]},{"lat":"37.597198961","long":"127.19914063","items":[{"name":"다모아유통","tel":"031-528-6263","addr":"경기도 남양주시 삼패동 212번지","category":"의류 - 정장"},{"name":"서울어닝","tel":"031-527-0440","addr":"경기도 남양주시 삼패동 212번지 외1필지","category":"직물 - 카페트,커튼,천막,지물"}]},{"lat":"37.594315967","long":"127.19356212","items":[{"name":"대경유통","tel":"070-4265-5436","addr":"경기도 남양주시 삼패동 370-2번지","category":"의류 - 정장"},{"name":"리하이","tel":"031-551-0007","addr":"경기도 남양주시 삼패동 370-2번지","category":"일반휴게음식 - 중국식"}]},{"lat":"37.59447796","long":"127.19367577","items":[{"name":"대문집","tel":"031-577-1979","addr":"경기도 남양주시 삼패동 365-3번지 1층","category":"일반휴게음식 - 일반한식"}]},{"lat":"37.593428019","long":"127.1910575","items":[{"name":"대양마린","tel":"031-577-0855","addr":"경기도 남양주시 삼패동 379번지","category":"자동차정비 유지 - 자동차부품"},{"name":"주식회사 은진","tel":"031-521-1484","addr":"경기도 남양주시 삼패동 379번지","category":"의류 - 정장"}]},{"lat":"37.592480821","long":"127.19733925","items":[{"name":"대한패러글라이딩스쿨","tel":"02-478-4123","addr":"경기도 남양주시 삼패동 349-11번지","category":"레저업소 - 기타레져업소"},{"name":"데상트골프남양주삼패점","tel":"031-577-6068","addr":"경기도 남양주시 삼패동 349-11번지 해피몰1층D동2호","category":"레져용품 - 스포츠·레져용품"},{"name":"카파덕소삼패점","tel":"031-571-6068","addr":"경기도 남양주시 삼패동 349-11번지 해피몰1층D동2호","category":"레져용품 - 스포츠·레져용품"}]},{"lat":"37.596895348","long":"127.20288789","items":[{"name":"덕소골남원추어탕","tel":"031-577-3144","addr":"경기도 남양주시 삼패동 195-6번지","category":"일반휴게음식 - 일반한식"}]},{"lat":"37.592838457","long":"127.19900463","items":[{"name":"데이데이","tel":"031-576-4554","addr":"경기도 남양주시 삼패동 343-48번지","category":"레져용품 - 스포츠·레져용품"},{"name":"로가디스 덕소삼패점","tel":"031-577-5989","addr":"경기도 남양주시 삼패동 343-48번지","category":"레져용품 - 스포츠·레져용품"}]},{"lat":"37.602727837","long":"127.19556535","items":[{"name":"데코랜드","tel":"031-576-7027","addr":"경기도 남양주시 삼패동 258-2번지","category":"기타 - 기계공구"}]},{"lat":"37.600225267","long":"127.1997261","items":[{"name":"도그베이","tel":"031-521-6218","addr":"경기도 남양주시 삼패동 226-1번지","category":"문화.취미 - 애완동물"}]},{"lat":"37.600816053","long":"127.20202643","items":[{"name":"도매팩","tel":"031-111-1111","addr":"경기도 남양주시 삼패동 232-1번지","category":"유통업 영리 - 기타유통업"},{"name":"미소힐전자","tel":"02-866-2315","addr":"경기도 남양주시 삼패동 232-1번지","category":"사무통신 - 컴퓨터"},{"name":"비제이트레이딩","tel":"031-554-1041","addr":"경기도 남양주시 삼패동 232-1번지","category":"의류 - 정장"}]},{"lat":"37.593586887","long":"127.18744588","items":[{"name":"돈까스클럽","tel":"031-521-3739","addr":"경기도 남양주시 삼패동 589-3번지","category":"일반휴게음식 - 서양음식"},{"name":"돈까스클럽","tel":"031-521-3739","addr":"경기도 남양주시 삼패동 589-3번지","category":"일반휴게음식 - 서양음식"}]},{"lat":"37.596427797","long":"127.20758583","items":[{"name":"라온SPI","tel":"","addr":"경기도 남양주시 삼패동 39-1번지","category":"신변잡화 - 기타잡화"}]},{"lat":"37.593840283","long":"127.19795422","items":[{"name":"루카겐","tel":"070-4139-7175","addr":"경기도 남양주시 삼패동 340번지","category":"의류 - 정장"}]},{"lat":"37.593879029","long":"127.19073027","items":[{"name":"르꼬끄 골프","tel":"031-577-3479","addr":"경기도 남양주시 삼패동 404-1번지 작은고추아울렛 A동 1층 3호","category":"레져용품 - 스포츠·레져용품"},{"name":"영원인터내셔널","tel":"070-4253-7500","addr":"경기도 남양주시 삼패동 404-1번지 A동 1층 5호","category":"의류 - 정장"}]},{"lat":"37.5929497","long":"127.19711401","items":[{"name":"리버빈(Riverbean)","tel":"02-451-7700","addr":"경기도 남양주시 삼패동 351-1번지","category":"음료식품 - 기타음료식품"}]},{"lat":"37.596030899","long":"127.19720128","items":[{"name":"모던가구","tel":"031-571-3121","addr":"경기도 남양주시 삼패동 290-16번지","category":"가구 - 일반가구"},{"name":"힐링모터스","tel":"031-551-3343","addr":"경기도 남양주시 삼패동 290-16번지","category":"자동차정비 유지 - 윤활유 전문 판매"}]},{"lat":"37.601203567","long":"127.20197085","items":[{"name":"문암실업","tel":"031-577-7868","addr":"경기도 남양주시 삼패동 249-11","category":"주방용구 - 주방용구"},{"name":"세진애드","tel":"031-577-2012","addr":"경기도 남양주시 삼패동 249-11","category":"용역 서비스 - 종합용역"}]},{"lat":"37.593815743","long":"127.20186058","items":[{"name":"바다디자인","tel":"031-576-6123","addr":"경기도 남양주시 삼패동 166번지","category":"용역 서비스 - 종합용역"}]},{"lat":"37.597393838","long":"127.1956988","items":[{"name":"바이네르 삼패점","tel":"031-000-0000","addr":"경기도 남양주시 삼패동 297-1번지","category":"신변잡화 - 제화"}]},{"lat":"37.591955089","long":"127.19925141","items":[{"name":"버드나무자동차공업사","tel":"031-521-6161","addr":"경기도 남양주시 삼패동 146-1번지","category":"자동차정비 유지 - 자동차정비"}]},{"lat":"37.59409376","long":"127.1859525","items":[{"name":"볼빅브이닷","tel":"031-521-1231","addr":"경기도 남양주시 삼패동 594번지 아울렛","category":"레져용품 - 스포츠·레져용품"},{"name":"제이직수입","tel":"031-557-8447","addr":"경기도 남양주시 삼패동 594번지 홈데코아울렛 지하1층 2호","category":"의류 - 정장"}]},{"lat":"37.596504949","long":"127.1938055","items":[{"name":"삼공공업사","tel":"031-566-5753","addr":"경기도 남양주시 삼패동 316-3번지","category":"건축자재 - 인테리어전문"}]},{"lat":"37.593118135","long":"127.19877891","items":[{"name":"삼패옷수선","tel":"031-644-3295","addr":"경기도 남양주시 삼패동 343-1번지","category":"수리서비스 - 세탁소"}]},{"lat":"37.597918798","long":"127.19422809","items":[{"name":"삼풍종합목재","tel":"031-577-3847","addr":"경기도 남양주시 삼패동 305-11번지","category":"건축자재 - 기타건축자재"}]},{"lat":"37.593809427","long":"127.18916752","items":[{"name":"세잔느화실","tel":"031-577-8049","addr":"경기도 남양주시 삼패동 407-13","category":"문화.취미 - 화랑"},{"name":"유니온","tel":"031-000-0000","addr":"경기도 남양주시 삼패동 407-13번지","category":"서적문구 - 과학기자재"}]},{"lat":"37.60070009","long":"127.20133536","items":[{"name":"세화 건축","tel":"031-000-0000","addr":"경기도 남양주시 삼패동 235번지","category":"건축자재 - 인테리어전문"}]},{"lat":"37.595643704","long":"127.19706439","items":[{"name":"송임관의나무화석이야기","tel":"031-556-0114","addr":"경기도 남양주시 삼패동 292-18번지","category":"가구 - 기타가구"},{"name":"이화종합주방","tel":"031-0000-0000","addr":"경기도 남양주시 삼패동 292-18","category":"주방용구 - 주방용구"}]},{"lat":"37.596285586","long":"127.19572991","items":[{"name":"쇼바팩토리","tel":"","addr":"경기도 남양주시 삼패동 295-2번지","category":"자동차정비 유지 - 자동차부품"},{"name":"오토스킨 본점","tel":"031-521-5787","addr":"경기도 남양주시 삼패동 295-2번지","category":"자동차정비 유지 - 카인테리어"},{"name":"주식회사 원앤모터스","tel":"070-7785-5949","addr":"경기도 남양주시 삼패동 295-2번지 프라임빌딩 2층","category":"자동차정비 유지 - 자동차부품"},{"name":"태성 MOTORS","tel":"031-576-0054","addr":"경기도 남양주시 삼패동 295-2번지","category":"자동차정비 유지 - 자동차정비"},{"name":"트레일러","tel":"031-577-8972","addr":"경기도 남양주시 삼패동 295-2번지 1층","category":"자동차판매 - 국산신차판매"},{"name":"평화튜닝쇼바","tel":"031-592-2315","addr":"경기도 남양주시 삼패동 295-2번지","category":"자동차정비 유지 - 자동차부품"}]},{"lat":"37.592504042","long":"127.19963783","items":[{"name":"수원갈비","tel":"031-577-9292","addr":"경기도 남양주시 삼패동 153-9번지","category":"일반휴게음식 - 일반한식"}]},{"lat":"37.601172329","long":"127.20445074","items":[{"name":"수이앤지(  ENG)","tel":"031-565-4601","addr":"경기도 남양주시 삼패동 21-4,21-11번지","category":"용역 서비스 - 기타용역서비스"},{"name":"항공모함시스템","tel":"031-000-0000","addr":"경기도 남양주시 삼패동 21-4번지 3호","category":"용역 서비스 - 종합용역"}]},{"lat":"37.597645981","long":"127.19577871","items":[{"name":"스카이산전","tel":"031-577-5872","addr":"경기도 남양주시 삼패동 298-6번지 2층","category":"전기제품 - 기타전기제품"}]},{"lat":"37.59350541","long":"127.18769479","items":[{"name":"시가올","tel":"031-576-7100","addr":"경기도 남양주시 삼패동 589-2번지","category":"일반휴게음식 - 일반한식"}]},{"lat":"37.593840602","long":"127.1922248","items":[{"name":"신성상사","tel":"031-564-2290","addr":"경기도 남양주시 삼패동 382-1번지","category":"자동차정비 유지 - 윤활유 전문 판매"}]},{"lat":"37.60025595","long":"127.19198061","items":[{"name":"신흥산업","tel":"031-576-6217","addr":"경기도 남양주시 삼패동 461-3번지","category":"유통업 영리 - 기타유통업"}]},{"lat":"37.593841786","long":"127.18575939","items":[{"name":"실버문스튜디오","tel":"031-521-9431","addr":"경기도 남양주시 삼패동 591-2번지","category":"광학제품 - 사진관"}]},{"lat":"37.589258847","long":"127.20594711","items":[{"name":"실버하우스","tel":"031-577-6654","addr":"경기도 남양주시 삼패동 126-4번지","category":"숙박업 - 여관/기타숙박업"}]},{"lat":"37.600366673","long":"127.20136845","items":[{"name":"안스그룹","tel":"031-577-0452","addr":"경기도 남양주시 삼패동 236-1번지","category":"문화.취미 - 애완동물"}]},{"lat":"37.595760328","long":"127.19737043","items":[{"name":"앤갤러리","tel":"031-577-7067","addr":"경기도 남양주시 삼패동 292-1번지","category":"가구 - 일반가구"}]},{"lat":"37.592705018","long":"127.19797391","items":[{"name":"엘림조경","tel":"031-576-3130","addr":"경기도 남양주시 삼패동 350-2","category":"건축자재 - 인테리어전문"}]},{"lat":"37.602170952","long":"127.19998036","items":[{"name":"엠앤에스","tel":"","addr":"경기도 남양주시 삼패동 252-2번지","category":"전기제품 - 냉열기기"}]},{"lat":"37.589447759","long":"127.20611746","items":[{"name":"왕셀프세차장","tel":"031-1111-1111","addr":"경기도 남양주시 삼패동 129-3번지","category":"자동차정비 유지 - 세차장"}]},{"lat":"37.593704781","long":"127.19816901","items":[{"name":"우리동네타이어","tel":"031-577-3853","addr":"경기도 남양주시 삼패동 341-2번지","category":"자동차정비 유지 - 자동차시트·타이어"}]},{"lat":"37.594232553","long":"127.18358632","items":[{"name":"윤갤러리","tel":"031-577-6648","addr":"경기도 남양주시 삼패동 603-4번지","category":"가구 - 일반가구"},{"name":"잠뱅이&STCO","tel":"031-521-9230","addr":"경기도 남양주시 삼패동 603-4번지","category":"레져용품 - 스포츠·레져용품"}]},{"lat":"37.596446593","long":"127.1964437","items":[{"name":"이가네순대국","tel":"031-521-4050","addr":"경기도 남양주시 삼패동 290-74번지","category":"일반휴게음식 - 일반한식"},{"name":"타이어월드 남양주","tel":"031-521-9339","addr":"경기도 남양주시 삼패동 290-74번지","category":"자동차정비 유지 - 자동차시트·타이어"}]},{"lat":"37.601314233","long":"127.20045371","items":[{"name":"이건산업","tel":"070-4145-1465","addr":"경기도 남양주시 삼패동 232-5번지","category":"기타 - 기계공구"}]},{"lat":"37.596066528","long":"127.19745049","items":[{"name":"잇츠캠프","tel":"070-8765-9753","addr":"경기도 남양주시 삼패동 290-15번지","category":"레져용품 - 스포츠·레져용품"}]},{"lat":"37.594732257","long":"127.19241955","items":[{"name":"자전거의류아울렛","tel":"070-8822-8823","addr":"경기도 남양주시 삼패동 390-5번지","category":"레져용품 - 스포츠·레져용품"}]},{"lat":"37.602227169","long":"127.19317464","items":[{"name":"장수돌침대 다산점","tel":"031-521-8384","addr":"경기도 남양주시 삼패동 511-4번지","category":"가구 - 일반가구"}]},{"lat":"37.601090622","long":"127.20481289","items":[{"name":"정민 히노끼 인테리어","tel":"070-8114-3418","addr":"경기도 남양주시 삼패동 21번지 주2동","category":"건축자재 - 인테리어전문"},{"name":"정민 히노끼 인테리어","tel":"031-577-7926","addr":"경기도 남양주시 삼패동 21번지 2동","category":"건축자재 - 인테리어전문"}]},{"lat":"37.595455151","long":"127.19666759","items":[{"name":"정승가든","tel":"031-576-4203","addr":"경기도 남양주시 삼패동 326-16번지","category":"일반휴게음식 - 일반한식"}]},{"lat":"37.593177634","long":"127.19547279","items":[{"name":"정통밥집","tel":"031-577-5700","addr":"경기도 남양주시 삼패동 358-2번지","category":"일반휴게음식 - 일반한식"}]},{"lat":"37.602868788","long":"127.19197589","items":[{"name":"제이엔케이(J&K)","tel":"070-8884-6007","addr":"경기도 남양주시 삼패동 516-9번지","category":"전기제품 - 가전제품"},{"name":"주식회사 태영물류","tel":"031-576-0077","addr":"경기도 남양주시 삼패동 516-9번지","category":"용역 서비스 - 보관및 창고업"}]},{"lat":"37.593922882","long":"127.19703728","items":[{"name":"제이피COMPANY","tel":"031-521-2418","addr":"경기도 남양주시 삼패동 357번지 메가몰아울렛","category":"의류 - 정장"}]},{"lat":"37.598839913","long":"127.19291689","items":[{"name":"제주삼다수 (광진)","tel":"070-4282-2468","addr":"경기도 남양주시 삼패동 456-40번지 1층","category":"유통업 영리 - 기타유통업"}]},{"lat":"37.595066017","long":"127.19217129","items":[{"name":"주식회사 알파벳컴퍼니","tel":"031-111-1111","addr":"경기도 남양주시 삼패동 396-1번지","category":"용역 서비스 - 종합용역"}]},{"lat":"37.600588328","long":"127.19259294","items":[{"name":"주식회사 지티글로벌","tel":"031-576-9970","addr":"경기도 남양주시 삼패동 278-9번지 2층","category":"신변잡화 - 가방"}]},{"lat":"37.601593087","long":"127.20602593","items":[{"name":"중앙피아노","tel":"031-552-8250","addr":"경기도 남양주시 삼패동 14-3","category":"보건위생 - 기타대인서비스"}]},{"lat":"37.592397581","long":"127.19864115","items":[{"name":"지센 덕소삼패 상설점","tel":"","addr":"경기도 남양주시 삼패동 343-40번지","category":"의류 - 스포츠의류"}]},{"lat":"37.591783433","long":"127.19953403","items":[{"name":"칡뿌레기냉면","tel":"031-576-8985","addr":"경기도 남양주시 삼패동 148번지","category":"일반휴게음식 - 일반한식"}]},{"lat":"37.599092313","long":"127.19283827","items":[{"name":"카드마을","tel":"02-745-3838","addr":"경기도 남양주시 삼패동 455번지 1층","category":"서적문구 - 출판 및 인쇄물"}]},{"lat":"37.593896755","long":"127.18517073","items":[{"name":"카페101","tel":"031-576-8255","addr":"경기도 남양주시 삼패동 591-4번지 1층","category":"일반휴게음식 - 서양음식"}]},{"lat":"37.59608715","long":"127.19586528","items":[{"name":"캠핑파크","tel":"031-577-0037","addr":"경기도 남양주시 삼패동 295-15,295-2","category":"레져용품 - 스포츠·레져용품"}]},{"lat":"37.59700579","long":"127.19608279","items":[{"name":"코지슬립 남양주점","tel":"","addr":"경기도 남양주시 삼패동 291-3번지","category":"가구 - 일반가구"}]},{"lat":"37.596502189","long":"127.195504","items":[{"name":"타이어T뱅크","tel":"031-577-2999","addr":"경기도 남양주시 삼패동 295-16번지","category":"자동차정비 유지 - 자동차시트·타이어"}]},{"lat":"37.599476673","long":"127.19473032","items":[{"name":"탑사운드","tel":"031-1111-1111","addr":"경기도 남양주시 삼패동 282-5번지","category":"용역 서비스 - 기타용역서비스"},{"name":"프로사운드양정점","tel":"","addr":"경기도 남양주시 삼패동 282-5번지","category":"용역 서비스 - 기타용역서비스"}]},{"lat":"37.593816141","long":"127.19061688","items":[{"name":"톨비스트 삼패점","tel":"","addr":"경기도 남양주시 삼패동 404-1번지","category":"의류 - 스포츠의류"}]},{"lat":"37.593864787","long":"127.18834108","items":[{"name":"트라이 온","tel":"070-8785-7130","addr":"경기도 남양주시 삼패동 408-2번지 1층","category":"의류 - 정장"}]},{"lat":"37.593038335","long":"127.19247187","items":[{"name":"하늘농원","tel":"031-521-3764","addr":"경기도 남양주시 삼패동 374-12","category":"문화.취미 - 문화취미기타"}]},{"lat":"37.596593651","long":"127.1946663","items":[{"name":"형제기계공업사","tel":"031-576-6329","addr":"경기도 남양주시 삼패동 297-2번지","category":"기타 - 기계공구"}]}]