[{"lat":"37.526539809","long":"127.22678484","imageIndex":0,"items":[{"name":"AMS팩토리","tel":"031-1588-3540","addr":"경기도 하남시 창우동 442-3번지 1층","indutype":"자동차정비 유지 - 자동차부품","category":"car"}]},{"lat":"37.52901811","long":"127.22647548","imageIndex":0,"items":[{"name":"Reverse 399(리버스 399)","tel":"031-111-1111","addr":"경기도 하남시 창우동 399-3번지","indutype":"자동차정비 유지 - 카인테리어","category":"car"},{"name":"리버스399","tel":"","addr":"경기도 하남시 창우동 399-3번지","indutype":"자동차정비 유지 - 카인테리어","category":"car"}]},{"lat":"37.5335142","long":"127.22638708","imageIndex":0,"items":[{"name":"금호타이어창우대리점","tel":"070-8690-8900","addr":"경기도 하남시 창우동 312-2번지 2층","indutype":"자동차정비 유지 - 자동차시트·타이어","category":"car"},{"name":"현대자동차창우점","tel":"031-796-5545","addr":"경기도 하남시 창우동 312-2번지","indutype":"자동차정비 유지 - 자동차정비","category":"car"}]},{"lat":"37.528267535","long":"127.2231472","imageIndex":0,"items":[{"name":"산성카센타","tel":"031-794-6350","addr":"경기도 하남시 창우동 330-15번지","indutype":"자동차정비 유지 - 자동차정비","category":"car"}]},{"lat":"37.533513236","long":"127.2268962","imageIndex":0,"items":[{"name":"워시베이","tel":"031-794-5959","addr":"경기도 하남시 창우동 302-2번지","indutype":"자동차정비 유지 - 세차장","category":"car"}]},{"lat":"37.53729065","long":"127.23041496","imageIndex":0,"items":[{"name":"위너상사","tel":"031-792-8285","addr":"경기도 하남시 창우동 260-6번지 가동","indutype":"자동차정비 유지 - 자동차부품","category":"car"}]},{"lat":"37.539321801","long":"127.23303483","imageIndex":0,"items":[{"name":"자동차복지정비소","tel":"031-792-5102","addr":"경기도 하남시 창우동 22-2번지","indutype":"자동차정비 유지 - 자동차정비","category":"car"}]},{"lat":"37.543676895","long":"127.22660977","imageIndex":0,"items":[{"name":"케이블헌터","tel":"02-565-2850","addr":"경기도 하남시 창우동 146-4번지 1층","indutype":"자동차정비 유지 - 자동차부품","category":"car"}]},{"lat":"37.534150306","long":"127.2282784","imageIndex":0,"items":[{"name":"태원주차관리(주)","tel":"031-796-0834","addr":"경기도 하남시 창우동 288-1번지 2층","indutype":"자동차정비 유지 - 주차장","category":"car"}]}]