[{"lat":"37.707046244","long":"127.04879833","items":[{"name":"(주)경기개발","tel":"031-871-2238","addr":"경기도 의정부시 호원동 463-11번지 2층","category":"용역 서비스 - 기타용역서비스"},{"name":"대진정육점","tel":"031-829-3998","addr":"경기도 의정부시 호원동 463-11번지","category":"음료식품 - 정육점"}]},{"lat":"37.723570674","long":"127.04663073","items":[{"name":"(주)그린월드","tel":"031-875-8226","addr":"경기도 의정부시 호원동 50-17번지 유타상가 5층 503호","category":"여행 - 관광여행"},{"name":"The Knitting","tel":"031-873-2021","addr":"경기도 의정부시 호원동 50-17번지 유타 상가 203호","category":"문화.취미 - 문화취미기타"},{"name":"라브리지의정부(회룡역점)","tel":"031-859-5821","addr":"경기도 의정부시 호원동 50-17번지 2층","category":"보건위생 - 미용원"},{"name":"라화쿵부 화룡점","tel":"031-877-7690","addr":"경기도 의정부시 호원동 50-17번지 유타상가 205호","category":"일반휴게음식 - 중국식"},{"name":"레아","tel":"02-1600-5441","addr":"경기도 의정부시 호원동 50-17번지 유타상가103호","category":"의류 - 정장"},{"name":"레아","tel":"031-1600-5441","addr":"경기도 의정부시 호원동 50-17번지 유타 상가 103호","category":"의류 - 정장"},{"name":"송현아 에스테틱","tel":"070-8805-0506","addr":"경기도 의정부시 호원동 50-17번지 2층 203호 유타 상가","category":"보건위생 - 피부미용실"},{"name":"애드비전","tel":"031-829-2115","addr":"경기도 의정부시 호원동 50-17번지 4층402호,유타 상가","category":"용역 서비스 - 종합용역"},{"name":"엄마네 닭한마리","tel":"031-827-9608","addr":"경기도 의정부시 호원동 50-17번지 유타상가 105호","category":"일반휴게음식 - 일반한식"},{"name":"오늘도 곱창","tel":"031-878-8292","addr":"경기도 의정부시 호원동 50-17번지 유타상가 1층","category":"일반휴게음식 - 일반한식"},{"name":"유나바리스타학원","tel":"031-873-7168","addr":"경기도 의정부시 호원동 50-17번지 유타상가 502호","category":"학원 - 기능학원"},{"name":"유니베라","tel":"031-837-1567","addr":"경기도 의정부시 호원동 50-17번지 유타상가 501호","category":"보건위생 - 화장품"},{"name":"짝태&노가리 회룡역점","tel":"031-852-2855","addr":"경기도 의정부시 호원동 50-17번지 유타상가 101호","category":"일반휴게음식 - 주점"},{"name":"코어짐","tel":"031-877-0045","addr":"경기도 의정부시 호원동 50-17번지 유타상가 601호","category":"레저업소 - 헬스클럽"},{"name":"코코래빗회룡역점","tel":"031-874-0523","addr":"경기도 의정부시 호원동 50-17번지 유타상가103-1호","category":"서적문구 - 문구용품"},{"name":"필댄스스쿨","tel":"031-821-8555","addr":"경기도 의정부시 호원동 50-17번지 유타상가 7층","category":"회원제형태 - 학원"},{"name":"해피스마일치과","tel":"031-876-2288","addr":"경기도 의정부시 호원동 50-17번지 유타상가 3층","category":"의원 - 치과의원"},{"name":"호원 점핑다이어트","tel":"","addr":"경기도 의정부시 호원동 50-17번지 유타상가 2층","category":"건강식품 - 기타건강식품"},{"name":"힐링스토리안마원","tel":"031-873-0153","addr":"경기도 의정부시 호원동 50-17번지 유타상가 4층 403호","category":"보건위생 - 안마시술소"}]},{"lat":"37.707903114","long":"127.04626997","items":[{"name":"(주)디에스엘이디","tel":"031-879-1437","addr":"경기도 의정부시 호원동 119-42번지","category":"건축자재 - 조명기구"},{"name":"리멤버","tel":"031-527-4906","addr":"경기도 의정부시 호원동 119-42번지 G동 1층","category":"음료식품 - 기타음료식품"},{"name":"신흥골","tel":"031-874-0030","addr":"경기도 의정부시 호원동 119-42번지","category":"일반휴게음식 - 일반한식"},{"name":"올라브리또","tel":"031-855-8826","addr":"경기도 의정부시 호원동 119-42번지","category":"일반휴게음식 - 일반한식"},{"name":"일출","tel":"031-826-1579","addr":"경기도 의정부시 호원동 119-42번지 외2필지","category":"일반휴게음식 - 일반한식"}]},{"lat":"37.695074153","long":"127.04421025","items":[{"name":"(주)무지개씽크","tel":"031-876-0993","addr":"경기도 의정부시 호원동 202-11번지","category":"주방용구 - 주방용구"}]},{"lat":"37.711208984","long":"127.04801838","items":[{"name":"(주)베트남천년국제결혼","tel":"031-822-7911","addr":"경기도 의정부시 호원동 455-5번지 307호","category":"용역 서비스 - 혼례서비스"},{"name":"강정구의 피자생각","tel":"031-855-2255","addr":"경기도 의정부시 호원동 455-5번지 1층 109호","category":"일반휴게음식 - 서양음식"},{"name":"경기호원신문","tel":"031-878-4125","addr":"경기도 의정부시 호원동 455-5번지 213호","category":"서적문구 - 정기간행물"},{"name":"굿샵 호원점","tel":"031-877-9993","addr":"경기도 의정부시 호원동 455-5번지 브랜드상설매장 111호","category":"유통업 영리 - 편 의 점"},{"name":"까리까리","tel":"031-878-2897","addr":"경기도 의정부시 호원동 455-5번지 브랜드상설매장 1층 113호","category":"일반휴게음식 - 주점"},{"name":"달항아리","tel":"031-878-1797","addr":"경기도 의정부시 호원동 455-5번지 브랜드상설매장 B-110호","category":"일반휴게음식 - 일반한식"},{"name":"대양모피","tel":"031-877-6322","addr":"경기도 의정부시 호원동 455-5번지 305호","category":"직물 - 옷감·직물"},{"name":"디자인잼","tel":"070-7590-4309","addr":"경기도 의정부시 호원동 455-5번지 브랜드상설매장 207호","category":"용역 서비스 - 종합용역"},{"name":"랑차이","tel":"031-877-2811","addr":"경기도 의정부시 호원동 455-5번지 A동 204,205호","category":"일반휴게음식 - 일반한식"},{"name":"루디아","tel":"031-879-1151","addr":"경기도 의정부시 호원동 455-5번지 112-1호 브랜드상설매장","category":"의류 - 정장"},{"name":"마이더스유통","tel":"031-873-1127","addr":"경기도 의정부시 호원동 455-5번지 브랜드상설매장 104호","category":"의류 - 정장"},{"name":"바른자세로교정운동원","tel":"031-835-2715","addr":"경기도 의정부시 호원동 455-5번지 209-1호","category":"보건위생 - 기타대인서비스"},{"name":"별애별","tel":"","addr":"경기도 의정부시 호원동 455-5번지 2층 208호","category":"의류 - 정장"},{"name":"수유리우동집","tel":"","addr":"경기도 의정부시 호원동 455-5번지 1층 104호","category":"일반휴게음식 - 일식·회집"},{"name":"스마일 스톤","tel":"031-878-7135","addr":"경기도 의정부시 호원동 455-5번지 3층 303호 브랜드 상설매장","category":"보건위생 - 의료용품"},{"name":"스시엔리","tel":"031-876-5569","addr":"경기도 의정부시 호원동 455-5번지 브랜드상설매장 105호","category":"일반휴게음식 - 일식·회집"},{"name":"스톤피그(stone pig)","tel":"031-837-9255","addr":"경기도 의정부시 호원동 455-5번지 브랜드상설매장 1층 112호","category":"일반휴게음식 - 일반한식"},{"name":"아이EYE.CCTV","tel":"070-8229-0416","addr":"경기도 의정부시 호원동 455-5번지 브랜드상성매장 B동 208-2호","category":"광학제품 - 기타광학제품"},{"name":"아이잠","tel":"031-855-2334","addr":"경기도 의정부시 호원동 455-5번지 202,203호","category":"일반휴게음식 - 일반한식"},{"name":"안정환음악교습소","tel":"031-838-7626","addr":"경기도 의정부시 호원동 455-5번지 브랜드상설매장 306호","category":"회원제형태 - 학원"},{"name":"여시(yeosi)","tel":"031-873-8424","addr":"경기도 의정부시 호원동 455-5번지 308호 브랜드상설매장","category":"보건위생 - 의료용품"},{"name":"올스본 의료기","tel":"031-837-7098","addr":"경기도 의정부시 호원동 455-5번지 2층 203,204호","category":"보건위생 - 의료용품"},{"name":"용가리노래방","tel":"031-836-5770","addr":"경기도 의정부시 호원동 455-5번지 3층 311,312,313호","category":"레저업소 - 노 래 방"},{"name":"우렁찬쌈밥추어탕","tel":"031-871-5887","addr":"경기도 의정부시 호원동 455-5번지 브랜드상설매장 206호","category":"일반휴게음식 - 일반한식"},{"name":"원더로드","tel":"","addr":"경기도 의정부시 호원동 455-5번지 1층 110호","category":"레져용품 - 스포츠·레져용품"},{"name":"유광일법무사사무소","tel":"031-829-4900","addr":"경기도 의정부시 호원동 455-5번지 3층 303호 브랜드상설매장","category":"용역 서비스 - 법률회계서비스(개인)"},{"name":"잼파파","tel":"031-877-4488","addr":"경기도 의정부시 호원동 455-5번지 1층 106호","category":"음료식품 - 제과점"},{"name":"전주식당","tel":"031-855-6972","addr":"경기도 의정부시 호원동 455-5번지 브랜드상설매장 B-107호","category":"일반휴게음식 - 일반한식"},{"name":"쭈꾸미와 삼겹살","tel":"031-837-8429","addr":"경기도 의정부시 호원동 455-5번지 110호","category":"일반휴게음식 - 일반한식"},{"name":"착한족발보쌈","tel":"031-872-3143","addr":"경기도 의정부시 호원동 455-5번지 2층 210호","category":"일반휴게음식 - 일반한식"},{"name":"철수머리","tel":"031-826-7655","addr":"경기도 의정부시 호원동 455-5번지 브랜드상설매장 108호","category":"보건위생 - 미용원"},{"name":"초이스","tel":"031-837-3604","addr":"경기도 의정부시 호원동 455-5번지 브랜드상설매장 B-213호","category":"보건위생 - 화장품"},{"name":"커피마마망월사역점","tel":"031-837-2824","addr":"경기도 의정부시 호원동 455-5번지 브랜드상설매장지상1층101호","category":"일반휴게음식 - 서양음식"},{"name":"클라이머홀릭","tel":"031-879-0877","addr":"경기도 의정부시 호원동 455-5번지 B동 114호","category":"레져용품 - 스포츠·레져용품"},{"name":"클레오","tel":"031-823-1361","addr":"경기도 의정부시 호원동 455-5번지 2층 207호","category":"보건위생 - 피부미용실"},{"name":"해주","tel":"031-855-5595","addr":"경기도 의정부시 호원동 455-5번지 105호 ,106호,107호","category":"일반휴게음식 - 일식·회집"},{"name":"황예숙 헤어","tel":"031-829-2464","addr":"경기도 의정부시 호원동 455-5번지 다매오 상가 1층 109호","category":"보건위생 - 미용원"},{"name":"훌랄라참숯바베큐치킨","tel":"031-879-1253","addr":"경기도 의정부시 호원동 455-5브랜드상설매장103.104호지상1층","category":"일반휴게음식 - 주점"}]},{"lat":"37.714155202","long":"127.04781603","items":[{"name":"(주)블루닥홀딩스","tel":"031-879-7575","addr":"경기도 의정부시 호원동 450번지 미소프라자 1층 115호","category":"보건위생 - 의료용품"},{"name":"21세기정형외과의원","tel":"031-874-7579","addr":"경기도 의정부시 호원동 450.2층201호","category":"의원 - 의원"},{"name":"고수","tel":"031-878-8595","addr":"경기도 의정부시 호원동 450번지 미소프라자 1층","category":"일반휴게음식 - 중국식"},{"name":"글로리아","tel":"031-855-5192","addr":"경기도 의정부시 호원동 450번지 미소프라자 1층 102호","category":"일반휴게음식 - 일반한식"},{"name":"낙지수제비","tel":"031-878-7107","addr":"경기도 의정부시 호원동 450번지 미소프라자 1층 105호","category":"일반휴게음식 - 일반한식"},{"name":"도봉산식당","tel":"031--874-3904","addr":"경기도 의정부시 호원동 450번지 미소프라자","category":"일반휴게음식 - 일반한식"},{"name":"또래오래 호원점","tel":"031-826-2202","addr":"경기도 의정부시 호원동 450번지 미소프라자 1층 107호","category":"일반휴게음식 - 스넥"},{"name":"라데팡스헤어","tel":"031-871-6229","addr":"경기도 의정부시 호원동 450번지 미소프라자 103호","category":"보건위생 - 미용원"},{"name":"만두예찬","tel":"031-829-9284","addr":"경기도 의정부시 호원동 450번지 미소프라자 106호","category":"일반휴게음식 - 일반한식"},{"name":"맥켄리골프연습장","tel":"031-877-0759","addr":"경기도 의정부시 호원동 450번지 미소프라자 1층 116호","category":"레저업소 - 골프연습장"},{"name":"백번가 코다리","tel":"031-872-7769","addr":"경기도 의정부시 호원동 450번지 미소프라자 1층","category":"일반휴게음식 - 일반한식"},{"name":"초원산","tel":"031-000-0000","addr":"경기도 의정부시 호원동 450번지 미소프라자","category":"보건위생 - 피부미용실"},{"name":"파리바게트 호원미소점","tel":"031-871-0013","addr":"경기도 의정부시 호원동 450번지 미소프라자 1층 104호","category":"음료식품 - 제과점"}]},{"lat":"37.706542825","long":"127.04582691","items":[{"name":"(주)비에이치벅스헌터","tel":"031-829-8891","addr":"경기도 의정부시 호원동 119-62번지","category":"용역 서비스 - 종합용역"}]},{"lat":"37.718102772","long":"127.04407559","items":[{"name":"(주)세훈종합건재","tel":"","addr":"경기도 의정부시 호원동 281-69번지","category":"건축자재 - 기타건축자재"}]},{"lat":"37.715930654","long":"127.04632002","items":[{"name":"(주)신성컬렉션 회룡지점","tel":"031-829-8621","addr":"경기도 의정부시 호원동 50-5번지 회룡역","category":"신변잡화 - 제화"},{"name":"나이스파킹","tel":"","addr":"경기도 의정부시 호원동 50-5번지","category":"자동차정비 유지 - 주차장"},{"name":"라떼에떼","tel":"031-826-0994","addr":"경기도 의정부시 호원동 50-5번지 1층","category":"일반휴게음식 - 서양음식"},{"name":"망월사역 주차장","tel":"031-852-3636","addr":"경기도 의정부시 호원동 50-5번지","category":"자동차정비 유지 - 주차장"},{"name":"신영희컬렉션 회룡역점","tel":"070-4922-1261","addr":"경기도 의정부시 호원동 50-5번지 3층","category":"의류 - 정장"},{"name":"토탈서비스","tel":"031-879-3888","addr":"경기도 의정부시 호원동 50-5번지","category":"수리서비스 - 기타수리서비스"},{"name":"플라워피아","tel":"031-876-0079","addr":"경기도 의정부시 호원동 50-5","category":"문화.취미 - 화원"}]},{"lat":"37.726353696","long":"127.04909382","items":[{"name":"(주)에스바디워크필라테스 (회룡역점)","tel":"031-877-9609","addr":"경기도 의정부시 호원동 418번지 거원프라자 3층 302호","category":"레저업소 - 헬스클럽"},{"name":"개구장이소아치과치과의원","tel":"031-875-2875","addr":"경기도 의정부시 호원동 418번지 외2필지 거원프라자 4층 407호","category":"의원 - 치과의원"},{"name":"도원(트라이)","tel":"031-877-5686","addr":"경기도 의정부시 호원동 418번지 거원프라자 105호","category":"의류 - 내의판매"},{"name":"서강대학교의정부SLP영어학당학원","tel":"031-826-0509","addr":"경기도 의정부시 호원동 418번지 거원프라자 5층","category":"학원 - 외국어학원"},{"name":"성신약국","tel":"031-874-1779","addr":"경기도 의정부시 호원동 418번지 거원프라자 103호","category":"약국 - 약국"},{"name":"수유리우동집","tel":"031-826-0120","addr":"경기도 의정부시 호원동 418번지 거원프라자 101호","category":"일반휴게음식 - 일반한식"},{"name":"씨유의정부승기점","tel":"031-837-4136","addr":"경기도 의정부시 호원동 418번지 거원프라자 1층 102호","category":"유통업 영리 - 편 의 점"},{"name":"에이플수학학원","tel":"031-843-8471","addr":"경기도 의정부시 호원동 418번지 거원프라자 2층 202호","category":"학원 - 보습학원"},{"name":"연어바다","tel":"031-877-0244","addr":"경기도 의정부시 호원동 418번지 거원프라자 1층","category":"일반휴게음식 - 일식·회집"},{"name":"위천칡냉면","tel":"031-878-8686","addr":"경기도 의정부시 호원동 418번지","category":"일반휴게음식 - 주점"},{"name":"이앤미치과의원","tel":"031-836-2875","addr":"경기도 의정부시 호원동 418번지 거원빌딩 4층","category":"의원 - 치과의원"},{"name":"체리샴푸","tel":"031-852-7053","addr":"경기도 의정부시 호원동 418번지 거원프라자 103호","category":"서적문구 - 완구점"},{"name":"페어(Pair)","tel":"","addr":"경기도 의정부시 호원동 418번지 거원프라자 1층 104호","category":"일반휴게음식 - 서양음식"}]},{"lat":"37.710155042","long":"127.04754144","items":[{"name":"(주)예담","tel":"031-878-7845","addr":"경기도 의정부시 호원동 454-23 3,4 층(1,2층일부)","category":"직물 - 침구·수예점"},{"name":"림스요가","tel":"031-855-6042","addr":"경기도 의정부시 호원동 454-23번지 2층","category":"레저업소 - 헬스클럽"},{"name":"예담독서실","tel":"031-879-1991","addr":"경기도 의정부시 호원동 454-23번지","category":"학원 - 독서실"},{"name":"예담액자","tel":"031-836-7845","addr":"경기도 의정부시 호원동 454-23번지","category":"문화.취미 - 화방·표구점"},{"name":"오늘통닭","tel":"031-876-5000","addr":"경기도 의정부시 호원동 454-23번지 1층","category":"일반휴게음식 - 스넥"},{"name":"원포인트공무원체력학원","tel":"","addr":"경기도 의정부시 호원동 454-23번지 B1층","category":"학원 - 기능학원"}]},{"lat":"37.706938119","long":"127.04882094","items":[{"name":"(주)제이에이치커뮤니케이션","tel":"031-876-9574","addr":"경기도 의정부시 호원동 463-12번지 서울빌딩 4층","category":"용역 서비스 - 종합용역"},{"name":"전원정육점","tel":"031-873-6317","addr":"경기도 의정부시 호원동 463-12번지","category":"음료식품 - 정육점"},{"name":"핸디맨닥터의정부점","tel":"031-825-0455","addr":"경기도 의정부시 호원동 463-12번지 서울빌딩 1층 2호","category":"건축자재 - 인테리어전문"}]},{"lat":"37.726317317","long":"127.04995588","items":[{"name":"(주)청림에듀","tel":"031-875-8702","addr":"경기도 의정부시 호원동 418-3번지 3층 301호","category":"학원 - 보습학원"},{"name":"e편한치과","tel":"031-873-2828","addr":"경기도 의정부시 호원동 418-3번지","category":"의원 - 치과의원"},{"name":"네이처헤어회룡점","tel":"031-837-3387","addr":"경기도 의정부시 호원동 418-3번지 105호","category":"보건위생 - 미용원"},{"name":"노보(NOVO)디자인","tel":"031-824-9266","addr":"경기도 의정부시 호원동 418-3번지","category":"건축자재 - 인테리어전문"},{"name":"마린","tel":"031-829-0133","addr":"경기도 의정부시 호원동 418-3번지 106호","category":"의류 - 정장"},{"name":"아름다운삼산한의원","tel":"031-821-2121","addr":"경기도 의정부시 호원동 418-3번지","category":"의원 - 한의원"},{"name":"어두컴컴","tel":"031-841-3005","addr":"경기도 의정부시 호원동 418-3번지 104호","category":"수리서비스 - 사무·통신기기수리"},{"name":"호원미래학원","tel":"031-872-9975","addr":"경기도 의정부시 호원동 418-3번지 3층","category":"학원 - 보습학원"},{"name":"휘룩시스템코리아","tel":"02-908-8849","addr":"경기도 의정부시 호원동 418-3번지 1층","category":"보건위생 - 미용재료"}]},{"lat":"37.709352879","long":"127.04834613","items":[{"name":"(주)코코넛","tel":"070-7746-7746","addr":"경기도 의정부시 호원동 459번지 신일엘리시움 2층 224호","category":"레져용품 - 스포츠·레져용품"},{"name":"120%쿨(망월사점)","tel":"031-826-5120","addr":"경기도 의정부시 호원동 459번지 신일엘리시움 상가 110호","category":"보건위생 - 미용원"},{"name":"고수정수학교습소","tel":"031-829-3377","addr":"경기도 의정부시 호원동 459번지 신일엘리시움 2층 222호","category":"학원 - 보습학원"},{"name":"김쌤영어교습소","tel":"031-871-6671","addr":"경기도 의정부시 호원동 459번지 신일엘리시움 223호","category":"학원 - 외국어학원"},{"name":"나무정원","tel":"031-879-2838","addr":"경기도 의정부시 호원동 459번지 신일엘리시움 상가 207호","category":"회원제형태 - 기타4"},{"name":"네네치킨 망월사역점","tel":"031-875-2929","addr":"경기도 의정부시 호원동 459번지 신일엘리시움 1층 117호","category":"일반휴게음식 - 일반한식"},{"name":"노군꼬치 망월사역점","tel":"031-873-5208","addr":"경기도 의정부시 호원동 459번지 신일엘리시움 1층 103호","category":"일반휴게음식 - 일반한식"},{"name":"대가순대국","tel":"031-879-4866","addr":"경기도 의정부시 호원동 459번지 신일엘리시움 상가동 1층 101호","category":"일반휴게음식 - 일반한식"},{"name":"리틀모네미술학원","tel":"031-836-7775","addr":"경기도 의정부시 호원동 459번지 신일엘리시움 226호,227호","category":"학원 - 예·체능계학원"},{"name":"맛닭꼬 호원점","tel":"031-836-3392","addr":"경기도 의정부시 호원동 459번지 신일엘리시움 110호","category":"일반휴게음식 - 스넥"},{"name":"명랑핫도그 망월사역점","tel":"031-111-1111","addr":"경기도 의정부시 호원동 459번지 신일엘리시움 1층 108호","category":"일반휴게음식 - 서양음식"},{"name":"미스사이공/주식회사 혜주","tel":"031-877-0420","addr":"경기도 의정부시 호원동 459번지 신일엘리시움 1층 113호","category":"일반휴게음식 - 서양음식"},{"name":"바흐의 여인","tel":"","addr":"경기도 의정부시 호원동 459번지 신일엘리시움 1층 118호","category":"의류 - 정장"},{"name":"베스트독서실","tel":"031-877-7373","addr":"경기도 의정부시 호원동 459번지 2층 221호 신일엘리시움상가","category":"학원 - 독서실"},{"name":"보양안동찜닭","tel":"031-855-2744","addr":"경기도 의정부시 호원동 459번지 신일엘리시움 209호 208호","category":"일반휴게음식 - 일반한식"},{"name":"산리쯔헤어","tel":"031-846-7829","addr":"경기도 의정부시 호원동 459번지 신일엘리시움 상가 123호","category":"보건위생 - 미용원"},{"name":"서울준치과","tel":"031-873-7580","addr":"경기도 의정부시 호원동 459 신일엘리시움2층 212호,213호","category":"의원 - 치과의원"},{"name":"스마일자전거","tel":"031-878-5028","addr":"경기도 의정부시 호원동 459번지 124호 , 신일엘리시움상가","category":"레져용품 - 스포츠·레져용품"},{"name":"쏭's 네일&뷰티","tel":"031-877-4730","addr":"경기도 의정부시 호원동 459번지 신일엘리시움 1층 122-1호","category":"보건위생 - 피부미용실"},{"name":"아이비리그영어학원","tel":"070-8824-2340","addr":"경기도 의정부시 호원동 459번지 신일엘리시움 214호,215호","category":"회원제형태 - 학원"},{"name":"연세동문본수학교습소","tel":"031-825-2580","addr":"경기도 의정부시 호원동 459번지 신일엘리시움 2층 211호","category":"학원 - 보습학원"},{"name":"영어독서클럽영어교습소","tel":"","addr":"경기도 의정부시 호원동 459번지 신일엘리시움 2층 209호","category":"학원 - 외국어학원"},{"name":"예샘학원","tel":"070-8803-0570","addr":"경기도 의정부시 호원동 459번지 신일엘리시움 229호 230","category":"학원 - 보습학원"},{"name":"오땅비어","tel":"031-836-3931","addr":"경기도 의정부시 호원동 459번지 신일엘리시움 1층 125호","category":"일반휴게음식 - 일반한식"},{"name":"육미집","tel":"031-877-1030","addr":"경기도 의정부시 호원동 459번지 신일엘리시움 상가 121호","category":"일반휴게음식 - 일반한식"},{"name":"장수풍천장어","tel":"031-877-2823","addr":"경기도 의정부시 호원동 459번지 신일엘리시움 124호","category":"일반휴게음식 - 일반한식"},{"name":"정가 화꿔무한리필","tel":"02-877-4610","addr":"경기도 의정부시 호원동 459번지 신일엘리시움 상가 102호","category":"유통업 영리 - 슈퍼마켓"},{"name":"정관장 호원1동점","tel":"031-826-2303","addr":"경기도 의정부시 호원동 459번지 신일엘리시움 1층 111호","category":"건강식품 - 홍삼제품"},{"name":"정관장경기망월사역점","tel":"031-826-2303","addr":"경기도 의정부시 호원동 459번지 신일엘리시움 1층 111호","category":"건강식품 - 홍삼제품"},{"name":"정관장망월사역점","tel":"031-826-2303","addr":"경기도 의정부시 호원동 459번지 신일엘리시움 1층 111호","category":"건강식품 - 홍삼제품"},{"name":"주식회사 블루마블","tel":"031-837-2816","addr":"경기도 의정부시 호원동 459번지 신일엘리시움 1902호","category":"서적문구 - 문구용품"},{"name":"주식회사 유화코리아","tel":"031-879-7877","addr":"경기도 의정부시 호원동 459번지 신일엘리시움 2층 224호","category":"보건위생 - 화장품"},{"name":"채선당 (망월사점)","tel":"031-871-5799","addr":"경기도 의정부시 호원동 459번지 신일엘리시움 201동 202호","category":"일반휴게음식 - 일반한식"},{"name":"카이스트학원","tel":"","addr":"경기도 의정부시 호원동 459번지 신일엘리시움 204, 205호","category":"학원 - 보습학원"},{"name":"크린토피아 코인워시 망월사역점","tel":"031-875-4571","addr":"경기도 의정부시 호원동 459번지 신일엘리시움 196호","category":"수리서비스 - 세탁소"},{"name":"팡도미","tel":"","addr":"경기도 의정부시 호원동 459번지 신일엘리시움 105,106호","category":"음료식품 - 제과점"},{"name":"한솥도시락 망월사역점","tel":"031-877-2992","addr":"경기도 의정부시 호원동 459번지 신일엘리시움","category":"일반휴게음식 - 일반한식"},{"name":"호원제일의원","tel":"031-873-4242","addr":"경기도 의정부시 호원동 459번지 신일엘리시움 220호","category":"의원 - 의원"},{"name":"화림뷰티네일","tel":"031-879-7701","addr":"경기도 의정부시 호원동 459번지 신일엘리시움 2층 225호","category":"보건위생 - 피부미용실"},{"name":"횡성한우","tel":"031-876-9289","addr":"경기도 의정부시 호원동 459번지 신일엘리시움 1층 114호","category":"음료식품 - 정육점"}]},{"lat":"37.707073188","long":"127.04901381","items":[{"name":"(주)화이어캅스경기북","tel":"031-877-6119","addr":"경기도 의정부시 호원동 462-23번지","category":"용역 서비스 - 기타용역서비스"},{"name":"더뮤직음악학원","tel":"031-827-8558","addr":"경기도 의정부시 호원동 462-23번지 2층","category":"학원 - 예·체능계학원"},{"name":"바우헤어","tel":"070-7630-6969","addr":"경기도 의정부시 호원동 462-23번지 1층","category":"보건위생 - 미용원"}]},{"lat":"37.708515654","long":"127.04657652","items":[{"name":"(학)신흥학원 부설 신한부속의원","tel":"070-4693-4895","addr":"경기도 의정부시 호원동 119-24번지","category":"의원 - 의원"}]},{"lat":"37.725650913","long":"127.04918413","items":[{"name":"1.2.3상회","tel":"031-873-4992","addr":"경기도 의정부시 호원동 423번지","category":"신변잡화 - 기타잡화"},{"name":"120% COOL(회룡점)","tel":"031-836-0120","addr":"경기도 의정부시 호원동 423번지 대명빌딩 201호","category":"보건위생 - 미용원"},{"name":"OK노래영상제작실","tel":"031-871-6192","addr":"경기도 의정부시 호원동 423번지 지하1층","category":"용역 서비스 - 종합용역"},{"name":"그린독서실","tel":"031-826-0998","addr":"경기도 의정부시 호원동 423번지 대명빌딩 5층","category":"학원 - 독서실"},{"name":"미소담은치과의원","tel":"031-837-2804","addr":"경기도 의정부시 호원동 423번지 주차빌딩 301호","category":"의원 - 치과의원"},{"name":"민비뇨기과의원","tel":"031-875-7115","addr":"경기도 의정부시 호원동 423번지 대명빌딩 6층","category":"의원 - 의원"},{"name":"씨에스 글로벌 (CS Global)","tel":"070-8802-4356","addr":"경기도 의정부시 호원동 423번지 6층","category":"보건위생 - 의료용품"},{"name":"이흥선초밥","tel":"031-873-9388","addr":"경기도 의정부시 호원동 423번지 주차빌딩 2층 202호","category":"일반휴게음식 - 일식·회집"},{"name":"주식회사 가람교육","tel":"070-8802-4356","addr":"경기도 의정부시 호원동 423번지 6층","category":"학원 - 기타 교육기관"},{"name":"참사랑한의원","tel":"031-877-7522","addr":"경기도 의정부시 호원동 423번지 주차빌딩 401호","category":"의원 - 한의원"},{"name":"충효태권도","tel":"031-876-0907","addr":"경기도 의정부시 호원동 423 701","category":"학원 - 예·체능계학원"},{"name":"캐빈","tel":"031-877-8611","addr":"경기도 의정부시 호원동 423번지 대명빌딩 7층","category":"일반휴게음식 - 서양음식"},{"name":"횡성한우","tel":"031-855-9911","addr":"경기도 의정부시 호원동 423번지 1층","category":"음료식품 - 정육점"}]},{"lat":"37.725291057","long":"127.04782275","items":[{"name":"1001안경","tel":"031-855-2002","addr":"경기도 의정부시 호원동 426번지 회룡프라자 111호","category":"보건위생 - 안경"},{"name":"김밥천국","tel":"031-837-8088","addr":"경기도 의정부시 호원동 426번지 회룡프라자 113호","category":"일반휴게음식 - 일반한식"},{"name":"김종규이비인후과의원","tel":"031-872-8771","addr":"경기도 의정부시 호원동 426번지","category":"의원 - 의원"},{"name":"단판승","tel":"031-826-0988","addr":"경기도 의정부시 호원동 426번지 회룡프라자 114동 117호","category":"일반휴게음식 - 일반한식"},{"name":"땅스부대찌개 회룡역점","tel":"031-877-8599","addr":"경기도 의정부시 호원동 426번지 회룡프라자 1층 101-1호","category":"음료식품 - 기타음료식품"},{"name":"몸바로한의원 의정부점","tel":"031-837-1075","addr":"경기도 의정부시 호원동 426번지 회룡프라자 303호","category":"의원 - 한의원"},{"name":"베스트항맥외과","tel":"031-847-9111","addr":"경기도 의정부시 호원동 426번지 회룡프라자 301동 302호","category":"의원 - 의원"},{"name":"연세바른의원","tel":"031-873-7500","addr":"경기도 의정부시 호원동 426번지 회룡프라자 305호","category":"의원 - 의원"},{"name":"주주어패럴","tel":"031-873-0383","addr":"경기도 의정부시 호원동 426번지 회룡프라자 (1층101-2호,0번지","category":"의류 - 정장"},{"name":"줌바팩토리(zumba factory)","tel":"02-448-5563","addr":"경기도 의정부시 호원동 426번지 회룡프라자 4층 402호","category":"레저업소 - 헬스클럽"},{"name":"청사로에프앤비","tel":"031-836-9429","addr":"경기도 의정부시 호원동 426번지 회룡프라자 1층 104호","category":"일반휴게음식 - 일반한식"},{"name":"커브스 호원클럽","tel":"031-826-5330","addr":"경기도 의정부시 호원동 426번지 회룡프라자 402호","category":"레저업소 - 헬스클럽"},{"name":"하늘곰스튜디오","tel":"031-855-0160","addr":"경기도 의정부시 호원동 426번지 회룡프라자 306호","category":"광학제품 - 사진관"},{"name":"핫요가웰리스","tel":"031-851-0867","addr":"경기도 의정부시 호원동 426번지 회룡프라자 305호","category":"회원제형태 - 레져업소"},{"name":"홍루이젠 회룡역점","tel":"031-877-8587","addr":"경기도 의정부시 호원동 426번지 회룡프라자 1층 105호","category":"일반휴게음식 - 서양음식"},{"name":"황우축산","tel":"031-877-9285","addr":"경기도 의정부시 호원동 426번지 회룡프라자 112호","category":"음료식품 - 정육점"},{"name":"회룡수안과의원","tel":"031-837-5806","addr":"경기도 의정부시 호원동 426번지 회룡프라자","category":"의원 - 의원"}]},{"lat":"37.714354107","long":"127.04595617","items":[{"name":"21세기 요양복지센터","tel":"031-837-3800","addr":"경기도 의정부시 호원동 275-2번지","category":"기타의료기관 - 기타의료기관 및 기타"},{"name":"모엘르플라워","tel":"070-4042-2829","addr":"경기도 의정부시 호원동 275-2번지","category":"문화.취미 - 화원"},{"name":"우정철물건재","tel":"031-872-9916","addr":"경기도 의정부시 호원동 275-2번지","category":"기타 - 기계공구"}]},{"lat":"37.727851435","long":"127.04324158","items":[{"name":"2층우리약국","tel":"031-855-8454","addr":"경기도 의정부시 호원동 326-6번지 화성프라자 2층 207호","category":"약국 - 약국"},{"name":"감탄호원점","tel":"031-875-8982","addr":"경기도 의정부시 호원동 326-6번지 화성프라자 105호","category":"일반휴게음식 - 스넥"},{"name":"금빛태권도","tel":"031-826-3331","addr":"경기도 의정부시 호원동 326-6번지 화성프라자 402,407호","category":"학원 - 예·체능계학원"},{"name":"길잡이학원","tel":"031-877-7810","addr":"경기도 의정부시 호원동 326-6번지 화성프라자 307호","category":"학원 - 보습학원"},{"name":"김밥천국","tel":"031-877-1717","addr":"경기도 의정부시 호원동 326-6번지 화성프라자 108호","category":"일반휴게음식 - 일반한식"},{"name":"김상미수학학원","tel":"070-7737-6805","addr":"경기도 의정부시 호원동 326-6번지 화성프라자 505호","category":"회원제형태 - 학원"},{"name":"김일섭치과","tel":"031-876-5709","addr":"경기도 의정부시 호원동 326-6번지 화성프라자 303호","category":"의원 - 치과의원"},{"name":"둘둘치킨","tel":"031-877-2292","addr":"경기도 의정부시 호원동 326-6번지 화성프라자 113동 114호","category":"일반휴게음식 - 일반한식"},{"name":"뚜레쥬르 의정부호원가든(3)","tel":"031-829-1504","addr":"경기도 의정부시 호원동 326-6번지 화성프라자 107호","category":"음료식품 - 제과점"},{"name":"램플러스(호원점)","tel":"031-877-0792","addr":"경기도 의정부시 호원동 326-6번지 화성프라자 111동 112호","category":"일반휴게음식 - 일반한식"},{"name":"머리못하는집","tel":"070-8276-6443","addr":"경기도 의정부시 호원동 326-6번지 화성프라자 119호","category":"보건위생 - 미용원"},{"name":"베를린 음악 필아트 미술학원","tel":"031-876-3064","addr":"경기도 의정부시 호원동 326-6번지 화성프라자 401호","category":"학원 - 예·체능계학원"},{"name":"스마일보청기","tel":"031-879-9777","addr":"경기도 의정부시 호원동 326-6번지 화성프라자 207호","category":"보건위생 - 의료용품"},{"name":"스마일이비인후과의원","tel":"031-879-9777","addr":"경기도 의정부시 호원동 326-6번지 화성프라자 204호","category":"의원 - 의원"},{"name":"에이플러스짐","tel":"031-855-9682","addr":"경기도 의정부시 호원동 326-6번지 화성프라자 301호","category":"레저업소 - 헬스클럽"},{"name":"열린내과의원","tel":"031-877-9975","addr":"경기도 의정부시 호원동 326-6번지 화성프라자 304호","category":"의원 - 의원"},{"name":"예일음악학원","tel":"031-877-7732","addr":"경기도 의정부시 호원동 326-6번지 화성프라자 404호","category":"학원 - 예·체능계학원"},{"name":"우리들안경","tel":"031-829-6006","addr":"경기도 의정부시 호원동 326-6번지 화성프라자 101호","category":"보건위생 - 안경"},{"name":"유투엠 수학전문 학원","tel":"031-836-6636","addr":"경기도 의정부시 호원동 326-6번지 화성프라자 502호","category":"학원 - 보습학원"},{"name":"이보영의토킹클럽호원어학원","tel":"031-874-0585","addr":"경기도 의정부시 호원동 326-6번지 화성프라자 3층 306호","category":"회원제형태 - 학원"},{"name":"차이런","tel":"031-826-8425","addr":"경기도 의정부시 호원동 326-6번지 화성프라자 117,118호","category":"일반휴게음식 - 중국식"},{"name":"최현주어학원","tel":"031-877-8030","addr":"경기도 의정부시 호원동 326-6번지 화성프라자 5층 505호","category":"회원제형태 - 학원"},{"name":"케이에스절대영수학원","tel":"031-875-5599","addr":"경기도 의정부시 호원동 326-6번지 화성프라자 205호","category":"학원 - 보습학원"},{"name":"코스모스 당구클럽","tel":"031-837-5907","addr":"경기도 의정부시 호원동 326-6번지 화성프라자 206호","category":"레저업소 - 당 구 장"},{"name":"평강한의원","tel":"031-876-1075","addr":"경기도 의정부시 호원동 326-6번지 화성프라자 305호","category":"의원 - 한의원"},{"name":"피자스쿨(호원점)","tel":"031-571-6077","addr":"경기도 의정부시 호원동 326-6번지 화성프라자 104호","category":"일반휴게음식 - 서양음식"},{"name":"피플즈","tel":"031-871-4654","addr":"경기도 의정부시 호원동 326-6번지","category":"의류 - 정장"},{"name":"하버드독서실","tel":"031-875-0337","addr":"경기도 의정부시 호원동 326-6화성프라자506호~507호","category":"학원 - 기타 교육기관"},{"name":"하우학원","tel":"031-873-5601","addr":"경기도 의정부시 호원동 326-6번지 화성프라자 5층 501호","category":"학원 - 보습학원"},{"name":"한울에듀(확인영어강한수학해법영수)학원","tel":"031-855-0599","addr":"경기도 의정부시 호원동 326-6번지 화성프라자 403호,406호","category":"학원 - 보습학원"}]},{"lat":"37.728373529","long":"127.04456905","items":[{"name":"365스마트","tel":"031-875-3651","addr":"경기도 의정부시 호원동 341-48번지 좌측상가","category":"건축자재 - 보일러·펌프·샷시"},{"name":"순한사","tel":"031-877-2525","addr":"경기도 의정부시 호원동 341-48번지","category":"회원제형태 - 기타4"},{"name":"희망드림","tel":"070-8285-9813","addr":"경기도 의정부시 호원동 341-48번지","category":"신변잡화 - 기념품점"}]},{"lat":"37.709208969","long":"127.04771098","items":[{"name":"3쿠션당구장","tel":"070-4102-5501","addr":"경기도 의정부시 호원동 454-28번지 B1층","category":"레저업소 - 당 구 장"},{"name":"6층노래연습장","tel":"031-873-3479","addr":"경기도 의정부시 호원동 454-28번지 6층","category":"레저업소 - 노 래 방"},{"name":"Emperia(엠페리아)","tel":"070-7716-8051","addr":"경기도 의정부시 호원동 454-28번지 예원빌딩 7층","category":"일반휴게음식 - 일반한식"},{"name":"원 바디 짐","tel":"","addr":"경기도 의정부시 호원동 454-28번지 3층","category":"레저업소 - 헬스클럽"},{"name":"청송","tel":"031-825-8877","addr":"경기도 의정부시 호원동 454-28번지 1층","category":"일반휴게음식 - 일반한식"},{"name":"햇살","tel":"031-877-0996","addr":"경기도 의정부시 호원동 454-28번지 2층","category":"레저업소 - 헬스클럽"}]},{"lat":"37.727130139","long":"127.04476119","items":[{"name":"5평디저트","tel":"031-000-0000","addr":"경기도 의정부시 호원동 327-1번지 신원아파트 104호","category":"음료식품 - 기타음료식품"},{"name":"비티엘코리아 주식회사","tel":"070-4210-6060","addr":"경기도 의정부시 호원동 327-1번지 신원아파트 2층 201호","category":"레져용품 - 스포츠·레져용품"}]},{"lat":"37.728761603","long":"127.04265221","items":[{"name":"60계","tel":"031-875-6006","addr":"경기도 의정부시 호원동 325-1번지 1층 롯데슈퍼의정부점 내","category":"일반휴게음식 - 일반한식"}]},{"lat":"37.71168679","long":"127.04723615","items":[{"name":"70년대순대국","tel":"031-874-2483","addr":"경기도 의정부시 호원동 454-13번지 1층","category":"일반휴게음식 - 일반한식"},{"name":"깔고덮고","tel":"031-874-2840","addr":"경기도 의정부시 호원동 454-13번지","category":"직물 - 침구·수예점"},{"name":"해피독","tel":"02-000-0000","addr":"경기도 의정부시 호원동 454-13번지","category":"문화.취미 - 애완동물"}]},{"lat":"37.727265774","long":"127.0433547","items":[{"name":"B2.준헤어","tel":"031-879-0449","addr":"경기도 의정부시 호원동 327-6 호원상가104호,114호","category":"보건위생 - 미용원"},{"name":"대마족발 호원점","tel":"031-826-4858","addr":"경기도 의정부시 호원동 327-6번지 116호","category":"일반휴게음식 - 일반한식"},{"name":"소소네일","tel":"","addr":"경기도 의정부시 호원동 327-6번지 111호","category":"보건위생 - 피부미용실"},{"name":"쌍둥이축산","tel":"031-876-5321","addr":"경기도 의정부시 호원동 327-6번지 108호","category":"음료식품 - 정육점"},{"name":"씨유의정부호원가든점","tel":"031-878-0024","addr":"경기도 의정부시 호원동 327-6번지 (105~113호)","category":"유통업 영리 - 편 의 점"},{"name":"우리농산물","tel":"031-111-1111","addr":"경기도 의정부시 호원동 327-6번지 1층 107호","category":"음료식품 - 농·축·수산품"},{"name":"이디야커피(호원점)","tel":"031-841-1655","addr":"경기도 의정부시 호원동 327-6번지 호원 상가 1층 103호","category":"일반휴게음식 - 서양음식"},{"name":"제이 앤 제이 인테리어","tel":"","addr":"경기도 의정부시 호원동 327-6번지 109호","category":"건축자재 - 인테리어전문"},{"name":"피자킹덤","tel":"031-874-8482","addr":"경기도 의정부시 호원동 327-6번지 110호","category":"일반휴게음식 - 서양음식"}]},{"lat":"37.722346467","long":"127.04356753","items":[{"name":"BCS이두희모터스","tel":"031-871-1345","addr":"경기도 의정부시 호원동 309-117번지","category":"자동차정비 유지 - 자동차정비"}]},{"lat":"37.706209411","long":"127.04598548","items":[{"name":"DS전광","tel":"031-879-1437","addr":"경기도 의정부시 호원동 226-144 , 226-146","category":"용역 서비스 - 종합용역"}]},{"lat":"37.708875348","long":"127.04840254","items":[{"name":"FM노래연습장","tel":"031-826-2323","addr":"경기도 의정부시 호원동 459-6번지 지하","category":"레저업소 - 노 래 방"},{"name":"bbq 올리브치킨 호원점","tel":"031-872-9285","addr":"경기도 의정부시 호원동 459-6번지 2층","category":"일반휴게음식 - 스넥"},{"name":"그랜드고기고기","tel":"031-829-5566","addr":"경기도 의정부시 호원동 459-6번지","category":"일반휴게음식 - 일반한식"}]},{"lat":"37.724516968","long":"127.04584863","items":[{"name":"GH자연건강","tel":"031-829-0402","addr":"경기도 의정부시 호원동 51-2번지 하나프라자 5층 501호","category":"보건위생 - 의료용품"},{"name":"GS25회룡역점","tel":"","addr":"경기도 의정부시 호원동 51-2번지 하나프라자 104호","category":"유통업 영리 - 편 의 점"},{"name":"S핫요가아카데미","tel":"031-826-2273","addr":"경기도 의정부시 호원동 51-2번지 하나프라자 9층 901호","category":"레저업소 - 헬스클럽"},{"name":"고수헤어","tel":"","addr":"경기도 의정부시 호원동 51-2번지 303호","category":"보건위생 - 미용원"},{"name":"김순관마취통증의원","tel":"031-874-9888","addr":"경기도 의정부시 호원동 51-2번지","category":"의원 - 의원"},{"name":"꿈나무바둑교습소","tel":"031-871-1292","addr":"경기도 의정부시 호원동 51-2번지 하나프라자 309호","category":"학원 - 기타 교육기관"},{"name":"다나소아청소년과의원","tel":"031-855-1001","addr":"경기도 의정부시 호원동 51-2번지 하나프라자 505호","category":"의원 - 의원"},{"name":"돌깨마을맷돌순두부회룡점","tel":"031-855-7776","addr":"경기도 의정부시 호원동 51-2번지 하나프라자 1층 113호","category":"일반휴게음식 - 일반한식"},{"name":"라니힐링네일","tel":"","addr":"경기도 의정부시 호원동 51-2번지 5층 502(일부)호","category":"보건위생 - 피부미용실"},{"name":"라이솔트","tel":"031-837-4641","addr":"경기도 의정부시 호원동 51-2번지 하나프라자 503호","category":"문화.취미 - 티켓"},{"name":"르베르쏘산후조리원","tel":"031-836-3001","addr":"경기도 의정부시 호원동 51-2번지 하나프라자","category":"기타의료기관 - 산후조리원"},{"name":"메가엠지씨커피회룡역점","tel":"","addr":"경기도 의정부시 호원동 51-2번지 1층 103호","category":"일반휴게음식 - 서양음식"},{"name":"모데스티(Modesty)","tel":"031-875-2009","addr":"경기도 의정부시 호원동 51-2번지 6층607","category":"회원제형태 - 서적"},{"name":"미소랑의원","tel":"031-875-9768","addr":"경기도 의정부시 호원동 51-2번지 하나프라자 402호","category":"의원 - 의원"},{"name":"바디핏","tel":"031-877-7631","addr":"경기도 의정부시 호원동 51-2번지 하나프라자 8층","category":"회원제형태 - 레져업소"},{"name":"박기환치과","tel":"031-878-2875","addr":"경기도 의정부시 호원동 51-2번지 하나프라자 4층 406호","category":"의원 - 치과의원"},{"name":"범초밥","tel":"031-876-0882","addr":"경기도 의정부시 호원동 51-2번지 하나프라자 1층 102호","category":"일반휴게음식 - 일식·회집"},{"name":"스즈끼바이올린교습소","tel":"031-877-8011","addr":"경기도 의정부시 호원동 51-2번지 하나프라자 504호","category":"학원 - 예·체능계학원"},{"name":"아라스크린골프연습장","tel":"031-871-0759","addr":"경기도 의정부시 호원동 51-2번지 하나프라자 9층 900-1호","category":"레저업소 - 스크린골프"},{"name":"아름다운 편백세상","tel":"031-837-0672","addr":"경기도 의정부시 호원동 51-2번지 308호","category":"보건위생 - 화장품"},{"name":"아리따움회룡역점","tel":"031-878-3004","addr":"경기도 의정부시 호원동 51-2번지 하나프라자 107호","category":"보건위생 - 화장품"},{"name":"아이젠심리인지발달센터","tel":"031-875-5522","addr":"경기도 의정부시 호원동 51-2번지 하나프라자제5층 505","category":"보건위생 - 기타대인서비스"},{"name":"애기랑","tel":"031-872-2727","addr":"경기도 의정부시 호원동 51-2번지 하나프라자 506호","category":"광학제품 - 사진관"},{"name":"조은당구클럽","tel":"031-878-8233","addr":"경기도 의정부시 호원동 51-2 하나프라자301, 302호","category":"레저업소 - 당 구 장"},{"name":"주식회사 이자르 의정부점","tel":"031-836-3001","addr":"경기도 의정부시 호원동 51-2번지 하나프라자 7층","category":"기타의료기관 - 산후조리원"},{"name":"주식회사 플루토","tel":"031-837-8999","addr":"경기도 의정부시 호원동 51-2번지 2층201~209호","category":"일반휴게음식 - 일반한식"},{"name":"지산한의원","tel":"031-837-7080","addr":"경기도 의정부시 호원동 51-2번지 하나프라자 401호","category":"의원 - 한의원"},{"name":"커피마마 회룡역점","tel":"031-879-0369","addr":"경기도 의정부시 호원동 51-2번지 하나프라자 110호","category":"일반휴게음식 - 서양음식"},{"name":"커피마마 회룡역점","tel":"031-879-0369","addr":"경기도 의정부시 호원동 51-2번지 하나프라자 1층 110호","category":"일반휴게음식 - 서양음식"},{"name":"코리안바베큐(회룡역점)","tel":"031-826-8292","addr":"경기도 의정부시 호원동 51-2하나프라자105호~106호","category":"일반휴게음식 - 주점"},{"name":"큰바다수산","tel":"031-877-3386","addr":"경기도 의정부시 호원동 51-2번지 하나프라자 115호,116호,117호","category":"일반휴게음식 - 일식·회집"},{"name":"하나정육식당","tel":"031-855-7272","addr":"경기도 의정부시 호원동 51-2번지 1층 114호","category":"일반휴게음식 - 일반한식"},{"name":"하나축산물","tel":"031-855-7272","addr":"경기도 의정부시 호원동 51-2번지 하나프라자 114호","category":"음료식품 - 정육점"},{"name":"하나프라자","tel":"031-836-6331","addr":"경기도 의정부시 호원동 51-2번지 8층","category":"회원제형태 - 기타1"},{"name":"해피바스켓","tel":"031-877-2344","addr":"경기도 의정부시 호원동 51-2번지 하나프라자 109호","category":"음료식품 - 기타음료식품"},{"name":"황소한우곱찰","tel":"031-875-1768","addr":"경기도 의정부시 호원동 51-2번지 하나프라자 112호","category":"일반휴게음식 - 일반한식"},{"name":"회룡골부대찌게","tel":"031-826-5538","addr":"경기도 의정부시 호원동 51-2번지 하나프라자 101호","category":"일반휴게음식 - 일반한식"}]},{"lat":"37.707939115","long":"127.04637205","items":[{"name":"GS25신한대점","tel":"","addr":"경기도 의정부시 호원동 119-40번지 모아쉐르빌 1층","category":"유통업 영리 - 편 의 점"}]},{"lat":"37.707821254","long":"127.04832252","items":[{"name":"GS25의정대로점","tel":"","addr":"경기도 의정부시 호원동 460-20번지 1층","category":"유통업 영리 - 편 의 점"},{"name":"명","tel":"031-837-0807","addr":"경기도 의정부시 호원동 460-20번지 2층 201호","category":"일반휴게음식 - 일반한식"},{"name":"명","tel":"031-842-1155","addr":"경기도 의정부시 호원동 460-20번지 2층 201호","category":"일반휴게음식 - 일반한식"},{"name":"명 노래연습장","tel":"031-842-1155","addr":"경기도 의정부시 호원동 460-20번지 2층","category":"레저업소 - 노 래 방"},{"name":"박수한한의원","tel":"031-873-1373","addr":"경기도 의정부시 호원동 460-20번지 진양빌딩 4층","category":"의원 - 한의원"}]},{"lat":"37.726789801","long":"127.03860164","items":[{"name":"GS25의정범골점","tel":"","addr":"경기도 의정부시 호원동 401-1번지 1층 101호,102호","category":"유통업 영리 - 편 의 점"},{"name":"연세휘트니스","tel":"031-871-8896","addr":"경기도 의정부시 호원동 401-1,4층","category":"회원제형태 - 레져업소"},{"name":"태영인테리어","tel":"031-873-4124","addr":"경기도 의정부시 호원동 401-1 신도6차상가 107","category":"직물 - 카페트,커튼,천막,지물"}]},{"lat":"37.706100833","long":"127.04723282","items":[{"name":"GS25의정은빛점","tel":"","addr":"경기도 의정부시 호원동 226-1번지 1층 101~102호 (31차 진산은빛마을)","category":"유통업 영리 - 편 의 점"}]},{"lat":"37.724821947","long":"127.04939913","items":[{"name":"GS25의정한주점","tel":"","addr":"경기도 의정부시 호원동 424번지 한주5차@ 상가동 102,103호","category":"유통업 영리 - 편 의 점"},{"name":"이오크린","tel":"031-323-6016","addr":"경기도 의정부시 호원동 424번지 한주5차아파트","category":"신변잡화 - 기타잡화"}]},{"lat":"37.71210103","long":"127.04776942","items":[{"name":"GS25호원가나안점","tel":"","addr":"경기도 의정부시 호원동 455번지 로뎀프라자 105호","category":"유통업 영리 - 편 의 점"},{"name":"고려신경외과의원","tel":"031-855-1710","addr":"경기도 의정부시 호원동 455번지 로뎀프라자 2층","category":"의원 - 의원"},{"name":"동대문엽기떡볶이땡초불닭발(호원점)","tel":"031-874-8592","addr":"경기도 의정부시 호원동 455번지 로뎀프라자 106호","category":"일반휴게음식 - 일반한식"},{"name":"심청이 주간복지센터 (1)","tel":"031-878-5696","addr":"경기도 의정부시 호원동 455번지 로뎀프라자 4층 401호","category":"기타의료기관 - 기타의료기관 및 기타"},{"name":"심청이주간복지센터","tel":"031-878-5696","addr":"경기도 의정부시 호원동 455번지 로뎀프라자 4층 401호","category":"기타의료기관 - 기타의료기관 및 기타"},{"name":"앗싸곱창","tel":"031-876-4076","addr":"경기도 의정부시 호원동 455번지 로뎀프라자 107호","category":"일반휴게음식 - 일반한식"},{"name":"연세행복나눔치과의원","tel":"031-874-2879","addr":"경기도 의정부시 호원동 455번지 로뎀프라자 501~503호","category":"의원 - 치과의원"},{"name":"오즈","tel":"031-829-1070","addr":"경기도 의정부시 호원동 455번지 로뎀프라자 106호","category":"일반휴게음식 - 일반한식"},{"name":"우거지품은순대국","tel":"031-855-9399","addr":"경기도 의정부시 호원동 455번지 로뎀프라자 102호","category":"일반휴게음식 - 일반한식"},{"name":"우리헬스케어","tel":"","addr":"경기도 의정부시 호원동 455번지 로뎀프라자 3층 303호 일부","category":"보건위생 - 의료용품"},{"name":"프로당구장","tel":"03-111-1111","addr":"경기도 의정부시 호원동 455번지 로뎀프라자 지하1층","category":"레저업소 - 당 구 장"},{"name":"하나이비인후과","tel":"031-874-1175","addr":"경기도 의정부시 호원동 455번지 로뎀프라자 3층 303호","category":"의원 - 의원"},{"name":"하나프라자약국","tel":"031-875-4952","addr":"경기도 의정부시 호원동 455번지 로뎀프라자 103호","category":"약국 - 약국"},{"name":"한삼인(호원점)","tel":"031-873-2392","addr":"경기도 의정부시 호원동 455번지 로뎀프라자 1층","category":"건강식품 - 홍삼제품"},{"name":"황죽","tel":"031-876-6287","addr":"경기도 의정부시 호원동 455번지 로뎀프라자 1동 104호","category":"일반휴게음식 - 일반한식"}]},{"lat":"37.72962578","long":"127.04479662","items":[{"name":"GS25호원두산점","tel":"","addr":"경기도 의정부시 호원동 347-1번지 호원두산@ 상가동 101,103~104호","category":"유통업 영리 - 편 의 점"}]},{"lat":"37.730293334","long":"127.04234675","items":[{"name":"GS25호원풍림점","tel":"","addr":"경기도 의정부시 호원동 351-7번지 풍림@상가 101호","category":"유통업 영리 - 편 의 점"}]},{"lat":"37.724489277","long":"127.04762944","items":[{"name":"GS25회룡광장점","tel":"","addr":"경기도 의정부시 호원동 427-1번지 1층","category":"유통업 영리 - 편 의 점"},{"name":"K-마트","tel":"031-871-9922","addr":"경기도 의정부시 호원동 427-1번지","category":"유통업 영리 - 슈퍼마켓"},{"name":"뚜레쥬르 의정부회룡역(3)","tel":"031-826-0085","addr":"경기도 의정부시 호원동 427-1번지","category":"음료식품 - 제과점"},{"name":"베스킨라빈스의정부회룡점","tel":"031-873-1131","addr":"경기도 의정부시 호원동 427-1번지 B동 103호","category":"음료식품 - 제과점"},{"name":"애플치과의원","tel":"031-826-2888","addr":"경기도 의정부시 호원동 427-1번지 2층","category":"의원 - 치과의원"},{"name":"이니스프리 회룡역점","tel":"031-876-7225","addr":"경기도 의정부시 호원동 427-1번지","category":"보건위생 - 화장품"},{"name":"임영옥바지락칼국수","tel":"031-874-0265","addr":"경기도 의정부시 호원동 427-1번지 2층","category":"일반휴게음식 - 일반한식"},{"name":"좋은사람들","tel":"031-871-0804","addr":"경기도 의정부시 호원동 427-1번지 엘림프라자 A동 201호","category":"일반휴게음식 - 일반한식"},{"name":"치&강(치킨앤강정)","tel":"070-2063-0733","addr":"경기도 의정부시 호원동 427-1번지 1층","category":"일반휴게음식 - 스넥"},{"name":"퀸 노래연습장","tel":"031-875-7946","addr":"경기도 의정부시 호원동 427-1번지 지층","category":"레저업소 - 노 래 방"}]},{"lat":"37.707379515","long":"127.049014","items":[{"name":"GT호암도장","tel":"031-872-9791","addr":"경기도 의정부시 호원동 462-13번지 3층 합기도/해동검도","category":"학원 - 예·체능계학원"},{"name":"니나노공방","tel":"031-823-2075","addr":"경기도 의정부시 호원동 462-13번지","category":"문화.취미 - 문화취미기타"},{"name":"비니댄스스튜디오","tel":"02-949-9346","addr":"경기도 의정부시 호원동 462-13번지 지하층","category":"회원제형태 - 레져업소"},{"name":"양꼬치앤칭따오","tel":"031-876-2518","addr":"경기도 의정부시 호원동 462-13번지 1층","category":"일반휴게음식 - 중국식"}]},{"lat":"37.706875215","long":"127.04840132","items":[{"name":"H스피닝 요가 필라테스","tel":"031-874-6733","addr":"경기도 의정부시 호원동 463-26번지 동인빌딩 6층","category":"레저업소 - 헬스클럽"},{"name":"fitness H","tel":"031-874-6733","addr":"경기도 의정부시 호원동 463-26외1필지7.8층","category":"레저업소 - 헬스클럽"},{"name":"김밥나라","tel":"031-836-7758","addr":"경기도 의정부시 호원동 463-26번지 동인빌딩 1층","category":"일반휴게음식 - 일반한식"},{"name":"라이PC","tel":"070-5321-2968","addr":"경기도 의정부시 호원동 463-26번지 3층","category":"레저업소 - 기타레져업소"},{"name":"레전드PC카페","tel":"","addr":"경기도 의정부시 호원동 463-26번지 동인빌딩 3층","category":"레저업소 - 기타레져업소"},{"name":"빵궁전","tel":"031-876-8288","addr":"경기도 의정부시 호원동 463-26번지 동안빌딩 1층","category":"음료식품 - 제과점"},{"name":"하루반찬","tel":"031-871-8201","addr":"경기도 의정부시 호원동 463-26번지 동인빌딩 1층","category":"음료식품 - 기타음료식품"},{"name":"한우토바기곱창식당","tel":"031-873-3044","addr":"경기도 의정부시 호원동 463-26번지 동인빌딩 1층","category":"일반휴게음식 - 일반한식"}]},{"lat":"37.706848089","long":"127.04865079","items":[{"name":"H헤어","tel":"031-837-2356","addr":"경기도 의정부시 호원동 463-13번지 1층","category":"보건위생 - 미용원"},{"name":"건영색연필","tel":"031-836-6264","addr":"경기도 의정부시 호원동 463-13번지","category":"서적문구 - 문구용품"},{"name":"예쁜걸","tel":"02-915-1096","addr":"경기도 의정부시 호원동 463-13번지","category":"의류 - 정장"},{"name":"주연인테리어","tel":"031-874-4327","addr":"경기도 의정부시 호원동 463-13번지","category":"용역 서비스 - 기타용역서비스"}]},{"lat":"37.727290843","long":"127.04870873","items":[{"name":"J.S유통","tel":"","addr":"경기도 의정부시 호원동 416-1번지","category":"의류 - 내의판매"}]},{"lat":"37.727931793","long":"127.04531746","items":[{"name":"K9노래연습장","tel":"031-865-8735","addr":"경기도 의정부시 호원동 6-2번지","category":"레저업소 - 노 래 방"},{"name":"수향헤어","tel":"031-855-9330","addr":"경기도 의정부시 호원동 6-2번지","category":"보건위생 - 미용원"},{"name":"제주생고기","tel":"031-821-1616","addr":"경기도 의정부시 호원동 6-2번지 1층","category":"일반휴게음식 - 일반한식"}]},{"lat":"37.708127507","long":"127.04851549","items":[{"name":"L&BFlower","tel":"031-878-4882","addr":"경기도 의정부시 호원동 460-13번지 엘리시아","category":"문화.취미 - 화원"},{"name":"권대표 양식당","tel":"031-8083-1777","addr":"경기도 의정부시 호원동 460-13번지 엘리시아 103호","category":"일반휴게음식 - 서양음식"},{"name":"로고스 심리상담 마음연구소","tel":"","addr":"경기도 의정부시 호원동 460-13번지 엘리시아 204호","category":"보건위생 - 기타대인서비스"},{"name":"미소","tel":"031-871-3781","addr":"경기도 의정부시 호원동 460-13번지 엘리시아 301호","category":"보건위생 - 화장품"}]},{"lat":"37.728573522","long":"127.03918101","items":[{"name":"LG가나인테리어","tel":"031-837-1817","addr":"경기도 의정부시 호원동 366-27번지 2층","category":"직물 - 카페트,커튼,천막,지물"},{"name":"토론의 신","tel":"031-825-4506","addr":"경기도 의정부시 호원동 366-27번지 2층","category":"학원 - 보습학원"}]},{"lat":"37.727041502","long":"127.04042802","items":[{"name":"M.S (호원점)노래연습장","tel":"031-876-9507","addr":"경기도 의정부시 호원동 339-13번지 301호","category":"레저업소 - 노 래 방"},{"name":"국가대표호동태권도장","tel":"031-827-5070","addr":"경기도 의정부시 호원동 339-13번지 3층 302호 호룡상가","category":"학원 - 예·체능계학원"},{"name":"비전명가의정부점","tel":"031-874-9300","addr":"경기도 의정부시 호원동 339-13번지 호룡 상가 101호","category":"건강식품 - 기타건강식품"},{"name":"센스이불","tel":"031-796-2554","addr":"경기도 의정부시 호원동 339-13번지 103호","category":"직물 - 침구·수예점"},{"name":"제이엠네트웍스","tel":"070-8810-0715","addr":"경기도 의정부시 호원동 339-13번지 202호","category":"기타 - 기계공구"},{"name":"캐롬당구장","tel":"031-111-1111","addr":"경기도 의정부시 호원동 339-13번지 203,204호","category":"레저업소 - 당 구 장"},{"name":"커피호호(주)","tel":"070-4530-1004","addr":"경기도 의정부시 호원동 339-13번지 104호","category":"일반휴게음식 - 서양음식"},{"name":"텐 헤어","tel":"031-876-5396","addr":"경기도 의정부시 호원동 339-13번지 107호","category":"보건위생 - 미용원"},{"name":"페리카나치킨","tel":"031-873-9295","addr":"경기도 의정부시 호원동 339-13번지 108호","category":"일반휴게음식 - 스넥"}]},{"lat":"37.707127036","long":"127.04954683","items":[{"name":"MS노래방(망원사점)","tel":"031-872-0708","addr":"경기도 의정부시 호원동 462-26번지 동남빌라","category":"레저업소 - 노 래 방"}]},{"lat":"37.716506402","long":"127.04861136","items":[{"name":"MS종합상사","tel":"031-875-0341","addr":"경기도 의정부시 호원동 440-10일진해피빌105-303","category":"기타 - 기타 전문점"}]},{"lat":"37.727463796","long":"127.04389928","items":[{"name":"OK능이마을","tel":"031-855-5239","addr":"경기도 의정부시 호원동 327-7번지 3호 3~6호","category":"일반휴게음식 - 일반한식"},{"name":"맘산후조리원","tel":"031-879-8434","addr":"경기도 의정부시 호원동 327-7번지 온누리빌딩 3층","category":"기타의료기관 - 산후조리원"},{"name":"블럭스쿨","tel":"031-826-7978","addr":"경기도 의정부시 호원동 327-7번지 온누리빌딩 120호","category":"서적문구 - 완구점"},{"name":"샌드리아","tel":"031-876-3131","addr":"경기도 의정부시 호원동 327-7번지 온누리빌딩 102호","category":"일반휴게음식 - 스넥"},{"name":"웰빙수라간","tel":"031-876-8007","addr":"경기도 의정부시 호원동 327-7번지 1층","category":"음료식품 - 기타음료식품"},{"name":"토이토핑 슬라임의정부점","tel":"031-887-3357","addr":"경기도 의정부시 호원동 327-7번지 501호","category":"서적문구 - 완구점"}]},{"lat":"37.721544144","long":"127.04490549","items":[{"name":"OK에어컨","tel":"031-873-4555","addr":"경기도 의정부시 호원동 311-16,2 6/4","category":"회원제형태 - 기타4"},{"name":"기성이네","tel":"031-875-1933","addr":"경기도 의정부시 호원동 311-16번지 1층","category":"일반휴게음식 - 일반한식"}]},{"lat":"37.707244552","long":"127.04854897","items":[{"name":"Q1당구장","tel":"031-871-3660","addr":"경기도 의정부시 호원동 463-18번지 2층","category":"레저업소 - 당 구 장"},{"name":"네이처 망월사점","tel":"031-873-3345","addr":"경기도 의정부시 호원동 463-18번지","category":"보건위생 - 미용원"},{"name":"다올필라테스","tel":"031-872-8888","addr":"경기도 의정부시 호원동 463-18번지 6층","category":"레저업소 - 헬스클럽"},{"name":"다올필라테스","tel":"031-872-8888","addr":"경기도 의정부시 호원동 463-18번지 6층","category":"레저업소 - 헬스클럽"},{"name":"복싱히어로","tel":"031-879-7989","addr":"경기도 의정부시 호원동 463-18번지 5층","category":"레저업소 - 헬스클럽"},{"name":"아우토반 (비젠)","tel":"070-7542-3352","addr":"경기도 의정부시 호원동 463-18번지 영지빌딩 4층","category":"의류 - 정장"},{"name":"퀸노래연습장","tel":"031-875-5955","addr":"경기도 의정부시 호원동 463-18번지 영지빌딩 지하1층","category":"레저업소 - 노 래 방"}]},{"lat":"37.715597135","long":"127.04676214","items":[{"name":"S.G 인테리어","tel":"031-855-8539","addr":"경기도 의정부시 호원동 448-1 신도@ 상가동 112호,113호","category":"기타 - 기계공구"},{"name":"신화공조","tel":"031-876-1357","addr":"경기도 의정부시 호원동 448-1번지 상가동124호,125호","category":"건축자재 - 기타건축자재"}]},{"lat":"37.721626078","long":"127.04245558","items":[{"name":"SWEET(스위트)","tel":"031-837-0939","addr":"경기도 의정부시 호원동 289-7번지 호원동한승미메이드아파트 상가동 1층 109호","category":"일반휴게음식 - 일반한식"},{"name":"공간미술교습소","tel":"031-856-6077","addr":"경기도 의정부시 호원동 289-7번지 한승미메이드 상가 201호","category":"학원 - 예·체능계학원"}]},{"lat":"37.716876238","long":"127.04745474","items":[{"name":"ZenBu(젠부)","tel":"070-8803-0208","addr":"경기도 의정부시 호원동 442-2번지 명보빌딩 1층","category":"일반휴게음식 - 일반한식"},{"name":"수락골싱싱생고기","tel":"031-872-6026","addr":"경기도 의정부시 호원동 442-2번지 명보빌딩 1층 103호","category":"일반휴게음식 - 일반한식"},{"name":"심청이주간복지센터 (2)","tel":"031-878-5696","addr":"경기도 의정부시 호원동 442-2번지 명보빌딩 2층","category":"기타의료기관 - 기타의료기관 및 기타"}]},{"lat":"37.720741216","long":"127.04782","items":[{"name":"가나통신","tel":"070-8254-9106","addr":"경기도 의정부시 호원동 432-7번지 한주프라자 106호","category":"사무통신 - 통신기기"},{"name":"그랜드음악학원","tel":"031-871-0387","addr":"경기도 의정부시 호원동 432-7번지 301호,302호","category":"학원 - 예·체능계학원"},{"name":"레인보우 피시","tel":"070-8124-1020","addr":"경기도 의정부시 호원동 432-7번지 한주프라자 108호","category":"일반휴게음식 - 스넥"},{"name":"리뉴학원","tel":"031-877-4100","addr":"경기도 의정부시 호원동 432-7번지 한주프라자 402, 403호","category":"학원 - 보습학원"},{"name":"망구스","tel":"031-000-0000","addr":"경기도 의정부시 호원동 432-7번지 일부한주프라자 104호","category":"일반휴게음식 - 서양음식"},{"name":"비에이치씨","tel":"031-871-0506","addr":"경기도 의정부시 호원동 432-7번지 한주프라자 105호","category":"일반휴게음식 - 스넥"},{"name":"세진과학","tel":"031-871-9697","addr":"경기도 의정부시 호원동 432-7번지 한주프라자상가 1층 109호","category":"서적문구 - 과학기자재"},{"name":"씨유의정부한주점","tel":"031-837-1206","addr":"경기도 의정부시 호원동 432-7번지 1층 101호","category":"유통업 영리 - 편 의 점"},{"name":"아구찜 생선구이","tel":"","addr":"경기도 의정부시 호원동 432-7번지 1층 102호","category":"일반휴게음식 - 일반한식"},{"name":"아이크레호원디자인아트미술교습소","tel":"070-8118-3982","addr":"경기도 의정부시 호원동 432-7번지 한주프라자 202호","category":"학원 - 예·체능계학원"},{"name":"이엠이화무용학원","tel":"031-879-7857","addr":"경기도 의정부시 호원동 432-7번지 401호","category":"학원 - 예·체능계학원"},{"name":"인성태권도교육관","tel":"","addr":"경기도 의정부시 호원동 432-7번지 501호","category":"학원 - 예·체능계학원"},{"name":"주가이헤어","tel":"031-875-7823","addr":"경기도 의정부시 호원동 432-7번지 한주프라자 104호","category":"보건위생 - 미용원"},{"name":"푸른건강원","tel":"031-873-3362","addr":"경기도 의정부시 호원동 432-7번지 1층 103호","category":"건강식품 - 기타건강식품"},{"name":"한국창의인재개발협회","tel":"031-876-7037","addr":"경기도 의정부시 호원동 432-7번지 한주프라자","category":"학원 - 기타 교육기관"}]},{"lat":"37.729150505","long":"127.03795619","items":[{"name":"가나파츠","tel":"","addr":"경기도 의정부시 호원동 367-32번지","category":"자동차정비 유지 - 자동차부품"}]},{"lat":"37.728600325","long":"127.03990701","items":[{"name":"가든독서실","tel":"031-876-3100","addr":"경기도 의정부시 호원동 371-1번지 ,2,3층","category":"학원 - 독서실"},{"name":"피에스이(PSE)어학원","tel":"031-872-9233","addr":"경기도 의정부시 호원동 371-1번지 1층","category":"회원제형태 - 학원"}]},{"lat":"37.728679353","long":"127.04596447","items":[{"name":"가람솔","tel":"070-8285-5433","addr":"경기도 의정부시 호원동 4-17번지 102호","category":"용역 서비스 - 종합용역"}]},{"lat":"37.726436272","long":"127.04512378","items":[{"name":"가람요양원","tel":"031-838-8817","addr":"경기도 의정부시 호원동 332번지 서왕프라자 제3층 제3호일부","category":"기타의료기관 - 기타의료기관 및 기타"},{"name":"경희대국가대표","tel":"031-871-2442","addr":"경기도 의정부시 호원동 332 6층 1","category":"학원 - 예·체능계학원"},{"name":"두리유통","tel":"","addr":"경기도 의정부시 호원동 332번지 서왕프라자 7층 702호","category":"음료식품 - 기타음료식품"},{"name":"르마쉐베이커리","tel":"031-875-0312","addr":"경기도 의정부시 호원동 332번지 서왕프라자 1층 12호","category":"음료식품 - 제과점"},{"name":"사랑헤어칼라","tel":"031-877-6989","addr":"경기도 의정부시 호원동 332번지 서왕프라자 1층 111호","category":"보건위생 - 미용원"},{"name":"설루향","tel":"070-7629-8733","addr":"경기도 의정부시 호원동 332번지 서왕프라자 1층","category":"음료식품 - 제과점"},{"name":"숙명칸타빌레음악학원","tel":"031-871-5101","addr":"경기도 의정부시 호원동 332번지 서왕프라자 401호","category":"학원 - 예·체능계학원"},{"name":"영헬스클럽","tel":"031-826-2107","addr":"경기도 의정부시 호원동 332번지 서왕프라자","category":"레저업소 - 헬스클럽"},{"name":"조은할인마트","tel":"031-829-2255","addr":"경기도 의정부시 호원동 332번지 서왕프라자","category":"유통업 영리 - 슈퍼마켓"},{"name":"주식회사 마린앤키즈스포츠","tel":"031-823-5566","addr":"경기도 의정부시 호원동 332번지 지하1층, 지하 2층","category":"레저업소 - 수 영 장"},{"name":"크는나무미술학원","tel":"031-875-5678","addr":"경기도 의정부시 호원동 332번지 서왕프라자 4층 402호","category":"회원제형태 - 학원"},{"name":"크린토피아호원점","tel":"031-876-9136","addr":"경기도 의정부시 호원동 332번지 서왕프라자 1층 110호","category":"수리서비스 - 세탁소"},{"name":"하랑","tel":"031-823-5566","addr":"경기도 의정부시 호원동 332번지 서왕프라자 지하1층","category":"일반휴게음식 - 서양음식"},{"name":"호원독서실","tel":"031-827-8509","addr":"경기도 의정부시 호원동 332번지 서왕프라자 5층 501호","category":"학원 - 독서실"}]},{"lat":"37.708686221","long":"127.04820964","items":[{"name":"가마로강정 (망월사역점)","tel":"031-829-7292","addr":"경기도 의정부시 호원동 460번지 1층","category":"일반휴게음식 - 스넥"},{"name":"신흥공인중개사사무소","tel":"031-873-0100","addr":"경기도 의정부시 호원동 460번지","category":"용역 서비스 - 부동산 중개·임대"},{"name":"씨유의정부신한대점","tel":"031-873-3773","addr":"경기도 의정부시 호원동 460번지","category":"유통업 영리 - 편 의 점"}]},{"lat":"37.724346008","long":"127.04523602","items":[{"name":"가마통닭","tel":"031-851-7100","addr":"경기도 의정부시 호원동 316-85번지 102호","category":"일반휴게음식 - 일반한식"},{"name":"박순자김밥","tel":"031-826-1002","addr":"경기도 의정부시 호원동 316-85번지","category":"일반휴게음식 - 스넥"},{"name":"본초불닭발 회룡역점","tel":"031-826-3533","addr":"경기도 의정부시 호원동 316-85번지","category":"일반휴게음식 - 일반한식"},{"name":"진송곱창","tel":"031-826-6303","addr":"경기도 의정부시 호원동 316-85번지 1층 103호","category":"일반휴게음식 - 일반한식"},{"name":"회룡포차","tel":"031-855-6973","addr":"경기도 의정부시 호원동 316-85번지","category":"일반휴게음식 - 일반한식"}]},{"lat":"37.714208959","long":"127.04859861","items":[{"name":"가을햇쌀유통","tel":"031-874-8436","addr":"경기도 의정부시 호원동 451번지 우성5차 상가 104호","category":"유통업 영리 - 슈퍼마켓"}]},{"lat":"37.723823272","long":"127.0457348","items":[{"name":"가장맛있는족발 (회룡점)","tel":"031-875-5849","addr":"경기도 의정부시 호원동 312-3번지 1층","category":"일반휴게음식 - 일반한식"},{"name":"오사카 블루스(화룡점)","tel":"02-434-0261","addr":"경기도 의정부시 호원동 312-3번지 2층","category":"일반휴게음식 - 일반한식"}]},{"lat":"37.709965827","long":"127.04757534","items":[{"name":"가장맛있는족발(가족)","tel":"031-876-5849","addr":"경기도 의정부시 호원동 454-24번지 아성빌딩 1층","category":"일반휴게음식 - 일반한식"},{"name":"원 노래연습장","tel":"031-871-0088","addr":"경기도 의정부시 호원동 454-24번지 아성빌딩 2층","category":"레저업소 - 노 래 방"},{"name":"핏스파","tel":"031-877-0815","addr":"경기도 의정부시 호원동 454-24번지 아성빌딩 4층","category":"레저업소 - 헬스클럽"}]},{"lat":"37.719489229","long":"127.04690054","items":[{"name":"가족행복요양원","tel":"031-837-1500","addr":"경기도 의정부시 호원동 435-2번지 5층","category":"기타의료기관 - 기타의료기관 및 기타"},{"name":"심청이요양원1","tel":"031-871-5696","addr":"경기도 의정부시 호원동 435-2번지 3층","category":"기타의료기관 - 기타의료기관 및 기타"},{"name":"심청이요양원2","tel":"031-871-5696","addr":"경기도 의정부시 호원동 435-2번지 4층","category":"기타의료기관 - 기타의료기관 및 기타"},{"name":"큰집갈비","tel":"031-855-4754","addr":"경기도 의정부시 호원동 435-2번지","category":"일반휴게음식 - 일반한식"},{"name":"회룡골","tel":"031-836-5292","addr":"경기도 의정부시 호원동 435-2번지","category":"일반휴게음식 - 일반한식"}]},{"lat":"37.723571134","long":"127.04537169","items":[{"name":"갈비애드림","tel":"031-836-9292","addr":"경기도 의정부시 호원동 312-6번지","category":"일반휴게음식 - 일반한식"},{"name":"코리아타운","tel":"031-871-7717","addr":"경기도 의정부시 호원동 312-6번지 2층","category":"일반휴게음식 - 주점"}]},{"lat":"37.711263305","long":"127.04732662","items":[{"name":"감탄 망월사역점","tel":"031-826-0656","addr":"경기도 의정부시 호원동 454-16번지","category":"일반휴게음식 - 스넥"},{"name":"안경스타망월사점","tel":"031-872-0808","addr":"경기도 의정부시 호원동 454-16번지 1층","category":"보건위생 - 안경"},{"name":"현모터스","tel":"031-873-3643","addr":"경기도 의정부시 호원동 454-16번지","category":"자동차판매 - 이륜차판매"}]},{"lat":"37.719687419","long":"127.04695737","items":[{"name":"강공스터디호원캠퍼스학원","tel":"031-836-7461","addr":"경기도 의정부시 호원동 435-1번지 2층 3층","category":"회원제형태 - 학원"},{"name":"일미만두1981의정부","tel":"","addr":"경기도 의정부시 호원동 435-1번지","category":"일반휴게음식 - 일반한식"},{"name":"호원강철학원","tel":"031-836-7461","addr":"경기도 의정부시 호원동 435-1번지 4층","category":"학원 - 보습학원"}]},{"lat":"37.720903145","long":"127.04845527","items":[{"name":"강북이용학원의정부점","tel":"","addr":"경기도 의정부시 호원동 431-1번지 2층","category":"학원 - 기능학원"},{"name":"김밥yes","tel":"","addr":"경기도 의정부시 호원동 431-1번지 1층","category":"일반휴게음식 - 스넥"},{"name":"바야흐로 봄","tel":"","addr":"경기도 의정부시 호원동 431-1번지 2층 일부","category":"보건위생 - 미용원"},{"name":"조금느린집","tel":"031-852-3943","addr":"경기도 의정부시 호원동 431-1번지 1층 지상","category":"일반휴게음식 - 일반한식"},{"name":"찰진영어어학원호원점","tel":"031-851-5506","addr":"경기도 의정부시 호원동 431-1번지 4층","category":"학원 - 외국어학원"},{"name":"청양닭발","tel":"031-877-8887","addr":"경기도 의정부시 호원동 431-1번지","category":"일반휴게음식 - 일반한식"}]},{"lat":"37.706660769","long":"127.04351359","items":[{"name":"강셰프맛집","tel":"031-873-5605","addr":"경기도 의정부시 호원동 119-257번지 1층","category":"일반휴게음식 - 일반한식"}]},{"lat":"37.71292981","long":"127.04804211","items":[{"name":"강아지","tel":"031-855-1559","addr":"경기도 의정부시 호원동 453-1번지 럭키마트내","category":"문화.취미 - 애완동물"},{"name":"럭키마트","tel":"031-826-7772","addr":"경기도 의정부시 호원동 453-1번지","category":"유통업 영리 - 슈퍼마켓"},{"name":"럭키마트반찬코너","tel":"031-877-7060","addr":"경기도 의정부시 호원동 453-1","category":"음료식품 - 기타음료식품"},{"name":"롯데리아 호원점","tel":"031-826-2008","addr":"경기도 의정부시 호원동 453-1번지","category":"일반휴게음식 - 스넥"},{"name":"에센브루과자점","tel":"031-826-0435","addr":"경기도 의정부시 호원동 453-1번지 럭키마트","category":"음료식품 - 제과점"},{"name":"여성크로커다일호원점","tel":"031-877-3877","addr":"경기도 의정부시 호원동 453-1번지 럭키마트 1층","category":"의류 - 정장"},{"name":"진한의원","tel":"031-836-8275","addr":"경기도 의정부시 호원동 453-1번지 럭키마트 2층","category":"의원 - 한의원"},{"name":"테라스 크린","tel":"031-837-8442","addr":"경기도 의정부시 호원동 453-1번지","category":"수리서비스 - 세탁소"}]},{"lat":"37.708965701","long":"127.04773351","items":[{"name":"개포차","tel":"031-000-0000","addr":"경기도 의정부시 호원동 454-30번지 지하1층","category":"일반휴게음식 - 일반한식"},{"name":"짱노래연습장","tel":"031-826-5528","addr":"경기도 의정부시 호원동 454-30번지 2층","category":"레저업소 - 노 래 방"},{"name":"프롬From","tel":"031-999-8888","addr":"경기도 의정부시 호원동 454-30번지 1층","category":"의류 - 정장"}]},{"lat":"37.722076014","long":"127.04404377","items":[{"name":"거호의인호원해동검도","tel":"031-838-6906","addr":"경기도 의정부시 호원동 309-8번지 3층 해동검도","category":"레저업소 - 기타레져업소"},{"name":"꽃과나무","tel":"031-876-5117","addr":"경기도 의정부시 호원동 309-8번지 외1필지상가 101호","category":"문화.취미 - 화원"},{"name":"올림피아학원","tel":"031-837-2242","addr":"경기도 의정부시 호원동 309-8번지 2층","category":"학원 - 보습학원"},{"name":"올림피아학원","tel":"031-834-2242","addr":"경기도 의정부시 호원동 309-8번지 2층","category":"학원 - 보습학원"},{"name":"헤어카페2","tel":"031-826-5565","addr":"경기도 의정부시 호원동 309-8번지 1층","category":"보건위생 - 미용원"}]},{"lat":"37.728373557","long":"127.04448964","items":[{"name":"건강한 맛","tel":"031-847-8288","addr":"경기도 의정부시 호원동 341-35번지 1층","category":"일반휴게음식 - 일반한식"},{"name":"장수순대국","tel":"031-872-7649","addr":"경기도 의정부시 호원동 341-35번지 1층 지상 1층","category":"일반휴게음식 - 일반한식"}]},{"lat":"37.726236407","long":"127.04951345","items":[{"name":"건국PTL체대입시","tel":"031-826-8309","addr":"경기도 의정부시 호원동 418-4번지 4층","category":"학원 - 예·체능계학원"},{"name":"올리앤 회룡점","tel":"031-000-0000","addr":"경기도 의정부시 호원동 418-4번지 1층","category":"일반휴게음식 - 서양음식"},{"name":"탑클래스 (Top Class)","tel":"070-8247-5907","addr":"경기도 의정부시 호원동 418-4번지 3층","category":"레저업소 - 헬스클럽"}]},{"lat":"37.712822073","long":"127.04704403","items":[{"name":"건양페인트","tel":"031-872-6720","addr":"경기도 의정부시 호원동 454-3","category":"건축자재 - 페인트"},{"name":"더 모스트 모바일(The Most Mobile)","tel":"031-829-6578","addr":"경기도 의정부시 호원동 454-3번지 1층","category":"사무통신 - 통신기기"},{"name":"폰마스터","tel":"031-837-6070","addr":"경기도 의정부시 호원동 454-3번지","category":"사무통신 - 통신기기"}]},{"lat":"37.70599165","long":"127.04998838","items":[{"name":"건영세탁소","tel":"031-876-1128","addr":"경기도 의정부시 호원동 121 건영상가-103","category":"수리서비스 - 세탁소"},{"name":"블레싱헤어","tel":"070-8118-2434","addr":"경기도 의정부시 호원동 121번지 건영 상가 108호","category":"보건위생 - 미용원"},{"name":"한결메디칼","tel":"031-878-0392","addr":"경기도 의정부시 호원동 121번지 건영 상가 101호","category":"보건위생 - 의료용품"}]},{"lat":"37.72357104","long":"127.04563257","items":[{"name":"겐조스시","tel":"031-877-5788","addr":"경기도 의정부시 호원동 312-2번지 폴라리스 104호","category":"일반휴게음식 - 일식·회집"},{"name":"소돌이곱창","tel":"","addr":"경기도 의정부시 호원동 312-2번지 폴라리스 103호","category":"일반휴게음식 - 일반한식"},{"name":"우스타그램","tel":"031-877-3793","addr":"경기도 의정부시 호원동 312-2번지 폴라리스 105,106호","category":"일반휴게음식 - 일반한식"},{"name":"이차돌 회룡역점","tel":"031-875-7773","addr":"경기도 의정부시 호원동 312-2번지 101호, 102호","category":"일반휴게음식 - 일반한식"},{"name":"주식회사모빌인/봉구비어의정부회룡역점","tel":"031-877-0985","addr":"경기도 의정부시 호원동 312-2번지 폴라리스주상복합 107호","category":"일반휴게음식 - 일반한식"}]},{"lat":"37.727733965","long":"127.04423973","items":[{"name":"경기종합상사","tel":"031-871-9221","addr":"경기도 의정부시 호원동 340-22번지","category":"서적문구 - 과학기자재"}]},{"lat":"37.728490227","long":"127.04576018","items":[{"name":"경희대 대한민국 태권도","tel":"031-855-1952","addr":"경기도 의정부시 호원동 343번지 302호","category":"학원 - 예·체능계학원"},{"name":"금영노래연습장","tel":"031-826-1131","addr":"경기도 의정부시 호원동 343번지 2층 203호","category":"레저업소 - 노 래 방"},{"name":"꼬기꼬기","tel":"031-877-0834","addr":"경기도 의정부시 호원동 343번지 1층","category":"일반휴게음식 - 서양음식"},{"name":"대륜E&S의정부5고객센터","tel":"031-872-9200","addr":"경기도 의정부시 호원동 343번지 304호","category":"용역 서비스 - 기타용역서비스"},{"name":"둘이두리","tel":"031-826-5491","addr":"경기도 의정부시 호원동 343번지 호원프라자 107호","category":"보건위생 - 미용원"},{"name":"서울학원","tel":"031-874-0005","addr":"경기도 의정부시 호원동 343번지 5층","category":"학원 - 보습학원"},{"name":"영신마트","tel":"031-873-0777","addr":"경기도 의정부시 호원동 343번지 101-4호 호원프라자내","category":"유통업 영리 - 슈퍼마켓"},{"name":"영일자동차공업사","tel":"031-877-8836","addr":"경기도 의정부시 호원동 343번지","category":"자동차정비 유지 - 자동차정비"},{"name":"옷빨","tel":"031-1111-1111","addr":"경기도 의정부시 호원동 343번지 1층","category":"의류 - 정장"},{"name":"점핑런방방","tel":"031-872-0079","addr":"경기도 의정부시 호원동 343번지 301호","category":"레저업소 - 기타레져업소"},{"name":"진성헬스케어 메디칼","tel":"031-872-9789","addr":"경기도 의정부시 호원동 343번지 3층 303호","category":"보건위생 - 의료용품"},{"name":"호원사우나","tel":"031-826-6700","addr":"경기도 의정부시 호원동 343번지 호원프라자","category":"보건위생 - 사우나"}]},{"lat":"37.70837985","long":"127.04832286","items":[{"name":"경희하나한의원","tel":"031-836-7575","addr":"경기도 의정부시 호원동 460-25번지 우림빌딩 4층","category":"의원 - 한의원"},{"name":"아톰 퍼스널 트레이닝","tel":"","addr":"경기도 의정부시 호원동 460-25번지 우림빌딩 3층","category":"레저업소 - 헬스클럽"},{"name":"월드라이브","tel":"031-871-9029","addr":"경기도 의정부시 호원동 460-25번지 2층","category":"일반휴게음식 - 일반한식"},{"name":"치킨매니아","tel":"031-874-7252","addr":"경기도 의정부시 호원동 460-25번지 1층","category":"일반휴게음식 - 스넥"}]},{"lat":"37.727184499","long":"127.04389913","items":[{"name":"고기굼터","tel":"031-829-6677","addr":"경기도 의정부시 호원동 327-12번지 1층","category":"일반휴게음식 - 일반한식"},{"name":"글라스스토리(호원점)","tel":"031-878-1007","addr":"경기도 의정부시 호원동 327-12번지","category":"보건위생 - 안경"},{"name":"라썸헤어뷰티컴퍼니 범골역점","tel":"031-878-1010","addr":"경기도 의정부시 호원동 327-12번지 2층","category":"보건위생 - 미용원"},{"name":"봄날사진관","tel":"031-829-1221","addr":"경기도 의정부시 호원동 327-12번지 502호","category":"광학제품 - 사진관"},{"name":"심리발달 크는나무","tel":"031-853-7922","addr":"경기도 의정부시 호원동 327-12번지 4층 402호","category":"보건위생 - 기타대인서비스"},{"name":"의정부커피학원","tel":"031-855-8856","addr":"경기도 의정부시 호원동 327-12번지 201호","category":"학원 - 기능학원"},{"name":"필라테스 린","tel":"031-877-1677","addr":"경기도 의정부시 호원동 327-12번지 새누리빌딩 301호","category":"레저업소 - 헬스클럽"},{"name":"한우돈","tel":"031-829-6677","addr":"경기도 의정부시 호원동 327-12번지 1층","category":"음료식품 - 정육점"},{"name":"호원라온학원","tel":"031-829-3434","addr":"경기도 의정부시 호원동 327-12번지 302호","category":"학원 - 보습학원"}]},{"lat":"37.730906629","long":"127.04037325","items":[{"name":"고기요기","tel":"031-878-5292","addr":"경기도 의정부시 호원동 357-4번지 104호","category":"일반휴게음식 - 일반한식"},{"name":"달콤나무","tel":"02-1111-1111","addr":"경기도 의정부시 호원동 357-4번지 2층","category":"문화.취미 - 문화취미기타"},{"name":"수국학원","tel":"031-837-3021","addr":"경기도 의정부시 호원동 357-4번지 3층","category":"학원 - 보습학원"},{"name":"여니헤어","tel":"031-877-5844","addr":"경기도 의정부시 호원동 357-4번지 1층","category":"보건위생 - 미용원"},{"name":"호식이두마리치킨","tel":"031-877-9297","addr":"경기도 의정부시 호원동 357-4번지 1층","category":"일반휴게음식 - 스넥"}]},{"lat":"37.72207581","long":"127.04462223","items":[{"name":"고릴라주방","tel":"","addr":"경기도 의정부시 호원동 311-18번지 진원빌딩 1층","category":"일반휴게음식 - 일반한식"},{"name":"더(THE)잔소리","tel":"070-8777-0040","addr":"경기도 의정부시 호원동 311-18번지 진원빌딩 2층","category":"음료식품 - 기타음료식품"},{"name":"무한통신","tel":"031-875-1500","addr":"경기도 의정부시 호원동 311-18 ,19진원빌딩 104","category":"사무통신 - 통신기기"},{"name":"뮤엠영어호원학원","tel":"031-876-0579","addr":"경기도 의정부시 호원동 311-18번지 진원빌딩 4층","category":"회원제형태 - 학원"},{"name":"바느질하는여우","tel":"","addr":"경기도 의정부시 호원동 311-18번지 진원빌딩 4층","category":"직물 - 침구·수예점"},{"name":"베토벤하우스음악학원","tel":"031-875-2242","addr":"경기도 의정부시 호원동 311-18번지 진원빌딩 3층","category":"학원 - 예·체능계학원"},{"name":"아크","tel":"","addr":"경기도 의정부시 호원동 311-18번지 진원빌딩 1층","category":"일반휴게음식 - 서양음식"},{"name":"윤선생우리집앞호원신일영어교습소","tel":"070-4036-3412","addr":"경기도 의정부시 호원동 311-18번지 진원빌딩 3층","category":"학원 - 외국어학원"},{"name":"익스트림 컴뱃팀","tel":"070-4412-5005","addr":"경기도 의정부시 호원동 311-18번지 진원빌딩 지층","category":"레저업소 - 헬스클럽"},{"name":"코코헤어","tel":"031-824-8885","addr":"경기도 의정부시 호원동 311-18번지 진원빌딩 103호","category":"보건위생 - 미용원"}]},{"lat":"37.712957465","long":"127.04637499","items":[{"name":"고향복떡집","tel":"","addr":"경기도 의정부시 호원동 86-1번지 1층","category":"음료식품 - 제과점"},{"name":"영주헤어","tel":"","addr":"경기도 의정부시 호원동 86-1번지 1층","category":"보건위생 - 미용원"},{"name":"은하수","tel":"031-000-0000","addr":"경기도 의정부시 호원동 86-1번지 1층","category":"의류 - 정장"},{"name":"제기동 마약고기","tel":"070-8888-5023","addr":"경기도 의정부시 호원동 86-1번지 1층","category":"일반휴게음식 - 일반한식"}]},{"lat":"37.708380179","long":"127.04746099","items":[{"name":"곤지암 한우 소머리국밥","tel":"031-873-5854","addr":"경기도 의정부시 호원동 119-33번지 1층","category":"일반휴게음식 - 일반한식"},{"name":"기분좋은날","tel":"031-878-7306","addr":"경기도 의정부시 호원동 119-33번지 1층","category":"음료식품 - 기타음료식품"}]},{"lat":"37.72385046","long":"127.04529245","items":[{"name":"곱창가","tel":"031-826-0807","addr":"경기도 의정부시 호원동 312-9번지 HC회룡빌딩 1층","category":"일반휴게음식 - 일반한식"},{"name":"굽새","tel":"","addr":"경기도 의정부시 호원동 312-9번지 HC회룡빌딩 104호","category":"일반휴게음식 - 일반한식"},{"name":"마호","tel":"","addr":"경기도 의정부시 호원동 312-9번지 HC회룡빌딩 103호","category":"일반휴게음식 - 일반한식"},{"name":"명불허전원조골뱅이회룡점","tel":"","addr":"경기도 의정부시 호원동 312-9번지 1층","category":"일반휴게음식 - 일반한식"},{"name":"모래노리","tel":"031-837-8887","addr":"경기도 의정부시 호원동 312-9번지 HC회룡빌딩 3층 3-2호","category":"일반휴게음식 - 일반한식"},{"name":"이흥선참치 회룡점","tel":"031-837-7384","addr":"경기도 의정부시 호원동 312-9번지 HC회룡빌딩 1층 105호","category":"일반휴게음식 - 일식·회집"},{"name":"통파이브 회룡역점","tel":"031-837-1350","addr":"경기도 의정부시 호원동 312-9번지 HC회룡빌딩 201호","category":"일반휴게음식 - 주점"},{"name":"필라테스 정원 회룡점","tel":"031-875-9322","addr":"경기도 의정부시 호원동 312-9번지 HC회룡빌딩 4층","category":"레저업소 - 헬스클럽"},{"name":"홀릭바드","tel":"031-879-1128","addr":"경기도 의정부시 호원동 312-9번지 HC회룡빌딩 2층","category":"일반휴게음식 - 일반한식"}]},{"lat":"37.729375585","long":"127.03848945","items":[{"name":"공단지게차","tel":"031-963-0808","addr":"경기도 의정부시 호원동 367-11번지 1층","category":"기타 - 기계공구"},{"name":"동두천지게차","tel":"031-000-0000","addr":"경기도 의정부시 호원동 367-11번지","category":"기타 - 기계공구"},{"name":"로즈헤어샵","tel":"031-877-6177","addr":"경기도 의정부시 호원동 367-11번지 1층","category":"보건위생 - 미용원"},{"name":"천보건설기계","tel":"031-859-5715","addr":"경기도 의정부시 호원동 367-11번지","category":"기타 - 기타 전문점"},{"name":"천보건설기계","tel":"031-863-9922","addr":"경기도 의정부시 호원동 367-11번지","category":"기타 - 기계공구"},{"name":"퍼피바스데이","tel":"031-877-8342","addr":"경기도 의정부시 호원동 367-11번지 1층우측","category":"문화.취미 - 애완동물"},{"name":"하나지게차","tel":"031-861-1111","addr":"경기도 의정부시 호원동 367-11번지","category":"기타 - 기계공구"},{"name":"하나지게차","tel":"","addr":"경기도 의정부시 호원동 367-11번지","category":"기타 - 기계공구"}]},{"lat":"37.722039928","long":"127.04417986","items":[{"name":"공릉동닭한마리칼국수","tel":"031-826-6401","addr":"경기도 의정부시 호원동 309-1번지","category":"일반휴게음식 - 일반한식"},{"name":"리즈헤어","tel":"031-837-0908","addr":"경기도 의정부시 호원동 309-1번지","category":"보건위생 - 미용원"}]},{"lat":"37.708848393","long":"127.04820974","items":[{"name":"공생한의원","tel":"031-875-0375","addr":"경기도 의정부시 호원동 459-7번지 3층","category":"의원 - 한의원"},{"name":"에스엔비의원","tel":"031-875-2975","addr":"경기도 의정부시 호원동 459-7번지 5층","category":"의원 - 의원"},{"name":"엠 노래연습장","tel":"031-871-1002","addr":"경기도 의정부시 호원동 459-7번지 대영빌딩","category":"레저업소 - 노 래 방"},{"name":"자연분식","tel":"031-851-5838","addr":"경기도 의정부시 호원동 459-7번지 대영빌딩","category":"일반휴게음식 - 일반한식"},{"name":"취밤","tel":"070-5925-1474","addr":"경기도 의정부시 호원동 459-7번지 6층","category":"일반휴게음식 - 일반한식"},{"name":"캐빈","tel":"031-696-5047","addr":"경기도 의정부시 호원동 459-7번지 6층","category":"일반휴게음식 - 일반한식"},{"name":"코코","tel":"031-873-1155","addr":"경기도 의정부시 호원동 459-7번지 2층","category":"일반휴게음식 - 일반한식"},{"name":"한빛치과","tel":"031-875-5489","addr":"경기도 의정부시 호원동 459-7번지 오륜빌딩 6층","category":"의원 - 치과의원"}]},{"lat":"37.72623786","long":"127.04567948","items":[{"name":"공씨네","tel":"031-837-1889","addr":"경기도 의정부시 호원동 10-52번지 진원빌라 1층 103호","category":"일반휴게음식 - 일반한식"},{"name":"돌체헤어","tel":"031-879-0310","addr":"경기도 의정부시 호원동 10-52번지 외1필지 진원빌라 상가 나동 102호","category":"보건위생 - 미용원"},{"name":"디디치킨(호원점)","tel":"070-7686-1376","addr":"경기도 의정부시 호원동 10-52번지 진원빌라 104호","category":"일반휴게음식 - 스넥"}]},{"lat":"37.724651845","long":"127.04657465","items":[{"name":"공차 (회룡역점)","tel":"031-836-9604","addr":"경기도 의정부시 호원동 51-1번지 회룡역환승주차장 1층 106호,107호","category":"일반휴게음식 - 서양음식"},{"name":"글라스타운&렌즈타운","tel":"031-879-7707","addr":"경기도 의정부시 호원동 51-1번지 회룡역환승주차장 105호","category":"보건위생 - 안경"},{"name":"두끼 회룡점","tel":"031-855-2926","addr":"경기도 의정부시 호원동 51-1번지 회룡역환승주차장 2층 202호","category":"일반휴게음식 - 일반한식"},{"name":"맘스터치","tel":"031-826-8982","addr":"경기도 의정부시 호원동 51-1번지 회룡역환승주차장 104호","category":"일반휴게음식 - 서양음식"},{"name":"명륜진사갈비(회룡점)","tel":"031-829-0929","addr":"경기도 의정부시 호원동 51-1번지 1층","category":"일반휴게음식 - 일반한식"},{"name":"설빙(회룡역점)","tel":"031-826-4927","addr":"경기도 의정부시 호원동 51-1번지 2층","category":"일반휴게음식 - 서양음식"},{"name":"자연식빵 회룡역점","tel":"031-836-7377","addr":"경기도 의정부시 호원동 51-1번지","category":"일반휴게음식 - 서양음식"},{"name":"자연식빵 회룡역점","tel":"031-836-7377","addr":"경기도 의정부시 호원동 51-1번지 1층 3-2호","category":"일반휴게음식 - 서양음식"},{"name":"중화 호반 닭갈비","tel":"031-503-8018","addr":"경기도 의정부시 호원동 51-1번지 희룡역환승주차장 1층 2호","category":"일반휴게음식 - 일반한식"},{"name":"커커헤어","tel":"031-871-1400","addr":"경기도 의정부시 호원동 51-1번지 3-1호","category":"보건위생 - 미용원"},{"name":"투게더한의원","tel":"031-875-1275","addr":"경기도 의정부시 호원동 51-1번지 회룡역환승주차장 201호","category":"의원 - 한의원"}]},{"lat":"37.707659825","long":"127.04634921","items":[{"name":"관우 에스앤씨(관우 SnC)","tel":"031-876-8131","addr":"경기도 의정부시 호원동 119-43번지 한솔리치빌 701호","category":"레져용품 - 스포츠·레져용품"}]},{"lat":"37.726380492","long":"127.04968368","items":[{"name":"광릉불고기","tel":"031-836-9202","addr":"경기도 의정부시 호원동 418-1번지 1층","category":"일반휴게음식 - 일반한식"}]},{"lat":"37.713930138","long":"127.0473509","items":[{"name":"광어1마리 18000","tel":"031-826-2600","addr":"경기도 의정부시 호원동 450-6번지","category":"일반휴게음식 - 일반한식"},{"name":"명품꽈배기","tel":"031-826-1999","addr":"경기도 의정부시 호원동 450-6번지","category":"일반휴게음식 - 스넥"},{"name":"신우리식당","tel":"031-872-0089","addr":"경기도 의정부시 호원동 450-6번지 1층","category":"일반휴게음식 - 일반한식"}]},{"lat":"37.717236797","long":"127.04698994","items":[{"name":"교통안전공단 경기북부본부","tel":"031-837-0700","addr":"경기도 의정부시 호원동 441-9번지","category":"자동차정비 유지 - 가타자동차서비스"}]},{"lat":"37.706542989","long":"127.04537331","items":[{"name":"구기이엔씨주식회사","tel":"031-878-9924","addr":"경기도 의정부시 호원동 119-165번지 1층 104호","category":"기타 - 기타 전문점"}]},{"lat":"37.710154839","long":"127.04807445","items":[{"name":"국수나무(망월사역점)","tel":"031-871-5575","addr":"경기도 의정부시 호원동 458-11번지 그랑베르 제1층 제104호 일부","category":"일반휴게음식 - 일반한식"},{"name":"맘스터치망월사역점","tel":"031-874-8828","addr":"경기도 의정부시 호원동 458-11번지 그랑베르 1층 103호","category":"일반휴게음식 - 서양음식"},{"name":"미스터 문초밥","tel":"","addr":"경기도 의정부시 호원동 458-11번지 그랑베르 1층 106호","category":"일반휴게음식 - 일식·회집"},{"name":"써니챙","tel":"","addr":"경기도 의정부시 호원동 458-11번지 그랑베르 409호","category":"음료식품 - 기타음료식품"},{"name":"큰집닭강정","tel":"","addr":"경기도 의정부시 호원동 458-11번지 그랑베르 105호","category":"일반휴게음식 - 일반한식"},{"name":"헌츠맨(Huntsman)","tel":"070-1111-1111","addr":"경기도 의정부시 호원동 458-11번지 그랑베르 1층 102호","category":"일반휴게음식 - 서양음식"}]},{"lat":"37.710073604","long":"127.04845998","items":[{"name":"굿모닝홍삼건강원","tel":"031-871-3120","addr":"경기도 의정부시 호원동 458-9번지 1층 북쪽 1층","category":"건강식품 - 기타건강식품"},{"name":"오르체스","tel":"031-855-0518","addr":"경기도 의정부시 호원동 458-9번지","category":"의류 - 정장"},{"name":"호원사무관리경리실무학원","tel":"031-826-1223","addr":"경기도 의정부시 호원동 458-9번지 2층","category":"회원제형태 - 학원"}]},{"lat":"37.723985374","long":"127.04592772","items":[{"name":"궁 노래연습장","tel":"031-872-4776","addr":"경기도 의정부시 호원동 50-3번지 용범빌딩 2층","category":"레저업소 - 노 래 방"},{"name":"녹두마을","tel":"031-871-4050","addr":"경기도 의정부시 호원동 50-3번지 용범빌딩 108호","category":"일반휴게음식 - 일반한식"},{"name":"레이안경원","tel":"031-878-1775","addr":"경기도 의정부시 호원동 50-3번지 용범빌딩 110호","category":"보건위생 - 안경"},{"name":"마당왕족발","tel":"031-872-7878","addr":"경기도 의정부시 호원동 50-3번지","category":"일반휴게음식 - 주점"},{"name":"서기치킨 회룡점","tel":"031-855-7292","addr":"경기도 의정부시 호원동 50-3번지 1층","category":"일반휴게음식 - 스넥"},{"name":"애드모아","tel":"031-829-7799","addr":"경기도 의정부시 호원동 50-3번지 용범빌딩 1층 112호","category":"용역 서비스 - 종합용역"},{"name":"쭈꾸미세상","tel":"031-826-9313","addr":"경기도 의정부시 호원동 50-3번지","category":"일반휴게음식 - 일반한식"},{"name":"킴스피자(회룡역점)","tel":"031-878-9119","addr":"경기도 의정부시 호원동 50-3번지 용범빌딩 104호","category":"일반휴게음식 - 서양음식"},{"name":"킹덤비스","tel":"","addr":"경기도 의정부시 호원동 50-3번지 용범빌딩 2층 204호","category":"수리서비스 - 사무·통신기기수리"},{"name":"토마토당구클럽","tel":"031-873-8534","addr":"경기도 의정부시 호원동 50-3번지 용범빌딩 203호","category":"레저업소 - 당 구 장"},{"name":"파리바게트회룡역점","tel":"031-836-8201","addr":"경기도 의정부시 호원동 50-3번지 용범빌딩 1층","category":"음료식품 - 제과점"},{"name":"현보골드","tel":"031-876-2881","addr":"경기도 의정부시 호원동 50-3번지 용범빌딩 103호","category":"신변잡화 - 귀금속"}]},{"lat":"37.723015515","long":"127.03610445","items":[{"name":"그곳","tel":"031-876-6069","addr":"경기도 의정부시 호원동 300-10번지","category":"음료식품 - 기타음료식품"}]},{"lat":"37.728130003","long":"127.04531758","items":[{"name":"그레이스","tel":"031-826-9656","addr":"경기도 의정부시 호원동 341-6번지 102호","category":"의류 - 정장"},{"name":"꽃머리","tel":"031-837-8228","addr":"경기도 의정부시 호원동 341-6번지 104호","category":"보건위생 - 미용원"},{"name":"끊을수없는 타바소","tel":"","addr":"경기도 의정부시 호원동 341-6번지","category":"음료식품 - 기타음료식품"},{"name":"정현인테리어","tel":"031-874-8215","addr":"경기도 의정부시 호원동 341-6번지 103호","category":"건축자재 - 인테리어전문"}]},{"lat":"37.706660663","long":"127.04381978","items":[{"name":"그리고 옹심이 메밀칼국수","tel":"031-837-7767","addr":"경기도 의정부시 호원동 119-258번지","category":"일반휴게음식 - 일반한식"}]},{"lat":"37.723373684","long":"127.04320513","items":[{"name":"그림숲미술교습소","tel":"02-841-6150","addr":"경기도 의정부시 호원동 313-37번지 쌍용스윗닷홈 2층","category":"학원 - 예·체능계학원"},{"name":"멜로쇼콜라","tel":"02-1111-1111","addr":"경기도 의정부시 호원동 313-37번지 쌍용스윗닷홈 제101동 제지하2층 제1-09호","category":"음료식품 - 기타음료식품"},{"name":"명성교육학원","tel":"031-826-2680","addr":"경기도 의정부시 호원동 313-37번지 쌍용스윗닷홈 3층","category":"학원 - 보습학원"},{"name":"명지석사태권도","tel":"031-874-7747","addr":"경기도 의정부시 호원동 313-37쌍용스윗닷홈101동지하1층2-04.05호","category":"회원제형태 - 학원"},{"name":"세계로약국","tel":"031-871-8828","addr":"경기도 의정부시 호원동 313-37번지 쌍용스윗닷홈 105호","category":"약국 - 약국"},{"name":"우리유기농","tel":"031-874-6233","addr":"경기도 의정부시 호원동 313-37번지 지하2층 1-03,04호","category":"유통업 영리 - 슈퍼마켓"},{"name":"웰치과의원","tel":"031-836-3627","addr":"경기도 의정부시 호원동 313-37쌍용스윗딧홈3-03","category":"의원 - 치과의원"},{"name":"탑뱅크독서실","tel":"031-837-0099","addr":"경기도 의정부시 호원동 313-37번지 쌍용스윗닷홈 3층","category":"학원 - 독서실"},{"name":"현미와소금","tel":"031-873-8288","addr":"경기도 의정부시 호원동 313-37번지 쌍용스윗닷홈 1층 3-09호","category":"음료식품 - 미곡상"},{"name":"형제축산","tel":"031-873-8532","addr":"경기도 의정부시 호원동 313-37번지 쌍용스윗닷홈 1-08호","category":"음료식품 - 정육점"},{"name":"호원쇼팽의빨강피아노음악학원","tel":"031-877-3588","addr":"경기도 의정부시 호원동 313-37번지 쌍용스윗닷홈 2-01호","category":"학원 - 예·체능계학원"},{"name":"회룡본한의원","tel":"031-826-1775","addr":"경기도 의정부시 호원동 313-37 쌍용스윗닷홈101동2-07,08,09호","category":"의원 - 한의원"}]},{"lat":"37.701379528","long":"127.04793305","items":[{"name":"금강패널","tel":"031-829-5204","addr":"경기도 의정부시 호원동 144-8","category":"건축자재 - 기타건축자재"},{"name":"월드PVC종합상사","tel":"031-826-5156","addr":"경기도 의정부시 호원동 144-8번지","category":"건축자재 - 기타건축자재"}]},{"lat":"37.728490801","long":"127.04414941","items":[{"name":"금광에너지","tel":"031-875-4093","addr":"경기도 의정부시 호원동 341-30번지","category":"연료판매점 - 유류판매"},{"name":"마을기업주식회사","tel":"031-837-1313","addr":"경기도 의정부시 호원동 341-30번지","category":"음료식품 - 농·축·수산품"}]},{"lat":"37.709073824","long":"127.04771089","items":[{"name":"금화골드","tel":"031-826-8285","addr":"경기도 의정부시 호원동 454-29번지","category":"신변잡화 - 귀금속"},{"name":"땅땅치킨","tel":"031-837-8292","addr":"경기도 의정부시 호원동 454-29번지 1층","category":"일반휴게음식 - 스넥"}]},{"lat":"37.708154801","long":"127.04782374","items":[{"name":"기분좋은날 헤어샵","tel":"031-837-8980","addr":"경기도 의정부시 호원동 464-3번지 1층 102호","category":"보건위생 - 미용원"},{"name":"바른교육","tel":"031-872-4501","addr":"경기도 의정부시 호원동 464-3번지 4층","category":"학원 - 예·체능계학원"},{"name":"홍은","tel":"031-877-9289","addr":"경기도 의정부시 호원동 464-3번지 성민빌딩","category":"일반휴게음식 - 일반한식"}]},{"lat":"37.728294284","long":"127.03898804","items":[{"name":"기분좋은약국","tel":"031-829-3110","addr":"경기도 의정부시 호원동 377-10번지 광명빌딩 1층","category":"약국 - 약국"},{"name":"서울시티의원","tel":"031-837-9717","addr":"경기도 의정부시 호원동 377-10번지 2층","category":"의원 - 의원"}]},{"lat":"37.71629061","long":"127.04746573","items":[{"name":"기프트앤돌","tel":"031-000-0000","addr":"경기도 의정부시 호원동 442-3번지 대경프라자 6층 601호","category":"서적문구 - 완구점"},{"name":"대경독서실","tel":"031-000-0000","addr":"경기도 의정부시 호원동 442-3번지 대경프라자 7층","category":"학원 - 독서실"},{"name":"더존메디칼","tel":"031-837-9897","addr":"경기도 의정부시 호원동 442-3번지 대경프라자 603호","category":"보건위생 - 의료용품"},{"name":"라비살롱","tel":"031-826-5333","addr":"경기도 의정부시 호원동 442-3번지 1층","category":"보건위생 - 미용원"},{"name":"마임 의정부호원지사","tel":"070-7543-5075","addr":"경기도 의정부시 호원동 442-3번지 601호","category":"건강식품 - 기타건강식품"},{"name":"명문골프스쿨","tel":"031-871-5400","addr":"경기도 의정부시 호원동 442-3번지 지층","category":"레져용품 - 골프용품 전문점"},{"name":"블루당구클럽","tel":"031-837-0135","addr":"경기도 의정부시 호원동 442-3번지 4층","category":"레저업소 - 당 구 장"},{"name":"뻬어날영수전문학원","tel":"031-829-8004","addr":"경기도 의정부시 호원동 442-3번지 5층 일부","category":"학원 - 보습학원"},{"name":"씨유의정부호원점","tel":"031-875-3044","addr":"경기도 의정부시 호원동 442-3번지","category":"유통업 영리 - 편 의 점"},{"name":"일구팔삼(1983)","tel":"031-877-1983","addr":"경기도 의정부시 호원동 442-3번지 1층","category":"일반휴게음식 - 일식·회집"},{"name":"착한밥상","tel":"031-836-4959","addr":"경기도 의정부시 호원동 442-3번지 1층","category":"일반휴게음식 - 일반한식"},{"name":"프리티","tel":"031-837-2340","addr":"경기도 의정부시 호원동 442-3번지 대겨일딩 1층 104호","category":"의류 - 정장"},{"name":"홍래막창","tel":"","addr":"경기도 의정부시 호원동 442-3번지 1층","category":"일반휴게음식 - 일반한식"}]},{"lat":"37.722742896","long":"127.04354506","items":[{"name":"긴스헤어 (GIN'S HAIR)","tel":"031-855-3690","addr":"경기도 의정부시 호원동 309-66번지 드림캐슬 B104호","category":"보건위생 - 미용원"},{"name":"더샵 할인점","tel":"031-000-0000","addr":"경기도 의정부시 호원동 309-66번지 드림캐슬 지하2층 202호","category":"음료식품 - 기타음료식품"},{"name":"딜리디자인","tel":"031-876-6227","addr":"경기도 의정부시 호원동 309-66번지 드림캐슬 A동 B202호","category":"건축자재 - 인테리어전문"},{"name":"명린상회","tel":"031-000-0000","addr":"경기도 의정부시 호원동 309-66번지 드림캐슬 A동 B103호","category":"음료식품 - 기타음료식품"},{"name":"민 에스테틱","tel":"031-826-0117","addr":"경기도 의정부시 호원동 309-66번지 드림캐슬 A동 201호","category":"보건위생 - 피부미용실"},{"name":"수미찬방","tel":"070-1478-1236","addr":"경기도 의정부시 호원동 309-66번지 드림캐슬 A동 지하2층 B204","category":"음료식품 - 기타음료식품"},{"name":"우리농산물","tel":"031-826-1700","addr":"경기도 의정부시 호원동 309-66번지 드림캐슬 A동 B205호","category":"음료식품 - 농·축·수산품"},{"name":"행복한아동발달센터","tel":"031-875-1888","addr":"경기도 의정부시 호원동 309-66번지 드림캐슬 A동 B102호","category":"학원 - 기타 교육기관"}]},{"lat":"37.72837327","long":"127.04529503","items":[{"name":"길면집식당","tel":"070-7337-8809","addr":"경기도 의정부시 호원동 342-16번지 1층","category":"일반휴게음식 - 일반한식"},{"name":"더쉬즈","tel":"031-821-3050","addr":"경기도 의정부시 호원동 342-16번지 1층","category":"의류 - 기타의류"},{"name":"옥이네빈대떡","tel":"031-874-3388","addr":"경기도 의정부시 호원동 342-16번지 1층","category":"일반휴게음식 - 일반한식"}]},{"lat":"37.721652279","long":"127.04484884","items":[{"name":"길수학학원","tel":"031-826-1414","addr":"경기도 의정부시 호원동 311-15번지 3층","category":"학원 - 보습학원"},{"name":"민영어교습소","tel":"031-824-3414","addr":"경기도 의정부시 호원동 311-15번지 2층","category":"학원 - 외국어학원"},{"name":"이비스영어교습소","tel":"031-875-5022","addr":"경기도 의정부시 호원동 311-15번지","category":"학원 - 외국어학원"},{"name":"중화일미","tel":"070-8758-8890","addr":"경기도 의정부시 호원동 311-15번지 1층","category":"일반휴게음식 - 중국식"}]},{"lat":"37.728762823","long":"127.03885214","items":[{"name":"길스포츠","tel":"031-836-4811","addr":"경기도 의정부시 호원동 366-35번지 2층","category":"레져용품 - 스포츠·레져용품"},{"name":"김희영의영등포우동","tel":"031-877-5298","addr":"경기도 의정부시 호원동 366-35번지","category":"일반휴게음식 - 스넥"}]},{"lat":"37.727904633","long":"127.04568043","items":[{"name":"김가한우양곱창구이","tel":"031-829-9201","addr":"경기도 의정부시 호원동 6-26번지 회룡빌딩 1층 지상 1층","category":"일반휴게음식 - 일반한식"},{"name":"명품축산정육","tel":"031-855-0156","addr":"경기도 의정부시 호원동 6-26번지 회룡빌딩","category":"음료식품 - 정육점"},{"name":"백옥생화장품미림지사","tel":"031-838-8382","addr":"경기도 의정부시 호원동 6-26번지","category":"보건위생 - 화장품"},{"name":"전설의 옛날 통닭(호원점)","tel":"031-879-6250","addr":"경기도 의정부시 호원동 6-26번지 회룡빌딩 1층","category":"일반휴게음식 - 일반한식"},{"name":"종임스이쁜내머으리","tel":"031-837-3573","addr":"경기도 의정부시 호원동 6-26번지 회룡빌딩 1층 4호","category":"보건위생 - 미용원"},{"name":"주식회사 엠앤에이치","tel":"031-874-3213","addr":"경기도 의정부시 호원동 6-26번지 회룡빌딩 2층","category":"학원 - 기능학원"},{"name":"큰소리영어의정부학원","tel":"031-875-0594","addr":"경기도 의정부시 호원동 6-26번지 회룡빌딩 4층","category":"학원 - 외국어학원"}]},{"lat":"37.727904521","long":"127.04598671","items":[{"name":"김산의 산야초건강원","tel":"031-827-0132","addr":"경기도 의정부시 호원동 6-1번지 범하주택 1층 102호","category":"건강식품 - 기타건강식품"},{"name":"마음을 담은 레시피","tel":"031-855-5246","addr":"경기도 의정부시 호원동 6-1번지 범하주택 101호","category":"음료식품 - 제과점"},{"name":"엄나무집","tel":"031-876-1864","addr":"경기도 의정부시 호원동 6-1번지 1층 지상 1층","category":"일반휴게음식 - 일반한식"}]},{"lat":"37.728679677","long":"127.04506833","items":[{"name":"김수은에스테틱","tel":"031-823-2486","addr":"경기도 의정부시 호원동 342번지 1층","category":"보건위생 - 피부미용실"},{"name":"불티나","tel":"070-7534-8559","addr":"경기도 의정부시 호원동 342번지 1층","category":"음료식품 - 기타음료식품"}]},{"lat":"37.725876436","long":"127.04845832","items":[{"name":"김승연밝은소아청소년과","tel":"031-829-1010","addr":"경기도 의정부시 호원동 417-3번지 전원빌딩 4층","category":"의원 - 의원"},{"name":"남양플러스한의원","tel":"031-829-4256","addr":"경기도 의정부시 호원동 417-3번지 3층1호실 401","category":"의원 - 한의원"},{"name":"블루클럽회룡역점","tel":"031-837-2210","addr":"경기도 의정부시 호원동 417-3번지 전원빌딩 102호","category":"보건위생 - 미용원"},{"name":"신세계안경","tel":"031-873-1001","addr":"경기도 의정부시 호원동 417-3번지 전원빌딩 2층","category":"보건위생 - 안경"},{"name":"신세계안과","tel":"031-829-7733","addr":"경기도 의정부시 호원동 417-3번지 전원빌딩 2층","category":"의원 - 의원"},{"name":"주식회사미소텔레콤","tel":"031-872-4018","addr":"경기도 의정부시 호원동 417-3번지 전원빌딩 101호","category":"사무통신 - 통신기기"}]},{"lat":"37.705271521","long":"127.04835498","items":[{"name":"김약국","tel":"031-871-9557","addr":"경기도 의정부시 호원동 466-12번지 1층 102호","category":"약국 - 약국"},{"name":"뷰티풀데이","tel":"","addr":"경기도 의정부시 호원동 466-12번지 1층 101호","category":"보건위생 - 미용원"},{"name":"브레스학원","tel":"031-837-8209","addr":"경기도 의정부시 호원동 466-12번지 4층","category":"학원 - 보습학원"},{"name":"왕빈대떡","tel":"031-874-5170","addr":"경기도 의정부시 호원동 466-12번지 지상 1층","category":"일반휴게음식 - 일반한식"},{"name":"지엠(GM) 타일도기","tel":"031-838-5325","addr":"경기도 의정부시 호원동 466-12번지 1층 101호","category":"건축자재 - 건축용 요업제품"},{"name":"행복의원","tel":"031-872-2311","addr":"경기도 의정부시 호원동 466-12번지 외1필지지상 3층","category":"의원 - 의원"},{"name":"호원고기사랑","tel":"031-8083-0013","addr":"경기도 의정부시 호원동 466-12번지 103호","category":"음료식품 - 정육점"}]},{"lat":"37.704631808","long":"127.04843397","items":[{"name":"꼬마앤키즈","tel":"02-941-1733","addr":"경기도 의정부시 호원동 467번지 아이파크 203동 1701호","category":"회원제형태 - 학원"},{"name":"지니골프","tel":"070-4249-7502","addr":"경기도 의정부시 호원동 467번지 아이파크호원동 203동 901호","category":"의류 - 정장"}]},{"lat":"37.729681492","long":"127.03985083","items":[{"name":"꼬마작가전문미술교습소","tel":"031-879-1218","addr":"경기도 의정부시 호원동 363-6번지 201호","category":"학원 - 예·체능계학원"},{"name":"블링블링헤어","tel":"031-822-8804","addr":"경기도 의정부시 호원동 363-6번지 101호","category":"보건위생 - 미용원"},{"name":"이넬신의정부대리점","tel":"031-826-5488","addr":"경기도 의정부시 호원동 363-6번지 1층","category":"보건위생 - 화장품"}]},{"lat":"37.708182168","long":"127.04692787","items":[{"name":"꿀밤","tel":"031-1111-1111","addr":"경기도 의정부시 호원동 119-31번지 1층","category":"일반휴게음식 - 일반한식"},{"name":"노다메","tel":"031-875-1240","addr":"경기도 의정부시 호원동 119-31, 32","category":"일반휴게음식 - 일반한식"},{"name":"따구머꾸","tel":"031-875-7850","addr":"경기도 의정부시 호원동 119-31번지","category":"일반휴게음식 - 서양음식"},{"name":"봉구스밥버거","tel":"031-837-8808","addr":"경기도 의정부시 호원동 119-31번지 지상1층","category":"일반휴게음식 - 일반한식"},{"name":"수내닭꼬치(의정부신한대점)","tel":"031-837-1955","addr":"경기도 의정부시 호원동 119-31번지 1층","category":"일반휴게음식 - 일반한식"},{"name":"영스타 노래연습장","tel":"031-859-6667","addr":"경기도 의정부시 호원동 119-31번지 지하1층","category":"레저업소 - 노 래 방"},{"name":"이디야커피","tel":"031-873-2621","addr":"경기도 의정부시 호원동 119-31번지 1층","category":"일반휴게음식 - 서양음식"},{"name":"한일신용유통","tel":"031-878-2343","addr":"경기도 의정부시 호원동 119-31번지","category":"서적문구 - 문구용품"}]},{"lat":"37.726795678","long":"127.04776694","items":[{"name":"나눔터오리","tel":"031-876-2518","addr":"경기도 의정부시 호원동 414-3번지","category":"일반휴게음식 - 일반한식"}]},{"lat":"37.720211561","long":"127.04248885","items":[{"name":"나라스포츠","tel":"031-873-2534","addr":"경기도 의정부시 호원동 281-21번지","category":"레져용품 - 스포츠·레져용품"}]},{"lat":"37.708353013","long":"127.04782386","items":[{"name":"나래아트앤빈","tel":"070-7620-1627","addr":"경기도 의정부시 호원동 464-1번지 6층","category":"문화.취미 - 문화취미기타"},{"name":"미모아뷰티라인","tel":"031-855-8158","addr":"경기도 의정부시 호원동 464-1번지","category":"회원제형태 - 기타4"},{"name":"미스터피자(호원점)","tel":"031-829-9077","addr":"경기도 의정부시 호원동 464-1번지 2층","category":"일반휴게음식 - 서양음식"},{"name":"스카이독서실","tel":"031-826-0074","addr":"경기도 의정부시 호원동 464-1 태일빌딩 6,7층","category":"학원 - 독서실"},{"name":"와플대학 신한대캠퍼스","tel":"","addr":"경기도 의정부시 호원동 464-1번지","category":"일반휴게음식 - 서양음식"}]},{"lat":"37.724877281","long":"127.04604167","items":[{"name":"나루참치&스시","tel":"031-837-3751","addr":"경기도 의정부시 호원동 316-120번지 1층","category":"일반휴게음식 - 일식·회집"},{"name":"맛촌 전집","tel":"031-111-1111","addr":"경기도 의정부시 호원동 316-120번지 1층","category":"일반휴게음식 - 일반한식"},{"name":"우거지품은순대국","tel":"031-829-1216","addr":"경기도 의정부시 호원동 316-120번지 1층","category":"일반휴게음식 - 일반한식"},{"name":"의정부행복나눔센터","tel":"031-829-4900","addr":"경기도 의정부시 호원동 316-120번지","category":"일반휴게음식 - 일반한식"},{"name":"코코옛날통닭","tel":"031-928-4114","addr":"경기도 의정부시 호원동 316-120번지 101호","category":"일반휴게음식 - 일반한식"}]},{"lat":"37.707822082","long":"127.0461225","items":[{"name":"나루터 생선구이","tel":"031-826-1616","addr":"경기도 의정부시 호원동 119-186번지 동일빌딩","category":"일반휴게음식 - 일반한식"}]},{"lat":"37.722906671","long":"127.03859978","items":[{"name":"나의부엌","tel":"","addr":"경기도 의정부시 호원동 300-25번지","category":"주방용구 - 주방용구"}]},{"lat":"37.726652268","long":"127.04577046","items":[{"name":"나이스가이","tel":"031-873-0487","addr":"경기도 의정부시 호원동 332-1번지","category":"보건위생 - 미용원"},{"name":"라비엘 뷰티","tel":"","addr":"경기도 의정부시 호원동 332-1번지 2층","category":"보건위생 - 피부미용실"},{"name":"블랙쪼아","tel":"031-872-2131","addr":"경기도 의정부시 호원동 332-1번지 105호","category":"일반휴게음식 - 서양음식"},{"name":"아이작쥬얼리","tel":"031-879-9424","addr":"경기도 의정부시 호원동 332-1번지","category":"신변잡화 - 액세서리"},{"name":"파머스빌리지 (호원점)","tel":"031-874-9571","addr":"경기도 의정부시 호원동 332-1번지 1층","category":"일반휴게음식 - 서양음식"}]},{"lat":"37.721679445","long":"127.04446322","items":[{"name":"나투라프리마리아","tel":"031-825-6998","addr":"경기도 의정부시 호원동 309-12번지 해룡빌딩 4층","category":"보건위생 - 화장품"},{"name":"애플실용음악학원","tel":"031-855-7599","addr":"경기도 의정부시 호원동 309-12번지 해룡빌딩","category":"학원 - 예·체능계학원"},{"name":"유미네일","tel":"031-111-1111","addr":"경기도 의정부시 호원동 309-12번지 해룡빌딩 1층","category":"보건위생 - 피부미용실"},{"name":"카페여기로(CAFE OVER HERE)","tel":"031-877-1256","addr":"경기도 의정부시 호원동 309-12번지 해룡빌딩 1층","category":"일반휴게음식 - 서양음식"},{"name":"한국G.X전문강사협회","tel":"031-878-5100","addr":"경기도 의정부시 호원동 309-12번지 해룡빌딩 2층","category":"레저업소 - 헬스클럽"}]},{"lat":"37.693299216","long":"127.04432265","items":[{"name":"남선금속","tel":"031-826-8325","addr":"경기도 의정부시 호원동 198-16번지","category":"건축자재 - 기타건축자재"}]},{"lat":"37.726903236","long":"127.0492076","items":[{"name":"남원추어탕","tel":"031-875-6868","addr":"경기도 의정부시 호원동 419-6번지 1층","category":"일반휴게음식 - 일반한식"},{"name":"와와치킨","tel":"031-829-8252","addr":"경기도 의정부시 호원동 419-6번지 1층","category":"일반휴게음식 - 일반한식"},{"name":"육본생삼겹살","tel":"031-878-2750","addr":"경기도 의정부시 호원동 419-6번지 1층","category":"일반휴게음식 - 일반한식"},{"name":"풍물옹심이칼국수","tel":"031-877-7177","addr":"경기도 의정부시 호원동 419-6번지 1층","category":"일반휴게음식 - 일반한식"}]},{"lat":"37.706073359","long":"127.04840083","items":[{"name":"남해생선구이","tel":"031-836-8888","addr":"경기도 의정부시 호원동 466번지 아르쥬 9호~10호","category":"일반휴게음식 - 일반한식"},{"name":"동우메디텍","tel":"031-879-6902","addr":"경기도 의정부시 호원동 466번지 아르쥬 310호","category":"보건위생 - 의료용품"},{"name":"라니(Lani)","tel":"031-826-8911","addr":"경기도 의정부시 호원동 466번지 아르쥬 1층 102호","category":"일반휴게음식 - 서양음식"},{"name":"뷰티 더(THE)클라스","tel":"","addr":"경기도 의정부시 호원동 466번지 아르쥬 408호","category":"보건위생 - 피부미용실"},{"name":"신전떡볶이(호원점)","tel":"031-873-6654","addr":"경기도 의정부시 호원동 466번지 아르쥬 1층 106호","category":"일반휴게음식 - 스넥"},{"name":"예뻐옷방","tel":"031-837-1102","addr":"경기도 의정부시 호원동 466번지 외1필지 아르쥬 1층 108호","category":"의류 - 정장"},{"name":"이닭발석쇠구이","tel":"031-874-4555","addr":"경기도 의정부시 호원동 466번지 아르쥬 1층 103호","category":"일반휴게음식 - 일반한식"},{"name":"이레미용실","tel":"031-878-2171","addr":"경기도 의정부시 호원동 466번지 아르쥬 1층 104호","category":"보건위생 - 미용원"},{"name":"장수원갈비","tel":"031-872-9202","addr":"경기도 의정부시 호원동 466번지 아르쥬빌딩 101호","category":"일반휴게음식 - 일반한식"},{"name":"페인트 팩토리(PAINT FACTORY)","tel":"031-824-7777","addr":"경기도 의정부시 호원동 466번지 아르쥬빌딩 1층 105호","category":"건축자재 - 페인트"},{"name":"플로웰 힐링 연구소","tel":"031-000-0000","addr":"경기도 의정부시 호원동 466번지 아르쥬 207호","category":"보건위생 - 기타대인서비스"}]},{"lat":"37.728150061","long":"127.03921484","items":[{"name":"낭만회포차","tel":"031-874-9526","addr":"경기도 의정부시 호원동 377-12번지 1층","category":"일반휴게음식 - 일반한식"},{"name":"뉴욕헤어","tel":"031-852-5012","addr":"경기도 의정부시 호원동 377-12번지 1층","category":"보건위생 - 미용원"},{"name":"둘리 노래연습장","tel":"031-871-3265","addr":"경기도 의정부시 호원동 377-12번지","category":"레저업소 - 노 래 방"},{"name":"하늘마루","tel":"031-872-9245","addr":"경기도 의정부시 호원동 377-12번지","category":"음료식품 - 정육점"}]},{"lat":"37.708380544","long":"127.04648572","items":[{"name":"내가국밥집","tel":"031-876-4733","addr":"경기도 의정부시 호원동 119-191번지","category":"일반휴게음식 - 일반한식"}]},{"lat":"37.70398326","long":"127.04805936","items":[{"name":"내천집","tel":"02-2207-4191","addr":"경기도 의정부시 호원동 467-4번지 예다음 A동 202호","category":"보건위생 - 기타대인서비스"},{"name":"플라플로(FLAFLO)","tel":"","addr":"경기도 의정부시 호원동 467-4번지 예다음 A동 602호","category":"의류 - 정장"}]},{"lat":"37.728047775","long":"127.04838024","items":[{"name":"네파 의정부 회룡점","tel":"","addr":"경기도 의정부시 호원동 415-2번지","category":"레져용품 - 스포츠·레져용품"},{"name":"링스 의정부호원점","tel":"","addr":"경기도 의정부시 호원동 415-2번지","category":"레져용품 - 스포츠·레져용품"},{"name":"주식회사에스피원","tel":"031-826-0201","addr":"경기도 의정부시 호원동 415-2번지 1층","category":"레져용품 - 스포츠·레져용품"},{"name":"핑 의정부점","tel":"031-876-5583","addr":"경기도 의정부시 호원동 415-2번지","category":"레져용품 - 스포츠·레져용품"}]},{"lat":"37.725957403","long":"127.04876463","items":[{"name":"노경원산부인과","tel":"031-878-2341","addr":"경기도 의정부시 호원동 417-2번지 다남빌딩 3층","category":"의원 - 의원"},{"name":"더데이","tel":"031-872-1008","addr":"경기도 의정부시 호원동 417-2번지 다남빌딩 1층 더데이","category":"수리서비스 - 세탁소"},{"name":"마이팜","tel":"031-826-0808","addr":"경기도 의정부시 호원동 417-2번지","category":"약국 - 약국"},{"name":"메디N","tel":"031-878-2341","addr":"경기도 의정부시 호원동 417-2번지 다남크리닉 1층","category":"건강식품 - 기타건강식품"},{"name":"모네맑은피부과","tel":"031-878-2337","addr":"경기도 의정부시 호원동 417-2번지 다남빌딩 6층","category":"의원 - 의원"},{"name":"서우한의원","tel":"031-876-7975","addr":"경기도 의정부시 호원동 417-2번지 다남빌딩 5층","category":"의원 - 한의원"},{"name":"서울태내과","tel":"031-855-1919","addr":"경기도 의정부시 호원동 417-2번지 2층","category":"의원 - 의원"},{"name":"요셉이비인후과의원","tel":"031-874-6919","addr":"경기도 의정부시 호원동 417-2번지","category":"의원 - 의원"},{"name":"이주연의원.스킨케어","tel":"031-876-0345","addr":"경기도 의정부시 호원동 417-2번지 다남빌딩 5층","category":"의원 - 의원"},{"name":"텐드커피(TEND COFFEE)","tel":"031-874-7788","addr":"경기도 의정부시 호원동 417-2번지 다남빌딩 1층","category":"일반휴게음식 - 서양음식"},{"name":"호원노래연습장","tel":"031-872-4975","addr":"경기도 의정부시 호원동 417-2번지 다남빌딩 지하1층","category":"레저업소 - 노 래 방"}]},{"lat":"37.723240135","long":"127.03823697","items":[{"name":"노벨사인","tel":"031-874-7474","addr":"경기도 의정부시 호원동 304-2번지","category":"건축자재 - 인테리어전문"}]},{"lat":"37.720795526","long":"127.04715084","items":[{"name":"노블실버홈","tel":"031-837-5055","addr":"경기도 의정부시 호원동 434-3번지 4-5층","category":"기타의료기관 - 기타의료기관 및 기타"},{"name":"부산밀면","tel":"031-876-2114","addr":"경기도 의정부시 호원동 434-3번지 102호","category":"일반휴게음식 - 일반한식"},{"name":"젠틀차이나","tel":"031-871-0772","addr":"경기도 의정부시 호원동 434-3번지 1층","category":"일반휴게음식 - 일반한식"},{"name":"조은약국","tel":"031-871-4546","addr":"경기도 의정부시 호원동 434-3번지 103호","category":"약국 - 약국"}]},{"lat":"37.705770341","long":"127.03881835","items":[{"name":"노스마운틴","tel":"070-7437-9586","addr":"경기도 의정부시 호원동 229-270번지","category":"일반휴게음식 - 일반한식"}]},{"lat":"37.728372915","long":"127.04627056","items":[{"name":"녹원유통","tel":"031-574-6797","addr":"경기도 의정부시 호원동 5-7번지 지층","category":"음료식품 - 농·축·수산품"},{"name":"퍼피앤견","tel":"031-836-0279","addr":"경기도 의정부시 호원동 5-7번지","category":"문화.취미 - 애완동물"}]},{"lat":"37.724039649","long":"127.04532659","items":[{"name":"논골집 (의정부점)","tel":"031-876-5250","addr":"경기도 의정부시 호원동 312-1번지 1층 103호","category":"일반휴게음식 - 일반한식"},{"name":"대구불노리왕막창회룡역점","tel":"031-873-9290","addr":"경기도 의정부시 호원동 312-1번지 104호","category":"일반휴게음식 - 일반한식"},{"name":"레드 스토리","tel":"031-837-3563","addr":"경기도 의정부시 호원동 312-1번지 2층 일부","category":"보건위생 - 미용원"},{"name":"린지네일(Linzy네일)","tel":"031-837-9591","addr":"경기도 의정부시 호원동 312-1번지 2층","category":"보건위생 - 피부미용실"},{"name":"성희포차","tel":"031-855-6285","addr":"경기도 의정부시 호원동 312-1번지 102호","category":"일반휴게음식 - 주점"},{"name":"줌마렐라","tel":"031-826-9806","addr":"경기도 의정부시 호원동 312-1번지 1동 101호","category":"의류 - 정장"}]},{"lat":"37.723570808","long":"127.04626776","items":[{"name":"누나 홀 닭 회룡역점","tel":"031-877-1020","addr":"경기도 의정부시 호원동 312-5번지 102호","category":"일반휴게음식 - 스넥"},{"name":"두꺼비로멘스","tel":"070-1111-1111","addr":"경기도 의정부시 호원동 312-5번지 1층 105호","category":"일반휴게음식 - 주점"},{"name":"수플러스노래영상제작실","tel":"031-877-4363","addr":"경기도 의정부시 호원동 312-5번지 202호","category":"용역 서비스 - 종합용역"},{"name":"오드리 속눈썹","tel":"031-821-1982","addr":"경기도 의정부시 호원동 312-5번지 2층 203호","category":"보건위생 - 화장품"},{"name":"청춘감자","tel":"031-874-7784","addr":"경기도 의정부시 호원동 312-5번지 원오상가101호","category":"일반휴게음식 - 주점"},{"name":"타비지 (여로)","tel":"031-111-1111","addr":"경기도 의정부시 호원동 312-5번지 1층 106호","category":"일반휴게음식 - 일식·회집"},{"name":"태양부양꼬치 회룡역점","tel":"031-836-8898","addr":"경기도 의정부시 호원동 312-5번지 201호","category":"일반휴게음식 - 중국식"},{"name":"한잔할래?","tel":"031-829-9608","addr":"경기도 의정부시 호원동 312-5번지 103호","category":"일반휴게음식 - 일반한식"},{"name":"회룡야시장","tel":"","addr":"경기도 의정부시 호원동 312-5번지 104호","category":"일반휴게음식 - 일반한식"}]},{"lat":"37.708713153","long":"127.04845915","items":[{"name":"누들아한타이 망월사점 (본점)","tel":"031-877-3378","addr":"경기도 의정부시 호원동 460-2번지 2층","category":"일반휴게음식 - 서양음식"},{"name":"바른치킨 의정부호원점","tel":"031-874-9233","addr":"경기도 의정부시 호원동 460-2번지 1층","category":"일반휴게음식 - 스넥"}]},{"lat":"37.712515515","long":"127.04765626","items":[{"name":"눈편한안과의원","tel":"031-875-1075","addr":"경기도 의정부시 호원동 453-11번지 202호","category":"의원 - 의원"},{"name":"안경창고 싸군","tel":"031-874-1253","addr":"경기도 의정부시 호원동 453-11번지 대광메디칼프라자 102호","category":"보건위생 - 안경"},{"name":"포레소아과","tel":"","addr":"경기도 의정부시 호원동 453-11번지 203호","category":"건강식품 - 기타건강식품"},{"name":"포레소아청소년과의원","tel":"031-855-7582","addr":"경기도 의정부시 호원동 453-11번지 대광메디칼프라자 2층 203호","category":"의원 - 의원"}]},{"lat":"37.725209705","long":"127.04851462","items":[{"name":"뉴아이뱅크 안경","tel":"031-876-9889","addr":"경기도 의정부시 호원동 425번지 한승프라자 108호","category":"보건위생 - 안경"},{"name":"롯데리아_회룡역지점","tel":"031-829-6451","addr":"경기도 의정부시 호원동 425번지 한승프라자 112동 116호","category":"일반휴게음식 - 서양음식"},{"name":"본죽","tel":"031-874-3422","addr":"경기도 의정부시 호원동 425외3필지106","category":"일반휴게음식 - 일반한식"},{"name":"정금당","tel":"031-879-0997","addr":"경기도 의정부시 호원동 425번지 한승프라자 105호","category":"신변잡화 - 시계"},{"name":"참다한 홍삼 회룡역점","tel":"031-875-4274","addr":"경기도 의정부시 호원동 425번지 한승프라자 120호","category":"건강식품 - 홍삼제품"},{"name":"호원문고","tel":"031-829-1879","addr":"경기도 의정부시 호원동 425번지 한승프라자 128동 129호","category":"서적문구 - 일반서적"},{"name":"호원종합동물병원","tel":"031-826-8875","addr":"경기도 의정부시 호원동 425번지 한승프라자 109호","category":"기타의료기관 - 동물병원"},{"name":"화짬뽕","tel":"031-9196-5918","addr":"경기도 의정부시 호원동 425번지 한승프라자 102호","category":"일반휴게음식 - 일반한식"}]},{"lat":"37.726210047","long":"127.04778928","items":[{"name":"뉴욕센트럴치과","tel":"031-873-2275","addr":"경기도 의정부시 호원동 414-7번지 우신빌딩 5층","category":"의원 - 치과의원"},{"name":"유스킨케어","tel":"031-829-3305","addr":"경기도 의정부시 호원동 414-7번지 5층","category":"회원제형태 - 기타4"},{"name":"이투스247 의정부학원","tel":"031-837-0247","addr":"경기도 의정부시 호원동 414-7번지 4층","category":"학원 - 보습학원"},{"name":"회룡베이스볼아카데미","tel":"032-214-4005","addr":"경기도 의정부시 호원동 414-7번지 남동빌딩 지하1층","category":"학원 - 예·체능계학원"}]},{"lat":"37.730986169","long":"127.0449562","items":[{"name":"늑대와여우컴퓨터 (호원점)","tel":"031-836-2938","addr":"경기도 의정부시 호원동 353-83번지 1층 102호","category":"수리서비스 - 사무·통신기기수리"},{"name":"섭봉푸드","tel":"031-855-9976","addr":"경기도 의정부시 호원동 353-83번지 1층","category":"일반휴게음식 - 일반한식"}]},{"lat":"37.714903383","long":"127.04679575","items":[{"name":"늘사랑광고기획","tel":"031-825-0112","addr":"경기도 의정부시 호원동 448-3번지 2층","category":"용역 서비스 - 종합용역"},{"name":"시온애드","tel":"031-877-9624","addr":"경기도 의정부시 호원동 448-3번지 2층","category":"건축자재 - 인테리어전문"},{"name":"월드종합주방","tel":"02-985-3000","addr":"경기도 의정부시 호원동 448-3번지 가동,나동","category":"주방용구 - 주방용구"},{"name":"이안인테리어","tel":"031-877-2660","addr":"경기도 의정부시 호원동 448-3번지","category":"가구 - 일반가구"},{"name":"주식회사시온애드","tel":"031-877-9624","addr":"경기도 의정부시 호원동 448-3번지 2층","category":"건축자재 - 인테리어전문"}]},{"lat":"37.728346351","long":"127.04498874","items":[{"name":"니팅세상","tel":"","addr":"경기도 의정부시 호원동 342-14번지 1층","category":"문화.취미 - 문화취미기타"},{"name":"장원교육의정부지점","tel":"031-876-8740","addr":"경기도 의정부시 호원동 342-14번지","category":"회원제형태 - 서적"},{"name":"제로스포츠","tel":"031-8083-0069","addr":"경기도 의정부시 호원동 342-14번지 지층","category":"레져용품 - 스포츠·레져용품"}]},{"lat":"37.708271926","long":"127.04782382","items":[{"name":"다미머리작","tel":"031-877-3470","addr":"경기도 의정부시 호원동 464-2번지 2층","category":"보건위생 - 미용원"},{"name":"파닭불","tel":"031-829-5530","addr":"경기도 의정부시 호원동 464-2번지","category":"일반휴게음식 - 일반한식"}]},{"lat":"37.723571093","long":"127.04548512","items":[{"name":"다생돌판삼겹살","tel":"031-872-0244","addr":"경기도 의정부시 호원동 312-11번지 1층","category":"일반휴게음식 - 일반한식"}]},{"lat":"37.723958179","long":"127.04638142","items":[{"name":"다움심리발달연구소","tel":"031-855-4420","addr":"경기도 의정부시 호원동 50-2번지 회룡타운 3층 306호","category":"보건위생 - 기타대인서비스"},{"name":"라디아","tel":"031-877-6641","addr":"경기도 의정부시 호원동 50-2번지 회룡타운 105호","category":"보건위생 - 화장품"},{"name":"리안헤어","tel":"031-837-9128","addr":"경기도 의정부시 호원동 50-2번지 회룡타운 1층 110호","category":"보건위생 - 미용원"},{"name":"메이찬","tel":"031-826-5550","addr":"경기도 의정부시 호원동 50-2번지 회룡타운 205호","category":"일반휴게음식 - 중국식"},{"name":"박금비산부인과의원","tel":"031-878-0301","addr":"경기도 의정부시 호원동 50-2번지 회룡타운 302호","category":"의원 - 의원"},{"name":"육회지존","tel":"031-872-1230","addr":"경기도 의정부시 호원동 50-2번지","category":"일반휴게음식 - 일반한식"},{"name":"이미지미디어","tel":"031-855-6788","addr":"경기도 의정부시 호원동 50-2번지 회룡타운 508호","category":"용역 서비스 - 종합용역"},{"name":"좋은밤","tel":"031-000-0000","addr":"경기도 의정부시 호원동 50-2번지 회룡타운 2층 204호","category":"일반휴게음식 - 주점"},{"name":"주식회사 호원뉴스터디","tel":"031-871-5500","addr":"경기도 의정부시 호원동 50-2번지 회룡타운 4층","category":"학원 - 보습학원"},{"name":"주식회사에이치제이","tel":"031-877-8200","addr":"경기도 의정부시 호원동 50-2번지 회룡타운 101호","category":"사무통신 - 통신기기"},{"name":"주식회사호원뉴스터디","tel":"031-871-5500","addr":"경기도 의정부시 호원동 50-2번지 회룡타운 4층","category":"학원 - 보습학원"},{"name":"토닥스터디카페","tel":"070-7358-0904","addr":"경기도 의정부시 호원동 50-2번지 회룡타운 3층 305호","category":"용역 서비스 - 사무서비스"},{"name":"필라테스 J","tel":"","addr":"경기도 의정부시 호원동 50-2번지 회룡타운 301호","category":"레저업소 - 헬스클럽"},{"name":"필헤어 의정부회룡점","tel":"031-877-3011","addr":"경기도 의정부시 호원동 50-2번지 회룡타운 201호","category":"보건위생 - 미용원"},{"name":"하트만 동물병원","tel":"031-874-7533","addr":"경기도 의정부시 호원동 50-2번지 회룡타운 111호","category":"기타의료기관 - 동물병원"},{"name":"한양본가 한양왕족발 본점","tel":"031-855-2759","addr":"경기도 의정부시 호원동 50-2 회룡타운120호","category":"일반휴게음식 - 일반한식"},{"name":"해피푸드","tel":"031-878-0301","addr":"경기도 의정부시 호원동 50-2번지 회룡타운 302호","category":"건강식품 - 기타건강식품"},{"name":"호우양꼬치","tel":"031-837-9292","addr":"경기도 의정부시 호원동 50-2번지 회룡타운 1층 115호","category":"일반휴게음식 - 일반한식"},{"name":"호치킨하우스","tel":"031-876-5727","addr":"경기도 의정부시 호원동 50-2번지 113,114호","category":"일반휴게음식 - 스넥"},{"name":"혼다라멘 회룡점","tel":"031-871-3001","addr":"경기도 의정부시 호원동 50-2번지 회룡타운 102호","category":"일반휴게음식 - 일식·회집"},{"name":"회룡","tel":"031-855-5261","addr":"경기도 의정부시 호원동 50-2번지 회룡타운 206호~207호","category":"레저업소 - 노 래 방"},{"name":"회룡역뒷고기","tel":"031-877-7004","addr":"경기도 의정부시 호원동 50-2번지 회룡타운 117호 118호","category":"일반휴게음식 - 일반한식"},{"name":"회룡치과의원","tel":"031-876-2833","addr":"경기도 의정부시 호원동 50-2번지 회룡타운 3층 304호","category":"의원 - 치과의원"}]},{"lat":"37.714408594","long":"127.04476537","items":[{"name":"다원","tel":"031-871-1155","addr":"경기도 의정부시 호원동 274-6번지 1층","category":"일반휴게음식 - 스넥"},{"name":"유림학원","tel":"031-876-0660","addr":"경기도 의정부시 호원동 274-6번지 3층","category":"학원 - 보습학원"},{"name":"현쌤음악학원","tel":"031-879-6964","addr":"경기도 의정부시 호원동 274-6번지 2층","category":"학원 - 예·체능계학원"}]},{"lat":"37.728681696","long":"127.03898823","items":[{"name":"다이가","tel":"031-855-2797","addr":"경기도 의정부시 호원동 366-25번지","category":"자동차정비 유지 - 카인테리어"},{"name":"복권세상","tel":"","addr":"경기도 의정부시 호원동 366-25번지","category":"유통업 영리 - 슈퍼마켓"},{"name":"엉뚱한상상 수제왕꼬치 호원점","tel":"031-835-2936","addr":"경기도 의정부시 호원동 366-25번지 1층","category":"일반휴게음식 - 일반한식"}]},{"lat":"37.711047057","long":"127.04737186","items":[{"name":"다이소 망월사역점","tel":"031-877-7928","addr":"경기도 의정부시 호원동 454-18번지","category":"신변잡화 - 기타잡화"}]},{"lat":"37.720596836","long":"127.04840971","items":[{"name":"다조아","tel":"031-877-5995","addr":"경기도 의정부시 호원동 431-4번지","category":"일반휴게음식 - 서양음식"},{"name":"대원식당","tel":"031-875-8220","addr":"경기도 의정부시 호원동 431-4번지 1층","category":"일반휴게음식 - 일반한식"},{"name":"대원정육점","tel":"031-875-8220","addr":"경기도 의정부시 호원동 431-4번지 1층","category":"음료식품 - 정육점"},{"name":"무지개노래연습장","tel":"031-829-1787","addr":"경기도 의정부시 호원동 431-4번지","category":"레저업소 - 노 래 방"}]},{"lat":"37.718957651","long":"127.04693425","items":[{"name":"닥터에어컨","tel":"031-874-2070","addr":"경기도 의정부시 호원동 440 1충","category":"전기제품 - 가전제품"},{"name":"유피아노","tel":"031-876-1155","addr":"경기도 의정부시 호원동 440번지","category":"레져용품 - 피아노대리점"},{"name":"주식회사공보기계","tel":"031-873-5100","addr":"경기도 의정부시 호원동 440번지","category":"기타 - 기계공구"},{"name":"지.비 머시너리(G.B MACHINERY)","tel":"031-873-5100","addr":"경기도 의정부시 호원동 440번지 1층 일부","category":"기타 - 기계공구"},{"name":"최고의집&칼국수","tel":"031-871-7545","addr":"경기도 의정부시 호원동 440번지","category":"일반휴게음식 - 일반한식"},{"name":"한주영어학원","tel":"031-877-6630","addr":"경기도 의정부시 호원동 440번지","category":"회원제형태 - 학원"}]},{"lat":"37.728372823","long":"127.04652012","items":[{"name":"달달부엌","tel":"","addr":"경기도 의정부시 호원동 5-9번지 1층","category":"음료식품 - 기타음료식품"}]},{"lat":"37.72498633","long":"127.04341017","items":[{"name":"달떡","tel":"031-878-7999","addr":"경기도 의정부시 호원동 318-3번지 1층","category":"음료식품 - 제과점"},{"name":"아티","tel":"","addr":"경기도 의정부시 호원동 318-3번지 1층","category":"일반휴게음식 - 일반한식"},{"name":"양고기목장","tel":"031-879-2297","addr":"경기도 의정부시 호원동 318-3번지 1층","category":"일반휴게음식 - 스넥"}]},{"lat":"37.722211455","long":"127.04318181","items":[{"name":"달보드레","tel":"","addr":"경기도 의정부시 호원동 309-79번지","category":"음료식품 - 기타음료식품"}]},{"lat":"37.708713123","long":"127.04853853","items":[{"name":"닭발상회","tel":"031-873-6093","addr":"경기도 의정부시 호원동 460-3번지 점포 1층","category":"일반휴게음식 - 스넥"}]},{"lat":"37.722211521","long":"127.04298899","items":[{"name":"닭이존(회룡점)","tel":"031-837-5900","addr":"경기도 의정부시 호원동 309-80번지 1층","category":"일반휴게음식 - 일반한식"},{"name":"바이마르피아노교습소","tel":"031-877-4867","addr":"경기도 의정부시 호원동 309-80번지","category":"학원 - 예·체능계학원"},{"name":"샤롱드.미","tel":"031-873-2525","addr":"경기도 의정부시 호원동 309-80번지 아름들이마트 104호","category":"보건위생 - 미용원"},{"name":"한승식당","tel":"031-871-8520","addr":"경기도 의정부시 호원동 309-80번지 아름들이마트 1층 103호","category":"일반휴게음식 - 일반한식"}]},{"lat":"37.709380164","long":"127.04767706","items":[{"name":"담소바베큐앤꼬치","tel":"031-822-2020","addr":"경기도 의정부시 호원동 454-27번지","category":"일반휴게음식 - 주점"},{"name":"디셈버","tel":"031-848-9018","addr":"경기도 의정부시 호원동 454-27번지 5층","category":"일반휴게음식 - 서양음식"},{"name":"브이아이피노래연습장","tel":"031-875-9571","addr":"경기도 의정부시 호원동 454-27번지 지하층","category":"레저업소 - 노 래 방"},{"name":"수상한쪽갈비(호원점)","tel":"031-826-9279","addr":"경기도 의정부시 호원동 454-27번지 1층","category":"일반휴게음식 - 일반한식"}]},{"lat":"37.707352924","long":"127.04787996","items":[{"name":"대가전주콩나물국밥","tel":"031-872-9012","addr":"경기도 의정부시 호원동 464-12번지 1층","category":"일반휴게음식 - 일반한식"},{"name":"피스일칠오(PEACE175)","tel":"","addr":"경기도 의정부시 호원동 464-12번지 2층","category":"일반휴게음식 - 주점"}]},{"lat":"37.694767698","long":"127.04457291","items":[{"name":"대광장식","tel":"070-4151-4643","addr":"경기도 의정부시 호원동 202-30번지","category":"직물 - 카페트,커튼,천막,지물"},{"name":"세종풍력","tel":"031-873-3081","addr":"경기도 의정부시 호원동 202-30번지 1층","category":"건축자재 - 기타건축자재"},{"name":"유한포장상사","tel":"031-872-8409","addr":"경기도 의정부시 호원동 202-30번지","category":"서적문구 - 전문서적"},{"name":"파워클럽","tel":"031-875-3146","addr":"경기도 의정부시 호원동 202-30번지","category":"신변잡화 - 기타잡화"}]},{"lat":"37.721462193","long":"127.04726466","items":[{"name":"대동목재합판","tel":"02-952-0568","addr":"경기도 의정부시 호원동 434","category":"건축자재 - 건축용 요업제품"},{"name":"스타골프존","tel":"031-873-0879","addr":"경기도 의정부시 호원동 434번지","category":"회원제형태 - 레져업소"}]},{"lat":"37.721796473","long":"127.0447355","items":[{"name":"대동수학학원","tel":"070-4042-3876","addr":"경기도 의정부시 호원동 311-10번지 3층","category":"학원 - 보습학원"},{"name":"모카애견","tel":"031-838-0130","addr":"경기도 의정부시 호원동 311-10번지 101호","category":"문화.취미 - 애완동물"},{"name":"썬헤어(Sun hair)","tel":"031-873-4015","addr":"경기도 의정부시 호원동 311-10번지","category":"보건위생 - 미용원"},{"name":"오렌지음악전문학원","tel":"031-872-7694","addr":"경기도 의정부시 호원동 311-10번지 호원그린빌딩 2층","category":"학원 - 예·체능계학원"}]},{"lat":"37.729240434","long":"127.03851207","items":[{"name":"대림건재","tel":"031-873-6178","addr":"경기도 의정부시 호원동 366-4번지","category":"기타의료기관 - 기타의료기관 및 기타"}]},{"lat":"37.707045873","long":"127.04973957","items":[{"name":"대림카센타","tel":"031-837-8737","addr":"경기도 의정부시 호원동 462-28번지","category":"자동차정비 유지 - 자동차정비"}]},{"lat":"37.710767418","long":"127.04826761","items":[{"name":"대명힐링우드","tel":"031-871-7575","addr":"경기도 의정부시 호원동 458-18번지","category":"건축자재 - 기타건축자재"}]},{"lat":"37.706848386","long":"127.04787966","items":[{"name":"대성포장식당","tel":"031-873-3589","addr":"경기도 의정부시 호원동 464-17번지","category":"일반휴게음식 - 일반한식"},{"name":"웰빙할인마트","tel":"031-872-4300","addr":"경기도 의정부시 호원동 464-17번지","category":"유통업 영리 - 연 쇄 점"}]},{"lat":"37.712795574","long":"127.0456037","items":[{"name":"대승정육식당","tel":"031-829-1577","addr":"경기도 의정부시 호원동 86-10번지 MK빌딩 9","category":"음료식품 - 정육점"},{"name":"위드미 호원안말점","tel":"031-111-1111","addr":"경기도 의정부시 호원동 86-10번지","category":"유통업 영리 - 편 의 점"}]},{"lat":"37.713515863","long":"127.04690835","items":[{"name":"대승정육식당","tel":"031-874-9665","addr":"경기도 의정부시 호원동 449-6번지 MK빌딩 1층 29","category":"일반휴게음식 - 일반한식"}]},{"lat":"37.708605535","long":"127.04715493","items":[{"name":"대신기획","tel":"031-874-4696","addr":"경기도 의정부시 호원동 119-137번지","category":"서적문구 - 출판 및 인쇄물"},{"name":"바른생활","tel":"031-871-7705","addr":"경기도 의정부시 호원동 119-137번지 1층","category":"일반휴게음식 - 스넥"},{"name":"은혜식당","tel":"031-872-3887","addr":"경기도 의정부시 호원동 119-137번지","category":"일반휴게음식 - 일반한식"}]},{"lat":"37.69310069","long":"127.04520691","items":[{"name":"대영타이어","tel":"031-874-8352","addr":"경기도 의정부시 호원동 194-2번지","category":"자동차정비 유지 - 자동차시트·타이어"}]},{"lat":"37.694073984","long":"127.04449315","items":[{"name":"대원합판","tel":"031-873-2298","addr":"경기도 의정부시 호원동 200-32번지","category":"건축자재 - 기타건축자재"}]},{"lat":"37.695100828","long":"127.04520804","items":[{"name":"대일공조닥트","tel":"031-872-9973","addr":"경기도 의정부시 호원동 186-1번지","category":"용역 서비스 - 기타용역서비스"},{"name":"타이어마트","tel":"031-874-9859","addr":"경기도 의정부시 호원동 186-1번지","category":"자동차정비 유지 - 자동차시트·타이어"}]},{"lat":"37.694821529","long":"127.04520788","items":[{"name":"대진통상","tel":"02-900-6667","addr":"경기도 의정부시 호원동 189-1번지","category":"직물 - 침구·수예점"}]},{"lat":"37.728463867","long":"127.04387715","items":[{"name":"대통축산","tel":"031-826-3362","addr":"경기도 의정부시 호원동 326-26번지","category":"음료식품 - 정육점"},{"name":"돈박의대통구이","tel":"031-878-0015","addr":"경기도 의정부시 호원동 326-26번지 1동 1층","category":"일반휴게음식 - 일반한식"}]},{"lat":"37.702569928","long":"127.0448721","items":[{"name":"대한불교관음종천불사","tel":"031-876-6066","addr":"경기도 의정부시 호원동 산108-13번지","category":"회원제형태 - 기타4"}]},{"lat":"37.704657182","long":"127.02132047","items":[{"name":"대한불교조계종 망월사","tel":"031-873-7744","addr":"경기도 의정부시 호원동 413번지","category":"신변잡화 - 기념품점"}]},{"lat":"37.713290808","long":"127.0464092","items":[{"name":"대호전기","tel":"031-872-3414","addr":"경기도 의정부시 호원동 85-29번지 DH빌딩 104호","category":"수리서비스 - 가정용품수리"},{"name":"세븐일레븐의정부호원원룸점","tel":"","addr":"경기도 의정부시 호원동 85-29번지 1층","category":"유통업 영리 - 편 의 점"},{"name":"위캔수학학원","tel":"031-877-5009","addr":"경기도 의정부시 호원동 85-29번지 3층","category":"회원제형태 - 학원"},{"name":"종갓집생고기김치찜","tel":"031-872-3434","addr":"경기도 의정부시 호원동 85-29번지 외1필지 1층","category":"일반휴게음식 - 일반한식"},{"name":"회룡지앤비(GnB)영어학원","tel":"031-829-0509","addr":"경기도 의정부시 호원동 85-29번지 외1필지 2층","category":"회원제형태 - 학원"}]},{"lat":"37.703964881","long":"127.04898921","items":[{"name":"댕기머리방","tel":"031-879-4092","addr":"경기도 의정부시 호원동 467아이파크호원상가107","category":"보건위생 - 미용원"},{"name":"동네분식","tel":"031-875-7808","addr":"경기도 의정부시 호원동 467번지 아이파크호원동 104호","category":"일반휴게음식 - 스넥"},{"name":"리더스잉글리시영어교습소","tel":"031-877-3371","addr":"경기도 의정부시 호원동 467번지 아이파크호원동 상가 202호","category":"회원제형태 - 학원"},{"name":"마이수","tel":"031-877-3787","addr":"경기도 의정부시 호원동 467번지 아이파크호원동 상가동 202호","category":"문화.취미 - 문화취미기타"},{"name":"씨유호원현대점","tel":"080-080-3663","addr":"경기도 의정부시 호원동 467번지 아이파크호원동 상가동 108호","category":"유통업 영리 - 편 의 점"},{"name":"지앤미 피부관리","tel":"031-836-1988","addr":"경기도 의정부시 호원동 467번지 아이파크호원동 상가동 2층 201호","category":"보건위생 - 피부미용실"},{"name":"청어람수학교습소","tel":"031-855-8205","addr":"경기도 의정부시 호원동 467번지 아이파크 205호 상가","category":"회원제형태 - 학원"},{"name":"핑크퍼피","tel":"031-837-3327","addr":"경기도 의정부시 호원동 467번지 아이파크호원동 상가동 1층 102호","category":"문화.취미 - 애완동물"},{"name":"헤라","tel":"031-875-0323","addr":"경기도 의정부시 호원동 467번지 아이파크호원동 상가동 101호","category":"보건위생 - 미용원"},{"name":"현대세탁소","tel":"031-837-6650","addr":"경기도 의정부시 호원동 467번지 아이파크 상가동 103호","category":"수리서비스 - 세탁소"}]},{"lat":"37.726770047","long":"127.04393293","items":[{"name":"더가든감포","tel":"070-8779-5050","addr":"경기도 의정부시 호원동 331-1번지","category":"일반휴게음식 - 일반한식"}]},{"lat":"37.707460708","long":"127.04874189","items":[{"name":"더데일리팻샵","tel":"070-8666-4178","addr":"경기도 의정부시 호원동 463-4번지 1층","category":"문화.취미 - 애완동물"},{"name":"알세븐 리더스","tel":"","addr":"경기도 의정부시 호원동 463-4번지 지하1층","category":"건강식품 - 기타건강식품"},{"name":"어썸비어","tel":"031-847-0002","addr":"경기도 의정부시 호원동 463-4번지","category":"일반휴게음식 - 일반한식"},{"name":"토탈헤어","tel":"","addr":"경기도 의정부시 호원동 463-4번지 1층 일부","category":"보건위생 - 미용원"},{"name":"현기획","tel":"031-214-3114","addr":"경기도 의정부시 호원동 463-4번지 207호","category":"유통업 영리 - 기타유통업"}]},{"lat":"37.714381297","long":"127.04551388","items":[{"name":"더룸","tel":"031-873-4497","addr":"경기도 의정부시 호원동 274-55번지 외2필지(지하)","category":"가구 - 일반가구"},{"name":"정박사네","tel":"031-874-5292","addr":"경기도 의정부시 호원동 274-55번지 회룡오피스텔 102호","category":"일반휴게음식 - 스넥"}]},{"lat":"37.707407623","long":"127.04616762","items":[{"name":"더블유뮤즈(W muse)","tel":"070-2018-2044","addr":"경기도 의정부시 호원동 119-3번지 진산아트빌16차 B동 101호","category":"회원제형태 - 기타4"},{"name":"파랑새","tel":"070-8659-8554","addr":"경기도 의정부시 호원동 119-3번지 진산아트빌 B동 101호","category":"전기제품 - 가전제품"}]},{"lat":"37.727345019","long":"127.0484025","items":[{"name":"더샵레지던스","tel":"031-879-8001","addr":"경기도 의정부시 호원동 416번지 2층","category":"학원 - 독서실"},{"name":"알파문구칠성점","tel":"031-846-3244","addr":"경기도 의정부시 호원동 416번지","category":"서적문구 - 문구용품"},{"name":"칠성문구사","tel":"031-846-3244","addr":"경기도 의정부시 호원동 416번지","category":"서적문구 - 문구용품"}]},{"lat":"37.728679637","long":"127.04518177","items":[{"name":"더킹치킨(The King)","tel":"031-872-4441","addr":"경기도 의정부시 호원동 342-5번지 1층","category":"일반휴게음식 - 스넥"},{"name":"카페하마","tel":"031-843-5552","addr":"경기도 의정부시 호원동 342-5번지 1층 202호","category":"일반휴게음식 - 일반한식"}]},{"lat":"37.716984959","long":"127.0458216","items":[{"name":"덕우벤딩","tel":"031-875-1004","addr":"경기도 의정부시 호원동 277-11번지","category":"건축자재 - 기타건축자재"}]},{"lat":"37.728213163","long":"127.03910143","items":[{"name":"덴트공방","tel":"","addr":"경기도 의정부시 호원동 377-11번지 1층","category":"자동차정비 유지 - 카인테리어"}]},{"lat":"37.694965889","long":"127.04462971","items":[{"name":"도봉덴트칼라","tel":"031-878-2272","addr":"경기도 의정부시 호원동 202-13번지","category":"자동차정비 유지 - 카인테리어"}]},{"lat":"37.706904188","long":"127.04304878","items":[{"name":"도봉산 원조 불닭발","tel":"070-7840-5350","addr":"경기도 의정부시 호원동 119-265번지 1층","category":"일반휴게음식 - 일반한식"},{"name":"사단법인 관음정사","tel":"031-843-0408","addr":"경기도 의정부시 호원동 119-265번지 1층","category":"보건위생 - 기타대인서비스"},{"name":"아라칸레져","tel":"031-826-6335","addr":"경기도 의정부시 호원동 119-265번지","category":"레져용품 - 스포츠·레져용품"}]},{"lat":"37.693883697","long":"127.04746365","items":[{"name":"도봉산호원풋살장","tel":"031-877-1600","addr":"경기도 의정부시 호원동 168-11번지","category":"레저업소 - 기타레져업소"}]},{"lat":"37.730157668","long":"127.04387808","items":[{"name":"돈벼락삼겹살","tel":"031-878-9289","addr":"경기도 의정부시 호원동 351-6번지 1층","category":"일반휴게음식 - 일반한식"},{"name":"쿠방","tel":"031-837-9398","addr":"경기도 의정부시 호원동 351-6번지 호원빌딩 2층","category":"문화.취미 - 문화취미기타"},{"name":"펫마트","tel":"031-855-8580","addr":"경기도 의정부시 호원동 351-6번지 호원빌딩","category":"문화.취미 - 애완동물"}]},{"lat":"37.695434152","long":"127.04529894","items":[{"name":"동명냉동산업","tel":"031-872-9933","addr":"경기도 의정부시 호원동 182-4번지","category":"수리서비스 - 기타수리서비스"}]},{"lat":"37.712183446","long":"127.04412902","items":[{"name":"동서교역","tel":"031-875-3736","addr":"경기도 의정부시 호원동 246-1","category":"유통업 영리 - 기타유통업"}]},{"lat":"37.69612824","long":"127.04432422","items":[{"name":"동일창호유리","tel":"031-855-6266","addr":"경기도 의정부시 호원동 204-2번지","category":"건축자재 - 보일러·펌프·샷시"},{"name":"중앙판넬","tel":"02-3494-4061","addr":"경기도 의정부시 호원동 204-2번지","category":"건축자재 - 기타건축자재"}]},{"lat":"37.708686168","long":"127.04834573","items":[{"name":"동해바다","tel":"031-846-8989","addr":"경기도 의정부시 호원동 460-1번지 1층","category":"일반휴게음식 - 일반한식"}]},{"lat":"37.722879168","long":"127.04013101","items":[{"name":"돼지꿈","tel":"031-837-0624","addr":"경기도 의정부시 호원동 308-65","category":"일반휴게음식 - 일반한식"}]},{"lat":"37.711794682","long":"127.04782594","items":[{"name":"두레마을우동집","tel":"031-874-0200","addr":"경기도 의정부시 호원동 455-8번지 104호","category":"일반휴게음식 - 일반한식"},{"name":"두레통닭","tel":"070-7435-3993","addr":"경기도 의정부시 호원동 455-8번지 105,106호","category":"일반휴게음식 - 스넥"},{"name":"이디야 커피 망월사역점","tel":"031-872-7755","addr":"경기도 의정부시 호원동 455-8번지 1층 101호","category":"일반휴게음식 - 서양음식"},{"name":"이오헤어(IO)","tel":"031-821-2844","addr":"경기도 의정부시 호원동 455-8번지 103호","category":"보건위생 - 미용원"},{"name":"이홍범베이커리","tel":"031-876-5857","addr":"경기도 의정부시 호원동 455-8번지 107호","category":"음료식품 - 제과점"},{"name":"참치앤소라","tel":"031-871-5885","addr":"경기도 의정부시 호원동 455-8번지 1층 일부 106호","category":"일반휴게음식 - 일반한식"},{"name":"피시앤푸드","tel":"070-9180-7196","addr":"경기도 의정부시 호원동 455-8번지 3층 301,302호","category":"레저업소 - 기타레져업소"}]},{"lat":"37.727374257","long":"127.0422658","items":[{"name":"둘리문구사","tel":"031-872-7760","addr":"경기도 의정부시 호원동 322-5 뉴삼익2차상가 102","category":"서적문구 - 문구용품"},{"name":"엘뷰티헤어","tel":"031-879-2490","addr":"경기도 의정부시 호원동 322-5 호원가든2차상가 106","category":"보건위생 - 미용원"}]},{"lat":"37.728066834","long":"127.04560112","items":[{"name":"드림유 커피","tel":"070-8832-9819","addr":"경기도 의정부시 호원동 6-14번지 1층","category":"일반휴게음식 - 서양음식"},{"name":"떡보의하루(의정부1호점)","tel":"031-838-4417","addr":"경기도 의정부시 호원동 6-14번지 지상1층","category":"음료식품 - 제과점"},{"name":"멍블리","tel":"031-876-1005","addr":"경기도 의정부시 호원동 6-14번지 1층","category":"문화.취미 - 애완동물"},{"name":"블레스톡스터디까페","tel":"031-874-9603","addr":"경기도 의정부시 호원동 6-14번지 2층","category":"용역 서비스 - 사무서비스"}]},{"lat":"37.728489868","long":"127.04673571","items":[{"name":"드림유아체육교실","tel":"","addr":"경기도 의정부시 호원동 4-24번지 우진빌딩 지하1층","category":"학원 - 기타 교육기관"}]},{"lat":"37.728679588","long":"127.04531789","items":[{"name":"디애나","tel":"070-7574-6625","addr":"경기도 의정부시 호원동 342-6번지","category":"의류 - 정장"},{"name":"종합가전","tel":"031-875-3654","addr":"경기도 의정부시 호원동 342-6번지","category":"전기제품 - 가전제품"},{"name":"황금성","tel":"031-826-8991","addr":"경기도 의정부시 호원동 342-6번지 1층","category":"일반휴게음식 - 중국식"}]},{"lat":"37.730708284","long":"127.04079287","items":[{"name":"디엔제이 (D et J)","tel":"031-878-9116","addr":"경기도 의정부시 호원동 357-1번지 도원 상가 1층","category":"의류 - 정장"},{"name":"어린음악대어린화가들학원","tel":"031-873-1544","addr":"경기도 의정부시 호원동 357-1번지 2층","category":"학원 - 예·체능계학원"},{"name":"이엔더 디자인(E. N the design)","tel":"031-843-0430","addr":"경기도 의정부시 호원동 357-1번지 1층 3호","category":"건축자재 - 인테리어전문"},{"name":"짱닭","tel":"070-8883-0407","addr":"경기도 의정부시 호원동 357-1번지","category":"일반휴게음식 - 일반한식"},{"name":"청년피자","tel":"070-4922-1261","addr":"경기도 의정부시 호원동 357-1번지 1층 102호","category":"일반휴게음식 - 서양음식"},{"name":"특공무술본부체육관","tel":"031-837-7888","addr":"경기도 의정부시 호원동 357-1번지 3층","category":"회원제형태 - 레져업소"},{"name":"한율학원","tel":"031-8083-0403","addr":"경기도 의정부시 호원동 357-1번지 2층","category":"학원 - 보습학원"}]},{"lat":"37.728041981","long":"127.03910135","items":[{"name":"디오니스 (호원점)","tel":"031-875-0305","addr":"경기도 의정부시 호원동 377-13번지 1층","category":"일반휴게음식 - 스넥"}]},{"lat":"37.724265296","long":"127.04418109","items":[{"name":"또수기뽀수기","tel":"","addr":"경기도 의정부시 호원동 314-5","category":"의류 - 내의판매"}]},{"lat":"37.705743998","long":"127.03649364","items":[{"name":"또순식당","tel":"031-872-9347","addr":"경기도 의정부시 호원동 229-107번지","category":"일반휴게음식 - 일반한식"}]},{"lat":"37.722463426","long":"127.04404398","items":[{"name":"뛰노리방방","tel":"031-837-6569","addr":"경기도 의정부시 호원동 309-45번지 고구려빌딩 202호","category":"레저업소 - 기타레져업소"},{"name":"삼성영어호원학원","tel":"031-876-3405","addr":"경기도 의정부시 호원동 309-45번지 고구려빌딩 201호중 일부","category":"학원 - 보습학원"},{"name":"아트앤하트 호원 미술교습소","tel":"031-871-0323","addr":"경기도 의정부시 호원동 309-45번지 고구려빌딩 102호","category":"학원 - 예·체능계학원"},{"name":"영웅태권도 전문도장","tel":"031-837-5657","addr":"경기도 의정부시 호원동 309-45번지 고구려빌딩 3층","category":"학원 - 예·체능계학원"},{"name":"오븐데이호원점","tel":"031-877-5095","addr":"경기도 의정부시 호원동 309-45번지 고구려빌딩 101호","category":"일반휴게음식 - 일반한식"},{"name":"이든제빵소","tel":"031-8083-0880","addr":"경기도 의정부시 호원동 309-45번지 고구려빌딩 102호","category":"음료식품 - 제과점"},{"name":"커피 카롱","tel":"031-000-0000","addr":"경기도 의정부시 호원동 309-45번지 고구려빌딩 1층 102호","category":"일반휴게음식 - 서양음식"}]},{"lat":"37.715569644","long":"127.047987","items":[{"name":"라뮤제(Iamujer)","tel":"031-837-1845","addr":"경기도 의정부시 호원동 447-16번지 로뎀하이츠빌","category":"의류 - 기타의류"}]},{"lat":"37.70856964","long":"127.04676934","items":[{"name":"라썸헤어","tel":"031-826-3887","addr":"경기도 의정부시 호원동 119-138번지 신일스카이빌 101호","category":"보건위생 - 미용원"},{"name":"쓰리팝","tel":"070-8028-3185","addr":"경기도 의정부시 호원동 119-138번지 3층.4층","category":"일반휴게음식 - 서양음식"},{"name":"차오름공간","tel":"031-823-1290","addr":"경기도 의정부시 호원동 119-138번지 신일스카이빌 202호","category":"용역 서비스 - 사무서비스"},{"name":"차오름독서실","tel":"031-823-1290","addr":"경기도 의정부시 호원동 119-138번지 신일스카이빌 2층 201호","category":"학원 - 독서실"},{"name":"파이브지(Five G) 카페주점(신한대점)","tel":"031-111-1111","addr":"경기도 의정부시 호원동 119-138번지 1층","category":"일반휴게음식 - 서양음식"}]},{"lat":"37.730266716","long":"127.04109893","items":[{"name":"라온제나","tel":"031-000-0000","addr":"경기도 의정부시 호원동 357-26번지 2층","category":"가구 - 일반가구"},{"name":"아줌마파워","tel":"031-823-7680","addr":"경기도 의정부시 호원동 357-26번지 1층","category":"일반휴게음식 - 일반한식"},{"name":"아줌마파워","tel":"031-823-7680","addr":"경기도 의정부시 호원동 357-26번지","category":"일반휴게음식 - 일반한식"},{"name":"위아더점핑(we are the Jumping)","tel":"031-8083-7000","addr":"경기도 의정부시 호원동 357-26번지 3층","category":"건강식품 - 기타건강식품"},{"name":"재흥곡산","tel":"031-829-4050","addr":"경기도 의정부시 호원동 357-26번지","category":"음료식품 - 미곡상"}]},{"lat":"37.728986423","long":"127.04387744","items":[{"name":"라온태권스쿨","tel":"031-837-5658","addr":"경기도 의정부시 호원동 345-31번지","category":"학원 - 예·체능계학원"},{"name":"예닮음악학원","tel":"031-829-0040","addr":"경기도 의정부시 호원동 345-31번지","category":"학원 - 예·체능계학원"}]},{"lat":"37.704181709","long":"127.04743579","items":[{"name":"라움헤어","tel":"031-825-5055","addr":"경기도 의정부시 호원동 468-4번지 근린생활시설 1동 7호","category":"보건위생 - 미용원"},{"name":"레브 플라워(Lev flower)","tel":"","addr":"경기도 의정부시 호원동 468-4번지 108호","category":"문화.취미 - 화원"},{"name":"맥 교습소","tel":"","addr":"경기도 의정부시 호원동 468-4번지 르네상스시티 1303호","category":"학원 - 보습학원"},{"name":"본에그치킨(호원점)","tel":"031-879-8984","addr":"경기도 의정부시 호원동 468-4번지 1층 근로생활시설 6호","category":"일반휴게음식 - 스넥"},{"name":"사육팔(468)","tel":"031-111-1111","addr":"경기도 의정부시 호원동 468-4번지 1층 9호","category":"일반휴게음식 - 서양음식"},{"name":"씨유의정부르네상스점","tel":"080-080-3663","addr":"경기도 의정부시 호원동 468-4번지 르네상스시티 1층 4호,5호","category":"유통업 영리 - 편 의 점"},{"name":"오월의공기","tel":"031-1234-1111","addr":"경기도 의정부시 호원동 468-4번지 103호","category":"의류 - 정장"}]},{"lat":"37.728373677","long":"127.04414934","items":[{"name":"라움헤어","tel":"031-9350-8261","addr":"경기도 의정부시 호원동 341-31번지 1층","category":"보건위생 - 미용원"},{"name":"포스(POS)학원","tel":"031-873-0808","addr":"경기도 의정부시 호원동 341-31번지 2층","category":"학원 - 보습학원"}]},{"lat":"37.720048262","long":"127.04570994","items":[{"name":"라인","tel":"031-874-4333","addr":"경기도 의정부시 호원동 286-12번지 101호,102호","category":"사무통신 - 기타 사무용품"},{"name":"슈가라임 엘","tel":"070-316-8100","addr":"경기도 의정부시 호원동 286-12번지 101, 102호","category":"음료식품 - 제과점"}]},{"lat":"37.712463154","long":"127.04293837","items":[{"name":"라인스킨","tel":"070-8784-0220","addr":"경기도 의정부시 호원동 249-33번지 1층","category":"신변잡화 - 액세서리"}]},{"lat":"37.728627614","long":"127.03906761","items":[{"name":"라피네플라워&가든","tel":"070-8613-2089","addr":"경기도 의정부시 호원동 366-26번지","category":"문화.취미 - 화원"},{"name":"살롱드 영","tel":"","addr":"경기도 의정부시 호원동 366-26번지 1층","category":"보건위생 - 피부미용실"},{"name":"플라워스토리","tel":"031-821-3602","addr":"경기도 의정부시 호원동 366-26번지 좌측 1층 점포","category":"문화.취미 - 화원"}]},{"lat":"37.719236948","long":"127.04693442","items":[{"name":"락궁","tel":"031-872-1888","addr":"경기도 의정부시 호원동 435-3번지 1층","category":"일반휴게음식 - 일반한식"},{"name":"미용산업","tel":"031-872-6470","addr":"경기도 의정부시 호원동 435-3번지 지하1층","category":"주방용구 - 주방용구"},{"name":"아이비도서","tel":"031-873-1233","addr":"경기도 의정부시 호원동 435-3번지","category":"서적문구 - 일반서적"},{"name":"주식회사아크로에듀","tel":"031-873-1233","addr":"경기도 의정부시 호원동 435-3번지","category":"회원제형태 - 학원"}]},{"lat":"37.708182075","long":"127.04717736","items":[{"name":"락궁(신흥대점)","tel":"031-872-5888","addr":"경기도 의정부시 호원동 119-35번지 1층","category":"일반휴게음식 - 일반한식"}]},{"lat":"37.723185494","long":"127.04013117","items":[{"name":"러브타올","tel":"031-875-1014","addr":"경기도 의정부시 호원동 308-64번지 1층","category":"직물 - 옷감·직물"}]},{"lat":"37.70515444","long":"127.04824151","items":[{"name":"러셀치킨","tel":"031-873-9945","addr":"경기도 의정부시 호원동 466-11번지","category":"일반휴게음식 - 주점"},{"name":"살롱드. 미","tel":"031-877-2736","addr":"경기도 의정부시 호원동 466-11번지 북촉1칸","category":"보건위생 - 미용원"}]},{"lat":"37.71326326","long":"127.04779281","items":[{"name":"럭키동물병원","tel":"031-875-1559","addr":"경기도 의정부시 호원동 453번지 럭키마트외부상가","category":"기타의료기관 - 동물병원"},{"name":"럭키숙녀복","tel":"031-111-1111","addr":"경기도 의정부시 호원동 453번지","category":"의류 - 정장"},{"name":"럭키화장품","tel":"031-551-8163","addr":"경기도 의정부시 호원동 453번지","category":"보건위생 - 화장품"},{"name":"클레오파트라","tel":"031-829-0669","addr":"경기도 의정부시 호원동 453번지","category":"보건위생 - 화장품"}]},{"lat":"37.711821943","long":"127.04721355","items":[{"name":"레드존","tel":"070-8286-3059","addr":"경기도 의정부시 호원동 454-12번지","category":"자동차판매 - 이륜차판매"}]},{"lat":"37.694326234","long":"127.04454998","items":[{"name":"레드타이어","tel":"031-875-5882","addr":"경기도 의정부시 호원동 200-34번지","category":"자동차정비 유지 - 자동차시트·타이어"}]},{"lat":"37.724462145","long":"127.04790165","items":[{"name":"레드헤어","tel":"031-821-3575","addr":"경기도 의정부시 호원동 427-4번지 2층","category":"보건위생 - 미용원"},{"name":"소풍간김밥(회룡점)","tel":"031-875-0403","addr":"경기도 의정부시 호원동 427-4번지 1층","category":"일반휴게음식 - 일반한식"},{"name":"손톱까끼","tel":"02-1111-1111","addr":"경기도 의정부시 호원동 427-4번지 2층","category":"보건위생 - 피부미용실"},{"name":"아이비PC방","tel":"","addr":"경기도 의정부시 호원동 427-4번지 B1","category":"레저업소 - 기타레져업소"},{"name":"어묵나라","tel":"031-873-8985","addr":"경기도 의정부시 호원동 427-4번지","category":"일반휴게음식 - 스넥"}]},{"lat":"37.694271978","long":"127.04510553","items":[{"name":"로고스상사","tel":"031-875-1032","addr":"경기도 의정부시 호원동 189-9번지 1호","category":"주방용구 - 정수기"},{"name":"성신풍력","tel":"031-826-5123","addr":"경기도 의정부시 호원동 189-9","category":"기타 - 기계공구"}]},{"lat":"37.706434133","long":"127.04738044","items":[{"name":"롯데리아 전주효자서부점","tel":"063-228-5959","addr":"경기도 의정부시 호원동 130-23번지 101,102호","category":"일반휴게음식 - 서양음식"},{"name":"태경상회","tel":"0310-5092-0789","addr":"경기도 의정부시 호원동 130-23번지","category":"신변잡화 - 기타잡화"}]},{"lat":"37.728986328","long":"127.04414968","items":[{"name":"루디아옷방","tel":"02-999-6336","addr":"경기도 의정부시 호원동 345-18번지","category":"의류 - 정장"}]},{"lat":"37.721877687","long":"127.04437259","items":[{"name":"리딩키즈학원","tel":"070-8704-9051","addr":"경기도 의정부시 호원동 309-39번지 2층","category":"학원 - 보습학원"},{"name":"아야카","tel":"031-877-7457","addr":"경기도 의정부시 호원동 309-39번지 1층 3호","category":"일반휴게음식 - 서양음식"},{"name":"오브제213","tel":"031-871-8300","addr":"경기도 의정부시 호원동 309-39번지 1층 104호","category":"신변잡화 - 기타잡화"},{"name":"큰뜻학원","tel":"031-836-0355","addr":"경기도 의정부시 호원동 309-39번지","category":"학원 - 보습학원"},{"name":"포인트원-수작 (    )학원","tel":"031-825-1905","addr":"경기도 의정부시 호원동 309-39번지 3층","category":"학원 - 보습학원"},{"name":"풍천복장어","tel":"031-846-2000","addr":"경기도 의정부시 호원동 309-39번지 1층","category":"일반휴게음식 - 일반한식"}]},{"lat":"37.705076649","long":"127.03865926","items":[{"name":"리멤버 파스텔","tel":"031-111-1111","addr":"경기도 의정부시 호원동 229-259번지","category":"광학제품 - 사진관"}]},{"lat":"37.713120051","long":"127.04524097","items":[{"name":"리빙타이어","tel":"031-846-1142","addr":"경기도 의정부시 호원동 258-29번지 한신빌라트 101동 401호","category":"자동차정비 유지 - 자동차시트·타이어"}]},{"lat":"37.70815496","long":"127.04740415","items":[{"name":"마님과머슴","tel":"031-872-8545","addr":"경기도 의정부시 호원동 119-1번지","category":"음료식품 - 농·축·수산품"}]},{"lat":"37.712326515","long":"127.04712312","items":[{"name":"마음따뜻한정형외과의원","tel":"031-837-7555","addr":"경기도 의정부시 호원동 454-8.지상2,4,5층지하.1층","category":"의원 - 의원"},{"name":"야베스홈인테리어","tel":"031-877-1664","addr":"경기도 의정부시 호원동 454-8번지 1층 102호","category":"건축자재 - 인테리어전문"},{"name":"행복한약국","tel":"031-878-3211","addr":"경기도 의정부시 호원동 454-8번지 101호","category":"약국 - 약국"}]},{"lat":"37.72620931","long":"127.04968358","items":[{"name":"마쪼아(MAZZOA)","tel":"031-855-1719","addr":"경기도 의정부시 호원동 418-2번지 1층","category":"일반휴게음식 - 일반한식"},{"name":"피자알볼로 호원점","tel":"031-877-8495","addr":"경기도 의정부시 호원동 418-2번지","category":"일반휴게음식 - 서양음식"}]},{"lat":"37.724238535","long":"127.04340976","items":[{"name":"만스에스테이트","tel":"031-878-9880","addr":"경기도 의정부시 호원동 313-8번지 1층","category":"일반휴게음식 - 서양음식"},{"name":"필라이트","tel":"031-829-7771","addr":"경기도 의정부시 호원동 313-8번지 2층","category":"광학제품 - 사진관"}]},{"lat":"37.708515007","long":"127.04828892","items":[{"name":"만원집 본점","tel":"031-873-3058","addr":"경기도 의정부시 호원동 460-26번지","category":"일반휴게음식 - 일반한식"}]},{"lat":"37.720686923","long":"127.04843245","items":[{"name":"만지아(MANGIA)","tel":"031-877-2035","addr":"경기도 의정부시 호원동 431-3번지 1층 101호","category":"일반휴게음식 - 서양음식"}]},{"lat":"37.695272229","long":"127.04459587","items":[{"name":"망월슈퍼","tel":"031-872-6077","addr":"경기도 의정부시 호원동 202-5번지","category":"유통업 영리 - 슈퍼마켓"}]},{"lat":"37.721571322","long":"127.04448584","items":[{"name":"매직크린","tel":"031-875-1212","addr":"경기도 의정부시 호원동 309-18번지 1층","category":"수리서비스 - 세탁소"},{"name":"사랑나무한의원","tel":"031-876-7384","addr":"경기도 의정부시 호원동 309-18번지 2층","category":"의원 - 한의원"}]},{"lat":"37.71379442","long":"127.04884786","items":[{"name":"머리 마을 미","tel":"031-872-5382","addr":"경기도 의정부시 호원동 451-6번지 1층","category":"보건위생 - 미용원"},{"name":"쟁반노래연습장","tel":"031-826-0196","addr":"경기도 의정부시 호원동 451-6번지 2층","category":"레저업소 - 노 래 방"},{"name":"한우고을식당","tel":"031-855-0855","addr":"경기도 의정부시 호원동 451-6번지","category":"일반휴게음식 - 일반한식"},{"name":"한우고을정육점","tel":"031-855-0855","addr":"경기도 의정부시 호원동 451-6번지 1호","category":"음료식품 - 정육점"},{"name":"호원메디칼","tel":"031-826-0455","addr":"경기도 의정부시 호원동 451-6번지 3층 전체","category":"약국 - 제약회사"}]},{"lat":"37.729067414","long":"127.04414973","items":[{"name":"머리끄댕이","tel":"031-826-2611","addr":"경기도 의정부시 호원동 345-5번지 1층","category":"보건위생 - 미용원"}]},{"lat":"37.707352733","long":"127.04837893","items":[{"name":"멋내고뽐내고","tel":"","addr":"경기도 의정부시 호원동 463-6번지","category":"의류 - 정장"},{"name":"알즈너 건우대리점","tel":"031-837-9933","addr":"경기도 의정부시 호원동 463-6번지 1층","category":"보건위생 - 의료용품"}]},{"lat":"37.707100464","long":"127.04837878","items":[{"name":"멋찐남자","tel":"031-836-0410","addr":"경기도 의정부시 호원동 463-21번지 1층","category":"보건위생 - 미용원"}]},{"lat":"37.727905179","long":"127.04414908","items":[{"name":"메이비플라워케익","tel":"","addr":"경기도 의정부시 호원동 340-37번지 1층","category":"음료식품 - 제과점"},{"name":"엣날멸치국수","tel":"031-875-3330","addr":"경기도 의정부시 호원동 340-37번지 1층","category":"일반휴게음식 - 일반한식"}]},{"lat":"37.711515595","long":"127.04727007","items":[{"name":"메인","tel":"031-836-0297","addr":"경기도 의정부시 호원동 454-14번지","category":"의류 - 정장"},{"name":"햄모아","tel":"031-871-7959","addr":"경기도 의정부시 호원동 454-14번지","category":"일반휴게음식 - 일반한식"}]},{"lat":"37.70963305","long":"127.04602149","items":[{"name":"메카(MECA)헤어","tel":"031-897-2888","addr":"경기도 의정부시 호원동 117-1번지 인디안헤드외국인학교 104호","category":"보건위생 - 미용원"},{"name":"신한컨벤션","tel":"031-829-0646","addr":"경기도 의정부시 호원동 117-1번지","category":"용역 서비스 - 혼례서비스"}]},{"lat":"37.713129218","long":"127.04479867","items":[{"name":"멕시칸치킨","tel":"031-874-0004","addr":"경기도 의정부시 호원동 257-1번지 1층","category":"일반휴게음식 - 스넥"},{"name":"묘정헤어","tel":"031-826-0242","addr":"경기도 의정부시 호원동 257-1번지 1층","category":"보건위생 - 미용원"},{"name":"엠에스팜","tel":"031-874-6160","addr":"경기도 의정부시 호원동 257-1","category":"회원제형태 - 건강식품"}]},{"lat":"37.70743417","long":"127.04746042","items":[{"name":"명성 엔지니어링","tel":"031-877-5772","addr":"경기도 의정부시 호원동 119-132번지","category":"수리서비스 - 기타수리서비스"}]},{"lat":"37.722400811","long":"127.04272821","items":[{"name":"명성유통","tel":"031-000-0000","addr":"경기도 의정부시 호원동 308-72번지 승원아트빌라 101동 201호","category":"음료식품 - 기타음료식품"}]},{"lat":"37.726734294","long":"127.04310486","items":[{"name":"명품황소곱창","tel":"031-872-0092","addr":"경기도 의정부시 호원동 320-1번지 1층","category":"일반휴게음식 - 일반한식"},{"name":"유디헤어","tel":"031-877-6261","addr":"경기도 의정부시 호원동 320-1번지","category":"보건위생 - 미용원"}]},{"lat":"37.708181652","long":"127.04828872","items":[{"name":"모다","tel":"","addr":"경기도 의정부시 호원동 460-23번지 1층 105호","category":"신변잡화 - 제화"},{"name":"스타일을 찾다","tel":"031-877-2203","addr":"경기도 의정부시 호원동 460-23번지 2층","category":"보건위생 - 미용원"},{"name":"우리정보통신","tel":"031-876-9016","addr":"경기도 의정부시 호원동 460-23번지","category":"사무통신 - 통신기기"},{"name":"카페오빵","tel":"031-873-0888","addr":"경기도 의정부시 호원동 460-23번지","category":"일반휴게음식 - 서양음식"},{"name":"행복시루","tel":"031-876-5954","addr":"경기도 의정부시 호원동 460-23번지 상가 103호","category":"음료식품 - 제과점"}]},{"lat":"37.71312842","long":"127.04698751","items":[{"name":"모바일플러스","tel":"031-826-4625","addr":"경기도 의정부시 호원동 454번지 1층","category":"사무통신 - 통신기기"},{"name":"배들족발","tel":"031-827-9009","addr":"경기도 의정부시 호원동 454번지 1층","category":"일반휴게음식 - 일반한식"},{"name":"베니라이프","tel":"031-836-3337","addr":"경기도 의정부시 호원동 454번지","category":"의류 - 내의판매"}]},{"lat":"37.724823483","long":"127.04532703","items":[{"name":"모빌닷컴","tel":"031-1111-1111","addr":"경기도 의정부시 호원동 316-28번지","category":"레져용품 - 스포츠·레져용품"}]},{"lat":"37.72482413","long":"127.04348948","items":[{"name":"모이비엔","tel":"02-0000-0000","addr":"경기도 의정부시 호원동 318-9번지","category":"의류 - 정장"},{"name":"빅애플슈퍼","tel":"031-871-9371","addr":"경기도 의정부시 호원동 318-9번지","category":"유통업 영리 - 슈퍼마켓"}]},{"lat":"37.725157312","long":"127.04398876","items":[{"name":"모이자","tel":"031-877-9875","addr":"경기도 의정부시 호원동 316-48번지 1층","category":"일반휴게음식 - 칵테일바"},{"name":"전주식당","tel":"031-871-3007","addr":"경기도 의정부시 호원동 316-48번지","category":"일반휴게음식 - 일반한식"}]},{"lat":"37.726129745","long":"127.04567941","items":[{"name":"못난이 꽈배기","tel":"070-7862-1697","addr":"경기도 의정부시 호원동 10-61번지 진원빌라 104호","category":"일반휴게음식 - 서양음식"},{"name":"일방통행","tel":"070-7728-2291","addr":"경기도 의정부시 호원동 10-61번지 진원빌라 104호 상가","category":"일반휴게음식 - 일반한식"},{"name":"투다리(호원2점)","tel":"031-876-9997","addr":"경기도 의정부시 호원동 10-61번지 진원빌라 102호","category":"일반휴게음식 - 일반한식"}]},{"lat":"37.701632051","long":"127.04726418","items":[{"name":"무송기업","tel":"031-837-7421","addr":"경기도 의정부시 호원동 468-12번지","category":"건축자재 - 기타건축자재"},{"name":"위즈컴","tel":"031-877-6700","addr":"경기도 의정부시 호원동 468-12번지","category":"용역 서비스 - 종합용역"}]},{"lat":"37.730149965","long":"127.03993047","items":[{"name":"무토(MUTO)","tel":"070-4202-7787","addr":"경기도 의정부시 호원동 364-5번지","category":"의류 - 정장"}]},{"lat":"37.705460565","long":"127.04876333","items":[{"name":"미니스트리 오브 커피(MINISTRY OF COFFEE)","tel":"02-1111-1111","addr":"경기도 의정부시 호원동 466-2번지 1층","category":"일반휴게음식 - 서양음식"}]},{"lat":"37.73104134","long":"127.04171189","items":[{"name":"미래도배장판","tel":"031-878-0678","addr":"경기도 의정부시 호원동 351-1번지 삼익 상가 101호","category":"직물 - 카페트,커튼,천막,지물"},{"name":"삼익세탁소","tel":"031-876-2468","addr":"경기도 의정부시 호원동 351-1.206","category":"수리서비스 - 세탁소"},{"name":"쑤기네일","tel":"031-876-0319","addr":"경기도 의정부시 호원동 351-1번지 1층","category":"보건위생 - 피부미용실"}]},{"lat":"37.713679751","long":"127.04204307","items":[{"name":"미래주니어 축구클럽","tel":"031-574-0022","addr":"경기도 의정부시 호원동 251-2번지 산내들빌라트 103동 401호","category":"학원 - 예·체능계학원"},{"name":"삼성성호시스템","tel":"","addr":"경기도 의정부시 호원동 251-2번지 산내들빌라트 102동 401호","category":"용역 서비스 - 기타용역서비스"}]},{"lat":"37.707380498","long":"127.04642843","items":[{"name":"미성건업","tel":"031-878-3840","addr":"경기도 의정부시 호원동 119-13번지","category":"건축자재 - 보일러·펌프·샷시"}]},{"lat":"37.7050195","long":"127.04770845","items":[{"name":"미술의숲","tel":"031-878-8308","addr":"경기도 의정부시 호원동 465-13번지 서호빌딩 2층","category":"회원제형태 - 학원"},{"name":"호암태권도체육관","tel":"031-875-5590","addr":"경기도 의정부시 호원동 465-13번지 서호빌딩 301호","category":"학원 - 예·체능계학원"},{"name":"호원홈마트","tel":"031-875-5430","addr":"경기도 의정부시 호원동 465-13번지 1층","category":"유통업 영리 - 슈퍼마켓"}]},{"lat":"37.729435932","long":"127.04657746","items":[{"name":"미쓰 쌈박","tel":"070-8160-5796","addr":"경기도 의정부시 호원동 2-23번지 한솔엠파트 102동 201호","category":"의류 - 기타의류"}]},{"lat":"37.71365936","long":"127.04863229","items":[{"name":"미연당","tel":"031-875-2683","addr":"경기도 의정부시 호원동 450-2번지 유원아파트","category":"신변잡화 - 시계"},{"name":"세심청사우나","tel":"","addr":"경기도 의정부시 호원동 450-2번지 유원아파트 지하2층","category":"보건위생 - 사우나"},{"name":"세심청사우나이용원","tel":"","addr":"경기도 의정부시 호원동 450-2번지 상가동 지하2층 201호","category":"보건위생 - 이용원"},{"name":"애드박스","tel":"031-876-1011","addr":"경기도 의정부시 호원동 450-2번지 유원 상가 1층","category":"용역 서비스 - 종합용역"},{"name":"피자스쿨(망월사점)","tel":"031-837-3070","addr":"경기도 의정부시 호원동 450-2번지 유원 상가 101호","category":"일반휴게음식 - 서양음식"}]},{"lat":"37.721986204","long":"127.04321572","items":[{"name":"미쯔다니미용실","tel":"031-873-1570","addr":"경기도 의정부시 호원동 309-24번지 1층 102호","category":"보건위생 - 미용원"},{"name":"아지애견","tel":"031-877-7949","addr":"경기도 의정부시 호원동 309-24번지 1층","category":"문화.취미 - 애완동물"}]},{"lat":"37.713021853","long":"127.04263246","items":[{"name":"민스","tel":"070-4232-1360","addr":"경기도 의정부시 호원동 252-19번지 1층","category":"일반휴게음식 - 일반한식"},{"name":"안말쉼터","tel":"031-878-1360","addr":"경기도 의정부시 호원동 252-19번지","category":"일반휴게음식 - 스넥"}]},{"lat":"37.710352945","long":"127.04834674","items":[{"name":"민종합화장품","tel":"","addr":"경기도 의정부시 호원동 458-6번지 서하뜰 101동 204호","category":"보건위생 - 화장품"}]},{"lat":"37.725542843","long":"127.04907063","items":[{"name":"밀땅떡볶이","tel":"031-872-4542","addr":"경기도 의정부시 호원동 423-5번지","category":"일반휴게음식 - 일반한식"},{"name":"정원미용실","tel":"031-875-2927","addr":"경기도 의정부시 호원동 423-5번지","category":"보건위생 - 미용원"},{"name":"청춘태권도장","tel":"031-000-0000","addr":"경기도 의정부시 호원동 423-5번지 홍성빌딩 지하1층","category":"학원 - 예·체능계학원"},{"name":"플랜에이(PLAN A)수학학원","tel":"031-928-4123","addr":"경기도 의정부시 호원동 423-5번지 홍성빌딩 2층","category":"학원 - 보습학원"},{"name":"해바라기화원","tel":"031-875-0540","addr":"경기도 의정부시 호원동 423-5번지 홍성빌딩 1층","category":"문화.취미 - 화원"}]},{"lat":"37.728734354","long":"127.04329878","items":[{"name":"밍키즈","tel":"031-877-3266","addr":"경기도 의정부시 호원동 326-1번지","category":"의류 - 아동의류"},{"name":"셀프빨래방","tel":"070-8659-7708","addr":"경기도 의정부시 호원동 326-1번지 101호","category":"수리서비스 - 세탁소"},{"name":"제이제이헤어","tel":"031-837-2581","addr":"경기도 의정부시 호원동 326-1번지 102호","category":"보건위생 - 미용원"}]},{"lat":"37.72359732","long":"127.04765159","items":[{"name":"바디붐 휘트니스 회룡역점","tel":"031-637-9335","addr":"경기도 의정부시 호원동 428번지 지하1층(B102호,B107호)","category":"레저업소 - 헬스클럽"},{"name":"포앤시드니 호원점","tel":"031-871-1163","addr":"경기도 의정부시 호원동 428번지 상가동 203호 202호,203호","category":"일반휴게음식 - 일반한식"},{"name":"푸른누리요양보호사교육원","tel":"031-877-9366","addr":"경기도 의정부시 호원동 428번지 상가동 2층 208,209호","category":"학원 - 기능학원"},{"name":"회룡한의원","tel":"031-874-3332","addr":"경기도 의정부시 호원동 428 한주종합상가 211,214","category":"의원 - 한의원"}]},{"lat":"37.729265585","long":"127.04426327","items":[{"name":"바른평생교육원","tel":"","addr":"경기도 의정부시 호원동 346-1번지 3층","category":"학원 - 기타 교육기관"}]},{"lat":"37.711516628","long":"127.04443486","items":[{"name":"바이오테크놀로지","tel":"031-876-2150","addr":"경기도 의정부시 호원동 240-21번지 진원M 2동 302호","category":"기타 - 기타 전문점"}]},{"lat":"37.728571481","long":"127.04529514","items":[{"name":"박소현헤어샵","tel":"031-875-3730","addr":"경기도 의정부시 호원동 342-7번지","category":"보건위생 - 미용원"}]},{"lat":"37.7141828","long":"127.04629631","items":[{"name":"반죽이네","tel":"031-875-4142","addr":"경기도 의정부시 호원동 85-3번지","category":"문화.취미 - 문화취미기타"}]},{"lat":"37.726544886","long":"127.04370594","items":[{"name":"밤바다 횟집","tel":"031-826-9901","addr":"경기도 의정부시 호원동 329-6 지상1층","category":"일반휴게음식 - 일식·회집"}]},{"lat":"37.723824078","long":"127.04345491","items":[{"name":"밥맛나는세상(호원점)","tel":"031-873-7734","addr":"경기도 의정부시 호원동 313-6번지","category":"일반휴게음식 - 일반한식"},{"name":"소호헤어","tel":"031-837-5660","addr":"경기도 의정부시 호원동 313-6번지 2층","category":"보건위생 - 미용원"}]},{"lat":"37.693713402","long":"127.04504852","items":[{"name":"밧데리할인매장","tel":"031-878-2797","addr":"경기도 의정부시 호원동 195-3번지","category":"자동차정비 유지 - 자동차부품"},{"name":"엔탑모터스","tel":"031-842-9494","addr":"경기도 의정부시 호원동 195-3번지 1층 매장 일부","category":"자동차정비 유지 - 자동차부품"}]},{"lat":"37.723986239","long":"127.04348903","items":[{"name":"밸런스수학교습소","tel":"031-855-2233","addr":"경기도 의정부시 호원동 313-3번지 5층","category":"학원 - 보습학원"},{"name":"엘루이테라피","tel":"031-871-7211","addr":"경기도 의정부시 호원동 313-3번지 2층","category":"보건위생 - 피부미용실"},{"name":"타임투영어교습소","tel":"070-8841-7374","addr":"경기도 의정부시 호원동 313-3번지 4층","category":"회원제형태 - 학원"},{"name":"해법원어민중국어교습소","tel":"031-855-5153","addr":"경기도 의정부시 호원동 313-3번지 3층","category":"학원 - 외국어학원"}]},{"lat":"37.728372865","long":"127.04640668","items":[{"name":"범골건강원","tel":"031-871-5455","addr":"경기도 의정부시 호원동 5-8번지","category":"건강식품 - 기타건강식품"},{"name":"하나블라인드","tel":"031-875-9002","addr":"경기도 의정부시 호원동 5-8번지 지하1층","category":"직물 - 옷감·직물"}]},{"lat":"37.727266889","long":"127.03996306","items":[{"name":"범골생삼겹살","tel":"031-873-3838","addr":"경기도 의정부시 호원동 339-19번지","category":"일반휴게음식 - 일반한식"},{"name":"새솔학원","tel":"031-8083-5500","addr":"경기도 의정부시 호원동 339-19번지 2층","category":"학원 - 보습학원"},{"name":"샴푸헤어","tel":"031-871-2234","addr":"경기도 의정부시 호원동 339-19번지","category":"보건위생 - 미용원"},{"name":"우리축산","tel":"031-826-6222","addr":"경기도 의정부시 호원동 339-19번지","category":"음료식품 - 정육점"}]},{"lat":"37.730987654","long":"127.04056614","items":[{"name":"범골종합벽지","tel":"031-873-1478","addr":"경기도 의정부시 호원동 357-50번지","category":"직물 - 카페트,커튼,천막,지물"}]},{"lat":"37.729348137","long":"127.03985066","items":[{"name":"범골헬스대중탕","tel":"031-876-5560","addr":"경기도 의정부시 호원동 360-3번지","category":"회원제형태 - 기타4"}]},{"lat":"37.723959237","long":"127.04340961","items":[{"name":"범이네","tel":"","addr":"경기도 의정부시 호원동 313-2번지","category":"일반휴게음식 - 일반한식"}]},{"lat":"37.728931753","long":"127.04560162","items":[{"name":"범호벽지","tel":"031-872-9894","addr":"경기도 의정부시 호원동 344번지","category":"직물 - 카페트,커튼,천막,지물"},{"name":"수현헤어뱅크","tel":"070-8699-6731","addr":"경기도 의정부시 호원동 344번지 1층","category":"보건위생 - 미용원"},{"name":"카라","tel":"031-875-0482","addr":"경기도 의정부시 호원동 344번지","category":"의류 - 정장"}]},{"lat":"37.725903721","long":"127.04778909","items":[{"name":"베도베네호원점","tel":"031-829-1070","addr":"경기도 의정부시 호원동 414-9번지 준원프라자 105호","category":"보건위생 - 안경"},{"name":"오 헤어(O'Hair)","tel":"031-837-2235","addr":"경기도 의정부시 호원동 414-9번지 203,204호","category":"보건위생 - 미용원"},{"name":"오 헤어(O'Hair)","tel":"031-837-2235","addr":"경기도 의정부시 호원동 414-9번지 203,204","category":"보건위생 - 미용원"},{"name":"오헤어 위드 세인(O hair with sein)","tel":"031-1111-1111","addr":"경기도 의정부시 호원동 414-9번지 106호","category":"보건위생 - 미용원"},{"name":"준원프라자약국","tel":"031-873-9974","addr":"경기도 의정부시 호원동 414-9번지 107호,108호","category":"약국 - 약국"},{"name":"해맑은이비인후과의원","tel":"031-873-0060","addr":"경기도 의정부시 호원동 414-9번지 401(401호~402호)","category":"의원 - 의원"},{"name":"호원사랑마루요양원","tel":"031-877-1141","addr":"경기도 의정부시 호원동 414-9번지 준원프라자 5층","category":"기타의료기관 - 기타의료기관 및 기타"}]},{"lat":"37.708461141","long":"127.04778991","items":[{"name":"베스킨라빈스","tel":"031-878-8387","addr":"경기도 의정부시 호원동 464번지 1층","category":"음료식품 - 제과점"}]},{"lat":"37.708236183","long":"127.04704131","items":[{"name":"베스트마트","tel":"031-875-2962","addr":"경기도 의정부시 호원동 119-266번지","category":"유통업 영리 - 슈퍼마켓"},{"name":"비긴투블룸","tel":"070-5003-9884","addr":"경기도 의정부시 호원동 119-266번지 2층","category":"일반휴게음식 - 일반한식"},{"name":"코쿤플레이스","tel":"070-4189-9147","addr":"경기도 의정부시 호원동 119-266번지 2층","category":"일반휴게음식 - 서양음식"},{"name":"파파는 요리사","tel":"070-8260-3322","addr":"경기도 의정부시 호원동 119-266번지 지하","category":"일반휴게음식 - 서양음식"}]},{"lat":"37.708875591","long":"127.04776748","items":[{"name":"베스트샵","tel":"031-111-1111","addr":"경기도 의정부시 호원동 454-32번지","category":"유통업 영리 - 슈퍼마켓"},{"name":"수제찹쌀고로케","tel":"031-877-5180","addr":"경기도 의정부시 호원동 454-32번지 1층","category":"일반휴게음식 - 서양음식"},{"name":"이니스프리 망월사점","tel":"070-8829-5006","addr":"경기도 의정부시 호원동 454-32번지","category":"보건위생 - 화장품"},{"name":"추씨네 야채 청과","tel":"031-000-0000","addr":"경기도 의정부시 호원동 454-32번지 1층","category":"음료식품 - 농·축·수산품"},{"name":"통신히어로","tel":"031-873-5557","addr":"경기도 의정부시 호원동 454-32번지","category":"사무통신 - 통신기기"},{"name":"파리바게뜨(망월사역)","tel":"031-838-8308","addr":"경기도 의정부시 호원동 454-32번지 1층","category":"음료식품 - 제과점"}]},{"lat":"37.728680097","long":"127.04387727","items":[{"name":"벨트잉글리시학원","tel":"031-837-8300","addr":"경기도 의정부시 호원동 326-9번지 3층","category":"학원 - 보습학원"},{"name":"써밋(SUMMIT)수학학원","tel":"070-8569-6658","addr":"경기도 의정부시 호원동 326-9번지 2층","category":"학원 - 보습학원"},{"name":"이경규의 돈치킨 범골역점","tel":"031-876-9282","addr":"경기도 의정부시 호원동 326-9번지 1층","category":"일반휴게음식 - 일반한식"}]},{"lat":"37.730906539","long":"127.04065685","items":[{"name":"별빛야시장","tel":"031-8083-0017","addr":"경기도 의정부시 호원동 357-44번지 1층","category":"일반휴게음식 - 일식·회집"}]},{"lat":"37.721986169","long":"127.0433178","items":[{"name":"보리&반찬","tel":"031-836-8592","addr":"경기도 의정부시 호원동 309-23번지 외1필지","category":"일반휴게음식 - 일반한식"}]},{"lat":"37.708299144","long":"127.04732486","items":[{"name":"부광문화사","tel":"031-877-3906","addr":"경기도 의정부시 호원동 119-34번지 1층","category":"서적문구 - 출판 및 인쇄물"},{"name":"신흥 당구클럽","tel":"031-871-6696","addr":"경기도 의정부시 호원동 119-34번지 지층","category":"레저업소 - 당 구 장"},{"name":"이삭","tel":"031-873-7879","addr":"경기도 의정부시 호원동 119-34번지","category":"일반휴게음식 - 일반한식"}]},{"lat":"37.710714011","long":"127.04654379","items":[{"name":"브라더pc방","tel":"","addr":"경기도 의정부시 호원동 114-2번지 양우내안애팰리스 지하1층","category":"레저업소 - 기타레져업소"},{"name":"크로스핏 이가","tel":"031-5022-4846","addr":"경기도 의정부시 호원동 114-2번지 양우내안애팰리스 B101호","category":"회원제형태 - 레져업소"}]},{"lat":"37.712461667","long":"127.04710052","items":[{"name":"비 노래연습장","tel":"031-855-8821","addr":"경기도 의정부시 호원동 454-7번지 2층","category":"레저업소 - 노 래 방"},{"name":"치치(망월사역점)","tel":"031-871-0218","addr":"경기도 의정부시 호원동 454-7번지 1층","category":"일반휴게음식 - 일반한식"}]},{"lat":"37.706434249","long":"127.04707426","items":[{"name":"비젼 텍","tel":"031-877-3850","addr":"경기도 의정부시 호원동 130-27번지","category":"의류 - 정장"}]},{"lat":"37.702991744","long":"127.04923807","items":[{"name":"빗나라월드","tel":"070-8281-4083","addr":"경기도 의정부시 호원동 467번지 아이파크호원동 209동 1302호","category":"신변잡화 - 기타잡화"}]},{"lat":"37.707407493","long":"127.04651917","items":[{"name":"뻥카","tel":"031-871-3862","addr":"경기도 의정부시 호원동 119-301번지","category":"자동차정비 유지 - 자동차부품"}]},{"lat":"37.72629054","long":"127.04932065","items":[{"name":"뽀까뽀끄&굿샷","tel":"031-807-9981","addr":"경기도 의정부시 호원동 418-5번지 1층","category":"일반휴게음식 - 주점"},{"name":"코스모스 비젼케어","tel":"031-928-6440","addr":"경기도 의정부시 호원동 418-5번지 남영빌딩 1층","category":"보건위생 - 안경"}]},{"lat":"37.708911334","long":"127.04853865","items":[{"name":"사)아시아복지신학연구원","tel":"031-836-7474","addr":"경기도 의정부시 호원동 459-5번지 3층","category":"학원 - 기타 교육기관"},{"name":"신의주 찹쌀순대&감자탕","tel":"031-829-0050","addr":"경기도 의정부시 호원동 459-5번지","category":"일반휴게음식 - 일반한식"}]},{"lat":"37.706930677","long":"127.0446024","items":[{"name":"사구오공 생선구이","tel":"031-877-4950","addr":"경기도 의정부시 호원동 119-168번지 1층","category":"일반휴게음식 - 일반한식"}]},{"lat":"37.727240009","long":"127.03948663","items":[{"name":"사랑가득요양원","tel":"031-876-0109","addr":"경기도 의정부시 호원동 376-5번지","category":"기타의료기관 - 기타의료기관 및 기타"}]},{"lat":"37.712686928","long":"127.04704395","items":[{"name":"사뿐구두","tel":"070-8162-8265","addr":"경기도 의정부시 호원동 454-5번지 우측","category":"신변잡화 - 신발"},{"name":"엄마맘통닭","tel":"031-875-6604","addr":"경기도 의정부시 호원동 454-5번지 나동 1층","category":"일반휴게음식 - 일반한식"},{"name":"카페 까만콩","tel":"031-871-3961","addr":"경기도 의정부시 호원동 454-5번지 1층","category":"일반휴게음식 - 서양음식"}]},{"lat":"37.721652515","long":"127.04417964","items":[{"name":"사쿠라멘","tel":"031-829-5754","addr":"경기도 의정부시 호원동 309-36번지 1층 지상 1층","category":"일반휴게음식 - 일식·회집"}]},{"lat":"37.72276234","long":"127.03917818","items":[{"name":"산골보리밥","tel":"031-873-5820","addr":"경기도 의정부시 호원동 305-18번지 1층","category":"일반휴게음식 - 일반한식"}]},{"lat":"37.722041348","long":"127.03990374","items":[{"name":"산에산유황오리","tel":"031-837-5289","addr":"경기도 의정부시 호원동 307-2번지","category":"일반휴게음식 - 일반한식"}]},{"lat":"37.705987235","long":"127.03657313","items":[{"name":"산장집","tel":"031-872-9401","addr":"경기도 의정부시 호원동 229-127번지","category":"일반휴게음식 - 일반한식"}]},{"lat":"37.728878308","long":"127.04387738","items":[{"name":"삼성영어호동학원","tel":"031-855-3405","addr":"경기도 의정부시 호원동 345-32번지 2층","category":"학원 - 외국어학원"},{"name":"올리브","tel":"031-826-9506","addr":"경기도 의정부시 호원동 345-32번지 나래빌딩 1층 101호","category":"의류 - 정장"},{"name":"커피핸드","tel":"031-826-5181","addr":"경기도 의정부시 호원동 345-32번지 102호","category":"일반휴게음식 - 서양음식"}]},{"lat":"37.727095707","long":"127.03996298","items":[{"name":"삼성영어호원어학원","tel":"031-840-9905","addr":"경기도 의정부시 호원동 339-11번지","category":"학원 - 외국어학원"},{"name":"신우유통","tel":"031-872-0503","addr":"경기도 의정부시 호원동 339-11번지 1층","category":"유통업 영리 - 슈퍼마켓"},{"name":"신일유통","tel":"031-872-0503","addr":"경기도 의정부시 호원동 339-11번지","category":"유통업 영리 - 슈퍼마켓"},{"name":"호원중앙교습소","tel":"031-838-1227","addr":"경기도 의정부시 호원동 339-11번지 3층","category":"학원 - 보습학원"}]},{"lat":"37.727852849","long":"127.03887439","items":[{"name":"삼성키즈음악미술학원","tel":"031-876-9551","addr":"경기도 의정부시 호원동 377-1번지 2층","category":"학원 - 예·체능계학원"},{"name":"샹스헤어","tel":"031-874-7467","addr":"경기도 의정부시 호원동 377-1번지","category":"보건위생 - 미용원"},{"name":"영심이네건강밥집","tel":"031-826-9688","addr":"경기도 의정부시 호원동 377-1번지 1층","category":"일반휴게음식 - 일반한식"}]},{"lat":"37.694659562","long":"127.04462954","items":[{"name":"삼창슈퍼","tel":"031-872-4378","addr":"경기도 의정부시 호원동 200-45","category":"유통업 영리 - 슈퍼마켓"},{"name":"어닝","tel":"031-871-8633","addr":"경기도 의정부시 호원동 200-45","category":"기타 - 기타 전문점"}]},{"lat":"37.71940784","long":"127.04770578","items":[{"name":"삼춘컴퓨터","tel":"031-873-7114","addr":"경기도 의정부시 호원동 436-1번지 한주1차아파트","category":"사무통신 - 컴퓨터"},{"name":"정문슈퍼","tel":"031-871-3841","addr":"경기도 의정부시 호원동 436-1번지 한주 종합상가 102호","category":"유통업 영리 - 슈퍼마켓"},{"name":"한주떡방앗간","tel":"031-877-0137","addr":"경기도 의정부시 호원동 436-1한주@상가B-6","category":"음료식품 - 제과점"}]},{"lat":"37.702227293","long":"127.04562031","items":[{"name":"새벽타로","tel":"031-879-1607","addr":"경기도 의정부시 호원동 223-73번지 한빛타운 나동 703호","category":"보건위생 - 기타대인서비스"}]},{"lat":"37.728373597","long":"127.04437621","items":[{"name":"생그린","tel":"031-873-4063","addr":"경기도 의정부시 호원동 341-45번지","category":"신변잡화 - 기타잡화"}]},{"lat":"37.724346614","long":"127.04351191","items":[{"name":"서울로또","tel":"031-999-8888","addr":"경기도 의정부시 호원동 313-4번지 1층","category":"음료식품 - 기타음료식품"},{"name":"스마일꽈배기","tel":"031-875-1769","addr":"경기도 의정부시 호원동 313-4번지 1층","category":"일반휴게음식 - 일반한식"},{"name":"헤어스토리","tel":"031-875-0244","addr":"경기도 의정부시 호원동 313-4번지 2층","category":"보건위생 - 미용원"}]},{"lat":"37.692767272","long":"127.04537679","items":[{"name":"서울물류창고","tel":"02-955-2888","addr":"경기도 의정부시 호원동 173-1","category":"용역 서비스 - 보관및 창고업"}]},{"lat":"37.721876656","long":"127.0472082","items":[{"name":"선 에프 앤 디 (선 F&D)","tel":"031-000-0000","addr":"경기도 의정부시 호원동 433-3번지 4층 407호","category":"음료식품 - 기타음료식품"}]},{"lat":"37.728462494","long":"127.04765452","items":[{"name":"설렘주의","tel":"02-000-0000","addr":"경기도 의정부시 호원동 414번지 의정부호원행복주택 1층 101호102호","category":"일반휴게음식 - 서양음식"}]},{"lat":"37.706965006","long":"127.04918385","items":[{"name":"성재학원","tel":"031-826-2282","addr":"경기도 의정부시 호원동 462-33번지 2층","category":"학원 - 보습학원"},{"name":"윤미용실","tel":"031-859-8769","addr":"경기도 의정부시 호원동 462-33번지 1층","category":"보건위생 - 미용원"},{"name":"제이 에스 엠","tel":"070-8777-2116","addr":"경기도 의정부시 호원동 462-33번지 1층","category":"의류 - 정장"}]},{"lat":"37.716020133","long":"127.04796459","items":[{"name":"성휘운","tel":"","addr":"경기도 의정부시 호원동 447-13번지 로뎀하이츠빌 마동 702호","category":"레저업소 - 헬스클럽"},{"name":"주식회사 의정부화룡에프씨","tel":"02-1111-1111","addr":"경기도 의정부시 호원동 447-13번지 로뎀하이츠빌 마동 701호","category":"학원 - 예·체능계학원"},{"name":"포톤테라피샵","tel":"031-872-0905","addr":"경기도 의정부시 호원동 447-13번지 로뎀하이츠빌 마동 601호","category":"의류 - 정장"}]},{"lat":"37.719877072","long":"127.04573253","items":[{"name":"세븐일레븐의정부선민로점","tel":"031-1577-0711","addr":"경기도 의정부시 호원동 286-24번지 101호","category":"유통업 영리 - 편 의 점"}]},{"lat":"37.723014022","long":"127.04103849","items":[{"name":"세븐일레븐호원개나리점","tel":"","addr":"경기도 의정부시 호원동 308-45번지 상가 103,104호","category":"유통업 영리 - 편 의 점"},{"name":"중일타이어","tel":"031-875-0334","addr":"경기도 의정부시 호원동 308-45","category":"자동차정비 유지 - 자동차시트·타이어"}]},{"lat":"37.728373331","long":"127.04512488","items":[{"name":"소나무 중고 서점","tel":"031-876-7548","addr":"경기도 의정부시 호원동 342-15번지 지층","category":"서적문구 - 일반서적"},{"name":"안녕유리멘탈","tel":"031-875-6089","addr":"경기도 의정부시 호원동 342-15번지 1층","category":"일반휴게음식 - 일반한식"}]},{"lat":"37.725931535","long":"127.0456793","items":[{"name":"소나무한의원","tel":"031-872-9965","addr":"경기도 의정부시 호원동 10-42번지 나현빌딩 3층","category":"의원 - 한의원"},{"name":"싹쓰리솥뚜껑삼겹살","tel":"031-879-5829","addr":"경기도 의정부시 호원동 10-42번지 105호","category":"일반휴게음식 - 일반한식"},{"name":"아소비학원호원센터","tel":"","addr":"경기도 의정부시 호원동 10-42번지 203호","category":"학원 - 기타 교육기관"},{"name":"에스티알 (STR)수학학원","tel":"031-875-7771","addr":"경기도 의정부시 호원동 10-42번지 203호","category":"학원 - 보습학원"},{"name":"에프비(F.B)스퀘어","tel":"031-837-5554","addr":"경기도 의정부시 호원동 10-42번지 1층","category":"의류 - 정장"},{"name":"조이앤스위티(바디닥터)","tel":"","addr":"경기도 의정부시 호원동 10-42번지 나현빌딩 4층 1호","category":"보건위생 - 화장품"},{"name":"피플스튜디오","tel":"031-878-5254","addr":"경기도 의정부시 호원동 10-42번지 나현빌딩 2층","category":"광학제품 - 사진관"},{"name":"호원해법학원","tel":"031-875-0589","addr":"경기도 의정부시 호원동 10-42번지 나현빌딩 2층 203호","category":"회원제형태 - 학원"},{"name":"황실 후 스킨&바디","tel":"","addr":"경기도 의정부시 호원동 10-42번지 4층","category":"보건위생 - 피부미용실"}]},{"lat":"37.718768479","long":"127.04685474","items":[{"name":"소망카센타","tel":"031-878-5054","addr":"경기도 의정부시 호원동 440-1번지 소망자동차공업사","category":"자동차정비 유지 - 자동차정비"},{"name":"첨단덴트칼라매치","tel":"031-876-7704","addr":"경기도 의정부시 호원동 440-1번지 1층 일부","category":"자동차정비 유지 - 카인테리어"}]},{"lat":"37.695328058","long":"127.03924417","items":[{"name":"소망화장품 에스엠상사","tel":"031-7310-6151","addr":"경기도 의정부시 호원동 205번지","category":"보건위생 - 화장품"}]},{"lat":"37.746822767","long":"127.0507631","items":[{"name":"소중함","tel":"031-823-0702","addr":"경기도 의정부시 호원동 6-25번지 은성빌딩 1층","category":"신변잡화 - 기타잡화"}]},{"lat":"37.709327516","long":"127.04379856","items":[{"name":"소풍간김밥","tel":"070-7798-2600","addr":"경기도 의정부시 호원동 산101-1번지","category":"일반휴게음식 - 스넥"},{"name":"씨유신한대학교점","tel":"031-875-2264","addr":"경기도 의정부시 호원동 117 신흥대학에벤에셀관1층","category":"유통업 영리 - 편 의 점"},{"name":"오늘의밥상","tel":"031-000-0000","addr":"경기도 의정부시 호원동 산101-1번지 외33필지A동강의동","category":"일반휴게음식 - 일반한식"},{"name":"의정부 영상미디어센터","tel":"031-8082-8542","addr":"경기도 의정부시 호원동 산101-1번지 신한대학교 도서관 1층","category":"광학제품 - 카메라"},{"name":"차이나","tel":"","addr":"경기도 의정부시 호원동 산101-1번지 신한대학교 1층","category":"일반휴게음식 - 일반한식"},{"name":"캠퍼카페 호림관점","tel":"031-515-7888","addr":"경기도 의정부시 호원동 산101-1번지","category":"일반휴게음식 - 서양음식"},{"name":"캠퍼커피","tel":"","addr":"경기도 의정부시 호원동 산101-1번지 신한대학교 1층","category":"일반휴게음식 - 서양음식"}]},{"lat":"37.723429565","long":"127.03746576","items":[{"name":"송스키즈클럽","tel":"031-970-0778","addr":"경기도 의정부시 호원동 300-1번지","category":"학원 - 기타 교육기관"}]},{"lat":"37.703316193","long":"127.04897746","items":[{"name":"수능애(  )","tel":"031-8083-0078","addr":"경기도 의정부시 호원동 467번지 아이파크호원동 208동 902호","category":"학원 - 기타 교육기관"}]},{"lat":"37.705573073","long":"127.03557503","items":[{"name":"수암장식당","tel":"031-872-3237","addr":"경기도 의정부시 호원동 229-109번지","category":"일반휴게음식 - 일반한식"}]},{"lat":"37.713687045","long":"127.04690845","items":[{"name":"수제양정순대국","tel":"031-877-0660","addr":"경기도 의정부시 호원동 449-5번지","category":"일반휴게음식 - 일반한식"}]},{"lat":"37.730348068","long":"127.04027088","items":[{"name":"수짬뽕","tel":"031-855-5353","addr":"경기도 의정부시 호원동 357-30번지 1층","category":"일반휴게음식 - 중국식"}]},{"lat":"37.721959253","long":"127.04298885","items":[{"name":"수학원","tel":"031-877-2154","addr":"경기도 의정부시 호원동 309-27번지 3층","category":"학원 - 보습학원"},{"name":"율하네정육점","tel":"031-855-3753","addr":"경기도 의정부시 호원동 309-27번지 1층","category":"음료식품 - 정육점"},{"name":"파란시간미술학원","tel":"031-855-8831","addr":"경기도 의정부시 호원동 309-27번지","category":"학원 - 예·체능계학원"}]},{"lat":"37.705127359","long":"127.04837757","items":[{"name":"숙명피아노","tel":"031-873-7781","addr":"경기도 의정부시 호원동 466-10번지 2층","category":"회원제형태 - 학원"},{"name":"카페 더블랙 (의정부본점)","tel":"031-0000-0000","addr":"경기도 의정부시 호원동 466-10번지 1층","category":"일반휴게음식 - 서양음식"},{"name":"헤어디자인k","tel":"031-874-1588","addr":"경기도 의정부시 호원동 466-10번지 1층","category":"보건위생 - 미용원"}]},{"lat":"37.729789599","long":"127.03987357","items":[{"name":"순천농협남도김치","tel":"031-843-7711","addr":"경기도 의정부시 호원동 363-14번지","category":"음료식품 - 기타음료식품"}]},{"lat":"37.70891129","long":"127.04865206","items":[{"name":"스카이수학교습소","tel":"031-825-0759","addr":"경기도 의정부시 호원동 459-4번지 2층","category":"학원 - 보습학원"},{"name":"싱싱한야채가게","tel":"031-836-5782","addr":"경기도 의정부시 호원동 459-4번지","category":"음료식품 - 농·축·수산품"},{"name":"원푸드","tel":"02-1877-1969","addr":"경기도 의정부시 호원동 459-4번지 3층","category":"음료식품 - 기타음료식품"}]},{"lat":"37.730546332","long":"127.04010082","items":[{"name":"시네마헤어","tel":"031-111-1111","addr":"경기도 의정부시 호원동 357-12번지","category":"보건위생 - 미용원"},{"name":"오호물","tel":"031-875-8240","addr":"경기도 의정부시 호원동 357-12 2","category":"건축자재 - 인테리어전문"},{"name":"해화","tel":"031-829-9020","addr":"경기도 의정부시 호원동 357-12번지 1층","category":"일반휴게음식 - 일반한식"}]},{"lat":"37.730149886","long":"127.04018003","items":[{"name":"신가네","tel":"031-872-9291","addr":"경기도 의정부시 호원동 364-2번지","category":"일반휴게음식 - 일반한식"}]},{"lat":"37.712569795","long":"127.04706656","items":[{"name":"신가네춘천닭갈비감자탕","tel":"031-871-3140","addr":"경기도 의정부시 호원동 454-6번지","category":"일반휴게음식 - 일반한식"}]},{"lat":"37.726848599","long":"127.05065949","items":[{"name":"신도덕용세탁소","tel":"031-873-2571","addr":"경기도 의정부시 호원동 421 신도4차 202","category":"수리서비스 - 세탁소"}]},{"lat":"37.730374868","long":"127.04098555","items":[{"name":"신용자동차공업사","tel":"070-4113-4274","addr":"경기도 의정부시 호원동 357-45번지","category":"자동차정비 유지 - 자동차정비"},{"name":"청산자동차공업사","tel":"031-873-2301","addr":"경기도 의정부시 호원동 357-45번지 신용자동차공업사 103호","category":"자동차정비 유지 - 자동차정비"}]},{"lat":"37.707074016","long":"127.04684784","items":[{"name":"신우실업","tel":"031-875-5306","addr":"경기도 의정부시 호원동 119-180번지","category":"신변잡화 - 기타잡화"}]},{"lat":"37.708460427","long":"127.04962705","items":[{"name":"신일세탁소","tel":"031-837-0770","addr":"경기도 의정부시 호원동 461","category":"수리서비스 - 세탁소"},{"name":"우리헤어","tel":"031-837-0817","addr":"경기도 의정부시 호원동 461번지 신일유토빌플러스 상가동 103호","category":"보건위생 - 미용원"}]},{"lat":"37.728652982","long":"127.04412681","items":[{"name":"신일수학교습소","tel":"031-878-6717","addr":"경기도 의정부시 호원동 326-12번지 1층 상가","category":"회원제형태 - 학원"},{"name":"제이제이 가든스튜디오","tel":"","addr":"경기도 의정부시 호원동 326-12번지 4층","category":"문화.취미 - 화원"},{"name":"조이음악교습소","tel":"","addr":"경기도 의정부시 호원동 326-12번지 1층","category":"학원 - 예·체능계학원"},{"name":"토박이분식","tel":"031-855-6522","addr":"경기도 의정부시 호원동 326-12번지","category":"일반휴게음식 - 일반한식"}]},{"lat":"37.722102469","long":"127.04565441","items":[{"name":"신일할인마트","tel":"031-855-0451","addr":"경기도 의정부시 호원동 55-4번지","category":"음료식품 - 기타음료식품"},{"name":"씨유의정부신일유토빌점","tel":"031-878-8205","addr":"경기도 의정부시 호원동 55-4번지 신일유토빌상가1동 1층 102호, 103호","category":"유통업 영리 - 편 의 점"},{"name":"킹스잉글리쉬학원(King's English Mission","tel":"031-875-7328","addr":"경기도 의정부시 호원동 55-4번지 신일유토빌아파트 201호","category":"학원 - 외국어학원"}]},{"lat":"37.708236574","long":"127.04598665","items":[{"name":"신토숯불갈비","tel":"031-877-3332","addr":"경기도 의정부시 호원동 119-189번지","category":"일반휴게음식 - 일반한식"}]},{"lat":"37.722599942","long":"127.03990402","items":[{"name":"신풍","tel":"031-877-6140","addr":"경기도 의정부시 호원동 305-15번지","category":"음료식품 - 기타음료식품"}]},{"lat":"37.707659251","long":"127.04788015","items":[{"name":"신한 복사","tel":"031-878-2340","addr":"경기도 의정부시 호원동 464-9번지","category":"사무통신 - 기타 사무용품"},{"name":"코어스타","tel":"070-8728-0017","addr":"경기도 의정부시 호원동 464-9번지","category":"신변잡화 - 기타잡화"},{"name":"현미와누룽지 신한대점","tel":"031-872-2479","addr":"경기도 의정부시 호원동 464-9번지","category":"음료식품 - 농·축·수산품"}]},{"lat":"37.712408899","long":"127.04351673","items":[{"name":"신화사","tel":"031-871-0676","addr":"경기도 의정부시 호원동 249-12번지","category":"신변잡화 - 기념품점"}]},{"lat":"37.72140783","long":"127.04806994","items":[{"name":"신화학원","tel":"031-855-4976","addr":"경기도 의정부시 호원동 432-9한주4단지내상가2층","category":"학원 - 보습학원"}]},{"lat":"37.727735714","long":"127.03890836","items":[{"name":"신흥석유","tel":"031-875-8398","addr":"경기도 의정부시 호원동 377번지","category":"연료판매점 - 유류판매"}]},{"lat":"37.708434568","long":"127.04657647","items":[{"name":"심가네","tel":"031-873-9439","addr":"경기도 의정부시 호원동 119-190번지","category":"일반휴게음식 - 일반한식"}]},{"lat":"37.707822362","long":"127.04535136","items":[{"name":"싸다구수산","tel":"031-837-4942","addr":"경기도 의정부시 호원동 119-366 (망월로 18-11) 가동 지층 B101호 (호원동)","category":"일반휴게음식 - 일반한식"},{"name":"촌닭지짐이","tel":"031-846-2000","addr":"경기도 의정부시 호원동 119-366번지 신일타운하우스 가동 지하1층 101호","category":"일반휴게음식 - 일반한식"},{"name":"커피제인","tel":"031-876-3635","addr":"경기도 의정부시 호원동 119-366번지 신일타운하우스 107동 지하1층 B102호","category":"일반휴게음식 - 서양음식"}]},{"lat":"37.708299549","long":"127.04623618","items":[{"name":"쌈지마당","tel":"031-1111-1111","addr":"경기도 의정부시 호원동 119-28번지","category":"일반휴게음식 - 일반한식"}]},{"lat":"37.705906695","long":"127.03459994","items":[{"name":"쌍용산장","tel":"031-873-3624","addr":"경기도 의정부시 호원동 229-306번지","category":"일반휴게음식 - 일반한식"},{"name":"쌍용산장","tel":"031-873-3624","addr":"경기도 의정부시 호원동 229-306번지","category":"일반휴게음식 - 일반한식"}]},{"lat":"37.721986091","long":"127.04354465","items":[{"name":"쌍용자동차호원서비스프라자","tel":"031-837-5582","addr":"경기도 의정부시 호원동 309-6번지","category":"자동차정비 유지 - 자동차부품"}]},{"lat":"37.728013293","long":"127.04414914","items":[{"name":"쌍용자전거총판","tel":"031-873-7138","addr":"경기도 의정부시 호원동 340-16번지","category":"수리서비스 - 레져용품수리"}]},{"lat":"37.704272583","long":"127.04532665","items":[{"name":"씨스페이스의정부호원점","tel":"031-855-3355","addr":"경기도 의정부시 호원동 226-115번지 상가 제1호","category":"유통업 영리 - 편 의 점"}]},{"lat":"37.708020413","long":"127.04579374","items":[{"name":"씨앤씨 (c&c)헤어홀릭","tel":"031-872-7811","addr":"경기도 의정부시 호원동 119-250번지 1층","category":"보건위생 - 미용원"},{"name":"이소레스토랑","tel":"031-872-8338","addr":"경기도 의정부시 호원동 119-250번지","category":"일반휴게음식 - 일반한식"}]},{"lat":"37.723456814","long":"127.03670581","items":[{"name":"씨앤씨(C&C)","tel":"031-878-6965","addr":"경기도 의정부시 호원동 301번지","category":"의류 - 정장"}]},{"lat":"37.706938044","long":"127.04901373","items":[{"name":"씨유의정부건영점","tel":"031-878-8205","addr":"경기도 의정부시 호원동 462-35번지 1층","category":"유통업 영리 - 편 의 점"},{"name":"쟈드헤어","tel":"031-878-3283","addr":"경기도 의정부시 호원동 462-35번지 2층","category":"보건위생 - 미용원"}]},{"lat":"37.728130418","long":"127.04414921","items":[{"name":"씨유의정부범골점","tel":"031-879-1114","addr":"경기도 의정부시 호원동 340-1번지 1층","category":"유통업 영리 - 편 의 점"}]},{"lat":"37.712624604","long":"127.04501387","items":[{"name":"씨유의정부서영점","tel":"031-876-2214","addr":"경기도 의정부시 호원동 247-49번지 정웅빌딩 101호","category":"유통업 영리 - 편 의 점"}]},{"lat":"37.707182769","long":"127.04510151","items":[{"name":"씨유의정부원도봉산점","tel":"031-837-1444","addr":"경기도 의정부시 호원동 119-52번지","category":"유통업 영리 - 편 의 점"}]},{"lat":"37.729096264","long":"127.03856872","items":[{"name":"씨유의정부호원중앙점","tel":"031-837-0542","addr":"경기도 의정부시 호원동 366-18번지 1층","category":"유통업 영리 - 편 의 점"}]},{"lat":"37.72812964","long":"127.04631579","items":[{"name":"아구가좋아","tel":"031-871-0488","addr":"경기도 의정부시 호원동 5-13번지 1층","category":"일반휴게음식 - 일반한식"}]},{"lat":"37.69991143","long":"127.04668486","items":[{"name":"아름꽃다운","tel":"031-837-7731","addr":"경기도 의정부시 호원동 146-7번지","category":"문화.취미 - 화원"}]},{"lat":"37.700821747","long":"127.04574424","items":[{"name":"아름다운기획","tel":"031-876-4130","addr":"경기도 의정부시 호원동 222-2번지","category":"용역 서비스 - 종합용역"}]},{"lat":"37.706965524","long":"127.04784571","items":[{"name":"아름다운머리","tel":"031-836-3621","addr":"경기도 의정부시 호원동 464-16번지","category":"보건위생 - 미용원"}]},{"lat":"37.707604919","long":"127.04859455","items":[{"name":"아마레","tel":"031-878-5795","addr":"경기도 의정부시 호원동 463-2 463-3","category":"숙박업 - 여관/기타숙박업"}]},{"lat":"37.721264935","long":"127.0446558","items":[{"name":"아셀음악학원","tel":"031-873-1014","addr":"경기도 의정부시 호원동 309-94번지 3층","category":"학원 - 예·체능계학원"}]},{"lat":"37.723463772","long":"127.04322786","items":[{"name":"아이엠","tel":"031-875-4771","addr":"경기도 의정부시 호원동 313-37번지 쌍용스윗닷홈 101동 1310호","category":"회원제형태 - 기타4"},{"name":"알콩달콩떡","tel":"031-837-1080","addr":"경기도 의정부시 호원동 313-37번지 쌍용스윗닷홈 101동 지하2층","category":"음료식품 - 제과점"},{"name":"테르트르스튜디오 미술교습소","tel":"","addr":"경기도 의정부시 호원동 313-37번지 쌍용스윗닷홈 101동 2-10호","category":"학원 - 예·체능계학원"},{"name":"헤어장","tel":"031-837-5859","addr":"경기도 의정부시 호원동 313-37번지 쌍용스윗닷홈 101동 1-06호","category":"보건위생 - 미용원"}]},{"lat":"37.705073054","long":"127.04901257","items":[{"name":"아지트","tel":"031-875-7861","addr":"경기도 의정부시 호원동 466-16번지 대림빌딩 1층","category":"일반휴게음식 - 일반한식"},{"name":"연세태권도","tel":"031-873-0803","addr":"경기도 의정부시 호원동 466-16번지 대림빌딩 5층","category":"학원 - 예·체능계학원"},{"name":"음새피아노학원","tel":"031-877-6776","addr":"경기도 의정부시 호원동 466-16번지 2층","category":"학원 - 예·체능계학원"},{"name":"의정부MTB","tel":"031-829-0066","addr":"경기도 의정부시 호원동 466-16번지","category":"레져용품 - 스포츠·레져용품"},{"name":"키즈필","tel":"031-837-6335","addr":"경기도 의정부시 호원동 466-16번지 대림빌딩 4층","category":"일반휴게음식 - 일반한식"},{"name":"현고기","tel":"031-873-7889","addr":"경기도 의정부시 호원동 466-16번지 대림빌딩 1층 1,2호","category":"일반휴게음식 - 일반한식"}]},{"lat":"37.72454468","long":"127.0439317","items":[{"name":"아트종합인테리어","tel":"031-871-5060","addr":"경기도 의정부시 호원동 317-21 1층","category":"건축자재 - 인테리어전문"},{"name":"현대철물","tel":"031-872-4585","addr":"경기도 의정부시 호원동 317-21번지 1층 왼쪽 1층","category":"기타 - 기계공구"}]},{"lat":"37.702434411","long":"127.04590392","items":[{"name":"아티스트예도","tel":"02-4891-4911","addr":"경기도 의정부시 호원동 223-1번지 한빛타운 3동 6층 601호","category":"용역 서비스 - 종합용역"}]},{"lat":"37.713326071","long":"127.04846197","items":[{"name":"아프리카바베큐치킨","tel":"031-873-9989","addr":"경기도 의정부시 호원동 452번지","category":"일반휴게음식 - 일반한식"},{"name":"호원아트스토리미술교습소","tel":"031-873-0403","addr":"경기도 의정부시 호원동 452번지 2층 1호","category":"학원 - 예·체능계학원"},{"name":"호원태권도","tel":"031-873-0403","addr":"경기도 의정부시 호원동 452번지 3층","category":"학원 - 예·체능계학원"},{"name":"호현유통","tel":"031-877-7717","addr":"경기도 의정부시 호원동 452번지","category":"주방용구 - 주방용구"},{"name":"횡성생고기","tel":"031-826-9291","addr":"경기도 의정부시 호원동 452번지 1층","category":"일반휴게음식 - 일반한식"}]},{"lat":"37.712687602","long":"127.0452067","items":[{"name":"안마을 찜 먹거리","tel":"031-876-7952","addr":"경기도 의정부시 호원동 250-40번지 101호","category":"일반휴게음식 - 일반한식"}]},{"lat":"37.70674024","long":"127.04795897","items":[{"name":"알뜰식품점","tel":"031-872-5454","addr":"경기도 의정부시 호원동 464-18번지","category":"음료식품 - 기타음료식품"},{"name":"원진전기조명","tel":"031-837-0399","addr":"경기도 의정부시 호원동 464-18번지","category":"건축자재 - 조명기구"}]},{"lat":"37.712597672","long":"127.04474167","items":[{"name":"알리바바도넛 신한대점","tel":"","addr":"경기도 의정부시 호원동 250-37번지 1층","category":"일반휴게음식 - 서양음식"},{"name":"혜훈상회","tel":"070-7690-8515","addr":"경기도 의정부시 호원동 250-37번지","category":"의류 - 정장"}]},{"lat":"37.715073902","long":"127.04854243","items":[{"name":"알파스포츠","tel":"031-878-7729","addr":"경기도 의정부시 호원동 446번지 1층","category":"레져용품 - 스포츠·레져용품"}]},{"lat":"37.714263723","long":"127.04673867","items":[{"name":"애니카랜드 호원점","tel":"031-879-8484","addr":"경기도 의정부시 호원동 449-10번지","category":"자동차정비 유지 - 자동차부품"}]},{"lat":"37.707632896","long":"127.04607703","items":[{"name":"앤","tel":"031-877-8462","addr":"경기도 의정부시 호원동 119-49번지","category":"의류 - 정장"}]},{"lat":"37.7114345","long":"127.0472927","items":[{"name":"야미분식","tel":"031-877-7887","addr":"경기도 의정부시 호원동 454-15번지 1층","category":"일반휴게음식 - 일반한식"}]},{"lat":"37.728373489","long":"127.04468248","items":[{"name":"야한 곱창","tel":"031-877-7766","addr":"경기도 의정부시 호원동 341-36번지 1층","category":"일반휴게음식 - 일반한식"},{"name":"제이스킨케어","tel":"","addr":"경기도 의정부시 호원동 341-36번지","category":"보건위생 - 피부미용실"}]},{"lat":"37.705184734","long":"127.03876137","items":[{"name":"약산가든 흑염소","tel":"031-836-5292","addr":"경기도 의정부시 호원동 229-260번지 1층","category":"일반휴게음식 - 일반한식"}]},{"lat":"37.728853087","long":"127.03829636","items":[{"name":"약초원","tel":"","addr":"경기도 의정부시 호원동 366-13번지 2층","category":"건강식품 - 기타건강식품"}]},{"lat":"37.711930058","long":"127.04721361","items":[{"name":"어부신씨","tel":"","addr":"경기도 의정부시 호원동 454-11번지 1층","category":"일반휴게음식 - 일식·회집"}]},{"lat":"37.729654323","long":"127.04029322","items":[{"name":"어수정","tel":"031-877-5131","addr":"경기도 의정부시 호원동 360-13번지 1층","category":"일반휴게음식 - 일반한식"}]},{"lat":"37.70395549","long":"127.04995308","items":[{"name":"에스엠리테일","tel":"031-837-6009","addr":"경기도 의정부시 호원동 467번지 아이파크호원동 204동 1002호","category":"의류 - 정장"}]},{"lat":"37.729435873","long":"127.04673627","items":[{"name":"에이앤에이치정보","tel":"031-837-1647","addr":"경기도 의정부시 호원동 2-24번지 한솔엠파트 101동 201호","category":"사무통신 - 컴퓨터"}]},{"lat":"37.72386962","long":"127.04199172","items":[{"name":"에프씨가구(FC furniture)","tel":"02-2269-7888","addr":"경기도 의정부시 호원동 308-139번지 회룡역풍림아이원 204동 702호","category":"가구 - 일반가구"}]},{"lat":"37.713795379","long":"127.04631877","items":[{"name":"에프엠웰딩(FM Welding)","tel":"","addr":"경기도 의정부시 호원동 85-10번지 현대오피스텔 4층 404호","category":"수리서비스 - 기타수리서비스"}]},{"lat":"37.728706526","long":"127.04556746","items":[{"name":"엘리 (ALLY)","tel":"031-848-3415","addr":"경기도 의정부시 호원동 344-1번지 1층","category":"일반휴게음식 - 주점"}]},{"lat":"37.706516615","long":"127.04351352","items":[{"name":"엘세븐","tel":"02-2606-2331","addr":"경기도 의정부시 호원동 229-166","category":"서적문구 - 문구용품"}]},{"lat":"37.705100286","long":"127.04849095","items":[{"name":"여우네일","tel":"031-823-8990","addr":"경기도 의정부시 호원동 466-9번지 1층","category":"보건위생 - 피부미용실"}]},{"lat":"37.705436975","long":"127.03885221","items":[{"name":"연담정","tel":"031-873-2585","addr":"경기도 의정부시 호원동 229-272번지","category":"일반휴게음식 - 일반한식"}]},{"lat":"37.703415062","long":"127.04957853","items":[{"name":"연희 STYLE","tel":"","addr":"경기도 의정부시 호원동 467번지 아이파크호원동 207동 1502호","category":"의류 - 내의판매"}]},{"lat":"37.707875495","long":"127.04784626","items":[{"name":"연희옥","tel":"031-877-8653","addr":"경기도 의정부시 호원동 464-6번지 1층","category":"일반휴게음식 - 일반한식"},{"name":"정참치","tel":"031-875-3691","addr":"경기도 의정부시 호원동 464-6번지","category":"일반휴게음식 - 일식·회집"}]},{"lat":"37.715434256","long":"127.04862204","items":[{"name":"열린음악학원","tel":"031-877-5717","addr":"경기도 의정부시 호원동 445-5번지 우성빌딩 2층","category":"회원제형태 - 학원"},{"name":"유진헤어살롱","tel":"031-836-7627","addr":"경기도 의정부시 호원동 445-5번지 우성빌딩 1층","category":"보건위생 - 미용원"}]},{"lat":"37.724625774","long":"127.04390906","items":[{"name":"영덕축산","tel":"031-874-5642","addr":"경기도 의정부시 호원동 317-17번지","category":"음료식품 - 정육점"}]},{"lat":"37.712408965","long":"127.04332394","items":[{"name":"영신사","tel":"031-874-7829","addr":"경기도 의정부시 호원동 249-1번지","category":"기타 - 기타 전문점"}]},{"lat":"37.715965852","long":"127.04854298","items":[{"name":"영신슈퍼","tel":"031-874-6593","addr":"경기도 의정부시 호원동 445.102호","category":"유통업 영리 - 슈퍼마켓"}]},{"lat":"37.707073404","long":"127.04845814","items":[{"name":"영이네반찬","tel":"031-885-6053","addr":"경기도 의정부시 호원동 463-22번지","category":"음료식품 - 기타음료식품"},{"name":"홀릭엠에스","tel":"031-877-9192","addr":"경기도 의정부시 호원동 463-22번지 1층","category":"일반휴게음식 - 일반한식"}]},{"lat":"37.719769117","long":"127.04529012","items":[{"name":"영인건업","tel":"031-871-2625","addr":"경기도 의정부시 호원동 284-1번지","category":"기타 - 기타 전문점"}]},{"lat":"37.728429135","long":"127.03992961","items":[{"name":"영제한의원","tel":"031-872-2585","addr":"경기도 의정부시 호원동 372번지 2층","category":"의원 - 한의원"},{"name":"전설의짬뽕","tel":"031-856-5566","addr":"경기도 의정부시 호원동 372번지 1층","category":"일반휴게음식 - 중국식"}]},{"lat":"37.726155711","long":"127.0485152","items":[{"name":"오도주유소","tel":"031-876-9000","addr":"경기도 의정부시 호원동 417번지","category":"연료판매점 - 주유소"},{"name":"우림한의원","tel":"031-874-4334","addr":"경기도 의정부시 호원동 417번지 오도빌딩 3층","category":"의원 - 한의원"},{"name":"이남기정형외과","tel":"031-871-8275","addr":"경기도 의정부시 호원동 417번지","category":"의원 - 의원"}]},{"lat":"37.707685851","long":"127.04899151","items":[{"name":"오땡큐염색전문점","tel":"031-877-3678","addr":"경기도 의정부시 호원동 462번지 1층","category":"보건위생 - 미용원"},{"name":"형제고기마루","tel":"031-837-6798","addr":"경기도 의정부시 호원동 462번지","category":"음료식품 - 정육점"}]},{"lat":"37.727546931","long":"127.03751305","items":[{"name":"오리골 보궁","tel":"031-879-7788","addr":"경기도 의정부시 호원동 381-4번지","category":"일반휴게음식 - 일반한식"},{"name":"형제 참 숯불갈비","tel":"031-879-7788","addr":"경기도 의정부시 호원동 381-4번지 1층","category":"일반휴게음식 - 일반한식"}]},{"lat":"37.705076708","long":"127.03846648","items":[{"name":"오리야","tel":"031-873-7773","addr":"경기도 의정부시 호원동 229-258번지","category":"일반휴게음식 - 일반한식"},{"name":"오리야2","tel":"031-873-7773","addr":"경기도 의정부시 호원동 229-258번지 2층","category":"일반휴게음식 - 일반한식"}]},{"lat":"37.711462406","long":"127.0448998","items":[{"name":"오면돼지","tel":"031-872-3839","addr":"경기도 의정부시 호원동 247-12번지 진성빌딩 1층","category":"일반휴게음식 - 일반한식"}]},{"lat":"37.720209933","long":"127.0470711","items":[{"name":"오토오아시스 호원점","tel":"031-829-5777","addr":"경기도 의정부시 호원동 435","category":"자동차정비 유지 - 자동차정비"},{"name":"지에스칼텍스(주)호원주유소","tel":"031-879-5189","addr":"경기도 의정부시 호원동 435번지","category":"연료판매점 - GS주유소"},{"name":"지에스칼텍스(주)호원주유소","tel":"031-879-5189","addr":"경기도 의정부시 호원동 435번지","category":"연료판매점 - 전기차충전소"},{"name":"지에스호원","tel":"031-879-5189","addr":"경기도 의정부시 호원동 435번지","category":"자동차정비 유지 - 자동차부품"}]},{"lat":"37.708605104","long":"127.04828897","items":[{"name":"온새미","tel":"031-874-4757","addr":"경기도 의정부시 호원동 460-27번지","category":"보건위생 - 화장품"}]},{"lat":"37.708326748","long":"127.04577124","items":[{"name":"옻초식품","tel":"","addr":"경기도 의정부시 호원동 119-139번지 1층","category":"건강식품 - 기타건강식품"}]},{"lat":"37.714290928","long":"127.04626235","items":[{"name":"왔다분식","tel":"031-877-9556","addr":"경기도 의정부시 호원동 85-1","category":"일반휴게음식 - 일반한식"}]},{"lat":"37.708604985","long":"127.04859516","items":[{"name":"왕십리곱창마을","tel":"","addr":"경기도 의정부시 호원동 460-4번지 1층","category":"일반휴게음식 - 일반한식"},{"name":"유메노스시","tel":"070-7420-3340","addr":"경기도 의정부시 호원동 460-4번지","category":"일반휴게음식 - 일식·회집"}]},{"lat":"37.708019648","long":"127.04784634","items":[{"name":"우럭회전문점","tel":"031-879-8856","addr":"경기도 의정부시 호원동 464-5번지","category":"일반휴게음식 - 일식·회집"},{"name":"타임(TIME)","tel":"031-875-1613","addr":"경기도 의정부시 호원동 464-5번지","category":"의류 - 정장"},{"name":"효선부띠끄","tel":"","addr":"경기도 의정부시 호원동 464-5번지","category":"의류 - 맞춤복점"}]},{"lat":"37.728372785","long":"127.04662221","items":[{"name":"우리밥상/우리협동조합","tel":"031-873-5025","addr":"경기도 의정부시 호원동 5-10번지 1층","category":"일반휴게음식 - 일반한식"}]},{"lat":"37.713209784","long":"127.04623904","items":[{"name":"우리집청소","tel":"","addr":"경기도 의정부시 호원동 85-30번지 태진오피스텔 301호","category":"용역 서비스 - 종합용역"}]},{"lat":"37.708767476","long":"127.04776741","items":[{"name":"우사기짱","tel":"001-0000-0000","addr":"경기도 의정부시 호원동 454-33번지 2층","category":"일반휴게음식 - 일반한식"},{"name":"호원정보통신","tel":"031-837-7011","addr":"경기도 의정부시 호원동 454-33번지 1층","category":"사무통신 - 통신기기"}]},{"lat":"37.708263561","long":"127.04610007","items":[{"name":"우성치킨","tel":"031-872-8036","addr":"경기도 의정부시 호원동 119-188번지","category":"일반휴게음식 - 스넥"}]},{"lat":"37.720076038","long":"127.04360031","items":[{"name":"우정사","tel":"031-875-7990","addr":"경기도 의정부시 호원동 281-56","category":"자동차정비 유지 - 자동차부품"}]},{"lat":"37.728905242","long":"127.04414964","items":[{"name":"우주종합설비공사","tel":"031-871-4664","addr":"경기도 의정부시 호원동 345-19번지","category":"건축자재 - 보일러·펌프·샷시"}]},{"lat":"37.729067509","long":"127.04387748","items":[{"name":"우포","tel":"031-837-5775","addr":"경기도 의정부시 호원동 345-8번지 1층 지상 1층","category":"일반휴게음식 - 일반한식"},{"name":"청미트","tel":"031-878-8690","addr":"경기도 의정부시 호원동 345-8번지","category":"음료식품 - 정육점"},{"name":"쿠방","tel":"031-7656-9398","addr":"경기도 의정부시 호원동 345-8번지","category":"문화.취미 - 민예·공예품"}]},{"lat":"37.708353557","long":"127.0463723","items":[{"name":"원도봉산감자탕","tel":"031-873-7830","addr":"경기도 의정부시 호원동 119-192번지","category":"일반휴게음식 - 일반한식"}]},{"lat":"37.728156719","long":"127.04617969","items":[{"name":"원큐","tel":"","addr":"경기도 의정부시 호원동 5-12번지 1층","category":"레져용품 - 스포츠·레져용품"}]},{"lat":"37.713298967","long":"127.04865475","items":[{"name":"월드자동차마을","tel":"031-872-4366","addr":"경기도 의정부시 호원동 452-10번지","category":"자동차정비 유지 - 자동차정비"}]},{"lat":"37.721904588","long":"127.04473556","items":[{"name":"월드카마스타","tel":"031-872-6049","addr":"경기도 의정부시 호원동 311-7번지","category":"자동차정비 유지 - 자동차정비"}]},{"lat":"37.727706553","long":"127.04531733","items":[{"name":"위드미 회룡점","tel":"","addr":"경기도 의정부시 호원동 6-11번지 1층","category":"유통업 영리 - 편 의 점"}]},{"lat":"37.728149906","long":"127.03971395","items":[{"name":"유니크","tel":"031-859-5817","addr":"경기도 의정부시 호원동 375번지 호원가든빌라 401동 203호","category":"전기제품 - 냉열기기"}]},{"lat":"37.703380146","long":"127.04665288","items":[{"name":"유성샷다","tel":"031-872-1443","addr":"경기도 의정부시 호원동 226-29번지 호원쉐르빌 1층","category":"건축자재 - 기타건축자재"}]},{"lat":"37.708741621","long":"127.04456939","items":[{"name":"유엔아이미디어","tel":"031-826-9847","addr":"경기도 의정부시 호원동 119-151번지 경기북부벤쳐센터 106호","category":"용역 서비스 - 소프트웨어"},{"name":"주식회사 한울아이티","tel":"031-875-8222","addr":"경기도 의정부시 호원동 119-151번지 101호","category":"사무통신 - 컴퓨터"},{"name":"주식회사헤르메시스","tel":"031-837-7102","addr":"경기도 의정부시 호원동 119-151번지 205호 , 경기중소기업종합지원센터북부지소","category":"용역 서비스 - 소프트웨어"}]},{"lat":"37.70846095","long":"127.04828889","items":[{"name":"육전해전공중전","tel":"031-873-0909","addr":"경기도 의정부시 호원동 460-34번지 1층","category":"일반휴게음식 - 일반한식"}]},{"lat":"37.72924054","long":"127.03816042","items":[{"name":"은아의 옷방","tel":"031-000-0000","addr":"경기도 의정부시 호원동 367-1번지 뉴그린빌라 1층 102호","category":"의류 - 정장"},{"name":"포시즌 살롱","tel":"","addr":"경기도 의정부시 호원동 367-1번지 뉴그린빌라 1층 101호","category":"일반휴게음식 - 서양음식"}]},{"lat":"37.714408053","long":"127.04626242","items":[{"name":"은혜문구점","tel":"031-878-2142","addr":"경기도 의정부시 호원동 258-6번지","category":"서적문구 - 문구용품"}]},{"lat":"37.706714515","long":"127.04440949","items":[{"name":"의정부싸리집","tel":"031-874-6600","addr":"경기도 의정부시 호원동 227-9번지","category":"일반휴게음식 - 일반한식"}]},{"lat":"37.728372731","long":"127.04676967","items":[{"name":"의정부협동조합","tel":"031-846-4242","addr":"경기도 의정부시 호원동 5-11번지","category":"음료식품 - 기타음료식품"}]},{"lat":"37.724679431","long":"127.04504338","items":[{"name":"이가쭈꾸미","tel":"031-829-6982","addr":"경기도 의정부시 호원동 316-107번지","category":"일반휴게음식 - 일반한식"},{"name":"회룡전통순대국","tel":"031-877-0997","addr":"경기도 의정부시 호원동 316-107번지","category":"일반휴게음식 - 일반한식"}]},{"lat":"37.721652555","long":"127.04406622","items":[{"name":"이디야 의정부 호원중앙점","tel":"031-855-2948","addr":"경기도 의정부시 호원동 309-21번지 1층","category":"일반휴게음식 - 서양음식"}]},{"lat":"37.720984715","long":"127.04718498","items":[{"name":"이레네뷰티","tel":"031-321-9478","addr":"경기도 의정부시 호원동 434-2번지 3층","category":"직물 - 침구·수예점"}]},{"lat":"37.728797222","long":"127.04387733","items":[{"name":"이레전기철물","tel":"031-875-3436","addr":"경기도 의정부시 호원동 326-27번지","category":"건축자재 - 목재·석재·철물"},{"name":"헤어살롱 미휴","tel":"031-848-4090","addr":"경기도 의정부시 호원동 326-27번지","category":"보건위생 - 미용원"}]},{"lat":"37.728373449","long":"127.04479592","items":[{"name":"이루다헤어","tel":"031-875-3644","addr":"경기도 의정부시 호원동 341-49번지 1층","category":"보건위생 - 미용원"}]},{"lat":"37.729069345","long":"127.03820571","items":[{"name":"이룸","tel":"","addr":"경기도 의정부시 호원동 367-18번지 1층","category":"일반휴게음식 - 서양음식"},{"name":"청산유통","tel":"","addr":"경기도 의정부시 호원동 367-18번지 6호","category":"음료식품 - 농·축·수산품"}]},{"lat":"37.728463366","long":"127.04529508","items":[{"name":"이수진헤어","tel":"031-872-5382","addr":"경기도 의정부시 호원동 342-11번지 1층","category":"보건위생 - 미용원"},{"name":"태창식당","tel":"031-829-0070","addr":"경기도 의정부시 호원동 342-11번지 1층","category":"일반휴게음식 - 일반한식"}]},{"lat":"37.728877819","long":"127.04526128","items":[{"name":"이엠씨보습학원","tel":"031-871-0734","addr":"경기도 의정부시 호원동 341-12번지 4층","category":"학원 - 보습학원"},{"name":"장상궁김밥","tel":"031-877-6595","addr":"경기도 의정부시 호원동 341-12번지 1층","category":"일반휴게음식 - 일반한식"},{"name":"화이팅곱창 (호원점)","tel":"031-876-6171","addr":"경기도 의정부시 호원동 341-12번지 1층 우측","category":"일반휴게음식 - 일반한식"},{"name":"힐스템 의정부센타","tel":"031-875-0321","addr":"경기도 의정부시 호원동 341-12번지 1층","category":"전기제품 - 기타전기제품"}]},{"lat":"37.711128152","long":"127.04734923","items":[{"name":"이엠아이전기","tel":"031-837-2008","addr":"경기도 의정부시 호원동 454-17번지","category":"건축자재 - 조명기구"}]},{"lat":"37.728373637","long":"127.04426278","items":[{"name":"이즈솔루션","tel":"031-879-1006","addr":"경기도 의정부시 호원동 341-32번지","category":"사무통신 - 사무용 OA기기"}]},{"lat":"37.705380435","long":"127.04623448","items":[{"name":"이지공사","tel":"031-871-9923","addr":"경기도 의정부시 호원동 226-8번지 12/6","category":"용역 서비스 - 기타용역서비스"}]},{"lat":"37.728933288","long":"127.04113227","items":[{"name":"이화가정의학과의원","tel":"031-872-5782","addr":"경기도 의정부시 호원동 360번지 호원가든아파트 상가 2층 203호","category":"의원 - 의원"}]},{"lat":"37.710875862","long":"127.04740578","items":[{"name":"일오삼토탈인테리어","tel":"031-877-0153","addr":"경기도 의정부시 호원동 454-21번지","category":"직물 - 카페트,커튼,천막,지물"},{"name":"카미고","tel":"031-826-5804","addr":"경기도 의정부시 호원동 454-21번지","category":"자동차정비 유지 - 자동차부품"}]},{"lat":"37.728988132","long":"127.03862538","items":[{"name":"일창디자인","tel":"02-407-4495","addr":"경기도 의정부시 호원동 366-20번지 1층","category":"건축자재 - 인테리어전문"},{"name":"치킨올","tel":"031-855-9982","addr":"경기도 의정부시 호원동 366-20번지 1층","category":"일반휴게음식 - 일반한식"}]},{"lat":"37.726436071","long":"127.04567959","items":[{"name":"자르젠헤어","tel":"","addr":"경기도 의정부시 호원동 332-5번지 진원빌라 상가 103호","category":"보건위생 - 미용원"},{"name":"점촌구석삼겹살","tel":"031-876-8844","addr":"경기도 의정부시 호원동 332-5번지 진원빌라 1층 102호","category":"일반휴게음식 - 일반한식"},{"name":"점촌정육점","tel":"031-876-8844","addr":"경기도 의정부시 호원동 332-5번지 진원빌라 1층 101호","category":"음료식품 - 정육점"},{"name":"토브","tel":"031-111-1111","addr":"경기도 의정부시 호원동 332-5번지 진원빌라 제상가 1층 103호","category":"신변잡화 - 기타잡화"}]},{"lat":"37.728976781","long":"127.04565836","items":[{"name":"장군족발","tel":"031-826-2989","addr":"경기도 의정부시 호원동 344번지 가동1층일부","category":"일반휴게음식 - 일반한식"},{"name":"피치맘","tel":"031-878-0082","addr":"경기도 의정부시 호원동 344번지 가동 1층","category":"일반휴게음식 - 스넥"}]},{"lat":"37.727375272","long":"127.03910103","items":[{"name":"장미약국","tel":"031-877-0513","addr":"경기도 의정부시 호원동 376-13","category":"약국 - 약국"}]},{"lat":"37.707686431","long":"127.04748325","items":[{"name":"장병장과돼지불백","tel":"031-855-6240","addr":"경기도 의정부시 호원동 119-2번지","category":"일반휴게음식 - 일반한식"}]},{"lat":"37.710326233","long":"127.04751886","items":[{"name":"장수건재","tel":"031-872-2022","addr":"경기도 의정부시 호원동 454-22번지","category":"건축자재 - 기타건축자재"}]},{"lat":"37.707101751","long":"127.04490868","items":[{"name":"장수원명물부대찌개","tel":"031-836-5399","addr":"경기도 의정부시 호원동 119-67번지","category":"일반휴게음식 - 일반한식"}]},{"lat":"37.710794564","long":"127.04796143","items":[{"name":"전원식당","tel":"031-873-6317","addr":"경기도 의정부시 호원동 458-13번지","category":"일반휴게음식 - 일반한식"},{"name":"황소화로구이","tel":"031-876-9200","addr":"경기도 의정부시 호원동 458-13번지","category":"일반휴게음식 - 일반한식"}]},{"lat":"37.72104847","long":"127.04531354","items":[{"name":"제이헤어샵","tel":"031-837-9972","addr":"경기도 의정부시 호원동 55-4번지 신일유토빌아파트 2동 103호","category":"보건위생 - 미용원"}]},{"lat":"37.707127684","long":"127.04787983","items":[{"name":"제일상사","tel":"031-875-2050","addr":"경기도 의정부시 호원동 464-14번지","category":"기타 - 기계공구"}]},{"lat":"37.71287657","long":"127.04585325","items":[{"name":"젝스인터내셔널","tel":"031-829-2205","addr":"경기도 의정부시 호원동 86-7번지 202호","category":"회원제형태 - 기타4"}]},{"lat":"37.726047875","long":"127.04778918","items":[{"name":"조마루감자탕","tel":"031-826-6522","addr":"경기도 의정부시 호원동 414-8번지","category":"일반휴게음식 - 일반한식"}]},{"lat":"37.729681309","long":"127.04042935","items":[{"name":"조선일보남의정부지국","tel":"031-871-4423","addr":"경기도 의정부시 호원동 360-2번지","category":"서적문구 - 정기간행물"}]},{"lat":"37.710902701","long":"127.04790479","items":[{"name":"조은차","tel":"031-874-1121","addr":"경기도 의정부시 호원동 458번지","category":"자동차정비 유지 - 자동차정비"}]},{"lat":"37.708020126","long":"127.04657623","items":[{"name":"종이밥 신한대점","tel":"031-837-0707","addr":"경기도 의정부시 호원동 119-39번지 1층 지상","category":"일반휴게음식 - 일반한식"}]},{"lat":"37.727709353","long":"127.03665103","items":[{"name":"주식회사 변소","tel":"031-829-9494","addr":"경기도 의정부시 호원동 381-7번지","category":"건축자재 - 건축용 요업제품"}]},{"lat":"37.710488216","long":"127.04801795","items":[{"name":"주식회사 브이탑코퍼레이션","tel":"02-825-8253","addr":"경기도 의정부시 호원동 458-19번지 정은펠리체 B층 203호","category":"사무통신 - 통신기기"}]},{"lat":"37.727733639","long":"127.04515854","items":[{"name":"주식회사 씨앤미트","tel":"031-876-9245","addr":"경기도 의정부시 호원동 340-45번지","category":"음료식품 - 정육점"}]},{"lat":"37.728129472","long":"127.04676953","items":[{"name":"주식회사 오앤오(O.N.O CO.,LTD)","tel":"070-4327-3107","addr":"경기도 의정부시 호원동 5-21번지 2층","category":"신변잡화 - 기타잡화"}]},{"lat":"37.707848604","long":"127.04748335","items":[{"name":"주식회사베스트렌트카","tel":"031-1544-8207","addr":"경기도 의정부시 호원동 119-15번지","category":"여행 - 렌터카"},{"name":"호원유리상회","tel":"031-873-5611","addr":"경기도 의정부시 호원동 119-15번지","category":"건축자재 - 유리"}]},{"lat":"37.695461487","long":"127.04443723","items":[{"name":"주식회사상봉기업","tel":"031-871-7131","addr":"경기도 의정부시 호원동 202-1번지","category":"건축자재 - 유리"}]},{"lat":"37.725985112","long":"127.04698378","items":[{"name":"주식회사아디아쥬얼리","tel":"031-837-9114","addr":"경기도 의정부시 호원동 10-36번지 201호","category":"신변잡화 - 귀금속"}]},{"lat":"37.728372969","long":"127.0461231","items":[{"name":"주은물산","tel":"070-8841-1999","addr":"경기도 의정부시 호원동 5번지 1층","category":"신변잡화 - 기타잡화"}]},{"lat":"37.706077253","long":"127.03684534","items":[{"name":"주차장집식당","tel":"031-873-3165","addr":"경기도 의정부시 호원동 229-105번지","category":"일반휴게음식 - 일반한식"}]},{"lat":"37.724956825","long":"127.05006845","items":[{"name":"줄리아드음악학원","tel":"031-876-0669","addr":"경기도 의정부시 호원동 424-1 우남상가3층","category":"학원 - 예·체능계학원"}]},{"lat":"37.705713932","long":"127.04584911","items":[{"name":"중앙푸드","tel":"070-4624-0964","addr":"경기도 의정부시 호원동 226-11번지 104동 291호","category":"음료식품 - 기타음료식품"}]},{"lat":"37.705599142","long":"127.03887497","items":[{"name":"진고개 (퓨전한정식)","tel":"031-873-4100","addr":"경기도 의정부시 호원동 229-271번지 1층","category":"일반휴게음식 - 일반한식"}]},{"lat":"37.707821167","long":"127.04854932","items":[{"name":"짜글짜글 뽀글뽀글 양푼물갈비 짜글이 매운","tel":"02-1577-0000","addr":"경기도 의정부시 호원동 460-18번지 1층","category":"일반휴게음식 - 일반한식"}]},{"lat":"37.728879982","long":"127.03873877","items":[{"name":"착한","tel":"","addr":"경기도 의정부시 호원동 366-15번지 2층","category":"보건위생 - 화장품"},{"name":"카페 모드니","tel":"031-000-0000","addr":"경기도 의정부시 호원동 366-15번지 1층","category":"일반휴게음식 - 서양음식"},{"name":"호원덴트칼라","tel":"031-875-4743","addr":"경기도 의정부시 호원동 366-15번지","category":"자동차정비 유지 - 자동차정비"}]},{"lat":"37.704065251","long":"127.04563271","items":[{"name":"착한도배장판마루페인트커튼블라인드탄성코","tel":"","addr":"경기도 의정부시 호원동 226-275번지 가동 502호","category":"건축자재 - 인테리어전문"}]},{"lat":"37.727555657","long":"127.03846589","items":[{"name":"착한에어컨설치소","tel":"","addr":"경기도 의정부시 호원동 378-1번지 호원노블리안 A동 601호","category":"용역 서비스 - 기타용역서비스"}]},{"lat":"37.693605217","long":"127.04524121","items":[{"name":"찬지광고","tel":"031-875-8782","addr":"경기도 의정부시 호원동 194-4번지","category":"건축자재 - 인테리어전문"}]},{"lat":"37.729679679","long":"127.04523905","items":[{"name":"창의과학연구회","tel":"031-000-0000","addr":"경기도 의정부시 호원동 347-1번지 호원두산아파트 102동 1902호","category":"서적문구 - 과학기자재"}]},{"lat":"37.727987965","long":"127.0389652","items":[{"name":"창호창호이창호","tel":"","addr":"경기도 의정부시 호원동 377-20번지","category":"용역 서비스 - 기타용역서비스"}]},{"lat":"37.702191189","long":"127.04580172","items":[{"name":"채민시스템","tel":"","addr":"경기도 의정부시 호원동 223-72번지 한빛타운 라동 201호","category":"전기제품 - 냉열기기"}]},{"lat":"37.694488399","long":"127.04457275","items":[{"name":"천지카에어컨","tel":"031-872-5050","addr":"경기도 의정부시 호원동 200-29번지 1층","category":"자동차정비 유지 - 자동차부품"}]},{"lat":"37.712903167","long":"127.0470214","items":[{"name":"철수머리","tel":"031-825-0609","addr":"경기도 의정부시 호원동 454-2번지 1층","category":"보건위생 - 미용원"}]},{"lat":"37.730959197","long":"127.04479737","items":[{"name":"철순이네김치찌개","tel":"031-000-0000","addr":"경기도 의정부시 호원동 353-79번지 1층","category":"일반휴게음식 - 일반한식"},{"name":"카라헤어","tel":"031-111-2222","addr":"경기도 의정부시 호원동 353-79번지 1층","category":"보건위생 - 미용원"}]},{"lat":"37.70373147","long":"127.04678916","items":[{"name":"청원아쿠아","tel":"031-000-0000","addr":"경기도 의정부시 호원동 226-256번지 라벨르빌 B동 502호","category":"용역 서비스 - 종합용역"}]},{"lat":"37.72806777","long":"127.04293543","items":[{"name":"치킨마루 범골역점","tel":"031-837-1231","addr":"경기도 의정부시 호원동 325-8번지 1층","category":"일반휴게음식 - 스넥"}]},{"lat":"37.704209144","long":"127.04634719","items":[{"name":"친미세계","tel":"","addr":"경기도 의정부시 호원동 226-257번지 삼익캐슬 204동 302호","category":"일반휴게음식 - 서양음식"}]},{"lat":"37.711587099","long":"127.04876711","items":[{"name":"카트카인테리어","tel":"031-826-8246","addr":"경기도 의정부시 호원동 456-3호원신일A101-904","category":"회원제형태 - 기타4"}]},{"lat":"37.72726808","long":"127.03595889","items":[{"name":"카페 리브로","tel":"031-837-9779","addr":"경기도 의정부시 호원동 386-1번지 지상 1,2층","category":"일반휴게음식 - 서양음식"}]},{"lat":"37.707767366","long":"127.04788021","items":[{"name":"카페3355","tel":"070-4133-1065","addr":"경기도 의정부시 호원동 464-7번지 1층","category":"일반휴게음식 - 일반한식"}]},{"lat":"37.708155557","long":"127.04579382","items":[{"name":"칼국수앤연어","tel":"070-7469-5050","addr":"경기도 의정부시 호원동 119-246번지","category":"일반휴게음식 - 일반한식"}]},{"lat":"37.708127432","long":"127.04870828","items":[{"name":"칼튼","tel":"031-873-0080","addr":"경기도 의정부시 호원동 460-14번지","category":"숙박업 - 여관/기타숙박업"}]},{"lat":"37.71351606","long":"127.04637531","items":[{"name":"커피앤바리스타학원","tel":"031-824-1175","addr":"경기도 의정부시 호원동 85-19번지 의송빌딩 5층","category":"학원 - 기능학원"}]},{"lat":"37.695939349","long":"127.04342838","items":[{"name":"코맥스전자","tel":"031-841-5006","addr":"경기도 의정부시 호원동 204-5번지 1호","category":"사무통신 - 통신기기"}]},{"lat":"37.70443309","long":"127.04972658","items":[{"name":"코콤수원센터","tel":"031-323-0222","addr":"경기도 의정부시 호원동 467번지 아이파크호원동 202동 1502호","category":"수리서비스 - 가정용품수리"}]},{"lat":"37.710938613","long":"127.04823369","items":[{"name":"콩마루감자탕의정부직영점","tel":"031-877-0122","addr":"경기도 의정부시 호원동 458-2번지 1층","category":"일반휴게음식 - 일반한식"},{"name":"호원정육점","tel":"031-837-1929","addr":"경기도 의정부시 호원동 458-2번지","category":"음료식품 - 정육점"}]},{"lat":"37.730600275","long":"127.04046385","items":[{"name":"크린매니저","tel":"031-829-3853","addr":"경기도 의정부시 호원동 357-5번지 에비뉴빌","category":"수리서비스 - 세탁소"}]},{"lat":"37.728348365","long":"127.03890866","items":[{"name":"크린스피드","tel":"031-871-3255","addr":"경기도 의정부시 호원동 377-8번지","category":"수리서비스 - 세탁소"},{"name":"티나","tel":"070-8666-4178","addr":"경기도 의정부시 호원동 377-8번지 103호","category":"의류 - 정장"}]},{"lat":"37.729510838","long":"127.03812652","items":[{"name":"크린토피아 코인워시 의정부롯데캐슬점","tel":"031-875-8300","addr":"경기도 의정부시 호원동 367-53번지 103,104호","category":"수리서비스 - 세탁소"}]},{"lat":"37.710767738","long":"127.0474284","items":[{"name":"큰맘할매순대국 신한대점","tel":"031-877-5821","addr":"경기도 의정부시 호원동 454-35번지 1층","category":"일반휴게음식 - 일반한식"}]},{"lat":"37.729238703","long":"127.04384354","items":[{"name":"킴스자동차서비스","tel":"031-837-7670","addr":"경기도 의정부시 호원동 346-19번지","category":"자동차정비 유지 - 자동차정비"}]},{"lat":"37.728130052","long":"127.04518145","items":[{"name":"토크쇼","tel":"031-876-9935","addr":"경기도 의정부시 호원동 340-31번지 1층","category":"일반휴게음식 - 일반한식"}]},{"lat":"37.707046576","long":"127.04793648","items":[{"name":"통일순대국","tel":"031-875-7654","addr":"경기도 의정부시 호원동 464-15번지 1층","category":"일반휴게음식 - 일반한식"}]},{"lat":"37.710569514","long":"127.0474623","items":[{"name":"투셰링","tel":"031-1111-1111","addr":"경기도 의정부시 호원동 454-37번지 1층","category":"일반휴게음식 - 일반한식"}]},{"lat":"37.710434361","long":"127.0474849","items":[{"name":"투페이스","tel":"031-876-4824","addr":"경기도 의정부시 호원동 454-40번지 1층","category":"자동차정비 유지 - 세차장"}]},{"lat":"37.72293334","long":"127.03976808","items":[{"name":"트레인","tel":"061-872-3904","addr":"경기도 의정부시 호원동 305-23번지","category":"자동차정비 유지 - 자동차부품"}]},{"lat":"37.707046354","long":"127.04851483","items":[{"name":"티존유통","tel":"031-822-7474","addr":"경기도 의정부시 호원동 463-24번지","category":"음료식품 - 기타음료식품"}]},{"lat":"37.711930852","long":"127.0450475","items":[{"name":"파니파니학원","tel":"031-837-5553","addr":"경기도 의정부시 호원동 247-9번지","category":"학원 - 보습학원"}]},{"lat":"37.725020394","long":"127.04879808","items":[{"name":"파리바게뜨한승점","tel":"031-876-8242","addr":"경기도 의정부시 호원동 425-2 한승프라자 103호~104호","category":"음료식품 - 제과점"}]},{"lat":"37.724517797","long":"127.043512","items":[{"name":"파브PC방","tel":"070-2000-7519","addr":"경기도 의정부시 호원동 318-5번지 3층","category":"레저업소 - 기타레져업소"},{"name":"홀인원","tel":"031-871-0731","addr":"경기도 의정부시 호원동 318-5번지 외1필지 2층","category":"레저업소 - 노 래 방"}]},{"lat":"37.720768009","long":"127.0484325","items":[{"name":"페리카나","tel":"031-871-1717","addr":"경기도 의정부시 호원동 431-2번지","category":"일반휴게음식 - 스넥"}]},{"lat":"37.694911626","long":"127.04520793","items":[{"name":"평안상회","tel":"031-875-4240","addr":"경기도 의정부시 호원동 187-5번지","category":"신변잡화 - 기타잡화"}]},{"lat":"37.730905248","long":"127.04449106","items":[{"name":"푸드메이킹코리아","tel":"070-8804-7400","addr":"경기도 의정부시 호원동 353-24번지","category":"일반휴게음식 - 일반한식"}]},{"lat":"37.704487945","long":"127.04767411","items":[{"name":"푸드탱크(FoodTank)","tel":"02-6340-5385","addr":"경기도 의정부시 호원동 468-16번지 재이에스홈타운C 2동 301호","category":"신변잡화 - 액세서리"}]},{"lat":"37.727904401","long":"127.04631566","items":[{"name":"풍년떡방앗간","tel":"031-878-6960","addr":"경기도 의정부시 호원동 6-22번지","category":"음료식품 - 제과점"}]},{"lat":"37.707911298","long":"127.04845866","items":[{"name":"퓨전여관","tel":"031-879-9641","addr":"경기도 의정부시 호원동 460-19번지","category":"숙박업 - 여관/기타숙박업"}]},{"lat":"37.715505932","long":"127.04964282","items":[{"name":"피오레","tel":"070-3578-0214","addr":"경기도 의정부시 호원동 445-40번지 승원빌라 A동 203호","category":"회원제형태 - 기타1"}]},{"lat":"37.722157072","long":"127.04412321","items":[{"name":"필인테리어","tel":"031-879-0482","addr":"경기도 의정부시 호원동 309-30번지 , 1-2층","category":"건축자재 - 인테리어전문"}]},{"lat":"37.712993263","long":"127.04702145","items":[{"name":"하루엔소쿠(호원점)","tel":"031-826-3862","addr":"경기도 의정부시 호원동 454-1번지 1층 지상1층","category":"일반휴게음식 - 일식·회집"},{"name":"헤어컬러블루","tel":"031-872-3809","addr":"경기도 의정부시 호원동 454-1번지 1층","category":"보건위생 - 미용원"}]},{"lat":"37.722211378","long":"127.04340866","items":[{"name":"학원다운학원","tel":"031-827-1050","addr":"경기도 의정부시 호원동 309-85번지 3층","category":"학원 - 보습학원"}]},{"lat":"37.709659479","long":"127.04763186","items":[{"name":"한곡천막앵글","tel":"031-829-0094","addr":"경기도 의정부시 호원동 454-26번지","category":"직물 - 카페트,커튼,천막,지물"}]},{"lat":"37.704794246","long":"127.04774234","items":[{"name":"한길카서비스","tel":"031-837-1482","addr":"경기도 의정부시 호원동 468-2번지","category":"자동차정비 유지 - 자동차정비"}]},{"lat":"37.727519829","long":"127.03776259","items":[{"name":"한림육가 한우정육식당","tel":"031-829-2676","addr":"경기도 의정부시 호원동 381-16번지 2층","category":"일반휴게음식 - 일반한식"}]},{"lat":"37.727904287","long":"127.04662193","items":[{"name":"한샘키친 리버사이드대리점","tel":"","addr":"경기도 의정부시 호원동 6-25번지","category":"건축자재 - 인테리어전문"}]},{"lat":"37.712047196","long":"127.04717966","items":[{"name":"할매순대국 망월사역점","tel":"031-878-3825","addr":"경기도 의정부시 호원동 454-10번지 1층","category":"일반휴게음식 - 일반한식"}]},{"lat":"37.707739703","long":"127.0495132","items":[{"name":"해담 수족관","tel":"070-4144-8212","addr":"경기도 의정부시 호원동 462-4번지","category":"문화.취미 - 수족관"}]},{"lat":"37.727733993","long":"127.04416033","items":[{"name":"해피헤어","tel":"031-826-0088","addr":"경기도 의정부시 호원동 340-11번지 1층","category":"보건위생 - 미용원"}]},{"lat":"37.721841898","long":"127.04365799","items":[{"name":"핸드인아트","tel":"","addr":"경기도 의정부시 호원동 309-33번지 해오름하우스 A동 102호","category":"문화.취미 - 문화취미기타"},{"name":"행복한컴퓨터","tel":"031-837-6780","addr":"경기도 의정부시 호원동 309-33번지 해오름하우스 A동 102호","category":"사무통신 - 컴퓨터"},{"name":"향이좋은","tel":"031-837-6633","addr":"경기도 의정부시 호원동 309-33 해오름하우스 에이-103","category":"회원제형태 - 건강식품"}]},{"lat":"37.701659493","long":"127.04615294","items":[{"name":"행복의샘요양원","tel":"031-873-8295","addr":"경기도 의정부시 호원동 223-45번지","category":"기타의료기관 - 기타의료기관 및 기타"}]},{"lat":"37.706131492","long":"127.03621032","items":[{"name":"향원산장","tel":"031-875-9775","addr":"경기도 의정부시 호원동 230-17번지","category":"일반휴게음식 - 일반한식"}]},{"lat":"37.723461757","long":"127.0487404","items":[{"name":"허브다이어트","tel":"031-872-6230","addr":"경기도 의정부시 호원동 430 우성상가 1층 101호","category":"회원제형태 - 건강식품"}]},{"lat":"37.715488353","long":"127.04852","items":[{"name":"헤어카페1","tel":"031-874-5566","addr":"경기도 의정부시 호원동 445-4번지","category":"보건위생 - 미용원"},{"name":"헤어카페1","tel":"","addr":"경기도 의정부시 호원동 445-4번지","category":"보건위생 - 미용원"}]},{"lat":"37.727263628","long":"127.04918513","items":[{"name":"헤어현주","tel":"070-767-2299","addr":"경기도 의정부시 호원동 419번지 현대 상가 103호","category":"보건위생 - 미용원"},{"name":"회룡탁구장","tel":"031-836-0088","addr":"경기도 의정부시 호원동 419번지 현대아이파크1차 상가동 지하층 103호","category":"레저업소 - 기타레져업소"}]},{"lat":"37.724598891","long":"127.04348936","items":[{"name":"현민네국수집","tel":"031-873-5192","addr":"경기도 의정부시 호원동 318번지 외 1필지 1층","category":"일반휴게음식 - 스넥"}]},{"lat":"37.70727207","long":"127.04726754","items":[{"name":"형제건어물","tel":"031-393-5922","addr":"경기도 의정부시 호원동 119-70번지 삼성솔리채 B동 502호","category":"음료식품 - 농·축·수산품"}]},{"lat":"37.706964922","long":"127.04939931","items":[{"name":"형제자동차공업사","tel":"031-873-9636","addr":"경기도 의정부시 호원동 462-31번지","category":"자동차정비 유지 - 자동차정비"}]},{"lat":"37.728456214","long":"127.03977082","items":[{"name":"호동정비공업사","tel":"031-837-9074","addr":"경기도 의정부시 호원동 370-2번지","category":"자동차정비 유지 - 자동차정비"}]},{"lat":"37.729429741","long":"127.03816051","items":[{"name":"호원갈비","tel":"031-823-9562","addr":"경기도 의정부시 호원동 367-25번지 1층","category":"일반휴게음식 - 일반한식"}]},{"lat":"37.719047516","long":"127.04754677","items":[{"name":"호원남부점 기아오토큐","tel":"031-875-8582","addr":"경기도 의정부시 호원동 439번지","category":"자동차정비 유지 - 자동차정비"}]},{"lat":"37.710046628","long":"127.04832387","items":[{"name":"호원자동차공업사","tel":"031-875-8919","addr":"경기도 의정부시 호원동 458-10번지","category":"자동차정비 유지 - 자동차정비"}]},{"lat":"37.72968095","long":"127.04154103","items":[{"name":"호원점기아오토큐","tel":"031-855-8572","addr":"경기도 의정부시 호원동 357-2,357-40","category":"자동차정비 유지 - 자동차정비"}]},{"lat":"37.721795484","long":"127.047435","items":[{"name":"호원점현대자동차","tel":"031-837-8205","addr":"경기도 의정부시 호원동 433-5","category":"자동차정비 유지 - 자동차정비"}]},{"lat":"37.725184225","long":"127.04431772","items":[{"name":"호원청과","tel":"031-855-1900","addr":"경기도 의정부시 호원동 316-68번지","category":"음료식품 - 농·축·수산품"}]},{"lat":"37.71065961","long":"127.04746235","items":[{"name":"화로상회","tel":"031-829-2292","addr":"경기도 의정부시 호원동 454-36번지 1층","category":"일반휴게음식 - 일반한식"}]},{"lat":"37.707604971","long":"127.04845847","items":[{"name":"황금 코다리","tel":"031-878-1365","addr":"경기도 의정부시 호원동 463-1번지 1층","category":"일반휴게음식 - 일반한식"}]},{"lat":"37.716254116","long":"127.04865657","items":[{"name":"황우","tel":"031-872-1535","addr":"경기도 의정부시 호원동 444-9번지 일진해피빌 101동 102호","category":"음료식품 - 정육점"}]},{"lat":"37.726290767","long":"127.04874215","items":[{"name":"황주막","tel":"031-875-1947","addr":"경기도 의정부시 호원동 417-1번지","category":"일반휴게음식 - 일반한식"},{"name":"흥부전","tel":"031-871-7772","addr":"경기도 의정부시 호원동 417-1번지","category":"일반휴게음식 - 일반한식"}]},{"lat":"37.723959392","long":"127.0429559","items":[{"name":"회룡건재","tel":"031-977-6579","addr":"경기도 의정부시 호원동 308-139번지 회룡역풍림아이원 205동 1303호","category":"건축자재 - 기타건축자재"}]},{"lat":"37.722626928","long":"127.04004015","items":[{"name":"회룡마당","tel":"031-873-6494","addr":"경기도 의정부시 호원동 305-16번지 1층","category":"음료식품 - 기타음료식품"}]}]