[{"lat":"37.515823139","long":"127.14868311","imageIndex":7,"items":[{"name":"가람식품","tel":"02-485-0220","addr":"경기도 하남시 감북동 419-21번지","indutype":"유통업 영리 - 슈퍼마켓","category":"mart"}]},{"lat":"37.516542935","long":"127.14948762","imageIndex":7,"items":[{"name":"신라편의점","tel":"031-472-1823","addr":"경기도 하남시 감북동 405-11번지","indutype":"유통업 영리 - 슈퍼마켓","category":"mart"}]},{"lat":"37.51990733","long":"127.15370218","imageIndex":7,"items":[{"name":"우솔비앤비","tel":"","addr":"경기도 하남시 감북동 255-1번지","indutype":"유통업 영리 - 슈퍼마켓","category":"mart"}]},{"lat":"37.524096478","long":"127.1675344","imageIndex":7,"items":[{"name":"주식회사정유통","tel":"02-6080-7727","addr":"경기도 하남시 감북동 9번지","indutype":"유통업 영리 - 슈퍼마켓","category":"mart"}]},{"lat":"37.521761302","long":"127.15531223","imageIndex":7,"items":[{"name":"한아름슈퍼","tel":"02-478-5447","addr":"경기도 하남시 감북동 273-5번지","indutype":"유통업 영리 - 슈퍼마켓","category":"mart"}]}]