[{"lat":"37.157134871","long":"126.92026296","items":[{"name":"(주)미래수","tel":"031-227-3547","addr":"경기도 화성시 봉담읍 덕우리 161-46","category":"기타 - 기타 전문점"}]},{"lat":"37.155781479","long":"126.91768651","items":[{"name":"(주)인앤홈","tel":"","addr":"경기도 화성시 봉담읍 덕우리 161-23번지","category":"건축자재 - 목재·석재·철물"}]},{"lat":"37.15633265","long":"126.91984731","items":[{"name":"가원상사","tel":"031-712-7620","addr":"경기도 화성시 봉담읍 덕우리 161-58번지","category":"문화.취미 - 화원"}]},{"lat":"37.164278491","long":"126.93157007","items":[{"name":"건강한온누리약국","tel":"070-8874-4703","addr":"경기도 화성시 봉담읍 덕우리 96-1번지 101호","category":"약국 - 약국"},{"name":"한국사무용가구","tel":"031-278-1760","addr":"경기도 화성시 봉담읍 덕우리 96-1번지 102호 , 103","category":"가구 - 기타가구"}]},{"lat":"37.16455793","long":"126.9317612","items":[{"name":"골드골프 주식회사","tel":"031-227-6461","addr":"경기도 화성시 봉담읍 덕우리 99번지","category":"레져용품 - 골프용품 전문점"},{"name":"리더스","tel":"031-298-4474","addr":"경기도 화성시 봉담읍 덕우리 99번지","category":"직물 - 카페트,커튼,천막,지물"},{"name":"바람골코다리","tel":"031-298-9592","addr":"경기도 화성시 봉담읍 덕우리 99번지","category":"일반휴게음식 - 일반한식"}]},{"lat":"37.164194124","long":"126.92632365","items":[{"name":"그린사무용가구","tel":"031-297-2213","addr":"경기도 화성시 봉담읍 덕우리 60번지","category":"가구 - 일반가구"}]},{"lat":"37.164388957","long":"126.92123457","items":[{"name":"나이스 가구","tel":"031-297-7784","addr":"경기도 화성시 봉담읍 덕우리 233-4번지","category":"가구 - 일반가구"},{"name":"덕우카센타","tel":"031-227-6333","addr":"경기도 화성시 봉담읍 덕우리 233-4번지","category":"자동차정비 유지 - 자동차정비"}]},{"lat":"37.164472759","long":"126.92526506","items":[{"name":"누리마루","tel":"031-725-3837","addr":"경기도 화성시 봉담읍 덕우리 47-2번지","category":"가구 - 일반가구"},{"name":"우진지게차산업","tel":"031-352-0978","addr":"경기도 화성시 봉담읍 덕우리 47-2번지","category":"자동차정비 유지 - 자동차부품"}]},{"lat":"37.155863185","long":"126.91854197","items":[{"name":"대가한식부페","tel":"031-227-5384","addr":"경기도 화성시 봉담읍 덕우리 161-28번지","category":"일반휴게음식 - 일반한식"}]},{"lat":"37.163944243","long":"126.93015181","items":[{"name":"대신퍼니처","tel":"031-292-7013","addr":"경기도 화성시 봉담읍 덕우리 94-1번지","category":"가구 - 일반가구"}]},{"lat":"37.165001991","long":"126.92170677","items":[{"name":"동신철강","tel":"031-297-2244","addr":"경기도 화성시 봉담읍 덕우리 233-24번지","category":"건축자재 - 기타건축자재"}]},{"lat":"37.163944867","long":"126.93117633","items":[{"name":"봄날기획인쇄","tel":"031-297-9210","addr":"경기도 화성시 봉담읍 덕우리 96-8번지 2층","category":"건축자재 - 인테리어전문"}]},{"lat":"37.164303781","long":"126.92873288","items":[{"name":"비나리","tel":"031-227-1127","addr":"경기도 화성시 봉담읍 덕우리 72-4번지","category":"신변잡화 - 기타잡화"},{"name":"에이스상사","tel":"031-227-6590","addr":"경기도 화성시 봉담읍 덕우리 72-4 201","category":"자동차정비 유지 - 자동차부품"},{"name":"태일전기조명","tel":"031-352-1673","addr":"경기도 화성시 봉담읍 덕우리 72-4번지","category":"건축자재 - 조명기구"}]},{"lat":"37.163557337","long":"126.9310416","items":[{"name":"삼성클라크지게차","tel":"031-352-3633","addr":"경기도 화성시 봉담읍 덕우리 102-3번지","category":"자동차판매 - 기타운송"}]},{"lat":"37.163529949","long":"126.93045618","items":[{"name":"상봉칼국수","tel":"031-278-7890","addr":"경기도 화성시 봉담읍 덕우리 105-2번지","category":"일반휴게음식 - 일반한식"},{"name":"우성노래방","tel":"031-227-2858","addr":"경기도 화성시 봉담읍 덕우리 105-2번지","category":"레저업소 - 노 래 방"},{"name":"이레시스템","tel":"031-237-7200","addr":"경기도 화성시 봉담읍 덕우리 105-2번지","category":"사무통신 - 컴퓨터"}]},{"lat":"37.163916403","long":"126.92884584","items":[{"name":"성도식품","tel":"031-297-5516","addr":"경기도 화성시 봉담읍 덕우리 125-2","category":"음료식품 - 기타음료식품"}]},{"lat":"37.16333375","long":"126.91981714","items":[{"name":"성민컨테이너","tel":"031-357-8344","addr":"경기도 화성시 봉담읍 덕우리 213번지 1층","category":"건축자재 - 기타건축자재"}]},{"lat":"37.165585255","long":"126.93198542","items":[{"name":"세원골","tel":"031-227-0331","addr":"경기도 화성시 봉담읍 덕우리 34-4번지","category":"일반휴게음식 - 일반한식"}]},{"lat":"37.159999617","long":"126.91943802","items":[{"name":"소담식당","tel":"031-298-5040","addr":"경기도 화성시 봉담읍 덕우리 174-6번지","category":"일반휴게음식 - 일반한식"}]},{"lat":"37.165192083","long":"126.92299006","items":[{"name":"손맛한식부페","tel":"031-227-1119","addr":"경기도 화성시 봉담읍 덕우리 233-31번지","category":"일반휴게음식 - 일반한식"},{"name":"엠케이전산","tel":"031-296-7717","addr":"경기도 화성시 봉담읍 덕우리 233-31번지","category":"사무통신 - 기타 사무용품"}]},{"lat":"37.15543983","long":"126.91873382","items":[{"name":"신동양유리","tel":"031-203-1375","addr":"경기도 화성시 봉담읍 덕우리 161-21번지","category":"건축자재 - 유리"}]},{"lat":"37.163997307","long":"126.92854178","items":[{"name":"신용종합공사","tel":"031-292-8598","addr":"경기도 화성시 봉담읍 덕우리 125-5번지","category":"용역 서비스 - 기타용역서비스"}]},{"lat":"37.160331851","long":"126.9178165","items":[{"name":"씨유화성덕우공단점","tel":"032-662-3088","addr":"경기도 화성시 봉담읍 덕우리 177-3번지","category":"유통업 영리 - 편 의 점"}]},{"lat":"37.15958379","long":"126.91754715","items":[{"name":"에이치에스테크(HS테크)","tel":"031-292-6783","addr":"경기도 화성시 봉담읍 덕우리 179-2번지","category":"보건위생 - 미용재료"}]},{"lat":"37.160718298","long":"126.91643132","items":[{"name":"엔젤노래연습장","tel":"031-297-5880","addr":"경기도 화성시 봉담읍 덕우리 195-1번지 2층","category":"레저업소 - 노 래 방"},{"name":"조화라한식부페","tel":"","addr":"경기도 화성시 봉담읍 덕우리 195-1번지 1층","category":"일반휴게음식 - 일반한식"}]},{"lat":"37.164636629","long":"126.9278769","items":[{"name":"연지식당","tel":"031-297-1396","addr":"경기도 화성시 봉담읍 덕우리 57-4번지","category":"일반휴게음식 - 일반한식"}]},{"lat":"37.159280868","long":"126.92245591","items":[{"name":"예스특장","tel":"031-298-2322","addr":"경기도 화성시 봉담읍 덕우리 151-2","category":"기타 - 기계공구"}]},{"lat":"37.163359073","long":"126.93098549","items":[{"name":"우성철물건재","tel":"031-505-5936","addr":"경기도 화성시 봉담읍 덕우리 103번지","category":"건축자재 - 기타건축자재"},{"name":"케이티엘","tel":"","addr":"경기도 화성시 봉담읍 덕우리 103번지 1동","category":"건축자재 - 조명기구"},{"name":"효기획인쇄","tel":"031-267-4200","addr":"경기도 화성시 봉담읍 덕우리 103번지 201호","category":"건축자재 - 인테리어전문"},{"name":"힐링스포츠댄스/체육시설","tel":"","addr":"경기도 화성시 봉담읍 덕우리 103번지 2층","category":"학원 - 예·체능계학원"}]},{"lat":"37.164665388","long":"126.93065776","items":[{"name":"웰텍스","tel":"031-298-5085","addr":"경기도 화성시 봉담읍 덕우리 98-10","category":"전기제품 - 기타전기제품"}]},{"lat":"37.159916089","long":"126.91604947","items":[{"name":"위드미 봉담덕우점","tel":"02-6916-1500","addr":"경기도 화성시 봉담읍 덕우리 188-2번지","category":"유통업 영리 - 편 의 점"}]},{"lat":"37.159693728","long":"126.92010257","items":[{"name":"유가철강","tel":"","addr":"경기도 화성시 봉담읍 덕우리 173-2번지","category":"건축자재 - 기타건축자재"}]},{"lat":"37.163025502","long":"126.93068183","items":[{"name":"유한천막공사","tel":"031-292-6466","addr":"경기도 화성시 봉담읍 덕우리 106번지","category":"직물 - 카페트,커튼,천막,지물"}]},{"lat":"37.164663518","long":"126.9276517","items":[{"name":"인플러스디자인","tel":"031-297-9996","addr":"경기도 화성시 봉담읍 덕우리 57-8번지","category":"가구 - 일반가구"}]},{"lat":"37.16160589","long":"126.92293755","items":[{"name":"제일빠우","tel":"031-352-9783","addr":"경기도 화성시 봉담읍 덕우리 141-2번지","category":"용역 서비스 - 기타용역서비스"}]},{"lat":"37.160133847","long":"126.91813194","items":[{"name":"조여사쭈꾸미","tel":"031-227-6621","addr":"경기도 화성시 봉담읍 덕우리 174-5번지","category":"일반휴게음식 - 일반한식"}]},{"lat":"37.164384614","long":"126.92831623","items":[{"name":"지에스사무기","tel":"031-227-0153","addr":"경기도 화성시 봉담읍 덕우리 72-1번지","category":"사무통신 - 사무용 OA기기"}]},{"lat":"37.165273366","long":"126.92327145","items":[{"name":"진미촌","tel":"031-296-5959","addr":"경기도 화성시 봉담읍 덕우리 233-12번지","category":"일반휴게음식 - 일반한식"}]},{"lat":"37.159917355","long":"126.91779445","items":[{"name":"진영기계","tel":"031-227-3542","addr":"경기도 화성시 봉담읍 덕우리 179번지","category":"기타 - 기계공구"}]},{"lat":"37.160582837","long":"126.91601493","items":[{"name":"진인테리어씽크","tel":"031-352-4850","addr":"경기도 화성시 봉담읍 덕우리 195-6번지","category":"가구 - 일반가구"}]},{"lat":"37.155747341","long":"126.92037705","items":[{"name":"창림산업","tel":"031-227-5515","addr":"경기도 화성시 봉담읍 덕우리 161-9번지","category":"기타 - 기타 전문점"}]},{"lat":"37.164107191","long":"126.93140135","items":[{"name":"천궁","tel":"031-227-1566","addr":"경기도 화성시 봉담읍 덕우리 96-7번지","category":"일반휴게음식 - 중국식"}]},{"lat":"37.160332454","long":"126.91866085","items":[{"name":"청화대","tel":"031-227-2202","addr":"경기도 화성시 봉담읍 덕우리 174-7번지","category":"일반휴게음식 - 일반한식"}]},{"lat":"37.16410696","long":"126.93101856","items":[{"name":"토브헤어샵","tel":"031-292-2211","addr":"경기도 화성시 봉담읍 덕우리 96-2번지","category":"보건위생 - 미용원"}]},{"lat":"37.164724852","long":"126.92496082","items":[{"name":"하성기업","tel":"031-297-8423","addr":"경기도 화성시 봉담읍 덕우리 47-1번지 (가)","category":"기타 - 기계공구"}]},{"lat":"37.163997151","long":"126.9282941","items":[{"name":"향남밧데리","tel":"031-227-5197","addr":"경기도 화성시 봉담읍 덕우리 69","category":"자동차정비 유지 - 자동차정비"}]},{"lat":"37.163530155","long":"126.93079394","items":[{"name":"화성냉난방","tel":"031-353-5586","addr":"경기도 화성시 봉담읍 덕우리 105-4","category":"전기제품 - 냉열기기"}]}]