[{"lat":"37.132643109","long":"127.02981258","imageIndex":0,"items":[{"name":"금호자동구리스","tel":"031-379-9784","addr":"경기도 평택시 서탄면 수월암리 252번지 금호자동구리스","indutype":"자동차정비 유지 - 자동차부품","category":"car"},{"name":"진도모터스","tel":"031-665-7943","addr":"경기도 평택시 서탄면 수월암리 252","indutype":"자동차정비 유지 - 자동차부품","category":"car"}]},{"lat":"37.118368438","long":"127.03761627","imageIndex":0,"items":[{"name":"네오오토","tel":"031-611-6035","addr":"경기도 평택시 서탄면 수월암리 1287번지","indutype":"자동차판매 - 수입자동차","category":"car"}]},{"lat":"37.132418371","long":"127.02739292","imageIndex":0,"items":[{"name":"삼성라지에타카에어콘","tel":"031-375-6788","addr":"경기도 평택시 서탄면 수월암리 834-2","indutype":"자동차정비 유지 - 자동차정비","category":"car"}]},{"lat":"37.133139296","long":"127.02697675","imageIndex":0,"items":[{"name":"성창자동차공업사","tel":"031-665-3332","addr":"경기도 평택시 서탄면 수월암리 829-2번지","indutype":"자동차정비 유지 - 자동차정비","category":"car"}]},{"lat":"37.132806409","long":"127.02436574","imageIndex":0,"items":[{"name":"중앙카클리닉","tel":"031-373-3000","addr":"경기도 평택시 서탄면 수월암리 850-2번지","indutype":"자동차정비 유지 - 자동차정비","category":"car"}]},{"lat":"37.116396894","long":"127.03097698","imageIndex":0,"items":[{"name":"퍼펙트출장스팀세차","tel":"","addr":"경기도 평택시 서탄면 수월암리 540-3번지","indutype":"자동차정비 유지 - 세차장","category":"car"}]},{"lat":"37.120367432","long":"127.04192673","imageIndex":0,"items":[{"name":"한스카서비스","tel":"031-665-0165","addr":"경기도 평택시 서탄면 수월암리 165번지 1층","indutype":"자동차정비 유지 - 자동차부품","category":"car"}]}]