[{"lat":"37.751426377","long":"127.0698176","imageIndex":16,"items":[{"name":"Hit Dance School","tel":"070-8659-8982","addr":"경기도 의정부시 금오동 473-3번지 신세계프라자 704호","indutype":"회원제형태 - 학원","category":"study"}]},{"lat":"37.74934366","long":"127.05496298","imageIndex":16,"items":[{"name":"경기드론코리아아카데미","tel":"031-000-0000","addr":"경기도 의정부시 금오동 403-22번지","indutype":"학원 - 기능학원","category":"study"}]},{"lat":"37.752346297","long":"127.06812771","imageIndex":16,"items":[{"name":"금오검도관","tel":"031-852-4525","addr":"경기도 의정부시 금오동 470-1번지 파크프라자 506호","indutype":"회원제형태 - 학원","category":"study"},{"name":"금오수(Soo)영어학원","tel":"031-853-0560","addr":"경기도 의정부시 금오동 470-1번지 파크프라자 403호","indutype":"학원 - 보습학원","category":"study"},{"name":"득도제1관","tel":"031-851-1555","addr":"경기도 의정부시 금오동 470-1번지","indutype":"학원 - 예·체능계학원","category":"study"},{"name":"샤갈의꿈미술학원","tel":"031-853-8286","addr":"경기도 의정부시 금오동 470-1번지 파크프라자 5층 502호","indutype":"학원 - 예·체능계학원","category":"study"},{"name":"송림음악학원","tel":"031-852-8036","addr":"경기도 의정부시 금오동 470-1번지 파크프라자 604호","indutype":"회원제형태 - 학원","category":"study"},{"name":"수학에미친사람들학원/(주)수미사의정부","tel":"031-852-0508","addr":"경기도 의정부시 금오동 470-1번지 파크프라자 204,205호","indutype":"학원 - 보습학원","category":"study"},{"name":"아마음악학원","tel":"031-853-5082","addr":"경기도 의정부시 금오동 470-1번지 파크프라자 301호","indutype":"학원 - 예·체능계학원","category":"study"},{"name":"위트니학원","tel":"031-853-5702","addr":"경기도 의정부시 금오동 470-1번지 파크프라자 503호","indutype":"학원 - 보습학원","category":"study"},{"name":"유정고등관학원","tel":"031-852-8405","addr":"경기도 의정부시 금오동 470-1번지 파크프라자 504,505호","indutype":"학원 - 보습학원","category":"study"},{"name":"의순 태권도장","tel":"031-851-5411","addr":"경기도 의정부시 금오동 470-1번지 파크프라자 701호","indutype":"학원 - 예·체능계학원","category":"study"},{"name":"제이비(JB)실용음악아카데미학원","tel":"031-853-5082","addr":"경기도 의정부시 금오동 470-1번지 파크프라자 3층 301호","indutype":"학원 - 예·체능계학원","category":"study"},{"name":"제임스루스영어학원","tel":"031-853-0345","addr":"경기도 의정부시 금오동 470-1번지 파크프라자 705동 706호","indutype":"회원제형태 - 학원","category":"study"}]},{"lat":"37.751093681","long":"127.06864857","imageIndex":16,"items":[{"name":"금오김우성영어학원","tel":"070-8254-4363","addr":"경기도 의정부시 금오동 471-4번지 현대프라자 5층 503호","indutype":"학원 - 외국어학원","category":"study"},{"name":"금오위너스학원","tel":"","addr":"경기도 의정부시 금오동 471-4번지 현대프라자 305호","indutype":"학원 - 보습학원","category":"study"},{"name":"다빈치미술전문학원","tel":"031-851-9040","addr":"경기도 의정부시 금오동 471-4번지 현대프라자 6층 602호","indutype":"학원 - 예·체능계학원","category":"study"},{"name":"수림원독서실","tel":"031-852-7400","addr":"경기도 의정부시 금오동 471-4번지 현대프라자401~403호 401호","indutype":"학원 - 독서실","category":"study"},{"name":"아윈학원","tel":"031-875-0293","addr":"경기도 의정부시 금오동 471-4번지 현대프라자 502호","indutype":"학원 - 보습학원","category":"study"},{"name":"엠에스지 (MSG) 수학전문학원","tel":"031-851-8823","addr":"경기도 의정부시 금오동 471-4번지 현대프라자 5층 503호","indutype":"학원 - 보습학원","category":"study"},{"name":"유정초등관학원","tel":"031-851-8405","addr":"경기도 의정부시 금오동 471-4번지 현대프라자 603호","indutype":"학원 - 보습학원","category":"study"},{"name":"칸토르학원","tel":"031-852-3651","addr":"경기도 의정부시 금오동 471-4번지 현대프라자 4층","indutype":"학원 - 기타 교육기관","category":"study"}]},{"lat":"37.751346012","long":"127.06853532","imageIndex":16,"items":[{"name":"금오인성태권도","tel":"031-851-7665","addr":"경기도 의정부시 금오동 471-3 한솔프라자502호,503호","indutype":"학원 - 예·체능계학원","category":"study"},{"name":"늘사랑음악전문학원","tel":"31-853-2428","addr":"경기도 의정부시 금오동 471-3번지 한솔플라자 501호","indutype":"학원 - 예·체능계학원","category":"study"},{"name":"소르본학원","tel":"","addr":"경기도 의정부시 금오동 471-3번지 한솔프라자 601호","indutype":"학원 - 보습학원","category":"study"},{"name":"의정부이바인어학원","tel":"031-853-3303","addr":"경기도 의정부시 금오동 471-3번지 한솔프라자 504,505,506호","indutype":"학원 - 외국어학원","category":"study"}]},{"lat":"37.75237774","long":"127.05959472","imageIndex":16,"items":[{"name":"금오충효체육관","tel":"031-847-3051","addr":"경기도 의정부시 금오동 284번지 2층","indutype":"학원 - 예·체능계학원","category":"study"}]},{"lat":"37.757703384","long":"127.07431702","imageIndex":16,"items":[{"name":"금오태권도","tel":"031-846-1516","addr":"경기도 의정부시 금오동 80-19번지 이롬프라자 401호","indutype":"학원 - 예·체능계학원","category":"study"},{"name":"은채음악학원","tel":"031-821-3060","addr":"경기도 의정부시 금오동 80-19번지 외2필지이롬프라자 305호","indutype":"회원제형태 - 학원","category":"study"}]},{"lat":"37.752516973","long":"127.06903563","imageIndex":16,"items":[{"name":"금오효요양보호교육원","tel":"","addr":"경기도 의정부시 금오동 470-4번지 성산타워 9층 902호","indutype":"학원 - 기능학원","category":"study"},{"name":"제이콥스뷰티센터 주식회사","tel":"031-851-0416","addr":"경기도 의정부시 금오동 470-4번지 성산타워 5층 503호","indutype":"회원제형태 - 학원","category":"study"}]},{"lat":"37.748315221","long":"127.05793503","imageIndex":16,"items":[{"name":"대성엘리트학원","tel":"031-848-4433","addr":"경기도 의정부시 금오동 343-2번지 3층","indutype":"회원제형태 - 학원","category":"study"}]},{"lat":"37.7501253","long":"127.05970647","imageIndex":16,"items":[{"name":"대성태권도","tel":"031-847-3883","addr":"경기도 의정부시 금오동 286-3번지 3층","indutype":"학원 - 예·체능계학원","category":"study"}]},{"lat":"37.749539244","long":"127.06060241","imageIndex":16,"items":[{"name":"대한경의유도관","tel":"031-853-6579","addr":"경기도 의정부시 금오동 463-12번지 다우림프라자 2층","indutype":"학원 - 예·체능계학원","category":"study"},{"name":"세영경매학원","tel":"031-848-7730","addr":"경기도 의정부시 금오동 463-12번지 다우림프라자 302호","indutype":"학원 - 기능학원","category":"study"}]},{"lat":"37.751264378","long":"127.06951108","imageIndex":16,"items":[{"name":"맥스학원","tel":"031-853-8520","addr":"경기도 의정부시 금오동 473-4번지 외1필지 플래티넘프라자 404호","indutype":"회원제형태 - 학원","category":"study"},{"name":"박상현 영어학원","tel":"031-851-6851","addr":"경기도 의정부시 금오동 473-4번지 프레티넘프라자2 4층 406호","indutype":"학원 - 보습학원","category":"study"},{"name":"시매쓰수학학원","tel":"031-853-4068","addr":"경기도 의정부시 금오동 473-4번지 외1필지플래티넘프라자 2506호","indutype":"회원제형태 - 학원","category":"study"},{"name":"제니스학원","tel":"031-852-3269","addr":"경기도 의정부시 금오동 473-4플래티넘프라자Ⅱ405.411","indutype":"회원제형태 - 학원","category":"study"},{"name":"파인애플 잉글리쉬 학원","tel":"031-852-5249","addr":"경기도 의정부시 금오동 473-4번지 프레티넘프라자2 5층 506호","indutype":"학원 - 외국어학원","category":"study"},{"name":"한우리","tel":"031-852-6070","addr":"경기도 의정부시 금오동 473-4번지 플래티넘프라자 504호","indutype":"회원제형태 - 학원","category":"study"},{"name":"해법에듀학원","tel":"031-852-2090","addr":"경기도 의정부시 금오동 473-4번지 플래티넘프라자2 301호","indutype":"학원 - 보습학원","category":"study"}]},{"lat":"37.752822492","long":"127.07045429","imageIndex":16,"items":[{"name":"바나나키즈어학원","tel":"031-853-0533","addr":"경기도 의정부시 금오동 474-2번지 대송프라자 601호","indutype":"회원제형태 - 학원","category":"study"},{"name":"소마사고력수학학원","tel":"031-823-8800","addr":"경기도 의정부시 금오동 474-2번지 대송프라자 703호","indutype":"학원 - 보습학원","category":"study"},{"name":"위버지니어스","tel":"031-852-8005","addr":"경기도 의정부시 금오동 474-2번지 대송프라자 10층","indutype":"학원 - 외국어학원","category":"study"},{"name":"의정부LC","tel":"031-853-3777","addr":"경기도 의정부시 금오동 474-2번지 대송프라자","indutype":"회원제형태 - 학원","category":"study"},{"name":"자라다남아미술학원","tel":"031-853-1311","addr":"경기도 의정부시 금오동 474-2번지 대송프라자 901호","indutype":"학원 - 예·체능계학원","category":"study"},{"name":"한솔아카데미","tel":"031-852-8005","addr":"경기도 의정부시 금오동 474-2번지 대송프라자 10층","indutype":"회원제형태 - 학원","category":"study"}]},{"lat":"37.752570838","long":"127.06937609","imageIndex":16,"items":[{"name":"백배공감수학학원","tel":"","addr":"경기도 의정부시 금오동 470-5번지 금강프라자 602호","indutype":"학원 - 보습학원","category":"study"},{"name":"제이케이에듀학원","tel":"031-851-5982","addr":"경기도 의정부시 금오동 470-5번지 금강프라자 503호","indutype":"학원 - 보습학원","category":"study"}]},{"lat":"37.756674858","long":"127.07665367","imageIndex":16,"items":[{"name":"빠른실내운전연습장","tel":"031-846-9008","addr":"경기도 의정부시 금오동 117-3번지 1층","indutype":"학원 - 기능학원","category":"study"}]},{"lat":"37.751598323","long":"127.06845611","imageIndex":16,"items":[{"name":"소르본역사논술","tel":"031-852-3809","addr":"경기도 의정부시 금오동 471-2번지 해티타워 204호","indutype":"학원 - 보습학원","category":"study"},{"name":"스카이짐어린이전용스포츠센터","tel":"031-852-2624","addr":"경기도 의정부시 금오동 471-2번지 해피타워 1001호","indutype":"회원제형태 - 학원","category":"study"},{"name":"용인대NO.1태권도장","tel":"031-853-6740","addr":"경기도 의정부시 금오동 471-2번지 5층","indutype":"학원 - 예·체능계학원","category":"study"},{"name":"이지-수 수학학원","tel":"031-853-0179","addr":"경기도 의정부시 금오동 471-2번지 해피타워 4층 406호","indutype":"회원제형태 - 학원","category":"study"},{"name":"조셀린영어교습소","tel":"031-852-5241","addr":"경기도 의정부시 금오동 471-2번지 해피플러스III 301호","indutype":"회원제형태 - 학원","category":"study"},{"name":"주댄스 (Ju Dance)","tel":"031-000-0000","addr":"경기도 의정부시 금오동 471-2번지 해피타워, 해피플러스III 2층 204호","indutype":"학원 - 예·체능계학원","category":"study"}]},{"lat":"37.746622682","long":"127.05517665","imageIndex":16,"items":[{"name":"수신 인성교육 신도태권도","tel":"031-842-0300","addr":"경기도 의정부시 금오동 370 신도브래뉴1차상가2층204,206호","indutype":"학원 - 예·체능계학원","category":"study"}]},{"lat":"37.752732585","long":"127.07012515","imageIndex":16,"items":[{"name":"씨앤피(CNP)학원","tel":"070-4090-1942","addr":"경기도 의정부시 금오동 474-1번지 금오플러스 804호","indutype":"학원 - 보습학원","category":"study"},{"name":"씨앤피(CNP)학원","tel":"070-4090-1942","addr":"경기도 의정부시 금오동 474-1번지 금오플러스 804호","indutype":"학원 - 보습학원","category":"study"},{"name":"아담리즈놀이수학의정부학원","tel":"031-851-3599","addr":"경기도 의정부시 금오동 474-1번지 금오플러스빌딩 8층 805호~806호","indutype":"회원제형태 - 학원","category":"study"},{"name":"오르다사고력학원","tel":"031-853-7740","addr":"경기도 의정부시 금오동 474-1번지 금오플러스 502호","indutype":"학원 - 보습학원","category":"study"},{"name":"지혜의숲 금오센터학원","tel":"031-852-0803","addr":"경기도 의정부시 금오동 474-1번지 금오플러스빌딩 702호","indutype":"학원 - 보습학원","category":"study"},{"name":"찰진영어","tel":"031-848-7309","addr":"경기도 의정부시 금오동 474-1번지 금오플러스빌딩 8층 804호","indutype":"학원 - 외국어학원","category":"study"},{"name":"한솔브레인의정부학원","tel":"031-852-2050","addr":"경기도 의정부시 금오동 474-1번지 금오플러스빌딩 7층","indutype":"학원 - 보습학원","category":"study"}]},{"lat":"37.75187695","long":"127.0696478","imageIndex":16,"items":[{"name":"오르빛학원","tel":"02-1588-3315","addr":"경기도 의정부시 금오동 473-2번지 금오삼성플라자 801호~803호","indutype":"학원 - 보습학원","category":"study"},{"name":"클릭전원미술학원","tel":"031-852-7577","addr":"경기도 의정부시 금오동 473-2번지 금오삼성플라자 701,702,703호","indutype":"회원제형태 - 학원","category":"study"}]},{"lat":"37.7478208","long":"127.05551788","imageIndex":16,"items":[{"name":"용인대 태풍 태권도도장","tel":"031-836-6424","addr":"경기도 의정부시 금오동 344-17번지 금오2차 신도브래뉴업 B동 208-A호,209호,210호","indutype":"학원 - 예·체능계학원","category":"study"},{"name":"키높이수학교습소","tel":"031-848-6556","addr":"경기도 의정부시 금오동 344-17번지 신도브래뉴업상가 B동 201호","indutype":"학원 - 보습학원","category":"study"}]},{"lat":"37.752156303","long":"127.06954592","imageIndex":16,"items":[{"name":"윌어학원","tel":"031-851-7222","addr":"경기도 의정부시 금오동 473-1번지 플래티넘프라자 8층 803호","indutype":"학원 - 보습학원","category":"study"},{"name":"참좋은스피치","tel":"031-852-5998","addr":"경기도 의정부시 금오동 473-1번지 플래티넘프라자 506호","indutype":"회원제형태 - 학원","category":"study"},{"name":"토즈스터디센터의정부2독서실","tel":"031-853-7705","addr":"경기도 의정부시 금오동 473-1번지 플래티넘프라자 804호","indutype":"학원 - 독서실","category":"study"}]},{"lat":"37.756287484","long":"127.07659655","imageIndex":16,"items":[{"name":"유정중등관학원","tel":"031-840-8405","addr":"경기도 의정부시 금오동 454-1번지 2층","indutype":"학원 - 보습학원","category":"study"}]},{"lat":"37.758342957","long":"127.07448786","imageIndex":16,"items":[{"name":"의인회GT거호도장","tel":"031-841-3838","addr":"경기도 의정부시 금오동 80-6번지 2층","indutype":"학원 - 예·체능계학원","category":"study"}]},{"lat":"37.747704803","long":"127.05293083","imageIndex":16,"items":[{"name":"컴퓨터공부방깨비교실","tel":"031-843-3311","addr":"경기도 의정부시 금오동 380-77번지","indutype":"회원제형태 - 학원","category":"study"}]},{"lat":"37.747704706","long":"127.05315775","imageIndex":16,"items":[{"name":"포인트보습학원","tel":"031-840-2050","addr":"경기도 의정부시 금오동 380-2번지","indutype":"학원 - 보습학원","category":"study"}]},{"lat":"37.749461403","long":"127.05354473","imageIndex":16,"items":[{"name":"프롬토리","tel":"031-6950-6884","addr":"경기도 의정부시 금오동 391-12번지","indutype":"학원 - 기능학원","category":"study"}]}]