[{"lat":"37.266845165","long":"126.87895992","items":[{"name":"거궁순대국","tel":"031-296-6762","addr":"경기도 화성시 매송면 야목리 376-2번지 1층","category":"일반휴게음식 - 일반한식"}]},{"lat":"37.267572975","long":"126.87704216","items":[{"name":"내고향식품","tel":"031-295-6817","addr":"경기도 화성시 매송면 야목리 343-3번지","category":"음료식품 - 기타음료식품"}]},{"lat":"37.26660243","long":"126.87947892","items":[{"name":"다함피아노","tel":"031-443-2598","addr":"경기도 화성시 매송면 야목리 1300번지 휴먼시아 103동 1505호","category":"수리서비스 - 기타수리서비스"}]},{"lat":"37.271376773","long":"126.86232259","items":[{"name":"대한가설재","tel":"031-295-6262","addr":"경기도 화성시 매송면 야목리 163-3","category":"건축자재 - 기타건축자재"},{"name":"야목리낚시마트","tel":"031-405-4404","addr":"경기도 화성시 매송면 야목리 163-3번지","category":"레져용품 - 스포츠·레져용품"}]},{"lat":"37.271206565","long":"126.86315722","items":[{"name":"동양꽃화원","tel":"031-295-5535","addr":"경기도 화성시 매송면 야목리 161-3","category":"문화.취미 - 화원"}]},{"lat":"37.266125261","long":"126.87984045","items":[{"name":"두림장식","tel":"031-213-0292","addr":"경기도 화성시 매송면 야목리 1300번지 휴먼시아 109동 102호","category":"용역 서비스 - 기타용역서비스"}]},{"lat":"37.270564216","long":"126.88565082","items":[{"name":"디안카페","tel":"031-292-7220","addr":"경기도 화성시 매송면 야목리 81-11번지","category":"일반휴게음식 - 서양음식"}]},{"lat":"37.26754006","long":"126.88001853","items":[{"name":"미도어","tel":"031-298-8662","addr":"경기도 화성시 매송면 야목리 427번지","category":"건축자재 - 기타건축자재"}]},{"lat":"37.265376432","long":"126.87890596","items":[{"name":"북양동낙지볶음전문점","tel":"031-294-7893","addr":"경기도 화성시 매송면 야목리 1305번지 1층","category":"일반휴게음식 - 일반한식"}]},{"lat":"37.266909423","long":"126.88009848","items":[{"name":"빈스갤러리","tel":"031-364-4196","addr":"경기도 화성시 매송면 야목리 1300번지 휴먼시아 105동 702호","category":"가구 - 일반가구"}]},{"lat":"37.265485824","long":"126.88012333","items":[{"name":"사운드마스터","tel":"031-417-1252","addr":"경기도 화성시 매송면 야목리 444-8번지 1층 101,102호","category":"자동차정비 유지 - 자동차부품"},{"name":"스나이퍼 피싱","tel":"031-295-0866","addr":"경기도 화성시 매송면 야목리 444-8번지 1층 103호.104호","category":"레져용품 - 스포츠·레져용품"}]},{"lat":"37.26882009","long":"126.88056889","items":[{"name":"산내들 통돼지 바베큐","tel":"031-295-0801","addr":"경기도 화성시 매송면 야목리 397번지","category":"일반휴게음식 - 일반한식"}]},{"lat":"37.268902984","long":"126.86576581","items":[{"name":"삼성하우젠","tel":"031-295-2446","addr":"경기도 화성시 매송면 야목리 176-1번지","category":"용역 서비스 - 기타용역서비스"}]},{"lat":"37.266386711","long":"126.87998659","items":[{"name":"수연할인마트","tel":"031-294-2282","addr":"경기도 화성시 매송면 야목리 1300번지 제상가동 제103호,104호","category":"유통업 영리 - 슈퍼마켓"},{"name":"시립매송어린이집[아이행복]","tel":"031-296-3339","addr":"경기도 화성시 매송면 야목리 1300번지 휴먼시아관리동","category":"학원 - 유아원"}]},{"lat":"37.266656506","long":"126.88846405","items":[{"name":"애견추모까페","tel":"031-296-4300","addr":"경기도 화성시 매송면 야목리 596-3번지","category":"문화.취미 - 애완동물"}]},{"lat":"37.266088727","long":"126.87936702","items":[{"name":"엠비지","tel":"070-7618-0033","addr":"경기도 화성시 매송면 야목리 1300번지 휴먼시아 101동 303호","category":"보건위생 - 화장품"}]},{"lat":"37.271071385","long":"126.86313492","items":[{"name":"의성마늘","tel":"031-296-1136","addr":"경기도 화성시 매송면 야목리 162-1번지 2층","category":"음료식품 - 기타음료식품"}]},{"lat":"37.265098184","long":"126.87993231","items":[{"name":"주식회사원일판넬산업","tel":"031-295-8821","addr":"경기도 화성시 매송면 야목리 450-3","category":"건축자재 - 기타건축자재"}]},{"lat":"37.270870598","long":"126.88568416","items":[{"name":"청담추어정","tel":"","addr":"경기도 화성시 매송면 야목리 81-1번지 1동 1층","category":"일반휴게음식 - 일반한식"}]},{"lat":"37.260542545","long":"126.87479928","items":[{"name":"푸른들판에닭이야기","tel":"031-293-1477","addr":"경기도 화성시 매송면 야목리 1254번지","category":"일반휴게음식 - 일반한식"}]},{"lat":"37.266933066","long":"126.87687412","items":[{"name":"해신종합주방","tel":"02-1111-1111","addr":"경기도 화성시 매송면 야목리 332-7번지","category":"주방용구 - 주방용구"}]},{"lat":"37.266378074","long":"126.88034736","items":[{"name":"현대휴텍","tel":"031-294-3074","addr":"경기도 화성시 매송면 야목리 1300번지 휴먼시아 107동 6층 604호","category":"건축자재 - 인테리어전문"}]}]