[{"lat":"37.204720747","long":"127.35475356","items":[{"name":"(주)자이언트북","tel":"070-7757-1718","addr":"경기도 이천시 마장면 해월리 33번지 청강문화산업대학","category":"용역 서비스 - 종합용역"},{"name":"CCRC","tel":"031-639-5894","addr":"경기도 이천시 마장면 해월리 33번지 청강문화산업대학","category":"문화.취미 - 민예·공예품"},{"name":"쿨투라","tel":"031-639-5797","addr":"경기도 이천시 마장면 해월리 33번지 청강문화산업대학 내1층","category":"일반휴게음식 - 일반한식"}]},{"lat":"37.221833369","long":"127.33534098","items":[{"name":"101커피컨테이너","tel":"031-644-1200","addr":"경기도 이천시 마장면 해월리 358번지","category":"일반휴게음식 - 서양음식"}]},{"lat":"37.212834517","long":"127.35627831","items":[{"name":"8군부대찌개","tel":"031-638-3286","addr":"경기도 이천시 마장면 해월리 156번지 1동 1층","category":"일반휴게음식 - 일반한식"}]},{"lat":"37.212358568","long":"127.35875454","items":[{"name":"W당구장","tel":"031-638-1056","addr":"경기도 이천시 마장면 해월리 122-10번지","category":"레저업소 - 당 구 장"},{"name":"더블유(W)PC방","tel":"031-638-1056","addr":"경기도 이천시 마장면 해월리 122-10번지","category":"문화.취미 - 문화취미기타"}]},{"lat":"37.215194382","long":"127.35352913","items":[{"name":"YG레포츠","tel":"031-638-1865","addr":"경기도 이천시 마장면 해월리 196-1번지","category":"레져용품 - 스포츠·레져용품"},{"name":"귀농인연합회","tel":"031-638-1856","addr":"경기도 이천시 마장면 해월리 196-1번지","category":"음료식품 - 농·축·수산품"}]},{"lat":"37.216802606","long":"127.3489737","items":[{"name":"e스키","tel":"031-637-0331","addr":"경기도 이천시 마장면 해월리 258번지","category":"레져용품 - 스포츠·레져용품"},{"name":"이지레포츠","tel":"031-638-6384","addr":"경기도 이천시 마장면 해월리 258번지","category":"레져용품 - 스포츠·레져용품"}]},{"lat":"37.214553022","long":"127.35407819","items":[{"name":"겟빳소","tel":"031-111-1111","addr":"경기도 이천시 마장면 해월리 199-2번지","category":"일반휴게음식 - 일반한식"},{"name":"지산 준스키","tel":"031-1111-111","addr":"경기도 이천시 마장면 해월리 199-2번지 1층","category":"레져용품 - 스포츠·레져용품"}]},{"lat":"37.204199619","long":"127.36028199","items":[{"name":"교통짬뽕","tel":"","addr":"경기도 이천시 마장면 해월리 28-7번지","category":"일반휴게음식 - 중국식"},{"name":"지산편의점","tel":"031-322-7611","addr":"경기도 이천시 마장면 해월리 28-7번지","category":"유통업 영리 - 편 의 점"}]},{"lat":"37.209635861","long":"127.35928249","items":[{"name":"그린각","tel":"031-638-0569","addr":"경기도 이천시 마장면 해월리 135-2번지","category":"일반휴게음식 - 중국식"},{"name":"씨유이천청강대점","tel":"031-638-0659","addr":"경기도 이천시 마장면 해월리 135-2번지 1층","category":"유통업 영리 - 편 의 점"}]},{"lat":"37.210309897","long":"127.35986019","items":[{"name":"김밥킹 청강대점","tel":"031-634-2228","addr":"경기도 이천시 마장면 해월리 133-9번지","category":"일반휴게음식 - 스넥"},{"name":"마시네탕수육","tel":"031-637-4777","addr":"경기도 이천시 마장면 해월리 133-9번지 D동","category":"일반휴게음식 - 주점"},{"name":"일석","tel":"031-637-2343","addr":"경기도 이천시 마장면 해월리 133-9번지 D동","category":"일반휴게음식 - 일반한식"}]},{"lat":"37.213413302","long":"127.35857924","items":[{"name":"꼬꼬아찌.태양반점","tel":"031-638-1635","addr":"경기도 이천시 마장면 해월리 84-1번지","category":"일반휴게음식 - 중국식"},{"name":"설봉산약수터집","tel":"000-000-0000","addr":"경기도 이천시 마장면 해월리 84-1번지","category":"일반휴게음식 - 일반한식"},{"name":"세븐스키","tel":"031-637-7787","addr":"경기도 이천시 마장면 해월리 84-1","category":"레져용품 - 스포츠·레져용품"},{"name":"프라넬지산","tel":"031-637-6379","addr":"경기도 이천시 마장면 해월리 84-1번지","category":"일반휴게음식 - 서양음식"}]},{"lat":"37.21283621","long":"127.35872299","items":[{"name":"날개스낵","tel":"","addr":"경기도 이천시 마장면 해월리 119번지","category":"일반휴게음식 - 일반한식"},{"name":"더 드림","tel":"031-633-5666","addr":"경기도 이천시 마장면 해월리 119번지","category":"일반휴게음식 - 일반한식"},{"name":"샹떼PC방 이천해월리점","tel":"","addr":"경기도 이천시 마장면 해월리 119번지 2층","category":"레저업소 - 기타레져업소"}]},{"lat":"37.212080266","long":"127.35841527","items":[{"name":"내 인생감자탕","tel":"","addr":"경기도 이천시 마장면 해월리 143-3번지 1층","category":"일반휴게음식 - 일반한식"},{"name":"돈맛짱(솥뚜껑삼겹살)","tel":"031-637-7779","addr":"경기도 이천시 마장면 해월리 143-3번지 1층","category":"일반휴게음식 - 일반한식"},{"name":"이슬처럼","tel":"031-638-8712","addr":"경기도 이천시 마장면 해월리 143-3번지 1층","category":"일반휴게음식 - 일반한식"}]},{"lat":"37.215858609","long":"127.35133529","items":[{"name":"눈사람","tel":"031-636-4030","addr":"경기도 이천시 마장면 해월리 306-13번지","category":"레져용품 - 스포츠·레져용품"}]},{"lat":"37.213838085","long":"127.36113859","items":[{"name":"대왕솥뚜껑삼겹살","tel":"031-633-3579","addr":"경기도 이천시 마장면 해월리 70-1번지 1층","category":"일반휴게음식 - 일반한식"},{"name":"지산캠프","tel":"031-631-3293","addr":"경기도 이천시 마장면 해월리 70-1번지","category":"용역 서비스 - 기타용역서비스"},{"name":"지산캠프","tel":"031-631-3293","addr":"경기도 이천시 마장면 해월리 70-1번지","category":"레져용품 - 스포츠·레져용품"}]},{"lat":"37.213885314","long":"127.3604178","items":[{"name":"더알","tel":"070-7787-3028","addr":"경기도 이천시 마장면 해월리 79-2번지","category":"레져용품 - 스포츠·레져용품"},{"name":"알인더스트리","tel":"070-7787-3028","addr":"경기도 이천시 마장면 해월리 79-2","category":"레져용품 - 스포츠·레져용품"}]},{"lat":"37.213471111","long":"127.35732901","items":[{"name":"돈내놔","tel":"031-638-3331","addr":"경기도 이천시 마장면 해월리 100-4번지","category":"일반휴게음식 - 일반한식"},{"name":"카페멜마(Cafe Melma)","tel":"031-638-3331","addr":"경기도 이천시 마장면 해월리 100-4번지","category":"일반휴게음식 - 서양음식"}]},{"lat":"37.217971909","long":"127.34657928","items":[{"name":"동강","tel":"031-634-2884","addr":"경기도 이천시 마장면 해월리 267-2번지 외 2필지","category":"일반휴게음식 - 일반한식"}]},{"lat":"37.214777995","long":"127.35719993","items":[{"name":"동우냉열","tel":"031-638-1976","addr":"경기도 이천시 마장면 해월리 109번지","category":"전기제품 - 냉열기기"}]},{"lat":"37.218305352","long":"127.34655826","items":[{"name":"드림빌","tel":"031-636-0123","addr":"경기도 이천시 마장면 해월리 270번지","category":"숙박업 - 여관/기타숙박업"}]},{"lat":"37.209004571","long":"127.35947103","items":[{"name":"마슬랜","tel":"031-1877-7936","addr":"경기도 이천시 마장면 해월리 46-6번지","category":"일반휴게음식 - 스넥"}]},{"lat":"37.216363046","long":"127.34830699","items":[{"name":"모닝레포츠","tel":"031-637-7310","addr":"경기도 이천시 마장면 해월리 222-2번지","category":"레져용품 - 스포츠·레져용품"}]},{"lat":"37.217662386","long":"127.34767072","items":[{"name":"미소하우스","tel":"031-638-2979","addr":"경기도 이천시 마장면 해월리 265-2","category":"용역 서비스 - 부동산 중개·임대"}]},{"lat":"37.215495978","long":"127.35208846","items":[{"name":"밸리커피","tel":"031-638-5677","addr":"경기도 이천시 마장면 해월리 205-54번지","category":"일반휴게음식 - 서양음식"},{"name":"지산골칡냉면","tel":"031-638-1678","addr":"경기도 이천시 마장면 해월리 205-54번지","category":"일반휴게음식 - 일반한식"}]},{"lat":"37.215749239","long":"127.35480477","items":[{"name":"법경","tel":"031-637-9241","addr":"경기도 이천시 마장면 해월리 197-21","category":"용역 서비스 - 부동산 중개·임대"}]},{"lat":"37.215414322","long":"127.3522796","items":[{"name":"별","tel":"","addr":"경기도 이천시 마장면 해월리 205-55번지 102호","category":"레져용품 - 스포츠·레져용품"},{"name":"샵스키","tel":"031-637-7553","addr":"경기도 이천시 마장면 해월리 205-55번지 1층 101호","category":"레져용품 - 스포츠·레져용품"},{"name":"지산리조트 스키장 알파인","tel":"031-637-8626","addr":"경기도 이천시 마장면 해월리 205-55번지 102호","category":"레져용품 - 스포츠·레져용품"},{"name":"지산리조트 스키장 알파인","tel":"031-637-8626","addr":"경기도 이천시 마장면 해월리 205-55번지 102호","category":"레져용품 - 스포츠·레져용품"}]},{"lat":"37.216031425","long":"127.35078404","items":[{"name":"보드박스","tel":"031-637-7553","addr":"경기도 이천시 마장면 해월리 306-4번지","category":"레져용품 - 스포츠·레져용품"},{"name":"온리스키","tel":"031-638-3644","addr":"경기도 이천시 마장면 해월리 306-4번지","category":"레져용품 - 스포츠·레져용품"},{"name":"지산화이트","tel":"031-637-4585","addr":"경기도 이천시 마장면 해월리 306-4번지","category":"레져용품 - 스포츠·레져용품"}]},{"lat":"37.21716479","long":"127.3389708","items":[{"name":"분식센터","tel":"031-272-2260","addr":"경기도 이천시 마장면 해월리 산 28-7","category":"일반휴게음식 - 스넥"},{"name":"장터스낵","tel":"","addr":"경기도 이천시 마장면 해월리 산28-7번지","category":"일반휴게음식 - 서양음식"},{"name":"지산푸드파크","tel":"031-634-1112","addr":"경기도 이천시 마장면 해월리 산28-7 제이파크내1층","category":"일반휴게음식 - 일반한식"},{"name":"편의점","tel":"031-637-4794","addr":"경기도 이천시 마장면 해월리 산 28-7 지산리조트내렌탈편의점","category":"유통업 영리 - 편 의 점"}]},{"lat":"37.213387928","long":"127.3580271","items":[{"name":"브리또하우스","tel":"031-637-9497","addr":"경기도 이천시 마장면 해월리 99-2번지","category":"일반휴게음식 - 일반한식"},{"name":"일석","tel":"031-637-2345","addr":"경기도 이천시 마장면 해월리 99-2번지 1층","category":"일반휴게음식 - 일반한식"}]},{"lat":"37.215613775","long":"127.35186368","items":[{"name":"비에이치에스","tel":"031-638-8495","addr":"경기도 이천시 마장면 해월리 205번지","category":"레져용품 - 스포츠·레져용품"},{"name":"윈터매니아","tel":"031-638-7405","addr":"경기도 이천시 마장면 해월리 205번지","category":"레져용품 - 스포츠·레져용품"}]},{"lat":"37.213472021","long":"127.35702483","items":[{"name":"사쿠사쿠 지산점","tel":"031-634-7765","addr":"경기도 이천시 마장면 해월리 100-1번지","category":"일반휴게음식 - 일반한식"},{"name":"지산아지토","tel":"031-631-6772","addr":"경기도 이천시 마장면 해월리 100-1번지","category":"일반휴게음식 - 주점"}]},{"lat":"37.214751314","long":"127.35405658","items":[{"name":"상수네 펍(PUB)","tel":"031-565-4058","addr":"경기도 이천시 마장면 해월리 198-5번지 1층","category":"일반휴게음식 - 일반한식"}]},{"lat":"37.213917745","long":"127.36161214","items":[{"name":"송화육개장","tel":"031-638-6989","addr":"경기도 이천시 마장면 해월리 70-11번지","category":"일반휴게음식 - 일반한식"},{"name":"시골곰탕","tel":"031-632-9686","addr":"경기도 이천시 마장면 해월리 70-11번지","category":"일반휴게음식 - 일반한식"},{"name":"지산탑레포츠","tel":"031-638-2176","addr":"경기도 이천시 마장면 해월리 70-11번지","category":"레져용품 - 스포츠·레져용품"}]},{"lat":"37.213419542","long":"127.35649509","items":[{"name":"스키라인","tel":"031-637-0308","addr":"경기도 이천시 마장면 해월리 116번지","category":"레져용품 - 스포츠·레져용품"}]},{"lat":"37.218115418","long":"127.34680526","items":[{"name":"스키렌탈","tel":"031-637-1133","addr":"경기도 이천시 마장면 해월리 267번지","category":"용역 서비스 - 기타용역서비스"},{"name":"에스엔비","tel":"031-637-1133","addr":"경기도 이천시 마장면 해월리 267번지","category":"레져용품 - 스포츠·레져용품"}]},{"lat":"37.216946209","long":"127.34916589","items":[{"name":"스키뱅크","tel":"031-637-0456","addr":"경기도 이천시 마장면 해월리 257번지","category":"레져용품 - 스포츠·레져용품"}]},{"lat":"37.216304276","long":"127.34991779","items":[{"name":"스키피아","tel":"031-638-2292","addr":"경기도 이천시 마장면 해월리 256-3번지","category":"레져용품 - 스포츠·레져용품"}]},{"lat":"37.213170308","long":"127.36147341","items":[{"name":"아리아","tel":"02-1111-1111","addr":"경기도 이천시 마장면 해월리 62-1번지","category":"일반휴게음식 - 일반한식"},{"name":"아이성","tel":"031-634-3989","addr":"경기도 이천시 마장면 해월리 62-1번지","category":"일반휴게음식 - 일반한식"},{"name":"여기 해월","tel":"","addr":"경기도 이천시 마장면 해월리 62-1번지","category":"일반휴게음식 - 서양음식"}]},{"lat":"37.2126662","long":"127.35832789","items":[{"name":"아시아(AISHA)","tel":"","addr":"경기도 이천시 마장면 해월리 121-3번지","category":"일반휴게음식 - 서양음식"}]},{"lat":"37.205030158","long":"127.35066596","items":[{"name":"알파문구 청강대점","tel":"031-637-6965","addr":"경기도 이천시 마장면 해월리 산 37","category":"서적문구 - 문구용품"}]},{"lat":"37.214114877","long":"127.36197358","items":[{"name":"엑시(XEE)","tel":"031-637-4054","addr":"경기도 이천시 마장면 해월리 71-2번지","category":"레져용품 - 스포츠·레져용품"}]},{"lat":"37.218250015","long":"127.3469974","items":[{"name":"옌바이옌","tel":"031-000-0000","addr":"경기도 이천시 마장면 해월리 268번지","category":"건강식품 - 기타건강식품"}]},{"lat":"37.213722961","long":"127.36047336","items":[{"name":"오늘은눈","tel":"031-637-9692","addr":"경기도 이천시 마장면 해월리 79-8번지","category":"레져용품 - 스포츠·레져용품"}]},{"lat":"37.216192483","long":"127.35116783","items":[{"name":"오렌지하우스","tel":"031-637-7249","addr":"경기도 이천시 마장면 해월리 306-10번지","category":"일반휴게음식 - 칵테일바"}]},{"lat":"37.215388831","long":"127.3548031","items":[{"name":"원룸임대","tel":"031-637-4585","addr":"경기도 이천시 마장면 해월리 197-23번지","category":"용역 서비스 - 부동산 중개·임대"}]},{"lat":"37.215277706","long":"127.35277468","items":[{"name":"웰빙","tel":"031-635-3338","addr":"경기도 이천시 마장면 해월리 205-20번지","category":"일반휴게음식 - 일반한식"}]},{"lat":"37.214417268","long":"127.35428035","items":[{"name":"위슬러","tel":"031-637-6632","addr":"경기도 이천시 마장면 해월리 200-6","category":"레져용품 - 스포츠·레져용품"}]},{"lat":"37.215777106","long":"127.35452325","items":[{"name":"일신원룸","tel":"031-638-0517","addr":"경기도 이천시 마장면 해월리 197-4","category":"용역 서비스 - 부동산 중개·임대"}]},{"lat":"37.216750221","long":"127.35147459","items":[{"name":"전원산장","tel":"031-637-3114","addr":"경기도 이천시 마장면 해월리 306-11번지","category":"용역 서비스 - 부동산 중개·임대"}]},{"lat":"37.213724218","long":"127.36005653","items":[{"name":"지산가든","tel":"031-638-8626","addr":"경기도 이천시 마장면 해월리 80-1번지","category":"일반휴게음식 - 일반한식"}]},{"lat":"37.21594043","long":"127.35108781","items":[{"name":"지산강습센터","tel":"031-638-2550","addr":"경기도 이천시 마장면 해월리 306-5번지 1~3호","category":"레져용품 - 스포츠·레져용품"},{"name":"투맨레포츠","tel":"031-638-8831","addr":"경기도 이천시 마장면 해월리 306-5번지 1층","category":"레져용품 - 스포츠·레져용품"}]},{"lat":"37.213635203","long":"127.3596956","items":[{"name":"지산리조트 스노우랜드","tel":"031-637-2207","addr":"경기도 이천시 마장면 해월리 80-6번지","category":"레져용품 - 스포츠·레져용품"}]},{"lat":"37.214329789","long":"127.36241397","items":[{"name":"지산슈퍼맨","tel":"070-4895-4120","addr":"경기도 이천시 마장면 해월리 68-2번지","category":"레져용품 - 스포츠·레져용품"}]},{"lat":"37.212332957","long":"127.35828126","items":[{"name":"집빵","tel":"031-637-6607","addr":"경기도 이천시 마장면 해월리 143-1번지","category":"음료식품 - 제과점"}]},{"lat":"37.217528708","long":"127.34716312","items":[{"name":"처음처럼","tel":"031-000-0000","addr":"경기도 이천시 마장면 해월리 266-1번지 C동 1층","category":"일반휴게음식 - 일반한식"}]},{"lat":"37.213859203","long":"127.35408624","items":[{"name":"청춘버거","tel":"031-1111-1111","addr":"경기도 이천시 마장면 해월리 177-1번지 1층 102호","category":"일반휴게음식 - 서양음식"}]},{"lat":"37.213474274","long":"127.35927801","items":[{"name":"케이팝레포츠","tel":"","addr":"경기도 이천시 마장면 해월리 82-1번지","category":"레져용품 - 스포츠·레져용품"},{"name":"탑보드","tel":"031-638-9182","addr":"경기도 이천시 마장면 해월리 82-1번지","category":"레져용품 - 스포츠·레져용품"}]},{"lat":"37.217136641","long":"127.3487499","items":[{"name":"타워펠리스","tel":"031-638-2972","addr":"경기도 이천시 마장면 해월리 260","category":"숙박업 - 여관/기타숙박업"}]},{"lat":"37.216473289","long":"127.35066214","items":[{"name":"편의점","tel":"031-637-3114","addr":"경기도 이천시 마장면 해월리 306-21","category":"유통업 영리 - 편 의 점"}]},{"lat":"37.211611127","long":"127.35861585","items":[{"name":"피자킹","tel":"","addr":"경기도 이천시 마장면 해월리 139-12번지","category":"일반휴게음식 - 서양음식"}]},{"lat":"37.212087923","long":"127.35886593","items":[{"name":"학사당구장","tel":"031-637-0444","addr":"경기도 이천시 마장면 해월리 142-2","category":"레저업소 - 당 구 장"},{"name":"학사호프","tel":"031-637-0444","addr":"경기도 이천시 마장면 해월리 142-2","category":"일반휴게음식 - 주점"}]},{"lat":"37.216690261","long":"127.35041528","items":[{"name":"해월산장","tel":"031-637-6882","addr":"경기도 이천시 마장면 해월리 306-17번지 1층","category":"숙박업 - 여관/기타숙박업"}]},{"lat":"37.219028747","long":"127.34567147","items":[{"name":"휴게실","tel":"02-798-6345","addr":"경기도 이천시 마장면 해월리 271번지 지산리조트내 커뮤니센터동 J프라자 1층","category":"일반휴게음식 - 서양음식"}]}]