[{"lat":"37.2417022790","long":"126.5931810903","imageIndex":5,"items":[{"name":"가보고싶은집","tel":"032-891-2007","addr":"경기도 안산시 단원구 대부동동 1525번지","indutype":"숙박 및 음식점업 - 한식","category":"hotel"}]},{"lat":"37.2381769261","long":"126.6111299403","imageIndex":5,"items":[{"name":"김여사네 칼국수","tel":"032-886-2139","addr":"경기도 안산시 단원구 대부동동 200-3번지","indutype":"숙박 및 음식점업 - 한식","category":"hotel"}]},{"lat":"37.2402313720","long":"126.6030726676","imageIndex":5,"items":[{"name":"꽃이야기카페","tel":"","addr":"경기도 안산시 단원구 대부동동 568-5번지","indutype":"숙박 및 음식점업 - 기타음식,수공예","category":"hotel"}]},{"lat":"37.2374597564","long":"126.6177375170","imageIndex":5,"items":[{"name":"니네집가자","tel":"032-883-2505","addr":"경기도 안산시 단원구 대부동동 123-6번지","indutype":"숙박 및 음식점업 - 한식","category":"hotel"}]},{"lat":"37.2412063402","long":"126.6009600377","imageIndex":5,"items":[{"name":"대정식당","tel":"032-882-9400","addr":"경기도 안산시 단원구 대부동동 556-2번지","indutype":"숙박 및 음식점업 - 한식","category":"hotel"}]},{"lat":"37.2411474984","long":"126.6185189205","imageIndex":5,"items":[{"name":"동동알라딘펜션","tel":"032-888-5316","addr":"경기도 안산시 단원구 대부동동 37-2번지","indutype":"숙박 및 음식점업 - 전대","category":"hotel"}]},{"lat":"37.2386795530","long":"126.6105413214","imageIndex":5,"items":[{"name":"두루두루","tel":"032-888-2672","addr":"경기도 안산시 단원구 대부동동 198-1번지","indutype":"숙박 및 음식점업 - 일반음식점","category":"hotel"}]},{"lat":"37.2412083134","long":"126.5884616571","imageIndex":5,"items":[{"name":"바다향기","tel":"032-886-6570","addr":"경기도 안산시 단원구 대부동동 1704-3번지","indutype":"숙박 및 음식점업 - 건강원","category":"hotel"}]},{"lat":"37.2384021220","long":"126.6138447328","imageIndex":5,"items":[{"name":"버섯생농장","tel":"032-888-0045","addr":"경기도 안산시 단원구 대부동동 99-9번지","indutype":"숙박 및 음식점업 - 한식","category":"hotel"}]},{"lat":"37.2380711985","long":"126.6173512438","imageIndex":5,"items":[{"name":"서래가든","tel":"032-886-4842","addr":"경기도 안산시 단원구 대부동동 81-29번지","indutype":"숙박 및 음식점업 - 한식","category":"hotel"}]},{"lat":"37.2382929265","long":"126.6135184779","imageIndex":5,"items":[{"name":"진천토종순대국","tel":"032-888-5551","addr":"경기도 안산시 단원구 대부동동 99-7번지","indutype":"숙박 및 음식점업 - 한식","category":"hotel"}]},{"lat":"37.2409324984","long":"126.6189031893","imageIndex":5,"items":[{"name":"콘서트","tel":"","addr":"경기도 안산시 단원구 대부동동 37-4번지","indutype":"숙박 및 음식점업 - 펜션","category":"hotel"}]},{"lat":"37.2473753873","long":"126.5948184677","imageIndex":5,"items":[{"name":"한우타운황금목장","tel":"","addr":"경기도 안산시 단원구 대부동동 1229-7번지","indutype":"숙박 및 음식점업 - 한식","category":"hotel"}]},{"lat":"37.2413445101","long":"126.6018496316","imageIndex":5,"items":[{"name":"할머니소머리국밥&속초코다리냉면","tel":"032-888-9869","addr":"경기도 안산시 단원구 대부동동 515-4번지","indutype":"숙박 및 음식점업 - 한식","category":"hotel"}]},{"lat":"37.2417913641","long":"126.5877146430","imageIndex":5,"items":[{"name":"화정식당","tel":"032-883-3007","addr":"경기도 안산시 단원구 대부동동 1719-1번지","indutype":"숙박 및 음식점업 - 한식","category":"hotel"}]}]