[{"lat":"37.331131945","long":"127.64826858","items":[{"name":"(주)해피정코리아","tel":"","addr":"경기도 여주시 오금동 252-7번지 1층","category":"주방용구 - 주방용식기"}]},{"lat":"37.321745842","long":"127.65113287","items":[{"name":"고려요","tel":"031-885-9001","addr":"경기도 여주시 오금동 444-5번지","category":"문화.취미 - 민예·공예품"}]},{"lat":"37.329711892","long":"127.64927191","items":[{"name":"구보배네집","tel":"031-884-4243","addr":"경기도 여주시 오금동 405-1번지","category":"일반휴게음식 - 일반한식"}]},{"lat":"37.335798037","long":"127.64516027","items":[{"name":"그리미있는풍경","tel":"031-883-2134","addr":"경기도 여주시 오금동 202-3번지","category":"문화.취미 - 민예·공예품"}]},{"lat":"37.334324364","long":"127.64774299","items":[{"name":"덕평요업","tel":"","addr":"경기도 여주시 오금동 211-4번지","category":"주방용구 - 주방용식기"}]},{"lat":"37.332772926","long":"127.64805695","items":[{"name":"명성공방","tel":"031-885-3914","addr":"경기도 여주시 오금동 225-5번지","category":"주방용구 - 주방용구"},{"name":"명성유기","tel":"031-885-3914","addr":"경기도 여주시 오금동 225-5번지","category":"주방용구 - 주방용식기"}]},{"lat":"37.334245565","long":"127.64566611","items":[{"name":"산이리","tel":"031-884-6333","addr":"경기도 여주시 오금동 267-2번지","category":"문화.취미 - 민예·공예품"}]},{"lat":"37.335377392","long":"127.65124999","items":[{"name":"산천도예","tel":"031-884-0270","addr":"경기도 여주시 오금동 74번지","category":"문화.취미 - 민예·공예품"}]},{"lat":"37.336216093","long":"127.64946304","items":[{"name":"삼선도예","tel":"031-884-5257","addr":"경기도 여주시 오금동 188-3번지","category":"문화.취미 - 민예·공예품"}]},{"lat":"37.33540664","long":"127.6458904","items":[{"name":"소호아트","tel":"031-882-7238","addr":"경기도 여주시 오금동 203-1번지","category":"주방용구 - 주방용식기"}]},{"lat":"37.330214994","long":"127.64788839","items":[{"name":"엄마밥상 기사식당","tel":"031-884-2249","addr":"경기도 여주시 오금동 404-1번지","category":"일반휴게음식 - 일반한식"},{"name":"자원휴게소","tel":"031-883-1058","addr":"경기도 여주시 오금동 404-1번지","category":"유통업 영리 - 연 쇄 점"},{"name":"청백산가든","tel":"031-886-1158","addr":"경기도 여주시 오금동 404-1번지","category":"일반휴게음식 - 일반한식"},{"name":"청백산정육점가든","tel":"031-886-1158","addr":"경기도 여주시 오금동 404-1번지","category":"음료식품 - 정육점"}]},{"lat":"37.332904931","long":"127.64863353","items":[{"name":"에이스씽크","tel":"031-885-0233","addr":"경기도 여주시 오금동 225-1번지","category":"주방용구 - 주방용구"}]},{"lat":"37.33155084","long":"127.64910713","items":[{"name":"여주도예촌","tel":"031-886-4393","addr":"경기도 여주시 오금동 239번지","category":"문화.취미 - 민예·공예품"}]},{"lat":"37.33412849","long":"127.64399512","items":[{"name":"용원요업","tel":"031-885-9311","addr":"경기도 여주시 오금동 278-9번지","category":"문화.취미 - 민예·공예품"}]},{"lat":"37.328159816","long":"127.64805135","items":[{"name":"우진요업전시장","tel":"031-884-5247","addr":"경기도 여주시 오금동 370-7번지","category":"주방용구 - 주방용식기"}]},{"lat":"37.329576234","long":"127.64771369","items":[{"name":"유림도자기","tel":"031-883-9524","addr":"경기도 여주시 오금동 401-1번지","category":"문화.취미 - 화랑"},{"name":"출장뷔페","tel":"031-886-2618","addr":"경기도 여주시 오금동 401-1번지","category":"일반휴게음식 - 일반한식"}]},{"lat":"37.32307211","long":"127.6508058","items":[{"name":"유채","tel":"031-884-0116","addr":"경기도 여주시 오금동 441-4번지","category":"일반휴게음식 - 일반한식"}]},{"lat":"37.328265532","long":"127.64849228","items":[{"name":"진명세라믹","tel":"031-881-1736","addr":"경기도 여주시 오금동 370-6번지","category":"문화.취미 - 민예·공예품"}]},{"lat":"37.331437657","long":"127.64838403","items":[{"name":"천화","tel":"031-881-5949","addr":"경기도 여주시 오금동 252-4번지","category":"문화.취미 - 민예·공예품"}]},{"lat":"37.340294747","long":"127.65491462","items":[{"name":"한강특수세라믹","tel":"031-883-6285","addr":"경기도 여주시 오금동 132번지","category":"문화.취미 - 민예·공예품"},{"name":"한강특수세라믹","tel":"031-883-6285","addr":"경기도 여주시 오금동 132번지","category":"가구 - 일반가구"}]},{"lat":"37.335682108","long":"127.64825109","items":[{"name":"화포식당","tel":"031-883-8910","addr":"경기도 여주시 오금동 188-6번지 1층","category":"일반휴게음식 - 일반한식"}]},{"lat":"37.34049358","long":"127.65480349","items":[{"name":"흙마루","tel":"070-8849-2081","addr":"경기도 여주시 오금동 133번지","category":"주방용구 - 주방용식기"}]}]