[{"lat":"37.312863467","long":"126.79702041","items":[{"name":"(사)경기서부산업단지기업인협의회","tel":"031-491-7089","addr":"경기도 안산시 단원구 원시동 777-6번지 공단종합상가 201호","category":"기타 - 비영리/비대상"},{"name":"(주)대림씨엔에스","tel":"031-494-9494","addr":"경기도 안산시 단원구 원시동 777-6번지 반월공단종합상가 104호","category":"기타 - 기타 전문점"},{"name":"(주)안산교차로","tel":"031-410-9000","addr":"경기도 안산시 단원구 원시동 777-6번지 반월공단종합상가 401호","category":"용역 서비스 - 종합용역"},{"name":"(주)안산교차로/수기","tel":"031-410-9000","addr":"경기도 안산시 단원구 원시동 777-6번지 지원종합상가 401호","category":"용역 서비스 - 종합용역"},{"name":"2루72","tel":"031-492-8872","addr":"경기도 안산시 단원구 원시동 777-6번지 반월공단종합상가 213호","category":"일반휴게음식 - 일반한식"},{"name":"777당구장","tel":"031-494-3777","addr":"경기도 안산시 단원구 원시동 777-6 307호","category":"레저업소 - 당 구 장"},{"name":"OASYS","tel":"031-494-4950","addr":"경기도 안산시 단원구 원시동 777-6번지 지원종합상가","category":"가구 - 기타가구"},{"name":"가비","tel":"031-000-0000","addr":"경기도 안산시 단원구 원시동 777-6번지 반월공단종합상가 207호","category":"일반휴게음식 - 서양음식"},{"name":"개성진순대","tel":"031-495-8635","addr":"경기도 안산시 단원구 원시동 777-6번지 지원종합상가 지하1층 110호","category":"일반휴게음식 - 일반한식"},{"name":"공단소고기국밥","tel":"031-492-6004","addr":"경기도 안산시 단원구 원시동 777-6 종합상가120호~123호","category":"일반휴게음식 - 일반한식"},{"name":"군산복집","tel":"031-493-2787","addr":"경기도 안산시 단원구 원시동 777-6번지 반월종합상가 가동 219호","category":"일반휴게음식 - 일반한식"},{"name":"굿모닝어학원","tel":"031-493-1505","addr":"경기도 안산시 단원구 원시동 777-6번지 407,408호","category":"회원제형태 - 학원"},{"name":"그린산업","tel":"031-487-6020","addr":"경기도 안산시 단원구 원시동 777-6번지 반월공단종합상가 403호","category":"서적문구 - 출판 및 인쇄물"},{"name":"그린슈퍼","tel":"031-491-5769","addr":"경기도 안산시 단원구 원시동 777-6번지 지원종합상가 153호","category":"유통업 영리 - 슈퍼마켓"},{"name":"그린슈퍼","tel":"031-494-2996","addr":"경기도 안산시 단원구 원시동 777-6번지 반월공단종합상가 상가 153호","category":"유통업 영리 - 슈퍼마켓"},{"name":"금강카센타","tel":"031-493-3078","addr":"경기도 안산시 단원구 원시동 777-6번지","category":"자동차정비 유지 - 카인테리어"},{"name":"달달한스토리","tel":"031-111-1111","addr":"경기도 안산시 단원구 원시동 777-6번지 반월공단종합상가 133호","category":"일반휴게음식 - 서양음식"},{"name":"더커피나무","tel":"031-493-3235","addr":"경기도 안산시 단원구 원시동 777-6번지 반월공단종합상가 147호","category":"일반휴게음식 - 서양음식"},{"name":"맛고을한식부페","tel":"031-413-3454","addr":"경기도 안산시 단원구 원시동 777-6번지 반월공단종합상가 218호","category":"일반휴게음식 - 일반한식"},{"name":"맛사람","tel":"031-493-3795","addr":"경기도 안산시 단원구 원시동 777-6번지 반월종합상가 지하층 8호","category":"일반휴게음식 - 일반한식"},{"name":"비틀즈노래연습장","tel":"031-493-3634","addr":"경기도 안산시 단원구 원시동 777-6번지 반월공단종합상가","category":"레저업소 - 노 래 방"},{"name":"빙그레우유반월공단대리점","tel":"031-495-1175","addr":"경기도 안산시 단원구 원시동 777-6번지 반월공단종합상가 149호","category":"음료식품 - 기타음료식품"},{"name":"서부공단카센타","tel":"031-492-4510","addr":"경기도 안산시 단원구 원시동 777-6번지","category":"자동차정비 유지 - 카인테리어"},{"name":"석기정","tel":"031-495-2117","addr":"경기도 안산시 단원구 원시동 777-6번지 지원종합상가 2266호","category":"일반휴게음식 - 일반한식"},{"name":"수정카서비스","tel":"031-495-9831","addr":"경기도 안산시 단원구 원시동 777-6번지 반월공단종합상가 종합상가 102동 103호","category":"자동차정비 유지 - 카인테리어"},{"name":"스마트허브","tel":"031-495-5749","addr":"경기도 안산시 단원구 원시동 777-6번지 반월종합상가 217호","category":"일반휴게음식 - 일반한식"},{"name":"안가식당","tel":"031-493-0006","addr":"경기도 안산시 단원구 원시동 777-6번지 지원종합상가 135호","category":"일반휴게음식 - 일반한식"},{"name":"안산OA랜드","tel":"031-492-4720","addr":"경기도 안산시 단원구 원시동 777-6번지 반월공단종합상가 지하층 103호","category":"사무통신 - 사무용 OA기기"},{"name":"알파안산공단점","tel":"031-492-4447","addr":"경기도 안산시 단원구 원시동 777-6번지 반월종합상가 141동 144호","category":"서적문구 - 문구용품"},{"name":"엘지통신(주)","tel":"031-492-8000","addr":"경기도 안산시 단원구 원시동 777-6번지 반월공단종합상가 2동 210호","category":"사무통신 - 통신기기"},{"name":"오피스디포경기인천권역점","tel":"031-493-3837","addr":"경기도 안산시 단원구 원시동 777-6번지 연번지 112동 113호","category":"서적문구 - 문구용품"},{"name":"원약국","tel":"031-492-5245","addr":"경기도 안산시 단원구 원시동 777-6번지 반월공단종합상가 1층 145호","category":"약국 - 약국"},{"name":"원조대구탕","tel":"031-491-2313","addr":"경기도 안산시 단원구 원시동 777-6번지 반월공단종합상가 221호","category":"일반휴게음식 - 일반한식"},{"name":"유니플라워","tel":"031-493-5373","addr":"경기도 안산시 단원구 원시동 777-6번지 공단종합상가 1동 148호","category":"문화.취미 - 화원"},{"name":"일미정","tel":"031-494-2350","addr":"경기도 안산시 단원구 원시동 777-6번지 반월공단종합상가 211동 212호","category":"일반휴게음식 - 일반한식"},{"name":"임가네녹두삼계탕","tel":"031-493-7831","addr":"경기도 안산시 단원구 원시동 777-6번지","category":"일반휴게음식 - 일반한식"},{"name":"자매네찌개전문점","tel":"031-406-5252","addr":"경기도 안산시 단원구 원시동 777-6번지 반월공단종합상가 220호","category":"일반휴게음식 - 일반한식"},{"name":"장동욱병원","tel":"031-493-2119","addr":"경기도 안산시 단원구 원시동 777-6번지 반월공단종합상가 3층 312-314호","category":"병원 - 병원"},{"name":"주식회사 한림","tel":"031-796-6061","addr":"경기도 안산시 단원구 원시동 777-6번지 반월공단종합상가 403호","category":"자동차정비 유지 - 주차장"},{"name":"진천식당","tel":"031-493-9198","addr":"경기도 안산시 단원구 원시동 777-6번지 1층","category":"일반휴게음식 - 일반한식"},{"name":"쪽","tel":"031-503-7001","addr":"경기도 안산시 단원구 원시동 777-6번지 반월공단종합상가 114호","category":"일반휴게음식 - 일반한식"},{"name":"참사랑푸드","tel":"","addr":"경기도 안산시 단원구 원시동 777-6번지 반월공단종합상가 G동 1층 04호","category":"일반휴게음식 - 일반한식"},{"name":"초가마을","tel":"031-413-3325","addr":"경기도 안산시 단원구 원시동 777-6번지 반월공단종합상가 222호","category":"일반휴게음식 - 일반한식"},{"name":"커피콩","tel":"031-494-8033","addr":"경기도 안산시 단원구 원시동 777-6번지 반월공단종합상가 131호","category":"일반휴게음식 - 서양음식"},{"name":"큐원푸드","tel":"031-494-8839","addr":"경기도 안산시 단원구 원시동 777-6번지 지원종합상가 415호","category":"음료식품 - 농·축·수산품"},{"name":"퍼팩트","tel":"031-494-1744","addr":"경기도 안산시 단원구 원시동 777-6번지 211,212호","category":"일반휴게음식 - 일반한식"},{"name":"할매추어탕","tel":"031-493-1706","addr":"경기도 안산시 단원구 원시동 777-6번지","category":"일반휴게음식 - 일반한식"},{"name":"행복한밥상","tel":"031-484-7216","addr":"경기도 안산시 단원구 원시동 777-6번지 반월공단종합상가 216호","category":"일반휴게음식 - 일반한식"},{"name":"현빛나김밥&도시락","tel":"031-495-7935","addr":"경기도 안산시 단원구 원시동 777-6번지 반월공단종합상가 124호","category":"일반휴게음식 - 일반한식"},{"name":"후니돈까스","tel":"031-504-9009","addr":"경기도 안산시 단원구 원시동 777-6번지 반월공단종합상가 2층 224호","category":"일반휴게음식 - 일반한식"},{"name":"희욱이네고추장갈비","tel":"031-492-7357","addr":"경기도 안산시 단원구 원시동 777-6번지 반월종합상가 136호","category":"일반휴게음식 - 일반한식"}]},{"lat":"37.312618501","long":"126.79605094","items":[{"name":"(사)한국기술경영협회","tel":"031-493-3833","addr":"경기도 안산시 단원구 원시동 777번지 지원회관빌딩 302호","category":"회원제형태 - 기타4"},{"name":"(주)퍼시스케이디","tel":"031-494-6511","addr":"경기도 안산시 단원구 원시동 777번지","category":"가구 - 일반가구"},{"name":"경원세기공조산업","tel":"031-492-5003","addr":"경기도 안산시 단원구 원시동 777번지 지원회관빌딩 B층 37호","category":"전기제품 - 냉열기기"},{"name":"공단윤활유","tel":"031-494-4466","addr":"경기도 안산시 단원구 원시동 777번지","category":"자동차정비 유지 - 자동차부품"},{"name":"공단정보통신(주)","tel":"031-495-8900","addr":"경기도 안산시 단원구 원시동 777번지","category":"사무통신 - 통신기기"},{"name":"공단한의원","tel":"031-492-2700","addr":"경기도 안산시 단원구 원시동 777번지 지원회관빌딩 201호","category":"의원 - 한의원"},{"name":"금호타이어원시점","tel":"031-406-9575","addr":"경기도 안산시 단원구 원시동 777번지 지원회관빌딩 1층","category":"자동차정비 유지 - 자동차시트·타이어"},{"name":"기아자동차비제이대리점","tel":"031-495-0100","addr":"경기도 안산시 단원구 원시동 777번지 지원회관빌딩 1층","category":"자동차판매 - 국산신차판매"},{"name":"다농","tel":"031-494-1948","addr":"경기도 안산시 단원구 원시동 777번지 지원회관빌딩 1층 111호","category":"음료식품 - 농·축·수산품"},{"name":"대양카","tel":"031-495-4282","addr":"경기도 안산시 단원구 원시동 777번지 지원회관빌딩 35 36호","category":"자동차정비 유지 - 자동차정비"},{"name":"롯데OA랜드","tel":"031-492-4720","addr":"경기도 안산시 단원구 원시동 777번지 지원회관빌딩 1층 3-123","category":"사무통신 - 사무용 OA기기"},{"name":"리더안전","tel":"031-415-0550","addr":"경기도 안산시 단원구 원시동 777번지 지원회관빌딩 112호","category":"신변잡화 - 기타잡화"},{"name":"반월정성치과의원","tel":"031-491-0003","addr":"경기도 안산시 단원구 원시동 777번지 지원회관빌딩 201-1호","category":"의원 - 치과의원"},{"name":"비제이코리아","tel":"031-493-2381","addr":"경기도 안산시 단원구 원시동 777번지 지원회관빌딩 1층 123호","category":"서적문구 - 문구용품"},{"name":"사)한국기독실업인회경기서부연합회","tel":"031-493-2714","addr":"경기도 안산시 단원구 원시동 777번지 지원회관빌딩 2층 4호","category":"기타 - 비영리/비대상"},{"name":"서부복장포장상사","tel":"031-495-8016","addr":"경기도 안산시 단원구 원시동 777번지 (지원회관1-15)","category":"기타 - 기타 전문점"},{"name":"신의주찹쌀순대","tel":"031-493-2834","addr":"경기도 안산시 단원구 원시동 777번지 지원회관빌딩 2층 202호","category":"일반휴게음식 - 일반한식"},{"name":"유일상사","tel":"031-494-9704","addr":"경기도 안산시 단원구 원시동 777번지 공단지원회관 1층","category":"건축자재 - 페인트"},{"name":"지원슈퍼","tel":"031-491-0058","addr":"경기도 안산시 단원구 원시동 777번지","category":"유통업 영리 - 슈퍼마켓"},{"name":"청원카인테리어","tel":"031-494-4133","addr":"경기도 안산시 단원구 원시동 777번지 1층4~6호","category":"자동차정비 유지 - 자동차정비"},{"name":"태원포장상사","tel":"031-494-6684","addr":"경기도 안산시 단원구 원시동 777번지 지원 상가 128호","category":"기타 - 기타 전문점"},{"name":"한아름제이앤씨(J&C)","tel":"070-4191-4829","addr":"경기도 안산시 단원구 원시동 777번지 지원회관빌딩 1층 139호","category":"유통업 영리 - 기타유통업"},{"name":"한일종합상사(주)","tel":"031-491-0076","addr":"경기도 안산시 단원구 원시동 777번지 공단지원회관 141호","category":"건축자재 - 인테리어전문"}]},{"lat":"37.318592141","long":"126.79089018","items":[{"name":"(주)고려특수강","tel":"031-493-2013","addr":"경기도 안산시 단원구 원시동 769-16번지 9호 반월공단","category":"기타 - 기계공구"},{"name":"주식회사경인특수강","tel":"031-495-3188","addr":"경기도 안산시 단원구 원시동 769-16반월공단23블럭9롯트","category":"기타 - 기계공구"}]},{"lat":"37.312621412","long":"126.78757916","items":[{"name":"(주)공화정공/원격지","tel":"031-495-5719","addr":"경기도 안산시 단원구 원시동 727-8번지 8동","category":"기타 - 기타 전문점"}]},{"lat":"37.305421204","long":"126.78700187","items":[{"name":"(주)굿모닝웰빙씨푸드","tel":"031-508-8940","addr":"경기도 안산시 단원구 원시동 731-4번지 서흥테크노밸리 302호,303호,304호","category":"음료식품 - 기타음료식품"},{"name":"(주)동진산업","tel":"031-509-9900","addr":"경기도 안산시 단원구 원시동 731-4번지 시흥테크노밸리 333호","category":"기타 - 기계공구"},{"name":"(주)우영에프앤디","tel":"031-508-9508","addr":"경기도 안산시 단원구 원시동 731-4번지 서흥테크노밸리 6층 610호","category":"음료식품 - 기타음료식품"},{"name":"(주)테크뷰","tel":"031-508-9898","addr":"경기도 안산시 단원구 원시동 731-4번지 서흥테크노밸리 241호","category":"전기제품 - 기타전기제품"},{"name":"가순국카센타","tel":"031-508-8555","addr":"경기도 안산시 단원구 원시동 731-4번지 서흥테크노밸리 120호","category":"자동차정비 유지 - 자동차정비"},{"name":"광성산전주식회사","tel":"031-508-8828","addr":"경기도 안산시 단원구 원시동 731-4번지 서흥테크노밸리 233호","category":"전기제품 - 기타전기제품"},{"name":"노커스","tel":"031-495-7988","addr":"경기도 안산시 단원구 원시동 731-4번지 서흥테크노밸리 137호 138호","category":"일반휴게음식 - 일반한식"},{"name":"다소니버블","tel":"","addr":"경기도 안산시 단원구 원시동 731-4번지 서흥테크노밸리 6층 625호","category":"신변잡화 - 기타잡화"},{"name":"동희레이저용접","tel":"031-492-5812","addr":"경기도 안산시 단원구 원시동 731-4번지 서흥테크노밸리 124호","category":"용역 서비스 - 기타용역서비스"},{"name":"두레인쇄","tel":"031-508-8582","addr":"경기도 안산시 단원구 원시동 731-4번지 서흥테크노밸리 340호","category":"서적문구 - 출판 및 인쇄물"},{"name":"메트로테크","tel":"031-455-0152","addr":"경기도 안산시 단원구 원시동 731-4번지 서흥테크노밸리 227호","category":"전기제품 - 가전제품"},{"name":"삼영특수인쇄","tel":"031-492-9028","addr":"경기도 안산시 단원구 원시동 731-4 서흥테크노밸리605,606,607호","category":"서적문구 - 출판 및 인쇄물"},{"name":"삼원","tel":"031-469-4440","addr":"경기도 안산시 단원구 원시동 731-4번지 서흥테크노밸리 602호","category":"건강식품 - 기타건강식품"},{"name":"삼정아이엔씨(주)","tel":"031-508-9400","addr":"경기도 안산시 단원구 원시동 731-4,서흥테크노밸리309호~310호","category":"전기제품 - 기타전기제품"},{"name":"서광계전(주)","tel":"031-502-0872","addr":"경기도 안산시 단원구 원시동 731-4 서흥테크노밸리B동 6층634호","category":"기타 - 기타 전문점"},{"name":"서흥반점","tel":"031-508-9808","addr":"경기도 안산시 단원구 원시동 731-4번지 서흥테크노밸리 106동 107호","category":"일반휴게음식 - 중국식"},{"name":"성주엔지니어링","tel":"070-8805-8572","addr":"경기도 안산시 단원구 원시동 731-4번지 서흥테크노밸리 534호","category":"기타 - 기계공구"},{"name":"세아이엔지","tel":"031-505-2346","addr":"경기도 안산시 단원구 원시동 731-4번지 서흥테크노밸리 408호","category":"기타 - 기타 전문점"},{"name":"소박사","tel":"031-508-8787","addr":"경기도 안산시 단원구 원시동 731-4번지 서흥테크노밸리 108,109호","category":"일반휴게음식 - 일반한식"},{"name":"신기엔지니어링/원격지","tel":"070-8830-2670","addr":"경기도 안산시 단원구 원시동 731-4번지 서흥테크노밸리 230호","category":"기타 - 기타 전문점"},{"name":"신한설비","tel":"031-508-8540","addr":"경기도 안산시 단원구 원시동 731-4번지 서흥테크노밸리 2층 217호","category":"용역 서비스 - 기타용역서비스"},{"name":"씨유안산테크노밸리점","tel":"031-508-8558","addr":"경기도 안산시 단원구 원시동 731-4번지 서흥테크노밸리 139호","category":"유통업 영리 - 편 의 점"},{"name":"오서방닭개장","tel":"031-495-7120","addr":"경기도 안산시 단원구 원시동 731-4번지 서흥테크노밸리 101-3,101-4","category":"일반휴게음식 - 일반한식"},{"name":"와이코리아 주식회사","tel":"031-493-5524","addr":"경기도 안산시 단원구 원시동 731-4번지 서흥테크노벨리 528호","category":"음료식품 - 기타음료식품"},{"name":"용추골순대국","tel":"031-495-9308","addr":"경기도 안산시 단원구 원시동 731-4번지 서흥테크노벨리 1층 102,130호","category":"일반휴게음식 - 일반한식"},{"name":"우영푸드","tel":"031-508-9508","addr":"경기도 안산시 단원구 원시동 731-4 서흥테크노벨리6층608,609,610,611호","category":"일반휴게음식 - 일반한식"},{"name":"우진워터스","tel":"031-508-8883","addr":"경기도 안산시 단원구 원시동 731-4번지 서흥테크노밸리 3층 326호","category":"회원제형태 - 기타3"},{"name":"월수금 통돼지 안산반월공단점","tel":"031-508-9229","addr":"경기도 안산시 단원구 원시동 731-4번지 115-117호","category":"일반휴게음식 - 일반한식"},{"name":"유원산업","tel":"031-508-4387","addr":"경기도 안산시 단원구 원시동 731-4번지 서흥테크노밸리 229호","category":"용역 서비스 - 기타용역서비스"},{"name":"육팔공사","tel":"031-480-6804","addr":"경기도 안산시 단원구 원시동 731-4번지 서흥테크노밸리 243호","category":"기타 - 기계공구"},{"name":"이.피.코리아","tel":"031-508-8818","addr":"경기도 안산시 단원구 원시동 731-4 서흥테크노밸리 2층 33","category":"신변잡화 - 기타잡화"},{"name":"이.피.코리아","tel":"031-508-8818","addr":"경기도 안산시 단원구 원시동 731-4 서흥테크노밸리 2층 33","category":"신변잡화 - 기타잡화"},{"name":"인터폰상사","tel":"","addr":"경기도 안산시 단원구 원시동 731-4번지 서흥테크노밸리 6층 633호","category":"건축자재 - 페인트"},{"name":"잇츠시스템","tel":"031-508-8725","addr":"경기도 안산시 단원구 원시동 731-4번지 서흥테크노밸리 411호","category":"가구 - 기타가구"},{"name":"전산매니아","tel":"031-508-8680","addr":"경기도 안산시 단원구 원시동 731-4번지 서흥테크노밸리 108동 109호","category":"사무통신 - 컴퓨터"},{"name":"전주한정식부페","tel":"031-508-8550","addr":"경기도 안산시 단원구 원시동 731-4번지 서흥테크노밸리 110동 113호","category":"일반휴게음식 - 위탁급식업"},{"name":"전주한정식부페","tel":"031-508-8550","addr":"경기도 안산시 단원구 원시동 731-4번지","category":"일반휴게음식 - 일반한식"},{"name":"제일씨엔씨","tel":"031-508-9960","addr":"경기도 안산시 단원구 원시동 731-4번지 서흥테크노밸리 224호","category":"기타 - 기계공구"},{"name":"주식회사 가순국자동차정비","tel":"031-508-8555","addr":"경기도 안산시 단원구 원시동 731-4번지 서흥테크노벨리120호외2호","category":"자동차정비 유지 - 자동차정비"},{"name":"주식회사 대흥포텍","tel":"031-495-9027","addr":"경기도 안산시 단원구 원시동 731-4번지 서흥테크노밸리 2층 242호","category":"서적문구 - 과학기자재"},{"name":"주식회사 에이원엠에스","tel":"031-319-6870","addr":"경기도 안산시 단원구 원시동 731-4번지 서흥테크노벨리 318호","category":"기타 - 기계공구"},{"name":"주식회사 원시점현대자동차","tel":"031-508-9990","addr":"경기도 안산시 단원구 원시동 731-4번지 서흥테크노밸리101-1/101-2","category":"자동차정비 유지 - 자동차정비"},{"name":"주식회사동희레이저","tel":"031-492-5812","addr":"경기도 안산시 단원구 원시동 731-4번지 서흥테크노벨리 A동 124호","category":"용역 서비스 - 기타용역서비스"},{"name":"커피판다","tel":"031-508-9966","addr":"경기도 안산시 단원구 원시동 731-4번지 서흥테크노밸리 129호","category":"일반휴게음식 - 서양음식"},{"name":"큰삼촌네","tel":"031-508-8512","addr":"경기도 안산시 단원구 원시동 731-4번지 서흥테크노벨리 127.128호","category":"일반휴게음식 - 일반한식"},{"name":"태양F&B/원격지","tel":"031-495-8887","addr":"경기도 안산시 단원구 원시동 731-4번지 서흥테크노밸리 5층 535호","category":"기타 - 기타 전문점"},{"name":"태원.이.디.엠","tel":"031-431-3695","addr":"경기도 안산시 단원구 원시동 731-4번지 서흥테크노밸리 533호","category":"기타 - 기계공구"},{"name":"태창트레이딩","tel":"031-508-9561","addr":"경기도 안산시 단원구 원시동 731-4번지 서흥테크노밸리 532호","category":"기타 - 기계공구"},{"name":"파인테크놀러지","tel":"031-508-8944","addr":"경기도 안산시 단원구 원시동 731-4번지 시흥테크노밸리 318호-319호","category":"기타 - 기계공구"},{"name":"한국제어기술","tel":"031-508-9981","addr":"경기도 안산시 단원구 원시동 731-4번지 서흥테크노밸리 224호","category":"기타 - 기계공구"},{"name":"한솔특수인쇄","tel":"031-508-9222","addr":"경기도 안산시 단원구 원시동 731-4번지","category":"서적문구 - 출판 및 인쇄물"},{"name":"행복한밥상","tel":"031-111-1111","addr":"경기도 안산시 단원구 원시동 731-4번지","category":"일반휴게음식 - 일반한식"},{"name":"홍이네 절임 배추","tel":"","addr":"경기도 안산시 단원구 원시동 731-4번지 5층 524,525호","category":"음료식품 - 기타음료식품"}]},{"lat":"37.315251159","long":"126.78202138","items":[{"name":"(주)금성복층유리","tel":"031-501-4432","addr":"경기도 안산시 단원구 원시동 716-1번지","category":"건축자재 - 유리"},{"name":"금성복층유리","tel":"031-501-4433","addr":"경기도 안산시 단원구 원시동 716-1번지","category":"건축자재 - 유리"},{"name":"티 플랜","tel":"031-000-0000","addr":"경기도 안산시 단원구 원시동 716-1번지 B동 1층","category":"기타 - 기계공구"}]},{"lat":"37.313426233","long":"126.7994104","items":[{"name":"(주)나샘","tel":"070-7139-5615","addr":"경기도 안산시 단원구 원시동 775-2번지 에이동 3층","category":"기타 - 기계공구"},{"name":"고니식당","tel":"02-111-1111","addr":"경기도 안산시 단원구 원시동 775-2번지 (주)엔트로피, (주)광은전자 A동 4층","category":"일반휴게음식 - 일반한식"},{"name":"주식회사 광은전자","tel":"031-495-0880","addr":"경기도 안산시 단원구 원시동 775-2번지 (10블럭 34호)","category":"건축자재 - 조명기구"}]},{"lat":"37.321786188","long":"126.78835404","items":[{"name":"(주)나샘안산지점","tel":"031-491-5615","addr":"경기도 안산시 단원구 원시동 768-1번지 대우테크노피아 C동 110,111호","category":"전기제품 - 기타전기제품"},{"name":"(주)스마트코리아","tel":"031-493-9025","addr":"경기도 안산시 단원구 원시동 768-1번지 대우테크노피아 216호","category":"전기제품 - 가전제품"},{"name":"(주)엠.에스.피","tel":"031-414-0023","addr":"경기도 안산시 단원구 원시동 768-1번지 701,702호","category":"서적문구 - 문구용품"},{"name":"(주)엠제이엘엠에스","tel":"031-491-5615","addr":"경기도 안산시 단원구 원시동 768-1 대우테크노피아씨동110,111호","category":"유통업 영리 - 기타유통업"},{"name":"(주)풍림오토테크","tel":"031-470-5555","addr":"경기도 안산시 단원구 원시동 768-1번지 대우테크노피아 A동 116호","category":"기타 - 기계공구"},{"name":"BWP","tel":"031-495-6633","addr":"경기도 안산시 단원구 원시동 768-1 대우테크노피아309,310,703","category":"기타 - 기타 전문점"},{"name":"G.T.C코리아","tel":"031-493-7888","addr":"경기도 안산시 단원구 원시동 768-1번지 D136,137호","category":"자동차정비 유지 - 카인테리어"},{"name":"K&C(케이엔씨)","tel":"070-4156-9170","addr":"경기도 안산시 단원구 원시동 768-1번지 대우테크노피아 328호","category":"전기제품 - 기타전기제품"},{"name":"가산열기/원격지","tel":"031-484-0475","addr":"경기도 안산시 단원구 원시동 768-1번지 대우테크노피아 322호","category":"기타 - 기타 전문점"},{"name":"계양엔진툴스","tel":"031-493-8509","addr":"경기도 안산시 단원구 원시동 768-1번지 대우테크노피아 A동 110호","category":"기타 - 기계공구"},{"name":"대광케이블","tel":"031-494-8847","addr":"경기도 안산시 단원구 원시동 768-1, 안산대우테크노피아121호,227호","category":"전기제품 - 기타전기제품"},{"name":"대성상사","tel":"031-492-8589","addr":"경기도 안산시 단원구 원시동 768-1번지 대우테크노피아1층에이동115호플러스1","category":"기타 - 기계공구"},{"name":"대우볼트","tel":"031-493-7510","addr":"경기도 안산시 단원구 원시동 768-1번지 대우테크노피아 A동 113호","category":"기타 - 기계공구"},{"name":"동신유니온","tel":"031-492-9500","addr":"경기도 안산시 단원구 원시동 768-1번지 대우테크노피아 A동 103호","category":"건축자재 - 기타건축자재"},{"name":"드림디포안산역점","tel":"031-495-7617","addr":"경기도 안산시 단원구 원시동 768-1번지 안산대우페크노피아 B동 101호","category":"서적문구 - 문구용품"},{"name":"비지앤(BGN)","tel":"070-8181-2496","addr":"경기도 안산시 단원구 원시동 768-1번지 대우테크노피아 417호","category":"신변잡화 - 기타잡화"},{"name":"사단법인전국산재장애인단체연합회안산시협","tel":"031-470-5222","addr":"경기도 안산시 단원구 원시동 768-1번지 대우테크노피아 314호","category":"서적문구 - 출판 및 인쇄물"},{"name":"샤론플라워","tel":"031-497-4955","addr":"경기도 안산시 단원구 원시동 768-1번지","category":"문화.취미 - 화원"},{"name":"세빈실업","tel":"031-439-1475","addr":"경기도 안산시 단원구 원시동 768-1번지 대우테크노피아 D동 1층 128,129호","category":"신변잡화 - 기타잡화"},{"name":"세승정밀","tel":"031-494-3305","addr":"경기도 안산시 단원구 원시동 768-1번지 외 1필지 대우테크노피아 2층 220호","category":"기타 - 기계공구"},{"name":"신성기업","tel":"031-494-5012","addr":"경기도 안산시 단원구 원시동 768-1번지 대우테크노피아 A동 120호","category":"건축자재 - 기타건축자재"},{"name":"씨에스와이","tel":"031-470-5800","addr":"경기도 안산시 단원구 원시동 768-1번지 대우테크노피아 426호","category":"용역 서비스 - 소프트웨어"},{"name":"영진SDS","tel":"031-508-1152","addr":"경기도 안산시 단원구 원시동 768-1번지 대우테크노피아 A동 117호","category":"서적문구 - 과학기자재"},{"name":"예손부대찌개","tel":"031-470-8300","addr":"경기도 안산시 단원구 원시동 768-1번지 테크노피아 1층 D117-119호","category":"일반휴게음식 - 일반한식"},{"name":"제이에스상사","tel":"031-439-6030","addr":"경기도 안산시 단원구 원시동 768-1번지 대우테크노피아 C동 125호","category":"기타 - 기계공구"},{"name":"주식회사씨에스와이","tel":"031-365-5880","addr":"경기도 안산시 단원구 원시동 768-1번지 대우테크노피아 625호","category":"전기제품 - 기타전기제품"},{"name":"주식회사엔폼","tel":"031-495-7229","addr":"경기도 안산시 단원구 원시동 768-1번지 대우테크노피아 219호","category":"전기제품 - 기타전기제품"},{"name":"평일","tel":"031-494-5611","addr":"경기도 안산시 단원구 원시동 768-1번지 대우테크노피아아파트 5층 534호","category":"사무통신 - 기타 사무용품"},{"name":"한국 3D FAMILY","tel":"031-495-0908","addr":"경기도 안산시 단원구 원시동 768-1번지 대우테크노피아 337호","category":"기타 - 기타 전문점"},{"name":"한빛애드","tel":"031-494-6386","addr":"경기도 안산시 단원구 원시동 768-1번지","category":"용역 서비스 - 종합용역"},{"name":"한주자동차정비","tel":"031-494-3391","addr":"경기도 안산시 단원구 원시동 768-1번지 안산대우테크노피아 1층 E101호","category":"자동차정비 유지 - 카인테리어"}]},{"lat":"37.304202681","long":"126.78097088","items":[{"name":"(주)네프코","tel":"031-492-4291","addr":"경기도 안산시 단원구 원시동 737-8번지 (주)네프코","category":"전기제품 - 기타전기제품"}]},{"lat":"37.308837505","long":"126.78288615","items":[{"name":"(주)니어플렉스","tel":"031-491-3838","addr":"경기도 안산시 단원구 원시동 732번지 반월4블럭4로트","category":"전기제품 - 기타전기제품"},{"name":"주식회사가온인터내셔널","tel":"031-482-4037","addr":"경기도 안산시 단원구 원시동 732번지","category":"전기제품 - 기타전기제품"}]},{"lat":"37.315615463","long":"126.78904844","items":[{"name":"(주)다원테크","tel":"070-4143-9303","addr":"경기도 안산시 단원구 원시동 725-4번지 서흥테크노밸리 227호","category":"전기제품 - 가전제품"},{"name":"현진전자주식회사","tel":"031-493-1989","addr":"경기도 안산시 단원구 원시동 725-4,반월공단1블럭4롯트","category":"전기제품 - 기타전기제품"}]},{"lat":"37.296676431","long":"126.77952681","items":[{"name":"(주)대성쇼트","tel":"031-491-6671","addr":"경기도 안산시 단원구 원시동 824-2번지","category":"기타 - 기계공구"},{"name":"티.알산업(주)","tel":"031-492-8153","addr":"경기도 안산시 단원구 원시동 824-2반월공단8블럭64호","category":"건축자재 - 기타건축자재"}]},{"lat":"37.312092505","long":"126.79411212","items":[{"name":"(주)두텍","tel":"031-495-3767","addr":"경기도 안산시 단원구 원시동 778번지 중앙일보안산공장 6층","category":"기타 - 기계공구"},{"name":"(주)두텍/원격지","tel":"031-495-3767","addr":"경기도 안산시 단원구 원시동 778번지 중앙일보안산공장 6층","category":"기타 - 기타 전문점"},{"name":"(주)비스로","tel":"031-491-0226","addr":"경기도 안산시 단원구 원시동 778번지 중앙일보사 9층 904호","category":"자동차정비 유지 - 자동차부품"},{"name":"(주)이엠정보기술","tel":"031-495-1956","addr":"경기도 안산시 단원구 원시동 778번지 중앙디앤에스빌딩 604호","category":"용역 서비스 - 소프트웨어"},{"name":"정그린푸드","tel":"031-527-9080","addr":"경기도 안산시 단원구 원시동 778번지","category":"일반휴게음식 - 위탁급식업"},{"name":"주식회사 미리코","tel":"031-492-1697","addr":"경기도 안산시 단원구 원시동 778번지 중앙일보빌딩 9층","category":"용역 서비스 - 소프트웨어"},{"name":"주식회사홍익메디칼시스템즈","tel":"031-495-3767","addr":"경기도 안산시 단원구 원시동 778번지 중앙일보안산공장 7층","category":"보건위생 - 의료용품"}]},{"lat":"37.296345241","long":"126.78068945","items":[{"name":"(주)디알하이텍","tel":"031-499-1104","addr":"경기도 안산시 단원구 원시동 824-4번지","category":"신변잡화 - 기타잡화"}]},{"lat":"37.299503246","long":"126.78796619","items":[{"name":"(주)레온 (LEON)","tel":"031-365-3412","addr":"경기도 안산시 단원구 원시동 833번지","category":"전기제품 - 기타전기제품"}]},{"lat":"37.303145257","long":"126.78407577","items":[{"name":"(주)롯데케논안산영업소","tel":"031-401-1992","addr":"경기도 안산시 단원구 원시동 736번지","category":"사무통신 - 사무용 OA기기"}]},{"lat":"37.301927249","long":"126.78810593","items":[{"name":"(주)부흥산업사","tel":"031-424-6146","addr":"경기도 안산시 단원구 원시동 782-2번지","category":"광학제품 - 사진관"}]},{"lat":"37.314287465","long":"126.79724214","items":[{"name":"(주)브이플러스패션팩토리아울렛","tel":"031-493-9441","addr":"경기도 안산시 단원구 원시동 773-9번지 110호 202호","category":"의류 - 정장"},{"name":"(주)한샘레포츠타운산업단지","tel":"031-492-3391","addr":"경기도 안산시 단원구 원시동 773-9번지","category":"회원제형태 - 레져업소"},{"name":"G&I  디자인","tel":"070-4226-0451","addr":"경기도 안산시 단원구 원시동 773-9번지 전지판매센터지하2층209호","category":"가구 - 일반가구"},{"name":"SH골프","tel":"031-493-8083","addr":"경기도 안산시 단원구 원시동 773-9번지 이마트백화점 507동 511호","category":"레저업소 - 골프연습장"},{"name":"객잔","tel":"031-491-9985","addr":"경기도 안산시 단원구 원시동 773-9 지하1층 114-1호","category":"일반휴게음식 - 중국식"},{"name":"깊은바다","tel":"031-491-0550","addr":"경기도 안산시 단원구 원시동 773-9번지 무역센터 지하 1층 111호","category":"일반휴게음식 - 일식·회집"},{"name":"뉴안향","tel":"031-495-8081","addr":"경기도 안산시 단원구 원시동 773-9번지 이마트 5층","category":"레져용품 - 스포츠·레져용품"},{"name":"다인","tel":"031-494-7757","addr":"경기도 안산시 단원구 원시동 773-9번지 이마트 지층 110호","category":"일반휴게음식 - 일반한식"},{"name":"다전","tel":"031-495-9580","addr":"경기도 안산시 단원구 원시동 773-9번지 이마트백화점 B109호","category":"일반휴게음식 - 일반한식"},{"name":"대림케더링","tel":"031-495-6422","addr":"경기도 안산시 단원구 원시동 773-9번지 이마트 409호","category":"음료식품 - 기타음료식품"},{"name":"더테라스","tel":"031-493-1818","addr":"경기도 안산시 단원구 원시동 773-9번지 1층 108호,109호","category":"일반휴게음식 - 일반한식"},{"name":"동양OA사무용가구","tel":"031-493-8807","addr":"경기도 안산시 단원구 원시동 773-9번지","category":"가구 - 기타가구"},{"name":"라이프 케어(Life Care)","tel":"031-493-3391","addr":"경기도 안산시 단원구 원시동 773-9번지 이마트백화점 117호","category":"회원제형태 - 학원"},{"name":"라이프 케어(Life Care)","tel":"031-492-3391","addr":"경기도 안산시 단원구 원시동 773-9번지 이마트 117호","category":"학원 - 기타 교육기관"},{"name":"라파시스템","tel":"031-505-7044","addr":"경기도 안산시 단원구 원시동 773-9번지 5층","category":"사무통신 - 컴퓨터"},{"name":"미꾸라지 매운탕","tel":"","addr":"경기도 안산시 단원구 원시동 773-9번지 지하1층 117호","category":"일반휴게음식 - 일반한식"},{"name":"복전문점복청(반월공단점)","tel":"031-491-0086","addr":"경기도 안산시 단원구 원시동 773-9번지 무역센터지하201,202호 103호","category":"일반휴게음식 - 일반한식"},{"name":"본가한식뷔페","tel":"","addr":"경기도 안산시 단원구 원시동 773-9번지 B1층 101호","category":"일반휴게음식 - 일반한식"},{"name":"신도리코안산시흥주식회사","tel":"031-491-3484","addr":"경기도 안산시 단원구 원시동 773-9번지 B동 1층 114호","category":"사무통신 - 사무용 OA기기"},{"name":"안산덴탈","tel":"031-502-1970","addr":"경기도 안산시 단원구 원시동 773-9번지 이마트 3층 368호","category":"기타의료기관 - 기타의료기관 및 기타"},{"name":"안산볼링장","tel":"031-493-8630","addr":"경기도 안산시 단원구 원시동 773-9번지 지하1층 114호","category":"레저업소 - 볼 링 장"},{"name":"안산제일볼링장","tel":"031-493-8630","addr":"경기도 안산시 단원구 원시동 773-9번지 이마트백화점","category":"레저업소 - 볼 링 장"},{"name":"알파안산영업소","tel":"031-495-0996","addr":"경기도 안산시 단원구 원시동 773-9.전시판매센타3층305-311호,326-327호","category":"서적문구 - 문구용품"},{"name":"여디디야","tel":"031-438-7520","addr":"경기도 안산시 단원구 원시동 773-9번지 이마트 1층 106호","category":"일반휴게음식 - 스넥"},{"name":"우주 스쿠버","tel":"031-000-0000","addr":"경기도 안산시 단원구 원시동 773-9번지 B2층","category":"레저업소 - 기타레져업소"},{"name":"은혜식당","tel":"031-495-9467","addr":"경기도 안산시 단원구 원시동 773-9번지 이마트 지하1층 104호","category":"일반휴게음식 - 일반한식"},{"name":"음식마을","tel":"031-491-0353","addr":"경기도 안산시 단원구 원시동 773-9번지","category":"일반휴게음식 - 일반한식"},{"name":"이지복권","tel":"031-495-2828","addr":"경기도 안산시 단원구 원시동 773-9번지 이마트 107호","category":"기타 - 기타 전문점"},{"name":"이지복권/삼원(담배)","tel":"031-494-3858","addr":"경기도 안산시 단원구 원시동 773-9번지","category":"기타 - 기타 전문점"},{"name":"일미식당","tel":"031-495-2870","addr":"경기도 안산시 단원구 원시동 773-9번지 무역센터 지하층 111호","category":"일반휴게음식 - 일반한식"},{"name":"장원부대감자탕","tel":"031-492-0666","addr":"경기도 안산시 단원구 원시동 773-9번지 서부공단전시판매센타 B112호","category":"일반휴게음식 - 일반한식"},{"name":"정직Food","tel":"000-0000-0000","addr":"경기도 안산시 단원구 원시동 773-9번지 제비 1층 104호,105호","category":"음료식품 - 기타음료식품"},{"name":"카페빌롱","tel":"031-491-4680","addr":"경기도 안산시 단원구 원시동 773-9번지 103호,104호","category":"일반휴게음식 - 스넥"},{"name":"탑치과병원","tel":"031-491-5858","addr":"경기도 안산시 단원구 원시동 773-9 이마트 303.304","category":"병원 - 치과병원"},{"name":"통일칼국수안산점","tel":"031-495-5904","addr":"경기도 안산시 단원구 원시동 773-9번지 이마트 502호","category":"일반휴게음식 - 일반한식"},{"name":"현스넥","tel":"031-495-0205","addr":"경기도 안산시 단원구 원시동 773-9번지 이마트 지하층 105호","category":"일반휴게음식 - 일반한식"}]},{"lat":"37.316918577","long":"126.78719462","items":[{"name":"(주)선우산업","tel":"031-434-5757","addr":"경기도 안산시 단원구 원시동 727-11 반월공단1블럭26롯트103동","category":"기타 - 기계공구"},{"name":"(주)선우산업/원격지","tel":"031-434-5757","addr":"경기도 안산시 단원구 원시동 727-11 반월공단1블럭26롯트103동","category":"기타 - 기타 전문점"},{"name":"일신식당","tel":"031-495-5868","addr":"경기도 안산시 단원구 원시동 727-11번지 1층","category":"일반휴게음식 - 위탁급식업"}]},{"lat":"37.312784108","long":"126.78786071","items":[{"name":"(주)선우포장","tel":"031-431-4051","addr":"경기도 안산시 단원구 원시동 727-8번지","category":"유통업 영리 - 기타유통업"},{"name":"선우포장산업","tel":"031-431-4051","addr":"경기도 안산시 단원구 원시동 727-8번지 반월공단 1블럭 39롯트 6동","category":"기타 - 기타 전문점"}]},{"lat":"37.319840345","long":"126.78855136","items":[{"name":"(주)세림건설","tel":"031-508-0336","addr":"경기도 안산시 단원구 원시동 768-5번지 반월하이테크빌리지 111호","category":"용역 서비스 - 기타용역서비스"},{"name":"(주)위닉스/원격지","tel":"031-432-7767","addr":"경기도 안산시 단원구 원시동 768-5번지 반월하이테크빌리지 A동 308호 빌리지 하이테크","category":"기타 - 기타 전문점"},{"name":"(주)코보트","tel":"031-492-9333","addr":"경기도 안산시 단원구 원시동 768-5번지 반월하이테크빌리지 A동 3층 314호","category":"사무통신 - 컴퓨터"},{"name":"(주)한독크린피아","tel":"031-493-3400","addr":"경기도 안산시 단원구 원시동 768-5번지 원시동,반월하이테크빌리지 507동 509호","category":"전기제품 - 가전제품"},{"name":"공단수약국","tel":"031-493-1771","addr":"경기도 안산시 단원구 원시동 768-5번지 반월하이테크빌리지 A동 110호","category":"약국 - 약국"},{"name":"미르텍","tel":"031-315-8151","addr":"경기도 안산시 단원구 원시동 768-5번지 202,203호","category":"유통업 영리 - 기타유통업"},{"name":"부산아지메","tel":"031-493-2156","addr":"경기도 안산시 단원구 원시동 768-5번지 반월하이테크빌리지 A동 106호","category":"일반휴게음식 - 일반한식"},{"name":"씨유반월하이테크점","tel":"02-874-3557","addr":"경기도 안산시 단원구 원시동 768-5번지 반월하이테크빌리지 103호","category":"유통업 영리 - 편 의 점"},{"name":"안산2층약국","tel":"070-4240-8094","addr":"경기도 안산시 단원구 원시동 768-5번지 반월하이테크빌리지 211호","category":"약국 - 약국"},{"name":"에스아이앤씨(주)","tel":"031-493-1128","addr":"경기도 안산시 단원구 원시동 768-5번지 반월하이테크빌리지 503호","category":"용역 서비스 - 기타용역서비스"},{"name":"원시골섞어찌개","tel":"031-493-1603","addr":"경기도 안산시 단원구 원시동 768-5번지 반월하이테크빌리지 A동 104호","category":"일반휴게음식 - 일반한식"},{"name":"주식회사 영진금속","tel":"031-000-0000","addr":"경기도 안산시 단원구 원시동 768-5번지 반월하이테크빌리지 A동 211호","category":"건축자재 - 기타건축자재"},{"name":"진영볼트","tel":"031-495-7174","addr":"경기도 안산시 단원구 원시동 768-5 반월하이테크빌리지제에이동1층107호","category":"기타 - 기계공구"},{"name":"치킨플러스 (반월공단점)","tel":"031-494-3236","addr":"경기도 안산시 단원구 원시동 768-5번지 반월하이테크빌리지 A동 201-1호","category":"일반휴게음식 - 스넥"},{"name":"쾌통한의원","tel":"031-495-5975","addr":"경기도 안산시 단원구 원시동 768-5번지 반월하이테크빌리지 A동 1층 105호","category":"의원 - 한의원"},{"name":"피알아이","tel":"031-491-6546","addr":"경기도 안산시 단원구 원시동 768-5번지 반월하이테크빌리지 A동 510호","category":"전기제품 - 기타전기제품"},{"name":"하루","tel":"","addr":"경기도 안산시 단원구 원시동 768-5번지 반월하이테크빌리지 2층 201,211,211-1호","category":"용역 서비스 - 사무서비스"},{"name":"하이테크구내식당","tel":"031-494-7653","addr":"경기도 안산시 단원구 원시동 768-5번지 반월하이테크빌리지 A동 112호","category":"일반휴게음식 - 일반한식"},{"name":"한빛시큐리티(주)","tel":"031-431-5988","addr":"경기도 안산시 단원구 원시동 768-5번지 반월하이테크빌리지 405호","category":"용역 서비스 - 종합용역"},{"name":"한성종합상사","tel":"","addr":"경기도 안산시 단원구 원시동 768-5번지 반월하이테크빌리지 A동 201호","category":"기타 - 기계공구"},{"name":"호미","tel":"031-493-2889","addr":"경기도 안산시 단원구 원시동 768-5번지 반월하이테크빌리지 A동 102호","category":"일반휴게음식 - 일반한식"}]},{"lat":"37.312947549","long":"126.79874612","items":[{"name":"(주)셈텍","tel":"031-438-5525","addr":"경기도 안산시 단원구 원시동 775-3번지 타원타크라 2동 327호","category":"전기제품 - 기타전기제품"},{"name":"(주)지인테크","tel":"070-7116-6479","addr":"경기도 안산시 단원구 원시동 775-3번지 타원TAKRA2지식산업센타 8층 8804호","category":"전기제품 - 기타전기제품"},{"name":"(주)포티스","tel":"070-7712-5026","addr":"경기도 안산시 단원구 원시동 775-3번지 7층 704,705호(타원TAKRA 2 지식산업센터,원시동)","category":"전기제품 - 기타전기제품"},{"name":"그리텍","tel":"070-8270-2648","addr":"경기도 안산시 단원구 원시동 775-3번지 타원TAKRA2지식산업센타 7층 702호","category":"건축자재 - 기타건축자재"},{"name":"마크원로닉스(주)","tel":"031-493-3907","addr":"경기도 안산시 단원구 원시동 775-3번지 타원TAKRA2지식산업센타 416호","category":"사무통신 - 컴퓨터"},{"name":"미니스톱 안산타크라점","tel":"031-1577-9621","addr":"경기도 안산시 단원구 원시동 775-3번지 타원타크라II 지식산업센터 B110호","category":"유통업 영리 - 편 의 점"},{"name":"본쥬얼리옵틱","tel":"031-406-1077","addr":"경기도 안산시 단원구 원시동 775-3번지 타원TAKRA2지식산업센타 5층 507호","category":"보건위생 - 안경"},{"name":"비에스씨아이(BSCI)","tel":"031-413-0248","addr":"경기도 안산시 단원구 원시동 775-3번지 타원TAKRA2지식산업센타 4층 401호","category":"서적문구 - 과학기자재"},{"name":"신우자동차정비","tel":"031-380-8119","addr":"경기도 안산시 단원구 원시동 775-3번지 (주)서흥단조공업 B동 120호","category":"자동차정비 유지 - 자동차정비"},{"name":"올하우주식회사","tel":"031-417-3349","addr":"경기도 안산시 단원구 원시동 775-3번지 타원TAKRA2지식산업센타 711호","category":"신변잡화 - 기념품점"},{"name":"이디야 안산반월공단점","tel":"031-380-8190","addr":"경기도 안산시 단원구 원시동 775-3번지 B1층 B108호","category":"일반휴게음식 - 서양음식"},{"name":"인화전기","tel":"031-380-8444","addr":"경기도 안산시 단원구 원시동 775-3번지 타원TAKRA2지식산업센타 3층 323호","category":"전기제품 - 기타전기제품"},{"name":"잘텍","tel":"031-491-4170","addr":"경기도 안산시 단원구 원시동 775-3번지 타원TAKRA2지식산업센타 7층 713호","category":"사무통신 - 통신기기"},{"name":"정원식당","tel":"031-495-6003","addr":"경기도 안산시 단원구 원시동 775-3번지 타원TAKRA2지식산업센타 206호","category":"일반휴게음식 - 일반한식"},{"name":"주식회사 더이후","tel":"031-204-8888","addr":"경기도 안산시 단원구 원시동 775-3번지 타원TAKRA2지식산업센타 9층 902호","category":"보건위생 - 화장품"},{"name":"주식회사 디엠엘","tel":"031-493-3916","addr":"경기도 안산시 단원구 원시동 775-3번지 7층 타원TAKRA 717호 2지식산업센터","category":"용역 서비스 - 사무서비스"},{"name":"주식회사 숨","tel":"031-413-6248","addr":"경기도 안산시 단원구 원시동 775-3번지 타원타크라2 지식산업센터 4층 401호","category":"용역 서비스 - 사무서비스"},{"name":"주식회사 웅천글로벌","tel":"031-4993-4642","addr":"경기도 안산시 단원구 원시동 775-3번지 타원타크라2지식산업센터 801호","category":"기타 - 기계공구"},{"name":"주식회사 테크니카","tel":"031-000-0000","addr":"경기도 안산시 단원구 원시동 775-3번지 타원TAKRA2지식산업센타 323호","category":"기타 - 기계공구"},{"name":"주식회사라온애드","tel":"031-402-4422","addr":"경기도 안산시 단원구 원시동 775-3번지 타원TAKRA2지식산업센타 3층 324호","category":"건축자재 - 인테리어전문"},{"name":"중앙코퍼레이션","tel":"031-380-8141","addr":"경기도 안산시 단원구 원시동 775-3번지 타원TAKRA2지식산업센타 5층 505호","category":"자동차정비 유지 - 자동차부품"},{"name":"지엔피종합유통","tel":"031-492-9420","addr":"경기도 안산시 단원구 원시동 775-3번지 타원타크라2지식산업센타 G동 1층 비123호","category":"유통업 영리 - 기타유통업"},{"name":"코리아시스템","tel":"031-380-8183","addr":"경기도 안산시 단원구 원시동 775-3번지 타원TAKRA2지식산업센타 1동 4층 415호","category":"자동차정비 유지 - 자동차부품"},{"name":"타크라구내식당","tel":"031-380-8111","addr":"경기도 안산시 단원구 원시동 775-3번지 타원타크라2 B101,B102,B103","category":"일반휴게음식 - 위탁급식업"},{"name":"티에스 이디엠 (TS.EDM)","tel":"","addr":"경기도 안산시 단원구 원시동 775-3번지 타원TAKRA2지식산업센타 4층 403호","category":"수리서비스 - 기타수리서비스"}]},{"lat":"37.309621585","long":"126.79291197","items":[{"name":"(주)신성전자/원격지","tel":"031-493-6344","addr":"경기도 안산시 단원구 원시동 779-5번지 반월공단 108-2","category":"기타 - 기타 전문점"},{"name":"신동아전자(주)","tel":"031-491-1951","addr":"경기도 안산시 단원구 원시동 779-5반월공단10블럭21롯트","category":"기타 - 기타 전문점"},{"name":"정우기공","tel":"031-495-8595","addr":"경기도 안산시 단원구 원시동 779-5","category":"건축자재 - 목재·석재·철물"},{"name":"정해정밀","tel":"031-491-2355","addr":"경기도 안산시 단원구 원시동 779-5번지","category":"전기제품 - 기타전기제품"},{"name":"코원써키트/원격지","tel":"031-491-2068","addr":"경기도 안산시 단원구 원시동 779-5반월공단10B-21L","category":"기타 - 기타 전문점"},{"name":"향수식당","tel":"031-0000-0000","addr":"경기도 안산시 단원구 원시동 779-5번지","category":"일반휴게음식 - 위탁급식업"}]},{"lat":"37.317145947","long":"126.79338742","items":[{"name":"(주)신세계푸드신흥","tel":"02-3397-6176","addr":"경기도 안산시 단원구 원시동 769-14번지","category":"일반휴게음식 - 위탁급식업"}]},{"lat":"37.321167646","long":"126.7901045","items":[{"name":"(주)신용금속","tel":"031-494-4603","addr":"경기도 안산시 단원구 원시동 769-1번지","category":"기타 - 기타 전문점"},{"name":"금성","tel":"031-491-6820","addr":"경기도 안산시 단원구 원시동 769-1번지","category":"기타 - 기타 전문점"},{"name":"신광하이테크","tel":"031-508-6171","addr":"경기도 안산시 단원구 원시동 769-1번지","category":"기타 - 기타 전문점"}]},{"lat":"37.30025447","long":"126.78488494","items":[{"name":"(주)씨티코스메틱","tel":"031-493-1430","addr":"경기도 안산시 단원구 원시동 740-7번지","category":"보건위생 - 화장품"},{"name":"(주)한국포장기계","tel":"031-495-9800","addr":"경기도 안산시 단원구 원시동 740-7번지 반월공단 8B5층","category":"기타 - 기타 전문점"},{"name":"주식회사 회종","tel":"031-493-0677","addr":"경기도 안산시 단원구 원시동 740-7번지 (주)광성정공 3동 1층 1호","category":"기타 - 기계공구"},{"name":"주식회사이에스알/원격지","tel":"031-493-4690","addr":"경기도 안산시 단원구 원시동 740-7,8블럭5롯트","category":"기타 - 기타 전문점"},{"name":"태강스틸","tel":"031-495-2016","addr":"경기도 안산시 단원구 원시동 740-7번지 1층 (주)광성정공","category":"건축자재 - 기타건축자재"}]},{"lat":"37.298504997","long":"126.78407794","items":[{"name":"(주)아워홈 엘에스오토티브안산1점","tel":"031-430-9158","addr":"경기도 안산시 단원구 원시동 743-5번지 1층","category":"일반휴게음식 - 위탁급식업"},{"name":"LS스토어","tel":"031-494-5503","addr":"경기도 안산시 단원구 원시동 743-5번지 3층 휴게실 내","category":"음료식품 - 기타음료식품"}]},{"lat":"37.321062853","long":"126.78696842","items":[{"name":"(주)아워홈서울반도체2공장점","tel":"031-364-0793","addr":"경기도 안산시 단원구 원시동 816-5번지","category":"일반휴게음식 - 위탁급식업"},{"name":"(주)휴먼네이처","tel":"031-416-3288","addr":"경기도 안산시 단원구 원시동 816-5번지 공장동3층","category":"음료식품 - 기타음료식품"}]},{"lat":"37.316398301","long":"126.78355227","items":[{"name":"(주)아워홈안산영업소","tel":"02-510-0877","addr":"경기도 안산시 단원구 원시동 723-1번지 반월공단 1B62호","category":"일반휴게음식 - 위탁급식업"},{"name":"(주)아워홈안산영업소/안산공장사원식당점","tel":"070-8299-4990","addr":"경기도 안산시 단원구 원시동 723-1번지 구내식당 4층","category":"일반휴게음식 - 위탁급식업"}]},{"lat":"37.308728397","long":"126.79224893","items":[{"name":"(주)아이엘티","tel":"031-493-8133","addr":"경기도 안산시 단원구 원시동 779-7번지","category":"기타 - 기계공구"},{"name":"삼한중기센타","tel":"02-495-9948","addr":"경기도 안산시 단원구 원시동 779-7번지","category":"기타 - 기계공구"}]},{"lat":"37.31736603","long":"126.7855237","items":[{"name":"(주)아즈텍","tel":"02-3402-1885","addr":"경기도 안산시 단원구 원시동 724-3번지 18","category":"전기제품 - 기타전기제품"},{"name":"(주)알앤테크","tel":"031-492-7255","addr":"경기도 안산시 단원구 원시동 724-3 1블럭24롯트","category":"전기제품 - 기타전기제품"},{"name":"더캠","tel":"031-365-3901","addr":"경기도 안산시 단원구 원시동 724-3번지","category":"전기제품 - 기타전기제품"},{"name":"주식회사제이시스/원격지","tel":"031-493-4713","addr":"경기도 안산시 단원구 원시동 724-3번지","category":"기타 - 기타 전문점"},{"name":"테코스주식회사","tel":"031-493-4980","addr":"경기도 안산시 단원구 원시동 724-3번지","category":"전기제품 - 기타전기제품"}]},{"lat":"37.319834561","long":"126.78538121","items":[{"name":"(주)에스에프","tel":"031-480-8611","addr":"경기도 안산시 단원구 원시동 817-4번지","category":"기타의료기관 - 동물병원"}]},{"lat":"37.306368525","long":"126.78768722","items":[{"name":"(주)에이엠케이","tel":"031-494-8013","addr":"경기도 안산시 단원구 원시동 730-1번지 JS테크노타운 A동 303호","category":"전기제품 - 기타전기제품"},{"name":"UA정공","tel":"031-494-0835","addr":"경기도 안산시 단원구 원시동 730-1 JS테크노타워지식산업센터 A동102호","category":"기타 - 기계공구"},{"name":"UA정공/원격지","tel":"","addr":"경기도 안산시 단원구 원시동 730-1번지 제이에스테크노타워지식산업센터 A동 102호","category":"기타 - 기타 전문점"},{"name":"그린닥트","tel":"031-491-0229","addr":"경기도 안산시 단원구 원시동 730-1번지 JS테크노타워공장 A동 106호","category":"건축자재 - 보일러·펌프·샷시"},{"name":"김밥천국(반월공단점)","tel":"031-494-1001","addr":"경기도 안산시 단원구 원시동 730-1 JS테크노타워지식산업센터A동107,108호","category":"일반휴게음식 - 스넥"},{"name":"더커피","tel":"031-494-7227","addr":"경기도 안산시 단원구 원시동 730-1번지 JS테크노타워지식산업센터 A동 107호","category":"일반휴게음식 - 서양음식"},{"name":"박치기당구클럽","tel":"031-111-1111","addr":"경기도 안산시 단원구 원시동 730-1번지 JS테크노타워 지식산업센터 A동 201~203호","category":"레저업소 - 당 구 장"},{"name":"서울옥","tel":"","addr":"경기도 안산시 단원구 원시동 730-1번지 JS테크노타워공장 A동 109호 110호","category":"일반휴게음식 - 일반한식"},{"name":"원시점 오토카서비스","tel":"031-492-6677","addr":"경기도 안산시 단원구 원시동 730-1 JS테크노타워C동1층114.112.113호","category":"자동차정비 유지 - 자동차부품"},{"name":"주식회사 다산이엔지","tel":"031-434-0773","addr":"경기도 안산시 단원구 원시동 730-1번지 JS테크노타워 B동 110호","category":"서적문구 - 과학기자재"},{"name":"주식회사 오토스텝코리아","tel":"031-492-6677","addr":"경기도 안산시 단원구 원시동 730-1번지 JS테크노타워공장 A동 106호","category":"자동차정비 유지 - 카인테리어"}]},{"lat":"37.312143184","long":"126.79732694","items":[{"name":"(주)에프아이엠엠","tel":"031-365-5025","addr":"경기도 안산시 단원구 원시동 777-9번지","category":"전기제품 - 기타전기제품"}]},{"lat":"37.311892745","long":"126.78330591","items":[{"name":"(주)우신몰드테크","tel":"031-495-2716","addr":"경기도 안산시 단원구 원시동 721-2 1블럭57호","category":"기타 - 기타 전문점"}]},{"lat":"37.296148264","long":"126.78135544","items":[{"name":"(주)유로","tel":"02-3453-8127","addr":"경기도 안산시 단원구 원시동 824-5반월공단8-61","category":"전기제품 - 기타전기제품"},{"name":"(주)제성씨엔엠 태성점","tel":"070-5039-7546","addr":"경기도 안산시 단원구 원시동 824-5번지","category":"일반휴게음식 - 위탁급식업"},{"name":"(주)후니드 태성점","tel":"070-5039-7546","addr":"경기도 안산시 단원구 원시동 824-5번지 1층 (주)태성 직원식당","category":"일반휴게음식 - 위탁급식업"}]},{"lat":"37.311143245","long":"126.78241694","items":[{"name":"(주)유진씨엔이텍","tel":"031-494-8818","addr":"경기도 안산시 단원구 원시동 718-1반월공단2BL12호","category":"기타 - 기타 전문점"},{"name":"세신기업","tel":"031-492-3422","addr":"경기도 안산시 단원구 원시동 718-1반월공단2블럭12호","category":"기타 - 기타 전문점"}]},{"lat":"37.296035432","long":"126.78858508","items":[{"name":"(주)을지철강","tel":"031-508-5991","addr":"경기도 안산시 단원구 원시동 836-6,9블럭75롯트","category":"건축자재 - 목재·석재·철물"},{"name":"주식회사 청우씨엔티","tel":"031-365-3630","addr":"경기도 안산시 단원구 원시동 836-6번지 나동","category":"전기제품 - 냉열기기"}]},{"lat":"37.299505615","long":"126.78927452","items":[{"name":"(주)이룸테크","tel":"031-316-1841","addr":"경기도 안산시 단원구 원시동 833-12번지","category":"기타 - 기계공구"}]},{"lat":"37.299481839","long":"126.78124416","items":[{"name":"(주)인트라이즈","tel":"031-407-9000","addr":"경기도 안산시 단원구 원시동 742-2번지","category":"기타 - 기계공구"}]},{"lat":"37.31478202","long":"126.78169561","items":[{"name":"(주)지산하이테크","tel":"031-491-3227","addr":"경기도 안산시 단원구 원시동 716번지","category":"용역 서비스 - 기타용역서비스"},{"name":"티엠에스","tel":"070-8878-0093","addr":"경기도 안산시 단원구 원시동 716번지 제나동 1블럭58로트","category":"전기제품 - 냉열기기"}]},{"lat":"37.3129475486","long":"126.7987461237","items":[{"name":"(주)지인테크","tel":"070-7116-0079","addr":"경기도 안산시 단원구 원시동 775-3번지","category":"제조업 - 정보통신,CCTV,통신자재"},{"name":"타크라구내식당","tel":"031-380-8111","addr":"경기도 안산시 단원구 원시동 775-3번지","category":"숙박 및 음식점업 - 구내식당"}]},{"lat":"37.319585683","long":"126.78724341","items":[{"name":"(주)케이피엠테크","tel":"070-5057-0496","addr":"경기도 안산시 단원구 원시동 816-2번지","category":"기타 - 기타 전문점"}]},{"lat":"37.311696778","long":"126.78946564","items":[{"name":"(주)통일합판","tel":"031-493-7491","addr":"경기도 안산시 단원구 원시동 726-4번지 A동 1층","category":"건축자재 - 목재·석재·철물"},{"name":"이룸물산","tel":"031-768-5053","addr":"경기도 안산시 단원구 원시동 726-4번지","category":"기타 - 기계공구"}]},{"lat":"37.318140404","long":"126.78525071","items":[{"name":"(주)파세코","tel":"031-599-5643","addr":"경기도 안산시 단원구 원시동 724-1번지","category":"전기제품 - 냉열기기"},{"name":"미니매점","tel":"","addr":"경기도 안산시 단원구 원시동 724-1번지","category":"음료식품 - 기타음료식품"}]},{"lat":"37.318783636","long":"126.78716673","items":[{"name":"(주)파인켐텍","tel":"031-493-6500","addr":"경기도 안산시 단원구 원시동 725-12번지","category":"기타 - 기타 전문점"},{"name":"(주)파인켐텍/원격지","tel":"031-493-6500","addr":"경기도 안산시 단원구 원시동 725-12번지","category":"기타 - 기타 전문점"}]},{"lat":"37.316059419","long":"126.79041221","items":[{"name":"(주)파트라","tel":"031-468-0503","addr":"경기도 안산시 단원구 원시동 770-3번지 1층2층전부","category":"가구 - 기타가구"},{"name":"대현컨넥터","tel":"031-493-2121","addr":"경기도 안산시 단원구 원시동 770-3번지 대우테크노피아6층 611호","category":"전기제품 - 기타전기제품"},{"name":"워싱턴에어텍","tel":"031-493-6075","addr":"경기도 안산시 단원구 원시동 770-3 반월공단 11블럭 15롯트","category":"기타 - 기계공구"}]},{"lat":"37.299676563","long":"126.7793826","items":[{"name":"(주)한샘도무스","tel":"02-6470-6111","addr":"경기도 안산시 단원구 원시동 742-3번지 (8블럭35호)","category":"가구 - 일반가구"},{"name":"(주)한샘도무스","tel":"02-3495-2672","addr":"경기도 안산시 단원구 원시동 742-3번지 (8블럭35호)","category":"가구 - 일반가구"},{"name":"(주)한샘이펙스","tel":"02-6908-3930","addr":"경기도 안산시 단원구 원시동 742-3번지","category":"가구 - 기타가구"}]},{"lat":"37.302647612","long":"126.78785574","items":[{"name":"(주)핫시스","tel":"031-495-4380","addr":"경기도 안산시 단원구 원시동 782-12번지","category":"기타 - 기계공구"}]},{"lat":"37.309089104","long":"126.79241712","items":[{"name":"(주)화인인터내셔날/원격지","tel":"031-495-2165","addr":"경기도 안산시 단원구 원시동 779-6 반월공단10블럭20롯트","category":"기타 - 기타 전문점"}]},{"lat":"37.31006577","long":"126.78443925","items":[{"name":"(주)흥일금속","tel":"031-494-2637","addr":"경기도 안산시 단원구 원시동 720-1번지","category":"기타 - 기계공구"}]},{"lat":"37.309175758","long":"126.78552472","items":[{"name":"(주）명신기연","tel":"031-494-6589","addr":"경기도 안산시 단원구 원시동 729-1번지 유진테크노밸리 A동 108호","category":"유통업 영리 - 기타유통업"},{"name":"구내식당","tel":"031-494-4505","addr":"경기도 안산시 단원구 원시동 729-1번지 한국신문잉크(주)제2공장 A동 1층 101호","category":"일반휴게음식 - 위탁급식업"},{"name":"에스제이전자","tel":"032-439-8537","addr":"경기도 안산시 단원구 원시동 729-1번지","category":"신변잡화 - 기타잡화"},{"name":"요철기계","tel":"","addr":"경기도 안산시 단원구 원시동 729-1번지 유진테크노벨리 B동 106호","category":"기타 - 기계공구"},{"name":"주식회사파워일렉트릭","tel":"031-494-2369","addr":"경기도 안산시 단원구 원시동 729-1번지 유진테크노벨리 A동 102호","category":"기타 - 기계공구"}]},{"lat":"37.31606452","long":"126.78824621","items":[{"name":"1블럭한식","tel":"070-8885-1557","addr":"경기도 안산시 단원구 원시동 725-6번지","category":"일반휴게음식 - 위탁급식업"},{"name":"동진모방(주)","tel":"031-494-0381","addr":"경기도 안산시 단원구 원시동 725-6번지","category":"직물 - 침구·수예점"},{"name":"주식회사 효광","tel":"031-364-5000","addr":"경기도 안산시 단원구 원시동 725-6번지","category":"기타 - 기계공구"}]},{"lat":"37.299003898","long":"126.78103127","items":[{"name":"ARTREA정밀","tel":"031-494-7167","addr":"경기도 안산시 단원구 원시동 742-4번지 반월공단 8블럭25","category":"자동차정비 유지 - 자동차부품"},{"name":"경일종합기계","tel":"031-492-7878","addr":"경기도 안산시 단원구 원시동 742-4번지","category":"기타 - 기계공구"}]},{"lat":"37.3217861884","long":"126.7883540404","items":[{"name":"㈜유한일진","tel":"1544-9607","addr":"경기도 안산시 단원구 원시동 768-1번지","category":"도매 및 소매업 - 청소용품,화장지,"}]},{"lat":"37.3054212044","long":"126.7870018699","items":[{"name":"가순국자동차정비","tel":"031-508-8555","addr":"경기도 안산시 단원구 원시동 731-4번지","category":"협회 및 단체, 수리 및 기타 개인서"},{"name":"서흥반점","tel":"031-508-9808","addr":"경기도 안산시 단원구 원시동 731-4번지","category":"숙박 및 음식점업 - 중식"},{"name":"소박사","tel":"031-508-8787","addr":"경기도 안산시 단원구 원시동 731-4번지","category":"숙박 및 음식점업 - 요식업"},{"name":"오서방닭개장","tel":"031-495-7120","addr":"경기도 안산시 단원구 원시동 731-4번지","category":"숙박 및 음식점업 - 한식"},{"name":"용추골순대국","tel":"031-495-9308","addr":"경기도 안산시 단원구 원시동 731-4번지","category":"숙박 및 음식점업 - 한식"},{"name":"유원산업","tel":"031-508-9088","addr":"경기도 안산시 단원구 원시동 731-4번지","category":"제조업 - 수처리약품"}]},{"lat":"37.319058879","long":"126.78494346","items":[{"name":"가정식부페","tel":"031-493-3909","addr":"경기도 안산시 단원구 원시동 818-5번지 B103 - B106호","category":"일반휴게음식 - 일반한식"},{"name":"세븐일레븐안산유진타워점","tel":"","addr":"경기도 안산시 단원구 원시동 818-5번지 지하1층 B103호","category":"유통업 영리 - 편 의 점"},{"name":"카페모카","tel":"031-493-7333","addr":"경기도 안산시 단원구 원시동 818-5번지 지하1층 102호 비","category":"일반휴게음식 - 서양음식"}]},{"lat":"37.301983612","long":"126.78444007","items":[{"name":"강성구내식당","tel":"031-494-5418","addr":"경기도 안산시 단원구 원시동 739-2번지 1층","category":"일반휴게음식 - 위탁급식업"}]},{"lat":"37.305426578","long":"126.78996838","items":[{"name":"강성테크","tel":"031-493-4501","addr":"경기도 안산시 단원구 원시동 781-3 반월공단 10-11","category":"가구 - 기타가구"},{"name":"대화정밀화학/원격지","tel":"031-494-9482","addr":"경기도 안산시 단원구 원시동 781-3 반월공단10블럭11롯트B동","category":"기타 - 기타 전문점"}]},{"lat":"37.3142874649","long":"126.7972421404","items":[{"name":"객잔","tel":"031-491-9985","addr":"경기도 안산시 단원구 원시동 773-9번지","category":"숙박 및 음식점업 - 중식"},{"name":"다전","tel":"031-495-9580","addr":"경기도 안산시 단원구 원시동 773-9번지","category":"숙박 및 음식점업 - 한식"},{"name":"미꾸라지매운탕","tel":"","addr":"경기도 안산시 단원구 원시동 773-9번지","category":"숙박 및 음식점업 - 한식"},{"name":"복요리전문점복청복집","tel":"031-491-0086","addr":"경기도 안산시 단원구 원시동 773-9번지","category":"숙박 및 음식점업 - 복요리"},{"name":"안산제일볼링장","tel":"031-493-8630","addr":"경기도 안산시 단원구 원시동 773-9번지","category":"협회 및 단체, 수리 및 기타 개인서"},{"name":"장원부대감자탕","tel":"031-492-0666","addr":"경기도 안산시 단원구 원시동 773-9번지","category":"숙박 및 음식점업 - 한식"},{"name":"현스넥","tel":"031-405-0295","addr":"경기도 안산시 단원구 원시동 773-9번지","category":"숙박 및 음식점업 - 한식"}]},{"lat":"37.3134262333","long":"126.7994103951","items":[{"name":"고니식당","tel":"","addr":"경기도 안산시 단원구 원시동 775-2번지","category":"숙박 및 음식점업 - 음식점"}]},{"lat":"37.298895861","long":"126.78593777","items":[{"name":"고창식당","tel":"","addr":"경기도 안산시 단원구 원시동 785-6번지","category":"일반휴게음식 - 위탁급식업"}]},{"lat":"37.31417221","long":"126.79832542","items":[{"name":"골프존파크/스마트허브골프","tel":"031-492-5577","addr":"경기도 안산시 단원구 원시동 774-2번지 태인드림시티 B동 107호","category":"레져용품 - 골프용품 전문점"},{"name":"씨유안산태인드림점","tel":"080-080-3663","addr":"경기도 안산시 단원구 원시동 774-2번지 태인드림시티 B105호(b)호","category":"유통업 영리 - 편 의 점"},{"name":"진선미식 주식회사","tel":"031-493-9993","addr":"경기도 안산시 단원구 원시동 774-2번지 태인드림시티근린시설 B동 103호","category":"일반휴게음식 - 일반한식"}]},{"lat":"37.312202671","long":"126.79527372","items":[{"name":"공단자동차종합정비(주)","tel":"031-485-0088","addr":"경기도 안산시 단원구 원시동 777-5번지","category":"자동차정비 유지 - 자동차정비"}]},{"lat":"37.31534079","long":"126.7967429","items":[{"name":"광명차유리","tel":"031-494-3030","addr":"경기도 안산시 단원구 원시동 773-1,광명상가다동2호~3호","category":"자동차정비 유지 - 자동차부품"},{"name":"안산브란자","tel":"031-491-2400","addr":"경기도 안산시 단원구 원시동 773-1번지","category":"자동차정비 유지 - 자동차정비"},{"name":"안산세차장","tel":"031-494-0136","addr":"경기도 안산시 단원구 원시동 773-1번지 안산자동차정비(주) 나동 6호","category":"자동차정비 유지 - 세차장"},{"name":"안산현대상사","tel":"031-494-2323","addr":"경기도 안산시 단원구 원시동 773-1번지","category":"자동차정비 유지 - 자동차부품"},{"name":"원창상사","tel":"031-493-5180","addr":"경기도 안산시 단원구 원시동 773-1번지","category":"자동차정비 유지 - 자동차부품"},{"name":"주식회사 안산모터스","tel":"031-491-2020","addr":"경기도 안산시 단원구 원시동 773-1번지","category":"자동차정비 유지 - 자동차정비"},{"name":"천호상사","tel":"031-495-0092","addr":"경기도 안산시 단원구 원시동 773-1번지","category":"자동차정비 유지 - 자동차부품"},{"name":"현민상사","tel":"031-494-0933","addr":"경기도 안산시 단원구 원시동 773-1번지 나동 1~3호","category":"자동차정비 유지 - 자동차부품"}]},{"lat":"37.300091776","long":"126.77977613","items":[{"name":"구내식당","tel":"","addr":"경기도 안산시 단원구 원시동 742-5번지 2층","category":"일반휴게음식 - 위탁급식업"}]},{"lat":"37.3128634674","long":"126.7970204053","items":[{"name":"그린산업","tel":"031-487-6020","addr":"경기도 안산시 단원구 원시동 777-6번지","category":"출판, 영상, 방송통신 및 정보서비스"},{"name":"달달한스토리","tel":"070-8881-0995","addr":"경기도 안산시 단원구 원시동 777-6번지","category":"숙박 및 음식점업 - 카페"},{"name":"대덕환경안전","tel":"031-494-0209","addr":"경기도 안산시 단원구 원시동 777-6번지","category":"도매 및 소매업 - 환경컨설팅,엔지니"},{"name":"석기정","tel":"031-495-2117","addr":"경기도 안산시 단원구 원시동 777-6번지","category":"숙박 및 음식점업 - 일반음식"},{"name":"알파안산공단점","tel":"031-492-4447","addr":"경기도 안산시 단원구 원시동 777-6번지","category":"도매 및 소매업 - 문구"},{"name":"오피스디포경기인천권역점","tel":"","addr":"경기도 안산시 단원구 원시동 777-6번지","category":"도매 및 소매업 - 사무용품,인쇄"},{"name":"유니플라워","tel":"031-493-5373","addr":"경기도 안산시 단원구 원시동 777-6번지","category":"농업, 임업 및 어업 - 생화"},{"name":"임가네녹두삼계탕","tel":"031-493-7831","addr":"경기도 안산시 단원구 원시동 777-6번지","category":"숙박 및 음식점업 - 한식"},{"name":"초가마을","tel":"031-413-3325","addr":"경기도 안산시 단원구 원시동 777-6번지","category":"숙박 및 음식점업 - 한식"},{"name":"커피콩","tel":"031-494-8033","addr":"경기도 안산시 단원구 원시동 777-6번지","category":"숙박 및 음식점업 - 휴게음식점"},{"name":"퍼팩트","tel":"031-494-1744","addr":"경기도 안산시 단원구 원시동 777-6번지","category":"숙박 및 음식점업 - 일반음식점"},{"name":"한국환경안전기술","tel":"","addr":"경기도 안산시 단원구 원시동 777-6번지","category":"도매 및 소매업 - 환경컨설팅업,환경"},{"name":"할매추어탕","tel":"031-493-1706","addr":"경기도 안산시 단원구 원시동 777-6번지","category":"숙박 및 음식점업 - 대중음식"},{"name":"행복한밥상","tel":"031-484-7216","addr":"경기도 안산시 단원구 원시동 777-6번지","category":"숙박 및 음식점업 - 일반음식"}]},{"lat":"37.319502675","long":"126.78619445","items":[{"name":"금영테크","tel":"031-318-6514","addr":"경기도 안산시 단원구 원시동 817-2.1블럭91","category":"전기제품 - 기타전기제품"},{"name":"화인기계","tel":"031-493-8350","addr":"경기도 안산시 단원구 원시동 817-2번지 2층","category":"기타 - 기계공구"}]},{"lat":"37.3063685249","long":"126.7876872247","items":[{"name":"김밥천국(반월공단점)","tel":"031-494-1001","addr":"경기도 안산시 단원구 원시동 730-1번지","category":"숙박 및 음식점업 - 기타음식"},{"name":"서울옥","tel":"031-508-0306","addr":"경기도 안산시 단원구 원시동 730-1번지","category":"숙박 및 음식점업 - 한우"}]},{"lat":"37.298505281","long":"126.78916456","items":[{"name":"낙원식당","tel":"031-414-0610","addr":"경기도 안산시 단원구 원시동 833-10번지 1층","category":"일반휴게음식 - 일반한식"}]},{"lat":"37.297315224","long":"126.78877318","items":[{"name":"내쇼날푸라스틱(주)/비씨","tel":"031-361-8682","addr":"경기도 안산시 단원구 원시동 834번지","category":"별도관리 - 자체물품대금"},{"name":"엔피씨(주)","tel":"031-495-7037","addr":"경기도 안산시 단원구 원시동 834번지","category":"기타 - 기계공구"}]},{"lat":"37.305515603","long":"126.78937031","items":[{"name":"다원","tel":"031-491-8762","addr":"경기도 안산시 단원구 원시동 781-4번지 (주)청솔이앤씨단지 가동 104호","category":"일반휴게음식 - 위탁급식업"}]},{"lat":"37.305614633","long":"126.78932492","items":[{"name":"닻성물","tel":"031-199-5852","addr":"경기도 안산시 단원구 원시동 781-4번지 1층","category":"문화.취미 - 민예·공예품"}]},{"lat":"37.311562018","long":"126.79474529","items":[{"name":"대명정밀","tel":"031-493-8190","addr":"경기도 안산시 단원구 원시동 778-7번지","category":"자동차정비 유지 - 자동차부품"}]},{"lat":"37.313505166","long":"126.78799403","items":[{"name":"대영이앤비(주)","tel":"031-364-8910","addr":"경기도 안산시 단원구 원시동 727-7번지","category":"전기제품 - 가전제품"}]},{"lat":"37.29864665","long":"126.7827241","items":[{"name":"대진휀스(주)","tel":"031-498-3763","addr":"경기도 안산시 단원구 원시동 743-8반월공단8블럭26","category":"기타 - 기계공구"}]},{"lat":"37.316479846","long":"126.78871884","items":[{"name":"대흥금속","tel":"031-492-1001","addr":"경기도 안산시 단원구 원시동 725-3번지","category":"기타 - 기계공구"}]},{"lat":"37.298261817","long":"126.77930783","items":[{"name":"롯데알미늄(주)안산공장","tel":"031-801-8279","addr":"경기도 안산시 단원구 원시동 822번지","category":"전기제품 - 가전제품"},{"name":"롯데알미늄(주)안산공장/원격지","tel":"02-801-8137","addr":"경기도 안산시 단원구 원시동 822번지","category":"기타 - 기타 전문점"}]},{"lat":"37.31305717","long":"126.78938283","items":[{"name":"만석골한식부페","tel":"031-430-0017","addr":"경기도 안산시 단원구 원시동 726-9번지 1층 일부","category":"일반휴게음식 - 위탁급식업"}]},{"lat":"37.300617817","long":"126.78161303","items":[{"name":"명진식당","tel":"031-493-7524","addr":"경기도 안산시 단원구 원시동 741-3번지","category":"일반휴게음식 - 일반한식"},{"name":"빛나셀프식당","tel":"031-493-7524","addr":"경기도 안산시 단원구 원시동 741-3번지 1층","category":"일반휴게음식 - 위탁급식업"}]},{"lat":"37.318865426","long":"126.78755007","items":[{"name":"무성테크","tel":"031-494-6260","addr":"경기도 안산시 단원구 원시동 725-11번지 1층","category":"신변잡화 - 기타잡화"}]},{"lat":"37.300394659","long":"126.78763657","items":[{"name":"미디안식당","tel":"031-123-1234","addr":"경기도 안산시 단원구 원시동 784-1번지 1층","category":"일반휴게음식 - 위탁급식업"},{"name":"제이제이 이엔지(JJ ENG)","tel":"","addr":"경기도 안산시 단원구 원시동 784-1번지","category":"기타 - 기계공구"}]},{"lat":"37.316223648","long":"126.79666153","items":[{"name":"반월 ENG","tel":"031-494-1100","addr":"경기도 안산시 단원구 원시동 773-8번지","category":"자동차정비 유지 - 자동차시트·타이어"},{"name":"풍년케이터링","tel":"031-494-8839","addr":"경기도 안산시 단원구 원시동 773-8번지 2층","category":"음료식품 - 농·축·수산품"}]},{"lat":"37.3162236475","long":"126.7966615254","items":[{"name":"반월(ENG)","tel":"031-494-1100","addr":"경기도 안산시 단원구 원시동 773-8번지","category":"도매 및 소매업 - 타이어"}]},{"lat":"37.313201391","long":"126.79447004","items":[{"name":"반월공단우체국","tel":"031-491-0100","addr":"경기도 안산시 단원구 원시동 773-7번지","category":"용역 서비스 - 공공요금대행서비스/소"}]},{"lat":"37.3126185015","long":"126.7960509370","items":[{"name":"반월정성치과의원","tel":"031-491-0003","addr":"경기도 안산시 단원구 원시동 777번지","category":"보건업 및 사회복지서비스업 - 치과의"},{"name":"선진식품㈜","tel":"031-494-6988","addr":"경기도 안산시 단원구 원시동 777번지","category":"숙박 및 음식점업 - 구내식당,곡물가"},{"name":"신의주찹쌀순대","tel":"031-493-2834","addr":"경기도 안산시 단원구 원시동 777번지","category":"숙박 및 음식점업 - 한식 음식점"}]},{"lat":"37.29847945","long":"126.78983007","items":[{"name":"범진시엔엘주식회사","tel":"031-493-9415","addr":"경기도 안산시 단원구 원시동 833-14번지","category":"전기제품 - 기타전기제품"}]},{"lat":"37.300505277","long":"126.78408342","items":[{"name":"베트남반미","tel":"","addr":"경기도 안산시 단원구 원시동 740-6번지 건민약품공업(주) 아동 1층","category":"음료식품 - 기타음료식품"}]},{"lat":"37.307426189","long":"126.7846612","items":[{"name":"보성파워텍(주)","tel":"031-491-0311","addr":"경기도 안산시 단원구 원시동 731-1번지","category":"건축자재 - 기타건축자재"}]},{"lat":"37.313116164","long":"126.79213516","items":[{"name":"사조산업(주)안산공장","tel":"031-495-4207","addr":"경기도 안산시 단원구 원시동 772-5번지","category":"유통업 영리 - 기타유통업"}]},{"lat":"37.311064061","long":"126.78344369","items":[{"name":"삼성에프.씨 주식회사","tel":"031-491-3016","addr":"경기도 안산시 단원구 원시동 721번지","category":"직물 - 기타직물"}]},{"lat":"37.310863464","long":"126.79205121","items":[{"name":"삼성웰스토리 (주) 영풍전자플렉스타워","tel":"031-5171-1192","addr":"경기도 안산시 단원구 원시동 778-3번지 6층","category":"일반휴게음식 - 위탁급식업"},{"name":"삼성웰스토리 (주)영풍전자플렉스타워카페","tel":"031-5171-1192","addr":"경기도 안산시 단원구 원시동 778-3번지 6층","category":"일반휴게음식 - 서양음식"},{"name":"프라임유통 플렉스지사","tel":"02-1111-1111","addr":"경기도 안산시 단원구 원시동 778-3번지 6층","category":"음료식품 - 기타음료식품"}]},{"lat":"37.310922931","long":"126.79510803","items":[{"name":"삼성웰스토리 (주)영풍전자 안산1공장","tel":"031-5171-1192","addr":"경기도 안산시 단원구 원시동 779-1번지 지하1층","category":"일반휴게음식 - 위탁급식업"}]},{"lat":"37.29708854","long":"126.78307827","items":[{"name":"삼성웰스토리(주)계양전기안산","tel":"031-490-5482","addr":"경기도 안산시 단원구 원시동 823-2번지","category":"일반휴게음식 - 위탁급식업"}]},{"lat":"37.317426189","long":"126.78394413","items":[{"name":"삼우공주(주)","tel":"031-495-7421","addr":"경기도 안산시 단원구 원시동 724번지","category":"자동차정비 유지 - 자동차부품"},{"name":"주식회사일진피엔에스","tel":"031-493-8645","addr":"경기도 안산시 단원구 원시동 724번지","category":"건축자재 - 기타건축자재"}]},{"lat":"37.304369925","long":"126.78860655","items":[{"name":"서울우유반월공단대리점","tel":"031-494-9504","addr":"경기도 안산시 단원구 원시동 782번지 원시운동장내제2호점포","category":"음료식품 - 기타음료식품"}]},{"lat":"37.29903678","long":"126.78910666","items":[{"name":"성원기계","tel":"031-495-9972","addr":"경기도 안산시 단원구 원시동 833-8 9B-10-2L","category":"기타 - 기계공구"},{"name":"은성종합기계","tel":"031-493-5722","addr":"경기도 안산시 단원구 원시동 833-8 반월공단9블럭10롯트112호","category":"기타 - 기계공구"}]},{"lat":"37.313446172","long":"126.7953267","items":[{"name":"세기공조기술(KT ENG,캐리어코리아,에어컨","tel":"031-1666-8904","addr":"경기도 안산시 단원구 원시동 773-3 KT서안산지사3층","category":"전기제품 - 냉열기기"}]},{"lat":"37.316537614","long":"126.78580812","items":[{"name":"세븐일레븐서울반도체2호점","tel":"02-3284-8168","addr":"경기도 안산시 단원구 원시동 727번지 지하1층","category":"유통업 영리 - 편 의 점"}]},{"lat":"37.314676408","long":"126.79810972","items":[{"name":"세븐일레븐안산공단점","tel":"","addr":"경기도 안산시 단원구 원시동 774, 103(안산드림타운)","category":"유통업 영리 - 편 의 점"},{"name":"엘에이(LA)북창동순두부안산원시점","tel":"031-494-2330","addr":"경기도 안산시 단원구 원시동 774번지 안산드림타운 203호 204호","category":"일반휴게음식 - 일반한식"},{"name":"이가원항아리수제비","tel":"031-493-0063","addr":"경기도 안산시 단원구 원시동 774번지 105호","category":"일반휴게음식 - 일반한식"},{"name":"커피도이창(Coffee Doichang)","tel":"031-493-3011","addr":"경기도 안산시 단원구 원시동 774번지 102호 101호,102호","category":"일반휴게음식 - 서양음식"},{"name":"황태골","tel":"031-493-0602","addr":"경기도 안산시 단원구 원시동 774번지 201호","category":"일반휴게음식 - 일반한식"}]},{"lat":"37.297009019","long":"126.77910853","items":[{"name":"세븐일레븐안산스마트대로점","tel":"031-494-6631","addr":"경기도 안산시 단원구 원시동 824-10번지 반월공단8블럭65롯트101호","category":"유통업 영리 - 편 의 점"}]},{"lat":"37.32042025","long":"126.7903548","items":[{"name":"세창금속","tel":"031-495-5556","addr":"경기도 안산시 단원구 원시동 769-2번지 경인도금단지","category":"기타 - 기계공구"},{"name":"진명홈바스(주)","tel":"031-494-7131","addr":"경기도 안산시 단원구 원시동 769-2번지","category":"가구 - 기타가구"},{"name":"한국명인금속","tel":"031-494-0713","addr":"경기도 안산시 단원구 원시동 769-2번지","category":"신변잡화 - 귀금속"}]},{"lat":"37.313364348","long":"126.79490954","items":[{"name":"수정(SJ)에이전트","tel":"031-508-1112","addr":"경기도 안산시 단원구 원시동 773-21번지 KT 별관 2층","category":"사무통신 - 통신기기"},{"name":"안산단원동산45","tel":"031-245-2545","addr":"경기도 안산시 단원구 원시동 773-21번지 KTE원시빌딩","category":"용역 서비스 - 보관및 창고업"}]},{"lat":"37.304310062","long":"126.78057578","items":[{"name":"순천부페식당","tel":"031-483-3334","addr":"경기도 안산시 단원구 원시동 737-7번지","category":"일반휴게음식 - 위탁급식업"}]},{"lat":"37.30323268","long":"126.78263178","items":[{"name":"승림카본금속(유)","tel":"031-491-2722","addr":"경기도 안산시 단원구 원시동 737-2번지 승림카본금속(주)","category":"전기제품 - 기타전기제품"},{"name":"승림카본금속(유)/원격지","tel":"031-491-0733","addr":"경기도 안산시 단원구 원시동 737-2번지 승림카본금속(주)","category":"기타 - 기타 전문점"}]},{"lat":"37.313119803","long":"126.79418824","items":[{"name":"시립안산스마트허브어린이집[아이행복]","tel":"031-364-8765","addr":"경기도 안산시 단원구 원시동 773-18","category":"학원 - 유아원"}]},{"lat":"37.308424868","long":"126.78879809","items":[{"name":"신반월 파렛트","tel":"031-494-0056","addr":"경기도 안산시 단원구 원시동 729-8번지","category":"건축자재 - 기타건축자재"}]},{"lat":"37.311397275","long":"126.79844574","items":[{"name":"신신제약(주)반월공장","tel":"031-491-6151","addr":"경기도 안산시 단원구 원시동 776-6번지","category":"약국 - 약국"}]},{"lat":"37.314286687","long":"126.7866945","items":[{"name":"씨유서울옵토디바이스점","tel":"031-364-3417","addr":"경기도 안산시 단원구 원시동 727-5번지 서울옵토디바이스(주)","category":"유통업 영리 - 편 의 점"}]},{"lat":"37.310588325","long":"126.78935597","items":[{"name":"씨유안산몰렉스점","tel":"031-490-4299","addr":"경기도 안산시 단원구 원시동 726-3번지 5층","category":"유통업 영리 - 편 의 점"}]},{"lat":"37.2984535549","long":"126.7854991820","items":[{"name":"안산지업상사","tel":"","addr":"경기도 안산시 단원구 원시동 785-13번지","category":"도매 및 소매업 - 인쇄용지,종이및"}]},{"lat":"37.296401197","long":"126.78657652","items":[{"name":"에넥시스템","tel":"031-434-8220","addr":"경기도 안산시 단원구 원시동 835-7 9블럭2롯트","category":"전기제품 - 가전제품"}]},{"lat":"37.317115949","long":"126.79171787","items":[{"name":"에스알씨주식회사","tel":"031-491-5231","addr":"경기도 안산시 단원구 원시동 769-11번지","category":"기타 - 기계공구"}]},{"lat":"37.307647819","long":"126.7926129","items":[{"name":"에이취아이엠테크 (주)","tel":"070-0000-0000","addr":"경기도 안산시 단원구 원시동 779-10번지 1층","category":"보건위생 - 의료용품"}]},{"lat":"37.301116026","long":"126.78793905","items":[{"name":"예일식당","tel":"031-492-4666","addr":"경기도 안산시 단원구 원시동 784-3번지","category":"일반휴게음식 - 위탁급식업"},{"name":"예일식당","tel":"031-492-4666","addr":"경기도 안산시 단원구 원시동 784-3번지","category":"일반휴게음식 - 일반한식"}]},{"lat":"37.306037317","long":"126.78888381","items":[{"name":"용성열처리주식회사","tel":"031-495-0082","addr":"경기도 안산시 단원구 원시동 781-9번지","category":"기타 - 기계공구"}]},{"lat":"37.309980367","long":"126.79199727","items":[{"name":"위플러스반월점/하빈저","tel":"","addr":"경기도 안산시 단원구 원시동 778-4번지","category":"유통업 영리 - 편 의 점"}]},{"lat":"37.316752755","long":"126.79016207","items":[{"name":"유진기공산업(주)","tel":"031-491-4711","addr":"경기도 안산시 단원구 원시동 770-2번지","category":"기타 - 기계공구"},{"name":"유진차량정비(주)","tel":"031-491-4711","addr":"경기도 안산시 단원구 원시동 770-2번지","category":"자동차정비 유지 - 자동차정비"}]},{"lat":"37.302843181","long":"126.78152755","items":[{"name":"이모네식당","tel":"031-352-1673","addr":"경기도 안산시 단원구 원시동 738-1번지 1층","category":"일반휴게음식 - 위탁급식업"}]},{"lat":"37.317215768","long":"126.7871148","items":[{"name":"일신식당","tel":"031-495-5868","addr":"경기도 안산시 단원구 원시동 727-11번지 101동 1층","category":"일반휴게음식 - 위탁급식업"}]},{"lat":"37.299560327","long":"126.78963528","items":[{"name":"자매식당","tel":"031-405-4404","addr":"경기도 안산시 단원구 원시동 833-13번지 반월공단9블럭10","category":"일반휴게음식 - 위탁급식업"}]},{"lat":"37.31989622","long":"126.78955528","items":[{"name":"전주구내식당","tel":"","addr":"경기도 안산시 단원구 원시동 768-12번지 1층 구내식당부분","category":"일반휴게음식 - 위탁급식업"}]},{"lat":"37.308257532","long":"126.79094176","items":[{"name":"정도이앤피(주)","tel":"031-494-5601","addr":"경기도 안산시 단원구 원시동 780-4번지","category":"기타 - 기타 전문점"}]},{"lat":"37.302284086","long":"126.78128105","items":[{"name":"제일도장","tel":"031-493-3313","addr":"경기도 안산시 단원구 원시동 738-4번지","category":"기타 - 기계공구"}]},{"lat":"37.304033513","long":"126.78205419","items":[{"name":"주식회사 명도플러스","tel":"031-492-3372","addr":"경기도 안산시 단원구 원시동 737-5번지 101동104동","category":"기타 - 기계공구"}]},{"lat":"37.299754013","long":"126.78713086","items":[{"name":"주식회사 보광휀스","tel":"031-493-0164","addr":"경기도 안산시 단원구 원시동 785-1번지","category":"건축자재 - 기타건축자재"},{"name":"타크라식당","tel":"031-380-8111","addr":"경기도 안산시 단원구 원시동 785-1번지 1층 삼진정밀(주)","category":"일반휴게음식 - 일반한식"}]},{"lat":"37.312814058","long":"126.78947376","items":[{"name":"주식회사 웰메이드","tel":"031-494-5466","addr":"경기도 안산시 단원구 원시동 726-10번지","category":"기타 - 기계공구"}]},{"lat":"37.316782251","long":"126.78655198","items":[{"name":"주식회사영도테크","tel":"031-497-1385","addr":"경기도 안산시 단원구 원시동 727-1반월공단1블럭26롯트","category":"기타 - 기타 전문점"}]},{"lat":"37.311730657","long":"126.78826981","items":[{"name":"중원전기(주)","tel":"031-491-1131","addr":"경기도 안산시 단원구 원시동 727-9번지","category":"전기제품 - 기타전기제품"}]},{"lat":"37.312030375","long":"126.79983154","items":[{"name":"지에프씨/원격지","tel":"031-494-2336","addr":"경기도 안산시 단원구 원시동 776-3 반월공단 10블럭30롯트","category":"기타 - 기타 전문점"}]},{"lat":"37.300394015","long":"126.78239192","items":[{"name":"지현물산(주)","tel":"031-495-5500","addr":"경기도 안산시 단원구 원시동 740-5번지","category":"기타 - 기타 전문점"}]},{"lat":"37.296621262","long":"126.77894051","items":[{"name":"케이피산업(주)","tel":"031-358-5415","addr":"경기도 안산시 단원구 원시동 824-11 반월공단8블럭65로트2","category":"기타 - 기계공구"}]},{"lat":"37.313862921","long":"126.79152391","items":[{"name":"코엠테크구내식당","tel":"031-492-1126","addr":"경기도 안산시 단원구 원시동 772-7번지 4층","category":"일반휴게음식 - 위탁급식업"}]},{"lat":"37.312508779","long":"126.79513751","items":[{"name":"타이어앤피트안산점","tel":"031-494-3707","addr":"경기도 안산시 단원구 원시동 777-4번지","category":"자동차정비 유지 - 자동차정비"}]},{"lat":"37.3125087790","long":"126.7951375060","items":[{"name":"타이어엔피트안산점","tel":"031-494-3707","addr":"경기도 안산시 단원구 원시동 777-4번지","category":"협회 및 단체, 수리 및 기타 개인서"}]},{"lat":"37.319447802","long":"126.79071856","items":[{"name":"태경에코 주식회사","tel":"031-494-5423","addr":"경기도 안산시 단원구 원시동 769-8번지 1층","category":"서적문구 - 과학기자재"}]},{"lat":"37.29981549","long":"126.7813898","items":[{"name":"포인트피앤피","tel":"031-508-5478","addr":"경기도 안산시 단원구 원시동 742-1번지 반월공단8블럭20호","category":"유통업 영리 - 기타유통업"}]},{"lat":"37.299287044","long":"126.78308315","items":[{"name":"풍림유화공업(주)","tel":"031-492-1191","addr":"경기도 안산시 단원구 원시동 743-6번지","category":"신변잡화 - 기타잡화"}]},{"lat":"37.300088488","long":"126.78283268","items":[{"name":"풍원정밀(주)","tel":"031-493-2107","addr":"경기도 안산시 단원구 원시동 740-3번지","category":"기타 - 기타 전문점"},{"name":"풍원정밀(주)","tel":"031-493-2107","addr":"경기도 안산시 단원구 원시동 740-3번지","category":"전기제품 - 기타전기제품"},{"name":"풍원화학(주)","tel":"031-493-0600","addr":"경기도 안산시 단원구 원시동 740-3번지","category":"기타 - 기타 전문점"}]},{"lat":"37.31073205","long":"126.794161","items":[{"name":"프라임유통 와이피지사","tel":"02-1111-1111","addr":"경기도 안산시 단원구 원시동 779-2번지 지하1층","category":"음료식품 - 기타음료식품"}]},{"lat":"37.313952301","long":"126.7962165","items":[{"name":"한국산업단지공단 경기지역본부 관리소","tel":"070-8895-7545","addr":"경기도 안산시 단원구 원시동 773-2번지 한국산업단지공단 302호","category":"자동차정비 유지 - 주차장"}]},{"lat":"37.300341908","long":"126.77863623","items":[{"name":"한샘구내매점(대흥식당)","tel":"031-489-0612","addr":"경기도 안산시 단원구 원시동 742번지","category":"음료식품 - 기타음료식품"}]},{"lat":"37.300951446","long":"126.7817474","items":[{"name":"한주그래픽스","tel":"031-430-1943","addr":"경기도 안산시 단원구 원시동 741-2 8B-3L","category":"서적문구 - 출판 및 인쇄물"}]},{"lat":"37.318226503","long":"126.78308442","items":[{"name":"행복식당","tel":"","addr":"경기도 안산시 단원구 원시동 714-1번지 1층","category":"일반휴게음식 - 위탁급식업"}]},{"lat":"37.304592606","long":"126.78230071","items":[{"name":"행복식당","tel":"031-000-0000","addr":"경기도 안산시 단원구 원시동 734-8번지 (주)뉴인성내","category":"일반휴게음식 - 위탁급식업"}]},{"lat":"37.3055052679","long":"126.7886371702","items":[{"name":"행복한 밥상","tel":"","addr":"경기도 안산시 단원구 원시동 781-11번지","category":"숙박 및 음식점업 - 구내식당"}]},{"lat":"37.305505268","long":"126.78863717","items":[{"name":"행복한 밥상","tel":"","addr":"경기도 안산시 단원구 원시동 781-11번지","category":"일반휴게음식 - 일반한식"}]},{"lat":"37.293230352","long":"126.77732656","items":[{"name":"황제라사","tel":"031-6-7877","addr":"경기도 안산시 단원구 원시동 845번지 우성5차 110호","category":"의류 - 맞춤복점"}]},{"lat":"37.308450344","long":"126.78794073","items":[{"name":"힐링푸드","tel":"031-492-0711","addr":"경기도 안산시 단원구 원시동 729-5번지 마동 1층","category":"일반휴게음식 - 위탁급식업"}]}]