[{"lat":"37.062421355","long":"126.79292058","items":[{"name":"(주) 더위더스","tel":"031-351-8887","addr":"경기도 화성시 우정읍 화산리 668-12번지 벧엘빌딩 106호","category":"용역 서비스 - 종합용역"}]},{"lat":"37.074228009","long":"126.79450735","items":[{"name":"(주)핸즈이노베이션","tel":"032-202-8807","addr":"경기도 화성시 우정읍 화산리 364-8번지 핸즈이노베이션(주)","category":"건축자재 - 기타건축자재"},{"name":"비엔에스","tel":"070-8186-9940","addr":"경기도 화성시 우정읍 화산리 364-8번지","category":"기타 - 기계공구"}]},{"lat":"37.059093347","long":"126.79117584","items":[{"name":"BHC치킨비어촌","tel":"031-358-7244","addr":"경기도 화성시 우정읍 화산리 694-7번지 기아2차아파트","category":"일반휴게음식 - 스넥"}]},{"lat":"37.070895385","long":"126.81130488","items":[{"name":"GS25화성화산점","tel":"02-2006-2118","addr":"경기도 화성시 우정읍 화산리 3-18","category":"유통업 영리 - 편 의 점"},{"name":"미림","tel":"031-351-0222","addr":"경기도 화성시 우정읍 화산리 3-18번지 나동 1층","category":"일반휴게음식 - 일반한식"},{"name":"바다사랑","tel":"031-351-7746","addr":"경기도 화성시 우정읍 화산리 3-18 6호","category":"일반휴게음식 - 일반한식"},{"name":"신황제꼼장어","tel":"031-351-1180","addr":"경기도 화성시 우정읍 화산리 3-18번지 1층","category":"일반휴게음식 - 일반한식"},{"name":"유가네 한우곰탕","tel":"","addr":"경기도 화성시 우정읍 화산리 3-18번지 나동","category":"일반휴게음식 - 일반한식"},{"name":"진미통닭","tel":"031-358-6969","addr":"경기도 화성시 우정읍 화산리 3-18번지 나동 1층","category":"일반휴게음식 - 스넥"}]},{"lat":"37.070038037","long":"126.81047494","items":[{"name":"고려페인트혜림상사","tel":"031-351-7745","addr":"경기도 화성시 우정읍 화산리 5-4번지","category":"건축자재 - 페인트"}]},{"lat":"37.063477316","long":"126.79389587","items":[{"name":"골드빈스토어","tel":"070-4170-6406","addr":"경기도 화성시 우정읍 화산리 1198-15번지","category":"일반휴게음식 - 서양음식"}]},{"lat":"37.063901385","long":"126.79422077","items":[{"name":"국민짱 노래연습장","tel":"031-351-0122","addr":"경기도 화성시 우정읍 화산리 659-4번지","category":"레저업소 - 노 래 방"},{"name":"면천추어탕","tel":"031-351-4577","addr":"경기도 화성시 우정읍 화산리 659-4번지","category":"일반휴게음식 - 일반한식"}]},{"lat":"37.063533611","long":"126.79516625","items":[{"name":"글로벌인재스쿨(GIOBAL TALENT SCHOOL)","tel":"031-358-8971","addr":"경기도 화성시 우정읍 화산리 665번지 1층 사무실","category":"학원 - 기타 교육기관"},{"name":"한국코칭리더협회","tel":"031-358-8971","addr":"경기도 화성시 우정읍 화산리 665번지","category":"학원 - 기타 교육기관"}]},{"lat":"37.064120946","long":"126.79610912","items":[{"name":"금 대박전집","tel":"031-351-3797","addr":"경기도 화성시 우정읍 화산리 664-35번지","category":"일반휴게음식 - 일반한식"},{"name":"대원콩나물국밥","tel":"031-358-6717","addr":"경기도 화성시 우정읍 화산리 664-35번지 1동 7,8호","category":"일반휴게음식 - 일반한식"},{"name":"순떡튀튀","tel":"031-351-1949","addr":"경기도 화성시 우정읍 화산리 664-35번지 101호","category":"일반휴게음식 - 스넥"},{"name":"이마트24 화성카렌스점","tel":"031-000-0000","addr":"경기도 화성시 우정읍 화산리 664-35번지","category":"유통업 영리 - 편 의 점"},{"name":"이마트24 화성카렌스점","tel":"031-000-0000","addr":"경기도 화성시 우정읍 화산리 664-35번지 1층","category":"유통업 영리 - 편 의 점"},{"name":"카페188","tel":"031-358-2838","addr":"경기도 화성시 우정읍 화산리 664-35번지 1층","category":"일반휴게음식 - 서양음식"}]},{"lat":"37.064310911","long":"126.79653587","items":[{"name":"기아수산직매장","tel":"031-351-4768","addr":"경기도 화성시 우정읍 화산리 664-1번지","category":"음료식품 - 농·축·수산품"},{"name":"신초물회","tel":"031-351-4768","addr":"경기도 화성시 우정읍 화산리 664-1","category":"일반휴게음식 - 일반한식"}]},{"lat":"37.060950061","long":"126.79147425","items":[{"name":"기아정","tel":"031-358-1185","addr":"경기도 화성시 우정읍 화산리 693번지","category":"일반휴게음식 - 일반한식"}]},{"lat":"37.064615564","long":"126.79555683","items":[{"name":"기아화성어린이집[아이행복]","tel":"031-351-8745","addr":"경기도 화성시 우정읍 화산리 617-15번지 기아카렌스센터 2층","category":"학원 - 유아원"},{"name":"용인대 KIA 박사 태권도","tel":"031-351-1790","addr":"경기도 화성시 우정읍 화산리 617-15번지 카렌스센터 303호","category":"학원 - 예·체능계학원"},{"name":"장터삼겹살","tel":"031-358-3369","addr":"경기도 화성시 우정읍 화산리 617-15번지 2층","category":"일반휴게음식 - 일반한식"},{"name":"제이에스바디케어","tel":"","addr":"경기도 화성시 우정읍 화산리 617-15번지 3층 기아 카렌스센터","category":"보건위생 - 피부미용실"},{"name":"카렌스당구장","tel":"031-358-3205","addr":"경기도 화성시 우정읍 화산리 617-15번지","category":"레저업소 - 당 구 장"}]},{"lat":"37.063260369","long":"126.79350293","items":[{"name":"기양낚시슈퍼","tel":"031-351-8338","addr":"경기도 화성시 우정읍 화산리 1198-4","category":"유통업 영리 - 슈퍼마켓"},{"name":"기양카인테리어","tel":"031-358-9886","addr":"경기도 화성시 우정읍 화산리 1198-4번지","category":"자동차정비 유지 - 자동차정비"},{"name":"꾀꼬리 엘리시아 헤어","tel":"031-351-6237","addr":"경기도 화성시 우정읍 화산리 1198-4번지","category":"보건위생 - 미용원"}]},{"lat":"37.064254474","long":"126.79517552","items":[{"name":"나이스오서약국","tel":"031-358-7541","addr":"경기도 화성시 우정읍 화산리 663-1번지","category":"약국 - 약국"},{"name":"모아비가든","tel":"031-358-5977","addr":"경기도 화성시 우정읍 화산리 663-1","category":"일반휴게음식 - 일반한식"},{"name":"온누리시스템","tel":"031-358-3511","addr":"경기도 화성시 우정읍 화산리 663-1번지","category":"사무통신 - 컴퓨터"}]},{"lat":"37.061844282","long":"126.7926973","items":[{"name":"남도순대국","tel":"031-351-9787","addr":"경기도 화성시 우정읍 화산리 667번지 1층","category":"일반휴게음식 - 일반한식"}]},{"lat":"37.068981166","long":"126.8088584","items":[{"name":"내고향가든","tel":"031-351-5299","addr":"경기도 화성시 우정읍 화산리 10-10","category":"일반휴게음식 - 일반한식"},{"name":"장안밧데리","tel":"031-358-5849","addr":"경기도 화성시 우정읍 화산리 10-10번지","category":"자동차정비 유지 - 자동차부품"}]},{"lat":"37.058566093","long":"126.79363951","items":[{"name":"노블레이스","tel":"031-352-5810","addr":"경기도 화성시 우정읍 화산리 1201-6번지","category":"자동차정비 유지 - 자동차부품"}]},{"lat":"37.072032875","long":"126.80710767","items":[{"name":"단발머리","tel":"031-351-9788","addr":"경기도 화성시 우정읍 화산리 70-5","category":"보건위생 - 미용원"},{"name":"카렌스안경원","tel":"031-358-4335","addr":"경기도 화성시 우정읍 화산리 70-5번지","category":"보건위생 - 안경"}]},{"lat":"37.061285424","long":"126.78756064","items":[{"name":"대일종합상사","tel":"031-351-7270","addr":"경기도 화성시 우정읍 화산리 733-7번지","category":"레져용품 - 스포츠·레져용품"},{"name":"은지네소박한밥집","tel":"031-351-7458","addr":"경기도 화성시 우정읍 화산리 733-7번지 1층","category":"일반휴게음식 - 일반한식"}]},{"lat":"37.062123609","long":"126.79269653","items":[{"name":"돈마마","tel":"031-8077-2223","addr":"경기도 화성시 우정읍 화산리 1199-2번지 나동","category":"일반휴게음식 - 일반한식"}]},{"lat":"37.069288259","long":"126.8093074","items":[{"name":"동진","tel":"031-351-1918","addr":"경기도 화성시 우정읍 화산리 10-9번지","category":"일반휴게음식 - 중국식"},{"name":"속초코다리정식맛최고","tel":"031-351-1551","addr":"경기도 화성시 우정읍 화산리 10-9번지","category":"일반휴게음식 - 일반한식"},{"name":"태양회집","tel":"031-58-1514","addr":"경기도 화성시 우정읍 화산리 10-9번지","category":"일반휴게음식 - 한정식"}]},{"lat":"37.065677822","long":"126.8001977","items":[{"name":"동태사랑.복돼지감자탕","tel":"031-351-1992","addr":"경기도 화성시 우정읍 화산리 595번지","category":"일반휴게음식 - 일반한식"}]},{"lat":"37.05917288","long":"126.79539175","items":[{"name":"두레자연고등학교","tel":"","addr":"경기도 화성시 우정읍 화산리 692-11번지","category":"학원 - 초중고교육기관"},{"name":"두레자연중학교","tel":"031-358-8775","addr":"경기도 화성시 우정읍 화산리 692-11번지","category":"학원 - 초중고교육기관"}]},{"lat":"37.064091633","long":"126.79480492","items":[{"name":"디엠씨 모터스(DMC Motors)","tel":"031-1111-1111","addr":"경기도 화성시 우정읍 화산리 663-8번지 1층","category":"자동차정비 유지 - 자동차정비"},{"name":"스피드카센타","tel":"031-358-5255","addr":"경기도 화성시 우정읍 화산리 663-8번지","category":"자동차정비 유지 - 자동차부품"},{"name":"타이어월드화산점","tel":"031-358-1474","addr":"경기도 화성시 우정읍 화산리 663-8번지","category":"자동차정비 유지 - 자동차시트·타이어"}]},{"lat":"37.062817221","long":"126.79258218","items":[{"name":"로타리포차식당","tel":"","addr":"경기도 화성시 우정읍 화산리 1198-16번지","category":"일반휴게음식 - 일반한식"}]},{"lat":"37.06297971","long":"126.79275039","items":[{"name":"마파치킨","tel":"031-358-6954","addr":"경기도 화성시 우정읍 화산리 1198-8번지 나동","category":"일반휴게음식 - 스넥"},{"name":"우리식당","tel":"031-358-7692","addr":"경기도 화성시 우정읍 화산리 1198-8번지 가동","category":"일반휴게음식 - 일반한식"},{"name":"한국타이어경기대리점","tel":"031-351-4477","addr":"경기도 화성시 우정읍 화산리 1198-8번지","category":"자동차정비 유지 - 자동차시트·타이어"},{"name":"햇님식당","tel":"031-366-2063","addr":"경기도 화성시 우정읍 화산리 1198-8번지 가동","category":"일반휴게음식 - 일반한식"}]},{"lat":"37.07039926","long":"126.81096879","items":[{"name":"만복상회","tel":"031-358-1131","addr":"경기도 화성시 우정읍 화산리 3-32번지","category":"음료식품 - 농·축·수산품"},{"name":"조암 가구","tel":"031-358-7488","addr":"경기도 화성시 우정읍 화산리 3-32번지","category":"가구 - 일반가구"}]},{"lat":"37.06392189","long":"126.79563742","items":[{"name":"명가담","tel":"031-358-4075","addr":"경기도 화성시 우정읍 화산리 664-48번지 1층","category":"일반휴게음식 - 일반한식"}]},{"lat":"37.056340855","long":"126.78386455","items":[{"name":"명성마트","tel":"031-255-5180","addr":"경기도 화성시 우정읍 화산리 834-1번지","category":"유통업 영리 - 슈퍼마켓"}]},{"lat":"37.06092308","long":"126.78650479","items":[{"name":"모두카페(The Modu)","tel":"031-351-3993","addr":"경기도 화성시 우정읍 화산리 731-1번지","category":"일반휴게음식 - 서양음식"}]},{"lat":"37.07378092","long":"126.79135992","items":[{"name":"목재공방","tel":"031-495-5814","addr":"경기도 화성시 우정읍 화산리 244-24번지","category":"가구 - 일반가구"}]},{"lat":"37.071399848","long":"126.8112249","items":[{"name":"미나패션","tel":"070-2278-3930","addr":"경기도 화성시 우정읍 화산리 3-39번지 17-205(희망빌리지17동205호~205호)","category":"회원제형태 - 기타4"}]},{"lat":"37.066092767","long":"126.79016691","items":[{"name":"버블샤인 카케어","tel":"","addr":"경기도 화성시 우정읍 화산리 493-7번지","category":"자동차정비 유지 - 세차장"}]},{"lat":"37.057450842","long":"126.79481182","items":[{"name":"보경컨테이너","tel":"031-351-1659","addr":"경기도 화성시 우정읍 화산리 701-16번지","category":"건축자재 - 기타건축자재"}]},{"lat":"37.058677162","long":"126.7953144","items":[{"name":"산들","tel":"031-0000-0000","addr":"경기도 화성시 우정읍 화산리 701-30번지","category":"음료식품 - 농·축·수산품"}]},{"lat":"37.059483997","long":"126.79297364","items":[{"name":"서서울유압","tel":"031-358-9275","addr":"경기도 화성시 우정읍 화산리 692-23","category":"수리서비스 - 기타수리서비스"}]},{"lat":"37.06123085","long":"126.78727971","items":[{"name":"선진특장산업","tel":"031-278-8500","addr":"경기도 화성시 우정읍 화산리 733-1번지","category":"기타 - 기계공구"}]},{"lat":"37.064506079","long":"126.79478131","items":[{"name":"시립기아어린이집[아이행복]","tel":"031-351-5015","addr":"경기도 화성시 우정읍 화산리 617-14번지","category":"학원 - 유아원"}]},{"lat":"37.063837678","long":"126.79386115","items":[{"name":"신화성자동차공업사","tel":"031-358-4499","addr":"경기도 화성시 우정읍 화산리 659-1번지","category":"자동차정비 유지 - 자동차정비"}]},{"lat":"37.05711682","long":"126.79445296","items":[{"name":"어가촌 민물매운탕","tel":"031-351-3913","addr":"경기도 화성시 우정읍 화산리 1203-11번지","category":"일반휴게음식 - 일반한식"},{"name":"이마트24 화성화산점","tel":"031-000-0000","addr":"경기도 화성시 우정읍 화산리 1203-11번지 1층","category":"유통업 영리 - 편 의 점"}]},{"lat":"37.060148363","long":"126.79161139","items":[{"name":"우정가설재","tel":"070-4161-7458","addr":"경기도 화성시 우정읍 화산리 693-5번지","category":"건축자재 - 기타건축자재"}]},{"lat":"37.06128628","long":"126.78803286","items":[{"name":"우정스크린","tel":"031-351-1203","addr":"경기도 화성시 우정읍 화산리 733-3번지","category":"레저업소 - 스크린골프"}]},{"lat":"37.068809561","long":"126.80861146","items":[{"name":"이디야커피 화성우정화산점","tel":"031-358-9122","addr":"경기도 화성시 우정읍 화산리 10-14번지","category":"일반휴게음식 - 서양음식"}]},{"lat":"37.063342692","long":"126.79419981","items":[{"name":"이화종합공구","tel":"031-8050-8879","addr":"경기도 화성시 우정읍 화산리 665-6번지","category":"건축자재 - 목재·석재·철물"}]},{"lat":"37.063061342","long":"126.79305374","items":[{"name":"장군족발","tel":"031-351-8830","addr":"경기도 화성시 우정읍 화산리 1198-1","category":"일반휴게음식 - 일반한식"},{"name":"한누리순대국","tel":"","addr":"경기도 화성시 우정읍 화산리 1198-1번지","category":"일반휴게음식 - 일반한식"}]},{"lat":"37.060814235","long":"126.78611159","items":[{"name":"장수한식뷔페","tel":"031-358-8867","addr":"경기도 화성시 우정읍 화산리 731-8","category":"일반휴게음식 - 일반한식"},{"name":"장수한식뷔페","tel":"031-358-8867","addr":"경기도 화성시 우정읍 화산리 731-8번지","category":"일반휴게음식 - 일반한식"}]},{"lat":"37.061619118","long":"126.79275414","items":[{"name":"정이가네","tel":"070-7345-8480","addr":"경기도 화성시 우정읍 화산리 667-10번지","category":"일반휴게음식 - 일반한식"}]},{"lat":"37.068004384","long":"126.80664576","items":[{"name":"조일LPG충전소","tel":"031-351-2024","addr":"경기도 화성시 우정읍 화산리 24-4번지","category":"연료판매점 - E1가스충전소"},{"name":"주식회사에스크","tel":"031-351-2024","addr":"경기도 화성시 우정읍 화산리 24-4번지","category":"연료판매점 - E1가스충전소"}]},{"lat":"37.066368973","long":"126.79864418","items":[{"name":"주식회사 조앤윤","tel":"031-351-1300","addr":"경기도 화성시 우정읍 화산리 589-4번지","category":"건축자재 - 기타건축자재"}]},{"lat":"37.072758138","long":"126.79903187","items":[{"name":"주식회사태경에너지","tel":"031-353-2864","addr":"경기도 화성시 우정읍 화산리 138-1번지","category":"건축자재 - 보일러·펌프·샷시"}]},{"lat":"37.062009074","long":"126.78911019","items":[{"name":"지리산한우직판장","tel":"031-351-5906","addr":"경기도 화성시 우정읍 화산리 735-4번지","category":"일반휴게음식 - 일반한식"}]},{"lat":"37.061374057","long":"126.79175416","items":[{"name":"티피(TP)기술","tel":"031-351-5056","addr":"경기도 화성시 우정읍 화산리 686-5","category":"자동차정비 유지 - 자동차부품"}]},{"lat":"37.061455991","long":"126.79222615","items":[{"name":"프런트 티피기술","tel":"031-358-2037","addr":"경기도 화성시 우정읍 화산리 686-3번지 1층 전체","category":"자동차정비 유지 - 자동차부품"}]},{"lat":"37.073116027","long":"126.80825188","items":[{"name":"프리즘인터내셔널","tel":"031-663-0447","addr":"경기도 화성시 우정읍 화산리 산12-1번지","category":"의류 - 내의판매"}]},{"lat":"37.068095585","long":"126.80730894","items":[{"name":"현대스포츠","tel":"031-358-5476","addr":"경기도 화성시 우정읍 화산리 13-5","category":"레져용품 - 스포츠·레져용품"}]},{"lat":"37.07142746","long":"126.81158467","items":[{"name":"화성유소년축구클럽","tel":"070-8210-0846","addr":"경기도 화성시 우정읍 화산리 3-12번지 희망빌리지 2동 103호","category":"학원 - 예·체능계학원"}]},{"lat":"37.071950035","long":"126.81156086","items":[{"name":"희망24시편의점","tel":"031-358-2233","addr":"경기도 화성시 우정읍 화산리 3-7번지 102호","category":"유통업 영리 - 편 의 점"}]}]