[{"lat":"37.675028205","long":"127.16748191","items":[{"name":"(주)금산에프앤비","tel":"031-573-4725","addr":"경기도 남양주시 진건읍 신월리 272-6번지","category":"음료식품 - 기타음료식품"}]},{"lat":"37.67452262","long":"127.16822892","items":[{"name":"(주)솔파크","tel":"070-7011-2016","addr":"경기도 남양주시 진건읍 신월리 250번지 3동","category":"기타 - 기계공구"},{"name":"JM산업","tel":"031-528-0832","addr":"경기도 남양주시 진건읍 신월리 250번지 주1동 일부호","category":"기타 - 기계공구"}]},{"lat":"37.661248527","long":"127.16377953","items":[{"name":"(주)제이케이글로벌","tel":"0311-527-8840","addr":"경기도 남양주시 진건읍 신월리 473-10번지 56호","category":"수리서비스 - 신변잡화수리"}]},{"lat":"37.662944785","long":"127.16198117","items":[{"name":"(주)헬씨코리아","tel":"00-1688-3781","addr":"경기도 남양주시 진건읍 신월리 440-2번지 2동","category":"가구 - 기타가구"}]},{"lat":"37.660554903","long":"127.1701699","items":[{"name":"CNS퍼니처","tel":"031-595-1079","addr":"경기도 남양주시 진건읍 신월리 134번지","category":"가구 - 일반가구"}]},{"lat":"37.65946812","long":"127.17408865","items":[{"name":"GS25진건동성점","tel":"","addr":"경기도 남양주시 진건읍 신월리 99-1번지 상가동 101~104호","category":"유통업 영리 - 편 의 점"}]},{"lat":"37.660249919","long":"127.16270073","items":[{"name":"KC컴퍼니","tel":"031-569-5959","addr":"경기도 남양주시 진건읍 신월리 457번지","category":"의류 - 정장"},{"name":"티에스 오토파트","tel":"031-573-9175","addr":"경기도 남양주시 진건읍 신월리 457번지 티에스 오토파트","category":"자동차정비 유지 - 자동차부품"}]},{"lat":"37.678053117","long":"127.16914361","items":[{"name":"MJ유통","tel":"031-574-1616","addr":"경기도 남양주시 진건읍 신월리 307-3번지","category":"음료식품 - 기타음료식품"},{"name":"한미상사","tel":"031-574-3121","addr":"경기도 남양주시 진건읍 신월리 307-3","category":"음료식품 - 기타음료식품"}]},{"lat":"37.665524916","long":"127.16611219","items":[{"name":"T파니숙녀복","tel":"","addr":"경기도 남양주시 진건읍 신월리 138-4번지","category":"의류 - 정장"}]},{"lat":"37.66244038","long":"127.17473015","items":[{"name":"가나종합지질","tel":"031-6280-0037","addr":"경기도 남양주시 진건읍 신월리 80-2","category":"용역 서비스 - 기타용역서비스"}]},{"lat":"37.659443367","long":"127.15948045","items":[{"name":"가람물산","tel":"","addr":"경기도 남양주시 진건읍 신월리 460번지","category":"음료식품 - 농·축·수산품"},{"name":"동아엔지니어링","tel":"031-574-7661","addr":"경기도 남양주시 진건읍 신월리 460번지","category":"건축자재 - 기타건축자재"}]},{"lat":"37.663549476","long":"127.15434364","items":[{"name":"경기친환경농자재","tel":"031-775-0610","addr":"경기도 남양주시 진건읍 신월리 578-2번지","category":"농업 - 농기계"}]},{"lat":"37.660082101","long":"127.16681426","items":[{"name":"공구매니아","tel":"031-575-0954","addr":"경기도 남양주시 진건읍 신월리 112-1번지","category":"기타 - 기계공구"},{"name":"미스터사인","tel":"031-572-6073","addr":"경기도 남양주시 진건읍 신월리 112-1번지 112-8","category":"건축자재 - 인테리어전문"}]},{"lat":"37.670442132","long":"127.16101106","items":[{"name":"그랜드데코","tel":"02-3421-1559","addr":"경기도 남양주시 진건읍 신월리 376-1번지","category":"주방용구 - 주방용구"}]},{"lat":"37.660472753","long":"127.17091769","items":[{"name":"글로벌 코리아","tel":"031-529-8288","addr":"경기도 남양주시 진건읍 신월리 344-6번지","category":"건축자재 - 기타건축자재"}]},{"lat":"37.670273042","long":"127.16608859","items":[{"name":"농업회사법인 주식회사 한국마트지원센터","tel":"070-4184-8559","addr":"경기도 남양주시 진건읍 신월리 204번지","category":"음료식품 - 기타음료식품"}]},{"lat":"37.66202738","long":"127.16739654","items":[{"name":"달음","tel":"031-575-1615","addr":"경기도 남양주시 진건읍 신월리 117-5번지 1층","category":"일반휴게음식 - 서양음식"}]},{"lat":"37.659133696","long":"127.15515064","items":[{"name":"대흥종묘농약사","tel":"031-571-9999","addr":"경기도 남양주시 진건읍 신월리 540-9","category":"농업 - 비료,사료,종자"},{"name":"도경유리","tel":"031-574-6260","addr":"경기도 남양주시 진건읍 신월리 540-9번지 1층","category":"자동차정비 유지 - 자동차부품"},{"name":"삼거리식당","tel":"031-527-5556","addr":"경기도 남양주시 진건읍 신월리 540-9번지","category":"일반휴게음식 - 일반한식"}]},{"lat":"37.662803486","long":"127.16648024","items":[{"name":"더안로지스","tel":"","addr":"경기도 남양주시 진건읍 신월리 143-23번지","category":"용역 서비스 - 보관및 창고업"}]},{"lat":"37.655608155","long":"127.1502252","items":[{"name":"돋움","tel":"031-1899-7042","addr":"경기도 남양주시 진건읍 신월리 656-4번지","category":"건축자재 - 기타건축자재"}]},{"lat":"37.661861677","long":"127.16341818","items":[{"name":"돌핀상사","tel":"031-973-3072","addr":"경기도 남양주시 진건읍 신월리 473-1번지","category":"전기제품 - 가전제품"}]},{"lat":"37.659946284","long":"127.153815","items":[{"name":"동림목재","tel":"031-573-5802","addr":"경기도 남양주시 진건읍 신월리 544-96번지 외3필지","category":"건축자재 - 목재·석재·철물"}]},{"lat":"37.678053931","long":"127.16856549","items":[{"name":"동진종합건재상사","tel":"031-574-1010","addr":"경기도 남양주시 진건읍 신월리 290번지","category":"기타 - 기계공구"}]},{"lat":"37.662335365","long":"127.1725879","items":[{"name":"라라패션","tel":"031-865-0588","addr":"경기도 남양주시 진건읍 신월리 69-1번지","category":"의류 - 정장"}]},{"lat":"37.662109791","long":"127.16644472","items":[{"name":"로담자기","tel":"031-575-6215","addr":"경기도 남양주시 진건읍 신월리 143-10번지","category":"주방용구 - 주방용식기"}]},{"lat":"37.66019305","long":"127.17120039","items":[{"name":"로디우스","tel":"031-572-4061","addr":"경기도 남양주시 진건읍 신월리 344-4번지","category":"가구 - 일반가구"}]},{"lat":"37.67122109","long":"127.17105527","items":[{"name":"리얼농구교실","tel":"031-529-8886","addr":"경기도 남양주시 진건읍 신월리 25-4번지","category":"학원 - 예·체능계학원"}]},{"lat":"37.663660352","long":"127.17219424","items":[{"name":"마이스터자동차공업사","tel":"031-572-2990","addr":"경기도 남양주시 진건읍 신월리 52-2번지 유성빌딩 1층","category":"자동차정비 유지 - 자동차정비"}]},{"lat":"37.662577044","long":"127.15386566","items":[{"name":"명품진열장","tel":"031-559-9440","addr":"경기도 남양주시 진건읍 신월리 586-4번지","category":"가구 - 일반가구"}]},{"lat":"37.665662541","long":"127.16431041","items":[{"name":"반도자동화포장","tel":"","addr":"경기도 남양주시 진건읍 신월리 136-2번지","category":"기타 - 기계공구"}]},{"lat":"37.672083334","long":"127.16655728","items":[{"name":"보광금속","tel":"031-575-6526","addr":"경기도 남양주시 진건읍 신월리 262번지","category":"건축자재 - 기타건축자재"}]},{"lat":"37.668215624","long":"127.16839627","items":[{"name":"블루유통","tel":"","addr":"경기도 남양주시 진건읍 신월리 184-1번지","category":"주방용구 - 주방용구"}]},{"lat":"37.666499783","long":"127.17122596","items":[{"name":"새말낚시터","tel":"031-573-4367","addr":"경기도 남양주시 진건읍 신월리 44 외2필지","category":"레저업소 - 기타레져업소"}]},{"lat":"37.661190931","long":"127.1527862","items":[{"name":"샘터","tel":"","addr":"경기도 남양주시 진건읍 신월리 597-3번지","category":"유통업 영리 - 슈퍼마켓"},{"name":"세상만사감자탕","tel":"031-529-0977","addr":"경기도 남양주시 진건읍 신월리 597-3번지","category":"일반휴게음식 - 일반한식"},{"name":"주식회사 가이화장품","tel":"031-571-2780","addr":"경기도 남양주시 진건읍 신월리 597-3번지 1층","category":"보건위생 - 화장품"}]},{"lat":"37.661109628","long":"127.15295604","items":[{"name":"샘터공인중개사사무소","tel":"031-574-4675","addr":"경기도 남양주시 진건읍 신월리 544-46번지","category":"용역 서비스 - 부동산 중개·임대"}]},{"lat":"37.659050565","long":"127.16997386","items":[{"name":"세왕상사","tel":"031-573-1400","addr":"경기도 남양주시 진건읍 신월리 347-4번지","category":"신변잡화 - 기타잡화"}]},{"lat":"37.672248978","long":"127.17050218","items":[{"name":"솟골낚시용품","tel":"031-574-6262","addr":"경기도 남양주시 진건읍 신월리 232번지","category":"레져용품 - 스포츠·레져용품"}]},{"lat":"37.672416076","long":"127.16039183","items":[{"name":"스마일팜","tel":"031-528-9987","addr":"경기도 남양주시 진건읍 신월리 331-10번지 주 2동","category":"보건위생 - 의료용품"}]},{"lat":"37.661217096","long":"127.16697542","items":[{"name":"스머프 곤충나라","tel":"","addr":"경기도 남양주시 진건읍 신월리 113-1번지","category":"학원 - 기타 교육기관"}]},{"lat":"37.676494597","long":"127.16903811","items":[{"name":"스토리푸드","tel":"","addr":"경기도 남양주시 진건읍 신월리 301-2번지","category":"음료식품 - 기타음료식품"},{"name":"통통목재","tel":"031-574-8166","addr":"경기도 남양주시 진건읍 신월리 301-2번지","category":"건축자재 - 목재·석재·철물"}]},{"lat":"37.663304223","long":"127.16920138","items":[{"name":"신월어칼국수","tel":"031-527-6650","addr":"경기도 남양주시 진건읍 신월리 154번지","category":"일반휴게음식 - 일반한식"}]},{"lat":"37.662029159","long":"127.16611587","items":[{"name":"싱싱유통","tel":"031-111-1111","addr":"경기도 남양주시 진건읍 신월리 144번지","category":"음료식품 - 정육점"}]},{"lat":"37.664937606","long":"127.16072737","items":[{"name":"씨엘어닝","tel":"","addr":"경기도 남양주시 진건읍 신월리 425-3번지","category":"직물 - 카페트,커튼,천막,지물"}]},{"lat":"37.679269464","long":"127.16911232","items":[{"name":"아모레퍼시픽 카운셀러","tel":"031-593-3292","addr":"경기도 남양주시 진건읍 신월리 317-1번지","category":"보건위생 - 화장품"}]},{"lat":"37.66122107","long":"127.17055672","items":[{"name":"아이언빌드 언더케어","tel":"","addr":"경기도 남양주시 진건읍 신월리 343번지","category":"자동차정비 유지 - 카인테리어"}]},{"lat":"37.660391149","long":"127.17128017","items":[{"name":"아인우드","tel":"031-971-9891","addr":"경기도 남양주시 진건읍 신월리 344번지","category":"건축자재 - 목재·석재·철물"}]},{"lat":"37.66344104","long":"127.15459276","items":[{"name":"아쿠아지트","tel":"02-931-0208","addr":"경기도 남양주시 진건읍 신월리 579-4번지","category":"문화.취미 - 수족관"}]},{"lat":"37.669577465","long":"127.16081654","items":[{"name":"알뜰시장","tel":"031-567-2562","addr":"경기도 남양주시 진건읍 신월리 390번지","category":"음료식품 - 농·축·수산품"}]},{"lat":"37.67085747","long":"127.16034319","items":[{"name":"애드윈퍼니쳐","tel":"031-528-2507","addr":"경기도 남양주시 진건읍 신월리 385-2번지","category":"가구 - 일반가구"}]},{"lat":"37.660224405","long":"127.15473354","items":[{"name":"앤트워크","tel":"031-574-7974","addr":"경기도 남양주시 진건읍 신월리 604-1번지","category":"자동차정비 유지 - 자동차부품"},{"name":"우리렉카","tel":"031-527-4444","addr":"경기도 남양주시 진건읍 신월리 604-1번지","category":"자동차정비 유지 - 자동차부품"}]},{"lat":"37.659195296","long":"127.15628405","items":[{"name":"에이치디 타이어 (HD TIRE)","tel":"031-528-0909","addr":"경기도 남양주시 진건읍 신월리 558-1번지","category":"자동차정비 유지 - 자동차시트·타이어"}]},{"lat":"37.661667142","long":"127.15380715","items":[{"name":"엔알테크","tel":"031-529-8077","addr":"경기도 남양주시 진건읍 신월리 596-6번지","category":"사무통신 - 컴퓨터"}]},{"lat":"37.662694918","long":"127.17316672","items":[{"name":"엠케이 애드","tel":"031-572-0404","addr":"경기도 남양주시 진건읍 신월리 74번지","category":"서적문구 - 출판 및 인쇄물"}]},{"lat":"37.659494126","long":"127.15511738","items":[{"name":"연합상사","tel":"02-978-3553","addr":"경기도 남양주시 진건읍 신월리 540-4번지","category":"신변잡화 - 기타잡화"}]},{"lat":"37.662410462","long":"127.1640087","items":[{"name":"영신암","tel":"031-573-3458","addr":"경기도 남양주시 진건읍 신월리 485-9번지","category":"보건위생 - 기타대인서비스"}]},{"lat":"37.662859921","long":"127.17119508","items":[{"name":"요세포프","tel":"031-529-2658","addr":"경기도 남양주시 진건읍 신월리 65-1번지 1층","category":"일반휴게음식 - 서양음식"}]},{"lat":"37.666660966","long":"127.15883824","items":[{"name":"용신초등학교병설유치원[아이행복]","tel":"031-527-0471","addr":"경기도 남양주시 진건읍 신월리 474번지","category":"학원 - 유치원"}]},{"lat":"37.667413846","long":"127.16833782","items":[{"name":"울트라 쭈꾸미","tel":"031-573-4988","addr":"경기도 남양주시 진건읍 신월리 180번지","category":"일반휴게음식 - 일반한식"}]},{"lat":"37.661248249","long":"127.16398352","items":[{"name":"웰니스케이펫","tel":"02-835-7736","addr":"경기도 남양주시 진건읍 신월리 470번지 1동","category":"문화.취미 - 애완동물"}]},{"lat":"37.659910462","long":"127.15364494","items":[{"name":"위드휠&타이어(with Wheel&Tire)","tel":"031-573-9507","addr":"경기도 남양주시 진건읍 신월리 544-94번지","category":"자동차정비 유지 - 자동차시트·타이어"}]},{"lat":"37.662276538","long":"127.15633573","items":[{"name":"윤창산업","tel":"031-527-9825","addr":"경기도 남양주시 진건읍 신월리 527번지","category":"신변잡화 - 기타잡화"}]},{"lat":"37.660162559","long":"127.15378144","items":[{"name":"이지컴퍼니(Leeji company)","tel":"070-4210-8276","addr":"경기도 남양주시 진건읍 신월리 544-28번지 1층 102호","category":"용역 서비스 - 사무서비스"}]},{"lat":"37.660306597","long":"127.1538724","items":[{"name":"일미칼국수","tel":"031-527-6143","addr":"경기도 남양주시 진건읍 신월리 544-3번지","category":"일반휴게음식 - 일반한식"}]},{"lat":"37.661750549","long":"127.1656166","items":[{"name":"자연산약초","tel":"031-511-3783","addr":"경기도 남양주시 진건읍 신월리 145-1","category":"회원제형태 - 건강식품"}]},{"lat":"37.677773979","long":"127.16902963","items":[{"name":"제일상사","tel":"031-575-2951","addr":"경기도 남양주시 진건읍 신월리 307-2번지","category":"자동차정비 유지 - 자동차정비"}]},{"lat":"37.671500453","long":"127.17101056","items":[{"name":"조영디자인","tel":"02-436-3977","addr":"경기도 남양주시 진건읍 신월리 25-8번지","category":"용역 서비스 - 종합용역"}]},{"lat":"37.668443808","long":"127.1596467","items":[{"name":"주 씨에스애드","tel":"031-572-8842","addr":"경기도 남양주시 진건읍 신월리 395번지 가","category":"건축자재 - 인테리어전문"}]},{"lat":"37.659749189","long":"127.17286534","items":[{"name":"주식회사 리본앤","tel":"031-571-8736","addr":"경기도 남양주시 진건읍 신월리 100-1번지","category":"용역 서비스 - 종합용역"}]},{"lat":"37.659497044","long":"127.15283946","items":[{"name":"주식회사 비앤비","tel":"031-574-3484","addr":"경기도 남양주시 진건읍 신월리 600-1번지 1호","category":"의류 - 정장"}]},{"lat":"37.661248063","long":"127.16411952","items":[{"name":"주식회사 아이씨엠","tel":"031-557-1707","addr":"경기도 남양주시 진건읍 신월리 471-3번지 1동","category":"보건위생 - 의료용품"}]},{"lat":"37.661634873","long":"127.16456235","items":[{"name":"주식회사 애드포아","tel":"031-514-8711","addr":"경기도 남양주시 진건읍 신월리 498-3번지","category":"서적문구 - 과학기자재"}]},{"lat":"37.670998683","long":"127.16253109","items":[{"name":"주식회사 에스알글로벌","tel":"02-933-1133","addr":"경기도 남양주시 진건읍 신월리 387번지","category":"신변잡화 - 기타잡화"}]},{"lat":"37.65897327","long":"127.15379037","items":[{"name":"주식회사 이에프코리아","tel":"","addr":"경기도 남양주시 진건읍 신월리 624번지","category":"음료식품 - 농·축·수산품"}]},{"lat":"37.659968326","long":"127.17083723","items":[{"name":"주식회사 투투펫","tel":"031-574-6563","addr":"경기도 남양주시 진건읍 신월리 344-1번지 가동","category":"문화.취미 - 애완동물"}]},{"lat":"37.657695774","long":"127.15231454","items":[{"name":"주식회사선우디자인","tel":"031-527-6509","addr":"경기도 남양주시 진건읍 신월리 628-6번지 전관","category":"서적문구 - 출판 및 인쇄물"}]},{"lat":"37.659944312","long":"127.16216742","items":[{"name":"주원","tel":"031-571-0068","addr":"경기도 남양주시 진건읍 신월리 456-1번지 1동","category":"유통업 영리 - 기타유통업"}]},{"lat":"37.662611023","long":"127.1688145","items":[{"name":"진성종합상사","tel":"031-527-0175","addr":"경기도 남양주시 진건읍 신월리 143-7번지","category":"유통업 영리 - 기타유통업"}]},{"lat":"37.664660711","long":"127.16558895","items":[{"name":"차림","tel":"02-6332-7090","addr":"경기도 남양주시 진건읍 신월리 103번지","category":"음료식품 - 농·축·수산품"}]},{"lat":"37.662806761","long":"127.15736816","items":[{"name":"청강싱크","tel":"","addr":"경기도 남양주시 진건읍 신월리 522-3번지","category":"주방용구 - 주방용구"}]},{"lat":"37.663720849","long":"127.15419665","items":[{"name":"친미세계 푸드","tel":"","addr":"경기도 남양주시 진건읍 신월리 578번지","category":"일반휴게음식 - 스넥"}]},{"lat":"37.660558083","long":"127.15448489","items":[{"name":"쿠아 쿠아","tel":"031-000-0000","addr":"경기도 남양주시 진건읍 신월리 604번지","category":"문화.취미 - 수족관"}]},{"lat":"37.67093999","long":"127.16592003","items":[{"name":"쿨렌탈(허스만렌탈코리아)","tel":"031-565-1755","addr":"경기도 남양주시 진건읍 신월리 218-3","category":"주방용구 - 주방용구"}]},{"lat":"37.666051074","long":"127.16997822","items":[{"name":"킹가전종합주방","tel":"","addr":"경기도 남양주시 진건읍 신월리 175-4번지","category":"전기제품 - 가전제품"}]},{"lat":"37.672384718","long":"127.1700831","items":[{"name":"태양에너지시스템","tel":"","addr":"경기도 남양주시 진건읍 신월리 233-6번지","category":"용역 서비스 - 기타용역서비스"}]},{"lat":"37.659250573","long":"127.15534354","items":[{"name":"태양합판상사","tel":"031-528-3585","addr":"경기도 남양주시 진건읍 신월리 540-11번지","category":"건축자재 - 목재·석재·철물"}]},{"lat":"37.661748547","long":"127.15355799","items":[{"name":"파머유통","tel":"031-573-1354","addr":"경기도 남양주시 진건읍 신월리 648","category":"음료식품 - 기타음료식품"}]},{"lat":"37.670694857","long":"127.16067155","items":[{"name":"평화상사","tel":"070-7420-5927","addr":"경기도 남양주시 진건읍 신월리 385-1번지 주 1동","category":"문화.취미 - 수족관"}]},{"lat":"37.660973703","long":"127.15356775","items":[{"name":"한드리능이백숙","tel":"031-574-5868","addr":"경기도 남양주시 진건읍 신월리 544-4번지","category":"일반휴게음식 - 일반한식"},{"name":"한드리능이백숙","tel":"031-574-5868","addr":"경기도 남양주시 진건읍 신월리 544-4번지","category":"일반휴게음식 - 일반한식"}]},{"lat":"37.66152934","long":"127.15586953","items":[{"name":"한뜻상사","tel":"031-572-5940","addr":"경기도 남양주시 진건읍 신월리 533-1번지","category":"직물 - 카페트,커튼,천막,지물"}]},{"lat":"37.678827513","long":"127.16945141","items":[{"name":"한일전기","tel":"031-528-4374","addr":"경기도 남양주시 진건읍 신월리 314-2","category":"수리서비스 - 기타수리서비스"}]},{"lat":"37.669973677","long":"127.16756142","items":[{"name":"현우메디","tel":"070-4187-9521","addr":"경기도 남양주시 진건읍 신월리 205번지 D블럭","category":"보건위생 - 의료용품"}]},{"lat":"37.662279363","long":"127.15414839","items":[{"name":"혜주파(HEJUPA)","tel":"031-529-9257","addr":"경기도 남양주시 진건읍 신월리 587번지","category":"자동차정비 유지 - 자동차부품"}]}]