[{"lat":"37.258702851","long":"126.58493898","imageIndex":0,"items":[{"name":"(주)드림특장자동차공업사","tel":"032-886-2222","addr":"경기도 안산시 단원구 대부북동 23-2번지","indutype":"자동차정비 유지 - 자동차정비","category":"car"},{"name":"대부타이어","tel":"032-880-0526","addr":"경기도 안산시 단원구 대부북동 23-2번지","indutype":"자동차정비 유지 - 자동차시트·타이어","category":"car"},{"name":"주식회사대부일심1급자동차","tel":"032-886-2727","addr":"경기도 안산시 단원구 대부북동 23-2번지","indutype":"자동차정비 유지 - 카인테리어","category":"car"}]},{"lat":"37.271010048","long":"126.57215346","imageIndex":0,"items":[{"name":"365 타이어","tel":"032-880-9856","addr":"경기도 안산시 단원구 대부북동 1161-17번지 A동 101,102,103,104,105호","indutype":"자동차정비 유지 - 자동차시트·타이어","category":"car"}]},{"lat":"37.242011233","long":"126.58618071","imageIndex":0,"items":[{"name":"그린카정비","tel":"031-884-5182","addr":"경기도 안산시 단원구 대부북동 486-5번지","indutype":"자동차정비 유지 - 자동차정비","category":"car"}]},{"lat":"37.268809415","long":"126.56909946","imageIndex":0,"items":[{"name":"대부점 현대자동차","tel":"032-882-0043","addr":"경기도 안산시 단원구 대부북동 1826-155번지","indutype":"자동차정비 유지 - 자동차정비","category":"car"}]},{"lat":"37.271366917","long":"126.57118183","imageIndex":0,"items":[{"name":"대성카센터","tel":"032-884-6866","addr":"경기도 안산시 단원구 대부북동 1161-82번지","indutype":"자동차정비 유지 - 자동차정비","category":"car"}]},{"lat":"37.242534517","long":"126.58382237","imageIndex":0,"items":[{"name":"웅진카센타","tel":"032-881-9907","addr":"경기도 안산시 단원구 대부북동 443-3번지","indutype":"자동차정비 유지 - 자동차정비","category":"car"}]},{"lat":"37.238234869","long":"126.58332777","imageIndex":0,"items":[{"name":"정진카공업사","tel":"031-886-8900","addr":"경기도 안산시 단원구 대부북동 598-13번지","indutype":"자동차정비 유지 - 자동차정비","category":"car"}]},{"lat":"37.270309684","long":"126.57282264","imageIndex":0,"items":[{"name":"제이앤제이","tel":"032-888-1226","addr":"경기도 안산시 단원구 대부북동 1161-20번지 전층","indutype":"자동차정비 유지 - 세차장","category":"car"},{"name":"태양공업사","tel":"031-499-9900","addr":"경기도 안산시 단원구 대부북동 1161-20번지","indutype":"자동차정비 유지 - 자동차정비","category":"car"}]},{"lat":"37.272120576","long":"126.56296966","imageIndex":0,"items":[{"name":"주식회사 케이박스","tel":"031-434-1251","addr":"경기도 안산시 단원구 대부북동 1865-126번지","indutype":"자동차정비 유지 - 주차장","category":"car"}]}]