[{"lat":"37.742596788","long":"126.812117","items":[{"name":"(주)에코크린리스토어","tel":"031-948-8630","addr":"경기도 파주시 조리읍 봉일천리 125-14번지","category":"용역 서비스 - 종합용역"},{"name":"씨유파주해링턴점","tel":"031-944-8692","addr":"경기도 파주시 조리읍 봉일천리 125-14번지","category":"유통업 영리 - 편 의 점"},{"name":"에스비 메디슨","tel":"","addr":"경기도 파주시 조리읍 봉일천리 125-14번지","category":"보건위생 - 의료용품"}]},{"lat":"37.743506649","long":"126.8065666","items":[{"name":"(주)준엔터테인먼트","tel":"031-944-2949","addr":"경기도 파주시 조리읍 봉일천리 160-58번지","category":"보건위생 - 미용재료"},{"name":"다락","tel":"","addr":"경기도 파주시 조리읍 봉일천리 160-58번지","category":"일반휴게음식 - 일반한식"},{"name":"지엔지컴퓨터(봉일천)","tel":"031-948-3616","addr":"경기도 파주시 조리읍 봉일천리 160-58","category":"사무통신 - 컴퓨터"}]},{"lat":"37.736092217","long":"126.83609348","items":[{"name":"(주)케이디에스(KDS)","tel":"031-945-4284","addr":"경기도 파주시 조리읍 봉일천리 62-67","category":"기타 - 기계공구"}]},{"lat":"37.742344233","long":"126.80645621","items":[{"name":"1001안경,콘텍트","tel":"031-949-0022","addr":"경기도 파주시 조리읍 봉일천리 156-1번지","category":"보건위생 - 안경"},{"name":"관인소리샘음악학원","tel":"031-942-5586","addr":"경기도 파주시 조리읍 봉일천리 156-1번지 성원상가 2층","category":"학원 - 예·체능계학원"},{"name":"또봉이통닭 봉일천점","tel":"031-947-8828","addr":"경기도 파주시 조리읍 봉일천리 156-1번지","category":"일반휴게음식 - 스넥"}]},{"lat":"37.744646806","long":"126.80414691","items":[{"name":"201410 화정족발","tel":"031-948-1980","addr":"경기도 파주시 조리읍 봉일천리 198-1번지","category":"일반휴게음식 - 일반한식"},{"name":"맥스엠파주지사","tel":"031-8071-2248","addr":"경기도 파주시 조리읍 봉일천리 198-1번지","category":"자동차정비 유지 - 자동차부품"},{"name":"이순헤어샵","tel":"031-949-3979","addr":"경기도 파주시 조리읍 봉일천리 198-1번지","category":"보건위생 - 미용원"}]},{"lat":"37.745374026","long":"126.80801396","items":[{"name":"24시 전주명가콩나물국밥 봉일천점","tel":"031-942-3802","addr":"경기도 파주시 조리읍 봉일천리 186-7번지","category":"일반휴게음식 - 일반한식"},{"name":"동원설비","tel":"031-945-5405","addr":"경기도 파주시 조리읍 봉일천리 186-7번지","category":"기타 - 기계공구"}]},{"lat":"37.743149222","long":"126.80834881","items":[{"name":"3POP PC 봉일천점","tel":"070-8408-6848","addr":"경기도 파주시 조리읍 봉일천리 142-2번지","category":"레저업소 - 기타레져업소"},{"name":"김밥천국","tel":"031-947-4224","addr":"경기도 파주시 조리읍 봉일천리 142-2번지","category":"일반휴게음식 - 스넥"},{"name":"봉일천성심연합의원","tel":"031-945-0350","addr":"경기도 파주시 조리읍 봉일천리 142-2","category":"의원 - 의원"},{"name":"술짜리","tel":"031-943-3870","addr":"경기도 파주시 조리읍 봉일천리 142-2번지","category":"일반휴게음식 - 일반한식"},{"name":"파리바게뜨","tel":"031-943-8284","addr":"경기도 파주시 조리읍 봉일천리 142-2번지","category":"음료식품 - 제과점"},{"name":"피자스쿨봉일천점","tel":"031-944-0092","addr":"경기도 파주시 조리읍 봉일천리 142-2번지","category":"일반휴게음식 - 칵테일바"}]},{"lat":"37.74345346","long":"126.80708864","items":[{"name":"B.B.Q(비비큐)","tel":"031-944-9934","addr":"경기도 파주시 조리읍 봉일천리 168-11번지","category":"일반휴게음식 - 일반한식"}]},{"lat":"37.742616817","long":"126.80783966","items":[{"name":"BHC파주봉일천점","tel":"031-945-9972","addr":"경기도 파주시 조리읍 봉일천리 142-23","category":"일반휴게음식 - 스넥"},{"name":"광일제분소","tel":"031-941-5828","addr":"경기도 파주시 조리읍 봉일천리 142-23","category":"음료식품 - 제과점"}]},{"lat":"37.743481091","long":"126.80745163","items":[{"name":"ByJ(바이제이)","tel":"","addr":"경기도 파주시 조리읍 봉일천리 168-7번지","category":"의류 - 정장"},{"name":"봉일천의류","tel":"031-9022-8357","addr":"경기도 파주시 조리읍 봉일천리 168-7번지","category":"의류 - 정장"},{"name":"자매신발","tel":"031-941-7729","addr":"경기도 파주시 조리읍 봉일천리 168-7번지","category":"신변잡화 - 신발"}]},{"lat":"37.743343323","long":"126.80587494","items":[{"name":"FCF(미쎄스피자)","tel":"031-943-8281","addr":"경기도 파주시 조리읍 봉일천리 165-10번지","category":"일반휴게음식 - 일반한식"},{"name":"전화하면 갑니데이","tel":"031-944-9288","addr":"경기도 파주시 조리읍 봉일천리 165-10번지","category":"음료식품 - 기타음료식품"},{"name":"황금족발","tel":"031-942-8252","addr":"경기도 파주시 조리읍 봉일천리 165-10번지","category":"일반휴게음식 - 일반한식"}]},{"lat":"37.735535528","long":"126.82506786","items":[{"name":"G&I교역","tel":"070-8239-3479","addr":"경기도 파주시 조리읍 봉일천리 13-15번지 송촌토파즈아파트","category":"의류 - 정장"},{"name":"한도참숯","tel":"02-1577-0000","addr":"경기도 파주시 조리읍 봉일천리 13-15번지 송촌토파즈아파트","category":"연료판매점 - 기타연료"}]},{"lat":"37.74311854","long":"126.80614784","items":[{"name":"GS25봉일천이레점","tel":"","addr":"경기도 파주시 조리읍 봉일천리 158-13번지","category":"유통업 영리 - 편 의 점"}]},{"lat":"37.74747721","long":"126.81042521","items":[{"name":"GS25봉일천중앙점","tel":"","addr":"경기도 파주시 조리읍 봉일천리 258-17번지","category":"유통업 영리 - 편 의 점"},{"name":"아이조은 어린이집[아이행복]","tel":"031-948-1007","addr":"경기도 파주시 조리읍 봉일천리 258-17번지","category":"학원 - 유아원"},{"name":"파마시대","tel":"031-946-8794","addr":"경기도 파주시 조리읍 봉일천리 258-17번지","category":"보건위생 - 미용원"}]},{"lat":"37.743675459","long":"126.80514793","items":[{"name":"Grace J Piano학원","tel":"070-8745-4410","addr":"경기도 파주시 조리읍 봉일천리 163번지","category":"학원 - 예·체능계학원"},{"name":"세명건설 (주)","tel":"031-957-1791","addr":"경기도 파주시 조리읍 봉일천리 163번지","category":"건축자재 - 기타건축자재"},{"name":"예원아이 어린이집[아이행복]","tel":"031-948-9048","addr":"경기도 파주시 조리읍 봉일천리 163번지","category":"학원 - 유아원"}]},{"lat":"37.74483909","long":"126.80598444","items":[{"name":"JJ컴퍼니","tel":"031-8070-9470","addr":"경기도 파주시 조리읍 봉일천리 189-14","category":"회원제형태 - 기타4"}]},{"lat":"37.745430326","long":"126.80937533","items":[{"name":"KELS ENGLISH학원","tel":"031-947-0554","addr":"경기도 파주시 조리읍 봉일천리 237-2번지 미림아파트","category":"학원 - 보습학원"},{"name":"야!거기","tel":"031-943-6390","addr":"경기도 파주시 조리읍 봉일천리 237-2번지 미림아파트","category":"일반휴게음식 - 일반한식"}]},{"lat":"37.747315506","long":"126.80526306","items":[{"name":"KITTY DOGGY(키티도기)","tel":"","addr":"경기도 파주시 조리읍 봉일천리 284번지","category":"문화.취미 - 애완동물"},{"name":"파주당구재료","tel":"031-944-1350","addr":"경기도 파주시 조리읍 봉일천리 284번지","category":"레져용품 - 스포츠·레져용품"}]},{"lat":"37.738037872","long":"126.82354166","items":[{"name":"P.H.O","tel":"031-942-8984","addr":"경기도 파주시 조리읍 봉일천리 62-110번지","category":"주방용구 - 정수기"}]},{"lat":"37.74336672","long":"126.80911975","items":[{"name":"Q당구장","tel":"031-949-0338","addr":"경기도 파주시 조리읍 봉일천리 210-29","category":"레저업소 - 당 구 장"}]},{"lat":"37.743755766","long":"126.81011717","items":[{"name":"S모텔","tel":"031-945-1464","addr":"경기도 파주시 조리읍 봉일천리 125-9번지","category":"숙박업 - 여관/기타숙박업"}]},{"lat":"37.742984135","long":"126.80659067","items":[{"name":"가고파열쇠","tel":"031-942-8080","addr":"경기도 파주시 조리읍 봉일천리 155-4번지","category":"수리서비스 - 기타수리서비스"}]},{"lat":"37.738735458","long":"126.82018186","items":[{"name":"가구대통령중소기업가구","tel":"031-946-8650","addr":"경기도 파주시 조리읍 봉일천리 45-6번지","category":"가구 - 일반가구"},{"name":"구제","tel":"031-000-0000","addr":"경기도 파주시 조리읍 봉일천리 45-6번지","category":"의류 - 기타의류"},{"name":"데코라이프","tel":"","addr":"경기도 파주시 조리읍 봉일천리 45-6번지","category":"건축자재 - 기타건축자재"}]},{"lat":"37.735979667","long":"126.8268479","items":[{"name":"가구아울렛","tel":"031-947-9389","addr":"경기도 파주시 조리읍 봉일천리 5-29번지","category":"가구 - 일반가구"},{"name":"믿음종합주방","tel":"031-946-8966","addr":"경기도 파주시 조리읍 봉일천리 5-29번지","category":"전기제품 - 가전제품"}]},{"lat":"37.742985662","long":"126.80750966","items":[{"name":"가위소리","tel":"","addr":"경기도 파주시 조리읍 봉일천리 154-4번지","category":"보건위생 - 미용원"},{"name":"마임봉일천남부지점","tel":"031-957-3820","addr":"경기도 파주시 조리읍 봉일천리 154-4번지 회1필지2층","category":"보건위생 - 화장품"},{"name":"신사동 구제","tel":"","addr":"경기도 파주시 조리읍 봉일천리 154-4번지","category":"의류 - 기타의류"}]},{"lat":"37.744700314","long":"126.80922974","items":[{"name":"감동이있는허브다이어트","tel":"031-362-6000","addr":"경기도 파주시 조리읍 봉일천리 224-2번지","category":"건강식품 - 기타건강식품"},{"name":"디저트아씨","tel":"","addr":"경기도 파주시 조리읍 봉일천리 224-2번지","category":"일반휴게음식 - 서양음식"}]},{"lat":"37.743733545","long":"126.80756443","items":[{"name":"강일 스터디존","tel":"031-948-0849","addr":"경기도 파주시 조리읍 봉일천리 160-38번지","category":"용역 서비스 - 사무서비스"},{"name":"네일공간","tel":"031-939-6892","addr":"경기도 파주시 조리읍 봉일천리 160-38번지","category":"보건위생 - 피부미용실"},{"name":"더케어","tel":"","addr":"경기도 파주시 조리읍 봉일천리 160-38번지","category":"보건위생 - 화장품"},{"name":"샴푸보이","tel":"031-948-3122","addr":"경기도 파주시 조리읍 봉일천리 160-38번지","category":"보건위생 - 미용원"}]},{"lat":"37.743455863","long":"126.80854089","items":[{"name":"강일학원","tel":"031-948-0849","addr":"경기도 파주시 조리읍 봉일천리 210-20번지","category":"학원 - 보습학원"},{"name":"족발천하","tel":"031-947-3735","addr":"경기도 파주시 조리읍 봉일천리 210-20번지","category":"일반휴게음식 - 일반한식"}]},{"lat":"37.744591845","long":"126.80901445","items":[{"name":"걸작떡볶이치킨 파주봉일천점","tel":"031-948-2821","addr":"경기도 파주시 조리읍 봉일천리 210-48번지","category":"일반휴게음식 - 스넥"},{"name":"두배로마트(봉일천점)","tel":"031-941-4499","addr":"경기도 파주시 조리읍 봉일천리 210-48번지","category":"유통업 영리 - 슈퍼마켓"}]},{"lat":"37.746482382","long":"126.80812451","items":[{"name":"경원북부특약점","tel":"031-827-9288","addr":"경기도 파주시 조리읍 봉일천리 267-11번지","category":"농업 - 비료,사료,종자"}]},{"lat":"37.746810692","long":"126.8105404","items":[{"name":"경희대석사태권도","tel":"031-942-9430","addr":"경기도 파주시 조리읍 봉일천리 262-23번지 태형미림아파트","category":"학원 - 예·체능계학원"},{"name":"다파라","tel":"","addr":"경기도 파주시 조리읍 봉일천리 262-23번지 태형미림아파트","category":"전기제품 - 가전제품"},{"name":"락","tel":"031-953-5966","addr":"경기도 파주시 조리읍 봉일천리 262-23번지 태형미림아파트","category":"일반휴게음식 - 일반한식"},{"name":"빈티지먼로","tel":"031-941-6659","addr":"경기도 파주시 조리읍 봉일천리 262-23번지","category":"의류 - 정장"},{"name":"우리동네 아이스크림 할인점","tel":"031-953-2923","addr":"경기도 파주시 조리읍 봉일천리 262-23번지","category":"음료식품 - 기타음료식품"}]},{"lat":"37.744203053","long":"126.80817587","items":[{"name":"경희봉일천한의원","tel":"031-946-5985","addr":"경기도 파주시 조리읍 봉일천리 209-1번지","category":"의원 - 한의원"},{"name":"도일체육관","tel":"031-947-6227","addr":"경기도 파주시 조리읍 봉일천리 209-1번지","category":"회원제형태 - 레져업소"},{"name":"봉참치","tel":"031-943-3788","addr":"경기도 파주시 조리읍 봉일천리 209-1번지","category":"일반휴게음식 - 일식·회집"},{"name":"서울정치과의원","tel":"031-941-0706","addr":"경기도 파주시 조리읍 봉일천리 209-1번지","category":"의원 - 치과의원"},{"name":"아이랑 키즈카페","tel":"031-944-4339","addr":"경기도 파주시 조리읍 봉일천리 209-1번지","category":"레저업소 - 기타레져업소"},{"name":"옷스토리","tel":"031-942-6548","addr":"경기도 파주시 조리읍 봉일천리 209-1번지","category":"의류 - 정장"},{"name":"파주정신분석심리상담센터(부설)파주아동발","tel":"070-4414-7444","addr":"경기도 파주시 조리읍 봉일천리 209-1번지","category":"보건위생 - 기타대인서비스"}]},{"lat":"37.742843161","long":"126.80850845","items":[{"name":"고고씽 노래방","tel":"031-946-5591","addr":"경기도 파주시 조리읍 봉일천리 142-10번지","category":"레저업소 - 노 래 방"},{"name":"임진강","tel":"031-944-9280","addr":"경기도 파주시 조리읍 봉일천리 142-10번지","category":"일반휴게음식 - 일반한식"},{"name":"토담골","tel":"031-947-2360","addr":"경기도 파주시 조리읍 봉일천리 142-10","category":"일반휴게음식 - 일반한식"}]},{"lat":"37.744007364","long":"126.80970807","items":[{"name":"고려덴트칼라봉일천점","tel":"031-943-3457","addr":"경기도 파주시 조리읍 봉일천리 210-9번지","category":"자동차정비 유지 - 가타자동차서비스"}]},{"lat":"37.743093682","long":"126.80745265","items":[{"name":"고향건강촌","tel":"031-947-4385","addr":"경기도 파주시 조리읍 봉일천리 166-12","category":"건강식품 - 인삼제품"},{"name":"봉일천 주막","tel":"031-942-7117","addr":"경기도 파주시 조리읍 봉일천리 166-12번지","category":"일반휴게음식 - 일반한식"}]},{"lat":"37.743039437","long":"126.80733934","items":[{"name":"골목포차","tel":"031-123-4567","addr":"경기도 파주시 조리읍 봉일천리 166-13번지","category":"일반휴게음식 - 일반한식"},{"name":"궁중식당","tel":"031-8084-5656","addr":"경기도 파주시 조리읍 봉일천리 166-13번지","category":"일반휴게음식 - 일반한식"},{"name":"남도도시락","tel":"031-945-7672","addr":"경기도 파주시 조리읍 봉일천리 166-13번지","category":"일반휴게음식 - 일반한식"},{"name":"물들이다","tel":"","addr":"경기도 파주시 조리읍 봉일천리 166-13번지","category":"보건위생 - 미용원"}]},{"lat":"37.747611016","long":"126.80960793","items":[{"name":"곰팡이연구소","tel":"031-948-9367","addr":"경기도 파주시 조리읍 봉일천리 269번지 파주푸르지오아파트","category":"용역 서비스 - 종합용역"},{"name":"오후의 향기","tel":"070-4132-5001","addr":"경기도 파주시 조리읍 봉일천리 269번지 파주푸르지오아파트","category":"회원제형태 - 기타4"}]},{"lat":"37.742090599","long":"126.8110972","items":[{"name":"공단지게차","tel":"031-953-4460","addr":"경기도 파주시 조리읍 봉일천리 137-2번지","category":"용역 서비스 - 기타용역서비스"},{"name":"금손마트","tel":"031-1111-1111","addr":"경기도 파주시 조리읍 봉일천리 137-2번지","category":"음료식품 - 기타음료식품"},{"name":"두연중기","tel":"031-904-2533","addr":"경기도 파주시 조리읍 봉일천리 137-2번지","category":"기타 - 기계공구"},{"name":"문산백마지게차","tel":"031-958-3316","addr":"경기도 파주시 조리읍 봉일천리 137-2번지","category":"자동차판매 - 기타운송"},{"name":"오성지게차","tel":"070-1111-1111","addr":"경기도 파주시 조리읍 봉일천리 137-2번지","category":"기타 - 기계공구"},{"name":"제이킴스 주식회사","tel":"02-6346-7715","addr":"경기도 파주시 조리읍 봉일천리 137-2번지","category":"여행 - 관광여행"},{"name":"진성팜","tel":"031-941-1870","addr":"경기도 파주시 조리읍 봉일천리 137-2번지","category":"농업 - 기타농업관련"},{"name":"파주전자","tel":"031-948-3384","addr":"경기도 파주시 조리읍 봉일천리 137-2번지","category":"전기제품 - 가전제품"}]},{"lat":"37.743618128","long":"126.80859719","items":[{"name":"공방카페","tel":"031-946-5728","addr":"경기도 파주시 조리읍 봉일천리 210-72번지","category":"일반휴게음식 - 서양음식"}]},{"lat":"37.744400718","long":"126.80784632","items":[{"name":"교문앞문구점","tel":"031-944-7890","addr":"경기도 파주시 조리읍 봉일천리 207","category":"서적문구 - 문구용품"},{"name":"네오아이포시즌학원","tel":"031-941-6049","addr":"경기도 파주시 조리읍 봉일천리 207번지","category":"학원 - 기타 교육기관"},{"name":"베이징","tel":"031-949-2122","addr":"경기도 파주시 조리읍 봉일천리 207번지","category":"일반휴게음식 - 중국식"},{"name":"봉일천GnB영어학원","tel":"031-949-7905","addr":"경기도 파주시 조리읍 봉일천리 207번지","category":"학원 - 컴퓨터학원"},{"name":"아트&하트미술학원","tel":"070-4102-2058","addr":"경기도 파주시 조리읍 봉일천리 207번지","category":"학원 - 예·체능계학원"},{"name":"윤슬헤어샵","tel":"031-947-5317","addr":"경기도 파주시 조리읍 봉일천리 207번지","category":"보건위생 - 미용원"},{"name":"정훈 태권도 체육관","tel":"031-941-7395","addr":"경기도 파주시 조리읍 봉일천리 207번지","category":"학원 - 예·체능계학원"}]},{"lat":"37.74345083","long":"126.8055116","items":[{"name":"구이랑탕이랑","tel":"031-942-8267","addr":"경기도 파주시 조리읍 봉일천리 158-11번지","category":"일반휴게음식 - 일반한식"},{"name":"산유화","tel":"031-943-3040","addr":"경기도 파주시 조리읍 봉일천리 158-11번지","category":"일반휴게음식 - 일반한식"}]},{"lat":"37.743013573","long":"126.80804284","items":[{"name":"굽네치킨봉일천점","tel":"031-946-9992","addr":"경기도 파주시 조리읍 봉일천리 142-3 외1필지","category":"일반휴게음식 - 주점"},{"name":"사진관 좋다","tel":"031-944-1961","addr":"경기도 파주시 조리읍 봉일천리 142-3번지","category":"광학제품 - 사진관"},{"name":"종로떡집","tel":"031-944-1002","addr":"경기도 파주시 조리읍 봉일천리 142-3번지 B","category":"음료식품 - 제과점"},{"name":"짝태&노가리","tel":"031-948-6320","addr":"경기도 파주시 조리읍 봉일천리 142-3번지","category":"일반휴게음식 - 주점"}]},{"lat":"37.743787602","long":"126.80756429","items":[{"name":"권은주스킨아트스토리","tel":"070-4829-8997","addr":"경기도 파주시 조리읍 봉일천리 205-15번지 외2필지","category":"회원제형태 - 기타4"},{"name":"수학세상수학교습소","tel":"031-939-8959","addr":"경기도 파주시 조리읍 봉일천리 205-15번지","category":"회원제형태 - 학원"},{"name":"율몽음악교습소","tel":"031-974-0697","addr":"경기도 파주시 조리읍 봉일천리 205-15번지","category":"학원 - 예·체능계학원"},{"name":"황후한복","tel":"031-947-9563","addr":"경기도 파주시 조리읍 봉일천리 205-15번지","category":"의류 - 맞춤복점"}]},{"lat":"37.747555897","long":"126.80896133","items":[{"name":"그라시아무용전문학원","tel":"","addr":"경기도 파주시 조리읍 봉일천리 269번지 파주푸르지오아파트","category":"학원 - 예·체능계학원"},{"name":"봉서재","tel":"031-947-4778","addr":"경기도 파주시 조리읍 봉일천리 269번지 파주푸르지오아파트","category":"일반휴게음식 - 서양음식"},{"name":"알투오학원","tel":"031-947-4778","addr":"경기도 파주시 조리읍 봉일천리 269번지 파주푸르지오아파트","category":"학원 - 보습학원"},{"name":"오땡큐천연머리염색방 보일천점","tel":"031-941-2112","addr":"경기도 파주시 조리읍 봉일천리 269번지 파주푸르지오아파트","category":"보건위생 - 미용원"},{"name":"용인대 한울태권도장","tel":"031-941-9666","addr":"경기도 파주시 조리읍 봉일천리 269번지 파주푸르지오아파트","category":"학원 - 예·체능계학원"},{"name":"티제이스포츠","tel":"031-948-4040","addr":"경기도 파주시 조리읍 봉일천리 269번지 파주푸르지오아파트","category":"레저업소 - 헬스클럽"},{"name":"피아노랑 음악학원","tel":"031-0000-0000","addr":"경기도 파주시 조리읍 봉일천리 269번지 파주푸르지오아파트","category":"학원 - 예·체능계학원"},{"name":"하늘채밤비니[아이행복]","tel":"031-942-1663","addr":"경기도 파주시 조리읍 봉일천리 269번지 파주푸르지오아파트","category":"학원 - 유아원"}]},{"lat":"37.741732994","long":"126.81281129","items":[{"name":"금강잔디","tel":"031-943-8846","addr":"경기도 파주시 조리읍 봉일천리 129-1","category":"문화.취미 - 화원"}]},{"lat":"37.743202172","long":"126.80767928","items":[{"name":"금당","tel":"031-941-1431","addr":"경기도 파주시 조리읍 봉일천리 208-10번지","category":"신변잡화 - 귀금속"},{"name":"대치이룸학원","tel":"031-945-4329","addr":"경기도 파주시 조리읍 봉일천리 208-10번지","category":"학원 - 보습학원"},{"name":"쥬씨 봉일천점","tel":"031-947-9495","addr":"경기도 파주시 조리읍 봉일천리 208-10번지","category":"일반휴게음식 - 서양음식"}]},{"lat":"37.742763214","long":"126.80920075","items":[{"name":"금자네족발","tel":"031-944-3346","addr":"경기도 파주시 조리읍 봉일천리 141-32번지","category":"일반휴게음식 - 일반한식"},{"name":"초가삼간민속주점","tel":"031-945-3975","addr":"경기도 파주시 조리읍 봉일천리 141-32 지하1층","category":"일반휴게음식 - 주점"}]},{"lat":"37.736452937","long":"126.8240333","items":[{"name":"금촌헌뼈해장국","tel":"031-944-4249","addr":"경기도 파주시 조리읍 봉일천리 23-15번지","category":"일반휴게음식 - 일반한식"},{"name":"매화","tel":"031-942-8872","addr":"경기도 파주시 조리읍 봉일천리 23-15번지","category":"일반휴게음식 - 일반한식"},{"name":"브라운","tel":"070-7814-1432","addr":"경기도 파주시 조리읍 봉일천리 23-15번지","category":"일반휴게음식 - 서양음식"}]},{"lat":"37.743786227","long":"126.80673605","items":[{"name":"기가텔레콤","tel":"070-8828-0006","addr":"경기도 파주시 조리읍 봉일천리 204-12번지","category":"사무통신 - 통신기기"}]},{"lat":"37.744313222","long":"126.80942362","items":[{"name":"기천한우직판장","tel":"031-944-6463","addr":"경기도 파주시 조리읍 봉일천리 210-56번지","category":"음료식품 - 정육점"},{"name":"마이샘독서실","tel":"031-948-6255","addr":"경기도 파주시 조리읍 봉일천리 210-56번지","category":"학원 - 독서실"},{"name":"서영헤어체인지","tel":"031-945-0708","addr":"경기도 파주시 조리읍 봉일천리 210-56번지 나동 1층","category":"보건위생 - 미용원"},{"name":"한성모터스","tel":"031-947-8255","addr":"경기도 파주시 조리읍 봉일천리 210-56번지","category":"자동차정비 유지 - 자동차정비"},{"name":"회포장전문점","tel":"031-942-8844","addr":"경기도 파주시 조리읍 봉일천리 210-56번지","category":"음료식품 - 기타음료식품"}]},{"lat":"37.743786736","long":"126.80704238","items":[{"name":"김동선치과의원","tel":"031-946-2875","addr":"경기도 파주시 조리읍 봉일천리 204-9번지 김동성치과의원","category":"의원 - 치과의원"},{"name":"모닝글로리","tel":"031-942-1100","addr":"경기도 파주시 조리읍 봉일천리 204-9번지","category":"서적문구 - 문구용품"}]},{"lat":"37.743732849","long":"126.80714464","items":[{"name":"김밥나라","tel":"031-947-0228","addr":"경기도 파주시 조리읍 봉일천리 204-8번지","category":"일반휴게음식 - 스넥"},{"name":"행복한조명","tel":"031-944-0075","addr":"경기도 파주시 조리읍 봉일천리 204-8번지","category":"건축자재 - 조명기구"}]},{"lat":"37.743400794","long":"126.80792836","items":[{"name":"김수연작품하나","tel":"031-943-8009","addr":"경기도 파주시 조리읍 봉일천리 166-1번지","category":"보건위생 - 미용원"}]},{"lat":"37.743839622","long":"126.8063388","items":[{"name":"김이닭발","tel":"031-948-4892","addr":"경기도 파주시 조리읍 봉일천리 204-16번지","category":"일반휴게음식 - 일반한식"},{"name":"스마일 찹쌀꽈베기","tel":"031-946-4393","addr":"경기도 파주시 조리읍 봉일천리 204-16번지","category":"일반휴게음식 - 스넥"}]},{"lat":"37.744260009","long":"126.80451101","items":[{"name":"김치찌개전문점 복조리","tel":"031-948-0153","addr":"경기도 파주시 조리읍 봉일천리 179-2번지","category":"일반휴게음식 - 일반한식"},{"name":"상원포크","tel":"031-949-5100","addr":"경기도 파주시 조리읍 봉일천리 179-2번지","category":"일반휴게음식 - 일반한식"},{"name":"윤가네 곱창","tel":"031-943-2355","addr":"경기도 파주시 조리읍 봉일천리 179-2번지","category":"일반휴게음식 - 일반한식"}]},{"lat":"37.743146042","long":"126.8064314","items":[{"name":"깅스키친","tel":"070-8777-4125","addr":"경기도 파주시 조리읍 봉일천리 155-6번지","category":"일반휴게음식 - 서양음식"},{"name":"더그레이스","tel":"031-943-2283","addr":"경기도 파주시 조리읍 봉일천리 155-6번지","category":"의류 - 정장"},{"name":"장호덕 손만두","tel":"031-941-2211","addr":"경기도 파주시 조리읍 봉일천리 155-6번지","category":"일반휴게음식 - 스넥"}]},{"lat":"37.74749726","long":"126.81167326","items":[{"name":"꼬꼬마별어린이집[아이행복]","tel":"031-946-5950","addr":"경기도 파주시 조리읍 봉일천리 262번지 태형내산마을아파트","category":"학원 - 유아원"}]},{"lat":"37.743262204","long":"126.81132109","items":[{"name":"꼬마궁전 어린이집[아이행복]","tel":"031-948-6748","addr":"경기도 파주시 조리읍 봉일천리 125-22번지 성호아파트","category":"학원 - 유아원"},{"name":"남양유업","tel":"070-8154-8206","addr":"경기도 파주시 조리읍 봉일천리 125-22번지","category":"음료식품 - 기타음료식품"},{"name":"호식이두마리치킨봉일천점","tel":"031-945-2141","addr":"경기도 파주시 조리읍 봉일천리 125-22번지","category":"일반휴게음식 - 스넥"}]},{"lat":"37.743703513","long":"126.80576053","items":[{"name":"꽝수네 곱창가게","tel":"031-947-7205","addr":"경기도 파주시 조리읍 봉일천리 169-16번지","category":"일반휴게음식 - 일반한식"},{"name":"카페로와","tel":"031-945-4342","addr":"경기도 파주시 조리읍 봉일천리 169-16번지","category":"일반휴게음식 - 서양음식"}]},{"lat":"37.746035375","long":"126.81023606","items":[{"name":"꿈샘음악학원","tel":"031-945-5548","addr":"경기도 파주시 조리읍 봉일천리 237-5번지","category":"학원 - 예·체능계학원"},{"name":"쟈르니헤어샵","tel":"031-944-1618","addr":"경기도 파주시 조리읍 봉일천리 237-5 윤창상가","category":"보건위생 - 미용원"},{"name":"창의버스미술놀이터교습소","tel":"031-947-1038","addr":"경기도 파주시 조리읍 봉일천리 237-5번지","category":"학원 - 예·체능계학원"},{"name":"천냥하우스","tel":"031-944-9295","addr":"경기도 파주시 조리읍 봉일천리 237-5번지","category":"일반휴게음식 - 일반한식"}]},{"lat":"37.735760937","long":"126.82518077","items":[{"name":"나누리식당","tel":"031-946-8325","addr":"경기도 파주시 조리읍 봉일천리 13-15번지","category":"일반휴게음식 - 일반한식"},{"name":"서일엔지니어링","tel":"031-903-0820","addr":"경기도 파주시 조리읍 봉일천리 13-15번지 송촌토파즈아파트","category":"전기제품 - 기타전기제품"},{"name":"썬","tel":"031-943-0978","addr":"경기도 파주시 조리읍 봉일천리 13-15번지 송촌토파즈아파트","category":"일반휴게음식 - 일반한식"},{"name":"아해뜰어린이집[아이행복]","tel":"031-0000-0000","addr":"경기도 파주시 조리읍 봉일천리 13-15번지 송촌토파즈아파트","category":"학원 - 유아원"},{"name":"일산유통","tel":"070-4200-2303","addr":"경기도 파주시 조리읍 봉일천리 13-15번지","category":"음료식품 - 기타음료식품"},{"name":"장미중기","tel":"031-947-0308","addr":"경기도 파주시 조리읍 봉일천리 13-15번지","category":"기타 - 기계공구"},{"name":"주향기미용실","tel":"031-945-8633","addr":"경기도 파주시 조리읍 봉일천리 13-15번지","category":"보건위생 - 미용원"}]},{"lat":"37.737149014","long":"126.831678","items":[{"name":"나라산업","tel":"031-965-8998","addr":"경기도 파주시 조리읍 봉일천리 62-44번지","category":"기타 - 기계공구"}]},{"lat":"37.742816767","long":"126.80889427","items":[{"name":"나무","tel":"","addr":"경기도 파주시 조리읍 봉일천리 141-40번지","category":"일반휴게음식 - 일반한식"}]},{"lat":"37.743591604","long":"126.8089036","items":[{"name":"나이스가이","tel":"031-949-1912","addr":"경기도 파주시 조리읍 봉일천리 210-35번지","category":"보건위생 - 이용원"},{"name":"라인휘트니스","tel":"031-943-7979","addr":"경기도 파주시 조리읍 봉일천리 210-35번지","category":"레저업소 - 헬스클럽"},{"name":"바른치과의원","tel":"031-949-2825","addr":"경기도 파주시 조리읍 봉일천리 210-35번지","category":"의원 - 치과의원"},{"name":"세양","tel":"070-1811-6139","addr":"경기도 파주시 조리읍 봉일천리 210-35번지","category":"회원제형태 - 기타4"},{"name":"세양스파랜드","tel":"031-946-7233","addr":"경기도 파주시 조리읍 봉일천리 210-35번지","category":"보건위생 - 사우나"},{"name":"스넥코너","tel":"031-941-5603","addr":"경기도 파주시 조리읍 봉일천리 210-35번지","category":"일반휴게음식 - 일반한식"},{"name":"체형교정원","tel":"031-941-9064","addr":"경기도 파주시 조리읍 봉일천리 210-35번지","category":"보건위생 - 기타대인서비스"},{"name":"크린토피아 코인워시","tel":"031-946-6339","addr":"경기도 파주시 조리읍 봉일천리 210-35번지","category":"수리서비스 - 세탁소"},{"name":"타워노래방","tel":"031-948-2232","addr":"경기도 파주시 조리읍 봉일천리 210-35번지","category":"레저업소 - 노 래 방"},{"name":"파주한의원","tel":"031-957-5747","addr":"경기도 파주시 조리읍 봉일천리 210-35번지","category":"의원 - 한의원"}]},{"lat":"37.743703646","long":"126.80583995","items":[{"name":"낙원복떡방앗간","tel":"031-944-7117","addr":"경기도 파주시 조리읍 봉일천리 169-14번지","category":"음료식품 - 제과점"}]},{"lat":"37.74511622","long":"126.81012498","items":[{"name":"노리파크 봉일천점","tel":"031-942-5289","addr":"경기도 파주시 조리읍 봉일천리 221-9번지","category":"레저업소 - 기타레져업소"},{"name":"정성학원","tel":"031-957-5542","addr":"경기도 파주시 조리읍 봉일천리 221-9번지","category":"학원 - 보습학원"}]},{"lat":"37.737903195","long":"126.8238483","items":[{"name":"누리슈퍼마켓","tel":"031-946-6268","addr":"경기도 파주시 조리읍 봉일천리 60-22","category":"유통업 영리 - 슈퍼마켓"},{"name":"삼릉호프","tel":"031-938-9870","addr":"경기도 파주시 조리읍 봉일천리 60-22번지","category":"일반휴게음식 - 일반한식"}]},{"lat":"37.74381284","long":"126.80648637","items":[{"name":"다비다 아울렛","tel":"031-943-8958","addr":"경기도 파주시 조리읍 봉일천리 204-15번지","category":"의류 - 정장"}]},{"lat":"37.74342662","long":"126.80720217","items":[{"name":"다이소 봉일천점","tel":"031-949-0626","addr":"경기도 파주시 조리읍 봉일천리 168-10번지","category":"신변잡화 - 기타잡화"}]},{"lat":"37.736311763","long":"126.82600761","items":[{"name":"다이즈 커스텀(DIY.Z CUSTOM)","tel":"","addr":"경기도 파주시 조리읍 봉일천리 8-66번지","category":"자동차정비 유지 - 카인테리어"}]},{"lat":"37.743041744","long":"126.80873485","items":[{"name":"닭이네","tel":"031-945-0290","addr":"경기도 파주시 조리읍 봉일천리 141-22번지","category":"일반휴게음식 - 스넥"},{"name":"젠노래연습장","tel":"","addr":"경기도 파주시 조리읍 봉일천리 141-22번지","category":"레저업소 - 노 래 방"}]},{"lat":"37.747423011","long":"126.80489969","items":[{"name":"대가순두부 두낙전골 봉일천점","tel":"031-949-5688","addr":"경기도 파주시 조리읍 봉일천리 284-1번지","category":"일반휴게음식 - 일반한식"},{"name":"숑스 바베큐(파주일산점)","tel":"031-943-0828","addr":"경기도 파주시 조리읍 봉일천리 284-1번지","category":"일반휴게음식 - 일반한식"}]},{"lat":"37.736788194","long":"126.82529176","items":[{"name":"대명상사","tel":"031-000-0000","addr":"경기도 파주시 조리읍 봉일천리 8-19번지","category":"의류 - 정장"}]},{"lat":"37.742924975","long":"126.80895072","items":[{"name":"대성식당","tel":"031-942-6471","addr":"경기도 파주시 조리읍 봉일천리 141-39번지","category":"일반휴게음식 - 일반한식"},{"name":"열린축산","tel":"031-941-3553","addr":"경기도 파주시 조리읍 봉일천리 141-39번지","category":"음료식품 - 정육점"},{"name":"투다리(봉일천점)","tel":"031-948-8850","addr":"경기도 파주시 조리읍 봉일천리 141-39","category":"일반휴게음식 - 주점"}]},{"lat":"37.737200728","long":"126.8240315","items":[{"name":"대성아트론","tel":"","addr":"경기도 파주시 조리읍 봉일천리 8-70번지","category":"수리서비스 - 가정용품수리"},{"name":"수호침구","tel":"031-943-0777","addr":"경기도 파주시 조리읍 봉일천리 8-70번지","category":"직물 - 침구·수예점"}]},{"lat":"37.74370708","long":"126.80790487","items":[{"name":"대성연세학원","tel":"031-942-0065","addr":"경기도 파주시 조리읍 봉일천리 205-5번지","category":"학원 - 보습학원"},{"name":"이디야봉일천점","tel":"031-948-2242","addr":"경기도 파주시 조리읍 봉일천리 205-5번지","category":"일반휴게음식 - 스넥"}]},{"lat":"37.737013637","long":"126.82542736","items":[{"name":"대우정원용품","tel":"031-949-7977","addr":"경기도 파주시 조리읍 봉일천리 8-110번지","category":"건축자재 - 인테리어전문"}]},{"lat":"37.743291571","long":"126.80725926","items":[{"name":"대원상회","tel":"031-944-4914","addr":"경기도 파주시 조리읍 봉일천리 166-16번지","category":"의류 - 내의판매"},{"name":"대원신발","tel":"031-941-4243","addr":"경기도 파주시 조리읍 봉일천리 166-16","category":"신변잡화 - 신발"}]},{"lat":"37.735581463","long":"126.82565767","items":[{"name":"대진상사","tel":"031-941-5084","addr":"경기도 파주시 조리읍 봉일천리 13-15번지 송촌토파즈아파트","category":"의류 - 정장"},{"name":"아이키즈","tel":"","addr":"경기도 파주시 조리읍 봉일천리 13-15번지 송촌토파즈아파트","category":"학원 - 기타 교육기관"}]},{"lat":"37.737125747","long":"126.83428734","items":[{"name":"대한금속","tel":"031-957-3900","addr":"경기도 파주시 조리읍 봉일천리 62-92번지","category":"건축자재 - 목재·석재·철물"}]},{"lat":"37.735339601","long":"126.82658849","items":[{"name":"더 케이엠","tel":"031-943-7233","addr":"경기도 파주시 조리읍 봉일천리 20-6번지","category":"가구 - 일반가구"},{"name":"할매가","tel":"031-943-2977","addr":"경기도 파주시 조리읍 봉일천리 20-6번지","category":"음료식품 - 기타음료식품"}]},{"lat":"37.736813954","long":"126.82445219","items":[{"name":"더존에듀","tel":"070-4131-8505","addr":"경기도 파주시 조리읍 봉일천리 8-105번지","category":"회원제형태 - 서적"}]},{"lat":"37.742732335","long":"126.81236625","items":[{"name":"돈치킨호프구운치킨","tel":"031-944-9910","addr":"경기도 파주시 조리읍 봉일천리 125-49번지","category":"일반휴게음식 - 스넥"}]},{"lat":"37.739817583","long":"126.82081453","items":[{"name":"동기실내포장마차","tel":"031-946-0044","addr":"경기도 파주시 조리읍 봉일천리 69-24번지","category":"일반휴게음식 - 주점"}]},{"lat":"37.741264151","long":"126.81259692","items":[{"name":"동남천막","tel":"031-946-1717","addr":"경기도 파주시 조리읍 봉일천리 133-9 1층4호","category":"직물 - 카페트,커튼,천막,지물"},{"name":"무한상사","tel":"031-958-7704","addr":"경기도 파주시 조리읍 봉일천리 133-9번지","category":"건축자재 - 페인트"},{"name":"제이에이치모터스(JH모터스)","tel":"031-949-6545","addr":"경기도 파주시 조리읍 봉일천리 133-9번지 대봉빌딩1호","category":"자동차정비 유지 - 자동차시트·타이어"}]},{"lat":"37.741398303","long":"126.81198393","items":[{"name":"동서가구","tel":"031-944-8851","addr":"경기도 파주시 조리읍 봉일천리 133-8번지","category":"가구 - 일반가구"},{"name":"스피드 정비","tel":"031-8071-3417","addr":"경기도 파주시 조리읍 봉일천리 133-8번지","category":"자동차정비 유지 - 자동차정비"},{"name":"스피드메이트봉일천점","tel":"031-8071-3417","addr":"경기도 파주시 조리읍 봉일천리 133-8번지","category":"자동차정비 유지 - 자동차정비"},{"name":"진칼국수","tel":"031-8071-0505","addr":"경기도 파주시 조리읍 봉일천리 133-8번지","category":"일반휴게음식 - 일반한식"},{"name":"참이맛감자탕 봉일천점","tel":"031-943-8849","addr":"경기도 파주시 조리읍 봉일천리 133-8번지","category":"일반휴게음식 - 일반한식"},{"name":"카페오르","tel":"031-944-6559","addr":"경기도 파주시 조리읍 봉일천리 133-8번지","category":"일반휴게음식 - 서양음식"}]},{"lat":"37.74404135","long":"126.80845994","items":[{"name":"동신카세차장","tel":"031-944-7449","addr":"경기도 파주시 조리읍 봉일천리 210-17번지","category":"자동차정비 유지 - 자동차정비"}]},{"lat":"37.745454923","long":"126.80790028","items":[{"name":"동해동태찜","tel":"031-941-5752","addr":"경기도 파주시 조리읍 봉일천리 186-6번지","category":"일반휴게음식 - 일반한식"}]},{"lat":"37.743398213","long":"126.80637401","items":[{"name":"두부한모","tel":"02-945-7345","addr":"경기도 파주시 조리읍 봉일천리 170-3번지","category":"음료식품 - 기타음료식품"}]},{"lat":"37.740701513","long":"126.82145904","items":[{"name":"두손에어컨공조","tel":"031-872-5052","addr":"경기도 파주시 조리읍 봉일천리 79-119번지","category":"용역 서비스 - 기타용역서비스"}]},{"lat":"37.743899572","long":"126.80447794","items":[{"name":"둥지인테리어","tel":"031-941-6936","addr":"경기도 파주시 조리읍 봉일천리 162-1번지","category":"건축자재 - 인테리어전문"}]},{"lat":"37.743340288","long":"126.80948288","items":[{"name":"둥지호프","tel":"031-944-5920","addr":"경기도 파주시 조리읍 봉일천리 210-14번지","category":"일반휴게음식 - 주점"}]},{"lat":"37.743734596","long":"126.80819979","items":[{"name":"뚜레쥬르 파주봉일천(2)","tel":"031-949-9589","addr":"경기도 파주시 조리읍 봉일천리 209-3번지","category":"음료식품 - 제과점"},{"name":"보배당구클럽","tel":"031-947-3653","addr":"경기도 파주시 조리읍 봉일천리 209-3번지","category":"레저업소 - 당 구 장"},{"name":"아트노래연습장","tel":"031-946-9852","addr":"경기도 파주시 조리읍 봉일천리 209-3번지","category":"레저업소 - 노 래 방"},{"name":"이니스프리 봉일천","tel":"031-946-3527","addr":"경기도 파주시 조리읍 봉일천리 209-3번지","category":"보건위생 - 화장품"},{"name":"조은치과의원","tel":"031-948-2824","addr":"경기도 파주시 조리읍 봉일천리 209-3번지","category":"의원 - 치과의원"},{"name":"조현철이비인후과","tel":"031-949-7068","addr":"경기도 파주시 조리읍 봉일천리 209-3번지","category":"의원 - 의원"},{"name":"현대25시(편의점)","tel":"031-946-3010","addr":"경기도 파주시 조리읍 봉일천리 209-3번지","category":"유통업 영리 - 슈퍼마켓"}]},{"lat":"37.746262775","long":"126.81156297","items":[{"name":"뚱스","tel":"031-947-9945","addr":"경기도 파주시 조리읍 봉일천리 238-6번지","category":"일반휴게음식 - 일반한식"}]},{"lat":"37.74386833","long":"126.8073485","items":[{"name":"뜨뜨고","tel":"031-947-5350","addr":"경기도 파주시 조리읍 봉일천리 160-33번지","category":"일반휴게음식 - 스넥"},{"name":"비비고컵앤곽밥","tel":"031-947-5350","addr":"경기도 파주시 조리읍 봉일천리 160-33번지","category":"일반휴게음식 - 일반한식"},{"name":"온이천연공방","tel":"","addr":"경기도 파주시 조리읍 봉일천리 160-33번지","category":"문화.취미 - 문화취미기타"}]},{"lat":"37.743400325","long":"126.80764472","items":[{"name":"띠아트헤어","tel":"031-944-5818","addr":"경기도 파주시 조리읍 봉일천리 166-5번지","category":"보건위생 - 미용원"},{"name":"베스킨라빈스(봉일천점)","tel":"031-948-7748","addr":"경기도 파주시 조리읍 봉일천리 166-5번지","category":"음료식품 - 제과점"},{"name":"커피에반하다","tel":"031-945-6880","addr":"경기도 파주시 조리읍 봉일천리 166-5번지","category":"일반휴게음식 - 서양음식"}]},{"lat":"37.744012482","long":"126.80734812","items":[{"name":"라벨지","tel":"031-111-1111","addr":"경기도 파주시 조리읍 봉일천리 203-6번지","category":"음료식품 - 제과점"},{"name":"보그네일","tel":"031-948-1321","addr":"경기도 파주시 조리읍 봉일천리 203-6번지","category":"보건위생 - 피부미용실"}]},{"lat":"37.744478103","long":"126.80562233","items":[{"name":"라파 영어 공부방","tel":"02-000-0000","addr":"경기도 파주시 조리읍 봉일천리 189-8번지","category":"학원 - 기타 교육기관"}]},{"lat":"37.746618479","long":"126.80870281","items":[{"name":"라헬뷰티샵","tel":"031-943-7591","addr":"경기도 파주시 조리읍 봉일천리 266-66번지","category":"회원제형태 - 기타4"}]},{"lat":"37.747497463","long":"126.81179807","items":[{"name":"레질컴퍼니","tel":"031-947-2292","addr":"경기도 파주시 조리읍 봉일천리 262번지 태형내산마을아파트","category":"용역 서비스 - 종합용역"}]},{"lat":"37.742899603","long":"126.80996055","items":[{"name":"렉스스크린골프","tel":"031-943-9453","addr":"경기도 파주시 조리읍 봉일천리 125-11번지","category":"레저업소 - 스크린골프"},{"name":"베가PC방","tel":"070-9999-7418","addr":"경기도 파주시 조리읍 봉일천리 125-11번지","category":"레저업소 - 기타레져업소"}]},{"lat":"37.743093964","long":"126.80762284","items":[{"name":"루트엠수학교습소","tel":"070-4229-1663","addr":"경기도 파주시 조리읍 봉일천리 154-1번지","category":"회원제형태 - 학원"},{"name":"오아시스153","tel":"031-948-1044","addr":"경기도 파주시 조리읍 봉일천리 154-1번지","category":"보건위생 - 안경"}]},{"lat":"37.744730033","long":"126.81087482","items":[{"name":"리드펫","tel":"031-942-3088","addr":"경기도 파주시 조리읍 봉일천리 221-10번지","category":"일반휴게음식 - 일반한식"}]},{"lat":"37.743338619","long":"126.81400982","items":[{"name":"리틀바움어린이집[아이행복]","tel":"070-7576-0581","addr":"경기도 파주시 조리읍 봉일천리 301번지 효성해링턴플레이스","category":"학원 - 유아원"}]},{"lat":"37.743703191","long":"126.80556765","items":[{"name":"마장동부속집","tel":"031-941-8208","addr":"경기도 파주시 조리읍 봉일천리 160-71(1층)","category":"일반휴게음식 - 일반한식"}]},{"lat":"37.7421749","long":"126.80756852","items":[{"name":"막창일번지","tel":"031-945-4949","addr":"경기도 파주시 조리읍 봉일천리 150-28번지","category":"일반휴게음식 - 일반한식"},{"name":"장터순대국","tel":"031-944-5245","addr":"경기도 파주시 조리읍 봉일천리 150-28번지","category":"일반휴게음식 - 일반한식"}]},{"lat":"37.746537487","long":"126.80875976","items":[{"name":"막창집","tel":"031-944-9295","addr":"경기도 파주시 조리읍 봉일천리 266-66번지","category":"일반휴게음식 - 일반한식"}]},{"lat":"37.744090409","long":"126.80545317","items":[{"name":"맑은가람창의사고력학원","tel":"070-7803-4990","addr":"경기도 파주시 조리읍 봉일천리 203-21번지","category":"학원 - 보습학원"},{"name":"여수식당","tel":"031-948-9993","addr":"경기도 파주시 조리읍 봉일천리 203-21번지","category":"일반휴게음식 - 일반한식"}]},{"lat":"37.743759519","long":"126.806929","items":[{"name":"맘스터치 봉일천점","tel":"031-944-7002","addr":"경기도 파주시 조리읍 봉일천리 204-10번지","category":"일반휴게음식 - 일반한식"}]},{"lat":"37.744312998","long":"126.80928747","items":[{"name":"머리하기좋은날","tel":"031-942-6426","addr":"경기도 파주시 조리읍 봉일천리 210-57번지","category":"보건위생 - 미용원"},{"name":"바푸리봉일천점","tel":"031-941-7666","addr":"경기도 파주시 조리읍 봉일천리 210-57번지","category":"일반휴게음식 - 일반한식"},{"name":"봉구비어","tel":"031-8071-0477","addr":"경기도 파주시 조리읍 봉일천리 210-57번지","category":"일반휴게음식 - 일반한식"}]},{"lat":"37.743759387","long":"126.80684958","items":[{"name":"먹보왕만두","tel":"031-943-6898","addr":"경기도 파주시 조리읍 봉일천리 204-11","category":"일반휴게음식 - 스넥"},{"name":"세모네모","tel":"031-946-3055","addr":"경기도 파주시 조리읍 봉일천리 204-11번지","category":"일반휴게음식 - 일반한식"}]},{"lat":"37.74368022","long":"126.80800705","items":[{"name":"메가커피 (봉일천점)/주식회사 강남","tel":"031-941-0511","addr":"경기도 파주시 조리읍 봉일천리 205-1번지","category":"일반휴게음식 - 서양음식"},{"name":"실로암안경","tel":"031-944-3837","addr":"경기도 파주시 조리읍 봉일천리 205-1번지","category":"보건위생 - 안경"},{"name":"이미지","tel":"031-941-6733","addr":"경기도 파주시 조리읍 봉일천리 205-1번지","category":"의류 - 정장"}]},{"lat":"37.744672613","long":"126.80882136","items":[{"name":"명륜진사갈비파주봉일천점","tel":"031-947-7814","addr":"경기도 파주시 조리읍 봉일천리 210-6번지","category":"일반휴게음식 - 일반한식"}]},{"lat":"37.748025248","long":"126.80948204","items":[{"name":"모아공조","tel":"02-385-9999","addr":"경기도 파주시 조리읍 봉일천리 269번지 파주푸르지오아파트","category":"용역 서비스 - 기타용역서비스"}]},{"lat":"37.745535878","long":"126.80782065","items":[{"name":"무바라 막창","tel":"070-8121-7084","addr":"경기도 파주시 조리읍 봉일천리 186-2번지","category":"일반휴게음식 - 일반한식"}]},{"lat":"37.746590177","long":"126.80793135","items":[{"name":"뮤엠영어교습소","tel":"031-947-5725","addr":"경기도 파주시 조리읍 봉일천리 183-22번지","category":"학원 - 보습학원"}]},{"lat":"37.742733076","long":"126.80731745","items":[{"name":"미가랑미용실","tel":"031-944-8930","addr":"경기도 파주시 조리읍 봉일천리 152-1번지","category":"보건위생 - 미용원"}]},{"lat":"37.742898133","long":"126.80906425","items":[{"name":"미고하우스애견","tel":"031-947-8777","addr":"경기도 파주시 조리읍 봉일천리 141-42","category":"문화.취미 - 애완동물"},{"name":"현대마트","tel":"031-939-6063","addr":"경기도 파주시 조리읍 봉일천리 141-42번지","category":"유통업 영리 - 슈퍼마켓"}]},{"lat":"37.746093074","long":"126.80697957","items":[{"name":"미림식품","tel":"031-944-9602","addr":"경기도 파주시 조리읍 봉일천리 183-31번지","category":"음료식품 - 기타음료식품"},{"name":"힐스크린골프","tel":"031-944-9600","addr":"경기도 파주시 조리읍 봉일천리 183-31번지","category":"회원제형태 - 레져업소"}]},{"lat":"37.744844708","long":"126.80937686","items":[{"name":"바구니가득한행복","tel":"031-944-2636","addr":"경기도 파주시 조리읍 봉일천리 225-3번지","category":"의류 - 정장"},{"name":"바다향","tel":"031-948-2744","addr":"경기도 파주시 조리읍 봉일천리 225-3번지","category":"일반휴게음식 - 일반한식"},{"name":"보물찾기","tel":"031-941-0870","addr":"경기도 파주시 조리읍 봉일천리 225-3번지","category":"의류 - 정장"}]},{"lat":"37.744565581","long":"126.8094797","items":[{"name":"바부통닭","tel":"031-941-9270","addr":"경기도 파주시 조리읍 봉일천리 224-4번지","category":"일반휴게음식 - 스넥"}]},{"lat":"37.74386865","long":"126.80754138","items":[{"name":"바이제이","tel":"031-947-7152","addr":"경기도 파주시 조리읍 봉일천리 205-14번지 외1필지","category":"의류 - 정장"},{"name":"불량여우","tel":"","addr":"경기도 파주시 조리읍 봉일천리 205-14번지","category":"의류 - 아동의류"},{"name":"제이브이학원","tel":"031-946-1617","addr":"경기도 파주시 조리읍 봉일천리 205-14번지","category":"학원 - 보습학원"},{"name":"체인지","tel":"031-946-8228","addr":"경기도 파주시 조리읍 봉일천리 205-14","category":"의류 - 정장"}]},{"lat":"37.743706892","long":"126.80779141","items":[{"name":"반강철물건재","tel":"031-942-4988","addr":"경기도 파주시 조리읍 봉일천리 205-6번지","category":"건축자재 - 목재·석재·철물"},{"name":"약손한의원","tel":"031-957-7929","addr":"경기도 파주시 조리읍 봉일천리 205-6번지","category":"의원 - 한의원"}]},{"lat":"37.743871625","long":"126.80393341","items":[{"name":"반도특수가스","tel":"031-942-5958","addr":"경기도 파주시 조리읍 봉일천리 176-11","category":"연료판매점 - 기타연료"}]},{"lat":"37.743262692","long":"126.80614745","items":[{"name":"방가비어","tel":"031-941-5800","addr":"경기도 파주시 조리읍 봉일천리 165-7번지","category":"일반휴게음식 - 일반한식"},{"name":"방가비어","tel":"","addr":"경기도 파주시 조리읍 봉일천리 165-7번지","category":"일반휴게음식 - 주점"},{"name":"신동음악학원","tel":"031-941-9405","addr":"경기도 파주시 조리읍 봉일천리 165-7번지","category":"학원 - 예·체능계학원"},{"name":"학교교과교습학원","tel":"031-941-1366","addr":"경기도 파주시 조리읍 봉일천리 165-7번지","category":"학원 - 예·체능계학원"}]},{"lat":"37.742031406","long":"126.80796599","items":[{"name":"백산","tel":"031-756-6710","addr":"경기도 파주시 조리읍 봉일천리 147-1번지 동문아파트","category":"보건위생 - 안경"},{"name":"신유림장의자동차","tel":"031-742-4441","addr":"경기도 파주시 조리읍 봉일천리 147-1번지 동문아파트","category":"여행 - 기타교통수단"},{"name":"하나양봉","tel":"031-943-7391","addr":"경기도 파주시 조리읍 봉일천리 147-1번지 동문아파트","category":"회원제형태 - 건강식품"}]},{"lat":"37.741924733","long":"126.80883988","items":[{"name":"보람한일석유","tel":"031-941-5197","addr":"경기도 파주시 조리읍 봉일천리 144-3번지","category":"연료판매점 - 유류판매"}]},{"lat":"37.743706704","long":"126.80767796","items":[{"name":"본죽 봉일천점","tel":"031-944-6888","addr":"경기도 파주시 조리읍 봉일천리 205-7번지","category":"일반휴게음식 - 일반한식"},{"name":"서경향헤어","tel":"031-941-0062","addr":"경기도 파주시 조리읍 봉일천리 205-7번지","category":"보건위생 - 미용원"}]},{"lat":"37.743451986","long":"126.80620368","items":[{"name":"봉갈비","tel":"031-949-4606","addr":"경기도 파주시 조리읍 봉일천리 170-4번지","category":"일반휴게음식 - 일반한식"}]},{"lat":"37.746763098","long":"126.80898609","items":[{"name":"봉일천밧데리","tel":"031-945-5080","addr":"경기도 파주시 조리읍 봉일천리 266-16번지","category":"자동차정비 유지 - 자동차부품"}]},{"lat":"37.744763119","long":"126.80907073","items":[{"name":"봉일천순대국","tel":"031-944-1999","addr":"경기도 파주시 조리읍 봉일천리 224-1외1필지","category":"일반휴게음식 - 일반한식"}]},{"lat":"37.742868124","long":"126.80726037","items":[{"name":"봉일천장작구이","tel":"031-943-6292","addr":"경기도 파주시 조리읍 봉일천리 155-10번지","category":"일반휴게음식 - 일반한식"}]},{"lat":"37.744651592","long":"126.80700607","items":[{"name":"봉일천초등학교병설유치원[아이행복]","tel":"031-941-4015","addr":"경기도 파주시 조리읍 봉일천리 191-6번지","category":"학원 - 유치원"}]},{"lat":"37.744038682","long":"126.80684884","items":[{"name":"봉일천하합기도","tel":"031-946-6315","addr":"경기도 파주시 조리읍 봉일천리 203-11번지","category":"학원 - 예·체능계학원"},{"name":"사랑음악학원","tel":"031-941-5131","addr":"경기도 파주시 조리읍 봉일천리 203-11번지","category":"학원 - 예·체능계학원"},{"name":"작은 옷장","tel":"031-111-1111","addr":"경기도 파주시 조리읍 봉일천리 203-11번지","category":"서적문구 - 완구점"},{"name":"탑에듀학원","tel":"031-942-2123","addr":"경기도 파주시 조리읍 봉일천리 203-11번지","category":"학원 - 기타 교육기관"}]},{"lat":"37.736514952","long":"126.82334113","items":[{"name":"봉일천화재매장","tel":"031-968-2423","addr":"경기도 파주시 조리읍 봉일천리 26-59번지","category":"신변잡화 - 기타잡화"}]},{"lat":"37.743122736","long":"126.80867791","items":[{"name":"봉정숙헤어샵","tel":"031-945-7634","addr":"경기도 파주시 조리읍 봉일천리 142-12","category":"보건위생 - 미용원"}]},{"lat":"37.744117248","long":"126.80533964","items":[{"name":"봉천손세차장","tel":"031-862-8776","addr":"경기도 파주시 조리읍 봉일천리 203-22번지","category":"자동차정비 유지 - 세차장"}]},{"lat":"37.743869982","long":"126.80834693","items":[{"name":"부어치킨","tel":"031-946-8959","addr":"경기도 파주시 조리읍 봉일천리 210-45번지","category":"일반휴게음식 - 스넥"}]},{"lat":"37.74317834","long":"126.80961945","items":[{"name":"북경","tel":"031-944-2030","addr":"경기도 파주시 조리읍 봉일천리 213-3번지","category":"일반휴게음식 - 중국식"}]},{"lat":"37.741069522","long":"126.82648414","items":[{"name":"비앤씨매니아 파주점","tel":"070-7430-8837","addr":"경기도 파주시 조리읍 봉일천리 64-36번지","category":"음료식품 - 기타음료식품"}]},{"lat":"37.738453395","long":"126.82425539","items":[{"name":"산들푸드","tel":"","addr":"경기도 파주시 조리읍 봉일천리 62-164번지","category":"음료식품 - 기타음료식품"}]},{"lat":"37.745923192","long":"126.8077629","items":[{"name":"삼다화로구이","tel":"031-946-8119","addr":"경기도 파주시 조리읍 봉일천리 184-2번지","category":"일반휴게음식 - 일반한식"}]},{"lat":"37.737704761","long":"126.82370129","items":[{"name":"삼릉집밥","tel":"031-957-1711","addr":"경기도 파주시 조리읍 봉일천리 60-6번지","category":"일반휴게음식 - 일반한식"}]},{"lat":"37.746134609","long":"126.81031523","items":[{"name":"삼성정보시스템","tel":"070-8688-1157","addr":"경기도 파주시 조리읍 봉일천리 237-5번지","category":"회원제형태 - 기타4"}]},{"lat":"37.743204643","long":"126.8091769","items":[{"name":"삼우맥스","tel":"031-956-0221","addr":"경기도 파주시 조리읍 봉일천리 210-25번지","category":"주방용구 - 주방용구"}]},{"lat":"37.746784592","long":"126.80565024","items":[{"name":"삼우종합공구","tel":"031-949-0989","addr":"경기도 파주시 조리읍 봉일천리 181-4번지","category":"기타 - 기계공구"}]},{"lat":"37.736569596","long":"126.82372672","items":[{"name":"삼주전기조명","tel":"031-941-5650","addr":"경기도 파주시 조리읍 봉일천리 26-58번지","category":"건축자재 - 조명기구"}]},{"lat":"37.74275969","long":"126.80706778","items":[{"name":"새솔식당","tel":"031-957-5530","addr":"경기도 파주시 조리읍 봉일천리 155-5번지","category":"일반휴게음식 - 일반한식"},{"name":"육선생","tel":"031-731-9709","addr":"경기도 파주시 조리읍 봉일천리 155-5번지","category":"일반휴게음식 - 일반한식"},{"name":"칠호치킨","tel":"031-943-7592","addr":"경기도 파주시 조리읍 봉일천리 155-5번지","category":"일반휴게음식 - 일반한식"},{"name":"하이축산","tel":"031-731-9709","addr":"경기도 파주시 조리읍 봉일천리 155-5번지","category":"음료식품 - 정육점"}]},{"lat":"37.743235436","long":"126.80601138","items":[{"name":"새시대생고깃집","tel":"031-944-7796","addr":"경기도 파주시 조리읍 봉일천리 158-9번지","category":"일반휴게음식 - 일반한식"},{"name":"이경화헤어시티","tel":"031-941-4279","addr":"경기도 파주시 조리읍 봉일천리 158-9번지","category":"보건위생 - 미용원"},{"name":"인생역전","tel":"031-1111-1111","addr":"경기도 파주시 조리읍 봉일천리 158-9번지","category":"일반휴게음식 - 일반한식"}]},{"lat":"37.742813973","long":"126.80720378","items":[{"name":"새움공업사","tel":"031-941-6940","addr":"경기도 파주시 조리읍 봉일천리 155-7번지","category":"레져용품 - 스포츠·레져용품"}]},{"lat":"37.742311562","long":"126.80848715","items":[{"name":"생고기전문점'우리집'","tel":"031-944-0046","addr":"경기도 파주시 조리읍 봉일천리 141-44번지","category":"일반휴게음식 - 일반한식"}]},{"lat":"37.742733772","long":"126.80773724","items":[{"name":"선인정보통신","tel":"031-941-4070","addr":"경기도 파주시 조리읍 봉일천리 142-34번지","category":"사무통신 - 통신기기"}]},{"lat":"37.744041518","long":"126.80856205","items":[{"name":"선진통상","tel":"02-713-5787","addr":"경기도 파주시 조리읍 봉일천리 210-18번지","category":"사무통신 - 통신기기"},{"name":"정철어학원주니어봉일천캠퍼스학원","tel":"031-948-1913","addr":"경기도 파주시 조리읍 봉일천리 210-18번지","category":"회원제형태 - 학원"},{"name":"합기도검무관","tel":"031-946-1414","addr":"경기도 파주시 조리읍 봉일천리 210-18번지","category":"학원 - 예·체능계학원"}]},{"lat":"37.742101071","long":"126.80651358","items":[{"name":"세움어린이집[아이행복]","tel":"070-4150-8872","addr":"경기도 파주시 조리읍 봉일천리 156-1번지 성원아파트","category":"학원 - 유아원"},{"name":"스낵코리아","tel":"","addr":"경기도 파주시 조리읍 봉일천리 156-1번지 성원아파트","category":"음료식품 - 기타음료식품"},{"name":"청혜암","tel":"031-949-6867","addr":"경기도 파주시 조리읍 봉일천리 156-1번지 성원아파트","category":"보건위생 - 기타대인서비스"},{"name":"케이씨제이 스포츠","tel":"","addr":"경기도 파주시 조리읍 봉일천리 156-1번지 성원아파트","category":"학원 - 기타 교육기관"}]},{"lat":"37.746811905","long":"126.80582036","items":[{"name":"세진포장","tel":"031-943-7622","addr":"경기도 파주시 조리읍 봉일천리 181-15","category":"신변잡화 - 기타잡화"}]},{"lat":"37.744728068","long":"126.80967215","items":[{"name":"세탁의달인","tel":"031-944-8982","addr":"경기도 파주시 조리읍 봉일천리 225-1번지","category":"수리서비스 - 세탁소"},{"name":"소주랑 맥주랑","tel":"031-948-8788","addr":"경기도 파주시 조리읍 봉일천리 225-1번지","category":"일반휴게음식 - 일반한식"}]},{"lat":"37.742255836","long":"126.80747755","items":[{"name":"소무난뼈다귀해장국","tel":"031-946-6116","addr":"경기도 파주시 조리읍 봉일천리 150-1번지","category":"일반휴게음식 - 일반한식"}]},{"lat":"37.742455752","long":"126.80850947","items":[{"name":"수라간","tel":"031-944-9280","addr":"경기도 파주시 조리읍 봉일천리 141-70번지","category":"일반휴게음식 - 일반한식"}]},{"lat":"37.748317051","long":"126.81162576","items":[{"name":"수정페션","tel":"","addr":"경기도 파주시 조리읍 봉일천리 259-2번지 성호파크힐아파트","category":"신변잡화 - 액세서리"},{"name":"주식회사 이노스코리아","tel":"070-8416-4203","addr":"경기도 파주시 조리읍 봉일천리 259-2번지 성호파크힐아파트","category":"레져용품 - 골프용품 전문점"}]},{"lat":"37.744818163","long":"126.80967192","items":[{"name":"수피자","tel":"031-947-5656","addr":"경기도 파주시 조리읍 봉일천리 225-8번지","category":"일반휴게음식 - 일반한식"}]},{"lat":"37.742312384","long":"126.80898636","items":[{"name":"수핑몰","tel":"070-8950-8144","addr":"경기도 파주시 조리읍 봉일천리 141-27번지 프라임주택","category":"의류 - 정장"},{"name":"힐링에어","tel":"031-000-0000","addr":"경기도 파주시 조리읍 봉일천리 141-27번지 프라임주택","category":"용역 서비스 - 종합용역"}]},{"lat":"37.742342831","long":"126.80561665","items":[{"name":"슈만앤클라라","tel":"031-948-0055","addr":"경기도 파주시 조리읍 봉일천리 157-14번지","category":"학원 - 예·체능계학원"},{"name":"조이바이크","tel":"031-948-0921","addr":"경기도 파주시 조리읍 봉일천리 157-14","category":"자동차판매 - 이륜차판매"}]},{"lat":"37.74667699","long":"126.80595688","items":[{"name":"신일카센타","tel":"031-943-5177","addr":"경기도 파주시 조리읍 봉일천리 181-30","category":"자동차정비 유지 - 자동차정비"}]},{"lat":"37.743897944","long":"126.80351355","items":[{"name":"아구나라","tel":"031-944-3102","addr":"경기도 파주시 조리읍 봉일천리 177-5번지","category":"일반휴게음식 - 일반한식"}]},{"lat":"37.743506838","long":"126.80668006","items":[{"name":"아름화장품","tel":"031-944-8212","addr":"경기도 파주시 조리읍 봉일천리 168-15번지 아름화장품","category":"보건위생 - 화장품"}]},{"lat":"37.746786994","long":"126.80709121","items":[{"name":"아모르푸르타","tel":"","addr":"경기도 파주시 조리읍 봉일천리 183-9번지","category":"음료식품 - 농·축·수산품"}]},{"lat":"37.746522814","long":"126.81080211","items":[{"name":"아소비봉일천점","tel":"070-7562-5370","addr":"경기도 파주시 조리읍 봉일천리 237-3번지 윤창아파트","category":"학원 - 기타 교육기관"}]},{"lat":"37.742700557","long":"126.80945051","items":[{"name":"아이벨호프","tel":"031-941-3260","addr":"경기도 파주시 조리읍 봉일천리 141-26번지","category":"일반휴게음식 - 주점"}]},{"lat":"37.743147381","long":"126.80723694","items":[{"name":"아이비","tel":"031-941-9623","addr":"경기도 파주시 조리읍 봉일천리 166-19번지","category":"의류 - 정장"},{"name":"에스투(S2)","tel":"031-941-4980","addr":"경기도 파주시 조리읍 봉일천리 166-19번지","category":"의류 - 정장"}]},{"lat":"37.74364993","long":"126.80604432","items":[{"name":"알파문구","tel":"031-944-0103","addr":"경기도 파주시 조리읍 봉일천리 169-27번지","category":"서적문구 - 문구용품"}]},{"lat":"37.746525568","long":"126.80700113","items":[{"name":"애니클리닝","tel":"02-6340-5359","addr":"경기도 파주시 조리읍 봉일천리 183-2번지 세인연립","category":"용역 서비스 - 종합용역"}]},{"lat":"37.747343565","long":"126.81134461","items":[{"name":"양말크럽","tel":"","addr":"경기도 파주시 조리읍 봉일천리 262번지 태형내산마을아파트","category":"신변잡화 - 기타잡화"}]},{"lat":"37.737452236","long":"126.82353173","items":[{"name":"어디가한잔해야지","tel":"","addr":"경기도 파주시 조리읍 봉일천리 60-11번지","category":"일반휴게음식 - 일반한식"}]},{"lat":"37.739069144","long":"126.82039659","items":[{"name":"에스앤비인더스트리주식회사","tel":"031-946-8919","addr":"경기도 파주시 조리읍 봉일천리 45-2번지","category":"문화.취미 - 화원"}]},{"lat":"37.747533942","long":"126.81207028","items":[{"name":"에스엘(SL)문구점","tel":"031-957-5582","addr":"경기도 파주시 조리읍 봉일천리 258-14번지","category":"서적문구 - 문구용품"}]},{"lat":"37.737506724","long":"126.82381522","items":[{"name":"에이스궁전","tel":"031-943-1400","addr":"경기도 파주시 조리읍 봉일천리 60-15번지","category":"숙박업 - 여관/기타숙박업"}]},{"lat":"37.741427097","long":"126.81875706","items":[{"name":"엘리스","tel":"032-547-5553","addr":"경기도 파주시 조리읍 봉일천리 79-62번지","category":"신변잡화 - 기타잡화"}]},{"lat":"37.744175612","long":"126.80792633","items":[{"name":"영광지물장식","tel":"031-948-0058","addr":"경기도 파주시 조리읍 봉일천리 206-6","category":"직물 - 카페트,커튼,천막,지물"}]},{"lat":"37.743985773","long":"126.80754107","items":[{"name":"예닮미용실","tel":"031-111-1111","addr":"경기도 파주시 조리읍 봉일천리 205-13번지","category":"보건위생 - 미용원"}]},{"lat":"37.74414568","long":"126.80617915","items":[{"name":"예뻐지는샵","tel":"031-939-6892","addr":"경기도 파주시 조리읍 봉일천리 203-16번지","category":"보건위생 - 피부미용실"},{"name":"옷꼬","tel":"","addr":"경기도 파주시 조리읍 봉일천리 203-16번지","category":"의류 - 정장"}]},{"lat":"37.743398912","long":"126.8067938","items":[{"name":"오성일렉트로닉","tel":"","addr":"경기도 파주시 조리읍 봉일천리 160-54번지","category":"전기제품 - 냉열기기"}]},{"lat":"37.743373165","long":"126.80756537","items":[{"name":"오성한의원","tel":"031-946-7510","addr":"경기도 파주시 조리읍 봉일천리 160-45번지","category":"의원 - 한의원"},{"name":"올리브영 파주봉일천점","tel":"031-944-1178","addr":"경기도 파주시 조리읍 봉일천리 160-45번지","category":"유통업 영리 - 편 의 점"}]},{"lat":"37.743478788","long":"126.80606746","items":[{"name":"옥인","tel":"031-000-0000","addr":"경기도 파주시 조리읍 봉일천리 170-5번지","category":"신변잡화 - 액세서리"},{"name":"한일정","tel":"031-944-1680","addr":"경기도 파주시 조리읍 봉일천리 170-5번지","category":"일반휴게음식 - 일반한식"}]},{"lat":"37.747133457","long":"126.80957513","items":[{"name":"완(WAN) 수학","tel":"","addr":"경기도 파주시 조리읍 봉일천리 269번지 파주푸르지오아파트","category":"학원 - 기타 교육기관"}]},{"lat":"37.743560422","long":"126.80639627","items":[{"name":"우리농산물","tel":"031-000-0000","addr":"경기도 파주시 조리읍 봉일천리 169-22번지","category":"음료식품 - 농·축·수산품"}]},{"lat":"37.744311223","long":"126.80820962","items":[{"name":"우리도한번잘구워보세","tel":"031-943-1056","addr":"경기도 파주시 조리읍 봉일천리 209-16번지","category":"일반휴게음식 - 일반한식"}]},{"lat":"37.742789926","long":"126.8090078","items":[{"name":"유가칡냉면","tel":"031-945-2525","addr":"경기도 파주시 조리읍 봉일천리 141-54번지","category":"일반휴게음식 - 일반한식"}]},{"lat":"37.746591862","long":"126.8089525","items":[{"name":"유림방과후어린이집[아이행복]","tel":"031-941-9444","addr":"경기도 파주시 조리읍 봉일천리 266-18번지","category":"학원 - 유아원"},{"name":"유림어린이집[아이행복]","tel":"031-941-9444","addr":"경기도 파주시 조리읍 봉일천리 266-18번지","category":"학원 - 유아원"}]},{"lat":"37.74589895","long":"126.80945353","items":[{"name":"유진세탁소","tel":"031-942-5309","addr":"경기도 파주시 조리읍 봉일천리 237-1","category":"수리서비스 - 세탁소"}]},{"lat":"37.738652912","long":"126.83119804","items":[{"name":"유진테크","tel":"031-945-9408","addr":"경기도 파주시 조리읍 봉일천리 62-86번지","category":"기타 - 기계공구"}]},{"lat":"37.743733093","long":"126.80729213","items":[{"name":"윤선생 우리집앞 영어교실 상명학원","tel":"031-941-8191","addr":"경기도 파주시 조리읍 봉일천리 160-36번지","category":"학원 - 기타 교육기관"},{"name":"한국특공무술","tel":"031-949-7733","addr":"경기도 파주시 조리읍 봉일천리 160-36번지","category":"레저업소 - 헬스클럽"}]},{"lat":"37.742982506","long":"126.80561495","items":[{"name":"으뜸설비공사","tel":"031-947-4469","addr":"경기도 파주시 조리읍 봉일천리 157-39번지 무궁화아파트","category":"건축자재 - 인테리어전문"}]},{"lat":"37.737870024","long":"126.83184651","items":[{"name":"은성케미칼","tel":"070-7636-5882","addr":"경기도 파주시 조리읍 봉일천리 62-90번지","category":"직물 - 기타직물"}]},{"lat":"37.743150772","long":"126.8092905","items":[{"name":"은지약국","tel":"031-944-2005","addr":"경기도 파주시 조리읍 봉일천리 210-26번지","category":"약국 - 약국"},{"name":"행복한 헤어클럽","tel":"031-942-2852","addr":"경기도 파주시 조리읍 봉일천리 210-26번지","category":"보건위생 - 미용원"}]},{"lat":"37.746957371","long":"126.81209446","items":[{"name":"이레모터스","tel":"031-942-7761","addr":"경기도 파주시 조리읍 봉일천리 238-16번지","category":"자동차정비 유지 - 카인테리어"}]},{"lat":"37.741396233","long":"126.81631788","items":[{"name":"이민혜헤어갤러리","tel":"031-941-5721","addr":"경기도 파주시 조리읍 봉일천리 115-6","category":"보건위생 - 미용원"}]},{"lat":"37.742955592","long":"126.8056831","items":[{"name":"이버바(구제)명품","tel":"02-1111-1111","addr":"경기도 파주시 조리읍 봉일천리 157-39번지 무궁화아파트","category":"의류 - 정장"}]},{"lat":"37.743454757","long":"126.80787149","items":[{"name":"이삭토스트봉일천점","tel":"031-946-7850","addr":"경기도 파주시 조리읍 봉일천리 160-42번지","category":"일반휴게음식 - 일반한식"},{"name":"전통애옛날통닭","tel":"031-941-4411","addr":"경기도 파주시 조리읍 봉일천리 160-42번지","category":"일반휴게음식 - 일반한식"}]},{"lat":"37.74531822","long":"126.80695893","items":[{"name":"일인자감자탕","tel":"031-942-1571","addr":"경기도 파주시 조리읍 봉일천리 189-17번지","category":"일반휴게음식 - 일반한식"}]},{"lat":"37.744152277","long":"126.80473822","items":[{"name":"임마뉴엘서비스","tel":"031-941-4377","addr":"경기도 파주시 조리읍 봉일천리 176-2번지","category":"자동차정비 유지 - 자동차정비"}]},{"lat":"37.743039079","long":"126.80712377","items":[{"name":"장군생고기정육점","tel":"031-944-1839","addr":"경기도 파주시 조리읍 봉일천리 166-21","category":"음료식품 - 정육점"},{"name":"카페더로고","tel":"031-8035-6595","addr":"경기도 파주시 조리읍 봉일천리 166-21번지","category":"일반휴게음식 - 스넥"}]},{"lat":"37.74234247","long":"126.80540108","items":[{"name":"장길수피자(봉일천점)","tel":"031-945-0087","addr":"경기도 파주시 조리읍 봉일천리 157-19번지","category":"일반휴게음식 - 일반한식"},{"name":"주식회사 웰빙사랑미","tel":"031-947-4520","addr":"경기도 파주시 조리읍 봉일천리 157-19번지","category":"음료식품 - 농·축·수산품"}]},{"lat":"37.739700372","long":"126.82075809","items":[{"name":"장수해장국","tel":"031-945-7733","addr":"경기도 파주시 조리읍 봉일천리 79-137 4/5","category":"일반휴게음식 - 일반한식"}]},{"lat":"37.744811132","long":"126.80542856","items":[{"name":"장어촌","tel":"031-941-6582","addr":"경기도 파주시 조리읍 봉일천리 188-5번지","category":"일반휴게음식 - 일반한식"}]},{"lat":"37.743596195","long":"126.80623734","items":[{"name":"장원통신","tel":"031-957-9150","addr":"경기도 파주시 조리읍 봉일천리 169-7번지","category":"사무통신 - 통신기기"},{"name":"카페 리알토","tel":"","addr":"경기도 파주시 조리읍 봉일천리 169-7번지","category":"일반휴게음식 - 서양음식"}]},{"lat":"37.743564295","long":"126.80873348","items":[{"name":"제이지 댄스 스튜디오(Jz Dance studio)","tel":"031-941-8284","addr":"경기도 파주시 조리읍 봉일천리 210-16번지","category":"학원 - 예·체능계학원"}]},{"lat":"37.741312531","long":"126.82040243","items":[{"name":"조선일보 봉일천센터","tel":"","addr":"경기도 파주시 조리읍 봉일천리 79-160번지","category":"서적문구 - 정기간행물"}]},{"lat":"37.746902133","long":"126.80589955","items":[{"name":"주식회사 금호방재산업","tel":"031-948-0119","addr":"경기도 파주시 조리읍 봉일천리 181-13번지","category":"용역 서비스 - 종합용역"}]},{"lat":"37.738263903","long":"126.82406298","items":[{"name":"주식회사 엠앤케이(MNK Co.,Ltd)","tel":"031-944-0981","addr":"경기도 파주시 조리읍 봉일천리 62-371번지","category":"전기제품 - 기타전기제품"}]},{"lat":"37.736430613","long":"126.83331328","items":[{"name":"주식회사 포엠","tel":"031-945-5321","addr":"경기도 파주시 조리읍 봉일천리 62-225번지","category":"전기제품 - 가전제품"}]},{"lat":"37.743982808","long":"126.80575979","items":[{"name":"준카(주)봉일천지점","tel":"031-942-3993","addr":"경기도 파주시 조리읍 봉일천리 203-45번지","category":"여행 - 렌터카"}]},{"lat":"37.74312393","long":"126.80940403","items":[{"name":"줌마패션","tel":"070-8158-4714","addr":"경기도 파주시 조리읍 봉일천리 210-38번지","category":"의류 - 정장"}]},{"lat":"37.73584564","long":"126.82759696","items":[{"name":"지중해","tel":"031-945-5062","addr":"경기도 파주시 조리읍 봉일천리 15-6번지","category":"숙박업 - 여관/기타숙박업"},{"name":"지중해모텔","tel":"031-945-5062","addr":"경기도 파주시 조리읍 봉일천리 15-6번지","category":"숙박업 - 여관/기타숙박업"}]},{"lat":"37.74637348","long":"126.80764826","items":[{"name":"진헤어샵","tel":"031-941-7573","addr":"경기도 파주시 조리읍 봉일천리 183-20번지","category":"보건위생 - 미용원"}]},{"lat":"37.743174165","long":"126.80708938","items":[{"name":"착한고깃간","tel":"031-945-0801","addr":"경기도 파주시 조리읍 봉일천리 166-20번지","category":"음료식품 - 정육점"},{"name":"통일로식당","tel":"031-944-7200","addr":"경기도 파주시 조리읍 봉일천리 166-20번지","category":"일반휴게음식 - 일반한식"}]},{"lat":"37.736122903","long":"126.82623495","items":[{"name":"착한미용실","tel":"070-7727-8536","addr":"경기도 파주시 조리읍 봉일천리 7-4번지","category":"보건위생 - 미용원"}]},{"lat":"37.747347425","long":"126.80820167","items":[{"name":"참소망어린이집[아이행복]","tel":"031-946-5146","addr":"경기도 파주시 조리읍 봉일천리 269번지 파주푸르지오아파트","category":"학원 - 유아원"}]},{"lat":"37.745536553","long":"126.80822911","items":[{"name":"참조은건강원","tel":"031-944-8475","addr":"경기도 파주시 조리읍 봉일천리 186-15번지","category":"건강식품 - 기타건강식품"}]},{"lat":"37.740423281","long":"126.82215178","items":[{"name":"천신암","tel":"070-8158-4714","addr":"경기도 파주시 조리읍 봉일천리 80-1번지","category":"보건위생 - 기타대인서비스"}]},{"lat":"37.743283389","long":"126.80775849","items":[{"name":"청년바사삭","tel":"","addr":"경기도 파주시 조리읍 봉일천리 166-4번지","category":"일반휴게음식 - 주점"}]},{"lat":"37.742482275","long":"126.80820307","items":[{"name":"초코렛어린이집[아이행복]","tel":"031-949-7171","addr":"경기도 파주시 조리읍 봉일천리 142-29번지","category":"학원 - 유아원"}]},{"lat":"37.743928979","long":"126.80589608","items":[{"name":"카페54","tel":"031-8070-5040","addr":"경기도 파주시 조리읍 봉일천리 204-21번지","category":"일반휴게음식 - 서양음식"}]},{"lat":"37.74201256","long":"126.80746684","items":[{"name":"카페존(CAFE ZONE)","tel":"070-2315-0216","addr":"경기도 파주시 조리읍 봉일천리 147-1번지 동문아파트","category":"일반휴게음식 - 스넥"}]},{"lat":"37.741986208","long":"126.80787535","items":[{"name":"카페존(CAFE ZONE)","tel":"","addr":"경기도 파주시 조리읍 봉일천리 147-1번지 동문아파트","category":"일반휴게음식 - 서양음식"}]},{"lat":"37.744455131","long":"126.80806175","items":[{"name":"커피 플로리안","tel":"031-949-7787","addr":"경기도 파주시 조리읍 봉일천리 209-19번지","category":"일반휴게음식 - 서양음식"}]},{"lat":"37.743866386","long":"126.80617989","items":[{"name":"코렉스자전거","tel":"031-949-4424","addr":"경기도 파주시 조리읍 봉일천리 204-24번지","category":"레져용품 - 스포츠·레져용품"}]},{"lat":"37.737065723","long":"126.82412259","items":[{"name":"코사마트공릉점","tel":"031-943-9009","addr":"경기도 파주시 조리읍 봉일천리 8-73번지","category":"유통업 영리 - 슈퍼마켓"}]},{"lat":"37.743427541","long":"126.80775811","items":[{"name":"코스메틱","tel":"031-952-8588","addr":"경기도 파주시 조리읍 봉일천리 168-4번지","category":"보건위생 - 화장품"},{"name":"휴","tel":"070-8950-4007","addr":"경기도 파주시 조리읍 봉일천리 168-4번지","category":"보건위생 - 화장품"}]},{"lat":"37.745594143","long":"126.81597831","items":[{"name":"클래식가구동양","tel":"031-957-4030","addr":"경기도 파주시 조리읍 봉일천리 253-1","category":"가구 - 일반가구"}]},{"lat":"37.742650708","long":"126.80654617","items":[{"name":"키움어린이집[아이행복]","tel":"031-944-8872","addr":"경기도 파주시 조리읍 봉일천리 156-1번지 성원아파트","category":"학원 - 유아원"}]},{"lat":"37.745092227","long":"126.80650568","items":[{"name":"타이어프로 봉일천점","tel":"031-945-1009","addr":"경기도 파주시 조리읍 봉일천리 189-12번지","category":"자동차정비 유지 - 자동차시트·타이어"}]},{"lat":"37.746733259","long":"126.80192882","items":[{"name":"태건합판목재","tel":"031-945-3509","addr":"경기도 파주시 조리읍 봉일천리 285-2번지","category":"건축자재 - 기타건축자재"}]},{"lat":"37.743235853","long":"126.80626098","items":[{"name":"토속삼계탕","tel":"031-946-8191","addr":"경기도 파주시 조리읍 봉일천리 165-8번지","category":"일반휴게음식 - 일반한식"},{"name":"한스돈가스","tel":"031-941-7973","addr":"경기도 파주시 조리읍 봉일천리 165-8번지","category":"일반휴게음식 - 일반한식"}]},{"lat":"37.743065881","long":"126.80698755","items":[{"name":"통일로흑염소","tel":"031-947-1777","addr":"경기도 파주시 조리읍 봉일천리 166-22번지","category":"건강식품 - 기타건강식품"}]},{"lat":"37.742484106","long":"126.80931493","items":[{"name":"통큰쭈꾸미삼겹살","tel":"031-947-6392","addr":"경기도 파주시 조리읍 봉일천리 141-3번지","category":"일반휴게음식 - 일반한식"}]},{"lat":"37.738978785","long":"126.82022664","items":[{"name":"티바두마리치킨","tel":"031-945-0663","addr":"경기도 파주시 조리읍 봉일천리 45-8번지","category":"일반휴게음식 - 일반한식"}]},{"lat":"37.74401299","long":"126.80765446","items":[{"name":"파머스영어학원","tel":"031-944-0542","addr":"경기도 파주시 조리읍 봉일천리 205-17번지 외2필지 3층","category":"학원 - 외국어학원"}]},{"lat":"37.736210642","long":"126.82466918","items":[{"name":"파시노 (Fascino)","tel":"031-905-1033","addr":"경기도 파주시 조리읍 봉일천리 13-15번지 송촌토파즈아파트","category":"신변잡화 - 가방"}]},{"lat":"37.735792106","long":"126.82794876","items":[{"name":"파주경인주유소","tel":"031-943-5052","addr":"경기도 파주시 조리읍 봉일천리 15-9번지","category":"연료판매점 - SK주유소"}]},{"lat":"37.739979965","long":"126.82095027","items":[{"name":"파주공조","tel":"031-957-4940","addr":"경기도 파주시 조리읍 봉일천리 79-134번지","category":"용역 서비스 - 기타용역서비스"}]},{"lat":"37.743453101","long":"126.80687308","items":[{"name":"파주약국","tel":"","addr":"경기도 파주시 조리읍 봉일천리 168-13번지","category":"약국 - 약국"}]},{"lat":"37.744339736","long":"126.80370524","items":[{"name":"팔돈가","tel":"031-949-2744","addr":"경기도 파주시 조리읍 봉일천리 198-2번지","category":"일반휴게음식 - 일반한식"}]},{"lat":"37.735429493","long":"126.82645214","items":[{"name":"포커스.가구마트","tel":"","addr":"경기도 파주시 조리읍 봉일천리 21-17","category":"가구 - 일반가구"}]},{"lat":"37.743479393","long":"126.80643052","items":[{"name":"푸미","tel":"031-941-9503","addr":"경기도 파주시 조리읍 봉일천리 160-62","category":"의류 - 정장"}]},{"lat":"37.743034151","long":"126.80959714","items":[{"name":"플라밍고","tel":"","addr":"경기도 파주시 조리읍 봉일천리 213-6번지","category":"의류 - 정장"}]},{"lat":"37.746982002","long":"126.81061938","items":[{"name":"하나 에어컨","tel":"","addr":"경기도 파주시 조리읍 봉일천리 262-23번지 태형미림아파트","category":"용역 서비스 - 기타용역서비스"}]},{"lat":"37.744395311","long":"126.81003609","items":[{"name":"하늘채skykids어린이집[아이행복]","tel":"031-942-5064","addr":"경기도 파주시 조리읍 봉일천리 221-3번지","category":"학원 - 유아원"}]},{"lat":"37.74624159","long":"126.80962284","items":[{"name":"햇살유통","tel":"","addr":"경기도 파주시 조리읍 봉일천리 236-32번지 한신타운빌리지","category":"음료식품 - 기타음료식품"}]},{"lat":"37.744120596","long":"126.80734784","items":[{"name":"행복한마트분식","tel":"070-4530-6692","addr":"경기도 파주시 조리읍 봉일천리 203-5번지","category":"일반휴게음식 - 일반한식"}]},{"lat":"37.743929225","long":"126.80604358","items":[{"name":"현대건강원","tel":"031-944-0368","addr":"경기도 파주시 조리읍 봉일천리 204-19번지","category":"건강식품 - 기타건강식품"}]},{"lat":"37.744036998","long":"126.80583907","items":[{"name":"현대난방","tel":"031-941-5208","addr":"경기도 파주시 조리읍 봉일천리 203-23","category":"용역 서비스 - 기타용역서비스"}]},{"lat":"37.743453836","long":"126.80731556","items":[{"name":"현대통닭","tel":"031-943-4895","addr":"경기도 파주시 조리읍 봉일천리 168-9번지","category":"일반휴게음식 - 스넥"}]},{"lat":"37.743400982","long":"126.80804182","items":[{"name":"형제당","tel":"031-943-0511","addr":"경기도 파주시 조리읍 봉일천리 208-3번지","category":"신변잡화 - 시계"}]},{"lat":"37.743560573","long":"126.80648704","items":[{"name":"혜원미용실","tel":"031-944-8745","addr":"경기도 파주시 조리읍 봉일천리 169-3번지","category":"보건위생 - 미용원"}]},{"lat":"37.743569299","long":"126.80631683","items":[{"name":"호은인테리어","tel":"031-944-1400","addr":"경기도 파주시 조리읍 봉일천리 169-5번지","category":"건축자재 - 인테리어전문"}]},{"lat":"37.742651859","long":"126.80723825","items":[{"name":"홍이네정육점","tel":"031-942-1929","addr":"경기도 파주시 조리읍 봉일천리 146-1번지","category":"음료식품 - 정육점"}]},{"lat":"37.742644671","long":"126.80833879","items":[{"name":"훈이네 닭갈비","tel":"031-945-9292","addr":"경기도 파주시 조리읍 봉일천리 142-24번지","category":"일반휴게음식 - 일반한식"}]},{"lat":"37.742842336","long":"126.80800925","items":[{"name":"흑산도수산","tel":"031-957-0704","addr":"경기도 파주시 조리읍 봉일천리 142-6","category":"일반휴게음식 - 일식·회집"}]}]