[{"lat":"37.214514542","long":"126.68937072","items":[{"name":"(주)우현기술","tel":"02-6267-5630","addr":"경기도 화성시 송산면 지화리 141-33번지","category":"기타 - 기계공구"}]},{"lat":"37.209208852","long":"126.68315174","items":[{"name":"건우식당","tel":"","addr":"경기도 화성시 송산면 지화리 583-60번지 1동 1층","category":"일반휴게음식 - 일반한식"}]},{"lat":"37.208210342","long":"126.66745245","items":[{"name":"농업회사법인애니랜드 주식회사","tel":"031-355-1088","addr":"경기도 화성시 송산면 지화리 산 69-2","category":"학원 - 기타 교육기관"}]},{"lat":"37.209818707","long":"126.67551129","items":[{"name":"서현","tel":"031-405-4404","addr":"경기도 화성시 송산면 지화리 530-2번지","category":"문화.취미 - 화원"}]},{"lat":"37.209484643","long":"126.67526489","items":[{"name":"청정생수유통","tel":"031-355-4272","addr":"경기도 화성시 송산면 지화리 524-1번지","category":"유통업 영리 - 기타유통업"}]},{"lat":"37.216130558","long":"126.69056952","items":[{"name":"퍼니마트","tel":"","addr":"경기도 화성시 송산면 지화리 161-39번지 1층","category":"유통업 영리 - 슈퍼마켓"},{"name":"한식셀프식당","tel":"031-355-1707","addr":"경기도 화성시 송산면 지화리 161-39번지","category":"일반휴게음식 - 일반한식"}]},{"lat":"37.214763811","long":"126.68823181","items":[{"name":"하이얀쇼파","tel":"031-356-2382","addr":"경기도 화성시 송산면 지화리 155번지","category":"가구 - 일반가구"}]}]