[{"lat":"37.900306465","long":"127.3055676","items":[{"name":"(주)산정투어","tel":"02-3394-6620","addr":"경기도 포천시 화현면 화현리 750-7번지","category":"여행 - 관광여행"}]},{"lat":"37.919278343","long":"127.30968262","items":[{"name":"OK노래연습장","tel":"031-534-5948","addr":"경기도 포천시 화현면 화현리 105번지","category":"레저업소 - 노 래 방"},{"name":"만리향","tel":"031-531-9604","addr":"경기도 포천시 화현면 화현리 105번지 1층","category":"일반휴게음식 - 중국식"}]},{"lat":"37.883502899","long":"127.30604444","items":[{"name":"withC#(위드씨샵)","tel":"031-532-1452","addr":"경기도 포천시 화현면 화현리 1154-7번지 2동 1층","category":"일반휴게음식 - 일반한식"},{"name":"위드씨샵","tel":"-","addr":"경기도 포천시 화현면 화현리 1154-7번지","category":"음식 - 한식"}]},{"lat":"37.901081402","long":"127.30551393","items":[{"name":"강구동시골밥상","tel":"031-534-0707","addr":"경기도 포천시 화현면 화현리 760-2번지","category":"일반휴게음식 - 일반한식"},{"name":"장수촌","tel":"031-533-9207","addr":"경기도 포천시 화현면 화현리 760-2번지","category":"일반휴게음식 - 일반한식"}]},{"lat":"37.900531084","long":"127.28776346","items":[{"name":"경순손맛집","tel":"031-532-0802","addr":"경기도 포천시 화현면 화현리 874-1","category":"일반휴게음식 - 일반한식"}]},{"lat":"37.899161503","long":"127.29518251","items":[{"name":"곤지암할매소머리국밥","tel":"533-3414","addr":"경기도 포천시 화현면 화현리 823-6번지","category":"음식 - 한식"}]},{"lat":"37.898998969","long":"127.28798495","items":[{"name":"그린가스","tel":"031-566-1201","addr":"경기도 포천시 화현면 화현리 879번지","category":"연료판매점 - LPG 취급점"}]},{"lat":"37.905525671","long":"127.30092706","items":[{"name":"기사식당","tel":"031-531-2320","addr":"경기도 포천시 화현면 화현리 606-5번지","category":"일반휴게음식 - 일반한식"}]},{"lat":"37.884052402","long":"127.30606943","items":[{"name":"노랑.초록.빨강.그리고하양","tel":"031-532-1452","addr":"경기도 포천시 화현면 화현리 1152-6번지","category":"숙박업 - 여관/기타숙박업"}]},{"lat":"37.904634397","long":"127.30771159","items":[{"name":"농업회사법인 (주) 천마인","tel":"070-4224-2826","addr":"경기도 포천시 화현면 화현리 677번지","category":"음료식품 - 농·축·수산품"}]},{"lat":"37.906166635","long":"127.30745639","items":[{"name":"다주헌","tel":"031-531-0440","addr":"경기도 포천시 화현면 화현리 536-1번지","category":"음료식품 - 기타음료식품"}]},{"lat":"37.897443274","long":"127.30134924","items":[{"name":"대동철물","tel":"031-531-3335","addr":"경기도 포천시 화현면 화현리 796-9번지","category":"기타 - 기계공구"}]},{"lat":"37.909277855","long":"127.30628662","items":[{"name":"도영유통","tel":"031-534-3944","addr":"경기도 포천시 화현면 화현리 367-11번지","category":"의류 - 정장"}]},{"lat":"37.901863416","long":"127.3062107","items":[{"name":"돌거북","tel":"536-6777","addr":"경기도 포천시 화현면 화현리 654-1번지","category":"음식 - 한식"},{"name":"돌거북","tel":"031-536-6777","addr":"경기도 포천시 화현면 화현리 654-1번지","category":"일반휴게음식 - 일반한식"},{"name":"초가집순두부보리밥","tel":"031-533-0966","addr":"경기도 포천시 화현면 화현리 654-1번지","category":"일반휴게음식 - 일반한식"}]},{"lat":"37.899052047","long":"127.30287925","items":[{"name":"두메쌈밥왕돈가스","tel":"031-531-9626","addr":"경기도 포천시 화현면 화현리 795-8번지","category":"일반휴게음식 - 일반한식"},{"name":"철원양평해장국","tel":"531-9626","addr":"경기도 포천시 화현면 화현리 795-8번지","category":"음식 - 한식"}]},{"lat":"37.91866566","long":"127.30970282","items":[{"name":"또래오래(화현점)","tel":"031-532-0103","addr":"경기도 포천시 화현면 화현리 124-5번지","category":"일반휴게음식 - 스넥"},{"name":"또래오래화현점","tel":"532-0103","addr":"경기도 포천시 화현면 화현리 124-5번지","category":"음식 - 한식"},{"name":"해바라기","tel":"031-533-7898","addr":"경기도 포천시 화현면 화현리 124-5번지","category":"일반휴게음식 - 일반한식"}]},{"lat":"37.919079222","long":"127.31003435","items":[{"name":"명인손칼국수","tel":"031-533-6750","addr":"경기도 포천시 화현면 화현리 106-14번지","category":"일반휴게음식 - 일반한식"}]},{"lat":"37.914493848","long":"127.31673608","items":[{"name":"미르불교용품","tel":"031-533-8816","addr":"경기도 포천시 화현면 화현리 10-1번지","category":"신변잡화 - 기념품점"},{"name":"미르용품점","tel":"031-533-8816","addr":"경기도 포천시 화현면 화현리 10-1번지","category":"신변잡화 - 기념품점"}]},{"lat":"37.908775935","long":"127.30876344","items":[{"name":"미모사건축","tel":"","addr":"경기도 포천시 화현면 화현리 463-7번지","category":"용역 서비스 - 기타용역서비스"}]},{"lat":"37.90235628","long":"127.30723602","items":[{"name":"버섯마당","tel":"031-532-0999","addr":"경기도 포천시 화현면 화현리 660-2번지","category":"일반휴게음식 - 일반한식"},{"name":"버섯마당","tel":"","addr":"경기도 포천시 화현면 화현리 660-2번지","category":"음식 - 한식"}]},{"lat":"37.908555314","long":"127.29992726","items":[{"name":"부강주유소","tel":"","addr":"경기도 포천시 화현면 화현리 312-4번지","category":"연료판매점 - SK주유소"}]},{"lat":"37.884307728","long":"127.30487691","items":[{"name":"사랑으로","tel":"533-9355","addr":"경기도 포천시 화현면 화현리 1153-1번지","category":"소매업 - 잡화"},{"name":"사랑으로","tel":"031-533-9355","addr":"경기도 포천시 화현면 화현리 1153-1 6/3","category":"음료식품 - 기타음료식품"}]},{"lat":"37.89369677","long":"127.30784839","items":[{"name":"사향산약초이야기","tel":"031-531-7310","addr":"경기도 포천시 화현면 화현리 1125번지","category":"음료식품 - 농·축·수산품"}]},{"lat":"37.905890157","long":"127.30984307","items":[{"name":"산사원","tel":"031-531-9300","addr":"경기도 포천시 화현면 화현리 511","category":"음료식품 - 기타음료식품"}]},{"lat":"37.883947447","long":"127.30484134","items":[{"name":"산울림","tel":"031-533-4056","addr":"경기도 포천시 화현면 화현리 1154-1번지","category":"숙박업 - 여관/기타숙박업"},{"name":"산울림","tel":"-","addr":"경기도 포천시 화현면 화현리 1154-1번지","category":"숙박업 - 민박"}]},{"lat":"37.893058558","long":"127.30728869","items":[{"name":"새벽종","tel":"031-533-0707","addr":"경기도 포천시 화현면 화현리 1129-6번지","category":"숙박업 - 여관/기타숙박업"}]},{"lat":"37.91935901","long":"127.30984218","items":[{"name":"세븐일레븐포천운악산점","tel":"","addr":"경기도 포천시 화현면 화현리 106-8번지","category":"유통업 영리 - 편 의 점"},{"name":"왕자상회","tel":"031-532-3572","addr":"경기도 포천시 화현면 화현리 106-8","category":"음료식품 - 기타음료식품"}]},{"lat":"37.892136883","long":"127.30131645","items":[{"name":"소담","tel":"533-0086","addr":"경기도 포천시 화현면 화현리 1076-2번지","category":"음식 - 한식"},{"name":"소담","tel":"031-533-0086","addr":"경기도 포천시 화현면 화현리 1076-2번지","category":"일반휴게음식 - 일반한식"}]},{"lat":"37.917385678","long":"127.30995907","items":[{"name":"스타닥스","tel":"031-532-0990","addr":"경기도 포천시 화현면 화현리 125-3번지","category":"일반휴게음식 - 일반한식"}]},{"lat":"37.918910862","long":"127.30895325","items":[{"name":"승진어린이집[아이행복]","tel":"031-533-5877","addr":"경기도 포천시 화현면 화현리 132-5번지","category":"학원 - 유아원"}]},{"lat":"37.898189998","long":"127.30176155","items":[{"name":"아띠마트","tel":"534-5097","addr":"경기도 포천시 화현면 화현리 795-39번지","category":"소매업 - 잡화"},{"name":"아띠마트","tel":"031-534-5097","addr":"경기도 포천시 화현면 화현리 795-39번지 1층","category":"유통업 영리 - 슈퍼마켓"}]},{"lat":"37.903724805","long":"127.31446177","items":[{"name":"아이교육사","tel":"031-556-8740","addr":"경기도 포천시 화현면 화현리 717번지 (화현리717, 산99)","category":"서적문구 - 기타서적문구"},{"name":"우리교육","tel":"","addr":"경기도 포천시 화현면 화현리 717번지","category":"학원 - 기타 교육기관"}]},{"lat":"37.894719976","long":"127.30585169","items":[{"name":"아이에프에이캠프운악(주)","tel":"02-6206-3211","addr":"경기도 포천시 화현면 화현리 1090-1번지","category":"용역 서비스 - 종합용역"}]},{"lat":"37.918080184","long":"127.3096549","items":[{"name":"영선골순대국","tel":"031-531-9965","addr":"경기도 포천시 화현면 화현리 124-7번지","category":"일반휴게음식 - 일반한식"}]},{"lat":"37.892721991","long":"127.30151208","items":[{"name":"예술마당","tel":"031-533-3233","addr":"경기도 포천시 화현면 화현리 1073-1번지","category":"일반휴게음식 - 일반한식"}]},{"lat":"37.910389463","long":"127.30842898","items":[{"name":"용암타이어","tel":"031-533-8195","addr":"경기도 포천시 화현면 화현리 458번지","category":"자동차정비 유지 - 자동차시트·타이어"},{"name":"화현마트","tel":"534-0117","addr":"경기도 포천시 화현면 화현리 458번지","category":"도소매 - 잡화"},{"name":"화현마트정육점","tel":"031-534-0117","addr":"경기도 포천시 화현면 화현리 458번지 1층 마트 내","category":"음료식품 - 정육점"},{"name":"화현식자재마트","tel":"031-534-0117","addr":"경기도 포천시 화현면 화현리 458번지 1층","category":"유통업 영리 - 슈퍼마켓"}]},{"lat":"37.892333036","long":"127.30212441","items":[{"name":"운악골","tel":"031-534-3988","addr":"경기도 포천시 화현면 화현리 1079-6번지","category":"일반휴게음식 - 일반한식"},{"name":"주식회사 산울림","tel":"031-581-8188","addr":"경기도 포천시 화현면 화현리 1079-6번지","category":"숙박업 - 여관/기타숙박업"}]},{"lat":"37.899835968","long":"127.30635018","items":[{"name":"운악골순대","tel":"031-531-4304","addr":"경기도 포천시 화현면 화현리 749번지 나동","category":"일반휴게음식 - 일반한식"}]},{"lat":"37.904581331","long":"127.31079275","items":[{"name":"운악레저타운","tel":"031-000-0000","addr":"경기도 포천시 화현면 화현리 704-3번지","category":"숙박업 - 여관/기타숙박업"},{"name":"호스랜드","tel":"031-534-3453","addr":"경기도 포천시 화현면 화현리 704-3번지","category":"레저업소 - 기타레져업소"}]},{"lat":"37.888363607","long":"127.30067599","items":[{"name":"운악산장","tel":"031-532-9894","addr":"경기도 포천시 화현면 화현리 1140번지","category":"일반휴게음식 - 일반한식"}]},{"lat":"37.884088046","long":"127.30270487","items":[{"name":"운악산휴게소","tel":"031-533-5986","addr":"경기도 포천시 화현면 화현리 1148-7번지","category":"음료식품 - 기타음료식품"}]},{"lat":"37.896830014","long":"127.30159689","items":[{"name":"운악상회","tel":"031-535-5941","addr":"경기도 포천시 화현면 화현리 810-27번지","category":"유통업 영리 - 슈퍼마켓"}]},{"lat":"37.914774592","long":"127.3093455","items":[{"name":"운악식당","tel":"531-5040","addr":"경기도 포천시 화현면 화현리 438-2","category":"음식 - 한식"}]},{"lat":"37.911859992","long":"127.30765043","items":[{"name":"잉가모텔","tel":"031-535-3737","addr":"경기도 포천시 화현면 화현리 393-11","category":"숙박업 - 여관/기타숙박업"}]},{"lat":"37.899689436","long":"127.30376867","items":[{"name":"장수촌(순두부보리밥)","tel":"533-9207","addr":"경기도 포천시 화현면 화현리 769-2번지","category":"음식 - 한식"}]},{"lat":"37.907355207","long":"127.30420923","items":[{"name":"제일프레임","tel":"031-538-1108","addr":"경기도 포천시 화현면 화현리 542-1","category":"기타 - 기타 전문점"}]},{"lat":"37.909636432","long":"127.30698173","items":[{"name":"주식회사 상록원","tel":"02-467-4900","addr":"경기도 포천시 화현면 화현리 367-4번지","category":"건강식품 - 기타건강식품"}]},{"lat":"37.896334911","long":"127.30143572","items":[{"name":"주식회사 엔바이오","tel":"031-534-7388","addr":"경기도 포천시 화현면 화현리 1022-1번지","category":"음료식품 - 기타음료식품"}]},{"lat":"37.894948583","long":"127.29012942","items":[{"name":"주식회사 포랑","tel":"031-531-1001","addr":"경기도 포천시 화현면 화현리 903-1","category":"음료식품 - 기타음료식품"}]},{"lat":"37.902194635","long":"127.31732057","items":[{"name":"포천글램핑앤카라반","tel":"031-829-6778","addr":"경기도 포천시 화현면 화현리 716-8번지","category":"숙박업 - 여관/기타숙박업"}]},{"lat":"37.898639574","long":"127.29854581","items":[{"name":"허창걸유활닭","tel":"031-533-8225","addr":"경기도 포천시 화현면 화현리 811번지 1층","category":"일반휴게음식 - 일반한식"}]},{"lat":"37.897750854","long":"127.30085023","items":[{"name":"화현상회","tel":"031-532-9860","addr":"경기도 포천시 화현면 화현리 810-32","category":"회원제형태 - 기타4"}]},{"lat":"37.905327468","long":"127.30092626","items":[{"name":"화현셀프7주유소","tel":"031-536-2800","addr":"경기도 포천시 화현면 화현리 611-3번지","category":"연료판매점 - 주유소"}]},{"lat":"37.900945315","long":"127.28784465","items":[{"name":"화현어린이집[아이행복]","tel":"031-532-5442","addr":"경기도 포천시 화현면 화현리 873번지","category":"학원 - 유아원"}]},{"lat":"37.901664542","long":"127.28473206","items":[{"name":"화현초등학교","tel":"031-532-3701","addr":"경기도 포천시 화현면 화현리 847-1번지 화현초등학교","category":"학원 - 초중고교육기관"}]}]