[{"lat":"37.208106454","long":"126.81671504","items":[{"name":"(주) 스킨푸드","tel":"","addr":"경기도 화성시 남양읍 남양리 1172-16번지 남양빌딩 1층","category":"음료식품 - 농·축·수산품"},{"name":"약손","tel":"031-355-4165","addr":"경기도 화성시 남양읍 남양리 1172-16번지 남양빌딩","category":"보건위생 - 화장품"},{"name":"허브노래연습장","tel":"031-366-9911","addr":"경기도 화성시 남양읍 남양리 1172-16번지 2층 남양빌딩","category":"레저업소 - 노 래 방"}]},{"lat":"37.208406719","long":"126.81858432","items":[{"name":"(주) 티엔코리아","tel":"031-356-4362","addr":"경기도 화성시 남양읍 남양리 2253-1번지 201호","category":"음료식품 - 기타음료식품"},{"name":"EDIYA COFFEE","tel":"031-357-5122","addr":"경기도 화성시 남양읍 남양리 2253-1번지 1층 108호","category":"일반휴게음식 - 서양음식"},{"name":"명랑시대쌀핫도그남양점","tel":"031-366-7897","addr":"경기도 화성시 남양읍 남양리 2253-1번지 107호","category":"일반휴게음식 - 일반한식"},{"name":"바른탑치과의원","tel":"031-8077-2600","addr":"경기도 화성시 남양읍 남양리 2253-1번지 3층 304호,305호","category":"의원 - 치과의원"},{"name":"보빌락볼링센타","tel":"031-357-5994","addr":"경기도 화성시 남양읍 남양리 2253-1번지 4층","category":"레저업소 - 볼 링 장"},{"name":"보빌락편의점","tel":"031-357-5994","addr":"경기도 화성시 남양읍 남양리 2253-1번지 훼밀리프라자 4층 404호","category":"유통업 영리 - 편 의 점"},{"name":"살롱로윤","tel":"031-355-3483","addr":"경기도 화성시 남양읍 남양리 2253-1번지 2층 204호","category":"보건위생 - 미용원"},{"name":"세븐일레븐남양사거리점","tel":"031-1577-0711","addr":"경기도 화성시 남양읍 남양리 2253-1번지 훼밀리프라자 1층 101호","category":"유통업 영리 - 편 의 점"},{"name":"수내닭꼬치 화성남양점","tel":"031-356-7888","addr":"경기도 화성시 남양읍 남양리 2253-1번지 1동 1층 106호","category":"일반휴게음식 - 일반한식"},{"name":"수쿠타이/(주)티엔코리아","tel":"031-356-4362","addr":"경기도 화성시 남양읍 남양리 2253-1번지 훼밀리프라자 201호, 202호, 203호","category":"일반휴게음식 - 서양음식"},{"name":"써브웨이 화성남양점","tel":"031-357-4637","addr":"경기도 화성시 남양읍 남양리 2253-1번지 1층 102호","category":"일반휴게음식 - 스넥"},{"name":"유플러스스토어","tel":"031-357-1189","addr":"경기도 화성시 남양읍 남양리 2253-1번지 1층 104호","category":"사무통신 - 통신기기"},{"name":"해법수학 남양학원","tel":"031-357-2095","addr":"경기도 화성시 남양읍 남양리 2253-1번지 302호","category":"학원 - 보습학원"}]},{"lat":"37.206798848","long":"126.81038739","items":[{"name":"(주)고구려엔지니어링","tel":"031-356-2951","addr":"경기도 화성시 남양읍 남양리 486-1번지 춘성빌딩 402호","category":"회원제형태 - 기타4"},{"name":"엔제리너스","tel":"031-356-7910","addr":"경기도 화성시 남양읍 남양리 486-1번지 지상1층 3,4호","category":"일반휴게음식 - 서양음식"}]},{"lat":"37.198407662","long":"126.82611021","items":[{"name":"(주)대한스파인케어필라테스지도자","tel":"031-355-3075","addr":"경기도 화성시 남양읍 남양리 2320-5번지 1동 1012호","category":"레저업소 - 헬스클럽"},{"name":"꽃마름 화성시청점","tel":"031-356-7050","addr":"경기도 화성시 남양읍 남양리 2320-5번지 남양뉴타운 더굿메이트복합빌딩 3층 310~313호","category":"일반휴게음식 - 일반한식"},{"name":"남양하나이비인후과의원","tel":"031-8055-8677","addr":"경기도 화성시 남양읍 남양리 2320-5번지 512,513호","category":"의원 - 의원"},{"name":"메이710","tel":"","addr":"경기도 화성시 남양읍 남양리 2320-5번지 105,203호","category":"일반휴게음식 - 서양음식"},{"name":"배스킨라빈스 화성시청점","tel":"031-357-3063","addr":"경기도 화성시 남양읍 남양리 2320-5번지 101,102호일부","category":"음료식품 - 제과점"},{"name":"브리오슈도레화성시청점","tel":"031-355-5654","addr":"경기도 화성시 남양읍 남양리 2320-5번지 1동 105호,203호","category":"일반휴게음식 - 일반한식"},{"name":"신황제양푼갈비","tel":"031-357-9156","addr":"경기도 화성시 남양읍 남양리 2320-5번지 더굿메이트빌딩 1동 204호","category":"일반휴게음식 - 일반한식"},{"name":"아싸비어 화성점","tel":"","addr":"경기도 화성시 남양읍 남양리 2320-5번지 더굿메이트복합빌딩 1동 108호","category":"유통업 영리 - 편 의 점"},{"name":"오약국","tel":"031-357-2219","addr":"경기도 화성시 남양읍 남양리 2320-5번지 1층 6호","category":"약국 - 약국"}]},{"lat":"37.207739562","long":"126.812638","items":[{"name":"(주)디에스플러스","tel":"031-356-7860","addr":"경기도 화성시 남양읍 남양리 522번지","category":"자동차정비 유지 - 세차장"},{"name":"(주)디에스플러스/엔젤리너스화성남양점","tel":"031-356-7910","addr":"경기도 화성시 남양읍 남양리 522번지","category":"일반휴게음식 - 서양음식"},{"name":"강남글로벌남양캠퍼스학원","tel":"031-357-6681","addr":"경기도 화성시 남양읍 남양리 522번지","category":"회원제형태 - 학원"},{"name":"남양철물건재","tel":"031-366-9648","addr":"경기도 화성시 남양읍 남양리 522번지","category":"건축자재 - 목재·석재·철물"}]},{"lat":"37.199711952","long":"126.82463161","items":[{"name":"(주)신진토목엔팔만대장경","tel":"031-355-8774","addr":"경기도 화성시 남양읍 남양리 1837-4","category":"용역 서비스 - 사무서비스"}]},{"lat":"37.214937924","long":"126.817746","items":[{"name":"(주)에스엠 화성주유소","tel":"031-858-5101","addr":"경기도 화성시 남양읍 남양리 1104번지","category":"연료판매점 - 쌍용S-OIL"},{"name":"미래용역","tel":"031-356-5165","addr":"경기도 화성시 남양읍 남양리 1104번지","category":"용역 서비스 - 종합용역"}]},{"lat":"37.205489478","long":"126.83201893","items":[{"name":"(주)에이치엠트레이드","tel":"031-355-5354","addr":"경기도 화성시 남양읍 남양리 2051-1번지","category":"건축자재 - 조명기구"},{"name":"백년회관 서서갈비","tel":"031-355-8189","addr":"경기도 화성시 남양읍 남양리 2051-1번지","category":"일반휴게음식 - 일반한식"}]},{"lat":"37.207852994","long":"126.81597217","items":[{"name":"(주)엔와이모터스(지점)","tel":"031-356-9016","addr":"경기도 화성시 남양읍 남양리 1170번지","category":"일반휴게음식 - 서양음식"},{"name":"고향초두부","tel":"070-8181-8688","addr":"경기도 화성시 남양읍 남양리 1170번지 1층 4호","category":"일반휴게음식 - 중국식"},{"name":"더와인오브파이어","tel":"031-366-8870","addr":"경기도 화성시 남양읍 남양리 1170번지 청남빌딩 201호","category":"음료식품 - 주류 판매점"},{"name":"빈티지","tel":"","addr":"경기도 화성시 남양읍 남양리 1170번지 청담빌딩 1층 102호","category":"의류 - 정장"},{"name":"주식회사 안코라코리아","tel":"","addr":"경기도 화성시 남양읍 남양리 1170번지 301호","category":"음료식품 - 주류 판매점"},{"name":"피자스쿨화성남양점","tel":"031-357-9288","addr":"경기도 화성시 남양읍 남양리 1170번지 102호","category":"일반휴게음식 - 서양음식"},{"name":"하와이","tel":"031-357-8084","addr":"경기도 화성시 남양읍 남양리 1170번지","category":"레저업소 - 헬스클럽"}]},{"lat":"37.200932586","long":"126.82746727","items":[{"name":"(주)엘앤에스씨","tel":"031-355-9598","addr":"경기도 화성시 남양읍 남양리 2076-7번지","category":"숙박업 - 여관/기타숙박업"}]},{"lat":"37.200993707","long":"126.7981694","items":[{"name":"(주)유성건설중기","tel":"031-357-8330","addr":"경기도 화성시 남양읍 남양리 380-10, 380-19","category":"자동차정비 유지 - 자동차부품"}]},{"lat":"37.207407606","long":"126.81352877","items":[{"name":"(주)진수성찬","tel":"031-355-5659","addr":"경기도 화성시 남양읍 남양리 524번지","category":"일반휴게음식 - 일반한식"},{"name":"모이세 이모네 칼국수","tel":"031-355-0298","addr":"경기도 화성시 남양읍 남양리 524번지","category":"일반휴게음식 - 일반한식"},{"name":"뻥튀기공장 (뻥튀기공장소)","tel":"00-0000-0000","addr":"경기도 화성시 남양읍 남양리 524번지 1층 일부","category":"음료식품 - 기타음료식품"},{"name":"삼동종합보수센타","tel":"031-356-4752","addr":"경기도 화성시 남양읍 남양리 524번지","category":"건축자재 - 인테리어전문"},{"name":"인화종합상사","tel":"031-357-0097","addr":"경기도 화성시 남양읍 남양리 524번지","category":"건축자재 - 보일러·펌프·샷시"},{"name":"진수성찬","tel":"031-357-6073","addr":"경기도 화성시 남양읍 남양리 524번지","category":"일반휴게음식 - 일반한식"}]},{"lat":"37.200660418","long":"126.8262176","items":[{"name":"(주)케이폴시스템","tel":"031-366-2113","addr":"경기도 화성시 남양읍 남양리 2072-9번지 임광프라자 501호","category":"용역 서비스 - 종합용역"},{"name":"남양새봄약국","tel":"031-356-7929","addr":"경기도 화성시 남양읍 남양리 2072-9번지 임광프라자 1층 108호","category":"약국 - 약국"},{"name":"남양스터디뱅크독서실","tel":"","addr":"경기도 화성시 남양읍 남양리 2072-9번지 203,204호","category":"학원 - 독서실"},{"name":"달보드레","tel":"031-357-0066","addr":"경기도 화성시 남양읍 남양리 2072-9번지 임광프라자 101호 102호","category":"일반휴게음식 - 일반한식"},{"name":"더하이스트(THE HIGHEST)동량재학원","tel":"031-357-9144","addr":"경기도 화성시 남양읍 남양리 2072-9번지 임광프라자 401호일부,402~404호","category":"학원 - 보습학원"},{"name":"동량재학원","tel":"031-357-9144","addr":"경기도 화성시 남양읍 남양리 2072-9번지 임광프라자 301호","category":"학원 - 보습학원"},{"name":"르네셀","tel":"031-366-9511","addr":"경기도 화성시 남양읍 남양리 2072-9번지 임광프라자 6층 601호","category":"회원제형태 - 기타1"}]},{"lat":"37.200745627","long":"126.82899961","items":[{"name":"(주)현대의리푸드(남양고깃간&남양면옥)","tel":"031-356-0363","addr":"경기도 화성시 남양읍 남양리 2070-9번지","category":"일반휴게음식 - 일반한식"}]},{"lat":"37.207909528","long":"126.82944504","items":[{"name":"100번길 11","tel":"031-000-0000","addr":"경기도 화성시 남양읍 남양리 2039-9번지 1층","category":"일반휴게음식 - 서양음식"},{"name":"100번길11","tel":"","addr":"경기도 화성시 남양읍 남양리 2039-9번지 3층 302호","category":"음료식품 - 기타음료식품"}]},{"lat":"37.204073349","long":"126.82488043","items":[{"name":"49번길","tel":"031-356-4780","addr":"경기도 화성시 남양읍 남양리 2019-1번지","category":"일반휴게음식 - 일반한식"}]},{"lat":"37.2083211","long":"126.8274727","items":[{"name":"502튀김분식","tel":"031-356-2782","addr":"경기도 화성시 남양읍 남양리 2235번지 상가 A동 103호 (동광뷰엘)","category":"일반휴게음식 - 스넥"},{"name":"다옴펫살롱","tel":"031-355-8557","addr":"경기도 화성시 남양읍 남양리 2235번지 상가A동 105호 (동광뷰엘)","category":"문화.취미 - 애완동물"},{"name":"동광별빛어린이집[아이행복]","tel":"031-355-2629","addr":"경기도 화성시 남양읍 남양리 2235번지 동광뷰엘 106동 102호","category":"학원 - 유아원"},{"name":"이디야 화성남양중앙점","tel":"031-355-3085","addr":"경기도 화성시 남양읍 남양리 2235번지 A동 1층 101호,102호","category":"일반휴게음식 - 서양음식"},{"name":"잉글리시아이 남양동광뷰젤점","tel":"","addr":"경기도 화성시 남양읍 남양리 2235번지 106동 703호 (동광뷰엘)","category":"학원 - 기타 교육기관"},{"name":"프리미엄 옛날통닭","tel":"","addr":"경기도 화성시 남양읍 남양리 2235번지 A동 109호 동광뷰엘","category":"일반휴게음식 - 스넥"},{"name":"해피랜드남양점","tel":"070-7543-9105","addr":"경기도 화성시 남양읍 남양리 2235번지 A동 106호 남양뉴타운B4블럭 (동광뷰엘)","category":"의류 - 아동의류"},{"name":"허밍베이크","tel":"02-1111-1111","addr":"경기도 화성시 남양읍 남양리 2235번지 A동 107호 (동광뷰엘)","category":"일반휴게음식 - 서양음식"}]},{"lat":"37.202600947","long":"126.8284434","items":[{"name":"88살롱","tel":"031-111-1111","addr":"경기도 화성시 남양읍 남양리 2064-1번지 101호","category":"일반휴게음식 - 주점"},{"name":"봄눈베이커리","tel":"070-8186-3768","addr":"경기도 화성시 남양읍 남양리 2064-1번지 102호","category":"음료식품 - 제과점"}]},{"lat":"37.209687271","long":"126.81927965","items":[{"name":"ARIEAUM(아리따움)","tel":"031-356-3272","addr":"경기도 화성시 남양읍 남양리 1268-12번지 현대프라자 104호","category":"보건위생 - 화장품"},{"name":"남양수내과","tel":"031-356-3542","addr":"경기도 화성시 남양읍 남양리 1268-12번지 현대프라자 302호","category":"의원 - 의원"},{"name":"멘토스학원","tel":"070-8866-1705","addr":"경기도 화성시 남양읍 남양리 1268-12번지 현대프라자 401호","category":"회원제형태 - 학원"},{"name":"안경마을 남양점","tel":"031-356-9006","addr":"경기도 화성시 남양읍 남양리 1268-12번지 현대프라자 102호","category":"보건위생 - 안경"},{"name":"이니스프리화성남양점","tel":"031-356-3662","addr":"경기도 화성시 남양읍 남양리 1268-12번지 현대프라자 1층 101호","category":"보건위생 - 화장품"},{"name":"편백힐링","tel":"031-357-8733","addr":"경기도 화성시 남양읍 남양리 1268-12번지 현대프라자 403호 1필지","category":"보건위생 - 화장품"},{"name":"화성스마일약국","tel":"031-355-3712","addr":"경기도 화성시 남양읍 남양리 1268-12번지 현대프라자 106호","category":"약국 - 약국"}]},{"lat":"37.20874571","long":"126.81640931","items":[{"name":"BHC치킨남양점","tel":"031-356-3040","addr":"경기도 화성시 남양읍 남양리 1165-8번지 제일종합상가 나동 101호","category":"일반휴게음식 - 스넥"},{"name":"대지커피호프","tel":"","addr":"경기도 화성시 남양읍 남양리 1165-8번지","category":"일반휴게음식 - 서양음식"},{"name":"미니스톱화성남양점","tel":"031-1577-9621","addr":"경기도 화성시 남양읍 남양리 1165-8번지 제일상가 103호","category":"유통업 영리 - 편 의 점"},{"name":"시원식당","tel":"031-355-5312","addr":"경기도 화성시 남양읍 남양리 1165-8번지 제일종합상가 나동 1층 106호","category":"일반휴게음식 - 일반한식"},{"name":"진헤어샵","tel":"031-356-4956","addr":"경기도 화성시 남양읍 남양리 1165-8번지 제일상가 104호","category":"보건위생 - 미용원"},{"name":"쭘마 뜨개방","tel":"031-357-9840","addr":"경기도 화성시 남양읍 남양리 1165-8번지 제일상가 나동 102호","category":"직물 - 침구·수예점"}]},{"lat":"37.206571287","long":"126.83241076","items":[{"name":"Black&White(블랙엔화이트)","tel":"031-355-5377","addr":"경기도 화성시 남양읍 남양리 2048번지 남양아이파크 104호 상가동","category":"보건위생 - 미용원"}]},{"lat":"37.208265222","long":"126.81455175","items":[{"name":"CMK헤어","tel":"031-355-5591","addr":"경기도 화성시 남양읍 남양리 658번지 102호","category":"보건위생 - 미용원"},{"name":"주성환기닥트","tel":"031-357-0310","addr":"경기도 화성시 남양읍 남양리 658번지 상훈근생주택 1층","category":"의류 - 정장"}]},{"lat":"37.20171555","long":"126.82683467","items":[{"name":"CONNER808/해밀시아알엠주식회사","tel":"031-0000-0000","addr":"경기도 화성시 남양읍 남양리 2074-13번지 102호","category":"일반휴게음식 - 일반한식"},{"name":"이차포차/해밀시아알엠주식회사","tel":"031-355-8954","addr":"경기도 화성시 남양읍 남양리 2074-13번지 102호","category":"일반휴게음식 - 일반한식"},{"name":"해밀시아알엠 주식회사","tel":"031-355-8953","addr":"경기도 화성시 남양읍 남양리 2074-13번지 201호","category":"음료식품 - 기타음료식품"},{"name":"해밀시아알엠 주식회사 (코모레비)","tel":"031-355-8953","addr":"경기도 화성시 남양읍 남양리 2074-13번지 202호","category":"일반휴게음식 - 일식·회집"},{"name":"해밀시아알엠주식회사(깐부치킨.화성시청점","tel":"031-355-8953","addr":"경기도 화성시 남양읍 남양리 2074-13번지 101호","category":"일반휴게음식 - 스넥"}]},{"lat":"37.203245268","long":"126.83158467","items":[{"name":"GS25남양뉴타운점","tel":"","addr":"경기도 화성시 남양읍 남양리 2055-14번지 101호","category":"유통업 영리 - 편 의 점"}]},{"lat":"37.205269668","long":"126.80647117","items":[{"name":"GS25남양성지점","tel":"","addr":"경기도 화성시 남양읍 남양리 465-6번지","category":"유통업 영리 - 편 의 점"},{"name":"혜화동 돈까스","tel":"031-355-1590","addr":"경기도 화성시 남양읍 남양리 465-6번지","category":"일반휴게음식 - 일반한식"}]},{"lat":"37.204878463","long":"126.82104858","items":[{"name":"GS25남양시청로점","tel":"","addr":"경기도 화성시 남양읍 남양리 2294-1번지 1층 102호","category":"유통업 영리 - 편 의 점"},{"name":"강S터디학원","tel":"","addr":"경기도 화성시 남양읍 남양리 2294-1번지 2층 202호","category":"학원 - 보습학원"},{"name":"골드모바일샵","tel":"070-8881-2580","addr":"경기도 화성시 남양읍 남양리 2294-1번지","category":"사무통신 - 통신기기"}]},{"lat":"37.209542931","long":"126.81916735","items":[{"name":"GS25남양아이리스점","tel":"","addr":"경기도 화성시 남양읍 남양리 1268번지","category":"유통업 영리 - 편 의 점"},{"name":"그리심아동가족상담센터","tel":"070-8871-7554","addr":"경기도 화성시 남양읍 남양리 1268번지 아이리스 307호","category":"보건위생 - 기타대인서비스"},{"name":"남양경희한의원","tel":"031-366-8275","addr":"경기도 화성시 남양읍 남양리 1268번지 아이리스프라자 305호","category":"의원 - 한의원"},{"name":"남양미래안과","tel":"031-355-7555","addr":"경기도 화성시 남양읍 남양리 1268번지 2층","category":"의원 - 의원"},{"name":"뉴큰사랑치과의원","tel":"031-356-2175","addr":"경기도 화성시 남양읍 남양리 1268번지 아이리스프라자 3층 301호","category":"의원 - 치과의원"},{"name":"달인의 찜닭","tel":"031-356-8845","addr":"경기도 화성시 남양읍 남양리 1268번지","category":"일반휴게음식 - 일반한식"},{"name":"당구치기좋은날","tel":"","addr":"경기도 화성시 남양읍 남양리 1268번지 4층 401호","category":"레저업소 - 당 구 장"},{"name":"더더더 호프","tel":"031-356-7749","addr":"경기도 화성시 남양읍 남양리 1268번지 105호","category":"일반휴게음식 - 주점"},{"name":"드림 노래 연습장","tel":"031-9310-1799","addr":"경기도 화성시 남양읍 남양리 1268번지 지하1층","category":"레저업소 - 노 래 방"},{"name":"뚜레쥬르 화성남양(2)","tel":"031-355-0925","addr":"경기도 화성시 남양읍 남양리 1268번지 외5필지","category":"음료식품 - 제과점"},{"name":"롯데리아화성남양점","tel":"031-366-8989","addr":"경기도 화성시 남양읍 남양리 1268번지 아이리스프라자 108호","category":"일반휴게음식 - 칵테일바"},{"name":"뷰티난다","tel":"031-000-0000","addr":"경기도 화성시 남양읍 남양리 1268번지 아이리스프라자 3층 303호","category":"보건위생 - 피부미용실"},{"name":"스트롱짐","tel":"031-357-9685","addr":"경기도 화성시 남양읍 남양리 1268번지 아이리스프라자빌딩 4층 404호","category":"회원제형태 - 레져업소"},{"name":"연합외과의원","tel":"031-355-8850","addr":"경기도 화성시 남양읍 남양리 1268번지 103호 204호","category":"의원 - 의원"},{"name":"원냉면","tel":"031-357-4088","addr":"경기도 화성시 남양읍 남양리 1268번지 아이리스프라자 203호","category":"일반휴게음식 - 일반한식"},{"name":"잠언의료기","tel":"031-357-7554","addr":"경기도 화성시 남양읍 남양리 1268번지 아이리스프라자 309호","category":"보건위생 - 의료용품"},{"name":"제일환경산업","tel":"031-352-3631","addr":"경기도 화성시 남양읍 남양리 1268번지 1동 3층 310호","category":"건축자재 - 기타건축자재"},{"name":"프라임PC방 남양점","tel":"031-772-0735","addr":"경기도 화성시 남양읍 남양리 1268번지 아이리스프라자 311호","category":"레저업소 - 기타레져업소"},{"name":"하얀미의원","tel":"031-357-7742","addr":"경기도 화성시 남양읍 남양리 1268번지 아이리스프라자 201호","category":"의원 - 의원"},{"name":"함로네팔리쭐로","tel":"031-357-7838","addr":"경기도 화성시 남양읍 남양리 1268번지 2층 209호","category":"일반휴게음식 - 일반한식"},{"name":"현잉크","tel":"031-355-2381","addr":"경기도 화성시 남양읍 남양리 1268번지 205호","category":"용역 서비스 - 사무서비스"}]},{"lat":"37.205795195","long":"126.83157891","items":[{"name":"GS25남양아이파크점","tel":"","addr":"경기도 화성시 남양읍 남양리 2046-12번지 1층","category":"유통업 영리 - 편 의 점"}]},{"lat":"37.210548134","long":"126.82847017","items":[{"name":"GS25남양주공점","tel":"","addr":"경기도 화성시 남양읍 남양리 2233번지 화성남양뉴타운LH4단지 101,102호","category":"유통업 영리 - 편 의 점"},{"name":"시립남양4단지 어린이집[아이행복]","tel":"031-356-8767","addr":"경기도 화성시 남양읍 남양리 2233번지 화성남양뉴타운LH4단지","category":"학원 - 유아원"},{"name":"착한종합설비","tel":"031-366-8024","addr":"경기도 화성시 남양읍 남양리 2233번지 화성남양뉴타운LH4단지 19층 6호","category":"용역 서비스 - 기타용역서비스"}]},{"lat":"37.200738928","long":"126.82449402","items":[{"name":"GS25현대차기숙사점","tel":"","addr":"경기도 화성시 남양읍 남양리 1831번지","category":"유통업 영리 - 편 의 점"}]},{"lat":"37.208823378","long":"126.8142462","items":[{"name":"GS25화성남양점","tel":"02-2006-2485","addr":"경기도 화성시 남양읍 남양리 556번지 1층","category":"유통업 영리 - 편 의 점"}]},{"lat":"37.201212523","long":"126.82788339","items":[{"name":"GS25화성시청점","tel":"","addr":"경기도 화성시 남양읍 남양리 2076-10번지","category":"유통업 영리 - 편 의 점"},{"name":"배부장찌개 화성시청점","tel":"031-357-1569","addr":"경기도 화성시 남양읍 남양리 2076-10번지 105호 106호","category":"일반휴게음식 - 일반한식"},{"name":"부차트가든 남양뉴타운점","tel":"","addr":"경기도 화성시 남양읍 남양리 2076-10번지 1층 105,106호","category":"일반휴게음식 - 서양음식"}]},{"lat":"37.202967821","long":"126.82671911","items":[{"name":"Grazie(그라찌에)","tel":"070-8961-0605","addr":"경기도 화성시 남양읍 남양리 2032-1번지","category":"일반휴게음식 - 서양음식"},{"name":"한우천국","tel":"031-357-4511","addr":"경기도 화성시 남양읍 남양리 2032-1번지","category":"일반휴게음식 - 일반한식"}]},{"lat":"37.203103478","long":"126.82705673","items":[{"name":"HABANA&NHK(하바나)","tel":"031-356-1455","addr":"경기도 화성시 남양읍 남양리 2032-3번지","category":"일반휴게음식 - 주점"},{"name":"카페 우희","tel":"031-355-9633","addr":"경기도 화성시 남양읍 남양리 2032-3번지 2동 1층","category":"일반휴게음식 - 서양음식"}]},{"lat":"37.209712006","long":"126.81780383","items":[{"name":"JJ헤어존","tel":"031-357-5750","addr":"경기도 화성시 남양읍 남양리 1237번지 네오프라자 104호","category":"보건위생 - 미용원"},{"name":"그라시아","tel":"070-8700-5933","addr":"경기도 화성시 남양읍 남양리 1237번지 (주)픽앤츄코리아 106호","category":"의류 - 정장"},{"name":"선산대한곱창","tel":"031-355-8943","addr":"경기도 화성시 남양읍 남양리 1237번지 (주)픽앤츄코리아 107호","category":"일반휴게음식 - 일반한식"},{"name":"신제일약국","tel":"031-356-7304","addr":"경기도 화성시 남양읍 남양리 1237번지 (주)픽앤츄코리아 1층 103호","category":"약국 - 약국"},{"name":"씨유남양드림점","tel":"031-356-1361","addr":"경기도 화성시 남양읍 남양리 1237번지","category":"유통업 영리 - 편 의 점"},{"name":"자타정육점","tel":"031-357-8853","addr":"경기도 화성시 남양읍 남양리 1237번지 (주)픽앤츄코리아 104호","category":"음료식품 - 정육점"},{"name":"참치마니아","tel":"031-356-3728","addr":"경기도 화성시 남양읍 남양리 1237번지 (주)픽앤츄코리아 201호","category":"일반휴게음식 - 일식·회집"},{"name":"칸티뿌르커리레스토랑 주식회사","tel":"031-355-9159","addr":"경기도 화성시 남양읍 남양리 1237번지 202호 (주)픽앤츄코리아","category":"일반휴게음식 - 서양음식"}]},{"lat":"37.208134193","long":"126.81716558","items":[{"name":"JK텔레콤","tel":"031-356-9586","addr":"경기도 화성시 남양읍 남양리 1172-4번지 삼기프라자 105호","category":"사무통신 - 통신기기"},{"name":"남양의료기","tel":"031-291-3777","addr":"경기도 화성시 남양읍 남양리 1172-4번지 삼기프라자 1층 104호","category":"보건위생 - 의료용품"},{"name":"남양의료기","tel":"031-2913-7777","addr":"경기도 화성시 남양읍 남양리 1172-4번지 삼기프라자 104호","category":"보건위생 - 의료용품"},{"name":"남양조 정형외과의원","tel":"031-356-7499","addr":"경기도 화성시 남양읍 남양리 1172-4번지 삼기프라자 2층","category":"의원 - 의원"},{"name":"두레마을 주막퓨전","tel":"","addr":"경기도 화성시 남양읍 남양리 1172-4번지 삼기프라자 106호","category":"일반휴게음식 - 일반한식"},{"name":"띠아모커피 남양점","tel":"031-355-3813","addr":"경기도 화성시 남양읍 남양리 1172-4번지 삼기프라자 1층 102호","category":"일반휴게음식 - 서양음식"}]},{"lat":"37.202714121","long":"126.8257735","items":[{"name":"LA북창동 순두부","tel":"031-357-0855","addr":"경기도 화성시 남양읍 남양리 2017-11번지 1층","category":"일반휴게음식 - 일반한식"}]},{"lat":"37.201407873","long":"126.82594552","items":[{"name":"PC토랑 화성시청점","tel":"070-8822-1402","addr":"경기도 화성시 남양읍 남양리 2074-1번지 3층 한영빌딩","category":"레저업소 - 기타레져업소"},{"name":"더맨헤어","tel":"031-355-7109","addr":"경기도 화성시 남양읍 남양리 2074-1번지 한영빌딩","category":"보건위생 - 미용원"},{"name":"상하이양꼬치","tel":"031-366-7753","addr":"경기도 화성시 남양읍 남양리 2074-1번지 한영빌딩 2층 202호","category":"일반휴게음식 - 일반한식"},{"name":"씨유남양뉴타운점","tel":"031-357-6677","addr":"경기도 화성시 남양읍 남양리 2074-1번지 한영빌딩","category":"유통업 영리 - 편 의 점"}]},{"lat":"37.209019124","long":"126.81839132","items":[{"name":"VIP당구클럽","tel":"","addr":"경기도 화성시 남양읍 남양리 1197번지 203호","category":"레저업소 - 당 구 장"},{"name":"곽선생왕만두","tel":"","addr":"경기도 화성시 남양읍 남양리 1197번지 106호","category":"일반휴게음식 - 스넥"},{"name":"귀요미","tel":"031-357-6233","addr":"경기도 화성시 남양읍 남양리 1197번지 외3필지 국제포인트프라자 106호","category":"의류 - 정장"},{"name":"김밥천국","tel":"031-356-4599","addr":"경기도 화성시 남양읍 남양리 1197번지","category":"일반휴게음식 - 스넥"},{"name":"까투리수산","tel":"031-357-8333","addr":"경기도 화성시 남양읍 남양리 1197번지","category":"음료식품 - 농·축·수산품"},{"name":"남양박내과의원","tel":"031-356-0533","addr":"경기도 화성시 남양읍 남양리 1197번지 국제포인트프라자 303호","category":"의원 - 의원"},{"name":"남양연세이비인후과의원","tel":"031-356-6625","addr":"경기도 화성시 남양읍 남양리 1197국제포인트프라자108호~109호","category":"의원 - 의원"},{"name":"남양연세치과의원","tel":"031-355-2755","addr":"경기도 화성시 남양읍 남양리 1197번지 302호","category":"의원 - 치과의원"},{"name":"뉴월드안경","tel":"031-355-3745","addr":"경기도 화성시 남양읍 남양리 1197번지 포인트프라자빌딩 1층 10호","category":"보건위생 - 안경"},{"name":"맥주공장","tel":"031-356-4152","addr":"경기도 화성시 남양읍 남양리 1197번지","category":"일반휴게음식 - 주점"},{"name":"삼송떡볶이","tel":"031-357-4408","addr":"경기도 화성시 남양읍 남양리 1197번지 101호","category":"일반휴게음식 - 스넥"},{"name":"왕궁","tel":"000-000-0000","addr":"경기도 화성시 남양읍 남양리 1197번지","category":"보건위생 - 화장품"},{"name":"원클릭샵","tel":"031-356-9061","addr":"경기도 화성시 남양읍 남양리 1197번지 402호","category":"주방용구 - 주방용구"},{"name":"유명온누리약국","tel":"031-356-6797","addr":"경기도 화성시 남양읍 남양리 1197번지 국제포인트리프라자 107호","category":"약국 - 약국"},{"name":"정관장남양점","tel":"031-357-8203","addr":"경기도 화성시 남양읍 남양리 1197번지 외3필지 103호","category":"건강식품 - 홍삼제품"},{"name":"정관장남양점","tel":"031-357-8203","addr":"경기도 화성시 남양읍 남양리 1197번지 외3필지 103호","category":"건강식품 - 홍삼제품"},{"name":"제너지한의원","tel":"031-355-4851","addr":"경기도 화성시 남양읍 남양리 1197번지 국제포인트프라자 301호","category":"의원 - 한의원"},{"name":"젠틀노래방","tel":"031-355-2399","addr":"경기도 화성시 남양읍 남양리 1197번지 403호","category":"레저업소 - 노 래 방"},{"name":"참맑은의원","tel":"031-366-7533","addr":"경기도 화성시 남양읍 남양리 1197번지 2층 201호","category":"의원 - 의원"},{"name":"최소아과의원","tel":"031-356-0533","addr":"경기도 화성시 남양읍 남양리 1197번지 국제포인트프라자 303호","category":"의원 - 의원"}]},{"lat":"37.206491668","long":"126.82725164","items":[{"name":"the더갈비","tel":"","addr":"경기도 화성시 남양읍 남양리 2021-20번지 1층 103,104호","category":"일반휴게음식 - 일반한식"},{"name":"양평해장국","tel":"031-356-4525","addr":"경기도 화성시 남양읍 남양리 2021-20번지 101호","category":"일반휴게음식 - 일반한식"}]},{"lat":"37.210439259","long":"126.81052459","items":[{"name":"가단기업","tel":"031-226-2873","addr":"경기도 화성시 남양읍 남양리 172번지","category":"건축자재 - 인테리어전문"},{"name":"화성전기조명","tel":"031-357-5048","addr":"경기도 화성시 남양읍 남양리 172번지","category":"전기제품 - 기타전기제품"}]},{"lat":"37.21012834","long":"126.81899695","items":[{"name":"가람안경원","tel":"031-356-6870","addr":"경기도 화성시 남양읍 남양리 1267-9번지","category":"보건위생 - 안경"},{"name":"구구열쇠","tel":"031-355-9913","addr":"경기도 화성시 남양읍 남양리 1267-9번지","category":"기타 - 기계공구"},{"name":"맛자랑치킨","tel":"031-355-2465","addr":"경기도 화성시 남양읍 남양리 1267-9번지","category":"일반휴게음식 - 주점"},{"name":"무슬림 푸드(Muslim Food)","tel":"031-356-6386","addr":"경기도 화성시 남양읍 남양리 1267-9번지","category":"유통업 영리 - 슈퍼마켓"},{"name":"압구정헤어클럽","tel":"031-355-7284","addr":"경기도 화성시 남양읍 남양리 1267-9번지","category":"보건위생 - 미용원"}]},{"lat":"37.210127166","long":"126.81824217","items":[{"name":"가마솥왕족발보쌈","tel":"031-355-7070","addr":"경기도 화성시 남양읍 남양리 1265-15번지","category":"일반휴게음식 - 일반한식"}]},{"lat":"37.202571935","long":"126.82710302","items":[{"name":"가장맛있는족발","tel":"031-356-0608","addr":"경기도 화성시 남양읍 남양리 2061-1번지 1층 102~103호","category":"일반휴게음식 - 일반한식"},{"name":"정보석","tel":"031-356-3827","addr":"경기도 화성시 남양읍 남양리 2061-1번지 101호","category":"신변잡화 - 귀금속"}]},{"lat":"37.207881161","long":"126.81669306","items":[{"name":"감동한의원","tel":"031-355-5175","addr":"경기도 화성시 남양읍 남양리 1172-3번지 성지빌딩 2층","category":"의원 - 한의원"},{"name":"스트롱짐 남양1호점","tel":"031-357-9645","addr":"경기도 화성시 남양읍 남양리 1172-3번지 성지빌딩 4층","category":"레져용품 - 스포츠·레져용품"},{"name":"시암","tel":"031-355-7667","addr":"경기도 화성시 남양읍 남양리 1172-3번지","category":"보건위생 - 화장품"}]},{"lat":"37.2026337","long":"126.82622426","items":[{"name":"감탄앤가마솥김밥","tel":"031-355-3236","addr":"경기도 화성시 남양읍 남양리 2018-9번지 101호","category":"일반휴게음식 - 일반한식"},{"name":"빠나나(BARNANA)","tel":"031-356-4490","addr":"경기도 화성시 남양읍 남양리 2018-9번지 1층 102호","category":"일반휴게음식 - 칵테일바"}]},{"lat":"37.202299611","long":"126.82575194","items":[{"name":"갑부텔레콤","tel":"031-355-9672","addr":"경기도 화성시 남양읍 남양리 2018-5번지 1층 102호","category":"사무통신 - 통신기기"},{"name":"요거프레소(화성남양점)","tel":"070-7404-1465","addr":"경기도 화성시 남양읍 남양리 2018-5번지 1층","category":"일반휴게음식 - 서양음식"}]},{"lat":"37.205912016","long":"126.82524785","items":[{"name":"강남동태해물온반남양본점","tel":"031-356-9923","addr":"경기도 화성시 남양읍 남양리 2269-7번지 1층","category":"일반휴게음식 - 일반한식"}]},{"lat":"37.204654653","long":"126.82199534","items":[{"name":"강남짬뽕","tel":"031-111-1111","addr":"경기도 화성시 남양읍 남양리 2260-5번지 1층 일부","category":"일반휴게음식 - 중국식"},{"name":"염소뜰에","tel":"031-357-4405","addr":"경기도 화성시 남양읍 남양리 2260-5번지","category":"일반휴게음식 - 일반한식"}]},{"lat":"37.209075883","long":"126.81438076","items":[{"name":"개네가 고양이네","tel":"031-356-8005","addr":"경기도 화성시 남양읍 남양리 651-2번지","category":"문화.취미 - 애완동물"},{"name":"남양커텐.홈패션","tel":"031-355-1631","addr":"경기도 화성시 남양읍 남양리 651-2번지","category":"직물 - 카페트,커튼,천막,지물"},{"name":"남양풍년농약사","tel":"031-357-9444","addr":"경기도 화성시 남양읍 남양리 651-2번지","category":"농업 - 비료,사료,종자"},{"name":"호선치킨","tel":"031-356-2612","addr":"경기도 화성시 남양읍 남양리 651-2번지","category":"일반휴게음식 - 주점"}]},{"lat":"37.205544863","long":"126.82676945","items":[{"name":"거러카페","tel":"031-1111-1111","addr":"경기도 화성시 남양읍 남양리 2024-3번지 1층","category":"일반휴게음식 - 서양음식"}]},{"lat":"37.208519848","long":"126.81602685","items":[{"name":"거북이네닭발","tel":"031-356-9330","addr":"경기도 화성시 남양읍 남양리 1168-3번지","category":"일반휴게음식 - 일반한식"}]},{"lat":"37.201135383","long":"126.82449309","items":[{"name":"거성닥트","tel":"031-356-3337","addr":"경기도 화성시 남양읍 남양리 1826-1","category":"건축자재 - 기타건축자재"}]},{"lat":"37.211990832","long":"126.82313819","items":[{"name":"건국우유 화성서부대리점","tel":"031-355-0886","addr":"경기도 화성시 남양읍 남양리 1344-1번지","category":"음료식품 - 기타음료식품"},{"name":"남양전기","tel":"031-357-5430","addr":"경기도 화성시 남양읍 남양리 1344-1번지 외1필지","category":"용역 서비스 - 기타용역서비스"},{"name":"사랑마트","tel":"031-355-5933","addr":"경기도 화성시 남양읍 남양리 1344-1번지","category":"유통업 영리 - 슈퍼마켓"},{"name":"하이코리아 투어 칵투스 카페","tel":"","addr":"경기도 화성시 남양읍 남양리 1344-1번지 106호 105호,106호","category":"일반휴게음식 - 서양음식"},{"name":"해피하우스","tel":"031-356-6238","addr":"경기도 화성시 남양읍 남양리 1344-1번지","category":"문화.취미 - 애완동물"}]},{"lat":"37.209793573","long":"126.8181078","items":[{"name":"경기약국","tel":"031-356-6152","addr":"경기도 화성시 남양읍 남양리 1267-7번지","category":"약국 - 약국"},{"name":"꾸러기치킨앤강정","tel":"031-357-5272","addr":"경기도 화성시 남양읍 남양리 1267-7번지 1층","category":"일반휴게음식 - 스넥"},{"name":"남양삼성가정의학과의원","tel":"031-355-0315","addr":"경기도 화성시 남양읍 남양리 1267-7번지 2층","category":"의원 - 의원"},{"name":"옛날통닭","tel":"031-355-9755","addr":"경기도 화성시 남양읍 남양리 1267-7번지","category":"일반휴게음식 - 스넥"},{"name":"오켓헤어살롱","tel":"031-357-0444","addr":"경기도 화성시 남양읍 남양리 1267-7번지","category":"보건위생 - 미용원"}]},{"lat":"37.202993783","long":"126.7928923","items":[{"name":"경북타일","tel":"031-356-5512","addr":"경기도 화성시 남양읍 남양리 363-1번지","category":"건축자재 - 건축용 요업제품"}]},{"lat":"37.201544972","long":"126.82725183","items":[{"name":"경성주막 화성남양점","tel":"031-356-8983","addr":"경기도 화성시 남양읍 남양리 2075-9번지 102,103호","category":"일반휴게음식 - 일반한식"},{"name":"봉쥬비어","tel":"031-356-7132","addr":"경기도 화성시 남양읍 남양리 2075-9번지 남양도시인오피스텔 104,105호","category":"일반휴게음식 - 주점"},{"name":"주 (Ju)","tel":"031-355-2697","addr":"경기도 화성시 남양읍 남양리 2075-9번지","category":"일반휴게음식 - 주점"}]},{"lat":"37.201939769","long":"126.82613577","items":[{"name":"경희대 남양 태권도장","tel":"031-356-9476","addr":"경기도 화성시 남양읍 남양리 2073-5번지 영빌딩 401호","category":"학원 - 예·체능계학원"},{"name":"예소리음악학원","tel":"031-356-4979","addr":"경기도 화성시 남양읍 남양리 2073-5번지 영빌딩 301,B01호","category":"학원 - 예·체능계학원"},{"name":"일품참치","tel":"031-357-6204","addr":"경기도 화성시 남양읍 남양리 2073-5번지 101호","category":"일반휴게음식 - 일식·회집"},{"name":"잼아트미술학원","tel":"031-111-1111","addr":"경기도 화성시 남양읍 남양리 2073-5번지 501호","category":"학원 - 예·체능계학원"}]},{"lat":"37.198632096","long":"126.82555777","items":[{"name":"경희대 대양 태권도장","tel":"031-357-8383","addr":"경기도 화성시 남양읍 남양리 2319-4번지 현대메디프라자 501호","category":"학원 - 예·체능계학원"},{"name":"라인음악학원","tel":"031-357-4709","addr":"경기도 화성시 남양읍 남양리 2319-4번지 404호일부405호현대메디프라자","category":"학원 - 예·체능계학원"},{"name":"배러댄와플화성시청점","tel":"031-111-1111","addr":"경기도 화성시 남양읍 남양리 2319-4번지 현대메디프라자 2층 204호","category":"일반휴게음식 - 스넥"},{"name":"서울한방병원","tel":"031-8043-1084","addr":"경기도 화성시 남양읍 남양리 2319-4번지 603,604,605,701,702,703,704,705호","category":"병원 - 한방병원"},{"name":"어린음악대어린화가들대양원음악미술학원","tel":"031-366-7372","addr":"경기도 화성시 남양읍 남양리 2319-4번지 현대메디프라자 503호","category":"학원 - 예·체능계학원"},{"name":"에이블영어수학학원","tel":"070-8816-8255","addr":"경기도 화성시 남양읍 남양리 2319-4번지 505호","category":"학원 - 보습학원"},{"name":"자연식당","tel":"031-355-8400","addr":"경기도 화성시 남양읍 남양리 2319-4번지 현대메디프라자 2층 201호,202호","category":"일반휴게음식 - 일반한식"}]},{"lat":"37.2099383","long":"126.81846794","items":[{"name":"경희선제당한약국","tel":"031-357-8824","addr":"경기도 화성시 남양읍 남양리 1267-1번지 1층 일부","category":"약국 - 한약방"},{"name":"사천중화요리","tel":"031-357-7326","addr":"경기도 화성시 남양읍 남양리 1267-1번지","category":"일반휴게음식 - 중국식"},{"name":"석다방","tel":"031-355-1581","addr":"경기도 화성시 남양읍 남양리 1267-1번지","category":"일반휴게음식 - 서양음식"},{"name":"석호프","tel":"031-355-1581","addr":"경기도 화성시 남양읍 남양리 1267-1번지 2층","category":"일반휴게음식 - 주점"},{"name":"인스타일헤어","tel":"031-355-0334","addr":"경기도 화성시 남양읍 남양리 1267-1번지 1층 일부","category":"보건위생 - 미용원"}]},{"lat":"37.189545182","long":"126.80030636","items":[{"name":"계절셀프식당","tel":"031-366-8816","addr":"경기도 화성시 남양읍 남양리 961-19번지","category":"일반휴게음식 - 일반한식"}]},{"lat":"37.209544599","long":"126.81449225","items":[{"name":"고대학원","tel":"031-355-9916","addr":"경기도 화성시 남양읍 남양리 651-6번지","category":"학원 - 보습학원"},{"name":"남양어린이집[아이행복]","tel":"031-356-6855","addr":"경기도 화성시 남양읍 남양리 651-6번지","category":"학원 - 유아원"},{"name":"비타러닝센터남양학원","tel":"031-356-9754","addr":"경기도 화성시 남양읍 남양리 651-6번지 3층","category":"학원 - 보습학원"},{"name":"조스잉글리쉬학원","tel":"031-356-6997","addr":"경기도 화성시 남양읍 남양리 651-6,2층","category":"회원제형태 - 학원"}]},{"lat":"37.212213566","long":"126.81569104","items":[{"name":"고려식당","tel":"031-355-8732","addr":"경기도 화성시 남양읍 남양리 59-1번지","category":"일반휴게음식 - 일반한식"},{"name":"한양떡방앗간","tel":"031-357-2773","addr":"경기도 화성시 남양읍 남양리 59-1번지 103호","category":"음료식품 - 제과점"}]},{"lat":"37.20027356","long":"126.82661274","items":[{"name":"고봉민김밥인(화성시청점)","tel":"031-355-8315","addr":"경기도 화성시 남양읍 남양리 2072-13번지 1층 102호","category":"일반휴게음식 - 일반한식"},{"name":"던킨도너츠 화성시청점","tel":"","addr":"경기도 화성시 남양읍 남양리 2072-13번지 101호","category":"음료식품 - 제과점"},{"name":"왕소금구이","tel":"031-357-6455","addr":"경기도 화성시 남양읍 남양리 2072-13번지 103호","category":"일반휴게음식 - 일반한식"}]},{"lat":"37.214546991","long":"126.81552755","items":[{"name":"고천추어탕윤가네칼국수","tel":"031-357-8828","addr":"경기도 화성시 남양읍 남양리 19번지","category":"일반휴게음식 - 일반한식"},{"name":"한계령명태해물요리","tel":"031-366-7079","addr":"경기도 화성시 남양읍 남양리 19번지","category":"일반휴게음식 - 일반한식"}]},{"lat":"37.20232904","long":"126.82736266","items":[{"name":"곱창고","tel":"031-357-9222","addr":"경기도 화성시 남양읍 남양리 2062-1번지 102호","category":"일반휴게음식 - 일반한식"},{"name":"안심치킨","tel":"031-356-3564","addr":"경기도 화성시 남양읍 남양리 2062-1번지","category":"일반휴게음식 - 스넥"},{"name":"풀내음","tel":"070-4126-4459","addr":"경기도 화성시 남양읍 남양리 2062-1번지 2층","category":"일반휴게음식 - 일반한식"}]},{"lat":"37.203051462","long":"126.79494224","items":[{"name":"공간벽돌","tel":"031-355-5408","addr":"경기도 화성시 남양읍 남양리 367-1번지","category":"건축자재 - 기타건축자재"},{"name":"명성목재","tel":"031-355-4281","addr":"경기도 화성시 남양읍 남양리 367-1번지","category":"건축자재 - 목재·석재·철물"},{"name":"힐링플라워","tel":"031-356-3438","addr":"경기도 화성시 남양읍 남양리 367-1번지","category":"문화.취미 - 화원"}]},{"lat":"37.20865438","long":"126.81563224","items":[{"name":"곽영일외국어학원","tel":"031-356-3205","addr":"경기도 화성시 남양읍 남양리 1870-5번지","category":"회원제형태 - 학원"},{"name":"라브리지화성남양점","tel":"031-356-7225","addr":"경기도 화성시 남양읍 남양리 1870-5번지","category":"보건위생 - 미용원"},{"name":"유정.차와호프","tel":"031-356-7576","addr":"경기도 화성시 남양읍 남양리 1870-5번지","category":"일반휴게음식 - 칵테일바"}]},{"lat":"37.200129595","long":"126.82674824","items":[{"name":"광동낙지해신탕","tel":"031-355-6730","addr":"경기도 화성시 남양읍 남양리 2072-15번지 영동빌딩 B104호, B105호","category":"일반휴게음식 - 일반한식"},{"name":"미화장품","tel":"","addr":"경기도 화성시 남양읍 남양리 2072-15번지 영동프라자 B402~403호","category":"보건위생 - 화장품"},{"name":"보라네일샵","tel":"033-644-9910","addr":"경기도 화성시 남양읍 남양리 2072-15번지 영동빌딩 A동 107호","category":"보건위생 - 피부미용실"},{"name":"브이아이피(VIP)골프 아카데미","tel":"031-356-4886","addr":"경기도 화성시 남양읍 남양리 2072-15번지 6층 601,602,603호","category":"레져용품 - 골프용품 전문점"},{"name":"이디야커피(화성시청점)","tel":"031-355-2524","addr":"경기도 화성시 남양읍 남양리 2072-15번지","category":"일반휴게음식 - 서양음식"},{"name":"크리스토퍼 평생교육원 남양반도지부","tel":"","addr":"경기도 화성시 남양읍 남양리 2072-15번지 B동 503호","category":"학원 - 기타 교육기관"},{"name":"화성이미용학원","tel":"031-000-0000","addr":"경기도 화성시 남양읍 남양리 2072-15번지 401,402호","category":"학원 - 기능학원"}]},{"lat":"37.208242052","long":"126.81699634","items":[{"name":"구9치퀸","tel":"031-356-8520","addr":"경기도 화성시 남양읍 남양리 1172-23번지 1층 1호","category":"일반휴게음식 - 스넥"},{"name":"그곳에가면","tel":"031-356-1267","addr":"경기도 화성시 남양읍 남양리 1172-23번지","category":"일반휴게음식 - 주점"},{"name":"순녀네커피","tel":"031-355-7494","addr":"경기도 화성시 남양읍 남양리 1172-23번지 2층","category":"일반휴게음식 - 서양음식"}]},{"lat":"37.201879621","long":"126.82810714","items":[{"name":"구구향훠궈","tel":"","addr":"경기도 화성시 남양읍 남양리 2062-6번지 1층 104호.105호","category":"일반휴게음식 - 일반한식"},{"name":"쇼다이","tel":"","addr":"경기도 화성시 남양읍 남양리 2062-6번지 102호","category":"일반휴게음식 - 일식·회집"},{"name":"인생오뎅","tel":"031-111-1111","addr":"경기도 화성시 남양읍 남양리 2062-6번지 101호","category":"일반휴게음식 - 주점"},{"name":"진닭발","tel":"031-356-3776","addr":"경기도 화성시 남양읍 남양리 2062-6번지 103호","category":"일반휴게음식 - 일반한식"}]},{"lat":"37.203488613","long":"126.79761071","items":[{"name":"구보다","tel":"031-356-3555","addr":"경기도 화성시 남양읍 남양리 377","category":"농업 - 농기계"}]},{"lat":"37.202158493","long":"126.82780236","items":[{"name":"국제어시장","tel":"031-366-9942","addr":"경기도 화성시 남양읍 남양리 2062-4번지 1,2층","category":"일반휴게음식 - 일식·회집"},{"name":"국제어시장","tel":"031-366-9942","addr":"경기도 화성시 남양읍 남양리 2062-4번지","category":"음료식품 - 농·축·수산품"}]},{"lat":"37.20151682","long":"126.8264972","items":[{"name":"굴러들어온복","tel":"031-355-7108","addr":"경기도 화성시 남양읍 남양리 2074-15번지 1동 1층","category":"일반휴게음식 - 일반한식"}]},{"lat":"37.207744728","long":"126.81588232","items":[{"name":"굿모닝보청기/(주)바래온","tel":"031-355-2717","addr":"경기도 화성시 남양읍 남양리 1170-1번지 2층 201호-1","category":"보건위생 - 의료용품"},{"name":"남양한의원","tel":"031-356-7878","addr":"경기도 화성시 남양읍 남양리 1170-1번지 남양한의원","category":"의원 - 한의원"},{"name":"성지당구장","tel":"031-356-9960","addr":"경기도 화성시 남양읍 남양리 1170-1번지 5층","category":"레저업소 - 당 구 장"},{"name":"엠버옷장","tel":"031-356-8955","addr":"경기도 화성시 남양읍 남양리 1170-1번지 1층","category":"의류 - 정장"},{"name":"춘희요리전문학원","tel":"031-356-7821","addr":"경기도 화성시 남양읍 남양리 1170-1번지","category":"학원 - 기능학원"}]},{"lat":"37.202051598","long":"126.82863616","items":[{"name":"굿성비키친 화성시청점","tel":"031-357-0432","addr":"경기도 화성시 남양읍 남양리 2063-7번지 드림프라자 101호","category":"일반휴게음식 - 서양음식"}]},{"lat":"37.203023698","long":"126.79452554","items":[{"name":"굿타이어","tel":"031-356-2240","addr":"경기도 화성시 남양읍 남양리 367-2번지 1층","category":"자동차정비 유지 - 자동차시트·타이어"},{"name":"화성페인트월마트","tel":"031-366-8250","addr":"경기도 화성시 남양읍 남양리 367-2번지","category":"건축자재 - 페인트"}]},{"lat":"37.20921311","long":"126.81568719","items":[{"name":"궁전완구문구점","tel":"031-356-3396","addr":"경기도 화성시 남양읍 남양리 1163-12번지 1층","category":"서적문구 - 완구점"},{"name":"미소김밥","tel":"031-355-3577","addr":"경기도 화성시 남양읍 남양리 1163-12번지","category":"일반휴게음식 - 스넥"},{"name":"윤선생남양영어숲학원","tel":"031-355-0509","addr":"경기도 화성시 남양읍 남양리 1163-12번지","category":"학원 - 보습학원"},{"name":"한솔미술교습소","tel":"031-356-7002","addr":"경기도 화성시 남양읍 남양리 1163-12번지","category":"학원 - 예·체능계학원"}]},{"lat":"37.20179407","long":"126.82511107","items":[{"name":"그랑블루헤어살롱","tel":"031-355-0702","addr":"경기도 화성시 남양읍 남양리 2012-15번지","category":"보건위생 - 미용원"},{"name":"항아리보쌈","tel":"031-357-3555","addr":"경기도 화성시 남양읍 남양리 2012-15번지 101호(101~103호)","category":"일반휴게음식 - 일반한식"}]},{"lat":"37.208738802","long":"126.81774988","items":[{"name":"그린다방","tel":"031-357-8250","addr":"경기도 화성시 남양읍 남양리 1211-2번지","category":"일반휴게음식 - 서양음식"},{"name":"마포돈가","tel":"031-355-6864","addr":"경기도 화성시 남양읍 남양리 1211-2번지 1층","category":"일반휴게음식 - 일반한식"}]},{"lat":"37.202297854","long":"126.82458047","items":[{"name":"근사한","tel":"031-356-1728","addr":"경기도 화성시 남양읍 남양리 2012-11번지","category":"일반휴게음식 - 서양음식"}]},{"lat":"37.210688707","long":"126.80335912","items":[{"name":"금강편의점","tel":"031-357-1038","addr":"경기도 화성시 남양읍 남양리 255-1번지 1층 103호","category":"유통업 영리 - 슈퍼마켓"},{"name":"꼬마김밥","tel":"031-355-8718","addr":"경기도 화성시 남양읍 남양리 255-1번지 102호","category":"일반휴게음식 - 스넥"}]},{"lat":"37.201545623","long":"126.82769113","items":[{"name":"금사바","tel":"070-4254-0160","addr":"경기도 화성시 남양읍 남양리 2075-13번지 2층 201호","category":"일반휴게음식 - 일반한식"},{"name":"당구매니아","tel":"031-357-7866","addr":"경기도 화성시 남양읍 남양리 2075-13번지 203,204호","category":"레저업소 - 당 구 장"},{"name":"명가샤브샤브얼크니손칼국수","tel":"031-357-9298","addr":"경기도 화성시 남양읍 남양리 2075-13번지 101.102호","category":"일반휴게음식 - 일반한식"},{"name":"소문난대구왕뽈찜","tel":"031-357-0005","addr":"경기도 화성시 남양읍 남양리 2075-13번지","category":"일반휴게음식 - 일반한식"},{"name":"알파고","tel":"031-357-6622","addr":"경기도 화성시 남양읍 남양리 2075-13번지 ING빌딩 601호","category":"보건위생 - 화장품"},{"name":"원참치","tel":"031-356-6879","addr":"경기도 화성시 남양읍 남양리 2075-13번지 ING빌딩 1층 105호","category":"일반휴게음식 - 일식·회집"},{"name":"프롬당구장","tel":"031-357-5015","addr":"경기도 화성시 남양읍 남양리 2075-13번지 6층 603-605호","category":"레저업소 - 당 구 장"},{"name":"필인성태권도장","tel":"031-357-0737","addr":"경기도 화성시 남양읍 남양리 2075-13번지 303,305호","category":"학원 - 예·체능계학원"},{"name":"화성CM실용음악학원","tel":"031-366-9129","addr":"경기도 화성시 남양읍 남양리 2075-13번지 ING빌딩 4층","category":"회원제형태 - 학원"}]},{"lat":"37.2111288","long":"126.81347441","items":[{"name":"금성카","tel":"031-355-4943","addr":"경기도 화성시 남양읍 남양리 624번지","category":"자동차정비 유지 - 자동차정비"}]},{"lat":"37.208820317","long":"126.81802005","items":[{"name":"기린약국","tel":"031-355-7365","addr":"경기도 화성시 남양읍 남양리 1203번지 남양빌딩","category":"약국 - 약국"},{"name":"남양우리소아청소년과의원","tel":"031-355-5657","addr":"경기도 화성시 남양읍 남양리 1203번지 남양빌딩 302호","category":"의원 - 의원"},{"name":"남양현대치과의원","tel":"031-355-7528","addr":"경기도 화성시 남양읍 남양리 1203번지 301호","category":"의원 - 치과의원"},{"name":"미우헤어","tel":"031-356-1022","addr":"경기도 화성시 남양읍 남양리 1203번지 103호","category":"보건위생 - 미용원"},{"name":"보은한의원","tel":"031-357-7585","addr":"경기도 화성시 남양읍 남양리 1203번지 남양빌딩 1층","category":"의원 - 한의원"},{"name":"에바다아울렛","tel":"031-355-0120","addr":"경기도 화성시 남양읍 남양리 1203번지","category":"의류 - 정장"},{"name":"재령한의원","tel":"031-356-9992","addr":"경기도 화성시 남양읍 남양리 1203번지 402호","category":"의원 - 한의원"},{"name":"주식회사 부보","tel":"031-357-8909","addr":"경기도 화성시 남양읍 남양리 1203번지 남양빌딩 306호 일부","category":"기타 - 기계공구"},{"name":"한솥도시락 남양뉴타운점","tel":"031-355-5661","addr":"경기도 화성시 남양읍 남양리 1203번지","category":"일반휴게음식 - 일반한식"},{"name":"홍텔레콤앤컴퓨터(Hong Telecom&Computer)","tel":"031-357-3963","addr":"경기도 화성시 남양읍 남양리 1203번지 1층 101호","category":"사무통신 - 컴퓨터"}]},{"lat":"37.20221835","long":"126.82563949","items":[{"name":"김가네 김밥 남양 1호점","tel":"031-356-5288","addr":"경기도 화성시 남양읍 남양리 2018-4번지 1동 101호","category":"일반휴게음식 - 일반한식"},{"name":"크린토피아 남양뉴타운점","tel":"031-355-8286","addr":"경기도 화성시 남양읍 남양리 2018-4번지 102호","category":"수리서비스 - 세탁소"}]},{"lat":"37.201492376","long":"126.8282432","items":[{"name":"김명자낙지마당","tel":"031-355-2518","addr":"경기도 화성시 남양읍 남양리 2062-10번지 103호 102호","category":"일반휴게음식 - 일반한식"},{"name":"남양엑스골프","tel":"031-357-7702","addr":"경기도 화성시 남양읍 남양리 2062-10번지 5층","category":"레저업소 - 스크린골프"},{"name":"랑쯔","tel":"031-356-8929","addr":"경기도 화성시 남양읍 남양리 2062-10번지 외 1필지 태양빌딩 401호","category":"보건위생 - 피부미용실"},{"name":"바다마트","tel":"031-356-0890","addr":"경기도 화성시 남양읍 남양리 2062-10번지 태양빌딩 106호","category":"음료식품 - 기타음료식품"},{"name":"아궁이","tel":"031-356-9113","addr":"경기도 화성시 남양읍 남양리 2062-10번지 태양빌딩 101호","category":"일반휴게음식 - 일반한식"},{"name":"예림옥","tel":"031-355-5909","addr":"경기도 화성시 남양읍 남양리 2062-10번지 (외1필지 106호~109호)","category":"일반휴게음식 - 일반한식"},{"name":"초장집","tel":"031-356-0890","addr":"경기도 화성시 남양읍 남양리 2062-10번지 태양빌딩 106,107,108호,109호","category":"일반휴게음식 - 일반한식"},{"name":"택지족발","tel":"031-356-1282","addr":"경기도 화성시 남양읍 남양리 2062-10번지 태양빌딩 105호","category":"일반휴게음식 - 일반한식"}]},{"lat":"37.201992585","long":"126.8253021","items":[{"name":"김미커피","tel":"070-7061-8731","addr":"경기도 화성시 남양읍 남양리 2018-1번지 1층","category":"일반휴게음식 - 서양음식"},{"name":"김미커피","tel":"077-0640-6784","addr":"경기도 화성시 남양읍 남양리 2018-1번지 1층","category":"일반휴게음식 - 서양음식"}]},{"lat":"37.198016953","long":"126.82393725","items":[{"name":"김밥천국","tel":"031-355-0072","addr":"경기도 화성시 남양읍 남양리 1842","category":"일반휴게음식 - 일반한식"},{"name":"씨유현대문화관점","tel":"031-357-5671","addr":"경기도 화성시 남양읍 남양리 1842","category":"유통업 영리 - 편 의 점"},{"name":"알앤디치과의원","tel":"031-366-7524","addr":"경기도 화성시 남양읍 남양리 1842번지 문화관 110호","category":"의원 - 치과의원"},{"name":"현대경양식","tel":"031-355-2332","addr":"경기도 화성시 남양읍 남양리 1842현대문화관1층","category":"일반휴게음식 - 서양음식"},{"name":"현대미용실","tel":"031-357-8917","addr":"경기도 화성시 남양읍 남양리 1842","category":"보건위생 - 미용원"},{"name":"현대자동차남양연구소어린이집[아이행복]","tel":"031-356-9689","addr":"경기도 화성시 남양읍 남양리 1842 상가1층","category":"학원 - 유아원"},{"name":"현대탁구클럽","tel":"031-355-0020","addr":"경기도 화성시 남양읍 남양리 1842번지 현대자동차(주)남양문화관2층","category":"레저업소 - 기타레져업소"}]},{"lat":"37.204518602","long":"126.82140991","items":[{"name":"김앤김에스테틱","tel":"","addr":"경기도 화성시 남양읍 남양리 2294-3번지 웅진빌딩 1동 4층 401호","category":"보건위생 - 피부미용실"},{"name":"김철현영어학원","tel":"031-355-2408","addr":"경기도 화성시 남양읍 남양리 2294-3번지 4층 402호 일부","category":"학원 - 외국어학원"},{"name":"두비두","tel":"031-256-3884","addr":"경기도 화성시 남양읍 남양리 2294-3번지 101호","category":"보건위생 - 미용원"},{"name":"화성남양MTA태권도장","tel":"031-355-4738","addr":"경기도 화성시 남양읍 남양리 2294-3번지 웅진빌딩 5층","category":"학원 - 예·체능계학원"}]},{"lat":"37.207298147","long":"126.81269544","items":[{"name":"김영화부대찌개","tel":"031-355-9867","addr":"경기도 화성시 남양읍 남양리 519번지","category":"일반휴게음식 - 일반한식"},{"name":"만남커피호프","tel":"031-355-2925","addr":"경기도 화성시 남양읍 남양리 519번지 1층 103호","category":"일반휴게음식 - 일반한식"},{"name":"우림당구클럽","tel":"031-356-5236","addr":"경기도 화성시 남양읍 남양리 519번지 2층","category":"레저업소 - 당 구 장"},{"name":"주연테크컴퓨터남양점","tel":"031-355-0050","addr":"경기도 화성시 남양읍 남양리 519번지","category":"사무통신 - 컴퓨터"}]},{"lat":"37.20177231","long":"126.82865933","items":[{"name":"김진순 숯불껍데기","tel":"031-351-1111","addr":"경기도 화성시 남양읍 남양리 2063-11번지 102호","category":"일반휴게음식 - 일반한식"},{"name":"장모족발","tel":"031-357-3588","addr":"경기도 화성시 남양읍 남양리 2063-11번지 1층","category":"일반휴게음식 - 일반한식"}]},{"lat":"37.205075083","long":"126.83207618","items":[{"name":"까페58번길","tel":"031-356-0226","addr":"경기도 화성시 남양읍 남양리 2052-1번지 101호","category":"일반휴게음식 - 서양음식"},{"name":"뷰티공감","tel":"","addr":"경기도 화성시 남양읍 남양리 2052-1번지","category":"보건위생 - 피부미용실"},{"name":"화성기획","tel":"031-356-7987","addr":"경기도 화성시 남양읍 남양리 2052-1번지","category":"용역 서비스 - 종합용역"}]},{"lat":"37.212244008","long":"126.82372341","items":[{"name":"까페꼰띠고화성남양점","tel":"031-356-6857","addr":"경기도 화성시 남양읍 남양리 1365번지 선주빌딩 101호","category":"일반휴게음식 - 서양음식"},{"name":"조은의원","tel":"031-355-7177","addr":"경기도 화성시 남양읍 남양리 1365번지 선주빌딩 1층 107호 및 4층","category":"의원 - 의원"}]},{"lat":"37.20199544","long":"126.827217","items":[{"name":"꼬지사께 화성남양","tel":"031-355-8862","addr":"경기도 화성시 남양읍 남양리 2074-10번지 1층","category":"일반휴게음식 - 일반한식"},{"name":"봉쥬스","tel":"031-356-0132","addr":"경기도 화성시 남양읍 남양리 2074-10번지 102호","category":"일반휴게음식 - 서양음식"}]},{"lat":"37.207549621","long":"126.81218788","items":[{"name":"꼴통오토플랜","tel":"070-5022-4846","addr":"경기도 화성시 남양읍 남양리 522-1번지 일부호(B)","category":"자동차정비 유지 - 자동차부품"},{"name":"남양 손세차","tel":"031-357-8691","addr":"경기도 화성시 남양읍 남양리 522-1번지","category":"자동차정비 유지 - 세차장"},{"name":"디테일오토","tel":"031-356-7860","addr":"경기도 화성시 남양읍 남양리 522-1번지","category":"자동차정비 유지 - 카인테리어"},{"name":"제이플러스","tel":"031-357-8691","addr":"경기도 화성시 남양읍 남양리 522-1번지","category":"자동차정비 유지 - 세차장"}]},{"lat":"37.210245125","long":"126.81877136","items":[{"name":"나누리","tel":"031-356-8086","addr":"경기도 화성시 남양읍 남양리 1266","category":"일반휴게음식 - 주점"},{"name":"남양순대국,뼈해장국","tel":"031-355-8853","addr":"경기도 화성시 남양읍 남양리 1266번지","category":"일반휴게음식 - 일반한식"},{"name":"유소현소머리곰탕","tel":"031-355-9963","addr":"경기도 화성시 남양읍 남양리 1266번지 1층","category":"일반휴게음식 - 일반한식"},{"name":"커피와 호프만남","tel":"031-356-9788","addr":"경기도 화성시 남양읍 남양리 1266번지 1층 일부","category":"일반휴게음식 - 서양음식"}]},{"lat":"37.214877882","long":"126.81969518","items":[{"name":"나눔씽크대","tel":"031-355-0885","addr":"경기도 화성시 남양읍 남양리 1133번지","category":"주방용구 - 주방용구"},{"name":"남서문매운갈비찜","tel":"031-355-2644","addr":"경기도 화성시 남양읍 남양리 1133번지","category":"일반휴게음식 - 일반한식"}]},{"lat":"37.211487732","long":"126.81254973","items":[{"name":"나눔종합기계","tel":"031-355-0412","addr":"경기도 화성시 남양읍 남양리 65-2번지 1층","category":"기타 - 기계공구"}]},{"lat":"37.204549262","long":"126.80135893","items":[{"name":"나능이 백숙","tel":"031-357-4232","addr":"경기도 화성시 남양읍 남양리 311-3번지 2층","category":"일반휴게음식 - 일반한식"},{"name":"대박농장","tel":"031-355-6644","addr":"경기도 화성시 남양읍 남양리 311-3번지 2층 남양공구상사","category":"음료식품 - 농·축·수산품"},{"name":"대박백숙","tel":"031-355-6644","addr":"경기도 화성시 남양읍 남양리 311-3번지","category":"일반휴게음식 - 일반한식"},{"name":"유일안전물산","tel":"031-366-8883","addr":"경기도 화성시 남양읍 남양리 311-3,1호~2호","category":"기타 - 기타 전문점"},{"name":"준종합상사","tel":"031-356-7775","addr":"경기도 화성시 남양읍 남양리 311-3 남양공구상가103호~104호","category":"서적문구 - 문구용품"}]},{"lat":"37.214105129","long":"126.81530332","items":[{"name":"나무길원예","tel":"031-357-0132","addr":"경기도 화성시 남양읍 남양리 21-1번지","category":"문화.취미 - 화원"}]},{"lat":"37.20562832","long":"126.80541136","items":[{"name":"나사상사","tel":"031-355-4468","addr":"경기도 화성시 남양읍 남양리 444번지","category":"자동차정비 유지 - 자동차시트·타이어"},{"name":"현대자동차남양점","tel":"031-355-9800","addr":"경기도 화성시 남양읍 남양리 444번지","category":"자동차정비 유지 - 자동차정비"}]},{"lat":"37.200717735","long":"126.82841394","items":[{"name":"나승광고 디자인인쇄","tel":"031-357-9403","addr":"경기도 화성시 남양읍 남양리 2077-8번지 베스트빌딩 1층 105호","category":"서적문구 - 출판 및 인쇄물"},{"name":"베스트당구클럽","tel":"031-356-0713","addr":"경기도 화성시 남양읍 남양리 2077-8번지 베스트302호~304호 302호","category":"레저업소 - 당 구 장"},{"name":"베스트스크린골프","tel":"031-356-7770","addr":"경기도 화성시 남양읍 남양리 2077-8번지 201호 (201호~203호)","category":"회원제형태 - 레져업소"},{"name":"북경","tel":"031-356-2466","addr":"경기도 화성시 남양읍 남양리 2077-8번지 402,403호","category":"보건위생 - 기타대인서비스"},{"name":"클래식(Classic)","tel":"031-355-7271","addr":"경기도 화성시 남양읍 남양리 2077-8번지 베스트빌딩 101호","category":"보건위생 - 미용원"}]},{"lat":"37.201769143","long":"126.82651915","items":[{"name":"나인X짐","tel":"031-355-0100","addr":"경기도 화성시 남양읍 남양리 2074-5번지 3,4층","category":"레저업소 - 헬스클럽"},{"name":"빈체로화성시청지점(주)에스씨케이","tel":"031-355-1004","addr":"경기도 화성시 남양읍 남양리 2074-5번지 2층","category":"일반휴게음식 - 서양음식"}]},{"lat":"37.20202103","long":"126.82624822","items":[{"name":"나인당구클럽","tel":"031-356-9544","addr":"경기도 화성시 남양읍 남양리 2073-6번지 2층","category":"레저업소 - 당 구 장"},{"name":"나인핑거스 화성남양점","tel":"031-355-2620","addr":"경기도 화성시 남양읍 남양리 2073-6번지 101호","category":"일반휴게음식 - 서양음식"}]},{"lat":"37.20921391","long":"126.81619412","items":[{"name":"나홋까 (NAKHODKA)","tel":"031-355-4150","addr":"경기도 화성시 남양읍 남양리 1163-4번지 102호","category":"일반휴게음식 - 일반한식"},{"name":"아르밧 (ARBAT)","tel":"","addr":"경기도 화성시 남양읍 남양리 1163-4번지 101호","category":"일반휴게음식 - 서양음식"},{"name":"에바다헤어샵","tel":"031-355-6564","addr":"경기도 화성시 남양읍 남양리 1163-4번지","category":"보건위생 - 미용원"},{"name":"에바다헤어샵","tel":"031-355-6564","addr":"경기도 화성시 남양읍 남양리 1163-4번지","category":"보건위생 - 미용원"},{"name":"중앙종묘사","tel":"031-356-2013","addr":"경기도 화성시 남양읍 남양리 1163-4번지","category":"농업 - 비료,사료,종자"}]},{"lat":"37.209460279","long":"126.81816494","items":[{"name":"낙원떡방앗간","tel":"031-355-5773","addr":"경기도 화성시 남양읍 남양리 1235-2번지","category":"음료식품 - 제과점"},{"name":"네이처컬렉션(화성남양점)","tel":"031-357-0670","addr":"경기도 화성시 남양읍 남양리 1235-2번지","category":"보건위생 - 화장품"},{"name":"새소망약국","tel":"031-357-9952","addr":"경기도 화성시 남양읍 남양리 1235-2번지","category":"약국 - 약국"},{"name":"성심의원","tel":"031-356-2381","addr":"경기도 화성시 남양읍 남양리 1235-2번지","category":"의원 - 의원"},{"name":"정규호베이커리","tel":"070-7563-0123","addr":"경기도 화성시 남양읍 남양리 1235-2번지 1층","category":"음료식품 - 제과점"},{"name":"천라향 양꼬치","tel":"031-355-0939","addr":"경기도 화성시 남양읍 남양리 1235-2번지 2층","category":"일반휴게음식 - 일반한식"},{"name":"천리향식당","tel":"031-355-0939","addr":"경기도 화성시 남양읍 남양리 1235-2번지 1236-2","category":"일반휴게음식 - 중국식"}]},{"lat":"37.206209945","long":"126.81971614","items":[{"name":"남도사골순대국","tel":"031-355-9969","addr":"경기도 화성시 남양읍 남양리 2290-1번지","category":"일반휴게음식 - 일반한식"}]},{"lat":"37.199244884","long":"126.82561265","items":[{"name":"남양 디에스 병원","tel":"031-8043-5277","addr":"경기도 화성시 남양읍 남양리 2319-2번지 거성메디칼프라자","category":"병원 - 병원"},{"name":"남양우리약국","tel":"031-355-4911","addr":"경기도 화성시 남양읍 남양리 2319-2번지 102호-104호","category":"약국 - 약국"},{"name":"본초맘죽","tel":"031-356-6685","addr":"경기도 화성시 남양읍 남양리 2319-2번지 1층 101호","category":"일반휴게음식 - 일반한식"}]},{"lat":"37.213599884","long":"126.82660427","items":[{"name":"남양 옛날 불낙지","tel":"031-356-8950","addr":"경기도 화성시 남양읍 남양리 1351-7번지","category":"일반휴게음식 - 일반한식"},{"name":"박준형 갤러리","tel":"031-356-0289","addr":"경기도 화성시 남양읍 남양리 1351-7번지","category":"가구 - 일반가구"}]},{"lat":"37.207907447","long":"126.81621987","items":[{"name":"남양검도관","tel":"031-357-0122","addr":"경기도 화성시 남양읍 남양리 1172-24번지","category":"학원 - 예·체능계학원"},{"name":"오케이노래연습장","tel":"031-357-9433","addr":"경기도 화성시 남양읍 남양리 1172-24번지","category":"레저업소 - 노 래 방"}]},{"lat":"37.209821692","long":"126.81880618","items":[{"name":"남양고시원","tel":"031-355-9360","addr":"경기도 화성시 남양읍 남양리 1267-2번지 3층","category":"학원 - 독서실"},{"name":"대박무한삼겹119","tel":"031-355-3529","addr":"경기도 화성시 남양읍 남양리 1267-2번지","category":"일반휴게음식 - 일반한식"},{"name":"또와 노래연습장","tel":"031-356-3974","addr":"경기도 화성시 남양읍 남양리 1267-2번지 성호빌딩 201호","category":"레저업소 - 노 래 방"},{"name":"복자네막회포차","tel":"031-357-8018","addr":"경기도 화성시 남양읍 남양리 1267-2번지 103호","category":"일반휴게음식 - 일반한식"},{"name":"성지약국","tel":"031-355-1110","addr":"경기도 화성시 남양읍 남양리 1267-2번지 성호빌딩 1층","category":"약국 - 약국"},{"name":"신바람건강원","tel":"031-355-0311","addr":"경기도 화성시 남양읍 남양리 1267-2번지 1층 4호","category":"건강식품 - 기타건강식품"},{"name":"줘마양다리구이","tel":"031-000-0000","addr":"경기도 화성시 남양읍 남양리 1267-2번지 104호","category":"일반휴게음식 - 중국식"},{"name":"큰집멸치국수","tel":"031-355-0370","addr":"경기도 화성시 남양읍 남양리 1267-2번지 101호","category":"일반휴게음식 - 일반한식"},{"name":"파르투내 (FORTUNE)","tel":"031-3569-7777","addr":"경기도 화성시 남양읍 남양리 1267-2번지 2층 202호","category":"일반휴게음식 - 일반한식"},{"name":"한재경","tel":"070-4409-0899","addr":"경기도 화성시 남양읍 남양리 1267-2번지 성호빌딩 제102호","category":"의류 - 정장"}]},{"lat":"37.208016493","long":"126.81680538","items":[{"name":"남양골 돼지국밥","tel":"031-357-0292","addr":"경기도 화성시 남양읍 남양리 1172-20번지","category":"일반휴게음식 - 일반한식"},{"name":"발라드","tel":"031-356-3869","addr":"경기도 화성시 남양읍 남양리 1172 20","category":"일반휴게음식 - 스넥"},{"name":"큐노래연습장","tel":"031-355-7159","addr":"경기도 화성시 남양읍 남양리 1172-20번지","category":"레저업소 - 노 래 방"}]},{"lat":"37.208491624","long":"126.81527216","items":[{"name":"남양골드","tel":"031-355-2964","addr":"경기도 화성시 남양읍 남양리 657-1번지","category":"신변잡화 - 귀금속"}]},{"lat":"37.208098416","long":"126.8116683","items":[{"name":"남양골생갈비","tel":"031-356-2588","addr":"경기도 화성시 남양읍 남양리 572번지","category":"일반휴게음식 - 일반한식"},{"name":"명동식당","tel":"031-356-4676","addr":"경기도 화성시 남양읍 남양리 572번지","category":"일반휴게음식 - 일반한식"},{"name":"신성특수케미칼","tel":"031-355-2367","addr":"경기도 화성시 남양읍 남양리 572번지","category":"용역 서비스 - 기타용역서비스"}]},{"lat":"37.207379764","long":"126.81302191","items":[{"name":"남양광고","tel":"031-357-7155","addr":"경기도 화성시 남양읍 남양리 523번지 B동 104호","category":"용역 서비스 - 종합용역"},{"name":"남양오토바이","tel":"031-355-7268","addr":"경기도 화성시 남양읍 남양리 523번지","category":"자동차판매 - 이륜차판매"},{"name":"드론스토어","tel":"031-355-0039","addr":"경기도 화성시 남양읍 남양리 523번지","category":"광학제품 - 기타광학제품"},{"name":"모든오피스 화성점","tel":"031-356-3560","addr":"경기도 화성시 남양읍 남양리 523번지","category":"서적문구 - 문구용품"},{"name":"바다양푼이동태탕","tel":"031-366-8199","addr":"경기도 화성시 남양읍 남양리 523번지","category":"일반휴게음식 - 일반한식"}]},{"lat":"37.208462211","long":"126.81377397","items":[{"name":"남양김밥","tel":"031-355-6486","addr":"경기도 화성시 남양읍 남양리 541번지 1층","category":"일반휴게음식 - 스넥"}]},{"lat":"37.202211771","long":"126.79913483","items":[{"name":"남양냉동","tel":"031-357-0330","addr":"경기도 화성시 남양읍 남양리 405-3번지","category":"전기제품 - 냉열기기"},{"name":"설대감누룽지백숙","tel":"031-355-4749","addr":"경기도 화성시 남양읍 남양리 405-3번지","category":"일반휴게음식 - 일반한식"}]},{"lat":"37.209154612","long":"126.81860503","items":[{"name":"남양노래연습장","tel":"031-356-6167","addr":"경기도 화성시 남양읍 남양리 1195-3번지 지하1층","category":"레저업소 - 노 래 방"},{"name":"남양서울치과의원","tel":"031-356-2831","addr":"경기도 화성시 남양읍 남양리 1195-3번지","category":"의원 - 치과의원"},{"name":"방울네정육점","tel":"031-356-2203","addr":"경기도 화성시 남양읍 남양리 1195-3번지","category":"음료식품 - 정육점"},{"name":"화성남양 베스킨라빈스","tel":"031-356-2519","addr":"경기도 화성시 남양읍 남양리 1195-3번지","category":"음료식품 - 제과점"}]},{"lat":"37.211855078","long":"126.82274422","items":[{"name":"남양노루표풍일종합공사","tel":"031-356-7495","addr":"경기도 화성시 남양읍 남양리 1329-5번지 영문빌딩 1층","category":"건축자재 - 페인트"},{"name":"남양식당","tel":"031-356-4991","addr":"경기도 화성시 남양읍 남양리 1329-5번지 영문빌딩 지하1층","category":"일반휴게음식 - 일반한식"},{"name":"참디자인","tel":"031-273-8425","addr":"경기도 화성시 남양읍 남양리 1329-5번지 영문빌딩 2층","category":"건축자재 - 인테리어전문"}]},{"lat":"37.19707737","long":"126.82829842","items":[{"name":"남양노아간호학원","tel":"031-356-4626","addr":"경기도 화성시 남양읍 남양리 산139-65번지 301호","category":"학원 - 기능학원"},{"name":"스시노백쉐프 (화성시청점)","tel":"031-356-6302","addr":"경기도 화성시 남양읍 남양리 산139-65번지 2층 201호","category":"일반휴게음식 - 일식·회집"}]},{"lat":"37.208046212","long":"126.83049238","items":[{"name":"남양뉴타운열쇠","tel":"031-366-7337","addr":"경기도 화성시 남양읍 남양리 2044-1번지 2호","category":"건축자재 - 목재·석재·철물"}]},{"lat":"37.201101269","long":"126.82577727","items":[{"name":"남양뉴타운외과의원","tel":"031-366-7251","addr":"경기도 화성시 남양읍 남양리 2072-4번지 한국프라자 3층","category":"의원 - 의원"},{"name":"남양약국","tel":"031-357-9675","addr":"경기도 화성시 남양읍 남양리 2072-4번지 한국프라자 105호~106호","category":"약국 - 약국"},{"name":"본죽 화성시청점","tel":"031-357-6246","addr":"경기도 화성시 남양읍 남양리 2072-4번지 한국프라자 103호","category":"일반휴게음식 - 일반한식"},{"name":"서서갈비한식대가","tel":"031-356-9289","addr":"경기도 화성시 남양읍 남양리 2072-4번지","category":"일반휴게음식 - 일반한식"},{"name":"서울필치과의원","tel":"031-355-5202","addr":"경기도 화성시 남양읍 남양리 2072-4번지 한국프라자 501호","category":"의원 - 치과의원"},{"name":"신전떡볶이 화성시청점","tel":"031-356-0142","addr":"경기도 화성시 남양읍 남양리 2072-4번지 한국프라자 108호","category":"일반휴게음식 - 스넥"},{"name":"정가네 팔도순대","tel":"031-357-5235","addr":"경기도 화성시 남양읍 남양리 2072-4번지 한국프라자 115동 118호","category":"일반휴게음식 - 일반한식"},{"name":"제일금은거래소","tel":"031-356-1077","addr":"경기도 화성시 남양읍 남양리 2072-4번지 한국프라자 1층 107호","category":"신변잡화 - 귀금속"},{"name":"크린스피드화성남양1호점","tel":"031-357-5322","addr":"경기도 화성시 남양읍 남양리 2072-4번지 한국프라자 103호","category":"수리서비스 - 세탁소"},{"name":"트리니티소아청소년과의원","tel":"031-356-8728","addr":"경기도 화성시 남양읍 남양리 2072-4번지 한국프라자 301호","category":"의원 - 의원"},{"name":"헬로남양점","tel":"031-366-7137","addr":"경기도 화성시 남양읍 남양리 2072-4번지 한국프라자 102호","category":"전기제품 - 기타전기제품"}]},{"lat":"37.208548668","long":"126.81716456","items":[{"name":"남양당구클럽","tel":"031-357-3179","addr":"경기도 화성시 남양읍 남양리 1216번지 2층","category":"레저업소 - 당 구 장"},{"name":"남태평양참치","tel":"031-356-5671","addr":"경기도 화성시 남양읍 남양리 1216번지 102호","category":"일반휴게음식 - 일식·회집"},{"name":"머리사랑","tel":"031-355-7626","addr":"경기도 화성시 남양읍 남양리 1216번지","category":"보건위생 - 미용원"},{"name":"홍희통닭","tel":"031-355-6109","addr":"경기도 화성시 남양읍 남양리 1216번지 2층","category":"일반휴게음식 - 스넥"}]},{"lat":"37.193941945","long":"126.83465796","items":[{"name":"남양대광할인마트","tel":"031-356-6161","addr":"경기도 화성시 남양읍 남양리 2003대광파인상가101,102,103호","category":"유통업 영리 - 슈퍼마켓"},{"name":"남양수제갈비","tel":"031-356-9588","addr":"경기도 화성시 남양읍 남양리 2003번지 상가2동104호일부105호","category":"일반휴게음식 - 일반한식"},{"name":"대광어린이집[아이행복]","tel":"031-355-0806","addr":"경기도 화성시 남양읍 남양리 2003번지 대광파인밸리(아)상가2동201호","category":"학원 - 유아원"},{"name":"씨유화성대광점","tel":"080-080-3663","addr":"경기도 화성시 남양읍 남양리 2003번지 (대광파인상가101,102,103호)","category":"유통업 영리 - 편 의 점"}]},{"lat":"37.211270814","long":"126.81213345","items":[{"name":"남양물류","tel":"031-357-5405","addr":"경기도 화성시 남양읍 남양리 65번지","category":"용역 서비스 - 보관및 창고업"}]},{"lat":"37.203246689","long":"126.82641433","items":[{"name":"남양보리밥","tel":"031-357-3098","addr":"경기도 화성시 남양읍 남양리 2028-10번지 1층 102호","category":"일반휴게음식 - 일반한식"},{"name":"스윗캥커루(화성점)","tel":"070-4038-1244","addr":"경기도 화성시 남양읍 남양리 2028-10번지","category":"의류 - 정장"}]},{"lat":"37.208548138","long":"126.81682661","items":[{"name":"남양복싱클럽","tel":"031-355-7965","addr":"경기도 화성시 남양읍 남양리 1218번지 3층","category":"레저업소 - 헬스클럽"},{"name":"동원떡 방아간","tel":"031-357-7791","addr":"경기도 화성시 남양읍 남양리 1218번지 1층","category":"음료식품 - 제과점"},{"name":"잔디커피호프","tel":"031-355-7960","addr":"경기도 화성시 남양읍 남양리 1218번지","category":"일반휴게음식 - 주점"},{"name":"잔디커피호프","tel":"031-355-7962","addr":"경기도 화성시 남양읍 남양리 1218번지","category":"일반휴게음식 - 일반한식"},{"name":"태양노래연습장","tel":"031-355-0310","addr":"경기도 화성시 남양읍 남양리 1218번지 지하1층","category":"레저업소 - 노 래 방"}]},{"lat":"37.206348368","long":"126.81041106","items":[{"name":"남양브럭골재상사","tel":"031-356-2211","addr":"경기도 화성시 남양읍 남양리 511-2","category":"건축자재 - 기타건축자재"}]},{"lat":"37.205745626","long":"126.81099836","items":[{"name":"남양빌딩","tel":"031-357-8322","addr":"경기도 화성시 남양읍 남양리 714번지 (외1)","category":"신변잡화 - 기타잡화"},{"name":"남양아구찜","tel":"031-357-8322","addr":"경기도 화성시 남양읍 남양리 714번지 1층","category":"일반휴게음식 - 일반한식"}]},{"lat":"37.20901506","long":"126.81580033","items":[{"name":"남양빨래방","tel":"031-366-8489","addr":"경기도 화성시 남양읍 남양리 1166-1번지","category":"수리서비스 - 세탁소"},{"name":"아름다운노래벨칸토음악학원","tel":"031-357-6154","addr":"경기도 화성시 남양읍 남양리 1166-1번지 예성빌딩 2층","category":"학원 - 예·체능계학원"},{"name":"이모네장터순대국","tel":"031-357-1855","addr":"경기도 화성시 남양읍 남양리 1166-1번지","category":"일반휴게음식 - 일반한식"}]},{"lat":"37.205884418","long":"126.83097041","items":[{"name":"남양생포갈비","tel":"031-357-2982","addr":"경기도 화성시 남양읍 남양리 2045-7번지 1층 101호","category":"일반휴게음식 - 일반한식"}]},{"lat":"37.209494929","long":"126.8172749","items":[{"name":"남양수산","tel":"031-355-4342","addr":"경기도 화성시 남양읍 남양리 1225-1번지","category":"음료식품 - 농·축·수산품"},{"name":"심봉사 도로케","tel":"031-8058-2810","addr":"경기도 화성시 남양읍 남양리 1225-1번지","category":"일반휴게음식 - 서양음식"},{"name":"이브자리","tel":"031-356-5526","addr":"경기도 화성시 남양읍 남양리 1225-1번지","category":"직물 - 옷감·직물"}]},{"lat":"37.205523113","long":"126.80716892","items":[{"name":"남양수산시장","tel":"031-355-8227","addr":"경기도 화성시 남양읍 남양리 465-3번지","category":"일반휴게음식 - 일반한식"},{"name":"수성동물병원","tel":"031-357-8668","addr":"경기도 화성시 남양읍 남양리 465-3번지","category":"기타의료기관 - 동물병원"},{"name":"은혜떡방","tel":"031-355-2538","addr":"경기도 화성시 남양읍 남양리 465-3번지 상가 110호","category":"음료식품 - 제과점"},{"name":"한라천막판넬","tel":"031-355-6999","addr":"경기도 화성시 남양읍 남양리 465-3번지 6호","category":"직물 - 카페트,커튼,천막,지물"},{"name":"황토코리아돌침대","tel":"","addr":"경기도 화성시 남양읍 남양리 465-3번지 8.9호","category":"가구 - 일반가구"}]},{"lat":"37.206184765","long":"126.82688061","items":[{"name":"남양숯불고기","tel":"031-355-8993","addr":"경기도 화성시 남양읍 남양리 2021-17번지 1층","category":"일반휴게음식 - 일반한식"}]},{"lat":"37.209348674","long":"126.81594595","items":[{"name":"남양쌀상회","tel":"031-357-8117","addr":"경기도 화성시 남양읍 남양리 1163-47번지","category":"음료식품 - 미곡상"}]},{"lat":"37.208934359","long":"126.81604836","items":[{"name":"남양열쇠","tel":"031-357-7820","addr":"경기도 화성시 남양읍 남양리 1165-25번지","category":"기타 - 기계공구"}]},{"lat":"37.211104666","long":"126.80968925","items":[{"name":"남양영재어린이집[아이행복]","tel":"031-355-9054","addr":"경기도 화성시 남양읍 남양리 176-4번지","category":"학원 - 유아원"}]},{"lat":"37.211322077","long":"126.82183297","items":[{"name":"남양전기조명","tel":"031-357-7170","addr":"경기도 화성시 남양읍 남양리 1332-4번지","category":"전기제품 - 기타전기제품"},{"name":"삼화페인트","tel":"031-357-7704","addr":"경기도 화성시 남양읍 남양리 1332-4번지","category":"건축자재 - 페인트"}]},{"lat":"37.202991441","long":"126.79668838","items":[{"name":"남양제일주유소","tel":"031-355-5147","addr":"경기도 화성시 남양읍 남양리 371-11번지","category":"연료판매점 - 주유소"},{"name":"이포에너지(주)우리주유소","tel":"02-392-2516","addr":"경기도 화성시 남양읍 남양리 371-11번지","category":"연료판매점 - 현대정유(오일뱅크)"}]},{"lat":"37.207217621","long":"126.83074209","items":[{"name":"남양족발","tel":"031-357-3457","addr":"경기도 화성시 남양읍 남양리 2043-8번지 1층 1호","category":"일반휴게음식 - 일반한식"}]},{"lat":"37.20512688","long":"126.80192062","items":[{"name":"남양종합가구","tel":"031-356-7522","addr":"경기도 화성시 남양읍 남양리 304-2번지","category":"가구 - 일반가구"},{"name":"창조인테리어","tel":"031-356-7481","addr":"경기도 화성시 남양읍 남양리 304-2번지 102호","category":"직물 - 카페트,커튼,천막,지물"}]},{"lat":"37.205991464","long":"126.80705507","items":[{"name":"남양종합유리","tel":"031-356-6568","addr":"경기도 화성시 남양읍 남양리 461-2번지","category":"건축자재 - 유리"}]},{"lat":"37.208822052","long":"126.8191353","items":[{"name":"남양참플란트치과의원","tel":"031-356-7674","addr":"경기도 화성시 남양읍 남양리 1192번지 2층","category":"의원 - 치과의원"}]},{"lat":"37.210131165","long":"126.81505406","items":[{"name":"남양초등학교","tel":"031-356-3576","addr":"경기도 화성시 남양읍 남양리 650-1번지 남양초등학교","category":"학원 - 초중고교육기관"}]},{"lat":"37.205661167","long":"126.82026943","items":[{"name":"남양출장 밧테리 방충망","tel":"","addr":"경기도 화성시 남양읍 남양리 2290-4번지 405호","category":"용역 서비스 - 기타용역서비스"}]},{"lat":"37.204161012","long":"126.80088685","items":[{"name":"남양케미컬","tel":"031-366-8881","addr":"경기도 화성시 남양읍 남양리 328번지 1층 1호","category":"자동차정비 유지 - 윤활유 전문 판매"},{"name":"제일닥트","tel":"031-355-3225","addr":"경기도 화성시 남양읍 남양리 328번지 1층","category":"건축자재 - 보일러·펌프·샷시"}]},{"lat":"37.207216384","long":"126.81227884","items":[{"name":"남양타이어판매","tel":"031-356-9095","addr":"경기도 화성시 남양읍 남양리 519-2번지","category":"자동차정비 유지 - 자동차시트·타이어"},{"name":"현대오토카센타","tel":"031-356-1949","addr":"경기도 화성시 남양읍 남양리 519-2번지","category":"자동차정비 유지 - 자동차정비"}]},{"lat":"37.208908462","long":"126.8167694","items":[{"name":"남양탑플러스1관학원","tel":"031-355-9593","addr":"경기도 화성시 남양읍 남양리 1165-5번지 2층","category":"학원 - 보습학원"},{"name":"남양탑플러스2관학원","tel":"031-357-1289","addr":"경기도 화성시 남양읍 남양리 1165-5번지 3층","category":"학원 - 보습학원"},{"name":"아울렛DC백화점","tel":"031-357-0419","addr":"경기도 화성시 남양읍 남양리 1165-5","category":"유통업 영리 - 슈퍼마켓"}]},{"lat":"37.208658308","long":"126.81244419","items":[{"name":"남양플라워","tel":"031-355-8985","addr":"경기도 화성시 남양읍 남양리 584-1번지 102호","category":"문화.취미 - 화원"}]},{"lat":"37.209296225","long":"126.81697122","items":[{"name":"남양하나종묘","tel":"031-357-0181","addr":"경기도 화성시 남양읍 남양리 1244번지","category":"농업 - 비료,사료,종자"},{"name":"백합미용실","tel":"031-357-8003","addr":"경기도 화성시 남양읍 남양리 1244번지","category":"보건위생 - 미용원"},{"name":"이지비야","tel":"031-355-3153","addr":"경기도 화성시 남양읍 남양리 1244번지","category":"일반휴게음식 - 일반한식"}]},{"lat":"37.210715946","long":"126.83233384","items":[{"name":"남양한양마트","tel":"","addr":"경기도 화성시 남양읍 남양리 2232-2번지 헤븐리투프라자 B1층 B04호","category":"유통업 영리 - 슈퍼마켓"},{"name":"송화정한식부페","tel":"031-357-8894","addr":"경기도 화성시 남양읍 남양리 2232-2번지 2층 206호","category":"일반휴게음식 - 일반한식"},{"name":"승일떡","tel":"031-356-8433","addr":"경기도 화성시 남양읍 남양리 2232-2번지 1동 B02호","category":"음료식품 - 기타음료식품"},{"name":"이루다동물메디컬센터","tel":"031-357-7559","addr":"경기도 화성시 남양읍 남양리 2232-2번지 해븐리투프라자 110,111,112호 남양뉴타운 상4블럭 1-2로트","category":"기타의료기관 - 동물병원"},{"name":"이바돔감자탕 화성남양점","tel":"031-355-5117","addr":"경기도 화성시 남양읍 남양리 2232-2번지 1동 201,202,203호(헤븐리2 프라자)","category":"일반휴게음식 - 일반한식"},{"name":"자담치킨 화성남양점","tel":"031-366-9279","addr":"경기도 화성시 남양읍 남양리 2232-2번지 해븐리2 프라자 B01호","category":"일반휴게음식 - 스넥"},{"name":"주식회사 스트롱짐","tel":"031-355-1927","addr":"경기도 화성시 남양읍 남양리 2232-2번지 해븐리투프라자 7층","category":"레져용품 - 스포츠·레져용품"},{"name":"커피에반하다","tel":"031-1111-1111","addr":"경기도 화성시 남양읍 남양리 2232-2번지 1동 108호(헤븐리2프라자)","category":"일반휴게음식 - 서양음식"},{"name":"피움,꽃","tel":"031-357-6338","addr":"경기도 화성시 남양읍 남양리 2232-2번지 1층 105호","category":"문화.취미 - 화원"},{"name":"할매순대국","tel":"031-357-4707","addr":"경기도 화성시 남양읍 남양리 2232-2번지 1동 1층 109호(헤븐리2프라자)","category":"일반휴게음식 - 일반한식"}]},{"lat":"37.216626494","long":"126.82008528","items":[{"name":"남양현대1급정비(주)","tel":"031-356-2131","addr":"경기도 화성시 남양읍 남양리 1113번지","category":"자동차정비 유지 - 자동차정비"},{"name":"현대1급정비","tel":"031-356-2131","addr":"경기도 화성시 남양읍 남양리 1113","category":"자동차정비 유지 - 자동차정비"}]},{"lat":"37.211493858","long":"126.82221559","items":[{"name":"남양화성유리샷시","tel":"031-356-9831","addr":"경기도 화성시 남양읍 남양리 1332-1번지","category":"건축자재 - 유리"},{"name":"대우천막사","tel":"031-335-3556","addr":"경기도 화성시 남양읍 남양리 1332-1번지","category":"직물 - 카페트,커튼,천막,지물"},{"name":"삼천리자전거(남양점)","tel":"031-355-1477","addr":"경기도 화성시 남양읍 남양리 1332-1번지 101호","category":"레져용품 - 스포츠·레져용품"}]},{"lat":"37.20865486","long":"126.8159364","items":[{"name":"네네치킨","tel":"031-355-4484","addr":"경기도 화성시 남양읍 남양리 1165-15번지","category":"일반휴게음식 - 스넥"},{"name":"보물창고","tel":"031-357-0310","addr":"경기도 화성시 남양읍 남양리 1165-15번지","category":"의류 - 기타의류"}]},{"lat":"37.208487882","long":"126.83060402","items":[{"name":"넥서스에너지(Nex Earth)","tel":"031-492-2049","addr":"경기도 화성시 남양읍 남양리 2039-20번지 103호","category":"기타 - 기계공구"},{"name":"크린에이드 남양점","tel":"031-356-8328","addr":"경기도 화성시 남양읍 남양리 2039-20번지 105호","category":"수리서비스 - 세탁소"},{"name":"킹콩비어","tel":"031-355-4030","addr":"경기도 화성시 남양읍 남양리 2039-20번지 103호","category":"일반휴게음식 - 주점"}]},{"lat":"37.201349849","long":"126.82935867","items":[{"name":"노가리앤비어","tel":"050-5306-1472","addr":"경기도 화성시 남양읍 남양리 2069-4번지","category":"일반휴게음식 - 주점"}]},{"lat":"37.202412045","long":"126.82865786","items":[{"name":"노군수제맥주 화성시청점","tel":"","addr":"경기도 화성시 남양읍 남양리 2064-13번지","category":"일반휴게음식 - 주점"}]},{"lat":"37.210183473","long":"126.8256096","items":[{"name":"노노카페남양도서관점/화성시니어클럽","tel":"031-8059-4348","addr":"경기도 화성시 남양읍 남양리 2255번지 2층","category":"일반휴게음식 - 서양음식"}]},{"lat":"37.202155142","long":"126.82554953","items":[{"name":"노랑통닭(화성시청점)","tel":"031-357-5413","addr":"경기도 화성시 남양읍 남양리 2018-3번지 1층","category":"일반휴게음식 - 스넥"},{"name":"태후사랑화성시청점","tel":"031-357-1876","addr":"경기도 화성시 남양읍 남양리 2018-3번지 102호","category":"보건위생 - 미용원"},{"name":"푸짐한왕족발","tel":"031-355-6577","addr":"경기도 화성시 남양읍 남양리 2018-3번지 1층","category":"일반휴게음식 - 일반한식"}]},{"lat":"37.20987682","long":"126.81949323","items":[{"name":"놀부네감자탕","tel":"031-355-3432","addr":"경기도 화성시 남양읍 남양리 1268-4번지","category":"일반휴게음식 - 일반한식"},{"name":"놀부네감자탕","tel":"031-355-3432","addr":"경기도 화성시 남양읍 남양리 1268-4번지","category":"일반휴게음식 - 일반한식"}]},{"lat":"37.202379455","long":"126.8249182","items":[{"name":"놀이터","tel":"","addr":"경기도 화성시 남양읍 남양리 2017-1번지 1층 102호","category":"의류 - 아동의류"},{"name":"탱크디지털시스템","tel":"031-356-3551","addr":"경기도 화성시 남양읍 남양리 2017-1번지","category":"수리서비스 - 기타수리서비스"}]},{"lat":"37.202655152","long":"126.80022627","items":[{"name":"농업회사법인 주식회사 미래팜","tel":"031-366-7853","addr":"경기도 화성시 남양읍 남양리 399-2번지","category":"음료식품 - 농·축·수산품"},{"name":"화성남양굼벵이","tel":"031-366-7853","addr":"경기도 화성시 남양읍 남양리 399-2번지","category":"음료식품 - 농·축·수산품"}]},{"lat":"37.195133906","long":"126.83019511","items":[{"name":"농업회사법인나눔장마당주식회사","tel":"031-111-1111","addr":"경기도 화성시 남양읍 남양리 2168-6번지","category":"일반휴게음식 - 서양음식"}]},{"lat":"37.208880995","long":"126.83454595","items":[{"name":"뉴타운 홈마트","tel":"031-356-1986","addr":"경기도 화성시 남양읍 남양리 1532-4번지 화성남양뉴타운LH9단지 상가 101 102호","category":"유통업 영리 - 슈퍼마켓"},{"name":"모로칸시크릿","tel":"","addr":"경기도 화성시 남양읍 남양리 1532-4번지 화성남양뉴타운LH9단지 902동 406호","category":"직물 - 카페트,커튼,천막,지물"},{"name":"시립남양9단지어린이집[아이행복]","tel":"031-356-2512","addr":"경기도 화성시 남양읍 남양리 1532-4번지 남양뉴타운A1BL (LH국민임대@)","category":"학원 - 유아원"},{"name":"여름홈케어","tel":"","addr":"경기도 화성시 남양읍 남양리 1532-4번지 화성남양뉴타운LH9단지 903동 1407호","category":"용역 서비스 - 종합용역"},{"name":"오분빨리 대리운전","tel":"031-1600-5082","addr":"경기도 화성시 남양읍 남양리 1532-4번지 화성남양뉴타운LH9단지 903동 503호","category":"보건위생 - 기타대인서비스"},{"name":"하나난방관리","tel":"031-356-1203","addr":"경기도 화성시 남양읍 남양리 1532-4번지 화성남양뉴타운LH9단지 903동 201호","category":"수리서비스 - 기타수리서비스"},{"name":"현송전기","tel":"","addr":"경기도 화성시 남양읍 남양리 1532-4번지 화성남양뉴타운LH9단지 903동 20층 04호","category":"용역 서비스 - 기타용역서비스"}]},{"lat":"37.20129921","long":"126.82558532","items":[{"name":"뉴타운노래연습장","tel":"031-356-3523","addr":"경기도 화성시 남양읍 남양리 2072-3번지 3층","category":"레저업소 - 노 래 방"},{"name":"샹떼PC방 화성시청점","tel":"031-772-0735","addr":"경기도 화성시 남양읍 남양리 2072-3번지 2층","category":"레저업소 - 기타레져업소"},{"name":"연안식당(화성시청점)","tel":"031-356-0055","addr":"경기도 화성시 남양읍 남양리 2072-3번지 1동","category":"일반휴게음식 - 일반한식"}]},{"lat":"37.202328087","long":"126.8267206","items":[{"name":"느루","tel":"031-356-9934","addr":"경기도 화성시 남양읍 남양리 2073-10번지 1층 2,3호","category":"보건위생 - 미용원"}]},{"lat":"37.201524131","long":"126.82535951","items":[{"name":"늘보헤어","tel":"031-355-7565","addr":"경기도 화성시 남양읍 남양리 2072-1번지 101(101호~102호)","category":"보건위생 - 미용원"},{"name":"디자인 무디","tel":"031-357-1986","addr":"경기도 화성시 남양읍 남양리 2072-1번지 역골마루빌딩 501호","category":"용역 서비스 - 사무서비스"},{"name":"트윈필라테스","tel":"031-111-1111","addr":"경기도 화성시 남양읍 남양리 2072-1번지 501호","category":"레저업소 - 헬스클럽"}]},{"lat":"37.203966727","long":"126.82588322","items":[{"name":"늘보헤어라이프","tel":"031-355-7565","addr":"경기도 화성시 남양읍 남양리 2025-6번지","category":"보건위생 - 미용원"}]},{"lat":"37.208560927","long":"126.81924858","items":[{"name":"늘편한약국","tel":"031-355-4879","addr":"경기도 화성시 남양읍 남양리 2252-1번지 위더스프라자 106호","category":"약국 - 약국"},{"name":"카페 서프라이즈","tel":"070-8838-3506","addr":"경기도 화성시 남양읍 남양리 2252-1번지 212호","category":"일반휴게음식 - 서양음식"},{"name":"커피베이 화성남양점","tel":"070-7576-4393","addr":"경기도 화성시 남양읍 남양리 2252-1번지 107호","category":"일반휴게음식 - 서양음식"}]},{"lat":"37.204965559","long":"126.83110767","items":[{"name":"다배520","tel":"031-8055-7705","addr":"경기도 화성시 남양읍 남양리 2049-5번지 1층 101호","category":"음료식품 - 제과점"},{"name":"플로랜비(Floranb)","tel":"031-355-0780","addr":"경기도 화성시 남양읍 남양리 2049-5번지 102호","category":"문화.취미 - 화원"}]},{"lat":"37.200131398","long":"126.82796474","items":[{"name":"다이나믹키친","tel":"031-357-8140","addr":"경기도 화성시 남양읍 남양리 2077-15번지 용진프라자 1층 102,103호","category":"일반휴게음식 - 일반한식"},{"name":"바디바이브","tel":"031-355-6780","addr":"경기도 화성시 남양읍 남양리 2077-15번지 용진프라자 306호","category":"보건위생 - 미용재료"},{"name":"우림한식부폐","tel":"031-355-9480","addr":"경기도 화성시 남양읍 남양리 2077-15번지 용진프라자 1층 105호","category":"일반휴게음식 - 일반한식"},{"name":"파라마운트짐","tel":"031-356-1530","addr":"경기도 화성시 남양읍 남양리 2077-15번지 용진프라자","category":"레저업소 - 헬스클럽"},{"name":"페리카나 화성시청점","tel":"031-357-9275","addr":"경기도 화성시 남양읍 남양리 2077-15번지 용진프라자 1층 104호","category":"일반휴게음식 - 스넥"},{"name":"한잔","tel":"02-2277-4563","addr":"경기도 화성시 남양읍 남양리 2077-15번지 용진프라자 101호","category":"일반휴게음식 - 주점"}]},{"lat":"37.206578769","long":"126.83135184","items":[{"name":"다인헤어","tel":"031-355-6615","addr":"경기도 화성시 남양읍 남양리 2046-7번지 1층 일부","category":"보건위생 - 미용원"},{"name":"요미상회","tel":"02-1111-1111","addr":"경기도 화성시 남양읍 남양리 2046-7번지 1층 102호","category":"일반휴게음식 - 서양음식"}]},{"lat":"37.200489473","long":"126.82638696","items":[{"name":"다함께야구왕 화성시청점","tel":"031-356-9888","addr":"경기도 화성시 남양읍 남양리 2072-11번지 7층 701호","category":"레저업소 - 기타레져업소"},{"name":"데이지","tel":"031-000-0000","addr":"경기도 화성시 남양읍 남양리 2072-11번지 1층 109호","category":"일반휴게음식 - 서양음식"},{"name":"라메이즈마라탕","tel":"070-8286-6788","addr":"경기도 화성시 남양읍 남양리 2072-11번지 메인프라자 1층 112호","category":"일반휴게음식 - 중국식"},{"name":"레브(REVE)안경원","tel":"031-366-9311","addr":"경기도 화성시 남양읍 남양리 2072-11번지 메인프라자 103,104호","category":"보건위생 - 안경"},{"name":"메인1 볼링장","tel":"","addr":"경기도 화성시 남양읍 남양리 2072-11번지 501동 504호","category":"레저업소 - 볼 링 장"},{"name":"메인II볼링장","tel":"","addr":"경기도 화성시 남양읍 남양리 2072-11번지 5층 505-508호","category":"레저업소 - 볼 링 장"},{"name":"메인음식점","tel":"","addr":"경기도 화성시 남양읍 남양리 2072-11번지 메인프라자 5층 508호","category":"일반휴게음식 - 일반한식"},{"name":"메인프로샵","tel":"031-366-8007","addr":"경기도 화성시 남양읍 남양리 2072-11번지 메인프라자 5층 504호","category":"레져용품 - 스포츠·레져용품"},{"name":"미남술집","tel":"031-356-0799","addr":"경기도 화성시 남양읍 남양리 2072-11번지 2층 208호","category":"일반휴게음식 - 주점"},{"name":"배치과의원","tel":"031-275-2875","addr":"경기도 화성시 남양읍 남양리 2072-11번지 4층 403,404호","category":"의원 - 치과의원"},{"name":"본주짓수아카데미남양","tel":"031-366-9963","addr":"경기도 화성시 남양읍 남양리 2072-11번지","category":"레저업소 - 헬스클럽"},{"name":"블럭제빵소 화성남양점","tel":"031-357-5477","addr":"경기도 화성시 남양읍 남양리 2072-11번지 1층 106호","category":"음료식품 - 제과점"},{"name":"이마트24 화성시청점","tel":"031-1111-1111","addr":"경기도 화성시 남양읍 남양리 2072-11번지 메인프라자 1층 113호","category":"유통업 영리 - 편 의 점"},{"name":"이마트24 화성시청점","tel":"","addr":"경기도 화성시 남양읍 남양리 2072-11번지 메인프라자 1층 113호","category":"유통업 영리 - 편 의 점"},{"name":"주식회사 아르스마터(명불허전 원조골뱅이)","tel":"031-356-3955","addr":"경기도 화성시 남양읍 남양리 2072-11번지 110호","category":"일반휴게음식 - 일반한식"},{"name":"케이폴앤댄스(K POLE&SANCE)","tel":"031-356-6941","addr":"경기도 화성시 남양읍 남양리 2072-11번지 6층 605~607호","category":"학원 - 예·체능계학원"},{"name":"피크바이짐 남양점","tel":"031-375-2003","addr":"경기도 화성시 남양읍 남양리 2072-11번지 메인프라자 401동 4층 402호","category":"레저업소 - 헬스클럽"},{"name":"헤어팡팡 화성시청점","tel":"031-356-5479","addr":"경기도 화성시 남양읍 남양리 2072-11번지 201,202호","category":"보건위생 - 미용원"},{"name":"호치킨화성시청점","tel":"031-356-3222","addr":"경기도 화성시 남양읍 남양리 2072-11번지 1층 107호","category":"일반휴게음식 - 스넥"},{"name":"휴 체형관리","tel":"02-000-0000","addr":"경기도 화성시 남양읍 남양리 2072-11번지 406호 407호","category":"보건위생 - 피부미용실"}]},{"lat":"37.205380544","long":"126.80813805","items":[{"name":"단미핫요가","tel":"031-355-6933","addr":"경기도 화성시 남양읍 남양리 468번지 201호","category":"레저업소 - 헬스클럽"},{"name":"몽지원바디케어트레이닝센터","tel":"031-355-7497","addr":"경기도 화성시 남양읍 남양리 468번지","category":"레져용품 - 스포츠·레져용품"},{"name":"월수금통돼지잡는집5호","tel":"031-355-5519","addr":"경기도 화성시 남양읍 남양리 468번지 가동 1층","category":"일반휴게음식 - 일반한식"},{"name":"이모네","tel":"","addr":"경기도 화성시 남양읍 남양리 468번지 1층 2호","category":"일반휴게음식 - 일반한식"}]},{"lat":"37.205048674","long":"126.82635381","items":[{"name":"달달향기꽃케이크","tel":"031-366-8437","addr":"경기도 화성시 남양읍 남양리 2026-7번지 1층","category":"문화.취미 - 문화취미기타"}]},{"lat":"37.197076782","long":"126.83411036","items":[{"name":"달맞이 정통한우","tel":"031-357-0606","addr":"경기도 화성시 남양읍 남양리 1856-81번지","category":"일반휴게음식 - 일반한식"}]},{"lat":"37.202049084","long":"126.82693527","items":[{"name":"달코인노래연습장","tel":"","addr":"경기도 화성시 남양읍 남양리 2074-8번지 돈박프라자 2층 203호","category":"레저업소 - 노 래 방"},{"name":"둥지노래연습장","tel":"","addr":"경기도 화성시 남양읍 남양리 2074-8번지 돈박프라자 2층 203호","category":"레저업소 - 노 래 방"},{"name":"디테일랩","tel":"070-8616-0152","addr":"경기도 화성시 남양읍 남양리 2074-8번지 돈박프라자 지하1층 101,102호","category":"일반휴게음식 - 주점"},{"name":"새마을식당 화성남양점","tel":"031-355-8355","addr":"경기도 화성시 남양읍 남양리 2074-8번지 돈박프라자 1층 101,102호","category":"일반휴게음식 - 일반한식"},{"name":"조마루감자탕화성시청점","tel":"031-356-6226","addr":"경기도 화성시 남양읍 남양리 2074-8번지","category":"일반휴게음식 - 일반한식"},{"name":"주식회사유일콥","tel":"031-366-8799","addr":"경기도 화성시 남양읍 남양리 2074-8번지 돈박프라자비 9동 103호","category":"회원제형태 - 레져업소"},{"name":"킹콩PC방","tel":"02-222-2222","addr":"경기도 화성시 남양읍 남양리 2074-8번지 돈박프라자 4층 402,403호","category":"레저업소 - 기타레져업소"},{"name":"화성당구장","tel":"031-356-5732","addr":"경기도 화성시 남양읍 남양리 2074-8번지 돈박프라자 지하1층","category":"레저업소 - 당 구 장"}]},{"lat":"37.201241889","long":"126.82947156","items":[{"name":"담따","tel":"031-1111-1111","addr":"경기도 화성시 남양읍 남양리 2069-5번지 1층 101호","category":"일반휴게음식 - 서양음식"},{"name":"담따","tel":"031-1111-1111","addr":"경기도 화성시 남양읍 남양리 2069-5번지 1층 101호","category":"일반휴게음식 - 일반한식"}]},{"lat":"37.194301623","long":"126.83413906","items":[{"name":"대광세탁소","tel":"031-355-8688","addr":"경기도 화성시 남양읍 남양리 2002번지 대광프라자 104동 105호","category":"수리서비스 - 세탁소"},{"name":"본스치킨","tel":"031-355-9282","addr":"경기도 화성시 남양읍 남양리 2002번지 대광파인밸리아파트 110호","category":"일반휴게음식 - 스넥"},{"name":"옵스헤어클럽","tel":"031-355-7244","addr":"경기도 화성시 남양읍 남양리 2002번지","category":"보건위생 - 미용원"},{"name":"용인대 힘찬 음악 줄넘기","tel":"031-355-7665","addr":"경기도 화성시 남양읍 남양리 2002번지 대광파인밸리아파트 4층 403호","category":"레저업소 - 기타레져업소"},{"name":"이레요가&필라테스","tel":"031-000-0000","addr":"경기도 화성시 남양읍 남양리 2002번지 대광파인밸리 304호, 305호 일부","category":"레저업소 - 헬스클럽"},{"name":"잉글리쉬101영어교습소","tel":"","addr":"경기도 화성시 남양읍 남양리 2002번지 대광프라자 102호","category":"학원 - 보습학원"},{"name":"짝꿍노래연습장","tel":"","addr":"경기도 화성시 남양읍 남양리 2002번지 대광파인밸리상가1동 102호,103호","category":"레저업소 - 노 래 방"}]},{"lat":"37.204352551","long":"126.82480093","items":[{"name":"대광카센타","tel":"031-355-5504","addr":"경기도 화성시 남양읍 남양리 2011-3번지","category":"자동차정비 유지 - 자동차정비"}]},{"lat":"37.200994086","long":"126.82640831","items":[{"name":"대동집화성시청점","tel":"031-355-1094","addr":"경기도 화성시 남양읍 남양리 2075-1번지 1층 103호","category":"일반휴게음식 - 일반한식"},{"name":"이차돌 화성남양점","tel":"031-111-1111","addr":"경기도 화성시 남양읍 남양리 2075-1번지 1층 102호","category":"일반휴게음식 - 일반한식"}]},{"lat":"37.207904539","long":"126.81438367","items":[{"name":"대명멀티샵","tel":"031-355-8445","addr":"경기도 화성시 남양읍 남양리 667","category":"건축자재 - 유리"},{"name":"하이런","tel":"031-123-4567","addr":"경기도 화성시 남양읍 남양리 667번지","category":"문화.취미 - 애완동물"},{"name":"허그도그","tel":"031-356-1299","addr":"경기도 화성시 남양읍 남양리 667번지","category":"문화.취미 - 애완동물"}]},{"lat":"37.205491386","long":"126.82716384","items":[{"name":"대박(DB)푸드","tel":"031-355-0388","addr":"경기도 화성시 남양읍 남양리 2034-10번지 1층 102호","category":"일반휴게음식 - 일반한식"}]},{"lat":"37.207988984","long":"126.81650129","items":[{"name":"대박생고기","tel":"031-357-7984","addr":"경기도 화성시 남양읍 남양리 1172-30번지","category":"일반휴게음식 - 일반한식"},{"name":"쎄미치킨","tel":"031-355-9094","addr":"경기도 화성시 남양읍 남양리 1172-30번지","category":"일반휴게음식 - 주점"},{"name":"어부직영회구이","tel":"031-355-4991","addr":"경기도 화성시 남양읍 남양리 1172-30번지","category":"일반휴게음식 - 일반한식"}]},{"lat":"37.20774535","long":"126.81627659","items":[{"name":"대박슈퍼","tel":"031-356-5320","addr":"경기도 화성시 남양읍 남양리 1172-13번지","category":"유통업 영리 - 슈퍼마켓"},{"name":"보건한의원","tel":"031-355-7570","addr":"경기도 화성시 남양읍 남양리 1172-13번지 2층","category":"의원 - 한의원"}]},{"lat":"37.209161459","long":"126.81721939","items":[{"name":"대박축산","tel":"031-111-1111","addr":"경기도 화성시 남양읍 남양리 1225-2번지","category":"음료식품 - 정육점"},{"name":"머리이야기","tel":"031-355-3073","addr":"경기도 화성시 남양읍 남양리 1225-2번지","category":"보건위생 - 미용원"}]},{"lat":"37.203633184","long":"126.83191047","items":[{"name":"대산종합목재","tel":"031-356-5270","addr":"경기도 화성시 남양읍 남양리 2055-18","category":"건축자재 - 목재·석재·철물"}]},{"lat":"37.206938954","long":"126.83119332","items":[{"name":"대수학","tel":"031-355-8508","addr":"경기도 화성시 남양읍 남양리 2046-3번지 1층","category":"회원제형태 - 학원"}]},{"lat":"37.213708762","long":"126.82711098","items":[{"name":"대승철물","tel":"031-356-4910","addr":"경기도 화성시 남양읍 남양리 1351-12번지","category":"건축자재 - 목재·석재·철물"}]},{"lat":"37.210156576","long":"126.81977419","items":[{"name":"대양카세차장","tel":"031-356-4707","addr":"경기도 화성시 남양읍 남양리 1270-3번지","category":"자동차정비 유지 - 세차장"},{"name":"맛나식당","tel":"031-356-9100","addr":"경기도 화성시 남양읍 남양리 1270-3번지","category":"일반휴게음식 - 일반한식"},{"name":"본시루","tel":"031-505-2528","addr":"경기도 화성시 남양읍 남양리 1270-3번지 2동 1층","category":"음료식품 - 제과점"},{"name":"세상사는이야기","tel":"0505-297-3401","addr":"경기도 화성시 남양읍 남양리 1270-3번지","category":"일반휴게음식 - 일반한식"},{"name":"자금성","tel":"031-000-0000","addr":"경기도 화성시 남양읍 남양리 1270-3번지 1층","category":"일반휴게음식 - 중국식"},{"name":"포맨","tel":"031-355-0409","addr":"경기도 화성시 남양읍 남양리 1270-3","category":"보건위생 - 미용원"}]},{"lat":"37.202409347","long":"126.82683305","items":[{"name":"대파양곱창","tel":"031-366-8294","addr":"경기도 화성시 남양읍 남양리 2073-11번지 대파양곱창","category":"일반휴게음식 - 일반한식"},{"name":"알콩달콩얌얌 남양점","tel":"031-355-0442","addr":"경기도 화성시 남양읍 남양리 2073-11번지 204호","category":"일반휴게음식 - 일반한식"},{"name":"종로맥가 화성시청점","tel":"","addr":"경기도 화성시 남양읍 남양리 2073-11번지 2층 201,202,203호","category":"일반휴게음식 - 일반한식"},{"name":"훌랄라바베큐치킨 (화성시청점)","tel":"","addr":"경기도 화성시 남양읍 남양리 2073-11번지 1층 101호","category":"일반휴게음식 - 일반한식"}]},{"lat":"37.211602497","long":"126.8225533","items":[{"name":"대평건재","tel":"031-356-5065","addr":"경기도 화성시 남양읍 남양리 1332-7번지 105호","category":"건축자재 - 목재·석재·철물"}]},{"lat":"37.203854142","long":"126.80058353","items":[{"name":"대호공구","tel":"031-356-7400","addr":"경기도 화성시 남양읍 남양리 326-5번지","category":"기타 - 기계공구"}]},{"lat":"37.209520048","long":"126.81605818","items":[{"name":"대흥열쇠","tel":"031-357-8043","addr":"경기도 화성시 남양읍 남양리 1163-14번지","category":"건축자재 - 목재·석재·철물"},{"name":"풍년떡집","tel":"031-356-3940","addr":"경기도 화성시 남양읍 남양리 1163-14번지","category":"음료식품 - 제과점"}]},{"lat":"37.2054371","long":"126.83319057","items":[{"name":"더문(The Moon)","tel":"031-356-3266","addr":"경기도 화성시 남양읍 남양리 2051-9번지","category":"일반휴게음식 - 일반한식"}]},{"lat":"37.201743601","long":"126.82752171","items":[{"name":"덕수보쌈한판","tel":"031-357-8957","addr":"경기도 화성시 남양읍 남양리 2075-12번지 1층 102호","category":"일반휴게음식 - 일반한식"},{"name":"미스터숯불닭갈비","tel":"031-366-9796","addr":"경기도 화성시 남양읍 남양리 2075-12번지 1층 104,105,106호","category":"일반휴게음식 - 일반한식"}]},{"lat":"37.211022645","long":"126.82047056","items":[{"name":"도미노피자화성남양점","tel":"031-355-3083","addr":"경기도 화성시 남양읍 남양리 1276-5번지 101호","category":"일반휴게음식 - 서양음식"},{"name":"율리야식당","tel":"031-358-3048","addr":"경기도 화성시 남양읍 남양리 1276-5번지 1층 102호","category":"일반휴게음식 - 일반한식"}]},{"lat":"37.202821131","long":"126.82502981","items":[{"name":"도산족발&미스터빠삭","tel":"031-355-2507","addr":"경기도 화성시 남양읍 남양리 2016-13번지 1층","category":"일반휴게음식 - 일반한식"}]},{"lat":"37.207578568","long":"126.8133819","items":[{"name":"도시와배","tel":"031-357-4825","addr":"경기도 화성시 남양읍 남양리 525번지","category":"일반휴게음식 - 주점"},{"name":"디디치킨남양점","tel":"031-357-4825","addr":"경기도 화성시 남양읍 남양리 525번지 3층 2호","category":"일반휴게음식 - 스넥"}]},{"lat":"37.208077437","long":"126.82721417","items":[{"name":"도야족발보쌈(화성남양점)","tel":"070-4254-0160","addr":"경기도 화성시 남양읍 남양리 2279-1번지 105호","category":"일반휴게음식 - 주점"},{"name":"편해점 남양점","tel":"031-356-4435","addr":"경기도 화성시 남양읍 남양리 2279-1번지 1층 102호","category":"유통업 영리 - 편 의 점"},{"name":"편해점 남양점/삼원FA(담배)","tel":"031-356-4435","addr":"경기도 화성시 남양읍 남양리 2279-1번지 1층 102호","category":"기타 - 기타 전문점"}]},{"lat":"37.200796076","long":"126.8265552","items":[{"name":"돈넥","tel":"031-356-8883","addr":"경기도 화성시 남양읍 남양리 2075-22번지","category":"일반휴게음식 - 일반한식"}]},{"lat":"37.201520385","long":"126.82890772","items":[{"name":"돈통마늘보쌈화성시청점","tel":"031-357-5651","addr":"경기도 화성시 남양읍 남양리 2069-1번지 1층","category":"일반휴게음식 - 일반한식"}]},{"lat":"37.209988995","long":"126.83435198","items":[{"name":"동광팩","tel":"031-356-2356","addr":"경기도 화성시 남양읍 남양리 1537-5","category":"기타 - 기타 전문점"}]},{"lat":"37.209216613","long":"126.8179177","items":[{"name":"동그라미카페","tel":"031-357-9488","addr":"경기도 화성시 남양읍 남양리 1230번지","category":"일반휴게음식 - 서양음식"},{"name":"삼거리통닭","tel":"031-356-0907","addr":"경기도 화성시 남양읍 남양리 1230번지","category":"일반휴게음식 - 일반한식"}]},{"lat":"37.204766218","long":"126.80177514","items":[{"name":"동남그래픽","tel":"031-355-3616","addr":"경기도 화성시 남양읍 남양리 311-1","category":"건축자재 - 인테리어전문"},{"name":"우림카센터","tel":"031-355-6203","addr":"경기도 화성시 남양읍 남양리 311-1번지","category":"자동차정비 유지 - 자동차정비"},{"name":"화성낚시슈퍼","tel":"031-356-1844","addr":"경기도 화성시 남양읍 남양리 311-1","category":"유통업 영리 - 슈퍼마켓"},{"name":"화성자동차밧데리","tel":"02-1111-1111","addr":"경기도 화성시 남양읍 남양리 311-1번지 가동 1층","category":"자동차정비 유지 - 자동차부품"}]},{"lat":"37.209740248","long":"126.81858107","items":[{"name":"동부한농종묘농약사","tel":"031-356-3944","addr":"경기도 화성시 남양읍 남양리 1267-11번지","category":"농업 - 비료,사료,종자"},{"name":"페리카나치킨","tel":"031-357-8046","addr":"경기도 화성시 남양읍 남양리 1267-11번지","category":"일반휴게음식 - 주점"}]},{"lat":"37.213185844","long":"126.81515914","items":[{"name":"동아전기","tel":"031-356-8878","addr":"경기도 화성시 남양읍 남양리 55-12번지","category":"전기제품 - 기타전기제품"}]},{"lat":"37.206771928","long":"126.8218889","items":[{"name":"동양초등학교병설유치원","tel":"031-355-4053","addr":"경기도 화성시 남양읍 남양리 1652번지","category":"학원 - 유치원"}]},{"lat":"37.20424553","long":"126.83166127","items":[{"name":"동인기업","tel":"031-417-5085","addr":"경기도 화성시 남양읍 남양리 2050-11번지","category":"건축자재 - 유리"}]},{"lat":"37.200410635","long":"126.82790777","items":[{"name":"동현상사","tel":"031-356-8811","addr":"경기도 화성시 남양읍 남양리 2077-4번지 성창빌딩 206호","category":"기타 - 기계공구"},{"name":"비어싸롱","tel":"031-356-5279","addr":"경기도 화성시 남양읍 남양리 2077-4번지 성창빌딩 103호","category":"일반휴게음식 - 일반한식"},{"name":"우리들만의아지트","tel":"","addr":"경기도 화성시 남양읍 남양리 2077-4번지 101호","category":"일반휴게음식 - 서양음식"},{"name":"하와이호텔","tel":"031-356-7373","addr":"경기도 화성시 남양읍 남양리 2077-4번지 성창빌딩 5,6,7층","category":"숙박업 - 여관/기타숙박업"}]},{"lat":"37.203212982","long":"126.79975168","items":[{"name":"두꺼비철물","tel":"031-355-5403","addr":"경기도 화성시 남양읍 남양리 389-6번지 남양공구유통상가 B-1호","category":"기타 - 기계공구"},{"name":"화성안전상사","tel":"031-355-1294","addr":"경기도 화성시 남양읍 남양리 389-6번지","category":"의류 - 기타의류"}]},{"lat":"37.208933754","long":"126.81566535","items":[{"name":"두부마을 남양점","tel":"031-355-7669","addr":"경기도 화성시 남양읍 남양리 1167번지 1층 일부","category":"음료식품 - 기타음료식품"},{"name":"둘리분식(스넥)","tel":"031-357-5509","addr":"경기도 화성시 남양읍 남양리 1167번지","category":"일반휴게음식 - 스넥"},{"name":"뽕뽕마을","tel":"031-355-0952","addr":"경기도 화성시 남양읍 남양리 1167번지","category":"일반휴게음식 - 스넥"},{"name":"재영전기재료","tel":"031-356-2226","addr":"경기도 화성시 남양읍 남양리 1167번지","category":"전기제품 - 기타전기제품"}]},{"lat":"37.203212304","long":"126.82752958","items":[{"name":"두원손두부","tel":"031-357-3021","addr":"경기도 화성시 남양읍 남양리 2032-6번지 1층","category":"일반휴게음식 - 일반한식"}]},{"lat":"37.20154977","long":"126.83051842","items":[{"name":"들앤숲에서","tel":"031-000-0000","addr":"경기도 화성시 남양읍 남양리 2067-7번지 1층 101호","category":"가구 - 일반가구"}]},{"lat":"37.204795893","long":"126.83216693","items":[{"name":"따숨공방","tel":"031-357-8026","addr":"경기도 화성시 남양읍 남양리 2052-12번지 102호","category":"직물 - 침구·수예점"},{"name":"우리별빛반찬","tel":"031-357-7666","addr":"경기도 화성시 남양읍 남양리 2052-12번지 1층 101호","category":"음료식품 - 기타음료식품"}]},{"lat":"37.208709242","long":"126.81613904","items":[{"name":"딸바보샵","tel":"","addr":"경기도 화성시 남양읍 남양리 1165-11번지","category":"의류 - 아동의류"},{"name":"진명군구장식","tel":"031-356-2016","addr":"경기도 화성시 남양읍 남양리 1165-11번지","category":"서적문구 - 문구용품"}]},{"lat":"37.203326992","long":"126.82588472","items":[{"name":"또봉이통닭","tel":"031-356-1141","addr":"경기도 화성시 남양읍 남양리 2020-4번지","category":"일반휴게음식 - 스넥"},{"name":"헤어 메이드 바이(Hair made by)지은","tel":"031-355-2057","addr":"경기도 화성시 남양읍 남양리 2020-4번지","category":"보건위생 - 미용원"}]},{"lat":"37.21407787","long":"126.80955775","items":[{"name":"뜰안에","tel":"031-356-0196","addr":"경기도 화성시 남양읍 남양리 103번지","category":"일반휴게음식 - 일반한식"}]},{"lat":"37.204878523","long":"126.80425306","items":[{"name":"라벨르헤어","tel":"031-356-9062","addr":"경기도 화성시 남양읍 남양리 415-2번지 우림그린빌리지 상가 A동 102호","category":"보건위생 - 미용원"},{"name":"우림마트","tel":"031-355-3662","addr":"경기도 화성시 남양읍 남양리 415-2번지 우림상가 A-101호","category":"유통업 영리 - 슈퍼마켓"},{"name":"천재해법수학학원","tel":"031-355-5553","addr":"경기도 화성시 남양읍 남양리 415-2번지 우림그린빌리지 상가 A동 205호","category":"학원 - 보습학원"}]},{"lat":"37.20196779","long":"126.82680029","items":[{"name":"라이또PC남양점","tel":"070-3176-6990","addr":"경기도 화성시 남양읍 남양리 2074-7번지 3층","category":"레저업소 - 기타레져업소"},{"name":"주돈가","tel":"031-355-3990","addr":"경기도 화성시 남양읍 남양리 2074-7번지","category":"일반휴게음식 - 일반한식"},{"name":"토마토노래연습장","tel":"031-356-7874","addr":"경기도 화성시 남양읍 남양리 2074-7번지 4층","category":"레저업소 - 노 래 방"}]},{"lat":"37.207795572","long":"126.81385449","items":[{"name":"라인투어","tel":"031-356-6658","addr":"경기도 화성시 남양읍 남양리 525-1번지 2층","category":"여행 - 관광여행"},{"name":"쏘냐헤어(ssonya hair)","tel":"","addr":"경기도 화성시 남양읍 남양리 525-1번지 1층","category":"보건위생 - 미용원"},{"name":"행정카페","tel":"031-358-5094","addr":"경기도 화성시 남양읍 남양리 525-1번지 1층 1호","category":"일반휴게음식 - 서양음식"}]},{"lat":"37.201103165","long":"126.82705011","items":[{"name":"락스테디크로스핏화성시청점","tel":"070-4714-8482","addr":"경기도 화성시 남양읍 남양리 2075-18번지","category":"레저업소 - 헬스클럽"}]},{"lat":"37.207270518","long":"126.82994216","items":[{"name":"란폴 아카데미(Ran Pole Academy)","tel":"031-000-0000","addr":"경기도 화성시 남양읍 남양리 2041-2번지 상가동 1층 101호","category":"학원 - 예·체능계학원"}]},{"lat":"37.20068964","long":"126.82769311","items":[{"name":"랑데뷰노래연습장","tel":"031-356-5666","addr":"경기도 화성시 남양읍 남양리 2076-13번지","category":"레저업소 - 노 래 방"},{"name":"세븐노래연습장","tel":"031-366-7710","addr":"경기도 화성시 남양읍 남양리 2076-13번지 7층","category":"레저업소 - 노 래 방"},{"name":"앗싸노래연습장","tel":"070-8947-4490","addr":"경기도 화성시 남양읍 남양리 2076-13번지 402호","category":"레저업소 - 노 래 방"},{"name":"한남동그집","tel":"031-000-0000","addr":"경기도 화성시 남양읍 남양리 2076-13번지 1층 101호","category":"일반휴게음식 - 주점"},{"name":"한마음노래연습장","tel":"031-356-5950","addr":"경기도 화성시 남양읍 남양리 2076-13번지 201호","category":"레저업소 - 노 래 방"}]},{"lat":"37.207544574","long":"126.81466619","items":[{"name":"러블리헤어","tel":"031-355-1144","addr":"경기도 화성시 남양읍 남양리 670-4번지","category":"보건위생 - 미용원"},{"name":"복청","tel":"031-355-7577","addr":"경기도 화성시 남양읍 남양리 670-4번지","category":"일반휴게음식 - 일식·회집"}]},{"lat":"37.210409425","long":"126.80338239","items":[{"name":"로뎀나무어린이집[아이행복]","tel":"031-357-9737","addr":"경기도 화성시 남양읍 남양리 255-9번지","category":"학원 - 유아원"}]},{"lat":"37.203987888","long":"126.82199693","items":[{"name":"로웰 필라테스","tel":"070-7514-1108","addr":"경기도 화성시 남양읍 남양리 2294-8번지 일영프라자 302호","category":"레저업소 - 헬스클럽"},{"name":"몬스터펫샵 화성시청점","tel":"070-8860-3368","addr":"경기도 화성시 남양읍 남양리 2294-8번지 104호 105호","category":"문화.취미 - 애완동물"},{"name":"미소야 화성남양점","tel":"031-945-8286","addr":"경기도 화성시 남양읍 남양리 2294-8번지 103호","category":"일반휴게음식 - 일식·회집"},{"name":"샤를롯데 키즈카페","tel":"031-355-7313","addr":"경기도 화성시 남양읍 남양리 2294-8번지 4층 일부","category":"레저업소 - 기타레져업소"},{"name":"실비아발레학원","tel":"031-356-5325","addr":"경기도 화성시 남양읍 남양리 2294-8번지 일영프라자 501호","category":"학원 - 예·체능계학원"},{"name":"조은축산","tel":"031-355-2247","addr":"경기도 화성시 남양읍 남양리 2294-8번지 102호 101호, 102호","category":"음료식품 - 정육점"},{"name":"토즈 멤버십라운지 남양센터","tel":"031-356-3631","addr":"경기도 화성시 남양읍 남양리 2294-8번지 일영프라자 2층 202호","category":"용역 서비스 - 사무서비스"},{"name":"토즈스터디센터 남양 독서실","tel":"031-356-3631","addr":"경기도 화성시 남양읍 남양리 2294-8번지","category":"학원 - 독서실"}]},{"lat":"37.20577097","long":"126.82136185","items":[{"name":"루나틱커피(Lunartic offee)","tel":"031-356-0658","addr":"경기도 화성시 남양읍 남양리 2258-9번지 1층","category":"일반휴게음식 - 서양음식"}]},{"lat":"37.208879905","long":"126.81580066","items":[{"name":"루디아","tel":"031-8058-7500","addr":"경기도 화성시 남양읍 남양리 1166-4번지","category":"의류 - 정장"},{"name":"아르페지오","tel":"031-355-3881","addr":"경기도 화성시 남양읍 남양리 1166-4번지","category":"직물 - 침구·수예점"},{"name":"헤어스토리","tel":"031-357-5524","addr":"경기도 화성시 남양읍 남양리 1166-4번지 1층","category":"보건위생 - 미용원"}]},{"lat":"37.210517928","long":"126.82038165","items":[{"name":"룰루랄라노래연습장","tel":"031-355-2034","addr":"경기도 화성시 남양읍 남양리 1270-6번지","category":"레저업소 - 노 래 방"},{"name":"현대꽃화원","tel":"031-356-3438","addr":"경기도 화성시 남양읍 남양리 1270-6번지","category":"문화.취미 - 화원"}]},{"lat":"37.201849498","long":"126.82602334","items":[{"name":"룽루앙태국마사지","tel":"031-355-9151","addr":"경기도 화성시 남양읍 남양리 2073-4번지","category":"보건위생 - 화장품"},{"name":"에도주막","tel":"","addr":"경기도 화성시 남양읍 남양리 2073-4번지 1동 1층 102호","category":"일반휴게음식 - 일식·회집"},{"name":"풍미마라탕","tel":"031-355-5737","addr":"경기도 화성시 남양읍 남양리 2073-4번지 101호","category":"일반휴게음식 - 중국식"}]},{"lat":"37.202543429","long":"126.82611183","items":[{"name":"리안헤어","tel":"031-356-1489","addr":"경기도 화성시 남양읍 남양리 2018-8번지 1층 102호","category":"보건위생 - 미용원"}]},{"lat":"37.201300068","long":"126.82615979","items":[{"name":"리얼야구존화성시청점","tel":"031-366-8448","addr":"경기도 화성시 남양읍 남양리 2074-17번지 2층","category":"레저업소 - 기타레져업소"},{"name":"에픽짐","tel":"031-356-0999","addr":"경기도 화성시 남양읍 남양리 2074-17번지 1동 403호","category":"레저업소 - 헬스클럽"},{"name":"커피수엔틱소품가구","tel":"031-355-1504","addr":"경기도 화성시 남양읍 남양리 2074-17번지 1동 1층 103,104호","category":"일반휴게음식 - 서양음식"},{"name":"커피수엔틱소품가구","tel":"031-355-1504","addr":"경기도 화성시 남양읍 남양리 2074-17번지 1동 1층 103,104호","category":"가구 - 일반가구"},{"name":"헌터PC 화성시청점","tel":"070-6675-9882","addr":"경기도 화성시 남양읍 남양리 2074-17번지 3층","category":"레저업소 - 기타레져업소"}]},{"lat":"37.202685671","long":"126.82482737","items":[{"name":"린필라테스(Lynn pilates)","tel":"031-356-7170","addr":"경기도 화성시 남양읍 남양리 2016-15번지","category":"레저업소 - 헬스클럽"}]},{"lat":"37.203129672","long":"126.82649345","items":[{"name":"림 해양꼬치","tel":"031-356-9569","addr":"경기도 화성시 남양읍 남양리 2028-9번지 102호","category":"일반휴게음식 - 일반한식"}]},{"lat":"37.203321338","long":"126.79988656","items":[{"name":"마도볼트","tel":"031-355-0644","addr":"경기도 화성시 남양읍 남양리 389-2번지 남양공구유통상가 108동 109호","category":"기타 - 기계공구"}]},{"lat":"37.195052197","long":"126.79605671","items":[{"name":"마도할인마트","tel":"031-355-9466","addr":"경기도 화성시 남양읍 남양리 1064-7번지","category":"유통업 영리 - 슈퍼마켓"},{"name":"세븐일레븐화성마도산단점","tel":"","addr":"경기도 화성시 남양읍 남양리 1064-7번지","category":"유통업 영리 - 편 의 점"},{"name":"태평양종합상사","tel":"031-355-7274","addr":"경기도 화성시 남양읍 남양리 1064-7번지","category":"건축자재 - 목재·석재·철물"}]},{"lat":"37.202688755","long":"126.83947093","items":[{"name":"마루케터링","tel":"031-356-3679","addr":"경기도 화성시 남양읍 남양리 1479번지 신경대학교","category":"일반휴게음식 - 위탁급식업"},{"name":"블루포트 신경대학교점","tel":"031-1111-1111","addr":"경기도 화성시 남양읍 남양리 1479번지 1층 신경대학교","category":"일반휴게음식 - 서양음식"},{"name":"주식회사 늘푸르다","tel":"031-1111-1111","addr":"경기도 화성시 남양읍 남양리 1479번지 신경대학교","category":"음료식품 - 기타음료식품"}]},{"lat":"37.205356265","long":"126.82718668","items":[{"name":"마미야미참앤참","tel":"031-357-8452","addr":"경기도 화성시 남양읍 남양리 2034-9번지 1층","category":"일반휴게음식 - 일반한식"}]},{"lat":"37.205155624","long":"126.831693","items":[{"name":"마사(masa)","tel":"031-357-3381","addr":"경기도 화성시 남양읍 남양리 2050-4번지 1층 102호","category":"음료식품 - 제과점"}]},{"lat":"37.20196161","long":"126.82871521","items":[{"name":"마시따 초밥&이자카야","tel":"031-366-7745","addr":"경기도 화성시 남양읍 남양리 2063-8번지 101호","category":"일반휴게음식 - 일식·회집"}]},{"lat":"37.214070759","long":"126.81636241","items":[{"name":"마이카정비","tel":"031-356-8651","addr":"경기도 화성시 남양읍 남양리 1098번지 나동 6호","category":"자동차정비 유지 - 자동차정비"},{"name":"배터리할인마트","tel":"031-355-2257","addr":"경기도 화성시 남양읍 남양리 1098번지","category":"자동차정비 유지 - 자동차부품"},{"name":"장강","tel":"031-355-8828","addr":"경기도 화성시 남양읍 남양리 1098외1필지","category":"일반휴게음식 - 중국식"}]},{"lat":"37.208078199","long":"126.81593782","items":[{"name":"마임남양지사","tel":"031-356-8391","addr":"경기도 화성시 남양읍 남양리 1169-3번지","category":"보건위생 - 화장품"},{"name":"엠버","tel":"031-352-1673","addr":"경기도 화성시 남양읍 남양리 1169-3번지","category":"의류 - 정장"},{"name":"청산","tel":"031-355-2703","addr":"경기도 화성시 남양읍 남양리 1169-3번지","category":"일반휴게음식 - 일반한식"}]},{"lat":"37.202879986","long":"126.82825126","items":[{"name":"만리장성","tel":"070-7614-3579","addr":"경기도 화성시 남양읍 남양리 2061-9번지 102호","category":"일반휴게음식 - 중국식"}]},{"lat":"37.208490873","long":"126.81479902","items":[{"name":"만물사(알뜰매장)","tel":"031-356-2433","addr":"경기도 화성시 남양읍 남양리 657-4번지","category":"가구 - 일반가구"}]},{"lat":"37.210047894","long":"126.81941396","items":[{"name":"만우복식당","tel":"031-355-0290","addr":"경기도 화성시 남양읍 남양리 1267-25번지","category":"일반휴게음식 - 일반한식"},{"name":"준콜렉션","tel":"031-356-7202","addr":"경기도 화성시 남양읍 남양리 1267-25번지","category":"의류 - 정장"},{"name":"지짐이어때","tel":"031-355-8988","addr":"경기도 화성시 남양읍 남양리 1267-25번지","category":"일반휴게음식 - 주점"},{"name":"형이네 칼국수","tel":"031-357-9492","addr":"경기도 화성시 남양읍 남양리 1267-25번지 104호","category":"일반휴게음식 - 일반한식"},{"name":"홍어사랑","tel":"031-000-0000","addr":"경기도 화성시 남양읍 남양리 1267-25번지 1층 104호","category":"일반휴게음식 - 일반한식"}]},{"lat":"37.212160642","long":"126.81641217","items":[{"name":"맑은샘북카페","tel":"070-8666-4150","addr":"경기도 화성시 남양읍 남양리 1156-8번지 은혜의동산교회 1동 1층","category":"일반휴게음식 - 서양음식"}]},{"lat":"37.208127609","long":"126.81872017","items":[{"name":"맘스터치 화성남양점","tel":"031-357-0492","addr":"경기도 화성시 남양읍 남양리 2253-3번지 103호","category":"일반휴게음식 - 서양음식"},{"name":"죠스떡볶이","tel":"031-357-1878","addr":"경기도 화성시 남양읍 남양리 2253-3번지 1동 1층 101호","category":"일반휴게음식 - 스넥"},{"name":"취향마라샹궈마라탕","tel":"","addr":"경기도 화성시 남양읍 남양리 2253-3번지 1층 102호","category":"일반휴게음식 - 일반한식"}]},{"lat":"37.207489975","long":"126.81432838","items":[{"name":"맥과이어스","tel":"031-356-5877","addr":"경기도 화성시 남양읍 남양리 671-4번지 101호","category":"자동차정비 유지 - 카인테리어"}]},{"lat":"37.202186139","long":"126.82821907","items":[{"name":"머슴고기","tel":"031-357-2669","addr":"경기도 화성시 남양읍 남양리 2063-15번지 1층","category":"일반휴게음식 - 일반한식"}]},{"lat":"37.208519706","long":"126.81593673","items":[{"name":"메인","tel":"031-356-5355","addr":"경기도 화성시 남양읍 남양리 1168-4번지","category":"의류 - 정장"},{"name":"엔젤","tel":"031-356-5829","addr":"경기도 화성시 남양읍 남양리 1168-4번지","category":"신변잡화 - 기타잡화"}]},{"lat":"37.20479856","long":"126.82182603","items":[{"name":"명륜진사갈비","tel":"031-356-2966","addr":"경기도 화성시 남양읍 남양리 2260-4번지 1층","category":"일반휴게음식 - 일반한식"}]},{"lat":"37.204628136","long":"126.80539143","items":[{"name":"명문어린이집[아이행복]","tel":"031-356-0551","addr":"경기도 화성시 남양읍 남양리 431번지","category":"학원 - 유아원"}]},{"lat":"37.209073145","long":"126.81266845","items":[{"name":"명밥상","tel":"031-357-5002","addr":"경기도 화성시 남양읍 남양리 596-1,외1필지","category":"일반휴게음식 - 일반한식"}]},{"lat":"37.209460788","long":"126.81849163","items":[{"name":"명작2노래연습장","tel":"031-366-8811","addr":"경기도 화성시 남양읍 남양리 1267-10번지 3층","category":"레저업소 - 노 래 방"},{"name":"명작노래연습장","tel":"031-366-8811","addr":"경기도 화성시 남양읍 남양리 1267-10번지 2층","category":"레저업소 - 노 래 방"},{"name":"블랙버드","tel":"031-357-1621","addr":"경기도 화성시 남양읍 남양리 1267-10번지 1층","category":"일반휴게음식 - 주점"},{"name":"서울종묘농약사","tel":"031-356-4592","addr":"경기도 화성시 남양읍 남양리 1267-10번지","category":"농업 - 비료,사료,종자"}]},{"lat":"37.202102291","long":"126.82636067","items":[{"name":"명품 손세차","tel":"00-0000-0000","addr":"경기도 화성시 남양읍 남양리 2073-7번지","category":"자동차정비 유지 - 세차장"}]},{"lat":"37.207599208","long":"126.81502654","items":[{"name":"명품간장게장","tel":"031-355-7660","addr":"경기도 화성시 남양읍 남양리 669번지","category":"일반휴게음식 - 일반한식"}]},{"lat":"37.204849305","long":"126.83171622","items":[{"name":"명품아카데미","tel":"","addr":"경기도 화성시 남양읍 남양리 2050-6번지 1층 명품아카데미","category":"학원 - 보습학원"}]},{"lat":"37.207794822","long":"126.83111253","items":[{"name":"모녀찬방","tel":"031-358-6056","addr":"경기도 화성시 남양읍 남양리 2044-8번지 102호","category":"음료식품 - 기타음료식품"},{"name":"에이치엔제이","tel":"031-356-8070","addr":"경기도 화성시 남양읍 남양리 2044-8번지 1층","category":"보건위생 - 미용원"}]},{"lat":"37.207688381","long":"126.81444053","items":[{"name":"모던헤어","tel":"031-356-8353","addr":"경기도 화성시 남양읍 남양리 670-1번지 1층","category":"보건위생 - 미용원"},{"name":"소담, 스물 셋","tel":"","addr":"경기도 화성시 남양읍 남양리 670-1번지 4호","category":"일반휴게음식 - 서양음식"},{"name":"숙이네","tel":"","addr":"경기도 화성시 남양읍 남양리 670-1번지","category":"의류 - 정장"},{"name":"클린케어운동화이불빨래방","tel":"031-357-2280","addr":"경기도 화성시 남양읍 남양리 670-1번지 1층 1,2호","category":"수리서비스 - 세탁소"}]},{"lat":"37.211104994","long":"126.81550226","items":[{"name":"모두설비 모두전기","tel":"031-355-1329","addr":"경기도 화성시 남양읍 남양리 629-4번지 현대빌라 B동 201호","category":"용역 서비스 - 기타용역서비스"},{"name":"생생과일","tel":"","addr":"경기도 화성시 남양읍 남양리 629-4번지 현대원룸 B동 202호","category":"음료식품 - 농·축·수산품"}]},{"lat":"37.2082927","long":"126.81483331","items":[{"name":"모모닭강정치킨","tel":"031-356-7551","addr":"경기도 화성시 남양읍 남양리 658-4번지","category":"일반휴게음식 - 스넥"},{"name":"시온떡방","tel":"031-357-2705","addr":"경기도 화성시 남양읍 남양리 658-4번지 1층 2호","category":"음료식품 - 제과점"},{"name":"장금이반찬","tel":"031-357-3504","addr":"경기도 화성시 남양읍 남양리 658-4번지 1층 101호102호","category":"음료식품 - 기타음료식품"}]},{"lat":"37.202133551","long":"126.82922171","items":[{"name":"무진장민물매운탕","tel":"031-366-8033","addr":"경기도 화성시 남양읍 남양리 2064-7번지","category":"일반휴게음식 - 일반한식"},{"name":"큰맘할매순대국","tel":"031-356-2636","addr":"경기도 화성시 남양읍 남양리 2064-7번지 102호","category":"일반휴게음식 - 일반한식"}]},{"lat":"37.207462423","long":"126.81400176","items":[{"name":"무한리필활장어구이","tel":"031-356-1336","addr":"경기도 화성시 남양읍 남양리 671번지","category":"일반휴게음식 - 일반한식"}]},{"lat":"37.208516811","long":"126.81411179","items":[{"name":"뮤직방방","tel":"031-355-8830","addr":"경기도 화성시 남양읍 남양리 550번지","category":"레저업소 - 기타레져업소"}]},{"lat":"37.202770913","long":"126.82760945","items":[{"name":"미광세탁","tel":"031-356-8284","addr":"경기도 화성시 남양읍 남양리 2061-4번지","category":"수리서비스 - 세탁소"}]},{"lat":"37.203769876","long":"126.82680737","items":[{"name":"미남닭발","tel":"031-356-7459","addr":"경기도 화성시 남양읍 남양리 2029-5번지 1층 101호","category":"일반휴게음식 - 일반한식"}]},{"lat":"37.204904949","long":"126.80389252","items":[{"name":"미니스톱 남양우림점","tel":"031-1577-9621","addr":"경기도 화성시 남양읍 남양리 442-2번지 1층 101호","category":"유통업 영리 - 편 의 점"}]},{"lat":"37.199771233","long":"126.82813452","items":[{"name":"미니스톱 화성시청점","tel":"031-1577-9621","addr":"경기도 화성시 남양읍 남양리 2078-4번지 화성벤처빌딩 106호~107호","category":"유통업 영리 - 편 의 점"},{"name":"예스플러스화성남양점","tel":"031-355-3756","addr":"경기도 화성시 남양읍 남양리 2078-4 화성벤쳐빌딩 106호~107호","category":"유통업 영리 - 편 의 점"},{"name":"용호골 순대국","tel":"031-366-9293","addr":"경기도 화성시 남양읍 남양리 2078-4번지 104,105호","category":"일반휴게음식 - 일반한식"},{"name":"원스타김밥","tel":"031-355-1217","addr":"경기도 화성시 남양읍 남양리 2078-4번지 화성벤처타워 1층 103호","category":"일반휴게음식 - 일반한식"},{"name":"커피부띠끄모마","tel":"031-357-6030","addr":"경기도 화성시 남양읍 남양리 2078-4번지 화성벤처타워 101호~102호","category":"일반휴게음식 - 서양음식"}]},{"lat":"37.201629697","long":"126.82971848","items":[{"name":"미래디자인","tel":"031-221-1986","addr":"경기도 화성시 남양읍 남양리 2068-4번지","category":"서적문구 - 출판 및 인쇄물"}]},{"lat":"37.208740341","long":"126.81302977","items":[{"name":"미소네포차","tel":"031-357-7831","addr":"경기도 화성시 남양읍 남양리 589번지","category":"일반휴게음식 - 일반한식"},{"name":"짜장뽕","tel":"031-000-0000","addr":"경기도 화성시 남양읍 남양리 589번지 1층","category":"일반휴게음식 - 중국식"},{"name":"평양카페","tel":"031-355-7803","addr":"경기도 화성시 남양읍 남양리 589번지 1층","category":"일반휴게음식 - 서양음식"}]},{"lat":"37.207381306","long":"126.81972457","items":[{"name":"민의상실,윤인교복","tel":"031-356-2426","addr":"경기도 화성시 남양읍 남양리 1874","category":"의류 - 맞춤복점"}]},{"lat":"37.210019656","long":"126.81863672","items":[{"name":"반우코리아","tel":"031-356-4646","addr":"경기도 화성시 남양읍 남양리 1267-8번지 1층","category":"기타 - 기계공구"}]},{"lat":"37.20924294","long":"126.81746702","items":[{"name":"밥친구","tel":"031-355-2667","addr":"경기도 화성시 남양읍 남양리 1226-1번지 1층","category":"일반휴게음식 - 스넥"},{"name":"신혼","tel":"031-356-2359","addr":"경기도 화성시 남양읍 남양리 1226-1번지","category":"직물 - 침구·수예점"}]},{"lat":"37.213465164","long":"126.81515845","items":[{"name":"방일해장국","tel":"031-355-6872","addr":"경기도 화성시 남양읍 남양리 55-1번지","category":"일반휴게음식 - 일반한식"},{"name":"서일장어","tel":"031-355-5240","addr":"경기도 화성시 남양읍 남양리 55-1번지 110호","category":"일반휴게음식 - 일반한식"},{"name":"이든크린룸환풍기","tel":"031-355-2897","addr":"경기도 화성시 남양읍 남양리 55-1번지 참가정 상가 4호","category":"전기제품 - 기타전기제품"},{"name":"전진종합상사","tel":"031-355-1800","addr":"경기도 화성시 남양읍 남양리 55-1번지","category":"건축자재 - 보일러·펌프·샷시"},{"name":"주식회사 대영엔지니어링","tel":"031-357-3683","addr":"경기도 화성시 남양읍 남양리 55-1번지","category":"건축자재 - 보일러·펌프·샷시"}]},{"lat":"37.207682011","long":"126.81610777","items":[{"name":"백서기치과의원","tel":"031-356-2875","addr":"경기도 화성시 남양읍 남양리 1170-4번지","category":"의원 - 치과의원"},{"name":"제일성모의원","tel":"031-355-2168","addr":"경기도 화성시 남양읍 남양리 1170-4번지","category":"의원 - 의원"},{"name":"현대노래연습장","tel":"031-357-8765","addr":"경기도 화성시 남양읍 남양리 1170-4번지","category":"레저업소 - 노 래 방"}]},{"lat":"37.19571823","long":"126.82927019","items":[{"name":"백채 김치찌개","tel":"031-366-9193","addr":"경기도 화성시 남양읍 남양리 2167-7번지 1층 101호","category":"일반휴게음식 - 일반한식"}]},{"lat":"37.201659742","long":"126.82566333","items":[{"name":"버클리외국어학원","tel":"031-356-5405","addr":"경기도 화성시 남양읍 남양리 2073-1번지 201호,202호","category":"학원 - 외국어학원"},{"name":"한솔플러스수학남양양우학원","tel":"031-355-7098","addr":"경기도 화성시 남양읍 남양리 2073-1번지 현인빌딩 301호","category":"학원 - 보습학원"},{"name":"한양전기","tel":"031-509-7500","addr":"경기도 화성시 남양읍 남양리 2073-1번지 현인빌딩 103호","category":"용역 서비스 - 기타용역서비스"}]},{"lat":"37.203182995","long":"126.8259977","items":[{"name":"벙개막창","tel":"031-000-0000","addr":"경기도 화성시 남양읍 남양리 2020-5번지","category":"일반휴게음식 - 일반한식"},{"name":"제니패션(화성점)","tel":"","addr":"경기도 화성시 남양읍 남양리 2020-5번지 102호","category":"의류 - 정장"}]},{"lat":"37.206551265","long":"126.83102522","items":[{"name":"베네치아","tel":"031-355-2728","addr":"경기도 화성시 남양읍 남양리 2046-20번지 1동 1층","category":"일반휴게음식 - 서양음식"}]},{"lat":"37.214522621","long":"126.81721752","items":[{"name":"베스트 전자","tel":"031-356-5422","addr":"경기도 화성시 남양읍 남양리 1101번지","category":"수리서비스 - 가정용품수리"},{"name":"화성플라워","tel":"031-355-4323","addr":"경기도 화성시 남양읍 남양리 1101번지","category":"문화.취미 - 화원"}]},{"lat":"37.204323582","long":"126.80111171","items":[{"name":"베스트전자","tel":"031-357-1326","addr":"경기도 화성시 남양읍 남양리 330번지","category":"자동차정비 유지 - 자동차부품"},{"name":"신화금속","tel":"031-356-8935","addr":"경기도 화성시 남양읍 남양리 330번지 진주빌딩 1층","category":"기타 - 기계공구"}]},{"lat":"37.201600716","long":"126.82838938","items":[{"name":"베이크?","tel":"031-355-0420","addr":"경기도 화성시 남양읍 남양리 2062-8번지 1층","category":"일반휴게음식 - 일반한식"}]},{"lat":"37.206800016","long":"126.82860271","items":[{"name":"병천옛날가마솥순대국","tel":"031-366-8850","addr":"경기도 화성시 남양읍 남양리 2033-8번지 1층 105,106호","category":"일반휴게음식 - 일반한식"}]},{"lat":"37.203049165","long":"126.82688789","items":[{"name":"보그헤어","tel":"031-357-8264","addr":"경기도 화성시 남양읍 남양리 2032-2번지","category":"보건위생 - 미용원"}]},{"lat":"37.199661843","long":"126.82727873","items":[{"name":"보라매","tel":"031-355-2051","addr":"경기도 화성시 남양읍 남양리 2072-19번지 101호","category":"서적문구 - 문구용품"}]},{"lat":"37.208938424","long":"126.81293915","items":[{"name":"보송보송","tel":"","addr":"경기도 화성시 남양읍 남양리 592번지 대부빌라 C동 101호","category":"보건위생 - 화장품"}]},{"lat":"37.204770563","long":"126.82119528","items":[{"name":"본도시락 화성남양점","tel":"031-355-3707","addr":"경기도 화성시 남양읍 남양리 2294-2번지 골드프라자 1동 101호","category":"일반휴게음식 - 일반한식"}]},{"lat":"37.211213436","long":"126.82149527","items":[{"name":"본죽(화성남양점)","tel":"031-357-6233","addr":"경기도 화성시 남양읍 남양리 1310-3번지","category":"일반휴게음식 - 일반한식"},{"name":"인스토어(in store)","tel":"031-357-9555","addr":"경기도 화성시 남양읍 남양리 1310-3번지","category":"유통업 영리 - 슈퍼마켓"}]},{"lat":"37.209494488","long":"126.81699326","items":[{"name":"불꽃다방","tel":"031-357-8502","addr":"경기도 화성시 남양읍 남양리 1242-4번지","category":"일반휴게음식 - 서양음식"},{"name":"쿠아 콘크라이틴","tel":"031-356-3783","addr":"경기도 화성시 남양읍 남양리 1242-4번지","category":"일반휴게음식 - 서양음식"}]},{"lat":"37.209856856","long":"126.81824283","items":[{"name":"불닭발동대문엽기떡볶이(남양점)","tel":"031-356-8593","addr":"경기도 화성시 남양읍 남양리 1267-5번지 1층","category":"일반휴게음식 - 일반한식"},{"name":"천하명당","tel":"","addr":"경기도 화성시 남양읍 남양리 1267-5번지","category":"유통업 영리 - 슈퍼마켓"}]},{"lat":"37.206626791","long":"126.80985837","items":[{"name":"블루자동차용품","tel":"031-357-0053","addr":"경기도 화성시 남양읍 남양리 490-6번지","category":"자동차정비 유지 - 자동차부품"}]},{"lat":"37.200994756","long":"126.82685887","items":[{"name":"비단","tel":"031-356-0052","addr":"경기도 화성시 남양읍 남양리 2075-19번지","category":"일반휴게음식 - 일반한식"}]},{"lat":"37.20465836","long":"126.82443974","items":[{"name":"비비큐","tel":"031-356-8892","addr":"경기도 화성시 남양읍 남양리 2009-6번지","category":"일반휴게음식 - 스넥"},{"name":"여유로움스타일","tel":"","addr":"경기도 화성시 남양읍 남양리 2009-6번지","category":"의류 - 정장"}]},{"lat":"37.202939346","long":"126.82575045","items":[{"name":"비터스윗","tel":"031-355-4131","addr":"경기도 화성시 남양읍 남양리 2017-9번지 1층","category":"음료식품 - 제과점"}]},{"lat":"37.205767316","long":"126.83099321","items":[{"name":"빅터 화성 남양점","tel":"031-355-1890","addr":"경기도 화성시 남양읍 남양리 2045-8번지","category":"레져용품 - 스포츠·레져용품"}]},{"lat":"37.20571639","long":"126.82102404","items":[{"name":"빈스킹 토스트(화성남양점)","tel":"031-355-5800","addr":"경기도 화성시 남양읍 남양리 2257-6번지 1층 103호","category":"일반휴게음식 - 스넥"},{"name":"위너스학원","tel":"031-356-5839","addr":"경기도 화성시 남양읍 남양리 2257-6번지 401,402호","category":"학원 - 보습학원"},{"name":"짱분식.떡볶이","tel":"031-355-7217","addr":"경기도 화성시 남양읍 남양리 2257-6번지 104호","category":"일반휴게음식 - 스넥"}]},{"lat":"37.196463676","long":"126.83383014","items":[{"name":"뽕나무삼계탕","tel":"031-355-9623","addr":"경기도 화성시 남양읍 남양리 1856-87번지 1층","category":"일반휴게음식 - 일반한식"}]},{"lat":"37.206572961","long":"126.82738663","items":[{"name":"쁘렘요가","tel":"070-234-1750","addr":"경기도 화성시 남양읍 남양리 2021-21번지 101호","category":"레저업소 - 헬스클럽"}]},{"lat":"37.203294163","long":"126.82804755","items":[{"name":"사강수산","tel":"031-356-0775","addr":"경기도 화성시 남양읍 남양리 2032-10번지","category":"음료식품 - 농·축·수산품"},{"name":"사강회수산","tel":"031-356-0775","addr":"경기도 화성시 남양읍 남양리 2032-10번지","category":"일반휴게음식 - 일반한식"}]},{"lat":"37.20696623","long":"126.83136223","items":[{"name":"사과나무","tel":"","addr":"경기도 화성시 남양읍 남양리 2046-4번지 1층 103호","category":"일반휴게음식 - 서양음식"}]},{"lat":"37.20859821","long":"126.81430309","items":[{"name":"사랑새미용실","tel":"031-356-6544","addr":"경기도 화성시 남양읍 남양리 553번지","category":"보건위생 - 미용원"},{"name":"향수커피숍&맥주","tel":"031-356-7625","addr":"경기도 화성시 남양읍 남양리 553번지","category":"일반휴게음식 - 주점"}]},{"lat":"37.202293448","long":"126.82766688","items":[{"name":"사랑채분식포차","tel":"031-356-3853","addr":"경기도 화성시 남양읍 남양리 2062-3번지 1층 103호","category":"일반휴게음식 - 일반한식"}]},{"lat":"37.2014048","long":"126.8299668","items":[{"name":"산낙지촌","tel":"031-357-4990","addr":"경기도 화성시 남양읍 남양리 2068-6번지","category":"일반휴게음식 - 일반한식"}]},{"lat":"37.20252002","long":"126.82855623","items":[{"name":"삼겹살대풍","tel":"031-356-9269","addr":"경기도 화성시 남양읍 남양리 2064-14번지","category":"일반휴게음식 - 일반한식"}]},{"lat":"37.21018943","long":"126.81772381","items":[{"name":"삼미바지락팥칼국수","tel":"031-356-2882","addr":"경기도 화성시 남양읍 남양리 1258-1번지","category":"일반휴게음식 - 일반한식"}]},{"lat":"37.203071002","long":"126.79580954","items":[{"name":"상지플라스틱","tel":"031-355-9994","addr":"경기도 화성시 남양읍 남양리 371-1번지","category":"건축자재 - 기타건축자재"}]},{"lat":"37.208431798","long":"126.81733382","items":[{"name":"샘호프광장","tel":"031-356-4225","addr":"경기도 화성시 남양읍 남양리 1216-1번지 1층","category":"일반휴게음식 - 주점"},{"name":"전자담배멀티샵","tel":"070-8947-4490","addr":"경기도 화성시 남양읍 남양리 1216-1번지 4","category":"기타 - 기타 전문점"},{"name":"퀸스노래연습장","tel":"","addr":"경기도 화성시 남양읍 남양리 1216-1번지 2층","category":"레저업소 - 노 래 방"},{"name":"해오름호프맥주","tel":"031-355-5058","addr":"경기도 화성시 남양읍 남양리 1216-1번지","category":"일반휴게음식 - 주점"},{"name":"화장품","tel":"070-8942-6700","addr":"경기도 화성시 남양읍 남양리 1216-1번지 2층","category":"보건위생 - 화장품"}]},{"lat":"37.202380906","long":"126.82588693","items":[{"name":"샵 Bling","tel":"031-000-0000","addr":"경기도 화성시 남양읍 남양리 2018-6번지 102호","category":"의류 - 정장"},{"name":"석기정돌솥부대찌개 화성남양점","tel":"031-357-7128","addr":"경기도 화성시 남양읍 남양리 2018-6번지 1동 101호","category":"일반휴게음식 - 일반한식"}]},{"lat":"37.202633312","long":"126.83210421","items":[{"name":"샵네일","tel":"","addr":"경기도 화성시 남양읍 남양리 2056-13번지 101호","category":"보건위생 - 미용재료"}]},{"lat":"37.209217912","long":"126.81875132","items":[{"name":"서울으뜸치과의원","tel":"031-357-2879","addr":"경기도 화성시 남양읍 남양리 1195-1번지 CMS빌딩 4층","category":"의원 - 치과의원"},{"name":"타이혼 킥복싱","tel":"031-357-7774","addr":"경기도 화성시 남양읍 남양리 1195-1번지","category":"레저업소 - 헬스클럽"},{"name":"해담의원","tel":"031-366-7582","addr":"경기도 화성시 남양읍 남양리 1195-1번지 3층","category":"의원 - 의원"}]},{"lat":"37.209042713","long":"126.81619454","items":[{"name":"서울축산","tel":"031-355-4284","addr":"경기도 화성시 남양읍 남양리 1165-31번지","category":"음료식품 - 정육점"}]},{"lat":"37.204297063","long":"126.82385484","items":[{"name":"선모터샵","tel":"031-355-1455","addr":"경기도 화성시 남양읍 남양리 2009-2번지","category":"자동차판매 - 이륜차판매"}]},{"lat":"37.209516832","long":"126.81403044","items":[{"name":"선희소곱창구이김치찌개","tel":"031-354-5817","addr":"경기도 화성시 남양읍 남양리 648-1번지 1층일부","category":"일반휴게음식 - 일반한식"},{"name":"죽전골남원추어탕남양점","tel":"031-356-1304","addr":"경기도 화성시 남양읍 남양리 648-1번지","category":"일반휴게음식 - 일반한식"}]},{"lat":"37.207794175","long":"126.81868719","items":[{"name":"성산목재","tel":"031-357-1889","addr":"경기도 화성시 남양읍 남양리 1185","category":"건축자재 - 기타건축자재"}]},{"lat":"37.208269957","long":"126.81188191","items":[{"name":"성안하이테크 카정비","tel":"031-356-4586","addr":"경기도 화성시 남양읍 남양리 568-2번지","category":"자동차정비 유지 - 자동차정비"}]},{"lat":"37.20399381","long":"126.83205609","items":[{"name":"세븐일레븐화성남양원룸점","tel":"031-1577-0711","addr":"경기도 화성시 남양읍 남양리 2055-1번지","category":"유통업 영리 - 편 의 점"}]},{"lat":"37.194491113","long":"126.83433011","items":[{"name":"세븐일레븐화성대광점","tel":"","addr":"경기도 화성시 남양읍 남양리 1856-1번지 외 2필지 유안캐슬","category":"유통업 영리 - 편 의 점"}]},{"lat":"37.204551201","long":"126.82508207","items":[{"name":"세븐일레븐화성역골로점","tel":"","addr":"경기도 화성시 남양읍 남양리 2022-4번지 1층 102호","category":"유통업 영리 - 편 의 점"}]},{"lat":"37.210377811","long":"126.82302936","items":[{"name":"세븐일레븐화성프라디움점","tel":"031-1577-0711","addr":"경기도 화성시 남양읍 남양리 2249번지 시티프라디움2차 근린생활시설상가동 106호","category":"유통업 영리 - 편 의 점"}]},{"lat":"37.203717948","long":"126.82824933","items":[{"name":"세진피부관리실","tel":"070-8943-3949","addr":"경기도 화성시 남양읍 남양리 2031-10번지","category":"보건위생 - 피부미용실"}]},{"lat":"37.194855503","long":"126.83082648","items":[{"name":"세탁프리워시 남양시청점","tel":"031-0000-0000","addr":"경기도 화성시 남양읍 남양리 2155-14번지 1층","category":"수리서비스 - 세탁소"}]},{"lat":"37.205742546","long":"126.80910589","items":[{"name":"셀프수산","tel":"031-355-8040","addr":"경기도 화성시 남양읍 남양리 473번지","category":"일반휴게음식 - 일반한식"},{"name":"셀프수산슈퍼","tel":"031-355-8040","addr":"경기도 화성시 남양읍 남양리 473번지 101호","category":"유통업 영리 - 슈퍼마켓"}]},{"lat":"37.202967083","long":"126.82622349","items":[{"name":"소,하누정육식당","tel":"031-355-5382","addr":"경기도 화성시 남양읍 남양리 2020-7번지","category":"일반휴게음식 - 일반한식"}]},{"lat":"37.206384527","long":"126.82791651","items":[{"name":"소담애 손만두","tel":"031-357-7765","addr":"경기도 화성시 남양읍 남양리 2033-3번지 101호","category":"일반휴게음식 - 스넥"}]},{"lat":"37.202934612","long":"126.82863413","items":[{"name":"소랑 오리랑","tel":"031-356-1127","addr":"경기도 화성시 남양읍 남양리 2061-11번지","category":"음료식품 - 정육점"},{"name":"소랑오리랑","tel":"031-356-1127","addr":"경기도 화성시 남양읍 남양리 2061-11번지","category":"일반휴게음식 - 일반한식"}]},{"lat":"37.204356942","long":"126.80486271","items":[{"name":"소리숲그림숲음악미술학원","tel":"031-366-9398","addr":"경기도 화성시 남양읍 남양리 431-3번지 1층","category":"학원 - 예·체능계학원"},{"name":"예일영재학원","tel":"031-366-9396","addr":"경기도 화성시 남양읍 남양리 431-3번지 2층","category":"학원 - 보습학원"}]},{"lat":"37.204218309","long":"126.82540953","items":[{"name":"속초갯배 명태간장조림","tel":"031-355-8840","addr":"경기도 화성시 남양읍 남양리 2025-10번지","category":"일반휴게음식 - 일반한식"}]},{"lat":"37.205270582","long":"126.80702313","items":[{"name":"솔로몬 워시","tel":"031-111-1111","addr":"경기도 화성시 남양읍 남양리 465-1번지","category":"자동차정비 유지 - 세차장"}]},{"lat":"37.203516546","long":"126.82610956","items":[{"name":"수경 빨래방","tel":"031-355-0380","addr":"경기도 화성시 남양읍 남양리 2028-13번지","category":"수리서비스 - 세탁소"}]},{"lat":"37.21432404","long":"126.81699268","items":[{"name":"수성전동기계","tel":"031-357-6342","addr":"경기도 화성시 남양읍 남양리 1101-3번지","category":"기타 - 기계공구"}]},{"lat":"37.209298747","long":"126.81288192","items":[{"name":"수성정숯불생고기","tel":"031-356-2213","addr":"경기도 화성시 남양읍 남양리 598-2번지 가동 101호","category":"일반휴게음식 - 일반한식"},{"name":"오레또피자","tel":"031-355-4447","addr":"경기도 화성시 남양읍 남양리 598-2번지 가동 1층","category":"일반휴게음식 - 서양음식"}]},{"lat":"37.209876226","long":"126.81911021","items":[{"name":"수스크린골프","tel":"031-355-2874","addr":"경기도 화성시 남양읍 남양리 1268-2번지 센타프라자 3층 301-304호","category":"레저업소 - 스크린골프"},{"name":"아지매 김치만두 닭한마리","tel":"031-355-8370","addr":"경기도 화성시 남양읍 남양리 1268-2번지","category":"일반휴게음식 - 일반한식"},{"name":"애터샵","tel":"070-8622-3209","addr":"경기도 화성시 남양읍 남양리 1268-2번지 센타프라자 2층 203호","category":"보건위생 - 피부미용실"},{"name":"애플노래연습장","tel":"031-357-6774","addr":"경기도 화성시 남양읍 남양리 1268-2번지 센타프라자 지하1층","category":"레저업소 - 노 래 방"},{"name":"올소올소","tel":"031-352-1673","addr":"경기도 화성시 남양읍 남양리 1268-2번지 센터프라자 103호 104호","category":"일반휴게음식 - 일반한식"},{"name":"이춘봉인생치킨(화성남양점)","tel":"031-355-9142","addr":"경기도 화성시 남양읍 남양리 1268-2번지 105,106호","category":"일반휴게음식 - 스넥"},{"name":"컨트리로드","tel":"031-355-7788","addr":"경기도 화성시 남양읍 남양리 1268-2번지 2층 201,202호","category":"일반휴게음식 - 일반한식"},{"name":"형제축산물판매장","tel":"031-357-5122","addr":"경기도 화성시 남양읍 남양리 1268-2번지 센타프라자 101호","category":"음료식품 - 정육점"}]},{"lat":"37.204101283","long":"126.83160527","items":[{"name":"수원백반","tel":"031-356-5062","addr":"경기도 화성시 남양읍 남양리 2050-12번지 1층","category":"일반휴게음식 - 일반한식"}]},{"lat":"37.202769174","long":"126.82643797","items":[{"name":"수정화원","tel":"031-357-5712","addr":"경기도 화성시 남양읍 남양리 2018-11번지","category":"문화.취미 - 화원"}]},{"lat":"37.209963078","long":"126.81702591","items":[{"name":"수헤어","tel":"031-355-0525","addr":"경기도 화성시 남양읍 남양리 1250번지","category":"보건위생 - 미용원"}]},{"lat":"37.205132151","long":"126.80505218","items":[{"name":"순우리막창","tel":"031-356-7016","addr":"경기도 화성시 남양읍 남양리 415-3번지 우림그린빌리지상가 B동 110호","category":"일반휴게음식 - 일반한식"},{"name":"우림세탁소","tel":"031-356-8874","addr":"경기도 화성시 남양읍 남양리 415-3번지 우림B상가 108호","category":"수리서비스 - 세탁소"},{"name":"우림헤어샵","tel":"","addr":"경기도 화성시 남양읍 남양리 415-3번지 우림그린빌리지 상가 B동 1층 102호","category":"보건위생 - 미용원"},{"name":"율이네반찬","tel":"031-356-9292","addr":"경기도 화성시 남양읍 남양리 415-3번지 우림그린빌리지 B동 110호","category":"음료식품 - 기타음료식품"},{"name":"하림멕시칸치킨","tel":"031-355-2428","addr":"경기도 화성시 남양읍 남양리 415-3번지 우림그린빌리지 상가 B동 111호","category":"일반휴게음식 - 스넥"}]},{"lat":"37.201295456","long":"126.82913351","items":[{"name":"순이설렁탕","tel":"031-356-1335","addr":"경기도 화성시 남양읍 남양리 2069-12번지 1층","category":"일반휴게음식 - 일반한식"}]},{"lat":"37.208768292","long":"126.81360423","items":[{"name":"숲사랑어린이집[아이행복]","tel":"031-356-6595","addr":"경기도 화성시 남양읍 남양리 559-7번지","category":"학원 - 유아원"},{"name":"숲사랑어린이집[아이행복]","tel":"031-356-6595","addr":"경기도 화성시 남양읍 남양리 559-7번지","category":"학원 - 유아원"}]},{"lat":"37.204100729","long":"126.83122228","items":[{"name":"스시에버","tel":"031-357-2525","addr":"경기도 화성시 남양읍 남양리 2050-20번지","category":"일반휴게음식 - 일반한식"}]},{"lat":"37.21321037","long":"126.82521948","items":[{"name":"스카이랜드대중탕","tel":"031-357-5044","addr":"경기도 화성시 남양읍 남양리 1373-8번지","category":"보건위생 - 사우나"}]},{"lat":"37.209298269","long":"126.81827798","items":[{"name":"스타코인싱어노래연습장","tel":"031-0000-0000","addr":"경기도 화성시 남양읍 남양리 1233-2번지 2층","category":"레저업소 - 노 래 방"},{"name":"스타코인싱어노래연습장","tel":"02-0000-0000","addr":"경기도 화성시 남양읍 남양리 1233-2번지 2층","category":"레저업소 - 노 래 방"}]},{"lat":"37.203938735","long":"126.82524121","items":[{"name":"스팀보이 화성시청점","tel":"031-355-8899","addr":"경기도 화성시 남양읍 남양리 2019-4번지 101호","category":"자동차정비 유지 - 세차장"}]},{"lat":"37.20304693","long":"126.82538974","items":[{"name":"승쨩","tel":"031-357-6995","addr":"경기도 화성시 남양읍 남양리 2016-10번지","category":"일반휴게음식 - 일식·회집"}]},{"lat":"37.198853437","long":"126.82899268","items":[{"name":"시립서부복합 어린이집[아이행복]","tel":"031-355-0664","addr":"경기도 화성시 남양읍 남양리 2147번지 모두누림센터","category":"학원 - 유아원"},{"name":"에쓰엠스포츠","tel":"031-278-0775","addr":"경기도 화성시 남양읍 남양리 2147번지 지하3층","category":"레져용품 - 스포츠·레져용품"},{"name":"제이엘(JL)푸드","tel":"","addr":"경기도 화성시 남양읍 남양리 2147번지 모두누리센터 1층 일부 화성서부복합문화센터","category":"일반휴게음식 - 일반한식"},{"name":"화성시니어클럽노노카페 모두누림센터점","tel":"031-8059-4349","addr":"경기도 화성시 남양읍 남양리 2147번지 지하2층","category":"일반휴게음식 - 서양음식"}]},{"lat":"37.196716752","long":"126.83438148","items":[{"name":"시청수산물직매장","tel":"031-1111-1111","addr":"경기도 화성시 남양읍 남양리 1856-82번지","category":"음료식품 - 농·축·수산품"},{"name":"풍천장어","tel":"031-355-1009","addr":"경기도 화성시 남양읍 남양리 1856-82번지 1층","category":"일반휴게음식 - 일반한식"}]},{"lat":"37.196713783","long":"126.82615921","items":[{"name":"신갈농원","tel":"031-0000-0000","addr":"경기도 화성시 남양읍 남양리 2164-5번지 1층","category":"일반휴게음식 - 일반한식"}]},{"lat":"37.204490464","long":"126.82068904","items":[{"name":"신도오에이남양","tel":"031-355-2884","addr":"경기도 화성시 남양읍 남양리 1748번지 아이리스오피스텔 208호","category":"사무통신 - 사무용 OA기기"}]},{"lat":"37.209186577","long":"126.81600268","items":[{"name":"신발백화점","tel":"031-357-8063","addr":"경기도 화성시 남양읍 남양리 1163-6번지","category":"신변잡화 - 신발"}]},{"lat":"37.203686783","long":"126.82546709","items":[{"name":"신쌤의 가죽공방","tel":"031-000-0000","addr":"경기도 화성시 남양읍 남양리 2019-6번지 1층 102호","category":"문화.취미 - 문화취미기타"},{"name":"여유로움 뷰티살롱","tel":"031-357-8280","addr":"경기도 화성시 남양읍 남양리 2019-6번지 103호","category":"보건위생 - 미용원"}]},{"lat":"37.201744666","long":"126.82824262","items":[{"name":"신의주찹쌀순대","tel":"031-356-1921","addr":"경기도 화성시 남양읍 남양리 2062-7번지 101호","category":"일반휴게음식 - 일반한식"}]},{"lat":"37.211933016","long":"126.8149144","items":[{"name":"신카오디오용품","tel":"070-8774-5499","addr":"경기도 화성시 남양읍 남양리 61-3번지","category":"자동차정비 유지 - 자동차부품"}]},{"lat":"37.206713892","long":"126.83132901","items":[{"name":"신통치킨 남양2호","tel":"031-357-9228","addr":"경기도 화성시 남양읍 남양리 2046-6번지 101,102호","category":"일반휴게음식 - 스넥"}]},{"lat":"37.202023537","long":"126.82793784","items":[{"name":"심석진의백년식당비어요","tel":"031-353-7531","addr":"경기도 화성시 남양읍 남양리 2062-5번지","category":"일반휴게음식 - 일반한식"}]},{"lat":"37.208460655","long":"126.8304689","items":[{"name":"쏠리에보 (Solliebo)","tel":"031-357-8680","addr":"경기도 화성시 남양읍 남양리 2039-19번지 1층","category":"일반휴게음식 - 서양음식"}]},{"lat":"37.207218144","long":"126.83110257","items":[{"name":"씨유남양우림필유점","tel":"031-256-4563","addr":"경기도 화성시 남양읍 남양리 2044-14번지","category":"유통업 영리 - 편 의 점"},{"name":"플레이패토창의사고력 교습소","tel":"","addr":"경기도 화성시 남양읍 남양리 2044-14번지 103호","category":"학원 - 보습학원"}]},{"lat":"37.215877418","long":"126.81929845","items":[{"name":"씨유화성온누리점","tel":"031-355-3005","addr":"경기도 화성시 남양읍 남양리 1119-2번지","category":"유통업 영리 - 편 의 점"}]},{"lat":"37.201938016","long":"126.8249643","items":[{"name":"아담스펫 화성점","tel":"031-555-8557","addr":"경기도 화성시 남양읍 남양리 2012-14번지 1층","category":"문화.취미 - 애완동물"}]},{"lat":"37.205544432","long":"126.83263836","items":[{"name":"아름물들(A.Rum.Mul.Deul.)","tel":"","addr":"경기도 화성시 남양읍 남양리 2051-5번지","category":"용역 서비스 - 사무서비스"}]},{"lat":"37.202855663","long":"126.82402721","items":[{"name":"아우토마린(AUTOMARINE)","tel":"031-418-0523","addr":"경기도 화성시 남양읍 남양리 2012-5번지 1층","category":"자동차판매 - 수입자동차"}]},{"lat":"37.207908493","long":"126.8168845","items":[{"name":"아이누리스튜디오","tel":"031-356-1549","addr":"경기도 화성시 남양읍 남양리 1172-19번지","category":"광학제품 - 사진관"},{"name":"태광사진관","tel":"031-356-1549","addr":"경기도 화성시 남양읍 남양리 1172-19번지","category":"광학제품 - 사진관"}]},{"lat":"37.201407165","long":"126.82547243","items":[{"name":"아이센스리그PC방 화성남양본점","tel":"","addr":"경기도 화성시 남양읍 남양리 2072-2번지 프라임빌딩 201호","category":"레저업소 - 기타레져업소"}]},{"lat":"37.195800673","long":"126.83019359","items":[{"name":"아이키친 화성점","tel":"070-5791-0429","addr":"경기도 화성시 남양읍 남양리 2157-4번지 1층","category":"일반휴게음식 - 서양음식"}]},{"lat":"37.208690029","long":"126.81538432","items":[{"name":"아이피에스(남양점)","tel":"031-356-8478","addr":"경기도 화성시 남양읍 남양리 655-1번지","category":"용역 서비스 - 종합용역"}]},{"lat":"37.200996023","long":"126.82172247","items":[{"name":"아침해유치원[아이행복]","tel":"031-831-8066","addr":"경기도 화성시 남양읍 남양리 2309-4번지","category":"학원 - 유치원"}]},{"lat":"37.207848752","long":"126.81330237","items":[{"name":"아카시아 세탁편의점","tel":"031-356-3569","addr":"경기도 화성시 남양읍 남양리 526번지 아울렛마트내","category":"수리서비스 - 세탁소"}]},{"lat":"37.209465399","long":"126.81568656","items":[{"name":"아트피아노학원","tel":"031-357-7729","addr":"경기도 화성시 남양읍 남양리 1163-9번지","category":"학원 - 예·체능계학원"},{"name":"우등생보습학원","tel":"070-5031-0327","addr":"경기도 화성시 남양읍 남양리 1163-9번지 2층","category":"학원 - 보습학원"}]},{"lat":"37.202349436","long":"126.8289734","items":[{"name":"안주파티","tel":"031-355-5635","addr":"경기도 화성시 남양읍 남양리 2064-5번지","category":"음료식품 - 기타음료식품"}]},{"lat":"37.207799767","long":"126.81650176","items":[{"name":"알파문구(예인상사)","tel":"031-355-8777","addr":"경기도 화성시 남양읍 남양리 1172-40번지 1층 101호","category":"서적문구 - 문구용품"},{"name":"유성노래연습장","tel":"031-356-8117","addr":"경기도 화성시 남양읍 남양리 1172-40번지 3층","category":"레저업소 - 노 래 방"},{"name":"장수가마솥순대국","tel":"031-366-8919","addr":"경기도 화성시 남양읍 남양리 1172-40번지 1층","category":"일반휴게음식 - 일반한식"}]},{"lat":"37.202966213","long":"126.79258824","items":[{"name":"애심","tel":"031-356-7988","addr":"경기도 화성시 남양읍 남양리 363번지","category":"주방용구 - 정수기"}]},{"lat":"37.212605798","long":"126.82463508","items":[{"name":"양노리순대국","tel":"031-355-3663","addr":"경기도 화성시 남양읍 남양리 1365-5번지","category":"일반휴게음식 - 일반한식"},{"name":"주식회사 석광고기획","tel":"031-355-8698","addr":"경기도 화성시 남양읍 남양리 1365-5번지","category":"건축자재 - 인테리어전문"}]},{"lat":"37.202437378","long":"126.79933698","items":[{"name":"양평해장국","tel":"031-356-9907","addr":"경기도 화성시 남양읍 남양리 405-1번지","category":"일반휴게음식 - 일반한식"}]},{"lat":"37.208882738","long":"126.81760309","items":[{"name":"어느멋진날 하루","tel":"031-357-0600","addr":"경기도 화성시 남양읍 남양리 1211번지 1층","category":"일반휴게음식 - 서양음식"},{"name":"화성남양 SONAX","tel":"031-357-0600","addr":"경기도 화성시 남양읍 남양리 1211번지","category":"자동차정비 유지 - 카인테리어"}]},{"lat":"37.210904903","long":"126.82007655","items":[{"name":"어부가 왕 코다리","tel":"031-356-1963","addr":"경기도 화성시 남양읍 남양리 1274-1번지 1층 103호","category":"일반휴게음식 - 일반한식"},{"name":"헤어디자인 아이리스","tel":"","addr":"경기도 화성시 남양읍 남양리 1274-1번지 당성회관 2층 201호","category":"보건위생 - 미용원"}]},{"lat":"37.205686386","long":"126.82500056","items":[{"name":"어울림모터스","tel":"031-355-3235","addr":"경기도 화성시 남양읍 남양리 2269-5번지","category":"자동차정비 유지 - 자동차정비"}]},{"lat":"37.210825988","long":"126.81008425","items":[{"name":"언덕위에돈까스","tel":"031-356-9804","addr":"경기도 화성시 남양읍 남양리 176-5번지","category":"일반휴게음식 - 일반한식"}]},{"lat":"37.2124663","long":"126.81597206","items":[{"name":"엄니토종추어탕","tel":"031-366-8835","addr":"경기도 화성시 남양읍 남양리 58번지","category":"일반휴게음식 - 일반한식"}]},{"lat":"37.204266764","long":"126.82769611","items":[{"name":"엄마의재봉틀","tel":"031-356-8244","addr":"경기도 화성시 남양읍 남양리 2031-5번지 1층","category":"문화.취미 - 문화취미기타"}]},{"lat":"37.203714521","long":"126.82594013","items":[{"name":"엄지천년 교동짬뽕","tel":"031-356-5887","addr":"경기도 화성시 남양읍 남양리 2028-1번지","category":"일반휴게음식 - 일반한식"}]},{"lat":"37.205327584","long":"126.83222205","items":[{"name":"에이치쓰리모터스(H3모터스)","tel":"031-356-8572","addr":"경기도 화성시 남양읍 남양리 2051-15번지","category":"자동차정비 유지 - 자동차정비"},{"name":"올샵","tel":"031-357-0096","addr":"경기도 화성시 남양읍 남양리 2051-15번지 201호","category":"자동차정비 유지 - 자동차부품"}]},{"lat":"37.209543871","long":"126.83182954","items":[{"name":"에이치에스 (HS)학원","tel":"031-355-7098","addr":"경기도 화성시 남양읍 남양리 2232-6번지","category":"학원 - 보습학원"}]},{"lat":"37.209212504","long":"126.81530417","items":[{"name":"엠.카롱","tel":"","addr":"경기도 화성시 남양읍 남양리 653번지 1층","category":"일반휴게음식 - 서양음식"},{"name":"유일태권도","tel":"031-356-3855","addr":"경기도 화성시 남양읍 남양리 653번지 3층","category":"학원 - 예·체능계학원"},{"name":"죽여주는 열꼬치","tel":"031-355-2247","addr":"경기도 화성시 남양읍 남양리 653번지","category":"일반휴게음식 - 일반한식"},{"name":"탑시스템","tel":"070-7529-0334","addr":"경기도 화성시 남양읍 남양리 653번지 103호","category":"사무통신 - 사무용 OA기기"}]},{"lat":"37.203884236","long":"126.8310538","items":[{"name":"역골반찬가게","tel":"031-357-7688","addr":"경기도 화성시 남양읍 남양리 2050-18번지 1층 101호","category":"음료식품 - 기타음료식품"}]},{"lat":"37.20912577","long":"126.81744478","items":[{"name":"연길양꼬치","tel":"031-356-9961","addr":"경기도 화성시 남양읍 남양리 1226-5번지","category":"일반휴게음식 - 일반한식"}]},{"lat":"37.201240451","long":"126.82849159","items":[{"name":"연무닭발","tel":"031-357-4711","addr":"경기도 화성시 남양읍 남양리 2070-1번지 1층","category":"일반휴게음식 - 일반한식"},{"name":"연무닭발","tel":"031-357-4711","addr":"경기도 화성시 남양읍 남양리 2070-1번지 화성시청","category":"일반휴게음식 - 일반한식"},{"name":"점프노리 화성남양점","tel":"031-355-5453","addr":"경기도 화성시 남양읍 남양리 2070-1번지 201호","category":"레저업소 - 기타레져업소"},{"name":"폭스바","tel":"","addr":"경기도 화성시 남양읍 남양리 2070-1번지 1층 일부","category":"일반휴게음식 - 주점"}]},{"lat":"37.205301634","long":"126.82680381","items":[{"name":"열정닭볶음탕","tel":"031-356-2685","addr":"경기도 화성시 남양읍 남양리 2024-5번지 101호","category":"일반휴게음식 - 일반한식"}]},{"lat":"37.205435008","long":"126.82560944","items":[{"name":"영광기획디자인","tel":"031-355-2260","addr":"경기도 화성시 남양읍 남양리 2021-8번지","category":"용역 서비스 - 종합용역"}]},{"lat":"37.208270465","long":"126.81219733","items":[{"name":"영구스피자","tel":"031-357-0920","addr":"경기도 화성시 남양읍 남양리 568-1번지 1층","category":"일반휴게음식 - 서양음식"}]},{"lat":"37.208690208","long":"126.81549697","items":[{"name":"영남인쇄사","tel":"031-356-2151","addr":"경기도 화성시 남양읍 남양리 1870-4번지","category":"서적문구 - 출판 및 인쇄물"}]},{"lat":"37.209071002","long":"126.8169943","items":[{"name":"예당","tel":"031-355-1933","addr":"경기도 화성시 남양읍 남양리 1165-2번지","category":"신변잡화 - 귀금속"},{"name":"자매피부관리실","tel":"031-355-3038","addr":"경기도 화성시 남양읍 남양리 1165-2번지 2층","category":"보건위생 - 피부미용실"}]},{"lat":"37.209963555","long":"126.81733007","items":[{"name":"예쁜염색","tel":"031-269-6635","addr":"경기도 화성시 남양읍 남양리 1251번지 1층","category":"보건위생 - 미용원"}]},{"lat":"37.208989785","long":"126.81691565","items":[{"name":"옛날잔치국수","tel":"031-356-5700","addr":"경기도 화성시 남양읍 남양리 1165-4번지","category":"일반휴게음식 - 스넥"},{"name":"헤어앤케어","tel":"031-357-2949","addr":"경기도 화성시 남양읍 남양리 1165-4번지 1층","category":"보건위생 - 미용원"}]},{"lat":"37.202740646","long":"126.82543551","items":[{"name":"오늘의피부","tel":"02-1577-0000","addr":"경기도 화성시 남양읍 남양리 2017-6번지 1동 오늘의피부","category":"보건위생 - 피부미용실"}]},{"lat":"37.212488494","long":"126.8245227","items":[{"name":"오리오리곱돌구이","tel":"031-357-0113","addr":"경기도 화성시 남양읍 남양리 1365-7번지 101호","category":"일반휴게음식 - 일반한식"}]},{"lat":"37.214160213","long":"126.82774083","items":[{"name":"오리정순두부","tel":"031-357-9662","addr":"경기도 화성시 남양읍 남양리 1393번지","category":"일반휴게음식 - 일반한식"}]},{"lat":"37.201771248","long":"126.82793842","items":[{"name":"오사빠","tel":"031-356-3015","addr":"경기도 화성시 남양읍 남양리 2062-12번지 104호","category":"일반휴게음식 - 주점"},{"name":"육회지존(남양점)","tel":"031-355-3944","addr":"경기도 화성시 남양읍 남양리 2062-12번지 1층 103호","category":"일반휴게음식 - 일반한식"},{"name":"쪽찌 화성시청점","tel":"031-355-1608","addr":"경기도 화성시 남양읍 남양리 2062-12번지 1층 105호","category":"일반휴게음식 - 일반한식"}]},{"lat":"37.209549467","long":"126.81757892","items":[{"name":"오컷고전헤어","tel":"031-357-0444","addr":"경기도 화성시 남양읍 남양리 1239-1번지 2층","category":"보건위생 - 미용원"}]},{"lat":"37.211936427","long":"126.82291301","items":[{"name":"오휘 남양점","tel":"031-357-9422","addr":"경기도 화성시 남양읍 남양리 1329-1번지 에스테반빌딩 5층","category":"보건위생 - 화장품"},{"name":"젠틀맨","tel":"031-355-5329","addr":"경기도 화성시 남양읍 남양리 1329-1번지 에스테반빌딩 1층 102호","category":"보건위생 - 미용원"}]},{"lat":"37.212741495","long":"126.82499526","items":[{"name":"옥돌정","tel":"031-356-7565","addr":"경기도 화성시 남양읍 남양리 1373-1번지","category":"일반휴게음식 - 일반한식"}]},{"lat":"37.202212105","long":"126.8274981","items":[{"name":"옥탑방오봉자싸롱","tel":"031-357-0736","addr":"경기도 화성시 남양읍 남양리 2062-15번지","category":"일반휴게음식 - 주점"}]},{"lat":"37.199327866","long":"126.82091546","items":[{"name":"온누리 어린이집[아이행복]","tel":"031-366-9777","addr":"경기도 화성시 남양읍 남양리 1813-6","category":"학원 - 유아원"}]},{"lat":"37.208352229","long":"126.81261393","items":[{"name":"올래이션","tel":"070-7862-1697","addr":"경기도 화성시 남양읍 남양리 565-2번지 1층","category":"보건위생 - 화장품"}]},{"lat":"37.209099567","long":"126.81797431","items":[{"name":"올스포츠","tel":"","addr":"경기도 화성시 남양읍 남양리 1208-1번지 102호","category":"레져용품 - 스포츠·레져용품"}]},{"lat":"37.211050577","long":"126.8210563","items":[{"name":"올애드","tel":"031-356-5773","addr":"경기도 화성시 남양읍 남양리 1276-11번지","category":"용역 서비스 - 종합용역"}]},{"lat":"37.196718313","long":"126.82922285","items":[{"name":"와더커피(WATHE COFFEE)","tel":"031-356-6917","addr":"경기도 화성시 남양읍 남양리 2148-4번지 1층","category":"일반휴게음식 - 서양음식"}]},{"lat":"37.206157342","long":"126.82066251","items":[{"name":"와이디(YD)수학교습소","tel":"031-356-7377","addr":"경기도 화성시 남양읍 남양리 2257-3번지 영남빌딩 2층 202호","category":"학원 - 보습학원"},{"name":"피자알볼로 화성남양점","tel":"031-355-8499","addr":"경기도 화성시 남양읍 남양리 2257-3번지 102호","category":"일반휴게음식 - 서양음식"}]},{"lat":"37.201521375","long":"126.82958356","items":[{"name":"완예가빼돌린고기","tel":"031-355-1465","addr":"경기도 화성시 남양읍 남양리 2068-11번지","category":"일반휴게음식 - 일반한식"}]},{"lat":"37.202492209","long":"126.82802687","items":[{"name":"왕십리곱창","tel":"031-355-1175","addr":"경기도 화성시 남양읍 남양리 2063-1번지","category":"일반휴게음식 - 일반한식"},{"name":"은미방","tel":"031-356-6640","addr":"경기도 화성시 남양읍 남양리 2063-1번지","category":"직물 - 침구·수예점"},{"name":"칭따오양꼬치","tel":"031-356-5689","addr":"경기도 화성시 남양읍 남양리 2063-1번지","category":"일반휴게음식 - 중국식"}]},{"lat":"37.203155034","long":"126.83149476","items":[{"name":"외갓집","tel":"031-357-5659","addr":"경기도 화성시 남양읍 남양리 2055-13번지 1동 1층 101호","category":"일반휴게음식 - 일반한식"}]},{"lat":"37.201079538","long":"126.82935929","items":[{"name":"요이","tel":"031-354-2929","addr":"경기도 화성시 남양읍 남양리 2069-10번지 1층","category":"일반휴게음식 - 일식·회집"}]},{"lat":"37.208907203","long":"126.81596957","items":[{"name":"우리동물병원","tel":"031-357-3924","addr":"경기도 화성시 남양읍 남양리 1165-26번지","category":"기타의료기관 - 동물병원"}]},{"lat":"37.216572936","long":"126.82041213","items":[{"name":"우리모터스","tel":"031-355-5155","addr":"경기도 화성시 남양읍 남양리 1113-7번지","category":"자동차정비 유지 - 자동차정비"}]},{"lat":"37.209042891","long":"126.81630719","items":[{"name":"우리사진관","tel":"031-357-8077","addr":"경기도 화성시 남양읍 남양리 1164-5번지 지층","category":"광학제품 - 사진관"}]},{"lat":"37.201877963","long":"126.79888792","items":[{"name":"우리식당","tel":"031-356-9052","addr":"경기도 화성시 남양읍 남양리 404-4번지","category":"일반휴게음식 - 일반한식"},{"name":"하늘슈퍼","tel":"031-366-7226","addr":"경기도 화성시 남양읍 남양리 404-4번지","category":"유통업 영리 - 슈퍼마켓"},{"name":"한일레이저조각","tel":"031-355-1338","addr":"경기도 화성시 남양읍 남양리 404-4번지 106호","category":"기타 - 기계공구"}]},{"lat":"37.208962365","long":"126.81666788","items":[{"name":"우리포차","tel":"031-357-9953","addr":"경기도 화성시 남양읍 남양리 1165-61번지 1층","category":"일반휴게음식 - 일반한식"},{"name":"청용체육사","tel":"031-356-5372","addr":"경기도 화성시 남양읍 남양리 1165-61번지","category":"레져용품 - 스포츠·레져용품"}]},{"lat":"37.204407765","long":"126.83169469","items":[{"name":"우림관화로구이","tel":"031-357-9249","addr":"경기도 화성시 남양읍 남양리 2050-10번지","category":"일반휴게음식 - 일반한식"}]},{"lat":"37.210827962","long":"126.81130092","items":[{"name":"우인상사","tel":"031-486-6411","addr":"경기도 화성시 남양읍 남양리 171-3번지","category":"건축자재 - 기타건축자재"}]},{"lat":"37.202572709","long":"126.81021789","items":[{"name":"우정한식부페식당","tel":"031-351-7744","addr":"경기도 화성시 남양읍 남양리 756-4번지 104호","category":"일반휴게음식 - 일반한식"}]},{"lat":"37.206238894","long":"126.80413684","items":[{"name":"운정","tel":"031-366-9921","addr":"경기도 화성시 남양읍 남양리 217번지","category":"일반휴게음식 - 일반한식"},{"name":"화성오일","tel":"031-357-6119","addr":"경기도 화성시 남양읍 남양리 217번지 107호","category":"자동차정비 유지 - 윤활유 전문 판매"}]},{"lat":"37.205824969","long":"126.82729824","items":[{"name":"워시랜드","tel":"","addr":"경기도 화성시 남양읍 남양리 2034-1번지","category":"자동차정비 유지 - 세차장"}]},{"lat":"37.206908014","long":"126.81102921","items":[{"name":"원앙주방그릇백화점","tel":"031-355-8989","addr":"경기도 화성시 남양읍 남양리 509번지 1,2층","category":"주방용구 - 주방용구"}]},{"lat":"37.203351874","long":"126.79669866","items":[{"name":"원진맨홀","tel":"031-356-8288","addr":"경기도 화성시 남양읍 남양리 370번지","category":"건축자재 - 기타건축자재"}]},{"lat":"37.21504467","long":"126.82871894","items":[{"name":"육개장터","tel":"031-356-0210","addr":"경기도 화성시 남양읍 남양리 1405-3,1405-4","category":"일반휴게음식 - 일반한식"},{"name":"육개장터","tel":"070-4310-3560","addr":"경기도 화성시 남양읍 남양리 1405-3번지 1층","category":"일반휴게음식 - 일반한식"}]},{"lat":"37.204659106","long":"126.82493538","items":[{"name":"육수당","tel":"031-355-0638","addr":"경기도 화성시 남양읍 남양리 2022-1번지 1층 101호","category":"일반휴게음식 - 일반한식"}]},{"lat":"37.208853621","long":"126.81627386","items":[{"name":"윤머리방","tel":"031-356-7449","addr":"경기도 화성시 남양읍 남양리 1165-9","category":"보건위생 - 미용원"}]},{"lat":"37.203128175","long":"126.82549093","items":[{"name":"율네일","tel":"","addr":"경기도 화성시 남양읍 남양리 2016-9번지 상가 1층 2호","category":"보건위생 - 피부미용실"}]},{"lat":"37.213382226","long":"126.81399827","items":[{"name":"은광어린이집[아이행복]","tel":"031-356-9365","addr":"경기도 화성시 남양읍 남양리 48번지","category":"학원 - 유아원"}]},{"lat":"37.201466785","long":"126.82922323","items":[{"name":"은암골","tel":"031-355-3359","addr":"경기도 화성시 남양읍 남양리 2069-3번지 1층","category":"일반휴게음식 - 일반한식"}]},{"lat":"37.204100027","long":"126.80211484","items":[{"name":"은쟁반에금사과농원","tel":"031-355-0291","addr":"경기도 화성시 남양읍 남양리 315번지","category":"음료식품 - 농·축·수산품"}]},{"lat":"37.211682491","long":"126.81603032","items":[{"name":"은혜의동산어린이집[아이행복]","tel":"031-366-7756","addr":"경기도 화성시 남양읍 남양리 1158-2번지","category":"학원 - 유아원"}]},{"lat":"37.208522413","long":"126.81766029","items":[{"name":"의류할인매장","tel":"","addr":"경기도 화성시 남양읍 남양리 1202번지","category":"의류 - 정장"},{"name":"장안순대국 남양점","tel":"","addr":"경기도 화성시 남양읍 남양리 1202번지","category":"일반휴게음식 - 일반한식"}]},{"lat":"37.20662719","long":"126.82749915","items":[{"name":"의정부부대찌개","tel":"031-357-3883","addr":"경기도 화성시 남양읍 남양리 2021-22번지 1층 101호","category":"일반휴게음식 - 일반한식"}]},{"lat":"37.203633546","long":"126.82601917","items":[{"name":"이노므시키","tel":"","addr":"경기도 화성시 남양읍 남양리 2028-14번지","category":"일반휴게음식 - 주점"}]},{"lat":"37.213014129","long":"126.81483286","items":[{"name":"이호상사","tel":"031-356-5258","addr":"경기도 화성시 남양읍 남양리 55-13번지 104호","category":"건축자재 - 기타건축자재"}]},{"lat":"37.201853652","long":"126.8288281","items":[{"name":"인디브루","tel":"031-356-8553","addr":"경기도 화성시 남양읍 남양리 2063-9번지","category":"일반휴게음식 - 일반한식"}]},{"lat":"37.213355732","long":"126.82601901","items":[{"name":"인트로기획","tel":"031-355-7788","addr":"경기도 화성시 남양읍 남양리 1351-4번지","category":"용역 서비스 - 종합용역"},{"name":"클린혁명","tel":"","addr":"경기도 화성시 남양읍 남양리 1351-4번지","category":"용역 서비스 - 종합용역"}]},{"lat":"37.204021823","long":"126.80382725","items":[{"name":"잉크원","tel":"031-355-6778","addr":"경기도 화성시 남양읍 남양리 415번지 우림그린빌리지 106동 1502호","category":"회원제형태 - 기타4"},{"name":"참","tel":"070-7783-9919","addr":"경기도 화성시 남양읍 남양리 415번지 우림그린빌리지 102동 306호","category":"신변잡화 - 기타잡화"}]},{"lat":"37.204911953","long":"126.82530652","items":[{"name":"자르다","tel":"031-357-2347","addr":"경기도 화성시 남양읍 남양리 2023-1번지 1층 101호","category":"보건위생 - 미용원"},{"name":"진솔헬스케어","tel":"070-8883-9333","addr":"경기도 화성시 남양읍 남양리 2023-1번지 진솔빌딩 지하1층","category":"보건위생 - 의료용품"}]},{"lat":"37.202993611","long":"126.79793871","items":[{"name":"자매식당","tel":"031-357-1091","addr":"경기도 화성시 남양읍 남양리 381-2번지","category":"일반휴게음식 - 일반한식"}]},{"lat":"37.201211506","long":"126.82719629","items":[{"name":"자연숯불닭갈비 막국수","tel":"031-357-5492","addr":"경기도 화성시 남양읍 남양리 2075-17번지 1층","category":"일반휴게음식 - 일반한식"}]},{"lat":"37.206439294","long":"126.81091775","items":[{"name":"자태인터네셔널주식회사","tel":"031-366-8844","addr":"경기도 화성시 남양읍 남양리 513-2번지","category":"신변잡화 - 기타잡화"}]},{"lat":"37.2072725","long":"126.83130521","items":[{"name":"장미지물장식","tel":"031-407-1921","addr":"경기도 화성시 남양읍 남양리 2044-12번지 102호","category":"직물 - 카페트,커튼,천막,지물"}]},{"lat":"37.208936589","long":"126.81746777","items":[{"name":"장수보신옥","tel":"031-366-7765","addr":"경기도 화성시 남양읍 남양리 1210번지","category":"일반휴게음식 - 일반한식"}]},{"lat":"37.202768351","long":"126.82588602","items":[{"name":"장스헤어스타일","tel":"031-356-1825","addr":"경기도 화성시 남양읍 남양리 2017-10번지","category":"보건위생 - 미용원"}]},{"lat":"37.210769243","long":"126.81975018","items":[{"name":"장터소머리국밥","tel":"031-366-9021","addr":"경기도 화성시 남양읍 남양리 1273-1번지 1층","category":"일반휴게음식 - 일반한식"}]},{"lat":"37.208404114","long":"126.81691708","items":[{"name":"전국노래연습장","tel":"031-111-1111","addr":"경기도 화성시 남양읍 남양리 1172-28번지","category":"레저업소 - 노 래 방"}]},{"lat":"37.202632859","long":"126.82566105","items":[{"name":"전주전집","tel":"031-355-3615","addr":"경기도 화성시 남양읍 남양리 2017-12번지","category":"일반휴게음식 - 일반한식"}]},{"lat":"37.204877094","long":"126.82015868","items":[{"name":"전통춘천닭갈비","tel":"031-000-0000","addr":"경기도 화성시 남양읍 남양리 1747-11번지 1층 1호","category":"일반휴게음식 - 일반한식"}]},{"lat":"37.208990527","long":"126.81738878","items":[{"name":"정가혜개인과외","tel":"","addr":"경기도 화성시 남양읍 남양리 1224-1번지","category":"학원 - 기타 교육기관"}]},{"lat":"37.201435526","long":"126.82636222","items":[{"name":"정고집 칼국수","tel":"031-357-9192","addr":"경기도 화성시 남양읍 남양리 2074-16번지","category":"일반휴게음식 - 일반한식"}]},{"lat":"37.209601957","long":"126.81657618","items":[{"name":"정조의꿈/주식회사 정조","tel":"031-355-8088","addr":"경기도 화성시 남양읍 남양리 1246-9번지 화성시청","category":"일반휴게음식 - 일반한식"}]},{"lat":"37.195854805","long":"126.79644873","items":[{"name":"제이(J)모터스","tel":"031-357-7866","addr":"경기도 화성시 남양읍 남양리 1057번지 1층 3호","category":"자동차정비 유지 - 자동차시트·타이어"}]},{"lat":"37.197383745","long":"126.79483389","items":[{"name":"제이엘씨공조","tel":"031-355-2520","addr":"경기도 화성시 남양읍 남양리 1007-61번지","category":"전기제품 - 냉열기기"}]},{"lat":"37.201773286","long":"126.82932391","items":[{"name":"젠알파참치","tel":"031-356-9212","addr":"경기도 화성시 남양읍 남양리 2068-1번지","category":"일반휴게음식 - 일식·회집"}]},{"lat":"37.20912607","long":"126.81763629","items":[{"name":"좋은날호프","tel":"031-355-6888","addr":"경기도 화성시 남양읍 남양리 1227번지","category":"일반휴게음식 - 주점"}]},{"lat":"37.205519875","long":"126.81069478","items":[{"name":"좋은벗통합심리연구소","tel":"031-505-7007","addr":"경기도 화성시 남양읍 남양리 715번지 1층","category":"학원 - 기타 교육기관"}]},{"lat":"37.206518689","long":"126.79911199","items":[{"name":"좋은식자재하나로유통주식회사","tel":"031-357-3999","addr":"경기도 화성시 남양읍 남양리 345-1번지","category":"음료식품 - 기타음료식품"},{"name":"주식회사 하나로유통","tel":"031-357-3999","addr":"경기도 화성시 남양읍 남양리 345-1번지","category":"음료식품 - 농·축·수산품"}]},{"lat":"37.210050753","long":"126.80441975","items":[{"name":"주렁주렁","tel":"","addr":"경기도 화성시 남양읍 남양리 247-1번지 신동아홈타운1단지 101동 401호","category":"음료식품 - 농·축·수산품"}]},{"lat":"37.204654408","long":"126.82783039","items":[{"name":"주식회사 라티오","tel":"031-366-7677","addr":"경기도 화성시 남양읍 남양리 2035-7번지","category":"일반휴게음식 - 서양음식"}]},{"lat":"37.208072076","long":"126.8296925","items":[{"name":"주식회사 보보","tel":"031-357-8294","addr":"경기도 화성시 남양읍 남양리 2039-12번지 1층","category":"음료식품 - 기타음료식품"}]},{"lat":"37.19079839","long":"126.80075351","items":[{"name":"주식회사 서광알미늄","tel":"031-357-9338","addr":"경기도 화성시 남양읍 남양리 954-7번지","category":"신변잡화 - 기타잡화"}]},{"lat":"37.203157527","long":"126.79894079","items":[{"name":"주식회사 킹콩마그테크","tel":"031-357-8298","addr":"경기도 화성시 남양읍 남양리 383번지 1층 103,104,105호","category":"신변잡화 - 기타잡화"}]},{"lat":"37.204238782","long":"126.8270541","items":[{"name":"주식회사에즈워즈","tel":"070-4488-0831","addr":"경기도 화성시 남양읍 남양리 2030-3번지","category":"가구 - 기타가구"}]},{"lat":"37.210599246","long":"126.82052791","items":[{"name":"중고전자","tel":"031-355-8902","addr":"경기도 화성시 남양읍 남양리 1270-10번지","category":"전기제품 - 가전제품"}]},{"lat":"37.209106265","long":"126.81649855","items":[{"name":"중앙지업사","tel":"031-357-8177","addr":"경기도 화성시 남양읍 남양리 1164-3번지","category":"직물 - 카페트,커튼,천막,지물"}]},{"lat":"37.207100617","long":"126.83083248","items":[{"name":"즉석떡볶이수상한후라이드 (떡후)","tel":"031-355-3552","addr":"경기도 화성시 남양읍 남양리 2043-9번지 1층 101호","category":"일반휴게음식 - 스넥"}]},{"lat":"37.202045937","long":"126.82482887","items":[{"name":"지누몰아울렛","tel":"","addr":"경기도 화성시 남양읍 남양리 2012-13번지 1층","category":"의류 - 정장"}]},{"lat":"37.203239685","long":"126.79956011","items":[{"name":"지민건설기계","tel":"031-357-0949","addr":"경기도 화성시 남양읍 남양리 390번지","category":"기타 - 기계공구"}]},{"lat":"37.206544752","long":"126.82063905","items":[{"name":"지혜누리","tel":"031-356-9071","addr":"경기도 화성시 남양읍 남양리 2258-2번지 1층","category":"보건위생 - 기타대인서비스"}]},{"lat":"37.206046121","long":"126.8074154","items":[{"name":"직영종합카센타","tel":"031-356-7261","addr":"경기도 화성시 남양읍 남양리 461번지","category":"자동차정비 유지 - 자동차정비"}]},{"lat":"37.197629547","long":"126.79627495","items":[{"name":"진가네","tel":"031-355-8832","addr":"경기도 화성시 남양읍 남양리 1007-1번지 1층","category":"일반휴게음식 - 일반한식"}]},{"lat":"37.203075039","long":"126.82611059","items":[{"name":"진네일","tel":"031-355-3989","addr":"경기도 화성시 남양읍 남양리 2020-6번지 101호","category":"보건위생 - 피부미용실"}]},{"lat":"37.210266018","long":"126.80383338","items":[{"name":"진성건축상사","tel":"031-355-5856","addr":"경기도 화성시 남양읍 남양리 254-2번지","category":"건축자재 - 기타건축자재"}]},{"lat":"37.20593243","long":"126.82088834","items":[{"name":"진성도삭면가","tel":"","addr":"경기도 화성시 남양읍 남양리 2257-5번지","category":"일반휴게음식 - 일반한식"},{"name":"최강학원","tel":"031-356-9996","addr":"경기도 화성시 남양읍 남양리 2257-5번지 401호","category":"학원 - 보습학원"}]},{"lat":"37.212519793","long":"126.81561142","items":[{"name":"진짬뽕","tel":"031-366-7848","addr":"경기도 화성시 남양읍 남양리 57번지","category":"일반휴게음식 - 중국식"}]},{"lat":"37.201106899","long":"126.82958451","items":[{"name":"징기스칸램","tel":"031-355-2383","addr":"경기도 화성시 남양읍 남양리 2069-6번지 1층","category":"일반휴게음식 - 일반한식"}]},{"lat":"37.211350178","long":"126.8055767","items":[{"name":"참나무골","tel":"031-356-8651","addr":"경기도 화성시 남양읍 남양리 251번지","category":"일반휴게음식 - 일반한식"}]},{"lat":"37.200517157","long":"126.82682619","items":[{"name":"참치명장","tel":"032-375-2205","addr":"경기도 화성시 남양읍 남양리 2076-1번지","category":"일반휴게음식 - 스넥"}]},{"lat":"37.207683774","long":"126.8291076","items":[{"name":"참치현홈서비스","tel":"","addr":"경기도 화성시 남양읍 남양리 2039-6번지 1층 102호","category":"일반휴게음식 - 일반한식"},{"name":"헤어화","tel":"031-356-0640","addr":"경기도 화성시 남양읍 남양리 2039-6번지","category":"보건위생 - 미용원"}]},{"lat":"37.204101714","long":"126.82577026","items":[{"name":"채은맘 수제 누룽지","tel":"","addr":"경기도 화성시 남양읍 남양리 2025-5번지 102호","category":"음료식품 - 기타음료식품"},{"name":"피자이탈리(PizzaItaly)화성남양점","tel":"","addr":"경기도 화성시 남양읍 남양리 2025-5번지 101호","category":"일반휴게음식 - 서양음식"}]},{"lat":"37.208237796","long":"126.81430399","items":[{"name":"처갓집양념치킨남양점","tel":"031-357-7177","addr":"경기도 화성시 남양읍 남양리 547번지 구일 1층","category":"일반휴게음식 - 서양음식"}]},{"lat":"37.211077175","long":"126.8207746","items":[{"name":"천지카모터스","tel":"031-357-7339","addr":"경기도 화성시 남양읍 남양리 1276-7번지","category":"자동차정비 유지 - 자동차정비"}]},{"lat":"37.202294097","long":"126.82810618","items":[{"name":"천하향양꼬치","tel":"031-355-2603","addr":"경기도 화성시 남양읍 남양리 2063-16번지","category":"일반휴게음식 - 중국식"}]},{"lat":"37.201102428","long":"126.82655449","items":[{"name":"청기와24시감자탕","tel":"031-355-3487","addr":"경기도 화성시 남양읍 남양리 2075-3번지 1동 1층","category":"일반휴게음식 - 일반한식"}]},{"lat":"37.208571358","long":"126.81441581","items":[{"name":"청초한 만들기시간","tel":"070-4656-3843","addr":"경기도 화성시 남양읍 남양리 548번지 경도그린맨션 501호","category":"음료식품 - 기타음료식품"},{"name":"히든보청기화성지사","tel":"031-1111-1111","addr":"경기도 화성시 남양읍 남양리 548번지 경도그린맨션 A동 1층 101호","category":"보건위생 - 의료용품"}]},{"lat":"37.207710207","long":"126.81119615","items":[{"name":"초엽","tel":"031-353-6599","addr":"경기도 화성시 남양읍 남양리 505-4","category":"문화.취미 - 화원"}]},{"lat":"37.199571856","long":"126.82735778","items":[{"name":"최고당돈까스(화성남양점)","tel":"031-355-9886","addr":"경기도 화성시 남양읍 남양리 2072-20번지 가동 1층","category":"일반휴게음식 - 서양음식"}]},{"lat":"37.203634271","long":"126.83266518","items":[{"name":"추억낙곱새상회","tel":"031-355-8481","addr":"경기도 화성시 남양읍 남양리 2056-22번지","category":"일반휴게음식 - 일반한식"}]},{"lat":"37.203515873","long":"126.82565899","items":[{"name":"추억불닭발","tel":"031-357-5443","addr":"경기도 화성시 남양읍 남양리 2020-2번지 101호","category":"일반휴게음식 - 일반한식"}]},{"lat":"37.205380778","long":"126.82549692","items":[{"name":"치요남치킨화성남양점","tel":"031-356-0089","addr":"경기도 화성시 남양읍 남양리 2021-7번지","category":"일반휴게음식 - 스넥"}]},{"lat":"37.207352137","long":"126.83030245","items":[{"name":"치킨플러스 화성남양점","tel":"031-357-3836","addr":"경기도 화성시 남양읍 남양리 2043-14번지 1층 101호","category":"일반휴게음식 - 스넥"}]},{"lat":"37.209188702","long":"126.8173545","items":[{"name":"칠성당","tel":"031-357-7146","addr":"경기도 화성시 남양읍 남양리 1226-2번지","category":"신변잡화 - 귀금속"}]},{"lat":"37.210492485","long":"126.80455377","items":[{"name":"카리스","tel":"070-4018-2124","addr":"경기도 화성시 남양읍 남양리 247-3번지 신동아홈타운2단지","category":"보건위생 - 화장품"}]},{"lat":"37.195913603","long":"126.82733246","items":[{"name":"카차","tel":"031-356-2337","addr":"경기도 화성시 남양읍 남양리 2170-5번지 1동 1층 101호","category":"자동차정비 유지 - 자동차부품"}]},{"lat":"37.202017586","long":"126.83002173","items":[{"name":"카페 수넴(CAFE SHUNEM)","tel":"031-000-0000","addr":"경기도 화성시 남양읍 남양리 2067-3번지 1층 102호","category":"일반휴게음식 - 서양음식"}]},{"lat":"37.207044238","long":"126.82924425","items":[{"name":"카페921","tel":"031-357-8921","addr":"경기도 화성시 남양읍 남양리 2040-11번지 102호","category":"일반휴게음식 - 서양음식"},{"name":"홍삼백화점","tel":"031-356-8828","addr":"경기도 화성시 남양읍 남양리 2040-11번지 1층 101호","category":"건강식품 - 기타건강식품"}]},{"lat":"37.20973842","long":"126.81740948","items":[{"name":"카페라딸레","tel":"","addr":"경기도 화성시 남양읍 남양리 1242-8번지","category":"일반휴게음식 - 서양음식"}]},{"lat":"37.202018472","long":"126.83062999","items":[{"name":"카페소풍","tel":"031-111-1111","addr":"경기도 화성시 남양읍 남양리 2060","category":"일반휴게음식 - 서양음식"}]},{"lat":"37.204046656","long":"126.82510579","items":[{"name":"카페테리아","tel":"070-7543-5111","addr":"경기도 화성시 남양읍 남양리 2019-3번지","category":"일반휴게음식 - 서양음식"},{"name":"톰과제리캣샵","tel":"070-7543-3111","addr":"경기도 화성시 남양읍 남양리 2019-3번지 유신빌딩 1층","category":"문화.취미 - 애완동물"}]},{"lat":"37.212877106","long":"126.82529912","items":[{"name":"커플노래연습장","tel":"031-356-9440","addr":"경기도 화성시 남양읍 남양리 1373-6번지 2층","category":"레저업소 - 노 래 방"},{"name":"통큰무한삼겹","tel":"031-357-1205","addr":"경기도 화성시 남양읍 남양리 1373-6번지","category":"일반휴게음식 - 일반한식"}]},{"lat":"37.208574389","long":"126.81633088","items":[{"name":"커피마당","tel":"031-355-9166","addr":"경기도 화성시 남양읍 남양리 1168-1번지","category":"일반휴게음식 - 서양음식"}]},{"lat":"37.196078247","long":"126.82899905","items":[{"name":"커피베이 화성시청점","tel":"031-357-6638","addr":"경기도 화성시 남양읍 남양리 2159-4번지 1층 전부","category":"일반휴게음식 - 서양음식"}]},{"lat":"37.205099238","long":"126.82402191","items":[{"name":"커피홀릭","tel":"031-356-3929","addr":"경기도 화성시 남양읍 남양리 2268-8번지 1층","category":"일반휴게음식 - 서양음식"}]},{"lat":"37.208099432","long":"126.81229915","items":[{"name":"케이워셔(k-wash)셀프,손세차","tel":"031-356-4586","addr":"경기도 화성시 남양읍 남양리 569-1번지","category":"자동차정비 유지 - 세차장"}]},{"lat":"37.205244912","long":"126.83112957","items":[{"name":"케이원할인마트","tel":"031-355-2845","addr":"경기도 화성시 남양읍 남양리 2049-2번지 1층","category":"유통업 영리 - 슈퍼마켓"}]},{"lat":"37.209630525","long":"126.8175562","items":[{"name":"코리안마켓 (korean market)","tel":"031-357-4019","addr":"경기도 화성시 남양읍 남양리 1225-8번지","category":"유통업 영리 - 슈퍼마켓"}]},{"lat":"37.207765706","long":"126.81208595","items":[{"name":"코코넛","tel":"031-355-0400","addr":"경기도 화성시 남양읍 남양리 570-1번지 2층","category":"보건위생 - 미용재료"}]},{"lat":"37.209629696","long":"126.81702673","items":[{"name":"콘크라이틴푸드(KONKLAITHIN FOOD)","tel":"031-355-9795","addr":"경기도 화성시 남양읍 남양리 1242-7번지","category":"유통업 영리 - 슈퍼마켓"}]},{"lat":"37.204271255","long":"126.82466594","items":[{"name":"쿠시니(CUSINY)","tel":"031-000-0000","addr":"경기도 화성시 남양읍 남양리 2011-4번지 1층","category":"직물 - 침구·수예점"}]},{"lat":"37.208210496","long":"126.81413508","items":[{"name":"쿡1015화성남양점","tel":"031-357-6909","addr":"경기도 화성시 남양읍 남양리 546번지 1층","category":"음료식품 - 기타음료식품"}]},{"lat":"37.213713083","long":"126.81810951","items":[{"name":"태백산한우","tel":"031-356-8253","addr":"경기도 화성시 남양읍 남양리 1148-10번지","category":"음료식품 - 정육점"},{"name":"토종한우도축장직영식당","tel":"031-356-8253","addr":"경기도 화성시 남양읍 남양리 1148-10번지","category":"일반휴게음식 - 일반한식"}]},{"lat":"37.201601726","long":"126.82907649","items":[{"name":"태성추어탕","tel":"031-357-9575","addr":"경기도 화성시 남양읍 남양리 2069-2번지 1층","category":"일반휴게음식 - 일반한식"}]},{"lat":"37.211573297","long":"126.8211339","items":[{"name":"태양가스","tel":"031-353-1001","addr":"경기도 화성시 남양읍 남양리 1311-1번지","category":"연료판매점 - LPG 취급점"}]},{"lat":"37.194774213","long":"126.8306915","items":[{"name":"태양건재철물","tel":"031-355-4718","addr":"경기도 화성시 남양읍 남양리 2155-13번지","category":"건축자재 - 목재·석재·철물"}]},{"lat":"37.203329343","long":"126.79930079","items":[{"name":"태양전기","tel":"031-355-1083","addr":"경기도 화성시 남양읍 남양리 387번지","category":"전기제품 - 기타전기제품"}]},{"lat":"37.206655452","long":"126.82833268","items":[{"name":"태영체형관리실","tel":"","addr":"경기도 화성시 남양읍 남양리 2033-6번지 1층","category":"보건위생 - 피부미용실"}]},{"lat":"37.201441416","long":"126.83036096","items":[{"name":"택이네조개전골","tel":"031-8055-8863","addr":"경기도 화성시 남양읍 남양리 2067-8번지 1층","category":"일반휴게음식 - 일반한식"}]},{"lat":"37.199545475","long":"126.82779713","items":[{"name":"토담골","tel":"031-357-8535","addr":"경기도 화성시 남양읍 남양리 2078-1번지 1층 101,102호","category":"일반휴게음식 - 일반한식"}]},{"lat":"37.208991038","long":"126.81771547","items":[{"name":"토비하우스","tel":"031-356-5323","addr":"경기도 화성시 남양읍 남양리 1209번지 1층","category":"일반휴게음식 - 스넥"}]},{"lat":"37.19496384","long":"126.83097265","items":[{"name":"통돼지 두루치기","tel":"031-000-0000","addr":"경기도 화성시 남양읍 남양리 2155-15번지","category":"일반휴게음식 - 일반한식"}]},{"lat":"37.201713972","long":"126.82577584","items":[{"name":"투썸플레이스 화성남양점","tel":"031-355-2733","addr":"경기도 화성시 남양읍 남양리 2073-2번지 1층","category":"일반휴게음식 - 서양음식"}]},{"lat":"37.20312689","long":"126.82463484","items":[{"name":"투존치킨","tel":"031-356-0780","addr":"경기도 화성시 남양읍 남양리 2014-4번지 1층","category":"일반휴게음식 - 스넥"}]},{"lat":"37.202936586","long":"126.82391437","items":[{"name":"티바두마리치킨","tel":"031-357-9293","addr":"경기도 화성시 남양읍 남양리 2012-4번지 1층","category":"일반휴게음식 - 스넥"}]},{"lat":"37.207161777","long":"126.81194103","items":[{"name":"티스테이션 남양점","tel":"031-356-9095","addr":"경기도 화성시 남양읍 남양리 517번지","category":"자동차정비 유지 - 자동차정비"}]},{"lat":"37.208020974","long":"126.81394404","items":[{"name":"패션아울렛","tel":"031-355-7599","addr":"경기도 화성시 남양읍 남양리 545번지 1층 1호","category":"의류 - 정장"}]},{"lat":"37.20551627","long":"126.8257219","items":[{"name":"편백나무향기","tel":"031-357-8280","addr":"경기도 화성시 남양읍 남양리 2021-9번지 지하1층 101호","category":"가구 - 일반가구"}]},{"lat":"37.206271502","long":"126.83072171","items":[{"name":"평양면옥","tel":"031-366-9229","addr":"경기도 화성시 남양읍 남양리 2045-4번지 101호","category":"일반휴게음식 - 일반한식"}]},{"lat":"37.196799192","long":"126.82907624","items":[{"name":"포지티노","tel":"031-357-8243","addr":"경기도 화성시 남양읍 남양리 2148-3번지 1층","category":"일반휴게음식 - 일반한식"}]},{"lat":"37.210793302","long":"126.80127473","items":[{"name":"풀잎사랑","tel":"031-357-0312","addr":"경기도 화성시 남양읍 남양리 2005번지 금강에스쁘아 101동 1102호","category":"문화.취미 - 문화취미기타"}]},{"lat":"37.204544715","long":"126.82677177","items":[{"name":"피자헐","tel":"031-357-7611","addr":"경기도 화성시 남양읍 남양리 2027-7번지 1층","category":"일반휴게음식 - 스넥"}]},{"lat":"37.204352528","long":"126.83088377","items":[{"name":"픽미픽미아이스 화성남양점","tel":"031-111-1111","addr":"경기도 화성시 남양읍 남양리 2049-11번지 1층 101호","category":"음료식품 - 기타음료식품"}]},{"lat":"37.213518506","long":"126.82641294","items":[{"name":"하비 목공방","tel":"031-437-6510","addr":"경기도 화성시 남양읍 남양리 1351-6번지","category":"가구 - 일반가구"},{"name":"한국지엠 화성남양지정서비스","tel":"031-357-7380","addr":"경기도 화성시 남양읍 남양리 1351-6번지","category":"자동차정비 유지 - 자동차정비"}]},{"lat":"37.207713321","long":"126.83083108","items":[{"name":"하이루 초계명가","tel":"031-366-8222","addr":"경기도 화성시 남양읍 남양리 2044-18번지 101호","category":"일반휴게음식 - 일반한식"}]},{"lat":"37.209243855","long":"126.81805281","items":[{"name":"한국식품(월드푸드)","tel":"031-366-9899","addr":"경기도 화성시 남양읍 남양리 1232번지 101호","category":"유통업 영리 - 슈퍼마켓"}]},{"lat":"37.195351122","long":"126.83085914","items":[{"name":"한국아이지에이 남양점","tel":"031-000-0000","addr":"경기도 화성시 남양읍 남양리 2156-1번지","category":"유통업 영리 - 슈퍼마켓"}]},{"lat":"37.20721739","long":"126.81860974","items":[{"name":"한국토목측량설계공사","tel":"031-355-2343","addr":"경기도 화성시 남양읍 남양리 1681","category":"건축자재 - 기타건축자재"}]},{"lat":"37.20499451","long":"126.83243683","items":[{"name":"한렬헤어빌드","tel":"031-366-9434","addr":"경기도 화성시 남양읍 남양리 2052-4번지 1동 1층","category":"보건위생 - 미용원"}]},{"lat":"37.215436435","long":"126.8196375","items":[{"name":"한성주유소","tel":"031-356-5705","addr":"경기도 화성시 남양읍 남양리 1120-5번지","category":"연료판매점 - GS주유소"},{"name":"한성주유소","tel":"031-356-5705","addr":"경기도 화성시 남양읍 남양리 1120-5번지","category":"연료판매점 - GS주유소"}]},{"lat":"37.208684035","long":"126.81729941","items":[{"name":"한우사골곰탕","tel":"","addr":"경기도 화성시 남양읍 남양리 1215번지","category":"일반휴게음식 - 일반한식"}]},{"lat":"37.208077772","long":"126.81566746","items":[{"name":"한중만두전문점","tel":"031-356-5727","addr":"경기도 화성시 남양읍 남양리 662-2번지","category":"일반휴게음식 - 일반한식"}]},{"lat":"37.202825342","long":"126.82785714","items":[{"name":"한판소","tel":"031-356-9661","addr":"경기도 화성시 남양읍 남양리 2061-6번지","category":"일반휴게음식 - 일반한식"}]},{"lat":"37.209685923","long":"126.81841222","items":[{"name":"할인마트정육점","tel":"031-357-5103","addr":"경기도 화성시 남양읍 남양리 1267-4번지","category":"음료식품 - 정육점"}]},{"lat":"37.215272256","long":"126.81835356","items":[{"name":"행복주유소","tel":"031-356-8472","addr":"경기도 화성시 남양읍 남양리 1108-3번지","category":"연료판매점 - SK주유소"}]},{"lat":"37.20432623","long":"126.8252741","items":[{"name":"허니족발","tel":"031-356-3326","addr":"경기도 화성시 남양읍 남양리 2025-1번지 1층","category":"일반휴게음식 - 일반한식"},{"name":"홀리어학원","tel":"031-355-0787","addr":"경기도 화성시 남양읍 남양리 2025-1번지 1층","category":"회원제형태 - 학원"}]},{"lat":"37.20826637","long":"126.82702222","items":[{"name":"헤어살롱 BELLA S","tel":"031-366-7007","addr":"경기도 화성시 남양읍 남양리 2280-4번지 105호","category":"보건위생 - 미용원"}]},{"lat":"37.203072166","long":"126.82419566","items":[{"name":"헤어섹션","tel":"031-355-3707","addr":"경기도 화성시 남양읍 남양리 2014-1번지","category":"보건위생 - 미용원"}]},{"lat":"37.211320617","long":"126.81510744","items":[{"name":"현대토탈씽크대","tel":"031-366-8288","addr":"경기도 화성시 남양읍 남양리 629-1번지","category":"주방용구 - 주방용구"}]},{"lat":"37.209878098","long":"126.83241458","items":[{"name":"현대편의점","tel":"","addr":"경기도 화성시 남양읍 남양리 2232-5번지 120호","category":"유통업 영리 - 편 의 점"},{"name":"휴대폰거래소","tel":"031-111-1111","addr":"경기도 화성시 남양읍 남양리 2232-5번지 1층 116호","category":"사무통신 - 통신기기"}]},{"lat":"37.206627286","long":"126.81016252","items":[{"name":"현우상사","tel":"031-356-2080","addr":"경기도 화성시 남양읍 남양리 483번지","category":"자동차정비 유지 - 자동차부품"}]},{"lat":"37.212797524","long":"126.81460808","items":[{"name":"현전기조명","tel":"031-355-5199","addr":"경기도 화성시 남양읍 남양리 55-3번지 1층","category":"건축자재 - 조명기구"}]},{"lat":"37.20396639","long":"126.82565793","items":[{"name":"형경홈마트","tel":"031-355-2992","addr":"경기도 화성시 남양읍 남양리 2025-8번지","category":"유통업 영리 - 슈퍼마켓"}]},{"lat":"37.202437397","long":"126.82752011","items":[{"name":"혜화동돈까스극장","tel":"031-356-5568","addr":"경기도 화성시 남양읍 남양리 2062-2번지 1층","category":"일반휴게음식 - 일반한식"}]},{"lat":"37.203102924","long":"126.79346647","items":[{"name":"홍길동낚시","tel":"031-356-6153","addr":"경기도 화성시 남양읍 남양리 365-3번지","category":"레져용품 - 스포츠·레져용품"}]},{"lat":"37.202159556","long":"126.82852327","items":[{"name":"홍이네 만물상점","tel":"","addr":"경기도 화성시 남양읍 남양리 2063-5번지 남양시티빌 101호","category":"의류 - 정장"}]},{"lat":"37.206267176","long":"126.82777034","items":[{"name":"홍천덤바우록계탕","tel":"031-366-7880","addr":"경기도 화성시 남양읍 남양리 2033-2번지 1층","category":"일반휴게음식 - 일반한식"}]},{"lat":"37.208376339","long":"126.81644402","items":[{"name":"홍콩객잔","tel":"031-366-7771","addr":"경기도 화성시 남양읍 남양리 1168-13번지","category":"일반휴게음식 - 중국식"}]},{"lat":"37.199793498","long":"126.79711384","items":[{"name":"화성골재건재벽돌","tel":"031-356-2211","addr":"경기도 화성시 남양읍 남양리 995-2번지","category":"건축자재 - 기타건축자재"}]},{"lat":"37.207070692","long":"126.81133295","items":[{"name":"화성기계설비","tel":"031-366-7853","addr":"경기도 화성시 남양읍 남양리 508-1번지","category":"건축자재 - 기타건축자재"}]},{"lat":"37.19532489","long":"126.8314111","items":[{"name":"화성냉면","tel":"031-366-9278","addr":"경기도 화성시 남양읍 남양리 2150-7번지","category":"일반휴게음식 - 일반한식"}]},{"lat":"37.203156964","long":"126.79861413","items":[{"name":"화성목재","tel":"031-355-0394","addr":"경기도 화성시 남양읍 남양리 382번지","category":"건축자재 - 목재·석재·철물"}]},{"lat":"37.196997105","long":"126.82886178","items":[{"name":"화성수산물직판장","tel":"","addr":"경기도 화성시 남양읍 남양리 2148-1번지 1층","category":"일반휴게음식 - 일식·회집"}]},{"lat":"37.211487515","long":"126.82397304","items":[{"name":"화성시니어클럽 노노카페 (남양읍사무소점)","tel":"031-8059-4349","addr":"경기도 화성시 남양읍 남양리 1340번지 1층","category":"일반휴게음식 - 서양음식"}]},{"lat":"37.199298278","long":"126.83127821","items":[{"name":"화성시니어클럽 노노카페 (화성시청민원동","tel":"031-8059-4349","addr":"경기도 화성시 남양읍 남양리 2000번지 화성시청","category":"일반휴게음식 - 서양음식"},{"name":"화성시청_평생학습관","tel":"031-396-3815","addr":"경기도 화성시 남양읍 남양리 2000번지 화성시청","category":"자동차정비 유지 - 주차장"}]},{"lat":"37.211070347","long":"126.8107483","items":[{"name":"화성임업사","tel":"031-355-5759","addr":"경기도 화성시 남양읍 남양리 166번지 1층","category":"용역 서비스 - 기타용역서비스"}]},{"lat":"37.205578308","long":"126.80785593","items":[{"name":"화성재활용","tel":"031-355-5617","addr":"경기도 화성시 남양읍 남양리 466번지","category":"신변잡화 - 기타잡화"}]},{"lat":"37.20837586","long":"126.81613986","items":[{"name":"화성전자","tel":"031-357-1193","addr":"경기도 화성시 남양읍 남양리 1168-2번지","category":"전기제품 - 기타전기제품"}]},{"lat":"37.207855701","long":"126.81769572","items":[{"name":"황금불닭발","tel":"031-356-4140","addr":"경기도 화성시 남양읍 남양리 1172-36","category":"일반휴게음식 - 일반한식"}]},{"lat":"37.201187498","long":"126.8292464","items":[{"name":"황제민물장어","tel":"031-366-9870","addr":"경기도 화성시 남양읍 남양리 2069-11번지","category":"일반휴게음식 - 일반한식"}]},{"lat":"37.202024235","long":"126.82841093","items":[{"name":"횡성생고기","tel":"031-357-9269","addr":"경기도 화성시 남양읍 남양리 2063-13번지","category":"일반휴게음식 - 일반한식"}]},{"lat":"37.202821619","long":"126.83147299","items":[{"name":"효자설비","tel":"031-357-8217","addr":"경기도 화성시 남양읍 남양리 2058-4번지","category":"건축자재 - 인테리어전문"}]}]