[{"lat":"37.100421996","long":"126.89663392","imageIndex":16,"items":[{"name":"경희대 상신태권도","tel":"031-353-9980","addr":"경기도 화성시 향남읍 상신리 1327-4번지 403,404호","indutype":"학원 - 예·체능계학원","category":"study"},{"name":"해법수학뮤엠영어학원","tel":"031-353-0834","addr":"경기도 화성시 향남읍 상신리 1327-4번지 401호","indutype":"학원 - 보습학원","category":"study"}]},{"lat":"37.093811909","long":"126.90079372","imageIndex":16,"items":[{"name":"상신초등학교병설유치원[아이행복]","tel":"031-366-4168","addr":"경기도 화성시 향남읍 상신리 874번지 상신초등학교","indutype":"학원 - 유치원","category":"study"}]},{"lat":"37.097367173","long":"126.89635697","imageIndex":16,"items":[{"name":"시립서봉제4어린이집[아이행복]","tel":"031-354-3826","addr":"경기도 화성시 향남읍 상신리 1331번지 언덕마을18단지","indutype":"학원 - 유아원","category":"study"}]},{"lat":"37.100864823","long":"126.89810695","imageIndex":16,"items":[{"name":"시립향남공원어린이집[아이행복]","tel":"031-366-2335","addr":"경기도 화성시 향남읍 상신리 1308번지 (향남2지구 5호근린공원내)","indutype":"학원 - 유아원","category":"study"}]},{"lat":"37.112642315","long":"126.89893454","imageIndex":16,"items":[{"name":"아이젠 어린이집[아이행복]","tel":"031-354-3710","addr":"경기도 화성시 향남읍 상신리 87-15번지","indutype":"학원 - 유아원","category":"study"}]},{"lat":"37.10511789","long":"126.89821359","imageIndex":16,"items":[{"name":"안(An)기타교습소","tel":"031-353-9661","addr":"경기도 화성시 향남읍 상신리 1290-5번지","indutype":"학원 - 예·체능계학원","category":"study"}]},{"lat":"37.09486764","long":"126.90254704","imageIndex":16,"items":[{"name":"이룸유치원[아이행복]","tel":"031-352-2967","addr":"경기도 화성시 향남읍 상신리 846","indutype":"학원 - 유치원","category":"study"}]},{"lat":"37.112750175","long":"126.89863062","imageIndex":16,"items":[{"name":"지은유치원[아이행복]","tel":"031-352-9142","addr":"경기도 화성시 향남읍 상신리 87-12번지","indutype":"학원 - 유치원","category":"study"}]},{"lat":"37.10627961","long":"126.89749199","imageIndex":16,"items":[{"name":"향남아이비어린이집[아이행복]","tel":"031-8059-0486","addr":"경기도 화성시 향남읍 상신리 393-6","indutype":"학원 - 유아원","category":"study"}]},{"lat":"37.108425827","long":"126.89943532","imageIndex":16,"items":[{"name":"향남하늘빛어린이집[아이행복]","tel":"031-366-3806","addr":"경기도 화성시 향남읍 상신리 610-95번지 썬키즈어린이집","indutype":"학원 - 유아원","category":"study"}]}]