[{"lat":"37.51595337","long":"126.76976944","imageIndex":8,"items":[{"name":"경희바른한의원","tel":"032-721-7510","addr":"경기도 부천시 삼정동 293-31번지 2층","indutype":"의원 - 한의원","category":"medical"}]},{"lat":"37.518920722","long":"126.76232847","imageIndex":8,"items":[{"name":"닥터김DK의원","tel":"032-321-8075","addr":"경기도 부천시 삼정동 364번지 부천테크노파크1단지 1,2층","indutype":"의원 - 의원","category":"medical"},{"name":"테크노미래치과의원","tel":"032-323-8875","addr":"경기도 부천시 삼정동 364번지","indutype":"의원 - 치과의원","category":"medical"},{"name":"테크노약국","tel":"032-322-2309","addr":"경기도 부천시 삼정동 364번지 부천테크노파크1단지 1층","indutype":"약국 - 약국","category":"medical"}]},{"lat":"37.515782071","long":"126.76971342","imageIndex":8,"items":[{"name":"동경약국","tel":"032-672-6633","addr":"경기도 부천시 삼정동 293-14번지","indutype":"약국 - 약국","category":"medical"},{"name":"허피부피뇨과","tel":"032-681-7500","addr":"경기도 부천시 삼정동 293-14번지 국제빌딩 301호","indutype":"의원 - 의원","category":"medical"}]},{"lat":"37.516088517","long":"126.76976902","imageIndex":8,"items":[{"name":"무지개소아과","tel":"032-682-5520","addr":"경기도 부천시 삼정동 293-30번지 세종빌딩 2층","indutype":"의원 - 의원","category":"medical"}]},{"lat":"37.516062758","long":"126.77041384","imageIndex":8,"items":[{"name":"미소애 치과의원","tel":"032-676-2804","addr":"경기도 부천시 삼정동 314번지 서경빌딩 3층 전체","indutype":"의원 - 치과의원","category":"medical"},{"name":"삼성우리이비인후과의원부천점","tel":"032-684-8222","addr":"경기도 부천시 삼정동 314번지 2층 1호","indutype":"의원 - 의원","category":"medical"},{"name":"은약국","tel":"032-684-8109","addr":"경기도 부천시 삼정동 314번지 서경빌딩 1층 11호","indutype":"약국 - 약국","category":"medical"}]},{"lat":"37.514837777","long":"126.77059862","imageIndex":8,"items":[{"name":"부천심미치과의원","tel":"032-675-2852","addr":"경기도 부천시 삼정동 342-3번지 2층","indutype":"의원 - 치과의원","category":"medical"},{"name":"햇빛동물병원","tel":"032-676-7584","addr":"경기도 부천시 삼정동 342-3 1층(101호)","indutype":"기타의료기관 - 동물병원","category":"medical"}]},{"lat":"37.51528769","long":"126.77030314","imageIndex":8,"items":[{"name":"삼정한의원","tel":"032-679-7575","addr":"경기도 부천시 삼정동 314-9번지","indutype":"의원 - 한의원","category":"medical"},{"name":"신명철치과","tel":"032-672-8172","addr":"경기도 부천시 삼정동 314-9번지","indutype":"의원 - 치과의원","category":"medical"}]},{"lat":"37.516340748","long":"126.76974562","imageIndex":8,"items":[{"name":"신흥한의원","tel":"032-677-7585","addr":"경기도 부천시 삼정동 294-11번지 2층","indutype":"의원 - 한의원","category":"medical"}]},{"lat":"37.517675296","long":"126.77029573","imageIndex":8,"items":[{"name":"약대종로약국","tel":"032-677-0541","addr":"경기도 부천시 삼정동 303-1번지 창안빌딩 1층","indutype":"약국 - 약국","category":"medical"},{"name":"한중한방병원","tel":"031-1522-6344","addr":"경기도 부천시 삼정동 303-1번지 창안빌딩 2,3층","indutype":"병원 - 한방병원","category":"medical"}]},{"lat":"37.516287782","long":"126.77030003","imageIndex":8,"items":[{"name":"정내과","tel":"032-673-7582","addr":"경기도 부천시 삼정동 308-12번지","indutype":"의원 - 의원","category":"medical"}]},{"lat":"37.51711537","long":"126.76963009","imageIndex":8,"items":[{"name":"한복한가정의원","tel":"032-672-5311","addr":"경기도 부천시 삼정동 294-1번지","indutype":"의원 - 의원","category":"medical"},{"name":"한빛약국","tel":"032-674-2912","addr":"경기도 부천시 삼정동 294-1번지","indutype":"약국 - 약국","category":"medical"},{"name":"행복한가정의원","tel":"032-672-5311","addr":"경기도 부천시 삼정동 294-1번지","indutype":"의원 - 의원","category":"medical"}]}]