[{"lat":"37.202358117","long":"126.934294","items":[{"name":"(주) 코다","tel":"031-298-5118","addr":"경기도 화성시 봉담읍 상기리 387-1번지","category":"자동차정비 유지 - 자동차부품"}]},{"lat":"37.202131302","long":"126.93165838","items":[{"name":"(주)티에이블","tel":"070-5101-6289","addr":"경기도 화성시 봉담읍 상기리 336-26번지 수원여자대학해란캠퍼스 107호","category":"음료식품 - 기타음료식품"},{"name":"농업회사법인 주식회사 더푸른","tel":"031-221-6429","addr":"경기도 화성시 봉담읍 상기리 336-26번지 수원여자대학교 창업보육센터 320호","category":"음료식품 - 기타음료식품"},{"name":"농업회사법인주식회사더푸른","tel":"031-221-6429","addr":"경기도 화성시 봉담읍 상기리 336-26번지 320 수원여자대학교창업보육센터","category":"농업 - 기타농업관련"},{"name":"미니스톱수원여대해란점","tel":"031-1577-9621","addr":"경기도 화성시 봉담읍 상기리 336-26번지 학생회관 2층 매점","category":"유통업 영리 - 편 의 점"}]},{"lat":"37.198664802","long":"126.92154684","items":[{"name":"다온","tel":"070-8880-3690","addr":"경기도 화성시 봉담읍 상기리 439-1번지","category":"건축자재 - 건축용 요업제품"}]},{"lat":"37.199386523","long":"126.92285267","items":[{"name":"담지헌","tel":"031-251-8555","addr":"경기도 화성시 봉담읍 상기리 424-4번지","category":"일반휴게음식 - 일반한식"}]},{"lat":"37.198684352","long":"126.91129686","items":[{"name":"목포식당","tel":"031-295-3360","addr":"경기도 화성시 봉담읍 상기리 600번지 1층일부","category":"일반휴게음식 - 일반한식"},{"name":"초당골슈퍼","tel":"031-227-1814","addr":"경기도 화성시 봉담읍 상기리 600번지","category":"유통업 영리 - 슈퍼마켓"}]},{"lat":"37.196603655","long":"126.9122117","items":[{"name":"몽떼","tel":"050-5299-3401","addr":"경기도 화성시 봉담읍 상기리 565-4번지","category":"일반휴게음식 - 일반한식"}]},{"lat":"37.196748729","long":"126.91340545","items":[{"name":"산골식당","tel":"031-227-0307","addr":"경기도 화성시 봉담읍 상기리 558번지","category":"일반휴게음식 - 일반한식"}]},{"lat":"37.198990766","long":"126.91137533","items":[{"name":"산촌","tel":"031-298-3331","addr":"경기도 화성시 봉담읍 상기리 601번지 나동","category":"일반휴게음식 - 일반한식"}]},{"lat":"37.200630643","long":"126.92387638","items":[{"name":"삼원수산","tel":"031-227-3550","addr":"경기도 화성시 봉담읍 상기리 415-1","category":"음료식품 - 농·축·수산품"}]},{"lat":"37.205077946","long":"126.9320724","items":[{"name":"솔잎사랑방","tel":"031-298-1761","addr":"경기도 화성시 봉담읍 상기리 365번지","category":"일반휴게음식 - 일반한식"}]},{"lat":"37.196857337","long":"126.91404734","items":[{"name":"에이치에이","tel":"","addr":"경기도 화성시 봉담읍 상기리 552-9번지","category":"용역 서비스 - 기타용역서비스"}]},{"lat":"37.197629566","long":"126.92295589","items":[{"name":"엘림심리상담센터","tel":"031-258-5824","addr":"경기도 화성시 봉담읍 상기리 431-1번지 1층","category":"보건위생 - 기타대인서비스"}]},{"lat":"37.204717295","long":"126.93167848","items":[{"name":"연향제","tel":"","addr":"경기도 화성시 봉담읍 상기리 368번지","category":"일반휴게음식 - 서양음식"}]},{"lat":"37.196443087","long":"126.91435193","items":[{"name":"원조옛날보리밥집","tel":"031-227-2977","addr":"경기도 화성시 봉담읍 상기리 553-1번지","category":"일반휴게음식 - 일반한식"}]},{"lat":"37.199748305","long":"126.92490231","items":[{"name":"인크락스 주식회사","tel":"031-235-5446","addr":"경기도 화성시 봉담읍 상기리 422번지 1층","category":"건축자재 - 조명기구"},{"name":"주식회사인크룩스","tel":"031-237-5446","addr":"경기도 화성시 봉담읍 상기리 422번지","category":"건축자재 - 조명기구"}]},{"lat":"37.212100465","long":"126.92328987","items":[{"name":"자연과 함께하는 농장","tel":"031-735-3975","addr":"경기도 화성시 봉담읍 상기리 238-3번지","category":"음료식품 - 농·축·수산품"}]},{"lat":"37.193413406","long":"126.90045704","items":[{"name":"저수지슈퍼","tel":"041-111-1111","addr":"경기도 화성시 봉담읍 상기리 763-37번지","category":"음료식품 - 기타음료식품"}]},{"lat":"37.197801308","long":"126.92376669","items":[{"name":"즘골마을","tel":"031-227-7750","addr":"경기도 화성시 봉담읍 상기리 427-1번지","category":"일반휴게음식 - 일반한식"}]},{"lat":"37.200576811","long":"126.91165502","items":[{"name":"초당낚시터","tel":"031-227-0387","addr":"경기도 화성시 봉담읍 상기리 607","category":"레져용품 - 스포츠·레져용품"}]},{"lat":"37.195885569","long":"126.91587313","items":[{"name":"풀빛 야생화 정원","tel":"","addr":"경기도 화성시 봉담읍 상기리 553-19번지","category":"문화.취미 - 화원"}]}]