[{"lat":"37.82180755","long":"126.89766402","items":[{"name":"KS골프아카데미","tel":"031-945-9691","addr":"경기도 파주시 광탄면 발랑리 123-1번지","category":"레저업소 - 골프연습장"}]},{"lat":"37.807610447","long":"126.8898602","items":[{"name":"Stage Big Bell","tel":"031-957-9337","addr":"경기도 파주시 광탄면 발랑리 357-1번지","category":"용역 서비스 - 종합용역"}]},{"lat":"37.812558914","long":"126.90231051","items":[{"name":"광탄빙그레대리점","tel":"031-712-9201","addr":"경기도 파주시 광탄면 발랑리 90-10번지","category":"음료식품 - 기타음료식품"}]},{"lat":"37.810670762","long":"126.8964193","items":[{"name":"국제애견","tel":"031-595-1199","addr":"경기도 파주시 광탄면 발랑리 149-9번지","category":"문화.취미 - 애완동물"}]},{"lat":"37.806699458","long":"126.89850304","items":[{"name":"네꼬야엔스토리","tel":"","addr":"경기도 파주시 광탄면 발랑리 39-14번지","category":"일반휴게음식 - 서양음식"}]},{"lat":"37.811423072","long":"126.90155119","items":[{"name":"대광","tel":"031-941-7812","addr":"경기도 파주시 광탄면 발랑리 47-6번지","category":"건축자재 - 목재·석재·철물"}]},{"lat":"37.806951943","long":"126.89875251","items":[{"name":"모든기계상사","tel":"031-988-2523","addr":"경기도 파주시 광탄면 발랑리 39-2번지","category":"기타 - 기타 전문점"}]},{"lat":"37.806139952","long":"126.8974705","items":[{"name":"모토부스","tel":"031-111-1111","addr":"경기도 파주시 광탄면 발랑리 162-3번지","category":"레져용품 - 스포츠·레져용품"}]},{"lat":"37.809254452","long":"126.90468835","items":[{"name":"미니스톱파주발랑점","tel":"031-1577-9621","addr":"경기도 파주시 광탄면 발랑리 68-2번지","category":"유통업 영리 - 편 의 점"}]},{"lat":"37.806194195","long":"126.9083034","items":[{"name":"미주주유소","tel":"031-944-5175","addr":"경기도 파주시 광탄면 발랑리 13-7번지","category":"연료판매점 - 쌍용S-OIL"}]},{"lat":"37.806058788","long":"126.90797427","items":[{"name":"발랑낚시터매점","tel":"031-941-8675","addr":"경기도 파주시 광탄면 발랑리 13-8","category":"음료식품 - 기타음료식품"}]},{"lat":"37.803335575","long":"126.89478338","items":[{"name":"백경수가든","tel":"031-941-2346","addr":"경기도 파주시 광탄면 발랑리 187-3번지","category":"일반휴게음식 - 일반한식"}]},{"lat":"37.803533187","long":"126.89413586","items":[{"name":"백경수산","tel":"031-111-1111","addr":"경기도 파주시 광탄면 발랑리 188-5번지","category":"음료식품 - 농·축·수산품"}]},{"lat":"37.798113289","long":"126.89833346","items":[{"name":"살롱드발롱","tel":"031-000-0000","addr":"경기도 파주시 광탄면 발랑리 228-1번지","category":"문화.취미 - 문화취미기타"}]},{"lat":"37.808084333","long":"126.90602987","items":[{"name":"선경종합가스","tel":"031-941-9099","addr":"경기도 파주시 광탄면 발랑리 18-1번지","category":"연료판매점 - LPG 취급점"}]},{"lat":"37.813672965","long":"126.89872036","items":[{"name":"세종봉투&프린팅","tel":"02-2265-6713","addr":"경기도 파주시 광탄면 발랑리 97-3","category":"서적문구 - 출판 및 인쇄물"}]},{"lat":"37.803004542","long":"126.8973387","items":[{"name":"소나무가든","tel":"031-948-7449","addr":"경기도 파주시 광탄면 발랑리 196-5번지","category":"일반휴게음식 - 일반한식"}]},{"lat":"37.807332109","long":"126.8908599","items":[{"name":"송이뜰농장","tel":"031-941-9015","addr":"경기도 파주시 광탄면 발랑리 374번지","category":"음료식품 - 농·축·수산품"}]},{"lat":"37.80716639","long":"126.90728017","items":[{"name":"아콘트리","tel":"","addr":"경기도 파주시 광탄면 발랑리 15-1번지","category":"일반휴게음식 - 서양음식"}]},{"lat":"37.808729775","long":"126.90216808","items":[{"name":"장원","tel":"031-941-0941","addr":"경기도 파주시 광탄면 발랑리 61-7","category":"음료식품 - 정육점"},{"name":"장원갈비","tel":"031-941-0941","addr":"경기도 파주시 광탄면 발랑리 61-7번지","category":"일반휴게음식 - 일반한식"}]},{"lat":"37.813055627","long":"126.90371803","items":[{"name":"제이제이컴퍼니","tel":"070-4128-7174","addr":"경기도 파주시 광탄면 발랑리 86번지","category":"광학제품 - 사진관"}]},{"lat":"37.806277788","long":"126.89063439","items":[{"name":"진스포츠","tel":"","addr":"경기도 파주시 광탄면 발랑리 367-2번지","category":"레져용품 - 골프용품 전문점"}]},{"lat":"37.807141213","long":"126.88908874","items":[{"name":"진원","tel":"031-944-5598","addr":"경기도 파주시 광탄면 발랑리 356-1번지","category":"용역 서비스 - 기타용역서비스"}]},{"lat":"37.807421819","long":"126.90033026","items":[{"name":"창조기획","tel":"031-941-5588","addr":"경기도 파주시 광탄면 발랑리 41-4번지","category":"서적문구 - 출판 및 인쇄물"}]},{"lat":"37.812366015","long":"126.88838799","items":[{"name":"컴닥터","tel":"070-8682-2263","addr":"경기도 파주시 광탄면 발랑리 410-1번지","category":"사무통신 - 컴퓨터"}]},{"lat":"37.807584206","long":"126.90057986","items":[{"name":"프레시독","tel":"031-946-1114","addr":"경기도 파주시 광탄면 발랑리 41번지","category":"문화.취미 - 애완동물"}]},{"lat":"37.806502806","long":"126.90027476","items":[{"name":"한국필라테스","tel":"031-946-4243","addr":"경기도 파주시 광탄면 발랑리 39-15번지","category":"레져용품 - 스포츠·레져용품"}]}]