[{"lat":"37.3903169","long":"127.0909393","items":[{"name":"2대떡집","tel":"031-8017-1016","addr":"경기도 성남시 분당구 판교동 601번지","category":""}]},{"lat":"37.3908315","long":"127.0895509","items":[{"name":"77번가헤어샵","tel":"031-8017-1773","addr":"경기도 성남시 분당구 판교동 617-5번지","category":""}]},{"lat":"37.3906137","long":"127.0916624","items":[{"name":"CNC","tel":"070-8222-8759","addr":"경기도 성남시 분당구 판교동 610-5번지","category":""}]},{"lat":"37.3894427","long":"127.0912319","items":[{"name":"MG판교1호점 (모닝글로리)","tel":"031-8016-0737","addr":"경기도 성남시 분당구 판교동 591번지","category":""},{"name":"웰리스짐","tel":"031-8016-6603","addr":"경기도 성남시 분당구 판교동 591번지","category":""}]},{"lat":"37.3906427","long":"127.0888845","items":[{"name":"㈜마인드웨어","tel":"","addr":"경기도 성남시 분당구 판교동 618-2번지","category":""}]},{"lat":"37.3903876","long":"127.0927687","items":[{"name":"갤러리아트담","tel":"031-706-0503","addr":"경기도 성남시 분당구 판교동 606-3번지","category":""}]},{"lat":"37.3901107","long":"127.0895501","items":[{"name":"군산아구대감","tel":"031-707-1020","addr":"경기도 성남시 분당구 판교동 619-10번지","category":""}]},{"lat":"37.3911101","long":"127.0904885","items":[{"name":"노란코끼리판교점","tel":"","addr":"경기도 성남시 분당구 판교동 613-1번지","category":""},{"name":"벤 (BEN)","tel":"031-8017-0406","addr":"경기도 성남시 분당구 판교동 613-1번지","category":""},{"name":"퀸즈에스테틱","tel":"031-717-5447","addr":"경기도 성남시 분당구 판교동 613-1번지","category":""}]},{"lat":"37.3900185","long":"127.0923731","items":[{"name":"노란황태","tel":"031-8016-6733","addr":"경기도 성남시 분당구 판교동 601-8번지","category":""}]},{"lat":"37.3897259","long":"127.0978494","items":[{"name":"노스페이스 판교점","tel":"031-8017-9100","addr":"경기도 성남시 분당구 판교동 577-4번지","category":""}]},{"lat":"37.3896661","long":"127.0936374","items":[{"name":"누들두들두","tel":"031-706-1222","addr":"경기도 성남시 분당구 판교동 600-4번지","category":""}]},{"lat":"37.3913085","long":"127.0902742","items":[{"name":"다락방","tel":"031-8016-2800","addr":"경기도 성남시 분당구 판교동 614-10번지","category":""}]},{"lat":"37.390021","long":"127.0889854","items":[{"name":"다보아안경원","tel":"031-8016-4006","addr":"경기도 성남시 분당구 판교동 621-2번지","category":""},{"name":"마음그린미술학원","tel":"031-8017-8331","addr":"경기도 성남시 분당구 판교동 621-2번지","category":""},{"name":"판교한솔약국","tel":"031-8017-8868","addr":"경기도 성남시 분당구 판교동 621-2번지","category":""}]},{"lat":"37.3917253","long":"127.0988796","items":[{"name":"담소나루","tel":"031-8017-3651","addr":"경기도 성남시 분당구 판교동 564-2번지","category":""}]},{"lat":"37.3908662","long":"127.0913013","items":[{"name":"대치케이유 영어학원","tel":"031-8017-3017","addr":"경기도 성남시 분당구 판교동 610-1번지","category":""}]},{"lat":"37.3900007","long":"127.0919891","items":[{"name":"두둑26","tel":"031-707-2656","addr":"경기도 성남시 분당구 판교동 601-6번지","category":""}]},{"lat":"37.3899736","long":"127.0921359","items":[{"name":"두툼해","tel":"031-8017-2217","addr":"경기도 성남시 분당구 판교동 601-7번지","category":""}]},{"lat":"37.390803","long":"127.0914367","items":[{"name":"디자인도씨","tel":"031-781-5888","addr":"경기도 성남시 분당구 판교동 610-2번지","category":""}]},{"lat":"37.3905052","long":"127.0921591","items":[{"name":"문아지","tel":"031-708-3141","addr":"경기도 성남시 분당구 판교동 608-2번지","category":""}]},{"lat":"37.3904989","long":"127.0884665","items":[{"name":"미스터신돈까스","tel":"031-8016-3389","addr":"경기도 성남시 분당구 판교동 619번지","category":""}]},{"lat":"37.3907773","long":"127.0897203","items":[{"name":"미작","tel":"031-706-7718","addr":"경기도 성남시 분당구 판교동 617-6번지","category":""}]},{"lat":"37.3900592","long":"127.0978837","items":[{"name":"바른한우 정육점","tel":"031-702-9588","addr":"경기도 성남시 분당구 판교동 577-2번지","category":""},{"name":"수와논리학원","tel":"031-709-7519","addr":"경기도 성남시 분당구 판교동 577-2번지","category":""},{"name":"자연애찬 과일사냥꾼","tel":"031-702-4944","addr":"경기도 성남시 분당구 판교동 577-2번지","category":""}]},{"lat":"37.3910033","long":"127.0886364","items":[{"name":"바오밥 키즈카페앤","tel":"031-8016-3583","addr":"경기도 성남시 분당구 판교동 617번지","category":""}]},{"lat":"37.3913384","long":"127.0981564","items":[{"name":"뷰티","tel":"070-8193-7764","addr":"경기도 성남시 분당구 판교동 562-6번지","category":""}]},{"lat":"37.4005316","long":"127.0944975","items":[{"name":"비앤지랩미술학원","tel":"031-603-3110","addr":"경기도 성남시 분당구 판교동 495번지","category":""}]},{"lat":"37.3911096","long":"127.0912112","items":[{"name":"소담시루","tel":"031-707-7373","addr":"경기도 성남시 분당구 판교동 611번지","category":""}]},{"lat":"37.3911666","long":"127.0989353","items":[{"name":"수꼬기(sukkogi)","tel":"031-701-7759","addr":"경기도 성남시 분당구 판교동 565-6번지","category":""},{"name":"예향정 판교점","tel":"031-704-0560","addr":"경기도 성남시 분당구 판교동 565-6번지","category":""}]},{"lat":"37.3909145","long":"127.0986866","items":[{"name":"수수","tel":"031-717-7333","addr":"경기도 성남시 분당구 판교동 566-2번지","category":""}]},{"lat":"37.3898766","long":"127.0892901","items":[{"name":"아이라이크 안경원 (EYE LIKE)","tel":"031-704-4686","addr":"경기도 성남시 분당구 판교동 621-3번지","category":""},{"name":"판교수빈약국","tel":"070-8227-7582","addr":"경기도 성남시 분당구 판교동 621-3번지","category":""}]},{"lat":"37.3898043","long":"127.0895159","items":[{"name":"알레르망 서판교점","tel":"031-702-8811","addr":"경기도 성남시 분당구 판교동 621-4번지","category":""}]},{"lat":"37.3906687","long":"127.0903299","items":[{"name":"언덕에올라미술학원","tel":"031-703-4230","addr":"경기도 성남시 분당구 판교동 613-4번지","category":""}]},{"lat":"37.3892095","long":"127.0896959","items":[{"name":"열린하늘문학원","tel":"031-781-9974","addr":"경기도 성남시 분당구 판교동 625번지","category":""},{"name":"판교ELC영어교습소","tel":"031-8017-6456","addr":"경기도 성남시 분당구 판교동 625번지","category":""},{"name":"판교기린약국","tel":"070-4232-6326","addr":"경기도 성남시 분당구 판교동 625번지","category":""},{"name":"판교뮤직아이음악학원","tel":"031-8016-0033","addr":"경기도 성남시 분당구 판교동 625번지","category":""},{"name":"퐁당퐁당","tel":"031-8017-0077","addr":"경기도 성남시 분당구 판교동 625번지","category":""},{"name":"푸른목장","tel":"031-629-8828","addr":"경기도 성남시 분당구 판교동 625번지","category":""},{"name":"헬로키즈","tel":"031-8016-0606","addr":"경기도 성남시 분당구 판교동 625번지","category":""}]},{"lat":"37.3902277","long":"127.0896857","items":[{"name":"옛날김치돼지찌개(서판교점)","tel":"","addr":"경기도 성남시 분당구 판교동 619-7번지","category":""}]},{"lat":"37.3900016","long":"127.0908599","items":[{"name":"완산골 명가(판교도서관점)","tel":"031-8016-1660","addr":"경기도 성남시 분당구 판교동 596번지","category":""}]},{"lat":"37.3996386","long":"127.0958517","items":[{"name":"육대장판교점","tel":"031-8016-9548","addr":"경기도 성남시 분당구 판교동 511-6번지","category":""},{"name":"주식회사 프레쉬코어","tel":"031-707-4028","addr":"경기도 성남시 분당구 판교동 511-6번지","category":""}]},{"lat":"37.4003603","long":"127.0945989","items":[{"name":"재단법인 솔브레인  나눔재단","tel":"031-8016-8059","addr":"경기도 성남시 분당구 판교동 496번지","category":""}]},{"lat":"37.3996932","long":"127.0951289","items":[{"name":"전주명가","tel":"031-713-6336","addr":"경기도 성남시 분당구 판교동 512번지","category":""}]},{"lat":"37.3906156","long":"127.0890538","items":[{"name":"지세븐","tel":"070-8267-2406","addr":"경기도 성남시 분당구 판교동 618-3번지","category":""}]},{"lat":"37.3907224","long":"127.0907704","items":[{"name":"초록마을 판교도서관점","tel":"031-706-5531","addr":"경기도 성남시 분당구 판교동 612-3번지","category":""}]},{"lat":"37.3910287","long":"127.0908837","items":[{"name":"최고집손짬뽕","tel":"031-8016-0555","addr":"경기도 성남시 분당구 판교동 612-1번지","category":""}]},{"lat":"37.3902799","long":"127.0921362","items":[{"name":"춘향골남원추어탕 서판교점","tel":"031-702-9789","addr":"경기도 성남시 분당구 판교동 603번지","category":""}]},{"lat":"37.3914169","long":"127.0898","items":[{"name":"카페-인","tel":"070-4671-7311","addr":"경기도 성남시 분당구 판교동 614-7번지","category":""}]},{"lat":"37.3897565","long":"127.0931858","items":[{"name":"코스코트프라임","tel":"031-8016-8029","addr":"경기도 성남시 분당구 판교동 600-1번지","category":""}]},{"lat":"37.3907799","long":"127.0979976","items":[{"name":"코알라 커피 앤 브레드","tel":"031-708-0103","addr":"경기도 성남시 분당구 판교동 562-9번지","category":""}]},{"lat":"37.3897501","long":"127.0897417","items":[{"name":"파리바게뜨 판교원마을점","tel":"031-8017-0717","addr":"경기도 성남시 분당구 판교동 621-5번지","category":""},{"name":"판교이화약국","tel":"031-8017-0707","addr":"경기도 성남시 분당구 판교동 621-5번지","category":""}]},{"lat":"37.3904466","long":"127.0979068","items":[{"name":"파리바게트 판교풀에버","tel":"031-8017-5556","addr":"경기도 성남시 분당구 판교동 577번지","category":""}]},{"lat":"37.3893602","long":"127.0930724","items":[{"name":"판교 삼천리자전거","tel":"031-8016-8777","addr":"경기도 성남시 분당구 판교동 599-7번지","category":""}]},{"lat":"37.3890264","long":"127.0936027","items":[{"name":"한살림성남용인소비자 생협 판교매장","tel":"031-702-3423","addr":"경기도 성남시 분당구 판교동 586-5번지","category":""}]}]