[{"lat":"37.673854843","long":"126.7771316","imageIndex":4,"items":[{"name":"(주)커피상자","tel":"031-911-2002","addr":"경기도 고양시 일산동구 정발산동 1138-1번지","indutype":"일반휴게음식 - 서양음식","category":"restaurant"}]},{"lat":"37.671243951","long":"126.78290888","imageIndex":4,"items":[{"name":"1.2.3(원.투.쓰리)","tel":"031-917-3535","addr":"경기도 고양시 일산동구 정발산동 1284-6번지","indutype":"일반휴게음식 - 일반한식","category":"restaurant"}]},{"lat":"37.672798524","long":"126.77598997","imageIndex":4,"items":[{"name":"1994마카롱","tel":"","addr":"경기도 고양시 일산동구 정발산동 1150-15번지","indutype":"일반휴게음식 - 서양음식","category":"restaurant"}]},{"lat":"37.674216294","long":"126.78245803","imageIndex":4,"items":[{"name":"1층 103호","tel":"","addr":"경기도 고양시 일산동구 정발산동 1254-4번지","indutype":"일반휴게음식 - 서양음식","category":"restaurant"},{"name":"제이스 마카롱 팩토리","tel":"031-000-0000","addr":"경기도 고양시 일산동구 정발산동 1254-4번지","indutype":"일반휴게음식 - 서양음식","category":"restaurant"}]},{"lat":"37.671185452","long":"126.78054009","imageIndex":4,"items":[{"name":"24시동대구탕","tel":"031-917-6012","addr":"경기도 고양시 일산동구 정발산동 1210-3번지","indutype":"일반휴게음식 - 일반한식","category":"restaurant"}]},{"lat":"37.66949118","long":"126.78512427","imageIndex":4,"items":[{"name":"2리식당","tel":"031-813-9010","addr":"경기도 고양시 일산동구 정발산동 1274-7번지","indutype":"일반휴게음식 - 일식·회집","category":"restaurant"}]},{"lat":"37.666936115","long":"126.77282294","imageIndex":4,"items":[{"name":"700-5","tel":"031-911-9489","addr":"경기도 고양시 일산동구 정발산동 700-5번지","indutype":"일반휴게음식 - 일반한식","category":"restaurant"},{"name":"커피식탁","tel":"031-814-1372","addr":"경기도 고양시 일산동구 정발산동 700-5번지","indutype":"일반휴게음식 - 서양음식","category":"restaurant"}]},{"lat":"37.673132402","long":"126.77626099","imageIndex":4,"items":[{"name":"88푸드","tel":"031-915-1418","addr":"경기도 고양시 일산동구 정발산동 1147-15번지","indutype":"일반휴게음식 - 일반한식","category":"restaurant"},{"name":"맛뜨래푸드","tel":"031-922-3375","addr":"경기도 고양시 일산동구 정발산동 1147-15번지","indutype":"일반휴게음식 - 일반한식","category":"restaurant"}]},{"lat":"37.666740457","long":"126.78362488","imageIndex":4,"items":[{"name":"ADENTRO(아덴트로)","tel":"031-901-6454","addr":"경기도 고양시 일산동구 정발산동 1335-3번지","indutype":"일반휴게음식 - 서양음식","category":"restaurant"}]},{"lat":"37.670464133","long":"126.78507608","imageIndex":4,"items":[{"name":"Anchored(엥커드)","tel":"031-908-7922","addr":"경기도 고양시 일산동구 정발산동 1273-13번지","indutype":"일반휴게음식 - 서양음식","category":"restaurant"}]},{"lat":"37.671682074","long":"126.77637875","imageIndex":4,"items":[{"name":"BHC정발산점","tel":"031-918-9595","addr":"경기도 고양시 일산동구 정발산동 1158-8번지","indutype":"일반휴게음식 - 스넥","category":"restaurant"}]},{"lat":"37.666541676","long":"126.78331944","imageIndex":4,"items":[{"name":"Barn110 (반110)","tel":"031-908-1968","addr":"경기도 고양시 일산동구 정발산동 1334-5번지","indutype":"일반휴게음식 - 일반한식","category":"restaurant"}]},{"lat":"37.670268198","long":"126.77671175","imageIndex":4,"items":[{"name":"J&J141(제이앤제이)","tel":"031-925-2533","addr":"경기도 고양시 일산동구 정발산동 1188-7번지","indutype":"일반휴게음식 - 서양음식","category":"restaurant"}]},{"lat":"37.666161598","long":"126.77298401","imageIndex":4,"items":[{"name":"LaLa라라","tel":"031-921-9008","addr":"경기도 고양시 일산동구 정발산동 704-1번지","indutype":"일반휴게음식 - 서양음식","category":"restaurant"},{"name":"추억서리","tel":"031-913-3858","addr":"경기도 고양시 일산동구 정발산동 704-1번지","indutype":"일반휴게음식 - 일반한식","category":"restaurant"}]},{"lat":"37.671240768","long":"126.78120868","imageIndex":4,"items":[{"name":"Marvel(마블)","tel":"031-915-7078","addr":"경기도 고양시 일산동구 정발산동 1222-1번지","indutype":"일반휴게음식 - 일반한식","category":"restaurant"}]},{"lat":"37.672073869","long":"126.78346183","imageIndex":4,"items":[{"name":"S 에스","tel":"070-7807-1890","addr":"경기도 고양시 일산동구 정발산동 1237-2번지","indutype":"일반휴게음식 - 서양음식","category":"restaurant"}]},{"lat":"37.667487495","long":"126.78321465","imageIndex":4,"items":[{"name":"Street 11(11번가)","tel":"031-901-2737","addr":"경기도 고양시 일산동구 정발산동 1336-8번지","indutype":"일반휴게음식 - 서양음식","category":"restaurant"}]},{"lat":"37.672906159","long":"126.77574027","imageIndex":4,"items":[{"name":"THE포차 (더포차)","tel":"031-111-1111","addr":"경기도 고양시 일산동구 정발산동 1149-6번지","indutype":"일반휴게음식 - 일반한식","category":"restaurant"},{"name":"이자까야하나","tel":"","addr":"경기도 고양시 일산동구 정발산동 1149-6번지","indutype":"일반휴게음식 - 주점","category":"restaurant"}]},{"lat":"37.673269111","long":"126.7770767","imageIndex":4,"items":[{"name":"TOYDO(토이두)","tel":"031-925-0510","addr":"경기도 고양시 일산동구 정발산동 1146-2번지","indutype":"일반휴게음식 - 서양음식","category":"restaurant"},{"name":"다모토리","tel":"031-000-0000","addr":"경기도 고양시 일산동구 정발산동 1146-2번지","indutype":"일반휴게음식 - 일반한식","category":"restaurant"},{"name":"중화루","tel":"031-922-8008","addr":"경기도 고양시 일산동구 정발산동 1146-2번지","indutype":"일반휴게음식 - 중국식","category":"restaurant"}]},{"lat":"37.670936015","long":"126.78204835","imageIndex":4,"items":[{"name":"XIX19 (엑스아이엑스19)","tel":"","addr":"경기도 고양시 일산동구 정발산동 1289-4번지","indutype":"일반휴게음식 - 서양음식","category":"restaurant"}]},{"lat":"37.668993343","long":"126.78387894","imageIndex":4,"items":[{"name":"avec chiot(아베크 슈)","tel":"070-7799-7147","addr":"경기도 고양시 일산동구 정발산동 1278-4번지","indutype":"일반휴게음식 - 서양음식","category":"restaurant"},{"name":"주니케익(Juni cake)","tel":"031-818-9361","addr":"경기도 고양시 일산동구 정발산동 1278-4번지","indutype":"일반휴게음식 - 스넥","category":"restaurant"},{"name":"피스피스","tel":"031-8076-9032","addr":"경기도 고양시 일산동구 정발산동 1278-4번지","indutype":"일반휴게음식 - 일반한식","category":"restaurant"}]},{"lat":"37.670212115","long":"126.77565781","imageIndex":4,"items":[{"name":"cafe bang(카페뱅)","tel":"02-1111-1111","addr":"경기도 고양시 일산동구 정발산동 1182-1번지","indutype":"일반휴게음식 - 서양음식","category":"restaurant"}]},{"lat":"37.672738477","long":"126.77756571","imageIndex":4,"items":[{"name":"caffee jaroo(커피자루)","tel":"031-919-2644","addr":"경기도 고양시 일산동구 정발산동 1203-1번지","indutype":"일반휴게음식 - 서양음식","category":"restaurant"}]},{"lat":"37.665601277","long":"126.7721017","imageIndex":4,"items":[{"name":"lounge706 (라운지706)","tel":"070-8813-6739","addr":"경기도 고양시 일산동구 정발산동 706-2번지","indutype":"일반휴게음식 - 서양음식","category":"restaurant"}]},{"lat":"37.675854452","long":"126.77685349","imageIndex":4,"items":[{"name":"noma","tel":"070-8279-6360","addr":"경기도 고양시 일산동구 정발산동 1124번지","indutype":"일반휴게음식 - 일반한식","category":"restaurant"}]},{"lat":"37.670599884","long":"126.78540439","imageIndex":4,"items":[{"name":"pay attention(페이어텐션)","tel":"","addr":"경기도 고양시 일산동구 정발산동 1272-13번지","indutype":"일반휴게음식 - 서양음식","category":"restaurant"}]},{"lat":"37.668402619","long":"126.77176433","imageIndex":4,"items":[{"name":"table_11(테이블11)","tel":"031-949-3665","addr":"경기도 고양시 일산동구 정발산동 694-11번지","indutype":"일반휴게음식 - 일반한식","category":"restaurant"},{"name":"러브미라잇(LOVEMERIGHT)","tel":"031-912-0421","addr":"경기도 고양시 일산동구 정발산동 694-11번지","indutype":"일반휴게음식 - 서양음식","category":"restaurant"}]},{"lat":"37.674432887","long":"126.77787797","imageIndex":4,"items":[{"name":"가마솥손순두부","tel":"031-915-4593","addr":"경기도 고양시 일산동구 정발산동 1132-4번지","indutype":"일반휴게음식 - 일반한식","category":"restaurant"}]},{"lat":"37.669681405","long":"126.7856791","imageIndex":4,"items":[{"name":"가츠잇","tel":"02-1522-9926","addr":"경기도 고양시 일산동구 정발산동 1273-6번지","indutype":"일반휴게음식 - 일식·회집","category":"restaurant"}]},{"lat":"37.669185653","long":"126.77598963","imageIndex":4,"items":[{"name":"각설탕","tel":"","addr":"경기도 고양시 일산동구 정발산동 1180-6번지","indutype":"일반휴게음식 - 서양음식","category":"restaurant"}]},{"lat":"37.670431159","long":"126.78187983","imageIndex":4,"items":[{"name":"감성주방","tel":"031-814-9476","addr":"경기도 고양시 일산동구 정발산동 1293-8번지","indutype":"일반휴게음식 - 서양음식","category":"restaurant"},{"name":"나드리(푸드)","tel":"031-902-6662","addr":"경기도 고양시 일산동구 정발산동 1293-8번지","indutype":"일반휴게음식 - 일반한식","category":"restaurant"}]},{"lat":"37.669876768","long":"126.77462739","imageIndex":4,"items":[{"name":"개성손만두","tel":"031-911-3872","addr":"경기도 고양시 일산동구 정발산동 1176-2번지","indutype":"일반휴게음식 - 일반한식","category":"restaurant"}]},{"lat":"37.669021557","long":"126.77499271","imageIndex":4,"items":[{"name":"겐죠7080(KENZO)","tel":"070-5121-6771","addr":"경기도 고양시 일산동구 정발산동 681-2번지","indutype":"일반휴게음식 - 서양음식","category":"restaurant"},{"name":"디오브런치앤이탈리안","tel":"031-919-1157","addr":"경기도 고양시 일산동구 정발산동 681-2번지","indutype":"일반휴게음식 - 서양음식","category":"restaurant"}]},{"lat":"37.666794977","long":"126.78387406","imageIndex":4,"items":[{"name":"계단라멘","tel":"","addr":"경기도 고양시 일산동구 정발산동 1341-6번지","indutype":"일반휴게음식 - 일식·회집","category":"restaurant"}]},{"lat":"37.671741432","long":"126.77915559","imageIndex":4,"items":[{"name":"계초찜닭","tel":"031-919-1004","addr":"경기도 고양시 일산동구 정발산동 1202-3번지","indutype":"일반휴게음식 - 일반한식","category":"restaurant"}]},{"lat":"37.667684565","long":"126.78260202","imageIndex":4,"items":[{"name":"고궁","tel":"031-907-7400","addr":"경기도 고양시 일산동구 정발산동 1331-3번지","indutype":"일반휴게음식 - 일반한식","category":"restaurant"}]},{"lat":"37.673987458","long":"126.78054307","imageIndex":4,"items":[{"name":"고기는 내가 구워요","tel":"031-921-9291","addr":"경기도 고양시 일산동구 정발산동 1245-4번지","indutype":"일반휴게음식 - 일반한식","category":"restaurant"}]},{"lat":"37.669129388","long":"126.77484503","imageIndex":4,"items":[{"name":"고코로","tel":"031-911-8570","addr":"경기도 고양시 일산동구 정발산동 681-1번지","indutype":"일반휴게음식 - 일식·회집","category":"restaurant"}]},{"lat":"37.671655103","long":"126.78115077","imageIndex":4,"items":[{"name":"고향식당","tel":"031-916-6408","addr":"경기도 고양시 일산동구 정발산동 1221번지","indutype":"일반휴게음식 - 일반한식","category":"restaurant"}]},{"lat":"37.668849799","long":"126.78420806","imageIndex":4,"items":[{"name":"골드핸즈","tel":"031-975-0967","addr":"경기도 고양시 일산동구 정발산동 1350-7번지","indutype":"일반휴게음식 - 서양음식","category":"restaurant"}]},{"lat":"37.673740314","long":"126.77849216","imageIndex":4,"items":[{"name":"곱창상회","tel":"031-919-1117","addr":"경기도 고양시 일산동구 정발산동 1129-5번지","indutype":"일반휴게음식 - 일반한식","category":"restaurant"},{"name":"퀸","tel":"031-915-9727","addr":"경기도 고양시 일산동구 정발산동 1129-5번지","indutype":"일반휴게음식 - 일반한식","category":"restaurant"}]},{"lat":"37.666688993","long":"126.77085159","imageIndex":4,"items":[{"name":"공간","tel":"031-925-5007","addr":"경기도 고양시 일산동구 정발산동 717-2번지","indutype":"일반휴게음식 - 서양음식","category":"restaurant"}]},{"lat":"37.666910543","long":"126.77357107","imageIndex":4,"items":[{"name":"공간23","tel":"070-8844-2212","addr":"경기도 고양시 일산동구 정발산동 701-2번지","indutype":"일반휴게음식 - 일반한식","category":"restaurant"}]},{"lat":"37.672458507","long":"126.77721517","imageIndex":4,"items":[{"name":"공룡(DINO)","tel":"031-925-2425","addr":"경기도 고양시 일산동구 정발산동 1200번지","indutype":"일반휴게음식 - 스넥","category":"restaurant"}]},{"lat":"37.674294443","long":"126.77615544","imageIndex":4,"items":[{"name":"교촌치킨","tel":"031-924-9292","addr":"경기도 고양시 일산동구 정발산동 1139번지","indutype":"일반휴게음식 - 서양음식","category":"restaurant"},{"name":"아가페","tel":"031-921-0202","addr":"경기도 고양시 일산동구 정발산동 1139번지","indutype":"일반휴게음식 - 일반한식","category":"restaurant"},{"name":"제트푸드","tel":"031-922-9995","addr":"경기도 고양시 일산동구 정발산동 1139번지","indutype":"일반휴게음식 - 일반한식","category":"restaurant"}]},{"lat":"37.666598562","long":"126.77068186","imageIndex":4,"items":[{"name":"교촌치킨(강선점)","tel":"031-911-9983","addr":"경기도 고양시 일산동구 정발산동 717-3번지","indutype":"일반휴게음식 - 일반한식","category":"restaurant"}]},{"lat":"37.668768785","long":"126.77473279","imageIndex":4,"items":[{"name":"구각","tel":"","addr":"경기도 고양시 일산동구 정발산동 682-6번지","indutype":"일반휴게음식 - 일반한식","category":"restaurant"}]},{"lat":"37.676297872","long":"126.77787234","imageIndex":4,"items":[{"name":"굽네치킨(정발산점)","tel":"031-925-9249","addr":"경기도 고양시 일산동구 정발산동 1119-2번지","indutype":"일반휴게음식 - 주점","category":"restaurant"}]},{"lat":"37.669655915","long":"126.77690629","imageIndex":4,"items":[{"name":"귀족","tel":"031-111-1111","addr":"경기도 고양시 일산동구 정발산동 1186-3번지","indutype":"일반휴게음식 - 서양음식","category":"restaurant"}]},{"lat":"37.669934862","long":"126.78632443","imageIndex":4,"items":[{"name":"그곳에 가면","tel":"031-902-7090","addr":"경기도 고양시 일산동구 정발산동 1271-7번지","indutype":"일반휴게음식 - 일반한식","category":"restaurant"},{"name":"리스토란테레오네/주식회사 레오네","tel":"031-812-3983","addr":"경기도 고양시 일산동구 정발산동 1271-7번지","indutype":"일반휴게음식 - 일반한식","category":"restaurant"}]},{"lat":"37.674679892","long":"126.77984955","imageIndex":4,"items":[{"name":"그룹웍스","tel":"031-916-1250","addr":"경기도 고양시 일산동구 정발산동 1253-5번지","indutype":"일반휴게음식 - 서양음식","category":"restaurant"},{"name":"예스프리","tel":"","addr":"경기도 고양시 일산동구 정발산동 1253-5번지","indutype":"일반휴게음식 - 서양음식","category":"restaurant"}]},{"lat":"37.674683137","long":"126.7815725","imageIndex":4,"items":[{"name":"그린스푼","tel":"031-916-1139","addr":"경기도 고양시 일산동구 정발산동 1244-3번지","indutype":"일반휴게음식 - 일반한식","category":"restaurant"},{"name":"최군'S떡볶이","tel":"031-916-1139","addr":"경기도 고양시 일산동구 정발산동 1244-3번지","indutype":"일반휴게음식 - 일반한식","category":"restaurant"}]},{"lat":"37.666684376","long":"126.77309574","imageIndex":4,"items":[{"name":"금산집","tel":"031-913-5593","addr":"경기도 고양시 일산동구 정발산동 701-6번지","indutype":"일반휴게음식 - 일반한식","category":"restaurant"}]},{"lat":"37.670050131","long":"126.78531532","imageIndex":4,"items":[{"name":"기다림의 미학","tel":"02-1111-1111","addr":"경기도 고양시 일산동구 정발산동 1273-10번지","indutype":"일반휴게음식 - 서양음식","category":"restaurant"}]},{"lat":"37.67421501","long":"126.77701715","imageIndex":4,"items":[{"name":"길모퉁이","tel":"031-916-9182","addr":"경기도 고양시 일산동구 정발산동 1135-9번지","indutype":"일반휴게음식 - 일반한식","category":"restaurant"}]},{"lat":"37.672792274","long":"126.77742952","imageIndex":4,"items":[{"name":"김가네","tel":"031-915-7449","addr":"경기도 고양시 일산동구 정발산동 1203번지","indutype":"일반휴게음식 - 스넥","category":"restaurant"}]},{"lat":"37.673735587","long":"126.77602112","imageIndex":4,"items":[{"name":"김균석청기와뼈해장국감자탕","tel":"031-916-5333","addr":"경기도 고양시 일산동구 정발산동 1145-2번지","indutype":"일반휴게음식 - 일반한식","category":"restaurant"}]},{"lat":"37.670074233","long":"126.77424141","imageIndex":4,"items":[{"name":"김다정&cafe","tel":"031-913-2788","addr":"경기도 고양시 일산동구 정발산동 1176번지","indutype":"일반휴게음식 - 서양음식","category":"restaurant"},{"name":"불난신도시","tel":"031-914-0356","addr":"경기도 고양시 일산동구 정발산동 1176번지","indutype":"일반휴게음식 - 일반한식","category":"restaurant"},{"name":"비어캐빈","tel":"031-912-5847","addr":"경기도 고양시 일산동구 정발산동 1176번지","indutype":"일반휴게음식 - 주점","category":"restaurant"},{"name":"왕의커피","tel":"070-7758-3160","addr":"경기도 고양시 일산동구 정발산동 1176번지","indutype":"일반휴게음식 - 서양음식","category":"restaurant"}]},{"lat":"37.67449309","long":"126.77638154","imageIndex":4,"items":[{"name":"김삿갓 한방 왕족발","tel":"031-919-3835","addr":"경기도 고양시 일산동구 정발산동 1134-10번지","indutype":"일반휴게음식 - 일반한식","category":"restaurant"}]},{"lat":"37.671625068","long":"126.77484873","imageIndex":4,"items":[{"name":"김여사도시락 일산점","tel":"031-818-5050","addr":"경기도 고양시 일산동구 정발산동 1162-11번지","indutype":"일반휴게음식 - 일반한식","category":"restaurant"}]},{"lat":"37.674542773","long":"126.78360192","imageIndex":4,"items":[{"name":"까르르","tel":"070-7750-7043","addr":"경기도 고양시 일산동구 정발산동 1262-2번지","indutype":"일반휴게음식 - 일반한식","category":"restaurant"}]},{"lat":"37.666071237","long":"126.77284828","imageIndex":4,"items":[{"name":"까뮤S","tel":"031-913-8360","addr":"경기도 고양시 일산동구 정발산동 704-2번지","indutype":"일반휴게음식 - 서양음식","category":"restaurant"}]},{"lat":"37.668152535","long":"126.78231728","imageIndex":4,"items":[{"name":"꼬막이야기","tel":"031-905-0110","addr":"경기도 고양시 일산동구 정발산동 1331번지","indutype":"일반휴게음식 - 일반한식","category":"restaurant"},{"name":"로마노피자","tel":"031-905-4122","addr":"경기도 고양시 일산동구 정발산동 1331번지","indutype":"일반휴게음식 - 서양음식","category":"restaurant"}]},{"lat":"37.668050458","long":"126.78557051","imageIndex":4,"items":[{"name":"나무와베이커리","tel":"070-7443-8912","addr":"경기도 고양시 일산동구 정발산동 1353번지","indutype":"일반휴게음식 - 일반한식","category":"restaurant"}]},{"lat":"37.666404814","long":"126.77296059","imageIndex":4,"items":[{"name":"나우(Now)","tel":"070-4649-1101","addr":"경기도 고양시 일산동구 정발산동 708-5번지","indutype":"일반휴게음식 - 서양음식","category":"restaurant"}]},{"lat":"37.672769793","long":"126.77982127","imageIndex":4,"items":[{"name":"남수사","tel":"031-919-7500","addr":"경기도 고양시 일산동구 정발산동 1219-6번지","indutype":"일반휴게음식 - 일식·회집","category":"restaurant"}]},{"lat":"37.671320446","long":"126.78046035","imageIndex":4,"items":[{"name":"내사랑돈까스 정발산점","tel":"031-913-8877","addr":"경기도 고양시 일산동구 정발산동 1210-2번지","indutype":"일반휴게음식 - 주점","category":"restaurant"}]},{"lat":"37.668930431","long":"126.77446027","imageIndex":4,"items":[{"name":"노가리","tel":"","addr":"경기도 고양시 일산동구 정발산동 682-4번지","indutype":"일반휴게음식 - 주점","category":"restaurant"}]},{"lat":"37.670736848","long":"126.78153888","imageIndex":4,"items":[{"name":"녹스","tel":"","addr":"경기도 고양시 일산동구 정발산동 1294-1번지","indutype":"일반휴게음식 - 일반한식","category":"restaurant"}]},{"lat":"37.672851094","long":"126.77993437","imageIndex":4,"items":[{"name":"다온길","tel":"070-3239-0118","addr":"경기도 고양시 일산동구 정발산동 1219-1번지","indutype":"일반휴게음식 - 일반한식","category":"restaurant"}]},{"lat":"37.674350306","long":"126.77709609","imageIndex":4,"items":[{"name":"달려라 뼈대장","tel":"031-911-0792","addr":"경기도 고양시 일산동구 정발산동 1135번지","indutype":"일반휴게음식 - 일반한식","category":"restaurant"}]},{"lat":"37.670098164","long":"126.7820735","imageIndex":4,"items":[{"name":"달빛과자상점","tel":"031-1111-1111","addr":"경기도 고양시 일산동구 정발산동 1292-1번지","indutype":"일반휴게음식 - 일반한식","category":"restaurant"},{"name":"어나더문라이트","tel":"","addr":"경기도 고양시 일산동구 정발산동 1292-1번지","indutype":"일반휴게음식 - 서양음식","category":"restaurant"}]},{"lat":"37.674736939","long":"126.78143632","imageIndex":4,"items":[{"name":"닭싸고피자","tel":"031-925-8868","addr":"경기도 고양시 일산동구 정발산동 1244-2번지","indutype":"일반휴게음식 - 스넥","category":"restaurant"}]},{"lat":"37.67479072","long":"126.7812888","imageIndex":4,"items":[{"name":"대영정육점식당","tel":"031-918-3356","addr":"경기도 고양시 일산동구 정발산동 1244-1번지","indutype":"일반휴게음식 - 일반한식","category":"restaurant"}]},{"lat":"37.665438727","long":"126.77190953","imageIndex":4,"items":[{"name":"대한감리회신광교회/유빌라떼","tel":"070-7798-5346","addr":"경기도 고양시 일산동구 정발산동 707번지","indutype":"일반휴게음식 - 서양음식","category":"restaurant"}]},{"lat":"37.669743135","long":"126.77540988","imageIndex":4,"items":[{"name":"더 셰프 주영기","tel":"02-111-1111","addr":"경기도 고양시 일산동구 정발산동 1181-12번지","indutype":"일반휴게음식 - 일식·회집","category":"restaurant"}]},{"lat":"37.672601966","long":"126.77685202","imageIndex":4,"items":[{"name":"더미친노가리","tel":"","addr":"경기도 고양시 일산동구 정발산동 1150-6번지","indutype":"일반휴게음식 - 주점","category":"restaurant"}]},{"lat":"37.668902589","long":"126.77404098","imageIndex":4,"items":[{"name":"더플코","tel":"032-1111-1111","addr":"경기도 고양시 일산동구 정발산동 686번지","indutype":"일반휴게음식 - 일반한식","category":"restaurant"}]},{"lat":"37.669577186","long":"126.77346086","imageIndex":4,"items":[{"name":"덕뽀리 일산점","tel":"031-912-0056","addr":"경기도 고양시 일산동구 정발산동 684번지","indutype":"일반휴게음식 - 일반한식","category":"restaurant"},{"name":"들에핀꽃","tel":"070-7562-0994","addr":"경기도 고양시 일산동구 정발산동 684번지","indutype":"일반휴게음식 - 일반한식","category":"restaurant"}]},{"lat":"37.670070137","long":"126.78154086","imageIndex":4,"items":[{"name":"데자뷰 (Dejavu)","tel":"031-901-1693","addr":"경기도 고양시 일산동구 정발산동 1296-13번지","indutype":"일반휴게음식 - 일반한식","category":"restaurant"},{"name":"토크(TALK)","tel":"031-901-4124","addr":"경기도 고양시 일산동구 정발산동 1296-13번지","indutype":"일반휴게음식 - 서양음식","category":"restaurant"}]},{"lat":"37.666907935","long":"126.77223366","imageIndex":4,"items":[{"name":"도로시","tel":"031-915-3355","addr":"경기도 고양시 일산동구 정발산동 709-4번지","indutype":"일반휴게음식 - 일반한식","category":"restaurant"}]},{"lat":"37.673627886","long":"126.77623681","imageIndex":4,"items":[{"name":"독도왕새우튀김","tel":"031-911-0804","addr":"경기도 고양시 일산동구 정발산동 1145-3번지","indutype":"일반휴게음식 - 일반한식","category":"restaurant"},{"name":"라이브스토리","tel":"070-5121-6771","addr":"경기도 고양시 일산동구 정발산동 1145-3번지","indutype":"일반휴게음식 - 서양음식","category":"restaurant"},{"name":"라이브스토리","tel":"031-922-4623","addr":"경기도 고양시 일산동구 정발산동 1145-3번지","indutype":"일반휴게음식 - 일반한식","category":"restaurant"},{"name":"밤가시토굽사","tel":"031-911-0098","addr":"경기도 고양시 일산동구 정발산동 1145-3번지","indutype":"일반휴게음식 - 서양음식","category":"restaurant"},{"name":"어느 예쁜날 정발산점","tel":"","addr":"경기도 고양시 일산동구 정발산동 1145-3번지","indutype":"일반휴게음식 - 서양음식","category":"restaurant"},{"name":"훌랄라참숯바베큐치킨","tel":"031-918-9989","addr":"경기도 고양시 일산동구 정발산동 1145-3번지","indutype":"일반휴게음식 - 주점","category":"restaurant"}]},{"lat":"37.673240281","long":"126.78087401","imageIndex":4,"items":[{"name":"돈오락쪽갈비","tel":"031-923-9279","addr":"경기도 고양시 일산동구 정발산동 1229-1번지","indutype":"일반휴게음식 - 일반한식","category":"restaurant"}]},{"lat":"37.672132143","long":"126.78089999","imageIndex":4,"items":[{"name":"돈의전쟁","tel":"","addr":"경기도 고양시 일산동구 정발산동 1224-2번지","indutype":"일반휴게음식 - 일반한식","category":"restaurant"},{"name":"쏭스푸드","tel":"031-0000-0000","addr":"경기도 고양시 일산동구 정발산동 1224-2번지","indutype":"일반휴게음식 - 일반한식","category":"restaurant"}]},{"lat":"37.66762531","long":"126.77512165","imageIndex":4,"items":[{"name":"돌체","tel":"031-902-4953","addr":"경기도 고양시 일산동구 정발산동 817-1번지","indutype":"일반휴게음식 - 서양음식","category":"restaurant"},{"name":"립스틱 짙게 바르고 라이브","tel":"031-905-7807","addr":"경기도 고양시 일산동구 정발산동 817-1번지","indutype":"일반휴게음식 - 일반한식","category":"restaurant"}]},{"lat":"37.67307539","long":"126.77943496","imageIndex":4,"items":[{"name":"동경","tel":"031-919-8887","addr":"경기도 고양시 일산동구 정발산동 1218-7번지","indutype":"일반휴게음식 - 일식·회집","category":"restaurant"}]},{"lat":"37.673043437","long":"126.77685068","imageIndex":4,"items":[{"name":"동해수산","tel":"031-921-6699","addr":"경기도 고양시 일산동구 정발산동","indutype":"일반휴게음식 - 일반한식","category":"restaurant"}]},{"lat":"37.667744696","long":"126.77165303","imageIndex":4,"items":[{"name":"두남자 cafe","tel":"","addr":"경기도 고양시 일산동구 정발산동 710-2번지","indutype":"일반휴게음식 - 서양음식","category":"restaurant"}]},{"lat":"37.673964448","long":"126.78268548","imageIndex":4,"items":[{"name":"두리김밥","tel":"031-911-5641","addr":"경기도 고양시 일산동구 정발산동 1254-6번지","indutype":"일반휴게음식 - 스넥","category":"restaurant"},{"name":"카페나무","tel":"031-925-1873","addr":"경기도 고양시 일산동구 정발산동 1254-6번지","indutype":"일반휴게음식 - 일반한식","category":"restaurant"}]},{"lat":"37.671434124","long":"126.78342971","imageIndex":4,"items":[{"name":"두바이","tel":"","addr":"경기도 고양시 일산동구 정발산동 1284-2번지","indutype":"일반휴게음식 - 서양음식","category":"restaurant"}]},{"lat":"37.669127939","long":"126.77409696","imageIndex":4,"items":[{"name":"둘까마라","tel":"","addr":"경기도 고양시 일산동구 정발산동 683-10번지","indutype":"일반휴게음식 - 일반한식","category":"restaurant"}]},{"lat":"37.673768699","long":"126.77920618","imageIndex":4,"items":[{"name":"디토","tel":"","addr":"경기도 고양시 일산동구 정발산동 1217-1번지","indutype":"일반휴게음식 - 서양음식","category":"restaurant"},{"name":"후","tel":"031-911-4987","addr":"경기도 고양시 일산동구 정발산동 1217-1번지","indutype":"일반휴게음식 - 일반한식","category":"restaurant"}]},{"lat":"37.67226785","long":"126.77645631","imageIndex":4,"items":[{"name":"딜리버리킹 고양일산점","tel":"031-918-4981","addr":"경기도 고양시 일산동구 정발산동 1151-5번지","indutype":"일반휴게음식 - 일반한식","category":"restaurant"}]},{"lat":"37.672487376","long":"126.77817855","imageIndex":4,"items":[{"name":"딜리셔스브라더","tel":"031-923-5246","addr":"경기도 고양시 일산동구 정발산동 1203-6번지","indutype":"일반휴게음식 - 일반한식","category":"restaurant"}]},{"lat":"37.673265734","long":"126.77531978","imageIndex":4,"items":[{"name":"따볼로1149 (Tavolo1149)","tel":"031-111-1111","addr":"경기도 고양시 일산동구 정발산동 1149-1번지","indutype":"일반휴게음식 - 서양음식","category":"restaurant"}]},{"lat":"37.673604997","long":"126.77840188","imageIndex":4,"items":[{"name":"뚜이전","tel":"031-922-7271","addr":"경기도 고양시 일산동구 정발산동 1129-6번지","indutype":"일반휴게음식 - 일반한식","category":"restaurant"},{"name":"뮤","tel":"070-4694-1101","addr":"경기도 고양시 일산동구 정발산동 1129-6번지","indutype":"일반휴게음식 - 서양음식","category":"restaurant"}]},{"lat":"37.672962828","long":"126.77710029","imageIndex":4,"items":[{"name":"뚝배기더담다","tel":"031-922-4460","addr":"경기도 고양시 일산동구 정발산동 1147-6번지","indutype":"일반휴게음식 - 일반한식","category":"restaurant"}]},{"lat":"37.672545281","long":"126.78020733","imageIndex":4,"items":[{"name":"뜰안에차","tel":"031-914-1467","addr":"경기도 고양시 일산동구 정발산동 1219-3번지","indutype":"일반휴게음식 - 서양음식","category":"restaurant"}]},{"lat":"37.667048276","long":"126.78442869","imageIndex":4,"items":[{"name":"라니쿠킹","tel":"","addr":"경기도 고양시 일산동구 정발산동 1341-10번지","indutype":"일반휴게음식 - 서양음식","category":"restaurant"},{"name":"보넷타르트(Bonnet Tarte)","tel":"","addr":"경기도 고양시 일산동구 정발산동 1341-10번지","indutype":"일반휴게음식 - 서양음식","category":"restaurant"}]},{"lat":"37.671738739","long":"126.7825107","imageIndex":4,"items":[{"name":"라리비","tel":"001-0000-0000","addr":"경기도 고양시 일산동구 정발산동","indutype":"일반휴게음식 - 주점","category":"restaurant"},{"name":"바비런던","tel":"031-902-9494","addr":"경기도 고양시 일산동구 정발산동 1237-9번지","indutype":"일반휴게음식 - 일반한식","category":"restaurant"}]},{"lat":"37.670349763","long":"126.77696086","imageIndex":4,"items":[{"name":"라비브","tel":"070-8879-0908","addr":"경기도 고양시 일산동구 정발산동 1188-5번지","indutype":"일반휴게음식 - 서양음식","category":"restaurant"}]},{"lat":"37.666684818","long":"126.77332242","imageIndex":4,"items":[{"name":"라인(Line)","tel":"","addr":"경기도 고양시 일산동구 정발산동 701-4번지","indutype":"일반휴게음식 - 일반한식","category":"restaurant"}]},{"lat":"37.670965479","long":"126.77387597","imageIndex":4,"items":[{"name":"랄당랄부","tel":"","addr":"경기도 고양시 일산동구 정발산동 1171-9번지","indutype":"일반휴게음식 - 일반한식","category":"restaurant"}]},{"lat":"37.668545944","long":"126.7855464","imageIndex":4,"items":[{"name":"랑고블랑(Lingot Blanc)","tel":"","addr":"경기도 고양시 일산동구 정발산동 1352-5번지","indutype":"일반휴게음식 - 서양음식","category":"restaurant"}]},{"lat":"37.666348475","long":"126.77179337","imageIndex":4,"items":[{"name":"량목","tel":"","addr":"경기도 고양시 일산동구 정발산동 714번지","indutype":"일반휴게음식 - 중국식","category":"restaurant"},{"name":"소소다방","tel":"031-811-2507","addr":"경기도 고양시 일산동구 정발산동 714번지","indutype":"일반휴게음식 - 서양음식","category":"restaurant"}]},{"lat":"37.666437147","long":"126.77106772","imageIndex":4,"items":[{"name":"레미(REMY)","tel":"","addr":"경기도 고양시 일산동구 정발산동 718-1번지","indutype":"일반휴게음식 - 일반한식","category":"restaurant"}]},{"lat":"37.672019778","long":"126.7739634","imageIndex":4,"items":[{"name":"레브오르","tel":"","addr":"경기도 고양시 일산동구 정발산동 1166-6번지","indutype":"일반휴게음식 - 서양음식","category":"restaurant"}]},{"lat":"37.666493072","long":"126.7720196","imageIndex":4,"items":[{"name":"레오네(Leone)","tel":"031-812-3983","addr":"경기도 고양시 일산동구 정발산동 713-11번지","indutype":"일반휴게음식 - 일반한식","category":"restaurant"}]},{"lat":"37.671298262","long":"126.78304473","imageIndex":4,"items":[{"name":"레전드","tel":"031-913-4688","addr":"경기도 고양시 일산동구 정발산동 1284-5번지","indutype":"일반휴게음식 - 서양음식","category":"restaurant"}]},{"lat":"37.673820277","long":"126.77790249","imageIndex":4,"items":[{"name":"로드","tel":"031-919-1177","addr":"경기도 고양시 일산동구 정발산동 1136-6번지","indutype":"일반휴게음식 - 일반한식","category":"restaurant"}]},{"lat":"37.666575665","long":"126.77279006","imageIndex":4,"items":[{"name":"로드빈(Road Bean)","tel":"031-925-3313","addr":"경기도 고양시 일산동구 정발산동 708-3번지","indutype":"일반휴게음식 - 일반한식","category":"restaurant"}]},{"lat":"37.667211817","long":"126.77098597","imageIndex":4,"items":[{"name":"로야커피","tel":"031-919-4565","addr":"경기도 고양시 일산동구 정발산동 716번지","indutype":"일반휴게음식 - 서양음식","category":"restaurant"}]},{"lat":"37.667624954","long":"126.784461","imageIndex":4,"items":[{"name":"르쁠라 (Le plat)","tel":"070-4320-9652","addr":"경기도 고양시 일산동구 정발산동 1347-6번지","indutype":"일반휴게음식 - 서양음식","category":"restaurant"}]},{"lat":"37.676045885","long":"126.77802046","imageIndex":4,"items":[{"name":"리프드올로르","tel":"","addr":"경기도 고양시 일산동구 정발산동 1119-5번지","indutype":"일반휴게음식 - 서양음식","category":"restaurant"}]},{"lat":"37.669325982","long":"126.78349259","imageIndex":4,"items":[{"name":"마더스","tel":"031-815-1519","addr":"경기도 고양시 일산동구 정발산동 1278-8번지","indutype":"일반휴게음식 - 서양음식","category":"restaurant"}]},{"lat":"37.67165725","long":"126.78229558","imageIndex":4,"items":[{"name":"마스터피스 (Master Peace)","tel":"02-1111-1111","addr":"경기도 고양시 일산동구 정발산동 1234번지","indutype":"일반휴게음식 - 서양음식","category":"restaurant"},{"name":"해물사우나","tel":"","addr":"경기도 고양시 일산동구 정발산동 1234번지","indutype":"일반휴게음식 - 일반한식","category":"restaurant"}]},{"lat":"37.670826576","long":"126.77659671","imageIndex":4,"items":[{"name":"마침내카페","tel":"031-1111-1111","addr":"경기도 고양시 일산동구 정발산동 1190번지","indutype":"일반휴게음식 - 서양음식","category":"restaurant"}]},{"lat":"37.672073948","long":"126.77871253","imageIndex":4,"items":[{"name":"만나국수","tel":"031-919-9900","addr":"경기도 고양시 일산동구 정발산동 1202-9번지","indutype":"일반휴게음식 - 스넥","category":"restaurant"}]},{"lat":"37.673183655","long":"126.77951398","imageIndex":4,"items":[{"name":"만복주점","tel":"031-925-3692","addr":"경기도 고양시 일산동구 정발산동 1218-8번지","indutype":"일반휴게음식 - 일반한식","category":"restaurant"}]},{"lat":"37.666986421","long":"126.77090733","imageIndex":4,"items":[{"name":"맛들의축제(일산동구점)","tel":"031-861-0021","addr":"경기도 고양시 일산동구 정발산동 716-6번지","indutype":"일반휴게음식 - 일반한식","category":"restaurant"}]},{"lat":"37.67426356","long":"126.77885331","imageIndex":4,"items":[{"name":"맛의왕 돈까스","tel":"070-7788-1130","addr":"경기도 고양시 일산동구 정발산동 1129-1번지","indutype":"일반휴게음식 - 일반한식","category":"restaurant"}]},{"lat":"37.668714802","long":"126.78428779","imageIndex":4,"items":[{"name":"매뉴얼커피 (Manual Coffee)","tel":"031-1111-1111","addr":"경기도 고양시 일산동구 정발산동 1350-8번지","indutype":"일반휴게음식 - 서양음식","category":"restaurant"}]},{"lat":"37.673019159","long":"126.78307366","imageIndex":4,"items":[{"name":"매드테이블","tel":"","addr":"경기도 고양시 일산동구 정발산동 1259-5번지","indutype":"일반휴게음식 - 일반한식","category":"restaurant"}]},{"lat":"37.670185128","long":"126.78523558","imageIndex":4,"items":[{"name":"매트커피","tel":"","addr":"경기도 고양시 일산동구 정발산동 1273-11번지","indutype":"일반휴게음식 - 서양음식","category":"restaurant"},{"name":"재이식당","tel":"","addr":"경기도 고양시 일산동구 정발산동 1273-11번지","indutype":"일반휴게음식 - 서양음식","category":"restaurant"}]},{"lat":"37.673660476","long":"126.77914983","imageIndex":4,"items":[{"name":"맥스(MAX)","tel":"031-916-5525","addr":"경기도 고양시 일산동구 정발산동 1217-2번지","indutype":"일반휴게음식 - 서양음식","category":"restaurant"}]},{"lat":"37.667489969","long":"126.77502006","imageIndex":4,"items":[{"name":"맹여사육전육회더다이닝","tel":"070-8702-8700","addr":"경기도 고양시 일산동구 정발산동 817-2번지","indutype":"일반휴게음식 - 일반한식","category":"restaurant"}]},{"lat":"37.670320126","long":"126.78515585","imageIndex":4,"items":[{"name":"머그까페","tel":"031-6299-4199","addr":"경기도 고양시 일산동구 정발산동 1273-12번지","indutype":"일반휴게음식 - 서양음식","category":"restaurant"}]},{"lat":"37.673152463","long":"126.77732642","imageIndex":4,"items":[{"name":"멤버스","tel":"031-915-4713","addr":"경기도 고양시 일산동구 정발산동 1146-3번지","indutype":"일반휴게음식 - 일반한식","category":"restaurant"}]},{"lat":"37.674098362","long":"126.77726688","imageIndex":4,"items":[{"name":"명동면옥","tel":"031-913-6006","addr":"경기도 고양시 일산동구 정발산동 1135-7번지","indutype":"일반휴게음식 - 일반한식","category":"restaurant"}]},{"lat":"37.672457596","long":"126.77673911","imageIndex":4,"items":[{"name":"명품감자탕","tel":"031-923-1585","addr":"경기도 고양시 일산동구 정발산동 1150-9번지","indutype":"일반휴게음식 - 일반한식","category":"restaurant"},{"name":"웰빙푸드","tel":"031-912-1913","addr":"경기도 고양시 일산동구 정발산동 1150-9번지","indutype":"일반휴게음식 - 일반한식","category":"restaurant"}]},{"lat":"37.669792379","long":"126.77292747","imageIndex":4,"items":[{"name":"명품임실치즈피자","tel":"031-914-1508","addr":"경기도 고양시 일산동구 정발산동 684-4번지","indutype":"일반휴게음식 - 서양음식","category":"restaurant"},{"name":"야미가","tel":"031-922-1515","addr":"경기도 고양시 일산동구 정발산동 684-4번지","indutype":"일반휴게음식 - 스넥","category":"restaurant"}]},{"lat":"37.674104155","long":"126.78031602","imageIndex":4,"items":[{"name":"모도리손만두","tel":"","addr":"경기도 고양시 일산동구 정발산동 1246-5번지","indutype":"일반휴게음식 - 일반한식","category":"restaurant"},{"name":"빙수팝","tel":"031-914-1378","addr":"경기도 고양시 일산동구 정발산동 1246-5번지","indutype":"일반휴게음식 - 일반한식","category":"restaurant"}]},{"lat":"37.670076448","long":"126.78492987","imageIndex":4,"items":[{"name":"모도리양과점","tel":"","addr":"경기도 고양시 일산동구 정발산동 1274-2번지","indutype":"일반휴게음식 - 서양음식","category":"restaurant"},{"name":"플라토 (PLATO)","tel":"070-8879-1141","addr":"경기도 고양시 일산동구 정발산동 1274-2번지","indutype":"일반휴게음식 - 서양음식","category":"restaurant"}]},{"lat":"37.67143097","long":"126.78174084","imageIndex":4,"items":[{"name":"모두의만족","tel":"031-912-3999","addr":"경기도 고양시 일산동구 정발산동 1234-4번지","indutype":"일반휴게음식 - 일반한식","category":"restaurant"},{"name":"브이아이피(VIP)","tel":"","addr":"경기도 고양시 일산동구 정발산동 1234-4번지","indutype":"일반휴게음식 - 서양음식","category":"restaurant"}]},{"lat":"37.673544988","long":"126.77529626","imageIndex":4,"items":[{"name":"모퉁이","tel":"031-921-2557","addr":"경기도 고양시 일산동구 정발산동 1148-13번지","indutype":"일반휴게음식 - 서양음식","category":"restaurant"}]},{"lat":"37.670097379","long":"126.78165413","imageIndex":4,"items":[{"name":"몽돌 반점","tel":"031-901-9697","addr":"경기도 고양시 일산동구 정발산동 1296번지","indutype":"일반휴게음식 - 일식·회집","category":"restaurant"}]},{"lat":"37.666766653","long":"126.77370752","imageIndex":4,"items":[{"name":"몽블랑","tel":"031-917-0055","addr":"경기도 고양시 일산동구 정발산동 702-3번지","indutype":"일반휴게음식 - 서양음식","category":"restaurant"},{"name":"몽블랑(MONTBLANC)","tel":"031-917-0055","addr":"경기도 고양시 일산동구 정발산동 702-3번지","indutype":"일반휴게음식 - 서양음식","category":"restaurant"}]},{"lat":"37.670881681","long":"126.78190116","imageIndex":4,"items":[{"name":"몽화가락","tel":"031-907-9595","addr":"경기도 고양시 일산동구 정발산동 1289-5번지","indutype":"일반휴게음식 - 일반한식","category":"restaurant"}]},{"lat":"37.669763334","long":"126.77654326","imageIndex":4,"items":[{"name":"묵찌빠","tel":"031-912-3331","addr":"경기도 고양시 일산동구 정발산동 1184-5번지","indutype":"일반휴게음식 - 칵테일바","category":"restaurant"}]},{"lat":"37.671494292","long":"126.78187667","imageIndex":4,"items":[{"name":"문","tel":"031-111-1111","addr":"경기도 고양시 일산동구 정발산동 1234-3번지","indutype":"일반휴게음식 - 서양음식","category":"restaurant"}]},{"lat":"37.671542766","long":"126.78371276","imageIndex":4,"items":[{"name":"미","tel":"","addr":"경기도 고양시 일산동구 정발산동 1284번지","indutype":"일반휴게음식 - 서양음식","category":"restaurant"}]},{"lat":"37.669272269","long":"126.7741872","imageIndex":4,"items":[{"name":"미가","tel":"031-913-1365","addr":"경기도 고양시 일산동구 정발산동 683-1번지","indutype":"일반휴게음식 - 일식·회집","category":"restaurant"}]},{"lat":"37.670355494","long":"126.78479304","imageIndex":4,"items":[{"name":"미니타이","tel":"070-8872-1301","addr":"경기도 고양시 일산동구 정발산동 1274번지","indutype":"일반휴게음식 - 서양음식","category":"restaurant"}]},{"lat":"37.669239162","long":"126.78526102","imageIndex":4,"items":[{"name":"미다미","tel":"031-905-1238","addr":"경기도 고양시 일산동구 정발산동 1352-15번지","indutype":"일반휴게음식 - 일반한식","category":"restaurant"}]},{"lat":"37.674157956","long":"126.78017984","imageIndex":4,"items":[{"name":"미미상점","tel":"031-913-3033","addr":"경기도 고양시 일산동구 정발산동 1246-4번지","indutype":"일반휴게음식 - 서양음식","category":"restaurant"}]},{"lat":"37.666432593","long":"126.77334586","imageIndex":4,"items":[{"name":"미소다","tel":"","addr":"경기도 고양시 일산동구 정발산동 702-6번지","indutype":"일반휴게음식 - 서양음식","category":"restaurant"}]},{"lat":"37.670739314","long":"126.77340061","imageIndex":4,"items":[{"name":"미소떡볶이 정발산점","tel":"031-911-7902","addr":"경기도 고양시 일산동구 정발산동 1174-13번지","indutype":"일반휴게음식 - 스넥","category":"restaurant"}]},{"lat":"37.671874623","long":"126.78290701","imageIndex":4,"items":[{"name":"미인","tel":"","addr":"경기도 고양시 일산동구 정발산동 1237-6번지","indutype":"일반휴게음식 - 서양음식","category":"restaurant"}]},{"lat":"37.674434131","long":"126.78331886","imageIndex":4,"items":[{"name":"미친떡볶이","tel":"031-922-7601","addr":"경기도 고양시 일산동구 정발산동 1264-2번지","indutype":"일반휴게음식 - 스넥","category":"restaurant"}]},{"lat":"37.667766159","long":"126.7828738","imageIndex":4,"items":[{"name":"바리스타","tel":"031-908-9999","addr":"경기도 고양시 일산동구 정발산동 1337-7번지","indutype":"일반휴게음식 - 스넥","category":"restaurant"}]},{"lat":"37.673130327","long":"126.77989953","imageIndex":4,"items":[{"name":"바보스","tel":"031-911-7201","addr":"경기도 고양시 일산동구 정발산동 1225-9번지","indutype":"일반휴게음식 - 주점","category":"restaurant"},{"name":"올드팝","tel":"031-544-4886","addr":"경기도 고양시 일산동구 정발산동 1225-9번지","indutype":"일반휴게음식 - 일반한식","category":"restaurant"}]},{"lat":"37.671681087","long":"126.78059529","imageIndex":4,"items":[{"name":"밤가시명참치","tel":"031-917-5060","addr":"경기도 고양시 일산동구 정발산동 1220-5번지","indutype":"일반휴게음식 - 일식·회집","category":"restaurant"}]},{"lat":"37.668994625","long":"126.78457033","imageIndex":4,"items":[{"name":"밤가시버거","tel":"031-813-9010","addr":"경기도 고양시 일산동구 정발산동 1350-4번지","indutype":"일반휴게음식 - 서양음식","category":"restaurant"}]},{"lat":"37.672848442","long":"126.78332353","imageIndex":4,"items":[{"name":"밤스커피(BAM'S Coffee)","tel":"","addr":"경기도 고양시 일산동구 정발산동 1239번지","indutype":"일반휴게음식 - 서양음식","category":"restaurant"}]},{"lat":"37.670461162","long":"126.77399086","imageIndex":4,"items":[{"name":"밥깨비","tel":"031-915-5556","addr":"경기도 고양시 일산동구 정발산동 1174-8번지","indutype":"일반휴게음식 - 일반한식","category":"restaurant"},{"name":"오리엔탈101일산직영점","tel":"031-923-0110","addr":"경기도 고양시 일산동구 정발산동 1174-8번지","indutype":"일반휴게음식 - 일반한식","category":"restaurant"}]},{"lat":"37.673349698","long":"126.77681575","imageIndex":4,"items":[{"name":"밥맛나는세상","tel":"031-925-3653","addr":"경기도 고양시 일산동구 정발산동 1146-1번지","indutype":"일반휴게음식 - 스넥","category":"restaurant"},{"name":"아다모 정발산점","tel":"070-8824-7842","addr":"경기도 고양시 일산동구 정발산동 1146-1번지","indutype":"일반휴게음식 - 서양음식","category":"restaurant"},{"name":"피자스쿨","tel":"031-915-9235","addr":"경기도 고양시 일산동구 정발산동 1146-1번지","indutype":"일반휴게음식 - 서양음식","category":"restaurant"}]},{"lat":"37.673184232","long":"126.77510466","imageIndex":4,"items":[{"name":"배달의 명가 일산본점","tel":"031-908-0344","addr":"경기도 고양시 일산동구 정발산동 1149-11번지","indutype":"일반휴게음식 - 일반한식","category":"restaurant"},{"name":"아스트루드","tel":"070-8872-1149","addr":"경기도 고양시 일산동구 정발산동 1149-11번지","indutype":"일반휴게음식 - 서양음식","category":"restaurant"}]},{"lat":"37.67401838","long":"126.77784522","imageIndex":4,"items":[{"name":"배달청년","tel":"031-841-9292","addr":"경기도 고양시 일산동구 정발산동 1136번지","indutype":"일반휴게음식 - 일반한식","category":"restaurant"},{"name":"카페파나스","tel":"","addr":"경기도 고양시 일산동구 정발산동 1136번지","indutype":"일반휴게음식 - 서양음식","category":"restaurant"}]},{"lat":"37.665908534","long":"126.77257677","imageIndex":4,"items":[{"name":"백악관","tel":"","addr":"경기도 고양시 일산동구 정발산동 704-4번지","indutype":"일반휴게음식 - 서양음식","category":"restaurant"}]},{"lat":"37.67107188","long":"126.78243333","imageIndex":4,"items":[{"name":"벤틀리","tel":"","addr":"경기도 고양시 일산동구 정발산동 1289-1번지","indutype":"일반휴게음식 - 일반한식","category":"restaurant"}]},{"lat":"37.671018753","long":"126.78293221","imageIndex":4,"items":[{"name":"벨스파지오","tel":"","addr":"경기도 고양시 일산동구 정발산동 1285-7번지","indutype":"일반휴게음식 - 서양음식","category":"restaurant"}]},{"lat":"37.670874635","long":"126.77349087","imageIndex":4,"items":[{"name":"보스참치일산점","tel":"031-919-8055","addr":"경기도 고양시 일산동구 정발산동 1174번지","indutype":"일반휴게음식 - 일식·회집","category":"restaurant"}]},{"lat":"37.673962524","long":"126.77690457","imageIndex":4,"items":[{"name":"본죽","tel":"031-919-6288","addr":"경기도 고양시 일산동구 정발산동 1138번지","indutype":"일반휴게음식 - 일반한식","category":"restaurant"},{"name":"시티","tel":"031-918-3737","addr":"경기도 고양시 일산동구 정발산동 1138번지","indutype":"일반휴게음식 - 서양음식","category":"restaurant"}]},{"lat":"37.673213923","long":"126.77648744","imageIndex":4,"items":[{"name":"봄키친","tel":"031-817-1225","addr":"경기도 고양시 일산동구 정발산동 1147-1번지","indutype":"일반휴게음식 - 일반한식","category":"restaurant"}]},{"lat":"37.670298395","long":"126.77368533","imageIndex":4,"items":[{"name":"봉평막국수숯불갈비","tel":"031-925-8292","addr":"경기도 고양시 일산동구 정발산동 1175-2번지","indutype":"일반휴게음식 - 일반한식","category":"restaurant"}]},{"lat":"37.672020299","long":"126.77892806","imageIndex":4,"items":[{"name":"불타는 형제들","tel":"031-915-0905","addr":"경기도 고양시 일산동구 정발산동 1202-1번지","indutype":"일반휴게음식 - 일반한식","category":"restaurant"}]},{"lat":"37.668348828","long":"126.77190051","imageIndex":4,"items":[{"name":"불탕국물떡볶이","tel":"031-912-4346","addr":"경기도 고양시 일산동구 정발산동 694-12번지","indutype":"일반휴게음식 - 일반한식","category":"restaurant"}]},{"lat":"37.666874989","long":"126.77382053","imageIndex":4,"items":[{"name":"비너스 Venus","tel":"031-914-3022","addr":"경기도 고양시 일산동구 정발산동 702-2번지","indutype":"일반휴게음식 - 서양음식","category":"restaurant"}]},{"lat":"37.669737479","long":"126.7771554","imageIndex":4,"items":[{"name":"비비안","tel":"031-922-1065","addr":"경기도 고양시 일산동구 정발산동 1186-1번지","indutype":"일반휴게음식 - 서양음식","category":"restaurant"}]},{"lat":"37.668632565","long":"126.77417783","imageIndex":4,"items":[{"name":"비엣포","tel":"031-912-2070","addr":"경기도 고양시 일산동구 정발산동 687-5번지","indutype":"일반휴게음식 - 일반한식","category":"restaurant"}]},{"lat":"37.670211487","long":"126.7848728","imageIndex":4,"items":[{"name":"빈스하이","tel":"031-907-3370","addr":"경기도 고양시 일산동구 정발산동 1274-1번지","indutype":"일반휴게음식 - 서양음식","category":"restaurant"}]},{"lat":"37.667437347","long":"126.77113261","imageIndex":4,"items":[{"name":"빠띠쁘레","tel":"031-925-9258","addr":"경기도 고양시 일산동구 정발산동 711-9번지","indutype":"일반휴게음식 - 서양음식","category":"restaurant"}]},{"lat":"37.672351973","long":"126.77804294","imageIndex":4,"items":[{"name":"빠른돼지 삼형제","tel":"031-922-0667","addr":"경기도 고양시 일산동구 정발산동 1203-7번지","indutype":"일반휴게음식 - 일반한식","category":"restaurant"}]},{"lat":"37.674322647","long":"126.77676745","imageIndex":4,"items":[{"name":"빠시옹 치킨","tel":"031-923-5588","addr":"경기도 고양시 일산동구 정발산동 1134-7번지","indutype":"일반휴게음식 - 스넥","category":"restaurant"}]},{"lat":"37.674488584","long":"126.77873928","imageIndex":4,"items":[{"name":"빵갤러리아","tel":"02-111-1111","addr":"경기도 고양시 일산동구 정발산동 1128-3번지","indutype":"일반휴게음식 - 서양음식","category":"restaurant"}]},{"lat":"37.668270189","long":"126.78260029","imageIndex":4,"items":[{"name":"산책","tel":"031-902-1203","addr":"경기도 고양시 일산동구 정발산동 1338-7번지","indutype":"일반휴게음식 - 칵테일바","category":"restaurant"},{"name":"양지미 식당","tel":"070-4133-5315","addr":"경기도 고양시 일산동구 정발산동 1338-7번지","indutype":"일반휴게음식 - 일반한식","category":"restaurant"}]},{"lat":"37.670710923","long":"126.78212836","imageIndex":4,"items":[{"name":"새우야","tel":"","addr":"경기도 고양시 일산동구 정발산동 1288-4번지","indutype":"일반휴게음식 - 일반한식","category":"restaurant"}]},{"lat":"37.673626555","long":"126.77554538","imageIndex":4,"items":[{"name":"생돈까스랑냉면","tel":"070-4063-2562","addr":"경기도 고양시 일산동구 정발산동 1148-1번지","indutype":"일반휴게음식 - 일반한식","category":"restaurant"}]},{"lat":"37.673992884","long":"126.77865009","imageIndex":4,"items":[{"name":"생선구이랑조림","tel":"031-913-4482","addr":"경기도 고양시 일산동구 정발산동 1129-3번지","indutype":"일반휴게음식 - 일반한식","category":"restaurant"}]},{"lat":"37.673685717","long":"126.77820894","imageIndex":4,"items":[{"name":"샤브 소반","tel":"031-904-5647","addr":"경기도 고양시 일산동구 정발산동 1136-4번지","indutype":"일반휴게음식 - 일반한식","category":"restaurant"}]},{"lat":"37.676512998","long":"126.77729358","imageIndex":4,"items":[{"name":"센시블룸","tel":"070-5136-9088","addr":"경기도 고양시 일산동구 정발산동 1120번지","indutype":"일반휴게음식 - 서양음식","category":"restaurant"}]},{"lat":"37.668433452","long":"126.77371373","imageIndex":4,"items":[{"name":"소담분식","tel":"031-922-3777","addr":"경기도 고양시 일산동구 정발산동 689-10번지","indutype":"일반휴게음식 - 일반한식","category":"restaurant"}]},{"lat":"37.670654218","long":"126.77598516","imageIndex":4,"items":[{"name":"소문난포차","tel":"031-924-1788","addr":"경기도 고양시 일산동구 정발산동 1189-3번지","indutype":"일반휴게음식 - 일반한식","category":"restaurant"}]},{"lat":"37.666768832","long":"126.78435017","imageIndex":4,"items":[{"name":"소이(soy)","tel":"031-827-9288","addr":"경기도 고양시 일산동구 정발산동 1342-2번지","indutype":"일반휴게음식 - 서양음식","category":"restaurant"}]},{"lat":"37.674961178","long":"126.78090289","imageIndex":4,"items":[{"name":"손수","tel":"031-922-3734","addr":"경기도 고양시 일산동구 정발산동 1247-3번지","indutype":"일반휴게음식 - 일반한식","category":"restaurant"}]},{"lat":"37.671569342","long":"126.77398746","imageIndex":4,"items":[{"name":"손수제비","tel":"031-919-4588","addr":"경기도 고양시 일산동구 정발산동 1162-2번지","indutype":"일반휴게음식 - 일반한식","category":"restaurant"}]},{"lat":"37.663877149","long":"126.77042966","imageIndex":4,"items":[{"name":"송송푸드","tel":"070-4763-5091","addr":"경기도 고양시 일산동구 정발산동 785번지","indutype":"일반휴게음식 - 일반한식","category":"restaurant"},{"name":"스페이스(space)","tel":"031-111-1111","addr":"경기도 고양시 일산동구 정발산동 785번지","indutype":"일반휴게음식 - 서양음식","category":"restaurant"},{"name":"한성스포렉스 (주)","tel":"070-7721-9885","addr":"경기도 고양시 일산동구 정발산동 785번지","indutype":"일반휴게음식 - 일반한식","category":"restaurant"}]},{"lat":"37.673766479","long":"126.77803867","imageIndex":4,"items":[{"name":"송정자 왕족발 보쌈","tel":"031-924-1007","addr":"경기도 고양시 일산동구 정발산동 1136-5번지","indutype":"일반휴게음식 - 일반한식","category":"restaurant"}]},{"lat":"37.671903137","long":"126.77421313","imageIndex":4,"items":[{"name":"수고하셨습니다","tel":"031-000-0000","addr":"경기도 고양시 일산동구 정발산동 1162번지","indutype":"일반휴게음식 - 일반한식","category":"restaurant"}]},{"lat":"37.669494139","long":"126.78187127","imageIndex":4,"items":[{"name":"수너오어레이터(Sooner or Later)","tel":"","addr":"경기도 고양시 일산동구 정발산동 1296-9번지","indutype":"일반휴게음식 - 서양음식","category":"restaurant"},{"name":"피치스프링스(PEACH SPRINGS)","tel":"031-902-0117","addr":"경기도 고양시 일산동구 정발산동 1296-9번지","indutype":"일반휴게음식 - 서양음식","category":"restaurant"}]},{"lat":"37.670436283","long":"126.77510173","imageIndex":4,"items":[{"name":"수니키친","tel":"070-8860-8842","addr":"경기도 고양시 일산동구 정발산동 1172-6번지","indutype":"일반휴게음식 - 일반한식","category":"restaurant"}]},{"lat":"37.672320362","long":"126.78037802","imageIndex":4,"items":[{"name":"수호프","tel":"031-911-0434","addr":"경기도 고양시 일산동구 정발산동 1220번지","indutype":"일반휴게음식 - 주점","category":"restaurant"}]},{"lat":"37.670102381","long":"126.77481938","imageIndex":4,"items":[{"name":"순돌이네연탄집","tel":"031-908-9949","addr":"경기도 고양시 일산동구 정발산동 1173-14번지","indutype":"일반휴게음식 - 주점","category":"restaurant"}]},{"lat":"37.67474358","long":"126.78017809","imageIndex":4,"items":[{"name":"숯불통통닭발","tel":"031-970-8282","addr":"경기도 고양시 일산동구 정발산동 1247-9번지","indutype":"일반휴게음식 - 일반한식","category":"restaurant"},{"name":"요기가 조아 푸드","tel":"031-923-0888","addr":"경기도 고양시 일산동구 정발산동 1247-9번지","indutype":"일반휴게음식 - 일반한식","category":"restaurant"},{"name":"지랄닭발","tel":"031-905-5444","addr":"경기도 고양시 일산동구 정발산동 1247-9번지","indutype":"일반휴게음식 - 일반한식","category":"restaurant"},{"name":"출추래","tel":"031-923-0888","addr":"경기도 고양시 일산동구 정발산동 1247-9번지","indutype":"일반휴게음식 - 일반한식","category":"restaurant"}]},{"lat":"37.669791796","long":"126.77729125","imageIndex":4,"items":[{"name":"숲속정원","tel":"070-8141-3256","addr":"경기도 고양시 일산동구 정발산동 1186번지","indutype":"일반휴게음식 - 일반한식","category":"restaurant"}]},{"lat":"37.66677237","long":"126.77201873","imageIndex":4,"items":[{"name":"쉐프앤고/주식회사 오티에스코리아 지점","tel":"031-994-3090","addr":"경기도 고양시 일산동구 정발산동 712-3번지","indutype":"일반휴게음식 - 일반한식","category":"restaurant"}]},{"lat":"37.667738787","long":"126.77323983","imageIndex":4,"items":[{"name":"슈가파우더","tel":"031-925-9250","addr":"경기도 고양시 일산동구 정발산동 693-10번지","indutype":"일반휴게음식 - 서양음식","category":"restaurant"}]},{"lat":"37.667681296","long":"126.77148321","imageIndex":4,"items":[{"name":"슈퍼크림","tel":"031-925-8941","addr":"경기도 고양시 일산동구 정발산동 710-11번지","indutype":"일반휴게음식 - 서양음식","category":"restaurant"}]},{"lat":"37.669820666","long":"126.77357345","imageIndex":4,"items":[{"name":"스윗바바","tel":"070-4123-7171","addr":"경기도 고양시 일산동구 정발산동 677-3번지","indutype":"일반휴게음식 - 일반한식","category":"restaurant"}]},{"lat":"37.673013793","long":"126.77549057","imageIndex":4,"items":[{"name":"슬링크(슬로우드링크)","tel":"","addr":"경기도 고양시 일산동구 정발산동 1149-8번지","indutype":"일반휴게음식 - 일반한식","category":"restaurant"}]},{"lat":"37.672266048","long":"126.78024216","imageIndex":4,"items":[{"name":"신열해","tel":"031-915-1400","addr":"경기도 고양시 일산동구 정발산동 1220-9번지","indutype":"일반휴게음식 - 일식·회집","category":"restaurant"}]},{"lat":"37.67104211","long":"126.77623334","imageIndex":4,"items":[{"name":"신전떡볶이","tel":"031-916-0089","addr":"경기도 고양시 일산동구 정발산동 1189번지","indutype":"일반휴게음식 - 일반한식","category":"restaurant"},{"name":"오븐&곡물치킨","tel":"","addr":"경기도 고양시 일산동구 정발산동 1189번지","indutype":"일반휴게음식 - 스넥","category":"restaurant"}]},{"lat":"37.669210211","long":"126.77470877","imageIndex":4,"items":[{"name":"신촌복집","tel":"031-919-1449","addr":"경기도 고양시 일산동구 정발산동 681번지","indutype":"일반휴게음식 - 일반한식","category":"restaurant"}]},{"lat":"37.67132113","long":"126.78082306","imageIndex":4,"items":[{"name":"아라미스","tel":"031-911-4523","addr":"경기도 고양시 일산동구 정발산동 1221-4번지","indutype":"일반휴게음식 - 서양음식","category":"restaurant"}]},{"lat":"37.66693421","long":"126.77184822","imageIndex":4,"items":[{"name":"아르띠잔 북앤바","tel":"031-912-8384","addr":"경기도 고양시 일산동구 정발산동 712-1번지","indutype":"일반휴게음식 - 서양음식","category":"restaurant"}]},{"lat":"37.675430414","long":"126.77654872","imageIndex":4,"items":[{"name":"아리아 다 카포(ARIA DA CAPO)","tel":"","addr":"경기도 고양시 일산동구 정발산동 1126번지","indutype":"일반휴게음식 - 서양음식","category":"restaurant"},{"name":"어차포차","tel":"031-977-2042","addr":"경기도 고양시 일산동구 정발산동 1126번지","indutype":"일반휴게음식 - 일반한식","category":"restaurant"},{"name":"한가네푸드","tel":"031-923-1123","addr":"경기도 고양시 일산동구 정발산동 1126번지","indutype":"일반휴게음식 - 일반한식","category":"restaurant"},{"name":"현푸드","tel":"031-923-1123","addr":"경기도 고양시 일산동구 정발산동 1126번지","indutype":"일반휴게음식 - 일반한식","category":"restaurant"}]},{"lat":"37.671548562","long":"126.78198986","imageIndex":4,"items":[{"name":"아마존(Amazon)","tel":"031-915-7313","addr":"경기도 고양시 일산동구 정발산동 1234-2번지","indutype":"일반휴게음식 - 일반한식","category":"restaurant"}]},{"lat":"37.66781954","long":"126.78251095","imageIndex":4,"items":[{"name":"아삐에디폴(apiedipaul)","tel":"031-901-7871","addr":"경기도 고양시 일산동구 정발산동 1331-2번지","indutype":"일반휴게음식 - 서양음식","category":"restaurant"}]},{"lat":"37.671126192","long":"126.78256918","imageIndex":4,"items":[{"name":"아이리스","tel":"031-902-8822","addr":"경기도 고양시 일산동구 정발산동 1289번지","indutype":"일반휴게음식 - 일반한식","category":"restaurant"}]},{"lat":"37.669158493","long":"126.78548794","imageIndex":4,"items":[{"name":"아즈카라","tel":"031-904-6191","addr":"경기도 고양시 일산동구 정발산동 1352-1번지","indutype":"일반휴게음식 - 일반한식","category":"restaurant"},{"name":"아즈카라129","tel":"031-111-1111","addr":"경기도 고양시 일산동구 정발산동 1352-1번지","indutype":"일반휴게음식 - 서양음식","category":"restaurant"}]},{"lat":"37.671820354","long":"126.78279383","imageIndex":4,"items":[{"name":"아지트 (AZIT)","tel":"031-922-2599","addr":"경기도 고양시 일산동구 정발산동 1237-7번지","indutype":"일반휴게음식 - 일반한식","category":"restaurant"}]},{"lat":"37.666409695","long":"126.77085246","imageIndex":4,"items":[{"name":"아트스 뉴욕(ARTS NEW YORK)","tel":"070-4616-0781","addr":"경기도 고양시 일산동구 정발산동 718-6번지","indutype":"일반휴게음식 - 일반한식","category":"restaurant"}]},{"lat":"37.67087717","long":"126.78431546","imageIndex":4,"items":[{"name":"아티(Arti)","tel":"070-7761-9502","addr":"경기도 고양시 일산동구 정발산동 1281-6번지","indutype":"일반휴게음식 - 일반한식","category":"restaurant"}]},{"lat":"37.666488145","long":"126.78360295","imageIndex":4,"items":[{"name":"알루마레","tel":"","addr":"경기도 고양시 일산동구 정발산동 1334-7번지","indutype":"일반휴게음식 - 서양음식","category":"restaurant"}]},{"lat":"37.672653563","long":"126.77557102","imageIndex":4,"items":[{"name":"알키미아(Alkimia)","tel":"031-919-4588","addr":"경기도 고양시 일산동구 정발산동 1152-5번지","indutype":"일반휴게음식 - 서양음식","category":"restaurant"}]},{"lat":"37.667958457","long":"126.78453936","imageIndex":4,"items":[{"name":"앨리스케이커리&카페","tel":"031-906-7897","addr":"경기도 고양시 일산동구 정발산동 1348-9번지","indutype":"일반휴게음식 - 서양음식","category":"restaurant"}]},{"lat":"37.669991143","long":"126.77321022","imageIndex":4,"items":[{"name":"얌미","tel":"031-923-9333","addr":"경기도 고양시 일산동구 정발산동 677-1번지","indutype":"일반휴게음식 - 서양음식","category":"restaurant"}]},{"lat":"37.670326721","long":"126.77435398","imageIndex":4,"items":[{"name":"양갈비-양꼬치전문점","tel":"031-916-8999","addr":"경기도 고양시 일산동구 정발산동 1173-18번지","indutype":"일반휴게음식 - 중국식","category":"restaurant"}]},{"lat":"37.671736658","long":"126.78139989","imageIndex":4,"items":[{"name":"양철북","tel":"031-911-0517","addr":"경기도 고양시 일산동구 정발산동 1233-5번지","indutype":"일반휴게음식 - 일반한식","category":"restaurant"}]},{"lat":"37.665682629","long":"126.77223745","imageIndex":4,"items":[{"name":"어라운드(AROUND)","tel":"031-915-5346","addr":"경기도 고양시 일산동구 정발산동 706-1번지","indutype":"일반휴게음식 - 일반한식","category":"restaurant"}]},{"lat":"37.673291147","long":"126.77918494","imageIndex":4,"items":[{"name":"언니네밥상","tel":"031-913-4050","addr":"경기도 고양시 일산동구 정발산동 1218-5번지","indutype":"일반휴게음식 - 일반한식","category":"restaurant"}]},{"lat":"37.666519324","long":"126.77162283","imageIndex":4,"items":[{"name":"언프레임","tel":"","addr":"경기도 고양시 일산동구 정발산동 715-3번지","indutype":"일반휴게음식 - 서양음식","category":"restaurant"}]},{"lat":"37.670653585","long":"126.77565646","imageIndex":4,"items":[{"name":"엄마손밥집","tel":"031-923-8939","addr":"경기도 고양시 일산동구 정발산동 1164-8번지","indutype":"일반휴게음식 - 일반한식","category":"restaurant"}]},{"lat":"37.67212818","long":"126.78359769","imageIndex":4,"items":[{"name":"에이(A)","tel":"031-911-2628","addr":"경기도 고양시 일산동구 정발산동 1237-1번지","indutype":"일반휴게음식 - 일반한식","category":"restaurant"}]},{"lat":"37.669988646","long":"126.78132575","imageIndex":4,"items":[{"name":"에이에이에이(AAA)","tel":"031-000-0000","addr":"경기도 고양시 일산동구 정발산동 1297번지","indutype":"일반휴게음식 - 일반한식","category":"restaurant"}]},{"lat":"37.6659331","long":"126.77131863","imageIndex":4,"items":[{"name":"엘리수피자(ellysoo pizza)","tel":"","addr":"경기도 고양시 일산동구 정발산동 719-10번지","indutype":"일반휴게음식 - 서양음식","category":"restaurant"}]},{"lat":"37.669321276","long":"126.77623858","imageIndex":4,"items":[{"name":"연","tel":"031-916-1116","addr":"경기도 고양시 일산동구 정발산동 1180-4번지","indutype":"일반휴게음식 - 서양음식","category":"restaurant"}]},{"lat":"37.672294636","long":"126.78106952","imageIndex":4,"items":[{"name":"연탄불고기","tel":"031-903-0900","addr":"경기도 고양시 일산동구 정발산동 1230-3번지","indutype":"일반휴게음식 - 일반한식","category":"restaurant"}]},{"lat":"37.666184879","long":"126.7710685","imageIndex":4,"items":[{"name":"열두시테이블","tel":"031-969-0356","addr":"경기도 고양시 일산동구 정발산동 718-4번지","indutype":"일반휴게음식 - 서양음식","category":"restaurant"}]},{"lat":"37.671131727","long":"126.77598371","imageIndex":4,"items":[{"name":"영도","tel":"070-5865-8659","addr":"경기도 고양시 일산동구 정발산동 1163-7번지","indutype":"일반휴게음식 - 일식·회집","category":"restaurant"}]},{"lat":"37.671797442","long":"126.78018689","imageIndex":4,"items":[{"name":"옛날갈비","tel":"031-924-2240","addr":"경기도 고양시 일산동구 정발산동 1211-2번지","indutype":"일반휴게음식 - 일반한식","category":"restaurant"}]},{"lat":"37.674213727","long":"126.77634838","imageIndex":4,"items":[{"name":"옛날장터치킨(정발산동점)","tel":"031-922-6699","addr":"경기도 고양시 일산동구 정발산동 1139-1번지","indutype":"일반휴게음식 - 스넥","category":"restaurant"},{"name":"전주미콩나물국밥","tel":"031-921-9695","addr":"경기도 고양시 일산동구 정발산동 1139-1번지","indutype":"일반휴게음식 - 일반한식","category":"restaurant"}]},{"lat":"37.674629494","long":"126.77703857","imageIndex":4,"items":[{"name":"옛날칼국수","tel":"031-922-0277","addr":"경기도 고양시 일산동구 정발산동 1133-8번지","indutype":"일반휴게음식 - 일반한식","category":"restaurant"}]},{"lat":"37.673017947","long":"126.77765554","imageIndex":4,"items":[{"name":"옛날통닭","tel":"031-923-8292","addr":"경기도 고양시 일산동구 정발산동 1204번지","indutype":"일반휴게음식 - 주점","category":"restaurant"}]},{"lat":"37.673375595","long":"126.78096429","imageIndex":4,"items":[{"name":"오늘은푸드","tel":"031-912-0525","addr":"경기도 고양시 일산동구 정발산동 1229번지","indutype":"일반휴게음식 - 일반한식","category":"restaurant"}]},{"lat":"37.674512847","long":"126.7772883","imageIndex":4,"items":[{"name":"오두막","tel":"031-915-0391","addr":"경기도 고양시 일산동구 정발산동 1132-9번지","indutype":"일반휴게음식 - 일반한식","category":"restaurant"}]},{"lat":"37.672570111","long":"126.7743471","imageIndex":4,"items":[{"name":"오사팔피엠(5:48PM)","tel":"","addr":"경기도 고양시 일산동구 정발산동 1153-5번지","indutype":"일반휴게음식 - 서양음식","category":"restaurant"}]},{"lat":"37.671379813","long":"126.78329386","imageIndex":4,"items":[{"name":"오즈","tel":"031-909-0902","addr":"경기도 고양시 일산동구 정발산동 1284-3번지","indutype":"일반휴게음식 - 일반한식","category":"restaurant"}]},{"lat":"37.674517505","long":"126.77973669","imageIndex":4,"items":[{"name":"와이스튜디오","tel":"","addr":"경기도 고양시 일산동구 정발산동 1251번지","indutype":"일반휴게음식 - 서양음식","category":"restaurant"}]},{"lat":"37.674431952","long":"126.78215134","imageIndex":4,"items":[{"name":"와인&감성","tel":"031-911-8797","addr":"경기도 고양시 일산동구 정발산동 1254-2번지","indutype":"일반휴게음식 - 칵테일바","category":"restaurant"},{"name":"차커커피","tel":"031-922-9758","addr":"경기도 고양시 일산동구 정발산동 1254-2번지","indutype":"일반휴게음식 - 서양음식","category":"restaurant"}]},{"lat":"37.671546476","long":"126.78087906","imageIndex":4,"items":[{"name":"외다리불닭발","tel":"","addr":"경기도 고양시 일산동구 정발산동 1221-2번지","indutype":"일반휴게음식 - 일반한식","category":"restaurant"}]},{"lat":"37.673267763","long":"126.77637393","imageIndex":4,"items":[{"name":"요거프레소정발산점","tel":"070-7404-1465","addr":"경기도 고양시 일산동구 정발산동 1147번지","indutype":"일반휴게음식 - 서양음식","category":"restaurant"}]},{"lat":"37.672410566","long":"126.77570778","imageIndex":4,"items":[{"name":"요녀석 정발점","tel":"031-912-6462","addr":"경기도 고양시 일산동구 정발산동 1151-15번지","indutype":"일반휴게음식 - 서양음식","category":"restaurant"},{"name":"청년피자","tel":"031-994-0060","addr":"경기도 고양시 일산동구 정발산동 1151-15번지","indutype":"일반휴게음식 - 서양음식","category":"restaurant"}]},{"lat":"37.666992334","long":"126.77393351","imageIndex":4,"items":[{"name":"우노","tel":"","addr":"경기도 고양시 일산동구 정발산동 702-1번지","indutype":"일반휴게음식 - 서양음식","category":"restaurant"}]},{"lat":"37.670465125","long":"126.77604241","imageIndex":4,"items":[{"name":"우드스탁","tel":"031-913-5004","addr":"경기도 고양시 일산동구 정발산동 1189-5번지","indutype":"일반휴게음식 - 일반한식","category":"restaurant"}]},{"lat":"37.670632628","long":"126.78362476","imageIndex":4,"items":[{"name":"우디바우어","tel":"031-111-1111","addr":"경기도 고양시 일산동구 정발산동 1286-11번지","indutype":"일반휴게음식 - 일반한식","category":"restaurant"}]},{"lat":"37.672656979","long":"126.77735059","imageIndex":4,"items":[{"name":"우리소 육회마왕","tel":"031-918-9996","addr":"경기도 고양시 일산동구 정발산동 1203-13번지","indutype":"일반휴게음식 - 일반한식","category":"restaurant"},{"name":"중평떡볶이","tel":"031-922-5088","addr":"경기도 고양시 일산동구 정발산동 1203-13번지","indutype":"일반휴게음식 - 스넥","category":"restaurant"}]},{"lat":"37.673183247","long":"126.77929862","imageIndex":4,"items":[{"name":"우리푸드","tel":"031-905-8253","addr":"경기도 고양시 일산동구 정발산동 1218-6번지","indutype":"일반휴게음식 - 일반한식","category":"restaurant"}]},{"lat":"37.670930408","long":"126.7743748","imageIndex":4,"items":[{"name":"우미양가","tel":"031-921-9357","addr":"경기도 고양시 일산동구 정발산동 1171-5번지","indutype":"일반휴게음식 - 일반한식","category":"restaurant"}]},{"lat":"37.671599423","long":"126.78028949","imageIndex":4,"items":[{"name":"위드","tel":"031-911-4830","addr":"경기도 고양시 일산동구 정발산동 1210번지","indutype":"일반휴게음식 - 서양음식","category":"restaurant"}]},{"lat":"37.668852417","long":"126.78562484","imageIndex":4,"items":[{"name":"유엠인터내셔널 나인컵스","tel":"031-903-0125","addr":"경기도 고양시 일산동구 정발산동 1352-3번지","indutype":"일반휴게음식 - 서양음식","category":"restaurant"}]},{"lat":"37.674409239","long":"126.77965767","imageIndex":4,"items":[{"name":"유엠인터내셔널 나인컵스","tel":"031-923-7773","addr":"경기도 고양시 일산동구 정발산동 1251-1번지","indutype":"일반휴게음식 - 서양음식","category":"restaurant"}]},{"lat":"37.672462479","long":"126.7745968","imageIndex":4,"items":[{"name":"은수 테이블","tel":"031-000-0000","addr":"경기도 고양시 일산동구 정발산동 1157-13번지","indutype":"일반휴게음식 - 일반한식","category":"restaurant"}]},{"lat":"37.672737588","long":"126.77710098","imageIndex":4,"items":[{"name":"이(e) -토스트","tel":"031-917-0544","addr":"경기도 고양시 일산동구 정발산동 1147-8번지","indutype":"일반휴게음식 - 서양음식","category":"restaurant"}]},{"lat":"37.669654849","long":"126.77635091","imageIndex":4,"items":[{"name":"이슬","tel":"031-911-1250","addr":"경기도 고양시 일산동구 정발산동 1183-2번지","indutype":"일반휴게음식 - 일반한식","category":"restaurant"}]},{"lat":"37.666904777","long":"126.77062424","imageIndex":4,"items":[{"name":"이십일그램(21gram)","tel":"031-818-5803","addr":"경기도 고양시 일산동구 정발산동 717번지","indutype":"일반휴게음식 - 서양음식","category":"restaurant"}]},{"lat":"37.666267055","long":"126.77162361","imageIndex":4,"items":[{"name":"이태백","tel":"031-915-4142","addr":"경기도 고양시 일산동구 정발산동 714-11번지","indutype":"일반휴게음식 - 주점","category":"restaurant"}]},{"lat":"37.676514535","long":"126.77809839","imageIndex":4,"items":[{"name":"일미리 금계찜닭 정발산점","tel":"031-917-8001","addr":"경기도 고양시 일산동구 정발산동 1114-5번지","indutype":"일반휴게음식 - 일반한식","category":"restaurant"}]},{"lat":"37.670655293","long":"126.78128976","imageIndex":4,"items":[{"name":"일산","tel":"","addr":"경기도 고양시 일산동구 정발산동 1294-3번지","indutype":"일반휴게음식 - 서양음식","category":"restaurant"}]},{"lat":"37.664767421","long":"126.76957686","imageIndex":4,"items":[{"name":"일산경찰서복지회","tel":"031-921-4112","addr":"경기도 고양시 일산동구 정발산동 725번지","indutype":"일반휴게음식 - 위탁급식업","category":"restaurant"},{"name":"카페하모니/일산동부경찰서 복지회","tel":"031-929-9220","addr":"경기도 고양시 일산동구 정발산동 725번지","indutype":"일반휴게음식 - 서양음식","category":"restaurant"}]},{"lat":"37.670048542","long":"126.77493289","imageIndex":4,"items":[{"name":"일산골뱅이","tel":"031-913-0079","addr":"경기도 고양시 일산동구 정발산동 1173-13번지","indutype":"일반휴게음식 - 주점","category":"restaurant"}]},{"lat":"37.670575928","long":"126.7822081","imageIndex":4,"items":[{"name":"일산길푸드","tel":"031-914-0077","addr":"경기도 고양시 일산동구 정발산동 1288-7번지","indutype":"일반휴게음식 - 일반한식","category":"restaurant"}]},{"lat":"37.674764855","long":"126.77715151","imageIndex":4,"items":[{"name":"일산족발","tel":"01-0892-0527","addr":"경기도 고양시 일산동구 정발산동 1133-7번지","indutype":"일반휴게음식 - 일반한식","category":"restaurant"}]},{"lat":"37.670042262","long":"126.77634973","imageIndex":4,"items":[{"name":"일화다원","tel":"031-362-6001","addr":"경기도 고양시 일산동구 정발산동 1184-1번지","indutype":"일반휴게음식 - 일반한식","category":"restaurant"}]},{"lat":"37.674152203","long":"126.77715337","imageIndex":4,"items":[{"name":"자갈자갈","tel":"031-913-1177","addr":"경기도 고양시 일산동구 정발산동 1135-8번지","indutype":"일반휴게음식 - 서양음식","category":"restaurant"}]},{"lat":"37.667959321","long":"126.77546066","imageIndex":4,"items":[{"name":"자기야","tel":"031-901-1019","addr":"경기도 고양시 일산동구 정발산동 829-8번지","indutype":"일반휴게음식 - 일반한식","category":"restaurant"}]},{"lat":"37.670568837","long":"126.77376384","imageIndex":4,"items":[{"name":"장춘단왕족발보쌈","tel":"031-914-5933","addr":"경기도 고양시 일산동구 정발산동 1174-10번지","indutype":"일반휴게음식 - 일반한식","category":"restaurant"}]},{"lat":"37.672323147","long":"126.77710223","imageIndex":4,"items":[{"name":"장코커피바","tel":"02-1111-1111","addr":"경기도 고양시 일산동구 정발산동 1200-22번지","indutype":"일반휴게음식 - 서양음식","category":"restaurant"}]},{"lat":"37.673630557","long":"126.77763102","imageIndex":4,"items":[{"name":"전가복","tel":"031-914-5800","addr":"경기도 고양시 일산동구 정발산동 1137번지","indutype":"일반휴게음식 - 중국식","category":"restaurant"}]},{"lat":"37.669571668","long":"126.77526305","imageIndex":4,"items":[{"name":"전주팔미콩나물국밥 (정발산점)","tel":"031-914-1248","addr":"경기도 고양시 일산동구 정발산동 1178-1번지","indutype":"일반휴게음식 - 일반한식","category":"restaurant"}]},{"lat":"37.67251421","long":"126.77807646","imageIndex":4,"items":[{"name":"전주호푸드","tel":"031-921-0050","addr":"경기도 고양시 일산동구 정발산동 1203-5번지","indutype":"일반휴게음식 - 일반한식","category":"restaurant"}]},{"lat":"37.6734574","long":"126.77660005","imageIndex":4,"items":[{"name":"전하우스","tel":"031-922-6799","addr":"경기도 고양시 일산동구 정발산동 1146번지","indutype":"일반휴게음식 - 일반한식","category":"restaurant"},{"name":"퀸즈브라운정발산점","tel":"031-925-8222","addr":"경기도 고양시 일산동구 정발산동 1146번지","indutype":"일반휴게음식 - 서양음식","category":"restaurant"}]},{"lat":"37.66949309","long":"126.77656675","imageIndex":4,"items":[{"name":"정동진","tel":"031-912-5237","addr":"경기도 고양시 일산동구 정발산동 1180-1번지","indutype":"일반휴게음식 - 일반한식","category":"restaurant"}]},{"lat":"37.667019185","long":"126.78331804","imageIndex":4,"items":[{"name":"정발산곱창","tel":"031-905-0048","addr":"경기도 고양시 일산동구 정발산동 1335-6번지","indutype":"일반휴게음식 - 일반한식","category":"restaurant"}]},{"lat":"37.672298865","long":"126.77854184","imageIndex":4,"items":[{"name":"정발산물닭갈비","tel":"031-917-7741","addr":"경기도 고양시 일산동구 정발산동 1200-10번지","indutype":"일반휴게음식 - 일반한식","category":"restaurant"}]},{"lat":"37.671825091","long":"126.78051552","imageIndex":4,"items":[{"name":"정발산참바다","tel":"031-902-9234","addr":"경기도 고양시 일산동구 정발산동 1220-6번지","indutype":"일반휴게음식 - 일반한식","category":"restaurant"}]},{"lat":"37.672157554","long":"126.77532316","imageIndex":4,"items":[{"name":"정발와플","tel":"031-931-9467","addr":"경기도 고양시 일산동구 정발산동 1157-7번지","indutype":"일반휴게음식 - 일반한식","category":"restaurant"}]},{"lat":"37.668931658","long":"126.77509499","imageIndex":4,"items":[{"name":"정발휴게소","tel":"031-915-9871","addr":"경기도 고양시 일산동구 정발산동 681-3번지","indutype":"일반휴게음식 - 일반한식","category":"restaurant"}]},{"lat":"37.674297526","long":"126.77776503","imageIndex":4,"items":[{"name":"정원","tel":"031-919-0319","addr":"경기도 고양시 일산동구 정발산동 1132-5번지","indutype":"일반휴게음식 - 일반한식","category":"restaurant"}]},{"lat":"37.671186455","long":"126.78107282","imageIndex":4,"items":[{"name":"제냐(zegna)","tel":"031-907-6246","addr":"경기도 고양시 일산동구 정발산동 1222-2번지","indutype":"일반휴게음식 - 서양음식","category":"restaurant"}]},{"lat":"37.670709627","long":"126.78143695","imageIndex":4,"items":[{"name":"제이","tel":"070-4649-1101","addr":"경기도 고양시 일산동구 정발산동 1294-2번지","indutype":"일반휴게음식 - 서양음식","category":"restaurant"}]},{"lat":"37.670238597","long":"126.77537436","imageIndex":4,"items":[{"name":"조박사 족발. 순대국","tel":"031-976-9820","addr":"경기도 고양시 일산동구 정발산동 1173-9번지","indutype":"일반휴게음식 - 일반한식","category":"restaurant"}]},{"lat":"37.674126084","long":"126.77762952","imageIndex":4,"items":[{"name":"조은푸드","tel":"031-915-1994","addr":"경기도 고양시 일산동구 정발산동 1135-4번지","indutype":"일반휴게음식 - 일반한식","category":"restaurant"}]},{"lat":"37.669490801","long":"126.77537664","imageIndex":4,"items":[{"name":"종로족발","tel":"031-918-8808","addr":"경기도 고양시 일산동구 정발산동 1178-2번지","indutype":"일반휴게음식 - 일반한식","category":"restaurant"}]},{"lat":"37.671492163","long":"126.78074321","imageIndex":4,"items":[{"name":"주락구(Junakku)","tel":"02-1600-7084","addr":"경기도 고양시 일산동구 정발산동 1221-3번지","indutype":"일반휴게음식 - 주점","category":"restaurant"}]},{"lat":"37.666994485","long":"126.77504424","imageIndex":4,"items":[{"name":"즐거운생활","tel":"031-908-7982","addr":"경기도 고양시 일산동구 정발산동 818-2번지","indutype":"일반휴게음식 - 일반한식","category":"restaurant"}]},{"lat":"37.672985916","long":"126.77976394","imageIndex":4,"items":[{"name":"지리산한방흑돼지","tel":"031-918-8070","addr":"경기도 고양시 일산동구 정발산동 1219번지","indutype":"일반휴게음식 - 일반한식","category":"restaurant"}]},{"lat":"37.674604637","long":"126.78295563","imageIndex":4,"items":[{"name":"지안푸드","tel":"031-918-1970","addr":"경기도 고양시 일산동구 정발산동 1264-7번지","indutype":"일반휴게음식 - 일반한식","category":"restaurant"}]},{"lat":"37.665989886","long":"126.77271253","imageIndex":4,"items":[{"name":"지중해","tel":"","addr":"경기도 고양시 일산동구 정발산동 704-3번지","indutype":"일반휴게음식 - 서양음식","category":"restaurant"}]},{"lat":"37.668489597","long":"126.77479032","imageIndex":4,"items":[{"name":"진미닭한마리","tel":"031-916-0393","addr":"경기도 고양시 일산동구 정발산동 687번지","indutype":"일반휴게음식 - 일반한식","category":"restaurant"},{"name":"카페687","tel":"","addr":"경기도 고양시 일산동구 정발산동 687번지","indutype":"일반휴게음식 - 서양음식","category":"restaurant"}]},{"lat":"37.670962676","long":"126.77709502","imageIndex":4,"items":[{"name":"진저앤트리클(Ginger and Treacle)","tel":"031-922-7514","addr":"경기도 고양시 일산동구 정발산동 1193-4번지","indutype":"일반휴게음식 - 서양음식","category":"restaurant"}]},{"lat":"37.671019317","long":"126.77376245","imageIndex":4,"items":[{"name":"진주국수","tel":"031-924-6602","addr":"경기도 고양시 일산동구 정발산동 1171-10번지","indutype":"일반휴게음식 - 일반한식","category":"restaurant"}]},{"lat":"37.670263852","long":"126.77445618","imageIndex":4,"items":[{"name":"짱돈까스","tel":"031-911-0023","addr":"경기도 고양시 일산동구 정발산동 1173-17번지","indutype":"일반휴게음식 - 서양음식","category":"restaurant"}]},{"lat":"37.671132141","long":"126.78093697","imageIndex":4,"items":[{"name":"착한푸드","tel":"031-922-7166","addr":"경기도 고양시 일산동구 정발산동 1222-3번지","indutype":"일반휴게음식 - 일반한식","category":"restaurant"},{"name":"초가집쑥우동","tel":"031-922-3022","addr":"경기도 고양시 일산동구 정발산동 1222-3번지","indutype":"일반휴게음식 - 일반한식","category":"restaurant"},{"name":"쿠모","tel":"02-111-1111","addr":"경기도 고양시 일산동구 정발산동 1222-3번지","indutype":"일반휴게음식 - 일식·회집","category":"restaurant"}]},{"lat":"37.673160083","long":"126.77660096","imageIndex":4,"items":[{"name":"참나라숯불바베큐","tel":"","addr":"경기도 고양시 일산동구 정발산동 1147-2번지","indutype":"일반휴게음식 - 스넥","category":"restaurant"}]},{"lat":"37.673912586","long":"126.78386448","imageIndex":4,"items":[{"name":"채운","tel":"031-914-7145","addr":"경기도 고양시 일산동구 정발산동 1266번지 밤가시마을건영빌라7단지","indutype":"일반휴게음식 - 스넥","category":"restaurant"}]},{"lat":"37.675158599","long":"126.7804829","imageIndex":4,"items":[{"name":"처갓집치킨","tel":"031-906-9040","addr":"경기도 고양시 일산동구 정발산동 1247번지","indutype":"일반휴게음식 - 서양음식","category":"restaurant"}]},{"lat":"37.671488435","long":"126.78356557","imageIndex":4,"items":[{"name":"천국","tel":"031-111-1111","addr":"경기도 고양시 일산동구 정발산동 1284-1번지","indutype":"일반휴게음식 - 서양음식","category":"restaurant"}]},{"lat":"37.67273986","long":"126.77829114","imageIndex":4,"items":[{"name":"천수한방삼계탕","tel":"031-923-3318","addr":"경기도 고양시 일산동구 정발산동 1204-3번지","indutype":"일반휴게음식 - 일반한식","category":"restaurant"}]},{"lat":"37.673707314","long":"126.77537511","imageIndex":4,"items":[{"name":"청정바지락칼국수","tel":"031-912-7676","addr":"경기도 고양시 일산동구 정발산동 1148번지","indutype":"일반휴게음식 - 일반한식","category":"restaurant"}]},{"lat":"37.673598933","long":"126.77995481","imageIndex":4,"items":[{"name":"초가집","tel":"031-916-8706","addr":"경기도 고양시 일산동구 정발산동 1226-7번지","indutype":"일반휴게음식 - 일반한식","category":"restaurant"}]},{"lat":"37.668767225","long":"126.77392806","imageIndex":4,"items":[{"name":"춘천명동1번지 닭갈비","tel":"031-912-9989","addr":"경기도 고양시 일산동구 정발산동 686-9번지","indutype":"일반휴게음식 - 일반한식","category":"restaurant"}]},{"lat":"37.674600726","long":"126.77613184","imageIndex":4,"items":[{"name":"치포스","tel":"070-4028-0894","addr":"경기도 고양시 일산동구 정발산동 1134-12번지","indutype":"일반휴게음식 - 스넥","category":"restaurant"}]},{"lat":"37.670239437","long":"126.78537144","imageIndex":4,"items":[{"name":"칠 (CHILL)","tel":"","addr":"경기도 고양시 일산동구 정발산동 1273-2번지","indutype":"일반휴게음식 - 서양음식","category":"restaurant"}]},{"lat":"37.672796272","long":"126.77482247","imageIndex":4,"items":[{"name":"카페 그로우","tel":"","addr":"경기도 고양시 일산동구 정발산동 1152-11번지","indutype":"일반휴게음식 - 서양음식","category":"restaurant"}]},{"lat":"37.667545729","long":"126.77126828","imageIndex":4,"items":[{"name":"카페 소비","tel":"031-922-4624","addr":"경기도 고양시 일산동구 정발산동 711번지","indutype":"일반휴게음식 - 서양음식","category":"restaurant"}]},{"lat":"37.668958376","long":"126.78445709","imageIndex":4,"items":[{"name":"카페 이곳에선","tel":"031-000-0000","addr":"경기도 고양시 일산동구 정발산동 1350-5번지","indutype":"일반휴게음식 - 서양음식","category":"restaurant"}]},{"lat":"37.669988792","long":"126.77665592","imageIndex":4,"items":[{"name":"카페가온","tel":"031-971-0320","addr":"경기도 고양시 일산동구 정발산동 1187-3번지","indutype":"일반휴게음식 - 서양음식","category":"restaurant"},{"name":"헬씨테이블","tel":"031-915-8999","addr":"경기도 고양시 일산동구 정발산동 1187-3번지","indutype":"일반휴게음식 - 서양음식","category":"restaurant"}]},{"lat":"37.672937229","long":"126.77784848","imageIndex":4,"items":[{"name":"카페디더블유(Cafe DW)","tel":"","addr":"경기도 고양시 일산동구 정발산동 1204-1번지","indutype":"일반휴게음식 - 서양음식","category":"restaurant"}]},{"lat":"37.669769026","long":"126.7748204","imageIndex":4,"items":[{"name":"커리커리","tel":"031-922-9700","addr":"경기도 고양시 일산동구 정발산동 1176-3번지","indutype":"일반휴게음식 - 일반한식","category":"restaurant"}]},{"lat":"37.671660459","long":"126.78401845","imageIndex":4,"items":[{"name":"커피공방 ALLRI","tel":"070-4652-2866","addr":"경기도 고양시 일산동구 정발산동 1281번지","indutype":"일반휴게음식 - 일반한식","category":"restaurant"}]},{"lat":"37.669409737","long":"126.78493182","imageIndex":4,"items":[{"name":"커피로와","tel":"031-000-0000","addr":"경기도 고양시 일산동구 정발산동 1275-15번지","indutype":"일반휴게음식 - 서양음식","category":"restaurant"}]},{"lat":"37.671965226","long":"126.78317878","imageIndex":4,"items":[{"name":"커피정원","tel":"031-922-3276","addr":"경기도 고양시 일산동구 정발산동 1237-4번지","indutype":"일반휴게음식 - 서양음식","category":"restaurant"}]},{"lat":"37.670406206","long":"126.78299069","imageIndex":4,"items":[{"name":"커피집고이","tel":"","addr":"경기도 고양시 일산동구 정발산동 1287-6번지","indutype":"일반휴게음식 - 서양음식","category":"restaurant"},{"name":"효교/주식회사 교순","tel":"02-1234-1234","addr":"경기도 고양시 일산동구 정발산동 1287-6번지","indutype":"일반휴게음식 - 중국식","category":"restaurant"}]},{"lat":"37.66952145","long":"126.77259961","imageIndex":4,"items":[{"name":"커피테리어","tel":"031-916-0482","addr":"경기도 고양시 일산동구 정발산동 685-5번지","indutype":"일반휴게음식 - 서양음식","category":"restaurant"}]},{"lat":"37.669625463","long":"126.77512687","imageIndex":4,"items":[{"name":"커피통","tel":"031-916-4050","addr":"경기도 고양시 일산동구 정발산동 1178번지","indutype":"일반휴게음식 - 서양음식","category":"restaurant"}]},{"lat":"37.669962447","long":"126.78176787","imageIndex":4,"items":[{"name":"커피하우스","tel":"070-7769-1622","addr":"경기도 고양시 일산동구 정발산동 1296-1번지","indutype":"일반휴게음식 - 서양음식","category":"restaurant"}]},{"lat":"37.667577169","long":"126.7829877","imageIndex":4,"items":[{"name":"커피하우스코델리","tel":"031-904-8585","addr":"경기도 고양시 일산동구 정발산동 1336-6번지","indutype":"일반휴게음식 - 서양음식","category":"restaurant"}]},{"lat":"37.668661064","long":"126.77493714","imageIndex":4,"items":[{"name":"코리안주방","tel":"070-8800-5200","addr":"경기도 고양시 일산동구 정발산동 682-7번지","indutype":"일반휴게음식 - 일반한식","category":"restaurant"}]},{"lat":"37.674631314","long":"126.77799072","imageIndex":4,"items":[{"name":"코코즈","tel":"031-915-3282","addr":"경기도 고양시 일산동구 정발산동 1127-5번지","indutype":"일반휴게음식 - 서양음식","category":"restaurant"}]},{"lat":"37.674292522","long":"126.77987338","imageIndex":4,"items":[{"name":"코하마","tel":"","addr":"경기도 고양시 일산동구 정발산동 1247-12번지","indutype":"일반휴게음식 - 일식·회집","category":"restaurant"}]},{"lat":"37.674207863","long":"126.777992","imageIndex":4,"items":[{"name":"콩알","tel":"031-932-7355","addr":"경기도 고양시 일산동구 정발산동 1131-7번지","indutype":"일반휴게음식 - 서양음식","category":"restaurant"}]},{"lat":"37.669104305","long":"126.77585387","imageIndex":4,"items":[{"name":"쿠잉브런치","tel":"031-926-5662","addr":"경기도 고양시 일산동구 정발산동 1180-7번지","indutype":"일반휴게음식 - 서양음식","category":"restaurant"}]},{"lat":"37.672160214","long":"126.77670601","imageIndex":4,"items":[{"name":"쿠키앤드","tel":"","addr":"경기도 고양시 일산동구 정발산동 1151-7번지","indutype":"일반휴게음식 - 일반한식","category":"restaurant"}]},{"lat":"37.6674377","long":"126.78551563","imageIndex":4,"items":[{"name":"퀸즈푸드","tel":"031-0000-0000","addr":"경기도 고양시 일산동구 정발산동 1346-13번지","indutype":"일반휴게음식 - 일반한식","category":"restaurant"}]},{"lat":"37.671352531","long":"126.78315792","imageIndex":4,"items":[{"name":"클래스","tel":"070-4179-7852","addr":"경기도 고양시 일산동구 정발산동 1284-4번지","indutype":"일반휴게음식 - 서양음식","category":"restaurant"}]},{"lat":"37.669599353","long":"126.775603","imageIndex":4,"items":[{"name":"클리프커피","tel":"031-916-4050","addr":"경기도 고양시 일산동구 정발산동 1181-10번지","indutype":"일반휴게음식 - 서양음식","category":"restaurant"}]},{"lat":"37.666266299","long":"126.77123826","imageIndex":4,"items":[{"name":"키친9(kitchen9)","tel":"031-915-3009","addr":"경기도 고양시 일산동구 정발산동 718-3번지","indutype":"일반휴게음식 - 일반한식","category":"restaurant"}]},{"lat":"37.669014486","long":"126.7855677","imageIndex":4,"items":[{"name":"키친데일리","tel":"031-815-5642","addr":"경기도 고양시 일산동구 정발산동 1352-2번지","indutype":"일반휴게음식 - 서양음식","category":"restaurant"}]},{"lat":"37.671180609","long":"126.78276171","imageIndex":4,"items":[{"name":"타임","tel":"031-911-4055","addr":"경기도 고양시 일산동구 정발산동 1284-7번지","indutype":"일반휴게음식 - 서양음식","category":"restaurant"}]},{"lat":"37.67013022","long":"126.77523868","imageIndex":4,"items":[{"name":"태백집","tel":"031-911-9588","addr":"경기도 고양시 일산동구 정발산동 1173-10번지","indutype":"일반휴게음식 - 일반한식","category":"restaurant"}]},{"lat":"37.673543201","long":"126.77907084","imageIndex":4,"items":[{"name":"태조삼계탕","tel":"031-913-3965","addr":"경기도 고양시 일산동구 정발산동 1217-3번지","indutype":"일반휴게음식 - 일반한식","category":"restaurant"}]},{"lat":"37.672403799","long":"126.77687529","imageIndex":4,"items":[{"name":"테라 (Tera)","tel":"070-4236-1383","addr":"경기도 고양시 일산동구 정발산동 1150-8번지","indutype":"일반휴게음식 - 서양음식","category":"restaurant"}]},{"lat":"37.669239929","long":"126.77610281","imageIndex":4,"items":[{"name":"테라스","tel":"","addr":"경기도 고양시 일산동구 정발산동 1180-5번지","indutype":"일반휴게음식 - 서양음식","category":"restaurant"}]},{"lat":"37.667126688","long":"126.78298903","imageIndex":4,"items":[{"name":"투데이","tel":"070-4312-7391","addr":"경기도 고양시 일산동구 정발산동 1334번지","indutype":"일반휴게음식 - 서양음식","category":"restaurant"}]},{"lat":"37.670547859","long":"126.78165279","imageIndex":4,"items":[{"name":"티코커피(TICO COFFEE)","tel":"","addr":"경기도 고양시 일산동구 정발산동 1293-1번지","indutype":"일반휴게음식 - 서양음식","category":"restaurant"}]},{"lat":"37.668405343","long":"126.77315844","imageIndex":4,"items":[{"name":"파인리틀데이","tel":"02-000-0000","addr":"경기도 고양시 일산동구 정발산동 692-3번지","indutype":"일반휴게음식 - 서양음식","category":"restaurant"}]},{"lat":"37.674097038","long":"126.77657544","imageIndex":4,"items":[{"name":"파파존스피자정발산점","tel":"031-916-8090","addr":"경기도 고양시 일산동구 정발산동 1139-2번지","indutype":"일반휴게음식 - 서양음식","category":"restaurant"}]},{"lat":"37.668490254","long":"126.77513034","imageIndex":4,"items":[{"name":"판도라","tel":"","addr":"경기도 고양시 일산동구 정발산동 681-7번지","indutype":"일반휴게음식 - 서양음식","category":"restaurant"}]},{"lat":"37.674685998","long":"126.78310275","imageIndex":4,"items":[{"name":"평양면옥","tel":"031-925-6955","addr":"경기도 고양시 일산동구 정발산동 1264번지","indutype":"일반휴게음식 - 일반한식","category":"restaurant"}]},{"lat":"37.666550004","long":"126.77349284","imageIndex":4,"items":[{"name":"포텐(POTEN)","tel":"031-913-1238","addr":"경기도 고양시 일산동구 정발산동 702-5번지","indutype":"일반휴게음식 - 서양음식","category":"restaurant"}]},{"lat":"37.674542035","long":"126.78320519","imageIndex":4,"items":[{"name":"푸드코트","tel":"031-907-4321","addr":"경기도 고양시 일산동구 정발산동 1264-1번지","indutype":"일반휴게음식 - 일반한식","category":"restaurant"}]},{"lat":"37.673825247","long":"126.77579414","imageIndex":4,"items":[{"name":"풍미","tel":"031-915-0033","addr":"경기도 고양시 일산동구 정발산동 1145-1번지","indutype":"일반휴게음식 - 일반한식","category":"restaurant"}]},{"lat":"37.673821012","long":"126.77828788","imageIndex":4,"items":[{"name":"퓨전술상","tel":"031-917-0010","addr":"경기도 고양시 일산동구 정발산동 1136-3번지","indutype":"일반휴게음식 - 주점","category":"restaurant"}]},{"lat":"37.671376636","long":"126.78159365","imageIndex":4,"items":[{"name":"프라하","tel":"031-915-8005","addr":"경기도 고양시 일산동구 정발산동 1234-5번지","indutype":"일반휴게음식 - 서양음식","category":"restaurant"}]},{"lat":"37.669547365","long":"126.77667993","imageIndex":4,"items":[{"name":"프레르","tel":"","addr":"경기도 고양시 일산동구 정발산동 1180번지","indutype":"일반휴게음식 - 일반한식","category":"restaurant"}]},{"lat":"37.675266308","long":"126.78026721","imageIndex":4,"items":[{"name":"프롬","tel":"031-912-3553","addr":"경기도 고양시 일산동구 정발산동 1253번지","indutype":"일반휴게음식 - 일반한식","category":"restaurant"}]},{"lat":"37.669797464","long":"126.7851007","imageIndex":4,"items":[{"name":"프루프루","tel":"02-1234-5678","addr":"경기도 고양시 일산동구 정발산동 1274-4번지","indutype":"일반휴게음식 - 서양음식","category":"restaurant"}]},{"lat":"37.667070285","long":"126.77232383","imageIndex":4,"items":[{"name":"프리커피(Pre-coffee)","tel":"","addr":"경기도 고양시 일산동구 정발산동 709-2번지","indutype":"일반휴게음식 - 서양음식","category":"restaurant"}]},{"lat":"37.672104068","long":"126.78034466","imageIndex":4,"items":[{"name":"피쉬톡","tel":"031-919-1991","addr":"경기도 고양시 일산동구 정발산동 1220-8번지","indutype":"일반휴게음식 - 일식·회집","category":"restaurant"}]},{"lat":"37.672959998","long":"126.77562676","imageIndex":4,"items":[{"name":"피자나라치킨공주정발산점","tel":"031-921-9001","addr":"경기도 고양시 일산동구 정발산동 1149-7번지","indutype":"일반휴게음식 - 일반한식","category":"restaurant"}]},{"lat":"37.671766043","long":"126.78265797","imageIndex":4,"items":[{"name":"하나비","tel":"031-922-4150","addr":"경기도 고양시 일산동구 정발산동 1237-8번지","indutype":"일반휴게음식 - 서양음식","category":"restaurant"}]},{"lat":"37.671597182","long":"126.78390529","imageIndex":4,"items":[{"name":"하루","tel":"031-925-3337","addr":"경기도 고양시 일산동구 정발산동 1281-11번지","indutype":"일반휴게음식 - 서양음식","category":"restaurant"}]},{"lat":"37.667181147","long":"126.78320422","imageIndex":4,"items":[{"name":"하우스블랙","tel":"031-901-6516","addr":"경기도 고양시 일산동구 정발산동 1335-7번지","indutype":"일반휴게음식 - 서양음식","category":"restaurant"}]},{"lat":"37.672822709","long":"126.77451635","imageIndex":4,"items":[{"name":"한상호갈비찜요리전문점","tel":"031-913-2016","addr":"경기도 고양시 일산동구 정발산동 1153-7번지","indutype":"일반휴게음식 - 일반한식","category":"restaurant"}]},{"lat":"37.676929925","long":"126.77859591","imageIndex":4,"items":[{"name":"해마지","tel":"031-917-0258","addr":"경기도 고양시 일산동구 정발산동 1113-4번지","indutype":"일반휴게음식 - 일반한식","category":"restaurant"}]},{"lat":"37.673379438","long":"126.78301592","imageIndex":4,"items":[{"name":"행복의시작","tel":"031-925-8582","addr":"경기도 고양시 일산동구 정발산동 1259-2번지","indutype":"일반휴게음식 - 일반한식","category":"restaurant"}]},{"lat":"37.673047458","long":"126.77895898","imageIndex":4,"items":[{"name":"행복푸드","tel":"031-916-3138","addr":"경기도 고양시 일산동구 정발산동 1215-1번지","indutype":"일반휴게음식 - 일반한식","category":"restaurant"}]},{"lat":"37.670656654","long":"126.78201517","imageIndex":4,"items":[{"name":"향단이네","tel":"031-957-8066","addr":"경기도 고양시 일산동구 정발산동 1288-5번지","indutype":"일반휴게음식 - 일반한식","category":"restaurant"}]},{"lat":"37.671493101","long":"126.78124193","imageIndex":4,"items":[{"name":"호수양곱창구이","tel":"031-905-2793","addr":"경기도 고양시 일산동구 정발산동 1221-7번지","indutype":"일반휴게음식 - 일반한식","category":"restaurant"}]},{"lat":"37.672548169","long":"126.7769882","imageIndex":4,"items":[{"name":"호야분식","tel":"070-8157-2582","addr":"경기도 고양시 일산동구 정발산동 1150-7번지","indutype":"일반휴게음식 - 일반한식","category":"restaurant"}]},{"lat":"37.673990767","long":"126.77753925","imageIndex":4,"items":[{"name":"호천당","tel":"031-911-8844","addr":"경기도 고양시 일산동구 정발산동 1135-5번지","indutype":"일반휴게음식 - 일반한식","category":"restaurant"}]},{"lat":"37.670434353","long":"126.77410429","imageIndex":4,"items":[{"name":"호프랑소주랑","tel":"031-924-5243","addr":"경기도 고양시 일산동구 정발산동 1174번지","indutype":"일반휴게음식 - 주점","category":"restaurant"}]},{"lat":"37.670521658","long":"126.78209492","imageIndex":4,"items":[{"name":"홈그릴153(homegrill153)","tel":"050-5360-4995","addr":"경기도 고양시 일산동구 정발산동 1288-6번지","indutype":"일반휴게음식 - 서양음식","category":"restaurant"}]},{"lat":"37.667963099","long":"126.7727631","imageIndex":4,"items":[{"name":"홈라떼","tel":"","addr":"경기도 고양시 일산동구 정발산동 693-6번지","indutype":"일반휴게음식 - 서양음식","category":"restaurant"},{"name":"홈라떼","tel":"070-8830-2874","addr":"경기도 고양시 일산동구 정발산동 693-6번지","indutype":"일반휴게음식 - 서양음식","category":"restaurant"}]},{"lat":"37.672572913","long":"126.77579796","imageIndex":4,"items":[{"name":"홍일본요리","tel":"031-911-0590","addr":"경기도 고양시 일산동구 정발산동 1151번지","indutype":"일반휴게음식 - 일식·회집","category":"restaurant"}]},{"lat":"37.672904615","long":"126.77965084","imageIndex":4,"items":[{"name":"홍진참치","tel":"031-902-5448","addr":"경기도 고양시 일산동구 정발산동 1219-7번지","indutype":"일반휴게음식 - 일식·회집","category":"restaurant"}]},{"lat":"37.674238743","long":"126.7800209","imageIndex":4,"items":[{"name":"황가네분식","tel":"031-905-2626","addr":"경기도 고양시 일산동구 정발산동 1247-13번지","indutype":"일반휴게음식 - 일반한식","category":"restaurant"}]},{"lat":"37.666437926","long":"126.7714644","imageIndex":4,"items":[{"name":"회 사가는 날","tel":"031-914-6688","addr":"경기도 고양시 일산동구 정발산동 715-4번지","indutype":"일반휴게음식 - 일식·회집","category":"restaurant"}]},{"lat":"37.670797957","long":"126.77576937","imageIndex":4,"items":[{"name":"후라이드 참 잘하는집","tel":"031-922-0222","addr":"경기도 고양시 일산동구 정발산동 1164-7번지","indutype":"일반휴게음식 - 일반한식","category":"restaurant"}]},{"lat":"37.670602171","long":"126.78178864","imageIndex":4,"items":[{"name":"훈푸드","tel":"031-915-1122","addr":"경기도 고양시 일산동구 정발산동 1293번지","indutype":"일반휴게음식 - 일반한식","category":"restaurant"}]}]