[{"lat":"37.636051501","long":"126.8314004","imageIndex":17,"items":[{"name":"K&J뮤직스튜디오","tel":"070-4069-9960","addr":"경기도 고양시 덕양구 화중로","indutype":"용역 서비스 - 사무서비스","category":"other"},{"name":"세무사 이윤학사무소","tel":"031-968-0319","addr":"경기도 고양시 덕양구 화중로","indutype":"용역 서비스 - 법률회계서비스(개인)","category":"other"}]},{"lat":"37.640836741","long":"126.83214852","imageIndex":17,"items":[{"name":"그린공조","tel":"031-813-2261","addr":"경기도 고양시 덕양구 화중로","indutype":"회원제형태 - 기타1","category":"other"}]},{"lat":"37.646465105","long":"126.83656604","imageIndex":17,"items":[{"name":"다모아","tel":"031-967-8906","addr":"경기도 고양시 덕양구 화중로","indutype":"서적문구 - 문구용품","category":"other"}]},{"lat":"37.630051707","long":"126.83186733","imageIndex":17,"items":[{"name":"바이오스토리","tel":"031-970-8747","addr":"경기도 고양시 덕양구 화중로","indutype":"서적문구 - 과학기자재","category":"other"}]},{"lat":"37.630131922","long":"126.83126673","imageIndex":17,"items":[{"name":"전진숙한지조형연구소","tel":"031-970-9928","addr":"경기도 고양시 덕양구 화중로","indutype":"문화.취미 - 민예·공예품","category":"other"}]},{"lat":"37.636051501","long":"126.8314004","imageIndex":16,"items":[{"name":"대한논리속독교습소","tel":"031-968-3280","addr":"경기도 고양시 덕양구 화중로","indutype":"회원제형태 - 학원","category":"study"}]},{"lat":"37.63232956","long":"126.83076321","imageIndex":16,"items":[{"name":"맘이랑","tel":"070-4079-1975","addr":"경기도 고양시 덕양구 화중로","indutype":"학원 - 기타 교육기관","category":"study"},{"name":"비전수학교습소","tel":"031-979-4108","addr":"경기도 고양시 덕양구 화중로","indutype":"회원제형태 - 학원","category":"study"},{"name":"삼육오일본어중국어통역학원","tel":"031-979-1365","addr":"경기도 고양시 덕양구 화중로","indutype":"회원제형태 - 학원","category":"study"}]},{"lat":"37.647727542","long":"126.83733374","imageIndex":16,"items":[{"name":"아랑어린이집[아이행복]","tel":"031-968-2800","addr":"경기도 고양시 덕양구 화중로","indutype":"학원 - 유아원","category":"study"}]},{"lat":"37.635691064","long":"126.83136724","imageIndex":16,"items":[{"name":"화정꼼꼼한수학학원","tel":"031-964-3014","addr":"경기도 고양시 덕양구 화중로","indutype":"회원제형태 - 학원","category":"study"}]},{"lat":"37.646465105","long":"126.83656604","imageIndex":7,"items":[{"name":"반듯한찬거리","tel":"031-967-2840","addr":"경기도 고양시 덕양구 화중로","indutype":"음료식품 - 기타음료식품","category":"food"}]},{"lat":"37.635691064","long":"126.83136724","imageIndex":13,"items":[{"name":"뷰티인어스","tel":"070-7555-7740","addr":"경기도 고양시 덕양구 화중로","indutype":"보건위생 - 미용원","category":"beauty"}]},{"lat":"37.63232956","long":"126.83076321","imageIndex":13,"items":[{"name":"해피","tel":"031-974-0900","addr":"경기도 고양시 덕양구 화중로","indutype":"레저업소 - 당 구 장","category":"leisure"}]}]