[{"lat":"37.074713308","long":"127.4865986","items":[{"name":"BONGFOOD(봉푸드)","tel":"031-672-3423","addr":"경기도 안성시 일죽면 가리 532 ,527-2","category":"음료식품 - 정육점"}]},{"lat":"37.073684759","long":"127.49132624","items":[{"name":"금산식당","tel":"031-674-7489","addr":"경기도 안성시 일죽면 가리 549-2번지","category":"일반휴게음식 - 일반한식"},{"name":"금산식당","tel":"031-674-7489","addr":"경기도 안성시 일죽면 가리 549-2번지 1층 좌호","category":"일반휴게음식 - 일반한식"}]},{"lat":"37.086490628","long":"127.48865289","items":[{"name":"서희달팽이체험농장","tel":"031-674-3081","addr":"경기도 안성시 일죽면 가리 578번지","category":"음료식품 - 농·축·수산품"}]},{"lat":"37.07476847","long":"127.48632906","items":[{"name":"세븐일레븐음성일죽대로점","tel":"031-1577-0711","addr":"경기도 안성시 일죽면 가리 527-2번지","category":"유통업 영리 - 편 의 점"}]},{"lat":"37.077628207","long":"127.47880138","items":[{"name":"신착한낙지육냉면","tel":"031-677-5788","addr":"경기도 안성시 일죽면 가리 475-13번지","category":"일반휴게음식 - 일반한식"},{"name":"일죽원","tel":"031-673-8400","addr":"경기도 안성시 일죽면 가리 475-13번지","category":"일반휴게음식 - 중국식"}]},{"lat":"37.078242934","long":"127.47829916","items":[{"name":"아라네식당","tel":"031-673-6566","addr":"경기도 안성시 일죽면 가리 476-1번지","category":"일반휴게음식 - 일반한식"}]},{"lat":"37.07402318","long":"127.49010269","items":[{"name":"일죽계량소","tel":"031-671-5770","addr":"경기도 안성시 일죽면 가리 553-1번지","category":"음료식품 - 기타음료식품"},{"name":"한우나라","tel":"031-676-9114","addr":"경기도 안성시 일죽면 가리 553-1번지","category":"일반휴게음식 - 일반한식"},{"name":"한우나라정육부","tel":"031-676-9113","addr":"경기도 안성시 일죽면 가리 553-1번지","category":"음료식품 - 정육점"}]},{"lat":"37.073821857","long":"127.49085483","items":[{"name":"일죽공단주유소","tel":"031-674-4809","addr":"경기도 안성시 일죽면 가리 551번지","category":"연료판매점 - 현대정유(오일뱅크)"}]},{"lat":"37.080738933","long":"127.48051899","items":[{"name":"한밀농원","tel":"","addr":"경기도 안성시 일죽면 가리 350-2번지","category":"문화.취미 - 화원"}]}]