[{"lat":"37.602917972","long":"126.81640378","imageIndex":7,"items":[{"name":"CJ 아이누리두언유통","tel":"070-8808-4845","addr":"경기도 고양시 덕양구 행주외동 262-54번지","indutype":"음료식품 - 기타음료식품","category":"food"}]},{"lat":"37.604052929","long":"126.82201791","imageIndex":7,"items":[{"name":"FreewayMarket","tel":"031-938-1292","addr":"경기도 고양시 덕양구 행주외동","indutype":"음료식품 - 기타음료식품","category":"food"}]},{"lat":"37.599805115","long":"126.81928781","imageIndex":7,"items":[{"name":"금용","tel":"031-907-7995","addr":"경기도 고양시 덕양구 행주외동","indutype":"음료식품 - 주류 판매점","category":"food"}]},{"lat":"37.599334842","long":"126.81815659","imageIndex":7,"items":[{"name":"씨 케이 컴퍼니","tel":"","addr":"경기도 고양시 덕양구 행주외동 161-3번지","indutype":"음료식품 - 기타음료식품","category":"food"}]},{"lat":"37.601661947","long":"126.81981548","imageIndex":7,"items":[{"name":"잇츠 오케이","tel":"","addr":"경기도 고양시 덕양구 행주외동 86번지","indutype":"음료식품 - 기타음료식품","category":"food"}]},{"lat":"37.602855904","long":"126.8170381","imageIndex":7,"items":[{"name":"좋은도시락 주식회사","tel":"031-970-2429","addr":"경기도 고양시 덕양구 행주외동 268-1번지","indutype":"음료식품 - 기타음료식품","category":"food"}]},{"lat":"37.610137147","long":"126.81790336","imageIndex":7,"items":[{"name":"주식회사 보성녹차판매","tel":"00-1588-8714","addr":"경기도 고양시 덕양구 행주외동 441-52번지","indutype":"음료식품 - 기타음료식품","category":"food"}]},{"lat":"37.602468429","long":"126.82281444","imageIndex":7,"items":[{"name":"주식회사 해찬송학","tel":"02-333-8386","addr":"경기도 고양시 덕양구 행주외동 54-5번지","indutype":"음료식품 - 기타음료식품","category":"food"}]},{"lat":"37.602085857","long":"126.81437882","imageIndex":7,"items":[{"name":"천년초협동조합천년애","tel":"031-962-1331","addr":"경기도 고양시 덕양구 행주외동 221-1번지","indutype":"건강식품 - 기타건강식품","category":"food"}]},{"lat":"37.600302636","long":"126.81482495","imageIndex":7,"items":[{"name":"행주민물고기","tel":"031-974-7461","addr":"경기도 고양시 덕양구 행주외동 212-13번지","indutype":"음료식품 - 농·축·수산품","category":"food"}]},{"lat":"37.600642033","long":"126.82451744","imageIndex":7,"items":[{"name":"행주산성휴게소","tel":"","addr":"경기도 고양시 덕양구 행주외동 60-16번지","indutype":"음료식품 - 기타음료식품","category":"food"}]},{"lat":"37.602917972","long":"126.81640378","imageIndex":17,"items":[{"name":"CJ 아이누리두언유통","tel":"070-8808-4845","addr":"경기도 고양시 덕양구 행주외동 262-54번지","indutype":"","category":"other"}]},{"lat":"37.603412808","long":"126.81596089","imageIndex":17,"items":[{"name":"PEUGITT SERVICE/푸지트(PEUGITT)","tel":"","addr":"경기도 고양시 덕양구 행주외동 262-42번지","indutype":"","category":"other"},{"name":"프라임모터스","tel":"031-971-2214","addr":"경기도 고양시 덕양구 행주외동 262-42번지","indutype":"","category":"other"}]},{"lat":"37.603250095","long":"126.81562157","imageIndex":17,"items":[{"name":"가맛골","tel":"031-971-1765","addr":"경기도 고양시 덕양구 행주외동 258-2번지","indutype":"","category":"other"}]},{"lat":"37.601833748","long":"126.81448137","imageIndex":17,"items":[{"name":"가온누리","tel":"031-938-1077","addr":"경기도 고양시 덕양구 행주외동 216-2번지","indutype":"","category":"other"}]},{"lat":"37.600165593","long":"126.81934355","imageIndex":17,"items":[{"name":"가정식백반","tel":"031-970-0048","addr":"경기도 고양시 덕양구 행주외동 165-4번지","indutype":"","category":"other"}]},{"lat":"37.598308169","long":"126.82429654","imageIndex":17,"items":[{"name":"감나무골","tel":"031-972-0408","addr":"경기도 고양시 덕양구 행주외동 122-2","indutype":"","category":"other"}]},{"lat":"37.599586156","long":"126.81754448","imageIndex":17,"items":[{"name":"강나루집","tel":"031-974-1915","addr":"경기도 고양시 덕양구 행주외동 155-4번지","indutype":"","category":"other"}]},{"lat":"37.599915181","long":"126.82054449","imageIndex":17,"items":[{"name":"강마루","tel":"031-971-5152","addr":"경기도 고양시 덕양구 행주외동 103번지","indutype":"","category":"other"}]},{"lat":"37.600335401","long":"126.81845986","imageIndex":17,"items":[{"name":"강마루","tel":"031-971-5152","addr":"경기도 고양시 덕양구 행주외동 166-1번지","indutype":"","category":"other"}]},{"lat":"37.603197238","long":"126.81638043","imageIndex":17,"items":[{"name":"강마루흑돈","tel":"031-971-5152","addr":"경기도 고양시 덕양구 행주외동 262-49번지","indutype":"","category":"other"}]},{"lat":"37.599944798","long":"126.81643385","imageIndex":17,"items":[{"name":"강변가든","tel":"031-972-7176","addr":"경기도 고양시 덕양구 행주외동 174-2번지","indutype":"","category":"other"},{"name":"강변정","tel":"031-972-6806","addr":"경기도 고양시 덕양구 행주외동 174-2번지","indutype":"","category":"other"}]},{"lat":"37.599336609","long":"126.81928896","imageIndex":17,"items":[{"name":"강촌가든","tel":"031-973-6450","addr":"경기도 고양시 덕양구 행주외동 101-6번지","indutype":"","category":"other"},{"name":"강촌가든","tel":"031-973-6450","addr":"경기도 고양시 덕양구 행주외동 101-6번지","indutype":"","category":"other"}]},{"lat":"37.603306679","long":"126.82303891","imageIndex":17,"items":[{"name":"고야","tel":"031-971-3604","addr":"경기도 고양시 덕양구 행주외동 53번지","indutype":"","category":"other"}]},{"lat":"37.602779293","long":"126.81990334","imageIndex":17,"items":[{"name":"고양마차제작소","tel":"031-974-1126","addr":"경기도 고양시 덕양구 행주외동 20-1번지","indutype":"","category":"other"},{"name":"나라유통","tel":"070-8899-1213","addr":"경기도 고양시 덕양구 행주외동 20-1번지","indutype":"유통업 영리 - 기타유통업","category":"other"},{"name":"나라유통","tel":"070-8899-1213","addr":"경기도 고양시 덕양구 행주외동 20-1번지","indutype":"","category":"other"}]},{"lat":"37.603522374","long":"126.8168779","imageIndex":17,"items":[{"name":"관청너머","tel":"031-974-6713","addr":"경기도 고양시 덕양구 행주외동 263번지","indutype":"","category":"other"}]},{"lat":"37.599805115","long":"126.81928781","imageIndex":17,"items":[{"name":"금용","tel":"031-907-7995","addr":"경기도 고양시 덕양구 행주외동 101-58번지","indutype":"","category":"other"}]},{"lat":"37.600245816","long":"126.81878848","imageIndex":17,"items":[{"name":"까페프레스","tel":"031-979-7771","addr":"경기도 고양시 덕양구 행주외동 178-19번지","indutype":"","category":"other"}]},{"lat":"37.612803488","long":"126.81190539","imageIndex":17,"items":[{"name":"꽃무지에 원팜","tel":"031-973-6432","addr":"경기도 고양시 덕양구 행주외동 474-28번지","indutype":"","category":"other"}]},{"lat":"37.60150008","long":"126.81428971","imageIndex":17,"items":[{"name":"나루터집","tel":"031-974-7089","addr":"경기도 고양시 덕양구 행주외동 215-6번지","indutype":"","category":"other"}]},{"lat":"37.599912368","long":"126.81873268","imageIndex":17,"items":[{"name":"녹향원","tel":"031-971-1904","addr":"경기도 고양시 덕양구 행주외동 101-1번지","indutype":"","category":"other"}]},{"lat":"37.600109236","long":"126.81787157","imageIndex":17,"items":[{"name":"농가","tel":"031-979-9366","addr":"경기도 고양시 덕양구 행주외동 168-1번지","indutype":"","category":"other"}]},{"lat":"37.599666402","long":"126.82282119","imageIndex":17,"items":[{"name":"다육갤러리","tel":"02-313-7126","addr":"경기도 고양시 덕양구 행주외동","indutype":"문화.취미 - 화원","category":"other"}]},{"lat":"37.601059146","long":"126.81463054","imageIndex":17,"items":[{"name":"더나루","tel":"031-974-2789","addr":"경기도 고양시 덕양구 행주외동 213-6번지","indutype":"","category":"other"},{"name":"한강전망대","tel":"031-974-2772","addr":"경기도 고양시 덕양구 행주외동 213-6번지","indutype":"","category":"other"}]},{"lat":"37.600579264","long":"126.81884427","imageIndex":17,"items":[{"name":"더츠커피팩토리","tel":"031-972-5566","addr":"경기도 고양시 덕양구 행주외동 178-18번지","indutype":"","category":"other"},{"name":"주식회사 더츠커피팩토리","tel":"031-972-5566","addr":"경기도 고양시 덕양구 행주외동 178-18번지","indutype":"","category":"other"}]},{"lat":"37.608363737","long":"126.8188704","imageIndex":17,"items":[{"name":"로젠택배","tel":"","addr":"경기도 고양시 덕양구 행주외동 441-114번지 콘테이너3호","indutype":"","category":"other"},{"name":"케이비운수","tel":"031-1111-1111","addr":"경기도 고양시 덕양구 행주외동 441-114번지 콘테이너2호","indutype":"","category":"other"}]},{"lat":"37.602447167","long":"126.81495545","imageIndex":17,"items":[{"name":"미니수퍼","tel":"031-972-7969","addr":"경기도 고양시 덕양구 행주외동 219-2번지","indutype":"","category":"other"}]},{"lat":"37.602862587","long":"126.81556592","imageIndex":17,"items":[{"name":"미도리복아구전문","tel":"031-938-0019","addr":"경기도 고양시 덕양구 행주외동 260-1번지","indutype":"","category":"other"}]},{"lat":"37.601607762","long":"126.81401765","imageIndex":17,"items":[{"name":"미소인 요양원","tel":"031-974-7888","addr":"경기도 고양시 덕양구 행주외동 215-3번지","indutype":"기타의료기관 - 기타의료기관 및 기타","category":"other"},{"name":"미소인 요양원","tel":"031-974-7888","addr":"경기도 고양시 덕양구 행주외동 215-3번지","indutype":"","category":"other"},{"name":"미소인요양원","tel":"031-974-7888","addr":"경기도 고양시 덕양구 행주외동 215-3번지","indutype":"기타의료기관 - 기타의료기관 및 기타","category":"other"},{"name":"미소인요양원","tel":"031-974-7888","addr":"경기도 고양시 덕양구 행주외동 215-3번지","indutype":"","category":"other"}]},{"lat":"37.600217654","long":"126.81806381","imageIndex":17,"items":[{"name":"밤나무집","tel":"031-972-7080","addr":"경기도 고양시 덕양구 행주외동 167-1번지","indutype":"","category":"other"}]},{"lat":"37.599334842","long":"126.81815659","imageIndex":17,"items":[{"name":"별장가든","tel":"031-972-5653","addr":"경기도 고양시 덕양구 행주외동 161-3번지","indutype":"","category":"other"},{"name":"씨 케이 컴퍼니","tel":"","addr":"경기도 고양시 덕양구 행주외동 161-3번지","indutype":"","category":"other"}]},{"lat":"37.60152426","long":"126.81818515","imageIndex":17,"items":[{"name":"보광산업","tel":"031-971-0538","addr":"경기도 고양시 덕양구 행주외동 183-2번지","indutype":"","category":"other"}]},{"lat":"37.600167925","long":"126.82084962","imageIndex":17,"items":[{"name":"산성가든","tel":"031-972-5500","addr":"경기도 고양시 덕양구 행주외동 98-14번지","indutype":"","category":"other"}]},{"lat":"37.6002206","long":"126.8199549","imageIndex":17,"items":[{"name":"선경가든","tel":"031-970-8833","addr":"경기도 고양시 덕양구 행주외동 88-3번지","indutype":"","category":"other"}]},{"lat":"37.600305884","long":"126.81687458","imageIndex":17,"items":[{"name":"선착장","tel":"031-974-3262","addr":"경기도 고양시 덕양구 행주외동 177-20번지","indutype":"","category":"other"}]},{"lat":"37.600447227","long":"126.82084894","imageIndex":17,"items":[{"name":"성화오리","tel":"031-974-9252","addr":"경기도 고양시 덕양구 행주외동 98-12번지","indutype":"","category":"other"}]},{"lat":"37.602890101","long":"126.8158716","imageIndex":17,"items":[{"name":"소애촌","tel":"031-972-7571","addr":"경기도 고양시 덕양구 행주외동 260-25번지","indutype":"","category":"other"},{"name":"소애촌","tel":"031-974-7571","addr":"경기도 고양시 덕양구 행주외동 260-25번지","indutype":"","category":"other"},{"name":"씽씽에어컨","tel":"","addr":"경기도 고양시 덕양구 행주외동 260-25번지","indutype":"용역 서비스 - 기타용역서비스","category":"other"}]},{"lat":"37.603079143","long":"126.81576921","imageIndex":17,"items":[{"name":"씸통난낙지","tel":"031-972-6065","addr":"경기도 고양시 덕양구 행주외동 262-45번지","indutype":"","category":"other"},{"name":"한줌보리밥","tel":"031-972-6065","addr":"경기도 고양시 덕양구 행주외동 262-45번지","indutype":"","category":"other"}]},{"lat":"37.601026001","long":"126.8164538","imageIndex":17,"items":[{"name":"아띠랑스","tel":"031-971-2226","addr":"경기도 고양시 덕양구 행주외동 212-10번지","indutype":"","category":"other"}]},{"lat":"37.600611822","long":"126.81662469","imageIndex":17,"items":[{"name":"안채","tel":"031-979-5690","addr":"경기도 고양시 덕양구 행주외동 177-1번지","indutype":"","category":"other"}]},{"lat":"37.602864529","long":"126.82259832","imageIndex":17,"items":[{"name":"에덴그린농원","tel":"031-970-0592","addr":"경기도 고양시 덕양구 행주외동 54-8번지","indutype":"","category":"other"},{"name":"우정가든","tel":"031-978-8911","addr":"경기도 고양시 덕양구 행주외동 54-8번지","indutype":"","category":"other"},{"name":"행주오리","tel":"031-972-0092","addr":"경기도 고양시 덕양구 행주외동 54-8번지","indutype":"","category":"other"}]},{"lat":"37.600358314","long":"126.81584397","imageIndex":17,"items":[{"name":"엔게디","tel":"031-978-4988","addr":"경기도 고양시 덕양구 행주외동 210-2번지","indutype":"","category":"other"}]},{"lat":"37.599611044","long":"126.81618556","imageIndex":17,"items":[{"name":"오페라디바스","tel":"031-938-2500","addr":"경기도 고양시 덕양구 행주외동 173번지","indutype":"","category":"other"}]},{"lat":"37.599861952","long":"126.81532431","imageIndex":17,"items":[{"name":"온트리","tel":"031-974-1069","addr":"경기도 고양시 덕양구 행주외동 212-5번지","indutype":"","category":"other"},{"name":"제이스하우스(Jay,s haus)","tel":"","addr":"경기도 고양시 덕양구 행주외동 212-5번지","indutype":"","category":"other"}]},{"lat":"37.600830245","long":"126.818017","imageIndex":17,"items":[{"name":"올드스쿨","tel":"031-973-1263","addr":"경기도 고양시 덕양구 행주외동 177-16번지","indutype":"","category":"other"}]},{"lat":"37.599830165","long":"126.81801948","imageIndex":17,"items":[{"name":"유림가든","tel":"031-974-4107","addr":"경기도 고양시 덕양구 행주외동 163-1번지","indutype":"","category":"other"}]},{"lat":"37.602249656","long":"126.81539759","imageIndex":17,"items":[{"name":"은행나무집","tel":"031-978-1282","addr":"경기도 고양시 덕양구 행주외동 197-1번지","indutype":"","category":"other"}]},{"lat":"37.599722119","long":"126.81806504","imageIndex":17,"items":[{"name":"일송정","tel":"031-974-2585","addr":"경기도 고양시 덕양구 행주외동 163-5번지","indutype":"","category":"other"}]},{"lat":"37.601661947","long":"126.81981548","imageIndex":17,"items":[{"name":"잇츠 오케이","tel":"","addr":"경기도 고양시 덕양구 행주외동 86번지","indutype":"","category":"other"}]},{"lat":"37.603054407","long":"126.82303952","imageIndex":17,"items":[{"name":"장군가든","tel":"031-972-7555","addr":"경기도 고양시 덕양구 행주외동 53-9번지","indutype":"","category":"other"},{"name":"전복명가","tel":"031-972-7555","addr":"경기도 고양시 덕양구 행주외동 53-9번지","indutype":"","category":"other"}]},{"lat":"37.600140587","long":"126.81490463","imageIndex":17,"items":[{"name":"장수촌","tel":"031-938-0044","addr":"경기도 고양시 덕양구 행주외동 212-20번지","indutype":"","category":"other"}]},{"lat":"37.599940789","long":"126.8196272","imageIndex":17,"items":[{"name":"장어세상","tel":"031-979-9299","addr":"경기도 고양시 덕양구 행주외동 100-1번지","indutype":"","category":"other"},{"name":"장어세상","tel":"031-979-9299","addr":"경기도 고양시 덕양구 행주외동 100-1번지","indutype":"","category":"other"}]},{"lat":"37.599919071","long":"126.81726056","imageIndex":17,"items":[{"name":"장원장어구이","tel":"031-973-5272","addr":"경기도 고양시 덕양구 행주외동 170-6번지","indutype":"","category":"other"}]},{"lat":"37.602855904","long":"126.8170381","imageIndex":17,"items":[{"name":"좋은도시락 주식회사","tel":"031-970-2429","addr":"경기도 고양시 덕양구 행주외동 268-1번지","indutype":"","category":"other"}]},{"lat":"37.610137147","long":"126.81790336","imageIndex":17,"items":[{"name":"주식회사 보성녹차판매","tel":"1588-8714","addr":"경기도 고양시 덕양구 행주외동 441-52번지","indutype":"","category":"other"}]},{"lat":"37.602085857","long":"126.81437882","imageIndex":17,"items":[{"name":"천년초대명성","tel":"031-973-3434","addr":"경기도 고양시 덕양구 행주외동 221-1번지","indutype":"","category":"other"},{"name":"천년초협동조합천년애","tel":"031-962-1331","addr":"경기도 고양시 덕양구 행주외동 221-1번지","indutype":"","category":"other"},{"name":"행복한집","tel":"031-973-3434","addr":"경기도 고양시 덕양구 행주외동 221-1번지","indutype":"","category":"other"}]},{"lat":"37.603387007","long":"126.82254044","imageIndex":17,"items":[{"name":"청솔가든","tel":"031-970-8687","addr":"경기도 고양시 덕양구 행주외동 51-5번지","indutype":"","category":"other"}]},{"lat":"37.599747637","long":"126.81710245","imageIndex":17,"items":[{"name":"초원","tel":"031-974-2789","addr":"경기도 고양시 덕양구 행주외동 170-1번지","indutype":"","category":"other"},{"name":"초원","tel":"031-974-2789","addr":"경기도 고양시 덕양구 행주외동 170-1번지","indutype":"","category":"other"},{"name":"초원가든","tel":"031-974-6396","addr":"경기도 고양시 덕양구 행주외동 170-1번지","indutype":"","category":"other"}]},{"lat":"37.600856884","long":"126.81776781","imageIndex":17,"items":[{"name":"카페텐나인/(주)빈앤푸드","tel":"070-8771-3545","addr":"경기도 고양시 덕양구 행주외동 177-11번지","indutype":"","category":"other"}]},{"lat":"37.598750624","long":"126.81906393","imageIndex":17,"items":[{"name":"컬드삭","tel":"031-938-7771","addr":"경기도 고양시 덕양구 행주외동 산30번지","indutype":"","category":"other"}]},{"lat":"37.599995234","long":"126.81987619","imageIndex":17,"items":[{"name":"털보가든","tel":"031-974-3356","addr":"경기도 고양시 덕양구 행주외동 102-1번지","indutype":"","category":"other"}]},{"lat":"37.601940439","long":"126.81929389","imageIndex":17,"items":[{"name":"틈새골가든","tel":"031-973-9292","addr":"경기도 고양시 덕양구 행주외동 185-2번지","indutype":"","category":"other"}]},{"lat":"37.600027331","long":"126.81735088","imageIndex":17,"items":[{"name":"한강장어","tel":"031-974-7479","addr":"경기도 고양시 덕양구 행주외동 170-5번지","indutype":"","category":"other"},{"name":"한강장어구이","tel":"031-974-7479","addr":"경기도 고양시 덕양구 행주외동 170-5번지","indutype":"","category":"other"}]},{"lat":"37.602745766","long":"126.81575872","imageIndex":17,"items":[{"name":"한국교육산업(KEI)","tel":"","addr":"경기도 고양시 덕양구 행주외동 260-3번지","indutype":"","category":"other"},{"name":"한국교육산업(KEI)","tel":"","addr":"경기도 고양시 덕양구 행주외동 260-3번지","indutype":"서적문구 - 기타서적문구","category":"other"}]},{"lat":"37.599056743","long":"126.81892729","imageIndex":17,"items":[{"name":"한마당","tel":"031-974-0376","addr":"경기도 고양시 덕양구 행주외동 161-1번지","indutype":"","category":"other"}]},{"lat":"37.602745029","long":"126.81529443","imageIndex":17,"items":[{"name":"한마루","tel":"031-938-9943","addr":"경기도 고양시 덕양구 행주외동 259-5번지","indutype":"","category":"other"}]},{"lat":"37.606750186","long":"126.81267964","imageIndex":17,"items":[{"name":"행주가든","tel":"031-972-2793","addr":"경기도 고양시 덕양구 행주외동 500-3","indutype":"","category":"other"}]},{"lat":"37.599975877","long":"126.81901562","imageIndex":17,"items":[{"name":"행주고을손두부한정식","tel":"031-973-1904","addr":"경기도 고양시 덕양구 행주외동 101-33번지","indutype":"","category":"other"}]},{"lat":"37.60316261","long":"126.82309588","imageIndex":17,"items":[{"name":"행주나들목","tel":"031-974-0047","addr":"경기도 고양시 덕양구 행주외동 53-1번지","indutype":"","category":"other"}]},{"lat":"37.600302636","long":"126.81482495","imageIndex":17,"items":[{"name":"행주민물고기","tel":"031-974-7461","addr":"경기도 고양시 덕양구 행주외동 212-13번지","indutype":"","category":"other"}]},{"lat":"37.600642033","long":"126.82451744","imageIndex":17,"items":[{"name":"행주산성휴게소","tel":"070-8887-1237","addr":"경기도 고양시 덕양구 행주외동 60-16번지","indutype":"","category":"other"}]},{"lat":"37.601419878","long":"126.81484479","imageIndex":17,"items":[{"name":"행주성","tel":"031-974-0250","addr":"경기도 고양시 덕양구 행주외동 198-10","indutype":"","category":"other"}]},{"lat":"37.603945742","long":"126.81682022","imageIndex":17,"items":[{"name":"행주세상","tel":"031-974-1113","addr":"경기도 고양시 덕양구 행주외동 262-29번지","indutype":"","category":"other"}]},{"lat":"37.601807873","long":"126.81520619","imageIndex":17,"items":[{"name":"행주포석정","tel":"031-974-7458","addr":"경기도 고양시 덕양구 행주외동 198-7번지","indutype":"","category":"other"}]},{"lat":"37.602107669","long":"126.81676818","imageIndex":17,"items":[{"name":"행주화원","tel":"","addr":"경기도 고양시 덕양구 행주외동 194번지","indutype":"","category":"other"},{"name":"행주화원","tel":"","addr":"경기도 고양시 덕양구 행주외동 194번지","indutype":"문화.취미 - 화원","category":"other"}]},{"lat":"37.602530375","long":"126.8162915","imageIndex":17,"items":[{"name":"향나무집","tel":"031-938-6949","addr":"경기도 고양시 덕양구 행주외동 260-9번지","indutype":"","category":"other"}]},{"lat":"37.608577185","long":"126.81709181","imageIndex":17,"items":[{"name":"현대냉열산업","tel":"031-969-0400","addr":"경기도 고양시 덕양구 행주외동 441-93번지","indutype":"","category":"other"}]},{"lat":"37.601442605","long":"126.81782298","imageIndex":17,"items":[{"name":"황금가든","tel":"031-966-4122","addr":"경기도 고양시 덕양구 행주외동 187-2번지","indutype":"","category":"other"}]},{"lat":"37.599359085","long":"126.82217648","imageIndex":17,"items":[{"name":"흥부네","tel":"031-979-6736","addr":"경기도 고양시 덕양구 행주외동 110번지","indutype":"","category":"other"},{"name":"흥부네","tel":"031-979-6736","addr":"경기도 고양시 덕양구 행주외동 110번지","indutype":"","category":"other"}]},{"lat":"37.603412808","long":"126.81596089","imageIndex":0,"items":[{"name":"PEUGITT SERVICE/푸지트(PEUGITT)","tel":"","addr":"경기도 고양시 덕양구 행주외동 262-42번지","indutype":"자동차정비 유지 - 자동차부품","category":"car"}]},{"lat":"37.603250095","long":"126.81562157","imageIndex":4,"items":[{"name":"가맛골","tel":"031-971-1765","addr":"경기도 고양시 덕양구 행주외동 258-2번지","indutype":"일반휴게음식 - 일반한식","category":"restaurant"}]},{"lat":"37.598308169","long":"126.82429654","imageIndex":4,"items":[{"name":"감나무골","tel":"031-972-0408","addr":"경기도 고양시 덕양구 행주외동","indutype":"일반휴게음식 - 일반한식","category":"restaurant"}]},{"lat":"37.599915181","long":"126.82054449","imageIndex":4,"items":[{"name":"강마루","tel":"031-971-5152","addr":"경기도 고양시 덕양구 행주외동 103번지","indutype":"일반휴게음식 - 일반한식","category":"restaurant"}]},{"lat":"37.603197238","long":"126.81638043","imageIndex":4,"items":[{"name":"강마루흑돈","tel":"031-971-5152","addr":"경기도 고양시 덕양구 행주외동 262-49번지","indutype":"일반휴게음식 - 일반한식","category":"restaurant"}]},{"lat":"37.599944798","long":"126.81643385","imageIndex":4,"items":[{"name":"강변가든","tel":"031-972-7176","addr":"경기도 고양시 덕양구 행주외동 174-2번지","indutype":"일반휴게음식 - 일반한식","category":"restaurant"},{"name":"강변정","tel":"031-972-6806","addr":"경기도 고양시 덕양구 행주외동","indutype":"일반휴게음식 - 일반한식","category":"restaurant"}]},{"lat":"37.599336609","long":"126.81928896","imageIndex":4,"items":[{"name":"강촌가든","tel":"031-973-6450","addr":"경기도 고양시 덕양구 행주외동 101-6번지","indutype":"일반휴게음식 - 일반한식","category":"restaurant"}]},{"lat":"37.603522374","long":"126.8168779","imageIndex":4,"items":[{"name":"관청너머","tel":"031-974-6713","addr":"경기도 고양시 덕양구 행주외동 263번지","indutype":"일반휴게음식 - 일반한식","category":"restaurant"}]},{"lat":"37.600245816","long":"126.81878848","imageIndex":4,"items":[{"name":"까페프레스","tel":"031-979-7771","addr":"경기도 고양시 덕양구 행주외동 178-19번지","indutype":"일반휴게음식 - 서양음식","category":"restaurant"}]},{"lat":"37.60150008","long":"126.81428971","imageIndex":4,"items":[{"name":"나루터집","tel":"031-974-3773","addr":"경기도 고양시 덕양구 행주외동 215-6번지","indutype":"일반휴게음식 - 일반한식","category":"restaurant"}]},{"lat":"37.599912368","long":"126.81873268","imageIndex":4,"items":[{"name":"녹향원","tel":"031-971-1904","addr":"경기도 고양시 덕양구 행주외동 101-1번지","indutype":"일반휴게음식 - 일반한식","category":"restaurant"}]},{"lat":"37.600109236","long":"126.81787157","imageIndex":4,"items":[{"name":"농가","tel":"031-979-9366","addr":"경기도 고양시 덕양구 행주외동 168-1번지","indutype":"일반휴게음식 - 일반한식","category":"restaurant"}]},{"lat":"37.600579264","long":"126.81884427","imageIndex":4,"items":[{"name":"더츠커피팩토리","tel":"031-972-5566","addr":"경기도 고양시 덕양구 행주외동 178-18번지","indutype":"일반휴게음식 - 서양음식","category":"restaurant"},{"name":"주식회사 더츠커피팩토리","tel":"031-972-5566","addr":"경기도 고양시 덕양구 행주외동 178-18번지","indutype":"일반휴게음식 - 서양음식","category":"restaurant"}]},{"lat":"37.602745029","long":"126.81529443","imageIndex":4,"items":[{"name":"도담","tel":"031-971-7773","addr":"경기도 고양시 덕양구 행주외동 259-5번지","indutype":"일반휴게음식 - 일반한식","category":"restaurant"}]},{"lat":"37.602862587","long":"126.81556592","imageIndex":4,"items":[{"name":"미도리복아구전문","tel":"031-938-0019","addr":"경기도 고양시 덕양구 행주외동 260-1번지","indutype":"일반휴게음식 - 일반한식","category":"restaurant"}]},{"lat":"37.600167925","long":"126.82084962","imageIndex":4,"items":[{"name":"산성가든","tel":"031-972-5500","addr":"경기도 고양시 덕양구 행주외동 98-14번지","indutype":"일반휴게음식 - 일반한식","category":"restaurant"}]},{"lat":"37.6002206","long":"126.8199549","imageIndex":4,"items":[{"name":"선경가든","tel":"031-978-8252","addr":"경기도 고양시 덕양구 행주외동 88-3번지","indutype":"일반휴게음식 - 일반한식","category":"restaurant"}]},{"lat":"37.600305884","long":"126.81687458","imageIndex":4,"items":[{"name":"선착장","tel":"031-974-3262","addr":"경기도 고양시 덕양구 행주외동 177-20번지","indutype":"일반휴게음식 - 일반한식","category":"restaurant"}]},{"lat":"37.602890101","long":"126.8158716","imageIndex":4,"items":[{"name":"소애촌","tel":"031-972-7571","addr":"경기도 고양시 덕양구 행주외동 260-25번지","indutype":"일반휴게음식 - 일반한식","category":"restaurant"}]},{"lat":"37.603079143","long":"126.81576921","imageIndex":4,"items":[{"name":"씸통난낙지","tel":"031-972-6065","addr":"경기도 고양시 덕양구 행주외동 262-45번지","indutype":"일반휴게음식 - 일반한식","category":"restaurant"}]},{"lat":"37.601026001","long":"126.8164538","imageIndex":4,"items":[{"name":"아띠랑스","tel":"031-971-2226","addr":"경기도 고양시 덕양구 행주외동 212-10번지","indutype":"일반휴게음식 - 서양음식","category":"restaurant"}]},{"lat":"37.600611822","long":"126.81662469","imageIndex":4,"items":[{"name":"안채","tel":"031-979-5690","addr":"경기도 고양시 덕양구 행주외동 177-1번지","indutype":"일반휴게음식 - 일반한식","category":"restaurant"}]},{"lat":"37.600358314","long":"126.81584397","imageIndex":4,"items":[{"name":"엔게디","tel":"031-978-4988","addr":"경기도 고양시 덕양구 행주외동 210-2번지","indutype":"일반휴게음식 - 일반한식","category":"restaurant"}]},{"lat":"37.599611044","long":"126.81618556","imageIndex":4,"items":[{"name":"오페라디바스","tel":"031-938-2500","addr":"경기도 고양시 덕양구 행주외동 173번지","indutype":"일반휴게음식 - 서양음식","category":"restaurant"}]},{"lat":"37.600830245","long":"126.818017","imageIndex":4,"items":[{"name":"올드스쿨","tel":"031-973-1263","addr":"경기도 고양시 덕양구 행주외동","indutype":"일반휴게음식 - 서양음식","category":"restaurant"}]},{"lat":"37.599830165","long":"126.81801948","imageIndex":4,"items":[{"name":"유림가든","tel":"031-974-4107","addr":"경기도 고양시 덕양구 행주외동 163-1번지","indutype":"일반휴게음식 - 일반한식","category":"restaurant"}]},{"lat":"37.603054407","long":"126.82303952","imageIndex":4,"items":[{"name":"장군가든","tel":"031-972-7555","addr":"경기도 고양시 덕양구 행주외동 53-9번지","indutype":"일반휴게음식 - 일반한식","category":"restaurant"},{"name":"전복명가","tel":"031-972-7555","addr":"경기도 고양시 덕양구 행주외동 53-9번지","indutype":"일반휴게음식 - 일반한식","category":"restaurant"}]},{"lat":"37.600140587","long":"126.81490463","imageIndex":4,"items":[{"name":"장수촌","tel":"031-938-0044","addr":"경기도 고양시 덕양구 행주외동 212-20번지","indutype":"일반휴게음식 - 일반한식","category":"restaurant"}]},{"lat":"37.599861952","long":"126.81532431","imageIndex":4,"items":[{"name":"제이스하우스(Jay,s haus)","tel":"111-1111-111","addr":"경기도 고양시 덕양구 행주외동 212-5번지","indutype":"일반휴게음식 - 일반한식","category":"restaurant"}]},{"lat":"37.603387007","long":"126.82254044","imageIndex":4,"items":[{"name":"청솔가든","tel":"031-970-8687","addr":"경기도 고양시 덕양구 행주외동 51-5번지","indutype":"일반휴게음식 - 일반한식","category":"restaurant"}]},{"lat":"37.599747637","long":"126.81710245","imageIndex":4,"items":[{"name":"초원","tel":"031-974-2789","addr":"경기도 고양시 덕양구 행주외동 170-1번지","indutype":"일반휴게음식 - 일반한식","category":"restaurant"},{"name":"초원가든","tel":"031-973-0592","addr":"경기도 고양시 덕양구 행주외동 170-1번지","indutype":"일반휴게음식 - 일반한식","category":"restaurant"}]},{"lat":"37.600856919","long":"126.81779045","imageIndex":4,"items":[{"name":"카페텐나인/(주)빈앤푸드","tel":"070-8771-3545","addr":"경기도 고양시 덕양구 행주외동 177-11번지","indutype":"일반휴게음식 - 서양음식","category":"restaurant"}]},{"lat":"37.598750624","long":"126.81906393","imageIndex":4,"items":[{"name":"컬드삭","tel":"031-938-7771","addr":"경기도 고양시 덕양구 행주외동","indutype":"일반휴게음식 - 서양음식","category":"restaurant"}]},{"lat":"37.601940439","long":"126.81929389","imageIndex":4,"items":[{"name":"틈새골가든","tel":"031-973-9292","addr":"경기도 고양시 덕양구 행주외동 185-2번지","indutype":"일반휴게음식 - 일반한식","category":"restaurant"}]},{"lat":"37.601059146","long":"126.81463054","imageIndex":4,"items":[{"name":"한강전망대","tel":"031-974-2772","addr":"경기도 고양시 덕양구 행주외동 213-6번지","indutype":"일반휴게음식 - 일반한식","category":"restaurant"}]},{"lat":"37.599056743","long":"126.81892729","imageIndex":4,"items":[{"name":"한마당","tel":"031-974-0376","addr":"경기도 고양시 덕양구 행주외동 161-1번지","indutype":"일반휴게음식 - 일반한식","category":"restaurant"}]},{"lat":"37.602085857","long":"126.81437882","imageIndex":4,"items":[{"name":"행복한집","tel":"031-973-3434","addr":"경기도 고양시 덕양구 행주외동 221-1번지","indutype":"일반휴게음식 - 일반한식","category":"restaurant"}]},{"lat":"37.606750186","long":"126.81267964","imageIndex":4,"items":[{"name":"행주가든","tel":"031-972-2793","addr":"경기도 고양시 덕양구 행주외동","indutype":"일반휴게음식 - 일반한식","category":"restaurant"}]},{"lat":"37.60316261","long":"126.82309588","imageIndex":4,"items":[{"name":"행주나들목","tel":"031-974-0047","addr":"경기도 고양시 덕양구 행주외동 53-1번지","indutype":"일반휴게음식 - 일반한식","category":"restaurant"}]},{"lat":"37.601419878","long":"126.81484479","imageIndex":4,"items":[{"name":"행주성","tel":"031-974-0250","addr":"경기도 고양시 덕양구 행주외동","indutype":"일반휴게음식 - 일반한식","category":"restaurant"}]},{"lat":"37.601807873","long":"126.81520619","imageIndex":4,"items":[{"name":"행주포석정","tel":"031-974-7458","addr":"경기도 고양시 덕양구 행주외동 198-7번지","indutype":"일반휴게음식 - 일반한식","category":"restaurant"}]},{"lat":"37.602530375","long":"126.8162915","imageIndex":4,"items":[{"name":"향나무집","tel":"031-938-6949","addr":"경기도 고양시 덕양구 행주외동 260-9번지","indutype":"일반휴게음식 - 일반한식","category":"restaurant"}]},{"lat":"37.601442605","long":"126.81782298","imageIndex":4,"items":[{"name":"황금가든","tel":"031-966-4122","addr":"경기도 고양시 덕양구 행주외동 187-2번지","indutype":"일반휴게음식 - 일반한식","category":"restaurant"}]},{"lat":"37.599359085","long":"126.82217648","imageIndex":4,"items":[{"name":"흥부네","tel":"031-979-6736","addr":"경기도 고양시 덕양구 행주외동 110번지","indutype":"일반휴게음식 - 일반한식","category":"restaurant"}]},{"lat":"37.612803488","long":"126.81190539","imageIndex":13,"items":[{"name":"꽃무지에 원팜","tel":"031-973-6432","addr":"경기도 고양시 덕양구 행주외동 474-28번지","indutype":"레저업소 - 기타레져업소","category":"leisure"}]},{"lat":"37.602855904","long":"126.8170381","imageIndex":13,"items":[{"name":"들꽃향기","tel":"031-978-3373","addr":"경기도 고양시 덕양구 행주외동 268-1번지","indutype":"보건위생 - 화장품","category":"beauty"}]},{"lat":"37.602447167","long":"126.81495545","imageIndex":7,"items":[{"name":"미니수퍼","tel":"031-972-7969","addr":"경기도 고양시 덕양구 행주외동","indutype":"유통업 영리 - 슈퍼마켓","category":"mart"}]},{"lat":"37.60152426","long":"126.81818515","imageIndex":7,"items":[{"name":"보광산업","tel":"031-971-0538","addr":"경기도 고양시 덕양구 행주외동 183-2번지","indutype":"유통업 영리 - 슈퍼마켓","category":"mart"}]}]