[{"lat":"37.749431229","long":"127.06039808","imageIndex":17,"items":[{"name":"(주) 재해예방컨설팅","tel":"031-851-8877","addr":"경기도 의정부시 금오동 463-11번지 조광빌딩 3층","indutype":"용역 서비스 - 종합용역","category":"other"}]},{"lat":"37.751598323","long":"127.06845611","imageIndex":17,"items":[{"name":"(주)다원렌트카의정부영업소","tel":"031-853-7835","addr":"경기도 의정부시 금오동 471-2번지 해피타워해피플러스 701호","indutype":"여행 - 렌터카","category":"other"},{"name":"I-Sensation(아이센세이션)","tel":"031-853-9799","addr":"경기도 의정부시 금오동 471-2번지 해피플러스 502호","indutype":"용역 서비스 - 종합용역","category":"other"},{"name":"메이져골프연습장","tel":"031-852-1250","addr":"경기도 의정부시 금오동 471-2번지 해피타워 10층 1001호","indutype":"회원제형태 - 레져업소","category":"other"},{"name":"보타닉 테이블 (botanic table)","tel":"070-8118-1117","addr":"경기도 의정부시 금오동 471-2번지 해피플러스3 1층 110호","indutype":"문화.취미 - 화원","category":"other"},{"name":"샐리","tel":"031-853-8832","addr":"경기도 의정부시 금오동 471-2번지 해피타워 1층 112호","indutype":"의류 - 정장","category":"other"},{"name":"스타Shop","tel":"031-853-8589","addr":"경기도 의정부시 금오동 471-2번지 해피플러스III 1층 111호","indutype":"의류 - 기타의류","category":"other"},{"name":"스타일인테리어","tel":"031-851-8885","addr":"경기도 의정부시 금오동 471-2번지 해피플러스 32층 205호","indutype":"건축자재 - 인테리어전문","category":"other"},{"name":"의정부 중고폰 매입 초코폰","tel":"070-7708-0213","addr":"경기도 의정부시 금오동 471-2번지 해피타워, 해피플러스III 201호","indutype":"수리서비스 - 사무·통신기기수리","category":"other"},{"name":"칙위드(CHICKWEED)","tel":"031-851-2709","addr":"경기도 의정부시 금오동 471-2번지 해피타워, 해피플러스III 108호","indutype":"문화.취미 - 화원","category":"other"},{"name":"키즈교육","tel":"031-823-3067","addr":"경기도 의정부시 금오동 471-2번지 해피플러스3 3층 302호","indutype":"서적문구 - 일반서적","category":"other"}]},{"lat":"37.757703384","long":"127.07431702","imageIndex":17,"items":[{"name":"(주)두성시스템","tel":"031-871-4424","addr":"경기도 의정부시 금오동 80-19번지 이롬프라자 303호","indutype":"용역 서비스 - 종합용역","category":"other"},{"name":"아이짐헬스","tel":"031-841-8417","addr":"경기도 의정부시 금오동 80-19번지 이름프라자 501동 502호","indutype":"회원제형태 - 레져업소","category":"other"},{"name":"이룸인테리어","tel":"031-847-7116","addr":"경기도 의정부시 금오동 80-19번지 이롬프라자 205호","indutype":"건축자재 - 인테리어전문","category":"other"},{"name":"주식회사 예승기전","tel":"031-841-5794","addr":"경기도 의정부시 금오동 80-19번지 이롬프라자 403호","indutype":"용역 서비스 - 기타용역서비스","category":"other"},{"name":"주식회사 주운","tel":"031-841-5796","addr":"경기도 의정부시 금오동 80-19번지 이롬프라자 493호","indutype":"용역 서비스 - 기타용역서비스","category":"other"}]},{"lat":"37.752906129","long":"127.06584742","imageIndex":17,"items":[{"name":"(주)삼선전자태일디지티서비스","tel":"031-840-7200","addr":"경기도 의정부시 금오동 215-4번지","indutype":"수리서비스 - 기타수리서비스","category":"other"}]},{"lat":"37.752341805","long":"127.0593791","imageIndex":17,"items":[{"name":"(주)신성컬렉션","tel":"031-841-8267","addr":"경기도 의정부시 금오동 284-9번지","indutype":"레져용품 - 스포츠·레져용품","category":"other"}]},{"lat":"37.753180118","long":"127.0584833","imageIndex":17,"items":[{"name":"(주)신우엔지니어링","tel":"031-823-4404","addr":"경기도 의정부시 금오동 275-3번지","indutype":"용역 서비스 - 기타용역서비스","category":"other"}]},{"lat":"37.755013457","long":"127.06751728","imageIndex":17,"items":[{"name":"(주)신일이엔지","tel":"031-836-1192","addr":"경기도 의정부시 금오동 227-32번지 중금오 경로당 2층","indutype":"용역 서비스 - 기타용역서비스","category":"other"}]},{"lat":"37.745793999","long":"127.05473357","imageIndex":17,"items":[{"name":"(주)케이티에프정안","tel":"0031-0846-5018","addr":"경기도 의정부시 금오동 380-27번지","indutype":"별도관리 - 자체물품대금","category":"other"}]},{"lat":"37.748739236","long":"127.05670992","imageIndex":17,"items":[{"name":"(주)태영정보통신","tel":"031-824-7020","addr":"경기도 의정부시 금오동 413-3번지 삼풍빌딩 213호","indutype":"기타 - 기타 전문점","category":"other"},{"name":"바이크매니아","tel":"031-847-3283","addr":"경기도 의정부시 금오동 413-3번지 삼풍빌딩 107동 108호","indutype":"레져용품 - 스포츠·레져용품","category":"other"},{"name":"씨유의정부금오ok점","tel":"031-856-2528","addr":"경기도 의정부시 금오동 413-3번지","indutype":"유통업 영리 - 편 의 점","category":"other"},{"name":"태양사세탁소","tel":"031-847-5867","addr":"경기도 의정부시 금오동 413-3번지 삼풍빌딩 1층 115호","indutype":"수리서비스 - 세탁소","category":"other"}]},{"lat":"37.751516939","long":"127.06898935","imageIndex":17,"items":[{"name":"100세 누리 효경 요양원","tel":"031-848-3604","addr":"경기도 의정부시 금오동 472-4번지 그린프라자빌딩 3층","indutype":"기타의료기관 - 기타의료기관 및 기타","category":"other"},{"name":"베스트인테리어/종이없는벽지","tel":"031-853-7676","addr":"경기도 의정부시 금오동 472-4번지 그린프라자 602호","indutype":"건축자재 - 인테리어전문","category":"other"}]},{"lat":"37.7568181","long":"127.07809498","imageIndex":17,"items":[{"name":"ACT SK 금호","tel":"070-8785-7135","addr":"경기도 의정부시 금오동 455-7번지 1층","indutype":"사무통신 - 통신기기","category":"other"}]},{"lat":"37.751180425","long":"127.05757405","imageIndex":17,"items":[{"name":"B.2.F스포츠상사","tel":"031-846-7939","addr":"경기도 의정부시 금오동 285-21번지 지층","indutype":"레져용품 - 스포츠·레져용품","category":"other"}]},{"lat":"37.752065384","long":"127.07098692","imageIndex":17,"items":[{"name":"B.B","tel":"031-850-8055","addr":"경기도 의정부시 금오동 475-1번지 삼성홈플러스 1층","indutype":"광학제품 - 사진관","category":"other"},{"name":"스위스","tel":"031-850-8235","addr":"경기도 의정부시 금오동 475-1번지 홈플러스 2층","indutype":"신변잡화 - 귀금속","category":"other"},{"name":"스킨포유 의정부점","tel":"031-851-1884","addr":"경기도 의정부시 금오동 475-1번지 4층","indutype":"회원제형태 - 기타4","category":"other"},{"name":"진 텔레콤","tel":"","addr":"경기도 의정부시 금오동 475-1번지 홈플러스의정부점 내","indutype":"사무통신 - 통신기기","category":"other"},{"name":"진스플라워","tel":"031-850-8057","addr":"경기도 의정부시 금오동 475-1번지 삼성홈플러스 1층","indutype":"문화.취미 - 화원","category":"other"},{"name":"토브","tel":"031-853-0883","addr":"경기도 의정부시 금오동 475-1홈플러스의정부점지하1F","indutype":"수리서비스 - 세탁소","category":"other"}]},{"lat":"37.751679162","long":"127.06889872","imageIndex":17,"items":[{"name":"Body design club(바디디자인클럽)","tel":"031-853-2515","addr":"경기도 의정부시 금오동 472-3번지","indutype":"회원제형태 - 레져업소","category":"other"}]},{"lat":"37.752902181","long":"127.07284862","imageIndex":17,"items":[{"name":"GS25금오그린빌점","tel":"","addr":"경기도 의정부시 금오동 476-1번지 상가동 101~102호","indutype":"유통업 영리 - 편 의 점","category":"other"}]},{"lat":"37.754065278","long":"127.07137456","imageIndex":17,"items":[{"name":"GS25금오행정타운점","tel":"","addr":"경기도 의정부시 금오동 447-8번지 1층","indutype":"유통업 영리 - 편 의 점","category":"other"}]},{"lat":"37.751093681","long":"127.06864857","imageIndex":17,"items":[{"name":"GS25금오현대점","tel":"","addr":"경기도 의정부시 금오동 471-4번지 현대프라자 110호","indutype":"유통업 영리 - 편 의 점","category":"other"},{"name":"해피펫","tel":"031-851-3062","addr":"경기도 의정부시 금오동 471-4번지 현대프라자 108호","indutype":"문화.취미 - 애완동물","category":"other"}]},{"lat":"37.750123841","long":"127.06265662","imageIndex":17,"items":[{"name":"GS25의정그린빌점","tel":"","addr":"경기도 의정부시 금오동 468-1번지 주공그린빌 주상가동 102호","indutype":"유통업 영리 - 편 의 점","category":"other"}]},{"lat":"37.752346297","long":"127.06812771","imageIndex":17,"items":[{"name":"GS25의정부소영점","tel":"","addr":"경기도 의정부시 금오동 470-1번지 파크프라자 110호","indutype":"유통업 영리 - 편 의 점","category":"other"},{"name":"K복싱다이어트","tel":"031-852-7772","addr":"경기도 의정부시 금오동 470-1번지 파크프라자 201호~202호","indutype":"회원제형태 - 레져업소","category":"other"},{"name":"디자인젠","tel":"070-2465-1419","addr":"경기도 의정부시 금오동 470-1번지 파크프라자 402호","indutype":"건축자재 - 인테리어전문","category":"other"},{"name":"엔디까사 (주)","tel":"031-853-9204","addr":"경기도 의정부시 금오동 470-1번지 파크프라자 7층 705호","indutype":"직물 - 침구·수예점","category":"other"},{"name":"원엘투에이치컴퍼니(1L2H Company)","tel":"","addr":"경기도 의정부시 금오동 470-1번지 파크프라자 306-5호","indutype":"서적문구 - 출판 및 인쇄물","category":"other"}]},{"lat":"37.751426377","long":"127.0698176","imageIndex":17,"items":[{"name":"GS25의정신세계점","tel":"","addr":"경기도 의정부시 금오동 473-3번지 신세계프라자 108호","indutype":"유통업 영리 - 편 의 점","category":"other"},{"name":"S핫요가 아카데미","tel":"031-851-8668","addr":"경기도 의정부시 금오동 473-3번지 신세계프라자 4층 406호","indutype":"회원제형태 - 레져업소","category":"other"},{"name":"무지개","tel":"031-853-3869","addr":"경기도 의정부시 금오동 473-3번지 신세계프라자 3층 305호","indutype":"회원제형태 - 레져업소","category":"other"},{"name":"세무사김익룡사무소","tel":"031-871-3358","addr":"경기도 의정부시 금오동 473-3번지 신세계프라자 701호","indutype":"용역 서비스 - 법률회계서비스(개인)","category":"other"},{"name":"토탈스킨케어벨라","tel":"031-852-8112","addr":"경기도 의정부시 금오동 473-3번지 신세계프라자 304호","indutype":"회원제형태 - 기타4","category":"other"},{"name":"포지션악기","tel":"031-851-7589","addr":"경기도 의정부시 금오동 473-3번지 신세계프라자 204호","indutype":"레져용품 - 악기점","category":"other"},{"name":"휘트니스 아시아","tel":"031-851-0101","addr":"경기도 의정부시 금오동 473-3번지 신세계프라자 11층 1101호","indutype":"레져용품 - 스포츠·레져용품","category":"other"}]},{"lat":"37.752711461","long":"127.05882337","imageIndex":17,"items":[{"name":"HS","tel":"031-846-4930","addr":"경기도 의정부시 금오동 283-86번지","indutype":"회원제형태 - 기타1","category":"other"}]},{"lat":"37.757565301","long":"127.07901492","imageIndex":17,"items":[{"name":"가구에 반하다","tel":"031-856-8945","addr":"경기도 의정부시 금오동 60-16번지 나동 1층","indutype":"가구 - 일반가구","category":"other"}]},{"lat":"37.751674316","long":"127.06098986","imageIndex":17,"items":[{"name":"가나공조","tel":"031-829-2272","addr":"경기도 의정부시 금오동 297-8번지 삼보주택 B동 302호","indutype":"용역 서비스 - 기타용역서비스","category":"other"}]},{"lat":"37.755622348","long":"127.07404268","imageIndex":17,"items":[{"name":"가방공작소","tel":"031-846-9968","addr":"경기도 의정부시 금오동 449-14번지 새로와빌딩 2층","indutype":"신변잡화 - 가방","category":"other"},{"name":"국제콜렉션","tel":"031-846-9968","addr":"경기도 의정부시 금오동 449-14번지 새로와빌딩 2층","indutype":"신변잡화 - 가방","category":"other"}]},{"lat":"37.757982597","long":"127.07445347","imageIndex":17,"items":[{"name":"거성철물","tel":"031-846-4244","addr":"경기도 의정부시 금오동 80-26번지","indutype":"기타 - 기계공구","category":"other"}]},{"lat":"37.749100332","long":"127.05512166","imageIndex":17,"items":[{"name":"게이트모아","tel":"032-747-1385","addr":"경기도 의정부시 금오동 405-12번지 1층 김오동","indutype":"건축자재 - 목재·석재·철물","category":"other"}]},{"lat":"37.75301357","long":"127.0670957","imageIndex":17,"items":[{"name":"경기광고","tel":"031-840-8000","addr":"경기도 의정부시 금오동 444-6번지 3층","indutype":"용역 서비스 - 종합용역","category":"other"}]},{"lat":"37.756480745","long":"127.06978811","imageIndex":17,"items":[{"name":"경기북부지방경찰청 복지회","tel":"031-961-2721","addr":"경기도 의정부시 금오동 481번지 경찰청제2청사","indutype":"유통업 비영리 - 구내매점(국가기관","category":"other"}]},{"lat":"37.749732804","long":"127.05087844","imageIndex":17,"items":[{"name":"고려네온","tel":"031-873-5530","addr":"경기도 의정부시 금오동 435-3번지","indutype":"건축자재 - 인테리어전문","category":"other"},{"name":"의정부청다원","tel":"031-521-6990","addr":"경기도 의정부시 금오동 435-3번지","indutype":"문화.취미 - 화원","category":"other"}]},{"lat":"37.751570824","long":"127.06929577","imageIndex":17,"items":[{"name":"골드링","tel":"031-853-0635","addr":"경기도 의정부시 금오동 472-5번지 그린타워 102호","indutype":"신변잡화 - 귀금속","category":"other"},{"name":"이마트24 의정부 금오점","tel":"","addr":"경기도 의정부시 금오동 472-5번지 그린타워 1층 103호, 104호","indutype":"유통업 영리 - 편 의 점","category":"other"},{"name":"이마트24 의정부금오점","tel":"","addr":"경기도 의정부시 금오동 472-5번지 그린타워 1층 103,104호","indutype":"유통업 영리 - 편 의 점","category":"other"}]},{"lat":"37.752400185","long":"127.06843413","imageIndex":17,"items":[{"name":"공간디자인","tel":"031-953-5388","addr":"경기도 의정부시 금오동 470-2번지 로얄프라자빌딩 302호","indutype":"용역 서비스 - 사무서비스","category":"other"},{"name":"금오스포츠","tel":"031-852-5775","addr":"경기도 의정부시 금오동 470-2번지 로얄플라자빌딩 6층","indutype":"회원제형태 - 기타4","category":"other"},{"name":"동경사우나","tel":"031-853-6688","addr":"경기도 의정부시 금오동 470-2번지 로얄프라자 5층","indutype":"회원제형태 - 기타4","category":"other"},{"name":"디자인 쿠크","tel":"","addr":"경기도 의정부시 금오동 470-2번지 로얄플라자빌딩 3층 303-1호","indutype":"용역 서비스 - 사무서비스","category":"other"},{"name":"린","tel":"031-851-7707","addr":"경기도 의정부시 금오동 470-2번지 외1필지로얄프라자빌딩 103호","indutype":"직물 - 카페트,커튼,천막,지물","category":"other"},{"name":"솜씨랑","tel":"031-852-5032","addr":"경기도 의정부시 금오동 470-2번지 로얄프라자빌딩 305-1호","indutype":"문화.취미 - 문화취미기타","category":"other"}]},{"lat":"37.752732585","long":"127.07012515","imageIndex":17,"items":[{"name":"광고J","tel":"031-853-1127","addr":"경기도 의정부시 금오동 474-1번지 금오플러스 301호","indutype":"용역 서비스 - 사무서비스","category":"other"},{"name":"김강열법무사사무소","tel":"031-851-4215","addr":"경기도 의정부시 금오동 474-1번지 금오플러스 703호","indutype":"용역 서비스 - 법률회계서비스(개인)","category":"other"},{"name":"김용호세무회계사무소","tel":"031-952-9887","addr":"경기도 의정부시 금오동 474-1번지 금오플러스 602호","indutype":"용역 서비스 - 법률회계서비스(개인)","category":"other"},{"name":"로샤(의정부금오점)","tel":"","addr":"경기도 의정부시 금오동 474-1번지 금오플러스빌딩 1층 110호","indutype":"의류 - 정장","category":"other"},{"name":"미술로생각하기","tel":"031-853-3035","addr":"경기도 의정부시 금오동 474-1금오플러스604.605호","indutype":"회원제형태 - 서적","category":"other"},{"name":"샤인퀼트","tel":"031-853-8342","addr":"경기도 의정부시 금오동 474-1번지 금오플러스 401호","indutype":"직물 - 침구·수예점","category":"other"},{"name":"스타일노리터 의정부금오점","tel":"031-853-2885","addr":"경기도 의정부시 금오동 474-1번지 금오플러스빌딩 1층 109호","indutype":"의류 - 정장","category":"other"},{"name":"에스지루치아","tel":"031-852-2633","addr":"경기도 의정부시 금오동 474-1번지 금오플러스빌딩 3층 302호","indutype":"신변잡화 - 귀금속","category":"other"},{"name":"오르다코리아의정부지사","tel":"031-853-7740","addr":"경기도 의정부시 금오동 474-1번지 금오플러스 502호","indutype":"회원제형태 - 서적","category":"other"},{"name":"키즈에듀","tel":"031-853-0979","addr":"경기도 의정부시 금오동 474-1번지 금오플러스빌딩 802호","indutype":"회원제형태 - 서적","category":"other"},{"name":"키즈에듀","tel":"070-8831-0972","addr":"경기도 의정부시 금오동 474-1번지 금오플러스빌딩 801호","indutype":"서적문구 - 기타서적문구","category":"other"},{"name":"휘트니스피플","tel":"031-852-0700","addr":"경기도 의정부시 금오동 474-1번지 금오플러스빌딩 12층","indutype":"회원제형태 - 레져업소","category":"other"}]},{"lat":"37.752039607","long":"127.06878557","imageIndex":17,"items":[{"name":"광명디자인","tel":"031-841-6864","addr":"경기도 의정부시 금오동 472-1 골드피아602-1호","indutype":"직물 - 옷감·직물","category":"other"},{"name":"에스엘디자인","tel":"031-852-5722","addr":"경기도 의정부시 금오동 472-1번지 골드피아 501-1호","indutype":"직물 - 옷감·직물","category":"other"},{"name":"효인요양원","tel":"031-853-3330","addr":"경기도 의정부시 금오동 472-1번지 3층301-305호","indutype":"기타의료기관 - 기타의료기관 및 기타","category":"other"}]},{"lat":"37.744433591","long":"127.0546532","imageIndex":17,"items":[{"name":"굿모닝식기세척기","tel":"031-876-0753","addr":"경기도 의정부시 금오동 367-22번지","indutype":"주방용구 - 기타주방용구","category":"other"}]},{"lat":"37.748209875","long":"127.05164902","imageIndex":17,"items":[{"name":"귀뚜라미보일러","tel":"031-843-9113","addr":"경기도 의정부시 금오동 380-1번지 1층","indutype":"건축자재 - 보일러·펌프·샷시","category":"other"}]},{"lat":"37.758677014","long":"127.07331933","imageIndex":17,"items":[{"name":"규리 스킨 앤 바디","tel":"070-7782-6827","addr":"경기도 의정부시 금오동 80-39번지 금오세아상가 상가동 2층 201호","indutype":"회원제형태 - 기타4","category":"other"},{"name":"주식회사 동훈전기","tel":"031-821-5793","addr":"경기도 의정부시 금오동 80-39번지 세아상가 상가 103호","indutype":"용역 서비스 - 기타용역서비스","category":"other"}]},{"lat":"37.752570838","long":"127.06937609","imageIndex":17,"items":[{"name":"금강요양원","tel":"031-840-9977","addr":"경기도 의정부시 금오동 470-5번지 금강프라자빌딩 1001호","indutype":"기타의료기관 - 기타의료기관 및 기타","category":"other"},{"name":"대한이동통신","tel":"031-851-0516","addr":"경기도 의정부시 금오동 470-5번지 금강프라자빌딩 105호","indutype":"사무통신 - 통신기기","category":"other"}]},{"lat":"37.744902173","long":"127.05446064","imageIndex":17,"items":[{"name":"금성샷시유리공업사","tel":"031-842-1864","addr":"경기도 의정부시 금오동 369-12번지","indutype":"건축자재 - 목재·석재·철물","category":"other"}]},{"lat":"37.749208652","long":"127.05465652","imageIndex":17,"items":[{"name":"금성세탁소","tel":"031-843-8000","addr":"경기도 의정부시 금오동 403-18번지 1층","indutype":"수리서비스 - 세탁소","category":"other"},{"name":"신도전기","tel":"031-821-9840","addr":"경기도 의정부시 금오동 403-18번지 1층","indutype":"전기제품 - 기타전기제품","category":"other"}]},{"lat":"37.756287484","long":"127.07659655","imageIndex":17,"items":[{"name":"금오사랑가득요양원","tel":"031-846-6618","addr":"경기도 의정부시 금오동 454-1번지","indutype":"기타의료기관 - 기타의료기관 및 기타","category":"other"}]},{"lat":"37.754514577","long":"127.07337212","imageIndex":17,"items":[{"name":"금오스마트샷시","tel":"031-847-7339","addr":"경기도 의정부시 금오동 450-19번지","indutype":"건축자재 - 보일러·펌프·샷시","category":"other"}]},{"lat":"37.748315221","long":"127.05793503","imageIndex":17,"items":[{"name":"금오악기","tel":"031-841-7781","addr":"경기도 의정부시 금오동 343-2번지","indutype":"레져용품 - 피아노대리점","category":"other"},{"name":"남도전기조명","tel":"031-821-5104","addr":"경기도 의정부시 금오동 343-2번지","indutype":"건축자재 - 조명기구","category":"other"}]},{"lat":"37.752959753","long":"127.06665311","imageIndex":17,"items":[{"name":"금오요양원","tel":"031-848-6050","addr":"경기도 의정부시 금오동 444-1번지 금오빌딩 전관","indutype":"기타의료기관 - 기타의료기관 및 기타","category":"other"},{"name":"아이꿈터(의정부점)","tel":"031-852-6660","addr":"경기도 의정부시 금오동 444-1번지 금오빌딩 1층","indutype":"서적문구 - 기타서적문구","category":"other"}]},{"lat":"37.75381545","long":"127.06703966","imageIndex":17,"items":[{"name":"금오요양원","tel":"031-848-6050","addr":"경기도 의정부시 금오동 219-13번지","indutype":"기타의료기관 - 기타의료기관 및 기타","category":"other"}]},{"lat":"37.751045193","long":"127.05776685","imageIndex":17,"items":[{"name":"금오철물점","tel":"031-846-5245","addr":"경기도 의정부시 금오동 285-22번지 외2필지","indutype":"기타 - 기계공구","category":"other"}]},{"lat":"37.754541524","long":"127.07350832","imageIndex":17,"items":[{"name":"금오합판","tel":"031-847-7339","addr":"경기도 의정부시 금오동 450-22번지","indutype":"건축자재 - 목재·석재·철물","category":"other"}]},{"lat":"37.755009397","long":"127.07454138","imageIndex":17,"items":[{"name":"금호기업","tel":"031-847-5107","addr":"경기도 의정부시 금오동 452-2번지","indutype":"건축자재 - 보일러·펌프·샷시","category":"other"}]},{"lat":"37.75187695","long":"127.0696478","imageIndex":17,"items":[{"name":"김철기법무사사무소","tel":"031-853-7200","addr":"경기도 의정부시 금오동 473-2번지 삼성프라자 3층 303,304호","indutype":"용역 서비스 - 부동산 중개·임대","category":"other"},{"name":"바퀴달린그림책","tel":"031-853-0903","addr":"경기도 의정부시 금오동 473-2번지 금오삼성플라자 1001호","indutype":"회원제형태 - 서적","category":"other"},{"name":"바퀴달린그림책의정부센터","tel":"031-853-0903","addr":"경기도 의정부시 금오동 473-2번지 삼성프라자 10층 1001호","indutype":"서적문구 - 일반서적","category":"other"},{"name":"씨제이올리브네트웍스(주)의정부금오점","tel":"031-851-7413","addr":"경기도 의정부시 금오동 473-2번지 삼성프라자 103,104,202,203호","indutype":"유통업 영리 - 편 의 점","category":"other"},{"name":"에스테라피금오지사","tel":"031-851-4907","addr":"경기도 의정부시 금오동 473-2번지 금오삼성프라자 704호","indutype":"회원제형태 - 기타1","category":"other"},{"name":"필라테스정원금오점","tel":"031-852-9322","addr":"경기도 의정부시 금오동 473-2번지 금오삼성플라자 905호","indutype":"회원제형태 - 레져업소","category":"other"}]},{"lat":"37.754843463","long":"127.06531573","imageIndex":17,"items":[{"name":"깡스베베","tel":"070-7535-1349","addr":"경기도 의정부시 금오동 234-11번지 성우빌라 302호","indutype":"의류 - 아동의류","category":"other"}]},{"lat":"37.755845316","long":"127.07770818","imageIndex":17,"items":[{"name":"나노시스템","tel":"031-842-7799","addr":"경기도 의정부시 금오동 457-5번지 1층 지상 1층","indutype":"전기제품 - 가전제품","category":"other"},{"name":"이바이샵","tel":"070-4411-0119","addr":"경기도 의정부시 금오동 457-5번지 1층","indutype":"의류 - 기타의류","category":"other"}]},{"lat":"37.752540031","long":"127.05934521","imageIndex":17,"items":[{"name":"나무인형","tel":"070-4112-4044","addr":"경기도 의정부시 금오동 283-15번지","indutype":"의류 - 정장","category":"other"}]},{"lat":"37.756820731","long":"127.07385092","imageIndex":17,"items":[{"name":"남일네트웍스","tel":"031-847-1471","addr":"경기도 의정부시 금오동 131-26번지","indutype":"사무통신 - 통신기기","category":"other"},{"name":"남일정보통신","tel":"031-847-1471","addr":"경기도 의정부시 금오동 131-26번지 1층","indutype":"용역 서비스 - 기타용역서비스","category":"other"}]},{"lat":"37.756179106","long":"127.0770163","imageIndex":17,"items":[{"name":"네오컴","tel":"070-7578-8248","addr":"경기도 의정부시 금오동 454-3번지 102호","indutype":"용역 서비스 - 종합용역","category":"other"},{"name":"하람 디자인하우스","tel":"031-848-6072","addr":"경기도 의정부시 금오동 454-3번지 103호","indutype":"건축자재 - 인테리어전문","category":"other"}]},{"lat":"37.759094572","long":"127.08256845","imageIndex":17,"items":[{"name":"농협농기구,카센타","tel":"031-851-4848","addr":"경기도 의정부시 금오동 57-5번지","indutype":"수리서비스 - 기타수리서비스","category":"other"}]},{"lat":"37.7478208","long":"127.05551788","imageIndex":17,"items":[{"name":"뉴신도세탁소","tel":"031-841-9698","addr":"경기도 의정부시 금오동 344-17번지 금오2차신도브래뉴UP상가제비동 211호","indutype":"수리서비스 - 세탁소","category":"other"},{"name":"신도세탁","tel":"031-841-0056","addr":"경기도 의정부시 금오동 344-17번지 금오2차신도브래뉴업 상가 A동 1층 111호","indutype":"수리서비스 - 세탁소","category":"other"}]},{"lat":"37.750514043","long":"127.05687006","imageIndex":17,"items":[{"name":"다소미","tel":"031-847-3776","addr":"경기도 의정부시 금오동 421-25번지","indutype":"직물 - 침구·수예점","category":"other"}]},{"lat":"37.749425884","long":"127.05231927","imageIndex":17,"items":[{"name":"대경종합건축장식","tel":"031-821-3624","addr":"경기도 의정부시 금오동 389번지","indutype":"건축자재 - 기타건축자재","category":"other"}]},{"lat":"37.754734298","long":"127.0672674","imageIndex":17,"items":[{"name":"대산일렉컴","tel":"031-840-3800","addr":"경기도 의정부시 금오동 228-3번지","indutype":"전기제품 - 기타전기제품","category":"other"}]},{"lat":"37.748570233","long":"127.05170598","imageIndex":17,"items":[{"name":"대성공조&대성보일러","tel":"031-871-0482","addr":"경기도 의정부시 금오동 386-2번지 1층","indutype":"전기제품 - 냉열기기","category":"other"}]},{"lat":"37.755179054","long":"127.06093586","imageIndex":17,"items":[{"name":"대성상사","tel":"031-876-1304","addr":"경기도 의정부시 금오동 253-1번지 금오주공2단지 204동 106호","indutype":"기타 - 기계공구","category":"other"},{"name":"스테이지렌탈","tel":"031-8083-1217","addr":"경기도 의정부시 금오동 253-1번지 금오주공2단지 204동 1102호","indutype":"용역 서비스 - 기타용역서비스","category":"other"}]},{"lat":"37.748821856","long":"127.05323793","imageIndex":17,"items":[{"name":"대성쎌틱 의정부 동부지점","tel":"031-872-8577","addr":"경기도 의정부시 금오동 384-41번지 1층","indutype":"건축자재 - 보일러·펌프·샷시","category":"other"}]},{"lat":"37.749569697","long":"127.05312497","imageIndex":17,"items":[{"name":"대원샤시 종합 인테리어","tel":"031-848-7633","addr":"경기도 의정부시 금오동 391-3번지","indutype":"건축자재 - 인테리어전문","category":"other"}]},{"lat":"37.750205978","long":"127.06054619","imageIndex":17,"items":[{"name":"대일도기","tel":"031-822-8500","addr":"경기도 의정부시 금오동 336-5번지 공주빌딩 105호","indutype":"건축자재 - 건축용 요업제품","category":"other"}]},{"lat":"37.750343162","long":"127.05621182","imageIndex":17,"items":[{"name":"대한방역","tel":"031-848-5550","addr":"경기도 의정부시 금오동 399-1번지","indutype":"용역 서비스 - 종합용역","category":"other"},{"name":"아이클교육","tel":"070-7670-2875","addr":"경기도 의정부시 금오동 399-1번지","indutype":"서적문구 - 일반서적","category":"other"}]},{"lat":"37.746622682","long":"127.05517665","imageIndex":17,"items":[{"name":"더 공간 인테리어","tel":"031-840-2680","addr":"경기도 의정부시 금오동 370번지 금오동 신도브래뉴1차아파트","indutype":"건축자재 - 인테리어전문","category":"other"}]},{"lat":"37.752903402","long":"127.07076074","imageIndex":17,"items":[{"name":"더 스트링어","tel":"070-6592-1977","addr":"경기도 의정부시 금오동 474-3번지 1층 세하메디칼스타 113호","indutype":"레져용품 - 스포츠·레져용품","category":"other"},{"name":"세하메디컬스타관리단","tel":"031-853-8233","addr":"경기도 의정부시 금오동 474-3번지","indutype":"용역 서비스 - 종합용역","category":"other"},{"name":"워시프렌즈 셀프빨래방 의정부 금오동점","tel":"","addr":"경기도 의정부시 금오동 474-3번지 세하메디칼스타 1층 107호","indutype":"수리서비스 - 세탁소","category":"other"},{"name":"청화당플라워","tel":"031-111-1111","addr":"경기도 의정부시 금오동 474-3번지 세하메디칼스타 114호","indutype":"문화.취미 - 화원","category":"other"}]},{"lat":"37.753426968","long":"127.0689797","imageIndex":17,"items":[{"name":"더죤사진협동조합/의정부금오지점","tel":"031-542-1122","addr":"경기도 의정부시 금오동 446-21번지 준명빌딩 5층","indutype":"광학제품 - 사진관","category":"other"}]},{"lat":"37.749260153","long":"127.06018236","imageIndex":17,"items":[{"name":"더캠트의정부점","tel":"070-4010-4088","addr":"경기도 의정부시 금오동 463-10번지 태진빌딩","indutype":"레져용품 - 스포츠·레져용품","category":"other"}]},{"lat":"37.756733714","long":"127.06854008","imageIndex":17,"items":[{"name":"덕수유통","tel":"031-853-5900","addr":"경기도 의정부시 금오동 480-2.3호로얄프라자117","indutype":"서적문구 - 문구용품","category":"other"}]},{"lat":"37.748459506","long":"127.05765148","imageIndex":17,"items":[{"name":"도배랑 장판이랑","tel":"031-844-9988","addr":"경기도 의정부시 금오동 343-1번지","indutype":"건축자재 - 인테리어전문","category":"other"},{"name":"상원기업","tel":"031-847-6685","addr":"경기도 의정부시 금오동 343-1","indutype":"건축자재 - 기타건축자재","category":"other"}]},{"lat":"37.759261507","long":"127.07518098","imageIndex":17,"items":[{"name":"돈오기획","tel":"031-840-8256","addr":"경기도 의정부시 금오동 72-19번지","indutype":"서적문구 - 출판 및 인쇄물","category":"other"}]},{"lat":"37.757125857","long":"127.07581438","imageIndex":17,"items":[{"name":"동아금속","tel":"","addr":"경기도 의정부시 금오동 67-30번지","indutype":"건축자재 - 목재·석재·철물","category":"other"}]},{"lat":"37.749876031","long":"127.05310249","imageIndex":17,"items":[{"name":"동진라이닝","tel":"031-846-4465","addr":"경기도 의정부시 금오동 395-11번지","indutype":"기타 - 기타 전문점","category":"other"}]},{"lat":"37.748764935","long":"127.05954658","imageIndex":17,"items":[{"name":"동호전기조명","tel":"031-852-7470","addr":"경기도 의정부시 금오동 463-7번지 골드빌딩 1층","indutype":"전기제품 - 기타전기제품","category":"other"},{"name":"똥강아지스튜디오","tel":"031-851-5152","addr":"경기도 의정부시 금오동 463-7번지 2층","indutype":"광학제품 - 사진관","category":"other"}]},{"lat":"37.752156303","long":"127.06954592","imageIndex":17,"items":[{"name":"드림무역","tel":"031-852-5998","addr":"경기도 의정부시 금오동 473-1번지","indutype":"신변잡화 - 시계","category":"other"},{"name":"박성진세무사사무소","tel":"031-852-8338","addr":"경기도 의정부시 금오동 473-1번지 플래티넘프라자 1동 705호","indutype":"용역 서비스 - 법률회계서비스(개인)","category":"other"},{"name":"법무법인링컨로펌(분사무소)","tel":"031-853-8822","addr":"경기도 의정부시 금오동 473-1번지 9층 901~906호","indutype":"용역 서비스 - 법률회계서비스(법인)","category":"other"},{"name":"신일노동법률사무소","tel":"031-821-0056","addr":"경기도 의정부시 금오동 473-1번지 플래티넘프라자 506호","indutype":"용역 서비스 - 법률회계서비스(개인)","category":"other"},{"name":"제이제이(JJ)","tel":"02-1111-1111","addr":"경기도 의정부시 금오동 473-1번지 플래티넘프라자 7층 702호","indutype":"사무통신 - 통신기기","category":"other"},{"name":"지앤미","tel":"031-851-9981","addr":"경기도 의정부시 금오동 473-1번지 플래티넘프라자-I 104","indutype":"신변잡화 - 귀금속","category":"other"},{"name":"코리아감정평가사사무소","tel":"031-853-8050","addr":"경기도 의정부시 금오동 473-1번지 플래티넘프라자 905호","indutype":"용역 서비스 - 사무서비스","category":"other"},{"name":"토즈멤버십라운지의정부2센터","tel":"031-853-7705","addr":"경기도 의정부시 금오동 473-1번지 플래티넘프라자 802호","indutype":"용역 서비스 - 사무서비스","category":"other"}]},{"lat":"37.748903226","long":"127.05256854","imageIndex":17,"items":[{"name":"드림케미칼","tel":"031-842-8550","addr":"경기도 의정부시 금오동 387-5번지 드림빌딩 101호","indutype":"건축자재 - 목재·석재·철물","category":"other"},{"name":"로드텍","tel":"031-841-0741","addr":"경기도 의정부시 금오동 387-5,103~104호","indutype":"신변잡화 - 기타잡화","category":"other"},{"name":"원봉동부지점","tel":"031-111-1111","addr":"경기도 의정부시 금오동 387-5번지","indutype":"주방용구 - 정수기","category":"other"}]},{"lat":"37.74862088","long":"127.05934223","imageIndex":17,"items":[{"name":"드림통상의정부","tel":"031-852-4465","addr":"경기도 의정부시 금오동 463-6번지 덕원빌딩","indutype":"레져용품 - 스포츠·레져용품","category":"other"}]},{"lat":"37.75167986","long":"127.04837201","imageIndex":17,"items":[{"name":"디월트 (동양공구)/주식회사 공구세상","tel":"031-843-0909","addr":"경기도 의정부시 금오동 441번지","indutype":"기타 - 기계공구","category":"other"}]},{"lat":"37.749460354","long":"127.05592752","imageIndex":17,"items":[{"name":"러브 Vintage","tel":"","addr":"경기도 의정부시 금오동 403-36번지","indutype":"의류 - 정장","category":"other"}]},{"lat":"37.755707241","long":"127.06742711","imageIndex":17,"items":[{"name":"러브띵글","tel":"031-000-0000","addr":"경기도 의정부시 금오동 226-10번지","indutype":"의류 - 정장","category":"other"}]},{"lat":"37.746648896","long":"127.05698072","imageIndex":17,"items":[{"name":"럭키종합상사","tel":"031-847-4994","addr":"경기도 의정부시 금오동 364-1번지","indutype":"건축자재 - 기타건축자재","category":"other"}]},{"lat":"37.754377978","long":"127.07576629","imageIndex":17,"items":[{"name":"마루MCS제1","tel":"070-7740-7829","addr":"경기도 의정부시 금오동 476-11번지","indutype":"회원제형태 - 기타3","category":"other"},{"name":"아라앙카","tel":"031-856-3041","addr":"경기도 의정부시 금오동 476-11번지","indutype":"기타 - 기타 전문점","category":"other"}]},{"lat":"37.74906485","long":"127.05385082","imageIndex":17,"items":[{"name":"마리골드 꽃집","tel":"031-031-0311","addr":"경기도 의정부시 금오동 382-8번지","indutype":"문화.취미 - 화원","category":"other"},{"name":"마리골드 꽃집","tel":"031-111-1111","addr":"경기도 의정부시 금오동 382-8번지","indutype":"문화.취미 - 화원","category":"other"},{"name":"마리골드꽃집","tel":"","addr":"경기도 의정부시 금오동 382-8번지","indutype":"문화.취미 - 화원","category":"other"},{"name":"선경인테리어","tel":"031-409-1174","addr":"경기도 의정부시 금오동 382-8번지 1층","indutype":"건축자재 - 인테리어전문","category":"other"}]},{"lat":"37.749064934","long":"127.05365792","imageIndex":17,"items":[{"name":"메이드(made)씽크","tel":"031-821-8621","addr":"경기도 의정부시 금오동 384-12번지 1층","indutype":"주방용구 - 주방용구","category":"other"},{"name":"이야 D&G","tel":"031-856-3535","addr":"경기도 의정부시 금오동 384-12번지 1층","indutype":"유통업 영리 - 기타유통업","category":"other"}]},{"lat":"37.76031523","long":"127.07581751","imageIndex":17,"items":[{"name":"메이크 엔젤","tel":"031-848-6113","addr":"경기도 의정부시 금오동 76-1번지 1층","indutype":"가구 - 일반가구","category":"other"}]},{"lat":"37.756926517","long":"127.07761848","imageIndex":17,"items":[{"name":"명대인손해사정","tel":"031-840-4072","addr":"경기도 의정부시 금오동 116번지 우성빌딩 301호","indutype":"용역 서비스 - 사무서비스","category":"other"}]},{"lat":"37.75635038","long":"127.07686896","imageIndex":17,"items":[{"name":"명품하우스","tel":"031-841-5334","addr":"경기도 의정부시 금오동 454-2번지 1층","indutype":"의류 - 정장","category":"other"}]},{"lat":"37.74787563","long":"127.05375923","imageIndex":17,"items":[{"name":"모아열쇠","tel":"031-844-3333","addr":"경기도 의정부시 금오동 380-37번지","indutype":"회원제형태 - 기타4","category":"other"}]},{"lat":"37.753287834","long":"127.05932308","imageIndex":17,"items":[{"name":"모아퍼니처","tel":"031-859-3115","addr":"경기도 의정부시 금오동 282-29번지 2층","indutype":"가구 - 기타가구","category":"other"}]},{"lat":"37.750350604","long":"127.05957048","imageIndex":17,"items":[{"name":"미나홈아트","tel":"031-847-3776","addr":"경기도 의정부시 금오동 286-106번지","indutype":"직물 - 침구·수예점","category":"other"}]},{"lat":"37.755315707","long":"127.07456437","imageIndex":17,"items":[{"name":"미성조립식판넬총판","tel":"031-821-9500","addr":"경기도 의정부시 금오동 451-3","indutype":"건축자재 - 기타건축자재","category":"other"}]},{"lat":"37.749038403","long":"127.05248921","imageIndex":17,"items":[{"name":"미젤악기 (미zel악기)","tel":"070-4388-0723","addr":"경기도 의정부시 금오동 388-9번지 2층","indutype":"레져용품 - 악기점","category":"other"}]},{"lat":"37.750621643","long":"127.05798213","imageIndex":17,"items":[{"name":"바른퍼니처","tel":"070-7718-2283","addr":"경기도 의정부시 금오동 285-48번지","indutype":"가구 - 일반가구","category":"other"},{"name":"에어컨헤븐","tel":"031-838-5553","addr":"경기도 의정부시 금오동 285-48번지","indutype":"전기제품 - 냉열기기","category":"other"}]},{"lat":"37.747900521","long":"127.0584907","imageIndex":17,"items":[{"name":"바이크닥터","tel":"031-842-8408","addr":"경기도 의정부시 금오동 463-2번지","indutype":"레져용품 - 스포츠·레져용품","category":"other"},{"name":"장수돌침대","tel":"031-853-6886","addr":"경기도 의정부시 금오동 463-2번지 1층","indutype":"가구 - 기타가구","category":"other"},{"name":"탑민턴","tel":"031-853-7554","addr":"경기도 의정부시 금오동 463-2번지 1층","indutype":"레져용품 - 스포츠·레져용품","category":"other"}]},{"lat":"37.752516973","long":"127.06903563","imageIndex":17,"items":[{"name":"박준석세무회계사무소","tel":"031-853-0073","addr":"경기도 의정부시 금오동 470-4번지 성산타워 901호","indutype":"용역 서비스 - 법률회계서비스(개인)","category":"other"},{"name":"샤인빌디자인하우스","tel":"031-851-3446","addr":"경기도 의정부시 금오동 470-4번지 성산타워 103호","indutype":"용역 서비스 - 종합용역","category":"other"},{"name":"세븐일레븐의정부금오시티점","tel":"","addr":"경기도 의정부시 금오동 470-4번지 성산타워 1층 108호","indutype":"유통업 영리 - 편 의 점","category":"other"},{"name":"윤경희세무사사무소","tel":"031-853-1971","addr":"경기도 의정부시 금오동 470-4번지 성산타워빌딩 501호","indutype":"용역 서비스 - 법률회계서비스(개인)","category":"other"},{"name":"제이콥스네일","tel":"031-853-0994","addr":"경기도 의정부시 금오동 470-4번지 성산타워 109호","indutype":"회원제형태 - 기타4","category":"other"},{"name":"페이펄문구센터 금오점","tel":"031-851-7021","addr":"경기도 의정부시 금오동 470-4번지 성산타워 2층 201호","indutype":"서적문구 - 문구용품","category":"other"}]},{"lat":"37.756322561","long":"127.07811717","imageIndex":17,"items":[{"name":"범아산업","tel":"031-846-6343","addr":"경기도 의정부시 금오동 458-1번지","indutype":"건축자재 - 건축용 요업제품","category":"other"},{"name":"보국단열","tel":"031-846-7297","addr":"경기도 의정부시 금오동 458-1번지","indutype":"건축자재 - 기타건축자재","category":"other"}]},{"lat":"37.7501253","long":"127.05970647","imageIndex":17,"items":[{"name":"복싱히어로의정부금오점","tel":"031-821-7989","addr":"경기도 의정부시 금오동 286-3번지 천보빌딩 지층","indutype":"회원제형태 - 레져업소","category":"other"}]},{"lat":"37.748399117","long":"127.05154702","imageIndex":17,"items":[{"name":"봄날 인테리어","tel":"","addr":"경기도 의정부시 금오동 386-67번지 1층","indutype":"건축자재 - 인테리어전문","category":"other"}]},{"lat":"37.752010131","long":"127.05575914","imageIndex":17,"items":[{"name":"삐까뻔쩍 쥬얼리","tel":"031-821-1528","addr":"경기도 의정부시 금오동 산53-6번지","indutype":"신변잡화 - 액세서리","category":"other"}]},{"lat":"37.758319661","long":"127.08270379","imageIndex":17,"items":[{"name":"삼성화원","tel":"031-846-1900","addr":"경기도 의정부시 금오동 56-1번지","indutype":"문화.취미 - 화원","category":"other"},{"name":"행복플라워","tel":"031-821-1272","addr":"경기도 의정부시 금오동 56-1번지 2호","indutype":"문화.취미 - 화원","category":"other"}]},{"lat":"37.748623612","long":"127.05331723","imageIndex":17,"items":[{"name":"삼호보일러","tel":"031-858-0073","addr":"경기도 의정부시 금오동 384-3번지","indutype":"건축자재 - 보일러·펌프·샷시","category":"other"}]},{"lat":"37.749398253","long":"127.05373758","imageIndex":17,"items":[{"name":"삼화종합페인트","tel":"031-847-7757","addr":"경기도 의정부시 금오동 383-7번지","indutype":"건축자재 - 페인트","category":"other"},{"name":"한일아이앤디","tel":"031-827-5504","addr":"경기도 의정부시 금오동 383-7번지","indutype":"건축자재 - 인테리어전문","category":"other"}]},{"lat":"37.748650901","long":"127.05270453","imageIndex":17,"items":[{"name":"상우세이프티","tel":"02-1111-2222","addr":"경기도 의정부시 금오동 387-8번지","indutype":"기타 - 기계공구","category":"other"}]},{"lat":"37.747704706","long":"127.05315775","imageIndex":17,"items":[{"name":"서광샤시부속","tel":"031-876-4550","addr":"경기도 의정부시 금오동 380-2번지 동양빌딩","indutype":"건축자재 - 기타건축자재","category":"other"}]},{"lat":"37.752822492","long":"127.07045429","imageIndex":17,"items":[{"name":"서정대학교부설애완동물센터","tel":"031-851-0900","addr":"경기도 의정부시 금오동 474-2번지 대송프라자 1층 2호","indutype":"문화.취미 - 애완동물","category":"other"}]},{"lat":"37.748899489","long":"127.06076076","imageIndex":17,"items":[{"name":"선우인테리어 상상나무","tel":"031-871-5563","addr":"경기도 의정부시 금오동 465-4번지 1층 2호","indutype":"건축자재 - 인테리어전문","category":"other"}]},{"lat":"37.757538506","long":"127.07865176","imageIndex":17,"items":[{"name":"선진의료기","tel":"031-842-1800","addr":"경기도 의정부시 금오동 60-10번지","indutype":"기타의료기관 - 기타의료기관 및 기타","category":"other"}]},{"lat":"37.750153443","long":"127.05734636","imageIndex":17,"items":[{"name":"성림인테리어하우징","tel":"031-841-2625","addr":"경기도 의정부시 금오동 418-16번지 1층","indutype":"주방용구 - 주방용구","category":"other"}]},{"lat":"37.756737804","long":"127.07684665","imageIndex":17,"items":[{"name":"성모의료기","tel":"031-847-2677","addr":"경기도 의정부시 금오동 117-2번지","indutype":"기타의료기관 - 기타의료기관 및 기타","category":"other"}]},{"lat":"37.748901737","long":"127.05598386","imageIndex":17,"items":[{"name":"세방기획인쇄","tel":"031-847-7477","addr":"경기도 의정부시 금오동 406-24번지","indutype":"용역 서비스 - 종합용역","category":"other"}]},{"lat":"37.750872439","long":"127.06104597","imageIndex":17,"items":[{"name":"세븐누수방수센터","tel":"031-000-0000","addr":"경기도 의정부시 금오동 314-8번지 1층","indutype":"용역 서비스 - 기타용역서비스","category":"other"}]},{"lat":"37.753203072","long":"127.06653985","imageIndex":17,"items":[{"name":"세븐일레븐금오초교점","tel":"031-1577-0711","addr":"경기도 의정부시 금오동 217-7번지 위너스빌3 1층","indutype":"유통업 영리 - 편 의 점","category":"other"}]},{"lat":"37.749703412","long":"127.05637022","imageIndex":17,"items":[{"name":"세븐일레븐금오캐슬점","tel":"031-1577-0711","addr":"경기도 의정부시 금오동 417-2번지 1층","indutype":"유통업 영리 - 편 의 점","category":"other"}]},{"lat":"37.749539244","long":"127.06060241","imageIndex":17,"items":[{"name":"세영홀딩스","tel":"031-848-7730","addr":"경기도 의정부시 금오동 463-12번지 다우림프라자 302호","indutype":"용역 서비스 - 사무서비스","category":"other"}]},{"lat":"37.753598992","long":"127.06745932","imageIndex":17,"items":[{"name":"소천목공예전문학원","tel":"031-843-0202","addr":"경기도 의정부시 금오동 219-6번지","indutype":"문화.취미 - 민예·공예품","category":"other"}]},{"lat":"37.746234773","long":"127.0562883","imageIndex":17,"items":[{"name":"솔로몬헬스프라자","tel":"031-846-0079","addr":"경기도 의정부시 금오동 366-2번지","indutype":"용역 서비스 - 종합용역","category":"other"},{"name":"필광고기획","tel":"031-846-5275","addr":"경기도 의정부시 금오동 366-2번지","indutype":"용역 서비스 - 종합용역","category":"other"}]},{"lat":"37.755171199","long":"127.05854153","imageIndex":17,"items":[{"name":"송현가구","tel":"031-847-8015","addr":"경기도 의정부시 금오동 270-13번지 외기노조국민주택 다동 301호","indutype":"가구 - 일반가구","category":"other"}]},{"lat":"37.753453837","long":"127.06926341","imageIndex":17,"items":[{"name":"수목원","tel":"031-844-1110","addr":"경기도 의정부시 금오동 446-19,446-20","indutype":"회원제형태 - 기타4","category":"other"}]},{"lat":"37.753904378","long":"127.06915034","imageIndex":17,"items":[{"name":"스타플라워","tel":"031-842-4321","addr":"경기도 의정부시 금오동 446-10번지","indutype":"문화.취미 - 화원","category":"other"}]},{"lat":"37.751264378","long":"127.06951108","imageIndex":17,"items":[{"name":"신진세무회계사무소","tel":"031-878-5656","addr":"경기도 의정부시 금오동 473-4번지 플래티넘투프라자 5층 501호","indutype":"용역 서비스 - 법률회계서비스(개인)","category":"other"},{"name":"타임유 스터디카페 의정부 금오점","tel":"","addr":"경기도 의정부시 금오동 473-4번지 프레티넘프라자2 4층 410, 411호","indutype":"용역 서비스 - 사무서비스","category":"other"},{"name":"히아신스산후조리원","tel":"031-853-9115","addr":"경기도 의정부시 금오동 473-4번지 6층","indutype":"기타의료기관 - 산후조리원","category":"other"}]},{"lat":"37.750055076","long":"127.05572371","imageIndex":17,"items":[{"name":"신흥수족관","tel":"031-856-2092","addr":"경기도 의정부시 금오동 398번지 한양빌라 C동 205호","indutype":"문화.취미 - 수족관","category":"other"}]},{"lat":"37.748324709","long":"127.05690251","imageIndex":17,"items":[{"name":"썬스토어","tel":"070-8065-4319","addr":"경기도 의정부시 금오동 344-17번지 금오2차신도브래뉴업 212동 1701호","indutype":"신변잡화 - 기타잡화","category":"other"}]},{"lat":"37.756818804","long":"127.0769829","imageIndex":17,"items":[{"name":"씨유의정부성모점","tel":"031-848-6714","addr":"경기도 의정부시 금오동 117-13","indutype":"유통업 영리 - 편 의 점","category":"other"}]},{"lat":"37.748928837","long":"127.05582503","imageIndex":17,"items":[{"name":"아가페꽃","tel":"02-973-3244","addr":"경기도 의정부시 금오동 406-18번지","indutype":"문화.취미 - 화원","category":"other"}]},{"lat":"37.755347446","long":"127.0813162","imageIndex":17,"items":[{"name":"아름답고푸른화원","tel":"031-844-9001","addr":"경기도 의정부시 금오동 41-1번지","indutype":"문화.취미 - 화원","category":"other"}]},{"lat":"37.750432101","long":"127.05870818","imageIndex":17,"items":[{"name":"아워키친","tel":"031-111-1111","addr":"경기도 의정부시 금오동 286-108번지","indutype":"주방용구 - 주방용구","category":"other"}]},{"lat":"37.756793504","long":"127.07417997","imageIndex":17,"items":[{"name":"아이네이처","tel":"02-6937-1560","addr":"경기도 의정부시 금오동 131-38번지","indutype":"문화.취미 - 문화취미기타","category":"other"}]},{"lat":"37.749461403","long":"127.05354473","imageIndex":17,"items":[{"name":"아토.갈(art.o.gal)","tel":"","addr":"경기도 의정부시 금오동 391-12번지 1층","indutype":"신변잡화 - 기타잡화","category":"other"}]},{"lat":"37.745100383","long":"127.05446078","imageIndex":17,"items":[{"name":"애드코스타","tel":"031-846-4433","addr":"경기도 의정부시 금오동 369-10번지","indutype":"용역 서비스 - 종합용역","category":"other"}]},{"lat":"37.747803073","long":"127.05485978","imageIndex":17,"items":[{"name":"애플","tel":"070-2699-0807","addr":"경기도 의정부시 금오동 344-17번지 금오2차신도브래뉴업 204동 501호","indutype":"의류 - 내의판매","category":"other"}]},{"lat":"37.749812126","long":"127.05503138","imageIndex":17,"items":[{"name":"언더우먼","tel":"070-2699-0807","addr":"경기도 의정부시 금오동 402-4번지 뉴캐슬 가동 202호","indutype":"의류 - 내의판매","category":"other"}]},{"lat":"37.751927421","long":"127.05926531","imageIndex":17,"items":[{"name":"에덴사","tel":"031-847-3849","addr":"경기도 의정부시 금오동 283-48번지","indutype":"수리서비스 - 세탁소","category":"other"}]},{"lat":"37.751039891","long":"127.04912051","imageIndex":17,"items":[{"name":"에이원 테크","tel":"031-1600-3184","addr":"경기도 의정부시 금오동 441-28번지","indutype":"용역 서비스 - 기타용역서비스","category":"other"}]},{"lat":"37.748864489","long":"127.05860489","imageIndex":17,"items":[{"name":"여우닷컴","tel":"070-4230-9643","addr":"경기도 의정부시 금오동 348-12번지 현대아트홈 C동 501호","indutype":"용역 서비스 - 사무서비스","category":"other"}]},{"lat":"37.75395983","long":"127.06661993","imageIndex":17,"items":[{"name":"예조인테리어","tel":"031-878-7048","addr":"경기도 의정부시 금오동 229-26번지","indutype":"수리서비스 - 기타수리서비스","category":"other"}]},{"lat":"37.750126706","long":"127.05671093","imageIndex":17,"items":[{"name":"와우스넷","tel":"070-4156-9944","addr":"경기도 의정부시 금오동 418-3번지 은혜와사랑교회 1동 1층","indutype":"사무통신 - 컴퓨터","category":"other"}]},{"lat":"37.748704708","long":"127.05329459","imageIndex":17,"items":[{"name":"우일산업","tel":"031-846-8800","addr":"경기도 의정부시 금오동 384-2번지","indutype":"용역 서비스 - 기타용역서비스","category":"other"}]},{"lat":"37.757819948","long":"127.07523632","imageIndex":17,"items":[{"name":"워시피플셀프빨래방의정부거성점","tel":"","addr":"경기도 의정부시 금오동 67-1번지 지하층 B101호","indutype":"수리서비스 - 세탁소","category":"other"}]},{"lat":"37.749595256","long":"127.05646091","imageIndex":17,"items":[{"name":"원예치유센터 꽃드림(flower dream)","tel":"","addr":"경기도 의정부시 금오동 417-16번지 1층 102호","indutype":"가구 - 기타가구","category":"other"}]},{"lat":"37.748902966","long":"127.05318126","imageIndex":17,"items":[{"name":"월드방화문","tel":"031-841-8848","addr":"경기도 의정부시 금오동 384번지 1층","indutype":"건축자재 - 기타건축자재","category":"other"}]},{"lat":"37.750315896","long":"127.05673376","imageIndex":17,"items":[{"name":"위너스 요양원","tel":"031-847-7162","addr":"경기도 의정부시 금오동 417-28번지","indutype":"기타의료기관 - 기타의료기관 및 기타","category":"other"}]},{"lat":"37.748984062","long":"127.05315862","imageIndex":17,"items":[{"name":"윌로펌프서비스","tel":"031-840-5890","addr":"경기도 의정부시 금오동 388-15번지","indutype":"수리서비스 - 기타수리서비스","category":"other"},{"name":"제일수중펌프","tel":"031-873-5890","addr":"경기도 의정부시 금오동 388-15번지","indutype":"건축자재 - 보일러·펌프·샷시","category":"other"}]},{"lat":"37.748732068","long":"127.05251169","imageIndex":17,"items":[{"name":"의정부안료상사","tel":"031-848-3762","addr":"경기도 의정부시 금오동 387-1번지","indutype":"건축자재 - 페인트","category":"other"}]},{"lat":"37.756558572","long":"127.07530318","imageIndex":17,"items":[{"name":"의정부워터스","tel":"031-873-7181","addr":"경기도 의정부시 금오동 120-27번지 금오파크빌 2동 401호","indutype":"주방용구 - 정수기","category":"other"}]},{"lat":"37.753815357","long":"127.06720987","imageIndex":17,"items":[{"name":"의정요양원","tel":"031-846-1145","addr":"경기도 의정부시 금오동 219-1번지 (금오로9-12)","indutype":"기타의료기관 - 기타의료기관 및 기타","category":"other"}]},{"lat":"37.756567483","long":"127.07546205","imageIndex":17,"items":[{"name":"의정전자","tel":"031-821-1236","addr":"경기도 의정부시 금오동 117-23번지","indutype":"수리서비스 - 가정용품수리","category":"other"}]},{"lat":"37.757126705","long":"127.07442995","imageIndex":17,"items":[{"name":"이공월드플러스","tel":"031-843-1698","addr":"경기도 의정부시 금오동 121-32번지 3층 전부","indutype":"서적문구 - 출판 및 인쇄물","category":"other"}]},{"lat":"37.749628339","long":"127.06261084","imageIndex":17,"items":[{"name":"이성건업","tel":"031-541-0836","addr":"경기도 의정부시 금오동 468-1번지 주공그린빌 108동 802호","indutype":"회원제형태 - 기타4","category":"other"}]},{"lat":"37.74990411","long":"127.05057219","imageIndex":17,"items":[{"name":"일하전기공사","tel":"031-847-4590","addr":"경기도 의정부시 금오동 438-9번지","indutype":"기타 - 기타 전문점","category":"other"}]},{"lat":"37.756429436","long":"127.08003505","imageIndex":17,"items":[{"name":"장미가구","tel":"031-847-4218","addr":"경기도 의정부시 금오동 93-1번지","indutype":"가구 - 일반가구","category":"other"}]},{"lat":"37.749399451","long":"127.05087822","imageIndex":17,"items":[{"name":"장암철형","tel":"031-821-9047","addr":"경기도 의정부시 금오동 435-2번지 1층","indutype":"기타 - 기계공구","category":"other"}]},{"lat":"37.751238296","long":"127.04862137","imageIndex":17,"items":[{"name":"전원설비공사","tel":"031-843-3951","addr":"경기도 의정부시 금오동 440-1 19/4","indutype":"회원제형태 - 기타4","category":"other"},{"name":"한길애드","tel":"031-877-9046","addr":"경기도 의정부시 금오동 440-1번지","indutype":"용역 서비스 - 종합용역","category":"other"}]},{"lat":"37.7484052","long":"127.05818472","imageIndex":17,"items":[{"name":"전일프라인","tel":"031-848-8480","addr":"경기도 의정부시 금오동 343-11번지","indutype":"기타 - 기타 전문점","category":"other"}]},{"lat":"37.753154277","long":"127.05590747","imageIndex":17,"items":[{"name":"제2군수지원사령부(제2167)","tel":"031-820-6702","addr":"경기도 의정부시 금오동 426-1번지","indutype":"유통업 비영리 - 구내매점(국가기관","category":"other"},{"name":"제2군수지원사령부(제2167)","tel":"031-820-6702","addr":"경기도 의정부시 금오동 426-1번지","indutype":"유통업 비영리 - 구내매점(국가기관","category":"other"}]},{"lat":"37.753455247","long":"127.06671027","imageIndex":17,"items":[{"name":"제일사","tel":"031-846-5006","addr":"경기도 의정부시 금오동 217-5번지","indutype":"직물 - 옷감·직물","category":"other"}]},{"lat":"37.751234535","long":"127.05746062","imageIndex":17,"items":[{"name":"제일아쿠아","tel":"031-847-7788","addr":"경기도 의정부시 금오동 285-39번지 1층","indutype":"주방용구 - 정수기","category":"other"}]},{"lat":"37.749793804","long":"127.05571217","imageIndex":17,"items":[{"name":"조으다","tel":"031-843-2256","addr":"경기도 의정부시 금오동 402-2번지 금오캐슬 다동 201호","indutype":"의류 - 아동의류","category":"other"}]},{"lat":"37.75237774","long":"127.05959472","imageIndex":17,"items":[{"name":"주님의창","tel":"031-842-3444","addr":"경기도 의정부시 금오동 284번지","indutype":"직물 - 카페트,커튼,천막,지물","category":"other"}]},{"lat":"37.756378185","long":"127.07562074","imageIndex":17,"items":[{"name":"주식회사 금산건축","tel":"031-847-4466","addr":"경기도 의정부시 금오동 117-11번지","indutype":"건축자재 - 인테리어전문","category":"other"}]},{"lat":"37.753842099","long":"127.06773186","imageIndex":17,"items":[{"name":"주식회사 에이아이이에스","tel":"02-6361-1923","addr":"경기도 의정부시 금오동 219-16번지","indutype":"용역 서비스 - 소프트웨어","category":"other"}]},{"lat":"37.749344903","long":"127.05206959","imageIndex":17,"items":[{"name":"주식회사제일종합관리","tel":"031-872-1550","addr":"경기도 의정부시 금오동 389-2번지 2층","indutype":"용역 서비스 - 종합용역","category":"other"}]},{"lat":"37.748010841","long":"127.05360047","imageIndex":17,"items":[{"name":"주식회사코어텍","tel":"070-8160-9678","addr":"경기도 의정부시 금오동 380-46번지 2층","indutype":"레져용품 - 스포츠·레져용품","category":"other"}]},{"lat":"37.750487165","long":"127.05654098","imageIndex":17,"items":[{"name":"지인화이트보드","tel":"070-8615-4385","addr":"경기도 의정부시 금오동 420-41번지","indutype":"서적문구 - 문구용품","category":"other"}]},{"lat":"37.755653921","long":"127.08108957","imageIndex":17,"items":[{"name":"찰스맨하탄","tel":"031-843-2249","addr":"경기도 의정부시 금오동 43-2번지","indutype":"의류 - 정장","category":"other"}]},{"lat":"37.755539799","long":"127.07642559","imageIndex":17,"items":[{"name":"철통콘테이너","tel":"031-848-9300","addr":"경기도 의정부시 금오동 453-4번지","indutype":"기타 - 기타 전문점","category":"other"}]},{"lat":"37.755459283","long":"127.07550636","imageIndex":17,"items":[{"name":"카스저울솔루션","tel":"070-8276-4284","addr":"경기도 의정부시 금오동 453-1번지 벽산블루밍아파트 1층","indutype":"주방용구 - 주방용구","category":"other"}]},{"lat":"37.749515518","long":"127.0534086","imageIndex":17,"items":[{"name":"컴마트","tel":"031-840-8885","addr":"경기도 의정부시 금오동 391-9번지","indutype":"사무통신 - 컴퓨터","category":"other"}]},{"lat":"37.748316817","long":"127.05440628","imageIndex":17,"items":[{"name":"케이엘방제","tel":"","addr":"경기도 의정부시 금오동 384-38번지","indutype":"용역 서비스 - 종합용역","category":"other"}]},{"lat":"37.753594321","long":"127.05898289","imageIndex":17,"items":[{"name":"쿨냉난방공조시스템","tel":"031-878-9771","addr":"경기도 의정부시 금오동 278-3번지 1층","indutype":"전기제품 - 냉열기기","category":"other"}]},{"lat":"37.753846414","long":"127.0593462","imageIndex":17,"items":[{"name":"크린별","tel":"070-7420-7976","addr":"경기도 의정부시 금오동 280-4번지","indutype":"신변잡화 - 기타잡화","category":"other"}]},{"lat":"37.75812668","long":"127.07456709","imageIndex":17,"items":[{"name":"크린토피아 거성점","tel":"070-4845-8069","addr":"경기도 의정부시 금오동 80-27번지","indutype":"수리서비스 - 세탁소","category":"other"}]},{"lat":"37.747704458","long":"127.05373642","imageIndex":17,"items":[{"name":"크린토피아금오신도점","tel":"031-856-0999","addr":"경기도 의정부시 금오동 380-36번지","indutype":"수리서비스 - 세탁소","category":"other"},{"name":"태영건설기계공구","tel":"031-848-0999","addr":"경기도 의정부시 금오동 380-36번지 2필지 금오빌딩","indutype":"수리서비스 - 기타수리서비스","category":"other"}]},{"lat":"37.751346012","long":"127.06853532","imageIndex":17,"items":[{"name":"크린폼","tel":"031-851-8003","addr":"경기도 의정부시 금오동 471-3번지 한솔프라자 106호","indutype":"수리서비스 - 세탁소","category":"other"}]},{"lat":"37.755397498","long":"127.07339565","imageIndex":17,"items":[{"name":"테디맘","tel":"031-848-4797","addr":"경기도 의정부시 금오동 449-1번지","indutype":"문화.취미 - 문화취미기타","category":"other"}]},{"lat":"37.75737632","long":"127.07867429","imageIndex":17,"items":[{"name":"토다투어","tel":"","addr":"경기도 의정부시 금오동 60-12번지 지하1층","indutype":"여행 - 관광여행","category":"other"}]},{"lat":"37.750710172","long":"127.06123874","imageIndex":17,"items":[{"name":"티와이그린","tel":"031-825-8279","addr":"경기도 의정부시 금오동 317-3번지","indutype":"신변잡화 - 기타잡화","category":"other"}]},{"lat":"37.748182638","long":"127.05214824","imageIndex":17,"items":[{"name":"티제이공조","tel":"031-821-8644","addr":"경기도 의정부시 금오동 386-16번지","indutype":"용역 서비스 - 기타용역서비스","category":"other"}]},{"lat":"37.754012613","long":"127.06893483","imageIndex":17,"items":[{"name":"펫 살롱 리비","tel":"031-874-0114","addr":"경기도 의정부시 금오동 446-3번지 1층","indutype":"문화.취미 - 애완동물","category":"other"}]},{"lat":"37.756206625","long":"127.07623334","imageIndex":17,"items":[{"name":"하늘교육","tel":"031-846-0517","addr":"경기도 의정부시 금오동 453-2번지 3층","indutype":"회원제형태 - 서적","category":"other"}]},{"lat":"37.757565746","long":"127.0783227","imageIndex":17,"items":[{"name":"해오름요양원1관","tel":"031-821-8800","addr":"경기도 의정부시 금오동 88-18번지 진빌딩 3층","indutype":"기타의료기관 - 기타의료기관 및 기타","category":"other"},{"name":"해오름요양원2관","tel":"031-821-8800","addr":"경기도 의정부시 금오동 88-18번지 진빌딩","indutype":"기타의료기관 - 기타의료기관 및 기타","category":"other"}]},{"lat":"37.757600384","long":"127.08047883","imageIndex":17,"items":[{"name":"향기꽃식물원","tel":"031-847-5800","addr":"경기도 의정부시 금오동 55-24","indutype":"문화.취미 - 화원","category":"other"}]},{"lat":"37.753415441","long":"127.07332569","imageIndex":17,"items":[{"name":"헤라옵틱","tel":"","addr":"경기도 의정부시 금오동 476-1번지 주공그린빌 307동 1904호","indutype":"회원제형태 - 기타2","category":"other"}]},{"lat":"37.750711078","long":"127.05937786","imageIndex":17,"items":[{"name":"현 인테리어","tel":"031-873-8289","addr":"경기도 의정부시 금오동 286-32번지 1층","indutype":"직물 - 카페트,커튼,천막,지물","category":"other"}]},{"lat":"37.748398169","long":"127.05379363","imageIndex":17,"items":[{"name":"현대사","tel":"031-213-1962","addr":"경기도 의정부시 금오동 384-16번지 1층","indutype":"수리서비스 - 세탁소","category":"other"}]},{"lat":"37.748542502","long":"127.0533739","imageIndex":17,"items":[{"name":"현대의정부센타","tel":"031-846-9999","addr":"경기도 의정부시 금오동 384-4번지","indutype":"기타 - 기계공구","category":"other"}]},{"lat":"37.746180787","long":"127.05612941","imageIndex":17,"items":[{"name":"형제열쇠","tel":"031-841-1075","addr":"경기도 의정부시 금오동 369-31번지","indutype":"건축자재 - 목재·석재·철물","category":"other"}]},{"lat":"37.756288362","long":"127.07517809","imageIndex":17,"items":[{"name":"훈통신","tel":"031-845-1114","addr":"경기도 의정부시 금오동 120-25번지 106호","indutype":"사무통신 - 통신기기","category":"other"}]},{"lat":"37.758286934","long":"127.0776539","imageIndex":4,"items":[{"name":"(주)미셸푸드 카페안젤로&주스 의정부성모B","tel":"","addr":"경기도 의정부시 금오동 65-1번지 의정부성모병원 신관 지하1층","indutype":"일반휴게음식 - 서양음식","category":"restaurant"}]},{"lat":"37.753318229","long":"127.05178853","imageIndex":4,"items":[{"name":"(주)퍼스트그린씨앤에프 의정부점","tel":"02-525-3092","addr":"경기도 의정부시 금오동 439-38번지","indutype":"일반휴게음식 - 일반한식","category":"restaurant"}]},{"lat":"37.757456648","long":"127.0798432","imageIndex":4,"items":[{"name":"(주)회전목마","tel":"031-841-5292","addr":"경기도 의정부시 금오동 91-5번지","indutype":"일반휴게음식 - 일반한식","category":"restaurant"}]},{"lat":"37.751016485","long":"127.06126167","imageIndex":4,"items":[{"name":"1번지 옛날통닭","tel":"070-7382-7153","addr":"경기도 의정부시 금오동 318-13번지 1층","indutype":"일반휴게음식 - 일반한식","category":"restaurant"}]},{"lat":"37.751760076","long":"127.06920516","imageIndex":4,"items":[{"name":"BHC 금오동점","tel":"031-851-9982","addr":"경기도 의정부시 금오동 472-6번지 유진프라자 102호","indutype":"일반휴게음식 - 스넥","category":"restaurant"},{"name":"금오 한식 뷔페","tel":"031-851-9960","addr":"경기도 의정부시 금오동 472-6번지 유진프라자 204호","indutype":"일반휴게음식 - 일반한식","category":"restaurant"},{"name":"동대문엽기떡볶이 금오점","tel":"031-851-8590","addr":"경기도 의정부시 금오동 472-6번지 유진프라자 101호","indutype":"일반휴게음식 - 일반한식","category":"restaurant"},{"name":"동오부대찌개","tel":"031-852-6464","addr":"경기도 의정부시 금오동 472-6번지 유진프라자 108호","indutype":"일반휴게음식 - 일반한식","category":"restaurant"},{"name":"별밤(별이빛나는밤에)","tel":"031-853-7181","addr":"경기도 의정부시 금오동 472-6번지 유진프라자 3층 302호","indutype":"일반휴게음식 - 서양음식","category":"restaurant"},{"name":"안흥갈비","tel":"031-851-6562","addr":"경기도 의정부시 금오동 472-6번지 유진프라자 1층 105호,106호","indutype":"일반휴게음식 - 일반한식","category":"restaurant"},{"name":"어도일식횟집","tel":"","addr":"경기도 의정부시 금오동 472-6번지 유진프라자 203호 전체","indutype":"일반휴게음식 - 일식·회집","category":"restaurant"},{"name":"우거지품은순대국 금오점","tel":"031-852-8678","addr":"경기도 의정부시 금오동 472-6번지 유진프라자 103,104호","indutype":"일반휴게음식 - 일반한식","category":"restaurant"},{"name":"일촌","tel":"031-851-6562","addr":"경기도 의정부시 금오동 472-6번지 유진프라자 106호","indutype":"일반휴게음식 - 일반한식","category":"restaurant"},{"name":"장수족발","tel":"031-877-4140","addr":"경기도 의정부시 금오동 472-6번지 외1필지유진프라자 107호","indutype":"일반휴게음식 - 일반한식","category":"restaurant"}]},{"lat":"37.752570838","long":"127.06937609","imageIndex":4,"items":[{"name":"COFFEE MOMS커피맘스","tel":"070-4203-8416","addr":"경기도 의정부시 금오동 470-5번지 금강프라자빌딩 4층 404호","indutype":"일반휴게음식 - 서양음식","category":"restaurant"},{"name":"가인","tel":"031-111-1111","addr":"경기도 의정부시 금오동 470-5번지 금강프라자 301호","indutype":"일반휴게음식 - 서양음식","category":"restaurant"},{"name":"바밤바 (BaBamBa)","tel":"","addr":"경기도 의정부시 금오동 470-5번지 금강프라자빌딩 2층 201호","indutype":"일반휴게음식 - 일반한식","category":"restaurant"},{"name":"백채김치찌개 금오점","tel":"031-851-0759","addr":"경기도 의정부시 금오동 470-5번지 금강프라자 1층 102호","indutype":"일반휴게음식 - 일반한식","category":"restaurant"},{"name":"봉구스밥버거(금오점)","tel":"031-851-8809","addr":"경기도 의정부시 금오동 470-5번지 금강프라자빌딩 1층 103호","indutype":"일반휴게음식 - 일반한식","category":"restaurant"},{"name":"스시광","tel":"031-851-5881","addr":"경기도 의정부시 금오동 470-5번지 금강프라자 101호","indutype":"일반휴게음식 - 일식·회집","category":"restaurant"},{"name":"스카이라운지 발리","tel":"031-851-4700","addr":"경기도 의정부시 금오동 470-5번지 1201호 1202호 1203호","indutype":"일반휴게음식 - 일반한식","category":"restaurant"},{"name":"원조신당동떡뽁이","tel":"031-853-6263","addr":"경기도 의정부시 금오동 470-5번지 금오프라자 302호","indutype":"일반휴게음식 - 일반한식","category":"restaurant"},{"name":"이주 소곱창","tel":"031-852-1184","addr":"경기도 의정부시 금오동 470-5번지 금강프라자 110호","indutype":"일반휴게음식 - 일반한식","category":"restaurant"}]},{"lat":"37.74515416","long":"127.05509619","imageIndex":4,"items":[{"name":"cafe-holic(카페홀릭)","tel":"070-8785-7142","addr":"경기도 의정부시 금오동 369-21번지 1층","indutype":"일반휴게음식 - 서양음식","category":"restaurant"},{"name":"쎌란","tel":"","addr":"경기도 의정부시 금오동 369-21번지 1층","indutype":"일반휴게음식 - 서양음식","category":"restaurant"},{"name":"토스테리아","tel":"","addr":"경기도 의정부시 금오동 369-21번지 의정부시외터미널","indutype":"일반휴게음식 - 서양음식","category":"restaurant"}]},{"lat":"37.753516923","long":"127.06922942","imageIndex":4,"items":[{"name":"가산영양탕","tel":"031-841-2170","addr":"경기도 의정부시 금오동 446-18번지","indutype":"일반휴게음식 - 일반한식","category":"restaurant"}]},{"lat":"37.75635038","long":"127.07686896","imageIndex":4,"items":[{"name":"가을이네생고기전문점","tel":"031-848-3443","addr":"경기도 의정부시 금오동 454-2번지","indutype":"일반휴게음식 - 일반한식","category":"restaurant"}]},{"lat":"37.751264378","long":"127.06951108","imageIndex":4,"items":[{"name":"가장맛있는족발","tel":"031-853-5849","addr":"경기도 의정부시 금오동 473-4번지 프레티넘프라자116,117호 116호","indutype":"일반휴게음식 - 일반한식","category":"restaurant"},{"name":"메가엠지씨커피 의정부금오점","tel":"","addr":"경기도 의정부시 금오동 473-4번지 프레티넘프라자2 1층 105호","indutype":"일반휴게음식 - 서양음식","category":"restaurant"},{"name":"미스사이공 의정부금오점","tel":"031-851-4420","addr":"경기도 의정부시 금오동 473-4번지 1층 106 호플래티넘프라자2","indutype":"일반휴게음식 - 서양음식","category":"restaurant"},{"name":"비비스커피(금오점)","tel":"","addr":"경기도 의정부시 금오동 473-4번지 프레티넘프라자2 1층 107호","indutype":"일반휴게음식 - 서양음식","category":"restaurant"},{"name":"싱싱오징어바다","tel":"031-851-0788","addr":"경기도 의정부시 금오동 473-4번지 프레티넘프라자2 1층 113호, 114호","indutype":"일반휴게음식 - 일반한식","category":"restaurant"},{"name":"앗싸곱창","tel":"031-852-0407","addr":"경기도 의정부시 금오동 473-4번지 프레티넘프라자2 118호","indutype":"일반휴게음식 - 일반한식","category":"restaurant"},{"name":"엉터리생고기","tel":"031-853-3375","addr":"경기도 의정부시 금오동 473-4번지 프레티넘프라자2 205호","indutype":"일반휴게음식 - 일반한식","category":"restaurant"},{"name":"이디야 금오동점","tel":"031-851-1464","addr":"경기도 의정부시 금오동 473-4번지 109 플레티넘프라자2","indutype":"일반휴게음식 - 서양음식","category":"restaurant"},{"name":"조경제 만두쟁이","tel":"031-852-0235","addr":"경기도 의정부시 금오동 473-4번지 2층 201,202호","indutype":"일반휴게음식 - 일반한식","category":"restaurant"},{"name":"프랭크서울금오점","tel":"031-851-1566","addr":"경기도 의정부시 금오동 473-4번지 프레티넘프라자2 104호","indutype":"일반휴게음식 - 서양음식","category":"restaurant"},{"name":"피자스쿨의정부금오","tel":"031-853-9295","addr":"경기도 의정부시 금오동 473-4번지 플래티넘프라자 103호","indutype":"일반휴게음식 - 서양음식","category":"restaurant"},{"name":"홍가래떡볶이","tel":"031-851-0250","addr":"경기도 의정부시 금오동 473-4번지 프레티넘프라자2 108호","indutype":"일반휴게음식 - 일반한식","category":"restaurant"}]},{"lat":"37.756206625","long":"127.07623334","imageIndex":4,"items":[{"name":"강정구의 피자생각","tel":"031-840-8599","addr":"경기도 의정부시 금오동 453-2번지 태원빌딩 1층","indutype":"일반휴게음식 - 서양음식","category":"restaurant"},{"name":"태백물닭갈비","tel":"031-821-6733","addr":"경기도 의정부시 금오동 453-2번지 태원빌딩 103호","indutype":"일반휴게음식 - 일반한식","category":"restaurant"}]},{"lat":"37.752156303","long":"127.06954592","imageIndex":4,"items":[{"name":"강촌화로숯불구이","tel":"031-852-1292","addr":"경기도 의정부시 금오동 473-1번지 플래티넘1차 1층 109호","indutype":"일반휴게음식 - 일반한식","category":"restaurant"},{"name":"김밥천국","tel":"031-852-1186","addr":"경기도 의정부시 금오동 473-1번지 플래티넘프라자-1 1층 101호","indutype":"일반휴게음식 - 일반한식","category":"restaurant"},{"name":"쉼터","tel":"031-111-1111","addr":"경기도 의정부시 금오동 473-1번지 플래티넘프라자 203호","indutype":"일반휴게음식 - 일반한식","category":"restaurant"},{"name":"이삭토스트","tel":"031-851-1040","addr":"경기도 의정부시 금오동 473-1번지 플래티넘프라자 107호","indutype":"일반휴게음식 - 스넥","category":"restaurant"},{"name":"투썸플레이스 금오점","tel":"031-853-0836","addr":"경기도 의정부시 금오동 473-1번지 플래티넘프라자 2층 201호","indutype":"일반휴게음식 - 서양음식","category":"restaurant"},{"name":"펀비어킹","tel":"","addr":"경기도 의정부시 금오동 473-1번지 1층 110,111호","indutype":"일반휴게음식 - 스넥","category":"restaurant"}]},{"lat":"37.75218243","long":"127.05320617","imageIndex":4,"items":[{"name":"경은학교(예그리나)","tel":"031-575-3822","addr":"경기도 의정부시 금오동 431-1번지 경기도북부청사 1층","indutype":"일반휴게음식 - 서양음식","category":"restaurant"}]},{"lat":"37.752400185","long":"127.06843413","imageIndex":4,"items":[{"name":"계륵장군","tel":"031-852-8001","addr":"경기도 의정부시 금오동 470-2번지 로얄프라자빌딩 104호","indutype":"일반휴게음식 - 일반한식","category":"restaurant"},{"name":"궁가 숯불돼지갈비","tel":"031-852-5592","addr":"경기도 의정부시 금오동 470-2번지 로얄프라자빌딩 115호","indutype":"일반휴게음식 - 일반한식","category":"restaurant"},{"name":"돈 세겹살","tel":"031-853-6239","addr":"경기도 의정부시 금오동 470-2번지 로얄프라자빌딩 1층 116호","indutype":"일반휴게음식 - 일반한식","category":"restaurant"},{"name":"맘스터치 의정부금오지구점","tel":"031-851-8510","addr":"경기도 의정부시 금오동 470-2번지 로얄플라자빌딩 1층 117호","indutype":"일반휴게음식 - 서양음식","category":"restaurant"},{"name":"썸","tel":"","addr":"경기도 의정부시 금오동 470-2번지 로얄플라자빌딩 3층 310호","indutype":"일반휴게음식 - 칵테일바","category":"restaurant"},{"name":"아레나볼링장","tel":"031-851-2131","addr":"경기도 의정부시 금오동 470-2번지 로얄프라자빌딩 4층 401호","indutype":"일반휴게음식 - 일반한식","category":"restaurant"},{"name":"오븐마루 금오점","tel":"031-851-0392","addr":"경기도 의정부시 금오동 470-2번지 로얄프라자빌딩 119호","indutype":"일반휴게음식 - 일반한식","category":"restaurant"},{"name":"원당감자탕","tel":"031-851-1789","addr":"경기도 의정부시 금오동 470-2번지 외1필지 로얄프라자 111호 112호","indutype":"일반휴게음식 - 일반한식","category":"restaurant"},{"name":"웰빙 전주콩나물 해장국","tel":"031-851-8785","addr":"경기도 의정부시 금오동 470-2번지 로얄프라자빌딩 1층 108호 ,109,110호","indutype":"일반휴게음식 - 일반한식","category":"restaurant"},{"name":"육설도 금오점","tel":"031-852-8584","addr":"경기도 의정부시 금오동 470-2번지 로얄플라자빌딩 1층 113A호","indutype":"일반휴게음식 - 일반한식","category":"restaurant"},{"name":"자갈치 산곰장어","tel":"031-851-0014","addr":"경기도 의정부시 금오동 470-2번지 로얄프라자 103호","indutype":"일반휴게음식 - 일반한식","category":"restaurant"},{"name":"차돌풍 금오점","tel":"031-853-5454","addr":"경기도 의정부시 금오동 470-2번지 로얄플라자빌딩 1층 113B호","indutype":"일반휴게음식 - 일반한식","category":"restaurant"},{"name":"카페 비 (cafe bee)","tel":"02-0000-0000","addr":"경기도 의정부시 금오동 470-2번지 로얄프라자빌딩 1층 107호","indutype":"일반휴게음식 - 서양음식","category":"restaurant"},{"name":"하남돼지집(의정부금오점)","tel":"031-853-8254","addr":"경기도 의정부시 금오동 470-2번지 101,102호","indutype":"일반휴게음식 - 일반한식","category":"restaurant"}]},{"lat":"37.75237774","long":"127.05959472","imageIndex":4,"items":[{"name":"고냉고떡&통큰찜닭","tel":"031-928-1010","addr":"경기도 의정부시 금오동 284번지 1층","indutype":"일반휴게음식 - 일반한식","category":"restaurant"},{"name":"네네치킨","tel":"031-847-9670","addr":"경기도 의정부시 금오동 284번지 1층","indutype":"일반휴게음식 - 스넥","category":"restaurant"}]},{"lat":"37.751570824","long":"127.06929577","imageIndex":4,"items":[{"name":"고려왕족발","tel":"031-853-5300","addr":"경기도 의정부시 금오동 472-5번지 그린타워 105호","indutype":"일반휴게음식 - 일반한식","category":"restaurant"},{"name":"산카이(금오점)","tel":"031-852-0224","addr":"경기도 의정부시 금오동 472-5번지 1층 106호","indutype":"일반휴게음식 - 주점","category":"restaurant"},{"name":"수유리우동집(금오점)","tel":"031-852-7773","addr":"경기도 의정부시 금오동 472-5번지 그린타워 101호","indutype":"일반휴게음식 - 일반한식","category":"restaurant"},{"name":"투다리금오점","tel":"031-851-2284","addr":"경기도 의정부시 금오동 472-5번지 그린타워 1층 107호","indutype":"일반휴게음식 - 주점","category":"restaurant"}]},{"lat":"37.752039607","long":"127.06878557","imageIndex":4,"items":[{"name":"광어생각","tel":"031-852-6606","addr":"경기도 의정부시 금오동 472-1번지 외1필지 골드피아 106호","indutype":"일반휴게음식 - 일반한식","category":"restaurant"},{"name":"뚱'S 김밥","tel":"031-853-5982","addr":"경기도 의정부시 금오동 472-1번지 골드피아 113호","indutype":"일반휴게음식 - 스넥","category":"restaurant"},{"name":"베트남 노상식당","tel":"031-853-8507","addr":"경기도 의정부시 금오동 472-1번지 101,102호","indutype":"일반휴게음식 - 서양음식","category":"restaurant"},{"name":"본죽","tel":"031-852-3288","addr":"경기도 의정부시 금오동 472-1번지 골드프라자 104호","indutype":"일반휴게음식 - 일반한식","category":"restaurant"},{"name":"서해낙지","tel":"031-851-3683","addr":"경기도 의정부시 금오동 472-1번지 골드피아 202호","indutype":"일반휴게음식 - 일반한식","category":"restaurant"},{"name":"이흥선참치","tel":"031-853-2112","addr":"경기도 의정부시 금오동 472-1번지 골드피아 103호","indutype":"일반휴게음식 - 일반한식","category":"restaurant"},{"name":"이흥선참치","tel":"031-853-2112","addr":"경기도 의정부시 금오동 472-1번지 외1필지 골드피아 103호","indutype":"일반휴게음식 - 일반한식","category":"restaurant"},{"name":"전주식당","tel":"031-851-5178","addr":"경기도 의정부시 금오동 472-1번지 골드피아 2층 203호","indutype":"일반휴게음식 - 일반한식","category":"restaurant"},{"name":"짝태&노가리","tel":"","addr":"경기도 의정부시 금오동 472-1번지 골드피아 105호","indutype":"일반휴게음식 - 주점","category":"restaurant"},{"name":"카스프라자","tel":"031-853-2277","addr":"경기도 의정부시 금오동 472-1번지","indutype":"일반휴게음식 - 주점","category":"restaurant"},{"name":"크림","tel":"070-4176-9931","addr":"경기도 의정부시 금오동 472-1번지 골드피아 404호","indutype":"일반휴게음식 - 일반한식","category":"restaurant"}]},{"lat":"37.75187695","long":"127.0696478","imageIndex":4,"items":[{"name":"구불리 옛날 왕만두","tel":"","addr":"경기도 의정부시 금오동 473-2번지 삼성프라자 105호","indutype":"일반휴게음식 - 일반한식","category":"restaurant"},{"name":"도도샤브","tel":"031-853-8883","addr":"경기도 의정부시 금오동 473-2번지 삼성프라자 11층 1101호","indutype":"일반휴게음식 - 일반한식","category":"restaurant"},{"name":"설빙금오점","tel":"031-852-3155","addr":"경기도 의정부시 금오동 473-2번지 삼성프라자 201호","indutype":"일반휴게음식 - 서양음식","category":"restaurant"},{"name":"송우리우동집","tel":"031-852-4900","addr":"경기도 의정부시 금오동 473-2번지 금오삼성플라자 111호","indutype":"일반휴게음식 - 스넥","category":"restaurant"},{"name":"카페루","tel":"02-000-0000","addr":"경기도 의정부시 금오동 473-2번지 삼성프라자 112호","indutype":"일반휴게음식 - 서양음식","category":"restaurant"}]},{"lat":"37.752346297","long":"127.06812771","imageIndex":4,"items":[{"name":"국제닥발집","tel":"","addr":"경기도 의정부시 금오동 470-1번지 파크프라자 107호","indutype":"일반휴게음식 - 일반한식","category":"restaurant"},{"name":"꼴통곱창","tel":"031-851-5754","addr":"경기도 의정부시 금오동 470-1번지 파크프라자 109호","indutype":"일반휴게음식 - 일반한식","category":"restaurant"},{"name":"노랑통닭","tel":"","addr":"경기도 의정부시 금오동 470-1번지 파크프라자 108호","indutype":"일반휴게음식 - 스넥","category":"restaurant"},{"name":"도시어부","tel":"031-111-1111","addr":"경기도 의정부시 금오동 470-1번지 파크프라자 1층 103호","indutype":"일반휴게음식 - 일반한식","category":"restaurant"},{"name":"돈곳간 금오동점","tel":"031-853-6001","addr":"경기도 의정부시 금오동 470-1번지 파크프라자 105, 106호","indutype":"일반휴게음식 - 일반한식","category":"restaurant"},{"name":"아날로그","tel":"031-851-8897","addr":"경기도 의정부시 금오동 470-1번지 파크프라자 1층 104호","indutype":"일반휴게음식 - 서양음식","category":"restaurant"},{"name":"여기오면+1","tel":"","addr":"경기도 의정부시 금오동 470-1번지 파크프라자 102호","indutype":"일반휴게음식 - 일반한식","category":"restaurant"},{"name":"잘빠진곱창","tel":"031-851-6564","addr":"경기도 의정부시 금오동 470-1번지 파크프라자 101호","indutype":"일반휴게음식 - 일반한식","category":"restaurant"}]},{"lat":"37.757703384","long":"127.07431702","imageIndex":4,"items":[{"name":"군산아구찜","tel":"031-821-2676","addr":"경기도 의정부시 금오동 80-19번지 이롬프라자 103호","indutype":"일반휴게음식 - 일반한식","category":"restaurant"},{"name":"비어앤쿡","tel":"031-848-4010","addr":"경기도 의정부시 금오동 80-19번지 이롬프라자 202호","indutype":"일반휴게음식 - 주점","category":"restaurant"},{"name":"왕십리불곱창","tel":"031-846-6618","addr":"경기도 의정부시 금오동 80-19번지 이롬프라자","indutype":"일반휴게음식 - 일반한식","category":"restaurant"},{"name":"우리집 밥상","tel":"031-823-8675","addr":"경기도 의정부시 금오동 80-19번지 이롬프라자 105-1호","indutype":"일반휴게음식 - 일반한식","category":"restaurant"}]},{"lat":"37.754346477","long":"127.06801599","imageIndex":4,"items":[{"name":"금성루","tel":"031-847-9229","addr":"경기도 의정부시 금오동 221-45번지 제1호1층","indutype":"일반휴게음식 - 중국식","category":"restaurant"}]},{"lat":"37.753733627","long":"127.06837857","imageIndex":4,"items":[{"name":"금오대가흑염소","tel":"031-846-5444","addr":"경기도 의정부시 금오동 445-5번지","indutype":"일반휴게음식 - 일반한식","category":"restaurant"}]},{"lat":"37.757433332","long":"127.07393094","imageIndex":4,"items":[{"name":"금오동숯불꼼장어","tel":"031-821-4054","addr":"경기도 의정부시 금오동 121-5","indutype":"일반휴게음식 - 일반한식","category":"restaurant"}]},{"lat":"37.752516973","long":"127.06903563","imageIndex":4,"items":[{"name":"금오마포숯불갈비","tel":"031-853-1236","addr":"경기도 의정부시 금오동 470-4번지 성산타워 101호, 102호","indutype":"일반휴게음식 - 일반한식","category":"restaurant"},{"name":"금오양꼬치","tel":"031-851-7773","addr":"경기도 의정부시 금오동 470-4번지 성산타워 104,105호","indutype":"일반휴게음식 - 중국식","category":"restaurant"},{"name":"꿀꿀이숯고기집","tel":"031-853-1236","addr":"경기도 의정부시 금오동 470-4번지 성산타워 101,102호","indutype":"일반휴게음식 - 일반한식","category":"restaurant"},{"name":"우리뜰","tel":"031-851-9988","addr":"경기도 의정부시 금오동 470-4번지 성산타워 103호","indutype":"일반휴게음식 - 일반한식","category":"restaurant"},{"name":"육회본가","tel":"031-853-6996","addr":"경기도 의정부시 금오동 470-4번지 성산타워 1층 111호","indutype":"일반휴게음식 - 일반한식","category":"restaurant"},{"name":"제이엠","tel":"031-851-0035","addr":"경기도 의정부시 금오동 470-4번지 성산타워","indutype":"일반휴게음식 - 서양음식","category":"restaurant"},{"name":"짬뽕마스터","tel":"031-823-5055","addr":"경기도 의정부시 금오동 470-4번지 성산타워 107호","indutype":"일반휴게음식 - 중국식","category":"restaurant"},{"name":"혼다라멘","tel":"031-852-0427","addr":"경기도 의정부시 금오동 470-4번지 성산타워 110호","indutype":"일반휴게음식 - 일반한식","category":"restaurant"}]},{"lat":"37.757982597","long":"127.07445347","imageIndex":4,"items":[{"name":"금오분식","tel":"031-847-1760","addr":"경기도 의정부시 금오동 80-26번지","indutype":"일반휴게음식 - 일반한식","category":"restaurant"}]},{"lat":"37.758287741","long":"127.07637157","imageIndex":4,"items":[{"name":"금오평화식당","tel":"031-847-8830","addr":"경기도 의정부시 금오동 65-3번지","indutype":"일반휴게음식 - 일반한식","category":"restaurant"}]},{"lat":"37.751346012","long":"127.06853532","imageIndex":4,"items":[{"name":"금오포차","tel":"","addr":"경기도 의정부시 금오동 471-3번지 한솔프라자 1층 113호","indutype":"일반휴게음식 - 일반한식","category":"restaurant"},{"name":"멕시카나 치킨","tel":"031-852-1090","addr":"경기도 의정부시 금오동 471-3번지 한솔프라자 1층 112호","indutype":"일반휴게음식 - 일반한식","category":"restaurant"},{"name":"모두랑즉석떡볶이","tel":"031-853-1085","addr":"경기도 의정부시 금오동 471-3번지 한솔프라자 103호","indutype":"일반휴게음식 - 스넥","category":"restaurant"},{"name":"불타는명태조림","tel":"031-853-3171","addr":"경기도 의정부시 금오동 471-3번지 110,111호","indutype":"일반휴게음식 - 일반한식","category":"restaurant"},{"name":"송식당","tel":"070-8954-1004","addr":"경기도 의정부시 금오동 471-3번지 한솔프라자 203호","indutype":"일반휴게음식 - 일반한식","category":"restaurant"},{"name":"짝태노가리야 금오점","tel":"031-853-9943","addr":"경기도 의정부시 금오동 471-3번지 한솔프라자 2층 204호","indutype":"일반휴게음식 - 일반한식","category":"restaurant"},{"name":"찜 혜화동","tel":"031-851-2657","addr":"경기도 의정부시 금오동 471-3번지 한솔프라자","indutype":"일반휴게음식 - 일반한식","category":"restaurant"},{"name":"황금성","tel":"031-851-0978","addr":"경기도 의정부시 금오동 471-3 한솔프라자104호105호","indutype":"일반휴게음식 - 중국식","category":"restaurant"}]},{"lat":"37.756539352","long":"127.07723227","imageIndex":4,"items":[{"name":"금짜장","tel":"031-821-9598","addr":"경기도 의정부시 금오동 455-1번지 외 1필지 1층","indutype":"일반휴게음식 - 중국식","category":"restaurant"},{"name":"둘이갈비탕","tel":"031-848-7700","addr":"경기도 의정부시 금오동 455-1번지 1층","indutype":"일반휴게음식 - 일반한식","category":"restaurant"}]},{"lat":"37.748459506","long":"127.05765148","imageIndex":4,"items":[{"name":"길목집포차","tel":"031-847-8205","addr":"경기도 의정부시 금오동 343-1번지 1층","indutype":"일반휴게음식 - 주점","category":"restaurant"},{"name":"삽(#)갓떡뽀끼","tel":"031-6937-1560","addr":"경기도 의정부시 금오동 343-1번지 1층 지상 1층","indutype":"일반휴게음식 - 스넥","category":"restaurant"},{"name":"와플친구","tel":"031-852-0808","addr":"경기도 의정부시 금오동 343-1번지 1층","indutype":"일반휴게음식 - 일반한식","category":"restaurant"},{"name":"진수식당","tel":"031-847-9522","addr":"경기도 의정부시 금오동 343-1","indutype":"일반휴게음식 - 일반한식","category":"restaurant"}]},{"lat":"37.751426377","long":"127.0698176","imageIndex":4,"items":[{"name":"김밥나라","tel":"02-358-3320","addr":"경기도 의정부시 금오동 473-3번지 신세계프라자 111호","indutype":"일반휴게음식 - 스넥","category":"restaurant"},{"name":"등촌칼국수","tel":"031-853-5954","addr":"경기도 의정부시 금오동 473-3번지 신세계프라자 2층 201호","indutype":"일반휴게음식 - 일반한식","category":"restaurant"},{"name":"코코호도금오점","tel":"031-853-5993","addr":"경기도 의정부시 금오동 473-3번지 신세계프라자 103호","indutype":"일반휴게음식 - 일반한식","category":"restaurant"},{"name":"포스트 하노이(Phost 하노이)","tel":"031-841-4785","addr":"경기도 의정부시 금오동 473-3번지 신세계프라자 203호","indutype":"일반휴게음식 - 서양음식","category":"restaurant"},{"name":"플래너돌잔치전문점","tel":"031-852-5531","addr":"경기도 의정부시 금오동 473-3번지 신세계프라자 1002동 10층 1003호","indutype":"일반휴게음식 - 일반한식","category":"restaurant"},{"name":"헐크","tel":"031-853-2880","addr":"경기도 의정부시 금오동 473-3번지 신세계프라자 1층 101호","indutype":"일반휴게음식 - 일반한식","category":"restaurant"},{"name":"흑돼지 삼백식당","tel":"031-852-5590","addr":"경기도 의정부시 금오동 473-3번지 신세계프라자 113호","indutype":"일반휴게음식 - 일반한식","category":"restaurant"}]},{"lat":"37.748739236","long":"127.05670992","imageIndex":4,"items":[{"name":"김밥천국","tel":"031-821-2544","addr":"경기도 의정부시 금오동 413-3번지 삼풍빌딩 106호","indutype":"일반휴게음식 - 스넥","category":"restaurant"},{"name":"돼지형삼겹살","tel":"031-846-0102","addr":"경기도 의정부시 금오동 413-3번지 삼풍빌딩 1층 110,111호","indutype":"일반휴게음식 - 일반한식","category":"restaurant"},{"name":"전설의치킨","tel":"031-841-9500","addr":"경기도 의정부시 금오동 413-3번지 삼풍빌딩 1층 109호","indutype":"일반휴게음식 - 스넥","category":"restaurant"},{"name":"참골순대국부대찌개","tel":"031-821-3600","addr":"경기도 의정부시 금오동 413-3.112.113.114","indutype":"일반휴게음식 - 일반한식","category":"restaurant"}]},{"lat":"37.754820854","long":"127.07345184","imageIndex":4,"items":[{"name":"깊은골","tel":"031-852-5289","addr":"경기도 의정부시 금오동 450-1번지 1층","indutype":"일반휴게음식 - 일반한식","category":"restaurant"}]},{"lat":"37.755319893","long":"127.0673133","imageIndex":4,"items":[{"name":"까미노","tel":"031-846-6618","addr":"경기도 의정부시 금오동 227-5번지 1층","indutype":"일반휴게음식 - 일반한식","category":"restaurant"}]},{"lat":"37.751598323","long":"127.06845611","imageIndex":4,"items":[{"name":"꼬치핀밤","tel":"070-7761-8512","addr":"경기도 의정부시 금오동 471-2번지 해피타워 106호","indutype":"일반휴게음식 - 일반한식","category":"restaurant"},{"name":"나리타 금오점","tel":"031-851-8222","addr":"경기도 의정부시 금오동 471-2번지 해피타워 101, 102호","indutype":"일반휴게음식 - 일식·회집","category":"restaurant"},{"name":"남촌 순두부","tel":"031-853-4188","addr":"경기도 의정부시 금오동 471-2번지 해피타워 104,105호","indutype":"일반휴게음식 - 일반한식","category":"restaurant"},{"name":"남해회집","tel":"031-853-6929","addr":"경기도 의정부시 금오동 471-2번지 해피타워,해피플러스III 103호","indutype":"일반휴게음식 - 일반한식","category":"restaurant"},{"name":"다찜","tel":"031-853-2572","addr":"경기도 의정부시 금오동 471-2번지 해피플러스 1층 104,105호","indutype":"일반휴게음식 - 일반한식","category":"restaurant"},{"name":"마리오 브라더스","tel":"031-851-5022","addr":"경기도 의정부시 금오동 471-2번지 해피타워 1층102호 해피플러스III","indutype":"일반휴게음식 - 일반한식","category":"restaurant"},{"name":"매일밥상","tel":"031-851-5045","addr":"경기도 의정부시 금오동 471-2번지 해피타워 113,114호","indutype":"일반휴게음식 - 일반한식","category":"restaurant"},{"name":"맥주몬스터","tel":"031-848-8422","addr":"경기도 의정부시 금오동 471-2번지 해피플러스III202,203호,신축공사","indutype":"일반휴게음식 - 주점","category":"restaurant"},{"name":"맹자네쌀떡볶이","tel":"031-871-7050","addr":"경기도 의정부시 금오동 471-2번지 해피타워 111호","indutype":"일반휴게음식 - 스넥","category":"restaurant"},{"name":"사계절 퓨전포차","tel":"","addr":"경기도 의정부시 금오동 471-2번지","indutype":"일반휴게음식 - 일반한식","category":"restaurant"},{"name":"이가왕갈비","tel":"031-853-4450","addr":"경기도 의정부시 금오동 471-2번지 해피플러스 202동 201호","indutype":"일반휴게음식 - 일반한식","category":"restaurant"},{"name":"이가왕갈비","tel":"031-853-4450","addr":"경기도 의정부시 금오동 471-2번지 해피플러스 201호","indutype":"일반휴게음식 - 일반한식","category":"restaurant"},{"name":"제이제이팝","tel":"031-825-7049","addr":"경기도 의정부시 금오동 471-2번지 해피플러스 111동 206호","indutype":"일반휴게음식 - 일반한식","category":"restaurant"},{"name":"차우리","tel":"031-853-2516","addr":"경기도 의정부시 금오동 471-2번지 101호 , 해피플러스III","indutype":"일반휴게음식 - 스넥","category":"restaurant"},{"name":"커피에반하다","tel":"070-7609-9872","addr":"경기도 의정부시 금오동 471-2번지 해피타워 1층 106-1호","indutype":"일반휴게음식 - 서양음식","category":"restaurant"},{"name":"콤마","tel":"031-851-5998","addr":"경기도 의정부시 금오동 471-2번지 해피타워 1층 114,115호","indutype":"일반휴게음식 - 일반한식","category":"restaurant"}]},{"lat":"37.751205987","long":"127.06064909","imageIndex":4,"items":[{"name":"꽃동네봉이네","tel":"031-847-2809","addr":"경기도 의정부시 금오동 300-24번지","indutype":"일반휴게음식 - 일반한식","category":"restaurant"}]},{"lat":"37.753513062","long":"127.05934594","imageIndex":4,"items":[{"name":"꽃동네식당","tel":"031-846-1966","addr":"경기도 의정부시 금오동 280-8번지","indutype":"일반휴게음식 - 일반한식","category":"restaurant"}]},{"lat":"37.756926517","long":"127.07761848","imageIndex":4,"items":[{"name":"꿀꿀구이구이","tel":"031-846-6114","addr":"경기도 의정부시 금오동 116번지","indutype":"일반휴게음식 - 일반한식","category":"restaurant"},{"name":"스시힐","tel":"031-846-9969","addr":"경기도 의정부시 금오동 116번지 1층","indutype":"일반휴게음식 - 일식·회집","category":"restaurant"}]},{"lat":"37.75409361","long":"127.06909377","imageIndex":4,"items":[{"name":"나주댁이 운영하는 평창생고기","tel":"031-848-3057","addr":"경기도 의정부시 금오동 446-5번지 1층","indutype":"일반휴게음식 - 일반한식","category":"restaurant"}]},{"lat":"37.76031523","long":"127.07581751","imageIndex":4,"items":[{"name":"다온","tel":"031-111-1111","addr":"경기도 의정부시 금오동 76-1번지","indutype":"일반휴게음식 - 일반한식","category":"restaurant"}]},{"lat":"37.746622682","long":"127.05517665","imageIndex":4,"items":[{"name":"닥치고치킨","tel":"031-848-5121","addr":"경기도 의정부시 금오동 370번지 금오동신도브래뉴1차 상가 1층 102호","indutype":"일반휴게음식 - 일반한식","category":"restaurant"}]},{"lat":"37.750872439","long":"127.06104597","imageIndex":4,"items":[{"name":"달밤","tel":"070-997-9970","addr":"경기도 의정부시 금오동 314-8번지 1층","indutype":"일반휴게음식 - 주점","category":"restaurant"}]},{"lat":"37.751093681","long":"127.06864857","imageIndex":4,"items":[{"name":"달인참치","tel":"031-851-3300","addr":"경기도 의정부시 금오동 471-4번지 현대프라자 111호","indutype":"일반휴게음식 - 일식·회집","category":"restaurant"},{"name":"닭이봉","tel":"031-852-5709","addr":"경기도 의정부시 금오동 471-4번지 현대프라자 113호","indutype":"일반휴게음식 - 일반한식","category":"restaurant"},{"name":"소호커피","tel":"070-3251-5844","addr":"경기도 의정부시 금오동 471-4번지 현대프라자 102호","indutype":"일반휴게음식 - 서양음식","category":"restaurant"},{"name":"옛날장터 순대국","tel":"031-853-5505","addr":"경기도 의정부시 금오동 471-4번지 현대프라자 101호","indutype":"일반휴게음식 - 일반한식","category":"restaurant"}]},{"lat":"37.755541412","long":"127.07379296","imageIndex":4,"items":[{"name":"대대박 흑염소집","tel":"031-821-7737","addr":"경기도 의정부시 금오동 449-12번지 1층","indutype":"일반휴게음식 - 일반한식","category":"restaurant"}]},{"lat":"37.749515518","long":"127.0534086","imageIndex":4,"items":[{"name":"더돈","tel":"031-848-0486","addr":"경기도 의정부시 금오동 391-9번지","indutype":"일반휴게음식 - 일반한식","category":"restaurant"}]},{"lat":"37.75737632","long":"127.07867429","imageIndex":4,"items":[{"name":"더카페문(The cafe moon)","tel":"070-4656-3007","addr":"경기도 의정부시 금오동 60-12번지 1,2층","indutype":"일반휴게음식 - 서양음식","category":"restaurant"}]},{"lat":"37.752732585","long":"127.07012515","imageIndex":4,"items":[{"name":"덜단","tel":"","addr":"경기도 의정부시 금오동 474-1번지 금오플러스빌딩 1층 103호","indutype":"일반휴게음식 - 서양음식","category":"restaurant"},{"name":"유라컴퍼니(Yura Company)","tel":"070-5103-7580","addr":"경기도 의정부시 금오동 474-1번지 금오플러스빌딩 6층 603호","indutype":"일반휴게음식 - 일반한식","category":"restaurant"},{"name":"홍루이젠 의정부금오점","tel":"031-853-1711","addr":"경기도 의정부시 금오동 474-1번지 금오플러스빌딩 1층 106호","indutype":"일반휴게음식 - 서양음식","category":"restaurant"}]},{"lat":"37.756901467","long":"127.07442973","imageIndex":4,"items":[{"name":"돈까스전문점 포포","tel":"031-847-7666","addr":"경기도 의정부시 금오동 131-54번지 1층","indutype":"일반휴게음식 - 일반한식","category":"restaurant"}]},{"lat":"37.752903402","long":"127.07076074","imageIndex":4,"items":[{"name":"동해회센타","tel":"031-841-5501","addr":"경기도 의정부시 금오동 474-3번지 1층 117호 116호세하메디칼스타","indutype":"일반휴게음식 - 일식·회집","category":"restaurant"},{"name":"어참치","tel":"031-853-7779","addr":"경기도 의정부시 금오동 474-3번지 세하메디칼스타 1층 112호","indutype":"일반휴게음식 - 일반한식","category":"restaurant"},{"name":"참맛닭강정/늘푸른농수산주식회사","tel":"031-000-0000","addr":"경기도 의정부시 금오동 474-3번지 1층 세하메디칼스타 114호","indutype":"일반휴게음식 - 일반한식","category":"restaurant"},{"name":"할리스커피의정부금오점","tel":"031-853-0612","addr":"경기도 의정부시 금오동 474-3번지 세하메디칼스타 제1층101,102호","indutype":"일반휴게음식 - 서양음식","category":"restaurant"}]},{"lat":"37.7478208","long":"127.05551788","imageIndex":4,"items":[{"name":"또래오래","tel":"031-842-9992","addr":"경기도 의정부시 금오동 344-17번지 금오주공2차 상가 B동 110호","indutype":"일반휴게음식 - 주점","category":"restaurant"},{"name":"스시돈보","tel":"031-844-7454","addr":"경기도 의정부시 금오동 344-17번지 금오2차 신도브래뉴얼 상가B동 102호,103호","indutype":"일반휴게음식 - 일식·회집","category":"restaurant"},{"name":"아리아리 치킨호프","tel":"031-846-3550","addr":"경기도 의정부시 금오동 344-17번지 금오2차 신도브래뉴업 상가A동 1층 109,110호","indutype":"일반휴게음식 - 일반한식","category":"restaurant"},{"name":"주니네닭볶음탕","tel":"031-840-7001","addr":"경기도 의정부시 금오동 344-17번지 금오2차신도브래뉴업 상가 B동 106호","indutype":"일반휴게음식 - 일반한식","category":"restaurant"}]},{"lat":"37.753599996","long":"127.06559836","imageIndex":4,"items":[{"name":"뚝배영양탕","tel":"031-837-2111","addr":"경기도 의정부시 금오동 238-9번지","indutype":"일반휴게음식 - 일반한식","category":"restaurant"}]},{"lat":"37.750287147","long":"127.06037605","imageIndex":4,"items":[{"name":"만원포차","tel":"031-318-4813","addr":"경기도 의정부시 금오동 336-1번지 1층","indutype":"일반휴게음식 - 일반한식","category":"restaurant"}]},{"lat":"37.754982602","long":"127.07415554","imageIndex":4,"items":[{"name":"만터부대찌개","tel":"031-875-3938","addr":"경기도 의정부시 금오동 450-8번지 1층","indutype":"일반휴게음식 - 일반한식","category":"restaurant"}]},{"lat":"37.750568215","long":"127.05662047","imageIndex":4,"items":[{"name":"맛나포장마차","tel":"031-848-8963","addr":"경기도 의정부시 금오동 420-42번지","indutype":"일반휴게음식 - 주점","category":"restaurant"}]},{"lat":"37.747738275","long":"127.05864943","imageIndex":4,"items":[{"name":"명륜진사갈비","tel":"031-853-6736","addr":"경기도 의정부시 금오동 463-1번지","indutype":"일반휴게음식 - 일반한식","category":"restaurant"}]},{"lat":"37.755622348","long":"127.07404268","imageIndex":4,"items":[{"name":"미락","tel":"031-825-8040","addr":"경기도 의정부시 금오동 449-14번지 새로와빌딩 1층","indutype":"일반휴게음식 - 일반한식","category":"restaurant"}]},{"lat":"37.753760441","long":"127.0687644","imageIndex":4,"items":[{"name":"밀타작","tel":"031-826-8761","addr":"경기도 의정부시 금오동 446-13번지","indutype":"일반휴게음식 - 일반한식","category":"restaurant"}]},{"lat":"37.748764935","long":"127.05954658","imageIndex":4,"items":[{"name":"바우네나주곰탕","tel":"02-000-0000","addr":"경기도 의정부시 금오동 463-7번지 골드빌딩 1층","indutype":"일반휴게음식 - 일반한식","category":"restaurant"}]},{"lat":"37.755207827","long":"127.07417845","imageIndex":4,"items":[{"name":"밥이조아","tel":"031-851-7181","addr":"경기도 의정부시 금오동 449-19번지","indutype":"일반휴게음식 - 일반한식","category":"restaurant"}]},{"lat":"37.757763708","long":"127.07870873","imageIndex":4,"items":[{"name":"본죽의정부성모병원점","tel":"031-848-6288","addr":"경기도 의정부시 금오동 62-4번지 1층","indutype":"일반휴게음식 - 일반한식","category":"restaurant"},{"name":"파머스빌리지 금오성모병원점","tel":"031-848-5603","addr":"경기도 의정부시 금오동 62-4번지 1,2층","indutype":"일반휴게음식 - 일반한식","category":"restaurant"}]},{"lat":"37.757397559","long":"127.07348833","imageIndex":4,"items":[{"name":"본향","tel":"031-821-2399","addr":"경기도 의정부시 금오동 121-21번지","indutype":"일반휴게음식 - 일반한식","category":"restaurant"}]},{"lat":"37.750819747","long":"127.05820921","imageIndex":4,"items":[{"name":"사과나무","tel":"","addr":"경기도 의정부시 금오동 286-90번지","indutype":"일반휴게음식 - 서양음식","category":"restaurant"}]},{"lat":"37.749872978","long":"127.05981974","imageIndex":4,"items":[{"name":"산정식당","tel":"031-847-8210","addr":"경기도 의정부시 금오동 337-1번지","indutype":"일반휴게음식 - 일반한식","category":"restaurant"}]},{"lat":"37.756207395","long":"127.0749851","imageIndex":4,"items":[{"name":"서울초밥","tel":"031-841-8880","addr":"경기도 의정부시 금오동 120-21번지 1층","indutype":"일반휴게음식 - 일식·회집","category":"restaurant"},{"name":"추원 원주추어탕","tel":"031-841-8520","addr":"경기도 의정부시 금오동 120-21번지 201호","indutype":"일반휴게음식 - 일반한식","category":"restaurant"}]},{"lat":"37.757433098","long":"127.07431676","imageIndex":4,"items":[{"name":"소양간 의정부금오점","tel":"031-847-9202","addr":"경기도 의정부시 금오동 121-25번지 1층","indutype":"일반휴게음식 - 일반한식","category":"restaurant"}]},{"lat":"37.75770992","long":"127.0782888","imageIndex":4,"items":[{"name":"솜씨","tel":"031-846-1170","addr":"경기도 의정부시 금오동 88-15번지 외1필지 1층","indutype":"일반휴게음식 - 일반한식","category":"restaurant"}]},{"lat":"37.749181564","long":"127.05479266","imageIndex":4,"items":[{"name":"쉼터식당","tel":"031-846-9655","addr":"경기도 의정부시 금오동 403-19번지","indutype":"일반휴게음식 - 일반한식","category":"restaurant"}]},{"lat":"37.748597421","long":"127.05132022","imageIndex":4,"items":[{"name":"시발곱창","tel":"","addr":"경기도 의정부시 금오동 437-7번지","indutype":"일반휴게음식 - 일반한식","category":"restaurant"}]},{"lat":"37.757988712","long":"127.07907209","imageIndex":4,"items":[{"name":"신화분식","tel":"031-841-2008","addr":"경기도 의정부시 금오동 61-3번지 1층","indutype":"일반휴게음식 - 일반한식","category":"restaurant"}]},{"lat":"37.750485129","long":"127.06084142","imageIndex":4,"items":[{"name":"싹쓸이 솥뚜껑 삼겹살 (금오동)","tel":"031-856-3312","addr":"경기도 의정부시 금오동 316-3번지 1층","indutype":"일반휴게음식 - 일반한식","category":"restaurant"}]},{"lat":"37.75135014","long":"127.0606492","imageIndex":4,"items":[{"name":"아이디얼 커피랩","tel":"","addr":"경기도 의정부시 금오동 297-7번지 1층","indutype":"일반휴게음식 - 서양음식","category":"restaurant"}]},{"lat":"37.74504591","long":"127.05540246","imageIndex":4,"items":[{"name":"엄마김밥","tel":"031-848-6681","addr":"경기도 의정부시 금오동 368-2번지 3호 (시외버스터미널)","indutype":"일반휴게음식 - 스넥","category":"restaurant"}]},{"lat":"37.750287646","long":"127.05934349","imageIndex":4,"items":[{"name":"옛날통닭","tel":"031-846-8990","addr":"경기도 의정부시 금오동 286-54번지 1층","indutype":"일반휴게음식 - 일반한식","category":"restaurant"}]},{"lat":"37.756982574","long":"127.07439576","imageIndex":4,"items":[{"name":"왕가네숯불구이","tel":"031-847-1725","addr":"경기도 의정부시 금오동 131-63번지","indutype":"일반휴게음식 - 일반한식","category":"restaurant"}]},{"lat":"37.748767004","long":"127.05506469","imageIndex":4,"items":[{"name":"우리국수잘하는집","tel":"031-821-0078","addr":"경기도 의정부시 금오동 411-9번지","indutype":"일반휴게음식 - 일반한식","category":"restaurant"},{"name":"우리국수잘하는집","tel":"031-821-0078","addr":"경기도 의정부시 금오동 411-9번지","indutype":"일반휴게음식 - 일반한식","category":"restaurant"}]},{"lat":"37.754377345","long":"127.06065155","imageIndex":4,"items":[{"name":"우인자 정드린치킨","tel":"031-847-7158","addr":"경기도 의정부시 금오동 253-1번지 금오2단지내 102호 상가","indutype":"일반휴게음식 - 스넥","category":"restaurant"}]},{"lat":"37.755235292","long":"127.07345224","imageIndex":4,"items":[{"name":"원두(1DO)","tel":"031-837-5600","addr":"경기도 의정부시 금오동 449-2번지 1층","indutype":"일반휴게음식 - 서양음식","category":"restaurant"}]},{"lat":"37.750432101","long":"127.05870818","imageIndex":4,"items":[{"name":"원조마산아구찜","tel":"031-847-7556","addr":"경기도 의정부시 금오동 286-108번지","indutype":"일반휴게음식 - 일반한식","category":"restaurant"}]},{"lat":"37.745676477","long":"127.05562983","imageIndex":4,"items":[{"name":"원조소머리국밥 본점","tel":"031-848-5092","addr":"경기도 의정부시 금오동 369-17번지","indutype":"일반휴게음식 - 일반한식","category":"restaurant"},{"name":"토속빈대떡","tel":"031-848-9244","addr":"경기도 의정부시 금오동 369-17번지","indutype":"일반휴게음식 - 일반한식","category":"restaurant"}]},{"lat":"37.751850375","long":"127.06884213","imageIndex":4,"items":[{"name":"육값식당","tel":"031-856-1171","addr":"경기도 의정부시 금오동 472-2번지 1층","indutype":"일반휴게음식 - 일반한식","category":"restaurant"}]},{"lat":"37.753041138","long":"127.06609717","imageIndex":4,"items":[{"name":"이동만두","tel":"031-1111-1111","addr":"경기도 의정부시 금오동 215-7번지 덕영빌딩 1층","indutype":"일반휴게음식 - 스넥","category":"restaurant"}]},{"lat":"37.756288362","long":"127.07517809","imageIndex":4,"items":[{"name":"이디야커피","tel":"031-841-1655","addr":"경기도 의정부시 금오동 120-25번지 1층","indutype":"일반휴게음식 - 서양음식","category":"restaurant"}]},{"lat":"37.752065384","long":"127.07098692","imageIndex":4,"items":[{"name":"이디야커피 의정부홈플러스점","tel":"","addr":"경기도 의정부시 금오동 475-1번지 1층","indutype":"일반휴게음식 - 서양음식","category":"restaurant"},{"name":"캐틀앤비 의정부홈플러스점","tel":"031-852-0406","addr":"경기도 의정부시 금오동 475-1번지 1층","indutype":"일반휴게음식 - 서양음식","category":"restaurant"}]},{"lat":"37.75812668","long":"127.07456709","imageIndex":4,"items":[{"name":"이모네식당","tel":"031-821-5118","addr":"경기도 의정부시 금오동 80-27번지","indutype":"일반휴게음식 - 일반한식","category":"restaurant"}]},{"lat":"37.747794864","long":"127.05301031","imageIndex":4,"items":[{"name":"이정숙돈줄삼겹살","tel":"031-821-3383","addr":"경기도 의정부시 금오동 380-76번지 1층","indutype":"일반휴게음식 - 일반한식","category":"restaurant"}]},{"lat":"37.752404621","long":"127.05990111","imageIndex":4,"items":[{"name":"이화족","tel":"070-8128-0523","addr":"경기도 의정부시 금오동 282-24번지","indutype":"일반휴게음식 - 일반한식","category":"restaurant"}]},{"lat":"37.748290176","long":"127.05350989","imageIndex":4,"items":[{"name":"장수순대국해장국","tel":"031-841-0884","addr":"경기도 의정부시 금오동 384-6번지","indutype":"일반휴게음식 - 일반한식","category":"restaurant"}]},{"lat":"37.756378185","long":"127.07562074","imageIndex":4,"items":[{"name":"전주식당","tel":"031-846-4354","addr":"경기도 의정부시 금오동 117-11","indutype":"일반휴게음식 - 일반한식","category":"restaurant"}]},{"lat":"37.753761528","long":"127.06678997","imageIndex":4,"items":[{"name":"정미네식당","tel":"031-846-5066","addr":"경기도 의정부시 금오동 229-33번지","indutype":"일반휴게음식 - 일반한식","category":"restaurant"}]},{"lat":"37.751516939","long":"127.06898935","imageIndex":4,"items":[{"name":"제주도새기","tel":"031-853-3370","addr":"경기도 의정부시 금오동 472-4번지 그린프라자 106호","indutype":"일반휴게음식 - 일반한식","category":"restaurant"},{"name":"족발야시장 금오점","tel":"031-846-3300","addr":"경기도 의정부시 금오동 472-4번지 그린프라자빌딩 1층 105호","indutype":"일반휴게음식 - 일반한식","category":"restaurant"},{"name":"종로빈대떡","tel":"031-853-3464","addr":"경기도 의정부시 금오동 472-4번지 그린프라자 104호","indutype":"일반휴게음식 - 일반한식","category":"restaurant"},{"name":"코코(COCO)","tel":"070-8260-3322","addr":"경기도 의정부시 금오동 472-4번지 그린프라자 2층 201호","indutype":"일반휴게음식 - 일반한식","category":"restaurant"},{"name":"히로","tel":"031-853-9289","addr":"경기도 의정부시 금오동 472-4번지 그린프라자 101~102호","indutype":"일반휴게음식 - 일반한식","category":"restaurant"}]},{"lat":"37.750738437","long":"127.05868572","imageIndex":4,"items":[{"name":"족엔보","tel":"","addr":"경기도 의정부시 금오동 286-86번지","indutype":"일반휴게음식 - 일반한식","category":"restaurant"}]},{"lat":"37.757234806","long":"127.07445275","imageIndex":4,"items":[{"name":"종로김밥","tel":"031-841-6005","addr":"경기도 의정부시 금오동 121-30번지","indutype":"일반휴게음식 - 일반한식","category":"restaurant"}]},{"lat":"37.750792665","long":"127.05832266","imageIndex":4,"items":[{"name":"중원","tel":"031-821-5700","addr":"경기도 의정부시 금오동 286-89번지 1층","indutype":"일반휴게음식 - 중국식","category":"restaurant"}]},{"lat":"37.749100332","long":"127.05512166","imageIndex":4,"items":[{"name":"진희식당","tel":"031-856-5818","addr":"경기도 의정부시 금오동 405-12번지 1층","indutype":"일반휴게음식 - 일반한식","category":"restaurant"}]},{"lat":"37.7501253","long":"127.05970647","imageIndex":4,"items":[{"name":"천보식당","tel":"031-846-0636","addr":"경기도 의정부시 금오동 286-3번지","indutype":"일반휴게음식 - 일반한식","category":"restaurant"}]},{"lat":"37.750540489","long":"127.05812958","imageIndex":4,"items":[{"name":"청평민물매운탕","tel":"031-847-0905","addr":"경기도 의정부시 금오동 285-23번지","indutype":"일반휴게음식 - 일반한식","category":"restaurant"}]},{"lat":"37.758321474","long":"127.07998027","imageIndex":4,"items":[{"name":"최원겸 명태,낙지","tel":"031-847-8899","addr":"경기도 의정부시 금오동 59-3번지 1층 전부","indutype":"일반휴게음식 - 일반한식","category":"restaurant"}]},{"lat":"37.749539244","long":"127.06060241","imageIndex":4,"items":[{"name":"커피에반하다 의정부호국로점","tel":"","addr":"경기도 의정부시 금오동 463-12번지 다우림프라자 101호","indutype":"일반휴게음식 - 서양음식","category":"restaurant"}]},{"lat":"37.748155352","long":"127.05276093","imageIndex":4,"items":[{"name":"콕치킨 강정","tel":"031-846-8272","addr":"경기도 의정부시 금오동 386-40번지 1층","indutype":"일반휴게음식 - 스넥","category":"restaurant"}]},{"lat":"37.749010086","long":"127.05546199","imageIndex":4,"items":[{"name":"큰집생고기","tel":"031-696-5047","addr":"경기도 의정부시 금오동 406-8번지 1층","indutype":"일반휴게음식 - 일반한식","category":"restaurant"}]},{"lat":"37.755397498","long":"127.07339565","imageIndex":4,"items":[{"name":"테디맘","tel":"031-848-4797","addr":"경기도 의정부시 금오동 449-1번지","indutype":"일반휴게음식 - 일반한식","category":"restaurant"}]},{"lat":"37.757126705","long":"127.07442995","imageIndex":4,"items":[{"name":"토크쇼","tel":"031-846-0209","addr":"경기도 의정부시 금오동 121-32번지","indutype":"일반휴게음식 - 서양음식","category":"restaurant"}]},{"lat":"37.754065278","long":"127.07137456","imageIndex":4,"items":[{"name":"티코(TICO)","tel":"031-861-0021","addr":"경기도 의정부시 금오동 447-8번지 2층","indutype":"일반휴게음식 - 서양음식","category":"restaurant"}]},{"lat":"37.756179106","long":"127.0770163","imageIndex":4,"items":[{"name":"파트너","tel":"031-848-3365","addr":"경기도 의정부시 금오동 454-3번지 1층 지상 1층","indutype":"일반휴게음식 - 일반한식","category":"restaurant"}]},{"lat":"37.749073218","long":"127.05531453","imageIndex":4,"items":[{"name":"페리카나치킨 금오점","tel":"031-821-8292","addr":"경기도 의정부시 금오동 405-14번지 1층","indutype":"일반휴게음식 - 스넥","category":"restaurant"}]},{"lat":"37.74957067","long":"127.05078756","imageIndex":4,"items":[{"name":"평남집","tel":"031-842-7927","addr":"경기도 의정부시 금오동 435-9번지","indutype":"일반휴게음식 - 일반한식","category":"restaurant"}]},{"lat":"37.755127158","long":"127.07348618","imageIndex":4,"items":[{"name":"푸짐이네밥상","tel":"031-846-5813","addr":"경기도 의정부시 금오동 449-3번지","indutype":"일반휴게음식 - 일반한식","category":"restaurant"}]},{"lat":"37.757819948","long":"127.07523632","imageIndex":4,"items":[{"name":"피쉬앤그릴","tel":"031-847-2819","addr":"경기도 의정부시 금오동 67-1 거성상가 104호","indutype":"일반휴게음식 - 주점","category":"restaurant"}]},{"lat":"37.756872683","long":"127.07726665","imageIndex":4,"items":[{"name":"한우미가곰탕","tel":"031-823-9771","addr":"경기도 의정부시 금오동 117-15번지 1층","indutype":"일반휴게음식 - 일반한식","category":"restaurant"}]},{"lat":"37.753986083","long":"127.06803837","imageIndex":4,"items":[{"name":"할매순대국(대객풍)","tel":"031-848-0036","addr":"경기도 의정부시 금오동 220-2번지 1층","indutype":"일반휴게음식 - 일반한식","category":"restaurant"}]},{"lat":"37.753985399","long":"127.06926388","imageIndex":4,"items":[{"name":"행복한밥상","tel":"031-847-9080","addr":"경기도 의정부시 금오동 446-8번지","indutype":"일반휴게음식 - 일반한식","category":"restaurant"}]},{"lat":"37.757565301","long":"127.07901492","imageIndex":4,"items":[{"name":"호산나분식","tel":"031-000-0000","addr":"경기도 의정부시 금오동 60-16번지 나동 1층","indutype":"일반휴게음식 - 스넥","category":"restaurant"}]},{"lat":"37.753815177","long":"127.06753894","imageIndex":4,"items":[{"name":"호식이두마리치킨","tel":"031-841-9299","addr":"경기도 의정부시 금오동 219-20번지 1층","indutype":"일반휴게음식 - 스넥","category":"restaurant"}]},{"lat":"37.750350604","long":"127.05957048","imageIndex":4,"items":[{"name":"호프타운","tel":"031-847-8726","addr":"경기도 의정부시 금오동 286-106번지 1층","indutype":"일반휴게음식 - 일반한식","category":"restaurant"}]},{"lat":"37.745793999","long":"127.05473357","imageIndex":4,"items":[{"name":"홍펍","tel":"031-847-8831","addr":"경기도 의정부시 금오동 380-27번지 1층","indutype":"일반휴게음식 - 일반한식","category":"restaurant"}]},{"lat":"37.752822492","long":"127.07045429","imageIndex":4,"items":[{"name":"화차마루","tel":"031-877-3601","addr":"경기도 의정부시 금오동 474-2번지 대송프라자 9층 3호","indutype":"일반휴게음식 - 서양음식","category":"restaurant"}]},{"lat":"37.755099945","long":"127.07379253","imageIndex":4,"items":[{"name":"황금돼지","tel":"031-841-5013","addr":"경기도 의정부시 금오동 449-6번지 1층","indutype":"일반휴게음식 - 일반한식","category":"restaurant"}]},{"lat":"37.748038599","long":"127.05187583","imageIndex":4,"items":[{"name":"황금복집","tel":"031-821-9474","addr":"경기도 의정부시 금오동 380-56번지","indutype":"일반휴게음식 - 일반한식","category":"restaurant"}]},{"lat":"37.757316091","long":"127.07412374","imageIndex":4,"items":[{"name":"횡성생고기","tel":"031-846-0606","addr":"경기도 의정부시 금오동 121-26번지","indutype":"일반휴게음식 - 일반한식","category":"restaurant"}]},{"lat":"37.757015668","long":"127.07909379","imageIndex":0,"items":[{"name":"(주)샤인마스터","tel":"","addr":"경기도 의정부시 금오동 458-5번지","indutype":"자동차정비 유지 - 세차장","category":"car"}]},{"lat":"37.748621339","long":"127.05837777","imageIndex":0,"items":[{"name":"3M카케어센타노이즈제로","tel":"031-848-8714","addr":"경기도 의정부시 금오동 348-14번지 현대아트홈","indutype":"자동차정비 유지 - 카인테리어","category":"car"}]},{"lat":"37.745433356","long":"127.05532331","imageIndex":0,"items":[{"name":"BF자동차매매상사","tel":"070-4603-4020","addr":"경기도 의정부시 금오동 369-3번지","indutype":"자동차판매 - 중고자동차판매","category":"car"}]},{"lat":"37.757565301","long":"127.07901492","imageIndex":0,"items":[{"name":"BT모터스","tel":"070-8872-3438","addr":"경기도 의정부시 금오동 60-16번지 나동","indutype":"자동차정비 유지 - 자동차부품","category":"car"}]},{"lat":"37.753985085","long":"127.0698199","imageIndex":0,"items":[{"name":"EDS금오셀프세차타운","tel":"031-821-2337","addr":"경기도 의정부시 금오동 447-1번지","indutype":"자동차정비 유지 - 세차장","category":"car"},{"name":"다나모터스","tel":"031-821-2337","addr":"경기도 의정부시 금오동 447-1번지","indutype":"자동차정비 유지 - 세차장","category":"car"}]},{"lat":"37.749235765","long":"127.05446365","imageIndex":0,"items":[{"name":"J.K바이크","tel":"070-7799-5282","addr":"경기도 의정부시 금오동 404-15번지","indutype":"자동차판매 - 이륜차판매","category":"car"}]},{"lat":"37.753373616","long":"127.06770876","imageIndex":0,"items":[{"name":"MK자동차외장관리","tel":"031-841-1522","addr":"경기도 의정부시 금오동 445-3번지 서측단층 1층 104호","indutype":"자동차정비 유지 - 자동차정비","category":"car"},{"name":"스마일오토카 카젠금오점","tel":"031-821-5189","addr":"경기도 의정부시 금오동 445-3번지 101호","indutype":"자동차정비 유지 - 자동차정비","category":"car"},{"name":"우리카시트용품","tel":"031-847-9225","addr":"경기도 의정부시 금오동 445-3번지 102동 103호","indutype":"자동차정비 유지 - 자동차부품","category":"car"},{"name":"한성상사","tel":"031-853-4664","addr":"경기도 의정부시 금오동 445-3번지 102호","indutype":"회원제형태 - 자동차서비스","category":"car"}]},{"lat":"37.757897294","long":"127.08109193","imageIndex":0,"items":[{"name":"T스테이션금오점","tel":"031-845-4446","addr":"경기도 의정부시 금오동 55-3번지","indutype":"자동차정비 유지 - 자동차시트·타이어","category":"car"}]},{"lat":"37.746180787","long":"127.05612941","imageIndex":0,"items":[{"name":"골든모터스","tel":"031-845-6677","addr":"경기도 의정부시 금오동 369-31번지","indutype":"자동차정비 유지 - 자동차정비","category":"car"},{"name":"의정부윤활유","tel":"031-842-3900","addr":"경기도 의정부시 금오동 369-31번지","indutype":"자동차정비 유지 - 자동차부품","category":"car"}]},{"lat":"37.749377758","long":"127.05918395","imageIndex":0,"items":[{"name":"그린24시셀프세차장","tel":"031-821-1112","addr":"경기도 의정부시 금오동 335-3번지","indutype":"자동차정비 유지 - 세차장","category":"car"}]},{"lat":"37.758234795","long":"127.07456719","imageIndex":0,"items":[{"name":"그린카서비스","tel":"031-847-3294","addr":"경기도 의정부시 금오동 80-23번지","indutype":"자동차정비 유지 - 자동차정비","category":"car"}]},{"lat":"37.755397498","long":"127.07339565","imageIndex":0,"items":[{"name":"금오자동차정비","tel":"031-846-9040","addr":"경기도 의정부시 금오동 449-1번지 서쪽상가 1층","indutype":"자동차정비 유지 - 자동차정비","category":"car"}]},{"lat":"37.75393304","long":"127.06617736","imageIndex":0,"items":[{"name":"금오적재함","tel":"031-847-4156","addr":"경기도 의정부시 금오동 212-3번지","indutype":"자동차정비 유지 - 자동차정비","category":"car"}]},{"lat":"37.753175531","long":"127.06748164","imageIndex":0,"items":[{"name":"금오점기아오토큐","tel":"031-847-7810","addr":"경기도 의정부시 금오동 445-10번지","indutype":"자동차정비 유지 - 자동차정비","category":"car"},{"name":"희망오토미션","tel":"031-848-9596","addr":"경기도 의정부시 금오동 445-10번지","indutype":"자동차정비 유지 - 자동차정비","category":"car"}]},{"lat":"37.753598009","long":"127.06922949","imageIndex":0,"items":[{"name":"금오중부점현대자동차","tel":"031-821-1514","addr":"경기도 의정부시 금오동 446-17번지","indutype":"자동차정비 유지 - 자동차정비","category":"car"}]},{"lat":"37.755232386","long":"127.07815011","imageIndex":0,"items":[{"name":"금오카독크","tel":"031-847-2020","addr":"경기도 의정부시 금오동 99-1번지","indutype":"자동차정비 유지 - 자동차정비","category":"car"}]},{"lat":"37.75167986","long":"127.04837201","imageIndex":0,"items":[{"name":"대원자동차유리","tel":"031-843-7287","addr":"경기도 의정부시 금오동 441","indutype":"자동차정비 유지 - 자동차부품","category":"car"},{"name":"신광","tel":"031-821-7282","addr":"경기도 의정부시 금오동 441번지 1층","indutype":"자동차정비 유지 - 카인테리어","category":"car"},{"name":"신도특수유","tel":"031-843-4613","addr":"경기도 의정부시 금오동 441번지","indutype":"자동차정비 유지 - 자동차부품","category":"car"},{"name":"오토코리아","tel":"031-846-6768","addr":"경기도 의정부시 금오동 441","indutype":"자동차정비 유지 - 자동차정비","category":"car"},{"name":"형제사","tel":"031-847-4025","addr":"경기도 의정부시 금오동 441번지","indutype":"자동차정비 유지 - 자동차시트·타이어","category":"car"}]},{"lat":"37.755512508","long":"127.07684543","imageIndex":0,"items":[{"name":"더좋은사람","tel":"","addr":"경기도 의정부시 금오동 454-10번지 세명그린빌 202호","indutype":"자동차정비 유지 - 자동차부품","category":"car"}]},{"lat":"37.753760289","long":"127.06903673","imageIndex":0,"items":[{"name":"동양자동차 공업사","tel":"031-111-1111","addr":"경기도 의정부시 금오동 446-15","indutype":"자동차정비 유지 - 세차장","category":"car"}]},{"lat":"37.757703384","long":"127.07431702","imageIndex":0,"items":[{"name":"동원모터스","tel":"031-847-0073","addr":"경기도 의정부시 금오동 80-19번지 이롬프라자 110호 109","indutype":"자동차정비 유지 - 자동차정비","category":"car"}]},{"lat":"37.752510107","long":"127.06509817","imageIndex":0,"items":[{"name":"동진상사","tel":"031-847-8133","addr":"경기도 의정부시 금오동 202-2번지","indutype":"자동차정비 유지 - 카인테리어","category":"car"}]},{"lat":"37.749065172","long":"127.05310194","imageIndex":0,"items":[{"name":"로얄자동차용품","tel":"031-847-4933","addr":"경기도 의정부시 금오동 388-14번지","indutype":"자동차정비 유지 - 카인테리어","category":"car"}]},{"lat":"37.750098603","long":"127.0590143","imageIndex":0,"items":[{"name":"로얄자동차전문정비","tel":"031-848-0709","addr":"경기도 의정부시 금오동 286-125번지","indutype":"자동차정비 유지 - 자동차정비","category":"car"}]},{"lat":"37.753319696","long":"127.06745908","imageIndex":0,"items":[{"name":"린스몰","tel":"070-7655-2800","addr":"경기도 의정부시 금오동 445-2번지","indutype":"회원제형태 - 자동차서비스","category":"car"}]},{"lat":"37.748209337","long":"127.05293117","imageIndex":0,"items":[{"name":"만도 블랙박스","tel":"031-840-8800","addr":"경기도 의정부시 금오동 386-54번지 1층","indutype":"자동차정비 유지 - 자동차부품","category":"car"}]},{"lat":"37.744767079","long":"127.05434709","imageIndex":0,"items":[{"name":"명문상사","tel":"031-846-9077","addr":"경기도 의정부시 금오동 369-11번지","indutype":"자동차정비 유지 - 자동차부품","category":"car"}]},{"lat":"37.748818647","long":"127.06026145","imageIndex":0,"items":[{"name":"모빌리언","tel":"031-838-7477","addr":"경기도 의정부시 금오동 465-2번지 1층","indutype":"자동차정비 유지 - 카인테리어","category":"car"}]},{"lat":"37.75012805","long":"127.05368134","imageIndex":0,"items":[{"name":"미라노이멕스 경기북부지사","tel":"","addr":"경기도 의정부시 금오동 396-5번지 2층 2호","indutype":"자동차정비 유지 - 자동차부품","category":"car"}]},{"lat":"37.749732804","long":"127.05087844","imageIndex":0,"items":[{"name":"보쉬카서비스 의정부점","tel":"031-826-3629","addr":"경기도 의정부시 금오동 435-3번지","indutype":"자동차정비 유지 - 자동차정비","category":"car"}]},{"lat":"37.748739236","long":"127.05670992","imageIndex":0,"items":[{"name":"상록수","tel":"031-841-2938","addr":"경기도 의정부시 금오동 413-3삼풍빌딩2층202~203호","indutype":"자동차정비 유지 - 자동차부품","category":"car"}]},{"lat":"37.749849099","long":"127.05287554","imageIndex":0,"items":[{"name":"스피드메이트금오사거리점","tel":"031-841-5131","addr":"경기도 의정부시 금오동 395-6번지","indutype":"자동차정비 유지 - 자동차정비","category":"car"}]},{"lat":"37.748233454","long":"127.05937597","imageIndex":0,"items":[{"name":"신곡점현대자동차","tel":"031-821-8204","addr":"경기도 의정부시 금오동 464-3번지","indutype":"자동차정비 유지 - 자동차정비","category":"car"}]},{"lat":"37.750845208","long":"127.06145443","imageIndex":0,"items":[{"name":"신세계타이어","tel":"031-821-0715","addr":"경기도 의정부시 금오동 319-3","indutype":"자동차정비 유지 - 자동차시트·타이어","category":"car"}]},{"lat":"37.752065384","long":"127.07098692","imageIndex":0,"items":[{"name":"에스카워쉬","tel":"070-4123-9018","addr":"경기도 의정부시 금오동 475-1번지 5층","indutype":"자동차정비 유지 - 세차장","category":"car"},{"name":"오토오아시스홈플러스의정부점","tel":"031-850-8099","addr":"경기도 의정부시 금오동 475-1번지 홈플러스 5층","indutype":"자동차정비 유지 - 자동차정비","category":"car"}]},{"lat":"37.750205978","long":"127.06054619","imageIndex":0,"items":[{"name":"예지상사","tel":"031-855-6261","addr":"경기도 의정부시 금오동 336-5번지 공주빌딩 1층","indutype":"자동차정비 유지 - 자동차부품","category":"car"},{"name":"의정부배터리할인마트","tel":"031-847-4748","addr":"경기도 의정부시 금오동 336-5번지 공주빌딩 1층","indutype":"자동차정비 유지 - 자동차부품","category":"car"}]},{"lat":"37.757231661","long":"127.07945714","imageIndex":0,"items":[{"name":"오렌지셀프세차타운","tel":"031-847-0877","addr":"경기도 의정부시 금오동 459-2 .3.4.5","indutype":"자동차정비 유지 - 세차장","category":"car"}]},{"lat":"37.75387766","long":"127.06859429","imageIndex":0,"items":[{"name":"오토케어세차장","tel":"031-846-8181","addr":"경기도 의정부시 금오동 446-1번지","indutype":"자동차정비 유지 - 세차장","category":"car"}]},{"lat":"37.751097266","long":"127.06187447","imageIndex":0,"items":[{"name":"올댓마이카","tel":"031-821-4239","addr":"경기도 의정부시 금오동 320-1번지","indutype":"자동차정비 유지 - 자동차부품","category":"car"}]},{"lat":"37.756124453","long":"127.07795811","imageIndex":0,"items":[{"name":"우리자동차공업사","tel":"031-846-5109","addr":"경기도 의정부시 금오동 457-7번지","indutype":"자동차정비 유지 - 자동차정비","category":"car"}]},{"lat":"37.748623612","long":"127.05331723","imageIndex":0,"items":[{"name":"우리차병원","tel":"031-856-4750","addr":"경기도 의정부시 금오동 384-3번지","indutype":"자동차정비 유지 - 자동차정비","category":"car"}]},{"lat":"37.750098041","long":"127.06018301","imageIndex":0,"items":[{"name":"워시존 의정부점","tel":"031-0000-0000","addr":"경기도 의정부시 금오동 336-4번지,332-1","indutype":"자동차정비 유지 - 세차장","category":"car"}]},