[{"lat":"37.855474176","long":"127.07407036","imageIndex":0,"items":[{"name":"(주)양주씨에이치모터스","tel":"031-862-0485","addr":"경기도 양주시 봉양동 579-6번지","indutype":"자동차정비 유지 - 자동차정비","category":"car"}]},{"lat":"37.854780578","long":"127.07386517","imageIndex":0,"items":[{"name":"JS모터스","tel":"031-857-4718","addr":"경기도 양주시 봉양동 629-5번지","indutype":"자동차정비 유지 - 자동차부품","category":"car"}]},{"lat":"37.850109666","long":"127.08029161","imageIndex":0,"items":[{"name":"가람모터스","tel":"031-1111-1111","addr":"경기도 양주시 봉양동 294-19번지","indutype":"자동차정비 유지 - 자동차정비","category":"car"}]},{"lat":"37.851197011","long":"127.0844286","imageIndex":0,"items":[{"name":"달구지공업사","tel":"031-858-4806","addr":"경기도 양주시 봉양동 261번지","indutype":"자동차정비 유지 - 자동차정비","category":"car"}]},{"lat":"37.86686027","long":"127.06084152","imageIndex":0,"items":[{"name":"대신라지에타","tel":"031-858-9881","addr":"경기도 양주시 봉양동 810-5번지","indutype":"자동차정비 유지 - 자동차부품","category":"car"}]},{"lat":"37.8692752","long":"127.05997967","imageIndex":0,"items":[{"name":"더타이어샵양주점","tel":"031-858-8528","addr":"경기도 양주시 봉양동 801-10","indutype":"자동차정비 유지 - 자동차시트·타이어","category":"car"}]},{"lat":"37.853246872","long":"127.07728382","imageIndex":0,"items":[{"name":"봉양자동차공업사","tel":"031-858-0006","addr":"경기도 양주시 봉양동 367-11번지","indutype":"자동차정비 유지 - 자동차정비","category":"car"}]},{"lat":"37.8491726","long":"127.08042698","imageIndex":0,"items":[{"name":"선진자동차정비","tel":"031-865-1233","addr":"경기도 양주시 봉양동 324-15번지","indutype":"자동차정비 유지 - 자동차정비","category":"car"}]},{"lat":"37.854059552","long":"127.07431898","imageIndex":0,"items":[{"name":"성원상사","tel":"031-858-1033","addr":"경기도 양주시 봉양동 627-3번지 629호","indutype":"자동차정비 유지 - 자동차부품","category":"car"}]},{"lat":"37.866166627","long":"127.06068187","imageIndex":0,"items":[{"name":"신원카센타","tel":"031-866-8943","addr":"경기도 양주시 봉양동 806-1번지","indutype":"자동차정비 유지 - 자동차정비","category":"car"}]},{"lat":"37.861086867","long":"127.0574847","imageIndex":0,"items":[{"name":"신천에너지","tel":"031-848-3434","addr":"경기도 양주시 봉양동 937-11","indutype":"자동차정비 유지 - 자동차시트·타이어","category":"car"}]},{"lat":"37.848748919","long":"127.08079011","imageIndex":0,"items":[{"name":"십이앤이십사브이 (12&24V)","tel":"031-858-8506","addr":"경기도 양주시 봉양동 302-8번지","indutype":"자동차정비 유지 - 자동차부품","category":"car"}]},{"lat":"37.862141372","long":"127.07364495","imageIndex":0,"items":[{"name":"조은","tel":"031-858-5058","addr":"경기도 양주시 봉양동 437-7번지","indutype":"자동차정비 유지 - 자동차부품","category":"car"}]},{"lat":"37.857969725","long":"127.0741523","imageIndex":0,"items":[{"name":"중앙카정비공업사","tel":"031-864-7987","addr":"경기도 양주시 봉양동 572-21번지","indutype":"자동차정비 유지 - 자동차정비","category":"car"}]},{"lat":"37.865191893","long":"127.06409042","imageIndex":0,"items":[{"name":"출장빵구신광타이어","tel":"031-859-8243","addr":"경기도 양주시 봉양동 755-3번지","indutype":"자동차정비 유지 - 자동차시트·타이어","category":"car"}]},{"lat":"37.869914942","long":"127.05982105","imageIndex":0,"items":[{"name":"타이어할인마트","tel":"031-858-8528","addr":"경기도 양주시 봉양동 801-6번지","indutype":"자동차정비 유지 - 자동차시트·타이어","category":"car"}]},{"lat":"37.867914665","long":"127.06022865","imageIndex":0,"items":[{"name":"토탈카오디오","tel":"031-865-8776","addr":"경기도 양주시 봉양동 804-2번지","indutype":"자동차정비 유지 - 카인테리어","category":"car"}]},{"lat":"37.858584998","long":"127.08400493","imageIndex":0,"items":[{"name":"합동상사","tel":"031-861-2241","addr":"경기도 양주시 봉양동 171-3번지","indutype":"자동차정비 유지 - 중장비수리","category":"car"}]},{"lat":"37.859808125","long":"127.05619967","imageIndex":0,"items":[{"name":"혜성 중고자동차","tel":"031-861-3666","addr":"경기도 양주시 봉양동 939-12번지 1층","indutype":"자동차판매 - 중고자동차판매","category":"car"}]}]