[{"lat":"37.67107311","long":"126.77362627","imageIndex":8,"items":[{"name":"경희참한약국","tel":"031-911-7306","addr":"경기도 고양시 일산동구 정발산동 1171-11번지","indutype":"약국 - 한약방","category":"medical"}]},{"lat":"37.673962524","long":"126.77690457","imageIndex":8,"items":[{"name":"김중기치과의원","tel":"031-911-2875","addr":"경기도 고양시 일산동구 정발산동 1138번지","indutype":"의원 - 치과의원","category":"medical"},{"name":"디에스비코리아","tel":"031-812-0035","addr":"경기도 고양시 일산동구 정발산동 1138번지","indutype":"약국 - 제약회사","category":"medical"},{"name":"밤가시연세소아청소년과의원","tel":"031-922-1517","addr":"경기도 고양시 일산동구 정발산동 1138번지","indutype":"의원 - 의원","category":"medical"},{"name":"유승약국","tel":"070-8860-3657","addr":"경기도 고양시 일산동구 정발산동 1138번지","indutype":"약국 - 약국","category":"medical"}]},{"lat":"37.673932881","long":"126.77554444","imageIndex":8,"items":[{"name":"녹원명문한의원","tel":"031-916-7982","addr":"경기도 고양시 일산동구 정발산동","indutype":"의원 - 한의원","category":"medical"}]},{"lat":"37.673540872","long":"126.77784666","imageIndex":8,"items":[{"name":"늘사랑가정의학과의원","tel":"031-919-7054","addr":"경기도 고양시 일산동구 정발산동 1137-1번지","indutype":"의원 - 의원","category":"medical"},{"name":"상비한의원","tel":"031-914-3365","addr":"경기도 고양시 일산동구 정발산동 1137-1번지","indutype":"의원 - 한의원","category":"medical"},{"name":"연세치과의원","tel":"031-921-6251","addr":"경기도 고양시 일산동구 정발산동 1137-1번지","indutype":"의원 - 치과의원","category":"medical"}]},{"lat":"37.672937229","long":"126.77784848","imageIndex":8,"items":[{"name":"동원요양병원","tel":"031-222-2222","addr":"경기도 고양시 일산동구 정발산동 1204-1번지","indutype":"병원 - 병원","category":"medical"}]},{"lat":"37.6734574","long":"126.77660005","imageIndex":8,"items":[{"name":"바로약국","tel":"031-919-3710","addr":"경기도 고양시 일산동구 정발산동 1146번지","indutype":"약국 - 약국","category":"medical"},{"name":"백이빈인후과","tel":"031-925-5075","addr":"경기도 고양시 일산동구 정발산동 1146번지","indutype":"의원 - 의원","category":"medical"}]},{"lat":"37.674097038","long":"126.77657544","imageIndex":8,"items":[{"name":"박종식한의원","tel":"031-912-1075","addr":"경기도 고양시 일산동구 정발산동 1139-2번지","indutype":"의원 - 한의원","category":"medical"}]},{"lat":"37.673269111","long":"126.7770767","imageIndex":8,"items":[{"name":"서울고려한의원","tel":"031-915-7661","addr":"경기도 고양시 일산동구 정발산동 1146-2번지","indutype":"의원 - 한의원","category":"medical"}]},{"lat":"37.670379107","long":"126.77349239","imageIndex":8,"items":[{"name":"연세닥터스치과의원","tel":"031-924-0506","addr":"경기도 고양시 일산동구 정발산동 1175-1번지","indutype":"의원 - 치과의원","category":"medical"},{"name":"이영도가정의학과의원","tel":"031-917-8281","addr":"경기도 고양시 일산동구 정발산동 1175-1번지","indutype":"의원 - 의원","category":"medical"}]},{"lat":"37.667487495","long":"126.78321465","imageIndex":8,"items":[{"name":"원광한의원","tel":"031-902-0017","addr":"경기도 고양시 일산동구 정발산동 1336-8번지","indutype":"의원 - 한의원","category":"medical"}]},{"lat":"37.663877149","long":"126.77042966","imageIndex":8,"items":[{"name":"위존한의원","tel":"031-816-7575","addr":"경기도 고양시 일산동구 정발산동 785번지","indutype":"의원 - 한의원","category":"medical"},{"name":"이성형외과의원","tel":"031-906-0033","addr":"경기도 고양시 일산동구 정발산동 785번지","indutype":"의원 - 의원","category":"medical"},{"name":"황순재마취통증의학과의원","tel":"031-901-1971","addr":"경기도 고양시 일산동구 정발산동 785번지","indutype":"의원 - 의원","category":"medical"}]},{"lat":"37.673630557","long":"126.77763102","imageIndex":8,"items":[{"name":"윤약국","tel":"031-913-0863","addr":"경기도 고양시 일산동구 정발산동 1137번지","indutype":"약국 - 약국","category":"medical"}]},{"lat":"37.669375552","long":"126.77635176","imageIndex":8,"items":[{"name":"이창훈동물병원","tel":"031-917-2300","addr":"경기도 고양시 일산동구 정발산동 1180-3번지","indutype":"기타의료기관 - 동물병원","category":"medical"}]},{"lat":"37.673017947","long":"126.77765554","imageIndex":8,"items":[{"name":"일산좋은치과의원","tel":"031-913-2876","addr":"경기도 고양시 일산동구 정발산동 1204번지","indutype":"의원 - 치과의원","category":"medical"}]},{"lat":"37.673627886","long":"126.77623681","imageIndex":8,"items":[{"name":"정발산경희한의원","tel":"031-915-1475","addr":"경기도 고양시 일산동구 정발산동 1145-3번지","indutype":"의원 - 한의원","category":"medical"}]},{"lat":"37.671185452","long":"126.78054009","imageIndex":8,"items":[{"name":"정은형치과의원","tel":"031-917-2876","addr":"경기도 고양시 일산동구 정발산동 1210-3번지","indutype":"의원 - 의원","category":"medical"}]}]