[{"lat":"36.95219265","long":"127.07931747","items":[{"name":"GS25평택노와리점","tel":"","addr":"경기도 평택시 팽성읍 노와리 153-295번지","category":"유통업 영리 - 편 의 점"}]},{"lat":"36.946697932","long":"127.08973016","items":[{"name":"노을목공방","tel":"031-691-8223","addr":"경기도 평택시 팽성읍 노와리 459-1번지 1층","category":"문화.취미 - 문화취미기타"},{"name":"대추리사람들협동조합","tel":"031-655-3179","addr":"경기도 평택시 팽성읍 노와리 459-1번지","category":"학원 - 기타 교육기관"}]},{"lat":"36.954551434","long":"127.08241865","items":[{"name":"다믈농장","tel":"","addr":"경기도 평택시 팽성읍 노와리 154-17번지","category":"음료식품 - 농·축·수산품"}]},{"lat":"36.954362058","long":"127.08264301","items":[{"name":"다믈농장","tel":"","addr":"경기도 평택시 팽성읍 노와리 154-16번지","category":"소매업 - 농산물"}]},{"lat":"36.952499124","long":"127.07914936","items":[{"name":"대성정비모터스","tel":"031-655-1207","addr":"경기도 평택시 팽성읍 노와리 153-299번지","category":"자동차정비 유지 - 자동차정비"}]},{"lat":"36.946698275","long":"127.08925865","items":[{"name":"대추리사람들협동조합","tel":"031-652-1900","addr":"경기도 평택시 팽성읍 노와리 455-12번지","category":"소매업 - 농산물"},{"name":"평택평화센터","tel":"031-658-0901","addr":"경기도 평택시 팽성읍 노와리 455-12","category":"학원 - 기타 교육기관"}]},{"lat":"36.952607684","long":"127.07847583","items":[{"name":"선희네 식당","tel":"031-1111-1111","addr":"경기도 평택시 팽성읍 노와리 153-11번지","category":"일반휴게음식 - 일반한식"},{"name":"씨스페이스행복마트점","tel":"031-654-2103","addr":"경기도 평택시 팽성읍 노와리 153-11번지","category":"유통업 영리 - 편 의 점"}]},{"lat":"36.951219132","long":"127.07986663","items":[{"name":"아름다운세상","tel":"031-666-5468","addr":"경기도 평택시 팽성읍 노와리 153-27","category":"유통업 영리 - 슈퍼마켓"}]},{"lat":"36.955973987","long":"127.08411554","items":[{"name":"아침에 드림농원","tel":"031-692-2003","addr":"경기도 평택시 팽성읍 노와리 155-28번지","category":"소매업 - 버섯"}]},{"lat":"36.953889418","long":"127.0885033","items":[{"name":"체리팜(진선농장)","tel":"","addr":"경기도 평택시 팽성읍 노와리 130-6번지","category":"음료식품 - 농·축·수산품"}]},{"lat":"36.955586162","long":"127.08464283","items":[{"name":"하트치킨프라자","tel":"","addr":"경기도 평택시 팽성읍 노와리 153-204번지","category":"소매업 - 주방용품"}]}]