[{"lat":"37.36258425","long":"126.94478187","imageIndex":17,"items":[{"name":"(사)군포시학원연합회","tel":"031-455-7100","addr":"경기도 군포시 금정동 761-1번지 주영빌딩 2층","indutype":"회원제형태 - 사무서비스","category":"other"},{"name":"군포기독예술원","tel":"070-7642-9191","addr":"경기도 군포시 금정동 761-1번지","indutype":"레져용품 - 악기점","category":"other"},{"name":"엔젤푸드(사랑빛드림)","tel":"070-8258-8272","addr":"경기도 군포시 금정동 761-1번지 105호","indutype":"건축자재 - 조명기구","category":"other"},{"name":"프로스포츠","tel":"031-455-1575","addr":"경기도 군포시 금정동 761-1번지","indutype":"레져용품 - 스포츠·레져용품","category":"other"}]},{"lat":"37.370665586","long":"126.94326286","imageIndex":17,"items":[{"name":"(사)한국식생활제과협회","tel":"031-396-2257","addr":"경기도 군포시 금정동 40-2번지 SH빌딩 2층","indutype":"기타 - 비영리/비대상","category":"other"}]},{"lat":"37.368667411","long":"126.94753171","imageIndex":17,"items":[{"name":"(재)한국기계전기전자시험연구원","tel":"031-428-7309","addr":"경기도 군포시 금정동 692-8번지","indutype":"용역 서비스 - 기타용역서비스","category":"other"}]},{"lat":"37.370414293","long":"126.94526127","imageIndex":17,"items":[{"name":"(주)공조이엔지","tel":"02-2679-8288","addr":"경기도 군포시 금정동 689-29번지","indutype":"전기제품 - 냉열기기","category":"other"}]},{"lat":"37.368172424","long":"126.94876257","imageIndex":17,"items":[{"name":"(주)광신기공","tel":"031-467-2440","addr":"경기도 군포시 금정동 693-22번지","indutype":"기타 - 기타 전문점","category":"other"},{"name":"(주)광신기공/원격지","tel":"031-477-2470","addr":"경기도 군포시 금정동 693-22번지","indutype":"기타 - 기타 전문점","category":"other"},{"name":"광명전기","tel":"02-1111-1111","addr":"경기도 군포시 금정동 693-22번지 A동 지하 일부","indutype":"용역 서비스 - 기타용역서비스","category":"other"},{"name":"다우","tel":"031-459-0688","addr":"경기도 군포시 금정동 693-22번지","indutype":"유통업 영리 - 기타유통업","category":"other"},{"name":"제이와이테크놀로지주식회사/원격지","tel":"031-427-2292","addr":"경기도 군포시 금정동 693-22번지 2층","indutype":"기타 - 기타 전문점","category":"other"}]},{"lat":"37.363248851","long":"126.94055955","imageIndex":17,"items":[{"name":"(주)광조명","tel":"031-397-6543","addr":"경기도 군포시 금정동 710-8번지 거성에이플타워 1층","indutype":"건축자재 - 조명기구","category":"other"},{"name":"체리휘트니스클럽","tel":"031-452-7042","addr":"경기도 군포시 금정동 710-8번지 거성아파트","indutype":"회원제형태 - 레져업소","category":"other"},{"name":"타베크(TABEC)","tel":"031-393-6101","addr":"경기도 군포시 금정동 710-8 거성에이플타워 B201호 ~B202호","indutype":"신변잡화 - 기념품점","category":"other"},{"name":"한국후지제록스안양OA","tel":"031-459-4595","addr":"경기도 군포시 금정동 710-8번지 거성에이플타워 102호","indutype":"사무통신 - 사무용 OA기기","category":"other"},{"name":"한국후지제록스안양OA","tel":"031-459-4595","addr":"경기도 군포시 금정동 710-8번지 거성에이플 상가 102호","indutype":"사무통신 - 사무용 OA기기","category":"other"}]},{"lat":"37.376252934","long":"126.94542616","imageIndex":17,"items":[{"name":"(주)굿센스","tel":"031-477-3781","addr":"경기도 군포시 금정동 1-20번지 4층","indutype":"기타 - 기타 전문점","category":"other"}]},{"lat":"37.375504657","long":"126.94453481","imageIndex":17,"items":[{"name":"(주)나라정보기술","tel":"031-457-4577","addr":"경기도 군포시 금정동 1-40번지 한림휴먼타워 507호","indutype":"사무통신 - 컴퓨터","category":"other"},{"name":"(주)두앤비무역","tel":"031-477-6807","addr":"경기도 군포시 금정동 1-40번지 한림휴먼타워 912호","indutype":"전기제품 - 기타전기제품","category":"other"},{"name":"(주)디에스정보통신","tel":"070-4354-4085","addr":"경기도 군포시 금정동 1-40번지 한림휴먼타워 909호","indutype":"전기제품 - 기타전기제품","category":"other"},{"name":"(주)디에스티","tel":"031-458-8110","addr":"경기도 군포시 금정동 1-40번지 한림휴먼타워 304호","indutype":"전기제품 - 기타전기제품","category":"other"},{"name":"(주)에스엘테크놀로지","tel":"031-456-2285","addr":"경기도 군포시 금정동 1-40번지 한림휴먼타워 6층 607호","indutype":"기타 - 기타 전문점","category":"other"},{"name":"(주)우원테크","tel":"031-479-7566","addr":"경기도 군포시 금정동 1-40번지 한림휴먼타워 907호","indutype":"전기제품 - 기타전기제품","category":"other"},{"name":"(주)우원테크/원격지","tel":"031-346-1663","addr":"경기도 군포시 금정동 1-40번지 한림휴먼타워 907호","indutype":"기타 - 기타 전문점","category":"other"},{"name":"(주)지오시스템리서치","tel":"070-7019-0782","addr":"경기도 군포시 금정동 1-40번지 한림휴먼타워 306호","indutype":"기타 - 기계공구","category":"other"},{"name":"(주)케이와이쎄미(KY Semi Co. Ltd)","tel":"031-396-0047","addr":"경기도 군포시 금정동 1-40번지 한림휴먼타워 외1필지 1017","indutype":"전기제품 - 기타전기제품","category":"other"},{"name":"(주)한강이엔지/원격지","tel":"031-477-8141","addr":"경기도 군포시 금정동 1-40번지 한림휴먼타워 703호","indutype":"기타 - 기타 전문점","category":"other"},{"name":"(주)한국기계엔지니어링","tel":"031-427-7783","addr":"경기도 군포시 금정동 1-40번지 한림휴먼타워 B-13호","indutype":"기타 - 기타 전문점","category":"other"},{"name":"(주)한국기계엔지니어링/원격지","tel":"","addr":"경기도 군포시 금정동 1-40번지 한림휴먼타워 B-13호","indutype":"기타 - 기타 전문점","category":"other"},{"name":"(주)헵틸와이","tel":"070-8286-9779","addr":"경기도 군포시 금정동 1-40번지 한림휴먼타워 505호","indutype":"서적문구 - 과학기자재","category":"other"},{"name":"KMT(케이엠티)","tel":"031-468-9752","addr":"경기도 군포시 금정동 1-40번지 외1필지 한림휴먼타워 801호","indutype":"전기제품 - 기타전기제품","category":"other"},{"name":"KMT(케이엠티)/원격지","tel":"031-479-7146","addr":"경기도 군포시 금정동 1-40번지 한림휴먼타워 909호","indutype":"기타 - 기타 전문점","category":"other"},{"name":"금정산업","tel":"031-479-7240","addr":"경기도 군포시 금정동 1-40번지 외1필지 한림휴먼타워 401호","indutype":"기타 - 기계공구","category":"other"},{"name":"기홍세무회계사무소","tel":"031-447-6634","addr":"경기도 군포시 금정동 1-40번지 한림휴먼타워 304-3호","indutype":"용역 서비스 - 법률회계서비스(개인)","category":"other"},{"name":"뉴웨이브(new wave)","tel":"","addr":"경기도 군포시 금정동 1-40번지 한림휴먼타워 7층 710호","indutype":"사무통신 - 통신기기","category":"other"},{"name":"대광교역주식회사","tel":"00-1599-0976","addr":"경기도 군포시 금정동 1-40번지 한림휴먼타워 1007호","indutype":"기타 - 기타 전문점","category":"other"},{"name":"동신화인텍","tel":"031-477-4471","addr":"경기도 군포시 금정동 1-40번지 한림휴먼타워 1동 208호","indutype":"전기제품 - 냉열기기","category":"other"},{"name":"동신화인텍/원격지","tel":"031-479-4166","addr":"경기도 군포시 금정동 1-40번지 한림휴먼타워 1동 208호","indutype":"기타 - 기타 전문점","category":"other"},{"name":"디앤디테크주식회사","tel":"031-427-2490","addr":"경기도 군포시 금정동 1-40번지 한림휴먼타워 207호","indutype":"기타 - 기타 전문점","category":"other"},{"name":"모든오피스군포의왕점","tel":"031-479-6355","addr":"경기도 군포시 금정동 1-40번지 한림휴먼타워 104호","indutype":"서적문구 - 문구용품","category":"other"},{"name":"모빅테크놀러지/원격지","tel":"031-479-5850","addr":"경기도 군포시 금정동 1-40번지 한림휴먼타워 206호","indutype":"기타 - 기타 전문점","category":"other"},{"name":"서해패키징시스템즈/세라잼구매","tel":"031-427-6000","addr":"경기도 군포시 금정동 1-40한림휴먼타워지하10","indutype":"기타 - 기타 전문점","category":"other"},{"name":"세무사김동진사무소","tel":"031-449-3343","addr":"경기도 군포시 금정동 1-40번지 한림휴먼타워 304-3호","indutype":"용역 서비스 - 법률회계서비스(개인)","category":"other"},{"name":"아빅스 테크","tel":"031-479-7521","addr":"경기도 군포시 금정동 1-40번지 한림휴먼타워 1006호","indutype":"기타 - 기계공구","category":"other"},{"name":"아이에스씨코리아","tel":"031-427-5598","addr":"경기도 군포시 금정동 1-40번지 한림휴먼타워 1002호","indutype":"기타 - 기타 전문점","category":"other"},{"name":"알프트로닉스","tel":"031-479-7722","addr":"경기도 군포시 금정동 1-40번지 한림휴먼타워 707호","indutype":"레져용품 - 스포츠·레져용품","category":"other"},{"name":"에스(S)마트","tel":"031-427-5275","addr":"경기도 군포시 금정동 1-40번지 한림휴먼타워 109호","indutype":"유통업 영리 - 편 의 점","category":"other"},{"name":"에스엔아이주식회사","tel":"031-479-2220","addr":"경기도 군포시 금정동 1-40번지 한림휴먼타워 711호","indutype":"사무통신 - 컴퓨터","category":"other"},{"name":"에스텍","tel":"031-479-0609","addr":"경기도 군포시 금정동 1-40번지 한림휴먼타워 1014호","indutype":"기타 - 기계공구","category":"other"},{"name":"영풍메탈(주)","tel":"031-477-8351","addr":"경기도 군포시 금정동 1-40번지 한림휴먼타워 602호","indutype":"전기제품 - 기타전기제품","category":"other"},{"name":"유성엔지니어링","tel":"031-479-7151","addr":"경기도 군포시 금정동 1-40번지 외1필지한림휴먼타워 201호","indutype":"기타 - 기계공구","category":"other"},{"name":"유성엔지니어링/원격지","tel":"031-479-7151","addr":"경기도 군포시 금정동 1-40번지 외1필지한림휴먼타워 201호","indutype":"기타 - 기타 전문점","category":"other"},{"name":"주식회사 바이오피아","tel":"031-391-7213","addr":"경기도 군포시 금정동 1-40번지 한림휴먼타워 205호","indutype":"용역 서비스 - 사무서비스","category":"other"},{"name":"주식회사 지오에너지","tel":"070-4550-4364","addr":"경기도 군포시 금정동 1-40번지 한림휴먼타워 306호","indutype":"광학제품 - 기타광학제품","category":"other"},{"name":"주식회사 한생플래닛","tel":"031-464-9910","addr":"경기도 군포시 금정동 1-40번지 한림휴먼타워 B03호","indutype":"용역 서비스 - 사무서비스","category":"other"},{"name":"주식회사대신아이텍","tel":"031-427-0100","addr":"경기도 군포시 금정동 1-40번지 한림휴먼타워 301호","indutype":"광학제품 - 기타광학제품","category":"other"},{"name":"주식회사베스텍비젼/원격지","tel":"031-479-4964","addr":"경기도 군포시 금정동 1-40번지 한림휴먼타워 1009호","indutype":"기타 - 기타 전문점","category":"other"},{"name":"주식회사태성화이어/원격지","tel":"031-479-7533","addr":"경기도 군포시 금정동 1-40번지 한림휴먼타워 414호","indutype":"기타 - 기타 전문점","category":"other"},{"name":"주식회사한테크","tel":"031-479-1989","addr":"경기도 군포시 금정동 1-40번지 한림휴먼타워 204호","indutype":"서적문구 - 과학기자재","category":"other"},{"name":"주식회사한테크/원격지","tel":"031-479-1989","addr":"경기도 군포시 금정동 1-40번지 한림휴먼타워 204호","indutype":"기타 - 기타 전문점","category":"other"},{"name":"지에스주식회사","tel":"031-452-6350","addr":"경기도 군포시 금정동 1-40번지 한림휴먼타워 411호","indutype":"사무통신 - 통신기기","category":"other"},{"name":"파모테크","tel":"031-468-2400","addr":"경기도 군포시 금정동 1-40번지 한림휴먼타워 1002호","indutype":"기타 - 기계공구","category":"other"},{"name":"한성씨앤씨","tel":"02-553-4386","addr":"경기도 군포시 금정동 1-40번지 한림휴먼타워 111호","indutype":"사무통신 - 사무용 OA기기","category":"other"},{"name":"한양계전(주)/원격지","tel":"031-479-1324","addr":"경기도 군포시 금정동 1-40번지 한림휴먼타워 402호","indutype":"기타 - 기타 전문점","category":"other"},{"name":"휴먼컴퓨터","tel":"031-452-2333","addr":"경기도 군포시 금정동 1-40번지 한림휴먼타워 1014호","indutype":"사무통신 - 컴퓨터","category":"other"}]},{"lat":"37.362889751","long":"126.9430884","imageIndex":17,"items":[{"name":"(주)뉴욕스토리위드미금정역점","tel":"02-6916-1500","addr":"경기도 군포시 금정동 743-12번지 1층 1호","indutype":"유통업 영리 - 편 의 점","category":"other"}]},{"lat":"37.363339653","long":"126.94190278","imageIndex":17,"items":[{"name":"(주)대성씨앤씨","tel":"031-388-3377","addr":"경기도 군포시 금정동 723-2번지 금정빌딩 303호","indutype":"전기제품 - 가전제품","category":"other"},{"name":"(주)엘코승강기","tel":"031-455-1908","addr":"경기도 군포시 금정동 723-2번지 301호","indutype":"용역 서비스 - 기타용역서비스","category":"other"},{"name":"아쿠아플래너스(aqua planners)","tel":"031-457-5366","addr":"경기도 군포시 금정동 723-2번지 금정빌딩 1층","indutype":"용역 서비스 - 기타용역서비스","category":"other"},{"name":"워싱고릴라","tel":"031-487-8093","addr":"경기도 군포시 금정동 723-2번지 1층 102호","indutype":"수리서비스 - 세탁소","category":"other"},{"name":"유앤아이테크","tel":"031-427-0229","addr":"경기도 군포시 금정동 723-2번지 204호","indutype":"사무통신 - 통신기기","category":"other"},{"name":"주식회사 시스템솔루션","tel":"031-459-1738","addr":"경기도 군포시 금정동 723-2번지 금정빌딩 1층","indutype":"용역 서비스 - 기타용역서비스","category":"other"},{"name":"주식회사본교","tel":"070-7732-0055","addr":"경기도 군포시 금정동 723-2번지 금정빌딩 504호","indutype":"서적문구 - 일반서적","category":"other"}]},{"lat":"37.37605433","long":"126.94464729","imageIndex":17,"items":[{"name":"(주)대한인스트루먼트","tel":"031-458-4810","addr":"경기도 군포시 금정동 1-32번지","indutype":"기타 - 기타 전문점","category":"other"},{"name":"에이치엠시스템(H.M. SYSTEM)","tel":"031-456-5004","addr":"경기도 군포시 금정동 1-32번지 대한인스트루먼트 502호","indutype":"전기제품 - 기타전기제품","category":"other"}]},{"lat":"37.35989401","long":"126.93498618","imageIndex":17,"items":[{"name":"(주)디알켐무역","tel":"031-399-3033","addr":"경기도 군포시 금정동 847-2번지 동영센트럴타워 501호","indutype":"기타 - 기타 전문점","category":"other"},{"name":"(주)스탠다드뱅크","tel":"031-393-9394","addr":"경기도 군포시 금정동 847-2번지 동영센트럴타워 507동 508호","indutype":"용역 서비스 - 사무서비스","category":"other"},{"name":"(주)프라임솔루션","tel":"031-397-1591","addr":"경기도 군포시 금정동 847-2번지 동영센트럴타워 105호","indutype":"전기제품 - 기타전기제품","category":"other"},{"name":"(주)피엠건설","tel":"031-394-9756","addr":"경기도 군포시 금정동 847-2번지 동영센트럴타워 411호","indutype":"건축자재 - 기타건축자재","category":"other"},{"name":"EASY임승훈행정사사무소","tel":"031-398-1887","addr":"경기도 군포시 금정동 847-2번지 동영센트럴타워 3층 302호","indutype":"용역 서비스 - 법률회계서비스(개인)","category":"other"},{"name":"공증인 고제후사무소","tel":"031-395-3403","addr":"경기도 군포시 금정동 847-2번지 동영센트럴타워 316호","indutype":"용역 서비스 - 법률회계서비스(개인)","category":"other"},{"name":"동명이앤지","tel":"031-479-3450","addr":"경기도 군포시 금정동 847-2번지 동영센트럴타워 203호 , 202","indutype":"전기제품 - 기타전기제품","category":"other"},{"name":"박창우세무사사무소","tel":"031-399-5113","addr":"경기도 군포시 금정동 847-2번지 동영센트럴타워 107호","indutype":"용역 서비스 - 법률회계서비스(개인)","category":"other"},{"name":"법률사무소 율목","tel":"031-395-1500","addr":"경기도 군포시 금정동 847-2번지 동영센트럴타워 111,316호","indutype":"용역 서비스 - 법률회계서비스(개인)","category":"other"},{"name":"법률사무소 율목","tel":"031-395-1500","addr":"경기도 군포시 금정동 847-2번지 동영센트럴타워 111,316호","indutype":"용역 서비스 - 법률회계서비스(개인)","category":"other"},{"name":"법무법인씨에스(분사무소)","tel":"031-395-2700","addr":"경기도 군포시 금정동 847-2번지 동영센트럴타워 110호","indutype":"용역 서비스 - 법률회계서비스(법인)","category":"other"},{"name":"성실툴링서비스","tel":"031-398-3438","addr":"경기도 군포시 금정동 847-2번지 동영센트럴타워 406동 407호","indutype":"기타 - 기계공구","category":"other"},{"name":"에프엠에스인터내셔널(주)","tel":"031-397-7904","addr":"경기도 군포시 금정동 847-2번지 동영센트럴타워 510호","indutype":"문화.취미 - 애완동물","category":"other"},{"name":"영우스틸주식회사/원격지","tel":"031-392-9393","addr":"경기도 군포시 금정동 847-2번지 동영센트럴타워 315호","indutype":"기타 - 기타 전문점","category":"other"},{"name":"오투사이언스","tel":"031-426-3885","addr":"경기도 군포시 금정동 847-2번지 동영센트럴타워 203호","indutype":"서적문구 - 과학기자재","category":"other"},{"name":"제이씨건축사사무소","tel":"031-396-3345","addr":"경기도 군포시 금정동 847-2번지 동영센트럴타워 415호","indutype":"용역 서비스 - 사무서비스","category":"other"},{"name":"키즈림한국아동미술교육","tel":"031-397-8922","addr":"경기도 군포시 금정동 847-2번지 동영센트럴타워 3층 301-3호","indutype":"서적문구 - 출판 및 인쇄물","category":"other"},{"name":"한국문화센터 산본지부","tel":"031-392-4188","addr":"경기도 군포시 금정동 847-2번지 동영센트럴타워 5층 509호","indutype":"문화.취미 - 문화취미기타","category":"other"}]},{"lat":"37.367811722","long":"126.94811936","imageIndex":17,"items":[{"name":"(주)래피젠","tel":"031-427-4677","addr":"경기도 군포시 금정동 693-11번지 3층","indutype":"기타의료기관 - 기타의료기관 및 기타","category":"other"},{"name":"(주)원미디어시스템","tel":"031-454-2288","addr":"경기도 군포시 금정동 693-11번지 미디어센터 2층","indutype":"사무통신 - 컴퓨터","category":"other"}]},{"lat":"37.357839038","long":"126.933848","imageIndex":17,"items":[{"name":"(주)리얼포디엔터테인먼트","tel":"031-349-5880","addr":"경기도 군포시 금정동 874-2번지 신산빌딩 504호","indutype":"용역 서비스 - 종합용역","category":"other"},{"name":"도서출판 언약나라","tel":"070-7798-0478","addr":"경기도 군포시 금정동 874-2번지 신산빌딩 1004호","indutype":"서적문구 - 출판 및 인쇄물","category":"other"},{"name":"제이팩토리코리아","tel":"031-347-8253","addr":"경기도 군포시 금정동 874-2번지 신산빌딩 7층","indutype":"유통업 영리 - 기타유통업","category":"other"},{"name":"펫스토리","tel":"031-394-8284","addr":"경기도 군포시 금정동 874-2번지 신산빌딩 102호","indutype":"문화.취미 - 애완동물","category":"other"},{"name":"포스존","tel":"070-7622-2861","addr":"경기도 군포시 금정동 874-2번지 신산빌딩 304호","indutype":"사무통신 - 통신기기","category":"other"},{"name":"폰&닥터","tel":"070-4685-7099","addr":"경기도 군포시 금정동 874-2번지 신산빌딩 204호","indutype":"용역 서비스 - 사무서비스","category":"other"},{"name":"플로에스플라워스튜디오(FLO. S Flower Stu","tel":"","addr":"경기도 군포시 금정동 874-2번지 신산빌딩 2층 208호","indutype":"문화.취미 - 화원","category":"other"}]},{"lat":"37.370865029","long":"126.94573508","imageIndex":17,"items":[{"name":"(주)마이크로몰드/원격지","tel":"032-624-2233","addr":"경기도 군포시 금정동 689-30번지 1층","indutype":"기타 - 기타 전문점","category":"other"}]},{"lat":"37.363474033","long":"126.94042391","imageIndex":17,"items":[{"name":"(주)비티씨씨큐","tel":"031-427-8883","addr":"경기도 군포시 금정동 710-7번지 유일빌딩 7층","indutype":"사무통신 - 컴퓨터","category":"other"},{"name":"홍스인터네셔널","tel":"070-7867-1557","addr":"경기도 군포시 금정동 710-7번지 유일빌딩 602호","indutype":"서적문구 - 완구점","category":"other"}]},{"lat":"37.369558533","long":"126.94567962","imageIndex":17,"items":[{"name":"(주)새롬바이오","tel":"031-458-3549","addr":"경기도 군포시 금정동 689-6번지 한림벤처타운 201-1","indutype":"기타 - 기타 전문점","category":"other"},{"name":"(주)소스텔","tel":"070-7018-9512","addr":"경기도 군포시 금정동 689-6번지 한림벤처타운 501호","indutype":"사무통신 - 통신기기","category":"other"},{"name":"(주)솔레오","tel":"031-427-9501","addr":"경기도 군포시 금정동 689-6번지 한림벤처타운 203호","indutype":"기타 - 기계공구","category":"other"},{"name":"(주)아반사","tel":"031-465-8883","addr":"경기도 군포시 금정동 689-6번지 한림벤처타운 409호","indutype":"의류 - 아동의류","category":"other"},{"name":"(주)아센코리아/원격지","tel":"02-1544-3818","addr":"경기도 군포시 금정동 689-6 한림벤처타운201-2호","indutype":"기타 - 기타 전문점","category":"other"},{"name":"(주)유클론","tel":"02-6947-3070","addr":"경기도 군포시 금정동 689-6번지 한림벤쳐타운 501-1호","indutype":"사무통신 - 통신기기","category":"other"},{"name":"동일테크주식회사/원격지","tel":"031-457-7691","addr":"경기도 군포시 금정동 689-6번지 한림벤처타운 405호","indutype":"기타 - 기타 전문점","category":"other"},{"name":"동화피.에이산업(주)","tel":"031-455-2001","addr":"경기도 군포시 금정동 689-6번지 한림벤처타운 3층 301호","indutype":"전기제품 - 가전제품","category":"other"},{"name":"씨유군포한림점","tel":"031-427-4689","addr":"경기도 군포시 금정동 689-6번지 한림벤쳐타운 103-1호","indutype":"유통업 영리 - 편 의 점","category":"other"},{"name":"주식회사코파스","tel":"054-471-6833","addr":"경기도 군포시 금정동 689-6번지 한림벤처타운 701호","indutype":"기타 - 기계공구","category":"other"},{"name":"주식회사투모로우","tel":"031-564-4192","addr":"경기도 군포시 금정동 689-6 한림벤처타운703-7호","indutype":"의류 - 정장","category":"other"},{"name":"주식회사티비에스","tel":"031-477-7567","addr":"경기도 군포시 금정동 689-6번지 한림벤처타운 502호","indutype":"기타 - 기계공구","category":"other"},{"name":"중원통상","tel":"031-458-1670","addr":"경기도 군포시 금정동 689-6 한림벤처타운 701-2","indutype":"서적문구 - 과학기자재","category":"other"},{"name":"한국 공인중개사사무소","tel":"031-451-9988","addr":"경기도 군포시 금정동 689-6 한림벤처타운 101-2호","indutype":"용역 서비스 - 부동산 중개·임대","category":"other"},{"name":"한림편의점","tel":"031-452-1851","addr":"경기도 군포시 금정동 689-6번지 한림벤처타운 103동 1호","indutype":"유통업 영리 - 편 의 점","category":"other"}]},{"lat":"37.367223938","long":"126.94370585","imageIndex":17,"items":[{"name":"(주)선호","tel":"031-458-1236","addr":"경기도 군포시 금정동 79-6번지 지층","indutype":"전기제품 - 기타전기제품","category":"other"},{"name":"패션브레인주식회사","tel":"02-1588-8791","addr":"경기도 군포시 금정동 79-6번지 202호","indutype":"회원제형태 - 서적","category":"other"}]},{"lat":"37.368081974","long":"126.94800627","imageIndex":17,"items":[{"name":"(주)스칸디아","tel":"031-477-7113","addr":"경기도 군포시 금정동 693-1번지","indutype":"문화.취미 - 화원","category":"other"}]},{"lat":"37.36466506","long":"126.94370786","imageIndex":17,"items":[{"name":"(주)신안정보통신","tel":"031-458-1800","addr":"경기도 군포시 금정동 909-1번지","indutype":"용역 서비스 - 기타용역서비스","category":"other"}]},{"lat":"37.367305096","long":"126.94384125","imageIndex":17,"items":[{"name":"(주)씨엔에스정보통신","tel":"031-454-1580","addr":"경기도 군포시 금정동 79-7번지 101호","indutype":"사무통신 - 통신기기","category":"other"}]},{"lat":"37.369720955","long":"126.94617623","imageIndex":17,"items":[{"name":"(주)아이리스코리아","tel":"031-459-5966","addr":"경기도 군포시 금정동 689-15번지","indutype":"가구 - 기타가구","category":"other"}]},{"lat":"37.370585292","long":"126.94486601","imageIndex":17,"items":[{"name":"(주)아이에프비","tel":"031-384-3701","addr":"경기도 군포시 금정동 689-27번지","indutype":"기타 - 기계공구","category":"other"},{"name":"알파금정점","tel":"031-452-2625","addr":"경기도 군포시 금정동 689-27번지 1층","indutype":"서적문구 - 문구용품","category":"other"}]},{"lat":"37.364556276","long":"126.94239849","imageIndex":17,"items":[{"name":"(주)에스리/원격지","tel":"070-8181-6955","addr":"경기도 군포시 금정동 734-15번지","indutype":"기타 - 기타 전문점","category":"other"}]},{"lat":"37.357117454","long":"126.93253933","imageIndex":17,"items":[{"name":"(주)에스비씨엔","tel":"","addr":"경기도 군포시 금정동 873-3번지 제일프라자 505호","indutype":"용역 서비스 - 소프트웨어","category":"other"},{"name":"(주)재현스치로폴","tel":"031-391-7715","addr":"경기도 군포시 금정동 873-3번지 제일프라자 506호","indutype":"건축자재 - 기타건축자재","category":"other"},{"name":"가구아울렛","tel":"031-398-2356","addr":"경기도 군포시 금정동 873-3번지 제일프라자 지하층 101호","indutype":"가구 - 일반가구","category":"other"},{"name":"듀벨 경기남부점","tel":"070-8221-8119","addr":"경기도 군포시 금정동 873-3번지 제일프라자 101호","indutype":"주방용구 - 정수기","category":"other"},{"name":"모아컨넷","tel":"031-394-8000","addr":"경기도 군포시 금정동 873-3번지 제일프라자","indutype":"서적문구 - 완구점","category":"other"},{"name":"예림","tel":"031-394-6367","addr":"경기도 군포시 금정동 873-3번지 제일프라자 1층","indutype":"의류 - 기타의류","category":"other"}]},{"lat":"37.374973579","long":"126.94559648","imageIndex":17,"items":[{"name":"(주)엠브이텍/원격지","tel":"031-477-3600","addr":"경기도 군포시 금정동 1-45번지","indutype":"기타 - 기타 전문점","category":"other"}]},{"lat":"37.364529332","long":"126.94256783","imageIndex":17,"items":[{"name":"(주)영진크린","tel":"031-427-3488","addr":"경기도 군포시 금정동 734-12번지 1층","indutype":"용역 서비스 - 종합용역","category":"other"}]},{"lat":"37.375333737","long":"126.94508816","imageIndex":17,"items":[{"name":"(주)유니컴즈","tel":"070-7945-0502","addr":"경기도 군포시 금정동 1-41번지","indutype":"사무통신 - 통신기기","category":"other"},{"name":"(주)유니컴즈","tel":"070-7945-0502","addr":"경기도 군포시 금정동 1-41번지","indutype":"용역 서비스 - 이동통신요금","category":"other"},{"name":"(주)유니컴즈","tel":"070-7945-0502","addr":"경기도 군포시 금정동 1-41번지","indutype":"사무통신 - 통신기기","category":"other"},{"name":"(주)유니컴즈","tel":"070-7945-0502","addr":"경기도 군포시 금정동 1-41번지","indutype":"사무통신 - 통신기기","category":"other"},{"name":"(주)유니컴즈","tel":"070-7945-0520","addr":"경기도 군포시 금정동 1-41번지","indutype":"사무통신 - 통신기기","category":"other"},{"name":"주식회사 윤텔","tel":"070-7945-0522","addr":"경기도 군포시 금정동 1-41번지 303호","indutype":"사무통신 - 통신기기","category":"other"}]},{"lat":"37.365946802","long":"126.94850453","imageIndex":17,"items":[{"name":"(주)유원인텍/원격지","tel":"070-7010-6737","addr":"경기도 군포시 금정동 177-1번지 청우빌딩 4층","indutype":"기타 - 기타 전문점","category":"other"},{"name":"에스라","tel":"070-8222-1863","addr":"경기도 군포시 금정동 177-1번지 청우빌딩 1층","indutype":"서적문구 - 출판 및 인쇄물","category":"other"}]},{"lat":"37.367252651","long":"126.9471715","imageIndex":17,"items":[{"name":"(주)이우기기","tel":"031-459-6771","addr":"경기도 군포시 금정동 694-39번지","indutype":"전기제품 - 가전제품","category":"other"}]},{"lat":"37.368224421","long":"126.94442756","imageIndex":17,"items":[{"name":"(주)지앤지","tel":"031-505-1800","addr":"경기도 군포시 금정동 77-16번지 401호","indutype":"건축자재 - 인테리어전문","category":"other"},{"name":"금강사무용가구","tel":"031-466-2338","addr":"경기도 군포시 금정동 77-16번지 진흥빌딩","indutype":"가구 - 기타가구","category":"other"},{"name":"방송실 주식회사","tel":"031-1833-6994","addr":"경기도 군포시 금정동 77-16번지 진흥빌딩 2층","indutype":"용역 서비스 - 종합용역","category":"other"},{"name":"세븐일레븐금정3호점","tel":"","addr":"경기도 군포시 금정동 77-16번지","indutype":"유통업 영리 - 편 의 점","category":"other"}]},{"lat":"37.367612993","long":"126.94703577","imageIndex":17,"items":[{"name":"(주)지엘","tel":"031-458-5063","addr":"경기도 군포시 금정동 694번지","indutype":"전기제품 - 기타전기제품","category":"other"}]},{"lat":"37.376414995","long":"126.94517765","imageIndex":17,"items":[{"name":"(주)지오코리아이엔지","tel":"031-454-1780","addr":"경기도 군포시 금정동 1-18번지 1층","indutype":"용역 서비스 - 사무서비스","category":"other"}]},{"lat":"37.351728607","long":"126.93124641","imageIndex":17,"items":[{"name":"(주)창성제일","tel":"031-391-8403","addr":"경기도 군포시 금정동 871-11번지 다산아파트","indutype":"회원제형태 - 기타4","category":"other"}]},{"lat":"37.36869373","long":"126.94603024","imageIndex":17,"items":[{"name":"(주)케어젠","tel":"031-452-3867","addr":"경기도 군포시 금정동 690-3번지","indutype":"기타의료기관 - 기타의료기관 및 기타","category":"other"}]},{"lat":"37.370782689","long":"126.94320632","imageIndex":17,"items":[{"name":"(주)코리아세븐금정역점/460호점","tel":"031-397-5920","addr":"경기도 군포시 금정동 40-1번지","indutype":"유통업 영리 - 편 의 점","category":"other"}]},{"lat":"37.366754633","long":"126.94217095","imageIndex":17,"items":[{"name":"(주)크레코텍","tel":"070-8718-0339","addr":"경기도 군포시 금정동 702-7번지","indutype":"신변잡화 - 기타잡화","category":"other"}]},{"lat":"37.364504899","long":"126.94789599","imageIndex":17,"items":[{"name":"(주)태준전자","tel":"031-451-3592","addr":"경기도 군포시 금정동 188번지 예성팩토링 502호","indutype":"전기제품 - 기타전기제품","category":"other"},{"name":"명성특수강정공","tel":"031-429-5030","addr":"경기도 군포시 금정동 188번지","indutype":"기타 - 기계공구","category":"other"},{"name":"한라정밀","tel":"031-429-6905","addr":"경기도 군포시 금정동 188번지 예성팩토링 103호","indutype":"기타 - 기계공구","category":"other"}]},{"lat":"37.360225004","long":"126.9477298","imageIndex":17,"items":[{"name":"(주)파스.앤.에스","tel":"031-458-2416","addr":"경기도 군포시 금정동 775-9번지 사성빌딩 5층","indutype":"기타 - 기계공구","category":"other"},{"name":"국제일레콤","tel":"031-454-4180","addr":"경기도 군포시 금정동 775-9사성빌딩302","indutype":"전기제품 - 기타전기제품","category":"other"}]},{"lat":"37.370666991","long":"126.94611907","imageIndex":17,"items":[{"name":"(주)포스미디어","tel":"031-454-0953","addr":"경기도 군포시 금정동 689-33번지","indutype":"전기제품 - 냉열기기","category":"other"},{"name":"한국메카드로닉스","tel":"031-477-9308","addr":"경기도 군포시 금정동 689-33번지","indutype":"기타 - 기계공구","category":"other"}]},{"lat":"37.367252937","long":"126.9477811","imageIndex":17,"items":[{"name":"(주)하드램","tel":"031-2285-4491","addr":"경기도 군포시 금정동 694-3번지","indutype":"사무통신 - 컴퓨터","category":"other"}]},{"lat":"37.367170453","long":"126.94486864","imageIndex":17,"items":[{"name":"(주)한국공조시스템","tel":"031-477-6778","addr":"경기도 군포시 금정동 85-3번지","indutype":"전기제품 - 냉열기기","category":"other"}]},{"lat":"37.375559127","long":"126.94537023","imageIndex":17,"items":[{"name":"(주)한성창호","tel":"031-469-4547","addr":"경기도 군포시 금정동 1-39번지","indutype":"건축자재 - 기타건축자재","category":"other"}]},{"lat":"37.3633317904","long":"126.9441717248","imageIndex":17,"items":[{"name":"(주)화인텍","tel":"031-417-1019","addr":"경기도 군포시 금정동 742-1번지 3층","indutype":"광학제품 - 기타광학제품","category":"other"},{"name":"대신타일상사","tel":"031-456-4980","addr":"경기도 군포시 금정동 742-1번지","indutype":"건축자재 - 건축용 요업제품","category":"other"}]},{"lat":"37.364331888","long":"126.9441145","imageIndex":17,"items":[{"name":"(주)흥안","tel":"031-453-6578","addr":"경기도 군포시 금정동 910-1번지","indutype":"건축자재 - 건축용 요업제품","category":"other"},{"name":"흥안세라믹","tel":"031-453-6578","addr":"경기도 군포시 금정동 910-1번지 2층","indutype":"건축자재 - 기타건축자재","category":"other"}]},{"lat":"37.366115675","long":"126.94367285","imageIndex":17,"items":[{"name":"119 공조","tel":"070-6301-0122","addr":"경기도 군포시 금정동 82-18번지 주연퍼스티지 301호","indutype":"용역 서비스 - 기타용역서비스","category":"other"}]},{"lat":"37.358616765","long":"126.93892669","imageIndex":17,"items":[{"name":"21세기공인중개사사무소","tel":"031-391-6644","addr":"경기도 군포시 금정동 850-5 무궁화종합상가106","indutype":"용역 서비스 - 부동산 중개·임대","category":"other"},{"name":"씨유군포고점","tel":"031-391-5689","addr":"경기도 군포시 금정동 850-5번지 주공1단지 102호","indutype":"유통업 영리 - 편 의 점","category":"other"},{"name":"알파문구센타","tel":"031-396-2398","addr":"경기도 군포시 금정동 850-5 무궁화종합상가 103","indutype":"서적문구 - 문구용품","category":"other"}]},{"lat":"37.362719263","long":"126.94449956","imageIndex":17,"items":[{"name":"3월.봄","tel":"","addr":"경기도 군포시 금정동 761-24번지 대성주택 나동 301호","indutype":"신변잡화 - 기타잡화","category":"other"}]},{"lat":"37.363583423","long":"126.94287337","imageIndex":17,"items":[{"name":"BS시스템","tel":"031-466-1146","addr":"경기도 군포시 금정동 738-10번지 태광오피스텔3차 1103호","indutype":"전기제품 - 냉열기기","category":"other"},{"name":"GS25군포태광점","tel":"","addr":"경기도 군포시 금정동 738-10번지 태광오피스텔 104호","indutype":"유통업 영리 - 편 의 점","category":"other"},{"name":"천광싸이언스","tel":"031-456-4104","addr":"경기도 군포시 금정동 738-10번지 태광오피스텔3차 1008호","indutype":"서적문구 - 과학기자재","category":"other"}]},{"lat":"37.363780366","long":"126.94040107","imageIndex":17,"items":[{"name":"DK광고","tel":"031-391-0903","addr":"경기도 군포시 금정동 710-6번지 삼성빌딩 201호","indutype":"서적문구 - 출판 및 인쇄물","category":"other"},{"name":"크레마티","tel":"031-453-3007","addr":"경기도 군포시 금정동 710-6번지 삼성빌딩 209호","indutype":"유통업 영리 - 기타유통업","category":"other"}]},{"lat":"37.362474807","long":"126.94215182","imageIndex":17,"items":[{"name":"DN music","tel":"031-454-3373","addr":"경기도 군포시 금정동 743-7번지 303호","indutype":"용역 서비스 - 종합용역","category":"other"}]},{"lat":"37.366333893","long":"126.94775919","imageIndex":17,"items":[{"name":"E.F.A씽크","tel":"031-454-9260","addr":"경기도 군포시 금정동 694-26번지","indutype":"주방용구 - 기타주방용구","category":"other"},{"name":"대성도금","tel":"031-427-8588","addr":"경기도 군포시 금정동 694-26번지 1층 일부","indutype":"용역 서비스 - 종합용역","category":"other"}]},{"lat":"37.369414992","long":"126.94697799","imageIndex":17,"items":[{"name":"FINEPCR(화인피씨알)/원격지","tel":"031-429-7471","addr":"경기도 군포시 금정동 692-1번지","indutype":"기타 - 기타 전문점","category":"other"}]},{"lat":"37.362309408","long":"126.93618054","imageIndex":17,"items":[{"name":"FM정보통신","tel":"031-464-7750","addr":"경기도 군포시 금정동 717번지 102호","indutype":"사무통신 - 통신기기","category":"other"},{"name":"마이스코프","tel":"0505-860-0860","addr":"경기도 군포시 금정동 717번지 104호","indutype":"광학제품 - 기타광학제품","category":"other"},{"name":"새날마샬아츠","tel":"031-348-3369","addr":"경기도 군포시 금정동 717번지","indutype":"레져용품 - 스포츠·레져용품","category":"other"},{"name":"신도네트군포지점","tel":"031-453-6901","addr":"경기도 군포시 금정동 717번지","indutype":"사무통신 - 사무용 OA기기","category":"other"},{"name":"신도네트군포지점/특별할부","tel":"031-459-1818","addr":"경기도 군포시 금정동 717번지","indutype":"사무통신 - 사무용 OA기기","category":"other"},{"name":"안양사무기","tel":"031-394-2345","addr":"경기도 군포시 금정동 717번지","indutype":"사무통신 - 사무용 OA기기","category":"other"}]},{"lat":"37.361226085","long":"126.94981734","imageIndex":17,"items":[{"name":"GS25군포공단로점","tel":"","addr":"경기도 군포시 금정동 608-23번지 101호","indutype":"유통업 영리 - 편 의 점","category":"other"}]},{"lat":"37.36108713","long":"126.94192718","imageIndex":17,"items":[{"name":"GS25군포금정점","tel":"02-2006-2118","addr":"경기도 군포시 금정동 747번지","indutype":"유통업 영리 - 편 의 점","category":"other"},{"name":"미드리세탁소","tel":"031-455-2193","addr":"경기도 군포시 금정동 747번지","indutype":"수리서비스 - 세탁소","category":"other"}]},{"lat":"37.362699452","long":"126.94097767","imageIndex":17,"items":[{"name":"GS25군포번영점","tel":"","addr":"경기도 군포시 금정동 722-7번지 아산나부빌 101호","indutype":"유통업 영리 - 편 의 점","category":"other"}]},{"lat":"37.361697549","long":"126.9376711","imageIndex":17,"items":[{"name":"GS25군포시청점","tel":"","addr":"경기도 군포시 금정동 716-20번지","indutype":"유통업 영리 - 편 의 점","category":"other"}]},{"lat":"37.361809878","long":"126.94580968","imageIndex":17,"items":[{"name":"GS25군포평화점","tel":"","addr":"경기도 군포시 금정동 766-34번지 1층","indutype":"유통업 영리 - 편 의 점","category":"other"}]},{"lat":"37.367386657","long":"126.94478945","imageIndex":17,"items":[{"name":"GS25금정스마트점","tel":"","addr":"경기도 군포시 금정동 85-1번지 1층","indutype":"유통업 영리 - 편 의 점","category":"other"},{"name":"안양피아노사","tel":"031-456-9113","addr":"경기도 군포시 금정동 85-1번지","indutype":"레져용품 - 피아노대리점","category":"other"},{"name":"햇살크리닝","tel":"031-1577-2497","addr":"경기도 군포시 금정동 85-1번지 2층","indutype":"용역 서비스 - 종합용역","category":"other"}]},{"lat":"37.362169427","long":"126.94405975","imageIndex":17,"items":[{"name":"GS25금정타운점","tel":"","addr":"경기도 군포시 금정동 761-11번지","indutype":"유통업 영리 - 편 의 점","category":"other"}]},{"lat":"37.357532415","long":"126.93337421","imageIndex":17,"items":[{"name":"GS25산본충무점","tel":"02-2006-2485","addr":"경기도 군포시 금정동 874-1번지 역사상가207호","indutype":"유통업 영리 - 편 의 점","category":"other"},{"name":"SNB Commerce","tel":"031-442-9654","addr":"경기도 군포시 금정동 874-1번지 제역사 상가동 107호","indutype":"신변잡화 - 기타잡화","category":"other"},{"name":"가온각인","tel":"","addr":"경기도 군포시 금정동 874-1번지 산본역사상가 406호","indutype":"용역 서비스 - 기타용역서비스","category":"other"},{"name":"드림비즈온","tel":"031-392-9255","addr":"경기도 군포시 금정동 874-1번지 406-7호","indutype":"용역 서비스 - 종합용역","category":"other"},{"name":"비전 라이트 엔터(Vision Light ENT)","tel":"","addr":"경기도 군포시 금정동 874-1번지 산본역사 상가 4층 406호","indutype":"건축자재 - 조명기구","category":"other"},{"name":"성보 주식회사","tel":"031-429-4555","addr":"경기도 군포시 금정동 874-1번지 산본역사 상가 406호","indutype":"용역 서비스 - 종합용역","category":"other"},{"name":"성보비지니스센터","tel":"031-429-4555","addr":"경기도 군포시 금정동 874-1번지 산본역사상가 4층 406호","indutype":"용역 서비스 - 사무서비스","category":"other"},{"name":"송죽열쇠","tel":"031-396-3500","addr":"경기도 군포시 금정동 874-1번지 제역사 상가 110호","indutype":"기타 - 기계공구","category":"other"},{"name":"수연피부샵","tel":"031-393-2732","addr":"경기도 군포시 금정동 874-1번지 역사 상가 401호","indutype":"회원제형태 - 기타4","category":"other"},{"name":"이수커뮤니케이션","tel":"070-4644-1580","addr":"경기도 군포시 금정동 874-1번지 산본역사상가 406호","indutype":"용역 서비스 - 사무서비스","category":"other"},{"name":"주경문화사","tel":"031-396-3379","addr":"경기도 군포시 금정동 874-1번지 산본역사상가 409호","indutype":"서적문구 - 일반서적","category":"other"},{"name":"크린토피아산본역사상가점","tel":"031-399-3010","addr":"경기도 군포시 금정동 874-1번지 역사 상가 211호","indutype":"수리서비스 - 세탁소","category":"other"},{"name":"포토하우스","tel":"031-395-8797","addr":"경기도 군포시 금정동 874-1번지 주공역사 상가 201호","indutype":"광학제품 - 사진관","category":"other"}]},{"lat":"37.365533387","long":"126.95084157","imageIndex":17,"items":[{"name":"H","tel":"031-2601-9198","addr":"경기도 군포시 금정동 150번지 3층","indutype":"가구 - 일반가구","category":"other"}]},{"lat":"37.358001443","long":"126.93423163","imageIndex":17,"items":[{"name":"Honey Skincare","tel":"031-398-7642","addr":"경기도 군포시 금정동 873-1번지 현대프라자 108호","indutype":"회원제형태 - 기타4","category":"other"},{"name":"레스포자전거 할인매장","tel":"031-398-7384","addr":"경기도 군포시 금정동 873-1번지 현대프라자 102호","indutype":"레져용품 - 스포츠·레져용품","category":"other"},{"name":"산본해피실버요양원","tel":"031-391-3131","addr":"경기도 군포시 금정동 873-1번지 현대프라자 604호 ,701,702호","indutype":"기타의료기관 - 기타의료기관 및 기타","category":"other"},{"name":"신도OA센타","tel":"031-396-8866","addr":"경기도 군포시 금정동 873-1번지 현대프라자 202호","indutype":"사무통신 - 사무용 OA기기","category":"other"},{"name":"코텍","tel":"070-4146-0980","addr":"경기도 군포시 금정동 873-1번지 현대프라자 607호","indutype":"수리서비스 - 레져용품수리","category":"other"},{"name":"한밭공인중개사사무소","tel":"031-394-7474","addr":"경기도 군포시 금정동 873-1번지 현대프라자 106호","indutype":"용역 서비스 - 부동산 중개·임대","category":"other"},{"name":"한컴기획","tel":"031-427-4146","addr":"경기도 군포시 금정동 873-1번지 현대프라자 606호","indutype":"회원제형태 - 기타4","category":"other"}]},{"lat":"37.362727161","long":"126.94228707","imageIndex":17,"items":[{"name":"JCI KOREA 군포","tel":"031-455-5068","addr":"경기도 군포시 금정동 743-3번지 가원빌딩 3층","indutype":"기타 - 비영리/대상","category":"other"},{"name":"ND컴퓨터","tel":"031-459-2233","addr":"경기도 군포시 금정동 743-3번지 1층","indutype":"사무통신 - 컴퓨터","category":"other"},{"name":"개운사","tel":"031-454-0108","addr":"경기도 군포시 금정동 743-3번지 3층","indutype":"기타 - 비영리/대상","category":"other"}]},{"lat":"37.369198972","long":"126.94745229","imageIndex":17,"items":[{"name":"JUKKO","tel":"031-458-0061","addr":"경기도 군포시 금정동 692-4번지","indutype":"전기제품 - 기타전기제품","category":"other"},{"name":"주식회사 각시피앤씨","tel":"031-427-7533","addr":"경기도 군포시 금정동 692-4번지","indutype":"신변잡화 - 기타잡화","category":"other"}]},{"lat":"37.358978305","long":"126.94105974","imageIndex":17,"items":[{"name":"S&L시스템에어컨","tel":"031-396-4545","addr":"경기도 군포시 금정동 866-2번지 101호","indutype":"전기제품 - 냉열기기","category":"other"},{"name":"디지털뱅크","tel":"031-394-2938","addr":"경기도 군포시 금정동 866-2번지 1층 102호","indutype":"회원제형태 - 기타3","category":"other"},{"name":"싸카스포츠","tel":"031-398-7440","addr":"경기도 군포시 금정동 866-2번지 101호","indutype":"레져용품 - 스포츠·레져용품","category":"other"},{"name":"워터비스산본점","tel":"031-399-5566","addr":"경기도 군포시 금정동 866-2번지 1층 102호","indutype":"회원제형태 - 기타4","category":"other"}]},{"lat":"37.366694617","long":"126.94844755","imageIndex":17,"items":[{"name":"SMTOPIA","tel":"031-477-1887","addr":"경기도 군포시 금정동 694-29번지 다솜빌딩 1층","indutype":"전기제품 - 기타전기제품","category":"other"},{"name":"주식회사티제이텍","tel":"031-453-0144","addr":"경기도 군포시 금정동 694-29번지","indutype":"전기제품 - 기타전기제품","category":"other"}]},{"lat":"37.36258324","long":"126.94276129","imageIndex":17,"items":[{"name":"가교유리창호","tel":"031-399-2065","addr":"경기도 군포시 금정동 743-17번지","indutype":"용역 서비스 - 기타용역서비스","category":"other"},{"name":"월풀세탁소","tel":"031-452-6976","addr":"경기도 군포시 금정동 743-17번지 보성빌딩 1층 상가","indutype":"수리서비스 - 세탁소","category":"other"}]},{"lat":"37.363781857","long":"126.94329088","imageIndex":17,"items":[{"name":"가나상사","tel":"031-454-0640","addr":"경기도 군포시 금정동 738-7번지","indutype":"직물 - 카페트,커튼,천막,지물","category":"other"}]},{"lat":"37.364113254","long":"126.93948644","imageIndex":17,"items":[{"name":"가나종합집수리","tel":"031-429-5932","addr":"경기도 군포시 금정동 706-45번지 1층","indutype":"건축자재 - 인테리어전문","category":"other"},{"name":"서일침장","tel":"031-391-9066","addr":"경기도 군포시 금정동 706-45번지","indutype":"직물 - 침구·수예점","category":"other"}]},{"lat":"37.362367571","long":"126.94390156","imageIndex":17,"items":[{"name":"가람솔 중부","tel":"031-429-2652","addr":"경기도 군포시 금정동 761-15번지 104호","indutype":"용역 서비스 - 종합용역","category":"other"},{"name":"벽지랑장판","tel":"031-427-2123","addr":"경기도 군포시 금정동 761-15번지 105호","indutype":"직물 - 카페트,커튼,천막,지물","category":"other"},{"name":"제이홍(J HONG)","tel":"","addr":"경기도 군포시 금정동 761-15번지 105호","indutype":"의류 - 정장","category":"other"},{"name":"지영이불","tel":"031-458-2677","addr":"경기도 군포시 금정동 761-15번지","indutype":"직물 - 침구·수예점","category":"other"}]},{"lat":"37.366414581","long":"126.94690119","imageIndex":17,"items":[{"name":"가람테크","tel":"031-452-2260","addr":"경기도 군포시 금정동 695-2번지 1층","indutype":"전기제품 - 기타전기제품","category":"other"}]},{"lat":"37.352288075","long":"126.93264542","imageIndex":17,"items":[{"name":"가번하우징","tel":"070-4656-1274","addr":"경기도 군포시 금정동 871-7번지 삼익소월아파트","indutype":"건축자재 - 인테리어전문","category":"other"}]},{"lat":"37.364168811","long":"126.94234235","imageIndex":17,"items":[{"name":"가온교육","tel":"031-458-7040","addr":"경기도 군포시 금정동 737번지 엘림센스빌","indutype":"회원제형태 - 서적","category":"other"}]},{"lat":"37.364474419","long":"126.94091977","imageIndex":17,"items":[{"name":"가온아이","tel":"031-427-9940","addr":"경기도 군포시 금정동 725-1 2층","indutype":"의류 - 아동의류","category":"other"},{"name":"바이더가족","tel":"031-399-4999","addr":"경기도 군포시 금정동 725-1번지 태을빌딩 6층 5호","indutype":"의류 - 정장","category":"other"},{"name":"주식회사 오티오씨","tel":"0505-977-3777","addr":"경기도 군포시 금정동 725-1번지 태을빌딩 3호","indutype":"회원제형태 - 기타1","category":"other"},{"name":"체리콕","tel":"070-7518-8515","addr":"경기도 군포시 금정동 725-1번지 태을빌딩 나동 1층 2호","indutype":"의류 - 정장","category":"other"}]},{"lat":"37.359528071","long":"126.94134148","imageIndex":17,"items":[{"name":"강산유리","tel":"031-393-3665","addr":"경기도 군포시 금정동 851-6번지 101호","indutype":"건축자재 - 유리","category":"other"},{"name":"호연","tel":"02-6340-5359","addr":"경기도 군포시 금정동 851-6번지 202호","indutype":"문화.취미 - 화원","category":"other"}]},{"lat":"37.356568256","long":"126.93325094","imageIndex":17,"items":[{"name":"강원농산물","tel":"02-500-3052","addr":"경기도 군포시 금정동 872번지 주공2단지","indutype":"회원제형태 - 기타1","category":"other"}]},{"lat":"37.362888594","long":"126.94084205","imageIndex":17,"items":[{"name":"개나리꽃화원","tel":"031-453-9444","addr":"경기도 군포시 금정동 722-6번지","indutype":"문화.취미 - 화원","category":"other"},{"name":"삼보철물","tel":"031-459-5067","addr":"경기도 군포시 금정동 722-6번지","indutype":"건축자재 - 목재·석재·철물","category":"other"}]},{"lat":"37.35995195","long":"126.94211999","imageIndex":17,"items":[{"name":"개팔자 상팔자","tel":"031-397-4244","addr":"경기도 군포시 금정동 855-2번지 102호","indutype":"문화.취미 - 애완동물","category":"other"}]},{"lat":"37.367144957","long":"126.94808598","imageIndex":17,"items":[{"name":"건설환경품질연구원 주식회사","tel":"031-464-4611","addr":"경기도 군포시 금정동 694-5번지","indutype":"용역 서비스 - 사무서비스","category":"other"}]},{"lat":"37.36386176","long":"126.94097671","imageIndex":17,"items":[{"name":"건축사사무소아취","tel":"031-454-7865","addr":"경기도 군포시 금정동 725-6번지","indutype":"용역 서비스 - 사무서비스","category":"other"},{"name":"국제로타리3750지구군포로타리클럽","tel":"031-429-3750","addr":"경기도 군포시 금정동 725-6,7번지4층","indutype":"기타 - 비영리/대상","category":"other"},{"name":"군포금천라이온스클럽","tel":"031-453-9911","addr":"경기도 군포시 금정동 725-6번지 정효빌딩 501호","indutype":"기타 - 비영리/대상","category":"other"},{"name":"법무부범죄예방위원군포지구협의회","tel":"031-459-7374","addr":"경기도 군포시 금정동 725-6번지 정효빌딩 4층","indutype":"기타 - 비영리/대상","category":"other"},{"name":"비젼테크","tel":"031-458-5104","addr":"경기도 군포시 금정동 725-6,7정효빌딩502","indutype":"전기제품 - 기타전기제품","category":"other"},{"name":"선명기획인쇄사","tel":"031-455-3738","addr":"경기도 군포시 금정동 725-6번지 외1필지 정효빌딩 1층 103호","indutype":"서적문구 - 출판 및 인쇄물","category":"other"}]},{"lat":"37.361447859","long":"126.94255901","imageIndex":17,"items":[{"name":"걸쳐","tel":"031-382-7884","addr":"경기도 군포시 금정동 758-23번지 1층 102호","indutype":"의류 - 정장","category":"other"},{"name":"다비드","tel":"031-457-1744","addr":"경기도 군포시 금정동 758-23번지 101호","indutype":"의류 - 정장","category":"other"}]},{"lat":"37.366556595","long":"126.94253234","imageIndex":17,"items":[{"name":"경기군포 지역자활센터","tel":"031-427-0555","addr":"경기도 군포시 금정동 730-2번지 신호빌딩 5층","indutype":"용역 서비스 - 기타용역서비스","category":"other"},{"name":"캐리어텍","tel":"070-7404-8255","addr":"경기도 군포시 금정동 730-2번지 신호빌딩 4층","indutype":"전기제품 - 기타전기제품","category":"other"}]},{"lat":"37.366279663","long":"126.947398","imageIndex":17,"items":[{"name":"경기주방","tel":"031-458-1592","addr":"경기도 군포시 금정동 694-23번지 1층","indutype":"수리서비스 - 가정용품수리","category":"other"},{"name":"성신전기공업(주)","tel":"031-458-0071","addr":"경기도 군포시 금정동 694-23번지","indutype":"용역 서비스 - 기타용역서비스","category":"other"},{"name":"테크원엔지니어링","tel":"031-457-9044","addr":"경기도 군포시 금정동 694-23번지","indutype":"전기제품 - 가전제품","category":"other"},{"name":"테크원엔지니어링/원격지","tel":"031-457-9044","addr":"경기도 군포시 금정동 694-23번지","indutype":"기타 - 기타 전문점","category":"other"}]},{"lat":"37.366422778","long":"126.94520788","imageIndex":17,"items":[{"name":"경도종합","tel":"031-459-2137","addr":"경기도 군포시 금정동 85-10번지","indutype":"건축자재 - 기타건축자재","category":"other"},{"name":"동양사","tel":"031-453-5653","addr":"경기도 군포시 금정동 85-10번지","indutype":"용역 서비스 - 종합용역","category":"other"},{"name":"상신엔지니어링(주)","tel":"031-457-1228","addr":"경기도 군포시 금정동 85-10번지 지층","indutype":"기타 - 기계공구","category":"other"}]},{"lat":"37.375748422","long":"126.94553944","imageIndex":17,"items":[{"name":"고구려전력(주)","tel":"031-455-3770","addr":"경기도 군포시 금정동 1-33번지 3층","indutype":"전기제품 - 기타전기제품","category":"other"},{"name":"이삭","tel":"031-421-4130","addr":"경기도 군포시 금정동 1-33번지 2층","indutype":"직물 - 침구·수예점","category":"other"},{"name":"주식회사 연홍","tel":"031-421-4130","addr":"경기도 군포시 금정동 1-33 3층,4층","indutype":"직물 - 침구·수예점","category":"other"},{"name":"한양스텐","tel":"031-467-2866","addr":"경기도 군포시 금정동 1-33번지","indutype":"기타 - 기타 전문점","category":"other"}]},{"lat":"37.369611633","long":"126.94372655","imageIndex":17,"items":[{"name":"고려페인트(동우상사)","tel":"031-393-4845","addr":"경기도 군포시 금정동 40-11번지 금정빌딩","indutype":"건축자재 - 페인트","category":"other"},{"name":"드웰(Dwell)","tel":"070-4400-3088","addr":"경기도 군포시 금정동 40-11번지 금정빌딩 지1,1층","indutype":"가구 - 일반가구","category":"other"}]},{"lat":"37.366304126","long":"126.94217131","imageIndex":17,"items":[{"name":"공간꾸미기","tel":"031-459-8935","addr":"경기도 군포시 금정동 730-10번지 1층 3호","indutype":"건축자재 - 인테리어전문","category":"other"},{"name":"동서유리","tel":"031-455-9931","addr":"경기도 군포시 금정동 730-10번지 102호","indutype":"건축자재 - 유리","category":"other"}]},{"lat":"37.363359785","long":"126.94614715","imageIndex":17,"items":[{"name":"공감(주)","tel":"031-456-9474","addr":"경기도 군포시 금정동 771-9번지","indutype":"건축자재 - 인테리어전문","category":"other"}]},{"lat":"37.359835044","long":"126.9425603","imageIndex":17,"items":[{"name":"공룡욕실","tel":"","addr":"경기도 군포시 금정동 856-2번지 104호","indutype":"건축자재 - 인테리어전문","category":"other"},{"name":"솔직한 욕실(SOLGIC BATH)","tel":"031-507-1713","addr":"경기도 군포시 금정동 856-2번지 104호","indutype":"건축자재 - 인테리어전문","category":"other"}]},{"lat":"37.360922233","long":"126.93687033","imageIndex":17,"items":[{"name":"공인중개사한운석사","tel":"031-456-4949","addr":"경기도 군포시 금정동 719-10번지","indutype":"용역 서비스 - 부동산 중개·임대","category":"other"},{"name":"플라이핏싱엔드크라프트","tel":"031-427-1830","addr":"경기도 군포시 금정동 719-10번지 102호","indutype":"레져용품 - 스포츠·레져용품","category":"other"},{"name":"한국인형치료연구회","tel":"031-457-2960","addr":"경기도 군포시 금정동 719-10번지 2층","indutype":"서적문구 - 기타서적문구","category":"other"}]},{"lat":"37.36339569","long":"126.94586492","imageIndex":17,"items":[{"name":"구구상사","tel":"031-457-7511","addr":"경기도 군포시 금정동 769-9번지 홈스토리2차 1층","indutype":"유통업 영리 - 기타유통업","category":"other"},{"name":"창조페인트","tel":"031-456-2275","addr":"경기도 군포시 금정동 769-9번지 홈스토리2차 401호","indutype":"용역 서비스 - 기타용역서비스","category":"other"},{"name":"한일애드컴","tel":"031-477-7408","addr":"경기도 군포시 금정동 769-9번지 홈스토리2차 101호","indutype":"용역 서비스 - 종합용역","category":"other"}]},{"lat":"37.354955133","long":"126.93273323","imageIndex":17,"items":[{"name":"국제물물교환","tel":"","addr":"경기도 군포시 금정동 876번지 율곡아파트","indutype":"가구 - 일반가구","category":"other"}]},{"lat":"37.367088673","long":"126.94348018","imageIndex":17,"items":[{"name":"국제열쇠철물","tel":"031-427-3027","addr":"경기도 군포시 금정동 79-4번지","indutype":"건축자재 - 목재·석재·철물","category":"other"}]},{"lat":"37.363251728","long":"126.94628269","imageIndex":17,"items":[{"name":"국제종합상사","tel":"031-453-4544","addr":"경기도 군포시 금정동 771-8번지","indutype":"건축자재 - 건축용 요업제품","category":"other"}]},{"lat":"37.359781935","long":"126.94445668","imageIndex":17,"items":[{"name":"군포렌탈","tel":"031-394-1815","addr":"경기도 군포시 금정동 753-23번지 2층","indutype":"신변잡화 - 기타잡화","category":"other"}]},{"lat":"37.363002012","long":"126.93412548","imageIndex":17,"items":[{"name":"군포시장애인종합복지관","tel":"031-399-1886","addr":"경기도 군포시 금정동 844-1번지","indutype":"기타 - 기타 전문점","category":"other"}]},{"lat":"37.361416672","long":"126.9348945","imageIndex":17,"items":[{"name":"군포시청자치행정과 후생관 구내매점","tel":"031-390-0507","addr":"경기도 군포시 금정동 844번지 군포시청 후생관 구내매점","indutype":"유통업 비영리 - 구내매점(국가기관","category":"other"}]},{"lat":"37.360226771","long":"126.93392483","imageIndex":17,"items":[{"name":"군포우체국","tel":"031-396-8390","addr":"경기도 군포시 금정동 846번지","indutype":"용역 서비스 - 공공요금대행서비스/소","category":"other"},{"name":"우정사업본부(우체국)","tel":"031-396-8014","addr":"경기도 군포시 금정동 846번지","indutype":"용역 서비스 - 공공요금대행서비스/소","category":"other"}]},{"lat":"37.360592182","long":"126.94312409","imageIndex":17,"items":[{"name":"군포유니","tel":"031-962-6564","addr":"경기도 군포시 금정동 747-17번지 대신빌라 가동 202호","indutype":"레져용품 - 스포츠·레져용품","category":"other"}]},{"lat":"37.361976046","long":"126.93620341","imageIndex":17,"items":[{"name":"굿모닝스포츠","tel":"031-451-2430","addr":"경기도 군포시 금정동 718번지 101호","indutype":"레져용품 - 골프용품 전문점","category":"other"},{"name":"미래기획이천","tel":"031-455-2366","addr":"경기도 군포시 금정동 718번지 201호","indutype":"용역 서비스 - 종합용역","category":"other"}]},{"lat":"37.364115577","long":"126.94397921","imageIndex":17,"items":[{"name":"굿토이","tel":"031-427-7335","addr":"경기도 군포시 금정동 910-5번지","indutype":"서적문구 - 완구점","category":"other"}]},{"lat":"37.367278547","long":"126.94481211","imageIndex":17,"items":[{"name":"귀뚜라미보일러대리점서비스(주)","tel":"031-429-9000","addr":"경기도 군포시 금정동 85-2번지","indutype":"건축자재 - 보일러·펌프·샷시","category":"other"},{"name":"로켓트보일러판매(주)","tel":"031-429-9000","addr":"경기도 군포시 금정동 85-2번지","indutype":"건축자재 - 보일러·펌프·샷시","category":"other"}]},{"lat":"37.357316999","long":"126.93479662","imageIndex":17,"items":[{"name":"그린기획","tel":"054-855-0013","addr":"경기도 군포시 금정동 872번지 주공2단지","indutype":"서적문구 - 출판 및 인쇄물","category":"other"}]},{"lat":"37.356561675","long":"126.93750624","imageIndex":17,"items":[{"name":"그린힐스포츠","tel":"031-390-6332","addr":"경기도 군포시 금정동 870-8번지 1층","indutype":"레져용품 - 스포츠·레져용품","category":"other"},{"name":"유한산업(주)","tel":"031-398-5600","addr":"경기도 군포시 금정동 870-8번지","indutype":"회원제형태 - 레져업소","category":"other"}]},{"lat":"37.359916393","long":"126.94306819","imageIndex":17,"items":[{"name":"금강열쇠철물","tel":"031-392-1382","addr":"경기도 군포시 금정동 856-6번지 101호","indutype":"건축자재 - 목재·석재·철물","category":"other"},{"name":"청명시스템","tel":"031-392-5757","addr":"경기도 군포시 금정동 856-6번지 1층 101호","indutype":"전기제품 - 냉열기기","category":"other"}]},{"lat":"37.365609524","long":"126.94059146","imageIndex":17,"items":[{"name":"금강인테리어","tel":"031-429-2340","addr":"경기도 군포시 금정동 727번지","indutype":"건축자재 - 인테리어전문","category":"other"}]},{"lat":"37.361420673","long":"126.94225426","imageIndex":17,"items":[{"name":"금옥당","tel":"031-452-7221","addr":"경기도 군포시 금정동 747-4번지","indutype":"신변잡화 - 귀금속","category":"other"}]},{"lat":"37.36358458","long":"126.94519876","imageIndex":17,"items":[{"name":"금정동우체국","tel":"031-459-2050","addr":"경기도 군포시 금정동 770-2번지","indutype":"용역 서비스 - 공공요금대행서비스/소","category":"other"}]},{"lat":"37.369026003","long":"126.94378346","imageIndex":17,"items":[{"name":"금정유리","tel":"031-455-8314","addr":"경기도 군포시 금정동 44-18번지 지층","indutype":"건축자재 - 유리","category":"other"}]},{"lat":"37.365637278","long":"126.94197994","imageIndex":17,"items":[{"name":"금정재활용센타","tel":"031-455-8566","addr":"경기도 군포시 금정동 728-6번지","indutype":"전기제품 - 가전제품","category":"other"}]},{"lat":"37.365059481","long":"126.93979043","imageIndex":17,"items":[{"name":"금정종합공사","tel":"031-396-1313","addr":"경기도 군포시 금정동 706-7번지 102호","indutype":"기타 - 기계공구","category":"other"}]},{"lat":"37.366448363","long":"126.94231795","imageIndex":17,"items":[{"name":"금정혼수","tel":"031-53-2820","addr":"경기도 군포시 금정동 730-1번지 더퍼스트빌","indutype":"직물 - 침구·수예점","category":"other"}]},{"lat":"37.366331445","long":"126.94273572","imageIndex":17,"items":[{"name":"끌리지오","tel":"031-429-5567","addr":"경기도 군포시 금정동 730-13번지 1층 102호","indutype":"의류 - 정장","category":"other"}]},{"lat":"37.364446966","long":"126.94011831","imageIndex":17,"items":[{"name":"나나공방","tel":"031-0000-0000","addr":"경기도 군포시 금정동 706-17번지 5층","indutype":"문화.취미 - 애완동물","category":"other"},{"name":"요가 수아나","tel":"031-427-0509","addr":"경기도 군포시 금정동 706-17번지 2층","indutype":"회원제형태 - 레져업소","category":"other"},{"name":"하나로보안공사","tel":"031-398-1313","addr":"경기도 군포시 금정동 706-17번지 1층","indutype":"건축자재 - 목재·석재·철물","category":"other"}]},{"lat":"37.361111351","long":"126.93670085","imageIndex":17,"items":[{"name":"나라광고기획","tel":"031-393-8130","addr":"경기도 군포시 금정동 719-12번지 2층 202호","indutype":"용역 서비스 - 종합용역","category":"other"},{"name":"무진주식회사/원격지","tel":"031-427-8851","addr":"경기도 군포시 금정동 719-12번지 3층","indutype":"기타 - 기타 전문점","category":"other"},{"name":"주식회사  좋은건축사사무소","tel":"031-427-3161","addr":"경기도 군포시 금정동 719-12번지 2층","indutype":"용역 서비스 - 사무서비스","category":"other"}]},{"lat":"37.375640377","long":"126.94569759","imageIndex":17,"items":[{"name":"농업회사법인주식회사한미종묘","tel":"031-427-7277","addr":"경기도 군포시 금정동 1-34번지","indutype":"농업 - 비료,사료,종자","category":"other"},{"name":"한국요시다","tel":"031-383-5050","addr":"경기도 군포시 금정동 1-34번지 한미빌딩 2층","indutype":"기타의료기관 - 기타의료기관 및 기타","category":"other"}]},{"lat":"37.361998823","long":"126.94525642","imageIndex":17,"items":[{"name":"늑대와여우컴퓨터","tel":"031-399-4119","addr":"경기도 군포시 금정동 763번지 1층","indutype":"사무통신 - 컴퓨터","category":"other"}]},{"lat":"37.354890223","long":"126.92969709","imageIndex":17,"items":[{"name":"니팅에이","tel":"","addr":"경기도 군포시 금정동 875번지 퇴계주공아파트","indutype":"직물 - 침구·수예점","category":"other"},{"name":"현대티앤아이","tel":"031-393-2375","addr":"경기도 군포시 금정동 875번지 퇴계주공아파트","indutype":"사무통신 - 통신기기","category":"other"}]},{"lat":"37.351944727","long":"126.93104305","imageIndex":17,"items":[{"name":"다산인테리어","tel":"031-395-7001","addr":"경기도 군포시 금정동 871-12번지 다산 상가 106호","indutype":"건축자재 - 인테리어전문","category":"other"}]},{"lat":"37.361112317","long":"126.93845048","imageIndex":17,"items":[{"name":"다진산업","tel":"031-456-6707","addr":"경기도 군포시 금정동 720-15 102.103호","indutype":"건축자재 - 페인트","category":"other"},{"name":"형제기업광고","tel":"031-457-7753","addr":"경기도 군포시 금정동 720-15번지 거성프라자","indutype":"용역 서비스 - 종합용역","category":"other"}]},{"lat":"37.370333063","long":"126.9449791","imageIndex":17,"items":[{"name":"다큐페이스금정역점","tel":"031-456-7456","addr":"경기도 군포시 금정동 689-28번지 한림테크노빌딩 104호","indutype":"서적문구 - 출판 및 인쇄물","category":"other"},{"name":"아이지에이 금정공단점","tel":"031-768-0708","addr":"경기도 군포시 금정동 689-28번지 한림테크노빌딩 103호","indutype":"유통업 영리 - 편 의 점","category":"other"}]},{"lat":"37.360113453","long":"126.94081047","imageIndex":17,"items":[{"name":"달님공예","tel":"031-399-9250","addr":"경기도 군포시 금정동 851번지 301호","indutype":"문화.취미 - 문화취미기타","category":"other"}]},{"lat":"37.368782383","long":"126.94309502","imageIndex":17,"items":[{"name":"대림팩","tel":"031-381-2122","addr":"경기도 군포시 금정동 42-6번지 1층","indutype":"유통업 영리 - 기타유통업","category":"other"}]},{"lat":"37.361808965","long":"126.94394715","imageIndex":17,"items":[{"name":"대명구제","tel":"031-398-4545","addr":"경기도 군포시 금정동 756-1번지 1층","indutype":"의류 - 기타의류","category":"other"}]},{"lat":"37.36272942","long":"126.94687007","imageIndex":17,"items":[{"name":"대명스크린골프","tel":"031-427-4050","addr":"경기도 군포시 금정동 772번지","indutype":"회원제형태 - 레져업소","category":"other"}]},{"lat":"37.361224208","long":"126.94578754","imageIndex":17,"items":[{"name":"대명종합공사","tel":"031-427-0086","addr":"경기도 군포시 금정동 764-5번지","indutype":"건축자재 - 인테리어전문","category":"other"}]},{"lat":"37.367025533","long":"126.94334476","imageIndex":17,"items":[{"name":"대박푸드(FOOD)","tel":"031-8639-0314","addr":"경기도 군포시 금정동 79-3 402","indutype":"회원제형태 - 기타4","category":"other"}]},{"lat":"37.362890472","long":"126.94453329","imageIndex":17,"items":[{"name":"대성공인중개사사무소","tel":"031-456-4555","addr":"경기도 군포시 금정동 760-2번지","indutype":"용역 서비스 - 부동산 중개·임대","category":"other"}]},{"lat":"37.362251973","long":"126.94706232","imageIndex":17,"items":[{"name":"대성닥트","tel":"031-453-9400","addr":"경기도 군포시 금정동 772-2번지","indutype":"전기제품 - 기타전기제품","category":"other"}]},{"lat":"37.375721188","long":"126.94512173","imageIndex":17,"items":[{"name":"대성판넬","tel":"031-458-1776","addr":"경기도 군포시 금정동 1-29번지 1층","indutype":"건축자재 - 기타건축자재","category":"other"}]},{"lat":"37.365865064","long":"126.94711609","imageIndex":17,"items":[{"name":"대승산업","tel":"031-393-1199","addr":"경기도 군포시 금정동 695-5번지","indutype":"주방용구 - 주방용구","category":"other"}]},{"lat":"37.355431124","long":"126.93017062","imageIndex":17,"items":[{"name":"대영 에어컨","tel":"031-395-8436","addr":"경기도 군포시 금정동 875번지 퇴계주공아파트","indutype":"용역 서비스 - 기타용역서비스","category":"other"}]},{"lat":"37.362197183","long":"126.94553847","imageIndex":17,"items":[{"name":"대영당","tel":"031-453-8025","addr":"경기도 군포시 금정동 767번지","indutype":"신변잡화 - 시계","category":"other"}]},{"lat":"37.360700006","long":"126.94253703","imageIndex":17,"items":[{"name":"대영종합철물설비","tel":"031-397-1913","addr":"경기도 군포시 금정동 747-20번지 102호","indutype":"용역 서비스 - 기타용역서비스","category":"other"}]},{"lat":"37.36211454","long":"126.94242302","imageIndex":17,"items":[{"name":"대우벽지안양총판","tel":"032-459-4314","addr":"경기도 군포시 금정동 758-4번지","indutype":"직물 - 카페트,커튼,천막,지물","category":"other"}]},{"lat":"37.374973144","long":"126.94470457","imageIndex":17,"items":[{"name":"대원레이저","tel":"031-452-7395","addr":"경기도 군포시 금정동 1-52번지 1층","indutype":"용역 서비스 - 기타용역서비스","category":"other"},{"name":"알에프티","tel":"031-455-8677","addr":"경기도 군포시 금정동 1-52번지 2층","indutype":"전기제품 - 기타전기제품","category":"other"},{"name":"주식회사 후토씨엔디","tel":"031-454-8878","addr":"경기도 군포시 금정동 1-52번지 2층","indutype":"전기제품 - 기타전기제품","category":"other"}]},{"lat":"37.362168647","long":"126.94251328","imageIndex":17,"items":[{"name":"대한불교포교선원","tel":"031-871-8231","addr":"경기도 군포시 금정동 758-5번지 진영빌딩","indutype":"신변잡화 - 기념품점","category":"other"}]},{"lat":"37.359284926","long":"126.94159001","imageIndex":17,"items":[{"name":"더작앤디자인","tel":"031-398-3393","addr":"경기도 군포시 금정동 865-1번지 지하층","indutype":"건축자재 - 인테리어전문","category":"other"},{"name":"한국TRM","tel":"031-437-6990","addr":"경기도 군포시 금정동 865-1번지 103호","indutype":"주방용구 - 주방용구","category":"other"}]},{"lat":"37.354306443","long":"126.93280155","imageIndex":17,"items":[{"name":"더플레이스","tel":"","addr":"경기도 군포시 금정동 876번지 율곡아파트","indutype":"용역 서비스 - 종합용역","category":"other"}]},{"lat":"37.367784382","long":"126.94745333","imageIndex":17,"items":[{"name":"덕수기공","tel":"031-454-3270","addr":"경기도 군포시 금정동 694-1번지","indutype":"기타 - 기계공구","category":"other"},{"name":"우성테크/원격지","tel":"031-477-9891","addr":"경기도 군포시 금정동 694-1번지","indutype":"기타 - 기타 전문점","category":"other"}]},{"lat":"37.361321078","long":"126.94131744","imageIndex":17,"items":[{"name":"동그라미","tel":"031-429-1004","addr":"경기도 군포시 금정동 744-1번지 신환아파트","indutype":"문화.취미 - 티켓","category":"other"},{"name":"생수나라","tel":"031-421-0209","addr":"경기도 군포시 금정동 744-1번지 신환아파트","indutype":"유통업 영리 - 기타유통업","category":"other"}]},{"lat":"37.359888822","long":"126.94200716","imageIndex":17,"items":[{"name":"동신전자","tel":"031-397-6577","addr":"경기도 군포시 금정동 855-1번지 지층","indutype":"전기제품 - 기타전기제품","category":"other"}]},{"lat":"37.360224066","long":"126.94575444","imageIndex":17,"items":[{"name":"동양사무용가구","tel":"031-459-4826","addr":"경기도 군포시 금정동 764-17번지 101호","indutype":"가구 - 일반가구","category":"other"}]},{"lat":"37.3620309","long":"126.93762566","imageIndex":17,"items":[{"name":"동양이엔씨","tel":"031-452-2289","addr":"경기도 군포시 금정동 716-14번지 105호","indutype":"전기제품 - 기타전기제품","category":"other"}]},{"lat":"37.370197059","long":"126.94326323","imageIndex":17,"items":[{"name":"동양전기","tel":"031-393-0982","addr":"경기도 군포시 금정동 40-18번지","indutype":"전기제품 - 기타전기제품","category":"other"},{"name":"라미야전자담배","tel":"","addr":"경기도 군포시 금정동 40-18번지 1층","indutype":"기타 - 기타 전문점","category":"other"}]},{"lat":"37.365448532","long":"126.94289447","imageIndex":17,"items":[{"name":"동화철물","tel":"031-458-0205","addr":"경기도 군포시 금정동 732번지","indutype":"기타 - 기계공구","category":"other"}]},{"lat":"37.365837954","long":"126.94694678","imageIndex":17,"items":[{"name":"두산유량계제작소","tel":"031-427-6711","addr":"경기도 군포시 금정동 695-6번지","indutype":"기타 - 기타 전문점","category":"other"}]},{"lat":"37.356044516","long":"126.93132132","imageIndex":17,"items":[{"name":"두앤바이오","tel":"031-399-6905","addr":"경기도 군포시 금정동 875번지 퇴계주공아파트","indutype":"서적문구 - 과학기자재","category":"other"}]},{"lat":"37.371414793","long":"126.94603948","imageIndex":17,"items":[{"name":"두온시스템 (주)","tel":"031-389-6109","addr":"경기도 군포시 금정동 689-3번지","indutype":"전기제품 - 기타전기제품","category":"other"}]},{"lat":"37.354934986","long":"126.92923428","imageIndex":17,"items":[{"name":"드림","tel":"","addr":"경기도 군포시 금정동 875번지 퇴계주공아파트","indutype":"용역 서비스 - 기타용역서비스","category":"other"},{"name":"디유핸즈","tel":"070-7579-1451","addr":"경기도 군포시 금정동 875번지 퇴계주공아파트","indutype":"신변잡화 - 기타잡화","category":"other"}]},{"lat":"37.362781365","long":"126.94256923","imageIndex":17,"items":[{"name":"디엔지상사","tel":"031-451-8471","addr":"경기도 군포시 금정동 743-2번지 오복프라자 6층 603호","indutype":"기타 - 기타 전문점","category":"other"},{"name":"디엔지상사/원격지","tel":"","addr":"경기도 군포시 금정동 743-2번지 오복프라자 6층 603호","indutype":"기타 - 기타 전문점","category":"other"},{"name":"이지크린","tel":"031-549-7084","addr":"경기도 군포시 금정동 743-2","indutype":"가구 - 일반가구","category":"other"},{"name":"제일수요양원","tel":"031-342-8899","addr":"경기도 군포시 금정동 743-2번지 2층","indutype":"기타의료기관 - 기타의료기관 및 기타","category":"other"}]},{"lat":"37.363971234","long":"126.9436181","imageIndex":17,"items":[{"name":"디자인A플러스","tel":"031-391-7707","addr":"경기도 군포시 금정동 738-5번지 1층","indutype":"건축자재 - 인테리어전문","category":"other"},{"name":"리더사무용가구","tel":"031-457-1356","addr":"경기도 군포시 금정동 738-5번지","indutype":"가구 - 일반가구","category":"other"}]},{"lat":"37.361454905","long":"126.93882269","imageIndex":17,"items":[{"name":"뚝딱철물장식","tel":"031-427-1379","addr":"경기도 군포시 금정동 720-5번지 무지개트윈스아파트","indutype":"건축자재 - 목재·석재·철물","category":"other"}]},{"lat":"37.366449576","long":"126.94473373","imageIndex":17,"items":[{"name":"락앤트리","tel":"031-393-2660","addr":"경기도 군포시 금정동 84-9번지 303호","indutype":"레져용품 - 스포츠·레져용품","category":"other"}]},{"lat":"37.366700941","long":"126.94289347","imageIndex":17,"items":[{"name":"레몬시스템","tel":"031-429-8297","addr":"경기도 군포시 금정동 730-11번지 1층 102호","indutype":"전기제품 - 기타전기제품","category":"other"}]},{"lat":"37.369944929","long":"126.94356824","imageIndex":17,"items":[{"name":"레이디가구","tel":"031-397-7646","addr":"경기도 군포시 금정동 40-8번지 상가 1층","indutype":"가구 - 일반가구","category":"other"}]},{"lat":"37.356946094","long":"126.93225731","imageIndex":17,"items":[{"name":"로망스튜디오","tel":"","addr":"경기도 군포시 금정동 873-4번지 명산빌딩 2층 202호","indutype":"문화.취미 - 문화취미기타","category":"other"},{"name":"몽땅연필","tel":"070-5796-8228","addr":"경기도 군포시 금정동 873-4번지 명산빌딩 지하동1층 3호","indutype":"용역 서비스 - 사무서비스","category":"other"},{"name":"세븐일레븐산본역사거리점","tel":"031-1577-0711","addr":"경기도 군포시 금정동 873-4번지 명산빌딩 상가동 1층 103호","indutype":"유통업 영리 - 편 의 점","category":"other"},{"name":"이씨엠전자담배군포산본점","tel":"070-4233-9430","addr":"경기도 군포시 금정동 873-4번지 명산빌딩 104-2호","indutype":"기타 - 기타 전문점","category":"other"}]},{"lat":"37.363086858","long":"126.94092091","imageIndex":17,"items":[{"name":"로얄스포츠","tel":"031-453-1786","addr":"경기도 군포시 금정동 722-4번지","indutype":"레져용품 - 스포츠·레져용품","category":"other"},{"name":"숙녀복전문샵in","tel":"031-429-3009","addr":"경기도 군포시 금정동 722-4번지","indutype":"의류 - 정장","category":"other"}]},{"lat":"37.358822414","long":"126.93605947","imageIndex":17,"items":[{"name":"로즈플라워","tel":"070-8621-8261","addr":"경기도 군포시 금정동 849번지 무궁화주공아파트","indutype":"회원제형태 - 기타4","category":"other"}]},{"lat":"37.36691653","long":"126.94161766","imageIndex":17,"items":[{"name":"롯데캐논우리사무기","tel":"031-59-1995","addr":"경기도 군포시 금정동 702-13번지","indutype":"사무통신 - 사무용 OA기기","category":"other"},{"name":"이건블라인드","tel":"031-454-1045","addr":"경기도 군포시 금정동 702-13번지 103호","indutype":"직물 - 침구·수예점","category":"other"}]},{"lat":"37.364032899","long":"126.94087498","imageIndex":17,"items":[{"name":"롯데캐논우리사무기(특별할부)","tel":"031-459-1995","addr":"경기도 군포시 금정동 725-4번지","indutype":"사무통신 - 사무용 OA기기","category":"other"}]},{"lat":"37.366837145","long":"126.94500436","imageIndex":17,"items":[{"name":"리드세이프티(주)","tel":"031-477-1133","addr":"경기도 군포시 금정동 85-6번지","indutype":"건축자재 - 기타건축자재","category":"other"}]},{"lat":"37.355098594","long":"126.93155924","imageIndex":17,"items":[{"name":"리라플라워","tel":"02-572-3006","addr":"경기도 군포시 금정동 876번지","indutype":"문화.취미 - 화원","category":"other"},{"name":"써니데이(Sunnyday)","tel":"","addr":"경기도 군포시 금정동 876번지 율곡아파트","indutype":"신변잡화 - 액세서리","category":"other"},{"name":"티원이엔지","tel":"031-479-3726","addr":"경기도 군포시 금정동 876번지 율곡아파트","indutype":"회원제형태 - 기타4","category":"other"}]},{"lat":"37.36908917","long":"126.94397532","imageIndex":17,"items":[{"name":"리바트산본전시판매장","tel":"031-459-4782","addr":"경기도 군포시 금정동 44-4번지","indutype":"가구 - 일반가구","category":"other"},{"name":"삼익가구산본점","tel":"031-477-9979","addr":"경기도 군포시 금정동 44-4번지","indutype":"가구 - 일반가구","category":"other"}]},{"lat":"37.367502363","long":"126.94195585","imageIndex":17,"items":[{"name":"마스터클리닝","tel":"031-456-0549","addr":"경기도 군포시 금정동 701-13삼우빌라401,15/3","indutype":"용역 서비스 - 기타용역서비스","category":"other"}]},{"lat":"37.366530872","long":"126.94515135","imageIndex":17,"items":[{"name":"만년미래주방","tel":"","addr":"경기도 군포시 금정동 85-9번지","indutype":"주방용구 - 주방용구","category":"other"},{"name":"한라산목재합판","tel":"031-452-7642","addr":"경기도 군포시 금정동 85-9번지","indutype":"건축자재 - 목재·석재·철물","category":"other"}]},{"lat":"37.367973789","long":"126.94787088","imageIndex":17,"items":[{"name":"매일경제군포지국","tel":"031-452-9301","addr":"경기도 군포시 금정동 693번지","indutype":"서적문구 - 정기간행물","category":"other"},{"name":"성우프린텍","tel":"031-455-1094","addr":"경기도 군포시 금정동 693번지 동우빌딩","indutype":"전기제품 - 기타전기제품","category":"other"},{"name":"한나전자","tel":"031-53-6963","addr":"경기도 군포시 금정동 693번지","indutype":"전기제품 - 가전제품","category":"other"}]},{"lat":"37.367532523","long":"126.94836792","imageIndex":17,"items":[{"name":"메이킹북스토리","tel":"070-7012-1015","addr":"경기도 군포시 금정동 693-24번지 지하층","indutype":"서적문구 - 출판 및 인쇄물","category":"other"},{"name":"주식회사 프락시스","tel":"031-429-9797","addr":"경기도 군포시 금정동 693-24번지 3층","indutype":"사무통신 - 컴퓨터","category":"other"}]},{"lat":"37.360751454","long":"126.93761548","imageIndex":17,"items":[{"name":"명진종합인테리어","tel":"031-477-4779","addr":"경기도 군포시 금정동 719-5번지","indutype":"건축자재 - 인테리어전문","category":"other"}]},{"lat":"37.361332439","long":"126.94601322","imageIndex":17,"items":[{"name":"명품구제","tel":"031-399-3004","addr":"경기도 군포시 금정동 766-27번지","indutype":"의류 - 정장","category":"other"}]},{"lat":"37.355505966","long":"126.93480954","imageIndex":17,"items":[{"name":"명품세탁","tel":"031-391-0177","addr":"경기도 군포시 금정동 872-3 주공2단지상가동 101","indutype":"수리서비스 - 세탁소","category":"other"}]},{"lat":"37.36333179","long":"126.94417172","imageIndex":17,"items":[{"name":"모아웍스(주)","tel":"031-479-4554","addr":"경기도 군포시 금정동 742-1","indutype":"건축자재 - 기타건축자재","category":"other"}]},{"lat":"37.363277981","long":"126.94467974","imageIndex":17,"items":[{"name":"물듦플라워","tel":"070-7556-6036","addr":"경기도 군포시 금정동 770번지","indutype":"문화.취미 - 화원","category":"other"}]},{"lat":"37.367223585","long":"126.94300594","imageIndex":17,"items":[{"name":"미니스톱군포금정점","tel":"031-341-0606","addr":"경기도 군포시 금정동 52-12번지 (700-1번지)","indutype":"유통업 영리 - 편 의 점","category":"other"}]},{"lat":"37.352189675","long":"126.93385317","imageIndex":17,"items":[{"name":"미래통상","tel":"031-399-2464","addr":"경기도 군포시 금정동 871-7번지 삼익소월아파트","indutype":"신변잡화 - 기타잡화","category":"other"}]},{"lat":"37.364141003","long":"126.94084102","imageIndex":17,"items":[{"name":"미르통신","tel":"031-349-8984","addr":"경기도 군포시 금정동 725-3번지 덕성빌딩 101호","indutype":"사무통신 - 통신기기","category":"other"},{"name":"삼대인쇄문구","tel":"031-452-0066","addr":"경기도 군포시 금정동 725-3번지 덕성빌딩 1층","indutype":"서적문구 - 문구용품","category":"other"}]},{"lat":"37.364943936","long":"126.94283843","imageIndex":17,"items":[{"name":"미주유통","tel":"031-383-8949","addr":"경기도 군포시 금정동 734-5번지 101호","indutype":"의류 - 정장","category":"other"},{"name":"슈니컴퓨터","tel":"031-456-1969","addr":"경기도 군포시 금정동 734-5번지 102호","indutype":"수리서비스 - 사무·통신기기수리","category":"other"}]},{"lat":"37.36164281","long":"126.93645205","imageIndex":17,"items":[{"name":"미창인쇄출판사","tel":"031-458-3366","addr":"경기도 군포시 금정동 718-10번지","indutype":"서적문구 - 출판 및 인쇄물","category":"other"}]},{"lat":"37.362114314","long":"126.94198279","imageIndex":17,"items":[{"name":"미코","tel":"031-457-5712","addr":"경기도 군포시 금정동 743-24번지 102호","indutype":"의류 - 정장","category":"other"}]},{"lat":"37.365307361","long":"126.94911457","imageIndex":17,"items":[{"name":"바로정밀","tel":"031-459-4071","addr":"경기도 군포시 금정동 172-8번지 1호","indutype":"기타 - 기계공구","category":"other"}]},{"lat":"37.361860865","long":"126.93975925","imageIndex":17,"items":[{"name":"바위섬수족관","tel":"031-455-9911","addr":"경기도 군포시 금정동 721-22번지 남광그린빌","indutype":"문화.취미 - 수족관","category":"other"}]},{"lat":"37.356038138","long":"126.93581362","imageIndex":17,"items":[{"name":"바이온-텍서비스","tel":"031-397-6456","addr":"경기도 군포시 금정동 872번지 주공2단지","indutype":"회원제형태 - 기타4","category":"other"},{"name":"알로하","tel":"031-1111-1111","addr":"경기도 군포시 금정동 872번지 주공2단지","indutype":"문화.취미 - 애완동물","category":"other"}]},{"lat":"37.365168039","long":"126.94061441","imageIndex":17,"items":[{"name":"바이온텍서비스","tel":"031-349-4522","addr":"경기도 군포시 금정동 726-10번지 무지개빌라 101호","indutype":"회원제형태 - 기타3","category":"other"}]},{"lat":"37.361563124","long":"126.9390032","imageIndex":17,"items":[{"name":"바이크N","tel":"031-423-5964","addr":"경기도 군포시 금정동 720-5번지 무지개트윈스아파트","indutype":"레져용품 - 스포츠·레져용품","category":"other"},{"name":"새론인테리어","tel":"031-465-7871","addr":"경기도 군포시 금정동 720-5번지 무지개트윈스아파트","indutype":"건축자재 - 인테리어전문","category":"other"}]},{"lat":"37.365140542","long":"126.93973392","imageIndex":17,"items":[{"name":"바이크하우스","tel":"031-429-9832","addr":"경기도 군포시 금정동 706-6번지","indutype":"레져용품 - 스포츠·레져용품","category":"other"},{"name":"바이클시티","tel":"031-451-2770","addr":"경기도 군포시 금정동 706-6번지","indutype":"레져용품 - 스포츠·레져용품","category":"other"}]},{"lat":"37.361498667","long":"126.93648604","imageIndex":17,"items":[{"name":"백마출판사","tel":"031-477-4946","addr":"경기도 군포시 금정동 718-9번지 보라빌딩 302호","indutype":"서적문구 - 출판 및 인쇄물","category":"other"}]},{"lat":"37.359753884","long":"126.94242492","imageIndex":17,"items":[{"name":"뱅크정보","tel":"031-421-1114","addr":"경기도 군포시 금정동 856-1번지 1층","indutype":"사무통신 - 통신기기","category":"other"},{"name":"양정텔레콤","tel":"031-399-6792","addr":"경기도 군포시 금정동 856-1번지","indutype":"전기제품 - 기타전기제품","category":"other"},{"name":"이지체크(하늘정보통신)","tel":"031-399-6400","addr":"경기도 군포시 금정동 856-1번지 102호","indutype":"사무통신 - 통신기기","category":"other"}]},{"lat":"37.365638081","long":"126.94356034","imageIndex":17,"items":[{"name":"버프시스템","tel":"","addr":"경기도 군포시 금정동 80-6번지 1층","indutype":"사무통신 - 컴퓨터","category":"other"}]},{"lat":"37.365864039","long":"126.94498253","imageIndex":17,"items":[{"name":"범양공조산업(주)","tel":"053-761-7777","addr":"경기도 군포시 금정동 904-5번지","indutype":"전기제품 - 냉열기기","category":"other"}]},{"lat":"37.361201547","long":"126.93687009","imageIndex":17,"items":[{"name":"법무사진선철사무소","tel":"031-424-9100","addr":"경기도 군포시 금정동 719번지 2층","indutype":"용역 서비스 - 법률회계서비스(개인)","category":"other"}]},{"lat":"37.369305362","long":"126.94387355","imageIndex":17,"items":[{"name":"베드디포(군포점)","tel":"031-459-0446","addr":"경기도 군포시 금정동 44-2번지","indutype":"가구 - 일반가구","category":"other"}]},{"lat":"37.364477726","long":"126.94759123","imageIndex":17,"items":[{"name":"베스트골프샵","tel":"031-456-8856","addr":"경기도 군포시 금정동 185-4번지 1층","indutype":"레져용품 - 스포츠·레져용품","category":"other"}]},{"lat":"37.365145717","long":"126.95031127","imageIndex":17,"items":[{"name":"베스트아이스","tel":"02-808-2885","addr":"경기도 군포시 금정동 170-8번지","indutype":"주방용구 - 주방용구","category":"other"}]},{"lat":"37.362060439","long":"126.94234405","imageIndex":17,"items":[{"name":"베이비월드","tel":"031-453-0959","addr":"경기도 군포시 금정동 758-3번지 1층","indutype":"의류 - 아동의류","category":"other"}]},{"lat":"37.361557436","long":"126.94548251","imageIndex":17,"items":[{"name":"벽과공간인테리어","tel":"070-8173-3130","addr":"경기도 군포시 금정동 764-1번지 미도그린빌라 101호","indutype":"직물 - 카페트,커튼,천막,지물","category":"other"}]},{"lat":"37.362782622","long":"126.9450865","imageIndex":17,"items":[{"name":"보금광고인테리어","tel":"031-454-7790","addr":"경기도 군포시 금정동 769-8번지","indutype":"건축자재 - 인테리어전문","category":"other"},{"name":"보금당","tel":"031-454-7790","addr":"경기도 군포시 금정동 769-8번지","indutype":"신변잡화 - 귀금속","category":"other"},{"name":"엔젤컴퓨터","tel":"","addr":"경기도 군포시 금정동 769-8번지 1층","indutype":"수리서비스 - 사무·통신기기수리","category":"other"},{"name":"오렌지","tel":"031-429-5581","addr":"경기도 군포시 금정동 769-8번지","indutype":"의류 - 기타의류","category":"other"}]},{"lat":"37.360645888","long":"126.9424242","imageIndex":17,"items":[{"name":"부영전자","tel":"070-7574-2016","addr":"경기도 군포시 금정동 747-19번지 지층","indutype":"전기제품 - 기타전기제품","category":"other"}]},{"lat":"37.365415483","long":"126.9491145","imageIndex":17,"items":[{"name":"부흥샤프트","tel":"031-427-8489","addr":"경기도 군포시 금정동 172-13번지","indutype":"기타 - 기계공구","category":"other"}]},{"lat":"37.360450257","long":"126.94772964","imageIndex":17,"items":[{"name":"블랙박스","tel":"","addr":"경기도 군포시 금정동 775-7번지 서영오피스텔 201호","indutype":"신변잡화 - 액세서리","category":"other"}]},{"lat":"37.362057245","long":"126.93639524","imageIndex":17,"items":[{"name":"비스코","tel":"070-8767-2000","addr":"경기도 군포시 금정동 718-1번지 1층","indutype":"기타 - 기계공구","category":"other"},{"name":"주식회사 에이원방재산업","tel":"031-393-0042","addr":"경기도 군포시 금정동 718-1번지 1층,2층","indutype":"용역 서비스 - 기타용역서비스","category":"other"},{"name":"한국위험물환경기술(주)","tel":"031-457-1194","addr":"경기도 군포시 금정동 718-1번지 4층","indutype":"용역 서비스 - 사무서비스","category":"other"}]},{"lat":"37.369000515","long":"126.94695572","imageIndex":17,"items":[{"name":"비앤지인터내셔날(주)","tel":"02-597-5631","addr":"경기도 군포시 금정동 692-6번지","indutype":"기타 - 기타 전문점","category":"other"}]},{"lat":"37.363141213","long":"126.94148527","imageIndex":17,"items":[{"name":"빅벨올로","tel":"031-53-9448","addr":"경기도 군포시 금정동 723번지 태광퍼스트힐","indutype":"의류 - 정장","category":"other"},{"name":"일신마트","tel":"031-477-4443","addr":"경기도 군포시 금정동 723번지 태광퍼스트힐","indutype":"의류 - 내의판매","category":"other"}]},{"lat":"37.356089286","long":"126.9308585","imageIndex":17,"items":[{"name":"빌메이트 프로샵","tel":"031-399-3939","addr":"경기도 군포시 금정동 875번지 퇴계주공아파트","indutype":"수리서비스 - 레져용품수리","category":"other"}]},{"lat":"37.36478104","long":"126.94145007","imageIndex":17,"items":[{"name":"빌트인주방가구","tel":"031-458-8389","addr":"경기도 군포시 금정동 724-13번지","indutype":"주방용구 - 주방용구","category":"other"},{"name":"소하꽃가게","tel":"031-451-3533","addr":"경기도 군포시 금정동 724-13번지","indutype":"문화.취미 - 화원","category":"other"}]},{"lat":"37.356856978","long":"126.93392791","imageIndex":17,"items":[{"name":"쁘띠벨","tel":"031-397-1903","addr":"경기도 군포시 금정동 872번지 주공2단지","indutype":"회원제형태 - 기타4","category":"other"}]},{"lat":"37.360778315","long":"126.93731069","imageIndex":17,"items":[{"name":"쁘레클","tel":"031-429-5940","addr":"경기도 군포시 금정동 719-6번지 성진히나스 1층 101호","indutype":"가구 - 기타가구","category":"other"}]},{"lat":"37.353667009","long":"126.93328748","imageIndex":17,"items":[{"name":"산본세탁","tel":"031-395-0908","addr":"경기도 군포시 금정동 876 분산상가 B-103","indutype":"수리서비스 - 세탁소","category":"other"}]},{"lat":"37.360859774","long":"126.9379766","imageIndex":17,"items":[{"name":"산본엘이디(LED)보급소","tel":"031-452-8872","addr":"경기도 군포시 금정동 719-4번지 금정빌딩","indutype":"건축자재 - 조명기구","category":"other"},{"name":"잉크월드","tel":"031-453-0025","addr":"경기도 군포시 금정동 719-4번지 104호","indutype":"사무통신 - 기타 사무용품","category":"other"},{"name":"카피컴/특별할부","tel":"031-452-0988","addr":"경기도 군포시 금정동 719-4번지","indutype":"사무통신 - 사무용 OA기기","category":"other"},{"name":"프리텍 인터내셔날","tel":"070-4001-3212","addr":"경기도 군포시 금정동 719-4번지 3층 302호","indutype":"용역 서비스 - 사무서비스","category":"other"},{"name":"한양인테리어","tel":"031-429-2388","addr":"경기도 군포시 금정동 719-4번지 금정빌딩","indutype":"건축자재 - 인테리어전문","category":"other"}]},{"lat":"37.363475818","long":"126.94390069","imageIndex":17,"items":[{"name":"산본열쇠","tel":"031-427-2222","addr":"경기도 군포시 금정동 742번지","indutype":"기타 - 기계공구","category":"other"},{"name":"소리정보통신","tel":"031-455-2405","addr":"경기도 군포시 금정동 742번지","indutype":"사무통신 - 통신기기","category":"other"},{"name":"잉글랜드제화","tel":"031-454-1442","addr":"경기도 군포시 금정동 742번지 103호","indutype":"신변잡화 - 신발","category":"other"},{"name":"현대도건","tel":"031-454-7704","addr":"경기도 군포시 금정동 742번지","indutype":"건축자재 - 기타건축자재","category":"other"}]},{"lat":"37.357306862","long":"126.93286649","imageIndex":17,"items":[{"name":"산본종합서적여원미디어","tel":"031-393-3500","addr":"경기도 군포시 금정동 874번지 산본빌딩 103호","indutype":"서적문구 - 일반서적","category":"other"},{"name":"삼산복싱무에타이","tel":"031-398-5631","addr":"경기도 군포시 금정동 874번지","indutype":"회원제형태 - 레져업소","category":"other"},{"name":"어린이서점 산본서적","tel":"031-393-3500","addr":"경기도 군포시 금정동 874번지 산본빌딩 지하","indutype":"서적문구 - 일반서적","category":"other"},{"name":"어린이서점 탄탄스토리하우스(안양산본)","tel":"031-443-0033","addr":"경기도 군포시 금정동 874번지 산본빌딩 801호","indutype":"서적문구 - 일반서적","category":"other"},{"name":"패션뜨게방","tel":"031-391-8886","addr":"경기도 군포시 금정동 874번지 산본빌딩 1층 106호","indutype":"직물 - 침구·수예점","category":"other"}]},{"lat":"37.366665624","long":"126.94433846","imageIndex":17,"items":[{"name":"산타피오피","tel":"031-349-7274","addr":"경기도 군포시 금정동 82-7번지 2층 2호","indutype":"용역 서비스 - 종합용역","category":"other"}]},{"lat":"37.365169109","long":"126.94268021","imageIndex":17,"items":[{"name":"삼보조명","tel":"","addr":"경기도 군포시 금정동 733-11번지 402호","indutype":"용역 서비스 - 기타용역서비스","category":"other"}]},{"lat":"37.360333125","long":"126.94772972","imageIndex":17,"items":[{"name":"삼성냉열","tel":"031-429-4536","addr":"경기도 군포시 금정동 775-8번지 1층상가","indutype":"전기제품 - 냉열기기","category":"other"}]},{"lat":"37.376532071","long":"126.94506466","imageIndex":17,"items":[{"name":"삼성넥스텍 주식회사","tel":"02-6380-6556","addr":"경기도 군포시 금정동 1번지 동우빌딩 2층","indutype":"기타 - 기계공구","category":"other"},{"name":"하이브린팅주식회사","tel":"031-427-0788","addr":"경기도 군포시 금정동 1번지 동우빌딩","indutype":"서적문구 - 출판 및 인쇄물","category":"other"}]},{"lat":"37.376333959","long":"126.94529061","imageIndex":17,"items":[{"name":"삼우기업","tel":"02-893-2097","addr":"경기도 군포시 금정동 1-19번지","indutype":"기타 - 기계공구","category":"other"}]},{"lat":"37.36814301","long":"126.94378415","imageIndex":17,"items":[{"name":"삼원비니루","tel":"031-451-1991","addr":"경기도 군포시 금정동 45-9번지 지층","indutype":"유통업 영리 - 기타유통업","category":"other"}]},{"lat":"37.366388122","long":"126.94812039","imageIndex":17,"items":[{"name":"삼원주방설비","tel":"031-451-0391","addr":"경기도 군포시 금정동 694-31번지","indutype":"주방용구 - 주방용구","category":"other"}]},{"lat":"37.37030526","long":"126.9434212","imageIndex":17,"items":[{"name":"삼익가구","tel":"031-398-1213","addr":"경기도 군포시 금정동 40-5번지","indutype":"가구 - 일반가구","category":"other"}]},{"lat":"37.367475117","long":"126.94153819","imageIndex":17,"items":[{"name":"삼일KIT","tel":"031-458-8844","addr":"경기도 군포시 금정동 702-4,호성빌라15/5","indutype":"수리서비스 - 가정용품수리","category":"other"}]},{"lat":"37.361222594","long":"126.94253662","imageIndex":17,"items":[{"name":"새모양","tel":"031-457-6536","addr":"경기도 군포시 금정동 747-10번지","indutype":"직물 - 카페트,커튼,천막,지물","category":"other"}]},{"lat":"37.362584482","long":"126.94525597","imageIndex":17,"items":[{"name":"새시대철물","tel":"031-455-2984","addr":"경기도 군포시 금정동 768번지","indutype":"건축자재 - 목재·석재·철물","category":"other"}]},{"lat":"37.366809898","long":"126.94456412","imageIndex":17,"items":[{"name":"샘물나라","tel":"031-405-2519","addr":"경기도 군포시 금정동 82-9번지 금정스위트빌 201호","indutype":"주방용구 - 정수기","category":"other"},{"name":"컴퓨터랜드","tel":"031-454-1470","addr":"경기도 군포시 금정동 82-9번지 금정스위트빌 101호","indutype":"사무통신 - 컴퓨터","category":"other"}]},{"lat":"37.366277309","long":"126.94258901","imageIndex":17,"items":[{"name":"샤론의장미","tel":"031-397-1615","addr":"경기도 군포시 금정동 730-15번지","indutype":"문화.취미 - 민예·공예품","category":"other"},{"name":"서울홈크리닝","tel":"031-383-8189","addr":"경기도 군포시 금정동 730-15번지 101호","indutype":"용역 서비스 - 종합용역","category":"other"}]},{"lat":"37.361421764","long":"126.94442155","imageIndex":17,"items":[{"name":"서랑인테리어","tel":"","addr":"경기도 군포시 금정동 756-21번지 금호아파트","indutype":"건축자재 - 인테리어전문","category":"other"}]},{"lat":"37.359557435","long":"126.94600327","imageIndex":17,"items":[{"name":"서영이불,뜨개방","tel":"031-429-9747","addr":"경기도 군포시 금정동 752-10번지 지하1층","indutype":"직물 - 침구·수예점","category":"other"}]},{"lat":"37.360973382","long":"126.94889191","imageIndex":17,"items":[{"name":"서울스포츠상사","tel":"031-473-3380","addr":"경기도 군포시 금정동 215-1번지","indutype":"레져용품 - 스포츠·레져용품","category":"other"}]},{"lat":"37.361366022","long":"126.94111422","imageIndex":17,"items":[{"name":"서울양복점","tel":"031-458-3072","addr":"경기도 군포시 금정동 744-1 신환상가지층31호","indutype":"의류 - 정장","category":"other"},{"name":"시그맥스(SIGMAX)","tel":"02-6335-1100","addr":"경기도 군포시 금정동 744-1번지 신환 상가 108호","indutype":"사무통신 - 통신기기","category":"other"},{"name":"신환 D.C 마트","tel":"031-456-6200","addr":"경기도 군포시 금정동 744-1 신환상가 1~3,13~16,24~27,30~32호","indutype":"신변잡화 - 기타잡화","category":"other"}]},{"lat":"37.364803965","long":"126.95175644","imageIndex":17,"items":[{"name":"서진운수(주)","tel":"031-457-8978","addr":"경기도 군포시 금정동 162-3번지","indutype":"여행 - 택시회사","category":"other"},{"name":"우양산기(주)","tel":"031-456-8441","addr":"경기도 군포시 금정동 162-3번지 1층 공장 1층","indutype":"기타 - 기계공구","category":"other"}]},{"lat":"37.363779709","long":"126.93917065","imageIndex":17,"items":[{"name":"서진하이진","tel":"031-457-1654","addr":"경기도 군포시 금정동 709-13번지","indutype":"유통업 영리 - 기타유통업","category":"other"}]},{"lat":"37.36172883","long":"126.94590004","imageIndex":17,"items":[{"name":"선우인쇄","tel":"031-427-9762","addr":"경기도 군포시 금정동 766-33번지 1층","indutype":"서적문구 - 출판 및 인쇄물","category":"other"}]},{"lat":"37.36178181","long":"126.94369884","imageIndex":17,"items":[{"name":"선이불뜨게방","tel":"031-457-1641","addr":"경기도 군포시 금정동 756-16번지 외1필지","indutype":"직물 - 침구·수예점","category":"other"},{"name":"신세기 광고·현수막","tel":"031-427-3994","addr":"경기도 군포시 금정동 756-16번지 3층","indutype":"건축자재 - 인테리어전문","category":"other"},{"name":"윌리엄 제이 모리스","tel":"031-456-0763","addr":"경기도 군포시 금정동 756-16번지 2층 201호","indutype":"의류 - 정장","category":"other"}]},{"lat":"37.360224601","long":"126.94687193","imageIndex":17,"items":[{"name":"설비모아","tel":"","addr":"경기도 군포시 금정동 775-15번지 101호","indutype":"용역 서비스 - 기타용역서비스","category":"other"}]},{"lat":"37.358392516","long":"126.94081189","imageIndex":17,"items":[{"name":"성림유통","tel":"031-392-9712","addr":"경기도 군포시 금정동 869-1번지 201호","indutype":"의류 - 정장","category":"other"}]},{"lat":"37.359447255","long":"126.94187207","imageIndex":17,"items":[{"name":"세경화원","tel":"031-425-2062","addr":"경기도 군포시 금정동 865-3번지","indutype":"문화.취미 - 화원","category":"other"},{"name":"아라교육","tel":"070-4214-6945","addr":"경기도 군포시 금정동 865-3번지","indutype":"서적문구 - 기타서적문구","category":"other"},{"name":"은성교육","tel":"031-1688-5723","addr":"경기도 군포시 금정동 865-3번지 지층","indutype":"서적문구 - 기타서적문구","category":"other"}]},{"lat":"37.368199184","long":"126.94817552","imageIndex":17,"items":[{"name":"세븐일레븐군포금정동점","tel":"","addr":"경기도 군포시 금정동 693-2번지","indutype":"유통업 영리 - 편 의 점","category":"other"}]},{"lat":"37.364339917","long":"126.94217289","imageIndex":17,"items":[{"name":"세븐일레븐군포번영로점","tel":"","addr":"경기도 군포시 금정동 734-19번지","indutype":"유통업 영리 - 편 의 점","category":"other"}]},{"lat":"37.366999072","long":"126.94448495","imageIndex":17,"items":[{"name":"세븐일레븐군포스마트점","tel":"","addr":"경기도 군포시 금정동 81-9번지 퍼스트빌","indutype":"유통업 영리 - 편 의 점","category":"other"}]},{"lat":"37.361255419","long":"126.9365314","imageIndex":17,"items":[{"name":"세븐일레븐군포시청점","tel":"","addr":"경기도 군포시 금정동 718-7번지 102호","indutype":"유통업 영리 - 편 의 점","category":"other"}]},{"lat":"37.363503384","long":"126.94498435","imageIndex":17,"items":[{"name":"세아","tel":"031-429-6822","addr":"경기도 군포시 금정동 770-10번지 102호","indutype":"건축자재 - 인테리어전문","category":"other"}]},{"lat":"37.366638977","long":"126.9451174","imageIndex":17,"items":[{"name":"세종아크릴","tel":"031-454-3264","addr":"경기도 군포시 금정동 85-8번지","indutype":"용역 서비스 - 종합용역","category":"other"}]},{"lat":"37.376225633","long":"126.94487296","imageIndex":17,"items":[{"name":"세화산업","tel":"031-427-1658","addr":"경기도 군포시 금정동 1-26번지 세진빌딩 5층","indutype":"유통업 영리 - 기타유통업","category":"other"},{"name":"에이씨피코리아주시회사","tel":"031-445-3370","addr":"경기도 군포시 금정동 1-26번지 세진빌딩 2층","indutype":"전기제품 - 기타전기제품","category":"other"}]},{"lat":"37.361503441","long":"126.94561801","imageIndex":17,"items":[{"name":"소망리모델링","tel":"031-455-1880","addr":"경기도 군포시 금정동 764-3번지","indutype":"건축자재 - 인테리어전문","category":"other"},{"name":"현대설비공사","tel":"031-456-1334","addr":"경기도 군포시 금정동 764-3번지","indutype":"용역 서비스 - 기타용역서비스","category":"other"}]},{"lat":"37.354738004","long":"126.93125484","imageIndex":17,"items":[{"name":"소카(soka)","tel":"070-4223-7746","addr":"경기도 군포시 금정동 876번지 율곡아파트","indutype":"서적문구 - 출판 및 인쇄물","category":"other"},{"name":"임마누엘 기프트","tel":"031-000-0000","addr":"경기도 군포시 금정동 876번지 율곡아파트","indutype":"신변잡화 - 기타잡화","category":"other"}]},{"lat":"37.36083227","long":"126.93711874","imageIndex":17,"items":[{"name":"쇼올엔터테인먼트","tel":"","addr":"경기도 군포시 금정동 719-7번지 3층 302-1호","indutype":"문화.취미 - 티켓","category":"other"},{"name":"오토팬시","tel":"031-451-8867","addr":"경기도 군포시 금정동 719-7번지 2층","indutype":"서적문구 - 완구점","category":"other"},{"name":"은솔인테리어","tel":"070-4649-1101","addr":"경기도 군포시 금정동 719-7번지 104호","indutype":"건축자재 - 인테리어전문","category":"other"}]},{"lat":"37.367557267","long":"126.94361528","imageIndex":17,"items":[{"name":"쇼킹노래뮤비방","tel":"031-454-1239","addr":"경기도 군포시 금정동 52-7번지 지하층 지","indutype":"용역 서비스 - 종합용역","category":"other"}]},{"lat":"37.36575424","long":"126.94165247","imageIndex":17,"items":[{"name":"수문장누수","tel":"031-454-0132","addr":"경기도 군포시 금정동 729-15번지 102호","indutype":"용역 서비스 - 기타용역서비스","category":"other"}]},{"lat":"37.360979447","long":"126.94278515","imageIndex":17,"items":[{"name":"수퍼우먼","tel":"031-455-5224","addr":"경기도 군포시 금정동 747-12번지","indutype":"의류 - 기타의류","category":"other"}]},{"lat":"37.361005599","long":"126.94108065","imageIndex":17,"items":[{"name":"숨","tel":"031-458-5867","addr":"경기도 군포시 금정동 744-1번지 신환아파트","indutype":"의류 - 정장","category":"other"},{"name":"쿡(cook)","tel":"","addr":"경기도 군포시 금정동 744-1번지 신환아파트","indutype":"의류 - 정장","category":"other"}]},{"lat":"37.359421923","long":"126.94525839","imageIndex":17,"items":[{"name":"숨바꼭질","tel":"","addr":"경기도 군포시 금정동 753-27번지 202호","indutype":"서적문구 - 기타서적문구","category":"other"}]},{"lat":"37.358003652","long":"126.93814837","imageIndex":17,"items":[{"name":"쉘리아트(Shelly art)","tel":"","addr":"경기도 군포시 금정동 849번지 무궁화주공아파트","indutype":"문화.취미 - 문화취미기타","category":"other"}]},{"lat":"37.361367826","long":"126.94466993","imageIndex":17,"items":[{"name":"쉼표97","tel":"031-399-2020","addr":"경기도 군포시 금정동 763-18번지","indutype":"의류 - 정장","category":"other"}]},{"lat":"37.370666504","long":"126.94511432","imageIndex":17,"items":[{"name":"스마트원","tel":"070-8682-5240","addr":"경기도 군포시 금정동 689-26번지","indutype":"전기제품 - 기타전기제품","category":"other"}]},{"lat":"37.351918893","long":"126.93304079","imageIndex":17,"items":[{"name":"스콜라비즈공예","tel":"031-392-9553","addr":"경기도 군포시 금정동 871-7삼익소월상가1층110","indutype":"문화.취미 - 민예·공예품","category":"other"}]},{"lat":"37.361332275","long":"126.94567458","imageIndex":17,"items":[{"name":"스타일붕붕","tel":"031-456-0728","addr":"경기도 군포시 금정동 764-4번지 101호","indutype":"의류 - 정장","category":"other"},{"name":"주식회사 시영","tel":"031-454-1259","addr":"경기도 군포시 금정동 764-4번지 루이캐슬 202호","indutype":"여행 - 관광여행","category":"other"},{"name":"한국불교태고종도당선원","tel":"","addr":"경기도 군포시 금정동 764-4번지 201호,202호","indutype":"기타 - 비영리/대상","category":"other"}]},{"lat":"37.354281491","long":"126.9364021","imageIndex":17,"items":[{"name":"시민체육관","tel":"031-390-7620","addr":"경기도 군포시 금정동 871번지 체육시설팀","indutype":"용역 서비스 - 사무서비스","category":"other"}]},{"lat":"37.362192568","long":"126.9366999","imageIndex":17,"items":[{"name":"시큐앤테크","tel":"","addr":"경기도 군포시 금정동 715-10번지 명신파크 B동 201호","indutype":"건축자재 - 목재·석재·철물","category":"other"}]},{"lat":"37.350845843","long":"126.93163099","imageIndex":17,"items":[{"name":"신림","tel":"031-394-9692","addr":"경기도 군포시 금정동 871-11번지 다산아파트","indutype":"회원제형태 - 기타4","category":"other"}]},{"lat":"37.362972468","long":"126.94639578","imageIndex":17,"items":[{"name":"신세계볼링스포츠센타","tel":"031-55-4727","addr":"경기도 군포시 금정동 771-7번지","indutype":"레져용품 - 스포츠·레져용품","category":"other"}]},{"lat":"37.360284634","long":"126.94078776","imageIndex":17,"items":[{"name":"신세계크린","tel":"031-455-5011","addr":"경기도 군포시 금정동 746-4번지 103호","indutype":"용역 서비스 - 종합용역","category":"other"},{"name":"위너스 소방","tel":"031-349-6119","addr":"경기도 군포시 금정동 746-4번지 1층 2호","indutype":"기타 - 기계공구","category":"other"},{"name":"하이컴정보","tel":"031-398-4130","addr":"경기도 군포시 금정동 746-4번지 1층 1호","indutype":"사무통신 - 컴퓨터","category":"other"}]},{"lat":"37.36175258","long":"126.93945456","imageIndex":17,"items":[{"name":"신신타일","tel":"031-452-1074","addr":"경기도 군포시 금정동 721-24번지","indutype":"건축자재 - 건축용 요업제품","category":"other"}]},{"lat":"37.366502706","long":"126.94287105","imageIndex":17,"items":[{"name":"신안 인테리어","tel":"031-456-2742","addr":"경기도 군포시 금정동 730-5번지 102호","indutype":"건축자재 - 인테리어전문","category":"other"}]},{"lat":"37.360557162","long":"126.9451785","imageIndex":17,"items":[{"name":"신안종합장식","tel":"031-457-9217","addr":"경기도 군포시 금정동 764-37번지","indutype":"직물 - 카페트,커튼,천막,지물","category":"other"}]},{"lat":"37.367946937","long":"126.94825473","imageIndex":17,"items":[{"name":"신일정밀","tel":"02-2635-1070","addr":"경기도 군포시 금정동 693-8번지","indutype":"기타 - 기계공구","category":"other"}]},{"lat":"37.375117516","long":"126.94513348","imageIndex":17,"items":[{"name":"신한냉열","tel":"031-477-1791","addr":"경기도 군포시 금정동 1-62번지 나동 1층 101호","indutype":"전기제품 - 냉열기기","category":"other"},{"name":"신한냉열","tel":"031-479-1791","addr":"경기도 군포시 금정동 1-62번지 나동 101호","indutype":"전기제품 - 냉열기기","category":"other"}]},{"lat":"37.362168031","long":"126.94131675","imageIndex":17,"items":[{"name":"신한상사(주)","tel":"031-458-4969","addr":"경기도 군포시 금정동 744-6번지","indutype":"건축자재 - 기타건축자재","category":"other"},{"name":"신환텔레콤","tel":"031-427-0330","addr":"경기도 군포시 금정동 744-6번지","indutype":"사무통신 - 통신기기","category":"other"},{"name":"엘레강뜨","tel":"031-455-1440","addr":"경기도 군포시 금정동 744-6번지","indutype":"의류 - 정장","category":"other"},{"name":"한국체대복싱클럽","tel":"031-427-0225","addr":"경기도 군포시 금정동 744-6번지 3층","indutype":"회원제형태 - 레져업소","category":"other"}]},{"lat":"37.35349512","long":"126.93211381","imageIndex":17,"items":[{"name":"신화광고기획","tel":"070-8283-7730","addr":"경기도 군포시 금정동 876번지 율곡아파트","indutype":"회원제형태 - 기타4","category":"other"}]},{"lat":"37.366260678","long":"126.94537733","imageIndex":17,"items":[{"name":"쌍둥이네","tel":"031-427-4068","addr":"경기도 군포시 금정동 905번지 청아람 1동 302호","indutype":"신변잡화 - 기타잡화","category":"other"}]},{"lat":"37.361422713","long":"126.94637437","imageIndex":17,"items":[{"name":"쌍용건설중기(주)","tel":"031-452-7100","addr":"경기도 군포시 금정동 766-25번지","indutype":"기타 - 기타 전문점","category":"other"}]},{"lat":"37.355199255","long":"126.93417774","imageIndex":17,"items":[{"name":"써니블리","tel":"","addr":"경기도 군포시 금정동 872번지 주공2단지","indutype":"신변잡화 - 액세서리","category":"other"},{"name":"앙비(ENVIE)","tel":"","addr":"경기도 군포시 금정동 872번지 주공2단지","indutype":"의류 - 기타의류","category":"other"}]},{"lat":"37.370252552","long":"126.94617583","imageIndex":17,"items":[{"name":"썬레이 시험사출","tel":"031-477-9349","addr":"경기도 군포시 금정동 689-39번지","indutype":"기타 - 기계공구","category":"other"}]},{"lat":"37.360835382","long":"126.94297715","imageIndex":17,"items":[{"name":"씨엔비월드","tel":"031-479-5979","addr":"경기도 군포시 금정동 747-24번지 지하층 제비1호","indutype":"사무통신 - 사무용 OA기기","category":"other"}]},{"lat":"37.361336573","long":"126.93664421","imageIndex":17,"items":[{"name":"씨엠에이치(CMH)스포츠","tel":"031-427-3363","addr":"경기도 군포시 금정동 718-6번지","indutype":"레져용품 - 스포츠·레져용품","category":"other"}]},{"lat":"37.367728409","long":"126.94351354","imageIndex":17,"items":[{"name":"씨유군포금정원룸점","tel":"031-898-6568","addr":"경기도 군포시 금정동 52-6번지 1층","indutype":"유통업 영리 - 편 의 점","category":"other"}]},{"lat":"37.364338875","long":"126.94017484","imageIndex":17,"items":[{"name":"씨유군포장미점","tel":"031-427-9570","addr":"경기도 군포시 금정동 706-18번지 101호","indutype":"유통업 영리 - 편 의 점","category":"other"}]},{"lat":"37.353007102","long":"126.92969892","imageIndex":17,"items":[{"name":"씨유군포흥진점","tel":"031-394-1776","addr":"경기도 군포시 금정동 875-4번지 세윤상가 104호","indutype":"유통업 영리 - 편 의 점","category":"other"}]},{"lat":"37.365755326","long":"126.94378602","imageIndex":17,"items":[{"name":"씨유금정중앙점","tel":"080-080-3663","addr":"경기도 군포시 금정동 84-18번지 1층","indutype":"유통업 영리 - 편 의 점","category":"other"},{"name":"씨유금정중앙점","tel":"02-1577-8007","addr":"경기도 군포시 금정동 84-18번지 1층","indutype":"유통업 영리 - 편 의 점","category":"other"}]},{"lat":"37.357560962","long":"126.93600415","imageIndex":17,"items":[{"name":"씨유산본무궁화점","tel":"031-393-9100","addr":"경기도 군포시 금정동 849-4번지 주공1단지상가제1동 102호","indutype":"유통업 영리 - 편 의 점","category":"other"}]},{"lat":"37.35597435","long":"126.9345608","imageIndex":17,"items":[{"name":"아띠랑센트","tel":"","addr":"경기도 군포시 금정동 872번지 주공2단지","indutype":"신변잡화 - 기타잡화","category":"other"},{"name":"위드유어펫","tel":"","addr":"경기도 군포시 금정동 872번지 주공2단지","indutype":"문화.취미 - 애완동물","category":"other"}]},{"lat":"37.365879649","long":"126.94025258","imageIndex":17,"items":[{"name":"아로마DIY","tel":"031-451-4576","addr":"경기도 군포시 금정동 704번지 금정동쌍용아파트","indutype":"회원제형태 - 기타4","category":"other"}]},{"lat":"37.369331973","long":"126.94303813","imageIndex":17,"items":[{"name":"아이디어링크","tel":"031-391-4784","addr":"경기도 군포시 금정동 41-10번지","indutype":"서적문구 - 완구점","category":"other"}]},{"lat":"37.357209871","long":"126.93654625","imageIndex":17,"items":[{"name":"아이미소어닝","tel":"031-344-2082","addr":"경기도 군포시 금정동 849번지 무궁화주공아파트","indutype":"건축자재 - 기타건축자재","category":"other"}]},{"lat":"37.358517212","long":"126.93811407","imageIndex":17,"items":[{"name":"아이북마켓","tel":"031-393-7799","addr":"경기도 군포시 금정동 849번지 무궁화주공아파트","indutype":"서적문구 - 일반서적","category":"other"}]},{"lat":"37.358861091","long":"126.94090181","imageIndex":17,"items":[{"name":"아트업","tel":"031-397-5573","addr":"경기도 군포시 금정동 866-1번지 101호","indutype":"문화.취미 - 민예·공예품","category":"other"},{"name":"프로펫 애견샵","tel":"031-393-7079","addr":"경기도 군포시 금정동 866-1번지 1층 일부","indutype":"문화.취미 - 애완동물","category":"other"}]},{"lat":"37.36116894","long":"126.9433381","imageIndex":17,"items":[{"name":"안양콜밴","tel":"031-000-0000","addr":"경기도 군포시 금정동 757-25번지 105호","indutype":"여행 - 기타교통수단","category":"other"}]},{"lat":"37.367610251","long":"126.94150421","imageIndex":17,"items":[{"name":"안양프라자","tel":"031-444-6282","addr":"경기도 군포시 금정동 702-3번지","indutype":"사무통신 - 사무용 OA기기","category":"other"}]},{"lat":"37.375667609","long":"126.9461153","imageIndex":17,"items":[{"name":"알루원채널","tel":"031-429-2283","addr":"경기도 군포시 금정동 1-25번지 3층","indutype":"건축자재 - 인테리어전문","category":"other"},{"name":"태광기업","tel":"031-427-8528","addr":"경기도 군포시 금정동 1-25번지","indutype":"용역 서비스 - 종합용역","category":"other"}]},{"lat":"37.370089062","long":"126.94351168","imageIndex":17,"items":[{"name":"야구하는형","tel":"031-341-7929","addr":"경기도 군포시 금정동 40-7번지 2층","indutype":"레져용품 - 스포츠·레져용품","category":"other"},{"name":"이노센트가구군포점","tel":"031-397-0663","addr":"경기도 군포시 금정동 40-7번지 1층","indutype":"가구 - 일반가구","category":"other"}]},{"lat":"37.361169686","long":"126.9448394","imageIndex":17,"items":[{"name":"양지유통","tel":"031-456-5576","addr":"경기도 군포시 금정동 764-63번지","indutype":"신변잡화 - 기타잡화","category":"other"}]},{"lat":"37.356126879","long":"126.93345452","imageIndex":17,"items":[{"name":"에듀바비 경기군포지사","tel":"02-1522-0701","addr":"경기도 군포시 금정동 872번지 주공2단지","indutype":"용역 서비스 - 사무서비스","category":"other"}]},{"lat":"37.375919773","long":"126.94586673","imageIndex":17,"items":[{"name":"에스앤티경기기계(주)","tel":"031-477-8787","addr":"경기도 군포시 금정동 1-23번지 외2필지 202,203호","indutype":"기타 - 기계공구","category":"other"}]},{"lat":"37.355172817","long":"126.93520489","imageIndex":17,"items":[{"name":"에스엘에스","tel":"031-398-7003","addr":"경기도 군포시 금정동 872-6번지 세종교육센터 101호","indutype":"직물 - 카페트,커튼,천막,지물","category":"other"},{"name":"제일인테리어","tel":"031-399-1391","addr":"경기도 군포시 금정동 872-6번지 101호","indutype":"건축자재 - 인테리어전문","category":"other"}]},{"lat":"37.353901392","long":"126.93349043","imageIndex":17,"items":[{"name":"에스엠 J-care","tel":"","addr":"경기도 군포시 금정동 876번지 율곡아파트","indutype":"용역 서비스 - 기타용역서비스","category":"other"}]},{"lat":"37.359114135","long":"126.94236899","imageIndex":17,"items":[{"name":"에스이엠에듀","tel":"031-392-8118","addr":"경기도 군포시 금정동 863-4번지","indutype":"회원제형태 - 서적","category":"other"}]},{"lat":"37.374775071","long":"126.94500955","imageIndex":17,"items":[{"name":"에이스-메이트(ACE-MATE)","tel":"031-457-6654","addr":"경기도 군포시 금정동 1-50번지 A동 103호","indutype":"전기제품 - 가전제품","category":"other"}]},{"lat":"37.359556486","long":"126.94406179","imageIndex":17,"items":[{"name":"에이스에어컨","tel":"031-429-6632","addr":"경기도 군포시 금정동 748-22번지","indutype":"용역 서비스 - 기타용역서비스","category":"other"}]},{"lat":"37.360949589","long":"126.93745728","imageIndex":17,"items":[{"name":"에이엠파트너스(주)","tel":"031-343-0711","addr":"경기도 군포시 금정동 719-2번지 소명빌딩 601호","indutype":"용역 서비스 - 소프트웨어","category":"other"}]},{"lat":"37.364448839","long":"126.94375318","imageIndex":17,"items":[{"name":"엑시옴(XIOM) 인천. 경기남점","tel":"031-458-4436","addr":"경기도 군포시 금정동 909-2번지","indutype":"레져용품 - 스포츠·레져용품","category":"other"},{"name":"월드플라워","tel":"031-453-2233","addr":"경기도 군포시 금정동 909-2번지","indutype":"문화.취미 - 화원","category":"other"}]},{"lat":"37.364728001","long":"126.94344818","imageIndex":17,"items":[{"name":"엔네트","tel":"031-455-1751","addr":"경기도 군포시 금정동 736번지 삼화드림빌 104호","indutype":"사무통신 - 컴퓨터","category":"other"},{"name":"의학연구소SEEGENE","tel":"031-452-0569","addr":"경기도 군포시 금정동 736번지 삼화드림빌 301호","indutype":"기타의료기관 - 건강진단","category":"other"},{"name":"플러스개발","tel":"031-451-5003","addr":"경기도 군포시 금정동 736번지 삼화드림빌 102동 103호","indutype":"건축자재 - 기타건축자재","category":"other"}]},{"lat":"37.368665332","long":"126.94325316","imageIndex":17,"items":[{"name":"엔터팩쇼핑몰","tel":"031-476-0086","addr":"경기도 군포시 금정동 42-5번지","indutype":"신변잡화 - 기타잡화","category":"other"}]},{"lat":"37.362476454","long":"126.94544795","imageIndex":17,"items":[{"name":"엘리스","tel":"070-8278-7057","addr":"경기도 군포시 금정동 768-15번지 은광하이츠빌리지 103호","indutype":"의류 - 정장","category":"other"}]},{"lat":"37.361978688","long":"126.94106856","imageIndex":17,"items":[{"name":"엘티씨(LTC)원","tel":"031-425-8175","addr":"경기도 군포시 금정동 744-4번지 2층","indutype":"회원제형태 - 기타4","category":"other"},{"name":"엘티씨원(아트비젼)","tel":"070-7728-9432","addr":"경기도 군포시 금정동 744-4번지 201호","indutype":"회원제형태 - 기타4","category":"other"}]},{"lat":"37.359194737","long":"126.94142076","imageIndex":17,"items":[{"name":"엘플로르","tel":"031-392-6777","addr":"경기도 군포시 금정동 865번지 103호","indutype":"문화.취미 - 화원","category":"other"}]},{"lat":"37.362943189","long":"126.94186923","imageIndex":17,"items":[{"name":"여인천하","tel":"031-455-2259","addr":"경기도 군포시 금정동 723-10번지 2층","indutype":"회원제형태 - 기타4","category":"other"}]},{"lat":"37.365836776","long":"126.94450843","imageIndex":17,"items":[{"name":"연세CCTV &인터넷","tel":"031-455-2055","addr":"경기도 군포시 금정동 904-7번지 금정아트빌라 803호","indutype":"수리서비스 - 사무·통신기기수리","category":"other"}]},{"lat":"37.357779415","long":"126.94003356","imageIndex":17,"items":[{"name":"열린헬스","tel":"031-395-8033","addr":"경기도 군포시 금정동 870-4번지 1층","indutype":"회원제형태 - 레져업소","category":"other"}]},{"lat":"37.362834951","long":"126.94164356","imageIndex":17,"items":[{"name":"영광사진관","tel":"031-457-3614","addr":"경기도 군포시 금정동 723-11번지","indutype":"광학제품 - 사진관","category":"other"}]},{"lat":"37.368784128","long":"126.94665107","imageIndex":17,"items":[{"name":"영디자인","tel":"070-8735-9012","addr":"경기도 군포시 금정동 691-1번지 4층","indutype":"가구 - 기타가구","category":"other"}]},{"lat":"37.362475816","long":"126.94414982","imageIndex":17,"items":[{"name":"영신지류","tel":"031-454-6711","addr":"경기도 군포시 금정동 761-16번지","indutype":"기타 - 기타 전문점","category":"other"}]},{"lat":"37.365861099","long":"126.9392592","imageIndex":17,"items":[{"name":"영진전기조명","tel":"031-395-7921","addr":"경기도 군포시 금정동 705-12번지 중앙하이츠,지하층 B01호","indutype":"건축자재 - 조명기구","category":"other"}]},{"lat":"37.365943848","long":"126.94241995","imageIndex":17,"items":[{"name":"영풍지물","tel":"031-452-0787","addr":"경기도 군포시 금정동 731번지","indutype":"직물 - 카페트,커튼,천막,지물","category":"other"}]},{"lat":"37.362420613","long":"126.94189223","imageIndex":17,"items":[{"name":"예담종합개발주식회사","tel":"031-453-0707","addr":"경기도 군포시 금정동 743-5번지 알에프콤빌딩 2층 203호","indutype":"전기제품 - 냉열기기","category":"other"}]},{"lat":"37.351702716","long":"126.93315386","imageIndex":17,"items":[{"name":"예당갤러리","tel":"031-398-5744","addr":"경기도 군포시 금정동 871-7번지 삼익소월아파트","indutype":"회원제형태 - 기타4","category":"other"}]},{"lat":"37.363197494","long":"126.94592151","imageIndex":17,"items":[{"name":"예진청과","tel":"070-8771-5825","addr":"경기도 군포시 금정동 769-10번지 청수맨션빌라 402호","indutype":"회원제형태 - 기타1","category":"other"}]},{"lat":"37.363978529","long":"126.94028803","imageIndex":17,"items":[{"name":"오드리 헵번","tel":"031-427-7289","addr":"경기도 군포시 금정동 710-5번지 근생 1동 1층","indutype":"의류 - 정장","category":"other"}]},{"lat":"37.361168291","long":"126.94206257","imageIndex":17,"items":[{"name":"오렌지","tel":"031-392-7610","addr":"경기도 군포시 금정동 747-1번지 1층 1호","indutype":"의류 - 기타의류","category":"other"}]},{"lat":"37.361139903","long":"126.93947765","imageIndex":17,"items":[{"name":"오병이어주보인쇄복사","tel":"031-395-7225","addr":"경기도 군포시 금정동 745번지","indutype":"서적문구 - 출판 및 인쇄물","category":"other"}]},{"lat":"37.375415059","long":"126.94556228","imageIndex":17,"items":[{"name":"오성레이져산업","tel":"031-456-5660","addr":"경기도 군포시 금정동 1-38번지 영남빌딩 1층","indutype":"건축자재 - 기타건축자재","category":"other"}]},{"lat":"37.361423817","long":"126.94873355","imageIndex":17,"items":[{"name":"오신산업기계","tel":"031-453-0210","addr":"경기도 군포시 금정동 213","indutype":"기타 - 기타 전문점","category":"other"}]},{"lat":"37.364509341","long":"126.93882009","imageIndex":17,"items":[{"name":"오투티에스","tel":"02-6340-5359","addr":"경기도 군포시 금정동 708-10번지 대덕빌라 1동 102호","indutype":"사무통신 - 컴퓨터","category":"other"}]},{"lat":"37.368755868","long":"126.94412234","imageIndex":17,"items":[{"name":"와인드","tel":"","addr":"경기도 군포시 금정동 44-7번지 신우빌딩 3층 302호","indutype":"의류 - 정장","category":"other"},{"name":"우아미가구","tel":"031-424-0077","addr":"경기도 군포시 금정동 44-7번지 1층","indutype":"가구 - 일반가구","category":"other"}]},{"lat":"37.368836186","long":"126.94258696","imageIndex":17,"items":[{"name":"우기와너기","tel":"031-388-6118","addr":"경기도 군포시 금정동 697-7번지 1층 2호","indutype":"용역 서비스 - 종합용역","category":"other"}]},{"lat":"37.369557493","long":"126.94356855","imageIndex":17,"items":[{"name":"우두모아","tel":"031-392-4736","addr":"경기도 군포시 금정동 40-12번지","indutype":"가구 - 일반가구","category":"other"}]},{"lat":"37.370918589","long":"126.9447077","imageIndex":17,"items":[{"name":"우림빌딩","tel":"031-457-8116","addr":"경기도 군포시 금정동 689-18번지","indutype":"용역 서비스 - 부동산 중개·임대","category":"other"},{"name":"주식회사주영","tel":"031-478-1076","addr":"경기도 군포시 금정동 689-18번지","indutype":"의류 - 기타의류","category":"other"}]},{"lat":"37.366025877","long":"126.94428251","imageIndex":17,"items":[{"name":"우주목재","tel":"031-458-3322","addr":"경기도 군포시 금정동 84-14번지","indutype":"건축자재 - 기타건축자재","category":"other"}]},{"lat":"37.362420037","long":"126.940786","imageIndex":17,"items":[{"name":"월드아트","tel":"070-8792-4657","addr":"경기도 군포시 금정동 722-14번지","indutype":"건축자재 - 인테리어전문","category":"other"}]},{"lat":"37.368863973","long":"126.94408839","imageIndex":17,"items":[{"name":"월드주방마트","tel":"031-451-5391","addr":"경기도 군포시 금정동 44-6번지","indutype":"수리서비스 - 가정용품수리","category":"other"}]},{"lat":"37.364915331","long":"126.93981313","imageIndex":17,"items":[{"name":"유비아커피","tel":"070-7625-3426","addr":"경기도 군포시 금정동 706-11번지 2층","indutype":"주방용구 - 주방용구","category":"other"},{"name":"한성전기종합보수","tel":"031-457-1535","addr":"경기도 군포시 금정동 706-11번지 1층","indutype":"용역 서비스 - 기타용역서비스","category":"other"}]},{"lat":"37.360195236","long":"126.94214237","imageIndex":17,"items":[{"name":"유칼립투스","tel":"02-577-0850","addr":"경기도 군포시 금정동 854-6번지 101호","indutype":"문화.취미 - 화원","category":"other"}]},{"lat":"37.365059745","long":"126.94028713","imageIndex":17,"items":[{"name":"으뜸모바일","tel":"070-4649-1101","addr":"경기도 군포시 금정동 726-7번지 104호","indutype":"사무통신 - 통신기기","category":"other"}]},{"lat":"37.363638739","long":"126.94540191","imageIndex":17,"items":[{"name":"이든네이처자연치유","tel":"031-456-2235","addr":"경기도 군포시 금정동 770-3번지 2층","indutype":"회원제형태 - 기타4","category":"other"}]},{"lat":"37.364726721","long":"126.94095342","imageIndex":17,"items":[{"name":"이렇개저렇개","tel":"031-452-9080","addr":"경기도 군포시 금정동 726-30번지 1층","indutype":"문화.취미 - 애완동물","category":"other"}]},{"lat":"37.363143752","long":"126.94658755","imageIndex":17,"items":[{"name":"이화건재","tel":"031-452-1428","addr":"경기도 군포시 금정동 771-5번지","indutype":"건축자재 - 건축용 요업제품","category":"other"}]},{"lat":"37.363863016","long":"126.94342628","imageIndex":17,"items":[{"name":"잉크앤토너","tel":"031-456-3331","addr":"경기도 군포시 금정동 738-6번지 오성푸르메아파트 101호","indutype":"사무통신 - 기타 사무용품","category":"other"}]},{"lat":"37.36360991","long":"126.94181225","imageIndex":17,"items":[{"name":"자봄클(Jabomcle Story)공방","tel":"02-1234-1234","addr":"경기도 군포시 금정동 725-42번지 301호","indutype":"문화.취미 - 문화취미기타","category":"other"}]},{"lat":"37.365006323","long":"126.94150633","imageIndex":17,"items":[{"name":"작업하는 그녀","tel":"031-427-8800","addr":"경기도 군포시 금정동 727-15번지","indutype":"신변잡화 - 가방","category":"other"}]},{"lat":"37.354836454","long":"126.93017119","imageIndex":17,"items":[{"name":"장안세탁소","tel":"031-392-3009","addr":"경기도 군포시 금정동 875번지 퇴계상가 204호","indutype":"수리서비스 - 세탁소","category":"other"}]},{"lat":"37.365727005","long":"126.9412574","imageIndex":17,"items":[{"name":"정성종합방역공사","tel":"031-458-9007","addr":"경기도 군포시 금정동 729-2번지","indutype":"용역 서비스 - 종합용역","category":"other"}]},