[{"lat":"37.757005384","long":"126.77770756","imageIndex":8,"items":[{"name":"21세기성심약국","tel":"031-941-8275","addr":"경기도 파주시 금촌동 775-6번지","indutype":"약국 - 약국","category":"medical"}]},{"lat":"37.752338062","long":"126.76826959","imageIndex":8,"items":[{"name":"3대경희한의원","tel":"031-943-1074","addr":"경기도 파주시 금촌동 988-8번지 금촌크리닉 301호","indutype":"의원 - 한의원","category":"medical"},{"name":"아람소아과의원","tel":"031-943-3375","addr":"경기도 파주시 금촌동 988-8번지","indutype":"의원 - 의원","category":"medical"},{"name":"조&킴피부과","tel":"031-946-7444","addr":"경기도 파주시 금촌동 988-8번지","indutype":"의원 - 의원","category":"medical"},{"name":"한사랑이비인후과의원","tel":"031-957-6400","addr":"경기도 파주시 금촌동 988-8번지","indutype":"의원 - 의원","category":"medical"},{"name":"화이트치과의원","tel":"031-942-7928","addr":"경기도 파주시 금촌동 988-8번지","indutype":"의원 - 치과의원","category":"medical"}]},{"lat":"37.75186667","long":"126.76681867","imageIndex":8,"items":[{"name":"OE치과의원","tel":"031-945-5272","addr":"경기도 파주시 금촌동 988-1번지 우평프라자 402호","indutype":"의원 - 치과의원","category":"medical"}]},{"lat":"37.760509176","long":"126.77723166","imageIndex":8,"items":[{"name":"e-편한치과","tel":"031-942-0028","addr":"경기도 파주시 금촌동 768-17번지","indutype":"의원 - 치과의원","category":"medical"},{"name":"명성당한의원","tel":"031-957-1079","addr":"경기도 파주시 금촌동 768-17번지","indutype":"의원 - 한의원","category":"medical"},{"name":"문성철 한의원","tel":"031-944-1375","addr":"경기도 파주시 금촌동 768-17번지","indutype":"의원 - 한의원","category":"medical"}]},{"lat":"37.759758885","long":"126.77592889","imageIndex":8,"items":[{"name":"강이비인후과","tel":"031-944-5203","addr":"경기도 파주시 금촌동 764-7번지","indutype":"의원 - 의원","category":"medical"},{"name":"진달래약국","tel":"031-948-5595","addr":"경기도 파주시 금촌동 764-7번지","indutype":"약국 - 약국","category":"medical"}]},{"lat":"37.763086","long":"126.7726276","imageIndex":8,"items":[{"name":"경희 진 한의원","tel":"031-957-0678","addr":"경기도 파주시 금촌동 324-19번지","indutype":"의원 - 한의원","category":"medical"},{"name":"영남한의원","tel":"031-941-6557","addr":"경기도 파주시 금촌동 324-19번지","indutype":"의원 - 한의원","category":"medical"}]},{"lat":"37.759372067","long":"126.77623647","imageIndex":8,"items":[{"name":"곽치과의원","tel":"031-944-3357","addr":"경기도 파주시 금촌동 765-9번지","indutype":"의원 - 치과의원","category":"medical"},{"name":"김내과의원","tel":"031-944-4769","addr":"경기도 파주시 금촌동 765-9번지","indutype":"의원 - 의원","category":"medical"},{"name":"파주이화약국","tel":"031-943-5771","addr":"경기도 파주시 금촌동 765-9번지","indutype":"약국 - 약국","category":"medical"}]},{"lat":"37.76319756","long":"126.77439766","imageIndex":8,"items":[{"name":"그랜드경희한의원","tel":"031-917-9119","addr":"경기도 파주시 금촌동 62-1번지 3층","indutype":"의원 - 한의원","category":"medical"},{"name":"세종치과의원","tel":"031-941-8579","addr":"경기도 파주시 금촌동 62-1번지","indutype":"의원 - 치과의원","category":"medical"},{"name":"한마음정신과의원","tel":"031-945-7400","addr":"경기도 파주시 금촌동 62-1번지","indutype":"의원 - 의원","category":"medical"}]},{"lat":"37.757087978","long":"126.77381501","imageIndex":8,"items":[{"name":"그린약국","tel":"031-944-7580","addr":"경기도 파주시 금촌동 952-6번지","indutype":"약국 - 약국","category":"medical"},{"name":"삼성마취통증의학과의원","tel":"031-945-2030","addr":"경기도 파주시 금촌동 952-6번지","indutype":"의원 - 의원","category":"medical"},{"name":"연세송내과","tel":"031-8070-1198","addr":"경기도 파주시 금촌동 952-6번지","indutype":"의원 - 의원","category":"medical"}]},{"lat":"37.751534817","long":"126.76756862","imageIndex":8,"items":[{"name":"금릉곰돌이약국","tel":"031-942-6626","addr":"경기도 파주시 금촌동 989-4번지","indutype":"약국 - 약국","category":"medical"}]},{"lat":"37.751118042","long":"126.76640121","imageIndex":8,"items":[{"name":"금릉동물병원","tel":"031-948-3375","addr":"경기도 파주시 금촌동 986-4번지","indutype":"기타의료기관 - 동물병원","category":"medical"},{"name":"사랑꽃i한의원","tel":"031-943-4688","addr":"경기도 파주시 금촌동 986-4번지","indutype":"의원 - 한의원","category":"medical"}]},{"lat":"37.763649394","long":"126.77509989","imageIndex":8,"items":[{"name":"금촌국산약초","tel":"031-945-0705","addr":"경기도 파주시 금촌동 51-16번지","indutype":"약국 - 한약방","category":"medical"},{"name":"금촌국산약초","tel":"031-945-0705","addr":"경기도 파주시 금촌동 51-16번지","indutype":"약국 - 한약방","category":"medical"}]},{"lat":"37.757537696","long":"126.76884326","imageIndex":8,"items":[{"name":"금촌명한의원","tel":"031-942-3883","addr":"경기도 파주시 금촌동 961-1번지","indutype":"의원 - 한의원","category":"medical"}]},{"lat":"37.764674097","long":"126.77387106","imageIndex":8,"items":[{"name":"금촌서울주플란트치과의원","tel":"031-947-7528","addr":"경기도 파주시 금촌동 329-97번지","indutype":"의원 - 치과의원","category":"medical"}]},{"lat":"37.756897964","long":"126.77807101","imageIndex":8,"items":[{"name":"금촌성심의원","tel":"031-944-4280","addr":"경기도 파주시 금촌동 784-1번지","indutype":"의원 - 의원","category":"medical"}]},{"lat":"37.755393557","long":"126.76890676","imageIndex":8,"items":[{"name":"금촌우리한의원","tel":"070-7594-1075","addr":"경기도 파주시 금촌동 237-1번지","indutype":"의원 - 한의원","category":"medical"},{"name":"박진아소아과","tel":"031-943-4762","addr":"경기도 파주시 금촌동 237-1번지","indutype":"의원 - 의원","category":"medical"},{"name":"베스트소망약국","tel":"031-943-2729","addr":"경기도 파주시 금촌동 237-1번지","indutype":"약국 - 약국","category":"medical"},{"name":"어른과아이들치과","tel":"031-949-8275","addr":"경기도 파주시 금촌동 237-1번지","indutype":"의원 - 치과의원","category":"medical"}]},{"lat":"37.757313435","long":"126.7739278","imageIndex":8,"items":[{"name":"금촌제일치과의원","tel":"031-948-6673","addr":"경기도 파주시 금촌동 952-1번지","indutype":"의원 - 치과의원","category":"medical"},{"name":"송태홍정신건강의학과의원","tel":"031-949-5904","addr":"경기도 파주시 금촌동 952-1번지","indutype":"의원 - 의원","category":"medical"},{"name":"예담한의원","tel":"031-949-1475","addr":"경기도 파주시 금촌동 952-1번지","indutype":"의원 - 한의원","category":"medical"},{"name":"하나로약국","tel":"031-949-7053","addr":"경기도 파주시 금촌동 952-1번지","indutype":"약국 - 약국","category":"medical"}]},{"lat":"37.764335405","long":"126.77576737","imageIndex":8,"items":[{"name":"금촌종합동물병원","tel":"031-941-7777","addr":"경기도 파주시 금촌동 42-5번지","indutype":"기타의료기관 - 동물병원","category":"medical"}]},{"lat":"37.763476764","long":"126.7743514","imageIndex":8,"items":[{"name":"금촌치과의원","tel":"031-945-8275","addr":"경기도 파주시 금촌동 60-7번지","indutype":"의원 - 치과의원","category":"medical"}]},{"lat":"37.751535383","long":"126.76785229","imageIndex":8,"items":[{"name":"김우찬치과","tel":"031-943-8275","addr":"경기도 파주시 금촌동 989-5번지","indutype":"의원 - 치과의원","category":"medical"}]},{"lat":"37.759065265","long":"126.77598775","imageIndex":8,"items":[{"name":"김재활의학과의원","tel":"031-941-1554","addr":"경기도 파주시 금촌동 765-19번지","indutype":"의원 - 의원","category":"medical"},{"name":"보명한의원","tel":"031-947-7799","addr":"경기도 파주시 금촌동 765-19번지","indutype":"의원 - 한의원","category":"medical"},{"name":"연세부부치과","tel":"031-945-5555","addr":"경기도 파주시 금촌동 765-19번지","indutype":"의원 - 치과의원","category":"medical"}]},{"lat":"37.76739805","long":"126.77546292","imageIndex":8,"items":[{"name":"대한동물병원","tel":"070-8885-6936","addr":"경기도 파주시 금촌동 27-30번지 2층","indutype":"기타의료기관 - 동물병원","category":"medical"}]},{"lat":"37.756066122","long":"126.78126222","imageIndex":8,"items":[{"name":"동현약국","tel":"031-944-5007","addr":"경기도 파주시 금촌동 794-3번지","indutype":"약국 - 약국","category":"medical"}]},{"lat":"37.764313718","long":"126.77387217","imageIndex":8,"items":[{"name":"라온외과의원","tel":"031-946-9119","addr":"경기도 파주시 금촌동 329-187번지","indutype":"의원 - 의원","category":"medical"}]},{"lat":"37.757701393","long":"126.7742103","imageIndex":8,"items":[{"name":"로타리내과정형외과의원","tel":"031-941-0520","addr":"경기도 파주시 금촌동 948-1번지","indutype":"의원 - 의원","category":"medical"}]},{"lat":"37.758843423","long":"126.77775873","imageIndex":8,"items":[{"name":"리버풀동물병원","tel":"031-945-7297","addr":"경기도 파주시 금촌동 770-4번지","indutype":"기타의료기관 - 동물병원","category":"medical"}]},{"lat":"37.758225985","long":"126.77526405","imageIndex":8,"items":[{"name":"메디프라자약국","tel":"031-948-9900","addr":"경기도 파주시 금촌동 948-6번지","indutype":"약국 - 약국","category":"medical"}]},{"lat":"37.755844562","long":"126.77376211","imageIndex":8,"items":[{"name":"명가한의원","tel":"031-945-1086","addr":"경기도 파주시 금촌동 953-3번지","indutype":"의원 - 한의원","category":"medical"},{"name":"신세계약국","tel":"031-949-7949","addr":"경기도 파주시 금촌동 953-3번지","indutype":"약국 - 약국","category":"medical"}]},{"lat":"37.764727955","long":"126.77376876","imageIndex":8,"items":[{"name":"미소드림의원","tel":"031-948-7270","addr":"경기도 파주시 금촌동 329-11번지","indutype":"의원 - 의원","category":"medical"}]},{"lat":"37.757233803","long":"126.774677","imageIndex":8,"items":[{"name":"미소약국","tel":"031-945-8762","addr":"경기도 파주시 금촌동 949-1번지","indutype":"약국 - 약국","category":"medical"}]},{"lat":"37.751536084","long":"126.76820404","imageIndex":8,"items":[{"name":"민트그린치과의원","tel":"031-948-9253","addr":"경기도 파주시 금촌동 989-6번지","indutype":"의원 - 치과의원","category":"medical"},{"name":"우리이비인후과의원","tel":"031-941-5011","addr":"경기도 파주시 금촌동 989-6번지","indutype":"의원 - 의원","category":"medical"},{"name":"해담한의원","tel":"031-957-1075","addr":"경기도 파주시 금촌동 989-6번지","indutype":"의원 - 한의원","category":"medical"}]},{"lat":"37.763890825","long":"126.7741572","imageIndex":8,"items":[{"name":"서울수약국","tel":"031-945-2522","addr":"경기도 파주시 금촌동 59-10번지","indutype":"약국 - 약국","category":"medical"},{"name":"연세하늘치과의원","tel":"031-939-2291","addr":"경기도 파주시 금촌동 59-10번지","indutype":"의원 - 치과의원","category":"medical"}]},{"lat":"37.759698216","long":"126.77717738","imageIndex":8,"items":[{"name":"서울한의원","tel":"031-944-2781","addr":"경기도 파주시 금촌동 767-10번지","indutype":"의원 - 한의원","category":"medical"}]},{"lat":"37.76003087","long":"126.77681322","imageIndex":8,"items":[{"name":"세브란스치과의원","tel":"031-944-8589","addr":"경기도 파주시 금촌동 767-8,9광장빌딩201,202호","indutype":"의원 - 치과의원","category":"medical"},{"name":"풍성한의원","tel":"031-946-2275","addr":"경기도 파주시 금촌동 767-8번지","indutype":"의원 - 한의원","category":"medical"}]},{"lat":"37.755421271","long":"126.77384285","imageIndex":8,"items":[{"name":"속편한내과","tel":"031-943-7582","addr":"경기도 파주시 금촌동 953-9(301.302호)","indutype":"의원 - 의원","category":"medical"},{"name":"최경섭한의원","tel":"031-942-0093","addr":"경기도 파주시 금촌동 953-9번지","indutype":"의원 - 한의원","category":"medical"},{"name":"한가족약국","tel":"031-948-0650","addr":"경기도 파주시 금촌동 953-9번지","indutype":"약국 - 약국","category":"medical"}]},{"lat":"37.752364186","long":"126.76781563","imageIndex":8,"items":[{"name":"스마일양한방동물병원","tel":"031-942-3575","addr":"경기도 파주시 금촌동 987-4번지","indutype":"기타의료기관 - 동물병원","category":"medical"}]},{"lat":"37.751094733","long":"126.76826217","imageIndex":8,"items":[{"name":"쑥향고운한의원","tel":"031-941-2800","addr":"경기도 파주시 금촌동 989-8번지","indutype":"의원 - 한의원","category":"medical"}]},{"lat":"37.75083909","long":"126.7665723","imageIndex":8,"items":[{"name":"아름담의원","tel":"031-949-1005","addr":"경기도 파주시 금촌동 986-5번지","indutype":"의원 - 의원","category":"medical"}]},{"lat":"37.752144734","long":"126.76620504","imageIndex":8,"items":[{"name":"아산최은녕산부인과","tel":"031-943-7070","addr":"경기도 파주시 금촌동 986-2번지","indutype":"의원 - 의원","category":"medical"},{"name":"온누리치과","tel":"031-944-2275","addr":"경기도 파주시 금촌동 986-2번지","indutype":"의원 - 치과의원","category":"medical"},{"name":"푸름약국","tel":"031-943-5179","addr":"경기도 파주시 금촌동 986-2번지","indutype":"약국 - 약국","category":"medical"}]},{"lat":"37.76483783","long":"126.77467633","imageIndex":8,"items":[{"name":"약국 오늘","tel":"031-947-7418","addr":"경기도 파주시 금촌동 329-158번지","indutype":"약국 - 약국","category":"medical"},{"name":"예스구구치과의원","tel":"031-942-2811","addr":"경기도 파주시 금촌동 329-158번지","indutype":"의원 - 치과의원","category":"medical"},{"name":"웰빙온누리약국","tel":"031-945-8361","addr":"경기도 파주시 금촌동 329-158번지","indutype":"약국 - 약국","category":"medical"}]},{"lat":"37.760199823","long":"126.77565519","imageIndex":8,"items":[{"name":"연세가정의학과","tel":"031-946-0115","addr":"경기도 파주시 금촌동 71-26번지","indutype":"의원 - 의원","category":"medical"},{"name":"천지약국","tel":"031-948-5051","addr":"경기도 파주시 금촌동 71-26번지","indutype":"약국 - 약국","category":"medical"}]},{"lat":"37.751869457","long":"126.76821434","imageIndex":8,"items":[{"name":"예스치과의원","tel":"031-957-2875","addr":"경기도 파주시 금촌동 988-6번지","indutype":"의원 - 치과의원","category":"medical"},{"name":"제일경희한의원","tel":"031-957-7075","addr":"경기도 파주시 금촌동 988-6번지","indutype":"의원 - 한의원","category":"medical"}]},{"lat":"37.752035959","long":"126.76587633","imageIndex":8,"items":[{"name":"예일치과의원","tel":"031-949-2804","addr":"경기도 파주시 금촌동 986-1번지 청원센트럴타워 203호","indutype":"의원 - 치과의원","category":"medical"}]},{"lat":"37.755979704","long":"126.77376169","imageIndex":8,"items":[{"name":"우리치과","tel":"031-948-2275","addr":"경기도 파주시 금촌동 953-2번지","indutype":"의원 - 치과의원","category":"medical"}]},{"lat":"37.764253882","long":"126.77554064","imageIndex":8,"items":[{"name":"윤내과의원","tel":"031-941-4054","addr":"경기도 파주시 금촌동 50-25번지","indutype":"의원 - 의원","category":"medical"}]},{"lat":"37.75534224","long":"126.77029132","imageIndex":8,"items":[{"name":"전정호소아과","tel":"031-907-8115","addr":"경기도 파주시 금촌동 235-1번지","indutype":"의원 - 의원","category":"medical"},{"name":"조은약국","tel":"031-948-8254","addr":"경기도 파주시 금촌동 235-1번지","indutype":"약국 - 약국","category":"medical"},{"name":"한사랑치과","tel":"031-946-2895","addr":"경기도 파주시 금촌동 235-1번지","indutype":"의원 - 치과의원","category":"medical"}]},{"lat":"37.758115388","long":"126.77398207","imageIndex":8,"items":[{"name":"준약국","tel":"031-948-6686","addr":"경기도 파주시 금촌동 946-16번지","indutype":"약국 - 약국","category":"medical"}]},{"lat":"37.764142914","long":"126.77406563","imageIndex":8,"items":[{"name":"파주 밝은안과","tel":"031-944-8820","addr":"경기도 파주시 금촌동 59-7번지","indutype":"의원 - 의원","category":"medical"}]},{"lat":"37.757782896","long":"126.77442566","imageIndex":8,"items":[{"name":"파주윤약국","tel":"031-949-1836","addr":"경기도 파주시 금촌동 948-2번지","indutype":"약국 - 약국","category":"medical"}]},{"lat":"37.760782276","long":"126.77401924","imageIndex":8,"items":[{"name":"파주제일한의원","tel":"031-8035-6696","addr":"경기도 파주시 금촌동 311-31번지","indutype":"의원 - 한의원","category":"medical"}]},{"lat":"37.75917621","long":"126.77746267","imageIndex":8,"items":[{"name":"푸른동물병원","tel":"031-941-0075","addr":"경기도 파주시 금촌동 770-1번지","indutype":"기타의료기관 - 동물병원","category":"medical"}]},{"lat":"37.764061895","long":"126.77409993","imageIndex":8,"items":[{"name":"필신경과의원","tel":"031-945-9989","addr":"경기도 파주시 금촌동 59-8번지","indutype":"의원 - 의원","category":"medical"}]},{"lat":"37.764449081","long":"126.77398525","imageIndex":8,"items":[{"name":"한양의원","tel":"031-941-3656","addr":"경기도 파주시 금촌동 329-99번지","indutype":"의원 - 의원","category":"medical"}]},{"lat":"37.757781735","long":"126.77851091","imageIndex":8,"items":[{"name":"행복한동물병원","tel":"031-957-0075","addr":"경기도 파주시 금촌동 777-4번지","indutype":"기타의료기관 - 동물병원","category":"medical"}]},{"lat":"37.755451382","long":"126.78015199","imageIndex":8,"items":[{"name":"행복한약국","tel":"031-942-4155","addr":"경기도 파주시 금촌동 792-4번지","indutype":"약국 - 약국","category":"medical"}]}]