[{"lat":"37.19688272","long":"126.8731836","items":[{"name":"(주)디스메디컬","tel":"031-355-8014","addr":"경기도 화성시 비봉면 자안리 792-11번지","category":"보건위생 - 의료용품"}]},{"lat":"37.20665688","long":"126.87127438","items":[{"name":"(주)유진종합산업","tel":"031-356-2161","addr":"경기도 화성시 비봉면 자안리 540-13번지","category":"건축자재 - 목재·석재·철물"}]},{"lat":"37.198128924","long":"126.87573831","items":[{"name":"(주)코리아레포츠","tel":"031-1544-3438","addr":"경기도 화성시 비봉면 자안리 664-1번지 1층","category":"용역 서비스 - 종합용역"},{"name":"방아다리칼국수","tel":"031-356-9523","addr":"경기도 화성시 비봉면 자안리 664-1번지 1층","category":"일반휴게음식 - 일반한식"}]},{"lat":"37.20038608","long":"126.87165697","items":[{"name":"(주)태영비앤비","tel":"031-356-5370","addr":"경기도 화성시 비봉면 자안리 730-14번지","category":"용역 서비스 - 사무서비스"}]},{"lat":"37.200101541","long":"126.87512675","items":[{"name":"강산레이저","tel":"031-429-5530","addr":"경기도 화성시 비봉면 자안리 681-3","category":"자동차정비 유지 - 자동차부품"}]},{"lat":"37.203163747","long":"126.87390504","items":[{"name":"금강판넬 (주)","tel":"031-357-8412","addr":"경기도 화성시 비봉면 자안리 505-4번지 1","category":"건축자재 - 기타건축자재"}]},{"lat":"37.21082461","long":"126.87579587","items":[{"name":"금탑self주유소/주식회사 스타에너지상사","tel":"031-357-1632","addr":"경기도 화성시 비봉면 자안리 296번지","category":"연료판매점 - SK주유소"}]},{"lat":"37.211544869","long":"126.87526518","items":[{"name":"남비봉 편의점","tel":"","addr":"경기도 화성시 비봉면 자안리 294-1번지","category":"유통업 영리 - 편 의 점"},{"name":"남비봉뷔페","tel":"031-000-0000","addr":"경기도 화성시 비봉면 자안리 294-1번지","category":"일반휴게음식 - 서양음식"}]},{"lat":"37.202965703","long":"126.87407434","items":[{"name":"다정한식뷔페","tel":"031-000-0000","addr":"경기도 화성시 비봉면 자안리 505-8번지 2층 203호","category":"일반휴게음식 - 일반한식"}]},{"lat":"37.197525349","long":"126.87585195","items":[{"name":"대림자동차정비","tel":"031-355-4909","addr":"경기도 화성시 비봉면 자안리 786","category":"자동차정비 유지 - 자동차정비"},{"name":"맥코윈치킨","tel":"031-355-4433","addr":"경기도 화성시 비봉면 자안리 786번지 1층","category":"일반휴게음식 - 스넥"},{"name":"자안미용실","tel":"031-356-7849","addr":"경기도 화성시 비봉면 자안리 786번지","category":"보건위생 - 미용원"}]},{"lat":"37.199828333","long":"126.87246894","items":[{"name":"대성열탕온수산업","tel":"031-111-1111","addr":"경기도 화성시 비봉면 자안리 763번지","category":"신변잡화 - 기타잡화"}]},{"lat":"37.205351513","long":"126.87230173","items":[{"name":"대성유통","tel":"031-355-1765","addr":"경기도 화성시 비봉면 자안리 528번지","category":"음료식품 - 정육점"},{"name":"쉐리","tel":"031-355-6217","addr":"경기도 화성시 비봉면 자안리 528번지 2층 일부","category":"일반휴게음식 - 서양음식"},{"name":"아정뷔페","tel":"031-111-1111","addr":"경기도 화성시 비봉면 자안리 528번지 2층","category":"일반휴게음식 - 일반한식"}]},{"lat":"37.200073375","long":"126.87407925","items":[{"name":"대영티앤에스","tel":"031-356-1295","addr":"경기도 화성시 비봉면 자안리 689-4번지","category":"서적문구 - 과학기자재"}]},{"lat":"37.198156666","long":"126.87640281","items":[{"name":"대원공업","tel":"031-357-8414","addr":"경기도 화성시 비봉면 자안리 661번지","category":"주방용구 - 주방용구"}]},{"lat":"37.19719176","long":"126.87566103","items":[{"name":"대흥건재철물","tel":"031-355-0433","addr":"경기도 화성시 비봉면 자안리 793-2번지","category":"건축자재 - 목재·석재·철물"},{"name":"세븐일레븐화성자안점","tel":"031-1577-0711","addr":"경기도 화성시 비봉면 자안리 793-2번지","category":"유통업 영리 - 편 의 점"},{"name":"초이스상사","tel":"031-355-3934","addr":"경기도 화성시 비봉면 자안리 793-2번지 1층","category":"음료식품 - 기타음료식품"},{"name":"한잔해","tel":"031-357-7672","addr":"경기도 화성시 비봉면 자안리 793-2번지 1층","category":"일반휴게음식 - 일반한식"}]},{"lat":"37.204298056","long":"126.87299068","items":[{"name":"동산레이져용접","tel":"070-5022-4846","addr":"경기도 화성시 비봉면 자안리 519-1","category":"기타 - 기계공구"}]},{"lat":"37.204046763","long":"126.87390353","items":[{"name":"미니스톱비봉자안점","tel":"031-1577-9621","addr":"경기도 화성시 비봉면 자안리 510-1번지","category":"유통업 영리 - 편 의 점"}]},{"lat":"37.205268934","long":"126.87096138","items":[{"name":"바른산업","tel":"031-356-8470","addr":"경기도 화성시 비봉면 자안리 550","category":"수리서비스 - 기타수리서비스"}]},{"lat":"37.197714507","long":"126.87579532","items":[{"name":"방아다리식당","tel":"031-356-7836","addr":"경기도 화성시 비봉면 자안리 783번지","category":"일반휴게음식 - 일반한식"}]},{"lat":"37.198219305","long":"126.87599722","items":[{"name":"보미한식부페","tel":"031-355-7548","addr":"경기도 화성시 비봉면 자안리 663-2번지","category":"일반휴게음식 - 일반한식"}]},{"lat":"37.207214896","long":"126.87071016","items":[{"name":"보트사랑","tel":"031-355-9799","addr":"경기도 화성시 비봉면 자안리 540-1번지","category":"레져용품 - 스포츠·레져용품"},{"name":"썬팅매니아","tel":"031-355-1285","addr":"경기도 화성시 비봉면 자안리 540-1번지 4동","category":"건축자재 - 기타건축자재"}]},{"lat":"37.199798358","long":"126.86982198","items":[{"name":"부성타이어","tel":"031-408-8856","addr":"경기도 화성시 비봉면 자안리 728번지","category":"자동차정비 유지 - 자동차시트·타이어"}]},{"lat":"37.202296565","long":"126.87191274","items":[{"name":"비에이치(BH)하이테크","tel":"","addr":"경기도 화성시 비봉면 자안리 576번지","category":"기타 - 기계공구"}]},{"lat":"37.20946216","long":"126.8918512","items":[{"name":"산들래승마클럽","tel":"031-355-1514","addr":"경기도 화성시 비봉면 자안리 147-1번지","category":"레저업소 - 기타레져업소"}]},{"lat":"37.210301393","long":"126.89321308","items":[{"name":"산들래야영장","tel":"","addr":"경기도 화성시 비봉면 자안리 147-4번지","category":"숙박업 - 여관/기타숙박업"}]},{"lat":"37.195326999","long":"126.87602459","items":[{"name":"샤인시스템","tel":"031-415-2505","addr":"경기도 화성시 비봉면 자안리 843-1","category":"가구 - 일반가구"}]},{"lat":"37.204937247","long":"126.87249394","items":[{"name":"서진","tel":"031-357-9344","addr":"경기도 화성시 비봉면 자안리 526번지","category":"신변잡화 - 기타잡화"}]},{"lat":"37.197632784","long":"126.87520975","items":[{"name":"성일상사","tel":"031-256-7254","addr":"경기도 화성시 비봉면 자안리 781-3번지 103호","category":"기타 - 기계공구"},{"name":"우리농산","tel":"031-407-4290","addr":"경기도 화성시 비봉면 자안리 781-3번지 101호","category":"음료식품 - 정육점"},{"name":"최부자송탄부대찌개","tel":"031-355-2811","addr":"경기도 화성시 비봉면 자안리 781-3 자안프라자 5","category":"일반휴게음식 - 일반한식"}]},{"lat":"37.198522497","long":"126.87307942","items":[{"name":"신비봉가스","tel":"031-356-0056","addr":"경기도 화성시 비봉면 자안리 758-4","category":"연료판매점 - LPG 취급점"}]},{"lat":"37.201546622","long":"126.8700442","items":[{"name":"아주중장비전문학원","tel":"031-356-9770","addr":"경기도 화성시 비봉면 자안리 712-2외1팔지","category":"회원제형태 - 학원"}]},{"lat":"37.196408244","long":"126.87602278","items":[{"name":"영진공조산업","tel":"031-111-1111","addr":"경기도 화성시 비봉면 자안리 832번지","category":"용역 서비스 - 기타용역서비스"}]},{"lat":"37.196885311","long":"126.87557144","items":[{"name":"월드마트","tel":"031-357-2890","addr":"경기도 화성시 비봉면 자안리 793-14","category":"유통업 영리 - 슈퍼마켓"},{"name":"한식부페맛집","tel":"","addr":"경기도 화성시 비봉면 자안리 793-14번지 1층","category":"일반휴게음식 - 일반한식"}]},{"lat":"37.199827936","long":"126.87210849","items":[{"name":"유일엔지니어링","tel":"031-356-8363","addr":"경기도 화성시 비봉면 자안리 762번지","category":"기타 - 기계공구"}]},{"lat":"37.205518579","long":"126.86860662","items":[{"name":"유천산업","tel":"031-355-1561","addr":"경기도 화성시 비봉면 자안리 544번지","category":"직물 - 기타직물"}]},{"lat":"37.197156635","long":"126.87651712","items":[{"name":"일품청국장","tel":"031-356-2170","addr":"경기도 화성시 비봉면 자안리 800번지","category":"일반휴게음식 - 일반한식"}]},{"lat":"37.198495343","long":"126.87296683","items":[{"name":"자안빵구","tel":"031-356-9923","addr":"경기도 화성시 비봉면 자안리 742-3번지 1층","category":"자동차정비 유지 - 자동차정비"}]},{"lat":"37.197660686","long":"126.87602068","items":[{"name":"자안식당","tel":"031-356-6140","addr":"경기도 화성시 비봉면 자안리 784번지","category":"일반휴게음식 - 일반한식"}]},{"lat":"37.203578555","long":"126.87420847","items":[{"name":"자안주유소","tel":"031-356-7344","addr":"경기도 화성시 비봉면 자안리 509-1","category":"연료판매점 - 주유소"}]},{"lat":"37.20460426","long":"126.87285498","items":[{"name":"전주식당","tel":"031-366-9886","addr":"경기도 화성시 비봉면 자안리 517-2번지","category":"일반휴게음식 - 일반한식"}]},{"lat":"37.199656552","long":"126.87193983","items":[{"name":"정가네한식부페","tel":"031-355-1612","addr":"경기도 화성시 비봉면 자안리 760-6번지","category":"일반휴게음식 - 일반한식"}]},{"lat":"37.200495953","long":"126.873245","items":[{"name":"주식회사 에스티티에스(S.T.T.S)","tel":"031-356-8293","addr":"경기도 화성시 비봉면 자안리 769-2번지","category":"신변잡화 - 기타잡화"}]},{"lat":"37.204432939","long":"126.87274263","items":[{"name":"주식회사 케이라이온","tel":"031-366-7298","addr":"경기도 화성시 비봉면 자안리 519번지 2동","category":"기타 - 기계공구"}]},{"lat":"37.203495341","long":"126.87227113","items":[{"name":"주식회사마운틴티씨에스","tel":"070-4644-0174","addr":"경기도 화성시 비봉면 자안리 559-5번지","category":"수리서비스 - 세탁소"},{"name":"텐트세탁소","tel":"02-455-6225","addr":"경기도 화성시 비봉면 자안리 559-5번지","category":"수리서비스 - 세탁소"}]},{"lat":"37.198518392","long":"126.86938495","items":[{"name":"준걸테크","tel":"031-356-3705","addr":"경기도 화성시 비봉면 자안리 727-7번지 A블럭 3동","category":"기타 - 기계공구"},{"name":"화성벤딩","tel":"031-357-6748","addr":"경기도 화성시 비봉면 자안리 727-7번지","category":"기타 - 기계공구"}]},{"lat":"37.197191372","long":"126.8753006","items":[{"name":"중국성","tel":"031-356-3650","addr":"경기도 화성시 비봉면 자안리 792-2번지","category":"일반휴게음식 - 중국식"}]},{"lat":"37.193884467","long":"126.87521607","items":[{"name":"코스오토","tel":"031-355-5160","addr":"경기도 화성시 비봉면 자안리 843-17번지","category":"자동차정비 유지 - 자동차정비"}]},{"lat":"37.199128396","long":"126.87510586","items":[{"name":"필립","tel":"","addr":"경기도 화성시 비봉면 자안리 675-1번지","category":"신변잡화 - 액세서리"}]},{"lat":"37.203297757","long":"126.87285722","items":[{"name":"화산스틸","tel":"031-357-2484","addr":"경기도 화성시 비봉면 자안리 506-2번지 A동","category":"기타 - 기계공구"}]},{"lat":"37.206742288","long":"126.87521694","items":[{"name":"화성승마장","tel":"031-357-1163","addr":"경기도 화성시 비봉면 자안리 379번지","category":"레저업소 - 기타레져업소"}]},{"lat":"37.194326835","long":"126.876015","items":[{"name":"화성카본","tel":"031-366-7813","addr":"경기도 화성시 비봉면 자안리 843-25번지","category":"기타 - 기계공구"}]}]