[{"lat":"37.312227201","long":"126.90504521","items":[{"name":"(주)대성글로비즈","tel":"031-689-4113","addr":"경기도 안산시 상록구 건건동 534-5번지 현대월드프라자 203호","category":"신변잡화 - 가방"},{"name":"(주)히든챔피언경영원","tel":"031-502-7460","addr":"경기도 안산시 상록구 건건동 534-5번지 현대월드프라자 5층 514호","category":"용역 서비스 - 사무서비스"},{"name":"더깍두기바비큐","tel":"031-415-4220","addr":"경기도 안산시 상록구 건건동 534-5번지 현대월드프라자 104,105호","category":"일반휴게음식 - 일반한식"},{"name":"동현패션","tel":"031-438-5422","addr":"경기도 안산시 상록구 건건동 534-5번지 현대월드프라자 411호","category":"의류 - 기타의류"},{"name":"럭셔리노래연습장","tel":"031-437-2933","addr":"경기도 안산시 상록구 건건동 534-5번지 현대월드프라자 114,115호","category":"레저업소 - 노 래 방"},{"name":"오행생식원","tel":"031-384-6863","addr":"경기도 안산시 상록구 건건동 534-5번지 현대퍼스트빌 307호","category":"건강식품 - 기타건강식품"},{"name":"파도수산","tel":"031-407-6539","addr":"경기도 안산시 상록구 건건동 534-5번지 현대월드프라자 106,107호","category":"일반휴게음식 - 일식·회집"}]},{"lat":"37.312675146","long":"126.91317799","items":[{"name":"(주)산해","tel":"031-501-9697","addr":"경기도 안산시 상록구 건건동 429","category":"유통업 영리 - 편 의 점"},{"name":"(주)산해","tel":"031-501-9697","addr":"경기도 안산시 상록구 건건동 429","category":"문화.취미 - 화원"},{"name":"(주)산해","tel":"031-501-9697","addr":"경기도 안산시 상록구 건건동 429","category":"문화.취미 - 화원"}]},{"lat":"37.302703461","long":"126.90512522","items":[{"name":"(주)삼정기업","tel":"031-409-3462","addr":"경기도 안산시 상록구 건건동 894-1 인정프린스상가에이동 2층-3","category":"가구 - 일반가구"},{"name":"경인마트","tel":"031-437-2141","addr":"경기도 안산시 상록구 건건동 894-1 비동 101","category":"유통업 영리 - 슈퍼마켓"}]},{"lat":"37.313316066","long":"126.91476782","items":[{"name":"(주)신원커피물류","tel":"031-409-9711","addr":"경기도 안산시 상록구 건건동 408-3번지","category":"유통업 영리 - 기타유통업"}]},{"lat":"37.311956802","long":"126.90493275","items":[{"name":"(주)예쁜뜰","tel":"070-7698-8324","addr":"경기도 안산시 상록구 건건동 534-1번지 1층","category":"문화.취미 - 화원"},{"name":"S2다이어트댄스","tel":"031-437-4399","addr":"경기도 안산시 상록구 건건동 534-1번지 2층","category":"회원제형태 - 레져업소"},{"name":"구수미 찹쌀 누룽지","tel":"031-407-5757","addr":"경기도 안산시 상록구 건건동 534-1번지 103호","category":"음료식품 - 기타음료식품"},{"name":"해피국수","tel":"","addr":"경기도 안산시 상록구 건건동 534-1번지 104호","category":"일반휴게음식 - 일반한식"}]},{"lat":"37.299318074","long":"126.90815229","items":[{"name":"24나주곰탕","tel":"031-416-0985","addr":"경기도 안산시 상록구 건건동 876-1번지","category":"일반휴게음식 - 일반한식"}]},{"lat":"37.3013746960","long":"126.9000965104","items":[{"name":"365마트","tel":"031-438-1395","addr":"경기도 안산시 상록구 건건동 940-8번지","category":"도매 및 소매업 - 슈퍼마켓"}]},{"lat":"37.301374696","long":"126.90009651","items":[{"name":"365마트","tel":"031-438-1395","addr":"경기도 안산시 상록구 건건동 940-8번지","category":"유통업 영리 - 슈퍼마켓"}]},{"lat":"37.303124425","long":"126.90212439","items":[{"name":"ACE정보통신","tel":"031-501-0994","addr":"경기도 안산시 상록구 건건동 904번지 재진빌딩 4층 403호","category":"사무통신 - 통신기기"},{"name":"반월스크린골프클럽","tel":"031-502-8245","addr":"경기도 안산시 상록구 건건동 904번지 5층","category":"회원제형태 - 레져업소"},{"name":"세영지중전기학원(주)","tel":"031-501-2562","addr":"경기도 안산시 상록구 건건동 904번지 재진빌딩 3층 306호","category":"학원 - 기능학원"},{"name":"소나무한의원","tel":"031-501-8275","addr":"경기도 안산시 상록구 건건동 904번지 재진빌딩 2층 201호","category":"의원 - 한의원"},{"name":"지앤비주식회사","tel":"031-453-2442","addr":"경기도 안산시 상록구 건건동 904번지","category":"사무통신 - 통신기기"},{"name":"파워마스터짐","tel":"031-419-8501","addr":"경기도 안산시 상록구 건건동 904번지 4층","category":"레져용품 - 스포츠·레져용품"},{"name":"포청천","tel":"031-438-8666","addr":"경기도 안산시 상록구 건건동 904번지","category":"일반휴게음식 - 중국식"}]},{"lat":"37.310903683","long":"126.90624264","items":[{"name":"AM상사","tel":"031-505-1985","addr":"경기도 안산시 상록구 건건동 987번지 건건e-편한세상 110동 2002호","category":"서적문구 - 과학기자재"},{"name":"가나안식품","tel":"031-599-3312","addr":"경기도 안산시 상록구 건건동 987 건건e-편한세상110-803","category":"회원제형태 - 기타4"}]},{"lat":"37.305287136","long":"126.90242606","items":[{"name":"BBQ(반월)","tel":"031-438-5255","addr":"경기도 안산시 상록구 건건동 645-3,1층","category":"일반휴게음식 - 서양음식"}]},{"lat":"37.3051158750","long":"126.9023473282","items":[{"name":"BBQ(반월점)","tel":"031-438-5255","addr":"경기도 안산시 상록구 건건동 645-13번지","category":"숙박 및 음식점업 - 치킨"},{"name":"김송정 머리터","tel":"031-406-7017","addr":"경기도 안산시 상록구 건건동 645-13번지","category":"협회 및 단체, 수리 및 기타 개인서"},{"name":"오성사진관","tel":"031-502-0034","addr":"경기도 안산시 상록구 건건동 645-13번지","category":"협회 및 단체, 수리 및 기타 개인서"}]},{"lat":"37.309144847","long":"126.90401143","items":[{"name":"BHC치킨","tel":"031-438-7555","addr":"경기도 안산시 상록구 건건동 577-5번지 1층","category":"일반휴게음식 - 주점"},{"name":"소풍김밥","tel":"031-437-3564","addr":"경기도 안산시 상록구 건건동 577-5번지 1층","category":"일반휴게음식 - 일반한식"}]},{"lat":"37.3107864307","long":"126.9060961497","items":[{"name":"BMW수학학원","tel":"031-599-3600","addr":"경기도 안산시 상록구 건건동 987번지","category":"교육서비스업 - 교습학원"},{"name":"대림인테리어","tel":"031-599-3500","addr":"경기도 안산시 상록구 건건동 987번지 건건e-편한세상아파트","category":"건설업 - 인테리어공사"},{"name":"모닝플러스","tel":"031-599-4800","addr":"경기도 안산시 상록구 건건동 987번지","category":"도매 및 소매업 - 문구.잡화"},{"name":"백광세탁소","tel":"","addr":"경기도 안산시 상록구 건건동 987번지","category":"협회 및 단체, 수리 및 기타 개인서"},{"name":"베이지","tel":"031-406-0222","addr":"경기도 안산시 상록구 건건동 987번지","category":"숙박 및 음식점업 - 카페"},{"name":"성심중기 한일건설중기","tel":"031-501-0404","addr":"경기도 안산시 상록구 건건동 987번지 건건e-편한세상아파트","category":"협회 및 단체, 수리 및 기타 개인서"},{"name":"씨&엠미용실","tel":"","addr":"경기도 안산시 상록구 건건동 987번지","category":"협회 및 단체, 수리 및 기타 개인서"},{"name":"자르다 헤어살롱","tel":"031-599-0548","addr":"경기도 안산시 상록구 건건동 987번지","category":"협회 및 단체, 수리 및 기타 개인서"},{"name":"흥부네 떡집","tel":"031-599-4402","addr":"경기도 안산시 상록구 건건동 987번지","category":"제조업 - 떡"}]},{"lat":"37.3045650844","long":"126.9009832461","items":[{"name":"B헤어","tel":"031-438-9633","addr":"경기도 안산시 상록구 건건동 632-9번지 삼화연립","category":"협회 및 단체, 수리 및 기타 개인서"},{"name":"삼성전자반월충무대리점","tel":"031-502-0141","addr":"경기도 안산시 상록구 건건동 632-9번지 삼화연립","category":"도매 및 소매업 - 가전제품"},{"name":"아이스크림할인점","tel":"031-437-7175","addr":"경기도 안산시 상록구 건건동 632-9번지 삼화연립","category":"도매 및 소매업 - 아이스크림"}]},{"lat":"37.3061711746","long":"126.9036543691","items":[{"name":"J&J 헤어스케치","tel":"070-4090-7050","addr":"경기도 안산시 상록구 건건동 662번지","category":"협회 및 단체, 수리 및 기타 개인서"},{"name":"오성카 서비스","tel":"031-408-0858","addr":"경기도 안산시 상록구 건건동 662번지","category":"협회 및 단체, 수리 및 기타 개인서"},{"name":"처갓집양념치킨 반월점","tel":"031-437-1153","addr":"경기도 안산시 상록구 건건동 662번지","category":"숙박 및 음식점업 - 기타주점"}]},{"lat":"37.304286387","long":"126.90170551","items":[{"name":"JS텔레콤","tel":"031-501-2581","addr":"경기도 안산시 상록구 건건동 635-7번지","category":"사무통신 - 통신기기"},{"name":"베스킨라빈스31 (안산반월점)","tel":"031-409-0310","addr":"경기도 안산시 상록구 건건동 635-7번지","category":"음료식품 - 제과점"}]},{"lat":"37.3133941928","long":"126.8999334979","items":[{"name":"OK컴퓨터","tel":"","addr":"경기도 안산시 상록구 건건동 242-3번지","category":"도매 및 소매업 - 컴퓨터, 소프트웨"}]},{"lat":"37.313394193","long":"126.8999335","items":[{"name":"OK컴퓨터","tel":"031-000-0000","addr":"경기도 안산시 상록구 건건동 242-3번지 3층 301호","category":"사무통신 - 컴퓨터"}]},{"lat":"37.311226694","long":"126.90459528","items":[{"name":"e편한노래연습장","tel":"031-438-6304","addr":"경기도 안산시 상록구 건건동 536-5번지 한종빌딩 G동 지하층","category":"레저업소 - 노 래 방"},{"name":"고수학원","tel":"031-501-3534","addr":"경기도 안산시 상록구 건건동 536-5번지 403호","category":"학원 - 보습학원"},{"name":"눈편한look Glass안경콘택트","tel":"031-501-3455","addr":"경기도 안산시 상록구 건건동 536-5번지 1층","category":"보건위생 - 안경"},{"name":"반월동물병원","tel":"031-407-0075","addr":"경기도 안산시 상록구 건건동 536-5번지 1층 101호, 102호","category":"기타의료기관 - 동물병원"},{"name":"브링웰피자반월역점","tel":"031-437-5082","addr":"경기도 안산시 상록구 건건동 536-5 한종빌딩 107-1","category":"일반휴게음식 - 서양음식"},{"name":"새이화약국","tel":"031-502-7991","addr":"경기도 안산시 상록구 건건동 536-5번지 한종빌딩 106호","category":"약국 - 약국"},{"name":"서울윌치과","tel":"031-437-2887","addr":"경기도 안산시 상록구 건건동 536-5번지 3층","category":"의원 - 치과의원"},{"name":"현대외과의원","tel":"031-437-8000","addr":"경기도 안산시 상록구 건건동 536-5번지 한종빌딩 2층","category":"의원 - 의원"}]},{"lat":"37.3112266944","long":"126.9045952839","items":[{"name":"e편한노래연습장","tel":"","addr":"경기도 안산시 상록구 건건동 536-5번지","category":"협회 및 단체, 수리 및 기타 개인서"},{"name":"고수학원","tel":"031-501-3534","addr":"경기도 안산시 상록구 건건동 536-5번지","category":"교육서비스업 - 보습학원"},{"name":"눈편한안경원","tel":"031-501-3455","addr":"경기도 안산시 상록구 건건동 536-5번지","category":"도매 및 소매업 - 안경"},{"name":"반월동물병원","tel":"031-407-0075","addr":"경기도 안산시 상록구 건건동 536-5번지","category":"보건업 및 사회복지서비스업 - 동물병"},{"name":"브링웰피자반월역점","tel":"031-437-5082","addr":"경기도 안산시 상록구 건건동 536-5번지","category":"숙박 및 음식점업 - 피자"},{"name":"새이화약국","tel":"031-502-7991","addr":"경기도 안산시 상록구 건건동 536-5번지","category":"도매 및 소매업 - 양약"},{"name":"제중당한의원","tel":"031-402-8778","addr":"경기도 안산시 상록구 건건동 536-5번지","category":"보건업 및 사회복지서비스업 - 한의원"}]},{"lat":"37.3126750865","long":"126.9130990296","items":[{"name":"㈜산해","tel":"031-501-9697","addr":"경기도 안산시 상록구 건건동 428번지 102호","category":"도매 및 소매업 - 조경자재"}]},{"lat":"37.3043126525","long":"126.9008143953","items":[{"name":"㈜하나여행사","tel":"031-437-1882","addr":"경기도 안산시 상록구 건건동 632-2번지","category":"예술, 스포츠 및 여가관련 서비스업"},{"name":"밤샘커피호프","tel":"","addr":"경기도 안산시 상록구 건건동 632-2번지","category":"숙박 및 음식점업 - 기타주점"},{"name":"아이비스","tel":"031-502-8423","addr":"경기도 안산시 상록구 건건동 632-2번지","category":"도매 및 소매업 - 팬시,완구"}]},{"lat":"37.3052331227","long":"126.9024825269","items":[{"name":"美뷰","tel":"031-502-2724","addr":"경기도 안산시 상록구 건건동 645-11번지","category":"도매 및 소매업 - 화장품"}]},{"lat":"37.3027023066","long":"126.9037378813","items":[{"name":"가마솥쌈밥","tel":"031-438-5999","addr":"경기도 안산시 상록구 건건동 895-2번지","category":"숙박 및 음식점업 - 일반음식"},{"name":"학산교동짬뽕","tel":"031-438-7272","addr":"경기도 안산시 상록구 건건동 895-2번지","category":"숙박 및 음식점업 - 중식"}]},{"lat":"37.302702307","long":"126.90373788","items":[{"name":"가마솥쌈밥","tel":"031-448-5999","addr":"경기도 안산시 상록구 건건동 895-2번지 1층","category":"일반휴게음식 - 일반한식"},{"name":"학산교동짬뽕","tel":"031-438-7272","addr":"경기도 안산시 상록구 건건동 895-2번지 1층","category":"일반휴게음식 - 중국식"}]},{"lat":"37.310199296","long":"126.90431461","items":[{"name":"가마솥진국설렁탕해장국","tel":"031-406-8082","addr":"경기도 안산시 상록구 건건동 548-1번지","category":"일반휴게음식 - 일반한식"}]},{"lat":"37.311199175","long":"126.90400874","items":[{"name":"가와이스시","tel":"031-437-0345","addr":"경기도 안산시 상록구 건건동 536-40번지 109-1호","category":"일반휴게음식 - 일반한식"},{"name":"나래디자인","tel":"031-000-0000","addr":"경기도 안산시 상록구 건건동 536-40번지 4층 405호","category":"서적문구 - 출판 및 인쇄물"},{"name":"레드헤어","tel":"031-438-7717","addr":"경기도 안산시 상록구 건건동 536-40번지 1층 111호 일부","category":"보건위생 - 미용원"},{"name":"반월카페","tel":"031-415-9856","addr":"경기도 안산시 상록구 건건동 536-40번지 109호","category":"일반휴게음식 - 서양음식"},{"name":"벙커PC방","tel":"","addr":"경기도 안산시 상록구 건건동 536-40번지 지하1층 B101호","category":"레저업소 - 기타레져업소"},{"name":"병수네 숯불구이","tel":"031-416-3330","addr":"경기도 안산시 상록구 건건동 536-40번지 110, 111호","category":"일반휴게음식 - 일반한식"},{"name":"뿅잎사랑샤브월남쌈보쌈반월역점","tel":"031-500-7830","addr":"경기도 안산시 상록구 건건동 536-40번지 신동아블루아 2층 208호","category":"일반휴게음식 - 일반한식"},{"name":"신통치킨(반월역점)","tel":"031-501-7717","addr":"경기도 안산시 상록구 건건동 536-40번지 1층 101호","category":"일반휴게음식 - 스넥"},{"name":"얼큰이찌개마을(반월역점)","tel":"031-415-5700","addr":"경기도 안산시 상록구 건건동 536-40번지","category":"일반휴게음식 - 일반한식"},{"name":"이마트24 안산반월역","tel":"","addr":"경기도 안산시 상록구 건건동 536-40번지 107호","category":"유통업 영리 - 편 의 점"},{"name":"카페 미카엘(cafe MICHAEL)","tel":"031-520-5051","addr":"경기도 안산시 상록구 건건동 536-40번지 102호","category":"일반휴게음식 - 서양음식"}]},{"lat":"37.311650818","long":"126.90537309","items":[{"name":"가장맛있는족발","tel":"070-7543-5249","addr":"경기도 안산시 상록구 건건동 530-2번지 1층","category":"일반휴게음식 - 일반한식"}]},{"lat":"37.3116508180","long":"126.9053730880","items":[{"name":"가장맛있는족발","tel":"","addr":"경기도 안산시 상록구 건건동 530-2번지","category":"숙박 및 음식점업 - 한식"}]},{"lat":"37.313730695","long":"126.91498167","items":[{"name":"갈치밥상","tel":"031-437-0789","addr":"경기도 안산시 상록구 건건동 408-1번지 1층","category":"일반휴게음식 - 일반한식"}]},{"lat":"37.305287646","long":"126.91434857","items":[{"name":"감나무집","tel":"031-437-4466","addr":"경기도 안산시 상록구 건건동 827-1번지","category":"일반휴게음식 - 일반한식"}]},{"lat":"37.3052876456","long":"126.9143485668","items":[{"name":"감나무집","tel":"031-437-4466","addr":"경기도 안산시 상록구 건건동 827-1번지","category":"숙박 및 음식점업 - 한식"}]},{"lat":"37.304701165","long":"126.90206589","items":[{"name":"강타코","tel":"031-501-9294","addr":"경기도 안산시 상록구 건건동 649-12번지 103호","category":"일반휴게음식 - 일반한식"},{"name":"강타코","tel":"031-501-9294","addr":"경기도 안산시 상록구 건건동 649-12번지 103호","category":"일반휴게음식 - 일반한식"},{"name":"명동신발","tel":"031-437-3977","addr":"경기도 안산시 상록구 건건동 649-12번지","category":"신변잡화 - 신발"},{"name":"씨유안산반월점","tel":"031-501-9710","addr":"경기도 안산시 상록구 건건동 649-12 102","category":"유통업 영리 - 편 의 점"},{"name":"화끈녀칼국수와도둑놈게장정식","tel":"031-437-2029","addr":"경기도 안산시 상록구 건건동 649-12번지 2층","category":"일반휴게음식 - 일반한식"}]},{"lat":"37.31406172","long":"126.90082378","items":[{"name":"거성유통","tel":"031-406-6589","addr":"경기도 안산시 상록구 건건동 243번지 103호","category":"음료식품 - 정육점"},{"name":"튠업 개러지","tel":"","addr":"경기도 안산시 상록구 건건동 243번지","category":"자동차정비 유지 - 자동차시트·타이어"}]},{"lat":"37.307513022","long":"126.90285173","items":[{"name":"건강장수식품","tel":"031-437-2520","addr":"경기도 안산시 상록구 건건동 627-1번지 원촌그린빌라 나동 202호","category":"회원제형태 - 건강식품"}]},{"lat":"37.310786431","long":"126.90609615","items":[{"name":"건건e편한세상 입주자대표회의","tel":"031-599-5900","addr":"경기도 안산시 상록구 건건동 987번지 건건e-편한세상 1층","category":"레저업소 - 헬스클럽"},{"name":"건건동정인보습학원","tel":"031-599-5995","addr":"경기도 안산시 상록구 건건동 987번지 건건e-편한세상아파트 203호","category":"학원 - 기타 교육기관"},{"name":"고샘영어교습소","tel":"02-1111-1111","addr":"경기도 안산시 상록구 건건동 987번지 주 상가동 302호","category":"학원 - 외국어학원"},{"name":"꿈나무피아노학원","tel":"031-438-6656","addr":"경기도 안산시 상록구 건건동 987번지 건건이편한세상주 상가동 201호","category":"학원 - 예·체능계학원"},{"name":"나무","tel":"031-437-6475","addr":"경기도 안산시 상록구 건건동 987번지 부상가동 101호","category":"의류 - 정장"},{"name":"다올헤어","tel":"031-438-6462","addr":"경기도 안산시 상록구 건건동 987번지 건건e-편한세상 주 상가동 1층 103호","category":"보건위생 - 미용원"},{"name":"대림인테리어","tel":"031-599-3500","addr":"경기도 안산시 상록구 건건동 987 건건이편한세상제주상가동1층107호","category":"건축자재 - 인테리어전문"},{"name":"모닝플러스","tel":"031-599-4800","addr":"경기도 안산시 상록구 건건동 987번지 이편한세상 주상가동 105,106호","category":"서적문구 - 문구용품"},{"name":"반월치과의원","tel":"031-599-0828","addr":"경기도 안산시 상록구 건건동 987번지 건건e-편한세상 3층 304","category":"의원 - 치과의원"},{"name":"뷰티호텔(BEAUTY HOTEL)","tel":"","addr":"경기도 안산시 상록구 건건동 987번지 건건e-편한세상주상가동 주상가동 205호","category":"보건위생 - 화장품"},{"name":"비엠더블유수학교습소","tel":"","addr":"경기도 안산시 상록구 건건동 987번지 부상가동 201호","category":"학원 - 보습학원"},{"name":"석사경희대태권도","tel":"031-599-5959","addr":"경기도 안산시 상록구 건건동 987번지 건건e-편한세상주상가동 4층 401호","category":"학원 - 예·체능계학원"},{"name":"스포뱅크 스포츠","tel":"031-437-5020","addr":"경기도 안산시 상록구 건건동 987번지 건건e-편한세상 지하층 관리사무소","category":"회원제형태 - 레져업소"},{"name":"씨&엠미용실","tel":"","addr":"경기도 안산시 상록구 건건동 987번지 건건 e-편한세상 부상가동 106호","category":"보건위생 - 미용원"},{"name":"아가사랑어린이집[아이행복]","tel":"031-599-4005","addr":"경기도 안산시 상록구 건건동 987번지","category":"학원 - 유아원"},{"name":"에스할인마트(반월점)","tel":"031-599-3366","addr":"경기도 안산시 상록구 건건동 987번지 상가동 B층 101호","category":"유통업 영리 - 슈퍼마켓"},{"name":"유니어린이집[아이행복]","tel":"031-599-4455","addr":"경기도 안산시 상록구 건건동 987번지","category":"학원 - 유아원"},{"name":"자르다 헤어살롱","tel":"031-599-0548","addr":"경기도 안산시 상록구 건건동 987번지 건건e-편한세상주상가동 2층 204호","category":"보건위생 - 미용원"},{"name":"재롱둥이어린이집[아이행복]","tel":"031-599-4996","addr":"경기도 안산시 상록구 건건동 987번지 건건e편한세상 102호","category":"학원 - 유아원"},{"name":"천지연","tel":"031-362-6001","addr":"경기도 안산시 상록구 건건동 987번지 건건e-편한세상주상가동 1층 103호","category":"일반휴게음식 - 일반한식"},{"name":"키즈방방","tel":"031-599-0979","addr":"경기도 안산시 상록구 건건동 987번지 건건e-편한세상주상가동 401호","category":"레저업소 - 기타레져업소"},{"name":"티파니","tel":"031-502-5999","addr":"경기도 안산시 상록구 건건동 987번지 건건e편한세상 주상가 101호","category":"보건위생 - 화장품"},{"name":"행복세탁","tel":"031-501-9133","addr":"경기도 안산시 상록구 건건동 987번지 건건e-편한세상주상가동 1층 105호","category":"수리서비스 - 세탁소"}]},{"lat":"37.309424371","long":"126.90425922","items":[{"name":"건건모닝플러스","tel":"031-599-4800","addr":"경기도 안산시 상록구 건건동 987-1번지 부상가동 103호","category":"레져용품 - 스포츠·레져용품"},{"name":"고수수학교습소","tel":"031-599-3534","addr":"경기도 안산시 상록구 건건동 987-1번지 건건E-편한세상","category":"학원 - 보습학원"},{"name":"뉴클라라음악학원","tel":"031-599-0770","addr":"경기도 안산시 상록구 건건동 987-1번지 건건 e-편한세상 303호 주상가동","category":"학원 - 예·체능계학원"},{"name":"뉴킹스키즈어학원","tel":"031-599-0888","addr":"경기도 안산시 상록구 건건동 987-1번지 3층 일부","category":"학원 - 외국어학원"},{"name":"대림한우마을","tel":"031-501-0507","addr":"경기도 안산시 상록구 건건동 987-1번지 건건 e-편한세상 주상가동 111호","category":"음료식품 - 정육점"},{"name":"유피잉글리시영어교습소","tel":"031-423-1619","addr":"경기도 안산시 상록구 건건동 987-1번지 제부 상가동 205호","category":"학원 - 외국어학원"},{"name":"파랑새해법영어교습소","tel":"031-599-0585","addr":"경기도 안산시 상록구 건건동 987-1번지 건건 e-편한세상 상가 206호","category":"회원제형태 - 학원"}]},{"lat":"37.308839633","long":"126.90537672","items":[{"name":"건건해법수학학원","tel":"031-507-5425","addr":"경기도 안산시 상록구 건건동 590-1번지 일부 401호","category":"학원 - 보습학원"},{"name":"그라띠아(GRATIA)","tel":"031-438-9159","addr":"경기도 안산시 상록구 건건동 590-1번지 1층","category":"일반휴게음식 - 서양음식"}]},{"lat":"37.305422107","long":"126.90221157","items":[{"name":"경기유통","tel":"","addr":"경기도 안산시 상록구 건건동 645-1번지 1호","category":"음료식품 - 농·축·수산품"},{"name":"도깨비생활용품할인점","tel":"031-502-1533","addr":"경기도 안산시 상록구 건건동 645-1번지","category":"신변잡화 - 기타잡화"},{"name":"동영간판","tel":"031-502-0038","addr":"경기도 안산시 상록구 건건동 645-1,1","category":"용역 서비스 - 종합용역"},{"name":"반월생고기","tel":"031-501-3543","addr":"경기도 안산시 상록구 건건동 645-1번지","category":"일반휴게음식 - 일식·회집"},{"name":"반월종묘상사","tel":"031-437-1583","addr":"경기도 안산시 상록구 건건동 645-1번지","category":"농업 - 비료,사료,종자"},{"name":"삼천정육점","tel":"031-437-1139","addr":"경기도 안산시 상록구 건건동 645-1번지","category":"음료식품 - 정육점"},{"name":"센스구제","tel":"031-392-7610","addr":"경기도 안산시 상록구 건건동 645-1번지","category":"의류 - 정장"}]},{"lat":"37.316642842","long":"126.90581789","items":[{"name":"경민공조","tel":"070-7799-4477","addr":"경기도 안산시 상록구 건건동 23-2번지","category":"전기제품 - 가전제품"}]},{"lat":"37.305981514","long":"126.90312447","items":[{"name":"경신금요양원","tel":"031-418-7881","addr":"경기도 안산시 상록구 건건동 644-3번지 1층,3층,6층","category":"기타의료기관 - 기타의료기관 및 기타"}]},{"lat":"37.310811812","long":"126.90409949","items":[{"name":"경인상회","tel":"031-501-5719","addr":"경기도 안산시 상록구 건건동 536-49번지 숲속팰리스 101동 401호","category":"음료식품 - 농·축·수산품"}]},{"lat":"37.311785449","long":"126.9047412","items":[{"name":"고고 (GOGO)점핑다이어트","tel":"031-506-1586","addr":"경기도 안산시 상록구 건건동 535-1번지 한맥빌딩 402호","category":"건강식품 - 기타건강식품"},{"name":"고고점핑 다이어트","tel":"031-506-1586","addr":"경기도 안산시 상록구 건건동 535-1번지 한맥빌딩 402호","category":"건강식품 - 기타건강식품"},{"name":"라이또PC건건동점","tel":"070-5020-5323","addr":"경기도 안산시 상록구 건건동 535-1번지 한맥빌딩 201,202,203호","category":"수리서비스 - 사무·통신기기수리"},{"name":"맘스터치(반월점)","tel":"031-438-7799","addr":"경기도 안산시 상록구 건건동 535-1번지 한액빌딩 205호,206호","category":"일반휴게음식 - 서양음식"},{"name":"바네사","tel":"031-437-3357","addr":"경기도 안산시 상록구 건건동 535-1번지 외 1필지 한맥빌딩 105호","category":"일반휴게음식 - 서양음식"},{"name":"본죽앤비빔밥","tel":"031-437-2131","addr":"경기도 안산시 상록구 건건동 535-1번지 한맥빌딩 3층 304호","category":"일반휴게음식 - 일반한식"},{"name":"신화반월지점","tel":"031-431-5011","addr":"경기도 안산시 상록구 건건동 535-1번지 한맥빌딩 101동 102호","category":"사무통신 - 통신기기"},{"name":"왓치당구클럽","tel":"031-487-2800","addr":"경기도 안산시 상록구 건건동 535-1번지 한맥빌딩 3층","category":"레저업소 - 당 구 장"},{"name":"주식회사 연모바일","tel":"031-502-8016","addr":"경기도 안산시 상록구 건건동 535-1번지 한맥빌딩 101,102호","category":"사무통신 - 통신기기"},{"name":"펀비어킹","tel":"","addr":"경기도 안산시 상록구 건건동 535-1번지 한맥빌딩 1층 101 ,102,103호","category":"일반휴게음식 - 스넥"}]},{"lat":"37.310677053","long":"126.90457344","items":[{"name":"고구려수제본갈비","tel":"031-504-9292","addr":"경기도 안산시 상록구 건건동 536-19번지 1층","category":"일반휴게음식 - 일반한식"},{"name":"다이나복싱체육관","tel":"031-498-2050","addr":"경기도 안산시 상록구 건건동 536-19번지 2층","category":"레저업소 - 헬스클럽"},{"name":"돈우마을","tel":"031-438-3393","addr":"경기도 안산시 상록구 건건동 536-19번지 1층","category":"일반휴게음식 - 일반한식"}]},{"lat":"37.310982845","long":"126.9039075","items":[{"name":"고기창고","tel":"031-406-9255","addr":"경기도 안산시 상록구 건건동 536-50번지 숲속팰리스 1층","category":"일반휴게음식 - 일반한식"}]},{"lat":"37.3070627877","long":"126.9031794443","items":[{"name":"고은미용실","tel":"031-438-8676","addr":"경기도 안산시 상록구 건건동 625-8번지","category":"협회 및 단체, 수리 및 기타 개인서"},{"name":"와와키즈랜드","tel":"070-4007-1258","addr":"경기도 안산시 상록구 건건동 625-8번지","category":"협회 및 단체, 수리 및 기타 개인서"},{"name":"인생극장","tel":"","addr":"경기도 안산시 상록구 건건동 625-8번지","category":"숙박 및 음식점업 - 일반음식점"}]},{"lat":"37.307062788","long":"126.90317944","items":[{"name":"고은미용실","tel":"031-438-8676","addr":"경기도 안산시 상록구 건건동 625-8번지 홍익리빙프라자1층 2","category":"보건위생 - 미용원"},{"name":"드럼베어","tel":"","addr":"경기도 안산시 상록구 건건동 625-8번지 지하","category":"레져용품 - 악기점"},{"name":"비어톡","tel":"031-437-0321","addr":"경기도 안산시 상록구 건건동 625-8번지 홍익리빙프라자 104호","category":"일반휴게음식 - 일반한식"},{"name":"와와키즈랜드","tel":"070-4007-1258","addr":"경기도 안산시 상록구 건건동 625-8번지 홍익리빙프라자 2층","category":"레저업소 - 기타레져업소"},{"name":"인생극장(반월점)","tel":"031-502-6262","addr":"경기도 안산시 상록구 건건동 625-8번지 홍익리빙프라자 101호","category":"일반휴게음식 - 일반한식"},{"name":"하나콘텍 주식회사","tel":"031-408-8063","addr":"경기도 안산시 상록구 건건동 625-8번지 홍익대중탕 301호","category":"건축자재 - 기타건축자재"}]},{"lat":"37.305341245","long":"126.90248238","items":[{"name":"골드스킨케어","tel":"031-437-5030","addr":"경기도 안산시 상록구 건건동 645-7번지 1층","category":"보건위생 - 화장품"},{"name":"니엔 화장품 샵","tel":"","addr":"경기도 안산시 상록구 건건동 645-7번지","category":"보건위생 - 화장품"},{"name":"반월노래연습장","tel":"031-437-2228","addr":"경기도 안산시 상록구 건건동 645-7번지","category":"레저업소 - 노 래 방"},{"name":"보라미용실","tel":"031-437-9525","addr":"경기도 안산시 상록구 건건동 645-7번지","category":"보건위생 - 미용원"}]},{"lat":"37.301311722","long":"126.90020939","items":[{"name":"골든까페(Golden cafe)","tel":"031-415-3326","addr":"경기도 안산시 상록구 건건동 940-17번지","category":"일반휴게음식 - 서양음식"}]},{"lat":"37.305260278","long":"126.90262913","items":[{"name":"골목길","tel":"031-437-1207","addr":"경기도 안산시 상록구 건건동 645-10번지 1층","category":"일반휴게음식 - 일반한식"}]},{"lat":"37.3052602777","long":"126.9026291252","items":[{"name":"골목집","tel":"031-437-1207","addr":"경기도 안산시 상록구 건건동 645-10번지","category":"숙박 및 음식점업 - 한식"}]},{"lat":"37.3043949137","long":"126.9021790964","items":[{"name":"곱창마을","tel":"031-502-8650","addr":"경기도 안산시 상록구 건건동 650-1번지","category":"숙박 및 음식점업 - 한식"},{"name":"교촌치킨반월점","tel":"031-418-1000","addr":"경기도 안산시 상록구 건건동 650-1번지","category":"숙박 및 음식점업 - 후렌차이즈"},{"name":"대박숯돌생고기","tel":"031-502-6264","addr":"경기도 안산시 상록구 건건동 650-1번지","category":"숙박 및 음식점업 - 한식점업"},{"name":"반월화성약국","tel":"031-502-0165","addr":"경기도 안산시 상록구 건건동 650-1번지","category":"도매 및 소매업 - 양약"},{"name":"본드라이","tel":"031-407-1711","addr":"경기도 안산시 상록구 건건동 650-1번지","category":"협회 및 단체, 수리 및 기타 개인서"},{"name":"센타편의점","tel":"031-502-6264","addr":"경기도 안산시 상록구 건건동 650-1번지","category":"도매 및 소매업 - 슈퍼"},{"name":"스파랜드","tel":"031-501-4236","addr":"경기도 안산시 상록구 건건동 650-1번지","category":"협회 및 단체, 수리 및 기타 개인서"},{"name":"주식회사 녹색학원","tel":"031-437-7915","addr":"경기도 안산시 상록구 건건동 650-1번지","category":"교육서비스업 - 입시,외국어,보습학원"}]},{"lat":"37.304394914","long":"126.9021791","items":[{"name":"곱창마을","tel":"031-502-8650","addr":"경기도 안산시 상록구 건건동 650-1번지 센타프라자 104호","category":"일반휴게음식 - 일반한식"},{"name":"교촌치킨반월점","tel":"031-418-1000","addr":"경기도 안산시 상록구 건건동 650-1번지 센터프라자 1층 102호","category":"일반휴게음식 - 스넥"},{"name":"링구아어학원","tel":"031-437-0986","addr":"경기도 안산시 상록구 건건동 650-1번지 센터프라자 202호","category":"회원제형태 - 학원"},{"name":"바른몸 한의원","tel":"031-438-1914","addr":"경기도 안산시 상록구 건건동 650-1번지 센타프라자 3층 301호","category":"의원 - 한의원"},{"name":"반월원광한의원","tel":"031-502-7399","addr":"경기도 안산시 상록구 건건동 650-1번지 센타프라자 404호","category":"의원 - 한의원"},{"name":"반월원룸텔","tel":"031-437-6100","addr":"경기도 안산시 상록구 건건동 650-1번지 센타프라자 7층","category":"학원 - 독서실"},{"name":"반월화성약국","tel":"031-502-0165","addr":"경기도 안산시 상록구 건건동 650-1 센타프라자 105","category":"약국 - 약국"},{"name":"본드라이","tel":"","addr":"경기도 안산시 상록구 건건동 650-1번지 센타프라자 102호","category":"수리서비스 - 세탁소"},{"name":"서울의원","tel":"031-437-9437","addr":"경기도 안산시 상록구 건건동 650-1번지 센터프라자 401호","category":"의원 - 의원"},{"name":"서울치과의원","tel":"031-437-2875","addr":"경기도 안산시 상록구 건건동 650-1번지 센터프라자 402호","category":"의원 - 치과의원"},{"name":"세탁전문점한샘","tel":"031-433-3353","addr":"경기도 안산시 상록구 건건동 650-1번지 센터프라자 102호","category":"수리서비스 - 세탁소"},{"name":"센터편의점","tel":"031-502-6264","addr":"경기도 안산시 상록구 건건동 650-1번지 센타프라자 103호","category":"유통업 영리 - 편 의 점"},{"name":"스파랜드","tel":"031-501-4236","addr":"경기도 안산시 상록구 건건동 650-1 센타프라자5층,6층","category":"보건위생 - 사우나"},{"name":"주식회사녹색학원","tel":"031-437-7915","addr":"경기도 안산시 상록구 건건동 650-1번지 센타프라자 202,203호","category":"학원 - 보습학원"},{"name":"주식회사코아개발","tel":"031-437-6100","addr":"경기도 안산시 상록구 건건동 650-1번지 센터프라자 701호","category":"학원 - 독서실"},{"name":"큰손정육식당","tel":"031-438-7666","addr":"경기도 안산시 상록구 건건동 650-1번지 센터프라자 106호","category":"일반휴게음식 - 일반한식"},{"name":"탑당구클럽","tel":"070-8187-7558","addr":"경기도 안산시 상록구 건건동 650-1번지 센타프라자 3층 303호","category":"레저업소 - 당 구 장"},{"name":"퇴랑숯돌생고기","tel":"031-502-6264","addr":"경기도 안산시 상록구 건건동 650-1번지 외1필지센터프라자 101호","category":"일반휴게음식 - 일반한식"},{"name":"황금독수리","tel":"031-934-3077","addr":"경기도 안산시 상록구 건건동 650-1번지 센터프라자 204호","category":"회원제형태 - 학원"},{"name":"힐링월드","tel":"031-111-1111","addr":"경기도 안산시 상록구 건건동 650-1번지 센타프라자","category":"레저업소 - 헬스클럽"}]},{"lat":"37.306116267","long":"126.90265055","items":[{"name":"공치네","tel":"031-438-6468","addr":"경기도 안산시 상록구 건건동 643-10번지 2층 202호","category":"레저업소 - 당 구 장"},{"name":"공치네","tel":"031-438-6468","addr":"경기도 안산시 상록구 건건동 643-10번지 201호","category":"레저업소 - 당 구 장"},{"name":"꽃나비 꽃방","tel":"031-408-0074","addr":"경기도 안산시 상록구 건건동 643-10번지 반월석재 103호","category":"문화.취미 - 화원"},{"name":"남서울건재","tel":"031-437-0054","addr":"경기도 안산시 상록구 건건동 643-10번지","category":"건축자재 - 기타건축자재"},{"name":"만물종합철물","tel":"031-437-0132","addr":"경기도 안산시 상록구 건건동 643-10번지","category":"건축자재 - 기타건축자재"},{"name":"매니아헤어두","tel":"031-437-1077","addr":"경기도 안산시 상록구 건건동 643-10번지 104호","category":"보건위생 - 미용원"},{"name":"반월지물포","tel":"031-437-4939","addr":"경기도 안산시 상록구 건건동 643-10번지","category":"직물 - 카페트,커튼,천막,지물"}]},{"lat":"37.301121217","long":"126.8987321","items":[{"name":"과천써머","tel":"031-437-2232","addr":"경기도 안산시 상록구 건건동 941-11번지","category":"자동차정비 유지 - 자동차정비"}]},{"lat":"37.314447973","long":"126.89945826","items":[{"name":"군포캐리어","tel":"031-437-3962","addr":"경기도 안산시 상록구 건건동 251-1번지","category":"전기제품 - 냉열기기"}]},{"lat":"37.311587477","long":"126.90504603","items":[{"name":"그녀는 예뻤다","tel":"","addr":"경기도 안산시 상록구 건건동 532번지 206호","category":"보건위생 - 미용원"},{"name":"그녀는예뻤다","tel":"031-408-0520","addr":"경기도 안산시 상록구 건건동 532번지 덕천상가 206호","category":"보건위생 - 미용원"},{"name":"더달달아이스크림할인점","tel":"070-7423-6603","addr":"경기도 안산시 상록구 건건동 532번지 2층 202호","category":"음료식품 - 기타음료식품"},{"name":"뮤엠영어건건학원","tel":"031-437-5634","addr":"경기도 안산시 상록구 건건동 532번지 덕천빌딩 303호","category":"학원 - 외국어학원"},{"name":"반월경기한의원","tel":"031-438-2900","addr":"경기도 안산시 상록구 건건동 532번지 덕천상가 302호 301호,302호","category":"의원 - 한의원"},{"name":"봄온우리약국","tel":"031-438-6282","addr":"경기도 안산시 상록구 건건동 532번지 204호","category":"약국 - 약국"},{"name":"스마트E영어학원","tel":"031-437-0567","addr":"경기도 안산시 상록구 건건동 532번지 402호","category":"회원제형태 - 학원"},{"name":"원소아과의원","tel":"031-438-0503","addr":"경기도 안산시 상록구 건건동 532번지 건건동,덕천빌딩 402호","category":"의원 - 의원"},{"name":"파리바게트(안산행복점)","tel":"031-501-3022","addr":"경기도 안산시 상록구 건건동 532번지 2층 204호,205호","category":"음료식품 - 제과점"},{"name":"하늘선율음악학원","tel":"031-501-5974","addr":"경기도 안산시 상록구 건건동 532번지 덕촌빌딩 403호","category":"학원 - 예·체능계학원"},{"name":"홈마트","tel":"031-502-8582","addr":"경기도 안산시 상록구 건건동 532번지 101호","category":"유통업 영리 - 슈퍼마켓"}]},{"lat":"37.303619399","long":"126.9014357","items":[{"name":"그리우면","tel":"031-438-4634","addr":"경기도 안산시 상록구 건건동 927-9번지 B동 6호","category":"일반휴게음식 - 일반한식"},{"name":"그리우면","tel":"031-502-9779","addr":"경기도 안산시 상록구 건건동 927-9번지 동호상가 B-11호","category":"일반휴게음식 - 일반한식"},{"name":"꽃비","tel":"031-406-9858","addr":"경기도 안산시 상록구 건건동 927-9번지 동호상가 1층 112호","category":"보건위생 - 화장품"},{"name":"달콤한닭강정","tel":"031-438-1551","addr":"경기도 안산시 상록구 건건동 927-9번지 B동 115호","category":"일반휴게음식 - 일반한식"},{"name":"대영","tel":"031-406-2167","addr":"경기도 안산시 상록구 건건동 927-9번지 동호상가 B동 11호","category":"음료식품 - 기타음료식품"},{"name":"신림동순대곱창","tel":"031-437-3286","addr":"경기도 안산시 상록구 건건동 927-9번지","category":"일반휴게음식 - 일반한식"},{"name":"오떡반월점","tel":"031-408-5458","addr":"경기도 안산시 상록구 건건동 927-9번지 B동 17호","category":"일반휴게음식 - 일반한식"},{"name":"찌개통","tel":"031-438-5881","addr":"경기도 안산시 상록구 건건동 927-9번지","category":"일반휴게음식 - 일반한식"},{"name":"촌닭촌닭6500냥","tel":"031-415-5959","addr":"경기도 안산시 상록구 건건동 927-9번지 동호상가 B동 9호","category":"일반휴게음식 - 스넥"},{"name":"추억닭발","tel":"031-502-2881","addr":"경기도 안산시 상록구 건건동 927-9번지 B동 10호","category":"일반휴게음식 - 일반한식"},{"name":"포인트","tel":"031-437-8412","addr":"경기도 안산시 상록구 건건동 927-9번지 동호상가 B동 5호","category":"의류 - 정장"},{"name":"헤라헤어클리닉","tel":"031-437-1582","addr":"경기도 안산시 상록구 건건동 927-9번지 동호상가 1층","category":"보건위생 - 미용원"},{"name":"황족","tel":"031-437-5452","addr":"경기도 안산시 상록구 건건동 927-9번지 B동 1호","category":"일반휴게음식 - 일반한식"},{"name":"휴","tel":"031-502-6619","addr":"경기도 안산시 상록구 건건동 927-9번지 1층 16,17호","category":"일반휴게음식 - 일반한식"}]},{"lat":"37.3036193991","long":"126.9014356951","items":[{"name":"그리우면","tel":"031-438-4634","addr":"경기도 안산시 상록구 건건동 927-9번지","category":"숙박 및 음식점업 - 기타음식"},{"name":"대영","tel":"031-406-2167","addr":"경기도 안산시 상록구 건건동 927-9번지","category":"도매 및 소매업 - 수입과자"},{"name":"더리터 안산반월점","tel":"031-502-6619","addr":"경기도 안산시 상록구 건건동 927-9번지","category":"숙박 및 음식점업 - 일반음식"},{"name":"신림동순대곱창","tel":"031-437-3286","addr":"경기도 안산시 상록구 건건동 927-9번지","category":"숙박 및 음식점업 - 한식"},{"name":"유나통신","tel":"031-437-2011","addr":"경기도 안산시 상록구 건건동 927-9번지","category":"도매 및 소매업 - 휴대폰"},{"name":"찌개통","tel":"031-438-5881","addr":"경기도 안산시 상록구 건건동 927-9번지","category":"숙박 및 음식점업 - 일반음식점"},{"name":"추억닭발","tel":"031-502-2881","addr":"경기도 안산시 상록구 건건동 927-9번지","category":"숙박 및 음식점업 - 한식"},{"name":"포인트","tel":"031-437-8412","addr":"경기도 안산시 상록구 건건동 927-9번지","category":"도매 및 소매업 - 의류"},{"name":"할매냉면","tel":"031-437-4822","addr":"경기도 안산시 상록구 건건동 927-9번지","category":"숙박 및 음식점업 - 일반음식점"},{"name":"황족","tel":"031-437-5452","addr":"경기도 안산시 상록구 건건동 927-9번지","category":"숙박 및 음식점업 - 한식"}]},{"lat":"37.309369942","long":"126.90381937","items":[{"name":"그린인테리어","tel":"031-502-0555","addr":"경기도 안산시 상록구 건건동 551-1번지","category":"건축자재 - 인테리어전문"},{"name":"한인숙수제돈까스스테이크덮밥","tel":"031-501-8333","addr":"경기도 안산시 상록구 건건동 551-1번지 1층","category":"일반휴게음식 - 일반한식"}]},{"lat":"37.310622597","long":"126.90409973","items":[{"name":"글로벌-FY","tel":"031-451-3114","addr":"경기도 안산시 상록구 건건동 536-16번지 503호","category":"기타 - 기계공구"}]},{"lat":"37.3046199770","long":"126.9019532068","items":[{"name":"금강열쇠","tel":"031-362-5830","addr":"경기도 안산시 상록구 건건동 635-13번지","category":"도매 및 소매업 - 열쇠"},{"name":"김밥나라","tel":"031-437-7692","addr":"경기도 안산시 상록구 건건동 635-13번지","category":"숙박 및 음식점업 - 한식"},{"name":"드림안경마트","tel":"031-438-1058","addr":"경기도 안산시 상록구 건건동 635-13번지","category":"도매 및 소매업 - 안경"},{"name":"웰빙엄마손꼬마김밥","tel":"031-407-5023","addr":"경기도 안산시 상록구 건건동 635-13번지","category":"숙박 및 음식점업 - 음식"},{"name":"중앙다방","tel":"031-438-0116","addr":"경기도 안산시 상록구 건건동 635-13번지","category":"숙박 및 음식점업 - 다방"},{"name":"파리바게뜨(안산진주점)","tel":"031-480-8282","addr":"경기도 안산시 상록구 건건동 635-13번지","category":"숙박 및 음식점업 - 제과점"},{"name":"피부사랑","tel":"031-502-3608","addr":"경기도 안산시 상록구 건건동 635-13번지","category":"도매 및 소매업 - 화장품,잡화"}]},{"lat":"37.304619977","long":"126.90195321","items":[{"name":"금정카페","tel":"","addr":"경기도 안산시 상록구 건건동 635-13번지 2층","category":"일반휴게음식 - 일반한식"},{"name":"김밥나라","tel":"031-502-3332","addr":"경기도 안산시 상록구 건건동 635-13번지 1층","category":"일반휴게음식 - 일반한식"},{"name":"웰빙엄마손꼬마김밥","tel":"031-416-5023","addr":"경기도 안산시 상록구 건건동 635-13번지 1층","category":"일반휴게음식 - 일반한식"},{"name":"이지비야","tel":"031-483-9998","addr":"경기도 안산시 상록구 건건동 635-13번지","category":"일반휴게음식 - 일반한식"},{"name":"코디짱","tel":"031-406-9292","addr":"경기도 안산시 상록구 건건동 635-13번지 1층","category":"의류 - 정장"},{"name":"파리바게뜨(안산진주점)","tel":"070-4062-0703","addr":"경기도 안산시 상록구 건건동 635-13번지","category":"음료식품 - 제과점"},{"name":"피부사랑","tel":"031-502-3608","addr":"경기도 안산시 상록구 건건동 635-13번지","category":"보건위생 - 화장품"},{"name":"형제유리알미늄","tel":"031-437-1999","addr":"경기도 안산시 상록구 건건동 635-13번지","category":"건축자재 - 유리"}]},{"lat":"37.302810656","long":"126.90400844","items":[{"name":"기와집전주콩나물국밥","tel":"031-501-8778","addr":"경기도 안산시 상록구 건건동 895-16번지 1층","category":"일반휴게음식 - 일반한식"}]},{"lat":"37.309532126","long":"126.90381916","items":[{"name":"길튼수학교습소","tel":"070-4417-0248","addr":"경기도 안산시 상록구 건건동 550-5번지 202호","category":"회원제형태 - 학원"},{"name":"치킨마루(건건점)","tel":"031-502-9958","addr":"경기도 안산시 상록구 건건동 550-5번지 104호","category":"일반휴게음식 - 일반한식"},{"name":"커피줌","tel":"031-502-3336","addr":"경기도 안산시 상록구 건건동 550-5번지 101호","category":"일반휴게음식 - 스넥"},{"name":"풀잎","tel":"031-502-6269","addr":"경기도 안산시 상록구 건건동 550-5번지 1층 103호","category":"의류 - 정장"},{"name":"헤어숍미*넷 (Net)","tel":"031-502-6176","addr":"경기도 안산시 상록구 건건동 550-5번지 102호","category":"보건위생 - 미용원"}]},{"lat":"37.305674929","long":"126.90284289","items":[{"name":"김밥천국","tel":"031-503-7011","addr":"경기도 안산시 상록구 건건동 644-7번지 마크리엘 103호","category":"일반휴게음식 - 스넥"},{"name":"시골밥상","tel":"031-111-1111","addr":"경기도 안산시 상록구 건건동 644-7번지 101,102,110호","category":"일반휴게음식 - 일반한식"},{"name":"토프레소(건건점)","tel":"031-408-1334","addr":"경기도 안산시 상록구 건건동 644-7번지 107호 108호","category":"일반휴게음식 - 서양음식"}]},{"lat":"37.3056749290","long":"126.9028428877","items":[{"name":"김밥천국","tel":"031-503-7011","addr":"경기도 안산시 상록구 건건동 644-7번지","category":"숙박 및 음식점업 - 기타음식"},{"name":"시골밥상","tel":"","addr":"경기도 안산시 상록구 건건동 644-7번지","category":"숙박 및 음식점업 - 한식"}]},{"lat":"37.305115875","long":"126.90234733","items":[{"name":"김송정머리터","tel":"031-406-7017","addr":"경기도 안산시 상록구 건건동 645-13번지","category":"보건위생 - 미용원"},{"name":"냠냠","tel":"031-438-0407","addr":"경기도 안산시 상록구 건건동 645-13번지","category":"일반휴게음식 - 일반한식"},{"name":"오성사진관","tel":"031-502-0034","addr":"경기도 안산시 상록구 건건동 645-13번지","category":"광학제품 - 사진관"}]},{"lat":"37.309561272","long":"126.90637973","items":[{"name":"까페포레스트(Cafe Forest)","tel":"031-501-7111","addr":"경기도 안산시 상록구 건건동 499번지 1,2층","category":"일반휴게음식 - 서양음식"}]},{"lat":"37.3030969223","long":"126.9015717479","items":[{"name":"남문흑염소","tel":"031-438-9054","addr":"경기도 안산시 상록구 건건동 927-12번지","category":"숙박 및 음식점업 - 흑염소즉석판매가"},{"name":"노래하우스노래연습장","tel":"031-502-0888","addr":"경기도 안산시 상록구 건건동 927-12번지","category":"협회 및 단체, 수리 및 기타 개인서"},{"name":"우돈이조아","tel":"031-437-3781","addr":"경기도 안산시 상록구 건건동 927-12번지","category":"숙박 및 음식점업 - 일반음식점"},{"name":"이순자의 대대로 이어지는 순대국감자탕","tel":"","addr":"경기도 안산시 상록구 건건동 927-12번지","category":"숙박 및 음식점업 - 한식"}]},{"lat":"37.303096922","long":"126.90157175","items":[{"name":"남문흑염소","tel":"031-438-9054","addr":"경기도 안산시 상록구 건건동 927-12번지","category":"건강식품 - 기타건강식품"},{"name":"수정","tel":"031-438-4131","addr":"경기도 안산시 상록구 건건동 927-12번지 지층","category":"일반휴게음식 - 서양음식"},{"name":"우돈이좋아","tel":"031-437-3781","addr":"경기도 안산시 상록구 건건동 927-12번지","category":"일반휴게음식 - 일반한식"},{"name":"이순자의대대로이어지는순대국감자탕","tel":"031-408-6007","addr":"경기도 안산시 상록구 건건동 927-12번지","category":"일반휴게음식 - 일반한식"},{"name":"짱구노래연습장","tel":"","addr":"경기도 안산시 상록구 건건동 927-12번지 2층","category":"레저업소 - 노 래 방"}]},{"lat":"37.305065798","long":"126.90715248","items":[{"name":"남원추어탕","tel":"031-438-0595","addr":"경기도 안산시 상록구 건건동 839-5번지 1층","category":"일반휴게음식 - 일반한식"},{"name":"산노을촌","tel":"031-392-6397","addr":"경기도 안산시 상록구 건건동 839-5번지 1층","category":"일반휴게음식 - 일반한식"}]},{"lat":"37.3002909528","long":"126.9078690977","items":[{"name":"남원추어탕","tel":"031-438-4057","addr":"경기도 안산시 상록구 건건동 871-1번지","category":"숙박 및 음식점업 - 한식"}]},{"lat":"37.300290953","long":"126.9078691","items":[{"name":"남원추어탕","tel":"031-438-4057","addr":"경기도 안산시 상록구 건건동 871-1번지 1층","category":"일반휴게음식 - 일반한식"}]},{"lat":"37.3051790135","long":"126.9024262011","items":[{"name":"냠냠","tel":"031-438-0407","addr":"경기도 안산시 상록구 건건동 645-12번지","category":"숙박 및 음식점업 - 기타"},{"name":"아이러브 아이스크림 할인점","tel":"031-407-7802","addr":"경기도 안산시 상록구 건건동 645-12번지","category":"도매 및 소매업 - 냉동식품, 아이스"}]},{"lat":"37.303818048","long":"126.90193172","items":[{"name":"네모피시","tel":"070-7786-9224","addr":"경기도 안산시 상록구 건건동 922-4, 5번지 3층","category":"레저업소 - 기타레져업소"},{"name":"녹십자약국","tel":"031-437-8080","addr":"경기도 안산시 상록구 건건동 922-4번지","category":"약국 - 약국"},{"name":"덕이네회마차","tel":"031-438-7588","addr":"경기도 안산시 상록구 건건동 922-4번지 외1필지 1층","category":"일반휴게음식 - 일식·회집"},{"name":"럭셔리호프","tel":"031-418-9080","addr":"경기도 안산시 상록구 건건동 922-4번지 지하 B02호","category":"일반휴게음식 - 주점"},{"name":"롯데리아안산반월점","tel":"031-437-2230","addr":"경기도 안산시 상록구 건건동 922-4번지 외1필지","category":"일반휴게음식 - 서양음식"},{"name":"반월경희대태권도","tel":"031-437-0033","addr":"경기도 안산시 상록구 건건동 922-4번지 4층","category":"학원 - 예·체능계학원"},{"name":"사오정노래연습장","tel":"031-502-9393","addr":"경기도 안산시 상록구 건건동 922-4번지","category":"레저업소 - 노 래 방"},{"name":"사오정노래연습장","tel":"070-7539-9547","addr":"경기도 안산시 상록구 건건동 922-4번지 지하","category":"레저업소 - 노 래 방"},{"name":"아로마","tel":"031-405-4404","addr":"경기도 안산시 상록구 건건동 922-4번지 2층 1호","category":"보건위생 - 화장품"},{"name":"최정민낙지마당","tel":"031-501-1212","addr":"경기도 안산시 상록구 건건동 922-4번지 안진빌딩 1층","category":"일반휴게음식 - 일반한식"}]},{"lat":"37.3068465711","long":"126.9032135692","items":[{"name":"노가리","tel":"031-437-9424","addr":"경기도 안산시 상록구 건건동 625-5번지","category":"숙박 및 음식점업 - 일반음식점"},{"name":"카페 카카오네","tel":"031-507-1112","addr":"경기도 안산시 상록구 건건동 625-5번지","category":"숙박 및 음식점업 - 카페"},{"name":"피자스쿨건건점","tel":"031-438-6006","addr":"경기도 안산시 상록구 건건동 625-5번지","category":"숙박 및 음식점업 - 일반음식점"},{"name":"황소꼼장어","tel":"","addr":"경기도 안산시 상록구 건건동 625-5번지","category":"숙박 및 음식점업 - 한식 음식점업"}]},{"lat":"37.3037007228","long":"126.9017062899","items":[{"name":"녹십자약국","tel":"031-437-8174","addr":"경기도 안산시 상록구 건건동 927-7번지","category":"도매 및 소매업 - 약국"},{"name":"대도축산","tel":"031-437-0310","addr":"경기도 안산시 상록구 건건동 927-7번지","category":"도매 및 소매업 - 식육"},{"name":"헤라헤어클리닉","tel":"031-437-1582","addr":"경기도 안산시 상록구 건건동 927-7번지","category":"협회 및 단체, 수리 및 기타 개인서"},{"name":"형제방앗간","tel":"031-437-9832","addr":"경기도 안산시 상록구 건건동 927-7번지","category":"제조업 - 방앗간"}]},{"lat":"37.3088668488","long":"126.9056022855","items":[{"name":"농민마트","tel":"031-406-0972","addr":"경기도 안산시 상록구 건건동 592-1번지","category":"도매 및 소매업 - 슈퍼마켓"}]},{"lat":"37.308866849","long":"126.90560229","items":[{"name":"농민마트","tel":"031-406-0972","addr":"경기도 안산시 상록구 건건동 592-1번지 1층","category":"유통업 영리 - 슈퍼마켓"},{"name":"명문햇살피아노학원","tel":"031-501-7771","addr":"경기도 안산시 상록구 건건동 592-1번지 201호","category":"학원 - 예·체능계학원"},{"name":"브레인영수학원","tel":"031-501-3349","addr":"경기도 안산시 상록구 건건동 592-1번지 2층","category":"학원 - 보습학원"},{"name":"에듀비전영수학원","tel":"031-437-3050","addr":"경기도 안산시 상록구 건건동 592-1번지 202호","category":"학원 - 보습학원"}]},{"lat":"37.315841184","long":"126.90612351","items":[{"name":"농업회사법인 좋은사람들(주)","tel":"","addr":"경기도 안산시 상록구 건건동 193-1번지","category":"음료식품 - 농·축·수산품"}]},{"lat":"37.306009368","long":"126.91556593","items":[{"name":"농업회사법인쿠키라인","tel":"031-424-0424","addr":"경기도 안산시 상록구 건건동 819번지","category":"음료식품 - 농·축·수산품"}]},{"lat":"37.3057830039","long":"126.9027863463","items":[{"name":"누리베딩","tel":"031-501-6119","addr":"경기도 안산시 상록구 건건동 644-20번지","category":"도매 및 소매업 - 이불,침구"}]},{"lat":"37.310844043","long":"126.91054056","items":[{"name":"늘봄오리","tel":"031-502-3450","addr":"경기도 안산시 상록구 건건동 448-7번지 1층","category":"일반휴게음식 - 일반한식"},{"name":"반월가든","tel":"031-502-3450","addr":"경기도 안산시 상록구 건건동 448-7번지","category":"일반휴게음식 - 일반한식"}]},{"lat":"37.304258902","long":"126.90117541","items":[{"name":"늘조은식품반월점","tel":"","addr":"경기도 안산시 상록구 건건동 632-17번지 1층","category":"음료식품 - 기타음료식품"},{"name":"반월플러스학원","tel":"031-416-7466","addr":"경기도 안산시 상록구 건건동 632-17번지 2층","category":"학원 - 보습학원"},{"name":"이삭토스트 반월점","tel":"031-438-0950","addr":"경기도 안산시 상록구 건건동 632-17번지 1층","category":"일반휴게음식 - 일반한식"}]},{"lat":"37.311425813","long":"126.90567795","items":[{"name":"다온텔레콤","tel":"070-4649-1101","addr":"경기도 안산시 상록구 건건동 521번지 103호","category":"사무통신 - 통신기기"},{"name":"바바헤어","tel":"031-437-5511","addr":"경기도 안산시 상록구 건건동 521번지 101호","category":"보건위생 - 미용원"},{"name":"엠에스2헤어(MS2)","tel":"031-437-7635","addr":"경기도 안산시 상록구 건건동 521번지","category":"보건위생 - 미용원"},{"name":"커피에반하다","tel":"031-111-1111","addr":"경기도 안산시 상록구 건건동 521번지 월담 103호","category":"일반휴게음식 - 서양음식"}]},{"lat":"37.309659012","long":"126.90471013","items":[{"name":"달래다육","tel":"031-501-3692","addr":"경기도 안산시 상록구 건건동 987번지 건건e-편한세상 102동 2505호","category":"문화.취미 - 화원"}]},{"lat":"37.30631494","long":"126.90318043","items":[{"name":"달콤하우스","tel":"031-000-0000","addr":"경기도 안산시 상록구 건건동 642-11번지","category":"음료식품 - 기타음료식품"},{"name":"땅콩볶는집","tel":"031-437-5885","addr":"경기도 안산시 상록구 건건동 642-11번지 1층 1호","category":"음료식품 - 농·축·수산품"},{"name":"은혜옷수선","tel":"031-502-0311","addr":"경기도 안산시 상록구 건건동 642-11번지 1층","category":"수리서비스 - 세탁소"}]},{"lat":"37.308955236","long":"126.90353791","items":[{"name":"대가족","tel":"031-437-0422","addr":"경기도 안산시 상록구 건건동 553-2번지 103호","category":"일반휴게음식 - 일반한식"},{"name":"대진카센타","tel":"031-437-0825","addr":"경기도 안산시 상록구 건건동 553-2번지","category":"자동차정비 유지 - 자동차정비"},{"name":"바오치킨","tel":"031-418-1567","addr":"경기도 안산시 상록구 건건동 553-2번지 1층","category":"일반휴게음식 - 스넥"},{"name":"반월시골정육점","tel":"031-405-5536","addr":"경기도 안산시 상록구 건건동 553-2번지","category":"음료식품 - 정육점"},{"name":"소고기국밥","tel":"031-480-8200","addr":"경기도 안산시 상록구 건건동 553-2번지 1층","category":"일반휴게음식 - 일반한식"},{"name":"주식회사 진흥미트유통","tel":"031-000-0000","addr":"경기도 안산시 상록구 건건동 553-2번지 1층","category":"음료식품 - 정육점"},{"name":"커트타임남성미용실","tel":"031-437-2515","addr":"경기도 안산시 상록구 건건동 553-2번지 1층","category":"보건위생 - 미용원"},{"name":"컷트타임","tel":"070-4121-2515","addr":"경기도 안산시 상록구 건건동 553-2번지 컷트타임","category":"보건위생 - 미용원"},{"name":"컷트타임남성미용실","tel":"070-4121-2515","addr":"경기도 안산시 상록구 건건동 553-2번지","category":"보건위생 - 미용원"},{"name":"크린토피아","tel":"031-417-8844","addr":"경기도 안산시 상록구 건건동 553-2번지","category":"수리서비스 - 세탁소"}]},{"lat":"37.303700723","long":"126.90170629","items":[{"name":"대도축산","tel":"031-437-0310","addr":"경기도 안산시 상록구 건건동 927-7번지 동호상가 A-7호","category":"음료식품 - 정육점"},{"name":"동호카센타","tel":"031-437-5959","addr":"경기도 안산시 상록구 건건동 927-7번지","category":"자동차정비 유지 - 자동차정비"},{"name":"또먹자생선구이","tel":"031-438-0763","addr":"경기도 안산시 상록구 건건동 927-7번지 A-4호","category":"일반휴게음식 - 일반한식"},{"name":"빵굽는마을","tel":"031-502-2513","addr":"경기도 안산시 상록구 건건동 927-7번지 동호상가 B-13호","category":"음료식품 - 제과점"},{"name":"원희미용실","tel":"031-502-0189","addr":"경기도 안산시 상록구 건건동 927-7번지 A동 8호","category":"보건위생 - 미용원"},{"name":"형제방아간","tel":"031-437-8200","addr":"경기도 안산시 상록구 건건동 927-7번지","category":"음료식품 - 기타음료식품"}]},{"lat":"37.310191701","long":"126.90602923","items":[{"name":"대림다사랑어린이집[아이행복]","tel":"031-599-0700","addr":"경기도 안산시 상록구 건건동 987번지 건건e-편한세상주상가동 106동 101호","category":"학원 - 유아원"},{"name":"신세계유통","tel":"031-391-8009","addr":"경기도 안산시 상록구 건건동 987번지 건건e-편한세상 106동 1204호","category":"음료식품 - 기타음료식품"},{"name":"연지네다육","tel":"070-4098-2154","addr":"경기도 안산시 상록구 건건동 987번지 건건e-편한세상 106동 403호","category":"문화.취미 - 화원"},{"name":"영에어컨","tel":"031-509-9211","addr":"경기도 안산시 상록구 건건동 987번지 건건e-편한세상 106동 2206호","category":"용역 서비스 - 기타용역서비스"}]},{"lat":"37.3094243709","long":"126.9042592244","items":[{"name":"대림한우마을","tel":"031-501-0507","addr":"경기도 안산시 상록구 건건동 987-1번지","category":"도매 및 소매업 - 식육"},{"name":"파랑새해법영어교습소","tel":"031-599-0585","addr":"경기도 안산시 상록구 건건동 987-1번지","category":"교육서비스업 - 교습소,서적"}]},{"lat":"37.301230826","long":"126.90043508","items":[{"name":"대박낚시","tel":"031-438-4227","addr":"경기도 안산시 상록구 건건동 940-27번지","category":"레져용품 - 스포츠·레져용품"}]},{"lat":"37.306846571","long":"126.90321357","items":[{"name":"대성","tel":"031-416-9497","addr":"경기도 안산시 상록구 건건동 625-5번지 2층","category":"학원 - 예·체능계학원"},{"name":"몬스터풋볼클럽","tel":"031-223-5214","addr":"경기도 안산시 상록구 건건동 625-5번지","category":"학원 - 예·체능계학원"},{"name":"카페 카카오네","tel":"031-507-1112","addr":"경기도 안산시 상록구 건건동 625-5번지 1층","category":"일반휴게음식 - 서양음식"}]},{"lat":"37.306171175","long":"126.90365437","items":[{"name":"대성모터스","tel":"031-408-0858","addr":"경기도 안산시 상록구 건건동 662번지 비동호","category":"자동차정비 유지 - 자동차정비"},{"name":"제이앤제이(J&J)헤어스케치","tel":"070-4090-7050","addr":"경기도 안산시 상록구 건건동 662번지 A동 1층","category":"보건위생 - 미용원"},{"name":"조은농약사","tel":"070-5022-4846","addr":"경기도 안산시 상록구 건건동 662번지 비동호 A동 103호","category":"농업 - 기타농업관련"},{"name":"테라피플러스","tel":"031-437-5468","addr":"경기도 안산시 상록구 건건동 662번지 비동103","category":"회원제형태 - 기타4"}]},{"lat":"37.304204442","long":"126.90071303","items":[{"name":"대성오토바이","tel":"031-437-0062","addr":"경기도 안산시 상록구 건건동 632-6번지","category":"자동차판매 - 이륜차판매"},{"name":"반월드래곤합기도","tel":"031-501-9100","addr":"경기도 안산시 상록구 건건동 632-6번지 2층","category":"회원제형태 - 학원"}]},{"lat":"37.300978754","long":"126.90068355","items":[{"name":"대원인터내셔널","tel":"031-430-4991","addr":"경기도 안산시 상록구 건건동 940-35번지","category":"기타 - 기계공구"}]},{"lat":"37.3089552360","long":"126.9035379093","items":[{"name":"대진카센터","tel":"","addr":"경기도 안산시 상록구 건건동 553-2번지","category":"협회 및 단체, 수리 및 기타 개인서"},{"name":"바오치킨","tel":"031-418-1567","addr":"경기도 안산시 상록구 건건동 553-2번지","category":"숙박 및 음식점업 - 치킨"},{"name":"시골정육점","tel":"031-416-1456","addr":"경기도 안산시 상록구 건건동 553-2번지","category":"도매 및 소매업 - 식육"}]},{"lat":"37.306207007","long":"126.90340617","items":[{"name":"대한민국노래연습장(반월점)","tel":"031-487-5988","addr":"경기도 안산시 상록구 건건동 644-13번지 2층","category":"레저업소 - 노 래 방"},{"name":"반월농민마트 서해점","tel":"031-111-1111","addr":"경기도 안산시 상록구 건건동 644-13번지 1층","category":"유통업 영리 - 슈퍼마켓"}]},{"lat":"37.310758023","long":"126.90442669","items":[{"name":"더 뷰티(The Beauty)","tel":"070-4763-5091","addr":"경기도 안산시 상록구 건건동 536-52번지 한우리빌 1층 101호","category":"보건위생 - 화장품"},{"name":"아이루브(i-Lube)","tel":"031-437-1273","addr":"경기도 안산시 상록구 건건동 536-52번지 1층","category":"자동차정비 유지 - 윤활유 전문 판매"}]},{"lat":"37.319088472","long":"126.89973394","items":[{"name":"더셈퍼플로레(The semperflore)","tel":"031-502-4814","addr":"경기도 안산시 상록구 건건동 106번지","category":"일반휴게음식 - 일반한식"}]},{"lat":"37.304727084","long":"126.90076872","items":[{"name":"더티진","tel":"070-8631-7730","addr":"경기도 안산시 상록구 건건동 632-8번지 103호","category":"의류 - 정장"},{"name":"떡.오.순","tel":"031-407-5288","addr":"경기도 안산시 상록구 건건동 632-8번지 1층 1호","category":"일반휴게음식 - 일반한식"},{"name":"반월전기통신","tel":"031-501-1515","addr":"경기도 안산시 상록구 건건동 632-8번지 1층","category":"사무통신 - 통신기기"},{"name":"반월컴퓨터","tel":"031-502-8959","addr":"경기도 안산시 상록구 건건동 632-8번지 1층 3호","category":"수리서비스 - 사무·통신기기수리"},{"name":"정겨운식당","tel":"031-406-0111","addr":"경기도 안산시 상록구 건건동 632-8번지 1층 4호","category":"일반휴게음식 - 일반한식"}]},{"lat":"37.307956464","long":"126.90517482","items":[{"name":"덕양기전","tel":"031-479-2594","addr":"경기도 안산시 상록구 건건동 613-3번지","category":"기타 - 기타 전문점"}]},{"lat":"37.3038180483","long":"126.9019317198","items":[{"name":"덕이네회마차","tel":"031-438-7588","addr":"경기도 안산시 상록구 건건동 922-4번지","category":"숙박 및 음식점업 - 횟집"},{"name":"최정민낙지마당","tel":"031-501-1212","addr":"경기도 안산시 상록구 건건동 922-4번지","category":"숙박 및 음식점업 - 한식"}]},{"lat":"37.3054221073","long":"126.9022115654","items":[{"name":"도깨비 생활용품 할인점","tel":"031-502-1533","addr":"경기도 안산시 상록구 건건동 645-1번지","category":"도매 및 소매업 - 생활용품"},{"name":"반월생고기","tel":"031-485-3543","addr":"경기도 안산시 상록구 건건동 645-1번지","category":"숙박 및 음식점업 - 간이일식"},{"name":"반월종묘농약사","tel":"031-437-1583","addr":"경기도 안산시 상록구 건건동 645-1번지","category":"도매 및 소매업 - 농약,농업용자재"},{"name":"삼천정육점","tel":"031-437-1139","addr":"경기도 안산시 상록구 건건동 645-1번지","category":"도매 및 소매업 - 육류소매업"}]},{"lat":"37.305485629","long":"126.90274162","items":[{"name":"돈시랑","tel":"","addr":"경기도 안산시 상록구 건건동 644-14번지 1층 전부호","category":"일반휴게음식 - 일반한식"}]},{"lat":"37.314372879","long":"126.90656535","items":[{"name":"동명문고","tel":"031-443-3500","addr":"경기도 안산시 상록구 건건동 325-5번지","category":"서적문구 - 일반서적"}]},{"lat":"37.3111991751","long":"126.9040087360","items":[{"name":"동서","tel":"","addr":"경기도 안산시 상록구 건건동 536-40번지","category":"도매 및 소매업 - 가구,인테리어,통"},{"name":"반월카페","tel":"031-415-9856","addr":"경기도 안산시 상록구 건건동 536-40번지","category":"숙박 및 음식점업 - 카페"},{"name":"뽕잎사랑","tel":"031-500-7830","addr":"경기도 안산시 상록구 건건동 536-40번지","category":"숙박 및 음식점업 - 일반음식"},{"name":"신통치킨","tel":"031-501-7717","addr":"경기도 안산시 상록구 건건동 536-40번지","category":"숙박 및 음식점업 - 치킨"},{"name":"얼큰이찌개마을","tel":"031-415-5700","addr":"경기도 안산시 상록구 건건동 536-40번지","category":"숙박 및 음식점업 - 일반음식"},{"name":"진천뚝배기(순수시대)","tel":"031-437-5056","addr":"경기도 안산시 상록구 건건동 536-40번지","category":"숙박 및 음식점업 - 일반음식"},{"name":"카페미카엘","tel":"031-520-5051","addr":"경기도 안산시 상록구 건건동 536-40번지","category":"숙박 및 음식점업 - 카페"}]},{"lat":"37.3113681596","long":"126.9125139987","items":[{"name":"동태마을","tel":"031-501-4587","addr":"경기도 안산시 상록구 건건동 434-28번지","category":"숙박 및 음식점업 - 한식"}]},{"lat":"37.31136816","long":"126.912514","items":[{"name":"동태마을","tel":"031-501-4587","addr":"경기도 안산시 상록구 건건동 434-28번지 1층","category":"일반휴게음식 - 일반한식"}]},{"lat":"37.3034575625","long":"126.9018419673","items":[{"name":"동호카센타","tel":"031-437-5959","addr":"경기도 안산시 상록구 건건동 926-1번지","category":"협회 및 단체, 수리 및 기타 개인서"}]},{"lat":"37.304592975","long":"126.90198708","items":[{"name":"드림안경마트","tel":"031-438-1058","addr":"경기도 안산시 상록구 건건동 649-13","category":"보건위생 - 안경"}]},{"lat":"37.306477361","long":"126.90346221","items":[{"name":"드림푸드","tel":"031-437-5557","addr":"경기도 안산시 상록구 건건동 642-1번지 2층","category":"일반휴게음식 - 일반한식"},{"name":"사이공식당","tel":"031-410-2400","addr":"경기도 안산시 상록구 건건동 642-1번지 2층","category":"일반휴게음식 - 서양음식"},{"name":"옥주순대국","tel":"031-402-2050","addr":"경기도 안산시 상록구 건건동 642-1번지 1층 일부","category":"일반휴게음식 - 일반한식"}]},{"lat":"37.311587149","long":"126.90465122","items":[{"name":"디딤손제화","tel":"031-502-8545","addr":"경기도 안산시 상록구 건건동 536-3번지 지하층","category":"신변잡화 - 제화"},{"name":"반월손만두","tel":"031-437-6422","addr":"경기도 안산시 상록구 건건동 536-3번지 101호","category":"일반휴게음식 - 일반한식"},{"name":"우림관화로구이반월점","tel":"031-502-5667","addr":"경기도 안산시 상록구 건건동 536-3번지 2층","category":"일반휴게음식 - 일반한식"},{"name":"우림관화로구이반월점","tel":"031-418-8809","addr":"경기도 안산시 상록구 건건동 536-3번지 2층","category":"일반휴게음식 - 일반한식"},{"name":"우림관화로구이반월점","tel":"031-418-8809","addr":"경기도 안산시 상록구 건건동 536-3번지 2층","category":"일반휴게음식 - 일반한식"}]},{"lat":"37.3115871495","long":"126.9046512173","items":[{"name":"디딤손제화","tel":"031-502-8545","addr":"경기도 안산시 상록구 건건동 536-3번지","category":"도매 및 소매업 - 구두,가방"},{"name":"우림관화로구이","tel":"031-502-5667","addr":"경기도 안산시 상록구 건건동 536-3번지","category":"숙박 및 음식점업 - 한식"},{"name":"쥬시빈(반월점)","tel":"070-4893-1044","addr":"경기도 안산시 상록구 건건동 536-3번지","category":"숙박 및 음식점업 - 일반음식점"}]},{"lat":"37.3067023126","long":"126.9031009617","items":[{"name":"땅스부대찌개","tel":"031-501-8599","addr":"경기도 안산시 상록구 건건동 625-6번지","category":"숙박 및 음식점업 - 부대찌게"},{"name":"마엑스포차 반월점","tel":"","addr":"경기도 안산시 상록구 건건동 625-6번지","category":"숙박 및 음식점업 - 기타음식"},{"name":"윤미라헤어샵","tel":"031-416-0507","addr":"경기도 안산시 상록구 건건동 625-6번지","category":"협회 및 단체, 수리 및 기타 개인서"}]},{"lat":"37.306702313","long":"126.90310096","items":[{"name":"땅스부대찌개 반월점","tel":"031-501-8599","addr":"경기도 안산시 상록구 건건동 625-6번지 세정카센타 2호","category":"음료식품 - 기타음료식품"},{"name":"마엑스포차 반월점","tel":"031-502-0044","addr":"경기도 안산시 상록구 건건동 625-6번지 103,104호","category":"일반휴게음식 - 일반한식"},{"name":"수성떡방앗간","tel":"031-437-1046","addr":"경기도 안산시 상록구 건건동 625-6번지","category":"음료식품 - 제과점"},{"name":"태훈이불할인백화점","tel":"031-501-6119","addr":"경기도 안산시 상록구 건건동 625-6번지","category":"직물 - 침구·수예점"}]},{"lat":"37.3063149399","long":"126.9031804317","items":[{"name":"땅콩볶는집","tel":"031-437-5885","addr":"경기도 안산시 상록구 건건동 642-11번지","category":"도매 및 소매업 - 농수산물"},{"name":"땅콩볶는집","tel":"031-437-5885","addr":"경기도 안산시 상록구 건건동 642-11번지","category":"도매 및 소매업 - 농수산물"},{"name":"정동전기조명","tel":"031-501-3615","addr":"경기도 안산시 상록구 건건동 642-11번지","category":"도매 및 소매업 - 조명기구"}]},{"lat":"37.311425516","long":"126.90531698","items":[{"name":"떡볶기바삭","tel":"031-438-6500","addr":"경기도 안산시 상록구 건건동 532-4번지 102호","category":"일반휴게음식 - 일반한식"},{"name":"세븐일레븐안산반월역점","tel":"","addr":"경기도 안산시 상록구 건건동 532-4번지 1층","category":"유통업 영리 - 편 의 점"},{"name":"소담","tel":"031-438-8500","addr":"경기도 안산시 상록구 건건동 532-4번지 1층 103호","category":"음료식품 - 기타음료식품"}]},{"lat":"37.3114255164","long":"126.9053169765","items":[{"name":"떡볶이 바삭","tel":"031-438-6500","addr":"경기도 안산시 상록구 건건동 532-4번지","category":"숙박 및 음식점업 - 일반음식"},{"name":"소담","tel":"031-438-8500","addr":"경기도 안산시 상록구 건건동 532-4번지","category":"도매 및 소매업 - 반찬"}]},{"lat":"37.307504431","long":"126.90334806","items":[{"name":"또와유청정명태간장조림","tel":"031-406-9254","addr":"경기도 안산시 상록구 건건동 572-10번지 1층","category":"일반휴게음식 - 일반한식"}]},{"lat":"37.30095656","long":"126.90644712","items":[{"name":"똘똘이시골밥상","tel":"031-501-6224","addr":"경기도 안산시 상록구 건건동 883-3번지 은성빌라 B동 102호","category":"일반휴게음식 - 일반한식"}]},{"lat":"37.305395831","long":"126.90310269","items":[{"name":"라온헤어","tel":"031-502-6176","addr":"경기도 안산시 상록구 건건동 660-30번지 1층","category":"보건위생 - 미용원"},{"name":"큐사랑 코리아","tel":"031-437-6903","addr":"경기도 안산시 상록구 건건동 660-30번지","category":"보건위생 - 화장품"},{"name":"펨스텍","tel":"031-438-2553","addr":"경기도 안산시 상록구 건건동 660-30번지 1층","category":"전기제품 - 기타전기제품"}]},{"lat":"37.3117854490","long":"126.9047412036","items":[{"name":"라이또PC건건동점","tel":"","addr":"경기도 안산시 상록구 건건동 535-1번지","category":"협회 및 단체, 수리 및 기타 개인서"},{"name":"맘스터치 (반월점)","tel":"031-483-7799","addr":"경기도 안산시 상록구 건건동 535-1번지","category":"숙박 및 음식점업 - 햄버거, 치킨"},{"name":"미소피부앤마사지","tel":"031-502-2755","addr":"경기도 안산시 상록구 건건동 535-1번지","category":"협회 및 단체, 수리 및 기타 개인서"},{"name":"본죽앤비빔밥","tel":"031-437-2131","addr":"경기도 안산시 상록구 건건동 535-1번지","category":"숙박 및 음식점업 - 음식"},{"name":"슈퍼코인노래연습장","tel":"","addr":"경기도 안산시 상록구 건건동 535-1번지","category":"협회 및 단체, 수리 및 기타 개인서"}]},{"lat":"37.310478753","long":"126.90448345","items":[{"name":"러브레터","tel":"031-520-6605","addr":"경기도 안산시 상록구 건건동 536-14번지","category":"일반휴게음식 - 스넥"},{"name":"바리스타강","tel":"031-437-5459","addr":"경기도 안산시 상록구 건건동 536-14번지 102호","category":"일반휴게음식 - 서양음식"},{"name":"바리스타강 커피 팩토리","tel":"031-437-5459","addr":"경기도 안산시 상록구 건건동 536-14번지 1층 102호","category":"음료식품 - 기타음료식품"}]},{"lat":"37.302124501","long":"126.90237387","items":[{"name":"레오니","tel":"","addr":"경기도 안산시 상록구 건건동 897-37번지 산호빌라 E동 3층 2호","category":"건축자재 - 조명기구"}]},{"lat":"37.303837557","long":"126.90369127","items":[{"name":"마이다스","tel":"031-437-1851","addr":"경기도 안산시 상록구 건건동 920-18번지 상일빌라 1동 303호","category":"회원제형태 - 기타4"}]},{"lat":"37.3063145207","long":"126.9026841242","items":[{"name":"만물종합철물","tel":"031-437-0951","addr":"경기도 안산시 상록구 건건동 643-3번지","category":"도매 및 소매업 - 철물"}]},{"lat":"37.305540014","long":"126.90312506","items":[{"name":"맛집공방","tel":"031-505-0551","addr":"경기도 안산시 상록구 건건동 660-9번지 1층 102호","category":"일반휴게음식 - 일식·회집"},{"name":"망고꽃집","tel":"","addr":"경기도 안산시 상록구 건건동 660-9번지","category":"문화.취미 - 화원"}]},{"lat":"37.3055400138","long":"126.9031250568","items":[{"name":"맛집공방","tel":"031-505-0551","addr":"경기도 안산시 상록구 건건동 660-9번지","category":"숙박 및 음식점업 - 퓨전일식"}]},{"lat":"37.306423157","long":"126.90329309","items":[{"name":"면앤반","tel":"031-409-9090","addr":"경기도 안산시 상록구 건건동 642-10번지 1층","category":"일반휴게음식 - 중국식"},{"name":"베스트학원","tel":"031-502-0982","addr":"경기도 안산시 상록구 건건동 642-10번지 3층","category":"학원 - 보습학원"}]},{"lat":"37.3047011651","long":"126.9020658931","items":[{"name":"명동신발","tel":"031-437-3977","addr":"경기도 안산시 상록구 건건동 649-12번지","category":"도매 및 소매업 - 신발"}]},{"lat":"37.299788238","long":"126.89934299","items":[{"name":"모두 문","tel":"031-415-8084","addr":"경기도 안산시 상록구 건건동 951번지 라동","category":"건축자재 - 기타건축자재"}]},{"lat":"37.3086488415","long":"126.9034819121","items":[{"name":"모박사부대찌개","tel":"031-437-1221","addr":"경기도 안산시 상록구 건건동 569-2번지","category":"숙박 및 음식점업 - 한식"}]},{"lat":"37.308648842","long":"126.90348191","items":[{"name":"모박사부대찌개안산건건","tel":"031-437-1221","addr":"경기도 안산시 상록구 건건동 569-2번지 1층","category":"일반휴게음식 - 일반한식"}]},{"lat":"37.307315235","long":"126.90337087","items":[{"name":"뮤지션브릿지","tel":"070-7659-3821","addr":"경기도 안산시 상록구 건건동 624-1번지 지하1층","category":"레져용품 - 악기점"},{"name":"숯불바베큐","tel":"031-502-5600","addr":"경기도 안산시 상록구 건건동 624-1번지","category":"일반휴게음식 - 일반한식"},{"name":"써니점핑다이어트","tel":"","addr":"경기도 안산시 상록구 건건동 624-1번지 2층","category":"레져용품 - 스포츠·레져용품"},{"name":"화성지물포","tel":"031-438-8538","addr":"경기도 안산시 상록구 건건동 624-1번지","category":"직물 - 카페트,커튼,천막,지물"}]},{"lat":"37.301315793","long":"126.90501423","items":[{"name":"미광수출포장공업사","tel":"031-437-7067","addr":"경기도 안산시 상록구 건건동 891번지","category":"기타 - 기타 전문점"}]},{"lat":"37.305034764","long":"126.90232488","items":[{"name":"미소커피호프","tel":"031-437-1006","addr":"경기도 안산시 상록구 건건동 646-5번지","category":"일반휴게음식 - 일반한식"},{"name":"반월감자탕","tel":"031-438-1013","addr":"경기도 안산시 상록구 건건동 646-5번지 104호","category":"일반휴게음식 - 일반한식"},{"name":"반월흑염소","tel":"031-502-6322","addr":"경기도 안산시 상록구 건건동 646-5번지 1층","category":"건강식품 - 기타건강식품"},{"name":"스마일","tel":"070-7569-5070","addr":"경기도 안산시 상록구 건건동 646-5번지 1층","category":"사무통신 - 통신기기"},{"name":"오구쌀피자","tel":"031-437-5992","addr":"경기도 안산시 상록구 건건동 646-5번지 1층","category":"일반휴게음식 - 서양음식"},{"name":"오구쌀피자","tel":"031-437-5992","addr":"경기도 안산시 상록구 건건동 646-5번지","category":"일반휴게음식 - 서양음식"}]},{"lat":"37.3057304834","long":"126.9046249973","items":[{"name":"민성중기","tel":"031-437-2829","addr":"경기도 안산시 상록구 건건동 665번지 서해아파트","category":"협회 및 단체, 수리 및 기타 개인서"},{"name":"유성기업","tel":"","addr":"경기도 안산시 상록구 건건동 665번지","category":"건설업 - 하자보수"}]},{"lat":"37.3104787533","long":"126.9044834541","items":[{"name":"바리스타강","tel":"031-437-5459","addr":"경기도 안산시 상록구 건건동 536-14번지","category":"숙박 및 음식점업 - 커피,음료"}]},{"lat":"37.3114258134","long":"126.9056779519","items":[{"name":"바바헤어","tel":"031-437-5511","addr":"경기도 안산시 상록구 건건동 521번지","category":"협회 및 단체, 수리 및 기타 개인서"},{"name":"커피에반하다","tel":"","addr":"경기도 안산시 상록구 건건동 521번지","category":"숙박 및 음식점업 - 카페"}]},{"lat":"37.305179014","long":"126.9024262","items":[{"name":"박헤어컬쳐","tel":"031-501-2377","addr":"경기도 안산시 상록구 건건동 645-12번지","category":"보건위생 - 미용원"},{"name":"송이카페","tel":"031-437-6101","addr":"경기도 안산시 상록구 건건동 645-12번지 2층","category":"일반휴게음식 - 주점"},{"name":"아이러브 아이스크림 할인점","tel":"031-407-7802","addr":"경기도 안산시 상록구 건건동 645-12번지 1층","category":"의류 - 정장"}]},{"lat":"37.3108440435","long":"126.9105405552","items":[{"name":"반월가든","tel":"031-502-3450","addr":"경기도 안산시 상록구 건건동 448-7번지","category":"숙박 및 음식점업 - 한식"}]},{"lat":"37.31389498","long":"126.90612601","items":[{"name":"반월그린농원","tel":"031-502-5757","addr":"경기도 안산시 상록구 건건동 340-1","category":"문화.취미 - 화원"}]},{"lat":"37.3046465834","long":"126.9014568742","items":[{"name":"반월농민마트","tel":"031-418-4188","addr":"경기도 안산시 상록구 건건동 636-6번지","category":"도매 및 소매업 - 슈퍼마켓"},{"name":"반월농업협동조합","tel":"031-437-0017","addr":"경기도 안산시 상록구 건건동 636-6번지","category":"금융 및 보험업 - 농협"}]},{"lat":"37.304646583","long":"126.90145687","items":[{"name":"반월농민마트","tel":"031-418-4188","addr":"경기도 안산시 상록구 건건동 636-6번지 지층","category":"유통업 영리 - 슈퍼마켓"},{"name":"반월농업협동조합","tel":"031-419-0972","addr":"경기도 안산시 상록구 건건동 636-6번지","category":"유통업 비영리 - 농,축협 직영매장"},{"name":"반월농업협동조합","tel":"031-437-5237","addr":"경기도 안산시 상록구 건건동 636-6번지","category":"유통업 비영리 - 농,축협 직영매장"},{"name":"반월농업협동조합","tel":"031-437-5237","addr":"경기도 안산시 상록구 건건동 636-6번지","category":"유통업 비영리 - 농,축협 직영매장"},{"name":"헌경수산","tel":"070-5667-6418","addr":"경기도 안산시 상록구 건건동 636-6번지 지하층1층 반월농협하나로마트","category":"음료식품 - 농·축·수산품"}]},{"lat":"37.3062070071","long":"126.9034061684","items":[{"name":"반월농민마트 서해점","tel":"","addr":"경기도 안산시 상록구 건건동 644-13번지","category":"도매 및 소매업 - 슈퍼마켓,카페"}]},{"lat":"37.306314702","long":"126.90289844","items":[{"name":"반월떡방앗간","tel":"031-438-1508","addr":"경기도 안산시 상록구 건건동 642-12번지 1층 상가","category":"음료식품 - 제과점"},{"name":"반월상사","tel":"031-437-6689","addr":"경기도 안산시 상록구 건건동 642-12번지 1층","category":"건축자재 - 페인트"}]},{"lat":"37.304312653","long":"126.9008144","items":[{"name":"반월본가","tel":"00-0000-0000","addr":"경기도 안산시 상록구 건건동 632-2번지","category":"일반휴게음식 - 일반한식"},{"name":"신상아카페","tel":"031-437-0150","addr":"경기도 안산시 상록구 건건동 632-2번지 2층","category":"일반휴게음식 - 주점"},{"name":"하나여행사","tel":"031-437-1882","addr":"경기도 안산시 상록구 건건동 632-2번지 신협 1층","category":"여행 - 관광여행"}]},{"lat":"37.3063147020","long":"126.9028984388","items":[{"name":"반월상사","tel":"031-437-6689","addr":"경기도 안산시 상록구 건건동 642-12번지","category":"도매 및 소매업 - 페인트,도장공사,"}]},{"lat":"37.3031244248","long":"126.9021243943","items":[{"name":"반월스크린골프클럽","tel":"031-502-8245","addr":"경기도 안산시 상록구 건건동 904번지","category":"협회 및 단체, 수리 및 기타 개인서"},{"name":"소나무한의원","tel":"031-501-8275","addr":"경기도 안산시 상록구 건건동 904번지","category":"보건업 및 사회복지서비스업 - 한의원"},{"name":"포청천","tel":"031-405-2150","addr":"경기도 안산시 상록구 건건동 904번지","category":"숙박 및 음식점업 - 중식"}]},{"lat":"37.309090861","long":"126.90410174","items":[{"name":"반월아이숲어린이집[아이행복]","tel":"031-502-3225","addr":"경기도 안산시 상록구 건건동 577-1번지","category":"학원 - 유아원"}]},{"lat":"37.3049804145","long":"126.9019865636","items":[{"name":"반월옷수선세탁","tel":"","addr":"경기도 안산시 상록구 건건동 646-3번지","category":"협회 및 단체, 수리 및 기타 개인서"},{"name":"비달헤어","tel":"031-501-7620","addr":"경기도 안산시 상록구 건건동 646-3번지","category":"협회 및 단체, 수리 및 기타 개인서"},{"name":"원조김밥","tel":"031-437-6976","addr":"경기도 안산시 상록구 건건동 646-3번지","category":"숙박 및 음식점업 - 분식"}]},{"lat":"37.304565084","long":"126.90098325","items":[{"name":"반월왕족발","tel":"031-437-9926","addr":"경기도 안산시 상록구 건건동 632-9번지 삼화연립","category":"일반휴게음식 - 일반한식"},{"name":"삼성전자 반월충무대리점","tel":"031-502-0141","addr":"경기도 안산시 상록구 건건동 632-9번지 삼화연립 1층 1호","category":"전기제품 - 가전제품"},{"name":"신전떡볶이 반월점","tel":"031-408-5088","addr":"경기도 안산시 상록구 건건동 632-9번지 삼화연립 1층 7호","category":"일반휴게음식 - 일반한식"},{"name":"아이스크림 할인점","tel":"031-437-7175","addr":"경기도 안산시 상록구 건건동 632-9번지 삼화연립 1층 5호","category":"음료식품 - 기타음료식품"}]},{"lat":"37.302955214","long":"126.90448198","items":[{"name":"반월점 현대자동차","tel":"031-501-0093","addr":"경기도 안산시 상록구 건건동 895-7번지","category":"자동차정비 유지 - 자동차정비"}]},{"lat":"37.3029552141","long":"126.9044819782","items":[{"name":"반월점 현대자동차블루핸스","tel":"031-501-0093","addr":"경기도 안산시 상록구 건건동 895-7번지","category":"협회 및 단체, 수리 및 기타 개인서"}]},{"lat":"37.302871734","long":"126.901651","items":[{"name":"반월제일의원","tel":"031-438-8001","addr":"경기도 안산시 상록구 건건동 902-1번지 한일프라자 제 1층 105호","category":"의원 - 의원"},{"name":"본가","tel":"031-438-3357","addr":"경기도 안산시 상록구 건건동 902-1번지 한일프라자 102호","category":"일반휴게음식 - 일반한식"},{"name":"신통큰포차","tel":"031-500-8792","addr":"경기도 안산시 상록구 건건동 902-1번지 한일프라자 1층","category":"일반휴게음식 - 일반한식"},{"name":"카스톡스","tel":"031-502-0013","addr":"경기도 안산시 상록구 건건동 902-1번지 한일프라자 101호","category":"일반휴게음식 - 주점"},{"name":"통큰포차","tel":"031-437-2847","addr":"경기도 안산시 상록구 건건동 902-1번지 한일프라자 103호","category":"일반휴게음식 - 일반한식"},{"name":"하늘약국","tel":"031-502-1090","addr":"경기도 안산시 상록구 건건동 902-1번지 한일프라자 104호","category":"약국 - 약국"},{"name":"홀인원노래연습장","tel":"031-438-6884","addr":"경기도 안산시 상록구 건건동 902-1번지 한일프라자 202호","category":"레저업소 - 노 래 방"}]},{"lat":"37.305286309","long":"126.90145601","items":[{"name":"반월초등학교","tel":"","addr":"경기도 안산시 상록구 건건동 629번지 반월초등학교","category":"학원 - 초중고교육기관"}]},{"lat":"37.305702264","long":"126.9032038","items":[{"name":"반월칼국수","tel":"031-502-4678","addr":"경기도 안산시 상록구 건건동 666-3번지","category":"일반휴게음식 - 일반한식"},{"name":"예음음악학원","tel":"031-437-5235","addr":"경기도 안산시 상록구 건건동 666-3번지 상가 2층 201호","category":"학원 - 예·체능계학원"}]},{"lat":"37.3057022642","long":"126.9032037999","items":[{"name":"반월칼국수","tel":"031-502-4678","addr":"경기도 안산시 상록구 건건동 666-3번지","category":"숙박 및 음식점업 - 한식"},{"name":"예음음악학원","tel":"031-437-5235","addr":"경기도 안산시 상록구 건건동 666-3번지","category":"협회 및 단체, 수리 및 기타 개인서"}]},{"lat":"37.305701874","long":"126.90274134","items":[{"name":"반월트라이","tel":"031-437-8302","addr":"경기도 안산시 상록구 건건동 644-4번지","category":"의류 - 내의판매"}]},{"lat":"37.31411604","long":"126.91220613","items":[{"name":"반월파크","tel":"031-438-8300","addr":"경기도 안산시 상록구 건건동 389","category":"보건위생 - 기타대인서비스"}]},{"lat":"37.306839365","long":"126.9053793","items":[{"name":"반월푸른유치원","tel":"031-437-6565","addr":"경기도 안산시 상록구 건건동 705번지","category":"학원 - 유치원"}]},{"lat":"37.303033967","long":"126.90170718","items":[{"name":"반월호프","tel":"031-111-1111","addr":"경기도 안산시 상록구 건건동 904-2번지 지하 101호","category":"일반휴게음식 - 주점"},{"name":"신성한의원","tel":"031-507-3433","addr":"경기도 안산시 상록구 건건동 904-2번지 1층","category":"의원 - 한의원"}]},{"lat":"37.3042863870","long":"126.9017055053","items":[{"name":"베스킨라빈스31(안산반월점)","tel":"031-409-0310","addr":"경기도 안산시 상록구 건건동 635-7번지","category":"숙박 및 음식점업 - 휴게음식"}]},{"lat":"37.3064231575","long":"126.9032930862","items":[{"name":"베스트학원","tel":"031-502-0982","addr":"경기도 안산시 상록구 건건동 642-10번지","category":"교육서비스업 - 교습학원 보습"}]},{"lat":"37.30128479","long":"126.90032221","items":[{"name":"베이티브","tel":"070-8225-1042","addr":"경기도 안산시 상록구 건건동 940-18번지","category":"자동차정비 유지 - 카인테리어"}]},{"lat":"37.306763021","long":"126.91132385","items":[{"name":"벧엘인터네쇼날","tel":"031-437-9575","addr":"경기도 안산시 상록구 건건동 749-1번지","category":"문화.취미 - 화원"}]},{"lat":"37.3053412453","long":"126.9024823832","items":[{"name":"보라미용실","tel":"031-437-9525","addr":"경기도 안산시 상록구 건건동 645-7번지","category":"협회 및 단체, 수리 및 기타 개인서"},{"name":"회춘당한약방","tel":"031-438-0126","addr":"경기도 안산시 상록구 건건동 645-7번지","category":"도매 및 소매업 - 건강식품"}]},{"lat":"37.305081071","long":"126.90381372","items":[{"name":"보리핸드","tel":"","addr":"경기도 안산시 상록구 건건동 658-9번지 한영빌라 2동 B02호","category":"신변잡화 - 액세서리"}]},{"lat":"37.3115874766","long":"126.9050460349","items":[{"name":"봄온누리약국","tel":"031-438-6282","addr":"경기도 안산시 상록구 건건동 532번지","category":"도매 및 소매업 - 양약"}]},{"lat":"37.309955766","long":"126.90401036","items":[{"name":"불향기막창","tel":"031-437-7080","addr":"경기도 안산시 상록구 건건동 549-1번지 편백나무하우스 1층","category":"일반휴게음식 - 일반한식"}]},{"lat":"37.3070363442","long":"126.9038788290","items":[{"name":"붐비어","tel":"031-501-3456","addr":"경기도 안산시 상록구 건건동 622번지","category":"숙박 및 음식점업 - 간이주점"}]},{"lat":"37.307036344","long":"126.90387883","items":[{"name":"붐비어","tel":"031-501-3456","addr":"경기도 안산시 상록구 건건동 622번지 1층 101호","category":"일반휴게음식 - 주점"}]},{"lat":"37.305233123","long":"126.90248253","items":[{"name":"뷰","tel":"031-502-2724","addr":"경기도 안산시 상록구 건건동 645-11번지 1층","category":"보건위생 - 화장품"}]},{"lat":"37.304980415","long":"126.90198656","items":[{"name":"비달헤어","tel":"031-501-7620","addr":"경기도 안산시 상록구 건건동 646-3번지 1층","category":"보건위생 - 미용원"},{"name":"아이드음악학원","tel":"031-438-1525","addr":"경기도 안산시 상록구 건건동 646-3번지 2층","category":"학원 - 예·체능계학원"},{"name":"양지다방","tel":"031-502-0012","addr":"경기도 안산시 상록구 건건동 646-3번지 지층","category":"일반휴게음식 - 서양음식"},{"name":"투마이스텔레콤(주)반월점","tel":"031-393-4011","addr":"경기도 안산시 상록구 건건동 646-3번지1층1호,2호","category":"사무통신 - 통신기기"}]},{"lat":"37.3122272013","long":"126.9050452059","items":[{"name":"비에이치씨(BHC)","tel":"031-438-7555","addr":"경기도 안산시 상록구 건건동 534-5번지","category":"숙박 및 음식점업 - 치킨"},{"name":"파도수산","tel":"031-407-6539","addr":"경기도 안산시 상록구 건건동 534-5번지","category":"숙박 및 음식점업 - 횟집"}]},{"lat":"37.3118674340","long":"126.9058240305","items":[{"name":"사랑채","tel":"031-437-0088","addr":"경기도 안산시 상록구 건건동 357-3번지","category":"숙박 및 음식점업 - 한식"}]},{"lat":"37.311867434","long":"126.90582403","items":[{"name":"사랑채","tel":"031-437-0088","addr":"경기도 안산시 상록구 건건동 357-3번지","category":"일반휴게음식 - 일반한식"}]},{"lat":"37.300956321","long":"126.90615386","items":[{"name":"삼성지피테크(주)","tel":"031-437-7401","addr":"경기도 안산시 상록구 건건동 887-7번지","category":"건축자재 - 페인트"}]},{"lat":"37.314259915","long":"126.90078967","items":[{"name":"삼원시스템","tel":"031-485-8670","addr":"경기도 안산시 상록구 건건동 245-7번지","category":"기타 - 기계공구"}]},{"lat":"37.305120105","long":"126.90745696","items":[{"name":"삼형제가든","tel":"031-438-3335","addr":"경기도 안산시 상록구 건건동 839-1번지","category":"일반휴게음식 - 일반한식"},{"name":"한우의 향기","tel":"031-437-8948","addr":"경기도 안산시 상록구 건건동 839-1번지","category":"음료식품 - 정육점"},{"name":"한우의향기","tel":"031-437-8948","addr":"경기도 안산시 상록구 건건동 839-1번지 1층","category":"일반휴게음식 - 일반한식"}]},{"lat":"37.301177028","long":"126.90073968","items":[{"name":"상록종합카센타","tel":"031-437-4389","addr":"경기도 안산시 상록구 건건동 940-29번지","category":"자동차정비 유지 - 자동차정비"}]},{"lat":"37.307143793","long":"126.91440279","items":[{"name":"상부농원","tel":"031-501-5577","addr":"경기도 안산시 상록구 건건동 806-1 805-2","category":"문화.취미 - 화원"}]},{"lat":"37.303727134","long":"126.90098438","items":[{"name":"샤론화원","tel":"031-502-4963","addr":"경기도 안산시 상록구 건건동 928-3번지","category":"문화.취미 - 화원"}]},{"lat":"37.3037271341","long":"126.9009843767","items":[{"name":"샤론화원","tel":"031-502-4963","addr":"경기도 안산시 상록구 건건동 928-3번지","category":"도매 및 소매업 - 생화,관업"},{"name":"소망꽃화원","tel":"031-437-1533","addr":"경기도 안산시 상록구 건건동 928-3번지","category":"도매 및 소매업 - 생화"}]},{"lat":"37.305730483","long":"126.904625","items":[{"name":"서해세탁소","tel":"031-437-9291","addr":"경기도 안산시 상록구 건건동 665번지 202,203호","category":"수리서비스 - 세탁소"}]},{"lat":"37.308090237","long":"126.90351649","items":[{"name":"세븐일레븐안산영무예다음점","tel":"031-1577-0711","addr":"경기도 안산시 상록구 건건동 572-12번지 평안파크빌 A동 101호","category":"유통업 영리 - 편 의 점"}]},{"lat":"37.305287518","long":"126.90287724","items":[{"name":"세움어린이집[아이행복]","tel":"031-438-1148","addr":"경기도 안산시 상록구 건건동 647-1번지","category":"학원 - 유아원"}]},{"lat":"37.314482412","long":"126.90831376","items":[{"name":"세원시스템","tel":"031-406-6804","addr":"경기도 안산시 상록구 건건동 338-3번지","category":"전기제품 - 가전제품"}]},{"lat":"37.303591913","long":"126.9009056","items":[{"name":"소망꽃화원조경","tel":"031-437-1533","addr":"경기도 안산시 상록구 건건동 928-6","category":"문화.취미 - 화원"}]},{"lat":"37.303393562","long":"126.90075924","items":[{"name":"소망화원조경","tel":"031-437-1533","addr":"경기도 안산시 상록구 건건동 927-5","category":"문화.취미 - 화원"}]},{"lat":"37.315288133","long":"126.90201791","items":[{"name":"소피아다육","tel":"","addr":"경기도 안산시 상록구 건건동 159-1번지","category":"문화.취미 - 화원"}]},{"lat":"37.312129467","long":"126.90672614","items":[{"name":"솔지어린이집[아이행복]","tel":"031-599-3393","addr":"경기도 안산시 상록구 건건동 987번지 건건e-편한세상 116동 101호","category":"학원 - 유아원"},{"name":"시온어린이집[아이행복]","tel":"031-437-4633","addr":"경기도 안산시 상록구 건건동 987번지 건건e-편한세상 116동 103호","category":"학원 - 유아원"}]},{"lat":"37.312675087","long":"126.91309903","items":[{"name":"송학 영농조합법인","tel":"031-501-9697","addr":"경기도 안산시 상록구 건건동 428번지 101호","category":"건축자재 - 기타건축자재"},{"name":"주식회사 타이어친구","tel":"031-417-7797","addr":"경기도 안산시 상록구 건건동 428번지 104호","category":"자동차정비 유지 - 자동차시트·타이어"}]},{"lat":"37.306513515","long":"126.91499008","items":[{"name":"수다육","tel":"031-437-8997","addr":"경기도 안산시 상록구 건건동 811-1번지","category":"문화.취미 - 화원"},{"name":"옹기나무 다육농장","tel":"031-501-9487","addr":"경기도 안산시 상록구 건건동 811-1번지","category":"문화.취미 - 화원"}]},{"lat":"37.3064773610","long":"126.9034622110","items":[{"name":"수성떡방앗간","tel":"031-437-1046","addr":"경기도 안산시 상록구 건건동 642-1번지","category":"제조업 - 떡류"},{"name":"옥주순대국","tel":"031-402-2050","addr":"경기도 안산시 상록구 건건동 642-1번지","category":"숙박 및 음식점업 - 한식"}]},{"lat":"37.318760902","long":"126.90662744","items":[{"name":"수팩 컴퍼니","tel":"031-431-6982","addr":"경기도 안산시 상록구 건건동 37번지","category":"유통업 영리 - 기타유통업"}]},{"lat":"37.3050347639","long":"126.9023248771","items":[{"name":"스마일","tel":"070-7569-5070","addr":"경기도 안산시 상록구 건건동 646-5번지","category":"도매 및 소매업 - 휴대폰"},{"name":"오구쌀피자","tel":"031-437-5992","addr":"경기도 안산시 상록구 건건동 646-5번지","category":"숙박 및 음식점업 - 휴게음식"}]},{"lat":"37.305562564","long":"126.90865204","items":[{"name":"스터디하우스","tel":"031-000-0000","addr":"경기도 안산시 상록구 건건동 834번지","category":"학원 - 기타 교육기관"},{"name":"아이별어린이집[아이행복]","tel":"031-438-9198","addr":"경기도 안산시 상록구 건건동 834번지","category":"학원 - 유아원"}]},{"lat":"37.314593487","long":"126.90101484","items":[{"name":"스튜디오밤비","tel":"031-502-7774","addr":"경기도 안산시 상록구 건건동 142-1번지 1층","category":"광학제품 - 사진관"}]},{"lat":"37.3028717344","long":"126.9016510044","items":[{"name":"신통큰포차","tel":"","addr":"경기도 안산시 상록구 건건동 902-1번지","category":"숙박 및 음식점업 - 기타음식"},{"name":"카스톡스","tel":"031-502-0013","addr":"경기도 안산시 상록구 건건동 902-1번지","category":"숙박 및 음식점업 - 호프"},{"name":"홀인원 노래방","tel":"031-438-6884","addr":"경기도 안산시 상록구 건건동 902-1번지","category":"협회 및 단체, 수리 및 기타 개인서"}]},{"lat":"37.3080090974","long":"126.9034601943","items":[{"name":"쌀눈쌀 현미누룽지","tel":"031-502-1998","addr":"경기도 안산시 상록구 건건동 572-12번지 평안파크빌","category":"도매 및 소매업 - 곡류가공품"}]},{"lat":"37.307009096","long":"126.90361943","items":[{"name":"씨유안산건건중앙점","tel":"031-438-9532","addr":"경기도 안산시 상록구 건건동 624-3번지 (1층,3,4,5호)","category":"유통업 영리 - 편 의 점"},{"name":"아름다운가위소리","tel":"031-437-9963","addr":"경기도 안산시 상록구 건건동 624-3번지 1층 2호","category":"보건위생 - 미용원"},{"name":"황소곱창","tel":"031-438-3322","addr":"경기도 안산시 상록구 건건동 624-3번지 1층","category":"일반휴게음식 - 일반한식"}]},{"lat":"37.312004054","long":"126.90762875","items":[{"name":"씽씽컴퍼니","tel":"031-000-0000","addr":"경기도 안산시 상록구 건건동 987번지 건건e-편한세상 118동 1002호","category":"레져용품 - 스포츠·레져용품"}]},{"lat":"37.308289768","long":"126.90508415","items":[{"name":"아우룸","tel":"","addr":"경기도 안산시 상록구 건건동 607-2번지 동일빌라 B동 401호","category":"가구 - 일반가구"}]},{"lat":"37.304258737","long":"126.90098366","items":[{"name":"아이비스","tel":"031-502-8423","addr":"경기도 안산시 상록구 건건동 632-23","category":"서적문구 - 문구용품"}]},{"lat":"37.3044566018","long":"126.9005660528","items":[{"name":"안산 K타이거즈","tel":"031-437-1937","addr":"경기도 안산시 상록구 건건동 632-4번지","category":"예술, 스포츠 및 여가관련 서비스업"},{"name":"장터식당","tel":"031-438-8555","addr":"경기도 안산시 상록구 건건동 632-4번지","category":"숙박 및 음식점업 - 일반음식"},{"name":"진도건강원","tel":"031-437-7784","addr":"경기도 안산시 상록구 건건동 632-4번지","category":"제조업 - 건강원"},{"name":"페리카나","tel":"031-502-1140","addr":"경기도 안산시 상록구 건건동 632-4번지","category":"숙박 및 음식점업 - 치킨"}]},{"lat":"37.303782993","long":"126.90309354","items":[{"name":"안산 키즈","tel":"031-501-5911","addr":"경기도 안산시 상록구 건건동 920-44번지 베스트뷰 D동 1층 101호","category":"음료식품 - 기타음료식품"}]},{"lat":"37.304456602","long":"126.90056605","items":[{"name":"안산K타이거즈","tel":"031-437-1937","addr":"경기도 안산시 상록구 건건동 632-4번지 2층 1호,2호","category":"학원 - 예·체능계학원"},{"name":"장터식당","tel":"031-314-4252","addr":"경기도 안산시 상록구 건건동 632-4번지 1층","category":"일반휴게음식 - 일반한식"},{"name":"진도건강원","tel":"031-437-7784","addr":"경기도 안산시 상록구 건건동 632-4번지","category":"건강식품 - 기타건강식품"},{"name":"페리카나(반월점)","tel":"031-502-4334","addr":"경기도 안산시 상록구 건건동 632-4번지 페리카나 1층","category":"일반휴게음식 - 주점"},{"name":"현주네정육백반식당","tel":"031-437-1257","addr":"경기도 안산시 상록구 건건동 632-4 1층1-2호","category":"일반휴게음식 - 일반한식"}]},{"lat":"37.3073432","long":"126.90448754","items":[{"name":"안산창촌초등학교","tel":"031-502-3900","addr":"경기도 안산시 상록구 건건동 619번지 안산창촌초등학교","category":"학원 - 초중고교육기관"}]},{"lat":"37.301593718","long":"126.90334457","items":[{"name":"안산채널","tel":"031-501-0906","addr":"경기도 안산시 상록구 건건동 893번지","category":"건축자재 - 조명기구"}]},{"lat":"37.303179914","long":"126.90381621","items":[{"name":"애니카랜드 반월점","tel":"031-502-0083","addr":"경기도 안산시 상록구 건건동 908-2번지","category":"자동차정비 유지 - 자동차정비"},{"name":"양반밥상","tel":"031-419-5574","addr":"경기도 안산시 상록구 건건동 908-2번지","category":"일반휴게음식 - 일반한식"}]},{"lat":"37.3031799144","long":"126.9038162091","items":[{"name":"애니카랜드 반월점","tel":"031-502-0083","addr":"경기도 안산시 상록구 건건동 908-2번지","category":"협회 및 단체, 수리 및 기타 개인서"}]},{"lat":"37.312454705","long":"126.8971823","items":[{"name":"앤(Anne)","tel":"031-438-4705","addr":"경기도 안산시 상록구 건건동 276번지","category":"일반휴게음식 - 일반한식"}]},{"lat":"37.313231813","long":"126.8997081","items":[{"name":"야채원","tel":"031-8002-6935","addr":"경기도 안산시 상록구 건건동 239 1층","category":"음료식품 - 농·축·수산품"}]},{"lat":"37.314622378","long":"126.91454068","items":[{"name":"양지수목원","tel":"031-502-5561","addr":"경기도 안산시 상록구 건건동 403-1번지","category":"문화.취미 - 화원"}]},{"lat":"37.302036424","long":"126.90478771","items":[{"name":"에스포자동차용품","tel":"031-437-3660","addr":"경기도 안산시 상록구 건건동 894-10번지 인정프린스아파트 인정상가 B동","category":"자동차정비 유지 - 자동차부품"},{"name":"자매식당","tel":"031-000-0000","addr":"경기도 안산시 상록구 건건동 894-10번지 인정프린스아파트 1층 7호,9호","category":"일반휴게음식 - 일반한식"}]},{"lat":"37.317119676","long":"126.9049599","items":[{"name":"에이스가설산업(주)","tel":"031-359-8536","addr":"경기도 안산시 상록구 건건동 82-1","category":"건축자재 - 기타건축자재"}]},{"lat":"37.313532696","long":"126.91528649","items":[{"name":"여주농산","tel":"031-0000-0000","addr":"경기도 안산시 상록구 건건동 405-2번지","category":"음료식품 - 농·축·수산품"}]},{"lat":"37.315789153","long":"126.89793347","items":[{"name":"연화원연난원","tel":"031-437-1062","addr":"경기도 안산시 상록구 건건동 산40-1번지","category":"문화.취미 - 화원"}]},{"lat":"37.311724337","long":"126.90713276","items":[{"name":"열린꿈어린이집[아이행복]","tel":"031-501-5010","addr":"경기도 안산시 상록구 건건동 987번지 건건e-편한세상 114동 102호","category":"학원 - 유아원"}]},{"lat":"37.3049022056","long":"126.9054269207","items":[{"name":"예일카센타","tel":"031-448-8988","addr":"경기도 안산시 상록구 건건동 680-1번지","category":"협회 및 단체, 수리 및 기타 개인서"}]},{"lat":"37.304902206","long":"126.90542692","items":[{"name":"예일카센터","tel":"031-448-8988","addr":"경기도 안산시 상록구 건건동 680-1번지 3 12/1","category":"자동차정비 유지 - 자동차정비"}]},{"lat":"37.309956815","long":"126.90527375","items":[{"name":"온누리기획","tel":"031-1600-8177","addr":"경기도 안산시 상록구 건건동 987번지 건건e-편한세상 104동 103호","category":"회원제형태 - 기타4"}]},{"lat":"37.308317105","long":"126.90545635","items":[{"name":"우리동네 청과","tel":"031-395-5800","addr":"경기도 안산시 상록구 건건동 595-2번지 301호","category":"회원제형태 - 기타1"}]},{"lat":"37.3012337725","long":"126.9038977146","items":[{"name":"우리한우촌","tel":"031-416-2111","addr":"경기도 안산시 상록구 건건동 892-5번지","category":"숙박 및 음식점업 - 한식"}]},{"lat":"37.301233772","long":"126.90389771","items":[{"name":"우리한우촌","tel":"031-416-2111","addr":"경기도 안산시 상록구 건건동 892-5번지","category":"일반휴게음식 - 일반한식"},{"name":"횡성한우장터","tel":"031-416-2111","addr":"경기도 안산시 상록구 건건동 892-5번지","category":"음료식품 - 정육점"}]},{"lat":"37.315091405","long":"126.9037893","items":[{"name":"우일상사","tel":"031-501-8682","addr":"경기도 안산시 상록구 건건동 181-8번지 1층","category":"신변잡화 - 기타잡화"}]},{"lat":"37.309171699","long":"126.90379707","items":[{"name":"원대감감자탕","tel":"031-438-4142","addr":"경기도 안산시 상록구 건건동 551-8번지 1층","category":"일반휴게음식 - 일반한식"}]},{"lat":"37.31170613","long":"126.89637115","items":[{"name":"원탑렌탈","tel":"","addr":"경기도 안산시 상록구 건건동 282-2번지 1층","category":"신변잡화 - 기타잡화"}]},{"lat":"37.306540034","long":"126.90298838","items":[{"name":"웰빙왕족발","tel":"031-438-4882","addr":"경기도 안산시 상록구 건건동 642-3번지","category":"일반휴게음식 - 일반한식"},{"name":"킴스헤어","tel":"031-473-4181","addr":"경기도 안산시 상록구 건건동 642-3번지 1층","category":"보건위생 - 미용원"}]},{"lat":"37.302259511","long":"126.9022045","items":[{"name":"웰빙플러스","tel":"","addr":"경기도 안산시 상록구 건건동 897-68번지 초원프라자 201호","category":"주방용구 - 주방용구"},{"name":"초원세탁","tel":"031-437-5597","addr":"경기도 안산시 상록구 건건동 897-68번지 초원프라자 203호","category":"수리서비스 - 세탁소"}]},{"lat":"37.306729609","long":"126.91478679","items":[{"name":"위드플라워","tel":"031-408-6874","addr":"경기도 안산시 상록구 건건동 810번지","category":"문화.취미 - 화원"}]},{"lat":"37.304845521","long":"126.90229129","items":[{"name":"유앤미헤어#","tel":"031-437-0003","addr":"경기도 안산시 상록구 건건동 649-6 외2필지1층","category":"보건위생 - 미용원"}]},{"lat":"37.304926565","long":"126.90223479","items":[{"name":"유앤미헤어#","tel":"031-437-0003","addr":"경기도 안산시 상록구 건건동 646-6번지 외2필지 1층","category":"보건위생 - 미용원"}]},{"lat":"37.303620675","long":"126.90293584","items":[{"name":"유앤아이미트","tel":"031-501-3188","addr":"경기도 안산시 상록구 건건동 920-36번지 1층","category":"음료식품 - 정육점"}]},{"lat":"37.307621535","long":"126.90331407","items":[{"name":"유진 인테리어","tel":"031-338-0948","addr":"경기도 안산시 상록구 건건동 572-9번지 1층","category":"건축자재 - 인테리어전문"}]},{"lat":"37.3042589020","long":"126.9011754094","items":[{"name":"이삭반월점","tel":"031-438-0950","addr":"경기도 안산시 상록구 건건동 632-17번지","category":"숙박 및 음식점업 - 일반음식점"}]},{"lat":"37.306872896","long":"126.90237883","items":[{"name":"일보스코(cafe il bosco)","tel":"031-438-5510","addr":"경기도 안산시 상록구 건건동 627번지 2층","category":"일반휴게음식 - 일반한식"}]},{"lat":"37.301063898","long":"126.90548827","items":[{"name":"작은마을오리파티","tel":"031-502-8366","addr":"경기도 안산시 상록구 건건동 889-4번지","category":"일반휴게음식 - 일반한식"}]},{"lat":"37.3103995616","long":"126.9067960266","items":[{"name":"장어가","tel":"","addr":"경기도 안산시 상록구 건건동 478번지","category":"숙박 및 음식점업 - 일반음식점"}]},{"lat":"37.310399562","long":"126.90679603","items":[{"name":"장어가","tel":"031-501-9259","addr":"경기도 안산시 상록구 건건동 478번지 2층","category":"일반휴게음식 - 일반한식"}]},{"lat":"37.30481704","long":"126.9005994","items":[{"name":"재일떡방앗간","tel":"031-437-1009","addr":"경기도 안산시 상록구 건건동 632-1번지","category":"음료식품 - 기타음료식품"}]},{"lat":"37.306449931","long":"126.9029885","items":[{"name":"제이 펫","tel":"070-4154-7676","addr":"경기도 안산시 상록구 건건동 642-13번지","category":"문화.취미 - 애완동물"},{"name":"하나애견","tel":"031-503-0311","addr":"경기도 안산시 상록구 건건동 642-13번지","category":"문화.취미 - 애완동물"}]},{"lat":"37.305422433","long":"126.90259507","items":[{"name":"제이네일#","tel":"031-438-2524","addr":"경기도 안산시 상록구 건건동 644-15번지 1층","category":"보건위생 - 피부미용실"}]},{"lat":"37.302953585","long":"126.90254195","items":[{"name":"제이케이 (JK) 푸드","tel":"031-487-8874","addr":"경기도 안산시 상록구 건건동 905번지","category":"음료식품 - 정육점"},{"name":"한샘빵집","tel":"031-407-0437","addr":"경기도 안산시 상록구 건건동 905번지 1층 일부","category":"음료식품 - 제과점"},{"name":"한샘세탁전문점","tel":"031-418-8939","addr":"경기도 안산시 상록구 건건동 905번지 1층","category":"수리서비스 - 세탁소"}]},{"lat":"37.3053958313","long":"126.9031026880","items":[{"name":"제일건강원","tel":"031-501-1340","addr":"경기도 안산시 상록구 건건동 660-30번지","category":"제조업 - 건강원"}]},{"lat":"37.300983167","long":"126.90592825","items":[{"name":"좋은열매어린이집[아이행복]","tel":"031-437-1011","addr":"경기도 안산시 상록구 건건동 887-4번지","category":"학원 - 유아원"}]},{"lat":"37.301230943","long":"126.90057042","items":[{"name":"주식회사 더존시스템","tel":"031-410-1107","addr":"경기도 안산시 상록구 건건동 940-28번지 2층","category":"건축자재 - 인테리어전문"},{"name":"주식회사에스엠에스","tel":"031-407-8558","addr":"경기도 안산시 상록구 건건동 940-28번지 2층","category":"건축자재 - 인테리어전문"},{"name":"하이카프라자(건건점)","tel":"031-501-1399","addr":"경기도 안산시 상록구 건건동 940-28번지","category":"자동차정비 유지 - 자동차정비"}]},{"lat":"37.3140873679","long":"126.8992331376","items":[{"name":"주식회사 포그린","tel":"031-411-0225","addr":"경기도 안산시 상록구 건건동 248-1번지","category":"건설업 - 전기공사"}]},{"lat":"37.30367424","long":"126.90234925","items":[{"name":"주식회사아이엔젤","tel":"031-413-4472","addr":"경기도 안산시 상록구 건건동 922-6번지","category":"의류 - 아동의류"}]},{"lat":"37.315316867","long":"126.91548748","items":[{"name":"주식회사한일푸드서비스","tel":"031-501-6493","addr":"경기도 안산시 상록구 건건동 402번지","category":"음료식품 - 기타음료식품"}]},{"lat":"37.3106498816","long":"126.9044042684","items":[{"name":"준미용실","tel":"031-438-1571","addr":"경기도 안산시 상록구 건건동 536-18번지","category":"협회 및 단체, 수리 및 기타 개인서"}]},{"lat":"37.310649882","long":"126.90440427","items":[{"name":"준미용실","tel":"031-438-1571","addr":"경기도 안산시 상록구 건건동 536-18번지 101호","category":"보건위생 - 미용원"}]},{"lat":"37.304592927","long":"126.90193068","items":[{"name":"중앙다방","tel":"031-438-0116","addr":"경기도 안산시 상록구 건건동 636-1,외3필지 지층","category":"일반휴게음식 - 서양음식"}]},{"lat":"37.3047270836","long":"126.9007687172","items":[{"name":"참새들의수다","tel":"","addr":"경기도 안산시 상록구 건건동 632-8번지","category":"숙박 및 음식점업 - 한식"}]},{"lat":"37.312427745","long":"126.8972613","items":[{"name":"초록지붕의앤","tel":"031-437-2030","addr":"경기도 안산시 상록구 건건동 276번지 ,1,2층","category":"일반휴게음식 - 일반한식"}]},{"lat":"37.3022595108","long":"126.9022045020","items":[{"name":"최고집찜칼국수","tel":"031-438-8979","addr":"경기도 안산시 상록구 건건동 897-68번지 초원프라자","category":"숙박 및 음식점업 - 한식"}]},{"lat":"37.3095321259","long":"126.9038191555","items":[{"name":"커피줌","tel":"031-507-1011","addr":"경기도 안산시 상록구 건건동 550-5번지","category":"숙박 및 음식점업 - 휴게음식"},{"name":"헤어숍미넷","tel":"","addr":"경기도 안산시 상록구 건건동 550-5번지","category":"협회 및 단체, 수리 및 기타 개인서"}]},{"lat":"37.3065400336","long":"126.9029883785","items":[{"name":"킴스헤어","tel":"031-437-4181","addr":"경기도 안산시 상록구 건건동 642-3번지","category":"협회 및 단체, 수리 및 기타 개인서"}]},{"lat":"37.31434296","long":"126.91440563","items":[{"name":"통나무숲","tel":"031-438-9904","addr":"경기도 안산시 상록구 건건동 411-1번지 1층","category":"일반휴게음식 - 일반한식"}]},{"lat":"37.303340121","long":"126.90148119","items":[{"name":"판다 아울렛","tel":"031-506-6631","addr":"경기도 안산시 상록구 건건동 926-6번지 1동","category":"유통업 영리 - 슈퍼마켓"}]},{"lat":"37.3033401210","long":"126.9014811873","items":[{"name":"판다아울렛","tel":"031-506-6631","addr":"경기도 안산시 상록구 건건동 926-6번지","category":"도매 및 소매업 - 슈퍼마켓"}]},{"lat":"37.303315162","long":"126.90392882","items":[{"name":"푸른전자","tel":"031-501-2709","addr":"경기도 안산시 상록구 건건동 909-3번지","category":"전기제품 - 냉열기기"}]},{"lat":"37.308623749","long":"126.90581692","items":[{"name":"프라임메디칼","tel":"031-501-2146","addr":"경기도 안산시 상록구 건건동 493번지","category":"기타의료기관 - 기타의료기관 및 기타"}]},{"lat":"37.309416109","long":"126.90516165","items":[{"name":"프리엘","tel":"031-463-9737","addr":"경기도 안산시 상록구 건건동 987번지 건건e-편한세상 101동 901호","category":"회원제형태 - 기타4"}]},{"lat":"37.31035305","long":"126.90501379","items":[{"name":"하늘소망어린이집[아이행복]","tel":"031-599-3411","addr":"경기도 안산시 상록구 건건동 987번지 건건e-편한세상 105동 101호","category":"학원 - 유아원"}]},{"lat":"37.310009089","long":"126.90313043","items":[{"name":"한가네농원","tel":"031-438-0395","addr":"경기도 안산시 상록구 건건동 559번지","category":"음료식품 - 농·축·수산품"}]},{"lat":"37.308117106","long":"126.90332469","items":[{"name":"한솔목공","tel":"031-437-3346","addr":"경기도 안산시 상록구 건건동 570-6번지","category":"가구 - 일반가구"}]},{"lat":"37.3119568018","long":"126.9049327506","items":[{"name":"해피국수","tel":"031-417-6779","addr":"경기도 안산시 상록구 건건동 534-1번지","category":"숙박 및 음식점업 - 기타음식"}]},{"lat":"37.3038456925","long":"126.9026535618","items":[{"name":"헤어로비","tel":"031-501-0377","addr":"경기도 안산시 상록구 건건동 920-28번지 베스트뷰","category":"협회 및 단체, 수리 및 기타 개인서"}]},{"lat":"37.303890791","long":"126.9027099","items":[{"name":"헤어로비","tel":"031-501-0377","addr":"경기도 안산시 상록구 건건동 920-28번지 A동 101호 베스트뷰제","category":"보건위생 - 미용원"}]},{"lat":"37.306873478","long":"126.9030669","items":[{"name":"황소신숯불꼼장어구이","tel":"031-438-3009","addr":"경기도 안산시 상록구 건건동 625-17번지 1층","category":"일반휴게음식 - 일반한식"},{"name":"황소신숯불꼼장어구이","tel":"031-438-3009","addr":"경기도 안산시 상록구 건건동 625-17번지 1층","category":"일반휴게음식 - 일반한식"}]}]