[{"lat":"36.999966923","long":"126.92548877","items":[{"name":"(주)글로벌종합폐차장","tel":"031-1899-4975","addr":"경기도 평택시 안중읍 학현리 102-38번지","category":"자동차정비 유지 - 자동차부품"}]},{"lat":"36.997487033","long":"126.9372083","items":[{"name":"(주)태성가설산업","tel":"031-682-9991","addr":"경기도 평택시 안중읍 학현리 7-9번지","category":"건축자재 - 기타건축자재"},{"name":"태성가설","tel":"031-682-9991","addr":"경기도 평택시 안중읍 학현리 7-9번지 외1필지","category":"건축자재 - 기타건축자재"}]},{"lat":"36.997932389","long":"126.92843415","items":[{"name":"24시편의점","tel":"031-684-4884","addr":"경기도 평택시 안중읍 학현리 40-13번지","category":"유통업 영리 - 슈퍼마켓"},{"name":"람'S치킨 늘푸른식당","tel":"031-684-4884","addr":"경기도 평택시 안중읍 학현리 40-13","category":"일반휴게음식 - 일반한식"},{"name":"세븐일레븐평택안중학현점","tel":"","addr":"경기도 평택시 안중읍 학현리 40-13","category":"유통업 영리 - 편 의 점"}]},{"lat":"37.001105239","long":"126.93018363","items":[{"name":"FM 지수","tel":"031-686-7075","addr":"경기도 평택시 안중읍 학현리 64-4번지","category":"보건위생 - 미용원"}]},{"lat":"37.002492885","long":"126.93018231","items":[{"name":"IN포켓","tel":"031-670-9871","addr":"경기도 평택시 안중읍 학현리 69-42번지 포켓빌딩 1층 102호","category":"의류 - 정장"},{"name":"포켓클로젯(Pocket closet)","tel":"031-670-9871","addr":"경기도 평택시 안중읍 학현리 69-42번지 1층 101호","category":"의류 - 정장"}]},{"lat":"36.987799627","long":"126.92124397","items":[{"name":"건축사사무소이레","tel":"031-682-5041","addr":"경기도 평택시 안중읍 학현리 505-12번지","category":"건축자재 - 인테리어전문"},{"name":"시골막국수","tel":"","addr":"경기도 평택시 안중읍 학현리 505-12번지","category":"음식점 - 한식"},{"name":"주샵 (#)","tel":"031-684-9495","addr":"경기도 평택시 안중읍 학현리 505-12번지 1층","category":"보건위생 - 미용원"},{"name":"즉석김밥","tel":"031-684-3135","addr":"경기도 평택시 안중읍 학현리 505-12번지 1층","category":"일반휴게음식 - 스넥"}]},{"lat":"37.000352259","long":"126.92229782","items":[{"name":"경기특장","tel":"070-4789-2381","addr":"경기도 평택시 안중읍 학현리 112-3번지","category":"자동차정비 유지 - 자동차정비"}]},{"lat":"36.990324613","long":"126.92418429","items":[{"name":"귀뚜라미보일러안중점","tel":"031-681-9003","addr":"경기도 평택시 안중읍 학현리 498-2번지","category":"건축자재 - 보일러·펌프·샷시"}]},{"lat":"36.991495878","long":"126.91143355","items":[{"name":"금강스틸","tel":"031-664-0989","addr":"경기도 평택시 안중읍 학현리 300-7번지","category":"건축자재 - 기타건축자재"}]},{"lat":"36.988105953","long":"126.92118748","items":[{"name":"김명환법무사사무실","tel":"031-683-6837","addr":"경기도 평택시 안중읍 학현리 505번지","category":"용역 서비스 - 법률회계서비스(개인)"},{"name":"대일건축사사무소","tel":"031-683-1444","addr":"경기도 평택시 안중읍 학현리 505","category":"용역 서비스 - 사무서비스"},{"name":"법무사서윤하사무소","tel":"031-682-6811","addr":"경기도 평택시 안중읍 학현리 505번지","category":"용역 서비스 - 법률회계서비스(개인)"},{"name":"우리측량설계공사","tel":"070-8836-9807","addr":"경기도 평택시 안중읍 학현리 505번지","category":"서비스업 - 건축"},{"name":"현화종합문구","tel":"031-684-5605","addr":"경기도 평택시 안중읍 학현리 505","category":"서적문구 - 문구용품"}]},{"lat":"36.988385439","long":"126.92141184","items":[{"name":"까페데이트","tel":"031-682-0633","addr":"경기도 평택시 안중읍 학현리 506번지","category":"음식점 - 커피"},{"name":"데이트","tel":"031-682-4889","addr":"경기도 평택시 안중읍 학현리 506번지 1층","category":"일반휴게음식 - 서양음식"},{"name":"중일종합건축사사무소","tel":"031-681-0156","addr":"경기도 평택시 안중읍 학현리 506번지 광산빌딩 A동 206호","category":"용역 서비스 - 사무서비스"}]},{"lat":"36.989799062","long":"126.91988266","items":[{"name":"꿈볶는카페 COO","tel":"031-111-1111","addr":"경기도 평택시 안중읍 학현리 572번지","category":"일반휴게음식 - 서양음식"},{"name":"평택시/안중수영장","tel":"031-8024-8241","addr":"경기도 평택시 안중읍 학현리 572번지 평택국민체육센터안중수영장","category":"레저업소 - 수 영 장"}]},{"lat":"36.992606005","long":"126.92676559","items":[{"name":"나능이능이버섯백숙","tel":"031-681-2952","addr":"경기도 평택시 안중읍 학현리 445-10번지","category":"일반휴게음식 - 일반한식"}]},{"lat":"36.988766183","long":"126.92482616","items":[{"name":"대어일식","tel":"031-682-8362","addr":"경기도 평택시 안중읍 학현리 504-18번지","category":"일반휴게음식 - 일식·회집"},{"name":"오복정","tel":"031-681-5088","addr":"경기도 평택시 안중읍 학현리 504-18번지","category":"음식점 - 한식"},{"name":"오복정","tel":"031-686-7864","addr":"경기도 평택시 안중읍 학현리 504-18번지","category":"일반휴게음식 - 일반한식"}]},{"lat":"36.99204449","long":"126.92244138","items":[{"name":"대일영어학원","tel":"031-682-1100","addr":"경기도 평택시 안중읍 학현리 463-9번지 3층","category":"학원 - 외국어학원"},{"name":"대일유치원[아이행복]","tel":"031-682-1100","addr":"경기도 평택시 안중읍 학현리 463-9","category":"학원 - 유치원"}]},{"lat":"36.99513239","long":"126.93224507","items":[{"name":"동동이아이스크림할인점","tel":"031-681-3233","addr":"경기도 평택시 안중읍 학현리 9-25번지 학현유치원 101호","category":"음료식품 - 기타음료식품"},{"name":"한라어린이집[아이행복]","tel":"031-681-5118","addr":"경기도 평택시 안중읍 학현리 9-25번지","category":"학원 - 유아원"}]},{"lat":"36.997383255","long":"126.92926599","items":[{"name":"동화어린이집[아이행복]","tel":"031-684-0030","addr":"경기도 평택시 안중읍 학현리 22-47번지","category":"학원 - 유아원"}]},{"lat":"36.987800986","long":"126.92324336","items":[{"name":"드림에듀학원","tel":"031-681-6055","addr":"경기도 평택시 안중읍 학현리 504-36번지 2층 전부","category":"학원 - 보습학원"},{"name":"이개머냥","tel":"031-682-9693","addr":"경기도 평택시 안중읍 학현리 504-36번지 101호","category":"일반휴게음식 - 서양음식"}]},{"lat":"36.995210424","long":"126.91424874","items":[{"name":"로뎀나무식물원","tel":"031-611-0810","addr":"경기도 평택시 안중읍 학현리 235-1번지","category":"문화.취미 - 화원"}]},{"lat":"36.991765712","long":"126.91080417","items":[{"name":"만선파크","tel":"031-682-6878","addr":"경기도 평택시 안중읍 학현리 295-3번지 1층","category":"숙박업 - 여관/기타숙박업"},{"name":"만선파크","tel":"031-682-6878","addr":"경기도 평택시 안중읍 학현리 295-3번지","category":"숙박업 - 여관/기타숙박업"}]},{"lat":"36.996409772","long":"126.92873894","items":[{"name":"미노스FA","tel":"070-7569-8799","addr":"경기도 평택시 안중읍 학현리 23-16번지","category":"기타 - 기계공구"}]},{"lat":"36.998715373","long":"126.92693924","items":[{"name":"배미오가피농장","tel":"031-683-9235","addr":"경기도 평택시 안중읍 학현리 48-8번지 1층","category":"소매업 - 농산물"},{"name":"배미오가피농장","tel":"031-681-2211","addr":"경기도 평택시 안중읍 학현리 48-8번지 1층","category":"음료식품 - 기타음료식품"}]},{"lat":"36.991881123","long":"126.90860234","items":[{"name":"삼도향","tel":"031-681-5292","addr":"경기도 평택시 안중읍 학현리 284-8번지 1층","category":"일반휴게음식 - 중국식"}]},{"lat":"36.991299136","long":"126.92627264","items":[{"name":"세웅모터스","tel":"031-686-7882","addr":"경기도 평택시 안중읍 학현리 456번지","category":"자동차정비 유지 - 자동차부품"}]},{"lat":"36.996822604","long":"126.91326952","items":[{"name":"솔지어린이집[아이행복]","tel":"031-684-5667","addr":"경기도 평택시 안중읍 학현리 230번지","category":"학원 - 유아원"}]},{"lat":"36.989385318","long":"126.92096146","items":[{"name":"안중건축사무소","tel":"031-682-8123","addr":"경기도 평택시 안중읍 학현리 495-9번지","category":"용역 서비스 - 법률회계서비스(개인)"}]},{"lat":"36.991407675","long":"126.92691281","items":[{"name":"안중벽돌.안중골재","tel":"031-682-7178","addr":"경기도 평택시 안중읍 학현리 452-2번지","category":"건축자재 - 기타건축자재"}]},{"lat":"36.994461205","long":"126.92521351","items":[{"name":"안중봄인테리어","tel":"","addr":"경기도 평택시 안중읍 학현리 420-4번지 그린빌리지 102동 401호","category":"건축자재 - 인테리어전문"}]},{"lat":"36.997882946","long":"126.93620813","items":[{"name":"안중온누리사랑채 요양보호사교육원","tel":"031-681-8600","addr":"경기도 평택시 안중읍 학현리 7-13번지 1층","category":"학원 - 기능학원"}]},{"lat":"36.99215542","long":"126.9266874","items":[{"name":"안중이솝어린이집[아이행복]","tel":"031-684-5222","addr":"경기도 평택시 안중읍 학현리 448-7번지","category":"학원 - 유아원"}]},{"lat":"36.987656497","long":"126.92277175","items":[{"name":"연길양꼬치","tel":"031-683-5289","addr":"경기도 평택시 안중읍 학현리 504-28번지","category":"일반휴게음식 - 중국식"}]},{"lat":"36.990855411","long":"126.92293689","items":[{"name":"이글골프샵","tel":"031-684-2908","addr":"경기도 평택시 안중읍 학현리 498-6번지","category":"레져용품 - 골프용품 전문점"},{"name":"이글골프샵","tel":"031-684-2908","addr":"경기도 평택시 안중읍 학현리 498-6번지","category":"레져용품 - 골프용품 전문점"},{"name":"이글스포츠","tel":"031-683-8802","addr":"경기도 평택시 안중읍 학현리 498-6번지 (25,26,27,28)","category":"회원제형태 - 레져업소"}]},{"lat":"36.9909901","long":"126.9222403","items":[{"name":"이글스넥","tel":"031-683-8803","addr":"경기도 평택시 안중읍 학현리 498-25번지 2층","category":"일반휴게음식 - 일반한식"}]},{"lat":"36.987628863","long":"126.92188441","items":[{"name":"장원냉채족발","tel":"031-683-8266","addr":"경기도 평택시 안중읍 학현리 505-16번지 외1필지","category":"일반휴게음식 - 일반한식"},{"name":"장원냉채족발","tel":"031-681-9243","addr":"경기도 평택시 안중읍 학현리 505-16번지","category":"음식점 - 일반"}]},{"lat":"36.988829133","long":"126.92463514","items":[{"name":"장충동왕족발","tel":"031-683-0037","addr":"경기도 평택시 안중읍 학현리 504-42번지","category":"일반휴게음식 - 일반한식"}]},{"lat":"36.994296806","long":"126.90963284","items":[{"name":"천해소금","tel":"031-1688-4841","addr":"경기도 평택시 안중읍 학현리 207번지","category":"음료식품 - 기타음료식품"}]},{"lat":"36.99879501","long":"126.92469234","items":[{"name":"팀맥스파워(포스모터스)","tel":"031-684-8986","addr":"경기도 평택시 안중읍 학현리 112-11번지","category":"자동차정비 유지 - 자동차정비"}]},{"lat":"37.00040516","long":"126.92060137","items":[{"name":"푸짐","tel":"031-683-8981","addr":"경기도 평택시 안중읍 학현리 129-10번지","category":"음료식품 - 기타음료식품"}]},{"lat":"36.990657919","long":"126.92404916","items":[{"name":"하늘마루","tel":"031-683-7366","addr":"경기도 평택시 안중읍 학현리 498-1번지","category":"도소매업 - 정육"},{"name":"하늘마루","tel":"031-683-9235","addr":"경기도 평택시 안중읍 학현리 498-1번지 외필지","category":"음료식품 - 정육점"}]},{"lat":"36.989323742","long":"126.92316314","items":[{"name":"한덕종묘조경","tel":"031-681-9218","addr":"경기도 평택시 안중읍 학현리 500-10번지","category":"농업 - 비료,사료,종자"}]},{"lat":"36.995130203","long":"126.92866155","items":[{"name":"현일상사","tel":"031-681-8167","addr":"경기도 평택시 안중읍 학현리 36-1번지","category":"자동차정비 유지 - 자동차부품"}]},{"lat":"36.991354155","long":"126.92776658","items":[{"name":"형수 멋내기 공방","tel":"031-681-2212","addr":"경기도 평택시 안중읍 학현리 산65-10번지","category":"가구 - 기타가구"}]}]