[{"lat":"37.835415935","long":"126.73523378","items":[{"name":"(주)선우종합상사","tel":"031-945-2101","addr":"경기도 파주시 탄현면 낙하리 269-2번지","category":"기타 - 기계공구"}]},{"lat":"37.832164813","long":"126.7318491","items":[{"name":"(주)유니버샬엠","tel":"070-4285-0579","addr":"경기도 파주시 탄현면 낙하리 301-7번지","category":"서적문구 - 일반서적"}]},{"lat":"37.829914662","long":"126.73676439","items":[{"name":"DoRun(두런)","tel":"031-943-6989","addr":"경기도 파주시 탄현면 낙하리 285-5","category":"자동차정비 유지 - 자동차부품"},{"name":"드래그모터스","tel":"031-944-2647","addr":"경기도 파주시 탄현면 낙하리 285-5번지","category":"자동차정비 유지 - 세차장"}]},{"lat":"37.832687478","long":"126.73584569","items":[{"name":"ISNATURE","tel":"070-4733-9850","addr":"경기도 파주시 탄현면 낙하리 282-3번지","category":"회원제형태 - 기타4"}]},{"lat":"37.835526578","long":"126.74443481","items":[{"name":"갈릴리농원 청미안","tel":"031-942-0220","addr":"경기도 파주시 탄현면 낙하리 96-1번지","category":"일반휴게음식 - 일반한식"},{"name":"소솜(SOSOM)","tel":"031-942-0550","addr":"경기도 파주시 탄현면 낙하리 96-1번지","category":"일반휴게음식 - 서양음식"}]},{"lat":"37.835527798","long":"126.74499144","items":[{"name":"갈릴리편의점","tel":"070-7536-8331","addr":"경기도 파주시 탄현면 낙하리 96-9","category":"유통업 영리 - 편 의 점"}]},{"lat":"37.825690952","long":"126.73751785","items":[{"name":"경북상가","tel":"031-942-8598","addr":"경기도 파주시 탄현면 낙하리 297-6번지","category":"용역 서비스 - 부동산 중개·임대"},{"name":"선불후면","tel":"031-943-2958","addr":"경기도 파주시 탄현면 낙하리 297-6번지","category":"일반휴게음식 - 일반한식"}]},{"lat":"37.82919448","long":"126.73701687","items":[{"name":"낙하IC주유소","tel":"031-946-5118","addr":"경기도 파주시 탄현면 낙하리 285-2번지","category":"연료판매점 - 주유소"},{"name":"낙하IC주유소","tel":"031-946-5118","addr":"경기도 파주시 탄현면 낙하리 285-2번지","category":"연료판매점 - 현대정유(오일뱅크)"},{"name":"낙하IC주유소","tel":"031-946-5118","addr":"경기도 파주시 탄현면 낙하리 285-2번지","category":"연료판매점 - 현대정유(오일뱅크)"}]},{"lat":"37.82952141","long":"126.7422067","items":[{"name":"낙하리600","tel":"031-944-8626","addr":"경기도 파주시 탄현면 낙하리 600번지","category":"일반휴게음식 - 일반한식"}]},{"lat":"37.838549056","long":"126.73429092","items":[{"name":"낙하리편의점","tel":"031-941-8982","addr":"경기도 파주시 탄현면 낙하리 231-1번지","category":"유통업 영리 - 편 의 점"}]},{"lat":"37.837494625","long":"126.7381231","items":[{"name":"더브러컴퍼니","tel":"031-941-7250","addr":"경기도 파주시 탄현면 낙하리 210-3번지","category":"가구 - 일반가구"}]},{"lat":"37.832716242","long":"126.74062787","items":[{"name":"맛사랑식품","tel":"031-944-9661","addr":"경기도 파주시 탄현면 낙하리 67-5번지","category":"음료식품 - 기타음료식품"}]},{"lat":"37.838027396","long":"126.73467906","items":[{"name":"문산큰손부대찌개","tel":"031-944-8262","addr":"경기도 파주시 탄현면 낙하리 232번지","category":"일반휴게음식 - 일반한식"}]},{"lat":"37.829637121","long":"126.7415702","items":[{"name":"산두리비빔국수","tel":"031-945-7819","addr":"경기도 파주시 탄현면 낙하리 60-4번지","category":"일반휴게음식 - 일반한식"}]},{"lat":"37.832000908","long":"126.74307264","items":[{"name":"선운산 풍천장어","tel":"031-952-8522","addr":"경기도 파주시 탄현면 낙하리 594번지","category":"일반휴게음식 - 일반한식"},{"name":"피쉬앤크랩","tel":"031-952-8231","addr":"경기도 파주시 탄현면 낙하리 594번지","category":"음료식품 - 농·축·수산품"}]},{"lat":"37.828304553","long":"126.73790604","items":[{"name":"성안푸드","tel":"031-947-8420","addr":"경기도 파주시 탄현면 낙하리 291번지","category":"음료식품 - 기타음료식품"}]},{"lat":"37.838774366","long":"126.73432419","items":[{"name":"세원판넬","tel":"031-954-1044","addr":"경기도 파주시 탄현면 낙하리 230-1번지","category":"건축자재 - 기타건축자재"}]},{"lat":"37.83577316","long":"126.74595617","items":[{"name":"소솜(SOSOM)","tel":"031-942-0550","addr":"경기도 파주시 탄현면 낙하리 4-12","category":"일반휴게음식 - 서양음식"}]},{"lat":"37.827888794","long":"126.73731688","items":[{"name":"수림옥","tel":"031-946-6262","addr":"경기도 파주시 탄현면 낙하리 290번지","category":"일반휴게음식 - 일반한식"}]},{"lat":"37.837964848","long":"126.73490649","items":[{"name":"신솥김포해장국","tel":"031-945-8848","addr":"경기도 파주시 탄현면 낙하리 233-1번지","category":"일반휴게음식 - 일반한식"}]},{"lat":"37.837802292","long":"126.73473667","items":[{"name":"신솥해장국&돼지국밥","tel":"031-944-0801","addr":"경기도 파주시 탄현면 낙하리 234-2번지","category":"일반휴게음식 - 일반한식"}]},{"lat":"37.827383729","long":"126.74110109","items":[{"name":"아뜰리에 렌토(atelier lento)","tel":"031-000-0000","addr":"경기도 파주시 탄현면 낙하리 607번지","category":"문화.취미 - 화원"}]},{"lat":"37.834806134","long":"126.73648555","items":[{"name":"언덕배기 닭한마리","tel":"","addr":"경기도 파주시 탄현면 낙하리 245-8번지","category":"일반휴게음식 - 일반한식"},{"name":"엘지로38편의점","tel":"070-8834-6247","addr":"경기도 파주시 탄현면 낙하리 245-8번지","category":"유통업 영리 - 슈퍼마켓"}]},{"lat":"37.833939764","long":"126.74390645","items":[{"name":"이마트24 파주 낙하리점","tel":"","addr":"경기도 파주시 탄현면 낙하리 6-23번지","category":"유통업 영리 - 편 의 점"},{"name":"함흥차사","tel":"070-8882-4404","addr":"경기도 파주시 탄현면 낙하리 6-23번지","category":"일반휴게음식 - 일반한식"}]},{"lat":"37.8254995","long":"126.73651901","items":[{"name":"이마트24 파주방촌로점","tel":"","addr":"경기도 파주시 탄현면 낙하리 298-6번지","category":"유통업 영리 - 편 의 점"},{"name":"이마트24 파주방촌로점","tel":"031-0000-0000","addr":"경기도 파주시 탄현면 낙하리 298-6번지","category":"유통업 영리 - 편 의 점"},{"name":"초록당구장","tel":"031-942-9988","addr":"경기도 파주시 탄현면 낙하리 298-6번지","category":"레저업소 - 당 구 장"}]},{"lat":"37.831550667","long":"126.74317646","items":[{"name":"인더라인25","tel":"070-4044-8794","addr":"경기도 파주시 탄현면 낙하리 595번지","category":"유통업 영리 - 편 의 점"},{"name":"장단콩명가두부고을","tel":"031-944-3366","addr":"경기도 파주시 탄현면 낙하리 595번지","category":"일반휴게음식 - 일반한식"}]},{"lat":"37.836827257","long":"126.72993493","items":[{"name":"자유로바다낚시","tel":"02-1111-1111","addr":"경기도 파주시 탄현면 낙하리 312-1번지","category":"레저업소 - 기타레져업소"},{"name":"자유로식당","tel":"","addr":"경기도 파주시 탄현면 낙하리 312-1번지","category":"일반휴게음식 - 일반한식"}]},{"lat":"37.829528581","long":"126.74137748","items":[{"name":"장군순대국","tel":"031-945-3339","addr":"경기도 파주시 탄현면 낙하리 58-8번지","category":"일반휴게음식 - 일반한식"}]},{"lat":"37.837106098","long":"126.72974078","items":[{"name":"제이앤제이스윗츠","tel":"","addr":"경기도 파주시 탄현면 낙하리 312-5번지","category":"음료식품 - 제과점"}]},{"lat":"37.84160712","long":"126.74407278","items":[{"name":"주민지원협의체","tel":"031-944-0052","addr":"경기도 파주시 탄현면 낙하리 153번지","category":"음료식품 - 기타음료식품"}]},{"lat":"37.832969285","long":"126.73695789","items":[{"name":"주식회사 다온숲브루어리","tel":"","addr":"경기도 파주시 탄현면 낙하리 262-5번지","category":"일반휴게음식 - 서양음식"}]},{"lat":"37.837663807","long":"126.7372364","items":[{"name":"주식회사 에스엠디코리아","tel":"031-957-2053","addr":"경기도 파주시 탄현면 낙하리 208-1번지","category":"기타 - 기계공구"}]},{"lat":"37.826550207","long":"126.73901408","items":[{"name":"지니디오","tel":"031-947-4689","addr":"경기도 파주시 탄현면 낙하리 55-7번지","category":"신변잡화 - 신발"},{"name":"지니디오 (jinidio)","tel":"031-947-4689","addr":"경기도 파주시 탄현면 낙하리 55-7번지","category":"일반휴게음식 - 서양음식"}]},{"lat":"37.834860187","long":"126.74457346","items":[{"name":"쭝궈자","tel":"031-949-0086","addr":"경기도 파주시 탄현면 낙하리 96-28번지","category":"일반휴게음식 - 중국식"}]},{"lat":"37.833995043","long":"126.74446288","items":[{"name":"태영컨테이너","tel":"070-4400-2184","addr":"경기도 파주시 탄현면 낙하리 6-24,92-2","category":"건축자재 - 기타건축자재"}]},{"lat":"37.83507671","long":"126.74470902","items":[{"name":"테라리움","tel":"031-946-8121","addr":"경기도 파주시 탄현면 낙하리 96-30번지","category":"일반휴게음식 - 서양음식"}]}]