[{"lat":"37.4446319","long":"127.1585118","imageIndex":17,"items":[{"name":"21세기세계로약국","tel":"031-743-0624","addr":"경기도 성남시 중원구 금광동 11번지","indutype":"","category":"other"},{"name":"미니드레스","tel":"031-732-7274","addr":"경기도 성남시 중원구 금광동 11번지","indutype":"","category":"other"},{"name":"아이앤아이안경,콘텍트","tel":"031-623-6687","addr":"경기도 성남시 중원구 금광동 11번지","indutype":"","category":"other"},{"name":"주원오리,추어탕","tel":"031-733-3324","addr":"경기도 성남시 중원구 금광동 11번지","indutype":"","category":"other"}]},{"lat":"37.4445515","long":"127.1580144","imageIndex":17,"items":[{"name":"88집","tel":"031-732-6480","addr":"경기도 성남시 중원구 금광동 10번지","indutype":"","category":"other"},{"name":"㈜오로지농산물할인마트","tel":"031-749-8989","addr":"경기도 성남시 중원구 금광동 10번지","indutype":"","category":"other"},{"name":"개성","tel":"031-744-6777","addr":"경기도 성남시 중원구 금광동 10번지","indutype":"","category":"other"},{"name":"광덕닭집","tel":"031-747-0203","addr":"경기도 성남시 중원구 금광동 10번지","indutype":"","category":"other"},{"name":"그랜드패션","tel":"031-734-3547","addr":"경기도 성남시 중원구 금광동 10번지","indutype":"","category":"other"},{"name":"금강정육점","tel":"031-742-9386","addr":"경기도 성남시 중원구 금광동 10번지","indutype":"","category":"other"},{"name":"낙원떡집","tel":"031-734-8244","addr":"경기도 성남시 중원구 금광동 10번지","indutype":"","category":"other"},{"name":"남성패션","tel":"031-747-9033","addr":"경기도 성남시 중원구 금광동 10번지","indutype":"","category":"other"},{"name":"단골상회","tel":"031-743-8800","addr":"경기도 성남시 중원구 금광동 10번지","indutype":"","category":"other"},{"name":"단대떡집","tel":"031-731-4589","addr":"경기도 성남시 중원구 금광동 10번지","indutype":"","category":"other"},{"name":"단대반찬","tel":"031-742-2686","addr":"경기도 성남시 중원구 금광동 10번지","indutype":"","category":"other"},{"name":"단대종합신발","tel":"031-733-5255","addr":"경기도 성남시 중원구 금광동 10번지","indutype":"","category":"other"},{"name":"대  하","tel":"031-741-0741","addr":"경기도 성남시 중원구 금광동 10번지","indutype":"","category":"other"},{"name":"대림정육점","tel":"031-734-6033","addr":"경기도 성남시 중원구 금광동 10번지","indutype":"","category":"other"},{"name":"대하","tel":"031-741-0741","addr":"경기도 성남시 중원구 금광동 10번지","indutype":"","category":"other"},{"name":"두리네","tel":"031-734-1033","addr":"경기도 성남시 중원구 금광동 10번지","indutype":"","category":"other"},{"name":"똘이네","tel":"031-741-3116","addr":"경기도 성남시 중원구 금광동 10번지","indutype":"","category":"other"},{"name":"뜨개질하는 남자","tel":"031-743-2462","addr":"경기도 성남시 중원구 금광동 10번지","indutype":"","category":"other"},{"name":"라이프센스","tel":"031-744-9737","addr":"경기도 성남시 중원구 금광동 10번지","indutype":"","category":"other"},{"name":"맨하탄","tel":"031-745-0254","addr":"경기도 성남시 중원구 금광동 10번지","indutype":"","category":"other"},{"name":"미","tel":"031-731-4524","addr":"경기도 성남시 중원구 금광동 10번지","indutype":"","category":"other"},{"name":"백합주단","tel":"031-743-8143","addr":"경기도 성남시 중원구 금광동 10번지","indutype":"","category":"other"},{"name":"산성닭집","tel":"031-747-2098","addr":"경기도 성남시 중원구 금광동 10번지","indutype":"","category":"other"},{"name":"삼영악세사리","tel":"031-742-3973","addr":"경기도 성남시 중원구 금광동 10번지","indutype":"","category":"other"},{"name":"성남손뜨개","tel":"031-735-5664","addr":"경기도 성남시 중원구 금광동 10번지","indutype":"","category":"other"},{"name":"수입품","tel":"031-732-4235","addr":"경기도 성남시 중원구 금광동 10번지","indutype":"","category":"other"},{"name":"신남북정육점","tel":"031-743-5429","addr":"경기도 성남시 중원구 금광동 10번지","indutype":"","category":"other"},{"name":"아가도스","tel":"031-732-0012","addr":"경기도 성남시 중원구 금광동 10번지","indutype":"","category":"other"},{"name":"아트플라워","tel":"031-747-2916","addr":"경기도 성남시 중원구 금광동 10번지","indutype":"","category":"other"},{"name":"여주쌀상회","tel":"031-745-0675","addr":"경기도 성남시 중원구 금광동 10번지","indutype":"","category":"other"},{"name":"영선스낵","tel":"031-734-1566","addr":"경기도 성남시 중원구 금광동 10번지","indutype":"","category":"other"},{"name":"이유식건강식농산물","tel":"031-741-4838","addr":"경기도 성남시 중원구 금광동 10번지","indutype":"","category":"other"},{"name":"잉꼬숙녀복","tel":"031-735-0253","addr":"경기도 성남시 중원구 금광동 10번지","indutype":"","category":"other"},{"name":"장씨네","tel":"031-742-4060","addr":"경기도 성남시 중원구 금광동 10번지","indutype":"","category":"other"},{"name":"중앙상회","tel":"031-742-0853","addr":"경기도 성남시 중원구 금광동 10번지","indutype":"","category":"other"},{"name":"중앙스넥","tel":"031-742-9703","addr":"경기도 성남시 중원구 금광동 10번지","indutype":"","category":"other"},{"name":"충남포목","tel":"031-734-7183","addr":"경기도 성남시 중원구 금광동 10번지","indutype":"","category":"other"},{"name":"코너집","tel":"031-749-7798","addr":"경기도 성남시 중원구 금광동 10번지","indutype":"","category":"other"},{"name":"크린토피아 단대쇼핑점","tel":"031-741-0921","addr":"경기도 성남시 중원구 금광동 10번지","indutype":"","category":"other"},{"name":"한림사","tel":"031-749-4520","addr":"경기도 성남시 중원구 금광동 10번지","indutype":"","category":"other"},{"name":"현대직판장","tel":"031-749-8989","addr":"경기도 성남시 중원구 금광동 10번지","indutype":"","category":"other"},{"name":"혜성양품","tel":"031-741-4820","addr":"경기도 성남시 중원구 금광동 10번지","indutype":"","category":"other"},{"name":"황금숙녀복","tel":"031-744-0869","addr":"경기도 성남시 중원구 금광동 10번지","indutype":"","category":"other"}]},{"lat":"37.4535214","long":"127.1610957","imageIndex":17,"items":[{"name":"BHC치킨","tel":"031-735-7292","addr":"경기도 성남시 중원구 금광동 4829번지","indutype":"","category":"other"}]},{"lat":"37.446774","long":"127.1668449","imageIndex":17,"items":[{"name":"OK당구장","tel":"031-475-3653","addr":"경기도 성남시 중원구 금광동 3116번지","indutype":"","category":"other"},{"name":"크레마","tel":"031-742-3979","addr":"경기도 성남시 중원구 금광동 3116번지","indutype":"","category":"other"}]},{"lat":"37.446028","long":"127.1655663","imageIndex":17,"items":[{"name":"bhc 치킨 금광점","tel":"031-734-3355","addr":"경기도 성남시 중원구 금광동 1788-1번지","indutype":"","category":"other"}]},{"lat":"37.4507209","long":"127.1598693","imageIndex":17,"items":[{"name":"coffeeM","tel":"031-749-7982","addr":"경기도 성남시 중원구 금광동 4636번지","indutype":"","category":"other"}]},{"lat":"37.445771","long":"127.1689786","imageIndex":17,"items":[{"name":"㈜농민마트","tel":"031-731-5858","addr":"경기도 성남시 중원구 금광동 2346번지","indutype":"","category":"other"},{"name":"식자재마트","tel":"031-731-5858","addr":"경기도 성남시 중원구 금광동 2346번지","indutype":"","category":"other"}]},{"lat":"37.4462995","long":"127.1646742","imageIndex":17,"items":[{"name":"가마로강정 신구대점","tel":"031-743-7292","addr":"경기도 성남시 중원구 금광동 3129번지","indutype":"","category":"other"}]},{"lat":"37.4531342","long":"127.1609254","imageIndex":17,"items":[{"name":"가장맛있는족발","tel":"031-731-5900","addr":"경기도 성남시 중원구 금광동 4803번지","indutype":"","category":"other"}]},{"lat":"37.4479924","long":"127.1587335","imageIndex":17,"items":[{"name":"간이역","tel":"031-745-2356","addr":"경기도 성남시 중원구 금광동 4477번지","indutype":"","category":"other"}]},{"lat":"37.4446604","long":"127.1574044","imageIndex":17,"items":[{"name":"갑오징어활패짬뽕","tel":"031-747-5959","addr":"경기도 성남시 중원구 금광동 3번지","indutype":"","category":"other"}]},{"lat":"37.4503004","long":"127.1643211","imageIndex":17,"items":[{"name":"갤러리 인테리어","tel":"031-745-9388","addr":"경기도 성남시 중원구 금광동 3303번지","indutype":"","category":"other"},{"name":"갤러리 인테리어","tel":"031-745-9388","addr":"경기도 성남시 중원구 금광동 3303번지","indutype":"","category":"other"},{"name":"정석아카데미","tel":"031-744-6008","addr":"경기도 성남시 중원구 금광동 3303번지","indutype":"","category":"other"}]},{"lat":"37.4480801","long":"127.1605079","imageIndex":17,"items":[{"name":"거성쌀직판장","tel":"031-733-3222","addr":"경기도 성남시 중원구 금광동 3926번지","indutype":"","category":"other"}]},{"lat":"37.4459138","long":"127.1634303","imageIndex":17,"items":[{"name":"걸작떡볶이 신구대점","tel":"031-741-2821","addr":"경기도 성남시 중원구 금광동 3662번지","indutype":"","category":"other"}]},{"lat":"37.441188","long":"127.1600641","imageIndex":17,"items":[{"name":"고갯마루집","tel":"031-733-0752","addr":"경기도 성남시 중원구 금광동 113번지","indutype":"","category":"other"}]},{"lat":"37.4456367","long":"127.1617346","imageIndex":17,"items":[{"name":"골목포차","tel":"031-731-4894","addr":"경기도 성남시 중원구 금광동 3678번지","indutype":"","category":"other"}]},{"lat":"37.4461339","long":"127.1671486","imageIndex":17,"items":[{"name":"곰돌이마트 신구대점","tel":"031-732-9987","addr":"경기도 성남시 중원구 금광동 1800번지","indutype":"","category":"other"},{"name":"프린스턴 보습학원","tel":"031-749-7733","addr":"경기도 성남시 중원구 금광동 1800번지","indutype":"","category":"other"}]},{"lat":"37.445501","long":"127.1621524","imageIndex":17,"items":[{"name":"광명로약국","tel":"070-4193-5800","addr":"경기도 성남시 중원구 금광동 3699번지","indutype":"","category":"other"}]},{"lat":"37.4512497","long":"127.1685386","imageIndex":17,"items":[{"name":"교촌치킨 금광1호점","tel":"031-732-9997","addr":"경기도 성남시 중원구 금광동 2706번지 궁전빌라5차","indutype":"","category":"other"},{"name":"제주도토종흑돼지","tel":"031-743-1949","addr":"경기도 성남시 중원구 금광동 2706번지 궁전빌라5차","indutype":"","category":"other"}]},{"lat":"37.4466636","long":"127.1685172","imageIndex":17,"items":[{"name":"구복정","tel":"031-745-6338","addr":"경기도 성남시 중원구 금광동 2409번지","indutype":"","category":"other"}]},{"lat":"37.4450526","long":"127.1606485","imageIndex":17,"items":[{"name":"국가대표 푸줏간","tel":"031-748-4226","addr":"경기도 성남시 중원구 금광동 3709번지","indutype":"","category":"other"}]},{"lat":"37.4466673","long":"127.1658163","imageIndex":17,"items":[{"name":"국민짬뽕","tel":"031-732-4929","addr":"경기도 성남시 중원구 금광동 3104번지","indutype":"","category":"other"}]},{"lat":"37.4495523","long":"127.1645116","imageIndex":17,"items":[{"name":"글로리헤어샵","tel":"","addr":"경기도 성남시 중원구 금광동 3290번지","indutype":"","category":"other"}]},{"lat":"37.4463863","long":"127.1670927","imageIndex":17,"items":[{"name":"금강열쇠","tel":"031-746-1515","addr":"경기도 성남시 중원구 금광동 1798번지","indutype":"","category":"other"},{"name":"오빠떡","tel":"031-743-5858","addr":"경기도 성남시 중원구 금광동 1798번지","indutype":"","category":"other"},{"name":"전승완약국","tel":"031-734-6041","addr":"경기도 성남시 중원구 금광동 1798번지","indutype":"","category":"other"}]},{"lat":"37.4459433","long":"127.1615657","imageIndex":17,"items":[{"name":"금광 정육점","tel":"031-742-9123","addr":"경기도 성남시 중원구 금광동 3602번지","indutype":"","category":"other"}]},{"lat":"37.4456627","long":"127.162537","imageIndex":17,"items":[{"name":"금광DC아울렛","tel":"031-731-2277","addr":"경기도 성남시 중원구 금광동 3688번지","indutype":"","category":"other"},{"name":"금광프라자약국","tel":"031-741-6220","addr":"경기도 성남시 중원구 금광동 3688번지","indutype":"","category":"other"},{"name":"배러댄와플 단대오거리점","tel":"031-732-5949","addr":"경기도 성남시 중원구 금광동 3688번지","indutype":"","category":"other"}]},{"lat":"37.4449695","long":"127.1620948","imageIndex":17,"items":[{"name":"금광트라이","tel":"031-745-2378","addr":"경기도 성남시 중원구 금광동 1347번지","indutype":"","category":"other"},{"name":"금광트라이","tel":"031-745-2378","addr":"경기도 성남시 중원구 금광동 1347번지","indutype":"","category":"other"}]},{"lat":"37.4452481","long":"127.1626491","imageIndex":17,"items":[{"name":"금광풍년 쌈밥","tel":"031-735-5676","addr":"경기도 성남시 중원구 금광동 1353번지","indutype":"","category":"other"},{"name":"우리들약국","tel":"031-741-1585","addr":"경기도 성남시 중원구 금광동 1353번지","indutype":"","category":"other"},{"name":"황톳길","tel":"031-704-2390","addr":"경기도 성남시 중원구 금광동 1353번지","indutype":"","category":"other"}]},{"lat":"37.4452988","long":"127.1584341","imageIndex":17,"items":[{"name":"길린꼬치","tel":"031-735-1211","addr":"경기도 성남시 중원구 금광동 4342번지","indutype":"","category":"other"}]},{"lat":"37.4494941","long":"127.1609064","imageIndex":17,"items":[{"name":"김밥나라","tel":"031-745-9656","addr":"경기도 성남시 중원구 금광동 4097번지","indutype":"","category":"other"}]},{"lat":"37.4474089","long":"127.1638177","imageIndex":17,"items":[{"name":"김현구 영어클리닉","tel":"031-781-5605","addr":"경기도 성남시 중원구 금광동 3496번지","indutype":"","category":"other"}]},{"lat":"37.444498","long":"127.1575736","imageIndex":17,"items":[{"name":"꺼먹돌웰빙쌈밥","tel":"031-732-2537","addr":"경기도 성남시 중원구 금광동 5번지","indutype":"","category":"other"}]},{"lat":"37.4405542","long":"127.1624244","imageIndex":17,"items":[{"name":"꽃선물나라","tel":"031-734-9887","addr":"경기도 성남시 중원구 금광동 145번지","indutype":"","category":"other"}]},{"lat":"37.4460817","long":"127.1657925","imageIndex":17,"items":[{"name":"낙지마당","tel":"031-734-8882","addr":"경기도 성남시 중원구 금광동 1789번지","indutype":"","category":"other"},{"name":"신구건강원","tel":"031-741-6557","addr":"경기도 성남시 중원구 금광동 1789번지","indutype":"","category":"other"}]},{"lat":"37.4454992","long":"127.1634859","imageIndex":17,"items":[{"name":"노랑통닭 신구대점","tel":"031-746-8799","addr":"경기도 성남시 중원구 금광동 1366번지","indutype":"","category":"other"},{"name":"천국김밥","tel":"031-741-3433","addr":"경기도 성남시 중원구 금광동 1366번지","indutype":"","category":"other"}]},{"lat":"37.4451062","long":"127.1609537","imageIndex":17,"items":[{"name":"농수산물장터","tel":"031-744-0221","addr":"경기도 성남시 중원구 금광동 3707번지","indutype":"","category":"other"}]},{"lat":"37.4510811","long":"127.160017","imageIndex":17,"items":[{"name":"눈빛안경","tel":"031-745-0123","addr":"경기도 성남시 중원구 금광동 4662번지","indutype":"","category":"other"}]},{"lat":"37.4412199","long":"127.1631829","imageIndex":17,"items":[{"name":"뉴명성학원","tel":"031-742-8868","addr":"경기도 성남시 중원구 금광동 636번지","indutype":"","category":"other"},{"name":"복농장생고기숯불구이","tel":"031-748-2413","addr":"경기도 성남시 중원구 금광동 636번지","indutype":"","category":"other"}]},{"lat":"37.4446109","long":"127.160738","imageIndex":17,"items":[{"name":"단대수족관","tel":"031-745-5729","addr":"경기도 성남시 중원구 금광동 354번지","indutype":"","category":"other"}]},{"lat":"37.4466396","long":"127.1663474","imageIndex":17,"items":[{"name":"달떡볶이 성남신구대점","tel":"031-747-1525","addr":"경기도 성남시 중원구 금광동 3119번지","indutype":"","category":"other"}]},{"lat":"37.4458885","long":"127.1620967","imageIndex":17,"items":[{"name":"대우유리","tel":"031-744-2715","addr":"경기도 성남시 중원구 금광동 3673번지","indutype":"","category":"other"}]},{"lat":"37.4468296","long":"127.1657602","imageIndex":17,"items":[{"name":"더한스 (The Han's)","tel":"031-747-1427","addr":"경기도 성남시 중원구 금광동 3088-1번지","indutype":"","category":"other"}]},{"lat":"37.4455531","long":"127.1636216","imageIndex":17,"items":[{"name":"돈사무소","tel":"031-745-0592","addr":"경기도 성남시 중원구 금광동 1367번지","indutype":"","category":"other"}]},{"lat":"37.4463263","long":"127.1648776","imageIndex":17,"items":[{"name":"동아컴퓨터학원","tel":"031-741-5230","addr":"경기도 성남시 중원구 금광동 3128번지","indutype":"","category":"other"}]},{"lat":"37.4468304","long":"127.1651499","imageIndex":17,"items":[{"name":"두루코퍼레이션","tel":"070-7694-4399","addr":"경기도 성남시 중원구 금광동 3156번지","indutype":"","category":"other"}]},{"lat":"37.4501357","long":"127.1661742","imageIndex":17,"items":[{"name":"드리다","tel":"070-7520-4736","addr":"경기도 성남시 중원구 금광동 2819번지","indutype":"","category":"other"},{"name":"플라워순","tel":"031-733-3113","addr":"경기도 성남시 중원구 금광동 2819번지","indutype":"","category":"other"}]},{"lat":"37.446246","long":"127.1642333","imageIndex":17,"items":[{"name":"드림디포 금광점","tel":"031-735-3801","addr":"경기도 성남시 중원구 금광동 3652번지","indutype":"","category":"other"}]},{"lat":"37.4452451","long":"127.1581515","imageIndex":17,"items":[{"name":"땅땅치킨 금광동점","tel":"031-735-9990","addr":"경기도 성남시 중원구 금광동 4357번지","indutype":"","category":"other"}]},{"lat":"37.4510527","long":"127.1676454","imageIndex":17,"items":[{"name":"떡나라떡집","tel":"031-749-0156","addr":"경기도 성남시 중원구 금광동 2732번지","indutype":"","category":"other"}]},{"lat":"37.4504946","long":"127.1606486","imageIndex":17,"items":[{"name":"또래오래(금광점)","tel":"031-735-9945","addr":"경기도 성남시 중원구 금광동 4068번지","indutype":"","category":"other"}]},{"lat":"37.4448823","long":"127.1599814","imageIndex":17,"items":[{"name":"마찌야","tel":"031-736-1290","addr":"경기도 성남시 중원구 금광동 3732번지","indutype":"","category":"other"}]},{"lat":"37.4469648","long":"127.1657379","imageIndex":17,"items":[{"name":"맛고기집","tel":"031-745-3933","addr":"경기도 성남시 중원구 금광동 3088번지","indutype":"","category":"other"}]},{"lat":"37.4496865","long":"127.1652352","imageIndex":17,"items":[{"name":"맛나떡방아간","tel":"031-733-9189","addr":"경기도 성남시 중원구 금광동 2929번지","indutype":"","category":"other"}]},{"lat":"37.450055","long":"127.1658689","imageIndex":17,"items":[{"name":"매일로","tel":"","addr":"경기도 성남시 중원구 금광동 2881번지","indutype":"","category":"other"},{"name":"오복한우명가","tel":"031-743-2487","addr":"경기도 성남시 중원구 금광동 2881번지","indutype":"","category":"other"}]},{"lat":"37.4464934","long":"127.1678162","imageIndex":17,"items":[{"name":"매콤시","tel":"031-745-8259","addr":"경기도 성남시 중원구 금광동 2403번지","indutype":"","category":"other"}]},{"lat":"37.4453577","long":"127.1615419","imageIndex":17,"items":[{"name":"맥켄치킨","tel":"031-746-5600","addr":"경기도 성남시 중원구 금광동 3703번지","indutype":"","category":"other"}]},{"lat":"37.4462443","long":"127.1588203","imageIndex":17,"items":[{"name":"머리쟁이","tel":"031-731-2613","addr":"경기도 성남시 중원구 금광동 4309번지","indutype":"","category":"other"}]},{"lat":"37.4497472","long":"127.1603193","imageIndex":17,"items":[{"name":"면가면","tel":"031-732-3393","addr":"경기도 성남시 중원구 금광동 4126번지","indutype":"","category":"other"}]},{"lat":"37.4449099","long":"127.1595181","imageIndex":17,"items":[{"name":"명성숯불갈비","tel":"031-745-1852","addr":"경기도 성남시 중원구 금광동 3736번지","indutype":"","category":"other"},{"name":"민트보석","tel":"031-744-5505","addr":"경기도 성남시 중원구 금광동 3736번지","indutype":"","category":"other"},{"name":"행복떡전문점","tel":"031-733-1199","addr":"경기도 성남시 중원구 금광동 3736번지","indutype":"","category":"other"}]},{"lat":"37.4451649","long":"127.1574846","imageIndex":17,"items":[{"name":"명약국","tel":"031-747-5333","addr":"경기도 성남시 중원구 금광동 4363번지","indutype":"","category":"other"}]},{"lat":"37.4461598","long":"127.1613967","imageIndex":17,"items":[{"name":"명품수선","tel":"031-735-0665","addr":"경기도 성남시 중원구 금광동 3593번지","indutype":"","category":"other"}]},{"lat":"37.4472463","long":"127.1641564","imageIndex":17,"items":[{"name":"무지개세탁소","tel":"031-735-0809","addr":"경기도 성남시 중원구 금광동 3197번지","indutype":"","category":"other"}]},{"lat":"37.4460249","long":"127.1677925","imageIndex":17,"items":[{"name":"미래인재 사관 학원","tel":"031-731-6784","addr":"경기도 성남시 중원구 금광동 2360번지","indutype":"","category":"other"}]},{"lat":"37.4505511","long":"127.1654857","imageIndex":17,"items":[{"name":"민포토","tel":"031-742-6766","addr":"경기도 성남시 중원구 금광동 2887번지","indutype":"","category":"other"},{"name":"쭈꾸미아저씨 금광점","tel":"031-735-3332","addr":"경기도 성남시 중원구 금광동 2887번지","indutype":"","category":"other"}]},{"lat":"37.4495535","long":"127.1636528","imageIndex":17,"items":[{"name":"믿음슈퍼","tel":"031-734-8366","addr":"경기도 성남시 중원구 금광동 3338번지","indutype":"","category":"other"}]},{"lat":"37.4448318","long":"127.1572353","imageIndex":17,"items":[{"name":"백제종합장식","tel":"031-734-3668","addr":"경기도 성남시 중원구 금광동 1번지","indutype":"","category":"other"}]},{"lat":"37.4465252","long":"127.1643695","imageIndex":17,"items":[{"name":"벼락가우리","tel":"031-745-9289","addr":"경기도 성남시 중원구 금광동 3150번지","indutype":"","category":"other"}]},{"lat":"37.4457752","long":"127.15926","imageIndex":17,"items":[{"name":"보브헤어샵","tel":"031-741-8468","addr":"경기도 성남시 중원구 금광동 4295번지","indutype":"","category":"other"}]},{"lat":"37.4534133","long":"127.161039","imageIndex":17,"items":[{"name":"봄 안경 콘텍트","tel":"031-755-9952","addr":"경기도 성남시 중원구 금광동 4827번지","indutype":"","category":"other"}]},{"lat":"37.446027","long":"127.1596561","imageIndex":17,"items":[{"name":"부일숯불갈비","tel":"031-749-8682","addr":"경기도 성남시 중원구 금광동 3803번지","indutype":"","category":"other"}]},{"lat":"37.4515763","long":"127.1602327","imageIndex":17,"items":[{"name":"블럭제빵소 남한산성역점","tel":"031-745-9900","addr":"경기도 성남시 중원구 금광동 4699번지","indutype":"","category":"other"}]},{"lat":"37.4481614","long":"127.160316","imageIndex":17,"items":[{"name":"블레싱헤어","tel":"031-732-1501","addr":"경기도 성남시 중원구 금광동 4232번지","indutype":"","category":"other"}]},{"lat":"37.4441893","long":"127.1593697","imageIndex":17,"items":[{"name":"뿅의전설 금광점","tel":"031-746-9272","addr":"경기도 성남시 중원구 금광동 26번지","indutype":"","category":"other"}]},{"lat":"37.4413552","long":"127.1630702","imageIndex":17,"items":[{"name":"사진세상","tel":"031-749-0877","addr":"경기도 성남시 중원구 금광동 635번지","indutype":"","category":"other"}]},{"lat":"37.4493882","long":"127.1592675","imageIndex":17,"items":[{"name":"삼천리자전거","tel":"031-733-6181","addr":"경기도 성남시 중원구 금광동 4607번지","indutype":"","category":"other"}]},{"lat":"37.4428296","long":"127.1654577","imageIndex":17,"items":[{"name":"새로나슈퍼문구","tel":"031-741-3587","addr":"경기도 성남시 중원구 금광동 685번지","indutype":"","category":"other"}]},{"lat":"37.4500831","long":"127.1651231","imageIndex":17,"items":[{"name":"새바람미용실","tel":"031-734-4209","addr":"경기도 성남시 중원구 금광동 2899번지","indutype":"","category":"other"}]},{"lat":"37.4504967","long":"127.1657116","imageIndex":17,"items":[{"name":"새성남옵티마약국","tel":"031-731-0377","addr":"경기도 성남시 중원구 금광동 2877-3번지","indutype":"","category":"other"}]},{"lat":"37.4460563","long":"127.1579271","imageIndex":17,"items":[{"name":"성남기독백화점","tel":"031-735-1542","addr":"경기도 성남시 중원구 금광동 4398번지","indutype":"","category":"other"}]},{"lat":"37.445083","long":"127.1580381","imageIndex":17,"items":[{"name":"셀파컴퓨터회계학원","tel":"031-748-1425","addr":"경기도 성남시 중원구 금광동 4359번지","indutype":"","category":"other"}]},{"lat":"37.4451881","long":"127.1603437","imageIndex":17,"items":[{"name":"신선오리","tel":"031-745-7123","addr":"경기도 성남시 중원구 금광동 3715번지","indutype":"","category":"other"}]},{"lat":"37.4448821","long":"127.1601283","imageIndex":17,"items":[{"name":"쏘자(SSOJA)핫도그","tel":"031-733-0031","addr":"경기도 성남시 중원구 금광동 3731번지","indutype":"","category":"other"},{"name":"안경마을(단대오거리점)","tel":"031-748-0922","addr":"경기도 성남시 중원구 금광동 3731번지","indutype":"","category":"other"}]},{"lat":"37.4456593","long":"127.1583444","imageIndex":17,"items":[{"name":"아르본헤어","tel":"031-605-3226","addr":"경기도 성남시 중원구 금광동 4376번지","indutype":"","category":"other"}]},{"lat":"37.4503615","long":"127.1657565","imageIndex":17,"items":[{"name":"아리따움 신구대점","tel":"031-733-4964","addr":"경기도 성남시 중원구 금광동 2878-1번지","indutype":"","category":"other"}]},{"lat":"37.4456601","long":"127.1577342","imageIndex":17,"items":[{"name":"아이데코안경 단대오거리역점","tel":"031-742-1001","addr":"경기도 성남시 중원구 금광동 4394번지","indutype":"","category":"other"},{"name":"아이마트 안경콘택트","tel":"031-733-7789","addr":"경기도 성남시 중원구 금광동 4394번지","indutype":"","category":"other"}]},{"lat":"37.4418586","long":"127.1638962","imageIndex":17,"items":[{"name":"아이티 코리아","tel":"031-743-1246","addr":"경기도 성남시 중원구 금광동 663번지","indutype":"","category":"other"}]},{"lat":"37.4463841","long":"127.1686748","imageIndex":17,"items":[{"name":"아이티컴퍼니(IT Company)","tel":"031-607-5140","addr":"경기도 성남시 중원구 금광동 2382번지","indutype":"","category":"other"}]},{"lat":"37.4508827","long":"127.1667861","imageIndex":17,"items":[{"name":"아주지물","tel":"031-732-7548","addr":"경기도 성남시 중원구 금광동 2756번지","indutype":"","category":"other"}]},{"lat":"37.4422191","long":"127.1638179","imageIndex":17,"items":[{"name":"알뜰유통 할인점","tel":"031-736-1666","addr":"경기도 성남시 중원구 금광동 710번지 부성쉐르빌","indutype":"","category":"other"}]},{"lat":"37.45022","long":"127.1638463","imageIndex":17,"items":[{"name":"앞선영어학원","tel":"031-744-1305","addr":"경기도 성남시 중원구 금광동 3324번지","indutype":"","category":"other"},{"name":"지엠에이개념원리수학","tel":"031-746-9981","addr":"경기도 성남시 중원구 금광동 3324번지","indutype":"","category":"other"}]},{"lat":"37.4478572","long":"127.1587106","imageIndex":17,"items":[{"name":"애니카랜드 금광점","tel":"031-741-9127","addr":"경기도 성남시 중원구 금광동 4475번지","indutype":"","category":"other"}]},{"lat":"37.4467423","long":"127.1637032","imageIndex":17,"items":[{"name":"언니뻥튀기","tel":"","addr":"경기도 성남시 중원구 금광동 3631번지","indutype":"","category":"other"}]},{"lat":"37.4515755","long":"127.1608995","imageIndex":17,"items":[{"name":"에스마트","tel":"031-749-2209","addr":"경기도 성남시 중원구 금광동 4707번지","indutype":"","category":"other"}]},{"lat":"37.4451104","long":"127.1577896","imageIndex":17,"items":[{"name":"연 스튜디오","tel":"031-748-9731","addr":"경기도 성남시 중원구 금광동 4360번지","indutype":"","category":"other"}]},{"lat":"37.4468008","long":"127.1670145","imageIndex":17,"items":[{"name":"연세치과의원","tel":"031-742-8135","addr":"경기도 성남시 중원구 금광동 3115번지","indutype":"","category":"other"},{"name":"포커스안경","tel":"031-749-0130","addr":"경기도 성남시 중원구 금광동 3115번지","indutype":"","category":"other"}]},{"lat":"37.4451601","long":"127.1611007","imageIndex":17,"items":[{"name":"예쁜브라","tel":"","addr":"경기도 성남시 중원구 금광동 3706-3번지","indutype":"","category":"other"}]},{"lat":"37.4453899","long":"127.1576545","imageIndex":17,"items":[{"name":"오늘도 쭈꾸미","tel":"031-731-8919","addr":"경기도 성남시 중원구 금광동 4367번지","indutype":"","category":"other"}]},{"lat":"37.4450794","long":"127.1608181","imageIndex":17,"items":[{"name":"오복떡집","tel":"031-749-2399","addr":"경기도 성남시 중원구 금광동 3708번지","indutype":"","category":"other"},{"name":"이미지파인더","tel":"031-736-4402","addr":"경기도 성남시 중원구 금광동 3708번지","indutype":"","category":"other"}]},{"lat":"37.4501903","long":"127.1658127","imageIndex":17,"items":[{"name":"오복슈퍼","tel":"031-745-4989","addr":"경기도 성남시 중원구 금광동 2880번지","indutype":"","category":"other"}]},{"lat":"37.4461097","long":"127.1584019","imageIndex":17,"items":[{"name":"오복식당","tel":"031-745-3210","addr":"경기도 성남시 중원구 금광동 4420번지","indutype":"","category":"other"}]},{"lat":"37.4507752","long":"127.1663225","imageIndex":17,"items":[{"name":"와글와글감자탕","tel":"031-742-3524","addr":"경기도 성남시 중원구 금광동 2870번지","indutype":"","category":"other"}]},{"lat":"37.4454417","long":"127.1593723","imageIndex":17,"items":[{"name":"왕서방","tel":"031-743-5449","addr":"경기도 성남시 중원구 금광동 3756번지","indutype":"","category":"other"}]},{"lat":"37.4505756","long":"127.1606827","imageIndex":17,"items":[{"name":"우리문구","tel":"031-747-5967","addr":"경기도 성남시 중원구 금광동 4057번지","indutype":"","category":"other"}]},{"lat":"37.4495761","long":"127.1602398","imageIndex":17,"items":[{"name":"우리식당","tel":"031-735-1676","addr":"경기도 성남시 중원구 금광동 4128번지","indutype":"","category":"other"}]},{"lat":"37.4454651","long":"127.1620732","imageIndex":17,"items":[{"name":"우리집반찬","tel":"031-733-4001","addr":"경기도 성남시 중원구 금광동 3700번지","indutype":"","category":"other"}]},{"lat":"37.447056","long":"127.1582343","imageIndex":17,"items":[{"name":"우촌고기백화점","tel":"031-746-5557","addr":"경기도 성남시 중원구 금광동 4462번지","indutype":"","category":"other"}]},{"lat":"37.4452749","long":"127.1627848","imageIndex":17,"items":[{"name":"원할머니보쌈 신구대점","tel":"031-732-8558","addr":"경기도 성남시 중원구 금광동 1354번지","indutype":"","category":"other"},{"name":"키커리키","tel":"031-747-6292","addr":"경기도 성남시 중원구 금광동 1354번지","indutype":"","category":"other"}]},{"lat":"37.446884","long":"127.1654891","imageIndex":17,"items":[{"name":"월드유통(금광점)","tel":"031-733-6552","addr":"경기도 성남시 중원구 금광동 3160번지","indutype":"","category":"other"},{"name":"통일식당","tel":"031-741-1639","addr":"경기도 성남시 중원구 금광동 3160번지","indutype":"","category":"other"}]},{"lat":"37.4485226","long":"127.1663967","imageIndex":17,"items":[{"name":"유명가든","tel":"031-742-4854","addr":"경기도 성남시 중원구 금광동 3034번지","indutype":"","category":"other"}]},{"lat":"37.4467202","long":"127.1667092","imageIndex":17,"items":[{"name":"유명춘천닭갈비","tel":"031-734-0705","addr":"경기도 성남시 중원구 금광동 3117번지","indutype":"","category":"other"}]},{"lat":"37.4449991","long":"127.1602303","imageIndex":17,"items":[{"name":"은성청과","tel":"031-731-4585","addr":"경기도 성남시 중원구 금광동 3749번지","indutype":"","category":"other"}]},{"lat":"37.4462774","long":"127.1610353","imageIndex":17,"items":[{"name":"응급실국물떡볶이 (금광점)","tel":"031-748-1119","addr":"경기도 성남시 중원구 금광동 3854번지","indutype":"","category":"other"},{"name":"피자나라 치킨공주","tel":"031-743-9286","addr":"경기도 성남시 중원구 금광동 3854번지","indutype":"","category":"other"}]},{"lat":"37.4508289","long":"127.1665712","imageIndex":17,"items":[{"name":"이지컴","tel":"031-1644-1587","addr":"경기도 성남시 중원구 금광동 2867번지","indutype":"","category":"other"}]},{"lat":"37.4458043","long":"127.1644019","imageIndex":17,"items":[{"name":"일신종합공구","tel":"031-742-7366","addr":"경기도 성남시 중원구 금광동 1375번지","indutype":"","category":"other"}]},{"lat":"37.4450278","long":"127.1589308","imageIndex":17,"items":[{"name":"장가네","tel":"031-748-3079","addr":"경기도 성남시 중원구 금광동 4351번지","indutype":"","category":"other"}]},{"lat":"37.4469728","long":"127.1664611","imageIndex":17,"items":[{"name":"장강","tel":"031-733-8315","addr":"경기도 성남시 중원구 금광동 3099번지","indutype":"","category":"other"}]},{"lat":"37.4478021","long":"127.1595129","imageIndex":17,"items":[{"name":"장원공판장","tel":"031-734-1110","addr":"경기도 성남시 중원구 금광동 4260번지","indutype":"","category":"other"}]},{"lat":"37.4414403","long":"127.1600985","imageIndex":17,"items":[{"name":"장원화로구이","tel":"031-749-9905","addr":"경기도 성남시 중원구 금광동 108번지","indutype":"","category":"other"}]},{"lat":"37.4506665","long":"127.1600952","imageIndex":17,"items":[{"name":"재이뷰티샵","tel":"031-735-7599","addr":"경기도 성남시 중원구 금광동 4638번지","indutype":"","category":"other"}]},{"lat":"37.4453053","long":"127.1602874","imageIndex":17,"items":[{"name":"전라도원조추어탕","tel":"031-731-6055","addr":"경기도 성남시 중원구 금광동 3729번지","indutype":"","category":"other"}]},{"lat":"37.4485778","long":"127.1589042","imageIndex":17,"items":[{"name":"정가네어죽마을","tel":"031-731-2288","addr":"경기도 성남시 중원구 금광동 4542번지","indutype":"","category":"other"}]},{"lat":"37.4452773","long":"127.1610445","imageIndex":17,"items":[{"name":"종로해장국","tel":"031-731-3039","addr":"경기도 성남시 중원구 금광동 3706번지","indutype":"","category":"other"}]},{"lat":"37.4511335","long":"127.167849","imageIndex":17,"items":[{"name":"준헤어","tel":"","addr":"경기도 성남시 중원구 금광동 2724번지","indutype":"","category":"other"}]},{"lat":"37.4501352","long":"127.1598681","imageIndex":17,"items":[{"name":"진로마트 금광점","tel":"031-749-7001","addr":"경기도 성남시 중원구 금광동 4622번지","indutype":"","category":"other"}]},{"lat":"37.4511609","long":"127.1609552","imageIndex":17,"items":[{"name":"진주","tel":"031-734-6409","addr":"경기도 성남시 중원구 금광동 4017번지","indutype":"","category":"other"}]},{"lat":"37.4448621","long":"127.1615408","imageIndex":17,"items":[{"name":"쭈꾸미아저씨","tel":"031-744-7770","addr":"경기도 성남시 중원구 금광동 358번지","indutype":"","category":"other"}]},{"lat":"37.4508558","long":"127.1667069","imageIndex":17,"items":[{"name":"착한푸줏간 금광점","tel":"031-629-9292","addr":"경기도 성남시 중원구 금광동 2757번지","indutype":"","category":"other"}]},{"lat":"37.4466934","long":"127.1665396","imageIndex":17,"items":[{"name":"참진짜장","tel":"031-742-0845","addr":"경기도 성남시 중원구 금광동 3118번지","indutype":"","category":"other"}]},{"lat":"37.4470824","long":"127.1653991","imageIndex":17,"items":[{"name":"천일정육점","tel":"031-732-6493","addr":"경기도 성남시 중원구 금광동 3161번지","indutype":"","category":"other"}]},{"lat":"37.4506033","long":"127.1602307","imageIndex":17,"items":[{"name":"청바지옷가게(금광청바지)","tel":"031-748-9791","addr":"경기도 성남시 중원구 금광동 4639번지","indutype":"","category":"other"}]},{"lat":"37.4447994","long":"127.1612921","imageIndex":17,"items":[{"name":"청연","tel":"031-743-3332","addr":"경기도 성남시 중원구 금광동 357번지","indutype":"","category":"other"}]},{"lat":"37.4465527","long":"127.164008","imageIndex":17,"items":[{"name":"초원식당","tel":"031-743-0073","addr":"경기도 성남시 중원구 금광동 3649번지","indutype":"","category":"other"}]},{"lat":"37.4469127","long":"127.1642913","imageIndex":17,"items":[{"name":"총각네고깃간","tel":"031-743-6010","addr":"경기도 성남시 중원구 금광동 3171번지","indutype":"","category":"other"},{"name":"하이스트보습학원","tel":"031-747-1179","addr":"경기도 성남시 중원구 금광동 3171번지","indutype":"","category":"other"}]},{"lat":"37.4462724","long":"127.158018","imageIndex":17,"items":[{"name":"최상위수학학원","tel":"031-733-1114","addr":"경기도 성남시 중원구 금광동 4400번지","indutype":"","category":"other"}]},{"lat":"37.4471629","long":"127.16584","imageIndex":17,"items":[{"name":"춘천방앗간","tel":"031-743-7344","addr":"경기도 성남시 중원구 금광동 3077번지","indutype":"","category":"other"}]},{"lat":"37.4452728","long":"127.1575978","imageIndex":17,"items":[{"name":"춘천원조닭갈비","tel":"031-733-3112","addr":"경기도 성남시 중원구 금광동 4364번지","indutype":"","category":"other"}]},{"lat":"37.4465501","long":"127.1658726","imageIndex":17,"items":[{"name":"캔디스토리","tel":"031-602-1166","addr":"경기도 성남시 중원구 금광동 3123번지","indutype":"","category":"other"}]},{"lat":"37.4473278","long":"127.1638401","imageIndex":17,"items":[{"name":"커피나무","tel":"031-747-4381","addr":"경기도 성남시 중원구 금광동 3497번지","indutype":"","category":"other"}]},{"lat":"37.4459979","long":"127.1612042","imageIndex":17,"items":[{"name":"코사할인마트","tel":"031-731-9488","addr":"경기도 성남시 중원구 금광동 3822번지","indutype":"","category":"other"}]},{"lat":"37.4448824","long":"127.1598684","imageIndex":17,"items":[{"name":"킹스타피자 단대오거리점","tel":"031-735-9399","addr":"경기도 성남시 중원구 금광동 3733번지","indutype":"","category":"other"}]},{"lat":"37.4471361","long":"127.1656817","imageIndex":17,"items":[{"name":"티바치킨앤펍","tel":"031-731-9294","addr":"경기도 성남시 중원구 금광동 3087번지","indutype":"","category":"other"}]},{"lat":"37.4488827","long":"127.1599559","imageIndex":17,"items":[{"name":"파마나라미용실","tel":"031-731-5102","addr":"경기도 성남시 중원구 금광동 4196번지","indutype":"","category":"other"}]},{"lat":"37.4454454","long":"127.1632936","imageIndex":17,"items":[{"name":"파크랜드성남점","tel":"031-743-0415","addr":"경기도 성남시 중원구 금광동 1363번지","indutype":"","category":"other"}]},{"lat":"37.4481366","long":"127.1653449","imageIndex":17,"items":[{"name":"파파준피자","tel":"031-745-7453","addr":"경기도 성남시 중원구 금광동 3000번지","indutype":"","category":"other"}]},{"lat":"37.4453288","long":"127.1629318","imageIndex":17,"items":[{"name":"편의24시마트","tel":"031-731-4769","addr":"경기도 성남시 중원구 금광동 1357번지","indutype":"","category":"other"},{"name":"편의점24시마트","tel":"031-731-4769","addr":"경기도 성남시 중원구 금광동 1357번지","indutype":"","category":"other"}]},{"lat":"37.4498847","long":"127.1652356","imageIndex":17,"items":[{"name":"포인트헤어 금광점","tel":"031-732-0732","addr":"경기도 성남시 중원구 금광동 2893번지","indutype":"","category":"other"}]},{"lat":"37.4478599","long":"127.1634344","imageIndex":17,"items":[{"name":"포청천","tel":"031-742-6605","addr":"경기도 성남시 중원구 금광동 3488번지","indutype":"","category":"other"}]},{"lat":"37.4464666","long":"127.167624","imageIndex":17,"items":[{"name":"포토매니아","tel":"031-747-1507","addr":"경기도 성남시 중원구 금광동 2401번지","indutype":"","category":"other"}]},{"lat":"37.4488058","long":"127.1635947","imageIndex":17,"items":[{"name":"푸른농산","tel":"031-743-4133","addr":"경기도 성남시 중원구 금광동 3246번지","indutype":"","category":"other"}]},{"lat":"37.4440009","long":"127.1587591","imageIndex":17,"items":[{"name":"풍미오리","tel":"031-744-6967","addr":"경기도 성남시 중원구 금광동 22번지","indutype":"","category":"other"}]},{"lat":"37.4421905","long":"127.1649591","imageIndex":17,"items":[{"name":"풍천민물장어","tel":"031-733-8076","addr":"경기도 성남시 중원구 금광동 674번지","indutype":"","category":"other"}]},{"lat":"37.4424151","long":"127.1654568","imageIndex":17,"items":[{"name":"피아노이야기음악학원","tel":"031-733-9426","addr":"경기도 성남시 중원구 금광동 680번지","indutype":"","category":"other"}]},{"lat":"37.4500282","long":"127.1657106","imageIndex":17,"items":[{"name":"하라주쿠라멘","tel":"031-744-0105","addr":"경기도 성남시 중원구 금광동 2882번지","indutype":"","category":"other"}]},{"lat":"37.446805","long":"127.1640085","imageIndex":17,"items":[{"name":"하모니마트(금광)","tel":"031-742-2100","addr":"경기도 성남시 중원구 금광동 3628번지","indutype":"","category":"other"}]},{"lat":"37.4502467","long":"127.1640724","imageIndex":17,"items":[{"name":"한강마트","tel":"031-734-7262","addr":"경기도 성남시 중원구 금광동 3305번지","indutype":"","category":"other"}]},{"lat":"37.4495495","long":"127.1599008","imageIndex":17,"items":[{"name":"한양방앗간","tel":"031-747-7783","addr":"경기도 성남시 중원구 금광동 4586번지","indutype":"","category":"other"}]},{"lat":"37.4501663","long":"127.1635976","imageIndex":17,"items":[{"name":"한우리축산 금광점","tel":"031-741-8988","addr":"경기도 성남시 중원구 금광동 3326번지","indutype":"","category":"other"}]},{"lat":"37.446577","long":"127.1660082","imageIndex":17,"items":[{"name":"할매순대국 금광점","tel":"031-734-7292","addr":"경기도 성남시 중원구 금광동 3122번지","indutype":"","category":"other"}]},{"lat":"37.4533323","long":"127.1610162","imageIndex":17,"items":[{"name":"할인창고","tel":"031-741-5858","addr":"경기도 성남시 중원구 금광동 4816번지","indutype":"","category":"other"}]},{"lat":"37.4448556","long":"127.1597327","imageIndex":17,"items":[{"name":"행복꽃배달","tel":"031-734-0220","addr":"경기도 성남시 중원구 금광동 3734번지","indutype":"","category":"other"}]},{"lat":"37.4460544","long":"127.1593736","imageIndex":17,"items":[{"name":"헤어쭈니","tel":"031-747-7567","addr":"경기도 성남시 중원구 금광동 4292번지","indutype":"","category":"other"}]},{"lat":"37.4507467","long":"127.1607622","imageIndex":17,"items":[{"name":"현산정육점","tel":"031-733-0859","addr":"경기도 성남시 중원구 금광동 4044번지","indutype":"","category":"other"}]},{"lat":"37.4422999","long":"127.164044","imageIndex":17,"items":[{"name":"혜어여왕","tel":"031-741-3516","addr":"경기도 성남시 중원구 금광동 705번지","indutype":"","category":"other"}]},{"lat":"37.4458028","long":"127.1588194","imageIndex":17,"items":[{"name":"호세야오리바베큐","tel":"031-732-5293","addr":"경기도 성남시 중원구 금광동 4298번지","indutype":"","category":"other"}]},{"lat":"37.4450554","long":"127.1584901","imageIndex":17,"items":[{"name":"황제생고기","tel":"031-743-8824","addr":"경기도 성남시 중원구 금광동 4355번지","indutype":"","category":"other"}]},{"lat":"37.4463054","long":"127.166923","imageIndex":17,"items":[{"name":"희영서점","tel":"031-735-6237","addr":"경기도 성남시 중원구 금광동 1797번지","indutype":"","category":"other"}]}]