[{"lat":"37.205797158","long":"126.72748152","imageIndex":17,"items":[{"name":"GS25송산육일리점","tel":"","addr":"경기도 화성시 송산면 육일리 370-1번지 1층","indutype":"유통업 영리 - 편 의 점","category":"other"}]},{"lat":"37.203655538","long":"126.72484216","imageIndex":17,"items":[{"name":"가야묘목","tel":"031-388-1552","addr":"경기도 화성시 송산면 육일리 256-2","indutype":"농업 - 기타농업관련","category":"other"}]},{"lat":"37.203411546","long":"126.72453892","imageIndex":17,"items":[{"name":"가온소파","tel":"031-356-7260","addr":"경기도 화성시 송산면 육일리 415-9번지 1동, 2동","indutype":"가구 - 일반가구","category":"other"}]},{"lat":"37.20027188","long":"126.72281581","imageIndex":17,"items":[{"name":"나성상사","tel":"031-355-6651","addr":"경기도 화성시 송산면 육일리 603-1번지","indutype":"건축자재 - 기타건축자재","category":"other"}]},{"lat":"37.201823749","long":"126.72369994","imageIndex":17,"items":[{"name":"남서울낚시","tel":"031-855-8216","addr":"경기도 화성시 송산면 육일리 427-6번지 1층","indutype":"레져용품 - 스포츠·레져용품","category":"other"},{"name":"씨유화성부점","tel":"031-355-0552","addr":"경기도 화성시 송산면 육일리 427-6번지","indutype":"유통업 영리 - 편 의 점","category":"other"}]},{"lat":"37.204208882","long":"126.72642843","imageIndex":17,"items":[{"name":"만통상사","tel":"031-357-8276","addr":"경기도 화성시 송산면 육일리 399번지","indutype":"기타 - 기계공구","category":"other"}]},{"lat":"37.207654879","long":"126.72050173","imageIndex":17,"items":[{"name":"비엠알브이(BM.RV)","tel":"031-356-0654","addr":"경기도 화성시 송산면 육일리 74-25번지","indutype":"레져용품 - 스포츠·레져용품","category":"other"}]},{"lat":"37.208409644","long":"126.71962024","imageIndex":17,"items":[{"name":"사단법인 나눔놀이터이음","tel":"031-355-1769","addr":"경기도 화성시 송산면 육일리 87번지 1층","indutype":"문화.취미 - 문화취미기타","category":"other"},{"name":"이음","tel":"031-356-7821","addr":"경기도 화성시 송산면 육일리 87번지","indutype":"주방용구 - 주방용식기","category":"other"}]},{"lat":"37.203323979","long":"126.72562062","imageIndex":17,"items":[{"name":"세븐일레븐송산화성로점","tel":"","addr":"경기도 화성시 송산면 육일리 413-3번지","indutype":"유통업 영리 - 편 의 점","category":"other"},{"name":"세븐일레븐송산화성로점","tel":"031-1577-0711","addr":"경기도 화성시 송산면 육일리 413-3번지 1층","indutype":"유통업 영리 - 편 의 점","category":"other"}]},{"lat":"37.202737651","long":"126.72534116","imageIndex":17,"items":[{"name":"송산플라워","tel":"031-355-9299","addr":"경기도 화성시 송산면 육일리 412-2번지","indutype":"문화.취미 - 화원","category":"other"}]},{"lat":"37.206376507","long":"126.72863969","imageIndex":17,"items":[{"name":"스타마린","tel":"070-4217-7731","addr":"경기도 화성시 송산면 육일리 312-1번지","indutype":"기타 - 기계공구","category":"other"}]},{"lat":"37.205264765","long":"126.72714551","imageIndex":17,"items":[{"name":"스타티앤비","tel":"031-356-4367","addr":"경기도 화성시 송산면 육일리 372-2번지","indutype":"레져용품 - 스포츠·레져용품","category":"other"}]},{"lat":"37.205069182","long":"126.72828395","imageIndex":17,"items":[{"name":"에프엠 ENG","tel":"031-356-1142","addr":"경기도 화성시 송산면 육일리 371-1번지 1동","indutype":"기타 - 기계공구","category":"other"}]},{"lat":"37.206099585","long":"126.71819825","imageIndex":17,"items":[{"name":"윤선생애견훈련소","tel":"02-1111-1111","addr":"경기도 화성시 송산면 육일리 75-1번지","indutype":"문화.취미 - 애완동물","category":"other"}]},{"lat":"37.207130509","long":"126.7197602","imageIndex":17,"items":[{"name":"장일테크","tel":"031-356-7072","addr":"경기도 화성시 송산면 육일리 76-23","indutype":"신변잡화 - 기타잡화","category":"other"}]},{"lat":"37.202049271","long":"126.72381175","imageIndex":17,"items":[{"name":"주식회사 금원웰딩","tel":"031-356-5719","addr":"경기도 화성시 송산면 육일리 427-5번지 일선빌딩 101호","indutype":"기타 - 기계공구","category":"other"}]},{"lat":"37.205548172","long":"126.72503799","imageIndex":17,"items":[{"name":"주식회사 에이치하우징세라믹","tel":"031-357-5824","addr":"경기도 화성시 송산면 육일리 266-1번지","indutype":"건축자재 - 건축용 요업제품","category":"other"}]},{"lat":"37.20321382","long":"126.72861734","imageIndex":17,"items":[{"name":"주식회사 피엘코리아","tel":"031-494-0982","addr":"경기도 화성시 송산면 육일리 409-9번지","indutype":"기타 - 기계공구","category":"other"}]},{"lat":"37.207934414","long":"126.72439839","imageIndex":17,"items":[{"name":"클레이스타(clay star)","tel":"","addr":"경기도 화성시 송산면 육일리 145-5","indutype":"문화.취미 - 민예·공예품","category":"other"}]},{"lat":"37.197131245","long":"126.72450566","imageIndex":17,"items":[{"name":"화성산업용포장","tel":"","addr":"경기도 화성시 송산면 육일리 655번지 104호","indutype":"유통업 영리 - 기타유통업","category":"other"}]}]