[{"lat":"37.777785826","long":"126.77537435","items":[{"name":"(재)낙원공원","tel":"031-941-6200","addr":"경기도 파주시 야동동 산17-1번지","category":"기타 - 기타 전문점"}]},{"lat":"37.773005532","long":"126.75490184","items":[{"name":"(주)1급하나자동차공업사","tel":"031-944-7735","addr":"경기도 파주시 야동동 815번지","category":"자동차정비 유지 - 자동차부품"},{"name":"병천아우내순대국","tel":"031-945-7211","addr":"경기도 파주시 야동동 815","category":"일반휴게음식 - 일반한식"},{"name":"하나자동차공업사","tel":"031-944-7735","addr":"경기도 파주시 야동동 815번지","category":"자동차정비 유지 - 자동차정비"}]},{"lat":"37.775087139","long":"126.7550992","items":[{"name":"(주)오주","tel":"031-945-8400","addr":"경기도 파주시 야동동 633","category":"유통업 영리 - 기타유통업"}]},{"lat":"37.778777842","long":"126.76671041","items":[{"name":"(주)한빛자동차공업사","tel":"031-949-4882","addr":"경기도 파주시 야동동 225-3번지","category":"자동차정비 유지 - 자동차정비"}]},{"lat":"37.769587538","long":"126.76639915","items":[{"name":"35명가","tel":"031-945-9456","addr":"경기도 파주시 야동동 93-6번지","category":"일반휴게음식 - 일반한식"}]},{"lat":"37.774502595","long":"126.76435177","items":[{"name":"9사단에버나인 어린이집[아이행복]","tel":"031-946-8274","addr":"경기도 파주시 야동동 141번지 에버나인","category":"학원 - 유아원"},{"name":"쭈리네옷장","tel":"031-753-2093","addr":"경기도 파주시 야동동 141번지 에버나인","category":"의류 - 아동의류"},{"name":"최스","tel":"","addr":"경기도 파주시 야동동 141번지 에버나인","category":"주방용구 - 주방용식기"}]},{"lat":"37.781339322","long":"126.76362601","items":[{"name":"GS25월롱산로점","tel":"","addr":"경기도 파주시 야동동 257-5번지","category":"유통업 영리 - 편 의 점"},{"name":"그린편의점","tel":"031-946-9833","addr":"경기도 파주시 야동동 257-5번지","category":"유통업 영리 - 편 의 점"},{"name":"오복떡집","tel":"031-943-0786","addr":"경기도 파주시 야동동 257-5번지","category":"음료식품 - 제과점"}]},{"lat":"37.773061189","long":"126.75140578","items":[{"name":"GS25파주평화점","tel":"","addr":"경기도 파주시 야동동 589-12번지","category":"유통업 영리 - 편 의 점"},{"name":"명가떡방","tel":"031-947-8624","addr":"경기도 파주시 야동동 589-12번지 10","category":"음료식품 - 제과점"},{"name":"헬로건어물언니","tel":"","addr":"경기도 파주시 야동동 589-12번지","category":"음료식품 - 농·축·수산품"}]},{"lat":"37.772673427","long":"126.76423279","items":[{"name":"JN자동차공업사","tel":"031-943-5575","addr":"경기도 파주시 야동동 151-3번지","category":"자동차정비 유지 - 자동차정비"},{"name":"신일산디젤","tel":"070-4131-1382","addr":"경기도 파주시 야동동 151-3번지","category":"자동차정비 유지 - 자동차정비"},{"name":"오뚜기포차","tel":"031-942-7099","addr":"경기도 파주시 야동동 151-3번지","category":"일반휴게음식 - 일반한식"},{"name":"정헤어겔러리","tel":"070-7539-7256","addr":"경기도 파주시 야동동 151-3번지","category":"보건위생 - 미용원"}]},{"lat":"37.777977877","long":"126.77220684","items":[{"name":"거구정","tel":"031-941-5288","addr":"경기도 파주시 야동동 1071","category":"일반휴게음식 - 일반한식"}]},{"lat":"37.776200501","long":"126.77092973","items":[{"name":"거성유통","tel":"031-945-5988","addr":"경기도 파주시 야동동 32-6번지","category":"음료식품 - 농·축·수산품"},{"name":"주영푸드","tel":"","addr":"경기도 파주시 야동동 32-6번지","category":"음료식품 - 기타음료식품"}]},{"lat":"37.772502339","long":"126.75553913","items":[{"name":"경유버스보조금_금촌농협주유소","tel":"031-943-0003","addr":"경기도 파주시 야동동 816번지","category":"연료판매점 - 주유소"}]},{"lat":"37.782140215","long":"126.76315801","items":[{"name":"과일천국","tel":"070-2699-0807","addr":"경기도 파주시 야동동 256-2번지","category":"음료식품 - 농·축·수산품"}]},{"lat":"37.773897708","long":"126.75076733","items":[{"name":"권혜성음악전문학원","tel":"031-946-9918","addr":"경기도 파주시 야동동 587번지 대방아파트","category":"학원 - 예·체능계학원"},{"name":"대방선애어린이집[아이행복]","tel":"031-947-9877","addr":"경기도 파주시 야동동 587번지 대방아파트","category":"학원 - 유아원"},{"name":"대방세탁","tel":"031-947-9700","addr":"경기도 파주시 야동동 587번지 대방아파트","category":"수리서비스 - 세탁소"},{"name":"대방썬치킨","tel":"031-947-6660","addr":"경기도 파주시 야동동 587번지 대방아파트","category":"일반휴게음식 - 스넥"},{"name":"파주곱창","tel":"031-942-9253","addr":"경기도 파주시 야동동 587번지 대방아파트","category":"일반휴게음식 - 일반한식"},{"name":"홍똘이네일샵","tel":"","addr":"경기도 파주시 야동동 587번지 대방아파트","category":"보건위생 - 피부미용실"}]},{"lat":"37.77347324","long":"126.7632314","items":[{"name":"금잔디유치원[아이행복]","tel":"031-348-1324","addr":"경기도 파주시 야동동 133","category":"학원 - 유치원"}]},{"lat":"37.774452358","long":"126.75314904","items":[{"name":"꿈나래어린이집","tel":"031-944-5533","addr":"경기도 파주시 야동동 629번지","category":"학원 - 유치원"},{"name":"꿈나래어린이집[아이행복]","tel":"031-944-5533","addr":"경기도 파주시 야동동 629번지","category":"학원 - 유아원"},{"name":"한국생태문화평생교육원","tel":"031-944-6672","addr":"경기도 파주시 야동동 629번지","category":"학원 - 기타 교육기관"}]},{"lat":"37.774385187","long":"126.75121969","items":[{"name":"꿈땅어린이집[아이행복]","tel":"031-939-8644","addr":"경기도 파주시 야동동 587번지 대방아파트","category":"학원 - 유아원"},{"name":"세븐베스트","tel":"070-5035-3050","addr":"경기도 파주시 야동동 587번지 대방아파트","category":"신변잡화 - 기타잡화"}]},{"lat":"37.772139742","long":"126.75448478","items":[{"name":"농업회사법인 패밀리팜 주식회사","tel":"031-941-0407","addr":"경기도 파주시 야동동 805번지","category":"음료식품 - 농·축·수산품"}]},{"lat":"37.779168512","long":"126.76834374","items":[{"name":"뉴지코리아주식회사","tel":"070-8838-3978","addr":"경기도 파주시 야동동 1025-2번지","category":"음료식품 - 기타음료식품"}]},{"lat":"37.768783529","long":"126.7653235","items":[{"name":"늘픔스포츠파주2호점","tel":"031-957-2714","addr":"경기도 파주시 야동동 94-20번지","category":"레져용품 - 스포츠·레져용품"},{"name":"대왕문","tel":"031-943-5959","addr":"경기도 파주시 야동동 94-20번지","category":"일반휴게음식 - 일반한식"},{"name":"성공스포츠","tel":"031-957-2714","addr":"경기도 파주시 야동동 94-20번지","category":"레져용품 - 스포츠·레져용품"},{"name":"주식회사 타이어컴퍼니","tel":"031-945-0580","addr":"경기도 파주시 야동동 94-20번지","category":"자동차정비 유지 - 자동차시트·타이어"}]},{"lat":"37.7840005","long":"126.76087027","items":[{"name":"다빈","tel":"031-949-3891","addr":"경기도 파주시 야동동 277번지","category":"일반휴게음식 - 일반한식"},{"name":"다빈슈퍼","tel":"031-949-3891","addr":"경기도 파주시 야동동 277번지","category":"유통업 영리 - 슈퍼마켓"}]},{"lat":"37.777061098","long":"126.75984861","items":[{"name":"대광오토바이","tel":"031-941-3909","addr":"경기도 파주시 야동동 327-2번지","category":"수리서비스 - 레져용품수리"}]},{"lat":"37.778417078","long":"126.76651859","items":[{"name":"대명원","tel":"","addr":"경기도 파주시 야동동 224-4번지","category":"일반휴게음식 - 일반한식"}]},{"lat":"37.773529461","long":"126.75130205","items":[{"name":"대방선애아이어린이집[아이행복]","tel":"031-947-9872","addr":"경기도 파주시 야동동 587번지 대방아파트","category":"학원 - 유아원"},{"name":"하엘어린이집[아이행복]","tel":"031-948-1420","addr":"경기도 파주시 야동동 587번지 대방아파트","category":"학원 - 유아원"}]},{"lat":"37.783866802","long":"126.76157452","items":[{"name":"대성가스","tel":"031-946-4422","addr":"경기도 파주시 야동동 276-13번지","category":"연료판매점 - LPG 취급점"}]},{"lat":"37.768893309","long":"126.76615167","items":[{"name":"더브래드36.5도(THE BREADS 36.5)","tel":"031-947-3659","addr":"경기도 파주시 야동동 94-11번지","category":"음료식품 - 제과점"},{"name":"박종헌 참치&초밥","tel":"031-944-0759","addr":"경기도 파주시 야동동 94-11번지","category":"일반휴게음식 - 일식·회집"}]},{"lat":"37.773282909","long":"126.76267585","items":[{"name":"더조은교육","tel":"031-944-5064","addr":"경기도 파주시 야동동 132-8번지 아느칸빌","category":"서적문구 - 기타서적문구"},{"name":"지영유통","tel":"","addr":"경기도 파주시 야동동 132-8번지 아느칸빌","category":"유통업 영리 - 기타유통업"}]},{"lat":"37.780839337","long":"126.7658752","items":[{"name":"동일종합가스","tel":"031-916-7610","addr":"경기도 파주시 야동동 237-10 외1필지","category":"연료판매점 - LPG 취급점"}]},{"lat":"37.780416328","long":"126.76609223","items":[{"name":"로드박스 야당CT","tel":"031-944-0960","addr":"경기도 파주시 야동동 237-1번지","category":"건축자재 - 기타건축자재"}]},{"lat":"37.775254404","long":"126.76634705","items":[{"name":"링코파주점","tel":"031-949-5060","addr":"경기도 파주시 야동동 145-1번지","category":"서적문구 - 문구용품"}]},{"lat":"37.77120194","long":"126.75840365","items":[{"name":"마이온게러지","tel":"031-944-1070","addr":"경기도 파주시 야동동 369-4번지","category":"자동차정비 유지 - 세차장"}]},{"lat":"37.779920434","long":"126.77043","items":[{"name":"명품주유소","tel":"031-949-5189","addr":"경기도 파주시 야동동 14번지","category":"연료판매점 - GS주유소"}]},{"lat":"37.773424176","long":"126.75263039","items":[{"name":"밤골즉석메밀막국수","tel":"031-947-4008","addr":"경기도 파주시 야동동 623-1번지 1층","category":"일반휴게음식 - 일반한식"},{"name":"배장군집","tel":"031-944-5356","addr":"경기도 파주시 야동동 623-1번지","category":"일반휴게음식 - 일반한식"},{"name":"화이트피씨방(WHITE PC)","tel":"031-000-0000","addr":"경기도 파주시 야동동 623-1번지","category":"레저업소 - 기타레져업소"}]},{"lat":"37.777364857","long":"126.77201578","items":[{"name":"봉평산골메밀촌","tel":"031-949-4300","addr":"경기도 파주시 야동동 33-35번지","category":"일반휴게음식 - 일반한식"}]},{"lat":"37.773425043","long":"126.75303899","items":[{"name":"블루카모터스","tel":"031-944-0982","addr":"경기도 파주시 야동동 622번지","category":"자동차정비 유지 - 자동차정비"}]},{"lat":"37.773197105","long":"126.75176853","items":[{"name":"사람과자연","tel":"031-941-6904","addr":"경기도 파주시 야동동 589-5번지","category":"일반휴게음식 - 일반한식"},{"name":"파리바게뜨(야동점)","tel":"031-943-8206","addr":"경기도 파주시 야동동 589-5번지","category":"음료식품 - 제과점"}]},{"lat":"37.778114318","long":"126.76381802","items":[{"name":"삼성교구","tel":"031-8071-1244","addr":"경기도 파주시 야동동 215-1번지","category":"가구 - 일반가구"}]},{"lat":"37.777480144","long":"126.76654428","items":[{"name":"삼성라디에터","tel":"031-945-1515","addr":"경기도 파주시 야동동 201-2번지","category":"회원제형태 - 기타3"},{"name":"삼성라디에터","tel":"031-945-1515","addr":"경기도 파주시 야동동 201-2 외1","category":"자동차정비 유지 - 자동차부품"}]},{"lat":"37.777751972","long":"126.76731528","items":[{"name":"상록카센타","tel":"031-943-3331","addr":"경기도 파주시 야동동 199-1번지","category":"자동차정비 유지 - 자동차정비"}]},{"lat":"37.783336709","long":"126.76229141","items":[{"name":"생생메디칼","tel":"031-941-2188","addr":"경기도 파주시 야동동 259-6번지","category":"보건위생 - 의료용품"},{"name":"주식회사 펫업","tel":"031-949-3907","addr":"경기도 파주시 야동동 259-6번지","category":"문화.취미 - 애완동물"}]},{"lat":"37.774014101","long":"126.75042642","items":[{"name":"송창헌의 중고등 영어수학교실","tel":"031-945-1244","addr":"경기도 파주시 야동동 587번지 대방아파트","category":"회원제형태 - 학원"},{"name":"주식회사 파이브라이프","tel":"031-946-2663","addr":"경기도 파주시 야동동 587번지 대방아파트","category":"용역 서비스 - 가례서비스업"}]},{"lat":"37.777185269","long":"126.77232281","items":[{"name":"송화정","tel":"031-944-0404","addr":"경기도 파주시 야동동 33-52번지 1층","category":"일반휴게음식 - 일반한식"}]},{"lat":"37.773980699","long":"126.77376291","items":[{"name":"송화쭈꾸미","tel":"031-947-3655","addr":"경기도 파주시 야동동 72-13번지","category":"일반휴게음식 - 일반한식"}]},{"lat":"37.783362484","long":"126.76167833","items":[{"name":"스마일식품","tel":"031-948-9803","addr":"경기도 파주시 야동동 277-3번지","category":"음료식품 - 농·축·수산품"},{"name":"한마음유통","tel":"031-924-2345","addr":"경기도 파주시 야동동 277-3번지","category":"문화.취미 - 애완동물"}]},{"lat":"37.773265686","long":"126.75013386","items":[{"name":"스팀닥터 금촌 출장세차","tel":"","addr":"경기도 파주시 야동동 587번지 대방아파트","category":"자동차정비 유지 - 세차장"}]},{"lat":"37.7697594","long":"126.7667391","items":[{"name":"시나브로아트갤러리","tel":"031-957-4086","addr":"경기도 파주시 야동동 93-4번지","category":"일반휴게음식 - 일반한식"}]},{"lat":"37.784838399","long":"126.76087889","items":[{"name":"시온건설전력 (주)","tel":"031-944-0159","addr":"경기도 파주시 야동동 274번지","category":"용역 서비스 - 기타용역서비스"},{"name":"파주상재","tel":"031-946-8285","addr":"경기도 파주시 야동동 274번지","category":"직물 - 카페트,커튼,천막,지물"}]},{"lat":"37.76855756","long":"126.76496104","items":[{"name":"쌍용달인공업사","tel":"031-947-1417","addr":"경기도 파주시 야동동 96-4번지","category":"자동차정비 유지 - 자동차정비"}]},{"lat":"37.772644834","long":"126.76346107","items":[{"name":"씨유금촌창곡동점","tel":"031-942-7099","addr":"경기도 파주시 야동동 131-4번지","category":"유통업 영리 - 편 의 점"},{"name":"한포","tel":"070-0000-0000","addr":"경기도 파주시 야동동 131-4번지","category":"문화.취미 - 애완동물"}]},{"lat":"37.771256915","long":"126.75884612","items":[{"name":"오두산","tel":"031-944-7022","addr":"경기도 파주시 야동동 369-3번지","category":"일반휴게음식 - 일반한식"}]},{"lat":"37.769756663","long":"126.75232495","items":[{"name":"우리정보","tel":"031-941-5950","addr":"경기도 파주시 야동동 737번지","category":"사무통신 - 컴퓨터"}]},{"lat":"37.773258327","long":"126.76387906","items":[{"name":"유정숯불갈비","tel":"031-942-4747","addr":"경기도 파주시 야동동 138-8번지","category":"일반휴게음식 - 일반한식"},{"name":"카스토리자동차공업사","tel":"031-946-2962","addr":"경기도 파주시 야동동 138-8번지","category":"자동차정비 유지 - 자동차정비"}]},{"lat":"37.777147621","long":"126.758123","items":[{"name":"유진과학주식회사","tel":"02-338-3090","addr":"경기도 파주시 야동동 310-2번지","category":"서적문구 - 과학기자재"}]},{"lat":"37.782749727","long":"126.76162356","items":[{"name":"이노패키지","tel":"031-957-5921","addr":"경기도 파주시 야동동 257-19번지","category":"서적문구 - 출판 및 인쇄물"}]},{"lat":"37.777451313","long":"126.76564765","items":[{"name":"정원기업","tel":"031-943-6039","addr":"경기도 파주시 야동동 203-19번지","category":"용역 서비스 - 기타용역서비스"}]},{"lat":"37.779778548","long":"126.76703642","items":[{"name":"제이앤케이","tel":"070-7775-1628","addr":"경기도 파주시 야동동 239-1번지","category":"자동차정비 유지 - 자동차부품"}]},{"lat":"37.781033555","long":"126.76389943","items":[{"name":"제일분식","tel":"031-943-5816","addr":"경기도 파주시 야동동 248-3번지","category":"일반휴게음식 - 스넥"}]},{"lat":"37.779228538","long":"126.75799128","items":[{"name":"주립음악보습학원","tel":"031-912-0105","addr":"경기도 파주시 야동동 297-5번지","category":"학원 - 예·체능계학원"}]},{"lat":"37.778925439","long":"126.76843532","items":[{"name":"주식회사 맥스런","tel":"031-1688-4294","addr":"경기도 파주시 야동동 1024번지","category":"기타 - 기계공구"}]},{"lat":"37.779699099","long":"126.75898863","items":[{"name":"주식회사 성우스틸","tel":"031-941-8226","addr":"경기도 파주시 야동동 293-5번지","category":"건축자재 - 기타건축자재"}]},{"lat":"37.772172545","long":"126.77056776","items":[{"name":"주식회사세정이엔티","tel":"031-948-0130","addr":"경기도 파주시 야동동 82-7번지","category":"신변잡화 - 기타잡화"}]},{"lat":"37.78056146","long":"126.76213013","items":[{"name":"주식회사하이로드","tel":"031-907-0067","addr":"경기도 파주시 야동동 246-24번지","category":"기타 - 기계공구"}]},{"lat":"37.772501305","long":"126.76376799","items":[{"name":"처갓집 양념치킨","tel":"031-943-9282","addr":"경기도 파주시 야동동 124-1번지","category":"일반휴게음식 - 스넥"}]},{"lat":"37.782419784","long":"126.76329333","items":[{"name":"카페인박스","tel":"031-111-1111","addr":"경기도 파주시 야동동 255-4번지","category":"음료식품 - 기타음료식품"}]},{"lat":"37.779672164","long":"126.76342706","items":[{"name":"캠프마스터","tel":"031-946-0042","addr":"경기도 파주시 야동동 246-19번지","category":"레져용품 - 스포츠·레져용품"}]},{"lat":"37.778119858","long":"126.76656494","items":[{"name":"크린원","tel":"031-945-4708","addr":"경기도 파주시 야동동 220-7번지","category":"수리서비스 - 세탁소"},{"name":"황태마루","tel":"031-945-4797","addr":"경기도 파주시 야동동 220-7번지","category":"일반휴게음식 - 일반한식"}]},{"lat":"37.776309578","long":"126.76687718","items":[{"name":"파주골양식장","tel":"031-941-7770","addr":"경기도 파주시 야동동 189-7번지","category":"음료식품 - 농·축·수산품"},{"name":"파주골장어","tel":"031-941-7770","addr":"경기도 파주시 야동동 189-7번지","category":"일반휴게음식 - 일반한식"}]},{"lat":"37.76939802","long":"126.76624086","items":[{"name":"파주녹색농업 사회적협동조합","tel":"070-4157-7786","addr":"경기도 파주시 야동동 94-3번지","category":"음료식품 - 농·축·수산품"}]},{"lat":"37.780278739","long":"126.76487807","items":[{"name":"파주시재활용센터","tel":"031-944-6623","addr":"경기도 파주시 야동동 243-9번지","category":"기타 - 기타 전문점"}]},{"lat":"37.777750426","long":"126.76654342","items":[{"name":"파주중공업","tel":"031-945-3040","addr":"경기도 파주시 야동동 200-2번지","category":"기타 - 기계공구"}]},{"lat":"37.776202463","long":"126.77192859","items":[{"name":"평화자동차공업사 (파주점)","tel":"031-941-1837","addr":"경기도 파주시 야동동 44-15번지","category":"자동차정비 유지 - 자동차부품"}]},{"lat":"37.775778023","long":"126.75804806","items":[{"name":"프로바스","tel":"031-945-9172","addr":"경기도 파주시 야동동 342번지","category":"신변잡화 - 기타잡화"}]},{"lat":"37.772806657","long":"126.7632903","items":[{"name":"하나로매트","tel":"031-948-1237","addr":"경기도 파주시 야동동 132-6번지","category":"직물 - 카페트,커튼,천막,지물"}]},{"lat":"37.779340752","long":"126.7688767","items":[{"name":"휴바스창호","tel":"031-977-5830","addr":"경기도 파주시 야동동 1028번지","category":"건축자재 - 기타건축자재"}]},{"lat":"37.783363343","long":"126.76209834","items":[{"name":"희망MOTORS","tel":"031-944-5109","addr":"경기도 파주시 야동동 276-15번지","category":"자동차정비 유지 - 카인테리어"}]}]