[{"lat":"37.380138711","long":"126.78013763","imageIndex":13,"items":[{"name":"21세기헤어클럽","tel":"031-317-5560","addr":"경기도 시흥시 장곡동 803-3번지","indutype":"개인서비스업 - 미용실","category":"beauty"}]},{"lat":"37.3779968","long":"126.78633112","imageIndex":13,"items":[{"name":"디자인헤어코디","tel":"031-404-4845","addr":"경기도 시흥시 장곡동 824번지 연성3차대우아파트 상가동 101호","indutype":"개인서비스업 - 미용","category":"beauty"}]},{"lat":"37.378028433","long":"126.78393746","imageIndex":13,"items":[{"name":"리안(장곡)","tel":"031-317-7020","addr":"경기도 시흥시 장곡동 817-1번지 센타빌딩 2층 203~4호","indutype":"개인서비스업 - 미용업","category":"beauty"}]},{"lat":"37.37968908","long":"126.78060188","imageIndex":13,"items":[{"name":"림헤어","tel":"031-314-1518","addr":"경기도 시흥시 장곡동 802-2번지 금강프라자 115호","indutype":"개인서비스업 - 미용","category":"beauty"}]},{"lat":"37.377967468","long":"126.78507797","imageIndex":13,"items":[{"name":"마녀뷰티","tel":"031-318-0508","addr":"경기도 시흥시 장곡동 819-2번지 한샘학원 201호","indutype":"개인서비스업 - 미용업","category":"beauty"}]},{"lat":"37.378946705","long":"126.78352833","imageIndex":13,"items":[{"name":"마벨헤어","tel":"031-319-8125","addr":"경기도 시흥시 장곡동 813-2번지 101호","indutype":"개인서비스업 - 미용실","category":"beauty"}]},{"lat":"37.381944544","long":"126.78705369","imageIndex":13,"items":[{"name":"뷰티헤어샵","tel":"031-504-5220","addr":"경기도 시흥시 장곡동 829번지","indutype":"개인서비스업 - 미용업","category":"beauty"}]},{"lat":"37.379111454","long":"126.78491659","imageIndex":13,"items":[{"name":"블루클럽 시흥연성점","tel":"031-318-7656","addr":"경기도 시흥시 장곡동 822-2번지 1층","indutype":"개인서비스업 - 미용","category":"beauty"}]},{"lat":"37.37916324","long":"126.78368577","imageIndex":13,"items":[{"name":"수헤어","tel":"031-318-0829","addr":"경기도 시흥시 장곡동 814-3번지 1층","indutype":"개인서비스업 - 미용","category":"beauty"}]},{"lat":"37.378996502","long":"126.78610244","imageIndex":13,"items":[{"name":"에이스 미용재료","tel":"031-318-3223","addr":"경기도 시흥시 장곡동 823-3번지","indutype":"소매업 - 미용재료","category":"beauty"}]},{"lat":"37.378828736","long":"126.78307705","imageIndex":13,"items":[{"name":"오늘도 이쁘다","tel":"","addr":"경기도 시흥시 장곡동 809-5번지 1층 102호","indutype":"개인서비스업 - 피부미용","category":"beauty"}]},{"lat":"37.376581121","long":"126.78088201","imageIndex":13,"items":[{"name":"오페라헤어","tel":"031-317-3864","addr":"경기도 시흥시 장곡동 806번지 숲속마을아파트 상가동 105호","indutype":"개인서비스업 - 미용","category":"beauty"}]},{"lat":"37.378639986","long":"126.78332599","imageIndex":13,"items":[{"name":"왁스헤어","tel":"070-4065-7773","addr":"경기도 시흥시 장곡동 813-9번지 101호","indutype":"개인서비스업 - 미용업","category":"beauty"}]},{"lat":"37.378499165","long":"126.78513288","imageIndex":13,"items":[{"name":"이은아헤어아트","tel":"031-404-2766","addr":"경기도 시흥시 장곡동 820-3번지","indutype":"개인서비스업 - 미용업","category":"beauty"}]},{"lat":"37.377974509","long":"126.77919563","imageIndex":13,"items":[{"name":"차밍헤어샵","tel":"031-317-4343","addr":"경기도 시흥시 장곡동 805번지 삼성상가 108호","indutype":"개인서비스업 - 미용실","category":"beauty"}]},{"lat":"37.378134542","long":"126.78285327","imageIndex":13,"items":[{"name":"케이투헤어","tel":"031-317-2520","addr":"경기도 시흥시 장곡동 810-1번지 103호","indutype":"개인서비스업 - 미용, 네일","category":"beauty"}]},{"lat":"37.378498396","long":"126.78471514","imageIndex":13,"items":[{"name":"헤나킹","tel":"031-404-3006","addr":"경기도 시흥시 장곡동 820-1번지 4층","indutype":"개인서비스업 - 미용업","category":"beauty"}]},{"lat":"37.379215917","long":"126.78294043","imageIndex":13,"items":[{"name":"헤어J","tel":"031-506-4103","addr":"경기도 시흥시 장곡동 809-1번지","indutype":"개인서비스업 - 미용실","category":"beauty"}]},{"lat":"37.380276653","long":"126.78649393","imageIndex":13,"items":[{"name":"헤어갤러리","tel":"031-318-2800","addr":"경기도 시흥시 장곡동 828번지 대우우성 상가 106호","indutype":"개인서비스업 - 미용업","category":"beauty"}]},{"lat":"37.379111142","long":"126.78474723","imageIndex":13,"items":[{"name":"헤어브러시","tel":"031-314-5530","addr":"경기도 시흥시 장곡동 822-1번지","indutype":"개인서비스업 - 미용실","category":"beauty"}]},{"lat":"37.377495458","long":"126.78319384","imageIndex":13,"items":[{"name":"헤어폴리스","tel":"031-404-2600","addr":"경기도 시흥시 장곡동 811-3번지 연성쉐르빌 117호","indutype":"개인서비스업 - 미용실","category":"beauty"}]}]