[{"lat":"38.158721","long":"127.24856846","imageIndex":13,"items":[{"name":"25시노래방","tel":"070-4922-1261","addr":"경기도 포천시 관인면 탄동리 650-39번지","indutype":"레저업소 - 노 래 방","category":"leisure"}]},{"lat":"38.156775123","long":"127.25281766","imageIndex":13,"items":[{"name":"문암레저","tel":"031-533-8933","addr":"경기도 포천시 관인면 탄동리 533-14번지","indutype":"레저업소 - 기타레져업소","category":"leisure"}]},{"lat":"38.157962441","long":"127.24943305","imageIndex":4,"items":[{"name":"365삼겹살데이","tel":"031-534-6777","addr":"경기도 포천시 관인면 탄동리 652-6번지","indutype":"일반휴게음식 - 일반한식","category":"restaurant"},{"name":"365삼겹살데이","tel":"534-6777","addr":"경기도 포천시 관인면 탄동리 652-6번지","indutype":"음식 - 한식","category":"restaurant"}]},{"lat":"38.157691362","long":"127.24982006","imageIndex":4,"items":[{"name":"관인숯불갈비","tel":"533-3824","addr":"경기도 포천시 관인면 탄동리 652-14번지","indutype":"음식 - 한식","category":"restaurant"},{"name":"관인숯불갈비","tel":"031-533-3824","addr":"경기도 포천시 관인면 탄동리 652-14번지","indutype":"일반휴게음식 - 일반한식","category":"restaurant"},{"name":"처갓집 앙념치킨(관인점)","tel":"534-9555","addr":"경기도 포천시 관인면 탄동리 652-14번지","indutype":"음식 - 치킨등","category":"restaurant"},{"name":"처갓집양념치킨","tel":"031-534-9955","addr":"경기도 포천시 관인면 탄동리 652-14번지","indutype":"일반휴게음식 - 스넥","category":"restaurant"}]},{"lat":"38.156935554","long":"127.24937254","imageIndex":4,"items":[{"name":"관인정","tel":"533-5577","addr":"경기도 포천시 관인면 탄동리 665-10번지","indutype":"음식 - 한식","category":"restaurant"},{"name":"관인정","tel":"","addr":"경기도 포천시 관인면 탄동리 665-10번지","indutype":"음식 - 한식","category":"restaurant"},{"name":"관인정","tel":"031-533-5577","addr":"경기도 포천시 관인면 탄동리 665-10번지","indutype":"일반휴게음식 - 일반한식","category":"restaurant"}]},{"lat":"38.157105206","long":"127.25851213","imageIndex":4,"items":[{"name":"기와집가든","tel":"533-1152","addr":"경기도 포천시 관인면 탄동리 398-1번지","indutype":"음식 - 한식","category":"restaurant"},{"name":"기와집가든","tel":"031-533-1152","addr":"경기도 포천시 관인면 탄동리 398-1","indutype":"일반휴게음식 - 일반한식","category":"restaurant"}]},{"lat":"38.158468825","long":"127.24853339","imageIndex":4,"items":[{"name":"남원통닭","tel":"031-533-1228","addr":"경기도 포천시 관인면 탄동리 651-6번지","indutype":"일반휴게음식 - 서양음식","category":"restaurant"}]},{"lat":"38.156828836","long":"127.25297757","imageIndex":4,"items":[{"name":"로뎀나무카페","tel":"534-2902","addr":"경기도 포천시 관인면 탄동리 533-2번지","indutype":"음식 - 커피 등","category":"restaurant"},{"name":"로뎀나무카페","tel":"031-534-2902","addr":"경기도 포천시 관인면 탄동리 533-2번지","indutype":"일반휴게음식 - 서양음식","category":"restaurant"}]},{"lat":"38.158213538","long":"127.24998156","imageIndex":4,"items":[{"name":"복돼지","tel":"031-535-6069","addr":"경기도 포천시 관인면 탄동리 649-32번지 1층","indutype":"일반휴게음식 - 일반한식","category":"restaurant"}]},{"lat":"38.155576487","long":"127.24876328","imageIndex":4,"items":[{"name":"산아래쌈밥","tel":"533-1593","addr":"경기도 포천시 관인면 탄동리 665-3번지","indutype":"음식 - 한식","category":"restaurant"},{"name":"산아래쌈밥","tel":"031-533-1593","addr":"경기도 포천시 관인면 탄동리 665-3번지","indutype":"일반휴게음식 - 일반한식","category":"restaurant"}]},{"lat":"38.158520078","long":"127.2498685","imageIndex":4,"items":[{"name":"서울회관","tel":"533-1066","addr":"경기도 포천시 관인면 탄동리 649-28번지","indutype":"음식 - 한식","category":"restaurant"}]},{"lat":"38.157466213","long":"127.24978507","imageIndex":4,"items":[{"name":"서정","tel":"531-7540","addr":"경기도 포천시 관인면 탄동리 665-5번지","indutype":"음식 - 양식","category":"restaurant"}]},{"lat":"38.157186819","long":"127.24984118","imageIndex":4,"items":[{"name":"순흥골 포천점","tel":"533-5271","addr":"경기도 포천시 관인면 탄동리 664-24번지","indutype":"음식 - 한식","category":"restaurant"},{"name":"순흥골포천점","tel":"031-533-5271","addr":"경기도 포천시 관인면 탄동리 664-24번지 1층","indutype":"일반휴게음식 - 일반한식","category":"restaurant"}]},{"lat":"38.158692181","long":"127.2494241","imageIndex":4,"items":[{"name":"신영빈관","tel":"531-1174","addr":"경기도 포천시 관인면 탄동리 649-43번지","indutype":"음식 - 중식","category":"restaurant"},{"name":"영빈관","tel":"031-531-1173","addr":"경기도 포천시 관인면 탄동리 649-43번지 1층","indutype":"일반휴게음식 - 중국식","category":"restaurant"}]},{"lat":"38.157998668","long":"127.24934189","imageIndex":4,"items":[{"name":"신춘천닭갈비","tel":"531-8718","addr":"경기도 포천시 관인면 탄동리 652-5번지","indutype":"음식 - 한식","category":"restaurant"}]},{"lat":"38.158963092","long":"127.24911694","imageIndex":4,"items":[{"name":"싱싱장어","tel":"031-532-1231","addr":"경기도 포천시 관인면 탄동리 649-40번지","indutype":"일반휴게음식 - 일반한식","category":"restaurant"},{"name":"싱싱장어","tel":"532-1231","addr":"경기도 포천시 관인면 탄동리 649-40번지","indutype":"음식 - 한식","category":"restaurant"}]},{"lat":"38.158214713","long":"127.24942249","imageIndex":4,"items":[{"name":"유진식당","tel":"533-1153","addr":"경기도 포천시 관인면 탄동리 650-57번지","indutype":"음식 - 한식","category":"restaurant"}]},{"lat":"38.157573719","long":"127.25007068","imageIndex":4,"items":[{"name":"자유로","tel":"031-531-3265","addr":"경기도 포천시 관인면 탄동리 664-12번지","indutype":"일반휴게음식 - 주점","category":"restaurant"},{"name":"자유로","tel":"532-3265","addr":"경기도 포천시 관인면 탄동리 664-12번지","indutype":"음식 - 한식","category":"restaurant"}]},{"lat":"38.158522042","long":"127.2489329","imageIndex":4,"items":[{"name":"초원건강원","tel":"534-4231","addr":"경기도 포천시 관인면 탄동리 650-49번지","indutype":"음식 - 건강원","category":"restaurant"}]},{"lat":"38.157465325","long":"127.25020722","imageIndex":4,"items":[{"name":"치킨플러스","tel":"533-1745","addr":"경기도 포천시 관인면 탄동리 664-13번지","indutype":"음식 - 한식","category":"restaurant"},{"name":"치킨플러스포천관인점","tel":"031-533-1745","addr":"경기도 포천시 관인면 탄동리 664-13번지","indutype":"일반휴게음식 - 일반한식","category":"restaurant"}]},{"lat":"38.158303674","long":"127.24995904","imageIndex":4,"items":[{"name":"하림멕시칸","tel":"531-0661","addr":"경기도 포천시 관인면 탄동리 649-31번지","indutype":"음식 - 치킨","category":"restaurant"},{"name":"하림멕시칸","tel":"031-531-0661","addr":"경기도 포천시 관인면 탄동리 649-31","indutype":"일반휴게음식 - 스넥","category":"restaurant"}]},{"lat":"38.157412495","long":"127.24962516","imageIndex":4,"items":[{"name":"한중","tel":"031-532-6463","addr":"경기도 포천시 관인면 탄동리 665-4번지","indutype":"일반휴게음식 - 중국식","category":"restaurant"}]},{"lat":"38.159136051","long":"127.24826179","imageIndex":4,"items":[{"name":"화성식당","tel":"533-1145","addr":"경기도 포천시 관인면 탄동리 650-22번지","indutype":"음식 - 한식","category":"restaurant"}]},{"lat":"38.156934691","long":"127.24978328","imageIndex":17,"items":[{"name":"강아지와야옹이","tel":"031-531-6814","addr":"경기도 포천시 관인면 탄동리 664-18번지 1층","indutype":"문화.취미 - 애완동물","category":"other"}]},{"lat":"38.158548494","long":"127.24920683","imageIndex":17,"items":[{"name":"경동ENG","tel":"031-534-4560","addr":"경기도 포천시 관인면 탄동리 650-51번지","indutype":"수리서비스 - 기타수리서비스","category":"other"},{"name":"정금당","tel":"532-1459","addr":"경기도 포천시 관인면 탄동리 650-51번지","indutype":"소매업 - 금은방","category":"other"}]},{"lat":"38.158133274","long":"127.24959336","imageIndex":17,"items":[{"name":"관인야채청과","tel":"533-8809","addr":"경기도 포천시 관인면 탄동리 650-60번지","indutype":"도소매 - 청과물","category":"other"},{"name":"일광사","tel":"","addr":"경기도 포천시 관인면 탄동리 650-60번지","indutype":"서비스 - 세탁소","category":"other"}]},{"lat":"38.156381277","long":"127.25161833","imageIndex":17,"items":[{"name":"관인오토바이상사","tel":"533-1103","addr":"경기도 포천시 관인면 탄동리 654-5번지","indutype":"서비스 - 오토바이수리","category":"other"}]},{"lat":"38.158268981","long":"127.24931998","imageIndex":17,"items":[{"name":"삼천리오토바이","tel":"533-1012","addr":"경기도 포천시 관인면 탄동리 650-56번지","indutype":"서비스 - 오토바이수리","category":"other"}]},{"lat":"38.158213538","long":"127.24998156","imageIndex":17,"items":[{"name":"수제이텔레콤","tel":"031-534-4545","addr":"경기도 포천시 관인면 탄동리 649-32번지 1층 수제이텔레콤","indutype":"사무통신 - 통신기기","category":"other"}]},{"lat":"38.15657722","long":"127.25268007","imageIndex":17,"items":[{"name":"에이코드","tel":"080-707-0222","addr":"경기도 포천시 관인면 탄동리 533-5번지","indutype":"신변잡화 - 기념품점","category":"other"}]},{"lat":"38.158385401","long":"127.24965126","imageIndex":17,"items":[{"name":"일신마트(슈퍼)","tel":"533-1057","addr":"경기도 포천시 관인면 탄동리 649-47번지","indutype":"소매업 - 잡화","category":"other"},{"name":"조흥지물","tel":"031-533-1035","addr":"경기도 포천시 관인면 탄동리 649-47번지","indutype":"직물 - 카페트,커튼,천막,지물","category":"other"}]},{"lat":"38.158384874","long":"127.24990227","imageIndex":17,"items":[{"name":"정금당","tel":"031-532-1459","addr":"경기도 포천시 관인면 탄동리 649-30번지","indutype":"신변잡화 - 귀금속","category":"other"}]},{"lat":"38.157465805","long":"127.24997904","imageIndex":17,"items":[{"name":"초이지물포","tel":"031-534-9806","addr":"경기도 포천시 관인면 탄동리 664-15번지","indutype":"직물 - 카페트,커튼,천막,지물","category":"other"}]},{"lat":"38.158774194","long":"127.24897939","imageIndex":17,"items":[{"name":"한성철물","tel":"533-1254","addr":"경기도 포천시 관인면 탄동리 650-47번지","indutype":"소매업 - 철물","category":"other"},{"name":"한성철물건재","tel":"031-533-1254","addr":"경기도 포천시 관인면 탄동리 650-47번지","indutype":"건축자재 - 목재·석재·철물","category":"other"}]},{"lat":"38.156435088","long":"127.2517326","imageIndex":17,"items":[{"name":"현대상회","tel":"534-8076","addr":"경기도 포천시 관인면 탄동리 654-6번지","indutype":"소매업 - 잡화","category":"other"}]},{"lat":"38.158797116","long":"127.25093054","imageIndex":16,"items":[{"name":"관인고등학교","tel":"031-538-8205","addr":"경기도 포천시 관인면 탄동리 607-3번지 관인고등학교","indutype":"학원 - 초중고교육기관","category":"study"},{"name":"관인고등학교_수업료","tel":"031-538-8205","addr":"경기도 포천시 관인면 탄동리 607-3번지 관인고등학교","indutype":"학원 - 초중고교육기관","category":"study"},{"name":"관인중학교","tel":"031-538-8205","addr":"경기도 포천시 관인면 탄동리 607-3번지 관인고등학교","indutype":"학원 - 초중고교육기관","category":"study"},{"name":"관인중학교_수업료","tel":"031-538-8205","addr":"경기도 포천시 관인면 탄동리 607-3번지 관인고등학교","indutype":"학원 - 초중고교육기관","category":"study"}]},{"lat":"38.158856648","long":"127.25259657","imageIndex":16,"items":[{"name":"관인어린이집[아이행복]","tel":"031-532-1122","addr":"경기도 포천시 관인면 탄동리 1000번지","indutype":"학원 - 유아원","category":"study"}]},{"lat":"38.156582098","long":"127.25037538","imageIndex":16,"items":[{"name":"관인초등학교","tel":"031-533-1222","addr":"경기도 포천시 관인면 탄동리 664-1번지 관인초등학교","indutype":"학원 - 초중고교육기관","category":"study"},{"name":"관인초등학교_수업료","tel":"031-533-1222","addr":"경기도 포천시 관인면 탄동리 664-1번지 관인초등학교","indutype":"학원 - 초중고교육기관","category":"study"},{"name":"관인초등학교병설유치원[아이행복]","tel":"031-533-1282","addr":"경기도 포천시 관인면 탄동리 664-1번지 관인초등학교","indutype":"학원 - 유치원","category":"study"}]},{"lat":"38.156828836","long":"127.25297757","imageIndex":16,"items":[{"name":"한국치매예방협회포천철원본부(솔내음심리","tel":"031-533-6887","addr":"경기도 포천시 관인면 탄동리 533-2번지 2층","indutype":"학원 - 기타 교육기관","category":"study"}]},{"lat":"38.156775123","long":"127.25281766","imageIndex":16,"items":[{"name":"흰돌피아노학원","tel":"031-533-0183","addr":"경기도 포천시 관인면 탄동리 533-14","indutype":"학원 - 예·체능계학원","category":"study"}]},{"lat":"38.158133274","long":"127.24959336","imageIndex":7,"items":[{"name":"관인야채청과","tel":"031-533-8809","addr":"경기도 포천시 관인면 탄동리 650-60번지 1층","indutype":"음료식품 - 농·축·수산품","category":"food"}]},{"lat":"38.157465325","long":"127.25020722","imageIndex":7,"items":[{"name":"종자산건강원","tel":"033-455-9005","addr":"경기도 포천시 관인면 탄동리 664-13번지 1층 우측호","indutype":"건강식품 - 기타건강식품","category":"food"}]},{"lat":"38.156602395","long":"127.24929156","imageIndex":7,"items":[{"name":"철원제분소","tel":"031-533-1073","addr":"경기도 포천시 관인면 탄동리 665-13번지","indutype":"음료식품 - 기타음료식품","category":"food"},{"name":"철원제분소","tel":"533-1073","addr":"경기도 포천시 관인면 탄동리 665-13번지","indutype":"제조업 - 즉석가공식품","category":"food"}]},{"lat":"38.158522042","long":"127.2489329","imageIndex":7,"items":[{"name":"초원건강원","tel":"031-534-4231","addr":"경기도 포천시 관인면 탄동리 650-49번지 1층","indutype":"건강식품 - 기타건강식품","category":"food"}]},{"lat":"38.159216558","long":"127.24853589","imageIndex":7,"items":[{"name":"현대떡방앗간","tel":"031-533-1162","addr":"경기도 포천시 관인면 탄동리 650-25","indutype":"음료식품 - 제과점","category":"food"}]},{"lat":"38.158024281","long":"127.25001515","imageIndex":8,"items":[{"name":"굿모닝 약국","tel":"532-6097","addr":"경기도 포천시 관인면 탄동리 649-33번지","indutype":"보건업 - 약국","category":"medical"}]},{"lat":"38.156828836","long":"127.25297757","imageIndex":13,"items":[{"name":"동행심리상담센터","tel":"031-531-1222","addr":"경기도 포천시 관인면 탄동리 533-2번지","indutype":"보건위생 - 기타대인서비스","category":"beauty"}]},{"lat":"38.157691362","long":"127.24982006","imageIndex":13,"items":[{"name":"샤프헤어샵","tel":"031-532-2609","addr":"경기도 포천시 관인면 탄동리 652-14번지","indutype":"보건위생 - 미용원","category":"beauty"}]},{"lat":"38.155691616","long":"127.24971064","imageIndex":7,"items":[{"name":"애플24시","tel":"031-536-6925","addr":"경기도 포천시 관인면 탄동리 663번지","indutype":"유통업 영리 - 슈퍼마켓","category":"mart"}]},{"lat":"38.158385401","long":"127.24965126","imageIndex":7,"items":[{"name":"일신마트","tel":"031-533-1057","addr":"경기도 포천시 관인면 탄동리 649-47번지","indutype":"유통업 영리 - 슈퍼마켓","category":"mart"}]},{"lat":"38.159415444","long":"127.24820568","imageIndex":7,"items":[{"name":"태국슈퍼","tel":"031-531-8150","addr":"경기도 포천시 관인면 탄동리 650-14번지","indutype":"유통업 영리 - 슈퍼마켓","category":"mart"}]},{"lat":"38.156435088","long":"127.2517326","imageIndex":7,"items":[{"name":"현대상회","tel":"031-533-6654","addr":"경기도 포천시 관인면 탄동리 654-6번지","indutype":"유통업 영리 - 슈퍼마켓","category":"mart"}]}]