[{"lat":"37.760488873","long":"127.18855199","items":[{"name":"(주) 인라이프","tel":"070-8866-7828","addr":"경기도 남양주시 진접읍 부평리 171번지","category":"신변잡화 - 기타잡화"}]},{"lat":"37.73157041","long":"127.19836031","items":[{"name":"(주)미금","tel":"031-529-5637","addr":"경기도 남양주시 진접읍 부평리 738-2","category":"가구 - 일반가구"}]},{"lat":"37.762291385","long":"127.1938109","items":[{"name":"(주)성진앤에이치피","tel":"070-4651-4337","addr":"경기도 남양주시 진접읍 부평리 79번지","category":"신변잡화 - 기타잡화"},{"name":"성진기업","tel":"031-529-0967","addr":"경기도 남양주시 진접읍 부평리 79번지","category":"건축자재 - 목재·석재·철물"}]},{"lat":"37.758293501","long":"127.19235943","items":[{"name":"(주)티에이치스틸","tel":"031-571-6640","addr":"경기도 남양주시 진접읍 부평리 136번지","category":"건축자재 - 기타건축자재"}]},{"lat":"37.74176839","long":"127.19886363","items":[{"name":"1ST 골프","tel":"031-574-0753","addr":"경기도 남양주시 진접읍 부평리 605-1","category":"회원제형태 - 레져업소"}]},{"lat":"37.743845925","long":"127.20105885","items":[{"name":"DS휴먼테크","tel":"","addr":"경기도 남양주시 진접읍 부평리 535-4번지 4동 402호","category":"용역 서비스 - 기타용역서비스"}]},{"lat":"37.742597132","long":"127.19894524","items":[{"name":"GS25광릉점","tel":"","addr":"경기도 남양주시 진접읍 부평리 603-1번지","category":"유통업 영리 - 편 의 점"}]},{"lat":"37.748489044","long":"127.19914232","items":[{"name":"GS25진접부평리점","tel":"","addr":"경기도 남양주시 진접읍 부평리 437-9번지","category":"유통업 영리 - 편 의 점"}]},{"lat":"37.739128641","long":"127.19883398","items":[{"name":"Hakuna matata(하쿠나마타타)","tel":"070-7504-8446","addr":"경기도 남양주시 진접읍 부평리 764번지 진접센트레빌시티1단지 상가 105호","category":"의류 - 정장"},{"name":"YBM리딩클럽영어교습소","tel":"031-572-7147","addr":"경기도 남양주시 진접읍 부평리 764번지 진접센트레빌시티1단지 상가동 203호","category":"학원 - 외국어학원"},{"name":"김밥천국","tel":"031-527-0248","addr":"경기도 남양주시 진접읍 부평리 764 동부센트레빌 1단지상가 121","category":"일반휴게음식 - 스넥"},{"name":"나무미술교습소","tel":"031-575-0885","addr":"경기도 남양주시 진접읍 부평리 764번지 진접센트레빌시티1단지 상가 217호","category":"학원 - 예·체능계학원"},{"name":"만취","tel":"031-527-4896","addr":"경기도 남양주시 진접읍 부평리 764번지 진접센트레빌시티1단지 119호","category":"일반휴게음식 - 일반한식"},{"name":"보배식가","tel":"031-574-5453","addr":"경기도 남양주시 진접읍 부평리 764번지 진접센트레빌시티1단지 상가 116호","category":"일반휴게음식 - 일반한식"},{"name":"뽕에스뽕에스","tel":"031-528-0984","addr":"경기도 남양주시 진접읍 부평리 764번지 진접센트레빌시티1단지 상가 101호","category":"일반휴게음식 - 중국식"},{"name":"색연필","tel":"031-575-3084","addr":"경기도 남양주시 진접읍 부평리 764번지 진접센트레빌시티1단지 상가 113호","category":"서적문구 - 문구용품"},{"name":"손과 발","tel":"","addr":"경기도 남양주시 진접읍 부평리 764번지 진접센트레빌시티1단지 상가동 207호","category":"보건위생 - 피부미용실"},{"name":"아리랑핫도그","tel":"031-529-7895","addr":"경기도 남양주시 진접읍 부평리 764번지 진접센트레빌시티1단지 상가 122호","category":"일반휴게음식 - 스넥"},{"name":"이디야 진접센트레빌점","tel":"031-111-1111","addr":"경기도 남양주시 진접읍 부평리 764번지 진접센트레빌시티1단지 107,108호","category":"일반휴게음식 - 서양음식"},{"name":"이새싹헤어","tel":"070-8728-6789","addr":"경기도 남양주시 진접읍 부평리 764 동부센트레빌1단지상가 207","category":"보건위생 - 미용원"},{"name":"진접스카이학원","tel":"031-573-7353","addr":"경기도 남양주시 진접읍 부평리 764번지 진접센트레빌시티1단지 211,212호","category":"학원 - 보습학원"},{"name":"퍼담아","tel":"031-111-1111","addr":"경기도 남양주시 진접읍 부평리 764번지 진접센트레빌시티1단지 상가동 129호","category":"음료식품 - 기타음료식품"},{"name":"피아노스토리음악학원","tel":"031-529-9077","addr":"경기도 남양주시 진접읍 부평리 764번지 상가동127호,128호,216호","category":"학원 - 예·체능계학원"},{"name":"화수목어린이집[아이행복]","tel":"","addr":"경기도 남양주시 진접읍 부평리 764번지 진접센트레빌시티1단지 관리","category":"학원 - 유아원"}]},{"lat":"37.742263875","long":"127.19888763","items":[{"name":"JJ빌리어드클럽","tel":"070-4217-3948","addr":"경기도 남양주시 진접읍 부평리 600-5번지","category":"레저업소 - 당 구 장"},{"name":"광릉왕꼼장어","tel":"031-575-5611","addr":"경기도 남양주시 진접읍 부평리 600-5번지","category":"일반휴게음식 - 일반한식"},{"name":"드림사이트PC방","tel":"070-4945-2556","addr":"경기도 남양주시 진접읍 부평리 600-5번지 2층","category":"레저업소 - 기타레져업소"},{"name":"악쓰는하마노래방","tel":"031-573-2572","addr":"경기도 남양주시 진접읍 부평리 600-5번지 지하층","category":"레저업소 - 노 래 방"},{"name":"진접오토바이","tel":"031-572-6458","addr":"경기도 남양주시 진접읍 부평리 600-5번지","category":"수리서비스 - 기타수리서비스"},{"name":"한라동물약품","tel":"031-529-7622","addr":"경기도 남양주시 진접읍 부평리 600-5번지","category":"약국 - 약국"},{"name":"해동검도","tel":"031-574-3358","addr":"경기도 남양주시 진접읍 부평리 600-5번지 3층","category":"학원 - 예·체능계학원"},{"name":"현미용타운","tel":"031-529-0736","addr":"경기도 남양주시 진접읍 부평리 600-5번지","category":"보건위생 - 미용원"}]},{"lat":"37.753101375","long":"127.19947223","items":[{"name":"JOY애드","tel":"031-527-0455","addr":"경기도 남양주시 진접읍 부평리 378-1","category":"레저업소 - 기타레져업소"}]},{"lat":"37.741626362","long":"127.19758122","items":[{"name":"강민주헤어뷰","tel":"","addr":"경기도 남양주시 진접읍 부평리 613-9번지 102호","category":"보건위생 - 미용원"},{"name":"평안감자탕","tel":"031-573-0328","addr":"경기도 남양주시 진접읍 부평리 613-9번지 1층 일부","category":"일반휴게음식 - 일반한식"}]},{"lat":"37.743352778","long":"127.19963932","items":[{"name":"강산떡방앗간","tel":"031-527-7291","addr":"경기도 남양주시 진접읍 부평리 528-17번지","category":"음료식품 - 제과점"}]},{"lat":"37.729799013","long":"127.19624574","items":[{"name":"개나리식품(카페 토르)","tel":"031-572-8888","addr":"경기도 남양주시 진접읍 부평리 745-2번지","category":"음료식품 - 기타음료식품"}]},{"lat":"37.740594141","long":"127.20066444","items":[{"name":"경동서비스","tel":"031-529-3298","addr":"경기도 남양주시 진접읍 부평리 756번지 진접센트레빌시티2단지 204동 702호","category":"건축자재 - 보일러·펌프·샷시"}]},{"lat":"37.747102404","long":"127.18747469","items":[{"name":"고향집","tel":"031-527-7665","addr":"경기도 남양주시 진접읍 부평리 258-48번지 1층","category":"일반휴게음식 - 일반한식"}]},{"lat":"37.760708808","long":"127.19188896","items":[{"name":"곰디자인","tel":"070-4244-1252","addr":"경기도 남양주시 진접읍 부평리 189-5번지","category":"용역 서비스 - 사무서비스"},{"name":"루피노퍼니처","tel":"031-573-4743","addr":"경기도 남양주시 진접읍 부평리 189-5","category":"가구 - 일반가구"}]},{"lat":"37.743569327","long":"127.19944701","items":[{"name":"광릉내장터사철탕","tel":"031-527-3232","addr":"경기도 남양주시 진접읍 부평리 528-33","category":"일반휴게음식 - 일반한식"}]},{"lat":"37.741873548","long":"127.20063381","items":[{"name":"광릉어린이집[아이행복]","tel":"031-527-6645","addr":"경기도 남양주시 진접읍 부평리 594번지","category":"학원 - 유아원"}]},{"lat":"37.742929936","long":"127.19927514","items":[{"name":"광릉한옥집","tel":"031-574-6630","addr":"경기도 남양주시 진접읍 부평리 602-1번지","category":"일반휴게음식 - 일반한식"}]},{"lat":"37.751769763","long":"127.19839074","items":[{"name":"광무종합모터","tel":"","addr":"경기도 남양주시 진접읍 부평리 452번지 4,5호","category":"수리서비스 - 기타수리서비스"},{"name":"그린피스","tel":"031-515-5523","addr":"경기도 남양주시 진접읍 부평리 452번지","category":"신변잡화 - 기타잡화"}]},{"lat":"37.743991295","long":"127.2003331","items":[{"name":"광천식당","tel":"031-527-7002","addr":"경기도 남양주시 진접읍 부평리 525-8번지 2층","category":"일반휴게음식 - 일반한식"},{"name":"광천정육점","tel":"031-527-7002","addr":"경기도 남양주시 진접읍 부평리 525-8번지","category":"음료식품 - 정육점"}]},{"lat":"37.740463704","long":"127.19783912","items":[{"name":"구박사곱창","tel":"031-572-1779","addr":"경기도 남양주시 진접읍 부평리 751-5번지 106호","category":"일반휴게음식 - 일반한식"},{"name":"김식당","tel":"031-527-0881","addr":"경기도 남양주시 진접읍 부평리 751-5번지 104,105호","category":"일반휴게음식 - 일반한식"},{"name":"달콤한닭강정","tel":"031-575-6130","addr":"경기도 남양주시 진접읍 부평리 751-5번지 1층","category":"일반휴게음식 - 스넥"},{"name":"닭발굽는청년","tel":"","addr":"경기도 남양주시 진접읍 부평리 751-5번지 103호 102호,103호","category":"일반휴게음식 - 일반한식"},{"name":"메레인","tel":"031-527-8977","addr":"경기도 남양주시 진접읍 부평리 751-5번지 1층 102호, 103호","category":"음료식품 - 기타음료식품"},{"name":"센트레빌남성컷트점","tel":"031-571-7703","addr":"경기도 남양주시 진접읍 부평리 751-5번지 107호","category":"보건위생 - 미용원"}]},{"lat":"37.739799113","long":"127.19655537","items":[{"name":"구이랑 찜이랑","tel":"031-528-1065","addr":"경기도 남양주시 진접읍 부평리 625-14번지 1층","category":"일반휴게음식 - 일반한식"},{"name":"팔구전기공사","tel":"031-574-8904","addr":"경기도 남양주시 진접읍 부평리 625-14번지","category":"건축자재 - 조명기구"}]},{"lat":"37.741742247","long":"127.19833033","items":[{"name":"국시가","tel":"031-527-8099","addr":"경기도 남양주시 진접읍 부평리 612-2번지 동호빌딩 1층 2-1호","category":"일반휴게음식 - 일반한식"},{"name":"먹거리광릉","tel":"031-573-0220","addr":"경기도 남양주시 진접읍 부평리 612-2번지 동호빌딩","category":"일반휴게음식 - 일반한식"},{"name":"무림오피스웨이남양주점","tel":"031-527-0704","addr":"경기도 남양주시 진접읍 부평리 612-2번지 5통2반","category":"서적문구 - 문구용품"},{"name":"진족발","tel":"031-573-9279","addr":"경기도 남양주시 진접읍 부평리 612-2번지","category":"일반휴게음식 - 일반한식"},{"name":"체인지헤어","tel":"031-527-5086","addr":"경기도 남양주시 진접읍 부평리 612-2","category":"보건위생 - 미용원"},{"name":"치킨뱅이","tel":"031-000-0000","addr":"경기도 남양주시 진접읍 부평리 612-2번지 동호빌딩 1층","category":"일반휴게음식 - 주점"},{"name":"파리바게뜨진접센트레빌점","tel":"031-528-8170","addr":"경기도 남양주시 진접읍 부평리 612-2번지 동호빌딩 1층","category":"음료식품 - 제과점"},{"name":"해돋이","tel":"031-575-8208","addr":"경기도 남양주시 진접읍 부평리 612-2번지","category":"일반휴게음식 - 일반한식"},{"name":"흥부전","tel":"031-575-5611","addr":"경기도 남양주시 진접읍 부평리 612-2 1층동호빌딩8-2","category":"일반휴게음식 - 일반한식"}]},{"lat":"37.741315586","long":"127.20025792","items":[{"name":"귀뚜라미보일러 전문수리점","tel":"","addr":"경기도 남양주시 진접읍 부평리 756번지 진접센트레빌시티2단지 207동 1701호","category":"용역 서비스 - 기타용역서비스"}]},{"lat":"37.743568589","long":"127.1998895","items":[{"name":"금호상사(공사금액 1천5백만원 미만)","tel":"031-527-1254","addr":"경기도 남양주시 진접읍 부평리 528-1번지 102호","category":"용역 서비스 - 기타용역서비스"}]},{"lat":"37.748880399","long":"127.19120077","items":[{"name":"꿀꿀이약초가든","tel":"","addr":"경기도 남양주시 진접읍 부평리 266-22번지 1층","category":"일반휴게음식 - 일반한식"}]},{"lat":"37.741686057","long":"127.19961222","items":[{"name":"남북통일","tel":"031-528-9266","addr":"경기도 남양주시 진접읍 부평리 599-9번지","category":"일반휴게음식 - 일반한식"},{"name":"최강태권도체육관","tel":"031-572-3536","addr":"경기도 남양주시 진접읍 부평리 599-9번지 4층","category":"학원 - 예·체능계학원"}]},{"lat":"37.740462878","long":"127.19833831","items":[{"name":"네일에비뉴","tel":"031-1111-1111","addr":"경기도 남양주시 진접읍 부평리 751-7번지 1층","category":"보건위생 - 피부미용실"},{"name":"미마루감자탕","tel":"031-575-8288","addr":"경기도 남양주시 진접읍 부평리 751-7번지","category":"일반휴게음식 - 일반한식"},{"name":"아벨라뷰티","tel":"","addr":"경기도 남양주시 진접읍 부평리 751-7번지 1층 3호일부","category":"보건위생 - 피부미용실"}]},{"lat":"37.744072153","long":"127.20046947","items":[{"name":"농업회사법인 대동농원 주식회사","tel":"031-572-5478","addr":"경기도 남양주시 진접읍 부평리 526","category":"문화.취미 - 화원"},{"name":"씨유진접부평점","tel":"031-575-4477","addr":"경기도 남양주시 진접읍 부평리 526번지 1층","category":"유통업 영리 - 편 의 점"},{"name":"쿨노래연습장","tel":"032-527-9533","addr":"경기도 남양주시 진접읍 부평리 526번지 2층","category":"레저업소 - 노 래 방"}]},{"lat":"37.738728658","long":"127.20096579","items":[{"name":"누리경영지원센터","tel":"070-5475-4754","addr":"경기도 남양주시 진접읍 부평리 670-1번지 신광로얄빌라3차 나동 1층 101호","category":"학원 - 기타 교육기관"}]},{"lat":"37.760960855","long":"127.19202578","items":[{"name":"뉴-텍에너지","tel":"031-573-3906","addr":"경기도 남양주시 진접읍 부평리 189-2","category":"기타 - 기타 전문점"}]},{"lat":"37.754408167","long":"127.19922604","items":[{"name":"다원테크","tel":"070-8654-7833","addr":"경기도 남양주시 진접읍 부평리 334-2","category":"기타 - 기계공구"}]},{"lat":"37.742541922","long":"127.19963717","items":[{"name":"다인어린이집","tel":"031-574-4550","addr":"경기도 남양주시 진접읍 부평리 600-9번지","category":"학원 - 유아원"},{"name":"다인어린이집[아이행복]","tel":"031-574-4550","addr":"경기도 남양주시 진접읍 부평리 600-9번지","category":"학원 - 유아원"}]},{"lat":"37.74340744","long":"127.1992764","items":[{"name":"대동상회","tel":"031-527-7052","addr":"경기도 남양주시 진접읍 부평리 528-36번지","category":"건축자재 - 목재·석재·철물"}]},{"lat":"37.750741852","long":"127.1988873","items":[{"name":"대성천막","tel":"031-529-5583","addr":"경기도 남양주시 진접읍 부평리 447-5번지","category":"직물 - 카페트,커튼,천막,지물"},{"name":"천일광고","tel":"031-528-6954","addr":"경기도 남양주시 진접읍 부평리 447-5번지","category":"용역 서비스 - 종합용역"},{"name":"한성포장","tel":"031-529-0641","addr":"경기도 남양주시 진접읍 부평리 447-5","category":"기타 - 기타 전문점"}]},{"lat":"37.740461917","long":"127.19891692","items":[{"name":"대치스마트에듀영어교습소","tel":"031-515-5527","addr":"경기도 남양주시 진접읍 부평리 751-9번지 3층 301호 일부","category":"학원 - 외국어학원"},{"name":"백마크리닝(남양주6호점)","tel":"","addr":"경기도 남양주시 진접읍 부평리 751-9번지 105호","category":"수리서비스 - 세탁소"},{"name":"베이크하임","tel":"031-528-9290","addr":"경기도 남양주시 진접읍 부평리 751-9번지 1층 103호","category":"음료식품 - 제과점"},{"name":"성은주뷰티","tel":"031-527-8894","addr":"경기도 남양주시 진접읍 부평리 751-9번지 우수빌딩 109호 108호 , 109호","category":"보건위생 - 미용원"},{"name":"세븐일레븐진접센트레빌점","tel":"","addr":"경기도 남양주시 진접읍 부평리 751-9번지 106호","category":"유통업 영리 - 편 의 점"},{"name":"우리네축산 광릉점","tel":"031-573-9006","addr":"경기도 남양주시 진접읍 부평리 751-9번지 1층","category":"음료식품 - 정육점"},{"name":"커피마마","tel":"031-575-7849","addr":"경기도 남양주시 진접읍 부평리 751-9번지 107호","category":"일반휴게음식 - 서양음식"}]},{"lat":"37.740676082","long":"127.20015412","items":[{"name":"대풍건설","tel":"070-7664-2344","addr":"경기도 남양주시 진접읍 부평리 756번지 진접센트레빌시티2단지 203동 1204호","category":"건축자재 - 인테리어전문"},{"name":"헤일리교실(Haley's class)","tel":"031-591-5844","addr":"경기도 남양주시 진접읍 부평리 756번지 진접센트레빌시티2단지 203동 1604호","category":"학원 - 보습학원"}]},{"lat":"37.749491695","long":"127.19757913","items":[{"name":"대흥도장","tel":"031-529-5427","addr":"경기도 남양주시 진접읍 부평리 493번지","category":"건축자재 - 목재·석재·철물"}]},{"lat":"37.742624764","long":"127.19858225","items":[{"name":"대흥양행","tel":"031-575-4620","addr":"경기도 남양주시 진접읍 부평리 615-1번지 대흥양행","category":"건강식품 - 기타건강식품"},{"name":"마루학원","tel":"031-513-0446","addr":"경기도 남양주시 진접읍 부평리 615-1번지 2층","category":"학원 - 보습학원"},{"name":"오늘통닭1977(진접1호점)","tel":"031-574-6300","addr":"경기도 남양주시 진접읍 부평리 615-1번지 1층","category":"일반휴게음식 - 스넥"},{"name":"옹골진감자탕&막창","tel":"031-529-9455","addr":"경기도 남양주시 진접읍 부평리 615-1번지 1층","category":"일반휴게음식 - 일반한식"},{"name":"컴퓨터&소모품이야기","tel":"031-527-1165","addr":"경기도 남양주시 진접읍 부평리 615-1","category":"사무통신 - 컴퓨터"}]},{"lat":"37.742209259","long":"127.20456025","items":[{"name":"더꾸밈","tel":"","addr":"경기도 남양주시 진접읍 부평리 556-30번지 C동 102호","category":"가구 - 기타가구"}]},{"lat":"37.758316539","long":"127.20028038","items":[{"name":"도담요양원","tel":"031-571-1175","addr":"경기도 남양주시 진접읍 부평리 32번지","category":"기타의료기관 - 기타의료기관 및 기타"}]},{"lat":"37.761655268","long":"127.18588801","items":[{"name":"동국고무금형산업","tel":"031-529-1276","addr":"경기도 남양주시 진접읍 부평리 206-5번지","category":"건축자재 - 기타건축자재"}]},{"lat":"37.743182429","long":"127.19913966","items":[{"name":"동남설비","tel":"031-528-3336","addr":"경기도 남양주시 진접읍 부평리 528-39번지","category":"용역 서비스 - 기타용역서비스"}]},{"lat":"37.743019842","long":"127.19938883","items":[{"name":"디자인하우스","tel":"031-574-2227","addr":"경기도 남양주시 진접읍 부평리 602-9번지","category":"건축자재 - 인테리어전문"},{"name":"맛깔참죽","tel":"031-575-6288","addr":"경기도 남양주시 진접읍 부평리 602-9번지","category":"일반휴게음식 - 일반한식"},{"name":"장터수구레국밥","tel":"031-513-7673","addr":"경기도 남양주시 진접읍 부평리 602-9번지 1층","category":"일반휴게음식 - 일반한식"}]},{"lat":"37.747598016","long":"127.18741919","items":[{"name":"뜰앞에잣나무/대한불교조계종봉선사","tel":"031-527-1951","addr":"경기도 남양주시 진접읍 부평리 258-1 외1필지","category":"일반휴게음식 - 일반한식"}]},{"lat":"37.739129883","long":"127.19808521","items":[{"name":"라라어린이집[아이행복]","tel":"031-528-0333","addr":"경기도 남양주시 진접읍 부평리 764번지 진접센트레빌시티1단지 111동 101호","category":"학원 - 유아원"}]},{"lat":"37.746956899","long":"127.18833664","items":[{"name":"라브리즈","tel":"","addr":"경기도 남양주시 진접읍 부평리 258-16번지 1층","category":"일반휴게음식 - 서양음식"}]},{"lat":"37.741040463","long":"127.19774987","items":[{"name":"런웨이스키보드 아카데미","tel":"","addr":"경기도 남양주시 진접읍 부평리 751-1번지 301호","category":"레저업소 - 기타레져업소"},{"name":"멍멍S","tel":"","addr":"경기도 남양주시 진접읍 부평리 751-1번지 105,106호","category":"문화.취미 - 애완동물"},{"name":"명품구제 프리마","tel":"","addr":"경기도 남양주시 진접읍 부평리 751-1번지 1층 1,2호","category":"의류 - 기타의류"},{"name":"신광릉내자전거","tel":"031-529-4998","addr":"경기도 남양주시 진접읍 부평리 751-1번지 107호","category":"레져용품 - 스포츠·레져용품"},{"name":"유정쌀공방","tel":"031-529-8821","addr":"경기도 남양주시 진접읍 부평리 751-1번지 1층 일부","category":"음료식품 - 기타음료식품"}]},{"lat":"37.742067209","long":"127.19795678","items":[{"name":"레몬뮤직","tel":"031-529-8919","addr":"경기도 남양주시 진접읍 부평리 613-2번지 가동 3층","category":"레져용품 - 악기점"},{"name":"숲","tel":"031-111-1111","addr":"경기도 남양주시 진접읍 부평리 613-2번지 가동 1층","category":"일반휴게음식 - 서양음식"},{"name":"착한포차","tel":"031-527-5334","addr":"경기도 남양주시 진접읍 부평리 613-2번지 가동 1층","category":"일반휴게음식 - 일반한식"}]},{"lat":"37.741104391","long":"127.19722815","items":[{"name":"로열장여관","tel":"031-527-4697","addr":"경기도 남양주시 진접읍 부평리 625-1번지","category":"숙박업 - 여관/기타숙박업"}]},{"lat":"37.739124733","long":"127.20117106","items":[{"name":"르네샵(Re Ne Shop)","tel":"031-534-5000","addr":"경기도 남양주시 진접읍 부평리 758번지 진접센트레빌시티3단지 301호803동","category":"회원제형태 - 기타1"}]},{"lat":"37.755873789","long":"127.20097745","items":[{"name":"리더스퍼니쳐","tel":"031-69-4016","addr":"경기도 남양주시 진접읍 부평리 352-3번지","category":"가구 - 일반가구"}]},{"lat":"37.760041341","long":"127.19236389","items":[{"name":"마을슈퍼","tel":"031-529-3553","addr":"경기도 남양주시 진접읍 부평리 119-1번지","category":"유통업 영리 - 슈퍼마켓"}]},{"lat":"37.746650451","long":"127.1884153","items":[{"name":"만물건강식품","tel":"031-527-8375","addr":"경기도 남양주시 진접읍 부평리 258-12","category":"회원제형태 - 건강식품"}]},{"lat":"37.752237428","long":"127.19889124","items":[{"name":"메인퍼니스(MAINFURNIS)","tel":"031-573-5538","addr":"경기도 남양주시 진접읍 부평리 457번지","category":"가구 - 철제가구"}]},{"lat":"37.743208853","long":"127.19950279","items":[{"name":"명성케미칼","tel":"031-573-1700","addr":"경기도 남양주시 진접읍 부평리 528-25번지","category":"기타 - 기타 전문점"}]},{"lat":"37.740714089","long":"127.19897431","items":[{"name":"모닭모닭","tel":"031-572-9920","addr":"경기도 남양주시 진접읍 부평리 754-3번지 1층 102호","category":"일반휴게음식 - 일반한식"},{"name":"우리동네포차","tel":"031-527-3692","addr":"경기도 남양주시 진접읍 부평리 754-3번지 1동 101호","category":"일반휴게음식 - 주점"}]},{"lat":"37.747011918","long":"127.18772408","items":[{"name":"모심","tel":"031-550-5140","addr":"경기도 남양주시 진접읍 부평리 258-6번지","category":"일반휴게음식 - 일반한식"}]},{"lat":"37.75720989","long":"127.19388862","items":[{"name":"무무트","tel":"031-528-9314","addr":"경기도 남양주시 진접읍 부평리 310번지","category":"가구 - 일반가구"}]},{"lat":"37.744657447","long":"127.2006639","items":[{"name":"물소운동화이물빨래방","tel":"031-527-8254","addr":"경기도 남양주시 진접읍 부평리 523-2번지","category":"수리서비스 - 세탁소"},{"name":"베스트맨","tel":"031-529-2006","addr":"경기도 남양주시 진접읍 부평리 523-2번지","category":"보건위생 - 미용원"},{"name":"원가네추어매운탕","tel":"031-527-7838","addr":"경기도 남양주시 진접읍 부평리 523-2번지","category":"일반휴게음식 - 일반한식"}]},{"lat":"37.742768124","long":"127.19905914","items":[{"name":"미니블룸 mini_bloom","tel":"","addr":"경기도 남양주시 진접읍 부평리 602-3번지 3층","category":"문화.취미 - 화원"},{"name":"삼신공구볼트","tel":"031-527-0909","addr":"경기도 남양주시 진접읍 부평리 602-3번지","category":"기타 - 기계공구"},{"name":"삼신종합공구","tel":"031-556-6110","addr":"경기도 남양주시 진접읍 부평리 602-3번지","category":"기타 - 기계공구"}]},{"lat":"37.757014582","long":"127.20300039","items":[{"name":"바우하우스","tel":"031-571-3517","addr":"경기도 남양주시 진접읍 부평리 17-4번지","category":"가구 - 일반가구"}]},{"lat":"37.740586973","long":"127.19956393","items":[{"name":"반디어린이집[아이행복]","tel":"","addr":"경기도 남양주시 진접읍 부평리 756번지 진접센트레빌시티 202동 101호","category":"학원 - 유아원"}]},{"lat":"37.739998121","long":"127.20149105","items":[{"name":"배넷아이어린이집[아이행복]","tel":"031-572-0038","addr":"경기도 남양주시 진접읍 부평리 758번지 진접센트레빌시티3단지 302동 101호","category":"학원 - 유아원"}]},{"lat":"37.762400947","long":"127.19291464","items":[{"name":"범퍼뱅크(대광)","tel":"02-948-3004","addr":"경기도 남양주시 진접읍 부평리 192-1번지 2층","category":"자동차정비 유지 - 자동차부품"}]},{"lat":"37.742211286","long":"127.19800254","items":[{"name":"별빛요정","tel":"031-528-9965","addr":"경기도 남양주시 진접읍 부평리 613-2번지","category":"일반휴게음식 - 주점"},{"name":"진접애플치과","tel":"031-573-2804","addr":"경기도 남양주시 진접읍 부평리 613-2번지","category":"의원 - 치과의원"},{"name":"참편한가정의원","tel":"031-527-8275","addr":"경기도 남양주시 진접읍 부평리 613-2번지 1층","category":"의원 - 의원"},{"name":"푸드박스","tel":"031-551-7710","addr":"경기도 남양주시 진접읍 부평리 613-2번지","category":"음료식품 - 기타음료식품"}]},{"lat":"37.757989967","long":"127.20160723","items":[{"name":"보람엔지니어링","tel":"031-572-9896","addr":"경기도 남양주시 진접읍 부평리 19-3번지","category":"농업 - 농기계"}]},{"lat":"37.753790793","long":"127.19663723","items":[{"name":"부동산마을공인중개사사무소","tel":"031-515-8949","addr":"경기도 남양주시 진접읍 부평리 472-1번지 1층","category":"용역 서비스 - 부동산 중개·임대"},{"name":"해성한식","tel":"031-571-7377","addr":"경기도 남양주시 진접읍 부평리 472-1번지","category":"일반휴게음식 - 일반한식"}]},{"lat":"37.737430716","long":"127.20130268","items":[{"name":"부평초병설유치원[아이행복]","tel":"031-575-4630","addr":"경기도 남양주시 진접읍 부평리 761번지 부평초등학교","category":"학원 - 유치원"}]},{"lat":"37.73854864","long":"127.20086321","items":[{"name":"브니엘미용실","tel":"031-6280-0037","addr":"경기도 남양주시 진접읍 부평리 670-1번지 신광로얄빌라3차","category":"보건위생 - 미용원"}]},{"lat":"37.75262591","long":"127.19824548","items":[{"name":"삼보불교미술원","tel":"","addr":"경기도 남양주시 진접읍 부평리 456-1번지 1층","category":"신변잡화 - 기념품점"}]},{"lat":"37.761148758","long":"127.192832","items":[{"name":"삼일랩","tel":"031-527-2493","addr":"경기도 남양주시 진접읍 부평리 190-4번지 외1필지","category":"서적문구 - 과학기자재"}]},{"lat":"37.7555672","long":"127.20113549","items":[{"name":"상신비앤비","tel":"02-2232-4202","addr":"경기도 남양주시 진접읍 부평리 357번지","category":"의류 - 기타의류"}]},{"lat":"37.747011491","long":"127.18799639","items":[{"name":"샵도도리","tel":"","addr":"경기도 남양주시 진접읍 부평리 258-54번지 1층","category":"의류 - 정장"}]},{"lat":"37.74657374","long":"127.19689072","items":[{"name":"서원타이어재생공업사","tel":"031-528-4627","addr":"경기도 남양주시 진접읍 부평리 499번지","category":"자동차정비 유지 - 자동차시트·타이어"}]},{"lat":"37.745071827","long":"127.20069904","items":[{"name":"선일케미칼주식회사","tel":"031-574-7361","addr":"경기도 남양주시 진접읍 부평리 523-8번지","category":"건축자재 - 페인트"}]},{"lat":"37.760239056","long":"127.19267079","items":[{"name":"설악양봉원","tel":"02-2297-5424","addr":"경기도 남양주시 진접읍 부평리 117-2번지","category":"건강식품 - 기타건강식품"}]},{"lat":"37.739187705","long":"127.20122795","items":[{"name":"센스기획","tel":"070-8237-8962","addr":"경기도 남양주시 진접읍 부평리 758번지 진접센트레빌시티 303동 1702호","category":"회원제형태 - 기타4"},{"name":"정은희개인과외","tel":"070-8222-4737","addr":"경기도 남양주시 진접읍 부평리 758번지 진접센트레빌시티3단지 303동 201호","category":"학원 - 기타 교육기관"}]},{"lat":"37.74687551","long":"127.18852933","items":[{"name":"수목원","tel":"031-527-7616","addr":"경기도 남양주시 진접읍 부평리 258-15번지","category":"일반휴게음식 - 일반한식"}]},{"lat":"37.749186196","long":"127.1915306","items":[{"name":"수목원숯불오리","tel":"031-553-7000","addr":"경기도 남양주시 진접읍 부평리 266-19번지","category":"일반휴게음식 - 일반한식"}]},{"lat":"37.752768062","long":"127.19944865","items":[{"name":"수성건설기계정비","tel":"","addr":"경기도 남양주시 진접읍 부평리 378-5번지","category":"자동차정비 유지 - 중장비수리"}]},{"lat":"37.740708159","long":"127.19711366","items":[{"name":"숨시다","tel":"031-575-6564","addr":"경기도 남양주시 진접읍 부평리 625-4번지","category":"일반휴게음식 - 서양음식"},{"name":"양기네 불타는 연탄구이 진접점","tel":"031-575-4500","addr":"경기도 남양주시 진접읍 부평리 625-4번지","category":"일반휴게음식 - 일반한식"}]},{"lat":"37.750292104","long":"127.19294041","items":[{"name":"숲266","tel":"031-529-2660","addr":"경기도 남양주시 진접읍 부평리 266-28번지","category":"음료식품 - 기타음료식품"}]},{"lat":"37.739194094","long":"127.19739333","items":[{"name":"시온하우스","tel":"","addr":"경기도 남양주시 진접읍 부평리 764번지 진접센트레빌시티1단지 114동 402호","category":"건축자재 - 인테리어전문"}]},{"lat":"37.742685847","long":"127.1997737","items":[{"name":"신광의류수선","tel":"031-528-5685","addr":"경기도 남양주시 진접읍 부평리 600-2번지","category":"수리서비스 - 세탁소"}]},{"lat":"37.75176708","long":"127.200002","items":[{"name":"신일TEX","tel":"031-529-8024","addr":"경기도 남양주시 진접읍 부평리 387-8","category":"의류 - 정장"}]},{"lat":"37.743991428","long":"127.20025368","items":[{"name":"아담광고","tel":"031-527-3261","addr":"경기도 남양주시 진접읍 부평리 525-2번지","category":"용역 서비스 - 종합용역"}]},{"lat":"37.747234354","long":"127.2005573","items":[{"name":"아줌마공구","tel":"","addr":"경기도 남양주시 진접읍 부평리 434번지 청림빌라 103동 401호","category":"기타 - 기계공구"}]},{"lat":"37.760320507","long":"127.19244404","items":[{"name":"알테크코리아","tel":"031-572-0586","addr":"경기도 남양주시 진접읍 부평리 116-4번지 알테크코리아","category":"사무통신 - 컴퓨터"}]},{"lat":"37.740769859","long":"127.19794203","items":[{"name":"암행어사","tel":"031-528-1209","addr":"경기도 남양주시 진접읍 부평리 752-2번지","category":"일반휴게음식 - 일식·회집"},{"name":"파스팟 진접점","tel":"031-575-7573","addr":"경기도 남양주시 진접읍 부평리 752-2번지 101호","category":"레저업소 - 기타레져업소"}]},{"lat":"37.744846837","long":"127.20055095","items":[{"name":"에셀종합건재","tel":"031-529-6202","addr":"경기도 남양주시 진접읍 부평리 523-13","category":"건축자재 - 목재·석재·철물"}]},{"lat":"37.743127919","long":"127.19941181","items":[{"name":"에스케이광릉","tel":"031-528-6444","addr":"경기도 남양주시 진접읍 부평리 528-26번지","category":"사무통신 - 통신기기"}]},{"lat":"37.739891913","long":"127.20035625","items":[{"name":"엠엔비","tel":"031-532-8487","addr":"경기도 남양주시 진접읍 부평리 764번지 진접센트레빌시티1단지 103동 804호","category":"음료식품 - 농·축·수산품"}]},{"lat":"37.741210761","long":"127.19828355","items":[{"name":"여요","tel":"031-111-1111","addr":"경기도 남양주시 진접읍 부평리 750-2번지","category":"일반휴게음식 - 서양음식"}]},{"lat":"37.748569868","long":"127.18817047","items":[{"name":"연꽃유치원","tel":"031-527-1950","addr":"경기도 남양주시 진접읍 부평리 258-130번지","category":"학원 - 유치원"},{"name":"연꽃유치원[아이행복]","tel":"031-572-1950","addr":"경기도 남양주시 진접읍 부평리 258-130번지","category":"학원 - 유치원"}]},{"lat":"37.759626996","long":"127.19230609","items":[{"name":"영진카","tel":"031-571-9249","addr":"경기도 남양주시 진접읍 부평리 127-2번지","category":"자동차정비 유지 - 자동차정비"}]},{"lat":"37.749320757","long":"127.19189403","items":[{"name":"옛고을","tel":"031-575-7227","addr":"경기도 남양주시 진접읍 부평리 266-18번지","category":"일반휴게음식 - 일반한식"}]},{"lat":"37.750290773","long":"127.1992492","items":[{"name":"오성전기(주)","tel":"031-527-1664","addr":"경기도 남양주시 진접읍 부평리 494-1번지 (상가5호)","category":"전기제품 - 기타전기제품"}]},{"lat":"37.74671464","long":"127.18770065","items":[{"name":"올리브산장","tel":"031-527-7807","addr":"경기도 남양주시 진접읍 부평리 258-7번지","category":"숙박업 - 여관/기타숙박업"}]},{"lat":"37.743603373","long":"127.20063841","items":[{"name":"와우펀뮤직","tel":"031-595-1644","addr":"경기도 남양주시 진접읍 부평리 534번지 202호","category":"학원 - 기타 교육기관"}]},{"lat":"37.743406418","long":"127.19988907","items":[{"name":"용신","tel":"031-000-0000","addr":"경기도 남양주시 진접읍 부평리 529번지","category":"건축자재 - 인테리어전문"}]},{"lat":"37.744963389","long":"127.20089164","items":[{"name":"원숯불갈비","tel":"031-528-3136","addr":"경기도 남양주시 진접읍 부평리 523-7번지","category":"일반휴게음식 - 일반한식"}]},{"lat":"37.7472097","long":"127.18799688","items":[{"name":"원주식당","tel":"031-527-0311","addr":"경기도 남양주시 진접읍 부평리 258-21번지 1층","category":"일반휴게음식 - 일반한식"}]},{"lat":"37.757733431","long":"127.19327718","items":[{"name":"웰빙아트","tel":"031-528-0116","addr":"경기도 남양주시 진접읍 부평리 99-4","category":"건축자재 - 인테리어전문"}]},{"lat":"37.743847276","long":"127.2002533","items":[{"name":"유진전기","tel":"031-529-5416","addr":"경기도 남양주시 진접읍 부평리 525-20번지 2층","category":"전기제품 - 기타전기제품"}]},{"lat":"37.742533688","long":"127.19917198","items":[{"name":"으뜸식품","tel":"031-527-3839","addr":"경기도 남양주시 진접읍 부평리 601-14번지 창성빌라 B동 101호","category":"음료식품 - 기타음료식품"}]},{"lat":"37.755179544","long":"127.20128198","items":[{"name":"의자닷컴","tel":"031-573-7689","addr":"경기도 남양주시 진접읍 부평리 358-2번지","category":"가구 - 일반가구"}]},{"lat":"37.737603098","long":"127.20058841","items":[{"name":"이화보아스음악학원","tel":"031-572-1532","addr":"경기도 남양주시 진접읍 부평리 763-1번지","category":"학원 - 예·체능계학원"},{"name":"진접토피아어학원","tel":"031-573-2001","addr":"경기도 남양주시 진접읍 부평리 763-1번지 2층","category":"학원 - 외국어학원"},{"name":"화이트타이거태권도장","tel":"031-528-0028","addr":"경기도 남양주시 진접읍 부평리 763-1번지 1층","category":"학원 - 예·체능계학원"}]},{"lat":"37.747462358","long":"127.18774789","items":[{"name":"인도차이나라운지","tel":"031-527-2057","addr":"경기도 남양주시 진접읍 부평리 258-23번지 1층,2층","category":"일반휴게음식 - 서양음식"}]},{"lat":"37.737742419","long":"127.19808157","items":[{"name":"일광식당","tel":"031-527-2823","addr":"경기도 남양주시 진접읍 부평리 640","category":"일반휴게음식 - 일반한식"}]},{"lat":"37.743326449","long":"127.19921946","items":[{"name":"장터순대국","tel":"031-574-3038","addr":"경기도 남양주시 진접읍 부평리 528-37번지","category":"일반휴게음식 - 일반한식"}]},{"lat":"37.747623433","long":"127.19955985","items":[{"name":"주식회사 윈즈원","tel":"031-000-0000","addr":"경기도 남양주시 진접읍 부평리 497-2번지","category":"음료식품 - 기타음료식품"}]},{"lat":"37.747487418","long":"127.20008142","items":[{"name":"주식회사 이앤알","tel":"031-594-6371","addr":"경기도 남양주시 진접읍 부평리 436-6번지 1층","category":"용역 서비스 - 종합용역"}]},{"lat":"37.760511509","long":"127.20227217","items":[{"name":"주식회사 창대시스템","tel":"02-000-0000","addr":"경기도 남양주시 진접읍 부평리 38번지 1층","category":"건축자재 - 인테리어전문"}]},{"lat":"37.746765575","long":"127.20072624","items":[{"name":"주식회사대원공업사","tel":"031-527-5555","addr":"경기도 남양주시 진접읍 부평리 521-11번지 1층","category":"자동차정비 유지 - 자동차정비"}]},{"lat":"37.762427926","long":"127.20380938","items":[{"name":"주식회사헤세드빌트인","tel":"031-523-2137","addr":"경기도 남양주시 진접읍 부평리 57-5번지","category":"가구 - 일반가구"}]},{"lat":"37.762959627","long":"127.19285932","items":[{"name":"중산금속시스템","tel":"031-575-7471","addr":"경기도 남양주시 진접읍 부평리 194-1번지","category":"기타 - 기계공구"}]},{"lat":"37.747069356","long":"127.19683528","items":[{"name":"진명소파","tel":"031-575-3811","addr":"경기도 남양주시 진접읍 부평리 491-8번지","category":"가구 - 일반가구"},{"name":"태평산업","tel":"031-529-6800","addr":"경기도 남양주시 진접읍 부평리 491-8번지","category":"문화.취미 - 민예·공예품"}]},{"lat":"37.73984276","long":"127.19740638","items":[{"name":"진접미술","tel":"031-573-4650","addr":"경기도 남양주시 진접읍 부평리 764번지 진접센트레빌시티 115동 302호","category":"학원 - 기타 교육기관"}]},{"lat":"37.747047137","long":"127.1882461","items":[{"name":"착한쌈밥","tel":"031-529-3381","addr":"경기도 남양주시 진접읍 부평리 258-91번지","category":"일반휴게음식 - 일반한식"}]},{"lat":"37.747101408","long":"127.18811008","items":[{"name":"청계식당","tel":"031-511-6156","addr":"경기도 남양주시 진접읍 부평리 258-20번지","category":"일반휴게음식 - 일반한식"}]},{"lat":"37.749015288","long":"127.19135997","items":[{"name":"카페 숲 숲","tel":"031-527-4466","addr":"경기도 남양주시 진접읍 부평리 266-29번지 외1필지","category":"일반휴게음식 - 서양음식"}]},{"lat":"37.747012434","long":"127.18739504","items":[{"name":"큰대문집","tel":"031-527-7235","addr":"경기도 남양주시 진접읍 부평리 258-49","category":"일반휴게음식 - 일반한식"}]},{"lat":"37.746767181","long":"127.18866521","items":[{"name":"털냉이매운탕","tel":"031-527-7773","addr":"경기도 남양주시 진접읍 부평리 258-76번지 70호","category":"일반휴게음식 - 일반한식"}]},{"lat":"37.763573558","long":"127.20297267","items":[{"name":"파이어킬러","tel":"031-575-6119","addr":"경기도 남양주시 진접읍 부평리 59-13번지","category":"기타 - 기계공구"}]},{"lat":"37.761572509","long":"127.20352335","items":[{"name":"평촌송어장","tel":"031-527-3926","addr":"경기도 남양주시 진접읍 부평리 56-2번지","category":"일반휴게음식 - 일반한식"}]},{"lat":"37.741623841","long":"127.19910151","items":[{"name":"프린룸","tel":"","addr":"경기도 남양주시 진접읍 부평리 605-3번지 목화하이츠 101동 104호","category":"문화.취미 - 화원"}]},{"lat":"37.751152989","long":"127.20086274","items":[{"name":"플러스","tel":"02-527-6369","addr":"경기도 남양주시 진접읍 부평리 395번지","category":"전기제품 - 가전제품"}]},{"lat":"37.754491419","long":"127.19792131","items":[{"name":"한국영리더십센터","tel":"031-553-7667","addr":"경기도 남양주시 진접읍 부평리 326번지 2층 1호","category":"서적문구 - 일반서적"}]},{"lat":"37.743989389","long":"127.20146768","items":[{"name":"핫팩&버스","tel":"031-512-2249","addr":"경기도 남양주시 진접읍 부평리 537-7번지 1동 201호","category":"학원 - 기타 교육기관"}]},{"lat":"37.743236448","long":"127.19916249","items":[{"name":"현대모터","tel":"031-528-9793","addr":"경기도 남양주시 진접읍 부평리 528-38번지","category":"기타 - 기계공구"}]},{"lat":"37.743433731","long":"127.19971895","items":[{"name":"호박호프","tel":"031-111-1111","addr":"경기도 남양주시 진접읍 부평리 528-16번지","category":"일반휴게음식 - 주점"}]},{"lat":"37.75921265","long":"127.19224829","items":[{"name":"홍성한식뷔페","tel":"031-574-7377","addr":"경기도 남양주시 진접읍 부평리 129번지","category":"일반휴게음식 - 일반한식"}]},{"lat":"37.741932179","long":"127.19788835","items":[{"name":"희망약국","tel":"070-7680-9327","addr":"경기도 남양주시 진접읍 부평리 613-3","category":"약국 - 약국"}]}]