[{"lat":"37.802482809","long":"127.07056763","items":[{"name":"(주)고메돈까스 양주직영점","tel":"031-856-5522","addr":"경기도 양주시 고읍동 377번지","category":"일반휴게음식 - 서양음식"}]},{"lat":"37.804064927","long":"127.07648503","items":[{"name":"(주)뮬란텍스","tel":"031-247-5859","addr":"경기도 양주시 고읍동 143번지","category":"직물 - 옷감·직물"}]},{"lat":"37.807229685","long":"127.08634473","items":[{"name":"(주)엔.타브","tel":"031-821-9835","addr":"경기도 양주시 고읍동 13-1번지","category":"유통업 영리 - 기타유통업"}]},{"lat":"37.808616955","long":"127.07278759","items":[{"name":"(주)은광기업","tel":"031-846-7425","addr":"경기도 양주시 고읍동 251-1번지","category":"건축자재 - 기타건축자재"}]},{"lat":"37.805004211","long":"127.0727047","items":[{"name":"(주)피알오","tel":"031-841-3168","addr":"경기도 양주시 고읍동 268-3번지","category":"유통업 영리 - 기타유통업"},{"name":"은혜","tel":"031-847-0968","addr":"경기도 양주시 고읍동 268-3번지","category":"의류 - 정장"}]},{"lat":"37.800205667","long":"127.08145443","items":[{"name":"39면옥","tel":"031-841-0113","addr":"경기도 양주시 고읍동 448-3번지","category":"일반휴게음식 - 일반한식"}]},{"lat":"37.80047573","long":"127.081784","items":[{"name":"GS25고읍세란점","tel":"","addr":"경기도 양주시 고읍동 446-7번지","category":"유통업 영리 - 편 의 점"},{"name":"그림숲미술","tel":"070-7405-0531","addr":"경기도 양주시 고읍동 446-7번지 3층","category":"학원 - 예·체능계학원"},{"name":"피자명장","tel":"031-847-4900","addr":"경기도 양주시 고읍동 446-7번지 1층","category":"일반휴게음식 - 서양음식"}]},{"lat":"37.80234287","long":"127.07845905","items":[{"name":"e골프","tel":"031-837-3131","addr":"경기도 양주시 고읍동 439번지 2층","category":"회원제형태 - 레져업소"}]},{"lat":"37.801561446","long":"127.07462039","items":[{"name":"가화","tel":"031-821-4757","addr":"경기도 양주시 고읍동 130번지 1층","category":"일반휴게음식 - 중국식"}]},{"lat":"37.803114848","long":"127.06812692","items":[{"name":"간판요정","tel":"02-6340-5385","addr":"경기도 양주시 고읍동 349번지","category":"건축자재 - 인테리어전문"}]},{"lat":"37.800847928","long":"127.07746968","items":[{"name":"거꾸로수학","tel":"000-000-0000","addr":"경기도 양주시 고읍동 455번지 산내들마을우남퍼스트빌 105동 1102호","category":"학원 - 보습학원"}]},{"lat":"37.804669881","long":"127.07433952","items":[{"name":"경기리스","tel":"031-837-9239","addr":"경기도 양주시 고읍동 262-15번지","category":"신변잡화 - 기타잡화"},{"name":"스피드자동차운전학원","tel":"031-1577-4387","addr":"경기도 양주시 고읍동 262-15번지 16.20","category":"학원 - 기능학원"}]},{"lat":"37.804701356","long":"127.08150462","items":[{"name":"경기북부특판","tel":"031-841-0026","addr":"경기도 양주시 고읍동 58-5번지","category":"음료식품 - 기타음료식품"},{"name":"수세차카페","tel":"031-842-8450","addr":"경기도 양주시 고읍동 58-5번지 1층","category":"일반휴게음식 - 서양음식"},{"name":"채움식당","tel":"031-847-1230","addr":"경기도 양주시 고읍동 58-5번지 1층 일부","category":"일반휴게음식 - 일반한식"}]},{"lat":"37.804809165","long":"127.08195893","items":[{"name":"고읍카공업사","tel":"031-858-8207","addr":"경기도 양주시 고읍동 58-1번지","category":"자동차정비 유지 - 자동차부품"}]},{"lat":"37.801336175","long":"127.07467695","items":[{"name":"귀복자동차","tel":"031-845-8118","addr":"경기도 양주시 고읍동 129-1번지","category":"자동차정비 유지 - 자동차정비"},{"name":"피트 인(PIT-in)","tel":"","addr":"경기도 양주시 고읍동 129-1번지","category":"자동차정비 유지 - 자동차부품"}]},{"lat":"37.800448808","long":"127.08162501","items":[{"name":"그린스쿨","tel":"031-859-8596","addr":"경기도 양주시 고읍동 446-6번지 1층 103호","category":"의류 - 단체복"},{"name":"그린스쿨","tel":"031-859-8596","addr":"경기도 양주시 고읍동 446-6번지","category":"의류 - 맞춤복점"}]},{"lat":"37.80397849","long":"127.07037596","items":[{"name":"금문","tel":"031-840-8204","addr":"경기도 양주시 고읍동 403번지","category":"건축자재 - 기타건축자재"},{"name":"한유상사","tel":"031-874-3097","addr":"경기도 양주시 고읍동 403번지 C동","category":"자동차정비 유지 - 자동차부품"}]},{"lat":"37.799782373","long":"127.0812269","items":[{"name":"꾼떡양주점","tel":"031-843-0872","addr":"경기도 양주시 고읍동 449번지","category":"일반휴게음식 - 스넥"},{"name":"아르니애","tel":"070-7078-4488","addr":"경기도 양주시 고읍동 449번지 1층","category":"일반휴게음식 - 서양음식"},{"name":"통큰딱따구리","tel":"031-846-8025","addr":"경기도 양주시 고읍동 449번지 103호","category":"서적문구 - 문구용품"},{"name":"헤어필","tel":"031-846-6781","addr":"경기도 양주시 고읍동 449번지 101호","category":"보건위생 - 미용원"}]},{"lat":"37.800233042","long":"127.08093216","items":[{"name":"네네치킨","tel":"031-845-9282","addr":"경기도 양주시 고읍동 446-2번지 1층 일부","category":"일반휴게음식 - 스넥"}]},{"lat":"37.804951596","long":"127.07022923","items":[{"name":"늘푸른 유통","tel":"","addr":"경기도 양주시 고읍동 278-4번지","category":"음료식품 - 기타음료식품"}]},{"lat":"37.799673995","long":"127.08162418","items":[{"name":"다빈피자치킨(양주점)","tel":"031-848-9044","addr":"경기도 양주시 고읍동 450-2번지 1층","category":"일반휴게음식 - 서양음식"},{"name":"떡부자","tel":"031-842-4006","addr":"경기도 양주시 고읍동 450-2번지","category":"음료식품 - 제과점"}]},{"lat":"37.801838216","long":"127.07865156","items":[{"name":"단샘의원","tel":"031-856-9057","addr":"경기도 양주시 고읍동 439-2번지 세진빌딩 401호","category":"의원 - 의원"},{"name":"달콤아이스크림전문점","tel":"031-821-2452","addr":"경기도 양주시 고읍동 439-2번지 세진빌딩 106호","category":"음료식품 - 제과점"},{"name":"머리향기","tel":"031-878-5963","addr":"경기도 양주시 고읍동 439-2번지 세진빌딩 202호","category":"보건위생 - 화장품"},{"name":"사랑약국","tel":"031-847-5393","addr":"경기도 양주시 고읍동 439-2번지 세진빌딩 103호","category":"약국 - 약국"},{"name":"와이에이치에스해법에듀고읍학원","tel":"031-848-1018","addr":"경기도 양주시 고읍동 439-2번지 세진빌딩 2층 201호","category":"학원 - 보습학원"},{"name":"크리크리창의보드통합사고력학원","tel":"031-847-4242","addr":"경기도 양주시 고읍동 439-2번지 세진빌딩 402호","category":"학원 - 보습학원"},{"name":"토크 앤 빈","tel":"031-843-8498","addr":"경기도 양주시 고읍동 439-2번지 세진빌딩 101호","category":"일반휴게음식 - 서양음식"},{"name":"파리바게트 (양주고읍세진점)","tel":"031-821-4449","addr":"경기도 양주시 고읍동 439-2번지 세진빌딩 105호 104","category":"음료식품 - 제과점"},{"name":"파머스치킨","tel":"031-841-1759","addr":"경기도 양주시 고읍동 439-2번지 세진빌딩 1층 107호","category":"일반휴게음식 - 스넥"},{"name":"휘트니스W 고덕점","tel":"031-821-8217","addr":"경기도 양주시 고읍동 439-2번지 세진빌딩 5층","category":"레저업소 - 헬스클럽"}]},{"lat":"37.796946252","long":"127.07837407","items":[{"name":"달링","tel":"070-4176-9931","addr":"경기도 양주시 고읍동 452번지 산내들마을휴먼시아4단지아파트 상가동 1층 101호","category":"일반휴게음식 - 서양음식"},{"name":"로제타스톤영어교실고읍교습소","tel":"031-825-3855","addr":"경기도 양주시 고읍동 452번지 산내들마을휴먼시아 상가동 204호","category":"학원 - 외국어학원"},{"name":"봉쥬르","tel":"031-856-0254","addr":"경기도 양주시 고읍동 452번지 산내들마을휴먼시아4단지아파트 상가동 203호","category":"보건위생 - 화장품"},{"name":"수학의달인수학교습소","tel":"031-821-0333","addr":"경기도 양주시 고읍동 452번지 산내들마을휴먼시아 203호","category":"회원제형태 - 학원"},{"name":"자연애반찬","tel":"070-4616-1376","addr":"경기도 양주시 고읍동 452번지 산내들마을휴먼시아 상가동 103호","category":"음료식품 - 기타음료식품"}]},{"lat":"37.800395235","long":"127.08089827","items":[{"name":"달콤한공장","tel":"031-111-1111","addr":"경기도 양주시 고읍동 446-1번지 101호","category":"일반휴게음식 - 일반한식"},{"name":"봄날","tel":"","addr":"경기도 양주시 고읍동 446-1번지 1층 102호","category":"의류 - 정장"},{"name":"통큰김밥","tel":"031-825-4497","addr":"경기도 양주시 고읍동 446-1번지","category":"일반휴게음식 - 일반한식"}]},{"lat":"37.806644955","long":"127.07095751","items":[{"name":"대원공조시스템","tel":"","addr":"경기도 양주시 고읍동 297-4번지","category":"용역 서비스 - 기타용역서비스"}]},{"lat":"37.804225348","long":"127.07923311","items":[{"name":"동문가구","tel":"031-848-8882","addr":"경기도 양주시 고읍동 153-2번지","category":"가구 - 일반가구"}]},{"lat":"37.806562631","long":"127.07306954","items":[{"name":"동화종합상사","tel":"031-848-7900","addr":"경기도 양주시 고읍동 271-10번지","category":"신변잡화 - 기념품점"}]},{"lat":"37.806232978","long":"127.08148353","items":[{"name":"로이 냉열시스템","tel":"","addr":"경기도 양주시 고읍동 49-4번지","category":"용역 서비스 - 기타용역서비스"}]},{"lat":"37.805231579","long":"127.08348098","items":[{"name":"만족369족발","tel":"031-821-1369","addr":"경기도 양주시 고읍동 20-17번지 1층","category":"일반휴게음식 - 일반한식"}]},{"lat":"37.800426755","long":"127.07379042","items":[{"name":"모빌리언","tel":"031-846-7476","addr":"경기도 양주시 고읍동 435-18번지 지하1층","category":"자동차정비 유지 - 카인테리어"}]},{"lat":"37.800034744","long":"127.0810682","items":[{"name":"뮤엠영어교습소","tel":"031-846-0582","addr":"경기도 양주시 고읍동 448번지","category":"학원 - 보습학원"},{"name":"양주꽃다있는방","tel":"031-846-6555","addr":"경기도 양주시 고읍동 448번지 102호","category":"일반휴게음식 - 일반한식"},{"name":"양주청년회","tel":"031-847-3022","addr":"경기도 양주시 고읍동 448번지","category":"기타 - 비영리/비대상"},{"name":"홍메이드제이","tel":"031-846-6555","addr":"경기도 양주시 고읍동 448번지 102호","category":"문화.취미 - 화원"}]},{"lat":"37.799566033","long":"127.08139698","items":[{"name":"바닐라","tel":"031-848-3428","addr":"경기도 양주시 고읍동 450번지 1층","category":"의류 - 정장"},{"name":"이오사(254)","tel":"070-8612-9729","addr":"경기도 양주시 고읍동 450번지 1층 103호","category":"의류 - 정장"},{"name":"피가로헤어살롱","tel":"031-847-0082","addr":"경기도 양주시 고읍동 450번지","category":"보건위생 - 미용원"}]},{"lat":"37.800142691","long":"127.08131811","items":[{"name":"바른생활","tel":"031-821-4659","addr":"경기도 양주시 고읍동 448-2번지 A동 1층","category":"일반휴게음식 - 서양음식"},{"name":"크린토피아 양주고읍TS푸른솔점","tel":"031-821-0207","addr":"경기도 양주시 고읍동 448-2번지","category":"수리서비스 - 세탁소"}]},{"lat":"37.799836316","long":"127.08139727","items":[{"name":"박원석39족발","tel":"031-847-3982","addr":"경기도 양주시 고읍동 449-1번지","category":"일반휴게음식 - 일반한식"}]},{"lat":"37.804753906","long":"127.08373027","items":[{"name":"백년간장게장","tel":"031-845-9300","addr":"경기도 양주시 고읍동 20-1번지","category":"일반휴게음식 - 일반한식"}]},{"lat":"37.807419867","long":"127.07078789","items":[{"name":"백두금속","tel":"031-841-8388","addr":"경기도 양주시 고읍동 297-11번지 나동","category":"건축자재 - 인테리어전문"}]},{"lat":"37.803783121","long":"127.08040221","items":[{"name":"버거킹 양주고읍DT점/주식회사 비케이알","tel":"070-7462-6789","addr":"경기도 양주시 고읍동 64번지 1층","category":"일반휴게음식 - 서양음식"}]},{"lat":"37.802336747","long":"127.07381495","items":[{"name":"별미지교 양주점/별미지교한라 주식회사","tel":"031-821-7333","addr":"경기도 양주시 고읍동 426-1번지","category":"일반휴게음식 - 일반한식"}]},{"lat":"37.800232581","long":"127.08162478","items":[{"name":"블루컷","tel":"031-847-4558","addr":"경기도 양주시 고읍동 448-4번지 1층","category":"보건위생 - 미용원"}]},{"lat":"37.80148226","long":"127.07142967","items":[{"name":"비씨팔백커피","tel":"070-4150-5894","addr":"경기도 양주시 고읍동 산60번지 1층","category":"일반휴게음식 - 서양음식"},{"name":"비엔나핫도그&팔도호떡 양주하나로유통센터","tel":"031-848-1663","addr":"경기도 양주시 고읍동 산60번지 농협양주유통센터 내","category":"일반휴게음식 - 일반한식"},{"name":"스팀파워 양주점(하나로 클럽)","tel":"031-841-4742","addr":"경기도 양주시 고읍동 산60번지 옥상주차장내 스팀 세차장","category":"자동차정비 유지 - 세차장"},{"name":"이삭토스트(농협양주유통센터점)","tel":"031-821-2311","addr":"경기도 양주시 고읍동 산60번지 1층","category":"일반휴게음식 - 서양음식"},{"name":"잇츠스킨 양주하나로마트점","tel":"031-836-0829","addr":"경기도 양주시 고읍동 산60번지","category":"보건위생 - 화장품"},{"name":"주식회사 미가엘투어","tel":"031-844-9697","addr":"경기도 양주시 고읍동 산60번지 1층","category":"여행 - 관광여행"},{"name":"크린토피아 코인워시 양주하나로마트점","tel":"031-846-0777","addr":"경기도 양주시 고읍동 산60번지","category":"수리서비스 - 세탁소"},{"name":"하나로 포토","tel":"031-000-0000","addr":"경기도 양주시 고읍동 산60번지","category":"광학제품 - 사진관"},{"name":"하나로안경","tel":"031-848-5230","addr":"경기도 양주시 고읍동 산60번지 농협유통센터 내 1층","category":"보건위생 - 안경"},{"name":"하나로약국","tel":"031-821-3471","addr":"경기도 양주시 고읍동 산60번지","category":"약국 - 약국"},{"name":"헬로방방양주점","tel":"031-846-2084","addr":"경기도 양주시 고읍동 산60번지 2층","category":"레저업소 - 기타레져업소"}]},{"lat":"37.807086877","long":"127.0844255","items":[{"name":"비품사랑","tel":"031-1899-1642","addr":"경기도 양주시 고읍동 33-1번지","category":"신변잡화 - 기타잡화"}]},{"lat":"37.79992632","long":"127.08153362","items":[{"name":"사과나무","tel":"","addr":"경기도 양주시 고읍동 449-2번지 101호","category":"의류 - 정장"},{"name":"오렌지팟 양주덕현점","tel":"031-841-2161","addr":"경기도 양주시 고읍동 449-2번지 1층","category":"서적문구 - 문구용품"}]},{"lat":"37.804677605","long":"127.07642886","items":[{"name":"사랑의줄잇기솔트","tel":"02-968-5020","addr":"경기도 양주시 고읍동 168번지 나동 1층","category":"음료식품 - 기타음료식품"}]},{"lat":"37.805176256","long":"127.07122869","items":[{"name":"상동상회","tel":"031-847-1559","addr":"경기도 양주시 고읍동 293-2번지","category":"음료식품 - 기타음료식품"}]},{"lat":"37.800703964","long":"127.07717432","items":[{"name":"새론 누수방수공사","tel":"","addr":"경기도 양주시 고읍동 455번지 산내들마을우남퍼스트빌","category":"용역 서비스 - 기타용역서비스"}]},{"lat":"37.805114172","long":"127.069514","items":[{"name":"서비가","tel":"031-840-8777","addr":"경기도 양주시 고읍동 285-6번지 A동 1층","category":"음료식품 - 기타음료식품"}]},{"lat":"37.810452479","long":"127.07672985","items":[{"name":"서진배관","tel":"031-856-9556","addr":"경기도 양주시 고읍동 223-11번지","category":"건축자재 - 기타건축자재"},{"name":"영신산업","tel":"031-848-1990","addr":"경기도 양주시 고읍동 223-11번지","category":"기타 - 기계공구"}]},{"lat":"37.805090579","long":"127.07873437","items":[{"name":"선정원식품","tel":"031-841-9651","addr":"경기도 양주시 고읍동 158-4번지","category":"음료식품 - 기타음료식품"}]},{"lat":"37.799340773","long":"127.08143081","items":[{"name":"소리사랑음악학원","tel":"031-858-2150","addr":"경기도 양주시 고읍동 450-4번지","category":"회원제형태 - 학원"}]},{"lat":"37.805536311","long":"127.07178543","items":[{"name":"순천식당","tel":"031-841-3642","addr":"경기도 양주시 고읍동 294-9","category":"일반휴게음식 - 일반한식"}]},{"lat":"37.807007028","long":"127.08261989","items":[{"name":"스타당구장","tel":"031-841-1177","addr":"경기도 양주시 고읍동 40-5번지 2층","category":"레저업소 - 당 구 장"},{"name":"우일면옥","tel":"031-848-2648","addr":"경기도 양주시 고읍동 40-5번지","category":"일반휴게음식 - 일반한식"},{"name":"우일육계장","tel":"031-848-2648","addr":"경기도 양주시 고읍동 40-5번지","category":"일반휴게음식 - 일반한식"}]},{"lat":"37.806619228","long":"127.0831986","items":[{"name":"신성타이어","tel":"031-847-1791","addr":"경기도 양주시 고읍동 36-1번지","category":"자동차정비 유지 - 자동차시트·타이어"}]},{"lat":"37.804869411","long":"127.07212546","items":[{"name":"신용상사","tel":"031-838-8760","addr":"경기도 양주시 고읍동 416-2번지","category":"주방용구 - 주방용구"},{"name":"청담흑돼지","tel":"031-821-3630","addr":"경기도 양주시 고읍동 416-2번지 일부","category":"일반휴게음식 - 일반한식"}]},{"lat":"37.800532287","long":"127.07795761","items":[{"name":"써니상사","tel":"","addr":"경기도 양주시 고읍동 455번지 산내들마을우남퍼스트빌 103동","category":"수리서비스 - 기타수리서비스"}]},{"lat":"37.802459436","long":"127.07932213","items":[{"name":"써니플라워(Sunny Flower)","tel":"031-851-0064","addr":"경기도 양주시 고읍동 440번지 산내들마을한양수자인 101동 1301호","category":"문화.취미 - 문화취미기타"},{"name":"유로인폼","tel":"031-843-5494","addr":"경기도 양주시 고읍동 440번지 산내들마을한양수자인 101동 202호","category":"문화.취미 - 민예·공예품"}]},{"lat":"37.800395363","long":"127.08070524","items":[{"name":"씨유양주푸른솔점","tel":"080-080-3663","addr":"경기도 양주시 고읍동 446번지 1층","category":"유통업 영리 - 편 의 점"},{"name":"씨유양주푸른솔점","tel":"031-848-2864","addr":"경기도 양주시 고읍동 446번지 1층","category":"유통업 영리 - 편 의 점"}]},{"lat":"37.801866789","long":"127.07621034","items":[{"name":"양주 고읍 유도체육관","tel":"031-848-9578","addr":"경기도 양주시 고읍동 127-1번지 2층","category":"학원 - 예·체능계학원"},{"name":"통큰왕짬뽕","tel":"031-841-4959","addr":"경기도 양주시 고읍동 127-1번지 1층","category":"일반휴게음식 - 중국식"}]},{"lat":"37.800697209","long":"127.07350682","items":[{"name":"양주농산","tel":"031-840-8091","addr":"경기도 양주시 고읍동 437-4번지 주 1동","category":"음료식품 - 농·축·수산품"},{"name":"엠케이 주방가구 (Made In Korea)","tel":"031-841-4236","addr":"경기도 양주시 고읍동 437-4번지 주 1동","category":"가구 - 일반가구"}]},{"lat":"37.803669763","long":"127.07445211","items":[{"name":"양주지프","tel":"031-846-6641","addr":"경기도 양주시 고읍동 421","category":"자동차정비 유지 - 자동차부품"}]},{"lat":"37.805673644","long":"127.08259575","items":[{"name":"양주철물건재","tel":"031-858-5444","addr":"경기도 양주시 고읍동 51번지","category":"건축자재 - 목재·석재·철물"}]},{"lat":"37.804754132","long":"127.08340097","items":[{"name":"엔젤스포츠","tel":"031-792-8544","addr":"경기도 양주시 고읍동 20-11번지","category":"학원 - 기타 교육기관"},{"name":"이니샵","tel":"070-8836-9547","addr":"경기도 양주시 고읍동 20-11번지 가동 3호","category":"의류 - 정장"}]},{"lat":"37.800927011","long":"127.08056954","items":[{"name":"우리집","tel":"031-843-5545","addr":"경기도 양주시 고읍동 77번지 TS푸른솔상가1층 106호","category":"일반휴게음식 - 일반한식"},{"name":"티에스 (T.S)영수학원","tel":"031-840-1618","addr":"경기도 양주시 고읍동 77번지 제상가동 2층 206호","category":"학원 - 보습학원"}]},{"lat":"37.807313272","long":"127.08273378","items":[{"name":"원주추어탕","tel":"031-821-5575","addr":"경기도 양주시 고읍동 39-1번지","category":"일반휴게음식 - 일반한식"},{"name":"키즈마켓","tel":"031-846-0306","addr":"경기도 양주시 고읍동 39-1번지 좌측","category":"의류 - 정장"}]},{"lat":"37.801011031","long":"127.0759824","items":[{"name":"웰핏코리아(WELLFITKOREA)","tel":"031-848-6828","addr":"경기도 양주시 고읍동 128번지","category":"레져용품 - 스포츠·레져용품"},{"name":"한성씽크","tel":"031-855-8435","addr":"경기도 양주시 고읍동 128번지","category":"주방용구 - 주방용구"}]},{"lat":"37.806674388","long":"127.08156348","items":[{"name":"유티텍스(UTTEX)","tel":"031-859-6260","addr":"경기도 양주시 고읍동 50-3번지","category":"직물 - 옷감·직물"}]},{"lat":"37.800506381","long":"127.07617493","items":[{"name":"이디야(양주고읍중앙점)","tel":"031-841-2330","addr":"경기도 양주시 고읍동 128-18번지","category":"일반휴게음식 - 서양음식"}]},{"lat":"37.808337763","long":"127.07261699","items":[{"name":"장수마을","tel":"031-821-8564","addr":"경기도 양주시 고읍동 251-4번지","category":"일반휴게음식 - 일반한식"}]},{"lat":"37.8123348","long":"127.07776514","items":[{"name":"주식회사 게이트웨이(Gateway Co.,Ltd.)","tel":"","addr":"경기도 양주시 고읍동 245-7번지","category":"용역 서비스 - 소프트웨어"}]},{"lat":"37.805870077","long":"127.07107036","items":[{"name":"주식회사 진푸드서비스","tel":"02-0000-0000","addr":"경기도 양주시 고읍동 294-7번지 1층","category":"일반휴게음식 - 일반한식"}]},{"lat":"37.802785063","long":"127.07731266","items":[{"name":"주식회사 타이어코치 고읍","tel":"070-0000-0000","addr":"경기도 양주시 고읍동 118번지 1층","category":"자동차정비 유지 - 자동차시트·타이어"}]},{"lat":"37.802141504","long":"127.06870515","items":[{"name":"주식회사 한국클린푸드","tel":"031-843-3300","addr":"경기도 양주시 고읍동 369-3번지 ,2,3층","category":"음료식품 - 정육점"}]},{"lat":"37.804842675","long":"127.07162581","items":[{"name":"주식회사줄눈닷컴하우스","tel":"070-8162-8847","addr":"경기도 양주시 고읍동 276-2번지","category":"건축자재 - 기타건축자재"}]},{"lat":"37.804699266","long":"127.07034255","items":[{"name":"진보이엔지","tel":"070-8886-9840","addr":"경기도 양주시 고읍동 278-5번지 1층","category":"기타 - 기계공구"}]},{"lat":"37.803812527","long":"127.07670053","items":[{"name":"카트레이닝(Car training)","tel":"","addr":"경기도 양주시 고읍동 144-1번지 1층","category":"자동차정비 유지 - 세차장"}]},{"lat":"37.803922494","long":"127.07368021","items":[{"name":"키움스포츠","tel":"031-821-4429","addr":"경기도 양주시 고읍동 420-2번지","category":"학원 - 예·체능계학원"}]},{"lat":"37.808368865","long":"127.08050921","items":[{"name":"킹콩유통","tel":"02-900-1544","addr":"경기도 양주시 고읍동 197번지","category":"의류 - 정장"}]},{"lat":"37.805483043","long":"127.07042275","items":[{"name":"태성산업기계","tel":"031-821-2127","addr":"경기도 양주시 고읍동 292-5번지","category":"기타 - 기계공구"}]},{"lat":"37.803619281","long":"127.08290012","items":[{"name":"티스테이션양주고읍점","tel":"031-848-8048","addr":"경기도 양주시 고읍동 69-1번지","category":"자동차정비 유지 - 자동차시트·타이어"}]},{"lat":"37.802449594","long":"127.08059385","items":[{"name":"피자나라 치킨공주 (고읍점)","tel":"031-821-9260","addr":"경기도 양주시 고읍동 440번지 산내들마을한양수자인아파트 상가동 104호","category":"일반휴게음식 - 서양음식"},{"name":"한양세탁","tel":"031-848-7282","addr":"경기도 양주시 고읍동 440 산내들마을한양수자인상가 106","category":"수리서비스 - 세탁소"}]},{"lat":"37.804254507","long":"127.07587205","items":[{"name":"한국파머스","tel":"031-848-6567","addr":"경기도 양주시 고읍동 138-4","category":"보건위생 - 화장품"}]},{"lat":"37.806920209","long":"127.07762341","items":[{"name":"한미스포츠클럽","tel":"031-847-3700","addr":"경기도 양주시 고읍동 185-1,171-7","category":"회원제형태 - 레져업소"}]},{"lat":"37.80362125","long":"127.06465275","items":[{"name":"행운재활용","tel":"031-843-0777","addr":"경기도 양주시 고읍동 340-6번지","category":"신변잡화 - 기타잡화"}]},{"lat":"37.80008871","long":"127.08120451","items":[{"name":"헤어스토리","tel":"031-843-7009","addr":"경기도 양주시 고읍동 448-1번지 101호","category":"보건위생 - 미용원"}]},{"lat":"37.800314022","long":"127.08109121","items":[{"name":"횡성 돈밭촌 생고기","tel":"031-848-9291","addr":"경기도 양주시 고읍동 446-3번지 1층","category":"일반휴게음식 - 일반한식"}]},{"lat":"37.804537817","long":"127.06907064","items":[{"name":"휴먼","tel":"","addr":"경기도 양주시 고읍동 283-2번지","category":"보건위생 - 미용재료"}]}]