[{"lat":"36.995967058","long":"127.19749508","imageIndex":7,"items":[{"name":"(주)하나유통","tel":"031-691-1726","addr":"경기도 안성시 공도읍 신두리 316번지","indutype":"음료식품 - 기타음료식품","category":"food"}]},{"lat":"36.991495682","long":"127.19321513","imageIndex":7,"items":[{"name":"농협경제지주 (주)안성팜랜드분사","tel":"031-8053-7912","addr":"경기도 안성시 공도읍 신두리 451번지","indutype":"음료식품 - 농·축·수산품","category":"food"}]},{"lat":"36.991495682","long":"127.19321513","imageIndex":17,"items":[{"name":"농협경제지주 (주)안성팜랜드분사","tel":"031-8053-7912","addr":"경기도 안성시 공도읍 신두리 451번지","indutype":"문화.취미 - 티켓","category":"other"},{"name":"농협경제지주(주)안성팜랜드분사","tel":"031-8053-7912","addr":"경기도 안성시 공도읍 신두리 451번지","indutype":"신변잡화 - 기념품점","category":"other"}]},{"lat":"36.993550236","long":"127.18743507","imageIndex":17,"items":[{"name":"농협경제지주주식회사종묘센터","tel":"031-652-5528","addr":"경기도 안성시 공도읍 신두리 432-4번지 1층","indutype":"농업 - 비료,사료,종자","category":"other"}]},{"lat":"36.991610947","long":"127.19988786","imageIndex":17,"items":[{"name":"대성플랜트","tel":"031-691-3095","addr":"경기도 안성시 공도읍 신두리 149번지 나동","indutype":"주방용구 - 주방용구","category":"other"}]},{"lat":"36.994547842","long":"127.20024368","imageIndex":17,"items":[{"name":"두리농원","tel":"031-653-2812","addr":"경기도 안성시 공도읍 신두리 200번지","indutype":"회원제형태 - 기타1","category":"other"}]},{"lat":"36.993609518","long":"127.20097142","imageIndex":17,"items":[{"name":"삼안특장냉동","tel":"031-691-5165","addr":"경기도 안성시 공도읍 신두리 182-11번지","indutype":"전기제품 - 냉열기기","category":"other"}]},{"lat":"36.996942429","long":"127.19613827","imageIndex":17,"items":[{"name":"우리홈종합건설","tel":"031-653-0037","addr":"경기도 안성시 공도읍 신두리 327번지","indutype":"건축자재 - 인테리어전문","category":"other"}]},{"lat":"36.994888806","long":"127.20643425","imageIndex":17,"items":[{"name":"장승문화촌","tel":"031-654-6651","addr":"경기도 안성시 공도읍 신두리 60-3","indutype":"문화.취미 - 민예·공예품","category":"other"}]},{"lat":"36.997049476","long":"127.19680134","imageIndex":17,"items":[{"name":"조인실크","tel":"031-656-2219","addr":"경기도 안성시 공도읍 신두리 310-3번지","indutype":"서적문구 - 출판 및 인쇄물","category":"other"}]},{"lat":"36.994834291","long":"127.201379","imageIndex":17,"items":[{"name":"주식회사 경방하우징","tel":"031-651-6070","addr":"경기도 안성시 공도읍 신두리 197-2번지","indutype":"건축자재 - 기타건축자재","category":"other"}]},{"lat":"36.98955204","long":"127.19713052","imageIndex":17,"items":[{"name":"주식회사대한산업","tel":"031-651-9108","addr":"경기도 안성시 공도읍 신두리 124-1번지","indutype":"전기제품 - 기타전기제품","category":"other"}]},{"lat":"36.992469647","long":"127.20366443","imageIndex":17,"items":[{"name":"중앙씽크가구","tel":"031-655-0994","addr":"경기도 안성시 공도읍 신두리 78-1번지","indutype":"주방용구 - 주방용구","category":"other"}]},{"lat":"36.991495682","long":"127.19321513","imageIndex":13,"items":[{"name":"농협경제지주 (주)안성팜랜드분사","tel":"031-8053-7912","addr":"경기도 안성시 공도읍 신두리 451번지","indutype":"레저업소 - 기타레져업소","category":"leisure"},{"name":"농협경제지주(주)안성팜랜드분사","tel":"031-8053-7912","addr":"경기도 안성시 공도읍 신두리 451번지","indutype":"레저업소 - 종합레져타운","category":"leisure"}]},{"lat":"36.991495682","long":"127.19321513","imageIndex":7,"items":[{"name":"농협경제지주 (주)안성팜랜드분사","tel":"031-8053-7912","addr":"경기도 안성시 공도읍 신두리 451번지","indutype":"유통업 영리 - 슈퍼마켓","category":"mart"}]},{"lat":"36.994301227","long":"127.19679436","imageIndex":16,"items":[{"name":"농협경제지주(주)축산물위생교육원","tel":"031-654-9622","addr":"경기도 안성시 공도읍 신두리 200-40번지","indutype":"학원 - 기능학원","category":"study"}]},{"lat":"36.991495682","long":"127.19321513","imageIndex":16,"items":[{"name":"주식회사 날틀","tel":"031-655-9188","addr":"경기도 안성시 공도읍 신두리 451번지","indutype":"학원 - 기타 교육기관","category":"study"}]},{"lat":"36.996860931","long":"127.19638521","imageIndex":4,"items":[{"name":"심마니백숙옻닭","tel":"031-618-9958","addr":"경기도 안성시 공도읍 신두리 327-1번지","indutype":"일반휴게음식 - 일반한식","category":"restaurant"}]},{"lat":"36.991495682","long":"127.19321513","imageIndex":4,"items":[{"name":"안성팜랜드임실치즈피자점","tel":"031-8053-7936","addr":"경기도 안성시 공도읍 신두리 451","indutype":"일반휴게음식 - 서양음식","category":"restaurant"},{"name":"팜팜/농협경제지주 (주)안성팜랜드분사","tel":"031-8053-7912","addr":"경기도 안성시 공도읍 신두리 451번지","indutype":"일반휴게음식 - 일반한식","category":"restaurant"},{"name":"할리스 안성팜랜드점","tel":"00-0000-0000","addr":"경기도 안성시 공도읍 신두리 451번지","indutype":"일반휴게음식 - 서양음식","category":"restaurant"}]},{"lat":"36.994745946","long":"127.20032282","imageIndex":4,"items":[{"name":"위대한밥상","tel":"031-653-0369","addr":"경기도 안성시 공도읍 신두리 201번지","indutype":"일반휴게음식 - 일반한식","category":"restaurant"}]},{"lat":"36.996414708","long":"127.19372167","imageIndex":4,"items":[{"name":"팜토피아","tel":"070-8277-6475","addr":"경기도 안성시 공도읍 신두리 336-1번지","indutype":"일반휴게음식 - 일반한식","category":"restaurant"}]}]