[{"lat":"37.513007838","long":"126.77474402","items":[{"name":"(사)자연보호부천시협의회","tel":"032-676-7993","addr":"경기도 부천시 약대동 169-130번지","category":"기타 - 비영리/비대상"},{"name":"부천프로파일","tel":"032-684-0007","addr":"경기도 부천시 약대동 169-130번지 102호","category":"직물 - 기타직물"},{"name":"약대용품","tel":"032-661-1616","addr":"경기도 부천시 약대동 169-130번지 1층 일부","category":"자동차정비 유지 - 자동차부품"}]},{"lat":"37.516734869","long":"126.76407743","items":[{"name":"(주) 아이알로봇","tel":"032-326-3466","addr":"경기도 부천시 약대동 193번지 부천테크노파크 401동 1303호","category":"용역 서비스 - 소프트웨어"},{"name":"(주)뉴콤시스","tel":"032-715-4348","addr":"경기도 부천시 약대동 193번지 부천테크노파크 403동 602호","category":"용역 서비스 - 사무서비스"},{"name":"(주)대우노즐/원격지","tel":"032-321-7532","addr":"경기도 부천시 약대동 193 부천테크노파크 403-101","category":"기타 - 기타 전문점"},{"name":"(주)로보블럭시스템","tel":"032-323-8556","addr":"경기도 부천시 약대동 193 부천테크노파크제 401 동제 502호","category":"용역 서비스 - 소프트웨어"},{"name":"(주)성원로템/원격지","tel":"032-621-3001","addr":"경기도 부천시 약대동 193번지 부천테크노파크4단지 401동 602호","category":"기타 - 기타 전문점"},{"name":"(주)한울로보틱스","tel":"042-478-9090","addr":"경기도 부천시 약대동 193번지 부천테크노파크4단지 401동 901호","category":"기타 - 기타 전문점"},{"name":"(주)한울로보틱스/원격지","tel":"070-8230-7474","addr":"경기도 부천시 약대동 193번지 부천테크노파크4단지 401동 901-1호","category":"기타 - 기타 전문점"},{"name":"로보트로","tel":"070-8224-4100","addr":"경기도 부천시 약대동 193번지 부천테크노파크4단지 401동 1302호","category":"서적문구 - 과학기자재"},{"name":"부천테크노파크4단지입주자대표회의","tel":"032-234-3041","addr":"경기도 부천시 약대동 193번지 부천테크노파크4단지","category":"자동차정비 유지 - 주차장"},{"name":"사)제어로봇시스템학회","tel":"032-234-5801","addr":"경기도 부천시 약대동 193번지 부천테크노파크4단지 401동 1506호","category":"기타 - 비영리/대상"},{"name":"사단법인한국금형공학회","tel":"032-246-2100","addr":"경기도 부천시 약대동 193번지 부천테크노파크4단지 401동 903-1호","category":"기타 - 비영리/비대상"},{"name":"에이디파워(주)","tel":"070-7777-0332","addr":"경기도 부천시 약대동 193번지 부천테크노파크4단지 402동 1304호","category":"기타 - 기계공구"},{"name":"이제이 이노텍","tel":"02-782-0147","addr":"경기도 부천시 약대동 193번지 부천테크노파크 403동 301호","category":"회원제형태 - 기타1"},{"name":"전원기획","tel":"032-234-5600","addr":"경기도 부천시 약대동 193번지 부천테크노파크4단지 403동 203호","category":"서적문구 - 출판 및 인쇄물"},{"name":"젠 주식회사","tel":"070-8848-3669","addr":"경기도 부천시 약대동 193번지 부천테크노파크4단지 403동 803호","category":"전기제품 - 기타전기제품"},{"name":"주식회사 대신반도체","tel":"032-325-3052","addr":"경기도 부천시 약대동 193번지 부천테크노파크4단지 402동 1201호","category":"전기제품 - 기타전기제품"},{"name":"주식회사 에이엘로봇","tel":"032-322-3720","addr":"경기도 부천시 약대동 193번지 부천테크노파크4단지 401동 6층 1-1호","category":"기타 - 기계공구"},{"name":"주식회사대우노즐","tel":"032-321-7532","addr":"경기도 부천시 약대동 193번지 부천테크노파크4단지 403동 101호","category":"기타 - 기계공구"}]},{"lat":"37.516866413","long":"126.76230113","items":[{"name":"(주) 피엔아이이노텍","tel":"032-321-3326","addr":"경기도 부천시 약대동 부천테크노파크 203-706","category":"기타 - 기계공구"},{"name":"(주)DMW코리아","tel":"032-325-4260","addr":"경기도 부천시 약대동 192번지 부천테크노파크 201동 801호","category":"보건위생 - 미용재료"},{"name":"(주)DMW코리아","tel":"032-621-2400","addr":"경기도 부천시 약대동 192번지 부천테크노파크 201동 801호","category":"보건위생 - 미용재료"},{"name":"(주)로보라이프","tel":"070-4681-3392","addr":"경기도 부천시 약대동 192번지 부천테크노파크 203동 404호","category":"전기제품 - 기타전기제품"},{"name":"(주)온도기술센테크","tel":"032-621-0033","addr":"경기도 부천시 약대동 192번지 부천테크노파크2단지 203동 603호","category":"기타 - 기계공구"},{"name":"(주)티씨에스","tel":"032-326-6743","addr":"경기도 부천시 약대동 192번지 부천테크노파크2단지 201동 404호","category":"기타 - 기계공구"},{"name":"(주)한우리전자","tel":"032-234-1133","addr":"경기도 부천시 약대동 192","category":"전기제품 - 기타전기제품"},{"name":"HIMAX","tel":"032-234-0776","addr":"경기도 부천시 약대동 192번지 부천테크노파 관리동 1층 102호","category":"의류 - 맞춤복점"},{"name":"가람설렁탕","tel":"032-321-6266","addr":"경기도 부천시 약대동 192번지 부천테크노파크2단지 200동 201호","category":"일반휴게음식 - 일반한식"},{"name":"강림메디텍","tel":"070-5029-2723","addr":"경기도 부천시 약대동 192번지 부천테크노파크2단지 201동 지층 1호","category":"신변잡화 - 기타잡화"},{"name":"기특한마켓 (주)","tel":"032-621-1188","addr":"경기도 부천시 약대동 192번지 부천테크노파크2단지 관리동 101호","category":"전기제품 - 가전제품"},{"name":"김보경세무회계사무소","tel":"032-621-1487","addr":"경기도 부천시 약대동 192번지 부천테크노파크2단지 200동 306호","category":"용역 서비스 - 법률회계서비스(개인)"},{"name":"까페 인","tel":"032-234-1849","addr":"경기도 부천시 약대동 192번지 부천테크노파트200동109호전부,110호일부","category":"일반휴게음식 - 서양음식"},{"name":"뉴테크","tel":"032-321-5042","addr":"경기도 부천시 약대동 192번지 부천테크노파크2단지 200동 308-1호","category":"서적문구 - 과학기자재"},{"name":"대성전자","tel":"032-621-1117","addr":"경기도 부천시 약대동 192번지 부천테크노파크2단지 201동 801호","category":"전기제품 - 기타전기제품"},{"name":"대연상사","tel":"032-325-4951","addr":"경기도 부천시 약대동 192번지 부천테크노파크2단지 200동 108호","category":"건축자재 - 기타건축자재"},{"name":"동양메카테크","tel":"032-322-8004","addr":"경기도 부천시 약대동 192번지 부천테크노파크2단지 200동 301호","category":"기타 - 기계공구"},{"name":"드림치과의원","tel":"032-234-2275","addr":"경기도 부천시 약대동 192번지 부천테크노파크2단지 200동 302호","category":"의원 - 치과의원"},{"name":"리노커피","tel":"","addr":"경기도 부천시 약대동 192번지 부천테크노파크2단지 200동 103호","category":"일반휴게음식 - 서양음식"},{"name":"링코부천테크노파크점","tel":"032-621-0111","addr":"경기도 부천시 약대동 192번지 부천테크노파크2단지 200동 107호","category":"서적문구 - 문구용품"},{"name":"맑은소리","tel":"032-321-3577","addr":"경기도 부천시 약대동 192번지 200동 지하B08호","category":"광학제품 - 카메라"},{"name":"맛조은돼지불백","tel":"032-567-2509","addr":"경기도 부천시 약대동 192번지 부천테크노파크2단지 200동 105호","category":"일반휴게음식 - 일반한식"},{"name":"명일가","tel":"032-326-4832","addr":"경기도 부천시 약대동 192번지 부천테크노파크2단지 B층 B10호 09","category":"일반휴게음식 - 일반한식"},{"name":"비티피2(BTP2)","tel":"032-621-1180","addr":"경기도 부천시 약대동 192번지 부천테크노파크 204동 403호","category":"자동차정비 유지 - 주차장"},{"name":"비티피2_부천테크노파크2단지","tel":"032-621-1181","addr":"경기도 부천시 약대동 192번지 부천테크노파크2단지 204동 4층 403호","category":"자동차정비 유지 - 주차장"},{"name":"상길네트웍스","tel":"070-4900-6134","addr":"경기도 부천시 약대동 192번지 부천테크노파크2단지 200동 206-1호","category":"사무통신 - 통신기기"},{"name":"솔루션코리아","tel":"","addr":"경기도 부천시 약대동 192번지 부천테크노파크2단지 200동 502호","category":"용역 서비스 - 소프트웨어"},{"name":"순대상회","tel":"032-321-9388","addr":"경기도 부천시 약대동 192번지 부천테크노파크2단지 200동 106호","category":"일반휴게음식 - 일반한식"},{"name":"쌍용정밀","tel":"032-234-3006","addr":"경기도 부천시 약대동 192번지 부천테크노파크2단지 201동 103호","category":"기타 - 기계공구"},{"name":"씨에스존","tel":"032-621-1288","addr":"경기도 부천시 약대동 192번지 부천테크노파크2단지 관리동 1층 101호","category":"전기제품 - 가전제품"},{"name":"에스피티씨주식회사","tel":"032-234-4444","addr":"경기도 부천시 약대동 192번지 부천테크노파크2단지 203동 703호","category":"기타 - 기계공구"},{"name":"엠이에스(MES)","tel":"032-325-8308","addr":"경기도 부천시 약대동 192번지 부천테크노파크 200동 411호","category":"전기제품 - 기타전기제품"},{"name":"연흥랩","tel":"032-326-8171","addr":"경기도 부천시 약대동 192번지 부천테크노파크2단지 200동 508호","category":"서적문구 - 과학기자재"},{"name":"열린3D출력소","tel":"032-111-1111","addr":"경기도 부천시 약대동 192번지 부천테크노파크2단지 200동 304-2호","category":"신변잡화 - 기타잡화"},{"name":"예조화랑","tel":"032-323-5595","addr":"경기도 부천시 약대동 192번지 부천테크노파크2단지 1층 102-1호","category":"문화.취미 - 화랑"},{"name":"오백국수","tel":"032-321-0530","addr":"경기도 부천시 약대동 192번지 부천테크노파크2단지 200동 102호","category":"일반휴게음식 - 일반한식"},{"name":"위더스바이오","tel":"070-7566-4129","addr":"경기도 부천시 약대동 192번지 부천테크노파크2단지 지층 3호 200 동제","category":"보건위생 - 의료용품"},{"name":"이조반점","tel":"032-321-1383","addr":"경기도 부천시 약대동 192번지 부천테크노파크2단지 200동 202호","category":"일반휴게음식 - 일반한식"},{"name":"장수정밀","tel":"032-325-8754","addr":"경기도 부천시 약대동 192번지 부천테크노파크2단지 201동 202호","category":"기타 - 기계공구"},{"name":"전산유통 (주)","tel":"032-678-5510","addr":"경기도 부천시 약대동 192번지 부천테크노파크2단지 관리동 1층 101호","category":"사무통신 - 컴퓨터"},{"name":"제로니텍(주)","tel":"032-811-8890","addr":"경기도 부천시 약대동 192번지 부천테크노파크2단지 202동 602호","category":"보건위생 - 의료용품"},{"name":"제이에스","tel":"032-324-3157","addr":"경기도 부천시 약대동 192번지 부천테크노파크 200동 203호","category":"서적문구 - 과학기자재"},{"name":"제이오임팩스(주)","tel":"032-234-0036","addr":"경기도 부천시 약대동 192번지 부천테크노파크2단지 202동 904호","category":"기타 - 기타 전문점"},{"name":"주식회사온도기술센테크/원격지","tel":"032-621-0033","addr":"경기도 부천시 약대동 192번지 부천테크노파크2단지 203동 603호","category":"기타 - 기타 전문점"},{"name":"주식회사자이언텍","tel":"032-324-5612","addr":"경기도 부천시 약대동 192번지 부천테크노파크2단지 202동 701호","category":"기타 - 기타 전문점"},{"name":"주식회사해울커뮤니케이션즈","tel":"070-8670-9400","addr":"경기도 부천시 약대동 192번지 부천테크노파크 관리동 303호","category":"용역 서비스 - 사무서비스"},{"name":"천국","tel":"032-324-9177","addr":"경기도 부천시 약대동 192번지 부천테크노파크2단지 200동 303호","category":"보건위생 - 화장품"},{"name":"크린마스터","tel":"032-234-2080","addr":"경기도 부천시 약대동 192번지 부천테크노파크2단지 200동 B07호","category":"수리서비스 - 세탁소"},{"name":"테크노꽃나라","tel":"032-328-5157","addr":"경기도 부천시 약대동 192번지 부천테크노파크2단지 200동 109호","category":"문화.취미 - 화원"},{"name":"테크노파크정비","tel":"032-216-5442","addr":"경기도 부천시 약대동 192번지 부천테크노파크2단지 200동 104호","category":"자동차정비 유지 - 자동차정비"},{"name":"한국계측기기연구조합","tel":"032-234-3131","addr":"경기도 부천시 약대동 192번지 부천테크노파크2단지 203동 901호","category":"용역 서비스 - 사무서비스"},{"name":"한국텔레콤(주)","tel":"02-2677-8912","addr":"경기도 부천시 약대동 192번지 부천테크노파크2단지 201동 705호","category":"사무통신 - 통신기기"},{"name":"형진물산위그몰","tel":"032-324-3925","addr":"경기도 부천시 약대동 192번지 부천테크노파크2단지 202동 804호","category":"보건위생 - 미용재료"},{"name":"휴 심리상담 카페(Hue 심리)","tel":"031-000-0000","addr":"경기도 부천시 약대동 192번지 부천테크노파크2단지 203동 102호-21","category":"보건위생 - 기타대인서비스"}]},{"lat":"37.510756861","long":"126.77551998","items":[{"name":"(주)꼬끼오 약대동지점","tel":"031-969-9640","addr":"경기도 부천시 약대동 176-3번지 1층","category":"신변잡화 - 기타잡화"},{"name":"명가식당","tel":"032-677-4805","addr":"경기도 부천시 약대동 176-3번지 2층","category":"일반휴게음식 - 일반한식"},{"name":"송주불냉면 약대점","tel":"032-684-4687","addr":"경기도 부천시 약대동 176-3번지 2층 일부","category":"일반휴게음식 - 일반한식"},{"name":"펫랜드","tel":"032-679-0715","addr":"경기도 부천시 약대동 176-3번지","category":"문화.취미 - 애완동물"},{"name":"형제민물장어","tel":"032-311-9925","addr":"경기도 부천시 약대동 176-3번지","category":"일반휴게음식 - 일반한식"}]},{"lat":"37.511622285","long":"126.77576619","items":[{"name":"(주)대운세미컴/원격지","tel":"032-674-7420","addr":"경기도 부천시 약대동 176-37번지","category":"기타 - 기타 전문점"}]},{"lat":"37.511035336","long":"126.77046337","items":[{"name":"(주)에쿠스코리아","tel":"032-654-8726","addr":"경기도 부천시 약대동 144-45번지 2층","category":"신변잡화 - 시계"}]},{"lat":"37.510562662","long":"126.7729418","items":[{"name":"(주)크린토피아","tel":"02-835-8000","addr":"경기도 부천시 약대동 175-16번지","category":"수리서비스 - 세탁소"}]},{"lat":"37.51339451","long":"126.76974347","items":[{"name":"(주)티코리아","tel":"032-672-3742","addr":"경기도 부천시 약대동 136번지","category":"음료식품 - 기타음료식품"},{"name":"늘푸른노래연습장","tel":"032-671-0220","addr":"경기도 부천시 약대동 136번지 지층","category":"레저업소 - 노 래 방"},{"name":"데코리아","tel":"032-672-3742","addr":"경기도 부천시 약대동 136번지","category":"음료식품 - 기타음료식품"},{"name":"제주돈가돈","tel":"032-674-5755","addr":"경기도 부천시 약대동 136번지","category":"일반휴게음식 - 일반한식"}]},{"lat":"37.513315181","long":"126.77063727","items":[{"name":"(주)포포큐","tel":"032-673-1235","addr":"경기도 부천시 약대동 126-2번지 3층","category":"보건위생 - 의료용품"},{"name":"두리아숯불닭바베큐","tel":"032-682-3017","addr":"경기도 부천시 약대동 126-2번지 1층","category":"일반휴게음식 - 주점"},{"name":"어랑활어전문점","tel":"032-675-6441","addr":"경기도 부천시 약대동 126-2번지 1층","category":"일반휴게음식 - 일식·회집"}]},{"lat":"37.513756107","long":"126.77035313","items":[{"name":"92오갈매기","tel":"032-677-9250","addr":"경기도 부천시 약대동 100-1번지 1층","category":"일반휴게음식 - 일반한식"},{"name":"다리다리춘천참숯불닭갈비","tel":"032-678-9393","addr":"경기도 부천시 약대동 100-1번지 1층","category":"일반휴게음식 - 일반한식"},{"name":"리빙인테리어","tel":"032-682-5353","addr":"경기도 부천시 약대동 100-1번지","category":"건축자재 - 인테리어전문"},{"name":"씨앤비어","tel":"031-682-7775","addr":"경기도 부천시 약대동 100-1번지 1층","category":"일반휴게음식 - 주점"}]},{"lat":"37.514647814","long":"126.77021463","items":[{"name":"DVD영화관","tel":"032-682-6887","addr":"경기도 부천시 약대동 93-3번지","category":"레저업소 - 기타레져업소"},{"name":"리틀정보통신","tel":"032-683-2816","addr":"경기도 부천시 약대동 93-3번지 1층","category":"사무통신 - 통신기기"},{"name":"송화","tel":"032-215-2086","addr":"경기도 부천시 약대동 93-3번지 2층","category":"보건위생 - 화장품"}]},{"lat":"37.512761067","long":"126.76835423","items":[{"name":"Dam,s( 담스)","tel":"070-7807-0090","addr":"경기도 부천시 약대동 139-7번지 약대마트건물 302호","category":"문화.취미 - 민예·공예품"},{"name":"GS25약대스타점","tel":"","addr":"경기도 부천시 약대동 139-7번지","category":"유통업 영리 - 편 의 점"}]},{"lat":"37.512260029","long":"126.77013156","items":[{"name":"GS25부천다니엘점","tel":"080-555-2525","addr":"경기도 부천시 약대동 145-13번지 1층","category":"유통업 영리 - 편 의 점"},{"name":"상승카","tel":"032-676-0788","addr":"경기도 부천시 약대동 145-13번지","category":"자동차정비 유지 - 자동차정비"}]},{"lat":"37.510562332","long":"126.77277215","items":[{"name":"GS25부천약대점","tel":"02-2006-2485","addr":"경기도 부천시 약대동 175-15번지","category":"유통업 영리 - 편 의 점"},{"name":"꾸러미(kkoorume)","tel":"","addr":"경기도 부천시 약대동 175-15번지","category":"의류 - 정장"}]},{"lat":"37.516064499","long":"126.76674901","items":[{"name":"GS25약대아이파크점","tel":"","addr":"경기도 부천시 약대동 216-1번지 부천아이파크 상가 119동 105호","category":"유통업 영리 - 편 의 점"},{"name":"고스트1번지스테이크피자","tel":"032-329-8834","addr":"경기도 부천시 약대동 216-1번지 부천아이파크","category":"일반휴게음식 - 서양음식"},{"name":"꽃뜰케이크","tel":"032-6354-5416","addr":"경기도 부천시 약대동 216-1번지 부천아이파크","category":"음료식품 - 기타음료식품"},{"name":"너나들이","tel":"","addr":"경기도 부천시 약대동 216-1번지 부천아이파크","category":"일반휴게음식 - 서양음식"},{"name":"네일,너와","tel":"032-681-6981","addr":"경기도 부천시 약대동 216-1번지 부천아이파크","category":"보건위생 - 피부미용실"},{"name":"니트(neat)","tel":"","addr":"경기도 부천시 약대동 216-1번지 부천아이파크","category":"일반휴게음식 - 일반한식"},{"name":"달구네","tel":"031-111-1111","addr":"경기도 부천시 약대동 216-1번지 부천아이파크","category":"음료식품 - 제과점"},{"name":"라인대박","tel":"032-751-2058","addr":"경기도 부천시 약대동 216-1번지 부천아이파크","category":"의류 - 내의판매"},{"name":"라인핏","tel":"032-671-0994","addr":"경기도 부천시 약대동 216-1번지 부천아이파크 120동 203호","category":"레저업소 - 헬스클럽"},{"name":"리사헤어","tel":"032-327-2266","addr":"경기도 부천시 약대동 216-1번지 부천아이파크","category":"보건위생 - 미용원"},{"name":"브리제","tel":"","addr":"경기도 부천시 약대동 216-1번지 부천아이파크","category":"일반휴게음식 - 서양음식"},{"name":"수리수리공부방","tel":"070-7372-2012","addr":"경기도 부천시 약대동 216-1번지 부천아이파크","category":"학원 - 보습학원"},{"name":"써밋 엔터테이먼트,르미핏","tel":"032-522-4129","addr":"경기도 부천시 약대동 216-1번지 부천아이파크","category":"레저업소 - 헬스클럽"},{"name":"아로마향과인형공방","tel":"070-2699-0807","addr":"경기도 부천시 약대동 216-1번지 부천아이파크","category":"서적문구 - 완구점"},{"name":"아르떼헤어","tel":"032-327-9777","addr":"경기도 부천시 약대동 216-1번지 부천아이파크","category":"보건위생 - 미용원"},{"name":"아이파크세탁","tel":"032-325-5666","addr":"경기도 부천시 약대동 216-1번지 부천아이파크","category":"수리서비스 - 세탁소"},{"name":"아트리브레미술교습소","tel":"070-4154-5332","addr":"경기도 부천시 약대동 216-1번지 부천아이파크","category":"학원 - 예·체능계학원"},{"name":"언니네","tel":"032-682-3994","addr":"경기도 부천시 약대동 216-1번지 부천아이파크","category":"일반휴게음식 - 스넥"},{"name":"엠베스트SE(에스이)약대점보습학원","tel":"032-322-0679","addr":"경기도 부천시 약대동 216-1번지 부천아이파크 상가 201호","category":"학원 - 보습학원"},{"name":"오토바이탄어부","tel":"032-325-4588","addr":"경기도 부천시 약대동 216-1번지 부천아이파크","category":"일반휴게음식 - 일반한식"},{"name":"우리동네블럭","tel":"","addr":"경기도 부천시 약대동 216-1번지 부천아이파크 상가 204-1호","category":"학원 - 기타 교육기관"},{"name":"이화음악학원","tel":"032-326-6024","addr":"경기도 부천시 약대동 216-1번지 부천아이파크","category":"학원 - 예·체능계학원"},{"name":"착한생고기","tel":"031-1111-1111","addr":"경기도 부천시 약대동 216-1번지 현대아이파크21단지 상가 103호","category":"음료식품 - 정육점"},{"name":"처갓집양념치킨 약대점","tel":"032-321-9288","addr":"경기도 부천시 약대동 216-1번지 부천아이파크","category":"일반휴게음식 - 스넥"},{"name":"초심스터디카페 부천아이파크점","tel":"","addr":"경기도 부천시 약대동 216-1번지 부천아이파크","category":"용역 서비스 - 사무서비스"},{"name":"초심스터디카페 부천아이파크점","tel":"02-854-8255","addr":"경기도 부천시 약대동 216-1번지 부천아이파크","category":"용역 서비스 - 사무서비스"},{"name":"케이브레인태권도장","tel":"070-4128-7179","addr":"경기도 부천시 약대동 216-1번지 부천아이파크","category":"학원 - 예·체능계학원"},{"name":"크린에이드 부천아이파크점","tel":"032-322-8025","addr":"경기도 부천시 약대동 216-1번지 부천아이파크","category":"수리서비스 - 세탁소"},{"name":"펭귄하우스 부천약대아이파크점","tel":"","addr":"경기도 부천시 약대동 216-1번지 부천아이파크 상가 215동 108호","category":"수리서비스 - 세탁소"},{"name":"폼","tel":"","addr":"경기도 부천시 약대동 216-1번지 부천아이파크","category":"의류 - 정장"},{"name":"플로라 뷰티","tel":"","addr":"경기도 부천시 약대동 216-1번지 부천아이파크 215동 2층 204호","category":"보건위생 - 화장품"},{"name":"피부이야기유(YOU)","tel":"032-322-2358","addr":"경기도 부천시 약대동 216-1번지 부천아이파크","category":"보건위생 - 피부미용실"},{"name":"피아노하우스 부천 지사","tel":"070-4412-9988","addr":"경기도 부천시 약대동 216-1번지 부천아이파크","category":"학원 - 예·체능계학원"},{"name":"현대홈마트","tel":"032-528-6973","addr":"경기도 부천시 약대동 216-1번지 부천아이파크상가 103동 105호","category":"유통업 영리 - 슈퍼마켓"},{"name":"현대홈마트내정육","tel":"032-111-1111","addr":"경기도 부천시 약대동 216-1번지 부천아이파크 상가","category":"음료식품 - 정육점"},{"name":"희또마미 수제간식","tel":"","addr":"경기도 부천시 약대동 216-1번지 부천아이파크","category":"문화.취미 - 애완동물"}]},{"lat":"37.510730424","long":"126.77118818","items":[{"name":"Out of Focus (아웃포커스)","tel":"","addr":"경기도 부천시 약대동 204번지 부천위브트레지움3단지아파트","category":"신변잡화 - 기타잡화"},{"name":"세연유통","tel":"031-942-5572","addr":"경기도 부천시 약대동 204번지 부천두산위브트레지움 302동 1505호","category":"신변잡화 - 기타잡화"}]},{"lat":"37.512369427","long":"126.77541329","items":[{"name":"가림산업","tel":"02-335-6221","addr":"경기도 부천시 약대동 176-28번지","category":"기타 - 기타 전문점"}]},{"lat":"37.513697573","long":"126.76809115","items":[{"name":"가위소리","tel":"070-4327-1609","addr":"경기도 부천시 약대동 50번지 삼호아트빌 가동 101호","category":"보건위생 - 미용원"},{"name":"피자나라치킨 약대점","tel":"032-684-6635","addr":"경기도 부천시 약대동 50번지 삼호아트빌 가동 102호","category":"일반휴게음식 - 일반한식"}]},{"lat":"37.510535897","long":"126.77307761","items":[{"name":"가인헤어샵","tel":"032-672-8883","addr":"경기도 부천시 약대동 175-17번지 1층 지상 1층 일부","category":"보건위생 - 미용원"},{"name":"행복한김밥","tel":"032-677-9897","addr":"경기도 부천시 약대동 175-17번지","category":"일반휴게음식 - 스넥"}]},{"lat":"37.513895068","long":"126.77229817","items":[{"name":"가평집","tel":"032-678-2526","addr":"경기도 부천시 약대동 117번지 횟집 1층","category":"일반휴게음식 - 일반한식"}]},{"lat":"37.513865759","long":"126.77113324","items":[{"name":"갈비마을","tel":"032-246-9292","addr":"경기도 부천시 약대동 95번지 1층","category":"일반휴게음식 - 일반한식"}]},{"lat":"37.512312547","long":"126.76935096","items":[{"name":"강인위더스","tel":"032-670-0184","addr":"경기도 부천시 약대동 138-7번지 다니엘종합병원 802호 일부","category":"건강식품 - 기타건강식품"},{"name":"다니엘장례식장내식당","tel":"032-678-4242","addr":"경기도 부천시 약대동 138-7번지 지하,107","category":"일반휴게음식 - 일반한식"},{"name":"엠제이(MJ)메디라인","tel":"032-111-1111","addr":"경기도 부천시 약대동 138-7번지 다니엘종합병원 111호","category":"보건위생 - 의료용품"},{"name":"이지마트","tel":"032-677-4936","addr":"경기도 부천시 약대동 138-7번지 112호 , 113","category":"유통업 영리 - 슈퍼마켓"},{"name":"천사커피","tel":"","addr":"경기도 부천시 약대동 138-7번지 다니엘종합병원 1층 120호","category":"일반휴게음식 - 서양음식"}]},{"lat":"37.514706652","long":"126.76807667","items":[{"name":"경인마트","tel":"032-675-1123","addr":"경기도 부천시 약대동 83-1번지","category":"유통업 영리 - 슈퍼마켓"},{"name":"삼미지업사","tel":"032-676-0444","addr":"경기도 부천시 약대동 83-1번지","category":"직물 - 카페트,커튼,천막,지물"},{"name":"신한체육관","tel":"032-676-3050","addr":"경기도 부천시 약대동 83-1번지 2층","category":"학원 - 예·체능계학원"},{"name":"에이치피올","tel":"032-679-0772","addr":"경기도 부천시 약대동 83-1번지 1층","category":"사무통신 - 컴퓨터"},{"name":"제이에스잉크테크(JSinktec)","tel":"032-683-1716","addr":"경기도 부천시 약대동 83-1번지 지층","category":"사무통신 - 기타 사무용품"},{"name":"헤어스토리","tel":"032-675-0507","addr":"경기도 부천시 약대동 83-1번지","category":"보건위생 - 미용원"}]},{"lat":"37.514727474","long":"126.76949048","items":[{"name":"고려태권도","tel":"032-672-1780","addr":"경기도 부천시 약대동 91-3번지 약대빌딩 6층","category":"학원 - 예·체능계학원"},{"name":"영은당구장","tel":"032-675-9887","addr":"경기도 부천시 약대동 91-3번지","category":"레저업소 - 당 구 장"},{"name":"최가네 숯불구이","tel":"","addr":"경기도 부천시 약대동 91-3번지 1층","category":"일반휴게음식 - 일반한식"}]},{"lat":"37.514232425","long":"126.76974086","items":[{"name":"골드 노래연습장","tel":"032-672-3356","addr":"경기도 부천시 약대동 89-1번지 2층","category":"레저업소 - 노 래 방"},{"name":"잉크스테이션(약대점)","tel":"032-672-2945","addr":"경기도 부천시 약대동 89-1번지","category":"사무통신 - 기타 사무용품"},{"name":"제니패션기능성보정속옷","tel":"032-672-6487","addr":"경기도 부천시 약대동 89-1번지","category":"의류 - 내의판매"}]},{"lat":"37.513396959","long":"126.77098765","items":[{"name":"군산아구찜","tel":"032-671-5516","addr":"경기도 부천시 약대동 124-1번지 나동 1층","category":"일반휴게음식 - 일반한식"}]},{"lat":"37.513876364","long":"126.77194759","items":[{"name":"굽네치킨 신흥약대동점","tel":"032-678-9294","addr":"경기도 부천시 약대동 118번지 파인센트럴빌 A동 101호","category":"일반휴게음식 - 스넥"}]},{"lat":"37.509535518","long":"126.77293364","items":[{"name":"그루터기","tel":"032-678-0205","addr":"경기도 부천시 약대동 209번지 부천위브트레지움2단지아파트","category":"회원제형태 - 기타4"},{"name":"다짐","tel":"032-328-0555","addr":"경기도 부천시 약대동 209번지 부천위브트레지움2단지아파트","category":"레져용품 - 스포츠·레져용품"},{"name":"디아트그림공간미술교습소","tel":"032-675-0522","addr":"경기도 부천시 약대동 209번지 부천위브트레지움2단지 상가동 202호","category":"학원 - 예·체능계학원"},{"name":"라이프오브자메이카(life of jamaica)","tel":"","addr":"경기도 부천시 약대동 209번지 부천위브트레지움2단지아파트","category":"일반휴게음식 - 일반한식"},{"name":"라인","tel":"032-321-7007","addr":"경기도 부천시 약대동 209번지 부천위브트레지움2단지아파트","category":"문화.취미 - 화원"},{"name":"민골프 아카데미","tel":"032-310-8375","addr":"경기도 부천시 약대동 209번지 부천위브트레지움2단지아파트","category":"레저업소 - 골프연습장"},{"name":"부천위브영수보습학원","tel":"032-613-0123","addr":"경기도 부천시 약대동 209번지 부천위브트레지움 상가 203호 202","category":"학원 - 보습학원"},{"name":"우리윤활유","tel":"032-505-4122","addr":"경기도 부천시 약대동 209번지 부천위브트레지움2단지아파트","category":"자동차정비 유지 - 윤활유 전문 판매"},{"name":"이엠","tel":"070-8844-0870","addr":"경기도 부천시 약대동 209번지 부천위브트레지움2단지아파트","category":"용역 서비스 - 소프트웨어"},{"name":"조선","tel":"032-676-3889","addr":"경기도 부천시 약대동 209번지 부천위브트레지움2단지아파트","category":"수리서비스 - 기타수리서비스"},{"name":"중앙야채","tel":"","addr":"경기도 부천시 약대동 209번지 부천위브트레지움2단지아파트","category":"음료식품 - 농·축·수산품"},{"name":"지니보습학원","tel":"032-613-0123","addr":"경기도 부천시 약대동 209번지 부천위브트레지움상가2단지203호,205호","category":"학원 - 보습학원"},{"name":"창의영어해법수학","tel":"032-504-8570","addr":"경기도 부천시 약대동 209번지 부천위브트레지움2단지아파트","category":"회원제형태 - 학원"},{"name":"프라임이엠보습학원","tel":"032-682-3116","addr":"경기도 부천시 약대동 209번지 부천위브트레지움 상가 302호","category":"학원 - 보습학원"}]},{"lat":"37.515533902","long":"126.76276917","items":[{"name":"그린손세차장","tel":"032-323-5530","addr":"경기도 부천시 약대동 192-1번지","category":"자동차정비 유지 - 세차장"},{"name":"제이케이모터스(J.K MOTORS)","tel":"032-328-0982","addr":"경기도 부천시 약대동 192-1번지","category":"자동차정비 유지 - 자동차정비"}]},{"lat":"37.513758838","long":"126.77174436","items":[{"name":"그린환경","tel":"032-323-3815","addr":"경기도 부천시 약대동 122-3번지 3층","category":"용역 서비스 - 종합용역"}]},{"lat":"37.511623771","long":"126.77188667","items":[{"name":"근영프라임","tel":"032-682-8504","addr":"경기도 부천시 약대동 158-7","category":"용역 서비스 - 기타용역서비스"},{"name":"농협슈퍼","tel":"032-671-1690","addr":"경기도 부천시 약대동 158-7번지 1층","category":"유통업 영리 - 슈퍼마켓"}]},{"lat":"37.512395176","long":"126.77013114","items":[{"name":"글래드","tel":"032-677-4141","addr":"경기도 부천시 약대동 145-7번지 다복빌딩 3층","category":"용역 서비스 - 종합용역"}]},{"lat":"37.511536447","long":"126.76871999","items":[{"name":"기탄사고력교실 약대위브교실","tel":"","addr":"경기도 부천시 약대동 196번지 두산위브트레지움아파트1단지","category":"학원 - 기타 교육기관"},{"name":"두산미소약국","tel":"032-677-0938","addr":"경기도 부천시 약대동 196번지","category":"약국 - 약국"},{"name":"맑은내과의원","tel":"032-672-8233","addr":"경기도 부천시 약대동 196번지 상가동 103,105,106호","category":"의원 - 의원"},{"name":"빨간펜수학의달인약대위브수학교습소","tel":"032-684-2233","addr":"경기도 부천시 약대동 196번지 부천두산위브틀레지음 상가 101호","category":"학원 - 보습학원"},{"name":"올리브헤어","tel":"032-324-3448","addr":"경기도 부천시 약대동 196번지 두산위브트레지움아파트1단지 107호","category":"보건위생 - 미용원"},{"name":"이쁜걸","tel":"031-503-0233","addr":"경기도 부천시 약대동 196번지 두산위브트레지움아파트1단지","category":"의류 - 내의판매"},{"name":"임플라인치과의원","tel":"032-676-2879","addr":"경기도 부천시 약대동 196 약대두산위브상가2층202","category":"의원 - 치과의원"},{"name":"재승대리점","tel":"032-324-3678","addr":"경기도 부천시 약대동 196번지 두산위브트레지움아파트1단지","category":"신변잡화 - 기타잡화"},{"name":"파리바게뜨","tel":"032-672-8204","addr":"경기도 부천시 약대동 196번지 상가동B106,B107호","category":"음료식품 - 제과점"},{"name":"하나정보통신","tel":"032-663-0116","addr":"경기도 부천시 약대동 196두산위브105-902","category":"회원제형태 - 기타1"}]},{"lat":"37.513954212","long":"126.77029596","items":[{"name":"김희정미용실","tel":"032-673-6006","addr":"경기도 부천시 약대동 98-3번지","category":"보건위생 - 미용원"},{"name":"샵노래연습장","tel":"032-679-9996","addr":"경기도 부천시 약대동 98-3번지 4층","category":"레저업소 - 노 래 방"},{"name":"쉐모아","tel":"032-683-8886","addr":"경기도 부천시 약대동 98-3번지","category":"직물 - 침구·수예점"},{"name":"약대당구장","tel":"032-246-3949","addr":"경기도 부천시 약대동 98-3번지 2층","category":"레저업소 - 당 구 장"},{"name":"코코넷","tel":"032-678-4440","addr":"경기도 부천시 약대동 98-3번지","category":"일반휴게음식 - 칵테일바"}]},{"lat":"37.512897618","long":"126.77365853","items":[{"name":"까까머리","tel":"032-682-3357","addr":"경기도 부천시 약대동 169-28번지 1층","category":"보건위생 - 미용원"}]},{"lat":"37.513592882","long":"126.76982203","items":[{"name":"꼼서방 전부인","tel":"032-684-9292","addr":"경기도 부천시 약대동 106번지 1층","category":"일반휴게음식 - 일반한식"},{"name":"두리카프라자","tel":"032-675-9029","addr":"경기도 부천시 약대동 106번지","category":"자동차정비 유지 - 자동차정비"}]},{"lat":"37.515511313","long":"126.7649636","items":[{"name":"끌림2","tel":"032-323-2011","addr":"경기도 부천시 약대동 182-56번지","category":"의류 - 정장"}]},{"lat":"37.515953204","long":"126.76516579","items":[{"name":"나르샤","tel":"032-324-2355","addr":"경기도 부천시 약대동 182-13번지","category":"보건위생 - 미용원"},{"name":"세븐일레븐부천아이파크점","tel":"","addr":"경기도 부천시 약대동 182-13번지 1층","category":"유통업 영리 - 편 의 점"}]},{"lat":"37.512815508","long":"126.76854634","items":[{"name":"나빌레라헤어","tel":"032-676-0516","addr":"경기도 부천시 약대동 139-5번지 1층 일부","category":"보건위생 - 미용원"},{"name":"채가당오리와곱창","tel":"032-677-4522","addr":"경기도 부천시 약대동 139-5번지 (1층,1호,2호)","category":"일반휴게음식 - 일반한식"}]},{"lat":"37.512534362","long":"126.77218925","items":[{"name":"내가머리하는곳","tel":"032-683-9940","addr":"경기도 부천시 약대동 165-2번지","category":"보건위생 - 미용원"},{"name":"중성산업","tel":"032-682-2225","addr":"경기도 부천시 약대동 165-2번지","category":"서적문구 - 출판 및 인쇄물"},{"name":"해피옷수선","tel":"032-671-2973","addr":"경기도 부천시 약대동 165-2번지","category":"수리서비스 - 세탁소"}]},{"lat":"37.511093163","long":"126.77238596","items":[{"name":"내동인쇄문구","tel":"032-674-1770","addr":"경기도 부천시 약대동 156-3번지","category":"서적문구 - 문구용품"},{"name":"토주메기탕","tel":"032-683-8900","addr":"경기도 부천시 약대동 156-3번지 1층 일부","category":"일반휴게음식 - 일반한식"}]},{"lat":"37.510927263","long":"126.77048632","items":[{"name":"내지브로","tel":"032-677-9500","addr":"경기도 부천시 약대동 151-27번지 모던빌라 6동 101호","category":"건축자재 - 인테리어전문"}]},{"lat":"37.513678924","long":"126.7677745","items":[{"name":"늘푸른화원","tel":"032-000-0000","addr":"경기도 부천시 약대동 51번지 홍성아트빌 1층 102호","category":"문화.취미 - 화원"},{"name":"제이 컴퍼니","tel":"02-1800-1984","addr":"경기도 부천시 약대동 51번지 홍성아트빌 101호","category":"건축자재 - 부동산 분양"},{"name":"호식이두마리치킨 약대점","tel":"032-672-9993","addr":"경기도 부천시 약대동 51번지 홍성아트빌 102호","category":"일반휴게음식 - 스넥"}]},{"lat":"37.511590708","long":"126.77341369","items":[{"name":"단지 캔들","tel":"032-1899-3272","addr":"경기도 부천시 약대동 169-6번지 현대아파트","category":"문화.취미 - 문화취미기타"},{"name":"애니용환","tel":"032-679-6709","addr":"경기도 부천시 약대동 169-6번지 현대아파트","category":"자동차정비 유지 - 견인서비스"}]},{"lat":"37.513483893","long":"126.76938125","items":[{"name":"대동식당","tel":"032-681-8667","addr":"경기도 부천시 약대동 109-3번지","category":"일반휴게음식 - 일반한식"},{"name":"하나더세탁소","tel":"032-676-7938","addr":"경기도 부천시 약대동 109-3번지","category":"수리서비스 - 세탁소"}]},{"lat":"37.513539661","long":"126.76571637","items":[{"name":"대야인테리어","tel":"032-431-7765","addr":"경기도 부천시 약대동 33","category":"회원제형태 - 기타4"}]},{"lat":"37.512755793","long":"126.77024313","items":[{"name":"대우중동바로정비코너","tel":"032-678-8585","addr":"경기도 부천시 약대동 135번지","category":"자동차정비 유지 - 자동차정비"},{"name":"불러브러노래연습장","tel":"032-671-9979","addr":"경기도 부천시 약대동 135번지 2층","category":"레저업소 - 노 래 방"},{"name":"생고기대학교약대점/킴스에프앤비 주식회사","tel":"032-678-1676","addr":"경기도 부천시 약대동 135번지 승화빌딩","category":"일반휴게음식 - 일반한식"},{"name":"엔플러스PC방","tel":"","addr":"경기도 부천시 약대동 135번지 승화빌딩 2층","category":"레저업소 - 기타레져업소"},{"name":"역전치킨","tel":"032-674-1611","addr":"경기도 부천시 약대동 135번지 승화빌딩 1층 지상 1층 일부","category":"일반휴게음식 - 스넥"},{"name":"주식회사 디자인녹담","tel":"032-684-9034","addr":"경기도 부천시 약대동 135번지 2층","category":"건축자재 - 인테리어전문"}]},{"lat":"37.513116453","long":"126.77037774","items":[{"name":"대한불교용화선종영광사","tel":"032-675-4477","addr":"경기도 부천시 약대동 128-8번지","category":"기타 - 비영리/대상"},{"name":"엣지리얼줄눈코팅","tel":"032-679-3932","addr":"경기도 부천시 약대동 128-8번지 3층","category":"용역 서비스 - 기타용역서비스"},{"name":"엣지줄눈","tel":"032-679-3932","addr":"경기도 부천시 약대동 128-8번지 3층","category":"건축자재 - 기타건축자재"}]},{"lat":"37.516232441","long":"126.76513097","items":[{"name":"더가츠","tel":"032-329-0996","addr":"경기도 부천시 약대동 182-9번지 1층 일부","category":"일반휴게음식 - 서양음식"},{"name":"더시리즈","tel":"032-322-0551","addr":"경기도 부천시 약대동 182-9번지 2층","category":"일반휴게음식 - 일반한식"},{"name":"주식회사엘케이디앤","tel":"032-321-8206","addr":"경기도 부천시 약대동 182-9번지","category":"음료식품 - 기타음료식품"}]},{"lat":"37.511151707","long":"126.77007845","items":[{"name":"더존 오투 독서실","tel":"032-671-3782","addr":"경기도 부천시 약대동 144-4번지 풍창빌딩 4층 1호","category":"학원 - 독서실"},{"name":"라인핏","tel":"","addr":"경기도 부천시 약대동 144-4번지 풍창빌딩 3층","category":"레저업소 - 헬스클럽"},{"name":"별주부해물찜칼국수","tel":"032-679-1211","addr":"경기도 부천시 약대동 144-4번지 2층","category":"일반휴게음식 - 일반한식"}]},{"lat":"37.512615981","long":"126.77246046","items":[{"name":"도원섬유","tel":"032-672-6937","addr":"경기도 부천시 약대동 165-3번지","category":"신변잡화 - 기타잡화"}]},{"lat":"37.514842631","long":"126.76849475","items":[{"name":"동광건강원","tel":"032-679-3636","addr":"경기도 부천시 약대동 84-1번지","category":"건강식품 - 기타건강식품"}]},{"lat":"37.511621576","long":"126.77076693","items":[{"name":"동양비철","tel":"02-676-9942","addr":"경기도 부천시 약대동 147-2번지","category":"전기제품 - 기타전기제품"},{"name":"몽땅종합상사","tel":"032-611-4747","addr":"경기도 부천시 약대동 147-2번지","category":"자동차정비 유지 - 자동차부품"}]},{"lat":"37.513591362","long":"126.7690529","items":[{"name":"돼지슈퍼","tel":"032-675-3274","addr":"경기도 부천시 약대동 76번지","category":"유통업 영리 - 슈퍼마켓"}]},{"lat":"37.513845002","long":"126.76974207","items":[{"name":"둥지노래연습장","tel":"032-683-4578","addr":"경기도 부천시 약대동 105-2번지 3층","category":"레저업소 - 노 래 방"},{"name":"부천한복","tel":"032-766-5858","addr":"경기도 부천시 약대동 105-2번지 2층","category":"의류 - 맞춤복점"}]},{"lat":"37.515394185","long":"126.76496397","items":[{"name":"디자인엔스","tel":"070-7687-5047","addr":"경기도 부천시 약대동 182-57번지 2층","category":"신변잡화 - 액세서리"},{"name":"알레 (ALLEZ)","tel":"031-111-1111","addr":"경기도 부천시 약대동 182-57번지 1층","category":"음료식품 - 제과점"},{"name":"윤선생우리집앞영어교실 약대아이파크1차영","tel":"031-000-0000","addr":"경기도 부천시 약대동 182-57번지 1층 일부","category":"학원 - 외국어학원"},{"name":"즐거운엄마협동조합","tel":"070-4148-7179","addr":"경기도 부천시 약대동 182-57번지 1층","category":"음료식품 - 기타음료식품"}]},{"lat":"37.513177402","long":"126.76930303","items":[{"name":"라그라스","tel":"032-672-7008","addr":"경기도 부천시 약대동 137-1번지 SJ성진힐스 101호","category":"의류 - 정장"},{"name":"카페아델라","tel":"070-7753-8906","addr":"경기도 부천시 약대동 137-1번지 SJ성진힐스","category":"일반휴게음식 - 서양음식"}]},{"lat":"37.51445739","long":"126.76508005","items":[{"name":"로맨티크","tel":"","addr":"경기도 부천시 약대동 30번지","category":"가구 - 기타가구"}]},{"lat":"37.514844937","long":"126.76965978","items":[{"name":"룩 (Look)안경콘택트","tel":"032-676-5825","addr":"경기도 부천시 약대동 92-2번지 1층","category":"보건위생 - 안경"},{"name":"리안헤어 신흥사거리점","tel":"032-682-8991","addr":"경기도 부천시 약대동 92-2번지 2층","category":"보건위생 - 미용원"},{"name":"약대동점오구피자","tel":"032-672-5989","addr":"경기도 부천시 약대동 92-2번지 1층","category":"일반휴게음식 - 서양음식"},{"name":"영시노래연습장","tel":"032-677-2022","addr":"경기도 부천시 약대동 92-2번지","category":"레저업소 - 노 래 방"}]},{"lat":"37.513930799","long":"126.77213971","items":[{"name":"리엔모","tel":"070-8269-4034","addr":"경기도 부천시 약대동 118-2번지 파인센트럴빌 B101호","category":"보건위생 - 미용원"}]},{"lat":"37.515286067","long":"126.76496431","items":[{"name":"마마헤어","tel":"032-324-3090","addr":"경기도 부천시 약대동 182-58번지 1층 102호","category":"보건위생 - 미용원"}]},{"lat":"37.512590935","long":"126.76888636","items":[{"name":"마벨헤어","tel":"","addr":"경기도 부천시 약대동 139-20번지 2층","category":"보건위생 - 미용원"}]},{"lat":"37.513371238","long":"126.77165507","items":[{"name":"마을카페달토 협동조합","tel":"032-673-2933","addr":"경기도 부천시 약대동 121번지 호수빌딩","category":"일반휴게음식 - 서양음식"},{"name":"어울림헤어","tel":"032-677-7192","addr":"경기도 부천시 약대동 121번지 호수빌딩","category":"보건위생 - 미용원"}]},{"lat":"37.515872002","long":"126.7651095","items":[{"name":"마인츠쿡(Mainz cook)","tel":"032-322-0729","addr":"경기도 부천시 약대동 182-18번지","category":"일반휴게음식 - 일반한식"}]},{"lat":"37.511005815","long":"126.77380004","items":[{"name":"만나슈퍼","tel":"032-675-3664","addr":"경기도 부천시 약대동 169-23번지 1층","category":"유통업 영리 - 슈퍼마켓"}]},{"lat":"37.513284737","long":"126.76890681","items":[{"name":"매시업","tel":"","addr":"경기도 부천시 약대동 73-2번지 1층","category":"의류 - 기타의류"}]},{"lat":"37.510564924","long":"126.77410676","items":[{"name":"매일유업영광특판","tel":"032-672-7508","addr":"경기도 부천시 약대동 169-35번지 102호","category":"음료식품 - 기타음료식품"},{"name":"쿨마트","tel":"032-679-0324","addr":"경기도 부천시 약대동 169-35번지","category":"유통업 영리 - 슈퍼마켓"}]},{"lat":"37.515673262","long":"126.76484997","items":[{"name":"뮤엠영어","tel":"031-325-8205","addr":"경기도 부천시 약대동 182-54번지 102호","category":"학원 - 외국어학원"}]},{"lat":"37.513422306","long":"126.76560363","items":[{"name":"뮤직톡톡피아노음악교습소","tel":"031-000-0000","addr":"경기도 부천시 약대동 217-1번지 부천아이파크","category":"학원 - 예·체능계학원"},{"name":"써니펫시터","tel":"032-325-7932","addr":"경기도 부천시 약대동 217-1번지 부천아이파크","category":"문화.취미 - 애완동물"},{"name":"아꽃솝","tel":"070-8829-6215","addr":"경기도 부천시 약대동 217-1번지 부천아이파크","category":"신변잡화 - 기타잡화"},{"name":"워싱고릴라","tel":"032-1811-7271","addr":"경기도 부천시 약대동 217-1번지 부천아이파크 상가 215동 106호","category":"용역 서비스 - 종합용역"},{"name":"인생술집","tel":"032-323-1008","addr":"경기도 부천시 약대동 217-1번지 부천아이파크 1층 102호","category":"일반휴게음식 - 주점"},{"name":"카페지향","tel":"032-329-5500","addr":"경기도 부천시 약대동 217-1번지 부천아이파크","category":"일반휴게음식 - 서양음식"},{"name":"휘게랩","tel":"","addr":"경기도 부천시 약대동 217-1번지 부천아이파크 215동 102호","category":"일반휴게음식 - 서양음식"}]},{"lat":"37.513096427","long":"126.77396331","items":[{"name":"미광수산","tel":"032-671-5912","addr":"경기도 부천시 약대동 170-7번지","category":"음료식품 - 농·축·수산품"}]},{"lat":"37.510565625","long":"126.77446869","items":[{"name":"미네르바","tel":"032-441-2322","addr":"경기도 부천시 약대동 177-1번지 영우빌딩 102호","category":"직물 - 침구·수예점"},{"name":"부천쌀도매","tel":"032-677-3385","addr":"경기도 부천시 약대동 177-1번지 1층","category":"음료식품 - 미곡상"},{"name":"부천컴퓨터수리센터","tel":"032-235-5000","addr":"경기도 부천시 약대동 177-1번지 영우빌딩 101호","category":"사무통신 - 컴퓨터"},{"name":"신세계","tel":"032-677-0200","addr":"경기도 부천시 약대동 177-1번지 영우빌딩 103호","category":"사무통신 - 통신기기"},{"name":"연세탑세무회계사무소","tel":"","addr":"경기도 부천시 약대동 177-1번지 영우빌딩 402호","category":"용역 서비스 - 법률회계서비스(개인)"}]},{"lat":"37.515177402","long":"126.76469319","items":[{"name":"미니슈퍼","tel":"032-321-1528","addr":"경기도 부천시 약대동 182-48번지","category":"유통업 영리 - 슈퍼마켓"},{"name":"커피에반하다","tel":"070-8990-5893","addr":"경기도 부천시 약대동 182-48번지 1층","category":"일반휴게음식 - 서양음식"}]},{"lat":"37.514815265","long":"126.76832518","items":[{"name":"미니오까게","tel":"031-111-1111","addr":"경기도 부천시 약대동 82-7번지 1층","category":"의류 - 정장"}]},{"lat":"37.510563784","long":"126.77351863","items":[{"name":"미래종합공사","tel":"032-675-3888","addr":"경기도 부천시 약대동 169-84번지","category":"용역 서비스 - 기타용역서비스"},{"name":"주식회사 선광케미칼","tel":"032-523-6353","addr":"경기도 부천시 약대동 169-84번지 1층","category":"보건위생 - 화장품"},{"name":"흥국전자볼트","tel":"032-230-9999","addr":"경기도 부천시 약대동 169-84번지 1층 1호","category":"기타 - 기계공구"}]},{"lat":"37.514179414","long":"126.77027264","items":[{"name":"미류나무미술.피아노학원","tel":"032-679-1896","addr":"경기도 부천시 약대동 97-2번지 2층","category":"학원 - 예·체능계학원"},{"name":"숨쉬는 나무공방","tel":"032-111-1111","addr":"경기도 부천시 약대동 97-2번지 지층","category":"가구 - 일반가구"},{"name":"신앙촌상회","tel":"032-679-2991","addr":"경기도 부천시 약대동 97-2번지","category":"의류 - 내의판매"},{"name":"제일간병인협회","tel":"","addr":"경기도 부천시 약대동 97-2번지 3층","category":"기타의료기관 - 기타의료기관 및 기타"},{"name":"칠갑산건강원","tel":"032-672-6789","addr":"경기도 부천시 약대동 97-2번지","category":"건강식품 - 기타건강식품"},{"name":"코어컴","tel":"032-679-5225","addr":"경기도 부천시 약대동 97-2번지 1층","category":"사무통신 - 컴퓨터"}]},{"lat":"37.513482908","long":"126.76888357","items":[{"name":"바운스브라더스","tel":"","addr":"경기도 부천시 약대동 75-1번지 건영빌라 301호","category":"서적문구 - 완구점"},{"name":"투지화학","tel":"032-678-5145","addr":"경기도 부천시 약대동 75-1번지 건영빌라 1층 101호","category":"서적문구 - 과학기자재"}]},{"lat":"37.514034387","long":"126.76983197","items":[{"name":"밥도둑 찬찬찬","tel":"070-4806-5042","addr":"경기도 부천시 약대동 104번지 1층 5호","category":"음료식품 - 기타음료식품"},{"name":"본죽","tel":"032-671-6288","addr":"경기도 부천시 약대동 104번지 1층","category":"일반휴게음식 - 일반한식"},{"name":"피자스쿨(약대점)","tel":"032-679-9333","addr":"경기도 부천시 약대동 104번지 1층","category":"일반휴게음식 - 서양음식"},{"name":"헤어호(HAIR HO)","tel":"032-672-4082","addr":"경기도 부천시 약대동 104번지 1층 2호","category":"보건위생 - 미용원"}]},{"lat":"37.513729567","long":"126.77060205","items":[{"name":"밥이랑술이랑","tel":"032-673-7103","addr":"경기도 부천시 약대동 99-3번지 1층","category":"일반휴게음식 - 일반한식"},{"name":"삽다리곱창","tel":"032-679-8588","addr":"경기도 부천시 약대동 99-3번지","category":"일반휴게음식 - 일반한식"}]},{"lat":"37.514701114","long":"126.76982989","items":[{"name":"베스킨라빈스 부천신흥시장점","tel":"032-676-4266","addr":"경기도 부천시 약대동 93-1번지 1층 일부","category":"음료식품 - 제과점"},{"name":"부어치킨","tel":"032-673-3392","addr":"경기도 부천시 약대동 93-1번지","category":"일반휴게음식 - 스넥"},{"name":"부천경희한의원","tel":"032-679-6339","addr":"경기도 부천시 약대동 93-1번지 2층","category":"의원 - 한의원"},{"name":"삼천리약대점","tel":"032-674-7906","addr":"경기도 부천시 약대동 93-1번지","category":"레져용품 - 스포츠·레져용품"},{"name":"수치과의원","tel":"032-672-1762","addr":"경기도 부천시 약대동 93-1번지 2층","category":"의원 - 치과의원"},{"name":"썸 노래연습장","tel":"032-672-7335","addr":"경기도 부천시 약대동 93-1번지 지층","category":"레저업소 - 노 래 방"},{"name":"최고야왕만두","tel":"032-682-7938","addr":"경기도 부천시 약대동 93-1번지 1층","category":"일반휴게음식 - 일반한식"},{"name":"크레마D","tel":"","addr":"경기도 부천시 약대동 93-1번지 1층","category":"일반휴게음식 - 칵테일바"},{"name":"평화상사","tel":"","addr":"경기도 부천시 약대동 93-1번지 3층","category":"건축자재 - 기타건축자재"}]},{"lat":"37.511314708","long":"126.77049643","items":[{"name":"보물창고","tel":"032-652-8988","addr":"경기도 부천시 약대동 144-39번지","category":"수리서비스 - 가정용품수리"}]},{"lat":"37.511369256","long":"126.77074509","items":[{"name":"보성케미칼","tel":"032-681-9197","addr":"경기도 부천시 약대동 149-6번지","category":"건축자재 - 페인트"}]},{"lat":"37.515177174","long":"126.76458008","items":[{"name":"본래순대 약대점","tel":"032-327-7988","addr":"경기도 부천시 약대동 182-36번지 1층","category":"일반휴게음식 - 일반한식"}]},{"lat":"37.514372343","long":"126.76760266","items":[{"name":"봉숭아손톱","tel":"032-320-2812","addr":"경기도 부천시 약대동 80-7번지 세영퍼스트빌 203호","category":"보건위생 - 화장품"}]},{"lat":"37.511506267","long":"126.77169475","items":[{"name":"봉크린","tel":"","addr":"경기도 부천시 약대동 159-9번지 삼진빌라트 B동 301호","category":"용역 서비스 - 종합용역"}]},{"lat":"37.5130959","long":"126.77369185","items":[{"name":"붐인테리어","tel":"032-681-3010","addr":"경기도 부천시 약대동 169-27번지 1층","category":"건축자재 - 인테리어전문"}]},{"lat":"37.510760394","long":"126.77269237","items":[{"name":"뷰티호텔","tel":"","addr":"경기도 부천시 약대동 175번지 B동 1층","category":"보건위생 - 화장품"},{"name":"시리네일","tel":"070-4696-0445","addr":"경기도 부천시 약대동 175번지 비동 1층 일부","category":"보건위생 - 피부미용실"},{"name":"옥스카페","tel":"","addr":"경기도 부천시 약대동 175번지","category":"일반휴게음식 - 서양음식"},{"name":"위브그린음악교습소","tel":"032-681-0305","addr":"경기도 부천시 약대동 175번지 1층 일부","category":"학원 - 예·체능계학원"},{"name":"위브꿈나무태권도","tel":"032-676-5005","addr":"경기도 부천시 약대동 175번지 B동 2층","category":"학원 - 예·체능계학원"},{"name":"칸느헤어","tel":"032-345-4605","addr":"경기도 부천시 약대동 175번지","category":"보건위생 - 미용원"},{"name":"파트디자인","tel":"032-672-7002","addr":"경기도 부천시 약대동 175번지 B동 1층","category":"건축자재 - 조명기구"}]},{"lat":"37.510262385","long":"126.77607568","items":[{"name":"비금슈퍼","tel":"032-672-0599","addr":"경기도 부천시 약대동 177-84번지","category":"유통업 영리 - 슈퍼마켓"},{"name":"억조식당","tel":"032-676-2815","addr":"경기도 부천시 약대동 177-84번지","category":"일반휴게음식 - 일반한식"},{"name":"예진실업","tel":"032-671-3562","addr":"경기도 부천시 약대동 177-84번지","category":"유통업 영리 - 기타유통업"},{"name":"행운밥상","tel":"032-682-7272","addr":"경기도 부천시 약대동 177-84번지 1층","category":"일반휴게음식 - 일반한식"}]},{"lat":"37.513177581","long":"126.77399699","items":[{"name":"비니치킨","tel":"032-673-7145","addr":"경기도 부천시 약대동 170-6번지 1층","category":"일반휴게음식 - 스넥"},{"name":"지니쿡","tel":"","addr":"경기도 부천시 약대동 170-6번지 1층 일부","category":"일반휴게음식 - 일반한식"},{"name":"한샘문구점","tel":"032-667-4950","addr":"경기도 부천시 약대동 170-6번지","category":"서적문구 - 문구용품"}]},{"lat":"37.509533065","long":"126.77632672","items":[{"name":"비투비베이스볼","tel":"032-675-1336","addr":"경기도 부천시 약대동 177-67번지 1층, 2층","category":"레저업소 - 기타레져업소"}]},{"lat":"37.51317921","long":"126.77021919","items":[{"name":"사계절호프","tel":"","addr":"경기도 부천시 약대동 128-5번지 ,1,2층","category":"일반휴게음식 - 일반한식"}]},{"lat":"37.512895616","long":"126.77262926","items":[{"name":"삼대떡볶이 약대점","tel":"","addr":"경기도 부천시 약대동 169-62번지","category":"일반휴게음식 - 스넥"},{"name":"엠제이헤어","tel":"070-7370-4369","addr":"경기도 부천시 약대동 169-62번지 1층 일부","category":"보건위생 - 미용원"}]},{"lat":"37.512870015","long":"126.76877238","items":[{"name":"삼복냉면  돈까스","tel":"032-672-7982","addr":"경기도 부천시 약대동 139-3번지 1층","category":"일반휴게음식 - 서양음식"},{"name":"향기음악교습소","tel":"032-679-8978","addr":"경기도 부천시 약대동 139-3번지 2층","category":"학원 - 예·체능계학원"}]},{"lat":"37.515843741","long":"126.76449878","items":[{"name":"삼산조경","tel":"032-671-7645","addr":"경기도 부천시 약대동 182-27번지","category":"건축자재 - 인테리어전문"}]},{"lat":"37.51239199","long":"126.77310585","items":[{"name":"삼성시스템","tel":"032-674-4312","addr":"경기도 부천시 약대동 169-38번지","category":"회원제형태 - 기타4"}]},{"lat":"37.512816046","long":"126.77340994","items":[{"name":"삼안인테리어","tel":"032-683-6884","addr":"경기도 부천시 약대동 169-56번지","category":"직물 - 카페트,커튼,천막,지물"}]},{"lat":"37.514843237","long":"126.76880015","items":[{"name":"삼학도","tel":"032-679-6989","addr":"경기도 부천시 약대동 84-12번지","category":"일반휴게음식 - 일반한식"}]},{"lat":"37.509064119","long":"126.77610193","items":[{"name":"새한이화학","tel":"032-676-3373","addr":"경기도 부천시 약대동 177","category":"서적문구 - 과학기자재"}]},{"lat":"37.512927581","long":"126.77054798","items":[{"name":"서울우유중1동대리점","tel":"032-675-5389","addr":"경기도 부천시 약대동 128-11번지 101호","category":"음료식품 - 기타음료식품"}]},{"lat":"37.509227424","long":"126.77668956","items":[{"name":"서진스프링","tel":"031-679-0123","addr":"경기도 부천시 약대동 177-87번지","category":"기타 - 기계공구"}]},{"lat":"37.511422158","long":"126.77015678","items":[{"name":"수향빌딩","tel":"","addr":"경기도 부천시 약대동 144-3번지 수향빌딩","category":"자동차정비 유지 - 주차장"},{"name":"치코디카페","tel":"032-676-0422","addr":"경기도 부천시 약대동 144-3번지 수향빌딩 2층","category":"일반휴게음식 - 일반한식"},{"name":"탑플라이트 독서실","tel":"032-710-4228","addr":"경기도 부천시 약대동 144-3번지 수향빌딩 4층 일부호","category":"학원 - 독서실"},{"name":"탑플라이트 스터디카페 부천중동센터","tel":"032-710-4228","addr":"경기도 부천시 약대동 144-3번지 수향빌딩 3층","category":"용역 서비스 - 사무서비스"}]},{"lat":"37.512206304","long":"126.77030139","items":[{"name":"스마트플랜","tel":"032-673-5022","addr":"경기도 부천시 약대동 145-3번지 1층","category":"건축자재 - 인테리어전문"}]},{"lat":"37.515261233","long":"126.761605","items":[{"name":"스피드메이트중동대로점","tel":"032-322-8393","addr":"경기도 부천시 약대동 192-3번지","category":"자동차정비 유지 - 자동차정비"}]},{"lat":"37.512424775","long":"126.76688489","items":[{"name":"승리","tel":"032-665-3660","addr":"경기도 부천시 약대동 218번지 부천3차아이파크아파트","category":"의류 - 스포츠의류"}]},{"lat":"37.512679642","long":"126.76818482","items":[{"name":"시티아울렛","tel":"032-671-1501","addr":"경기도 부천시 약대동 139-9번지 호원팰리스 1층","category":"의류 - 정장"}]},{"lat":"37.514457737","long":"126.7697741","items":[{"name":"신부천카인테리어","tel":"032-677-5059","addr":"경기도 부천시 약대동 89번지","category":"자동차정비 유지 - 자동차정비"}]},{"lat":"37.513402268","long":"126.76911004","items":[{"name":"신진종합설비","tel":"032-671-0039","addr":"경기도 부천시 약대동 76-1","category":"건축자재 - 보일러·펌프·샷시"}]},{"lat":"37.513011069","long":"126.76721106","items":[{"name":"쌍둥이네","tel":"032-676-5543","addr":"경기도 부천시 약대동 62-8번지","category":"일반휴게음식 - 일반한식"}]},{"lat":"37.512367921","long":"126.77463286","items":[{"name":"써니치킨","tel":"032-673-9100","addr":"경기도 부천시 약대동 169-115번지 일부","category":"일반휴게음식 - 스넥"},{"name":"유스포 힐링스파","tel":"032-673-9100","addr":"경기도 부천시 약대동 169-115번지 지1, 2층","category":"보건위생 - 사우나"},{"name":"유스포힐링스파","tel":"032-673-9100","addr":"경기도 부천시 약대동 169-115번지 지하2층 유스포힐링사우나","category":"일반휴게음식 - 일반한식"},{"name":"효소힐링케어","tel":"","addr":"경기도 부천시 약대동 169-115번지 지하2층 유스포힐링사우나","category":"보건위생 - 피부미용실"}]},{"lat":"37.514256003","long":"126.76799891","items":[{"name":"썬네일(Sun Nail)","tel":"032-225-4141","addr":"경기도 부천시 약대동 80-11번지","category":"보건위생 - 피부미용실"},{"name":"헤어블라섬","tel":"032-318-4252","addr":"경기도 부천시 약대동 80-11번지","category":"보건위생 - 미용원"}]},{"lat":"37.512454839","long":"126.77299255","items":[{"name":"씨유약대행운점","tel":"080-080-3663","addr":"경기도 부천시 약대동 169-38번지 1층 1, 2, 3, 4호","category":"유통업 영리 - 편 의 점"}]},{"lat":"37.515177721","long":"126.76485154","items":[{"name":"아이피씨","tel":"070-4414-2521","addr":"경기도 부천시 약대동 182-49번지","category":"회원제형태 - 기타3"},{"name":"플로라&디자인스쿨","tel":"032-329-5508","addr":"경기도 부천시 약대동 182-49번지 1층","category":"문화.취미 - 화원"}]},{"lat":"37.514841755","long":"126.76805363","items":[{"name":"알피엠","tel":"032-674-5774","addr":"경기도 부천시 약대동 82-5번지","category":"자동차정비 유지 - 자동차부품"},{"name":"이화클라비어음악교습소","tel":"031-674-6924","addr":"경기도 부천시 약대동 82-5번지 2층 201호","category":"학원 - 예·체능계학원"}]},{"lat":"37.514476894","long":"126.7703509","items":[{"name":"약대꽃농원","tel":"032-681-7734","addr":"경기도 부천시 약대동 94-2번지","category":"문화.취미 - 화원"},{"name":"약대실내낚시터","tel":"032-207-4816","addr":"경기도 부천시 약대동 94-2번지 지하층","category":"레저업소 - 기타레져업소"}]},{"lat":"37.513235292","long":"126.7712483","items":[{"name":"약대동주민자치위원회","tel":"032-684-0052","addr":"경기도 부천시 약대동 123번지","category":"문화.취미 - 문화취미기타"}]},{"lat":"37.514810102","long":"126.77027069","items":[{"name":"약대자동차공업사","tel":"032-681-3967","addr":"경기도 부천시 약대동 92-3번지","category":"자동차정비 유지 - 자동차정비"}]},{"lat":"37.512457375","long":"126.76968983","items":[{"name":"약대점현대자동차","tel":"032-675-2254","addr":"경기도 부천시 약대동 138-2번지","category":"자동차정비 유지 - 자동차정비"}]},{"lat":"37.512705439","long":"126.77213217","items":[{"name":"약대하버드수학보습학원","tel":"032-671-3333","addr":"경기도 부천시 약대동 165-31번지","category":"학원 - 보습학원"}]},{"lat":"37.516178655","long":"126.76526688","items":[{"name":"양지고속관광여행사","tel":"080-452-1111","addr":"경기도 부천시 약대동 182-60번지 3층","category":"여행 - 관광여행"},{"name":"양지고속관광주식회사","tel":"032-552-6773","addr":"경기도 부천시 약대동 182-60번지 3층","category":"여행 - 관광여행"},{"name":"어바우트민","tel":"032-322-9637","addr":"경기도 부천시 약대동 182-60번지 1층","category":"보건위생 - 미용원"}]},{"lat":"37.5121188701","long":"126.7716589309","items":[{"name":"양파창고","tel":"02-1111-1111","addr":"경기도 부천시 약대동 164-9번지","category":"음료식품 - 농·축·수산품"}]},{"lat":"37.514176285","long":"126.76868912","items":[{"name":"에어콘(First)","tel":"","addr":"경기도 부천시 약대동 77-5번지 중앙리더스빌 5층 501호","category":"용역 서비스 - 기타용역서비스"}]},{"lat":"37.51203534","long":"126.77041502","items":[{"name":"에코디자인","tel":"032-684-7665","addr":"경기도 부천시 약대동 145-2번지","category":"건축자재 - 인테리어전문"},{"name":"에코인테리어","tel":"031-1899-3378","addr":"경기도 부천시 약대동 145-2번지 1층","category":"건축자재 - 인테리어전문"}]},{"lat":"37.513005275","long":"126.76882851","items":[{"name":"엔르크 디자인 (ENR.K DESIGN)","tel":"","addr":"경기도 부천시 약대동 139-11번지 숲예찬 1동 2층 201호","category":"용역 서비스 - 사무서비스"}]},{"lat":"37.514814995","long":"126.76818944","items":[{"name":"여의주다방","tel":"032-675-9945","addr":"경기도 부천시 약대동 82-6번지","category":"일반휴게음식 - 스넥"},{"name":"예맥디자인","tel":"070-8682-6131","addr":"경기도 부천시 약대동 82-6번지 3층","category":"보건위생 - 화장품"},{"name":"행복까페(cafe)하늘","tel":"070-8248-3754","addr":"경기도 부천시 약대동 82-6번지 1층","category":"일반휴게음식 - 서양음식"}]},{"lat":"37.51292302","long":"126.77282145","items":[{"name":"여주농산","tel":"032-678-5169","addr":"경기도 부천시 약대동 169-75번지","category":"음료식품 - 미곡상"}]},{"lat":"37.513232266","long":"126.76971004","items":[{"name":"연수꽃식물원","tel":"032-677-5777","addr":"경기도 부천시 약대동 128-3번지","category":"문화.취미 - 화원"}]},{"lat":"37.510980231","long":"126.7745466","items":[{"name":"예그리나","tel":"032-671-8939","addr":"경기도 부천시 약대동 169-11번지 1층","category":"일반휴게음식 - 일반한식"}]},{"lat":"37.511425754","long":"126.77198907","items":[{"name":"예림교육경인지사","tel":"032-209-9292","addr":"경기도 부천시 약대동 155-13번지 1층","category":"서적문구 - 기타서적문구"}]},{"lat":"37.514565252","long":"126.76946837","items":[{"name":"오로라테크","tel":"032-676-8695","addr":"경기도 부천시 약대동 90-2 102-202","category":"보건위생 - 의료용품"},{"name":"현대종합설비","tel":"032-207-8899","addr":"경기도 부천시 약대동 90-2번지 성원맨션 102동 101호","category":"수리서비스 - 기타수리서비스"}]},{"lat":"37.514816745","long":"126.7690717","items":[{"name":"오정식물원","tel":"032-681-0901","addr":"경기도 부천시 약대동 91-1번지","category":"문화.취미 - 화원"},{"name":"오투클린","tel":"","addr":"경기도 부천시 약대동 91-1번지 2층","category":"건축자재 - 기타건축자재"},{"name":"주식회사 조은창","tel":"032-673-0440","addr":"경기도 부천시 약대동 91-1번지 2층","category":"건축자재 - 기타건축자재"},{"name":"폰생폰사모바일","tel":"032-682-1708","addr":"경기도 부천시 약대동 91-1번지","category":"사무통신 - 통신기기"}]},{"lat":"37.514452936","long":"126.76735357","items":[{"name":"욕실청년","tel":"032-675-9420","addr":"경기도 부천시 약대동 80-5번지","category":"건축자재 - 인테리어전문"}]},{"lat":"37.513534344","long":"126.77212962","items":[{"name":"우남세탁소","tel":"032-677-3687","addr":"경기도 부천시 약대동 119","category":"수리서비스 - 세탁소"},{"name":"헤어카페","tel":"032-295-4253","addr":"경기도 부천시 약대동 119번지 우남 상가 1층 1호","category":"보건위생 - 미용원"}]},{"lat":"37.512703157","long":"126.77096718","items":[{"name":"우리마트","tel":"032-672-3377","addr":"경기도 부천시 약대동 129-3번지 1층","category":"유통업 영리 - 슈퍼마켓"}]},{"lat":"37.513148558","long":"126.76838694","items":[{"name":"유정설비","tel":"","addr":"경기도 부천시 약대동 72-11번지","category":"용역 서비스 - 기타용역서비스"}]},{"lat":"37.513616507","long":"126.76810271","items":[{"name":"이쌤영어교습소","tel":"","addr":"경기도 부천시 약대동 50번지 삼호아트빌 1층 101호","category":"학원 - 기타 교육기관"}]},{"lat":"37.509179702","long":"126.77529856","items":[{"name":"이지치과","tel":"032-321-8275","addr":"경기도 부천시 약대동 177-41번지 401호","category":"의원 - 치과의원"},{"name":"지반","tel":"","addr":"경기도 부천시 약대동 177-41번지","category":"가구 - 일반가구"}]},{"lat":"37.51469881","long":"126.76866487","items":[{"name":"인동주마을","tel":"032-682-7880","addr":"경기도 부천시 약대동 84-8번지","category":"일반휴게음식 - 일반한식"}]},{"lat":"37.513784227","long":"126.77090728","items":[{"name":"장수추어탕","tel":"032-683-7148","addr":"경기도 부천시 약대동 96-1번지 1층","category":"일반휴게음식 - 일반한식"}]},{"lat":"37.512952489","long":"126.77407686","items":[{"name":"전구교체서비스","tel":"070-4200-3222","addr":"경기도 부천시 약대동 170-12번지","category":"자동차정비 유지 - 자동차정비"}]},{"lat":"37.511900806","long":"126.77535816","items":[{"name":"주식회사 정담에프엔에스","tel":"032-672-9979","addr":"경기도 부천시 약대동 176-32번지 6층","category":"음료식품 - 기타음료식품"},{"name":"주식회사 정담푸드","tel":"032-672-9979","addr":"경기도 부천시 약대동 176-32번지 한성빌딩 4층,6층","category":"음료식품 - 기타음료식품"},{"name":"중동가구공단","tel":"032-679-3838","addr":"경기도 부천시 약대동 176-32번지 한성빌딩 1층 39호 , 2층","category":"가구 - 일반가구"},{"name":"허브테크코리아","tel":"032-678-6012","addr":"경기도 부천시 약대동 176-32번지 한성빌딩 5층","category":"보건위생 - 의료용품"}]},{"lat":"37.512816486","long":"126.77363615","items":[{"name":"준노래방","tel":"032-674-4907","addr":"경기도 부천시 약대동 169-57번지","category":"레저업소 - 노 래 방"},{"name":"청계천공구상가노가리호프","tel":"032-677-0424","addr":"경기도 부천시 약대동 169-57번지 1층","category":"일반휴게음식 - 주점"}]},{"lat":"37.515177949","long":"126.76496465","items":[{"name":"준마트","tel":"032-326-7909","addr":"경기도 부천시 약대동 182-59번지","category":"유통업 영리 - 슈퍼마켓"},{"name":"현대설렁탕","tel":"","addr":"경기도 부천시 약대동 182-59번지 1층","category":"일반휴게음식 - 일반한식"}]},{"lat":"37.511566917","long":"126.77046172","items":[{"name":"지게이트","tel":"02-1899-9896","addr":"경기도 부천시 약대동 149-1번지 메이채팰리스 102동 402호","category":"기타 - 기계공구"}]},{"lat":"37.516285885","long":"126.7648254","items":[{"name":"카카오데이(cacao-day)","tel":"","addr":"경기도 부천시 약대동 182번지","category":"일반휴게음식 - 서양음식"}]},{"lat":"37.513096975","long":"126.77424608","items":[{"name":"카페세모","tel":"032-679-3952","addr":"경기도 부천시 약대동 170-14번지 1층","category":"일반휴게음식 - 서양음식"}]},{"lat":"37.516088397","long":"126.76518799","items":[{"name":"커피야","tel":"070-8880-1009","addr":"경기도 부천시 약대동 182-10번지 1층,약대동","category":"일반휴게음식 - 서양음식"}]},{"lat":"37.512978738","long":"126.76907743","items":[{"name":"커피에반하다 부천수도로점","tel":"","addr":"경기도 부천시 약대동 137-9번지 1층","category":"일반휴게음식 - 서양음식"}]},{"lat":"37.508927165","long":"126.7751636","items":[{"name":"타이어테크 약대점","tel":"032-679-7770","addr":"경기도 부천시 약대동 153-24번지","category":"자동차정비 유지 - 자동차시트·타이어"}]},{"lat":"37.509985812","long":"126.77283047","items":[{"name":"편의점사랑","tel":"070-7012-1355","addr":"경기도 부천시 약대동 152-2 일원두산위브2구역1층 101","category":"유통업 영리 - 편 의 점"}]},{"lat":"37.515754692","long":"126.76501938","items":[{"name":"포비스타 (4Vista)","tel":"032-322-8484","addr":"경기도 부천시 약대동 182-20번지 1층","category":"일반휴게음식 - 일반한식"}]},{"lat":"37.511426571","long":"126.77240756","items":[{"name":"피자예스","tel":"032-676-4645","addr":"경기도 부천시 약대동 156-1번지 1층","category":"일반휴게음식 - 서양음식"}]},{"lat":"37.514289313","long":"126.76663018","items":[{"name":"하나전산","tel":"032-675-6840","addr":"경기도 부천시 약대동 34-27번지 (34-24)지하","category":"사무통신 - 컴퓨터"}]},{"lat":"37.50967707","long":"126.77624711","items":[{"name":"하늘마루상조","tel":"032-672-5566","addr":"경기도 부천시 약대동 177-20번지 1층 일부","category":"용역 서비스 - 가례서비스업"},{"name":"호남식당","tel":"032-684-9534","addr":"경기도 부천시 약대동 177-20번지","category":"일반휴게음식 - 일반한식"}]},{"lat":"37.514480844","long":"126.76779461","items":[{"name":"하리보양집","tel":"032-679-0066","addr":"경기도 부천시 약대동 80-19번지 1층","category":"일반휴게음식 - 일반한식"}]},{"lat":"37.510672823","long":"126.77399333","items":[{"name":"해피다이어트","tel":"032-612-4005","addr":"경기도 부천시 약대동 169-32번지 삼화그린빌","category":"회원제형태 - 건강식품"}]},{"lat":"37.515176877","long":"126.76443304","items":[{"name":"현대카써비스 약대","tel":"032-323-8913","addr":"경기도 부천시 약대동 182-34번지 1층","category":"자동차정비 유지 - 자동차정비"}]}]