[{"lat":"37.897406854","long":"126.81844879","items":[{"name":"강변살자","tel":"031-952-6478","addr":"경기도 파주시 파평면 율곡리 107-17번지","category":"유통업 영리 - 슈퍼마켓"}]},{"lat":"37.889439741","long":"126.8110112","items":[{"name":"강변집","tel":"031-952-6490","addr":"경기도 파주시 파평면 율곡리 507-11번지","category":"일반휴게음식 - 일반한식"}]},{"lat":"37.888411666","long":"126.81598165","items":[{"name":"대길타이어","tel":"031-947-9477","addr":"경기도 파주시 파평면 율곡리 178-5번지","category":"자동차정비 유지 - 자동차시트·타이어"},{"name":"황룡","tel":"031-952-8679","addr":"경기도 파주시 파평면 율곡리 178-5번지","category":"일반휴게음식 - 일반한식"}]},{"lat":"37.888744865","long":"126.81588987","items":[{"name":"들녘카페","tel":"031-952-0691","addr":"경기도 파주시 파평면 율곡리 178-4번지","category":"일반휴게음식 - 서양음식"},{"name":"평화종합건설중기","tel":"031-952-0076","addr":"경기도 파주시 파평면 율곡리 178-4번지","category":"기타 - 기계공구"}]},{"lat":"37.888492261","long":"126.81567452","items":[{"name":"반석농장","tel":"031-3273-2797","addr":"경기도 파주시 파평면 율곡리 178-11번지","category":"음료식품 - 기타음료식품"},{"name":"청림가축약품","tel":"031-952-7900","addr":"경기도 파주시 파평면 율곡리 178-11번지","category":"보건위생 - 의료용품"}]},{"lat":"37.887321804","long":"126.82191838","items":[{"name":"밤골","tel":"031-952-8155","addr":"경기도 파주시 파평면 율곡리 69번지","category":"숙박업 - 여관/기타숙박업"}]},{"lat":"37.896633176","long":"126.81916698","items":[{"name":"어부집","tel":"031-953-0787","addr":"경기도 파주시 파평면 율곡리 83-29번지","category":"일반휴게음식 - 일반한식"},{"name":"어부집","tel":"031-953-0787","addr":"경기도 파주시 파평면 율곡리 83-29번지","category":"음료식품 - 농·축·수산품"}]},{"lat":"37.887130733","long":"126.8207025","items":[{"name":"오성농원","tel":"","addr":"경기도 파주시 파평면 율곡리 51-1번지","category":"음료식품 - 농·축·수산품"}]},{"lat":"37.886270874","long":"126.80700666","items":[{"name":"올원","tel":"031-972-2234","addr":"경기도 파주시 파평면 율곡리 519-7번지","category":"신변잡화 - 기타잡화"}]},{"lat":"37.887329359","long":"126.82097484","items":[{"name":"우진(W&J)","tel":"031-952-8258","addr":"경기도 파주시 파평면 율곡리 67번지","category":"일반휴게음식 - 일반한식"}]},{"lat":"37.887077099","long":"126.82097546","items":[{"name":"우진W&J음식점","tel":"031-953-0312","addr":"경기도 파주시 파평면 율곡리 67-2번지","category":"일반휴게음식 - 일반한식"}]},{"lat":"37.882301733","long":"126.82070303","items":[{"name":"원프레임","tel":"031-941-6836","addr":"경기도 파주시 파평면 율곡리 307-1번지","category":"숙박업 - 여관/기타숙박업"}]},{"lat":"37.890348932","long":"126.81614728","items":[{"name":"율곡낚시","tel":"031-952-0403","addr":"경기도 파주시 파평면 율곡리 160-10번지","category":"음료식품 - 기타음료식품"}]},{"lat":"37.892488286","long":"126.81877938","items":[{"name":"율곡농산물매점","tel":"","addr":"경기도 파주시 파평면 율곡리 150-59번지","category":"음료식품 - 농·축·수산품"}]},{"lat":"37.887022225","long":"126.81472335","items":[{"name":"율곡식당","tel":"031-954-1030","addr":"경기도 파주시 파평면 율곡리 224-3번지","category":"일반휴게음식 - 일반한식"}]},{"lat":"37.88012988","long":"126.81459312","items":[{"name":"율곡자동차정비공업사","tel":"031-952-5536","addr":"경기도 파주시 파평면 율곡리 392-4번지","category":"자동차정비 유지 - 자동차정비"}]},{"lat":"37.891324465","long":"126.82958224","items":[{"name":"율곡캠핑장","tel":"","addr":"경기도 파주시 파평면 율곡리 13-6,14-3","category":"숙박업 - 여관/기타숙박업"}]},{"lat":"37.881911233","long":"126.8021759","items":[{"name":"임진강수라상","tel":"031-954-0960","addr":"경기도 파주시 파평면 율곡리 581번지","category":"일반휴게음식 - 일반한식"}]},{"lat":"37.886130673","long":"126.80939422","items":[{"name":"포시즌","tel":"031-954-0021","addr":"경기도 파주시 파평면 율곡리 477-5번지","category":"숙박업 - 여관/기타숙박업"}]},{"lat":"37.880660354","long":"126.81392113","items":[{"name":"한우리매운탕","tel":"031-945-2238","addr":"경기도 파주시 파평면 율곡리 277-3","category":"일반휴게음식 - 일반한식"}]}]