[{"lat":"37.285317285","long":"127.01606431","items":[{"name":"(사)대한경신연합수원지부","tel":"031-243-6300","addr":"경기도 수원시 팔달구 북수동 223번지","category":"기타 - 비영리/비대상"},{"name":"성일","tel":"031-242-8887","addr":"경기도 수원시 팔달구 북수동 223번지","category":"일반휴게음식 - 일반한식"}]},{"lat":"37.284983906","long":"127.01606426","items":[{"name":"(주)아낌없이주는나무들","tel":"031-245-6211","addr":"경기도 수원시 팔달구 북수동 215번지 201호","category":"학원 - 기타 교육기관"},{"name":"대한이침협회수원지부","tel":"031-256-7575","addr":"경기도 수원시 팔달구 북수동 215번지 1층","category":"일반휴게음식 - 일반한식"},{"name":"플러스유","tel":"031-236-9222","addr":"경기도 수원시 팔달구 북수동 215번지 201호","category":"회원제형태 - 기타4"},{"name":"한국결혼중개사 교육개발원","tel":"031-236-9222","addr":"경기도 수원시 팔달구 북수동 215번지 201호","category":"회원제형태 - 학원"},{"name":"황금알날나바베큐치킨","tel":"031-268-8292","addr":"경기도 수원시 팔달구 북수동 215번지 1층","category":"일반휴게음식 - 스넥"}]},{"lat":"37.287236558","long":"127.01525271","items":[{"name":"24시짜장마을","tel":"031-255-1300","addr":"경기도 수원시 팔달구 북수동 145-1번지 1층","category":"일반휴게음식 - 일반한식"},{"name":"봉구스밥버거","tel":"","addr":"경기도 수원시 팔달구 북수동 145-1번지","category":"일반휴게음식 - 일반한식"},{"name":"콜링우드","tel":"","addr":"경기도 수원시 팔달구 북수동 145-1번지 1층","category":"일반휴게음식 - 서양음식"}]},{"lat":"37.285236035","long":"127.01741749","items":[{"name":"GS25수원화홍점","tel":"","addr":"경기도 수원시 팔달구 북수동 271번지 1층 좌측","category":"유통업 영리 - 편 의 점"},{"name":"신흥냉동","tel":"031-251-7517","addr":"경기도 수원시 팔달구 북수동 271번지","category":"전기제품 - 냉열기기"}]},{"lat":"37.287128349","long":"127.01605335","items":[{"name":"가람기획","tel":"031-247-1180","addr":"경기도 수원시 팔달구 북수동 100-1번지","category":"용역 서비스 - 종합용역"}]},{"lat":"37.28237076","long":"127.01750715","items":[{"name":"거창상회","tel":"031-255-2464","addr":"경기도 수원시 팔달구 북수동 311-14번지","category":"음료식품 - 농·축·수산품"},{"name":"북수동커피","tel":"070-4122-1411","addr":"경기도 수원시 팔달구 북수동 311-14번지 1층","category":"일반휴게음식 - 서양음식"}]},{"lat":"37.284623458","long":"127.01639121","items":[{"name":"경기문구","tel":"031-256-0834","addr":"경기도 수원시 팔달구 북수동 207-1번지","category":"서적문구 - 문구용품"},{"name":"다원약선차","tel":"","addr":"경기도 수원시 팔달구 북수동 207-1번지 1층","category":"일반휴게음식 - 서양음식"},{"name":"대진과학","tel":"031-251-4615","addr":"경기도 수원시 팔달구 북수동 207-1번지","category":"서적문구 - 완구점"},{"name":"한신","tel":"070-1111-1111","addr":"경기도 수원시 팔달구 북수동 207-1번지","category":"음료식품 - 기타음료식품"}]},{"lat":"37.28212748","long":"127.01752965","items":[{"name":"공덕상회","tel":"031-255-2726","addr":"경기도 수원시 팔달구 북수동 311-6번지","category":"유통업 영리 - 슈퍼마켓"},{"name":"동신미곡","tel":"","addr":"경기도 수원시 팔달구 북수동 311-6번지 1층","category":"일반휴게음식 - 일반한식"},{"name":"종로통닭","tel":"031-244-5711","addr":"경기도 수원시 팔달구 북수동 311-6번지","category":"일반휴게음식 - 스넥"},{"name":"중화분식","tel":"031-242-2182","addr":"경기도 수원시 팔달구 북수동 311-6번지 1층","category":"일반휴게음식 - 중국식"}]},{"lat":"37.285515542","long":"127.01578243","items":[{"name":"공주다방","tel":"","addr":"경기도 수원시 팔달구 북수동 171번지","category":"일반휴게음식 - 서양음식"},{"name":"대승당","tel":"031-255-3332","addr":"경기도 수원시 팔달구 북수동 171번지","category":"신변잡화 - 귀금속"},{"name":"대한불교태선종","tel":"031-243-2232","addr":"경기도 수원시 팔달구 북수동 171번지","category":"회원제형태 - 기타4"},{"name":"수원장안보조기상사","tel":"031-255-8860","addr":"경기도 수원시 팔달구 북수동 171번지","category":"보건위생 - 의료용품"}]},{"lat":"37.285434429","long":"127.01597412","items":[{"name":"국제상사","tel":"031-256-6614","addr":"경기도 수원시 팔달구 북수동 226번지","category":"건축자재 - 유리"}]},{"lat":"37.284569437","long":"127.01603035","items":[{"name":"국제열쇠","tel":"031-247-1313","addr":"경기도 수원시 팔달구 북수동 189-1번지","category":"기타 - 기계공구"},{"name":"백상필방","tel":"031-251-0292","addr":"경기도 수원시 팔달구 북수동 189-1번지","category":"문화.취미 - 화방·표구점"},{"name":"수지표구화랑","tel":"031-223-7018","addr":"경기도 수원시 팔달구 북수동 189-1번지","category":"문화.취미 - 화방·표구점"},{"name":"청송악기사","tel":"031-47-0777","addr":"경기도 수원시 팔달구 북수동 189-1번지","category":"레져용품 - 악기점"},{"name":"한양상회","tel":"031-243-4332","addr":"경기도 수원시 팔달구 북수동 189-1번지","category":"자동차정비 유지 - 자동차부품"},{"name":"현대파출부","tel":"031-256-6433","addr":"경기도 수원시 팔달구 북수동 189-1번지","category":"용역 서비스 - 기타용역서비스"}]},{"lat":"37.286957177","long":"127.01583906","items":[{"name":"그때그집","tel":"031-255-0747","addr":"경기도 수원시 팔달구 북수동 102-3번지","category":"일반휴게음식 - 일반한식"}]},{"lat":"37.282433863","long":"127.01724781","items":[{"name":"금성상회","tel":"031-255-8031","addr":"경기도 수원시 팔달구 북수동 311-25번지","category":"음료식품 - 기타음료식품"},{"name":"다락","tel":"","addr":"경기도 수원시 팔달구 북수동 311-25번지","category":"의류 - 정장"}]},{"lat":"37.286317381","long":"127.0164479","items":[{"name":"금호공업사","tel":"031-243-1937","addr":"경기도 수원시 팔달구 북수동 63번지","category":"건축자재 - 기타건축자재"}]},{"lat":"37.288678248","long":"127.01477931","items":[{"name":"김정문알로에정자점","tel":"031-244-5263","addr":"경기도 수원시 팔달구 북수동 6-3번지","category":"보건위생 - 화장품"},{"name":"대학당약국","tel":"031-241-5346","addr":"경기도 수원시 팔달구 북수동 6-3번지","category":"약국 - 약국"},{"name":"수원미투리무용복","tel":"031-247-6361","addr":"경기도 수원시 팔달구 북수동 6-3번지","category":"레져용품 - 스포츠·레져용품"}]},{"lat":"37.287488857","long":"127.01513999","items":[{"name":"꼴통주점","tel":"031-244-7579","addr":"경기도 수원시 팔달구 북수동 140-2번지","category":"일반휴게음식 - 일반한식"}]},{"lat":"37.284037817","long":"127.01616558","items":[{"name":"끌레오","tel":"031-253-2791","addr":"경기도 수원시 팔달구 북수동 195-1번지 1층","category":"의류 - 정장"}]},{"lat":"37.288344745","long":"127.01595207","items":[{"name":"네일 온 디바(Nail On Diva)","tel":"","addr":"경기도 수원시 팔달구 북수동 19-2번지 1층","category":"보건위생 - 피부미용실"}]},{"lat":"37.286092213","long":"127.01564721","items":[{"name":"노다지노래연습장","tel":"031-241-4617","addr":"경기도 수원시 팔달구 북수동 75번지","category":"레저업소 - 노 래 방"},{"name":"세림환경","tel":"031-246-6997","addr":"경기도 수원시 팔달구 북수동 75번지 2층","category":"용역 서비스 - 종합용역"}]},{"lat":"37.284434194","long":"127.01680841","items":[{"name":"뉴수원관광호텔","tel":"031-245-2406","addr":"경기도 수원시 팔달구 북수동 281번지","category":"숙박업 - 여관/기타숙박업"},{"name":"이마트24 수원베니키아호텔점","tel":"","addr":"경기도 수원시 팔달구 북수동 281번지 1층 소매점","category":"유통업 영리 - 편 의 점"}]},{"lat":"37.282515031","long":"127.01661636","items":[{"name":"다라니패션","tel":"031-252-8112","addr":"경기도 수원시 팔달구 북수동 362-1번지","category":"의류 - 정장"},{"name":"대일정보처리회계학원","tel":"031-242-5421","addr":"경기도 수원시 팔달구 북수동 362-1번지 2,4층","category":"학원 - 기능학원"},{"name":"수도기획","tel":"031-255-6661","addr":"경기도 수원시 팔달구 북수동 362-1번지","category":"서적문구 - 출판 및 인쇄물"}]},{"lat":"37.285704733","long":"127.016008","items":[{"name":"다실바의상실","tel":"031-242-9789","addr":"경기도 수원시 팔달구 북수동 169-1번지","category":"의류 - 맞춤복점"},{"name":"장안식당","tel":"031-241-4248","addr":"경기도 수원시 팔달구 북수동 169-1번지","category":"일반휴게음식 - 일반한식"}]},{"lat":"37.286236297","long":"127.01636895","items":[{"name":"다원오피스","tel":"031-245-6553","addr":"경기도 수원시 팔달구 북수동 64번지","category":"사무통신 - 사무용 OA기기"}]},{"lat":"37.283073544","long":"127.0176426","items":[{"name":"달래","tel":"031-242-4028","addr":"경기도 수원시 팔달구 북수동 292번지 1층 101호","category":"일반휴게음식 - 일반한식"},{"name":"주식회사위대한국보환경","tel":"070-7862-9453","addr":"경기도 수원시 팔달구 북수동 292번지","category":"용역 서비스 - 종합용역"}]},{"lat":"37.28679484","long":"127.0171697","items":[{"name":"대양냉동사","tel":"031-253-5954","addr":"경기도 수원시 팔달구 북수동 33-9번지","category":"수리서비스 - 기타수리서비스"},{"name":"정지영커피로스터즈","tel":"","addr":"경기도 수원시 팔달구 북수동 33-9번지","category":"일반휴게음식 - 서양음식"}]},{"lat":"37.284677548","long":"127.01614314","items":[{"name":"대왕문구","tel":"031-242-4435","addr":"경기도 수원시 팔달구 북수동 209번지","category":"서적문구 - 문구용품"}]},{"lat":"37.286488537","long":"127.01678623","items":[{"name":"대한불교마트","tel":"031-252-4025","addr":"경기도 수원시 팔달구 북수동 60-2번지","category":"신변잡화 - 기념품점"}]},{"lat":"37.286011106","long":"127.01578252","items":[{"name":"도우미식당","tel":"031-253-4855","addr":"경기도 수원시 팔달구 북수동 74번지","category":"일반휴게음식 - 칵테일바"},{"name":"쉬리모텔","tel":"031-256-3576","addr":"경기도 수원시 팔달구 북수동 74번지","category":"숙박업 - 여관/기타숙박업"},{"name":"쉬리여관","tel":"031-256-3576","addr":"경기도 수원시 팔달구 북수동 74번지","category":"숙박업 - 여관/기타숙박업"}]},{"lat":"37.283929629","long":"127.01672938","items":[{"name":"동광과학교재사","tel":"031-254-0110","addr":"경기도 수원시 팔달구 북수동 332-2번지","category":"서적문구 - 과학기자재"}]},{"lat":"37.285010781","long":"127.01739489","items":[{"name":"동광냉동","tel":"031-247-7432","addr":"경기도 수원시 팔달구 북수동 272번지","category":"전기제품 - 냉열기기"},{"name":"화홍통닭","tel":"031-256-3133","addr":"경기도 수원시 팔달구 북수동 272번지 101호","category":"일반휴게음식 - 일반한식"}]},{"lat":"37.287515801","long":"127.01595193","items":[{"name":"동네열쇠","tel":"031-245-6221","addr":"경기도 수원시 팔달구 북수동 115번지 장안원룸 102호","category":"건축자재 - 목재·석재·철물"}]},{"lat":"37.286209163","long":"127.01724853","items":[{"name":"동창당한약방","tel":"031-248-3672","addr":"경기도 수원시 팔달구 북수동 39-1번지","category":"약국 - 한약방"}]},{"lat":"37.287182372","long":"127.01639167","items":[{"name":"둘리분식","tel":"031-000-0000","addr":"경기도 수원시 팔달구 북수동 25-14번지 1층 101호","category":"일반휴게음식 - 스넥"},{"name":"화홍마트","tel":"031-248-6865","addr":"경기도 수원시 팔달구 북수동 25-14번지 1층 103호","category":"유통업 영리 - 슈퍼마켓"}]},{"lat":"37.286731824","long":"127.01669606","items":[{"name":"둥지","tel":"","addr":"경기도 수원시 팔달구 북수동 31-3번지 1층","category":"일반휴게음식 - 주점"},{"name":"모텔루비","tel":"031-243-7587","addr":"경기도 수원시 팔달구 북수동 31-3번지","category":"숙박업 - 여관/기타숙박업"}]},{"lat":"37.287038173","long":"127.01669612","items":[{"name":"뚱땡이왕대포","tel":"031-256-9206","addr":"경기도 수원시 팔달구 북수동 25-12번지","category":"일반휴게음식 - 주점"},{"name":"토스트전문점","tel":"031-253-2403","addr":"경기도 수원시 팔달구 북수동 25-12번지","category":"일반휴게음식 - 스넥"}]},{"lat":"37.285929999","long":"127.01591782","items":[{"name":"락희식당","tel":"031-255-0331","addr":"경기도 수원시 팔달구 북수동 167번지 1층","category":"일반휴게음식 - 일반한식"},{"name":"맛동네순대국","tel":"031-245-3415","addr":"경기도 수원시 팔달구 북수동 167번지","category":"일반휴게음식 - 일반한식"},{"name":"장안먹거리실내포차","tel":"031-255-0229","addr":"경기도 수원시 팔달구 북수동 167번지","category":"일반휴게음식 - 일반한식"},{"name":"토속빈대떡","tel":"031-242-6616","addr":"경기도 수원시 팔달구 북수동 167번지","category":"일반휴게음식 - 일반한식"}]},{"lat":"37.283370889","long":"127.01758628","items":[{"name":"로드보이","tel":"","addr":"경기도 수원시 팔달구 북수동 288-1번지 송림빌라 B동 201호","category":"보건위생 - 기타대인서비스"}]},{"lat":"37.285317171","long":"127.01705666","items":[{"name":"로맨스","tel":"031-243-4218","addr":"경기도 수원시 팔달구 북수동 263번지","category":"숙박업 - 여관/기타숙박업"}]},{"lat":"37.286930087","long":"127.01636907","items":[{"name":"롱바","tel":"031-251-2511","addr":"경기도 수원시 팔달구 북수동 99-1번지 1층 101호","category":"일반휴게음식 - 서양음식"}]},{"lat":"37.288425969","long":"127.01470033","items":[{"name":"리즈클아본","tel":"031-254-4484","addr":"경기도 수원시 팔달구 북수동 8-1번지","category":"보건위생 - 화장품"},{"name":"보너스커피컴퍼니","tel":"031-251-1515","addr":"경기도 수원시 팔달구 북수동 8-1번지 2층","category":"일반휴게음식 - 서양음식"}]},{"lat":"37.285930032","long":"127.01561335","items":[{"name":"마띠모 웨딩","tel":"031-243-5192","addr":"경기도 수원시 팔달구 북수동 166번지 2층","category":"회원제형태 - 기타4"},{"name":"신통약국","tel":"031-257-3106","addr":"경기도 수원시 팔달구 북수동 166번지","category":"약국 - 약국"},{"name":"예원","tel":"031-226-4025","addr":"경기도 수원시 팔달구 북수동 166번지","category":"용역 서비스 - 부동산 중개·임대"},{"name":"장안연세연합의원","tel":"031-233-3306","addr":"경기도 수원시 팔달구 북수동 166번지 ,2.4층","category":"의원 - 의원"}]},{"lat":"37.287065181","long":"127.01688783","items":[{"name":"매홀","tel":"031-8001-8008","addr":"경기도 수원시 팔달구 북수동 31-8번지","category":"일반휴게음식 - 일반한식"}]},{"lat":"37.285596638","long":"127.01574862","items":[{"name":"무궁화","tel":"031-242-9006","addr":"경기도 수원시 팔달구 북수동 172-1 천운지하빌딩1층","category":"일반휴게음식 - 서양음식"},{"name":"바야흐로","tel":"031-246-6737","addr":"경기도 수원시 팔달구 북수동 172-1번지 천운빌딩 3동","category":"문화.취미 - 티켓"},{"name":"아트컴퍼니 예기","tel":"031-246-6737","addr":"경기도 수원시 팔달구 북수동 172-1번지 3층","category":"문화.취미 - 티켓"},{"name":"중화한의원","tel":"031-247-2757","addr":"경기도 수원시 팔달구 북수동 172-1번지 천운빌딩 2층","category":"의원 - 한의원"}]},{"lat":"37.283902618","long":"127.01656023","items":[{"name":"무궁화문구","tel":"031-243-4796","addr":"경기도 수원시 팔달구 북수동 333-3번지","category":"서적문구 - 문구용품"}]},{"lat":"37.284794662","long":"127.01631231","items":[{"name":"무다리","tel":"031-255-4660","addr":"경기도 수원시 팔달구 북수동 210-1번지 1층","category":"일반휴게음식 - 일반한식"},{"name":"스마일에듀(구:수원 핑키밍키.유아샘)","tel":"02-303-5502","addr":"경기도 수원시 팔달구 북수동 210-1번지 1층일부","category":"서적문구 - 기타서적문구"},{"name":"일류컴퓨터","tel":"031-255-8806","addr":"경기도 수원시 팔달구 북수동 210-1번지","category":"사무통신 - 컴퓨터"},{"name":"푸른기획","tel":"031-248-2415","addr":"경기도 수원시 팔달구 북수동 210-1번지","category":"서적문구 - 출판 및 인쇄물"}]},{"lat":"37.286650814","long":"127.01597433","items":[{"name":"무진여관","tel":"031-252-0860","addr":"경기도 수원시 팔달구 북수동 91번지","category":"숙박업 - 여관/기타숙박업"}]},{"lat":"37.284875789","long":"127.01600785","items":[{"name":"반야불교사","tel":"031-248-0802","addr":"경기도 수원시 팔달구 북수동 214번지","category":"신변잡화 - 기념품점"}]},{"lat":"37.281983336","long":"127.01736048","items":[{"name":"백만불왕소금참숯구이","tel":"031-258-9715","addr":"경기도 수원시 팔달구 북수동 311-9번지 1층","category":"일반휴게음식 - 일반한식"},{"name":"우정약국","tel":"031-251-4660","addr":"경기도 수원시 팔달구 북수동 311-9번지","category":"약국 - 약국"},{"name":"이신","tel":"031-243-6102","addr":"경기도 수원시 팔달구 북수동 311-9번지 1층","category":"신변잡화 - 기타잡화"}]},{"lat":"37.286677872","long":"127.01572625","items":[{"name":"백악관모텔","tel":"031-242-1323","addr":"경기도 수원시 팔달구 북수동 105번지","category":"숙박업 - 여관/기타숙박업"}]},{"lat":"37.287128246","long":"127.01694423","items":[{"name":"별이네","tel":"031-247-8403","addr":"경기도 수원시 팔달구 북수동 32-1번지","category":"일반휴게음식 - 서양음식"}]},{"lat":"37.287678084","long":"127.01502725","items":[{"name":"부라더미싱","tel":"031-247-6661","addr":"경기도 수원시 팔달구 북수동 125-2번지","category":"기타 - 기계공구"},{"name":"북수원모터샵","tel":"031-254-5119","addr":"경기도 수원시 팔달구 북수동 125-2번지","category":"수리서비스 - 기타수리서비스"}]},{"lat":"37.284181867","long":"127.01714665","items":[{"name":"부부광고기획","tel":"031-254-7354","addr":"경기도 수원시 팔달구 북수동 274-23번지","category":"사무통신 - 컴퓨터"},{"name":"학생사","tel":"031-255-6023","addr":"경기도 수원시 팔달구 북수동 274-23번지 지층","category":"서적문구 - 문구용품"}]},{"lat":"37.285984001","long":"127.01644784","items":[{"name":"브리스코리아","tel":"031-244-8793","addr":"경기도 수원시 팔달구 북수동 51번지","category":"의류 - 내의판매"}]},{"lat":"37.28729045","long":"127.01678638","items":[{"name":"비너스여관","tel":"031-241-2011","addr":"경기도 수원시 팔달구 북수동 25-6번지","category":"숙박업 - 여관/기타숙박업"},{"name":"비너스여관","tel":"031-244-9833","addr":"경기도 수원시 팔달구 북수동 25-6번지","category":"숙박업 - 여관/기타숙박업"}]},{"lat":"37.286876103","long":"127.0156699","items":[{"name":"비와별디자인","tel":"031-252-3474","addr":"경기도 수원시 팔달구 북수동 107번지","category":"건축자재 - 인테리어전문"},{"name":"흙지기도예갤러리","tel":"031-232-0179","addr":"경기도 수원시 팔달구 북수동 107번지 1층","category":"문화.취미 - 민예·공예품"}]},{"lat":"37.283289935","long":"127.0164248","items":[{"name":"비츄리","tel":"031-242-6458","addr":"경기도 수원시 팔달구 북수동 346-1번지","category":"의류 - 정장"},{"name":"오늘의 김밥","tel":"031-254-2014","addr":"경기도 수원시 팔달구 북수동 346-1번지","category":"일반휴게음식 - 일반한식"},{"name":"왕의슈퍼","tel":"031-254-2014","addr":"경기도 수원시 팔달구 북수동 346-1번지 1층","category":"유통업 영리 - 슈퍼마켓"}]},{"lat":"37.288263686","long":"127.01564758","items":[{"name":"뽀독","tel":"","addr":"경기도 수원시 팔달구 북수동 19-9번지 1층","category":"문화.취미 - 애완동물"}]},{"lat":"37.285650641","long":"127.01627863","items":[{"name":"산동장모텔","tel":"031-246-5038","addr":"경기도 수원시 팔달구 북수동 230번지","category":"숙박업 - 여관/기타숙박업"}]},{"lat":"37.287398713","long":"127.01553466","items":[{"name":"새롬시스템","tel":"031-207-0215","addr":"경기도 수원시 팔달구 북수동 120번지 1층","category":"신변잡화 - 기타잡화"}]},{"lat":"37.287731956","long":"127.01675263","items":[{"name":"생각","tel":"031-248-5220","addr":"경기도 수원시 팔달구 북수동 21-17번지","category":"일반휴게음식 - 일반한식"}]},{"lat":"37.28737172","long":"127.0151738","items":[{"name":"석화랑","tel":"031-271-4119","addr":"경기도 수원시 팔달구 북수동 141번지","category":"문화.취미 - 민예·공예품"},{"name":"정통생맥주","tel":"031-46-0482","addr":"경기도 수원시 팔달구 북수동 141번지","category":"일반휴게음식 - 주점"},{"name":"컴닥터119","tel":"031-258-9119","addr":"경기도 수원시 팔달구 북수동 141번지","category":"사무통신 - 컴퓨터"}]},{"lat":"37.284154915","long":"127.01647006","items":[{"name":"세계사","tel":"031-243-8486","addr":"경기도 수원시 팔달구 북수동 199-2번지","category":"서적문구 - 문구용품"}]},{"lat":"37.286875984","long":"127.01672992","items":[{"name":"송옥","tel":"031-242-6148","addr":"경기도 수원시 팔달구 북수동 30-3번지 1층","category":"일반휴게음식 - 일반한식"}]},{"lat":"37.285677735","long":"127.01570352","items":[{"name":"수미미용실","tel":"031-248-6546","addr":"경기도 수원시 팔달구 북수동 173번지","category":"보건위생 - 미용원"},{"name":"씨유수원북수점","tel":"02-1577-8007","addr":"경기도 수원시 팔달구 북수동 173번지 1층","category":"유통업 영리 - 편 의 점"},{"name":"하루","tel":"031-111-1111","addr":"경기도 수원시 팔달구 북수동 173번지 1층","category":"일반휴게음식 - 서양음식"}]},{"lat":"37.284902658","long":"127.01739487","items":[{"name":"수원녘","tel":"","addr":"경기도 수원시 팔달구 북수동 273번지","category":"일반휴게음식 - 서양음식"}]},{"lat":"37.287542924","long":"127.01508361","items":[{"name":"수원화성여행카페","tel":"031-253-8333","addr":"경기도 수원시 팔달구 북수동 139-1번지 ,1-2층","category":"일반휴게음식 - 서양음식"}]},{"lat":"37.28620935","long":"127.0156134","items":[{"name":"순이네 밥상","tel":"031-241-7070","addr":"경기도 수원시 팔달구 북수동 76-2번지","category":"일반휴게음식 - 일반한식"}]},{"lat":"37.288759334","long":"127.01483571","items":[{"name":"슈퍼스테이크북수원점","tel":"031-242-3301","addr":"경기도 수원시 팔달구 북수동 6-1번지 1층","category":"일반휴게음식 - 일반한식"}]},{"lat":"37.2841819","long":"127.01686474","items":[{"name":"신성유통","tel":"031-256-0959","addr":"경기도 수원시 팔달구 북수동 283-2번지","category":"음료식품 - 기타음료식품"}]},{"lat":"37.282208682","long":"127.0166163","items":[{"name":"신세계텔레콤","tel":"031-241-3844","addr":"경기도 수원시 팔달구 북수동 372-1번지","category":"사무통신 - 통신기기"}]},{"lat":"37.283821523","long":"127.01658277","items":[{"name":"신풍어린이집[아이행복]","tel":"031-244-6262","addr":"경기도 수원시 팔달구 북수동 331번지","category":"학원 - 유아원"}]},{"lat":"37.287849153","long":"127.01620008","items":[{"name":"신흥냉동산업","tel":"031-251-7517","addr":"경기도 수원시 팔달구 북수동 21-15번지","category":"전기제품 - 냉열기기"}]},{"lat":"37.287038294","long":"127.01561354","items":[{"name":"씨유수원북수소망점","tel":"031-898-6566","addr":"경기도 수원시 팔달구 북수동 109-3번지 1층","category":"유통업 영리 - 편 의 점"}]},{"lat":"37.287092325","long":"127.01589547","items":[{"name":"앰비밸런스","tel":"","addr":"경기도 수원시 팔달구 북수동 102-1번지 ,1,2층","category":"신변잡화 - 가방"}]},{"lat":"37.287705083","long":"127.01533173","items":[{"name":"양지슈퍼","tel":"031-257-8685","addr":"경기도 수원시 팔달구 북수동 124-2번지 1층","category":"유통업 영리 - 슈퍼마켓"}]},{"lat":"37.286434459","long":"127.01692154","items":[{"name":"에펠장여관","tel":"031-243-5043","addr":"경기도 수원시 팔달구 북수동 60-1번지","category":"숙박업 - 여관/기타숙박업"}]},{"lat":"37.282370864","long":"127.01663889","items":[{"name":"엔비뷰티미용학원","tel":"031-269-0321","addr":"경기도 수원시 팔달구 북수동 363-1번지","category":"회원제형태 - 학원"},{"name":"참새네방앗간","tel":"031-252-3631","addr":"경기도 수원시 팔달구 북수동 363-1번지 1동","category":"일반휴게음식 - 일반한식"}]},{"lat":"37.286731798","long":"127.0169216","items":[{"name":"엘로즈파크","tel":"031-268-0134","addr":"경기도 수원시 팔달구 북수동 59-9번지","category":"숙박업 - 여관/기타숙박업"},{"name":"엘로즈파크","tel":"031-268-1235","addr":"경기도 수원시 팔달구 북수동 59-9번지","category":"숙박업 - 여관/기타숙박업"}]},{"lat":"37.281983369","long":"127.01708986","items":[{"name":"연세추바로의원","tel":"031-244-7574","addr":"경기도 수원시 팔달구 북수동 311-10번지","category":"의원 - 의원"},{"name":"후생한의원","tel":"031-8019-8575","addr":"경기도 수원시 팔달구 북수동 311-10번지 지층,1층,2층","category":"의원 - 한의원"}]},{"lat":"37.284181983","long":"127.01614305","items":[{"name":"영스튜디오","tel":"031-254-3068","addr":"경기도 수원시 팔달구 북수동 192-4번지","category":"광학제품 - 사진관"},{"name":"의당화랑","tel":"031-243-8054","addr":"경기도 수원시 팔달구 북수동 192-4번지","category":"문화.취미 - 화랑"}]},{"lat":"37.285767761","long":"127.01639142","items":[{"name":"예술공간봄","tel":"031-244-4519","addr":"경기도 수원시 팔달구 북수동 231-3번지","category":"일반휴게음식 - 서양음식"}]},{"lat":"37.283731442","long":"127.01639105","items":[{"name":"우성산업기술연구소","tel":"031-243-4996","addr":"경기도 수원시 팔달구 북수동 339-1번지","category":"회원제형태 - 학원"},{"name":"행궁떡볶이","tel":"031-207-7986","addr":"경기도 수원시 팔달구 북수동 339-1번지 1층","category":"일반휴게음식 - 스넥"}]},{"lat":"37.288398924","long":"127.01483565","items":[{"name":"유계희신경외과","tel":"031-241-1141","addr":"경기도 수원시 팔달구 북수동 9-2번지","category":"의원 - 의원"},{"name":"주식회사 대동부품","tel":"031-245-2236","addr":"경기도 수원시 팔달구 북수동 9-2번지 1층","category":"자동차정비 유지 - 자동차부품"}]},{"lat":"37.284037765","long":"127.01661664","items":[{"name":"이안상사","tel":"031-248-7992","addr":"경기도 수원시 팔달구 북수동 333-1번지","category":"문화.취미 - 화원"},{"name":"장안식당","tel":"031-256-6818","addr":"경기도 수원시 팔달구 북수동 333-1번지","category":"일반휴게음식 - 일반한식"}]},{"lat":"37.284902728","long":"127.01680849","items":[{"name":"이음(EEEm)","tel":"","addr":"경기도 수원시 팔달구 북수동 242번지 1층","category":"일반휴게음식 - 일반한식"}]},{"lat":"37.28798435","long":"127.01580541","items":[{"name":"이즈플러스 덴탈","tel":"031-253-3514","addr":"경기도 수원시 팔달구 북수동 21-43번지 1층","category":"보건위생 - 의료용품"}]},{"lat":"37.283848591","long":"127.01625576","items":[{"name":"인컴컴퓨터회계학원","tel":"031-256-4544","addr":"경기도 수원시 팔달구 북수동 335-3번지 길해빌딩","category":"학원 - 기능학원"},{"name":"티앤에스","tel":"031-253-5321","addr":"경기도 수원시 팔달구 북수동 335-3번지 길해빌딩","category":"사무통신 - 통신기기"},{"name":"한성컴퓨터회계학원","tel":"031-255-8600","addr":"경기도 수원시 팔달구 북수동 335-3 3층,4층","category":"회원제형태 - 학원"}]},{"lat":"37.283650352","long":"127.01636849","items":[{"name":"잉크가이월드점","tel":"031-256-5881","addr":"경기도 수원시 팔달구 북수동 340-1번지","category":"유통업 영리 - 슈퍼마켓"},{"name":"행궁손칼국수","tel":"031-258-5080","addr":"경기도 수원시 팔달구 북수동 340-1번지 1","category":"일반휴게음식 - 일반한식"}]},{"lat":"37.285461358","long":"127.01686498","items":[{"name":"장가네","tel":"031-226-4025","addr":"경기도 수원시 팔달구 북수동 421-1번지","category":"신변잡화 - 기타잡화"}]},{"lat":"37.286461656","long":"127.01544429","items":[{"name":"장안노래방","tel":"031-246-2942","addr":"경기도 수원시 팔달구 북수동 157번지","category":"레저업소 - 노 래 방"},{"name":"호수","tel":"031-258-2421","addr":"경기도 수원시 팔달구 북수동 157번지","category":"일반휴게음식 - 주점"}]},{"lat":"37.287957414","long":"127.01491452","items":[{"name":"장안빈대떡","tel":"031-242-6690","addr":"경기도 수원시 팔달구 북수동 136-1번지","category":"일반휴게음식 - 일반한식"}]},{"lat":"37.287569918","long":"127.01544448","items":[{"name":"전주식당","tel":"031-245-5128","addr":"경기도 수원시 팔달구 북수동 122번지","category":"일반휴게음식 - 일반한식"}]},{"lat":"37.286461536","long":"127.01652686","items":[{"name":"정일사","tel":"031-245-6542","addr":"경기도 수원시 팔달구 북수동 62-2번지","category":"수리서비스 - 세탁소"}]},{"lat":"37.285037977","long":"127.01597405","items":[{"name":"제로마트종로점","tel":"031-255-3662","addr":"경기도 수원시 팔달구 북수동 219번지","category":"유통업 영리 - 슈퍼마켓"}]},{"lat":"37.284956776","long":"127.01692127","items":[{"name":"제이포토","tel":"","addr":"경기도 수원시 팔달구 북수동 248-2번지","category":"광학제품 - 사진관"}]},{"lat":"37.283208707","long":"127.01756369","items":[{"name":"종로종합유통","tel":"031-256-3748","addr":"경기도 수원시 팔달구 북수동 290번지","category":"유통업 영리 - 슈퍼마켓"}]},{"lat":"37.282623147","long":"127.01667276","items":[{"name":"종로체육사","tel":"031-253-5461","addr":"경기도 수원시 팔달구 북수동 357-5번지","category":"레져용품 - 스포츠·레져용품"},{"name":"해수상사","tel":"031-224-4141","addr":"경기도 수원시 팔달구 북수동 357-5번지 2층","category":"음료식품 - 농·축·수산품"}]},{"lat":"37.28412783","long":"127.01694367","items":[{"name":"종로포장지전문","tel":"031-241-3730","addr":"경기도 수원시 팔달구 북수동 274-4번지","category":"유통업 영리 - 기타유통업"}]},{"lat":"37.286290461","long":"127.01544426","items":[{"name":"종합화장품","tel":"031-258-6431","addr":"경기도 수원시 팔달구 북수동 160-1번지","category":"보건위생 - 화장품"},{"name":"통큰분식","tel":"031-0000-0000","addr":"경기도 수원시 팔달구 북수동 160-1번지 1층","category":"일반휴게음식 - 일반한식"}]},{"lat":"37.282433805","long":"127.01772141","items":[{"name":"진희식당","tel":"031-255-4621","addr":"경기도 수원시 팔달구 북수동 298번지","category":"일반휴게음식 - 일반한식"}]},{"lat":"37.284398236","long":"127.01608671","items":[{"name":"창영전기종합","tel":"031-245-5680","addr":"경기도 수원시 팔달구 북수동 190-1번지 전기빌딩","category":"전기제품 - 기타전기제품"},{"name":"클라스헤어","tel":"031-245-1196","addr":"경기도 수원시 팔달구 북수동 190-1번지 전기빌딩","category":"보건위생 - 미용원"}]},{"lat":"37.288038347","long":"127.01639182","items":[{"name":"창의광고","tel":"031-243-3600","addr":"경기도 수원시 팔달구 북수동 21-10번지 1층","category":"건축자재 - 인테리어전문"}]},{"lat":"37.282677143","long":"127.0172253","items":[{"name":"창훈대상회","tel":"070-7502-8642","addr":"경기도 수원시 팔달구 북수동 311-17번지","category":"음료식품 - 미곡상"},{"name":"충무서원농산","tel":"031-256-3547","addr":"경기도 수원시 팔달구 북수동 311-17번지 4호","category":"음료식품 - 농·축·수산품"},{"name":"하이라이트 잉크","tel":"070-4896-2524","addr":"경기도 수원시 팔달구 북수동 311-17번지","category":"용역 서비스 - 사무서비스"}]},{"lat":"37.283902529","long":"127.01730447","items":[{"name":"챔피온","tel":"031-244-7989","addr":"경기도 수원시 팔달구 북수동 274-7","category":"서적문구 - 문구용품"},{"name":"팔달노인복지관","tel":"031-248-3800","addr":"경기도 수원시 팔달구 북수동 274-7번지","category":"학원 - 기타 교육기관"}]},{"lat":"37.282541931","long":"127.01769888","items":[{"name":"초안","tel":"","addr":"경기도 수원시 팔달구 북수동 297-2번지 ,1-2층","category":"일반휴게음식 - 서양음식"},{"name":"초안","tel":"","addr":"경기도 수원시 팔달구 북수동 297-2번지 ,1-2층","category":"일반휴게음식 - 서양음식"}]},{"lat":"37.282848408","long":"127.01663897","items":[{"name":"춘우공방","tel":"031-223-9159","addr":"경기도 수원시 팔달구 북수동 353번지","category":"문화.취미 - 문화취미기타"},{"name":"타포린(Tarpaulin)","tel":"","addr":"경기도 수원시 팔달구 북수동 353번지 1층,2층","category":"일반휴게음식 - 서양음식"}]},{"lat":"37.282794218","long":"127.01769893","items":[{"name":"친구포차","tel":"031-548-2079","addr":"경기도 수원시 팔달구 북수동 295번지","category":"일반휴게음식 - 일반한식"}]},{"lat":"37.287705106","long":"127.01511747","items":[{"name":"카페부르르","tel":"031-220-9782","addr":"경기도 수원시 팔달구 북수동 125-1번지 1층","category":"일반휴게음식 - 서양음식"}]},{"lat":"37.287849205","long":"127.01572645","items":[{"name":"카페인스","tel":"031-245-5444","addr":"경기도 수원시 팔달구 북수동 21-38번지","category":"음료식품 - 기타음료식품"}]},{"lat":"37.28643442","long":"127.01724857","items":[{"name":"쿨티그라운드(Culti Ground)","tel":"031-252-2292","addr":"경기도 수원시 팔달구 북수동 38-1번지","category":"일반휴게음식 - 일반한식"}]},{"lat":"37.287092341","long":"127.01574887","items":[{"name":"통큰주먹밥","tel":"031-253-5030","addr":"경기도 수원시 팔달구 북수동 112-1번지","category":"일반휴게음식 - 일반한식"}]},{"lat":"37.28531731","long":"127.01583878","items":[{"name":"프리모학생복","tel":"031-244-0537","addr":"경기도 수원시 팔달구 북수동 224-1","category":"의류 - 맞춤복점"}]},{"lat":"37.286065074","long":"127.016617","items":[{"name":"학원교육사","tel":"031-241-3987","addr":"경기도 수원시 팔달구 북수동 52-1번지","category":"서적문구 - 일반서적"}]},{"lat":"37.28429011","long":"127.01610924","items":[{"name":"한국앵글","tel":"031-251-3600","addr":"경기도 수원시 팔달구 북수동 192-1번지","category":"건축자재 - 기타건축자재"}]},{"lat":"37.285677633","long":"127.01661693","items":[{"name":"행궁솜씨","tel":"031-244-4519","addr":"경기도 수원시 팔달구 북수동 232-3번지","category":"신변잡화 - 기념품점"}]},{"lat":"37.285488336","long":"127.01730477","items":[{"name":"행궁여관","tel":"","addr":"경기도 수원시 팔달구 북수동 258-2번지 ,1,2층","category":"숙박업 - 여관/기타숙박업"}]},{"lat":"37.287849178","long":"127.01597454","items":[{"name":"행복을주는식당","tel":"031-244-3345","addr":"경기도 수원시 팔달구 북수동 21-14번지 1층","category":"일반휴게음식 - 일반한식"}]},{"lat":"37.286795009","long":"127.01569244","items":[{"name":"행운식당","tel":"031-252-7599","addr":"경기도 수원시 팔달구 북수동 106번지","category":"일반휴게음식 - 일반한식"}]},{"lat":"37.287488822","long":"127.01547829","items":[{"name":"행운장여관","tel":"031-245-9151","addr":"경기도 수원시 팔달구 북수동 121번지","category":"숙박업 - 여관/기타숙박업"}]},{"lat":"37.283434103","long":"127.016391","items":[{"name":"홍라드","tel":"031-000-0000","addr":"경기도 수원시 팔달구 북수동 344-1번지 2층","category":"일반휴게음식 - 서양음식"}]},{"lat":"37.287038195","long":"127.01650441","items":[{"name":"화홍슈퍼문구","tel":"031-253-1373","addr":"경기도 수원시 팔달구 북수동 25-16번지","category":"유통업 영리 - 슈퍼마켓"}]},{"lat":"37.286542622","long":"127.01658326","items":[{"name":"화홍장터","tel":"031-248-4598","addr":"경기도 수원시 팔달구 북수동 61번지","category":"일반휴게음식 - 일반한식"}]}]