[{"lat":"37.350336748","long":"126.93950931","imageIndex":13,"items":[{"name":"(주)케이디엠골드","tel":"031-6285-0275","addr":"경기도 군포시 당동 951-2번지 광개토프라자 2층 201호","indutype":"보건위생 - 의료용품","category":"beauty"},{"name":"빠마걸","tel":"031-391-7089","addr":"경기도 군포시 당동 951-2번지 광개토프라자 1층 108호","indutype":"보건위생 - 미용원","category":"beauty"},{"name":"세진코퍼레이션","tel":"031-8017-9016","addr":"경기도 군포시 당동 951-2번지 광개토프라자 1층 106호","indutype":"보건위생 - 화장품","category":"beauty"}]},{"lat":"37.350897342","long":"126.94328978","imageIndex":13,"items":[{"name":"1050헤어크리닉","tel":"031-454-1050","addr":"경기도 군포시 당동 771-3번지 1층","indutype":"보건위생 - 미용원","category":"beauty"},{"name":"빛나메디","tel":"031-455-8624","addr":"경기도 군포시 당동 771-3번지 2층","indutype":"보건위생 - 의료용품","category":"beauty"}]},{"lat":"37.352699328","long":"126.94319807","imageIndex":13,"items":[{"name":"A3 홀딩스","tel":"031-457-0215","addr":"경기도 군포시 당동 767-14번지 정일하이츠빌라 4","indutype":"보건위생 - 미용재료","category":"beauty"}]},{"lat":"37.350447703","long":"126.94503952","imageIndex":13,"items":[{"name":"MIN칼라매직","tel":"031-454-4344","addr":"경기도 군포시 당동 898-1번지 203호","indutype":"보건위생 - 미용원","category":"beauty"},{"name":"민칼라","tel":"031-454-4344","addr":"경기도 군포시 당동 898-1번지 203호","indutype":"보건위생 - 미용재료","category":"beauty"}]},{"lat":"37.355422257","long":"126.94701094","imageIndex":13,"items":[{"name":"가람머리터","tel":"031-457-7883","addr":"경기도 군포시 당동 748-20번지 102호","indutype":"보건위생 - 미용원","category":"beauty"}]},{"lat":"37.34647385","long":"126.94428643","imageIndex":13,"items":[{"name":"가위든카페헤어","tel":"031-392-7755","addr":"경기도 군포시 당동 921-5번지 금강프라자 2층 201호","indutype":"보건위생 - 미용원","category":"beauty"},{"name":"토리헤어","tel":"031-392-7755","addr":"경기도 군포시 당동 921-5번지 금강프라자 2층 201호","indutype":"보건위생 - 미용원","category":"beauty"}]},{"lat":"37.35092349","long":"126.94156294","imageIndex":13,"items":[{"name":"가위사랑 헤어샵","tel":"031-393-2862","addr":"경기도 군포시 당동 788-20번지 수성빌리지","indutype":"보건위생 - 미용원","category":"beauty"}]},{"lat":"37.355195782","long":"126.94448281","imageIndex":13,"items":[{"name":"가을헤어","tel":"031-429-0666","addr":"경기도 군포시 당동 738-4번지","indutype":"보건위생 - 미용원","category":"beauty"}]},{"lat":"37.358944599","long":"126.94569897","imageIndex":13,"items":[{"name":"강S헤어샵","tel":"031-429-8076","addr":"경기도 군포시 당동 836번지 백삼주택 101호","indutype":"보건위생 - 미용원","category":"beauty"}]},{"lat":"37.354196333","long":"126.94587187","imageIndex":13,"items":[{"name":"강프로헤어샵","tel":"031-429-0553","addr":"경기도 군포시 당동 745-11번지 1층","indutype":"보건위생 - 미용원","category":"beauty"}]},{"lat":"37.349836073","long":"126.94725209","imageIndex":13,"items":[{"name":"국지혜헤어","tel":"","addr":"경기도 군포시 당동 900번지 동아아파트","indutype":"보건위생 - 화장품","category":"beauty"}]},{"lat":"37.353529874","long":"126.94648187","imageIndex":13,"items":[{"name":"군포화장품","tel":"","addr":"경기도 군포시 당동 750-26번지 1층","indutype":"보건위생 - 화장품","category":"beauty"}]},{"lat":"37.351700153","long":"126.94511757","imageIndex":13,"items":[{"name":"글로벌비겐아이엔씨","tel":"031-427-2073","addr":"경기도 군포시 당동 784번지 3층 2호","indutype":"보건위생 - 의료용품","category":"beauty"},{"name":"우리안경콘텍트","tel":"031-457-8008","addr":"경기도 군포시 당동 784번지","indutype":"보건위생 - 안경","category":"beauty"}]},{"lat":"37.350366501","long":"126.94481386","imageIndex":13,"items":[{"name":"김정문알로에군포지사","tel":"031-453-3552","addr":"경기도 군포시 당동 898번지 203호","indutype":"보건위생 - 화장품","category":"beauty"},{"name":"아리따움(군포)","tel":"031-451-2229","addr":"경기도 군포시 당동 898번지 당동빌딩","indutype":"보건위생 - 화장품","category":"beauty"},{"name":"정희헤어코디","tel":"031-452-1786","addr":"경기도 군포시 당동 898번지 당동빌딩 401호","indutype":"보건위생 - 미용원","category":"beauty"}]},{"lat":"37.343227249","long":"126.93862375","imageIndex":13,"items":[{"name":"깍아맨","tel":"031-396-5355","addr":"경기도 군포시 당동 974-4번지 1층 101호","indutype":"보건위생 - 미용원","category":"beauty"},{"name":"진이네일(Jin2 nail)","tel":"","addr":"경기도 군포시 당동 974-4번지 1층 102호","indutype":"보건위생 - 피부미용실","category":"beauty"}]},{"lat":"37.349951967","long":"126.94467874","imageIndex":13,"items":[{"name":"꾼헤어","tel":"031-443-4394","addr":"경기도 군포시 당동 903번지 2층","indutype":"보건위생 - 미용원","category":"beauty"}]},{"lat":"37.350808351","long":"126.94553585","imageIndex":13,"items":[{"name":"나나미용실","tel":"031-477-5803","addr":"경기도 군포시 당동 783-61번지 2층","indutype":"보건위생 - 미용원","category":"beauty"}]},{"lat":"37.353168167","long":"126.94381847","imageIndex":13,"items":[{"name":"나헤어샵","tel":"031-387-6825","addr":"경기도 군포시 당동 766-27번지 101호","indutype":"보건위생 - 미용원","category":"beauty"}]},{"lat":"37.353222047","long":"126.94345725","imageIndex":13,"items":[{"name":"남자만들기","tel":"031-458-2842","addr":"경기도 군포시 당동 766-6번지 1층","indutype":"보건위생 - 이용원","category":"beauty"}]},{"lat":"37.350782235","long":"126.94745455","imageIndex":13,"items":[{"name":"넘버원","tel":"031-427-3578","addr":"경기도 군포시 당동 783-78번지 지하층 101호","indutype":"보건위생 - 화장품","category":"beauty"}]},{"lat":"37.347834194","long":"126.94390165","imageIndex":13,"items":[{"name":"네일벗","tel":"031-427-5383","addr":"경기도 군포시 당동 904-5번지 그린프라자 106호","indutype":"보건위생 - 피부미용실","category":"beauty"},{"name":"샵앤네일","tel":"031-394-3633","addr":"경기도 군포시 당동 904-5번지 그린프라자 111호","indutype":"보건위생 - 피부미용실","category":"beauty"},{"name":"샵앤샤인네일","tel":"031-394-3633","addr":"경기도 군포시 당동 904-5번지 그린프라자 1층 111호","indutype":"보건위생 - 피부미용실","category":"beauty"},{"name":"스킨앤바디","tel":"","addr":"경기도 군포시 당동 904-5번지 그린프라자 5층 502-1호","indutype":"보건위생 - 화장품","category":"beauty"},{"name":"에벤에셀헤어","tel":"031-395-0324","addr":"경기도 군포시 당동 904-5번지 그린프라자 101호","indutype":"보건위생 - 미용원","category":"beauty"}]},{"lat":"37.341559662","long":"126.93733868","imageIndex":13,"items":[{"name":"네일카페(Nail Caffe)","tel":"031-398-5677","addr":"경기도 군포시 당동 1033번지 101호","indutype":"보건위생 - 화장품","category":"beauty"},{"name":"세븐헤어월드","tel":"031-391-0013","addr":"경기도 군포시 당동 1033번지 1층 102호","indutype":"보건위생 - 미용원","category":"beauty"}]},{"lat":"37.350141192","long":"126.94470117","imageIndex":13,"items":[{"name":"누가의료기군포점","tel":"031-429-6305","addr":"경기도 군포시 당동 898-28번지 3층","indutype":"보건위생 - 의료용품","category":"beauty"}]},{"lat":"37.344227193","long":"126.93828434","imageIndex":13,"items":[{"name":"누리봄아동청소년발달연구소","tel":"031-454-9999","addr":"경기도 군포시 당동 971-2번지 에벤에셀빌딩 4층 401호","indutype":"보건위생 - 기타대인서비스","category":"beauty"},{"name":"헤어 빈","tel":"031-391-2742","addr":"경기도 군포시 당동 971-2번지 에벤에셀빌딩 1층 101-2호","indutype":"보건위생 - 미용원","category":"beauty"}]},{"lat":"37.347444913","long":"126.94031304","imageIndex":13,"items":[{"name":"다니네일","tel":"031-393-3979","addr":"경기도 군포시 당동 960-1번지 태평양프라자 103호","indutype":"보건위생 - 피부미용실","category":"beauty"},{"name":"한원덴탈","tel":"031-397-0110","addr":"경기도 군포시 당동 960-1번지 태평양프라자 404호","indutype":"보건위생 - 의료용품","category":"beauty"}]},{"lat":"37.347311464","long":"126.94361991","imageIndex":13,"items":[{"name":"다비치안경 군포초교사거리점","tel":"031-348-1356","addr":"경기도 군포시 당동 920-3번지","indutype":"보건위생 - 안경","category":"beauty"}]},{"lat":"37.346833732","long":"126.94323657","imageIndex":13,"items":[{"name":"다와헤어","tel":"031-391-1116","addr":"경기도 군포시 당동 920-6번지 2층","indutype":"보건위생 - 미용원","category":"beauty"}]},{"lat":"37.347201639","long":"126.94031324","imageIndex":13,"items":[{"name":"다인헤어","tel":"031-399-3791","addr":"경기도 군포시 당동 960-3번지 대림프라자 B06호","indutype":"보건위생 - 미용원","category":"beauty"},{"name":"주식회사 오조옵틱스","tel":"031-1600-2048","addr":"경기도 군포시 당동 960-3번지 대림프라자 204호","indutype":"보건위생 - 안경","category":"beauty"},{"name":"휴앤샵","tel":"070-7007-5050","addr":"경기도 군포시 당동 960-3번지 대림프라자 지하4층","indutype":"보건위생 - 화장품","category":"beauty"},{"name":"휴앤샵","tel":"031-395-8055","addr":"경기도 군포시 당동 960-3번지 대림프라자 지층 5호","indutype":"보건위생 - 화장품","category":"beauty"}]},{"lat":"37.35014133","long":"126.94498332","imageIndex":13,"items":[{"name":"단미헤어","tel":"031-427-3208","addr":"경기도 군포시 당동 898-26번지 1층","indutype":"보건위생 - 미용원","category":"beauty"}]},{"lat":"37.345833988","long":"126.94400478","imageIndex":13,"items":[{"name":"단월드당동센터","tel":"031-399-6969","addr":"경기도 군포시 당동 871-4번지 용호프라자 6층 603호","indutype":"보건위생 - 기타대인서비스","category":"beauty"},{"name":"해피랑","tel":"031-399-8875","addr":"경기도 군포시 당동 871-4번지 용호프라자 601호","indutype":"보건위생 - 의료용품","category":"beauty"}]},{"lat":"37.350421127","long":"126.94597631","imageIndex":13,"items":[{"name":"대경불한증막","tel":"031-455-5293","addr":"경기도 군포시 당동 898-13번지 신신빌딩 지하1층","indutype":"보건위생 - 사우나","category":"beauty"}]},{"lat":"37.352778602","long":"126.93969913","imageIndex":13,"items":[{"name":"대준헤어갤러리","tel":"031-477-8200","addr":"경기도 군포시 당동 948-3번지","indutype":"보건위생 - 미용원","category":"beauty"}]},{"lat":"37.343424371","long":"126.93662609","imageIndex":13,"items":[{"name":"더끌림헤어","tel":"031-393-1214","addr":"경기도 군포시 당동 979-1번지 용호마을e편한세상 상가1 1동 105호","indutype":"보건위생 - 미용원","category":"beauty"},{"name":"보테","tel":"031-397-8980","addr":"경기도 군포시 당동 979-1번지 용호마을e-편한세상 104호","indutype":"보건위생 - 미용원","category":"beauty"},{"name":"수헤어샵","tel":"031-392-8358","addr":"경기도 군포시 당동 979-1번지 용호마을e편한세상상가2 104호","indutype":"보건위생 - 미용원","category":"beauty"},{"name":"이수경에스테틱","tel":"031-391-5577","addr":"경기도 군포시 당동 979-1번지","indutype":"보건위생 - 피부미용실","category":"beauty"}]},{"lat":"37.354250191","long":"126.94545422","imageIndex":13,"items":[{"name":"드림헤어","tel":"031-429-3985","addr":"경기도 군포시 당동 744-13번지 1층 102호","indutype":"보건위생 - 미용원","category":"beauty"}]},{"lat":"37.34442554","long":"126.93850988","imageIndex":13,"items":[{"name":"라일락미용실","tel":"031-399-7772","addr":"경기도 군포시 당동 971-3번지 동명프라자1차 203호","indutype":"보건위생 - 미용원","category":"beauty"},{"name":"펀(Fun)펀펌","tel":"031-393-3412","addr":"경기도 군포시 당동 971-3번지 동영프라자 107호","indutype":"보건위생 - 미용원","category":"beauty"}]},{"lat":"37.35283581","long":"126.94589548","imageIndex":13,"items":[{"name":"라파의료기","tel":"031-453-7002","addr":"경기도 군포시 당동 776번지 2층","indutype":"보건위생 - 의료용품","category":"beauty"},{"name":"반도안경","tel":"031-455-8984","addr":"경기도 군포시 당동 776번지","indutype":"보건위생 - 안경","category":"beauty"},{"name":"스킨과로션(군포)","tel":"031-458-7281","addr":"경기도 군포시 당동 776번지 1층","indutype":"보건위생 - 화장품","category":"beauty"},{"name":"지산앤초당사주","tel":"031-477-3464","addr":"경기도 군포시 당동 776번지 3층","indutype":"보건위생 - 기타대인서비스","category":"beauty"}]},{"lat":"37.34992518","long":"126.94517536","imageIndex":13,"items":[{"name":"리정헤어","tel":"031-398-3005","addr":"경기도 군포시 당동 901번지 효성타운빌라 1층 101호","indutype":"보건위생 - 미용원","category":"beauty"}]},{"lat":"37.346194797","long":"126.94481707","imageIndex":13,"items":[{"name":"마임 군포당동지사","tel":"031-398-5504","addr":"경기도 군포시 당동 922-30번지 은하프라자 3층 303호","indutype":"보건위생 - 화장품","category":"beauty"},{"name":"아이마트안경콘택트","tel":"031-399-7474","addr":"경기도 군포시 당동 922-30번지 은하프라자 105호","indutype":"보건위생 - 안경","category":"beauty"}]},{"lat":"37.350779856","long":"126.94259012","imageIndex":13,"items":[{"name":"머리못하는집","tel":"031-394-6097","addr":"경기도 군포시 당동 786번지 1층","indutype":"보건위생 - 미용원","category":"beauty"},{"name":"불라헤어","tel":"031-394-6097","addr":"경기도 군포시 당동 786번지 1층 당도 104호","indutype":"보건위생 - 미용원","category":"beauty"}]},{"lat":"37.345671518","long":"126.94342934","imageIndex":13,"items":[{"name":"멘토링37","tel":"031-402-9999","addr":"경기도 군포시 당동 872-3번지 미원파크빌 709호","indutype":"보건위생 - 기타대인서비스","category":"beauty"}]},{"lat":"37.352312899","long":"126.94522996","imageIndex":13,"items":[{"name":"명품","tel":"031-427-1330","addr":"경기도 군포시 당동 776-16번지 2층","indutype":"보건위생 - 피부미용실","category":"beauty"}]},{"lat":"37.35025805","long":"126.94414805","imageIndex":13,"items":[{"name":"무궁화이용원","tel":"031-399-9872","addr":"경기도 군포시 당동 785-7번지 지하1층","indutype":"보건위생 - 이용원","category":"beauty"}]},{"lat":"37.341612933","long":"126.93592801","imageIndex":13,"items":[{"name":"미림교역","tel":"031-452-4595","addr":"경기도 군포시 당동 1028-8번지 102호","indutype":"보건위생 - 화장품","category":"beauty"}]},{"lat":"37.346535337","long":"126.94117151","imageIndex":13,"items":[{"name":"미성산업개발주식회사","tel":"031-399-3352","addr":"경기도 군포시 당동 962-3번지 미성데코프라자","indutype":"보건위생 - 사우나","category":"beauty"}]},{"lat":"37.351086045","long":"126.94228514","imageIndex":13,"items":[{"name":"미안헤어","tel":"031-456-8882","addr":"경기도 군포시 당동 769-26번지 2층","indutype":"보건위생 - 미용원","category":"beauty"}]},{"lat":"37.351166782","long":"126.94159661","imageIndex":13,"items":[{"name":"미앤지","tel":"031-459-2917","addr":"경기도 군포시 당동 763-21번지 1층","indutype":"보건위생 - 미용원","category":"beauty"}]},{"lat":"37.353168604","long":"126.94469883","imageIndex":13,"items":[{"name":"미용실스칼렛","tel":"031-454-2324","addr":"경기도 군포시 당동 775-1번지","indutype":"보건위생 - 미용원","category":"beauty"}]},{"lat":"37.347005767","long":"126.9449293","imageIndex":13,"items":[{"name":"미인만들기","tel":"031-396-5544","addr":"경기도 군포시 당동 917-4번지","indutype":"보건위생 - 화장품","category":"beauty"},{"name":"뷰앤미 속눈썹&왁싱","tel":"031-696-6198","addr":"경기도 군포시 당동 917-4번지 중앙프라자 206호","indutype":"보건위생 - 피부미용실","category":"beauty"},{"name":"사랑헤어샵","tel":"031-398-7466","addr":"경기도 군포시 당동 917-4번지 당동중앙프라자 201호","indutype":"보건위생 - 미용원","category":"beauty"}]},{"lat":"37.347339598","long":"126.94586577","imageIndex":13,"items":[{"name":"미즈헤어샵","tel":"031-395-2125","addr":"경기도 군포시 당동 913번지 이정빌딩 1층","indutype":"보건위생 - 미용원","category":"beauty"}]},{"lat":"37.340835744","long":"126.93195642","imageIndex":13,"items":[{"name":"미지헤어","tel":"031-393-1069","addr":"경기도 군포시 당동 1020번지 삼성마을3단지 상가동 1층 102호","indutype":"보건위생 - 미용원","category":"beauty"}]},{"lat":"37.343506441","long":"126.93839781","imageIndex":13,"items":[{"name":"미친머리방","tel":"031-392-9456","addr":"경기도 군포시 당동 974-3번지 재우빌딩 1층","indutype":"보건위생 - 미용원","category":"beauty"}]},{"lat":"37.351058195","long":"126.94070507","imageIndex":13,"items":[{"name":"미헤어","tel":"031-223-5214","addr":"경기도 군포시 당동 789-14번지 103호","indutype":"보건위생 - 미용원","category":"beauty"}]},{"lat":"37.35894468","long":"126.94586828","imageIndex":13,"items":[{"name":"민선헤어존","tel":"031-396-8206","addr":"경기도 군포시 당동 836-1번지 102호","indutype":"보건위생 - 미용원","category":"beauty"},{"name":"반짝반짝네일샵","tel":"","addr":"경기도 군포시 당동 836-1번지 103호","indutype":"보건위생 - 피부미용실","category":"beauty"}]},{"lat":"37.345281659","long":"126.93879129","imageIndex":13,"items":[{"name":"백향목스킨케어","tel":"031-477-5565","addr":"경기도 군포시 당동 969-1번지 대한프라자 B01호","indutype":"보건위생 - 화장품","category":"beauty"},{"name":"주식회사 비에이치메디칼","tel":"031-392-6845","addr":"경기도 군포시 당동 969-1번지 대한프라자 501호","indutype":"보건위생 - 의료용품","category":"beauty"}]},{"lat":"37.358503373","long":"126.94626368","imageIndex":13,"items":[{"name":"벨라지아에스테틱","tel":"070-6103-2150","addr":"경기도 군포시 당동 729-18번지 1층","indutype":"보건위생 - 피부미용실","category":"beauty"}]},{"lat":"37.355341192","long":"126.94706744","imageIndex":13,"items":[{"name":"별하이용원","tel":"031-458-8245","addr":"경기도 군포시 당동 748-51번지 3층","indutype":"보건위생 - 이용원","category":"beauty"}]},{"lat":"37.349925317","long":"126.94545751","imageIndex":13,"items":[{"name":"봉봉네일","tel":"031-392-2820","addr":"경기도 군포시 당동 901-3번지 효성타운빌라 102호","indutype":"보건위생 - 피부미용실","category":"beauty"}]},{"lat":"37.35175321","long":"126.94309724","imageIndex":13,"items":[{"name":"부엉이헤어","tel":"031-427-8841","addr":"경기도 군포시 당동 769-7번지 1층","indutype":"보건위생 - 미용원","category":"beauty"}]},{"lat":"37.353418281","long":"126.93961959","imageIndex":13,"items":[{"name":"뷰티세레사","tel":"031-622-9561","addr":"경기도 군포시 당동 947-3번지 서전아트빌 401호","indutype":"보건위생 - 화장품","category":"beauty"}]},{"lat":"37.351538732","long":"126.9466978","imageIndex":13,"items":[{"name":"뷰티화장품","tel":"031-457-0400","addr":"경기도 군포시 당동 782-14번지 세원아트빌라 A동 101호","indutype":"보건위생 - 화장품","category":"beauty"}]},{"lat":"37.349924618","long":"126.94403545","imageIndex":13,"items":[{"name":"블랙앤커트","tel":"031-393-1359","addr":"경기도 군포시 당동 785-16번지 105호 (785-17동영프라자2차)","indutype":"보건위생 - 미용원","category":"beauty"},{"name":"이원건강의료기 군포병원점","tel":"031-392-2125","addr":"경기도 군포시 당동 785-16번지 동영프라자2차 107호","indutype":"보건위생 - 의료용품","category":"beauty"}]},{"lat":"37.347446808","long":"126.94400352","imageIndex":13,"items":[{"name":"비비드헤어","tel":"031-393-7580","addr":"경기도 군포시 당동 919-5번지 1층","indutype":"보건위생 - 미용원","category":"beauty"}]},{"lat":"37.348338943","long":"126.9442624","imageIndex":13,"items":[{"name":"빨간머리앤","tel":"031-392-1237","addr":"경기도 군포시 당동 904-3번지 군포벤처텔 105호","indutype":"보건위생 - 미용원","category":"beauty"},{"name":"필","tel":"031-393-4955","addr":"경기도 군포시 당동 904-3번지 군포벤처텔 4층 402호","indutype":"보건위생 - 화장품","category":"beauty"}]},{"lat":"37.358584464","long":"126.94626362","imageIndex":13,"items":[{"name":"뽐","tel":"031-466-2334","addr":"경기도 군포시 당동 729-19번지","indutype":"보건위생 - 화장품","category":"beauty"},{"name":"조경희헤어샵","tel":"031-427-0021","addr":"경기도 군포시 당동 729-19번지 1층","indutype":"보건위생 - 미용원","category":"beauty"}]},{"lat":"37.356395459","long":"126.94723596","imageIndex":13,"items":[{"name":"사단법인한국전통민족종교 총연합회 호봉사","tel":"","addr":"경기도 군포시 당동 747-34번지 관음빌딩 2층","indutype":"보건위생 - 기타대인서비스","category":"beauty"}]},{"lat":"37.345500545","long":"126.94386962","imageIndex":13,"items":[{"name":"살롱드5K","tel":"031-0000-0000","addr":"경기도 군포시 당동 872-5번지 무광프라자 1층 107호","indutype":"보건위생 - 미용원","category":"beauty"},{"name":"에스(S) 20000 헤어","tel":"031-392-1213","addr":"경기도 군포시 당동 872-5번지 무광프라자 403호","indutype":"보건위생 - 미용원","category":"beauty"},{"name":"에스(S)20000헤어","tel":"031-392-1213","addr":"경기도 군포시 당동 872-5번지 무광프라자 403호","indutype":"보건위생 - 미용원","category":"beauty"},{"name":"율라비헤어","tel":"031-455-5837","addr":"경기도 군포시 당동 872-5번지 무광프라자 201호","indutype":"보건위생 - 미용원","category":"beauty"},{"name":"헤어살롱더봄","tel":"031-399-2511","addr":"경기도 군포시 당동 872-5번지 무광프라자 101호","indutype":"보건위생 - 미용원","category":"beauty"}]},{"lat":"37.356611014","long":"126.94579104","imageIndex":13,"items":[{"name":"새천년헤어뱅크","tel":"031-454-3591","addr":"경기도 군포시 당동 733-12번지","indutype":"보건위생 - 미용원","category":"beauty"}]},{"lat":"37.358611982","long":"126.94729077","imageIndex":13,"items":[{"name":"샘의료기","tel":"031-385-7755","addr":"경기도 군포시 당동 730번지 1층","indutype":"보건위생 - 의료용품","category":"beauty"}]},{"lat":"37.350591274","long":"126.94384306","imageIndex":13,"items":[{"name":"샤랄라 민","tel":"070-4227-1469","addr":"경기도 군포시 당동 785-2번지 1층","indutype":"보건위생 - 미용원","category":"beauty"}]},{"lat":"37.355006636","long":"126.9446184","imageIndex":13,"items":[{"name":"샤론애터미","tel":"031-429-3771","addr":"경기도 군포시 당동 739-3번지 1층","indutype":"보건위생 - 화장품","category":"beauty"}]},{"lat":"37.352285503","long":"126.94448507","imageIndex":13,"items":[{"name":"선희미용실","tel":"031-456-1219","addr":"경기도 군포시 당동 775-20번지","indutype":"보건위생 - 미용원","category":"beauty"}]},{"lat":"37.352700767","long":"126.94612131","imageIndex":13,"items":[{"name":"성용스포츠피부관리","tel":"031-429-4680","addr":"경기도 군포시 당동 776-2번지","indutype":"보건위생 - 피부미용실","category":"beauty"}]},{"lat":"37.345779526","long":"126.94320354","imageIndex":13,"items":[{"name":"소담헤어","tel":"031-399-5006","addr":"경기도 군포시 당동 872-2번지 신산본리빙스텔 106호","indutype":"보건위생 - 미용원","category":"beauty"},{"name":"이 공간","tel":"070-8108-8796","addr":"경기도 군포시 당동 872-2번지 신산본리빙스텔 1층 105호","indutype":"보건위생 - 피부미용실","category":"beauty"}]},{"lat":"37.349392991","long":"126.94397943","imageIndex":13,"items":[{"name":"송송아이래쉬","tel":"","addr":"경기도 군포시 당동 794-1번지 302(일부)호","indutype":"보건위생 - 피부미용실","category":"beauty"}]},{"lat":"37.348591389","long":"126.9445895","imageIndex":13,"items":[{"name":"송지연헤어필","tel":"031-391-7710","addr":"경기도 군포시 당동 904-1번지 1층 102호","indutype":"보건위생 - 미용원","category":"beauty"}]},{"lat":"37.348833309","long":"126.94190323","imageIndex":13,"items":[{"name":"수라펌","tel":"031-393-3403","addr":"경기도 군포시 당동 792-17번지 101호","indutype":"보건위생 - 미용원","category":"beauty"}]},{"lat":"37.352030535","long":"126.93928216","imageIndex":13,"items":[{"name":"수리산랜드","tel":"031-453-1120","addr":"경기도 군포시 당동 949-1번지 무지개마을마젤리안아파트","indutype":"보건위생 - 기타대인서비스","category":"beauty"}]},{"lat":"37.350978177","long":"126.94278183","imageIndex":13,"items":[{"name":"쉬즈헤어","tel":"031-452-1646","addr":"경기도 군포시 당동 770-13번지 1층 101호","indutype":"보건위생 - 미용원","category":"beauty"}]},{"lat":"37.349364792","long":"126.94167707","imageIndex":13,"items":[{"name":"시온미용실","tel":"031-396-0122","addr":"경기도 군포시 당동 792-31번지 1층","indutype":"보건위생 - 미용원","category":"beauty"}]},{"lat":"37.356611091","long":"126.94594906","imageIndex":13,"items":[{"name":"신데렐라","tel":"031-458-6333","addr":"경기도 군포시 당동 733-8번지 1층","indutype":"보건위생 - 미용원","category":"beauty"}]},{"lat":"37.348528467","long":"126.94489428","imageIndex":13,"items":[{"name":"신지이미용실","tel":"031-391-5354","addr":"경기도 군포시 당동 906번지 덕산 상가 101호","indutype":"보건위생 - 미용원","category":"beauty"}]},{"lat":"37.351755332","long":"126.94745383","imageIndex":13,"items":[{"name":"신헤어코디","tel":"031-455-0666","addr":"경기도 군포시 당동 783-8번지","indutype":"보건위생 - 미용원","category":"beauty"}]},{"lat":"37.358863654","long":"126.9460038","imageIndex":13,"items":[{"name":"심미용실","tel":"031-452-8518","addr":"경기도 군포시 당동 836-3번지","indutype":"보건위생 - 미용원","category":"beauty"}]},{"lat":"37.346284732","long":"126.94447843","imageIndex":13,"items":[{"name":"아이마트안경콘택트","tel":"031-399-7474","addr":"경기도 군포시 당동 921-6번지 2층","indutype":"보건위생 - 안경","category":"beauty"}]},{"lat":"37.346923748","long":"126.94306721","imageIndex":13,"items":[{"name":"안경세상","tel":"031-398-1723","addr":"경기도 군포시 당동 920-7번지","indutype":"보건위생 - 안경","category":"beauty"}]},{"lat":"37.341342577","long":"126.93583797","imageIndex":13,"items":[{"name":"얼베인뷰티(Urbane Beauty)","tel":"031-399-6210","addr":"경기도 군포시 당동 1028-6번지 101호","indutype":"보건위생 - 미용원","category":"beauty"}]},{"lat":"37.351005544","long":"126.94344771","imageIndex":13,"items":[{"name":"에스네일 발라봐","tel":"031-1111-1111","addr":"경기도 군포시 당동 771-4번지 1층","indutype":"보건위생 - 피부미용실","category":"beauty"}]},{"lat":"37.346672594","long":"126.94534713","imageIndex":13,"items":[{"name":"에터미화장품","tel":"070-4200-3222","addr":"경기도 군포시 당동 916-7번지 두산빌딩 3층 301호","indutype":"보건위생 - 화장품","category":"beauty"}]},{"lat":"37.359476533","long":"126.9463984","imageIndex":13,"items":[{"name":"여우머리미용실","tel":"031-477-8589","addr":"경기도 군포시 당동 835-77번지 1층","indutype":"보건위생 - 미용원","category":"beauty"}]},{"lat":"37.347753433","long":"126.94456758","imageIndex":13,"items":[{"name":"여우손톱","tel":"031-392-2561","addr":"경기도 군포시 당동 905-1번지 폴리프라자 108호","indutype":"보건위생 - 화장품","category":"beauty"},{"name":"탑헤어","tel":"031-397-1215","addr":"경기도 군포시 당동 905-1번지 폴리프라자 109호","indutype":"보건위생 - 미용원","category":"beauty"},{"name":"피부나라물광공주","tel":"031-427-9226","addr":"경기도 군포시 당동 905-1번지 폴리프라자 206호","indutype":"보건위생 - 화장품","category":"beauty"}]},{"lat":"37.35372787","long":"126.94600767","imageIndex":13,"items":[{"name":"영s헤어","tel":"070-7603-1242","addr":"경기도 군포시 당동 751-13번지 2층","indutype":"보건위생 - 미용원","category":"beauty"},{"name":"토마토Hair","tel":"070-8621-3373","addr":"경기도 군포시 당동 751-13번지 2층","indutype":"보건위생 - 미용원","category":"beauty"}]},{"lat":"37.350141258","long":"126.9448366","imageIndex":13,"items":[{"name":"영동헤어샵","tel":"031-427-2221","addr":"경기도 군포시 당동 898-27번지 1층","indutype":"보건위생 - 미용원","category":"beauty"}]},{"lat":"37.352619485","long":"126.94572634","imageIndex":13,"items":[{"name":"영양칠보석의료기","tel":"031-451-7990","addr":"경기도 군포시 당동 776-21번지","indutype":"보건위생 - 의료용품","category":"beauty"}]},{"lat":"37.35697928","long":"126.94345429","imageIndex":13,"items":[{"name":"영헤어라인","tel":"031-391-7598","addr":"경기도 군포시 당동 852-3번지","indutype":"보건위생 - 미용원","category":"beauty"}]},{"lat":"37.351950991","long":"126.94222802","imageIndex":13,"items":[{"name":"예쁜헤어샵","tel":"031-341-5225","addr":"경기도 군포시 당동 769-39번지 미림빌딩 1층 103호","indutype":"보건위생 - 미용원","category":"beauty"},{"name":"준헤어샵","tel":"031-453-1673","addr":"경기도 군포시 당동 769-39번지 미림빌딩 103호","indutype":"보건위생 - 미용원","category":"beauty"}]},{"lat":"37.349393376","long":"126.94475818","imageIndex":13,"items":[{"name":"예원코스메틱","tel":"031-391-8935","addr":"경기도 군포시 당동 903-6번지 201호","indutype":"보건위생 - 화장품","category":"beauty"}]},{"lat":"37.347590807","long":"126.94367612","imageIndex":13,"items":[{"name":"오늘도예쁘다","tel":"02-988-7254","addr":"경기도 군포시 당동 920번지 광진빌딩 104호","indutype":"보건위생 - 미용원","category":"beauty"}]},{"lat":"37.356530307","long":"126.94659249","imageIndex":13,"items":[{"name":"오늘헤어","tel":"031-427-4002","addr":"경기도 군포시 당동 732-14번지 1층 1호","indutype":"보건위생 - 미용원","category":"beauty"}]},{"lat":"37.344669459","long":"126.93970593","imageIndex":13,"items":[{"name":"오치아노스킨&바디","tel":"031-205-1152","addr":"경기도 군포시 당동 966-12번지 대림프라자 1층 107호","indutype":"보건위생 - 화장품","category":"beauty"}]},{"lat":"37.347003925","long":"126.94128399","imageIndex":13,"items":[{"name":"옥스네일","tel":"","addr":"경기도 군포시 당동 961-2번지 호영빌딩 1층 105호","indutype":"보건위생 - 피부미용실","category":"beauty"}]},{"lat":"37.348977326","long":"126.94162096","imageIndex":13,"items":[{"name":"위즈","tel":"031-399-0921","addr":"경기도 군포시 당동 792-24번지 401호","indutype":"보건위생 - 미용재료","category":"beauty"},{"name":"위즈헤어","tel":"031-399-0921","addr":"경기도 군포시 당동 792-24번지","indutype":"보건위생 - 미용원","category":"beauty"}]},{"lat":"37.349888974","long":"126.9448368","imageIndex":13,"items":[{"name":"유니베라","tel":"031-395-1005","addr":"경기도 군포시 당동 903-1번지 유니베라 3층","indutype":"보건위생 - 화장품","category":"beauty"}]},{"lat":"37.353141822","long":"126.94520675","imageIndex":13,"items":[{"name":"유헤어","tel":"031-429-9746","addr":"경기도 군포시 당동 775-5번지 일신빌딩 1층 101호","indutype":"보건위생 - 미용원","category":"beauty"}]},{"lat":"37.35095062","long":"126.94175479","imageIndex":13,"items":[{"name":"윤헤어샵","tel":"031-396-8884","addr":"경기도 군포시 당동 788-5번지","indutype":"보건위생 - 미용원","category":"beauty"}]},{"lat":"37.353980235","long":"126.94617678","imageIndex":13,"items":[{"name":"이가인헤어패션","tel":"031-453-6318","addr":"경기도 군포시 당동 751-6번지","indutype":"보건위생 - 미용원","category":"beauty"}]},{"lat":"37.354060486","long":"126.94444983","imageIndex":13,"items":[{"name":"이경숙헤어","tel":"031-429-5531","addr":"경기도 군포시 당동 754-5번지 1층","indutype":"보건위생 - 미용원","category":"beauty"}]},{"lat":"37.351195191","long":"126.94431662","imageIndex":13,"items":[{"name":"이니스프리경기군포점","tel":"070-7765-9839","addr":"경기도 군포시 당동 772-15번지 1층","indutype":"보건위생 - 화장품","category":"beauty"}]},{"lat":"37.351725726","long":"126.94220562","imageIndex":13,"items":[{"name":"임현숙헤어빌리지","tel":"031-457-3343","addr":"경기도 군포시 당동 769-41번지 1층","indutype":"보건위생 - 미용원","category":"beauty"},{"name":"임현숙헤어빌리지","tel":"031-427-4443","addr":"경기도 군포시 당동 769-41번지 1층 103호","indutype":"보건위생 - 미용원","category":"beauty"},{"name":"희네일","tel":"031-343-8370","addr":"경기도 군포시 당동 769-41번지 101호","indutype":"보건위생 - 화장품","category":"beauty"}]},{"lat":"37.35572768","long":"126.94509191","imageIndex":13,"items":[{"name":"잉꼬헤어","tel":"","addr":"경기도 군포시 당동 742-32번지 101호","indutype":"보건위생 - 미용원","category":"beauty"}]},{"lat":"37.350861562","long":"126.94380899","imageIndex":13,"items":[{"name":"정스매직헤어","tel":"031-453-7562","addr":"경기도 군포시 당동 771-14번지 102호","indutype":"보건위생 - 미용원","category":"beauty"}]},{"lat":"37.34333726","long":"126.94220109","imageIndex":13,"items":[{"name":"정원 스킨&바디","tel":"031-399-9190","addr":"경기도 군포시 당동 874-2번지 한우리교육문화센타 401호","indutype":"보건위생 - 화장품","category":"beauty"}]},{"lat":"37.351113529","long":"126.94317675","imageIndex":13,"items":[{"name":"정현미 미용실","tel":"031-429-2230","addr":"경기도 군포시 당동 771-16번지 1층","indutype":"보건위생 - 미용원","category":"beauty"}]},{"lat":"37.348950119","long":"126.9412824","imageIndex":13,"items":[{"name":"준헤어","tel":"031-393-9311","addr":"경기도 군포시 당동 791-10번지 한미상가 103호","indutype":"보건위생 - 미용원","category":"beauty"}]},{"lat":"37.354087695","long":"126.94481099","imageIndex":13,"items":[{"name":"진희헤어샵","tel":"031-427-1898","addr":"경기도 군포시 당동 752번지 105호","indutype":"보건위생 - 미용원","category":"beauty"}]},{"lat":"37.350168832","long":"126.94595392","imageIndex":13,"items":[{"name":"천연머리염색방","tel":"031-393-5005","addr":"경기도 군포시 당동 898-14번지 동아아파트 104호","indutype":"보건위생 - 미용원","category":"beauty"}]},{"lat":"37.350951872","long":"126.94422651","imageIndex":13,"items":[{"name":"청하화장품","tel":"031-453-7020","addr":"경기도 군포시 당동 771-8번지","indutype":"보건위생 - 화장품","category":"beauty"}]},{"lat":"37.351697767","long":"126.94042238","imageIndex":13,"items":[{"name":"체인지(CHANGE)","tel":"031-452-7238","addr":"경기도 군포시 당동 761-17번지","indutype":"보건위생 - 화장품","category":"beauty"}]},{"lat":"37.352195712","long":"126.94511719","imageIndex":13,"items":[{"name":"초원헤어샵","tel":"","addr":"경기도 군포시 당동 776-15번지 1층","indutype":"보건위생 - 미용원","category":"beauty"}]},{"lat":"37.354583969","long":"126.9462892","imageIndex":13,"items":[{"name":"카이런","tel":"031-223-9159","addr":"경기도 군포시 당동 745-5번지 한림씨티빌 301호","indutype":"보건위생 - 미용재료","category":"beauty"}]},{"lat":"37.350114635","long":"126.94567181","imageIndex":13,"items":[{"name":"커커헤어","tel":"031-429-4584","addr":"경기도 군포시 당동 898-17번지 1층","indutype":"보건위생 - 미용원","category":"beauty"}]},{"lat":"37.348617976","long":"126.94369788","imageIndex":13,"items":[{"name":"케어셀라","tel":"070-4686-9412","addr":"경기도 군포시 당동 794-12번지","indutype":"보건위생 - 화장품","category":"beauty"}]},{"lat":"37.350139141","long":"126.94067197","imageIndex":13,"items":[{"name":"케이투메디칼","tel":"031-455-6773","addr":"경기도 군포시 당동 952-5번지 루시아 2동 1층 101호","indutype":"보건위생 - 의료용품","category":"beauty"}]},{"lat":"37.347168043","long":"126.94512104","imageIndex":13,"items":[{"name":"퀸즈헤어","tel":"031-340-0077","addr":"경기도 군포시 당동 917-3번지","indutype":"보건위생 - 미용원","category":"beauty"}]},{"lat":"37.353555851","long":"126.94431478","imageIndex":13,"items":[{"name":"태후사랑","tel":"031-562-1114","addr":"경기도 군포시 당동 753-4번지 101호","indutype":"보건위생 - 화장품","category":"beauty"}]},{"lat":"37.351697987","long":"126.94083998","imageIndex":13,"items":[{"name":"태후사랑헤어샵","tel":"031-502-7486","addr":"경기도 군포시 당동 761-7번지 101호","indutype":"보건위생 - 미용원","category":"beauty"}]},{"lat":"37.351888944","long":"126.94425964","imageIndex":13,"items":[{"name":"토마토 토탈미용","tel":"031-429-9992","addr":"경기도 군포시 당동 772-11번지 1층","indutype":"보건위생 - 미용원","category":"beauty"}]},{"lat":"37.354701768","long":"126.94769998","imageIndex":13,"items":[{"name":"행복이발관","tel":"031-427-0988","addr":"경기도 군포시 당동 749-11번지 102호","indutype":"보건위생 - 이용원","category":"beauty"}]},{"lat":"37.350726024","long":"126.94304162","imageIndex":13,"items":[{"name":"헤어노블레스","tel":"031-392-0034","addr":"경기도 군포시 당동 786-4번지 1층","indutype":"보건위생 - 미용원","category":"beauty"}]},{"lat":"37.342642376","long":"126.94009132","imageIndex":13,"items":[{"name":"헤어빌리지","tel":"031-397-1187","addr":"경기도 군포시 당동 874-3번지 주공2단지 상가 106호","indutype":"보건위생 - 미용원","category":"beauty"}]},{"lat":"37.346393504","long":"126.94581006","imageIndex":13,"items":[{"name":"헤어짱","tel":"031-392-2258","addr":"경기도 군포시 당동 922-6번지 1층","indutype":"보건위생 - 미용원","category":"beauty"}]},{"lat":"37.350698324","long":"126.94173242","imageIndex":13,"items":[{"name":"헤어클럽","tel":"031-394-4009","addr":"경기도 군포시 당동 788-8번지 1층","indutype":"보건위생 - 미용원","category":"beauty"}]},{"lat":"37.350475068","long":"126.94572797","imageIndex":13,"items":[{"name":"헤어플라워 Hair Flower","tel":"031-429-4884","addr":"경기도 군포시 당동 898-12번지 1층","indutype":"보건위생 - 미용원","category":"beauty"}]},{"lat":"37.350138657","long":"126.93975778","imageIndex":13,"items":[{"name":"헤어필","tel":"031-395-3533","addr":"경기도 군포시 당동 951-3번지 정마프라자 201호","indutype":"보건위생 - 미용원","category":"beauty"}]},{"lat":"37.349861203","long":"126.94334703","imageIndex":13,"items":[{"name":"현 헤어라인","tel":"031-396-8070","addr":"경기도 군포시 당동 785-31번지 1층","indutype":"보건위생 - 미용원","category":"beauty"}]},{"lat":"37.357420394","long":"126.94269768","imageIndex":13,"items":[{"name":"호산나 산모사랑","tel":"070-4101-0984","addr":"경기도 군포시 당동 850-10번지 102호","indutype":"보건위생 - 기타대인서비스","category":"beauty"}]},{"lat":"37.350168454","long":"126.94517517","imageIndex":13,"items":[{"name":"황재","tel":"031-455-3472","addr":"경기도 군포시 당동 898-24번지 지하층","indutype":"보건위생 - 이용원","category":"beauty"}]},{"lat":"37.354583103","long":"126.94450586","imageIndex":13,"items":[{"name":"희헤어라인","tel":"031-429-4847","addr":"경기도 군포시 당동 739-8번지","indutype":"보건위생 - 미용원","category":"beauty"}]}]