[{"lat":"37.552038011","long":"127.19039888","items":[{"name":"(사)한국분재조합","tel":"031-794-5082","addr":"경기도 하남시 풍산동 84-23번지","category":"용역 서비스 - 사무서비스"}]},{"lat":"37.55120604","long":"127.18661708","items":[{"name":"(주)대흥양행","tel":"031-792-3069","addr":"경기도 하남시 풍산동 113-13번지","category":"의류 - 정장"}]},{"lat":"37.559092413","long":"127.19058632","items":[{"name":"(주)모닝썬푸드","tel":"031-793-5966","addr":"경기도 하남시 풍산동 543-1번지 1층 101호","category":"음료식품 - 정육점"}]},{"lat":"37.550516271","long":"127.18403524","items":[{"name":"(주)비앤비스타","tel":"02-426-9377","addr":"경기도 하남시 풍산동 493번지 7층 에프 743호 미사센텀비즈","category":"건축자재 - 인테리어전문"},{"name":"(주)에이아이 트레이딩","tel":"031-1566-6911","addr":"경기도 하남시 풍산동 493번지 348호,349호,350호","category":"용역 서비스 - 소프트웨어"},{"name":"(주)퀀텍","tel":"02-540-0584","addr":"경기도 하남시 풍산동 493번지 5층 F548호","category":"보건위생 - 의료용품"},{"name":"(주)플레르가구","tel":"","addr":"경기도 하남시 풍산동 493번지 미사센텀비즈 지하1층 알비 106호","category":"가구 - 일반가구"},{"name":"32치킨","tel":"031-5175-3299","addr":"경기도 하남시 풍산동 493번지 미사센텀비즈 R143,144호","category":"일반휴게음식 - 스넥"},{"name":"Hair by J(헤어바이제이)","tel":"031-5175-3323","addr":"경기도 하남시 풍산동 493번지 미사센텀비즈 지하1층 알비117호","category":"보건위생 - 미용원"},{"name":"H예닮","tel":"031-5175-3060","addr":"경기도 하남시 풍산동 493번지 미사센텀비즈 1층 R137호","category":"일반휴게음식 - 일반한식"},{"name":"J&D컴퍼니","tel":"031-5175-3840","addr":"경기도 하남시 풍산동 493번지 미사센텀비즈 공장FB3층 B314호","category":"용역 서비스 - 소프트웨어"},{"name":"강창구 진순대 미사센텀비즈점","tel":"031-5175-3433","addr":"경기도 하남시 풍산동 493번지 R131,R132,R133호","category":"일반휴게음식 - 일반한식"},{"name":"강촌식당 하남미사점","tel":"031-5175-3678","addr":"경기도 하남시 풍산동 493번지 알비 118,119호","category":"일반휴게음식 - 일반한식"},{"name":"광일기공","tel":"031-5175-3116","addr":"경기도 하남시 풍산동 493번지 미사센텀비즈 지하1층 제에프비116호","category":"기타 - 기계공구"},{"name":"금강","tel":"031-000-0000","addr":"경기도 하남시 풍산동 493번지 10층 제에프 1005호","category":"건축자재 - 인테리어전문"},{"name":"더마힐직영2사업본부","tel":"","addr":"경기도 하남시 풍산동 493번지 미사센텀 비즈동 409호","category":"보건위생 - 화장품"},{"name":"도시이앤씨","tel":"031-794-1415","addr":"경기도 하남시 풍산동 493번지 제 8층 제에프 833호 미사센텀비즈","category":"건축자재 - 인테리어전문"},{"name":"도장뱅크","tel":"","addr":"경기도 하남시 풍산동 493번지 미사센텀비즈 F동 433호","category":"건축자재 - 목재·석재·철물"},{"name":"두루치기 하남?","tel":"","addr":"경기도 하남시 풍산동 493번지 2층 미사센텀비즈 R203호","category":"일반휴게음식 - 일반한식"},{"name":"레몬펫","tel":"0507-1318-3697","addr":"경기도 하남시 풍산동 493번지 미사센텀비즈 10층 F1042호","category":"문화.취미 - 애완동물"},{"name":"매직트리","tel":"02-355-5963","addr":"경기도 하남시 풍산동 493번지 미사센텀비즈 F315호","category":"서적문구 - 과학기자재"},{"name":"메드멧 주식회사","tel":"031-8028-4553","addr":"경기도 하남시 풍산동 493번지 미사센텀비즈 제10층 제에프 1018호","category":"보건위생 - 의료용품"},{"name":"명인만두 하남미사센텀비즈점","tel":"031-5175-3550","addr":"경기도 하남시 풍산동 493번지 미사센텀비즈 1층 R106,R107호","category":"일반휴게음식 - 일반한식"},{"name":"미리안FM","tel":"","addr":"경기도 하남시 풍산동 493번지 미사센텀비즈 10층 1002호","category":"전기제품 - 기타전기제품"},{"name":"미사 센텀비즈 지식산업센터 관리단","tel":"031-5175-3766","addr":"경기도 하남시 풍산동 493번지","category":"자동차정비 유지 - 주차장"},{"name":"미사센텀샘치과의원","tel":"031-796-3075","addr":"경기도 하남시 풍산동 493번지 2층 알212호,알213호 미사센텀비즈","category":"의원 - 치과의원"},{"name":"미스터 스시","tel":"031-5175-3457","addr":"경기도 하남시 풍산동 493번지 미사센텀비즈 지하1층 RB 120호","category":"일반휴게음식 - 일식·회집"},{"name":"바비수 주식회사","tel":"02-2298-6760","addr":"경기도 하남시 풍산동 493번지 미사센텀비즈 F241호","category":"의류 - 기타의류"},{"name":"백원메디칼","tel":"02-442-1425","addr":"경기도 하남시 풍산동 493번지 미사센텀비즈 F동 1014호","category":"보건위생 - 의료용품"},{"name":"비엔티(B&T)자바","tel":"031-5175-3603","addr":"경기도 하남시 풍산동 493번지 미사센텀비즈 F 520호","category":"건축자재 - 기타건축자재"},{"name":"비케이테크","tel":"02-454-2588","addr":"경기도 하남시 풍산동 493번지 미사센텀비즈 F742호","category":"사무통신 - 기타 사무용품"},{"name":"사미반점","tel":"031-5175-3255","addr":"경기도 하남시 풍산동 493번지 미사센텀비즈 R134 ,R135,R136호","category":"일반휴게음식 - 중국식"},{"name":"상일철물공구","tel":"031-5175-3796","addr":"경기도 하남시 풍산동 493번지 미사센텀비즈 RB 109호","category":"건축자재 - 목재·석재·철물"},{"name":"센텀당구클럽","tel":"031-533-5785","addr":"경기도 하남시 풍산동 493번지 2층 R205,R206,R207호","category":"레저업소 - 당 구 장"},{"name":"셀렉토커피(SELECTO COFFEE)","tel":"031-5175-3450","addr":"경기도 하남시 풍산동 493번지 미사센텀비즈 1층 R112, 113호","category":"일반휴게음식 - 서양음식"},{"name":"쉬즈베이글하남점","tel":"070-1111-1111","addr":"경기도 하남시 풍산동 493번지 1층 R109호","category":"일반휴게음식 - 서양음식"},{"name":"신성그래픽스(주)","tel":"031-5175-3175","addr":"경기도 하남시 풍산동 493번지 지하3층 302호 미사센텀비즈","category":"서적문구 - 출판 및 인쇄물"},{"name":"씨유 미사센텀비즈점","tel":"080-080-3663","addr":"경기도 하남시 풍산동 493번지 미사센텀비즈 1층 알114,알115,알116","category":"유통업 영리 - 편 의 점"},{"name":"에스제이(SJ)비즈니스센터","tel":"031-5175-3355","addr":"경기도 하남시 풍산동 493번지 10층 제에프 1023,1024호","category":"용역 서비스 - 사무서비스"},{"name":"에이치엠 컴퍼니(HM COMPANY)","tel":"031-0000-0000","addr":"경기도 하남시 풍산동 493번지 미사센텀비즈 제4층 F441호","category":"건축자재 - 인테리어전문"},{"name":"엑스포비전","tel":"02-6927-3640","addr":"경기도 하남시 풍산동 493번지 6층 미사센텀비즈 641호","category":"용역 서비스 - 사무서비스"},{"name":"엔젤팜","tel":"031-5175-3248","addr":"경기도 하남시 풍산동 493번지 F248호 미사센텀비즈","category":"보건위생 - 의료용품"},{"name":"오늘은 맑음","tel":"02-574-7764","addr":"경기도 하남시 풍산동 493번지 2층 알201호","category":"일반휴게음식 - 일반한식"},{"name":"오방냉면","tel":"","addr":"경기도 하남시 풍산동 493번지 1층 R104호,R105호 미사센텀비즈","category":"일반휴게음식 - 일반한식"},{"name":"이디야 센텀비즈","tel":"","addr":"경기도 하남시 풍산동 493번지 미사센텀비즈 지하1층 122호","category":"일반휴게음식 - 서양음식"},{"name":"이마트24 미사센텀점","tel":"","addr":"경기도 하남시 풍산동 493번지 RB1층 113,114호","category":"유통업 영리 - 편 의 점"},{"name":"제이엠스케일","tel":"","addr":"경기도 하남시 풍산동 493번지 4층 F403호","category":"서적문구 - 출판 및 인쇄물"},{"name":"주식회사 디텍코리아","tel":"031-5175-3851","addr":"경기도 하남시 풍산동 493번지 미사센텀비즈 9층 F911호","category":"자동차정비 유지 - 자동차부품"},{"name":"주식회사 에이아이트레이더","tel":"031-565-8100","addr":"경기도 하남시 풍산동 493번지 미사센텀비즈 F동 345호","category":"용역 서비스 - 소프트웨어"},{"name":"주식회사 에코셀","tel":"02-457-2236","addr":"경기도 하남시 풍산동 493번지 미사센텀비즈 F 226호","category":"서적문구 - 과학기자재"},{"name":"주식회사 워시빌리지","tel":"031-5175-3715","addr":"경기도 하남시 풍산동 493번지 미사센텀비즈 3층 F 316호","category":"수리서비스 - 세탁소"},{"name":"주식회사 트레이드엑스","tel":"031-5175-3088","addr":"경기도 하남시 풍산동 493번지 미사센텀비즈 F403호","category":"보건위생 - 화장품"},{"name":"주식회사부광","tel":"031-794-8728","addr":"경기도 하남시 풍산동 493번지 에프 1050호,에프 1051호 미사센텀비즈","category":"용역 서비스 - 사무서비스"},{"name":"케그오공 (KEG50)","tel":"031-5175-3449","addr":"경기도 하남시 풍산동 493번지 R101호","category":"일반휴게음식 - 주점"},{"name":"큐드디자인","tel":"02-448-0707","addr":"경기도 하남시 풍산동 493번지 F341호 미사센텀비즈","category":"가구 - 일반가구"},{"name":"크라이오코리아(주)","tel":"02-1522-8080","addr":"경기도 하남시 풍산동 493번지 미사센텀비즈 F438호","category":"레져용품 - 스포츠·레져용품"},{"name":"킹덤타이","tel":"031-5175-3340","addr":"경기도 하남시 풍산동 493번지 알 209호 미사센텀비즈","category":"보건위생 - 화장품"},{"name":"포시애틀하남미사직영점","tel":"031-5175-3204","addr":"경기도 하남시 풍산동 493번지 이사센텀비즈 2층 R204호","category":"일반휴게음식 - 일반한식"},{"name":"풍경","tel":"031-5175-3201","addr":"경기도 하남시 풍산동 493번지 미사센텀비즈 지하2층 RB201호","category":"일반휴게음식 - 일반한식"},{"name":"퓨어오투","tel":"02-1833-9947","addr":"경기도 하남시 풍산동 493번지 미사센텀비즈 3층 F334호","category":"주방용구 - 정수기"},{"name":"하남방송","tel":"031-795-2200","addr":"경기도 하남시 풍산동 493번지 미사센텀비즈 2층 F 214호","category":"용역 서비스 - CATV"},{"name":"한국자연건강","tel":"02-409-6511","addr":"경기도 하남시 풍산동 493번지 10층 에프1023호 미사센텀비즈","category":"건강식품 - 기타건강식품"},{"name":"한울컴넷","tel":"031-409-1895","addr":"경기도 하남시 풍산동 493번지 미사센텀비즈 F동 9층 937호","category":"자동차정비 유지 - 주차장"},{"name":"해와달 양평해장국","tel":"031-796-0129","addr":"경기도 하남시 풍산동 493번지 미사센텀비즈 139,140,141호","category":"일반휴게음식 - 일반한식"},{"name":"해피트레이닝컨설팅","tel":"02-337-0595","addr":"경기도 하남시 풍산동 493번지 에프649호 미사센텀비즈","category":"학원 - 기타 교육기관"}]},{"lat":"37.548460747","long":"127.18486766","items":[{"name":"(주)세정수산","tel":"031-796-6208","addr":"경기도 하남시 풍산동 218-95번지 E2동 101호","category":"음료식품 - 농·축·수산품"},{"name":"만돌만","tel":"031-796-3112","addr":"경기도 하남시 풍산동 218-95번지 E2동 202호","category":"일반휴게음식 - 일식·회집"}]},{"lat":"37.550653998","long":"127.19383561","items":[{"name":"(주)아워홈 코스트코하남점","tel":"02-1111-1111","addr":"경기도 하남시 풍산동 609번지","category":"일반휴게음식 - 위탁급식업"}]},{"lat":"37.551262554","long":"127.1850329","items":[{"name":"(주)지엘텍","tel":"031-796-7337","addr":"경기도 하남시 풍산동 212-4","category":"전기제품 - 냉열기기"}]},{"lat":"37.547536039","long":"127.18853179","items":[{"name":"(주)지호/지호한방삼계탕하남직영점","tel":"031-795-9996","addr":"경기도 하남시 풍산동 234-2번지","category":"일반휴게음식 - 일반한식"}]},{"lat":"37.546710251","long":"127.18653815","items":[{"name":"(주)케이피웰","tel":"070-4616-1676","addr":"경기도 하남시 풍산동 275번지","category":"용역 서비스 - 소프트웨어"}]},{"lat":"37.550265054","long":"127.18334434","items":[{"name":"(주)코아시스컴퍼니","tel":"02-482-1949","addr":"경기도 하남시 풍산동 492번지 미사하우스디엘타워 에프416-1호,에프416-2호","category":"보건위생 - 화장품"},{"name":"닉스라이팅","tel":"031-5175-4155","addr":"경기도 하남시 풍산동 492번지 엘타워 107호,108호","category":"건축자재 - 조명기구"},{"name":"데이터사운드","tel":"031-795-8131","addr":"경기도 하남시 풍산동 492번지 미사하우스디엘타워 F216-1호","category":"전기제품 - 가전제품"},{"name":"디에스시스템 주식회사","tel":"02-951-7288","addr":"경기도 하남시 풍산동 492번지 미사하우스디엘타워 604호","category":"용역 서비스 - 기타용역서비스"},{"name":"백양 DSP","tel":"","addr":"경기도 하남시 풍산동 492번지 미사하우스디엘타워 SB 203호","category":"직물 - 침구·수예점"},{"name":"사단법인 한국냉난방기유지관리협회","tel":"070-4010-1789","addr":"경기도 하남시 풍산동 492번지 미사하우스디엘타워 8층 F814-1호","category":"학원 - 기타 교육기관"},{"name":"삼원컴퍼니","tel":"031-790-4428","addr":"경기도 하남시 풍산동 492번지 미사하우스디엘타워 6층 F622-1호","category":"신변잡화 - 시계"},{"name":"세종세무회계사무소","tel":"031-1661-9716","addr":"경기도 하남시 풍산동 492번지 미사하우스디엘타워 1층 R101호","category":"용역 서비스 - 법률회계서비스(개인)"},{"name":"소풍","tel":"","addr":"경기도 하남시 풍산동 492번지 미사하우스디엘타워 RB층 202호","category":"일반휴게음식 - 일반한식"},{"name":"시공월드","tel":"02-484-7046","addr":"경기도 하남시 풍산동 492번지 미사하우스디엘타워 지하4층 에프비 402호","category":"건축자재 - 인테리어전문"},{"name":"씨케이코리아","tel":"031-5175-4321","addr":"경기도 하남시 풍산동 492번지 미사하우스디엘타워 RB 201호","category":"레저업소 - 스크린골프"},{"name":"에프원솔루션","tel":"","addr":"경기도 하남시 풍산동 492번지 미사하우스디엘타워 3층 F322-1호","category":"사무통신 - 컴퓨터"},{"name":"엘타워함바식당","tel":"031-575-4545","addr":"경기도 하남시 풍산동 492번지 미사하우스디엘타워 R동 104호","category":"일반휴게음식 - 일반한식"},{"name":"이마트24 하남엘타워점","tel":"031-1111-1111","addr":"경기도 하남시 풍산동 492번지 미사하우스디엘타워 B106,B107","category":"유통업 영리 - 편 의 점"},{"name":"이삭","tel":"02-384-2168","addr":"경기도 하남시 풍산동 492번지 미사하우스디엘타워 7층 711호","category":"기타 - 기계공구"},{"name":"주식회사 21세기상인","tel":"070-7836-2100","addr":"경기도 하남시 풍산동 492번지 미사하우스디엘타워 지하3층 에프비 304호","category":"음료식품 - 농·축·수산품"},{"name":"주식회사 미래앤모터스","tel":"02-540-5570","addr":"경기도 하남시 풍산동 492번지 미사하우스디엘타워 F동 4층 407호","category":"자동차판매 - 이륜차판매"},{"name":"주식회사 아스트로켐","tel":"031-515-9028","addr":"경기도 하남시 풍산동 492번지 미사하우스디엘타워 F동 7층 718호","category":"서적문구 - 과학기자재"},{"name":"주식회사 에어케어","tel":"02-1588-3731","addr":"경기도 하남시 풍산동 492번지 미사하우스디엘타워 에프 915-2호","category":"용역 서비스 - 종합용역"},{"name":"주식회사 엘피스","tel":"","addr":"경기도 하남시 풍산동 492번지 디엘티워 R동 101호","category":"보건위생 - 의료용품"},{"name":"주식회사 제마헬스케어","tel":"02-815-2036","addr":"경기도 하남시 풍산동 492번지 미사하우스디엘타워 F216-2호,F217호","category":"보건위생 - 의료용품"},{"name":"하남미사 하우스디엘타워 지식산업센터","tel":"031-5175-4114","addr":"경기도 하남시 풍산동 492번지 미사하우스디엘타워 지하2층","category":"자동차정비 유지 - 주차장"},{"name":"한빛전자기술주식회사","tel":"02-0000-0000","addr":"경기도 하남시 풍산동 492번지 미사하우스디엘타워 제9층 제에프909호","category":"자동차정비 유지 - 주차장"},{"name":"희희(heehee)","tel":"","addr":"경기도 하남시 풍산동 492번지 미사하우스디엘타워 8층 822-1호","category":"의류 - 정장"}]},{"lat":"37.557456704","long":"127.18800184","items":[{"name":"(주)한국상담심리 평생교육원","tel":"031-796-0617","addr":"경기도 하남시 풍산동 504번지 미사탑프라자 701호","category":"학원 - 기타 교육기관"},{"name":"가나약국","tel":"031-796-0095","addr":"경기도 하남시 풍산동 504번지 미사탑프라자 1층 110호","category":"약국 - 약국"},{"name":"감성스터디카페 하남미사역점","tel":"","addr":"경기도 하남시 풍산동 504번지 540-1 미사탑프라자 405,406호","category":"용역 서비스 - 사무서비스"},{"name":"고양이부엌하남","tel":"031-792-0410","addr":"경기도 하남시 풍산동 504번지 미사탑프라자 1층 112호","category":"일반휴게음식 - 스넥"},{"name":"노마진상회","tel":"070-4763-5091","addr":"경기도 하남시 풍산동 504번지 미사탑프라자 1층 105호","category":"음료식품 - 농·축·수산품"},{"name":"렛츠스피크","tel":"031-8027-0903","addr":"경기도 하남시 풍산동 504번지 미사탑프라자 606호","category":"학원 - 보습학원"},{"name":"롤링핀미사점","tel":"031-1688-0605","addr":"경기도 하남시 풍산동 504번지 미사탑프라자 1층","category":"음료식품 - 제과점"},{"name":"메다비타(MEDAVITA)","tel":"","addr":"경기도 하남시 풍산동 504번지 미사탑프라자 114호","category":"보건위생 - 미용원"},{"name":"반찬 부부이야기","tel":"031-792-3389","addr":"경기도 하남시 풍산동 504번지 미사탑프라자 1층 113호","category":"음료식품 - 기타음료식품"},{"name":"브레인파워보드체스교습소","tel":"","addr":"경기도 하남시 풍산동 504번지 미사탑프라자 705호","category":"학원 - 기타 교육기관"},{"name":"살롱 드 감성(Salon de 감성)","tel":"031-794-2585","addr":"경기도 하남시 풍산동 504번지 미사탑프라자 2층 203호","category":"보건위생 - 미용원"},{"name":"삼다애","tel":"031-792-9787","addr":"경기도 하남시 풍산동 504번지 미사탑프라자 207동 208호","category":"일반휴게음식 - 일반한식"},{"name":"센클미사캠퍼스영어독서학원","tel":"031-111-1111","addr":"경기도 하남시 풍산동 504번지 미사탑프라자 704호","category":"학원 - 보습학원"},{"name":"셀렉토커피 미사강변점","tel":"031-791-6117","addr":"경기도 하남시 풍산동 504번지 미사탑프라자 104호","category":"일반휴게음식 - 서양음식"},{"name":"슬라임카페 슈가젤리","tel":"031-1544-8705","addr":"경기도 하남시 풍산동 504번지 미사탑프라자 201-1호","category":"서적문구 - 완구점"},{"name":"아이앤이 수학학원","tel":"031-792-5052","addr":"경기도 하남시 풍산동 504번지 미사탑프라자 5층 505호","category":"학원 - 보습학원"},{"name":"아이콩 아트 스튜디오 학원","tel":"","addr":"경기도 하남시 풍산동 504번지 미사탑프라자 6층 608호","category":"학원 - 예·체능계학원"},{"name":"아트 피카소 교습소","tel":"","addr":"경기도 하남시 풍산동 504번지 미사탑프라자 603호","category":"학원 - 예·체능계학원"},{"name":"얼짱몸짱 미사강변도시점","tel":"031-794-3371","addr":"경기도 하남시 풍산동 504번지 미사탑프라자 409호","category":"보건위생 - 피부미용실"},{"name":"엘리던트(ELIDENT)학원","tel":"031-793-6585","addr":"경기도 하남시 풍산동 504번지 미사탑프라자 607호","category":"학원 - 보습학원"},{"name":"우공국어논술학원","tel":"031-793-0312","addr":"경기도 하남시 풍산동 504번지 미사탑프라자 605호","category":"학원 - 보습학원"},{"name":"율리안나","tel":"","addr":"경기도 하남시 풍산동 504번지 미사탑프라자 118호","category":"문화.취미 - 민예·공예품"},{"name":"이룸악기","tel":"031-791-7331","addr":"경기도 하남시 풍산동 504번지 미사탑프라자 103호","category":"레져용품 - 악기점"},{"name":"잘생긴치과","tel":"031-795-2879","addr":"경기도 하남시 풍산동 504번지 미사랑프라자 303,304호","category":"의원 - 치과의원"},{"name":"제오헤어","tel":"031-794-3317","addr":"경기도 하남시 풍산동 504번지 미사탑프라자 4층 408호","category":"보건위생 - 미용원"},{"name":"주식회사 한국상담심리 평생교육원","tel":"02-465-0617","addr":"경기도 하남시 풍산동 504번지 미사탑프라자 701호","category":"학원 - 기타 교육기관"},{"name":"탑수학교습소","tel":"031-792-5030","addr":"경기도 하남시 풍산동 504번지 미사탑프라자 6층 604호","category":"학원 - 보습학원"},{"name":"하나무","tel":"","addr":"경기도 하남시 풍산동 504번지 미사탑프라자 1층 102호","category":"문화.취미 - 애완동물"},{"name":"하우스터디 하남미사센터 모임공간","tel":"031-794-0223","addr":"경기도 하남시 풍산동 504번지 미사탑프라자 5층 504호","category":"용역 서비스 - 사무서비스"},{"name":"하우스터디하남미사센터독서실","tel":"031-794-0223","addr":"경기도 하남시 풍산동 504번지 미사탑프라자 502,503호","category":"학원 - 독서실"}]},{"lat":"37.556952492","long":"127.18778556","items":[{"name":"1022뷰티살롱","tel":"031-792-2282","addr":"경기도 하남시 풍산동 504-2번지 그린프라자 206호","category":"보건위생 - 피부미용실"},{"name":"그린한식뷔페","tel":"031-793-5404","addr":"경기도 하남시 풍산동 504-2번지 그린프라자 302,303,304호","category":"일반휴게음식 - 일반한식"},{"name":"글라스하우스 위드 렌즈미 미사점","tel":"031-792-1911","addr":"경기도 하남시 풍산동 504-2번지 그린프라자 102호,103호","category":"보건위생 - 안경"},{"name":"로고스 EAP 학원","tel":"031-793-5501","addr":"경기도 하남시 풍산동 504-2번지 그린프라자 7층 1호","category":"학원 - 보습학원"},{"name":"맘스터치 미사강변대로점","tel":"031-793-0605","addr":"경기도 하남시 풍산동 504-2번지 그린프라자 201호","category":"일반휴게음식 - 서양음식"},{"name":"미사동사진관","tel":"031-792-4977","addr":"경기도 하남시 풍산동 504-2번지 그린프라자 2층 205호","category":"광학제품 - 사진관"},{"name":"본죽&비빔밥Cafe 미사센트럴점","tel":"031-795-6255","addr":"경기도 하남시 풍산동 504-2번지 그린프라자 1층 104호","category":"일반휴게음식 - 일반한식"},{"name":"브라운포레스트","tel":"","addr":"경기도 하남시 풍산동 504-2번지 그린프라자 1층 108호","category":"문화.취미 - 화원"},{"name":"블럭만들기","tel":"031-794-0709","addr":"경기도 하남시 풍산동 504-2번지 그린프라자 202호","category":"학원 - 기타 교육기관"},{"name":"서울탑클래스치과의원","tel":"031-795-8270","addr":"경기도 하남시 풍산동 504-2번지 그린프라자 4층 401,402호","category":"의원 - 치과의원"},{"name":"연세영재음악학원","tel":"031-795-5656","addr":"경기도 하남시 풍산동 504-2번지 그린프라자 503호","category":"학원 - 예·체능계학원"},{"name":"이든스터디카페","tel":"031-8027-8037","addr":"경기도 하남시 풍산동 504-2번지 그린프라자 702,703호","category":"용역 서비스 - 사무서비스"},{"name":"전주콩각시콩나물국밥","tel":"031-794-2438","addr":"경기도 하남시 풍산동 504-2번지 1층 105,106호","category":"일반휴게음식 - 일반한식"},{"name":"친환경상점 나무숲","tel":"","addr":"경기도 하남시 풍산동 504-2번지 그린프라자 1동 1층 107호","category":"음료식품 - 기타음료식품"},{"name":"티엠에스어학원","tel":"031-000-0000","addr":"경기도 하남시 풍산동 504-2번지 그린프라자 702,703호","category":"학원 - 외국어학원"},{"name":"필라테스451","tel":"031-795-0451","addr":"경기도 하남시 풍산동 504-2번지 그린프라자 404호","category":"레저업소 - 헬스클럽"},{"name":"한끼","tel":"031-796-8788","addr":"경기도 하남시 풍산동 504-2번지 그린프라자 1층 109호","category":"일반휴게음식 - 일반한식"}]},{"lat":"37.556709405","long":"127.18767179","items":[{"name":"365봄약국","tel":"031-794-3654","addr":"경기도 하남시 풍산동 504-3번지 미사베스트프라자 1동 107호,108호","category":"약국 - 약국"},{"name":"CHACHAGYM(차차짐)","tel":"070-4790-8898","addr":"경기도 하남시 풍산동 504-3번지 미사베스트프라자 7층 701호","category":"레저업소 - 헬스클럽"},{"name":"GS25미사프라자점","tel":"","addr":"경기도 하남시 풍산동 504-3번지 미사베스트프라자 109호","category":"유통업 영리 - 편 의 점"},{"name":"다솜보청기센터","tel":"031-795-7530","addr":"경기도 하남시 풍산동 504-3번지 미사베스트프라자 401호","category":"보건위생 - 의료용품"},{"name":"다솜이비인후과","tel":"031-795-7530","addr":"경기도 하남시 풍산동 504-3번지 미사베스트프라자 제4층 401,402호","category":"의원 - 의원"},{"name":"대치성공스토리학원","tel":"031-794-2556","addr":"경기도 하남시 풍산동 504-3번지 미사베스트프라자 403,404호","category":"학원 - 보습학원"},{"name":"메종드피아노","tel":"031-5383-2960","addr":"경기도 하남시 풍산동 504-3번지 외1필지 미사베스트프라자 6층 603호","category":"학원 - 예·체능계학원"},{"name":"미사베스트프라자관리단","tel":"031-792-8468","addr":"경기도 하남시 풍산동 504-3번지 미사베스트프라자","category":"자동차정비 유지 - 주차장"},{"name":"미사플란트치과의원","tel":"031-795-7547","addr":"경기도 하남시 풍산동 504-3번지 미사베스트프라자 405호 406호 407호","category":"의원 - 치과의원"},{"name":"비욘드영어","tel":"031-793-0212","addr":"경기도 하남시 풍산동 504-3번지 미사베스트프라자 5층 504호","category":"학원 - 보습학원"},{"name":"신화언어심리상담센터","tel":"031-795-0205","addr":"경기도 하남시 풍산동 504-3번지 미사베스트프라자 7층 705호","category":"보건위생 - 기타대인서비스"},{"name":"씽크앤아트","tel":"031-792-6160","addr":"경기도 하남시 풍산동 504-3번지 미사베스트프라자 604호","category":"학원 - 예·체능계학원"},{"name":"안녕숯불&올리브도시락하남미사점","tel":"031-000-0000","addr":"경기도 하남시 풍산동 504-3번지 미사베스트프라자 206호","category":"일반휴게음식 - 일반한식"},{"name":"영재수학학원","tel":"031-791-7018","addr":"경기도 하남시 풍산동 504-3번지 미사베스트프라자 6층 606호","category":"학원 - 보습학원"},{"name":"왓썹 (WHATSUP)영어학원","tel":"031-795-0705","addr":"경기도 하남시 풍산동 504-3번지 미사베스트프라자 607호","category":"학원 - 보습학원"},{"name":"용인대 슬기태권도장","tel":"031-793-1247","addr":"경기도 하남시 풍산동 504-3번지 미사베스트프라자 6층 601,602호","category":"학원 - 예·체능계학원"},{"name":"지니어스학원","tel":"031-793-3654","addr":"경기도 하남시 풍산동 504-3번지 미사베스트프라자 5층 505호","category":"학원 - 보습학원"},{"name":"청담맥스터디 수학전문학원","tel":"","addr":"경기도 하남시 풍산동 504-3번지 미사베스트프라자 306,307호","category":"학원 - 보습학원"},{"name":"하남미사루나발레학원","tel":"031-796-1256","addr":"경기도 하남시 풍산동 504-3번지 미사베스트프라자 605호","category":"학원 - 예·체능계학원"},{"name":"하남스마트러닝센터학원","tel":"031-000-0000","addr":"경기도 하남시 풍산동 504-3번지 미사베스트프라자 305호","category":"학원 - 보습학원"},{"name":"하동갈비","tel":"031-795-8005","addr":"경기도 하남시 풍산동 504-3번지 미사베스트프라자 208호","category":"일반휴게음식 - 일반한식"}]},{"lat":"37.555845849","long":"127.19247947","items":[{"name":"88골드","tel":"","addr":"경기도 하남시 풍산동 567번지 미사강변도시26단지 상가동 1층 103호","category":"신변잡화 - 액세서리"},{"name":"MJ건설","tel":"","addr":"경기도 하남시 풍산동 567번지 미사강변도시26단지 2604동 15층 1호","category":"용역 서비스 - 기타용역서비스"},{"name":"씨유미사26단지점","tel":"080-080-3663","addr":"경기도 하남시 풍산동 567번지 미사강변도시26단지 102호","category":"유통업 영리 - 편 의 점"},{"name":"호연상사","tel":"","addr":"경기도 하남시 풍산동 567번지 미사강변도시26단지 2603동 1307호","category":"연료판매점 - 기타연료"}]},{"lat":"37.549262969","long":"127.18464329","items":[{"name":"GS25하남회타운점","tel":"","addr":"경기도 하남시 풍산동 218-26번지 1층","category":"유통업 영리 - 편 의 점"},{"name":"금강산감자탕해장국","tel":"031-793-8677","addr":"경기도 하남시 풍산동 218-26번지","category":"일반휴게음식 - 일반한식"},{"name":"뮤즈데코","tel":"031-796-0491","addr":"경기도 하남시 풍산동 218-26번지 1층","category":"직물 - 침구·수예점"},{"name":"뮤즈테코","tel":"031-796-0491","addr":"경기도 하남시 풍산동 218-26번지 1층","category":"직물 - 침구·수예점"},{"name":"오토스아이티","tel":"02-1644-3245","addr":"경기도 하남시 풍산동 218-26번지 206호","category":"자동차정비 유지 - 자동차부품"},{"name":"홍박사 꼬막.코다리","tel":"031-793-8677","addr":"경기도 하남시 풍산동 218-26번지 1층","category":"일반휴게음식 - 일반한식"}]},{"lat":"37.540986915","long":"127.18787059","items":[{"name":"Hana rental","tel":"02-554-8276","addr":"경기도 하남시 풍산동 428-1번지","category":"사무통신 - 사무용 OA기기"}]},{"lat":"37.556703158","long":"127.19162152","items":[{"name":"Hello 카페","tel":"031-793-2290","addr":"경기도 하남시 풍산동 550-5번지 1층","category":"일반휴게음식 - 서양음식"},{"name":"이디야 청아초교점","tel":"031-794-6467","addr":"경기도 하남시 풍산동 550-5번지 101호","category":"일반휴게음식 - 서양음식"},{"name":"추닭집","tel":"031-111-1111","addr":"경기도 하남시 풍산동 550-5번지 1층 102호","category":"일반휴게음식 - 스넥"}]},{"lat":"37.554427134","long":"127.18364861","items":[{"name":"KLASSE NAIL (클라쎄)","tel":"031-794-0133","addr":"경기도 하남시 풍산동 477번지 미사강변동원로얄듀크 상가 307동 115호","category":"보건위생 - 피부미용실"},{"name":"j&j 헤어","tel":"031-796-1117","addr":"경기도 하남시 풍산동 477번지 미사강변동원로얄듀크 307동 지하1층 113호","category":"보건위생 - 미용원"},{"name":"더카리테스(THE CHARITES)","tel":"","addr":"경기도 하남시 풍산동 477번지 미사강변동원로얄듀크 2201동 1401호","category":"신변잡화 - 액세서리"},{"name":"또래오래 미사1점","tel":"031-793-9291","addr":"경기도 하남시 풍산동 477번지 미사강변동원로얄듀크 상가 307동 116호","category":"일반휴게음식 - 스넥"},{"name":"로얄듀크어린이집[아이행복]","tel":"031-795-7922","addr":"경기도 하남시 풍산동 477번지 미사강변동원로얄듀크","category":"학원 - 유아원"},{"name":"명가교동짬뽕미사강변점","tel":"031-793-6619","addr":"경기도 하남시 풍산동 477번지 미사강변동원로얄듀크 307동 107,108호","category":"일반휴게음식 - 일반한식"},{"name":"명품회수산","tel":"031-795-8998","addr":"경기도 하남시 풍산동 477번지 미사강변동원로얄듀크 상가 308동 1층 101호","category":"일반휴게음식 - 일식·회집"},{"name":"문미용실","tel":"031-792-6830","addr":"경기도 하남시 풍산동 477번지 미사강변동원로얄듀크 제상가 308동 지1층 108호","category":"보건위생 - 미용원"},{"name":"세븐일레븐마사동원점","tel":"031-1577-0711","addr":"경기도 하남시 풍산동 477번지 미사동원로얄듀크 308동 117호","category":"유통업 영리 - 편 의 점"},{"name":"송가네푸줏간","tel":"031-793-7936","addr":"경기도 하남시 풍산동 477번지 미사강변동원로얄듀크 상가 308동 111호","category":"음료식품 - 정육점"},{"name":"아이러브 피자앤치킨","tel":"031-794-8744","addr":"경기도 하남시 풍산동 477번지 미사강변동원로얄듀크 1층 109호","category":"일반휴게음식 - 서양음식"},{"name":"아이스크림살래","tel":"","addr":"경기도 하남시 풍산동 477번지 미사강변동원로얄듀크 상가동 307동 105호","category":"음료식품 - 기타음료식품"},{"name":"얌얌치킨 미사점","tel":"031-791-2454","addr":"경기도 하남시 풍산동 477번지 미사강변동원로얄듀크 307동 111호","category":"일반휴게음식 - 일반한식"},{"name":"에르마니또","tel":"","addr":"경기도 하남시 풍산동 477번지 동원로얄듀크 2204동 2402호","category":"신변잡화 - 가방"},{"name":"예쁜미장원","tel":"031-794-0576","addr":"경기도 하남시 풍산동 477번지 미사강변동원로얄듀크 상가 308동 110호","category":"보건위생 - 미용원"},{"name":"으뜸세탁소","tel":"","addr":"경기도 하남시 풍산동 477번지 미사강변동원로얄듀크 상가308동 지1층 112호","category":"수리서비스 - 세탁소"},{"name":"초원반찬","tel":"031-795-4956","addr":"경기도 하남시 풍산동 477번지 미사강변동원로얄듀크 307동 109호","category":"음료식품 - 기타음료식품"},{"name":"커피베이","tel":"031-793-0980","addr":"경기도 하남시 풍산동 477번지 미사강변동원로얄듀크 308동 112호","category":"일반휴게음식 - 서양음식"},{"name":"크린토피아 하남미사 로얄듀크","tel":"031-792-9503","addr":"경기도 하남시 풍산동 477번지 미사강변동원로얄듀크 제상가 307동 107호,108호","category":"수리서비스 - 세탁소"},{"name":"키즈니영어심리미술센터","tel":"","addr":"경기도 하남시 풍산동 477번지 미사강변동원로얄듀크 2201동 105호","category":"학원 - 기타 교육기관"},{"name":"하모니마트","tel":"031-792-0050","addr":"경기도 하남시 풍산동 477번지 미사강변로얄튜크단지내상가 308동 117호","category":"유통업 영리 - 슈퍼마켓"}]},{"lat":"37.546037703","long":"127.19583803","items":[{"name":"THE STYLE","tel":"031-962-5511","addr":"경기도 하남시 풍산동 384번지 1층","category":"가구 - 일반가구"}]},{"lat":"37.558623454","long":"127.19086809","items":[{"name":"Toastar(토스타)","tel":"070-7613-7872","addr":"경기도 하남시 풍산동 544-3번지 101호","category":"일반휴게음식 - 일반한식"},{"name":"뷰티스토리","tel":"031-793-5855","addr":"경기도 하남시 풍산동 544-3번지 1층","category":"보건위생 - 피부미용실"},{"name":"크린위드","tel":"031-796-1533","addr":"경기도 하남시 풍산동 544-3번지 102호","category":"수리서비스 - 세탁소"}]},{"lat":"37.549259957","long":"127.18658967","items":[{"name":"가구갤러리","tel":"031-796-0098","addr":"경기도 하남시 풍산동 223-7번지","category":"가구 - 일반가구"}]},{"lat":"37.548844253","long":"127.1873921","items":[{"name":"가구마을","tel":"031-793-7477","addr":"경기도 하남시 풍산동 227-1번지","category":"가구 - 일반가구"}]},{"lat":"37.552903453","long":"127.18431262","items":[{"name":"가락공판장 신미사지점","tel":"031-794-4414","addr":"경기도 하남시 풍산동 490번지 지식산업센터 106호","category":"유통업 영리 - 슈퍼마켓"},{"name":"도미노피자 하남미사점","tel":"031-796-0028","addr":"경기도 하남시 풍산동 490번지 지식산업센터 1층 103호","category":"일반휴게음식 - 서양음식"},{"name":"파리바게트미사센트럴포레점","tel":"031-794-0482","addr":"경기도 하남시 풍산동 490번지 101호,102호","category":"음료식품 - 제과점"},{"name":"필더자스","tel":"031-792-6633","addr":"경기도 하남시 풍산동 490번지 지식산업센터 502호","category":"가구 - 일반가구"},{"name":"하남 지식산업센터 지정공인중개사사무소","tel":"031-791-5558","addr":"경기도 하남시 풍산동 490번지 지식산업센터 107호","category":"용역 서비스 - 부동산 중개·임대"},{"name":"하남미라지퍼니처","tel":"031-796-0004","addr":"경기도 하남시 풍산동 490번지 105,204,205호","category":"가구 - 일반가구"},{"name":"화덕고깃간 미사강변점","tel":"031-791-7895","addr":"경기도 하남시 풍산동 490번지 지식산업센터 104호","category":"일반휴게음식 - 일반한식"}]},{"lat":"37.557262253","long":"127.19131736","items":[{"name":"가람떡방","tel":"031-791-3375","addr":"경기도 하남시 풍산동 550-1번지 1층","category":"음료식품 - 제과점"},{"name":"알볼로피자 (미사점)","tel":"","addr":"경기도 하남시 풍산동 550-1번지 102호","category":"일반휴게음식 - 서양음식"}]},{"lat":"37.55878563","long":"127.19086849","items":[{"name":"가람모바일","tel":"070-7516-3927","addr":"경기도 하남시 풍산동 544-2번지 101호","category":"사무통신 - 통신기기"},{"name":"미소랑플라워","tel":"02-416-6738","addr":"경기도 하남시 풍산동 544-2번지 1층 104호","category":"문화.취미 - 화원"},{"name":"에벤에셀","tel":"031-796-3838","addr":"경기도 하남시 풍산동 544-2번지 1층 103호","category":"보건위생 - 미용원"}]},{"lat":"37.559208206","long":"127.19142412","items":[{"name":"가온코리아브라인드","tel":"031-796-3570","addr":"경기도 하남시 풍산동 6-13","category":"직물 - 카페트,커튼,천막,지물"}]},{"lat":"37.549097604","long":"127.18670243","items":[{"name":"가운소곱창","tel":"031-795-8117","addr":"경기도 하남시 풍산동 산39-2번지 1층","category":"일반휴게음식 - 일반한식"}]},{"lat":"37.557262975","long":"127.19086467","items":[{"name":"가은능이백숙","tel":"031-791-1192","addr":"경기도 하남시 풍산동 551번지 1층 103호","category":"일반휴게음식 - 일반한식"}]},{"lat":"37.557848972","long":"127.19063979","items":[{"name":"간식집","tel":"0507-1325-2663","addr":"경기도 하남시 풍산동 548번지 101호","category":"문화.취미 - 애완동물"}]},{"lat":"37.556563357","long":"127.18306527","items":[{"name":"감성부엌(반찬가게)","tel":"031-794-9927","addr":"경기도 하남시 풍산동 471번지 미사강변제일풍경채 1동 109호","category":"음료식품 - 기타음료식품"},{"name":"더나은에어컨","tel":"","addr":"경기도 하남시 풍산동 471번지 미사강변제일풍경채 3303동 803호","category":"용역 서비스 - 기타용역서비스"},{"name":"미사동커피","tel":"031-792-2727","addr":"경기도 하남시 풍산동 471번지 미사강변제일풍경채 107호","category":"일반휴게음식 - 서양음식"},{"name":"서울의원","tel":"031-793-8110","addr":"경기도 하남시 풍산동 471번지 미사강변제일풍경채 114호","category":"의원 - 의원"},{"name":"센트럴가온공인중개사사무소","tel":"031-794-7577","addr":"경기도 하남시 풍산동 471번지 근린생활시설1동 104호","category":"용역 서비스 - 부동산 중개·임대"},{"name":"소담히","tel":"","addr":"경기도 하남시 풍산동 471번지 미사강변제일풍경채 1동 106호","category":"음료식품 - 농·축·수산품"},{"name":"풍경채온누리약국","tel":"031-793-0531","addr":"경기도 하남시 풍산동 471번지 미사강변도시 A33BL 제일풍경채단지내상가 113호","category":"약국 - 약국"}]},{"lat":"37.549262672","long":"127.18483566","items":[{"name":"강영감네 닭내장","tel":"031-795-1821","addr":"경기도 하남시 풍산동 218-29번지 1층","category":"일반휴게음식 - 일반한식"}]},{"lat":"37.555233001","long":"127.19259109","items":[{"name":"강원농원","tel":"031-792-8929","addr":"경기도 하남시 풍산동 26","category":"문화.취미 - 화원"}]},{"lat":"37.555313876","long":"127.18703458","items":[{"name":"강일미사점핑다이어트","tel":"","addr":"경기도 하남시 풍산동 514-1번지 바토프라자 3층 301호","category":"건강식품 - 기타건강식품"},{"name":"대성N학원","tel":"031-793-0506","addr":"경기도 하남시 풍산동 514-1번지 바토프라자 401~403호","category":"학원 - 외국어학원"},{"name":"멕시카나 미사강변점","tel":"031-792-9293","addr":"경기도 하남시 풍산동 514-1번지 바토프라자 1층 110호","category":"일반휴게음식 - 스넥"},{"name":"뮤직스토리음악학원","tel":"070-8836-1753","addr":"경기도 하남시 풍산동 514-1번지 바토프라자 4층 405,406호","category":"학원 - 예·체능계학원"},{"name":"미사연세치과의원","tel":"064-791-1978","addr":"경기도 하남시 풍산동 514-1번지 바토프라자 6층 1호","category":"의원 - 치과의원"},{"name":"에픽스터디학원","tel":"031-796-7909","addr":"경기도 하남시 풍산동 514-1번지 501호,506호","category":"학원 - 보습학원"},{"name":"영쓰데이","tel":"070-6631-7884","addr":"경기도 하남시 풍산동 514-1번지 바토프라자 101호","category":"일반휴게음식 - 서양음식"},{"name":"우주최강도시락 미사강변점","tel":"031-794-3849","addr":"경기도 하남시 풍산동 514-1번지 바토프라자 108호","category":"일반휴게음식 - 일반한식"},{"name":"파크에비뉴영어학원","tel":"","addr":"경기도 하남시 풍산동 514-1번지 바토프라자 503호","category":"학원 - 외국어학원"},{"name":"풍산정육점","tel":"031-791-9193","addr":"경기도 하남시 풍산동 514-1번지 바토프라자 202호","category":"음료식품 - 정육점"},{"name":"하남미사간호학원","tel":"070-7767-8001","addr":"경기도 하남시 풍산동 514-1번지 바토프라자 204,205,206호","category":"학원 - 기능학원"},{"name":"하이그라운드","tel":"","addr":"경기도 하남시 풍산동 514-1번지 701호, 702호, 703호, 704호","category":"레저업소 - 헬스클럽"},{"name":"한돈한우푸줏간(풍산점)","tel":"031-791-9193","addr":"경기도 하남시 풍산동 514-1번지 바토프라자 202, 203호","category":"일반휴게음식 - 일반한식"}]},{"lat":"37.548037965","long":"127.18442531","items":[{"name":"건양회뜨는집","tel":"","addr":"경기도 하남시 풍산동 248-1번지 C-1동 103호","category":"음료식품 - 농·축·수산품"},{"name":"낙현수산","tel":"031-795-5024","addr":"경기도 하남시 풍산동 248-1번지 104호","category":"음료식품 - 농·축·수산품"},{"name":"낙현수산/(주)낙현","tel":"031-795-5024","addr":"경기도 하남시 풍산동 248-1번지 105호","category":"음료식품 - 농·축·수산품"},{"name":"낙현횟집","tel":"031-794-5024","addr":"경기도 하남시 풍산동 248-1번지 2층 202호","category":"일반휴게음식 - 일반한식"},{"name":"와글와글","tel":"031-791-7724","addr":"경기도 하남시 풍산동 248-1번지 C동 1층 101호","category":"음료식품 - 농·축·수산품"},{"name":"와글와글횟집","tel":"031-791-3952","addr":"경기도 하남시 풍산동 248-1번지 C1동 201호 근린생활시설","category":"일반휴게음식 - 일반한식"},{"name":"해궁마당","tel":"031-792-0983","addr":"경기도 하남시 풍산동 248-1번지 C1동 202,203호","category":"일반휴게음식 - 일반한식"}]},{"lat":"37.55576272","long":"127.18808818","items":[{"name":"계경순대국","tel":"","addr":"경기도 하남시 풍산동 517-1번지 미사스타프라자 2층 205호","category":"일반휴게음식 - 일반한식"}]},{"lat":"37.558479567","long":"127.19069796","items":[{"name":"고래식당 미사중앙로점","tel":"031-793-8111","addr":"경기도 하남시 풍산동 543-5번지","category":"일반휴게음식 - 일반한식"}]},{"lat":"37.555455159","long":"127.18886831","items":[{"name":"고메 에비뉴(Gourmet Ave)","tel":"031-796-7915","addr":"경기도 하남시 풍산동 519-5번지 미사센트럴타워 1층 105호","category":"일반휴게음식 - 서양음식"},{"name":"채움독서실","tel":"031-794-8001","addr":"경기도 하남시 풍산동 519-5번지 미사센트럴타워 4층 401-405호","category":"학원 - 독서실"},{"name":"챙이족발","tel":"","addr":"경기도 하남시 풍산동 519-5번지 미사센트럴타워 104호","category":"일반휴게음식 - 일반한식"},{"name":"한국체대 리더스 태권도장","tel":"031-823-5600","addr":"경기도 하남시 풍산동 519-5번지 미사센트럴타워 301동 303호","category":"학원 - 예·체능계학원"}]},{"lat":"37.554261103","long":"127.18614927","items":[{"name":"골든킥태권도","tel":"031-796-3005","addr":"경기도 하남시 풍산동 522-1번지 해든마루빌딩 201,202,207,208호","category":"학원 - 예·체능계학원"},{"name":"미사해든약국","tel":"070-7773-9877","addr":"경기도 하남시 풍산동 522-1번지 해든마루빌딩 106호","category":"약국 - 약국"},{"name":"세븐일레븐미사유나이티드점","tel":"031-1577-0711","addr":"경기도 하남시 풍산동 522-1번지 해든마루빌딩 1층 105호","category":"유통업 영리 - 편 의 점"},{"name":"유나이티드병원","tel":"02-1833-2275","addr":"경기도 하남시 풍산동 522-1번지 해든마루빌딩 3,4일부,5층","category":"병원 - 병원"},{"name":"하남시그니처독서실","tel":"031-2576-3353","addr":"경기도 하남시 풍산동 522-1번지 해든마루빌딩 7층","category":"학원 - 독서실"}]},{"lat":"37.554566961","long":"127.18645557","items":[{"name":"골프존파크","tel":"031-791-8752","addr":"경기도 하남시 풍산동 522번지 미사강변블루 7층","category":"레져용품 - 골프용품 전문점"},{"name":"그림갤러리","tel":"","addr":"경기도 하남시 풍산동 522번지 미사강변블루 114호","category":"문화.취미 - 화랑"},{"name":"성원바이오","tel":"","addr":"경기도 하남시 풍산동 522번지 미사강변블루 603호","category":"보건위생 - 의료용품"},{"name":"이비에스스스로배움터 하남강동캠퍼스","tel":"031-000-0000","addr":"경기도 하남시 풍산동 522번지 미사강변블루 6층 605호","category":"학원 - 보습학원"},{"name":"태정메디칼","tel":"031-794-4182","addr":"경기도 하남시 풍산동 522번지 미사강변블루빌딩 6층 601호","category":"보건위생 - 의료용품"},{"name":"하남미사비턴","tel":"","addr":"경기도 하남시 풍산동 522번지 미사강변블루 7층 705호","category":"일반휴게음식 - 주점"},{"name":"홍짜장(미사강변대로점)","tel":"031-794-1492","addr":"경기도 하남시 풍산동 522번지 미사강변블루 111호","category":"일반휴게음식 - 중국식"}]},{"lat":"37.55631742","long":"127.18480754","items":[{"name":"광성유리공업(주)","tel":"031-792-2398","addr":"경기도 하남시 풍산동 167-3번지","category":"건축자재 - 유리"},{"name":"광성유리주식회사","tel":"031-792-1584","addr":"경기도 하남시 풍산동 167-3","category":"건축자재 - 유리"}]},{"lat":"37.555789181","long":"127.1884504","items":[{"name":"국관장 체육관","tel":"","addr":"경기도 하남시 풍산동 517-2번지 4층 404호, 405호","category":"레저업소 - 헬스클럽"},{"name":"미사강변 준 컴퓨터","tel":"031-792-0308","addr":"경기도 하남시 풍산동 517-2번지 에이스프라자 401호","category":"사무통신 - 컴퓨터"},{"name":"숨첼로교습소","tel":"031-8027-4333","addr":"경기도 하남시 풍산동 517-2번지 에이스프라자 403호","category":"학원 - 예·체능계학원"}]},{"lat":"37.558398785","long":"127.19050536","items":[{"name":"국수나무 미사청아초점","tel":"031-793-6760","addr":"경기도 하남시 풍산동 543-6번지","category":"일반휴게음식 - 일반한식"},{"name":"본도시락 하남미사점","tel":"031-796-4282","addr":"경기도 하남시 풍산동 543-6번지 1층","category":"일반휴게음식 - 스넥"}]},{"lat":"37.556372389","long":"127.19559306","items":[{"name":"굳샘영어(GoodSam English)","tel":"","addr":"경기도 하남시 풍산동 573번지 신안인스빌 3207동 304호","category":"학원 - 기타 교육기관"}]},{"lat":"37.557091644","long":"127.19095478","items":[{"name":"굽네치킨미사수변점","tel":"","addr":"경기도 하남시 풍산동 551-10번지 1층","category":"일반휴게음식 - 스넥"}]},{"lat":"37.552591291","long":"127.18222959","items":[{"name":"굿푸드","tel":"02-3289-0793","addr":"경기도 하남시 풍산동 489번지 미사테스타타워 지식산업센터 2층 R215,R216,R217,R218호","category":"일반휴게음식 - 일반한식"},{"name":"김가네김밥","tel":"031-5175-6868","addr":"경기도 하남시 풍산동 489번지 미사테스타타워지식산업센터 지하1층 RB103호","category":"일반휴게음식 - 스넥"},{"name":"드림디포(미사테스타 타워점)","tel":"031-5175-6300","addr":"경기도 하남시 풍산동 489번지 지상 1층 R141호","category":"서적문구 - 문구용품"},{"name":"씨유미사테스타1호점","tel":"02-1577-8007","addr":"경기도 하남시 풍산동 489번지 RB111호, RB112호","category":"유통업 영리 - 편 의 점"},{"name":"씨유미사테스타2호점","tel":"02-1577-8007","addr":"경기도 하남시 풍산동 489번지 1층 109,110호","category":"유통업 영리 - 편 의 점"},{"name":"투게더바이오사이언스","tel":"031-5175-6336","addr":"경기도 하남시 풍산동 489번지 미사테스타타워지식산업센터 9층 23호","category":"서적문구 - 과학기자재"}]},{"lat":"37.550651434","long":"127.18980695","items":[{"name":"귀목분재원","tel":"031-794-1984","addr":"경기도 하남시 풍산동 285-1","category":"문화.취미 - 화원"}]},{"lat":"37.552761547","long":"127.1828411","items":[{"name":"기독교대한감리회 성안교회","tel":"031-794-6870","addr":"경기도 하남시 풍산동 201","category":"신변잡화 - 기념품점"}]},{"lat":"37.549120808","long":"127.18334158","items":[{"name":"기찬전기","tel":"031-792-4141","addr":"경기도 하남시 풍산동 산36-23번지","category":"기타 - 기계공구"},{"name":"성원건축디자인","tel":"031-791-8399","addr":"경기도 하남시 풍산동 산36-23번지 103호","category":"건축자재 - 기타건축자재"}]},{"lat":"37.557149749","long":"127.18839719","items":[{"name":"김가네","tel":"031-792-7311","addr":"경기도 하남시 풍산동 506번지 한강프라자 110호","category":"일반휴게음식 - 스넥"},{"name":"엔큐브PC","tel":"070-7210-4523","addr":"경기도 하남시 풍산동 506번지 한강프라자 503호 ,504,505,506호","category":"레저업소 - 기타레져업소"},{"name":"차원에듀학원","tel":"031-8027-2600","addr":"경기도 하남시 풍산동 506번지 한강프라자 3층 304-306호","category":"학원 - 보습학원"},{"name":"차한우곱창","tel":"031-796-0069","addr":"경기도 하남시 풍산동 506번지 102호 101호, 102호","category":"일반휴게음식 - 일반한식"},{"name":"펀비어킹","tel":"031-0000-0000","addr":"경기도 하남시 풍산동 506번지 203,204호","category":"일반휴게음식 - 주점"}]},{"lat":"37.557677695","long":"127.19069595","items":[{"name":"꽃그리는아이 2호점","tel":"031-1111-1111","addr":"경기도 하남시 풍산동 548-5번지","category":"일반휴게음식 - 서양음식"}]},{"lat":"37.548654693","long":"127.18761795","items":[{"name":"꽃바다","tel":"031-796-2395","addr":"경기도 하남시 풍산동 229-1번지 101호","category":"문화.취미 - 화원"},{"name":"난팜","tel":"031-792-9194","addr":"경기도 하남시 풍산동 229-1번지","category":"문화.취미 - 화원"},{"name":"축복농원","tel":"031-792-9966","addr":"경기도 하남시 풍산동 229-1번지","category":"문화.취미 - 화원"}]},{"lat":"37.556150266","long":"127.18800992","items":[{"name":"꿈냥꿈냥","tel":"","addr":"경기도 하남시 풍산동 515번지 골드프라자 3층 306호","category":"문화.취미 - 애완동물"},{"name":"대독장 미사강변점","tel":"070-7529-8843","addr":"경기도 하남시 풍산동 515번지 골드프라자 1층 102호","category":"일반휴게음식 - 일반한식"},{"name":"동궁찜닭 하남미사점","tel":"031-792-9756","addr":"경기도 하남시 풍산동 515번지 골드프라자 2층 205호","category":"일반휴게음식 - 일반한식"},{"name":"두바이 짐","tel":"031-795-0994","addr":"경기도 하남시 풍산동 515번지 골드프라자 4층 405호","category":"레저업소 - 헬스클럽"},{"name":"베스트올","tel":"","addr":"경기도 하남시 풍산동 515번지 골드프라자 1층 109호","category":"유통업 영리 - 편 의 점"},{"name":"어썸팩토리미사센트럴플레이스독서실","tel":"031-793-8878","addr":"경기도 하남시 풍산동 515번지 골드프라자 5층 501,502,503,508호","category":"학원 - 독서실"},{"name":"오븐마루","tel":"031-794-5092","addr":"경기도 하남시 풍산동 515번지 103,104호","category":"일반휴게음식 - 스넥"},{"name":"이디야(EDIYA)","tel":"","addr":"경기도 하남시 풍산동 515번지 골드프라자 116,117,118호","category":"일반휴게음식 - 서양음식"},{"name":"잇츠헤어","tel":"031-793-5332","addr":"경기도 하남시 풍산동 515번지 골드프라자 112호","category":"보건위생 - 미용원"},{"name":"차밍에스테틱","tel":"031-793-8077","addr":"경기도 하남시 풍산동 515번지 골드프라자 307호","category":"보건위생 - 피부미용실"},{"name":"태드 (TAD)미술학원","tel":"031-792-3020","addr":"경기도 하남시 풍산동 515번지 골드프라자 5층 504,505호","category":"학원 - 예·체능계학원"},{"name":"훈마루","tel":"031-791-3121","addr":"경기도 하남시 풍산동 515번지 201~204.208호","category":"일반휴게음식 - 일반한식"},{"name":"훈민정음","tel":"031-791-0103","addr":"경기도 하남시 풍산동 515번지 골드프라자 111호","category":"사무통신 - 통신기기"}]},{"lat":"37.558929841","long":"127.1908349","items":[{"name":"끄러모아","tel":"031-791-5675","addr":"경기도 하남시 풍산동 544-1번지 101호","category":"보건위생 - 미용원"},{"name":"다드림휴","tel":"","addr":"경기도 하남시 풍산동 544-1번지 1층 102호","category":"가구 - 기타가구"},{"name":"서카컴퍼니","tel":"031-111-1111","addr":"경기도 하남시 풍산동 544-1번지 1동 103호","category":"레져용품 - 스포츠·레져용품"},{"name":"아이스크림 살래","tel":"","addr":"경기도 하남시 풍산동 544-1번지 102호","category":"음료식품 - 기타음료식품"}]},{"lat":"37.559682035","long":"127.18806393","items":[{"name":"나누미카페/하남시장애인복지관","tel":"070-8859-2959","addr":"경기도 하남시 풍산동 산58-5번지","category":"일반휴게음식 - 서양음식"},{"name":"하남시장애인복지관","tel":"031-794-2266","addr":"경기도 하남시 풍산동 산58-5번지","category":"학원 - 기타 교육기관"},{"name":"하남시장애인복지관 나누미카페","tel":"031-794-2266","addr":"경기도 하남시 풍산동 산58-5번지","category":"일반휴게음식 - 서양음식"}]},{"lat":"37.559092017","long":"127.19083531","items":[{"name":"나무","tel":"031-000-0000","addr":"경기도 하남시 풍산동 544번지 101호","category":"의류 - 정장"},{"name":"명품리폼 수선점","tel":"031-792-8565","addr":"경기도 하남시 풍산동 544번지 104호","category":"수리서비스 - 세탁소"},{"name":"오마뎅 미사강변중앙점","tel":"031-793-5330","addr":"경기도 하남시 풍산동 544번지 1층 103호","category":"일반휴게음식 - 서양음식"}]},{"lat":"37.548677192","long":"127.18473239","items":[{"name":"나벨라(NAVELLA)","tel":"031-791-3320","addr":"경기도 하남시 풍산동 218-55번지 204호","category":"일반휴게음식 - 서양음식"}]},{"lat":"37.557816439","long":"127.18842148","items":[{"name":"나이스가이 미사강변점","tel":"031-792-2004","addr":"경기도 하남시 풍산동 502-1번지 상아프라자2 1층 110호","category":"보건위생 - 미용원"},{"name":"미사 우리한의원","tel":"031-795-1015","addr":"경기도 하남시 풍산동 502-1번지 상아프라자 4층 401호","category":"의원 - 한의원"},{"name":"미사상회","tel":"070-7737-9900","addr":"경기도 하남시 풍산동 502-1번지 상아프라자 108호","category":"일반휴게음식 - 일반한식"},{"name":"베이비플래닛","tel":"031-795-8014","addr":"경기도 하남시 풍산동 502-1번지 상아프라자2,4층 402호, 403호","category":"의류 - 아동의류"},{"name":"웅쌤수학학원","tel":"","addr":"경기도 하남시 풍산동 502-1번지 상아프라자2 301호","category":"학원 - 보습학원"},{"name":"제이엠팝퓰러","tel":"031-111-1111","addr":"경기도 하남시 풍산동 502-1번지 상아프라자2 1층 109호","category":"의류 - 정장"}]},{"lat":"37.557593713","long":"127.19250653","items":[{"name":"나인쿱(9coup)","tel":"","addr":"경기도 하남시 풍산동 565번지 미사강변아란티움 2501동 2102호","category":"서적문구 - 문구용품"},{"name":"동글이 마차 과일","tel":"031-795-6334","addr":"경기도 하남시 풍산동 565번지 미사강변아란티움 상가동 106호","category":"음료식품 - 농·축·수산품"},{"name":"동글이마차","tel":"031-795-6333","addr":"경기도 하남시 풍산동 565번지 상가동 1층 104호","category":"음료식품 - 기타음료식품"},{"name":"떴다아이스크림할인점","tel":"031-000-0000","addr":"경기도 하남시 풍산동 565번지 상가동 105호","category":"음료식품 - 기타음료식품"},{"name":"로또마트","tel":"031-794-6668","addr":"경기도 하남시 풍산동 565번지 미사강변아란티움 단지내사가 1층 101호","category":"유통업 영리 - 슈퍼마켓"},{"name":"세븐일레븐미사아란티움점","tel":"031-1577-0711","addr":"경기도 하남시 풍산동 565번지 미사강변아란티움 상가동 111호","category":"유통업 영리 - 편 의 점"},{"name":"아카헤어","tel":"031-796-1886","addr":"경기도 하남시 풍산동 565번지 미사강변아란티움 상가동 1층 107호","category":"보건위생 - 미용원"},{"name":"조이스영어공부방","tel":"","addr":"경기도 하남시 풍산동 565번지 미사강변아란티움 2502동 104호","category":"학원 - 기타 교육기관"},{"name":"테니스2013","tel":"031-000-0000","addr":"경기도 하남시 풍산동 565번지 미사강변아란티움 2502동 2703호","category":"레저업소 - 헬스클럽"}]},{"lat":"37.556095425","long":"127.18850775","items":[{"name":"날마다","tel":"","addr":"경기도 하남시 풍산동 515-2번지 홍우프라자 1층 117호","category":"일반휴게음식 - 서양음식"},{"name":"미사 진 내과","tel":"031-793-9790","addr":"경기도 하남시 풍산동 515-2번지 홍우프라자 4층 403,404,405호","category":"의원 - 의원"},{"name":"올바른약국","tel":"031-792-1238","addr":"경기도 하남시 풍산동 515-2번지 홍우프라자 109호","category":"약국 - 약국"},{"name":"위버지니어스 미사점","tel":"031-8027-8500","addr":"경기도 하남시 풍산동 515-2번지 홍우프라자 505호 506호 507호 508호","category":"학원 - 기타 교육기관"},{"name":"이마트24 미사홍우점","tel":"031-1111-1111","addr":"경기도 하남시 풍산동 515-2번지 홍우프라자 1층 114호","category":"유통업 영리 - 편 의 점"},{"name":"최상위수학교습소","tel":"","addr":"경기도 하남시 풍산동 515-2번지 홍우프라자 3층 302호","category":"학원 - 보습학원"},{"name":"튼튼영어 베이비리그 하남센터","tel":"031-794-2225","addr":"경기도 하남시 풍산동 515-2번지 홍우프라자 303호~305호","category":"서적문구 - 일반서적"},{"name":"튼튼영어 베이비리그 하남센터","tel":"031-794-2225","addr":"경기도 하남시 풍산동 515-2번지 홍우프라자 303동 305호","category":"서적문구 - 일반서적"}]},{"lat":"37.556902006","long":"127.19122592","items":[{"name":"날쌘카페","tel":"031-794-8582","addr":"경기도 하남시 풍산동 551-4번지 1층","category":"일반휴게음식 - 서양음식"}]},{"lat":"37.548928489","long":"127.18536671","items":[{"name":"남대감댁물회냉면","tel":"031-793-4301","addr":"경기도 하남시 풍산동 223-12번지 1층 B호","category":"일반휴게음식 - 스넥"},{"name":"남대감댁수산","tel":"031-793-4322","addr":"경기도 하남시 풍산동 223-12번지 1번 A호","category":"음료식품 - 농·축·수산품"}]},{"lat":"37.555291398","long":"127.19547711","items":[{"name":"남매석재","tel":"031-793-7652","addr":"경기도 하남시 풍산동 40-41","category":"건축자재 - 목재·석재·철물"}]},{"lat":"37.555736258","long":"127.18772597","items":[{"name":"네일아띠","tel":"031-794-4179","addr":"경기도 하남시 풍산동 517번지 골든프라자 102호","category":"보건위생 - 피부미용실"},{"name":"이재우 Baseballism","tel":"070-4686-9412","addr":"경기도 하남시 풍산동 517번지 골든프라자 5층 503호,504호,505호,506호","category":"학원 - 예·체능계학원"},{"name":"허스키 미사점","tel":"031-793-9490","addr":"경기도 하남시 풍산동 517번지 골든프라자 302호","category":"일반휴게음식 - 일식·회집"}]},{"lat":"37.556929342","long":"127.19103359","items":[{"name":"노랑통닭 미사2호점","tel":"031-791-5288","addr":"경기도 하남시 풍산동 551-9번지 파크빌 1층","category":"일반휴게음식 - 일반한식"}]},{"lat":"37.547427757","long":"127.18281696","items":[{"name":"늘푸른수성","tel":"031-793-6006","addr":"경기도 하남시 풍산동 254-2번지","category":"직물 - 옷감·직물"}]},{"lat":"37.555178724","long":"127.19272676","items":[{"name":"다봄 소아청소년과의원","tel":"031-699-8351","addr":"경기도 하남시 풍산동 568번지 이편한세상미사 4층 403호","category":"의원 - 의원"},{"name":"아소비 미사27단지","tel":"","addr":"경기도 하남시 풍산동 568번지 이편한세상미사 101동 2505호","category":"학원 - 기타 교육기관"},{"name":"예음원피아노교습소","tel":"031-793-5947","addr":"경기도 하남시 풍산동 568번지 이편한세상미사 1층 101호","category":"학원 - 예·체능계학원"},{"name":"옌플라워","tel":"","addr":"경기도 하남시 풍산동 568번지 이편한세상미사 101동 1502호","category":"문화.취미 - 화원"},{"name":"위니잉글리쉬(Winnie English)교습소","tel":"031-2640-0588","addr":"경기도 하남시 풍산동 568번지 이편한세상미사 102호","category":"학원 - 외국어학원"},{"name":"율피아노","tel":"","addr":"경기도 하남시 풍산동 568번지 이편한세상미사 104동 103호","category":"학원 - 기타 교육기관"}]},{"lat":"37.556509538","long":"127.1887238","items":[{"name":"닥터맘소아청소년과의원","tel":"031-793-8275","addr":"경기도 하남시 풍산동 507-2번지 워너비프라자 302,303호","category":"의원 - 의원"},{"name":"미사세원약국","tel":"031-793-8591","addr":"경기도 하남시 풍산동 507-2번지 워너비프라자 1층 106호","category":"약국 - 약국"},{"name":"선경석테니스아카데미(하남미사점)","tel":"","addr":"경기도 하남시 풍산동 507-2번지 워너비프라자 B1층 101,102호","category":"레저업소 - 테니스장"}]},{"lat":"37.556982697","long":"127.1914751","items":[{"name":"달달카롱","tel":"031-1111-1111","addr":"경기도 하남시 풍산동 550-3번지 1층 101호","category":"음료식품 - 제과점"},{"name":"우리집 강아지","tel":"031-792-6668","addr":"경기도 하남시 풍산동 550-3번지 103호","category":"문화.취미 - 애완동물"},{"name":"이끌림 미사 1호점","tel":"031-000-0000","addr":"경기도 하남시 풍산동 550-3번지 1층 102호","category":"음료식품 - 기타음료식품"},{"name":"후야분식","tel":"031-795-8784","addr":"경기도 하남시 풍산동 550-3번지 104호","category":"일반휴게음식 - 스넥"}]},{"lat":"37.557758153","long":"127.19109226","items":[{"name":"달콤테이블","tel":"","addr":"경기도 하남시 풍산동 549-3번지 103호","category":"일반휴게음식 - 서양음식"},{"name":"블링제이","tel":"070-4240-5485","addr":"경기도 하남시 풍산동 549-3번지 102호","category":"보건위생 - 피부미용실"},{"name":"아미띠에 케이크","tel":"","addr":"경기도 하남시 풍산동 549-3번지 103호","category":"음료식품 - 제과점"}]},{"lat":"37.548425526","long":"127.18433572","items":[{"name":"대박소망수산","tel":"031-791-5446","addr":"경기도 하남시 풍산동 250-5번지 수산물복합단지 E1동 102호","category":"음료식품 - 농·축·수산품"},{"name":"무진수산","tel":"031-792-7747","addr":"경기도 하남시 풍산동 250-5번지 1층","category":"음료식품 - 농·축·수산품"},{"name":"미사리유통","tel":"031-846-5206","addr":"경기도 하남시 풍산동 250-5번지 E 1동 101호 근린생활시설","category":"음료식품 - 기타음료식품"},{"name":"우현세민수산","tel":"031-000-0000","addr":"경기도 하남시 풍산동 250-5번지 E1동 104호","category":"음료식품 - 농·축·수산품"},{"name":"해랑","tel":"031-794-2228","addr":"경기도 하남시 풍산동 250-5번지 외5필지2층202,203호","category":"일반휴게음식 - 일반한식"},{"name":"해랑","tel":"031-794-2228","addr":"경기도 하남시 풍산동 250-5번지 외5필지,하남수산물복합단지 E1동202,203호","category":"일반휴게음식 - 일반한식"},{"name":"해랑","tel":"031-794-2228","addr":"경기도 하남시 풍산동 250-5번지 2층 202호,203호","category":"일반휴게음식 - 일반한식"},{"name":"해랑수산","tel":"031-792-2024","addr":"경기도 하남시 풍산동 250-5번지 1층 102호","category":"음료식품 - 농·축·수산품"}]},{"lat":"37.557704491","long":"127.19084314","items":[{"name":"대성상사","tel":"031-479-1199","addr":"경기도 하남시 풍산동 548-2번지 1층","category":"유통업 영리 - 기타유통업"},{"name":"회먹고싶은날","tel":"","addr":"경기도 하남시 풍산동 548-2번지 1층","category":"음료식품 - 농·축·수산품"}]},{"lat":"37.549760245","long":"127.18351286","items":[{"name":"대성에너지","tel":"031-796-9204","addr":"경기도 하남시 풍산동 217-26","category":"건축자재 - 보일러·펌프·샷시"}]},{"lat":"37.555646974","long":"127.18720516","items":[{"name":"대왕참치","tel":"031-793-3787","addr":"경기도 하남시 풍산동 514번지 제일아이조움 2층 204호","category":"일반휴게음식 - 일식·회집"},{"name":"더 착한수학","tel":"","addr":"경기도 하남시 풍산동 514번지 제일아이조움 505호","category":"학원 - 보습학원"},{"name":"라온음악학원","tel":"031-793-3565","addr":"경기도 하남시 풍산동 514번지 제일아이조움 7층 701호","category":"학원 - 예·체능계학원"},{"name":"미사하늬삼성영어학원","tel":"031-791-0594","addr":"경기도 하남시 풍산동 514번지 제일아이조움 5층 502호","category":"학원 - 외국어학원"},{"name":"봉봉아르떼","tel":"","addr":"경기도 하남시 풍산동 514번지 제일아이조움 705호","category":"학원 - 예·체능계학원"},{"name":"브릴리언트 독서실","tel":"031-8027-3964","addr":"경기도 하남시 풍산동 514번지 604,605호","category":"학원 - 독서실"},{"name":"브릴리언트어학원","tel":"031-8027-3974","addr":"경기도 하남시 풍산동 514번지 제일아이조움 6층 601호,602호,603호","category":"학원 - 외국어학원"},{"name":"수학의달인학원 (미사한홀초점)","tel":"031-000-0000","addr":"경기도 하남시 풍산동 514번지 제일아이조움 504호","category":"학원 - 보습학원"},{"name":"아이작 미사점","tel":"031-794-9166","addr":"경기도 하남시 풍산동 514번지 제일아이조움 104호","category":"보건위생 - 안경"},{"name":"정직한 야채총각","tel":"","addr":"경기도 하남시 풍산동 514번지 1층 107호 제일아이조웅","category":"음료식품 - 농·축·수산품"},{"name":"최용훈국어전문학원","tel":"031-791-3868","addr":"경기도 하남시 풍산동 514번지 제일아이조움 5층 503호","category":"학원 - 보습학원"}]},{"lat":"37.55653786","long":"127.18205797","items":[{"name":"대현무역","tel":"031-512-7394","addr":"경기도 하남시 풍산동 169-2","category":"의류 - 기타의류"}]},{"lat":"37.547316623","long":"127.18478567","items":[{"name":"대호농산유통","tel":"031-796-6235","addr":"경기도 하남시 풍산동 246-11번지 102호","category":"음료식품 - 농·축·수산품"}]},{"lat":"37.548127471","long":"127.18481027","items":[{"name":"대흥수산","tel":"031-792-5653","addr":"경기도 하남시 풍산동 245-10번지 하남수산물복합단지 B1-102","category":"음료식품 - 농·축·수산품"},{"name":"돌산수산","tel":"031-792-2768","addr":"경기도 하남시 풍산동 245-10번지 B1동 106호","category":"음료식품 - 농·축·수산품"},{"name":"위드미","tel":"031-795-8991","addr":"경기도 하남시 풍산동 245-10번지 B1-107(218-42하남수산물복합단지(B1-107,B1-108))","category":"유통업 영리 - 편 의 점"},{"name":"인터프라임트레이딩(주)","tel":"031-111-1111","addr":"경기도 하남시 풍산동 245-10번지 B동 109호","category":"음료식품 - 농·축·수산품"},{"name":"천지수산","tel":"031-796-7885","addr":"경기도 하남시 풍산동 245-10번지 B1동 110호","category":"음료식품 - 농·축·수산품"},{"name":"피싱노래연습장","tel":"031-794-0746","addr":"경기도 하남시 풍산동 245-10번지 B1동3층302,303호","category":"레저업소 - 노 래 방"}]},{"lat":"37.55279049","long":"127.19311679","items":[{"name":"도날드음향","tel":"031-795-2459","addr":"경기도 하남시 풍산동 81-12","category":"레져용품 - 악기점"}]},{"lat":"37.546397966","long":"127.19591817","items":[{"name":"도레도레","tel":"031-795-5132","addr":"경기도 하남시 풍산동 386-1번지 3층","category":"일반휴게음식 - 스넥"}]},{"lat":"37.55714918","long":"127.18875934","items":[{"name":"도자기 봄","tel":"","addr":"경기도 하남시 풍산동 506-1번지 한강프라자2 4층 404호","category":"문화.취미 - 민예·공예품"},{"name":"베리베베","tel":"031-796-8887","addr":"경기도 하남시 풍산동 506-1번지 한강프라자2 501,502호","category":"광학제품 - 사진관"},{"name":"벨(Belle)보태니컬아트 스튜디오","tel":"","addr":"경기도 하남시 풍산동 506-1번지 한강프라자2 4층 403호","category":"문화.취미 - 문화취미기타"},{"name":"오리아동발달센터","tel":"031-796-5256","addr":"경기도 하남시 풍산동 506-1번지 한강프라자2 506호","category":"보건위생 - 기타대인서비스"},{"name":"하남미사 자라다남아미술학원","tel":"031-8027-0567","addr":"경기도 하남시 풍산동 506-1번지 한강프라자2 4층 401,402호","category":"학원 - 예·체능계학원"},{"name":"한강마트","tel":"031-795-0024","addr":"경기도 하남시 풍산동 506-1번지 한강프라자2 101호","category":"유통업 영리 - 슈퍼마켓"}]},{"lat":"37.558119787","long":"127.19031226","items":[{"name":"돈떡","tel":"031-795-1190","addr":"경기도 하남시 풍산동 546-2번지 1층 102호","category":"일반휴게음식 - 일반한식"},{"name":"라떼킹","tel":"02-0000-0000","addr":"경기도 하남시 풍산동 546-2번지 1층","category":"일반휴게음식 - 일반한식"}]},{"lat":"37.552567787","long":"127.19153188","items":[{"name":"동운주유소","tel":"031-794-5189","addr":"경기도 하남시 풍산동 84-1번지","category":"연료판매점 - 현대정유(오일뱅크)"}]},{"lat":"37.540762236","long":"127.18750796","items":[{"name":"동일축산유통","tel":"031-794-5203","addr":"경기도 하남시 풍산동 427-5 외1필지","category":"음료식품 - 정육점"}]},{"lat":"37.540986098","long":"127.18839108","items":[{"name":"두발기계","tel":"031-796-8968","addr":"경기도 하남시 풍산동 427-1","category":"기타 - 기계공구"},{"name":"안터산업","tel":"031-792-2924","addr":"경기도 하남시 풍산동 427-1번지","category":"주방용구 - 주방용구"}]},{"lat":"37.557789978","long":"127.18805925","items":[{"name":"드블랑","tel":"","addr":"경기도 하남시 풍산동 502번지 승리타워 109호","category":"의류 - 정장"},{"name":"렉슬학원","tel":"031-1111-1111","addr":"경기도 하남시 풍산동 502번지 승리타워 6층 603호","category":"학원 - 보습학원"},{"name":"루구스영어전문학원","tel":"031-792-5553","addr":"경기도 하남시 풍산동 502번지 승리타워 5층 502호","category":"학원 - 보습학원"},{"name":"맛에 반하다","tel":"031-796-3326","addr":"경기도 하남시 풍산동 502번지 승리타워 203호","category":"일반휴게음식 - 일반한식"},{"name":"메가커피","tel":"031-792-5180","addr":"경기도 하남시 풍산동 502번지 승리타워 1층 108호","category":"일반휴게음식 - 서양음식"},{"name":"미사봄날치과","tel":"031-796-7590","addr":"경기도 하남시 풍산동 502번지 승리타워 303호","category":"의원 - 치과의원"},{"name":"바른필라테스&피티이엠에스(PTems)","tel":"031-8028-1707","addr":"경기도 하남시 풍산동 502번지 승리타워 601호","category":"레저업소 - 헬스클럽"},{"name":"새별약국","tel":"031-792-7898","addr":"경기도 하남시 풍산동 502번지 승리타워 1층 103호","category":"약국 - 약국"},{"name":"스타덤PC 하남풍산점","tel":"070-4785-8908","addr":"경기도 하남시 풍산동 502번지 3층 301호,302호","category":"수리서비스 - 사무·통신기기수리"},{"name":"이맥스 영어학원","tel":"031-795-1579","addr":"경기도 하남시 풍산동 502번지 승리타워 6층 602호","category":"학원 - 외국어학원"},{"name":"이삭토스트(하남고교점)","tel":"031-796-0301","addr":"경기도 하남시 풍산동 502번지 승리타워 107호","category":"일반휴게음식 - 서양음식"},{"name":"작심독서실 하남미사역점","tel":"","addr":"경기도 하남시 풍산동 502번지 승리타워 7층 701호,702호,703호","category":"학원 - 독서실"},{"name":"찰스치킨 미사강변점","tel":"031-792-3535","addr":"경기도 하남시 풍산동 502번지 승리타워 201호","category":"일반휴게음식 - 서양음식"}]},{"lat":"37.543348973","long":"127.18692594","items":[{"name":"디에스영농조합법인","tel":"031-795-5563","addr":"경기도 하남시 풍산동 산30-3번지","category":"음료식품 - 농·축·수산품"}]},{"lat":"37.553982185","long":"127.18589961","items":[{"name":"라이프요양병원","tel":"031-795-4900","addr":"경기도 하남시 풍산동 522-2번지 3층,4층,5층,6층,7층","category":"병원 - 병원"}]},{"lat":"37.553649085","long":"127.18572904","items":[{"name":"락파스타","tel":"","addr":"경기도 하남시 풍산동 522-3번지 위너스프라자 2층","category":"일반휴게음식 - 서양음식"},{"name":"바비박스 하남미사점","tel":"031-794-7388","addr":"경기도 하남시 풍산동 522-3번지 위너스프라자 2층 210호","category":"일반휴게음식 - 일반한식"},{"name":"빚짜 딜리버리 미사점","tel":"","addr":"경기도 하남시 풍산동 522-3번지 위너스프라자 2층 209,209-1호","category":"일반휴게음식 - 서양음식"},{"name":"오션차일드 미사센터","tel":"031-796-0877","addr":"경기도 하남시 풍산동 522-3번지 위너스프라자 B102호","category":"레저업소 - 수 영 장"},{"name":"이마트24 하남위너스점","tel":"","addr":"경기도 하남시 풍산동 522-3번지 위너스프라자 104,104-1호","category":"유통업 영리 - 편 의 점"},{"name":"지구아이(Gkooi)","tel":"","addr":"경기도 하남시 풍산동 522-3번지 위너스프라자 2층 210-1호","category":"일반휴게음식 - 일반한식"}]},{"lat":"37.55137348","long":"127.19464092","items":[{"name":"레지나 엔터프라이즈","tel":"031-793-0611","addr":"경기도 하남시 풍산동 348-2","category":"기타 - 기계공구"}]},{"lat":"37.556847459","long":"127.19153135","items":[{"name":"로즈앤마리","tel":"","addr":"경기도 하남시 풍산동 550-4번지 1층 102호","category":"의류 - 정장"},{"name":"로즈앤마리(ROSE&MARY)","tel":"031-793-5429","addr":"경기도 하남시 풍산동 550-4번지 102호","category":"의류 - 정장"},{"name":"뷰티네일","tel":"031-793-0063","addr":"경기도 하남시 풍산동 550-4번지 103호","category":"보건위생 - 피부미용실"},{"name":"올댓브래드","tel":"032-999-9999","addr":"경기도 하남시 풍산동 550-4번지 101호","category":"음료식품 - 제과점"}]},{"lat":"37.556595673","long":"127.19122515","items":[{"name":"록시드갸토 하남미사점","tel":"031-793-2969","addr":"경기도 하남시 풍산동 551-7번지 101호","category":"일반휴게음식 - 서양음식"}]},{"lat":"37.547095766","long":"127.18776121","items":[{"name":"루와사","tel":"031-795-2177","addr":"경기도 하남시 풍산동 237번지","category":"문화.취미 - 화원"}]},{"lat":"37.558007559","long":"127.18719965","items":[{"name":"마노분식","tel":"031-791-5059","addr":"경기도 하남시 풍산동 480번지 미사강변센트럴자이 1층","category":"일반휴게음식 - 일반한식"},{"name":"메이저라이센싱","tel":"","addr":"경기도 하남시 풍산동 480번지 미사강변센트럴자이 107동 28층 3호","category":"신변잡화 - 기타잡화"},{"name":"뮤엠영어","tel":"031-791-0082","addr":"경기도 하남시 풍산동 480번지 미사강변센트럴자이 104동 101호","category":"학원 - 기타 교육기관"},{"name":"미사강변센트럴자이 입주자대표회의","tel":"031-796-7845","addr":"경기도 하남시 풍산동 480번지 미사강변센트럴자이 1층","category":"음료식품 - 기타음료식품"},{"name":"민속반찬","tel":"","addr":"경기도 하남시 풍산동 480번지 미사강변센트럴자이 상가동 107호","category":"음료식품 - 기타음료식품"},{"name":"아미에 옷장","tel":"","addr":"경기도 하남시 풍산동 480번지 미사강변센트럴자이 108동 102호","category":"의류 - 정장"},{"name":"오마뎅 미사강변센트럴자이점","tel":"031-791-6544","addr":"경기도 하남시 풍산동 480번지 미사강변센트럴자이 상가 2동 1층 114호","category":"일반휴게음식 - 스넥"},{"name":"오즈핸드메이드","tel":"031-595-2265","addr":"경기도 하남시 풍산동 480번지 미사강변센트럴자이 106동 1302호","category":"문화.취미 - 문화취미기타"},{"name":"자이사랑 세탁전문점","tel":"031-793-3889","addr":"경기도 하남시 풍산동 480번지 미사강변센트럴자이 상가 2동 113호","category":"수리서비스 - 세탁소"},{"name":"죽이야기 미사한홀초교점","tel":"031-790-6233","addr":"경기도 하남시 풍산동 480번지 미사강변센트럴자이 상가 2동 109호","category":"일반휴게음식 - 일반한식"},{"name":"콤비컴퍼니","tel":"02-517-1017","addr":"경기도 하남시 풍산동 480번지 미사강변센트럴자이 112동 1504호","category":"보건위생 - 미용원"},{"name":"한홀음악교습소","tel":"031-791-0978","addr":"경기도 하남시 풍산동 480번지 미사강변센트럴자이 2동 1층 112호","category":"학원 - 예·체능계학원"}]},{"lat":"37.545710545","long":"127.19200117","items":[{"name":"마루유통","tel":"","addr":"경기도 하남시 풍산동 393-62번지","category":"음료식품 - 기타음료식품"}]},{"lat":"37.558903423","long":"127.19045003","items":[{"name":"매일매일","tel":"","addr":"경기도 하남시 풍산동 543-9번지 1층 101호","category":"일반휴게음식 - 일반한식"}]},{"lat":"37.554737553","long":"127.19253325","items":[{"name":"명성난원","tel":"031-794-9184","addr":"경기도 하남시 풍산동 27","category":"문화.취미 - 화원"},{"name":"지리산농원","tel":"031-794-2494","addr":"경기도 하남시 풍산동 27","category":"문화.취미 - 화원"}]},{"lat":"37.551238376","long":"127.18898231","items":[{"name":"명성농원","tel":"02-474-3535","addr":"경기도 하남시 풍산동 291-2번지","category":"문화.취미 - 화원"},{"name":"여주분재","tel":"031-791-8654","addr":"경기도 하남시 풍산동 291-2, 285-2","category":"회원제형태 - 기타4"}]},{"lat":"37.552791655","long":"127.19239252","items":[{"name":"명품난원","tel":"031-791-3608","addr":"경기도 하남시 풍산동 81-4","category":"문화.취미 - 화원"},{"name":"이정희란식물원","tel":"031-793-5733","addr":"경기도 하남시 풍산동 81-4번지","category":"문화.취미 - 화원"}]},{"lat":"37.557815905","long":"127.188761","items":[{"name":"모유사랑","tel":"031-791-4522","addr":"경기도 하남시 풍산동 502-2번지 연세아란빌딩 1층 108호","category":"보건위생 - 기타대인서비스"},{"name":"석관동떡볶이 미사점","tel":"","addr":"경기도 하남시 풍산동 502-2번지 연세아란빌딩 1층 103호","category":"일반휴게음식 - 스넥"},{"name":"아란약국","tel":"031-793-8989","addr":"경기도 하남시 풍산동 502-2번지 연세아란빌딩 (연세여성병원) 1층 106호,107호","category":"약국 - 약국"},{"name":"연세아란산부인과의원","tel":"031-793-7000","addr":"경기도 하남시 풍산동 502-2번지 연세아란빌딩 2-5층","category":"의원 - 의원"},{"name":"연세아란산후조리원","tel":"031-793-7000","addr":"경기도 하남시 풍산동 502-2번지 연세아란빌딩 6층,7층","category":"기타의료기관 - 산후조리원"}]},{"lat":"37.544542886","long":"127.1953363","items":[{"name":"미래개발","tel":"031-429-1980","addr":"경기도 하남시 풍산동 398-3번지","category":"용역 서비스 - 기타용역서비스"}]},{"lat":"37.551732039","long":"127.18440032","items":[{"name":"미사 HAUS-D 스마트밸리","tel":"031-5175-7114","addr":"경기도 하남시 풍산동 490-2번지 하우스디스마트밸리","category":"자동차정비 유지 - 주차장"}]},{"lat":"37.556762541","long":"127.18826042","items":[{"name":"미사 스즈키 바이올린 첼로 학원","tel":"","addr":"경기도 하남시 풍산동 507번지 미사타워 5층 502호","category":"학원 - 예·체능계학원"},{"name":"어린이미술관하루미술학원","tel":"070-4686-9412","addr":"경기도 하남시 풍산동 507번지 5층 504,505호","category":"학원 - 예·체능계학원"},{"name":"점핑 몬스터 미사점","tel":"031-794-4778","addr":"경기도 하남시 풍산동 507번지 4층 402호, 403호, 404호, 405호, 406호","category":"레저업소 - 기타레져업소"}]},{"lat":"37.558011941","long":"127.18437028","items":[{"name":"미사 쥬얼리","tel":"","addr":"경기도 하남시 풍산동 470번지 미사강변동일하이빌 2002동 2104호","category":"신변잡화 - 가방"},{"name":"씨유미사20단지점","tel":"080-080-3663","addr":"경기도 하남시 풍산동 470번지 미사강변동일하이빌 105호","category":"유통업 영리 - 편 의 점"},{"name":"한우리 동일 홈클럽","tel":"","addr":"경기도 하남시 풍산동 470번지 미사강변동일하이빌 2001동 2201호","category":"학원 - 기타 교육기관"}]},{"lat":"37.554677496","long":"127.18489409","items":[{"name":"미사불닭발","tel":"031-795-4492","addr":"경기도 하남시 풍산동 486번지 미사강변더샵센트럴포레 105호","category":"일반휴게음식 - 일반한식"},{"name":"미용실 by 설","tel":"","addr":"경기도 하남시 풍산동 486번지 미사강변 더샵 센트럴포레 2308동 106호","category":"보건위생 - 미용원"},{"name":"불불이족발","tel":"031-791-7092","addr":"경기도 하남시 풍산동 486번지 미사강변더샵센트럴포레 2308(상가)동 1층 104호","category":"일반휴게음식 - 일반한식"},{"name":"비비큐(BBQ)미사강변점","tel":"031-791-7272","addr":"경기도 하남시 풍산동 486번지 상가동 101, 102호","category":"일반휴게음식 - 스넥"},{"name":"생각을키우는독서토론논술","tel":"070-7607-5081","addr":"경기도 하남시 풍산동 486번지 미사강변더샵 센트럴포레 2301호 2401호","category":"학원 - 기타 교육기관"},{"name":"하륜 코스메틱","tel":"","addr":"경기도 하남시 풍산동 486번지 미사강변더샵센트럴포레 2302동 11층 03호","category":"보건위생 - 화장품"}]},{"lat":"37.55739749","long":"127.19126112","items":[{"name":"미사스탑","tel":"032-792-8919","addr":"경기도 하남시 풍산동 550번지 1층 1호","category":"유통업 영리 - 슈퍼마켓"},{"name":"에스샵","tel":"070-9464-8909","addr":"경기도 하남시 풍산동 550번지 1층 101호","category":"신변잡화 - 제화"},{"name":"쭈꾸미와친구들","tel":"031-792-7776","addr":"경기도 하남시 풍산동 550번지 102호","category":"일반휴게음식 - 일반한식"}]},{"lat":"37.54637776","long":"127.19169733","items":[{"name":"미사풍천장어","tel":"031-793-2237","addr":"경기도 하남시 풍산동 448-4번지","category":"일반휴게음식 - 일반한식"}]},{"lat":"37.54876584","long":"127.18567185","items":[{"name":"미사한우요리전문점","tel":"031-792-0500","addr":"경기도 하남시 풍산동 223-38번지","category":"일반휴게음식 - 일반한식"}]},{"lat":"37.554009662","long":"127.19134313","items":[{"name":"미산농원","tel":"031-795-8882","addr":"경기도 하남시 풍산동 91-2","category":"문화.취미 - 화원"},{"name":"월드플라워","tel":"02-477-3018","addr":"경기도 하남시 풍산동 91-2","category":"문화.취미 - 화원"},{"name":"황제농원","tel":"031-792-3311","addr":"경기도 하남시 풍산동 91-2","category":"문화.취미 - 화원"}]},{"lat":"37.549652594","long":"127.18320707","items":[{"name":"미세스미스터","tel":"031-791-0272","addr":"경기도 하남시 풍산동 217-11번지","category":"의류 - 내의판매"},{"name":"한일써비스","tel":"031-793-9040","addr":"경기도 하남시 풍산동 217-11","category":"수리서비스 - 가정용품수리"}]},{"lat":"37.548954958","long":"127.18572889","items":[{"name":"믿음 용역/도시락","tel":"031-796-2121","addr":"경기도 하남시 풍산동 223-35번지 1층","category":"일반휴게음식 - 일반한식"}]},{"lat":"37.552654016","long":"127.18245607","items":[{"name":"방범창","tel":"031-796-3693","addr":"경기도 하남시 풍산동 200-8","category":"건축자재 - 기타건축자재"}]},{"lat":"37.547902788","long":"127.19580889","items":[{"name":"벌키 스포츠","tel":"031-792-3688","addr":"경기도 하남시 풍산동 378-14번지 17호","category":"학원 - 예·체능계학원"}]},{"lat":"37.548346775","long":"127.18280786","items":[{"name":"범광고기획","tel":"031-793-3091","addr":"경기도 하남시 풍산동 253번지","category":"건축자재 - 인테리어전문"}]},{"lat":"37.547541607","long":"127.18495595","items":[{"name":"범선유통","tel":"031-792-3585","addr":"경기도 하남시 풍산동 243-32번지","category":"음료식품 - 농·축·수산품"},{"name":"황산뻘","tel":"031-791-7140","addr":"경기도 하남시 풍산동 243-32번지","category":"일반휴게음식 - 일반한식"}]},{"lat":"37.558930237","long":"127.19058591","items":[{"name":"베베플로르","tel":"031-111-1111","addr":"경기도 하남시 풍산동 543-2번지 지하1층","category":"일반휴게음식 - 서양음식"}]},{"lat":"37.556423945","long":"127.19156423","items":[{"name":"본스테이크(bone steak)","tel":"031-791-3345","addr":"경기도 하남시 풍산동 552-1번지 1층","category":"일반휴게음식 - 서양음식"}]},{"lat":"37.558291063","long":"127.1902561","items":[{"name":"블랙캡 피자","tel":"031-795-9287","addr":"경기도 하남시 풍산동 546-1번지","category":"일반휴게음식 - 서양음식"}]},{"lat":"37.551930199","long":"127.19020623","items":[{"name":"블루밍1004","tel":"02-2060-8282","addr":"경기도 하남시 풍산동 293-9","category":"문화.취미 - 화원"}]},{"lat":"37.549182819","long":"127.18403202","items":[{"name":"빅풋(BIGFOOT)","tel":"031-795-0901","addr":"경기도 하남시 풍산동 218-8번지","category":"자동차정비 유지 - 자동차시트·타이어"}]},{"lat":"37.557569254","long":"127.19089939","items":[{"name":"뽁짝뽁짝","tel":"031-791-1158","addr":"경기도 하남시 풍산동 548-3번지","category":"일반휴게음식 - 일반한식"}]},{"lat":"37.559065599","long":"127.19045044","items":[{"name":"삼천리자전거","tel":"031-794-6181","addr":"경기도 하남시 풍산동 543번지 1층 1호","category":"레져용품 - 스포츠·레져용품"}]},{"lat":"37.555181095","long":"127.19681224","items":[{"name":"삼화A&C","tel":"031-793-2371","addr":"경기도 하남시 풍산동 41-1번지","category":"전기제품 - 냉열기기"}]},{"lat":"37.547513423","long":"127.18570274","items":[{"name":"삼흥시스템","tel":"031-794-5920","addr":"경기도 하남시 풍산동 242-5,창고번호16호","category":"기타 - 기타 전문점"}]},{"lat":"37.551761123","long":"127.18887045","items":[{"name":"서경금속","tel":"031-795-4262","addr":"경기도 하남시 풍산동 97-8","category":"건축자재 - 보일러·펌프·샷시"}]},{"lat":"37.547624573","long":"127.18373403","items":[{"name":"서경희 참치유통","tel":"031-793-6627","addr":"경기도 하남시 풍산동 252-2번지 1층","category":"음료식품 - 농·축·수산품"}]},{"lat":"37.548821732","long":"127.18448379","items":[{"name":"서희수산","tel":"031-792-1608","addr":"경기도 하남시 풍산동 218-66 E4동 102호","category":"음료식품 - 농·축·수산품"}]},{"lat":"37.549787118","long":"127.18361478","items":[{"name":"석산철물건재","tel":"031-792-4933","addr":"경기도 하남시 풍산동 217-21","category":"기타 - 기계공구"}]},{"lat":"37.552481604","long":"127.18906462","items":[{"name":"선길시험기","tel":"02-497-1519","addr":"경기도 하남시 풍산동 98-1번지(풍산350)","category":"서적문구 - 과학기자재"}]},{"lat":"37.55212064","long":"127.18942585","items":[{"name":"성우사","tel":"031-791-6864","addr":"경기도 하남시 풍산동 96-1","category":"신변잡화 - 기타잡화"}]},{"lat":"37.55129231","long":"127.18906166","items":[{"name":"성진화분","tel":"031-794-3580","addr":"경기도 하남시 풍산동 285-2","category":"신변잡화 - 기타잡화"},{"name":"한밭란원","tel":"031-793-9951","addr":"경기도 하남시 풍산동 285-2번지","category":"문화.취미 - 화원"}]},{"lat":"37.551651433","long":"127.18986603","items":[{"name":"성화꽃식물원","tel":"031-796-3735","addr":"경기도 하남시 풍산동 293-4","category":"문화.취미 - 화원"},{"name":"청능화분","tel":"031-791-3155","addr":"경기도 하남시 풍산동 293-4","category":"문화.취미 - 화원"}]},{"lat":"37.551428987","long":"127.18808878","items":[{"name":"세븐일레븐미사마이움스타점","tel":"031-1577-0711","addr":"경기도 하남시 풍산동 529번지 마이움트라이스타 106호","category":"유통업 영리 - 편 의 점"},{"name":"에이엔씨컨설팅 (주)","tel":"02-000-0000","addr":"경기도 하남시 풍산동 529번지 마이움트라이스타 1동 2층 219호","category":"용역 서비스 - 사무서비스"}]},{"lat":"37.559404372","long":"127.19270352","items":[{"name":"세븐일레븐미사브라운스톤점","tel":"031-1577-0711","addr":"경기도 하남시 풍산동 559번지 미사강변브라운스톤엔에이치에프 상가동 101호","category":"유통업 영리 - 편 의 점"},{"name":"용인대 청아 태권도","tel":"031-794-8846","addr":"경기도 하남시 풍산동 559번지 미사강변브라운스톤엔에이치에프 상가동 201,202호,203호","category":"학원 - 예·체능계학원"},{"name":"청아피아노교습소","tel":"","addr":"경기도 하남시 풍산동 559번지 미사강변브라운스톤엔에이치에프 204호","category":"학원 - 예·체능계학원"},{"name":"케이피지에이주원골프아카데미","tel":"","addr":"경기도 하남시 풍산동 559번지 미사강변브라운스톤엔에이치에프 2401동 801호","category":"레저업소 - 골프연습장"},{"name":"키즈짐&다이노스 스포츠","tel":"","addr":"경기도 하남시 풍산동 559번지 미사강변브라운스톤엔에이치에프 2404동 1404호","category":"학원 - 기타 교육기관"}]},{"lat":"37.54906893","long":"127.19342418","items":[{"name":"세븐일레븐미사안강점","tel":"031-1577-0711","addr":"경기도 하남시 풍산동 615번지 미사강변안강프라이빗뷰 상가 103호","category":"유통업 영리 - 편 의 점"},{"name":"에코월드","tel":"031-576-0928","addr":"경기도 하남시 풍산동 615번지 F10층 1042호","category":"레져용품 - 스포츠·레져용품"}]},{"lat":"37.559785951","long":"127.19072387","items":[{"name":"세양산업기계","tel":"031-795-2338","addr":"경기도 하남시 풍산동 8-1","category":"기타 - 기계공구"}]},{"lat":"37.550064964","long":"127.18456602","items":[{"name":"세이프애드","tel":"031-792-7430","addr":"경기도 하남시 풍산동 214-9.A-103","category":"기타 - 기타 전문점"}]},{"lat":"37.546209388","long":"127.19553295","items":[{"name":"세화통상","tel":"02-472-9456","addr":"경기도 하남시 풍산동 392-15번지","category":"기타 - 기계공구"}]},{"lat":"37.556788841","long":"127.1887245","items":[{"name":"센타약국","tel":"031-795-5307","addr":"경기도 하남시 풍산동 507-1번지 1층 109호","category":"약국 - 약국"},{"name":"이안과의원","tel":"02-792-2207","addr":"경기도 하남시 풍산동 507-1번지 센타프라자 3층 306,307호","category":"의원 - 의원"},{"name":"충무손칼국수","tel":"031-792-8991","addr":"경기도 하남시 풍산동 507-1번지 203호","category":"일반휴게음식 - 일반한식"}]},{"lat":"37.553236063","long":"127.19056032","items":[{"name":"송죽식물원","tel":"031-792-3339","addr":"경기도 하남시 풍산동 87","category":"문화.취미 - 화원"}]},{"lat":"37.558064305","long":"127.19120621","items":[{"name":"승봉통상","tel":"031-791-9811","addr":"경기도 하남시 풍산동 13-1풍산392","category":"전기제품 - 가전제품"}]},{"lat":"37.548791152","long":"127.19800652","items":[{"name":"신화코스메틱","tel":"","addr":"경기도 하남시 풍산동 375-2번지","category":"보건위생 - 미용재료"}]},{"lat":"37.548289526","long":"127.19622859","items":[{"name":"심우","tel":"031-971-5024","addr":"경기도 하남시 풍산동 377-5번지","category":"유통업 영리 - 기타유통업"}]},{"lat":"37.558479261","long":"127.19089036","items":[{"name":"씨유미사빌리지점","tel":"031-727-4949","addr":"경기도 하남시 풍산동 544-4번지 101호","category":"유통업 영리 - 편 의 점"}]},{"lat":"37.5493697","long":"127.19684245","items":[{"name":"아띠&Fun","tel":"02-414-5428","addr":"경기도 하남시 풍산동 376-38번지","category":"회원제형태 - 학원"}]},{"lat":"37.545293767","long":"127.18777939","items":[{"name":"아셀","tel":"02-488-1008","addr":"경기도 하남시 풍산동 산30-1번지","category":"가구 - 일반가구"}]},{"lat":"37.547372679","long":"127.18348447","items":[{"name":"어업회사법인유림수산주식회사","tel":"031-793-0214","addr":"경기도 하남시 풍산동 256-2번지 가동","category":"음료식품 - 농·축·수산품"}]},{"lat":"37.549289004","long":"127.18528838","items":[{"name":"에스크랩유통","tel":"031-1577-6331","addr":"경기도 하남시 풍산동 244-13번지 1층","category":"음료식품 - 농·축·수산품"},{"name":"크랩씨푸드","tel":"031-000-0000","addr":"경기도 하남시 풍산동 244-13번지 2층","category":"일반휴게음식 - 일반한식"}]},{"lat":"37.548346309","long":"127.18311339","items":[{"name":"에이치에스주식회사","tel":"070-4323-3411","addr":"경기도 하남시 풍산동 253-1번지","category":"자동차정비 유지 - 자동차정비"}]},{"lat":"37.552426365","long":"127.18981138","items":[{"name":"엔학고레","tel":"032-794-6870","addr":"경기도 하남시 풍산동 533번지","category":"음료식품 - 기타음료식품"}]},{"lat":"37.556757939","long":"127.19116897","items":[{"name":"엘레판트(Elefant)","tel":"031-796-0255","addr":"경기도 하남시 풍산동 551-8번지 (R7 7-4) 1층 전체","category":"일반휴게음식 - 서양음식"}]},{"lat":"37.55711797","long":"127.19139622","items":[{"name":"엘린헤어","tel":"031-794-2015","addr":"경기도 하남시 풍산동 550-2번지","category":"보건위생 - 미용원"},{"name":"카페루시","tel":"031-794-5165","addr":"경기도 하남시 풍산동 550-2번지 1층","category":"일반휴게음식 - 서양음식"}]},{"lat":"37.556043158","long":"127.18736457","items":[{"name":"엠브이엠","tel":"070-3294-8251","addr":"경기도 하남시 풍산동 512번지 해오름프라자 7동 701-705호","category":"레져용품 - 스포츠·레져용품"},{"name":"촌놈집","tel":"031-792-3591","addr":"경기도 하남시 풍산동 512번지 해오름프라자 201호-205호","category":"일반휴게음식 - 일반한식"},{"name":"파워점핑클럽","tel":"031-792-0117","addr":"경기도 하남시 풍산동 512번지 해오름프라자 501동 502호","category":"학원 - 예·체능계학원"},{"name":"피움무용학원","tel":"","addr":"경기도 하남시 풍산동 512번지 해오름프라자 5층 504호","category":"학원 - 예·체능계학원"}]},{"lat":"37.547039108","long":"127.18361946","items":[{"name":"영락노인전문요양원","tel":"031-791-3729","addr":"경기도 하남시 풍산동 256-12번지","category":"기타의료기관 - 기타의료기관 및 기타"}]},{"lat":"37.546485778","long":"127.1860397","items":[{"name":"영락소규모요양원","tel":"031-793-9369","addr":"경기도 하남시 풍산동 260번지","category":"기타의료기관 - 기타의료기관 및 기타"},{"name":"은빛사랑채영락노인주간보호센터","tel":"031-793-9369","addr":"경기도 하남시 풍산동 260번지","category":"기타의료기관 - 기타의료기관 및 기타"}]},{"lat":"37.551873706","long":"127.19173383","items":[{"name":"영재농원","tel":"031-791-1033","addr":"경기도 하남시 풍산동 338-3","category":"문화.취미 - 화원"},{"name":"잉꼬농원","tel":"031-795-7978","addr":"경기도 하남시 풍산동 338-3","category":"문화.취미 - 화원"},{"name":"젊은느티나무","tel":"031-791-8662","addr":"경기도 하남시 풍산동 338-3","category":"문화.취미 - 화원"}]},{"lat":"37.547094273","long":"127.18289537","items":[{"name":"오너스클럽","tel":"031-793-9123","addr":"경기도 하남시 풍산동 255번지","category":"자동차정비 유지 - 자동차정비"},{"name":"주식회사유앤아이","tel":"031-000-0000","addr":"경기도 하남시 풍산동 255번지 1층","category":"전기제품 - 냉열기기"}]},{"lat":"37.547011316","long":"127.18411729","items":[{"name":"오성기계","tel":"031-795-3607","addr":"경기도 하남시 풍산동 256-3번지","category":"기타 - 기계공구"}]},{"lat":"37.547731597","long":"127.1844472","items":[{"name":"오양수산","tel":"031-792-3758","addr":"경기도 하남시 풍산동 247-1번지 씨2-103","category":"음료식품 - 농·축·수산품"},{"name":"오양씨푸드","tel":"031-794-3758","addr":"경기도 하남시 풍산동 247-1번지 202호 203호","category":"일반휴게음식 - 일반한식"},{"name":"오양씨푸드","tel":"031-794-3758","addr":"경기도 하남시 풍산동 247-1번지 하남수산물단지 c2103호,2층202,203","category":"일반휴게음식 - 일반한식"}]},{"lat":"37.556622467","long":"127.19137234","items":[{"name":"오오일-육(551-6)","tel":"","addr":"경기도 하남시 풍산동 551-6번지 101호","category":"일반휴게음식 - 서양음식"}]},{"lat":"37.547986619","long":"127.18847632","items":[{"name":"오형제 손짜장","tel":"031-792-6430","addr":"경기도 하남시 풍산동 232-3번지","category":"일반휴게음식 - 중국식"}]},{"lat":"37.557622916","long":"127.19114851","items":[{"name":"요리와찬","tel":"031-794-1150","addr":"경기도 하남시 풍산동 549-4번지 1층","category":"음료식품 - 기타음료식품"}]},{"lat":"37.558426246","long":"127.1902338","items":[{"name":"우동쯔요시","tel":"","addr":"경기도 하남시 풍산동 546번지 101호","category":"일반휴게음식 - 일식·회집"},{"name":"청아 스시&참치","tel":"","addr":"경기도 하남시 풍산동 546번지 1층 102호","category":"일반휴게음식 - 일식·회집"}]},{"lat":"37.54928776","long":"127.18609182","items":[{"name":"워시존 미사점","tel":"","addr":"경기도 하남시 풍산동 244-40번지","category":"자동차정비 유지 - 세차장"},{"name":"워시존풍산점","tel":"070-7786-5220","addr":"경기도 하남시 풍산동 244-40번지","category":"자동차정비 유지 - 세차장"}]},{"lat":"37.544731289","long":"127.19023348","items":[{"name":"웰쿡","tel":"031-791-1290","addr":"경기도 하남시 풍산동 산30-6번지","category":"가구 - 일반가구"}]},{"lat":"37.558570007","long":"127.19048315","items":[{"name":"유(U 중식당)","tel":"070-7789-1569","addr":"경기도 하남시 풍산동 543-7번지 1층","category":"일반휴게음식 - 중국식"}]},{"lat":"37.558069818","long":"127.18186924","items":[{"name":"율진기계(주)","tel":"02-443-4800","addr":"경기도 하남시 풍산동 168","category":"기타 - 기계공구"}]},{"lat":"37.543598603","long":"127.19425891","items":[{"name":"이마트24 하남힐즈점","tel":"","addr":"경기도 하남시 풍산동 626번지 하남힐즈파크푸르지오2단지 상가동 102호","category":"유통업 영리 - 편 의 점"}]},{"lat":"37.556397132","long":"127.19142836","items":[{"name":"이에스에스 ESS","tel":"031-796-2976","addr":"경기도 하남시 풍산동 552번지 1층 101호","category":"일반휴게음식 - 서양음식"}]},{"lat":"37.548955621","long":"127.19661506","items":[{"name":"일양헬스","tel":"02-1577-9798","addr":"경기도 하남시 풍산동 376-32번지 지하1층","category":"건강식품 - 기타건강식품"}]},{"lat":"37.549040099","long":"127.18309243","items":[{"name":"전주식당","tel":"","addr":"경기도 하남시 풍산동 218-38번지 1층","category":"일반휴게음식 - 일반한식"}]},{"lat":"37.55134124","long":"127.192287","items":[{"name":"정자농원","tel":"031-791-5357","addr":"경기도 하남시 풍산동 338-4","category":"문화.취미 - 화원"}]},{"lat":"37.53951691","long":"127.18876083","items":[{"name":"조은음료","tel":"02-483-7796","addr":"경기도 하남시 풍산동 429-8번지","category":"음료식품 - 기타음료식품"}]},{"lat":"37.550564294","long":"127.18792821","items":[{"name":"주니다육","tel":"031-791-3617","addr":"경기도 하남시 풍산동 290-1,289-5일부포함","category":"문화.취미 - 화원"}]},{"lat":"37.546346522","long":"127.1943112","items":[{"name":"주식회사 두우기술","tel":"031-703-3761","addr":"경기도 하남시 풍산동 618번지 하남테크노밸리 U1 CENTER B동 618호","category":"수리서비스 - 기타수리서비스"}]},{"lat":"37.5579024","long":"127.19103604","items":[{"name":"주식회사 베스타홍돈가","tel":"031-794-6692","addr":"경기도 하남시 풍산동 549-2번지","category":"일반휴게음식 - 일반한식"}]},{"lat":"37.545623473","long":"127.19570118","items":[{"name":"주식회사 웹트리스코리아","tel":"031-1644-5173","addr":"경기도 하남시 풍산동 383-7번지","category":"가구 - 일반가구"}]},{"lat":"37.558092236","long":"127.1906404","items":[{"name":"주식회사 잠실세계로마트 미사지점","tel":"02-417-8890","addr":"경기도 하남시 풍산동 547번지","category":"유통업 영리 - 슈퍼마켓"}]},{"lat":"37.546233331","long":"127.19186671","items":[{"name":"주식회사 푸주옥","tel":"031-796-3982","addr":"경기도 하남시 풍산동 448-5번지","category":"일반휴게음식 - 일반한식"}]},{"lat":"37.54767581","long":"127.18556734","items":[{"name":"주식회사 항도수산","tel":"070-7782-6264","addr":"경기도 하남시 풍산동 243-29번지","category":"음료식품 - 농·축·수산품"}]},{"lat":"37.547842231","long":"127.18862307","items":[{"name":"주식회사현대블루핸즈하남점","tel":"031-795-1551","addr":"경기도 하남시 풍산동 232번지 2층","category":"자동차정비 유지 - 자동차부품"}]},{"lat":"37.546371251","long":"127.19572574","items":[{"name":"주심산업","tel":"02-428-0335","addr":"경기도 하남시 풍산동 386-5번지 1층 1호","category":"용역 서비스 - 기타용역서비스"}]},{"lat":"37.547318485","long":"127.18936862","items":[{"name":"중앙조경","tel":"031-792-7300","addr":"경기도 하남시 풍산동 282-2번지","category":"기타 - 기타 전문점"}]},{"lat":"37.551653308","long":"127.1886778","items":[{"name":"지에스칼텍스(주) 황산주유소","tel":"031-796-5149","addr":"경기도 하남시 풍산동 97-3번지","category":"연료판매점 - GS주유소"}]},{"lat":"37.547624278","long":"127.1839264","items":[{"name":"진영상사","tel":"031-796-0729","addr":"경기도 하남시 풍산동 252-5번지","category":"레져용품 - 스포츠·레져용품"}]},{"lat":"37.54928944","long":"127.18500547","items":[{"name":"진청진동해장국","tel":"031-795-8905","addr":"경기도 하남시 풍산동 218-30번지","category":"일반휴게음식 - 일반한식"}]},{"lat":"37.55859682","long":"127.19061903","items":[{"name":"찜닭먹는 즐거움","tel":"","addr":"경기도 하남시 풍산동 543-4번지","category":"일반휴게음식 - 일반한식"}]},{"lat":"37.547929004","long":"127.19630687","items":[{"name":"창우철강","tel":"031-791-9080","addr":"경기도 하남시 풍산동 379번지","category":"건축자재 - 기타건축자재"}]},{"lat":"37.556483326","long":"127.18820314","items":[{"name":"채움 스킨앤바디","tel":"031-796-6036","addr":"경기도 하남시 풍산동 507-3번지 메인프라자 5층 502호","category":"보건위생 - 피부미용실"},{"name":"카페소화","tel":"","addr":"경기도 하남시 풍산동 507-3번지 메인프라자 3층 305호","category":"일반휴게음식 - 서양음식"},{"name":"파타야","tel":"031-793-8482","addr":"경기도 하남시 풍산동 507-3번지 메인프라자 406호","category":"보건위생 - 화장품"},{"name":"하남 유소년 축구클럽 (미사점)","tel":"031-794-5018","addr":"경기도 하남시 풍산동 507-3번지 503,504,505,506호","category":"학원 - 예·체능계학원"}]},{"lat":"37.547282529","long":"127.1835182","items":[{"name":"천연축산","tel":"031-793-2264","addr":"경기도 하남시 풍산동 256-2번지 나동 2층","category":"음료식품 - 정육점"}]},{"lat":"37.547848167","long":"127.18480959","items":[{"name":"천지수산","tel":"","addr":"경기도 하남시 풍산동 245-2번지 근린생활시설 2동 104호","category":"음료식품 - 농·축·수산품"}]},{"lat":"37.554487416","long":"127.19119721","items":[{"name":"천호농원","tel":"031-791-3456","addr":"경기도 하남시 풍산동 92-1","category":"문화.취미 - 화원"}]},{"lat":"37.548787012","long":"127.18362368","items":[{"name":"천호스텐","tel":"02-488-1005","addr":"경기도 하남시 풍산동 218-67번지","category":"기타 - 기계공구"}]},{"lat":"37.549013277","long":"127.18295657","items":[{"name":"천호철물","tel":"02-483-6666","addr":"경기도 하남시 풍산동 218-34번지","category":"건축자재 - 목재·석재·철물"}]},{"lat":"37.550926251","long":"127.19814788","items":[{"name":"청개구리어린이집[아이행복]","tel":"031-796-3369","addr":"경기도 하남시 풍산동 371-1번지","category":"학원 - 유아원"}]},{"lat":"37.546902546","long":"127.19030681","items":[{"name":"청수","tel":"031-791-7872","addr":"경기도 하남시 풍산동 280-1번지 2층","category":"일반휴게음식 - 일반한식"}]},{"lat":"37.558732237","long":"127.19044961","items":[{"name":"최고집 평양만두","tel":"031-000-0000","addr":"경기도 하남시 풍산동 543-8번지 1층 101호","category":"일반휴게음식 - 일반한식"}]},{"lat":"37.544651446","long":"127.19506501","items":[{"name":"카페 933(cafe 933)","tel":"","addr":"경기도 하남시 풍산동 400-1번지 2층","category":"일반휴게음식 - 서양음식"},{"name":"해송푸드","tel":"031-794-2939","addr":"경기도 하남시 풍산동 400-1번지 외3필지","category":"일반휴게음식 - 일반한식"}]},{"lat":"37.550070458","long":"127.19253274","items":[{"name":"코오롱아우토(주)강동지점","tel":"031-793-0200","addr":"경기도 하남시 풍산동 590-3번지","category":"자동차정비 유지 - 자동차정비"}]},{"lat":"37.55806463","long":"127.19100249","items":[{"name":"크린토피아 코인워시 하남미사 아란티움점","tel":"","addr":"경기도 하남시 풍산동 549-1번지 102호","category":"수리서비스 - 세탁소"},{"name":"하남텔레콤2호점","tel":"031-794-7706","addr":"경기도 하남시 풍산동 549-1번지 101호","category":"사무통신 - 통신기기"}]},{"lat":"37.542155968","long":"127.18928788","items":[{"name":"태양&자연그대로","tel":"031-111-1111","addr":"경기도 하남시 풍산동 424-4번지","category":"음료식품 - 농·축·수산품"}]},{"lat":"37.547318031","long":"127.18386908","items":[{"name":"태인수족관","tel":"031-793-4790","addr":"경기도 하남시 풍산동 256-4번지 1동 우측호","category":"문화.취미 - 수족관"}]},{"lat":"37.548180377","long":"127.18555726","items":[{"name":"털보유통 유한회사","tel":"031-000-0000","addr":"경기도 하남시 풍산동 244-49번지 B동 105호","category":"음료식품 - 농·축·수산품"}]},{"lat":"37.558208877","long":"127.19094627","items":[{"name":"파리바게뜨 미사청아초교점","tel":"","addr":"경기도 하남시 풍산동 549번지","category":"음료식품 - 제과점"}]},{"lat":"37.549066956","long":"127.18320565","items":[{"name":"풍년식당","tel":"031-792-4575","addr":"경기도 하남시 풍산동 218-43번지","category":"일반휴게음식 - 일반한식"}]},{"lat":"37.549099313","long":"127.19689833","items":[{"name":"풍산교회","tel":"","addr":"경기도 하남시 풍산동 373번지","category":"음료식품 - 기타음료식품"}]},{"lat":"37.547349441","long":"127.19255979","items":[{"name":"풍산주유소","tel":"031-795-2100","addr":"경기도 하남시 풍산동 318번지","category":"연료판매점 - 현대정유(오일뱅크)"}]},{"lat":"37.545764607","long":"127.18628689","items":[{"name":"하나쇼파","tel":"031-793-9310","addr":"경기도 하남시 풍산동 263번지","category":"가구 - 기타가구"}]},{"lat":"37.548766137","long":"127.18547948","items":[{"name":"하남성풍천장어","tel":"031-793-4304","addr":"경기도 하남시 풍산동 223-37번지 1층","category":"일반휴게음식 - 일반한식"}]},{"lat":"37.547317871","long":"127.19536607","items":[{"name":"하남종합건재","tel":"031-791-7444","addr":"경기도 하남시 풍산동 389-26번지","category":"건축자재 - 기타건축자재"}]},{"lat":"37.553710618","long":"127.19241748","items":[{"name":"한밭난&플라워","tel":"031-793-9953","addr":"경기도 하남시 풍산동 82-1","category":"문화.취미 - 화원"}]},{"lat":"37.546291884","long":"127.18903791","items":[{"name":"한사랑","tel":"","addr":"경기도 하남시 풍산동 280번지 1층","category":"음료식품 - 농·축·수산품"}]},{"lat":"37.54712689","long":"127.1964519","items":[{"name":"한양토탈샵","tel":"070-8210-9154","addr":"경기도 하남시 풍산동 산20-1번지","category":"신변잡화 - 기타잡화"}]},{"lat":"37.540760799","long":"127.18842447","items":[{"name":"해울벤딩","tel":"02-481-5428","addr":"경기도 하남시 풍산동 431-6번지","category":"기타 - 기계공구"}]},{"lat":"37.556757759","long":"127.19128214","items":[{"name":"헤르만헤어","tel":"031-791-7567","addr":"경기도 하남시 풍산동 551-5번지 1층 101호","category":"보건위생 - 미용원"}]},{"lat":"37.555849067","long":"127.18470455","items":[{"name":"혁신공사","tel":"031-795-6330","addr":"경기도 하남시 풍산동 176-51","category":"용역 서비스 - 종합용역"}]},{"lat":"37.549147543","long":"127.18353402","items":[{"name":"현대마트","tel":"031-792-1704","addr":"경기도 하남시 풍산동 218-6번지","category":"직물 - 카페트,커튼,천막,지물"}]},{"lat":"37.555424616","long":"127.19108639","items":[{"name":"현대유압","tel":"02-455-5825","addr":"경기도 하남시 풍산동 113-24.","category":"기타 - 기계공구"}]},{"lat":"37.553846509","long":"127.19195383","items":[{"name":"화심","tel":"031-794-0821","addr":"경기도 하남시 풍산동 89-2번지","category":"문화.취미 - 화원"}]},{"lat":"37.551015351","long":"127.1875672","items":[{"name":"화진PVC상사","tel":"031-489-3152","addr":"경기도 하남시 풍산동 98-3","category":"건축자재 - 기타건축자재"}]},{"lat":"37.549066022","long":"127.18381673","items":[{"name":"황산장어","tel":"031-791-0989","addr":"경기도 하남시 풍산동 218-10번지 1층","category":"일반휴게음식 - 일반한식"}]},{"lat":"37.556426946","long":"127.19528763","items":[{"name":"후암농원","tel":"031-794-4811","addr":"경기도 하남시 풍산동 39-2","category":"일반휴게음식 - 일반한식"}]},{"lat":"37.54920753","long":"127.18553713","items":[{"name":"흑산도","tel":"031-791-8884","addr":"경기도 하남시 풍산동 244-7 18","category":"일반휴게음식 - 일식·회집"}]},{"lat":"37.551426975","long":"127.18936754","items":[{"name":"희망농원","tel":"031-794-2087","addr":"경기도 하남시 풍산동 294-1","category":"문화.취미 - 화원"}]}]