[{"lat":"37.881243212","long":"126.75426657","items":[{"name":"(주)농업회사법인 디엠지플러스","tel":"031-922-0490","addr":"경기도 파주시 문산읍 사목리 398-1번지","category":"음료식품 - 농·축·수산품"}]},{"lat":"37.889266589","long":"126.74001817","items":[{"name":"(주)인터내셔널관광","tel":"031-952-4556","addr":"경기도 파주시 문산읍 사목리 494-1번지","category":"여행 - 관광여행"},{"name":"사단법인 경기디엠젯트생태관광협회","tel":"031-952-4551","addr":"경기도 파주시 문산읍 사목리 494-1번지","category":"학원 - 기타 교육기관"},{"name":"임진각포비","tel":"","addr":"경기도 파주시 문산읍 사목리 494-1번지","category":"일반휴게음식 - 서양음식"}]},{"lat":"37.874743944","long":"126.75259491","items":[{"name":"가나에너지","tel":"031-954-0901","addr":"경기도 파주시 문산읍 사목리 289-5번지","category":"연료판매점 - LPG 취급점"},{"name":"동방가스산업","tel":"031-953-1588","addr":"경기도 파주시 문산읍 사목리 289-5번지","category":"연료판매점 - LPG 취급점"},{"name":"백마가스","tel":"031-975-4088","addr":"경기도 파주시 문산읍 사목리 289-5번지","category":"연료판매점 - LPG 취급점"}]},{"lat":"37.868245958","long":"126.75153723","items":[{"name":"나루","tel":"031-953-2472","addr":"경기도 파주시 문산읍 사목리 208-2","category":"일반휴게음식 - 일반한식"}]},{"lat":"37.872937196","long":"126.75454453","items":[{"name":"나무그늘아래바베큐장","tel":"070-7763-0872","addr":"경기도 파주시 문산읍 사목리 산87-2번지","category":"일반휴게음식 - 일반한식"}]},{"lat":"37.875688941","long":"126.75639931","items":[{"name":"느티나무 그늘아래 캠핑장","tel":"031-000-0000","addr":"경기도 파주시 문산읍 사목리 328번지","category":"숙박업 - 여관/기타숙박업"}]},{"lat":"37.884131426","long":"126.75248357","items":[{"name":"두레","tel":"031-952-0550","addr":"경기도 파주시 문산읍 사목리 427번지","category":"용역 서비스 - 가례서비스업"}]},{"lat":"37.873689908","long":"126.75262121","items":[{"name":"들메","tel":"031-952-2766","addr":"경기도 파주시 문산읍 사목리 281번지","category":"일반휴게음식 - 일반한식"}]},{"lat":"37.86693753","long":"126.75912188","items":[{"name":"류재은의허브향기/농업회사법인 주식회사","tel":"031-945-1388","addr":"경기도 파주시 문산읍 사목리 169-11번지","category":"음료식품 - 기타음료식품"}]},{"lat":"37.867080761","long":"126.75867818","items":[{"name":"명인다원","tel":"031-945-9119","addr":"경기도 파주시 문산읍 사목리 169번지","category":"일반휴게음식 - 서양음식"},{"name":"월당전시관","tel":"031-943-4716","addr":"경기도 파주시 문산읍 사목리 169번지","category":"문화.취미 - 티켓"}]},{"lat":"37.870687651","long":"126.75587044","items":[{"name":"반구정 어부 담수","tel":"031-952-0117","addr":"경기도 파주시 문산읍 사목리 263번지","category":"음료식품 - 농·축·수산품"},{"name":"반구정어부집","tel":"031-952-0117","addr":"경기도 파주시 문산읍 사목리 263번지","category":"일반휴게음식 - 일반한식"}]},{"lat":"37.867714636","long":"126.7559031","items":[{"name":"반구정만해치정","tel":"031-953-5512","addr":"경기도 파주시 문산읍 사목리 173-1/173-8","category":"일반휴게음식 - 일반한식"}]},{"lat":"37.870602594","long":"126.75398411","items":[{"name":"반구정황가네","tel":"031-953-5981","addr":"경기도 파주시 문산읍 사목리 242번지","category":"일반휴게음식 - 일반한식"}]},{"lat":"37.866271408","long":"126.75939682","items":[{"name":"삼성헬스케어","tel":"031-945-1257","addr":"경기도 파주시 문산읍 사목리 169-6번지","category":"건강식품 - 기타건강식품"}]},{"lat":"37.879599745","long":"126.75248755","items":[{"name":"신무교총본산계승종명신당","tel":"070-4797-1608","addr":"경기도 파주시 문산읍 사목리 370-2번지","category":"기타 - 비영리/대상"}]},{"lat":"37.871300806","long":"126.75611843","items":[{"name":"신일상회","tel":"02-966-3001","addr":"경기도 파주시 문산읍 사목리 271번지","category":"연료판매점 - 기타연료"}]},{"lat":"37.877710016","long":"126.76664495","items":[{"name":"쓰리알ARC","tel":"031-953-5031","addr":"경기도 파주시 문산읍 사목리 68-5번지","category":"자동차정비 유지 - 가타자동차서비스"}]},{"lat":"37.866494756","long":"126.75848692","items":[{"name":"언덕위에","tel":"031-953-3332","addr":"경기도 파주시 문산읍 사목리 169-16","category":"음료식품 - 기타음료식품"}]},{"lat":"37.868099885","long":"126.75487898","items":[{"name":"장어농원","tel":"","addr":"경기도 파주시 문산읍 사목리 196-1번지","category":"음료식품 - 농·축·수산품"},{"name":"제이마트 편의점","tel":"031-1111-1111","addr":"경기도 파주시 문산읍 사목리 196-1번지","category":"유통업 영리 - 편 의 점"},{"name":"한빛아이티솔루션","tel":"031-942-7953","addr":"경기도 파주시 문산읍 사목리 196-1번지","category":"사무통신 - 컴퓨터"}]},{"lat":"37.877098932","long":"126.75004092","items":[{"name":"커피복음","tel":"031-3489-3221","addr":"경기도 파주시 문산읍 사목리 710-2번지","category":"음료식품 - 기타음료식품"}]},{"lat":"37.876411021","long":"126.75275976","items":[{"name":"한김식품","tel":"031-952-7330","addr":"경기도 파주시 문산읍 사목리 350-1번지","category":"음료식품 - 기타음료식품"}]},{"lat":"37.883383125","long":"126.75223603","items":[{"name":"황금터","tel":"031-952-4979","addr":"경기도 파주시 문산읍 사목리 404","category":"일반휴게음식 - 일반한식"}]}]