[{"lat":"37.088894116","long":"126.92751296","imageIndex":4,"items":[{"name":"고갯마루 한식부페","tel":"031-8059-1191","addr":"경기도 화성시 양감면 대양리 698-15번지","indutype":"일반휴게음식 - 일반한식","category":"restaurant"}]},{"lat":"37.083650381","long":"126.94418569","imageIndex":4,"items":[{"name":"맛있는아구찜","tel":"031-353-3959","addr":"경기도 화성시 양감면 대양리 396-25번지","indutype":"일반휴게음식 - 일반한식","category":"restaurant"}]},{"lat":"37.087956283","long":"126.94191042","imageIndex":4,"items":[{"name":"못말리는파닭","tel":"031-353-8222","addr":"경기도 화성시 양감면 대양리 502-7번지","indutype":"일반휴게음식 - 일반한식","category":"restaurant"},{"name":"못말리는파닭","tel":"031-353-8222","addr":"경기도 화성시 양감면 대양리 502-7번지","indutype":"일반휴게음식 - 일반한식","category":"restaurant"}]},{"lat":"37.085532964","long":"126.94293583","imageIndex":4,"items":[{"name":"부돈식당","tel":"031-352-0054","addr":"경기도 화성시 양감면 대양리 423-1번지","indutype":"일반휴게음식 - 일반한식","category":"restaurant"}]},{"lat":"37.098010024","long":"126.93806653","imageIndex":4,"items":[{"name":"새벽부터해장국","tel":"031-352-7420","addr":"경기도 화성시 양감면 대양리 1189-1번지","indutype":"일반휴게음식 - 일반한식","category":"restaurant"},{"name":"올챙이수산","tel":"031-8059-0255","addr":"경기도 화성시 양감면 대양리 1189-1번지 1층","indutype":"일반휴게음식 - 일반한식","category":"restaurant"}]},{"lat":"37.088310287","long":"126.93049408","imageIndex":4,"items":[{"name":"여물식당","tel":"031-354-3183","addr":"경기도 화성시 양감면 대양리 739","indutype":"일반휴게음식 - 일반한식","category":"restaurant"}]},{"lat":"37.094992473","long":"126.93989133","imageIndex":4,"items":[{"name":"웰빙부페식당","tel":"031-352-6665","addr":"경기도 화성시 양감면 대양리 982번지 3동","indutype":"일반휴게음식 - 일반한식","category":"restaurant"}]},{"lat":"37.086064502","long":"126.94276671","imageIndex":4,"items":[{"name":"이모네식당","tel":"031-354-0998","addr":"경기도 화성시 양감면 대양리 426-5번지","indutype":"일반휴게음식 - 일반한식","category":"restaurant"}]},{"lat":"37.086172348","long":"126.94221552","imageIndex":4,"items":[{"name":"장모밥상","tel":"031-359-8404","addr":"경기도 화성시 양감면 대양리 421-1","indutype":"일반휴게음식 - 일반한식","category":"restaurant"}]},{"lat":"37.088199592","long":"126.94195521","imageIndex":4,"items":[{"name":"찌개전문점","tel":"031-352-3351","addr":"경기도 화성시 양감면 대양리 502-2번지","indutype":"일반휴게음식 - 일반한식","category":"restaurant"}]},{"lat":"37.087649663","long":"126.94140454","imageIndex":4,"items":[{"name":"타이스마일","tel":"031-8059-1346","addr":"경기도 화성시 양감면 대양리 503-1번지","indutype":"일반휴게음식 - 서양음식","category":"restaurant"}]},{"lat":"37.097398634","long":"126.94054176","imageIndex":4,"items":[{"name":"퓨전한식부페","tel":"031-352-8848","addr":"경기도 화성시 양감면 대양리 1114번지","indutype":"일반휴게음식 - 일반한식","category":"restaurant"},{"name":"퓨전한식부페","tel":"031-352-8848","addr":"경기도 화성시 양감면 대양리 1114번지","indutype":"일반휴게음식 - 일반한식","category":"restaurant"}]}]