[{"lat":"37.2666074","long":"127.6388903","items":[{"name":"한살림경기동부소비자생협 광주매장","tel":"031-768-9096","addr":"경기도 여주시 점봉동 429-129번지 3층 301호","category":"유통업 영리 - 슈퍼마켓"}]},{"lat":"37.257752883","long":"127.65172261","items":[{"name":"(주)STI건설","tel":"031-885-6859","addr":"경기도 여주시 점봉동 68-3번지","category":"건축자재 - 부동산 분양"}]},{"lat":"37.263248638","long":"127.64352911","items":[{"name":"(주)아워홈 코카콜라여주점","tel":"02-6966-9049","addr":"경기도 여주시 점봉동 411-1번지 1층","category":"일반휴게음식 - 위탁급식업"}]},{"lat":"37.257421856","long":"127.65293717","items":[{"name":"1남강골프연습장","tel":"031-884-8050","addr":"경기도 여주시 점봉동 471번지","category":"레저업소 - 골프연습장"}]},{"lat":"37.266362926","long":"127.6391137","items":[{"name":"3구4구당구클럽","tel":"031-886-3949","addr":"경기도 여주시 점봉동 429-43번지","category":"레저업소 - 당 구 장"},{"name":"발리노래연습장","tel":"031-884-2121","addr":"경기도 여주시 점봉동 429-43번지","category":"레저업소 - 노 래 방"},{"name":"여주천서리막국수","tel":"031-883-0001","addr":"경기도 여주시 점봉동 429-43번지","category":"일반휴게음식 - 일반한식"},{"name":"청룡해장국","tel":"031-881-6996","addr":"경기도 여주시 점봉동 429-43번지","category":"일반휴게음식 - 일반한식"},{"name":"친구노래방","tel":"031-884-7999","addr":"경기도 여주시 점봉동 429-43번지","category":"레저업소 - 노 래 방"},{"name":"헌터PC 여주대점","tel":"","addr":"경기도 여주시 점봉동 429-43번지 세종빌딩 2층","category":"레저업소 - 기타레져업소"},{"name":"훔친고기","tel":"031-884-1998","addr":"경기도 여주시 점봉동 429-43번지 세종빌딩 1층","category":"일반휴게음식 - 일반한식"}]},{"lat":"37.264888944","long":"127.64010463","items":[{"name":"B&B(비앤비)","tel":"031-881-0249","addr":"경기도 여주시 점봉동 437-22번지 2층","category":"레저업소 - 당 구 장"},{"name":"B엔B(비엔비)","tel":"031-881-0249","addr":"경기도 여주시 점봉동 437-22번지 2층","category":"음료식품 - 기타음료식품"},{"name":"낙지마당","tel":"031-884-8870","addr":"경기도 여주시 점봉동 437-22번지","category":"일반휴게음식 - 일반한식"},{"name":"세븐일레븐여주점봉점","tel":"","addr":"경기도 여주시 점봉동 437-22번지","category":"유통업 영리 - 편 의 점"},{"name":"킹콩노래연습장","tel":"031-886-3312","addr":"경기도 여주시 점봉동 437-22번지","category":"레저업소 - 노 래 방"},{"name":"텃밭","tel":"031-884-6510","addr":"경기도 여주시 점봉동 437-22번지","category":"일반휴게음식 - 일반한식"}]},{"lat":"37.267050875","long":"127.63852198","items":[{"name":"BBQ치킨(여주점)","tel":"031-884-4455","addr":"경기도 여주시 점봉동 429-66번지","category":"일반휴게음식 - 스넥"},{"name":"카페헤븐","tel":"031-881-6513","addr":"경기도 여주시 점봉동 429-66번지 1층","category":"일반휴게음식 - 서양음식"}]},{"lat":"37.260249314","long":"127.64166626","items":[{"name":"GS25신여주휴게소점","tel":"","addr":"경기도 여주시 점봉동 444-10번지","category":"유통업 영리 - 편 의 점"},{"name":"대한전지기술공사","tel":"031-883-8215","addr":"경기도 여주시 점봉동 444-10번지","category":"자동차정비 유지 - 자동차부품"}]},{"lat":"37.256642123","long":"127.64391277","items":[{"name":"GS25여주IC점","tel":"","addr":"경기도 여주시 점봉동 320-1번지","category":"유통업 영리 - 편 의 점"}]},{"lat":"37.256303096","long":"127.6466152","items":[{"name":"GS25여주대로점","tel":"","addr":"경기도 여주시 점봉동 340-1번지 1층 일부","category":"유통업 영리 - 편 의 점"},{"name":"한진희프로헤어","tel":"031-881-6123","addr":"경기도 여주시 점봉동 340-1번지","category":"보건위생 - 미용원"}]},{"lat":"37.266911437","long":"127.63764146","items":[{"name":"GS25여주대점","tel":"","addr":"경기도 여주시 점봉동 429-195번지 별담채 B동 101-2호","category":"유통업 영리 - 편 의 점"},{"name":"소고","tel":"031-111-1111","addr":"경기도 여주시 점봉동 429-195번지 B동 101호","category":"일반휴게음식 - 일반한식"}]},{"lat":"37.26382913","long":"127.63947567","items":[{"name":"GS25여주부영점","tel":"","addr":"경기도 여주시 점봉동 437-65번지","category":"유통업 영리 - 편 의 점"},{"name":"수작","tel":"","addr":"경기도 여주시 점봉동 437-65번지","category":"일반휴게음식 - 일반한식"},{"name":"월드","tel":"031-882-1280","addr":"경기도 여주시 점봉동 437-65번지","category":"레저업소 - 헬스클럽"}]},{"lat":"37.265476093","long":"127.63982774","items":[{"name":"GS25여주영진점","tel":"","addr":"경기도 여주시 점봉동 429-182번지 1층","category":"유통업 영리 - 편 의 점"},{"name":"더 옹미","tel":"031-886-5356","addr":"경기도 여주시 점봉동 429-182번지","category":"일반휴게음식 - 일반한식"},{"name":"동아부동산랜드","tel":"031-881-3344","addr":"경기도 여주시 점봉동 429-182번지 나동 106호","category":"용역 서비스 - 부동산 중개·임대"},{"name":"부영뚝배기감자탕","tel":"031-883-3439","addr":"경기도 여주시 점봉동 429-182번지","category":"일반휴게음식 - 일반한식"},{"name":"큰집 2","tel":"031-881-0108","addr":"경기도 여주시 점봉동 429-182번지","category":"일반휴게음식 - 일반한식"},{"name":"한우진국설렁탕","tel":"031-885-7778","addr":"경기도 여주시 점봉동 429-182번지","category":"일반휴게음식 - 일반한식"}]},{"lat":"37.256059302","long":"127.651663","items":[{"name":"J-Bistro (제이-비스트로)","tel":"031-884-0471","addr":"경기도 여주시 점봉동 104-13번지","category":"일반휴게음식 - 일반한식"}]},{"lat":"37.253501796","long":"127.64811304","items":[{"name":"K골프","tel":"031-882-3898","addr":"경기도 여주시 점봉동 229-2번지","category":"레져용품 - 골프용품 전문점"}]},{"lat":"37.255141813","long":"127.64808194","items":[{"name":"W모텔","tel":"031-884-2525","addr":"경기도 여주시 점봉동 313-1번지","category":"숙박업 - 여관/기타숙박업"},{"name":"서울해장국","tel":"031-883-0881","addr":"경기도 여주시 점봉동 313-1번지","category":"일반휴게음식 - 일반한식"}]},{"lat":"37.264250178","long":"127.63825043","items":[{"name":"거성전기안전","tel":"031-883-4230","addr":"경기도 여주시 점봉동 430-6번지 부영아파트 상가-102","category":"용역 서비스 - 기타용역서비스"},{"name":"부영우리분식","tel":"031-882-0277","addr":"경기도 여주시 점봉동 430-6번지 부영아파트","category":"일반휴게음식 - 스넥"},{"name":"부영할인마트","tel":"031-881-0253","addr":"경기도 여주시 점봉동 430-6번지 부영아파트","category":"유통업 영리 - 슈퍼마켓"},{"name":"사단법인대한불교대각종천문암","tel":"070-4079-4239","addr":"경기도 여주시 점봉동 430-6번지 부영아파트","category":"기타 - 비영리/대상"}]},{"lat":"37.2598869021","long":"127.6336370948","items":[{"name":"건강나라산삼농장","tel":"031-881-5242","addr":"경기도 여주시 점봉동 478-4번지","category":"음료식품 - 농·축·수산품"}]},{"lat":"37.261912271","long":"127.64072211","items":[{"name":"겸이네 고기생선","tel":"031-886-7855","addr":"경기도 여주시 점봉동 442번지","category":"음료식품 - 정육점"}]},{"lat":"37.253583988","long":"127.65449351","items":[{"name":"경기버섯연구소","tel":"031-884-4991","addr":"경기도 여주시 점봉동 150-2번지","category":"음료식품 - 농·축·수산품"}]},{"lat":"37.259892728","long":"127.63760511","items":[{"name":"고금장","tel":"031-84-2050","addr":"경기도 여주시 점봉동 476-1번지","category":"일반휴게음식 - 일반한식"}]},{"lat":"37.264551303","long":"127.63922246","items":[{"name":"고속자동차정비공업사","tel":"031-882-2479","addr":"경기도 여주시 점봉동 435-2번지","category":"자동차정비 유지 - 자동차정비"}]},{"lat":"37.259414365","long":"127.64941472","items":[{"name":"고향보리밥","tel":"031-885-5524","addr":"경기도 여주시 점봉동 53-4번지","category":"일반휴게음식 - 일반한식"}]},{"lat":"37.265168852","long":"127.63999425","items":[{"name":"고향추어탕","tel":"031-881-0042","addr":"경기도 여주시 점봉동 429-183번지 1층 101호,102호","category":"일반휴게음식 - 일반한식"},{"name":"마슬랜치킨(chicken)","tel":"031-885-9987","addr":"경기도 여주시 점봉동 429-183번지","category":"일반휴게음식 - 스넥"},{"name":"복닭복닭","tel":"","addr":"경기도 여주시 점봉동 429-183번지 1층 103호,104호","category":"일반휴게음식 - 일반한식"},{"name":"여주대 캠프PC방","tel":"","addr":"경기도 여주시 점봉동 429-183번지 3층","category":"레저업소 - 기타레져업소"},{"name":"연세진치과의원","tel":"031-883-0045","addr":"경기도 여주시 점봉동 429-183번지 2층","category":"의원 - 치과의원"},{"name":"토종순대가","tel":"031-882-0036","addr":"경기도 여주시 점봉동 429-183번지 1층 105호","category":"일반휴게음식 - 일반한식"}]},{"lat":"37.266531214","long":"127.63797648","items":[{"name":"교동화짬뽕","tel":"031-882-8008","addr":"경기도 여주시 점봉동 429-38번지","category":"일반휴게음식 - 중국식"},{"name":"타이어클럽","tel":"031-882-2331","addr":"경기도 여주시 점봉동 429-38번지 1층 101,102,103호","category":"자동차정비 유지 - 자동차시트·타이어"},{"name":"후도","tel":"031-883-7397","addr":"경기도 여주시 점봉동 429-38번지","category":"일반휴게음식 - 일반한식"}]},{"lat":"37.261586888","long":"127.640911","items":[{"name":"굿네이처샵","tel":"031-885-8838","addr":"경기도 여주시 점봉동 442-6번지","category":"신변잡화 - 기타잡화"},{"name":"꿀꿀이감자탕","tel":"","addr":"경기도 여주시 점봉동 442-6번지 가동 101호","category":"일반휴게음식 - 일반한식"},{"name":"봉막국수","tel":"031-881-1117","addr":"경기도 여주시 점봉동 442-6번지 나동","category":"일반휴게음식 - 일반한식"}]},{"lat":"37.263750804","long":"127.64063615","items":[{"name":"권약국","tel":"031-881-2060","addr":"경기도 여주시 점봉동 437-15번지","category":"약국 - 약국"},{"name":"꽃수니스타일","tel":"031-884-8864","addr":"경기도 여주시 점봉동 437-15번지","category":"문화.취미 - 화원"},{"name":"꽃수니스타일","tel":"031-884-8864","addr":"경기도 여주시 점봉동 437-15번지","category":"일반휴게음식 - 서양음식"},{"name":"본죽 점봉점","tel":"031-883-6288","addr":"경기도 여주시 점봉동 437-15번지 1층","category":"일반휴게음식 - 일반한식"},{"name":"여주파불고기","tel":"02-882-8829","addr":"경기도 여주시 점봉동 437-15번지 2층","category":"일반휴게음식 - 일반한식"},{"name":"장원식당","tel":"031-885-8818","addr":"경기도 여주시 점봉동 437-15","category":"일반휴게음식 - 일반한식"},{"name":"족발세상","tel":"031-883-6399","addr":"경기도 여주시 점봉동 437-15번지","category":"일반휴게음식 - 일반한식"},{"name":"초대스크린골프","tel":"031-884-8001","addr":"경기도 여주시 점봉동 437-15번지","category":"회원제형태 - 레져업소"},{"name":"투다리","tel":"031-866-2666","addr":"경기도 여주시 점봉동 437-15번지","category":"일반휴게음식 - 주점"}]},{"lat":"37.253419664","long":"127.64830396","items":[{"name":"금강계량 증명업소","tel":"031-881-2569","addr":"경기도 여주시 점봉동 229-1번지","category":"용역 서비스 - 사무서비스"},{"name":"아룡식품","tel":"","addr":"경기도 여주시 점봉동 229-1번지","category":"음료식품 - 기타음료식품"}]},{"lat":"37.296384575","long":"127.63407704","items":[{"name":"김선헤어샵","tel":"031-881-4139","addr":"경기도 여주시 점봉동 466-2번지 대원연립","category":"보건위생 - 미용원"}]},{"lat":"37.263809656","long":"127.63974606","items":[{"name":"깡통막창구이","tel":"031-884-8534","addr":"경기도 여주시 점봉동 437-1번지","category":"일반휴게음식 - 일반한식"},{"name":"본스치킨(여주본점)","tel":"031-881-0753","addr":"경기도 여주시 점봉동 437-1번지","category":"일반휴게음식 - 스넥"},{"name":"부영노래연습장","tel":"031-884-8468","addr":"경기도 여주시 점봉동 437-1번지 지층","category":"레저업소 - 노 래 방"},{"name":"부영당구장","tel":"031-886-8352","addr":"경기도 여주시 점봉동 437-1번지","category":"레저업소 - 당 구 장"},{"name":"부영헤어샵","tel":"031-883-7894","addr":"경기도 여주시 점봉동 437-1번지","category":"보건위생 - 미용원"},{"name":"씨유여주IC점","tel":"031-884-1498","addr":"경기도 여주시 점봉동 437-1번지","category":"유통업 영리 - 편 의 점"},{"name":"월미도","tel":"031-882-9868","addr":"경기도 여주시 점봉동 437-1번지","category":"일반휴게음식 - 일반한식"},{"name":"점핑하이","tel":"","addr":"경기도 여주시 점봉동 437-1번지 3층","category":"레저업소 - 헬스클럽"}]},{"lat":"37.256113892","long":"127.64661359","items":[{"name":"나들목","tel":"031-881-6077","addr":"경기도 여주시 점봉동 332-1번지","category":"일반휴게음식 - 일반한식"}]},{"lat":"37.263141419","long":"127.64002227","items":[{"name":"나울바베큐치킨","tel":"031-883-8895","addr":"경기도 여주시 점봉동 438-1번지 1층 108호","category":"일반휴게음식 - 스넥"},{"name":"낭만포차(점봉점)","tel":"031-882-0051","addr":"경기도 여주시 점봉동 438-1번지 1층 906호,110호","category":"일반휴게음식 - 일반한식"},{"name":"샤이닝 짐(shining gym)","tel":"031-884-0008","addr":"경기도 여주시 점봉동 438-1번지","category":"레저업소 - 헬스클럽"},{"name":"신참떡볶이 여주점봉점","tel":"031-882-0979","addr":"경기도 여주시 점봉동 438-1번지 1층 105호","category":"일반휴게음식 - 일반한식"},{"name":"제이컷(J.CUT)","tel":"031-883-0224","addr":"경기도 여주시 점봉동 438-1번지 점봉프라자 101호","category":"보건위생 - 미용원"},{"name":"하코야 (HACOYA)","tel":"031-883-2323","addr":"경기도 여주시 점봉동 438-1번지 점봉프라자","category":"일반휴게음식 - 일식·회집"}]},{"lat":"37.257751388","long":"127.64538757","items":[{"name":"남송물산","tel":"031-844-8012","addr":"경기도 여주시 점봉동 344-3번지","category":"음료식품 - 농·축·수산품"},{"name":"점봉식당","tel":"031-882-0522","addr":"경기도 여주시 점봉동 344-3번지","category":"일반휴게음식 - 일반한식"},{"name":"점봉체육관","tel":"031-881-3025","addr":"경기도 여주시 점봉동 344-3번지","category":"학원 - 예·체능계학원"}]},{"lat":"37.258443486","long":"127.6456978","items":[{"name":"네비원","tel":"031-886-8277","addr":"경기도 여주시 점봉동 347번지 네비게이션 나동 2호","category":"자동차정비 유지 - 자동차부품"},{"name":"여주 운동화 빨래방 클린케이","tel":"031-886-6660","addr":"경기도 여주시 점봉동 347번지","category":"수리서비스 - 세탁소"}]},{"lat":"37.262385268","long":"127.63989189","items":[{"name":"네일샵 오도르","tel":"031-886-4141","addr":"경기도 여주시 점봉동 438-27번지","category":"보건위생 - 피부미용실"}]},{"lat":"37.266501261","long":"127.64019713","items":[{"name":"농업회사법인주식회사바이오팩토리","tel":"0505-300-1710","addr":"경기도 여주시 점봉동 429-54번지","category":"음료식품 - 농·축·수산품"},{"name":"카앤피플 여주지점","tel":"","addr":"경기도 여주시 점봉동 429-54번지 3층 305호","category":"자동차정비 유지 - 세차장"}]},{"lat":"37.256718603","long":"127.65302131","items":[{"name":"농업회사법인주식회사삼구농원","tel":"031-884-3911","addr":"경기도 여주시 점봉동 81-1번지","category":"일반휴게음식 - 일반한식"},{"name":"삼구농원","tel":"031-884-3911","addr":"경기도 여주시 점봉동 81-1번지","category":"음료식품 - 농·축·수산품"}]},{"lat":"37.256948057","long":"127.64730829","items":[{"name":"늘찬 농업회사법인 주식회사","tel":"031-000-0000","addr":"경기도 여주시 점봉동 319-3번지","category":"음료식품 - 농·축·수산품"}]},{"lat":"37.263246769","long":"127.63886202","items":[{"name":"대가식당","tel":"031-884-2626","addr":"경기도 여주시 점봉동 438-14번지","category":"일반휴게음식 - 일반한식"},{"name":"신통치킨","tel":"031-881-0913","addr":"경기도 여주시 점봉동 438-14번지 1호","category":"일반휴게음식 - 스넥"}]},{"lat":"37.2666074","long":"127.63889028","items":[{"name":"대박모듬참치","tel":"031-885-7825","addr":"경기도 여주시 점봉동 429-129번지","category":"일반휴게음식 - 일식·회집"},{"name":"송탄부대찌개","tel":"031-885-8112","addr":"경기도 여주시 점봉동 429-129번지","category":"일반휴게음식 - 일반한식"},{"name":"스타헤어 (Star Hair)","tel":"","addr":"경기도 여주시 점봉동 429-129번지 2층 202호","category":"보건위생 - 미용원"}]},{"lat":"37.2663088676","long":"127.6391132423","items":[{"name":"덕이네순대국","tel":"031-881-5545","addr":"경기도 여주시 점봉동 429-43번지","category":"일반휴게음식 - 일반한식"}]},{"lat":"37.25530988","long":"127.64700127","items":[{"name":"도자기랑옹기랑","tel":"031-882-2552","addr":"경기도 여주시 점봉동 326-4번지","category":"문화.취미 - 민예·공예품"}]},{"lat":"37.264112529","long":"127.64039119","items":[{"name":"돈치킨","tel":"031-885-1110","addr":"경기도 여주시 점봉동 437-100번지","category":"일반휴게음식 - 서양음식"},{"name":"주민상회 여주점","tel":"070-4222-4878","addr":"경기도 여주시 점봉동 437-100번지 A동 1호","category":"일반휴게음식 - 일반한식"}]},{"lat":"37.263497317","long":"127.64085948","items":[{"name":"돌판생삼겹삼무한리필","tel":"031-884-9233","addr":"경기도 여주시 점봉동 437-16번지 1층","category":"일반휴게음식 - 일반한식"},{"name":"동해횟집","tel":"031-884-0708","addr":"경기도 여주시 점봉동 437-16번지","category":"일반휴게음식 - 일반한식"},{"name":"삼성종합건재철물","tel":"031-881-4282","addr":"경기도 여주시 점봉동 437-16번지","category":"건축자재 - 기타건축자재"},{"name":"양평해장국 (점봉점)","tel":"031-886-2258","addr":"경기도 여주시 점봉동 437-16번지 105호,106호","category":"일반휴게음식 - 일반한식"},{"name":"오성식당","tel":"031-881-1237","addr":"경기도 여주시 점봉동 437-16번지","category":"일반휴게음식 - 일반한식"},{"name":"요거프레소 (여주점봉점)","tel":"031-881-2968","addr":"경기도 여주시 점봉동 437-16번지","category":"일반휴게음식 - 서양음식"},{"name":"청담동헤어","tel":"031-882-1599","addr":"경기도 여주시 점봉동 437-16번지 1동 1층 107호","category":"보건위생 - 미용원"}]},{"lat":"37.259752926","long":"127.63847192","items":[{"name":"디오코리아","tel":"031-884-0364","addr":"경기도 여주시 점봉동 459-2번지","category":"자동차정비 유지 - 자동차부품"},{"name":"에이치엔시","tel":"02-916-7519","addr":"경기도 여주시 점봉동 459-2번지","category":"전기제품 - 냉열기기"},{"name":"해오름 드론교육원","tel":"031-883-0526","addr":"경기도 여주시 점봉동 459-2번지","category":"학원 - 기능학원"}]},{"lat":"37.246249367","long":"127.65127459","items":[{"name":"또봉이치킨 여주점봉점","tel":"031-881-5201","addr":"경기도 여주시 점봉동 162-5번지","category":"일반휴게음식 - 스넥"}]},{"lat":"37.263108075","long":"127.64119439","items":[{"name":"라라베이커리","tel":"031-884-8700","addr":"경기도 여주시 점봉동 437-21번지","category":"음료식품 - 제과점"}]},{"lat":"37.258275326","long":"127.64347572","items":[{"name":"륜덕산업","tel":"031-881-2511","addr":"경기도 여주시 점봉동 367-9번지","category":"회원제형태 - 기타4"}]},{"lat":"37.263388562","long":"127.63930287","items":[{"name":"마루","tel":"031-881-5736","addr":"경기도 여주시 점봉동 430-17번지","category":"일반휴게음식 - 일반한식"},{"name":"부영춘천닭갈비","tel":"031-884-1156","addr":"경기도 여주시 점봉동 430-17번지","category":"일반휴게음식 - 일반한식"},{"name":"숯불대구막창","tel":"031-886-7654","addr":"경기도 여주시 점봉동 430-17번지","category":"일반휴게음식 - 일반한식"},{"name":"조아라헤어","tel":"031-885-9895","addr":"경기도 여주시 점봉동 430-17번지","category":"보건위생 - 미용원"},{"name":"홍령골감자탕,해장국","tel":"031-881-5763","addr":"경기도 여주시 점봉동 430-17번지","category":"일반휴게음식 - 일반한식"},{"name":"황토장군불바베큐","tel":"031-883-9967","addr":"경기도 여주시 점봉동 430-17번지","category":"일반휴게음식 - 스넥"}]},{"lat":"37.266161742","long":"127.63966441","items":[{"name":"마리앙뜨와 네일","tel":"031-881-1313","addr":"경기도 여주시 점봉동 429-123번지","category":"보건위생 - 피부미용실"}]},{"lat":"37.263941223","long":"127.64041229","items":[{"name":"막창아!곱창아!","tel":"031-881-4007","addr":"경기도 여주시 점봉동 437-30번지","category":"일반휴게음식 - 일반한식"},{"name":"몬스터김밥","tel":"031-881-0107","addr":"경기도 여주시 점봉동 437-30번지 1층","category":"일반휴게음식 - 스넥"},{"name":"바른치킨(여주대점)","tel":"031-884-9979","addr":"경기도 여주시 점봉동 437-30번지","category":"일반휴게음식 - 스넥"}]},{"lat":"37.25694816","long":"127.64894276","items":[{"name":"머리사냥헤어","tel":"031-884-5599","addr":"경기도 여주시 점봉동 358-2번지","category":"보건위생 - 미용원"},{"name":"명성스크린골프존","tel":"031-885-3300","addr":"경기도 여주시 점봉동 358-2번지 외2필지 2층","category":"회원제형태 - 레져업소"},{"name":"베네베네","tel":"031-885-0709","addr":"경기도 여주시 점봉동 358-2번지","category":"일반휴게음식 - 서양음식"},{"name":"점봉떡방앗간","tel":"031-884-4155","addr":"경기도 여주시 점봉동 358-2번지","category":"음료식품 - 제과점"}]},{"lat":"37.256421019","long":"127.64646966","items":[{"name":"명성건재","tel":"031-881-4123","addr":"경기도 여주시 점봉동 340번지","category":"건축자재 - 목재·석재·철물"}]},{"lat":"37.25785999","long":"127.65354964","items":[{"name":"명성골드자동차공업사","tel":"031-886-2888","addr":"경기도 여주시 점봉동 70번지","category":"자동차정비 유지 - 자동차정비"}]},{"lat":"37.257782163","long":"127.64635725","items":[{"name":"명성쌈밥 엄마백반","tel":"031-881-0593","addr":"경기도 여주시 점봉동 348-3번지","category":"일반휴게음식 - 일반한식"},{"name":"명성휴게소","tel":"031-881-0593","addr":"경기도 여주시 점봉동 348-3번지","category":"유통업 영리 - 슈퍼마켓"},{"name":"밧데리1번가","tel":"031-323-6016","addr":"경기도 여주시 점봉동 348-3번지","category":"자동차정비 유지 - 자동차부품"}]},{"lat":"37.26452819","long":"127.64016923","items":[{"name":"명태어장 여주점","tel":"031-881-0892","addr":"경기도 여주시 점봉동 437-33번지","category":"일반휴게음식 - 일반한식"},{"name":"문치과","tel":"031-881-5450","addr":"경기도 여주시 점봉동 437-33번지","category":"의원 - 치과의원"},{"name":"장터족발보쌈","tel":"031-884-2353","addr":"경기도 여주시 점봉동 437-33번지","category":"일반휴게음식 - 일반한식"}]},{"lat":"37.257359045","long":"127.63962412","items":[{"name":"목림화랑","tel":"031-654-1469","addr":"경기도 여주시 점봉동 466-2번지 대원연립 바동 622호","category":"회원제형태 - 기타4"}]},{"lat":"37.263281776","long":"127.6340036","items":[{"name":"목수일하는사람들","tel":"","addr":"경기도 여주시 점봉동 528-19번지","category":"건축자재 - 인테리어전문"}]},{"lat":"37.257108798","long":"127.64922593","items":[{"name":"미구미호프","tel":"031-1111-1111","addr":"경기도 여주시 점봉동 63번지 1층","category":"일반휴게음식 - 주점"},{"name":"소양구이전문점시골집","tel":"031-881-1886","addr":"경기도 여주시 점봉동 63번지","category":"일반휴게음식 - 일반한식"}]},{"lat":"37.257364651","long":"127.64691731","items":[{"name":"미스터칸","tel":"031-883-3996","addr":"경기도 여주시 점봉동 349-3번지 1동 1층","category":"자동차정비 유지 - 윤활유 전문 판매"}]},{"lat":"37.260112006","long":"127.64705343","items":[{"name":"봉평메밀막국수","tel":"031-883-4127","addr":"경기도 여주시 점봉동 384-3번지","category":"일반휴게음식 - 일반한식"}]},{"lat":"37.264750123","long":"127.6391114","items":[{"name":"브라더모터스","tel":"031-881-2927","addr":"경기도 여주시 점봉동 434-2번지","category":"자동차정비 유지 - 자동차정비"},{"name":"선달식당포차","tel":"","addr":"경기도 여주시 점봉동 434-2번지","category":"일반휴게음식 - 일반한식"}]},{"lat":"37.255945312","long":"127.64944143","items":[{"name":"비룡","tel":"031-881-6489","addr":"경기도 여주시 점봉동 114번지","category":"일반휴게음식 - 중국식"},{"name":"엘림피아노학원","tel":"031-882-1979","addr":"경기도 여주시 점봉동 114번지 2층","category":"학원 - 예·체능계학원"},{"name":"인창슈퍼","tel":"031-884-9737","addr":"경기도 여주시 점봉동 114번지","category":"유통업 영리 - 슈퍼마켓"},{"name":"티지엠","tel":"","addr":"경기도 여주시 점봉동 114번지 인창아파트","category":"회원제형태 - 기타4"}]},{"lat":"37.265328744","long":"127.63874425","items":[{"name":"사계절밥상","tel":"031-881-3388","addr":"경기도 여주시 점봉동 432-4번지","category":"일반휴게음식 - 일반한식"},{"name":"전자담배아울렛","tel":"031-882-6939","addr":"경기도 여주시 점봉동 432-4번지 3호","category":"기타 - 기타 전문점"},{"name":"한방염소요리","tel":"031-884-0292","addr":"경기도 여주시 점봉동 432-4번지","category":"일반휴게음식 - 일반한식"}]},{"lat":"37.255393323","long":"127.65152202","items":[{"name":"사과나무어린이집[아이행복]","tel":"031-885-1279","addr":"경기도 여주시 점봉동 96번지","category":"학원 - 유아원"}]},{"lat":"37.2482837","long":"127.64335732","items":[{"name":"산에산에 오리주물럭","tel":"031-883-4646","addr":"경기도 여주시 점봉동 197번지","category":"일반휴게음식 - 일반한식"}]},{"lat":"37.2640008","long":"127.63938693","items":[{"name":"삼손 숯불구리","tel":"031-885-8452","addr":"경기도 여주시 점봉동 437번지","category":"일반휴게음식 - 일반한식"},{"name":"축산다있쏘","tel":"031-885-2262","addr":"경기도 여주시 점봉동 437번지","category":"음료식품 - 정육점"}]},{"lat":"37.25675487","long":"127.64638233","items":[{"name":"상상미술교습소","tel":"031-884-3434","addr":"경기도 여주시 점봉동 339-5번지","category":"학원 - 예·체능계학원"}]},{"lat":"37.259336541","long":"127.63882915","items":[{"name":"생각이좋은건축","tel":"031-881-1124","addr":"경기도 여주시 점봉동 464번지 1동 2호","category":"가구 - 기타가구"},{"name":"시골쌈밥","tel":"031-883-2975","addr":"경기도 여주시 점봉동 464번지","category":"일반휴게음식 - 일반한식"},{"name":"즙스토리","tel":"031-882-8245","addr":"경기도 여주시 점봉동 464번지","category":"건강식품 - 기타건강식품"}]},{"lat":"37.248142079","long":"127.64952128","items":[{"name":"서림가든","tel":"031-883-3403","addr":"경기도 여주시 점봉동 181번지","category":"일반휴게음식 - 일반한식"}]},{"lat":"37.256641726","long":"127.64730568","items":[{"name":"성도약국","tel":"031-884-2878","addr":"경기도 여주시 점봉동 320-1번지","category":"약국 - 약국"}]},{"lat":"37.256531542","long":"127.6393579","items":[{"name":"세종마트","tel":"031-881-6885","addr":"경기도 여주시 점봉동 291-1번지","category":"유통업 영리 - 슈퍼마켓"}]},{"lat":"37.259836989","long":"127.64791907","items":[{"name":"세종어린이집[아이행복]","tel":"031-883-5838","addr":"경기도 여주시 점봉동 386번지","category":"학원 - 유아원"}]},{"lat":"37.263252083","long":"127.63954973","items":[{"name":"셰프PC방 여주본점","tel":"070-4557-8074","addr":"경기도 여주시 점봉동 438-11번지 2층,430-18번지","category":"레저업소 - 기타레져업소"},{"name":"토프레소 여주점봉점","tel":"031-882-8524","addr":"경기도 여주시 점봉동 438-11번지","category":"일반휴게음식 - 서양음식"},{"name":"한우대통령","tel":"031-883-8992","addr":"경기도 여주시 점봉동 438-11번지","category":"일반휴게음식 - 일반한식"}]},{"lat":"37.260780764","long":"127.64336166","items":[{"name":"송학순대국","tel":"031-884-2060","addr":"경기도 여주시 점봉동 368번지","category":"일반휴게음식 - 일반한식"},{"name":"호야전자","tel":"031-882-0349","addr":"경기도 여주시 점봉동 368번지 5호","category":"수리서비스 - 가정용품수리"}]},{"lat":"37.262246082","long":"127.63896634","items":[{"name":"슈즈팩토리","tel":"031-882-6914","addr":"경기도 여주시 점봉동 451-60번지 1동 202호","category":"신변잡화 - 신발"}]},{"lat":"37.258384896","long":"127.63818989","items":[{"name":"신세계 당구장","tel":"","addr":"경기도 여주시 점봉동 466-8번지","category":"레저업소 - 당 구 장"}]},{"lat":"37.266442507","long":"127.63771644","items":[{"name":"쌍용자동차여주서비스프라자","tel":"031-881-6082","addr":"경기도 여주시 점봉동 429-46번지 46","category":"자동차정비 유지 - 자동차정비"}]},{"lat":"37.266833552","long":"127.63872308","items":[{"name":"씨유여주대원룸점","tel":"031-884-1127","addr":"경기도 여주시 점봉동 429-68번지","category":"유통업 영리 - 편 의 점"},{"name":"후꾼이불닭발","tel":"031-882-1292","addr":"경기도 여주시 점봉동 429-68번지","category":"일반휴게음식 - 스넥"},{"name":"힐링체형관리","tel":"031-884-8387","addr":"경기도 여주시 점봉동 429-68번지 3층","category":"보건위생 - 피부미용실"}]},{"lat":"37.258887593","long":"127.64521686","items":[{"name":"씨유여주점봉로드점","tel":"031-884-1159","addr":"경기도 여주시 점봉동 364-1번지","category":"유통업 영리 - 편 의 점"},{"name":"장보는 강양이 여주점","tel":"070-4104-3354","addr":"경기도 여주시 점봉동 364-1번지","category":"문화.취미 - 애완동물"}]},{"lat":"37.246252575","long":"127.65068855","items":[{"name":"씨유여주휴레나점","tel":"031-881-2259","addr":"경기도 여주시 점봉동 163-12번지","category":"유통업 영리 - 편 의 점"}]},{"lat":"37.246977914","long":"127.64986072","items":[{"name":"알콩달콩 한정식","tel":"031-881-0046","addr":"경기도 여주시 점봉동 184-1번지","category":"일반휴게음식 - 일반한식"}]},{"lat":"37.259110741","long":"127.64891613","items":[{"name":"어우렁더우렁","tel":"031-883-3033","addr":"경기도 여주시 점봉동 52번지","category":"일반휴게음식 - 일반한식"}]},{"lat":"37.266329348","long":"127.64033096","items":[{"name":"에스제이골프","tel":"02-2060-0707","addr":"경기도 여주시 점봉동 429-133번지 305호","category":"레저업소 - 골프연습장"}]},{"lat":"37.264275493","long":"127.64024601","items":[{"name":"여주 팜 한농","tel":"070-4337-1255","addr":"경기도 여주시 점봉동 437-29번지 303호","category":"농업 - 기타농업관련"},{"name":"와사비","tel":"031-881-1289","addr":"경기도 여주시 점봉동 437-29번지","category":"일반휴게음식 - 일반한식"},{"name":"향방양육관(양꼬치)","tel":"031-882-0814","addr":"경기도 여주시 점봉동 437-29번지 1층 104호","category":"일반휴게음식 - 일반한식"}]},{"lat":"37.264779934","long":"127.63691335","items":[{"name":"여주미술관","tel":"032-884-8805","addr":"경기도 여주시 점봉동 430-40번지","category":"문화.취미 - 티켓"},{"name":"여주미술관테마파크앤드갤러리","tel":"031-884-8805","addr":"경기도 여주시 점봉동 430-40번지 외2필지","category":"음료식품 - 기타음료식품"}]},{"lat":"37.254607659","long":"127.6485508","items":[{"name":"여주슈퍼","tel":"031-278-7161","addr":"경기도 여주시 점봉동 231번지 1층","category":"레져용품 - 스포츠·레져용품"},{"name":"주식회사 엔알비/사계돈석갈비","tel":"031-881-3392","addr":"경기도 여주시 점봉동 231번지 1층","category":"일반휴게음식 - 일반한식"},{"name":"한촌설렁탕","tel":"031-881-5955","addr":"경기도 여주시 점봉동 231번지","category":"일반휴게음식 - 일반한식"}]},{"lat":"37.257669721","long":"127.6438313","items":[{"name":"여주종합폐차장","tel":"031-884-9933","addr":"경기도 여주시 점봉동 367-17번지","category":"자동차정비 유지 - 가타자동차서비스"}]},{"lat":"37.24770054","long":"127.64952878","items":[{"name":"영덕가든","tel":"031-884-8777","addr":"경기도 여주시 점봉동 183번지","category":"일반휴게음식 - 일반한식"}]},{"lat":"37.265774627","long":"127.63960478","items":[{"name":"옛날아우내순대여주점","tel":"031-881-1265","addr":"경기도 여주시 점봉동 429-44번지","category":"일반휴게음식 - 일반한식"}]},{"lat":"37.257000459","long":"127.64761308","items":[{"name":"우리집 닭한마리 칼국수","tel":"031-886-2333","addr":"경기도 여주시 점봉동 350-1번지","category":"일반휴게음식 - 일반한식"}]},{"lat":"37.248554115","long":"127.64333706","items":[{"name":"우즈(woods)","tel":"","addr":"경기도 여주시 점봉동 198-4번지","category":"일반휴게음식 - 서양음식"}]},{"lat":"37.260751897","long":"127.64036287","items":[{"name":"웅골백숙","tel":"031-884-1950","addr":"경기도 여주시 점봉동 445-4번지","category":"일반휴게음식 - 일반한식"}]},{"lat":"37.264641582","long":"127.6391894","items":[{"name":"위드치킨(여주점)","tel":"031-882-1865","addr":"경기도 여주시 점봉동 435번지 1층","category":"일반휴게음식 - 스넥"}]},{"lat":"37.264415854","long":"127.63927769","items":[{"name":"이도여주쌀맛집","tel":"031-885-5925","addr":"경기도 여주시 점봉동 435-3번지","category":"일반휴게음식 - 일반한식"}]},{"lat":"37.264226044","long":"127.63938883","items":[{"name":"인 모텔","tel":"031-883-7183","addr":"경기도 여주시 점봉동 436-1번지","category":"숙박업 - 여관/기타숙박업"},{"name":"칠성각","tel":"031-881-6530","addr":"경기도 여주시 점봉동 436-1번지","category":"일반휴게음식 - 중국식"}]},{"lat":"37.264885754","long":"127.63902236","items":[{"name":"일품감자탕순대국","tel":"031-881-0082","addr":"경기도 여주시 점봉동 434번지","category":"일반휴게음식 - 일반한식"}]},{"lat":"37.256635678","long":"127.65499322","items":[{"name":"점봉정육점","tel":"031-882-0522","addr":"경기도 여주시 점봉동 344","category":"음료식품 - 정육점"}]},{"lat":"37.256752469","long":"127.64516492","items":[{"name":"점봉초등학교","tel":"031-4514-6037","addr":"경기도 여주시 점봉동 336번지 점봉초등학교","category":"학원 - 초중고교육기관"},{"name":"점봉초등학교병설유치원[아이행복]","tel":"031-881-6604","addr":"경기도 여주시 점봉동 336번지","category":"학원 - 유치원"}]},{"lat":"37.260719922","long":"127.63960732","items":[{"name":"점봉한우방","tel":"031-884-7415","addr":"경기도 여주시 점봉동 457-8번지","category":"일반휴게음식 - 일반한식"}]},{"lat":"37.248720056","long":"127.64927826","items":[{"name":"조양주유소","tel":"031-885-9000","addr":"경기도 여주시 점봉동 171-8번지","category":"연료판매점 - GS주유소"}]},{"lat":"37.256302779","long":"127.64832855","items":[{"name":"조은피씨에이","tel":"031-881-4353","addr":"경기도 여주시 점봉동 317번지","category":"건축자재 - 목재·석재·철물"}]},{"lat":"37.259031718","long":"127.63686517","items":[{"name":"주식회사 태영정보통신","tel":"070-7123-9321","addr":"경기도 여주시 점봉동 474-6번지 1동 102호","category":"용역 서비스 - 기타용역서비스"}]},{"lat":"37.266469407","long":"127.63941898","items":[{"name":"짬뽕진(장인)","tel":"031-884-8251","addr":"경기도 여주시 점봉동 429-180번지","category":"일반휴게음식 - 일반한식"}]},{"lat":"37.259886902","long":"127.63363709","items":[{"name":"차라도가든","tel":"031-881-5267","addr":"경기도 여주시 점봉동 478-4번지","category":"일반휴게음식 - 일반한식"}]},{"lat":"37.265780442","long":"127.63852258","items":[{"name":"천명종합건재","tel":"031-884-1486","addr":"경기도 여주시 점봉동 429번지","category":"기타 - 기계공구"}]},{"lat":"37.247195687","long":"127.64958082","items":[{"name":"청기와 한정식","tel":"031-884-6692","addr":"경기도 여주시 점봉동 183-2번지","category":"일반휴게음식 - 일반한식"}]},{"lat":"37.262662811","long":"127.64022115","items":[{"name":"청원푸드","tel":"031-886-0759","addr":"경기도 여주시 점봉동 438번지","category":"음료식품 - 기타음료식품"},{"name":"타이어직매장여주점","tel":"02-1111-1111","addr":"경기도 여주시 점봉동 438번지 A동 1호","category":"자동차정비 유지 - 자동차시트·타이어"}]},{"lat":"37.247748911","long":"127.64892057","items":[{"name":"켄드 커피랩/주식회사 케이에이치","tel":"02-0000-0000","addr":"경기도 여주시 점봉동 220-3번지","category":"일반휴게음식 - 서양음식"}]},{"lat":"37.254476244","long":"127.65116474","items":[{"name":"한서동물약품","tel":"070-4046-7995","addr":"경기도 여주시 점봉동 139-1번지 3동","category":"약국 - 제약회사"}]},{"lat":"37.264024759","long":"127.63152969","items":[{"name":"헤어스토리","tel":"031-883-2634","addr":"경기도 여주시 점봉동 429-182번지","category":"보건위생 - 미용원"}]},{"lat":"37.267221797","long":"127.64024829","items":[{"name":"효림상사","tel":"031-000-0000","addr":"경기도 여주시 점봉동 429-103번지 301호","category":"보건위생 - 화장품"}]},{"lat":"37.258809482","long":"127.649635","items":[{"name":"힘찬농산물","tel":"","addr":"경기도 여주시 점봉동 53-17번지","category":"음료식품 - 농·축·수산품"},{"name":"힘찬장어","tel":"031-885-0592","addr":"경기도 여주시 점봉동 53-17번지","category":"일반휴게음식 - 일반한식"}]}]