[{"lat":"37.38750854","long":"127.200535","items":[{"name":"(주)그린시스템","tel":"031-768-1279","addr":"경기도 광주시 목동 234번지","category":"음료식품 - 기타음료식품"},{"name":"(주)그린시스템/게이트뱅크(일반)","tel":"031-282-1273","addr":"경기도 광주시 목동 234번지","category":"기타 - 기타 전문점"},{"name":"바른이벤트","tel":"031-111-1111","addr":"경기도 광주시 목동 234번지","category":"용역 서비스 - 종합용역"},{"name":"주식회사 반산트","tel":"031-762-8932","addr":"경기도 광주시 목동 234번지 B","category":"가구 - 철제가구"}]},{"lat":"37.3851415","long":"127.2146432","items":[{"name":"(주)대건상사","tel":"031-765-1540","addr":"경기도 광주시 목동 19-5번지","category":"유통업 영리 - 기타유통업"}]},{"lat":"37.38878403","long":"127.1974782","items":[{"name":"(주)로뎀","tel":"031-765-8893","addr":"경기도 광주시 목동 253번지","category":"기타의료기관 - 기타의료기관 및 기타"}]},{"lat":"37.38597903","long":"127.2148714","items":[{"name":"(주)아이비미트","tel":"031-768-7888","addr":"경기도 광주시 목동 18-2번지 201호","category":"음료식품 - 정육점"}]},{"lat":"37.38292306","long":"127.2157322","items":[{"name":"(주)제이씨가스 광주지점","tel":"02-2183-3824","addr":"경기도 광주시 목동 52-1번지","category":"연료판매점 - 기타연료"}]},{"lat":"37.38483389","long":"127.2050671","items":[{"name":"AZ씨엔씨","tel":"031-768-5043","addr":"경기도 광주시 목동 181번지","category":"기타 - 기계공구"}]},{"lat":"37.38450152","long":"127.2147882","items":[{"name":"GS25목동대명점","tel":"","addr":"경기도 광주시 목동 34번지","category":"유통업 영리 - 편 의 점"},{"name":"GS25목동대명점","tel":"","addr":"경기도 광주시 목동 34번지","category":"유통업 영리 - 상품권전문판매"}]},{"lat":"37.38508421","long":"127.1954474","items":[{"name":"The fold(더 폴드)","tel":"031-761-6848","addr":"경기도 광주시 목동 448-3번지 1동","category":"건축자재 - 기타건축자재"}]},{"lat":"37.38330622","long":"127.2079536","items":[{"name":"UGL학원","tel":"031-764-8877","addr":"경기도 광주시 목동 162번지","category":"학원 - 보습학원"},{"name":"씨유광주목동점","tel":"080-080-3663","addr":"경기도 광주시 목동 162번지 1층","category":"유통업 영리 - 편 의 점"},{"name":"트리플도어","tel":"031-763-3007","addr":"경기도 광주시 목동 162번지 2층","category":"건축자재 - 기타건축자재"}]},{"lat":"37.38583586","long":"127.1930894","items":[{"name":"WITH-TECII","tel":"031-797-7201","addr":"경기도 광주시 목동 442-1번지 2동","category":"기타 - 기계공구"}]},{"lat":"37.37733702","long":"127.2053406","items":[{"name":"거성가구","tel":"031-766-4335","addr":"경기도 광주시 목동 142-60번지","category":"가구 - 일반가구"}]},{"lat":"37.38361642","long":"127.1949243","items":[{"name":"게러지 플러스","tel":"","addr":"경기도 광주시 목동 412-5번지","category":"자동차정비 유지 - 자동차시트·타이어"}]},{"lat":"37.37770261","long":"127.2022931","items":[{"name":"경안푸드","tel":"031-764-4252","addr":"경기도 광주시 목동 143-12번지","category":"음료식품 - 기타음료식품"}]},{"lat":"37.38078677","long":"127.2111759","items":[{"name":"경일기계","tel":"031-765-2670","addr":"경기도 광주시 목동 100-1번지","category":"기타 - 기계공구"},{"name":"하이랜드","tel":"031-766-6357","addr":"경기도 광주시 목동 100-1번지","category":"전기제품 - 가전제품"}]},{"lat":"37.38836399","long":"127.2008421","items":[{"name":"고릴라","tel":"070-8874-7938","addr":"경기도 광주시 목동 244번지 3호동","category":"자동차정비 유지 - 자동차부품"}]},{"lat":"37.38025819","long":"127.2042306","items":[{"name":"그린직업전문학교주식회사","tel":"031-797-5004","addr":"경기도 광주시 목동 145번지","category":"학원 - 기능학원"}]},{"lat":"37.38305936","long":"127.1994506","items":[{"name":"나무골가든","tel":"031-765-7765","addr":"경기도 광주시 목동 333번지","category":"일반휴게음식 - 일반한식"}]},{"lat":"37.38603448","long":"127.1928415","items":[{"name":"남양테크","tel":"031-765-2704","addr":"경기도 광주시 목동 442번지","category":"기타 - 기계공구"}]},{"lat":"37.38411982","long":"127.2063976","items":[{"name":"노바힐스","tel":"02-111-1111","addr":"경기도 광주시 목동 168-4번지 3층 301호","category":"약국 - 제약회사"}]},{"lat":"37.3840311","long":"127.1891555","items":[{"name":"다옴","tel":"031-761-6294","addr":"경기도 광주시 목동 472-1번지","category":"가구 - 일반가구"}]},{"lat":"37.38413962","long":"127.2156227","items":[{"name":"대성테크","tel":"031-768-7830","addr":"경기도 광주시 목동 43-4번지","category":"전기제품 - 기타전기제품"}]},{"lat":"37.38353391","long":"127.2065428","items":[{"name":"대영BMI","tel":"031-763-9395","addr":"경기도 광주시 목동 157번지","category":"주방용구 - 기타주방용구"}]},{"lat":"37.38330751","long":"127.2019241","items":[{"name":"대화상사","tel":"070-4898-3052","addr":"경기도 광주시 목동 290번지","category":"직물 - 기타직물"}]},{"lat":"37.38436903","long":"127.1975119","items":[{"name":"대흥통상","tel":"031-768-8631","addr":"경기도 광주시 목동 404번지","category":"사무통신 - 통신기기"}]},{"lat":"37.38244524","long":"127.1948423","items":[{"name":"동인요양원","tel":"031-797-9033","addr":"경기도 광주시 목동 392-10번지","category":"기타의료기관 - 기타의료기관 및 기타"}]},{"lat":"37.38531027","long":"127.1949512","items":[{"name":"드림라인","tel":"031-767-7232","addr":"경기도 광주시 목동 448-9번지","category":"전기제품 - 가전제품"}]},{"lat":"37.38083597","long":"127.1926477","items":[{"name":"디오프(the off)","tel":"031-768-0633","addr":"경기도 광주시 목동 358-7번지","category":"레져용품 - 스포츠·레져용품"}]},{"lat":"37.38617396","long":"127.2167011","items":[{"name":"렉스톤오르간","tel":"031-767-2508","addr":"경기도 광주시 목동 3번지","category":"레져용품 - 악기점"}]},{"lat":"37.38500599","long":"127.1936745","items":[{"name":"로데코(RODECO)","tel":"031-212-3735","addr":"경기도 광주시 목동 430번지","category":"가구 - 기타가구"}]},{"lat":"37.38278142","long":"127.2092281","items":[{"name":"마이티푸드웰(주)","tel":"031-765-2298","addr":"경기도 광주시 목동 127-3번지","category":"음료식품 - 농·축·수산품"},{"name":"명보공조시스템","tel":"031-768-4581","addr":"경기도 광주시 목동 127-3번지 2동","category":"전기제품 - 냉열기기"},{"name":"주식회사 위버스컴퍼니","tel":"02-583-5240","addr":"경기도 광주시 목동 127-3번지","category":"음료식품 - 농·축·수산품"}]},{"lat":"37.38422367","long":"127.2036202","items":[{"name":"맘에버","tel":"","addr":"경기도 광주시 목동 206-1번지 2층","category":"음료식품 - 정육점"}]},{"lat":"37.38372399","long":"127.1952633","items":[{"name":"목동슈퍼","tel":"031-765-2513","addr":"경기도 광주시 목동 413","category":"유통업 영리 - 슈퍼마켓"}]},{"lat":"37.38425366","long":"127.2018701","items":[{"name":"목리식당","tel":"031-767-0399","addr":"경기도 광주시 목동 213번지 명성빌라","category":"일반휴게음식 - 일반한식"}]},{"lat":"37.38414643","long":"127.2013391","items":[{"name":"미모사명품리폼전문","tel":"070-8153-5050","addr":"경기도 광주시 목동 321-1번지 1층 미모사","category":"수리서비스 - 세탁소"}]},{"lat":"37.38344756","long":"127.1934786","items":[{"name":"민우드","tel":"031-761-8225","addr":"경기도 광주시 목동 412-16번지","category":"건축자재 - 기타건축자재"}]},{"lat":"37.384786","long":"127.1959887","items":[{"name":"범안유통","tel":"070-7106-3834","addr":"경기도 광주시 목동 420-2번지 2호","category":"자동차정비 유지 - 자동차부품"}]},{"lat":"37.38502936","long":"127.2066711","items":[{"name":"삼성상사","tel":"031-764-6924","addr":"경기도 광주시 목동 165-2번지","category":"건축자재 - 기타건축자재"}]},{"lat":"37.38317062","long":"127.2133391","items":[{"name":"새나리흑돼지","tel":"031-763-8331","addr":"경기도 광주시 목동 68-1번지","category":"일반휴게음식 - 일반한식"}]},{"lat":"37.38341726","long":"127.2009533","items":[{"name":"새벽유통","tel":"031-946-0977","addr":"경기도 광주시 목동 294번지 가동","category":"신변잡화 - 기타잡화"},{"name":"새벽유통","tel":"031-946-0977","addr":"경기도 광주시 목동 294번지 가동","category":"신변잡화 - 기타잡화"}]},{"lat":"37.3849189","long":"127.2027639","items":[{"name":"서진상사","tel":"031-798-5922","addr":"경기도 광주시 목동 218-2","category":"음료식품 - 농·축·수산품"},{"name":"서진상사","tel":"031-798-5922","addr":"경기도 광주시 목동 218-2번지","category":"별도관리 - 자체물품대금"}]},{"lat":"37.37986849","long":"127.2158139","items":[{"name":"성진산업","tel":"031-767-4835","addr":"경기도 광주시 목동 89번지","category":"유통업 영리 - 기타유통업"}]},{"lat":"37.3835308","long":"127.2083381","items":[{"name":"성진엔지니어링","tel":"031-797-4374","addr":"경기도 광주시 목동 163-8번지","category":"기타 - 기계공구"}]},{"lat":"37.3825614","long":"127.2164312","items":[{"name":"세영정밀","tel":"031-798-6653","addr":"경기도 광주시 목동 52-2번지","category":"기타 - 기계공구"}]},{"lat":"37.38464795","long":"127.1922057","items":[{"name":"세찬실업","tel":"031-763-7562","addr":"경기도 광주시 목동 454번지","category":"건축자재 - 기타건축자재"}]},{"lat":"37.38178717","long":"127.1950438","items":[{"name":"세한어닝","tel":"031-797-2285","addr":"경기도 광주시 목동 353-15번지","category":"직물 - 카페트,커튼,천막,지물"}]},{"lat":"37.38336404","long":"127.1949801","items":[{"name":"스마트싸인","tel":"","addr":"경기도 광주시 목동 412-6번지","category":"건축자재 - 인테리어전문"}]},{"lat":"37.38350375","long":"127.1977017","items":[{"name":"승화식당","tel":"031-761-1013","addr":"경기도 광주시 목동 396번지","category":"일반휴게음식 - 일반한식"}]},{"lat":"37.38444698","long":"127.2047612","items":[{"name":"시강산업","tel":"031-764-1998","addr":"경기도 광주시 목동 200-4번지","category":"유통업 영리 - 기타유통업"}]},{"lat":"37.38112068","long":"127.210872","items":[{"name":"신신전자의료기","tel":"031-767-4094","addr":"경기도 광주시 목동 104번지","category":"보건위생 - 의료용품"},{"name":"주식회사 미르홈","tel":"070-4134-0900","addr":"경기도 광주시 목동 104번지","category":"직물 - 침구·수예점"},{"name":"주식회사 신신에너텍","tel":"031-765-4520","addr":"경기도 광주시 목동 104번지 A","category":"건축자재 - 보일러·펌프·샷시"}]},{"lat":"37.38484006","long":"127.206727","items":[{"name":"아이엠메탈","tel":"031-763-9966","addr":"경기도 광주시 목동 165-18번지 외3필지","category":"건축자재 - 기타건축자재"}]},{"lat":"37.38392163","long":"127.2010676","items":[{"name":"알천","tel":"031-765-3923","addr":"경기도 광주시 목동 318-2번지","category":"음료식품 - 정육점"}]},{"lat":"37.38084202","long":"127.2155682","items":[{"name":"에스제이이엔지 (SJ ENG)","tel":"031-768-4626","addr":"경기도 광주시 목동 83번지","category":"기타 - 기계공구"}]},{"lat":"37.37969772","long":"127.205313","items":[{"name":"에스하우스","tel":"","addr":"경기도 광주시 목동 141-2번지","category":"가구 - 일반가구"}]},{"lat":"37.38298021","long":"127.2089012","items":[{"name":"에이스테크","tel":"","addr":"경기도 광주시 목동 126-6번지 1층","category":"신변잡화 - 기타잡화"}]},{"lat":"37.38411707","long":"127.1973193","items":[{"name":"엘코덴탈","tel":"031-767-8052","addr":"경기도 광주시 목동 406번지","category":"신변잡화 - 기타잡화"}]},{"lat":"37.3833379","long":"127.2052551","items":[{"name":"영도Color","tel":"031-767-1482","addr":"경기도 광주시 목동 172번지","category":"건축자재 - 유리"}]},{"lat":"37.38542065","long":"127.2147343","items":[{"name":"옥토골한식뷔페","tel":"031-768-1548","addr":"경기도 광주시 목동 19-4번지","category":"일반휴게음식 - 일반한식"}]},{"lat":"37.38358434","long":"127.2137581","items":[{"name":"우리샤링","tel":"031-767-7101","addr":"경기도 광주시 목동 37-2번지","category":"건축자재 - 목재·석재·철물"}]},{"lat":"37.38200402","long":"127.2054773","items":[{"name":"이마트위드미 광주목동점","tel":"","addr":"경기도 광주시 목동 138-1번지","category":"유통업 영리 - 편 의 점"},{"name":"주식회사 이엘스포츠","tel":"031-765-1873","addr":"경기도 광주시 목동 138-1번지 1층","category":"레져용품 - 골프용품 전문점"}]},{"lat":"37.38048077","long":"127.2160414","items":[{"name":"이지폴딩","tel":"031-763-6067","addr":"경기도 광주시 목동 90-10","category":"건축자재 - 기타건축자재"},{"name":"이지폴딩디자인(택홈브이)","tel":"031-1600-9372","addr":"경기도 광주시 목동 90-10번지","category":"건축자재 - 인테리어전문"}]},{"lat":"37.38089715","long":"127.1938221","items":[{"name":"자연머뭄요가단식여성센터","tel":"02-1111-1111","addr":"경기도 광주시 목동 354-20번지","category":"레저업소 - 헬스클럽"}]},{"lat":"37.38470298","long":"127.2025714","items":[{"name":"제이에스 홈 퍼니처","tel":"031-768-5154","addr":"경기도 광주시 목동 216-1번지","category":"가구 - 일반가구"}]},{"lat":"37.38017534","long":"127.2155325","items":[{"name":"제일가스텍","tel":"031-767-8800","addr":"경기도 광주시 목동 87-2번지","category":"연료판매점 - LPG 취급점"},{"name":"주식회사케이앤지","tel":"031-749-9155","addr":"경기도 광주시 목동 87-2번지","category":"연료판매점 - 기타연료"}]},{"lat":"37.37950693","long":"127.2164564","items":[{"name":"주식회사 기림드래프트이큅먼트","tel":"02-2205-0303","addr":"경기도 광주시 목동 90-5번지","category":"주방용구 - 주방용구"}]},{"lat":"37.38497936","long":"127.2146201","items":[{"name":"주식회사 먹깨비푸드","tel":"031-767-8373","addr":"경기도 광주시 목동 19-6번지","category":"음료식품 - 기타음료식품"}]},{"lat":"37.38241738","long":"127.206122","items":[{"name":"주식회사 올싸인(ALL SIGN CO.Ltd)","tel":"031-765-6142","addr":"경기도 광주시 목동 132-5번지","category":"건축자재 - 인테리어전문"}]},{"lat":"37.38536176","long":"127.2072365","items":[{"name":"주식회사 지디엠인덕션","tel":"031-747-7750","addr":"경기도 광주시 목동 165-20번지 1동","category":"주방용구 - 주방용구"}]},{"lat":"37.38186707","long":"127.2167341","items":[{"name":"주식회사굿에어시스템","tel":"031-798-8080","addr":"경기도 광주시 목동 51-1번지","category":"전기제품 - 기타전기제품"}]},{"lat":"37.38364403","long":"127.2156439","items":[{"name":"주식회사빅조이","tel":"031-765-0551","addr":"경기도 광주시 목동 44-6번지","category":"의류 - 정장"}]},{"lat":"37.38180688","long":"127.2048445","items":[{"name":"주하 앤 해피(주하&happy)","tel":"031-625-8663","addr":"경기도 광주시 목동 148-44번지 1동 301호","category":"의류 - 정장"}]},{"lat":"37.38184268","long":"127.194152","items":[{"name":"진주쉘","tel":"031-762-9050","addr":"경기도 광주시 목동 354번지","category":"신변잡화 - 액세서리"}]},{"lat":"37.3848353","long":"127.2145633","items":[{"name":"짱김밥천국","tel":"031-765-9978","addr":"경기도 광주시 목동 19-7번지 1층 102호","category":"일반휴게음식 - 일반한식"},{"name":"커피나무","tel":"031-776-3121","addr":"경기도 광주시 목동 19-7번지 101호","category":"일반휴게음식 - 일반한식"}]},{"lat":"37.38306318","long":"127.2129549","items":[{"name":"친절카센타","tel":"031-765-8750","addr":"경기도 광주시 목동 69-1번지","category":"자동차정비 유지 - 자동차정비"}]},{"lat":"37.38003248","long":"127.2148095","items":[{"name":"칼로스","tel":"031-767-6474","addr":"경기도 광주시 목동 91번지","category":"주방용구 - 주방용구"}]},{"lat":"37.38605727","long":"127.2062335","items":[{"name":"케이스타주식회사","tel":"031-761-8731","addr":"경기도 광주시 목동 165-17번지","category":"기타 - 기계공구"}]},{"lat":"37.38592442","long":"127.2151761","items":[{"name":"태성종합공구","tel":"031-765-7272","addr":"경기도 광주시 목동 18-1번지 3호","category":"건축자재 - 목재·석재·철물"},{"name":"현진타이어","tel":"031-763-4568","addr":"경기도 광주시 목동 18-1번지","category":"자동차정비 유지 - 자동차시트·타이어"}]},{"lat":"37.38022935","long":"127.2052919","items":[{"name":"텃밭한식부페","tel":"031-762-9980","addr":"경기도 광주시 목동 141번지 1층","category":"일반휴게음식 - 일반한식"}]},{"lat":"37.3810862","long":"127.1939242","items":[{"name":"한국미술재료","tel":"031-322-2772","addr":"경기도 광주시 목동 354-15번지","category":"서적문구 - 문구용품"}]},{"lat":"37.37784201","long":"127.2050935","items":[{"name":"한국폴리마","tel":"031-798-6782","addr":"경기도 광주시 목동 142-83번지","category":"직물 - 옷감·직물"}]},{"lat":"37.38722927","long":"127.2005117","items":[{"name":"해진유통","tel":"031-765-2685","addr":"경기도 광주시 목동 235-2번지","category":"전기제품 - 가전제품"}]},{"lat":"37.38420142","long":"127.200786","items":[{"name":"화양연화","tel":"070-3284-8144","addr":"경기도 광주시 목동 321-2번지","category":"일반휴게음식 - 서양음식"}]}]