[{"lat":"37.3705296","long":"127.1228763","items":[{"name":"25커피","tel":"031-717-2050","addr":"경기도 성남시 분당구 수내동 63-2번지","category":""},{"name":"동신사진관","tel":"031-711-4371","addr":"경기도 성남시 분당구 수내동 63-2번지","category":""},{"name":"루디아 수내점","tel":"031-704-0846","addr":"경기도 성남시 분당구 수내동 63-2번지","category":""},{"name":"사랑","tel":"031-718-0090","addr":"경기도 성남시 분당구 수내동 63-2번지","category":""},{"name":"속초가진물회","tel":"031-726-1577","addr":"경기도 성남시 분당구 수내동 63-2번지","category":""},{"name":"아트파일 미술학원","tel":"031-714-7757","addr":"경기도 성남시 분당구 수내동 63-2번지","category":""},{"name":"안경마을 수내점","tel":"031-711-2859","addr":"경기도 성남시 분당구 수내동 63-2번지","category":""},{"name":"앨리잼키즈잉글리쉬어학원","tel":"031-713-0714","addr":"경기도 성남시 분당구 수내동 63-2번지","category":""},{"name":"에이원","tel":"031-711-4588","addr":"경기도 성남시 분당구 수내동 63-2번지","category":""},{"name":"주식회사 분당화방문구","tel":"031-712-1776","addr":"경기도 성남시 분당구 수내동 63-2번지","category":""},{"name":"코코 수내점","tel":"031-711-7879","addr":"경기도 성남시 분당구 수내동 63-2번지","category":""},{"name":"트라이 수내점","tel":"031-712-2746","addr":"경기도 성남시 분당구 수내동 63-2번지","category":""},{"name":"하우투잉글리쉬","tel":"031-8022-9900","addr":"경기도 성남시 분당구 수내동 63-2번지","category":""}]},{"lat":"37.3696732","long":"127.12327","items":[{"name":"7번가피자 수내정자점","tel":"031-752-2777","addr":"경기도 성남시 분당구 수내동 79-1번지","category":""},{"name":"수내속옷","tel":"031-711-7771","addr":"경기도 성남시 분당구 수내동 79-1번지","category":""},{"name":"스쿨룩스학생복 분당점","tel":"031-707-1318","addr":"경기도 성남시 분당구 수내동 79-1번지","category":""},{"name":"아이비클럽","tel":"031-719-4334","addr":"경기도 성남시 분당구 수내동 79-1번지","category":""},{"name":"초록안경","tel":"031-786-0035","addr":"경기도 성남시 분당구 수내동 79-1번지","category":""}]},{"lat":"37.3773122","long":"127.1157403","items":[{"name":"B. T. M Frenche Caf?","tel":"031-711-9848","addr":"경기도 성남시 분당구 수내동 33-2번지","category":""},{"name":"KTI수학보습학원","tel":"031-726-1030","addr":"경기도 성남시 분당구 수내동 33-2번지","category":""}]},{"lat":"37.3668679","long":"127.1263474","items":[{"name":"YBM잉글루분당수내학원","tel":"031-716-0567","addr":"경기도 성남시 분당구 수내동 83-3번지","category":""},{"name":"스튜디오 홍","tel":"031-716-0315","addr":"경기도 성남시 분당구 수내동 83-3번지","category":""},{"name":"온더데스크수내2호점","tel":"031-7169-8209","addr":"경기도 성남시 분당구 수내동 83-3번지","category":""},{"name":"주)스포츠코리아","tel":"031-711-0342","addr":"경기도 성남시 분당구 수내동 83-3번지","category":""}]},{"lat":"37.3770602","long":"127.1154351","items":[{"name":"㈜도드람푸드(도드람미트마켓)","tel":"031-786-0231","addr":"경기도 성남시 분당구 수내동 33-1번지","category":""},{"name":"양지골남원추어탕","tel":"031-716-3577","addr":"경기도 성남시 분당구 수내동 33-1번지","category":""},{"name":"임박사정육시장","tel":"031-718-9188","addr":"경기도 성남시 분당구 수내동 33-1번지","category":""},{"name":"체험 수학 보습 학원","tel":"031-717-8395","addr":"경기도 성남시 분당구 수내동 33-1번지","category":""},{"name":"헤론수학보습학원","tel":"031-714-6220","addr":"경기도 성남시 분당구 수내동 33-1번지","category":""}]},{"lat":"37.3670026","long":"127.1267653","items":[{"name":"㈜동한프라자","tel":"031-717-8880","addr":"경기도 성남시 분당구 수내동 83-1번지","category":""},{"name":"꼬물상","tel":"031-716-5709","addr":"경기도 성남시 분당구 수내동 83-1번지","category":""},{"name":"단풍애김밥 분당수내점","tel":"031-714-0910","addr":"경기도 성남시 분당구 수내동 83-1번지","category":""},{"name":"모닝글로리 수내점","tel":"031-719-1942","addr":"경기도 성남시 분당구 수내동 83-1번지","category":""},{"name":"선비떡방","tel":"031-715-4450","addr":"경기도 성남시 분당구 수내동 83-1번지","category":""},{"name":"스위트초이스","tel":"031-713-7637","addr":"경기도 성남시 분당구 수내동 83-1번지","category":""},{"name":"아이비독서실","tel":"","addr":"경기도 성남시 분당구 수내동 83-1번지","category":""},{"name":"에스티 제이콥 (St-Jacob)","tel":"","addr":"경기도 성남시 분당구 수내동 83-1번지","category":""},{"name":"코코모스","tel":"031-719-4811","addr":"경기도 성남시 분당구 수내동 83-1번지","category":""},{"name":"티아이디교육","tel":"031-719-8719","addr":"경기도 성남시 분당구 수내동 83-1번지","category":""},{"name":"한꿈터독서실","tel":"031-715-9141","addr":"경기도 성남시 분당구 수내동 83-1번지","category":""},{"name":"한보습학원","tel":"031-715-9141","addr":"경기도 성남시 분당구 수내동 83-1번지","category":""},{"name":"할매순대국 수내점","tel":"031-714-7771","addr":"경기도 성남시 분당구 수내동 83-1번지","category":""},{"name":"행복한 고기마을 수내점","tel":"031-731-6823","addr":"경기도 성남시 분당구 수내동 83-1번지","category":""}]},{"lat":"37.3774217","long":"127.1142953","items":[{"name":"㈜하모니마트 수내점","tel":"031-713-9400","addr":"경기도 성남시 분당구 수내동 16-1번지","category":""}]},{"lat":"37.3771445","long":"127.1120707","items":[{"name":"가마로강정 수내롯데점","tel":"031-711-7293","addr":"경기도 성남시 분당구 수내동 20-5번지","category":""}]},{"lat":"37.3780634","long":"127.1122414","items":[{"name":"개성떡볶이","tel":"031-712-8887","addr":"경기도 성남시 분당구 수내동 21-1번지","category":""},{"name":"테이블스푼","tel":"031-711-3585","addr":"경기도 성남시 분당구 수내동 21-1번지","category":""}]},{"lat":"37.3767577","long":"127.111325","items":[{"name":"개성전통삼계탕","tel":"031-716-3454","addr":"경기도 성남시 분당구 수내동 22-3번지","category":""},{"name":"브랜드리더블유영어학원","tel":"031-786-1286","addr":"경기도 성남시 분당구 수내동 22-3번지","category":""},{"name":"피플스","tel":"031-713-4999","addr":"경기도 성남시 분당구 수내동 22-3번지","category":""}]},{"lat":"37.382643","long":"127.1190792","items":[{"name":"구내복지이발소","tel":"031-729-7599","addr":"경기도 성남시 분당구 수내동 1번지","category":""},{"name":"분당구청 구내식당","tel":"031-729-7560","addr":"경기도 성남시 분당구 수내동 1번지","category":""}]},{"lat":"37.3665338","long":"127.1271032","items":[{"name":"그리고그리다","tel":"070-4222-6552","addr":"경기도 성남시 분당구 수내동 88-4번지","category":""}]},{"lat":"37.3702867","long":"127.1225485","items":[{"name":"금산골프","tel":"031-713-0211","addr":"경기도 성남시 분당구 수내동 63-1번지","category":""},{"name":"금산열쇠","tel":"031-711-0045","addr":"경기도 성남시 분당구 수내동 63-1번지","category":""},{"name":"라꼬떼","tel":"031-711-8471","addr":"경기도 성남시 분당구 수내동 63-1번지","category":""},{"name":"코딩랩 학원","tel":"031-717-2922","addr":"경기도 성남시 분당구 수내동 63-1번지","category":""},{"name":"포스 독서실","tel":"031-715-4678","addr":"경기도 성남시 분당구 수내동 63-1번지","category":""}]},{"lat":"37.373614","long":"127.119912","items":[{"name":"금줄산모 베이비시터코리아","tel":"031-719-7746","addr":"경기도 성남시 분당구 수내동 58-2번지","category":""},{"name":"하우 스터디 독서실 수내 1센터","tel":"031-716-0902","addr":"경기도 성남시 분당구 수내동 58-2번지","category":""}]},{"lat":"37.3808612","long":"127.1167957","items":[{"name":"김영희동태찜&코다리냉면 (수내점)","tel":"031-711-1178","addr":"경기도 성남시 분당구 수내동 4-3번지","category":""},{"name":"주식회사 장홍규차이니스","tel":"031-711-0051","addr":"경기도 성남시 분당구 수내동 4-3번지","category":""}]},{"lat":"37.3670288","long":"127.1276346","items":[{"name":"깊은생각 국어 논술 학원","tel":"031-717-1187","addr":"경기도 성남시 분당구 수내동 87-1번지","category":""},{"name":"조아마트","tel":"031-711-4739","addr":"경기도 성남시 분당구 수내동 87-1번지","category":""}]},{"lat":"37.3734516","long":"127.1201827","items":[{"name":"나이스가이 수내점","tel":"031-712-2547","addr":"경기도 성남시 분당구 수내동 58-5번지","category":""},{"name":"매쓰팝보습학원","tel":"031-711-3600","addr":"경기도 성남시 분당구 수내동 58-5번지","category":""}]},{"lat":"37.3650902","long":"127.128907","items":[{"name":"네네치킨 수내점","tel":"031-715-7975","addr":"경기도 성남시 분당구 수내동 113-5번지","category":""}]},{"lat":"37.3791143","long":"127.1156865","items":[{"name":"놀부부대찌개 (수내점)","tel":"031-718-0955","addr":"경기도 성남시 분당구 수내동 7-8번지","category":""}]},{"lat":"37.3653366","long":"127.1259611","items":[{"name":"대성전기조명","tel":"031-719-5656","addr":"경기도 성남시 분당구 수내동 95-1번지","category":""}]},{"lat":"37.3799781","long":"127.1169072","items":[{"name":"두리등족구이골","tel":"031-713-6886","addr":"경기도 성남시 분당구 수내동 7-1번지","category":""},{"name":"백년회관 서서갈비","tel":"031-711-9202","addr":"경기도 성남시 분당구 수내동 7-1번지","category":""}]},{"lat":"37.365508","long":"127.125792","items":[{"name":"디자인바이주신","tel":"031-712-7683","addr":"경기도 성남시 분당구 수내동 96-1번지","category":""},{"name":"주신인테리어","tel":"031-712-7683","addr":"경기도 성남시 분당구 수내동 96-1번지","category":""}]},{"lat":"37.3676435","long":"127.1257165","items":[{"name":"또올레","tel":"031-715-0337","addr":"경기도 성남시 분당구 수내동 74번지","category":""},{"name":"싱싱회센타","tel":"031-711-3062","addr":"경기도 성남시 분당구 수내동 74번지","category":""}]},{"lat":"37.3656418","long":"127.1270791","items":[{"name":"라쥬아플레르","tel":"031-715-6118","addr":"경기도 성남시 분당구 수내동 90-1번지","category":""}]},{"lat":"37.3800869","long":"127.1161848","items":[{"name":"로그인 편의점","tel":"031-712-8419","addr":"경기도 성남시 분당구 수내동 8-3번지","category":""},{"name":"할매순대국","tel":"031-717-1468","addr":"경기도 성남시 분당구 수내동 8-3번지","category":""}]},{"lat":"37.378279","long":"127.1128514","items":[{"name":"로레토","tel":"031-717-1391","addr":"경기도 성남시 분당구 수내동 11-4번지","category":""}]},{"lat":"37.3664258","long":"127.1269337","items":[{"name":"롯데리아 분당수내동점","tel":"031-713-2229","addr":"경기도 성남시 분당구 수내동 88-3번지","category":""},{"name":"봉평메밀면사무소","tel":"031-715-8892","addr":"경기도 성남시 분당구 수내동 88-3번지","category":""}]},{"lat":"37.3769187","long":"127.1126574","items":[{"name":"만선전어회박사네","tel":"031-711-7310","addr":"경기도 성남시 분당구 수내동 19-4번지","category":""},{"name":"분당수내점 홍콩반점0410","tel":"031-718-0410","addr":"경기도 성남시 분당구 수내동 19-4번지","category":""},{"name":"한국인삼공사 분당수내점","tel":"031-726-1177","addr":"경기도 성남시 분당구 수내동 19-4번지","category":""}]},{"lat":"37.3663089","long":"127.1267641","items":[{"name":"맘스떡볶이","tel":"031-714-8825","addr":"경기도 성남시 분당구 수내동 88-2번지","category":""},{"name":"사람과미래수학원","tel":"031-712-5403","addr":"경기도 성남시 분당구 수내동 88-2번지","category":""},{"name":"참조은감자탕","tel":"031-716-5881","addr":"경기도 성남시 분당구 수내동 88-2번지","category":""}]},{"lat":"37.3763689","long":"127.112826","items":[{"name":"모유육아상담실","tel":"","addr":"경기도 성남시 분당구 수내동 16-7번지","category":""}]},{"lat":"37.3742815","long":"127.1192356","items":[{"name":"미엘르헤어아트홀","tel":"031-718-3479","addr":"경기도 성남시 분당구 수내동 28-5번지","category":""}]},{"lat":"37.3793383","long":"127.1169627","items":[{"name":"미카도스시 수내역점","tel":"031-712-3300","addr":"경기도 성남시 분당구 수내동 6-3번지","category":""}]},{"lat":"37.3731457","long":"127.1197645","items":[{"name":"배움샘터보습학원","tel":"031-711-7950","addr":"경기도 성남시 분당구 수내동 58-3번지","category":""},{"name":"한살림성남용인소비자 생협 수내매장","tel":"031-712-0744","addr":"경기도 성남시 분당구 수내동 58-3번지","category":""}]},{"lat":"37.3787543","long":"127.1152682","items":[{"name":"베러댄와플 수내역점","tel":"031-711-7941","addr":"경기도 성남시 분당구 수내동 13-2번지","category":""}]},{"lat":"37.3698982","long":"127.1235978","items":[{"name":"북경중국어학원","tel":"031-711-2580","addr":"경기도 성남시 분당구 수내동 79-2번지","category":""},{"name":"새벽 정신 어학원","tel":"031-715-0580","addr":"경기도 성남시 분당구 수내동 79-2번지","category":""},{"name":"코코 수내지점","tel":"031-3755-4583","addr":"경기도 성남시 분당구 수내동 79-2번지","category":""},{"name":"헤나스토리","tel":"031-711-3374","addr":"경기도 성남시 분당구 수내동 79-2번지","category":""},{"name":"현대서점","tel":"031-717-2560","addr":"경기도 성남시 분당구 수내동 79-2번지","category":""}]},{"lat":"37.3772508","long":"127.1140466","items":[{"name":"분당 더 팰리스 산후조리원","tel":"031-711-6169","addr":"경기도 성남시 분당구 수내동 16-2번지","category":""}]},{"lat":"37.3786464","long":"127.1150761","items":[{"name":"세계로약국","tel":"031-719-0460","addr":"경기도 성남시 분당구 수내동 13-3번지","category":""}]},{"lat":"37.3666687","long":"127.1272953","items":[{"name":"속옷아울렛","tel":"031-602-6308","addr":"경기도 성남시 분당구 수내동 88-5번지","category":""},{"name":"티아이디주니어학원","tel":"031-719-8719","addr":"경기도 성남시 분당구 수내동 88-5번지","category":""}]},{"lat":"37.3654798","long":"127.1268531","items":[{"name":"솔레스테 (Soleste)","tel":"031-717-0112","addr":"경기도 성남시 분당구 수내동 94-7번지","category":""},{"name":"호미스(HOMIE'S)","tel":"031-712-7181","addr":"경기도 성남시 분당구 수내동 94-7번지","category":""}]},{"lat":"37.364756","long":"127.1297079","items":[{"name":"수내사(수내세탁소)","tel":"031-719-0268","addr":"경기도 성남시 분당구 수내동 115-1번지","category":""}]},{"lat":"37.3646154","long":"127.126355","items":[{"name":"수내생고기집","tel":"031-711-0448","addr":"경기도 성남시 분당구 수내동 102-1번지","category":""}]},{"lat":"37.3637581","long":"127.1275727","items":[{"name":"수내진곰탕","tel":"031-716-6266","addr":"경기도 성남시 분당구 수내동 104-6번지","category":""}]},{"lat":"37.3690596","long":"127.1242399","items":[{"name":"수내홈마트","tel":"031-711-7441","addr":"경기도 성남시 분당구 수내동 75번지","category":""},{"name":"영심이분식","tel":"031-711-8119","addr":"경기도 성남시 분당구 수내동 75번지","category":""},{"name":"인더스트리아","tel":"","addr":"경기도 성남시 분당구 수내동 75번지","category":""}]},{"lat":"37.3788645","long":"127.113078","items":[{"name":"싸이더스바이크","tel":"031-717-3184","addr":"경기도 성남시 분당구 수내동 11-1번지 청구블루빌","category":""}]},{"lat":"37.3711972","long":"127.1220758","items":[{"name":"아씨","tel":"","addr":"경기도 성남시 분당구 수내동 53번지 파크타운주상복합상가","category":""}]},{"lat":"37.3775036","long":"127.1134938","items":[{"name":"아이디헤어 분당수내2호점","tel":"031-718-1654","addr":"경기도 성남시 분당구 수내동 17-3번지","category":""},{"name":"에이스안경","tel":"031-714-0310","addr":"경기도 성남시 분당구 수내동 17-3번지","category":""}]},{"lat":"37.3775314","long":"127.1126358","items":[{"name":"연화담","tel":"031-711-1774","addr":"경기도 성남시 분당구 수내동 20-2번지","category":""},{"name":"쿠잉","tel":"031-751-8884","addr":"경기도 성남시 분당구 수내동 20-2번지","category":""}]},{"lat":"37.364837","long":"127.1297983","items":[{"name":"영키친","tel":"070-8777-9298","addr":"경기도 성남시 분당구 수내동 115-2번지","category":""}]},{"lat":"37.3661739","long":"127.126572","items":[{"name":"오케이(OK)마트","tel":"031-711-8503","addr":"경기도 성남시 분당구 수내동 88-1번지","category":""}]},{"lat":"37.3738131","long":"127.1190994","items":[{"name":"이민준한의원","tel":"031-604-1075","addr":"경기도 성남시 분당구 수내동 28-2번지","category":""},{"name":"제니스안경원","tel":"031-719-2003","addr":"경기도 성남시 분당구 수내동 28-2번지","category":""}]},{"lat":"37.3732806","long":"127.1199905","items":[{"name":"잉글리쉬피너클보습학원","tel":"031-716-8424","addr":"경기도 성남시 분당구 수내동 58-4번지","category":""}]},{"lat":"37.379835","long":"127.1158231","items":[{"name":"전주콩나루콩나물국밥","tel":"031-715-9011","addr":"경기도 성남시 분당구 수내동 8-5번지","category":""},{"name":"제이핸즈웍","tel":"031-717-1258","addr":"경기도 성남시 분당구 수내동 8-5번지","category":""},{"name":"초림슈퍼문구","tel":"031-717-7596","addr":"경기도 성남시 분당구 수내동 8-5번지","category":""}]},{"lat":"37.3668664","long":"127.1277923","items":[{"name":"족발예찬","tel":"031-715-3579","addr":"경기도 성남시 분당구 수내동 87-3번지","category":""},{"name":"하우스터디수내2센터","tel":"031-718-2855","addr":"경기도 성남시 분당구 수내동 87-3번지","category":""}]},{"lat":"37.3663623","long":"127.1273738","items":[{"name":"철뚝집(수내점)","tel":"031-714-9951","addr":"경기도 성남시 분당구 수내동 89-7번지","category":""}]},{"lat":"37.3661456","long":"127.1277686","items":[{"name":"클라이아엔헤어","tel":"031-715-0314","addr":"경기도 성남시 분당구 수내동 90-8번지","category":""}]},{"lat":"37.3655619","long":"127.1258824","items":[{"name":"태능숯불갈비","tel":"031-712-4287","addr":"경기도 성남시 분당구 수내동 96-2번지","category":""}]},{"lat":"37.379979","long":"127.1159927","items":[{"name":"프리마학원","tel":"031-717-2788","addr":"경기도 성남시 분당구 수내동 8-4번지","category":""}]},{"lat":"37.3652256","long":"127.1287379","items":[{"name":"피아노리피아노교습소","tel":"031-718-5938","addr":"경기도 성남시 분당구 수내동 113-4번지","category":""}]},{"lat":"37.3782496","long":"127.1154368","items":[{"name":"호밀호두 수내점","tel":"031-711-5152","addr":"경기도 성남시 분당구 수내동 6-9번지","category":""}]},{"lat":"37.3771706","long":"127.1130191","items":[{"name":"황경애한의원","tel":"031-712-1300","addr":"경기도 성남시 분당구 수내동 19-2번지","category":""}]}]