[{"lat":"37.120979336","long":"127.33878144","imageIndex":7,"items":[{"name":"(주) 로터스테마투어(지점)","tel":"031-339-4875","addr":"경기도 용인시 처인구 백암면 용천리 778-1번지","indutype":"음료식품 - 기타음료식품","category":"food"},{"name":"(주)로터스테마투어(지점)","tel":"031-339-4875","addr":"경기도 용인시 처인구 백암면 용천리 778-1번지 MBC드라미아","indutype":"음료식품 - 기타음료식품","category":"food"}]},{"lat":"37.16392172","long":"127.37541506","imageIndex":7,"items":[{"name":"계방산산삼","tel":"031-321-5332","addr":"경기도 용인시 처인구 백암면 백암리 470-5번지","indutype":"건강식품 - 인삼제품","category":"food"}]},{"lat":"37.164669164","long":"127.37267163","imageIndex":7,"items":[{"name":"고기천하","tel":"031-321-1333","addr":"경기도 용인시 처인구 백암면 백암리 421-1번지 1층","indutype":"음료식품 - 정육점","category":"food"}]},{"lat":"37.126343413","long":"127.41499856","imageIndex":7,"items":[{"name":"고안사슴흑염소농장","tel":"031-332-4529","addr":"경기도 용인시 처인구 백암면 고안리 80번지","indutype":"음료식품 - 농·축·수산품","category":"food"},{"name":"고암사슴농원","tel":"031-338-1098","addr":"경기도 용인시 처인구 백암면 고안리 80번지","indutype":"건강식품 - 기타건강식품","category":"food"}]},{"lat":"37.16511623","long":"127.37377716","imageIndex":7,"items":[{"name":"고안축산","tel":"031-322-4529","addr":"경기도 용인시 처인구 백암면 백암리 374-15번지","indutype":"음료식품 - 정육점","category":"food"}]},{"lat":"37.123730489","long":"127.3853903","imageIndex":7,"items":[{"name":"남등농원","tel":"031-322-4974","addr":"경기도 용인시 처인구 백암면 장평리961","indutype":"음료식품 - 농·축·수산품","category":"food"}]},{"lat":"37.135402009","long":"127.39549908","imageIndex":7,"items":[{"name":"농업회사법인 마루 주식회사","tel":"031-322-1360","addr":"경기도 용인시 처인구 백암면 백봉리 1370번지","indutype":"음료식품 - 기타음료식품","category":"food"}]},{"lat":"37.110598577","long":"127.38091402","imageIndex":7,"items":[{"name":"농업회사법인무천주식회사","tel":"02-501-0496","addr":"경기도 용인시 처인구 백암면 석천리 97-2번지","indutype":"음료식품 - 농·축·수산품","category":"food"}]},{"lat":"37.164814382","long":"127.37233458","imageIndex":7,"items":[{"name":"늘푸른건강원","tel":"031-332-3654","addr":"경기도 용인시 처인구 백암면 백암리 424번지 1층","indutype":"건강식품 - 기타건강식품","category":"food"},{"name":"흑색건강","tel":"031-332-3654","addr":"경기도 용인시 처인구 백암면 백암리 424번지","indutype":"음료식품 - 정육점","category":"food"}]},{"lat":"37.163808156","long":"127.3742774","imageIndex":7,"items":[{"name":"대박집","tel":"","addr":"경기도 용인시 처인구 백암면 백암리 459-24번지","indutype":"음료식품 - 기타음료식품","category":"food"}]},{"lat":"37.166535727","long":"127.37221911","imageIndex":7,"items":[{"name":"대양식육센터","tel":"031-334-2968","addr":"경기도 용인시 처인구 백암면 백암리 385-1","indutype":"음료식품 - 정육점","category":"food"}]},{"lat":"37.110123014","long":"127.37169749","imageIndex":7,"items":[{"name":"대원식품","tel":"031-332-4922","addr":"경기도 용인시 처인구 백암면 석천리 292-4","indutype":"음료식품 - 기타음료식품","category":"food"}]},{"lat":"37.161811065","long":"127.36449554","imageIndex":7,"items":[{"name":"디온리(The Only)","tel":"000-0000-0000","addr":"경기도 용인시 처인구 백암면 근창리 92-1번지","indutype":"음료식품 - 기타음료식품","category":"food"}]},{"lat":"37.138041623","long":"127.37610973","imageIndex":7,"items":[{"name":"라바팜","tel":"","addr":"경기도 용인시 처인구 백암면 근삼리 618-3번지","indutype":"음료식품 - 농·축·수산품","category":"food"}]},{"lat":"37.107514728","long":"127.41408652","imageIndex":7,"items":[{"name":"마루뜰/아수리영농조합법인","tel":"031-334-1897","addr":"경기도 용인시 처인구 백암면 옥산리 1897번지","indutype":"음료식품 - 기타음료식품","category":"food"}]},{"lat":"37.165760915","long":"127.37219283","imageIndex":7,"items":[{"name":"몽키타바코 백암점","tel":"031-336-2787","addr":"경기도 용인시 처인구 백암면 백암리 388번지 1층","indutype":"음료식품 - 기타음료식품","category":"food"},{"name":"백암제분소","tel":"031-332-4439","addr":"경기도 용인시 처인구 백암면 백암리 388번지","indutype":"음료식품 - 제과점","category":"food"}]},{"lat":"37.164558545","long":"127.37347045","imageIndex":7,"items":[{"name":"반찬일번지","tel":"031-322-6166","addr":"경기도 용인시 처인구 백암면 백암리 447-12번지","indutype":"음료식품 - 기타음료식품","category":"food"}]},{"lat":"37.178308724","long":"127.35866234","imageIndex":7,"items":[{"name":"백암 복농장","tel":"031-335-4731","addr":"경기도 용인시 처인구 백암면 근곡리 228번지","indutype":"음료식품 - 농·축·수산품","category":"food"}]},{"lat":"37.164452743","long":"127.37272687","imageIndex":7,"items":[{"name":"백암떡집","tel":"031-332-6932","addr":"경기도 용인시 처인구 백암면 백암리446","indutype":"음료식품 - 제과점","category":"food"}]},{"lat":"37.1656195","long":"127.37419619","imageIndex":7,"items":[{"name":"백암상회","tel":"031-333-2486","addr":"경기도 용인시 처인구 백암면 백암리371-1","indutype":"음료식품 - 기타음료식품","category":"food"}]},{"lat":"37.164836912","long":"127.3737758","imageIndex":7,"items":[{"name":"별이네식품","tel":"031-337-1356","addr":"경기도 용인시 처인구 백암면 백암리 373-3","indutype":"음료식품 - 농·축·수산품","category":"food"},{"name":"우리소생고기전문점","tel":"031-332-7816","addr":"경기도 용인시 처인구 백암면 백암리 373-3번지","indutype":"음료식품 - 정육점","category":"food"}]},{"lat":"37.165448058","long":"127.37427416","imageIndex":7,"items":[{"name":"부부축산물유통","tel":"031-333-2339","addr":"경기도 용인시 처인구 백암면 백암371-10,11","indutype":"음료식품 - 정육점","category":"food"}]},{"lat":"37.141144661","long":"127.39730706","imageIndex":7,"items":[{"name":"비앤비 에스","tel":"031-535-9557","addr":"경기도 용인시 처인구 백암면 백봉리 165-1번지 B동 1층","indutype":"음료식품 - 기타음료식품","category":"food"}]},{"lat":"37.164368871","long":"127.37361589","imageIndex":7,"items":[{"name":"새마을농산","tel":"031-334-7371","addr":"경기도 용인시 처인구 백암면 백암리 459-9","indutype":"음료식품 - 미곡상","category":"food"}]},{"lat":"37.14089734","long":"127.36761493","imageIndex":7,"items":[{"name":"설매향영농조합법인","tel":"031-322-5111","addr":"경기도 용인시 처인구 백암면 근삼리 437-5번지","indutype":"음료식품 - 농·축·수산품","category":"food"}]},{"lat":"37.132565177","long":"127.40046986","imageIndex":7,"items":[{"name":"소생 행복동 농장","tel":"070-7018-5392","addr":"경기도 용인시 처인구 백암면 백봉리 274-4번지","indutype":"음료식품 - 농·축·수산품","category":"food"}]},{"lat":"37.120706141","long":"127.3613069","imageIndex":7,"items":[{"name":"소현이네벌꿀농원","tel":"","addr":"경기도 용인시 처인구 백암면 용천리 600번지","indutype":"건강식품 - 기타건강식품","category":"food"}]},{"lat":"37.18980701","long":"127.35831083","imageIndex":7,"items":[{"name":"신용인사슴농장","tel":"031-334-0530","addr":"경기도 용인시 처인구 백암면 가창리 598-7번지","indutype":"건강식품 - 기타건강식품","category":"food"}]},{"lat":"37.155067735","long":"127.38008837","imageIndex":7,"items":[{"name":"아루카 농업회사법인 주식회사","tel":"031-336-7722","addr":"경기도 용인시 처인구 백암면 박곡리 788-3번지","indutype":"음료식품 - 기타음료식품","category":"food"}]},{"lat":"37.15608765","long":"127.38517048","imageIndex":7,"items":[{"name":"열옥준정육점","tel":"031-339-8975","addr":"경기도 용인시 처인구 백암면 박곡리 729-12번지","indutype":"음료식품 - 정육점","category":"food"}]},{"lat":"37.163976147","long":"127.37242057","imageIndex":7,"items":[{"name":"옥산회관정육점","tel":"031-334-9919","addr":"경기도 용인시 처인구 백암면 백암리 443-4번지 외1필지","indutype":"음료식품 - 정육점","category":"food"}]},{"lat":"37.165728328","long":"127.37397155","imageIndex":7,"items":[{"name":"외사제분소","tel":"031-332-1211","addr":"경기도 용인시 처인구 백암면 백암리 374-1번지","indutype":"음료식품 - 기타음료식품","category":"food"}]},{"lat":"37.16323157","long":"127.37425206","imageIndex":7,"items":[{"name":"용백건강원","tel":"031-334-7298","addr":"경기도 용인시 처인구 백암면 백암리 456-7","indutype":"건강식품 - 기타건강식품","category":"food"}]},{"lat":"37.174947433","long":"127.37349866","imageIndex":7,"items":[{"name":"용인시 산삼농원 영농조합법인","tel":"031-336-5934","addr":"경기도 용인시 처인구 백암면 백암리 155번지","indutype":"건강식품 - 인삼제품","category":"food"},{"name":"한국야생산삼농장","tel":"031-336-5934","addr":"경기도 용인시 처인구 백암면 백암리155","indutype":"건강식품 - 기타건강식품","category":"food"}]},{"lat":"37.164256762","long":"127.37488755","imageIndex":7,"items":[{"name":"우딘월드푸드","tel":"031-881-1734","addr":"경기도 용인시 처인구 백암면 백암리 466번지 청계빌딩 105호","indutype":"음료식품 - 기타음료식품","category":"food"}]},{"lat":"37.138344381","long":"127.39941965","imageIndex":7,"items":[{"name":"은실농장","tel":"031-333-3599","addr":"경기도 용인시 처인구 백암면 백봉리 189-3번지","indutype":"음료식품 - 농·축·수산품","category":"food"}]},{"lat":"37.124234547","long":"127.37421901","imageIndex":7,"items":[{"name":"장평제분소","tel":"031-339-8460","addr":"경기도 용인시 처인구 백암면 장평리 588 (장평590-3)","indutype":"음료식품 - 제과점","category":"food"}]},{"lat":"37.173118142","long":"127.37355729","imageIndex":7,"items":[{"name":"주원건설","tel":"","addr":"경기도 용인시 처인구 백암면 백암리 145-2번지","indutype":"음료식품 - 농·축·수산품","category":"food"}]},{"lat":"37.164064458","long":"127.37299518","imageIndex":7,"items":[{"name":"참나라건강원","tel":"031-333-4320","addr":"경기도 용인시 처인구 백암면 백암리 450-9","indutype":"건강식품 - 기타건강식품","category":"food"}]},{"lat":"37.164175811","long":"127.36905525","imageIndex":7,"items":[{"name":"청와매점","tel":"031-332-5078","addr":"경기도 용인시 처인구 백암면 근창리 102-5번지 미미음악학원 나동","indutype":"음료식품 - 기타음료식품","category":"food"}]},{"lat":"37.165233116","long":"127.37385654","imageIndex":7,"items":[{"name":"태원한우마을정육점","tel":"031-333-3539","addr":"경기도 용인시 처인구 백암면 백암리 374-20번지","indutype":"음료식품 - 정육점","category":"food"}]},{"lat":"37.165309279","long":"127.37255091","imageIndex":7,"items":[{"name":"토우축산물백화점","tel":"031-332-9997","addr":"경기도 용인시 처인구 백암면 백암리 395번지","indutype":"음료식품 - 정육점","category":"food"}]},{"lat":"37.164618055","long":"127.37460786","imageIndex":7,"items":[{"name":"파리바게트 용인백암점","tel":"031-339-8209","addr":"경기도 용인시 처인구 백암면 백암리 370-1번지 1층","indutype":"음료식품 - 제과점","category":"food"}]},{"lat":"37.170398379","long":"127.37022247","imageIndex":7,"items":[{"name":"풍천","tel":"031-322-6776","addr":"경기도 용인시 처인구 백암면 근곡리 12-5","indutype":"음료식품 - 농·축·수산품","category":"food"}]},{"lat":"37.124869488","long":"127.41649843","imageIndex":7,"items":[{"name":"한아름청과","tel":"031-333-2890","addr":"경기도 용인시 처인구 백암면 고안리 92번지","indutype":"음료식품 - 농·축·수산품","category":"food"}]},{"lat":"37.112509115","long":"127.39469456","imageIndex":7,"items":[{"name":"한정덕솜씨","tel":"031-339-2051","addr":"경기도 용인시 처인구 백암면 옥산리 1027-2번지 1동","indutype":"음료식품 - 기타음료식품","category":"food"}]},{"lat":"37.095434244","long":"127.40810462","imageIndex":7,"items":[{"name":"한택식물원내 간이매점","tel":"031-000-0000","addr":"경기도 용인시 처인구 백암면 옥산리 355-11","indutype":"음료식품 - 기타음료식품","category":"food"}]},{"lat":"37.161258252","long":"127.36257904","imageIndex":7,"items":[{"name":"해든솔직업지원센터","tel":"031-323-3450","addr":"경기도 용인시 처인구 백암면 근창리 292-1번지","indutype":"음료식품 - 제과점","category":"food"}]},{"lat":"37.187056114","long":"127.35922141","imageIndex":7,"items":[{"name":"햇빛농장","tel":"031-000-0000","addr":"경기도 용인시 처인구 백암면 가창리 528-2번지","indutype":"음료식품 - 농·축·수산품","category":"food"}]},{"lat":"37.121236665","long":"127.3791103","imageIndex":7,"items":[{"name":"흙향기 농장","tel":"031-332-6685","addr":"경기도 용인시 처인구 백암면 장평리 654-3번지","indutype":"음료식품 - 농·축·수산품","category":"food"}]},{"lat":"37.162982989","long":"127.3759396","imageIndex":17,"items":[{"name":"(주)대성개발공영","tel":"031-332-4297","addr":"경기도 용인시 처인구 백암면 백암리 503-7번지","indutype":"용역 서비스 - 기타용역서비스","category":"other"}]},{"lat":"37.116899197","long":"127.38019149","imageIndex":17,"items":[{"name":"(주)모닝렌트카","tel":"031-712-3629","addr":"경기도 용인시 처인구 백암면 장평리 739-2번지","indutype":"여행 - 렌터카","category":"other"}]},{"lat":"37.14089734","long":"127.36761493","imageIndex":17,"items":[{"name":"(주)삼포실버드림","tel":"031-322-5111","addr":"경기도 용인시 처인구 백암면 근삼리 437-5번지","indutype":"용역 서비스 - 가례서비스업","category":"other"}]},{"lat":"37.147231219","long":"127.41452655","imageIndex":17,"items":[{"name":"(주)소프트에피","tel":"070-4915-5500","addr":"경기도 용인시 처인구 백암면 고안리 633-2번지 IAE고등기술연구원 405호","indutype":"전기제품 - 기타전기제품","category":"other"},{"name":"에이치엔테크","tel":"","addr":"경기도 용인시 처인구 백암면 고안리 633-2번지 8층 IAE고등기술연구원 807호","indutype":"서적문구 - 과학기자재","category":"other"},{"name":"엠에스메탈","tel":"031-330-7754","addr":"경기도 용인시 처인구 백암면 고안리 633-2번지 고등기술연구원창업보육센터 8층 807호","indutype":"전기제품 - 기타전기제품","category":"other"},{"name":"이엘테크(EL tech)","tel":"031-330-7771","addr":"경기도 용인시 처인구 백암면 고안리 633-2번지 IAE고등기술연구원 8층 801호","indutype":"전기제품 - 기타전기제품","category":"other"}]},{"lat":"37.177949594","long":"127.37005634","imageIndex":17,"items":[{"name":"GS25백암근곡점","tel":"","addr":"경기도 용인시 처인구 백암면 근곡리 99-10번지","indutype":"유통업 영리 - 편 의 점","category":"other"}]},{"lat":"37.164534595","long":"127.37536178","imageIndex":17,"items":[{"name":"GS25백암기안점","tel":"","addr":"경기도 용인시 처인구 백암면 백암리 468번지","indutype":"유통업 영리 - 편 의 점","category":"other"}]},{"lat":"37.155651147","long":"127.38361479","imageIndex":17,"items":[{"name":"GS25백암원대점","tel":"","addr":"경기도 용인시 처인구 백암면 박곡리 745-1","indutype":"유통업 영리 - 편 의 점","category":"other"}]},{"lat":"37.158370515","long":"127.37566926","imageIndex":17,"items":[{"name":"관음불상조성소","tel":"031-573-8385","addr":"경기도 용인시 처인구 백암면 근삼리5-2","indutype":"신변잡화 - 기념품점","category":"other"}]},{"lat":"37.164614802","long":"127.37564363","imageIndex":17,"items":[{"name":"그린유니폼","tel":"031-332-4368","addr":"경기도 용인시 처인구 백암면 백암리472-1 1/5","indutype":"의류 - 단체복","category":"other"}]},{"lat":"37.146232369","long":"127.36733663","imageIndex":17,"items":[{"name":"그림좋은날","tel":"031-111-1111","addr":"경기도 용인시 처인구 백암면 근삼리 273-1번지 1층","indutype":"주방용구 - 주방용식기","category":"other"}]},{"lat":"37.164256762","long":"127.37488755","imageIndex":17,"items":[{"name":"기범이네","tel":"070-8861-1111","addr":"경기도 용인시 처인구 백암면 백암리 466번지 청계상가 1동 102호","indutype":"사무통신 - 통신기기","category":"other"},{"name":"휴대폰다이소","tel":"070-8861-1111","addr":"경기도 용인시 처인구 백암면 백암리 466번지 102호","indutype":"사무통신 - 통신기기","category":"other"}]},{"lat":"37.164066486","long":"127.37522438","imageIndex":17,"items":[{"name":"꽃사랑플라워","tel":"031-335-3088","addr":"경기도 용인시 처인구 백암면 백암리 470-4번지 1층","indutype":"문화.취미 - 화원","category":"other"},{"name":"미래종합상사","tel":"070-4686-9412","addr":"경기도 용인시 처인구 백암면 백암리 470-4번지","indutype":"건축자재 - 기타건축자재","category":"other"},{"name":"미래종합철물","tel":"031-000-0000","addr":"경기도 용인시 처인구 백암면 백암리 470-4번지","indutype":"건축자재 - 목재·석재·철물","category":"other"},{"name":"형제종합건재","tel":"031-332-9256","addr":"경기도 용인시 처인구 백암면 백암리470-4","indutype":"건축자재 - 기타건축자재","category":"other"}]},{"lat":"37.165337679","long":"127.37211196","imageIndex":17,"items":[{"name":"남양농원","tel":"031-333-7788","addr":"경기도 용인시 처인구 백암면 백암리399","indutype":"농업 - 비료,사료,종자","category":"other"}]},{"lat":"37.135402009","long":"127.39549908","imageIndex":17,"items":[{"name":"농협법인우리생명(주)","tel":"031-332-5953","addr":"경기도 용인시 처인구 백암면 백봉리 1370번지","indutype":"농업 - 농기계","category":"other"},{"name":"우리건설","tel":"031-332-5953","addr":"경기도 용인시 처인구 백암면 백봉리 1370번지","indutype":"용역 서비스 - 기타용역서비스","category":"other"},{"name":"주식회사베오히트시스템","tel":"031-335-5953","addr":"경기도 용인시 처인구 백암면 백봉리 1370번지","indutype":"농업 - 농기계","category":"other"}]},{"lat":"37.124869947","long":"127.41377529","imageIndex":17,"items":[{"name":"다담아 (DADAMA)","tel":"031-797-6655","addr":"경기도 용인시 처인구 백암면 고안리 129-1번지","indutype":"유통업 영리 - 기타유통업","category":"other"}]},{"lat":"37.17808663","long":"127.37808579","imageIndex":17,"items":[{"name":"대덕 다육농원","tel":"031-334-0026","addr":"경기도 용인시 처인구 백암면 백암리 71번지","indutype":"문화.취미 - 화원","category":"other"}]},{"lat":"37.170224867","long":"127.37385842","imageIndex":17,"items":[{"name":"대성냉열","tel":"031-333-7907","addr":"경기도 용인시 처인구 백암면 백암리 223-1번지","indutype":"수리서비스 - 가정용품수리","category":"other"}]},{"lat":"37.166088315","long":"127.37410841","imageIndex":17,"items":[{"name":"대일가축약품","tel":"031-333-0511","addr":"경기도 용인시 처인구 백암면 백암리 364-9번지","indutype":"기타의료기관 - 기타의료기관 및 기타","category":"other"},{"name":"백암천막사","tel":"031-339-5851","addr":"경기도 용인시 처인구 백암면 백암리 364-9 1/1","indutype":"직물 - 카페트,커튼,천막,지물","category":"other"},{"name":"신한전기","tel":"031-334-2136","addr":"경기도 용인시 처인구 백암면 백암리364-9","indutype":"수리서비스 - 가정용품수리","category":"other"}]},{"lat":"37.164677577","long":"127.37286307","imageIndex":17,"items":[{"name":"대흥중앙종묘사","tel":"031-332-4747","addr":"경기도 용인시 처인구 백암면 420-2","indutype":"농업 - 비료,사료,종자","category":"other"}]},{"lat":"37.139258657","long":"127.3701394","imageIndex":17,"items":[{"name":"더림","tel":"070-8947-4617","addr":"경기도 용인시 처인구 백암면 근삼리 689-1번지","indutype":"문화.취미 - 화원","category":"other"}]},{"lat":"37.165366013","long":"127.37457775","imageIndex":17,"items":[{"name":"덕성종합상사","tel":"031-332-4435","addr":"경기도 용인시 처인구 백암면 백암리 366-1번지","indutype":"건축자재 - 기타건축자재","category":"other"}]},{"lat":"37.165288375","long":"127.37347402","imageIndex":17,"items":[{"name":"동양공업사","tel":"031-333-2361","addr":"경기도 용인시 처인구 백암면 백암리 374-11","indutype":"수리서비스 - 기타수리서비스","category":"other"},{"name":"아룬마이더스","tel":"031-322-7763","addr":"경기도 용인시 처인구 백암면 백암리 374-11번지 3층","indutype":"신변잡화 - 기타잡화","category":"other"}]},{"lat":"37.098594331","long":"127.40088848","imageIndex":17,"items":[{"name":"동화사","tel":"031-337-3324","addr":"경기도 용인시 처인구 백암면 옥산리907-1외2필지가동,나동","indutype":"회원제형태 - 기타4","category":"other"}]},{"lat":"37.198978658","long":"127.36749993","imageIndex":17,"items":[{"name":"디자인 사노","tel":"","addr":"경기도 용인시 처인구 백암면 가창리 137-24번지","indutype":"문화.취미 - 애완동물","category":"other"}]},{"lat":"37.110598577","long":"127.38091402","imageIndex":17,"items":[{"name":"리치종합건설주식회사","tel":"031-334-6141","addr":"경기도 용인시 처인구 백암면 석천리 97-2번지","indutype":"용역 서비스 - 기타용역서비스","category":"other"},{"name":"제이에스종합건설(주)","tel":"031-334-6141","addr":"경기도 용인시 처인구 백암면 석천리 97-2번지","indutype":"용역 서비스 - 기타용역서비스","category":"other"}]},{"lat":"37.164733528","long":"127.37513758","imageIndex":17,"items":[{"name":"만남노래뮤비방","tel":"031-334-1970","addr":"경기도 용인시 처인구 백암면 백암리 368-4번지 2층","indutype":"용역 서비스 - 종합용역","category":"other"},{"name":"백암로타리클럽","tel":"031-333-2254","addr":"경기도 용인시 처인구 백암면 백암리 368-4번지 3층","indutype":"기타 - 비영리/대상","category":"other"}]},{"lat":"37.164316042","long":"127.37322158","imageIndex":17,"items":[{"name":"만물상회","tel":"031-332-4715","addr":"경기도 용인시 처인구 백암면 백암리 450-2번지 외1필지","indutype":"주방용구 - 주방용구","category":"other"}]},{"lat":"37.165066774","long":"127.37230204","imageIndex":17,"items":[{"name":"모이비엔","tel":"031-338-1270","addr":"경기도 용인시 처인구 백암면 백암리 413번지","indutype":"의류 - 정장","category":"other"},{"name":"신진종합광고","tel":"031-322-8848","addr":"경기도 용인시 처인구 백암면 백암리 413번지","indutype":"용역 서비스 - 종합용역","category":"other"}]},{"lat":"37.162034431","long":"127.36511581","imageIndex":17,"items":[{"name":"몬스터카라반","tel":"02-4643-7816","addr":"경기도 용인시 처인구 백암면 근창리 93-5번지 2층","indutype":"레져용품 - 스포츠·레져용품","category":"other"}]},{"lat":"37.164424868","long":"127.37299694","imageIndex":17,"items":[{"name":"미성화원","tel":"031-333-4332","addr":"경기도 용인시 처인구 백암면 백암리 450-14번지 1층","indutype":"문화.취미 - 화원","category":"other"}]},{"lat":"37.172036063","long":"127.35913961","imageIndex":17,"items":[{"name":"미향다육","tel":"031-305-5513","addr":"경기도 용인시 처인구 백암면 근곡리 736번지","indutype":"문화.취미 - 화원","category":"other"}]},{"lat":"37.16392172","long":"127.37541506","imageIndex":17,"items":[{"name":"백궁노래뮤비방","tel":"031-339-8598","addr":"경기도 용인시 처인구 백암면 백암리 470-5번지 1층","indutype":"용역 서비스 - 종합용역","category":"other"},{"name":"인암기획","tel":"031-333-2254","addr":"경기도 용인시 처인구 백암면 백암리 470-5번지 지층","indutype":"용역 서비스 - 종합용역","category":"other"}]},{"lat":"37.164947885","long":"127.37286439","imageIndex":17,"items":[{"name":"백암낚시","tel":"031-332-4446","addr":"경기도 용인시 처인구 백암면 백암리 418-2번지","indutype":"레져용품 - 스포츠·레져용품","category":"other"}]},{"lat":"37.165453039","long":"127.37555768","imageIndex":17,"items":[{"name":"백암스크린","tel":"031-333-6777","addr":"경기도 용인시 처인구 백암면 백암리 344-15번지","indutype":"레져용품 - 골프용품 전문점","category":"other"}]},{"lat":"37.164947112","long":"127.37311207","imageIndex":17,"items":[{"name":"백암우체국","tel":"031-322-4205","addr":"경기도 용인시 처인구 백암면 백암리 374-3번지","indutype":"용역 서비스 - 공공요금대행서비스/소","category":"other"}]},{"lat":"37.16511623","long":"127.37377716","imageIndex":17,"items":[{"name":"백암유일통신","tel":"031-333-3366","addr":"경기도 용인시 처인구 백암면 백암리374-15","indutype":"사무통신 - 통신기기","category":"other"}]},{"lat":"37.1518424","long":"127.38558812","imageIndex":17,"items":[{"name":"백암휴게소","tel":"031-334-5736","addr":"경기도 용인시 처인구 백암면 백봉리 834-2","indutype":"유통업 영리 - 편 의 점","category":"other"}]},{"lat":"37.164533296","long":"127.37000269","imageIndex":17,"items":[{"name":"백원공인중개사사무소","tel":"031-323-5518","addr":"경기도 용인시 처인구 백암면 근창리 10번지 1층 3호","indutype":"용역 서비스 - 부동산 중개·임대","category":"other"},{"name":"알파문구(백암점)","tel":"031-323-3579","addr":"경기도 용인시 처인구 백암면 근창리 10","indutype":"서적문구 - 문구용품","category":"other"}]},{"lat":"37.165225656","long":"127.37336112","imageIndex":17,"items":[{"name":"백합장의사","tel":"031-332-4460","addr":"경기도 용인시 처인구 백암면 백암리 374-19 1/1","indutype":"용역 서비스 - 가례서비스업","category":"other"}]},{"lat":"37.173838303","long":"127.34688598","imageIndex":17,"items":[{"name":"삼성컨테이너","tel":"031-333-7361","addr":"경기도 용인시 처인구 백암면 가좌리 265-1번지","indutype":"건축자재 - 기타건축자재","category":"other"}]},{"lat":"37.164786579","long":"127.37258214","imageIndex":17,"items":[{"name":"삼화종합장식","tel":"031-322-3155","addr":"경기도 용인시 처인구 백암면 백암리 425번지 삼화장식","indutype":"직물 - 카페트,커튼,천막,지물","category":"other"}]},{"lat":"37.166480858","long":"127.3724778","imageIndex":17,"items":[{"name":"삼화페인트백암상사","tel":"031-332-4350","addr":"경기도 용인시 처인구 백암면 백암리386-5","indutype":"건축자재 - 페인트","category":"other"}]},{"lat":"37.139479045","long":"127.39419207","imageIndex":17,"items":[{"name":"상일","tel":"031-336-0602","addr":"경기도 용인시 처인구 백암면 백봉리 600-5","indutype":"가구 - 일반가구","category":"other"},{"name":"성동총포사","tel":"031-332-7030","addr":"경기도 용인시 처인구 백암면 백봉리 600-5번지","indutype":"레져용품 - 총포류판매점","category":"other"}]},{"lat":"37.13848547","long":"127.41355628","imageIndex":17,"items":[{"name":"샘물사랑의나눔터","tel":"031-329-2996","addr":"경기도 용인시 처인구 백암면 고안리 548번지","indutype":"의류 - 정장","category":"other"},{"name":"샘물호스피스선교회","tel":"031-334-4811","addr":"경기도 용인시 처인구 백암면 고안리548","indutype":"신변잡화 - 기타잡화","category":"other"}]},{"lat":"37.151066133","long":"127.36597527","imageIndex":17,"items":[{"name":"선식물원","tel":"031-6647-2439","addr":"경기도 용인시 처인구 백암면 근삼리 92번지","indutype":"문화.취미 - 화원","category":"other"}]},{"lat":"37.123062923","long":"127.37430331","imageIndex":17,"items":[{"name":"성우농기계","tel":"031-337-4034","addr":"경기도 용인시 처인구 백암면 장평리 614번지 1층","indutype":"농업 - 농기계","category":"other"}]},{"lat":"37.171898462","long":"127.39691511","imageIndex":17,"items":[{"name":"세계불교 조계종 총본산 불광사","tel":"031-323-1207","addr":"경기도 용인시 처인구 백암면 박곡리 375-1번지","indutype":"기타 - 비영리/대상","category":"other"}]},{"lat":"37.136153115","long":"127.39993717","imageIndex":17,"items":[{"name":"세븐일레븐 용인백봉중앙점","tel":"031-1577-0711","addr":"경기도 용인시 처인구 백암면 백봉리 218-3번지","indutype":"유통업 영리 - 편 의 점","category":"other"}]},{"lat":"37.140398292","long":"127.40755646","imageIndex":17,"items":[{"name":"세븐일레븐용인고안점","tel":"031-1577-0711","addr":"경기도 용인시 처인구 백암면 고안리 675번지","indutype":"유통업 영리 - 편 의 점","category":"other"}]},{"lat":"37.171613401","long":"127.37066748","imageIndex":17,"items":[{"name":"세븐일레븐용인근곡점","tel":"","addr":"경기도 용인시 처인구 백암면 근곡리 8-10번지","indutype":"유통업 영리 - 편 의 점","category":"other"}]},{"lat":"37.163895862","long":"127.37216124","imageIndex":17,"items":[{"name":"세븐일레븐용인백암리점","tel":"","addr":"경기도 용인시 처인구 백암면 백암리 436-5번지","indutype":"유통업 영리 - 편 의 점","category":"other"}]},{"lat":"37.166921392","long":"127.37566622","imageIndex":17,"items":[{"name":"세븐일레븐용인백암빌리지점","tel":"031-1577-0711","addr":"경기도 용인시 처인구 백암면 백암리 347-20번지","indutype":"유통업 영리 - 편 의 점","category":"other"}]},{"lat":"37.168977919","long":"127.37783809","imageIndex":17,"items":[{"name":"세븐일레븐용인백암사거리점","tel":"","addr":"경기도 용인시 처인구 백암면 백암리 252-5번지","indutype":"유통업 영리 - 편 의 점","category":"other"}]},{"lat":"37.173648335","long":"127.3471441","imageIndex":17,"items":[{"name":"세븐일레븐용인백암태평점","tel":"","addr":"경기도 용인시 처인구 백암면 가좌리 239-5","indutype":"유통업 영리 - 편 의 점","category":"other"}]},{"lat":"37.164836912","long":"127.3737758","imageIndex":17,"items":[{"name":"신용상회","tel":"031-332-9387","addr":"경기도 용인시 처인구 백암면 백암리 373-3번지","indutype":"의류 - 정장","category":"other"},{"name":"씨유용인백암점","tel":"031-322-8907","addr":"경기도 용인시 처인구 백암면 백암리373-3","indutype":"유통업 영리 - 편 의 점","category":"other"}]},{"lat":"37.163863522","long":"127.37386111","imageIndex":17,"items":[{"name":"쏠라노래뮤비방","tel":"031-333-3617","addr":"경기도 용인시 처인구 백암면 백암리 459-20번지","indutype":"용역 서비스 - 종합용역","category":"other"}]},{"lat":"37.118150745","long":"127.37477438","imageIndex":17,"items":[{"name":"씨유용인삼백로점","tel":"080-080-3663","addr":"경기도 용인시 처인구 백암면 장평리 625번지 1층","indutype":"유통업 영리 - 편 의 점","category":"other"}]},{"lat":"37.163147318","long":"127.3694781","imageIndex":17,"items":[{"name":"아름다운차이","tel":"031-332-4759","addr":"경기도 용인시 처인구 백암면 근창리 674-3번지 1층","indutype":"회원제형태 - 기타4","category":"other"}]},{"lat":"37.109101346","long":"127.40332852","imageIndex":17,"items":[{"name":"아름지기","tel":"031-338-9055","addr":"경기도 용인시 처인구 백암면 옥산리 490번지","indutype":"문화.취미 - 문화취미기타","category":"other"}]},{"lat":"37.118430754","long":"127.37167028","imageIndex":17,"items":[{"name":"아모스퍼니처가구","tel":"02-2233-1198","addr":"경기도 용인시 처인구 백암면 장평리628-10 6/2","indutype":"가구 - 일반가구","category":"other"}]},{"lat":"37.136068008","long":"127.39300405","imageIndex":17,"items":[{"name":"아성공예","tel":"031-322-9485","addr":"경기도 용인시 처인구 백암면 백봉리 587-1번지","indutype":"가구 - 일반가구","category":"other"}]},{"lat":"37.173757186","long":"127.36797548","imageIndex":17,"items":[{"name":"알파디스플레이테크","tel":"070-8683-5330","addr":"경기도 용인시 처인구 백암면 근곡리 97번지 외1필지","indutype":"전기제품 - 기타전기제품","category":"other"}]},{"lat":"37.163593645","long":"127.37083127","imageIndex":17,"items":[{"name":"에이알시스템","tel":"031-322-7970","addr":"경기도 용인시 처인구 백암면 근창리 19-1번지","indutype":"사무통신 - 컴퓨터","category":"other"}]},{"lat":"37.156679243","long":"127.40249859","imageIndex":17,"items":[{"name":"연우필방","tel":"031-332-4953","addr":"경기도 용인시 처인구 백암면 박곡리 240-2번지","indutype":"문화.취미 - 문화취미기타","category":"other"}]},{"lat":"37.164586525","long":"127.37316661","imageIndex":17,"items":[{"name":"영진설비타일","tel":"031-333-9153","addr":"경기도 용인시 처인구 백암면 백암리447-4.1/3","indutype":"건축자재 - 보일러·펌프·샷시","category":"other"},{"name":"한진종묘농약사","tel":"031-333-9960","addr":"경기도 용인시 처인구 백암면 백암리 447-4번지","indutype":"농업 - 비료,사료,종자","category":"other"}]},{"lat":"37.141486088","long":"127.3636672","imageIndex":17,"items":[{"name":"예아리박물관","tel":"031-323-7277","addr":"경기도 용인시 처인구 백암면 근삼리 389-1번지","indutype":"문화.취미 - 티켓","category":"other"},{"name":"주식회사 휴담코리아","tel":"032-322-5111","addr":"경기도 용인시 처인구 백암면 근삼리 389-1번지","indutype":"용역 서비스 - 가례서비스업","category":"other"}]},{"lat":"37.132454569","long":"127.35570163","imageIndex":17,"items":[{"name":"용인노인전문요양원","tel":"031-334-3577","addr":"경기도 용인시 처인구 백암면 근삼리 769-1","indutype":"기타의료기관 - 기타의료기관 및 기타","category":"other"}]},{"lat":"37.171030588","long":"127.35489005","imageIndex":17,"items":[{"name":"용인철망","tel":"031-322-6618","addr":"경기도 용인시 처인구 백암면 근곡리 366-14번지","indutype":"용역 서비스 - 기타용역서비스","category":"other"}]},{"lat":"37.169591911","long":"127.35991629","imageIndex":17,"items":[{"name":"우림양봉산업","tel":"031-333-2916","addr":"경기도 용인시 처인구 백암면 근창리915","indutype":"농업 - 비료,사료,종자","category":"other"}]},{"lat":"37.164002581","long":"127.37261209","imageIndex":17,"items":[{"name":"원샷시","tel":"031-339-7560","addr":"경기도 용인시 처인구 백암면 백암리 443-3","indutype":"건축자재 - 보일러·펌프·샷시","category":"other"}]},{"lat":"37.183641991","long":"127.34675026","imageIndex":17,"items":[{"name":"원토탈미디어네트워크","tel":"","addr":"경기도 용인시 처인구 백암면 가좌리 13-1번지","indutype":"수리서비스 - 가정용품수리","category":"other"}]},{"lat":"37.194137513","long":"127.35946868","imageIndex":17,"items":[{"name":"월드 하우징","tel":"031-766-3803","addr":"경기도 용인시 처인구 백암면 가창리 745번지","indutype":"건축자재 - 인테리어전문","category":"other"}]},{"lat":"37.16458758","long":"127.37282886","imageIndex":17,"items":[{"name":"월드크리닝 용인 백암점","tel":"031-323-2180","addr":"경기도 용인시 처인구 백암면 백암리 421-2번지","indutype":"수리서비스 - 세탁소","category":"other"},{"name":"현주네","tel":"031-111-1111","addr":"경기도 용인시 처인구 백암면 백암리 421-2번지","indutype":"의류 - 정장","category":"other"}]},{"lat":"37.165450032","long":"127.37364369","imageIndex":17,"items":[{"name":"월드텔레콤","tel":"031-339-9011","addr":"경기도 용인시 처인구 백암면 백암리 374-30번지 유진빌딩 104호","indutype":"사무통신 - 통신기기","category":"other"}]},{"lat":"37.139758921","long":"127.39402469","imageIndex":17,"items":[{"name":"위드미용인백암점","tel":"031-332-7512","addr":"경기도 용인시 처인구 백암면 백봉리 600-2번지","indutype":"유통업 영리 - 편 의 점","category":"other"}]},{"lat":"37.164368871","long":"127.37361589","imageIndex":17,"items":[{"name":"윤희홈패션","tel":"031-332-2500","addr":"경기도 용인시 처인구 백암면 백암리459-9","indutype":"직물 - 침구·수예점","category":"other"}]},{"lat":"37.140123021","long":"127.39563602","imageIndex":17,"items":[{"name":"으뜸","tel":"031-323-2100","addr":"경기도 용인시 처인구 백암면 백봉리 612-5번지","indutype":"직물 - 침구·수예점","category":"other"}]},{"lat":"37.137842212","long":"127.40138659","imageIndex":17,"items":[{"name":"일로왕사","tel":"031-334-1652","addr":"경기도 용인시 처인구 백암면 고안리 706번지 원대","indutype":"기타 - 비영리/대상","category":"other"}]},{"lat":"37.179729529","long":"127.34116967","imageIndex":17,"items":[{"name":"자연향기마실","tel":"031-333-9112","addr":"경기도 용인시 처인구 백암면 가좌리 407-2번지","indutype":"문화.취미 - 문화취미기타","category":"other"}]},{"lat":"37.171673849","long":"127.38572189","imageIndex":17,"items":[{"name":"장안산업","tel":"070-4045-5844","addr":"경기도 용인시 처인구 백암면 박곡리 588-4번지 2","indutype":"건축자재 - 기타건축자재","category":"other"},{"name":"주식회사가설프라자","tel":"031-334-6133","addr":"경기도 용인시 처인구 백암면 박곡리 588-4번지","indutype":"건축자재 - 기타건축자재","category":"other"}]},{"lat":"37.152677086","long":"127.37530361","imageIndex":17,"items":[{"name":"제일탄소공업(주)","tel":"031-322-3691","addr":"경기도 용인시 처인구 백암면 백봉리 1165번지","indutype":"용역 서비스 - 기타용역서비스","category":"other"}]},{"lat":"37.174113121","long":"127.38928109","imageIndex":17,"items":[{"name":"주식회사 다선","tel":"031-701-8871","addr":"경기도 용인시 처인구 백암면 박곡리 474-3번지 가동","indutype":"전기제품 - 기타전기제품","category":"other"}]},{"lat":"37.124258124","long":"127.41611252","imageIndex":17,"items":[{"name":"주식회사 백암상사","tel":"031-339-4449","addr":"경기도 용인시 처인구 백암면 고안리 94-4","indutype":"건축자재 - 기타건축자재","category":"other"}]},{"lat":"37.178671831","long":"127.33922812","imageIndex":17,"items":[{"name":"주식회사 스페이스","tel":"031-322-3350","addr":"경기도 용인시 처인구 백암면 가좌리 466번지","indutype":"레져용품 - 스포츠·레져용품","category":"other"},{"name":"한양특수강화유리","tel":"031-322-3600","addr":"경기도 용인시 처인구 백암면 가좌리 466번지","indutype":"건축자재 - 유리","category":"other"}]},{"lat":"37.164149341","long":"127.37177968","imageIndex":17,"items":[{"name":"주식회사 이엔비","tel":"031-332-4309","addr":"경기도 용인시 처인구 백암면 백암리 436-1번지 2층","indutype":"농업 - 비료,사료,종자","category":"other"}]},{"lat":"37.133343478","long":"127.37442107","imageIndex":17,"items":[{"name":"주식회사 하나통상","tel":"070-4070-1217","addr":"경기도 용인시 처인구 백암면 근삼리 914번지 2층","indutype":"신변잡화 - 기타잡화","category":"other"}]},{"lat":"37.115705897","long":"127.37858788","imageIndex":17,"items":[{"name":"주식회사 해발전소(HaePlant Co.Ltd)","tel":"031-335-2210","addr":"경기도 용인시 처인구 백암면 장평리 726-3번지","indutype":"전기제품 - 기타전기제품","category":"other"}]},{"lat":"37.124487023","long":"127.35647484","imageIndex":17,"items":[{"name":"지화인","tel":"","addr":"경기도 용인시 처인구 백암면 용천리 616-3번지","indutype":"문화.취미 - 문화취미기타","category":"other"}]},{"lat":"37.164839586","long":"127.37292015","imageIndex":17,"items":[{"name":"창신당","tel":"031-333-5207","addr":"경기도 용인시 처인구 백암면 백암리418-4","indutype":"신변잡화 - 귀금속","category":"other"}]},{"lat":"37.176668399","long":"127.39858389","imageIndex":17,"items":[{"name":"처인성꽃차문화교육원","tel":"031-333-5973","addr":"경기도 용인시 처인구 백암면 박곡리 90-3번지","indutype":"문화.취미 - 문화취미기타","category":"other"}]},{"lat":"37.157561238","long":"127.38921935","imageIndex":17,"items":[{"name":"청연","tel":"031-8014-6493","addr":"경기도 용인시 처인구 백암면 박곡리 710-3번지","indutype":"수리서비스 - 세탁소","category":"other"}]},{"lat":"37.175371183","long":"127.38755343","imageIndex":17,"items":[{"name":"티씨(T. C)","tel":"070-3255-5874","addr":"경기도 용인시 처인구 백암면 박곡리 491번지","indutype":"의류 - 내의판매","category":"other"}]},{"lat":"37.15770178","long":"127.38197021","imageIndex":17,"items":[{"name":"편의점","tel":"031-334-2698","addr":"경기도 용인시 처인구 백암면 박곡리 686번지","indutype":"유통업 영리 - 편 의 점","category":"other"}]},{"lat":"37.16430893","long":"127.37261359","imageIndex":17,"items":[{"name":"평강지업사","tel":"031-332-4478","addr":"경기도 용인시 처인구 백암면 백암리 444-1번지","indutype":"직물 - 카페트,커튼,천막,지물","category":"other"}]},{"lat":"37.165122206","long":"127.37474543","imageIndex":17,"items":[{"name":"풍년종묘농약사","tel":"031-334-7107","addr":"경기도 용인시 처인구 백암면 백암리 367번지","indutype":"농업 - 비료,사료,종자","category":"other"}]},{"lat":"37.134788174","long":"127.39036401","imageIndex":17,"items":[{"name":"해마루실버케어","tel":"031-334-6070","addr":"경기도 용인시 처인구 백암면 백봉리 456번지","indutype":"기타의료기관 - 기타의료기관 및 기타","category":"other"}]},{"lat":"37.142923186","long":"127.38803062","imageIndex":17,"items":[{"name":"행강애견호텔","tel":"031-333-0881","addr":"경기도 용인시 처인구 백암면 백봉리 1623번지","indutype":"문화.취미 - 애완동물","category":"other"}]},{"lat":"37.125760641","long":"127.41675084","imageIndex":17,"items":[{"name":"행복발효원","tel":"031-323-4581","addr":"경기도 용인시 처인구 백암면 고안리 56-1번지","indutype":"주방용구 - 정수기","category":"other"}]},{"lat":"37.155115514","long":"127.34969424","imageIndex":17,"items":[{"name":"현씨큐리티","tel":"","addr":"경기도 용인시 처인구 백암면 근창리 645-2번지","indutype":"용역 서비스 - 기타용역서비스","category":"other"}]},{"lat":"37.156844369","long":"127.35008489","imageIndex":17,"items":[{"name":"홈 세이브 마트","tel":"031-334-4980","addr":"경기도 용인시 처인구 백암면 근창리 606-4번지 1층 103호,104호","indutype":"유통업 영리 - 편 의 점","category":"other"}]},{"lat":"37.1124029","long":"127.35074822","imageIndex":17,"items":[{"name":"황새울관광농원","tel":"031-330-9080","addr":"경기도 용인시 처인구 백암면 석천리 731번지","indutype":"기타 - 기타 전문점","category":"other"}]},{"lat":"37.143094259","long":"127.42001927","imageIndex":4,"items":[{"name":"(주)신세계푸드 써닝리더십센터","tel":"02-3397-6176","addr":"경기도 용인시 처인구 백암면 고안리 622-3번지","indutype":"일반휴게음식 - 위탁급식업","category":"restaurant"}]},{"lat":"37.137459048","long":"127.39741172","imageIndex":4,"items":[{"name":"(주)신푸드","tel":"031-321-5347","addr":"경기도 용인시 처인구 백암면 백봉리 565-5번지","indutype":"일반휴게음식 - 일반한식","category":"restaurant"}]},{"lat":"37.117377232","long":"127.37433179","imageIndex":4,"items":[{"name":"The루비","tel":"031-744-8488","addr":"경기도 용인시 처인구 백암면 장평리 628-26번지 가동 1층","indutype":"일반휴게음식 - 서양음식","category":"restaurant"},{"name":"솔솔우동","tel":"031-322-6233","addr":"경기도 용인시 처인구 백암면 장평리 628-26번지 나동 1층, 2층","indutype":"일반휴게음식 - 일반한식","category":"restaurant"}]},{"lat":"37.16323157","long":"127.37425206","imageIndex":4,"items":[{"name":"가마골","tel":"031-322-2984","addr":"경기도 용인시 처인구 백암면 백암리 456-7번지","indutype":"일반휴게음식 - 일반한식","category":"restaurant"}]},{"lat":"37.165420568","long":"127.37442039","imageIndex":4,"items":[{"name":"가마치통닭(용인백암점)","tel":"031-336-8900","addr":"경기도 용인시 처인구 백암면 백암리 365번지 백암빌딩","indutype":"일반휴게음식 - 스넥","category":"restaurant"},{"name":"터미널분식수제왕김말이","tel":"","addr":"경기도 용인시 처인구 백암면 백암리 365번지 백암빌딩","indutype":"일반휴게음식 - 스넥","category":"restaurant"}]},{"lat":"37.194866797","long":"127.36558796","imageIndex":4,"items":[{"name":"가창골","tel":"031-333-0094","addr":"경기도 용인시 처인구 백암면 가창리 210번지","indutype":"일반휴게음식 - 일반한식","category":"restaurant"}]},{"lat":"37.157510439","long":"127.38263345","imageIndex":4,"items":[{"name":"가화만사성","tel":"031-336-5888","addr":"경기도 용인시 처인구 백암면 박곡리 690-4번지 1층","indutype":"일반휴게음식 - 중국식","category":"restaurant"}]},{"lat":"37.165122206","long":"127.37474543","imageIndex":4,"items":[{"name":"갈채까페","tel":"031-111-1111","addr":"경기도 용인시 처인구 백암면 백암리 367번지 2층","indutype":"일반휴게음식 - 서양음식","category":"restaurant"},{"name":"정석통족바베큐구이","tel":"031-321-0259","addr":"경기도 용인시 처인구 백암면 백암리 367번지","indutype":"일반휴게음식 - 일반한식","category":"restaurant"}]},{"lat":"37.162586545","long":"127.36724626","imageIndex":4,"items":[{"name":"강촌손두부해물찜","tel":"031-333-7115","addr":"경기도 용인시 처인구 백암면 근창리 112-6번지","indutype":"일반휴게음식 - 일반한식","category":"restaurant"}]},{"lat":"37.158451431","long":"127.38141107","imageIndex":4,"items":[{"name":"개성닭칼국수","tel":"031-323-3739","addr":"경기도 용인시 처인구 백암면 박곡리 681-6번지 2층","indutype":"일반휴게음식 - 일반한식","category":"restaurant"},{"name":"개성한방삼계탕","tel":"031-323-3738","addr":"경기도 용인시 처인구 백암면 박곡리681-6","indutype":"일반휴게음식 - 일반한식","category":"restaurant"}]},{"lat":"37.163809989","long":"127.37369197","imageIndex":4,"items":[{"name":"건강사철탕","tel":"031-332-8844","addr":"경기도 용인시 처인구 백암면 백암리 458-10번지","indutype":"일반휴게음식 - 일반한식","category":"restaurant"}]},{"lat":"37.165060183","long":"127.37152516","imageIndex":4,"items":[{"name":"계성치킨","tel":"031-332-9918","addr":"경기도 용인시 처인구 백암면 백암리 407-10번지","indutype":"일반휴게음식 - 스넥","category":"restaurant"}]},{"lat":"37.164669164","long":"127.37267163","imageIndex":4,"items":[{"name":"고기천하","tel":"031-321-1333","addr":"경기도 용인시 처인구 백암면 백암리 421-1번지 1층","indutype":"일반휴게음식 - 일반한식","category":"restaurant"}]},{"lat":"37.164697249","long":"127.37233401","imageIndex":4,"items":[{"name":"고래사냥","tel":"031-321-9864","addr":"경기도 용인시 처인구 백암면 백암리 423번지","indutype":"일반휴게음식 - 스넥","category":"restaurant"}]},{"lat":"37.164510802","long":"127.37144368","imageIndex":4,"items":[{"name":"고향만두집","tel":"031-328-8968","addr":"경기도 용인시 처인구 백암면 백암리 637-1번지","indutype":"일반휴게음식 - 일반한식","category":"restaurant"}]},{"lat":"37.164059137","long":"127.37469519","imageIndex":4,"items":[{"name":"곰다방","tel":"031-323-6844","addr":"경기도 용인시 처인구 백암면 백암리 460번지 1층","indutype":"일반휴게음식 - 서양음식","category":"restaurant"},{"name":"백년황태","tel":"031-334-3997","addr":"경기도 용인시 처인구 백암면 백암리 460","indutype":"일반휴게음식 - 일반한식","category":"restaurant"},{"name":"영양분식","tel":"","addr":"경기도 용인시 처인구 백암면 백암리 460번지","indutype":"일반휴게음식 - 일반한식","category":"restaurant"}]},{"lat":"37.164365662","long":"127.3746404","imageIndex":4,"items":[{"name":"곰탱이맛집","tel":"031-323-2547","addr":"경기도 용인시 처인구 백암면 백암리 465-3번지","indutype":"일반휴게음식 - 일반한식","category":"restaurant"},{"name":"백암본가순대","tel":"031-334-9425","addr":"경기도 용인시 처인구 백암면 백암리 465-3","indutype":"일반휴게음식 - 일반한식","category":"restaurant"},{"name":"자작마을","tel":"031-322-5564","addr":"경기도 용인시 처인구 백암면 백암리465-3","indutype":"일반휴게음식 - 일반한식","category":"restaurant"}]},{"lat":"37.165779953","long":"127.37186642","imageIndex":4,"items":[{"name":"광덕이네","tel":"031-334-7964","addr":"경기도 용인시 처인구 백암면 백암리 402-1번지","indutype":"일반휴게음식 - 일반한식","category":"restaurant"},{"name":"인향이네식당","tel":"031-339-3316","addr":"경기도 용인시 처인구 백암면 백암리 402-1번지","indutype":"일반휴게음식 - 일반한식","category":"restaurant"}]},{"lat":"37.164453445","long":"127.3725017","imageIndex":4,"items":[{"name":"길목","tel":"031-332-9575","addr":"경기도 용인시 처인구 백암면 백암리 445번지 가동 1층일부","indutype":"일반휴게음식 - 일반한식","category":"restaurant"},{"name":"상원식당","tel":"031-333-9030","addr":"경기도 용인시 처인구 백암면 백암리 445번지 영진타워","indutype":"일반휴게음식 - 일반한식","category":"restaurant"}]},{"lat":"37.16558944","long":"127.37228206","imageIndex":4,"items":[{"name":"김가네양꼬치","tel":"031-322-3632","addr":"경기도 용인시 처인구 백암면 백암리 390번지 1층","indutype":"일반휴게음식 - 일반한식","category":"restaurant"}]},{"lat":"37.157672804","long":"127.38257797","imageIndex":4,"items":[{"name":"김경국 갈비김치찌개","tel":"031-339-1119","addr":"경기도 용인시 처인구 백암면 박곡리 682-16번지","indutype":"일반휴게음식 - 일반한식","category":"restaurant"}]},{"lat":"37.155948233","long":"127.38369508","imageIndex":4,"items":[{"name":"낙지세상","tel":"031-333-5513","addr":"경기도 용인시 처인구 백암면 박곡리 743-2번지 1층","indutype":"일반휴게음식 - 일반한식","category":"restaurant"},{"name":"전주콩뿌리콩나물국밥","tel":"031-339-9997","addr":"경기도 용인시 처인구 백암면 박곡리 743-2번지","indutype":"일반휴게음식 - 일반한식","category":"restaurant"}]},{"lat":"37.164505504","long":"127.3731437","imageIndex":4,"items":[{"name":"네네치킨","tel":"031-321-9279","addr":"경기도 용인시 처인구 백암면 백암리 447-10번지","indutype":"일반휴게음식 - 스넥","category":"restaurant"},{"name":"중앙식당","tel":"031-333-7750","addr":"경기도 용인시 처인구 백암면 백암리 447-10번지","indutype":"일반휴게음식 - 일반한식","category":"restaurant"}]},{"lat":"37.164733528","long":"127.37513758","imageIndex":4,"items":[{"name":"달마지","tel":"031-323-2741","addr":"경기도 용인시 처인구 백암면 백암리 368-4번지","indutype":"일반휴게음식 - 일반한식","category":"restaurant"},{"name":"돈코돈코","tel":"031-322-7057","addr":"경기도 용인시 처인구 백암면 백암리 368-4번지 1층","indutype":"일반휴게음식 - 일반한식","category":"restaurant"}]},{"lat":"37.16503869","long":"127.37263966","imageIndex":4,"items":[{"name":"대박장소","tel":"031-339-4049","addr":"경기도 용인시 처인구 백암면 백암리 416번지","indutype":"일반휴게음식 - 일반한식","category":"restaurant"},{"name":"블루문커피&호프","tel":"031-335-8803","addr":"경기도 용인시 처인구 백암면 백암리 416번지","indutype":"일반휴게음식 - 주점","category":"restaurant"}]},{"lat":"37.164199682","long":"127.37297333","imageIndex":4,"items":[{"name":"대원","tel":"031-332-2590","addr":"경기도 용인시 처인구 백암면 백암리450-5","indutype":"일반휴게음식 - 일반한식","category":"restaurant"},{"name":"수정다방","tel":"031-337-1180","addr":"경기도 용인시 처인구 백암면 백암리 450-5번지","indutype":"일반휴게음식 - 서양음식","category":"restaurant"}]},{"lat":"37.171505348","long":"127.37064443","imageIndex":4,"items":[{"name":"더불쭈쭈꾸미","tel":"031-335-8892","addr":"경기도 용인시 처인구 백암면 근곡리 8-2번지 1층","indutype":"일반휴게음식 - 일반한식","category":"restaurant"}]},{"lat":"37.165731707","long":"127.37289073","imageIndex":4,"items":[{"name":"도니랑하누","tel":"031-321-9957","addr":"경기도 용인시 처인구 백암면 백암리 375-4번지","indutype":"일반휴게음식 - 일반한식","category":"restaurant"},{"name":"육야키선생","tel":"031-338-9992","addr":"경기도 용인시 처인구 백암면 백암리 375-4번지","indutype":"일반휴게음식 - 일반한식","category":"restaurant"},{"name":"커피밀(coffeemill)","tel":"031-321-9991","addr":"경기도 용인시 처인구 백암면 백암리 375-4번지","indutype":"일반휴게음식 - 서양음식","category":"restaurant"}]},{"lat":"37.16267469","long":"127.37655729","imageIndex":4,"items":[{"name":"돈가네옛날김치돼지찌개 백암점","tel":"031-332-4023","addr":"경기도 용인시 처인구 백암면 백암리 501번지","indutype":"일반휴게음식 - 일반한식","category":"restaurant"}]},{"lat":"37.165091205","long":"127.37313529","imageIndex":4,"items":[{"name":"동북숯불꼬치구이","tel":"031-333-3203","addr":"경기도 용인시 처인구 백암면 백암리 374-10번지 나동 1층","indutype":"일반휴게음식 - 일반한식","category":"restaurant"},{"name":"영화포차","tel":"031-333-4660","addr":"경기도 용인시 처인구 백암면 백암리 374-10번지 1층","indutype":"일반휴게음식 - 일반한식","category":"restaurant"}]},{"lat":"37.147839933","long":"127.38336176","imageIndex":4,"items":[{"name":"동원구내식당","tel":"031-8097-3065","addr":"경기도 용인시 처인구 백암면 백봉리 860-12번지","indutype":"일반휴게음식 - 위탁급식업","category":"restaurant"}]},{"lat":"37.117071057","long":"127.37427404","imageIndex":4,"items":[{"name":"동태랑부대랑","tel":"031-336-8848","addr":"경기도 용인시 처인구 백암면 장평리 628-27번지","indutype":"일반휴게음식 - 일반한식","category":"restaurant"},{"name":"에이치(H)","tel":"031-0000-0000","addr":"경기도 용인시 처인구 백암면 장평리 628-27번지 1층","indutype":"일반휴게음식 - 서양음식","category":"restaurant"}]},{"lat":"37.164229066","long":"127.37221915","imageIndex":4,"items":[{"name":"둥지그린호프","tel":"031-322-7040","addr":"경기도 용인시 처인구 백암면 백암리 440-2번지","indutype":"일반휴게음식 - 스넥","category":"restaurant"}]},{"lat":"37.111096316","long":"127.394136","imageIndex":4,"items":[{"name":"드라미블랙누들","tel":"031-321-5668","addr":"경기도 용인시 처인구 백암면 옥산리 991-4번지 1층","indutype":"일반휴게음식 - 중국식","category":"restaurant"}]},{"lat":"37.162705616","long":"127.36661636","imageIndex":4,"items":[{"name":"라움쿤스트","tel":"","addr":"경기도 용인시 처인구 백암면 근창리 122-18번지 101호","indutype":"일반휴게음식 - 서양음식","category":"restaurant"}]},{"lat":"37.164614802","long":"127.37564363","imageIndex":4,"items":[{"name":"라이스한식뷔페","tel":"031-335-0998","addr":"경기도 용인시 처인구 백암면 백암리 472-1번지 1층 일부","indutype":"일반휴게음식 - 일반한식","category":"restaurant"}]},{"lat":"37.163784016","long":"127.37622499","imageIndex":4,"items":[{"name":"롯데리아용인백암점","tel":"031-334-0070","addr":"경기도 용인시 처인구 백암면 백암리 493번지","indutype":"일반휴게음식 - 서양음식","category":"restaurant"},{"name":"부엌","tel":"031-336-8686","addr":"경기도 용인시 처인구 백암면 백암리 493번지","indutype":"일반휴게음식 - 일반한식","category":"restaurant"},{"name":"아궁이","tel":"031-336-8686","addr":"경기도 용인시 처인구 백암면 백암리 493번지 2층","indutype":"일반휴게음식 - 일반한식","category":"restaurant"}]},{"lat":"37.156146748","long":"127.38360601","imageIndex":4,"items":[{"name":"리노","tel":"031-3715-4746","addr":"경기도 용인시 처인구 백암면 박곡리 739-2번지 1,2층 일부","indutype":"일반휴게음식 - 서양음식","category":"restaurant"}]},{"lat":"37.155310022","long":"127.38321907","imageIndex":4,"items":[{"name":"마당오리","tel":"031-322-5285","addr":"경기도 용인시 처인구 백암면 박곡리 932-12번지 1층","indutype":"일반휴게음식 - 일반한식","category":"restaurant"}]},{"lat":"37.158200415","long":"127.38939147","imageIndex":4,"items":[{"name":"마루가든","tel":"031-336-3585","addr":"경기도 용인시 처인구 백암면 박곡리 711-1번지","indutype":"일반휴게음식 - 일반한식","category":"restaurant"}]},{"lat":"37.164064458","long":"127.37299518","imageIndex":4,"items":[{"name":"만나가정식백반","tel":"031-334-2750","addr":"경기도 용인시 처인구 백암면 백암리 450-9번지","indutype":"일반휴게음식 - 스넥","category":"restaurant"},{"name":"신불닭발","tel":"031-332-4441","addr":"경기도 용인시 처인구 백암면 백암리 450-9번지","indutype":"일반휴게음식 - 일반한식","category":"restaurant"}]},{"lat":"37.163198206","long":"127.37050286","imageIndex":4,"items":[{"name":"만복식당","tel":"031-333-2244","addr":"경기도 용인시 처인구 백암면 근창리 24-3번지","indutype":"일반휴게음식 - 일반한식","category":"restaurant"}]},{"lat":"37.157365986","long":"127.38272278","imageIndex":4,"items":[{"name":"만수네흑염소","tel":"031-323-5596","addr":"경기도 용인시 처인구 백암면 박곡리 690-5번지","indutype":"일반휴게음식 - 일반한식","category":"restaurant"}]},{"lat":"37.164783273","long":"127.37364043","imageIndex":4,"items":[{"name":"맛고을","tel":"031-333-3137","addr":"경기도 용인시 처인구 백암면 백암리 373-4번지","indutype":"일반휴게음식 - 일반한식","category":"restaurant"},{"name":"속푸리","tel":"031-336-3136","addr":"경기도 용인시 처인구 백암면 백암리373-4","indutype":"일반휴게음식 - 중국식","category":"restaurant"}]},{"lat":"37.165343668","long":"127.37308023","imageIndex":4,"items":[{"name":"맛나식당","tel":"031-339-9888","addr":"경기도 용인시 처인구 백암면 백암리 374-16번지","indutype":"일반휴게음식 - 일반한식","category":"restaurant"}]},{"lat":"37.183591644","long":"127.37533145","imageIndex":4,"items":[{"name":"맛있는밥집옥이네식당","tel":"070-5440-2621","addr":"경기도 용인시 처인구 백암면 가창리 380-2번지 1층 103호","indutype":"일반휴게음식 - 일반한식","category":"restaurant"},{"name":"수제비와 칼국수","tel":"031-333-2621","addr":"경기도 용인시 처인구 백암면 가창리 380-2번지 104호","indutype":"일반휴게음식 - 일반한식","category":"restaurant"},{"name":"천미중화요리","tel":"031-334-6778","addr":"경기도 용인시 처인구 백암면 가창리 380-2번지","indutype":"일반휴게음식 - 중국식","category":"restaurant"}]},{"lat":"37.16553643","long":"127.37194404","imageIndex":4,"items":[{"name":"맛집삼계탕","tel":"031-332-4106","addr":"경기도 용인시 처인구 백암면 백암리 402-4번지","indutype":"일반휴게음식 - 일반한식","category":"restaurant"}]},{"lat":"37.16430893","long":"127.37261359","imageIndex":4,"items":[{"name":"명동왕만두","tel":"031-339-4062","addr":"경기도 용인시 처인구 백암면 백암리444-1","indutype":"일반휴게음식 - 스넥","category":"restaurant"}]},{"lat":"37.16514976","long":"127.37169447","imageIndex":4,"items":[{"name":"몽실이포차","tel":"031-321-0102","addr":"경기도 용인시 처인구 백암면 백암리 406번지","indutype":"일반휴게음식 - 일반한식","category":"restaurant"},{"name":"허니닭강정","tel":"031-322-8943","addr":"경기도 용인시 처인구 백암면 백암리 406번지","indutype":"일반휴게음식 - 일반한식","category":"restaurant"}]},{"lat":"37.143597163","long":"127.38858556","imageIndex":4,"items":[{"name":"미림식당","tel":"031-323-4725","addr":"경기도 용인시 처인구 백암면 백봉리 959-15번지 1층","indutype":"일반휴게음식 - 일반한식","category":"restaurant"}]},{"lat":"37.164786579","long":"127.37258214","imageIndex":4,"items":[{"name":"민가네 뚝배기 감자탕","tel":"031-334-8986","addr":"경기도 용인시 처인구 백암면 백암리 425번지","indutype":"일반휴게음식 - 일반한식","category":"restaurant"}]},{"lat":"37.13731331","long":"127.39788366","imageIndex":4,"items":[{"name":"백봉식당","tel":"02-1111-1111","addr":"경기도 용인시 처인구 백암면 백봉리 207-5번지 1층 일부","indutype":"일반휴게음식 - 일반한식","category":"restaurant"}]},{"lat":"37.143540939","long":"127.38924934","imageIndex":4,"items":[{"name":"백봉중화요리","tel":"031-338-2111","addr":"경기도 용인시 처인구 백암면 백봉리 955-2번지","indutype":"일반휴게음식 - 중국식","category":"restaurant"}]},{"lat":"37.136153115","long":"127.39993717","imageIndex":4,"items":[{"name":"백봉치킨","tel":"031-339-1673","addr":"경기도 용인시 처인구 백암면 백봉리 218-3번지","indutype":"일반휴게음식 - 스넥","category":"restaurant"}]},{"lat":"37.139479045","long":"127.39419207","imageIndex":4,"items":[{"name":"백봉한식뷔페","tel":"070-8822-2294","addr":"경기도 용인시 처인구 백암면 백봉리 600-5번지","indutype":"일반휴게음식 - 일반한식","category":"restaurant"}]},{"lat":"37.163808579","long":"127.3741423","imageIndex":4,"items":[{"name":"백암고기백반","tel":"031-321-1176","addr":"경기도 용인시 처인구 백암면 백암리 459-23번지","indutype":"일반휴게음식 - 일반한식","category":"restaurant"}]},{"lat":"37.164088955","long":"127.37380592","imageIndex":4,"items":[{"name":"백암식당","tel":"031-322-5432","addr":"경기도 용인시 처인구 백암면 백암리 458-1","indutype":"일반휴게음식 - 일반한식","category":"restaurant"}]},{"lat":"37.165670707","long":"127.37222616","imageIndex":4,"items":[{"name":"백암왕족발","tel":"031-333-5237","addr":"경기도 용인시 처인구 백암면 백암리 389번지","indutype":"일반휴게음식 - 스넥","category":"restaurant"}]},{"lat":"37.16392172","long":"127.37541506","imageIndex":4,"items":[{"name":"백암이내순대족발","tel":"031-334-1818","addr":"경기도 용인시 처인구 백암면 백암리 470-5번지","indutype":"일반휴게음식 - 일반한식","category":"restaurant"}]},{"lat":"37.165233116","long":"127.37385654","imageIndex":4,"items":[{"name":"백암정육점식당","tel":"031-337-2800","addr":"경기도 용인시 처인구 백암면 백암리 374-20번지 3층","indutype":"일반휴게음식 - 일반한식","category":"restaurant"},{"name":"이모네떡복이김밥점","tel":"031-334-7503","addr":"경기도 용인시 처인구 백암면 백암리 374-20번지","indutype":"일반휴게음식 - 일반한식","category":"restaurant"},{"name":"차&대포","tel":"031-334-0723","addr":"경기도 용인시 처인구 백암면 백암리 374-20번지","indutype":"일반휴게음식 - 일반한식","category":"restaurant"}]},{"lat":"37.164726708","long":"127.37443951","imageIndex":4,"items":[{"name":"백암추어탕","tel":"031-321-6929","addr":"경기도 용인시 처인구 백암면 백암리366-6","indutype":"일반휴게음식 - 일반한식","category":"restaurant"},{"name":"스타호프","tel":"031-322-3412","addr":"경기도 용인시 처인구 백암면 백암리 366-6번지 지하1층","indutype":"일반휴게음식 - 스넥","category":"restaurant"}]},{"lat":"37.15608765","long":"127.38517048","imageIndex":4,"items":[{"name":"백암한우","tel":"031-339-8975","addr":"경기도 용인시 처인구 백암면 박곡리 729-12번지","indutype":"일반휴게음식 - 일반한식","category":"restaurant"}]},{"lat":"37.1518424","long":"127.38558812","imageIndex":4,"items":[{"name":"백암휴게소식당","tel":"031-337-2490","addr":"경기도 용인시 처인구 백암면 백봉리 834-2","indutype":"일반휴게음식 - 일반한식","category":"restaurant"}]},{"lat":"37.158650339","long":"127.38119816","imageIndex":4,"items":[{"name":"별난버섯","tel":"031-332-0446","addr":"경기도 용인시 처인구 백암면 박곡리 681-4번지 1층","indutype":"일반휴게음식 - 일반한식","category":"restaurant"},{"name":"수진이네","tel":"031-339-3899","addr":"경기도 용인시 처인구 백암면 박곡리 681-4번지","indutype":"일반휴게음식 - 일반한식","category":"restaurant"}]},{"lat":"37.139758921","long":"127.39402469","imageIndex":4,"items":[{"name":"별치킨호프","tel":"031-336-5256","addr":"경기도 용인시 처인구 백암면 백봉리 600-2번지 3층","indutype":"일반휴게음식 - 스넥","category":"restaurant"}]},{"lat":"37.141144661","long":"127.39730706","imageIndex":4,"items":[{"name":"비앤비","tel":"031-323-0330","addr":"경기도 용인시 처인구 백암면 백봉리 165-1번지","indutype":"일반휴게음식 - 일반한식","category":"restaurant"}]},{"lat":"37.164149341","long":"127.37177968","imageIndex":4,"items":[{"name":"비에이치씨(BHC)치킨","tel":"031-332-1112","addr":"경기도 용인시 처인구 백암면 백암리 436-1번지 1층","indutype":"일반휴게음식 - 스넥","category":"restaurant"}]},{"lat":"37.164677577","long":"127.37286307","imageIndex":4,"items":[{"name":"빅타임","tel":"031-334-4079","addr":"경기도 용인시 처인구 백암면 백암리 420-2","indutype":"일반휴게음식 - 일반한식","category":"restaurant"}]},{"lat":"37.165311068","long":"127.37485895","imageIndex":4,"items":[{"name":"뺑아리동동","tel":"031-332-8496","addr":"경기도 용인시 처인구 백암면 백암리 367-2","indutype":"일반휴게음식 - 일반한식","category":"restaurant"}]},{"lat":"37.167372134","long":"127.3784494","imageIndex":4,"items":[{"name":"사부자설렁탕","tel":"031-332-2290","addr":"경기도 용인시 처인구 백암면 백암리 312-2번지 1층","indutype":"일반휴게음식 - 일반한식","category":"restaurant"},{"name":"쉐프의 부대찌개","tel":"031-338-8253","addr":"경기도 용인시 처인구 백암면 백암리 312-2번지 2층","indutype":"일반휴게음식 - 일반한식","category":"restaurant"}]},{"lat":"37.166480858","long":"127.3724778","imageIndex":4,"items":[{"name":"산돼지식당","tel":"031-339-8452","addr":"경기도 용인시 처인구 백암면 백암리386-5","indutype":"일반휴게음식 - 일반한식","category":"restaurant"},{"name":"수제돈가스한식뷔페","tel":"031-337-0750","addr":"경기도 용인시 처인구 백암면 백암리 386-5번지 2층","indutype":"일반휴게음식 - 일반한식","category":"restaurant"}]},{"lat":"37.140398292","long":"127.40755646","imageIndex":4,"items":[{"name":"샘터골송어회","tel":"031-333-3359","addr":"경기도 용인시 처인구 백암면 고안리 675번지","indutype":"일반휴게음식 - 일반한식","category":"restaurant"},{"name":"황가네오리","tel":"031-321-4561","addr":"경기도 용인시 처인구 백암면 고안리 675번지","indutype":"일반휴게음식 - 일반한식","category":"restaurant"}]},{"lat":"37.163863522","long":"127.37386111","imageIndex":4,"items":[{"name":"소담","tel":"031-333-2484","addr":"경기도 용인시 처인구 백암면 백암리 459-20번지","indutype":"일반휴게음식 - 일반한식","category":"restaurant"},{"name":"수연호프","tel":"031-322-1007","addr":"경기도 용인시 처인구 백암면 백암리 459-20","indutype":"일반휴게음식 - 스넥","category":"restaurant"}]},{"lat":"37.163808156","long":"127.3742774","imageIndex":4,"items":[{"name":"송백집","tel":"031-333-9307","addr":"경기도 용인시 처인구 백암면 백암리 459-24번지","indutype":"일반휴게음식 - 일반한식","category":"restaurant"},{"name":"처음처럼","tel":"031-333-9307","addr":"경기도 용인시 처인구 백암면 백암리 459-24번지 1층","indutype":"일반휴게음식 - 일반한식","category":"restaurant"}]},{"lat":"37.165423987","long":"127.37332832","imageIndex":4,"items":[{"name":"솥뚜껑삼겹살","tel":"070-8976-6007","addr":"경기도 용인시 처인구 백암면 백암리 374-5번지","indutype":"일반휴게음식 - 일반한식","category":"restaurant"}]},{"lat":"37.163891785","long":"127.3734672","imageIndex":4,"items":[{"name":"수정식당","tel":"031-332-4165","addr":"경기도 용인시 처인구 백암면 백암리458-2","indutype":"일반휴게음식 - 일반한식","category":"restaurant"}]},{"lat":"37.16511623","long":"127.37377716","imageIndex":4,"items":[{"name":"술이야","tel":"","addr":"경기도 용인시 처인구 백암면 백암리 374-15번지 2층","indutype":"일반휴게음식 - 주점","category":"restaurant"}]},{"lat":"37.164836912","long":"127.3737758","imageIndex":4,"items":[{"name":"시골밥상김밥","tel":"031-339-7728","addr":"경기도 용인시 처인구 백암면 백암리 373-3번지","indutype":"일반휴게음식 - 일반한식","category":"restaurant"}]},{"lat":"37.155731444","long":"127.38386285","imageIndex":4,"items":[{"name":"시우한식부페","tel":"031-321-0750","addr":"경기도 용인시 처인구 백암면 박곡리 729-6번지 상원가든 가동 1층","indutype":"일반휴게음식 - 일반한식","category":"restaurant"}]},{"lat":"37.166419961","long":"127.37177946","imageIndex":4,"items":[{"name":"시크릿","tel":"","addr":"경기도 용인시 처인구 백암면 백암리 641-26번지 1층","indutype":"일반휴게음식 - 주점","category":"restaurant"},{"name":"옛집","tel":"031-333-3807","addr":"경기도 용인시 처인구 백암면 백암리 641-26","indutype":"일반휴게음식 - 일반한식","category":"restaurant"},{"name":"일미회센타","tel":"031-322-8333","addr":"경기도 용인시 처인구 백암면 641-26","indutype":"일반휴게음식 - 일식·회집","category":"restaurant"}]},{"lat":"37.14784316","long":"127.38794301","imageIndex":4,"items":[{"name":"신화맛집","tel":"031-332-9380","addr":"경기도 용인시 처인구 백암면 백봉리 757-13번지 1층","indutype":"일반휴게음식 - 일반한식","category":"restaurant"}]},{"lat":"37.163835963","long":"127.37402985","imageIndex":4,"items":[{"name":"썬호프","tel":"031-334-4973","addr":"경기도 용인시 처인구 백암면 백암리 459-22번지 1층","indutype":"일반휴게음식 - 일반한식","category":"restaurant"}]},{"lat":"37.165644729","long":"127.37188828","imageIndex":4,"items":[{"name":"아지트","tel":"031-334-3822","addr":"경기도 용인시 처인구 백암면 백암리 402-3번지 1층","indutype":"일반휴게음식 - 일반한식","category":"restaurant"}]},{"lat":"37.157011835","long":"127.39735569","imageIndex":4,"items":[{"name":"안채","tel":"031-336-5414","addr":"경기도 용인시 처인구 백암면 박곡리283-2","indutype":"일반휴게음식 - 일반한식","category":"restaurant"}]},{"lat":"37.144791311","long":"127.36713837","imageIndex":4,"items":[{"name":"알렉스더커피","tel":"070-4148-7714","addr":"경기도 용인시 처인구 백암면 근삼리 282-1번지","indutype":"일반휴게음식 - 서양음식","category":"restaurant"}]},{"lat":"37.178953206","long":"127.35099681","imageIndex":4,"items":[{"name":"어몽더독","tel":"","addr":"경기도 용인시 처인구 백암면 가좌리 183-1번지","indutype":"일반휴게음식 - 서양음식","category":"restaurant"},{"name":"어몽더독(among the dog)","tel":"031-000-0000","addr":"경기도 용인시 처인구 백암면 가좌리 183-1번지 1층","indutype":"일반휴게음식 - 서양음식","category":"restaurant"}]},{"lat":"37.16422861","long":"127.37236551","imageIndex":4,"items":[{"name":"어울림","tel":"031-2220-3775","addr":"경기도 용인시 처인구 백암면 백암리 442번지 1층","indutype":"일반휴게음식 - 서양음식","category":"restaurant"}]},{"lat":"37.165120836","long":"127.3723023","imageIndex":4,"items":[{"name":"영후네야식","tel":"031-339-1253","addr":"경기도 용인시 처인구 백암면 백암리 413-1번지 1층","indutype":"일반휴게음식 - 일반한식","category":"restaurant"}]},{"lat":"37.124791964","long":"127.41547402","imageIndex":4,"items":[{"name":"예향","tel":"031-000-0000","addr":"경기도 용인시 처인구 백암면 고안리 97-1번지","indutype":"일반휴게음식 - 일반한식","category":"restaurant"}]},{"lat":"37.163593645","long":"127.37083127","imageIndex":4,"items":[{"name":"옛골푸드","tel":"031-323-5877","addr":"경기도 용인시 처인구 백암면 근창리 19-1번지 1층","indutype":"일반휴게음식 - 일반한식","category":"restaurant"}]},{"lat":"37.164534595","long":"127.37536178","imageIndex":4,"items":[{"name":"오렌지궁전","tel":"031-336-5225","addr":"경기도 용인시 처인구 백암면 백암리 468번지 1층","indutype":"일반휴게음식 - 주점","category":"restaurant"},{"name":"훌랄라 숯불치킨 백암점","tel":"031-339-6802","addr":"경기도 용인시 처인구 백암면 백암리 468번지 1층","indutype":"일반휴게음식 - 스넥","category":"restaurant"}]},{"lat":"37.165031751","long":"127.37197536","imageIndex":4,"items":[{"name":"오복맛집","tel":"031-336-9188","addr":"경기도 용인시 처인구 백암면 백암리 409번지 1층","indutype":"일반휴게음식 - 일반한식","category":"restaurant"}]},{"lat":"37.163976147","long":"127.37242057","imageIndex":4,"items":[{"name":"옥산가든","tel":"031-334-9919","addr":"경기도 용인시 처인구 백암면 백암리 443-4번지 외1필지","indutype":"일반휴게음식 - 일반한식","category":"restaurant"}]},{"lat":"37.175670481","long":"127.37566416","imageIndex":4,"items":[{"name":"와조(WAZO)갤러리카페","tel":"031-336-6654","addr":"경기도 용인시 처인구 백암면 백암리 42-2번지","indutype":"일반휴게음식 - 일반한식","category":"restaurant"}]},{"lat":"37.157781359","long":"127.38244342","imageIndex":4,"items":[{"name":"완산골콩나물피순대","tel":"031-332-4063","addr":"경기도 용인시 처인구 백암면 박곡리 682-6번지 1층","indutype":"일반휴게음식 - 일반한식","category":"restaurant"}]},{"lat":"37.164558545","long":"127.37347045","imageIndex":4,"items":[{"name":"요거프레소백암점","tel":"031-333-7416","addr":"경기도 용인시 처인구 백암면 백암리 447-12번지 1층","indutype":"일반휴게음식 - 서양음식","category":"restaurant"}]},{"lat":"37.156397733","long":"127.38680436","imageIndex":4,"items":[{"name":"용인가든","tel":"031-334-4858","addr":"경기도 용인시 처인구 백암면 박곡리 728번지","indutype":"일반휴게음식 - 일반한식","category":"restaurant"}]},{"lat":"37.163117882","long":"127.37025479","imageIndex":4,"items":[{"name":"워어언샤앗","tel":"031-335-1522","addr":"경기도 용인시 처인구 백암면 근창리 20-6번지","indutype":"일반휴게음식 - 스넥","category":"restaurant"}]},{"lat":"37.17841858","long":"127.36991222","imageIndex":4,"items":[{"name":"웰빙음식점모란","tel":"031-333-7880","addr":"경기도 용인시 처인구 백암면 가창리 451-2번지","indutype":"일반휴게음식 - 일반한식","category":"restaurant"}]},{"lat":"37.161365466","long":"127.37741772","imageIndex":4,"items":[{"name":"유리네맛집","tel":"031-339-8666","addr":"경기도 용인시 처인구 백암면 백암리 544-2번지","indutype":"일반휴게음식 - 일반한식","category":"restaurant"}]},{"lat":"37.123846997","long":"127.37425087","imageIndex":4,"items":[{"name":"으뜸짬뽕드라마","tel":"031-339-8692","addr":"경기도 용인시 처인구 백암면 장평리 611-1번지 1층","indutype":"일반휴게음식 - 중국식","category":"restaurant"}]},{"lat":"37.165585714","long":"127.37347547","imageIndex":4,"items":[{"name":"이십오시(25시)뼈다귀","tel":"031-332-4880","addr":"경기도 용인시 처인구 백암면 백암리 374-14번지 1층","indutype":"일반휴게음식 - 일반한식","category":"restaurant"}]},{"lat":"37.165953584","long":"127.37397265","imageIndex":4,"items":[{"name":"이차로HOF","tel":"031-4991-0439","addr":"경기도 용인시 처인구 백암면 백암리 364-3번지 2층","indutype":"일반휴게음식 - 주점","category":"restaurant"}]},{"lat":"37.164814382","long":"127.37233458","imageIndex":4,"items":[{"name":"인생술집","tel":"031-335-5127","addr":"경기도 용인시 처인구 백암면 백암리 424번지","indutype":"일반휴게음식 - 스넥","category":"restaurant"},{"name":"청사초롱","tel":"031-335-5127","addr":"경기도 용인시 처인구 백암면 백암리 424번지","indutype":"일반휴게음식 - 주점","category":"restaurant"}]},{"lat":"37.161253596","long":"127.36411011","imageIndex":4,"items":[{"name":"자매식당","tel":"031-333-6355","addr":"경기도 용인시 처인구 백암면 근창리 89-6번지 1층","indutype":"일반휴게음식 - 일반한식","category":"restaurant"}]},{"lat":"37.123594532","long":"127.3743059","imageIndex":4,"items":[{"name":"장평곱창","tel":"031-332-9253","addr":"경기도 용인시 처인구 백암면 장평리611-3","indutype":"일반휴게음식 - 일반한식","category":"restaurant"}]},{"lat":"37.123702832","long":"127.37425017","imageIndex":4,"items":[{"name":"장평치킨","tel":"031-333-2300","addr":"경기도 용인시 처인구 백암면 장평리 611-2번지 1층","indutype":"일반휴게음식 - 스넥","category":"restaurant"}]},{"lat":"37.140123021","long":"127.39563602","imageIndex":4,"items":[{"name":"재동축산 주식회사","tel":"031-338-6993","addr":"경기도 용인시 처인구 백암면 백봉리 612-5번지","indutype":"일반휴게음식 - 일반한식","category":"restaurant"}]},{"lat":"37.165951079","long":"127.37477201","imageIndex":4,"items":[{"name":"전통갈비","tel":"031-333-6111","addr":"경기도 용인시 처인구 백암면 347-2","indutype":"일반휴게음식 - 갈비전문점","category":"restaurant"}]},{"lat":"37.114905508","long":"127.37236201","imageIndex":4,"items":[{"name":"조비산가든","tel":"031-333-1193","addr":"경기도 용인시 처인구 백암면 석천리 384-3번지 조비산가든","indutype":"일반휴게음식 - 일반한식","category":"restaurant"}]},{"lat":"37.156367149","long":"127.3851156","imageIndex":4,"items":[{"name":"준라이브","tel":"031-339-8975","addr":"경기도 용인시 처인구 백암면 박곡리 731-1","indutype":"일반휴게음식 - 스넥","category":"restaurant"}]},{"lat":"37.16495283","long":"127.37127695","imageIndex":4,"items":[{"name":"중앙왕족발보쌈","tel":"031-339-1233","addr":"경기도 용인시 처인구 백암면 백암리 407-14번지","indutype":"일반휴게음식 - 일반한식","category":"restaurant"}]},{"lat":"37.165397378","long":"127.37319308","imageIndex":4,"items":[{"name":"차이나","tel":"031-321-8832","addr":"경기도 용인시 처인구 백암면 백암리 374-47번지","indutype":"일반휴게음식 - 중국식","category":"restaurant"}]},{"lat":"37.156844369","long":"127.35008489","imageIndex":4,"items":[{"name":"참좋은맛집","tel":"031-321-5884","addr":"경기도 용인시 처인구 백암면 근창리 606-4번지 1층 일부","indutype":"일반휴게음식 - 일반한식","category":"restaurant"}]},{"lat":"37.157512097","long":"127.38211561","imageIndex":4,"items":[{"name":"채우미","tel":"031-321-8721","addr":"경기도 용인시 처인구 백암면 박곡리 689-1번지","indutype":"일반휴게음식 - 일반한식","category":"restaurant"}]},{"lat":"37.165535027","long":"127.37239438","imageIndex":4,"items":[{"name":"처갓집양념치킨 백암점","tel":"031-321-9282","addr":"경기도 용인시 처인구 백암면 백암리 391번지","indutype":"일반휴게음식 - 스넥","category":"restaurant"},{"name":"홍도야","tel":"031-321-0062","addr":"경기도 용인시 처인구 백암면 백암리 391번지","indutype":"일반휴게음식 - 서양음식","category":"restaurant"}]},{"lat":"37.16569886","long":"127.37186602","imageIndex":4,"items":[{"name":"청송회관","tel":"031-322-5060","addr":"경기도 용인시 처인구 백암면 백암리402","indutype":"일반휴게음식 - 일반한식","category":"restaurant"}]},{"lat":"37.141486088","long":"127.3636672","imageIndex":4,"items":[{"name":"카페드아리(CAFEDEAREE)","tel":"","addr":"경기도 용인시 처인구 백암면 근삼리 389-1번지 예아리박물관 C동 1층","indutype":"일반휴게음식 - 서양음식","category":"restaurant"}]},{"lat":"37.165119958","long":"127.37258376","imageIndex":4,"items":[{"name":"카페라쥬","tel":"031-332-6058","addr":"경기도 용인시 처인구 백암면 백암리 415번지","indutype":"일반휴게음식 - 서양음식","category":"restaurant"}]},{"lat":"37.164922084","long":"127.37247021","imageIndex":4,"items":[{"name":"캐슬바베큐치킨","tel":"031-334-2217","addr":"경기도 용인시 처인구 백암면 백암리 426번지","indutype":"일반휴게음식 - 일반한식","category":"restaurant"}]},{"lat":"37.164256762","long":"127.37488755","imageIndex":4,"items":[{"name":"커피샌프란시스코","tel":"031-321-8883","addr":"경기도 용인시 처인구 백암면 백암리 466번지 1층","indutype":"일반휴게음식 - 서양음식","category":"restaurant"},{"name":"피자스쿨용인백암점","tel":"031-334-7077","addr":"경기도 용인시 처인구 백암면 백암리 466번지 1층","indutype":"일반휴게음식 - 서양음식","category":"restaurant"}]},{"lat":"37.098963405","long":"127.40896708","imageIndex":4,"items":[{"name":"콩사랑","tel":"031-321-3329","addr":"경기도 용인시 처인구 백암면 옥산리 321번지","indutype":"일반휴게음식 - 일반한식","category":"restaurant"}]},{"lat":"37.147231219","long":"127.41452655","imageIndex":4,"items":[{"name":"클로포(clofo)","tel":"031-330-7236","addr":"경기도 용인시 처인구 백암면 고안리 633-2번지 IAE고등기술연구원","indutype":"일반휴게음식 - 서양음식","category":"restaurant"}]},{"lat":"37.173370848","long":"127.35267145","imageIndex":4,"items":[{"name":"템프터제이과자점","tel":"031-339-1030","addr":"경기도 용인시 처인구 백암면 근곡리 583-3번지 송림유치원 가동 1층","indutype":"일반휴게음식 - 서양음식","category":"restaurant"}]},{"lat":"37.131288761","long":"127.40755297","imageIndex":4,"items":[{"name":"토박이","tel":"031-332-2194","addr":"경기도 용인시 처인구 백암면 고안리 462-1번지","indutype":"일반휴게음식 - 일반한식","category":"restaurant"}]},{"lat":"37.165004543","long":"127.37491374","imageIndex":4,"items":[{"name":"펀비어킹백악점","tel":"031-000-0000","addr":"경기도 용인시 처인구 백암면 백암리 368-1번지 1층 일부","indutype":"일반휴게음식 - 일반한식","category":"restaurant"}]},{"lat":"37.178085515","long":"127.36980926","imageIndex":4,"items":[{"name":"푸짐한자매밥상","tel":"031-333-6169","addr":"경기도 용인시 처인구 백암면 근곡리 99-9번지 1층","indutype":"일반휴게음식 - 일반한식","category":"restaurant"}]},{"lat":"37.157313259","long":"127.38230599","imageIndex":4,"items":[{"name":"풍성식당","tel":"031-332-4604","addr":"경기도 용인시 처인구 백암면 박곡리 689-3번지 2층","indutype":"일반휴게음식 - 일반한식","category":"restaurant"}]},{"lat":"37.124869488","long":"127.41649843","imageIndex":4,"items":[{"name":"한아름야식","tel":"031-322-2890","addr":"경기도 용인시 처인구 백암면 고안리 92번지","indutype":"일반휴게음식 - 일반한식","category":"restaurant"}]},{"lat":"37.164174963","long":"127.37511232","imageIndex":4,"items":[{"name":"해물칼국수. 불타는닭발","tel":"031-339-5158","addr":"경기도 용인시 처인구 백암면 백암리 470-3번지","indutype":"일반휴게음식 - 일반한식","category":"restaurant"}]},{"lat":"37.163895862","long":"127.37216124","imageIndex":4,"items":[{"name":"해피데이","tel":"031-322-7079","addr":"경기도 용인시 처인구 백암면 백암리 436-5번지 2층","indutype":"일반휴게음식 - 일반한식","category":"restaurant"}]},{"lat":"37.12470468","long":"127.35600324","imageIndex":4,"items":[{"name":"형석이네숯불갈비","tel":"031-323-1711","addr":"경기도 용인시 처인구 백암면 용천리 613-3번지 1층","indutype":"일반휴게음식 - 일반한식","category":"restaurant"}]},{"lat":"37.165284739","long":"127.37175142","imageIndex":4,"items":[{"name":"홍류","tel":"031-334-0335","addr":"경기도 용인시 처인구 백암면 백암리 404-4번지","indutype":"일반휴게음식 - 중국식","category":"restaurant"}]},{"lat":"37.111314824","long":"127.3680018","imageIndex":4,"items":[{"name":"황새울가든","tel":"031-332-3009","addr":"경기도 용인시 처인구 백암면 석천리 448-1번지","indutype":"일반휴게음식 - 일반한식","category":"restaurant"}]},{"lat":"37.1124029","long":"127.35074822","imageIndex":4,"items":[{"name":"황새울식당","tel":"031-333-9080","addr":"경기도 용인시 처인구 백암면 석천리 731번지","indutype":"일반휴게음식 - 일반한식","category":"restaurant"}]},{"lat":"37.163951897","long":"127.3744132","imageIndex":4,"items":[{"name":"힘좋은참낙지","tel":"031-332-4443","addr":"경기도 용인시 처인구 백암면 백암리 459-25번지 1층","indutype":"일반휴게음식 - 일반한식","category":"restaurant"}]},{"lat":"37.16422683","long":"127.37581061","imageIndex":0,"items":[{"name":"1급시장카센타","tel":"031-334-2628","addr":"경기도 용인시 처인구 백암면 474","indutype":"자동차정비 유지 - 자동차정비","category":"car"}]},{"lat":"37.174092419","long":"127.34625658","imageIndex":0,"items":[{"name":"TBX백암점동성자동차공업사","tel":"031-334-5886","addr":"경기도 용인시 처인구 백암면 가좌리267-13","indutype":"자동차정비 유지 - 자동차정비","category":"car"}]},{"lat":"37.153284369","long":"127.38549408","imageIndex":0,"items":[{"name":"금강보링","tel":"031-323-5562","addr":"경기도 용인시 처인구 백암면 백봉리 1382-41번지","indutype":"자동차정비 유지 - 자동차정비","category":"car"},{"name":"한성대영카센타","tel":"031-333-0951","addr":"경기도 용인시 처인구 백암면 백봉리 1382-41번지","indutype":"자동차정비 유지 - 자동차정비","category":"car"}]},{"lat":"37.159893532","long":"127.36981139","imageIndex":0,"items":[{"name":"나사코리아","tel":"02-417-3518","addr":"경기도 용인시 처인구 백암면 근창리 53번지","indutype":"자동차정비 유지 - 자동차부품","category":"car"}]},{"lat":"37.135509611","long":"127.40105923","imageIndex":0,"items":[{"name":"대성카공업사","tel":"031-332-3669","addr":"경기도 용인시 처인구 백암면 백봉리 232-1","indutype":"자동차정비 유지 - 자동차정비","category":"car"}]},{"lat":"37.155948233","long":"127.38369508","imageIndex":0,"items":[{"name":"대원카센타","tel":"031-333-7030","addr":"경기도 용인시 처인구 백암면 박곡리 743-2번지","indutype":"자동차정비 유지 - 자동차정비","category":"car"},{"name":"씨엔에스(CNS)세차","tel":"","addr":"경기도 용인시 처인구 백암면 박곡리 743-2번지 대원카공업사 101호","indutype":"자동차정비 유지 - 세차장","category":"car"}]},{"lat":"37.171030588","long":"127.35489005","imageIndex":0,"items":[{"name":"미르카센타","tel":"031-388-7577","addr":"경기도 용인시 처인구 백암면 근곡리 366-14","indutype":"자동차정비 유지 - 카인테리어","category":"car"}]},{"lat":"37.143094259","long":"127.42001927","imageIndex":0,"items":[{"name":"박씨네 출장세차","tel":"070-8151-9313","addr":"경기도 용인시 처인구 백암면 고안리 622-3번지","indutype":"자동차정비 유지 - 세차장","category":"car"}]},{"lat":"37.135391982","long":"127.39851516","imageIndex":0,"items":[{"name":"백봉","tel":"070-8968-0901","addr":"경기도 용인시 처인구 백암면 백봉리 237-1번지 무지개빌라 나동 302호","indutype":"자동차정비 유지 - 자동차부품","category":"car"}]},{"lat":"37.143840184","long":"127.38866558","imageIndex":0,"items":[{"name":"백암 광택사","tel":"031-338-5578","addr":"경기도 용인시 처인구 백암면 백봉리 956-1번지","indutype":"자동차정비 유지 - 카인테리어","category":"car"}]},{"lat":"37.164452743","long":"127.37272687","imageIndex":0,"items":[{"name":"백암서비스","tel":"","addr":"경기도 용인시 처인구 백암면 백암리 446번지","indutype":"자동차정비 유지 - 견인서비스","category":"car"}]},{"lat":"37.169419813","long":"127.37485656","imageIndex":0,"items":[{"name":"백암점현대자동차","tel":"031-322-5325","addr":"경기도 용인시 처인구 백암면 백암리 220-1번지","indutype":"자동차정비 유지 - 중장비수리","category":"car"}]},{"lat":"37.163117882","long":"127.37025479","imageIndex":0,"items":[{"name":"서울오토바이","tel":"031-332-4359","addr":"경기도 용인시 처인구 백암면 근창리20-6","indutype":"자동차판매 - 이륜차판매","category":"car"}]},{"lat":"37.164733528","long":"127.37513758","imageIndex":0,"items":[{"name":"신용자동차부분정비공업사","tel":"031-332-4018","addr":"경기도 용인시 처인구 백암면 백암리368-4","indutype":"자동차정비 유지 - 자동차정비","category":"car"}]},{"lat":"37.160784435","long":"127.35533789","imageIndex":0,"items":[{"name":"안성대형렉카","tel":"031-675-1813","addr":"경기도 용인시 처인구 백암면 근창리 372-1번지","indutype":"자동차정비 유지 - 견인서비스","category":"car"},{"name":"처인렉카","tel":"031-000-0000","addr":"경기도 용인시 처인구 백암면 근창리 372-1번지","indutype":"자동차정비 유지 - 견인서비스","category":"car"}]},{"lat":"37.114098427","long":"127.36231086","imageIndex":0,"items":[{"name":"안전통운","tel":"","addr":"경기도 용인시 처인구 백암면 석천리 582번지","indutype":"자동차정비 유지 - 견인서비스","category":"car"}]},{"lat":"37.144123745","long":"127.38736138","imageIndex":0,"items":[{"name":"양양공업사","tel":"031-322-6513","addr":"경기도 용인시 처인구 백암면 백봉리 927-7번지","indutype":"자동차정비 유지 - 자동차시트·타이어","category":"car"}]},{"lat":"37.162566141","long":"127.37669185","imageIndex":0,"items":[{"name":"오수자동차정비공업사","tel":"031-332-9399","addr":"경기도 용인시 처인구 백암면 백암리 501-4번지","indutype":"자동차정비 유지 - 자동차정비","category":"car"}]},{"lat":"37.173225858","long":"127.35899882","imageIndex":0,"items":[{"name":"용인시 자동차 전문정비 협동조합","tel":"031-332-9399","addr":"경기도 용인시 처인구 백암면 근곡리 256-10번지 1층","indutype":"자동차정비 유지 - 자동차부품","category":"car"}]},{"lat":"37.158142923","long":"127.38208499","imageIndex":0,"items":[{"name":"원터카센타","tel":"031-339-1257","addr":"경기도 용인시 처인구 백암면 박곡리 682-1번지","indutype":"자동차정비 유지 - 자동차정비","category":"car"}]},{"lat":"37.140983412","long":"127.41813934","imageIndex":0,"items":[{"name":"유창에스텍","tel":"02-1234-1234","addr":"경기도 용인시 처인구 백암면 고안리 610-3번지 2동","indutype":"자동차판매 - 기타운송","category":"car"}]},{"lat":"37.138702578","long":"127.39738442","imageIndex":0,"items":[{"name":"이화적재함공업사","tel":"031-334-0588","addr":"경기도 용인시 처인구 백암면 백봉리 569번지","indutype":"자동차정비 유지 - 자동차정비","category":"car"}]},{"lat":"37.12376467","long":"127.37464431","imageIndex":0,"items":[{"name":"장평자동차수리점","tel":"031-334-6288","addr":"경기도 용인시 처인구 백암면 장평리 587-5","indutype":"자동차정비 유지 - 자동차정비","category":"car"}]},{"lat":"37.143397508","long":"127.3890235","imageIndex":0,"items":[{"name":"전진공업사","tel":"031-322-0505","addr":"경기도 용인시 처인구 백암면 백봉리 955번지","indutype":"자동차정비 유지 - 자동차정비","category":"car"}]},{"lat":"37.181335725","long":"127.34661593","imageIndex":0,"items":[{"name":"중부산업","tel":"031-321-2177","addr":"경기도 용인시 처인구 백암면 가좌리 380번지","indutype":"자동차정비 유지 - 자동차정비","category":"car"}]},{"lat":"37.161175963","long":"127.36297268","imageIndex":0,"items":[{"name":"평화자동차 세차장","tel":"031-334-1799","addr":"경기도 용인시 처인구 백암면 근창리 296-4번지","indutype":"자동차정비 유지 - 세차장","category":"car"}]},{"lat":"37.151174295","long":"127.38600125","imageIndex":0,"items":[{"name":"평화자동차서비스백봉점","tel":"031-322-6926","addr":"경기도 용인시 처인구 백암면 백봉리 836-2번지","indutype":"자동차정비 유지 - 자동차정비","category":"car"}]},{"lat":"37.161337121","long":"127.36331119","imageIndex":0,"items":[{"name":"평화자동차써비스","tel":"031-321-0787","addr":"경기도 용인시 처인구 백암면 근창리 296-1번지","indutype":"자동차정비 유지 - 자동차정비","category":"car"},{"name":"평화자동차써비스","tel":"031-321-0787","addr":"경기도 용인시 처인구 백암면 근창리 296-1번지","indutype":"자동차정비 유지 - 자동차정비","category":"car"}]},{"lat":"37.162982989","long":"127.3759396","imageIndex":0,"items":[{"name":"한성스팀손세차","tel":"031-9386-4711","addr":"경기도 용인시 처인구 백암면 백암리 503-7번지","indutype":"자동차정비 유지 - 세차장","category":"car"}]},{"lat":"37.165585714","long":"127.37347547","imageIndex":7,"items":[{"name":"365데이 (DAY)","tel":"031-332-4881","addr":"경기도 용인시 처인구 백암면 백암리 374-14번지 1층","indutype":"유통업 영리 - 슈퍼마켓","category":"mart"}]},{"lat":"37.163421401","long":"127.37116819","imageIndex":7,"items":[{"name":"88슈퍼","tel":"031-332-4071","addr":"경기도 용인시 처인구 백암면 근창리19-3","indutype":"유통업 영리 - 슈퍼마켓","category":"mart"}]},{"lat":"37.167982687","long":"127.37627942","imageIndex":7,"items":[{"name":"곰이네","tel":"031-000-0000","addr":"경기도 용인시 처인구 백암면 백암리 641-6번지","indutype":"유통업 영리 - 슈퍼마켓","category":"mart"}]},{"lat":"37.121983748","long":"127.36489114","imageIndex":7,"items":[{"name":"구내매점","tel":"031-332-3194","addr":"경기도 용인시 처인구 백암면 용천리264-5","indutype":"유통업 영리 - 슈퍼마켓","category":"mart"}]},{"lat":"37.168977919","long":"127.37783809","imageIndex":7,"items":[{"name":"굿마트용인약수점","tel":"031-334-3546","addr":"경기도 용인시 처인구 백암면 백암리 252-5번지","indutype":"유통업 영리 - 슈퍼마켓","category":"mart"}]},{"lat":"37.164030533","long":"127.36941482","imageIndex":7,"items":[{"name":"드림디포용인백암점(성은마트)","tel":"031-334-6650","addr":"경기도 용인시 처인구 백암면 근창리 101-12번지","indutype":"유통업 영리 - 슈퍼마켓","category":"mart"}]},{"lat":"37.164450492","long":"127.37344741","imageIndex":7,"items":[{"name":"백암식품","tel":"031-332-4147","addr":"경기도 용인시 처인구 백암면 백암리 447-13번지","indutype":"유통업 영리 - 슈퍼마켓","category":"mart"}]},{"lat":"37.172363593","long":"127.3869752","imageIndex":7,"items":[{"name":"병숙이네편의점","tel":"031-333-4322","addr":"경기도 용인시 처인구 백암면 박곡리 529-1번지","indutype":"유통업 영리 - 슈퍼마켓","category":"mart"}]},{"lat":"37.140398292","long":"127.40755646","imageIndex":7,"items":[{"name":"세황마트","tel":"031-322-2325","addr":"경기도 용인시 처인구 백암면 고안리 675번지","indutype":"유통업 영리 - 슈퍼마켓","category":"mart"}]},{"lat":"37.164452743","long":"127.37272687","imageIndex":7,"items":[{"name":"아시아마트","tel":"031-672-6849","addr":"경기도 용인시 처인구 백암면 백암리 446번지","indutype":"유통업 영리 - 슈퍼마켓","category":"mart"}]},{"lat":"37.171030588","long":"127.35489005","imageIndex":7,"items":[{"name":"인성마트","tel":"031-338-9049","addr":"경기도 용인시 처인구 백암면 근곡리 366-14","indutype":"유통업 영리 - 슈퍼마켓","category":"mart"}]},{"lat":"37.12376467","long":"127.37464431","imageIndex":7,"items":[{"name":"장평슈퍼","tel":"031-334-6288","addr":"경기도 용인시 처인구 백암면 장평리 587-5","indutype":"유통업 영리 - 슈퍼마켓","category":"mart"}]},{"lat":"37.143597163","long":"127.38858556","imageIndex":7,"items":[{"name":"준이슈퍼","tel":"031-323-4725","addr":"경기도 용인시 처인구 백암면 백봉리 959-15번지","indutype":"유통업 영리 - 슈퍼마켓","category":"mart"}]},{"lat":"37.163809989","long":"127.37369197","imageIndex":13,"items":[{"name":"MBC노래연습방","tel":"031-321-9940","addr":"경기도 용인시 처인구 백암면 백암리 458-10번지 2층","indutype":"레저업소 - 노 래 방","category":"leisure"}]},{"lat":"37.16511623","long":"127.37377716","imageIndex":13,"items":[{"name":"SBS노래연습장","tel":"031-334-9597","addr":"경기도 용인시 처인구 백암면 백암리374-15","indutype":"레저업소 - 노 래 방","category":"leisure"}]},{"lat":"37.165808644","long":"127.37421963","imageIndex":13,"items":[{"name":"미니노래연습장","tel":"031-337-2224","addr":"경기도 용인시 처인구 백암면 백암리 364-10번지 1층","indutype":"레저업소 - 노 래 방","category":"leisure"}]},{"lat":"37.164922084","long":"127.37247021","imageIndex":13,"items":[{"name":"민당구장","tel":"031-322-0870","addr":"경기도 용인시 처인구 백암면 백암리 426번지 2층","indutype":"레저업소 - 당 구 장","category":"leisure"}]},{"lat":"37.139758921","long":"127.39402469","imageIndex":13,"items":[{"name":"백봉노래연습장","tel":"031-335-5256","addr":"경기도 용인시 처인구 백암면 백봉리 600-2번지 3층","indutype":"레저업소 - 노 래 방","category":"leisure"}]},{"lat":"37.135981618","long":"127.40002631","imageIndex":13,"items":[{"name":"세븐 노래연습장","tel":"","addr":"경기도 용인시 처인구 백암면 백봉리 234-4번지 1층","indutype":"레저업소 - 노 래 방","category":"leisure"}]},{"lat":"37.164534595","long":"127.37536178","imageIndex":13,"items":[{"name":"스마트 노래연습장","tel":"031-333-8841","addr":"경기도 용인시 처인구 백암면 백암리 468번지","indutype":"레저업소 - 노 래 방","category":"leisure"}]},{"lat":"37.164786882","long":"127.37536301","imageIndex":13,"items":[{"name":"스타골프존","tel":"031-2250-7200","addr":"경기도 용인시 처인구 백암면 백암리 341-3번지","indutype":"레저업소 - 골프연습장","category":"leisure"}]},{"lat":"37.163863522","long":"127.37386111","imageIndex":13,"items":[{"name":"쏠라 노래연습장","tel":"031-333-3617","addr":"경기도 용인시 처인구 백암면 백암리 459-20번지 지하1층","indutype":"레저업소 - 노 래 방","category":"leisure"}]},{"lat":"37.129762339","long":"127.41644628","imageIndex":13,"items":[{"name":"아곡낚시터","tel":"031-332-4042","addr":"경기도 용인시 처인구 백암면 고안리 산154번지","indutype":"레저업소 - 기타레져업소","category":"leisure"}]},{"lat":"37.165008106","long":"127.37377663","imageIndex":13,"items":[{"name":"앗싸노래연습장","tel":"031-323-4738","addr":"경기도 용인시 처인구 백암면 백암리 633-2번지","indutype":"레저업소 - 노 래 방","category":"leisure"}]},{"lat":"37.165420568","long":"127.37442039","imageIndex":13,"items":[{"name":"와와노래연습장","tel":"031-323-2269","addr":"경기도 용인시 처인구 백암면 백암리 365번지 백암빌딩 지하1층","indutype":"레저업소 - 노 래 방","category":"leisure"}]},{"lat":"37.165953584","long":"127.37397265","imageIndex":13,"items":[{"name":"이차로 노래연습장","tel":"031-4991-0439","addr":"경기도 용인시 처인구 백암면 백암리 364-3번지 2층","indutype":"레저업소 - 노 래 방","category":"leisure"}]},{"lat":"37.166869527","long":"127.37208563","imageIndex":13,"items":[{"name":"제이핏","tel":"031-338-2019","addr":"경기도 용인시 처인구 백암면 백암리 381-2번지 2층","indutype":"레저업소 - 헬스클럽","category":"leisure"}]},{"lat":"37.163784016","long":"127.37622499","imageIndex":13,"items":[{"name":"헐당구장","tel":"","addr":"경기도 용인시 처인구 백암면 백암리 493번지 2층","indutype":"레저업소 - 당 구 장","category":"leisure"}]},{"lat":"37.165060183","long":"127.37152516","imageIndex":13,"items":[{"name":"호수노래연습장","tel":"031-334-0671","addr":"경기도 용인시 처인구 백암면 백암리 407-10번지 호수노래방","indutype":"레저업소 - 노 래 방","category":"leisure"}]},{"lat":"37.16819762","long":"127.37669707","imageIndex":5,"items":[{"name":"W모텔","tel":"031-339-1555","addr":"경기도 용인시 처인구 백암면 백암리 254-19번지","indutype":"숙박업 - 여관/기타숙박업","category":"hotel"}]},{"lat":"37.132485146","long":"127.40283274","imageIndex":5,"items":[{"name":"뉴스카이호텔","tel":"031-339-0064","addr":"경기도 용인시 처인구 백암면 고안리 490-8","indutype":"숙박업 - 여관/기타숙박업","category":"hotel"}]},{"lat":"37.123654449","long":"127.35160988","imageIndex":5,"items":[{"name":"덕송관광농원","tel":"","addr":"경기도 용인시 처인구 백암면 용천리 627-15번지","indutype":"숙박업 - 여관/기타숙박업","category":"hotel"}]},{"lat":"37.168946819","long":"127.37627291","imageIndex":5,"items":[{"name":"모텔클래식","tel":"031-332-5100","addr":"경기도 용인시 처인구 백암면 백암리246","indutype":"숙박업 - 여관/기타숙박업","category":"hotel"}]},{"lat":"37.151456847","long":"127.38500084","imageIndex":5,"items":[{"name":"백암파크","tel":"031-339-5733","addr":"경기도 용인시 처인구 백암면 백봉리832","indutype":"숙박업 - 여관/기타숙박업","category":"hotel"}]},{"lat":"37.165204942","long":"127.37133446","imageIndex":5,"items":[{"name":"천일여관","tel":"031-334-9909","addr":"경기도 용인시 처인구 백암면 백암리 407-8번지","indutype":"숙박업 - 여관/기타숙박업","category":"hotel"}]},{"lat":"37.177639537","long":"127.34416691","imageIndex":5,"items":[{"name":"호텔자유1","tel":"031-322-8861","addr":"경기도 용인시 처인구 백암면 가좌리 352-12번지","indutype":"숙박업 - 여관/기타숙박업","category":"hotel"},{"name":"호텔자유1","tel":"031-322-8861","addr":"경기도 용인시 처인구 백암면 가좌리 352-12번지","indutype":"숙박업 - 여관/기타숙박업","category":"hotel"}]},{"lat":"37.177647671","long":"127.34447098","imageIndex":5,"items":[{"name":"호텔자유2","tel":"031-322-8861","addr":"경기도 용인시 처인구 백암면 가좌리 352-1번지 외3필지","indutype":"숙박업 - 여관/기타숙박업","category":"hotel"},{"name":"호텔자유2","tel":"031-322-8861","addr":"경기도 용인시 처인구 백암면 가좌리 352-1번지","indutype":"숙박업 - 여관/기타숙박업","category":"hotel"}]},{"lat":"37.164726708","long":"127.37443951","imageIndex":13,"items":[{"name":"가위쟁이","tel":"031-339-3953","addr":"경기도 용인시 처인구 백암면 백암리366-6","indutype":"보건위생 - 미용원","category":"beauty"}]},{"lat":"37.157952807","long":"127.38236548","imageIndex":13,"items":[{"name":"굿데이대리운전15888828","tel":"031-1588-8828","addr":"경기도 용인시 처인구 백암면 박곡리 682-4 2층4호","indutype":"보건위생 - 기타대인서비스","category":"beauty"}]},{"lat":"37.164669164","long":"127.37267163","imageIndex":13,"items":[{"name":"꽃샘미용실","tel":"031-332-9048","addr":"경기도 용인시 처인구 백암면 백암리 421-1번지","indutype":"보건위생 - 미용원","category":"beauty"}]},{"lat":"37.164312836","long":"127.37424609","imageIndex":13,"items":[{"name":"네일링","tel":"031-5524-6545","addr":"경기도 용인시 처인구 백암면 백암리 459-2번지 206호","indutype":"보건위생 - 피부미용실","category":"beauty"},{"name":"탈랜트미용실","tel":"031-333-8441","addr":"경기도 용인시 처인구 백암면 백암리 459-2번지 2층","indutype":"보건위생 - 미용원","category":"beauty"}]},{"lat":"37.165420568","long":"127.37442039","imageIndex":13,"items":[{"name":"대길미용","tel":"02-6008-3248","addr":"경기도 용인시 처인구 백암면 백암리 365번지 백암빌딩 3층","indutype":"보건위생 - 미용재료","category":"beauty"}]},{"lat":"37.16458758","long":"127.37282886","imageIndex":13,"items":[{"name":"더마렉스코리아","tel":"","addr":"경기도 용인시 처인구 백암면 백암리 421-2번지","indutype":"보건위생 - 화장품","category":"beauty"}]},{"lat":"37.164533296","long":"127.37000269","imageIndex":13,"items":[{"name":"더죤헤어스타일","tel":"070-8637-4439","addr":"경기도 용인시 처인구 백암면 근창리 10","indutype":"보건위생 - 미용원","category":"beauty"}]},{"lat":"37.16430893","long":"127.37261359","imageIndex":13,"items":[{"name":"르네셀","tel":"070-8180-0829","addr":"경기도 용인시 처인구 백암면 백암리 444-1번지","indutype":"보건위생 - 화장품","category":"beauty"}]},{"lat":"37.16495283","long":"127.37127695","imageIndex":13,"items":[{"name":"리제이헤어(Lee J Hair)","tel":"031-321-5930","addr":"경기도 용인시 처인구 백암면 백암리 407-14번지 1층 일부","indutype":"보건위생 - 미용원","category":"beauty"},{"name":"온헤어샵","tel":"031-334-7453","addr":"경기도 용인시 처인구 백암면 백암리407-14","indutype":"보건위생 - 미용원","category":"beauty"}]},{"lat":"37.162031263","long":"127.37486539","imageIndex":13,"items":[{"name":"미앤아이","tel":"031-651-7288","addr":"경기도 용인시 처인구 백암면 근창리 32","indutype":"보건위생 - 화장품","category":"beauty"}]},{"lat":"37.135903124","long":"127.39924935","imageIndex":13,"items":[{"name":"백봉미용실","tel":"031-333-9686","addr":"경기도 용인시 처인구 백암면 백봉리 216번지 1층","indutype":"보건위생 - 미용원","category":"beauty"}]},{"lat":"37.142810688","long":"127.35767438","imageIndex":13,"items":[{"name":"백암다래숯가마","tel":"031-339-1113","addr":"경기도 용인시 처인구 백암면 근삼리357","indutype":"보건위생 - 사우나","category":"beauty"}]},{"lat":"37.165477696","long":"127.37344116","imageIndex":13,"items":[{"name":"백암온천목욕탕","tel":"031-332-4744","addr":"경기도 용인시 처인구 백암면 백암리374-17","indutype":"보건위생 - 사우나","category":"beauty"}]},{"lat":"37.164677577","long":"127.37286307","imageIndex":13,"items":[{"name":"백암의료기","tel":"031-333-4418","addr":"경기도 용인시 처인구 백암면 백암리 420-2번지","indutype":"보건위생 - 의료용품","category":"beauty"}]},{"lat":"37.164947885","long":"127.37286439","imageIndex":13,"items":[{"name":"서울미용실","tel":"031-334-3617","addr":"경기도 용인시 처인구 백암면 백암리 418-2번지","indutype":"보건위생 - 미용원","category":"beauty"}]},{"lat":"37.164503884","long":"127.37366158","imageIndex":13,"items":[{"name":"송정은헤어","tel":"031-322-4587","addr":"경기도 용인시 처인구 백암면 백암리 459-6번지 외2필지1층","indutype":"보건위생 - 미용원","category":"beauty"}]},{"lat":"37.164064458","long":"127.37299518","imageIndex":13,"items":[{"name":"신데렐라헤어샵","tel":"031-334-3252","addr":"경기도 용인시 처인구 백암면 백암리 450-9","indutype":"보건위생 - 미용원","category":"beauty"}]},{"lat":"37.165008106","long":"127.37377663","imageIndex":13,"items":[{"name":"안경마을","tel":"031-322-1055","addr":"경기도 용인시 처인구 백암면 백암리 633-2번지 외1필지 1층","indutype":"보건위생 - 안경","category":"beauty"}]},{"lat":"37.164976097","long":"127.37536394","imageIndex":13,"items":[{"name":"에바다미용실","tel":"","addr":"경기도 용인시 처인구 백암면 백암리 342-4번지 1층","indutype":"보건위생 - 미용원","category":"beauty"}]},{"lat":"37.16511623","long":"127.37377716","imageIndex":13,"items":[{"name":"이호승헤어","tel":"031-322-1455","addr":"경기도 용인시 처인구 백암면 백암리 374-15번지","indutype":"보건위생 - 미용원","category":"beauty"}]},{"lat":"37.165703199","long":"127.37336345","imageIndex":13,"items":[{"name":"제이스타일(J. style)","tel":"031-322-9866","addr":"경기도 용인시 처인구 백암면 백암리 376-4번지 1층","indutype":"보건위생 - 미용원","category":"beauty"}]},{"lat":"37.165951079","long":"127.37477201","imageIndex":13,"items":[{"name":"중국정통약손","tel":"031-890-0092","addr":"경기도 용인시 처인구 백암면 백암리 347-2번지 2층","indutype":"보건위생 - 미용재료","category":"beauty"}]},{"lat":"37.164452743","long":"127.37272687","imageIndex":13,"items":[{"name":"필헤어","tel":"031-323-2359","addr":"경기도 용인시 처인구 백암면 백암리 446번지 1층","indutype":"보건위생 - 미용원","category":"beauty"}]},{"lat":"37.164813488","long":"127.37549825","imageIndex":13,"items":[{"name":"휴 아로마 뷰티 체험","tel":"031-336-3222","addr":"경기도 용인시 처인구 백암면 백암리 341-5번지 2층","indutype":"보건위생 - 화장품","category":"beauty"}]},{"lat":"37.165031751","long":"127.37197536","imageIndex":13,"items":[{"name":"휴헤어살롱","tel":"031-321-0544","addr":"경기도 용인시 처인구 백암면 백암리 409번지","indutype":"보건위생 - 미용원","category":"beauty"}]},{"lat":"37.165450032","long":"127.37364369","imageIndex":8,"items":[{"name":"건보치과의원","tel":"031-322-5073","addr":"경기도 용인시 처인구 백암면 백암리 374-30번지 유성빌딩 3층","indutype":"의원 - 치과의원","category":"medical"},{"name":"기독의원","tel":"031-322-1512","addr":"경기도 용인시 처인구 백암면 백암리 374-30번지 유진빌딩 2층 201호","indutype":"의원 - 의원","category":"medical"},{"name":"하나로약국","tel":"031-321-9129","addr":"경기도 용인시 처인구 백암면 백암리374-30유진빌딩101.102호","indutype":"약국 - 약국","category":"medical"}]},{"lat":"37.164149341","long":"127.37177968","imageIndex":8,"items":[{"name":"마리동물의료센터","tel":"031-332-4309","addr":"경기도 용인시 처인구 백암면 백암리 436-1번지","indutype":"기타의료기관 - 동물병원","category":"medical"}]},{"lat":"37.163064518","long":"127.37002936","imageIndex":8,"items":[{"name":"백암동물병원","tel":"031-336-1245","addr":"경기도 용인시 처인구 백암면 근창리 20-4","indutype":"기타의료기관 - 동물병원","category":"medical"}]},{"lat":"37.165448058","long":"127.37427416","imageIndex":8,"items":[{"name":"백암약국","tel":"031-334-1406","addr":"경기도 용인시 처인구 백암면 백암리 371-10번지","indutype":"약국 - 약국","category":"medical"},{"name":"백암약국","tel":"031-334-1406","addr":"경기도 용인시 처인구 백암면 백암리 371-10번지","indutype":"약국 - 약국","category":"medical"}]},{"lat":"37.165420568","long":"127.37442039","imageIndex":8,"items":[{"name":"백암연세치과","tel":"031-334-3633","addr":"경기도 용인시 처인구 백암면 백암리 365번지","indutype":"의원 - 치과의원","category":"medical"},{"name":"한일의원","tel":"031-333-2306","addr":"경기도 용인시 처인구 백암면 백암리 365번지","indutype":"의원 - 의원","category":"medical"}]},{"lat":"37.165288375","long":"127.37347402","imageIndex":8,"items":[{"name":"불로한의원","tel":"031-880-3606","addr":"경기도 용인시 처인구 백암면 백암리 374-11","indutype":"의원 - 한의원","category":"medical"}]},{"lat":"37.121983748","long":"127.36489114","imageIndex":8,"items":[{"name":"사회복지법인백암정신병원","tel":"031-332-3194","addr":"경기도 용인시 처인구 백암면 용천리 264-5번지","indutype":"의원 - 의원","category":"medical"}]},{"lat":"37.13848547","long":"127.41355628","imageIndex":8,"items":[{"name":"샘물호스피스병원","tel":"031-336-1558","addr":"경기도 용인시 처인구 백암면 고안리548","indutype":"의원 - 의원","category":"medical"}]},{"lat":"37.164312836","long":"127.37424609","imageIndex":8,"items":[{"name":"서울수치과의원","tel":"032-323-2828","addr":"경기도 용인시 처인구 백암면 백암리 459-2번지 2층 204호","indutype":"의원 - 치과의원","category":"medical"}]},{"lat":"37.165228257","long":"127.37252799","imageIndex":8,"items":[{"name":"성모약국","tel":"031-332-4017","addr":"경기도 용인시 처인구 백암면 백암리 395-1번지","indutype":"약국 - 약국","category":"medical"}]},{"lat":"37.165953584","long":"127.37397265","imageIndex":8,"items":[{"name":"태양한의원","tel":"031-337-1075","addr":"경기도 용인시 처인구 백암면 백암리 364-3","indutype":"의원 - 한의원","category":"medical"}]},{"lat":"37.164256762","long":"127.37488755","imageIndex":8,"items":[{"name":"하늘빛한의원","tel":"031-526-7571","addr":"경기도 용인시 처인구 백암면 백암리 466번지 103,104호","indutype":"의원 - 한의원","category":"medical"}]},{"lat":"37.164175811","long":"127.36905525","imageIndex":16,"items":[{"name":"글로리학원","tel":"031-339-6822","addr":"경기도 용인시 처인구 백암면 근창리 102-5번지 미미음악학원 나동 2층","indutype":"학원 - 보습학원","category":"study"},{"name":"미미음악학원","tel":"031-332-4857","addr":"경기도 용인시 처인구 백암면 근창리102-5","indutype":"학원 - 예·체능계학원","category":"study"}]},{"lat":"37.153262127","long":"127.40046563","imageIndex":16,"items":[{"name":"농업회사법인주식회사더팜청계","tel":"031-322-5200","addr":"경기도 용인시 처인구 백암면 박곡리 270-3번지","indutype":"학원 - 기타 교육기관","category":"study"}]},{"lat":"37.163421401","long":"127.37116819","imageIndex":16,"items":[{"name":"백암정도체육관","tel":"031-332-6706","addr":"경기도 용인시 처인구 백암면 근창리 19-3번지 비두빌딩 2층","indutype":"학원 - 예·체능계학원","category":"study"},{"name":"하이클래스청솔영어보습학원","tel":"031-322-9077","addr":"경기도 용인시 처인구 백암면 근창리 19-3번지 비두빌딩 3층","indutype":"학원 - 보습학원","category":"study"}]},{"lat":"37.164062532","long":"127.36780501","imageIndex":16,"items":[{"name":"백암초등학교","tel":"031-333-1320","addr":"경기도 용인시 처인구 백암면 근창리 105","indutype":"학원 - 유치원","category":"study"}]},{"lat":"37.126038879","long":"127.41963308","imageIndex":16,"items":[{"name":"별난관광농원","tel":"031-322-2829","addr":"경기도 용인시 처인구 백암면 고안리 51-5번지","indutype":"학원 - 기타 교육기관","category":"study"}]},{"lat":"37.139479045","long":"127.39419207","imageIndex":16,"items":[{"name":"성동","tel":"031-332-7030","addr":"경기도 용인시 처인구 백암면 백봉리 600-5번지","indutype":"학원 - 독서실","category":"study"}]},{"lat":"37.139758921","long":"127.39402469","imageIndex":16,"items":[{"name":"성흥공영","tel":"031-332-7512","addr":"경기도 용인시 처인구 백암면 백봉리 600-2","indutype":"학원 - 독서실","category":"study"}]},{"lat":"37.146119519","long":"127.36594037","imageIndex":16,"items":[{"name":"용인곤충테마파크 농업회사법인 주식회사","tel":"031-321-8090","addr":"경기도 용인시 처인구 백암면 근삼리 274-7번지","indutype":"학원 - 기타 교육기관","category":"study"}]},{"lat":"37.186699098","long":"127.36405107","imageIndex":16,"items":[{"name":"유티디 코리아(UDT KOREA)","tel":"031-335-3483","addr":"경기도 용인시 처인구 백암면 가창리 335-5번지 2층","indutype":"학원 - 예·체능계학원","category":"study"}]},{"lat":"37.16355942","long":"127.37024567","imageIndex":16,"items":[{"name":"현진보습학원","tel":"031-333-8876","addr":"경기도 용인시 처인구 백암면 근창리 13-5번지 (강림슈퍼(근창13-5)3층일부)","indutype":"학원 - 보습학원","category":"study"}]}]