[{"lat":"37.408472921","long":"126.91576341","imageIndex":13,"items":[{"name":"(주) 쓰리디케이피","tel":"031-448-2598","addr":"경기도 안양시 만안구 안양동 853-82번지","indutype":"보건위생 - 의료용품","category":"beauty"}]},{"lat":"37.39058355","long":"126.93686692","imageIndex":13,"items":[{"name":"(주)메디랩코리아","tel":"031-443-2777","addr":"경기도 안양시 만안구 안양동 192-21번지","indutype":"보건위생 - 의료용품","category":"beauty"}]},{"lat":"37.400661895","long":"126.91673243","imageIndex":13,"items":[{"name":"(주)봄빛베스트산후도우미출장전문기관","tel":"031-429-0979","addr":"경기도 안양시 만안구 안양동 873-164번지","indutype":"보건위생 - 기타대인서비스","category":"beauty"},{"name":"엄지미용실","tel":"031-448-1347","addr":"경기도 안양시 만안구 안양동 873-164번지","indutype":"보건위생 - 미용원","category":"beauty"}]},{"lat":"37.382943703","long":"126.9381721","imageIndex":13,"items":[{"name":"(주)뷰웰","tel":"031-464-9777","addr":"경기도 안양시 만안구 안양동 219-9번지","indutype":"보건위생 - 안경","category":"beauty"},{"name":"하나코리아","tel":"070-7702-2388","addr":"경기도 안양시 만안구 안양동 219-9번지","indutype":"보건위생 - 안경","category":"beauty"}]},{"lat":"37.39710626","long":"126.92145711","imageIndex":13,"items":[{"name":"(주)샘터","tel":"031-446-1234","addr":"경기도 안양시 만안구 안양동 676-117번지","indutype":"보건위생 - 사우나","category":"beauty"},{"name":"맘모스","tel":"031-449-0542","addr":"경기도 안양시 만안구 안양동 676-117번지","indutype":"보건위생 - 화장품","category":"beauty"}]},{"lat":"37.394971795","long":"126.92281457","imageIndex":13,"items":[{"name":"(주)생그린","tel":"031-48-0502","addr":"경기도 안양시 만안구 안양동 627-20번지","indutype":"보건위생 - 화장품","category":"beauty"},{"name":"이슈헤어아트","tel":"031-447-4789","addr":"경기도 안양시 만안구 안양동 627-20번지","indutype":"보건위생 - 미용원","category":"beauty"}]},{"lat":"37.395778728","long":"126.91714457","imageIndex":13,"items":[{"name":"(주)잠언의료기 안양점","tel":"031-466-7589","addr":"경기도 안양시 만안구 안양동 714-52번지","indutype":"보건위생 - 의료용품","category":"beauty"}]},{"lat":"37.386166973","long":"126.93401399","imageIndex":13,"items":[{"name":"(주)제이원플러스코리아원","tel":"","addr":"경기도 안양시 만안구 안양동 533-6번지 빌로채","indutype":"보건위생 - 화장품","category":"beauty"}]},{"lat":"37.392245406","long":"126.92842989","imageIndex":13,"items":[{"name":"(주)태평양만안영업소/정복희","tel":"031-468-4201","addr":"경기도 안양시 만안구 안양동 397-23번지 프라임벨루체","indutype":"보건위생 - 화장품","category":"beauty"},{"name":"(주)태평양만안영업소/최형순","tel":"031-468-4201","addr":"경기도 안양시 만안구 안양동 397-23번지 프라임벨루체","indutype":"보건위생 - 화장품","category":"beauty"},{"name":"아모레","tel":"031-468-4201","addr":"경기도 안양시 만안구 안양동 397-23번지 프라임벨루체","indutype":"보건위생 - 화장품","category":"beauty"},{"name":"아모레김남영","tel":"031-468-4201","addr":"경기도 안양시 만안구 안양동 397-23번지 프라임벨루체","indutype":"보건위생 - 화장품","category":"beauty"},{"name":"아모레외판","tel":"031-468-4201","addr":"경기도 안양시 만안구 안양동 397-23번지 프라임벨루체","indutype":"보건위생 - 화장품","category":"beauty"},{"name":"아모레외판","tel":"031-468-4201","addr":"경기도 안양시 만안구 안양동 397-23번지 프라임벨루체","indutype":"보건위생 - 화장품","category":"beauty"},{"name":"아모레외판","tel":"031-468-4201","addr":"경기도 안양시 만안구 안양동 397-23번지 프라임벨루체","indutype":"보건위생 - 화장품","category":"beauty"},{"name":"아모레외판","tel":"031-468-4201","addr":"경기도 안양시 만안구 안양동 397-23번지 프라임벨루체","indutype":"보건위생 - 화장품","category":"beauty"},{"name":"아모레외판","tel":"031-468-4201","addr":"경기도 안양시 만안구 안양동 397-23번지 프라임벨루체","indutype":"보건위생 - 화장품","category":"beauty"},{"name":"아모레외판/권미향","tel":"031-468-4201","addr":"경기도 안양시 만안구 안양동 397-23번지 프라임벨루체","indutype":"보건위생 - 화장품","category":"beauty"},{"name":"아모레외판/김유경","tel":"031-468-4201","addr":"경기도 안양시 만안구 안양동 397-23번지 프라임벨루체","indutype":"보건위생 - 화장품","category":"beauty"},{"name":"아모레카운셀러","tel":"031-468-4201","addr":"경기도 안양시 만안구 안양동 397-23번지 프라임벨루체","indutype":"보건위생 - 화장품","category":"beauty"},{"name":"아모레카운셀러","tel":"031-468-4201","addr":"경기도 안양시 만안구 안양동 397-23번지 프라임벨루체","indutype":"보건위생 - 화장품","category":"beauty"},{"name":"아모레카운셀러","tel":"031-468-4201","addr":"경기도 안양시 만안구 안양동 397-23번지 프라임벨루체","indutype":"보건위생 - 화장품","category":"beauty"},{"name":"아모레카운셀러","tel":"031-468-4201","addr":"경기도 안양시 만안구 안양동 397-23번지 프라임벨루체","indutype":"보건위생 - 화장품","category":"beauty"},{"name":"아모레카운셀러","tel":"031-468-4202","addr":"경기도 안양시 만안구 안양동 397-23번지 프라임벨루체","indutype":"보건위생 - 화장품","category":"beauty"},{"name":"아모레카운셀러","tel":"031-468-4201","addr":"경기도 안양시 만안구 안양동 397-23번지 프라임벨루체","indutype":"보건위생 - 화장품","category":"beauty"},{"name":"아모레카운셀러","tel":"031-468-4201","addr":"경기도 안양시 만안구 안양동 397-23번지 프라임벨루체","indutype":"보건위생 - 화장품","category":"beauty"},{"name":"아모레카운셀러","tel":"031-468-4201","addr":"경기도 안양시 만안구 안양동 397-23번지 프라임벨루체","indutype":"보건위생 - 화장품","category":"beauty"},{"name":"아모레카운셀러","tel":"031-468-4201","addr":"경기도 안양시 만안구 안양동 397-23번지 프라임벨루체","indutype":"보건위생 - 화장품","category":"beauty"},{"name":"아모레카운셀러","tel":"031-468-4201","addr":"경기도 안양시 만안구 안양동 397-23번지 프라임벨루체","indutype":"보건위생 - 화장품","category":"beauty"},{"name":"태평양만안영업소/배귀자","tel":"031-468-4201","addr":"경기도 안양시 만안구 안양동 397-23번지 프라임벨루체","indutype":"보건위생 - 화장품","category":"beauty"},{"name":"태평양만안영업소/최금순","tel":"031-468-4201","addr":"경기도 안양시 만안구 안양동 397-23번지 프라임벨루체","indutype":"보건위생 - 화장품","category":"beauty"}]},{"lat":"37.382859213","long":"126.93223301","imageIndex":13,"items":[{"name":"119헤어닥터","tel":"031-448-2345","addr":"경기도 안양시 만안구 안양동 598-2번지","indutype":"보건위생 - 미용원","category":"beauty"}]},{"lat":"37.4015573","long":"126.92154264","imageIndex":13,"items":[{"name":"37도","tel":"031-402-9999","addr":"경기도 안양시 만안구 안양동 668-16번지","indutype":"보건위생 - 피부미용실","category":"beauty"}]},{"lat":"37.388912601","long":"126.92992375","imageIndex":13,"items":[{"name":"3Factory안경원","tel":"031-464-2526","addr":"경기도 안양시 만안구 안양동 441-14번지","indutype":"보건위생 - 안경","category":"beauty"},{"name":"오휘안양만안지사","tel":"031-447-2088","addr":"경기도 안양시 만안구 안양동 441-14번지","indutype":"보건위생 - 화장품","category":"beauty"}]},{"lat":"37.394110889","long":"126.91581391","imageIndex":13,"items":[{"name":"88헤어갤러리","tel":"031-445-0524","addr":"경기도 안양시 만안구 안양동 710-37번지","indutype":"보건위생 - 미용원","category":"beauty"},{"name":"미라인피부","tel":"","addr":"경기도 안양시 만안구 안양동 710-37번지","indutype":"보건위생 - 피부미용실","category":"beauty"}]},{"lat":"37.400973942","long":"126.92495403","imageIndex":13,"items":[{"name":"ABC미용실","tel":"031-448-5616","addr":"경기도 안양시 만안구 안양동 1377번지","indutype":"보건위생 - 미용원","category":"beauty"},{"name":"여우미가","tel":"031-468-0097","addr":"경기도 안양시 만안구 안양동 1377번지","indutype":"보건위생 - 미용원","category":"beauty"},{"name":"정예주헤어","tel":"031-456-9993","addr":"경기도 안양시 만안구 안양동 1377번지","indutype":"보건위생 - 미용원","category":"beauty"},{"name":"피부미인","tel":"031-466-9005","addr":"경기도 안양시 만안구 안양동 1377번지","indutype":"보건위생 - 화장품","category":"beauty"}]},{"lat":"37.396355455","long":"126.93076352","imageIndex":13,"items":[{"name":"ADD뷰티샵","tel":"031-443-2777","addr":"경기도 안양시 만안구 안양동 1390-1번지","indutype":"보건위생 - 피부미용실","category":"beauty"},{"name":"애드뷰티","tel":"02-1234-1234","addr":"경기도 안양시 만안구 안양동 1390-1번지","indutype":"보건위생 - 피부미용실","category":"beauty"}]},{"lat":"37.391363569","long":"126.93028273","imageIndex":13,"items":[{"name":"K2K헤어","tel":"031-441-5163","addr":"경기도 안양시 만안구 안양동 432-8번지","indutype":"보건위생 - 미용원","category":"beauty"}]},{"lat":"37.39849784","long":"126.92753152","imageIndex":13,"items":[{"name":"L3N헤어롤브러쉬","tel":"","addr":"경기도 안양시 만안구 안양동 97-3번지","indutype":"보건위생 - 화장품","category":"beauty"},{"name":"라라네일","tel":"","addr":"경기도 안양시 만안구 안양동 97-3번지","indutype":"보건위생 - 피부미용실","category":"beauty"},{"name":"술람미여인으로헤어","tel":"031-343-6500","addr":"경기도 안양시 만안구 안양동 97-3번지","indutype":"보건위생 - 미용원","category":"beauty"},{"name":"예나헤어","tel":"031-445-3391","addr":"경기도 안양시 만안구 안양동 97-3번지","indutype":"보건위생 - 미용원","category":"beauty"},{"name":"예지헤어컬렉션","tel":"031-443-2967","addr":"경기도 안양시 만안구 안양동","indutype":"보건위생 - 미용원","category":"beauty"},{"name":"오케이컷트","tel":"031-449-4117","addr":"경기도 안양시 만안구 안양동 97-3번지","indutype":"보건위생 - 미용원","category":"beauty"},{"name":"제이스타일헤어","tel":"031-441-1233","addr":"경기도 안양시 만안구 안양동 97-3번지","indutype":"보건위생 - 미용원","category":"beauty"},{"name":"헤어메이킹","tel":"031-443-5050","addr":"경기도 안양시 만안구 안양동 97-3번지","indutype":"보건위생 - 미용원","category":"beauty"}]},{"lat":"37.391553147","long":"126.93088105","imageIndex":13,"items":[{"name":"L아이래쉬","tel":"","addr":"경기도 안양시 만안구 안양동 431-27번지 한솔아파트","indutype":"보건위생 - 미용재료","category":"beauty"}]},{"lat":"37.384254324","long":"126.92983793","imageIndex":13,"items":[{"name":"O2헤어","tel":"031-449-8688","addr":"경기도 안양시 만안구 안양동 552-9번지","indutype":"보건위생 - 미용원","category":"beauty"},{"name":"에스에이치덴탈","tel":"031-469-4408","addr":"경기도 안양시 만안구 안양동 552-9번지","indutype":"보건위생 - 의료용품","category":"beauty"}]},{"lat":"37.382056797","long":"126.93137564","imageIndex":13,"items":[{"name":"SH엔터프라이즈","tel":"031-398-3110","addr":"경기도 안양시 만안구 안양동 600-2번지","indutype":"보건위생 - 화장품","category":"beauty"}]},{"lat":"37.399305912","long":"126.92320524","imageIndex":13,"items":[{"name":"THEFACESHOP","tel":"031-441-2492","addr":"경기도 안양시 만안구 안양동 674-178번지","indutype":"보건위생 - 화장품","category":"beauty"},{"name":"토니모리 안양1번가","tel":"031-444-2492","addr":"경기도 안양시 만안구 안양동 674-178번지","indutype":"보건위생 - 화장품","category":"beauty"}]},{"lat":"37.402873894","long":"126.92319017","imageIndex":13,"items":[{"name":"TREND OPT(트렌드옵트)","tel":"031-468-5769","addr":"경기도 안양시 만안구 안양동 90-1번지 삼성래미안아파트","indutype":"보건위생 - 안경","category":"beauty"},{"name":"라앤고우리","tel":"031-444-0382","addr":"경기도 안양시 만안구 안양동 90-1번지 삼성래미안아파트","indutype":"보건위생 - 화장품","category":"beauty"}]},{"lat":"37.40138835","long":"126.9122366","imageIndex":13,"items":[{"name":"The끌린왁싱&속눈썹","tel":"070-7725-0406","addr":"경기도 안양시 만안구 안양동 903-4번지 더클래식","indutype":"보건위생 - 기타대인서비스","category":"beauty"}]},{"lat":"37.392750558","long":"126.92936668","imageIndex":13,"items":[{"name":"Zini Shop","tel":"031-444-6514","addr":"경기도 안양시 만안구 안양동 395-31번지","indutype":"보건위생 - 화장품","category":"beauty"}]},{"lat":"37.401971553","long":"126.92123725","imageIndex":13,"items":[{"name":"가꿈","tel":"070-4686-9412","addr":"경기도 안양시 만안구 안양동 668-5번지","indutype":"보건위생 - 피부미용실","category":"beauty"}]},{"lat":"37.393388721","long":"126.91398532","imageIndex":13,"items":[{"name":"가비앙헤어샵","tel":"031-449-1986","addr":"경기도 안양시 만안구 안양동 747-1번지 우양빌라","indutype":"보건위생 - 미용원","category":"beauty"}]},{"lat":"37.401715909","long":"126.91650534","imageIndex":13,"items":[{"name":"가빈헤어","tel":"031-469-6508","addr":"경기도 안양시 만안구 안양동 695-130번지 게이츠빌","indutype":"보건위생 - 미용원","category":"beauty"}]},{"lat":"37.395690823","long":"126.92022769","imageIndex":13,"items":[{"name":"가시버시헤어샵","tel":"031-468-8897","addr":"경기도 안양시 만안구 안양동 707-4번지","indutype":"보건위생 - 미용원","category":"beauty"}]},{"lat":"37.39160958","long":"126.90862348","imageIndex":13,"items":[{"name":"가위소리미용실","tel":"031-469-4741","addr":"경기도 안양시 만안구 안양동 996-18번지","indutype":"보건위생 - 미용원","category":"beauty"}]},{"lat":"37.390528102","long":"126.93442782","imageIndex":13,"items":[{"name":"가위손헤어샵","tel":"031-442-3335","addr":"경기도 안양시 만안구 안양동 194-5번지","indutype":"보건위생 - 미용원","category":"beauty"}]},{"lat":"37.386750842","long":"126.93100985","imageIndex":13,"items":[{"name":"건영안경","tel":"031-444-5923","addr":"경기도 안양시 만안구 안양동 504-16번지","indutype":"보건위생 - 안경","category":"beauty"}]},{"lat":"37.404020908","long":"126.91436806","imageIndex":13,"items":[{"name":"고민정헤어","tel":"","addr":"경기도 안양시 만안구 안양동 829-25번지","indutype":"보건위생 - 미용원","category":"beauty"}]},{"lat":"37.406052282","long":"126.92003559","imageIndex":13,"items":[{"name":"고은헤어","tel":"031-449-6282","addr":"경기도 안양시 만안구 안양동 78번지","indutype":"보건위생 - 미용원","category":"beauty"}]},{"lat":"37.39116611","long":"126.93153638","imageIndex":13,"items":[{"name":"곰쌤헤어","tel":"031-334-2580","addr":"경기도 안양시 만안구 안양동 435-9번지 안양세양청마루주상복합","indutype":"보건위생 - 미용원","category":"beauty"}]},{"lat":"37.384055399","long":"126.92870898","imageIndex":13,"items":[{"name":"공감헤어","tel":"031-441-0773","addr":"경기도 안양시 만안구 안양동 542-12번지 유일아르젠뷰","indutype":"보건위생 - 미용원","category":"beauty"}]},{"lat":"37.400357289","long":"126.91914965","imageIndex":13,"items":[{"name":"공주네","tel":"031-464-9393","addr":"경기도 안양시 만안구 안양동 695-34번지","indutype":"보건위생 - 화장품","category":"beauty"}]},{"lat":"37.393475211","long":"126.92148362","imageIndex":13,"items":[{"name":"구은자헤어뷰티샵","tel":"031-445-6532","addr":"경기도 안양시 만안구 안양동 707-314번지","indutype":"보건위생 - 미용원","category":"beauty"}]},{"lat":"37.401217814","long":"126.91309514","imageIndex":13,"items":[{"name":"굿월드","tel":"070-4820-5277","addr":"경기도 안양시 만안구 안양동 900-10번지","indutype":"보건위생 - 의료용품","category":"beauty"},{"name":"뷰티스쿨케이","tel":"070-8870-1286","addr":"경기도 안양시 만안구 안양동 900-10번지","indutype":"보건위생 - 화장품","category":"beauty"},{"name":"신.약손안마원","tel":"031-386-1348","addr":"경기도 안양시 만안구 안양동 900-10번지","indutype":"보건위생 - 기타대인서비스","category":"beauty"},{"name":"안양월드 화장품","tel":"031-348-7100","addr":"경기도 안양시 만안구 안양동 900-10번지","indutype":"보건위생 - 화장품","category":"beauty"},{"name":"안양월드사우나","tel":"031-464-7123","addr":"경기도 안양시 만안구 안양동 900-10번지","indutype":"보건위생 - 사우나","category":"beauty"},{"name":"월드미용실","tel":"031-445-1959","addr":"경기도 안양시 만안구 안양동 900-10번지","indutype":"보건위생 - 미용원","category":"beauty"},{"name":"주식회사 이노트","tel":"031-769-2353","addr":"경기도 안양시 만안구 안양동 900-10번지","indutype":"보건위생 - 의료용품","category":"beauty"}]},{"lat":"37.386831864","long":"126.93089685","imageIndex":13,"items":[{"name":"궁헤어","tel":"031-465-5552","addr":"경기도 안양시 만안구 안양동 504-14번지","indutype":"보건위생 - 미용원","category":"beauty"}]},{"lat":"37.399889874","long":"126.92073129","imageIndex":13,"items":[{"name":"권소정피부향기","tel":"031-446-1128","addr":"경기도 안양시 만안구 안양동 674-305번지","indutype":"보건위생 - 화장품","category":"beauty"},{"name":"으뜸플러스","tel":"031-868-6167","addr":"경기도 안양시 만안구 안양동 674-305번지","indutype":"보건위생 - 안경","category":"beauty"}]},{"lat":"37.39524768","long":"126.91790181","imageIndex":13,"items":[{"name":"권영숙헤어","tel":"031-445-0517","addr":"경기도 안양시 만안구 안양동 711-131번지","indutype":"보건위생 - 미용원","category":"beauty"}]},{"lat":"37.3968314","long":"126.91508799","imageIndex":13,"items":[{"name":"귀거래미용실","tel":"031-429-5223","addr":"경기도 안양시 만안구 안양동 1195-18번지","indutype":"보건위생 - 미용원","category":"beauty"}]},{"lat":"37.399026447","long":"126.92297967","imageIndex":13,"items":[{"name":"그랜드","tel":"0505-414-0041","addr":"경기도 안양시 만안구 안양동 674-104번지","indutype":"보건위생 - 화장품","category":"beauty"},{"name":"이니스프리안양점","tel":"031-447-2368","addr":"경기도 안양시 만안구 안양동 674-104번지","indutype":"보건위생 - 화장품","category":"beauty"}]},{"lat":"37.399026804","long":"126.92351046","imageIndex":13,"items":[{"name":"그레이스","tel":"031-465-4101","addr":"경기도 안양시 만안구 안양동 674-153번지","indutype":"보건위생 - 화장품","category":"beauty"},{"name":"제오헤어","tel":"031-447-3701","addr":"경기도 안양시 만안구 안양동 674-153번지","indutype":"보건위생 - 미용원","category":"beauty"}]},{"lat":"37.382752828","long":"126.93520269","imageIndex":13,"items":[{"name":"그레이스 펄(Grace pear l)","tel":"070-7543-0701","addr":"경기도 안양시 만안구 안양동 347-20번지","indutype":"보건위생 - 화장품","category":"beauty"}]},{"lat":"37.396468047","long":"126.92367127","imageIndex":13,"items":[{"name":"글라스스토리(안양1번가점)","tel":"031-447-5544","addr":"경기도 안양시 만안구 안양동 622-316번지","indutype":"보건위생 - 안경","category":"beauty"},{"name":"화이트피부관리실","tel":"031-443-7788","addr":"경기도 안양시 만안구 안양동 622-316번지","indutype":"보건위생 - 피부미용실","category":"beauty"}]},{"lat":"37.400053968","long":"126.92353197","imageIndex":13,"items":[{"name":"글라스팩토리","tel":"031-464-5005","addr":"경기도 안양시 만안구 안양동 638-1번지","indutype":"보건위생 - 안경","category":"beauty"},{"name":"글라스팩토리2","tel":"031-468-8778","addr":"경기도 안양시 만안구 안양동 638-1번지","indutype":"보건위생 - 안경","category":"beauty"}]},{"lat":"37.397721793","long":"126.9129525","imageIndex":13,"items":[{"name":"금강헤어","tel":"031-469-6667","addr":"경기도 안양시 만안구 안양동 919-2번지","indutype":"보건위생 - 미용원","category":"beauty"}]},{"lat":"37.392331202","long":"126.90965021","imageIndex":13,"items":[{"name":"기술자들","tel":"031-443-9146","addr":"경기도 안양시 만안구 안양동 759-12번지","indutype":"보건위생 - 미용원","category":"beauty"}]},{"lat":"37.398855461","long":"126.92328477","imageIndex":13,"items":[{"name":"김가헤어","tel":"031-464-5793","addr":"경기도 안양시 만안구 안양동 674-146번지","indutype":"보건위생 - 미용원","category":"beauty"},{"name":"김가헤어","tel":"031-464-5493","addr":"경기도 안양시 만안구 안양동 674-146번지","indutype":"보건위생 - 미용원","category":"beauty"}]},{"lat":"37.40583053","long":"126.91251361","imageIndex":13,"items":[{"name":"김민정헤어샵","tel":"031-469-0727","addr":"경기도 안양시 만안구 안양동 823-1번지","indutype":"보건위생 - 미용원","category":"beauty"},{"name":"노블레스헤어클럽","tel":"031-469-0727","addr":"경기도 안양시 만안구 안양동 823-1번지","indutype":"보건위생 - 미용원","category":"beauty"}]},{"lat":"37.39532851","long":"126.91754034","imageIndex":13,"items":[{"name":"김선생헤어","tel":"031-344-3090","addr":"경기도 안양시 만안구 안양동 714-54번지","indutype":"보건위생 - 미용원","category":"beauty"}]},{"lat":"37.386083535","long":"126.93009586","imageIndex":13,"items":[{"name":"김숙희크레파스","tel":"031-447-3055","addr":"경기도 안양시 만안구 안양동 521-38번지","indutype":"보건위생 - 미용원","category":"beauty"}]},{"lat":"37.383246896","long":"126.93265042","imageIndex":13,"items":[{"name":"김쌀롱","tel":"031-464-5013","addr":"경기도 안양시 만안구 안양동 571-36번지","indutype":"보건위생 - 미용원","category":"beauty"}]},{"lat":"37.389918688","long":"126.92514615","imageIndex":13,"items":[{"name":"김옥태헤어","tel":"055-544-4007","addr":"경기도 안양시 만안구 안양동 471-11번지","indutype":"보건위생 - 미용원","category":"beauty"}]},{"lat":"37.399688584","long":"126.91642861","imageIndex":13,"items":[{"name":"김현아헤어샵","tel":"031-466-2757","addr":"경기도 안양시 만안구 안양동 873-248번지 나은캐슬","indutype":"보건위생 - 미용원","category":"beauty"}]},{"lat":"37.394167204","long":"126.91893068","imageIndex":13,"items":[{"name":"까까머리","tel":"031-441-9988","addr":"경기도 안양시 만안구 안양동 710-25번지","indutype":"보건위생 - 미용원","category":"beauty"},{"name":"봉자네일쌀롱","tel":"031-441-9707","addr":"경기도 안양시 만안구 안양동 710-25번지","indutype":"보건위생 - 피부미용실","category":"beauty"}]},{"lat":"37.399664252","long":"126.92020074","imageIndex":13,"items":[{"name":"꽃물","tel":"031-442-8650","addr":"경기도 안양시 만안구 안양동 676-1번지","indutype":"보건위생 - 기타대인서비스","category":"beauty"}]},{"lat":"37.383442428","long":"126.92825794","imageIndex":13,"items":[{"name":"꾸미지오","tel":"031-443-1118","addr":"경기도 안양시 만안구 안양동 557-29번지","indutype":"보건위생 - 미용원","category":"beauty"}]},{"lat":"37.395970119","long":"126.9202048","imageIndex":13,"items":[{"name":"나이스가이","tel":"031-441-3959","addr":"경기도 안양시 만안구 안양동 707-1번지","indutype":"보건위생 - 미용원","category":"beauty"}]},{"lat":"37.396058342","long":"126.93112519","imageIndex":13,"items":[{"name":"나이스가이","tel":"031-441-9119","addr":"경기도 안양시 만안구 안양동 1390-5번지","indutype":"보건위생 - 미용원","category":"beauty"},{"name":"리안헤어안양메가트리아점","tel":"031-441-0976","addr":"경기도 안양시 만안구 안양동 1390-5번지","indutype":"보건위생 - 미용원","category":"beauty"}]},{"lat":"37.401357662","long":"126.91950995","imageIndex":13,"items":[{"name":"남대문안경","tel":"031-466-2001","addr":"경기도 안양시 만안구 안양동 689-112번지","indutype":"보건위생 - 안경","category":"beauty"},{"name":"정숙희미용실","tel":"031-466-6904","addr":"경기도 안양시 만안구 안양동 689-112번지","indutype":"보건위생 - 미용원","category":"beauty"}]},{"lat":"37.400305448","long":"126.92234585","imageIndex":13,"items":[{"name":"낭만수컷","tel":"031-469-5111","addr":"경기도 안양시 만안구 안양동 674-10번지","indutype":"보건위생 - 이용원","category":"beauty"},{"name":"안양1번가","tel":"031-446-1840","addr":"경기도 안양시 만안구 안양동 674-10번지","indutype":"보건위생 - 화장품","category":"beauty"}]},{"lat":"37.397890346","long":"126.92176118","imageIndex":13,"items":[{"name":"내츄럴휴","tel":"031-393-5451","addr":"경기도 안양시 만안구 안양동 676-301번지","indutype":"보건위생 - 피부미용실","category":"beauty"}]},{"lat":"37.382723743","long":"126.93170245","imageIndex":13,"items":[{"name":"넘버원","tel":"031-9999-9999","addr":"경기도 안양시 만안구 안양동 598-4번지","indutype":"보건위생 - 미용원","category":"beauty"},{"name":"성결남대문안경마트","tel":"031-466-1001","addr":"경기도 안양시 만안구 안양동 598-4번지","indutype":"보건위생 - 안경","category":"beauty"}]},{"lat":"37.411165998","long":"126.9145065","imageIndex":13,"items":[{"name":"네바광학","tel":"031-393-3737","addr":"경기도 안양시 만안구 안양동 817-15번지 영화아이닉스아파트상가","indutype":"보건위생 - 안경","category":"beauty"}]},{"lat":"37.395303814","long":"126.92083794","imageIndex":13,"items":[{"name":"네일꽃구름","tel":"","addr":"경기도 안양시 만안구 안양동 707-82번지","indutype":"보건위생 - 피부미용실","category":"beauty"}]},{"lat":"37.395913615","long":"126.93019929","imageIndex":13,"items":[{"name":"네일더하기","tel":"031-442-1005","addr":"경기도 안양시 만안구 안양동 1390번지","indutype":"보건위생 - 피부미용실","category":"beauty"},{"name":"수엔솔헤어","tel":"031-443-9011","addr":"경기도 안양시 만안구 안양동 1390번지","indutype":"보건위생 - 미용원","category":"beauty"},{"name":"스킨벨","tel":"031-466-8220","addr":"경기도 안양시 만안구 안양동 1390번지","indutype":"보건위생 - 화장품","category":"beauty"},{"name":"올림","tel":"","addr":"경기도 안양시 만안구 안양동 1390번지","indutype":"보건위생 - 피부미용실","category":"beauty"}]},{"lat":"37.39986222","long":"126.91983912","imageIndex":13,"items":[{"name":"네일마당","tel":"031-477-6121","addr":"경기도 안양시 만안구 안양동 782-68번지","indutype":"보건위생 - 화장품","category":"beauty"},{"name":"이오유(2OYOU)","tel":"","addr":"경기도 안양시 만안구 안양동 782-68번지","indutype":"보건위생 - 피부미용실","category":"beauty"}]},{"lat":"37.400439355","long":"126.9205387","imageIndex":13,"items":[{"name":"네일바바","tel":"","addr":"경기도 안양시 만안구 안양동 668-33번지","indutype":"보건위생 - 피부미용실","category":"beauty"},{"name":"더레이디메이크업드레스","tel":"","addr":"경기도 안양시 만안구 안양동 668-33번지","indutype":"보건위생 - 미용원","category":"beauty"},{"name":"두피모발클리닉","tel":"031-865-5567","addr":"경기도 안양시 만안구 안양동 668-33번지","indutype":"보건위생 - 화장품","category":"beauty"},{"name":"르미엘","tel":"070-4200-1753","addr":"경기도 안양시 만안구 안양동 668-33번지","indutype":"보건위생 - 미용원","category":"beauty"},{"name":"바비걸","tel":"","addr":"경기도 안양시 만안구 안양동 668-33번지","indutype":"보건위생 - 화장품","category":"beauty"},{"name":"안양 윤애자 수제가발","tel":"031-445-9102","addr":"경기도 안양시 만안구 안양동 668-33번지","indutype":"보건위생 - 미용재료","category":"beauty"},{"name":"이종구피부클리닉","tel":"031-447-5555","addr":"경기도 안양시 만안구 안양동 668-33번지","indutype":"보건위생 - 화장품","category":"beauty"},{"name":"쥬쥬네일샵","tel":"031-465-3087","addr":"경기도 안양시 만안구 안양동 668-33번지","indutype":"보건위생 - 피부미용실","category":"beauty"},{"name":"컬러시스터","tel":"070-7121-5605","addr":"경기도 안양시 만안구 안양동 668-33번지","indutype":"보건위생 - 미용원","category":"beauty"},{"name":"타로&사주 테라피","tel":"","addr":"경기도 안양시 만안구 안양동 668-33번지","indutype":"보건위생 - 기타대인서비스","category":"beauty"},{"name":"팜스메틱","tel":"031-441-9220","addr":"경기도 안양시 만안구 안양동 668-33번지","indutype":"보건위생 - 화장품","category":"beauty"},{"name":"하나미","tel":"031-465-2988","addr":"경기도 안양시 만안구 안양동 668-33번지","indutype":"보건위생 - 피부미용실","category":"beauty"}]},{"lat":"37.40382693","long":"126.92023005","imageIndex":13,"items":[{"name":"네일블룸","tel":"","addr":"경기도 안양시 만안구 안양동 815-15번지","indutype":"보건위생 - 피부미용실","category":"beauty"}]},{"lat":"37.395553385","long":"126.93048196","imageIndex":13,"items":[{"name":"네일빌리지","tel":"031-422-5008","addr":"경기도 안양시 만안구 안양동 1391번지","indutype":"보건위생 - 피부미용실","category":"beauty"},{"name":"로잔네일","tel":"","addr":"경기도 안양시 만안구 안양동 1391번지","indutype":"보건위생 - 피부미용실","category":"beauty"},{"name":"리데레 (Ridere)","tel":"031-441-5573","addr":"경기도 안양시 만안구 안양동 1391번지","indutype":"보건위생 - 미용원","category":"beauty"},{"name":"머리못하는집","tel":"031-465-3881","addr":"경기도 안양시 만안구 안양동 1391번지","indutype":"보건위생 - 미용원","category":"beauty"},{"name":"민안경","tel":"031-449-5948","addr":"경기도 안양시 만안구 안양동 1391번지","indutype":"보건위생 - 안경","category":"beauty"},{"name":"벤자롱","tel":"031-441-2313","addr":"경기도 안양시 만안구 안양동 1391번지","indutype":"보건위생 - 피부미용실","category":"beauty"},{"name":"뷰티킹","tel":"031-464-1277","addr":"경기도 안양시 만안구 안양동 1391번지","indutype":"보건위생 - 화장품","category":"beauty"},{"name":"엣지헤어","tel":"031-443-7667","addr":"경기도 안양시 만안구 안양동 1391번지","indutype":"보건위생 - 미용원","category":"beauty"},{"name":"잔나비뷰티","tel":"","addr":"경기도 안양시 만안구 안양동 1391번지","indutype":"보건위생 - 피부미용실","category":"beauty"},{"name":"주에스테틱","tel":"031-464-7771","addr":"경기도 안양시 만안구 안양동 1391번지","indutype":"보건위생 - 피부미용실","category":"beauty"}]},{"lat":"37.393943927","long":"126.93617511","imageIndex":13,"items":[{"name":"네일스튜디오","tel":"02-493-5107","addr":"경기도 안양시 만안구 안양동 1393번지 래미안안양메가트리아","indutype":"보건위생 - 피부미용실","category":"beauty"},{"name":"디바","tel":"","addr":"경기도 안양시 만안구 안양동 1393번지 래미안안양메가트리아","indutype":"보건위생 - 화장품","category":"beauty"},{"name":"디우헤어","tel":"","addr":"경기도 안양시 만안구 안양동 1393번지 래미안안양메가트리아","indutype":"보건위생 - 미용원","category":"beauty"},{"name":"미(  )헤어샵","tel":"031-9999-9999","addr":"경기도 안양시 만안구 안양동 1393번지 래미안안양메가트리아","indutype":"보건위생 - 미용원","category":"beauty"},{"name":"샵에스와이헤어(#SYHair)","tel":"031-445-1706","addr":"경기도 안양시 만안구 안양동 1393번지 래미안안양메가트리아","indutype":"보건위생 - 미용원","category":"beauty"},{"name":"스킨테라피숨","tel":"02-809-5496","addr":"경기도 안양시 만안구 안양동 1393번지 래미안안양메가트리아","indutype":"보건위생 - 피부미용실","category":"beauty"},{"name":"제이미니(Jmini)","tel":"031-465-8989","addr":"경기도 안양시 만안구 안양동 1393번지 래미안안양메가트리아","indutype":"보건위생 - 미용원","category":"beauty"},{"name":"헤어쓰담","tel":"031-347-9235","addr":"경기도 안양시 만안구 안양동 1393번지 래미안안양메가트리아","indutype":"보건위생 - 미용원","category":"beauty"},{"name":"헤어콤","tel":"","addr":"경기도 안양시 만안구 안양동 1393번지 래미안안양메가트리아","indutype":"보건위생 - 미용원","category":"beauty"}]},{"lat":"37.399800692","long":"126.92206405","imageIndex":13,"items":[{"name":"네일아트","tel":"031-445-8241","addr":"경기도 안양시 만안구 안양동","indutype":"보건위생 - 미용재료","category":"beauty"},{"name":"코스모스","tel":"031-445-8241","addr":"경기도 안양시 만안구 안양동","indutype":"보건위생 - 화장품","category":"beauty"}]},{"lat":"37.396550046","long":"126.92503766","imageIndex":13,"items":[{"name":"네일앤","tel":"070-7420-8443","addr":"경기도 안양시 만안구 안양동 1189-1번지","indutype":"보건위생 - 피부미용실","category":"beauty"},{"name":"더네일속눈썹","tel":"070-4223-8443","addr":"경기도 안양시 만안구 안양동 1189-1번지","indutype":"보건위생 - 화장품","category":"beauty"},{"name":"바비","tel":"031-463-9393","addr":"경기도 안양시 만안구 안양동 1189-1번지","indutype":"보건위생 - 피부미용실","category":"beauty"},{"name":"설레나","tel":"031-463-9742","addr":"경기도 안양시 만안구 안양동 1189-1번지","indutype":"보건위생 - 피부미용실","category":"beauty"},{"name":"센스","tel":"031-443-5828","addr":"경기도 안양시 만안구 안양동 1189-1번지","indutype":"보건위생 - 미용재료","category":"beauty"},{"name":"애플(APPLE)","tel":"031-463-9652","addr":"경기도 안양시 만안구 안양동 1189-1번지","indutype":"보건위생 - 피부미용실","category":"beauty"},{"name":"오렌즈 안양지하상가점","tel":"070-7781-9886","addr":"경기도 안양시 만안구 안양동 1189-1번지","indutype":"보건위생 - 안경","category":"beauty"},{"name":"퀸네일","tel":"031-463-9388","addr":"경기도 안양시 만안구 안양동 1189-1번지","indutype":"보건위생 - 화장품","category":"beauty"},{"name":"킴쓰네일살롱","tel":"","addr":"경기도 안양시 만안구 안양동 1189-1번지","indutype":"보건위생 - 피부미용실","category":"beauty"}]},{"lat":"37.396328863","long":"126.93148631","imageIndex":13,"items":[{"name":"네일엠샵","tel":"070-862-1672","addr":"경기도 안양시 만안구 안양동 1389-3번지","indutype":"보건위생 - 피부미용실","category":"beauty"},{"name":"블루클럽(안양덕천지구점)","tel":"031-9999-9999","addr":"경기도 안양시 만안구 안양동 1389-3번지","indutype":"보건위생 - 미용원","category":"beauty"},{"name":"비앤비헤어","tel":"","addr":"경기도 안양시 만안구 안양동 1389-3번지","indutype":"보건위생 - 미용원","category":"beauty"},{"name":"힐링마사지","tel":"02-585-6724","addr":"경기도 안양시 만안구 안양동 1389-3번지","indutype":"보건위생 - 피부미용실","category":"beauty"},{"name":"힐링테라피","tel":"031-468-3367","addr":"경기도 안양시 만안구 안양동 1389-3번지","indutype":"보건위생 - 피부미용실","category":"beauty"}]},{"lat":"37.380635278","long":"126.93489974","imageIndex":13,"items":[{"name":"네일크리스마스","tel":"","addr":"경기도 안양시 만안구 안양동 356-1번지","indutype":"보건위생 - 미용재료","category":"beauty"}]},{"lat":"37.393443734","long":"126.91526134","imageIndex":13,"items":[{"name":"네일하라","tel":"","addr":"경기도 안양시 만안구 안양동 716-5번지","indutype":"보건위생 - 피부미용실","category":"beauty"},{"name":"흥화헤어라인","tel":"031-465-3875","addr":"경기도 안양시 만안구 안양동 716-5번지","indutype":"보건위생 - 미용원","category":"beauty"}]},{"lat":"37.401082345","long":"126.91267743","imageIndex":13,"items":[{"name":"노블레스미용실","tel":"","addr":"경기도 안양시 만안구 안양동 903-13번지","indutype":"보건위생 - 미용원","category":"beauty"}]},{"lat":"37.395855119","long":"126.92331053","imageIndex":13,"items":[{"name":"녹십초","tel":"031-441-8843","addr":"경기도 안양시 만안구 안양동 627-66번지","indutype":"보건위생 - 화장품","category":"beauty"}]},{"lat":"37.398358176","long":"126.92075555","imageIndex":13,"items":[{"name":"누네띠네일","tel":"031-476-6762","addr":"경기도 안양시 만안구 안양동 676-77번지","indutype":"보건위생 - 피부미용실","category":"beauty"}]},{"lat":"37.403800057","long":"126.92045596","imageIndex":13,"items":[{"name":"뉴블리","tel":"","addr":"경기도 안양시 만안구 안양동 1219-472번지","indutype":"보건위생 - 화장품","category":"beauty"}]},{"lat":"37.400271741","long":"126.92584697","imageIndex":13,"items":[{"name":"뉴욕헤어시네마","tel":"031-442-9734","addr":"경기도 안양시 만안구 안양동 1380번지 주공뜨란채","indutype":"보건위생 - 미용원","category":"beauty"},{"name":"약손교정원","tel":"031-464-6585","addr":"경기도 안양시 만안구 안양동 1380번지 주공뜨란채","indutype":"보건위생 - 기타대인서비스","category":"beauty"}]},{"lat":"37.400413361","long":"126.92204081","imageIndex":13,"items":[{"name":"뉴톤보청기 안양센터","tel":"","addr":"경기도 안양시 만안구 안양동 674-20번지","indutype":"보건위생 - 의료용품","category":"beauty"},{"name":"보그헤어","tel":"031-466-0770","addr":"경기도 안양시 만안구 안양동 674-20번지","indutype":"보건위생 - 미용원","category":"beauty"},{"name":"타이피아","tel":"031-441-2600","addr":"경기도 안양시 만안구 안양동 674-20번지","indutype":"보건위생 - 화장품","category":"beauty"}]},{"lat":"37.391419957","long":"126.93417858","imageIndex":13,"items":[{"name":"늘봄헤어","tel":"031-466-7878","addr":"경기도 안양시 만안구 안양동 193-46번지","indutype":"보건위생 - 미용원","category":"beauty"}]},{"lat":"37.398857026","long":"126.92564513","imageIndex":13,"items":[{"name":"늘푸른대리점","tel":"031-443-6288","addr":"경기도 안양시 만안구 안양동 1384번지","indutype":"보건위생 - 기타대인서비스","category":"beauty"},{"name":"몸펴기생활운동","tel":"","addr":"경기도 안양시 만안구 안양동 1384번지","indutype":"보건위생 - 기타대인서비스","category":"beauty"}]},{"lat":"37.406742487","long":"126.91508772","imageIndex":13,"items":[{"name":"다옴헤어","tel":"070-8111-7967","addr":"경기도 안양시 만안구 안양동 849-9번지","indutype":"보건위생 - 미용원","category":"beauty"}]},{"lat":"37.394443088","long":"126.91423252","imageIndex":13,"items":[{"name":"다은네일","tel":"031-446-0906","addr":"경기도 안양시 만안구 안양동 767번지","indutype":"보건위생 - 피부미용실","category":"beauty"},{"name":"수헤어갤러리","tel":"031-444-5707","addr":"경기도 안양시 만안구 안양동 767번지","indutype":"보건위생 - 미용원","category":"beauty"}]},{"lat":"37.384414988","long":"126.9030997","imageIndex":13,"items":[{"name":"단헤어샵","tel":"031-468-9993","addr":"경기도 안양시 만안구 안양동 1062번지","indutype":"보건위생 - 미용원","category":"beauty"}]},{"lat":"37.400025447","long":"126.92134101","imageIndex":13,"items":[{"name":"달보드레","tel":"070-4078-1753","addr":"경기도 안양시 만안구 안양동 674-39번지","indutype":"보건위생 - 미용원","category":"beauty"}]},{"lat":"37.397829022","long":"126.92434744","imageIndex":13,"items":[{"name":"달팽이상담센터","tel":"070-8242-1318","addr":"경기도 안양시 만안구 안양동 622-184번지","indutype":"보건위생 - 기타대인서비스","category":"beauty"}]},{"lat":"37.400584414","long":"126.92183733","imageIndex":13,"items":[{"name":"대동철학원 작명원","tel":"031-447-3888","addr":"경기도 안양시 만안구 안양동 674-18번지","indutype":"보건위생 - 기타대인서비스","category":"beauty"},{"name":"미소헤어","tel":"031-444-7497","addr":"경기도 안양시 만안구 안양동 674-18번지","indutype":"보건위생 - 미용원","category":"beauty"}]},{"lat":"37.391415172","long":"126.91353595","imageIndex":13,"items":[{"name":"대리천국 대리운전","tel":"070-4649-1101","addr":"경기도 안양시 만안구 안양동 735번지 우성아파트","indutype":"보건위생 - 기타대인서비스","category":"beauty"},{"name":"엠케이클럽","tel":"031-468-3238","addr":"경기도 안양시 만안구 안양동 735번지 우성아파트","indutype":"보건위생 - 화장품","category":"beauty"}]},{"lat":"37.405747931","long":"126.92292735","imageIndex":13,"items":[{"name":"대우헤어클릭","tel":"031-473-2554","addr":"경기도 안양시 만안구 안양동 70번지","indutype":"보건위생 - 미용원","category":"beauty"}]},{"lat":"37.399799828","long":"126.92081045","imageIndex":13,"items":[{"name":"대한보청기","tel":"031-441-6886","addr":"경기도 안양시 만안구 안양동 674-297번지","indutype":"보건위생 - 의료용품","category":"beauty"}]},{"lat":"37.405051616","long":"126.91925737","imageIndex":13,"items":[{"name":"대한예수교장로회축복교회","tel":"070-4503-4930","addr":"경기도 안양시 만안구 안양동 861-32번지 마인빌","indutype":"보건위생 - 사우나","category":"beauty"},{"name":"머리사랑","tel":"031-441-3295","addr":"경기도 안양시 만안구 안양동 861-32번지 마인빌","indutype":"보건위생 - 미용원","category":"beauty"},{"name":"주식회사 유림24시불가마사우나","tel":"070-4550-5305","addr":"경기도 안양시 만안구 안양동 861-32번지 마인빌","indutype":"보건위생 - 사우나","category":"beauty"}]},{"lat":"37.391690535","long":"126.93465261","imageIndex":13,"items":[{"name":"더 맑음피부","tel":"031-465-0245","addr":"경기도 안양시 만안구 안양동 193-49번지","indutype":"보건위생 - 피부미용실","category":"beauty"}]},{"lat":"37.383165387","long":"126.93195044","imageIndex":13,"items":[{"name":"더 블랑","tel":"","addr":"경기도 안양시 만안구 안양동 571-4번지","indutype":"보건위생 - 미용원","category":"beauty"},{"name":"야옹네일","tel":"","addr":"경기도 안양시 만안구 안양동 571-4번지","indutype":"보건위생 - 피부미용실","category":"beauty"}]},{"lat":"37.392191707","long":"126.92900587","imageIndex":13,"items":[{"name":"더스타일","tel":"031-444-6514","addr":"경기도 안양시 만안구 안양동 426-4번지","indutype":"보건위생 - 미용원","category":"beauty"}]},{"lat":"37.399360268","long":"126.92364564","imageIndex":13,"items":[{"name":"더시크릿제이","tel":"031-443-3822","addr":"경기도 안양시 만안구 안양동 674-100번지","indutype":"보건위생 - 미용원","category":"beauty"}]},{"lat":"37.399161391","long":"126.92267459","imageIndex":13,"items":[{"name":"더에스헤어","tel":"","addr":"경기도 안양시 만안구 안양동 674-242번지","indutype":"보건위생 - 미용원","category":"beauty"},{"name":"퀸타로","tel":"070-8631-9975","addr":"경기도 안양시 만안구 안양동 674-242번지","indutype":"보건위생 - 기타대인서비스","category":"beauty"}]},{"lat":"37.381248851","long":"126.93645734","imageIndex":13,"items":[{"name":"더원서비스","tel":"031-349-6860","addr":"경기도 안양시 만안구 안양동 350-14번지","indutype":"보건위생 - 기타대인서비스","category":"beauty"}]},{"lat":"37.385334227","long":"126.90334689","imageIndex":13,"items":[{"name":"더헤어","tel":"031-464-6447","addr":"경기도 안양시 만안구 안양동 1060번지 수리산현대홈타운","indutype":"보건위생 - 미용원","category":"beauty"}]},{"lat":"37.3791951","long":"126.93745272","imageIndex":13,"items":[{"name":"도도헤어","tel":"031-447-7266","addr":"경기도 안양시 만안구 안양동 370-10번지","indutype":"보건위생 - 미용원","category":"beauty"}]},{"lat":"37.399188006","long":"126.92206471","imageIndex":13,"items":[{"name":"도로시헤어","tel":"031-449-0770","addr":"경기도 안양시 만안구 안양동 674-235번지","indutype":"보건위생 - 미용원","category":"beauty"}]},{"lat":"37.398467069","long":"126.92187349","imageIndex":13,"items":[{"name":"독일안경","tel":"031-444-5599","addr":"경기도 안양시 만안구 안양동 674-144번지","indutype":"보건위생 - 안경","category":"beauty"}]},{"lat":"37.402473729","long":"126.91784847","imageIndex":13,"items":[{"name":"독일지멘스보청기","tel":"070-4821-4766","addr":"경기도 안양시 만안구 안양동 695-21번지","indutype":"보건위생 - 의료용품","category":"beauty"}]},{"lat":"37.383947532","long":"126.92911558","imageIndex":13,"items":[{"name":"두리헤어","tel":"031-469-3523","addr":"경기도 안양시 만안구 안양동 553-4번지","indutype":"보건위생 - 미용원","category":"beauty"}]},{"lat":"37.404944044","long":"126.92003681","imageIndex":13,"items":[{"name":"두쏠헤어","tel":"","addr":"경기도 안양시 만안구 안양동 88-1번지","indutype":"보건위생 - 미용원","category":"beauty"}]},{"lat":"37.384725192","long":"126.93373303","imageIndex":13,"items":[{"name":"라니아 왁싱","tel":"","addr":"경기도 안양시 만안구 안양동 534번지","indutype":"보건위생 - 피부미용실","category":"beauty"},{"name":"라메르헤어","tel":"031-444-4922","addr":"경기도 안양시 만안구 안양동 534번지","indutype":"보건위생 - 미용원","category":"beauty"},{"name":"아모레퍼시픽평촌지사뷰레이터","tel":"031-385-1778","addr":"경기도 안양시 만안구 안양동 534번지","indutype":"보건위생 - 화장품","category":"beauty"},{"name":"에스바드","tel":"031-445-6789","addr":"경기도 안양시 만안구 안양동 534번지","indutype":"보건위생 - 화장품","category":"beauty"},{"name":"주헤어갤러리","tel":"031-464-4656","addr":"경기도 안양시 만안구 안양동 534번지","indutype":"보건위생 - 미용원","category":"beauty"}]},{"lat":"37.400080366","long":"126.92259456","imageIndex":13,"items":[{"name":"라브리지헤어살롱","tel":"","addr":"경기도 안양시 만안구 안양동 674-16번지","indutype":"보건위생 - 미용원","category":"beauty"}]},{"lat":"37.391389985","long":"126.92928897","imageIndex":13,"items":[{"name":"라온네일","tel":"031-465-6994","addr":"경기도 안양시 만안구 안양동 427-10번지","indutype":"보건위생 - 피부미용실","category":"beauty"}]},{"lat":"37.39960868","long":"126.91806629","imageIndex":13,"items":[{"name":"레고코르누","tel":"","addr":"경기도 안양시 만안구 안양동 695-205번지","indutype":"보건위생 - 이용원","category":"beauty"}]},{"lat":"37.39186196","long":"126.93505899","imageIndex":13,"items":[{"name":"레드헤어","tel":"031-469-8210","addr":"경기도 안양시 만안구 안양동 192번지","indutype":"보건위생 - 미용원","category":"beauty"}]},{"lat":"37.392613854","long":"126.91398623","imageIndex":13,"items":[{"name":"레아헤어","tel":"","addr":"경기도 안양시 만안구 안양동 741번지","indutype":"보건위생 - 미용원","category":"beauty"}]},{"lat":"37.398972294","long":"126.9228442","imageIndex":13,"items":[{"name":"렌즈미안양1번가점","tel":"031-464-1379","addr":"경기도 안양시 만안구 안양동 674-188번지","indutype":"보건위생 - 안경","category":"beauty"},{"name":"아리따움안양중앙점","tel":"031-443-1505","addr":"경기도 안양시 만안구 안양동 674-188번지","indutype":"보건위생 - 화장품","category":"beauty"},{"name":"에뛰드하우스 안양1번가점","tel":"031-464-2959","addr":"경기도 안양시 만안구 안양동 674-188번지","indutype":"보건위생 - 화장품","category":"beauty"}]},{"lat":"37.399080599","long":"126.92311513","imageIndex":13,"items":[{"name":"렌즈스토리","tel":"031-466-6000","addr":"경기도 안양시 만안구 안양동 674-103번지","indutype":"보건위생 - 안경","category":"beauty"}]},{"lat":"37.390249407","long":"126.90906559","imageIndex":13,"items":[{"name":"로즈미용실","tel":"031-465-3558","addr":"경기도 안양시 만안구 안양동 1022-2번지","indutype":"보건위생 - 미용원","category":"beauty"}]},{"lat":"37.382415779","long":"126.92906062","imageIndex":13,"items":[{"name":"리보목욕탕","tel":"031-441-3147","addr":"경기도 안양시 만안구 안양동 559-2번지","indutype":"보건위생 - 사우나","category":"beauty"}]},{"lat":"37.405750595","long":"126.91403848","imageIndex":13,"items":[{"name":"리본헤어","tel":"031-466-0815","addr":"경기도 안양시 만안구 안양동 834-47번지","indutype":"보건위생 - 미용원","category":"beauty"},{"name":"리본헤어","tel":"","addr":"경기도 안양시 만안구 안양동 834-47번지","indutype":"보건위생 - 미용원","category":"beauty"},{"name":"태후사랑","tel":"031-466-0401","addr":"경기도 안양시 만안구 안양동 834-47번지","indutype":"보건위생 - 화장품","category":"beauty"}]},{"lat":"37.397331907","long":"126.92203282","imageIndex":13,"items":[{"name":"리소헤어","tel":"031-466-2425","addr":"경기도 안양시 만안구 안양동 676-141번지","indutype":"보건위생 - 미용원","category":"beauty"},{"name":"미화장품","tel":"031-449-2520","addr":"경기도 안양시 만안구 안양동 676-141번지","indutype":"보건위생 - 화장품","category":"beauty"},{"name":"한독안경원","tel":"031-466-1122","addr":"경기도 안양시 만안구 안양동 676-141번지","indutype":"보건위생 - 안경","category":"beauty"}]},{"lat":"37.400161548","long":"126.92273","imageIndex":13,"items":[{"name":"리안헤어","tel":"031-466-0959","addr":"경기도 안양시 만안구 안양동 674-3번지","indutype":"보건위생 - 미용원","category":"beauty"}]},{"lat":"37.380996064","long":"126.93556558","imageIndex":13,"items":[{"name":"리커버리","tel":"031-384-4686","addr":"경기도 안양시 만안구 안양동 359번지","indutype":"보건위생 - 피부미용실","category":"beauty"}]},{"lat":"37.398918797","long":"126.92367998","imageIndex":13,"items":[{"name":"마끼다헤어","tel":"031-466-6322","addr":"경기도 안양시 만안구 안양동 674-159번지","indutype":"보건위생 - 미용원","category":"beauty"}]},{"lat":"37.395304546","long":"126.92189948","imageIndex":13,"items":[{"name":"마이미헤어","tel":"","addr":"경기도 안양시 만안구 안양동 627-85번지","indutype":"보건위생 - 미용원","category":"beauty"}]},{"lat":"37.399999459","long":"126.92286569","imageIndex":13,"items":[{"name":"마이타이","tel":"031-466-3909","addr":"경기도 안양시 만안구 안양동 674-89번지","indutype":"보건위생 - 화장품","category":"beauty"}]},{"lat":"37.396168033","long":"126.91976414","imageIndex":13,"items":[{"name":"마임 안양만안지사","tel":"031-466-3307","addr":"경기도 안양시 만안구 안양동 711-222번지","indutype":"보건위생 - 화장품","category":"beauty"},{"name":"힐링라파의료기","tel":"02-485-1080","addr":"경기도 안양시 만안구 안양동 711-222번지","indutype":"보건위생 - 의료용품","category":"beauty"}]},{"lat":"37.392280578","long":"126.92706345","imageIndex":13,"items":[{"name":"마임안양지사","tel":"031-443-4457","addr":"경기도 안양시 만안구 안양동 414-4번지","indutype":"보건위생 - 화장품","category":"beauty"}]},{"lat":"37.413499822","long":"126.91479744","imageIndex":13,"items":[{"name":"맘스리베모유육아상담실","tel":"031-393-5675","addr":"경기도 안양시 만안구 안양동 32-1번지 삼성아파트","indutype":"보건위생 - 기타대인서비스","category":"beauty"}]},{"lat":"37.414277179","long":"126.91820789","imageIndex":13,"items":[{"name":"매직미용실","tel":"031-443-2827","addr":"경기도 안양시 만안구 안양동 42-34번지","indutype":"보건위생 - 미용원","category":"beauty"}]},{"lat":"37.406776119","long":"126.91190256","imageIndex":13,"items":[{"name":"머리나라","tel":"031-442-0286","addr":"경기도 안양시 만안구 안양동 822-1번지","indutype":"보건위생 - 미용원","category":"beauty"}]},{"lat":"37.395305222","long":"126.92289327","imageIndex":13,"items":[{"name":"머리못하는집","tel":"031-441-0416","addr":"경기도 안양시 만안구 안양동 627-45번지","indutype":"보건위생 - 미용원","category":"beauty"},{"name":"조은피부","tel":"031-466-9914","addr":"경기도 안양시 만안구 안양동 627-45번지","indutype":"보건위생 - 화장품","category":"beauty"}]},{"lat":"37.399414988","long":"126.91203569","imageIndex":13,"items":[{"name":"머리사랑","tel":"031-441-1330","addr":"경기도 안양시 만안구 안양동 908-113번지 은성다세대","indutype":"보건위생 - 미용원","category":"beauty"}]},{"lat":"37.392411586","long":"126.90875799","imageIndex":13,"items":[{"name":"머리사랑","tel":"031-466-4882","addr":"경기도 안양시 만안구 안양동 994-32번지","indutype":"보건위생 - 미용원","category":"beauty"}]},{"lat":"37.392197358","long":"126.92381127","imageIndex":13,"items":[{"name":"머리사랑","tel":"031-465-6505","addr":"경기도 안양시 만안구 안양동 448-22번지","indutype":"보건위생 - 미용원","category":"beauty"}]},{"lat":"37.402417487","long":"126.91486689","imageIndex":13,"items":[{"name":"머리엔머리","tel":"","addr":"경기도 안양시 만안구 안양동 695-67번지","indutype":"보건위생 - 미용원","category":"beauty"}]},{"lat":"37.387191909","long":"126.93030933","imageIndex":13,"items":[{"name":"머리하기좋은날","tel":"031-465-8253","addr":"경기도 안양시 만안구 안양동 504-1번지","indutype":"보건위생 - 미용원","category":"beauty"}]},{"lat":"37.393524472","long":"126.91478695","imageIndex":13,"items":[{"name":"머리하기좋은날","tel":"031-441-0037","addr":"경기도 안양시 만안구 안양동 718-16번지","indutype":"보건위생 - 미용원","category":"beauty"}]},{"lat":"37.383613918","long":"126.928732","imageIndex":13,"items":[{"name":"머리할때됐다","tel":"070-4064-5060","addr":"경기도 안양시 만안구 안양동 555-2번지 세양아파트","indutype":"보건위생 - 미용원","category":"beauty"}]},{"lat":"37.383254154","long":"126.92975986","imageIndex":13,"items":[{"name":"머리힘주는날","tel":"031-469-6389","addr":"경기도 안양시 만안구 안양동 554-18번지","indutype":"보건위생 - 미용원","category":"beauty"}]},{"lat":"37.399328904","long":"126.91742287","imageIndex":13,"items":[{"name":"메디미스토리","tel":"02-1588-6631","addr":"경기도 안양시 만안구 안양동 695-42번지","indutype":"보건위생 - 피부미용실","category":"beauty"},{"name":"서윤뷰티","tel":"031-426-7772","addr":"경기도 안양시 만안구 안양동 695-42번지","indutype":"보건위생 - 피부미용실","category":"beauty"},{"name":"손꾸락발꾸락","tel":"031-441-7291","addr":"경기도 안양시 만안구 안양동 695-42번지","indutype":"보건위생 - 피부미용실","category":"beauty"}]},{"lat":"37.393468246","long":"126.92451009","imageIndex":13,"items":[{"name":"메디컬마트","tel":"031-447-9199","addr":"경기도 안양시 만안구 안양동 613-6번지","indutype":"보건위생 - 의료용품","category":"beauty"}]},{"lat":"37.384779771","long":"126.934625","imageIndex":13,"items":[{"name":"메이크브로우","tel":"","addr":"경기도 안양시 만안구 안양동 534-5번지 명지캐럿162주상복합아파트","indutype":"보건위생 - 화장품","category":"beauty"},{"name":"오늘헤어","tel":"031-443-7757","addr":"경기도 안양시 만안구 안양동 534-5번지 명지캐럿162주상복합아파트","indutype":"보건위생 - 미용원","category":"beauty"}]},{"lat":"37.396222267","long":"126.92001253","imageIndex":13,"items":[{"name":"메이헤어미","tel":"031-446-9946","addr":"경기도 안양시 만안구 안양동 711-221번지","indutype":"보건위생 - 미용원","category":"beauty"}]},{"lat":"37.403250269","long":"126.92020809","imageIndex":13,"items":[{"name":"메종드헤어","tel":"031-442-6369","addr":"경기도 안양시 만안구 안양동 689-4번지","indutype":"보건위생 - 미용원","category":"beauty"},{"name":"썬라이더프랜차이즈스토어참좋은세상 안양","tel":"031-441-9987","addr":"경기도 안양시 만안구 안양동 689-4번지","indutype":"보건위생 - 화장품","category":"beauty"}]},{"lat":"37.404716911","long":"126.91739416","imageIndex":13,"items":[{"name":"명동헤어","tel":"031-468-1711","addr":"경기도 안양시 만안구 안양동 842-22번지","indutype":"보건위생 - 미용원","category":"beauty"}]},{"lat":"37.399079413","long":"126.92137592","imageIndex":13,"items":[{"name":"명품사주&타로","tel":"031-466-4356","addr":"경기도 안양시 만안구 안양동 674-122번지","indutype":"보건위생 - 기타대인서비스","category":"beauty"},{"name":"이태리안경","tel":"031-445-1001","addr":"경기도 안양시 만안구 안양동 674-122번지","indutype":"보건위생 - 안경","category":"beauty"}]},{"lat":"37.400970673","long":"126.92014283","imageIndex":13,"items":[{"name":"명화미용실","tel":"031-443-2350","addr":"경기도 안양시 만안구 안양동 1195-48번지","indutype":"보건위생 - 미용원","category":"beauty"}]},{"lat":"37.398745594","long":"126.92073254","imageIndex":13,"items":[{"name":"모노뷰티","tel":"070-8227-0785","addr":"경기도 안양시 만안구 안양동 676-91번지","indutype":"보건위생 - 화장품","category":"beauty"},{"name":"신데렐라","tel":"031-441-8088","addr":"경기도 안양시 만안구 안양동 676-91번지","indutype":"보건위생 - 화장품","category":"beauty"},{"name":"아이윙발달지원센터","tel":"","addr":"경기도 안양시 만안구 안양동 676-91번지","indutype":"보건위생 - 기타대인서비스","category":"beauty"},{"name":"아이통곡 모유육아 상담실","tel":"031-262-2369","addr":"경기도 안양시 만안구 안양동 676-91번지","indutype":"보건위생 - 기타대인서비스","category":"beauty"},{"name":"에스페이스","tel":"031-465-2345","addr":"경기도 안양시 만안구 안양동 676-91번지","indutype":"보건위생 - 화장품","category":"beauty"},{"name":"탑스칼프안양점","tel":"031-443-7599","addr":"경기도 안양시 만안구 안양동 676-91번지","indutype":"보건위생 - 화장품","category":"beauty"}]},{"lat":"37.404778686","long":"126.91562086","imageIndex":13,"items":[{"name":"모담헤어","tel":"031-464-7100","addr":"경기도 안양시 만안구 안양동 838-1번지","indutype":"보건위생 - 미용원","category":"beauty"}]},{"lat":"37.400132562","long":"126.91989529","imageIndex":13,"items":[{"name":"모디스가발","tel":"031-443-5833","addr":"경기도 안양시 만안구 안양동 782-1번지","indutype":"보건위생 - 미용재료","category":"beauty"}]},{"lat":"37.382082511","long":"126.92923032","imageIndex":13,"items":[{"name":"모유사랑클리닉","tel":"031-443-0091","addr":"경기도 안양시 만안구 안양동 559-7번지","indutype":"보건위생 - 기타대인서비스","category":"beauty"}]},{"lat":"37.400661771","long":"126.91656302","imageIndex":13,"items":[{"name":"모찌모찌네일","tel":"070-9111-9001","addr":"경기도 안양시 만안구 안양동 873-162번지","indutype":"보건위생 - 피부미용실","category":"beauty"}]},{"lat":"37.383111428","long":"126.93211986","imageIndex":13,"items":[{"name":"문헤어","tel":"031-466-3493","addr":"경기도 안양시 만안구 안양동 571-6번지","indutype":"보건위생 - 미용원","category":"beauty"}]},{"lat":"37.399556962","long":"126.92139799","imageIndex":13,"items":[{"name":"뮤즈헤어","tel":"031-441-4647","addr":"경기도 안양시 만안구 안양동 674-56번지","indutype":"보건위생 - 미용원","category":"beauty"}]},{"lat":"37.398160268","long":"126.92120751","imageIndex":13,"items":[{"name":"미건의료기 안양지점","tel":"031-427-7550","addr":"경기도 안양시 만안구 안양동 676-100번지","indutype":"보건위생 - 의료용품","category":"beauty"}]},{"lat":"37.392578","long":"126.91423471","imageIndex":13,"items":[{"name":"미녀탄생","tel":"031-465-6536","addr":"경기도 안양시 만안구 안양동 722-6번지","indutype":"보건위생 - 화장품","category":"beauty"}]},{"lat":"37.407443771","long":"126.91308771","imageIndex":13,"items":[{"name":"미단헤어샵","tel":"031-447-5033","addr":"경기도 안양시 만안구 안양동 821-57번지","indutype":"보건위생 - 이용원","category":"beauty"}]},{"lat":"37.382191164","long":"126.93008833","imageIndex":13,"items":[{"name":"미샵","tel":"031-465-3139","addr":"경기도 안양시 만안구 안양동 560-16번지","indutype":"보건위생 - 피부미용실","category":"beauty"}]},{"lat":"37.397501991","long":"126.92042898","imageIndex":13,"items":[{"name":"미소 체형관리","tel":"031-466-8335","addr":"경기도 안양시 만안구 안양동 676-128번지","indutype":"보건위생 - 피부미용실","category":"beauty"}]},{"lat":"37.392272173","long":"126.92801204","imageIndex":13,"items":[{"name":"미소헤어","tel":"","addr":"경기도 안양시 만안구 안양동 413-14번지","indutype":"보건위생 - 미용원","category":"beauty"}]},{"lat":"37.419887355","long":"126.92692266","imageIndex":13,"items":[{"name":"미즈코스메틱","tel":"031-349-1218","addr":"경기도 안양시 만안구 안양동 1355-5번지","indutype":"보건위생 - 화장품","category":"beauty"}]},{"lat":"37.398690934","long":"126.91987429","imageIndex":13,"items":[{"name":"미케어","tel":"031-443-2389","addr":"경기도 안양시 만안구 안양동 676-24번지","indutype":"보건위생 - 화장품","category":"beauty"}]},{"lat":"37.400304682","long":"126.92122777","imageIndex":13,"items":[{"name":"미코스(MIKCOS)","tel":"","addr":"경기도 안양시 만안구 안양동 674-33번지","indutype":"보건위생 - 화장품","category":"beauty"}]},{"lat":"37.394473547","long":"126.91893034","imageIndex":13,"items":[{"name":"미팅헤어클럽","tel":"031-446-9227","addr":"경기도 안양시 만안구 안양동","indutype":"보건위생 - 미용원","category":"beauty"}]},{"lat":"37.382579397","long":"126.93139773","imageIndex":13,"items":[{"name":"바니헤어","tel":"031-444-3343","addr":"경기도 안양시 만안구 안양동 599-18번지","indutype":"보건위생 - 미용원","category":"beauty"}]},{"lat":"37.399414071","long":"126.9232616","imageIndex":13,"items":[{"name":"바라미용실","tel":"031-447-2505","addr":"경기도 안양시 만안구 안양동 674-97번지","indutype":"보건위생 - 미용원","category":"beauty"}]},{"lat":"37.38764168","long":"126.92912325","imageIndex":13,"items":[{"name":"바름아동센터","tel":"","addr":"경기도 안양시 만안구 안양동 492-3번지","indutype":"보건위생 - 기타대인서비스","category":"beauty"}]},{"lat":"37.393637904","long":"126.92222877","imageIndex":13,"items":[{"name":"바비걸","tel":"031-391-5566","addr":"경기도 안양시 만안구 안양동 707-148번지","indutype":"보건위생 - 화장품","category":"beauty"}]},{"lat":"37.392884377","long":"126.92725482","imageIndex":13,"items":[{"name":"박미애미용실","tel":"031-468-9541","addr":"경기도 안양시 만안구 안양동 390-27번지","indutype":"보건위생 - 미용원","category":"beauty"}]},{"lat":"37.407382436","long":"126.91540323","imageIndex":13,"items":[{"name":"박수연헤어","tel":"031-446-1142","addr":"경기도 안양시 만안구 안양동 853-26번지","indutype":"보건위생 - 미용원","category":"beauty"}]},{"lat":"37.400384103","long":"126.91884469","imageIndex":13,"items":[{"name":"반값헤어","tel":"031-455-7740","addr":"경기도 안양시 만안구 안양동 695-174번지","indutype":"보건위생 - 미용원","category":"beauty"},{"name":"챔프","tel":"031-449-5751","addr":"경기도 안양시 만안구 안양동 695-174번지","indutype":"보건위생 - 이용원","category":"beauty"}]},{"lat":"37.394219276","long":"126.91617516","imageIndex":13,"items":[{"name":"반짝반짝네일카페","tel":"031-443-4141","addr":"경기도 안양시 만안구 안양동 714-145번지","indutype":"보건위생 - 피부미용실","category":"beauty"}]},{"lat":"37.387444838","long":"126.93137053","imageIndex":13,"items":[{"name":"백옥생한방화장품","tel":"031-465-2247","addr":"경기도 안양시 만안구 안양동 517-14번지","indutype":"보건위생 - 화장품","category":"beauty"}]},{"lat":"37.413636297","long":"126.91659332","imageIndex":13,"items":[{"name":"버르장머리","tel":"031-473-0266","addr":"경기도 안양시 만안구 안양동 32-5번지","indutype":"보건위생 - 미용원","category":"beauty"}]},{"lat":"37.388634342","long":"126.9316517","imageIndex":13,"items":[{"name":"버르장머리","tel":"031-441-1722","addr":"경기도 안양시 만안구 안양동 511-15번지","indutype":"보건위생 - 미용원","category":"beauty"}]},{"lat":"37.401500698","long":"126.91792863","imageIndex":13,"items":[{"name":"버터플라이","tel":"","addr":"경기도 안양시 만안구 안양동 695-145번지","indutype":"보건위생 - 화장품","category":"beauty"},{"name":"엘앤씨 컴퍼니(L&C company)","tel":"","addr":"경기도 안양시 만안구 안양동 695-145번지","indutype":"보건위생 - 화장품","category":"beauty"}]},{"lat":"37.395220747","long":"126.91803736","imageIndex":13,"items":[{"name":"베리헤어","tel":"031-455-9749","addr":"경기도 안양시 만안구 안양동 711-130번지","indutype":"보건위생 - 미용원","category":"beauty"}]},{"lat":"37.393915702","long":"126.92003766","imageIndex":13,"items":[{"name":"베테랑헤어","tel":"","addr":"경기도 안양시 만안구 안양동 707-206번지","indutype":"보건위생 - 미용원","category":"beauty"}]},{"lat":"37.39122167","long":"126.93406583","imageIndex":13,"items":[{"name":"벨르헤어","tel":"031-466-6699","addr":"경기도 안양시 만안구 안양동 193-28번지","indutype":"보건위생 - 미용원","category":"beauty"}]},{"lat":"37.386579464","long":"126.93070514","imageIndex":13,"items":[{"name":"별미용실","tel":"031-466-8793","addr":"경기도 안양시 만안구 안양동 504-19번지","indutype":"보건위생 - 미용원","category":"beauty"}]},{"lat":"37.383642323","long":"126.93095636","imageIndex":13,"items":[{"name":"보까헤어","tel":"031-444-7211","addr":"경기도 안양시 만안구 안양동 570-2번지","indutype":"보건위생 - 미용원","category":"beauty"}]},{"lat":"37.398888052","long":"126.91831556","imageIndex":13,"items":[{"name":"보다안경원","tel":"","addr":"경기도 안양시 만안구 안양동 782-18번지","indutype":"보건위생 - 안경","category":"beauty"}]},{"lat":"37.399276351","long":"126.91953484","imageIndex":13,"items":[{"name":"보두와네일","tel":"031-444-4692","addr":"경기도 안양시 만안구 안양동 676-154번지","indutype":"보건위생 - 피부미용실","category":"beauty"}]},{"lat":"37.383138539","long":"126.93225533","imageIndex":13,"items":[{"name":"보떼 샹뜨","tel":"031-444-9720","addr":"경기도 안양시 만안구 안양동 571-9번지","indutype":"보건위생 - 화장품","category":"beauty"}]},{"lat":"37.397969514","long":"126.91900549","imageIndex":13,"items":[{"name":"보문정사","tel":"031-464-1282","addr":"경기도 안양시 만안구 안양동 676-37번지","indutype":"보건위생 - 기타대인서비스","category":"beauty"}]},{"lat":"37.400689905","long":"126.91808766","imageIndex":13,"items":[{"name":"보미뷰티샵","tel":"031-443-7060","addr":"경기도 안양시 만안구 안양동 695-164번지","indutype":"보건위생 - 미용원","category":"beauty"}]},{"lat":"37.39358551","long":"126.91209919","imageIndex":13,"items":[{"name":"봄(BOM)미용재료","tel":"","addr":"경기도 안양시 만안구 안양동 762-2번지 프라자아파트","indutype":"보건위생 - 미용재료","category":"beauty"},{"name":"유헤어프로","tel":"031-447-4811","addr":"경기도 안양시 만안구 안양동 762-2번지 프라자아파트","indutype":"보건위생 - 미용원","category":"beauty"}]},{"lat":"37.400167917","long":"126.91892399","imageIndex":13,"items":[{"name":"봉봉샵","tel":"070-4327-1609","addr":"경기도 안양시 만안구 안양동 695-45번지","indutype":"보건위생 - 피부미용실","category":"beauty"}]},{"lat":"37.38327404","long":"126.93284235","imageIndex":13,"items":[{"name":"불스헤어아트","tel":"031-464-7620","addr":"경기도 안양시 만안구 안양동 571-38번지","indutype":"보건위생 - 미용원","category":"beauty"}]},{"lat":"37.39836024","long":"126.92378221","imageIndex":13,"items":[{"name":"뷰티바이블","tel":"031-441-3139","addr":"경기도 안양시 만안구 안양동 674-152번지","indutype":"보건위생 - 피부미용실","category":"beauty"},{"name":"뽀끌레헤어","tel":"031-464-8725","addr":"경기도 안양시 만안구 안양동 674-152번지","indutype":"보건위생 - 미용원","category":"beauty"}]},{"lat":"37.398746774","long":"126.92244916","imageIndex":13,"items":[{"name":"뷰티샤르망","tel":"070-4144-4141","addr":"경기도 안양시 만안구 안양동 674-229번지","indutype":"보건위생 - 피부미용실","category":"beauty"}]},{"lat":"37.399774512","long":"126.92331768","imageIndex":13,"items":[{"name":"뷰티앤더시티","tel":"","addr":"경기도 안양시 만안구 안양동 674-94번지","indutype":"보건위생 - 화장품","category":"beauty"},{"name":"크레이지헤어","tel":"031-444-1250","addr":"경기도 안양시 만안구 안양동 674-94번지","indutype":"보건위생 - 미용원","category":"beauty"}]},{"lat":"37.396299308","long":"126.91442232","imageIndex":13,"items":[{"name":"뷰티인스킨","tel":"031-443-2505","addr":"경기도 안양시 만안구 안양동 952-9번지","indutype":"보건위생 - 화장품","category":"beauty"}]},{"lat":"37.406885965","long":"126.91417268","imageIndex":13,"items":[{"name":"뷰티크레딧(박달점)","tel":"031-468-1122","addr":"경기도 안양시 만안구 안양동 836-18번지","indutype":"보건위생 - 화장품","category":"beauty"}]},{"lat":"37.397998845","long":"126.92231444","imageIndex":13,"items":[{"name":"뷰티킹","tel":"031-442-3332","addr":"경기도 안양시 만안구 안양동 674-234번지","indutype":"보건위생 - 미용재료","category":"beauty"}]},{"lat":"37.38499585","long":"126.93434252","imageIndex":13,"items":[{"name":"뷰티킹","tel":"031-1577-5492","addr":"경기도 안양시 만안구 안양동 534-3번지","indutype":"보건위생 - 미용재료","category":"beauty"}]},{"lat":"37.395440958","long":"126.92376269","imageIndex":13,"items":[{"name":"뷰티프라자","tel":"031-442-9008","addr":"경기도 안양시 만안구 안양동 627-35번지","indutype":"보건위생 - 화장품","category":"beauty"},{"name":"유리","tel":"031-465-9235","addr":"경기도 안양시 만안구 안양동 627-35번지","indutype":"보건위생 - 기타대인서비스","category":"beauty"}]},{"lat":"37.399800961","long":"126.92245933","imageIndex":13,"items":[{"name":"브람스안경","tel":"031-449-7741","addr":"경기도 안양시 만안구 안양동 674-109번지","indutype":"보건위생 - 안경","category":"beauty"}]},{"lat":"37.399882852","long":"126.92364509","imageIndex":13,"items":[{"name":"블랙뷰티(알파파프,무싸이)","tel":"031-456-1546","addr":"경기도 안양시 만안구 안양동 638-3번지","indutype":"보건위생 - 미용재료","category":"beauty"}]},{"lat":"37.397164132","long":"126.91422931","imageIndex":13,"items":[{"name":"블레노","tel":"031-464-1020","addr":"경기도 안양시 만안구 안양동 951-3번지","indutype":"보건위생 - 미용원","category":"beauty"}]},{"lat":"37.388247307","long":"126.93231829","imageIndex":13,"items":[{"name":"블루밍헤어","tel":"031-444-5395","addr":"경기도 안양시 만안구 안양동 518-9번지","indutype":"보건위생 - 미용원","category":"beauty"}]},{"lat":"37.41522233","long":"126.91695297","imageIndex":13,"items":[{"name":"블루클럽","tel":"031-474-3006","addr":"경기도 안양시 만안구 안양동 30-3번지","indutype":"보건위생 - 미용원","category":"beauty"}]},{"lat":"37.385248244","long":"126.93453425","imageIndex":13,"items":[{"name":"비가헤어컬링","tel":"031-447-4700","addr":"경기도 안양시 만안구 안양동 533-31번지","indutype":"보건위생 - 미용원","category":"beauty"},{"name":"오사카스킨케어","tel":"","addr":"경기도 안양시 만안구 안양동 533-31번지","indutype":"보건위생 - 화장품","category":"beauty"}]},{"lat":"37.395720617","long":"126.92428188","imageIndex":13,"items":[{"name":"비겐의료기","tel":"031-465-0077","addr":"경기도 안양시 만안구 안양동 622-216번지","indutype":"보건위생 - 의료용품","category":"beauty"}]},{"lat":"37.407354785","long":"126.91456745","imageIndex":13,"items":[{"name":"비담은코스메틱주식회사","tel":"070-8250-7996","addr":"경기도 안양시 만안구 안양동 856-14번지","indutype":"보건위생 - 화장품","category":"beauty"}]},{"lat":"37.400079164","long":"126.92084403","imageIndex":13,"items":[{"name":"비비드루비","tel":"070-8288-6964","addr":"경기도 안양시 만안구 안양동 674-40번지","indutype":"보건위생 - 피부미용실","category":"beauty"},{"name":"핑크레이디","tel":"031-469-3331","addr":"경기도 안양시 만안구 안양동 674-40번지","indutype":"보건위생 - 화장품","category":"beauty"}]},{"lat":"37.394941636","long":"126.91831999","imageIndex":13,"items":[{"name":"비아이티헤어","tel":"031-464-8923","addr":"경기도 안양시 만안구 안양동 707-23번지","indutype":"보건위생 - 미용원","category":"beauty"},{"name":"힐링","tel":"031-444-6002","addr":"경기도 안양시 만안구 안양동 707-23번지","indutype":"보건위생 - 기타대인서비스","category":"beauty"}]},{"lat":"37.399883919","long":"126.91256593","imageIndex":13,"items":[{"name":"비앤비","tel":"031-443-3916","addr":"경기도 안양시 만안구 안양동 908-6번지","indutype":"보건위생 - 기타대인서비스","category":"beauty"}]},{"lat":"37.392858531","long":"126.90438717","imageIndex":13,"items":[{"name":"비앤지코스메틱","tel":"031-446-5917","addr":"경기도 안양시 만안구 안양동 976-6번지 효성아파트","indutype":"보건위생 - 화장품","category":"beauty"}]},{"lat":"37.391140421","long":"126.91979228","imageIndex":13,"items":[{"name":"비엠라인","tel":"031-238-6999","addr":"경기도 안양시 만안구 안양동 708-113번지","indutype":"보건위생 - 화장품","category":"beauty"},{"name":"주식회사 코스마이징","tel":"070-4006-8999","addr":"경기도 안양시 만안구 안양동 708-113번지","indutype":"보건위생 - 화장품","category":"beauty"}]},{"lat":"37.395914644","long":"126.91820597","imageIndex":13,"items":[{"name":"빈스옵티칼","tel":"070-8261-8098","addr":"경기도 안양시 만안구 안양동 711-312번지","indutype":"보건위생 - 안경","category":"beauty"}]},{"lat":"37.394306654","long":"126.91253874","imageIndex":13,"items":[{"name":"사랑사","tel":"031-48-0984","addr":"경기도 안양시 만안구 안양동 762-1번지","indutype":"보건위생 - 미용재료","category":"beauty"}]},{"lat":"37.398079442","long":"126.92159157","imageIndex":13,"items":[{"name":"사랑시대 국제안경","tel":"031-466-7401","addr":"경기도 안양시 만안구 안양동 676-103번지","indutype":"보건위생 - 안경","category":"beauty"}]},{"lat":"37.392550707","long":"126.92679216","imageIndex":13,"items":[{"name":"사임당한방화장품","tel":"031-445-4646","addr":"경기도 안양시 만안구 안양동 389-14번지","indutype":"보건위생 - 화장품","category":"beauty"}]},{"lat":"37.38408286","long":"126.92939773","imageIndex":13,"items":[{"name":"살롱드미(SALONDEMI)","tel":"031-468-5203","addr":"경기도 안양시 만안구 안양동 553-21번지","indutype":"보건위생 - 피부미용실","category":"beauty"}]},{"lat":"37.397887576","long":"126.91781977","imageIndex":13,"items":[{"name":"살롱드수","tel":"031-444-9263","addr":"경기도 안양시 만안구 안양동 711-347번지","indutype":"보건위생 - 화장품","category":"beauty"}]},{"lat":"37.385059064","long":"126.93459087","imageIndex":13,"items":[{"name":"살롱드피엘","tel":"031-445-3305","addr":"경기도 안양시 만안구 안양동 534-4번지","indutype":"보건위생 - 미용원","category":"beauty"}]},{"lat":"37.390697181","long":"126.93087057","imageIndex":13,"items":[{"name":"삼익헤어라인","tel":"031-442-3881","addr":"경기도 안양시 만안구 안양동 434-5번지","indutype":"보건위생 - 미용원","category":"beauty"}]},{"lat":"37.392688653","long":"126.91767884","imageIndex":13,"items":[{"name":"상떼빌미용실","tel":"031-469-0457","addr":"경기도 안양시 만안구 안양동 708-196번지 수리산성원상떼빌2차","indutype":"보건위생 - 미용원","category":"beauty"}]},{"lat":"37.400633333","long":"126.91465439","imageIndex":13,"items":[{"name":"새로미미용실","tel":"031-464-5072","addr":"경기도 안양시 만안구 안양동 873-142번지","indutype":"보건위생 - 미용원","category":"beauty"}]},{"lat":"37.392610274","long":"126.90934496","imageIndex":13,"items":[{"name":"새봄미용타운","tel":"031-448-0090","addr":"경기도 안양시 만안구 안양동 759-46번지","indutype":"보건위생 - 미용원","category":"beauty"}]},{"lat":"37.390501611","long":"126.93536511","imageIndex":13,"items":[{"name":"샤론미용실","tel":"","addr":"경기도 안양시 만안구 안양동 196-32번지","indutype":"보건위생 - 미용원","category":"beauty"},{"name":"은헤어","tel":"031-465-7022","addr":"경기도 안양시 만안구 안양동 196-32번지","indutype":"보건위생 - 미용원","category":"beauty"}]},{"lat":"37.394998048","long":"126.92167395","imageIndex":13,"items":[{"name":"샤인","tel":"070-8969-0331","addr":"경기도 안양시 만안구 안양동 627-268번지","indutype":"보건위생 - 피부미용실","category":"beauty"}]},{"lat":"37.400466212","long":"126.92029021","imageIndex":13,"items":[{"name":"샤인에스테틱","tel":"031-441-9318","addr":"경기도 안양시 만안구 안양동 668-39번지","indutype":"보건위생 - 피부미용실","category":"beauty"}]},{"lat":"37.399331842","long":"126.92159022","imageIndex":13,"items":[{"name":"샵네일도","tel":"031-466-2486","addr":"경기도 안양시 만안구 안양동 674-117번지","indutype":"보건위생 - 피부미용실","category":"beauty"}]},{"lat":"37.390776811","long":"126.92851039","imageIndex":13,"items":[{"name":"서라벌교역","tel":"031-335-6003","addr":"경기도 안양시 만안구 안양동 429-17번지","indutype":"보건위생 - 미용재료","category":"beauty"}]},{"lat":"37.394025813","long":"126.92292851","imageIndex":13,"items":[{"name":"서울미용실","tel":"031-445-6176","addr":"경기도 안양시 만안구 안양동 627-135번지","indutype":"보건위생 - 미용원","category":"beauty"}]},{"lat":"37.399917482","long":"126.921567","imageIndex":13,"items":[{"name":"서희미용실","tel":"031-445-1636","addr":"경기도 안양시 만안구 안양동 674-68번지","indutype":"보건위생 - 미용원","category":"beauty"},{"name":"슬리커바버샵","tel":"070-4649-1101","addr":"경기도 안양시 만안구 안양동 674-68번지","indutype":"보건위생 - 이용원","category":"beauty"},{"name":"썸데이네일","tel":"031-444-4866","addr":"경기도 안양시 만안구 안양동 674-68번지","indutype":"보건위생 - 피부미용실","category":"beauty"}]},{"lat":"37.404139585","long":"126.91645738","imageIndex":13,"items":[{"name":"선","tel":"031-469-2056","addr":"경기도 안양시 만안구 안양동 838-19번지","indutype":"보건위생 - 화장품","category":"beauty"}]},{"lat":"37.393330417","long":"126.92056906","imageIndex":13,"items":[{"name":"선주헤어클리닉","tel":"031-468-0307","addr":"경기도 안양시 만안구 안양동 710-89번지","indutype":"보건위생 - 미용원","category":"beauty"}]},{"lat":"37.39649985","long":"126.93114735","imageIndex":13,"items":[{"name":"설렘헤어","tel":"","addr":"경기도 안양시 만안구 안양동 1389-2번지","indutype":"보건위생 - 미용원","category":"beauty"},{"name":"아이리움","tel":"031-464-0103","addr":"경기도 안양시 만안구 안양동 1389-2번지","indutype":"보건위생 - 안경","category":"beauty"}]},{"lat":"37.400610334","long":"126.92023358","imageIndex":13,"items":[{"name":"성공지대레드헤어쿨","tel":"031-441-1137","addr":"경기도 안양시 만안구 안양동 1195-42번지","indutype":"보건위생 - 미용원","category":"beauty"}]},{"lat":"37.396080803","long":"126.923954","imageIndex":13,"items":[{"name":"성심의료기상사","tel":"031-469-4436","addr":"경기도 안양시 만안구 안양동 622-304번지","indutype":"보건위생 - 의료용품","category":"beauty"}]},{"lat":"37.394912294","long":"126.9151467","imageIndex":13,"items":[{"name":"성원선물","tel":"031-445-0077","addr":"경기도 안양시 만안구 안양동 710-41번지","indutype":"보건위생 - 화장품","category":"beauty"}]},{"lat":"37.397440619","long":"126.9229023","imageIndex":13,"items":[{"name":"세기보청기","tel":"031-469-0110","addr":"경기도 안양시 만안구 안양동 622-203번지","indutype":"보건위생 - 의료용품","category":"beauty"}]},{"lat":"37.398800588","long":"126.92208771","imageIndex":13,"items":[{"name":"세미","tel":"031-466-5514","addr":"경기도 안양시 만안구 안양동 674-138번지","indutype":"보건위생 - 화장품","category":"beauty"}]},{"lat":"37.398251012","long":"126.92214477","imageIndex":13,"items":[{"name":"소리케어넷","tel":"031-448-4433","addr":"경기도 안양시 만안구 안양동 674-233번지","indutype":"보건위생 - 의료용품","category":"beauty"}]},{"lat":"37.399997979","long":"126.92070859","imageIndex":13,"items":[{"name":"소망미용상사","tel":"031-441-2828","addr":"경기도 안양시 만안구 안양동 674-219번지","indutype":"보건위생 - 화장품","category":"beauty"},{"name":"이가자미용실","tel":"031-44-0007","addr":"경기도 안양시 만안구 안양동 674-219번지","indutype":"보건위생 - 미용원","category":"beauty"}]},{"lat":"37.39532873","long":"126.91784525","imageIndex":13,"items":[{"name":"소망화장품","tel":"031-441-2828","addr":"경기도 안양시 만안구 안양동 711-189번지","indutype":"보건위생 - 화장품","category":"beauty"}]},{"lat":"37.414528193","long":"126.91645674","imageIndex":13,"items":[{"name":"소영","tel":"031-471-1953","addr":"경기도 안양시 만안구 안양동 30-36번지 홍진빌라","indutype":"보건위생 - 미용원","category":"beauty"}]},{"lat":"37.400106941","long":"126.9219282","imageIndex":13,"items":[{"name":"손이예쁘다","tel":"031-441-6338","addr":"경기도 안양시 만안구 안양동 674-171번지","indutype":"보건위생 - 피부미용실","category":"beauty"}]},{"lat":"37.391939579","long":"126.92925455","imageIndex":13,"items":[{"name":"송림사우나","tel":"031-441-2147","addr":"경기도 안양시 만안구 안양동 426-8번지","indutype":"보건위생 - 사우나","category":"beauty"}]},{"lat":"37.384193378","long":"126.90751492","imageIndex":13,"items":[{"name":"수리산한증막","tel":"031-449-0487","addr":"경기도 안양시 만안구 안양동 1106-1번지","indutype":"보건위생 - 사우나","category":"beauty"}]},{"lat":"37.388499238","long":"126.93173087","imageIndex":13,"items":[{"name":"수빈머리방","tel":"031-441-3233","addr":"경기도 안양시 만안구 안양동 511-18번지","indutype":"보건위생 - 미용원","category":"beauty"}]},{"lat":"37.396554239","long":"126.91803585","imageIndex":13,"items":[{"name":"수빈헤어아트","tel":"031-445-3532","addr":"경기도 안양시 만안구 안양동 711-284번지","indutype":"보건위생 - 미용원","category":"beauty"}]},{"lat":"37.399915402","long":"126.91859675","imageIndex":13,"items":[{"name":"수지헤어라인","tel":"041-362-0233","addr":"경기도 안양시 만안구 안양동 695-37번지","indutype":"보건위생 - 미용원","category":"beauty"}]},{"lat":"37.392249449","long":"126.90881466","imageIndex":13,"items":[{"name":"수헤어","tel":"031-446-8356","addr":"경기도 안양시 만안구 안양동 994-18번지","indutype":"보건위생 - 미용원","category":"beauty"}]},{"lat":"37.400748377","long":"126.92447992","imageIndex":13,"items":[{"name":"쉬크헤어","tel":"031-444-8816","addr":"경기도 안양시 만안구 안양동 1376번지","indutype":"보건위생 - 미용원","category":"beauty"}]},{"lat":"37.399305083","long":"126.92198553","imageIndex":13,"items":[{"name":"슈가헤어","tel":"031-447-7497","addr":"경기도 안양시 만안구 안양동 674-116번지","indutype":"보건위생 - 미용원","category":"beauty"}]},{"lat":"37.399693918","long":"126.91153843","imageIndex":13,"items":[{"name":"스칼렛헤어컬렉션","tel":"031-443-4250","addr":"경기도 안양시 만안구 안양동 908-90번지","indutype":"보건위생 - 미용원","category":"beauty"}]},{"lat":"37.399918276","long":"126.92273026","imageIndex":13,"items":[{"name":"스킨푸드안양점","tel":"031-466-2355","addr":"경기도 안양시 만안구 안양동 674-91번지","indutype":"보건위생 - 화장품","category":"beauty"}]},{"lat":"37.400638459","long":"126.92181469","imageIndex":13,"items":[{"name":"스타키보청기","tel":"031-442-1411","addr":"경기도 안양시 만안구 안양동 674-17번지","indutype":"보건위생 - 의료용품","category":"beauty"}]},{"lat":"37.397247396","long":"126.91717678","imageIndex":13,"items":[{"name":"스펙트라유축기 안양대리점","tel":"031-449-9878","addr":"경기도 안양시 만안구 안양동 711-108번지","indutype":"보건위생 - 의료용품","category":"beauty"}]},{"lat":"37.400195203","long":"126.91928536","imageIndex":13,"items":[{"name":"스포츠체형교정","tel":"031-466-8685","addr":"경기도 안양시 만안구 안양동 1195-60번지","indutype":"보건위생 - 기타대인서비스","category":"beauty"}]},{"lat":"37.386390031","long":"126.93034398","imageIndex":13,"items":[{"name":"승아헤어쉬크","tel":"031-468-1929","addr":"경기도 안양시 만안구 안양동 503-5번지","indutype":"보건위생 - 미용원","category":"beauty"}]},{"lat":"37.399694005","long":"126.91165137","imageIndex":13,"items":[{"name":"신디헤어컬렉션","tel":"","addr":"경기도 안양시 만안구 안양동 908-92번지","indutype":"보건위생 - 미용원","category":"beauty"}]},{"lat":"37.399801352","long":"126.92303531","imageIndex":13,"items":[{"name":"신승원컷앤컷","tel":"031-466-7882","addr":"경기도 안양시 만안구 안양동 674-93번지","indutype":"보건위생 - 미용원","category":"beauty"}]},{"lat":"37.407633928","long":"126.91434122","imageIndex":13,"items":[{"name":"신안목욕탕","tel":"031-448-9911","addr":"경기도 안양시 만안구 안양동 856-12번지","indutype":"보건위생 - 사우나","category":"beauty"}]},{"lat":"37.382913703","long":"126.9329556","imageIndex":13,"items":[{"name":"신영헤어라인미용실","tel":"031-445-7908","addr":"경기도 안양시 만안구 안양동 594-7번지 성업주택","indutype":"보건위생 - 미용원","category":"beauty"}]},{"lat":"37.390412009","long":"126.90959612","imageIndex":13,"items":[{"name":"신우사","tel":"031-384-3141","addr":"경기도 안양시 만안구 안양동 1015-10번지","indutype":"보건위생 - 미용재료","category":"beauty"}]},{"lat":"37.39161213","long":"126.92445556","imageIndex":13,"items":[{"name":"신주쿠헤어","tel":"031-442-3049","addr":"경기도 안양시 만안구 안양동 453-5번지","indutype":"보건위생 - 미용원","category":"beauty"}]},{"lat":"37.397385072","long":"126.92073403","imageIndex":13,"items":[{"name":"신진의료기","tel":"031-469-5975","addr":"경기도 안양시 만안구 안양동 676-122번지","indutype":"보건위생 - 의료용품","category":"beauty"},{"name":"이랑바이오(안양지사)","tel":"","addr":"경기도 안양시 만안구 안양동 676-122번지","indutype":"보건위생 - 의료용품","category":"beauty"}]},{"lat":"37.400886759","long":"126.91620136","imageIndex":13,"items":[{"name":"신화유통","tel":"031-445-5466","addr":"경기도 안양시 만안구 안양동 873-109번지","indutype":"보건위생 - 미용재료","category":"beauty"}]},{"lat":"37.384913617","long":"126.93240046","imageIndex":13,"items":[{"name":"심리연구소차이와너머","tel":"031-441-4235","addr":"경기도 안양시 만안구 안양동 548-4번지","indutype":"보건위생 - 기타대인서비스","category":"beauty"},{"name":"안경매니져렌즈매니져","tel":"031-465-7677","addr":"경기도 안양시 만안구 안양동 548-4번지","indutype":"보건위생 - 안경","category":"beauty"},{"name":"주식회사 굿피플","tel":"","addr":"경기도 안양시 만안구 안양동 548-4번지","indutype":"보건위생 - 의료용품","category":"beauty"},{"name":"파라다이","tel":"031-466-2363","addr":"경기도 안양시 만안구 안양동 548-4번지","indutype":"보건위생 - 미용재료","category":"beauty"}]},{"lat":"37.400106499","long":"126.92128445","imageIndex":13,"items":[{"name":"쌩얼미인","tel":"031-448-1005","addr":"경기도 안양시 만안구 안양동 674-37번지","indutype":"보건위생 - 화장품","category":"beauty"}]},{"lat":"37.39353009","long":"126.9226806","imageIndex":13,"items":[{"name":"쏭쏭네일","tel":"","addr":"경기도 안양시 만안구 안양동 627-148번지","indutype":"보건위생 - 피부미용실","category":"beauty"},{"name":"준헤어아트","tel":"031-442-3555","addr":"경기도 안양시 만안구 안양동 627-148번지","indutype":"보건위생 - 미용원","category":"beauty"}]},{"lat":"37.399665044","long":"126.9213414","imageIndex":13,"items":[{"name":"쑥뜸본가본점좌훈쑥뜸방","tel":"031-466-1870","addr":"경기도 안양시 만안구 안양동 674-50번지","indutype":"보건위생 - 피부미용실","category":"beauty"}]},{"lat":"37.391499449","long":"126.9314796","imageIndex":13,"items":[{"name":"씨드","tel":"070-8631-4507","addr":"경기도 안양시 만안구 안양동 435-1번지","indutype":"보건위생 - 의료용품","category":"beauty"}]},{"lat":"37.399189175","long":"126.92379263","imageIndex":13,"items":[{"name":"씨씨안경클럽","tel":"031-446-5005","addr":"경기도 안양시 만안구 안양동 674-154번지","indutype":"보건위생 - 안경","category":"beauty"},{"name":"아이젠트리안양점","tel":"031-465-1445","addr":"경기도 안양시 만안구 안양동 674-154번지","indutype":"보건위생 - 안경","category":"beauty"}]},{"lat":"37.395500968","long":"126.91931316","imageIndex":13,"items":[{"name":"아로마","tel":"031-469-7999","addr":"경기도 안양시 만안구 안양동 707-10번지","indutype":"보건위생 - 화장품","category":"beauty"}]},{"lat":"37.397250607","long":"126.92172799","imageIndex":13,"items":[{"name":"아름다운피부관리","tel":"041-441-0012","addr":"경기도 안양시 만안구 안양동 676-235번지","indutype":"보건위생 - 피부미용실","category":"beauty"},{"name":"화이트종합화장품","tel":"031-442-0100","addr":"경기도 안양시 만안구 안양동 676-235번지","indutype":"보건위생 - 화장품","category":"beauty"}]},{"lat":"37.38919266","long":"126.93114302","imageIndex":13,"items":[{"name":"아름다운헤어라인","tel":"031-427-7423","addr":"경기도 안양시 만안구 안양동 508-21번지","indutype":"보건위생 - 미용원","category":"beauty"}]},{"lat":"37.403221662","long":"126.91798316","imageIndex":13,"items":[{"name":"아모레","tel":"031-468-4201","addr":"경기도 안양시 만안구 안양동 688-49번지","indutype":"보건위생 - 화장품","category":"beauty"},{"name":"아모레 카운셀러","tel":"031-468-4202","addr":"경기도 안양시 만안구 안양동 688-49번지","indutype":"보건위생 - 화장품","category":"beauty"},{"name":"아모레외판","tel":"031-468-4201","addr":"경기도 안양시 만안구 안양동 688-49번지","indutype":"보건위생 - 화장품","category":"beauty"},{"name":"아모레외판","tel":"031-468-4201","addr":"경기도 안양시 만안구 안양동 688-49번지","indutype":"보건위생 - 화장품","category":"beauty"},{"name":"아모레외판","tel":"031-468-4202","addr":"경기도 안양시 만안구 안양동 688-49번지","indutype":"보건위생 - 화장품","category":"beauty"},{"name":"아모레카운셀러","tel":"031-468-4202","addr":"경기도 안양시 만안구 안양동 688-49번지","indutype":"보건위생 - 화장품","category":"beauty"},{"name":"아모레카운셀러","tel":"031-468-4201","addr":"경기도 안양시 만안구 안양동 688-49번지","indutype":"보건위생 - 화장품","category":"beauty"},{"name":"아모레카운셀러","tel":"031-468-4202","addr":"경기도 안양시 만안구 안양동 688-49번지","indutype":"보건위생 - 화장품","category":"beauty"},{"name":"아모레카운셀러","tel":"031-468-4202","addr":"경기도 안양시 만안구 안양동 688-49번지","indutype":"보건위생 - 화장품","category":"beauty"},{"name":"아모레카운셀러","tel":"031-468-4202","addr":"경기도 안양시 만안구 안양동 688-49번지","indutype":"보건위생 - 화장품","category":"beauty"},{"name":"아모레카운셀러","tel":"031-468-4202","addr":"경기도 안양시 만안구 안양동 688-49번지","indutype":"보건위생 - 화장품","category":"beauty"}]},{"lat":"37.392272472","long":"126.92848633","imageIndex":13,"items":[{"name":"아모레카운셀러","tel":"031-468-4201","addr":"경기도 안양시 만안구 안양동","indutype":"보건위생 - 화장품","category":"beauty"}]},{"lat":"37.399773607","long":"126.92198502","imageIndex":13,"items":[{"name":"아우라케이","tel":"031-444-4642","addr":"경기도 안양시 만안구 안양동 674-75번지","indutype":"보건위생 - 미용원","category":"beauty"}]},{"lat":"37.406055713","long":"126.91242299","imageIndex":13,"items":[{"name":"아이데코안경원 박달점","tel":"031-466-8500","addr":"경기도 안양시 만안구 안양동 822-73번지","indutype":"보건위생 - 안경","category":"beauty"}]},{"lat":"37.406218702","long":"126.91348449","imageIndex":13,"items":[{"name":"아이마트안경원","tel":"031-449-8843","addr":"경기도 안양시 만안구 안양동 823-33번지","indutype":"보건위생 - 안경","category":"beauty"}]},{"lat":"37.390525561","long":"126.93017061","imageIndex":13,"items":[{"name":"아이앤아이코스메틱","tel":"","addr":"경기도 안양시 만안구 안양동 434-3번지 명학시장아파트","indutype":"보건위생 - 미용재료","category":"beauty"}]},{"lat":"37.388364134","long":"126.93181004","imageIndex":13,"items":[{"name":"아이엠네일","tel":"031-442-7009","addr":"경기도 안양시 만안구 안양동 511-20번지","indutype":"보건위생 - 피부미용실","category":"beauty"}]},{"lat":"37.404329257","long":"126.91708965","imageIndex":13,"items":[{"name":"아이패밀리 안경원","tel":"031-341-3077","addr":"경기도 안양시 만안구 안양동 847-13번지","indutype":"보건위생 - 안경","category":"beauty"}]},{"lat":"37.391827868","long":"126.92369874","imageIndex":13,"items":[{"name":"아쿠아헤어갤러리","tel":"031-441-8500","addr":"경기도 안양시 만안구 안양동 451-1번지","indutype":"보건위생 - 미용원","category":"beauty"}]},{"lat":"37.398000318","long":"126.92450537","imageIndex":13,"items":[{"name":"아키(Aqui)","tel":"031-466-8111","addr":"경기도 안양시 만안구 안양동 622-15번지","indutype":"보건위생 - 미용원","category":"beauty"}]},{"lat":"37.392107445","long":"126.92409368","imageIndex":13,"items":[{"name":"아트미용실","tel":"031-445-3425","addr":"경기도 안양시 만안구 안양동 453-26번지","indutype":"보건위생 - 미용원","category":"beauty"}]},{"lat":"37.393939822","long":"126.9159835","imageIndex":13,"items":[{"name":"안경닥터박달점","tel":"031-442-9009","addr":"경기도 안양시 만안구 안양동 710-97번지","indutype":"보건위생 - 안경","category":"beauty"}]},{"lat":"37.40097046","long":"126.9198379","imageIndex":13,"items":[{"name":"안경박사","tel":"031-466-4812","addr":"경기도 안양시 만안구 안양동 689-119번지","indutype":"보건위생 - 안경","category":"beauty"}]},{"lat":"37.395223886","long":"126.92253198","imageIndex":13,"items":[{"name":"안나헤어","tel":"031-444-9998","addr":"경기도 안양시 만안구 안양동 627-49번지","indutype":"보건위생 - 미용원","category":"beauty"}]},{"lat":"37.395301935","long":"126.91817278","imageIndex":13,"items":[{"name":"안양남대문안경","tel":"031-443-4439","addr":"경기도 안양시 만안구 안양동 711-410번지","indutype":"보건위생 - 안경","category":"beauty"}]},{"lat":"37.40430382","long":"126.91931468","imageIndex":13,"items":[{"name":"안양상사","tel":"031-444-9936","addr":"경기도 안양시 만안구 안양동 688-55번지","indutype":"보건위생 - 미용재료","category":"beauty"},{"name":"젤로블리","tel":"","addr":"경기도 안양시 만안구 안양동 688-55번지","indutype":"보건위생 - 미용원","category":"beauty"}]},{"lat":"37.412413859","long":"126.92070632","imageIndex":13,"items":[{"name":"안양시관악장애인종합복지관","tel":"031-472-7774","addr":"경기도 안양시 만안구 안양동 22-1번지","indutype":"보건위생 - 기타대인서비스","category":"beauty"}]},{"lat":"37.380302847","long":"126.93655979","imageIndex":13,"items":[{"name":"안양우성덴탈","tel":"031-466-2872","addr":"경기도 안양시 만안구 안양동 361-7번지","indutype":"보건위생 - 의료용품","category":"beauty"}]},{"lat":"37.382806665","long":"126.90856676","imageIndex":13,"items":[{"name":"안양한증원","tel":"031-466-3508","addr":"경기도 안양시 만안구 안양동 1108-1번지","indutype":"보건위생 - 사우나","category":"beauty"}]},{"lat":"37.398528163","long":"126.91903875","imageIndex":13,"items":[{"name":"알록","tel":"","addr":"경기도 안양시 만안구 안양동 676-28번지","indutype":"보건위생 - 피부미용실","category":"beauty"},{"name":"코어씨티","tel":"","addr":"경기도 안양시 만안구 안양동 676-28번지","indutype":"보건위생 - 화장품","category":"beauty"}]},{"lat":"37.39599975","long":"126.92401056","imageIndex":13,"items":[{"name":"앤샵(#)붙임머리","tel":"031-466-6362","addr":"경기도 안양시 만안구 안양동 622-445번지","indutype":"보건위생 - 미용원","category":"beauty"}]},{"lat":"37.394635527","long":"126.91864783","imageIndex":13,"items":[{"name":"양소영남성헤어샵","tel":"031-446-5255","addr":"경기도 안양시 만안구 안양동 707-26번지","indutype":"보건위생 - 이용원","category":"beauty"}]},{"lat":"37.400224204","long":"126.92212007","imageIndex":13,"items":[{"name":"어썸헤어","tel":"031-441-7118","addr":"경기도 안양시 만안구 안양동 674-81번지","indutype":"보건위생 - 미용원","category":"beauty"}]},{"lat":"37.388997353","long":"126.90950754","imageIndex":13,"items":[{"name":"에스테틱 인 블룸","tel":"031-466-3373","addr":"경기도 안양시 만안구 안양동 1038-6번지","indutype":"보건위생 - 피부미용실","category":"beauty"}]},{"lat":"37.394778675","long":"126.91723605","imageIndex":13,"items":[{"name":"에스테틱(S테틱)","tel":"031-443-3469","addr":"경기도 안양시 만안구 안양동 714-107번지","indutype":"보건위생 - 피부미용실","category":"beauty"},{"name":"엣지스타일","tel":"031-468-6279","addr":"경기도 안양시 만안구 안양동 714-107번지","indutype":"보건위생 - 미용원","category":"beauty"},{"name":"황금가위","tel":"031-445-0781","addr":"경기도 안양시 만안구 안양동 714-107번지","indutype":"보건위생 - 미용원","category":"beauty"}]},{"lat":"37.384887128","long":"126.93331509","imageIndex":13,"items":[{"name":"에스플러스치과기공소","tel":"031-465-2804","addr":"경기도 안양시 만안구 안양동 532-10번지","indutype":"보건위생 - 의료용품","category":"beauty"},{"name":"휴이엠헤어","tel":"031-468-3134","addr":"경기도 안양시 만안구 안양동 532-10번지","indutype":"보건위생 - 미용원","category":"beauty"}]},{"lat":"37.381884806","long":"126.93006605","imageIndex":13,"items":[{"name":"에이플러스헤어","tel":"031-447-1792","addr":"경기도 안양시 만안구 안양동 601-18번지","indutype":"보건위생 - 미용원","category":"beauty"}]},{"lat":"37.393746873","long":"126.92348215","imageIndex":13,"items":[{"name":"엔젤헤나","tel":"031-423-0561","addr":"경기도 안양시 만안구 안양동 627-156번지 까사리움","indutype":"보건위생 - 화장품","category":"beauty"}]},{"lat":"37.400438675","long":"126.91956743","imageIndex":13,"items":[{"name":"엘리스&고양이발톱","tel":"","addr":"경기도 안양시 만안구 안양동 1195-5번지","indutype":"보건위생 - 기타대인서비스","category":"beauty"}]},{"lat":"37.396665561","long":"126.92262079","imageIndex":13,"items":[{"name":"엘림(주)아울렛24시불한증막사우나","tel":"031-442-4001","addr":"경기도 안양시 만안구 안양동 627-287번지","indutype":"보건위생 - 사우나","category":"beauty"}]},{"lat":"37.391053302","long":"126.92415125","imageIndex":13,"items":[{"name":"엘림미용실","tel":"031-466-3387","addr":"경기도 안양시 만안구 안양동 470-1번지 장미아파트","indutype":"보건위생 - 미용원","category":"beauty"}]},{"lat":"37.393746232","long":"126.92253356","imageIndex":13,"items":[{"name":"엠케어소나무복지용구","tel":"031-464-5200","addr":"경기도 안양시 만안구 안양동 627-132번지","indutype":"보건위생 - 의료용품","category":"beauty"}]},{"lat":"37.406994811","long":"126.9151439","imageIndex":13,"items":[{"name":"엣지헤어","tel":"","addr":"경기도 안양시 만안구 안양동 849-2번지","indutype":"보건위생 - 미용원","category":"beauty"}]},{"lat":"37.395721059","long":"126.92494818","imageIndex":13,"items":[{"name":"여래정사","tel":"031-468-2972","addr":"경기도 안양시 만안구 안양동 622-379번지 루미에르","indutype":"보건위생 - 기타대인서비스","category":"beauty"}]},{"lat":"37.394916537","long":"126.92106422","imageIndex":13,"items":[{"name":"여우머리","tel":"031-442-0029","addr":"경기도 안양시 만안구 안양동 707-361번지","indutype":"보건위생 - 미용원","category":"beauty"}]},{"lat":"37.394107018","long":"126.92309782","imageIndex":13,"items":[{"name":"여우미가","tel":"031-441-2332","addr":"경기도 안양시 만안구 안양동 627-138번지","indutype":"보건위생 - 미용원","category":"beauty"}]},{"lat":"37.397082395","long":"126.91337112","imageIndex":13,"items":[{"name":"연우살롱","tel":"031-443-5600","addr":"경기도 안양시 만안구 안양동 943번지","indutype":"보건위생 - 미용원","category":"beauty"}]},{"lat":"37.392222023","long":"126.90831782","imageIndex":13,"items":[{"name":"영광미용실","tel":"031-444-3910","addr":"경기도 안양시 만안구 안양동 994-6번지","indutype":"보건위생 - 화장품","category":"beauty"}]},{"lat":"37.385807824","long":"126.9362049","imageIndex":13,"items":[{"name":"영준미용가구","tel":"031-466-3666","addr":"경기도 안양시 만안구 안양동 201-23번지","indutype":"보건위생 - 미용재료","category":"beauty"}]},{"lat":"37.400886643","long":"126.91604324","imageIndex":13,"items":[{"name":"예가헤어","tel":"031-441-0300","addr":"경기도 안양시 만안구 안양동 873-107번지 가온","indutype":"보건위생 - 미용원","category":"beauty"}]},{"lat":"37.407111673","long":"126.91478233","imageIndex":13,"items":[{"name":"예쁜여우헤어샵","tel":"031-466-1213","addr":"경기도 안양시 만안구 안양동 856-4번지","indutype":"보건위생 - 미용원","category":"beauty"}]},{"lat":"37.403300086","long":"126.91434632","imageIndex":13,"items":[{"name":"예아름미용실","tel":"","addr":"경기도 안양시 만안구 안양동 830-11번지","indutype":"보건위생 - 미용원","category":"beauty"}]},{"lat":"37.395166646","long":"126.91798095","imageIndex":13,"items":[{"name":"오늘네일","tel":"031-466-9874","addr":"경기도 안양시 만안구 안양동 711-262번지","indutype":"보건위생 - 피부미용실","category":"beauty"}]},{"lat":"37.399638286","long":"126.92173671","imageIndex":13,"items":[{"name":"오늘네일","tel":"","addr":"경기도 안양시 만안구 안양동 674-65번지","indutype":"보건위생 - 피부미용실","category":"beauty"},{"name":"올데이아트(ALLDAYART)","tel":"","addr":"경기도 안양시 만안구 안양동 674-65번지","indutype":"보건위생 - 기타대인서비스","category":"beauty"}]},{"lat":"37.383804388","long":"126.93076425","imageIndex":13,"items":[{"name":"오늘은머리하는날","tel":"031-449-1114","addr":"경기도 안양시 만안구 안양동 551-9번지","indutype":"보건위생 - 미용원","category":"beauty"}]},{"lat":"37.389970349","long":"126.93595278","imageIndex":13,"items":[{"name":"오복덴탈","tel":"031-464-2872","addr":"경기도 안양시 만안구 안양동 196번지","indutype":"보건위생 - 의료용품","category":"beauty"}]},{"lat":"37.396689931","long":"126.91879235","imageIndex":13,"items":[{"name":"오수백헤어샵","tel":"031-444-2929","addr":"경기도 안양시 만안구 안양동 711-144번지","indutype":"보건위생 - 미용원","category":"beauty"}]},{"lat":"37.400359617","long":"126.92250391","imageIndex":13,"items":[{"name":"올모스트","tel":"031-441-0505","addr":"경기도 안양시 만안구 안양동 674-8번지","indutype":"보건위생 - 피부미용실","category":"beauty"},{"name":"황실","tel":"031-444-0012","addr":"경기도 안양시 만안구 안양동 674-8번지","indutype":"보건위생 - 피부미용실","category":"beauty"}]},{"lat":"37.38567058","long":"126.93259171","imageIndex":13,"items":[{"name":"와이덱스보청기 명학점","tel":"031-446-6500","addr":"경기도 안양시 만안구 안양동 532번지","indutype":"보건위생 - 의료용품","category":"beauty"}]},{"lat":"37.40138614","long":"126.921588","imageIndex":13,"items":[{"name":"와이텍스보청기","tel":"031-465-2500","addr":"경기도 안양시 만안구 안양동 668-19번지","indutype":"보건위생 - 의료용품","category":"beauty"}]},{"lat":"37.39994215","long":"126.91820144","imageIndex":13,"items":[{"name":"왁싱1번가","tel":"031-466-7072","addr":"경기도 안양시 만안구 안양동 695-192번지","indutype":"보건위생 - 피부미용실","category":"beauty"}]},{"lat":"37.396220427","long":"126.9174264","imageIndex":13,"items":[{"name":"우두머리","tel":"031-469-8809","addr":"경기도 안양시 만안구 안양동 711-120번지","indutype":"보건위생 - 미용원","category":"beauty"}]},{"lat":"37.383445399","long":"126.93312447","imageIndex":13,"items":[{"name":"우리교정원","tel":"031-444-7741","addr":"경기도 안양시 만안구 안양동 573-3번지","indutype":"보건위생 - 기타대인서비스","category":"beauty"}]},{"lat":"37.414411671","long":"126.91729277","imageIndex":13,"items":[{"name":"우리헤어박스","tel":"031-472-7488","addr":"경기도 안양시 만안구 안양동 42-1번지","indutype":"보건위생 - 미용원","category":"beauty"}]},{"lat":"37.40085806","long":"126.91395391","imageIndex":13,"items":[{"name":"우아진피부관리실","tel":"031-466-6677","addr":"경기도 안양시 만안구 안양동 873-85번지","indutype":"보건위생 - 피부미용실","category":"beauty"}]},{"lat":"37.382335837","long":"126.93092373","imageIndex":13,"items":[{"name":"원더랜드 미용재료","tel":"031-8091-0180","addr":"경기도 안양시 만안구 안양동 599-9번지","indutype":"보건위생 - 미용재료","category":"beauty"}]},{"lat":"37.393807248","long":"126.91956348","imageIndex":13,"items":[{"name":"위네일","tel":"","addr":"경기도 안양시 만안구 안양동 710-21번지","indutype":"보건위생 - 피부미용실","category":"beauty"},{"name":"피오레네일(FIORE NAIL)","tel":"070-4898-4568","addr":"경기도 안양시 만안구 안양동 710-21번지","indutype":"보건위생 - 화장품","category":"beauty"}]},{"lat":"37.401609135","long":"126.91836897","imageIndex":13,"items":[{"name":"유니베라안양북부대리점","tel":"031-468-0333","addr":"경기도 안양시 만안구 안양동 695-208번지","indutype":"보건위생 - 화장품","category":"beauty"}]},{"lat":"37.405832471","long":"126.91508879","imageIndex":13,"items":[{"name":"유로덴탈","tel":"031-443-5888","addr":"경기도 안양시 만안구 안양동 837-22번지","indutype":"보건위생 - 의료용품","category":"beauty"}]},{"lat":"37.393550359","long":"126.92606841","imageIndex":13,"items":[{"name":"유일비디오영상편집실","tel":"031-443-9015","addr":"경기도 안양시 만안구 안양동 388-8번지","indutype":"보건위생 - 기타대인서비스","category":"beauty"}]},{"lat":"37.400803033","long":"126.91267777","imageIndex":13,"items":[{"name":"유진헤어비스","tel":"031-448-5203","addr":"경기도 안양시 만안구 안양동 903-17번지","indutype":"보건위생 - 미용원","category":"beauty"}]},{"lat":"37.383443568","long":"126.93008712","imageIndex":13,"items":[{"name":"윤정미용실","tel":"031-466-1596","addr":"경기도 안양시 만안구 안양동 554-22번지","indutype":"보건위생 - 미용원","category":"beauty"}]},{"lat":"37.401913625","long":"126.91581618","imageIndex":13,"items":[{"name":"윤헤어샵","tel":"031-446-1410","addr":"경기도 안양시 만안구 안양동 695-100번지","indutype":"보건위생 - 미용원","category":"beauty"}]},{"lat":"37.396245045","long":"126.91415134","imageIndex":13,"items":[{"name":"은하미용실","tel":"031-441-0955","addr":"경기도 안양시 만안구 안양동 952-12번지","indutype":"보건위생 - 미용원","category":"beauty"}]},{"lat":"37.395471045","long":"126.91531544","imageIndex":13,"items":[{"name":"이가미용실","tel":"031-469-0887","addr":"경기도 안양시 만안구 안양동 714-34번지 성원아파트","indutype":"보건위생 - 미용원","category":"beauty"}]},{"lat":"37.38689247","long":"126.92695596","imageIndex":13,"items":[{"name":"이노뷰티","tel":"031-469-6670","addr":"경기도 안양시 만안구 안양동 497-8번지","indutype":"보건위생 - 화장품","category":"beauty"}]},{"lat":"37.396304858","long":"126.92218074","imageIndex":13,"items":[{"name":"이레미용재료","tel":"031-466-8127","addr":"경기도 안양시 만안구 안양동 627-72번지","indutype":"보건위생 - 미용재료","category":"beauty"}]},{"lat":"37.393110268","long":"126.92825965","imageIndex":13,"items":[{"name":"이쁜머리 미용실","tel":"031-444-9370","addr":"경기도 안양시 만안구 안양동 397-1번지","indutype":"보건위생 - 미용원","category":"beauty"}]},{"lat":"37.394688467","long":"126.91708935","imageIndex":13,"items":[{"name":"이선영헤어","tel":"031-444-0676","addr":"경기도 안양시 만안구 안양동 714-143번지","indutype":"보건위생 - 미용원","category":"beauty"}]},{"lat":"37.39385553","long":"126.92428383","imageIndex":13,"items":[{"name":"이소영심리상담센터","tel":"070-4686-9412","addr":"경기도 안양시 만안구 안양동 627-230번지","indutype":"보건위생 - 기타대인서비스","category":"beauty"}]},{"lat":"37.38600213","long":"126.92958782","imageIndex":13,"items":[{"name":"이승민헤어크리닉","tel":"031-443-3038","addr":"경기도 안양시 만안구 안양동 503-33번지","indutype":"보건위생 - 미용원","category":"beauty"}]},{"lat":"37.398863279","long":"126.92153426","imageIndex":13,"items":[{"name":"이안과 OPTICAL","tel":"031-444-1001","addr":"경기도 안양시 만안구 안양동 674-132번지","indutype":"보건위생 - 안경","category":"beauty"}]},{"lat":"37.399466651","long":"126.92109315","imageIndex":13,"items":[{"name":"이정아헤어뉴스","tel":"031-466-9367","addr":"경기도 안양시 만안구 안양동 674-52번지","indutype":"보건위생 - 미용원","category":"beauty"}]},{"lat":"37.394751423","long":"126.91693117","imageIndex":13,"items":[{"name":"이지헤어","tel":"031-465-6006","addr":"경기도 안양시 만안구 안양동 714-59번지","indutype":"보건위생 - 미용원","category":"beauty"},{"name":"초이화장품","tel":"","addr":"경기도 안양시 만안구 안양동 714-59번지","indutype":"보건위생 - 화장품","category":"beauty"}]},{"lat":"37.401022421","long":"126.91690142","imageIndex":13,"items":[{"name":"이진헤어","tel":"031-442-2090","addr":"경기도 안양시 만안구 안양동 873-116번지","indutype":"보건위생 - 미용원","category":"beauty"}]},{"lat":"37.391501081","long":"126.93423496","imageIndex":13,"items":[{"name":"이진헤어갤러리","tel":"","addr":"경기도 안양시 만안구 안양동 193-52번지","indutype":"보건위생 - 미용원","category":"beauty"}]},{"lat":"37.399549366","long":"126.92347603","imageIndex":13,"items":[{"name":"이훈올삼만","tel":"031-469-5060","addr":"경기도 안양시 만안구 안양동 674-98번지","indutype":"보건위생 - 미용원","category":"beauty"}]},{"lat":"37.396194528","long":"126.91900747","imageIndex":13,"items":[{"name":"일랑미용유통","tel":"031-466-8127","addr":"경기도 안양시 만안구 안양동 711-155번지","indutype":"보건위생 - 미용재료","category":"beauty"}]},{"lat":"37.403690485","long":"126.91840052","imageIndex":13,"items":[{"name":"일민치과기재상사","tel":"031-445-1255","addr":"경기도 안양시 만안구 안양동 688-17번지","indutype":"보건위생 - 의료용품","category":"beauty"}]},{"lat":"37.398053587","long":"126.9233195","imageIndex":13,"items":[{"name":"임선영샵","tel":"031-453-5523","addr":"경기도 안양시 만안구 안양동 674-269번지","indutype":"보건위생 - 화장품","category":"beauty"}]},{"lat":"37.403799511","long":"126.91967665","imageIndex":13,"items":[{"name":"자르헤어","tel":"031-465-1253","addr":"경기도 안양시 만안구 안양동 688-2번지","indutype":"보건위생 - 미용원","category":"beauty"}]},{"lat":"37.415051482","long":"126.9174276","imageIndex":13,"items":[{"name":"자세교정원","tel":"","addr":"경기도 안양시 만안구 안양동 42-5번지","indutype":"보건위생 - 기타대인서비스","category":"beauty"}]},{"lat":"37.39644632","long":"126.9183183","imageIndex":13,"items":[{"name":"자유헤어","tel":"031-8091-8846","addr":"경기도 안양시 만안구 안양동 711-84번지","indutype":"보건위생 - 미용원","category":"beauty"}]},{"lat":"37.406579776","long":"126.91437635","imageIndex":13,"items":[{"name":"전혜원헤어클럽","tel":"031-443-0361","addr":"경기도 안양시 만안구 안양동 837-1번지","indutype":"보건위생 - 미용원","category":"beauty"}]},{"lat":"37.382335054","long":"126.92964784","imageIndex":13,"items":[{"name":"정수지헤어라인미용실","tel":"031-466-9533","addr":"경기도 안양시 만안구 안양동 560-15번지","indutype":"보건위생 - 미용원","category":"beauty"}]},{"lat":"37.394554517","long":"126.91876085","imageIndex":13,"items":[{"name":"정순명피부관리","tel":"031-444-5256","addr":"경기도 안양시 만안구 안양동 707-246번지","indutype":"보건위생 - 피부미용실","category":"beauty"},{"name":"헤어짱","tel":"","addr":"경기도 안양시 만안구 안양동 707-246번지","indutype":"보건위생 - 미용원","category":"beauty"}]},{"lat":"37.396221342","long":"126.91870253","imageIndex":13,"items":[{"name":"정토암","tel":"031-466-9534","addr":"경기도 안양시 만안구 안양동 711-79번지","indutype":"보건위생 - 기타대인서비스","category":"beauty"}]},{"lat":"37.382137449","long":"126.93065294","imageIndex":13,"items":[{"name":"제니헤어","tel":"031-444-0740","addr":"경기도 안양시 만안구 안양동 601-1번지","indutype":"보건위생 - 미용원","category":"beauty"}]},{"lat":"37.4140231","long":"126.91573439","imageIndex":13,"items":[{"name":"제이헤어","tel":"031-472-4406","addr":"경기도 안양시 만안구 안양동 31-29번지","indutype":"보건위생 - 미용원","category":"beauty"}]},{"lat":"37.384135322","long":"126.90268229","imageIndex":13,"items":[{"name":"조은느낌","tel":"","addr":"경기도 안양시 만안구 안양동 1088-1번지","indutype":"보건위생 - 미용원","category":"beauty"}]},{"lat":"37.396188909","long":"126.92393131","imageIndex":13,"items":[{"name":"조은소리보청기 안양센터","tel":"031-442-6600","addr":"경기도 안양시 만안구 안양동 622-250번지","indutype":"보건위생 - 의료용품","category":"beauty"}]},{"lat":"37.404022512","long":"126.91653658","imageIndex":13,"items":[{"name":"조은헤어","tel":"070-8665-0770","addr":"경기도 안양시 만안구 안양동 838-20번지","indutype":"보건위생 - 미용원","category":"beauty"}]},{"lat":"37.40202878","long":"126.91317323","imageIndex":13,"items":[{"name":"조이유통","tel":"","addr":"경기도 안양시 만안구 안양동 900-48번지 그린파크빌라","indutype":"보건위생 - 화장품","category":"beauty"}]},{"lat":"37.394084331","long":"126.91645763","imageIndex":13,"items":[{"name":"조이헤어","tel":"031-448-3372","addr":"경기도 안양시 만안구 안양동 710-35번지","indutype":"보건위생 - 미용원","category":"beauty"}]},{"lat":"37.394858626","long":"126.91567753","imageIndex":13,"items":[{"name":"주식회사 수빈뷰티","tel":"","addr":"경기도 안양시 만안구 안양동 714-41번지","indutype":"보건위생 - 미용재료","category":"beauty"}]},{"lat":"37.384364129","long":"126.93261551","imageIndex":13,"items":[{"name":"주식회사 아이원바이오","tel":"02-2107-7959","addr":"경기도 안양시 만안구 안양동 572-5번지","indutype":"보건위생 - 의료용품","category":"beauty"}]},{"lat":"37.39994413","long":"126.92101358","imageIndex":13,"items":[{"name":"주식회사 안양디셀로","tel":"070-7121-5606","addr":"경기도 안양시 만안구 안양동 674-42번지","indutype":"보건위생 - 미용원","category":"beauty"}]},{"lat":"37.387777","long":"126.92939413","imageIndex":13,"items":[{"name":"주식회사 에스씨바이셀","tel":"031-342-0183","addr":"경기도 안양시 만안구 안양동 492-1번지","indutype":"보건위생 - 화장품","category":"beauty"}]},{"lat":"37.387581281","long":"126.93353844","imageIndex":13,"items":[{"name":"주식회사 오복미소","tel":"031-464-2872","addr":"경기도 안양시 만안구 안양동 528-13번지","indutype":"보건위생 - 의료용품","category":"beauty"},{"name":"호정사우나","tel":"031-444-4588","addr":"경기도 안양시 만안구 안양동 528-13번지","indutype":"보건위생 - 사우나","category":"beauty"},{"name":"호정사우나","tel":"031-444-4588","addr":"경기도 안양시 만안구 안양동 528-13번지","indutype":"보건위생 - 사우나","category":"beauty"}]},{"lat":"37.385662256","long":"126.93375475","imageIndex":13,"items":[{"name":"주식회사 와로메디컬","tel":"031-469-1350","addr":"경기도 안양시 만안구 안양동 533-21번지","indutype":"보건위생 - 의료용품","category":"beauty"}]},{"lat":"37.396000992","long":"126.92589651","imageIndex":13,"items":[{"name":"주식회사 윤원","tel":"031-446-1681","addr":"경기도 안양시 만안구 안양동 622-322번지","indutype":"보건위생 - 의료용품","category":"beauty"}]},{"lat":"37.398693786","long":"126.92404161","imageIndex":13,"items":[{"name":"주식회사엠케어","tel":"031-893-6449","addr":"경기도 안양시 만안구 안양동 674-163번지","indutype":"보건위생 - 의료용품","category":"beauty"}]},{"lat":"37.394466227","long":"126.92134703","imageIndex":13,"items":[{"name":"주헤어","tel":"031-362-6000","addr":"경기도 안양시 만안구 안양동 707-349번지","indutype":"보건위생 - 미용원","category":"beauty"},{"name":"퀸헤어","tel":"031-464-4413","addr":"경기도 안양시 만안구 안양동 707-349번지","indutype":"보건위생 - 미용원","category":"beauty"}]},{"lat":"37.388606446","long":"126.93022893","imageIndex":13,"items":[{"name":"준 화장품","tel":"031-466-1923","addr":"경기도 안양시 만안구 안양동 441-34번지","indutype":"보건위생 - 화장품","category":"beauty"}]},{"lat":"37.407076052","long":"126.91534712","imageIndex":13,"items":[{"name":"준헤어샵","tel":"031-393-5515","addr":"경기도 안양시 만안구 안양동 851-1번지","indutype":"보건위생 - 미용원","category":"beauty"}]},{"lat":"37.379609119","long":"126.93665072","imageIndex":13,"items":[{"name":"중앙메디칼","tel":"031-466-2638","addr":"경기도 안양시 만안구 안양동 367-2번지","indutype":"보건위생 - 의료용품","category":"beauty"}]},{"lat":"37.382613952","long":"126.92898139","imageIndex":13,"items":[{"name":"지오헤어클럽","tel":"031-446-4789","addr":"경기도 안양시 만안구 안양동 559-1번지","indutype":"보건위생 - 미용원","category":"beauty"}]},{"lat":"37.404914492","long":"126.91651296","imageIndex":13,"items":[{"name":"지효네일","tel":"031-123-4567","addr":"경기도 안양시 만안구 안양동 847-42번지","indutype":"보건위생 - 피부미용실","category":"beauty"}]},{"lat":"37.381086351","long":"126.93589293","imageIndex":13,"items":[{"name":"진헤어갤러리","tel":"031-444-0262","addr":"경기도 안양시 만안구 안양동 360번지","indutype":"보건위생 - 미용원","category":"beauty"}]},{"lat":"37.390134915","long":"126.92512334","imageIndex":13,"items":[{"name":"창미용실","tel":"031-443-9160","addr":"경기도 안양시 만안구 안양동 471-24번지","indutype":"보건위생 - 미용원","category":"beauty"}]},{"lat":"37.384162839","long":"126.90325811","imageIndex":13,"items":[{"name":"창박골한증원","tel":"031-445-7054","addr":"경기도 안양시 만안구 안양동 1092-1번지","indutype":"보건위생 - 사우나","category":"beauty"}]},{"lat":"37.395772032","long":"126.920397","imageIndex":13,"items":[{"name":"천기권 안양","tel":"031-472-7597","addr":"경기도 안양시 만안구 안양동 707-274번지","indutype":"보건위생 - 의료용품","category":"beauty"}]},{"lat":"37.394501381","long":"126.92007089","imageIndex":13,"items":[{"name":"천상선녀","tel":"","addr":"경기도 안양시 만안구 안양동 707-49번지","indutype":"보건위생 - 기타대인서비스","category":"beauty"}]},{"lat":"37.39524839","long":"126.9188956","imageIndex":13,"items":[{"name":"천옥대중사우나","tel":"031-449-8500","addr":"경기도 안양시 만안구 안양동 707-17번지","indutype":"보건위생 - 사우나","category":"beauty"}]},{"lat":"37.3964114","long":"126.91989939","imageIndex":13,"items":[{"name":"철학원 해운사","tel":"","addr":"경기도 안양시 만안구 안양동 711-56번지","indutype":"보건위생 - 기타대인서비스","category":"beauty"}]},{"lat":"37.393799993","long":"126.92209308","imageIndex":13,"items":[{"name":"청담헤어","tel":"031-475-9388","addr":"경기도 안양시 만안구 안양동 707-195번지","indutype":"보건위생 - 미용원","category":"beauty"}]},{"lat":"37.399188834","long":"126.92328442","imageIndex":13,"items":[{"name":"청춘","tel":"031-466-7711","addr":"경기도 안양시 만안구 안양동 674-179번지","indutype":"보건위생 - 미용원","category":"beauty"}]},{"lat":"37.385641523","long":"126.92926071","imageIndex":13,"items":[{"name":"초원헤어갤러리","tel":"031-441-9517","addr":"경기도 안양시 만안구 안양동 523-32번지","indutype":"보건위생 - 미용원","category":"beauty"}]},{"lat":"37.394275621","long":"126.9193484","imageIndex":13,"items":[{"name":"초원헤어샵","tel":"031-469-7020","addr":"경기도 안양시 만안구 안양동 707-232번지","indutype":"보건위생 - 미용원","category":"beauty"}]},{"lat":"37.3924096","long":"126.91804052","imageIndex":13,"items":[{"name":"최현주의 힐링아카데미","tel":"031-441-6788","addr":"경기도 안양시 만안구 안양동 708-196번지 수리산성원상떼빌2차","indutype":"보건위생 - 기타대인서비스","category":"beauty"}]},{"lat":"37.399972566","long":"126.92306901","imageIndex":13,"items":[{"name":"치프헤어","tel":"031-469-0901","addr":"경기도 안양시 만안구 안양동 674-88번지","indutype":"보건위생 - 미용원","category":"beauty"}]},{"lat":"37.400662737","long":"126.91789569","imageIndex":13,"items":[{"name":"카락","tel":"031-442-8117","addr":"경기도 안양시 만안구 안양동 695-162번지","indutype":"보건위생 - 미용원","category":"beauty"}]},{"lat":"37.397412495","long":"126.90914701","imageIndex":13,"items":[{"name":"캠퍼스안경홀릭","tel":"031-469-0013","addr":"경기도 안양시 만안구 안양동 922-1번지","indutype":"보건위생 - 안경","category":"beauty"}]},{"lat":"37.39560687","long":"126.91623002","imageIndex":13,"items":[{"name":"컬트헤어","tel":"031-464-0080","addr":"경기도 안양시 만안구 안양동 714-83번지","indutype":"보건위생 - 미용원","category":"beauty"}]},{"lat":"37.399194773","long":"126.91884602","imageIndex":13,"items":[{"name":"컴리헤어","tel":"031-466-7583","addr":"경기도 안양시 만안구 안양동 782-11번지","indutype":"보건위생 - 미용원","category":"beauty"},{"name":"퓨어라인","tel":"","addr":"경기도 안양시 만안구 안양동 782-11번지","indutype":"보건위생 - 화장품","category":"beauty"}]},{"lat":"37.396829778","long":"126.91293098","imageIndex":13,"items":[{"name":"컷&펌","tel":"031-464-8884","addr":"경기도 안양시 만안구 안양동 936-7번지","indutype":"보건위생 - 미용원","category":"beauty"}]},{"lat":"37.401834249","long":"126.91817672","imageIndex":13,"items":[{"name":"코리아나카운셀러","tel":"031-441-4210","addr":"경기도 안양시 만안구 안양동 695-150번지","indutype":"보건위생 - 화장품","category":"beauty"}]},{"lat":"37.393496732","long":"126.91383838","imageIndex":13,"items":[{"name":"코코헤어샵","tel":"070-4082-1777","addr":"경기도 안양시 만안구 안양동 748-2번지","indutype":"보건위생 - 미용원","category":"beauty"}]},{"lat":"37.402445444","long":"126.9161205","imageIndex":13,"items":[{"name":"크리맨즈헤어","tel":"031-346-7754","addr":"경기도 안양시 만안구 안양동 695-8번지","indutype":"보건위생 - 미용원","category":"beauty"}]},{"lat":"37.386274327","long":"126.90703804","imageIndex":13,"items":[{"name":"크리스탈헤어필","tel":"031-443-1267","addr":"경기도 안양시 만안구 안양동 1053-1번지 그린빌","indutype":"보건위생 - 미용원","category":"beauty"}]},{"lat":"37.399414645","long":"126.92411991","imageIndex":13,"items":[{"name":"탑헤어","tel":"031-443-2278","addr":"경기도 안양시 만안구 안양동 633-1번지","indutype":"보건위생 - 미용원","category":"beauty"}]},{"lat":"37.403528045","long":"126.91803928","imageIndex":13,"items":[{"name":"태양미용실","tel":"031-447-9104","addr":"경기도 안양시 만안구 안양동 688-22번지","indutype":"보건위생 - 미용원","category":"beauty"}]},{"lat":"37.390081599","long":"126.92626392","imageIndex":13,"items":[{"name":"태영NET","tel":"042-622-2830","addr":"경기도 안양시 만안구 안양동 476-11번지","indutype":"보건위생 - 의료용품","category":"beauty"}]},{"lat":"37.385858039","long":"126.92970087","imageIndex":13,"items":[{"name":"태후사랑","tel":"031-465-4627","addr":"경기도 안양시 만안구 안양동 521-4번지","indutype":"보건위생 - 화장품","category":"beauty"}]},{"lat":"37.414159045","long":"126.91681863","imageIndex":13,"items":[{"name":"태후사랑","tel":"031-471-2415","addr":"경기도 안양시 만안구 안양동","indutype":"보건위생 - 화장품","category":"beauty"}]},{"lat":"37.389807065","long":"126.93403325","imageIndex":13,"items":[{"name":"태후사랑","tel":"031-466-1154","addr":"경기도 안양시 만안구 안양동 212-21번지","indutype":"보건위생 - 미용원","category":"beauty"}]},{"lat":"37.380968685","long":"126.93495589","imageIndex":13,"items":[{"name":"텔레파시","tel":"031-448-8236","addr":"경기도 안양시 만안구 안양동 352-10번지","indutype":"보건위생 - 화장품","category":"beauty"}]},{"lat":"37.394169213","long":"126.92181036","imageIndex":13,"items":[{"name":"톡톡네일","tel":"031-449-4141","addr":"경기도 안양시 만안구 안양동 707-135번지","indutype":"보건위생 - 피부미용실","category":"beauty"}]},{"lat":"37.400021667","long":"126.91603295","imageIndex":13,"items":[{"name":"투어코리아","tel":"031-341-8823","addr":"경기도 안양시 만안구 안양동 873-234번지","indutype":"보건위생 - 기타대인서비스","category":"beauty"}]},{"lat":"37.393196436","long":"126.90998792","imageIndex":13,"items":[{"name":"티나네일","tel":"070-5142-1981","addr":"경기도 안양시 만안구 안양동 759-29번지","indutype":"보건위생 - 피부미용실","category":"beauty"}]},{"lat":"37.386220723","long":"126.93348324","imageIndex":13,"items":[{"name":"티에스인터내셔널","tel":"031-687-8768","addr":"경기도 안양시 만안구 안양동 533-4번지","indutype":"보건위생 - 안경","category":"beauty"}]},{"lat":"37.390661647","long":"126.93170624","imageIndex":13,"items":[{"name":"티지헤어","tel":"031-449-4242","addr":"경기도 안양시 만안구 안양동 436-1번지 삼익아파트","indutype":"보건위생 - 미용원","category":"beauty"}]},{"lat":"37.388218481","long":"126.92937111","imageIndex":13,"items":[{"name":"파마공주","tel":"031-442-4141","addr":"경기도 안양시 만안구 안양동 481-3번지","indutype":"보건위생 - 미용원","category":"beauty"}]},{"lat":"37.400441143","long":"126.92314757","imageIndex":13,"items":[{"name":"파이원뷰티주식회사","tel":"070-4808-3446","addr":"경기도 안양시 만안구 안양동 682-2번지","indutype":"보건위생 - 의료용품","category":"beauty"}]},{"lat":"37.394832833","long":"126.91737151","imageIndex":13,"items":[{"name":"퍼플헤어","tel":"031-442-0047","addr":"경기도 안양시 만안구 안양동 714-101번지","indutype":"보건위생 - 미용원","category":"beauty"}]},{"lat":"37.398386563","long":"126.92273189","imageIndex":13,"items":[{"name":"펄스캠생활과학 안양지점","tel":"031-392-8247","addr":"경기도 안양시 만안구 안양동 674-257번지","indutype":"보건위생 - 의료용품","category":"beauty"}]},{"lat":"37.394833232","long":"126.91792486","imageIndex":13,"items":[{"name":"펌펙토리","tel":"031-441-3402","addr":"경기도 안양시 만안구 안양동 710-29번지","indutype":"보건위생 - 미용원","category":"beauty"}]},{"lat":"37.389220296","long":"126.932148","imageIndex":13,"items":[{"name":"폴레폴레헤어샵","tel":"031-469-5412","addr":"경기도 안양시 만안구 안양동 512번지","indutype":"보건위생 - 미용원","category":"beauty"}]},{"lat":"37.395417782","long":"126.91639964","imageIndex":13,"items":[{"name":"프린세스네일","tel":"031-465-0252","addr":"경기도 안양시 만안구 안양동 714-139번지","indutype":"보건위생 - 기타대인서비스","category":"beauty"}]},{"lat":"37.385749383","long":"126.92884281","imageIndex":13,"items":[{"name":"피부관리앤네일","tel":"","addr":"경기도 안양시 만안구 안양동 500-18번지","indutype":"보건위생 - 피부미용실","category":"beauty"}]},{"lat":"37.398190489","long":"126.91317781","imageIndex":13,"items":[{"name":"피부사랑","tel":"031-348-1524","addr":"경기도 안양시 만안구 안양동 914-6번지","indutype":"보건위생 - 화장품","category":"beauty"},{"name":"헤어스페이스","tel":"031-444-2976","addr":"경기도 안양시 만안구 안양동 914-6번지","indutype":"보건위생 - 미용원","category":"beauty"}]},{"lat":"37.40008061","long":"126.92295596","imageIndex":13,"items":[{"name":"하라주쿠헤어","tel":"031-444-1258","addr":"경기도 안양시 만안구 안양동 674-86번지","indutype":"보건위생 - 미용원","category":"beauty"}]},{"lat":"37.382308385","long":"126.930235","imageIndex":13,"items":[{"name":"하루헤어","tel":"070-7801-0222","addr":"경기도 안양시 만안구 안양동 563-23번지","indutype":"보건위생 - 미용원","category":"beauty"}]},{"lat":"37.395888362","long":"126.91925626","imageIndex":13,"items":[{"name":"하얀피부스킨케어","tel":"051-457-1717","addr":"경기도 안양시 만안구 안양동 711-61번지","indutype":"보건위생 - 피부미용실","category":"beauty"}]},{"lat":"37.401190129","long":"126.91223684","imageIndex":13,"items":[{"name":"한국불교천지조계종홍련암","tel":"070-8171-5411","addr":"경기도 안양시 만안구 안양동 903-6번지 화이트빌","indutype":"보건위생 - 기타대인서비스","category":"beauty"}]},{"lat":"37.397502376","long":"126.92098236","imageIndex":13,"items":[{"name":"한빛나노의료기 신안양","tel":"031-443-0652","addr":"경기도 안양시 만안구 안양동 676-121번지","indutype":"보건위생 - 의료용품","category":"beauty"}]},{"lat":"37.400661507","long":"126.91620162","imageIndex":13,"items":[{"name":"한승연헤어","tel":"031-455-1401","addr":"경기도 안양시 만안구 안양동 873-158번지","indutype":"보건위생 - 미용원","category":"beauty"}]},{"lat":"37.382470789","long":"126.93059616","imageIndex":13,"items":[{"name":"함지화장품","tel":"031-443-1196","addr":"경기도 안양시 만안구 안양동 563-12번지","indutype":"보건위생 - 화장품","category":"beauty"}]},{"lat":"37.397998273","long":"126.92147873","imageIndex":13,"items":[{"name":"해당생활과학","tel":"031-442-7571","addr":"경기도 안양시 만안구 안양동 676-106번지","indutype":"보건위생 - 의료용품","category":"beauty"}]},{"lat":"37.397466965","long":"126.92189716","imageIndex":13,"items":[{"name":"행복한네일앤뷰티","tel":"070-4255-4066","addr":"경기도 안양시 만안구 안양동 676-116번지","indutype":"보건위생 - 피부미용실","category":"beauty"}]},{"lat":"37.400834943","long":"126.91931853","imageIndex":13,"items":[{"name":"헤라미장","tel":"031-441-3578","addr":"경기도 안양시 만안구 안양동 695-32번지","indutype":"보건위생 - 미용원","category":"beauty"}]},{"lat":"37.399716962","long":"126.91829204","imageIndex":13,"items":[{"name":"헤어꾸밈","tel":"070-4254-0160","addr":"경기도 안양시 만안구 안양동 695-39번지","indutype":"보건위생 - 미용원","category":"beauty"}]},{"lat":"37.396605151","long":"126.91375565","imageIndex":13,"items":[{"name":"헤어뉴스","tel":"031-468-2595","addr":"경기도 안양시 만안구 안양동 953-3번지","indutype":"보건위생 - 미용원","category":"beauty"}]},{"lat":"37.390305713","long":"126.93956602","imageIndex":13,"items":[{"name":"헤어라떼","tel":"031-466-5691","addr":"경기도 안양시 만안구 안양동 190-14번지","indutype":"보건위생 - 미용원","category":"beauty"}]},{"lat":"37.384029571","long":"126.93065112","imageIndex":13,"items":[{"name":"헤어리더","tel":"031-448-6083","addr":"경기도 안양시 만안구 안양동","indutype":"보건위생 - 미용원","category":"beauty"}]},{"lat":"37.394386422","long":"126.92323304","imageIndex":13,"items":[{"name":"헤어리치","tel":"031-443-9557","addr":"경기도 안양시 만안구 안양동 627-13번지","indutype":"보건위생 - 미용원","category":"beauty"}]},{"lat":"37.394746183","long":"126.92228405","imageIndex":13,"items":[{"name":"헤어마법사","tel":"031-443-9620","addr":"경기도 안양시 만안구 안양동 627-265번지","indutype":"보건위생 - 미용원","category":"beauty"}]},{"lat":"37.399023404","long":"126.91859775","imageIndex":13,"items":[{"name":"헤어바이제이","tel":"031-466-2580","addr":"경기도 안양시 만안구 안양동 782-15번지 유일보노빌","indutype":"보건위생 - 미용원","category":"beauty"}]},{"lat":"37.40611035","long":"126.91317966","imageIndex":13,"items":[{"name":"헤어뿌띠끄","tel":"","addr":"경기도 안양시 만안구 안양동 823-15번지","indutype":"보건위생 - 미용원","category":"beauty"}]},{"lat":"37.398359287","long":"126.92237052","imageIndex":13,"items":[{"name":"헤어살롱엘","tel":"","addr":"경기도 안양시 만안구 안양동 674-145번지","indutype":"보건위생 - 미용원","category":"beauty"},{"name":"황실","tel":"031-466-8895","addr":"경기도 안양시 만안구 안양동 674-145번지","indutype":"보건위생 - 피부미용실","category":"beauty"}]},{"lat":"37.382804534","long":"126.93120557","imageIndex":13,"items":[{"name":"헤어세미나","tel":"","addr":"경기도 안양시 만안구 안양동 564-23번지","indutype":"보건위생 - 미용원","category":"beauty"}]},{"lat":"37.395078679","long":"126.92100758","imageIndex":13,"items":[{"name":"헤어센스","tel":"031-466-2799","addr":"경기도 안양시 만안구 안양동 707-184번지","indutype":"보건위생 - 미용원","category":"beauty"}]},{"lat":"37.383417186","long":"126.93114853","imageIndex":13,"items":[{"name":"헤어스드림","tel":"031-442-0909","addr":"경기도 안양시 만안구 안양동 570-9번지","indutype":"보건위생 - 미용원","category":"beauty"}]},{"lat":"37.390802742","long":"126.92678263","imageIndex":13,"items":[{"name":"헤어짱 천연염색","tel":"031-444-3890","addr":"경기도 안양시 만안구 안양동 473-7번지 위너스","indutype":"보건위생 - 화장품","category":"beauty"}]},{"lat":"37.394302114","long":"126.91859174","imageIndex":13,"items":[{"name":"헤어클릭","tel":"031-445-6902","addr":"경기도 안양시 만안구 안양동 710-76번지 아성아파트","indutype":"보건위생 - 미용원","category":"beauty"}]},{"lat":"37.401217496","long":"126.91267727","imageIndex":13,"items":[{"name":"헤어테마","tel":"070-8623-3266","addr":"경기도 안양시 만안구 안양동 903-11번지","indutype":"보건위생 - 미용원","category":"beauty"}]},{"lat":"37.382976012","long":"126.93167963","imageIndex":13,"items":[{"name":"헤어팝오브댄디","tel":"031-469-1254","addr":"경기도 안양시 만안구 안양동 570-19번지","indutype":"보건위생 - 미용원","category":"beauty"}]},{"lat":"37.389669948","long":"126.93073605","imageIndex":13,"items":[{"name":"헤어퍼플미용실","tel":"031-465-5335","addr":"경기도 안양시 만안구 안양동 508번지","indutype":"보건위생 - 미용원","category":"beauty"}]},{"lat":"37.394050734","long":"126.91986812","imageIndex":13,"items":[{"name":"현대헤어샵","tel":"031-441-2577","addr":"경기도 안양시 만안구 안양동 707-207번지","indutype":"보건위생 - 미용원","category":"beauty"}]},{"lat":"37.383586767","long":"126.92854008","imageIndex":13,"items":[{"name":"혜리헤어","tel":"031-465-0916","addr":"경기도 안양시 만안구 안양동 555-3번지","indutype":"보건위생 - 미용원","category":"beauty"}]},{"lat":"37.391192467","long":"126.93042969","imageIndex":13,"items":[{"name":"홍헤어","tel":"","addr":"경기도 안양시 만안구 안양동 432-2번지","indutype":"보건위생 - 미용원","category":"beauty"}]},{"lat":"37.395530083","long":"126.92231709","imageIndex":13,"items":[{"name":"화랑","tel":"031-445-6658","addr":"경기도 안양시 만안구 안양동 627-70번지","indutype":"보건위생 - 이용원","category":"beauty"}]},{"lat":"37.407084068","long":"126.91401432","imageIndex":13,"items":[{"name":"활법체형교정","tel":"031-442-3740","addr":"경기도 안양시 만안구 안양동 836-15번지","indutype":"보건위생 - 기타대인서비스","category":"beauty"}]},{"lat":"37.392050804","long":"126.90828416","imageIndex":13,"items":[{"name":"황복금헤어","tel":"031-465-0888","addr":"경기도 안양시 만안구 안양동 992-33번지","indutype":"보건위생 - 미용원","category":"beauty"}]},{"lat":"37.38194832","long":"126.93078861","imageIndex":13,"items":[{"name":"황순임헤어센스","tel":"031-446-0458","addr":"경기도 안양시 만안구 안양동 601-12번지","indutype":"보건위생 - 미용원","category":"beauty"}]},{"lat":"37.398973114","long":"126.92406391","imageIndex":13,"items":[{"name":"힐탑","tel":"","addr":"경기도 안양시 만안구 안양동 674-157번지","indutype":"보건위생 - 화장품","category":"beauty"}]}]