[{"lat":"37.434705902","long":"126.99377499","imageIndex":4,"items":[{"name":"개성손만두","tel":"02-502-5988","addr":"경기도 과천시 관문동 70-3번지","indutype":"음식점업 - 분식","category":"restaurant"}]},{"lat":"37.440823686","long":"126.99346915","imageIndex":4,"items":[{"name":"개성손만두","tel":"","addr":"경기도 과천시 관문동 70-3번지","indutype":"일반휴게음식 - 스넥","category":"restaurant"}]},{"lat":"37.440274086","long":"126.99361611","imageIndex":4,"items":[{"name":"고구려짬뽕10101과천점","tel":"02-504-5097","addr":"경기도 과천시 관문동 72-5번지 1층","indutype":"일반휴게음식 - 중국식","category":"restaurant"},{"name":"퀸즈키친","tel":"02-507-0404","addr":"경기도 과천시 관문동 72-5번지 2층","indutype":"일반휴게음식 - 서양음식","category":"restaurant"}]},{"lat":"37.459354971","long":"127.02805302","imageIndex":4,"items":[{"name":"고구려짬뽕10101과천점","tel":"02-504-5097","addr":"경기도 과천시 관문동 72-5번지 1층","indutype":"음식점업 - 중식","category":"restaurant"}]},{"lat":"37.437381864","long":"126.99355997","imageIndex":4,"items":[{"name":"팔팔낙지","tel":"02-502-6600","addr":"경기도 과천시 관문동 99번지","indutype":"일반휴게음식 - 일반한식","category":"restaurant"}]},{"lat":"37.452525193","long":"127.02896616","imageIndex":4,"items":[{"name":"팔팔낙지","tel":"02-507-5988","addr":"경기도 과천시 관문동 99번지","indutype":"음식점업 - 한식","category":"restaurant"}]}]