[{"lat":"36.949360488","long":"127.01184106","items":[{"name":"GS25평택계양로점","tel":"","addr":"경기도 평택시 팽성읍 본정리 17-7번지","category":"유통업 영리 - 편 의 점"}]},{"lat":"36.949918912","long":"127.01464787","items":[{"name":"계양갈비","tel":"031-691-0858","addr":"경기도 평택시 팽성읍 본정리 99-7번지 1층","category":"일반휴게음식 - 일반한식"}]},{"lat":"36.950027168","long":"127.01328942","items":[{"name":"계양당구장","tel":"031-657-1388","addr":"경기도 평택시 팽성읍 본정리 96-1번지 1층 101호","category":"레저업소 - 당 구 장"},{"name":"빨간포차","tel":"031-618-9312","addr":"경기도 평택시 팽성읍 본정리 96-1번지","category":"일반휴게음식 - 주점"}]},{"lat":"36.948585352","long":"127.01428841","items":[{"name":"계양철물건재","tel":"031-651-0076","addr":"경기도 평택시 팽성읍 본정리 16-1","category":"건축자재 - 목재·석재·철물"}]},{"lat":"36.949693701","long":"127.01404158","items":[{"name":"공인중개사이문용사무소","tel":"031-692-0543","addr":"경기도 평택시 팽성읍 본정리 17-3","category":"용역 서비스 - 부동산 중개·임대"},{"name":"아리랑농원","tel":"031-000-0000","addr":"경기도 평택시 팽성읍 본정리 17-3번지","category":"음료식품 - 농·축·수산품"},{"name":"호정슈퍼","tel":"031-692-0600","addr":"경기도 평택시 팽성읍 본정리 17-3번지","category":"유통업 영리 - 슈퍼마켓"},{"name":"호정슈퍼","tel":"031-651-4549","addr":"경기도 평택시 팽성읍 본정리 17-3번지","category":"소매업 - 슈퍼"}]},{"lat":"36.946746691","long":"127.01837458","items":[{"name":"네버랜드 앨리스스튜디오","tel":"070-8279-0974","addr":"경기도 평택시 팽성읍 본정리 55-7번지 2층","category":"광학제품 - 사진관"}]},{"lat":"36.948414023","long":"127.0155121","items":[{"name":"농업회사법인주식회사아라미주팜","tel":"031-656-7998","addr":"경기도 평택시 팽성읍 본정리 101-27번지 160호","category":"음료식품 - 농·축·수산품"},{"name":"청주식당","tel":"031-618-6993","addr":"경기도 평택시 팽성읍 본정리 101-27번지 3동 1층","category":"일반휴게음식 - 일반한식"}]},{"lat":"36.946026827","long":"127.0044537","items":[{"name":"다득ENG","tel":"031-657-8355","addr":"경기도 평택시 팽성읍 본정리 301-1번지","category":"농업 - 농기계"}]},{"lat":"36.948279187","long":"127.0119532","items":[{"name":"디트로이트 모터스","tel":"031-692-3744","addr":"경기도 평택시 팽성읍 본정리 110번지 다동","category":"자동차정비 유지 - 자동차정비"}]},{"lat":"36.949414538","long":"127.01204315","items":[{"name":"박군치킨 본정점","tel":"031-653-9232","addr":"경기도 평택시 팽성읍 본정리 17-24번지 1층","category":"일반휴게음식 - 스넥"}]},{"lat":"36.949468384","long":"127.01453553","items":[{"name":"별천지호프","tel":"031-692-9072","addr":"경기도 평택시 팽성읍 본정리 102-6번지","category":"일반휴게음식 - 주점"}]},{"lat":"36.947135129","long":"127.00573355","items":[{"name":"본정통닭","tel":"031-691-7578","addr":"경기도 평택시 팽성읍 본정리 293-9번지","category":"일반휴게음식 - 스넥"}]},{"lat":"36.948999804","long":"127.01473754","items":[{"name":"본토공인중개사","tel":"031-691-1149","addr":"경기도 평택시 팽성읍 본정리 101-5","category":"용역 서비스 - 부동산 중개·임대"},{"name":"푸름찬","tel":"031-657-7878","addr":"경기도 평택시 팽성읍 본정리 101-5번지","category":"일반휴게음식 - 일반한식"}]},{"lat":"36.949585539","long":"127.01437837","items":[{"name":"봉창칼국수","tel":"031-658-9829","addr":"경기도 평택시 팽성읍 본정리 102-7번지 1층","category":"일반휴게음식 - 일반한식"},{"name":"봉창칼국수","tel":"031-651-6730","addr":"경기도 평택시 팽성읍 본정리 102-7번지 1층","category":"음식점 - 한식"}]},{"lat":"36.949522398","long":"127.01504075","items":[{"name":"서부철물","tel":"031-692-0326","addr":"경기도 평택시 팽성읍 본정리 101-3","category":"건축자재 - 목재·석재·철물"}]},{"lat":"36.949693719","long":"127.01385072","items":[{"name":"선덕축산","tel":"031-692-2707","addr":"경기도 평택시 팽성읍 본정리 17-9번지","category":"소매업 - 정육"},{"name":"선덕축산","tel":"031-651-4549","addr":"경기도 평택시 팽성읍 본정리 17-9번지","category":"음료식품 - 정육점"},{"name":"혜진정육식당","tel":"070-8113-5588","addr":"경기도 평택시 팽성읍 본정리 17-9번지 1층","category":"음식점 - 한식"},{"name":"혜진정육식당","tel":"031-655-1430","addr":"경기도 평택시 팽성읍 본정리 17-9번지","category":"일반휴게음식 - 일반한식"}]},{"lat":"36.949612719","long":"127.01273925","items":[{"name":"솜씨","tel":"031-656-2722","addr":"경기도 평택시 팽성읍 본정리 17-4","category":"주방용구 - 주방용구"}]},{"lat":"36.949333044","long":"127.01623077","items":[{"name":"아나사지 자전거","tel":"031-651-8230","addr":"경기도 평택시 팽성읍 본정리 101-40번지 2호","category":"레져용품 - 스포츠·레져용품"}]},{"lat":"36.949828724","long":"127.01543374","items":[{"name":"제크후라이드치킨","tel":"031-691-6514","addr":"경기도 평택시 팽성읍 본정리 82-49번지 대성연립 1층","category":"일반휴게음식 - 주점"}]},{"lat":"36.950883053","long":"127.01476029","items":[{"name":"주식회사 씨엔에스건설","tel":"031-658-0471","addr":"경기도 평택시 팽성읍 본정리 82-29번지 1층","category":"용역 서비스 - 기타용역서비스"}]},{"lat":"36.949693656","long":"127.01451311","items":[{"name":"카페 본","tel":"031-653-5795","addr":"경기도 평택시 팽성읍 본정리 102-5번지 1-2층","category":"일반휴게음식 - 서양음식"}]},{"lat":"36.948891793","long":"127.01348012","items":[{"name":"통큰낙지","tel":"031-663-0447","addr":"경기도 평택시 팽성읍 본정리 19-21번지 1층 A호","category":"일반휴게음식 - 일반한식"},{"name":"통큰낙지","tel":"031-691-1766","addr":"경기도 평택시 팽성읍 본정리 19-21번지","category":"음식점 - 한식"}]},{"lat":"36.950027136","long":"127.01364869","items":[{"name":"평택본정우체국","tel":"031-692-0005","addr":"경기도 평택시 팽성읍 본정리 98-5번지","category":"용역 서비스 - 공공요금대행서비스/소"}]},{"lat":"36.95002711","long":"127.01392936","items":[{"name":"하나로마트(팽성농협 본정지점)","tel":"031-691-1491","addr":"경기도 평택시 팽성읍 본정리 98-4번지","category":"소매업 - 슈퍼"}]},{"lat":"36.949585821","long":"127.01095416","items":[{"name":"하눌소부페","tel":"031-653-9363","addr":"경기도 평택시 팽성읍 본정리 269-6번지","category":"일반휴게음식 - 일반한식"}]},{"lat":"36.949666737","long":"127.01328937","items":[{"name":"해뜨는집","tel":"031-658-9829","addr":"경기도 평택시 팽성읍 본정리 17-10번지","category":"음식점 - 한식"},{"name":"해뜨는집","tel":"031-692-2777","addr":"경기도 평택시 팽성읍 본정리 17-10번지","category":"일반휴게음식 - 일반한식"}]},{"lat":"36.952216723","long":"127.01398581","items":[{"name":"홍선생미술","tel":"031-222-1588","addr":"경기도 평택시 팽성읍 본정리 85-7번지","category":"회원제형태 - 서적"}]}]