[{"lat":"37.109616142","long":"127.08169171","items":[{"name":"COSF","tel":"02-412-7225","addr":"경기도 평택시 진위면 가곡리 128-3","category":"자동차정비 유지 - 자동차정비"}]},{"lat":"37.116537865","long":"127.06358394","items":[{"name":"LOTTERIA","tel":"031-611-4874","addr":"경기도 평택시 진위면 가곡리 556-2번지 주건축물제1동1층~2층","category":"일반휴게음식 - 서양음식"}]},{"lat":"37.119149531","long":"127.06623022","items":[{"name":"가곡24시마트","tel":"031-611-9077","addr":"경기도 평택시 진위면 가곡리 550-74번지 1층","category":"유통업 영리 - 슈퍼마켓"}]},{"lat":"37.117919996","long":"127.07349781","items":[{"name":"가곡세탁소","tel":"031-667-0424","addr":"경기도 평택시 진위면 가곡리 375-8","category":"수리서비스 - 세탁소"}]},{"lat":"37.118118474","long":"127.07308168","items":[{"name":"가곡자동차정비","tel":"031-667-2423","addr":"경기도 평택시 진위면 가곡리 356-13","category":"자동차정비 유지 - 자동차정비"}]},{"lat":"37.113705481","long":"127.06933099","items":[{"name":"개판","tel":"070-8870-9698","addr":"경기도 평택시 진위면 가곡리 506-4번지 1동 1층","category":"일반휴게음식 - 서양음식"}]},{"lat":"37.114757533","long":"127.07311233","items":[{"name":"경기냉동","tel":"031-668-6870","addr":"경기도 평택시 진위면 가곡리 437-2번지","category":"수리서비스 - 기타수리서비스"}]},{"lat":"37.116314604","long":"127.0760054","items":[{"name":"다다꽃화원","tel":"031-662-1338","addr":"경기도 평택시 진위면 가곡리 308-8번지","category":"문화.취미 - 화원"}]},{"lat":"37.113143587","long":"127.08844597","items":[{"name":"대풍ENG","tel":"02-2616-8430","addr":"경기도 평택시 진위면 가곡리 70-10","category":"전기제품 - 기타전기제품"}]},{"lat":"37.114588334","long":"127.06964679","items":[{"name":"맥가이버누수탐지","tel":"031-667-4080","addr":"경기도 평택시 진위면 가곡리 428-2번지","category":"용역 서비스 - 기타용역서비스"}]},{"lat":"37.11783878","long":"127.07370026","items":[{"name":"명륜태권도","tel":"031-662-2848","addr":"경기도 평택시 진위면 가곡리 375-5번지 2층","category":"학원 - 예·체능계학원"}]},{"lat":"37.117316258","long":"127.0735535","items":[{"name":"비비호프치킨","tel":"031-668-9244","addr":"경기도 평택시 진위면 가곡리 380번지 화영상가","category":"일반휴게음식 - 주점"},{"name":"화영미용실","tel":"031-667-4118","addr":"경기도 평택시 진위면 가곡리 380번지 화영아파트 상가 102호","category":"보건위생 - 미용원"}]},{"lat":"37.113539101","long":"127.08975154","items":[{"name":"성심배농원","tel":"031-664-2716","addr":"경기도 평택시 진위면 가곡리 50-3번지","category":"음료식품 - 농·축·수산품"}]},{"lat":"37.115645853","long":"127.06352697","items":[{"name":"수라상가정식뷔페","tel":"02-1577-0000","addr":"경기도 평택시 진위면 가곡리 557-22번지 1층","category":"일반휴게음식 - 일반한식"},{"name":"평송윤활유","tel":"031-664-9900","addr":"경기도 평택시 진위면 가곡리 557-22번지","category":"자동차정비 유지 - 윤활유 전문 판매"}]},{"lat":"37.117753093","long":"127.065869","items":[{"name":"수정","tel":"031-667-9547","addr":"경기도 평택시 진위면 가곡리 538-3번지","category":"보건위생 - 화장품"}]},{"lat":"37.11783828","long":"127.07453289","items":[{"name":"시립가곡어린이집[아이행복]","tel":"031-668-6436","addr":"경기도 평택시 진위면 가곡리 320-7번지","category":"학원 - 유아원"}]},{"lat":"37.116560159","long":"127.07222512","items":[{"name":"신두레박","tel":"031-662-6928","addr":"경기도 평택시 진위면 가곡리 400-4","category":"일반휴게음식 - 스넥"}]},{"lat":"37.109706798","long":"127.08085926","items":[{"name":"아빈우드","tel":"031-667-5536","addr":"경기도 평택시 진위면 가곡리 139-3번지 B동 1층","category":"건축자재 - 기타건축자재"}]},{"lat":"37.114925092","long":"127.06336887","items":[{"name":"아우네순대국","tel":"031-611-9942","addr":"경기도 평택시 진위면 가곡리 557-15번지 1층","category":"일반휴게음식 - 일반한식"},{"name":"아우네순대국","tel":"031-662-2704","addr":"경기도 평택시 진위면 가곡리 557-15번지 1층","category":"음식점 - 한식"}]},{"lat":"37.117341788","long":"127.07602889","items":[{"name":"웃는아이","tel":"031-663-2028","addr":"경기도 평택시 진위면 가곡리 321-1번지 1동","category":"서적문구 - 기타서적문구"}]},{"lat":"37.119011345","long":"127.07166476","items":[{"name":"원일기계","tel":"031-611-5333","addr":"경기도 평택시 진위면 가곡리 344-4번지","category":"기타 - 기계공구"}]},{"lat":"37.11817563","long":"127.06764713","items":[{"name":"존슨상사","tel":"031-667-6942","addr":"경기도 평택시 진위면 가곡리 550-9번지","category":"주방용구 - 주방용구"}]},{"lat":"37.118199415","long":"127.07334054","items":[{"name":"좋은친구네","tel":"031-611-8939","addr":"경기도 평택시 진위면 가곡리 356-14번지 외1필지","category":"일반휴게음식 - 일반한식"}]},{"lat":"37.11565013","long":"127.07216803","items":[{"name":"지니웍스OA","tel":"031-663-5395","addr":"경기도 평택시 진위면 가곡리 419-5번지","category":"전기제품 - 기타전기제품"}]},{"lat":"37.110921393","long":"127.06903604","items":[{"name":"진위고등학교","tel":"031-646-0150","addr":"경기도 평택시 진위면 가곡리 505번지","category":"학원 - 초중고교육기관"},{"name":"진위중고등학교매점","tel":"02-1111-1111","addr":"경기도 평택시 진위면 가곡리 505번지","category":"음료식품 - 기타음료식품"}]},{"lat":"37.119117908","long":"127.07430905","items":[{"name":"행복한 마당","tel":"031-667-2880","addr":"경기도 평택시 진위면 가곡리 367-2번지 1층","category":"일반휴게음식 - 일반한식"}]}]