[{"lat":"37.529737669","long":"127.16681143","imageIndex":7,"items":[{"name":"(유)푸드프린스","tel":"031-111-1111","addr":"경기도 하남시 초이동 623-1번지","indutype":"음료식품 - 농·축·수산품","category":"food"}]},{"lat":"37.530878614","long":"127.16917844","imageIndex":7,"items":[{"name":"(주) 케이크를부탁해","tel":"031-1666-5612","addr":"경기도 하남시 초이동 418-1번지","indutype":"음료식품 - 기타음료식품","category":"food"}]},{"lat":"37.541628162","long":"127.16862524","imageIndex":7,"items":[{"name":"(주)강동씨제이","tel":"031-000-0000","addr":"경기도 하남시 초이동 97-10번지","indutype":"음료식품 - 기타음료식품","category":"food"}]},{"lat":"37.537489548","long":"127.17081109","imageIndex":7,"items":[{"name":"(주)국대한우","tel":"070-8672-1657","addr":"경기도 하남시 초이동 277-1번지","indutype":"음료식품 - 정육점","category":"food"}]},{"lat":"37.534650531","long":"127.17144962","imageIndex":7,"items":[{"name":"(주)명가축산에프앤디","tel":"02-442-9266","addr":"경기도 하남시 초이동 322-125번지","indutype":"음료식품 - 정육점","category":"food"}]},{"lat":"37.53479472","long":"127.17142732","imageIndex":7,"items":[{"name":"(주)비앤에스인터내셔널","tel":"02-469-6077","addr":"경기도 하남시 초이동 322-114번지 1층","indutype":"음료식품 - 기타음료식품","category":"food"}]},{"lat":"37.534846394","long":"127.1730906","imageIndex":7,"items":[{"name":"(주)제이원푸드빌","tel":"02-3426-6233","addr":"경기도 하남시 초이동 322-96번지","indutype":"음료식품 - 정육점","category":"food"}]},{"lat":"37.535151404","long":"127.17400773","imageIndex":7,"items":[{"name":"(주)죽선물산","tel":"031-569-5586","addr":"경기도 하남시 초이동 322-18번지","indutype":"음료식품 - 농·축·수산품","category":"food"}]},{"lat":"37.535207032","long":"127.17292171","imageIndex":7,"items":[{"name":"(주)태성그린푸드","tel":"031-791-8804","addr":"경기도 하남시 초이동 322-122번지","indutype":"음료식품 - 정육점","category":"food"}]},{"lat":"37.533962466","long":"127.17375611","imageIndex":7,"items":[{"name":"도드람양돈협동조합 하남지점","tel":"02-3663-9805","addr":"경기도 하남시 초이동 322-38번지 외1필지건물번호75","indutype":"음료식품 - 정육점","category":"food"}]},{"lat":"37.538569179","long":"127.17189971","imageIndex":7,"items":[{"name":"로니엔리키","tel":"02-3426-3337","addr":"경기도 하남시 초이동 260-1번지 2동","indutype":"음료식품 - 기타음료식품","category":"food"},{"name":"주식회사 국동푸드","tel":"031-000-0000","addr":"경기도 하남시 초이동 250-2번지","indutype":"음료식품 - 기타음료식품","category":"food"}]},{"lat":"37.535238949","long":"127.17576162","imageIndex":7,"items":[{"name":"로또유통","tel":"02-3013-8747","addr":"경기도 하남시 초이동 299-1","indutype":"음료식품 - 기타음료식품","category":"food"}]},{"lat":"37.531815562","long":"127.16270915","imageIndex":7,"items":[{"name":"삼원푸드서비스","tel":"","addr":"경기도 하남시 초이동 384-1번지","indutype":"음료식품 - 기타음료식품","category":"food"}]},{"lat":"37.544513371","long":"127.17350861","imageIndex":7,"items":[{"name":"서부정육점","tel":"02-429-0977","addr":"경기도 하남시 초이동 177-6번지","indutype":"음료식품 - 정육점","category":"food"}]},{"lat":"37.539814407","long":"127.17059","imageIndex":7,"items":[{"name":"선우상회","tel":"02-400-7930","addr":"경기도 하남시 초이동 257번지","indutype":"음료식품 - 기타음료식품","category":"food"}]},{"lat":"37.534956024","long":"127.17203864","imageIndex":7,"items":[{"name":"신일유통","tel":"02-400-4461","addr":"경기도 하남시 초이동 321-2번지","indutype":"음료식품 - 기타음료식품","category":"food"}]},{"lat":"37.53840036","long":"127.17023608","imageIndex":7,"items":[{"name":"에이브이T.F.S","tel":"032-1566-3260","addr":"경기도 하남시 초이동 262-10번지","indutype":"음료식품 - 정육점","category":"food"},{"name":"주식회사 에이브이미트","tel":"02-1566-3260","addr":"경기도 하남시 초이동 262-10번지 1층","indutype":"음료식품 - 정육점","category":"food"}]},{"lat":"37.54001243","long":"127.17072622","imageIndex":7,"items":[{"name":"이디피(EDP) 청담","tel":"","addr":"경기도 하남시 초이동 133-1번지 1층","indutype":"음료식품 - 기타음료식품","category":"food"}]},{"lat":"37.544425227","long":"127.17215055","imageIndex":7,"items":[{"name":"인삼마을","tel":"02-429-3335","addr":"경기도 하남시 초이동 168-2번지","indutype":"건강식품 - 기타건강식품","category":"food"}]},{"lat":"37.534233399","long":"127.17331548","imageIndex":7,"items":[{"name":"주식회사 맛도락","tel":"02-404-9025","addr":"경기도 하남시 초이동 322-26번지","indutype":"음료식품 - 농·축·수산품","category":"food"}]},{"lat":"37.537511391","long":"127.17442044","imageIndex":7,"items":[{"name":"주식회사 선한농장","tel":"02-406-2520","addr":"경기도 하남시 초이동 283-2번지","indutype":"음료식품 - 정육점","category":"food"}]},{"lat":"37.526043692","long":"127.1667581","imageIndex":7,"items":[{"name":"주식회사 세원에프에스","tel":"02-427-6946","addr":"경기도 하남시 초이동 496-1번지","indutype":"음료식품 - 정육점","category":"food"}]},{"lat":"37.534045592","long":"127.17234206","imageIndex":7,"items":[{"name":"천호식품","tel":"","addr":"경기도 하남시 초이동 322-108번지","indutype":"음료식품 - 기타음료식품","category":"food"}]},{"lat":"37.534764865","long":"127.17339589","imageIndex":7,"items":[{"name":"청해수산","tel":"031-2215-8989","addr":"경기도 하남시 초이동 322-21번지","indutype":"음료식품 - 농·축·수산품","category":"food"}]},{"lat":"37.538821503","long":"127.17186633","imageIndex":7,"items":[{"name":"친환경식품","tel":"02-470-6261","addr":"경기도 하남시 초이동 249번지 1층","indutype":"음료식품 - 기타음료식품","category":"food"}]},{"lat":"37.541818779","long":"127.17395508","imageIndex":7,"items":[{"name":"커피로스팅플랫폼 주식회사","tel":"02-817-1025","addr":"경기도 하남시 초이동 153-10번지 1층","indutype":"음료식품 - 기타음료식품","category":"food"}]},{"lat":"37.534342917","long":"127.17234273","imageIndex":7,"items":[{"name":"핫스타WF1","tel":"070-6828-3838","addr":"경기도 하남시 초이동 322-104번지","indutype":"음료식품 - 기타음료식품","category":"food"}]},{"lat":"37.534818237","long":"127.1738712","imageIndex":7,"items":[{"name":"황금어수산","tel":"02-487-3333","addr":"경기도 하남시 초이동 322-48번지","indutype":"음료식품 - 농·축·수산품","category":"food"}]},{"lat":"37.539425954","long":"127.17131328","imageIndex":7,"items":[{"name":"황제유통","tel":"02-427-7780","addr":"경기도 하남시 초이동 254-6번지","indutype":"음료식품 - 농·축·수산품","category":"food"}]},{"lat":"37.539650132","long":"127.17206056","imageIndex":7,"items":[{"name":"횡성한우정육점","tel":"02-427-2277","addr":"경기도 하남시 초이동 244-5번지","indutype":"음료식품 - 정육점","category":"food"}]}]