[{"lat":"37.889100983","long":"126.95783033","items":[{"name":"W.K.무역","tel":"","addr":"경기도 양주시 남면 매곡리 223-11번지","category":"신변잡화 - 기타잡화"}]},{"lat":"37.892906718","long":"126.96918528","items":[{"name":"감악산굼벵이학교","tel":"031-826-5658","addr":"경기도 양주시 남면 매곡리 166-5번지 1층","category":"음료식품 - 농·축·수산품"}]},{"lat":"37.893830731","long":"126.95744091","items":[{"name":"농가맛집매화당","tel":"031-867-5135","addr":"경기도 양주시 남면 매곡리 288-1번지","category":"일반휴게음식 - 일반한식"}]},{"lat":"37.892967272","long":"126.96132952","items":[{"name":"농업회사법인 밀크팜 주식회사","tel":"070-7984-6846","addr":"경기도 양주시 남면 매곡리 46-10번지","category":"음료식품 - 기타음료식품"}]},{"lat":"37.893272448","long":"126.95821433","items":[{"name":"맹골마을영농조합법인","tel":"031-863-6978","addr":"경기도 양주시 남면 매곡리 305번지","category":"학원 - 기타 교육기관"}]},{"lat":"37.89501908","long":"126.95521186","items":[{"name":"맹골사랑영농조합법인","tel":"031-863-6172","addr":"경기도 양주시 남면 매곡리 383-2","category":"음료식품 - 기타음료식품"}]},{"lat":"37.892831376","long":"126.95923777","items":[{"name":"명품생고기전문점","tel":"031-878-3264","addr":"경기도 양주시 남면 매곡리 246-2번지","category":"일반휴게음식 - 일반한식"}]},{"lat":"37.894024055","long":"126.96982142","items":[{"name":"부흥국수 해방촌국수","tel":"031-873-6533","addr":"경기도 양주시 남면 매곡리 61-2번지 1층 일부","category":"음료식품 - 기타음료식품"},{"name":"부흥국수 해방촌국수","tel":"031-868-6533","addr":"경기도 양주시 남면 매곡리 61-2번지","category":"일반휴게음식 - 일반한식"}]},{"lat":"37.894074446","long":"126.95865722","items":[{"name":"삼성냉동","tel":"031-863-8282","addr":"경기도 양주시 남면 매곡리 311/1","category":"전기제품 - 가전제품"}]},{"lat":"37.893156367","long":"126.96104519","items":[{"name":"엘라커피","tel":"031-862-0010","addr":"경기도 양주시 남면 매곡리 46-3번지","category":"음료식품 - 기타음료식품"}]},{"lat":"37.890633121","long":"126.95929591","items":[{"name":"오복가든","tel":"031-865-3474","addr":"경기도 양주시 남면 매곡리 237번지","category":"일반휴게음식 - 일반한식"}]},{"lat":"37.891131584","long":"126.96816293","items":[{"name":"우리웰농장","tel":"031-863-5807","addr":"경기도 양주시 남면 매곡리 168-5","category":"음료식품 - 농·축·수산품"}]},{"lat":"37.891853802","long":"126.97357399","items":[{"name":"우신","tel":"031-862-7343","addr":"경기도 양주시 남면 매곡리 2-14번지","category":"가구 - 일반가구"}]},{"lat":"37.892073683","long":"126.95685083","items":[{"name":"하모니","tel":"031-864-3200","addr":"경기도 양주시 남면 매곡리 258-1번지","category":"건축자재 - 기타건축자재"}]}]