[{"lat":"36.978551665","long":"127.13730787","imageIndex":17,"items":[{"name":"강산유통","tel":"","addr":"경기도 안성시 공도읍 건천리 714-3번지","indutype":"신변잡화 - 기타잡화","category":"other"}]},{"lat":"36.977634078","long":"127.16496828","imageIndex":17,"items":[{"name":"농업회사법인 안성국제화훼단지 주식회사","tel":"031-8057-8989","addr":"경기도 안성시 공도읍 건천리 418-1번지","indutype":"문화.취미 - 화원","category":"other"}]},{"lat":"36.978772692","long":"127.14100332","imageIndex":17,"items":[{"name":"삼일기공","tel":"031-657-7889","addr":"경기도 안성시 공도읍 건천리 638-3번지","indutype":"용역 서비스 - 기타용역서비스","category":"other"}]},{"lat":"36.978161473","long":"127.13969941","imageIndex":17,"items":[{"name":"포비즈","tel":"031-653-3535","addr":"경기도 안성시 공도읍 건천리 665-8번지","indutype":"용역 서비스 - 종합용역","category":"other"}]},{"lat":"36.977633258","long":"127.13669978","imageIndex":17,"items":[{"name":"푸른세기","tel":"031-284-8341","addr":"경기도 안성시 공도읍 건천리 707-15번지","indutype":"전기제품 - 냉열기기","category":"other"}]},{"lat":"36.973244564","long":"127.17854773","imageIndex":7,"items":[{"name":"농업회사법인 주식회사 길갈농원","tel":"031-656-1160","addr":"경기도 안성시 공도읍 건천리 41-1번지","indutype":"음료식품 - 농·축·수산품","category":"food"}]},{"lat":"36.979050878","long":"127.16341014","imageIndex":7,"items":[{"name":"주식회사 팜네트글로벌","tel":"070-8999-0472","addr":"경기도 안성시 공도읍 건천리 400-1번지","indutype":"음료식품 - 농·축·수산품","category":"food"}]}]