[{"lat":"37.676048657","long":"127.20638743","items":[{"name":"(주)남양동산","tel":"031-528-4444","addr":"경기도 남양주시 진건읍 송능리 48-3번지","category":"용역 서비스 - 가례서비스업"},{"name":"남양동산식당","tel":"031-528-4444","addr":"경기도 남양주시 진건읍 송능리 48-3번지","category":"일반휴게음식 - 일반한식"}]},{"lat":"37.648199271","long":"127.20139368","items":[{"name":"(주)디비메디칼","tel":"031-1522-7511","addr":"경기도 남양주시 진건읍 송능리 388-6번지","category":"보건위생 - 의료용품"}]},{"lat":"37.670193582","long":"127.20569137","items":[{"name":"(주)바르미식품","tel":"02-1899-9181","addr":"경기도 남양주시 진건읍 송능리 175-2번지","category":"음료식품 - 기타음료식품"}]},{"lat":"37.670438332","long":"127.21508841","items":[{"name":"(주)블루오션","tel":"02-918-0112","addr":"경기도 남양주시 진건읍 송능리 33-33번지","category":"회원제형태 - 기타4"},{"name":"남양정비기기","tel":"031-527-4199","addr":"경기도 남양주시 진건읍 송능리 33-33번지","category":"기타 - 기계공구"}]},{"lat":"37.675943967","long":"127.20439211","items":[{"name":"(주)쉬레코","tel":"031-573-4672","addr":"경기도 남양주시 진건읍 송능리 49-21번지","category":"신변잡화 - 기타잡화"}]},{"lat":"37.670195134","long":"127.21505371","items":[{"name":"(주)주오","tel":"031-562-1999","addr":"경기도 남양주시 진건읍 송능리 33-34번지 2동","category":"문화.취미 - 애완동물"}]},{"lat":"37.669970905","long":"127.2041946","items":[{"name":"(주)케이씨씨총판대리점현대아이창호","tel":"031-528-6317","addr":"경기도 남양주시 진건읍 송능리 241번지","category":"건축자재 - 기타건축자재"},{"name":"kcc총판대리점 현대아이창호","tel":"031-528-6317","addr":"경기도 남양주시 진건읍 송능리 241번지","category":"건축자재 - 보일러·펌프·샷시"},{"name":"이베스타","tel":"","addr":"경기도 남양주시 진건읍 송능리 241번지","category":"건축자재 - 목재·석재·철물"}]},{"lat":"37.659724995","long":"127.21050206","items":[{"name":"(주)플러스렌탈","tel":"031-573-6033","addr":"경기도 남양주시 진건읍 송능리 319번지","category":"가구 - 기타가구"}]},{"lat":"37.647524993","long":"127.20053072","items":[{"name":"(주)피에스라인","tel":"070-8667-8117","addr":"경기도 남양주시 진건읍 송능리 390-5번지","category":"용역 서비스 - 종합용역"}]},{"lat":"37.640805528","long":"127.20480702","items":[{"name":"CI아키","tel":"031-529-8959","addr":"경기도 남양주시 진건읍 송능리 571번지","category":"건축자재 - 인테리어전문"},{"name":"대영 디자인","tel":"031-574-7535","addr":"경기도 남양주시 진건읍 송능리 571번지 2동","category":"건축자재 - 기타건축자재"},{"name":"주식회사 한국","tel":"031-1577-2047","addr":"경기도 남양주시 진건읍 송능리 571번지","category":"직물 - 카페트,커튼,천막,지물"},{"name":"지앤에프(GNF)유통","tel":"031-528-3440","addr":"경기도 남양주시 진건읍 송능리 571번지","category":"서적문구 - 완구점"}]},{"lat":"37.672692898","long":"127.19819444","items":[{"name":"GS25남양주송능점","tel":"","addr":"경기도 남양주시 진건읍 송능리 121-38번지","category":"유통업 영리 - 편 의 점"},{"name":"우리식당","tel":"031-574-8591","addr":"경기도 남양주시 진건읍 송능리 121-38번지 외2필지","category":"일반휴게음식 - 일반한식"},{"name":"태운케미칼","tel":"031-529-9754","addr":"경기도 남양주시 진건읍 송능리 121-38번지","category":"건축자재 - 페인트"}]},{"lat":"37.672965312","long":"127.20230975","items":[{"name":"HS건철","tel":"031-551-8844","addr":"경기도 남양주시 진건읍 송능리 160-19번지","category":"건축자재 - 목재·석재·철물"}]},{"lat":"37.670577342","long":"127.20255272","items":[{"name":"SS제화","tel":"031-528-8523","addr":"경기도 남양주시 진건읍 송능리 250-2번지","category":"신변잡화 - 제화"}]},{"lat":"37.671996103","long":"127.20002886","items":[{"name":"강남태양열","tel":"031-528-1822","addr":"경기도 남양주시 진건읍 송능리 136-1","category":"건축자재 - 보일러·펌프·샷시"}]},{"lat":"37.672138948","long":"127.20081134","items":[{"name":"강원상사","tel":"031-575-4697","addr":"경기도 남양주시 진건읍 송능리 152-2번지 1층","category":"유통업 영리 - 기타유통업"}]},{"lat":"37.672328491","long":"127.20060781","items":[{"name":"고고노래연습장","tel":"031-574-4741","addr":"경기도 남양주시 진건읍 송능리 151-4번지 2층","category":"레저업소 - 노 래 방"},{"name":"송능한식뷔페쌈밥","tel":"031-527-6878","addr":"경기도 남양주시 진건읍 송능리 151-4번지","category":"일반휴게음식 - 일반한식"}]},{"lat":"37.672690317","long":"127.19974732","items":[{"name":"광주식당","tel":"031-573-3780","addr":"경기도 남양주시 진건읍 송능리 130-3번지","category":"일반휴게음식 - 스넥"},{"name":"미인헤어","tel":"031-573-5791","addr":"경기도 남양주시 진건읍 송능리 130-3번지 1층","category":"보건위생 - 미용원"}]},{"lat":"37.641505155","long":"127.20134187","items":[{"name":"글로벌&물류","tel":"031-529-1475","addr":"경기도 남양주시 진건읍 송능리 541번지","category":"음료식품 - 기타음료식품"}]},{"lat":"37.648524323","long":"127.20097529","items":[{"name":"기호네영양탕","tel":"031-573-3261","addr":"경기도 남양주시 진건읍 송능리 387-1","category":"일반휴게음식 - 일반한식"}]},{"lat":"37.672689938","long":"127.19997402","items":[{"name":"꽃사슴안전","tel":"031-529-7256","addr":"경기도 남양주시 진건읍 송능리 130-2번지 3호","category":"기타 - 기계공구"},{"name":"철원공사","tel":"031-573-6629","addr":"경기도 남양주시 진건읍 송능리 130-2번지","category":"건축자재 - 목재·석재·철물"},{"name":"호랑이","tel":"031-527-8589","addr":"경기도 남양주시 진건읍 송능리 130-2번지","category":"음료식품 - 농·축·수산품"}]},{"lat":"37.676022682","long":"127.20577524","items":[{"name":"남양주자동차매매상사","tel":"031-574-3600","addr":"경기도 남양주시 진건읍 송능리 48-2번지","category":"자동차판매 - 중고자동차판매"},{"name":"대신자동차매매상사","tel":"031-573-9100","addr":"경기도 남양주시 진건읍 송능리 48-2번지","category":"자동차판매 - 중고자동차판매"}]},{"lat":"37.643692839","long":"127.20233345","items":[{"name":"다산냉열","tel":"031-571-9285","addr":"경기도 남양주시 진건읍 송능리 506-2번지","category":"전기제품 - 냉열기기"}]},{"lat":"37.671251138","long":"127.2089133","items":[{"name":"다산자동문","tel":"031-591-2734","addr":"경기도 남양주시 진건읍 송능리 39-1번지 1동","category":"건축자재 - 기타건축자재"}]},{"lat":"37.672193803","long":"127.20033542","items":[{"name":"다솜이네","tel":"031-572-8836","addr":"경기도 남양주시 진건읍 송능리 134-1번지","category":"일반휴게음식 - 일반한식"},{"name":"세븐일레븐송능공단점","tel":"031-1577-0711","addr":"경기도 남양주시 진건읍 송능리 134-1번지","category":"유통업 영리 - 편 의 점"},{"name":"청목","tel":"031-574-0610","addr":"경기도 남양주시 진건읍 송능리 134-1번지","category":"일반휴게음식 - 주점"}]},{"lat":"37.677695495","long":"127.19683593","items":[{"name":"다음기술","tel":"031-527-2016","addr":"경기도 남양주시 진건읍 송능리 57-18번지","category":"자동차판매 - 기타운송"}]},{"lat":"37.662362232","long":"127.21197141","items":[{"name":"다주자월드","tel":"031-595-6568","addr":"경기도 남양주시 진건읍 송능리 286번지 1층","category":"보건위생 - 미용재료"}]},{"lat":"37.669331734","long":"127.20911202","items":[{"name":"닥터벨로(Dr. Velo)","tel":"","addr":"경기도 남양주시 진건읍 송능리 195-1번지","category":"수리서비스 - 레져용품수리"}]},{"lat":"37.672743256","long":"127.20041622","items":[{"name":"대동엔지니어링","tel":"070-8272-7344","addr":"경기도 남양주시 진건읍 송능리 129-4","category":"용역 서비스 - 기타용역서비스"},{"name":"천세 라이프","tel":"031-527-3014","addr":"경기도 남양주시 진건읍 송능리 129-4번지 1층","category":"건강식품 - 기타건강식품"}]},{"lat":"37.66963664","long":"127.21499545","items":[{"name":"대림기업","tel":"031-572-5238","addr":"경기도 남양주시 진건읍 송능리 16-4번지","category":"건축자재 - 기타건축자재"}]},{"lat":"37.661638722","long":"127.21849734","items":[{"name":"대한불교조계종봉인사","tel":"031-574-5585","addr":"경기도 남양주시 진건읍 송능리 307번지 봉인사","category":"기타 - 비영리/대상"},{"name":"봉인사","tel":"","addr":"경기도 남양주시 진건읍 송능리 307번지","category":"레저업소 - 기타레져업소"},{"name":"봉인사 청림공원","tel":"031-527-5678","addr":"경기도 남양주시 진건읍 송능리 307번지 외2필지","category":"회원제형태 - 기타4"}]},{"lat":"37.670000113","long":"127.20291388","items":[{"name":"대한예수교장로회성신장로교회","tel":"031-529-9939","addr":"경기도 남양주시 진건읍 송능리 236번지","category":"기타 - 기타 전문점"}]},{"lat":"37.676466621","long":"127.20433684","items":[{"name":"더미 더미","tel":"","addr":"경기도 남양주시 진건읍 송능리 49-7번지 2동 1층","category":"의류 - 정장"}]},{"lat":"37.64738943","long":"127.20077964","items":[{"name":"덕바위 육묘장","tel":"031-574-8180","addr":"경기도 남양주시 진건읍 송능리 393번지","category":"농업 - 비료,사료,종자"}]},{"lat":"37.674913779","long":"127.20619163","items":[{"name":"동산농장오리촌","tel":"031-529-5363","addr":"경기도 남양주시 진건읍 송능리 산19번지","category":"일반휴게음식 - 일반한식"}]},{"lat":"37.672771989","long":"127.19939615","items":[{"name":"두원건철","tel":"031-528-9808","addr":"경기도 남양주시 진건읍 송능리 115-10번지 외1필지 103호","category":"건축자재 - 목재·석재·철물"},{"name":"에어존","tel":"031-111-1111","addr":"경기도 남양주시 진건읍 송능리 115-10번지 1층 2호","category":"기타 - 기계공구"}]},{"lat":"37.648388664","long":"127.20128087","items":[{"name":"드랍슛(Drop Shoot)","tel":"031-529-1386","addr":"경기도 남양주시 진건읍 송능리 388-2번지","category":"신변잡화 - 기타잡화"}]},{"lat":"37.641052799","long":"127.20245102","items":[{"name":"라라아쿠아","tel":"031-573-1814","addr":"경기도 남양주시 진건읍 송능리 562-1번지 1동","category":"문화.취미 - 수족관"}]},{"lat":"37.640003009","long":"127.19986498","items":[{"name":"라씨에르","tel":"031-528-4410","addr":"경기도 남양주시 진건읍 송능리 529번지 1층","category":"가구 - 일반가구"}]},{"lat":"37.673915294","long":"127.19447972","items":[{"name":"만수 염소탕","tel":"070-2648-1548","addr":"경기도 남양주시 진건읍 송능리 84-6번지 1층 일부","category":"일반휴게음식 - 일반한식"}]},{"lat":"37.674189188","long":"127.19777896","items":[{"name":"매점","tel":"031-570-3000","addr":"경기도 남양주시 진건읍 송능리 62-1번지 진건고등학교","category":"음료식품 - 기타음료식품"}]},{"lat":"37.673022498","long":"127.20045097","items":[{"name":"메트로펫","tel":"031-529-2022","addr":"경기도 남양주시 진건읍 송능리 113-6번지","category":"문화.취미 - 애완동물"}]},{"lat":"37.66919207","long":"127.20652739","items":[{"name":"명승제과","tel":"031-573-8216","addr":"경기도 남양주시 진건읍 송능리 178-6번지","category":"음료식품 - 제과점"}]},{"lat":"37.670862892","long":"127.20938829","items":[{"name":"모스트 MOST","tel":"031-573-4457","addr":"경기도 남양주시 진건읍 송능리 188번지 외 6필지","category":"건축자재 - 인테리어전문"}]},{"lat":"37.64491951","long":"127.20153225","items":[{"name":"문희성파워리그","tel":"","addr":"경기도 남양주시 진건읍 송능리 488-2 외5필지","category":"레저업소 - 기타레져업소"}]},{"lat":"37.648496399","long":"127.20150778","items":[{"name":"반구정식품","tel":"031-528-8752","addr":"경기도 남양주시 진건읍 송능리 388-1번지 1층","category":"음료식품 - 기타음료식품"},{"name":"아지펫","tel":"031-555-6544","addr":"경기도 남양주시 진건읍 송능리 388-1번지 1층","category":"문화.취미 - 애완동물"}]},{"lat":"37.673083375","long":"127.19633652","items":[{"name":"배터리전문점","tel":"031-574-2428","addr":"경기도 남양주시 진건읍 송능리 105-1번지","category":"자동차정비 유지 - 자동차부품"},{"name":"베스트부동산공인중개사사무소","tel":"031-529-0019","addr":"경기도 남양주시 진건읍 송능리 105-1","category":"용역 서비스 - 부동산 중개·임대"}]},{"lat":"37.673034794","long":"127.19847871","items":[{"name":"백설공주","tel":"070-8271-6960","addr":"경기도 남양주시 진건읍 송능리 117-2번지 경남하이츠빌라 B동 201호","category":"보건위생 - 화장품"}]},{"lat":"37.6749706","long":"127.20458217","items":[{"name":"범퍼피아","tel":"031-527-2667","addr":"경기도 남양주시 진건읍 송능리 50-6번지","category":"자동차정비 유지 - 카인테리어"}]},{"lat":"37.671219586","long":"127.20103559","items":[{"name":"베스트영","tel":"","addr":"경기도 남양주시 진건읍 송능리 141-2번지 제우스상사 1동 1층","category":"유통업 영리 - 기타유통업"}]},{"lat":"37.657524412","long":"127.20660884","items":[{"name":"벧엘식품","tel":"031-574-6294","addr":"경기도 남양주시 진건읍 송능리 341-1번지","category":"음료식품 - 기타음료식품"}]},{"lat":"37.673020975","long":"127.20135776","items":[{"name":"벽지촌","tel":"031-574-2733","addr":"경기도 남양주시 진건읍 송능리 158-7","category":"직물 - 카페트,커튼,천막,지물"}]},{"lat":"37.669390517","long":"127.20639192","items":[{"name":"본퍼니처","tel":"031-573-5767","addr":"경기도 남양주시 진건읍 송능리 178-5번지","category":"가구 - 일반가구"},{"name":"트윈스진열장","tel":"031-529-6381","addr":"경기도 남양주시 진건읍 송능리 178-5","category":"가구 - 일반가구"}]},{"lat":"37.672328111","long":"127.20083451","items":[{"name":"봉구시스템","tel":"031-591-6148","addr":"경기도 남양주시 진건읍 송능리 151-7번지 성진빌라 A동 301호","category":"건축자재 - 인테리어전문"}]},{"lat":"37.669573047","long":"127.20503228","items":[{"name":"부자밥상","tel":"031-574-0767","addr":"경기도 남양주시 진건읍 송능리 174-10번지 원미그린빌라 C동 101호","category":"일반휴게음식 - 일반한식"}]},{"lat":"37.675887329","long":"127.19514225","items":[{"name":"빅맨바이크","tel":"031-572-1243","addr":"경기도 남양주시 진건읍 송능리 59번지","category":"자동차판매 - 이륜차판매"}]},{"lat":"37.671083624","long":"127.21697181","items":[{"name":"사단법인한국냉동공조시공관리협회","tel":"031-528-0471","addr":"경기도 남양주시 진건읍 송능리 15-25번지 2층","category":"기타 - 비영리/비대상"},{"name":"한국축산물유통센터","tel":"031-528-1984","addr":"경기도 남양주시 진건읍 송능리 15-25번지 1동","category":"음료식품 - 정육점"}]},{"lat":"37.668549835","long":"127.20799909","items":[{"name":"상도식품","tel":"031-574-6435","addr":"경기도 남양주시 진건읍 송능리 206번지","category":"음료식품 - 기타음료식품"}]},{"lat":"37.647441134","long":"127.20744247","items":[{"name":"생명살리기안심먹거리협동조합","tel":"031-000-0000","addr":"경기도 남양주시 진건읍 송능리 452번지","category":"음료식품 - 농·축·수산품"}]},{"lat":"37.647469528","long":"127.20136907","items":[{"name":"서광디엔피","tel":"031-571-5396","addr":"경기도 남양주시 진건읍 송능리 394-13번지 나동 1층","category":"서적문구 - 출판 및 인쇄물"},{"name":"적송골식당","tel":"031-573-7527","addr":"경기도 남양주시 진건읍 송능리 394-13","category":"일반휴게음식 - 일반한식"}]},{"lat":"37.646027143","long":"127.20186379","items":[{"name":"성지물류 주식회사","tel":"031-574-2664","addr":"경기도 남양주시 진건읍 송능리 433번지","category":"음료식품 - 기타음료식품"}]},{"lat":"37.672494443","long":"127.19834127","items":[{"name":"세븐일레븐남양주송능점","tel":"","addr":"경기도 남양주시 진건읍 송능리 121-3","category":"유통업 영리 - 편 의 점"}]},{"lat":"37.669243969","long":"127.20777431","items":[{"name":"세진실업","tel":"02-714-5358","addr":"경기도 남양주시 진건읍 송능리 179-1번지","category":"신변잡화 - 기타잡화"},{"name":"셀프케어팜","tel":"","addr":"경기도 남양주시 진건읍 송능리 179-1번지 1층","category":"건강식품 - 기타건강식품"},{"name":"에뜨왈","tel":"070-7997-0318","addr":"경기도 남양주시 진건읍 송능리 179-1번지","category":"일반휴게음식 - 서양음식"}]},{"lat":"37.673334322","long":"127.19714196","items":[{"name":"송능어린이집[아이행복]","tel":"031-573-9222","addr":"경기도 남양주시 진건읍 송능리 109-17번지 노인복지회관 내","category":"학원 - 유아원"}]},{"lat":"37.673715957","long":"127.19517065","items":[{"name":"수돈까스","tel":"031-529-2929","addr":"경기도 남양주시 진건읍 송능리 93-2번지","category":"일반휴게음식 - 서양음식"},{"name":"카페플라워","tel":"031-575-1360","addr":"경기도 남양주시 진건읍 송능리 93-2번지 중고백화점 1층","category":"일반휴게음식 - 서양음식"}]},{"lat":"37.672885201","long":"127.19631334","items":[{"name":"시골밥상","tel":"031-529-5928","addr":"경기도 남양주시 진건읍 송능리 105번지","category":"일반휴게음식 - 일반한식"}]},{"lat":"37.67294234","long":"127.19989534","items":[{"name":"시골순대국","tel":"031-571-9461","addr":"경기도 남양주시 진건읍 송능리 129-3번지 경남하이츠빌라","category":"일반휴게음식 - 일반한식"}]},{"lat":"37.660856438","long":"127.21263584","items":[{"name":"시냇가사슴흙염소농장","tel":"031-573-5371","addr":"경기도 남양주시 진건읍 송능리 291번지","category":"음료식품 - 농·축·수산품"}]},{"lat":"37.669830361","long":"127.20733388","items":[{"name":"신라산업","tel":"031-574-6543","addr":"경기도 남양주시 진건읍 송능리 181-2번지","category":"주방용구 - 주방용구"}]},{"lat":"37.672526037","long":"127.20100506","items":[{"name":"신발할인매장","tel":"031-528-4249","addr":"경기도 남양주시 진건읍 송능리 150-5번지","category":"신변잡화 - 신발"},{"name":"써니포차","tel":"031-000-0000","addr":"경기도 남양주시 진건읍 송능리 150-5번지","category":"일반휴게음식 - 주점"},{"name":"일광","tel":"031-575-2490","addr":"경기도 남양주시 진건읍 송능리 150-5번지","category":"건축자재 - 조명기구"},{"name":"착한식당","tel":"031-575-1025","addr":"경기도 남양주시 진건읍 송능리 150-5번지 1층","category":"일반휴게음식 - 일반한식"}]},{"lat":"37.674078147","long":"127.19406074","items":[{"name":"아이온플러스","tel":"031-574-0230","addr":"경기도 남양주시 진건읍 송능리 85-5번지","category":"서적문구 - 출판 및 인쇄물"}]},{"lat":"37.668274425","long":"127.21092258","items":[{"name":"약수울타리식당","tel":"031-574-9087","addr":"경기도 남양주시 진건읍 송능리 29-1번지","category":"일반휴게음식 - 일반한식"}]},{"lat":"37.670977486","long":"127.20034353","items":[{"name":"여우야","tel":"031-573-1090","addr":"경기도 남양주시 진건읍 송능리 139-4 월드빌라 103-304 29/","category":"의류 - 정장"}]},{"lat":"37.63989233","long":"127.20139423","items":[{"name":"예목화실","tel":"031-592-7598","addr":"경기도 남양주시 진건읍 송능리 535-2번지","category":"학원 - 예·체능계학원"}]},{"lat":"37.675222515","long":"127.19397299","items":[{"name":"오거토크코리아","tel":"031-574-2202","addr":"경기도 남양주시 진건읍 송능리 68-3번지","category":"기타 - 기계공구"}]},{"lat":"37.668995014","long":"127.2110266","items":[{"name":"우리인테리어","tel":"031-528-5765","addr":"경기도 남양주시 진건읍 송능리 30-2번지","category":"직물 - 카페트,커튼,천막,지물"}]},{"lat":"37.668828106","long":"127.20858924","items":[{"name":"우성상사","tel":"02-433-2531","addr":"경기도 남양주시 진건읍 송능리 196-5번지","category":"자동차정비 유지 - 자동차부품"}]},{"lat":"37.67235681","long":"127.19983712","items":[{"name":"원조멸치국수 진건점","tel":"031-572-9981","addr":"경기도 남양주시 진건읍 송능리 133번지 1층","category":"일반휴게음식 - 일반한식"},{"name":"줄눈스토어","tel":"031-574-2064","addr":"경기도 남양주시 진건읍 송능리 133번지 2층 (133외1필지)","category":"건축자재 - 인테리어전문"}]},{"lat":"37.642998002","long":"127.20297743","items":[{"name":"원조옛날에손만두국","tel":"031-575-9323","addr":"경기도 남양주시 진건읍 송능리 509번지 1층","category":"일반휴게음식 - 일반한식"}]},{"lat":"37.64869335","long":"127.20225617","items":[{"name":"웰빙코리아","tel":"","addr":"경기도 남양주시 진건읍 송능리 401-4번지","category":"신변잡화 - 기타잡화"}]},{"lat":"37.674493788","long":"127.20417282","items":[{"name":"유니온가구","tel":"031-529-9920","addr":"경기도 남양주시 진건읍 송능리 50-10번지","category":"가구 - 일반가구"}]},{"lat":"37.672633543","long":"127.20136806","items":[{"name":"이가네통큰민물매운탕","tel":"031-573-7008","addr":"경기도 남양주시 진건읍 송능리 155-1번지","category":"일반휴게음식 - 일반한식"}]},{"lat":"37.66844437","long":"127.20646867","items":[{"name":"제로크린(ZEROCLEAN)","tel":"031-661-9072","addr":"경기도 남양주시 진건읍 송능리 208-2번지","category":"신변잡화 - 기타잡화"}]},{"lat":"37.6708312","long":"127.20161263","items":[{"name":"제이다이아 연마","tel":"070-4001-2376","addr":"경기도 남양주시 진건읍 송능리 252번지","category":"기타 - 기계공구"}]},{"lat":"37.669746379","long":"127.20377462","items":[{"name":"주막거리","tel":"031-573-5599","addr":"경기도 남양주시 진건읍 송능리 238-1번지","category":"일반휴게음식 - 주점"}]},{"lat":"37.669168688","long":"127.20961028","items":[{"name":"주식회사 아이스타","tel":"02-1811-1974","addr":"경기도 남양주시 진건읍 송능리 199-4번지","category":"음료식품 - 기타음료식품"}]},{"lat":"37.669385609","long":"127.20400034","items":[{"name":"주식회사 엘모어","tel":"02-536-6008","addr":"경기도 남양주시 진건읍 송능리 237-3번지","category":"보건위생 - 화장품"},{"name":"주식회사신화제약","tel":"031-529-7021","addr":"경기도 남양주시 진건읍 송능리 237-3번지","category":"신변잡화 - 기타잡화"}]},{"lat":"37.641609803","long":"127.20339292","items":[{"name":"주식회사 예감","tel":"031-521-8006","addr":"경기도 남양주시 진건읍 송능리 557-1번지","category":"건축자재 - 기타건축자재"}]},{"lat":"37.670606475","long":"127.20130599","items":[{"name":"주식회사 타임머신발열침대","tel":"031-575-3633","addr":"경기도 남양주시 진건읍 송능리 253번지","category":"가구 - 일반가구"}]},{"lat":"37.669389792","long":"127.20681129","items":[{"name":"주식회사 하이큐정밀","tel":"031-574-2358","addr":"경기도 남양주시 진건읍 송능리 180-2번지","category":"기타 - 기계공구"}]},{"lat":"37.669248138","long":"127.2053601","items":[{"name":"주식회사 햇빛나눔 경기지사","tel":"031-529-5128","addr":"경기도 남양주시 진건읍 송능리 210번지","category":"용역 서비스 - 기타용역서비스"}]},{"lat":"37.669993593","long":"127.20672226","items":[{"name":"주식회사비아트","tel":"031-527-6070","addr":"경기도 남양주시 진건읍 송능리 183-4번지","category":"건축자재 - 인테리어전문"}]},{"lat":"37.674305301","long":"127.20375291","items":[{"name":"주식회사이카루스","tel":"031-527-1602","addr":"경기도 남양주시 진건읍 송능리 50-2","category":"의류 - 정장"}]},{"lat":"37.669556638","long":"127.20930533","items":[{"name":"주식회사탐진기획","tel":"031-575-0070","addr":"경기도 남양주시 진건읍 송능리 199-8","category":"용역 서비스 - 종합용역"}]},{"lat":"37.641471357","long":"127.20000482","items":[{"name":"주식회사투바이유통사업단","tel":"031-528-4040","addr":"경기도 남양주시 진건읍 송능리 549-7번지 사릉로","category":"사무통신 - 통신기기"},{"name":"투바이플러스영농조합법인","tel":"031-528-4040","addr":"경기도 남양주시 진건읍 송능리 549-7번지","category":"음료식품 - 농·축·수산품"}]},{"lat":"37.670993564","long":"127.20149971","items":[{"name":"주식회사파워테크놀러지","tel":"","addr":"경기도 남양주시 진건읍 송능리 143-2번지","category":"전기제품 - 기타전기제품"}]},{"lat":"37.649333035","long":"127.20225788","items":[{"name":"주식회사피엔지테크놀러지","tel":"031-527-2802","addr":"경기도 남양주시 진건읍 송능리 376-1번지","category":"의류 - 정장"}]},{"lat":"37.673109101","long":"127.2025255","items":[{"name":"준디자인폰테가구","tel":"031-575-2001","addr":"경기도 남양주시 진건읍 송능리 160-4번지 (송능리160-17,건물2동일체)","category":"가구 - 일반가구"},{"name":"폰테가구백화점","tel":"031-528-5870","addr":"경기도 남양주시 진건읍 송능리 160-4번지 외1(160-17)","category":"가구 - 일반가구"}]},{"lat":"37.671417341","long":"127.20130815","items":[{"name":"중앙측량설계사무소","tel":"031-573-2446","addr":"경기도 남양주시 진건읍 송능리 141-1번지","category":"용역 서비스 - 사무서비스"}]},{"lat":"37.672329175","long":"127.20019976","items":[{"name":"진로할인마트","tel":"031-529-4100","addr":"경기도 남양주시 진건읍 송능리 132번지 1층 상가","category":"유통업 영리 - 슈퍼마켓"}]},{"lat":"37.669578759","long":"127.20694782","items":[{"name":"진명특수곡유리","tel":"031-873-8921","addr":"경기도 남양주시 진건읍 송능리 180번지","category":"건축자재 - 보일러·펌프·샷시"}]},{"lat":"37.6398584","long":"127.20013652","items":[{"name":"천마산용품점","tel":"031-595-4241","addr":"경기도 남양주시 진건읍 송능리 530","category":"레져용품 - 스포츠·레져용품"}]},{"lat":"37.643053995","long":"127.2018332","items":[{"name":"첼로우드","tel":"031-575-5122","addr":"경기도 남양주시 진건읍 송능리 518-1번지","category":"가구 - 일반가구"}]},{"lat":"37.649170727","long":"127.20233677","items":[{"name":"캠프랜드","tel":"031-595-9164","addr":"경기도 남양주시 진건읍 송능리 401-7","category":"레져용품 - 스포츠·레져용품"}]},{"lat":"37.672778687","long":"127.20077903","items":[{"name":"컷토피아","tel":"031-529-7748","addr":"경기도 남양주시 진건읍 송능리 154-1번지 1층 우측호","category":"보건위생 - 미용원"}]},{"lat":"37.644469351","long":"127.20133843","items":[{"name":"타이어스토리 바이 깜","tel":"070-8945-3313","addr":"경기도 남양주시 진건읍 송능리 504-4번지 1동","category":"자동차정비 유지 - 자동차시트·타이어"}]},{"lat":"37.673443313","long":"127.1966095","items":[{"name":"타이어코어 진건점","tel":"","addr":"경기도 남양주시 진건읍 송능리 110-1번지","category":"자동차정비 유지 - 자동차시트·타이어"}]},{"lat":"37.669244345","long":"127.21769193","items":[{"name":"타이어투어","tel":"031-575-7993","addr":"경기도 남양주시 진건읍 송능리 산50-1번지","category":"자동차정비 유지 - 자동차시트·타이어"}]},{"lat":"37.67069464","long":"127.20245103","items":[{"name":"태성메디텍","tel":"031-5734-7620","addr":"경기도 남양주시 진건읍 송능리 250-1번지","category":"레져용품 - 스포츠·레져용품"}]},{"lat":"37.641586908","long":"127.20094553","items":[{"name":"태양주방","tel":"031-575-0604","addr":"경기도 남양주시 진건읍 송능리 553-3번지","category":"기타 - 기타 전문점"}]},{"lat":"37.669276215","long":"127.20474811","items":[{"name":"태평양세광대리점","tel":"031-574-0078","addr":"경기도 남양주시 진건읍 송능리 237-11번지","category":"보건위생 - 화장품"}]},{"lat":"37.641255503","long":"127.19977765","items":[{"name":"투바이플러스영농조합법인남양주점","tel":"031-574-5511","addr":"경기도 남양주시 진건읍 송능리 549-5번지","category":"음료식품 - 정육점"}]},{"lat":"37.641255182","long":"127.19997026","items":[{"name":"프로하스","tel":"031-529-4801","addr":"경기도 남양주시 진건읍 송능리 549번지 외12필지","category":"일반휴게음식 - 서양음식"},{"name":"프로하스/퓨전일식","tel":"031-529-4801","addr":"경기도 남양주시 진건읍 송능리 549번지 외12필지","category":"일반휴게음식 - 서양음식"},{"name":"프로하스/한식","tel":"031-529-4801","addr":"경기도 남양주시 진건읍 송능리 549번지 외12필지","category":"일반휴게음식 - 일반한식"}]},{"lat":"37.66893984","long":"127.20650403","items":[{"name":"한국프레나","tel":"031-527-2564","addr":"경기도 남양주시 진건읍 송능리 209-5","category":"전기제품 - 가전제품"}]},{"lat":"37.671914372","long":"127.20041402","items":[{"name":"한세무역","tel":"031-575-8284","addr":"경기도 남양주시 진건읍 송능리 137-9번지 1동","category":"직물 - 침구·수예점"}]},{"lat":"37.659975705","long":"127.21138674","items":[{"name":"행복유통","tel":"031-111-1111","addr":"경기도 남양주시 진건읍 송능리 318번지","category":"보건위생 - 화장품"}]},{"lat":"37.672772555","long":"127.1990561","items":[{"name":"행복일번지분식카페","tel":"031-575-6080","addr":"경기도 남양주시 진건읍 송능리 115-22번지","category":"일반휴게음식 - 스넥"}]},{"lat":"37.648893585","long":"127.20105559","items":[{"name":"현대식품","tel":"031-573-3668","addr":"경기도 남양주시 진건읍 송능리 382-1번지","category":"음료식품 - 기타음료식품"}]},{"lat":"37.672384821","long":"127.19924778","items":[{"name":"현대자동차공업사","tel":"031-573-6696","addr":"경기도 남양주시 진건읍 송능리 126-2번지","category":"자동차정비 유지 - 자동차정비"}]},{"lat":"37.675384712","long":"127.204776","items":[{"name":"화이트","tel":"031-527-5312","addr":"경기도 남양주시 진건읍 송능리 50-1","category":"가구 - 일반가구"}]},{"lat":"37.67518911","long":"127.19234062","items":[{"name":"황금유통","tel":"031-572-0878","addr":"경기도 남양주시 진건읍 송능리 74번지","category":"음료식품 - 제과점"}]},{"lat":"37.669303972","long":"127.20953132","items":[{"name":"휴먼바이브","tel":"031-575-0521","addr":"경기도 남양주시 진건읍 송능리 199-1번지 2층","category":"회원제형태 - 기타4"}]},{"lat":"37.671913612","long":"127.20086741","items":[{"name":"흑룡각","tel":"031-573-3005","addr":"경기도 남양주시 진건읍 송능리 136-7번지","category":"일반휴게음식 - 중국식"}]},{"lat":"37.669663435","long":"127.20486251","items":[{"name":"힐링 스토어","tel":"031-573-0771","addr":"경기도 남양주시 진건읍 송능리 174-3번지 원미그린빌라 A동 104호","category":"유통업 영리 - 슈퍼마켓"}]}]