[{"lat":"37.299877886","long":"127.40571366","items":[{"name":"(주)신한도요신둔지점","tel":"031-637-4009","addr":"경기도 이천시 신둔면 수남리 1,3","category":"문화.취미 - 민예·공예품"},{"name":"이공도자기판매점","tel":"031-637-2053","addr":"경기도 이천시 신둔면 수남리 1번지 B-1호","category":"주방용구 - 주방용식기"}]},{"lat":"37.292376551","long":"127.40182801","items":[{"name":"SMI(주)","tel":"031-637-7203","addr":"경기도 이천시 신둔면 수남리 159-4번지","category":"농업 - 비료,사료,종자"},{"name":"햇담","tel":"031-637-7203","addr":"경기도 이천시 신둔면 수남리 159-4번지","category":"일반휴게음식 - 일반한식"}]},{"lat":"37.299153664","long":"127.40671359","items":[{"name":"경기동부인삼농업협동조합-인삼유통센터(2)","tel":"031-635-2429","addr":"경기도 이천시 신둔면 수남리 4-3번지","category":"건강식품 - 인삼제품"},{"name":"경기동부인삼농업협동조합-인삼유통센터(2)","tel":"031-637-3435","addr":"경기도 이천시 신둔면 수남리 4-3번지","category":"농업 - 기타농업관련"}]},{"lat":"37.298855371","long":"127.40699396","items":[{"name":"경기동부인삼농협협동조합-인삼유통센터","tel":"031-638-3436","addr":"경기도 이천시 신둔면 수남리 48번지 인삼유통센터","category":"건강식품 - 홍삼제품"}]},{"lat":"37.298216569","long":"127.40140771","items":[{"name":"고블린","tel":"","addr":"경기도 이천시 신둔면 수남리 10-10번지","category":"일반휴게음식 - 서양음식"}]},{"lat":"37.289413314","long":"127.4014966","items":[{"name":"국제종합기계","tel":"031-638-8360","addr":"경기도 이천시 신둔면 수남리 163-3번지","category":"농업 - 농기계"}]},{"lat":"37.298772376","long":"127.40490698","items":[{"name":"대영서비스이천점","tel":"","addr":"경기도 이천시 신둔면 수남리 45-4번지","category":"수리서비스 - 가정용품수리"}]},{"lat":"37.296598821","long":"127.40019241","items":[{"name":"도예농","tel":"031-637-6555","addr":"경기도 이천시 신둔면 수남리 211-1번지","category":"문화.취미 - 민예·공예품"}]},{"lat":"37.294383308","long":"127.40523324","items":[{"name":"드르와편의점","tel":"031-638-7988","addr":"경기도 이천시 신둔면 수남리 108번지 롯데빌리지 103동 104호","category":"음료식품 - 기타음료식품"}]},{"lat":"37.293300016","long":"127.40318621","items":[{"name":"뚜러콜","tel":"","addr":"경기도 이천시 신둔면 수남리 127번지 2층 201호","category":"용역 서비스 - 기타용역서비스"}]},{"lat":"37.298771892","long":"127.40769278","items":[{"name":"레인보우호텔","tel":"031-637-3084","addr":"경기도 이천시 신둔면 수남리 81-3번지 1층","category":"숙박업 - 여관/기타숙박업"}]},{"lat":"37.298819952","long":"127.40416285","items":[{"name":"롱브릭스","tel":"031-0000-0000","addr":"경기도 이천시 신둔면 수남리 6-14번지","category":"일반휴게음식 - 서양음식"}]},{"lat":"37.297798267","long":"127.40254462","items":[{"name":"만세국수","tel":"031-637-0098","addr":"경기도 이천시 신둔면 수남리 32-2번지 1층","category":"일반휴게음식 - 일반한식"},{"name":"엄마네식당","tel":"031-638-6077","addr":"경기도 이천시 신둔면 수남리 32-2번지","category":"일반휴게음식 - 일반한식"}]},{"lat":"37.2984119","long":"127.4022659","items":[{"name":"멸치국시와돈까스 2호점","tel":"031-638-5562","addr":"경기도 이천시 신둔면 수남리 6-1번지 1층","category":"일반휴게음식 - 일반한식"}]},{"lat":"37.295632382","long":"127.39549565","items":[{"name":"모아농자재","tel":"","addr":"경기도 이천시 신둔면 수남리 188-1번지","category":"농업 - 기타농업관련"},{"name":"원풍농자재산업(주)","tel":"070-7724-5560","addr":"경기도 이천시 신둔면 수남리 188-1","category":"농업 - 기타농업관련"}]},{"lat":"37.287488313","long":"127.40055047","items":[{"name":"미진도예","tel":"031-638-6582","addr":"경기도 이천시 신둔면 수남리 173","category":"주방용구 - 주방용식기"}]},{"lat":"37.294236385","long":"127.40604447","items":[{"name":"보람환경","tel":"","addr":"경기도 이천시 신둔면 수남리 108번지 롯데빌리지 102동 302호","category":"용역 서비스 - 종합용역"}]},{"lat":"37.296241331","long":"127.39932211","items":[{"name":"산수","tel":"031-632-3005","addr":"경기도 이천시 신둔면 수남리 210-4번지","category":"일반휴게음식 - 중국식"}]},{"lat":"37.292659108","long":"127.39546892","items":[{"name":"서이천공업사","tel":"031-634-6020","addr":"경기도 이천시 신둔면 수남리 236-1번지","category":"자동차정비 유지 - 자동차정비"},{"name":"씨유서이천IC점","tel":"031-638-5144","addr":"경기도 이천시 신둔면 수남리 236-1번지","category":"유통업 영리 - 편 의 점"}]},{"lat":"37.296153533","long":"127.39863368","items":[{"name":"웰푸드","tel":"031-638-0486","addr":"경기도 이천시 신둔면 수남리 208-6번지","category":"음료식품 - 기타음료식품"}]},{"lat":"37.287821609","long":"127.40057478","items":[{"name":"이천도자기","tel":"070-8232-2299","addr":"경기도 이천시 신둔면 수남리 175-1","category":"주방용구 - 주방용식기"}]},{"lat":"37.288939612","long":"127.40035512","items":[{"name":"장휘고려청자연구소","tel":"031-638-7446","addr":"경기도 이천시 신둔면 수남리 176번지","category":"문화.취미 - 민예·공예품"}]},{"lat":"37.289046709","long":"127.40066016","items":[{"name":"제스퍼즈(JASPERs)","tel":"031-637-7446","addr":"경기도 이천시 신둔면 수남리 176-1번지","category":"문화.취미 - 민예·공예품"}]},{"lat":"37.288826489","long":"127.39915916","items":[{"name":"한국도예고 교육공동체 사회적 협동조합","tel":"031-6386-6967","addr":"경기도 이천시 신둔면 수남리 176-4번지","category":"문화.취미 - 민예·공예품"},{"name":"한국도예고등학교","tel":"031-638-6841","addr":"경기도 이천시 신둔면 수남리 176-4번지 한국도예고등학교","category":"학원 - 초중고교육기관"}]},{"lat":"37.296383715","long":"127.39985293","items":[{"name":"해송도요","tel":"031-633-3307","addr":"경기도 이천시 신둔면 수남리 210-5번지","category":"주방용구 - 주방용식기"}]}]