[{"lat":"37.829026166","long":"126.83686137","items":[{"name":"(유)가온전력공사","tel":"031-945-1055","addr":"경기도 파주시 파주읍 연풍리 296-38번지","category":"전기제품 - 기타전기제품"}]},{"lat":"37.832192829","long":"126.83359416","items":[{"name":"(주) 엠앤엠","tel":"02-6101-9978","addr":"경기도 파주시 파주읍 연풍리 416-9번지","category":"건축자재 - 부동산 분양"}]},{"lat":"37.827445314","long":"126.84030656","items":[{"name":"25시노래연습장","tel":"031-952-4219","addr":"경기도 파주시 파주읍 연풍리 291-9번지","category":"레저업소 - 노 래 방"},{"name":"칠보당","tel":"031-952-4213","addr":"경기도 파주시 파주읍 연풍리 291-9번지","category":"신변잡화 - 액세서리"}]},{"lat":"37.828884864","long":"126.83889491","items":[{"name":"6000컷트","tel":"031-952-6254","addr":"경기도 파주시 파주읍 연풍리 294-9번지","category":"보건위생 - 미용원"}]},{"lat":"37.829053865","long":"126.83733838","items":[{"name":"FEELING INTERIOR (필링 인테리어)","tel":"031-954-1078","addr":"경기도 파주시 파주읍 연풍리 278-28번지","category":"건축자재 - 인테리어전문"}]},{"lat":"37.824333979","long":"126.8380872","items":[{"name":"JH comoany","tel":"070-7719-5566","addr":"경기도 파주시 파주읍 연풍리 335-31번지","category":"의류 - 아동의류"}]},{"lat":"37.829137506","long":"126.83916697","items":[{"name":"가나다안경","tel":"031-952-9884","addr":"경기도 파주시 파주읍 연풍리 281-5번지","category":"보건위생 - 안경"}]},{"lat":"37.82874657","long":"126.83664618","items":[{"name":"가온전기","tel":"031-945-1055","addr":"경기도 파주시 파주읍 연풍리 296-44번지","category":"전기제품 - 기타전기제품"}]},{"lat":"37.837025147","long":"126.83588921","items":[{"name":"가위만드는사람들","tel":"031-953-5676","addr":"경기도 파주시 파주읍 연풍리 257-1번지","category":"보건위생 - 미용재료"}]},{"lat":"37.829082453","long":"126.83845148","items":[{"name":"경기설비","tel":"031-954-2764","addr":"경기도 파주시 파주읍 연풍리 280-9","category":"건축자재 - 건축용 요업제품"}]},{"lat":"37.829031061","long":"126.84037124","items":[{"name":"고도리포차","tel":"","addr":"경기도 파주시 파주읍 연풍리 285-12번지","category":"일반휴게음식 - 일반한식"}]},{"lat":"37.825392361","long":"126.84117429","items":[{"name":"고려샷시유리","tel":"031-938-4949","addr":"경기도 파주시 파주읍 연풍리 316-31번지","category":"건축자재 - 보일러·펌프·샷시"}]},{"lat":"37.830024488","long":"126.83564373","items":[{"name":"공병자판기","tel":"070-8161-6417","addr":"경기도 파주시 파주읍 연풍리 430-8번지","category":"기타 - 기계공구"},{"name":"꽃 향유 공방","tel":"070-8161-6417","addr":"경기도 파주시 파주읍 연풍리 430-8번지","category":"문화.취미 - 문화취미기타"},{"name":"꽃향유공방","tel":"070-8161-6417","addr":"경기도 파주시 파주읍 연풍리 430-8번지","category":"문화.취미 - 민예·공예품"},{"name":"꽃향유공방","tel":"070-8161-6417","addr":"경기도 파주시 파주읍 연풍리 430-8번지","category":"음료식품 - 기타음료식품"}]},{"lat":"37.828862986","long":"126.83614614","items":[{"name":"굴렁쇠노래방","tel":"031-953-2392","addr":"경기도 파주시 파주읍 연풍리 299-142번지","category":"레저업소 - 노 래 방"}]},{"lat":"37.828502771","long":"126.83626053","items":[{"name":"꽃자리","tel":"031-952-3682","addr":"경기도 파주시 파주읍 연풍리 405-25번지","category":"의류 - 양품점"}]},{"lat":"37.828804852","long":"126.83966749","items":[{"name":"나우호텔","tel":"031-954-6969","addr":"경기도 파주시 파주읍 연풍리 285-29번지","category":"숙박업 - 여관/기타숙박업"}]},{"lat":"37.829500114","long":"126.83436136","items":[{"name":"네일 샵","tel":"","addr":"경기도 파주시 파주읍 연풍리 407-7번지","category":"보건위생 - 피부미용실"},{"name":"카페 프라임(Cafe Prime)","tel":"031-953-2828","addr":"경기도 파주시 파주읍 연풍리 407-7번지","category":"일반휴게음식 - 서양음식"}]},{"lat":"37.829249003","long":"126.83516841","items":[{"name":"다락골","tel":"031-952-1208","addr":"경기도 파주시 파주읍 연풍리 406-25번지","category":"일반휴게음식 - 일반한식"}]},{"lat":"37.824893111","long":"126.83214563","items":[{"name":"다육좋아","tel":"070-8637-9713","addr":"경기도 파주시 파주읍 연풍리 350-3 3/1","category":"문화.취미 - 화원"}]},{"lat":"37.830003287","long":"126.83341742","items":[{"name":"닥터에필","tel":"031-1577-2965","addr":"경기도 파주시 파주읍 연풍리 433-1번지 황해주택","category":"보건위생 - 화장품"},{"name":"에버그린홈케어","tel":"070-8152-2932","addr":"경기도 파주시 파주읍 연풍리 433-1번지 황해주택 A동 208호","category":"용역 서비스 - 종합용역"}]},{"lat":"37.82925164","long":"126.83703125","items":[{"name":"단골집","tel":"031-952-4850","addr":"경기도 파주시 파주읍 연풍리 278-53","category":"일반휴게음식 - 일반한식"}]},{"lat":"37.826025036","long":"126.8426495","items":[{"name":"닭더피자","tel":"031-953-5535","addr":"경기도 파주시 파주읍 연풍리 112-8번지","category":"일반휴게음식 - 일반한식"},{"name":"온달족발보쌈 닭더피자","tel":"031-953-9989","addr":"경기도 파주시 파주읍 연풍리 112-8","category":"일반휴게음식 - 일반한식"}]},{"lat":"37.824551994","long":"126.83937019","items":[{"name":"대가","tel":"031-953-1988","addr":"경기도 파주시 파주읍 연풍리 322-6번지","category":"일반휴게음식 - 일반한식"}]},{"lat":"37.828337369","long":"126.84039548","items":[{"name":"대우전자동양대리점","tel":"031-952-7550","addr":"경기도 파주시 파주읍 연풍리 286-23번지","category":"전기제품 - 가전제품"}]},{"lat":"37.831893815","long":"126.83241348","items":[{"name":"동광아침하늘어린이집[아이행복]","tel":"031-954-1335","addr":"경기도 파주시 파주읍 연풍리 483번지 동광모닝스카이아파트","category":"학원 - 유아원"}]},{"lat":"37.828189745","long":"126.83789689","items":[{"name":"동인당장수마을","tel":"031-953-5572","addr":"경기도 파주시 파주읍 연풍리 309-42번지","category":"음료식품 - 농·축·수산품"}]},{"lat":"37.829058355","long":"126.84056428","items":[{"name":"돼지나라","tel":"031-952-5547","addr":"경기도 파주시 파주읍 연풍리 285-4번지","category":"일반휴게음식 - 일반한식"}]},{"lat":"37.826221256","long":"126.8411952","items":[{"name":"두배로마트 연풍점","tel":"070-4531-1362","addr":"경기도 파주시 파주읍 연풍리 315-9번지","category":"유통업 영리 - 슈퍼마켓"},{"name":"매봉산생삼겹","tel":"031-953-1362","addr":"경기도 파주시 파주읍 연풍리 315-9번지","category":"일반휴게음식 - 일반한식"}]},{"lat":"37.828724114","long":"126.83991756","items":[{"name":"또또네","tel":"031-953-5730","addr":"경기도 파주시 파주읍 연풍리 285-48번지","category":"일반휴게음식 - 일반한식"}]},{"lat":"37.829219709","long":"126.83997326","items":[{"name":"뚱이분식","tel":"","addr":"경기도 파주시 파주읍 연풍리 282-15번지","category":"일반휴게음식 - 일반한식"}]},{"lat":"37.826309015","long":"126.83950261","items":[{"name":"레드폭스","tel":"031-952-6806","addr":"경기도 파주시 파주읍 연풍리 299-90번지","category":"보건위생 - 미용원"},{"name":"여의주","tel":"031-953-7956","addr":"경기도 파주시 파주읍 연풍리 299-90번지","category":"신변잡화 - 기타잡화"}]},{"lat":"37.831425179","long":"126.83231233","items":[{"name":"로타리기획","tel":"031-944-2810","addr":"경기도 파주시 파주읍 연풍리 483번지 동광모닝스카이아파트","category":"용역 서비스 - 사무서비스"},{"name":"맵시존","tel":"031-942-0610","addr":"경기도 파주시 파주읍 연풍리 483번지 동광모닝스카이아파트","category":"용역 서비스 - 종합용역"},{"name":"뷰티일리야","tel":"","addr":"경기도 파주시 파주읍 연풍리 483번지","category":"보건위생 - 미용재료"}]},{"lat":"37.828442739","long":"126.83841883","items":[{"name":"만두랑김밥마을","tel":"031-952-5204","addr":"경기도 파주시 파주읍 연풍리 295-6번지","category":"일반휴게음식 - 스넥"}]},{"lat":"37.824473621","long":"126.84133531","items":[{"name":"명품관","tel":"031-954-6666","addr":"경기도 파주시 파주읍 연풍리 327번지","category":"신변잡화 - 귀금속"}]},{"lat":"37.831641125","long":"126.83211872","items":[{"name":"모닝마트","tel":"031-953-1569","addr":"경기도 파주시 파주읍 연풍리 483번지","category":"유통업 영리 - 슈퍼마켓"},{"name":"용용옛날치킨","tel":"031-953-0051","addr":"경기도 파주시 파주읍 연풍리 483번지","category":"일반휴게음식 - 스넥"}]},{"lat":"37.828858483","long":"126.83936068","items":[{"name":"모텔휴","tel":"031-953-2998","addr":"경기도 파주시 파주읍 연풍리 285-32번지","category":"숙박업 - 여관/기타숙박업"},{"name":"모텔휴","tel":"031-952-7790","addr":"경기도 파주시 파주읍 연풍리 285-32번지","category":"숙박업 - 여관/기타숙박업"}]},{"lat":"37.826165604","long":"126.84003677","items":[{"name":"미영이네","tel":"031-952-2752","addr":"경기도 파주시 파주읍 연풍리 299-101번지","category":"일반휴게음식 - 일반한식"}]},{"lat":"37.832274663","long":"126.8341165","items":[{"name":"백마종합공사","tel":"031-958-8672","addr":"경기도 파주시 파주읍 연풍리 416-14번지","category":"용역 서비스 - 기타용역서비스"}]},{"lat":"37.828774063","long":"126.83697553","items":[{"name":"보이는족족","tel":"031-953-9292","addr":"경기도 파주시 파주읍 연풍리 296-29번지","category":"일반휴게음식 - 일반한식"}]},{"lat":"37.83061084","long":"126.82991744","items":[{"name":"북카페","tel":"031-952-8766","addr":"경기도 파주시 파주읍 연풍리 472-3번지","category":"일반휴게음식 - 일반한식"},{"name":"힐링스토어","tel":"070-8860-8212","addr":"경기도 파주시 파주읍 연풍리 472-3번지","category":"유통업 영리 - 슈퍼마켓"}]},{"lat":"37.829168484","long":"126.83556615","items":[{"name":"붐헤어샵","tel":"031-553-1568","addr":"경기도 파주시 파주읍 연풍리 406-10번지","category":"보건위생 - 미용원"}]},{"lat":"37.82719758","long":"126.83709264","items":[{"name":"빨간모자","tel":"031-954-2912","addr":"경기도 파주시 파주읍 연풍리 302-10 A","category":"의류 - 기타의류"},{"name":"토토헤어","tel":"031-954-9339","addr":"경기도 파주시 파주읍 연풍리 302-10번지","category":"보건위생 - 미용원"},{"name":"한우리야식","tel":"031-953-0000","addr":"경기도 파주시 파주읍 연풍리 302-10번지","category":"일반휴게음식 - 일반한식"}]},{"lat":"37.829163299","long":"126.83828092","items":[{"name":"사피당구장","tel":"031-952-6043","addr":"경기도 파주시 파주읍 연풍리 279-3번지","category":"레저업소 - 당 구 장"}]},{"lat":"37.828940151","long":"126.83978078","items":[{"name":"삼거리","tel":"031-947-6254","addr":"경기도 파주시 파주읍 연풍리 285-27번지","category":"일반휴게음식 - 일반한식"},{"name":"아날로그","tel":"02-0000-0000","addr":"경기도 파주시 파주읍 연풍리 285-27번지","category":"일반휴게음식 - 일반한식"}]},{"lat":"37.829328627","long":"126.83414593","items":[{"name":"샛별피아노교습소","tel":"070-7560-9675","addr":"경기도 파주시 파주읍 연풍리 398-6","category":"회원제형태 - 학원"}]},{"lat":"37.828470464","long":"126.83891855","items":[{"name":"서울한복","tel":"031-952-4243","addr":"경기도 파주시 파주읍 연풍리 293-10","category":"의류 - 맞춤복점"}]},{"lat":"37.827308837","long":"126.83934139","items":[{"name":"성산","tel":"031-953-9504","addr":"경기도 파주시 파주읍 연풍리 310-13번지","category":"의류 - 정장"}]},{"lat":"37.828747195","long":"126.83708917","items":[{"name":"성현약국","tel":"031-952-4459","addr":"경기도 파주시 파주읍 연풍리 296-58번지","category":"약국 - 약국"}]},{"lat":"37.829364549","long":"126.84047274","items":[{"name":"세명자동차","tel":"031-954-1617","addr":"경기도 파주시 파주읍 연풍리 282-9번지","category":"자동차정비 유지 - 자동차정비"}]},{"lat":"37.83133299","long":"126.85049857","items":[{"name":"세븐일레븐파주연풍점","tel":"031-1577-0711","addr":"경기도 파주시 파주읍 연풍리 1-5번지","category":"유통업 영리 - 편 의 점"},{"name":"윤가네감자탕","tel":"031-952-4893","addr":"경기도 파주시 파주읍 연풍리 1-5번지","category":"일반휴게음식 - 일반한식"}]},{"lat":"37.827499292","long":"126.84024965","items":[{"name":"수페이스","tel":"070-8848-1984","addr":"경기도 파주시 파주읍 연풍리 291-8번지","category":"회원제형태 - 기타1"}]},{"lat":"37.828720055","long":"126.83700972","items":[{"name":"수피자(연풍점)","tel":"031-954-5558","addr":"경기도 파주시 파주읍 연풍리 296-55번지","category":"일반휴게음식 - 서양음식"}]},{"lat":"37.829556596","long":"126.83606506","items":[{"name":"수희방","tel":"031-952-8065","addr":"경기도 파주시 파주읍 연풍리 277-13번지","category":"의류 - 정장"}]},{"lat":"37.826554915","long":"126.84142164","items":[{"name":"스마트카크리닝","tel":"070-8827-6159","addr":"경기도 파주시 파주읍 연풍리 113-26번지","category":"자동차정비 유지 - 카인테리어"}]},{"lat":"37.825220687","long":"126.83439381","items":[{"name":"스타통상(주)","tel":"031-953-6864","addr":"경기도 파주시 파주읍 연풍리 342-2번지","category":"사무통신 - 사무용 OA기기"}]},{"lat":"37.830637127","long":"126.83564235","items":[{"name":"슬기i어린이집[아이행복]","tel":"031-953-9871","addr":"경기도 파주시 파주읍 연풍리 425-2번지","category":"학원 - 유아원"}]},{"lat":"37.828414709","long":"126.83770329","items":[{"name":"신흥숯불갈비","tel":"031-954-2232","addr":"경기도 파주시 파주읍 연풍리 295-13번지","category":"일반휴게음식 - 일반한식"},{"name":"어울림옷수선","tel":"031-953-5041","addr":"경기도 파주시 파주읍 연풍리 295-13번지","category":"수리서비스 - 세탁소"}]},{"lat":"37.832725002","long":"126.8340246","items":[{"name":"씨유파주연풍지향점","tel":"031-954-1927","addr":"경기도 파주시 파주읍 연풍리 415-6번지","category":"유통업 영리 - 편 의 점"}]},{"lat":"37.830667699","long":"126.83183699","items":[{"name":"씨제이","tel":"031-941-5587","addr":"경기도 파주시 파주읍 연풍리 438-13번지","category":"사무통신 - 통신기기"}]},{"lat":"37.828829762","long":"126.83814536","items":[{"name":"씰리 태국 정통식당","tel":"031-941-2995","addr":"경기도 파주시 파주읍 연풍리 294-39번지","category":"일반휴게음식 - 서양음식"}]},{"lat":"37.822393001","long":"126.83528614","items":[{"name":"약수암영탑추모공원","tel":"031-953-4801","addr":"경기도 파주시 파주읍 연풍리 347-1번지","category":"용역 서비스 - 가례서비스업"}]},{"lat":"37.829525921","long":"126.83350938","items":[{"name":"얼얼이닭발구이","tel":"031-953-5258","addr":"경기도 파주시 파주읍 연풍리 403-6","category":"일반휴게음식 - 일반한식"}]},{"lat":"37.829138089","long":"126.83958724","items":[{"name":"엄마밥상","tel":"031-954-7776","addr":"경기도 파주시 파주읍 연풍리 282-21번지","category":"일반휴게음식 - 일반한식"}]},{"lat":"37.829634669","long":"126.83395213","items":[{"name":"연풍가","tel":"031-954-3455","addr":"경기도 파주시 파주읍 연풍리 432-3번지","category":"일반휴게음식 - 스넥"},{"name":"형제축산","tel":"","addr":"경기도 파주시 파주읍 연풍리 432-3번지","category":"음료식품 - 정육점"}]},{"lat":"37.829025316","long":"126.83625936","items":[{"name":"연풍건강원","tel":"031-952-1127","addr":"경기도 파주시 파주읍 연풍리 275-9","category":"건강식품 - 기타건강식품"},{"name":"탑마트","tel":"031-953-2333","addr":"경기도 파주시 파주읍 연풍리 275-9번지","category":"유통업 영리 - 슈퍼마켓"}]},{"lat":"37.82894081","long":"126.84025785","items":[{"name":"연풍의원","tel":"031-953-2004","addr":"경기도 파주시 파주읍 연풍리 285-8번지","category":"의원 - 의원"}]},{"lat":"37.830662488","long":"126.8344723","items":[{"name":"연풍초등학교병설유치원[아이행복]","tel":"031-954-2177","addr":"경기도 파주시 파주읍 연풍리 427번지","category":"학원 - 유치원"}]},{"lat":"37.829527062","long":"126.84072227","items":[{"name":"영풍가스","tel":"031-952-4740","addr":"경기도 파주시 파주읍 연풍리 282-65","category":"연료판매점 - LPG 취급점"}]},{"lat":"37.828441307","long":"126.83739654","items":[{"name":"영희네식당","tel":"031-954-3804","addr":"경기도 파주시 파주읍 연풍리 296-6번지 299동 161호","category":"일반휴게음식 - 일반한식"},{"name":"전국축산유통","tel":"031-953-4317","addr":"경기도 파주시 파주읍 연풍리 296-6번지","category":"음료식품 - 정육점"}]},{"lat":"37.828864748","long":"126.8373956","items":[{"name":"오늘그집","tel":"","addr":"경기도 파주시 파주읍 연풍리 294-51번지","category":"일반휴게음식 - 일반한식"}]},{"lat":"37.828773759","long":"126.83675971","items":[{"name":"오뚜기세탁소","tel":"031-952-4856","addr":"경기도 파주시 파주읍 연풍리 296-45번지","category":"수리서비스 - 세탁소"}]},{"lat":"37.828805701","long":"126.84028086","items":[{"name":"왕들의 술자리","tel":"031-952-7388","addr":"경기도 파주시 파주읍 연풍리 285-17번지","category":"일반휴게음식 - 주점"}]},{"lat":"37.830443469","long":"126.83253041","items":[{"name":"왕서방손짜장","tel":"031-954-5540","addr":"경기도 파주시 파주읍 연풍리 438-11번지","category":"일반휴게음식 - 중국식"}]},{"lat":"37.82867045","long":"126.84020165","items":[{"name":"용문","tel":"031-952-3848","addr":"경기도 파주시 파주읍 연풍리 285-66번지","category":"일반휴게음식 - 중국식"}]},{"lat":"37.829165307","long":"126.83972349","items":[{"name":"원조부대찌개","tel":"031-953-5615","addr":"경기도 파주시 파주읍 연풍리 282-52번지","category":"일반휴게음식 - 일반한식"}]},{"lat":"37.829030935","long":"126.84028037","items":[{"name":"이모네식당","tel":"03-195-1288","addr":"경기도 파주시 파주읍 연풍리 285-67번지","category":"일반휴게음식 - 일반한식"}]},{"lat":"37.824470515","long":"126.83908641","items":[{"name":"이상구도자기","tel":"","addr":"경기도 파주시 파주읍 연풍리 319-52번지","category":"문화.취미 - 화랑"}]},{"lat":"37.830467389","long":"126.83039485","items":[{"name":"이조맛집","tel":"031-953-7760","addr":"경기도 파주시 파주읍 연풍리 472-8번지","category":"일반휴게음식 - 일반한식"}]},{"lat":"37.82697292","long":"126.83750205","items":[{"name":"일등마트연풍","tel":"031-953-4395","addr":"경기도 파주시 파주읍 연풍리 302-19번지","category":"유통업 영리 - 슈퍼마켓"}]},{"lat":"37.829058277","long":"126.84050748","items":[{"name":"일번가","tel":"031-952-4964","addr":"경기도 파주시 파주읍 연풍리 285-10번지","category":"일반휴게음식 - 일반한식"}]},{"lat":"37.828641262","long":"126.83864556","items":[{"name":"자바모텔","tel":"031-954-1760","addr":"경기도 파주시 파주읍 연풍리 294-24번지","category":"숙박업 - 여관/기타숙박업"}]},{"lat":"37.829164155","long":"126.8388943","items":[{"name":"재현이네","tel":"031-953-9741","addr":"경기도 파주시 파주읍 연풍리 280-12번지","category":"일반휴게음식 - 일반한식"}]},{"lat":"37.828801011","long":"126.83691867","items":[{"name":"전통의 옛날통닭/전통에 옛날통닭","tel":"031-954-6250","addr":"경기도 파주시 파주읍 연풍리 296-30번지","category":"일반휴게음식 - 스넥"}]},{"lat":"37.827334663","long":"126.83847808","items":[{"name":"정편의점","tel":"031-954-3340","addr":"경기도 파주시 파주읍 연풍리 299-44번지","category":"유통업 영리 - 슈퍼마켓"}]},{"lat":"37.828806911","long":"126.83472641","items":[{"name":"주식회사 에스앤씨","tel":"","addr":"경기도 파주시 파주읍 연풍리 404-26번지","category":"음료식품 - 기타음료식품"}]},{"lat":"37.828969986","long":"126.83536214","items":[{"name":"진호갈비","tel":"02-111-1111","addr":"경기도 파주시 파주읍 연풍리 405-48번지","category":"일반휴게음식 - 일반한식"},{"name":"형기축산","tel":"02-111-1111","addr":"경기도 파주시 파주읍 연풍리 405-48번지","category":"음료식품 - 정육점"}]},{"lat":"37.829082263","long":"126.83831518","items":[{"name":"짜장마을","tel":"031-954-7744","addr":"경기도 파주시 파주읍 연풍리 279-9번지","category":"일반휴게음식 - 중국식"}]},{"lat":"37.829418363","long":"126.83389583","items":[{"name":"착한 회","tel":"031-8070-0033","addr":"경기도 파주시 파주읍 연풍리 398-20번지","category":"일반휴게음식 - 일반한식"}]},{"lat":"37.828856201","long":"126.83772502","items":[{"name":"청진동해장국","tel":"031-954-1109","addr":"경기도 파주시 파주읍 연풍리 294-47번지","category":"일반휴게음식 - 일반한식"}]},{"lat":"37.831198216","long":"126.85078282","items":[{"name":"카리스군장","tel":"02-1566-5667","addr":"경기도 파주시 파주읍 연풍리 5-7번지 3동 205호","category":"회원제형태 - 기타4"}]},{"lat":"37.827002249","long":"126.83914897","items":[{"name":"크레오파트라","tel":"031-953-3921","addr":"경기도 파주시 파주읍 연풍리 299-53","category":"보건위생 - 미용원"}]},{"lat":"37.829364706","long":"126.84058632","items":[{"name":"태성중고매장","tel":"031-952-6533","addr":"경기도 파주시 파주읍 연풍리 282-24번지","category":"전기제품 - 가전제품"}]},{"lat":"37.828805167","long":"126.83989466","items":[{"name":"텍사스바베큐","tel":"031-952-9083","addr":"경기도 파주시 파주읍 연풍리 285-6번지","category":"일반휴게음식 - 일반한식"}]},{"lat":"37.828167439","long":"126.83486417","items":[{"name":"파주 최강지게차","tel":"","addr":"경기도 파주시 파주읍 연풍리 375-22번지","category":"자동차정비 유지 - 중장비수리"}]},{"lat":"37.829026518","long":"126.83711127","items":[{"name":"파주정육점","tel":"031-952-1138","addr":"경기도 파주시 파주읍 연풍리 294-68번지","category":"음료식품 - 정육점"}]},{"lat":"37.828526566","long":"126.84706264","items":[{"name":"패션의여왕","tel":"033-261-3903","addr":"경기도 파주시 파주읍 연풍리 10-6번지","category":"의류 - 정장"}]},{"lat":"37.828163876","long":"126.83872613","items":[{"name":"패션파티","tel":"031-953-7762","addr":"경기도 파주시 파주읍 연풍리 299-21번지","category":"신변잡화 - 액세서리"}]},{"lat":"37.828998945","long":"126.83672513","items":[{"name":"페리카나치킨","tel":"031-953-9289","addr":"경기도 파주시 파주읍 연풍리 296-39번지","category":"일반휴게음식 - 스넥"}]},{"lat":"37.836166568","long":"126.8340054","items":[{"name":"풀굿시저스(로즈가위)","tel":"031-952-7862","addr":"경기도 파주시 파주읍 연풍리 253-2번지","category":"보건위생 - 미용재료"}]},{"lat":"37.828889306","long":"126.83564629","items":[{"name":"피자마루","tel":"031-952-1077","addr":"경기도 파주시 파주읍 연풍리 405-40번지","category":"일반휴게음식 - 서양음식"},{"name":"호식이두마리 파주연풍점","tel":"031-953-0078","addr":"경기도 파주시 파주읍 연풍리 405-40번지","category":"일반휴게음식 - 스넥"}]},{"lat":"37.823140344","long":"126.83497779","items":[{"name":"한국불교약수암","tel":"031-951-4801","addr":"경기도 파주시 파주읍 연풍리 346-3번지","category":"보건위생 - 기타대인서비스"}]},{"lat":"37.828246585","long":"126.83989589","items":[{"name":"헤어마트","tel":"","addr":"경기도 파주시 파주읍 연풍리 293-15번지","category":"보건위생 - 미용원"}]},{"lat":"37.832896164","long":"126.83401285","items":[{"name":"헤이맨(Heyman)","tel":"031-954-0601","addr":"경기도 파주시 파주읍 연풍리 415-5번지","category":"보건위생 - 미용원"}]},{"lat":"37.829526922","long":"126.84062004","items":[{"name":"현대모터스","tel":"031-953-7464","addr":"경기도 파주시 파주읍 연풍리 282-4","category":"자동차정비 유지 - 자동차정비"}]}]