[{"lat":"37.515233323","long":"126.78429511","items":[{"name":"(사)늘푸른희망연대 부천지부","tel":"032-673-7550","addr":"경기도 부천시 도당동 25-12번지","category":"기타 - 비영리/비대상"},{"name":"벧엘정밀","tel":"032-672-1997","addr":"경기도 부천시 도당동 25-12번지 1층","category":"기타 - 기계공구"},{"name":"아리수테크","tel":"032-673-6779","addr":"경기도 부천시 도당동 25-12번지 1층","category":"기타 - 기계공구"},{"name":"재선정밀","tel":"032-671-9315","addr":"경기도 부천시 도당동 25-12번지 1층 일부","category":"기타 - 기계공구"},{"name":"진양상사","tel":"032-672-5939","addr":"경기도 부천시 도당동 25-12번지 1층","category":"신변잡화 - 기타잡화"},{"name":"한강다이아몬드","tel":"032-684-1376","addr":"경기도 부천시 도당동 25-12번지","category":"기타 - 기타 전문점"},{"name":"한국앵글랙시스템","tel":"032-678-8959","addr":"경기도 부천시 도당동 25-12번지 1층","category":"건축자재 - 기타건축자재"}]},{"lat":"37.511339136","long":"126.77847025","items":[{"name":"(주) 스폴","tel":"032-670-7893","addr":"경기도 부천시 도당동 187-7번지 부천대우테크노파크 C동 704호","category":"레져용품 - 스포츠·레져용품"},{"name":"(주)베텍이엠/마이웨이전기자전거","tel":"032-975-5645","addr":"경기도 부천시 도당동 187-7번지 부천대우테크노파크 A동 지 06호","category":"레져용품 - 스포츠·레져용품"},{"name":"(주)아원메디인스트루먼트","tel":"032-670-7381","addr":"경기도 부천시 도당동 187-7 부천대우테크노파크 디-1111","category":"보건위생 - 의료용품"},{"name":"(주)워터엔피플","tel":"032-670-7555","addr":"경기도 부천시 도당동 187-7번지 대우테크노파크 A동 1007호","category":"주방용구 - 정수기"},{"name":"(주)인우하이텍","tel":"032-670-8406","addr":"경기도 부천시 도당동 187-7번지 부천대우테크노파크 A동 1208호","category":"서적문구 - 과학기자재"},{"name":"(주)트랜스마이크로/원격지","tel":"02-864-0233","addr":"경기도 부천시 도당동 187-7번지 부천대우테크노파크 B동 808호","category":"기타 - 기타 전문점"},{"name":"근영 하이텍","tel":"032-670-8903","addr":"경기도 부천시 도당동 187-7번지 부천대우테크노파크 C동 1103호","category":"전기제품 - 기타전기제품"},{"name":"금강정밀","tel":"032-670-8090","addr":"경기도 부천시 도당동 187-7번지 부천대우테크노파크 지하 1층 09호","category":"기타 - 기계공구"},{"name":"금강정밀/원격지","tel":"032-670-8090","addr":"경기도 부천시 도당동 187-7번지 부천대우테크노파크 지하 1층 09호","category":"기타 - 기타 전문점"},{"name":"김밥나라","tel":"032-670-8938","addr":"경기도 부천시 도당동 187-7번지 부천대우테크노파크 A동 116호","category":"일반휴게음식 - 스넥"},{"name":"네일#","tel":"031-000-0000","addr":"경기도 부천시 도당동 187-7번지 부천대우테크노파크 C동 9층 904호","category":"보건위생 - 화장품"},{"name":"대우골프존","tel":"032-670-8923","addr":"경기도 부천시 도당동 187-7번지 부천대우테크노파크 A동 107호","category":"레저업소 - 스크린골프"},{"name":"대우테크노파크 경영자협의회","tel":"032-670-8113","addr":"경기도 부천시 도당동 187-7번지","category":"자동차정비 유지 - 주차장"},{"name":"대우툴링","tel":"032-670-8909","addr":"경기도 부천시 도당동 187-7번지","category":"기타 - 기계공구"},{"name":"대한무선계측제어(주)","tel":"032-670-7200","addr":"경기도 부천시 도당동 187-7번지 부천대우테크노파크 B동 1003호","category":"사무통신 - 통신기기"},{"name":"데미안화장품","tel":"032-670-8580","addr":"경기도 부천시 도당동 대우테크노파크 D동 504.505호","category":"보건위생 - 화장품"},{"name":"동성음향","tel":"032-670-7017","addr":"경기도 부천시 도당동 187-7번지 부천대우테크노파크 A동 702호","category":"전기제품 - 가전제품"},{"name":"두미","tel":"032-668-9051","addr":"경기도 부천시 도당동 187-7번지 부천대우테크노파크 B동 105호","category":"음료식품 - 농·축·수산품"},{"name":"라뜨네코스메틱","tel":"032-670-8580","addr":"경기도 부천시 도당동 187-7번지 대우테크노파크 D동 505호","category":"보건위생 - 화장품"},{"name":"뢴트겐라인","tel":"032-670-8572","addr":"경기도 부천시 도당동 187-7번지 부천테크노파크 D동 907호","category":"전기제품 - 기타전기제품"},{"name":"무림오피스웨이부천점","tel":"032-670-8989","addr":"경기도 부천시 도당동 187-7번지","category":"서적문구 - 출판 및 인쇄물"},{"name":"무쇠솥 불쭈꾸미","tel":"032-670-8592","addr":"경기도 부천시 도당동 187-7번지 부천대우테크노파크 A동 105호","category":"일반휴게음식 - 일반한식"},{"name":"미호특약점","tel":"032-670-7202","addr":"경기도 부천시 도당동 187-7번지 부천대우테크노파크 D동 1309호","category":"보건위생 - 화장품"},{"name":"보원테크","tel":"032-670-7827","addr":"경기도 부천시 도당동 187-7번지 부천대우테크노파크 C동 1003호","category":"서적문구 - 과학기자재"},{"name":"부천종합물류","tel":"032-670-8467","addr":"경기도 부천시 도당동 187-7 대우테크노파크 B동 101호~102호","category":"음료식품 - 기타음료식품"},{"name":"비전과학A/S쎈타(구YM사이언텍)/원격지","tel":"032-670-8499","addr":"경기도 부천시 도당동 187-7번지 부천대우테크노파크 D동 902호","category":"기타 - 기타 전문점"},{"name":"비전바이오넥스","tel":"032-670-8499","addr":"경기도 부천시 도당동 187-7번지 부천대우테크노파크 D동 902호","category":"기타 - 기계공구"},{"name":"상일조각","tel":"032-670-8770","addr":"경기도 부천시 도당동 187-7번지 부천대우테크노파크 B302호","category":"기타 - 기타 전문점"},{"name":"성화정밀","tel":"032-670-8060","addr":"경기도 부천시 도당동 187-7번지 부천대우테크노파크 B동 405호","category":"기타 - 기계공구"},{"name":"세미원","tel":"032-678-8538","addr":"경기도 부천시 도당동 187-7번지 부천대우테크노파크 B동 706호","category":"전기제품 - 기타전기제품"},{"name":"세븐7데이즈","tel":"032-670-8285","addr":"경기도 부천시 도당동 187-7부천대우테크노파크C(103)동5층507호","category":"유통업 영리 - 기타유통업"},{"name":"소룩스리테일(주)","tel":"032-670-8899","addr":"경기도 부천시 도당동 187-7번지","category":"용역 서비스 - 기타용역서비스"},{"name":"수정하이텍","tel":"032-670-8147","addr":"경기도 부천시 도당동 187-7번지 부천대우테크노파크 D동 604호","category":"기타 - 기타 전문점"},{"name":"스카이글로벌네트웍스(주)","tel":"032-236-1300","addr":"경기도 부천시 도당동 187-7번지 부천대우테크노파크 A동 711호","category":"사무통신 - 컴퓨터"},{"name":"스튜디오 샤인","tel":"032-670-7969","addr":"경기도 부천시 도당동 187-7번지 부천대우테크노파크 1106호","category":"광학제품 - 사진관"},{"name":"시드테크","tel":"032-682-0110","addr":"경기도 부천시 도당동 187-7번지 부천대우테크노파크 C동 1305호","category":"기타 - 기계공구"},{"name":"신영메카닉스","tel":"032-670-7615","addr":"경기도 부천시 도당동 187-7번지 부천대우테크노파크 C동 1105호","category":"기타 - 기계공구"},{"name":"씨에스 랩","tel":"032-670-7833","addr":"경기도 부천시 도당동 187-7 대우테크노파크 A-210","category":"용역 서비스 - 소프트웨어"},{"name":"씨유대우테크노파크점","tel":"032-670-8901","addr":"경기도 부천시 도당동 187-7번지 부천대우테크노파크 A동 101호","category":"유통업 영리 - 편 의 점"},{"name":"아비뇽화장품","tel":"032-326-2235","addr":"경기도 부천시 도당동 187-7번지 부천대우테크노파크 A동 7층 701호","category":"보건위생 - 화장품"},{"name":"엔씨하이테크","tel":"070-4150-4471","addr":"경기도 부천시 도당동 187-7번지 부천대우테크노파크 B동 803호","category":"전기제품 - 기타전기제품"},{"name":"열한시십일분","tel":"032-670-8411","addr":"경기도 부천시 도당동 187-7번지 부천대우테크노파크 A동 102호","category":"일반휴게음식 - 서양음식"},{"name":"예원미디어","tel":"032-349-9656","addr":"경기도 부천시 도당동 187-7번지 부천대우테크노파크 A동 508호","category":"전기제품 - 가전제품"},{"name":"오뚜기식당","tel":"032-670-7780","addr":"경기도 부천시 도당동 187-7번지 A동 205-1호 ,205-2,206,207호) 부천대우테크노파크제","category":"일반휴게음식 - 일반한식"},{"name":"오렌지당구장","tel":"032-670-7939","addr":"경기도 부천시 도당동 187-7번지 부천대우테크노파크 A동 202호","category":"레저업소 - 당 구 장"},{"name":"오렌지식당","tel":"032-670-8253","addr":"경기도 부천시 도당동 187-7번지 A동 106,108호","category":"일반휴게음식 - 일반한식"},{"name":"원애드광고기술","tel":"032-667-9898","addr":"경기도 부천시 도당동 187-7번지 부천대우테크노파크 A동 604호","category":"용역 서비스 - 종합용역"},{"name":"월드비시스템","tel":"032-670-8033","addr":"경기도 부천시 도당동 187-7번지 대우테크노파크빌딩 1103호","category":"기타 - 기계공구"},{"name":"월드사이언스","tel":"032-670-8279","addr":"경기도 부천시 도당동 187-7번지 부천대우테크노파크 D동 1103호","category":"서적문구 - 과학기자재"},{"name":"유한솔루션","tel":"032-670-8852","addr":"경기도 부천시 도당동 187-7 부천대우테크노파크D동3층303호","category":"기타 - 기계공구"},{"name":"은성산업","tel":"032-670-7341","addr":"경기도 부천시 도당동 187-7","category":"전기제품 - 기타전기제품"},{"name":"이피에스하이테크","tel":"032-670-8303","addr":"경기도 부천시 도당동 187-7번지 대우테크노파크제D동제3층 302호","category":"기타 - 기계공구"},{"name":"일성","tel":"032-670-8525","addr":"경기도 부천시 도당동 187-7번지 부천대우테크노파크 C동 103호","category":"기타 - 기계공구"},{"name":"정일정밀","tel":"032-670-8575","addr":"경기도 부천시 도당동 187-7번지 부천대우테크노파크 C동 303호","category":"기타 - 기계공구"},{"name":"제이에스테크","tel":"032-670-8065","addr":"경기도 부천시 도당동 187-7번지 대우테크노 D동 204호","category":"사무통신 - 컴퓨터"},{"name":"제이에스테크/원격지","tel":"032-670-8065","addr":"경기도 부천시 도당동 187-7번지 부천대우테크노파크 D동 204호","category":"기타 - 기타 전문점"},{"name":"조재필 세무회계사무소","tel":"032-673-3100","addr":"경기도 부천시 도당동 187-7번지 부천대우테크노파크 A동 109호","category":"용역 서비스 - 법률회계서비스(개인)"},{"name":"주식회사 바이오앤미 (BIOnME)","tel":"070-5101-7940","addr":"경기도 부천시 도당동 187-7번지 부천대우테크노파크 B동 1107호","category":"용역 서비스 - 사무서비스"},{"name":"주식회사 바이오켐코리아","tel":"070-8270-4046","addr":"경기도 부천시 도당동 187-7번지 부천대우테크노파크 D동 1212호","category":"신변잡화 - 기타잡화"},{"name":"주식회사 심통","tel":"032-679-1248","addr":"경기도 부천시 도당동 187-7번지 부천대우테크노파크 D동 808호","category":"서적문구 - 기타서적문구"},{"name":"주식회사 옥시메이트","tel":"032-327-7997","addr":"경기도 부천시 도당동 187-7번지 부천대우테크노파크 D동 4층 402호","category":"보건위생 - 미용재료"},{"name":"주식회사더마힐엠지에프코리아","tel":"02-2065-1041","addr":"경기도 부천시 도당동 187-7번지 부천대우테크노파크 A동 704호","category":"보건위생 - 화장품"},{"name":"주식회사오송라이프","tel":"032-670-7174","addr":"경기도 부천시 도당동 187-7번지 부천대우테크노파크 A동 703호","category":"기타의료기관 - 기타의료기관 및 기타"},{"name":"주식회사인우하이텍/원격지","tel":"","addr":"경기도 부천시 도당동 187-7번지 부천데우테크노파크 A동 1208호","category":"기타 - 기타 전문점"},{"name":"주식회사헤어워크","tel":"032-670-7081","addr":"경기도 부천시 도당동 187-7번지 부천대우테크노파크 A동 1102호","category":"보건위생 - 미용재료"},{"name":"진천토종순대","tel":"032-670-8898","addr":"경기도 부천시 도당동 187-7번지 부천테크노파크 B동 106호","category":"일반휴게음식 - 일반한식"},{"name":"진천토종순대","tel":"032-670-8898","addr":"경기도 부천시 도당동 187-7번지","category":"일반휴게음식 - 일반한식"},{"name":"짬뽕마켓","tel":"032-111-1111","addr":"경기도 부천시 도당동 187-7번지 부천대우테크노파크 113,115호","category":"일반휴게음식 - 중국식"},{"name":"카페리퍼블릭","tel":"032-670-7856","addr":"경기도 부천시 도당동 187-7번지 부천대우테크노파크 A동 109호","category":"일반휴게음식 - 서양음식"},{"name":"커프러스 협동조합","tel":"032-670-7338","addr":"경기도 부천시 도당동 187-7번지 부천대우테크노파크 C동 1004호","category":"광학제품 - 사진관"},{"name":"케엠피(주)","tel":"032-655-7681","addr":"경기도 부천시 도당동 187-7번지 부천대우테크노파크 A동 1010호","category":"사무통신 - 통신기기"},{"name":"케이아이","tel":"032-670-7658","addr":"경기도 부천시 도당동 187-7번지 부천대우테크노파크 A동 907호","category":"전기제품 - 기타전기제품"},{"name":"케이엠엘","tel":"032-670-8797","addr":"경기도 부천시 도당동 187-7번지 부천대우테크노파크 C동 302호","category":"기타 - 기타 전문점"},{"name":"코스모스환보","tel":"032-670-8268","addr":"경기도 부천시 도당동 187-7번지 부천대우테크노파크 A동 402호","category":"기타 - 기타 전문점"},{"name":"크로바테크","tel":"032-670-8777","addr":"경기도 부천시 도당동 187-7번지 부천대우테크노파크 C동 606호","category":"레져용품 - 골프용품 전문점"},{"name":"테크크로바","tel":"02-2685-7492","addr":"경기도 부천시 도당동 187-7번지 부천대우테크노파크 C동 606호","category":"레져용품 - 골프용품 전문점"},{"name":"텔레만전자통신","tel":"032-678-8566","addr":"경기도 부천시 도당동 187-7번지 부천대우테크노파크 D동 612호","category":"사무통신 - 통신기기"},{"name":"푸짐한밥상","tel":"032-670-8542","addr":"경기도 부천시 도당동 187-7번지 부천대우테크노파크 8동 206호","category":"일반휴게음식 - 일반한식"},{"name":"한국캐노피","tel":"02-929-6547","addr":"경기도 부천시 도당동 187-7번지 부천대우테크노파크 D동 501호","category":"용역 서비스 - 소프트웨어"},{"name":"한도시스템(주)","tel":"02-525-7141","addr":"경기도 부천시 도당동 187-7번지 부천대우테크노파크 D동 901호","category":"전기제품 - 기타전기제품"},{"name":"한솔인쇄기획","tel":"032-666-8387","addr":"경기도 부천시 도당동 187-7번지 부천대우테크노파크 B동 803호","category":"서적문구 - 출판 및 인쇄물"},{"name":"협신비니루","tel":"032-670-8058","addr":"경기도 부천시 도당동 187-7번지 부천대우테크노파크 A동 114호","category":"신변잡화 - 기타잡화"},{"name":"화니네트워크","tel":"032-670-7702","addr":"경기도 부천시 도당동 187-7번지 부천대우테크노파크 A동 1006호","category":"용역 서비스 - 기타용역서비스"}]},{"lat":"37.515926326","long":"126.77907863","items":[{"name":"(주)JS개발","tel":"032-677-5922","addr":"경기도 부천시 도당동 9-1번지 4층","category":"용역 서비스 - 종합용역"},{"name":"혜성한분식","tel":"032-672-0558","addr":"경기도 부천시 도당동 9-1번지 1층","category":"일반휴게음식 - 일반한식"}]},{"lat":"37.515148134","long":"126.78696476","items":[{"name":"(주)가온화장품","tel":"032-555-4691","addr":"경기도 부천시 도당동 72-2번지 2층","category":"보건위생 - 화장품"},{"name":"(주)익스크린","tel":"032-684-2347","addr":"경기도 부천시 도당동 72-2번지 2층","category":"신변잡화 - 기타잡화"}]},{"lat":"37.509901432","long":"126.78052171","items":[{"name":"(주)강남자동차공업사","tel":"032-681-4664","addr":"경기도 부천시 도당동 272-6번지","category":"자동차정비 유지 - 자동차정비"}]},{"lat":"37.514340879","long":"126.77452505","items":[{"name":"(주)경인정보통신","tel":"032-675-0070","addr":"경기도 부천시 도당동 214-3번지","category":"사무통신 - 통신기기"},{"name":"도레미노래연습장","tel":"031-677-9321","addr":"경기도 부천시 도당동 214-3번지 2층","category":"레저업소 - 노 래 방"},{"name":"명태요리전문점명태촌","tel":"032-679-6092","addr":"경기도 부천시 도당동 214-3번지 1층","category":"일반휴게음식 - 일반한식"},{"name":"비어캐빈","tel":"","addr":"경기도 부천시 도당동 214-3번지 나동 1층","category":"일반휴게음식 - 주점"},{"name":"임경대치과의원","tel":"032-675-3052","addr":"경기도 부천시 도당동 214-3번지","category":"의원 - 치과의원"},{"name":"집밥집그리고닭볶음탕","tel":"032-674-1233","addr":"경기도 부천시 도당동 214-3번지 나동 제101,102호","category":"일반휴게음식 - 일반한식"},{"name":"하마당구장","tel":"032-111-1111","addr":"경기도 부천시 도당동 214-3번지 3층","category":"레저업소 - 당 구 장"}]},{"lat":"37.514678297","long":"126.78624222","items":[{"name":"(주)다인전기","tel":"032-676-1771","addr":"경기도 부천시 도당동 74-4번지","category":"전기제품 - 기타전기제품"}]},{"lat":"37.507202561","long":"126.78759838","items":[{"name":"(주)대덕이엔지(DAE DUK ENG)","tel":"032-674-8081","addr":"경기도 부천시 도당동 185-5번지 나동 2층","category":"주방용구 - 주방용구"},{"name":"(주)제이에스텍","tel":"","addr":"경기도 부천시 도당동 185-5번지","category":"전기제품 - 기타전기제품"}]},{"lat":"37.513261963","long":"126.78527358","items":[{"name":"(주)대한제어기술","tel":"02-894-0373","addr":"경기도 부천시 도당동 81-6번지","category":"전기제품 - 기타전기제품"},{"name":"더블에스","tel":"032-679-5436","addr":"경기도 부천시 도당동 81-6번지 2층","category":"기타 - 기계공구"}]},{"lat":"37.513233138","long":"126.78430094","items":[{"name":"(주)부광자동차","tel":"032-675-6561","addr":"경기도 부천시 도당동 95-3번지","category":"자동차정비 유지 - 자동차정비"}]},{"lat":"37.514928472","long":"126.78509908","items":[{"name":"(주)부천종합닥트","tel":"032-678-6322","addr":"경기도 부천시 도당동 75-1번지 동일브레이징건물 1층 101호","category":"건축자재 - 보일러·펌프·샷시"},{"name":"태두정밀","tel":"032-671-1308","addr":"경기도 부천시 도당동 75-1, 8(제19호)","category":"기타 - 기타 전문점"},{"name":"한진비니루포장","tel":"032-675-2266","addr":"경기도 부천시 도당동 75-1","category":"신변잡화 - 기타잡화"}]},{"lat":"37.510092367","long":"126.78630071","items":[{"name":"(주)부천주니어축구클럽","tel":"032-684-8856","addr":"경기도 부천시 도당동 176-1번지 동성빌딩 A동 502호","category":"학원 - 예·체능계학원"},{"name":"(주)부천주니어축구클럽","tel":"032-326-2700","addr":"경기도 부천시 도당동 176-1번지 동성빌딩 A동 502호","category":"학원 - 예·체능계학원"},{"name":"명품도검","tel":"032-676-9779","addr":"경기도 부천시 도당동 176-1번지","category":"문화.취미 - 문화취미기타"},{"name":"선두한식부페","tel":"032-677-7999","addr":"경기도 부천시 도당동 176-1번지 A동 2층","category":"일반휴게음식 - 일반한식"},{"name":"오브이메디칼","tel":"032-672-3162","addr":"경기도 부천시 도당동 176-1번지 동성빌딩 C동 202호","category":"보건위생 - 의료용품"},{"name":"원도검","tel":"032-676-9778","addr":"경기도 부천시 도당동 176-1번지 F동 3층 301호","category":"레져용품 - 총포류판매점"},{"name":"제니스창","tel":"070-7309-0482","addr":"경기도 부천시 도당동 176-1번지 동성빌딩 A동 203호","category":"직물 - 카페트,커튼,천막,지물"}]},{"lat":"37.506235257","long":"126.78582554","items":[{"name":"(주)부천특수강","tel":"032-676-4843","addr":"경기도 부천시 도당동 264-7번지","category":"기타 - 기계공구"},{"name":"(주)부천특수강","tel":"032-676-4843","addr":"경기도 부천시 도당동 264-7번지","category":"기타 - 기타 전문점"}]},{"lat":"37.516174238","long":"126.78154373","items":[{"name":"(주)블루기획컴퍼니","tel":"032-672-5949","addr":"경기도 부천시 도당동 15-2번지 2층","category":"용역 서비스 - 사무서비스"},{"name":"블루기획","tel":"032-672-5949","addr":"경기도 부천시 도당동 15-2번지 201호","category":"용역 서비스 - 종합용역"}]},{"lat":"37.515200815","long":"126.78135432","items":[{"name":"(주)승일일렉트로닉스","tel":"","addr":"경기도 부천시 도당동 16-8번지","category":"전기제품 - 기타전기제품"},{"name":"승일전자","tel":"032-682-2380","addr":"경기도 부천시 도당동 16-8번지","category":"전기제품 - 기타전기제품"}]},{"lat":"37.512845505","long":"126.78418896","items":[{"name":"(주)신원기전","tel":"032-672-6291","addr":"경기도 부천시 도당동 95-2번지 y-제니스 파크 505호","category":"기타 - 기타 전문점"},{"name":"동남테크","tel":"032-678-8169","addr":"경기도 부천시 도당동 95-2번지 와이제니스파크 111호","category":"건축자재 - 인테리어전문"},{"name":"부천뿌리체인기어상사","tel":"032-682-2755","addr":"경기도 부천시 도당동 95-2번지 Y-제니스파크 110호","category":"기타 - 기계공구"},{"name":"원호실업","tel":"032-676-7768","addr":"경기도 부천시 도당동 95-2번지 와이제니스파크 2층 203호","category":"주방용구 - 정수기"},{"name":"원호실업/원격지","tel":"032-676-7768","addr":"경기도 부천시 도당동 95-2번지 와이제니스파크 2층 203호","category":"기타 - 기타 전문점"},{"name":"제니스SG스크린골프","tel":"032-237-7979","addr":"경기도 부천시 도당동 95-2번지 Y-제니스파크 201호","category":"레저업소 - 스크린골프"},{"name":"제이텍스크린","tel":"032-672-9983","addr":"경기도 부천시 도당동 95-2번지 y-제니스파크 606호","category":"건축자재 - 인테리어전문"},{"name":"주식회사 다우나노텍","tel":"032-671-9998","addr":"경기도 부천시 도당동 95-2번지 와이제니스파크 2층 208호","category":"전기제품 - 기타전기제품"},{"name":"주식회사다우나노텍/원격지","tel":"032-671-9998","addr":"경기도 부천시 도당동 95-2번지 Y제니스파크 401호","category":"기타 - 기타 전문점"},{"name":"주식회사크레토이","tel":"070-7722-4760","addr":"경기도 부천시 도당동 95-2번지 303호 Y-제니스파크","category":"서적문구 - 문구용품"},{"name":"태광정밀","tel":"032-683-5808","addr":"경기도 부천시 도당동 95-2번지 와이제니스파크 3층 302호","category":"기타 - 기계공구"},{"name":"티에스텍","tel":"032-683-8411","addr":"경기도 부천시 도당동 95-2번지 와이제니스파크 702호","category":"기타 - 기계공구"},{"name":"플러스치과의원","tel":"032-682-2828","addr":"경기도 부천시 도당동 95-2번지 와이제니스파크 1층 107호","category":"의원 - 치과의원"}]},{"lat":"37.507288807","long":"126.7854945","items":[{"name":"(주)싸인리더","tel":"032-679-6661","addr":"경기도 부천시 도당동 264-4번지 2층","category":"용역 서비스 - 종합용역"},{"name":"종합차유리","tel":"032-679-0310","addr":"경기도 부천시 도당동 264-4번지 B01호","category":"자동차정비 유지 - 자동차부품"}]},{"lat":"37.514262056","long":"126.78527068","items":[{"name":"(주)에코바이오코리아","tel":"032-715-5100","addr":"경기도 부천시 도당동 75-4번지 3층","category":"용역 서비스 - 사무서비스"},{"name":"거평테크","tel":"02-953-3378","addr":"경기도 부천시 도당동 75-4번지 3층","category":"자동차정비 유지 - 자동차부품"}]},{"lat":"37.513786686","long":"126.77682285","items":[{"name":"(주)엠에스비","tel":"032-684-3201","addr":"경기도 부천시 도당동 222-24번지 2층","category":"주방용구 - 주방용구"},{"name":"세븐일레븐부천도당공단점","tel":"031-1577-0711","addr":"경기도 부천시 도당동 222-24번지 CT밸리 1층","category":"유통업 영리 - 편 의 점"},{"name":"하나 한식 부페","tel":"032-677-1137","addr":"경기도 부천시 도당동 222-24번지 화일빌딩","category":"일반휴게음식 - 일반한식"}]},{"lat":"37.519036397","long":"126.79476991","items":[{"name":"(주)우미광학","tel":"032-673-7728","addr":"경기도 부천시 도당동 129번지 2층","category":"보건위생 - 안경"},{"name":"GS25도당타운점","tel":"","addr":"경기도 부천시 도당동 129번지 101호","category":"유통업 영리 - 편 의 점"},{"name":"마니머그면주는집","tel":"032-671-6626","addr":"경기도 부천시 도당동 129번지 1층 1호","category":"일반휴게음식 - 일반한식"},{"name":"신지자동문","tel":"070-4127-0634","addr":"경기도 부천시 도당동 129번지 1층 103호","category":"건축자재 - 기타건축자재"}]},{"lat":"37.509069623","long":"126.78379281","items":[{"name":"(주)유브이에스엠티(UV SMT)","tel":"032-614-2000","addr":"경기도 부천시 도당동 256-1번지","category":"기타 - 기계공구"}]},{"lat":"37.51953696","long":"126.78751771","items":[{"name":"(주)은성엔지니어링","tel":"032-678-9631","addr":"경기도 부천시 도당동 43-3번지 은성프라자","category":"전기제품 - 냉열기기"},{"name":"여주한방삼계탕","tel":"032-677-7024","addr":"경기도 부천시 도당동 43-3번지 은성프라자 1층","category":"일반휴게음식 - 일반한식"},{"name":"오토마스터","tel":"032-676-0503","addr":"경기도 부천시 도당동 43-3번지","category":"자동차정비 유지 - 자동차시트·타이어"},{"name":"은성스포츠센터","tel":"032-683-7777","addr":"경기도 부천시 도당동 43-3번지","category":"레저업소 - 헬스클럽"},{"name":"은성약국","tel":"032-677-8106","addr":"경기도 부천시 도당동 43-3번지 은성프라자 105호","category":"약국 - 약국"},{"name":"은성프라자","tel":"032-673-2353","addr":"경기도 부천시 도당동 43-3번지","category":"용역 서비스 - 부동산 중개·임대"},{"name":"은성효요양원","tel":"032-683-3030","addr":"경기도 부천시 도당동 43-3번지 은성프라자 2층","category":"기타의료기관 - 기타의료기관 및 기타"},{"name":"은성효주간보호센터","tel":"032-683-3030","addr":"경기도 부천시 도당동 43-3번지 은성프라자 1층 일부","category":"기타의료기관 - 기타의료기관 및 기타"}]},{"lat":"37.507368415","long":"126.78469127","items":[{"name":"(주)이오니아생활건강","tel":"032-720-8023","addr":"경기도 부천시 도당동 263-30번지 1층","category":"주방용구 - 정수기"},{"name":"스카이호프","tel":"032-675-8951","addr":"경기도 부천시 도당동 263-30번지","category":"일반휴게음식 - 주점"}]},{"lat":"37.510287747","long":"126.77993243","items":[{"name":"(주)이테스","tel":"070-4060-5425","addr":"경기도 부천시 도당동 281-1번지 3층","category":"자동차정비 유지 - 자동차부품"},{"name":"대명테크","tel":"032-675-5374","addr":"경기도 부천시 도당동 281-1번지","category":"용역 서비스 - 기타용역서비스"},{"name":"에스에이휠타이어","tel":"032-000-0000","addr":"경기도 부천시 도당동 281-1번지 1층","category":"자동차정비 유지 - 자동차시트·타이어"}]},{"lat":"37.518815553","long":"126.78718043","items":[{"name":"(주)일광산업","tel":"031-966-3389","addr":"경기도 부천시 도당동 44-2번지","category":"신변잡화 - 가방"},{"name":"EDU.ING(에듀아이엔지)보습음악학원","tel":"070-7532-3450","addr":"경기도 부천시 도당동 44-2번지 2층","category":"학원 - 예·체능계학원"},{"name":"이레상사","tel":"032-672-1512","addr":"경기도 부천시 도당동 44-2번지","category":"기타 - 기타 전문점"}]},{"lat":"37.513896144","long":"126.77752379","items":[{"name":"(주)조이플랜 티움","tel":"032-680-4799","addr":"경기도 부천시 도당동 222번지","category":"음료식품 - 기타음료식품"},{"name":"(주)조이플랜 티움/삼원FA(담배)","tel":"","addr":"경기도 부천시 도당동 222번지 동부하이텍 1층 본관","category":"기타 - 기타 전문점"},{"name":"티움","tel":"032-680-4799","addr":"경기도 부천시 도당동 222번지 동부하이텍본관 1층","category":"음료식품 - 기타음료식품"},{"name":"티움/삼원FA(담배)","tel":"","addr":"경기도 부천시 도당동 222번지 동부하이텍본관 1층","category":"기타 - 기타 전문점"}]},{"lat":"37.511786635","long":"126.78165849","items":[{"name":"(주)진에이드","tel":"02-2228-2541","addr":"경기도 부천시 도당동 162-16번지","category":"용역 서비스 - 사무서비스"},{"name":"하이텍전자","tel":"032-676-6538","addr":"경기도 부천시 도당동 162-16번지","category":"전기제품 - 기타전기제품"}]},{"lat":"37.515928996","long":"126.78049252","items":[{"name":"(주)청담화장품","tel":"032-683-4721","addr":"경기도 부천시 도당동 12번지 1층","category":"보건위생 - 화장품"},{"name":"(주)청담화장품","tel":"032-683-4721","addr":"경기도 부천시 도당동 12번지","category":"보건위생 - 화장품"}]},{"lat":"37.508007678","long":"126.77963384","items":[{"name":"(주)플러스냉동설비","tel":"032-926-2265","addr":"경기도 부천시 도당동 283-3번지","category":"전기제품 - 냉열기기"}]},{"lat":"37.509818426","long":"126.78432221","items":[{"name":"(주)한서엔지니어링","tel":"032-675-4964","addr":"경기도 부천시 도당동 253-3번지","category":"기타 - 기계공구"},{"name":"대신종합전기","tel":"032-677-6521","addr":"경기도 부천시 도당동 253-3번지 공구상가 9동 104호","category":"전기제품 - 기타전기제품"},{"name":"도경정밀","tel":"032-684-4640","addr":"경기도 부천시 도당동 253-3번지 1층 5호","category":"기타 - 기계공구"},{"name":"명성볼트","tel":"032-675-2422","addr":"경기도 부천시 도당동 253-3번지","category":"기타 - 기계공구"},{"name":"삼진종합포장","tel":"032-675-9919","addr":"경기도 부천시 도당동 253-3번지","category":"신변잡화 - 기타잡화"},{"name":"아하교육구로영등포지점","tel":"032-676-6338","addr":"경기도 부천시 도당동 253-3번지 부천공구상가 10동 301호","category":"회원제형태 - 서적"},{"name":"우성볼트상사","tel":"032-675-3017","addr":"경기도 부천시 도당동 253-3번지","category":"기타 - 기계공구"},{"name":"중앙모터펌프","tel":"032-684-8183","addr":"경기도 부천시 도당동 253-3번지 부천공구상가 9동 101호","category":"건축자재 - 보일러·펌프·샷시"},{"name":"케이엠상사","tel":"032-684-2330","addr":"경기도 부천시 도당동 253-3번지 공구상사 9-1","category":"기타 - 기계공구"}]},{"lat":"37.519952689","long":"126.78821784","items":[{"name":"(주)한성텔레콤","tel":"032-667-4600","addr":"경기도 부천시 도당동 58-5번지 진보빌딩 1층","category":"사무통신 - 통신기기"}]},{"lat":"37.511367617","long":"126.78404624","items":[{"name":"(주)행복한밥상","tel":"032-673-5289","addr":"경기도 부천시 도당동 99-9번지 102-103호","category":"일반휴게음식 - 일반한식"},{"name":"신화기획","tel":"032-681-3691","addr":"경기도 부천시 도당동 99-9번지301~302호일부","category":"서적문구 - 출판 및 인쇄물"},{"name":"우리ENG","tel":"032-678-1884","addr":"경기도 부천시 도당동 99-9번지 2층 1호","category":"기타 - 기계공구"}]},{"lat":"37.516260654","long":"126.78440522","items":[{"name":"10억 노래연습장","tel":"032-671-2884","addr":"경기도 부천시 도당동 26-13번지 지층","category":"레저업소 - 노 래 방"},{"name":"신명카센타","tel":"032-682-9111","addr":"경기도 부천시 도당동 26-13번지","category":"자동차정비 유지 - 자동차정비"},{"name":"신영조각","tel":"032-684-8854","addr":"경기도 부천시 도당동 26-13번지","category":"기타 - 기계공구"},{"name":"원일식당","tel":"032-681-9380","addr":"경기도 부천시 도당동 26-13번지 2층","category":"일반휴게음식 - 일반한식"}]},{"lat":"37.506541446","long":"126.78574548","items":[{"name":"1등 오토바이","tel":"032-4324-4256","addr":"경기도 부천시 도당동 264-30번지 1층","category":"수리서비스 - 레져용품수리"}]},{"lat":"37.518506483","long":"126.78568819","items":[{"name":"21C예빈공조","tel":"032-675-4181","addr":"경기도 부천시 도당동 42-13번지 파라다이스","category":"수리서비스 - 기타수리서비스"}]},{"lat":"37.511009126","long":"126.78507653","items":[{"name":"3.14테크","tel":"032-677-3014","addr":"경기도 부천시 도당동 86-20번지 1층","category":"기타 - 기계공구"},{"name":"프라임시스템","tel":"032-684-5354","addr":"경기도 부천시 도당동 86-20번지","category":"기타 - 기계공구"}]},{"lat":"37.519760085","long":"126.79132913","items":[{"name":"510팔레트","tel":"032-675-1016","addr":"경기도 부천시 도당동 108-3번지 우성빌라 B01호","category":"학원 - 예·체능계학원"}]},{"lat":"37.505874688","long":"126.78088426","items":[{"name":"59피자 도당동 강남시장점","tel":"032-678-5955","addr":"경기도 부천시 도당동 279-32번지","category":"일반휴게음식 - 서양음식"},{"name":"미투정보통신","tel":"","addr":"경기도 부천시 도당동 279-32번지 1층","category":"사무통신 - 통신기기"},{"name":"이젤헤어터치","tel":"032-682-1321","addr":"경기도 부천시 도당동 279-32번지","category":"보건위생 - 미용원"}]},{"lat":"37.519810125","long":"126.79413431","items":[{"name":"60계치킨","tel":"032-672-7760","addr":"경기도 부천시 도당동 131-1번지 1층","category":"일반휴게음식 - 스넥"},{"name":"대산보습학원","tel":"032-683-4273","addr":"경기도 부천시 도당동 131-1번지","category":"학원 - 기타 교육기관"},{"name":"빵굽는쉐프의꿈","tel":"032-676-8634","addr":"경기도 부천시 도당동 131-1번지 삼성홈플러스 1층","category":"음료식품 - 제과점"},{"name":"스타당구장","tel":"","addr":"경기도 부천시 도당동 131-1번지 2층","category":"레저업소 - 당 구 장"},{"name":"치어스(도당점)","tel":"032-683-5533","addr":"경기도 부천시 도당동 131-1번지 2층","category":"일반휴게음식 - 주점"},{"name":"풀꽃향기","tel":"032-683-0114","addr":"경기도 부천시 도당동 131-1번지","category":"문화.취미 - 화원"}]},{"lat":"37.516729666","long":"126.78960705","items":[{"name":"7.7","tel":"032-673-7770","addr":"경기도 부천시 도당동 52-28번지 동삼아트빌라 101호","category":"일반휴게음식 - 주점"},{"name":"고추장주물럭","tel":"032-681-7773","addr":"경기도 부천시 도당동 52-28번지 동삼빌라 D동 102호","category":"일반휴게음식 - 일반한식"}]},{"lat":"37.515675569","long":"126.77988247","items":[{"name":"ACE초경","tel":"032-677-0949","addr":"경기도 부천시 도당동 11번지 1층 11호","category":"기타 - 기계공구"},{"name":"다이넥스경인점","tel":"032-681-3151","addr":"경기도 부천시 도당동 11.41층18호","category":"기타 - 기타 전문점"},{"name":"미니스톱도당공단점","tel":"031-1577-9621","addr":"경기도 부천시 도당동 11번지 12-13호","category":"유통업 영리 - 편 의 점"},{"name":"미성프로세스","tel":"032-666-0503","addr":"경기도 부천시 도당동 11 (2층10, 11호)","category":"서적문구 - 출판 및 인쇄물"},{"name":"부강금속","tel":"032-679-0195","addr":"경기도 부천시 도당동 11번지 19","category":"건축자재 - 기타건축자재"},{"name":"산내들한식부페식당","tel":"032-676-9090","addr":"경기도 부천시 도당동 11번지 가동 2층","category":"일반휴게음식 - 일반한식"},{"name":"인하KBM","tel":"032-678-3120","addr":"경기도 부천시 도당동 11번지 1층 07호","category":"기타 - 기계공구"},{"name":"정진전열","tel":"032-675-7478","addr":"경기도 부천시 도당동 11번지 1층 18호","category":"전기제품 - 기타전기제품"},{"name":"태경산업","tel":"032-673-7765","addr":"경기도 부천시 도당동 11번지 11-4 , 2층12호","category":"레져용품 - 스포츠·레져용품"},{"name":"태은특수공구연마","tel":"032-678-1707","addr":"경기도 부천시 도당동 11번지 1층 21호","category":"기타 - 기계공구"}]},{"lat":"37.508950751","long":"126.78285442","items":[{"name":"CJMULTIMEDIA","tel":"032-677-0884","addr":"경기도 부천시 도당동 256-6번지","category":"기타 - 기타 전문점"}]},{"lat":"37.510981313","long":"126.77982857","items":[{"name":"CM툴스","tel":"032-684-8423","addr":"경기도 부천시 도당동 173-27번지 2층 남측","category":"기타 - 기계공구"}]},{"lat":"37.507037744","long":"126.78129928","items":[{"name":"DC백화점","tel":"032-675-4493","addr":"경기도 부천시 도당동 276-4번지","category":"신변잡화 - 기타잡화"},{"name":"강남청과","tel":"032-683-1469","addr":"경기도 부천시 도당동 276-4","category":"음료식품 - 농·축·수산품"},{"name":"대림고추방아","tel":"032-675-5571","addr":"경기도 부천시 도당동 276-4","category":"음료식품 - 기타음료식품"},{"name":"뜨레비","tel":"032-675-3916","addr":"경기도 부천시 도당동 276-4번지","category":"의류 - 정장"},{"name":"빈티지멀티샵 2호점","tel":"","addr":"경기도 부천시 도당동 276-4번지 1층","category":"의류 - 정장"},{"name":"주식회사 웰빙홈마트","tel":"032-671-8114","addr":"경기도 부천시 도당동 276-4번지 1층","category":"유통업 영리 - 슈퍼마켓"},{"name":"한성전자","tel":"032-683-6270","addr":"경기도 부천시 도당동 276-4번지","category":"전기제품 - 기타전기제품"},{"name":"한우촌 정육점","tel":"032-681-4984","addr":"경기도 부천시 도당동 276-4번지","category":"음료식품 - 정육점"},{"name":"한우촌정육점","tel":"032-681-4984","addr":"경기도 부천시 도당동 276-4번지","category":"음료식품 - 정육점"},{"name":"형제수산","tel":"032-681-6105","addr":"경기도 부천시 도당동 276-4번지 1층 6호","category":"음료식품 - 농·축·수산품"}]},{"lat":"37.519397089","long":"126.79493859","items":[{"name":"E&C(이앤씨)","tel":"032-678-9070","addr":"경기도 부천시 도당동 130-5번지","category":"용역 서비스 - 종합용역"},{"name":"금실나라손뜨게방","tel":"032-679-6777","addr":"경기도 부천시 도당동 130-5번지 1층","category":"직물 - 침구·수예점"}]},{"lat":"37.51992867","long":"126.79493711","items":[{"name":"E프랜드외국어학원","tel":"032-672-0584","addr":"경기도 부천시 도당동 131-2번지 일부 2층","category":"회원제형태 - 학원"},{"name":"감탄 도당점","tel":"032-676-5858","addr":"경기도 부천시 도당동 131-2번지 (12번지 1층)","category":"일반휴게음식 - 스넥"},{"name":"뚜레쥬르부천도당점","tel":"032-676-0095","addr":"경기도 부천시 도당동 131-2번지 1층","category":"음료식품 - 제과점"},{"name":"리플헤어","tel":"032-671-8433","addr":"경기도 부천시 도당동 131-2번지 외1필지","category":"보건위생 - 미용원"},{"name":"베스킨라빈스도당점","tel":"032-675-1402","addr":"경기도 부천시 도당동 131-2번지 1층","category":"음료식품 - 제과점"},{"name":"본죽도당점","tel":"032-677-6233","addr":"경기도 부천시 도당동 131-2번지 대영빌딩 1층","category":"일반휴게음식 - 일반한식"},{"name":"아이마트안경","tel":"032-681-0019","addr":"경기도 부천시 도당동 131-2번지 상가 1층","category":"보건위생 - 안경"},{"name":"앤드 썸 보습 미술학원","tel":"032-675-0808","addr":"경기도 부천시 도당동 131-2번지 1,3층","category":"학원 - 보습학원"},{"name":"여월음악학원","tel":"032-676-0604","addr":"경기도 부천시 도당동 131-2번지 대영빌딩 2층 일부호","category":"학원 - 예·체능계학원"}]},{"lat":"37.51884491","long":"126.78845856","items":[{"name":"GS25도당성원점","tel":"","addr":"경기도 부천시 도당동 56-14번지 성원빌라","category":"유통업 영리 - 편 의 점"},{"name":"로즈빌인테리어","tel":"032-681-5319","addr":"경기도 부천시 도당동 56-14번지 성원빌라 101호","category":"건축자재 - 인테리어전문"}]},{"lat":"37.517315958","long":"126.78996735","items":[{"name":"GS25도당장미점","tel":"02-2006-2485","addr":"경기도 부천시 도당동 67-28번지 1층","category":"유통업 영리 - 편 의 점"},{"name":"양과자와 커피파는집","tel":"032-683-1020","addr":"경기도 부천시 도당동 67-28번지 1층 일부호","category":"일반휴게음식 - 서양음식"},{"name":"점프스타 태권줄넘기","tel":"032-675-7990","addr":"경기도 부천시 도당동 67-28번지 3층","category":"학원 - 예·체능계학원"},{"name":"점프윙스 줄넘기클럽","tel":"032-675-7990","addr":"경기도 부천시 도당동 67-28번지 3층","category":"레저업소 - 헬스클럽"},{"name":"한가람학원","tel":"032-679-5901","addr":"경기도 부천시 도당동 67-28번지 4층","category":"학원 - 보습학원"}]},{"lat":"37.515205474","long":"126.77904685","items":[{"name":"GS25부천도당공단점","tel":"","addr":"경기도 부천시 도당동 8-6번지 1층","category":"유통업 영리 - 편 의 점"},{"name":"세림정밀","tel":"032-673-6075","addr":"경기도 부천시 도당동 8-6번지 1층","category":"기타 - 기계공구"},{"name":"세복만나한식뷔페","tel":"032-000-0000","addr":"경기도 부천시 도당동 8-6번지 1층","category":"일반휴게음식 - 일반한식"}]},{"lat":"37.520289369","long":"126.7900494","items":[{"name":"GS25부천도당점","tel":"","addr":"경기도 부천시 도당동 61-2번지","category":"유통업 영리 - 편 의 점"},{"name":"도당웰빙센터","tel":"032-681-8899","addr":"경기도 부천시 도당동 61-2번지 501호~502호","category":"레저업소 - 헬스클럽"},{"name":"맛있게듬뿍(도당점)","tel":"032-2683-8836","addr":"경기도 부천시 도당동 61-2번지 영진빌딩","category":"일반휴게음식 - 일반한식"},{"name":"세명정보통신","tel":"032-683-8011","addr":"경기도 부천시 도당동 61-2번지 영진빌딩 1층","category":"사무통신 - 통신기기"},{"name":"수철이네왕새우튀김 도당점","tel":"032-674-4422","addr":"경기도 부천시 도당동 61-2번지 영진빌딩 1층 2호","category":"일반휴게음식 - 주점"},{"name":"수철이네왕새우튀김도당점","tel":"032-674-4422","addr":"경기도 부천시 도당동 61-2번지 영진빌딩 1층 2호","category":"일반휴게음식 - 주점"},{"name":"쑥쑥팡팡","tel":"032-221-7988","addr":"경기도 부천시 도당동 61-2번지 영진빌딩 3층 1호","category":"레저업소 - 기타레져업소"},{"name":"용인대도당유도체육관","tel":"032-673-3120","addr":"경기도 부천시 도당동 61-2번지 영진빌딩 3층 302호","category":"학원 - 예·체능계학원"},{"name":"이장네포차","tel":"032-212-8788","addr":"경기도 부천시 도당동 61-2번지 영진빌딩 105,106호","category":"일반휴게음식 - 주점"},{"name":"잉글리쉬무무도당보습학원","tel":"032-674-0509","addr":"경기도 부천시 도당동 61-2번지 영진빌딩 4층 2호","category":"학원 - 보습학원"},{"name":"준당구장","tel":"032-682-5495","addr":"경기도 부천시 도당동 61-2번지 영진빌딩 401호","category":"레저업소 - 당 구 장"}]},{"lat":"37.52062021","long":"126.79367957","items":[{"name":"GS25부천도서관점","tel":"","addr":"경기도 부천시 도당동 116-6번지 1층","category":"유통업 영리 - 편 의 점"},{"name":"깨끗한 세탁나라","tel":"032-678-0170","addr":"경기도 부천시 도당동 116-6번지","category":"수리서비스 - 세탁소"},{"name":"만정포차","tel":"","addr":"경기도 부천시 도당동 116-6번지 중앙빌딩 1층 일부","category":"일반휴게음식 - 일반한식"},{"name":"쇼팽의아이들음악학원","tel":"032-681-2340","addr":"경기도 부천시 도당동 116-6번지 중앙빌딩 302호","category":"학원 - 예·체능계학원"},{"name":"참새와허수아비","tel":"032-675-3322","addr":"경기도 부천시 도당동 116-6번지 중앙빌딩 1층","category":"일반휴게음식 - 주점"},{"name":"한국관","tel":"032-678-6226","addr":"경기도 부천시 도당동 116-6번지","category":"일반휴게음식 - 중국식"}]},{"lat":"37.51650634","long":"126.78571661","items":[{"name":"GS25부천북중점","tel":"","addr":"경기도 부천시 도당동 35-14번지 1층","category":"유통업 영리 - 편 의 점"}]},{"lat":"37.505846959","long":"126.78535165","items":[{"name":"GS25부천참사랑점","tel":"","addr":"경기도 부천시 도당동 265-33번지 1층","category":"유통업 영리 - 편 의 점"},{"name":"솔리데오음악학원","tel":"032-672-5630","addr":"경기도 부천시 도당동 265-33번지 2층","category":"학원 - 예·체능계학원"}]},{"lat":"37.507423553","long":"126.78043858","items":[{"name":"JJ마트","tel":"032-684-7555","addr":"경기도 부천시 도당동 275-9번지 108호","category":"유통업 영리 - 슈퍼마켓"},{"name":"강남치과의원","tel":"032-679-9753","addr":"경기도 부천시 도당동 275-9번지","category":"의원 - 의원"},{"name":"강남한의원","tel":"032-676-4621","addr":"경기도 부천시 도당동 275-9번지 202호","category":"의원 - 한의원"},{"name":"보건약국","tel":"032-675-4609","addr":"경기도 부천시 도당동 275-9번지","category":"약국 - 약국"},{"name":"선미장식","tel":"032-675-3377","addr":"경기도 부천시 도당동 275-9번지","category":"직물 - 카페트,커튼,천막,지물"},{"name":"스마트통신","tel":"032-614-7111","addr":"경기도 부천시 도당동 275-9번지 104호","category":"사무통신 - 통신기기"},{"name":"연지노래연습장","tel":"032-657-6327","addr":"경기도 부천시 도당동 275-9번지","category":"레저업소 - 노 래 방"}]},{"lat":"37.511007433","long":"126.78416039","items":[{"name":"LED 미래조명","tel":"032-675-8953","addr":"경기도 부천시 도당동 99-3번지 동양빌딩 가동 102호","category":"건축자재 - 조명기구"},{"name":"가온아크릴","tel":"02-1833-7468","addr":"경기도 부천시 도당동 99-3번지 가동 1층 101호","category":"건축자재 - 기타건축자재"},{"name":"동양상사","tel":"032-675-9688","addr":"경기도 부천시 도당동 99-3번지 나동 1층 101호","category":"전기제품 - 기타전기제품"},{"name":"부천마끼다","tel":"032-674-6535","addr":"경기도 부천시 도당동 99-3번지 동양빌딩 102호","category":"전기제품 - 기타전기제품"},{"name":"삼신부천특약점","tel":"032-676-3388","addr":"경기도 부천시 도당동 99-3번지 동양빌딩 103호","category":"가구 - 철제가구"},{"name":"오피스맥스","tel":"032-671-4212","addr":"경기도 부천시 도당동 99-3번지 102호","category":"서적문구 - 문구용품"},{"name":"오피스맥스원","tel":"032-671-4212","addr":"경기도 부천시 도당동 99-3번지 동양빌딩 102호","category":"서적문구 - 문구용품"},{"name":"형제전기(주) 부천지점","tel":"032-822-6661","addr":"경기도 부천시 도당동 99-3번지 가동 1층 102호","category":"전기제품 - 기타전기제품"}]},{"lat":"37.515789331","long":"126.77810628","items":[{"name":"LK호이스트","tel":"032-677-2290","addr":"경기도 부천시 도당동 7번지","category":"기타 - 기계공구"},{"name":"LK호이스트크레인","tel":"032-677-2290","addr":"경기도 부천시 도당동 7번지","category":"기타 - 기계공구"},{"name":"경인특수강","tel":"032-671-6077","addr":"경기도 부천시 도당동 7","category":"건축자재 - 기타건축자재"},{"name":"광명상사","tel":"032-675-9454","addr":"경기도 부천시 도당동 7번지 태양 상가","category":"기타 - 기계공구"},{"name":"기산전기","tel":"032-675-2286","addr":"경기도 부천시 도당동 7번지","category":"전기제품 - 기타전기제품"},{"name":"명신베아링","tel":"032-678-8289","addr":"경기도 부천시 도당동 7번지","category":"기타 - 기계공구"},{"name":"신우포장상사","tel":"032-679-8600","addr":"경기도 부천시 도당동 7번지","category":"신변잡화 - 기타잡화"},{"name":"은아전열","tel":"032-676-9724","addr":"경기도 부천시 도당동 7번지","category":"전기제품 - 기타전기제품"},{"name":"일동볼트","tel":"032-675-7640","addr":"경기도 부천시 도당동 7번지","category":"기타 - 기계공구"},{"name":"중앙소방기구","tel":"032-678-5570","addr":"경기도 부천시 도당동 7번지","category":"기타 - 기타 전문점"},{"name":"협신테크","tel":"032-674-0083","addr":"경기도 부천시 도당동 7번지 105호","category":"전기제품 - 냉열기기"}]},{"lat":"37.508873102","long":"126.78470951","items":[{"name":"M.P.L","tel":"032-671-1067","addr":"경기도 부천시 도당동 255-1 6동 201호","category":"건축자재 - 조명기구"},{"name":"다모아테크","tel":"032-682-8886","addr":"경기도 부천시 도당동 255-1","category":"신변잡화 - 기타잡화"},{"name":"비전화공약품상사","tel":"032-671-1289","addr":"경기도 부천시 도당동 255-1.5-103","category":"기타 - 기타 전문점"},{"name":"삼진금속","tel":"032-672-0943","addr":"경기도 부천시 도당동 255-1부천공구상가5-1","category":"기타 - 기계공구"},{"name":"제일써보테크","tel":"032-326-7641","addr":"경기도 부천시 도당동 255-1,5-303","category":"기타 - 기계공구"},{"name":"중앙모타펌프","tel":"032-676-8183","addr":"경기도 부천시 도당동 255-1번지","category":"건축자재 - 보일러·펌프·샷시"},{"name":"현미디어","tel":"032-683-3117","addr":"경기도 부천시 도당동 255-1,5-201","category":"전기제품 - 기타전기제품"}]},{"lat":"37.50592932","long":"126.78118946","items":[{"name":"MK정보","tel":"032-671-2216","addr":"경기도 부천시 도당동 278-7번지","category":"사무통신 - 통신기기"},{"name":"강남짬뽕","tel":"032-677-6111","addr":"경기도 부천시 도당동 278-7번지 1층","category":"일반휴게음식 - 중국식"},{"name":"골드축산","tel":"032-677-8798","addr":"경기도 부천시 도당동 278-7번지 1층","category":"음료식품 - 정육점"},{"name":"별난만두","tel":"032-677-7772","addr":"경기도 부천시 도당동 278-7번지 1층","category":"일반휴게음식 - 스넥"},{"name":"우리건강원","tel":"032-679-6501","addr":"경기도 부천시 도당동 278-7번지","category":"건강식품 - 기타건강식품"},{"name":"짱시구제","tel":"","addr":"경기도 부천시 도당동 278-7번지 1층 일부호","category":"의류 - 정장"},{"name":"통큰수제왕갈비","tel":"032-2664-4057","addr":"경기도 부천시 도당동 278-7번지 1층","category":"일반휴게음식 - 일반한식"},{"name":"허니베이커리","tel":"032-671-1297","addr":"경기도 부천시 도당동 278-7번지 1층","category":"음료식품 - 제과점"},{"name":"홍보석","tel":"032-675-7373","addr":"경기도 부천시 도당동 278-7번지","category":"신변잡화 - 시계"}]},{"lat":"37.520231523","long":"126.79296801","items":[{"name":"OK노래연습장","tel":"032-682-2545","addr":"경기도 부천시 도당동 116-13번지 지층","category":"레저업소 - 노 래 방"},{"name":"꽈배기상회 도당점","tel":"032-655-9455","addr":"경기도 부천시 도당동 116-13번지 1층","category":"일반휴게음식 - 일반한식"},{"name":"데쉬걸","tel":"032-678-4483","addr":"경기도 부천시 도당동 116-13번지","category":"의류 - 정장"},{"name":"우진정보통신","tel":"032-682-8282","addr":"경기도 부천시 도당동 116-13번지","category":"사무통신 - 통신기기"},{"name":"원 당구장","tel":"","addr":"경기도 부천시 도당동 116-13번지 2층","category":"레저업소 - 당 구 장"},{"name":"첨이첨이","tel":"032-676-5435","addr":"경기도 부천시 도당동 116-13번지 102호","category":"의류 - 정장"}]},{"lat":"37.507178727","long":"126.78443169","items":[{"name":"PAOLO GOMES(파올로고매스)","tel":"032-673-8168","addr":"경기도 부천시 도당동 265-51번지 1층","category":"신변잡화 - 가방"},{"name":"후랭크양념통닭","tel":"032-682-5844","addr":"경기도 부천시 도당동 265-51번지","category":"일반휴게음식 - 주점"}]},{"lat":"37.507062263","long":"126.77996464","items":[{"name":"Q복권방","tel":"032-677-8482","addr":"경기도 부천시 도당동 284-1번지","category":"기타 - 기타 전문점"},{"name":"김밥나라","tel":"032-684-8544","addr":"경기도 부천시 도당동 284-1번지 대동빌딩 1층","category":"일반휴게음식 - 일반한식"},{"name":"베스트","tel":"","addr":"경기도 부천시 도당동 284-1번지 대동빌딩 지하1층","category":"레저업소 - 기타레져업소"},{"name":"브라더양꼬치","tel":"","addr":"경기도 부천시 도당동 284-1번지 대동빌딩 1층","category":"일반휴게음식 - 일반한식"},{"name":"양영환치과의원","tel":"032-675-2800","addr":"경기도 부천시 도당동 284-1번지","category":"의원 - 치과의원"},{"name":"왕노래연습장","tel":"032-682-5049","addr":"경기도 부천시 도당동 284-1번지 지하층","category":"레저업소 - 노 래 방"},{"name":"캠퍼스보습음악학원","tel":"032-655-5555","addr":"경기도 부천시 도당동 284-1번지 3층","category":"학원 - 예·체능계학원"}]},{"lat":"37.514927135","long":"126.78437518","items":[{"name":"SH케미칼","tel":"032-675-4135","addr":"경기도 부천시 도당동 88-14번지 1층","category":"유통업 영리 - 기타유통업"},{"name":"성은화학","tel":"032-672-1122","addr":"경기도 부천시 도당동 88-14번지 1층","category":"기타 - 기타 전문점"},{"name":"일심샌딩","tel":"032-677-7944","addr":"경기도 부천시 도당동 88-14번지","category":"건축자재 - 기타건축자재"},{"name":"지오툴링","tel":"032-674-6166","addr":"경기도 부천시 도당동 88-14번지","category":"전기제품 - 기타전기제품"},{"name":"한라상사","tel":"032-683-7701","addr":"경기도 부천시 도당동 88-14번지 1층 일부","category":"유통업 영리 - 기타유통업"}]},{"lat":"37.505874411","long":"126.78073723","items":[{"name":"T world/퍼스트모바일","tel":"","addr":"경기도 부천시 도당동 279-6번지 11호","category":"사무통신 - 통신기기"},{"name":"엠케이모바일 (M&K Mobile)","tel":"032-202-2001","addr":"경기도 부천시 도당동 279-6번지 1층 11호","category":"사무통신 - 통신기기"},{"name":"이모네포차","tel":"032-671-9953","addr":"경기도 부천시 도당동 279-6번지 외2필지 1층 1호","category":"일반휴게음식 - 일반한식"},{"name":"중동대포","tel":"","addr":"경기도 부천시 도당동 279-6번지 10호","category":"일반휴게음식 - 주점"}]},{"lat":"37.510236263","long":"126.78130113","items":[{"name":"TK산업","tel":"032-511-5886","addr":"경기도 부천시 도당동 268-6번지","category":"전기제품 - 기타전기제품"}]},{"lat":"37.515979861","long":"126.78360295","items":[{"name":"UBIS(유비스)","tel":"032-671-0412","addr":"경기도 부천시 도당동 23-2번지 1층","category":"주방용구 - 주방용구"}]},{"lat":"37.509397455","long":"126.78082858","items":[{"name":"j.i전시비전","tel":"070-7545-1148","addr":"경기도 부천시 도당동 272-10번지 4층","category":"신변잡화 - 기타잡화"}]},{"lat":"37.520978736","long":"126.79262656","items":[{"name":"가림디자인","tel":"02-1111-1111","addr":"경기도 부천시 도당동 115번지 선경아트빌 1-가동 402호","category":"직물 - 카페트,커튼,천막,지물"}]},{"lat":"37.51384571","long":"126.77471885","items":[{"name":"가마솥뼈다귀감자탕","tel":"032-675-3113","addr":"경기도 부천시 도당동 214-16번지","category":"일반휴게음식 - 일반한식"}]},{"lat":"37.519040303","long":"126.7869083","items":[{"name":"가양염색방","tel":"032-677-1721","addr":"경기도 부천시 도당동 43-11번지 디아망 101호","category":"보건위생 - 미용원"}]},{"lat":"37.515282752","long":"126.77704456","items":[{"name":"가온FA","tel":"032-681-0909","addr":"경기도 부천시 도당동 5번지 1층","category":"자동차정비 유지 - 자동차부품"},{"name":"강남화공약품","tel":"032-674-9310","addr":"경기도 부천시 도당동 5번지","category":"서적문구 - 과학기자재"},{"name":"강남화공약품상사","tel":"032-674-9310","addr":"경기도 부천시 도당동 5번지","category":"기타 - 기타 전문점"},{"name":"대웅엔지니어링","tel":"032-678-5326","addr":"경기도 부천시 도당동 5번지","category":"기타 - 기계공구"},{"name":"대한상사","tel":"032-675-7707","addr":"경기도 부천시 도당동 5번지","category":"유통업 영리 - 기타유통업"},{"name":"백인회","tel":"032-677-8440","addr":"경기도 부천시 도당동 5번지 태양공구상가 3층","category":"기타 - 기타 전문점"},{"name":"부천공구","tel":"032-675-1717","addr":"경기도 부천시 도당동 5번지 태양공구상가 1층","category":"기타 - 기계공구"},{"name":"토성종합공구상사","tel":"032-674-5417","addr":"경기도 부천시 도당동 5번지","category":"기타 - 기계공구"},{"name":"현대볼트","tel":"032-677-0561","addr":"경기도 부천시 도당동 5번지","category":"기타 - 기계공구"}]},{"lat":"37.51189775","long":"126.78326426","items":[{"name":"가와테크","tel":"032-671-2201","addr":"경기도 부천시 도당동 98-11번지 2층","category":"유통업 영리 - 기타유통업"}]},{"lat":"37.51978975","long":"126.78779977","items":[{"name":"가위요정","tel":"","addr":"경기도 부천시 도당동 58번지 1층 2호","category":"보건위생 - 미용원"},{"name":"인더라인","tel":"032-676-0268","addr":"경기도 부천시 도당동 58번지","category":"유통업 영리 - 편 의 점"},{"name":"하이웨이","tel":"032-679-4597","addr":"경기도 부천시 도당동 58번지 지하1층","category":"일반휴게음식 - 일반한식"}]},{"lat":"37.518561912","long":"126.7864346","items":[{"name":"가이헤어컴","tel":"032-678-7506","addr":"경기도 부천시 도당동 40-5번지 상가 1층","category":"보건위생 - 미용원"},{"name":"다모아","tel":"032-675-6363","addr":"경기도 부천시 도당동 40-5번지 상가 1층","category":"일반휴게음식 - 주점"},{"name":"주식회사 유케이","tel":"032-677-6021","addr":"경기도 부천시 도당동 40-5번지 연세빌딩 204호","category":"용역 서비스 - 종합용역"}]},{"lat":"37.508761438","long":"126.78279842","items":[{"name":"가인그래픽스","tel":"032-676-6604","addr":"경기도 부천시 도당동 257-4번지 1층","category":"용역 서비스 - 종합용역"}]},{"lat":"37.519922444","long":"126.79143048","items":[{"name":"감각음악미술학원","tel":"032-676-2011","addr":"경기도 부천시 도당동 108번지 청오빌딩 301호","category":"학원 - 예·체능계학원"},{"name":"경희대도당태권도","tel":"032-682-5279","addr":"경기도 부천시 도당동 108번지 청오빌딩","category":"학원 - 예·체능계학원"},{"name":"대림종합장식","tel":"032-674-5601","addr":"경기도 부천시 도당동 108번지 청오빌딩 1층 6호","category":"직물 - 카페트,커튼,천막,지물"},{"name":"라이브콤노래방","tel":"032-673-1705","addr":"경기도 부천시 도당동 108번지","category":"레저업소 - 노 래 방"},{"name":"마장동고깃집","tel":"070-7355-8009","addr":"경기도 부천시 도당동 108번지 청오빌딩 101호","category":"일반휴게음식 - 일반한식"},{"name":"엘지허니문센타","tel":"032-681-7777","addr":"경기도 부천시 도당동 108번지 청경빌딩 1층 107호","category":"전기제품 - 가전제품"},{"name":"와이(Y)헤어","tel":"070-7522-4077","addr":"경기도 부천시 도당동 108번지 청오빌딩 103호","category":"보건위생 - 미용원"},{"name":"치킨사냥","tel":"032-675-7262","addr":"경기도 부천시 도당동 108번지","category":"일반휴게음식 - 일반한식"}]},{"lat":"37.512317537","long":"126.78129498","items":[{"name":"감성테크","tel":"032-671-7721","addr":"경기도 부천시 도당동 162-4번지","category":"기타 - 기계공구"},{"name":"전주식당","tel":"032-675-5576","addr":"경기도 부천시 도당동 162-4번지 1층","category":"음료식품 - 기타음료식품"}]},{"lat":"37.51956126","long":"126.79099034","items":[{"name":"강구막회물회","tel":"032-671-9982","addr":"경기도 부천시 도당동 63-9번지","category":"일반휴게음식 - 일반한식"},{"name":"용인대국가대표태권도","tel":"032-682-9424","addr":"경기도 부천시 도당동 63-9번지 2,3층","category":"학원 - 예·체능계학원"},{"name":"현대미용실","tel":"032-672-7240","addr":"경기도 부천시 도당동 63-9번지","category":"보건위생 - 미용원"}]},{"lat":"37.507153257","long":"126.78043939","items":[{"name":"강남7080라이브","tel":"","addr":"경기도 부천시 도당동 279-1번지 지하층","category":"일반휴게음식 - 서양음식"},{"name":"강아지나라","tel":"032-279-0303","addr":"경기도 부천시 도당동 279-1번지","category":"문화.취미 - 애완동물"},{"name":"신발백화점","tel":"032-675-3953","addr":"경기도 부천시 도당동 279-1번지 1층","category":"신변잡화 - 신발"},{"name":"아이정보통신","tel":"032-111-1234","addr":"경기도 부천시 도당동 279-1번지","category":"사무통신 - 통신기기"},{"name":"중앙한의원","tel":"032-679-7533","addr":"경기도 부천시 도당동 279-1번지 2층","category":"의원 - 한의원"},{"name":"파리바게뜨","tel":"032-672-0082","addr":"경기도 부천시 도당동 279-1번지 1층","category":"음료식품 - 제과점"}]},{"lat":"37.507345752","long":"126.78219185","items":[{"name":"강남곱창볶음전문점","tel":"032-671-0068","addr":"경기도 부천시 도당동 274-49번지","category":"일반휴게음식 - 일반한식"}]},{"lat":"37.508288456","long":"126.7804134","items":[{"name":"강남다방","tel":"070-7370-3172","addr":"경기도 부천시 도당동 275-3번지","category":"일반휴게음식 - 서양음식"},{"name":"샤방샤방노래연습장","tel":"032-673-8844","addr":"경기도 부천시 도당동 275-3번지 2층","category":"레저업소 - 노 래 방"},{"name":"제일기획","tel":"032-675-6310","addr":"경기도 부천시 도당동 275-3번지","category":"용역 서비스 - 종합용역"},{"name":"칭구야","tel":"070-7317-2100","addr":"경기도 부천시 도당동 275-3번지","category":"일반휴게음식 - 주점"}]},{"lat":"37.506314445","long":"126.77996687","items":[{"name":"강남당구장","tel":"070-7556-1174","addr":"경기도 부천시 도당동 284-3번지 3층","category":"레저업소 - 당 구 장"},{"name":"강화철물","tel":"032-675-2880","addr":"경기도 부천시 도당동 284-3번지","category":"건축자재 - 목재·석재·철물"},{"name":"유핏","tel":"","addr":"경기도 부천시 도당동 284-3번지 2층","category":"레저업소 - 헬스클럽"}]},{"lat":"37.507373077","long":"126.7823501","items":[{"name":"강남방앗간","tel":"032-676-3454","addr":"경기도 부천시 도당동 274-50번지","category":"음료식품 - 기타음료식품"},{"name":"티파니","tel":"070-4200-3222","addr":"경기도 부천시 도당동 274-50번지 1층","category":"의류 - 정장"},{"name":"황금돼지","tel":"032-673-5931","addr":"경기도 부천시 도당동 274-50번지","category":"일반휴게음식 - 일반한식"}]},{"lat":"37.506955913","long":"126.78090367","items":[{"name":"강남부대","tel":"","addr":"경기도 부천시 도당동 279-22번지","category":"일반휴게음식 - 일반한식"},{"name":"영패션","tel":"032-674-5046","addr":"경기도 부천시 도당동 279-22번지 1층일부","category":"의류 - 정장"},{"name":"해일수산","tel":"032-678-1804","addr":"경기도 부천시 도당동 279-22번지 1층","category":"일반휴게음식 - 일반한식"}]},{"lat":"37.50742485","long":"126.78112848","items":[{"name":"강남시장점시장양곡","tel":"032-672-5518","addr":"경기도 부천시 도당동 274-52번지 1층","category":"음료식품 - 미곡상"},{"name":"새마을정육점","tel":"032-684-8008","addr":"경기도 부천시 도당동 274-52번지 1층","category":"음료식품 - 기타음료식품"},{"name":"여수밴댕이","tel":"032-612-6954","addr":"경기도 부천시 도당동 274-52번지","category":"일반휴게음식 - 일반한식"},{"name":"충남식당","tel":"032-676-2482","addr":"경기도 부천시 도당동 274-52번지 1층","category":"일반휴게음식 - 일반한식"},{"name":"호남식당","tel":"032-675-7576","addr":"경기도 부천시 도당동 274-52번지","category":"일반휴게음식 - 일반한식"}]},{"lat":"37.507425126","long":"126.78127551","items":[{"name":"강남식당","tel":"032-676-4522","addr":"경기도 부천시 도당동 274-53번지","category":"일반휴게음식 - 일반한식"},{"name":"백미당어묵","tel":"","addr":"경기도 부천시 도당동 274-53번지 1층","category":"일반휴게음식 - 일반한식"},{"name":"제비흥포차","tel":"032-000-0000","addr":"경기도 부천시 도당동 274-53번지 1층","category":"일반휴게음식 - 주점"},{"name":"충남식당","tel":"032-676-2482","addr":"경기도 부천시 도당동 274-53번지","category":"일반휴게음식 - 일반한식"}]},{"lat":"37.506424331","long":"126.78090525","items":[{"name":"강남왕족발","tel":"032-675-1315","addr":"경기도 부천시 도당동 279-26번지 일부 1층","category":"일반휴게음식 - 일반한식"},{"name":"미동닭강정","tel":"032-679-7477","addr":"경기도 부천시 도당동 279-26번지 1층","category":"일반휴게음식 - 스넥"},{"name":"미동닭강정","tel":"032-579-7477","addr":"경기도 부천시 도당동 279-26번지 1층","category":"일반휴게음식 - 일반한식"},{"name":"참된반찬전문","tel":"032-679-0127","addr":"경기도 부천시 도당동 279-26","category":"음료식품 - 기타음료식품"}]},{"lat":"37.509090801","long":"126.78065984","items":[{"name":"강남찌개마을","tel":"032-678-0602","addr":"경기도 부천시 도당동 272-13번지","category":"일반휴게음식 - 일반한식"}]},{"lat":"37.507509006","long":"126.78276817","items":[{"name":"강남철물설비","tel":"032-676-9510","addr":"경기도 부천시 도당동 263-10번지 1층","category":"건축자재 - 목재·석재·철물"}]},{"lat":"37.507173401","long":"126.78157031","items":[{"name":"강남커텐","tel":"032-676-6500","addr":"경기도 부천시 도당동 276-3번지","category":"직물 - 카페트,커튼,천막,지물"},{"name":"동강마을","tel":"032-000-0000","addr":"경기도 부천시 도당동 276-3번지","category":"일반휴게음식 - 일반한식"}]},{"lat":"37.506117273","long":"126.78052163","items":[{"name":"강남포차","tel":"032-682-9337","addr":"경기도 부천시 도당동 279-5번지 평안교회 1층3호,4호,6호전부","category":"일반휴게음식 - 주점"},{"name":"코리아노래연습장","tel":"032-676-9271","addr":"경기도 부천시 도당동 279-5번지","category":"레저업소 - 노 래 방"},{"name":"황제라사","tel":"032-676-7774","addr":"경기도 부천시 도당동 279-5번지","category":"의류 - 맞춤복점"}]},{"lat":"37.507373394","long":"126.78251975","items":[{"name":"강남포차","tel":"032-655-8337","addr":"경기도 부천시 도당동 274-17번지 1층","category":"일반휴게음식 - 일반한식"},{"name":"부뚜막","tel":"","addr":"경기도 부천시 도당동 274-17번지","category":"일반휴게음식 - 일반한식"}]},{"lat":"37.506181065","long":"126.78090597","items":[{"name":"강남하림닭","tel":"032-682-0031","addr":"경기도 부천시 도당동 279-46번지","category":"음료식품 - 정육점"},{"name":"고창수산","tel":"031-111-1111","addr":"경기도 부천시 도당동 279-46번지 1층","category":"음료식품 - 농·축·수산품"},{"name":"변사또","tel":"070-7523-6492","addr":"경기도 부천시 도당동 279-46번지","category":"음료식품 - 농·축·수산품"},{"name":"올레수산","tel":"032-677-9139","addr":"경기도 부천시 도당동 279-46번지","category":"음료식품 - 농·축·수산품"}]},{"lat":"37.507373542","long":"126.78259892","items":[{"name":"강남화원","tel":"032-675-2705","addr":"경기도 부천시 도당동 274-16번지","category":"문화.취미 - 화원"}]},{"lat":"37.520559909","long":"126.79018437","items":[{"name":"강릉동태탕","tel":"032-675-5788","addr":"경기도 부천시 도당동 61번지 가동 1층 5호","category":"일반휴게음식 - 일반한식"},{"name":"강촌추어탕","tel":"032-678-9288","addr":"경기도 부천시 도당동 61번지","category":"일반휴게음식 - 일반한식"},{"name":"또봉이통닭&피자","tel":"032-682-7055","addr":"경기도 부천시 도당동 61번지","category":"일반휴게음식 - 일반한식"},{"name":"카덴트(도당점)","tel":"032-684-7782","addr":"경기도 부천시 도당동 61번지","category":"자동차정비 유지 - 가타자동차서비스"},{"name":"해온","tel":"032-683-9744","addr":"경기도 부천시 도당동 61번지","category":"일반휴게음식 - 일반한식"}]},{"lat":"37.510144118","long":"126.78504512","items":[{"name":"강민건설기계","tel":"032-676-0949","addr":"경기도 부천시 도당동 178-7번지 1층 2호","category":"기타 - 기계공구"},{"name":"우진상사","tel":"032-672-9936","addr":"경기도 부천시 도당동 178-7번지 상가","category":"직물 - 기타직물"}]},{"lat":"37.511423009","long":"126.77994036","items":[{"name":"강우스텐","tel":"02-831-2136","addr":"경기도 부천시 도당동 173-12","category":"건축자재 - 기타건축자재"}]},{"lat":"37.508539842","long":"126.78476703","items":[{"name":"강철소머리국밥","tel":"","addr":"경기도 부천시 도당동 255-3번지 1층 일부","category":"일반휴게음식 - 일반한식"},{"name":"덕바우감자탕","tel":"032-677-0891","addr":"경기도 부천시 도당동 255-3번지 1층","category":"일반휴게음식 - 일반한식"},{"name":"빅박스노래연습장","tel":"032-683-8829","addr":"경기도 부천시 도당동 255-3번지 지하","category":"레저업소 - 노 래 방"},{"name":"승리당구클럽","tel":"032-678-0395","addr":"경기도 부천시 도당동 255-3번지 2층","category":"레저업소 - 당 구 장"},{"name":"싸다횟집","tel":"070-4961-7275","addr":"경기도 부천시 도당동 255-3번지 1층","category":"일반휴게음식 - 일반한식"},{"name":"와글와글","tel":"","addr":"경기도 부천시 도당동 255-3번지","category":"일반휴게음식 - 주점"}]},{"lat":"37.513261728","long":"126.77558025","items":[{"name":"개성진찹쌀순대","tel":"","addr":"경기도 부천시 도당동 222-43번지 1층 102,103호(주)창성상사","category":"일반휴게음식 - 일반한식"},{"name":"비투앤","tel":"031-9241-6765","addr":"경기도 부천시 도당동 222-43번지 4층","category":"문화.취미 - 화방·표구점"}]},{"lat":"37.507345075","long":"126.78182993","items":[{"name":"갤러리하우스","tel":"","addr":"경기도 부천시 도당동 274-43번지","category":"의류 - 기타의류"},{"name":"단미미용유통","tel":"032-666-3110","addr":"경기도 부천시 도당동 274-43번지","category":"회원제형태 - 기타4"},{"name":"시장닭집","tel":"032-675-7306","addr":"경기도 부천시 도당동 274-43번지","category":"음료식품 - 정육점"}]},{"lat":"37.520560433","long":"126.7955462","items":[{"name":"갯마을식당","tel":"032-683-3685","addr":"경기도 부천시 도당동 140-2번지 우성빌라 101호","category":"일반휴게음식 - 일반한식"},{"name":"우성칼국수","tel":"032-671-5477","addr":"경기도 부천시 도당동 140-2번지 우성빌라 102호","category":"일반휴게음식 - 일반한식"}]},{"lat":"37.515149546","long":"126.78284753","items":[{"name":"거성식당","tel":"032-683-6737","addr":"경기도 부천시 도당동 24-14번지 1층","category":"일반휴게음식 - 일반한식"}]},{"lat":"37.511369165","long":"126.78488321","items":[{"name":"거성천막판넬공사","tel":"032-672-7204","addr":"경기도 부천시 도당동 86-2번지","category":"직물 - 카페트,커튼,천막,지물"},{"name":"신용전기","tel":"032-675-1191","addr":"경기도 부천시 도당동 86-2번지","category":"수리서비스 - 기타수리서비스"},{"name":"제일특수","tel":"032-681-1474","addr":"경기도 부천시 도당동 86-2번지","category":"기타 - 기계공구"},{"name":"행운각","tel":"032-675-6269","addr":"경기도 부천시 도당동 86-2번지","category":"일반휴게음식 - 중국식"},{"name":"향미정","tel":"032-675-2547","addr":"경기도 부천시 도당동 86-2번지 1층","category":"일반휴게음식 - 일반한식"}]},{"lat":"37.510566202","long":"126.78429741","items":[{"name":"건용정밀","tel":"032-677-4016","addr":"경기도 부천시 도당동 99-7번지","category":"기타 - 기타 전문점"},{"name":"대홍바퀴","tel":"032-679-8161","addr":"경기도 부천시 도당동 99-7번지 1층 5호","category":"기타 - 기계공구"},{"name":"영창베아링","tel":"032-672-7774","addr":"경기도 부천시 도당동 99-7번지","category":"기타 - 기계공구"},{"name":"일신종합공구","tel":"032-675-2385","addr":"경기도 부천시 도당동 99-7번지 1층 1호","category":"기타 - 기계공구"},{"name":"태양공구","tel":"032-681-5313","addr":"경기도 부천시 도당동 99-7번지 1층","category":"기타 - 기계공구"}]},{"lat":"37.514341139","long":"126.7841846","items":[{"name":"건우볼트","tel":"032-682-8397","addr":"경기도 부천시 도당동 88-9번지 B동 1층 12호","category":"기타 - 기계공구"},{"name":"대경상사","tel":"032-677-8835","addr":"경기도 부천시 도당동 88-9 B동 1층 10호","category":"의류 - 기타의류"},{"name":"새재히타콘트롤","tel":"032-678-2269","addr":"경기도 부천시 도당동 88-9번지B동1층15호","category":"기타 - 기계공구"},{"name":"세기케미칼","tel":"032-672-9777","addr":"경기도 부천시 도당동 88-9번지 1층 7호","category":"유통업 영리 - 기타유통업"},{"name":"정관장도당점","tel":"032-682-0325","addr":"경기도 부천시 도당동 88-9번지 B-10","category":"건강식품 - 홍삼제품"},{"name":"태근포장상사","tel":"032-677-6804","addr":"경기도 부천시 도당동 88-9번지 b동 1층 11","category":"신변잡화 - 기타잡화"}]},{"lat":"37.510675407","long":"126.78488523","items":[{"name":"경기도료","tel":"032-675-7573","addr":"경기도 부천시 도당동 86-12번지","category":"건축자재 - 페인트"}]},{"lat":"37.507926713","long":"126.78451999","items":[{"name":"경기리스","tel":"032-429-0130","addr":"경기도 부천시 도당동 260-45번지 1층","category":"신변잡화 - 기타잡화"}]},{"lat":"37.510569262","long":"126.77635752","items":[{"name":"경기식당","tel":"032-674-4935","addr":"경기도 부천시 도당동 237-10번지","category":"일반휴게음식 - 일반한식"}]},{"lat":"37.507758214","long":"126.7811275","items":[{"name":"경아네포차","tel":"032-673-9911","addr":"경기도 부천시 도당동 274-5번지 1층","category":"일반휴게음식 - 주점"}]},{"lat":"37.509287576","long":"126.78471961","items":[{"name":"경원종합공구","tel":"032-675-7917","addr":"경기도 부천시 도당동 255-6번지","category":"기타 - 기계공구"},{"name":"경인종합공구","tel":"032-675-1010","addr":"경기도 부천시 도당동 255-6번지","category":"기타 - 기계공구"},{"name":"경호기공사","tel":"032-675-5116","addr":"경기도 부천시 도당동 255-6번지 공구상가 다동 102호","category":"기타 - 기계공구"},{"name":"금강상사","tel":"032-675-4588","addr":"경기도 부천시 도당동 255-6번지","category":"전기제품 - 기타전기제품"},{"name":"신한일사","tel":"032-675-0400","addr":"경기도 부천시 도당동 255-6번지","category":"전기제품 - 가전제품"},{"name":"항만상사","tel":"032-676-8802","addr":"경기도 부천시 도당동 255-6번지","category":"기타 - 기계공구"},{"name":"호영상사","tel":"032-677-6612","addr":"경기도 부천시 도당동 255-6번지","category":"기타 - 기타 전문점"}]},{"lat":"37.508369323","long":"126.78512944","items":[{"name":"경원종합상사","tel":"032-683-0985","addr":"경기도 부천시 도당동 258-24번지 2호","category":"기타 - 기계공구"},{"name":"동명종합기획","tel":"032-681-1751","addr":"경기도 부천시 도당동 258-24번지 3층 301호","category":"기타 - 기타 전문점"}]},{"lat":"37.510866697","long":"126.78116354","items":[{"name":"경인모타펌프","tel":"032-676-0874","addr":"경기도 부천시 도당동 163-15번지 부천테크노월드 101호","category":"수리서비스 - 기타수리서비스"},{"name":"동성하이라이트","tel":"032-675-1503","addr":"경기도 부천시 도당동 163-15번지 부천테크노월드 604호","category":"건축자재 - 조명기구"},{"name":"민성테크","tel":"032-684-9855","addr":"경기도 부천시 도당동 163-15번지 부천테크노월드 302호","category":"전기제품 - 기타전기제품"},{"name":"위드미부천테크노월드점","tel":"032-0000-0000","addr":"경기도 부천시 도당동 163-15번지 부천테크노월드 106호","category":"유통업 영리 - 편 의 점"},{"name":"유성ENG","tel":"031-682-9133","addr":"경기도 부천시 도당동 163-15번지 부천테크노월드 103호 104호","category":"기타 - 기계공구"},{"name":"주식회사디져트스토리","tel":"070-4607-2761","addr":"경기도 부천시 도당동 163-15번지 부천테크노월드 204호","category":"음료식품 - 기타음료식품"}]},{"lat":"37.507180904","long":"126.78076729","items":[{"name":"경인상회","tel":"032-673-2321","addr":"경기도 부천시 도당동 279-12번지","category":"음료식품 - 농·축·수산품"}]},{"lat":"37.518124144","long":"126.79349425","items":[{"name":"경인설비","tel":"031-2674-6455","addr":"경기도 부천시 도당동 121-4번지 신안인스빌 101호","category":"용역 서비스 - 기타용역서비스"},{"name":"애드포지션","tel":"070-7363-0105","addr":"경기도 부천시 도당동 121-4번지 신안인스빌 502호","category":"용역 서비스 - 종합용역"}]},{"lat":"37.510757367","long":"126.78051917","items":[{"name":"경인자동차공업사","tel":"032-672-6812","addr":"경기도 부천시 도당동 164-18번지","category":"자동차정비 유지 - 자동차정비"}]},{"lat":"37.515895716","long":"126.78196307","items":[{"name":"경인정밀","tel":"032-556-1790","addr":"경기도 부천시 도당동 18-1번지 1층","category":"기타 - 기타 전문점"},{"name":"대동코끼리(GREAEL)","tel":"032-675-9366","addr":"경기도 부천시 도당동 18-1번지","category":"신변잡화 - 기타잡화"}]},{"lat":"37.517783275","long":"126.78437816","items":[{"name":"경인철물로또판매점","tel":"032-677-9984","addr":"경기도 부천시 도당동 28-7번지 중앙빌딩 1층","category":"건축자재 - 목재·석재·철물"},{"name":"논곡리토종순대국","tel":"032-678-1258","addr":"경기도 부천시 도당동 28-7번지 중앙빌딩 1층","category":"일반휴게음식 - 일반한식"},{"name":"몽마르뜨","tel":"","addr":"경기도 부천시 도당동 28-7번지 중앙빌딩 지하1층","category":"일반휴게음식 - 주점"},{"name":"산소바람","tel":"032-682-0234","addr":"경기도 부천시 도당동 28-7번지 중앙빌딩 2층 201호","category":"전기제품 - 기타전기제품"},{"name":"성연감자탕","tel":"032-679-5333","addr":"경기도 부천시 도당동 28-7번지 중앙빌딩 1층 일부, 2층 일부","category":"일반휴게음식 - 일반한식"},{"name":"체형관리센터","tel":"02-1111-1111","addr":"경기도 부천시 도당동 28-7번지 중앙빌딩 지층","category":"신변잡화 - 기타잡화"},{"name":"할인마트","tel":"032-671-3073","addr":"경기도 부천시 도당동 28-7번지 중앙빌딩 1층","category":"유통업 영리 - 슈퍼마켓"}]},{"lat":"37.519254926","long":"126.7909912","items":[{"name":"경진","tel":"032-672-7559","addr":"경기도 부천시 도당동 63-12번지 3층","category":"회원제형태 - 학원"},{"name":"미니 빈 카페(Mini Bean Cafe)","tel":"070-8623-5152","addr":"경기도 부천시 도당동 63-12번지 1층 일부","category":"일반휴게음식 - 서양음식"},{"name":"유은하음악학원","tel":"032-671-7559","addr":"경기도 부천시 도당동 63-12번지 유은하음악학원","category":"학원 - 예·체능계학원"},{"name":"쭈니네분식","tel":"032-678-7347","addr":"경기도 부천시 도당동 63-12번지 1층","category":"일반휴게음식 - 스넥"}]},{"lat":"37.518948671","long":"126.78607151","items":[{"name":"경희대힘찬태권도장","tel":"031-675-3406","addr":"경기도 부천시 도당동 42-4번지 삼덕빌딩 2층 좌측","category":"학원 - 예·체능계학원"},{"name":"만땅치킨(원종점)","tel":"032-683-1919","addr":"경기도 부천시 도당동 42-4번지 삼덕빌딩","category":"일반휴게음식 - 스넥"},{"name":"세븐일레븐부천도당중앙점","tel":"","addr":"경기도 부천시 도당동 42-4번지 1층 일부","category":"유통업 영리 - 편 의 점"},{"name":"신도건강원","tel":"032-673-9211","addr":"경기도 부천시 도당동 42-4번지","category":"건강식품 - 기타건강식품"},{"name":"열두손가락","tel":"032-678-1717","addr":"경기도 부천시 도당동 42-4번지 1층","category":"보건위생 - 미용원"},{"name":"태진조명","tel":"032-677-8729","addr":"경기도 부천시 도당동 42-4번지 삼덕빌딩","category":"건축자재 - 조명기구"},{"name":"호프클럽","tel":"032-677-5535","addr":"경기도 부천시 도당동 42-4번지 삼덕빌딩 지하1층 일부","category":"일반휴게음식 - 일반한식"}]},{"lat":"37.519839712","long":"126.79051446","items":[{"name":"고강철물건재","tel":"032-675-9933","addr":"경기도 부천시 도당동 62-2번지","category":"건축자재 - 목재·석재·철물"},{"name":"둘둘치킨","tel":"032-672-9922","addr":"경기도 부천시 도당동 62-2번지","category":"일반휴게음식 - 스넥"},{"name":"만나만나족발굴보쌈","tel":"032-683-6288","addr":"경기도 부천시 도당동 62-2번지","category":"일반휴게음식 - 일반한식"},{"name":"모든인쇄","tel":"032-681-6778","addr":"경기도 부천시 도당동 62-2번지 2층","category":"서적문구 - 출판 및 인쇄물"},{"name":"버들골","tel":"032-677-4667","addr":"경기도 부천시 도당동 62-2번지","category":"일반휴게음식 - 일반한식"},{"name":"와바헤어","tel":"032-673-1984","addr":"경기도 부천시 도당동 62-2번지","category":"보건위생 - 미용원"},{"name":"인달포차","tel":"070-7344-9990","addr":"경기도 부천시 도당동 62-2번지 1층","category":"일반휴게음식 - 일반한식"},{"name":"커니스제빙기","tel":"032-671-1616","addr":"경기도 부천시 도당동 62-2번지 1층","category":"주방용구 - 주방용구"}]},{"lat":"37.519929077","long":"126.79010698","items":[{"name":"고기마을","tel":"032-671-5129","addr":"경기도 부천시 도당동 62번지 미성하이츠맨션","category":"일반휴게음식 - 일반한식"}]},{"lat":"37.507927381","long":"126.78488191","items":[{"name":"고래마트","tel":"","addr":"경기도 부천시 도당동 258-7번지 1층","category":"유통업 영리 - 슈퍼마켓"}]},{"lat":"37.513979823","long":"126.78368797","items":[{"name":"고려기연","tel":"032-677-8436","addr":"경기도 부천시 도당동 88-21번지","category":"기타 - 기계공구"},{"name":"고려기연/원격지","tel":"032-677-8436","addr":"경기도 부천시 도당동 88-21번지","category":"기타 - 기타 전문점"}]},{"lat":"37.508672791","long":"126.78357908","items":[{"name":"고려모터스","tel":"070-7303-6392","addr":"경기도 부천시 도당동 257-19번지","category":"기타 - 기계공구"}]},{"lat":"37.513478199","long":"126.78527295","items":[{"name":"고려정밀","tel":"032-681-9018","addr":"경기도 부천시 도당동 81-1번지","category":"전기제품 - 기타전기제품"},{"name":"더카페&마트","tel":"032-673-2100","addr":"경기도 부천시 도당동 81-1번지 1층","category":"유통업 영리 - 슈퍼마켓"},{"name":"장흥맛집","tel":"032-681-0047","addr":"경기도 부천시 도당동 81-1번지 1층","category":"일반휴게음식 - 일반한식"}]},{"lat":"37.506648705","long":"126.78044088","items":[{"name":"고바우해장국","tel":"032-678-3018","addr":"경기도 부천시 도당동 279-4번지 1층","category":"일반휴게음식 - 일반한식"},{"name":"돈가왕주먹고기","tel":"032-672-9211","addr":"경기도 부천시 도당동 279-4번지 1층","category":"일반휴게음식 - 일반한식"},{"name":"레드PC","tel":"","addr":"경기도 부천시 도당동 279-4번지 3층 일부","category":"레저업소 - 기타레져업소"},{"name":"싸이노래연습장","tel":"032-682-3786","addr":"경기도 부천시 도당동 279-4번지","category":"레저업소 - 노 래 방"},{"name":"쓰리고호프","tel":"032-5716-6028","addr":"경기도 부천시 도당동 279-4번지","category":"일반휴게음식 - 주점"},{"name":"영레저스포츠","tel":"032-675-1983","addr":"경기도 부천시 도당동 279-4번지","category":"레져용품 - 스포츠·레져용품"},{"name":"커피베이 강남시장점","tel":"032-681-4985","addr":"경기도 부천시 도당동 279-4번지 1층","category":"일반휴게음식 - 서양음식"},{"name":"타임스케어","tel":"032-1111-111","addr":"경기도 부천시 도당동 279-4번지 1층","category":"보건위생 - 이용원"},{"name":"타임플러스","tel":"032-684-1447","addr":"경기도 부천시 도당동 279-4번지","category":"보건위생 - 미용원"},{"name":"황금수산","tel":"032-677-7890","addr":"경기도 부천시 도당동 279-4번지 1층","category":"일반휴게음식 - 일식·회집"}]},{"lat":"37.509283125","long":"126.77754897","items":[{"name":"고봉밥","tel":"02-1234-1234","addr":"경기도 부천시 도당동 239-19번지 1층","category":"일반휴게음식 - 일반한식"}]},{"lat":"37.505840006","long":"126.78160818","items":[{"name":"고씨네케이크","tel":"","addr":"경기도 부천시 도당동 278-59번지","category":"일반휴게음식 - 서양음식"},{"name":"종금당","tel":"032-676-2006","addr":"경기도 부천시 도당동 278-59번지","category":"신변잡화 - 시계"}]},{"lat":"37.505840937","long":"126.7821058","items":[{"name":"고향나루","tel":"032-672-6648","addr":"경기도 부천시 도당동 278-53번지","category":"일반휴게음식 - 일반한식"},{"name":"비비헤어","tel":"070-4007-8956","addr":"경기도 부천시 도당동 278-53번지","category":"보건위생 - 미용원"}]},{"lat":"37.507091082","long":"126.78091458","items":[{"name":"고향떡집","tel":"032-675-5605","addr":"경기도 부천시 도당동 279-14번지","category":"음료식품 - 제과점"},{"name":"바다수산","tel":"","addr":"경기도 부천시 도당동 279-14번지","category":"음료식품 - 농·축·수산품"},{"name":"한우리","tel":"032-676-0482","addr":"경기도 부천시 도당동 279-14번지","category":"음료식품 - 농·축·수산품"}]},{"lat":"37.508458085","long":"126.78440534","items":[{"name":"고향순대국","tel":"032-671-3956","addr":"경기도 부천시 도당동 257-15번지","category":"일반휴게음식 - 일반한식"},{"name":"영진노래연습장","tel":"032-674-7163","addr":"경기도 부천시 도당동 257-15번지","category":"레저업소 - 노 래 방"},{"name":"영진슈퍼","tel":"032-683-7898","addr":"경기도 부천시 도당동 257-15번지","category":"유통업 영리 - 슈퍼마켓"}]},{"lat":"37.510204781","long":"126.78374425","items":[{"name":"고향식당","tel":"032-673-2080","addr":"경기도 부천시 도당동 254-1번지","category":"일반휴게음식 - 일반한식"},{"name":"아쿠아시스","tel":"02-1644-2879","addr":"경기도 부천시 도당동 254-1번지 부천공구상가 436동 303호","category":"주방용구 - 정수기"}]},{"lat":"37.519284826","long":"126.79259738","items":[{"name":"곱지","tel":"032-675-2197","addr":"경기도 부천시 도당동 118-10","category":"의류 - 정장"},{"name":"곱지","tel":"032-678-1897","addr":"경기도 부천시 도당동 118-10번지","category":"의류 - 정장"},{"name":"바다마을","tel":"032-684-5814","addr":"경기도 부천시 도당동 118-10번지 한영빌딩 1층","category":"일반휴게음식 - 일식·회집"},{"name":"바다수산","tel":"070-4964-2466","addr":"경기도 부천시 도당동 118-10번지 1층","category":"음료식품 - 농·축·수산품"},{"name":"어깨너머팝앤캐리","tel":"","addr":"경기도 부천시 도당동 118-10번지 한영빌딩 나동 1층왼쪽 첫번째상가 이발소옆","category":"학원 - 예·체능계학원"},{"name":"에듀탑보습학원","tel":"032-678-9930","addr":"경기도 부천시 도당동 118-10번지 한영빌딩 2층","category":"학원 - 보습학원"}]},{"lat":"37.516867114","long":"126.79088484","items":[{"name":"곱창광","tel":"032-677-3839","addr":"경기도 부천시 도당동 69-1번지 진성그린테라스 상가동 2층 203호","category":"일반휴게음식 - 일반한식"},{"name":"떡보의하루오정점","tel":"032-681-1457","addr":"경기도 부천시 도당동 69-1 진성그린테라스상가 -201","category":"음료식품 - 제과점"},{"name":"카페오늘","tel":"","addr":"경기도 부천시 도당동 69-1번지 진성그린테라스 상가동 2층 202호","category":"일반휴게음식 - 서양음식"}]},{"lat":"37.51751298","long":"126.78437895","items":[{"name":"공장1번지 공인중개사 사무소","tel":"032-677-5200","addr":"경기도 부천시 도당동 27-3번지 1층 정면 우측","category":"용역 서비스 - 부동산 중개·임대"},{"name":"한도기업","tel":"032-675-7937","addr":"경기도 부천시 도당동 27-3번지 1층","category":"건축자재 - 목재·석재·철물"}]},{"lat":"37.515594053","long":"126.77965649","items":[{"name":"광덕카경정비세차장","tel":"032-672-1943","addr":"경기도 부천시 도당동 11-1번지 ***연번지,2","category":"자동차정비 유지 - 자동차정비"}]},{"lat":"37.517206541","long":"126.78432328","items":[{"name":"광명전기","tel":"032-675-9553","addr":"경기도 부천시 도당동 27-5번지","category":"기타 - 기계공구"}]},{"lat":"37.506289608","long":"126.78113184","items":[{"name":"광어촌","tel":"032-679-0855","addr":"경기도 부천시 도당동 278-4번지 1층","category":"일반휴게음식 - 일반한식"},{"name":"아이들세상","tel":"032-672-8103","addr":"경기도 부천시 도당동 278-4번지","category":"의류 - 아동의류"},{"name":"참한우생고기장터","tel":"032-677-8070","addr":"경기도 부천시 도당동 278-4번지","category":"음료식품 - 정육점"}]},{"lat":"37.510035215","long":"126.77979746","items":[{"name":"광영아크릴","tel":"032-555-1437","addr":"경기도 부천시 도당동 281-31번지 1층","category":"건축자재 - 기타건축자재"},{"name":"창레이저용접","tel":"032-675-6453","addr":"경기도 부천시 도당동 281-31번지 1층 도로변 우측 약 20평","category":"건축자재 - 기타건축자재"}]},{"lat":"37.519120584","long":"126.78646692","items":[{"name":"광일전기","tel":"032-679-1634","addr":"경기도 부천시 도당동 43번지 중앙블리체","category":"전기제품 - 기타전기제품"},{"name":"동현정공","tel":"032-683-4257","addr":"경기도 부천시 도당동 43번지 중앙블리체","category":"기타 - 기계공구"},{"name":"부천상사","tel":"032-673-1712","addr":"경기도 부천시 도당동 43번지 중앙블리체","category":"자동차정비 유지 - 자동차부품"},{"name":"사구공방","tel":"032-675-0049","addr":"경기도 부천시 도당동 43번지 중앙블리체","category":"레져용품 - 스포츠·레져용품"},{"name":"삼보자동차정비공업사","tel":"032-672-4882","addr":"경기도 부천시 도당동 43번지 중앙블리체","category":"자동차정비 유지 - 자동차정비"}]},{"lat":"37.52023102","long":"126.79268522","items":[{"name":"국수조아","tel":"","addr":"경기도 부천시 도당동 116-12번지 1층 일부","category":"일반휴게음식 - 일반한식"},{"name":"도당건강원","tel":"032-682-0330","addr":"경기도 부천시 도당동 116-12번지 1층","category":"건강식품 - 기타건강식품"},{"name":"머무름 꽃 차","tel":"","addr":"경기도 부천시 도당동 116-12번지 1층","category":"문화.취미 - 화원"},{"name":"봉구스밥버거","tel":"070-8628-6736","addr":"경기도 부천시 도당동 116-12번지 1층","category":"일반휴게음식 - 스넥"},{"name":"아름다운공간자연인테리어","tel":"032-678-2074","addr":"경기도 부천시 도당동 116-12번지 1층","category":"직물 - 카페트,커튼,천막,지물"},{"name":"화난 문어씨","tel":"032-672-3328","addr":"경기도 부천시 도당동 116-12번지 상가 1층","category":"일반휴게음식 - 서양음식"}]},{"lat":"37.515231582","long":"126.78335629","items":[{"name":"국일&신성","tel":"032-682-8585","addr":"경기도 부천시 도당동 24-4번지","category":"일반휴게음식 - 일반한식"}]},{"lat":"37.516115789","long":"126.7792138","items":[{"name":"국제로프","tel":"032-681-4311","addr":"경기도 부천시 도당동 9번지 1동 211호 111호","category":"기타 - 기계공구"},{"name":"김재숙세무회계사무소","tel":"032-683-2146","addr":"경기도 부천시 도당동 9번지","category":"용역 서비스 - 법률회계서비스(개인)"},{"name":"대영상사","tel":"032-684-1598","addr":"경기도 부천시 도당동 9번지","category":"기타 - 기계공구"},{"name":"바이론텍코리아","tel":"070-8234-0465","addr":"경기도 부천시 도당동 9번지 306호","category":"보건위생 - 의료용품"},{"name":"삼성라디에터","tel":"032-679-3804","addr":"경기도 부천시 도당동 9번지","category":"건축자재 - 유리"},{"name":"우진엔지니어링","tel":"032-675-0406","addr":"경기도 부천시 도당동 9번지","category":"기타 - 기계공구"},{"name":"우진엔지니어링/원격지","tel":"032-675-0406","addr":"경기도 부천시 도당동 9번지","category":"기타 - 기타 전문점"},{"name":"한신콤프렛서","tel":"032-675-4400","addr":"경기도 부천시 도당동 9번지","category":"기타 - 기계공구"}]},{"lat":"37.52022744","long":"126.79068303","items":[{"name":"국제식당","tel":"032-676-9222","addr":"경기도 부천시 도당동 61-15번지 1층 일부 3 ,4, 5호","category":"일반휴게음식 - 일반한식"},{"name":"불꽃노래연습장","tel":"032-672-7728","addr":"경기도 부천시 도당동 61-15번지 지하","category":"레저업소 - 노 래 방"},{"name":"예술","tel":"032-569-6090","addr":"경기도 부천시 도당동 61-15번지","category":"보건위생 - 기타대인서비스"},{"name":"투다리꼬치체인점","tel":"032-673-9300","addr":"경기도 부천시 도당동 61-15번지","category":"일반휴게음식 - 일반한식"}]},{"lat":"37.507368666","long":"126.78482698","items":[{"name":"국제태권도체육관","tel":"032-676-1388","addr":"경기도 부천시 도당동 263-29번지","category":"학원 - 예·체능계학원"},{"name":"농심마트","tel":"032-676-6060","addr":"경기도 부천시 도당동 263-29번지","category":"유통업 영리 - 슈퍼마켓"},{"name":"디디알노래연습장","tel":"070-4961-5171","addr":"경기도 부천시 도당동 263-29번지 지하층 지","category":"레저업소 - 노 래 방"}]},{"lat":"37.519926953","long":"126.7939643","items":[{"name":"궁전노래연습장","tel":"","addr":"경기도 부천시 도당동 131번지 지층","category":"레저업소 - 노 래 방"},{"name":"세명정보통신 도당점","tel":"032-678-2500","addr":"경기도 부천시 도당동 131번지","category":"사무통신 - 통신기기"},{"name":"에스비에스 스포츠당구클럽","tel":"","addr":"경기도 부천시 도당동 131번지 3층","category":"레저업소 - 당 구 장"},{"name":"월드프라자","tel":"032-681-0506","addr":"경기도 부천시 도당동 131번지","category":"자동차정비 유지 - 자동차정비"},{"name":"윤수민 댄스(YSM DANCE STUDIO)","tel":"032-673-8434","addr":"경기도 부천시 도당동 131번지 4층","category":"학원 - 예·체능계학원"},{"name":"주식회사 세명","tel":"032-719-8266","addr":"경기도 부천시 도당동 131번지 5층","category":"사무통신 - 통신기기"}]},{"lat":"37.517568275","long":"126.78998926","items":[{"name":"그라또우 헤어샵","tel":"032-678-7848","addr":"경기도 부천시 도당동 67번지 성원맨션 102동 104호","category":"보건위생 - 미용원"},{"name":"보스턴핫도그","tel":"032-683-7075","addr":"경기도 부천시 도당동 67번지 성원맨션 102동 102호","category":"일반휴게음식 - 일반한식"},{"name":"육전잔치국수","tel":"070-7337-0466","addr":"경기도 부천시 도당동 67번지 성원맨션 102동 103호","category":"일반휴게음식 - 일반한식"},{"name":"츄츄바","tel":"032-678-0964","addr":"경기도 부천시 도당동 67번지 성원맨션 102동 101호 일부","category":"일반휴게음식 - 스넥"}]},{"lat":"37.508283558","long":"126.78260756","items":[{"name":"그린냉동에어컨","tel":"02-2683-8282","addr":"경기도 부천시 도당동 273-11번지 1층","category":"전기제품 - 가전제품"}]},{"lat":"37.516365846","long":"126.78771911","items":[{"name":"그린산업","tel":"070-8625-7014","addr":"경기도 부천시 도당동 49-9번지 삼보그린빌 501호","category":"용역 서비스 - 기타용역서비스"}]},{"lat":"37.516423709","long":"126.78487982","items":[{"name":"그린세탁소","tel":"032-679-0656","addr":"경기도 부천시 도당동 32번지","category":"수리서비스 - 세탁소"},{"name":"대박24시해장국","tel":"032-678-0054","addr":"경기도 부천시 도당동 32번지","category":"일반휴게음식 - 일반한식"},{"name":"무지개슈퍼","tel":"032-672-2388","addr":"경기도 부천시 도당동 32번지","category":"유통업 영리 - 슈퍼마켓"},{"name":"미소헤어샵","tel":"032-683-6369","addr":"경기도 부천시 도당동 32번지","category":"보건위생 - 미용원"},{"name":"선한약국","tel":"032-676-5381","addr":"경기도 부천시 도당동 32번지","category":"약국 - 약국"},{"name":"이영한식부페","tel":"032-679-9361","addr":"경기도 부천시 도당동 32번지","category":"일반휴게음식 - 일반한식"}]},{"lat":"37.515677164","long":"126.78557197","items":[{"name":"그린스푼","tel":"070-8990-5232","addr":"경기도 부천시 도당동 33-10번지 우리하이빌 101호","category":"일반휴게음식 - 일반한식"}]},{"lat":"37.513873001","long":"126.7748545","items":[{"name":"그린하우징코리아(주)","tel":"032-671-5700","addr":"경기도 부천시 도당동 214-10번지 1층","category":"건축자재 - 기타건축자재"},{"name":"페인트시티","tel":"032-677-7337","addr":"경기도 부천시 도당동 214-10번지","category":"건축자재 - 페인트"}]},{"lat":"37.519261942","long":"126.79493896","items":[{"name":"그림나라미술학원","tel":"032-683-7672","addr":"경기도 부천시 도당동 130-6번지 2층","category":"학원 - 예·체능계학원"},{"name":"그림나라보습학원","tel":"032-682-7672","addr":"경기도 부천시 도당동 130-6번지 3층","category":"학원 - 보습학원"},{"name":"예스21이(YES21e)","tel":"032-672-6818","addr":"경기도 부천시 도당동 130-6번지","category":"회원제형태 - 서적"},{"name":"커피나무부천도당점","tel":"032-679-6818","addr":"경기도 부천시 도당동 130-6번지 1층","category":"일반휴게음식 - 서양음식"}]},{"lat":"37.507096527","long":"126.77902582","items":[{"name":"그옛날통닭","tel":"032-682-7292","addr":"경기도 부천시 도당동 247-47번지 일부 1층","category":"일반휴게음식 - 주점"}]},{"lat":"37.516261678","long":"126.78495947","items":[{"name":"금강기획","tel":"032-683-2600","addr":"경기도 부천시 도당동 32-3번지 2층","category":"광학제품 - 기타광학제품"},{"name":"다인기획","tel":"032-684-9702","addr":"경기도 부천시 도당동 32-3번지","category":"서적문구 - 출판 및 인쇄물"},{"name":"도당수산시장","tel":"032-678-0044","addr":"경기도 부천시 도당동 32-3번지 1층","category":"일반휴게음식 - 일식·회집"}]},{"lat":"37.515367339","long":"126.78368392","items":[{"name":"금강올텍","tel":"","addr":"경기도 부천시 도당동 25-1번지 2층","category":"기타 - 기계공구"}]},{"lat":"37.511595858","long":"126.78082207","items":[{"name":"금강전자","tel":"032-678-7413","addr":"경기도 부천시 도당동 164-6번지","category":"전기제품 - 기타전기제품"}]},{"lat":"37.50748579","long":"126.77999731","items":[{"name":"금보당","tel":"032-677-6969","addr":"경기도 부천시 도당동 283-18번지","category":"신변잡화 - 귀금속"},{"name":"남자머리이야기","tel":"032-684-1749","addr":"경기도 부천시 도당동 283-18번지 1층","category":"보건위생 - 미용원"},{"name":"씨엔씨노래연습장","tel":"032-678-6199","addr":"경기도 부천시 도당동 283-18번지 지층","category":"레저업소 - 노 래 방"},{"name":"아트당구장","tel":"032-205-0220","addr":"경기도 부천시 도당동 283-18번지","category":"레저업소 - 당 구 장"},{"name":"육문포차","tel":"032-611-2288","addr":"경기도 부천시 도당동 283-18번지 1층","category":"일반휴게음식 - 일반한식"},{"name":"코끼리헤어","tel":"","addr":"경기도 부천시 도당동 283-18번지 1층","category":"보건위생 - 미용원"}]},{"lat":"37.51378275","long":"126.77477559","items":[{"name":"금빛코다리","tel":"032-673-2404","addr":"경기도 부천시 도당동 214-15번지","category":"일반휴게음식 - 일반한식"}]},{"lat":"37.506704062","long":"126.78113062","items":[{"name":"금산인삼","tel":"032-679-5086","addr":"경기도 부천시 도당동 277-6번지한신가동1층4","category":"건강식품 - 인삼제품"},{"name":"신강남건강원","tel":"032-684-0999","addr":"경기도 부천시 도당동 277-6한신가동1층5","category":"건강식품 - 기타건강식품"},{"name":"풍년방앗간","tel":"032-684-3768","addr":"경기도 부천시 도당동 277-6 한신빌라가동1층3호","category":"음료식품 - 제과점"}]},{"lat":"37.506789914","long":"126.77887971","items":[{"name":"금성공조산업","tel":"032-655-6655","addr":"경기도 부천시 도당동 262-1번지 정면 1층 좌측코너","category":"전기제품 - 냉열기기"}]},{"lat":"37.509818949","long":"126.78460496","items":[{"name":"금성납공구상사","tel":"032-675-0909","addr":"경기도 부천시 도당동 253-7번지 공구상가","category":"기타 - 기계공구"},{"name":"대덕피앤피","tel":"032-673-8822","addr":"경기도 부천시 도당동 253-7번지 가동 8호","category":"건축자재 - 기타건축자재"},{"name":"대영용접기","tel":"032-676-7242","addr":"경기도 부천시 도당동 253-7부천공구상가 가-5","category":"기타 - 기타 전문점"},{"name":"대호상사","tel":"032-657-0231","addr":"경기도 부천시 도당동 253-7번지","category":"기타 - 기계공구"},{"name":"삼부공구상사","tel":"032-676-7680","addr":"경기도 부천시 도당동 253-7번지 공구상가 106호","category":"기타 - 기계공구"},{"name":"삼창전기","tel":"031-681-3006","addr":"경기도 부천시 도당동 253-7 가동5호 1.2층","category":"전기제품 - 기타전기제품"}]},{"lat":"37.506756078","long":"126.78004472","items":[{"name":"금성전기조명","tel":"032-683-5105","addr":"경기도 부천시 도당동 284-13번지","category":"전기제품 - 가전제품"},{"name":"술먹자친구야","tel":"","addr":"경기도 부천시 도당동 284-13번지 2층","category":"일반휴게음식 - 주점"}]},{"lat":"37.508594423","long":"126.78504962","items":[{"name":"금일공구","tel":"032-671-9449","addr":"경기도 부천시 도당동 255-2번지","category":"기타 - 기계공구"},{"name":"엘케이호이스트쎈타","tel":"032-673-0493","addr":"경기도 부천시 도당동 255-2번지","category":"기타 - 기계공구"}]},{"lat":"37.514870978","long":"126.78324424","items":[{"name":"금토펌프","tel":"032-675-2414","addr":"경기도 부천시 도당동 89-1","category":"건축자재 - 보일러·펌프·샷시"},{"name":"세종아크릴","tel":"032-683-0565","addr":"경기도 부천시 도당동 89-1번지 건물 2층","category":"주방용구 - 주방용구"}]},{"lat":"37.517374217","long":"126.78243379","items":[{"name":"금호금속","tel":"032-674-9362","addr":"경기도 부천시 도당동 20번지","category":"기타 - 기계공구"},{"name":"현대금속","tel":"032-681-2416","addr":"경기도 부천시 도당동 20번지","category":"기타 - 기타 전문점"}]},{"lat":"37.513005414","long":"126.78296694","items":[{"name":"금화","tel":"032-672-5876","addr":"경기도 부천시 도당동 96-3번지 2층","category":"건축자재 - 목재·석재·철물"}]},{"lat":"37.517013254","long":"126.78212945","items":[{"name":"기륭씰산업/원격지","tel":"032-671-8601","addr":"경기도 부천시 도당동 14-5번지","category":"기타 - 기타 전문점"}]},{"lat":"37.516427036","long":"126.78668961","items":[{"name":"길종합개발","tel":"032-677-2220","addr":"경기도 부천시 도당동 35-9번지 신명리치빌","category":"용역 서비스 - 종합용역"}]},{"lat":"37.506593687","long":"126.77993211","items":[{"name":"김가네 숯불갈비","tel":"","addr":"경기도 부천시 도당동 284-2번지 1,2층","category":"일반휴게음식 - 일반한식"},{"name":"김선생숯불갈비","tel":"032-673-7373","addr":"경기도 부천시 도당동 284-2번지 2층 일부","category":"음료식품 - 정육점"},{"name":"태능숯불갈비","tel":"032-673-7373","addr":"경기도 부천시 도당동 284-2번지 1,2층","category":"일반휴게음식 - 일반한식"}]},{"lat":"37.507369855","long":"126.78063101","items":[{"name":"김가네한방왕족발","tel":"032-675-3182","addr":"경기도 부천시 도당동 275-13번지 1층","category":"음료식품 - 기타음료식품"},{"name":"써니네일 (SUNNY NAIL)","tel":"032-673-6966","addr":"경기도 부천시 도당동 275-13번지","category":"보건위생 - 피부미용실"},{"name":"탈렌트화장품","tel":"032-676-0531","addr":"경기도 부천시 도당동 275-13번지 1층","category":"보건위생 - 화장품"}]},{"lat":"37.520232146","long":"126.79331868","items":[{"name":"김밥천국","tel":"032-676-3739","addr":"경기도 부천시 도당동 116-14번지","category":"일반휴게음식 - 스넥"},{"name":"도당메디칼약국","tel":"032-684-1350","addr":"경기도 부천시 도당동 116-14번지 1층","category":"약국 - 약국"},{"name":"도당삼성의원","tel":"032-678-8119","addr":"경기도 부천시 도당동 116-14번지2층4층","category":"의원 - 의원"},{"name":"짱노래연습장","tel":"070-7379-5937","addr":"경기도 부천시 도당동 116-14번지 지층","category":"레저업소 - 노 래 방"},{"name":"한양대유신태권도체육관","tel":"032-677-8082","addr":"경기도 부천시 도당동 116-14번지","category":"학원 - 예·체능계학원"},{"name":"헤어샘","tel":"032-679-1177","addr":"경기도 부천시 도당동 116-14번지 1층","category":"보건위생 - 미용원"}]},{"lat":"37.517901323","long":"126.78487552","items":[{"name":"김밥천국","tel":"032-674-3526","addr":"경기도 부천시 도당동 29-1번지","category":"일반휴게음식 - 스넥"},{"name":"다락방","tel":"032-682-6969","addr":"경기도 부천시 도당동 29-1번지 지1층","category":"일반휴게음식 - 서양음식"}]},{"lat":"37.507370111","long":"126.78076673","items":[{"name":"김밥천국","tel":"032-677-4677","addr":"경기도 부천시 도당동 275-14번지","category":"일반휴게음식 - 일반한식"},{"name":"보물나라","tel":"","addr":"경기도 부천시 도당동 275-14번지 1층 일부","category":"신변잡화 - 기타잡화"},{"name":"해내음유통","tel":"032-675-2142","addr":"경기도 부천시 도당동 275-14번지","category":"음료식품 - 기타음료식품"}]},{"lat":"37.519757523","long":"126.79496021","items":[{"name":"김연숙 김밥","tel":"032-678-0122","addr":"경기도 부천시 도당동 131-3번지 스테이트빌딩 101호","category":"일반휴게음식 - 일반한식"}]},{"lat":"37.506896019","long":"126.78260032","items":[{"name":"김영례 헤어시스템","tel":"032-000-0000","addr":"경기도 부천시 도당동 276-13번지 1층","category":"보건위생 - 미용원"}]},{"lat":"37.514838667","long":"126.77568857","items":[{"name":"김원태세무회계사무소","tel":"032-655-4600","addr":"경기도 부천시 도당동 4-14번지 SB타워 7층 705호","category":"용역 서비스 - 법률회계서비스(개인)"},{"name":"비엔비 (B&B) 당구클럽","tel":"02-1111-1111","addr":"경기도 부천시 도당동 4-14번지 SB타워 401호","category":"레저업소 - 당 구 장"},{"name":"신세계부동산공인중개사사무소","tel":"032-677-4567","addr":"경기도 부천시 도당동 4-14번지 SB타워 104호","category":"용역 서비스 - 부동산 중개·임대"},{"name":"쓰리탕 씨스페이스 약대본점","tel":"","addr":"경기도 부천시 도당동 4-14번지 SB타워 1층 103호","category":"유통업 영리 - 편 의 점"},{"name":"엄마밥상","tel":"032-676-9588","addr":"경기도 부천시 도당동 4-14번지 101호 201호","category":"일반휴게음식 - 일반한식"},{"name":"이디야부천약대오거리점","tel":"032-677-3201","addr":"경기도 부천시 도당동 4-14번지 SB타워 1층 105호","category":"일반휴게음식 - 서양음식"},{"name":"이디야부천약대오거리점","tel":"032-677-3201","addr":"경기도 부천시 도당동 4-14번지 SB타워 105호","category":"일반휴게음식 - 서양음식"}]},{"lat":"37.505901036","long":"126.78052227","items":[{"name":"김이랑밥이랑","tel":"032-681-4713","addr":"경기도 부천시 도당동 279-7번지","category":"일반휴게음식 - 스넥"},{"name":"단골집철판곱창","tel":"032-681-8292","addr":"경기도 부천시 도당동 279-7번지 1층 2호","category":"일반휴게음식 - 일반한식"},{"name":"맹순이왕솥뚜껑","tel":"032-676-0314","addr":"경기도 부천시 도당동 279-7번지 11호","category":"일반휴게음식 - 일반한식"},{"name":"모여라연탄구이","tel":"032-671-5623","addr":"경기도 부천시 도당동 279-7번지 1층 1호","category":"일반휴게음식 - 일반한식"},{"name":"미&창조헤어","tel":"032-683-5758","addr":"경기도 부천시 도당동 279-7번지","category":"보건위생 - 미용원"},{"name":"영풍 노래연습장","tel":"032-673-7757","addr":"경기도 부천시 도당동 279-7번지 2층 1호","category":"레저업소 - 노 래 방"},{"name":"포인트","tel":"032-678-1864","addr":"경기도 부천시 도당동 279-7번지 제1층8호","category":"일반휴게음식 - 주점"}]},{"lat":"37.50742538","long":"126.78141123","items":[{"name":"까르띠에","tel":"032-671-5020","addr":"경기도 부천시 도당동 274-54번지","category":"의류 - 정장"},{"name":"민속포차","tel":"032-676-4394","addr":"경기도 부천시 도당동 274-54번지","category":"일반휴게음식 - 주점"},{"name":"착한안경원","tel":"032-671-2006","addr":"경기도 부천시 도당동 274-54번지 1층","category":"보건위생 - 안경"}]},{"lat":"37.517592049","long":"126.78819067","items":[{"name":"까망헤어샵","tel":"032-681-2285","addr":"경기도 부천시 도당동 47-6번지","category":"보건위생 - 미용원"}]},{"lat":"37.507180542","long":"126.78057502","items":[{"name":"꼬르륵","tel":"032-679-1294","addr":"경기도 부천시 도당동 279-8번지 1층","category":"일반휴게음식 - 스넥"},{"name":"머리염색전문점","tel":"070-7328-2001","addr":"경기도 부천시 도당동 279-8번지","category":"보건위생 - 미용원"},{"name":"피엠푸드 강남시장점","tel":"032-684-1082","addr":"경기도 부천시 도당동 279-8번지","category":"일반휴게음식 - 서양음식"}]},{"lat":"37.506619048","long":"126.77904987","items":[{"name":"꽃비","tel":"032-677-4178","addr":"경기도 부천시 도당동 262-25번지","category":"일반휴게음식 - 주점"},{"name":"취향","tel":"032-651-1253","addr":"경기도 부천시 도당동 262-25번지 1층","category":"일반휴게음식 - 일반한식"}]},{"lat":"37.516506069","long":"126.78556957","items":[{"name":"꿀마니닭강정","tel":"032-676-8083","addr":"경기도 부천시 도당동 35번지 1층","category":"일반휴게음식 - 일반한식"}]},{"lat":"37.51567926","long":"126.78671439","items":[{"name":"꿈.마트","tel":"032-676-2637","addr":"경기도 부천시 도당동 33-26번지 으뜸베스트빌 102호","category":"유통업 영리 - 슈퍼마켓"}]},{"lat":"37.516866017","long":"126.79027403","items":[{"name":"나나의 댄스세상","tel":"070-8031-0164","addr":"경기도 부천시 도당동 69번지 우남아파트","category":"학원 - 예·체능계학원"},{"name":"녹색푸드","tel":"032-671-9121","addr":"경기도 부천시 도당동 69번지 우남아파트","category":"음료식품 - 제과점"},{"name":"제일에너텍","tel":"","addr":"경기도 부천시 도당동 69번지 우남아파트","category":"용역 서비스 - 기타용역서비스"}]},{"lat":"37.506090995","long":"126.78576941","items":[{"name":"나앤미(NA&ME)","tel":"032-000-0000","addr":"경기도 부천시 도당동 264-8번지","category":"의류 - 정장"},{"name":"명신도료","tel":"032-676-7244","addr":"경기도 부천시 도당동 264-8번지","category":"건축자재 - 페인트"},{"name":"삼순이네","tel":"032-676-9200","addr":"경기도 부천시 도당동 264-8번지 1층","category":"일반휴게음식 - 일반한식"},{"name":"씨유부천도당점","tel":"032-682-5846","addr":"경기도 부천시 도당동 264-8번지 1층","category":"유통업 영리 - 편 의 점"}]},{"lat":"37.506703126","long":"126.78063299","items":[{"name":"나이스당구클럽","tel":"032-678-3018","addr":"경기도 부천시 도당동 279-36번지","category":"레저업소 - 당 구 장"}]},{"lat":"37.509539748","long":"126.78466233","items":[{"name":"낙원","tel":"032-672-5708","addr":"경기도 부천시 도당동 253-8번지","category":"보건위생 - 화장품"},{"name":"대원전기","tel":"032-675-3157","addr":"경기도 부천시 도당동 253-8번지 공구 나동 104호","category":"건축자재 - 조명기구"},{"name":"대원전기","tel":"032-675-3157","addr":"경기도 부천시 도당동 253-8번지 공구상가 나동 104호","category":"전기제품 - 기타전기제품"},{"name":"부원기획","tel":"032-672-8071","addr":"경기도 부천시 도당동 253-8번지 부천공가상가 나동 301호","category":"서적문구 - 출판 및 인쇄물"},{"name":"재영전기","tel":"032-679-8418","addr":"경기도 부천시 도당동 253-8번지","category":"전기제품 - 기타전기제품"},{"name":"한국벨트부천대리점","tel":"032-675-1404","addr":"경기도 부천시 도당동 253-8번지","category":"기타 - 기계공구"},{"name":"형제뿌리","tel":"032-676-9526","addr":"경기도 부천시 도당동 253-8번지","category":"기타 - 기계공구"}]},{"lat":"37.520454733","long":"126.79182489","items":[{"name":"난경헤어갤러리","tel":"032-683-2963","addr":"경기도 부천시 도당동 109번지1층2호","category":"보건위생 - 미용원"},{"name":"루루공주","tel":"032-676-2102","addr":"경기도 부천시 도당동 109번지 삼보아파트 3","category":"신변잡화 - 액세서리"},{"name":"창조당","tel":"032-674-3755","addr":"경기도 부천시 도당동 109번지 삼보상가 1","category":"신변잡화 - 시계"}]},{"lat":"37.519260165","long":"126.79393223","items":[{"name":"남영보일러","tel":"032-322-9987","addr":"경기도 부천시 도당동 130-4번지 덕인빌딩","category":"수리서비스 - 기타수리서비스"},{"name":"라미헤어살롱","tel":"032-671-1114","addr":"경기도 부천시 도당동 130-4번지 1층","category":"보건위생 - 미용원"},{"name":"유앤아이인테리어","tel":"032-682-0441","addr":"경기도 부천시 도당동 130-4번지 덕인빌딩 101호","category":"건축자재 - 인테리어전문"},{"name":"제이스타일(J. style)","tel":"070-7614-3579","addr":"경기도 부천시 도당동 130-4번지 덕인빌딩 103호","category":"의류 - 정장"}]},{"lat":"37.517504953","long":"126.78491061","items":[{"name":"남일전기","tel":"032-672-4721","addr":"경기도 부천시 도당동 30번지","category":"전기제품 - 기타전기제품"},{"name":"아랑플라워","tel":"032-672-9888","addr":"경기도 부천시 도당동 30번지","category":"문화.취미 - 화원"},{"name":"영진상공","tel":"032-683-9001","addr":"경기도 부천시 도당동 30번지 1층","category":"건축자재 - 보일러·펌프·샷시"},{"name":"진성레이져","tel":"032-676-6869","addr":"경기도 부천시 도당동 30번지","category":"기타 - 기계공구"}]},{"lat":"37.513394934","long":"126.77457318","items":[{"name":"남해","tel":"032-673-6643","addr":"경기도 부천시 도당동 214-37번지","category":"일반휴게음식 - 일반한식"}]},{"lat":"37.50695504","long":"126.78043997","items":[{"name":"냠냠숯불닭바베큐","tel":"032-672-9199","addr":"경기도 부천시 도당동 279-3번지 1층","category":"일반휴게음식 - 일반한식"},{"name":"준스튜디오","tel":"032-679-9898","addr":"경기도 부천시 도당동 279-3 1층,지층","category":"광학제품 - 사진관"},{"name":"특급노래연습장","tel":"032-677-6583","addr":"경기도 부천시 도당동 279-3번지","category":"레저업소 - 노 래 방"},{"name":"홍창집","tel":"032-672-8483","addr":"경기도 부천시 도당동 279-3번지 1층","category":"일반휴게음식 - 일반한식"}]},{"lat":"37.513232822","long":"126.77460761","items":[{"name":"네네치킨중동약대점","tel":"032-663-7676","addr":"경기도 부천시 도당동 227번지 화이트팰리스 1층","category":"일반휴게음식 - 스넥"},{"name":"네네치킨중동약대점","tel":"032-682-9982","addr":"경기도 부천시 도당동 227번지 화이트팰리스 1층 101호","category":"일반휴게음식 - 서양음식"}]},{"lat":"37.507728949","long":"126.77994004","items":[{"name":"노다지슈퍼","tel":"032-671-6194","addr":"경기도 부천시 도당동 283-7번지","category":"유통업 영리 - 슈퍼마켓"},{"name":"당진아구동태찜탕","tel":"","addr":"경기도 부천시 도당동 283-7번지 1층","category":"일반휴게음식 - 일반한식"},{"name":"삼성유리","tel":"032-683-7723","addr":"경기도 부천시 도당동 283-7번지","category":"건축자재 - 유리"},{"name":"세븐노래연습장","tel":"032-678-7401","addr":"경기도 부천시 도당동 283-7번지 지하층","category":"레저업소 - 노 래 방"},{"name":"유명당구장","tel":"032-677-9745","addr":"경기도 부천시 도당동 283-7번지","category":"레저업소 - 당 구 장"}]},{"lat":"37.5074842509","long":"126.7791830039","items":[{"name":"노마진마트","tel":"032-675-5031","addr":"경기도 부천시 도당동 248-1번지","category":"유통업 영리 - 슈퍼마켓"}]},{"lat":"37.514539948","long":"126.77496558","items":[{"name":"노블빌리어즈클럽","tel":"031-111-1111","addr":"경기도 부천시 도당동 213번지 B1동","category":"레저업소 - 당 구 장"},{"name":"시연기획","tel":"032-672-0771","addr":"경기도 부천시 도당동 213번지 3층 일부 1필지","category":"서적문구 - 출판 및 인쇄물"},{"name":"쎌리기획","tel":"032-677-3695","addr":"경기도 부천시 도당동 213번지","category":"용역 서비스 - 종합용역"},{"name":"약대원제한의원","tel":"032-675-1075","addr":"경기도 부천시 도당동 213번지 2층 일부","category":"의원 - 한의원"}]},{"lat":"37.520893459","long":"126.79535298","items":[{"name":"노블존PC방","tel":"032-000-0000","addr":"경기도 부천시 도당동 139번지 송원빌딩 2층 일부","category":"레저업소 - 기타레져업소"},{"name":"늘봄숯불갈비","tel":"032-683-2889","addr":"경기도 부천시 도당동 139번지 1층","category":"일반휴게음식 - 일반한식"},{"name":"송원24시불가마","tel":"032-682-8000","addr":"경기도 부천시 도당동 139번지","category":"회원제형태 - 기타4"},{"name":"정성노래연습장","tel":"032-672-2755","addr":"경기도 부천시 도당동 139번지 송원빌딩 2층","category":"레저업소 - 노 래 방"},{"name":"파워 D.C 마트","tel":"032-675-5397","addr":"경기도 부천시 도당동 139번지 송원빌딩 1층","category":"신변잡화 - 기타잡화"},{"name":"하모니요양원2호","tel":"032-323-7276","addr":"경기도 부천시 도당동 139번지 송원빌딩 3층","category":"기타의료기관 - 기타의료기관 및 기타"}]},{"lat":"37.518311105","long":"126.78723844","items":[{"name":"농민농산","tel":"070-4964-2466","addr":"경기도 부천시 도당동 45번지 베스트빌","category":"음료식품 - 농·축·수산품"}]},{"lat":"37.510228334","long":"126.78187798","items":[{"name":"누드마크","tel":"041-903-2354","addr":"경기도 부천시 도당동 268-15번지 현우빌딩 5층","category":"신변잡화 - 신발"},{"name":"무림상사","tel":"032-682-6875","addr":"경기도 부천시 도당동 268-15번지 1층","category":"기타 - 기계공구"}]},{"lat":"37.514366111","long":"126.78307605","items":[{"name":"누리식당","tel":"032-672-6164","addr":"경기도 부천시 도당동 89-4번지 1층","category":"일반휴게음식 - 일반한식"}]},{"lat":"37.519123866","long":"126.78826546","items":[{"name":"누리안인테리어","tel":"032-679-4277","addr":"경기도 부천시 도당동 57-5번지 청암맨션 101호","category":"건축자재 - 인테리어전문"},{"name":"청암","tel":"032-681-0580","addr":"경기도 부천시 도당동 57-5번지 청암맨션 103호","category":"건축자재 - 목재·석재·철물"}]},{"lat":"37.513699933","long":"126.77388229","items":[{"name":"누리컴","tel":"032-7393-0142","addr":"경기도 부천시 도당동 218-3번지","category":"사무통신 - 컴퓨터"},{"name":"비쥬헤어","tel":"032-684-7605","addr":"경기도 부천시 도당동 218-3번지 1층 일부","category":"보건위생 - 미용원"}]},{"lat":"37.5071513","long":"126.78421688","items":[{"name":"누수25시 하수구","tel":"","addr":"경기도 부천시 도당동 265-49번지 지하","category":"용역 서비스 - 기타용역서비스"},{"name":"아시아마트(Asia mart)","tel":"","addr":"경기도 부천시 도당동 265-49번지 1층","category":"유통업 영리 - 슈퍼마켓"},{"name":"효성누수설비&i스토어","tel":"031-6848-8255","addr":"경기도 부천시 도당동 265-49번지","category":"전기제품 - 가전제품"}]},{"lat":"37.518482003","long":"126.78707959","items":[{"name":"뉴욕가자","tel":"","addr":"경기도 부천시 도당동 44-13번지 훼미리타운 A동 101호","category":"의류 - 정장"},{"name":"살롱드스토리","tel":"032-677-2851","addr":"경기도 부천시 도당동 44-13번지 훼미리타운 B동 1층","category":"보건위생 - 미용원"}]},{"lat":"37.515290551","long":"126.78601422","items":[{"name":"뉴테크","tel":"032-684-0743","addr":"경기도 부천시 도당동 73-1번지","category":"기타 - 기계공구"}]},{"lat":"37.51992394","long":"126.79226754","items":[{"name":"늘푸른화원","tel":"032-679-6870","addr":"경기도 부천시 도당동 108-1번지","category":"문화.취미 - 화원"},{"name":"도당해동검도","tel":"032-674-9977","addr":"경기도 부천시 도당동 108-1번지 3층 서쪽","category":"학원 - 예·체능계학원"},{"name":"목화음악학원","tel":"032-673-2210","addr":"경기도 부천시 도당동 108-1번지","category":"학원 - 기타 교육기관"},{"name":"봄온누리약국","tel":"032-683-1355","addr":"경기도 부천시 도당동 108-1번지 1층 일부","category":"약국 - 약국"},{"name":"사계절반찬","tel":"031-683-2010","addr":"경기도 부천시 도당동 108-1번지 1층","category":"음료식품 - 기타음료식품"},{"name":"주니헤어","tel":"032-673-6268","addr":"경기도 부천시 도당동 108-1번지 1층","category":"보건위생 - 미용원"},{"name":"케이디 패션","tel":"032-671-3629","addr":"경기도 부천시 도당동 108-1번지 지하층","category":"의류 - 정장"},{"name":"파리바게뜨","tel":"032-684-8272","addr":"경기도 부천시 도당동 108-1번지","category":"음료식품 - 제과점"},{"name":"피자스쿨부천도당점","tel":"032-684-8253","addr":"경기도 부천시 도당동 108-1번지 1층","category":"일반휴게음식 - 서양음식"},{"name":"현대의원","tel":"032-671-1764","addr":"경기도 부천시 도당동 108-1번지","category":"의원 - 의원"},{"name":"홍수학영어보습학원","tel":"032-208-0909","addr":"경기도 부천시 도당동 108-1번지 2층","category":"학원 - 보습학원"}]},{"lat":"37.509564389","long":"126.77857735","items":[{"name":"다성스프링","tel":"032-676-8932","addr":"경기도 부천시 도당동 245-4번지","category":"기타 - 기계공구"}]},{"lat":"37.518758696","long":"126.78565353","items":[{"name":"다스림한의원","tel":"032-678-8275","addr":"경기도 부천시 도당동 42-2번지 동아빌딩 2층 ,3,4층일부","category":"의원 - 한의원"},{"name":"베러댄와플","tel":"070-7374-5458","addr":"경기도 부천시 도당동 42-2번지 동아빌딩 1층","category":"일반휴게음식 - 서양음식"},{"name":"풍년떡방앗간","tel":"032-681-3444","addr":"경기도 부천시 도당동 42-2번지 1층일부","category":"음료식품 - 제과점"},{"name":"하예성순대국","tel":"032-679-1593","addr":"경기도 부천시 도당동 42-2번지 동아빌딩","category":"일반휴게음식 - 일반한식"}]},{"lat":"37.518732892","long":"126.78632099","items":[{"name":"다옴 네일앤왁싱","tel":"070-8268-5860","addr":"경기도 부천시 도당동 42-9번지 1층 일부","category":"보건위생 - 피부미용실"}]},{"lat":"37.507594892","long":"126.78535789","items":[{"name":"다은유통","tel":"032-682-8115","addr":"경기도 부천시 도당동 258-32번지 2층","category":"보건위생 - 화장품"}]},{"lat":"37.517367194","long":"126.78840623","items":[{"name":"다인헤어샵","tel":"070-7322-7729","addr":"경기도 부천시 도당동 53-18번지 1동 1층 101호","category":"보건위생 - 미용원"}]},{"lat":"37.515396733","long":"126.78496198","items":[{"name":"달처럼빛나리라","tel":"032-677-2586","addr":"경기도 부천시 도당동 73-8번지 부양빌딩 1층 104호","category":"일반휴게음식 - 주점"},{"name":"도당한의원","tel":"032-679-3254","addr":"경기도 부천시 도당동 73-8 부양빌딩201호~202호","category":"의원 - 한의원"},{"name":"비앤비","tel":"070-4870-2819","addr":"경기도 부천시 도당동 73-8번지 부양빌딩 지하 102호","category":"보건위생 - 미용재료"},{"name":"송월타올초이스상사","tel":"032-677-7600","addr":"경기도 부천시 도당동 73-8번지","category":"신변잡화 - 기념품점"},{"name":"주식회사 플랜룩스","tel":"032-668-0883","addr":"경기도 부천시 도당동 73-8번지 부양빌딩","category":"건축자재 - 조명기구"},{"name":"티파니노래연습장","tel":"032-667-8168","addr":"경기도 부천시 도당동 73-8번지 지층","category":"레저업소 - 노 래 방"},{"name":"한큐당구장","tel":"032-672-4870","addr":"경기도 부천시 도당동 73-8번지 부양빌딩 4층","category":"레저업소 - 당 구 장"}]},{"lat":"37.505841824","long":"126.7825808","items":[{"name":"닭깡","tel":"032-208-0117","addr":"경기도 부천시 도당동 278-34번지 1층","category":"일반휴게음식 - 스넥"},{"name":"어울림","tel":"032-674-5522","addr":"경기도 부천시 도당동 278-34번지","category":"일반휴게음식 - 주점"}]},{"lat":"37.515730097","long":"126.78496101","items":[{"name":"대광건철","tel":"032-672-0240","addr":"경기도 부천시 도당동 32-6번지 가동 나동","category":"기타 - 기계공구"}]},{"lat":"37.506757696","long":"126.78090426","items":[{"name":"대농유통","tel":"032-674-8225","addr":"경기도 부천시 도당동 279-20번지","category":"음료식품 - 농·축·수산품"},{"name":"도당식품","tel":"032-674-6695","addr":"경기도 부천시 도당동 279-20번지","category":"음료식품 - 기타음료식품"},{"name":"짱구절임","tel":"032-676-8488","addr":"경기도 부천시 도당동 279-20","category":"음료식품 - 기타음료식품"}]},{"lat":"37.507345435","long":"126.7820222","items":[{"name":"대복방앗간","tel":"032-672-9105","addr":"경기도 부천시 도당동 274-44번지","category":"음료식품 - 제과점"},{"name":"신용상회","tel":"032-675-2815","addr":"경기도 부천시 도당동 274-44번지","category":"의류 - 내의판매"}]},{"lat":"37.510733668","long":"126.77752199","items":[{"name":"대상철강","tel":"032-671-1422","addr":"경기도 부천시 도당동 241-2번지 1층","category":"건축자재 - 기타건축자재"},{"name":"박스나라","tel":"032-676-7013","addr":"경기도 부천시 도당동 241-2번지","category":"유통업 영리 - 기타유통업"}]},{"lat":"37.518397177","long":"126.78504375","items":[{"name":"대성공사","tel":"032-681-4767","addr":"경기도 부천시 도당동 29번지 계남랑데뷰","category":"건축자재 - 페인트"},{"name":"돈까스1009천국","tel":"032-203-2500","addr":"경기도 부천시 도당동 29번지 계남랑데뷰 1층 102호","category":"일반휴게음식 - 일반한식"},{"name":"부천시재활용센터","tel":"032-682-7282","addr":"경기도 부천시 도당동 29 고려종합상가지층","category":"가구 - 일반가구"},{"name":"애플마트","tel":"032-681-8989","addr":"경기도 부천시 도당동 29번지 계남랑데뷰상가 103,104호","category":"유통업 영리 - 슈퍼마켓"},{"name":"제이에이치코리아","tel":"","addr":"경기도 부천시 도당동 29번지 계남랑데뷰 상가 1층 102호","category":"보건위생 - 화장품"},{"name":"한솔치과","tel":"032-681-2275","addr":"경기도 부천시 도당동 29번지 계남랑데뷰 2층 203호","category":"의원 - 치과의원"},{"name":"해피버스데이","tel":"032-679-9681","addr":"경기도 부천시 도당동 29고려종합상가1층","category":"음료식품 - 제과점"}]},{"lat":"37.51025972","long":"126.78421913","items":[{"name":"대성반점","tel":"032-674-3725","addr":"경기도 부천시 도당동 253-1번지 서림테크노파크 105호,106호","category":"일반휴게음식 - 중국식"},{"name":"동광조각","tel":"032-678-4637","addr":"경기도 부천시 도당동 253-1번지 1층 104호","category":"건축자재 - 목재·석재·철물"},{"name":"발리 더치","tel":"070-4402-2550","addr":"경기도 부천시 도당동 253-1번지 304호","category":"음료식품 - 기타음료식품"},{"name":"삼진볼트 중앙영업소","tel":"032-681-0094","addr":"경기도 부천시 도당동 253-1번지 1층 113호","category":"기타 - 기계공구"},{"name":"신명종합금속","tel":"032-682-1990","addr":"경기도 부천시 도당동 253-1번지 서림테크노파크2단지 108호","category":"기타 - 기계공구"},{"name":"제이아이 디엔지","tel":"032-677-6562","addr":"경기도 부천시 도당동 253-1번지 서림테크노파크2차 103호","category":"기타 - 기계공구"},{"name":"주식회사 컴바인","tel":"","addr":"경기도 부천시 도당동 253-1번지 206호","category":"사무통신 - 컴퓨터"},{"name":"주식회사 홍조식품","tel":"032-671-8333","addr":"경기도 부천시 도당동 253-1번지 서림테크노파크2 305호","category":"음료식품 - 기타음료식품"},{"name":"카페글렌도당점","tel":"032-677-3031","addr":"경기도 부천시 도당동 253-1번지 107호","category":"일반휴게음식 - 서양음식"}]},{"lat":"37.507370387","long":"126.78091376","items":[{"name":"대성상사","tel":"032-677-2349","addr":"경기도 부천시 도당동 275-15번지","category":"의류 - 내의판매"},{"name":"양곡농협쌀직판장","tel":"032-676-3382","addr":"경기도 부천시 도당동 275-15번지 1층","category":"음료식품 - 미곡상"}]},{"lat":"37.515234237","long":"126.77996296","items":[{"name":"대성알곤레이져","tel":"032-673-5241","addr":"경기도 부천시 도당동 11-5번지","category":"용역 서비스 - 종합용역"},{"name":"부천금성연마","tel":"032-682-6311","addr":"경기도 부천시 도당동 11-5번지 1층","category":"기타 - 기계공구"},{"name":"예인케미칼","tel":"032-613-5240","addr":"경기도 부천시 도당동 11-5번지 1층 103호","category":"건축자재 - 페인트"},{"name":"풍년식당","tel":"032-675-7571","addr":"경기도 부천시 도당동 11-5번지 2층","category":"일반휴게음식 - 일반한식"},{"name":"혜성B/D","tel":"032-664-9639","addr":"경기도 부천시 도당동 11-5번지","category":"건축자재 - 페인트"}]},{"lat":"37.50908961","long":"126.78485591","items":[{"name":"대성종합공구철물","tel":"032-684-0945","addr":"경기도 부천시 도당동 255-7번지 B01호","category":"기타 - 기계공구"},{"name":"대아포장상사","tel":"032-676-1030","addr":"경기도 부천시 도당동 255-7번지","category":"신변잡화 - 기타잡화"},{"name":"대흥상사","tel":"032-676-6562","addr":"경기도 부천시 도당동 255-7번지","category":"건축자재 - 건축용 요업제품"},{"name":"주식회사덕은티엔에스","tel":"032-679-3447","addr":"경기도 부천시 도당동 255-7번지 라동 1층 3호","category":"전기제품 - 기타전기제품"},{"name":"혁신종합공구","tel":"032-682-7080","addr":"경기도 부천시 도당동 255-7번지 라동 2호","category":"기타 - 기계공구"}]},{"lat":"37.508621756","long":"126.78037848","items":[{"name":"대성철물설비","tel":"032-675-4760","addr":"경기도 부천시 도당동 272-28번지 1층","category":"건축자재 - 목재·석재·철물"},{"name":"이천전기","tel":"032-675-6161","addr":"경기도 부천시 도당동 272-28번지","category":"건축자재 - 목재·석재·철물"}]},{"lat":"37.519761864","long":"126.79232456","items":[{"name":"대성축산","tel":"032-674-8985","addr":"경기도 부천시 도당동 108-12번지 1층","category":"음료식품 - 정육점"},{"name":"멘토의힘영수보습학원","tel":"032-679-2226","addr":"경기도 부천시 도당동 108-12번지 가동 3층","category":"학원 - 보습학원"},{"name":"상록수음악학원","tel":"032-676-7172","addr":"경기도 부천시 도당동 108-12번지 2층","category":"학원 - 예·체능계학원"}]},{"lat":"37.509676022","long":"126.78527268","items":[{"name":"대성특수공구","tel":"032-674-0947","addr":"경기도 부천시 도당동 178-6번지","category":"기타 - 기계공구"},{"name":"부천철망","tel":"032-676-6881","addr":"경기도 부천시 도당동 178-6번지","category":"기타 - 기계공구"},{"name":"성진닥트","tel":"032-656-9875","addr":"경기도 부천시 도당동 178-6번지 라동 1층","category":"기타 - 기계공구"},{"name":"오케이산업기계","tel":"031-681-5851","addr":"경기도 부천시 도당동 178-6번지 다동 1층","category":"기타 - 기계공구"},{"name":"호남식당","tel":"032-675-2863","addr":"경기도 부천시 도당동 178-6번지 2층","category":"일반휴게음식 - 일반한식"}]},{"lat":"37.507953084","long":"126.77935125","items":[{"name":"대승엔지니어링","tel":"070-7337-4253","addr":"경기도 부천시 도당동 246-100번지","category":"건축자재 - 보일러·펌프·샷시"}]},{"lat":"37.513782885","long":"126.78437851","items":[{"name":"대신볼트","tel":"032-674-6495","addr":"경기도 부천시 도당동 88-13번지 1층 107호","category":"기타 - 기계공구"},{"name":"대영상사","tel":"032-675-8531","addr":"경기도 부천시 도당동 88-13번지 104호","category":"건축자재 - 기타건축자재"},{"name":"벧엘포장상사","tel":"032-675-4799","addr":"경기도 부천시 도당동 88-13번지 1층 109호","category":"신변잡화 - 기타잡화"},{"name":"부천유니온","tel":"032-681-6656","addr":"경기도 부천시 도당동 88-13번지","category":"건축자재 - 기타건축자재"},{"name":"선우전자","tel":"031-311-2597","addr":"경기도 부천시 도당동 88-13번지 2층","category":"전기제품 - 기타전기제품"},{"name":"씨유원미부천로점","tel":"080-080-3663","addr":"경기도 부천시 도당동 88-13번지 1층","category":"유통업 영리 - 편 의 점"},{"name":"일성종합상사","tel":"032-673-2571","addr":"경기도 부천시 도당동 88-13번지","category":"건축자재 - 보일러·펌프·샷시"},{"name":"장원금속","tel":"032-682-6488","addr":"경기도 부천시 도당동 88-13번지 1층 108호","category":"기타 - 기계공구"},{"name":"제이케이기획","tel":"032-683-2604","addr":"경기도 부천시 도당동 88-13번지","category":"사무통신 - 기타 사무용품"}]},{"lat":"37.508706128","long":"126.77735843","items":[{"name":"대신오토카","tel":"031-671-0337","addr":"경기도 부천시 도당동 247-67번지","category":"자동차정비 유지 - 자동차정비"}]},{"lat":"37.511370037","long":"126.78051736","items":[{"name":"대영전기","tel":"032-681-3813","addr":"경기도 부천시 도당동 164-11번지","category":"기타 - 기계공구"}]},{"lat":"37.513702499","long":"126.77993358","items":[{"name":"대웅정밀","tel":"032-677-2139","addr":"경기도 부천시 도당동 170-13","category":"기타 - 기계공구"}]},{"lat":"37.51125499","long":"126.78162612","items":[{"name":"대원건드릴","tel":"032-671-0541","addr":"경기도 부천시 도당동 163-3번지","category":"기타 - 기계공구"},{"name":"마리헤즈","tel":"032-679-6790","addr":"경기도 부천시 도당동 163-3번지 2층","category":"신변잡화 - 기타잡화"}]},{"lat":"37.513342489","long":"126.78496796","items":[{"name":"대원휀스철망","tel":"032-677-4015","addr":"경기도 부천시 도당동 81-2번지 1층 8호","category":"건축자재 - 목재·석재·철물"},{"name":"무지개안료","tel":"032-677-1301","addr":"경기도 부천시 도당동 81-2번지 1층 2호","category":"건축자재 - 페인트"},{"name":"복문상사","tel":"032-671-1800","addr":"경기도 부천시 도당동 81-2번지 1층 3호","category":"의류 - 기타의류"},{"name":"성보종합상사","tel":"032-676-0738","addr":"경기도 부천시 도당동 81-2번지11,12,15호","category":"건축자재 - 기타건축자재"},{"name":"유영솔루션","tel":"032-662-1476","addr":"경기도 부천시 도당동 81-2번지 2층","category":"기타 - 기계공구"},{"name":"일성종합공사","tel":"032-673-2532","addr":"경기도 부천시 도당동 81-2번지 1층 10호","category":"건축자재 - 기타건축자재"},{"name":"조광상사","tel":"032-674-9856","addr":"경기도 부천시 도당동 81-2번지1층4-6호","category":"기타 - 기타 전문점"}]},{"lat":"37.510676853","long":"126.78082479","items":[{"name":"대일브라스트","tel":"032-674-8084","addr":"경기도 부천시 도당동 164-19번지 인정빌딩 1층","category":"기타 - 기타 전문점"},{"name":"큰나무식당","tel":"032-675-1557","addr":"경기도 부천시 도당동 164-19번지","category":"일반휴게음식 - 일반한식"}]},{"lat":"37.509315878","long":"126.78540945","items":[{"name":"대진가구사","tel":"032-679-1571","addr":"경기도 부천시 도당동 180-4번지","category":"가구 - 기타가구"},{"name":"휴림디자인","tel":"032-3329-1747","addr":"경기도 부천시 도당동 180-4번지","category":"건축자재 - 인테리어전문"}]},{"lat":"37.507982525","long":"126.78062919","items":[{"name":"대한불교법륜조계종 전각사","tel":"032-681-9778","addr":"경기도 부천시 도당동 275-32번지","category":"기타 - 비영리/대상"}]},{"lat":"37.508761224","long":"126.78757129","items":[{"name":"대호식당","tel":"032-671-2715","addr":"경기도 부천시 도당동 182-2번지 2층","category":"일반휴게음식 - 일반한식"}]},{"lat":"37.50592861","long":"126.78565678","items":[{"name":"더 망고(The mango)","tel":"032-677-0818","addr":"경기도 부천시 도당동 264-10번지 1층","category":"음료식품 - 기타음료식품"},{"name":"티엘","tel":"032-679-6296","addr":"경기도 부천시 도당동 264-10번지 1층","category":"일반휴게음식 - 서양음식"}]},{"lat":"37.506403283","long":"126.77929933","items":[{"name":"더코랄","tel":"070-8803-1633","addr":"경기도 부천시 도당동 262-17번지 1층","category":"문화.취미 - 수족관"},{"name":"세모전자","tel":"070-4950-4988","addr":"경기도 부천시 도당동 262-17","category":"용역 서비스 - 종합용역"}]},{"lat":"37.520232687","long":"126.7936241","items":[{"name":"더헤어라움","tel":"032-676-6615","addr":"경기도 부천시 도당동 116-15번지 1층","category":"보건위생 - 미용원"},{"name":"동인당한의원","tel":"032-684-6311","addr":"경기도 부천시 도당동 116-15번지","category":"의원 - 한의원"},{"name":"성우스튜디오","tel":"032-679-7745","addr":"경기도 부천시 도당동 116-15번지","category":"광학제품 - 사진관"},{"name":"신선한우축산","tel":"032-678-4493","addr":"경기도 부천시 도당동 116-15번지","category":"음료식품 - 정육점"},{"name":"용인대 국가대표 부부태권도장","tel":"070-5031-0327","addr":"경기도 부천시 도당동 116-15번지 3층","category":"학원 - 예·체능계학원"},{"name":"카라","tel":"","addr":"경기도 부천시 도당동 116-15번지 지하","category":"레저업소 - 노 래 방"},{"name":"태양정보통신도당점","tel":"032-678-2235","addr":"경기도 부천시 도당동 116-15번지","category":"사무통신 - 통신기기"},{"name":"피오나화장품","tel":"032-671-3888","addr":"경기도 부천시 도당동 116-15번지 1층","category":"보건위생 - 화장품"}]},{"lat":"37.508509268","long":"126.78285572","items":[{"name":"덕수목욕탕","tel":"032-675-3359","addr":"경기도 부천시 도당동 257-6번지","category":"보건위생 - 사우나"},{"name":"덕수장여관","tel":"032-675-3354","addr":"경기도 부천시 도당동 257-6번지","category":"숙박업 - 여관/기타숙박업"}]},{"lat":"37.516676047","long":"126.78491302","items":[{"name":"덕우빌딩","tel":"032-672-5870","addr":"경기도 부천시 도당동 31-3번지","category":"자동차판매 - 이륜차판매"},{"name":"온누리 별자리 타로","tel":"","addr":"경기도 부천시 도당동 31-3번지 1층","category":"일반휴게음식 - 서양음식"},{"name":"주생주락","tel":"032-675-2531","addr":"경기도 부천시 도당동 31-3번지 2층 일부","category":"일반휴게음식 - 일반한식"},{"name":"행복한떡볶이집","tel":"032-684-6362","addr":"경기도 부천시 도당동 31-3번지 덕우빌딩 1층 3호","category":"일반휴게음식 - 스넥"}]},{"lat":"37.514926318","long":"126.78393405","items":[{"name":"도검미술","tel":"032-678-0553","addr":"경기도 부천시 도당동 88-2번지 3층","category":"레져용품 - 총포류판매점"}]},{"lat":"37.516981982","long":"126.78962896","items":[{"name":"도니 삼겹","tel":"","addr":"경기도 부천시 도당동 52-25번지 동삼아트빌라 1층 102호","category":"일반휴게음식 - 일반한식"}]},{"lat":"37.519953284","long":"126.78854588","items":[{"name":"도당e(이)플러스영어교습소","tel":"032-675-7898","addr":"경기도 부천시 도당동 58-7번지 3층","category":"학원 - 외국어학원"},{"name":"돈까스랑 냉면이랑(섬마루)","tel":"032-000-0000","addr":"경기도 부천시 도당동 58-7번지 1층 일부","category":"일반휴게음식 - 일반한식"}]},{"lat":"37.507207197","long":"126.78521199","items":[{"name":"도당골","tel":"032-661-8988","addr":"경기도 부천시 도당동 264-11번지 1층","category":"일반휴게음식 - 일반한식"}]},{"lat":"37.520318046","long":"126.79096557","items":[{"name":"도당동꼬마김밥","tel":"070-4282-2467","addr":"경기도 부천시 도당동 61-4번지 에덴빌딩 1층","category":"일반휴게음식 - 일반한식"},{"name":"상록수당구장","tel":"032-683-5757","addr":"경기도 부천시 도당동 61-4번지","category":"레저업소 - 당 구 장"},{"name":"신앙촌상회도당점","tel":"032-677-8942","addr":"경기도 부천시 도당동 61-4번지 1층","category":"음료식품 - 기타음료식품"},{"name":"양꼬레","tel":"070-7311-0928","addr":"경기도 부천시 도당동 61-4번지 에덴빌딩 1층 일부","category":"일반휴게음식 - 중국식"},{"name":"이색지대","tel":"070-7333-6593","addr":"경기도 부천시 도당동 61-4번지 에덴빌딩 1층","category":"일반휴게음식 - 일반한식"},{"name":"한얼합기도","tel":"032-672-3388","addr":"경기도 부천시 도당동 61-4번지","category":"학원 - 예·체능계학원"},{"name":"호박노래연습장","tel":"032-677-6574","addr":"경기도 부천시 도당동 61-4번지 지하층","category":"레저업소 - 노 래 방"}]},{"lat":"37.516036703","long":"126.78510717","items":[{"name":"도당동주민자치위원회","tel":"032-684-2422","addr":"경기도 부천시 도당동 32-4번지 도당어울마당 5층 주민자치프로그램실","category":"회원제형태 - 학원"}]},{"lat":"37.516757887","long":"126.78531999","items":[{"name":"도당동통돼지김치찌게","tel":"032-672-2210","addr":"경기도 부천시 도당동 30-7번지 현대하이츠빌 101호","category":"일반휴게음식 - 일반한식"},{"name":"유진아이텍","tel":"032-672-4793","addr":"경기도 부천시 도당동 30-7번지 현대하이츠빌","category":"기타 - 기계공구"}]},{"lat":"37.519927833","long":"126.79446202","items":[{"name":"도당미래치과의원","tel":"032-684-2275","addr":"경기도 부천시 도당동 131-11 2층","category":"의원 - 치과의원"},{"name":"와 노래연습장","tel":"032-678-2701","addr":"경기도 부천시 도당동 131-11번지 G동 1층","category":"레저업소 - 노 래 방"},{"name":"이조시대","tel":"032-671-4234","addr":"경기도 부천시 도당동 131-11번지 1층일부","category":"일반휴게음식 - 일반한식"}]},{"lat":"37.519837775","long":"126.78943984","items":[{"name":"도당비젼스터디보습학원","tel":"032-682-7777","addr":"경기도 부천시 도당동 58-2번지 4,5호","category":"학원 - 보습학원"},{"name":"롯데리아부천도당점","tel":"032-683-0045","addr":"경기도 부천시 도당동 58-2번지 정남프라자 1층","category":"일반휴게음식 - 서양음식"},{"name":"상아탑독서실","tel":"032-678-7771","addr":"경기도 부천시 도당동 58-2번지 정남프라자 301호","category":"학원 - 독서실"},{"name":"씨.제이안경","tel":"032-681-0035","addr":"경기도 부천시 도당동 58-2번지 정남프라자 1층 7호","category":"보건위생 - 안경"},{"name":"연세제일병원","tel":"032-661-9119","addr":"경기도 부천시 도당동 58-2번지 정남프라자 2층 일부와 5층 전부","category":"병원 - 병원"},{"name":"초밥사랑","tel":"032-678-2885","addr":"경기도 부천시 도당동 58-2번지 정남프라자 103호","category":"일반휴게음식 - 일반한식"},{"name":"통통김밥","tel":"032-678-7070","addr":"경기도 부천시 도당동 58-2번지 정남프라자 1층","category":"일반휴게음식 - 일반한식"}]},{"lat":"37.519259624","long":"126.79362681","items":[{"name":"도당스포츠","tel":"070-7393-0448","addr":"경기도 부천시 도당동 118-4번지 1층","category":"레져용품 - 스포츠·레져용품"},{"name":"복사골순대","tel":"032-672-0977","addr":"경기도 부천시 도당동 118-4번지","category":"일반휴게음식 - 일반한식"},{"name":"새솔속셈학원","tel":"032-684-4550","addr":"경기도 부천시 도당동 118-4번지 2층","category":"회원제형태 - 학원"}]},{"lat":"37.519840423","long":"126.79091037","items":[{"name":"도당애견","tel":"032-684-0090","addr":"경기도 부천시 도당동 62-1번지","category":"문화.취미 - 애완동물"},{"name":"성광위생(주)","tel":"032-677-4747","addr":"경기도 부천시 도당동 62-1번지 흥아빌딩 4층","category":"용역 서비스 - 기타용역서비스"},{"name":"아이엠","tel":"032-247-7011","addr":"경기도 부천시 도당동 62-1번지 1층 흥아빌딩 일부","category":"의류 - 정장"},{"name":"와썹커피로스터스","tel":"070-4334-5773","addr":"경기도 부천시 도당동 62-1번지 흥아빌딩 3층","category":"음료식품 - 기타음료식품"},{"name":"제이제이빌리아드클럽","tel":"032-677-6214","addr":"경기도 부천시 도당동 62-1번지 흥아빌딩 2층","category":"레저업소 - 당 구 장"},{"name":"훌랄라참숯바베큐","tel":"032-674-9600","addr":"경기도 부천시 도당동 62-1번지","category":"일반휴게음식 - 주점"}]},{"lat":"37.519898362","long":"126.78807094","items":[{"name":"도당자동차공업사","tel":"032-682-1203","addr":"경기도 부천시 도당동 58-4","category":"자동차정비 유지 - 자동차정비"}]},{"lat":"37.517012068","long":"126.78149601","items":[{"name":"도당커피","tel":"032-677-7109","addr":"경기도 부천시 도당동 14-2번지 1층","category":"일반휴게음식 - 서양음식"}]},{"lat":"37.507650096","long":"126.78112782","items":[{"name":"도당포차","tel":"032-0000-0000","addr":"경기도 부천시 도당동 274-26번지","category":"일반휴게음식 - 일반한식"}]},{"lat":"37.521560088","long":"126.79529457","items":[{"name":"도래올부대찌개","tel":"031-977-7026","addr":"경기도 부천시 도당동 137-6번지 청원빌딩 2층","category":"음료식품 - 기타음료식품"},{"name":"미스육주먹고기","tel":"032-684-5830","addr":"경기도 부천시 도당동 137-6번지 1층","category":"일반휴게음식 - 일반한식"},{"name":"씨엔씨플러스","tel":"032-204-3535","addr":"경기도 부천시 도당동 137-6번지","category":"회원제형태 - 자동차서비스"},{"name":"태성자동차공업사","tel":"032-681-0676","addr":"경기도 부천시 도당동 137-6번지 청원빌딩 1층","category":"자동차정비 유지 - 자동차정비"},{"name":"희락갈비","tel":"032-678-9232","addr":"경기도 부천시 도당동 137-6번지 청원빌딩 1층","category":"일반휴게음식 - 일반한식"}]},{"lat":"37.519401048","long":"126.78709956","items":[{"name":"도움미술음악학원","tel":"032-683-9898","addr":"경기도 부천시 도당동 43-2번지 4층","category":"학원 - 예·체능계학원"},{"name":"민족영재보습어학원","tel":"032-683-9898","addr":"경기도 부천시 도당동 43-2번지,2,3층","category":"학원 - 보습학원"},{"name":"알레(Allee)","tel":"032-219-9898","addr":"경기도 부천시 도당동 43-2번지 1층","category":"일반휴게음식 - 서양음식"}]},{"lat":"37.507175072","long":"126.78246379","items":[{"name":"도원 농수산","tel":"032-677-3386","addr":"경기도 부천시 도당동 276-9번지","category":"음료식품 - 농·축·수산품"},{"name":"우리유통","tel":"032-675-5585","addr":"경기도 부천시 도당동 276-9번지","category":"음료식품 - 정육점"}]},{"lat":"37.513953981","long":"126.77479769","items":[{"name":"독도카사랑","tel":"032-674-3004","addr":"경기도 부천시 도당동 214-9번지 1층","category":"자동차정비 유지 - 자동차정비"}]},{"lat":"37.51744966","long":"126.7842434","items":[{"name":"독일호프","tel":"032-681-0737","addr":"경기도 부천시 도당동 27-15번지","category":"일반휴게음식 - 주점"}]},{"lat":"37.519395313","long":"126.79393185","items":[{"name":"동네분식","tel":"032-677-5430","addr":"경기도 부천시 도당동 130-3번지 로얄하이츠 102동 101호","category":"일반휴게음식 - 일반한식"},{"name":"한솔전자","tel":"","addr":"경기도 부천시 도당동 130-3번지 로얄하이츠 102동 301호","category":"용역 서비스 - 기타용역서비스"}]},{"lat":"37.508175604","long":"126.77791422","items":[{"name":"동보자전거(코렉스)","tel":"032-676-6424","addr":"경기도 부천시 도당동 247-36번지","category":"레져용품 - 스포츠·레져용품"},{"name":"봄가을교육","tel":"070-7393-8218","addr":"경기도 부천시 도당동 247-36번지 청담빌리 502호","category":"서적문구 - 일반서적"},{"name":"형제윤활유","tel":"032-677-7097","addr":"경기도 부천시 도당동 247-36번지 101호","category":"자동차정비 유지 - 윤활유 전문 판매"}]},{"lat":"37.510819564","long":"126.78488481","items":[{"name":"동부화재국일대리점","tel":"032-672-2633","addr":"경기도 부천시 도당동 86-3번지","category":"보험 - 손해보험"}]},{"lat":"37.517063173","long":"126.78968528","items":[{"name":"동삼마트","tel":"032-675-9470","addr":"경기도 부천시 도당동 52-25번지 동삼아트빌라 바동 101호","category":"유통업 영리 - 슈퍼마켓"}]},{"lat":"37.512702449","long":"126.77995918","items":[{"name":"동신포장","tel":"032-675-4632","addr":"경기도 부천시 도당동 170-12번지","category":"유통업 영리 - 기타유통업"},{"name":"우진정밀","tel":"032-684-7922","addr":"경기도 부천시 도당동 170-12번지","category":"기타 - 기계공구"},{"name":"일등한식뷔페","tel":"032-682-6244","addr":"경기도 부천시 도당동 170-12번지 1층","category":"일반휴게음식 - 일반한식"},{"name":"천의슈퍼","tel":"032-681-2806","addr":"경기도 부천시 도당동 170-12번지","category":"유통업 영리 - 슈퍼마켓"},{"name":"태영산업","tel":"032-678-4011","addr":"경기도 부천시 도당동 170-12번지","category":"용역 서비스 - 종합용역"}]},{"lat":"37.518732601","long":"126.78616263","items":[{"name":"동아세탁소","tel":"032-681-8283","addr":"경기도 부천시 도당동 42-5번지","category":"수리서비스 - 세탁소"},{"name":"머리하는날","tel":"032-675-1931","addr":"경기도 부천시 도당동 42-5번지 1층","category":"보건위생 - 미용원"},{"name":"주식회사피치스포츠(PEACH SPORTS CO,.LTD)","tel":"032-673-4578","addr":"경기도 부천시 도당동 42-5번지 1층","category":"레져용품 - 스포츠·레져용품"}]},{"lat":"37.512395013","long":"126.78419028","items":[{"name":"동양실크","tel":"032-676-6050","addr":"경기도 부천시 도당동 97-1번지 지층","category":"용역 서비스 - 종합용역"},{"name":"식당해품달","tel":"032-672-7465","addr":"경기도 부천시 도당동 97-1번지 A동 1층","category":"일반휴게음식 - 일반한식"},{"name":"현대카서비스","tel":"032-678-3889","addr":"경기도 부천시 도당동 97-1번지","category":"자동차정비 유지 - 자동차정비"}]},{"lat":"37.508286813","long":"126.77954253","items":[{"name":"동양정밀(A)","tel":"032-672-6372","addr":"경기도 부천시 도당동 283-2번지","category":"기타 - 기계공구"}]},{"lat":"37.510009178","long":"126.78515861","items":[{"name":"동우체인","tel":"032-672-4848","addr":"경기도 부천시 도당동 178-2번지","category":"기타 - 기계공구"},{"name":"세무사함정태사무소","tel":"032-675-0034","addr":"경기도 부천시 도당동 178-2번지 영부빌딩 3층","category":"용역 서비스 - 법률회계서비스(개인)"},{"name":"신라실크인쇄","tel":"032-675-0537","addr":"경기도 부천시 도당동 178-2번지","category":"용역 서비스 - 종합용역"},{"name":"신라실크인쇄/원격지","tel":"032-675-0537","addr":"경기도 부천시 도당동 178-2번지","category":"기타 - 기타 전문점"}]},{"lat":"37.510034872","long":"126.78443468","items":[{"name":"동원모터","tel":"032-675-5600","addr":"경기도 부천시 도당동 253-2번지","category":"건축자재 - 보일러·펌프·샷시"},{"name":"동원상사","tel":"032-677-5622","addr":"경기도 부천시 도당동 253-2번지","category":"건축자재 - 기타건축자재"}]},{"lat":"37.515979376","long":"126.77854685","items":[{"name":"동일상사","tel":"032-674-6665","addr":"경기도 부천시 도당동 7-1번지","category":"신변잡화 - 기타잡화"},{"name":"삼성기계상사","tel":"032-672-7747","addr":"경기도 부천시 도당동 7-1번지","category":"기타 - 기계공구"},{"name":"신일산업","tel":"032-672-6910","addr":"경기도 부천시 도당동 7-1번지","category":"기타 - 기타 전문점"},{"name":"이화","tel":"032-679-1398","addr":"경기도 부천시 도당동 7-1번지 2층 201호","category":"일반휴게음식 - 일반한식"}]},{"lat":"37.514955976","long":"126.78051803","items":[{"name":"동일정밀","tel":"032-671-5215","addr":"경기도 부천시 도당동 158-2번지 1층","category":"기타 - 기계공구"},{"name":"에이스프로파일","tel":"032-681-4300","addr":"경기도 부천시 도당동 158-2번지","category":"기타 - 기계공구"},{"name":"영동고무공업사/원격지","tel":"032-673-4209","addr":"경기도 부천시 도당동 158-2번지","category":"기타 - 기타 전문점"}]},{"lat":"37.512533746","long":"126.78613531","items":[{"name":"동행","tel":"070-8132-0821","addr":"경기도 부천시 도당동 82-3번지","category":"음료식품 - 기타음료식품"},{"name":"영광플라워","tel":"032-680-1057","addr":"경기도 부천시 도당동 82-3번지 페어차일드코리아반도체복합동3층실리콘프라자","category":"문화.취미 - 화원"},{"name":"창성화원","tel":"032-680-1057","addr":"경기도 부천시 도당동 82-3번지","category":"문화.취미 - 화원"},{"name":"페어차일드코리아반도체(주)새마을금고","tel":"032-680-1871","addr":"경기도 부천시 도당동 82-3번지","category":"유통업 비영리 - 구내매점(국가기관"}]},{"lat":"37.519312826","long":"126.78812918","items":[{"name":"동향닭직매장","tel":"032-677-6711","addr":"경기도 부천시 도당동 57번지","category":"음료식품 - 정육점"}]},{"lat":"37.510567288","long":"126.78488554","items":[{"name":"두리조각","tel":"032-673-5439","addr":"경기도 부천시 도당동 86-14 1층4호","category":"기타 - 기계공구"},{"name":"잉크가이 경기1센티","tel":"032-651-4210","addr":"경기도 부천시 도당동 86-14번지","category":"사무통신 - 기타 사무용품"},{"name":"흥진계전","tel":"032-675-8321","addr":"경기도 부천시 도당동 86-14번지","category":"기타 - 기계공구"}]},{"lat":"37.514205789","long":"126.77926474","items":[{"name":"두번째봄","tel":"","addr":"경기도 부천시 도당동 194-11번지 1층","category":"일반휴게음식 - 서양음식"},{"name":"보경산업","tel":"032-675-8456","addr":"경기도 부천시 도당동 194-11번지","category":"유통업 영리 - 슈퍼마켓"},{"name":"태양정","tel":"032-679-5038","addr":"경기도 부천시 도당동 194-11번지","category":"일반휴게음식 - 일반한식"}]},{"lat":"37.520893375","long":"126.79023998","items":[{"name":"두산엘피","tel":"032-679-7303","addr":"경기도 부천시 도당동 60번지","category":"기타 - 기타 전문점"},{"name":"둥지호프","tel":"032-674-9989","addr":"경기도 부천시 도당동 60번지 다미안 101동 101호","category":"일반휴게음식 - 주점"}]},{"lat":"37.5138709","long":"126.77376866","items":[{"name":"두성","tel":"032-678-0997","addr":"경기도 부천시 도당동 218-11번지 1층","category":"건축자재 - 조명기구"},{"name":"비오비(BOB)분식","tel":"032-439-9938","addr":"경기도 부천시 도당동 218-11번지 1층","category":"일반휴게음식 - 스넥"}]},{"lat":"37.519923455","long":"126.79199606","items":[{"name":"들꽃처럼","tel":"032-677-5584","addr":"경기도 부천시 도당동 108-9번지 우측점포 1층","category":"문화.취미 - 화원"},{"name":"백조호프안주마당","tel":"032-673-7700","addr":"경기도 부천시 도당동 108-9번지 지하","category":"일반휴게음식 - 주점"},{"name":"세탁 도당점","tel":"032-675-5584","addr":"경기도 부천시 도당동 108-9번지 1층 1호","category":"수리서비스 - 세탁소"},{"name":"싸다구 중고가전.가구","tel":"032-676-4949","addr":"경기도 부천시 도당동 108-9번지 1층","category":"전기제품 - 가전제품"},{"name":"아르떼음악학원","tel":"032-679-2707","addr":"경기도 부천시 도당동 108-9번지 4층","category":"학원 - 예·체능계학원"},{"name":"애드립","tel":"032-682-3721","addr":"경기도 부천시 도당동 108-9번지","category":"일반휴게음식 - 주점"}]},{"lat":"37.508284567","long":"126.78804768","items":[{"name":"등나무집","tel":"032-675-6821","addr":"경기도 부천시 도당동 182-11번지","category":"일반휴게음식 - 일반한식"}]},{"lat":"37.51886835","long":"126.78649027","items":[{"name":"디디치킨","tel":"032-471-0042","addr":"경기도 부천시 도당동 43-8번지","category":"일반휴게음식 - 스넥"},{"name":"에스알","tel":"070-7714-0064","addr":"경기도 부천시 도당동 43-8번지","category":"기타 - 기계공구"}]},{"lat":"37.510568161","long":"126.78051974","items":[{"name":"디딤슈퍼","tel":"032-675-6098","addr":"경기도 부천시 도당동 164-20번지","category":"유통업 영리 - 슈퍼마켓"},{"name":"양구식당","tel":"032-675-4585","addr":"경기도 부천시 도당동 164-20번지","category":"일반휴게음식 - 일반한식"},{"name":"포차아지트","tel":"070-2699-0807","addr":"경기도 부천시 도당동 164-20번지 1층 일부","category":"일반휴게음식 - 일반한식"},{"name":"황소고집","tel":"032-674-9293","addr":"경기도 부천시 도당동 164-20번지 1층","category":"일반휴게음식 - 일반한식"}]},{"lat":"37.509595672","long":"126.780828","items":[{"name":"디엠테크","tel":"032-684-7270","addr":"경기도 부천시 도당동 272-8번지 대영빌딩 302호","category":"용역 서비스 - 사무서비스"},{"name":"하나","tel":"032-7582-4699","addr":"경기도 부천시 도당동 272-8번지 대영빌딩 102호","category":"기타 - 기계공구"}]},{"lat":"37.514172936","long":"126.78580255","items":[{"name":"디자인 쌍문모형","tel":"032-678-5386","addr":"경기도 부천시 도당동 74-9번지 A동 3층 일부","category":"서적문구 - 완구점"},{"name":"주식회사보니타코퍼레이션","tel":"032-1661-8908","addr":"경기도 부천시 도당동 74-9번지","category":"전기제품 - 기타전기제품"}]},{"lat":"37.505845164","long":"126.78437903","items":[{"name":"디저트보보","tel":"070-1111-1111","addr":"경기도 부천시 도당동 265-6번지 1층 2호","category":"일반휴게음식 - 서양음식"},{"name":"방문공인중개사사무소","tel":"032-672-8833","addr":"경기도 부천시 도당동 265-6번지","category":"용역 서비스 - 부동산 중개·임대"}]},{"lat":"37.506313612","long":"126.77952579","items":[{"name":"또와포차","tel":"032-679-2225","addr":"경기도 부천시 도당동 262-16번지 1층","category":"일반휴게음식 - 일식·회집"}]},{"lat":"37.507982164","long":"126.78043693","items":[{"name":"라임코스","tel":"032-670-8394","addr":"경기도 부천시 도당동 275-6번지","category":"보건위생 - 화장품"},{"name":"신스커피팩토리","tel":"02-1577-0000","addr":"경기도 부천시 도당동 275-6번지","category":"일반휴게음식 - 서양음식"},{"name":"하나","tel":"032-324-7593","addr":"경기도 부천시 도당동 275-6번지 2층","category":"보건위생 - 화장품"}]},{"lat":"37.516373432","long":"126.78693861","items":[{"name":"럭키냉난방공조","tel":"032-684-8504","addr":"경기도 부천시 도당동 49-28번지","category":"전기제품 - 냉열기기"}]},{"lat":"37.50620365","long":"126.7833488","items":[{"name":"럭키슈퍼","tel":"032-683-9256","addr":"경기도 부천시 도당동 266-4성원@107,108호","category":"음료식품 - 기타음료식품"},{"name":"성락속셈학원","tel":"032-676-8040","addr":"경기도 부천시 도당동 266-4","category":"회원제형태 - 학원"},{"name":"인산가 부천대리점","tel":"032-207-6500","addr":"경기도 부천시 도당동 266-4번지","category":"음료식품 - 기타음료식품"}]},{"lat":"37.508708647","long":"126.77868171","items":[{"name":"레비드사이언스","tel":"032-683-5108","addr":"경기도 부천시 도당동 246-6번지","category":"기타 - 기타 전문점"}]},{"lat":"37.507178999","long":"126.78457872","items":[{"name":"레크포인트컴퍼니","tel":"070-7868-6688","addr":"경기도 부천시 도당동 265-52번지","category":"레져용품 - 스포츠·레져용품"}]},{"lat":"37.520622925","long":"126.79521798","items":[{"name":"로즈헤어","tel":"070-8824-1475","addr":"경기도 부천시 도당동 140번지 성산그린맨션 102호","category":"보건위생 - 미용원"}]},{"lat":"37.517788103","long":"126.79199076","items":[{"name":"로하스랜드","tel":"032-678-7558","addr":"경기도 부천시 도당동 103-16번지 혜성빌라 10동 201호","category":"보건위생 - 의료용품"}]},{"lat":"37.517033829","long":"126.78840718","items":[{"name":"롯데냉동원미(싱싱마트)","tel":"032-678-5659","addr":"경기도 부천시 도당동 52번지 유진아트빌 101호 상가","category":"유통업 영리 - 슈퍼마켓"}]},{"lat":"37.519953531","long":"126.78868162","items":[{"name":"롱커피","tel":"","addr":"경기도 부천시 도당동 58-8번지 1층","category":"일반휴게음식 - 서양음식"},{"name":"알폰","tel":"032-679-6531","addr":"경기도 부천시 도당동 58-8번지 1층 101호","category":"수리서비스 - 레져용품수리"}]},{"lat":"37.509228684","long":"126.78699313","items":[{"name":"룽가","tel":"032-321-0209","addr":"경기도 부천시 도당동 179-3번지 다승프라자 112호","category":"일반휴게음식 - 서양음식"}]},{"lat":"37.509452597","long":"126.78140524","items":[{"name":"르네상스화장품","tel":"032-676-6502","addr":"경기도 부천시 도당동 269-6번지","category":"보건위생 - 화장품"}]},{"lat":"37.518566367","long":"126.79391154","items":[{"name":"리딩클럽","tel":"070-4259-5890","addr":"경기도 부천시 도당동 126번지 거산하이빌3차 2층 201호","category":"회원제형태 - 학원"}]},{"lat":"37.510200855","long":"126.7768789","items":[{"name":"리빙프리","tel":"02-6744-4543","addr":"경기도 부천시 도당동 239-5번지 2층","category":"주방용구 - 주방용구"}]},{"lat":"37.516512783","long":"126.78432531","items":[{"name":"리인","tel":"032-681-6220","addr":"경기도 부천시 도당동 26-3번지 1층","category":"일반휴게음식 - 중국식"},{"name":"코리안숯불닭바베큐","tel":"032-675-9608","addr":"경기도 부천시 도당동 26-3번지","category":"일반휴게음식 - 칵테일바"}]},{"lat":"37.507175325","long":"126.7825995","items":[{"name":"마디나 푸드마트","tel":"","addr":"경기도 부천시 도당동 276-16번지","category":"유통업 영리 - 슈퍼마켓"},{"name":"술통","tel":"032-265-8303","addr":"경기도 부천시 도당동 276-16번지 1층","category":"일반휴게음식 - 일반한식"}]},{"lat":"37.521365676","long":"126.79235399","items":[{"name":"마르코포솔로","tel":"031-3725-6460","addr":"경기도 부천시 도당동 111-3번지 202호","category":"전기제품 - 기타전기제품"}]},{"lat":"37.514312755","long":"126.77395959","items":[{"name":"마셔보까우리회포차","tel":"031-0000-0000","addr":"경기도 부천시 도당동 217-8번지 진영빌딩 1층","category":"일반휴게음식 - 일반한식"},{"name":"씨에스씨(CSC)숯불바베큐치킨","tel":"032-681-0972","addr":"경기도 부천시 도당동 217-8번지","category":"일반휴게음식 - 스넥"},{"name":"진영할인마트","tel":"032-681-2776","addr":"경기도 부천시 도당동 217-8번지 진영빌딩","category":"유통업 영리 - 슈퍼마켓"},{"name":"홍진씨엔아이주식회사","tel":"032-329-2514","addr":"경기도 부천시 도당동 217-8번지 진영빌딩 2층","category":"사무통신 - 컴퓨터"}]},{"lat":"37.518979421","long":"126.78810751","items":[{"name":"마키나(MAKINA)","tel":"031-000-0000","addr":"경기도 부천시 도당동 44-19번지 롯데그랑빌 101호 일부","category":"일반휴게음식 - 일반한식"},{"name":"미녀뽀글이","tel":"032-671-9075","addr":"경기도 부천시 도당동 44-19번지 롯데그랑빌 101호","category":"보건위생 - 미용원"},{"name":"바이에스 (BY.S)","tel":"031-111-1111","addr":"경기도 부천시 도당동 44-19번지 롯데그랑빌 101호 일부","category":"의류 - 정장"}]},{"lat":"37.520922192","long":"126.79123535","items":[{"name":"마트사랑","tel":"032-612-5068","addr":"경기도 부천시 도당동 111번지","category":"유통업 영리 - 슈퍼마켓"}]},{"lat":"37.51886723","long":"126.78587945","items":[{"name":"막퍼주는집","tel":"070-7396-0758","addr":"경기도 부천시 도당동 42-3번지 1층","category":"음료식품 - 농·축·수산품"},{"name":"부광정보통신","tel":"032-683-1133","addr":"경기도 부천시 도당동 42-3번지","category":"사무통신 - 통신기기"},{"name":"신주헤어","tel":"070-7366-9388","addr":"경기도 부천시 도당동 42-3번지 1층","category":"보건위생 - 미용원"},{"name":"에스당구장 (S당구장)","tel":"","addr":"경기도 부천시 도당동 42-3번지 2층","category":"레저업소 - 당 구 장"}]},{"lat":"37.506343243","long":"126.78090549","items":[{"name":"만나김밥","tel":"032-678-1588","addr":"경기도 부천시 도당동 279-27번지","category":"일반휴게음식 - 스넥"},{"name":"빅터어패럴","tel":"032-683-7938","addr":"경기도 부천시 도당동 279-27번지","category":"의류 - 정장"}]},{"lat":"37.505845415","long":"126.78451474","items":[{"name":"만땅치킨","tel":"031-677-4743","addr":"경기도 부천시 도당동 265-10번지","category":"일반휴게음식 - 스넥"},{"name":"오감만족 왕족발","tel":"032-713-8848","addr":"경기도 부천시 도당동 265-10번지 1층","category":"일반휴게음식 - 일반한식"}]},{"lat":"37.519204811","long":"126.78818605","items":[{"name":"만리장성","tel":"032-679-0160","addr":"경기도 부천시 도당동 57-4번지 1층","category":"일반휴게음식 - 중국식"}]},{"lat":"37.513926733","long":"126.77468467","items":[{"name":"만선횟집","tel":"032-672-5355","addr":"경기도 부천시 도당동 214-17번지 1층","category":"일반휴게음식 - 일반한식"}]},{"lat":"37.506676607","long":"126.7809045","items":[{"name":"멍냥상점","tel":"032-677-5389","addr":"경기도 부천시 도당동 279-19번지","category":"문화.취미 - 애완동물"},{"name":"뷰티랜드","tel":"032-683-2322","addr":"경기도 부천시 도당동 279-19번지","category":"의류 - 정장"},{"name":"소문난떡집","tel":"032-676-1727","addr":"경기도 부천시 도당동 279-19번지 1층","category":"음료식품 - 제과점"},{"name":"유림꽃화원","tel":"032-676-9163","addr":"경기도 부천시 도당동 279-19번지","category":"문화.취미 - 화원"}]},{"lat":"37.519923092","long":"126.79179245","items":[{"name":"메카정보","tel":"032-345-3308","addr":"경기도 부천시 도당동 108-7번지 1층 4호","category":"사무통신 - 통신기기"},{"name":"빡빡이파마","tel":"032-674-0046","addr":"경기도 부천시 도당동 108-7번지","category":"보건위생 - 미용원"},{"name":"상상하이스트보습학원","tel":"032-679-5955","addr":"경기도 부천시 도당동 108-7번지 2층","category":"학원 - 보습학원"},{"name":"소니도로","tel":"02-1111-1111","addr":"경기도 부천시 도당동 108-7번지 1층","category":"일반휴게음식 - 서양음식"},{"name":"종로떡집","tel":"032-673-2647","addr":"경기도 부천시 도당동 108-7번지 1층","category":"음료식품 - 제과점"}]},{"lat":"37.508145234","long":"126.78091146","items":[{"name":"명퉤","tel":"032-000-0000","addr":"경기도 부천시 도당동 275-40번지 1층 일부","category":"일반휴게음식 - 일반한식"}]},{"lat":"37.508287107","long":"126.78451894","items":[{"name":"모드니치킨","tel":"032-671-2680","addr":"경기도 부천시 도당동 260-53번지","category":"일반휴게음식 - 서양음식"}]},{"lat":"37.518450458","long":"126.79460187","items":[{"name":"모모베이비2호점","tel":"051-545-5000","addr":"경기도 부천시 도당동 127번지 근로복지공사","category":"의류 - 아동의류"}]},{"lat":"37.517315683","long":"126.78487722","items":[{"name":"모아낚시","tel":"032-676-2333","addr":"경기도 부천시 도당동 30-2번지","category":"레져용품 - 스포츠·레져용품"}]},{"lat":"37.507373963","long":"126.78282512","items":[{"name":"모여라포차","tel":"032-677-9247","addr":"경기도 부천시 도당동 263-11번지","category":"일반휴게음식 - 일반한식"},{"name":"천냥포차&쨍아떡볶이","tel":"032-671-9294","addr":"경기도 부천시 도당동 263-11번지 1층","category":"일반휴게음식 - 일반한식"},{"name":"팡팡노래연습장","tel":"032-682-1145","addr":"경기도 부천시 도당동 263-11번지","category":"레저업소 - 노 래 방"}]},{"lat":"37.507152575","long":"126.78490678","items":[{"name":"못난돼지뽈사랑","tel":"032-675-4203","addr":"경기도 부천시 도당동 265-55번지","category":"일반휴게음식 - 일반한식"},{"name":"항공&유통","tel":"032-213-0479","addr":"경기도 부천시 도당동 265-55번지 1층","category":"건강식품 - 기타건강식품"}]},{"lat":"37.508013199","long":"126.78257442","items":[{"name":"무지개나라","tel":"","addr":"경기도 부천시 도당동 273-54번지 1층","category":"신변잡화 - 액세서리"}]},{"lat":"37.506451828","long":"126.78115398","items":[{"name":"뭉치","tel":"032-683-4163","addr":"경기도 부천시 도당동 277-10번지 한신빌라","category":"의류 - 정장"}]},{"lat":"37.512399368","long":"126.78169061","items":[{"name":"미강식당","tel":"032-710-1895","addr":"경기도 부천시 도당동 162-3번지","category":"일반휴게음식 - 위탁급식업"}]},{"lat":"37.517053673","long":"126.78941384","items":[{"name":"미니아트팩토리","tel":"","addr":"경기도 부천시 도당동 52-18번지 동삼아트빌라 라동 201호","category":"문화.취미 - 문화취미기타"}]},{"lat":"37.509090673","long":"126.78543272","items":[{"name":"미도종합상사","tel":"032-681-1830","addr":"경기도 부천시 도당동 180-6번지 8호","category":"의류 - 기타의류"},{"name":"아이삭컴퍼니","tel":"032-224-0087","addr":"경기도 부천시 도당동 180-6번지 신양빌딩 4층","category":"서적문구 - 출판 및 인쇄물"},{"name":"우진초경","tel":"032-214-0989","addr":"경기도 부천시 도당동 180-6번지 1층 106호","category":"기타 - 기계공구"},{"name":"전북산업","tel":"032-679-0901","addr":"경기도 부천시 도당동 180-6번지 1층 2호","category":"기타 - 기계공구"}]},{"lat":"37.507761345","long":"126.78280136","items":[{"name":"미래건축설비","tel":"032-653-6673","addr":"경기도 부천시 도당동 263-9번지 1층 1호","category":"건축자재 - 인테리어전문"},{"name":"수노헤어샵","tel":"032-679-7216","addr":"경기도 부천시 도당동 263-9번지 1층","category":"보건위생 - 미용원"},{"name":"한국종합장식","tel":"032-677-2141","addr":"경기도 부천시 도당동 263-9번지 1층","category":"건축자재 - 인테리어전문"},{"name":"해승폴리머(주)","tel":"032-671-7104","addr":"경기도 부천시 도당동 263-9번지 1층","category":"건축자재 - 페인트"},{"name":"형제인테리어","tel":"032-676-4291","addr":"경기도 부천시 도당동 263-9번지 1","category":"직물 - 카페트,커튼,천막,지물"}]},{"lat":"37.507009605","long":"126.78555186","items":[{"name":"미래스크린","tel":"032-653-9005","addr":"경기도 부천시 도당동 264-17번지 3층","category":"서적문구 - 출판 및 인쇄물"}]},{"lat":"37.521843338","long":"126.79243183","items":[{"name":"미래자동차카센타","tel":"032-684-5582","addr":"경기도 부천시 도당동 113-20번지 하나아트빌","category":"자동차정비 유지 - 자동차정비"}]},{"lat":"37.509977832","long":"126.77804453","items":[{"name":"미래정밀","tel":"032-674-2996","addr":"경기도 부천시 도당동 244-1번지","category":"기타 - 기계공구"},{"name":"한진푸드","tel":"032-351-3708","addr":"경기도 부천시 도당동 244-1번지 E동 지하1층","category":"음료식품 - 기타음료식품"}]},{"lat":"37.507985882","long":"126.78730208","items":[{"name":"미산식품","tel":"032-679-1792","addr":"경기도 부천시 도당동 183-15번지 1층","category":"음료식품 - 기타음료식품"}]},{"lat":"37.50645871","long":"126.78002299","items":[{"name":"미소유통","tel":"032-671-6421","addr":"경기도 부천시 도당동 284-15번지","category":"문화.취미 - 애완동물"},{"name":"송가네빈대떡","tel":"032-672-1181","addr":"경기도 부천시 도당동 284-15번지 일부 1층","category":"일반휴게음식 - 일반한식"},{"name":"요리가 맛있는 낭만포차","tel":"032-675-9354","addr":"경기도 부천시 도당동 284-15번지 1층","category":"일반휴게음식 - 일반한식"},{"name":"페리카나","tel":"032-677-7500","addr":"경기도 부천시 도당동 284-15번지 1층","category":"일반휴게음식 - 칵테일바"}]},{"lat":"37.507180022","long":"126.7851329","items":[{"name":"미술양복점","tel":"032-654-7145","addr":"경기도 부천시 도당동 264-1번지","category":"의류 - 맞춤복점"}]},{"lat":"37.508512956","long":"126.78001688","items":[{"name":"미운오리주물럭","tel":"070-7377-5959","addr":"경기도 부천시 도당동 281-22번지 1층","category":"일반휴게음식 - 일반한식"},{"name":"방가방가노래연습장","tel":"032-675-0209","addr":"경기도 부천시 도당동 281-22번지 지층","category":"레저업소 - 노 래 방"},{"name":"플러스알파문구인쇄","tel":"032-679-9532","addr":"경기도 부천시 도당동 281-22번지 1층","category":"서적문구 - 문구용품"}]},{"lat":"37.507062936","long":"126.78515586","items":[{"name":"미주전력","tel":"032-678-8927","addr":"경기도 부천시 도당동 264-2번지 1층","category":"전기제품 - 기타전기제품"}]},{"lat":"37.508926939","long":"126.77976683","items":[{"name":"미주하이테크","tel":"032-677-9535","addr":"경기도 부천시 도당동 281-18번지","category":"기타 - 기계공구"},{"name":"신화기업","tel":"032-672-4537","addr":"경기도 부천시 도당동 281-18번지","category":"전기제품 - 기타전기제품"}]},{"lat":"37.51459298","long":"126.7744338","items":[{"name":"미진장여관","tel":"032-675-9865","addr":"경기도 부천시 도당동 215-3번지","category":"숙박업 - 여관/기타숙박업"},{"name":"약대목욕탕","tel":"032-675-0069","addr":"경기도 부천시 도당동 215-3","category":"보건위생 - 사우나"}]},{"lat":"37.51761858","long":"126.78302127","items":[{"name":"민성화공약품 상사","tel":"032-675-7744","addr":"경기도 부천시 도당동 20-4번지","category":"기타 - 기타 전문점"}]},{"lat":"37.50828696","long":"126.78443977","items":[{"name":"민정칼국수","tel":"032-675-6677","addr":"경기도 부천시 도당동 260-52번지","category":"일반휴게음식 - 일반한식"}]},{"lat":"37.518318834","long":"126.79151418","items":[{"name":"민지네","tel":"070-1111-1111","addr":"경기도 부천시 도당동 105-10번지 복지빌라 202호","category":"음료식품 - 미곡상"}]},{"lat":"37.516424022","long":"126.78504949","items":[{"name":"바른연세외과의원","tel":"032-677-8822","addr":"경기도 부천시 도당동 32-1번지2.3층","category":"의원 - 의원"}]},{"lat":"37.515980847","long":"126.78413457","items":[{"name":"백광기업","tel":"032-681-8418","addr":"경기도 부천시 도당동 26-9번지","category":"전기제품 - 기타전기제품"}]},{"lat":"37.50848535","long":"126.77971159","items":[{"name":"백광세탁소","tel":"032-676-3192","addr":"경기도 부천시 도당동 281-26번지","category":"수리서비스 - 세탁소"}]},{"lat":"37.519757625","long":"126.78996041","items":[{"name":"백만송이협동조합","tel":"032-676-0020","addr":"경기도 부천시 도당동 62-3번지","category":"문화.취미 - 민예·공예품"},{"name":"조박사식당","tel":"032-677-8341","addr":"경기도 부천시 도당동 62-3번지","category":"일반휴게음식 - 일반한식"}]},{"lat":"37.508482554","long":"126.78302544","items":[{"name":"백양사세탁소","tel":"032-678-8575","addr":"경기도 부천시 도당동 257-54번지","category":"수리서비스 - 세탁소"},{"name":"보물섬주막","tel":"032-682-0318","addr":"경기도 부천시 도당동 257-54번지 일부 1층","category":"일반휴게음식 - 주점"},{"name":"보물섬호프","tel":"031-000-0000","addr":"경기도 부천시 도당동 257-54번지","category":"일반휴게음식 - 주점"},{"name":"태국전통식당","tel":"02-111-1111","addr":"경기도 부천시 도당동 257-54번지 1층","category":"일반휴게음식 - 서양음식"}]},{"lat":"37.519177019","long":"126.7877676","items":[{"name":"백조세탁소","tel":"031-678-1794","addr":"경기도 부천시 도당동 44-6","category":"수리서비스 - 세탁소"}]},{"lat":"37.508481711","long":"126.78257304","items":[{"name":"번창슈퍼","tel":"032-676-4533","addr":"경기도 부천시 도당동 271-1번지","category":"유통업 영리 - 슈퍼마켓"},{"name":"수디자인","tel":"","addr":"경기도 부천시 도당동 271-1번지 지하","category":"용역 서비스 - 사무서비스"}]},{"lat":"37.50639733","long":"126.78576852","items":[{"name":"베네디르","tel":"032-672-1465","addr":"경기도 부천시 도당동 264-39번지","category":"가구 - 일반가구"}]},{"lat":"37.518943237","long":"126.78802844","items":[{"name":"베란다유리 거울공사 칼라유리 샷시공사","tel":"032-681-8050","addr":"경기도 부천시 도당동 44-7번지 롯데그랑빌 가동 501호","category":"용역 서비스 - 기타용역서비스"}]},{"lat":"37.518924835","long":"126.79282462","items":[{"name":"베리타스","tel":"070-7322-7828","addr":"경기도 부천시 도당동 119번지 한남빌리지 103동 301호","category":"신변잡화 - 기타잡화"}]},{"lat":"37.520894777","long":"126.7910205","items":[{"name":"베지밀신흥대리점","tel":"032-673-4488","addr":"경기도 부천시 도당동 60-7번지","category":"보건위생 - 화장품"},{"name":"오땡큐","tel":"","addr":"경기도 부천시 도당동 60-7번지 1층","category":"보건위생 - 미용원"}]},{"lat":"37.507203555","long":"126.78324408","items":[{"name":"베트남쌀국수","tel":"","addr":"경기도 부천시 도당동 266-8번지 1층 일부","category":"일반휴게음식 - 서양음식"}]},{"lat":"37.507151091","long":"126.78410379","items":[{"name":"벤쓰야식당","tel":"032-677-8036","addr":"경기도 부천시 도당동 265-1번지 1층","category":"일반휴게음식 - 서양음식"}]},{"lat":"37.508477812","long":"126.78049201","items":[{"name":"별미식당","tel":"032-675-2085","addr":"경기도 부천시 도당동 272-26번지 1층","category":"일반휴게음식 - 일반한식"}]},{"lat":"37.51406199","long":"126.77474081","items":[{"name":"병천황토방순대","tel":"032-681-6755","addr":"경기도 부천시 도당동 214-8번지","category":"일반휴게음식 - 일반한식"}]},{"lat":"37.517784195","long":"126.78487586","items":[{"name":"보륜상사","tel":"032-671-8977","addr":"경기도 부천시 도당동 29-2번지","category":"자동차판매 - 이륜차판매"}]},{"lat":"37.518341121","long":"126.79391217","items":[{"name":"보명마트","tel":"032-671-8286","addr":"경기도 부천시 도당동 126-4번지 낙원아트빌 상가 101호","category":"유통업 영리 - 슈퍼마켓"}]},{"lat":"37.520370888","long":"126.79535442","items":[{"name":"복고매니아","tel":"","addr":"경기도 부천시 도당동 141번지 성진그린타운 104동 401호","category":"서적문구 - 완구점"}]},{"lat":"37.518090702","long":"126.79496484","items":[{"name":"복사골식당","tel":"032-672-4266","addr":"경기도 부천시 도당동 125-1번지 1층 4호","category":"일반휴게음식 - 일반한식"}]},{"lat":"37.507339585","long":"126.7837187","items":[{"name":"복음지물","tel":"032-677-9494","addr":"경기도 부천시 도당동 263-46번지","category":"직물 - 카페트,커튼,천막,지물"}]},{"lat":"37.512233024","long":"126.78429254","items":[{"name":"본동파이프","tel":"","addr":"경기도 부천시 도당동 97-5번지","category":"건축자재 - 기타건축자재"}]},{"lat":"37.514756672","long":"126.77994176","items":[{"name":"볼트판매센터","tel":"032-563-3555","addr":"경기도 부천시 도당동 169-4번지 1층 일부","category":"기타 - 기계공구"}]},{"lat":"37.517204337","long":"126.79304436","items":[{"name":"부강상사","tel":"032-678-1070","addr":"경기도 부천시 도당동 123번지","category":"음료식품 - 주류 판매점"},{"name":"혜성미용재료","tel":"032-684-4842","addr":"경기도 부천시 도당동 123번지 1층","category":"보건위생 - 미용재료"},{"name":"휘게공방","tel":"070-8285-6892","addr":"경기도 부천시 도당동 123번지 1층 5호","category":"문화.취미 - 문화취미기타"}]},{"lat":"37.508757011","long":"126.78043463","items":[{"name":"부대랑명태랑","tel":"","addr":"경기도 부천시 도당동 272-19번지 1층","category":"일반휴게음식 - 일반한식"},{"name":"사인미디어","tel":"032-681-8369","addr":"경기도 부천시 도당동 272-19번지","category":"용역 서비스 - 종합용역"},{"name":"세기종합냉열","tel":"032-673-3838","addr":"경기도 부천시 도당동 272-19번지","category":"기타 - 기타 전문점"}]},{"lat":"37.508485093","long":"126.77957587","items":[{"name":"부성시스템","tel":"","addr":"경기도 부천시 도당동 281-24번지 1층","category":"용역 서비스 - 기타용역서비스"}]},{"lat":"37.509785368","long":"126.78593967","items":[{"name":"부성자동차공업사","tel":"032-671-1466","addr":"경기도 부천시 도당동 176-6번지","category":"자동차정비 유지 - 자동차정비"}]},{"lat":"37.520227307","long":"126.79568286","items":[{"name":"부어치킨","tel":"032-679-8252","addr":"경기도 부천시 도당동 141-4번지 성진그린타운 101동 101호","category":"일반휴게음식 - 스넥"}]},{"lat":"37.516867274","long":"126.7811571","items":[{"name":"부원종합공사","tel":"032-672-5060","addr":"경기도 부천시 도당동 14번지","category":"용역 서비스 - 기타용역서비스"}]},{"lat":"37.513755983","long":"126.77491141","items":[{"name":"부천드라이브","tel":"032-676-2727","addr":"경기도 부천시 도당동 214-11번지 1층","category":"자동차정비 유지 - 자동차부품"},{"name":"현대특수도료.도장","tel":"032-677-7337","addr":"경기도 부천시 도당동 214-11번지","category":"건축자재 - 페인트"}]},{"lat":"37.518206216","long":"126.78901465","items":[{"name":"부천북고등학교매점","tel":"032-221-6809","addr":"경기도 부천시 도당동 54번지","category":"음료식품 - 기타음료식품"}]},{"lat":"37.514477938","long":"126.78507776","items":[{"name":"부천시장애인직업재활시설","tel":"032-672-2500","addr":"경기도 부천시 도당동 75-3번지","category":"건축자재 - 인테리어전문"}]},{"lat":"37.50837481","long":"126.77843388","items":[{"name":"부천특수","tel":"032-000-0000","addr":"경기도 부천시 도당동 246-66번지 1층 왼쪽","category":"자동차정비 유지 - 견인서비스"},{"name":"카앤피플 부천원미구 2호점","tel":"031-0000-0000","addr":"경기도 부천시 도당동 246-66번지","category":"자동차정비 유지 - 세차장"}]},{"lat":"37.516485293","long":"126.78407654","items":[{"name":"부흥기계","tel":"032-678-7610","addr":"경기도 부천시 도당동 26-4번지","category":"기타 - 기계공구"}]},{"lat":"37.513755218","long":"126.77451553","items":[{"name":"불쭈꾸미 생돼지 김치찌개","tel":"032-672-6477","addr":"경기도 부천시 도당동 214-22번지","category":"일반휴게음식 - 일반한식"}]},{"lat":"37.521201051","long":"126.7909857","items":[{"name":"브니엘자동차정비공업사","tel":"032-671-2484","addr":"경기도 부천시 도당동 60-2번지 1층","category":"자동차정비 유지 - 자동차정비"}]},{"lat":"37.517978801","long":"126.79282727","items":[{"name":"블루기획","tel":"032-672-5949","addr":"경기도 부천시 도당동 121번지","category":"용역 서비스 - 사무서비스"},{"name":"정관장도당점","tel":"032-682-2325","addr":"경기도 부천시 도당동 121번지 1층","category":"건강식품 - 홍삼제품"}]},{"lat":"37.517338916","long":"126.78282979","items":[{"name":"비금슈퍼","tel":"070-1111-1111","addr":"경기도 부천시 도당동 20-2번지","category":"유통업 영리 - 슈퍼마켓"}]},{"lat":"37.507647177","long":"126.77957837","items":[{"name":"비어하우스","tel":"032-677-2106","addr":"경기도 부천시 도당동 283-15번지 1층","category":"일반휴게음식 - 주점"}]},{"lat":"37.507900137","long":"126.77993953","items":[{"name":"비트노래연습장","tel":"032-675-9032","addr":"경기도 부천시 도당동 283-6번지 A동 지층","category":"레저업소 - 노 래 방"},{"name":"지성정보통신","tel":"","addr":"경기도 부천시 도당동 283-6번지 A동 101호","category":"사무통신 - 통신기기"}]},{"lat":"37.50823357","long":"126.78480185","items":[{"name":"빅쓰리(Big3)치킨호프","tel":"070-8939-8669","addr":"경기도 부천시 도당동 258-4번지","category":"일반휴게음식 - 주점"}]},{"lat":"37.51950535","long":"126.78996113","items":[{"name":"빨강떡볶이","tel":"070-4579-4886","addr":"경기도 부천시 도당동 63번지 도당맨션 1동 101호","category":"일반휴게음식 - 스넥"},{"name":"연이네명품정육점","tel":"032-677-3239","addr":"경기도 부천시 도당동 63번지 도당맨션 101호","category":"음료식품 - 정육점"},{"name":"유지원헤어갤러리","tel":"032-683-7888","addr":"경기도 부천시 도당동 63번지 도당맨션 1동 1층 102호","category":"보건위생 - 미용원"}]},{"lat":"37.513423796","long":"126.7755232","items":[{"name":"뽀빠이월드","tel":"070-4088-5582","addr":"경기도 부천시 도당동 222-29번지 창성빌딩 1층 104호","category":"레져용품 - 스포츠·레져용품"},{"name":"코코브롯","tel":"032-527-1107","addr":"경기도 부천시 도당동 222-29번지 (주)창성상사 1층 103호","category":"음료식품 - 제과점"}]},{"lat":"37.518840864","long":"126.78624149","items":[{"name":"뽀뽀애견","tel":"070-4042-9918","addr":"경기도 부천시 도당동 42-8번지 1층 일부","category":"문화.취미 - 애완동물"},{"name":"엄니손맛","tel":"032-671-9849","addr":"경기도 부천시 도당동 42-8번지 일부 1층","category":"일반휴게음식 - 일반한식"},{"name":"토탈패션","tel":"032-676-7522","addr":"경기도 부천시 도당동 42-8번지 1층","category":"의류 - 정장"}]},{"lat":"37.50584062","long":"126.78193616","items":[{"name":"사구팔구 옛날통닭","tel":"070-7538-8786","addr":"경기도 부천시 도당동 278-48번지 1층","category":"일반휴게음식 - 일반한식"}]},{"lat":"37.518311118","long":"126.79223814","items":[{"name":"사랑헤어","tel":"032-223-2579","addr":"경기도 부천시 도당동 105-7번지 The편한 1층 101호","category":"보건위생 - 미용원"}]},{"lat":"37.520705571","long":"126.79102104","items":[{"name":"삼보세탁소","tel":"032-676-2696","addr":"경기도 부천시 도당동 61-8번지","category":"수리서비스 - 세탁소"},{"name":"아름다운헤어 백합","tel":"032-678-4858","addr":"경기도 부천시 도당동 61-8번지 1층","category":"보건위생 - 미용원"}]},{"lat":"37.511180104","long":"126.78496293","items":[{"name":"삼성정","tel":"032-675-5597","addr":"경기도 부천시 도당동 86-17번지","category":"일반휴게음식 - 일반한식"},{"name":"한샘골","tel":"032-325-0568","addr":"경기도 부천시 도당동 86-17번지 1층","category":"일반휴게음식 - 일반한식"}]},{"lat":"37.50828756","long":"126.77993838","items":[{"name":"삼성종합건축","tel":"032-675-4954","addr":"경기도 부천시 도당동 283-12번지","category":"건축자재 - 인테리어전문"}]},{"lat":"37.511234163","long":"126.78496278","items":[{"name":"삼신광고기획","tel":"032-681-6575","addr":"경기도 부천시 도당동 86-16번지","category":"서적문구 - 출판 및 인쇄물"},{"name":"삼신광고기획","tel":"032-681-6575","addr":"경기도 부천시 도당동 86-16번지","category":"용역 서비스 - 종합용역"},{"name":"아리아","tel":"032-682-8396","addr":"경기도 부천시 도당동 86-16번지","category":"보건위생 - 미용재료"}]},{"lat":"37.506145451","long":"126.78113227","items":[{"name":"삼양","tel":"032-684-8689","addr":"경기도 부천시 도당동 278-56번지","category":"음료식품 - 농·축·수산품"}]},{"lat":"37.512788335","long":"126.78251514","items":[{"name":"삼오식당","tel":"032-675-6797","addr":"경기도 부천시 도당동 160-9번지 1층 일부","category":"일반휴게음식 - 일반한식"},{"name":"에스티엔 (STN)커피","tel":"032-677-5958","addr":"경기도 부천시 도당동 160-9번지","category":"일반휴게음식 - 서양음식"},{"name":"이마트24도당공단점","tel":"","addr":"경기도 부천시 도당동 160-9번지 1층","category":"유통업 영리 - 편 의 점"}]},{"lat":"37.52022687","long":"126.79543401","items":[{"name":"삼오전기","tel":"032-505-2165","addr":"경기도 부천시 도당동 141-3번지 성진그린타운 102동 103호","category":"전기제품 - 기타전기제품"},{"name":"엘림동물병원","tel":"032-261-2612","addr":"경기도 부천시 도당동 141-3번지 성진그린타운","category":"기타의료기관 - 동물병원"},{"name":"옛골","tel":"032-678-7288","addr":"경기도 부천시 도당동 141-3번지 성진그린타운","category":"일반휴게음식 - 칵테일바"}]},{"lat":"37.5091473","long":"126.78196034","items":[{"name":"삼진칼라팩","tel":"032-677-2618","addr":"경기도 부천시 도당동 270-15번지","category":"서적문구 - 출판 및 인쇄물"}]},{"lat":"37.508040607","long":"126.77799379","items":[{"name":"삼천리자전거","tel":"070-7325-0371","addr":"경기도 부천시 도당동 247-50번지 101호","category":"레져용품 - 스포츠·레져용품"}]},{"lat":"37.512400341","long":"126.7822109","items":[{"name":"삼화자동차서비스","tel":"032-681-3000","addr":"경기도 부천시 도당동 162-2번지","category":"자동차정비 유지 - 자동차정비"}]},{"lat":"37.516428647","long":"126.78757188","items":[{"name":"상상플러스","tel":"","addr":"경기도 부천시 도당동 49-2번지 마메든빌라 302호","category":"건축자재 - 인테리어전문"}]},{"lat":"37.512009736","long":"126.78051546","items":[{"name":"상아모터스","tel":"032-652-1235","addr":"경기도 부천시 도당동 164-3번지","category":"자동차정비 유지 - 자동차정비"}]},{"lat":"37.51450603","long":"126.78565454","items":[{"name":"상월정밀","tel":"032-672-7261","addr":"경기도 부천시 도당동 74-16번지","category":"기타 - 기계공구"}]},{"lat":"37.515430034","long":"126.77868422","items":[{"name":"상진","tel":"032-653-5482","addr":"경기도 부천시 도당동 8-1번지 4층","category":"기타 - 기계공구"}]},{"lat":"37.518783869","long":"126.78957858","items":[{"name":"샌드홀릭","tel":"","addr":"경기도 부천시 도당동 56-5번지 우성빌라 1층 101호","category":"일반휴게음식 - 일반한식"}]},{"lat":"37.515845427","long":"126.78398792","items":[{"name":"생선구이밥이랑국이랑","tel":"032-677-2043","addr":"경기도 부천시 도당동 23-10번지","category":"일반휴게음식 - 일반한식"}]},{"lat":"37.519034732","long":"126.78879737","items":[{"name":"샬롬헤어","tel":"","addr":"경기도 부천시 도당동 56번지 로얄하이츠 101호","category":"보건위생 - 미용원"}]},{"lat":"37.517232046","long":"126.78840662","items":[{"name":"서연홈케어","tel":"032-1577-3606","addr":"경기도 부천시 도당동 53-20번지 청담빌리지 202호","category":"용역 서비스 - 종합용역"}]},{"lat":"37.507174755","long":"126.78229414","items":[{"name":"서울생고기구이","tel":"032-676-8215","addr":"경기도 부천시 도당동 276-1번지","category":"일반휴게음식 - 일반한식"},{"name":"서울정육점","tel":"032-676-8215","addr":"경기도 부천시 도당동 276-1번지","category":"음료식품 - 정육점"},{"name":"윤수네닭발집","tel":"032-682-4922","addr":"경기도 부천시 도당동 276-1번지 1층","category":"일반휴게음식 - 일반한식"}]},{"lat":"37.514652323","long":"126.77718219","items":[{"name":"서원1급자동차주식회사","tel":"032-683-4471","addr":"경기도 부천시 도당동 197-1번지","category":"자동차정비 유지 - 자동차정비"}]},{"lat":"37.515371747","long":"126.78121808","items":[{"name":"서전","tel":"032-423-6756","addr":"경기도 부천시 도당동 16-6번지","category":"신변잡화 - 기타잡화"}]},{"lat":"37.520650332","long":"126.79543283","items":[{"name":"선경주방","tel":"032-673-2051","addr":"경기도 부천시 도당동 140-1번지 성산그린맨션 다동 402호","category":"수리서비스 - 가정용품수리"}]},{"lat":"37.50884632","long":"126.78001589","items":[{"name":"선일종합포장","tel":"032-676-4129","addr":"경기도 부천시 도당동 281-29번지","category":"유통업 영리 - 기타유통업"},{"name":"아이디어","tel":"032-681-6769","addr":"경기도 부천시 도당동 281-29번지","category":"서적문구 - 출판 및 인쇄물"},{"name":"원당구장","tel":"070-4150-5894","addr":"경기도 부천시 도당동 281-29번지 2층","category":"레저업소 - 당 구 장"}]},{"lat":"37.507564868","long":"126.77893395","items":[{"name":"설리네","tel":"","addr":"경기도 부천시 도당동 246-114번지 명품위너스빌 302호","category":"신변잡화 - 액세서리"}]},{"lat":"37.505871691","long":"126.78410752","items":[{"name":"성가약국","tel":"032-676-3200","addr":"경기도 부천시 도당동 265-39번지","category":"약국 - 약국"}]},{"lat":"37.512343696","long":"126.78083117","items":[{"name":"성광수중펌프","tel":"032-684-6481","addr":"경기도 부천시 도당동 164-1번지","category":"건축자재 - 보일러·펌프·샷시"}]},{"lat":"37.517257107","long":"126.79232028","items":[{"name":"성광인테리어","tel":"032-876-9938","addr":"경기도 부천시 도당동 92-7번지 한주타운 1층","category":"건축자재 - 인테리어전문"}]},{"lat":"37.515231194","long":"126.7783568","items":[{"name":"성보수리","tel":"032-678-3492","addr":"경기도 부천시 도당동 8번지","category":"수리서비스 - 가정용품수리"},{"name":"에이디오 원","tel":"070-7788-7873","addr":"경기도 부천시 도당동 8번지 2층","category":"건축자재 - 조명기구"},{"name":"우정식당","tel":"032-681-0720","addr":"경기도 부천시 도당동 8번지","category":"일반휴게음식 - 일반한식"},{"name":"클린탑테크","tel":"032-1600-6764","addr":"경기도 부천시 도당동 8번지 1층","category":"기타 - 기계공구"}]},{"lat":"37.508427406","long":"126.77766464","items":[{"name":"성실자동차부분장비","tel":"032-671-7096","addr":"경기도 부천시 도당동 247-12번지 1층","category":"자동차정비 유지 - 자동차정비"}]},{"lat":"37.510315201","long":"126.78498807","items":[{"name":"성은요양원","tel":"032-715-7982","addr":"경기도 부천시 도당동 178-1번지 고려빌딩","category":"기타의료기관 - 기타의료기관 및 기타"},{"name":"예다움협동조합","tel":"032-715-7982","addr":"경기도 부천시 도당동 178-1번지 2층","category":"음료식품 - 기타음료식품"},{"name":"옛골식당","tel":"032-677-7869","addr":"경기도 부천시 도당동 178-1번지 고려빌딩 1층","category":"일반휴게음식 - 일반한식"},{"name":"하늘기업","tel":"032-678-6442","addr":"경기도 부천시 도당동 178-1번지","category":"자동차정비 유지 - 윤활유 전문 판매"}]},{"lat":"37.519700043","long":"126.78801495","items":[{"name":"성화정보","tel":"032-1661-0431","addr":"경기도 부천시 도당동 58-11번지 복지빌라","category":"사무통신 - 통신기기"}]},{"lat":"37.513593259","long":"126.77462913","items":[{"name":"세바퀴","tel":"032-671-3492","addr":"경기도 부천시 도당동 214-24번지 1층","category":"일반휴게음식 - 일반한식"}]},{"lat":"37.508316421","long":"126.78091096","items":[{"name":"세븐일레븐부천도약로점","tel":"","addr":"경기도 부천시 도당동 275-11번지","category":"유통업 영리 - 편 의 점"}]},{"lat":"37.521172466","long":"126.79518252","items":[{"name":"세븐일레븐부천세영점","tel":"031-1577-0711","addr":"경기도 부천시 도당동 138-3번지 세영프라임 상가 1층","category":"유통업 영리 - 편 의 점"}]},{"lat":"37.515730848","long":"126.78536821","items":[{"name":"세븐일레븐부천원미도당점","tel":"","addr":"경기도 부천시 도당동 32-13번지 대영스카이 A동 101호","category":"유통업 영리 - 편 의 점"}]},{"lat":"37.514782376","long":"126.7792404","items":[{"name":"세아유통","tel":"032-674-4878","addr":"경기도 부천시 도당동 165-17번지 2층 전부","category":"의류 - 정장"},{"name":"영원레이져","tel":"032-672-1179","addr":"경기도 부천시 도당동 165-17번지 1호 중","category":"기타 - 기계공구"},{"name":"준테크","tel":"032-233-8075","addr":"경기도 부천시 도당동 165-17번지 3층","category":"건축자재 - 조명기구"}]},{"lat":"37.508429342","long":"126.77868254","items":[{"name":"세진공조","tel":"032-676-2738","addr":"경기도 부천시 도당동 246-68번지 신명위너스빌 101호","category":"전기제품 - 냉열기기"}]},{"lat":"37.507005828","long":"126.77870942","items":[{"name":"센추리테크","tel":"032-676-7112","addr":"경기도 부천시 도당동 247-24번지 선결레미앙주상복합아파트 105호","category":"전기제품 - 냉열기기"}]},{"lat":"37.508679509","long":"126.7775734","items":[{"name":"센코/원격지","tel":"031-677-1999","addr":"경기도 부천시 도당동 247-66번지 연합조명상가 2층","category":"기타 - 기타 전문점"}]},{"lat":"37.507340402","long":"126.78415978","items":[{"name":"셀론","tel":"","addr":"경기도 부천시 도당동 263-66번지 1층","category":"보건위생 - 미용원"}]},{"lat":"37.507533244","long":"126.78127519","items":[{"name":"소문난순대집","tel":"032-675-1867","addr":"경기도 부천시 도당동 274-7번지","category":"일반휴게음식 - 일반한식"},{"name":"우리전통식당","tel":"032-671-4144","addr":"경기도 부천시 도당동 274-7번지","category":"일반휴게음식 - 일반한식"}]},{"lat":"37.505845933","long":"126.77996826","items":[{"name":"소빵소빵 베이커리","tel":"032-715-5884","addr":"경기도 부천시 도당동 284-7번지 B동 1층","category":"음료식품 - 제과점"},{"name":"전진오토","tel":"032-683-9782","addr":"경기도 부천시 도당동 284-7번지","category":"자동차정비 유지 - 세차장"},{"name":"전진오토자동변속기전문수리점","tel":"032-683-9782","addr":"경기도 부천시 도당동 284-7번지 A동","category":"자동차정비 유지 - 자동차정비"},{"name":"큐사랑도당점","tel":"032-679-3390","addr":"경기도 부천시 도당동 284-7번지","category":"보건위생 - 화장품"}]},{"lat":"37.507231504","long":"126.77893494","items":[{"name":"소중한피부","tel":"032-678-8547","addr":"경기도 부천시 도당동 247-30번지","category":"회원제형태 - 기타4"}]},{"lat":"37.517369405","long":"126.78962786","items":[{"name":"손불곱창","tel":"032-671-4546","addr":"경기도 부천시 도당동 53-25번지 1층","category":"일반휴게음식 - 일반한식"}]},{"lat":"37.513259042","long":"126.77418903","items":[{"name":"손진헤어스튜디오","tel":"032-682-4550","addr":"경기도 부천시 도당동 214-42번지","category":"보건위생 - 미용원"}]},{"lat":"37.514703226","long":"126.78509973","items":[{"name":"송학장갑","tel":"032-684-7723","addr":"경기도 부천시 도당동 75-9번지 1층 일부","category":"의류 - 기타의류"}]},{"lat":"37.514007712","long":"126.77462787","items":[{"name":"수림생삼겹","tel":"","addr":"경기도 부천시 도당동 214-45번지 1층","category":"일반휴게음식 - 일반한식"},{"name":"약대꼼장어","tel":"032-675-9293","addr":"경기도 부천시 도당동 214-45번지 1층","category":"일반휴게음식 - 일반한식"}]},{"lat":"37.510261704","long":"126.7852936","items":[{"name":"수성시스템","tel":"032-684-7008","addr":"경기도 부천시 도당동 178-8번지","category":"전기제품 - 기타전기제품"}]},{"lat":"37.513484507","long":"126.77430145","items":[{"name":"술단지","tel":"031-676-8009","addr":"경기도 부천시 도당동 214-34번지 1층","category":"일반휴게음식 - 일반한식"}]},{"lat":"37.513344511","long":"126.78121277","items":[{"name":"슈와테크","tel":"032-672-4377","addr":"경기도 부천시 도당동 159-13","category":"전기제품 - 냉열기기"}]},{"lat":"37.513430163","long":"126.77415457","items":[{"name":"스카이","tel":"032-672-8265","addr":"경기도 부천시 도당동 214-40번지 1층","category":"일반휴게음식 - 주점"}]},{"lat":"37.518928026","long":"126.78957817","items":[{"name":"스쿨버스문구","tel":"032-681-0218","addr":"경기도 부천시 도당동 56-4번지 우성빌라","category":"서적문구 - 문구용품"},{"name":"정가네칼국수","tel":"032-683-9236","addr":"경기도 부천시 도당동 56-4번지 우성빌라 1층 102호","category":"일반휴게음식 - 일반한식"}]},{"lat":"37.511646105","long":"126.78360431","items":[{"name":"스타노래연습장","tel":"032-614-8788","addr":"경기도 부천시 도당동 98-13번지","category":"레저업소 - 노 래 방"}]},{"lat":"37.507368128","long":"126.77971492","items":[{"name":"스타노래연습장","tel":"032-672-1623","addr":"경기도 부천시 도당동 283-19번지 2층","category":"레저업소 - 노 래 방"}]},{"lat":"37.519952977","long":"126.78837621","items":[{"name":"스타일","tel":"070-8525-4252","addr":"경기도 부천시 도당동 58-6번지 1층","category":"의류 - 정장"}]},{"lat":"37.50814449","long":"126.78051561","items":[{"name":"스피드세차장","tel":"032-683-7696","addr":"경기도 부천시 도당동 275-25번지","category":"자동차정비 유지 - 자동차정비"}]},{"lat":"37.509588872","long":"126.78687899","items":[{"name":"승국전자","tel":"032-344-0715","addr":"경기도 부천시 도당동 179-15","category":"전기제품 - 기타전기제품"},{"name":"아이씨엠스토리(ICM story)","tel":"","addr":"경기도 부천시 도당동 179-15번지 3층","category":"서적문구 - 완구점"},{"name":"은하북스","tel":"02-1234-1234","addr":"경기도 부천시 도당동 179-15번지","category":"서적문구 - 일반서적"}]},{"lat":"37.51136659","long":"126.78349203","items":[{"name":"승현상사","tel":"032-000-0000","addr":"경기도 부천시 도당동 100-1번지 세광빌딩 1층","category":"신변잡화 - 기타잡화"}]},{"lat":"37.507926922","long":"126.78463309","items":[{"name":"시골집식당","tel":"032-683-2521","addr":"경기도 부천시 도당동 260-44번지","category":"일반휴게음식 - 일반한식"},{"name":"착한호프","tel":"032-672-2829","addr":"경기도 부천시 도당동 260-44번지 1층","category":"일반휴게음식 - 주점"}]},{"lat":"37.507070012","long":"126.77929734","items":[{"name":"시골통돼지볶음찌개","tel":"032-677-0395","addr":"경기도 부천시 도당동 250-5번지 1층","category":"일반휴게음식 - 일반한식"}]},{"lat":"37.512313615","long":"126.77921383","items":[{"name":"시그널박스(signalbox)","tel":"032-328-6360","addr":"경기도 부천시 도당동 177-85번지 3층 베린다쪽 일부 외4필지","category":"용역 서비스 - 소프트웨어"}]},{"lat":"37.506090967","long":"126.78090624","items":[{"name":"시소베이비할인매장","tel":"032-683-1315","addr":"경기도 부천시 도당동 279-47번지","category":"의류 - 아동의류"}]},{"lat":"37.507344504","long":"126.78152457","items":[{"name":"시온이불","tel":"032-683-3817","addr":"경기도 부천시 도당동 274-10번지","category":"직물 - 침구·수예점"}]},{"lat":"37.507764305","long":"126.77957802","items":[{"name":"시원정육점","tel":"032-625-6782","addr":"경기도 부천시 도당동 283-9번지 1층 일부","category":"음료식품 - 정육점"}]},{"lat":"37.506541459","long":"126.7809049","items":[{"name":"시장떡집","tel":"032-682-1415","addr":"경기도 부천시 도당동 279-25번지","category":"음료식품 - 제과점"}]},{"lat":"37.513091714","long":"126.77619154","items":[{"name":"식도락약대점","tel":"032-673-7800","addr":"경기도 부천시 도당동 222-28번지 1층 일부","category":"일반휴게음식 - 일반한식"},{"name":"이마트24 부천동부밸리점","tel":"032-1111-1111","addr":"경기도 부천시 도당동 222-28번지 1층","category":"유통업 영리 - 편 의 점"}]},{"lat":"37.515200454","long":"126.78116203","items":[{"name":"신광스프링","tel":"032-678-8258","addr":"경기도 부천시 도당동 16-7번지","category":"기타 - 기계공구"}]},{"lat":"37.515897426","long":"126.78287927","items":[{"name":"신광엔지니어링/원격지","tel":"02-896-3374","addr":"경기도 부천시 도당동 23번지","category":"기타 - 기타 전문점"}]},{"lat":"37.518478995","long":"126.78543942","items":[{"name":"신도열쇠","tel":"032-674-0727","addr":"경기도 부천시 도당동 42번지 계남 샤이니","category":"건축자재 - 목재·석재·철물"},{"name":"신해정육점","tel":"032-673-3071","addr":"경기도 부천시 도당동 42번지 계남 샤이니","category":"음료식품 - 정육점"},{"name":"정보당","tel":"032-673-2783","addr":"경기도 부천시 도당동 42번지 계남 샤이니 가동 101호","category":"신변잡화 - 시계"},{"name":"컴테크","tel":"032-673-2626","addr":"경기도 부천시 도당동 42번지 계남샤이니 가동 1층 102호","category":"사무통신 - 컴퓨터"},{"name":"퍼스트네일","tel":"","addr":"경기도 부천시 도당동 42번지 계남샤이니 가동 202호","category":"보건위생 - 피부미용실"},{"name":"퍼스트더라움 에스테틱","tel":"032-683-1405","addr":"경기도 부천시 도당동 42번지 계남 샤이니 2층 202호","category":"보건위생 - 피부미용실"},{"name":"한양유통","tel":"032-679-6985","addr":"경기도 부천시 도당동 42번지 계남 샤이니 1층","category":"음료식품 - 기타음료식품"}]},{"lat":"37.51489484","long":"126.78154751","items":[{"name":"신돈가","tel":"032-677-6004","addr":"경기도 부천시 도당동 156-7번지","category":"음료식품 - 기타음료식품"}]},{"lat":"37.505845979","long":"126.7848201","items":[{"name":"신성건업","tel":"032-678-3399","addr":"경기도 부천시 도당동 265-16번지","category":"건축자재 - 인테리어전문"},{"name":"힐링헤어","tel":"032-682-0780","addr":"경기도 부천시 도당동 265-16번지 1층","category":"보건위생 - 미용원"}]},{"lat":"37.507756917","long":"126.78043759","items":[{"name":"신의주찹쌀순대","tel":"032-672-9409","addr":"경기도 부천시 도당동 275-28번지 1층","category":"일반휴게음식 - 일반한식"}]},{"lat":"37.513478617","long":"126.78065814","items":[{"name":"신진금속","tel":"032-678-0663","addr":"경기도 부천시 도당동 161-4번지","category":"기타 - 기계공구"}]},{"lat":"37.516507191","long":"126.78618037","items":[{"name":"신태영미용실","tel":"032-677-7228","addr":"경기도 부천시 도당동 35-6번지 미래그린빌리지 1층","category":"보건위생 - 미용원"},{"name":"크린에이드 (원미점)","tel":"032-682-1255","addr":"경기도 부천시 도당동 35-6번지 미래그린빌리지 1층 101호","category":"수리서비스 - 세탁소"}]},{"lat":"37.510592708","long":"126.78401457","items":[{"name":"신한상사","tel":"032-675-9474","addr":"경기도 부천시 도당동 99-8번지 2층 2호","category":"서적문구 - 출판 및 인쇄물"},{"name":"하나로마켓","tel":"032-672-5001","addr":"경기도 부천시 도당동 99-8번지","category":"유통업 영리 - 슈퍼마켓"}]},{"lat":"37.506675824","long":"126.78532663","items":[{"name":"신흥이화피아노교습소","tel":"032-672-1104","addr":"경기도 부천시 도당동 264-20번지","category":"학원 - 예·체능계학원"}]},{"lat":"37.519089038","long":"126.79396664","items":[{"name":"싱싱마트","tel":"031-612-8282","addr":"경기도 부천시 도당동 128번지 로얄하이츠 101호","category":"유통업 영리 - 슈퍼마켓"}]},{"lat":"37.507013147","long":"126.78259998","items":[{"name":"싱크퓨어 부천중동점","tel":"070-3652-8908","addr":"경기도 부천시 도당동 276-14번지 1층 일부","category":"주방용구 - 주방용구"}]},{"lat":"37.515755957","long":"126.78432751","items":[{"name":"쌍용화학","tel":"032-683-9180","addr":"경기도 부천시 도당동 25-9번지","category":"건축자재 - 페인트"},{"name":"엄마밥아빠포차","tel":"02-1234-1234","addr":"경기도 부천시 도당동 25-9번지 1층 일부","category":"일반휴게음식 - 일반한식"},{"name":"할매순대국 (도당동점)","tel":"032-673-9598","addr":"경기도 부천시 도당동 25-9번지 1층 일부","category":"일반휴게음식 - 일반한식"}]},{"lat":"37.511201035","long":"126.78654634","items":[{"name":"쌍이원","tel":"032-675-5316","addr":"경기도 부천시 도당동 85-16번지 지층","category":"기타 - 기계공구"}]},{"lat":"37.508341625","long":"126.7847676","items":[{"name":"썬호프","tel":"032-676-9322","addr":"경기도 부천시 도당동 258-2번지","category":"일반휴게음식 - 일반한식"},{"name":"아몬드","tel":"032-671-5223","addr":"경기도 부천시 도당동 258-2번지","category":"일반휴게음식 - 칵테일바"},{"name":"한옥","tel":"032-684-0165","addr":"경기도 부천시 도당동 258-2번지","category":"일반휴게음식 - 일반한식"},{"name":"형제정밀","tel":"032-679-3678","addr":"경기도 부천시 도당동 258-2번지 1층","category":"기타 - 기계공구"}]},{"lat":"37.518590685","long":"126.79238441","items":[{"name":"씨유도당누리점","tel":"032-676-4939","addr":"경기도 부천시 도당동 105-4번지 1층","category":"유통업 영리 - 편 의 점"}]},{"lat":"37.511810794","long":"126.7849611","items":[{"name":"씨유도당대로점","tel":"062-651-3831","addr":"경기도 부천시 도당동 83-4번지 1층","category":"유통업 영리 - 편 의 점"}]},{"lat":"37.508478669","long":"126.78579642","items":[{"name":"씨유부천도당공단점","tel":"032-662-3089","addr":"경기도 부천시 도당동 184-1번지 1층 일부","category":"유통업 영리 - 편 의 점"},{"name":"엘앤피","tel":"032-673-5222","addr":"경기도 부천시 도당동 184-1번지 1층 일부","category":"건축자재 - 기타건축자재"},{"name":"위드미 부천도당공단점","tel":"02-6916-1500","addr":"경기도 부천시 도당동 184-1번지 1층 일부","category":"유통업 영리 - 편 의 점"},{"name":"카페대피소","tel":"032-683-0777","addr":"경기도 부천시 도당동 184-1번지 1동 1층일부 유니온기업(주)주건축물","category":"일반휴게음식 - 서양음식"}]},{"lat":"37.520226472","long":"126.79520777","items":[{"name":"씨유부천북도서관점","tel":"032-682-2686","addr":"경기도 부천시 도당동 141-2번지 성진그린타운 103동 101호","category":"유통업 영리 - 편 의 점"},{"name":"추억속으로","tel":"032-671-7008","addr":"경기도 부천시 도당동 141-2번지 성진그린타운 103동 103호","category":"일반휴게음식 - 주점"}]},{"lat":"37.514258323","long":"126.77376747","items":[{"name":"아남손칼국수","tel":"032-682-4976","addr":"경기도 부천시 도당동 217-4번지 삼성쉐르빌","category":"일반휴게음식 - 일반한식"}]},{"lat":"37.507680729","long":"126.77826631","items":[{"name":"아남자동차","tel":"032-671-5872","addr":"경기도 부천시 도당동 247-28번지","category":"자동차정비 유지 - 자동차정비"}]},{"lat":"37.51837341","long":"126.78681973","items":[{"name":"아라헤어샵","tel":"032-522-5470","addr":"경기도 부천시 도당동 44-12번지 아임풍경채 101호","category":"보건위생 - 미용원"}]},{"lat":"37.507340088","long":"126.78399014","items":[{"name":"아름다운상사","tel":"032-682-8845","addr":"경기도 부천시 도당동 263-64번지 1층","category":"음료식품 - 기타음료식품"},{"name":"하띵관","tel":"032-328-8236","addr":"경기도 부천시 도당동 263-64번지 1층 일부","category":"건강식품 - 기타건강식품"},{"name":"헬로베트남","tel":"","addr":"경기도 부천시 도당동 263-64번지 1층 일부","category":"일반휴게음식 - 서양음식"}]},{"lat":"37.52155975","long":"126.79510227","items":[{"name":"아름다움차이","tel":"032-679-6909","addr":"경기도 부천시 도당동 137-5번지 복지파크빌라 나동 301호","category":"보건위생 - 화장품"}]},{"lat":"37.508289137","long":"126.78077532","items":[{"name":"아리랑","tel":"032-677-8490","addr":"경기도 부천시 도당동 275-1번지 1층","category":"신변잡화 - 기념품점"}]},{"lat":"37.506735715","long":"126.78360737","items":[{"name":"아이삭엔지니어링","tel":"031-255-3530","addr":"경기도 부천시 도당동 266-24번지","category":"기타 - 기계공구"}]},{"lat":"37.50778484","long":"126.78091253","items":[{"name":"아지트","tel":"032-671-5233","addr":"경기도 부천시 도당동 275-10번지 1층","category":"일반휴게음식 - 주점"}]},{"lat":"37.505981081","long":"126.77996786","items":[{"name":"아키볼당구클럽","tel":"032-202-2311","addr":"경기도 부천시 도당동 284-6번지 나동 2층","category":"레저업소 - 당 구 장"},{"name":"인디스(도당점)","tel":"032-674-5335","addr":"경기도 부천시 도당동 284-6번지","category":"일반휴게음식 - 주점"}]},{"lat":"37.516313687","long":"126.78385082","items":[{"name":"아트코아(주)","tel":"032-671-2824","addr":"경기도 부천시 도당동 26-12번지 1층","category":"주방용구 - 주방용구"}]},{"lat":"37.517035459","long":"126.78438034","items":[{"name":"애니카랜드(도당점)","tel":"032-671-0880","addr":"경기도 부천시 도당동 27-12번지","category":"자동차정비 유지 - 자동차정비"},{"name":"애니카랜드도당점(자동차전문정비업)","tel":"032-671-0880","addr":"경기도 부천시 도당동 27-12번지","category":"자동차정비 유지 - 자동차정비"}]},{"lat":"37.507285198","long":"126.77874251","items":[{"name":"애덤앤쌜리","tel":"070-8899-7027","addr":"경기도 부천시 도당동 247-23번지 1층","category":"학원 - 외국어학원"},{"name":"주식회사 가디언","tel":"032-651-1117","addr":"경기도 부천시 도당동 247-23번지 주열빌딩 2층","category":"보건위생 - 의료용품"}]},{"lat":"37.514124096","long":"126.77424294","items":[{"name":"약대매표소","tel":"032-675-9695","addr":"경기도 부천시 도당동 215-13","category":"음료식품 - 기타음료식품"}]},{"lat":"37.506484157","long":"126.77918599","items":[{"name":"양스야미","tel":"02-111-1111","addr":"경기도 부천시 도당동 262-42번지 1층 일부 좌측칸","category":"음료식품 - 기타음료식품"},{"name":"첫사랑","tel":"0000-678-3925","addr":"경기도 부천시 도당동 262-42번지","category":"일반휴게음식 - 주점"},{"name":"퍼피스프링 부천점","tel":"","addr":"경기도 부천시 도당동 262-42번지 ,1,2층","category":"문화.취미 - 애완동물"}]},{"lat":"37.505928006","long":"126.7853288","items":[{"name":"얼큰장태식","tel":"032-678-0113","addr":"경기도 부천시 도당동 265-32번지 1층","category":"일반휴게음식 - 일반한식"}]},{"lat":"37.505982848","long":"126.78090656","items":[{"name":"엄마순대국","tel":"032-682-4312","addr":"경기도 부천시 도당동 279-48번지","category":"일반휴게음식 - 일반한식"}]},{"lat":"37.516261102","long":"126.77982417","items":[{"name":"에스씨엘(SCL)","tel":"032-675-9510","addr":"경기도 부천시 도당동 10,10-1,10-2","category":"기타 - 기계공구"},{"name":"하나스크린골프","tel":"032-719-7232","addr":"경기도 부천시 도당동 10번지 2층 일부","category":"레져용품 - 골프용품 전문점"}]},{"lat":"37.509034359","long":"126.78421139","items":[{"name":"에스제이기획","tel":"032-684-9224","addr":"경기도 부천시 도당동 256-8번지 2층","category":"사무통신 - 기타 사무용품"}]},{"lat":"37.512874227","long":"126.78510505","items":[{"name":"에스트레노","tel":"032-681-1551","addr":"경기도 부천시 도당동 81-4번지 2층","category":"일반휴게음식 - 스넥"}]},{"lat":"37.510118965","long":"126.77646067","items":[{"name":"에이스 (ACE)랩핑","tel":"032-679-1740","addr":"경기도 부천시 도당동 237-6번지 1층","category":"기타 - 기계공구"}]},{"lat":"37.510705961","long":"126.78193313","items":[{"name":"에이취디알 주식회사","tel":"033-1644-4124","addr":"경기도 부천시 도당동 163-12번지 3층 일부","category":"주방용구 - 정수기"}]},{"lat":"37.52159549","long":"126.79493249","items":[{"name":"엔젤프린터","tel":"032-683-9363","addr":"경기도 부천시 도당동 137-4번지 복지파크빌라 3동 201호","category":"회원제형태 - 기타3"}]},{"lat":"37.514257066","long":"126.78257869","items":[{"name":"엠테크","tel":"032-327-8973","addr":"경기도 부천시 도당동 157-1","category":"기타 - 기계공구"}]},{"lat":"37.515647385","long":"126.77927175","items":[{"name":"영민방전","tel":"032-678-3177","addr":"경기도 부천시 도당동 8-3번지","category":"기타 - 기계공구"}]},{"lat":"37.507923101","long":"126.78257469","items":[{"name":"영성전기","tel":"032-207-3565","addr":"경기도 부천시 도당동 273-55번지 1층","category":"전기제품 - 기타전기제품"}]},{"lat":"37.51756541","long":"126.78840566","items":[{"name":"영시스템에어컨","tel":"","addr":"경기도 부천시 도당동 53번지 삼성쉐르빌 1층","category":"용역 서비스 - 기타용역서비스"}]},{"lat":"37.516782932","long":"126.78424534","items":[{"name":"영월장수손칼국수","tel":"032-674-2001","addr":"경기도 부천시 도당동 26-11번지 1층","category":"일반휴게음식 - 일반한식"}]},{"lat":"37.505845728","long":"126.78468439","items":[{"name":"영진아트","tel":"032-671-4245","addr":"경기도 부천시 도당동 265-15번지 1층","category":"주방용구 - 주방용구"}]},{"lat":"37.515700222","long":"126.77862686","items":[{"name":"영진정밀","tel":"032-681-1707","addr":"경기도 부천시 도당동 7-2번지","category":"기타 - 기계공구"},{"name":"우진자동차정비공업사","tel":"032-674-6971","addr":"경기도 부천시 도당동 7-2번지","category":"자동차정비 유지 - 자동차정비"}]},{"lat":"37.514145665","long":"126.78082583","items":[{"name":"영진정밀","tel":"031-676-6367","addr":"경기도 부천시 도당동 158-11번지","category":"서적문구 - 과학기자재"},{"name":"현대정밀","tel":"032-684-1747","addr":"경기도 부천시 도당동 158-11번지 1층","category":"기타 - 기계공구"}]},{"lat":"37.508040395","long":"126.78755074","items":[{"name":"예스플러스","tel":"032-679-8622","addr":"경기도 부천시 도당동 183-13번지 1층","category":"유통업 영리 - 편 의 점"}]},{"lat":"37.518760729","long":"126.78676206","items":[{"name":"예원정육점","tel":"032-676-8985","addr":"경기도 부천시 도당동 44번지 도당센트레빌 A동 101호","category":"음료식품 - 정육점"}]},{"lat":"37.519844441","long":"126.7931614","items":[{"name":"예유열쇠","tel":"032-683-1953","addr":"경기도 부천시 도당동 117번지","category":"기타 - 기계공구"},{"name":"주식회사 디와이매직","tel":"032-323-7784","addr":"경기도 부천시 도당동 117번지 1층","category":"전기제품 - 가전제품"}]},{"lat":"37.506811534","long":"126.7856316","items":[{"name":"예인","tel":"032-677-8204","addr":"경기도 부천시 도당동 264-22번지","category":"건축자재 - 기타건축자재"}]},{"lat":"37.511370603","long":"126.78566363","items":[{"name":"예인화학","tel":"032-613-5240","addr":"경기도 부천시 도당동 85-3번지 가동 1층","category":"기타 - 기타 전문점"}]},{"lat":"37.515150283","long":"126.78324342","items":[{"name":"예지카페","tel":"032-678-2214","addr":"경기도 부천시 도당동 24-5번지","category":"일반휴게음식 - 서양음식"},{"name":"주식회사 한신코리아","tel":"032-624-0754","addr":"경기도 부천시 도당동 24-5번지 1층","category":"음료식품 - 기타음료식품"}]},{"lat":"37.514923055","long":"126.78218085","items":[{"name":"오복매점","tel":"032-682-5989","addr":"경기도 부천시 도당동 156-13번지 1층","category":"음료식품 - 기타음료식품"},{"name":"오복식당","tel":"032-682-5989","addr":"경기도 부천시 도당동 156-13번지 1층","category":"일반휴게음식 - 일반한식"}]},{"lat":"37.50717217","long":"126.78091434","items":[{"name":"오복종합식품","tel":"032-674-8184","addr":"경기도 부천시 도당동 279-13번지","category":"음료식품 - 기타음료식품"},{"name":"오분","tel":"032-664-8995","addr":"경기도 부천시 도당동 279-13번지","category":"일반휴게음식 - 일반한식"},{"name":"한결남원추어탕","tel":"032-2480-2440","addr":"경기도 부천시 도당동 279-13번지 1층","category":"일반휴게음식 - 일반한식"}]},{"lat":"37.508287774","long":"126.78005148","items":[{"name":"오피통신","tel":"070-7530-7179","addr":"경기도 부천시 도당동 283-22번지","category":"사무통신 - 통신기기"}]},{"lat":"37.508035284","long":"126.77993913","items":[{"name":"온누리요양보호사교육원","tel":"032-205-2056","addr":"경기도 부천시 도당동 283-5번지 청우빌딩 5층","category":"회원제형태 - 학원"}]},{"lat":"37.515201239","long":"126.78158054","items":[{"name":"온터테이블","tel":"02-2691-6911","addr":"경기도 부천시 도당동 16-9번지 2층","category":"음료식품 - 기타음료식품"}]},{"lat":"37.507367872","long":"126.7795792","items":[{"name":"와 노래연습장","tel":"032-677-8039","addr":"경기도 부천시 도당동 283-20번지 2층","category":"레저업소 - 노 래 방"},{"name":"유민경헤어아띠","tel":"032-671-8088","addr":"경기도 부천시 도당동 283-20번지 1층","category":"보건위생 - 미용원"},{"name":"유통분식","tel":"032-678-4775","addr":"경기도 부천시 도당동 283-20번지","category":"일반휴게음식 - 스넥"},{"name":"화성방앗간","tel":"032-675-3881","addr":"경기도 부천시 도당동 283-20번지 1층","category":"음료식품 - 제과점"}]},{"lat":"37.507422444","long":"126.77985047","items":[{"name":"우리도니","tel":"032-684-9337","addr":"경기도 부천시 도당동 283-21번지","category":"일반휴게음식 - 일반한식"}]},{"lat":"37.509451941","long":"126.7859067","items":[{"name":"우주산업","tel":"032-682-3970","addr":"경기도 부천시 도당동 179-8 1층","category":"기타 - 기계공구"}]},{"lat":"37.507177764","long":"126.78391144","items":[{"name":"우진자전거","tel":"","addr":"경기도 부천시 도당동 266-39번지 1층","category":"레져용품 - 스포츠·레져용품"}]},{"lat":"37.514088276","long":"126.77435616","items":[{"name":"운장산식당","tel":"032-675-2146","addr":"경기도 부천시 도당동 215-9번지","category":"일반휴게음식 - 일반한식"}]},{"lat":"37.520984083","long":"126.79057908","items":[{"name":"워터피아정수기","tel":"032-674-7274","addr":"경기도 부천시 도당동 60-10번지 다미안 103동 101호","category":"주방용구 - 정수기"}]},{"lat":"37.510229432","long":"126.78246612","items":[{"name":"원진정밀","tel":"031-671-0153","addr":"경기도 부천시 도당동 268-12번지 1층 일부","category":"일반휴게음식 - 위탁급식업"}]},{"lat":"37.521726311","long":"126.79248872","items":[{"name":"원테크","tel":"02-1588-3366","addr":"경기도 부천시 도당동 113-19번지 그린베스트빌 301호","category":"회원제형태 - 기타4"}]},{"lat":"37.513676224","long":"126.77560161","items":[{"name":"원툴코리아","tel":"032-674-0986","addr":"경기도 부천시 도당동 222-39번지 은성테크 202호","category":"기타 - 기계공구"}]},{"lat":"37.516810305","long":"126.78935798","items":[{"name":"월드영상음향시스템","tel":"02-867-1108","addr":"경기도 부천시 도당동 52-19 동삼아트빌라 B-402","category":"전기제품 - 가전제품"}]},{"lat":"37.51647898","long":"126.79049005","items":[{"name":"웰빙스킨케어","tel":"032-678-8899","addr":"경기도 부천시 도당동 70번지 삼봉화빌딩 2동 2층","category":"보건위생 - 화장품"},{"name":"현풍화로구이","tel":"032-678-0246","addr":"경기도 부천시 도당동 70번지 삼봉화빌딩 1층 일부","category":"일반휴게음식 - 일반한식"}]},{"lat":"37.506036624","long":"126.78559992","items":[{"name":"위즈덤플러스보습미술학원","tel":"","addr":"경기도 부천시 도당동 264-9번지 2층 1","category":"학원 - 보습학원"},{"name":"위즈덤플러스보습미술학원","tel":"","addr":"경기도 부천시 도당동 264-9번지 ,1,2층","category":"학원 - 보습학원"}]},{"lat":"37.521665472","long":"126.79374453","items":[{"name":"유광스카이","tel":"","addr":"경기도 부천시 도당동 113-28번지 우정아트타운 가동 401호","category":"기타 - 기계공구"}]},{"lat":"37.51728341","long":"126.791913","items":[{"name":"유비기획","tel":"032-681-6447","addr":"경기도 부천시 도당동 92-2번지 고려빌라 3호","category":"용역 서비스 - 종합용역"}]},{"lat":"37.515397416","long":"126.7804941","items":[{"name":"유상테크(주)","tel":"032-679-0884","addr":"경기도 부천시 도당동 12-2번지","category":"서적문구 - 과학기자재"},{"name":"유수씨스템(주)","tel":"032-678-9654","addr":"경기도 부천시 도당동 12-2번지","category":"전기제품 - 기타전기제품"}]},{"lat":"37.517122111","long":"126.78252502","items":[{"name":"유성 슈퍼매점","tel":"","addr":"경기도 부천시 도당동 20-1번지 A동 1층","category":"음료식품 - 기타음료식품"},{"name":"유성뷔페식당","tel":"032-676-9783","addr":"경기도 부천시 도당동 20-1번지 지하1층","category":"일반휴게음식 - 일반한식"}]},{"lat":"37.509424205","long":"126.78552224","items":[{"name":"유성아크릴","tel":"032-672-6702","addr":"경기도 부천시 도당동 180-1,3,4호","category":"건축자재 - 기타건축자재"},{"name":"주식회사 케이에스전자","tel":"070-4416-4142","addr":"경기도 부천시 도당동 180-1번지 3층","category":"전기제품 - 기타전기제품"},{"name":"지벤현대피복","tel":"032-675-1468","addr":"경기도 부천시 도당동 180-1번지 1층","category":"의류 - 기타의류"}]},{"lat":"37.507595633","long":"126.78091309","items":[{"name":"유영식품","tel":"032-675-1715","addr":"경기도 부천시 도당동 275-21번지","category":"음료식품 - 기타음료식품"},{"name":"중국식품","tel":"070-7313-9781","addr":"경기도 부천시 도당동 275-21번지","category":"음료식품 - 기타음료식품"}]},{"lat":"37.51675854","long":"126.7808294","items":[{"name":"유진 알루미늄","tel":"032-676-6061","addr":"경기도 부천시 도당동 13-1번지 1층 일부","category":"건축자재 - 기타건축자재"},{"name":"중앙산업","tel":"032-679-5816","addr":"경기도 부천시 도당동 13-1번지 상원화학내","category":"기타 - 기타 전문점"},{"name":"창대공구","tel":"032-677-9896","addr":"경기도 부천시 도당동 13-1번지","category":"기타 - 기계공구"},{"name":"홀인원슈퍼드릴","tel":"032-678-0903","addr":"경기도 부천시 도당동 13-1번지 1층 일부","category":"기타 - 기계공구"},{"name":"효성앵글","tel":"032-613-5162","addr":"경기도 부천시 도당동 13-1번지","category":"기타 - 기계공구"}]},{"lat":"37.506758651","long":"126.7814132","items":[{"name":"유턴","tel":"","addr":"경기도 부천시 도당동 277-4번지 1층 일부","category":"일반휴게음식 - 서양음식"}]},{"lat":"37.508235333","long":"126.7809112","items":[{"name":"유한식당","tel":"032-675-8679","addr":"경기도 부천시 도당동 275-12번지","category":"일반휴게음식 - 일반한식"}]},{"lat":"37.513926142","long":"126.77437928","items":[{"name":"육심쟁이","tel":"032-675-1353","addr":"경기도 부천시 도당동 214-20번지 1층","category":"일반휴게음식 - 일반한식"}]},{"lat":"37.514954889","long":"126.77994117","items":[{"name":"윤재열처리","tel":"032-676-2090","addr":"경기도 부천시 도당동 169-1번지","category":"기타 - 기타 전문점"}]},{"lat":"37.511343646","long":"126.78085675","items":[{"name":"은성식당","tel":"032-676-0269","addr":"경기도 부천시 도당동 164-9번지 1층","category":"일반휴게음식 - 일반한식"}]},{"lat":"37.515207526","long":"126.78496253","items":[{"name":"은하금속","tel":"032-671-1555","addr":"경기도 부천시 도당동 73-9 에이동1층","category":"기타 - 기계공구"},{"name":"한양식당","tel":"032-675-0904","addr":"경기도 부천시 도당동 73-9번지 1층","category":"일반휴게음식 - 일반한식"}]},{"lat":"37.506847794","long":"126.78090399","items":[{"name":"은혜종합화장품","tel":"032-675-8504","addr":"경기도 부천시 도당동 279-21번지","category":"보건위생 - 화장품"}]},{"lat":"37.507621663","long":"126.78038145","items":[{"name":"이디야부천강남시장점","tel":"032-674-1394","addr":"경기도 부천시 도당동 275-8번지 1층","category":"일반휴게음식 - 서양음식"},{"name":"필노래연습장","tel":"032-671-2232","addr":"경기도 부천시 도당동 275-8번지 2층","category":"레저업소 - 노 래 방"},{"name":"흐엉브이베트남쌀국수","tel":"031-429-7879","addr":"경기도 부천시 도당동 275-8번지","category":"일반휴게음식 - 서양음식"}]},{"lat":"37.511314082","long":"126.78432916","items":[{"name":"이마트24 부천도당대로점","tel":"","addr":"경기도 부천시 도당동 99-1번지 고산테크노밸리 1층 105,106호","category":"유통업 영리 - 편 의 점"},{"name":"인아테크","tel":"032-682-2521","addr":"경기도 부천시 도당동 99-1번지 고산테크노밸리 103호","category":"기타 - 기계공구"},{"name":"인아테크/원격지","tel":"032-682-2521","addr":"경기도 부천시 도당동 99-1번지 고산테크노밸리 103호","category":"기타 - 기타 전문점"},{"name":"춘의포장상사","tel":"032-664-2254","addr":"경기도 부천시 도당동 99-1번지 고산테크노벨리 101호","category":"유통업 영리 - 기타유통업"}]},{"lat":"37.507705829","long":"126.78202114","items":[{"name":"이큐교육","tel":"070-4184-5847","addr":"경기도 부천시 도당동 274-4번지 청운연립 나동 101호","category":"학원 - 예·체능계학원"}]},{"lat":"37.515678078","long":"126.78606966","items":[{"name":"인더짐키즈포츠","tel":"031-444-8131","addr":"경기도 부천시 도당동 33-8번지 원경빌라 B01호","category":"학원 - 기타 교육기관"}]},{"lat":"37.508284695","long":"126.7832183","items":[{"name":"일산정밀","tel":"032-679-6729","addr":"경기도 부천시 도당동 260-59번지","category":"기타 - 기계공구"}]},{"lat":"37.519510072","long":"126.79259675","items":[{"name":"자!먹어봅시다","tel":"032-683-6922","addr":"경기도 부천시 도당동 118번지","category":"일반휴게음식 - 일반한식"},{"name":"행복다육","tel":"032-674-4574","addr":"경기도 부천시 도당동 118번지","category":"문화.취미 - 화원"}]},{"lat":"37.514037574","long":"126.77609819","items":[{"name":"자산환경","tel":"","addr":"경기도 부천시 도당동 222-41번지 구심이엔지 1층 102호","category":"용역 서비스 - 종합용역"}]},{"lat":"37.508562445","long":"126.77760769","items":[{"name":"자원기공","tel":"03-200-0000","addr":"경기도 부천시 도당동 247-11번지","category":"기타 - 기계공구"}]},{"lat":"37.513341246","long":"126.77476563","items":[{"name":"장보고노래방","tel":"032-681-7207","addr":"경기도 부천시 도당동 221-3번지","category":"레저업소 - 노 래 방"},{"name":"장보고족발","tel":"032-674-1059","addr":"경기도 부천시 도당동 221-3번지 부원빌딩 1층 일부","category":"일반휴게음식 - 일반한식"},{"name":"피플앤피플","tel":"032-683-6832","addr":"경기도 부천시 도당동 221-3번지 부원빌딩 1층","category":"유통업 영리 - 편 의 점"}]},{"lat":"37.508764315","long":"126.7843479","items":[{"name":"장수뼈다귀","tel":"032-674-0770","addr":"경기도 부천시 도당동 257-8번지","category":"일반휴게음식 - 일반한식"}]},{"lat":"37.515816843","long":"126.78804871","items":[{"name":"장수식품","tel":"031-671-8169","addr":"경기도 부천시 도당동 50-23번지 로즈파크빌 A동 401호","category":"회원제형태 - 기타4"}]},{"lat":"37.508316825","long":"126.78112585","items":[{"name":"전선영헤어클럽","tel":"032-682-1861","addr":"경기도 부천시 도당동 273-4번지","category":"보건위생 - 미용원"},{"name":"제니패션","tel":"","addr":"경기도 부천시 도당동 273-4번지 1층","category":"의류 - 내의판매"}]},{"lat":"37.513286291","long":"126.77430205","items":[{"name":"전일포차포차","tel":"032-673-0747","addr":"경기도 부천시 도당동 214-43번지 상가 1층 1호","category":"일반휴게음식 - 주점"}]},{"lat":"37.507174459","long":"126.7821358","items":[{"name":"전주상회","tel":"032-679-2667","addr":"경기도 부천시 도당동 276-30번지 1층","category":"음료식품 - 농·축·수산품"}]},{"lat":"37.518344804","long":"126.78596014","items":[{"name":"전주식당","tel":"032-328-6428","addr":"경기도 부천시 도당동 40-1번지","category":"일반휴게음식 - 일반한식"},{"name":"호남전자","tel":"032-674-1291","addr":"경기도 부천시 도당동 40-1번지","category":"수리서비스 - 기타수리서비스"}]},{"lat":"37.512177644","long":"126.78358014","items":[{"name":"제이 앤 제이(J&J)","tel":"032-683-0751","addr":"경기도 부천시 도당동 98-16번지 2층","category":"기타 - 기계공구"}]},{"lat":"37.515678348","long":"126.7862167","items":[{"name":"제이앤씨동은 (J&C동은)","tel":"02-6489-5089","addr":"경기도 부천시 도당동 33-7번지 B1층","category":"기타 - 기계공구"}]},{"lat":"37.516453796","long":"126.78654249","items":[{"name":"제이에이치","tel":"032-674-3757","addr":"경기도 부천시 도당동 35-8번지 동창빌라 202호","category":"회원제형태 - 기타4"}]},{"lat":"37.507121687","long":"126.78282586","items":[{"name":"제이엘샵","tel":"032-561-5943","addr":"경기도 부천시 도당동 266-9번지 1층 110호 109","category":"레져용품 - 스포츠·레져용품"}]},{"lat":"37.515589994","long":"126.7775187","items":[{"name":"제일수출포장","tel":"032-672-8518","addr":"경기도 부천시 도당동 5-2번지","category":"신변잡화 - 기타잡화"},{"name":"한일상사","tel":"032-672-3007","addr":"경기도 부천시 도당동 5-2번지 태양공구상가","category":"기타 - 기계공구"},{"name":"현대조각","tel":"032-678-1852","addr":"경기도 부천시 도당동 5-2번지 2층","category":"용역 서비스 - 종합용역"}]},{"lat":"37.518727289","long":"126.78818742","items":[{"name":"제일유리창호","tel":"032-212-6204","addr":"경기도 부천시 도당동 45-1번지","category":"용역 서비스 - 기타용역서비스"}]},{"lat":"37.518036888","long":"126.78510136","items":[{"name":"제일차유리","tel":"032-678-2259","addr":"경기도 부천시 도당동 29-11번지 베스트빌101동상가102호","category":"자동차정비 유지 - 자동차부품"}]},{"lat":"37.517234258","long":"126.78962824","items":[{"name":"제철생선","tel":"032-674-7776","addr":"경기도 부천시 도당동 53-26번지 1층","category":"일반휴게음식 - 일반한식"}]},{"lat":"37.516203401","long":"126.78757253","items":[{"name":"조아커피(ZOA coffee)","tel":"070-8735-3856","addr":"경기도 부천시 도당동 49-17번지 한솔그린빌 503호","category":"음료식품 - 기타음료식품"}]},{"lat":"37.519845925","long":"126.78896473","items":[{"name":"조은사람들","tel":"","addr":"경기도 부천시 도당동 58-17번지 성산리치빌 103동 501호","category":"신변잡화 - 기타잡화"}]},{"lat":"37.51936709","long":"126.78824214","items":[{"name":"족발","tel":"","addr":"경기도 부천시 도당동 57-10번지 우정빌라 302호","category":"음료식품 - 기타음료식품"}]},{"lat":"37.507261507","long":"126.78534755","items":[{"name":"종각중화요리","tel":"032-682-0506","addr":"경기도 부천시 도당동 264-13번지","category":"일반휴게음식 - 중국식"},{"name":"프라임","tel":"032-679-5957","addr":"경기도 부천시 도당동 264-13번지","category":"일반휴게음식 - 일반한식"},{"name":"홈케어신태양약국","tel":"032-672-5447","addr":"경기도 부천시 도당동 264-13번지","category":"약국 - 약국"}]},{"lat":"37.507173782","long":"126.78177389","items":[{"name":"종로빈대떡","tel":"032-682-2241","addr":"경기도 부천시 도당동 276-21번지 1층","category":"일반휴게음식 - 일반한식"},{"name":"진주네반찬","tel":"032-675-4421","addr":"경기도 부천시 도당동 276-21번지","category":"일반휴게음식 - 일반한식"},{"name":"짱치킨옛날통닭","tel":"070-7425-4545","addr":"경기도 부천시 도당동 276-21번지 1층 일부","category":"일반휴게음식 - 스넥"}]},{"lat":"37.514815514","long":"126.77771331","items":[{"name":"종합철강","tel":"032-679-2211","addr":"경기도 부천시 도당동 195-8번지","category":"건축자재 - 기타건축자재"}]},{"lat":"37.509454691","long":"126.78252494","items":[{"name":"주식회사 더좋은캠핑","tel":"032-000-0000","addr":"경기도 부천시 도당동 269-2번지 2층","category":"레져용품 - 스포츠·레져용품"}]},{"lat":"37.51306707","long":"126.78220893","items":[{"name":"주식회사 링크코리아","tel":"031-457-2795","addr":"경기도 부천시 도당동 160-7번지 3층","category":"레져용품 - 스포츠·레져용품"}]},{"lat":"37.515346351","long":"126.78696419","items":[{"name":"주식회사 삼창휴먼라이트","tel":"032-677-0223","addr":"경기도 부천시 도당동 72-1번지","category":"전기제품 - 기타전기제품"}]},{"lat":"37.508012602","long":"126.78713235","items":[{"name":"주식회사 서전스틸","tel":"032-676-9078","addr":"경기도 부천시 도당동 183-16번지 1층","category":"기타 - 기계공구"}]},{"lat":"37.514895201","long":"126.7817398","items":[{"name":"주식회사 성보기업","tel":"032-679-8283","addr":"경기도 부천시 도당동 156-11번지","category":"수리서비스 - 세탁소"}]},{"lat":"37.513458174","long":"126.78418717","items":[{"name":"주식회사 성아특수강","tel":"032-684-2380","addr":"경기도 부천시 도당동 95-1번지","category":"기타 - 기계공구"}]},{"lat":"37.515538987","long":"126.78393226","items":[{"name":"주식회사 세민크리닝","tel":"032-679-8343","addr":"경기도 부천시 도당동 25-15번지 4층","category":"수리서비스 - 세탁소"}]},{"lat":"37.51537232","long":"126.78152348","items":[{"name":"주식회사 썬바이오의료기","tel":"032-676-5677","addr":"경기도 부천시 도당동 16-5번지 1층","category":"보건위생 - 의료용품"}]},{"lat":"37.514340217","long":"126.78368692","items":[{"name":"주식회사 알루텍","tel":"032-684-7175","addr":"경기도 부천시 도당동 88-23번지 2층","category":"용역 서비스 - 기타용역서비스"}]},{"lat":"37.515563913","long":"126.77801647","items":[{"name":"주식회사 에버페이스","tel":"032-212-9968","addr":"경기도 부천시 도당동 7-5번지 3층","category":"보건위생 - 화장품"}]},{"lat":"37.508958093","long":"126.7819609","items":[{"name":"주식회사 에코씨","tel":"032-677-8837","addr":"경기도 부천시 도당동 270-4번지 5층","category":"신변잡화 - 기타잡화"}]},{"lat":"37.514371633","long":"126.78120973","items":[{"name":"주식회사앤카즈자동차공업사","tel":"032-673-3366","addr":"경기도 부천시 도당동 157-5번지","category":"자동차정비 유지 - 자동차정비"}]},{"lat":"37.51661718","long":"126.78232291","items":[{"name":"주안산업","tel":"032-674-2040","addr":"경기도 부천시 도당동 19번지","category":"건축자재 - 기타건축자재"}]},{"lat":"37.509677482","long":"126.7812123","items":[{"name":"준모터스","tel":"032-679-9526","addr":"경기도 부천시 도당동 269-8번지","category":"자동차정비 유지 - 자동차정비"}]},{"lat":"37.508061965","long":"126.78457615","items":[{"name":"중고종합재활용알뜰매장","tel":"032-655-8949","addr":"경기도 부천시 도당동 260-43번지 1층","category":"전기제품 - 가전제품"}]},{"lat":"37.519603069","long":"126.78919165","items":[{"name":"중동출장타이어","tel":"032-675-2172","addr":"경기도 부천시 도당동 57-1번지 우남아파트","category":"회원제형태 - 기타4"}]},{"lat":"37.505841191","long":"126.78224151","items":[{"name":"진다원","tel":"032-678-7324","addr":"경기도 부천시 도당동 278-26번지 1층","category":"일반휴게음식 - 일반한식"}]},{"lat":"37.515150851","long":"126.78354882","items":[{"name":"진미식당","tel":"032-675-5528","addr":"경기도 부천시 도당동 25-3번지","category":"일반휴게음식 - 일반한식"},{"name":"한아름슈퍼","tel":"032-673-4767","addr":"경기도 부천시 도당동 25-3번지","category":"유통업 영리 - 슈퍼마켓"}]},{"lat":"37.515506895","long":"126.78121768","items":[{"name":"진산피앤씨주식회사","tel":"032-678-2635","addr":"경기도 부천시 도당동 16-3번지","category":"주방용구 - 주방용식기"}]},{"lat":"37.506453036","long":"126.78179863","items":[{"name":"진성냉난방","tel":"","addr":"경기도 부천시 도당동 277-41번지","category":"수리서비스 - 가정용품수리"}]},{"lat":"37.507204521","long":"126.78376433","items":[{"name":"진이네옷방","tel":"","addr":"경기도 부천시 도당동 266-34번지","category":"의류 - 정장"}]},{"lat":"37.518926758","long":"126.78887686","items":[{"name":"진주상사","tel":"070-2711-5712","addr":"경기도 부천시 도당동 56-12번지 아이티파크 A동 302호","category":"의류 - 내의판매"}]},{"lat":"37.513647799","long":"126.7748778","items":[{"name":"진짜노가리호프","tel":"070-4656-2425","addr":"경기도 부천시 도당동 214-13번지","category":"일반휴게음식 - 주점"}]},{"lat":"37.513845273","long":"126.77449263","items":[{"name":"차밍헤어","tel":"070-4327-1609","addr":"경기도 부천시 도당동 214-21번지 1층","category":"보건위생 - 미용원"}]},{"lat":"37.510175424","long":"126.77771594","items":[{"name":"착한정비센터(도당점)","tel":"032-614-5151","addr":"경기도 부천시 도당동 243번지","category":"자동차정비 유지 - 자동차정비"}]},{"lat":"37.507369062","long":"126.78504187","items":[{"name":"착한치킨","tel":"032-672-9595","addr":"경기도 부천시 도당동 258-27번지","category":"일반휴게음식 - 스넥"},{"name":"행복모바일","tel":"031-1111-1111","addr":"경기도 부천시 도당동 258-27번지 1층 일부","category":"사무통신 - 통신기기"}]},{"lat":"37.514844768","long":"126.78368544","items":[{"name":"창영정밀","tel":"032-679-2889","addr":"경기도 부천시 도당동 88-3번지 1층","category":"기타 - 기계공구"}]},{"lat":"37.513817499","long":"126.77410815","items":[{"name":"창조문","tel":"","addr":"경기도 부천시 도당동 218-6번지 건영빌라 D동 101호","category":"건축자재 - 기타건축자재"}]},{"lat":"37.518290496","long":"126.78582456","items":[{"name":"창조보습학원","tel":"032-678-2105","addr":"경기도 부천시 도당동 40번지 2층","category":"학원 - 보습학원"}]},{"lat":"37.521449216","long":"126.79373382","items":[{"name":"천지 종합 설비","tel":"","addr":"경기도 부천시 도당동 114-5번지 동삼아트빌 가동 501호","category":"건축자재 - 인테리어전문"}]},{"lat":"37.508647954","long":"126.77993731","items":[{"name":"청담회집","tel":"032-677-8855","addr":"경기도 부천시 도당동 281-21번지 1층","category":"일반휴게음식 - 일식·회집"},{"name":"티씨테크","tel":"032-671-5775","addr":"경기도 부천시 도당동 281-21번지 1층 102호","category":"기타 - 기계공구"}]},{"lat":"37.506125388","long":"126.7800466","items":[{"name":"청산도","tel":"032-671-0221","addr":"경기도 부천시 도당동 284-5번지 1층","category":"일반휴게음식 - 일반한식"}]},{"lat":"37.50584155","long":"126.78243378","items":[{"name":"최서방주먹고기","tel":"032-673-3536","addr":"경기도 부천시 도당동 278-33번지 1층","category":"일반휴게음식 - 일반한식"}]},{"lat":"37.513701705","long":"126.77479846","items":[{"name":"춘천골닭갈비","tel":"032-677-4042","addr":"경기도 부천시 도당동 214-14번지 1층","category":"일반휴게음식 - 일반한식"}]},{"lat":"37.507174079","long":"126.78193223","items":[{"name":"충남신발","tel":"032-676-5443","addr":"경기도 부천시 도당동 276-28번지","category":"신변잡화 - 신발"}]},{"lat":"37.508978427","long":"126.77840946","items":[{"name":"칠복한식식당","tel":"032-677-7998","addr":"경기도 부천시 도당동 246-148번지 1층","category":"일반휴게음식 - 일반한식"}]},{"lat":"37.514479664","long":"126.77641356","items":[{"name":"카스터(CAR STER)","tel":"","addr":"경기도 부천시 도당동 222-20번지","category":"자동차정비 유지 - 자동차정비"}]},{"lat":"37.519063276","long":"126.78963435","items":[{"name":"카페256번가","tel":"032-681-9420","addr":"경기도 부천시 도당동 56-3번지 1층","category":"일반휴게음식 - 서양음식"}]},{"lat":"37.507006793","long":"126.77921836","items":[{"name":"칼라솔루션","tel":"031-674-0684","addr":"경기도 부천시 도당동 261-16번지","category":"사무통신 - 사무용 OA기기"}]},{"lat":"37.508625417","long":"126.78720976","items":[{"name":"케이엠브러쉬(KMBRUSH)","tel":"","addr":"경기도 부천시 도당동 183-2번지 3층","category":"기타 - 기계공구"}]},{"lat":"37.507901075","long":"126.78043717","items":[{"name":"코러스노래연습장","tel":"032-677-5724","addr":"경기도 부천시 도당동 275-26번지 지층","category":"레저업소 - 노 래 방"}]},{"lat":"37.507537259","long":"126.77862866","items":[{"name":"코멜리블링","tel":"","addr":"경기도 부천시 도당동 247-83번지 풍성하이빌4차 303호","category":"신변잡화 - 액세서리"}]},{"lat":"37.507956431","long":"126.78112691","items":[{"name":"쿠모수제돈가스앤샐러드","tel":"032-329-3330","addr":"경기도 부천시 도당동 273-15번지 1층 일부","category":"일반휴게음식 - 일식·회집"}]},{"lat":"37.506900235","long":"126.78004429","items":[{"name":"퀘사디아","tel":"032-682-3194","addr":"경기도 부천시 도당동 284-10번지 2층","category":"일반휴게음식 - 주점"}]},{"lat":"37.505846459","long":"126.78508022","items":[{"name":"큐사랑헤어","tel":"070-4060-1954","addr":"경기도 부천시 도당동 265-24번지","category":"보건위생 - 미용원"},{"name":"푸드홈","tel":"032-677-3939","addr":"경기도 부천시 도당동 265-24번지 1층","category":"일반휴게음식 - 일반한식"}]},{"lat":"37.521979733","long":"126.7931328","items":[{"name":"탑하우스","tel":"","addr":"경기도 부천시 도당동 113-1번지 동화프리미아 202동 502호","category":"건축자재 - 인테리어전문"}]},{"lat":"37.509148401","long":"126.78743445","items":[{"name":"태경ENG","tel":"","addr":"경기도 부천시 도당동 175-2번지","category":"기타 - 기계공구"}]},{"lat":"37.508477599","long":"126.78037891","items":[{"name":"태관령감자탕","tel":"032-671-3666","addr":"경기도 부천시 도당동 272-27번지","category":"일반휴게음식 - 일반한식"}]},{"lat":"37.514840121","long":"126.78604946","items":[{"name":"태양식당","tel":"032-682-1288","addr":"경기도 부천시 도당동 74-15번지","category":"일반휴게음식 - 일반한식"}]},{"lat":"37.51861653","long":"126.78673985","items":[{"name":"태양종합공사","tel":"","addr":"경기도 부천시 도당동 44-13번지 성산연립 1동 206호","category":"용역 서비스 - 기타용역서비스"}]},{"lat":"37.517229384","long":"126.78207225","items":[{"name":"태영식품","tel":"032-672-6744","addr":"경기도 부천시 도당동 14-7번지","category":"음료식품 - 기타음료식품"}]},{"lat":"37.513285287","long":"126.78327151","items":[{"name":"태형글로벌주식회사","tel":"032-679-2930","addr":"경기도 부천시 도당동 96-2번지 C동 203호","category":"회원제형태 - 기타4"}]},{"lat":"37.516233961","long":"126.78951797","items":[{"name":"토다미","tel":"032-671-3635","addr":"경기도 부천시 도당동 51-4번지 1층","category":"일반휴게음식 - 일반한식"},{"name":"토담골","tel":"032-671-3635","addr":"경기도 부천시 도당동 51-4번지 1층","category":"일반휴게음식 - 일반한식"},{"name":"토담골","tel":"032-671-3635","addr":"경기도 부천시 도당동 51-4번지 1층","category":"일반휴게음식 - 일반한식"}]},{"lat":"37.509763807","long":"126.77921013","items":[{"name":"파리바게트","tel":"032-675-3584","addr":"경기도 부천시 도당동 246-1번지 1층","category":"음료식품 - 제과점"},{"name":"현대골프오케이온","tel":"032-682-1311","addr":"경기도 부천시 도당동 246-1번지 3층 일부","category":"레져용품 - 골프용품 전문점"},{"name":"형제자동차공업사","tel":"032-676-7927","addr":"경기도 부천시 도당동 246-1번지","category":"자동차정비 유지 - 자동차부품"}]},{"lat":"37.507478335","long":"126.78082296","items":[{"name":"판다디씨백화점","tel":"032-675-6132","addr":"경기도 부천시 도당동 275-23번지","category":"유통업 영리 - 슈퍼마켓"}]},{"lat":"37.520619288","long":"126.79315923","items":[{"name":"퍼펙트과외","tel":"070-7319-6743","addr":"경기도 부천시 도당동 116-3번지 해암빌라 B동 402호","category":"회원제형태 - 학원"}]},{"lat":"37.507368101","long":"126.78452162","items":[{"name":"프리스타일 헤어샵","tel":"","addr":"경기도 부천시 도당동 263-31번지 1층","category":"보건위생 - 미용원"}]},{"lat":"37.514068963","long":"126.77368888","items":[{"name":"피톤치드","tel":"070-7362-3488","addr":"경기도 부천시 도당동 217-18번지 삼성쉐르빌 C동 301호","category":"서적문구 - 출판 및 인쇄물"}]},{"lat":"37.50765291","long":"126.78263203","items":[{"name":"필리핀스토어","tel":"032-271-3611","addr":"경기도 부천시 도당동 274-37번지 1층","category":"유통업 영리 - 슈퍼마켓"}]},{"lat":"37.516928511","long":"126.78501409","items":[{"name":"하늘아트","tel":"032-677-5553","addr":"경기도 부천시 도당동 30-8번지 플러스타운 1층","category":"건축자재 - 인테리어전문"}]},{"lat":"37.515199816","long":"126.7808227","items":[{"name":"한국다이야몬드","tel":"02-849-3400","addr":"경기도 부천시 도당동 12-9번지","category":"기타 - 기계공구"}]},{"lat":"37.508757904","long":"126.78090965","items":[{"name":"한라식당","tel":"032-678-3144","addr":"경기도 부천시 도당동 272-37번지","category":"일반휴게음식 - 일반한식"}]},{"lat":"37.5168427","long":"126.78246929","items":[{"name":"한양뷔페식당","tel":"032-672-3177","addr":"경기도 부천시 도당동 21번지 1층","category":"일반휴게음식 - 일반한식"}]},{"lat":"37.520371425","long":"126.79565984","items":[{"name":"한양종합건축","tel":"032-672-4556","addr":"경기도 부천시 도당동 141-1번지 성진그린타운","category":"용역 서비스 - 기타용역서비스"}]},{"lat":"37.5086743","long":"126.77957531","items":[{"name":"한울테크","tel":"032-673-5209","addr":"경기도 부천시 도당동 281-19 1층","category":"건축자재 - 목재·석재·철물"}]},{"lat":"37.507204164","long":"126.78357207","items":[{"name":"해남대박집","tel":"032-673-9065","addr":"경기도 부천시 도당동 266-30번지 1층","category":"일반휴게음식 - 일반한식"}]},{"lat":"37.516172879","long":"126.78081982","items":[{"name":"해성보링공업사","tel":"032-327-8230","addr":"경기도 부천시 도당동 13-3번지 1층","category":"자동차정비 유지 - 자동차정비"},{"name":"행운모터스","tel":"032-675-6602","addr":"경기도 부천시 도당동 13-3번지","category":"자동차정비 유지 - 자동차정비"}]},{"lat":"37.508178988","long":"126.78451926","items":[{"name":"향원","tel":"032-679-0045","addr":"경기도 부천시 도당동 260-54번지 1층","category":"일반휴게음식 - 중국식"}]},{"lat":"37.516258469","long":"126.78812662","items":[{"name":"헤레이스","tel":"032-624-6970","addr":"경기도 부천시 도당동 49-5번지","category":"의류 - 정장"}]},{"lat":"37.507983057","long":"126.78091194","items":[{"name":"헤어팡팡","tel":"032-676-5757","addr":"경기도 부천시 도당동 275-37번지","category":"보건위생 - 미용원"}]},{"lat":"37.515896158","long":"126.78707572","items":[{"name":"헬로우초이스","tel":"031-123-4567","addr":"경기도 부천시 도당동 50-13번지 지앤하우스 102동 401호","category":"전기제품 - 기타전기제품"}]},{"lat":"37.506205644","long":"126.77960528","items":[{"name":"헬로피자 중상동점","tel":"031-678-1245","addr":"경기도 부천시 도당동 262-19번지 1층","category":"일반휴게음식 - 서양음식"}]},{"lat":"37.513785407","long":"126.77615551","items":[{"name":"헷빛푸드","tel":"032-677-5598","addr":"경기도 부천시 도당동 222-40번지","category":"일반휴게음식 - 일반한식"}]},{"lat":"37.517368781","long":"126.78435675","items":[{"name":"현대공사","tel":"032-677-3041","addr":"경기도 부천시 도당동 27-4번지 1층","category":"전기제품 - 기타전기제품"}]},{"lat":"37.509206007","long":"126.78445971","items":[{"name":"현대슈퍼","tel":"032-674-7338","addr":"경기도 부천시 도당동 255-5번지 1층","category":"일반휴게음식 - 일반한식"}]},{"lat":"37.519532237","long":"126.79493821","items":[{"name":"현주네반찬","tel":"032-678-1740","addr":"경기도 부천시 도당동 130-2번지","category":"음료식품 - 기타음료식품"},{"name":"홀리스타 실용음악학원","tel":"032-677-1868","addr":"경기도 부천시 도당동 130-2번지 성남빌딩 2층","category":"학원 - 예·체능계학원"},{"name":"후랭크호프","tel":"032-681-4590","addr":"경기도 부천시 도당동 130-2번지 1층","category":"일반휴게음식 - 주점"}]},{"lat":"37.514679176","long":"126.78185355","items":[{"name":"현진테크","tel":"032-681-1046","addr":"경기도 부천시 도당동 156-15번지","category":"보건위생 - 의료용품"}]},{"lat":"37.509902006","long":"126.78082709","items":[{"name":"혜강금속","tel":"032-654-2225","addr":"경기도 부천시 도당동 272-4번지 1층","category":"건축자재 - 기타건축자재"}]},{"lat":"37.509706661","long":"126.78724058","items":[{"name":"혜성정밀조각","tel":"032-671-0706","addr":"경기도 부천시 도당동 175-4번지 1층","category":"기타 - 기타 전문점"}]},{"lat":"37.507093983","long":"126.78246402","items":[{"name":"혜인통상","tel":"032-341-6853","addr":"경기도 부천시 도당동 276-10번지","category":"수리서비스 - 가정용품수리"}]},{"lat":"37.515285998","long":"126.78354842","items":[{"name":"호남식당","tel":"032-678-9334","addr":"경기도 부천시 도당동 25-2번지","category":"일반휴게음식 - 일반한식"}]},{"lat":"37.519844098","long":"126.78795798","items":[{"name":"홈스마일도당점","tel":"032-677-9276","addr":"경기도 부천시 도당동 58-3번지 1층","category":"직물 - 침구·수예점"}]},{"lat":"37.505840408","long":"126.78182306","items":[{"name":"홍풍양꼬치","tel":"070-7325-3938","addr":"경기도 부천시 도당동 278-41번지 1층","category":"일반휴게음식 - 일반한식"}]},{"lat":"37.515594908","long":"126.78493879","items":[{"name":"화성종합배관","tel":"032-682-0797","addr":"경기도 부천시 도당동 32-7번지 1층","category":"기타 - 기계공구"}]},{"lat":"37.514924473","long":"126.77815412","items":[{"name":"황금구내식당","tel":"032-671-3300","addr":"경기도 부천시 도당동 165-21번지 103호","category":"일반휴게음식 - 일반한식"}]},{"lat":"37.515925129","long":"126.78324115","items":[{"name":"효성기업","tel":"032-672-4821","addr":"경기도 부천시 도당동 23-1번지","category":"직물 - 옷감·직물"}]}]