[{"lat":"37.270347423","long":"126.94626212","imageIndex":16,"items":[{"name":"9단지공부방","tel":"","addr":"경기도 수원시 권선구 호매실동 1352번지 LH칠보마을9단지 901동 501호","indutype":"학원 - 기타 교육기관","category":"study"},{"name":"꿈동산어린이집[아이행복]","tel":"031-278-4455","addr":"경기도 수원시 권선구 호매실동 1352번지 칠보마을9단지 912동 103호","indutype":"학원 - 유아원","category":"study"},{"name":"라온어린이집[아이행복]","tel":"031-297-7897","addr":"경기도 수원시 권선구 호매실동 1352번지 LH칠보마을9단지","indutype":"학원 - 유아원","category":"study"},{"name":"숙명더피아노음악교습소","tel":"031-342-0395","addr":"경기도 수원시 권선구 호매실동 1352번지 칠보마을9단지 2동 1층 101호","indutype":"학원 - 예·체능계학원","category":"study"},{"name":"예진피아노","tel":"","addr":"경기도 수원시 권선구 호매실동 1352번지 LH칠보마을9단지 902동 704호","indutype":"학원 - 예·체능계학원","category":"study"},{"name":"유니어린이집[아이행복]","tel":"031-293-2911","addr":"경기도 수원시 권선구 호매실동 1352번지 LH칠보마을9단지 907동 104호","indutype":"학원 - 유아원","category":"study"}]},{"lat":"37.258766871","long":"126.96259357","imageIndex":16,"items":[{"name":"MTA태권도","tel":"031-293-4867","addr":"경기도 수원시 권선구 호매실동 1400-2번지","indutype":"학원 - 예·체능계학원","category":"study"},{"name":"스터디아영수학원","tel":"070-4154-8283","addr":"경기도 수원시 권선구 호매실동 1400-2번지 601~603호","indutype":"학원 - 보습학원","category":"study"},{"name":"에듀포커스학원","tel":"031-256-1111","addr":"경기도 수원시 권선구 호매실동 1400-2번지 금호프라자 704호,705호","indutype":"학원 - 보습학원","category":"study"},{"name":"인아트호매실점미술학원","tel":"031-292-0812","addr":"경기도 수원시 권선구 호매실동 1400-2번지 금호프라자 703호","indutype":"학원 - 예·체능계학원","category":"study"},{"name":"튼튼영어능실마스터클럽학원","tel":"031-263-3166","addr":"경기도 수원시 권선구 호매실동 1400-2번지 금호프라자 403호","indutype":"학원 - 외국어학원","category":"study"},{"name":"헬로피아노음악학원","tel":"031-294-2992","addr":"경기도 수원시 권선구 호매실동 1400-2번지 금호프라자 804호~805호","indutype":"학원 - 예·체능계학원","category":"study"}]},{"lat":"37.265713281","long":"126.96106792","imageIndex":16,"items":[{"name":"경희대금호태권도장","tel":"031-308-9595","addr":"경기도 수원시 권선구 호매실동 1376번지 501호","indutype":"학원 - 예·체능계학원","category":"study"},{"name":"아이비티주니어호매실영어학원","tel":"031-291-0509","addr":"경기도 수원시 권선구 호매실동 1376번지 아트프라자 402호","indutype":"학원 - 보습학원","category":"study"},{"name":"호매실 라온음악학원","tel":"031-291-7771","addr":"경기도 수원시 권선구 호매실동 1376번지 아트프라자 401호","indutype":"학원 - 예·체능계학원","category":"study"}]},{"lat":"37.268874225","long":"126.95659034","imageIndex":16,"items":[{"name":"경희대라온태권도장","tel":"031-291-7474","addr":"경기도 수원시 권선구 호매실동 395-1번지 3층","indutype":"학원 - 예·체능계학원","category":"study"}]},{"lat":"37.265512272","long":"126.95381908","imageIndex":16,"items":[{"name":"경희대이루리 태권도장","tel":"031-297-2920","addr":"경기도 수원시 권선구 호매실동 1362-1번지 3층 301호","indutype":"학원 - 예·체능계학원","category":"study"},{"name":"뉴소리샘음악학원","tel":"031-291-7953","addr":"경기도 수원시 권선구 호매실동 1362-1번지 좌측일부 302호","indutype":"학원 - 예·체능계학원","category":"study"},{"name":"올리브미술학원","tel":"031-291-7954","addr":"경기도 수원시 권선구 호매실동 1362-1번지 3층 우측일부 302호","indutype":"학원 - 예·체능계학원","category":"study"},{"name":"호매실금호초점이해법수학교습소","tel":"031-292-2091","addr":"경기도 수원시 권선구 호매실동 1362-1번지 1층 104-2호","indutype":"학원 - 보습학원","category":"study"}]},{"lat":"37.267260564","long":"126.95453947","imageIndex":16,"items":[{"name":"고고탑 영수전문학원","tel":"031-227-7775","addr":"경기도 수원시 권선구 호매실동 404-3번지 2층 전체","indutype":"학원 - 보습학원","category":"study"},{"name":"큰빛호매실엠베스트학원","tel":"031-295-3833","addr":"경기도 수원시 권선구 호매실동 404-3번지 2층","indutype":"학원 - 보습학원","category":"study"}]},{"lat":"37.267710618","long":"126.95342306","imageIndex":16,"items":[{"name":"고운아트어린이집[아이행복]","tel":"031-291-2042","addr":"경기도 수원시 권선구 호매실동 452번지 신미주아파트","indutype":"학원 - 유아원","category":"study"}]},{"lat":"37.259793526","long":"126.96109374","imageIndex":16,"items":[{"name":"굿모닝빅스맘어린이집[아이행복]","tel":"070-5017-7942","addr":"경기도 수원시 권선구 호매실동 1394번지 호매실스위첸능실마을19단지 1905동 104호","indutype":"학원 - 유아원","category":"study"},{"name":"능실에이스교실","tel":"031-890-8721","addr":"경기도 수원시 권선구 호매실동 1394번지 능실마을19단지 1902동 204호","indutype":"회원제형태 - 학원","category":"study"},{"name":"뮤직플러스SJ","tel":"070-4069-6238","addr":"경기도 수원시 권선구 호매실동 1394번지 능실마을19단지 1908동 1405호","indutype":"학원 - 예·체능계학원","category":"study"},{"name":"봄빛어린이집[아이행복]","tel":"031-293-7179","addr":"경기도 수원시 권선구 호매실동 1394번지 호매실스위첸능실마을19단지 1090동 104호","indutype":"학원 - 유아원","category":"study"},{"name":"스위첸음악교습소","tel":"031-235-2549","addr":"경기도 수원시 권선구 호매실동 1394번지 호매실스위첸능실마을19단지 상가동 201호","indutype":"학원 - 예·체능계학원","category":"study"},{"name":"애기똥풀어린이집[아이행복]","tel":"031-302-7005","addr":"경기도 수원시 권선구 호매실동 1394번지 호매실스위첸능실마을19단지 1903동 102호","indutype":"학원 - 유아원","category":"study"},{"name":"즐거운어린이집[아이행복]","tel":"031-292-0664","addr":"경기도 수원시 권선구 호매실동 1394번지 능실마을19단지 1910동 104호","indutype":"학원 - 유아원","category":"study"},{"name":"푸른숲어린이집[아이행복]","tel":"031-292-5279","addr":"경기도 수원시 권선구 호매실동 1394번지 호매실스위첸능실마을19단지 1905동 101호","indutype":"학원 - 유아원","category":"study"},{"name":"해야어린이집[아이행복]","tel":"031-292-5012","addr":"경기도 수원시 권선구 호매실동 1394번지 능실마을19단지","indutype":"학원 - 유아원","category":"study"},{"name":"호매실센터유니팝미술교습소","tel":"","addr":"경기도 수원시 권선구 호매실동 1394번지 호매실스위첸능실마을19단지 202호","indutype":"학원 - 예·체능계학원","category":"study"}]},{"lat":"37.25879269","long":"126.95917794","imageIndex":16,"items":[{"name":"굿모닝해법영어교실","tel":"031-296-0594","addr":"경기도 수원시 권선구 호매실동 1393번지 힐스테이트호매실 1801동 1502호","indutype":"학원 - 보습학원","category":"study"},{"name":"송이 어린이집[아이행복]","tel":"031-307-1119","addr":"경기도 수원시 권선구 호매실동 1393번지 힐스테이트호매실 1806동 103호","indutype":"학원 - 유아원","category":"study"},{"name":"시립힐스호매실어린이집[아이행복]","tel":"031-292-2340","addr":"경기도 수원시 권선구 호매실동 1393번지 힐스테이트호매실","indutype":"학원 - 유아원","category":"study"},{"name":"아이나무어린이집[아이행복]","tel":"031-296-2422","addr":"경기도 수원시 권선구 호매실동 1393번지 힐스테이트호매실 1804동 104호","indutype":"학원 - 유아원","category":"study"},{"name":"자연힐스테이트어린이집[아이행복]","tel":"031-212-1348","addr":"경기도 수원시 권선구 호매실동 1393번지 힐스테이트호매실 1802동 101호","indutype":"학원 - 유아원","category":"study"},{"name":"정쌤수학","tel":"","addr":"경기도 수원시 권선구 호매실동 1393번지 힐스테이트호매실 1804동 103호","indutype":"학원 - 기타 교육기관","category":"study"}]},{"lat":"37.268765374","long":"126.95476399","imageIndex":16,"items":[{"name":"금호점해법수학교습소","tel":"031-295-0770","addr":"경기도 수원시 권선구 호매실동 395-24번지 2층","indutype":"학원 - 보습학원","category":"study"}]},{"lat":"37.267205819","long":"126.95289352","imageIndex":16,"items":[{"name":"김광희어린이집[아이행복]","tel":"031-292-9048","addr":"경기도 수원시 권선구 호매실동 454-2번지","indutype":"학원 - 유아원","category":"study"}]},{"lat":"37.266042263","long":"126.95006458","imageIndex":16,"items":[{"name":"나비잠어린이집[아이행복]","tel":"031-302-9205","addr":"경기도 수원시 권선구 호매실동 1361번지 한양수자인파크원 102동 103호","indutype":"학원 - 유아원","category":"study"},{"name":"뮤엠영어","tel":"031-8002-5484","addr":"경기도 수원시 권선구 호매실동 1361번지 한양수자인파크원 106동 404호","indutype":"학원 - 기타 교육기관","category":"study"},{"name":"엠토즈 수학 공부방","tel":"","addr":"경기도 수원시 권선구 호매실동 1361번지 한양수자인파크원 113동 501호","indutype":"학원 - 기타 교육기관","category":"study"},{"name":"예라어린이집[아이행복]","tel":"031-291-5550","addr":"경기도 수원시 권선구 호매실동 1361번지 한양수자인파크원 106동 102호","indutype":"학원 - 유아원","category":"study"},{"name":"해닮수자인어린이집[아이행복]","tel":"031-227-7272","addr":"경기도 수원시 권선구 호매실동 1361번지 한양수자인파크원 103동 101호","indutype":"학원 - 유아원","category":"study"}]},{"lat":"37.264847692","long":"126.95939991","imageIndex":16,"items":[{"name":"노벨어린이집[아이행복]","tel":"","addr":"경기도 수원시 권선구 호매실동 1371번지 관리동","indutype":"학원 - 유아원","category":"study"},{"name":"삼성영어금호교실","tel":"070-4768-6315","addr":"경기도 수원시 권선구 호매실동 1371번지 호매실마을13단지 1306동 1603호","indutype":"회원제형태 - 학원","category":"study"}]},{"lat":"37.265794816","long":"126.9623418","imageIndex":16,"items":[{"name":"능실경희대석사인성태권도","tel":"031-278-7272","addr":"경기도 수원시 권선구 호매실동 144-3 블루테라스제6층604호","indutype":"학원 - 예·체능계학원","category":"study"}]},{"lat":"37.254044422","long":"126.95962029","imageIndex":16,"items":[{"name":"능실꼬꼬마어린이집[아이행복]","tel":"031-292-7244","addr":"경기도 수원시 권선구 호매실동 1408번지 능실마을21단지 2104동 105호","indutype":"학원 - 유아원","category":"study"},{"name":"라온제나어린이집[아이행복]","tel":"031-939-8729","addr":"경기도 수원시 권선구 호매실동 1408번지 능실마을21단지 2107동 105호","indutype":"학원 - 유아원","category":"study"},{"name":"사랑뜰어린이집[아이행복]","tel":"031-891-7006","addr":"경기도 수원시 권선구 호매실동 1408번지 능실마을21단지 2108동 104호","indutype":"학원 - 유아원","category":"study"},{"name":"시립능실21어린이집[아이행복]","tel":"031-294-2515","addr":"경기도 수원시 권선구 호매실동 1408번지 능실마을21단지 관리동","indutype":"학원 - 유아원","category":"study"},{"name":"엄마맘어린이집[아이행복]","tel":"031-295-9200","addr":"경기도 수원시 권선구 호매실동 1408번지 능실마을21단지 2101동 103호","indutype":"학원 - 유아원","category":"study"},{"name":"제네시스 영어","tel":"031-000-0000","addr":"경기도 수원시 권선구 호매실동 1408번지 능실마을21단지 2103동 1101호","indutype":"학원 - 기타 교육기관","category":"study"}]},{"lat":"37.260019349","long":"126.96272817","imageIndex":16,"items":[{"name":"능실점삼성영어해법수학학원","tel":"031-223-0577","addr":"경기도 수원시 권선구 호매실동 1395-3번지 블루테라스 702호","indutype":"학원 - 보습학원","category":"study"},{"name":"아트몬스터미술학원","tel":"031-296-5252","addr":"경기도 수원시 권선구 호매실동 1395-3번지","indutype":"학원 - 예·체능계학원","category":"study"},{"name":"위너스일등급학원","tel":"031-223-5214","addr":"경기도 수원시 권선구 호매실동 1395-3번지 701호","indutype":"학원 - 보습학원","category":"study"},{"name":"호매실피아노트리음악학원","tel":"031-309-0869","addr":"경기도 수원시 권선구 호매실동 1395-3번지 304호","indutype":"학원 - 예·체능계학원","category":"study"}]},{"lat":"37.260629646","long":"126.95617828","imageIndex":16,"items":[{"name":"능실중학교","tel":"031-546-5604","addr":"경기도 수원시 권선구 호매실동 1390번지 능실중학교","indutype":"학원 - 초중고교육기관","category":"study"}]},{"lat":"37.259458285","long":"126.95612264","imageIndex":16,"items":[{"name":"능실초등학교","tel":"031-296-9203","addr":"경기도 수원시 권선구 호매실동 1391번지 능실초등학교","indutype":"학원 - 초중고교육기관","category":"study"}]},{"lat":"37.259629468","long":"126.95608872","imageIndex":16,"items":[{"name":"능실초등학교병설유치원[아이행복]","tel":"070-4338-9569","addr":"경기도 수원시 권선구 호매실동 1012","indutype":"학원 - 유치원","category":"study"}]},{"lat":"37.26673673","long":"126.95159734","imageIndex":16,"items":[{"name":"다인창의스쿨어린이집[아이행복]","tel":"031-296-0581","addr":"경기도 수원시 권선구 호매실동 464-1번지","indutype":"학원 - 유아원","category":"study"}]},{"lat":"37.269542162","long":"126.95970162","imageIndex":16,"items":[{"name":"대영영재학원","tel":"031-296-0582","addr":"경기도 수원시 권선구 호매실동 74-5번지 태연빌딩 2층","indutype":"학원 - 보습학원","category":"study"}]},{"lat":"37.268153216","long":"126.95611727","imageIndex":16,"items":[{"name":"대한검도 호매실검도관","tel":"031-297-1230","addr":"경기도 수원시 권선구 호매실동 392-6번지 1층","indutype":"학원 - 예·체능계학원","category":"study"},{"name":"무늬미술통역학원","tel":"031-294-8205","addr":"경기도 수원시 권선구 호매실동 392-6번지 전체 2층","indutype":"학원 - 예·체능계학원","category":"study"},{"name":"새한양예안어린이집[아이행복]","tel":"031-292-9162","addr":"경기도 수원시 권선구 호매실동 392-6번지 1층","indutype":"학원 - 유아원","category":"study"}]},{"lat":"37.267288673","long":"126.95725647","imageIndex":16,"items":[{"name":"더웨이영어전문학원","tel":"031-292-1411","addr":"경기도 수원시 권선구 호매실동 384-1번지 2층","indutype":"학원 - 보습학원","category":"study"},{"name":"준빼어나다탑브레인스쿨학원","tel":"031-293-9577","addr":"경기도 수원시 권선구 호매실동 384-1번지 3층","indutype":"학원 - 보습학원","category":"study"},{"name":"참사랑호크마어린이집[아이행복]","tel":"031-294-1178","addr":"경기도 수원시 권선구 호매실동 384-1번지","indutype":"학원 - 유아원","category":"study"}]},{"lat":"37.268072464","long":"126.95698542","imageIndex":16,"items":[{"name":"뮤엠영어호매실캠퍼스","tel":"070-8623-2476","addr":"경기도 수원시 권선구 호매실동 392-9번지 성웅빌딩 107호","indutype":"회원제형태 - 학원","category":"study"},{"name":"선율음악학원","tel":"031-0000-0000","addr":"경기도 수원시 권선구 호매실동 392-9번지 2층 일부","indutype":"학원 - 예·체능계학원","category":"study"}]},{"lat":"37.262622522","long":"126.96042705","imageIndex":16,"items":[{"name":"벨섬어린이집[아이행복]","tel":"031-292-6230","addr":"경기도 수원시 권선구 호매실동 1380번지 호매실마을14단지벨섬시티 관리동","indutype":"학원 - 유아원","category":"study"},{"name":"셀파수학","tel":"","addr":"경기도 수원시 권선구 호매실동 1380번지 호매실마을14단지벨섬시티 1406동 1703호","indutype":"학원 - 기타 교육기관","category":"study"},{"name":"아이린 잉글리쉬","tel":"","addr":"경기도 수원시 권선구 호매실동 1380번지 호매실마을14단지벨섬시티 1409동 2004호","indutype":"학원 - 기타 교육기관","category":"study"},{"name":"호매실해법중국어","tel":"031-302-0202","addr":"경기도 수원시 권선구 호매실동 1380번지 호매실마을14단지벨섬시티 1401동 1101호","indutype":"학원 - 기타 교육기관","category":"study"}]},{"lat":"37.268710446","long":"126.95267832","imageIndex":16,"items":[{"name":"비호체육관","tel":"031-298-2982","addr":"경기도 수원시 권선구 호매실동 469-21번지","indutype":"학원 - 예·체능계학원","category":"study"}]},{"lat":"37.26951443","long":"126.95781884","imageIndex":16,"items":[{"name":"빨간펜수학의달인마스터클럽호매실학원","tel":"031-296-3736","addr":"경기도 수원시 권선구 호매실동 82-10번지 한우리빌딩 401호","indutype":"학원 - 보습학원","category":"study"},{"name":"호매실컴퓨터학원","tel":"031-294-7799","addr":"경기도 수원시 권선구 호매실동 82-10번지 한우리빌딩 402호","indutype":"학원 - 컴퓨터학원","category":"study"}]},{"lat":"37.269649991","long":"126.95890108","imageIndex":16,"items":[{"name":"새한양삐아제어린이집[아이행복]","tel":"031-292-9165","addr":"경기도 수원시 권선구 호매실동 79-5번지","indutype":"학원 - 유아원","category":"study"}]},{"lat":"37.267287819","long":"126.95509188","imageIndex":16,"items":[{"name":"서수원간호학원부설서수원요양보호사교육원","tel":"070-4119-1500","addr":"경기도 수원시 권선구 호매실동 406-3번지 2층","indutype":"학원 - 기능학원","category":"study"},{"name":"옥스에듀영어수학전문학원","tel":"031-304-0325","addr":"경기도 수원시 권선구 호매실동 406-3번지 3층","indutype":"학원 - 보습학원","category":"study"},{"name":"호매실정진학원","tel":"031-297-9677","addr":"경기도 수원시 권선구 호매실동 406-3번지 일부 3층","indutype":"학원 - 보습학원","category":"study"}]},{"lat":"37.268648773","long":"126.95609441","imageIndex":16,"items":[{"name":"서연아트미술교습소","tel":"031-291-6772","addr":"경기도 수원시 권선구 호매실동 395-7번지 1층","indutype":"학원 - 예·체능계학원","category":"study"}]},{"lat":"37.269739845","long":"126.95823585","imageIndex":16,"items":[{"name":"섭실용음악학원","tel":"031-222-3450","addr":"경기도 수원시 권선구 호매실동 81-1번지 2층","indutype":"학원 - 예·체능계학원","category":"study"}]},{"lat":"37.268694099","long":"126.95679338","imageIndex":16,"items":[{"name":"셉튜플공방","tel":"","addr":"경기도 수원시 권선구 호매실동 393번지 미덕빌라 10동 201호","indutype":"학원 - 기타 교육기관","category":"study"}]},{"lat":"37.259514745","long":"126.96264953","imageIndex":16,"items":[{"name":"솔루토창의융합학원","tel":"031-292-3797","addr":"경기도 수원시 권선구 호매실동 1400번지 302호","indutype":"학원 - 보습학원","category":"study"},{"name":"수학생각학원","tel":"031-269-9766","addr":"경기도 수원시 권선구 호매실동 1400번지 303호","indutype":"학원 - 보습학원","category":"study"},{"name":"아름드리음악학원","tel":"031-246-6430","addr":"경기도 수원시 권선구 호매실동 1400번지 4층 402호","indutype":"학원 - 예·체능계학원","category":"study"},{"name":"용인대석사예도태권도","tel":"031-294-9104","addr":"경기도 수원시 권선구 호매실동 1400번지 JD타워 1 5층 501호","indutype":"학원 - 예·체능계학원","category":"study"},{"name":"웰컴월드잉글리쉬어학원","tel":"031-8067-5166","addr":"경기도 수원시 권선구 호매실동 1400번지 505호","indutype":"학원 - 외국어학원","category":"study"},{"name":"제니스 일등급학원","tel":"031-292-5787","addr":"경기도 수원시 권선구 호매실동 1400번지","indutype":"학원 - 보습학원","category":"study"},{"name":"흙노리미술관학원","tel":"031-292-8388","addr":"경기도 수원시 권선구 호매실동 1400번지 502호","indutype":"학원 - 예·체능계학원","category":"study"}]},{"lat":"37.264656847","long":"126.95517245","imageIndex":16,"items":[{"name":"수원금호초등학교","tel":"031-8009-0951","addr":"경기도 수원시 권선구 호매실동 1365번지 수원금호초등학교","indutype":"학원 - 초중고교육기관","category":"study"},{"name":"호매실고등학교","tel":"031-547-6942","addr":"경기도 수원시 권선구 호매실동 1365번지 호매실고등학교","indutype":"학원 - 초중고교육기관","category":"study"},{"name":"호매실고등학교_수업료","tel":"031-547-6942","addr":"경기도 수원시 권선구 호매실동 1365번지 호매실고등학교","indutype":"학원 - 초중고교육기관","category":"study"}]},{"lat":"37.264737317","long":"126.95365048","imageIndex":16,"items":[{"name":"수원금호초등학교병설유치원[아이행복]","tel":"031-8009-0958","addr":"경기도 수원시 권선구 호매실동 1364번지","indutype":"학원 - 유치원","category":"study"}]},{"lat":"37.26801824","long":"126.95656831","imageIndex":16,"items":[{"name":"스카이 오투 독서실","tel":"031-292-0910","addr":"경기도 수원시 권선구 호매실동 392-5번지","indutype":"학원 - 독서실","category":"study"}]},{"lat":"37.264794589","long":"126.96209432","imageIndex":16,"items":[{"name":"시립호매실어린이집[아이행복]","tel":"031-291-1850","addr":"경기도 수원시 권선구 호매실동 1378번지","indutype":"학원 - 유아원","category":"study"}]},{"lat":"37.265794575","long":"126.96164283","imageIndex":16,"items":[{"name":"아름찬코리아태권도장","tel":"031-296-9592","addr":"경기도 수원시 권선구 호매실동 1376-2번지","indutype":"학원 - 예·체능계학원","category":"study"},{"name":"용인대석사금호태권도장","tel":"031-227-1618","addr":"경기도 수원시 권선구 호매실동 1376-2번지 인텔프라자 2층 201호","indutype":"학원 - 예·체능계학원","category":"study"},{"name":"호매실도미넌트음악학원","tel":"031-227-7714","addr":"경기도 수원시 권선구 호매실동 1376-2번지 일부 201호","indutype":"학원 - 예·체능계학원","category":"study"},{"name":"호매실숲태권도장","tel":"031-297-7989","addr":"경기도 수원시 권선구 호매실동 1376-2번지 201호 인숲프라자B동","indutype":"학원 - 예·체능계학원","category":"study"},{"name":"홍익그림숲미술교습소","tel":"031-291-7379","addr":"경기도 수원시 권선구 호매실동 1376-2번지 301호","indutype":"학원 - 예·체능계학원","category":"study"}]},{"lat":"37.268234398","long":"126.9563427","imageIndex":16,"items":[{"name":"아이비츠입시학원","tel":"031-293-5829","addr":"경기도 수원시 권선구 호매실동 392-1번지 전체 4층","indutype":"회원제형태 - 학원","category":"study"}]},{"lat":"37.26026767","long":"126.95236828","imageIndex":16,"items":[{"name":"아이월드어린이집[아이행복]","tel":"031-291-6331","addr":"경기도 수원시 권선구 호매실동 1388번지 관리동","indutype":"학원 - 유아원","category":"study"},{"name":"한솔플러스수학교실","tel":"070-8864-8845","addr":"경기도 수원시 권선구 호매실동 1388번지 수원호매실휴먼시아 1513동 603호","indutype":"회원제형태 - 학원","category":"study"}]},{"lat":"37.266128053","long":"126.96192449","imageIndex":16,"items":[{"name":"에이클래스학원","tel":"031-294-1109","addr":"경기도 수원시 권선구 호매실동 1375-3번지 골드프라자 2층 201호","indutype":"학원 - 보습학원","category":"study"},{"name":"지알아이티학원","tel":"031-548-2608","addr":"경기도 수원시 권선구 호매실동 1375-3번지 3층 301호","indutype":"학원 - 보습학원","category":"study"}]},{"lat":"37.269235205","long":"126.95806703","imageIndex":16,"items":[{"name":"윤수학교습소","tel":"070-8031-4038","addr":"경기도 수원시 권선구 호매실동 82-19번지 1층 일부","indutype":"학원 - 보습학원","category":"study"}]},{"lat":"37.262570011","long":"126.94314526","imageIndex":16,"items":[{"name":"점핑키즈","tel":"031-292-3647","addr":"경기도 수원시 권선구 호매실동 825-1번지","indutype":"학원 - 기타 교육기관","category":"study"}]},{"lat":"37.267792894","long":"126.95634297","imageIndex":16,"items":[{"name":"지존영수수능전문학원","tel":"031-0000-0000","addr":"경기도 수원시 권선구 호매실동 389-1번지 2층 전체","indutype":"학원 - 보습학원","category":"study"},{"name":"현아트스쿨","tel":"031-293-8760","addr":"경기도 수원시 권선구 호매실동 389-1번지","indutype":"학원 - 예·체능계학원","category":"study"}]},{"lat":"37.267405746","long":"126.95709856","imageIndex":16,"items":[{"name":"크레파스어린이집[아이행복]","tel":"031-296-2588","addr":"경기도 수원시 권선구 호매실동 387번지","indutype":"학원 - 유아원","category":"study"}]},{"lat":"37.26787404","long":"126.95647821","imageIndex":16,"items":[{"name":"탑스존영수단과전문학원","tel":"031-298-6768","addr":"경기도 수원시 권선구 호매실동 390번지 일부 3층","indutype":"학원 - 보습학원","category":"study"}]},{"lat":"37.267260347","long":"126.9540096","imageIndex":16,"items":[{"name":"티3포인트학원","tel":"031-298-7188","addr":"경기도 수원시 권선구 호매실동 404-21번지 CH빌딩 2층","indutype":"회원제형태 - 학원","category":"study"},{"name":"티쓰리포인트영어학원","tel":"031-298-7188","addr":"경기도 수원시 권선구 호매실동 404-21번지 3층","indutype":"학원 - 외국어학원","category":"study"}]},{"lat":"37.267289334","long":"126.95900392","imageIndex":16,"items":[{"name":"파랑새유치원","tel":"031-297-2266","addr":"경기도 수원시 권선구 호매실동 377번지 외5필지 호매실GS아파트","indutype":"학원 - 유치원","category":"study"}]},{"lat":"37.266010552","long":"126.9608761","imageIndex":16,"items":[{"name":"팩토브레인학원","tel":"031-296-6020","addr":"경기도 수원시 권선구 호매실동 1375번지 현대프라자 301호","indutype":"학원 - 보습학원","category":"study"}]},{"lat":"37.268874896","long":"126.95833783","imageIndex":16,"items":[{"name":"필탑학원","tel":"031-292-2922","addr":"경기도 수원시 권선구 호매실동 84-8번지","indutype":"회원제형태 - 학원","category":"study"}]},{"lat":"37.267233395","long":"126.95420127","imageIndex":16,"items":[{"name":"호매실독서실","tel":"031-292-0243","addr":"경기도 수원시 권선구 호매실동 404-4번지 2층,3층","indutype":"학원 - 독서실","category":"study"}]},{"lat":"37.26809889","long":"126.95545213","imageIndex":16,"items":[{"name":"호매실중학교","tel":"070-7091-0904","addr":"경기도 수원시 권선구 호매실동 395-27번지 호매실중학교","indutype":"학원 - 초중고교육기관","category":"study"}]},{"lat":"37.266991001","long":"126.95639983","imageIndex":16,"items":[{"name":"호매실초등학교","tel":"031-292-4624","addr":"경기도 수원시 권선구 호매실동 388-7번지 호매실초등학교","indutype":"학원 - 초중고교육기관","category":"study"}]},{"lat":"37.268765282","long":"126.95453851","imageIndex":16,"items":[{"name":"홍쌤영어중국어학원","tel":"031-278-0703","addr":"경기도 수원시 권선구 호매실동 395-21번지 2층,3층","indutype":"학원 - 외국어학원","category":"study"}]},{"lat":"37.268485492","long":"126.95340001","imageIndex":16,"items":[{"name":"화이트타이거태권도장","tel":"031-291-6688","addr":"경기도 수원시 권선구 호매실동 402-2번지 3층","indutype":"학원 - 예·체능계학원","category":"study"}]}]