[{"lat":"37.32713058","long":"127.68066067","imageIndex":4,"items":[{"name":"가화","tel":"","addr":"경기도 여주시 북내면 당우리 193-9번지","indutype":"일반휴게음식 - 일반한식","category":"restaurant"},{"name":"별다방","tel":"031-881-6651","addr":"경기도 여주시 북내면 당우리 193-9번지","indutype":"일반휴게음식 - 서양음식","category":"restaurant"},{"name":"오딧세이","tel":"031-881-6651","addr":"경기도 여주시 북내면 당우리 193-9번지","indutype":"일반휴게음식 - 일반한식","category":"restaurant"}]},{"lat":"37.327100836","long":"127.68113427","imageIndex":4,"items":[{"name":"고향숯불갈비","tel":"031-884-6332","addr":"경기도 여주시 북내면 당우리 194-4번지","indutype":"일반휴게음식 - 일반한식","category":"restaurant"}]},{"lat":"37.326990004","long":"127.68160714","imageIndex":4,"items":[{"name":"금당로맛집","tel":"031-881-5989","addr":"경기도 여주시 북내면 당우리 197-4번지","indutype":"일반휴게음식 - 일반한식","category":"restaurant"}]},{"lat":"37.327603043","long":"127.68154496","imageIndex":4,"items":[{"name":"길조","tel":"031-882-9220","addr":"경기도 여주시 북내면 당우리 192-4번지","indutype":"일반휴게음식 - 일반한식","category":"restaurant"}]},{"lat":"37.335824702","long":"127.67602209","imageIndex":4,"items":[{"name":"김가네꺼먹돼지","tel":"031-886-9333","addr":"경기도 여주시 북내면 당우리 30-2번지","indutype":"일반휴게음식 - 일반한식","category":"restaurant"}]},{"lat":"37.326935083","long":"127.68018504","imageIndex":4,"items":[{"name":"러브레터","tel":"031-884-4070","addr":"경기도 여주시 북내면 당우리 145-4번지","indutype":"일반휴게음식 - 서양음식","category":"restaurant"}]},{"lat":"37.328102385","long":"127.68088377","imageIndex":4,"items":[{"name":"로만티카(카페)","tel":"031-884-1253","addr":"경기도 여주시 북내면 당우리 152-5번지 1층","indutype":"일반휴게음식 - 서양음식","category":"restaurant"},{"name":"여강정육점식당","tel":"031-885-1089","addr":"경기도 여주시 북내면 당우리 152-5번지","indutype":"일반휴게음식 - 일반한식","category":"restaurant"},{"name":"원골 칼만두국","tel":"031-881-0788","addr":"경기도 여주시 북내면 당우리 152-5번지","indutype":"일반휴게음식 - 일반한식","category":"restaurant"}]},{"lat":"37.327492126","long":"127.68046083","imageIndex":4,"items":[{"name":"북내반점","tel":"031-882-0489","addr":"경기도 여주시 북내면 당우리 150-4번지","indutype":"일반휴게음식 - 중국식","category":"restaurant"}]},{"lat":"37.324963795","long":"127.67985144","imageIndex":4,"items":[{"name":"서향","tel":"031-881-4547","addr":"경기도 여주시 북내면 당우리 223-1번지","indutype":"일반휴게음식 - 중국식","category":"restaurant"}]},{"lat":"37.327740903","long":"127.68107233","imageIndex":4,"items":[{"name":"시골해장국","tel":"031-882-6029","addr":"경기도 여주시 북내면 당우리 192-1번지","indutype":"일반휴게음식 - 일반한식","category":"restaurant"},{"name":"여명호프","tel":"031-881-3533","addr":"경기도 여주시 북내면 당우리 192-1번지","indutype":"일반휴게음식 - 주점","category":"restaurant"}]},{"lat":"37.327330212","long":"127.68041424","imageIndex":4,"items":[{"name":"실내포차","tel":"031-886-5715","addr":"경기도 여주시 북내면 당우리 146-5번지","indutype":"일반휴게음식 - 주점","category":"restaurant"}]},{"lat":"37.326823156","long":"127.68084971","imageIndex":4,"items":[{"name":"여강식당","tel":"031-881-1832","addr":"경기도 여주시 북내면 당우리 194-5번지","indutype":"일반휴게음식 - 일반한식","category":"restaurant"}]},{"lat":"37.322410689","long":"127.67726755","imageIndex":4,"items":[{"name":"예닮골","tel":"031-883-5979","addr":"경기도 여주시 북내면 당우리 283-3번지","indutype":"일반휴게음식 - 일반한식","category":"restaurant"}]},{"lat":"37.328797931","long":"127.6805741","imageIndex":4,"items":[{"name":"장수밥상","tel":"","addr":"경기도 여주시 북내면 당우리 154번지 1층","indutype":"일반휴게음식 - 일반한식","category":"restaurant"}]},{"lat":"37.327274281","long":"127.68074094","imageIndex":4,"items":[{"name":"처갓집양념치킨북내점","tel":"031-883-5320","addr":"경기도 여주시 북내면 당우리 193-8번지","indutype":"일반휴게음식 - 스넥","category":"restaurant"}]},{"lat":"37.327408648","long":"127.68087753","imageIndex":4,"items":[{"name":"형제정육점식당","tel":"031-886-3022","addr":"경기도 여주시 북내면 당우리 193-5번지","indutype":"일반휴게음식 - 일반한식","category":"restaurant"}]},{"lat":"37.327770582","long":"127.68061","imageIndex":7,"items":[{"name":"금당떡방앗간","tel":"031-882-0151","addr":"경기도 여주시 북내면 당우리 150-8번지","indutype":"음료식품 - 제과점","category":"food"}]},{"lat":"37.326461933","long":"127.68099314","imageIndex":7,"items":[{"name":"당우리떡방아간","tel":"031-884-7717","addr":"경기도 여주시 북내면 당우리 227-4번지","indutype":"음료식품 - 제과점","category":"food"}]},{"lat":"37.327408648","long":"127.68087753","imageIndex":7,"items":[{"name":"북내떡방앗간","tel":"031-883-9428","addr":"경기도 여주시 북내면 당우리 193-5번지","indutype":"음료식품 - 제과점","category":"food"}]},{"lat":"37.327295013","long":"127.68026725","imageIndex":7,"items":[{"name":"손지1013","tel":"","addr":"경기도 여주시 북내면 당우리 145-2번지","indutype":"음료식품 - 기타음료식품","category":"food"}]},{"lat":"37.328102385","long":"127.68088377","imageIndex":7,"items":[{"name":"여강정육점","tel":"031-885-1089","addr":"경기도 여주시 북내면 당우리 152-5번지","indutype":"음료식품 - 정육점","category":"food"}]},{"lat":"37.327328015","long":"127.68079783","imageIndex":7,"items":[{"name":"형제정육점","tel":"031-882-1446","addr":"경기도 여주시 북내면 당우리 193-5번지","indutype":"음료식품 - 정육점","category":"food"}]},{"lat":"37.328383168","long":"127.68062679","imageIndex":17,"items":[{"name":"금성오토바이","tel":"031-882-0205","addr":"경기도 여주시 북내면 당우리 152-15번지","indutype":"건축자재 - 페인트","category":"other"}]},{"lat":"37.323441982","long":"127.68127062","imageIndex":17,"items":[{"name":"나무시장","tel":"","addr":"경기도 여주시 북내면 당우리 212-2번지","indutype":"문화.취미 - 화원","category":"other"}]},{"lat":"37.328102385","long":"127.68088377","imageIndex":17,"items":[{"name":"대영철물","tel":"031-883-2981","addr":"경기도 여주시 북내면 당우리 152-5번지","indutype":"건축자재 - 목재·석재·철물","category":"other"}]},{"lat":"37.327492126","long":"127.68046083","imageIndex":17,"items":[{"name":"대우중개사사무소","tel":"031-882-0437","addr":"경기도 여주시 북내면 당우리 146-2번지","indutype":"용역 서비스 - 부동산 중개·임대","category":"other"}]},{"lat":"37.32682742","long":"127.6801051","imageIndex":17,"items":[{"name":"북내농약종묘사","tel":"031-884-3690","addr":"경기도 여주시 북내면 당우리 144-30번지","indutype":"농업 - 비료,사료,종자","category":"other"}]},{"lat":"37.329185884","long":"127.67890771","imageIndex":17,"items":[{"name":"북내면사무소","tel":"031-887-3962","addr":"경기도 여주시 북내면 당우리 165-5번지","indutype":"용역 서비스 - 사무서비스","category":"other"}]},{"lat":"37.328133097","long":"127.68024093","imageIndex":17,"items":[{"name":"북내우체국","tel":"031-882-0004","addr":"경기도 여주시 북내면 당우리 152-6번지","indutype":"용역 서비스 - 공공요금대행서비스/소","category":"other"}]},{"lat":"37.327740903","long":"127.68107233","imageIndex":17,"items":[{"name":"블루25시 여주북내점","tel":"031-885-1943","addr":"경기도 여주시 북내면 당우리 192-1번지","indutype":"유통업 영리 - 편 의 점","category":"other"}]},{"lat":"37.32607294","long":"127.67969216","imageIndex":17,"items":[{"name":"석담도예","tel":"031-882-0136","addr":"경기도 여주시 북내면 당우리 235-2번지","indutype":"문화.취미 - 민예·공예품","category":"other"}]},{"lat":"37.3279130547","long":"127.6809046325","imageIndex":17,"items":[{"name":"신성오토바이","tel":"031-882-0135","addr":"경기도 여주시 북내면 당우리 151-1번지","indutype":"수리서비스 - 레져용품수리","category":"other"}]},{"lat":"37.327100836","long":"127.68113427","imageIndex":17,"items":[{"name":"에이치케이종합건재","tel":"031-886-0061","addr":"경기도 여주시 북내면 당우리 194-4번지","indutype":"기타 - 기계공구","category":"other"},{"name":"한국철물","tel":"031-886-0061","addr":"경기도 여주시 북내면 당우리 194-4번지","indutype":"건축자재 - 목재·석재·철물","category":"other"}]},{"lat":"37.325852901","long":"127.68035585","imageIndex":17,"items":[{"name":"이지문","tel":"031-883-5588","addr":"경기도 여주시 북내면 당우리 223-7번지","indutype":"건축자재 - 기타건축자재","category":"other"}]},{"lat":"37.34301482","long":"127.67282489","imageIndex":17,"items":[{"name":"캠퍼킹.레져스포츠산업연구소","tel":"070-0000-0000","addr":"경기도 여주시 북내면 당우리 5-5번지","indutype":"레져용품 - 스포츠·레져용품","category":"other"}]},{"lat":"37.327603043","long":"127.68154496","imageIndex":13,"items":[{"name":"머리하기좋은날","tel":"031-882-0672","addr":"경기도 여주시 북내면 당우리 192-4번지","indutype":"보건위생 - 미용원","category":"beauty"}]},{"lat":"37.328102385","long":"127.68088377","imageIndex":13,"items":[{"name":"신데렐라","tel":"031-881-1253","addr":"경기도 여주시 북내면 당우리 152-5번지","indutype":"보건위생 - 미용원","category":"beauty"}]},{"lat":"37.32452452","long":"127.67946391","imageIndex":9,"items":[{"name":"북내가스","tel":"031-883-7077","addr":"경기도 여주시 북내면 당우리 248-1번지","indutype":"연료판매점 - LPG 취급점","category":"oil"}]},{"lat":"37.326461933","long":"127.68099314","imageIndex":13,"items":[{"name":"북내당구클럽","tel":"031-884-3949","addr":"경기도 여주시 북내면 당우리 227-4번지","indutype":"레저업소 - 당 구 장","category":"leisure"}]},{"lat":"37.327740903","long":"127.68107233","imageIndex":13,"items":[{"name":"열창노래방","tel":"031-884-0438","addr":"경기도 여주시 북내면 당우리 192-1번지","indutype":"레저업소 - 노 래 방","category":"leisure"},{"name":"열창노래연습장","tel":"031-884-0438","addr":"경기도 여주시 북내면 당우리 192-1번지","indutype":"레저업소 - 노 래 방","category":"leisure"}]},{"lat":"37.326439169","long":"127.68024829","imageIndex":13,"items":[{"name":"우리집노래연습장","tel":"031-884-0153","addr":"경기도 여주시 북내면 당우리 229번지 지하1층","indutype":"레저업소 - 노 래 방","category":"leisure"}]},{"lat":"37.326439169","long":"127.68024829","imageIndex":8,"items":[{"name":"북내우리들의료생활협동조합우리들의원","tel":"031-882-2219","addr":"경기도 여주시 북내면 당우리 229번지","indutype":"의원 - 의원","category":"medical"},{"name":"청솔약국","tel":"031-882-3981","addr":"경기도 여주시 북내면 당우리 229번지","indutype":"약국 - 약국","category":"medical"}]},{"lat":"37.327878762","long":"127.68059969","imageIndex":8,"items":[{"name":"온공한의원","tel":"031-882-0983","addr":"경기도 여주시 북내면 당우리 150-3번지","indutype":"의원 - 한의원","category":"medical"}]},{"lat":"37.329854311","long":"127.68018868","imageIndex":16,"items":[{"name":"북내초등학교","tel":"031-882-0106","addr":"경기도 여주시 북내면 당우리 175번지 북내초등학교","indutype":"학원 - 초중고교육기관","category":"study"},{"name":"북내초등학교병설유치원[아이행복]","tel":"031-882-9230","addr":"경기도 여주시 북내면 당우리 175번지 북내초등학교","indutype":"학원 - 유치원","category":"study"}]},{"lat":"37.327328015","long":"127.68079783","imageIndex":16,"items":[{"name":"북내태권도장","tel":"031-882-6654","addr":"경기도 여주시 북내면 당우리 193-5번지","indutype":"학원 - 예·체능계학원","category":"study"}]},{"lat":"37.335545727","long":"127.67596318","imageIndex":16,"items":[{"name":"에벤에셀어린이집[아이행복]","tel":"031-885-6913","addr":"경기도 여주시 북내면 당우리 37번지","indutype":"학원 - 유아원","category":"study"}]},{"lat":"37.326774783","long":"127.67985641","imageIndex":0,"items":[{"name":"신성카센타","tel":"031-882-0658","addr":"경기도 여주시 북내면 당우리 144-39번지","indutype":"자동차정비 유지 - 자동차정비","category":"car"}]},{"lat":"37.327328015","long":"127.68079783","imageIndex":0,"items":[{"name":"여강종합카센타","tel":"031-884-2716","addr":"경기도 여주시 북내면 당우리 193-26번지","indutype":"자동차정비 유지 - 자동차정비","category":"car"}]},{"lat":"37.330328229","long":"127.67924515","imageIndex":0,"items":[{"name":"정도자동차","tel":"031-881-0516","addr":"경기도 여주시 북내면 당우리 170-1번지","indutype":"자동차정비 유지 - 자동차정비","category":"car"}]}]