[{"lat":"37.323232635","long":"126.99267152","imageIndex":8,"items":[{"name":"(주)지브이티에스","tel":"031-216-0254","addr":"경기도 수원시 장안구 파장동 19-4번지","indutype":"기타의료기관 - 동물병원","category":"medical"}]},{"lat":"37.307149412","long":"126.99280906","imageIndex":8,"items":[{"name":"경희소나무한의원","tel":"031-257-7501","addr":"경기도 수원시 장안구 파장동 579-38번지","indutype":"의원 - 한의원","category":"medical"}]},{"lat":"37.309230356","long":"126.98872536","imageIndex":8,"items":[{"name":"경희운송한의원","tel":"031-271-0011","addr":"경기도 수원시 장안구 파장동 570-8번지 4층 401호","indutype":"의원 - 한의원","category":"medical"},{"name":"나종완치과의원","tel":"031-271-0003","addr":"경기도 수원시 장안구 파장동 570-8번지 덕원빌딩 302호","indutype":"의원 - 치과의원","category":"medical"}]},{"lat":"37.3089786","long":"126.99423011","imageIndex":8,"items":[{"name":"그린팜중앙약국","tel":"031-251-3411","addr":"경기도 수원시 장안구 파장동 576-1번지","indutype":"약국 - 약국","category":"medical"},{"name":"자올치과의원","tel":"031-268-7528","addr":"경기도 수원시 장안구 파장동 576-1번지","indutype":"의원 - 치과의원","category":"medical"},{"name":"장안경희한의원","tel":"031-268-7511","addr":"경기도 수원시 장안구 파장동 576-1번지 광이빌딩 2층","indutype":"의원 - 한의원","category":"medical"}]},{"lat":"37.305041269","long":"126.99639623","imageIndex":8,"items":[{"name":"김경신소아청소년과의원","tel":"031-246-7067","addr":"경기도 수원시 장안구 파장동 495-37번지","indutype":"의원 - 의원","category":"medical"},{"name":"성모약국","tel":"031-245-4264","addr":"경기도 수원시 장안구 파장동 495-37번지","indutype":"약국 - 약국","category":"medical"}]},{"lat":"37.306482584","long":"126.99200828","imageIndex":8,"items":[{"name":"대호약국","tel":"031-241-5358","addr":"경기도 수원시 장안구 파장동 580-8번지","indutype":"약국 - 약국","category":"medical"},{"name":"미소드림치과의원","tel":"031-247-7528","addr":"경기도 수원시 장안구 파장동 580-8번지 2층","indutype":"의원 - 치과의원","category":"medical"},{"name":"태양당한의원","tel":"031-252-0257","addr":"경기도 수원시 장안구 파장동 580-8번지 외4필지 3층","indutype":"의원 - 한의원","category":"medical"}]},{"lat":"37.305924069","long":"126.99339576","imageIndex":8,"items":[{"name":"명진한의원","tel":"031-253-8433","addr":"경기도 수원시 장안구 파장동 582-30번지","indutype":"의원 - 한의원","category":"medical"}]},{"lat":"37.304509682","long":"126.99670082","imageIndex":8,"items":[{"name":"민제한의원","tel":"031-248-1275","addr":"경기도 수원시 장안구 파장동 495-22번지","indutype":"의원 - 한의원","category":"medical"}]},{"lat":"37.31581767","long":"127.00194563","imageIndex":8,"items":[{"name":"삼대약손한약국","tel":"031-252-7467","addr":"경기도 수원시 장안구 파장동 349-5번지 1층","indutype":"약국 - 한약방","category":"medical"}]},{"lat":"37.303653721","long":"126.99692648","imageIndex":8,"items":[{"name":"성모치과의원","tel":"031-256-2808","addr":"경기도 수원시 장안구 파장동 495-30번지 2층","indutype":"의원 - 치과의원","category":"medical"}]},{"lat":"37.305617904","long":"126.99603524","imageIndex":8,"items":[{"name":"세원정형외과","tel":"031-254-7582","addr":"경기도 수원시 장안구 파장동 599번지 상신빌딩 2층","indutype":"의원 - 의원","category":"medical"}]},{"lat":"37.304014123","long":"126.99677982","imageIndex":8,"items":[{"name":"솔약국","tel":"031-245-5462","addr":"경기도 수원시 장안구 파장동 495-25번지","indutype":"약국 - 약국","category":"medical"},{"name":"푸른내과","tel":"031-241-1296","addr":"경기도 수원시 장안구 파장동 495-25번지","indutype":"의원 - 의원","category":"medical"}]},{"lat":"37.307311581","long":"126.99263984","imageIndex":8,"items":[{"name":"아산참조은의원","tel":"031-258-3630","addr":"경기도 수원시 장안구 파장동 579-36번지 2층","indutype":"의원 - 의원","category":"medical"}]},{"lat":"37.306374484","long":"126.99225645","imageIndex":8,"items":[{"name":"어진한의원","tel":"031-251-7582","addr":"경기도 수원시 장안구 파장동 580-6번지 2층","indutype":"의원 - 한의원","category":"medical"}]},{"lat":"37.30614925","long":"126.99250464","imageIndex":8,"items":[{"name":"연세 엘 의원","tel":"031-269-5656","addr":"경기도 수원시 장안구 파장동 581-1번지 2층 205호","indutype":"의원 - 의원","category":"medical"}]},{"lat":"37.306590726","long":"126.99222258","imageIndex":8,"items":[{"name":"연세이비인후과","tel":"031-244-8001","addr":"경기도 수원시 장안구 파장동 580-9번지 2층","indutype":"의원 - 의원","category":"medical"},{"name":"이정신경과의원","tel":"031-245-8275","addr":"경기도 수원시 장안구 파장동 580-9번지 이정신경과의원","indutype":"의원 - 의원","category":"medical"}]},{"lat":"37.306284387","long":"126.99231287","imageIndex":8,"items":[{"name":"이편한치과의원","tel":"031-244-6411","addr":"경기도 수원시 장안구 파장동 580-5번지 2층","indutype":"의원 - 치과의원","category":"medical"}]},{"lat":"37.307095327","long":"126.99253835","imageIndex":8,"items":[{"name":"종합약국","tel":"031-245-6213","addr":"경기도 수원시 장안구 파장동 580번지","indutype":"약국 - 약국","category":"medical"}]},{"lat":"37.309068686","long":"126.9940045","imageIndex":8,"items":[{"name":"참길한의원","tel":"031-271-5625","addr":"경기도 수원시 장안구 파장동 576번지 재성빌딩 3층","indutype":"의원 - 한의원","category":"medical"}]}]