[{"lat":"37.831095676","long":"127.46880995","items":[{"name":"가평다온펜션","tel":"070-8806-8888","addr":"경기도 가평군 가평읍 경반리 583-34번지","category":"숙박업 - 여관/기타숙박업"}]},{"lat":"37.831231875","long":"127.49512976","items":[{"name":"남양유업가평가정대리점","tel":"031-581-2279","addr":"경기도 가평군 가평읍 경반리 113-3번지","category":"음료식품 - 기타음료식품"}]},{"lat":"37.829343832","long":"127.48327002","items":[{"name":"느리게 걷기","tel":"031-581-1232","addr":"경기도 가평군 가평읍 경반리 520-1번지","category":"일반휴게음식 - 일반한식"}]},{"lat":"37.829595717","long":"127.48336252","items":[{"name":"륜","tel":"031-582-7403","addr":"경기도 가평군 가평읍 경반리 520번지","category":"보건위생 - 기타대인서비스"}]},{"lat":"37.828428467","long":"127.48238947","items":[{"name":"미르펜션","tel":"031-581-0180","addr":"경기도 가평군 가평읍 경반리 519-3번지","category":"숙박업 - 여관/기타숙박업"}]},{"lat":"37.83631485","long":"127.46352636","items":[{"name":"선 이곳","tel":"02-836-1040","addr":"경기도 가평군 가평읍 경반리 585-4번지 1층","category":"일반휴게음식 - 일반한식"},{"name":"한석봉 어머니떡","tel":"031-581-9333","addr":"경기도 가평군 가평읍 경반리 585-4번지 1층","category":"음료식품 - 기타음료식품"}]},{"lat":"37.829097967","long":"127.47275023","items":[{"name":"숲속의하모니","tel":"031-852-6689","addr":"경기도 가평군 가평읍 경반리 563-3","category":"일반휴게음식 - 일반한식"},{"name":"숲속의하모니","tel":"031-582-6689","addr":"경기도 가평군 가평읍 경반리 563-3번지","category":"일반휴게음식 - 일반한식"}]},{"lat":"37.828598298","long":"127.48271997","items":[{"name":"앵두펜션","tel":"031-581-8421","addr":"경기도 가평군 가평읍 경반리 519-1번지","category":"숙박업 - 여관/기타숙박업"}]},{"lat":"37.831149746","long":"127.49105131","items":[{"name":"준건축","tel":"","addr":"경기도 가평군 가평읍 경반리 83-1번지","category":"용역 서비스 - 기타용역서비스"}]},{"lat":"37.831534605","long":"127.46944882","items":[{"name":"천상지애","tel":"031-793-1730","addr":"경기도 가평군 가평읍 경반리 583-19","category":"숙박업 - 여관/기타숙박업"}]},{"lat":"37.835286101","long":"127.49941657","items":[{"name":"카르페디엠","tel":"031-581-7734","addr":"경기도 가평군 가평읍 경반리 36-2번지","category":"숙박업 - 여관/기타숙박업"}]},{"lat":"37.834146009","long":"127.46750007","items":[{"name":"카페 짚(CAFE ZIP)","tel":"031-000-0000","addr":"경기도 가평군 가평읍 경반리 산151-4번지 B동","category":"일반휴게음식 - 서양음식"}]},{"lat":"37.83090129","long":"127.49446874","items":[{"name":"칼봉산송어횟집","tel":"031-581-5292","addr":"경기도 가평군 가평읍 경반리 113-1번지","category":"일반휴게음식 - 일반한식"}]},{"lat":"37.829985206","long":"127.4716654","items":[{"name":"칼봉산파크펜션","tel":"031-581-6452","addr":"경기도 가평군 가평읍 경반리 580번지","category":"숙박업 - 여관/기타숙박업"},{"name":"칼봉산파크펜션","tel":"031-581-6452","addr":"경기도 가평군 가평읍 경반리 580번지","category":"숙박업 - 여관/기타숙박업"}]},{"lat":"37.839174399","long":"127.48733258","items":[{"name":"하이드힐","tel":"031-582-6658","addr":"경기도 가평군 가평읍 경반리 353-1번지","category":"일반휴게음식 - 일반한식"}]},{"lat":"37.83476393","long":"127.49718659","items":[{"name":"한옥대한","tel":"031-582-4452","addr":"경기도 가평군 가평읍 경반리 34-2번지","category":"용역 서비스 - 기타용역서비스"}]},{"lat":"37.828145947","long":"127.48096781","items":[{"name":"햇살이가득한집펜션","tel":"070-4922-1261","addr":"경기도 가평군 가평읍 경반리 508-6번지","category":"숙박업 - 여관/기타숙박업"}]},{"lat":"37.832704313","long":"127.49202709","items":[{"name":"행복우물","tel":"031-581-0491","addr":"경기도 가평군 가평읍 경반리 173번지","category":"서적문구 - 출판 및 인쇄물"}]}]