[{"lat":"36.970059852","long":"127.25137756","imageIndex":17,"items":[{"name":"(주)오주포장","tel":"031-677-5391","addr":"경기도 안성시 미양면 구수리 251","indutype":"유통업 영리 - 기타유통업","category":"other"}]},{"lat":"36.972304585","long":"127.26349104","imageIndex":17,"items":[{"name":"(주)이지바이오텍","tel":"031-671-5806","addr":"경기도 안성시 미양면 구수리 315-1번지","indutype":"농업 - 비료,사료,종자","category":"other"}]},{"lat":"36.973801707","long":"127.26287847","imageIndex":17,"items":[{"name":"비오릴","tel":"031-667-9496","addr":"경기도 안성시 미양면 구수리 307-2번지 F동","indutype":"신변잡화 - 기타잡화","category":"other"},{"name":"진영기업(주)","tel":"031-677-0091","addr":"경기도 안성시 미양면 구수리 307-2번지","indutype":"농업 - 농기계","category":"other"}]},{"lat":"36.974275496","long":"127.26459835","imageIndex":17,"items":[{"name":"안성로우더","tel":"031-677-5191","addr":"경기도 안성시 미양면 구수리 307-4번지","indutype":"농업 - 농기계","category":"other"}]},{"lat":"36.972360667","long":"127.26257035","imageIndex":17,"items":[{"name":"안성장갑","tel":"031-671-5440","addr":"경기도 안성시 미양면 구수리 55-6번지","indutype":"의류 - 기타의류","category":"other"}]},{"lat":"36.97327702","long":"127.26382003","imageIndex":17,"items":[{"name":"이마트24 안성공단점","tel":"031-000-0000","addr":"경기도 안성시 미양면 구수리 316-6번지","indutype":"유통업 영리 - 편 의 점","category":"other"}]},{"lat":"36.970192799","long":"127.2524336","imageIndex":17,"items":[{"name":"이춘택도예연구소","tel":"031-677-8707","addr":"경기도 안성시 미양면 구수리 249-3, 35/25","indutype":"문화.취미 - 화랑","category":"other"}]},{"lat":"36.971360971","long":"127.25818722","imageIndex":17,"items":[{"name":"일진건업","tel":"031-674-9884","addr":"경기도 안성시 미양면 구수리 187-2","indutype":"건축자재 - 보일러·펌프·샷시","category":"other"}]},{"lat":"36.974779919","long":"127.26467869","imageIndex":17,"items":[{"name":"주식회사디에스케미칼","tel":"031-677-6355","addr":"경기도 안성시 미양면 구수리 306-7번지","indutype":"서적문구 - 과학기자재","category":"other"}]},{"lat":"36.973692987","long":"127.25479219","imageIndex":9,"items":[{"name":"(주)우진에너지","tel":"031-677-1271","addr":"경기도 안성시 미양면 구수리 198-10번지","indutype":"연료판매점 - SK주유소","category":"oil"},{"name":"(주)우진에너지","tel":"031-677-1271","addr":"경기도 안성시 미양면 구수리 198-10번지","indutype":"연료판매점 - SK가스충전소","category":"oil"}]},{"lat":"36.972888451","long":"127.26432407","imageIndex":4,"items":[{"name":"JK코퍼레이션","tel":"031-000-0000","addr":"경기도 안성시 미양면 구수리 316-2번지","indutype":"일반휴게음식 - 서양음식","category":"restaurant"}]},{"lat":"36.973195922","long":"127.25548683","imageIndex":4,"items":[{"name":"미가쌈밥","tel":"031-677-2966","addr":"경기도 안성시 미양면 구수리 201-1번지","indutype":"일반휴게음식 - 일반한식","category":"restaurant"}]},{"lat":"36.971027312","long":"127.26246475","imageIndex":4,"items":[{"name":"용궁회집","tel":"031-672-2240","addr":"경기도 안성시 미양면 구수리 72-3번지","indutype":"일반휴게음식 - 일식·회집","category":"restaurant"}]},{"lat":"36.97327702","long":"127.26382003","imageIndex":4,"items":[{"name":"윤가네","tel":"031-676-0966","addr":"경기도 안성시 미양면 구수리 316-6번지 A동 1층","indutype":"일반휴게음식 - 일반한식","category":"restaurant"},{"name":"집밥한식뷔페","tel":"031-677-5989","addr":"경기도 안성시 미양면 구수리 316-6번지","indutype":"일반휴게음식 - 일반한식","category":"restaurant"}]},{"lat":"36.973636727","long":"127.2558252","imageIndex":4,"items":[{"name":"주나목 연지정원","tel":"031-677-5292","addr":"경기도 안성시 미양면 구수리 198-1번지","indutype":"일반휴게음식 - 일반한식","category":"restaurant"}]},{"lat":"36.966585771","long":"127.26212402","imageIndex":0,"items":[{"name":"공단자동차공업사","tel":"031-671-3125","addr":"경기도 안성시 미양면 구수리 105-11번지","indutype":"자동차정비 유지 - 자동차정비","category":"car"}]},{"lat":"36.969108754","long":"127.26213257","imageIndex":0,"items":[{"name":"정수공구","tel":"031-675-0889","addr":"경기도 안성시 미양면 구수리 82-3번지","indutype":"자동차정비 유지 - 윤활유 전문 판매","category":"car"}]},{"lat":"36.970587481","long":"127.26168839","imageIndex":0,"items":[{"name":"제이비제이특장","tel":"","addr":"경기도 안성시 미양면 구수리 77-2번지","indutype":"자동차판매 - 기타운송","category":"car"}]},{"lat":"36.965251458","long":"127.26245637","imageIndex":0,"items":[{"name":"타이어아울렛","tel":"031-675-4353","addr":"경기도 안성시 미양면 구수리 124-5번지 1층","indutype":"자동차정비 유지 - 자동차시트·타이어","category":"car"}]},{"lat":"36.965778776","long":"127.2518465","imageIndex":5,"items":[{"name":"궁전모텔","tel":"031-677-6777","addr":"경기도 안성시 미양면 구수리 259-2번지","indutype":"숙박업 - 여관/기타숙박업","category":"hotel"}]},{"lat":"36.965915089","long":"127.25129671","imageIndex":5,"items":[{"name":"아비숑","tel":"031-677-6775","addr":"경기도 안성시 미양면 구수리 259-5번지 외1필지","indutype":"숙박업 - 여관/기타숙박업","category":"hotel"}]},{"lat":"36.976388278","long":"127.26265142","imageIndex":7,"items":[{"name":"롯데칠성신협안성분점","tel":"031-678-9505","addr":"경기도 안성시 미양면 구수리 306번지","indutype":"음료식품 - 기타음료식품","category":"food"}]},{"lat":"36.973191432","long":"127.25335305","imageIndex":7,"items":[{"name":"원재네포도밭","tel":"031-672-2131","addr":"경기도 안성시 미양면 구수리 245-1번지","indutype":"음료식품 - 농·축·수산품","category":"food"}]},{"lat":"36.966612362","long":"127.26232624","imageIndex":7,"items":[{"name":"차령식품","tel":"031-671-4008","addr":"경기도 안성시 미양면 구수리 103-5","indutype":"음료식품 - 기타음료식품","category":"food"}]},{"lat":"36.962638367","long":"127.24977018","imageIndex":7,"items":[{"name":"청학에프엔씨(주)","tel":"031-677-5631","addr":"경기도 안성시 미양면 구수리 264-6번지 미양농공단지","indutype":"음료식품 - 기타음료식품","category":"food"}]},{"lat":"36.968584565","long":"127.26284949","imageIndex":7,"items":[{"name":"신남슈퍼","tel":"031-676-3101","addr":"경기도 안성시 미양면 구수리 87-1번지","indutype":"유통업 영리 - 슈퍼마켓","category":"mart"}]}]