[{"lat":"37.125507632","long":"126.97995994","items":[{"name":"(주) 미림플라스틱","tel":"031-8059-3800","addr":"경기도 화성시 향남읍 갈천리 223-1번지","category":"신변잡화 - 기타잡화"}]},{"lat":"37.126282364","long":"126.97909323","items":[{"name":"(주)수원페이퍼","tel":"031-353-7265","addr":"경기도 화성시 향남읍 갈천리 222-2번지","category":"유통업 영리 - 기타유통업"}]},{"lat":"37.131527284","long":"126.98353681","items":[{"name":"GS25향남갈천점","tel":"","addr":"경기도 화성시 향남읍 갈천리 129-18번지 101,102호","category":"유통업 영리 - 편 의 점"},{"name":"갈천추어매운탕","tel":"031-366-0744","addr":"경기도 화성시 향남읍 갈천리 129-18번지","category":"일반휴게음식 - 일반한식"}]},{"lat":"37.131058868","long":"126.9843472","items":[{"name":"기능장열처리","tel":"031-353-4344","addr":"경기도 화성시 향남읍 갈천리 129-23번지","category":"용역 서비스 - 기타용역서비스"}]},{"lat":"37.12486797","long":"126.98039899","items":[{"name":"다온","tel":"031-354-8481","addr":"경기도 화성시 향남읍 갈천리 211-2","category":"건축자재 - 기타건축자재"},{"name":"메이저카 화성점","tel":"031-354-9402","addr":"경기도 화성시 향남읍 갈천리 211-2번지","category":"자동차정비 유지 - 자동차부품"},{"name":"포유향남아이씨마트","tel":"031-354-1746","addr":"경기도 화성시 향남읍 갈천리 211-2번지","category":"유통업 영리 - 슈퍼마켓"}]},{"lat":"37.131084157","long":"126.97537801","items":[{"name":"다현솔루션","tel":"031-366-6715","addr":"경기도 화성시 향남읍 갈천리 1-13번지 1층","category":"전기제품 - 기타전기제품"}]},{"lat":"37.130697224","long":"126.97770765","items":[{"name":"도그노크","tel":"031-0000-0000","addr":"경기도 화성시 향남읍 갈천리 5번지","category":"문화.취미 - 애완동물"}]},{"lat":"37.124813991","long":"126.98084912","items":[{"name":"마이크로소켓코리아향남","tel":"031-352-4092","addr":"경기도 화성시 향남읍 갈천리 211-5번지 외 4필지","category":"기타 - 기계공구"},{"name":"오토마스터정비센터","tel":"031-8059-4407","addr":"경기도 화성시 향남읍 갈천리 211-5번지 1층","category":"자동차정비 유지 - 자동차부품"}]},{"lat":"37.124390847","long":"126.98281846","items":[{"name":"미소한식뷔페","tel":"031-354-9869","addr":"경기도 화성시 향남읍 갈천리 205-2번지","category":"일반휴게음식 - 일반한식"}]},{"lat":"37.127445717","long":"126.98473068","items":[{"name":"세진휀스","tel":"031-3741-1185","addr":"경기도 화성시 향남읍 갈천리 180번지","category":"건축자재 - 기타건축자재"},{"name":"원미초경","tel":"031-352-8665","addr":"경기도 화성시 향남읍 갈천리 180번지","category":"레져용품 - 악기점"}]},{"lat":"37.131750842","long":"126.97498389","items":[{"name":"썬테크","tel":"031-372-1694","addr":"경기도 화성시 향남읍 갈천리 1-20번지","category":"기타 - 기계공구"}]},{"lat":"37.13111282","long":"126.98364946","items":[{"name":"에이스한식부페","tel":"031-352-8222","addr":"경기도 화성시 향남읍 갈천리 129-6번지 1층","category":"일반휴게음식 - 일반한식"}]},{"lat":"37.124669949","long":"126.98153557","items":[{"name":"에이스환경","tel":"031-366-2724","addr":"경기도 화성시 향남읍 갈천리 211-7번지","category":"신변잡화 - 기타잡화"}]},{"lat":"37.131895771","long":"126.9784275","items":[{"name":"유씨테크(U.C.tech)/원격지","tel":"","addr":"경기도 화성시 향남읍 갈천리 18-2번지","category":"기타 - 기타 전문점"}]},{"lat":"37.124778539","long":"126.98429246","items":[{"name":"중앙에너지","tel":"031-352-7252","addr":"경기도 화성시 향남읍 갈천리 198-6번지","category":"연료판매점 - LPG 취급점"}]},{"lat":"37.125002895","long":"126.97920616","items":[{"name":"타이어로드","tel":"031-352-4932","addr":"경기도 화성시 향남읍 갈천리 226-9번지","category":"자동차정비 유지 - 자동차시트·타이어"}]},{"lat":"37.124921671","long":"126.97856477","items":[{"name":"투플러스자동차정비","tel":"031-8055-8746","addr":"경기도 화성시 향남읍 갈천리 230-14번지","category":"자동차정비 유지 - 자동차정비"}]},{"lat":"37.124697021","long":"126.98176062","items":[{"name":"펫클럽","tel":"070-4675-2274","addr":"경기도 화성시 향남읍 갈천리 209번지","category":"문화.취미 - 애완동물"}]},{"lat":"37.124643274","long":"126.98361733","items":[{"name":"푸른카센타","tel":"031-352-4954","addr":"경기도 화성시 향남읍 갈천리 198-5번지","category":"자동차정비 유지 - 자동차정비"}]},{"lat":"37.124228616","long":"126.98257094","items":[{"name":"한국베어링","tel":"031-374-3544","addr":"경기도 화성시 향남읍 갈천리 206-2번지","category":"기타 - 기계공구"}]}]