[{"lat":"37.151081518","long":"127.00756475","items":[{"name":"(주)칠성종합안전","tel":"031-8059-0452","addr":"경기도 화성시 정남면 망월리 314번지","category":"의류 - 기타의류"}]},{"lat":"37.150027014","long":"127.01228115","items":[{"name":"갑신알미늄","tel":"031-252-6815","addr":"경기도 화성시 정남면 망월리 54-2번지","category":"주방용구 - 주방용식기"}]},{"lat":"37.151532067","long":"127.00686686","items":[{"name":"금복카센타","tel":"031-353-8925","addr":"경기도 화성시 정남면 망월리 312-1번지","category":"자동차정비 유지 - 자동차정비"}]},{"lat":"37.146143585","long":"127.01114382","items":[{"name":"노트북컴퓨터A/S","tel":"031-353-6561","addr":"경기도 화성시 정남면 망월리 83번지","category":"수리서비스 - 사무·통신기기수리"},{"name":"정림마트","tel":"031-352-6562","addr":"경기도 화성시 정남면 망월리 83","category":"유통업 영리 - 슈퍼마켓"}]},{"lat":"37.150306617","long":"127.00758721","items":[{"name":"대성기계공업주식화사","tel":"031-213-0092","addr":"경기도 화성시 정남면 망월리 290","category":"기타 - 기타 전문점"},{"name":"대성기계공업주식회사/원격지","tel":"031-213-0093","addr":"경기도 화성시 정남면 망월리 290","category":"기타 - 기타 전문점"}]},{"lat":"37.148693645","long":"127.0096245","items":[{"name":"대성상사","tel":"031-455-3657","addr":"경기도 화성시 정남면 망월리 200","category":"기타 - 기계공구"},{"name":"씨유화성정남로드점","tel":"031-898-6569","addr":"경기도 화성시 정남면 망월리 200번지","category":"유통업 영리 - 편 의 점"},{"name":"은경푸드한식부페","tel":"031-376-4638","addr":"경기도 화성시 정남면 망월리 200번지","category":"일반휴게음식 - 일반한식"}]},{"lat":"37.153973535","long":"127.01303586","items":[{"name":"맛밥구내식당","tel":"031-353-1622","addr":"경기도 화성시 정남면 망월리 336번지 가동","category":"일반휴게음식 - 위탁급식업"}]},{"lat":"37.145864244","long":"127.01136891","items":[{"name":"면사무소","tel":"031-377-7979","addr":"경기도 화성시 정남면 망월리 85번지","category":"일반휴게음식 - 일반한식"}]},{"lat":"37.150054307","long":"127.00800369","items":[{"name":"서가네맛집","tel":"031-375-3383","addr":"경기도 화성시 정남면 망월리 290-2번지","category":"일반휴게음식 - 일반한식"},{"name":"세븐일레븐화성정남동로점","tel":"031-1577-0711","addr":"경기도 화성시 정남면 망월리 290-2번지 라동 101,102,103호","category":"유통업 영리 - 편 의 점"}]},{"lat":"37.150279478","long":"127.00978223","items":[{"name":"수진전기주식회사","tel":"031-352-9486","addr":"경기도 화성시 정남면 망월리 284-16번지","category":"전기제품 - 기타전기제품"}]},{"lat":"37.151198686","long":"127.00667548","items":[{"name":"우리테크","tel":"031-8059-6498","addr":"경기도 화성시 정남면 망월리 297-2번지","category":"기타 - 기계공구"}]},{"lat":"37.148558364","long":"127.01153805","items":[{"name":"우진정공","tel":"031-352-7106","addr":"경기도 화성시 정남면 망월리 64","category":"기타 - 기계공구"}]},{"lat":"37.15210844","long":"127.01216884","items":[{"name":"정림초등학교","tel":"031-352-4945","addr":"경기도 화성시 정남면 망월리 329-1번지 정림초등학교","category":"학원 - 초중고교육기관"}]},{"lat":"37.149919119","long":"127.00867907","items":[{"name":"주식회사 서울프린팩","tel":"031-353-4981","addr":"경기도 화성시 정남면 망월리 285-6번지 1층","category":"유통업 영리 - 기타유통업"}]},{"lat":"37.146666177","long":"127.011369","items":[{"name":"채원한식뷔페","tel":"031-353-1774","addr":"경기도 화성시 정남면 망월리 79-12번지","category":"일반휴게음식 - 일반한식"}]},{"lat":"37.148423306","long":"127.01004096","items":[{"name":"청미 (한식부페)","tel":"031-366-1310","addr":"경기도 화성시 정남면 망월리 199-2번지","category":"일반휴게음식 - 일반한식"}]},{"lat":"37.151504813","long":"127.01117817","items":[{"name":"태봉산업","tel":"031-353-1175","addr":"경기도 화성시 정남면 망월리 280-3","category":"유통업 영리 - 기타유통업"}]},{"lat":"37.150811155","long":"127.00867913","items":[{"name":"한울타리","tel":"031-352-4896","addr":"경기도 화성시 정남면 망월리 286번지","category":"일반휴게음식 - 일반한식"}]},{"lat":"37.149360418","long":"127.00964707","items":[{"name":"화창엔지니어링","tel":"031-366-4578","addr":"경기도 화성시 정남면 망월리 257-5","category":"자동차정비 유지 - 중장비수리"}]}]