[{"lat":"37.3880311646","long":"126.9765378135","items":[{"name":"#네일뷰티끄","tel":"031-425-3026","addr":"경기도 의왕시 내손동 842번지 래미안에버하임아파트 상가, 농협은행 A동 202호","category":"보건위생 - 피부미용실"},{"name":"GN영수학원","tel":"031-342-2965","addr":"경기도 의왕시 내손동 842번지 래미안에버하임아파트 상가, 농협은행 3층 307호","category":"학원 - 보습학원"},{"name":"그릴에 꼬치다","tel":"031-421-8293","addr":"경기도 의왕시 내손동 842번지 래미안에버하임아파트 상가, 농협은행 A동 1층 102호","category":"일반휴게음식 - 일반한식"},{"name":"뮤엠영어","tel":"031-426-7771","addr":"경기도 의왕시 내손동 842번지 상가에이동 2층 207호","category":"학원 - 외국어학원"},{"name":"미라인스킨케어","tel":"031-423-0904","addr":"경기도 의왕시 내손동 842번지 래미안에버하임 A동 206호","category":"보건위생 - 피부미용실"},{"name":"선린기획","tel":"031-423-2063","addr":"경기도 의왕시 내손동 842번지 래미안에버하임아파트","category":"회원제형태 - 사무서비스"},{"name":"인크리에이티브","tel":"070-4007-6334","addr":"경기도 의왕시 내손동 842번지 래미안에버하임 2201호","category":"용역 서비스 - 종합용역"},{"name":"하이수학학원","tel":"031-422-5535","addr":"경기도 의왕시 내손동 842 래미안에버하임상가A동305호","category":"학원 - 보습학원"},{"name":"헤어BY필","tel":"031-422-0504","addr":"경기도 의왕시 내손동 842번지 상가래미안에버하임 203호","category":"보건위생 - 미용원"}]},{"lat":"37.3791641683","long":"126.9721940228","items":[{"name":"(사)나눔플러스청소년연합의왕지부","tel":"031-426-6421","addr":"경기도 의왕시 내손동 751-1번지 주노프라자 301호","category":"음료식품 - 미곡상"},{"name":"리스타트","tel":"031-426-7417","addr":"경기도 의왕시 내손동 751-1번지 주노프라자 504호","category":"학원 - 기타 교육기관"},{"name":"마살아트피트니스 의왕","tel":"","addr":"경기도 의왕시 내손동 751-1번지 주노프라자 503호","category":"레저업소 - 헬스클럽"},{"name":"블랙시저스헤어","tel":"031-424-4812","addr":"경기도 의왕시 내손동 751-1번지 주노프라자 102호","category":"보건위생 - 미용원"},{"name":"블랙콩 계원예대점","tel":"070-9554-6868","addr":"경기도 의왕시 내손동 751-1번지 주노프라자 1층 106호","category":"일반휴게음식 - 서양음식"},{"name":"새한트레이딩","tel":"031-424-3949","addr":"경기도 의왕시 내손동 751-1번지 주노프라자202~204","category":"레저업소 - 당 구 장"},{"name":"스시상","tel":"031-423-0975","addr":"경기도 의왕시 내손동 751-1번지 주노프라자 103호","category":"일반휴게음식 - 일식·회집"},{"name":"어장관리","tel":"031-454-9292","addr":"경기도 의왕시 내손동 751-1번지 주노프라자 101호","category":"일반휴게음식 - 일반한식"},{"name":"정상독서실","tel":"031-426-0579","addr":"경기도 의왕시 내손동 751-1번지 주노프라자 602호 601일부","category":"회원제형태 - 학원"},{"name":"종로빈대떡","tel":"031-424-4060","addr":"경기도 의왕시 내손동 751-1번지 주노프라자 104호","category":"일반휴게음식 - 일반한식"},{"name":"청담클루빌영어 DERC학원","tel":"031-426-0579","addr":"경기도 의왕시 내손동 751-1번지 주노프라자 602호","category":"학원 - 외국어학원"},{"name":"킹스키즈학원","tel":"031-423-2063","addr":"경기도 의왕시 내손동 751-1번지 주노프라자 502호","category":"학원 - 보습학원"},{"name":"팀타이거짐","tel":"031-426-2234","addr":"경기도 의왕시 내손동 751-1번지 주노프라자 401호","category":"레저업소 - 헬스클럽"},{"name":"혼마참치","tel":"031-442-3337","addr":"경기도 의왕시 내손동 751-1번지 주노프라자 105호","category":"일반휴게음식 - 일식·회집"}]},{"lat":"37.3866430564","long":"126.9741670311","items":[{"name":"(주)동아전단","tel":"031-381-8286","addr":"경기도 의왕시 내손동 621-10번지 102호","category":"용역 서비스 - 종합용역"},{"name":"디자인숲","tel":"031-427-0101","addr":"경기도 의왕시 내손동 621-10번지 (1층상가101호)","category":"용역 서비스 - 사무서비스"}]},{"lat":"37.3788581374","long":"126.9734248214","items":[{"name":"(주)리치피아","tel":"031-424-0561","addr":"경기도 의왕시 내손동 763번지 대명스위트빌 204호","category":"전기제품 - 기타전기제품"},{"name":"누블리 뷰티","tel":"070-8803-2680","addr":"경기도 의왕시 내손동 763번지 대명스위트빌 204호","category":"보건위생 - 피부미용실"},{"name":"레드플래닛","tel":"070-4193-0939","addr":"경기도 의왕시 내손동 763번지 대명스위트빌 909호","category":"보건위생 - 화장품"},{"name":"블럭제빵소(의왕내손점)","tel":"031-360-2226","addr":"경기도 의왕시 내손동 763번지 대명스위트빌 104호","category":"음료식품 - 제과점"},{"name":"신림동명물순대","tel":"070-4240-8931","addr":"경기도 의왕시 내손동 763번지 대명스위트빌 1층","category":"일반휴게음식 - 일반한식"},{"name":"쌀국수 반가","tel":"031-341-8777","addr":"경기도 의왕시 내손동 763번지 대명스위트빌 102호","category":"일반휴게음식 - 서양음식"},{"name":"에스제이유통","tel":"031-422-8119","addr":"경기도 의왕시 내손동 763번지 대명스위트빌 4층 408호","category":"의류 - 정장"},{"name":"옻안타는천연염색","tel":"031-427-0945","addr":"경기도 의왕시 내손동 763번지 대명스위트빌 106호","category":"보건위생 - 미용원"},{"name":"이레 모바일","tel":"031-422-3317","addr":"경기도 의왕시 내손동 763번지 대명스위트빌 1층 105호","category":"사무통신 - 통신기기"},{"name":"파라오미술교습소","tel":"031-424-2004","addr":"경기도 의왕시 내손동 763번지 대명스위트빌 204호","category":"학원 - 예·체능계학원"},{"name":"플레잉음악학원","tel":"031-426-1288","addr":"경기도 의왕시 내손동 763번지 대명스위트빌 203호","category":"학원 - 예·체능계학원"}]},{"lat":"37.3789487951","long":"126.9757506495","items":[{"name":"(주)세이프퀴슬","tel":"031-422-4002","addr":"경기도 의왕시 내손동 757-4번지 반도프라자 7층","category":"기타 - 기계공구"},{"name":"(주)채널홀딩스","tel":"031-422-4002","addr":"경기도 의왕시 내손동 757-4번지 반도프라자 702호","category":"기타 - 기계공구"},{"name":"다(  )자연산1번지쎄꼬시","tel":"031-424-1237","addr":"경기도 의왕시 내손동 757-4번지 반도프라자 103호","category":"일반휴게음식 - 일반한식"},{"name":"도서출판 YOUNG 2080","tel":"070-8286-2081","addr":"경기도 의왕시 내손동 757-4번지 반도프라자 202호","category":"서적문구 - 출판 및 인쇄물"},{"name":"반도포차","tel":"031-423-5734","addr":"경기도 의왕시 내손동 757-4번지 반도프라자 108호","category":"일반휴게음식 - 일반한식"},{"name":"빽다방 의왕계원예대점","tel":"031-421-0447","addr":"경기도 의왕시 내손동 757-4번지 반도프라자 102호","category":"일반휴게음식 - 서양음식"},{"name":"씨에로이든","tel":"031-425-9797","addr":"경기도 의왕시 내손동 757-4번지 반도프라자 104호","category":"일반휴게음식 - 서양음식"},{"name":"씨지알앤디","tel":"031-425-2991","addr":"경기도 의왕시 내손동 757-4번지 반도프라자 504호","category":"기타 - 기계공구"},{"name":"요거프레소계원대점","tel":"031-422-6626","addr":"경기도 의왕시 내손동 757-4번지 반도프라자 107호","category":"일반휴게음식 - 서양음식"},{"name":"웅이치킨+서프독","tel":"070-4649-1001","addr":"경기도 의왕시 내손동 757-4번지 반도프라자 106호","category":"일반휴게음식 - 스넥"},{"name":"유기농피부샵","tel":"031-341-5424","addr":"경기도 의왕시 내손동 757-4번지 반도프라자 303호","category":"보건위생 - 피부미용실"},{"name":"이디야커피 (계원예대점)","tel":"031-426-5888","addr":"경기도 의왕시 내손동 757-4번지 반도프라자 101호","category":"일반휴게음식 - 서양음식"},{"name":"참좋은사진실","tel":"031-425-6042","addr":"경기도 의왕시 내손동 757-4번지 반도프라자 201호","category":"광학제품 - 사진관"},{"name":"청년피자","tel":"070-4922-1261","addr":"경기도 의왕시 내손동 757-4번지 반도프라자 1층 105호","category":"일반휴게음식 - 서양음식"}]},{"lat":"37.3794703105","long":"126.9714261319","items":[{"name":"(주)에스제이컨텐츠","tel":"031-426-9392","addr":"경기도 의왕시 내손동 752번지 캠퍼스프라자","category":"신변잡화 - 기타잡화"},{"name":"(주)포유항공여행사","tel":"031-424-0311","addr":"경기도 의왕시 내손동 752번지 캠퍼스프라자 109호","category":"여행 - 관광여행"},{"name":"김선희어학원","tel":"031-424-8895","addr":"경기도 의왕시 내손동 752번지 캠퍼스프라자 3층 302호","category":"회원제형태 - 학원"},{"name":"럭셔리마켓","tel":"","addr":"경기도 의왕시 내손동 752번지 캠퍼스프라자 1층 111호","category":"기타 - 기타 전문점"},{"name":"메리쫑바둑이멍멍","tel":"031-421-9047","addr":"경기도 의왕시 내손동 752번지 캠퍼스프라자 110호","category":"문화.취미 - 애완동물"},{"name":"바른정치과의원","tel":"031-421-7515","addr":"경기도 의왕시 내손동 752번지 켐퍼스프라자 305호","category":"의원 - 치과의원"},{"name":"밤비헤어(bambihair)","tel":"031-421-5455","addr":"경기도 의왕시 내손동 752번지 캠퍼스프라자 101호","category":"보건위생 - 미용원"},{"name":"배스킨라빈스의왕점","tel":"031-425-8211","addr":"경기도 의왕시 내손동 752번지 캠퍼스프라자 108호","category":"음료식품 - 제과점"},{"name":"법무사이상은사무소","tel":"031-423-8400","addr":"경기도 의왕시 내손동 752번지 캠퍼스프라자 304호","category":"용역 서비스 - 법률회계서비스(개인)"},{"name":"부자순대국","tel":"031-444-1102","addr":"경기도 의왕시 내손동 752번지 캠퍼스프라자 107호","category":"일반휴게음식 - 일반한식"},{"name":"비지니스IT학원","tel":"031-421-1012","addr":"경기도 의왕시 내손동 752번지 캠퍼스프라자 2층 206호","category":"학원 - 컴퓨터학원"},{"name":"아가북스","tel":"031-423-3345","addr":"경기도 의왕시 내손동 752번지 캠퍼스프라자 304호","category":"서적문구 - 일반서적"},{"name":"에이투지(AtoZ)","tel":"031-425-0146","addr":"경기도 의왕시 내손동 752번지 외2필지 캠퍼스프라자 406호","category":"레저업소 - 헬스클럽"},{"name":"우리정육점","tel":"031-425-4331","addr":"경기도 의왕시 내손동 752번지 캠퍼스프라자 103호","category":"음료식품 - 정육점"},{"name":"이루리 iruRI","tel":"031-425-7030","addr":"경기도 의왕시 내손동 752번지 캠퍼스프라자 2층 203호","category":"보건위생 - 미용원"},{"name":"정관장내손동점(신)","tel":"031-426-2304","addr":"경기도 의왕시 내손동 752번지 캠퍼스프라자 116호","category":"건강식품 - 홍삼제품"},{"name":"정관장홍삼내손동점","tel":"031-426-2304","addr":"경기도 의왕시 내손동 752번지 캠퍼스프라자 116호","category":"건강식품 - 홍삼제품"},{"name":"커피베이 계원예대점","tel":"031-425-7522","addr":"경기도 의왕시 내손동 752번지 캠퍼스프라자114~115호 114호","category":"일반휴게음식 - 서양음식"},{"name":"토즈멤버십라운지 내손센터","tel":"031-421-5109","addr":"경기도 의왕시 내손동 752번지 캠퍼스프라자 4층 403호","category":"용역 서비스 - 사무서비스"},{"name":"토즈스터디센터 내손독서실","tel":"031-421-5109","addr":"경기도 의왕시 내손동 752번지 캠퍼스프라자 402,403 (일부)호","category":"학원 - 독서실"},{"name":"플레아띠창의융합미술학원","tel":"070-8830-6687","addr":"경기도 의왕시 내손동 752번지 캠퍼스프라자 3층 301호","category":"학원 - 예·체능계학원"},{"name":"피자스쿨갈뫼점","tel":"031-422-0044","addr":"경기도 의왕시 내손동 752번지 캠퍼스프라자 113호","category":"일반휴게음식 - 서양음식"},{"name":"하늘봄한의원","tel":"031-422-0072","addr":"경기도 의왕시 내손동 752번지 204,205호","category":"의원 - 한의원"},{"name":"행복한약국","tel":"031-422-2540","addr":"경기도 의왕시 내손동 752번지 캠퍼스프라자 106호","category":"약국 - 약국"}]},{"lat":"37.3790026692","long":"126.9749489969","items":[{"name":"(주)에이치투미디어","tel":"031-425-3600","addr":"경기도 의왕시 내손동 757번지 신우프라자 403호","category":"레져용품 - 음반/영상물"},{"name":"경성양꼬치(의왕점)","tel":"031-425-9444","addr":"경기도 의왕시 내손동 757번지 신우프라자 102호","category":"일반휴게음식 - 일반한식"},{"name":"국수사랑","tel":"031-421-9433","addr":"경기도 의왕시 내손동 757번지 신우프라자 106호","category":"일반휴게음식 - 스넥"},{"name":"금강다슬기해장국","tel":"031-426-5255","addr":"경기도 의왕시 내손동 757번지 신우프라자 1층","category":"일반휴게음식 - 일반한식"},{"name":"내손김밥","tel":"031-423-3778","addr":"경기도 의왕시 내손동 757번지 신우프라자 103호","category":"일반휴게음식 - 스넥"},{"name":"다온테라피","tel":"070-8615-6586","addr":"경기도 의왕시 내손동 757번지 신우프라자 601,602호","category":"보건위생 - 화장품"},{"name":"다팜","tel":"031-425-5225","addr":"경기도 의왕시 내손동 757번지 신우프라자 111호","category":"회원제형태 - 건강식품"},{"name":"띵크어바웃커피","tel":"070-4216-1474","addr":"경기도 의왕시 내손동 757번지","category":"일반휴게음식 - 서양음식"},{"name":"렉스영어현대수학학원","tel":"031-457-2365","addr":"경기도 의왕시 내손동 757번지 신우프라자 401호","category":"회원제형태 - 학원"},{"name":"문시현피부미인","tel":"031-424-7505","addr":"경기도 의왕시 내손동 757번지 신우프라자 201호","category":"보건위생 - 피부미용실"},{"name":"문어친구 골뱅이","tel":"031-422-1222","addr":"경기도 의왕시 내손동 757번지 신우프라자 112호","category":"일반휴게음식 - 일반한식"},{"name":"미화 피부미인","tel":"031-424-7505","addr":"경기도 의왕시 내손동 757번지 신우프라자 2층 201호","category":"보건위생 - 피부미용실"},{"name":"서윤희헤어파라팜","tel":"031-424-5890","addr":"경기도 의왕시 내손동 757번지 신우프라자 202호","category":"보건위생 - 미용원"},{"name":"셰프의돈까스","tel":"031-424-3009","addr":"경기도 의왕시 내손동 757번지 신우프라자 111호","category":"일반휴게음식 - 서양음식"},{"name":"스칼렛","tel":"031-421-4388","addr":"경기도 의왕시 내손동 757번지 신우프라자 203호","category":"일반휴게음식 - 서양음식"},{"name":"쌀눈쌀 현미누룽지 (계원예대점)","tel":"031-426-2232","addr":"경기도 의왕시 내손동 757번지 신우프라자 110호","category":"음료식품 - 기타음료식품"},{"name":"양계장집아들 (내손점)","tel":"031-425-9730","addr":"경기도 의왕시 내손동 757번지 신우프라자 109호","category":"일반휴게음식 - 스넥"},{"name":"에스티757","tel":"031-426-0757","addr":"경기도 의왕시 내손동 757번지 신우프라자 105호","category":"일반휴게음식 - 서양음식"},{"name":"에펠","tel":"","addr":"경기도 의왕시 내손동 757번지 신우프라자 1층 113호","category":"의류 - 정장"},{"name":"오늘네일","tel":"031-421-5588","addr":"경기도 의왕시 내손동 757번지 신우프라자 101호","category":"보건위생 - 피부미용실"},{"name":"이삭토스트계원예대점","tel":"031-451-2911","addr":"경기도 의왕시 내손동 757번지 신우프라자 107호","category":"일반휴게음식 - 스넥"}]},{"lat":"37.3897533589","long":"126.9830076529","items":[{"name":"(주)에이티임","tel":"031-461-6164","addr":"경기도 의왕시 내손동 657-21번지 1층 5호","category":"음료식품 - 농·축·수산품"},{"name":"주식회사 하나신정","tel":"02-433-7880","addr":"경기도 의왕시 내손동 657-21번지","category":"여행 - 관광여행"}]},{"lat":"37.3796968311","long":"126.9766197648","items":[{"name":"(주)왕성갤러리아","tel":"031-442-2118","addr":"경기도 의왕시 내손동 738번지 계원마당 302호","category":"레저업소 - 기타레져업소"},{"name":"계원스크린골프죤","tel":"031-423-8333","addr":"경기도 의왕시 내손동 738번지 보보스타워 3층 301호","category":"회원제형태 - 레져업소"},{"name":"숯겹살집 의왕내손점","tel":"031-422-3008","addr":"경기도 의왕시 내손동 738번지 계원마당 201호","category":"일반휴게음식 - 일반한식"},{"name":"쉐이리","tel":"031-426-7982","addr":"경기도 의왕시 내손동 738번지 계원마당 203호","category":"신변잡화 - 기타잡화"},{"name":"쉐이리노래연습장","tel":"031-426-7982","addr":"경기도 의왕시 내손동 738번지 계원마당 202호","category":"레저업소 - 노 래 방"},{"name":"풍년담긴항아리","tel":"031-422-8484","addr":"경기도 의왕시 내손동 738번지 계원마당빌딩 103호","category":"일반휴게음식 - 일반한식"}]},{"lat":"37.3875007272","long":"126.9823871942","items":[{"name":"(주)제타크리젠","tel":"031-422-3600","addr":"경기도 의왕시 내손동 667-11번지","category":"신변잡화 - 기타잡화"},{"name":"경아두마리치킨(경기서부지사)","tel":"02-507-9999","addr":"경기도 의왕시 내손동 667-11번지 지하1층","category":"일반휴게음식 - 일반한식"},{"name":"먹깨비분식","tel":"070-8286-3233","addr":"경기도 의왕시 내손동 667-11번지","category":"일반휴게음식 - 스넥"},{"name":"블루몽드 (Bluemond)","tel":"031-425-7874","addr":"경기도 의왕시 내손동 667-11번지 지층 2호","category":"일반휴게음식 - 서양음식"}]},{"lat":"37.3844727524","long":"126.9792828759","items":[{"name":"(주)차림","tel":"02-1111-1111","addr":"경기도 의왕시 내손동 684-3번지 1층","category":"일반휴게음식 - 일반한식"}]},{"lat":"37.3792542136","long":"126.9719794638","items":[{"name":"(주)투데이푸드","tel":"031-1670-8745","addr":"경기도 의왕시 내손동 751-2번지 302호, 303호","category":"음료식품 - 기타음료식품"},{"name":"갈뫼골","tel":"031-422-9252","addr":"경기도 의왕시 내손동 751-2번지 정도프라자 105호","category":"일반휴게음식 - 일반한식"},{"name":"둘둘치킨","tel":"031-422-2291","addr":"경기도 의왕시 내손동 751-2번지 정도프라자 106호","category":"일반휴게음식 - 스넥"},{"name":"라인 스킨 앤바디","tel":"031-422-3756","addr":"경기도 의왕시 내손동 751-2번지 정도프라자 304호","category":"보건위생 - 피부미용실"},{"name":"모닝아트내손점","tel":"031-423-4166","addr":"경기도 의왕시 내손동 751-2번지 정도프라자 101호","category":"서적문구 - 문구용품"},{"name":"버디 노래연습장","tel":"031-441-3275","addr":"경기도 의왕시 내손동 751-2번지 정도프라자 4층 403호","category":"레저업소 - 노 래 방"},{"name":"빅마트25","tel":"031-424-1140","addr":"경기도 의왕시 내손동 751-2번지 정도프라자 103호","category":"유통업 영리 - 슈퍼마켓"},{"name":"얼큰공주","tel":"031-427-4443","addr":"경기도 의왕시 내손동 751-2번지 정도프라자 1층 102호","category":"보건위생 - 미용원"},{"name":"연컴퍼니","tel":"031-8091-0001","addr":"경기도 의왕시 내손동 751-2번지 정도프라자 503호","category":"용역 서비스 - 종합용역"},{"name":"이든하이텍","tel":"031-426-0381","addr":"경기도 의왕시 내손동 751-2번지 정도프라자 503호","category":"보건위생 - 의료용품"},{"name":"장수곱창","tel":"031-426-0443","addr":"경기도 의왕시 내손동 751-2번지 정도프라자 104호","category":"일반휴게음식 - 일반한식"},{"name":"제이제이","tel":"031-426-2678","addr":"경기도 의왕시 내손동 751-2번지 정도프라자 204호","category":"일반휴게음식 - 서양음식"}]},{"lat":"37.3843653238","long":"126.9830542412","items":[{"name":"007노래연습장","tel":"031-425-7007","addr":"경기도 의왕시 내손동 677-10번지 밀림상가 나동-2","category":"레저업소 - 노 래 방"},{"name":"성경마트","tel":"031-421-5877","addr":"경기도 의왕시 내손동 677-10","category":"유통업 영리 - 슈퍼마켓"},{"name":"예당한복","tel":"031-421-0272","addr":"경기도 의왕시 내손동 677-10번지 1층","category":"의류 - 맞춤복점"},{"name":"의왕DC마트","tel":"031-424-9710","addr":"경기도 의왕시 내손동 677-10번지 밀림상가 다동 1층","category":"유통업 영리 - 슈퍼마켓"},{"name":"청사초롱포장마차","tel":"031-426-4746","addr":"경기도 의왕시 내손동 677-10.104","category":"일반휴게음식 - 주점"}]},{"lat":"37.3903026822","long":"126.9813362470","items":[{"name":"007텔레콤","tel":"","addr":"경기도 의왕시 내손동 653-13번지 1층","category":"사무통신 - 통신기기"},{"name":"로뎀김밥분식","tel":"031-421-5144","addr":"경기도 의왕시 내손동 653-13번지","category":"일반휴게음식 - 스넥"},{"name":"헤어갤러리","tel":"031-421-8185","addr":"경기도 의왕시 내손동 653-13번지 1층","category":"보건위생 - 미용원"}]},{"lat":"37.3862290932","long":"126.9763126104","items":[{"name":"100수학","tel":"","addr":"경기도 의왕시 내손동 846번지 의왕내손이편한세상","category":"학원 - 기타 교육기관"},{"name":"뉴욕디파인","tel":"031-456-4104","addr":"경기도 의왕시 내손동 846번지 의왕내손이편한세상","category":"약국 - 제약회사"}]},{"lat":"37.3832478148","long":"126.9815866738","items":[{"name":"100커뮤니케이션","tel":"070-7759-9520","addr":"경기도 의왕시 내손동 696-12번지 1층","category":"용역 서비스 - 종합용역"}]},{"lat":"37.3900315952","long":"126.9773953253","items":[{"name":"365키즈소아청소년과건강식품판매","tel":"031-423-5575","addr":"경기도 의왕시 내손동 414-3번지 대림프라자 402호","category":"건강식품 - 기타건강식품"},{"name":"TM수학학원","tel":"031-423-4609","addr":"경기도 의왕시 내손동 414-3번지 대림프라자 501호","category":"학원 - 보습학원"},{"name":"고봉민김밥(의왕내손점)","tel":"031-426-2289","addr":"경기도 의왕시 내손동 414-3번지 대림프라자","category":"일반휴게음식 - 스넥"},{"name":"고운정실용음악학원","tel":"031-425-7708","addr":"경기도 의왕시 내손동 414-3번지 대림프라자 405호","category":"학원 - 예·체능계학원"},{"name":"다시봄의원","tel":"031-425-1133","addr":"경기도 의왕시 내손동 414-3번지 대림프라자 503호","category":"의원 - 의원"},{"name":"대림헬스","tel":"031-422-3201","addr":"경기도 의왕시 내손동 414-3번지 대림프라자 403호","category":"레저업소 - 헬스클럽"},{"name":"대한민국 1등 석사경희대 태권도장","tel":"031-426-8181","addr":"경기도 의왕시 내손동 414-3번지 대림프라자 504호","category":"학원 - 예·체능계학원"},{"name":"도르리영양돌솥밥","tel":"031-423-5677","addr":"경기도 의왕시 내손동 414-3번지 대림프라자 203호","category":"일반휴게음식 - 일반한식"},{"name":"동보약국","tel":"031-424-0369","addr":"경기도 의왕시 내손동 414-3 대림프라자 304호","category":"약국 - 약국"},{"name":"두부장수","tel":"031-424-2266","addr":"경기도 의왕시 내손동 414-3번지 대림프라자 108호","category":"음료식품 - 기타음료식품"},{"name":"로잔무용학원","tel":"031-422-4001","addr":"경기도 의왕시 내손동 414-3번지 대림프라자 308호","category":"학원 - 예·체능계학원"},{"name":"리코더샵","tel":"031-453-3670","addr":"경기도 의왕시 내손동 414-3번지 대림프라자 102호","category":"레져용품 - 악기점"},{"name":"미래로치과의원","tel":"031-425-7528","addr":"경기도 의왕시 내손동 414-3번지 대림프라자 203호","category":"의원 - 치과의원"},{"name":"미소치과","tel":"031-425-2818","addr":"경기도 의왕시 내손동 414-3번지 대림프라자 303호","category":"의원 - 치과의원"},{"name":"바른몸 한의원","tel":"031-360-8575","addr":"경기도 의왕시 내손동 414-3번지 대림프라자 202호","category":"의원 - 한의원"},{"name":"블럭팡 의왕내손점","tel":"031-421-9255","addr":"경기도 의왕시 내손동 414-3번지 대림프라자 5층 502호","category":"서적문구 - 완구점"},{"name":"스마일명품찹쌀꽈배기 의왕점","tel":"031-111-1111","addr":"경기도 의왕시 내손동 414-3번지 대림프라자 1층 118호","category":"일반휴게음식 - 일반한식"},{"name":"스시미우","tel":"031-421-7855","addr":"경기도 의왕시 내손동 414-3번지 대림프라자 102호","category":"일반휴게음식 - 일식·회집"},{"name":"스튜디오두리","tel":"031-425-5882","addr":"경기도 의왕시 내손동 414-3번지 대림프라자상가 1층 110호","category":"광학제품 - 사진관"},{"name":"심가가머리하는곳","tel":"031-425-3470","addr":"경기도 의왕시 내손동 414-3번지 대림푸라자 204호 H","category":"보건위생 - 미용원"},{"name":"쎈ssen수학러닝센터내손학원","tel":"031-424-5525","addr":"경기도 의왕시 내손동 414-3번지 대림프라자 503호 일부","category":"학원 - 보습학원"},{"name":"씨밀레","tel":"070-8839-7877","addr":"경기도 의왕시 내손동 414-3번지 대림프라자 110-1호","category":"의류 - 정장"},{"name":"아리따움 의왕내손점","tel":"031-425-4556","addr":"경기도 의왕시 내손동 414-3번지 대림프라자 107호","category":"보건위생 - 화장품"},{"name":"아미논술교습소","tel":"031-424-5247","addr":"경기도 의왕시 내손동 414-3번지 대림프라자 3층 301호","category":"학원 - 보습학원"},{"name":"아이원스튜디오","tel":"031-424-1009","addr":"경기도 의왕시 내손동 414-3번지 대림프라자 205호","category":"광학제품 - 사진관"},{"name":"아트&하트 내손센터학원","tel":"031-421-8228","addr":"경기도 의왕시 내손동 414-3번지 대림프라자","category":"회원제형태 - 학원"},{"name":"어바웃요가","tel":"031-425-0918","addr":"경기도 의왕시 내손동 414-3번지 대림프라자 4층 401호","category":"레저업소 - 헬스클럽"},{"name":"언니네 미장원","tel":"031-425-2326","addr":"경기도 의왕시 내손동 414-3번지 대림프라자 101호","category":"보건위생 - 미용원"},{"name":"연세어린이치과","tel":"031-421-2872","addr":"경기도 의왕시 내손동 414-3번지 대림프라자 305호","category":"의원 - 치과의원"},{"name":"오르다 샘앤클래스 학원","tel":"070-7766-3080","addr":"경기도 의왕시 내손동 414-3번지 대림프라자 301호","category":"학원 - 보습학원"},{"name":"용인대삼우체육관","tel":"031-445-6175","addr":"경기도 의왕시 내손동 414-3번지 대림프라자 407호","category":"학원 - 예·체능계학원"},{"name":"이디야커피 의왕내손점","tel":"031-426-0222","addr":"경기도 의왕시 내손동 414-3번지 대림프라자 117호","category":"일반휴게음식 - 서양음식"},{"name":"임동혁내과의원","tel":"031-422-3396","addr":"경기도 의왕시 내손동 414-3번지 대림프라자 3층 304호","category":"의원 - 의원"},{"name":"장충로하스족발","tel":"031-423-5777","addr":"경기도 의왕시 내손동 414-3번지 대림프라자 103호","category":"일반휴게음식 - 일반한식"},{"name":"제이앤제이영어(J&J English)학원","tel":"031-425-9224","addr":"경기도 의왕시 내손동 414-3번지 대림프라자 407호","category":"학원 - 보습학원"},{"name":"주식회사 파티하우스아이니","tel":"070-8888-1222","addr":"경기도 의왕시 내손동 414-3번지 대림프라자 301호","category":"레저업소 - 기타레져업소"},{"name":"찰떡궁합","tel":"031-422-3773","addr":"경기도 의왕시 내손동 414-3번지 대림프라자 116호","category":"음료식품 - 제과점"},{"name":"클라라스(CLARA'S)","tel":"070-7786-4197","addr":"경기도 의왕시 내손동 414-3번지 대림프라자 118호","category":"의류 - 정장"},{"name":"풍년떡방","tel":"031-421-6176","addr":"경기도 의왕시 내손동 414-3번지 대림프라자 106호","category":"음료식품 - 제과점"},{"name":"프라임수학YBM잉글루내손학원","tel":"031-421-1248","addr":"경기도 의왕시 내손동 414-3번지 대림프라자 상가동 504-1호","category":"학원 - 보습학원"},{"name":"프라임수학YBM잉글루내손학원","tel":"031-421-1248","addr":"경기도 의왕시 내손동 414-3번지 대림프라자 상가동 504-1호","category":"학원 - 보습학원"},{"name":"피앤에스음악학원","tel":"031-426-7555","addr":"경기도 의왕시 내손동 414-3번지 대림프라자 504호","category":"학원 - 예·체능계학원"},{"name":"하루엔소쿠 의왕내손점","tel":"031-421-7088","addr":"경기도 의왕시 내손동 414-3번지 대림프라자 113호","category":"일반휴게음식 - 일반한식"},{"name":"한우푸줏간","tel":"031-423-6689","addr":"경기도 의왕시 내손동 414-3번지 대림프라자 115호","category":"음료식품 - 정육점"},{"name":"해미소한의원","tel":"031-424-2110","addr":"경기도 의왕시 내손동 414-3번지 대림프라자 3층 302호","category":"의원 - 한의원"}]},{"lat":"37.3916364639","long":"126.9829732781","items":[{"name":"3D하수구종합설비","tel":"031-422-7441","addr":"경기도 의왕시 내손동 660-8번지 대우다세대 102호","category":"용역 서비스 - 기타용역서비스"}]},{"lat":"37.3857525594","long":"126.9812246333","items":[{"name":"59할인마트","tel":"031-425-0619","addr":"경기도 의왕시 내손동 682-10번지 상가 1층","category":"유통업 영리 - 슈퍼마켓"},{"name":"신진굴비","tel":"","addr":"경기도 의왕시 내손동 682-10번지 102호","category":"음료식품 - 농·축·수산품"}]},{"lat":"37.3888072543","long":"126.9827481849","items":[{"name":"5겹생고기","tel":"031-422-0172","addr":"경기도 의왕시 내손동 651-13번지","category":"일반휴게음식 - 일반한식"},{"name":"네일해","tel":"031-321-2243","addr":"경기도 의왕시 내손동 651-13번지 1층","category":"보건위생 - 미용재료"},{"name":"동우카센타","tel":"031-388-8251","addr":"경기도 의왕시 내손동 651-13번지","category":"자동차정비 유지 - 자동차정비"},{"name":"소리대장간","tel":"031-426-9421","addr":"경기도 의왕시 내손동 651-13번지 104호","category":"보건위생 - 의료용품"}]},{"lat":"37.3871398597","long":"126.9798692148","items":[{"name":"60계치킨 의왕(내손점)","tel":"031-421-2260","addr":"경기도 의왕시 내손동 643-6번지 내손신성프라자 1층 103호","category":"일반휴게음식 - 스넥"},{"name":"공감심리상담연구소","tel":"031-426-7945","addr":"경기도 의왕시 내손동 643-6번지 내손신성프라자 3층 302호","category":"보건위생 - 기타대인서비스"},{"name":"김미현수학학원","tel":"031-425-7535","addr":"경기도 의왕시 내손동 643-6번지 내손신성프라자 503호","category":"학원 - 보습학원"},{"name":"덕원교자","tel":"031-421-0012","addr":"경기도 의왕시 내손동 643-6번지 신성프라자 201호","category":"일반휴게음식 - 일반한식"},{"name":"루리네(RURINE)","tel":"031-395-3383","addr":"경기도 의왕시 내손동 643-6번지 내손신성프라자 301호","category":"일반휴게음식 - 서양음식"},{"name":"미르피부과의원","tel":"031-423-7582","addr":"경기도 의왕시 내손동 643-6번지 내손신성프라자 5층 501,502호","category":"의원 - 의원"},{"name":"밝은온누리약국","tel":"031-423-7006","addr":"경기도 의왕시 내손동 643-6번지 신성프라자 106호","category":"약국 - 약국"},{"name":"서울성모치과","tel":"031-424-7528","addr":"경기도 의왕시 내손동 643-6번지 내손신성프라자 3층 303호","category":"의원 - 치과의원"},{"name":"서울아산김내과의원","tel":"031-424-9111","addr":"경기도 의왕시 내손동 643-6번지 내손신성프라자 402호","category":"의원 - 의원"},{"name":"오픈 스테이지 더 앙상블","tel":"031-458-0202","addr":"경기도 의왕시 내손동 643-6번지 내손신성프라자 504호","category":"학원 - 예·체능계학원"},{"name":"이가 석갈비","tel":"031-421-5592","addr":"경기도 의왕시 내손동 643-6번지 내손신성프라자 201호","category":"일반휴게음식 - 일반한식"},{"name":"주식회사 하젠바이오","tel":"031-426-0111","addr":"경기도 의왕시 내손동 643-6번지 내손신성프라자 401호","category":"보건위생 - 의료용품"},{"name":"참사람검도관","tel":"031-478-2500","addr":"경기도 의왕시 내손동 643-6번지 내손신성프라자 4층 404호","category":"학원 - 예·체능계학원"},{"name":"키즈태권도&파워줄넘기클럽","tel":"031-454-2531","addr":"경기도 의왕시 내손동 643-6번지 내손신성프라자 602호","category":"학원 - 예·체능계학원"},{"name":"테라커피","tel":"02-111-1111","addr":"경기도 의왕시 내손동 643-6번지 내손신성프라자 102호","category":"일반휴게음식 - 서양음식"},{"name":"휴대폰 아울렛","tel":"031-421-2220","addr":"경기도 의왕시 내손동 643-6번지 내손신성프라자 1층 104호","category":"사무통신 - 통신기기"}]},{"lat":"37.3905551868","long":"126.9825896245","items":[{"name":"63동부이발관","tel":"031-394-5144","addr":"경기도 의왕시 내손동 658-1번지 103호","category":"보건위생 - 이용원"},{"name":"금성동부전시장","tel":"031-25-2592","addr":"경기도 의왕시 내손동 658-1번지","category":"전기제품 - 가전제품"},{"name":"황금도깨비효소테라피","tel":"02-422-9887","addr":"경기도 의왕시 내손동 658-1번지 1층 1호","category":"보건위생 - 피부미용실"}]},{"lat":"37.3851941596","long":"126.9825007376","items":[{"name":"673로스터 리","tel":"","addr":"경기도 의왕시 내손동 673-12번지 1층 상가","category":"음료식품 - 기타음료식품"}]},{"lat":"37.3879694356","long":"126.9834710940","items":[{"name":"A. B종합건설","tel":"031-422-6310","addr":"경기도 의왕시 내손동 667-3번지","category":"건축자재 - 보일러·펌프·샷시"}]},{"lat":"37.3790831589","long":"126.9725101931","items":[{"name":"BHC치킨내손갈뫼점","tel":"031-426-9911","addr":"경기도 의왕시 내손동 751번지 메트로주차빌딩 103호","category":"일반휴게음식 - 스넥"},{"name":"레고닥터의왕센터","tel":"031-426-5055","addr":"경기도 의왕시 내손동 751번지 캠퍼스프라자 306호","category":"학원 - 기타 교육기관"},{"name":"비상구네일","tel":"","addr":"경기도 의왕시 내손동 751번지 메트로프라자 102호","category":"보건위생 - 피부미용실"},{"name":"빈티지컬렉션D(VINTAGE COLLECTION D)","tel":"070-4196-8923","addr":"경기도 의왕시 내손동 751번지 108호 메트로주차빌딩 제1층","category":"의류 - 정장"},{"name":"서림","tel":"031-424-3809","addr":"경기도 의왕시 내손동 751번지 메트로주차빌딩 2층 203호","category":"주방용구 - 주방용구"},{"name":"연 요가","tel":"031-425-8983","addr":"경기도 의왕시 내손동 751번지 메트로프라자 2층 201호","category":"레저업소 - 헬스클럽"},{"name":"요리하고술파는남자","tel":"031-000-0000","addr":"경기도 의왕시 내손동 751번지 메트로프라자 1층 101호","category":"일반휴게음식 - 주점"},{"name":"용구비어 계원예대점","tel":"031-426-1174","addr":"경기도 의왕시 내손동 751번지 메트로주차빌딩 105호","category":"일반휴게음식 - 주점"},{"name":"자연담은치킨","tel":"031-424-9277","addr":"경기도 의왕시 내손동 751번지 (204,109)","category":"일반휴게음식 - 스넥"},{"name":"헤어클릭","tel":"031-425-9904","addr":"경기도 의왕시 내손동 751번지 메트로주차빌딩 107호","category":"보건위생 - 미용원"}]},{"lat":"37.3743879261","long":"126.9689783429","items":[{"name":"Desing Album","tel":"","addr":"경기도 의왕시 내손동 814-2번지 1층 101호","category":"광학제품 - 사진관"}]},{"lat":"37.3867523364","long":"126.9794176624","items":[{"name":"Dog 차지","tel":"031-000-0000","addr":"경기도 의왕시 내손동 637번지 보우상가 1층 4호","category":"문화.취미 - 애완동물"},{"name":"가온","tel":"031-426-2588","addr":"경기도 의왕시 내손동 637번지 보우상가 1층 15호","category":"보건위생 - 화장품"},{"name":"김규엽소아청소년과의원","tel":"031-425-7688","addr":"경기도 의왕시 내손동 637번지 보우 상가 2층 2호","category":"의원 - 의원"},{"name":"내손벅스","tel":"031-424-1321","addr":"경기도 의왕시 내손동 637번지 보우상가 7호 8호","category":"일반휴게음식 - 서양음식"},{"name":"내손음악학원","tel":"031-423-3933","addr":"경기도 의왕시 내손동 637번지 보우상가 3층 4호","category":"학원 - 예·체능계학원"},{"name":"내손한솔플러스영어수학학원","tel":"031-423-9822","addr":"경기도 의왕시 내손동 637번지 보우상가 306호","category":"학원 - 보습학원"},{"name":"레이싱과학","tel":"031-425-2849","addr":"경기도 의왕시 내손동 637번지 보우 상가 1층 9호","category":"서적문구 - 완구점"},{"name":"성민수학학원","tel":"031-422-3151","addr":"경기도 의왕시 내손동 637번지 205,206호","category":"학원 - 보습학원"},{"name":"신도오에이시스템","tel":"031-425-3500","addr":"경기도 의왕시 내손동 637번지 보우상가제 지하1층 제6호","category":"사무통신 - 컴퓨터"},{"name":"연세피앤피치과의원","tel":"031-425-3181","addr":"경기도 의왕시 내손동 637번지 보우 상가 203호","category":"의원 - 치과의원"},{"name":"인수한의원","tel":"031-423-2468","addr":"경기도 의왕시 내손동 637번지 보우 상가 201호","category":"의원 - 한의원"}]},{"lat":"37.3894470325","long":"126.9831093634","items":[{"name":"EDP 동안점","tel":"031-444-3336","addr":"경기도 의왕시 내손동 651-6번지 한진빌딩1층상가일부","category":"음료식품 - 기타음료식품"}]},{"lat":"37.3843656353","long":"126.9850076554","items":[{"name":"ELECSERVE 피바트","tel":"031-425-8066","addr":"경기도 의왕시 내손동 701-6번지","category":"전기제품 - 가전제품"}]},{"lat":"37.3791105240","long":"126.9738424758","items":[{"name":"EXAM4YOU어학원(이그잼포유어학원)","tel":"031-425-8887","addr":"경기도 의왕시 내손동 755-1번지 오남프라자 501호~502호","category":"학원 - 기타 교육기관"},{"name":"그린힐스크린골프존","tel":"031-426-2226","addr":"경기도 의왕시 내손동 755-1번지 오남프라자 2층 201,202호","category":"회원제형태 - 레져업소"},{"name":"김동우헬스","tel":"031-424-2006","addr":"경기도 의왕시 내손동 755-1번지 오남프라자 401동 402호","category":"레저업소 - 헬스클럽"},{"name":"다온식당","tel":"031-422-0123","addr":"경기도 의왕시 내손동 755-1번지 오남프라자 106호,107호","category":"일반휴게음식 - 일반한식"},{"name":"더덴라운지","tel":"031-388-3993","addr":"경기도 의왕시 내손동 755-1번지 오남프라자 105호","category":"일반휴게음식 - 서양음식"},{"name":"보드람치킨","tel":"031-422-6262","addr":"경기도 의왕시 내손동 755-1번지 오남프라자 101호","category":"일반휴게음식 - 주점"},{"name":"용인대 대현 유도관","tel":"070-8943-3965","addr":"경기도 의왕시 내손동 755-1번지 오남프라자 701호","category":"학원 - 예·체능계학원"},{"name":"쪽갈비명가","tel":"031-424-3320","addr":"경기도 의왕시 내손동 755-1번지 오남프라자 103,104호","category":"일반휴게음식 - 일반한식"},{"name":"크럭스존","tel":"031-429-8849","addr":"경기도 의왕시 내손동 755-1번지 오남프라자 602호 601","category":"레저업소 - 기타레져업소"}]},{"lat":"37.3856980199","long":"126.9787517860","items":[{"name":"G21영수학원","tel":"031-687-8717","addr":"경기도 의왕시 내손동 846번지 의왕내손이편한세상 204호","category":"학원 - 보습학원"},{"name":"GS25포일대림점","tel":"","addr":"경기도 의왕시 내손동 846번지 의왕내손이편한세상 4단지상가동 103호","category":"유통업 영리 - 편 의 점"},{"name":"그리미미술학원","tel":"031-425-1251","addr":"경기도 의왕시 내손동 846번지 302호 의왕내손E편한세상4단지상가","category":"학원 - 예·체능계학원"},{"name":"달고나 내손정","tel":"031-424-8835","addr":"경기도 의왕시 내손동 846번지 4단지상가동 101호","category":"일반휴게음식 - 서양음식"},{"name":"리베라명품세탁","tel":"031-477-4451","addr":"경기도 의왕시 내손동 846번지 의왕내손이편한세상 105호","category":"수리서비스 - 세탁소"},{"name":"매쓰앤플레이학원","tel":"031-426-4080","addr":"경기도 의왕시 내손동 846번지 4단지 상가 3층 301호","category":"회원제형태 - 학원"},{"name":"미나티 앤 루비제이","tel":"","addr":"경기도 의왕시 내손동 846번지 의왕내손이편한세상 상가동 104호","category":"일반휴게음식 - 서양음식"},{"name":"석사경희태권도","tel":"031-425-4242","addr":"경기도 의왕시 내손동 846번지 303,304호","category":"학원 - 예·체능계학원"},{"name":"시오나헤어 내손점","tel":"031-421-4687","addr":"경기도 의왕시 내손동 846번지 의왕내손이편한세상 1단지 상가동 1층 104호","category":"보건위생 - 미용원"},{"name":"아이엔지필라테스 내손점","tel":"031-426-0025","addr":"경기도 의왕시 내손동 846번지 4단지 상가 2층 201호","category":"레저업소 - 헬스클럽"},{"name":"아이편한어린이집[아이행복]","tel":"031-424-1377","addr":"경기도 의왕시 내손동 846번지 의왕내손이편한세상 관리동","category":"학원 - 유아원"},{"name":"에스제이 (#SJ)","tel":"031-000-0000","addr":"경기도 의왕시 내손동 846번지 의왕내손이편한세상 4단지 상가 106호","category":"보건위생 - 미용원"},{"name":"이화라라발레학원","tel":"031-422-7382","addr":"경기도 의왕시 내손동 846번지 의왕내손이편한세상 201호","category":"학원 - 예·체능계학원"},{"name":"하늘사랑어린이집[아이행복]","tel":"031-421-9887","addr":"경기도 의왕시 내손동 846번지 의왕내손이편한세상4단지 관리동","category":"학원 - 유아원"}]},{"lat":"37.3873295176","long":"126.9822856141","items":[{"name":"GS25내손공원점","tel":"","addr":"경기도 의왕시 내손동 668번지 1층","category":"유통업 영리 - 편 의 점"}]},{"lat":"37.3845540976","long":"126.9805926575","items":[{"name":"GS25내손중앙점","tel":"","addr":"경기도 의왕시 내손동 686-9번지 1층","category":"유통업 영리 - 편 의 점"},{"name":"옛날순대집","tel":"031-425-0660","addr":"경기도 의왕시 내손동 686-9번지","category":"일반휴게음식 - 일반한식"},{"name":"유준","tel":"070-8031-4038","addr":"경기도 의왕시 내손동 686-9번지 101호","category":"보건위생 - 의료용품"}]},{"lat":"37.3834457681","long":"126.9801413346","items":[{"name":"GS25내손포일점","tel":"","addr":"경기도 의왕시 내손동 689-13번지 1층 101호","category":"유통업 영리 - 편 의 점"},{"name":"남훈방앗간","tel":"031-421-6069","addr":"경기도 의왕시 내손동 689-13번지 1층","category":"음료식품 - 제과점"}]},{"lat":"37.3786692089","long":"126.9745878228","items":[{"name":"GS25의왕갈뫼점","tel":"","addr":"경기도 의왕시 내손동 762번지 해피플러스 101~102호","category":"유통업 영리 - 편 의 점"},{"name":"공감수학교습소","tel":"031-423-6331","addr":"경기도 의왕시 내손동 762번지 302호 해피플러스상가투","category":"회원제형태 - 학원"},{"name":"대한요양원","tel":"031-422-7474","addr":"경기도 의왕시 내손동 762번지 해피플러스 401호","category":"기타의료기관 - 기타의료기관 및 기타"},{"name":"미샵(MISHARP)","tel":"070-5031-0327","addr":"경기도 의왕시 내손동 762번지 2층","category":"보건위생 - 화장품"},{"name":"소울음악학원","tel":"031-426-9990","addr":"경기도 의왕시 내손동 762번지 해피플러스 303호","category":"학원 - 예·체능계학원"},{"name":"야돌프네","tel":"031-421-3655","addr":"경기도 의왕시 내손동 762번지 해피플러스 1층 104호","category":"일반휴게음식 - 일반한식"}]},{"lat":"37.3748383444","long":"126.9686733106","items":[{"name":"GS25의왕내손점","tel":"031-451-1003","addr":"경기도 의왕시 내손동 812-2번지","category":"유통업 영리 - 편 의 점"}]},{"lat":"37.3794705649","long":"126.9723971301","items":[{"name":"GS25의왕대림점","tel":"02-2006-2485","addr":"경기도 의왕시 내손동 748 대림프라자 107호","category":"유통업 영리 - 편 의 점"},{"name":"국대포차 의왕내손점","tel":"031-427-4777","addr":"경기도 의왕시 내손동 748번지 대림프라자 103호","category":"일반휴게음식 - 주점"},{"name":"바보스 의왕내손점","tel":"031-424-0925","addr":"경기도 의왕시 내손동 748번지 대림프라자 101호","category":"일반휴게음식 - 주점"},{"name":"뷰티플러스","tel":"031-423-1285","addr":"경기도 의왕시 내손동 748번지 대림프라자 401호","category":"보건위생 - 화장품"},{"name":"설빙계원예대점","tel":"031-424-2300","addr":"경기도 의왕시 내손동 748번지 대림프라자 203호","category":"일반휴게음식 - 스넥"},{"name":"신장곱창","tel":"031-426-4477","addr":"경기도 의왕시 내손동 748번지 대림프라자 108호","category":"일반휴게음식 - 일반한식"},{"name":"아미(ami)","tel":"031-426-3370","addr":"경기도 의왕시 내손동 748번지 대림프라자 501호","category":"일반휴게음식 - 일반한식"},{"name":"안경마트","tel":"031-426-3113","addr":"경기도 의왕시 내손동 748번지 대림프라자 105호","category":"보건위생 - 안경"},{"name":"에이스당구장","tel":"031-426-8886","addr":"경기도 의왕시 내손동 748번지 대림프라자 402호","category":"레저업소 - 당 구 장"},{"name":"우리동네","tel":"031-426-8026","addr":"경기도 의왕시 내손동 748번지 대림프라자 201호","category":"일반휴게음식 - 주점"},{"name":"진사골","tel":"031-424-7999","addr":"경기도 의왕시 내손동 748번지 대림프라자 104호","category":"일반휴게음식 - 일반한식"},{"name":"짝태&노가리","tel":"070-7759-9401","addr":"경기도 의왕시 내손동 748번지 대림프라자 106호","category":"일반휴게음식 - 주점"},{"name":"채플린노래방","tel":"031-426-3309","addr":"경기도 의왕시 내손동 748번지 대림프라자 502동 503호","category":"레저업소 - 노 래 방"},{"name":"타이향","tel":"031-424-2221","addr":"경기도 의왕시 내손동 748번지 대림프라자 3층 303호","category":"보건위생 - 기타대인서비스"},{"name":"포토엔젤","tel":"031-423-4747","addr":"경기도 의왕시 내손동 748번지 대림타운 301호","category":"광학제품 - 사진관"},{"name":"프로팀스타복싱 의왕점","tel":"031-0000-0000","addr":"경기도 의왕시 내손동 748번지 대림프라자 601호","category":"레저업소 - 헬스클럽"}]},{"lat":"37.3913034692","long":"126.9853673661","items":[{"name":"GS25의왕백운점","tel":"","addr":"경기도 의왕시 내손동 664-10번지 1층","category":"유통업 영리 - 편 의 점"},{"name":"가마솥순대국","tel":"031-421-4495","addr":"경기도 의왕시 내손동 664-10번지","category":"일반휴게음식 - 일반한식"}]},{"lat":"37.3911136564","long":"126.9816973724","items":[{"name":"GS25의왕수정점","tel":"","addr":"경기도 의왕시 내손동 653-5번지","category":"유통업 영리 - 편 의 점"},{"name":"우성장식","tel":"031-422-4804","addr":"경기도 의왕시 내손동 653-5번지","category":"직물 - 카페트,커튼,천막,지물"},{"name":"호산나유리","tel":"031-425-4896","addr":"경기도 의왕시 내손동 653-5","category":"건축자재 - 유리"}]},{"lat":"37.3752261040","long":"126.9698134287","items":[{"name":"IAN POTTERY(이안포터리)","tel":"","addr":"경기도 의왕시 내손동 801-7번지 101호","category":"문화.취미 - 민예·공예품"}]},{"lat":"37.3862749355","long":"126.9801066049","items":[{"name":"J의 응접실","tel":"070-4211-4182","addr":"경기도 의왕시 내손동 637-21번지 궁전빌라 9동 302호","category":"건강식품 - 기타건강식품"},{"name":"그린유통","tel":"031-426-5477","addr":"경기도 의왕시 내손동 637-21번지 궁전빌라 9동 101호","category":"음료식품 - 농·축·수산품"}]},{"lat":"37.3788316454","long":"126.9756716577","items":[{"name":"LINA SKINCARE(리나스킨케어)","tel":"031-429-9732","addr":"경기도 의왕시 내손동 757-4번지 반도프라자 201-2호","category":"회원제형태 - 기타4"}]},{"lat":"37.3913570368","long":"126.9823070968","items":[{"name":"PC cafe'3S","tel":"031-423-9792","addr":"경기도 의왕시 내손동 660-3번지 PCCAFE 3 SPC방","category":"레저업소 - 기타레져업소"},{"name":"홍익한의원","tel":"031-422-0551","addr":"경기도 의왕시 내손동 660-3번지","category":"의원 - 한의원"}]},{"lat":"37.3886347271","long":"126.9760294599","items":[{"name":"SKY(스카이)수학학원","tel":"031-424-0802","addr":"경기도 의왕시 내손동 631-2번지 건형상가 306호","category":"회원제형태 - 학원"},{"name":"건영수선","tel":"","addr":"경기도 의왕시 내손동 631-2번지 1층 114-1호","category":"수리서비스 - 세탁소"},{"name":"건형미용실","tel":"031-425-6457","addr":"경기도 의왕시 내손동 631-2번지 건형상가 1층","category":"보건위생 - 미용원"},{"name":"김비뇨기과의원","tel":"031-423-0694","addr":"경기도 의왕시 내손동 631-2번지 건형종합상가 205호","category":"의원 - 의원"},{"name":"꽃티움","tel":"031-383-3602","addr":"경기도 의왕시 내손동 631-2번지 건형상가 103호","category":"문화.취미 - 화원"},{"name":"나비드엘","tel":"070-7514-2310","addr":"경기도 의왕시 내손동 631-2번지 1층 110-2호","category":"의류 - 정장"},{"name":"누구나복권방","tel":"031-422-8090","addr":"경기도 의왕시 내손동 631-2번지 건형상가 102호","category":"유통업 영리 - 슈퍼마켓"},{"name":"데일리(daily)","tel":"02-2025-1170","addr":"경기도 의왕시 내손동 631-2번지 110-3호","category":"의류 - 정장"},{"name":"라라피아노교습소","tel":"031-425-7705","addr":"경기도 의왕시 내손동 631-2번지 건형상가","category":"학원 - 예·체능계학원"},{"name":"라임오렌지나무심리상담센터","tel":"031-421-0149","addr":"경기도 의왕시 내손동 631-2번지 건형상가 304호","category":"보건위생 - 기타대인서비스"},{"name":"박동우이비인후과","tel":"031-425-4812","addr":"경기도 의왕시 내손동 631-2번지 건형상가 209호","category":"의원 - 의원"},{"name":"배키(BAEKI)","tel":"","addr":"경기도 의왕시 내손동 631-2번지 건형상가 지하층 5호","category":"주방용구 - 주방용식기"},{"name":"별미실","tel":"031-385-7773","addr":"경기도 의왕시 내손동 631-2번지 건형상가 3층 302,303호","category":"일반휴게음식 - 일반한식"},{"name":"별하스터디센터의왕포일독서실","tel":"031-385-7773","addr":"경기도 의왕시 내손동 631-2번지 건형상가 301,302,303호 일부","category":"학원 - 독서실"},{"name":"삼성카센타","tel":"031-21-9990","addr":"경기도 의왕시 내손동 631-2번지 건형상가 117호","category":"자동차정비 유지 - 자동차정비"},{"name":"소망치과의원","tel":"031-425-2872","addr":"경기도 의왕시 내손동 631-2번지 건형상가 207호","category":"의원 - 치과의원"},{"name":"손안과의원","tel":"031-425-5442","addr":"경기도 의왕시 내손동 631-2번지 건형상가 2층","category":"의원 - 의원"},{"name":"손톱달","tel":"070-4224-1056","addr":"경기도 의왕시 내손동 631-2번지 건형상가 104호","category":"보건위생 - 화장품"},{"name":"씨야썬","tel":"070-7720-9000","addr":"경기도 의왕시 내손동 631-2번지 건형 상가 105호","category":"의류 - 정장"},{"name":"아이미","tel":"031-426-2080","addr":"경기도 의왕시 내손동 631-2번지 건형상가 2층 202호","category":"회원제형태 - 기타1"},{"name":"야누스인테리어","tel":"031-424-3387","addr":"경기도 의왕시 내손동 631-2번지 건형상가 1층 116호","category":"건축자재 - 인테리어전문"},{"name":"옷가게","tel":"031-425-8198","addr":"경기도 의왕시 내손동 631-2번지 건형상가 112-1호","category":"의류 - 정장"},{"name":"이네이처PC의왕내손점","tel":"","addr":"경기도 의왕시 내손동 631-2번지 지하1층","category":"레저업소 - 기타레져업소"},{"name":"작은카페","tel":"031-423-7414","addr":"경기도 의왕시 내손동 631-2번지 건형상가 104호","category":"일반휴게음식 - 서양음식"},{"name":"전예석학원","tel":"031-425-3131","addr":"경기도 의왕시 내손동 631-2번지 건형상가 302호","category":"학원 - 기타 교육기관"},{"name":"정한의원","tel":"031-25-6352","addr":"경기도 의왕시 내손동 631-2번지 건형상가 2층","category":"의원 - 한의원"},{"name":"찬.장","tel":"031-423-9225","addr":"경기도 의왕시 내손동 631-2번지 건형상가 1층 109-1호","category":"음료식품 - 기타음료식품"},{"name":"코코네일","tel":"031-423-3303","addr":"경기도 의왕시 내손동 631-2번지 건형상가 112호","category":"보건위생 - 피부미용실"},{"name":"프린스안경","tel":"031-25-3316","addr":"경기도 의왕시 내손동 631-2번지 건형상가 106호","category":"보건위생 - 안경"},{"name":"할매사철탕","tel":"031-25-3291","addr":"경기도 의왕시 내손동 631-2번지","category":"일반휴게음식 - 일반한식"},{"name":"헤어살롱 써니","tel":"031-466-6775","addr":"경기도 의왕시 내손동 631-2번지 건형상가 105호","category":"보건위생 - 미용원"}]},{"lat":"37.3894197919","long":"126.9818898161","items":[{"name":"SYC라이팅","tel":"031-421-0722","addr":"경기도 의왕시 내손동 652-17번지 2호","category":"건축자재 - 조명기구"},{"name":"바바헤어(BABAhair)","tel":"031-385-3501","addr":"경기도 의왕시 내손동 652-17번지","category":"보건위생 - 미용원"},{"name":"엘앤디글로벌보습학원","tel":"031-423-2002","addr":"경기도 의왕시 내손동 652-17번지 2층","category":"학원 - 보습학원"}]},{"lat":"37.3868335533","long":"126.9800612687","items":[{"name":"Spa리파인","tel":"031-422-7942","addr":"경기도 의왕시 내손동 643-19번지 2층","category":"회원제형태 - 기타4"},{"name":"날개도시","tel":"","addr":"경기도 의왕시 내손동 643-19번지","category":"의류 - 정장"},{"name":"천연염색머리방","tel":"031-421-6882","addr":"경기도 의왕시 내손동 643-19번지 103호","category":"보건위생 - 화장품"},{"name":"포유","tel":"031-425-1824","addr":"경기도 의왕시 내손동 643-19번지 의왕상가 2호","category":"의류 - 기타의류"}]},{"lat":"37.3854463758","long":"126.9821167558","items":[{"name":"S헤어","tel":"031-421-9678","addr":"경기도 의왕시 내손동 673번지 지하1층","category":"보건위생 - 미용원"}]},{"lat":"37.3865256568","long":"126.9730830692","items":[{"name":"We 키즈 짐","tel":"031-422-6786","addr":"경기도 의왕시 내손동 619번지 2층","category":"회원제형태 - 레져업소"},{"name":"평촌인","tel":"031-292-0705","addr":"경기도 의왕시 내손동 619번지 1,2층","category":"레저업소 - 헬스클럽"}]},{"lat":"37.3790295675","long":"126.9743957470","items":[{"name":"YOGA청라","tel":"070-7007-5050","addr":"경기도 의왕시 내손동 755-4번지 명성프라자 301호","category":"회원제형태 - 레져업소"},{"name":"교촌치킨 내손갈뫼점","tel":"031-426-0394","addr":"경기도 의왕시 내손동 755-4번지 명성프라자 107호","category":"일반휴게음식 - 스넥"},{"name":"다짐필라테스 의왕점","tel":"","addr":"경기도 의왕시 내손동 755-4번지 명성프라자 3층 303호","category":"레저업소 - 헬스클럽"},{"name":"뚱이네고깃간","tel":"031-425-9290","addr":"경기도 의왕시 내손동 755-4번지 명성프라자 101호","category":"일반휴게음식 - 일반한식"},{"name":"라렌느시저(가위여왕)","tel":"031-423-3358","addr":"경기도 의왕시 내손동 755-4번지 명성프라자 3층 306호","category":"보건위생 - 미용원"},{"name":"명성사우나","tel":"031-421-6577","addr":"경기도 의왕시 내손동 755-4번지 명성프라자","category":"보건위생 - 사우나"},{"name":"명성칼국수","tel":"031-425-5355","addr":"경기도 의왕시 내손동 755-4번지 명성프라자 104호","category":"일반휴게음식 - 일반한식"},{"name":"봉구비어","tel":"031-429-8953","addr":"경기도 의왕시 내손동 755-4번지 명성프라자 113호","category":"일반휴게음식 - 주점"},{"name":"세븐일레븐의왕내손점","tel":"031-1577-0711","addr":"경기도 의왕시 내손동 755-4번지 명성프라자 제1층 108호,109호","category":"유통업 영리 - 편 의 점"},{"name":"슬라임 에이블 카페","tel":"031-424-7902","addr":"경기도 의왕시 내손동 755-4번지 명성프라자 2층 203호","category":"일반휴게음식 - 서양음식"},{"name":"알앤비바","tel":"031-424-4920","addr":"경기도 의왕시 내손동 755-4번지 명성프라자 302호","category":"일반휴게음식 - 일반한식"},{"name":"엣지","tel":"070-8268-1727","addr":"경기도 의왕시 내손동 755-4번지 명성프라자 201-1호","category":"일반휴게음식 - 서양음식"},{"name":"예당","tel":"031-426-0806","addr":"경기도 의왕시 내손동 755-4번지","category":"일반휴게음식 - 일반한식"},{"name":"웰빙촌메밀막국수","tel":"031-423-9005","addr":"경기도 의왕시 내손동 755-4번지 명성프라자 1층 106호","category":"일반휴게음식 - 일반한식"},{"name":"윤쓰포차","tel":"070-7452-4956","addr":"경기도 의왕시 내손동 755-4번지 명성프라자 1층 111호","category":"일반휴게음식 - 주점"},{"name":"전원주의 손큰 할매순대국","tel":"031-426-2677","addr":"경기도 의왕시 내손동 755-4번지 명성프라자 103호","category":"일반휴게음식 - 일반한식"},{"name":"조개세상","tel":"031-426-0292","addr":"경기도 의왕시 내손동 755-4번지 명성프라자 110호","category":"일반휴게음식 - 일반한식"},{"name":"지리산토속촌","tel":"031-423-3005","addr":"경기도 의왕시 내손동 755-4번지 명성프라자 105호","category":"일반휴게음식 - 일반한식"},{"name":"초콜릿","tel":"031-422-2677","addr":"경기도 의왕시 내손동 755-4번지 명성프라자 114호","category":"의류 - 정장"},{"name":"촌놈족발","tel":"031-425-1616","addr":"경기도 의왕시 내손동 755-4번지 명성프라자 102호","category":"일반휴게음식 - 일반한식"},{"name":"키멘라멘","tel":"","addr":"경기도 의왕시 내손동 755-4번지 명성프라자 1층 112호","category":"일반휴게음식 - 일식·회집"},{"name":"토니버거(TONY BURGER) 계원예대점","tel":"031-422-2677","addr":"경기도 의왕시 내손동 755-4번지 명성프라자 104호","category":"일반휴게음식 - 일반한식"},{"name":"행복한회사","tel":"031-424-1118","addr":"경기도 의왕시 내손동 755-4번지 명성프라자 2층 201호","category":"보건위생 - 의료용품"}]},{"lat":"37.3908342116","long":"126.9809747386","items":[{"name":"YS과학교습소","tel":"02-502-9783","addr":"경기도 의왕시 내손동 653번지 2층","category":"학원 - 보습학원"},{"name":"가톨릭의료소비자연대","tel":"070-4086-5111","addr":"경기도 의왕시 내손동 653번지 201호","category":"음료식품 - 농·축·수산품"},{"name":"묵호항횟집","tel":"031-423-5982","addr":"경기도 의왕시 내손동 653번지","category":"일반휴게음식 - 일반한식"},{"name":"바로국물떡볶이","tel":"070-4155-7345","addr":"경기도 의왕시 내손동 653번지","category":"일반휴게음식 - 스넥"},{"name":"찌개전문","tel":"031-424-3974","addr":"경기도 의왕시 내손동 653번지 1층","category":"일반휴게음식 - 일반한식"}]},{"lat":"37.3893657473","long":"126.9819801685","items":[{"name":"e-편한세탁","tel":"031-424-2977","addr":"경기도 의왕시 내손동 652-16번지","category":"수리서비스 - 세탁소"},{"name":"피부이야기","tel":"031-426-9092","addr":"경기도 의왕시 내손동 652-16번지 101호","category":"회원제형태 - 기타4"}]},{"lat":"37.3791375042","long":"126.9736392340","items":[{"name":"e-하얀치과의원","tel":"031-423-2234","addr":"경기도 의왕시 내손동 755번지 우성메디칼센터 3층","category":"의원 - 치과의원"},{"name":"경희원도태권도장","tel":"061-424-1910","addr":"경기도 의왕시 내손동 755번지 우성메디컬센타 502호","category":"학원 - 예·체능계학원"},{"name":"김명희스킨앤바디","tel":"031-422-0025","addr":"경기도 의왕시 내손동 755번지 우성메디칼센터","category":"회원제형태 - 기타4"},{"name":"나루세무회계컨설팅","tel":"031-349-3300","addr":"경기도 의왕시 내손동 755번지 우성메디컬센타 7층 6호","category":"용역 서비스 - 법률회계서비스(개인)"},{"name":"매쓰멘토수학학원","tel":"031-423-8060","addr":"경기도 의왕시 내손동 755번지 우성메디칼센터 401호","category":"학원 - 보습학원"},{"name":"몸반테라피","tel":"031-426-5261","addr":"경기도 의왕시 내손동 755번지 우성메디컬센타 2층 201호","category":"보건위생 - 피부미용실"},{"name":"살롱드별(Salon de Byul)","tel":"","addr":"경기도 의왕시 내손동 755번지 우성메디칼센터 1층 101호","category":"보건위생 - 미용원"},{"name":"생태랑","tel":"031-425-1312","addr":"경기도 의왕시 내손동 755번지 우성메디칼 104호","category":"일반휴게음식 - 일반한식"},{"name":"에프엠씨(FMC)","tel":"031-423-3620","addr":"경기도 의왕시 내손동 755번지 우성메디컬센터 601호","category":"사무통신 - 컴퓨터"},{"name":"예인한의원","tel":"031-426-3133","addr":"경기도 의왕시 내손동 755번지 우성메디컬센터 203호","category":"의원 - 한의원"},{"name":"옥천냉면생바지락칼국수","tel":"031-423-5871","addr":"경기도 의왕시 내손동 755번지 우성메디컬센타 202호","category":"일반휴게음식 - 일반한식"},{"name":"우성메디칼약국","tel":"031-426-0289","addr":"경기도 의왕시 내손동 755번지 우성메디칼약국 103호","category":"약국 - 약국"},{"name":"카페 인(cafe, in)","tel":"031-422-6164","addr":"경기도 의왕시 내손동 755번지 우성메디컬센타 105호","category":"일반휴게음식 - 서양음식"},{"name":"튼튼영어 베이비리그 경기 의왕 과천 센터","tel":"","addr":"경기도 의왕시 내손동 755번지 우성메디컬센타 6층 601호","category":"서적문구 - 일반서적"},{"name":"플레이팩토영수학원","tel":"031-426-0722","addr":"경기도 의왕시 내손동 755번지 우성메디칼센터 601호","category":"학원 - 외국어학원"},{"name":"피자준","tel":"031-424-2665","addr":"경기도 의왕시 내손동 755번지 우성메디칼빌딩 102호","category":"일반휴게음식 - 서양음식"}]},{"lat":"37.3861928489","long":"126.9754205800","items":[{"name":"e-해법수학","tel":"031-8033-7205","addr":"경기도 의왕시 내손동 622-11번지","category":"학원 - 보습학원"},{"name":"깜장머리","tel":"031-466-8634","addr":"경기도 의왕시 내손동 622-11번지","category":"보건위생 - 미용원"},{"name":"리즈브레드(Lee's Bread)","tel":"031-7864-1177","addr":"경기도 의왕시 내손동 622-11번지 1층 101호","category":"음료식품 - 제과점"},{"name":"스텔라영어","tel":"031-422-7894","addr":"경기도 의왕시 내손동 622-11번지 2층 일부","category":"학원 - 외국어학원"},{"name":"이루미독서논술학원","tel":"031-422-0987","addr":"경기도 의왕시 내손동 622-11번지","category":"회원제형태 - 학원"},{"name":"케이 콜라보김밥","tel":"031-000-0000","addr":"경기도 의왕시 내손동 622-11번지 1층","category":"일반휴게음식 - 스넥"}]},{"lat":"37.3797505751","long":"126.9752309875","items":[{"name":"가다 컴퍼니 (GADA Company)","tel":"070-4104-6388","addr":"경기도 의왕시 내손동 739-4번지 성삼아이비즈 2층 202호","category":"의류 - 정장"},{"name":"나이스물류","tel":"031-000-0000","addr":"경기도 의왕시 내손동 739-4번지 성삼아이비즈 1306호","category":"의류 - 정장"},{"name":"남매카페","tel":"031-424-8004","addr":"경기도 의왕시 내손동 739-4번지 성삼아이비즈 101호","category":"일반휴게음식 - 서양음식"},{"name":"더랩컴퍼니","tel":"031-416-4565","addr":"경기도 의왕시 내손동 739-4번지 성삼아이비즈 302-1호","category":"서적문구 - 과학기자재"},{"name":"앤더(ANDER)","tel":"","addr":"경기도 의왕시 내손동 739-4번지 성삼아이비즈 606호","category":"신변잡화 - 액세서리"},{"name":"쿠피","tel":"031-423-2230","addr":"경기도 의왕시 내손동 739-4번지 성삼아이비즈 3층 302호","category":"신변잡화 - 기념품점"}]},{"lat":"37.3878323709","long":"126.9740875339","items":[{"name":"가델","tel":"070-8261-5465","addr":"경기도 의왕시 내손동 404-2번지 1층 4호","category":"의류 - 정장"},{"name":"리라케이크","tel":"031-1111-1111","addr":"경기도 의왕시 내손동 404-2번지 1층","category":"문화.취미 - 문화취미기타"},{"name":"베이킹with루이스","tel":"031-422-3326","addr":"경기도 의왕시 내손동 404-2번지","category":"음료식품 - 제과점"}]},{"lat":"37.3905010931","long":"126.9823976695","items":[{"name":"가락축산","tel":"031-425-5800","addr":"경기도 의왕시 내손동 658번지 1층","category":"음료식품 - 정육점"},{"name":"김가네손칼국수","tel":"031-421-5733","addr":"경기도 의왕시 내손동 658번지 1층","category":"일반휴게음식 - 일반한식"}]},{"lat":"37.3710586082","long":"126.9927779337","items":[{"name":"가야금","tel":"031-426-3513","addr":"경기도 의왕시 내손동 140번지","category":"일반휴게음식 - 일반한식"}]},{"lat":"37.3858876694","long":"126.9809987616","items":[{"name":"각시방가구","tel":"031-425-3012","addr":"경기도 의왕시 내손동 683-11번지","category":"가구 - 일반가구"},{"name":"개인과외","tel":"031-424-1255","addr":"경기도 의왕시 내손동 683-11번지 202호","category":"회원제형태 - 학원"},{"name":"배우정육점","tel":"031-421-3598","addr":"경기도 의왕시 내손동 683-11번지","category":"음료식품 - 정육점"},{"name":"안양열무냉면","tel":"031-344-2121","addr":"경기도 의왕시 내손동 683-11번지 1층","category":"일반휴게음식 - 일반한식"},{"name":"정보석","tel":"031-25-7212","addr":"경기도 의왕시 내손동 683-11번지","category":"신변잡화 - 시계"}]},{"lat":"37.3756683787","long":"126.9727260824","items":[{"name":"갈뫼경희태권도장","tel":"031-421-0980","addr":"경기도 의왕시 내손동 774번지 반도보리빌리지2단지 상가동 201호","category":"학원 - 예·체능계학원"},{"name":"밀맥","tel":"031-458-8164","addr":"경기도 의왕시 내손동 774번지 반도보라빌리지2단지 103호","category":"일반휴게음식 - 스넥"},{"name":"신반도마트","tel":"031-426-8119","addr":"경기도 의왕시 내손동 774번지 반도보라빌리지2단지 상가동 104호","category":"유통업 영리 - 슈퍼마켓"},{"name":"코코헤어","tel":"031-423-0701","addr":"경기도 의왕시 내손동 774번지 반도보라빌리지2단지 103호","category":"보건위생 - 미용원"}]},{"lat":"37.3754781670","long":"126.9690343025","items":[{"name":"갈뫼유치원[아이행복]","tel":"031-429-6723","addr":"경기도 의왕시 내손동 805번지","category":"학원 - 유치원"}]},{"lat":"37.3774438518","long":"126.9746673158","items":[{"name":"갈뫼중학교","tel":"031-425-3215","addr":"경기도 의왕시 내손동 785번지 갈뫼중학교","category":"학원 - 초중고교육기관"}]},{"lat":"37.3765332285","long":"126.9722515461","items":[{"name":"갈뫼초등학교","tel":"031-426-6704","addr":"경기도 의왕시 내손동 780번지 갈뫼초등학교","category":"학원 - 초중고교육기관"},{"name":"갈뫼초등학교병설유치원[아이행복]","tel":"031-426-6706","addr":"경기도 의왕시 내손동 780번지 갈뫼초등학교","category":"학원 - 유치원"}]},{"lat":"37.3736447610","long":"126.9962548466","items":[{"name":"감나무골","tel":"031-426-1245","addr":"경기도 의왕시 내손동 58-1번지","category":"일반휴게음식 - 일반한식"}]},{"lat":"37.3796685899","long":"126.9716405725","items":[{"name":"강남꼬치일번가","tel":"031-426-5979","addr":"경기도 의왕시 내손동 746번지 롯데프라자 107호","category":"일반휴게음식 - 일반한식"},{"name":"계원통신","tel":"031-426-3626","addr":"경기도 의왕시 내손동 746번지 롯데프라자 103호","category":"사무통신 - 통신기기"},{"name":"권이비인후과의원","tel":"031-423-7733","addr":"경기도 의왕시 내손동 746번지 롯데프라자 303호","category":"의원 - 의원"},{"name":"글라스스토리의왕점","tel":"031-383-1111","addr":"경기도 의왕시 내손동 746번지 롯데프라자 102호","category":"보건위생 - 안경"},{"name":"롯데메디칼약국","tel":"031-426-1248","addr":"경기도 의왕시 내손동 746번지 롯데프라자 101호","category":"약국 - 약국"},{"name":"롯데수비뇨기과의원","tel":"031-424-1230","addr":"경기도 의왕시 내손동 746번지 롯데프라자 301호","category":"의원 - 의원"},{"name":"롯데정내과","tel":"031-426-3486","addr":"경기도 의왕시 내손동 746번지 롯데프라자 402호","category":"의원 - 의원"},{"name":"리사운드보청기","tel":"031-423-7733","addr":"경기도 의왕시 내손동 746번지 롯데프라자 303호","category":"보건위생 - 의료용품"},{"name":"서울플러스치과","tel":"031-422-2804","addr":"경기도 의왕시 내손동 746번지 롯데프라자 302호","category":"병원 - 치과병원"},{"name":"소리샘통신","tel":"031-421-6010","addr":"경기도 의왕시 내손동 746번지 롯데프라자 106호","category":"사무통신 - 통신기기"},{"name":"신농씨한의원","tel":"031-423-7580","addr":"경기도 의왕시 내손동 746번지 롯데프라자 403호","category":"의원 - 한의원"},{"name":"아름다운가정의학과의원","tel":"031-426-1075","addr":"경기도 의왕시 내손동 746번지 롯데프라자 202호","category":"의원 - 의원"},{"name":"예일안과","tel":"031-426-8118","addr":"경기도 의왕시 내손동 746번지 롯데메디칼 401호","category":"의원 - 의원"},{"name":"온헤어(ON HAIR)","tel":"031-423-8770","addr":"경기도 의왕시 내손동 746번지 롯데프라자 201호","category":"보건위생 - 미용원"},{"name":"하브루타교육학원","tel":"031-424-5575","addr":"경기도 의왕시 내손동 746번지 롯데프라자 401,503호","category":"학원 - 보습학원"}]},{"lat":"37.3903572556","long":"126.9843625707","items":[{"name":"개똥이네어린이집[아이행복]","tel":"031-422-3281","addr":"경기도 의왕시 내손동 656-11번지","category":"학원 - 유아원"},{"name":"개똥이네어린이집[아이행복]","tel":"031-422-3281","addr":"경기도 의왕시 내손동 656-11번지","category":"학원 - 유아원"}]},{"lat":"37.3863099672","long":"126.9753640787","items":[{"name":"개미미용실","tel":"031-423-5180","addr":"경기도 의왕시 내손동 622-3번지","category":"보건위생 - 미용원"},{"name":"나무정원","tel":"02-1234-1234","addr":"경기도 의왕시 내손동 622-3번지 201호","category":"일반휴게음식 - 서양음식"},{"name":"미소야 내손점","tel":"031-421-1789","addr":"경기도 의왕시 내손동 622-3번지 1층","category":"일반휴게음식 - 일식·회집"},{"name":"창작나라조형마을","tel":"031-424-1231","addr":"경기도 의왕시 내손동 622-3번지","category":"문화.취미 - 민예·공예품"},{"name":"탐큐배울터학원","tel":"","addr":"경기도 의왕시 내손동 622-3번지 3층 일부 302호","category":"학원 - 보습학원"}]},{"lat":"37.3834190171","long":"126.9816430817","items":[{"name":"거송종합공사","tel":"031-425-0403","addr":"경기도 의왕시 내손동 696-10번지 101호","category":"용역 서비스 - 기타용역서비스"},{"name":"은혜약국","tel":"031-425-0524","addr":"경기도 의왕시 내손동 696-10번지","category":"약국 - 약국"}]},{"lat":"37.3777583522","long":"126.9712913620","items":[{"name":"건강독서문화연구소","tel":"031-425-8854","addr":"경기도 의왕시 내손동 791번지 의왕내손주공아파트","category":"건강식품 - 기타건강식품"},{"name":"꽃집","tel":"070-2699-0807","addr":"경기도 의왕시 내손동 791번지 의왕내손주공아파트","category":"문화.취미 - 화원"},{"name":"카페라네","tel":"070-2699-0807","addr":"경기도 의왕시 내손동 791번지 의왕내손주공아파트","category":"음료식품 - 기타음료식품"}]},{"lat":"37.3847240045","long":"126.9745855473","items":[{"name":"겐스헤어","tel":"031-422-6202","addr":"경기도 의왕시 내손동 844 일원포일자이상가라동2층203호","category":"보건위생 - 미용원"},{"name":"달고나 포일자이점","tel":"02-1111-1111","addr":"경기도 의왕시 내손동 844번지","category":"일반휴게음식 - 서양음식"},{"name":"데카수학교습소","tel":"","addr":"경기도 의왕시 내손동 844번지","category":"학원 - 보습학원"},{"name":"미","tel":"031-421-0333","addr":"경기도 의왕시 내손동 844번지 포일자이 상가 가동 118호","category":"회원제형태 - 기타4"},{"name":"비에이치씨 내손점","tel":"031-422-1379","addr":"경기도 의왕시 내손동 844번지","category":"일반휴게음식 - 스넥"},{"name":"손끝차이","tel":"031-388-1011","addr":"경기도 의왕시 내손동 844번지 외6필지 포일자이제상가다동102호","category":"보건위생 - 미용원"},{"name":"쌍둥이정육","tel":"031-751-3277","addr":"경기도 의왕시 내손동 844번지 포일자이아파트 가동 1층 02호","category":"음료식품 - 정육점"},{"name":"어텐션타임","tel":"031-425-8818","addr":"경기도 의왕시 내손동 844번지 포일자이 상가 가 -205호","category":"회원제형태 - 학원"},{"name":"엄선생Sofia음악원","tel":"031-425-6655","addr":"경기도 의왕시 내손동 844 외6필지포일자이상가 가-206","category":"학원 - 예·체능계학원"},{"name":"자이키즈랜드어린이집[아이행복]","tel":"031-422-0434","addr":"경기도 의왕시 내손동 844번지","category":"학원 - 유아원"},{"name":"헤어 라벨르(Hair La belle)","tel":"031-421-8393","addr":"경기도 의왕시 내손동 844번지 포일자이아파트 가동 122호","category":"보건위생 - 미용원"},{"name":"헤어비즈","tel":"031-424-2077","addr":"경기도 의왕시 내손동 844번지 포일자이 상가 나동 1층 103호","category":"보건위생 - 미용원"}]},{"lat":"37.3787771552","long":"126.9738651855","items":[{"name":"경기남부두레생협(의왕점)","tel":"031-426-6665","addr":"경기도 의왕시 내손동 762-3번지 삼대프라자 102호","category":"유통업 영리 - 슈퍼마켓"},{"name":"모닝마트","tel":"031-423-9277","addr":"경기도 의왕시 내손동 762-3번지 삼대프라자 105호,106호,107호","category":"유통업 영리 - 슈퍼마켓"},{"name":"주식회사 에스에스팜","tel":"031-426-8607","addr":"경기도 의왕시 내손동 762-3번지 삼대프라자 402호","category":"약국 - 제약회사"},{"name":"하늘푸줏간","tel":"031-426-0441","addr":"경기도 의왕시 내손동 762-3번지 삼대프라자 1층 103호","category":"음료식품 - 정육점"}]},{"lat":"37.3834733699","long":"126.9833367581","items":[{"name":"경남배터리상사","tel":"031-421-0703","addr":"경기도 의왕시 내손동 698-1번지 1층 102호","category":"전기제품 - 기타전기제품"}]},{"lat":"37.3791556298","long":"126.9740682710","items":[{"name":"계원고시텔","tel":"031-347-5100","addr":"경기도 의왕시 내손동 755-2번지 미원파크빌 201동 201호 ,202,203호","category":"학원 - 독서실"},{"name":"니마헤어","tel":"031-425-9120","addr":"경기도 의왕시 내손동 755-2번지 미원파크빌 201동 102호","category":"보건위생 - 미용원"},{"name":"예술","tel":"070-4401-5651","addr":"경기도 의왕시 내손동 755-2번지 미원파크빌 201동 101호","category":"일반휴게음식 - 일반한식"},{"name":"한국재무설계협회","tel":"02-556-6800","addr":"경기도 의왕시 내손동 755-2번지 미원파크빌 201동 910호","category":"용역 서비스 - 소프트웨어"}]},{"lat":"37.3790565515","long":"126.9742037963","items":[{"name":"계원포차","tel":"","addr":"경기도 의왕시 내손동 755-3번지 주영프라자 201호","category":"일반휴게음식 - 일반한식"},{"name":"국가대표 윤재영탁구클럽","tel":"","addr":"경기도 의왕시 내손동 755-3번지 주영프라자 4층 401,402호","category":"레저업소 - 기타레져업소"},{"name":"더하우스","tel":"070-8633-7698","addr":"경기도 의왕시 내손동 755-3번지 주영프라자 103호","category":"일반휴게음식 - 주점"},{"name":"라온R&D","tel":"070-8880-7856","addr":"경기도 의왕시 내손동 755-3번지 주영프라자 5층 506호","category":"서적문구 - 출판 및 인쇄물"},{"name":"복떡방","tel":"031-421-8718","addr":"경기도 의왕시 내손동 755-3번지 주영프라자 1층 101호","category":"음료식품 - 제과점"},{"name":"송이족발","tel":"031-426-0901","addr":"경기도 의왕시 내손동 755-3번지 주영프라자 107호","category":"일반휴게음식 - 일반한식"},{"name":"아로마웰","tel":"031-427-9248","addr":"경기도 의왕시 내손동 755-3번지 주영프라자 302호","category":"보건위생 - 화장품"},{"name":"에이치티엑스(주)","tel":"031-422-3327","addr":"경기도 의왕시 내손동 755-3 주영프라자제3층 302호의 일부","category":"건축자재 - 조명기구"},{"name":"최한결플라워","tel":"031-345-5670","addr":"경기도 의왕시 내손동 755-3번지 주영프라자 105호","category":"문화.취미 - 화원"},{"name":"탠타이거","tel":"031-423-0742","addr":"경기도 의왕시 내손동 755-3번지 주영프라자 302-1호","category":"보건위생 - 피부미용실"},{"name":"토브돈까츠","tel":"031-421-6333","addr":"경기도 의왕시 내손동 755-3번지 주영프라자 104호","category":"일반휴게음식 - 서양음식"},{"name":"팀타이거짐 요가 피티","tel":"031-421-9452","addr":"경기도 의왕시 내손동 755-3번지 주영프라자 3층 301호","category":"레저업소 - 헬스클럽"}]},{"lat":"37.3846987856","long":"126.9835848521","items":[{"name":"고양이가 물고간 피자","tel":"031-425-6760","addr":"경기도 의왕시 내손동 676-6번지 1층","category":"일반휴게음식 - 서양음식"},{"name":"도배창고","tel":"031-425-3586","addr":"경기도 의왕시 내손동 676-6번지","category":"직물 - 카페트,커튼,천막,지물"},{"name":"피앤케이","tel":"070-7558-6049","addr":"경기도 의왕시 내손동 676-6번지 103호","category":"문화.취미 - 애완동물"}]},{"lat":"37.3713920452","long":"126.9935342833","items":[{"name":"고운님 전통차","tel":"031-422-6674","addr":"경기도 의왕시 내손동 85번지","category":"일반휴게음식 - 서양음식"}]},{"lat":"37.3841122593","long":"126.9788426253","items":[{"name":"고인돌","tel":"031-425-0282","addr":"경기도 의왕시 내손동 689번지","category":"일반휴게음식 - 일반한식"},{"name":"카메박","tel":"031-425-7142","addr":"경기도 의왕시 내손동 689번지 104호","category":"일반휴게음식 - 일식·회집"}]},{"lat":"37.3856715645","long":"126.9817553622","items":[{"name":"고향집","tel":"070-8252-5092","addr":"경기도 의왕시 내손동 671번지 104호","category":"일반휴게음식 - 일반한식"},{"name":"내손 한우 소머리국밥","tel":"031-421-1566","addr":"경기도 의왕시 내손동 671번지","category":"일반휴게음식 - 일반한식"},{"name":"욜로와","tel":"031-421-2188","addr":"경기도 의왕시 내손동 671번지 지층1층","category":"일반휴게음식 - 일반한식"},{"name":"투다리","tel":"031-422-9361","addr":"경기도 의왕시 내손동 671번지","category":"일반휴게음식 - 일반한식"}]},{"lat":"37.3848061913","long":"126.9796102242","items":[{"name":"고향한방족발","tel":"031-441-5471","addr":"경기도 의왕시 내손동 684-7번지","category":"일반휴게음식 - 일반한식"},{"name":"초원떡집","tel":"031-424-2320","addr":"경기도 의왕시 내손동 684-7번지","category":"음료식품 - 제과점"}]},{"lat":"37.3843916456","long":"126.9792038614","items":[{"name":"공원포차","tel":"031-426-8820","addr":"경기도 의왕시 내손동 684-2번지","category":"일반휴게음식 - 일반한식"},{"name":"살림살이","tel":"070-7121-4291","addr":"경기도 의왕시 내손동 684-2번지 1호","category":"가구 - 기타가구"}]},{"lat":"37.3850585252","long":"126.9798698511","items":[{"name":"관인포일은현음악학원","tel":"031-425-0059","addr":"경기도 의왕시 내손동 684-10번지 2층","category":"학원 - 예·체능계학원"},{"name":"독도막회","tel":"031-422-5417","addr":"경기도 의왕시 내손동 684-10번지 105호","category":"일반휴게음식 - 일반한식"},{"name":"리앤리","tel":"031-422-5660","addr":"경기도 의왕시 내손동 684-10번지 103호","category":"보건위생 - 미용원"},{"name":"복지정육점","tel":"031-425-5501","addr":"경기도 의왕시 내손동 684-10번지","category":"음료식품 - 정육점"},{"name":"청계건강원","tel":"031-425-6403","addr":"경기도 의왕시 내손동 684-10번지","category":"건강식품 - 기타건강식품"}]},{"lat":"37.3798045105","long":"126.9747003035","items":[{"name":"광수네감자탕순대국","tel":"031-425-7913","addr":"경기도 의왕시 내손동 741번지 성삼아이비즈2차 104호","category":"일반휴게음식 - 일반한식"},{"name":"부엌","tel":"031-422-8527","addr":"경기도 의왕시 내손동 741번지 성삼이이비즈2차 102호","category":"일반휴게음식 - 일반한식"},{"name":"스타일 랩","tel":"031-421-3337","addr":"경기도 의왕시 내손동 741번지 아이비즈2 1층 103호","category":"보건위생 - 미용원"},{"name":"예담","tel":"031-455-0426","addr":"경기도 의왕시 내손동 741번지 아이비즈2차 1층 102호","category":"일반휴게음식 - 일반한식"}]},{"lat":"37.3898342121","long":"126.9816412714","items":[{"name":"교촌치킨포일내손점","tel":"031-462-1991","addr":"경기도 의왕시 내손동 652-21번지 102호","category":"일반휴게음식 - 스넥"},{"name":"상투헤어","tel":"031-381-7119","addr":"경기도 의왕시 내손동 652-21번지 101호","category":"보건위생 - 미용원"},{"name":"토로","tel":"031-346-0877","addr":"경기도 의왕시 내손동 652-21번지 1층","category":"일반휴게음식 - 서양음식"},{"name":"행복한강아지","tel":"031-341-9436","addr":"경기도 의왕시 내손동 652-21번지 201호","category":"문화.취미 - 애완동물"}]},{"lat":"37.3837247436","long":"126.9784475530","items":[{"name":"구가네 예찬방","tel":"031-348-5945","addr":"경기도 의왕시 내손동 690번지","category":"음료식품 - 기타음료식품"},{"name":"미래정보통신","tel":"031-425-9010","addr":"경기도 의왕시 내손동 690번지","category":"사무통신 - 통신기기"},{"name":"바다회집","tel":"031-422-9782","addr":"경기도 의왕시 내손동 690번지","category":"일반휴게음식 - 일반한식"},{"name":"애당베이커리","tel":"031-477-6548","addr":"경기도 의왕시 내손동 690번지","category":"음료식품 - 제과점"}]},{"lat":"37.3903928180","long":"126.9815281906","items":[{"name":"구로 청과","tel":"","addr":"경기도 의왕시 내손동 653-12번지 1층 2호","category":"음료식품 - 농·축·수산품"},{"name":"노란소나무","tel":"031-422-1207","addr":"경기도 의왕시 내손동 653-12번지","category":"의류 - 아동의류"},{"name":"후레쉬워터","tel":"031-469-3588","addr":"경기도 의왕시 내손동 653-12번지","category":"주방용구 - 정수기"}]},{"lat":"37.3793625361","long":"126.9727584750","items":[{"name":"구울래찔래","tel":"031-426-2894","addr":"경기도 의왕시 내손동 748-2번지 계원프라자 103호","category":"일반휴게음식 - 일반한식"},{"name":"대광","tel":"031-423-3557","addr":"경기도 의왕시 내손동 748-2번지 계원프라자 2층 202호","category":"보건위생 - 기타대인서비스"},{"name":"마이플라워","tel":"031-425-5004","addr":"경기도 의왕시 내손동 748-2번지 계원프라자 105호","category":"문화.취미 - 화원"},{"name":"모리모 구움과자점","tel":"","addr":"경기도 의왕시 내손동 748-2번지 계원프라자 1층 105호","category":"일반휴게음식 - 서양음식"},{"name":"본죽","tel":"031-421-6225","addr":"경기도 의왕시 내손동 748-2번지 계원프라자 101호","category":"일반휴게음식 - 일반한식"},{"name":"사이버리아내손점","tel":"031-425-4967","addr":"경기도 의왕시 내손동 748-2번지 게원프라자 3층 301호","category":"레저업소 - 기타레져업소"},{"name":"엔젤노래연습장","tel":"031-423-5060","addr":"경기도 의왕시 내손동 748-2번지 계원프라자 201호","category":"레저업소 - 노 래 방"},{"name":"유니커스PC방","tel":"031-426-1375","addr":"경기도 의왕시 내손동 748-2번지 계월프라자 502동 501호","category":"레저업소 - 기타레져업소"},{"name":"찌개통","tel":"031-000-0000","addr":"경기도 의왕시 내손동 748-2번지 계원프라자 1층 104호","category":"일반휴게음식 - 일반한식"},{"name":"헌터PC 의왕직영점","tel":"070-4233-3085","addr":"경기도 의왕시 내손동 748-2번지 계원프라자 501,502호","category":"레저업소 - 기타레져업소"}]},{"lat":"37.3790021716","long":"126.9729166877","items":[{"name":"국수나무계원예대점","tel":"031-423-0549","addr":"경기도 의왕시 내손동 750번지 미광프라자 103호","category":"일반휴게음식 - 일반한식"},{"name":"리딩램프 영어학원","tel":"031-421-9855","addr":"경기도 의왕시 내손동 750번지 미광프라자 304호","category":"학원 - 보습학원"},{"name":"메카수학학원","tel":"031-423-5954","addr":"경기도 의왕시 내손동 750번지 미광프라자 403호","category":"학원 - 보습학원"},{"name":"모로미쿠시 김둘이점","tel":"031-422-9834","addr":"경기도 의왕시 내손동 750번지 미광프라자 101호","category":"일반휴게음식 - 일반한식"},{"name":"비전수학학원","tel":"031-421-1070","addr":"경기도 의왕시 내손동 750번지 미광프라자 704호","category":"학원 - 보습학원"},{"name":"수클리닉학원","tel":"","addr":"경기도 의왕시 내손동 750번지 미광프라자 502호","category":"학원 - 보습학원"},{"name":"씨유의왕내손갈미점","tel":"031-423-4947","addr":"경기도 의왕시 내손동 750번지 미광프라자 106호","category":"유통업 영리 - 편 의 점"},{"name":"아이플러스원어학원","tel":"031-424-4226","addr":"경기도 의왕시 내손동 750 미광프라자 203.204호","category":"회원제형태 - 학원"},{"name":"에이티피학원","tel":"031-421-7772","addr":"경기도 의왕시 내손동 750번지 미광프라자 302호","category":"학원 - 보습학원"},{"name":"청년어부","tel":"","addr":"경기도 의왕시 내손동 750번지 107,108호","category":"일반휴게음식 - 일식·회집"},{"name":"카페 (CAFE)&민들레","tel":"031-746-0691","addr":"경기도 의왕시 내손동 750번지 미광프라자 201호","category":"일반휴게음식 - 서양음식"},{"name":"플래너영수학원","tel":"031-422-0670","addr":"경기도 의왕시 내손동 750번지 미광프라자 402호","category":"학원 - 보습학원"},{"name":"하늘빛미술학원","tel":"031-421-2898","addr":"경기도 의왕시 내손동 750번지 미광프라자 3층 301호","category":"학원 - 예·체능계학원"},{"name":"하이엔드3.0학원","tel":"031-425-0580","addr":"경기도 의왕시 내손동 750번지 미광프라자","category":"학원 - 보습학원"},{"name":"한우리독토논아카데미보습학원","tel":"031-424-1729","addr":"경기도 의왕시 내손동 750번지 미광프라자 404호","category":"학원 - 기타 교육기관"},{"name":"황제짬뽕","tel":"031-423-2886","addr":"경기도 의왕시 내손동 750번지 미광프라자 104호","category":"일반휴게음식 - 중국식"}]},{"lat":"37.3835536095","long":"126.9787298908","items":[{"name":"궁전노래연습장","tel":"031-421-4405","addr":"경기도 의왕시 내손동 690-3번지 지하","category":"레저업소 - 노 래 방"},{"name":"이화헤어클럽","tel":"031-424-0550","addr":"경기도 의왕시 내손동 690-3번지","category":"보건위생 - 미용원"}]},{"lat":"37.3746669575","long":"126.9680072809","items":[{"name":"규니스포츠","tel":"031-427-2212","addr":"경기도 의왕시 내손동 816-1번지 상가 1층 1호","category":"레져용품 - 스포츠·레져용품"},{"name":"다원테크","tel":"031-456-2220","addr":"경기도 의왕시 내손동 816-1번지","category":"자동차판매 - 이륜차판매"},{"name":"만진","tel":"000-000-0000","addr":"경기도 의왕시 내손동 816-1번지","category":"회원제형태 - 기타4"},{"name":"문출래감자탕 코다리찜","tel":"031-477-4595","addr":"경기도 의왕시 내손동 816-1번지 지층 1호","category":"일반휴게음식 - 일반한식"},{"name":"스윙코리아","tel":"031-456-2220","addr":"경기도 의왕시 내손동 816-1번지 1층 상가","category":"자동차판매 - 이륜차판매"}]},{"lat":"37.3750549338","long":"126.9698925340","items":[{"name":"규리와 꾸루기","tel":"031-252-3474","addr":"경기도 의왕시 내손동 801-3번지 1층","category":"일반휴게음식 - 일반한식"}]},{"lat":"37.3861485459","long":"126.9788532667","items":[{"name":"그라시아어린이집[아이행복]","tel":"031-426-1126","addr":"경기도 의왕시 내손동 633","category":"학원 - 유아원"}]},{"lat":"37.3914742110","long":"126.9825554993","items":[{"name":"그린망고","tel":"","addr":"경기도 의왕시 내손동 660-5번지 반석다세대 1층 130호","category":"의류 - 기타의류"}]},{"lat":"37.3895279031","long":"126.9818333250","items":[{"name":"그린모바일","tel":"031-421-6669","addr":"경기도 의왕시 내손동 652-18번지 상가101호~102호,101","category":"사무통신 - 통신기기"},{"name":"명가떡방","tel":"031-425-7896","addr":"경기도 의왕시 내손동 652-18번지","category":"음료식품 - 제과점"},{"name":"커피하우스","tel":"031-456-8803","addr":"경기도 의왕시 내손동 652-18번지","category":"일반휴게음식 - 서양음식"}]},{"lat":"37.3854732420","long":"126.9812021305","items":[{"name":"그린크리닝","tel":"031-349-1794","addr":"경기도 의왕시 내손동 682-13번지 지층","category":"용역 서비스 - 종합용역"}]},{"lat":"37.3839128779","long":"126.9736938360","items":[{"name":"글램필라테스자이점","tel":"031-423-0023","addr":"경기도 의왕시 내손동 623-2번지 포일상가 202호","category":"레저업소 - 헬스클럽"},{"name":"삼성영어백운초영어교습소","tel":"031-422-0503","addr":"경기도 의왕시 내손동 623-2번지 포일상가 201호","category":"회원제형태 - 학원"}]},{"lat":"37.3787231689","long":"126.9741700516","items":[{"name":"글샘한자","tel":"031-423-3211","addr":"경기도 의왕시 내손동 762-2번지 그린프라자 202호","category":"학원 - 기타 교육기관"},{"name":"내손잉글리쉬무무보습학원","tel":"031-425-9905","addr":"경기도 의왕시 내손동 762-2번지 그린프라자 201호","category":"학원 - 보습학원"},{"name":"뉴비엔나음악학원","tel":"031-426-6006","addr":"경기도 의왕시 내손동 762-2번지 그린프라자 501호","category":"학원 - 예·체능계학원"},{"name":"다원독서토론논술교습소","tel":"","addr":"경기도 의왕시 내손동 762-2번지 그린프라자 3층 303호","category":"학원 - 보습학원"},{"name":"루미스킨샵","tel":"","addr":"경기도 의왕시 내손동 762-2번지 그린프라자 1층 106호","category":"보건위생 - 피부미용실"},{"name":"리차드영어교습소","tel":"031-2678-7789","addr":"경기도 의왕시 내손동 762-2번지 그린프라자 203호","category":"학원 - 외국어학원"},{"name":"모락산손두부","tel":"031-422-5258","addr":"경기도 의왕시 내손동 762-2번지 그린파라자제1층 101호","category":"일반휴게음식 - 일반한식"},{"name":"석사 경희대 훌륭한 태권도","tel":"031-426-7942","addr":"경기도 의왕시 내손동 762-2번지 그린프라자 상가 402호","category":"학원 - 예·체능계학원"},{"name":"세이브 코스트","tel":"031-421-3363","addr":"경기도 의왕시 내손동 762-2번지 그린프라자 102호","category":"신변잡화 - 기타잡화"},{"name":"오렌지마트","tel":"031-421-8909","addr":"경기도 의왕시 내손동 762-2번지 그린프라자 104호","category":"유통업 영리 - 슈퍼마켓"},{"name":"장원교육 의왕지점","tel":"031-455-0979","addr":"경기도 의왕시 내손동 762-2번지 그린프라자 3층 302호","category":"회원제형태 - 서적"},{"name":"참좋은상사","tel":"031-421-1226","addr":"경기도 의왕시 내손동 762-2번지 그린프라자 5층 502호","category":"음료식품 - 기타음료식품"},{"name":"카피브로","tel":"031-424-2229","addr":"경기도 의왕시 내손동 762-2번지 그린프라자 1층 105호","category":"서적문구 - 출판 및 인쇄물"},{"name":"해누리 아동발달센터","tel":"031-424-7017","addr":"경기도 의왕시 내손동 762-2번지 그린프라자 301호","category":"보건위생 - 기타대인서비스"}]},{"lat":"37.3848878121","long":"126.9824782376","items":[{"name":"금산건강원","tel":"031-425-7992","addr":"경기도 의왕시 내손동 679-7번지","category":"건강식품 - 기타건강식품"},{"name":"다민미용실","tel":"031-425-3890","addr":"경기도 의왕시 내손동 679-7번지","category":"보건위생 - 미용원"}]},{"lat":"37.3859693618","long":"126.9845330252","items":[{"name":"금잔디","tel":"031-388-9677","addr":"경기도 의왕시 내손동 674-3번지 103호","category":"문화.취미 - 화원"}]},{"lat":"37.3844717404","long":"126.9746646821","items":[{"name":"기쁨어린이집[아이행복]","tel":"031-426-0071","addr":"경기도 의왕시 내손동 844번지 포일자이아파트","category":"학원 - 유아원"}]},{"lat":"37.3859147722","long":"126.9813939613","items":[{"name":"기정하이퍼","tel":"031-21-9076","addr":"경기도 의왕시 내손동 670번지","category":"유통업 영리 - 슈퍼마켓"},{"name":"유가네집","tel":"031-421-7478","addr":"경기도 의왕시 내손동 670번지","category":"일반휴게음식 - 일반한식"},{"name":"유가네집","tel":"031-421-7478","addr":"경기도 의왕시 내손동 670번지","category":"음료식품 - 농·축·수산품"},{"name":"피자코소","tel":"031-422-8831","addr":"경기도 의왕시 내손동 670번지","category":"일반휴게음식 - 서양음식"}]},{"lat":"37.3853657143","long":"126.9847251289","items":[{"name":"기회자동차공업사","tel":"031-425-6022","addr":"경기도 의왕시 내손동 703-13번지 지층","category":"자동차정비 유지 - 자동차정비"},{"name":"중앙통계연구소","tel":"","addr":"경기도 의왕시 내손동 703-13번지","category":"용역 서비스 - 사무서비스"}]},{"lat":"37.3838065202","long":"126.9820268775","items":[{"name":"김미경헤어","tel":"031-425-4068","addr":"경기도 의왕시 내손동 677-19번지","category":"보건위생 - 미용원"},{"name":"제이오엔","tel":"031-455-3300","addr":"경기도 의왕시 내손동 677-19번지","category":"용역 서비스 - 종합용역"}]},{"lat":"37.3831935433","long":"126.9804462742","items":[{"name":"김밥이맛있는집","tel":"031-426-3336","addr":"경기도 의왕시 내손동 696번지","category":"일반휴게음식 - 스넥"}]},{"lat":"37.3796146094","long":"126.9719454438","items":[{"name":"김밥천국","tel":"031-424-9002","addr":"경기도 의왕시 내손동 746-2번지 내손LG프라자 1층 101호","category":"일반휴게음식 - 스넥"},{"name":"명작노래연습장","tel":"031-423-1103","addr":"경기도 의왕시 내손동 746-2.601호602호","category":"레저업소 - 노 래 방"},{"name":"블루클럽내손지구점","tel":"031-426-8781","addr":"경기도 의왕시 내손동 746-2번지 엘지프라자 201호","category":"보건위생 - 이용원"},{"name":"심야식당","tel":"031-421-6679","addr":"경기도 의왕시 내손동 746-2번지 LG프라자 202호","category":"일반휴게음식 - 일반한식"},{"name":"아리신닭발","tel":"031-426-8755","addr":"경기도 의왕시 내손동 746-2번지 엘지프라자 202호","category":"일반휴게음식 - 일반한식"},{"name":"오페라당구클럽","tel":"031-422-7939","addr":"경기도 의왕시 내손동 746-2번지 LG프라자 401호","category":"레저업소 - 당 구 장"},{"name":"유리코스메틱","tel":"031-423-1503","addr":"경기도 의왕시 내손동 746-2 내손엘지프라자 401호, 402호","category":"보건위생 - 화장품"}]},{"lat":"37.3809759296","long":"126.9751402103","items":[{"name":"김제한우","tel":"031-423-1945","addr":"경기도 의왕시 내손동 731-1번지 ,1,2층","category":"일반휴게음식 - 일반한식"}]},{"lat":"37.3863635879","long":"126.9735348018","items":[{"name":"김지혜 도자작업실","tel":"","addr":"경기도 의왕시 내손동 381-20번지 외1필지 102호","category":"문화.취미 - 문화취미기타"}]},{"lat":"37.3756133736","long":"126.9692261735","items":[{"name":"김현주뷰티파라팜","tel":"031-427-1472","addr":"경기도 의왕시 내손동 804-1번지 1층","category":"보건위생 - 미용원"}]},{"lat":"37.3853922451","long":"126.9817215659","items":[{"name":"까꺼머리헤어클럽","tel":"031-423-7460","addr":"경기도 의왕시 내손동 681-11번지","category":"보건위생 - 미용원"},{"name":"빈대떡신사","tel":"031-424-0277","addr":"경기도 의왕시 내손동 681-11번지 104호","category":"일반휴게음식 - 주점"},{"name":"한샘전자기기","tel":"031-422-5454","addr":"경기도 의왕시 내손동 681-11번지 1층 4호","category":"전기제품 - 기타전기제품"}]},{"lat":"37.3912761795","long":"126.9836960901","items":[{"name":"까끌래뽀글래미용실","tel":"031-421-9237","addr":"경기도 의왕시 내손동 659-9번지","category":"보건위생 - 미용원"},{"name":"이찌방","tel":"031-421-8295","addr":"경기도 의왕시 내손동 659-9번지","category":"일반휴게음식 - 주점"}]},{"lat":"37.3834456448","long":"126.9795090233","items":[{"name":"까사유","tel":"031-383-4704","addr":"경기도 의왕시 내손동 689-18번지","category":"의류 - 정장"},{"name":"벨킨스안양지사","tel":"031-426-3753","addr":"경기도 의왕시 내손동 689-18번지 1층 2호 상가","category":"용역 서비스 - 종합용역"}]},{"lat":"37.3738919123","long":"126.9674205681","items":[{"name":"까페나무","tel":"031-451-4427","addr":"경기도 의왕시 내손동 816-8번지 갑을주택 101호","category":"일반휴게음식 - 서양음식"}]},{"lat":"37.3897531314","long":"126.9816977554","items":[{"name":"까페이솝","tel":"070-7533-2495","addr":"경기도 의왕시 내손동 652-20번지 103호","category":"일반휴게음식 - 서양음식"},{"name":"내손사과나무학원 주식회사 정예","tel":"02-0000-0000","addr":"경기도 의왕시 내손동 652-20번지 2층","category":"학원 - 보습학원"},{"name":"바이런","tel":"031-425-8269","addr":"경기도 의왕시 내손동 652-20번지 상가 1층 2호","category":"의류 - 정장"},{"name":"올가뷰티","tel":"","addr":"경기도 의왕시 내손동 652-20번지 1호","category":"보건위생 - 화장품"}]},{"lat":"37.3772446997","long":"126.9710093188","items":[{"name":"꼬꼬마어린이집[아이행복]","tel":"031-423-5979","addr":"경기도 의왕시 내손동 795번지 대원칸타빌1단지","category":"학원 - 유아원"}]},{"lat":"37.3900763765","long":"126.9761757451","items":[{"name":"꼬마둥지어린이집[아이행복]","tel":"031-426-2027","addr":"경기도 의왕시 내손동 414번지 삼성래미안아파트","category":"학원 - 유아원"}]},{"lat":"37.3888146459","long":"126.9748098512","items":[{"name":"꽃과분","tel":"070-7746-3369","addr":"경기도 의왕시 내손동 401-1번지 세양청마루아파트","category":"회원제형태 - 기타4"},{"name":"책읽어주는어린이집[아이행복]","tel":"070-4224-2389","addr":"경기도 의왕시 내손동 401-1번지 세양청마루아파트","category":"학원 - 유아원"},{"name":"행복한사람들ent","tel":"","addr":"경기도 의왕시 내손동 401-1번지 세양청마루아파트","category":"용역 서비스 - 종합용역"}]},{"lat":"37.3843383029","long":"126.9831107054","items":[{"name":"꽃나라","tel":"","addr":"경기도 의왕시 내손동 677-10번지 밀림상가 다동 407호","category":"문화.취미 - 화원"}]},{"lat":"37.3860847355","long":"126.9754544944","items":[{"name":"꿈나무유치원[아이행복]","tel":"031-423-2330","addr":"경기도 의왕시 내손동 622-12번지 1층","category":"학원 - 유치원"}]},{"lat":"37.3792815137","long":"126.9730294830","items":[{"name":"꿈노트 멘토링 학원","tel":"031-422-5552","addr":"경기도 의왕시 내손동 748-3번지 제일프라자 805호","category":"학원 - 보습학원"},{"name":"더고깃집","tel":"031-421-6893","addr":"경기도 의왕시 내손동 748-3번지 제일프라자 1층 101,102호","category":"일반휴게음식 - 일반한식"},{"name":"디샵 의왕내손점","tel":"031-424-3146","addr":"경기도 의왕시 내손동 748-3번지 제일프라자 110호","category":"음료식품 - 기타음료식품"},{"name":"루트7(ROUTE7)","tel":"031-424-1257","addr":"경기도 의왕시 내손동 748-3번지 제일프라자 305호","category":"일반휴게음식 - 주점"},{"name":"보드앤블럭시티","tel":"070-4124-6254","addr":"경기도 의왕시 내손동 748-3번지 제일프라자 703호","category":"학원 - 기타 교육기관"},{"name":"수내닭꼬치","tel":"","addr":"경기도 의왕시 내손동 748-3번지 제일프라자 106호","category":"일반휴게음식 - 일반한식"},{"name":"식빵공방 의왕점","tel":"031-426-3335","addr":"경기도 의왕시 내손동 748-3번지 제일프라자 105호","category":"일반휴게음식 - 서양음식"},{"name":"식빵공방의왕점","tel":"031-426-3335","addr":"경기도 의왕시 내손동 748-3번지 제일프라자 105호","category":"음료식품 - 기타음료식품"},{"name":"아고라학원","tel":"031-425-2220","addr":"경기도 의왕시 내손동 748-3번지 제일프라자 5층 502호","category":"학원 - 보습학원"},{"name":"아로벨","tel":"031-425-3878","addr":"경기도 의왕시 내손동 748-3번지 제일프라자 2층","category":"보건위생 - 피부미용실"},{"name":"아름다운 미치과의원","tel":"031-426-7258","addr":"경기도 의왕시 내손동 748-3번지 제일프라자 3층","category":"의원 - 치과의원"},{"name":"아이캔스터디카페 내손점","tel":"070-5496-7570","addr":"경기도 의왕시 내손동 748-3번지 제일프라자 205,206호","category":"용역 서비스 - 사무서비스"},{"name":"아트앤하트계원대점학원","tel":"070-4124-1338","addr":"경기도 의왕시 내손동 748-3번지 제일프라자 303호","category":"학원 - 예·체능계학원"},{"name":"에크미수학학원","tel":"031-425-0880","addr":"경기도 의왕시 내손동 748-3번지 제일프라자 505호","category":"학원 - 보습학원"},{"name":"요가앤힐링스토리","tel":"070-8841-5180","addr":"경기도 의왕시 내손동 748-3번지 제일프라자 306호","category":"회원제형태 - 레져업소"},{"name":"제이제이실용음악학원","tel":"031-427-3353","addr":"경기도 의왕시 내손동 748-3번지 제일프라자 302호","category":"회원제형태 - 학원"},{"name":"주식회사두얼교육연구소","tel":"031-423-5002","addr":"경기도 의왕시 내손동 748-3번지 제일프라자 6층","category":"회원제형태 - 학원"},{"name":"주식회사문화나무","tel":"031-422-5552","addr":"경기도 의왕시 내손동 748-3번지 제일프라자 805호","category":"회원제형태 - 학원"},{"name":"치르치르 내손","tel":"031-426-7295","addr":"경기도 의왕시 내손동 748-3번지 제일프라자 111호","category":"일반휴게음식 - 주점"},{"name":"하륜일만족발","tel":"031-423-8844","addr":"경기도 의왕시 내손동 748-3번지 제일프라자 104호","category":"일반휴게음식 - 일반한식"},{"name":"한솥의왕계원예대점","tel":"031-421-1211","addr":"경기도 의왕시 내손동 748-3번지 제일프라자 107호","category":"일반휴게음식 - 일반한식"},{"name":"황금족발","tel":"031-424-9335","addr":"경기도 의왕시 내손동 748-3번지 제일프라자 108호","category":"일반휴게음식 - 일반한식"}]},{"lat":"37.3908882972","long":"126.9811102316","items":[{"name":"나리 네일(Nari nail)","tel":"031-000-0000","addr":"경기도 의왕시 내손동 653-1번지 101호","category":"보건위생 - 피부미용실"},{"name":"당구매니아","tel":"031-422-9084","addr":"경기도 의왕시 내손동 653-1번지 2층","category":"레저업소 - 당 구 장"},{"name":"블라인드 스토리 무료방문견적","tel":"031-383-1814","addr":"경기도 의왕시 내손동 653-1번지 4층","category":"직물 - 카페트,커튼,천막,지물"},{"name":"알프스생맥주","tel":"031-425-2135","addr":"경기도 의왕시 내손동 653-1번지","category":"일반휴게음식 - 주점"},{"name":"착한대구막창","tel":"031-422-3691","addr":"경기도 의왕시 내손동 653-1번지 103호","category":"일반휴게음식 - 일반한식"}]},{"lat":"37.3796416042","long":"126.9718099443","items":[{"name":"나무","tel":"031-422-2280","addr":"경기도 의왕시 내손동 746-1번지 코코프라자 201호","category":"의류 - 정장"},{"name":"아프로","tel":"031-421-2297","addr":"경기도 의왕시 내손동 746-1번지 코코프라자 2동 202호","category":"의류 - 정장"},{"name":"알앤비노래연습장","tel":"031-493-2852","addr":"경기도 의왕시 내손동 746-1번지 코코프라자 401호 402호","category":"레저업소 - 노 래 방"},{"name":"피쉬앤그릴","tel":"031-424-8873","addr":"경기도 의왕시 내손동 746-1번지 코코프라자 101호","category":"일반휴게음식 - 주점"}]},{"lat":"37.3879498376","long":"126.9754989826","items":[{"name":"나무뜰어린이집[아이행복]","tel":"031-424-5071","addr":"경기도 의왕시 내손동 842번지 래미안에버하임아파트","category":"학원 - 유아원"}]},{"lat":"37.3786961850","long":"126.9743620014","items":[{"name":"남경고기마트","tel":"031-426-3675","addr":"경기도 의왕시 내손동 762-1번지 리치21빌딩 102동 103호","category":"일반휴게음식 - 일반한식"},{"name":"동보성","tel":"031-423-8080","addr":"경기도 의왕시 내손동 762-1번지 리치 21동 202호","category":"일반휴게음식 - 중국식"},{"name":"미가네","tel":"031-111-1111","addr":"경기도 의왕시 내손동 762-1번지 리치아카데미 1층 102호","category":"일반휴게음식 - 일반한식"},{"name":"보네르(bonheur)","tel":"031-422-1514","addr":"경기도 의왕시 내손동 762-1번지 리치아카데미 101호","category":"일반휴게음식 - 서양음식"},{"name":"이룸프리미엄스터디센터의왕점독서실","tel":"031-421-4381","addr":"경기도 의왕시 내손동 762-1번지 401호.402호","category":"학원 - 독서실"},{"name":"커피케어","tel":"070-3618-7800","addr":"경기도 의왕시 내손동 762-1번지 리치아카데미 2층 201호","category":"일반휴게음식 - 서양음식"},{"name":"켄어학원","tel":"031-426-7767","addr":"경기도 의왕시 내손동 762-1번지 리치아카데미빌딩 301호","category":"회원제형태 - 학원"}]},{"lat":"37.3837518984","long":"126.9790572754","items":[{"name":"남산","tel":"031-423-1133","addr":"경기도 의왕시 내손동 689-22번지","category":"일반휴게음식 - 중국식"}]},{"lat":"37.3891406852","long":"126.9830868596","items":[{"name":"남원추어탕","tel":"031-421-0977","addr":"경기도 의왕시 내손동 651-9번지 나동 1층","category":"일반휴게음식 - 일반한식"}]},{"lat":"37.3857243757","long":"126.9756465832","items":[{"name":"남진축산","tel":"031-421-2439","addr":"경기도 의왕시 내손동 622-15번지 지층","category":"음료식품 - 정육점"},{"name":"세이브마트","tel":"031-421-8686","addr":"경기도 의왕시 내손동 622-15번지 1층","category":"유통업 영리 - 슈퍼마켓"},{"name":"이화어드벤쳐음악학원","tel":"031-422-7289","addr":"경기도 의왕시 내손동 622-15번지 2층","category":"학원 - 예·체능계학원"}]},{"lat":"37.3891671482","long":"126.9799476399","items":[{"name":"내동초등학교","tel":"031-422-9703","addr":"경기도 의왕시 내손동 848-1번지 내동초등학교","category":"학원 - 초중고교육기관"},{"name":"호호 과자점","tel":"031-393-4114","addr":"경기도 의왕시 내손동 848-1번지 내동초등학교 상가 나동 114호","category":"일반휴게음식 - 서양음식"}]},{"lat":"37.3860588927","long":"126.9811680868","items":[{"name":"내손꼬마마약김밥","tel":"031-422-3977","addr":"경기도 의왕시 내손동 669-21번지 1층 103호","category":"일반휴게음식 - 스넥"},{"name":"동미인테리어","tel":"031-425-8489","addr":"경기도 의왕시 내손동 669-21번지 1층","category":"직물 - 카페트,커튼,천막,지물"},{"name":"철이네","tel":"031-421-7279","addr":"경기도 의왕시 내손동 669-21번지 2호","category":"일반휴게음식 - 일반한식"}]},{"lat":"37.3874735552","long":"126.9815854782","items":[{"name":"내손도서관매점","tel":"","addr":"경기도 의왕시 내손동 849-2번지 의왕시내손도서관","category":"음료식품 - 기타음료식품"},{"name":"의왕시 내손2동 주민자치 위원회","tel":"031-345-3262","addr":"경기도 의왕시 내손동 849-2번지 1층","category":"문화.취미 - 문화취미기타"}]},{"lat":"37.3885261954","long":"126.9742792331","items":[{"name":"내손시그니처독서실","tel":"031-8623-1479","addr":"경기도 의왕시 내손동 405-1번지 2층","category":"학원 - 독서실"},{"name":"당구나라","tel":"031-385-7402","addr":"경기도 의왕시 내손동 405-1번지","category":"레저업소 - 당 구 장"},{"name":"돌깨마을맷돌순두부의왕내손점","tel":"031-425-3837","addr":"경기도 의왕시 내손동 405-1번지 1층","category":"일반휴게음식 - 일반한식"},{"name":"발리철판구이","tel":"031-422-7892","addr":"경기도 의왕시 내손동 405-1번지","category":"일반휴게음식 - 일반한식"},{"name":"어머니의 정","tel":"031-423-0601","addr":"경기도 의왕시 내손동 405-1번지 외2필지 진우빌딩","category":"일반휴게음식 - 일반한식"},{"name":"프라이드살롱","tel":"031-425-4828","addr":"경기도 의왕시 내손동 405-1번지 외2필지 진우빌딩 1층","category":"일반휴게음식 - 주점"}]},{"lat":"37.3885277878","long":"126.9818674809","items":[{"name":"내손초등학교","tel":"031-425-5684","addr":"경기도 의왕시 내손동 849-1번지 내손초등학교","category":"학원 - 초중고교육기관"},{"name":"내손초등학교병설유치원[아이행복]","tel":"031-425-5688","addr":"경기도 의왕시 내손동 849-1번지 내손초등학교","category":"학원 - 유치원"}]},{"lat":"37.3864731491","long":"126.9800613780","items":[{"name":"내손치과의원","tel":"031-421-2875","addr":"경기도 의왕시 내손동 637-19번지 2층","category":"의원 - 치과의원"},{"name":"포일남대문안경","tel":"031-425-7676","addr":"경기도 의왕시 내손동 637-19번지 1층","category":"보건위생 - 안경"}]},{"lat":"37.3795605929","long":"126.9721148264","items":[{"name":"내손한의원","tel":"031-426-8575","addr":"경기도 의왕시 내손동 746-3번지","category":"의원 - 한의원"},{"name":"보석&사랑","tel":"031-426-6077","addr":"경기도 의왕시 내손동 746-3번지 스카이프라자 105호","category":"신변잡화 - 귀금속"},{"name":"스카이 노래연습장","tel":"031-426-1470","addr":"경기도 의왕시 내손동 746-3번지 스카이프라자 4층","category":"레저업소 - 노 래 방"},{"name":"연무통신","tel":"031-426-9334","addr":"경기도 의왕시 내손동 746-3번지 스카이프라자 1층 101호","category":"사무통신 - 통신기기"},{"name":"좋은날&","tel":"02-111-1111","addr":"경기도 의왕시 내손동 746-3번지 스카이프라자 106호","category":"일반휴게음식 - 서양음식"},{"name":"황실족도","tel":"031-426-7778","addr":"경기도 의왕시 내손동 746-3번지 스카이프라자 302호","category":"보건위생 - 피부미용실"}]},{"lat":"37.3851666728","long":"126.9800053164","items":[{"name":"네네치킨내손점","tel":"031-426-9282","addr":"경기도 의왕시 내손동 683번지","category":"일반휴게음식 - 스넥"},{"name":"뚱땡이 삼겹살","tel":"070-8844-3899","addr":"경기도 의왕시 내손동 683번지 1층 2호","category":"일반휴게음식 - 일반한식"},{"name":"숙이네순대국","tel":"031-346-7677","addr":"경기도 의왕시 내손동 683번지","category":"일반휴게음식 - 일반한식"}]},{"lat":"37.3742798755","long":"126.9692267694","items":[{"name":"네일바이숙(Nail by Suk)","tel":"070-4282-2468","addr":"경기도 의왕시 내손동 814번지 102호","category":"보건위생 - 피부미용실"},{"name":"에이치디에스챌린지주식회사","tel":"031-427-3537","addr":"경기도 의왕시 내손동 814.103","category":"사무통신 - 통신기기"}]},{"lat":"37.3904197990","long":"126.9812571673","items":[{"name":"노브살롱","tel":"031-421-0771","addr":"경기도 의왕시 내손동 653-14번지 1층","category":"보건위생 - 화장품"},{"name":"안심축산물판매점(의왕내손점)","tel":"031-422-3390","addr":"경기도 의왕시 내손동 653-14번지","category":"음료식품 - 정육점"},{"name":"정스미장(Jung's)","tel":"031-397-2666","addr":"경기도 의왕시 내손동 653-14번지 제1호","category":"보건위생 - 미용원"}]},{"lat":"37.3912223616","long":"126.9852544606","items":[{"name":"농업회사법인 주식회사 참푸드","tel":"031-341-4664","addr":"경기도 의왕시 내손동 664-11번지","category":"음료식품 - 농·축·수산품"},{"name":"황구보신탕","tel":"031-422-5909","addr":"경기도 의왕시 내손동 664-11번지","category":"일반휴게음식 - 일반한식"}]},{"lat":"37.3749738206","long":"126.9698135395","items":[{"name":"농협김치유통","tel":"031-455-0248","addr":"경기도 의왕시 내손동 801-4번지","category":"음료식품 - 기타음료식품"},{"name":"장미떡볶이","tel":"031-427-0456","addr":"경기도 의왕시 내손동 801-4번지 1층","category":"일반휴게음식 - 스넥"}]},{"lat":"37.3909427874","long":"126.9835832511","items":[{"name":"뉴 (New) 이레 건강원","tel":"","addr":"경기도 의왕시 내손동 658-9번지 103호","category":"건강식품 - 기타건강식품"},{"name":"청계닭집","tel":"031-425-3685","addr":"경기도 의왕시 내손동 658-9번지 1층 104호","category":"음료식품 - 정육점"}]},{"lat":"37.3797237116","long":"126.9759536032","items":[{"name":"뉴계원당구죤","tel":"031-422-1629","addr":"경기도 의왕시 내손동 739번지 뮤즈빌 2층","category":"레저업소 - 당 구 장"},{"name":"씨유의왕계원예대점","tel":"031-898-6568","addr":"경기도 의왕시 내손동 739번지","category":"유통업 영리 - 편 의 점"},{"name":"일찌오 페페(ll zio pepe)","tel":"031-423-7747","addr":"경기도 의왕시 내손동 739번지 (101호102호)","category":"일반휴게음식 - 서양음식"}]},{"lat":"37.3747212682","long":"126.9688652932","items":[{"name":"뉴스킨","tel":"","addr":"경기도 의왕시 내손동 812-3번지 영은빌딩 1층 102호","category":"보건위생 - 화장품"},{"name":"우리가 바람없는 바다를 향해 할수 있을까","tel":"070-4355-0247","addr":"경기도 의왕시 내손동 812-3번지 영은빌딩 1층 102호","category":"의류 - 정장"}]},{"lat":"37.3909964742","long":"126.9814150953","items":[{"name":"늑대와여우컴퓨터","tel":"031-421-6011","addr":"경기도 의왕시 내손동 653-3번지","category":"사무통신 - 컴퓨터"},{"name":"마포최대포","tel":"031-451-0148","addr":"경기도 의왕시 내손동 653-3번지 103호","category":"일반휴게음식 - 일반한식"},{"name":"엄지공주네일아트","tel":"031-422-4142","addr":"경기도 의왕시 내손동 653-3번지 소정서예","category":"보건위생 - 화장품"},{"name":"튼튼영어프리스쿨","tel":"070-8716-8959","addr":"경기도 의왕시 내손동 653-3번지 302호","category":"서적문구 - 일반서적"},{"name":"후야돈","tel":"031-340-4482","addr":"경기도 의왕시 내손동 653-3번지 1층","category":"일반휴게음식 - 일반한식"}]},{"lat":"37.3914476056","long":"126.9851979455","items":[{"name":"늘푸른","tel":"031-424-2419","addr":"경기도 의왕시 내손동 664-9번지","category":"일반휴게음식 - 일반한식"}]},{"lat":"37.3861399587","long":"126.9810325633","items":[{"name":"늘푸른약국","tel":"031-421-7561","addr":"경기도 의왕시 내손동 669번지","category":"약국 - 약국"},{"name":"유가네집","tel":"031-425-4433","addr":"경기도 의왕시 내손동 669번지","category":"일반휴게음식 - 일반한식"}]},{"lat":"37.3914744071","long":"126.9837299170","items":[{"name":"다나헤어","tel":"031-421-1963","addr":"경기도 의왕시 내손동 659-7번지","category":"보건위생 - 미용원"},{"name":"수정뷰티샵","tel":"031-421-6735","addr":"경기도 의왕시 내손동 659-7번지 104호","category":"보건위생 - 화장품"}]},{"lat":"37.3782720457","long":"126.9717314759","items":[{"name":"다보에어컨","tel":"","addr":"경기도 의왕시 내손동 791번지 의왕내손주공아파트","category":"용역 서비스 - 기타용역서비스"}]},{"lat":"37.3896632062","long":"126.9827027871","items":[{"name":"다비다양장점","tel":"031-423-9697","addr":"경기도 의왕시 내손동 655-9번지 1층 1호","category":"의류 - 맞춤복점"}]},{"lat":"37.3840859780","long":"126.9828623615","items":[{"name":"다성아트기획","tel":"031-421-7177","addr":"경기도 의왕시 내손동 677-12번지","category":"용역 서비스 - 종합용역"},{"name":"윤인자머리쟁이","tel":"031-425-4526","addr":"경기도 의왕시 내손동 677-12번지","category":"보건위생 - 미용원"}]},{"lat":"37.3754423942","long":"126.9699826849","items":[{"name":"다연지","tel":"031-464-3545","addr":"경기도 의왕시 내손동 801-9번지","category":"일반휴게음식 - 서양음식"},{"name":"드림아크","tel":"031-451-7549","addr":"경기도 의왕시 내손동 801-9번지 1층 103호","category":"건축자재 - 인테리어전문"},{"name":"칸타빌미용실","tel":"031-423-5285","addr":"경기도 의왕시 내손동 801-9번지 101호","category":"보건위생 - 미용원"},{"name":"화가의정원","tel":"031-456-1789","addr":"경기도 의왕시 내손동 801-9번지 102호","category":"주방용구 - 주방용식기"}]},{"lat":"37.3740275211","long":"126.9689785052","items":[{"name":"다온","tel":"031-429-1317","addr":"경기도 의왕시 내손동 825번지 2층 205호","category":"일반휴게음식 - 서양음식"},{"name":"다온 스크린 골프","tel":"031-429-3505","addr":"경기도 의왕시 내손동 825번지","category":"레저업소 - 스크린골프"},{"name":"영신전자","tel":"031-342-0233","addr":"경기도 의왕시 내손동 825번지 2층","category":"전기제품 - 가전제품"}]},{"lat":"37.3835269494","long":"126.9806155442","items":[{"name":"다원공조시스템","tel":"","addr":"경기도 의왕시 내손동 688-17번지","category":"용역 서비스 - 기타용역서비스"}]},{"lat":"37.3859766247","long":"126.9754997004","items":[{"name":"다이노 아트랩","tel":"","addr":"경기도 의왕시 내손동 622-13번지 1층","category":"문화.취미 - 문화취미기타"},{"name":"미래도서","tel":"031-424-3114","addr":"경기도 의왕시 내손동 622-13번지 101호","category":"회원제형태 - 서적"},{"name":"잉글리시아이백운학원","tel":"031-344-0051","addr":"경기도 의왕시 내손동 622-13번지 1층 일부","category":"학원 - 외국어학원"},{"name":"크린토피아 백운초교점","tel":"031-422-3838","addr":"경기도 의왕시 내손동 622-13번지 지하 102호","category":"수리서비스 - 세탁소"}]},{"lat":"37.3740000676","long":"126.9675334157","items":[{"name":"다이샵","tel":"031-451-5820","addr":"경기도 의왕시 내손동 816-7번지","category":"자동차정비 유지 - 자동차부품"}]},{"lat":"37.3798314542","long":"126.9743389899","items":[{"name":"닭갈비 한마당","tel":"070-8942-7026","addr":"경기도 의왕시 내손동 741-1번지 팬텀프라자 111호","category":"일반휴게음식 - 일반한식"},{"name":"대왕숯불화로구이","tel":"031-422-0989","addr":"경기도 의왕시 내손동 741-1팬텀프라자102호~104호","category":"일반휴게음식 - 일반한식"},{"name":"미니스톱내손팬텀점","tel":"031-425-3804","addr":"경기도 의왕시 내손동 741-1번지 팬텀프라자 106호","category":"유통업 영리 - 편 의 점"},{"name":"박현희산부인과","tel":"031-426-7977","addr":"경기도 의왕시 내손동 741-1번지 팬텀프라자 303호","category":"의원 - 의원"},{"name":"발리","tel":"031-423-2354","addr":"경기도 의왕시 내손동 741-1번지 펜텀프라자 109호","category":"일반휴게음식 - 일반한식"},{"name":"술이들어간다","tel":"031-426-4082","addr":"경기도 의왕시 내손동 741-1번지 팬텀프라자 1층 112호","category":"일반휴게음식 - 일반한식"},{"name":"신전떡볶이 내손점","tel":"031-422-0901","addr":"경기도 의왕시 내손동 741-1번지 팬텀프라자 113호","category":"일반휴게음식 - 일반한식"},{"name":"안양스페셜티커피학원","tel":"031-424-2442","addr":"경기도 의왕시 내손동 741-1번지 팬텀프라자 202호","category":"회원제형태 - 학원"},{"name":"엘레강스","tel":"031-423-0097","addr":"경기도 의왕시 내손동 741-1번지 팬텀프라자 2층 207호","category":"문화.취미 - 애완동물"},{"name":"재활플러스요양원","tel":"031-425-9030","addr":"경기도 의왕시 내손동 741-1번지 팬텀프라자 5층 503호","category":"기타의료기관 - 기타의료기관 및 기타"},{"name":"처갓집양념치킨 내손갈뫼점","tel":"031-424-8281","addr":"경기도 의왕시 내손동 741-1번지 팬텀프라자 1층 107호","category":"일반휴게음식 - 스넥"},{"name":"하얀피부","tel":"031-425-9922","addr":"경기도 의왕시 내손동 741-1번지 팬텀프라자 201호","category":"보건위생 - 피부미용실"},{"name":"하얀피부","tel":"031-425-9922","addr":"경기도 의왕시 내손동 741-1번지 팬텀프라자 201호","category":"회원제형태 - 기타4"},{"name":"현명사주방송","tel":"031-422-7377","addr":"경기도 의왕시 내손동 741-1번지 팬텀프라자 2층 207호","category":"학원 - 기타 교육기관"},{"name":"현명역학원","tel":"031-422-7377","addr":"경기도 의왕시 내손동 741-1번지 팬텀프라자 207호","category":"보건위생 - 기타대인서비스"},{"name":"현스헤어","tel":"031-424-4724","addr":"경기도 의왕시 내손동 741-1번지 팬텀프라자 203호","category":"보건위생 - 미용원"},{"name":"휴먼리필상사","tel":"031-423-1138","addr":"경기도 의왕시 내손동 741-1번지 팬텀프라자 제 1층 110호","category":"사무통신 - 기타 사무용품"}]},{"lat":"37.3871573994","long":"126.9775205086","items":[{"name":"당신은참예쁜꽃","tel":"070-7259-8843","addr":"경기도 의왕시 내손동 846번지 의왕내손이편한세상","category":"문화.취미 - 화원"}]},{"lat":"37.3863283917","long":"126.9771594533","items":[{"name":"대림어린이집[아이행복]","tel":"031-398-7739","addr":"경기도 의왕시 내손동 846번지 의왕내손이편한세상","category":"학원 - 유아원"}]},{"lat":"37.3902487271","long":"126.9819234618","items":[{"name":"대신상회","tel":"031-425-5022","addr":"경기도 의왕시 내손동 655번지 1층 101호","category":"음료식품 - 농·축·수산품"}]},{"lat":"37.3907537647","long":"126.9847802908","items":[{"name":"대신카인테리어","tel":"031-421-1359","addr":"경기도 의왕시 내손동 664-16번지","category":"자동차정비 유지 - 자동차정비"}]},{"lat":"37.3770822393","long":"126.9699932588","items":[{"name":"대양상사","tel":"02-3679-4225","addr":"경기도 의왕시 내손동 795번지 대원칸타빌1단지","category":"음료식품 - 기타음료식품"},{"name":"성문기획사","tel":"031-426-9897","addr":"경기도 의왕시 내손동 795번지 대원칸타빌1단지","category":"용역 서비스 - 사무서비스"},{"name":"에스유인터내셔날","tel":"070-7535-5123","addr":"경기도 의왕시 내손동 795번지 대원칸타빌1단지","category":"레져용품 - 스포츠·레져용품"}]},{"lat":"37.3913573374","long":"126.9841138905","items":[{"name":"대왕족발","tel":"031-423-2588","addr":"경기도 의왕시 내손동 662-9번지","category":"일반휴게음식 - 일반한식"}]},{"lat":"37.3837253466","long":"126.9815639560","items":[{"name":"대우슈퍼","tel":"031-425-3887","addr":"경기도 의왕시 내손동 688-10번지","category":"유통업 영리 - 슈퍼마켓"}]},{"lat":"37.3770553738","long":"126.9705916573","items":[{"name":"대원마트","tel":"031-422-2750","addr":"경기도 의왕시 내손동 795번지 대원칸타빌1단지 상가동 104호","category":"유통업 영리 - 슈퍼마켓"},{"name":"엔젤","tel":"031-425-6683","addr":"경기도 의왕시 내손동 795번지 대원칸타빌1단지 제상가동 102호","category":"보건위생 - 화장품"}]},{"lat":"37.3881946339","long":"126.9831435683","items":[{"name":"대원카센타","tel":"031-423-5968","addr":"경기도 의왕시 내손동 667번지 대원카센터","category":"자동차정비 유지 - 자동차정비"},{"name":"신부영식당","tel":"031-425-8233","addr":"경기도 의왕시 내손동 667번지","category":"일반휴게음식 - 일반한식"}]},{"lat":"37.3734779262","long":"126.9690577810","items":[{"name":"대한불교조계종용화사","tel":"031-452-1603","addr":"경기도 의왕시 내손동 827번지 대한불교조계종 용화사","category":"기타 - 비영리/대상"}]},{"lat":"37.3830581313","long":"126.9791139511","items":[{"name":"대한조경","tel":"031-421-0063","addr":"경기도 의왕시 내손동 694-22번지","category":"기타 - 기계공구"}]},{"lat":"37.3863906852","long":"126.9738057925","items":[{"name":"대한페인트","tel":"031-422-8118","addr":"경기도 의왕시 내손동 621-13번지","category":"건축자재 - 페인트"},{"name":"지혜머리방","tel":"031-423-4023","addr":"경기도 의왕시 내손동 621-13번지","category":"보건위생 - 미용원"}]},{"lat":"37.3845816320","long":"126.9834493848","items":[{"name":"더 제시","tel":"","addr":"경기도 의왕시 내손동 676-7번지 1층","category":"의류 - 정장"},{"name":"엘림상사","tel":"031-421-0311","addr":"경기도 의왕시 내손동 676-7번지","category":"전기제품 - 기타전기제품"}]},{"lat":"37.3846716313","long":"126.9828396228","items":[{"name":"더(The)설렘","tel":"031-425-2510","addr":"경기도 의왕시 내손동 678-11번지","category":"보건위생 - 미용원"},{"name":"두발로 신발","tel":"031-425-2616","addr":"경기도 의왕시 내손동 678-11번지","category":"신변잡화 - 신발"},{"name":"한림유통","tel":"031-423-1877","addr":"경기도 의왕시 내손동 678-11번지","category":"주방용구 - 주방용식기"}]},{"lat":"37.3765325905","long":"126.9698805965","items":[{"name":"더위로","tel":"070-5017-5210","addr":"경기도 의왕시 내손동 799번지 대원칸타빌2단지","category":"광학제품 - 사진관"}]},{"lat":"37.3895280256","long":"126.9825334406","items":[{"name":"더프라미스에프엔씨","tel":"031-425-2860","addr":"경기도 의왕시 내손동 655-13번지 대우빌라 B03호","category":"회원제형태 - 기타4"}]},{"lat":"37.3892473986","long":"126.9759614885","items":[{"name":"더하우스케어","tel":"","addr":"경기도 의왕시 내손동 414번지 삼성래미안아파트","category":"건축자재 - 인테리어전문"}]},{"lat":"37.3902491167","long":"126.9842496744","items":[{"name":"덕장한우","tel":"031-425-0113","addr":"경기도 의왕시 내손동 656-12번지 101호","category":"음료식품 - 정육점"},{"name":"동부곰탕","tel":"031-245-0113","addr":"경기도 의왕시 내손동 656-12번지 1층","category":"일반휴게음식 - 일반한식"}]},{"lat":"37.3795874989","long":"126.9716406062","items":[{"name":"던킨도너츠","tel":"031-426-1077","addr":"경기도 의왕시 내손동 746번지 롯데메디칼프라자 1층 105호","category":"음료식품 - 제과점"},{"name":"베스트골프아카데미","tel":"031-421-5228","addr":"경기도 의왕시 내손동 746번지 롯데메디칼프라자 7층","category":"레저업소 - 골프연습장"}]},{"lat":"37.3896628566","long":"126.9807492355","items":[{"name":"덤앤비","tel":"031-426-4889","addr":"경기도 의왕시 내손동 846번지 의왕내손이편한세상","category":"서적문구 - 완구점"}]},{"lat":"37.3794165593","long":"126.9726116747","items":[{"name":"데킬라 이벤트 악기연습실","tel":"031-422-0109","addr":"경기도 의왕시 내손동 748-1번지 성호빌딩 202호","category":"용역 서비스 - 사무서비스"},{"name":"돈갈비","tel":"031-423-5005","addr":"경기도 의왕시 내손동 748-1번지 성호빌딩 104호","category":"일반휴게음식 - 일반한식"},{"name":"명인만두","tel":"031-424-0701","addr":"경기도 의왕시 내손동 748-1번지 롯데프라자 103호","category":"일반휴게음식 - 일반한식"},{"name":"박진호스피치학원","tel":"031-426-0060","addr":"경기도 의왕시 내손동 748-1번지 롯데프라자 601호","category":"회원제형태 - 학원"},{"name":"사이버뮤직노래연습장","tel":"031-424-9065","addr":"경기도 의왕시 내손동 748-1번지 4층 401호 402호","category":"레저업소 - 노 래 방"},{"name":"엄마손식당","tel":"031-425-8519","addr":"경기도 의왕시 내손동 748-1번지 롯데프라자 105호","category":"일반휴게음식 - 일반한식"},{"name":"쟁반노래연습장","tel":"031-426-7141","addr":"경기도 의왕시 내손동 748-1번지 성호빌딩 301,302호","category":"레저업소 - 노 래 방"},{"name":"행복한오타쿠 내손점","tel":"031-424-9300","addr":"경기도 의왕시 내손동 748-1번지 성호빌딩 101호","category":"일반휴게음식 - 일반한식"}]},{"lat":"37.3841564829","long":"126.9750712900","items":[{"name":"도도잉글리쉬타운영어학원","tel":"031-421-6677","addr":"경기도 의왕시 내손동 845번지 포일자이 상가 나동 203,204호","category":"학원 - 외국어학원"},{"name":"디자인하루","tel":"031-423-1355","addr":"경기도 의왕시 내손동 845번지","category":"건축자재 - 인테리어전문"},{"name":"뚜레쥬르 의왕포일자이점","tel":"031-421-1259","addr":"경기도 의왕시 내손동 845번지","category":"음료식품 - 제과점"},{"name":"려진화원","tel":"031-425-7949","addr":"경기도 의왕시 내손동 845번지 포일자이 다 상가동 108호","category":"문화.취미 - 화원"},{"name":"쌀눈쌀 현미누룽지","tel":"031-425-5679","addr":"경기도 의왕시 내손동 845번지","category":"음료식품 - 기타음료식품"},{"name":"토브스킨케어","tel":"031-424-7780","addr":"경기도 의왕시 내손동 845번지","category":"보건위생 - 피부미용실"},{"name":"피엠푸드 의왕내손점","tel":"031-422-1082","addr":"경기도 의왕시 내손동 845번지","category":"일반휴게음식 - 서양음식"}]},{"lat":"37.3834183317","long":"126.9781202056","items":[{"name":"도미노피자내손점","tel":"031-423-3082","addr":"경기도 의왕시 내손동 691번지 103호,104호","category":"일반휴게음식 - 서양음식"},{"name":"필로스주식회사","tel":"031-421-9665","addr":"경기도 의왕시 내손동 691번지 102호","category":"보건위생 - 의료용품"}]},{"lat":"37.3712209483","long":"126.9948325904","items":[{"name":"돈독","tel":"","addr":"경기도 의왕시 내손동 91번지","category":"일반휴게음식 - 일반한식"}]},{"lat":"37.3910239277","long":"126.9838881254","items":[{"name":"동부매점","tel":"031-421-7676","addr":"경기도 의왕시 내손동 663번지 동부프라자 지하1층","category":"음료식품 - 기타음료식품"},{"name":"동부여성사우나","tel":"031-421-7676","addr":"경기도 의왕시 내손동 663번지 동부프라자 지하1층","category":"보건위생 - 사우나"},{"name":"디자인앤(Design Ann)","tel":"031-424-2200","addr":"경기도 의왕시 내손동 663번지 동부프라자 208호","category":"용역 서비스 - 종합용역"},{"name":"라인코스메틱","tel":"031-422-7870","addr":"경기도 의왕시 내손동 663번지 동부프라자 3층 304호","category":"보건위생 - 화장품"},{"name":"리텍헬스케어","tel":"031-421-5737","addr":"경기도 의왕시 내손동 663번지 동부프라자 3층 308호","category":"보건위생 - 의료용품"},{"name":"인텍","tel":"031-423-5355","addr":"경기도 의왕시 내손동 663번지 동부프라자 303호","category":"서적문구 - 과학기자재"},{"name":"테마노래연습장","tel":"031-421-0803","addr":"경기도 의왕시 내손동 663번지 동부프라자 2층 202,206,207호","category":"레저업소 - 노 래 방"},{"name":"토탈이벤트","tel":"031-425-4123","addr":"경기도 의왕시 내손동 663 동부프라자5층 501","category":"용역 서비스 - 사무서비스"},{"name":"프리미어뮤직 안양","tel":"031-000-0000","addr":"경기도 의왕시 내손동 663번지 동부프라자 408호","category":"서적문구 - 일반서적"}]},{"lat":"37.3915014774","long":"126.9839783447","items":[{"name":"동부방아간","tel":"031-425-2442","addr":"경기도 의왕시 내손동 662-10번지","category":"음료식품 - 제과점"},{"name":"동부전기","tel":"031-425-0446","addr":"경기도 의왕시 내손동 662-10번지","category":"전기제품 - 기타전기제품"}]},{"lat":"37.3792271330","long":"126.9717875340","items":[{"name":"동성왕족발","tel":"031-426-5777","addr":"경기도 의왕시 내손동 751-3번지 내손빌딩 2동 201호","category":"일반휴게음식 - 일반한식"}]},{"lat":"37.3755323530","long":"126.9694745916","items":[{"name":"동영버티칼","tel":"031-451-3800","addr":"경기도 의왕시 내손동 803-14번지","category":"직물 - 카페트,커튼,천막,지물"}]},{"lat":"37.3868065815","long":"126.9803661549","items":[{"name":"동진","tel":"031-479-1319","addr":"경기도 의왕시 내손동 643-4 서광상가1층15,16호","category":"서적문구 - 출판 및 인쇄물"},{"name":"떡수레","tel":"031-425-3488","addr":"경기도 의왕시 내손동 643-4번지 서광상가 1층 7호","category":"음료식품 - 제과점"},{"name":"뜰","tel":"031-422-5214","addr":"경기도 의왕시 내손동 643-4번지 서광 상가 1층 106호","category":"의류 - 정장"},{"name":"메가매쓰학원","tel":"031-422-7002","addr":"경기도 의왕시 내손동 643-4번지 서광 상가 302호","category":"학원 - 보습학원"},{"name":"메가매쓰학원","tel":"031-422-7002","addr":"경기도 의왕시 내손동 643-4 서광상가 302호~303호","category":"학원 - 보습학원"},{"name":"뷰 인테리어","tel":"031-423-0131","addr":"경기도 의왕시 내손동 643-3번지 서광상가1층 3","category":"건축자재 - 인테리어전문"},{"name":"뷰티앤쿡","tel":"031-388-8017","addr":"경기도 의왕시 내손동 643-4번지 서광상가 208호","category":"용역 서비스 - 사무서비스"},{"name":"센터당구클럽","tel":"","addr":"경기도 의왕시 내손동 643-4번지 지하1층","category":"레저업소 - 당 구 장"},{"name":"슈크레디노","tel":"","addr":"경기도 의왕시 내손동 643-4번지 서광상가 1층 14호","category":"음료식품 - 기타음료식품"},{"name":"엘로이즈호프","tel":"031-422-7712","addr":"경기도 의왕시 내손동 643-4번지 1층 1.2호","category":"일반휴게음식 - 주점"},{"name":"여우미가","tel":"031-242-9945","addr":"경기도 의왕시 내손동 643-4번지 서광상가 203호","category":"보건위생 - 미용원"},{"name":"오소아과의원","tel":"031-423-5813","addr":"경기도 의왕시 내손동 643-4번지 서광 상가 3층","category":"의원 - 의원"},{"name":"우리한의원","tel":"031-422-7575","addr":"경기도 의왕시 내손동 643-4번지 서광 상가 201호","category":"의원 - 한의원"},{"name":"위드음악교습소","tel":"031-425-0408","addr":"경기도 의왕시 내손동 643-4번지 서광 상가 305호","category":"학원 - 예·체능계학원"},{"name":"중앙장식","tel":"031-25-4351","addr":"경기도 의왕시 내손동 643-4번지 서광 상가","category":"직물 - 카페트,커튼,천막,지물"},{"name":"크린토피아 의왕내손점","tel":"031-426-3230","addr":"경기도 의왕시 내손동 643-4번지 서광상가 1층 13호","category":"수리서비스 - 세탁소"},{"name":"파리바게뜨의왕내손점","tel":"031-421-7703","addr":"경기도 의왕시 내손동 643-4번지 1층 10호,11호,12호","category":"음료식품 - 제과점"},{"name":"푸른치과의원","tel":"031-423-2875","addr":"경기도 의왕시 내손동 643-4번지 서광상사 4층","category":"의원 - 치과의원"},{"name":"헤어카페","tel":"031-421-1477","addr":"경기도 의왕시 내손동 643-4서광상가3","category":"보건위생 - 미용원"}]},{"lat":"37.3910598498","long":"126.9831654017","items":[{"name":"두꺼비청과","tel":"031-425-2291","addr":"경기도 의왕시 내손동 659-13번지","category":"음료식품 - 농·축·수산품"}]},{"lat":"37.3889153426","long":"126.9825561904","items":[{"name":"두레문구","tel":"031-422-6362","addr":"경기도 의왕시 내손동 651번지 상가 1층 1호","category":"서적문구 - 문구용품"},{"name":"실로암","tel":"031-424-1185","addr":"경기도 의왕시 내손동 651번지 103호","category":"일반휴게음식 - 일반한식"}]},{"lat":"37.3836712347","long":"126.9812816887","items":[{"name":"둥지인테리어","tel":"031-425-9959","addr":"경기도 의왕시 내손동 688-12번지","category":"수리서비스 - 기타수리서비스"},{"name":"충남건업","tel":"031-423-2858","addr":"경기도 의왕시 내손동 688-12번지","category":"건축자재 - 유리"}]},{"lat":"37.3761406615","long":"126.9982755689","items":[{"name":"들꽃/주식회사 유웅지","tel":"031-426-5779","addr":"경기도 의왕시 내손동 42번지","category":"일반휴게음식 - 일반한식"}]},{"lat":"37.3789757289","long":"126.9753328875","items":[{"name":"디에이치 컴퍼니","tel":"070-7782-5429","addr":"경기도 의왕시 내손동 757-2번지 미원파크빌 101동 2층 203호일부~203-6호","category":"보건위생 - 화장품"},{"name":"땡초꼼장어 닭발","tel":"031-421-2505","addr":"경기도 의왕시 내손동 757-2번지 미원파크빌 101,102,103호","category":"일반휴게음식 - 일반한식"}]},{"lat":"37.3871478249","long":"126.9750137257","items":[{"name":"디자인가인","tel":"031-424-7392","addr":"경기도 의왕시 내손동 843번지 우미린아파트","category":"서적문구 - 출판 및 인쇄물"}]},{"lat":"37.3831119166","long":"126.9777815696","items":[{"name":"디지털오에이","tel":"031-425-9501","addr":"경기도 의왕시 내손동 692번지","category":"사무통신 - 사무용 OA기기"},{"name":"환희카센타","tel":"031-423-3071","addr":"경기도 의왕시 내손동 692번지","category":"자동차정비 유지 - 자동차정비"}]},{"lat":"37.3749193700","long":"126.9684474739","items":[{"name":"딜리","tel":"070-8960-3350","addr":"경기도 의왕시 내손동 812번지 1층","category":"일반휴게음식 - 서양음식"},{"name":"조아헤어샵","tel":"031-477-9587","addr":"경기도 의왕시 내손동 812번지 대명빌 102호","category":"보건위생 - 미용원"}]},{"lat":"37.3852481236","long":"126.9819474373","items":[{"name":"또래오래치킨 내손점","tel":"031-425-9992","addr":"경기도 의왕시 내손동 680-10번지 1층","category":"일반휴게음식 - 스넥"},{"name":"와와노래연습장","tel":"031-426-1923","addr":"경기도 의왕시 내손동 680-10번지","category":"레저업소 - 노 래 방"},{"name":"일미생고기","tel":"031-421-6614","addr":"경기도 의왕시 내손동 680-10번지","category":"일반휴게음식 - 일반한식"}]},{"lat":"37.3800570030","long":"126.9755921795","items":[{"name":"라무르","tel":"031-426-1820","addr":"경기도 의왕시 내손동 734-3번지","category":"숙박업 - 여관/기타숙박업"},{"name":"아이엠티(IMT)호텔","tel":"031-426-1820","addr":"경기도 의왕시 내손동 734-3번지","category":"숙박업 - 여관/기타숙박업"}]},{"lat":"37.3762363541","long":"126.9740806782","items":[{"name":"라벨유","tel":"031-388-2201","addr":"경기도 의왕시 내손동 774번지 반도보라빌리지2단지","category":"의류 - 정장"},{"name":"책만","tel":"070-8031-4038","addr":"경기도 의왕시 내손동 774번지 반도보라빌리지2단지","category":"서적문구 - 출판 및 인쇄물"}]},{"lat":"37.3893373828","long":"126.9754533092","items":[{"name":"래미안새싹어린이집[아이행복]","tel":"031-424-4823","addr":"경기도 의왕시 내손동 414번지 삼성래미안아파트","category":"학원 - 유아원"}]},{"lat":"37.3782539718","long":"126.9715282545","items":[{"name":"럭키방아간","tel":"031-422-8733","addr":"경기도 의왕시 내손동 791,주공상가105","category":"음료식품 - 제과점"}]},{"lat":"37.3868879389","long":"126.9818114797","items":[{"name":"레이노(동안점)","tel":"031-8086-5217","addr":"경기도 의왕시 내손동 669-9번지 301호","category":"자동차정비 유지 - 카인테리어"},{"name":"카페다올","tel":"031-424-6063","addr":"경기도 의왕시 내손동 669-9번지 1층 101호 다올하우스 카페다올","category":"일반휴게음식 - 서양음식"}]},{"lat":"37.3899864142","long":"126.9767968511","items":[{"name":"레인보우어린이집[아이행복]","tel":"070-7578-5899","addr":"경기도 의왕시 내손동 414번지 삼성래미안아파트","category":"학원 - 유아원"},{"name":"한지나라","tel":"031-425-2101","addr":"경기도 의왕시 내손동 414번지 삼성래미안아파트","category":"문화.취미 - 민예·공예품"}]},{"lat":"37.3781127298","long":"126.9857768923","items":[{"name":"로뎀하우스","tel":"070-8807-0093","addr":"경기도 의왕시 내손동 221-7번지","category":"문화.취미 - 애완동물"}]},{"lat":"37.3830747657","long":"126.9730053966","items":[{"name":"리바디 발란스(Re:body balance)","tel":"","addr":"경기도 의왕시 내손동 845번지 포일자이아파트","category":"레저업소 - 헬스클럽"},{"name":"허니콤(HONEY COMB)","tel":"031-343-9875","addr":"경기도 의왕시 내손동 845번지 포일자이아파트","category":"용역 서비스 - 종합용역"}]},{"lat":"37.3873921798","long":"126.9800610994","items":[{"name":"리얼바디짐","tel":"031-421-9220","addr":"경기도 의왕시 내손동 643번지 3층 301,302,303호","category":"레저업소 - 헬스클럽"},{"name":"리얼바디짐 요가","tel":"031-226-4025","addr":"경기도 의왕시 내손동 643번지 2층 202-205호,3층 304호","category":"레저업소 - 헬스클럽"},{"name":"이씨돌웰빙마켓(EC)","tel":"031-426-1117","addr":"경기도 의왕시 내손동 643번지","category":"유통업 영리 - 슈퍼마켓"}]},{"lat":"37.3791409609","long":"126.9967285689","items":[{"name":"마루소","tel":"031-421-3360","addr":"경기도 의왕시 내손동 14-1번지","category":"일반휴게음식 - 일반한식"},{"name":"마루소소잡는날","tel":"031-421-3360","addr":"경기도 의왕시 내손동 14-1번지","category":"음료식품 - 정육점"}]},{"lat":"37.3853923350","long":"126.9822296863","items":[{"name":"마법의부엌","tel":"031-424-9289","addr":"경기도 의왕시 내손동 673-15번지 1층","category":"음료식품 - 기타음료식품"}]},{"lat":"37.3908072539","long":"126.9813699797","items":[{"name":"마베베","tel":"","addr":"경기도 의왕시 내손동 653-9번지 이화다세대 301호","category":"의류 - 아동의류"}]},{"lat":"37.3803091306","long":"126.9749259307","items":[{"name":"마이호텔 (My Hotel)","tel":"031-424-0633","addr":"경기도 의왕시 내손동 733-4번지","category":"숙박업 - 여관/기타숙박업"}]},{"lat":"37.3896078129","long":"126.9760065284","items":[{"name":"만도스포츠","tel":"031-555-6759","addr":"경기도 의왕시 내손동 414","category":"레져용품 - 스포츠·레져용품"},{"name":"코코호도 의왕내손점","tel":"031-425-7778","addr":"경기도 의왕시 내손동 414번지","category":"음료식품 - 제과점"}]},{"lat":"37.3865529224","long":"126.9740315646","items":[{"name":"만두빚는집","tel":"031-424-1294","addr":"경기도 의왕시 내손동 621-11번지","category":"일반휴게음식 - 일반한식"},{"name":"의왕녹즙","tel":"031-455-8850","addr":"경기도 의왕시 내손동 621-11번지 1층 3호","category":"건강식품 - 기타건강식품"}]},{"lat":"37.3841398360","long":"126.9816993352","items":[{"name":"매일우유신포일대리점","tel":"031-421-9847","addr":"경기도 의왕시 내손동 678-21번지","category":"음료식품 - 기타음료식품"}]},{"lat":"37.3851400322","long":"126.9821168403","items":[{"name":"머리하는날","tel":"031-423-4433","addr":"경기도 의왕시 내손동 680-11번지","category":"보건위생 - 미용원"}]},{"lat":"37.3836079457","long":"126.9801187031","items":[{"name":"메이플트리","tel":"031-421-9961","addr":"경기도 의왕시 내손동 689-12 301 23/4","category":"건축자재 - 인테리어전문"}]},{"lat":"37.3788942171","long":"126.9735828756","items":[{"name":"멘토1:1영어교습소","tel":"031-423-2205","addr":"경기도 의왕시 내손동 763번지 대명스위트빌 2층 202호","category":"학원 - 보습학원"},{"name":"플레잉음악학원","tel":"031-426-1288","addr":"경기도 의왕시 내손동 763번지 대명스위트빌 2층 203호","category":"학원 - 예·체능계학원"}]},{"lat":"37.3839690161","long":"126.9838899057","items":[{"name":"명인컴퓨터","tel":"02-447-2668","addr":"경기도 의왕시 내손동 698-6번지 102호","category":"사무통신 - 컴퓨터"}]},{"lat":"37.3832201022","long":"126.9780863971","items":[{"name":"명품세차","tel":"031-422-2235","addr":"경기도 의왕시 내손동 691-19번지 효성다세대 302호","category":"자동차정비 유지 - 세차장"}]},{"lat":"37.3837524154","long":"126.9817784835","items":[{"name":"모락모락","tel":"031-421-5354","addr":"경기도 의왕시 내손동 677-21번지 101호","category":"일반휴게음식 - 스넥"},{"name":"수헤어샵","tel":"031-424-7611","addr":"경기도 의왕시 내손동 677-21번지 102호","category":"보건위생 - 미용원"}]},{"lat":"37.3780857158","long":"126.9858898032","items":[{"name":"모락산 숲 자람터","tel":"031-388-6881","addr":"경기도 의왕시 내손동 221-1번지","category":"학원 - 기타 교육기관"},{"name":"자연한나키즈","tel":"031-388-6881","addr":"경기도 의왕시 내손동 221-1번지 2층","category":"학원 - 예·체능계학원"}]},{"lat":"37.3856354528","long":"126.9813601662","items":[{"name":"모락산김밥","tel":"031-421-5282","addr":"경기도 의왕시 내손동 682-11번지","category":"일반휴게음식 - 일반한식"},{"name":"신헤어","tel":"031-426-0207","addr":"경기도 의왕시 내손동 682-11번지 1층","category":"보건위생 - 미용원"},{"name":"주공철물","tel":"031-424-7701","addr":"경기도 의왕시 내손동 682-11번지 상가우측 1층 104호","category":"건축자재 - 목재·석재·철물"},{"name":"현 베이스볼","tel":"031-455-4004","addr":"경기도 의왕시 내손동 682-11번지 1층 104호","category":"레져용품 - 스포츠·레져용품"}]},{"lat":"37.3713104293","long":"126.9883411439","items":[{"name":"모락산안골","tel":"031-426-9766","addr":"경기도 의왕시 내손동 157번지","category":"일반휴게음식 - 일반한식"},{"name":"카페 세린디피티","tel":"031-111-1111","addr":"경기도 의왕시 내손동 157번지 1층","category":"일반휴게음식 - 서양음식"}]},{"lat":"37.3714731532","long":"126.9937487734","items":[{"name":"모산","tel":"031-426-2989","addr":"경기도 의왕시 내손동 83번지","category":"일반휴게음식 - 일반한식"}]},{"lat":"37.3800300168","long":"126.9757841322","items":[{"name":"모텔BOBOS","tel":"031-424-3775","addr":"경기도 의왕시 내손동 734-4번지","category":"숙박업 - 여관/기타숙박업"}]},{"lat":"37.3851673841","long":"126.9840363933","items":[{"name":"모해나","tel":"02-2183-0930","addr":"경기도 의왕시 내손동 674-12번지 102호","category":"일반휴게음식 - 서양음식"}]},{"lat":"37.3774713019","long":"126.9764850565","items":[{"name":"목정","tel":"031-422-6778","addr":"경기도 의왕시 내손동 771번지 반도보라빌리지1단지","category":"의류 - 정장"},{"name":"반도엔젤키즈어린이집[아이행복]","tel":"031-421-7778","addr":"경기도 의왕시 내손동 771번지 반도보라빌리지1단지","category":"학원 - 유아원"},{"name":"블룸인","tel":"","addr":"경기도 의왕시 내손동 771번지 반도보라빌리지1단지","category":"의류 - 내의판매"}]},{"lat":"37.3863021718","long":"126.9812018918","items":[{"name":"무교동낙지","tel":"031-422-0252","addr":"경기도 의왕시 내손동 669-2번지 지하1층","category":"일반휴게음식 - 일반한식"},{"name":"옛날통닭","tel":"031-425-1235","addr":"경기도 의왕시 내손동 669-2번지 지층 102호","category":"일반휴게음식 - 일반한식"}]},{"lat":"37.3835807516","long":"126.9792831555","items":[{"name":"문디자인","tel":"031-423-2839","addr":"경기도 의왕시 내손동 689-20번지","category":"건축자재 - 인테리어전문"}]},{"lat":"37.3842208863","long":"126.9814734846","items":[{"name":"미니라이프","tel":"031-347-7890","addr":"경기도 의왕시 내손동 678-23번지 지하1층 세계일보포일지국","category":"가구 - 기타가구"}]},{"lat":"37.3872468071","long":"126.9744716806","items":[{"name":"미랑미랑","tel":"031-111-1111","addr":"경기도 의왕시 내손동 619-13번지 1층","category":"일반휴게음식 - 일반한식"},{"name":"베이비공화국","tel":"031-000-0000","addr":"경기도 의왕시 내손동 619-13번지 1층 104호","category":"의류 - 정장"},{"name":"워터뱅크","tel":"031-452-6197","addr":"경기도 의왕시 내손동 619-13번지","category":"음료식품 - 기타음료식품"},{"name":"진로석수가람","tel":"031-398-6197","addr":"경기도 의왕시 내손동 619-13번지 105호","category":"음료식품 - 기타음료식품"}]},{"lat":"37.3848878930","long":"126.9829524801","items":[{"name":"미뷰티헤어","tel":"","addr":"경기도 의왕시 내손동 676-12번지 지하1층","category":"보건위생 - 미용원"},{"name":"태양건강원","tel":"031-421-9492","addr":"경기도 의왕시 내손동 676-12번지 지층","category":"건강식품 - 기타건강식품"}]},{"lat":"37.3831668518","long":"126.9823093355","items":[{"name":"미소그린플라워","tel":"031-422-5218","addr":"경기도 의왕시 내손동 695-22번지 가람다세대 202호","category":"문화.취미 - 화원"}]},{"lat":"37.3793082091","long":"126.9717310473","items":[{"name":"미소스시","tel":"031-423-5141","addr":"경기도 의왕시 내손동 751-3번지 내손빌딩 105호","category":"일반휴게음식 - 일반한식"},{"name":"바락세꼬시","tel":"031-422-1484","addr":"경기도 의왕시 내손동 751-3번지 내손빌딩 104호","category":"일반휴게음식 - 일반한식"},{"name":"별하스터디센터독서실","tel":"","addr":"경기도 의왕시 내손동 751-3번지 두성프라자 502호","category":"학원 - 독서실"},{"name":"소래버섯나라","tel":"031-425-0116","addr":"경기도 의왕시 내손동 751-3번지 내손빌딩 202호","category":"일반휴게음식 - 일반한식"},{"name":"에이치에스골프","tel":"","addr":"경기도 의왕시 내손동 751-3번지 두성프라자 4층 401-2호","category":"레져용품 - 골프용품 전문점"},{"name":"주앤지헤어","tel":"","addr":"경기도 의왕시 내손동 751-3번지 내손빌딩 1층 108호","category":"보건위생 - 미용원"},{"name":"추학언어논술학원","tel":"02-6925-5021","addr":"경기도 의왕시 내손동 751-3번지 내손빌딩 501호","category":"학원 - 보습학원"},{"name":"한서방 두루치기","tel":"031-426-7992","addr":"경기도 의왕시 내손동 751-3번지 내손빌딩 103호","category":"일반휴게음식 - 일반한식"}]},{"lat":"37.3801646518","long":"126.9736162536","items":[{"name":"미플","tel":"031-422-0898","addr":"경기도 의왕시 내손동 743번지 3층","category":"회원제형태 - 기타4"},{"name":"상상블럭롯데마트의왕점","tel":"031-426-0970","addr":"경기도 의왕시 내손동 743번지","category":"학원 - 기타 교육기관"},{"name":"성모프라자약국","tel":"031-425-4774","addr":"경기도 의왕시 내손동 743번지 롯데마트의왕점 내","category":"약국 - 약국"},{"name":"이철헤어커커의왕롯데마트점","tel":"031-421-2326","addr":"경기도 의왕시 내손동 743번지 의왕롯데마트 2층 미용실코너","category":"보건위생 - 미용원"},{"name":"크린테크 의왕점","tel":"031-423-6999","addr":"경기도 의왕시 내손동 743번지 롯데마트 4층 스팀세차코너","category":"자동차정비 유지 - 세차장"},{"name":"탑안경","tel":"031-425-0487","addr":"경기도 의왕시 내손동 743번지 롯데마트 1층","category":"보건위생 - 안경"},{"name":"해맑은치과의원","tel":"031-421-4792","addr":"경기도 의왕시 내손동 743번지 롯데마트 3층","category":"의원 - 치과의원"}]},{"lat":"37.3834996831","long":"126.9793960937","items":[{"name":"민성오토바이","tel":"031-426-4939","addr":"경기도 의왕시 내손동 689-19번지 1층","category":"자동차판매 - 이륜차판매"},{"name":"에어컨닥터","tel":"070-7533-2113","addr":"경기도 의왕시 내손동 689-19번지 201호","category":"수리서비스 - 기타수리서비스"}]},{"lat":"37.3862824829","long":"126.9734783750","items":[{"name":"박용수헤어코디","tel":"031-421-5491","addr":"경기도 의왕시 내손동 619-4번지","category":"보건위생 - 미용원"}]},{"lat":"37.3850049200","long":"126.9823427077","items":[{"name":"반다이크","tel":"","addr":"경기도 의왕시 내손동 679-6번지 1층","category":"일반휴게음식 - 서양음식"},{"name":"인성철물","tel":"031-425-5218","addr":"경기도 의왕시 내손동 679-6번지","category":"건축자재 - 목재·석재·철물"}]},{"lat":"37.3865261384","long":"126.9750591228","items":[{"name":"밝은누리어린이집[아이행복]","tel":"031-421-0788","addr":"경기도 의왕시 내손동 622-2번지","category":"학원 - 유아원"}]},{"lat":"37.3847524063","long":"126.9810555490","items":[{"name":"밤새","tel":"","addr":"경기도 의왕시 내손동 681-19번지 202호","category":"신변잡화 - 액세서리"}]},{"lat":"37.3775148466","long":"126.9704333949","items":[{"name":"방배크리닝","tel":"070-8474-5232","addr":"경기도 의왕시 내손동 795번지 대원칸타빌1단지","category":"수리서비스 - 세탁소"},{"name":"샛별어린이집[아이행복]","tel":"031-342-7392","addr":"경기도 의왕시 내손동 795번지 대원칸타빌1단지","category":"학원 - 유아원"}]},{"lat":"37.3848873000","long":"126.9797005311","items":[{"name":"백양BYC","tel":"031-425-2160","addr":"경기도 의왕시 내손동 684-8번지","category":"의류 - 내의판매"},{"name":"의왕식품","tel":"031-421-7025","addr":"경기도 의왕시 내손동 684-8 102호","category":"음료식품 - 기타음료식품"}]},{"lat":"37.3867534726","long":"126.9860910983","items":[{"name":"백운고 매점","tel":"","addr":"경기도 의왕시 내손동 665-5번지","category":"음료식품 - 기타음료식품"},{"name":"백운고등학교","tel":"031-423-2335","addr":"경기도 의왕시 내손동 665-5번지 백운고등학교","category":"학원 - 초중고교육기관"},{"name":"백운고등학교_수업료","tel":"031-423-2335","addr":"경기도 의왕시 내손동 665-5번지 백운고등학교","category":"학원 - 초중고교육기관"}]},{"lat":"37.3862465871","long":"126.9740655571","items":[{"name":"백운인쇄기획사","tel":"031-395-8600","addr":"경기도 의왕시 내손동 622-1번지","category":"서적문구 - 출판 및 인쇄물"},{"name":"블룸블룸","tel":"070-7420-7886","addr":"경기도 의왕시 내손동 622-1번지 101호","category":"의류 - 정장"}]},{"lat":"37.3858322746","long":"126.9746980471","items":[{"name":"백운초등학교","tel":"031-421-3719","addr":"경기도 의왕시 내손동 622번지 백운초등학교","category":"학원 - 초중고교육기관"}]},{"lat":"37.3738069258","long":"126.9959500070","items":[{"name":"백운호수 능안계곡","tel":"031-426-2525","addr":"경기도 의왕시 내손동 59번지","category":"일반휴게음식 - 일반한식"}]},{"lat":"37.3831933101","long":"126.9792494032","items":[{"name":"벧엘헤어","tel":"031-422-9522","addr":"경기도 의왕시 내손동 694-1번지 101호","category":"보건위생 - 미용원"},{"name":"치킨더부네마늘치킨","tel":"031-422-8824","addr":"경기도 의왕시 내손동 694-1번지","category":"일반휴게음식 - 스넥"}]},{"lat":"37.3797236651","long":"126.9757503703","items":[{"name":"벽돌집","tel":"031-425-0501","addr":"경기도 의왕시 내손동 739-1번지 101호","category":"일반휴게음식 - 일반한식"},{"name":"벽돌집","tel":"031-425-0501","addr":"경기도 의왕시 내손동 739-1번지 대진오피스텔 1층 상가","category":"일반휴게음식 - 일반한식"}]},{"lat":"37.3781937764","long":"126.9854720308","items":[{"name":"별당식당","tel":"031-423-2240","addr":"경기도 의왕시 내손동 224-1번지","category":"일반휴게음식 - 일반한식"}]},{"lat":"37.3855003421","long":"126.9815860365","items":[{"name":"별법동태탕찜왕해물찜","tel":"031-425-4311","addr":"경기도 의왕시 내손동 681-10번지","category":"일반휴게음식 - 일반한식"},{"name":"청솔농장","tel":"031-426-1414","addr":"경기도 의왕시 내손동 681-10번지 1층 102호","category":"음료식품 - 정육점"}]},{"lat":"37.3913302620","long":"126.9838315858","items":[{"name":"보니안","tel":"031-425-6252","addr":"경기도 의왕시 내손동 659-8번지","category":"의류 - 정장"},{"name":"자매보쌈","tel":"031-425-0807","addr":"경기도 의왕시 내손동 659-8번지","category":"일반휴게음식 - 일반한식"}]},{"lat":"37.3754422995","long":"126.9696439827","items":[{"name":"보람축산","tel":"031-422-4092","addr":"경기도 의왕시 내손동 803-1번지 상가 1층 101","category":"음료식품 - 농·축·수산품"}]},{"lat":"37.3852477790","long":"126.9800843326","items":[{"name":"보용만두","tel":"031-421-7540","addr":"경기도 의왕시 내손동 683-1번지 101호","category":"일반휴게음식 - 일반한식"},{"name":"행거","tel":"02-3444-6550","addr":"경기도 의왕시 내손동 683-1번지 102호","category":"의류 - 정장"}]},{"lat":"37.3908616520","long":"126.9833122546","items":[{"name":"보일러114","tel":"031-424-3355","addr":"경기도 의왕시 내손동 658-8번지 103호","category":"용역 서비스 - 기타용역서비스"},{"name":"용인쌀상회","tel":"031-425-2923","addr":"경기도 의왕시 내손동 658-8번지","category":"음료식품 - 미곡상"}]},{"lat":"37.3858422752","long":"126.9792146967","items":[{"name":"보일러마트","tel":"031-421-4915","addr":"경기도 의왕시 내손동 846번지 의왕내손이편한세상 1501동 301호","category":"건축자재 - 인테리어전문"}]},{"lat":"37.3902761076","long":"126.9840012371","items":[{"name":"보팅루어닷컴","tel":"","addr":"경기도 의왕시 내손동 656-8번지 아름다세대 B02호","category":"레져용품 - 스포츠·레져용품"}]},{"lat":"37.3759196306","long":"126.9689212027","items":[{"name":"본가태능숯불갈비","tel":"031-477-1825","addr":"경기도 의왕시 내손동 810번지","category":"일반휴게음식 - 일반한식"}]},{"lat":"37.3794974868","long":"126.9719793640","items":[{"name":"본치과","tel":"031-426-2875","addr":"경기도 의왕시 내손동 746-2번지 엘지프라자 301동 302호","category":"의원 - 치과의원"},{"name":"펀비어킹","tel":"031-425-9945","addr":"경기도 의왕시 내손동 746-2번지 내손동LG프라자 103호","category":"일반휴게음식 - 일반한식"}]},{"lat":"37.3896360102","long":"126.9817542494","items":[{"name":"뷰티 플레이그라운드","tel":"031-426-0179","addr":"경기도 의왕시 내손동 652-19번지 2호","category":"보건위생 - 미용원"},{"name":"수정당","tel":"031-422-6848","addr":"경기도 의왕시 내손동 652-19번지","category":"신변잡화 - 시계"},{"name":"일곱번째미술교습소","tel":"031-348-6843","addr":"경기도 의왕시 내손동 652-19 201호 /1","category":"학원 - 예·체능계학원"}]},{"lat":"37.3907264401","long":"126.9829509341","items":[{"name":"비룡종합공사","tel":"031-427-0959","addr":"경기도 의왕시 내손동 658-5번지 1층","category":"건축자재 - 인테리어전문"}]},{"lat":"37.3748653421","long":"126.9685603985","items":[{"name":"비비큐내손1동점(갈뫼)","tel":"031-459-8592","addr":"경기도 의왕시 내손동 812-1번지 1층","category":"일반휴게음식 - 스넥"},{"name":"은아공방","tel":"031-422-5315","addr":"경기도 의왕시 내손동 812-1번지 영원주택 102호","category":"문화.취미 - 민예·공예품"},{"name":"지음하우스","tel":"070-7420-2103","addr":"경기도 의왕시 내손동 812-1번지 영원주택 1동 103층","category":"문화.취미 - 문화취미기타"}]},{"lat":"37.3892756642","long":"126.9820818229","items":[{"name":"비비큐치킨내손점","tel":"031-423-9285","addr":"경기도 의왕시 내손동 652-15번지","category":"일반휴게음식 - 스넥"},{"name":"은초롱피아노학원","tel":"031-425-3022","addr":"경기도 의왕시 내손동 652-15번지","category":"학원 - 예·체능계학원"},{"name":"처가집양념통닭","tel":"031-425-1145","addr":"경기도 의왕시 내손동 652-15번지 제1층 103호","category":"일반휴게음식 - 스넥"},{"name":"컴퓨터 랜드","tel":"031-425-2119","addr":"경기도 의왕시 내손동 652-15번지 101호","category":"사무통신 - 컴퓨터"}]},{"lat":"37.3833642923","long":"126.9782218447","items":[{"name":"비씨에이디","tel":"070-8732-1212","addr":"경기도 의왕시 내손동 691-1번지 동화빌라 지층 3호","category":"서적문구 - 완구점"}]},{"lat":"37.3885536567","long":"126.9761198252","items":[{"name":"비엘 (631BL)","tel":"031-422-6800","addr":"경기도 의왕시 내손동 631-2번지 별동 1층 건형 상가","category":"일반휴게음식 - 일반한식"}]},{"lat":"37.3863922873","long":"126.9812809078","items":[{"name":"비올렛","tel":"031-422-3155","addr":"경기도 의왕시 내손동 669-3번지 G동 1층","category":"일반휴게음식 - 서양음식"}]},{"lat":"37.3912762680","long":"126.9842494201","items":[{"name":"비즈벨","tel":"031-424-7085","addr":"경기도 의왕시 내손동 662-8번지","category":"기타 - 기타 전문점"},{"name":"정가네식당","tel":"031-421-3309","addr":"경기도 의왕시 내손동 662-8번지 1층","category":"일반휴게음식 - 일반한식"}]},{"lat":"37.3842484171","long":"126.9844431135","items":[{"name":"빨간장화","tel":"070-7518-8515","addr":"경기도 의왕시 내손동 702-7번지","category":"학원 - 기타 교육기관"}]},{"lat":"37.3896438892","long":"126.9761646064","items":[{"name":"사랑나무어린이집[아이행복]","tel":"031-425-2292","addr":"경기도 의왕시 내손동 414번지 삼성래미안아파트","category":"학원 - 유아원"},{"name":"주아샵","tel":"070-8181-8909","addr":"경기도 의왕시 내손동 414번지 삼성래미안아파트","category":"신변잡화 - 액세서리"}]},{"lat":"37.3711931845","long":"126.9874493010","items":[{"name":"산나래한정식","tel":"031-423-3788","addr":"경기도 의왕시 내손동 173-1번지","category":"일반휴게음식 - 일반한식"},{"name":"주식회사건강힐링캠프","tel":"070-4469-6958","addr":"경기도 의왕시 내손동 173-1번지","category":"일반휴게음식 - 일반한식"}]},{"lat":"37.3756943288","long":"126.9687519526","items":[{"name":"산채촌","tel":"031-427-0797","addr":"경기도 의왕시 내손동 810-2번지 1층","category":"일반휴게음식 - 일반한식"}]},{"lat":"37.3850856144","long":"126.9801747138","items":[{"name":"삼립샤니빵 안양대리점","tel":"070-8236-4308","addr":"경기도 의왕시 내손동 683-21번지","category":"유통업 영리 - 슈퍼마켓"},{"name":"쿨좌훈방","tel":"031-423-2360","addr":"경기도 의왕시 내손동 683-21번지","category":"보건위생 - 피부미용실"}]},{"lat":"37.3905825468","long":"126.9846109468","items":[{"name":"삼신인터네셔날","tel":"070-8782-3566","addr":"경기도 의왕시 내손동 664-18번지 1층","category":"가구 - 일반가구"}]},{"lat":"37.3878789255","long":"126.9811223940","items":[{"name":"새롬어린이집[아이행복]","tel":"031-348-6972","addr":"경기도 의왕시 내손동 628","category":"학원 - 유아원"}]},{"lat":"37.3892216234","long":"126.9821947592","items":[{"name":"샛별보습학원","tel":"031-426-2100","addr":"경기도 의왕시 내손동 652-14번지 2층","category":"학원 - 보습학원"},{"name":"커피캣츠웰 의왕내손점","tel":"031-341-8683","addr":"경기도 의왕시 내손동 652-14번지","category":"일반휴게음식 - 서양음식"}]},{"lat":"37.3918618045","long":"126.9835039677","items":[{"name":"서울포차","tel":"031-421-5839","addr":"경기도 의왕시 내손동 660-12번지","category":"일반휴게음식 - 일반한식"},{"name":"전세상","tel":"031-425-0280","addr":"경기도 의왕시 내손동 660-12번지","category":"일반휴게음식 - 일반한식"},{"name":"코리안숯불닭바베큐","tel":"031-425-4113","addr":"경기도 의왕시 내손동 660-12번지 102호","category":"일반휴게음식 - 스넥"},{"name":"호세야오리바베큐","tel":"031-424-5293","addr":"경기도 의왕시 내손동 660-12번지 1호","category":"일반휴게음식 - 일반한식"}]},{"lat":"37.3916906256","long":"126.9835830593","items":[{"name":"선일바지락칼국수","tel":"031-424-6565","addr":"경기도 의왕시 내손동 660-13번지","category":"일반휴게음식 - 일반한식"}]},{"lat":"37.3857069557","long":"126.9783904515","items":[{"name":"선정어린이집[아이행복]","tel":"031-425-3468","addr":"경기도 의왕시 내손동 846번지 의왕내손이편한세상 1503동 101호","category":"학원 - 유아원"}]},{"lat":"37.3836708256","long":"126.9791476316","items":[{"name":"설랭이 설랭이","tel":"031-423-0558","addr":"경기도 의왕시 내손동 689-21번지 상가 101호","category":"일반휴게음식 - 일반한식"}]},{"lat":"37.3780194904","long":"126.9707154389","items":[{"name":"성원메디칼","tel":"","addr":"경기도 의왕시 내손동 791번지 의왕내손주공아파트","category":"보건위생 - 의료용품"}]},{"lat":"37.3840854750","long":"126.9800846846","items":[{"name":"세명시스템","tel":"02-6340-5385","addr":"경기도 의왕시 내손동 686-3번지 지층","category":"용역 서비스 - 종합용역"}]},{"lat":"37.3919970147","long":"126.9838652947","items":[{"name":"세븐뮤비노래존","tel":"031-424-5986","addr":"경기도 의왕시 내손동 661-1번지 지하층","category":"용역 서비스 - 종합용역"},{"name":"홍천전통화로숯불구이","tel":"031-424-9282","addr":"경기도 의왕시 내손동 661-1번지","category":"일반휴게음식 - 일반한식"}]},{"lat":"37.3773901475","long":"126.9762028258","items":[{"name":"세븐일레븐의왕내손중앙점","tel":"031-1577-0711","addr":"경기도 의왕시 내손동 771번지 반도보라빌리지1단지 상가동 1층 102호","category":"유통업 영리 - 편 의 점"},{"name":"수스킨케어","tel":"031-476-7080","addr":"경기도 의왕시 내손동 771번지 반도보라빌리지1단지 상가 ,204호","category":"보건위생 - 피부미용실"},{"name":"자루","tel":"031-421-5997","addr":"경기도 의왕시 내손동 771번지 반도보라1단지상가-203호","category":"가구 - 기타가구"},{"name":"크린위드반도보라점","tel":"031-422-4700","addr":"경기도 의왕시 내손동 771번지 반도보라빌리지1단지 상가 106호","category":"수리서비스 - 세탁소"},{"name":"헤어 (HAIR)by SIHA","tel":"031-426-0809","addr":"경기도 의왕시 내손동 771번지 반도보라빌리지1단지 상가 2층 201호","category":"보건위생 - 미용원"}]},{"lat":"37.3892757370","long":"126.9824996323","items":[{"name":"세원환경","tel":"031-426-8035","addr":"경기도 의왕시 내손동 652-11번지 5호 점포","category":"신변잡화 - 기타잡화"},{"name":"은성환경","tel":"031-426-4594","addr":"경기도 의왕시 내손동 652-11번지 점포 5호","category":"서적문구 - 과학기자재"},{"name":"코코스킨케어&왁싱","tel":"031-442-1554","addr":"경기도 의왕시 내손동 652-11번지 104호","category":"보건위생 - 피부미용실"}]},{"lat":"37.3747751023","long":"126.9680862607","items":[{"name":"소중한 사람 (some one)","tel":"031-454-5600","addr":"경기도 의왕시 내손동 816번지 1층","category":"일반휴게음식 - 서양음식"},{"name":"알함브라기타아카데미","tel":"031-429-1710","addr":"경기도 의왕시 내손동 816번지 102호","category":"레져용품 - 악기점"},{"name":"요시락","tel":"070-7593-9201","addr":"경기도 의왕시 내손동 816번지 1층 102호 상가","category":"문화.취미 - 민예·공예품"},{"name":"타래I&D","tel":"031-454-0197","addr":"경기도 의왕시 내손동 816번지 101호","category":"용역 서비스 - 기타용역서비스"}]},{"lat":"37.3785271358","long":"126.9853703389","items":[{"name":"송골전통집","tel":"031-423-3940","addr":"경기도 의왕시 내손동 226번지","category":"일반휴게음식 - 일반한식"},{"name":"옛날보리밥","tel":"031-424-2515","addr":"경기도 의왕시 내손동 226번지","category":"일반휴게음식 - 일반한식"},{"name":"일출식당","tel":"031-421-1142","addr":"경기도 의왕시 내손동 226번지","category":"일반휴게음식 - 일반한식"}]},{"lat":"37.3784730363","long":"126.9851106693","items":[{"name":"송골전통집","tel":"031-423-3940","addr":"경기도 의왕시 내손동 226-1번지 송골전통집 (1층)","category":"일반휴게음식 - 일반한식"}]},{"lat":"37.3849684065","long":"126.9797795466","items":[{"name":"송림 혼수방","tel":"031-425-7774","addr":"경기도 의왕시 내손동 684-9번지","category":"직물 - 침구·수예점"}]},{"lat":"37.3748115751","long":"126.9695878111","items":[{"name":"수라청","tel":"031-459-7100","addr":"경기도 의왕시 내손동 802번지","category":"일반휴게음식 - 일반한식"}]},{"lat":"37.3887515698","long":"126.9747872906","items":[{"name":"수성종합인테리어","tel":"031-423-9928","addr":"경기도 의왕시 내손동 401-1 세양상가 103","category":"직물 - 카페트,커튼,천막,지물"},{"name":"엄선생소피아음악학원","tel":"031-421-1929","addr":"경기도 의왕시 내손동 401-1번지 세양청마루빌딩 상가 5층","category":"학원 - 예·체능계학원"}]},{"lat":"37.3782758584","long":"126.9945834448","items":[{"name":"수예몽","tel":"031-426-1656","addr":"경기도 의왕시 내손동 26-1번지 1층","category":"일반휴게음식 - 서양음식"}]},{"lat":"37.3834712276","long":"126.9730729869","items":[{"name":"슈잉","tel":"","addr":"경기도 의왕시 내손동 844번지 포일자이아파트","category":"신변잡화 - 액세서리"}]},{"lat":"37.3743339041","long":"126.9691138462","items":[{"name":"스타일","tel":"031-429-3098","addr":"경기도 의왕시 내손동 814-1번지 203호","category":"의류 - 정장"},{"name":"씨유의왕내손원룸점","tel":"031-427-0015","addr":"경기도 의왕시 내손동 814-1번지 1층","category":"유통업 영리 - 편 의 점"}]},{"lat":"37.3706439637","long":"126.9908700883","items":[{"name":"스테디 앤 베스트(STEADYnBEST CETL)","tel":"031-426-0705","addr":"경기도 의왕시 내손동 123번지 1층","category":"서적문구 - 출판 및 인쇄물"}]},{"lat":"37.3842474430","long":"126.9790006616","items":[{"name":"시골밥상","tel":"031-424-9951","addr":"경기도 의왕시 내손동 684번지","category":"일반휴게음식 - 일반한식"},{"name":"톡튀는","tel":"031-422-2202","addr":"경기도 의왕시 내손동 684번지 1층 2호 상가","category":"보건위생 - 화장품"},{"name":"포르멘테라","tel":"","addr":"경기도 의왕시 내손동 684번지 1층","category":"의류 - 정장"}]},{"lat":"37.3839770777","long":"126.9786958809","items":[{"name":"신광정육점","tel":"031-425-9398","addr":"경기도 의왕시 내손동 689-25번지","category":"음료식품 - 정육점"},{"name":"헤어컬렉션제니","tel":"031-425-0144","addr":"경기도 의왕시 내손동 689-25번지 1층","category":"보건위생 - 미용원"},{"name":"휘카페-수","tel":"","addr":"경기도 의왕시 내손동 689-25번지 1층","category":"일반휴게음식 - 서양음식"}]},{"lat":"37.3890864975","long":"126.9823415939","items":[{"name":"신데렐라","tel":"031-424-1082","addr":"경기도 의왕시 내손동 652-13번지 6호","category":"의류 - 정장"},{"name":"인범모바일","tel":"070-8844-3899","addr":"경기도 의왕시 내손동 652-13번지 1층","category":"사무통신 - 통신기기"},{"name":"헤어클럽","tel":"031-398-8113","addr":"경기도 의왕시 내손동 652-13번지 1층","category":"보건위생 - 미용원"}]},{"lat":"37.3846985130","long":"126.9819814645","items":[{"name":"신세계유치원[아이행복]","tel":"031-425-5980","addr":"경기도 의왕시 내손동 679-2번지 1층","category":"학원 - 유치원"}]},{"lat":"37.3843105365","long":"126.9791135557","items":[{"name":"신안수산2호점","tel":"031-423-2327","addr":"경기도 의왕시 내손동 684-1번지","category":"일반휴게음식 - 일식·회집"}]},{"lat":"37.3851404616","long":"126.9847251832","items":[{"name":"썬더버드","tel":"031-348-2804","addr":"경기도 의왕시 내손동 703-16번지 1층","category":"서적문구 - 출판 및 인쇄물"}]},{"lat":"37.3831122863","long":"126.9795881654","items":[{"name":"쑥쑥이어린이집[아이행복]","tel":"031-425-5255","addr":"경기도 의왕시 내손동 694-4번지","category":"학원 - 유아원"}]},{"lat":"37.3858069087","long":"126.9828619038","items":[{"name":"씨드","tel":"031-425-0592","addr":"경기도 의왕시 내손동 672-5번지","category":"건축자재 - 인테리어전문"}]},{"lat":"37.3761091275","long":"126.9699259427","items":[{"name":"씨앤포스넷","tel":"031-426-7573","addr":"경기도 의왕시 내손동 799번지 대원칸타빌2단지","category":"사무통신 - 통신기기"}]},{"lat":"37.3858066755","long":"126.9815294917","items":[{"name":"씨유내손공원점","tel":"031-446-8967","addr":"경기도 의왕시 내손동 670-18번지 1층","category":"유통업 영리 - 편 의 점"},{"name":"주공종합설비","tel":"031-424-7701","addr":"경기도 의왕시 내손동 670-18번지","category":"용역 서비스 - 기타용역서비스"}]},{"lat":"37.3861675754","long":"126.9844765184","items":[{"name":"씨유의왕백운고점","tel":"031-426-4997","addr":"경기도 의왕시 내손동 674-1번지 101호","category":"유통업 영리 - 편 의 점"},{"name":"주진성손짜장","tel":"031-422-7040","addr":"경기도 의왕시 내손동 674-1번지","category":"일반휴게음식 - 중국식"}]},{"lat":"37.3858335477","long":"126.9806713200","items":[{"name":"아리따움(포일)","tel":"031-424-1813","addr":"경기도 의왕시 내손동 683-8번지","category":"보건위생 - 화장품"},{"name":"알볼로피자 내손점","tel":"031-421-8495","addr":"경기도 의왕시 내손동 683-8번지 1층","category":"일반휴게음식 - 서양음식"}]},{"lat":"37.3785061314","long":"126.9710652376","items":[{"name":"아빠붕어","tel":"031-421-2613","addr":"경기도 의왕시 내손동 791","category":"회원제형태 - 기타4"}]},{"lat":"37.3739735794","long":"126.9693962541","items":[{"name":"아이엠비21(주)","tel":"031-399-6996","addr":"경기도 의왕시 내손동 827-2번지 상가전체 1층","category":"사무통신 - 컴퓨터"}]},{"lat":"37.3897886391","long":"126.9789085657","items":[{"name":"아이쿡","tel":"","addr":"경기도 의왕시 내손동 846번지 의왕내손이편한세상","category":"문화.취미 - 문화취미기타"}]},{"lat":"37.3909423848","long":"126.9812570171","items":[{"name":"아지트","tel":"031-423-4888","addr":"경기도 의왕시 내손동 653-2번지","category":"일반휴게음식 - 스넥"},{"name":"용마루뼈다귀감자탕","tel":"031-425-0954","addr":"경기도 의왕시 내손동 653-2번지","category":"일반휴게음식 - 일반한식"},{"name":"우승태권도","tel":"031-422-1922","addr":"경기도 의왕시 내손동 653-2번지 2층","category":"학원 - 예·체능계학원"}]},{"lat":"37.3873381948","long":"126.9804563307","items":[{"name":"안양드라이","tel":"031-425-7279","addr":"경기도 의왕시 내손동 643-9번지 라성빌라 가동 201호","category":"기타 - 기타 전문점"}]},{"lat":"37.3900864603","long":"126.9814492316","items":[{"name":"안양마트","tel":"031-422-6675","addr":"경기도 의왕시 내손동 652번지 (1층1~3호)","category":"유통업 영리 - 슈퍼마켓"},{"name":"칠번가 피자 내손점","tel":"031-424-7277","addr":"경기도 의왕시 내손동 652번지 104,105","category":"일반휴게음식 - 서양음식"}]},{"lat":"37.3741447941","long":"126.9694752071","items":[{"name":"안양서비스","tel":"031-458-4827","addr":"경기도 의왕시 내손동 827-1번지 101호","category":"수리서비스 - 가정용품수리"}]},{"lat":"37.3906900647","long":"126.9810538271","items":[{"name":"알렉스 짐","tel":"070-8777-9095","addr":"경기도 의왕시 내손동 653-17번지 우진빌딩 2층","category":"레저업소 - 헬스클럽"},{"name":"할매냉면","tel":"031-426-2477","addr":"경기도 의왕시 내손동 653-17번지 3호(1층)","category":"일반휴게음식 - 일반한식"},{"name":"행자갈비","tel":"031-421-3974","addr":"경기도 의왕시 내손동 653-17번지 우진빌딩 1층 1,2호","category":"일반휴게음식 - 일반한식"}]},{"lat":"37.3802191064","long":"126.9752533970","items":[{"name":"알로하 호텔","tel":"031-421-6277","addr":"경기도 의왕시 내손동 734번지","category":"숙박업 - 여관/기타숙박업"}]},{"lat":"37.3798406419","long":"126.9750841749","items":[{"name":"애니퍼스","tel":"031-424-2254","addr":"경기도 의왕시 내손동 739-5번지 미원파크빌 301동 503호","category":"가구 - 일반가구"},{"name":"호식이두마리치킨","tel":"031-422-9994","addr":"경기도 의왕시 내손동 739-5번지 미원파크빌 301동 102호","category":"일반휴게음식 - 스넥"}]},{"lat":"37.3853378975","long":"126.9801746377","items":[{"name":"애플패션신발","tel":"031-421-3653","addr":"경기도 의왕시 내손동 683-2번지 1층","category":"신변잡화 - 신발"}]},{"lat":"37.3862756913","long":"126.9844426169","items":[{"name":"언덕집","tel":"031-423-9955","addr":"경기도 의왕시 내손동 674번지","category":"일반휴게음식 - 일반한식"}]},{"lat":"37.3842280995","long":"126.9731630184","items":[{"name":"엄마더하기어린이집[아이행복]","tel":"031-421-1117","addr":"경기도 의왕시 내손동 844번지 포일자이아파트","category":"학원 - 유아원"}]},{"lat":"37.3904376311","long":"126.9802521454","items":[{"name":"엄마뽀뽀어린이집[아이행복]","tel":"031-421-1110","addr":"경기도 의왕시 내손동 846번지 의왕내손이편한세상","category":"학원 - 유아원"}]},{"lat":"37.3859687352","long":"126.9808632382","items":[{"name":"엄마손집밥","tel":"031-421-1535","addr":"경기도 의왕시 내손동 683-10번지","category":"일반휴게음식 - 일반한식"},{"name":"포일의원","tel":"031-425-4852","addr":"경기도 의왕시 내손동 683-10번지","category":"의원 - 의원"},{"name":"호성정육점","tel":"031-421-9133","addr":"경기도 의왕시 내손동 683-10번지","category":"음료식품 - 정육점"}]},{"lat":"37.3920240972","long":"126.9841927721","items":[{"name":"엉클바이크","tel":"031-421-9266","addr":"경기도 의왕시 내손동 661-3번지 1층 2층","category":"레져용품 - 스포츠·레져용품"}]},{"lat":"37.3766860357","long":"126.9708740722","items":[{"name":"에듀찬북스","tel":"031-382-1112","addr":"경기도 의왕시 내손동 795번지 대원칸타빌1단지","category":"서적문구 - 출판 및 인쇄물"}]},{"lat":"37.3737206962","long":"126.9673416200","items":[{"name":"에버필드 골프존","tel":"031-454-0770","addr":"경기도 의왕시 내손동 816-9번지 1층","category":"레저업소 - 스크린골프"}]},{"lat":"37.3858067462","long":"126.9819246987","items":[{"name":"에셀하우징","tel":"031-381-6955","addr":"경기도 의왕시 내손동 671-2번지","category":"전기제품 - 기타전기제품"}]},{"lat":"37.3746132276","long":"126.9691475908","items":[{"name":"에스씨커피","tel":"031-424-2442","addr":"경기도 의왕시 내손동 812-5번지 101호","category":"일반휴게음식 - 서양음식"}]},{"lat":"37.3745588094","long":"126.9679170115","items":[{"name":"에스제이푸드","tel":"070-8241-8457","addr":"경기도 의왕시 내손동 816-2번지 1층","category":"일반휴게음식 - 일반한식"}]},{"lat":"37.3863367865","long":"126.9744720240","items":[{"name":"에이앤에스 이엔지","tel":"","addr":"경기도 의왕시 내손동 622-9번지 101호","category":"전기제품 - 냉열기기"}]},{"lat":"37.3872484069","long":"126.9821727179","items":[{"name":"엘리스스포츠","tel":"032-207-7343","addr":"경기도 의왕시 내손동 668-18번지","category":"레져용품 - 스포츠·레져용품"}]},{"lat":"37.3904743603","long":"126.9841931570","items":[{"name":"엘앤제이컴퍼니(L&J COMPANY)","tel":"","addr":"경기도 의왕시 내손동 656-10번지 102호","category":"신변잡화 - 기타잡화"},{"name":"영푸드","tel":"031-381-5104","addr":"경기도 의왕시 내손동 656-10번지 1층","category":"음료식품 - 기타음료식품"}]},{"lat":"37.3901942953","long":"126.9799247423","items":[{"name":"엘프어린이집[아이행복]","tel":"070-7757-7940","addr":"경기도 의왕시 내손동 648","category":"학원 - 유아원"}]},{"lat":"37.3787793479","long":"126.9848960761","items":[{"name":"연푸름","tel":"031-425-3344","addr":"경기도 의왕시 내손동 226-3번지","category":"일반휴게음식 - 일반한식"},{"name":"연푸름 아뜰리에원","tel":"031-425-3344","addr":"경기도 의왕시 내손동 226-3번지 2층","category":"일반휴게음식 - 일반한식"}]},{"lat":"37.3845006035","long":"126.9838333144","items":[{"name":"영스포츠","tel":"031-421-1221","addr":"경기도 의왕시 내손동 703-2번지 1층","category":"레져용품 - 스포츠·레져용품"}]},{"lat":"37.3885532802","long":"126.9745050636","items":[{"name":"예가창","tel":"031-423-1270","addr":"경기도 의왕시 내손동 406-3번지 지하층","category":"직물 - 카페트,커튼,천막,지물"},{"name":"우리집동물병원","tel":"031-421-0008","addr":"경기도 의왕시 내손동 406-3번지 2층","category":"기타의료기관 - 동물병원"}]},{"lat":"37.3746940774","long":"126.9683120974","items":[{"name":"예우인테리어","tel":"031-457-2942","addr":"경기도 의왕시 내손동 814-7번지 1층","category":"건축자재 - 인테리어전문"},{"name":"현대세탁","tel":"031-454-5446","addr":"경기도 의왕시 내손동 814-7번지 102호","category":"수리서비스 - 세탁소"}]},{"lat":"37.3715002554","long":"126.9947309552","items":[{"name":"옛골가든","tel":"031-426-1472","addr":"경기도 의왕시 내손동 79번지","category":"일반휴게음식 - 일반한식"}]},{"lat":"37.3753608922","long":"126.9685375925","items":[{"name":"오렌지크린세탁","tel":"031-477-4450","addr":"경기도 의왕시 내손동 810-5번지","category":"수리서비스 - 세탁소"}]},{"lat":"37.3735276099","long":"126.9959161633","items":[{"name":"오리불놀이","tel":"031-423-5295","addr":"경기도 의왕시 내손동 63번지","category":"일반휴게음식 - 일반한식"}]},{"lat":"37.3752527445","long":"126.9684473215","items":[{"name":"오메그","tel":"","addr":"경기도 의왕시 내손동 810-6번지 파크빌","category":"가구 - 기타가구"}]},{"lat":"37.3841668420","long":"126.9815638310","items":[{"name":"오씨에","tel":"031-423-3342","addr":"경기도 의왕시 내손동 678-22번지 1층","category":"음료식품 - 제과점"}]},{"lat":"37.3757679289","long":"126.9744985919","items":[{"name":"오투존","tel":"031-344-0505","addr":"경기도 의왕시 내손동 774번지 반도보라빌리지2단지","category":"용역 서비스 - 종합용역"}]},{"lat":"37.3841393558","long":"126.9791700666","items":[{"name":"옥스런","tel":"031-111-1111","addr":"경기도 의왕시 내손동 684-21번지 지하","category":"가구 - 일반가구"}]},{"lat":"37.3763118791","long":"126.9989755511","items":[{"name":"온누리장작&진흙구이","tel":"031-000-0000","addr":"경기도 의왕시 내손동 44-5번지","category":"일반휴게음식 - 일반한식"},{"name":"주식회사 온누리백운","tel":"031-000-0000","addr":"경기도 의왕시 내손동 44-5번지","category":"일반휴게음식 - 일반한식"}]},{"lat":"37.3761406763","long":"126.9986707252","items":[{"name":"온누리쭈꾸미","tel":"031-383-6692","addr":"경기도 의왕시 내손동 44-12번지","category":"일반휴게음식 - 일반한식"},{"name":"주식회사 온누리백운 지점","tel":"031-000-0000","addr":"경기도 의왕시 내손동 44-12번지","category":"일반휴게음식 - 일반한식"}]},{"lat":"37.3865545000","long":"126.9814502374","items":[{"name":"온누리홈패션","tel":"","addr":"경기도 의왕시 내손동 669-5번지 1층","category":"직물 - 침구·수예점"}]},{"lat":"37.3846439781","long":"126.9794521940","items":[{"name":"와이비스쿨(YB school)","tel":"031-348-1236","addr":"경기도 의왕시 내손동 684-5번지 103호","category":"사무통신 - 사무용 OA기기"},{"name":"우리집반찬","tel":"031-345-4544","addr":"경기도 의왕시 내손동 684-5번지","category":"음료식품 - 기타음료식품"}]},{"lat":"37.3782636776","long":"126.9742718412","items":[{"name":"와이이엠영어","tel":"031-385-0579","addr":"경기도 의왕시 내손동 790번지 의왕상록아파트","category":"학원 - 외국어학원"}]},{"lat":"37.3708600095","long":"126.9890637518","items":[{"name":"우가인테리어","tel":"","addr":"경기도 의왕시 내손동 153-5번지 더힐즈타운하우스1차 102호","category":"직물 - 카페트,커튼,천막,지물"}]},{"lat":"37.3838878069","long":"126.9831672804","items":[{"name":"우리나니공방","tel":"070-4243-3844","addr":"경기도 의왕시 내손동 697-12번지 1층","category":"문화.취미 - 문화취미기타"}]},{"lat":"37.3895822084","long":"126.9832561264","items":[{"name":"우리스포츠","tel":"031-425-2642","addr":"경기도 의왕시 내손동 656번지 투모로주택 1층 102호","category":"레져용품 - 스포츠·레져용품"}]},{"lat":"37.3855812178","long":"126.9804229794","items":[{"name":"우리우리집","tel":"031-346-1555","addr":"경기도 의왕시 내손동 683-5번지 1층","category":"일반휴게음식 - 일반한식"},{"name":"칠만표방수제","tel":"031-421-4709","addr":"경기도 의왕시 내손동 683-5번지","category":"건축자재 - 기타건축자재"}]},{"lat":"37.3755594533","long":"126.9697229616","items":[{"name":"우정생삼겹살&오리","tel":"031-455-1446","addr":"경기도 의왕시 내손동 803번지 1층","category":"일반휴게음식 - 일반한식"}]},{"lat":"37.3845004104","long":"126.9826702969","items":[{"name":"원차이나","tel":"031-425-4743","addr":"경기도 의왕시 내손동 678-13번지 1층","category":"일반휴게음식 - 중국식"}]},{"lat":"37.3909157349","long":"126.9834477493","items":[{"name":"월드상사","tel":"031-477-2882","addr":"경기도 의왕시 내손동 658-16번지 101호","category":"의류 - 정장"},{"name":"진헤어갤러리","tel":"031-425-5338","addr":"경기도 의왕시 내손동 658-16번지 102호","category":"보건위생 - 미용원"}]},{"lat":"37.3787805532","long":"126.9966721455","items":[{"name":"유리정원","tel":"031-422-1217","addr":"경기도 의왕시 내손동 14-11번지 1층","category":"일반휴게음식 - 서양음식"}]},{"lat":"37.3911679293","long":"126.9829169399","items":[{"name":"유어 라이프 페이지","tel":"","addr":"경기도 의왕시 내손동 659-1번지 한주빌라 102호","category":"학원 - 기타 교육기관"}]},{"lat":"37.3848058577","long":"126.9779729600","items":[{"name":"유준헤어뉴스","tel":"031-424-7181","addr":"경기도 의왕시 내손동 627 202","category":"보건위생 - 미용원"}]},{"lat":"37.3857524419","long":"126.9805923026","items":[{"name":"육부자식당","tel":"031-422-9279","addr":"경기도 의왕시 내손동 683-7번지","category":"일반휴게음식 - 일반한식"}]},{"lat":"37.3876359041","long":"126.9825339521","items":[{"name":"은성LED조명","tel":"031-323-2737","addr":"경기도 의왕시 내손동 667-12번지","category":"건축자재 - 조명기구"}]},{"lat":"37.3843018758","long":"126.9809201828","items":[{"name":"은혜미용실","tel":"031-424-0523","addr":"경기도 의왕시 내손동 687-1번지","category":"보건위생 - 미용원"}]},{"lat":"37.3840586797","long":"126.9813380343","items":[{"name":"은혜슈퍼","tel":"031-423-1101","addr":"경기도 의왕시 내손동 687-5번지 103호","category":"유통업 영리 - 슈퍼마켓"},{"name":"지영알미늄인테리어","tel":"031-425-9688","addr":"경기도 의왕시 내손동 687-5번지 상가 1,2호","category":"건축자재 - 인테리어전문"},{"name":"푸름코스메틱","tel":"070-4412-4117","addr":"경기도 의왕시 내손동 687-5번지 1층 104호","category":"보건위생 - 미용재료"}]},{"lat":"37.3807506395","long":"126.9749822211","items":[{"name":"의왕내손동우체국","tel":"031-1-1","addr":"경기도 의왕시 내손동 731-2번지","category":"용역 서비스 - 공공요금대행서비스/소"}]},{"lat":"37.3781919141","long":"126.9756154364","items":[{"name":"의왕시내손1동주민자치위원회","tel":"031-345-3232","addr":"경기도 의왕시 내손동 787번지","category":"문화.취미 - 문화취미기타"}]},{"lat":"37.3821926801","long":"126.9768334249","items":[{"name":"의왕시니어클럽","tel":"031-426-7988","addr":"경기도 의왕시 내손동 724번지 1층","category":"일반휴게음식 - 서양음식"}]},{"lat":"37.3814713870","long":"126.9747222615","items":[{"name":"의왕시설관리공단","tel":"031-426-3603","addr":"경기도 의왕시 내손동 626번지 견인사무소주차환경팀","category":"용역 서비스 - 조세서비스"},{"name":"의왕시청국민체육센타","tel":"031-8086-7423","addr":"경기도 의왕시 내손동 626번지 의왕국민체육센터 2층 관리사무실","category":"용역 서비스 - 조세서비스"}]},{"lat":"37.3786423308","long":"126.9752313945","items":[{"name":"이레산업","tel":"070-4254-0160","addr":"경기도 의왕시 내손동 760-1번지","category":"자동차정비 유지 - 주차장"}]},{"lat":"37.3917807632","long":"126.9838088867","items":[{"name":"이명선헤어샵","tel":"031-424-1103","addr":"경기도 의왕시 내손동 661-17번지 점포 4호","category":"보건위생 - 미용원"}]},{"lat":"37.3873191928","long":"126.9757702166","items":[{"name":"이상수학교육","tel":"031-4633-8616","addr":"경기도 의왕시 내손동 842번지 래미안에버하임아파트","category":"학원 - 기타 교육기관"}]},{"lat":"37.3841381306","long":"126.9736937487","items":[{"name":"이제마스터디클럽","tel":"031-426-1233","addr":"경기도 의왕시 내손동 623-1번지 1층","category":"서적문구 - 일반서적"}]},{"lat":"37.3860594576","long":"126.9844991282","items":[{"name":"이퀘이터커피","tel":"","addr":"경기도 의왕시 내손동 674-2번지 1층","category":"일반휴게음식 - 서양음식"}]},{"lat":"37.3880407113","long":"126.9790672100","items":[{"name":"인영상사","tel":"","addr":"경기도 의왕시 내손동 846번지 의왕내손이편한세상","category":"자동차정비 유지 - 자동차부품"}]},{"lat":"37.3869690439","long":"126.9818904997","items":[{"name":"일랑","tel":"031-422-2600","addr":"경기도 의왕시 내손동 669-10번지 1호","category":"일반휴게음식 - 중국식"}]},{"lat":"37.3880595199","long":"126.9833694431","items":[{"name":"일레븐 식스티","tel":"070-8260-3322","addr":"경기도 의왕시 내손동 667-2번지 G동 1층","category":"일반휴게음식 - 서양음식"}]},{"lat":"37.3753341621","long":"126.9695875801","items":[{"name":"일오삼문화출판","tel":"070-8243-1538","addr":"경기도 의왕시 내손동 803-2번지 상가 1층","category":"서적문구 - 출판 및 인쇄물"}]},{"lat":"37.3758392717","long":"126.9715744203","items":[{"name":"잉두KHS","tel":"","addr":"경기도 의왕시 내손동 774번지 반도보라빌리지2단지","category":"신변잡화 - 액세서리"}]},{"lat":"37.3896079550","long":"126.9766388914","items":[{"name":"잉크가이소망점","tel":"031-422-7727","addr":"경기도 의왕시 내손동 414번지 삼성래미안아파트","category":"회원제형태 - 기타4"}]},{"lat":"37.3846987317","long":"126.9832573997","items":[{"name":"자연미인","tel":"031-425-8037","addr":"경기도 의왕시 내손동 676-9번지 1층","category":"보건위생 - 화장품"}]},{"lat":"37.3844465301","long":"126.9837542881","items":[{"name":"자연초농산","tel":"031-348-8339","addr":"경기도 의왕시 내손동 703-1번지","category":"음료식품 - 농·축·수산품"}]},{"lat":"37.3776091638","long":"126.9953964271","items":[{"name":"자연콩","tel":"031-422-0059","addr":"경기도 의왕시 내손동 28-12번지 1층","category":"일반휴게음식 - 일반한식"}]},{"lat":"37.3846337311","long":"126.9738742198","items":[{"name":"자이사랑 어린이집[아이행복]","tel":"031-421-5288","addr":"경기도 의왕시 내손동 844번지 포일자이아파트","category":"학원 - 유아원"}]},{"lat":"37.3828767292","long":"126.9737506936","items":[{"name":"자이키즈어린이집[아이행복]","tel":"031-421-5758","addr":"경기도 의왕시 내손동 845번지 포일자이아파트","category":"학원 - 유아원"}]},{"lat":"37.3909158694","long":"126.9842833865","items":[{"name":"재은플라워","tel":"031-424-6332","addr":"경기도 의왕시 내손동 663-2번지 광진빌라 103호","category":"문화.취미 - 화원"}]},{"lat":"37.3841401367","long":"126.9834494988","items":[{"name":"정.아.우리옷전문점","tel":"","addr":"경기도 의왕시 내손동 697-15번지 현대다세대 101호","category":"의류 - 맞춤복점"}]},{"lat":"37.3853019045","long":"126.9804230627","items":[{"name":"정가네 청과","tel":"","addr":"경기도 의왕시 내손동 683-18번지 202호","category":"음료식품 - 농·축·수산품"}]},{"lat":"37.3910595715","long":"126.9815618787","items":[{"name":"정내과의원","tel":"031-425-1375","addr":"경기도 의왕시 내손동 653-4번지","category":"건강식품 - 기타건강식품"},{"name":"정내과의원","tel":"031-425-1375","addr":"경기도 의왕시 내손동 653-4번지","category":"의원 - 의원"}]},{"lat":"37.3831663023","long":"126.9793623240","items":[{"name":"정민산업","tel":"031-424-2084","addr":"경기도 의왕시 내손동 694-2번지 2호","category":"용역 서비스 - 기타용역서비스"}]},{"lat":"37.3710311551","long":"126.9886685909","items":[{"name":"정원칼국수","tel":"031-423-1116","addr":"경기도 의왕시 내손동 155-2번지 1층","category":"일반휴게음식 - 일반한식"}]},{"lat":"37.3853381295","long":"126.9814167090","items":[{"name":"제이(J)인테리어","tel":"031-1544-7942","addr":"경기도 의왕시 내손동 681-8번지 104호","category":"용역 서비스 - 기타용역서비스"}]},{"lat":"37.3842481504","long":"126.9828058614","items":[{"name":"제이게라지","tel":"02-1577-0000","addr":"경기도 의왕시 내손동 677-9번지 1층","category":"자동차판매 - 이륜차판매"}]},{"lat":"37.3750277542","long":"126.9693619153","items":[{"name":"제이디에이","tel":"031-8796-0869","addr":"경기도 의왕시 내손동 803-5 1층","category":"레져용품 - 스포츠·레져용품"}]},{"lat":"37.3801108813","long":"126.9748130965","items":[{"name":"제이비 호텔","tel":"031-422-2341","addr":"경기도 의왕시 내손동 733-3번지","category":"숙박업 - 여관/기타숙박업"}]},{"lat":"37.3855818741","long":"126.9841943718","items":[{"name":"제일농산","tel":"031-425-0335","addr":"경기도 의왕시 내손동 674-17번지","category":"음료식품 - 농·축·수산품"}]},{"lat":"37.3914205207","long":"126.9848365928","items":[{"name":"제일제당(주)안양대리점","tel":"031-424-4000","addr":"경기도 의왕시 내손동 661-10번지","category":"음료식품 - 기타음료식품"}]},{"lat":"37.3906636516","long":"126.9847012660","items":[{"name":"제일카센타","tel":"031-421-6113","addr":"경기도 의왕시 내손동 664-17번지","category":"자동차정비 유지 - 자동차정비"}]},{"lat":"37.3839763730","long":"126.9754665539","items":[{"name":"조은흥업","tel":"031-381-0145","addr":"경기도 의왕시 내손동 844번지 포일자이아파트","category":"용역 서비스 - 기타용역서비스"},{"name":"코코넨네","tel":"","addr":"경기도 의왕시 내손동 844번지 포일자이아파트","category":"보건위생 - 기타대인서비스"}]},{"lat":"37.3853382881","long":"126.9823087421","items":[{"name":"종로떡방아간","tel":"031-425-1039","addr":"경기도 의왕시 내손동 673-14번지","category":"음료식품 - 제과점"}]},{"lat":"37.3848063119","long":"126.9802312555","items":[{"name":"좋은쌀가게","tel":"031-423-8285","addr":"경기도 의왕시 내손동 685-10번지","category":"음료식품 - 미곡상"}]},{"lat":"37.3864733927","long":"126.9813599267","items":[{"name":"좋은쌀고추방앗간","tel":"031-425-6565","addr":"경기도 의왕시 내손동 669-4번지 1층","category":"음료식품 - 미곡상"},{"name":"좋은쌀유통","tel":"031-425-6565","addr":"경기도 의왕시 내손동 669-4번지 1층","category":"음료식품 - 미곡상"},{"name":"행운노래연습장","tel":"031-111-1111","addr":"경기도 의왕시 내손동 669-4번지 지하1층","category":"레저업소 - 노 래 방"}]},{"lat":"37.3856608666","long":"126.9738060743","items":[{"name":"주고아띠 (JUGO AHTTI)","tel":"031-381-6118","addr":"경기도 의왕시 내손동 844번지 포일자이아파트","category":"신변잡화 - 가방"}]},{"lat":"37.3878613420","long":"126.9836405009","items":[{"name":"주도적수학","tel":"","addr":"경기도 의왕시 내손동 666-1번지 101호","category":"학원 - 기타 교육기관"}]},{"lat":"37.3781917852","long":"126.9750622026","items":[{"name":"주식회사어드벤쳐월드","tel":"02-1544-7721","addr":"경기도 의왕시 내손동 788번지 제이제이빌딩 1층","category":"서적문구 - 완구점"},{"name":"주식회사제이제이","tel":"031-425-2223","addr":"경기도 의왕시 내손동 788번지","category":"일반휴게음식 - 일반한식"}]},{"lat":"37.3891135996","long":"126.9827593951","items":[{"name":"주아이래쉬","tel":"031-399-0945","addr":"경기도 의왕시 내손동 651-2번지 진영빌라 B02호","category":"보건위생 - 화장품"}]},{"lat":"37.3885087949","long":"126.9769667436","items":[{"name":"주주어린이집[아이행복]","tel":"070-7609-2000","addr":"경기도 의왕시 내손동 842번지 래미안에버하임아파트","category":"학원 - 유아원"}]},{"lat":"37.3844460060","long":"126.9807507694","items":[{"name":"준카페(JUN CAFE)","tel":"031-422-1511","addr":"경기도 의왕시 내손동 686-10번지 104호","category":"일반휴게음식 - 서양음식"},{"name":"청암글그림공방","tel":"","addr":"경기도 의왕시 내손동 686-10번지 103호","category":"문화.취미 - 문화취미기타"}]},{"lat":"37.3834734015","long":"126.9835287098","items":[{"name":"줌(ZOOM)","tel":"070-4366-1285","addr":"경기도 의왕시 내손동 698-12번지 202호","category":"직물 - 카페트,커튼,천막,지물"}]},{"lat":"37.3851404232","long":"126.9844767696","items":[{"name":"지나는길","tel":"070-4496-2721","addr":"경기도 의왕시 내손동 703-10번지","category":"일반휴게음식 - 서양음식"}]},{"lat":"37.3745051767","long":"126.9693960177","items":[{"name":"지베르니","tel":"031-456-8083","addr":"경기도 의왕시 내손동 812-7번지 1층","category":"일반휴게음식 - 서양음식"}]},{"lat":"37.3887974680","long":"126.9786152875","items":[{"name":"지콘디자인","tel":"070-759-4349","addr":"경기도 의왕시 내손동 627","category":"회원제형태 - 사무서비스"}]},{"lat":"37.3753613407","long":"126.9701182010","items":[{"name":"진로할인마트","tel":"031-427-3458","addr":"경기도 의왕시 내손동 801번지","category":"유통업 영리 - 슈퍼마켓"}]},{"lat":"37.3832741391","long":"126.9779734668","items":[{"name":"진일슈퍼","tel":"031-425-4788","addr":"경기도 의왕시 내손동 691-20번지 동화다세대","category":"유통업 영리 - 슈퍼마켓"}]},{"lat":"37.3833919460","long":"126.9814172640","items":[{"name":"참좋은 하수구 설비","tel":"02-1111-1111","addr":"경기도 의왕시 내손동 696-8번지 한빛다세대 303호","category":"건축자재 - 인테리어전문"}]},{"lat":"37.3845813009","long":"126.9815298393","items":[{"name":"천사에어컨","tel":"","addr":"경기도 의왕시 내손동 680-18번지 302호","category":"용역 서비스 - 기타용역서비스"}]},{"lat":"37.3918619597","long":"126.9844751258","items":[{"name":"천이야기","tel":"070-712-0679","addr":"경기도 의왕시 내손동 661-5번지 청보다세대 803호","category":"직물 - 카페트,커튼,천막,지물"}]},{"lat":"37.3783660259","long":"126.9955882905","items":[{"name":"청운누룽지백숙2호점","tel":"031-426-1001","addr":"경기도 의왕시 내손동 15-11번지 1층,2층","category":"일반휴게음식 - 일반한식"}]},{"lat":"37.3912218178","long":"126.9819231908","items":[{"name":"충성통신","tel":"031-000-0000","addr":"경기도 의왕시 내손동 660번지","category":"사무통신 - 통신기기"},{"name":"한가득정육식당","tel":"031-461-6977","addr":"경기도 의왕시 내손동 660번지","category":"일반휴게음식 - 일반한식"},{"name":"한가득정육식당","tel":"031-461-6977","addr":"경기도 의왕시 내손동 660번지","category":"음료식품 - 정육점"},{"name":"한가득정육점","tel":"031-461-6977","addr":"경기도 의왕시 내손동 660번지 1층상가 1칸","category":"음료식품 - 정육점"}]},{"lat":"37.3915282968","long":"126.9827022870","items":[{"name":"카이로스","tel":"02-6166-8484","addr":"경기도 의왕시 내손동 660-6번지 반석다세대 102호","category":"용역 서비스 - 종합용역"}]},{"lat":"37.3881135618","long":"126.9832565093","items":[{"name":"카페 휘","tel":"031-382-4466","addr":"경기도 의왕시 내손동 667-1번지 세종빌딩 지하1층 B02호","category":"일반휴게음식 - 서양음식"}]},{"lat":"37.3769786576","long":"127.0000029342","items":[{"name":"카페모퉁이","tel":"031-425-0779","addr":"경기도 의왕시 내손동 3-4번지 2층","category":"일반휴게음식 - 서양음식"}]},{"lat":"37.3750274420","long":"126.9682780743","items":[{"name":"카페몬순","tel":"031-427-3611","addr":"경기도 의왕시 내손동 810-8번지 1층 101호","category":"일반휴게음식 - 서양음식"}]},{"lat":"37.3753928173","long":"126.9981740041","items":[{"name":"캠핑아웃도어쿠킹","tel":"031-421-6111","addr":"경기도 의왕시 내손동 46-2번지","category":"일반휴게음식 - 일반한식"},{"name":"한성","tel":"031-423-6333","addr":"경기도 의왕시 내손동 46-2번지","category":"음료식품 - 농·축·수산품"}]},{"lat":"37.3858595012","long":"126.9755336179","items":[{"name":"커피볶는고양이","tel":"070-8202-8005","addr":"경기도 의왕시 내손동 622-14번지","category":"일반휴게음식 - 서양음식"},{"name":"피아노로생각하는음악학원","tel":"031-348-5333","addr":"경기도 의왕시 내손동 622-14번지 2층","category":"학원 - 예·체능계학원"}]},{"lat":"37.3858882743","long":"126.9845556282","items":[{"name":"커피우(  )","tel":"070-8632-6552","addr":"경기도 의왕시 내손동 674-4번지 102호","category":"일반휴게음식 - 서양음식"}]},{"lat":"37.3790298053","long":"126.9754006114","items":[{"name":"케이티산업(주)","tel":"031-454-2455","addr":"경기도 의왕시 내손동 757-2번지 미원파크빌 101동 201호","category":"건축자재 - 부동산 분양"}]},{"lat":"37.3839416438","long":"126.9818687612","items":[{"name":"코리아파크","tel":"0505-324-0000","addr":"경기도 의왕시 내손동 677-1번지 동방주택 102호","category":"보건위생 - 화장품"}]},{"lat":"37.3870861952","long":"126.9820033852","items":[{"name":"코코-엘","tel":"031-425-5557","addr":"경기도 의왕시 내손동 668-16번지 1층 102호","category":"일반휴게음식 - 서양음식"},{"name":"헤어짱","tel":"031-423-3632","addr":"경기도 의왕시 내손동 668-16번지","category":"보건위생 - 미용원"}]},{"lat":"37.3875802350","long":"126.9746973926","items":[{"name":"코코원 (COCO1)","tel":"031-425-5875","addr":"경기도 의왕시 내손동 843번지 우미린 상가 103호","category":"의류 - 정장"}]},{"lat":"37.3784163696","long":"126.9723523948","items":[{"name":"클린 서비스","tel":"","addr":"경기도 의왕시 내손동 791번지 의왕내손주공아파트","category":"용역 서비스 - 기타용역서비스"}]},{"lat":"37.3743335094","long":"126.9677590574","items":[{"name":"태림디지탈","tel":"031-457-1478","addr":"경기도 의왕시 내손동 816-4번지","category":"사무통신 - 기타 사무용품"}]},{"lat":"37.3840320375","long":"126.9835850230","items":[{"name":"태안식품","tel":"02-0000-0000","addr":"경기도 의왕시 내손동 697-18번지","category":"음료식품 - 기타음료식품"}]},{"lat":"37.3838604881","long":"126.9815074611","items":[{"name":"태화테크","tel":"031-425-1489","addr":"경기도 의왕시 내손동 688-9번지 상가 102호","category":"사무통신 - 기타 사무용품"}]},{"lat":"37.3899423191","long":"126.9815621952","items":[{"name":"테라스크린","tel":"031-422-6400","addr":"경기도 의왕시 내손동 652-22번지 1층 102호","category":"수리서비스 - 세탁소"}]},{"lat":"37.3845538591","long":"126.9793618905","items":[{"name":"토담민속주점","tel":"031-405-4404","addr":"경기도 의왕시 내손동 684-4번지 102호","category":"일반휴게음식 - 주점"}]},{"lat":"37.3786442285","long":"126.9851106289","items":[{"name":"토예랑","tel":"031-425-4244","addr":"경기도 의왕시 내손동 226-2번지","category":"일반휴게음식 - 일반한식"}]},{"lat":"37.3797779646","long":"126.9768116788","items":[{"name":"투썸플레이스 계원예술대점","tel":"031-425-1870","addr":"경기도 의왕시 내손동 738번지 계원마당 101,102호","category":"일반휴게음식 - 서양음식"}]},{"lat":"37.3821380678","long":"126.9744397352","items":[{"name":"트랜디피티","tel":"","addr":"경기도 의왕시 내손동 845번지 포일자이아파트","category":"의류 - 정장"}]},{"lat":"37.3849689687","long":"126.9828621266","items":[{"name":"팀스치킨","tel":"031-425-3208","addr":"경기도 의왕시 내손동 676-13번지","category":"일반휴게음식 - 주점"}]},{"lat":"37.3873098124","long":"126.9742006523","items":[{"name":"파도크리에이티브","tel":"031-454-4909","addr":"경기도 의왕시 내손동 382-1번지 B1층 103호","category":"서적문구 - 출판 및 인쇄물"}]},{"lat":"37.3913299828","long":"126.9821715947","items":[{"name":"파리바게뜨의왕포일점","tel":"031-425-0045","addr":"경기도 의왕시 내손동 660-2번지","category":"음료식품 - 제과점"}]},{"lat":"37.3830853113","long":"126.9798704542","items":[{"name":"팡팡모터스","tel":"","addr":"경기도 의왕시 내손동 694-7번지 우성다세대 303호","category":"자동차정비 유지 - 자동차정비"}]},{"lat":"37.3862210642","long":"126.9811115816","items":[{"name":"펀비어킹","tel":"031-000-0000","addr":"경기도 의왕시 내손동 669-1번지 1층","category":"일반휴게음식 - 주점"}]},{"lat":"37.3871760577","long":"126.9806935076","items":[{"name":"페이퍼 레코드(Paper Records)","tel":"","addr":"경기도 의왕시 내손동 643-13번지 경춘다세대 가동 B01호","category":"용역 서비스 - 종합용역"}]},{"lat":"37.3847526973","long":"126.9826928121","items":[{"name":"페인트 월드","tel":"031-425-5979","addr":"경기도 의왕시 내손동 678-10번지 103호","category":"용역 서비스 - 기타용역서비스"}]},{"lat":"37.3838337330","long":"126.9830882552","items":[{"name":"평안시스템","tel":"031-422-9411","addr":"경기도 의왕시 내손동 697-11번지","category":"사무통신 - 사무용 OA기기"}]},{"lat":"37.3752532036","long":"126.9700617978","items":[{"name":"평촌자동차공업사","tel":"031-454-5704","addr":"경기도 의왕시 내손동 801-1번지","category":"자동차정비 유지 - 자동차부품"}]},{"lat":"37.3784535957","long":"126.9773540826","items":[{"name":"포인트피티","tel":"070-4333-4991","addr":"경기도 의왕시 내손동 771번지 반도보라빌리지1단지","category":"회원제형태 - 사무서비스"}]},{"lat":"37.3855001096","long":"126.9803326709","items":[{"name":"포일아트","tel":"031-425-8313","addr":"경기도 의왕시 내손동 683-4번지","category":"문화.취미 - 화원"},{"name":"포일전기통신센타","tel":"031-425-8313","addr":"경기도 의왕시 내손동 683-4번지","category":"건축자재 - 조명기구"}]},{"lat":"37.3842212406","long":"126.9835285176","items":[{"name":"포일커피집","tel":"031-424-3243","addr":"경기도 의왕시 내손동 697-16번지","category":"일반휴게음식 - 스넥"}]},{"lat":"37.3851401184","long":"126.9826136675","items":[{"name":"포일한의원","tel":"031-348-1231","addr":"경기도 의왕시 내손동 673-11번지","category":"의원 - 한의원"}]},{"lat":"37.3915827282","long":"126.9850059413","items":[{"name":"포천칼국수","tel":"031-425-9223","addr":"경기도 의왕시 내손동 661-9번지","category":"일반휴게음식 - 일반한식"}]},{"lat":"37.3902217505","long":"126.9822283612","items":[{"name":"포토라인 스튜디오","tel":"031-347-5649","addr":"경기도 의왕시 내손동 655-3번지 부광빌라 202호","category":"광학제품 - 사진관"}]},{"lat":"37.3908074637","long":"126.9825556794","items":[{"name":"푸른환경클리닉","tel":"031-424-9116","addr":"경기도 의왕시 내손동 654-9번지 지층 102호","category":"용역 서비스 - 종합용역"}]},{"lat":"37.3834630154","long":"126.9764264994","items":[{"name":"프로반(PROVAN)","tel":"031-387-8351","addr":"경기도 의왕시 내손동 845번지 포일자이아파트","category":"보건위생 - 화장품"}]},{"lat":"37.3835001923","long":"126.9821172926","items":[{"name":"프로카센타","tel":"031-24-1178","addr":"경기도 의왕시 내손동 697-2번지","category":"자동차정비 유지 - 카인테리어"}]},{"lat":"37.3855444952","long":"126.9770806800","items":[{"name":"프롬에스(From.S)","tel":"","addr":"경기도 의왕시 내손동 846번지 의왕내손이편한세상","category":"문화.취미 - 화원"}]},{"lat":"37.3903569451","long":"126.9824767549","items":[{"name":"피노키오","tel":"031-424-4769","addr":"경기도 의왕시 내손동 658-15번지","category":"학원 - 기타 교육기관"}]},{"lat":"37.3705897626","long":"126.9895605326","items":[{"name":"피아노","tel":"031-426-5688","addr":"경기도 의왕시 내손동 121번지","category":"일반휴게음식 - 일식·회집"}]},{"lat":"37.3869416484","long":"126.9799257344","items":[{"name":"피자스쿨의왕내손점","tel":"031-422-6662","addr":"경기도 의왕시 내손동 643-21번지 102호","category":"일반휴게음식 - 서양음식"}]},{"lat":"37.3831125308","long":"126.9808640737","items":[{"name":"하늘땅어린이집 (하늘땅공동육아사회적협동","tel":"031-422-4633","addr":"경기도 의왕시 내손동 696-18번지","category":"학원 - 유아원"},{"name":"하늘땅어린이집[아이행복]","tel":"031-422-4633","addr":"경기도 의왕시 내손동 696-18번지","category":"학원 - 유아원"}]},{"lat":"37.3826246463","long":"126.9745750452","items":[{"name":"하늘아이어린이집[아이행복]","tel":"031-422-9359","addr":"경기도 의왕시 내손동 845번지 포일자이아파트","category":"학원 - 유아원"}]},{"lat":"37.3881481790","long":"126.9760183415","items":[{"name":"한강야생화식물원","tel":"02-451-0072","addr":"경기도 의왕시 내손동 842번지 래미안에버하임아파트","category":"회원제형태 - 기타4"}]},{"lat":"37.3865718742","long":"126.9781417517","items":[{"name":"한국융복합산업협의회","tel":"","addr":"경기도 의왕시 내손동 846번지 의왕내손이편한세상 1406동 904호","category":"용역 서비스 - 사무서비스"}]},{"lat":"37.3849693040","long":"126.9849510546","items":[{"name":"한국의물판매주식회사","tel":"031-575-4414","addr":"경기도 의왕시 내손동 703-19번지 지층 1호","category":"유통업 영리 - 기타유통업"}]},{"lat":"37.3745049862","long":"126.9687299117","items":[{"name":"한미열쇠","tel":"031-422-4660","addr":"경기도 의왕시 내손동 814-4번지 상가 1층 1호","category":"건축자재 - 목재·석재·철물"}]},{"lat":"37.3834731181","long":"126.9818688920","items":[{"name":"한올스포츠","tel":"031-425-4507","addr":"경기도 의왕시 내손동 697번지 1층 1호","category":"레져용품 - 스포츠·레져용품"}]},{"lat":"37.3839689129","long":"126.9832575900","items":[{"name":"한일생활건강","tel":"031-422-7780","addr":"경기도 의왕시 내손동 697-13번지 102호","category":"건축자재 - 보일러·펌프·샷시"}]},{"lat":"37.3889158209","long":"126.9855598874","items":[{"name":"한전구내식당","tel":"031-111-1111","addr":"경기도 의왕시 내손동 665번지","category":"일반휴게음식 - 일반한식"}]},{"lat":"37.3849414201","long":"126.9800053848","items":[{"name":"한진철물","tel":"031-423-2300","addr":"경기도 의왕시 내손동 684-11번지 1호","category":"건축자재 - 목재·석재·철물"}]},{"lat":"37.3789757682","long":"126.9755022465","items":[{"name":"할리스커피","tel":"031-422-8076","addr":"경기도 의왕시 내손동 757-3번지 보은하우징알파 102호","category":"일반휴게음식 - 서양음식"}]},{"lat":"37.3709234958","long":"126.9932521066","items":[{"name":"해미별궁","tel":"031-476-5292","addr":"경기도 의왕시 내손동 135번지","category":"일반휴게음식 - 일반한식"}]},{"lat":"37.3870765499","long":"126.9786723013","items":[{"name":"해찬솔어린이집[아이행복]","tel":"031-1661-0591","addr":"경기도 의왕시 내손동 633","category":"학원 - 유아원"}]},{"lat":"37.3772098604","long":"126.9758303084","items":[{"name":"핵산바이오 의왕점","tel":"031-425-4886","addr":"경기도 의왕시 내손동 771번지 반도보라빌리지1단지","category":"건강식품 - 기타건강식품"}]},{"lat":"37.3844734790","long":"126.9832574584","items":[{"name":"행복 종합 인테리어","tel":"070-7725-0406","addr":"경기도 의왕시 내손동 677-10번지 나동 1층","category":"용역 서비스 - 기타용역서비스"},{"name":"현대정보통신(포일점)","tel":"031-348-3883","addr":"경기도 의왕시 내손동 677-10번지 밀림상가 나동 102호","category":"사무통신 - 통신기기"}]},{"lat":"37.3849414894","long":"126.9803667128","items":[{"name":"헤어스케치","tel":"031-425-8408","addr":"경기도 의왕시 내손동 682번지 지층 101호","category":"보건위생 - 미용재료"}]},{"lat":"37.3751720906","long":"126.9699828029","items":[{"name":"현대모터스","tel":"031-477-8254","addr":"경기도 의왕시 내손동 801-2번지","category":"자동차정비 유지 - 자동차정비"}]},{"lat":"37.3839145873","long":"126.9817219813","items":[{"name":"현대종합설비","tel":"031-423-1304","addr":"경기도 의왕시 내손동 677번지","category":"건축자재 - 인테리어전문"}]},{"lat":"37.3834998977","long":"126.9805026393","items":[{"name":"현대철물건재","tel":"031-446-2023","addr":"경기도 의왕시 내손동 688-18번지","category":"건축자재 - 목재·석재·철물"}]},{"lat":"37.3911680140","long":"126.9834250993","items":[{"name":"형제기름집","tel":"031-425-5861","addr":"경기도 의왕시 내손동 659-11번지 1층","category":"음료식품 - 기타음료식품"},{"name":"형제떡방아간","tel":"031-425-5861","addr":"경기도 의왕시 내손동 659-11번지","category":"음료식품 - 제과점"}]},{"lat":"37.3800839941","long":"126.9754228081","items":[{"name":"호텔시저(CAESAR)","tel":"031-424-2812","addr":"경기도 의왕시 내손동 734-2번지","category":"숙박업 - 여관/기타숙박업"}]},{"lat":"37.3835813462","long":"126.9824785917","items":[{"name":"홈인테리어아씨방","tel":"031-422-6622","addr":"경기도 의왕시 내손동 697-5번지 1층","category":"건축자재 - 인테리어전문"}]},{"lat":"37.3879693434","long":"126.9829177884","items":[{"name":"홍대박아구찜","tel":"031-423-9313","addr":"경기도 의왕시 내손동 667-15번지 1층","category":"일반휴게음식 - 일반한식"}]},{"lat":"37.3859146598","long":"126.9807842125","items":[{"name":"화다닭","tel":"031-425-8244","addr":"경기도 의왕시 내손동 683-9번지","category":"일반휴게음식 - 일반한식"}]},{"lat":"37.3744419479","long":"126.9688428395","items":[{"name":"화인픽스","tel":"031-427-6653","addr":"경기도 의왕시 내손동 814-3번지 대명주택 102호","category":"기타 - 기계공구"}]},{"lat":"37.3776363591","long":"126.9987496742","items":[{"name":"황토장어수산물","tel":"031-425-0346","addr":"경기도 의왕시 내손동 10-4번지 1층","category":"음료식품 - 농·축·수산품"},{"name":"효천황토장어숯불구이","tel":"031-425-0345","addr":"경기도 의왕시 내손동 10-4번지","category":"일반휴게음식 - 일반한식"}]},{"lat":"37.3847793905","long":"126.9808071288","items":[{"name":"휴플러스","tel":"031-423-8002","addr":"경기도 의왕시 내손동 681-1번지 101호","category":"문화.취미 - 화원"}]},{"lat":"37.3852483837","long":"126.9834717957","items":[{"name":"희진상사","tel":"031-58-8735","addr":"경기도 의왕시 내손동 675-2번지","category":"주방용구 - 주방용식기"}]}]