[{"lat":"38.001148748","long":"127.24201904","imageIndex":13,"items":[{"name":"OK노래연습장","tel":"031-533-3110","addr":"경기도 포천시 영중면 양문리 801-17","indutype":"레저업소 - 노 래 방","category":"leisure"}]},{"lat":"38.001237262","long":"127.24279352","imageIndex":13,"items":[{"name":"대명당구장","tel":"031-534-9742","addr":"경기도 포천시 영중면 양문리 772-1번지","indutype":"레저업소 - 당 구 장","category":"leisure"}]},{"lat":"38.001455404","long":"127.24184925","imageIndex":13,"items":[{"name":"대짱노래연습장","tel":"031-531-1288","addr":"경기도 포천시 영중면 양문리 803-24번지","indutype":"레저업소 - 노 래 방","category":"leisure"}]},{"lat":"38.001814817","long":"127.24231722","imageIndex":13,"items":[{"name":"미 노래연습장","tel":"031-531-7224","addr":"경기도 포천시 영중면 양문리 802-1번지 2층","indutype":"레저업소 - 노 래 방","category":"leisure"}]},{"lat":"38.001346947","long":"127.24201968","imageIndex":13,"items":[{"name":"애창노래연습장","tel":"031-534-2399","addr":"경기도 포천시 영중면 양문리 803-26번지","indutype":"레저업소 - 노 래 방","category":"leisure"}]},{"lat":"38.002156583","long":"127.24260297","imageIndex":13,"items":[{"name":"준 (JUN)당구클럽","tel":"070-7764-0308","addr":"경기도 포천시 영중면 양문리 809-4번지 3층","indutype":"레저업소 - 당 구 장","category":"leisure"}]}]