[{"lat":"37.18355311","long":"127.10863826","imageIndex":13,"items":[{"name":"go동탄점핑","tel":"031-375-7447","addr":"경기도 화성시 오산동 1040-4번지 리더스뷰프라자 201호","indutype":"레저업소 - 헬스클럽","category":"leisure"},{"name":"데이지 필라테스(daisy pilates)","tel":"031-376-9501","addr":"경기도 화성시 오산동 1040-4번지 리더스뷰프라자 405호","indutype":"레저업소 - 헬스클럽","category":"leisure"}]},{"lat":"37.197717694","long":"127.09772111","imageIndex":13,"items":[{"name":"골든벨노래연습장","tel":"031-376-0667","addr":"경기도 화성시 오산동 969-6번지 202,203호","indutype":"레저업소 - 노 래 방","category":"leisure"},{"name":"불독PC방","tel":"070-6257-5789","addr":"경기도 화성시 오산동 969-6번지 광장프리미엄빌 304,305호","indutype":"레저업소 - 기타레져업소","category":"leisure"}]},{"lat":"37.197275787","long":"127.09821615","imageIndex":13,"items":[{"name":"골프존24","tel":"031-373-6088","addr":"경기도 화성시 오산동 969-3번지 10층 1007호","indutype":"레저업소 - 스크린골프","category":"leisure"},{"name":"놀숲 동탄역점","tel":"031-8055-8554","addr":"경기도 화성시 오산동 969-3번지 701호","indutype":"레저업소 - 기타레져업소","category":"leisure"},{"name":"동탄역당구장","tel":"031-613-0050","addr":"경기도 화성시 오산동 969-3번지 우성KTX타워 405호 404호, 405호","indutype":"레저업소 - 당 구 장","category":"leisure"},{"name":"라움요가","tel":"031-000-0000","addr":"경기도 화성시 오산동 969-3번지 9층 901호","indutype":"레저업소 - 헬스클럽","category":"leisure"},{"name":"첨벙첨벙","tel":"031-374-0447","addr":"경기도 화성시 오산동 969-3번지 8층 805호","indutype":"레저업소 - 수 영 장","category":"leisure"},{"name":"타워PC카페","tel":"070-3377-6900","addr":"경기도 화성시 오산동 969-3번지 우성케이티엑스타워 7층 703호,704호","indutype":"레저업소 - 기타레져업소","category":"leisure"},{"name":"핑크짐","tel":"031-7368-1472","addr":"경기도 화성시 오산동 969-3번지","indutype":"레저업소 - 헬스클럽","category":"leisure"}]},{"lat":"37.183418993","long":"127.10746689","imageIndex":13,"items":[{"name":"골프존파크 동탄 리베라점","tel":"031-378-0753","addr":"경기도 화성시 오산동 1040-1번지 베리프라자 4층 1호","indutype":"레저업소 - 스크린골프","category":"leisure"}]},{"lat":"37.197772706","long":"127.09652724","imageIndex":13,"items":[{"name":"근본 퍼스널 트레이닝","tel":"031-376-4556","addr":"경기도 화성시 오산동 968-7번지 동탄케이티엑스중앙파크뷰 4층 401호","indutype":"레저업소 - 헬스클럽","category":"leisure"},{"name":"케이(K)팝노래연습장","tel":"031-374-8265","addr":"경기도 화성시 오산동 968-7번지 206호","indutype":"레저업소 - 노 래 방","category":"leisure"}]},{"lat":"37.20186281","long":"127.09729825","imageIndex":13,"items":[{"name":"동탄롤라스타","tel":"031-373-5007","addr":"경기도 화성시 오산동 1019번지 434동 440호","indutype":"레저업소 - 기타레져업소","category":"leisure"},{"name":"동탄짐보리","tel":"031-8015-7770","addr":"경기도 화성시 오산동 1019번지 라스플로레스 D동 4층 409호","indutype":"레저업소 - 기타레져업소","category":"leisure"},{"name":"스트라이크존 동탄역 구장","tel":"031-375-0919","addr":"경기도 화성시 오산동 1019번지 513호,514호,515호","indutype":"레저업소 - 기타레져업소","category":"leisure"},{"name":"타이팰리스","tel":"","addr":"경기도 화성시 오산동 1019번지 라스폴로레스 502호","indutype":"레저업소 - 헬스클럽","category":"leisure"}]},{"lat":"37.20211084","long":"127.09113704","imageIndex":13,"items":[{"name":"로엔필라테스","tel":"","addr":"경기도 화성시 오산동 973번지 동탄역반도유보라아이비파크8.0 206동 9층 7호","indutype":"레저업소 - 헬스클럽","category":"leisure"}]},{"lat":"37.19741134","long":"127.09772072","imageIndex":13,"items":[{"name":"맥스피드PC 동탄직영점","tel":"070-2748-5132","addr":"경기도 화성시 오산동 969-5번지 지티엑스광장프라자 201호","indutype":"레저업소 - 기타레져업소","category":"leisure"},{"name":"타워노래연습장","tel":"031-206-1920","addr":"경기도 화성시 오산동 969-5번지 301호","indutype":"레저업소 - 노 래 방","category":"leisure"}]},{"lat":"37.198051608","long":"127.09705697","imageIndex":13,"items":[{"name":"무브명상센터","tel":"031-377-6670","addr":"경기도 화성시 오산동 968-2번지 동탄역퍼스트프라자 1동 404호","indutype":"레저업소 - 헬스클럽","category":"leisure"},{"name":"무브요가 (Move Yoga)","tel":"031-377-6646","addr":"경기도 화성시 오산동 968-2번지 동탄역퍼스트프라자 1동 403호","indutype":"레저업소 - 헬스클럽","category":"leisure"},{"name":"위즈 필라테스","tel":"070-2482-0918","addr":"경기도 화성시 오산동 968-2번지 퍼스트프라자 506호","indutype":"레저업소 - 헬스클럽","category":"leisure"},{"name":"코지앤핏","tel":"070-4327-1609","addr":"경기도 화성시 오산동 968-2번지 퍼스트프라자 606호","indutype":"레저업소 - 헬스클럽","category":"leisure"}]},{"lat":"37.197493384","long":"127.09652689","imageIndex":13,"items":[{"name":"발리노래연습장","tel":"","addr":"경기도 화성시 오산동 968-6번지 505호","indutype":"레저업소 - 노 래 방","category":"leisure"},{"name":"주식회사 더센터오브필라테스동탄","tel":"031-377-9496","addr":"경기도 화성시 오산동 968-6번지 윤정프라자 401호","indutype":"레저업소 - 헬스클럽","category":"leisure"},{"name":"프리미엄 PC 2.0","tel":"","addr":"경기도 화성시 오산동 968-6번지 2층 205,206호","indutype":"레저업소 - 기타레져업소","category":"leisure"}]},{"lat":"37.197104987","long":"127.09772034","imageIndex":13,"items":[{"name":"버클짐","tel":"031-377-9691","addr":"경기도 화성시 오산동 969-4번지 신유메디프라자 801~810호","indutype":"레저업소 - 헬스클럽","category":"leisure"},{"name":"아르티스 테마파크","tel":"031-377-4028","addr":"경기도 화성시 오산동 969-4번지 신유메디프라자 9층 901~910호","indutype":"레저업소 - 기타레져업소","category":"leisure"}]},{"lat":"37.188942005","long":"127.09716954","imageIndex":13,"items":[{"name":"아이코어필라테스","tel":"031-376-9152","addr":"경기도 화성시 오산동 239번지 c-12앨리스빌3025호","indutype":"레저업소 - 헬스클럽","category":"leisure"}]},{"lat":"37.188301848","long":"127.08567009","imageIndex":13,"items":[{"name":"자이언트 피트니스2호점","tel":"031-373-7553","addr":"경기도 화성시 오산동 995-1번지 401~405호","indutype":"레저업소 - 헬스클럽","category":"leisure"}]},{"lat":"37.197772286","long":"127.09705662","imageIndex":13,"items":[{"name":"쭌노래연습장","tel":"031-377-7735","addr":"경기도 화성시 오산동 968-3번지 로얄클래스 402호","indutype":"레저업소 - 노 래 방","category":"leisure"}]},{"lat":"37.197501974","long":"127.09705629","imageIndex":13,"items":[{"name":"파티파티노래연습장","tel":"031-387-7501","addr":"경기도 화성시 오산동 968-4번지 303~305호","indutype":"레저업소 - 노 래 방","category":"leisure"}]}]