[{"lat":"37.320235839","long":"127.43768189","items":[{"name":"HSF코리아","tel":"031-632-0982","addr":"경기도 이천시 신둔면 도암리 295-4","category":"레져용품 - 스포츠·레져용품"}]},{"lat":"37.319849263","long":"127.44232771","items":[{"name":"SAMO(사모)","tel":"031-632-7399","addr":"경기도 이천시 신둔면 도암리 347-18번지 1동 2층","category":"일반휴게음식 - 서양음식"}]},{"lat":"37.303377615","long":"127.44504037","items":[{"name":"강남농원","tel":"070-4138-8177","addr":"경기도 이천시 신둔면 도암리 1027번지","category":"음료식품 - 농·축·수산품"}]},{"lat":"37.319242065","long":"127.44084628","items":[{"name":"강남박생태찌개","tel":"031-632-7164","addr":"경기도 이천시 신둔면 도암리 343-3번지","category":"일반휴게음식 - 일반한식"},{"name":"꼬꼬C 참숯불닭갈비도암점","tel":"031-631-6315","addr":"경기도 이천시 신둔면 도암리 343-3번지","category":"일반휴게음식 - 일반한식"},{"name":"도암떡","tel":"031-638-1346","addr":"경기도 이천시 신둔면 도암리 343-3번지 1층 5호","category":"음료식품 - 제과점"},{"name":"도암정약국","tel":"031-631-4978","addr":"경기도 이천시 신둔면 도암리 343-3번지","category":"약국 - 약국"},{"name":"부악체육관","tel":"031-634-8857","addr":"경기도 이천시 신둔면 도암리 343-3번지 조일빌딩 2층","category":"학원 - 예·체능계학원"},{"name":"신영","tel":"031-633-1179","addr":"경기도 이천시 신둔면 도암리 343-3번지 1층","category":"일반휴게음식 - 일반한식"}]},{"lat":"37.320209804","long":"127.43741097","items":[{"name":"거산산채정식","tel":"031-634-5937","addr":"경기도 이천시 신둔면 도암리 295-13번지","category":"일반휴게음식 - 일반한식"},{"name":"도암철물","tel":"031-631-1688","addr":"경기도 이천시 신둔면 도암리 295-13","category":"건축자재 - 목재·석재·철물"}]},{"lat":"37.319068495","long":"127.44148833","items":[{"name":"굽네치킨(신둔점)","tel":"031-631-1696","addr":"경기도 이천시 신둔면 도암리 352-15","category":"일반휴게음식 - 스넥"},{"name":"송암KIDS태권도","tel":"031-634-0330","addr":"경기도 이천시 신둔면 도암리 352-15번지","category":"학원 - 예·체능계학원"},{"name":"씨유이천도암점","tel":"031-631-4060","addr":"경기도 이천시 신둔면 도암리 352-15번지 1층","category":"유통업 영리 - 편 의 점"}]},{"lat":"37.319240812","long":"127.44118472","items":[{"name":"깍꼬?고헤어 #","tel":"031-633-5268","addr":"경기도 이천시 신둔면 도암리 345-4번지 도암빌딩 102호","category":"보건위생 - 미용원"},{"name":"꿈꾸는마을음악학원","tel":"031-634-1715","addr":"경기도 이천시 신둔면 도암리 345-4번지 도암빌딩 202호","category":"학원 - 예·체능계학원"},{"name":"세븐일레븐이천도암점","tel":"","addr":"경기도 이천시 신둔면 도암리 345-4번지 도암빌딩 1층 3호","category":"유통업 영리 - 편 의 점"},{"name":"커피맘","tel":"031-631-5195","addr":"경기도 이천시 신둔면 도암리 345-4번지 도암빌딩 1동 1층","category":"일반휴게음식 - 서양음식"}]},{"lat":"37.320239482","long":"127.43668912","items":[{"name":"느와드 코코 퓨어(PREMIUM)","tel":"031-633-6855","addr":"경기도 이천시 신둔면 도암리 282-7번지","category":"음료식품 - 농·축·수산품"}]},{"lat":"37.308990253","long":"127.43793297","items":[{"name":"다원공인중개사사무소","tel":"031-634-3444","addr":"경기도 이천시 신둔면 도암리 820-6번지 101호","category":"용역 서비스 - 부동산 중개·임대"}]},{"lat":"37.328763811","long":"127.4389383","items":[{"name":"담고 담기다","tel":"","addr":"경기도 이천시 신둔면 도암리 30-4번지","category":"문화.취미 - 민예·공예품"}]},{"lat":"37.315379883","long":"127.43998908","items":[{"name":"대상기공","tel":"031-632-3234","addr":"경기도 이천시 신둔면 도암리 458-2번지","category":"기타 - 기계공구"}]},{"lat":"37.319988972","long":"127.44109882","items":[{"name":"데프사운드","tel":"","addr":"경기도 이천시 신둔면 도암리 347-40번지 한샘하이츠 301동 302호","category":"용역 서비스 - 기타용역서비스"}]},{"lat":"37.323326252","long":"127.43524017","items":[{"name":"도성청자도요","tel":"031-632-7716","addr":"경기도 이천시 신둔면 도암리 225-1번지","category":"문화.취미 - 골동품점"}]},{"lat":"37.318433444","long":"127.44265791","items":[{"name":"도암초등학교","tel":"031-633-1760","addr":"경기도 이천시 신둔면 도암리 358번지 1층","category":"학원 - 초중고교육기관"}]},{"lat":"37.319546543","long":"127.4364595","items":[{"name":"도암타일","tel":"031-633-0467","addr":"경기도 이천시 신둔면 도암리 278-3번지 1층","category":"건축자재 - 건축용 요업제품"}]},{"lat":"37.31435508","long":"127.43935142","items":[{"name":"도암특수","tel":"031-634-0777","addr":"경기도 이천시 신둔면 도암리 472-4번지","category":"연료판매점 - 유류판매"}]},{"lat":"37.31932449","long":"127.44048575","items":[{"name":"도암한식부페","tel":"031-633-5868","addr":"경기도 이천시 신둔면 도암리 320-17번지 1층","category":"일반휴게음식 - 일반한식"}]},{"lat":"37.318458158","long":"127.44085302","items":[{"name":"도암해법영어교습소","tel":"031-631-3890","addr":"경기도 이천시 신둔면 도암리 340-3번지 201호","category":"학원 - 외국어학원"}]},{"lat":"37.310545751","long":"127.44368359","items":[{"name":"미방푸드","tel":"02-1111-1111","addr":"경기도 이천시 신둔면 도암리 632번지","category":"음료식품 - 제과점"}]},{"lat":"37.319547986","long":"127.44096088","items":[{"name":"바잉","tel":"031-634-0042","addr":"경기도 이천시 신둔면 도암리 346-11번지","category":"일반휴게음식 - 스넥"}]},{"lat":"37.310577374","long":"127.43756986","items":[{"name":"선도OA","tel":"031-635-7737","addr":"경기도 이천시 신둔면 도암리 560-5번지","category":"사무통신 - 사무용 OA기기"},{"name":"선도솔루션","tel":"031-637-7737","addr":"경기도 이천시 신둔면 도암리 560-5번지","category":"사무통신 - 사무용 OA기기"}]},{"lat":"37.313795297","long":"127.43721612","items":[{"name":"신둔철물건재상사","tel":"031-633-6289","addr":"경기도 이천시 신둔면 도암리 482-3번지","category":"기타 - 기계공구"}]},{"lat":"37.307041901","long":"127.43851957","items":[{"name":"쌀사랑","tel":"02-745-0153","addr":"경기도 이천시 신둔면 도암리 857-2번지","category":"음료식품 - 미곡상"}]},{"lat":"37.310519513","long":"127.44104385","items":[{"name":"예지식품","tel":"031-637-3360","addr":"경기도 이천시 신둔면 도암리 621-2번지","category":"음료식품 - 기타음료식품"}]},{"lat":"37.315459931","long":"127.44027157","items":[{"name":"우리레이져","tel":"031-632-3234","addr":"경기도 이천시 신둔면 도암리 463번지","category":"기타 - 기계공구"}]},{"lat":"37.319156628","long":"127.44201907","items":[{"name":"우리집밥상","tel":"031-631-1696","addr":"경기도 이천시 신둔면 도암리 349-2번지","category":"일반휴게음식 - 일반한식"}]},{"lat":"37.316069115","long":"127.43632672","items":[{"name":"우승도예","tel":"031-634-7080","addr":"경기도 이천시 신둔면 도암리 436번지","category":"문화.취미 - 민예·공예품"}]},{"lat":"37.320291547","long":"127.43477152","items":[{"name":"원일코퍼레이션","tel":"031-631-3275","addr":"경기도 이천시 신둔면 도암리 266번지","category":"음료식품 - 기타음료식품"}]},{"lat":"37.310431098","long":"127.44301738","items":[{"name":"으뜸푸드","tel":"031-632-4562","addr":"경기도 이천시 신둔면 도암리 628-7번지","category":"음료식품 - 기타음료식품"}]},{"lat":"37.324625215","long":"127.43728973","items":[{"name":"잇츠뮤직","tel":"070-4643-3735","addr":"경기도 이천시 신둔면 도암리 92-3번지","category":"레져용품 - 악기점"}]},{"lat":"37.320159952","long":"127.44115622","items":[{"name":"청년","tel":"","addr":"경기도 이천시 신둔면 도암리 347-39번지 307동 102호","category":"보건위생 - 기타대인서비스"}]},{"lat":"37.320156986","long":"127.43707222","items":[{"name":"효양종합물산","tel":"031-636-8987","addr":"경기도 이천시 신둔면 도암리 282-2번지 까사펠리스 A동 101,102호","category":"의류 - 기타의류"}]}]