[{"lat":"37.260023351","long":"127.39569403","items":[{"name":"(주)곤스모바일","tel":"02-6095-8245","addr":"경기도 이천시 마장면 목리 400-5번지","category":"건축자재 - 기타건축자재"}]},{"lat":"37.261742577","long":"127.39349345","items":[{"name":"(주)스페이스에덴","tel":"031-645-9220","addr":"경기도 이천시 마장면 목리 417번지","category":"용역 서비스 - 종합용역"}]},{"lat":"37.265300359","long":"127.39929515","items":[{"name":"GS25이천도드람점","tel":"02-2006-2485","addr":"경기도 이천시 마장면 목리 78-5","category":"유통업 영리 - 편 의 점"}]},{"lat":"37.255742892","long":"127.40393427","items":[{"name":"WAM(더블유에이엠)","tel":"","addr":"경기도 이천시 마장면 목리 205-1번지","category":"가구 - 기타가구"}]},{"lat":"37.264467577","long":"127.40044067","items":[{"name":"도드람산식당","tel":"031-636-9774","addr":"경기도 이천시 마장면 목리 93","category":"일반휴게음식 - 일반한식"}]},{"lat":"37.262636993","long":"127.40621417","items":[{"name":"라이카O.A","tel":"031-634-3211","addr":"경기도 이천시 마장면 목리 350-3","category":"사무통신 - 사무용 OA기기"}]},{"lat":"37.264493774","long":"127.40068883","items":[{"name":"시골밥집","tel":"031-637-3089","addr":"경기도 이천시 마장면 목리 94-4번지","category":"일반휴게음식 - 일반한식"}]},{"lat":"37.261467393","long":"127.39496879","items":[{"name":"알렉스더커피","tel":"031-645-9150","addr":"경기도 이천시 마장면 목리 417-4번지 까페동 1층","category":"일반휴게음식 - 서양음식"}]},{"lat":"37.263689451","long":"127.40140609","items":[{"name":"여주진산농원","tel":"031-633-1053","addr":"경기도 이천시 마장면 목리 128-3","category":"음료식품 - 농·축·수산품"}]},{"lat":"37.262747263","long":"127.39211204","items":[{"name":"영심보전","tel":"031-636-8618","addr":"경기도 이천시 마장면 목리 425번지","category":"보건위생 - 기타대인서비스"}]},{"lat":"37.263632187","long":"127.40766246","items":[{"name":"이천시농업마이스터영농조합법인","tel":"031-638-4208","addr":"경기도 이천시 마장면 목리 산13-32번지 마장푸리미엄휴게소","category":"음료식품 - 농·축·수산품"}]},{"lat":"37.260301391","long":"127.39607875","items":[{"name":"주식회사 하이그린","tel":"031-634-6261","addr":"경기도 이천시 마장면 목리 400-4번지","category":"유통업 영리 - 기타유통업"}]},{"lat":"37.269408682","long":"127.40207885","items":[{"name":"중부특장","tel":"031-637-9967","addr":"경기도 이천시 마장면 목리 41-5번지","category":"자동차판매 - 기타운송"}]},{"lat":"37.259631754","long":"127.40762978","items":[{"name":"진수아대리운전","tel":"031-1833-6766","addr":"경기도 이천시 마장면 목리 190-4번지 2층","category":"보건위생 - 기타대인서비스"}]},{"lat":"37.256520456","long":"127.40579831","items":[{"name":"표교초등학교","tel":"031-638-3720","addr":"경기도 이천시 마장면 목리 228번지 표교초등학교","category":"학원 - 초중고교육기관"},{"name":"표교초등학교병설유치원[아이행복]","tel":"031-638-3720","addr":"경기도 이천시 마장면 목리 228번지 표교초등학교","category":"학원 - 유치원"}]},{"lat":"37.268079727","long":"127.40605154","items":[{"name":"화성윙닥터","tel":"031-339-0587","addr":"경기도 이천시 마장면 목리 18-1번지","category":"자동차판매 - 기타운송"},{"name":"화성특장 서비스","tel":"","addr":"경기도 이천시 마장면 목리 18-1번지 1층","category":"자동차정비 유지 - 자동차정비"}]}]