[{"lat":"37.314795682","long":"127.2533989","imageIndex":7,"items":[{"name":"(주)디케이에프비","tel":"031-321-3494","addr":"경기도 용인시 처인구 모현읍 초부리 152-3번지","indutype":"음료식품 - 기타음료식품","category":"food"}]},{"lat":"37.357921388","long":"127.2295338","imageIndex":7,"items":[{"name":"(주)라이즈유통","tel":"02-335-3817","addr":"경기도 용인시 처인구 모현읍 일산리 406-6","indutype":"음료식품 - 농·축·수산품","category":"food"}]},{"lat":"37.331040164","long":"127.18484972","imageIndex":7,"items":[{"name":"(주)락팜","tel":"031-336-1249","addr":"경기도 용인시 처인구 모현읍 동림리 294-1번지","indutype":"음료식품 - 기타음료식품","category":"food"},{"name":"이비초코","tel":"031-321-1088","addr":"경기도 용인시 처인구 모현읍 동림리 294-1","indutype":"음료식품 - 기타음료식품","category":"food"},{"name":"주식회사 이비초코","tel":"031-321-1088","addr":"경기도 용인시 처인구 모현읍 동림리 294-1번지 A동","indutype":"음료식품 - 기타음료식품","category":"food"}]},{"lat":"37.337790598","long":"127.17146011","imageIndex":7,"items":[{"name":"(주)루마","tel":"070-7431-6924","addr":"경기도 용인시 처인구 모현읍 능원리 141번지","indutype":"음료식품 - 기타음료식품","category":"food"}]},{"lat":"37.342202105","long":"127.18592616","imageIndex":7,"items":[{"name":"(주)무무원","tel":"031-717-6278","addr":"경기도 용인시 처인구 모현읍 동림리 산 7-1","indutype":"음료식품 - 농·축·수산품","category":"food"}]},{"lat":"37.326009215","long":"127.24234528","imageIndex":7,"items":[{"name":"(주)씨즈커피몰","tel":"070-5083-4607","addr":"경기도 용인시 처인구 모현읍 갈담리 307-25번지","indutype":"음료식품 - 기타음료식품","category":"food"}]},{"lat":"37.306041753","long":"127.25150872","imageIndex":7,"items":[{"name":"(주)와이푸드","tel":"031-1899-8094","addr":"경기도 용인시 처인구 모현읍 초부리 532번지","indutype":"음료식품 - 정육점","category":"food"}]},{"lat":"37.313573874","long":"127.25170273","imageIndex":7,"items":[{"name":"(주)자연에서","tel":"031-334-1254","addr":"경기도 용인시 처인구 모현읍 초부리 148번지","indutype":"음료식품 - 정육점","category":"food"}]},{"lat":"37.30054587","long":"127.251344","imageIndex":7,"items":[{"name":"(주)힐링하우스","tel":"031-333-9100","addr":"경기도 용인시 처인구 모현읍 초부리 674-20번지","indutype":"음료식품 - 기타음료식품","category":"food"}]},{"lat":"37.340291084","long":"127.25073006","imageIndex":7,"items":[{"name":"건국우유용인모현대리점","tel":"031-334-1490","addr":"경기도 용인시 처인구 모현읍 왕산리 775-7 101","indutype":"음료식품 - 기타음료식품","category":"food"}]},{"lat":"37.335126807","long":"127.25142399","imageIndex":7,"items":[{"name":"고향떡방아간","tel":"031-337-2343","addr":"경기도 용인시 처인구 모현읍 왕산리 500-3번지 영어교습소 1층 2호","indutype":"음료식품 - 제과점","category":"food"}]},{"lat":"37.340341543","long":"127.17070972","imageIndex":7,"items":[{"name":"고향식품","tel":"031-337-2038","addr":"경기도 용인시 처인구 모현읍 능원리 120-1번지","indutype":"음료식품 - 기타음료식품","category":"food"}]},{"lat":"37.333092918","long":"127.22290336","imageIndex":7,"items":[{"name":"광일푸드","tel":"031-786-0688","addr":"경기도 용인시 처인구 모현읍 매산리 388-7번지 지하1층","indutype":"음료식품 - 농·축·수산품","category":"food"}]},{"lat":"37.327679352","long":"127.15968072","imageIndex":7,"items":[{"name":"구구유통","tel":"031-0000-0000","addr":"경기도 용인시 처인구 모현읍 오산리 126-3번지","indutype":"음료식품 - 기타음료식품","category":"food"}]},{"lat":"37.3354264","long":"127.25461837","imageIndex":7,"items":[{"name":"국가대표 고깃간","tel":"031-322-2353","addr":"경기도 용인시 처인구 모현읍 왕산리 494-11번지 3층","indutype":"음료식품 - 정육점","category":"food"}]},{"lat":"37.331985595","long":"127.22240365","imageIndex":7,"items":[{"name":"농업회사법인 (주)라성유통","tel":"031-335-6808","addr":"경기도 용인시 처인구 모현읍 매산리 381-10번지","indutype":"음료식품 - 농·축·수산품","category":"food"}]},{"lat":"37.328562156","long":"127.17287243","imageIndex":7,"items":[{"name":"농업회사법인 녹색농장 주식회사","tel":"031-6408-8522","addr":"경기도 용인시 처인구 모현읍 능원리 370번지","indutype":"음료식품 - 농·축·수산품","category":"food"}]},{"lat":"37.313071693","long":"127.27122798","imageIndex":7,"items":[{"name":"농업회사법인 행복한사과(주)(용인자연휴양","tel":"031-1588-6086","addr":"경기도 용인시 처인구 모현읍 초부리 산22번지 1층 용인자연휴양림내 숲속체험관","indutype":"음료식품 - 기타음료식품","category":"food"}]},{"lat":"37.318481519","long":"127.23995228","imageIndex":7,"items":[{"name":"농업회사법인행복한사과주식회사","tel":"031-285-8077","addr":"경기도 용인시 처인구 모현읍 갈담리 473-3번지 삼우식품 C동 1층 1호","indutype":"음료식품 - 농·축·수산품","category":"food"}]},{"lat":"37.333843293","long":"127.24906144","imageIndex":7,"items":[{"name":"담뱃잎그대로","tel":"031-336-3306","addr":"경기도 용인시 처인구 모현읍 왕산리 428-4번지","indutype":"음료식품 - 기타음료식품","category":"food"},{"name":"도래울부대찌개","tel":"070-4922-1261","addr":"경기도 용인시 처인구 모현읍 왕산리 428-4번지","indutype":"음료식품 - 기타음료식품","category":"food"}]},{"lat":"37.327758596","long":"127.16106869","imageIndex":7,"items":[{"name":"대상웰팜","tel":"031-337-0897","addr":"경기도 용인시 처인구 모현읍 오산리 39","indutype":"음료식품 - 기타음료식품","category":"food"}]},{"lat":"37.322094481","long":"127.24884261","imageIndex":7,"items":[{"name":"대일계란","tel":"031-322-2261","addr":"경기도 용인시 처인구 모현읍 갈담리 274-52번지 2층","indutype":"음료식품 - 농·축·수산품","category":"food"}]},{"lat":"37.34111988","long":"127.23754073","imageIndex":7,"items":[{"name":"덕성수산","tel":"031-333-5242","addr":"경기도 용인시 처인구 모현읍 일산리 263-4번지","indutype":"음료식품 - 농·축·수산품","category":"food"}]},{"lat":"37.339151404","long":"127.26530604","imageIndex":7,"items":[{"name":"던킨도너츠 한국외대글로벌캠퍼스점","tel":"031-333-0201","addr":"경기도 용인시 처인구 모현읍 왕산리 산55-4번지 한국외국어대학교글로벌캠퍼스 1층 107호","indutype":"음료식품 - 제과점","category":"food"}]},{"lat":"37.336844526","long":"127.25295303","imageIndex":7,"items":[{"name":"떡마루","tel":"031-321-4867","addr":"경기도 용인시 처인구 모현읍 왕산리513-2","indutype":"음료식품 - 제과점","category":"food"},{"name":"세이브마트정육코너","tel":"031-321-6606","addr":"경기도 용인시 처인구 모현읍 왕산리513-2","indutype":"음료식품 - 정육점","category":"food"}]},{"lat":"37.34729192","long":"127.22822655","imageIndex":7,"items":[{"name":"또드림C&F","tel":"031-322-9070","addr":"경기도 용인시 처인구 모현읍 매산리 113번지","indutype":"음료식품 - 정육점","category":"food"},{"name":"영린씨엔에프","tel":"031-322-9070","addr":"경기도 용인시 처인구 모현읍 매산리 113번지","indutype":"음료식품 - 농·축·수산품","category":"food"},{"name":"주식회사 위스커피","tel":"031-335-0304","addr":"경기도 용인시 처인구 모현읍 매산리 113번지","indutype":"음료식품 - 기타음료식품","category":"food"}]},{"lat":"37.344259858","long":"127.22592656","imageIndex":7,"items":[{"name":"매산떡집","tel":"031-334-4831","addr":"경기도 용인시 처인구 모현읍 매산리 212번지","indutype":"음료식품 - 제과점","category":"food"}]},{"lat":"37.337925769","long":"127.18945909","imageIndex":7,"items":[{"name":"맥스푸드","tel":"031-335-1024","addr":"경기도 용인시 처인구 모현읍 동림리 205-3번지 1층","indutype":"음료식품 - 정육점","category":"food"}]},{"lat":"37.33098613","long":"127.17270864","imageIndex":7,"items":[{"name":"명성유통","tel":"031-334-9802","addr":"경기도 용인시 처인구 모현읍 능원리 351-29번지","indutype":"음료식품 - 기타음료식품","category":"food"}]},{"lat":"37.338293201","long":"127.24959505","imageIndex":7,"items":[{"name":"모현건빵","tel":"031-332-6684","addr":"경기도 용인시 처인구 모현읍 왕산리 945-10번지","indutype":"음료식품 - 기타음료식품","category":"food"}]},{"lat":"37.340261542","long":"127.25192615","imageIndex":7,"items":[{"name":"바이탈코어","tel":"031-333-9347","addr":"경기도 용인시 처인구 모현읍 왕산리 545-1번지 한남아트빌 1층 101호","indutype":"건강식품 - 기타건강식품","category":"food"}]},{"lat":"37.335201269","long":"127.16748234","imageIndex":7,"items":[{"name":"벌들의 고향","tel":"031-000-0000","addr":"경기도 용인시 처인구 모현읍 능원리 309-1번지","indutype":"건강식품 - 기타건강식품","category":"food"}]},{"lat":"37.336454859","long":"127.24972445","imageIndex":7,"items":[{"name":"베스킨라빈스 용인모현점","tel":"031-332-0085","addr":"경기도 용인시 처인구 모현읍 왕산리 801-1번지 1층","indutype":"음료식품 - 제과점","category":"food"},{"name":"참나라건강마을모현점","tel":"031-333-8143","addr":"경기도 용인시 처인구 모현읍 왕산리801-1","indutype":"건강식품 - 기타건강식품","category":"food"}]},{"lat":"37.32259761","long":"127.24073239","imageIndex":7,"items":[{"name":"블론 (blon)","tel":"031-323-7221","addr":"경기도 용인시 처인구 모현읍 갈담리 366-7번지 외 1필지","indutype":"음료식품 - 기타음료식품","category":"food"}]},{"lat":"37.343176369","long":"127.19651406","imageIndex":7,"items":[{"name":"산야지","tel":"031-339-0305","addr":"경기도 용인시 처인구 모현읍 동림리 122-1번지","indutype":"음료식품 - 기타음료식품","category":"food"}]},{"lat":"37.325119398","long":"127.21773528","imageIndex":7,"items":[{"name":"상촌교목","tel":"031-9904-4470","addr":"경기도 용인시 처인구 모현읍 매산리 504-1","indutype":"음료식품 - 정육점","category":"food"}]},{"lat":"37.340257655","long":"127.23615002","imageIndex":7,"items":[{"name":"선영이네달팽이농장","tel":"031-333-3464","addr":"경기도 용인시 처인구 모현읍 일산리 245-2","indutype":"음료식품 - 농·축·수산품","category":"food"}]},{"lat":"37.334091704","long":"127.2551781","imageIndex":7,"items":[{"name":"소금체험방","tel":"031-322-7298","addr":"경기도 용인시 처인구 모현읍 왕산리 246번지","indutype":"음료식품 - 기타음료식품","category":"food"}]},{"lat":"37.343229841","long":"127.1796202","imageIndex":7,"items":[{"name":"소소반","tel":"031-328-0029","addr":"경기도 용인시 처인구 모현읍 동림리 48-3번지 1층","indutype":"음료식품 - 기타음료식품","category":"food"}]},{"lat":"37.331119201","long":"127.18618135","imageIndex":7,"items":[{"name":"쉐누삼공일(CHEZNOUS301)","tel":"070-4157-6079","addr":"경기도 용인시 처인구 모현읍 동림리 301-2번지","indutype":"음료식품 - 기타음료식품","category":"food"}]},{"lat":"37.344088899","long":"127.18353824","imageIndex":7,"items":[{"name":"신나라모터스","tel":"031-337-2237","addr":"경기도 용인시 처인구 모현읍 동림리 110-16번지 주원타운 104동 102호","indutype":"건강식품 - 기타건강식품","category":"food"}]},{"lat":"37.325542339","long":"127.17384722","imageIndex":7,"items":[{"name":"신바른약초","tel":"031-264-5246","addr":"경기도 용인시 처인구 모현읍 능원리 404번지","indutype":"음료식품 - 농·축·수산품","category":"food"}]},{"lat":"37.339260878","long":"127.18260133","imageIndex":7,"items":[{"name":"신화F&B","tel":"02-487-5313","addr":"경기도 용인시 처인구 모현읍 동림리 71-1번지","indutype":"음료식품 - 기타음료식품","category":"food"}]},{"lat":"37.339233896","long":"127.2389793","imageIndex":7,"items":[{"name":"싱싱유통","tel":"070-8996-8252","addr":"경기도 용인시 처인구 모현읍 일산리 235-31번지","indutype":"음료식품 - 농·축·수산품","category":"food"}]},{"lat":"37.339844447","long":"127.17798727","imageIndex":7,"items":[{"name":"싹순청과유통","tel":"070-2699-0807","addr":"경기도 용인시 처인구 모현읍 능원리 210-1번지 101호","indutype":"음료식품 - 농·축·수산품","category":"food"}]},{"lat":"37.338287076","long":"127.17704704","imageIndex":7,"items":[{"name":"쏠뱅","tel":"031-336-0035","addr":"경기도 용인시 처인구 모현읍 능원리 206번지","indutype":"음료식품 - 기타음료식품","category":"food"},{"name":"주식회사 쏠뱅","tel":"031-336-0035","addr":"경기도 용인시 처인구 모현읍 능원리 206번지 2층","indutype":"음료식품 - 제과점","category":"food"}]},{"lat":"37.331427997","long":"127.24933565","imageIndex":7,"items":[{"name":"아비엥또","tel":"","addr":"경기도 용인시 처인구 모현읍 왕산리 461번지 1층","indutype":"음료식품 - 기타음료식품","category":"food"}]},{"lat":"37.335035672","long":"127.16340845","imageIndex":7,"items":[{"name":"연세우유경기특판대리점","tel":"031-701-2238","addr":"경기도 용인시 처인구 모현읍 능원리 319-1번지","indutype":"음료식품 - 기타음료식품","category":"food"}]},{"lat":"37.335320018","long":"127.17887949","imageIndex":7,"items":[{"name":"영농조합법인용인호박등불마을","tel":"031-335-0567","addr":"경기도 용인시 처인구 모현읍 능원리 230번지","indutype":"음료식품 - 농·축·수산품","category":"food"}]},{"lat":"37.331538289","long":"127.16446166","imageIndex":7,"items":[{"name":"영산매점","tel":"031-323-4965","addr":"경기도 용인시 처인구 모현읍 오산리 17-1","indutype":"음료식품 - 기타음료식품","category":"food"}]},{"lat":"37.335951207","long":"127.1723813","imageIndex":7,"items":[{"name":"오케이(OK)목장건강원","tel":"031-321-3639","addr":"경기도 용인시 처인구 모현읍 능원리 266-2번지 호반빌딩 2층","indutype":"건강식품 - 기타건강식품","category":"food"}]},{"lat":"37.33481535","long":"127.24956111","imageIndex":7,"items":[{"name":"오포축산","tel":"031-321-3077","addr":"경기도 용인시 처인구 모현읍 왕산리 812-1번지","indutype":"음료식품 - 정육점","category":"food"}]},{"lat":"37.340312777","long":"127.17192842","imageIndex":7,"items":[{"name":"온두유","tel":"","addr":"경기도 용인시 처인구 모현읍 능원리 121-15번지 1층","indutype":"음료식품 - 기타음료식품","category":"food"}]},{"lat":"37.325706348","long":"127.24506342","imageIndex":7,"items":[{"name":"와인B","tel":"070-8840-2354","addr":"경기도 용인시 처인구 모현읍 갈담리 328-4번지","indutype":"음료식품 - 주류 판매점","category":"food"}]},{"lat":"37.332679767","long":"127.2496444","imageIndex":7,"items":[{"name":"왕산떡집","tel":"031-323-1100","addr":"경기도 용인시 처인구 모현읍 왕산리 464-10번지 1층","indutype":"음료식품 - 제과점","category":"food"}]},{"lat":"37.329234873","long":"127.25534239","imageIndex":7,"items":[{"name":"용인외고매점","tel":"031-332-0700","addr":"경기도 용인시 처인구 모현읍 왕산리 267번지 한국외국어고등학교 1층","indutype":"음료식품 - 기타음료식품","category":"food"}]},{"lat":"37.349482049","long":"127.23256698","imageIndex":7,"items":[{"name":"운호청과","tel":"031-333-8145","addr":"경기도 용인시 처인구 모현읍 일산리 509-1번지","indutype":"음료식품 - 농·축·수산품","category":"food"}]},{"lat":"37.334208732","long":"127.19250783","imageIndex":7,"items":[{"name":"워터인","tel":"031-1544-8126","addr":"경기도 용인시 처인구 모현읍 동림리253-2","indutype":"음료식품 - 기타음료식품","category":"food"},{"name":"주인상사","tel":"031-281-2780","addr":"경기도 용인시 처인구 모현읍 동림리 253-2","indutype":"음료식품 - 기타음료식품","category":"food"}]},{"lat":"37.334707628","long":"127.24936893","imageIndex":7,"items":[{"name":"유피트(u.fit)","tel":"031-328-8393","addr":"경기도 용인시 처인구 모현읍 왕산리 428번지","indutype":"건강식품 - 기타건강식품","category":"food"}]},{"lat":"37.334293516","long":"127.24919832","imageIndex":7,"items":[{"name":"육해공정육점","tel":"031-323-6688","addr":"경기도 용인시 처인구 모현읍 왕산리 428-1번지","indutype":"음료식품 - 정육점","category":"food"}]},{"lat":"37.336260938","long":"127.19382196","imageIndex":7,"items":[{"name":"윤이상회","tel":"","addr":"경기도 용인시 처인구 모현읍 동림리 212번지","indutype":"음료식품 - 기타음료식품","category":"food"}]},{"lat":"37.328481696","long":"127.17243221","imageIndex":7,"items":[{"name":"자연농원","tel":"031-323-6864","addr":"경기도 용인시 처인구 모현읍 능원리 372-2번지 4층","indutype":"음료식품 - 기타음료식품","category":"food"},{"name":"태성축산","tel":"031-334-7593","addr":"경기도 용인시 처인구 모현읍 능원리 372-2","indutype":"음료식품 - 정육점","category":"food"}]},{"lat":"37.349375119","long":"127.24551186","imageIndex":7,"items":[{"name":"정우","tel":"031-767-2049","addr":"경기도 용인시 처인구 모현읍 일산리 33-2","indutype":"음료식품 - 기타음료식품","category":"food"}]},{"lat":"37.33978469","long":"127.24287424","imageIndex":7,"items":[{"name":"제주삼다수기흥","tel":"031-0000-0000","addr":"경기도 용인시 처인구 모현읍 일산리 119-7번지","indutype":"음료식품 - 기타음료식품","category":"food"}]},{"lat":"37.339926771","long":"127.17715239","imageIndex":7,"items":[{"name":"주식회사 뉴욕홀딩스","tel":"070-4337-5382","addr":"경기도 용인시 처인구 모현읍 능원리 192-4번지","indutype":"음료식품 - 기타음료식품","category":"food"}]},{"lat":"37.32634373","long":"127.2417822","imageIndex":7,"items":[{"name":"주식회사 씨즈유통","tel":"031-5083-4607","addr":"경기도 용인시 처인구 모현읍 갈담리 336-1번지","indutype":"음료식품 - 기타음료식품","category":"food"}]},{"lat":"37.328791307","long":"127.21509421","imageIndex":7,"items":[{"name":"주식회사 위드에프앤비","tel":"031-000-0000","addr":"경기도 용인시 처인구 모현읍 매산리 418-4번지","indutype":"음료식품 - 기타음료식품","category":"food"}]},{"lat":"37.336925898","long":"127.1949295","imageIndex":7,"items":[{"name":"주식회사아이팜코리아","tel":"070-8615-1520","addr":"경기도 용인시 처인구 모현읍 동림리 154-14","indutype":"음료식품 - 기타음료식품","category":"food"}]},{"lat":"37.336097737","long":"127.25245405","imageIndex":7,"items":[{"name":"중앙정육점","tel":"031-332-0444","addr":"경기도 용인시 처인구 모현읍 왕산리 507-4번지","indutype":"음료식품 - 정육점","category":"food"}]},{"lat":"37.343256483","long":"127.17987983","imageIndex":7,"items":[{"name":"즙사랑건강원","tel":"031-332-1201","addr":"경기도 용인시 처인구 모현읍 동림리 48-1번지 1층 일부","indutype":"건강식품 - 기타건강식품","category":"food"}]},{"lat":"37.33962226","long":"127.18781572","imageIndex":7,"items":[{"name":"진우유통","tel":"070-8830-7672","addr":"경기도 용인시 처인구 모현읍 동림리 91번지","indutype":"음료식품 - 농·축·수산품","category":"food"}]},{"lat":"37.343507617","long":"127.18064781","imageIndex":7,"items":[{"name":"찬호유통","tel":"031-756-4432","addr":"경기도 용인시 처인구 모현읍 동림리47-9","indutype":"음료식품 - 농·축·수산품","category":"food"}]},{"lat":"37.310766774","long":"127.24975325","imageIndex":7,"items":[{"name":"청보리식품","tel":"031-333-9900","addr":"경기도 용인시 처인구 모현읍 초부리 386-1번지","indutype":"음료식품 - 기타음료식품","category":"food"}]},{"lat":"37.338871464","long":"127.25311773","imageIndex":7,"items":[{"name":"태화유통","tel":"031-334-1613","addr":"경기도 용인시 처인구 모현읍 왕산리535-1","indutype":"음료식품 - 정육점","category":"food"}]},{"lat":"37.329543683","long":"127.22248681","imageIndex":7,"items":[{"name":"티에스푸드시스템(TS푸드)","tel":"","addr":"경기도 용인시 처인구 모현읍 매산리 603-2번지","indutype":"음료식품 - 기타음료식품","category":"food"}]},{"lat":"37.337068533","long":"127.24925252","imageIndex":7,"items":[{"name":"파리바게트 용인외대점","tel":"031-335-0059","addr":"경기도 용인시 처인구 모현읍 왕산리 799-7번지","indutype":"음료식품 - 제과점","category":"food"}]},{"lat":"37.32976276","long":"127.23970563","imageIndex":7,"items":[{"name":"포시즌농장","tel":"031-334-0974","addr":"경기도 용인시 처인구 모현읍 갈담리 598번지","indutype":"음료식품 - 농·축·수산품","category":"food"}]},{"lat":"37.32851112","long":"127.24378616","imageIndex":7,"items":[{"name":"호재에프앤비","tel":"031-1544-4462","addr":"경기도 용인시 처인구 모현읍 갈담리 317-5번지 A동","indutype":"음료식품 - 기타음료식품","category":"food"}]},{"lat":"37.343872636","long":"127.22581256","imageIndex":7,"items":[{"name":"효자식육점","tel":"031-333-9996","addr":"경기도 용인시 처인구 모현읍 매산리 207번지","indutype":"음료식품 - 정육점","category":"food"}]}]