[{"lat":"37.389276088","long":"126.95325297","imageIndex":16,"items":[{"name":"(영어의 모든것)All that English","tel":"","addr":"경기도 안양시 동안구 호계동 1052번지 목련선경아파트","indutype":"학원 - 기타 교육기관","category":"study"}]},{"lat":"37.387193163","long":"126.94959579","imageIndex":16,"items":[{"name":"(주) 본스타안양평촌캠퍼스","tel":"031-345-7500","addr":"경기도 안양시 동안구 호계동 916-4번지","indutype":"학원 - 예·체능계학원","category":"study"}]},{"lat":"37.383998432","long":"126.95898117","imageIndex":16,"items":[{"name":"(주)선인터내셔날","tel":"031-386-1230","addr":"경기도 안양시 동안구 호계동 1058-4번지","indutype":"학원 - 외국어학원","category":"study"},{"name":"(주)영어문화원","tel":"031-394-1230","addr":"경기도 안양시 동안구 호계동 1058-4번지","indutype":"학원 - 외국어학원","category":"study"},{"name":"아뜨리에평촌독서실","tel":"031-476-0979","addr":"경기도 안양시 동안구 호계동 1058-4번지","indutype":"학원 - 독서실","category":"study"},{"name":"평촌파인만고등부학원/주식회사 파인만교육","tel":"02-548-9230","addr":"경기도 안양시 동안구 호계동 1058-4번지","indutype":"학원 - 보습학원","category":"study"}]},{"lat":"37.378612681","long":"126.94359529","imageIndex":16,"items":[{"name":"(주)안양신진자동차운전학원","tel":"031-457-5200","addr":"경기도 안양시 동안구 호계동 170-6번지","indutype":"학원 - 기능학원","category":"study"}]},{"lat":"37.383611077","long":"126.95919593","imageIndex":16,"items":[{"name":"(주)에스키 어학원","tel":"031-383-0502","addr":"경기도 안양시 동안구 호계동 1058-7번지","indutype":"학원 - 외국어학원","category":"study"},{"name":"김장현수학학원","tel":"031-388-9402","addr":"경기도 안양시 동안구 호계동 1058-7번지","indutype":"학원 - 기타 교육기관","category":"study"},{"name":"네오독학학원","tel":"031-381-7298","addr":"경기도 안양시 동안구 호계동 1058-7번지","indutype":"학원 - 보습학원","category":"study"},{"name":"더킹스 영어학원","tel":"031-386-7298","addr":"경기도 안양시 동안구 호계동 1058-7번지","indutype":"학원 - 외국어학원","category":"study"},{"name":"에녹수학학원","tel":"031-386-3330","addr":"경기도 안양시 동안구 호계동 1058-7번지","indutype":"회원제형태 - 학원","category":"study"},{"name":"엠팩토리학원","tel":"031-382-1942","addr":"경기도 안양시 동안구 호계동 1058-7번지","indutype":"회원제형태 - 학원","category":"study"},{"name":"올인과학수학원","tel":"031-388-0501","addr":"경기도 안양시 동안구 호계동 1058-7번지","indutype":"학원 - 보습학원","category":"study"},{"name":"이플러스어학원","tel":"031-387-5525","addr":"경기도 안양시 동안구 호계동 1058-7번지","indutype":"회원제형태 - 학원","category":"study"},{"name":"인탑영수학원","tel":"031-349-1911","addr":"경기도 안양시 동안구 호계동 1058-7번지","indutype":"학원 - 보습학원","category":"study"},{"name":"주식회사 장현","tel":"031-388-9402","addr":"경기도 안양시 동안구 호계동 1058-7번지","indutype":"학원 - 보습학원","category":"study"}]},{"lat":"37.383169677","long":"126.95945588","imageIndex":16,"items":[{"name":"(주)평촌본플러스학원","tel":"031-388-8558","addr":"경기도 안양시 동안구 호계동 1065번지","indutype":"회원제형태 - 학원","category":"study"},{"name":"SEED학원","tel":"031-383-5975","addr":"경기도 안양시 동안구 호계동 1065번지","indutype":"학원 - 보습학원","category":"study"},{"name":"김세명수학교습소","tel":"031-388-3038","addr":"경기도 안양시 동안구 호계동 1065번지","indutype":"학원 - 보습학원","category":"study"},{"name":"엘에스이단과학원","tel":"031-388-7503","addr":"경기도 안양시 동안구 호계동 1065번지","indutype":"학원 - 보습학원","category":"study"},{"name":"영지퍼펙트국어논술학원","tel":"031-388-8866","addr":"경기도 안양시 동안구 호계동 1065번지","indutype":"학원 - 보습학원","category":"study"}]},{"lat":"37.38183644","long":"126.96016798","imageIndex":16,"items":[{"name":"(주)평촌설연고학원","tel":"031-382-1555","addr":"경기도 안양시 동안구 호계동 1065-10번지","indutype":"학원 - 보습학원","category":"study"},{"name":"강한대치학원","tel":"","addr":"경기도 안양시 동안구 호계동 1065-10번지","indutype":"학원 - 보습학원","category":"study"},{"name":"다올영어학원","tel":"031-387-5255","addr":"경기도 안양시 동안구 호계동 1065-10번지","indutype":"학원 - 외국어학원","category":"study"},{"name":"대시나루학원/주식회사 대시나루","tel":"031-388-2066","addr":"경기도 안양시 동안구 호계동 1065-10번지","indutype":"학원 - 보습학원","category":"study"},{"name":"원아트미술학원","tel":"031-388-2565","addr":"경기도 안양시 동안구 호계동 1065-10번지","indutype":"학원 - 예·체능계학원","category":"study"},{"name":"주스매쓰","tel":"031-381-5677","addr":"경기도 안양시 동안구 호계동 1065-10번지","indutype":"학원 - 보습학원","category":"study"},{"name":"주식회사 로드스타에듀","tel":"031-425-0907","addr":"경기도 안양시 동안구 호계동 1065-10번지","indutype":"학원 - 보습학원","category":"study"},{"name":"프라임에듀학원","tel":"031-387-7080","addr":"경기도 안양시 동안구 호계동 1065-10번지","indutype":"학원 - 보습학원","category":"study"},{"name":"프라임에듀학원","tel":"031-387-7080","addr":"경기도 안양시 동안구 호계동 1065-10번지","indutype":"학원 - 보습학원","category":"study"},{"name":"한글과컴퓨터학원","tel":"031-388-0999","addr":"경기도 안양시 동안구 호계동 1065-10번지","indutype":"학원 - 컴퓨터학원","category":"study"}]},{"lat":"37.381530149","long":"126.96031494","imageIndex":16,"items":[{"name":"(주)필즈교육","tel":"031-387-8838","addr":"경기도 안양시 동안구 호계동 1073번지","indutype":"학원 - 보습학원","category":"study"},{"name":"국어를부탁해국어교습소","tel":"031-388-1654","addr":"경기도 안양시 동안구 호계동 1073번지","indutype":"학원 - 보습학원","category":"study"},{"name":"닌트학원","tel":"031-387-5155","addr":"경기도 안양시 동안구 호계동 1073번지","indutype":"학원 - 보습학원","category":"study"},{"name":"라온영어교습소","tel":"031-387-9915","addr":"경기도 안양시 동안구 호계동 1073번지","indutype":"학원 - 외국어학원","category":"study"},{"name":"로고스학원","tel":"031-424-5222","addr":"경기도 안양시 동안구 호계동","indutype":"학원 - 보습학원","category":"study"},{"name":"멘토수학교습소","tel":"","addr":"경기도 안양시 동안구 호계동 1073번지","indutype":"학원 - 보습학원","category":"study"},{"name":"문맥수학교습소","tel":"","addr":"경기도 안양시 동안구 호계동 1073번지","indutype":"학원 - 보습학원","category":"study"},{"name":"브라이언트영어교습소","tel":"031-381-9051","addr":"경기도 안양시 동안구 호계동 1073번지","indutype":"학원 - 외국어학원","category":"study"},{"name":"상상국어학원","tel":"031-388-8367","addr":"경기도 안양시 동안구 호계동 1073번지","indutype":"학원 - 보습학원","category":"study"},{"name":"세다교육영어교습소","tel":"031-388-8969","addr":"경기도 안양시 동안구 호계동 1073번지","indutype":"학원 - 외국어학원","category":"study"},{"name":"송대호국어교습소","tel":"031-383-5823","addr":"경기도 안양시 동안구 호계동 1073번지","indutype":"회원제형태 - 학원","category":"study"},{"name":"쉐마수학학원","tel":"031-385-7776","addr":"경기도 안양시 동안구 호계동 1073번지","indutype":"회원제형태 - 학원","category":"study"},{"name":"스카이리스트타브로과학교습소","tel":"031-388-8688","addr":"경기도 안양시 동안구 호계동 1073번지","indutype":"학원 - 보습학원","category":"study"},{"name":"스카이보습학원","tel":"031-342-2006","addr":"경기도 안양시 동안구 호계동 1073번지","indutype":"학원 - 보습학원","category":"study"},{"name":"신수진영어학원","tel":"031-383-8013","addr":"경기도 안양시 동안구 호계동 1073번지","indutype":"학원 - 외국어학원","category":"study"},{"name":"씨아이에듀입시학원","tel":"070-7572-1212","addr":"경기도 안양시 동안구 호계동 1073번지","indutype":"학원 - 보습학원","category":"study"},{"name":"아르케학원","tel":"070-7696-8118","addr":"경기도 안양시 동안구 호계동 1073번지","indutype":"회원제형태 - 학원","category":"study"},{"name":"아이거수학학원","tel":"031-382-8824","addr":"경기도 안양시 동안구 호계동 1073번지","indutype":"학원 - 보습학원","category":"study"},{"name":"아이엠사이언스","tel":"","addr":"경기도 안양시 동안구 호계동 1073번지","indutype":"학원 - 보습학원","category":"study"},{"name":"에드워드 학원","tel":"031-383-3484","addr":"경기도 안양시 동안구 호계동 1073번지","indutype":"학원 - 외국어학원","category":"study"},{"name":"엠지랩수학학원","tel":"031-385-0737","addr":"경기도 안양시 동안구 호계동 1073번지","indutype":"학원 - 보습학원","category":"study"},{"name":"영어수학의눈","tel":"031-343-7935","addr":"경기도 안양시 동안구 호계동 1073번지","indutype":"학원 - 보습학원","category":"study"},{"name":"영어혁명큐영어교습소","tel":"","addr":"경기도 안양시 동안구 호계동 1073번지","indutype":"학원 - 외국어학원","category":"study"},{"name":"우리영수학원","tel":"031-388-2223","addr":"경기도 안양시 동안구 호계동 1073번지","indutype":"학원 - 보습학원","category":"study"},{"name":"이룸학원","tel":"031-689-3669","addr":"경기도 안양시 동안구 호계동 1073번지","indutype":"학원 - 보습학원","category":"study"},{"name":"이앤드슈보습학원","tel":"02-388-0549","addr":"경기도 안양시 동안구 호계동","indutype":"학원 - 보습학원","category":"study"},{"name":"이은정블랙홀수학교습소","tel":"070-5022-4846","addr":"경기도 안양시 동안구 호계동 1073번지","indutype":"학원 - 보습학원","category":"study"},{"name":"잉글리쉬클리닉학원","tel":"","addr":"경기도 안양시 동안구 호계동 1073번지","indutype":"학원 - 외국어학원","category":"study"},{"name":"전수연 수학학원","tel":"031-383-7118","addr":"경기도 안양시 동안구 호계동 1073번지","indutype":"회원제형태 - 학원","category":"study"},{"name":"제이영어","tel":"031-384-6318","addr":"경기도 안양시 동안구 호계동 1073번지","indutype":"학원 - 외국어학원","category":"study"},{"name":"제이준영어학원","tel":"","addr":"경기도 안양시 동안구 호계동 1073번지","indutype":"학원 - 외국어학원","category":"study"},{"name":"주식회사 과학의신","tel":"031-384-2103","addr":"경기도 안양시 동안구 호계동 1073번지","indutype":"학원 - 보습학원","category":"study"},{"name":"주식회사 서당","tel":"031-384-7770","addr":"경기도 안양시 동안구 호계동 1073번지","indutype":"학원 - 보습학원","category":"study"},{"name":"주식회사 휴먼에듀","tel":"02-798-9987","addr":"경기도 안양시 동안구 호계동 1073번지","indutype":"학원 - 기타 교육기관","category":"study"},{"name":"지유정영어학원","tel":"070-7756-7124","addr":"경기도 안양시 동안구 호계동 1073번지","indutype":"학원 - 외국어학원","category":"study"},{"name":"최치환수학교습소","tel":"031-341-6761","addr":"경기도 안양시 동안구 호계동 1073번지","indutype":"회원제형태 - 학원","category":"study"},{"name":"파워메스수학교습소","tel":"031-383-2910","addr":"경기도 안양시 동안구 호계동","indutype":"회원제형태 - 학원","category":"study"},{"name":"플렌지에듀학원/주식회사 플랜지","tel":"031-345-4886","addr":"경기도 안양시 동안구 호계동 1073번지","indutype":"학원 - 보습학원","category":"study"},{"name":"피플브이스토리미술학원","tel":"031-386-3757","addr":"경기도 안양시 동안구 호계동 1073번지","indutype":"학원 - 예·체능계학원","category":"study"},{"name":"하이퍼영수학원","tel":"031-385-7706","addr":"경기도 안양시 동안구 호계동 1073번지","indutype":"학원 - 보습학원","category":"study"},{"name":"할할당학원","tel":"070-4158-6987","addr":"경기도 안양시 동안구 호계동 1073번지","indutype":"학원 - 보습학원","category":"study"},{"name":"해찬나래학원","tel":"031-383-1025","addr":"경기도 안양시 동안구 호계동 1073번지","indutype":"학원 - 보습학원","category":"study"},{"name":"헬리안투스영어특목학원","tel":"","addr":"경기도 안양시 동안구 호계동 1073번지","indutype":"학원 - 외국어학원","category":"study"}]},{"lat":"37.382665202","long":"126.95970458","imageIndex":16,"items":[{"name":"2관록키영어학원","tel":"031-386-4184","addr":"경기도 안양시 동안구 호계동 1065-4번지","indutype":"학원 - 보습학원","category":"study"},{"name":"2관록키영어학원","tel":"031-386-4184","addr":"경기도 안양시 동안구 호계동 1065-4번지","indutype":"학원 - 외국어학원","category":"study"},{"name":"록키영어학원","tel":"031-386-4184","addr":"경기도 안양시 동안구 호계동 1065-4번지","indutype":"학원 - 외국어학원","category":"study"},{"name":"위키매틱스 수학학원","tel":"031-382-8965","addr":"경기도 안양시 동안구 호계동 1065-4번지","indutype":"학원 - 보습학원","category":"study"},{"name":"제3관록키영어학원","tel":"031-386-4184","addr":"경기도 안양시 동안구 호계동 1065-4번지","indutype":"학원 - 외국어학원","category":"study"},{"name":"지일이삼공수학학원","tel":"031-381-1232","addr":"경기도 안양시 동안구 호계동 1065-4번지","indutype":"회원제형태 - 학원","category":"study"},{"name":"차오름국어교습소","tel":"031-388-5935","addr":"경기도 안양시 동안구 호계동 1065-4번지","indutype":"학원 - 보습학원","category":"study"},{"name":"토피아영어학원","tel":"031-387-0507","addr":"경기도 안양시 동안구 호계동 1065-4번지","indutype":"학원 - 외국어학원","category":"study"}]},{"lat":"37.36375389","long":"126.96236817","imageIndex":16,"items":[{"name":"EBS 스스로배움터호성센터","tel":"031-451-0529","addr":"경기도 안양시 동안구 호계동 813번지 호계e-편한세상아파트","indutype":"학원 - 보습학원","category":"study"},{"name":"고려바둑교습소","tel":"031-456-0326","addr":"경기도 안양시 동안구 호계동 813번지 호계e-편한세상아파트","indutype":"학원 - 기타 교육기관","category":"study"},{"name":"대림베이비어린이집[아이행복]","tel":"031-427-2336","addr":"경기도 안양시 동안구 호계동 813번지 호계e-편한세상아파트","indutype":"학원 - 유아원","category":"study"},{"name":"소리공간음악학원","tel":"031-477-0340","addr":"경기도 안양시 동안구 호계동 813번지 호계e-편한세상아파트","indutype":"학원 - 예·체능계학원","category":"study"},{"name":"조이영어교습소","tel":"031-477-5105","addr":"경기도 안양시 동안구 호계동 813번지","indutype":"학원 - 외국어학원","category":"study"},{"name":"평촌이엠보습학원","tel":"031-451-0542","addr":"경기도 안양시 동안구 호계동 813번지","indutype":"학원 - 보습학원","category":"study"}]},{"lat":"37.380834396","long":"126.95514411","imageIndex":16,"items":[{"name":"EQ꼬마동이어린이집[아이행복]","tel":"031-342-2250","addr":"경기도 안양시 동안구 호계동 1055-1번지 무궁화코오롱,건영아파트","indutype":"학원 - 유아원","category":"study"}]},{"lat":"37.384529923","long":"126.95869857","imageIndex":16,"items":[{"name":"GSU영어교습소","tel":"031-382-0582","addr":"경기도 안양시 동안구 호계동 1058번지","indutype":"회원제형태 - 학원","category":"study"},{"name":"SM과학학원","tel":"031-387-9002","addr":"경기도 안양시 동안구 호계동 1058번지","indutype":"학원 - 보습학원","category":"study"},{"name":"가람스카이수학학원","tel":"031-388-9434","addr":"경기도 안양시 동안구 호계동 1058번지","indutype":"학원 - 보습학원","category":"study"},{"name":"더원학원","tel":"031-343-7935","addr":"경기도 안양시 동안구 호계동 1058번지","indutype":"학원 - 보습학원","category":"study"},{"name":"메가에듀원학원","tel":"070-8385-0117","addr":"경기도 안양시 동안구 호계동 1058번지","indutype":"학원 - 보습학원","category":"study"},{"name":"멘토에듀수학교습소","tel":"031-341-7022","addr":"경기도 안양시 동안구 호계동 1058번지","indutype":"학원 - 보습학원","category":"study"},{"name":"명문학원","tel":"031-383-4888","addr":"경기도 안양시 동안구 호계동 1058번지","indutype":"회원제형태 - 학원","category":"study"},{"name":"미래소프트","tel":"031-399-4919","addr":"경기도 안양시 동안구 호계동 1058번지","indutype":"학원 - 기능학원","category":"study"},{"name":"박선생영어교습소","tel":"031-384-7789","addr":"경기도 안양시 동안구 호계동 1058번지","indutype":"회원제형태 - 학원","category":"study"},{"name":"블루웨일영어교습소","tel":"031-387-7721","addr":"경기도 안양시 동안구 호계동 1058번지","indutype":"학원 - 외국어학원","category":"study"},{"name":"수학의문수학교습소","tel":"031-383-6780","addr":"경기도 안양시 동안구 호계동 1058번지","indutype":"학원 - 보습학원","category":"study"},{"name":"승승영어학원","tel":"031-341-7200","addr":"경기도 안양시 동안구 호계동 1058번지","indutype":"학원 - 외국어학원","category":"study"},{"name":"아라매쓰수학학원","tel":"031-382-1285","addr":"경기도 안양시 동안구 호계동 1058번지","indutype":"학원 - 보습학원","category":"study"},{"name":"아름영어학원","tel":"031-386-0708","addr":"경기도 안양시 동안구 호계동 1058번지","indutype":"학원 - 보습학원","category":"study"},{"name":"영어는이상암학원","tel":"031-385-2324","addr":"경기도 안양시 동안구 호계동 1058번지","indutype":"회원제형태 - 학원","category":"study"},{"name":"와이엠학원","tel":"031-382-7939","addr":"경기도 안양시 동안구 호계동","indutype":"회원제형태 - 학원","category":"study"},{"name":"이엠베스트학원","tel":"031-385-9154","addr":"경기도 안양시 동안구 호계동 1058번지","indutype":"학원 - 보습학원","category":"study"},{"name":"인피니트학원","tel":"031-426-2248","addr":"경기도 안양시 동안구 호계동 1058번지","indutype":"학원 - 보습학원","category":"study"},{"name":"주식회사 에스원과학학원","tel":"031-383-7030","addr":"경기도 안양시 동안구 호계동 1058번지","indutype":"학원 - 보습학원","category":"study"},{"name":"카이스트준수학학원","tel":"031-388-9682","addr":"경기도 안양시 동안구 호계동","indutype":"학원 - 보습학원","category":"study"},{"name":"탑위드학원","tel":"031-384-5949","addr":"경기도 안양시 동안구 호계동 1058번지","indutype":"학원 - 보습학원","category":"study"},{"name":"토브구문정독영어학원","tel":"","addr":"경기도 안양시 동안구 호계동 1058번지","indutype":"학원 - 외국어학원","category":"study"},{"name":"프로세스 논술학원","tel":"031-384-3359","addr":"경기도 안양시 동안구 호계동 1058번지","indutype":"학원 - 보습학원","category":"study"}]},{"lat":"37.364754438","long":"126.96362065","imageIndex":16,"items":[{"name":"IU. MATH","tel":"031-456-7258","addr":"경기도 안양시 동안구 호계동","indutype":"회원제형태 - 학원","category":"study"}]},{"lat":"37.37275012","long":"126.94997856","imageIndex":16,"items":[{"name":"LS어린이집[아이행복]","tel":"070-8671-4651","addr":"경기도 안양시 동안구 호계동 555-32번지","indutype":"학원 - 유아원","category":"study"}]},{"lat":"37.38775142","long":"126.94878237","imageIndex":16,"items":[{"name":"Max체대입시","tel":"031-457-3632","addr":"경기도 안양시 동안구 호계동 916번지","indutype":"학원 - 예·체능계학원","category":"study"}]},{"lat":"37.385388832","long":"126.94469653","imageIndex":16,"items":[{"name":"SMA실용음악학원","tel":"031-453-8000","addr":"경기도 안양시 동안구 호계동 908-2번지","indutype":"학원 - 예·체능계학원","category":"study"}]},{"lat":"37.364340109","long":"126.96403854","imageIndex":16,"items":[{"name":"가나음악학원","tel":"031-451-8060","addr":"경기도 안양시 동안구 호계동 839-3번지","indutype":"학원 - 예·체능계학원","category":"study"},{"name":"안양라이프러리독서실","tel":"031-429-0005","addr":"경기도 안양시 동안구 호계동 839-3번지","indutype":"학원 - 독서실","category":"study"}]},{"lat":"37.382250815","long":"126.95991934","imageIndex":16,"items":[{"name":"가온국어한빛수학학원","tel":"031-385-4333","addr":"경기도 안양시 동안구 호계동 1065-7번지","indutype":"학원 - 보습학원","category":"study"},{"name":"더수학더과학학원","tel":"031-360-1677","addr":"경기도 안양시 동안구 호계동 1065-7번지","indutype":"학원 - 보습학원","category":"study"},{"name":"드릴에듀학원","tel":"031-342-0530","addr":"경기도 안양시 동안구 호계동 1065-7번지","indutype":"학원 - 보습학원","category":"study"},{"name":"씨알학당학원","tel":"031-381-2858","addr":"경기도 안양시 동안구 호계동 1065-7번지","indutype":"학원 - 보습학원","category":"study"},{"name":"잠수함속토끼미술별관학원","tel":"031-383-1003","addr":"경기도 안양시 동안구 호계동 1065-7번지","indutype":"학원 - 예·체능계학원","category":"study"},{"name":"주식회사 킵매쓰학원","tel":"031-387-0712","addr":"경기도 안양시 동안구 호계동 1065-7번지","indutype":"학원 - 보습학원","category":"study"},{"name":"진수학학원","tel":"031-383-3007","addr":"경기도 안양시 동안구 호계동 1065-7번지","indutype":"학원 - 보습학원","category":"study"},{"name":"페이지원독서실","tel":"031-388-1101","addr":"경기도 안양시 동안구 호계동 1065-7번지","indutype":"학원 - 독서실","category":"study"}]},{"lat":"37.381219941","long":"126.95067265","imageIndex":16,"items":[{"name":"가우스수학영어학원","tel":"031-427-3192","addr":"경기도 안양시 동안구 호계동 929-24번지","indutype":"회원제형태 - 학원","category":"study"},{"name":"오르음악학원","tel":"031-452-9392","addr":"경기도 안양시 동안구 호계동 929-24번지","indutype":"학원 - 예·체능계학원","category":"study"}]},{"lat":"37.364311926","long":"126.96067461","imageIndex":16,"items":[{"name":"강남학원","tel":"031-477-8209","addr":"경기도 안양시 동안구 호계동","indutype":"학원 - 기타 교육기관","category":"study"},{"name":"꿈과사랑의하은어린이집[아이행복]","tel":"031-457-1854","addr":"경기도 안양시 동안구 호계동 811번지","indutype":"학원 - 유아원","category":"study"},{"name":"놀작마이아트 호계현대홈타운 미술교습소","tel":"","addr":"경기도 안양시 동안구 호계동 811번지","indutype":"학원 - 예·체능계학원","category":"study"},{"name":"늘푸른한림유치원[아이행복]","tel":"031-451-7771","addr":"경기도 안양시 동안구 호계동","indutype":"학원 - 유치원","category":"study"},{"name":"매쓰캔수학학원","tel":"031-452-1500","addr":"경기도 안양시 동안구 호계동 811번지","indutype":"회원제형태 - 학원","category":"study"},{"name":"발도르프미술학원","tel":"031-477-6177","addr":"경기도 안양시 동안구 호계동 811번지","indutype":"학원 - 예·체능계학원","category":"study"},{"name":"비상잉글리시아이 호성초점 영어교습소","tel":"031-451-0204","addr":"경기도 안양시 동안구 호계동 811번지","indutype":"학원 - 외국어학원","category":"study"},{"name":"샘물미술교습소","tel":"031-457-3777","addr":"경기도 안양시 동안구 호계동","indutype":"학원 - 예·체능계학원","category":"study"},{"name":"영어숲윤선생영어안양호계학원","tel":"031-917-1919","addr":"경기도 안양시 동안구 호계동 811번지","indutype":"학원 - 외국어학원","category":"study"},{"name":"은석음악학원","tel":"031-456-6262","addr":"경기도 안양시 동안구 호계동 811번지","indutype":"학원 - 예·체능계학원","category":"study"},{"name":"현대필음악학원","tel":"031-458-2292","addr":"경기도 안양시 동안구 호계동 811번지","indutype":"학원 - 예·체능계학원","category":"study"}]},{"lat":"37.389015101","long":"126.95398713","imageIndex":16,"items":[{"name":"강낭콩어린이집[아이행복]","tel":"031-346-6161","addr":"경기도 안양시 동안구 호계동 1052번지 목련선경아파트","indutype":"학원 - 유아원","category":"study"}]},{"lat":"37.381475433","long":"126.958531","imageIndex":16,"items":[{"name":"강해진 수학 교습소","tel":"","addr":"경기도 안양시 동안구 호계동 1069-4번지","indutype":"학원 - 보습학원","category":"study"}]},{"lat":"37.383448928","long":"126.95928635","imageIndex":16,"items":[{"name":"강해진 수학 학원","tel":"","addr":"경기도 안양시 동안구 호계동 1058-8번지","indutype":"학원 - 보습학원","category":"study"},{"name":"로이드학원","tel":"031-385-5875","addr":"경기도 안양시 동안구 호계동 1058-8번지","indutype":"회원제형태 - 학원","category":"study"},{"name":"베스트 가우디 미술학원","tel":"031-385-5554","addr":"경기도 안양시 동안구 호계동 1058-8번지","indutype":"학원 - 예·체능계학원","category":"study"},{"name":"에이블영수학원","tel":"031-348-0509","addr":"경기도 안양시 동안구 호계동 1058-8번지","indutype":"학원 - 보습학원","category":"study"},{"name":"오종규수학학원","tel":"031-386-8400","addr":"경기도 안양시 동안구 호계동 1058-8번지","indutype":"학원 - 보습학원","category":"study"},{"name":"주식회사 김통영해병수학학원","tel":"031-476-0903","addr":"경기도 안양시 동안구 호계동 1058-8번지","indutype":"학원 - 보습학원","category":"study"}]},{"lat":"37.380086733","long":"126.95558492","imageIndex":16,"items":[{"name":"건영무궁화유치원[아이행복]","tel":"031-382-8160","addr":"경기도 안양시 동안구 호계동","indutype":"학원 - 유치원","category":"study"},{"name":"맑은피아노교습소","tel":"031-386-2272","addr":"경기도 안양시 동안구 호계동","indutype":"학원 - 예·체능계학원","category":"study"},{"name":"뮤엠영어신기초영어교습소","tel":"031-382-0579","addr":"경기도 안양시 동안구 호계동 1055-1번지","indutype":"회원제형태 - 학원","category":"study"},{"name":"신미술교습소","tel":"031-387-3556","addr":"경기도 안양시 동안구 호계동 1055-1번지","indutype":"학원 - 예·체능계학원","category":"study"},{"name":"오르비수학교습소","tel":"031-747-8874","addr":"경기도 안양시 동안구 호계동 1055-1번지","indutype":"학원 - 보습학원","category":"study"}]},{"lat":"37.382889102","long":"126.95614772","imageIndex":16,"items":[{"name":"경기피아노교습소","tel":"031-382-6650","addr":"경기도 안양시 동안구 호계동 1056번지","indutype":"학원 - 예·체능계학원","category":"study"},{"name":"공터영어평촌센터영어교습소","tel":"","addr":"경기도 안양시 동안구 호계동 1056번지","indutype":"학원 - 외국어학원","category":"study"},{"name":"꿈나래어린이집[아이행복]","tel":"031-388-8947","addr":"경기도 안양시 동안구 호계동 1056번지 무궁화금호아파트","indutype":"학원 - 유아원","category":"study"},{"name":"영수탑학원","tel":"031-383-5503","addr":"경기도 안양시 동안구 호계동 1056번지","indutype":"학원 - 보습학원","category":"study"}]},{"lat":"37.383948823","long":"126.94806246","imageIndex":16,"items":[{"name":"경희대 석사 삼일 태권도장","tel":"031-429-3701","addr":"경기도 안양시 동안구 호계동 920-6번지","indutype":"학원 - 예·체능계학원","category":"study"},{"name":"수학의달인","tel":"031-454-4681","addr":"경기도 안양시 동안구 호계동 920-6번지","indutype":"회원제형태 - 학원","category":"study"}]},{"lat":"37.388528368","long":"126.95353576","imageIndex":16,"items":[{"name":"경희대석사 진흥 태권도","tel":"031-381-3535","addr":"경기도 안양시 동안구 호계동 1052번지 목련선경아파트","indutype":"학원 - 예·체능계학원","category":"study"},{"name":"범계실용음악학원","tel":"031-381-5511","addr":"경기도 안양시 동안구 호계동","indutype":"회원제형태 - 학원","category":"study"},{"name":"범계이해법수학학원","tel":"031-342-1033","addr":"경기도 안양시 동안구 호계동","indutype":"회원제형태 - 학원","category":"study"},{"name":"알파학원","tel":"031-381-8881","addr":"경기도 안양시 동안구 호계동 1052번지 목련선경아파트","indutype":"학원 - 보습학원","category":"study"},{"name":"와이프라임수학학원","tel":"031-388-3383","addr":"경기도 안양시 동안구 호계동 1052번지","indutype":"학원 - 보습학원","category":"study"},{"name":"우리별베이비어린이집[아이행복]","tel":"031-476-9823","addr":"경기도 안양시 동안구 호계동 1052번지 목련선경아파트","indutype":"학원 - 유아원","category":"study"},{"name":"우리별어린이집[아이행복]","tel":"031-383-9828","addr":"경기도 안양시 동안구 호계동 1052번지","indutype":"학원 - 유아원","category":"study"},{"name":"중원유치원[아이행복]","tel":"031-381-3355","addr":"경기도 안양시 동안구 호계동 1052번지","indutype":"학원 - 유치원","category":"study"},{"name":"토킹스타영어교습소","tel":"031-382-3142","addr":"경기도 안양시 동안구 호계동 1052번지","indutype":"학원 - 보습학원","category":"study"},{"name":"평촌에스더음악학원","tel":"031-381-1219","addr":"경기도 안양시 동안구 호계동","indutype":"학원 - 예·체능계학원","category":"study"}]},{"lat":"37.375061278","long":"126.96142502","imageIndex":16,"items":[{"name":"경희한서태권도합기도","tel":"031-427-3698","addr":"경기도 안양시 동안구 호계동 1104-3번지","indutype":"학원 - 예·체능계학원","category":"study"}]},{"lat":"37.371114308","long":"126.9599257","imageIndex":16,"items":[{"name":"고시원(웰빙레지던스호계신사거리점)","tel":"031-429-3130","addr":"경기도 안양시 동안구 호계동 1002-8번지","indutype":"학원 - 독서실","category":"study"},{"name":"웰빙레지던스","tel":"031-429-3130","addr":"경기도 안양시 동안구 호계동 1002-8번지","indutype":"학원 - 독서실","category":"study"}]},{"lat":"37.391065195","long":"126.94469214","imageIndex":16,"items":[{"name":"고운어린이집[아이행복]","tel":"031-427-1000","addr":"경기도 안양시 동안구 호계동 893-1번지 한마음2차아파트","indutype":"학원 - 유아원","category":"study"}]},{"lat":"37.382115696","long":"126.96000975","imageIndex":16,"items":[{"name":"과학의정석과학학원","tel":"031-387-2379","addr":"경기도 안양시 동안구 호계동 1065-8번지","indutype":"학원 - 보습학원","category":"study"},{"name":"김영부학원","tel":"031-381-9661","addr":"경기도 안양시 동안구 호계동 1065-8번지","indutype":"학원 - 보습학원","category":"study"},{"name":"다수인보습학원","tel":"031-382-1307","addr":"경기도 안양시 동안구 호계동 1065-8번지","indutype":"학원 - 보습학원","category":"study"},{"name":"리더포스학원","tel":"031-476-3374","addr":"경기도 안양시 동안구 호계동 1065-8번지","indutype":"회원제형태 - 학원","category":"study"},{"name":"마르지않는샘 국어교습소","tel":"070-7803-7844","addr":"경기도 안양시 동안구 호계동 1065-8번지","indutype":"학원 - 보습학원","category":"study"},{"name":"박수경수학학원","tel":"031-387-4856","addr":"경기도 안양시 동안구 호계동 1065-8번지","indutype":"회원제형태 - 학원","category":"study"},{"name":"블라썸에듀영어학원","tel":"031-387-0582","addr":"경기도 안양시 동안구 호계동 1065-8번지","indutype":"학원 - 외국어학원","category":"study"},{"name":"비투비영어수학학원","tel":"031-384-8253","addr":"경기도 안양시 동안구 호계동 1065-8번지","indutype":"학원 - 보습학원","category":"study"},{"name":"비투비영어수학학원","tel":"031-385-4118","addr":"경기도 안양시 동안구 호계동 1065-8번지","indutype":"학원 - 보습학원","category":"study"},{"name":"아이엠아이영어학원","tel":"031-388-7005","addr":"경기도 안양시 동안구 호계동 1065-8번지","indutype":"학원 - 외국어학원","category":"study"},{"name":"엄청난영어학원","tel":"031-383-9641","addr":"경기도 안양시 동안구 호계동 1065-8번지","indutype":"회원제형태 - 학원","category":"study"},{"name":"에스더영어독서미친영어학원","tel":"031-385-1952","addr":"경기도 안양시 동안구 호계동 1065-8번지","indutype":"학원 - 보습학원","category":"study"},{"name":"에스마고지혜의샘수학논술학원","tel":"031-385-0206","addr":"경기도 안양시 동안구 호계동 1065-8번지","indutype":"학원 - 보습학원","category":"study"},{"name":"엠에스스퀘어학원","tel":"031-386-9517","addr":"경기도 안양시 동안구 호계동 1065-8번지","indutype":"회원제형태 - 학원","category":"study"},{"name":"잠수함속토끼미술학원","tel":"031-383-1003","addr":"경기도 안양시 동안구 호계동 1065-8번지","indutype":"학원 - 예·체능계학원","category":"study"},{"name":"제이에스학원","tel":"031-385-2009","addr":"경기도 안양시 동안구 호계동 1065-8번지","indutype":"학원 - 보습학원","category":"study"},{"name":"죽비소리보습학원","tel":"031-476-6007","addr":"경기도 안양시 동안구 호계동 1065-8번지","indutype":"학원 - 기타 교육기관","category":"study"},{"name":"차오름영어학원","tel":"031-387-7331","addr":"경기도 안양시 동안구 호계동 1065-8번지","indutype":"학원 - 외국어학원","category":"study"},{"name":"평촌검도관","tel":"031-385-8177","addr":"경기도 안양시 동안구 호계동 1065-8번지","indutype":"학원 - 예·체능계학원","category":"study"},{"name":"해커영어교습소","tel":"031-387-7466","addr":"경기도 안양시 동안구 호계동 1065-8번지","indutype":"학원 - 외국어학원","category":"study"},{"name":"홍티영어학원","tel":"031-444-9449","addr":"경기도 안양시 동안구 호계동 1065-8번지","indutype":"학원 - 보습학원","category":"study"}]},{"lat":"37.385249022","long":"126.95433961","imageIndex":16,"items":[{"name":"그레이스국제크리스천스쿨","tel":"070-7430-2777","addr":"경기도 안양시 동안구 호계동 1054-1번지","indutype":"학원 - 기타 교육기관","category":"study"}]},{"lat":"37.369644462","long":"126.95675427","imageIndex":16,"items":[{"name":"그리핀하우스","tel":"031-477-5566","addr":"경기도 안양시 동안구 호계동 967-59번지","indutype":"학원 - 독서실","category":"study"}]},{"lat":"37.382358916","long":"126.95986283","imageIndex":16,"items":[{"name":"그린섬미술학원","tel":"031-386-4243","addr":"경기도 안양시 동안구 호계동 1065-6번지","indutype":"학원 - 예·체능계학원","category":"study"},{"name":"꿈찬국어교습소","tel":"031-385-9805","addr":"경기도 안양시 동안구 호계동 1065-6번지","indutype":"회원제형태 - 학원","category":"study"},{"name":"노아수학교습소","tel":"031-382-1170","addr":"경기도 안양시 동안구 호계동 1065-6번지","indutype":"학원 - 보습학원","category":"study"},{"name":"더쎈수학학원","tel":"031-381-2166","addr":"경기도 안양시 동안구 호계동 1065-6번지","indutype":"학원 - 보습학원","category":"study"},{"name":"박선종영어교습소","tel":"070-4233-8909","addr":"경기도 안양시 동안구 호계동 1065-6번지","indutype":"회원제형태 - 학원","category":"study"},{"name":"베스트오브더베스트학원","tel":"03-1388-3334","addr":"경기도 안양시 동안구 호계동 1065-6번지","indutype":"회원제형태 - 학원","category":"study"},{"name":"블레싱에듀학원","tel":"031-476-9342","addr":"경기도 안양시 동안구 호계동 1065-6번지","indutype":"학원 - 외국어학원","category":"study"},{"name":"송우찬수학학원","tel":"031-386-8899","addr":"경기도 안양시 동안구 호계동 1065-6번지","indutype":"학원 - 보습학원","category":"study"},{"name":"알파영어 교습소","tel":"031-381-3393","addr":"경기도 안양시 동안구 호계동 1065-6번지","indutype":"학원 - 외국어학원","category":"study"},{"name":"위너스 에듀 영어 교습소","tel":"","addr":"경기도 안양시 동안구 호계동 1065-6번지","indutype":"학원 - 외국어학원","category":"study"},{"name":"이도에듀영어교습소","tel":"031-429-5100","addr":"경기도 안양시 동안구 호계동 1065-6번지","indutype":"회원제형태 - 학원","category":"study"},{"name":"지수수학교습소","tel":"031-387-3871","addr":"경기도 안양시 동안구 호계동 1065-6번지","indutype":"학원 - 보습학원","category":"study"},{"name":"지티수학교습소","tel":"031-381-5753","addr":"경기도 안양시 동안구 호계동 1065-6번지","indutype":"회원제형태 - 학원","category":"study"},{"name":"칸고등영어학원","tel":"031-399-9551","addr":"경기도 안양시 동안구 호계동 1065-6번지","indutype":"학원 - 외국어학원","category":"study"},{"name":"평촌송우찬수학교습소","tel":"031-386-8899","addr":"경기도 안양시 동안구 호계동 1065-6번지","indutype":"학원 - 보습학원","category":"study"},{"name":"플랜에이독서실","tel":"031-381-7435","addr":"경기도 안양시 동안구 호계동 1065-6번지","indutype":"학원 - 독서실","category":"study"},{"name":"하이에듀","tel":"031-341-3445","addr":"경기도 안양시 동안구 호계동 1065-6번지","indutype":"학원 - 보습학원","category":"study"}]},{"lat":"37.390303952","long":"126.95498001","imageIndex":16,"items":[{"name":"그림발전소미술교습소","tel":"031-388-2156","addr":"경기도 안양시 동안구 호계동 1048-2번지","indutype":"학원 - 예·체능계학원","category":"study"},{"name":"니하오중국어학원","tel":"031-383-9697","addr":"경기도 안양시 동안구 호계동 1048-2번지","indutype":"학원 - 외국어학원","category":"study"},{"name":"싱글하우스범계점","tel":"031-386-1810","addr":"경기도 안양시 동안구 호계동 1048-2번지","indutype":"학원 - 독서실","category":"study"},{"name":"쟁이컴퓨터학원","tel":"031-341-8800","addr":"경기도 안양시 동안구 호계동 1048-2번지","indutype":"학원 - 컴퓨터학원","category":"study"},{"name":"주식회사서해","tel":"031-382-5100","addr":"경기도 안양시 동안구 호계동 1048-2번지","indutype":"학원 - 기능학원","category":"study"},{"name":"창의와로봇러닝센터학원","tel":"031-381-5857","addr":"경기도 안양시 동안구 호계동 1048-2번지","indutype":"학원 - 기타 교육기관","category":"study"},{"name":"포디창의수학교습소","tel":"031-383-1750","addr":"경기도 안양시 동안구 호계동 1048-2번지","indutype":"학원 - 보습학원","category":"study"}]},{"lat":"37.375474902","long":"126.95908774","imageIndex":16,"items":[{"name":"그림숲아트미술교습소","tel":"031-456-3434","addr":"경기도 안양시 동안구 호계동 1285번지","indutype":"학원 - 예·체능계학원","category":"study"},{"name":"덕현해법학원","tel":"031-429-4230","addr":"경기도 안양시 동안구 호계동 1285번지","indutype":"학원 - 보습학원","category":"study"},{"name":"엠티에이 양지태권도","tel":"031-429-3788","addr":"경기도 안양시 동안구 호계동 1285번지","indutype":"학원 - 예·체능계학원","category":"study"},{"name":"피아놀이터음악교습소","tel":"031-456-0022","addr":"경기도 안양시 동안구 호계동 1285번지","indutype":"학원 - 예·체능계학원","category":"study"}]},{"lat":"37.366034052","long":"126.96415055","imageIndex":16,"items":[{"name":"그림이좋은아이들미술교습소","tel":"031-393-9877","addr":"경기도 안양시 동안구 호계동 822번지","indutype":"학원 - 예·체능계학원","category":"study"},{"name":"대한검도호계검도관","tel":"031-455-4254","addr":"경기도 안양시 동안구 호계동 822번지","indutype":"학원 - 예·체능계학원","category":"study"},{"name":"쉐마영수학원","tel":"031-429-4335","addr":"경기도 안양시 동안구 호계동 822번지","indutype":"학원 - 보습학원","category":"study"},{"name":"청학석사경희대태권도","tel":"031-454-2985","addr":"경기도 안양시 동안구 호계동 822번지","indutype":"학원 - 예·체능계학원","category":"study"},{"name":"청학수학교습소","tel":"031-454-1834","addr":"경기도 안양시 동안구 호계동 822번지","indutype":"학원 - 보습학원","category":"study"},{"name":"티엠에스(TMS)영어학원","tel":"","addr":"경기도 안양시 동안구 호계동 822번지","indutype":"학원 - 기타 교육기관","category":"study"},{"name":"하이든음악학원","tel":"031-457-0775","addr":"경기도 안양시 동안구 호계동 822번지","indutype":"학원 - 예·체능계학원","category":"study"},{"name":"호성영어교습소","tel":"031-429-0508","addr":"경기도 안양시 동안구 호계동 822번지","indutype":"회원제형태 - 학원","category":"study"}]},{"lat":"37.363547139","long":"126.9638019","imageIndex":16,"items":[{"name":"금호어울림어린이집[아이행복]","tel":"031-427-6337","addr":"경기도 안양시 동안구 호계동","indutype":"학원 - 유아원","category":"study"}]},{"lat":"37.366589533","long":"126.95550309","imageIndex":16,"items":[{"name":"김동영닷컴","tel":"031-381-0119","addr":"경기도 안양시 동안구 호계동 713번지 호계아크로리버","indutype":"학원 - 기능학원","category":"study"},{"name":"제미스","tel":"070-8246-6918","addr":"경기도 안양시 동안구 호계동 713번지 호계아크로리버","indutype":"학원 - 기타 교육기관","category":"study"}]},{"lat":"37.374999469","long":"126.96519592","imageIndex":16,"items":[{"name":"김설향피아노교습소","tel":"031-455-9163","addr":"경기도 안양시 동안구 호계동 1121번지 샘마을대우,한양아파트","indutype":"학원 - 예·체능계학원","category":"study"},{"name":"샘마을한국파워줄넘기","tel":"031-427-1077","addr":"경기도 안양시 동안구 호계동 1121번지","indutype":"학원 - 예·체능계학원","category":"study"},{"name":"수학의달인샘마을한양수학교습소","tel":"","addr":"경기도 안양시 동안구 호계동 1121번지","indutype":"학원 - 보습학원","category":"study"},{"name":"수학의법칙갈산점","tel":"031-455-9005","addr":"경기도 안양시 동안구 호계동 1121번지","indutype":"학원 - 보습학원","category":"study"},{"name":"안양샘마을우리집앞영어교습소","tel":"070-3427-0213","addr":"경기도 안양시 동안구 호계동 1121번지","indutype":"학원 - 외국어학원","category":"study"},{"name":"원형미술교습소","tel":"031-455-7131","addr":"경기도 안양시 동안구 호계동","indutype":"학원 - 예·체능계학원","category":"study"},{"name":"프라임영어학원","tel":"031-427-0565","addr":"경기도 안양시 동안구 호계동 1121번지","indutype":"학원 - 보습학원","category":"study"}]},{"lat":"37.38205205","long":"126.95845162","imageIndex":16,"items":[{"name":"김영부영어교습소","tel":"031-381-8667","addr":"경기도 안양시 동안구 호계동 1062-4번지","indutype":"학원 - 보습학원","category":"study"},{"name":"안선생수학교습소","tel":"","addr":"경기도 안양시 동안구 호계동 1062-4번지","indutype":"학원 - 보습학원","category":"study"}]},{"lat":"37.365311861","long":"126.96014349","imageIndex":16,"items":[{"name":"꼬뜰어린이집[아이행복]","tel":"031-453-6001","addr":"경기도 안양시 동안구 호계동 811번지 호계2차현대홈타운","indutype":"학원 - 유아원","category":"study"}]},{"lat":"37.377997052","long":"126.9572798","imageIndex":16,"items":[{"name":"꾸메아트미술교습소","tel":"031-429-9318","addr":"경기도 안양시 동안구 호계동 1075번지","indutype":"학원 - 예·체능계학원","category":"study"},{"name":"뉴더샵음악학원","tel":"031-453-3330","addr":"경기도 안양시 동안구 호계동 1075번지","indutype":"학원 - 예·체능계학원","category":"study"},{"name":"레인보우키즈어린이집[아이행복]","tel":"031-429-6393","addr":"경기도 안양시 동안구 호계동 1075번지","indutype":"학원 - 유아원","category":"study"},{"name":"무궁화해법영어교습소","tel":"031-427-4125","addr":"경기도 안양시 동안구 호계동 1075번지 무궁화아파트","indutype":"학원 - 외국어학원","category":"study"},{"name":"신기해법수학","tel":"031-457-6062","addr":"경기도 안양시 동안구 호계동 1075번지","indutype":"학원 - 보습학원","category":"study"},{"name":"임주은음악교습소","tel":"031-427-9482","addr":"경기도 안양시 동안구 호계동 1075번지","indutype":"회원제형태 - 학원","category":"study"},{"name":"태영 영어 수학학원","tel":"031-427-4125","addr":"경기도 안양시 동안구 호계동 1075번지","indutype":"학원 - 보습학원","category":"study"}]},{"lat":"37.387862604","long":"126.95595267","imageIndex":16,"items":[{"name":"꿈꾸는 씨앗 미술교습소","tel":"031-385-7670","addr":"경기도 안양시 동안구 호계동 1052-5번지","indutype":"학원 - 예·체능계학원","category":"study"},{"name":"목련해법수학영어학원","tel":"031-476-9401","addr":"경기도 안양시 동안구 호계동 1052-5번지","indutype":"학원 - 보습학원","category":"study"},{"name":"빨간펜수학의달인범계목련수학교습소","tel":"","addr":"경기도 안양시 동안구 호계동 1052-5번지","indutype":"학원 - 보습학원","category":"study"},{"name":"칸트영어교습소","tel":"","addr":"경기도 안양시 동안구 호계동 1052-5번지","indutype":"학원 - 보습학원","category":"study"},{"name":"키즈 블랙벨트 태권도장","tel":"031-386-8007","addr":"경기도 안양시 동안구 호계동 1052-5번지","indutype":"학원 - 예·체능계학원","category":"study"},{"name":"평촌꿈틀학원","tel":"031-383-0617","addr":"경기도 안양시 동안구 호계동 1052-5번지","indutype":"학원 - 보습학원","category":"study"},{"name":"평촌꿈틀학원","tel":"031-465-9981","addr":"경기도 안양시 동안구 호계동 1052-5번지","indutype":"학원 - 보습학원","category":"study"}]},{"lat":"37.384444928","long":"126.94925899","imageIndex":16,"items":[{"name":"꿈누리어린이집[아이행복]","tel":"031-477-3006","addr":"경기도 안양시 동안구 호계동","indutype":"학원 - 유아원","category":"study"},{"name":"해법에이스학원","tel":"031-453-0533","addr":"경기도 안양시 동안구 호계동 919-2번지 호계마젤란21아파트","indutype":"학원 - 보습학원","category":"study"}]},{"lat":"37.385112417","long":"126.95091837","imageIndex":16,"items":[{"name":"꿈을향한공간 채담","tel":"","addr":"경기도 안양시 동안구 호계동 918-24번지","indutype":"학원 - 독서실","category":"study"}]},{"lat":"37.382530079","long":"126.95978369","imageIndex":16,"items":[{"name":"남수현영어교습소","tel":"031-387-5023","addr":"경기도 안양시 동안구 호계동 1065-5번지","indutype":"회원제형태 - 학원","category":"study"},{"name":"디자인가우디미술학원","tel":"031-385-2951","addr":"경기도 안양시 동안구 호계동 1065-5번지","indutype":"학원 - 예·체능계학원","category":"study"},{"name":"에스클래스영어교습소","tel":"","addr":"경기도 안양시 동안구 호계동 1065-5번지","indutype":"학원 - 외국어학원","category":"study"},{"name":"이끌림학원","tel":"031-348-4766","addr":"경기도 안양시 동안구 호계동 1065-5번지","indutype":"학원 - 보습학원","category":"study"},{"name":"주식회사우공에듀","tel":"031-387-5023","addr":"경기도 안양시 동안구 호계동 1065-5번지","indutype":"회원제형태 - 학원","category":"study"},{"name":"캠영어교습소","tel":"031-382-8285","addr":"경기도 안양시 동안구 호계동 1065-5번지","indutype":"학원 - 외국어학원","category":"study"},{"name":"티에프스코푸스","tel":"031-381-3811","addr":"경기도 안양시 동안구 호계동 1065-5번지","indutype":"학원 - 보습학원","category":"study"},{"name":"평촌에스클래스영어학원","tel":"031-385-0119","addr":"경기도 안양시 동안구 호계동 1065-5번지","indutype":"학원 - 외국어학원","category":"study"},{"name":"필수학교습소","tel":"031-382-0360","addr":"경기도 안양시 동안구 호계동 1065-5번지","indutype":"학원 - 보습학원","category":"study"}]},{"lat":"37.364374993","long":"126.96066329","imageIndex":16,"items":[{"name":"노란민들레 어린이집[아이행복]","tel":"031-347-8598","addr":"경기도 안양시 동안구 호계동 811번지 호계2차현대홈타운","indutype":"학원 - 유아원","category":"study"},{"name":"뮤엠영어","tel":"031-429-7566","addr":"경기도 안양시 동안구 호계동 811번지 호계2차현대홈타운","indutype":"학원 - 기타 교육기관","category":"study"}]},{"lat":"37.387779615","long":"126.95139079","imageIndex":16,"items":[{"name":"놀작반디아트키즈센터미술교습소","tel":"031-3887-618","addr":"경기도 안양시 동안구 호계동 1053-2번지","indutype":"학원 - 예·체능계학원","category":"study"},{"name":"목련음악학원","tel":"031-382-5700","addr":"경기도 안양시 동안구 호계동 1053-2번지","indutype":"학원 - 예·체능계학원","category":"study"},{"name":"범계엘렌영어회화교습소","tel":"031-383-2114","addr":"경기도 안양시 동안구 호계동 1053-2번지","indutype":"회원제형태 - 학원","category":"study"},{"name":"수플러스수학과학학원","tel":"031-388-5036","addr":"경기도 안양시 동안구 호계동 1053-2번지","indutype":"회원제형태 - 학원","category":"study"},{"name":"이쌤수학교습소","tel":"031-386-0901","addr":"경기도 안양시 동안구 호계동 1053-2번지","indutype":"학원 - 보습학원","category":"study"},{"name":"필아트미술교습소","tel":"","addr":"경기도 안양시 동안구 호계동 1053-2번지","indutype":"학원 - 예·체능계학원","category":"study"}]},{"lat":"37.383363828","long":"126.94950817","imageIndex":16,"items":[{"name":"뉴 비욘세 음악학원","tel":"031-347-9133","addr":"경기도 안양시 동안구 호계동 923-21번지","indutype":"학원 - 예·체능계학원","category":"study"},{"name":"윤선생우리집앞호계동부영어교습소","tel":"031-387-0532","addr":"경기도 안양시 동안구 호계동 923-21번지","indutype":"학원 - 보습학원","category":"study"},{"name":"해법에이스학원","tel":"031-453-0533","addr":"경기도 안양시 동안구 호계동 923-21번지","indutype":"학원 - 보습학원","category":"study"}]},{"lat":"37.368977072","long":"126.95514034","imageIndex":16,"items":[{"name":"느티나무수학교습소","tel":"","addr":"경기도 안양시 동안구 호계동","indutype":"회원제형태 - 학원","category":"study"}]},{"lat":"37.383025532","long":"126.95950113","imageIndex":16,"items":[{"name":"늘품수학","tel":"","addr":"경기도 안양시 동안구 호계동 1065-1번지","indutype":"학원 - 보습학원","category":"study"},{"name":"이비에스(EBS)스스로배움터 안양지사","tel":"031-386-7891","addr":"경기도 안양시 동안구 호계동 1065-1번지","indutype":"학원 - 보습학원","category":"study"},{"name":"주식회사 평촌필탑학원","tel":"031-384-0700","addr":"경기도 안양시 동안구 호계동 1065-1번지","indutype":"학원 - 보습학원","category":"study"},{"name":"지투수학학원","tel":"031-381-3190","addr":"경기도 안양시 동안구 호계동 1065-1번지","indutype":"학원 - 보습학원","category":"study"}]},{"lat":"37.387030904","long":"126.94942652","imageIndex":16,"items":[{"name":"다임음악학원","tel":"031-457-4844","addr":"경기도 안양시 동안구 호계동 916-5번지","indutype":"학원 - 예·체능계학원","category":"study"},{"name":"케이투수학학원","tel":"031-452-6426","addr":"경기도 안양시 동안구 호계동 916-5번지","indutype":"학원 - 보습학원","category":"study"}]},{"lat":"37.377170894","long":"126.96514967","imageIndex":16,"items":[{"name":"대안여자중학교","tel":"031-453-1997","addr":"경기도 안양시 동안구 호계동 1231번지","indutype":"학원 - 초중고교육기관","category":"study"},{"name":"안양샘유치원[아이행복]","tel":"031-451-1518","addr":"경기도 안양시 동안구 호계동 1231번지","indutype":"학원 - 유치원","category":"study"}]},{"lat":"37.377810866","long":"126.96595097","imageIndex":16,"items":[{"name":"대안중학교","tel":"031-451-1982","addr":"경기도 안양시 동안구 호계동 1224번지","indutype":"학원 - 초중고교육기관","category":"study"}]},{"lat":"37.383746199","long":"126.95911681","imageIndex":16,"items":[{"name":"대치이코드영어학원","tel":"031-388-0582","addr":"경기도 안양시 동안구 호계동 1058-6번지","indutype":"회원제형태 - 학원","category":"study"},{"name":"수채화수학학원","tel":"031-382-9050","addr":"경기도 안양시 동안구 호계동 1058-6번지","indutype":"학원 - 보습학원","category":"study"},{"name":"이듀스영어수학학원","tel":"031-457-2365","addr":"경기도 안양시 동안구 호계동 1058-6번지","indutype":"학원 - 보습학원","category":"study"},{"name":"케이에스피(KSP)학원","tel":"031-347-9697","addr":"경기도 안양시 동안구 호계동 1058-6번지","indutype":"학원 - 기타 교육기관","category":"study"},{"name":"평촌창조의 아침 미술학원","tel":"031-383-6608","addr":"경기도 안양시 동안구 호계동 1058-6번지","indutype":"학원 - 예·체능계학원","category":"study"}]},{"lat":"37.376558925","long":"126.96747576","imageIndex":16,"items":[{"name":"더샘피아노교습소","tel":"","addr":"경기도 안양시 동안구 호계동 1117번지 샘마을","indutype":"학원 - 예·체능계학원","category":"study"}]},{"lat":"37.376448582","long":"126.96070168","imageIndex":16,"items":[{"name":"더피아노교습소","tel":"031-457-0155","addr":"경기도 안양시 동안구 호계동 1096번지","indutype":"학원 - 예·체능계학원","category":"study"}]},{"lat":"37.384358765","long":"126.958789","imageIndex":16,"items":[{"name":"데까르트 수학","tel":"031-388-9002","addr":"경기도 안양시 동안구 호계동 1058-1번지","indutype":"학원 - 보습학원","category":"study"},{"name":"스누매쓰수학학원주식회사","tel":"031-386-3111","addr":"경기도 안양시 동안구 호계동 1058-1번지","indutype":"학원 - 보습학원","category":"study"},{"name":"팀스터디보습학원","tel":"031-381-0905","addr":"경기도 안양시 동안구 호계동 1058-1번지","indutype":"학원 - 보습학원","category":"study"},{"name":"힐링매쓰수학교습소","tel":"031-399-8210","addr":"경기도 안양시 동안구 호계동 1058-1번지","indutype":"학원 - 보습학원","category":"study"}]},{"lat":"37.383556478","long":"126.95776196","imageIndex":16,"items":[{"name":"데일리기타음악교습소","tel":"","addr":"경기도 안양시 동안구 호계동 1057번지","indutype":"학원 - 예·체능계학원","category":"study"},{"name":"보라유치원[아이행복]","tel":"031-387-4426","addr":"경기도 안양시 동안구 호계동 1057번지","indutype":"학원 - 유치원","category":"study"},{"name":"브라이트영마인즈잉글리쉬영어교습소","tel":"","addr":"경기도 안양시 동안구 호계동 1057번지 무궁화경남아파트","indutype":"학원 - 외국어학원","category":"study"},{"name":"아이우디 미술교습소","tel":"031-385-2953","addr":"경기도 안양시 동안구 호계동 1057번지","indutype":"학원 - 예·체능계학원","category":"study"},{"name":"업플러스 영어교습소","tel":"031-381-7897","addr":"경기도 안양시 동안구 호계동 1057번지","indutype":"학원 - 외국어학원","category":"study"},{"name":"이연 수학학원","tel":"031-383-3515","addr":"경기도 안양시 동안구 호계동 1057번지","indutype":"학원 - 보습학원","category":"study"},{"name":"제이에이치 수학","tel":"","addr":"경기도 안양시 동안구 호계동 1057번지","indutype":"학원 - 보습학원","category":"study"},{"name":"조형가우디미술학원","tel":"031-383-2952","addr":"경기도 안양시 동안구 호계동 1057번지","indutype":"학원 - 예·체능계학원","category":"study"},{"name":"테라로봇","tel":"031-458-1229","addr":"경기도 안양시 동안구 호계동 1057번지","indutype":"회원제형태 - 학원","category":"study"}]},{"lat":"37.3851961","long":"126.9571964","imageIndex":16,"items":[{"name":"드림음악 우성미술 학원","tel":"031-388-2575","addr":"경기도 안양시 동안구 호계동 1054-8번지","indutype":"학원 - 예·체능계학원","category":"study"}]},{"lat":"37.376196574","long":"126.96148084","imageIndex":16,"items":[{"name":"드림이화음악학원","tel":"031-455-2208","addr":"경기도 안양시 동안구 호계동 1099-9번지","indutype":"학원 - 예·체능계학원","category":"study"}]},{"lat":"37.385220479","long":"126.95078279","imageIndex":16,"items":[{"name":"디딤어린이집[아이행복]","tel":"031-454-4324","addr":"경기도 안양시 동안구 호계동 918-22번지","indutype":"학원 - 유아원","category":"study"}]},{"lat":"37.376861929","long":"126.95767565","imageIndex":16,"items":[{"name":"라라아소비","tel":"","addr":"경기도 안양시 동안구 호계동 1287번지 평촌더샵아이파크","indutype":"학원 - 기타 교육기관","category":"study"},{"name":"에스 태권도장","tel":"02-1234-1234","addr":"경기도 안양시 동안구 호계동 1287번지 평촌더샵아이파크","indutype":"학원 - 예·체능계학원","category":"study"},{"name":"이든음악학원","tel":"031-427-1029","addr":"경기도 안양시 동안구 호계동 1287번지 평촌더샵아이파크","indutype":"학원 - 예·체능계학원","category":"study"},{"name":"하얀나무 미술학원","tel":"031-426-3334","addr":"경기도 안양시 동안구 호계동 1287번지 평촌더샵아이파크","indutype":"학원 - 예·체능계학원","category":"study"}]},{"lat":"37.385418269","long":"126.94981158","imageIndex":16,"items":[{"name":"라온수학교습소","tel":"031-3613-1083","addr":"경기도 안양시 동안구 호계동 918-1번지 하나베스트빌","indutype":"학원 - 보습학원","category":"study"}]},{"lat":"37.382057413","long":"126.949622","imageIndex":16,"items":[{"name":"레벨업수학","tel":"070-5022-4846","addr":"경기도 안양시 동안구 호계동 924-30번지","indutype":"학원 - 보습학원","category":"study"}]},{"lat":"37.390556403","long":"126.95539767","imageIndex":16,"items":[{"name":"로엔실용음악학원","tel":"031-385-1331","addr":"경기도 안양시 동안구 호계동 1048-3번지","indutype":"학원 - 예·체능계학원","category":"study"},{"name":"안양도도강배수미용학원","tel":"031-381-6789","addr":"경기도 안양시 동안구 호계동 1048-3번지","indutype":"회원제형태 - 학원","category":"study"},{"name":"잉글리쉬파파마마귀족영어학원","tel":"031-384-0588","addr":"경기도 안양시 동안구 호계동 1048-3번지","indutype":"학원 - 외국어학원","category":"study"}]},{"lat":"37.385354168","long":"126.94756461","imageIndex":16,"items":[{"name":"마스터뮤직오르프","tel":"070-8702-4226","addr":"경기도 안양시 동안구 호계동 912번지 호계동효성아파트","indutype":"학원 - 예·체능계학원","category":"study"},{"name":"효성어린이집[아이행복]","tel":"031-429-1128","addr":"경기도 안양시 동안구 호계동 912번지 호계동효성아파트","indutype":"학원 - 유아원","category":"study"}]},{"lat":"37.368056274","long":"126.95095271","imageIndex":16,"items":[{"name":"마스터스포츠","tel":"031-381-7736","addr":"경기도 안양시 동안구 호계동 1029-21번지","indutype":"학원 - 예·체능계학원","category":"study"}]},{"lat":"37.36298797","long":"126.96219926","imageIndex":16,"items":[{"name":"맘스 잉글리쉬(mom's english)","tel":"","addr":"경기도 안양시 동안구 호계동 813번지 호계e-편한세상아파트","indutype":"학원 - 기타 교육기관","category":"study"},{"name":"아이세상어린이집[아이행복]","tel":"031-477-1157","addr":"경기도 안양시 동안구 호계동 813번지 호계e-편한세상아파트","indutype":"학원 - 유아원","category":"study"}]},{"lat":"37.377943766","long":"126.9593347","imageIndex":16,"items":[{"name":"매쓰탑수학교습소","tel":"031-455-4767","addr":"경기도 안양시 동안구 호계동 1084번지","indutype":"회원제형태 - 학원","category":"study"}]},{"lat":"37.384223642","long":"126.95886812","imageIndex":16,"items":[{"name":"메쓰토리 수학학원","tel":"031-381-7349","addr":"경기도 안양시 동안구 호계동 1058-2번지","indutype":"회원제형태 - 학원","category":"study"},{"name":"바른길수학학원","tel":"031-381-4785","addr":"경기도 안양시 동안구 호계동 1058-2번지","indutype":"학원 - 보습학원","category":"study"},{"name":"주식회사 수미사평촌","tel":"031-388-9298","addr":"경기도 안양시 동안구 호계동 1058-2번지","indutype":"학원 - 보습학원","category":"study"},{"name":"토즈범계스마트독서실","tel":"031-388-1515","addr":"경기도 안양시 동안구 호계동 1058-2번지","indutype":"학원 - 독서실","category":"study"},{"name":"판다국어논술학원","tel":"031-383-8868","addr":"경기도 안양시 동안구 호계동 1058-2번지","indutype":"학원 - 보습학원","category":"study"},{"name":"해냄2관학원","tel":"031-387-8878","addr":"경기도 안양시 동안구 호계동 1058-2번지","indutype":"학원 - 보습학원","category":"study"},{"name":"헤일로수학과학학원","tel":"031-360-0333","addr":"경기도 안양시 동안구 호계동 1058-2번지","indutype":"회원제형태 - 학원","category":"study"}]},{"lat":"37.389195887","long":"126.95542111","imageIndex":16,"items":[{"name":"목련어린이집[아이행복]","tel":"031-342-1164","addr":"경기도 안양시 동안구 호계동 1052-3번지 목련우성아파트","indutype":"학원 - 유아원","category":"study"}]},{"lat":"37.38947525","long":"126.95554515","imageIndex":16,"items":[{"name":"목련우등생개인과외","tel":"","addr":"경기도 안양시 동안구 호계동 1052-3번지 목련우성아파트","indutype":"학원 - 기타 교육기관","category":"study"}]},{"lat":"37.385915015","long":"126.95253252","imageIndex":16,"items":[{"name":"목련이영숙주산교습소","tel":"031-388-2909","addr":"경기도 안양시 동안구 호계동 1053-3번지","indutype":"학원 - 보습학원","category":"study"},{"name":"신동아피아노교습소","tel":"031-385-9982","addr":"경기도 안양시 동안구 호계동 1053-3번지","indutype":"학원 - 예·체능계학원","category":"study"},{"name":"아케보노일본어교습소","tel":"031-111-2222","addr":"경기도 안양시 동안구 호계동 1053-3번지 목련신동아아파트","indutype":"학원 - 외국어학원","category":"study"},{"name":"연세수학교습소","tel":"","addr":"경기도 안양시 동안구 호계동 1053-3번지","indutype":"학원 - 보습학원","category":"study"},{"name":"이플영어교습소","tel":"031-388-8817","addr":"경기도 안양시 동안구 호계동 1053-3번지","indutype":"학원 - 외국어학원","category":"study"}]},{"lat":"37.380330772","long":"126.95753808","imageIndex":16,"items":[{"name":"무궁화어린이집[아이행복]","tel":"031-382-7106","addr":"경기도 안양시 동안구 호계동 1056-6번지","indutype":"학원 - 유아원","category":"study"},{"name":"설수학교습소","tel":"031-388-0718","addr":"경기도 안양시 동안구 호계동 1056-6번지 무궁화진흥아파트","indutype":"학원 - 보습학원","category":"study"},{"name":"우리집앞윤선생영어신기영어교습소","tel":"031-382-4004","addr":"경기도 안양시 동안구 호계동 1056-6번지","indutype":"학원 - 외국어학원","category":"study"}]},{"lat":"37.388203748","long":"126.95292621","imageIndex":16,"items":[{"name":"뮤엠영어 범계 에스케이 네스트(범계 SK NE","tel":"02-533-4240","addr":"경기도 안양시 동안구 호계동 1052번지 목련선경아파트","indutype":"학원 - 외국어학원","category":"study"},{"name":"비엔에이치코칭센터","tel":"070-6112-4965","addr":"경기도 안양시 동안구 호계동 1052번지 목련선경아파트","indutype":"학원 - 보습학원","category":"study"}]},{"lat":"37.376751862","long":"126.95284348","imageIndex":16,"items":[{"name":"뮤엠영어 안양지사","tel":"031-443-0565","addr":"경기도 안양시 동안구 호계동 335-90번지","indutype":"학원 - 학습지 교육","category":"study"},{"name":"뮤엠영어안양지사영어교습소","tel":"","addr":"경기도 안양시 동안구 호계동 335-90번지","indutype":"학원 - 외국어학원","category":"study"}]},{"lat":"37.362168144","long":"126.96248191","imageIndex":16,"items":[{"name":"뮤엠영어호계대림영어교습소","tel":"070-4220-5930","addr":"경기도 안양시 동안구 호계동 873번지","indutype":"학원 - 외국어학원","category":"study"},{"name":"주식회사 토트","tel":"031-1661-2305","addr":"경기도 안양시 동안구 호계동 873번지","indutype":"회원제형태 - 학원","category":"study"}]},{"lat":"37.376699194","long":"126.95625318","imageIndex":16,"items":[{"name":"박사경희대태권도장","tel":"031-429-2491","addr":"경기도 안양시 동안구 호계동 976-3번지","indutype":"학원 - 예·체능계학원","category":"study"}]},{"lat":"37.382167644","long":"126.95453355","imageIndex":16,"items":[{"name":"밤비니어린이집[아이행복]","tel":"031-381-0250","addr":"경기도 안양시 동안구 호계동 1055번지 무궁화효성,한양아파트","indutype":"학원 - 유아원","category":"study"},{"name":"쥴리어드피아노교습소","tel":"031-382-7065","addr":"경기도 안양시 동안구 호계동 1055번지 무궁화효성,한양아파트","indutype":"학원 - 예·체능계학원","category":"study"}]},{"lat":"37.366177268","long":"126.96136218","imageIndex":16,"items":[{"name":"방울토마토어린이집[아이행복]","tel":"031-342-8599","addr":"경기도 안양시 동안구 호계동 811번지","indutype":"학원 - 유아원","category":"study"}]},{"lat":"37.390996807","long":"126.95275497","imageIndex":16,"items":[{"name":"범계간호학원","tel":"031-383-2344","addr":"경기도 안양시 동안구 호계동 1041-2번지","indutype":"회원제형태 - 학원","category":"study"},{"name":"범계요양보호사교육원","tel":"031-383-2344","addr":"경기도 안양시 동안구 호계동 1041-2번지","indutype":"학원 - 기능학원","category":"study"}]},{"lat":"37.390889553","long":"126.95484413","imageIndex":16,"items":[{"name":"범계리빙텔","tel":"031-387-7600","addr":"경기도 안양시 동안구 호계동 1047-6번지","indutype":"학원 - 독서실","category":"study"},{"name":"포스트모던실용음악학원","tel":"031-383-8092","addr":"경기도 안양시 동안구 호계동 1047-6번지","indutype":"회원제형태 - 학원","category":"study"}]},{"lat":"37.38439348","long":"126.95536768","imageIndex":16,"items":[{"name":"범계중학교","tel":"031-383-0234","addr":"경기도 안양시 동안구 호계동 1054-5번지","indutype":"학원 - 초중고교육기관","category":"study"}]},{"lat":"37.387140939","long":"126.95384155","imageIndex":16,"items":[{"name":"범계초등학교","tel":"031-383-0231","addr":"경기도 안양시 동안구 호계동 1052-1번지","indutype":"학원 - 초중고교육기관","category":"study"}]},{"lat":"37.36272707","long":"126.96336208","imageIndex":16,"items":[{"name":"별하독서실","tel":"031-429-9660","addr":"경기도 안양시 동안구 호계동 854-2번지","indutype":"학원 - 독서실","category":"study"}]},{"lat":"37.372303513","long":"126.95956375","imageIndex":16,"items":[{"name":"브랜다커피 추출센터학원","tel":"031-427-7435","addr":"경기도 안양시 동안구 호계동 997-3번지","indutype":"학원 - 기능학원","category":"study"}]},{"lat":"37.391024873","long":"126.95526186","imageIndex":16,"items":[{"name":"브레인학습클리닉","tel":"031-382-9100","addr":"경기도 안양시 동안구 호계동 1047-8번지","indutype":"학원 - 기타 교육기관","category":"study"},{"name":"평촌제일고시학원","tel":"031-382-4000","addr":"경기도 안양시 동안구 호계동 1047-8번지","indutype":"학원 - 기타 교육기관","category":"study"}]},{"lat":"37.365744774","long":"126.96133984","imageIndex":16,"items":[{"name":"블루영어","tel":"070-4063-7652","addr":"경기도 안양시 동안구 호계동 811번지 호계2차현대홈타운","indutype":"회원제형태 - 학원","category":"study"}]},{"lat":"37.365808924","long":"126.96453448","imageIndex":16,"items":[{"name":"비케이음악교습소","tel":"031-904-7447","addr":"경기도 안양시 동안구 호계동 826-2번지","indutype":"학원 - 예·체능계학원","category":"study"},{"name":"삼성영어쎈수학호성학원","tel":"031-457-0505","addr":"경기도 안양시 동안구 호계동 826-2번지","indutype":"학원 - 외국어학원","category":"study"},{"name":"제우스학원","tel":"031-348-7223","addr":"경기도 안양시 동안구 호계동 826-2번지","indutype":"학원 - 보습학원","category":"study"}]},{"lat":"37.366222124","long":"126.960809","imageIndex":16,"items":[{"name":"빨강토마토어린이집[아이행복]","tel":"031-342-8598","addr":"경기도 안양시 동안구 호계동 811번지 호계2차현대홈타운","indutype":"학원 - 유아원","category":"study"}]},{"lat":"37.37679744","long":"126.95410796","imageIndex":16,"items":[{"name":"사랑채움 어린이집[아이행복]","tel":"031-429-0102","addr":"경기도 안양시 동안구 호계동 940번지 에이치에이치아이브라운빌3차","indutype":"학원 - 유아원","category":"study"},{"name":"청포도어린이집[아이행복]","tel":"031-455-7940","addr":"경기도 안양시 동안구 호계동 940번지 에이치에이치아이브라운빌3차","indutype":"학원 - 유아원","category":"study"}]},{"lat":"37.366196415","long":"126.96470362","imageIndex":16,"items":[{"name":"삼성영어해법수학호성학원","tel":"031-457-0505","addr":"경기도 안양시 동안구 호계동 822-7번지","indutype":"학원 - 외국어학원","category":"study"},{"name":"위너스수학학원","tel":"031-429-2468","addr":"경기도 안양시 동안구 호계동 822-7번지","indutype":"학원 - 보습학원","category":"study"},{"name":"호성독서실","tel":"031-451-8209","addr":"경기도 안양시 동안구 호계동 822-7번지","indutype":"학원 - 기타 교육기관","category":"study"}]},{"lat":"37.390110363","long":"126.94517844","imageIndex":16,"items":[{"name":"상명1음악교습소","tel":"031-455-2064","addr":"경기도 안양시 동안구 호계동 895번지","indutype":"학원 - 예·체능계학원","category":"study"},{"name":"상명실용음악학원","tel":"031-455-1064","addr":"경기도 안양시 동안구 호계동","indutype":"회원제형태 - 학원","category":"study"},{"name":"한마음태권도","tel":"031-452-8669","addr":"경기도 안양시 동안구 호계동","indutype":"학원 - 예·체능계학원","category":"study"}]},{"lat":"37.379333943","long":"126.96714703","imageIndex":16,"items":[{"name":"샘마을 경희체육관","tel":"031-458-3398","addr":"경기도 안양시 동안구 호계동","indutype":"학원 - 예·체능계학원","category":"study"},{"name":"샘수학교습소","tel":"031-429-4070","addr":"경기도 안양시 동안구 호계동 1115번지","indutype":"학원 - 보습학원","category":"study"},{"name":"세담피아노음악교습소","tel":"031-454-7108","addr":"경기도 안양시 동안구 호계동 1115번지","indutype":"학원 - 예·체능계학원","category":"study"},{"name":"실전영어교습소","tel":"031-474-3366","addr":"경기도 안양시 동안구 호계동 1115번지","indutype":"회원제형태 - 학원","category":"study"},{"name":"잉글리시아이안양남초점영어교습소","tel":"","addr":"경기도 안양시 동안구 호계동 1115번지","indutype":"학원 - 외국어학원","category":"study"}]},{"lat":"37.382250315","long":"126.95856441","imageIndex":16,"items":[{"name":"생각나무미술교습소","tel":"031-429-1555","addr":"경기도 안양시 동안구 호계동 1063-6번지","indutype":"학원 - 예·체능계학원","category":"study"}]},{"lat":"37.36975319","long":"126.95833469","imageIndex":16,"items":[{"name":"샤론무용학원","tel":"031-453-3634","addr":"경기도 안양시 동안구 호계동 1005-3번지","indutype":"학원 - 예·체능계학원","category":"study"}]},{"lat":"37.383112635","long":"126.95198112","imageIndex":16,"items":[{"name":"서울예술실용음악학원","tel":"031-421-2017","addr":"경기도 안양시 동안구 호계동 923-13번지","indutype":"학원 - 예·체능계학원","category":"study"}]},{"lat":"37.382223386","long":"126.95883542","imageIndex":16,"items":[{"name":"성실학원","tel":"070-4348-2176","addr":"경기도 안양시 동안구 호계동 1063-6번지","indutype":"학원 - 보습학원","category":"study"}]},{"lat":"37.371555156","long":"126.95817557","imageIndex":16,"items":[{"name":"성심간호학원","tel":"031-455-6944","addr":"경기도 안양시 동안구 호계동 996-7번지","indutype":"학원 - 기능학원","category":"study"}]},{"lat":"37.381051813","long":"126.95814736","imageIndex":16,"items":[{"name":"소리뜰음악교습소","tel":"031-388-6546","addr":"경기도 안양시 동안구 호계동 1070-14번지","indutype":"학원 - 예·체능계학원","category":"study"}]},{"lat":"37.388556143","long":"126.95535376","imageIndex":16,"items":[{"name":"수학과외","tel":"","addr":"경기도 안양시 동안구 호계동 1052-3번지 목련우성아파트","indutype":"학원 - 기타 교육기관","category":"study"}]},{"lat":"37.378505447","long":"126.96861519","imageIndex":16,"items":[{"name":"수학클리닉학원","tel":"031-429-5895","addr":"경기도 안양시 동안구 호계동 1116번지","indutype":"학원 - 보습학원","category":"study"},{"name":"참즐거운피아노교습소","tel":"031-456-7490","addr":"경기도 안양시 동안구 호계동 1116번지 샘마을아파트","indutype":"학원 - 예·체능계학원","category":"study"}]},{"lat":"37.38464339","long":"126.94978955","imageIndex":16,"items":[{"name":"숙명조이피아노","tel":"","addr":"경기도 안양시 동안구 호계동 918-34번지","indutype":"학원 - 예·체능계학원","category":"study"}]},{"lat":"37.363564249","long":"126.96113785","imageIndex":16,"items":[{"name":"스마트어린이집[아이행복]","tel":"031-342-3927","addr":"경기도 안양시 동안구 호계동 811번지 호계2차현대홈타운","indutype":"학원 - 유아원","category":"study"}]},{"lat":"37.383282023","long":"126.94795003","imageIndex":16,"items":[{"name":"스포츠프렌즈,한국유소년스포츠교육원","tel":"031-429-5579","addr":"경기도 안양시 동안구 호계동 921-2번지","indutype":"학원 - 예·체능계학원","category":"study"}]},{"lat":"37.37861088","long":"126.96033917","imageIndex":16,"items":[{"name":"시그마신샘학원","tel":"031-452-8879","addr":"경기도 안양시 동안구 호계동 1083-3번지","indutype":"학원 - 보습학원","category":"study"}]},{"lat":"37.391835553","long":"126.95469673","imageIndex":16,"items":[{"name":"시사플러스어학원","tel":"031-383-1582","addr":"경기도 안양시 동안구 호계동","indutype":"학원 - 외국어학원","category":"study"},{"name":"에스비에스뷰티미용학원","tel":"031-384-8009","addr":"경기도 안양시 동안구 호계동 1043-1번지","indutype":"학원 - 기능학원","category":"study"},{"name":"오른어학학원","tel":"031-388-1514","addr":"경기도 안양시 동안구 호계동 1043-1번지","indutype":"학원 - 외국어학원","category":"study"},{"name":"주식회사 홍인","tel":"031-383-8088","addr":"경기도 안양시 동안구 호계동 1043-1번지","indutype":"회원제형태 - 학원","category":"study"}]},{"lat":"37.38116956","long":"126.95980705","imageIndex":16,"items":[{"name":"시선과 공감 학원","tel":"031-382-0401","addr":"경기도 안양시 동안구 호계동 1072-9번지","indutype":"학원 - 보습학원","category":"study"}]},{"lat":"37.391695549","long":"126.94398022","imageIndex":16,"items":[{"name":"시스니처호계독서실","tel":"031-5033-5325","addr":"경기도 안양시 동안구 호계동 894-1번지","indutype":"학원 - 독서실","category":"study"},{"name":"유일우리학원","tel":"031-342-5214","addr":"경기도 안양시 동안구 호계동 894-1번지","indutype":"학원 - 보습학원","category":"study"}]},{"lat":"37.379004309","long":"126.95265005","imageIndex":16,"items":[{"name":"신기어린이집[아이행복]","tel":"031-452-0525","addr":"경기도 안양시 동안구 호계동 935-15번지","indutype":"학원 - 유아원","category":"study"}]},{"lat":"37.378637432","long":"126.95902945","imageIndex":16,"items":[{"name":"신기중학교","tel":"031-459-4027","addr":"경기도 안양시 동안구 호계동 1075-1번지","indutype":"학원 - 초중고교육기관","category":"study"}]},{"lat":"37.374060458","long":"126.95948371","imageIndex":16,"items":[{"name":"신샘보습학원","tel":"031-349-8879","addr":"경기도 안양시 동안구 호계동 994-7번지","indutype":"학원 - 보습학원","category":"study"},{"name":"예술피아노학원","tel":"031-454-0412","addr":"경기도 안양시 동안구 호계동 994-7번지","indutype":"학원 - 예·체능계학원","category":"study"}]},{"lat":"37.383525233","long":"126.94781436","imageIndex":16,"items":[{"name":"쎈학원","tel":"031-458-3008","addr":"경기도 안양시 동안구 호계동 921-5번지","indutype":"회원제형태 - 학원","category":"study"},{"name":"타래무용학원","tel":"031-457-7417","addr":"경기도 안양시 동안구 호계동","indutype":"학원 - 예·체능계학원","category":"study"}]},{"lat":"37.381859808","long":"126.95101094","imageIndex":16,"items":[{"name":"아기꿈어린이집[아이행복]","tel":"031-349-0088","addr":"경기도 안양시 동안구 호계동 927번지 흥화아파트","indutype":"학원 - 유아원","category":"study"},{"name":"엘가음악학원","tel":"031-458-7067","addr":"경기도 안양시 동안구 호계동 927번지","indutype":"학원 - 예·체능계학원","category":"study"},{"name":"큰꿈어린이집[아이행복]","tel":"031-458-0908","addr":"경기도 안양시 동안구 호계동 927번지 흥화아파트","indutype":"학원 - 유아원","category":"study"},{"name":"토마스잉글리시한솔플러스수학학원","tel":"031-455-0809","addr":"경기도 안양시 동안구 호계동 927번지 흥화아파트","indutype":"학원 - 보습학원","category":"study"}]},{"lat":"37.382111545","long":"126.94978004","imageIndex":16,"items":[{"name":"아뜰갤러리학원","tel":"031-453-1117","addr":"경기도 안양시 동안구 호계동 924-7번지","indutype":"학원 - 예·체능계학원","category":"study"}]},{"lat":"37.376697739","long":"126.95269675","imageIndex":16,"items":[{"name":"아름학원","tel":"031-458-7635","addr":"경기도 안양시 동안구 호계동 335-54번지","indutype":"학원 - 기타 교육기관","category":"study"},{"name":"좋은샘음악학원","tel":"031-458-1505","addr":"경기도 안양시 동안구 호계동 335-54번지","indutype":"학원 - 예·체능계학원","category":"study"},{"name":"호원태권도장","tel":"031-452-3435","addr":"경기도 안양시 동안구 호계동 335-54번지","indutype":"학원 - 예·체능계학원","category":"study"}]},{"lat":"37.3764904","long":"126.9524485","imageIndex":16,"items":[{"name":"아이랜드 어린이집[아이행복]","tel":"031-429-7089","addr":"경기도 안양시 동안구 호계동 337번지 흥화브라운빌아파트","indutype":"학원 - 유아원","category":"study"}]},{"lat":"37.363411478","long":"126.96228934","imageIndex":16,"items":[{"name":"아이별어린이집[아이행복]","tel":"031-459-1157","addr":"경기도 안양시 동안구 호계동 813번지 호계e-편한세상아파트","indutype":"학원 - 유아원","category":"study"}]},{"lat":"37.384083938","long":"126.94798332","imageIndex":16,"items":[{"name":"아이비티주니어영어학원","tel":"031-454-9079","addr":"경기도 안양시 동안구 호계동 920-7번지","indutype":"회원제형태 - 학원","category":"study"}]},{"lat":"37.363897865","long":"126.96182625","imageIndex":16,"items":[{"name":"아이조아어린이집[아이행복]","tel":"031-342-2009","addr":"경기도 안양시 동안구 호계동 813번지 호계e-편한세상아파트","indutype":"학원 - 유아원","category":"study"}]},{"lat":"37.363446811","long":"126.96028001","imageIndex":16,"items":[{"name":"안단테기타교실","tel":"031-429-2332","addr":"경기도 안양시 동안구 호계동 804-9번지","indutype":"학원 - 예·체능계학원","category":"study"},{"name":"웰빙레지던스 안양호계점","tel":"031-429-3003","addr":"경기도 안양시 동안구 호계동 804-9번지","indutype":"학원 - 독서실","category":"study"},{"name":"이공수학교습소","tel":"070-8873-6560","addr":"경기도 안양시 동안구 호계동 804-9번지","indutype":"학원 - 보습학원","category":"study"}]},{"lat":"37.379640851","long":"126.9690663","imageIndex":16,"items":[{"name":"안양남초등학교","tel":"031-458-7814","addr":"경기도 안양시 동안구 호계동 1215번지","indutype":"학원 - 초중고교육기관","category":"study"},{"name":"안양남초등학교병설유치원[아이행복]","tel":"070-7114-2370","addr":"경기도 안양시 동안구 호계동 1215번지","indutype":"학원 - 유치원","category":"study"}]},{"lat":"37.375692219","long":"126.96209079","imageIndex":16,"items":[{"name":"안양덕현초등학교","tel":"031-456-8093","addr":"경기도 안양시 동안구 호계동 1101번지","indutype":"학원 - 초중고교육기관","category":"study"}]},{"lat":"37.388192529","long":"126.94794645","imageIndex":16,"items":[{"name":"안양벧엘요양보호사교육원","tel":"031-454-7221","addr":"경기도 안양시 동안구 호계동 904-3번지","indutype":"학원 - 기능학원","category":"study"},{"name":"정글M실용음악학원","tel":"031-689-4142","addr":"경기도 안양시 동안구 호계동 904-3번지","indutype":"학원 - 예·체능계학원","category":"study"},{"name":"큰 실용음악학원(KN MUSIC)","tel":"031-451-0011","addr":"경기도 안양시 동안구 호계동 904-3번지","indutype":"학원 - 예·체능계학원","category":"study"}]},{"lat":"37.382698204","long":"126.95206044","imageIndex":16,"items":[{"name":"안양사진학원","tel":"031-477-7447","addr":"경기도 안양시 동안구 호계동 925-11번지","indutype":"회원제형태 - 학원","category":"study"}]},{"lat":"37.381778221","long":"126.94989319","imageIndex":16,"items":[{"name":"안양실용음악학원","tel":"031-427-8323","addr":"경기도 안양시 동안구 호계동 928-6번지","indutype":"학원 - 예·체능계학원","category":"study"}]},{"lat":"37.388057472","long":"126.9481498","imageIndex":16,"items":[{"name":"안양제일검정고시학원","tel":"031-446-5001","addr":"경기도 안양시 동안구 호계동 904-7번지","indutype":"학원 - 보습학원","category":"study"}]},{"lat":"37.389721793","long":"126.94289771","imageIndex":16,"items":[{"name":"안양호계한마음임광점뮤엠영어교습소","tel":"","addr":"경기도 안양시 동안구 호계동 892-9번지","indutype":"학원 - 외국어학원","category":"study"}]},{"lat":"37.375949267","long":"126.95122952","imageIndex":16,"items":[{"name":"안양호원검도관","tel":"031-427-2131","addr":"경기도 안양시 동안구 호계동 570번지","indutype":"학원 - 예·체능계학원","category":"study"}]},{"lat":"37.386274405","long":"126.95020619","imageIndex":16,"items":[{"name":"엄지어린이집[아이행복]","tel":"031-456-2208","addr":"경기도 안양시 동안구 호계동 917-10번지","indutype":"학원 - 유아원","category":"study"}]},{"lat":"37.38827719","long":"126.9562573","imageIndex":16,"items":[{"name":"업그레이드 영어","tel":"070-8760-0987","addr":"경기도 안양시 동안구 호계동 1052-5번지 목련우성아파트","indutype":"학원 - 보습학원","category":"study"}]},{"lat":"37.376304448","long":"126.96078079","imageIndex":16,"items":[{"name":"에스엠에스잉글리쉬클럽","tel":"031-383-0303","addr":"경기도 안양시 동안구 호계동 1096-1번지","indutype":"학원 - 외국어학원","category":"study"}]},{"lat":"37.38386331","long":"126.95906028","imageIndex":16,"items":[{"name":"에스유투만화미술학원","tel":"031-382-4244","addr":"경기도 안양시 동안구 호계동 1058-5번지","indutype":"학원 - 예·체능계학원","category":"study"},{"name":"일등독서실","tel":"070-7404-8255","addr":"경기도 안양시 동안구 호계동 1058-5번지","indutype":"학원 - 독서실","category":"study"},{"name":"주식회사 에스원사회교육","tel":"031-476-1952","addr":"경기도 안양시 동안구 호계동 1058-5번지","indutype":"학원 - 보습학원","category":"study"},{"name":"평촌종로2관학원","tel":"031-342-1880","addr":"경기도 안양시 동안구 호계동 1058-5번지","indutype":"학원 - 보습학원","category":"study"}]},{"lat":"37.379941618","long":"126.95325912","imageIndex":16,"items":[{"name":"에스피파워 영어학원","tel":"031-427-9505","addr":"경기도 안양시 동안구 호계동 934번지","indutype":"학원 - 보습학원","category":"study"}]},{"lat":"37.376139406","long":"126.95339711","imageIndex":16,"items":[{"name":"영재들의미술상자미술교습소","tel":"031-348-3396","addr":"경기도 안양시 동안구 호계동 940-37번지","indutype":"학원 - 예·체능계학원","category":"study"}]},{"lat":"37.385886906","long":"126.95005967","imageIndex":16,"items":[{"name":"예담음악학원","tel":"031-451-3610","addr":"경기도 안양시 동안구 호계동 917-5번지","indutype":"학원 - 예·체능계학원","category":"study"}]},{"lat":"37.374233421","long":"126.96460922","imageIndex":16,"items":[{"name":"예향키즈피아어린이집[아이행복]","tel":"031-429-3030","addr":"경기도 안양시 동안구 호계동 1121번지 샘마을대우,한양아파트","indutype":"학원 - 유아원","category":"study"}]},{"lat":"37.375448654","long":"126.96125545","imageIndex":16,"items":[{"name":"오제이수학교습소","tel":"02-802-0350","addr":"경기도 안양시 동안구 호계동 1102-3번지","indutype":"회원제형태 - 학원","category":"study"}]},{"lat":"37.376634325","long":"126.95189518","imageIndex":16,"items":[{"name":"올 (ALL)바른영어","tel":"","addr":"경기도 안양시 동안구 호계동 570번지 럭키호계아파트","indutype":"학원 - 기타 교육기관","category":"study"}]},{"lat":"37.382529826","long":"126.95909493","imageIndex":16,"items":[{"name":"올담에듀영어교습소","tel":"031-381-7622","addr":"경기도 안양시 동안구 호계동 1064-5번지","indutype":"학원 - 외국어학원","category":"study"}]},{"lat":"37.373221645","long":"126.9571698","imageIndex":16,"items":[{"name":"용인대호계유도관","tel":"031-453-6210","addr":"경기도 안양시 동안구 호계동 949번지","indutype":"학원 - 예·체능계학원","category":"study"}]},{"lat":"37.388600297","long":"126.95317437","imageIndex":16,"items":[{"name":"우리별어린이집[아이행복]","tel":"031-383-9828","addr":"경기도 안양시 동안구 호계동 1052번지 목련선경아파트","indutype":"학원 - 유아원","category":"study"}]},{"lat":"37.377637476","long":"126.95948165","imageIndex":16,"items":[{"name":"웅진보습학원","tel":"031-452-2804","addr":"경기도 안양시 동안구 호계동 1085-11번지","indutype":"학원 - 보습학원","category":"study"}]},{"lat":"37.372137142","long":"126.94933549","imageIndex":16,"items":[{"name":"워터스쿨커피아카데미학원","tel":"031-399-8178","addr":"경기도 안양시 동안구 호계동 555-15번지","indutype":"학원 - 기능학원","category":"study"}]},{"lat":"37.378088093","long":"126.95978623","imageIndex":16,"items":[{"name":"원수학교습소","tel":"031-459-8609","addr":"경기도 안양시 동안구 호계동 1084-3번지","indutype":"회원제형태 - 학원","category":"study"}]},{"lat":"37.386580658","long":"126.95000272","imageIndex":16,"items":[{"name":"위드피아노안양학원","tel":"070-7798-9374","addr":"경기도 안양시 동안구 호계동 917-2번지","indutype":"학원 - 예·체능계학원","category":"study"}]},{"lat":"37.37478156","long":"126.96028488","imageIndex":16,"items":[{"name":"유니클레이조형공예교습소","tel":"070-8171-0094","addr":"경기도 안양시 동안구 호계동 990-5번지 삼신아파트","indutype":"학원 - 예·체능계학원","category":"study"}]},{"lat":"37.38597643","long":"126.94878365","imageIndex":16,"items":[{"name":"유옥색소폰음악학원","tel":"031-429-2686","addr":"경기도 안양시 동안구 호계동 914-40번지","indutype":"학원 - 예·체능계학원","category":"study"},{"name":"호계삼성영어교습소","tel":"031-425-0525","addr":"경기도 안양시 동안구 호계동 914-40번지","indutype":"학원 - 외국어학원","category":"study"}]},{"lat":"37.382502649","long":"126.95869976","imageIndex":16,"items":[{"name":"유잉글리시비에프씨학원","tel":"031-382-2780","addr":"경기도 안양시 동안구 호계동 1063-8번지","indutype":"학원 - 보습학원","category":"study"}]},{"lat":"37.382192309","long":"126.94905735","imageIndex":16,"items":[{"name":"유피스카이학원","tel":"031-348-8009","addr":"경기도 안양시 동안구 호계동 924번지","indutype":"학원 - 기타 교육기관","category":"study"}]},{"lat":"37.380753085","long":"126.9546022","imageIndex":16,"items":[{"name":"육아일기어린이집[아이행복]","tel":"031-341-7811","addr":"경기도 안양시 동안구 호계동 1055-1번지 무궁화코오롱,건영아파트","indutype":"학원 - 유아원","category":"study"}]},{"lat":"37.373222849","long":"126.96039866","imageIndex":16,"items":[{"name":"으뜸학원","tel":"031-429-6096","addr":"경기도 안양시 동안구 호계동 998-30번지","indutype":"학원 - 기타 교육기관","category":"study"}]},{"lat":"37.389754189","long":"126.95461901","imageIndex":16,"items":[{"name":"이든아이어린이집[아이행복]","tel":"031-388-8715","addr":"경기도 안양시 동안구 호계동 1052-3번지 목련우성아파트","indutype":"학원 - 유아원","category":"study"}]},{"lat":"37.378754862","long":"126.95984231","imageIndex":16,"items":[{"name":"이레키즈아트어린이집[아이행복]","tel":"031-454-1908","addr":"경기도 안양시 동안구 호계동 1076-4번지","indutype":"학원 - 유아원","category":"study"}]},{"lat":"37.378556758","long":"126.96016984","imageIndex":16,"items":[{"name":"이룸영어교습소","tel":"031-477-7734","addr":"경기도 안양시 동안구 호계동 1083-2번지","indutype":"학원 - 외국어학원","category":"study"}]},{"lat":"37.377421626","long":"126.96056565","imageIndex":16,"items":[{"name":"이상미술교습소","tel":"031-455-9505","addr":"경기도 안양시 동안구 호계동 1087-5번지","indutype":"학원 - 예·체능계학원","category":"study"}]},{"lat":"37.390419852","long":"126.95203264","imageIndex":16,"items":[{"name":"이엔티실용음악학원","tel":"031-387-3422","addr":"경기도 안양시 동안구 호계동 1045-2번지","indutype":"회원제형태 - 학원","category":"study"}]},{"lat":"37.375420031","long":"126.95695395","imageIndex":16,"items":[{"name":"이지아이엠영수학원","tel":"031-452-1255","addr":"경기도 안양시 동안구 호계동 985-2번지","indutype":"학원 - 보습학원","category":"study"}]},{"lat":"37.380971379","long":"126.95992007","imageIndex":16,"items":[{"name":"이지학원","tel":"031-388-0703","addr":"경기도 안양시 동안구 호계동 1071-10번지","indutype":"학원 - 보습학원","category":"study"}]},{"lat":"37.367895576","long":"126.9544524","imageIndex":16,"items":[{"name":"인스피드 체대입시","tel":"031-427-2418","addr":"경기도 안양시 동안구 호계동 721-10번지","indutype":"학원 - 예·체능계학원","category":"study"}]},{"lat":"37.38428239","long":"126.94848","imageIndex":16,"items":[{"name":"일신어린이집[아이행복]","tel":"031-455-3874","addr":"경기도 안양시 동안구 호계동 920-4번지 일신아파트","indutype":"학원 - 유아원","category":"study"}]},{"lat":"37.383525526","long":"126.94844667","imageIndex":16,"items":[{"name":"자람어린이집[아이행복]","tel":"031-453-8358","addr":"경기도 안양시 동안구 호계동 923-28번지 호계동신도브래뉴","indutype":"학원 - 유아원","category":"study"}]},{"lat":"37.388591687","long":"126.9541342","imageIndex":16,"items":[{"name":"재미나라어린이집[아이행복]","tel":"031-381-3591","addr":"경기도 안양시 동안구 호계동 1052번지 목련선경아파트","indutype":"학원 - 유아원","category":"study"}]},{"lat":"37.381583375","long":"126.95805671","imageIndex":16,"items":[{"name":"정선생 공부방","tel":"031-385-0928","addr":"경기도 안양시 동안구 호계동 1069-1번지","indutype":"학원 - 보습학원","category":"study"}]},{"lat":"37.382421642","long":"126.95892563","imageIndex":16,"items":[{"name":"정진미영어수학학원","tel":"031-382-6789","addr":"경기도 안양시 동안구 호계동 1063-4번지","indutype":"학원 - 보습학원","category":"study"}]},{"lat":"37.382914461","long":"126.95209417","imageIndex":16,"items":[{"name":"제이국영수학원","tel":"031-451-0102","addr":"경기도 안양시 동안구 호계동 925-49번지","indutype":"학원 - 보습학원","category":"study"}]},{"lat":"37.385003692","long":"126.94956346","imageIndex":16,"items":[{"name":"제이와이영어교습소","tel":"","addr":"경기도 안양시 동안구 호계동 918-61번지 다복빌라","indutype":"학원 - 외국어학원","category":"study"}]},{"lat":"37.38754508","long":"126.95076989","imageIndex":16,"items":[{"name":"조은아이어린이집[아이행복]","tel":"070-7567-1227","addr":"경기도 안양시 동안구 호계동 1053-2번지 목련선경아파트","indutype":"학원 - 유아원","category":"study"}]},{"lat":"37.381608976","long":"126.95443229","imageIndex":16,"items":[{"name":"짱장스포츠","tel":"031-792-8544","addr":"경기도 안양시 동안구 호계동 1055번지 무궁화효성,한양아파트","indutype":"학원 - 기타 교육기관","category":"study"}]},{"lat":"37.381610761","long":"126.95900514","imageIndex":16,"items":[{"name":"착한수학학원","tel":"031-385-3579","addr":"경기도 안양시 동안구 호계동 1068-1번지","indutype":"학원 - 보습학원","category":"study"},{"name":"착한수학학원","tel":"031-385-3579","addr":"경기도 안양시 동안구 호계동 1068-1번지","indutype":"학원 - 보습학원","category":"study"}]},{"lat":"37.381529442","long":"126.95839547","imageIndex":16,"items":[{"name":"채움수학학원","tel":"031-392-5844","addr":"경기도 안양시 동안구 호계동 1069-3번지","indutype":"회원제형태 - 학원","category":"study"}]},{"lat":"37.37531876","long":"126.95169285","imageIndex":16,"items":[{"name":"천사어린이집[아이행복]","tel":"031-453-9371","addr":"경기도 안양시 동안구 호계동 570번지 럭키호계아파트","indutype":"학원 - 유아원","category":"study"}]},{"lat":"37.373448122","long":"126.96045499","imageIndex":16,"items":[{"name":"청산보습학원","tel":"031-459-5177","addr":"경기도 안양시 동안구 호계동 993-5번지","indutype":"학원 - 보습학원","category":"study"}]},{"lat":"37.384579531","long":"126.948062","imageIndex":16,"items":[{"name":"초록나무어린이집[아이행복]","tel":"031-429-8881","addr":"경기도 안양시 동안구 호계동 920번지 호계동효성아파트","indutype":"학원 - 유아원","category":"study"}]},{"lat":"37.379085809","long":"126.95362098","imageIndex":16,"items":[{"name":"최선생파워수학교습소","tel":"031-455-9295","addr":"경기도 안양시 동안구 호계동 934-22번지","indutype":"회원제형태 - 학원","category":"study"}]},{"lat":"37.391357633","long":"126.95375976","imageIndex":16,"items":[{"name":"케이에이지이(KAGE)교육학원","tel":"031-386-2964","addr":"경기도 안양시 동안구 호계동","indutype":"학원 - 보습학원","category":"study"}]},{"lat":"37.386102915","long":"126.9495401","imageIndex":16,"items":[{"name":"큰사랑어린이집","tel":"031-453-9947","addr":"경기도 안양시 동안구 호계동 914-40번지 호계1차현대홈타운","indutype":"학원 - 유치원","category":"study"},{"name":"큰사랑어린이집[아이행복]","tel":"031-453-9947","addr":"경기도 안양시 동안구 호계동 914-40번지 호계1차현대홈타운","indutype":"학원 - 유아원","category":"study"}]},{"lat":"37.391974681","long":"126.94361864","imageIndex":16,"items":[{"name":"키즈베이(KIDS BAY)","tel":"031-427-3382","addr":"경기도 안양시 동안구 호계동 894번지","indutype":"학원 - 기타 교육기관","category":"study"}]},{"lat":"37.363394045","long":"126.96403903","imageIndex":16,"items":[{"name":"키즈빌리지학원","tel":"031-427-2117","addr":"경기도 안양시 동안구 호계동 1278번지 호계동금호어울림","indutype":"회원제형태 - 학원","category":"study"}]},{"lat":"37.389970697","long":"126.95527382","imageIndex":16,"items":[{"name":"키즈솔어린이집[아이행복]","tel":"031-347-6100","addr":"경기도 안양시 동안구 호계동 1052-3번지 목련우성아파트","indutype":"학원 - 유아원","category":"study"}]},{"lat":"37.365304227","long":"126.96413964","imageIndex":16,"items":[{"name":"킹콩유아체육","tel":"031-476-5007","addr":"경기도 안양시 동안구 호계동 819-2번지 일신건영장미아파트","indutype":"학원 - 기타 교육기관","category":"study"}]},{"lat":"37.378745134","long":"126.95791162","imageIndex":16,"items":[{"name":"태영뜰어린이집[아이행복]","tel":"031-347-8290","addr":"경기도 안양시 동안구 호계동 1075번지 무궁화아파트","indutype":"학원 - 유아원","category":"study"}]},{"lat":"37.364527737","long":"126.95947792","imageIndex":16,"items":[{"name":"토즈스터디센터 호계 독서실","tel":"031-427-2035","addr":"경기도 안양시 동안구 호계동 802-5번지","indutype":"학원 - 독서실","category":"study"}]},{"lat":"37.362591539","long":"126.96224463","imageIndex":16,"items":[{"name":"파랑토끼어린이집[아이행복]","tel":"031-427-8487","addr":"경기도 안양시 동안구 호계동 813번지 호계e-편한세상아파트","indutype":"학원 - 유아원","category":"study"}]},{"lat":"37.386087087","long":"126.95464395","imageIndex":16,"items":[{"name":"평촌고등학교","tel":"031-383-4823","addr":"경기도 안양시 동안구 호계동 1054번지","indutype":"학원 - 초중고교육기관","category":"study"},{"name":"평촌고등학교_수업료","tel":"031-383-4823","addr":"경기도 안양시 동안구 호계동 1054번지","indutype":"학원 - 초중고교육기관","category":"study"}]},{"lat":"37.376608752","long":"126.95539517","imageIndex":16,"items":[{"name":"평촌고려학원","tel":"031-459-4030","addr":"경기도 안양시 동안구 호계동","indutype":"학원 - 기타 교육기관","category":"study"}]},{"lat":"37.374530129","long":"126.96272365","imageIndex":16,"items":[{"name":"평촌공업고등학교","tel":"031-390-4800","addr":"경기도 안양시 동안구 호계동 1105번지","indutype":"학원 - 초중고교육기관","category":"study"},{"name":"평촌공업고등학교_수업료","tel":"031-390-4800","addr":"경기도 안양시 동안구 호계동 1105번지","indutype":"학원 - 초중고교육기관","category":"study"}]},{"lat":"37.390222449","long":"126.95397505","imageIndex":16,"items":[{"name":"평촌박문각성인고시학원","tel":"031-385-3355","addr":"경기도 안양시 동안구 호계동 1049번지","indutype":"학원 - 기능학원","category":"study"}]},{"lat":"37.375142025","long":"126.96045403","imageIndex":16,"items":[{"name":"평촌서머힐어린이집[아이행복]","tel":"031-452-0411","addr":"경기도 안양시 동안구 호계동 990-27번지 평촌서머힐","indutype":"학원 - 유아원","category":"study"}]},{"lat":"37.385336085","long":"126.94742912","imageIndex":16,"items":[{"name":"하늘숲 미술학원","tel":"031-455-0678","addr":"경기도 안양시 동안구 호계동 912번지","indutype":"학원 - 예·체능계학원","category":"study"}]},{"lat":"37.367310487","long":"126.95586388","imageIndex":16,"items":[{"name":"하우스텔","tel":"031-212-4564","addr":"경기도 안양시 동안구 호계동 971-20번지","indutype":"학원 - 독서실","category":"study"}]},{"lat":"37.376554055","long":"126.95383716","imageIndex":16,"items":[{"name":"하이탑학원","tel":"070-8614-5177","addr":"경기도 안양시 동안구 호계동 940번지","indutype":"학원 - 보습학원","category":"study"}]},{"lat":"37.391434206","long":"126.94387879","imageIndex":16,"items":[{"name":"한마음어린이집[아이행복]","tel":"031-425-0396","addr":"경기도 안양시 동안구 호계동 893-1번지 한마음2차아파트","indutype":"학원 - 유아원","category":"study"}]},{"lat":"37.379941779","long":"126.95364301","imageIndex":16,"items":[{"name":"한빛독서실","tel":"031-429-7050","addr":"경기도 안양시 동안구 호계동 934-2번지","indutype":"학원 - 독서실","category":"study"}]},{"lat":"37.387908054","long":"126.95696892","imageIndex":16,"items":[{"name":"해나어린이집[아이행복]","tel":"031-624-3940","addr":"경기도 안양시 동안구 호계동 1052-5번지 목련우성아파트","indutype":"학원 - 유아원","category":"study"}]},{"lat":"37.389957399","long":"126.94560767","imageIndex":16,"items":[{"name":"해늘어린이집[아이행복]","tel":"031-346-6373","addr":"경기도 안양시 동안구 호계동 895번지 한마음아파트","indutype":"학원 - 유아원","category":"study"}]},{"lat":"37.386275177","long":"126.95196769","imageIndex":16,"items":[{"name":"해오름공부방","tel":"031-3847-7273","addr":"경기도 안양시 동안구 호계동 1053-3번지 목련신동아아파트","indutype":"학원 - 기타 교육기관","category":"study"}]},{"lat":"37.388943459","long":"126.95505992","imageIndex":16,"items":[{"name":"행복한우리어린이집[아이행복]","tel":"031-383-6729","addr":"경기도 안양시 동안구 호계동 1052-3번지 목련우성아파트","indutype":"학원 - 유아원","category":"study"}]},{"lat":"37.391249819","long":"126.95450513","imageIndex":16,"items":[{"name":"현대고시원","tel":"031-388-4122","addr":"경기도 안양시 동안구 호계동 1044-5번지","indutype":"학원 - 독서실","category":"study"}]},{"lat":"37.36788686","long":"126.95517489","imageIndex":16,"items":[{"name":"현대리빙텔","tel":"031-477-7738","addr":"경기도 안양시 동안구 호계동 971-10번지","indutype":"학원 - 독서실","category":"study"}]},{"lat":"37.38511119","long":"126.94819711","imageIndex":16,"items":[{"name":"현대제이에스수학교습소","tel":"031-427-6425","addr":"경기도 안양시 동안구 호계동 912-2번지","indutype":"학원 - 기타 교육기관","category":"study"}]},{"lat":"37.367554887","long":"126.95878755","imageIndex":16,"items":[{"name":"호계꿈어린이집[아이행복]","tel":"031-427-3171","addr":"경기도 안양시 동안구 호계동 764-5번지","indutype":"학원 - 유아원","category":"study"}]},{"lat":"37.375507338","long":"126.95024759","imageIndex":16,"items":[{"name":"호계럭키해법영어교실","tel":"031-346-4825","addr":"경기도 안양시 동안구 호계동 570번지 럭키호계아파트","indutype":"학원 - 외국어학원","category":"study"}]},{"lat":"37.366779995","long":"126.95873156","imageIndex":16,"items":[{"name":"호계아이어린이집[아이행복]","tel":"031-477-2318","addr":"경기도 안양시 동안구 호계동 767-2번지 서부인터빌","indutype":"학원 - 유아원","category":"study"}]},{"lat":"37.372393754","long":"126.95994755","imageIndex":16,"items":[{"name":"호계어린이집[아이행복]","tel":"031-455-3608","addr":"경기도 안양시 동안구 호계동 998-8번지","indutype":"학원 - 유아원","category":"study"}]},{"lat":"37.385418676","long":"126.9507262","imageIndex":16,"items":[{"name":"호계오투독서실","tel":"031-429-0901","addr":"경기도 안양시 동안구 호계동 918-19번지","indutype":"학원 - 독서실","category":"study"}]},{"lat":"37.378445094","long":"126.95128427","imageIndex":16,"items":[{"name":"호계중학교","tel":"031-390-1605","addr":"경기도 안양시 동안구 호계동 315-5번지","indutype":"학원 - 초중고교육기관","category":"study"}]},{"lat":"37.383886788","long":"126.95034336","imageIndex":16,"items":[{"name":"호계초등학교","tel":"031-452-7613","addr":"경기도 안양시 동안구 호계동 923-17번지","indutype":"학원 - 초중고교육기관","category":"study"},{"name":"호계초등학교병설유치원[아이행복]","tel":"031-455-1453","addr":"경기도 안양시 동안구 호계동 923-17번지","indutype":"학원 - 유치원","category":"study"}]},{"lat":"37.381247634","long":"126.95219691","imageIndex":16,"items":[{"name":"호계태권도","tel":"031-453-9960","addr":"경기도 안양시 동안구 호계동 930-30번지","indutype":"학원 - 예·체능계학원","category":"study"}]},{"lat":"37.386084019","long":"126.94763182","imageIndex":16,"items":[{"name":"호산어린이집[아이행복]","tel":"031-442-1264","addr":"경기도 안양시 동안구 호계동 914-37번지 호산아파트","indutype":"학원 - 유아원","category":"study"},{"name":"호산어린이집[아이행복]","tel":"031-442-1264","addr":"경기도 안양시 동안구 호계동 914-37번지 호산아파트","indutype":"학원 - 유아원","category":"study"},{"name":"호산어린이집[아이행복]","tel":"031-442-1264","addr":"경기도 안양시 동안구 호계동 914-37번지 호산아파트","indutype":"학원 - 유아원","category":"study"}]},{"lat":"37.363727453","long":"126.96414045","imageIndex":16,"items":[{"name":"호성어린이집[아이행복]","tel":"031-455-8367","addr":"경기도 안양시 동안구 호계동 840-6번지","indutype":"학원 - 유아원","category":"study"}]},{"lat":"37.366700791","long":"126.96411635","imageIndex":16,"items":[{"name":"호성중학교","tel":"031-451-7921","addr":"경기도 안양시 동안구 호계동 781-3번지","indutype":"학원 - 초중고교육기관","category":"study"}]},{"lat":"37.366168833","long":"126.96303291","imageIndex":16,"items":[{"name":"호성초등학교","tel":"031-453-8437","addr":"경기도 안양시 동안구 호계동 792-4번지","indutype":"학원 - 초중고교육기관","category":"study"},{"name":"호성초등학교병설유치원[아이행복]","tel":"031-458-6692","addr":"경기도 안양시 동안구 호계동 792-4번지","indutype":"학원 - 유치원","category":"study"}]},{"lat":"37.3787525","long":"126.95377927","imageIndex":16,"items":[{"name":"호원삼성영어교습소","tel":"031-341-9823","addr":"경기도 안양시 동안구 호계동 937-14번지","indutype":"학원 - 외국어학원","category":"study"}]},{"lat":"37.375310243","long":"126.95284444","imageIndex":16,"items":[{"name":"호원초등학교","tel":"031-452-6473","addr":"경기도 안양시 동안구 호계동 338번지","indutype":"학원 - 초중고교육기관","category":"study"}]},{"lat":"37.367337059","long":"126.95472369","imageIndex":16,"items":[{"name":"희망터 사회적협동조합","tel":"031-477-5901","addr":"경기도 안양시 동안구 호계동 711-1번지","indutype":"학원 - 기타 교육기관","category":"study"}]}]