[{"lat":"37.880220675","long":"127.03959629","imageIndex":4,"items":[{"name":"거성촌","tel":"031-865-4209","addr":"경기도 양주시 은현면 하패리 224-2","indutype":"일반휴게음식 - 일반한식","category":"restaurant"}]},{"lat":"37.887798825","long":"127.03517796","imageIndex":4,"items":[{"name":"광수식당","tel":"031-865-0853","addr":"경기도 양주시 은현면 하패리 358-1번지","indutype":"일반휴게음식 - 일반한식","category":"restaurant"}]},{"lat":"37.879973771","long":"127.04987162","imageIndex":4,"items":[{"name":"금나라","tel":"031-865-2428","addr":"경기도 양주시 은현면 하패리 10-1","indutype":"일반휴게음식 - 일반한식","category":"restaurant"}]},{"lat":"37.87908153","long":"127.05065534","imageIndex":4,"items":[{"name":"능이닭","tel":"031-866-9959","addr":"경기도 양주시 은현면 하패리 2-5번지 1층","indutype":"일반휴게음식 - 일반한식","category":"restaurant"},{"name":"유장춘닭개장","tel":"031-866-9959","addr":"경기도 양주시 은현면 하패리 2-5번지","indutype":"일반휴게음식 - 일반한식","category":"restaurant"}]},{"lat":"37.894798652","long":"127.03668171","imageIndex":4,"items":[{"name":"만복순대국","tel":"031-866-3987","addr":"경기도 양주시 은현면 하패리 451-6번지","indutype":"일반휴게음식 - 일반한식","category":"restaurant"}]},{"lat":"37.886296954","long":"127.02312763","imageIndex":4,"items":[{"name":"몽키네","tel":"031-859-7007","addr":"경기도 양주시 은현면 하패리 971-2번지 1층","indutype":"일반휴게음식 - 중국식","category":"restaurant"}]},{"lat":"37.879161488","long":"127.02351214","imageIndex":4,"items":[{"name":"사계절","tel":"031-868-7454","addr":"경기도 양주시 은현면 하패리 596번지 1층 일부","indutype":"일반휴게음식 - 일반한식","category":"restaurant"},{"name":"성은이커피이야기","tel":"031-865-0205","addr":"경기도 양주시 은현면 하패리 596번지 1층","indutype":"일반휴게음식 - 서양음식","category":"restaurant"}]},{"lat":"37.890495778","long":"127.0201503","imageIndex":4,"items":[{"name":"손두부마을","tel":"031-865-4896","addr":"경기도 양주시 은현면 하패리 901번지","indutype":"일반휴게음식 - 일반한식","category":"restaurant"}]},{"lat":"37.881774208","long":"127.02345603","imageIndex":4,"items":[{"name":"수라간","tel":"031-858-8588","addr":"경기도 양주시 은현면 하패리 616-3","indutype":"일반휴게음식 - 일반한식","category":"restaurant"}]},{"lat":"37.888495117","long":"127.02378757","imageIndex":4,"items":[{"name":"오성뼈다귀해장국","tel":"031-829-3353","addr":"경기도 양주시 은현면 하패리 679-2번지 1층 101호","indutype":"일반휴게음식 - 일반한식","category":"restaurant"}]},{"lat":"37.895663731","long":"127.03603407","imageIndex":4,"items":[{"name":"우리식당","tel":"031-862-7787","addr":"경기도 양주시 은현면 하패리 454-9번지","indutype":"일반휴게음식 - 일반한식","category":"restaurant"}]},{"lat":"37.897963932","long":"127.02371066","imageIndex":4,"items":[{"name":"청해원","tel":"031-868-5657","addr":"경기도 양주시 은현면 하패리 790번지 용암리 산56-7번지","indutype":"일반휴게음식 - 일반한식","category":"restaurant"}]}]