[{"lat":"37.491404163","long":"126.79035753","items":[{"name":"(KDB)스터디카페","tel":"","addr":"경기도 부천시 원미동 115-3번지 4층","category":"용역 서비스 - 사무서비스"},{"name":"강남스타일헤어","tel":"032-661-7797","addr":"경기도 부천시 원미동 115-3번지 1층","category":"보건위생 - 미용원"},{"name":"고수탕수부천원미점","tel":"032-666-8901","addr":"경기도 부천시 원미동 115-3번지 1층 일부","category":"일반휴게음식 - 중국식"},{"name":"그냥당구장","tel":"","addr":"경기도 부천시 원미동 115-3번지 2층","category":"레저업소 - 당 구 장"},{"name":"김교식치과의원","tel":"032-664-1266","addr":"경기도 부천시 원미동 115-3번지","category":"의원 - 치과의원"},{"name":"더퓨어스킨&바디","tel":"070-4193-6233","addr":"경기도 부천시 원미동 115-3번지 1층","category":"보건위생 - 화장품"},{"name":"올망똘망스튜디오","tel":"032-656-4369","addr":"경기도 부천시 원미동 115-3번지 송림빌딩 1층","category":"광학제품 - 사진관"},{"name":"와와노래연습장","tel":"032-657-9413","addr":"경기도 부천시 원미동 115-3번지 지층","category":"레저업소 - 노 래 방"},{"name":"우럼마왕만두 (원미점)","tel":"070-7848-9306","addr":"경기도 부천시 원미동 115-3번지 1층 일부","category":"일반휴게음식 - 일반한식"},{"name":"해피월드","tel":"031-796-2554","addr":"경기도 부천시 원미동 115-3번지 부원빌딩 3층 301호","category":"건강식품 - 기타건강식품"}]},{"lat":"37.496063631","long":"126.79110198","items":[{"name":"(WWW)은","tel":"","addr":"경기도 부천시 원미동 54-3번지 1층 2호","category":"신변잡화 - 가방"},{"name":"베트남식품","tel":"","addr":"경기도 부천시 원미동 54-3번지","category":"음료식품 - 기타음료식품"}]},{"lat":"37.500286188","long":"126.78938242","items":[{"name":"(주) 씨엘시스템즈","tel":"070-4906-3801","addr":"경기도 부천시 원미동 41-2번지 춘의테크노파크3차 710호","category":"사무통신 - 통신기기"},{"name":"(주)나노컴텍닥터큐","tel":"02-2694-0006","addr":"경기도 부천시 원미동 41-2번지 춘의테크노타워 206호","category":"전기제품 - 기타전기제품"},{"name":"(주)미디어밸리","tel":"031-1111-1111","addr":"경기도 부천시 원미동 41-2번지 춘의테크노파크3차 1011호","category":"전기제품 - 가전제품"},{"name":"(주)세이프티랩","tel":"070-4412-9282","addr":"경기도 부천시 원미동 41-2번지 춘의테크노파크3차 910호","category":"수리서비스 - 사무·통신기기수리"},{"name":"(주)정석이엔씨/원격지","tel":"032-655-3323","addr":"경기도 부천시 원미동 41-2번지 춘의테크노파크 312호","category":"기타 - 기타 전문점"},{"name":"늘봄식당","tel":"032-222-3737","addr":"경기도 부천시 원미동 41-2번지 춘의테크노파크3차 104,105호","category":"일반휴게음식 - 일반한식"},{"name":"로얄메드","tel":"032-623-8303","addr":"경기도 부천시 원미동 41-2번지 춘의테크노타워 1동 12층 1212호","category":"보건위생 - 의료용품"},{"name":"리치커피","tel":"032-222-0400","addr":"경기도 부천시 원미동 41-2번지 춘의테크노파크3차 1동 103호","category":"일반휴게음식 - 서양음식"},{"name":"멕메신코리아","tel":"032-719-7866","addr":"경기도 부천시 원미동 41-2번지 춘의테크노파크 1동 9층 902호","category":"서적문구 - 과학기자재"},{"name":"사단법인 한국접착코팅협회","tel":"032-656-2585","addr":"경기도 부천시 원미동 41-2번지 춘의테크노타워 12층 1206호","category":"용역 서비스 - 사무서비스"},{"name":"에프와이피그룹","tel":"02-1577-8681","addr":"경기도 부천시 원미동 41-2번지 춘의테크노타워 13층 1305호 일부","category":"사무통신 - 통신기기"},{"name":"유니솔루션","tel":"","addr":"경기도 부천시 원미동 41-2번지 춘의테크노타워 908호","category":"사무통신 - 컴퓨터"},{"name":"이마트24춘의테크노타워점","tel":"","addr":"경기도 부천시 원미동 41-2번지 춘의테크노타워 102호","category":"유통업 영리 - 편 의 점"},{"name":"이플렉스","tel":"032-329-2536","addr":"경기도 부천시 원미동 41-2번지 춘의테크노타워 1304호","category":"서적문구 - 과학기자재"},{"name":"주식회사 지아이","tel":"02-1600-8795","addr":"경기도 부천시 원미동 41-2번지 춘의테크노파크 1동 1308호","category":"보건위생 - 미용재료"},{"name":"주식회사디엠아이시스템","tel":"032-222-4118","addr":"경기도 부천시 원미동 41-2번지 춘의테크노타워 703호","category":"자동차정비 유지 - 자동차부품"},{"name":"춘의테크노파크3차 관리운영위원회","tel":"032-222-0200","addr":"경기도 부천시 원미동 41-2번지 춘의테크노타워 지하2층 관리사무소","category":"자동차정비 유지 - 주차장"},{"name":"크래들랩","tel":"02-521-9840","addr":"경기도 부천시 원미동 41-2번지 춘의테크노타워 506호","category":"회원제형태 - 기타1"}]},{"lat":"37.499508509","long":"126.78782403","items":[{"name":"(주)모바일페이","tel":"070-8709-8710","addr":"경기도 부천시 원미동 46-13번지 오토마빌딩 3층","category":"여행 - 관광여행"}]},{"lat":"37.497735371","long":"126.78882426","items":[{"name":"(주)비케이코리아","tel":"032-581-3466","addr":"경기도 부천시 원미동 44-8번지 피더스카풀링 3층 302호","category":"용역 서비스 - 사무서비스"},{"name":"(주)엔픽","tel":"1661-6773-0000","addr":"경기도 부천시 원미동 44-8번지","category":"용역 서비스 - 사무서비스"}]},{"lat":"37.497342728","long":"126.78596436","items":[{"name":"(주)엘앤씨투어","tel":"032-326-0356","addr":"경기도 부천시 원미동 72-13번지 비1호","category":"용역 서비스 - 종합용역"},{"name":"명진","tel":"070-710-1060","addr":"경기도 부천시 원미동 72-13번지 지하","category":"보건위생 - 미용재료"},{"name":"보브헤어","tel":"032-664-3339","addr":"경기도 부천시 원미동 72-13번지 1층 일부","category":"보건위생 - 미용원"},{"name":"송월타올노블레스","tel":"032-664-5252","addr":"경기도 부천시 원미동 72-13번지","category":"직물 - 기타직물"},{"name":"식도원","tel":"032-661-0360","addr":"경기도 부천시 원미동 72-13번지 1층 일부","category":"일반휴게음식 - 일반한식"},{"name":"초가산간","tel":"032-664-5560","addr":"경기도 부천시 원미동 72-13번지","category":"일반휴게음식 - 일반한식"},{"name":"해성","tel":"032-655-6602","addr":"경기도 부천시 원미동 72-13번지","category":"일반휴게음식 - 일반한식"}]},{"lat":"37.491619952","long":"126.79010815","items":[{"name":"(주)우리홈마트부천점","tel":"032-653-4924","addr":"경기도 부천시 원미동 116-2번지","category":"유통업 영리 - 슈퍼마켓"},{"name":"방금만든두부","tel":"032-611-3862","addr":"경기도 부천시 원미동 116-2번지 부흥마트 1층","category":"음료식품 - 기타음료식품"}]},{"lat":"37.499432045","long":"126.79038002","items":[{"name":"(주)정석엔지니어링","tel":"032-613-5636","addr":"경기도 부천시 원미동 31-2번지 1층","category":"서적문구 - 과학기자재"}]},{"lat":"37.495423978","long":"126.78616215","items":[{"name":"(주)제이에스페이","tel":"070-7376-2244","addr":"경기도 부천시 원미동 90-3번지 종만빌딩 202호","category":"용역 서비스 - 정보서비스"},{"name":"3J Trading(3제이트레이딩)","tel":"032-205-3371","addr":"경기도 부천시 원미동 90-3번지 THE EL 203호","category":"전기제품 - 가전제품"}]},{"lat":"37.497264087","long":"126.79229727","items":[{"name":"(주)진성푸드","tel":"032-655-9943","addr":"경기도 부천시 원미동 2-4번지","category":"음료식품 - 정육점"},{"name":"도래샘","tel":"032-611-0140","addr":"경기도 부천시 원미동 2-4번지 1층","category":"일반휴게음식 - 일반한식"}]},{"lat":"37.498543106","long":"126.79207882","items":[{"name":"(주)코리안모터스","tel":"032-651-5478","addr":"경기도 부천시 원미동 6-3번지 1층","category":"자동차정비 유지 - 자동차부품"},{"name":"경성모터스","tel":"032-662-4000","addr":"경기도 부천시 원미동 6-3번지 A동","category":"자동차정비 유지 - 자동차정비"}]},{"lat":"37.499318786","long":"126.78754186","items":[{"name":"(주)코스모테크놀리지","tel":"032-613-1538","addr":"경기도 부천시 원미동 46-10번지 2층","category":"전기제품 - 냉열기기"}]},{"lat":"37.500506774","long":"126.79180189","items":[{"name":"(주)큰나무푸드","tel":"032-656-6682","addr":"경기도 부천시 원미동 9-9번지","category":"일반휴게음식 - 위탁급식업"},{"name":"동우정밀","tel":"032-662-0614","addr":"경기도 부천시 원미동 9-9번지 1층","category":"기타 - 기계공구"},{"name":"형제","tel":"032-656-6682","addr":"경기도 부천시 원미동 9-9번지 1층 건영자동화시스템 일부","category":"일반휴게음식 - 일반한식"}]},{"lat":"37.490841933","long":"126.78835771","items":[{"name":"-FORM","tel":"032-673-4077","addr":"경기도 부천시 원미동 174-1번지","category":"의류 - 정장"},{"name":"감성피자","tel":"032-612-0627","addr":"경기도 부천시 원미동 174-1번지 1층","category":"일반휴게음식 - 서양음식"},{"name":"허브앤꿈","tel":"032-221-3018","addr":"경기도 부천시 원미동 174-1번지","category":"건강식품 - 기타건강식품"}]},{"lat":"37.492930909","long":"126.78762805","items":[{"name":"02스킨케어","tel":"032-652-6228","addr":"경기도 부천시 원미동 124-5번지","category":"보건위생 - 화장품"},{"name":"S.H.(에스에이치)헤어","tel":"070-4300-5845","addr":"경기도 부천시 원미동 124-5번지 1층","category":"보건위생 - 미용원"}]},{"lat":"37.492623253","long":"126.78690524","items":[{"name":"123노래연습장","tel":"032-665-7819","addr":"경기도 부천시 원미동 125-6번지 지층","category":"레저업소 - 노 래 방"},{"name":"귀빈","tel":"032-612-4420","addr":"경기도 부천시 원미동 125-6번지","category":"일반휴게음식 - 주점"},{"name":"만남포차","tel":"032-666-1232","addr":"경기도 부천시 원미동 125-6번지 1층","category":"일반휴게음식 - 일반한식"},{"name":"심지","tel":"032-655-2478","addr":"경기도 부천시 원미동 125-6번지 1층 일부","category":"일반휴게음식 - 일반한식"},{"name":"야끼토리유라","tel":"032-612-0317","addr":"경기도 부천시 원미동 125-6번지 1층","category":"일반휴게음식 - 일반한식"},{"name":"우리들의명소","tel":"","addr":"경기도 부천시 원미동 125-6번지 1층 일부","category":"일반휴게음식 - 일반한식"},{"name":"친구","tel":"","addr":"경기도 부천시 원미동 125-6번지 1층 일부","category":"일반휴게음식 - 일반한식"},{"name":"회포차","tel":"070-1111-1111","addr":"경기도 부천시 원미동 125-6번지 1층 점포","category":"일반휴게음식 - 일반한식"}]},{"lat":"37.496928539","long":"126.79107692","items":[{"name":"24시 출장열쇠(네트워크)","tel":"032-505-7865","addr":"경기도 부천시 원미동 55-10번지 1층 일부","category":"건축자재 - 목재·석재·철물"},{"name":"유진레포츠","tel":"032-665-1992","addr":"경기도 부천시 원미동 55-10번지","category":"의류 - 정장"}]},{"lat":"37.500041059","long":"126.79337512","items":[{"name":"3.6.9노래연습장","tel":"032-655-3138","addr":"경기도 부천시 원미동 1-2번지 나흥빌딩 지층","category":"레저업소 - 노 래 방"},{"name":"동양정보넷","tel":"032-663-3332","addr":"경기도 부천시 원미동 1-2번지 나흥빌딩 4층","category":"사무통신 - 컴퓨터"},{"name":"주간부천신문","tel":"032-667-0071","addr":"경기도 부천시 원미동 1-2번지","category":"서적문구 - 출판 및 인쇄물"},{"name":"창대마트","tel":"032-657-7388","addr":"경기도 부천시 원미동 1-2번지 나흥빌딩 1층","category":"유통업 영리 - 슈퍼마켓"},{"name":"한국사회교육원제231000지부","tel":"032-612-2064","addr":"경기도 부천시 원미동 1-2번지","category":"기타 - 비영리/대상"}]},{"lat":"37.492788478","long":"126.7885783","items":[{"name":"365빈티지","tel":"070-8869-2694","addr":"경기도 부천시 원미동 122-1번지","category":"의류 - 기타의류"},{"name":"아이난다","tel":"070-8780-2150","addr":"경기도 부천시 원미동 122-1번지","category":"의류 - 정장"}]},{"lat":"37.495677683","long":"126.78694167","items":[{"name":"4BD","tel":"070-7847-5222","addr":"경기도 부천시 원미동 87-2번지 부천만화창작스튜디오 311호","category":"서적문구 - 일반서적"},{"name":"디지커쳐","tel":"032-611-4169","addr":"경기도 부천시 원미동 87-2번지 부천만화창작스튜디오 215호","category":"용역 서비스 - 종합용역"},{"name":"아름다운디자인","tel":"032-665-1322","addr":"경기도 부천시 원미동 87-2번지 벤처창업보육센터 206호","category":"서적문구 - 완구점"},{"name":"아이큐브","tel":"000-0000-0000","addr":"경기도 부천시 원미동 87-2번지 부천만화산업종합지원센타 212호","category":"용역 서비스 - 종합용역"},{"name":"팡팡기획","tel":"","addr":"경기도 부천시 원미동 87-2번지 부천만화산업종합지원센터","category":"용역 서비스 - 종합용역"}]},{"lat":"37.497815352","long":"126.78821337","items":[{"name":"523닭갈비","tel":"","addr":"경기도 부천시 원미동 44-5번지 스테이트로뎀 1층 107호","category":"일반휴게음식 - 일반한식"},{"name":"8900이면도야지","tel":"032-564-2445","addr":"경기도 부천시 원미동 44-5번지 스테이트 로뎀 109호 108호,109호","category":"일반휴게음식 - 일반한식"},{"name":"미니스톱 부천조마루점","tel":"031-1577-9621","addr":"경기도 부천시 원미동 44-5번지 스테이트로뎀 1층 101호","category":"유통업 영리 - 편 의 점"},{"name":"비를 긋다","tel":"","addr":"경기도 부천시 원미동 44-5번지 105-1호","category":"일반휴게음식 - 서양음식"},{"name":"샬롬공인중개사무소","tel":"032-612-4580","addr":"경기도 부천시 원미동 44-5번지 1층","category":"용역 서비스 - 부동산 중개·임대"},{"name":"호수꼬치","tel":"032-665-8295","addr":"경기도 부천시 원미동 44-5번지 스테이트로뎀 1층 102호","category":"일반휴게음식 - 주점"},{"name":"호수꼬치","tel":"032-665-8295","addr":"경기도 부천시 원미동 44-5번지 스테이트 로뎀 1층 102호","category":"일반휴게음식 - 주점"}]},{"lat":"37.496596852","long":"126.79201644","items":[{"name":"AKF 챔프","tel":"","addr":"경기도 부천시 원미동 50-4번지","category":"레져용품 - 스포츠·레져용품"},{"name":"봉자포차앤비어","tel":"032-661-0925","addr":"경기도 부천시 원미동 50-4번지 1층","category":"일반휴게음식 - 주점"},{"name":"썬 노래연습장","tel":"032-663-6921","addr":"경기도 부천시 원미동 50-4번지 2층","category":"레저업소 - 노 래 방"},{"name":"오헤어샵","tel":"02-1111-1111","addr":"경기도 부천시 원미동 50-4번지","category":"보건위생 - 미용원"}]},{"lat":"37.496926934","long":"126.79018356","items":[{"name":"A플러스","tel":"032-620-5531","addr":"경기도 부천시 원미동 56-3번지","category":"기타 - 기계공구"}]},{"lat":"37.492841531","long":"126.78802407","items":[{"name":"Boho","tel":"032-667-2967","addr":"경기도 부천시 원미동 122-7번지 서해골든빌라 101호","category":"의류 - 정장"},{"name":"노랑머리헤어샵","tel":"032-661-4335","addr":"경기도 부천시 원미동 122-7번지 서해골든빌라","category":"보건위생 - 미용원"}]},{"lat":"37.495008969","long":"126.79082225","items":[{"name":"D.C백화점","tel":"032-667-0426","addr":"경기도 부천시 원미동 77-6번지","category":"주방용구 - 주방용식기"}]},{"lat":"37.493260504","long":"126.79052189","items":[{"name":"DC마트","tel":"032-662-8300","addr":"경기도 부천시 원미동 96-18번지","category":"유통업 영리 - 슈퍼마켓"},{"name":"대성축산","tel":"032-666-5303","addr":"경기도 부천시 원미동 96-18번지 1층","category":"음료식품 - 정육점"},{"name":"디씨마트","tel":"032-662-8300","addr":"경기도 부천시 원미동 96-18번지","category":"유통업 영리 - 슈퍼마켓"},{"name":"전라도양곡","tel":"032-611-8248","addr":"경기도 부천시 원미동 96-18번지 일부","category":"음료식품 - 미곡상"}]},{"lat":"37.492818755","long":"126.79037614","items":[{"name":"DC클럽","tel":"032-613-9284","addr":"경기도 부천시 원미동 96-7번지","category":"신변잡화 - 기타잡화"},{"name":"과일촌","tel":"032-654-7050","addr":"경기도 부천시 원미동 96-7번지 1층","category":"음료식품 - 농·축·수산품"},{"name":"금산인삼직판장","tel":"032-662-6751","addr":"경기도 부천시 원미동 96-7번지","category":"건강식품 - 인삼제품"},{"name":"섹시김밥","tel":"032-226-6116","addr":"경기도 부천시 원미동 96-7번지 1층","category":"일반휴게음식 - 스넥"},{"name":"소문난순대국","tel":"032-668-4300","addr":"경기도 부천시 원미동 96-7번지","category":"일반휴게음식 - 일반한식"}]},{"lat":"37.49189987","long":"126.78549388","items":[{"name":"GS25부천심곡행복","tel":"","addr":"경기도 부천시 원미동 138-1번지 1층","category":"유통업 영리 - 편 의 점"},{"name":"후레쉬슈퍼","tel":"032-654-3551","addr":"경기도 부천시 원미동 138-1번지","category":"유통업 영리 - 슈퍼마켓"}]},{"lat":"37.494927563","long":"126.78568864","items":[{"name":"GS25부천원미샛별점","tel":"","addr":"경기도 부천시 원미동 110-1번지 3~4호","category":"유통업 영리 - 편 의 점"},{"name":"M당구클럽","tel":"","addr":"경기도 부천시 원미동 110-1번지 2호","category":"레저업소 - 당 구 장"},{"name":"수지7080","tel":"070-7341-9104","addr":"경기도 부천시 원미동 110-1번지 지하1층 건물 2호","category":"일반휴게음식 - 일반한식"},{"name":"양지설비","tel":"032-661-9983","addr":"경기도 부천시 원미동 110-1번지 1층 2호","category":"용역 서비스 - 기타용역서비스"},{"name":"철물마트","tel":"032-271-9983","addr":"경기도 부천시 원미동 110-1번지","category":"건축자재 - 목재·석재·철물"}]},{"lat":"37.493424021","long":"126.79126774","items":[{"name":"GS25부천원미점","tel":"","addr":"경기도 부천시 원미동 94-3번지 신영빌딩 1층","category":"유통업 영리 - 편 의 점"},{"name":"신영목욕탕","tel":"032-666-5926","addr":"경기도 부천시 원미동 94-3번지 신영빌딩","category":"보건위생 - 사우나"},{"name":"호치킨원미사거리점","tel":"032-654-5727","addr":"경기도 부천시 원미동 94-3번지","category":"일반휴게음식 - 스넥"}]},{"lat":"37.497119829","long":"126.79224114","items":[{"name":"GS25부천조마루점","tel":"","addr":"경기도 부천시 원미동 2-5번지 1층","category":"유통업 영리 - 편 의 점"},{"name":"강태공회수산","tel":"032-322-0433","addr":"경기도 부천시 원미동 2-5번지","category":"일반휴게음식 - 일반한식"},{"name":"본당구클럽","tel":"070-4952-9889","addr":"경기도 부천시 원미동 2-5번지 3층","category":"레저업소 - 당 구 장"}]},{"lat":"37.48865327","long":"126.78877103","items":[{"name":"GS25원미늘푸른점","tel":"","addr":"경기도 부천시 원미동 199-18번지 1층","category":"유통업 영리 - 편 의 점"}]},{"lat":"37.497040092","long":"126.78798943","items":[{"name":"GS25원미중앙점","tel":"","addr":"경기도 부천시 원미동 62-30번지 1층","category":"유통업 영리 - 편 의 점"}]},{"lat":"37.494625119","long":"126.79282485","items":[{"name":"GS25원미한우리점","tel":"","addr":"경기도 부천시 원미동 166-6번지 1층","category":"유통업 영리 - 편 의 점"},{"name":"굿샘멘토보습학원","tel":"032-656-7089","addr":"경기도 부천시 원미동 166-6번지 2층 일부","category":"학원 - 보습학원"},{"name":"족발슈퍼(부천원미점)","tel":"","addr":"경기도 부천시 원미동 166-6번지 1층","category":"일반휴게음식 - 서양음식"}]},{"lat":"37.496403811","long":"126.78987973","items":[{"name":"ITEC아이텍","tel":"032-662-8838","addr":"경기도 부천시 원미동 58-1번지 대화파크아파트","category":"회원제형태 - 기타3"},{"name":"고려인삼","tel":"070-8135-4078","addr":"경기도 부천시 원미동 58-1번지 대화파크아파트","category":"회원제형태 - 기타4"}]},{"lat":"37.4964038109","long":"126.7898797256","items":[{"name":"IT신도","tel":"032-657-4447","addr":"경기도 부천시 원미동 58-1번지","category":"사무통신 - 사무용 OA기기"}]},{"lat":"37.496787774","long":"126.78796753","items":[{"name":"JS푸드","tel":"032-668-8006","addr":"경기도 부천시 원미동 63-7번지","category":"일반휴게음식 - 일반한식"},{"name":"진화장식당","tel":"032-666-5501","addr":"경기도 부천시 원미동 63-7번지","category":"일반휴게음식 - 일반한식"}]},{"lat":"37.489842882","long":"126.78893724","items":[{"name":"LEE PHOTO(이포토)","tel":"032-219-7800","addr":"경기도 부천시 원미동 194-2번지","category":"의류 - 정장"}]},{"lat":"37.489314256","long":"126.79057829","items":[{"name":"OK할인마트","tel":"032-271-4473","addr":"경기도 부천시 원미동 189-77번지 1층","category":"음료식품 - 기타음료식품"}]},{"lat":"37.49737432","long":"126.78846342","items":[{"name":"PC프라자","tel":"032-208-6567","addr":"경기도 부천시 원미동 61-1번지 1층","category":"사무통신 - 컴퓨터"}]},{"lat":"37.491730571","long":"126.78652335","items":[{"name":"Q사랑","tel":"","addr":"경기도 부천시 원미동 138-6번지 1층 일부","category":"보건위생 - 미용원"},{"name":"오널","tel":"","addr":"경기도 부천시 원미동 138-6번지 1층 일부","category":"신변잡화 - 액세서리"},{"name":"우리동네식당","tel":"070-7375-4422","addr":"경기도 부천시 원미동 138-6번지 1층","category":"일반휴게음식 - 일반한식"},{"name":"제이에스 (JS)통신","tel":"","addr":"경기도 부천시 원미동 138-6번지 1층","category":"사무통신 - 통신기기"},{"name":"하늘이네","tel":"032-656-3321","addr":"경기도 부천시 원미동 138-6번지","category":"의류 - 정장"}]},{"lat":"37.4937305590","long":"126.7913799517","items":[{"name":"RGO","tel":"0032-0256-8500","addr":"경기도 부천시 원미동 94-6번지 명서프라자 103호","category":"별도관리 - 자체물품대금"}]},{"lat":"37.493873277","long":"126.79057669","items":[{"name":"SK신발마트","tel":"032-652-5000","addr":"경기도 부천시 원미동 96-2번지 1층","category":"신변잡화 - 신발"},{"name":"신선야채","tel":"032-652-6261","addr":"경기도 부천시 원미동 96-2번지","category":"음료식품 - 농·축·수산품"},{"name":"원미숙녀복","tel":"032-664-9708","addr":"경기도 부천시 원미동 96-2번지","category":"의류 - 정장"},{"name":"푸른들(청과)","tel":"032-653-3721","addr":"경기도 부천시 원미동 96-2번지","category":"음료식품 - 농·축·수산품"}]},{"lat":"37.495181756","long":"126.7917151","items":[{"name":"SM정보통신(원미점)","tel":"032-656-5655","addr":"경기도 부천시 원미동 76-1번지 우측일부분 1층","category":"사무통신 - 통신기기"},{"name":"부천중앙의원","tel":"032-652-2123","addr":"경기도 부천시 원미동 76-1번지","category":"의원 - 의원"},{"name":"파리바게트부천원미점","tel":"032-651-3147","addr":"경기도 부천시 원미동 76-1번지","category":"음료식품 - 제과점"}]},{"lat":"37.494924434","long":"126.78891144","items":[{"name":"SM홍보기획","tel":"070-8778-8560","addr":"경기도 부천시 원미동 85-27번지 2층 우측","category":"유통업 영리 - 기타유통업"}]},{"lat":"37.495595456","long":"126.78631997","items":[{"name":"The오리부천원미점","tel":"032-652-5292","addr":"경기도 부천시 원미동 88-9번지 1층","category":"일반휴게음식 - 일반한식"},{"name":"다원","tel":"032-652-5245","addr":"경기도 부천시 원미동 88-9번지","category":"음료식품 - 정육점"}]},{"lat":"37.491151784","long":"126.79030171","items":[{"name":"URG","tel":"032-666-6570","addr":"경기도 부천시 원미동 181-1번지 1층","category":"보건위생 - 미용재료"},{"name":"VIP노래방","tel":"032-664-6760","addr":"경기도 부천시 원미동 181-1번지","category":"레저업소 - 노 래 방"},{"name":"나들목포차","tel":"","addr":"경기도 부천시 원미동 181-1번지 1층 9호","category":"일반휴게음식 - 일반한식"},{"name":"빛과에너지","tel":"032-505-9769","addr":"경기도 부천시 원미동 181-1번지 2층","category":"보건위생 - 의료용품"},{"name":"수련산(쭌이네)","tel":"","addr":"경기도 부천시 원미동 181-1번지 107호","category":"음료식품 - 기타음료식품"},{"name":"연세의원","tel":"032-652-0861","addr":"경기도 부천시 원미동 181-1번지","category":"의원 - 의원"},{"name":"예쁜아이(eye)안경원","tel":"032-201-0006","addr":"경기도 부천시 원미동 181-1번지 1층 일부","category":"보건위생 - 안경"},{"name":"인생술집","tel":"","addr":"경기도 부천시 원미동 181-1번지 102호","category":"일반휴게음식 - 일반한식"},{"name":"정원","tel":"032-651-3551","addr":"경기도 부천시 원미동 181-1번지 1층","category":"일반휴게음식 - 일반한식"},{"name":"혜인약국","tel":"032-656-2801","addr":"경기도 부천시 원미동 181-1번지","category":"약국 - 약국"}]},{"lat":"37.489258935","long":"126.7898774","items":[{"name":"URG 히까리","tel":"070-8908-7288","addr":"경기도 부천시 원미동 192-2번지 1층","category":"보건위생 - 화장품"}]},{"lat":"37.494071697","long":"126.79068921","items":[{"name":"the안경원미점","tel":"032-666-7779","addr":"경기도 부천시 원미동 96-1번지 백송연립 2동 1호","category":"보건위생 - 안경"},{"name":"내장산선황당","tel":"070-8873-8280","addr":"경기도 부천시 원미동 96-1번지 백송연립 D동 102호","category":"보건위생 - 기타대인서비스"},{"name":"도로시헤어","tel":"032-663-1372","addr":"경기도 부천시 원미동 96-1번지 백송연립 B동 1층 1호","category":"보건위생 - 미용원"},{"name":"맛단지","tel":"","addr":"경기도 부천시 원미동 96-1번지 백송연립 A동 1층 3호","category":"일반휴게음식 - 일반한식"},{"name":"복돼지 왕족발보쌈","tel":"","addr":"경기도 부천시 원미동 96-1번지 백송연립 A동 1층 102호","category":"일반휴게음식 - 일반한식"},{"name":"애견미용실","tel":"032-657-8880","addr":"경기도 부천시 원미동 96-1번지 백송주택E동2호","category":"회원제형태 - 기타4"},{"name":"에덴건강원","tel":"032-611-8873","addr":"경기도 부천시 원미동 96-1번지 외1필지백송연립 B동 101호","category":"건강식품 - 기타건강식품"},{"name":"완도","tel":"032-673-4805","addr":"경기도 부천시 원미동 96-1번지 백송연립 C동 1층 1호 3번째칸","category":"음료식품 - 농·축·수산품"},{"name":"우리모바일","tel":"032-611-7474","addr":"경기도 부천시 원미동 96-1번지 백송연립 E동 1층 3호","category":"사무통신 - 통신기기"},{"name":"쭈니화장품","tel":"032-663-6533","addr":"경기도 부천시 원미동 96-1번지 백송연립 A동 5호","category":"보건위생 - 화장품"},{"name":"타고난","tel":"","addr":"경기도 부천시 원미동 96-1번지 백송연립 C동 1층 1호 일부","category":"의류 - 정장"},{"name":"프리즘","tel":"032-657-8581","addr":"경기도 부천시 원미동 96-1번지 백송연립 B동 1층 1호","category":"의류 - 정장"},{"name":"핑크바니","tel":"032-663-9942","addr":"경기도 부천시 원미동 96-1번지 백송연립 A동 4호","category":"의류 - 정장"},{"name":"하나애견","tel":"032-657-8880","addr":"경기도 부천시 원미동 96-1번지 백송연립 E동 1층 2호","category":"문화.취미 - 애완동물"},{"name":"호박할인마트","tel":"032-655-1900","addr":"경기도 부천시 원미동 96-1번지 백송연립제에이동제1,2층제1호","category":"유통업 영리 - 슈퍼마켓"}]},{"lat":"37.491956521","long":"126.78690716","items":[{"name":"가구나라","tel":"032-653-4384","addr":"경기도 부천시 원미동 128-3번지","category":"가구 - 일반가구"},{"name":"민속바지락칼국수","tel":"032-654-2033","addr":"경기도 부천시 원미동 128-3번지","category":"일반휴게음식 - 일반한식"},{"name":"신라보석","tel":"032-613-7785","addr":"경기도 부천시 원미동 128-3번지 17,18호","category":"신변잡화 - 액세서리"},{"name":"엠투(M2)의류","tel":"033-111-1111","addr":"경기도 부천시 원미동 128-3번지 1층 25,26호","category":"의류 - 정장"},{"name":"토크쇼","tel":"032-663-7009","addr":"경기도 부천시 원미동 128-3번지","category":"일반휴게음식 - 주점"},{"name":"프라미스보습음악학원","tel":"070-8251-1281","addr":"경기도 부천시 원미동 128-3번지 원미종합시장 202호","category":"학원 - 예·체능계학원"},{"name":"희망건강원","tel":"032-656-3712","addr":"경기도 부천시 원미동 128-3번지 1층","category":"건강식품 - 기타건강식품"}]},{"lat":"37.497595108","long":"126.78602017","items":[{"name":"가나열쇠","tel":"032-665-1616","addr":"경기도 부천시 원미동 72-3번지","category":"수리서비스 - 기타수리서비스"},{"name":"김선생예체능교실","tel":"070-7621-9925","addr":"경기도 부천시 원미동 72-3번지 1층","category":"학원 - 예·체능계학원"},{"name":"명안경원","tel":"032-655-1955","addr":"경기도 부천시 원미동 72-3번지 1층","category":"보건위생 - 안경"},{"name":"성동식당","tel":"032-664-7093","addr":"경기도 부천시 원미동 72-3번지","category":"일반휴게음식 - 일반한식"},{"name":"시원모바일","tel":"032-654-9010","addr":"경기도 부천시 원미동 72-3번지 1층 일부","category":"사무통신 - 통신기기"},{"name":"아이펀","tel":"032-613-7524","addr":"경기도 부천시 원미동 72-3번지 제1호1층","category":"레져용품 - 스포츠·레져용품"},{"name":"여성의류","tel":"","addr":"경기도 부천시 원미동 72-3번지 1층 일부","category":"의류 - 정장"},{"name":"용인대키즈스포츠클럽","tel":"070-7621-9925","addr":"경기도 부천시 원미동 72-3번지","category":"학원 - 기타 교육기관"},{"name":"카페(cafe)152","tel":"032-665-0152","addr":"경기도 부천시 원미동 72-3번지 1층 일부","category":"일반휴게음식 - 서양음식"},{"name":"토스트사랑","tel":"032-657-2380","addr":"경기도 부천시 원미동 72-3번지 1층 일부호","category":"일반휴게음식 - 스넥"}]},{"lat":"37.492845407","long":"126.78521975","items":[{"name":"가랑가랑","tel":"032-675-7556","addr":"경기도 부천시 원미동 134-14번지","category":"일반휴게음식 - 주점"},{"name":"곱창시즌","tel":"032-611-2840","addr":"경기도 부천시 원미동 134-14번지 1층","category":"일반휴게음식 - 일반한식"}]},{"lat":"37.49053956","long":"126.79055221","items":[{"name":"가르망","tel":"070-8923-0054","addr":"경기도 부천시 원미동 190-16번지 1층 일부","category":"보건위생 - 미용원"},{"name":"지엔에스시스템","tel":"032-614-5311","addr":"경기도 부천시 원미동 190-16번지","category":"사무통신 - 컴퓨터"}]},{"lat":"37.498595325","long":"126.79104959","items":[{"name":"가마솥식당","tel":"032-662-1144","addr":"경기도 부천시 원미동 32-1번지","category":"일반휴게음식 - 일반한식"}]},{"lat":"37.492899356","long":"126.79010452","items":[{"name":"가이오수산","tel":"","addr":"경기도 부천시 원미동 98-8번지","category":"음료식품 - 농·축·수산품"},{"name":"김가네 중국식품","tel":"","addr":"경기도 부천시 원미동 98-8번지","category":"음료식품 - 기타음료식품"},{"name":"시장야채","tel":"032-652-4646","addr":"경기도 부천시 원미동 98-8번지","category":"음료식품 - 농·축·수산품"}]},{"lat":"37.494124851","long":"126.78523865","items":[{"name":"가인코스메틱","tel":"032-665-0070","addr":"경기도 부천시 원미동 111-14번지 원앙빌리지 101호","category":"건강식품 - 기타건강식품"},{"name":"천사약국","tel":"032-611-5110","addr":"경기도 부천시 원미동 111-14번지 원앙빌리지 101호","category":"약국 - 약국"}]},{"lat":"37.491205294","long":"126.78999626","items":[{"name":"감초고을한민박사","tel":"032-666-0770","addr":"경기도 부천시 원미동 181-2번지","category":"건강식품 - 기타건강식품"},{"name":"과일촌","tel":"032-672-8974","addr":"경기도 부천시 원미동 181-2번지 씨동내제 1층 제111호","category":"음료식품 - 농·축·수산품"},{"name":"능성방앗간","tel":"032-664-0124","addr":"경기도 부천시 원미동 181-2번지","category":"음료식품 - 제과점"},{"name":"맛나 청과","tel":"032-612-8257","addr":"경기도 부천시 원미동 181-2번지 씨동 1층 101,107호","category":"음료식품 - 농·축·수산품"},{"name":"앤","tel":"","addr":"경기도 부천시 원미동 181-2번지 C동 1층 111호","category":"의류 - 정장"},{"name":"은혜과일야채","tel":"","addr":"경기도 부천시 원미동 181-2번지 C동 1층 106호","category":"음료식품 - 농·축·수산품"},{"name":"형제상회","tel":"032-663-8382","addr":"경기도 부천시 원미동 181-2번지 C동 110호","category":"음료식품 - 농·축·수산품"},{"name":"화사한오늘","tel":"032-324-2978","addr":"경기도 부천시 원미동 181-2번지 C동 1층 110호","category":"신변잡화 - 기타잡화"}]},{"lat":"37.489510518","long":"126.78949224","items":[{"name":"강경토굴젓갈","tel":"070-4141-3387","addr":"경기도 부천시 원미동 192-9번지 1층","category":"음료식품 - 농·축·수산품"}]},{"lat":"37.496756879","long":"126.78585297","items":[{"name":"강남수제비","tel":"070-7378-3895","addr":"경기도 부천시 원미동 74-1번지 1층","category":"일반휴게음식 - 일반한식"},{"name":"금성문화사","tel":"032-612-8008","addr":"경기도 부천시 원미동 74-1번지","category":"서적문구 - 문구용품"},{"name":"네네치킨원미점","tel":"032-614-7272","addr":"경기도 부천시 원미동 74-1, 10(1층)","category":"일반휴게음식 - 스넥"},{"name":"소풍","tel":"032-655-8498","addr":"경기도 부천시 원미동 74-1번지","category":"일반휴게음식 - 스넥"},{"name":"인광사","tel":"032-668-8278","addr":"경기도 부천시 원미동 74-1번지 1층","category":"용역 서비스 - 종합용역"},{"name":"청정한축산물백화점","tel":"032-661-5233","addr":"경기도 부천시 원미동 74-1번지","category":"음료식품 - 정육점"}]},{"lat":"37.490571534","long":"126.78830195","items":[{"name":"강남유통","tel":"","addr":"경기도 부천시 원미동 174-6번지 1층","category":"음료식품 - 기타음료식품"}]},{"lat":"37.492675856","long":"126.79107762","items":[{"name":"강원간판","tel":"032-662-5217","addr":"경기도 부천시 원미동 94-4번지 1층 3호","category":"건축자재 - 인테리어전문"},{"name":"경기오토바이","tel":"032-667-6565","addr":"경기도 부천시 원미동 94-4번지","category":"자동차판매 - 이륜차판매"},{"name":"맛있는고깃집","tel":"032-651-2919","addr":"경기도 부천시 원미동 94-4번지 1층 6호,7호","category":"일반휴게음식 - 일반한식"},{"name":"비타민까페","tel":"032-611-8247","addr":"경기도 부천시 원미동 94-4번지 1층 1호","category":"일반휴게음식 - 스넥"},{"name":"스타트보습학원","tel":"032-654-8162","addr":"경기도 부천시 원미동 94-4번지 3층","category":"학원 - 보습학원"},{"name":"에벤에셀미용실","tel":"032-652-7273","addr":"경기도 부천시 원미동 94-4번지","category":"보건위생 - 미용원"},{"name":"영진연합의원. 한의원","tel":"032-663-3058","addr":"경기도 부천시 원미동 94-4번지 (94-72층)","category":"의원 - 의원"}]},{"lat":"37.491457774","long":"126.79010861","items":[{"name":"강화도수산","tel":"032-666-8288","addr":"경기도 부천시 원미동 116-5번지","category":"음료식품 - 농·축·수산품"},{"name":"도야족발","tel":"032-612-7477","addr":"경기도 부천시 원미동 116-5번지 1층","category":"일반휴게음식 - 일반한식"},{"name":"만나식품","tel":"032-665-3660","addr":"경기도 부천시 원미동 116-5번지 1층","category":"음료식품 - 기타음료식품"},{"name":"부흥농산","tel":"032-655-9181","addr":"경기도 부천시 원미동 116-5번지","category":"음료식품 - 농·축·수산품"},{"name":"빛고을떡방","tel":"032-661-7046","addr":"경기도 부천시 원미동 116-5번지","category":"음료식품 - 제과점"},{"name":"썬에듀보습학원","tel":"032-667-3090","addr":"경기도 부천시 원미동 116-5번지","category":"학원 - 보습학원"},{"name":"진흥꽃화원","tel":"032-652-7302","addr":"경기도 부천시 원미동 116-5번지","category":"문화.취미 - 화원"},{"name":"치킨멤버","tel":"032-613-9992","addr":"경기도 부천시 원미동 116-5번지 1층 일부","category":"일반휴게음식 - 스넥"}]},{"lat":"37.487203476","long":"126.78921613","items":[{"name":"개린이 유치원","tel":"","addr":"경기도 부천시 원미동 204-89번지 1층","category":"문화.취미 - 애완동물"},{"name":"초록별 지구","tel":"070-8869-2694","addr":"경기도 부천시 원미동 204-89번지 1층","category":"음료식품 - 기타음료식품"}]},{"lat":"37.489485485","long":"126.79060042","items":[{"name":"개성본가치킨호프","tel":"032-653-9245","addr":"경기도 부천시 원미동 189-324번지 1층 일부","category":"일반휴게음식 - 주점"}]},{"lat":"37.493730559","long":"126.79137995","items":[{"name":"개성진순대","tel":"032-613-5511","addr":"경기도 부천시 원미동 94-5번지 원미동 명성프라자 1층 109,110호","category":"일반휴게음식 - 일반한식"},{"name":"경기열쇠상사","tel":"032-613-1304","addr":"경기도 부천시 원미동 94-5번지 명성프라자 104호","category":"기타 - 기계공구"},{"name":"나비플란트치과의원","tel":"032-654-4300","addr":"경기도 부천시 원미동 94-5번지 원미동명성프라자","category":"의원 - 치과의원"},{"name":"덕천약국","tel":"032-655-2316","addr":"경기도 부천시 원미동 94-5번지 원미동명성프라자 106호","category":"약국 - 약국"},{"name":"랍슨키즈영어교습소","tel":"032-612-0511","addr":"경기도 부천시 원미동 94-5번지 원미동명성프라자 502호","category":"회원제형태 - 학원"},{"name":"리탁구교실","tel":"032-611-6533","addr":"경기도 부천시 원미동 94-5번지 원미동명성프라자 303호","category":"레저업소 - 기타레져업소"},{"name":"맘스","tel":"032-662-4279","addr":"경기도 부천시 원미동 94-5번지 원미동명성프라자 1층 107호","category":"일반휴게음식 - 서양음식"},{"name":"명성당구장","tel":"031-718-8597","addr":"경기도 부천시 원미동 94-5번지 원미동명성프라자 3층 302호","category":"레저업소 - 당 구 장"},{"name":"바디업 휘트니스","tel":"032-655-6080","addr":"경기도 부천시 원미동 94-5번지 원미동명성프라자 501,601호","category":"레저업소 - 헬스클럽"},{"name":"밥(BoB)독서실","tel":"032-000-0000","addr":"경기도 부천시 원미동 94-5번지 원미동명성프라자 403호","category":"학원 - 독서실"},{"name":"엉터리생고기","tel":"032-612-9985","addr":"경기도 부천시 원미동 94-5번지 명성프라자, 1층101,102호","category":"일반휴게음식 - 일반한식"},{"name":"엉터리축산","tel":"032-612-9985","addr":"경기도 부천시 원미동 94-5번지 원미동명성프라자 1층 101호","category":"음료식품 - 정육점"},{"name":"요거프레소 원미사거리점","tel":"032-212-5614","addr":"경기도 부천시 원미동 94-5번지 명성프라자 103호","category":"일반휴게음식 - 일반한식"},{"name":"짜황","tel":"032-611-8666","addr":"경기도 부천시 원미동 94-5번지 원미동명성프라자 108호","category":"일반휴게음식 - 중국식"},{"name":"하나애견","tel":"032-657-8880","addr":"경기도 부천시 원미동 94-5번지","category":"문화.취미 - 애완동물"},{"name":"한솥도시락 부천원미점","tel":"032-655-0822","addr":"경기도 부천시 원미동 94-5번지 원미동명성프라자 104호","category":"일반휴게음식 - 일반한식"}]},{"lat":"37.490952304","long":"126.78960121","items":[{"name":"개편한세상","tel":"070-7695-1867","addr":"경기도 부천시 원미동 172-31번지 1층","category":"문화.취미 - 애완동물"}]},{"lat":"37.495954688","long":"126.78568567","items":[{"name":"갤러리","tel":"032-611-0355","addr":"경기도 부천시 원미동 92-1번지","category":"회원제형태 - 기타4"},{"name":"대성 통 아귀찜","tel":"032-611-0733","addr":"경기도 부천시 원미동 92-1번지 서부빌딩 1층","category":"일반휴게음식 - 일반한식"},{"name":"대웅세무회계사무소","tel":"032-667-6100","addr":"경기도 부천시 원미동 92-1번지 2층","category":"용역 서비스 - 법률회계서비스(개인)"},{"name":"수도환경","tel":"032-671-7086","addr":"경기도 부천시 원미동 92-1번지 서부빌딩 4층 403호","category":"용역 서비스 - 기타용역서비스"},{"name":"한솔건축사무소","tel":"032-652-9328","addr":"경기도 부천시 원미동 92-1번지","category":"용역 서비스 - 사무서비스"}]},{"lat":"37.498760936","long":"126.78796188","items":[{"name":"거산","tel":"032-684-9929","addr":"경기도 부천시 원미동 47-14번지 1층","category":"용역 서비스 - 기타용역서비스"}]},{"lat":"37.495702765","long":"126.78587864","items":[{"name":"건축사사무소 아이엔지","tel":"032-227-5652","addr":"경기도 부천시 원미동 91-2번지 1층","category":"용역 서비스 - 사무서비스"},{"name":"돈떼몰 원미점","tel":"032-663-9255","addr":"경기도 부천시 원미동 91-2번지 1층","category":"일반휴게음식 - 일반한식"}]},{"lat":"37.491016534","long":"126.79024555","items":[{"name":"게임나라&제이소프트","tel":"032-321-7182","addr":"경기도 부천시 원미동 181-18번지 302호","category":"사무통신 - 통신기기"},{"name":"세원미미용실","tel":"032-662-0471","addr":"경기도 부천시 원미동 181-18","category":"보건위생 - 미용원"},{"name":"여우꼬리","tel":"032-227-1369","addr":"경기도 부천시 원미동 181-18번지 105호","category":"보건위생 - 피부미용실"},{"name":"일초닭발","tel":"032-666-9060","addr":"경기도 부천시 원미동 181-18번지 107 101","category":"일반휴게음식 - 일반한식"}]},{"lat":"37.497062834","long":"126.79060159","items":[{"name":"경기공구","tel":"032-652-7481","addr":"경기도 부천시 원미동 55-6번지 1호","category":"기타 - 기계공구"}]},{"lat":"37.498013351","long":"126.79824343","items":[{"name":"경기부천소사지역자활센터푸드까페뜨락","tel":"032-345-2355","addr":"경기도 부천시 원미동 15번지 원미도서관 지하1층 일부","category":"일반휴게음식 - 일반한식"}]},{"lat":"37.491819488","long":"126.78587857","items":[{"name":"경아네떡볶기","tel":"032-667-3775","addr":"경기도 부천시 원미동 138-10번지 1층","category":"일반휴게음식 - 스넥"}]},{"lat":"37.489512819","long":"126.79076995","items":[{"name":"경원종합냉열","tel":"032-613-4158","addr":"경기도 부천시 원미동 189-170번지 청구빌라 1층 101호","category":"전기제품 - 냉열기기"},{"name":"부천냉동설비","tel":"070-0000-0000","addr":"경기도 부천시 원미동 189-170번지 청구그린빌 402호","category":"용역 서비스 - 기타용역서비스"}]},{"lat":"37.493819431","long":"126.78573708","items":[{"name":"경진슈퍼","tel":"032-662-3298","addr":"경기도 부천시 원미동 108-6번지 1층","category":"유통업 영리 - 슈퍼마켓"},{"name":"뜨락미용실","tel":"032-662-8676","addr":"경기도 부천시 원미동 108-6번지","category":"보건위생 - 미용원"},{"name":"옛골포차","tel":"032-666-3748","addr":"경기도 부천시 원미동 108-6번지 1층 일부","category":"일반휴게음식 - 주점"}]},{"lat":"37.491899361","long":"126.7901639","items":[{"name":"경희건강원","tel":"032-654-7961","addr":"경기도 부천시 원미동 116-3번지 부흥연립A-2동1층3호","category":"건강식품 - 기타건강식품"},{"name":"경희건강원","tel":"032-654-7961","addr":"경기도 부천시 원미동 116-3번지 부흥연립 A-2동 1층 3호","category":"건강식품 - 홍삼제품"},{"name":"미 화장","tel":"032-655-5538","addr":"경기도 부천시 원미동 116-3번지 부흥연립","category":"보건위생 - 화장품"},{"name":"바다그대로","tel":"032-208-6394","addr":"경기도 부천시 원미동 116-3번지 A 2동 7호","category":"음료식품 - 농·축·수산품"},{"name":"부천고추기름방앗간","tel":"032-666-3629","addr":"경기도 부천시 원미동 116-3번지 부흥연립","category":"음료식품 - 기타음료식품"},{"name":"소문난가마솥순대국","tel":"032-613-5404","addr":"경기도 부천시 원미동 116-3번지 부흥연립 1층 2호","category":"일반휴게음식 - 일반한식"},{"name":"시루향","tel":"032-664-3023","addr":"경기도 부천시 원미동 116-3번지 부흥연립","category":"음료식품 - 제과점"},{"name":"일등곱창","tel":"070-7529-8842","addr":"경기도 부천시 원미동 116-3번지 부흥연립 A-2동 1층 2호 일부","category":"일반휴게음식 - 일반한식"},{"name":"자이화장품","tel":"031-973-0357","addr":"경기도 부천시 원미동 116-3번지 에이-2동 1층 5호","category":"보건위생 - 화장품"},{"name":"푸른바다","tel":"032-757-4253","addr":"경기도 부천시 원미동 116-3번지 부흥연립 제에이-2동 1층 5호","category":"음료식품 - 농·축·수산품"},{"name":"화성건어물","tel":"032-655-6451","addr":"경기도 부천시 원미동 116-3부흥연립A2동1층6호","category":"음료식품 - 농·축·수산품"},{"name":"힐링소","tel":"","addr":"경기도 부천시 원미동 116-3번지 부흥연립 A-2동 1층 1호","category":"음료식품 - 정육점"}]},{"lat":"37.491537251","long":"126.7892151","items":[{"name":"경희부흥한의원","tel":"032-614-1075","addr":"경기도 부천시 원미동 120-7번지","category":"의원 - 한의원"}]},{"lat":"37.491925566","long":"126.78477012","items":[{"name":"경희소나무한의원","tel":"032-655-1075","addr":"경기도 부천시 원미동 137-2번지 아송빌딩 2층 201호","category":"의원 - 한의원"},{"name":"뚜레쥬르 부천대성","tel":"032-662-0008","addr":"경기도 부천시 원미동 137-2번지 아송빌딩 1층","category":"음료식품 - 제과점"},{"name":"레인휘트니스(Rain FITNESS)","tel":"032-665-8225","addr":"경기도 부천시 원미동 137-2번지 아송빌딩 8층 800호","category":"레저업소 - 헬스클럽"},{"name":"사랑안과의원","tel":"032-217-7333","addr":"경기도 부천시 원미동 137-2번지 7층","category":"의원 - 의원"},{"name":"엔플러스pc방","tel":"","addr":"경기도 부천시 원미동 137-2번지 아송빌딩 지하1층","category":"레저업소 - 기타레져업소"},{"name":"진희영치과의원","tel":"032-668-2875","addr":"경기도 부천시 원미동 137-2번지 아송빌딩 3층","category":"의원 - 치과의원"},{"name":"코앤코이비인후과","tel":"032-651-2100","addr":"경기도 부천시 원미동 137-2번지 아송빌딩 5층","category":"의원 - 의원"},{"name":"쿨맨남성의원","tel":"032-657-0008","addr":"경기도 부천시 원미동 137-2번지 아송빌딩 302호","category":"의원 - 의원"},{"name":"타임의원","tel":"032-611-6661","addr":"경기도 부천시 원미동 137-2번지 아송빌딩 6층","category":"의원 - 의원"}]},{"lat":"37.495179486","long":"126.78549568","items":[{"name":"고구려찌개조림전문점","tel":"032-656-9955","addr":"경기도 부천시 원미동 92-5 1층1호,2호","category":"일반휴게음식 - 일반한식"},{"name":"쓰리팝(3POP)","tel":"","addr":"경기도 부천시 원미동 92-5번지 2층","category":"레저업소 - 기타레져업소"},{"name":"중앙약국","tel":"032-651-5118","addr":"경기도 부천시 원미동 92-5번지","category":"약국 - 약국"},{"name":"짱노래연습장","tel":"","addr":"경기도 부천시 원미동 92-5번지 지층","category":"레저업소 - 노 래 방"},{"name":"케익하우스이원","tel":"032-654-3231","addr":"경기도 부천시 원미동 92-5번지","category":"음료식품 - 제과점"},{"name":"투다리(복돼지점)","tel":"032-654-9792","addr":"경기도 부천시 원미동 92-5번지 1층","category":"일반휴게음식 - 주점"}]},{"lat":"37.497370567","long":"126.78640531","items":[{"name":"고기굽쇼","tel":"","addr":"경기도 부천시 원미동 72-12번지 1층 일부","category":"일반휴게음식 - 일반한식"},{"name":"명품구두수선실","tel":"032-666-7914","addr":"경기도 부천시 원미동 72-12번지","category":"수리서비스 - 신변잡화수리"},{"name":"원조함흥냉면","tel":"032-654-0531","addr":"경기도 부천시 원미동 72-12번지","category":"일반휴게음식 - 일반한식"},{"name":"주닭","tel":"032-666-9285","addr":"경기도 부천시 원미동 72-12번지 1층 일부","category":"일반휴게음식 - 스넥"},{"name":"청기와노래방","tel":"032-663-5200","addr":"경기도 부천시 원미동 72-12번지 지층","category":"레저업소 - 노 래 방"},{"name":"통돼지김치찌개","tel":"032-661-5557","addr":"경기도 부천시 원미동 72-12번지 1층","category":"일반휴게음식 - 일반한식"}]},{"lat":"37.493539749","long":"126.79048717","items":[{"name":"고기나라","tel":"032-656-4150","addr":"경기도 부천시 원미동 96-11번지","category":"음료식품 - 정육점"},{"name":"궁전떡집","tel":"032-612-9872","addr":"경기도 부천시 원미동 96-11번지","category":"음료식품 - 제과점"},{"name":"샬롬","tel":"032-614-5070","addr":"경기도 부천시 원미동 96-11번지 1층","category":"신변잡화 - 기타잡화"}]},{"lat":"37.49634399","long":"126.79168921","items":[{"name":"고기에반하다","tel":"032-666-9592","addr":"경기도 부천시 원미동 53-1번지 1층","category":"음료식품 - 정육점"}]},{"lat":"37.497235874","long":"126.78665448","items":[{"name":"고르목생고기","tel":"032-664-4854","addr":"경기도 부천시 원미동 68-30번지 1층","category":"일반휴게음식 - 일반한식"}]},{"lat":"37.488619029","long":"126.78976615","items":[{"name":"고은가비","tel":"","addr":"경기도 부천시 원미동 193-22번지 1층","category":"보건위생 - 미용원"}]},{"lat":"37.49684745","long":"126.79107715","items":[{"name":"고전의상실","tel":"032-612-3410","addr":"경기도 부천시 원미동 55-2번지 삼성빌라","category":"의류 - 맞춤복점"},{"name":"전북논골추어탕","tel":"032-653-9955","addr":"경기도 부천시 원미동 55-2번지 삼성빌라 101호","category":"일반휴게음식 - 일반한식"}]},{"lat":"37.495209459","long":"126.78710134","items":[{"name":"고향숯불갈비","tel":"032-663-0635","addr":"경기도 부천시 원미동 89-1번지 원미상가아파트","category":"일반휴게음식 - 일반한식"},{"name":"반석인컴","tel":"032-661-0993","addr":"경기도 부천시 원미동 89-1번지 원미상가아파트 204호","category":"회원제형태 - 기타3"},{"name":"한누리교육시스템","tel":"032-656-2638","addr":"경기도 부천시 원미동 89-1번지 원미 상가 215호","category":"사무통신 - 컴퓨터"}]},{"lat":"37.488734154","long":"126.78865773","items":[{"name":"고향의맛집","tel":"032-611-8633","addr":"경기도 부천시 원미동 199-21번지 일부 1층","category":"일반휴게음식 - 일반한식"},{"name":"지나샵","tel":"070-4897-5470","addr":"경기도 부천시 원미동 199-21번지","category":"보건위생 - 피부미용실"}]},{"lat":"37.494819274","long":"126.7905514","items":[{"name":"고향토종닭","tel":"032-667-9901","addr":"경기도 부천시 원미동 81-1번지","category":"음료식품 - 정육점"},{"name":"원미강정","tel":"032-663-9237","addr":"경기도 부천시 원미동 81-1번지","category":"음료식품 - 제과점"}]},{"lat":"37.494702212","long":"126.78563276","items":[{"name":"고향포차","tel":"032-613-1029","addr":"경기도 부천시 원미동 110-12번지 1층 일부","category":"일반휴게음식 - 주점"}]},{"lat":"37.49590175","long":"126.78629646","items":[{"name":"골드 당구장","tel":"","addr":"경기도 부천시 원미동 88-2번지 토탈프라자 2층","category":"레저업소 - 당 구 장"},{"name":"깜꼬치킨","tel":"032-613-9466","addr":"경기도 부천시 원미동 88-2번지 토탈프라자 1층","category":"일반휴게음식 - 스넥"},{"name":"섬김가정복지센터","tel":"032-203-6262","addr":"경기도 부천시 원미동 88-2번지 토탈프라자 203호","category":"기타의료기관 - 기타의료기관 및 기타"},{"name":"스타노래연습장","tel":"032-652-5520","addr":"경기도 부천시 원미동 88-2번지 토탈프라자 지하층","category":"레저업소 - 노 래 방"},{"name":"장영학세무회계사무소","tel":"032-668-0035","addr":"경기도 부천시 원미동 88-2번지 토탈프라자 3층 301호","category":"용역 서비스 - 법률회계서비스(개인)"},{"name":"청담설렁탕","tel":"032-1111-1111","addr":"경기도 부천시 원미동 88-2번지 토탈프라자 1층","category":"일반휴게음식 - 일반한식"}]},{"lat":"37.49623441","long":"126.78591102","items":[{"name":"골드노래연습장","tel":"032-662-6022","addr":"경기도 부천시 원미동 74-6번지","category":"레저업소 - 노 래 방"}]},{"lat":"37.488509419","long":"126.78894104","items":[{"name":"골드양념통닭","tel":"032-611-9416","addr":"경기도 부천시 원미동 200-5번지","category":"일반휴게음식 - 서양음식"}]},{"lat":"37.494593573","long":"126.78535037","items":[{"name":"곱선생 원미점","tel":"032-661-9333","addr":"경기도 부천시 원미동 111-7번지 1층","category":"일반휴게음식 - 일반한식"}]},{"lat":"37.493179834","long":"126.78579548","items":[{"name":"공간건축인테리어","tel":"032-663-3311","addr":"경기도 부천시 원미동 130-2번지 성원빌딩 1층","category":"건축자재 - 인테리어전문"},{"name":"미스퍼머","tel":"032-653-1035","addr":"경기도 부천시 원미동 130-2번지","category":"보건위생 - 미용원"}]},{"lat":"37.492093323","long":"126.79282063","items":[{"name":"공항 픽업 서비스","tel":"","addr":"경기도 부천시 원미동 177-201번지 101호","category":"보건위생 - 기타대인서비스"}]},{"lat":"37.493232823","long":"126.79016012","items":[{"name":"공항건어물","tel":"032-654-4799","addr":"경기도 부천시 원미동 98-4번지","category":"음료식품 - 농·축·수산품"},{"name":"소망수산","tel":"032-652-7426","addr":"경기도 부천시 원미동 98-4번지","category":"음료식품 - 농·축·수산품"}]},{"lat":"37.492341028","long":"126.79026441","items":[{"name":"과일깡패","tel":"032-861-0290","addr":"경기도 부천시 원미동 116-1번지 부흥연립 에이-1동 1층6호","category":"음료식품 - 농·축·수산품"},{"name":"바다수산","tel":"070-7079-8484","addr":"경기도 부천시 원미동 116-1번지 부흥연립 제에이 1동 1층 제7호","category":"음료식품 - 농·축·수산품"},{"name":"옛날마포갈비","tel":"032-612-0802","addr":"경기도 부천시 원미동 116-1번지 부흥연립 B-1동 1층 1호","category":"일반휴게음식 - 일반한식"},{"name":"옛날마포갈비","tel":"032-612-0802","addr":"경기도 부천시 원미동 116-1번지 부흥연립 B-1동 1층 1호","category":"일반휴게음식 - 일반한식"},{"name":"용신발","tel":"032-664-1767","addr":"경기도 부천시 원미동 116-1번지 제에이동제1층 2호","category":"신변잡화 - 신발"},{"name":"전주기름집","tel":"032-662-7288","addr":"경기도 부천시 원미동 116-1번지 부흥연립","category":"음료식품 - 기타음료식품"}]},{"lat":"37.491817701","long":"126.78984752","items":[{"name":"과일마을","tel":"032-667-3181","addr":"경기도 부천시 원미동 119-6번지 1층","category":"음료식품 - 농·축·수산품"},{"name":"대도숙녀복","tel":"032-613-8523","addr":"경기도 부천시 원미동 119-6번지","category":"의류 - 정장"}]},{"lat":"37.497400857","long":"126.78819194","items":[{"name":"광우횟집","tel":"070-7358-0904","addr":"경기도 부천시 원미동 61-5번지 1층","category":"일반휴게음식 - 일반한식"},{"name":"무등산","tel":"032-662-7270","addr":"경기도 부천시 원미동 61-5번지","category":"일반휴게음식 - 일반한식"},{"name":"여수댁네","tel":"032-665-9292","addr":"경기도 부천시 원미동 61-5번지","category":"일반휴게음식 - 일반한식"}]},{"lat":"37.495831801","long":"126.78746141","items":[{"name":"광진마트","tel":"032-651-9738","addr":"경기도 부천시 원미동 87-29번지 신오스카이빌 2동 101호","category":"유통업 영리 - 슈퍼마켓"}]},{"lat":"37.496234659","long":"126.78604672","items":[{"name":"교보문화","tel":"032-663-8100","addr":"경기도 부천시 원미동 74-4번지","category":"서적문구 - 출판 및 인쇄물"},{"name":"동명상회","tel":"032-664-5939","addr":"경기도 부천시 원미동 74-4번지","category":"음료식품 - 기타음료식품"},{"name":"신진인재사","tel":"032-657-1010","addr":"경기도 부천시 원미동 74-4번지","category":"기타 - 기타 전문점"},{"name":"제일문구","tel":"032-611-3927","addr":"경기도 부천시 원미동 74-4번지","category":"서적문구 - 출판 및 인쇄물"},{"name":"진서방곱이네","tel":"032-657-7807","addr":"경기도 부천시 원미동 74-4번지 1층","category":"일반휴게음식 - 일반한식"}]},{"lat":"37.48907943","long":"126.79026235","items":[{"name":"구뜨드카페(Goutte de cafe)","tel":"","addr":"경기도 부천시 원미동 191-3번지 대훈탑스빌 2동 101호","category":"일반휴게음식 - 서양음식"}]},{"lat":"37.495620298","long":"126.79007419","items":[{"name":"구르미포차","tel":"","addr":"경기도 부천시 원미동 59-29번지","category":"일반휴게음식 - 주점"}]},{"lat":"37.492063688","long":"126.7863867","items":[{"name":"구피샵원미점","tel":"032-663-4435","addr":"경기도 부천시 원미동 133-1번지 대우연립 1층 3호","category":"보건위생 - 미용원"},{"name":"내고향마트","tel":"032-611-5388","addr":"경기도 부천시 원미동 133-1번지 대우연립 A동 101호","category":"유통업 영리 - 슈퍼마켓"},{"name":"뿌니뷰티","tel":"","addr":"경기도 부천시 원미동 133-1번지 대우연립 A동 1층 104호","category":"보건위생 - 화장품"},{"name":"소문난통닭5900","tel":"032-652-9288","addr":"경기도 부천시 원미동 133-1번지 대우연립 A동 1층 2호","category":"일반휴게음식 - 일반한식"},{"name":"이가네해장국밥","tel":"","addr":"경기도 부천시 원미동 133-1번지 대우연립 C동 1층 1호 일부","category":"일반휴게음식 - 일반한식"},{"name":"종명청과","tel":"032-613-4819","addr":"경기도 부천시 원미동 133-1번지 대우연립","category":"음료식품 - 농·축·수산품"}]},{"lat":"37.493174485","long":"126.78779696","items":[{"name":"국가대표 태비 태권도","tel":"031-1111-1111","addr":"경기도 부천시 원미동 103-10번지 2층","category":"학원 - 예·체능계학원"},{"name":"늘찬양음악학원","tel":"032-653-6373","addr":"경기도 부천시 원미동 103-10번지 2층","category":"회원제형태 - 학원"},{"name":"밀가헤어","tel":"032-614-5122","addr":"경기도 부천시 원미동 103-10번지","category":"보건위생 - 미용원"},{"name":"성실사무기","tel":"032-652-8370","addr":"경기도 부천시 원미동 103-10번지","category":"사무통신 - 사무용 OA기기"},{"name":"씨유원미사랑점","tel":"031-898-6568","addr":"경기도 부천시 원미동 103-10번지","category":"유통업 영리 - 편 의 점"},{"name":"오라네일(ORA nail)","tel":"032-111-1212","addr":"경기도 부천시 원미동 103-10번지 1층 일부","category":"보건위생 - 피부미용실"},{"name":"원미치킨","tel":"","addr":"경기도 부천시 원미동 103-10번지 1층","category":"일반휴게음식 - 일반한식"}]},{"lat":"37.495821117","long":"126.78654548","items":[{"name":"국제로타리3690지구,나눔로","tel":"032-668-4195","addr":"경기도 부천시 원미동 88-1번지","category":"기타 - 비영리/대상"},{"name":"국제로타리3690지구부천중앙","tel":"032-653-8199","addr":"경기도 부천시 원미동 88-1번지","category":"기타 - 비영리/대상"},{"name":"제우스노래연습장","tel":"","addr":"경기도 부천시 원미동 88-1번지 부영빌딩 지하층","category":"레저업소 - 노 래 방"},{"name":"제이건축사사무소","tel":"070-7847-9971","addr":"경기도 부천시 원미동 88-1번지 부영빌딩 5층-나","category":"용역 서비스 - 사무서비스"}]},{"lat":"37.491845353","long":"126.78524527","items":[{"name":"국제소상공인회","tel":"","addr":"경기도 부천시 원미동 139-1번지","category":"문화.취미 - 티켓"},{"name":"남원골추어탕","tel":"032-662-7663","addr":"경기도 부천시 원미동 139-1번지","category":"일반휴게음식 - 일반한식"}]},{"lat":"37.495511078","long":"126.78946386","items":[{"name":"권유진헤어모드","tel":"032-663-4726","addr":"경기도 부천시 원미동 79-27번지","category":"보건위생 - 미용원"}]},{"lat":"37.492903185","long":"126.79224167","items":[{"name":"귀뚜라미보일러 경기광주홈시스","tel":"031-768-9009","addr":"경기도 부천시 원미동 177-188번지 1층","category":"수리서비스 - 기타수리서비스"}]},{"lat":"37.495041603","long":"126.78893372","items":[{"name":"그가 굽는빵","tel":"","addr":"경기도 부천시 원미동 85-26번지 1층","category":"음료식품 - 제과점"}]},{"lat":"37.493126294","long":"126.78607832","items":[{"name":"그때그집포차","tel":"032-665-9594","addr":"경기도 부천시 원미동 130-1번지","category":"일반휴게음식 - 일반한식"},{"name":"섹션21정보통신","tel":"032-664-8886","addr":"경기도 부천시 원미동 130-1번지 1층 일부","category":"전기제품 - 기타전기제품"},{"name":"옴뇽뇽반점","tel":"070-8970-4016","addr":"경기도 부천시 원미동 130-1번지 1층 일부","category":"일반휴게음식 - 중국식"}]},{"lat":"37.494066306","long":"126.79271334","items":[{"name":"그랜드슬램","tel":"070-8806-4221","addr":"경기도 부천시 원미동 166-39번지","category":"서적문구 - 기타서적문구"}]},{"lat":"37.493370058","long":"126.78634901","items":[{"name":"그림터미술학원","tel":"032-656-1028","addr":"경기도 부천시 원미동 109-17번지 전체 2층","category":"학원 - 예·체능계학원"},{"name":"사탄곱창","tel":"032-216-7657","addr":"경기도 부천시 원미동 109-17번지","category":"일반휴게음식 - 일반한식"},{"name":"용인대신라태권스쿨","tel":"032-653-0820","addr":"경기도 부천시 원미동 109-17번지","category":"학원 - 예·체능계학원"},{"name":"원미공사","tel":"032-612-7500","addr":"경기도 부천시 원미동 109-17번지","category":"건축자재 - 조명기구"},{"name":"윤슬타로카페","tel":"032-000-0000","addr":"경기도 부천시 원미동 109-17번지 1층 일부","category":"일반휴게음식 - 서양음식"},{"name":"혀니펫","tel":"032-611-5900","addr":"경기도 부천시 원미동 109-17번지 1층 일부","category":"문화.취미 - 애완동물"}]},{"lat":"37.500062634","long":"126.79032168","items":[{"name":"글로벌모터스","tel":"031-1600-0149","addr":"경기도 부천시 원미동 40-1번지","category":"자동차정비 유지 - 자동차정비"}]},{"lat":"37.489234404","long":"126.79126825","items":[{"name":"금강세탁소","tel":"032-654-9504","addr":"경기도 부천시 원미동 189-42번지","category":"수리서비스 - 세탁소"},{"name":"제일슈퍼","tel":"032-656-9664","addr":"경기도 부천시 원미동 189-42번지","category":"유통업 영리 - 슈퍼마켓"}]},{"lat":"37.495486796","long":"126.79099052","items":[{"name":"금강쌀상회","tel":"032-657-7722","addr":"경기도 부천시 원미동 54-18번지 1층","category":"음료식품 - 미곡상"},{"name":"신경철내과의원","tel":"032-611-2607","addr":"경기도 부천시 원미동 54-18번지","category":"의원 - 의원"}]},{"lat":"37.489681849","long":"126.7895709","items":[{"name":"금강헤어클럽","tel":"032-662-7859","addr":"경기도 부천시 원미동 182-5번지 금강빌라 1층 101호","category":"보건위생 - 미용원"}]},{"lat":"37.493486066","long":"126.78573805","items":[{"name":"금밭미용실","tel":"032-654-7780","addr":"경기도 부천시 원미동 109-19번지 시민연립 나동 101호","category":"보건위생 - 미용원"},{"name":"뉴부천현대컴퓨터","tel":"032-666-1471","addr":"경기도 부천시 원미동 109-19번지 시민연립 가동 1층 103호","category":"사무통신 - 컴퓨터"},{"name":"브리오커피로스터즈","tel":"","addr":"경기도 부천시 원미동 109-19번지 가동 101,102호","category":"일반휴게음식 - 서양음식"},{"name":"제일잉크뱅크","tel":"032-655-0023","addr":"경기도 부천시 원미동 109-19번지 시민연립 가동 103호","category":"사무통신 - 기타 사무용품"},{"name":"현애드컴","tel":"032-613-0083","addr":"경기도 부천시 원미동 109-19 지층 가-101","category":"용역 서비스 - 종합용역"}]},{"lat":"37.494179206","long":"126.79034967","items":[{"name":"금석","tel":"032-656-1084","addr":"경기도 부천시 원미동 97-1번지 경원빌딩 1층 7호","category":"신변잡화 - 귀금속"},{"name":"부흥떡방앗간","tel":"032-665-0029","addr":"경기도 부천시 원미동 97-1번지","category":"음료식품 - 제과점"},{"name":"시장양곡","tel":"032-611-6866","addr":"경기도 부천시 원미동 97-1번지","category":"음료식품 - 미곡상"},{"name":"우처녀 돈총각","tel":"032-655-5777","addr":"경기도 부천시 원미동 97-1번지 경원빌딩 1층","category":"음료식품 - 정육점"},{"name":"원미시장내강화인삼","tel":"032-655-0609","addr":"경기도 부천시 원미동 97-1번지","category":"건강식품 - 홍삼제품"},{"name":"유일보습학원","tel":"032-656-7997","addr":"경기도 부천시 원미동 97-1번지","category":"학원 - 컴퓨터학원"}]},{"lat":"37.4907642578","long":"126.7902462695","items":[{"name":"금성원미대리점","tel":"032-62-6332","addr":"경기도 부천시 원미동 181-8번지 6통5반","category":"전기제품 - 가전제품"}]},{"lat":"37.49720908","long":"126.79176593","items":[{"name":"기린자동차정비공업사","tel":"032-662-6231","addr":"경기도 부천시 원미동 7-7번지","category":"자동차정비 유지 - 자동차정비"}]},{"lat":"37.499842701","long":"126.79329651","items":[{"name":"기발한치킨","tel":"032-667-9255","addr":"경기도 부천시 원미동 1-3번지 영빌딩 1층 일부","category":"일반휴게음식 - 스넥"},{"name":"만경","tel":"032-652-7733","addr":"경기도 부천시 원미동 1-3번지 1층","category":"일반휴게음식 - 중국식"},{"name":"부일서적","tel":"032-611-7845","addr":"경기도 부천시 원미동 1-3번지","category":"서적문구 - 전문서적"}]},{"lat":"37.49037728","long":"126.79049613","items":[{"name":"기브썸미","tel":"032-665-8807","addr":"경기도 부천시 원미동 190-18번지","category":"의류 - 정장"}]},{"lat":"37.495288103","long":"126.78576676","items":[{"name":"기산정밀","tel":"032-611-6585","addr":"경기도 부천시 원미동 91-5번지 2층","category":"광학제품 - 카메라"},{"name":"통큰갈비(원미점)","tel":"032-611-3737","addr":"경기도 부천시 원미동 91-5번지 1층","category":"일반휴게음식 - 일반한식"}]},{"lat":"37.495568736","long":"126.79146523","items":[{"name":"길목","tel":"032-656-8488","addr":"경기도 부천시 원미동 54-11번지","category":"일반휴게음식 - 칵테일바"},{"name":"여우숲","tel":"","addr":"경기도 부천시 원미동 54-11번지 1층","category":"의류 - 정장"},{"name":"진컬렉션","tel":"032-688-1108","addr":"경기도 부천시 원미동 54-11번지","category":"보건위생 - 화장품"}]},{"lat":"37.49546001","long":"126.7911263","items":[{"name":"김민경헤어랩","tel":"032-614-3011","addr":"경기도 부천시 원미동 54-21번지 1층","category":"보건위생 - 미용원"},{"name":"불로원흑염소","tel":"032-663-9984","addr":"경기도 부천시 원미동 54-21번지","category":"건강식품 - 기타건강식품"}]},{"lat":"37.498841802","long":"126.79284696","items":[{"name":"김밥천국","tel":"032-655-9501","addr":"경기도 부천시 원미동 1-27번지 1층","category":"일반휴게음식 - 스넥"},{"name":"신조헤어클럽","tel":"032-656-5333","addr":"경기도 부천시 원미동 1-27번지","category":"보건위생 - 미용원"}]},{"lat":"37.495424477","long":"126.7914091","items":[{"name":"김서영의원","tel":"032-611-1766","addr":"경기도 부천시 원미동 54-25번지 2층","category":"의원 - 의원"},{"name":"뉴욕네일","tel":"032-208-8066","addr":"경기도 부천시 원미동 54-25번지","category":"보건위생 - 미용재료"},{"name":"삼성원미제일프라자","tel":"032-667-4933","addr":"경기도 부천시 원미동 54-25번지 1층","category":"전기제품 - 가전제품"},{"name":"샵 노래방","tel":"032-665-3660","addr":"경기도 부천시 원미동 54-25번지","category":"레저업소 - 노 래 방"},{"name":"씨유부천원미점","tel":"031-446-8960","addr":"경기도 부천시 원미동 54-25번지 1층","category":"유통업 영리 - 편 의 점"}]},{"lat":"37.492738174","long":"126.79065906","items":[{"name":"김성덕치과의원","tel":"032-654-5569","addr":"경기도 부천시 원미동 95-6번지","category":"의원 - 치과의원"},{"name":"나를 예쁘게","tel":"032-612-5079","addr":"경기도 부천시 원미동 95-6번지","category":"보건위생 - 피부미용실"},{"name":"원미사랑약국","tel":"032-657-9556","addr":"경기도 부천시 원미동 95-6번지","category":"약국 - 약국"},{"name":"파리바게뜨 원미사거리","tel":"032-664-2863","addr":"경기도 부천시 원미동 95-6번지","category":"음료식품 - 제과점"}]},{"lat":"37.49214851","long":"126.78843313","items":[{"name":"까마우베트남쌀국수","tel":"032-611-8343","addr":"경기도 부천시 원미동 126-1번지 1층","category":"일반휴게음식 - 서양음식"},{"name":"박승오뷰티샵","tel":"","addr":"경기도 부천시 원미동 126-1번지 1층","category":"보건위생 - 미용원"}]},{"lat":"37.490709384","long":"126.78979413","items":[{"name":"까미","tel":"032-657-9283","addr":"경기도 부천시 원미동 181-13번지","category":"의류 - 정장"},{"name":"학빈식품","tel":"032-651-8858","addr":"경기도 부천시 원미동 181-13번지 1층","category":"유통업 영리 - 슈퍼마켓"},{"name":"해동떡방앗간","tel":"032-654-1515","addr":"경기도 부천시 원미동 181-13번지 1층","category":"음료식품 - 기타음료식품"}]},{"lat":"37.494233032","long":"126.78527226","items":[{"name":"까페앤쿡","tel":"","addr":"경기도 부천시 원미동 111-2번지 1층","category":"일반휴게음식 - 서양음식"},{"name":"루키","tel":"032-663-3450","addr":"경기도 부천시 원미동 111-2번지 1층","category":"의류 - 정장"},{"name":"정현사교댄스","tel":"032-431-8297","addr":"경기도 부천시 원미동 111-2번지 2층","category":"회원제형태 - 레져업소"}]},{"lat":"37.495152914","long":"126.78574453","items":[{"name":"깨끗한김밥","tel":"032-612-8337","addr":"경기도 부천시 원미동 91-6번지 1층","category":"일반휴게음식 - 스넥"},{"name":"샤방샤방치킨호프","tel":"032-611-4432","addr":"경기도 부천시 원미동 91-6번지 1층 일부","category":"일반휴게음식 - 일반한식"},{"name":"카페맑음","tel":"032-328-4569","addr":"경기도 부천시 원미동 91-6번지","category":"일반휴게음식 - 서양음식"},{"name":"통돼지두루치기","tel":"032-651-9475","addr":"경기도 부천시 원미동 91-6번지","category":"일반휴게음식 - 일반한식"},{"name":"후노래연습장","tel":"032-656-2011","addr":"경기도 부천시 원미동 91-6번지 2층","category":"레저업소 - 노 래 방"}]},{"lat":"37.489929897","long":"126.7872409","items":[{"name":"꼬꼬데이","tel":"032-612-0056","addr":"경기도 부천시 원미동 168-20번지 대훈탑스빌 101호","category":"일반휴게음식 - 주점"}]},{"lat":"37.492206388","long":"126.79054749","items":[{"name":"꼬꼬숯불바베큐","tel":"032-2657-9992","addr":"경기도 부천시 원미동 115-1번지 유림연립 나동 제1층 제102호","category":"일반휴게음식 - 일반한식"},{"name":"다마시따","tel":"032-343-5851","addr":"경기도 부천시 원미동 115-1번지 유림연립 나동 103호","category":"일반휴게음식 - 일반한식"},{"name":"아구왕자","tel":"032-675-9353","addr":"경기도 부천시 원미동 115-1번지 유림연립나동 1층 8호","category":"일반휴게음식 - 일반한식"},{"name":"양스헤어(양,S hair)","tel":"032-287-0990","addr":"경기도 부천시 원미동 115-1번지 유림연립 나동 105호","category":"보건위생 - 미용원"},{"name":"유림약국","tel":"032-665-3793","addr":"경기도 부천시 원미동 115-1번지 유림아파트","category":"약국 - 약국"},{"name":"현미와누룽지","tel":"070-7690-8515","addr":"경기도 부천시 원미동 115-1번지 제나동 107호","category":"음료식품 - 미곡상"}]},{"lat":"37.493098122","long":"126.79040927","items":[{"name":"꼬락","tel":"","addr":"경기도 부천시 원미동 96-6번지 1층","category":"의류 - 기타의류"},{"name":"옛날통닭","tel":"032-613-4223","addr":"경기도 부천시 원미동 96-6번지 1층 일부","category":"일반휴게음식 - 스넥"},{"name":"지누사","tel":"070-8667-6486","addr":"경기도 부천시 원미동 96-6번지 1층","category":"신변잡화 - 액세서리"},{"name":"황기순의홍두깨손칼국수","tel":"032-324-3735","addr":"경기도 부천시 원미동 96-6번지 1층","category":"일반휴게음식 - 일반한식"}]},{"lat":"37.495207835","long":"126.79118355","items":[{"name":"꼬비랑","tel":"","addr":"경기도 부천시 원미동 77-1번지 플로채 301호","category":"신변잡화 - 기타잡화"},{"name":"더블유헤어","tel":"032-663-7584","addr":"경기도 부천시 원미동 77-1번지 플로채 1층 101호","category":"보건위생 - 미용원"},{"name":"더스타일","tel":"070-7593-1588","addr":"경기도 부천시 원미동 77-1번지 플로채 102호","category":"의류 - 정장"}]},{"lat":"37.488484431","long":"126.79007182","items":[{"name":"꽃다지","tel":"032-611-0923","addr":"경기도 부천시 원미동 191-7번지 1층 상가일부","category":"일반휴게음식 - 주점"},{"name":"놀자기획","tel":"","addr":"경기도 부천시 원미동 191-7번지 지하 예림교회","category":"용역 서비스 - 종합용역"},{"name":"순이네 구제","tel":"031-111-1111","addr":"경기도 부천시 원미동 191-7번지 1층 일부","category":"의류 - 기타의류"}]},{"lat":"37.494431354","long":"126.78532823","items":[{"name":"꽃피는날","tel":"032-651-7246","addr":"경기도 부천시 원미동 111-8번지 한마음 상가 103호","category":"문화.취미 - 화원"},{"name":"꽃피는날(&pub)","tel":"032-611-5353","addr":"경기도 부천시 원미동 111-8번지 삼성한마음 상가 103호","category":"일반휴게음식 - 스넥"},{"name":"내안의 노래라이브","tel":"032-613-6690","addr":"경기도 부천시 원미동 111-8번지 삼성한마음아파트 지하1층","category":"일반휴게음식 - 주점"},{"name":"부흥체육사","tel":"032-662-5665","addr":"경기도 부천시 원미동 111-8번지 삼성한마음아파트","category":"레져용품 - 스포츠·레져용품"},{"name":"진도카","tel":"032-664-3240","addr":"경기도 부천시 원미동 111-8번지 삼성한마음아파트","category":"자동차정비 유지 - 자동차정비"}]},{"lat":"37.490124902","long":"126.79044031","items":[{"name":"꿀물포차","tel":"032-662-1539","addr":"경기도 부천시 원미동 190-21번지 1층 일부","category":"일반휴게음식 - 일반한식"},{"name":"주객","tel":"032-341-4398","addr":"경기도 부천시 원미동 190-21번지","category":"일반휴게음식 - 주점"}]},{"lat":"37.491544149","long":"126.7880504","items":[{"name":"뀨끼오닭강정","tel":"","addr":"경기도 부천시 원미동 141-2번지 1층","category":"일반휴게음식 - 스넥"},{"name":"메르시","tel":"","addr":"경기도 부천시 원미동 141-2번지 1층","category":"의류 - 정장"},{"name":"원미두부마을","tel":"032-655-2509","addr":"경기도 부천시 원미동 141-2번지 1층","category":"음료식품 - 기타음료식품"}]},{"lat":"37.493151734","long":"126.79016035","items":[{"name":"끄러모아","tel":"032-330-5585","addr":"경기도 부천시 원미동 98-5번지","category":"보건위생 - 미용재료"},{"name":"신흥종합상회","tel":"","addr":"경기도 부천시 원미동 98-5번지","category":"음료식품 - 농·축·수산품"},{"name":"제이앤씨파트너스모든머리","tel":"032-330-5585","addr":"경기도 부천시 원미동 98-5번지","category":"보건위생 - 미용재료"},{"name":"토마토","tel":"032-655-1652","addr":"경기도 부천시 원미동 98-5번지 원미시장","category":"의류 - 정장"}]},{"lat":"37.49698457","long":"126.78718669","items":[{"name":"나래에어컨","tel":"032-654-2324","addr":"경기도 부천시 원미동 69-1번지","category":"수리서비스 - 가정용품수리"}]},{"lat":"37.491042464","long":"126.78963488","items":[{"name":"나무꾼","tel":"070-5022-8885","addr":"경기도 부천시 원미동 172-32번지","category":"일반휴게음식 - 일반한식"},{"name":"바다속포차","tel":"032-662-2365","addr":"경기도 부천시 원미동 172-32번지 1층 일부","category":"일반휴게음식 - 일반한식"},{"name":"원미양꼬치","tel":"070-5022-8885","addr":"경기도 부천시 원미동 172-32번지 1층 일부","category":"일반휴게음식 - 일반한식"},{"name":"짜장마켓","tel":"032-263-2485","addr":"경기도 부천시 원미동 172-32번지 1층 일부","category":"일반휴게음식 - 중국식"},{"name":"짜장마켓","tel":"032-263-2485","addr":"경기도 부천시 원미동 172-32번지","category":"일반휴게음식 - 중국식"}]},{"lat":"37.493126593","long":"126.79121204","items":[{"name":"나무약국","tel":"032-664-8276","addr":"경기도 부천시 원미동 94-11번지","category":"약국 - 약국"},{"name":"차차차노래방","tel":"032-668-8231","addr":"경기도 부천시 원미동 94-11번지","category":"레저업소 - 노 래 방"}]},{"lat":"37.492982334","long":"126.79115591","items":[{"name":"나무와 디자인","tel":"032-655-5448","addr":"경기도 부천시 원미동 94-12번지 영광빌딩","category":"문화.취미 - 문화취미기타"},{"name":"두호헤어","tel":"032-655-7280","addr":"경기도 부천시 원미동 94-12번지 영광빌딩 1층","category":"보건위생 - 미용원"},{"name":"이디야(부천원미점)","tel":"032-654-0527","addr":"경기도 부천시 원미동 94-12번지 영광빌딩 1층","category":"일반휴게음식 - 서양음식"},{"name":"정다운코리아엠보습학원","tel":"032-651-0179","addr":"경기도 부천시 원미동 94-12번지 영광빌딩 3,4층","category":"학원 - 보습학원"}]},{"lat":"37.492397613","long":"126.78669104","items":[{"name":"나무와공간","tel":"032-654-1243","addr":"경기도 부천시 원미동 132-1번지 지하","category":"가구 - 일반가구"},{"name":"식물카페플랜트","tel":"","addr":"경기도 부천시 원미동 132-1번지 1층 일부","category":"일반휴게음식 - 서양음식"}]},{"lat":"37.49850741","long":"126.79227116","items":[{"name":"남부천로타리클럽","tel":"032-652-6940","addr":"경기도 부천시 원미동 6-6번지 청화빌딩 3층","category":"기타 - 비영리/대상"},{"name":"엄마밥상","tel":"032-667-8551","addr":"경기도 부천시 원미동 6-6번지 1층","category":"일반휴게음식 - 일반한식"},{"name":"원미경희한의원","tel":"032-665-1688","addr":"경기도 부천시 원미동 6-6번지 창화빌딩 1층","category":"의원 - 한의원"}]},{"lat":"37.48912295","long":"126.78941419","items":[{"name":"낫드이래무역상사","tel":"02-2689-1215","addr":"경기도 부천시 원미동 193-12번지","category":"레져용품 - 스포츠·레져용품"}]},{"lat":"37.498318202","long":"126.7922717","items":[{"name":"내고향밥상","tel":"032-667-1316","addr":"경기도 부천시 원미동 7-1번지","category":"일반휴게음식 - 일반한식"},{"name":"중앙미니슈퍼","tel":"032-541-0369","addr":"경기도 부천시 원미동 7-1번지","category":"음료식품 - 기타음료식품"},{"name":"지코바치킨","tel":"032-231-9292","addr":"경기도 부천시 원미동 7-1번지 1층 일부","category":"일반휴게음식 - 스넥"}]},{"lat":"37.487375113","long":"126.78946439","items":[{"name":"내사랑호프","tel":"032-666-1127","addr":"경기도 부천시 원미동 204-9번지","category":"일반휴게음식 - 주점"},{"name":"생각대로하면되지","tel":"032-666-6647","addr":"경기도 부천시 원미동 204-9번지 3호","category":"일반휴게음식 - 주점"}]},{"lat":"37.495484355","long":"126.78963356","items":[{"name":"내장산막걸리","tel":"032-655-7041","addr":"경기도 부천시 원미동 79-28번지 1층","category":"일반휴게음식 - 일반한식"}]},{"lat":"37.492794017","long":"126.79165398","items":[{"name":"냉난방기설치전문점","tel":"070-4069-6335","addr":"경기도 부천시 원미동 178-6번지","category":"용역 서비스 - 기타용역서비스"}]},{"lat":"37.494567444","long":"126.79080089","items":[{"name":"넘버원 과일가게","tel":"","addr":"경기도 부천시 원미동 78-2번지 비동호","category":"음료식품 - 농·축·수산품"},{"name":"대림상회","tel":"032-662-6113","addr":"경기도 부천시 원미동 78-2 1층","category":"음료식품 - 농·축·수산품"},{"name":"땡초꼬마김밥","tel":"032-652-0777","addr":"경기도 부천시 원미동 78-2번지 B동 1층 일부","category":"일반휴게음식 - 스넥"},{"name":"여러분축산","tel":"032-655-3179","addr":"경기도 부천시 원미동 78-2번지 1층 제비동호","category":"음료식품 - 정육점"},{"name":"열린화장품","tel":"032-612-6688","addr":"경기도 부천시 원미동 78-2번지","category":"보건위생 - 화장품"},{"name":"재정이네튀김.분식","tel":"032-651-5222","addr":"경기도 부천시 원미동 78-2번지 1층 일부","category":"일반휴게음식 - 스넥"},{"name":"한정애야채","tel":"032-652-4494","addr":"경기도 부천시 원미동 78-2번지","category":"음료식품 - 농·축·수산품"}]},{"lat":"37.498400137","long":"126.79274642","items":[{"name":"높은산미술.음악학원","tel":"032-656-3294","addr":"경기도 부천시 원미동 1-8번지 태진 상가 2층","category":"학원 - 예·체능계학원"},{"name":"벌터","tel":"032-611-5202","addr":"경기도 부천시 원미동 1-8번지 1층","category":"일반휴게음식 - 일반한식"},{"name":"숙명필음악학원","tel":"032-666-4020","addr":"경기도 부천시 원미동 1-8번지","category":"학원 - 예·체능계학원"},{"name":"씨유원미대로점","tel":"032-654-8009","addr":"경기도 부천시 원미동 1-8번지","category":"유통업 영리 - 편 의 점"},{"name":"전주한식부페","tel":"032-651-9035","addr":"경기도 부천시 원미동 1-8번지","category":"일반휴게음식 - 일반한식"},{"name":"해동검도,합기도","tel":"032-664-3131","addr":"경기도 부천시 원미동 1-8번지 태진빌딩 3층","category":"학원 - 예·체능계학원"}]},{"lat":"37.492819304","long":"126.79068144","items":[{"name":"뉴스카이보습음악학원","tel":"032-208-1236","addr":"경기도 부천시 원미동 95-11번지 2층","category":"학원 - 예·체능계학원"},{"name":"메니아7080","tel":"032-663-2771","addr":"경기도 부천시 원미동 95-11번지 지층","category":"일반휴게음식 - 주점"},{"name":"활기찬한의원","tel":"032-663-1075","addr":"경기도 부천시 원미동 95-11번지","category":"의원 - 한의원"}]},{"lat":"37.487294024","long":"126.78946463","items":[{"name":"늘봄경양식","tel":"032-611-3141","addr":"경기도 부천시 원미동 204-87번지","category":"일반휴게음식 - 서양음식"},{"name":"만남","tel":"032-656-1748","addr":"경기도 부천시 원미동 204-87번지 1층","category":"일반휴게음식 - 일반한식"},{"name":"쇼킹호프","tel":"032-662-1233","addr":"경기도 부천시 원미동 204-87번지","category":"일반휴게음식 - 주점"}]},{"lat":"37.498563339","long":"126.7933227","items":[{"name":"능률보습학원","tel":"032-221-7730","addr":"경기도 부천시 원미동 24-10번지 2층","category":"학원 - 보습학원"},{"name":"원미동블루코너","tel":"032-665-3660","addr":"경기도 부천시 원미동 24-10번지 1층","category":"일반휴게음식 - 스넥"}]},{"lat":"37.492124139","long":"126.78990319","items":[{"name":"능성떡방앗간","tel":"032-664-4607","addr":"경기도 부천시 원미동 118-18번지","category":"음료식품 - 제과점"},{"name":"목동돈가스","tel":"032-654-9888","addr":"경기도 부천시 원미동 118-18번지","category":"일반휴게음식 - 일반한식"},{"name":"친절상회","tel":"032-651-3553","addr":"경기도 부천시 원미동 118-18번지","category":"의류 - 내의판매"}]},{"lat":"37.491013223","long":"126.78841376","items":[{"name":"다모아 불교용품백화점","tel":"070-5205-8168","addr":"경기도 부천시 원미동 172-1번지 1층","category":"신변잡화 - 기념품점"},{"name":"스타피아노","tel":"080-858-0033","addr":"경기도 부천시 원미동 172-1번지 1층","category":"보건위생 - 기타대인서비스"}]},{"lat":"37.494404782","long":"126.78557708","items":[{"name":"다미헤어","tel":"032-612-7856","addr":"경기도 부천시 원미동 110-15번지 1층","category":"보건위생 - 미용원"}]},{"lat":"37.491733048","long":"126.78788025","items":[{"name":"다솔","tel":"032-688-8153","addr":"경기도 부천시 원미동 126-14번지 2층","category":"건강식품 - 기타건강식품"},{"name":"다솔","tel":"032-668-8153","addr":"경기도 부천시 원미동 126-14번지 2층","category":"건강식품 - 기타건강식품"},{"name":"원미식당","tel":"070-7583-3114","addr":"경기도 부천시 원미동 126-14번지 1층","category":"일반휴게음식 - 일반한식"},{"name":"음메꿀꿀푸줏간","tel":"032-666-7652","addr":"경기도 부천시 원미동 126-14번지 1층3칸중2칸","category":"음료식품 - 정육점"}]},{"lat":"37.49331631","long":"126.78651878","items":[{"name":"다솔장식","tel":"032-665-1425","addr":"경기도 부천시 원미동 109-22번지","category":"직물 - 카페트,커튼,천막,지물"}]},{"lat":"37.496960276","long":"126.78869077","items":[{"name":"다야 (DAYA)","tel":"031-000-0000","addr":"경기도 부천시 원미동 62-5번지 2층","category":"의류 - 맞춤복점"}]},{"lat":"37.488817308","long":"126.7897995","items":[{"name":"다온","tel":"","addr":"경기도 부천시 원미동 193-20번지 1층","category":"의류 - 정장"},{"name":"뮤즈","tel":"032-665-5218","addr":"경기도 부천시 원미동 193-20번지 1층 일부","category":"일반휴게음식 - 일반한식"}]},{"lat":"37.48996604","long":"126.78729734","items":[{"name":"다올통신","tel":"070-8970-4016","addr":"경기도 부천시 원미동 168-20번지 대훈탑스빌 3동 1층 102호","category":"사무통신 - 통신기기"}]},{"lat":"37.495679704","long":"126.78804987","items":[{"name":"다올호프","tel":"032-612-3321","addr":"경기도 부천시 원미동 84-4번지 1층 일부","category":"일반휴게음식 - 주점"},{"name":"파티노래연습장","tel":"032-666-4211","addr":"경기도 부천시 원미동 84-4번지 지B층 1호","category":"레저업소 - 노 래 방"}]},{"lat":"37.491537558","long":"126.78938471","items":[{"name":"다울","tel":"032-1111-1111","addr":"경기도 부천시 원미동 120-6번지","category":"의류 - 정장"},{"name":"마카리오스","tel":"032-2632-5236","addr":"경기도 부천시 원미동 120-6번지","category":"신변잡화 - 액세서리"},{"name":"명석당","tel":"032-665-6775","addr":"경기도 부천시 원미동 120-6번지","category":"신변잡화 - 귀금속"},{"name":"오시날개","tel":"032-661-5708","addr":"경기도 부천시 원미동 120-6번지","category":"의류 - 정장"}]},{"lat":"37.491321157","long":"126.78929486","items":[{"name":"다이소부천부흥시장점","tel":"032-663-8370","addr":"경기도 부천시 원미동 172-23번지","category":"신변잡화 - 기타잡화"},{"name":"쿨노래연습장","tel":"032-654-1123","addr":"경기도 부천시 원미동 172-23번지 지층","category":"레저업소 - 노 래 방"}]},{"lat":"37.492592571","long":"126.78985663","items":[{"name":"다정한경희한의원","tel":"031-000-0000","addr":"경기도 부천시 원미동 117-7번지 2층","category":"의원 - 한의원"},{"name":"동서가구","tel":"032-656-8978","addr":"경기도 부천시 원미동 117-7번지","category":"가구 - 일반가구"},{"name":"옥보석","tel":"032-654-6766","addr":"경기도 부천시 원미동 117-7번지","category":"신변잡화 - 시계"}]},{"lat":"37.497596373","long":"126.78670998","items":[{"name":"달밤에","tel":"","addr":"경기도 부천시 원미동 68-3번지 1층 일부","category":"일반휴게음식 - 주점"},{"name":"친구노래연습장","tel":"032-667-4449","addr":"경기도 부천시 원미동 68-3번지","category":"레저업소 - 노 래 방"},{"name":"태원","tel":"032-662-5298","addr":"경기도 부천시 원미동 68-3번지","category":"일반휴게음식 - 중국식"},{"name":"현대당구장","tel":"032-667-4537","addr":"경기도 부천시 원미동 68-3번지","category":"레저업소 - 당 구 장"},{"name":"호남손맛","tel":"032-665-6238","addr":"경기도 부천시 원미동 68-3번지","category":"일반휴게음식 - 일반한식"}]},{"lat":"37.492708331","long":"126.78909868","items":[{"name":"달콤한마법사","tel":"032-667-7244","addr":"경기도 부천시 원미동 117-16번지 명성연립 1층 105호","category":"음료식품 - 제과점"},{"name":"명성타일상사","tel":"032-664-7766","addr":"경기도 부천시 원미동 117-16번지 명성연립 102호","category":"건축자재 - 기타건축자재"}]},{"lat":"37.49351501","long":"126.79176502","items":[{"name":"달콤한쭈니네","tel":"","addr":"경기도 부천시 원미동 176-12번지 1층","category":"음료식품 - 기타음료식품"},{"name":"숯불에 구워 먹는 닭(숯구닭)","tel":"032-611-9745","addr":"경기도 부천시 원미동 176-12번지 1층 일부","category":"일반휴게음식 - 일반한식"}]},{"lat":"37.495733043","long":"126.78765393","items":[{"name":"당구칠래","tel":"032-208-1017","addr":"경기도 부천시 원미동 84번지 2층","category":"레저업소 - 당 구 장"},{"name":"원미동사람들","tel":"032-655-8370","addr":"경기도 부천시 원미동 84번지","category":"일반휴게음식 - 서양음식"},{"name":"주전자네","tel":"032-664-3465","addr":"경기도 부천시 원미동 84번지","category":"일반휴게음식 - 일반한식"}]},{"lat":"37.492788026","long":"126.78832953","items":[{"name":"대건모피","tel":"032-656-9707","addr":"경기도 부천시 원미동 122-4번지","category":"의류 - 기타의류"},{"name":"대박양말","tel":"02-1111-1111","addr":"경기도 부천시 원미동 122-4번지 1층","category":"의류 - 기타의류"},{"name":"삼손태권도","tel":"032-668-9294","addr":"경기도 부천시 원미동 122-4번지 4층","category":"학원 - 예·체능계학원"},{"name":"정다운수학보습학원","tel":"032-661-0700","addr":"경기도 부천시 원미동 122-4번지 3층","category":"학원 - 보습학원"},{"name":"정다운지앤비어학원","tel":"032-651-0584","addr":"경기도 부천시 원미동 122-4번지 2층","category":"학원 - 기타 교육기관"}]},{"lat":"37.499987347","long":"126.78854642","items":[{"name":"대건자동차","tel":"032-683-8282","addr":"경기도 부천시 원미동 41-5번지","category":"자동차정비 유지 - 자동차정비"}]},{"lat":"37.496234098","long":"126.7857414","items":[{"name":"대경공조","tel":"032-666-2396","addr":"경기도 부천시 원미동 74-3번지","category":"전기제품 - 냉열기기"},{"name":"대경공조","tel":"032-666-2398","addr":"경기도 부천시 원미동 74-3번지","category":"전기제품 - 냉열기기"},{"name":"송월타올","tel":"032-663-2001","addr":"경기도 부천시 원미동 74-3지하1층","category":"직물 - 기타직물"}]},{"lat":"37.499230518","long":"126.78854858","items":[{"name":"대경케미칼","tel":"032-656-7811","addr":"경기도 부천시 원미동 45-2번지","category":"서적문구 - 과학기자재"},{"name":"주식회사 이엔엠컴퍼니","tel":"032-1600-8326","addr":"경기도 부천시 원미동 45-2번지 B01호","category":"건축자재 - 기타건축자재"}]},{"lat":"37.49165393","long":"126.788966","items":[{"name":"대광정보통신","tel":"032-207-6211","addr":"경기도 부천시 원미동 121-7번지 반도연립 1동 106호","category":"사무통신 - 통신기기"},{"name":"반닭치킨","tel":"032-662-1107","addr":"경기도 부천시 원미동 121-7번지 반도연립 1동 1층 103호","category":"일반휴게음식 - 스넥"},{"name":"원미유통","tel":"032-664-3327","addr":"경기도 부천시 원미동 121-7번지 반도연립 1동 101호","category":"음료식품 - 미곡상"},{"name":"이삭역삼","tel":"032-544-3868","addr":"경기도 부천시 원미동 121-7번지 반도연립 1동 201호","category":"음료식품 - 미곡상"},{"name":"학운축산","tel":"032-612-5233","addr":"경기도 부천시 원미동 121-7번지 반도연립 1동 1층 104호","category":"음료식품 - 정육점"}]},{"lat":"37.491484193","long":"126.78976931","items":[{"name":"대광축산","tel":"032-666-1571","addr":"경기도 부천시 원미동 120-12번지 1층","category":"음료식품 - 정육점"},{"name":"친절한축산","tel":"032-269-7789","addr":"경기도 부천시 원미동 120-12번지 1층","category":"음료식품 - 정육점"},{"name":"친절한축산(2호점)","tel":"032-269-7789","addr":"경기도 부천시 원미동 120-12번지 1층 일부호","category":"음료식품 - 정육점"},{"name":"하림유통","tel":"032-666-1571","addr":"경기도 부천시 원미동 120-12번지 1층","category":"음료식품 - 정육점"}]},{"lat":"37.492370935","long":"126.78688335","items":[{"name":"대리운전","tel":"032-663-0782","addr":"경기도 부천시 원미동 127-8번지","category":"보건위생 - 기타대인서비스"},{"name":"막창구이","tel":"032-662-5580","addr":"경기도 부천시 원미동 127-8번지","category":"일반휴게음식 - 일반한식"}]},{"lat":"37.493738301","long":"126.7857147","items":[{"name":"대명공인중개사사무소","tel":"032-664-0678","addr":"경기도 부천시 원미동 108-7번지","category":"용역 서비스 - 부동산 중개·임대"},{"name":"딱따구리","tel":"032-681-8368","addr":"경기도 부천시 원미동 108-7번지 1층","category":"일반휴게음식 - 칵테일바"}]},{"lat":"37.491679606","long":"126.78821963","items":[{"name":"대박노래연습장","tel":"032-665-4677","addr":"경기도 부천시 원미동 126-11번지 지하","category":"레저업소 - 노 래 방"},{"name":"더존모바일","tel":"","addr":"경기도 부천시 원미동 126-11번지 1층 일부","category":"사무통신 - 통신기기"},{"name":"떡시루","tel":"032-324-6251","addr":"경기도 부천시 원미동 126-11번지","category":"음료식품 - 제과점"},{"name":"메리야스할인매장","tel":"032-666-0232","addr":"경기도 부천시 원미동 126-11번지 1층","category":"의류 - 내의판매"},{"name":"아리수","tel":"032-655-5778","addr":"경기도 부천시 원미동 126-11번지 1층","category":"보건위생 - 미용원"}]},{"lat":"37.491674561","long":"126.7904133","items":[{"name":"대박슈퍼","tel":"031-410-2400","addr":"경기도 부천시 원미동 115-2번지 유림연립 1층 103호","category":"유통업 영리 - 슈퍼마켓"},{"name":"산들래","tel":"032-654-5252","addr":"경기도 부천시 원미동 115-2번지 유림연립 마동 101호","category":"일반휴게음식 - 일반한식"},{"name":"오구쌀피자","tel":"032-662-5913","addr":"경기도 부천시 원미동 115-2번지 유림연립마-101","category":"일반휴게음식 - 서양음식"},{"name":"이모네즉석김밥","tel":"032-667-6411","addr":"경기도 부천시 원미동 115-2번지 유림연립 마동 104호","category":"일반휴게음식 - 스넥"},{"name":"클럽에스프레소오라클","tel":"","addr":"경기도 부천시 원미동 115-2번지 유림연립 마동 103호 일부","category":"일반휴게음식 - 서양음식"},{"name":"하루","tel":"032-342-0811","addr":"경기도 부천시 원미동 115-2번지 유림연립 마동 1층 102호","category":"일반휴게음식 - 일반한식"},{"name":"헤어끌레오","tel":"032-613-0303","addr":"경기도 부천시 원미동 115-2번지 유림연립 마동 104호","category":"보건위생 - 미용원"}]},{"lat":"37.492316897","long":"126.79188147","items":[{"name":"대박식당","tel":"031-654-5509","addr":"경기도 부천시 원미동 184-89번지","category":"일반휴게음식 - 일반한식"}]},{"lat":"37.493396341","long":"126.78594185","items":[{"name":"대박안주마당","tel":"02-2678-7789","addr":"경기도 부천시 원미동 109-20번지 1층","category":"일반휴게음식 - 일반한식"},{"name":"힐링한끼","tel":"02-1577-0000","addr":"경기도 부천시 원미동 109-20번지 1층","category":"일반휴게음식 - 일반한식"}]},{"lat":"37.4993478","long":"126.79365977","items":[{"name":"대박차","tel":"","addr":"경기도 부천시 원미동 11-10번지","category":"음료식품 - 농·축·수산품"}]},{"lat":"37.493431732","long":"126.79054402","items":[{"name":"대성D.C마트","tel":"032-611-5559","addr":"경기도 부천시 원미동 96-4번지","category":"신변잡화 - 기타잡화"}]},{"lat":"37.496208538","long":"126.79151997","items":[{"name":"대성아이텍","tel":"070-7378-4013","addr":"경기도 부천시 원미동 53-18번지 1층 101호","category":"보건위생 - 의료용품"}]},{"lat":"37.497071255","long":"126.79027362","items":[{"name":"대성철물공구","tel":"032-651-4765","addr":"경기도 부천시 원미동 56-1번지","category":"기타 - 기계공구"},{"name":"복사골노래연습장","tel":"032-663-4844","addr":"경기도 부천시 원미동 56-1번지","category":"레저업소 - 노 래 방"},{"name":"토너셀","tel":"032-667-3885","addr":"경기도 부천시 원미동 56-1번지","category":"사무통신 - 기타 사무용품"}]},{"lat":"37.497872889","long":"126.79013565","items":[{"name":"대신전자","tel":"02-365-4411","addr":"경기도 부천시 원미동 37-2번지","category":"보건위생 - 의료용품"}]},{"lat":"37.493037314","long":"126.7866892","items":[{"name":"대영상사","tel":"032-652-8652","addr":"경기도 부천시 원미동 129-23번지","category":"전기제품 - 냉열기기"}]},{"lat":"37.492956432","long":"126.78680251","items":[{"name":"대영할인마트","tel":"032-661-8883","addr":"경기도 부천시 원미동 129-25번지 퍼스트클래스","category":"유통업 영리 - 슈퍼마켓"},{"name":"복사골이야기센터(심리상담)","tel":"032-665-4999","addr":"경기도 부천시 원미동 129-25번지 퍼스트클래스 201호","category":"보건위생 - 기타대인서비스"},{"name":"하늘공조","tel":"070-8624-2581","addr":"경기도 부천시 원미동 129-25번지 퍼스트클래스","category":"전기제품 - 냉열기기"}]},{"lat":"37.491953054","long":"126.7850188","items":[{"name":"대운통신","tel":"032-656-4213","addr":"경기도 부천시 원미동 137-1번지 103호","category":"사무통신 - 통신기기"},{"name":"조아 노래연습장","tel":"070-4952-4747","addr":"경기도 부천시 원미동 137-1번지 2층","category":"레저업소 - 노 래 방"},{"name":"종로김밥&옹심이메밀칼국수","tel":"032-612-3883","addr":"경기도 부천시 원미동 137-1번지 1층 일부","category":"일반휴게음식 - 일반한식"}]},{"lat":"37.493872471","long":"126.78518285","items":[{"name":"대웅한의원","tel":"032-612-6600","addr":"경기도 부천시 원미동 111-5번지","category":"의원 - 한의원"}]},{"lat":"37.497235867","long":"126.79163016","items":[{"name":"대원민물메기매운탕","tel":"032-667-7270","addr":"경기도 부천시 원미동 7-9번지 1층","category":"일반휴게음식 - 일반한식"}]},{"lat":"37.489376817","long":"126.79029543","items":[{"name":"대원사","tel":"032-657-6636","addr":"경기도 부천시 원미동 191-1번지 2층","category":"보건위생 - 기타대인서비스"},{"name":"부천전기철물","tel":"032-665-2868","addr":"경기도 부천시 원미동 191-1번지","category":"건축자재 - 목재·석재·철물"},{"name":"헤어해요미용실","tel":"032-651-7435","addr":"경기도 부천시 원미동 191-1번지","category":"보건위생 - 미용원"}]},{"lat":"37.495091557","long":"126.79165881","items":[{"name":"대추나무한의원","tel":"032-668-7510","addr":"경기도 부천시 원미동 76-7번지 2층","category":"의원 - 한의원"},{"name":"착한노가리","tel":"032-666-8279","addr":"경기도 부천시 원미동 76-7번지","category":"일반휴게음식 - 주점"},{"name":"혜성분식","tel":"032-651-7511","addr":"경기도 부천시 원미동 76-7번지","category":"일반휴게음식 - 스넥"}]},{"lat":"37.488845783","long":"126.79060223","items":[{"name":"대한불교 법륜조계종 천수암","tel":"032-611-8868","addr":"경기도 부천시 원미동 189-65번지 미성맨션 가동 202호","category":"보건위생 - 기타대인서비스"}]},{"lat":"37.490730267","long":"126.78641316","items":[{"name":"대한불교법륜조계종용신사","tel":"032-207-7787","addr":"경기도 부천시 원미동 150-1번지 장미연립 9동 4호","category":"기타 - 비영리/대상"},{"name":"이룸전자","tel":"","addr":"경기도 부천시 원미동 150-1번지 장미연립 7동 104호","category":"수리서비스 - 가정용품수리"}]},{"lat":"37.495563992","long":"126.78883046","items":[{"name":"대한예수교장로회 복된교회","tel":"032-546-2280","addr":"경기도 부천시 원미동 83-8번지 대림프라우드빌 2층","category":"회원제형태 - 학원"}]},{"lat":"37.492903075","long":"126.78718712","items":[{"name":"대한카센타","tel":"032-652-9775","addr":"경기도 부천시 원미동 124-2번지","category":"자동차정비 유지 - 자동차정비"}]},{"lat":"37.491399023","long":"126.78751937","items":[{"name":"댄디","tel":"032-652-8478","addr":"경기도 부천시 원미동 146-3번지 정화연립 A동 101호","category":"음료식품 - 농·축·수산품"}]},{"lat":"37.487095705","long":"126.78940866","items":[{"name":"더 타이어월드 원미점","tel":"032-664-4220","addr":"경기도 부천시 원미동 204-92번지","category":"자동차정비 유지 - 자동차시트·타이어"},{"name":"미강공업","tel":"032-666-2438","addr":"경기도 부천시 원미동 204-92번지","category":"기타 - 기타 전문점"}]},{"lat":"37.488900897","long":"126.79119004","items":[{"name":"더라인미디어","tel":"032-653-1119","addr":"경기도 부천시 원미동 189-44번지 대원칸타빌 301호","category":"회원제형태 - 기타4"}]},{"lat":"37.491649937","long":"126.78677235","items":[{"name":"더유일케어 화장품 소매업","tel":"032-662-8105","addr":"경기도 부천시 원미동 147-2번지 2층","category":"보건위생 - 화장품"},{"name":"맛나식당","tel":"032-666-6464","addr":"경기도 부천시 원미동 147-2번지 1층","category":"일반휴게음식 - 일반한식"},{"name":"술값내기","tel":"032-000-0000","addr":"경기도 부천시 원미동 147-2번지 1층 일부호","category":"일반휴게음식 - 주점"},{"name":"아하노래방","tel":"","addr":"경기도 부천시 원미동 147-2번지","category":"레저업소 - 노 래 방"},{"name":"옛날수제누룽지","tel":"032-652-7893","addr":"경기도 부천시 원미동 147-2번지 1층 일부","category":"음료식품 - 기타음료식품"},{"name":"임정아미용실","tel":"032-664-7745","addr":"경기도 부천시 원미동 147-2번지 1층일부","category":"보건위생 - 미용원"},{"name":"착한식당","tel":"070-7369-1232","addr":"경기도 부천시 원미동 147-2번지","category":"일반휴게음식 - 일반한식"}]},{"lat":"37.491427924","long":"126.78854827","items":[{"name":"더페이스샵 부천원미점","tel":"032-612-1021","addr":"경기도 부천시 원미동 173-11번지 1층","category":"보건위생 - 화장품"},{"name":"제이에이치(JH)푸드","tel":"032-612-3151","addr":"경기도 부천시 원미동 173-11번지","category":"음료식품 - 기타음료식품"}]},{"lat":"37.490091683","long":"126.7870256","items":[{"name":"덕수설비","tel":"032-654-2990","addr":"경기도 부천시 원미동 168-3번지 대훈탑스빌","category":"건축자재 - 보일러·펌프·샷시"}]},{"lat":"37.49568754","long":"126.78740528","items":[{"name":"도깨비헤어","tel":"032-613-8788","addr":"경기도 부천시 원미동 87-30번지 신오스카이빌 3동 102호 일부","category":"보건위생 - 미용원"},{"name":"파란하늘인쇄기획","tel":"032-663-7116","addr":"경기도 부천시 원미동 87-30번지 신오스카이빌 3동 1층 102호","category":"서적문구 - 출판 및 인쇄물"}]},{"lat":"37.495230606","long":"126.7888201","items":[{"name":"도담헤어","tel":"032-655-8303","addr":"경기도 부천시 원미동 83-22번지","category":"보건위생 - 미용원"},{"name":"도담헤어","tel":"032-655-8303","addr":"경기도 부천시 원미동 83-22번지 1층 일부","category":"보건위생 - 미용원"}]},{"lat":"37.492343685","long":"126.79174571","items":[{"name":"도연애견샵","tel":"032-662-7771","addr":"경기도 부천시 원미동 184-91번지","category":"문화.취미 - 애완동물"}]},{"lat":"37.496956014","long":"126.79132562","items":[{"name":"돈이랑 밥이랑","tel":"032-664-1256","addr":"경기도 부천시 원미동 52-3번지","category":"일반휴게음식 - 일반한식"},{"name":"풍전노래연습장","tel":"032-655-7087","addr":"경기도 부천시 원미동 52-3번지","category":"레저업소 - 노 래 방"}]},{"lat":"37.491791439","long":"126.78532458","items":[{"name":"돈치킨호프구운치킨","tel":"032-666-9222","addr":"경기도 부천시 원미동 139-8번지 1층","category":"일반휴게음식 - 스넥"}]},{"lat":"37.490233061","long":"126.79046261","items":[{"name":"돌고래식당","tel":"032-000-0000","addr":"경기도 부천시 원미동 190-20번지 1층","category":"일반휴게음식 - 일반한식"},{"name":"씨유원미베스트점","tel":"032-274-0057","addr":"경기도 부천시 원미동 190-20번지 1층","category":"유통업 영리 - 편 의 점"}]},{"lat":"37.490092142","long":"126.79227218","items":[{"name":"동네슈퍼","tel":"032-215-2535","addr":"경기도 부천시 원미동 189-265번지 1층","category":"유통업 영리 - 슈퍼마켓"}]},{"lat":"37.491873048","long":"126.78560703","items":[{"name":"동대문의류","tel":"032-655-8903","addr":"경기도 부천시 원미동 138-2번지","category":"의류 - 정장"},{"name":"루디아아름다운집만들기","tel":"032-656-8513","addr":"경기도 부천시 원미동 138-2번지","category":"직물 - 침구·수예점"},{"name":"복된 주얼리","tel":"032-684-8050","addr":"경기도 부천시 원미동 138-2번지 1층","category":"신변잡화 - 시계"}]},{"lat":"37.491313957","long":"126.78534858","items":[{"name":"동림OA상사","tel":"032-662-8537","addr":"경기도 부천시 원미동 140-17번지","category":"사무통신 - 사무용 OA기기"},{"name":"바이오테크(푸드엠)","tel":"032-328-2989","addr":"경기도 부천시 원미동 140-17번지","category":"주방용구 - 주방용구"}]},{"lat":"37.494262486","long":"126.79157069","items":[{"name":"동막골","tel":"032-612-4755","addr":"경기도 부천시 원미동 76-4번지 1층","category":"일반휴게음식 - 일반한식"}]},{"lat":"37.495403755","long":"126.78990518","items":[{"name":"동명자동차정비","tel":"032-655-0951","addr":"경기도 부천시 원미동 79-21번지 1층","category":"자동차정비 유지 - 자동차정비"}]},{"lat":"37.493485359","long":"126.78535359","items":[{"name":"동산재가복지센터","tel":"032-665-8733","addr":"경기도 부천시 원미동 110-10번지 3층","category":"기타의료기관 - 기타의료기관 및 기타"},{"name":"동산재가복지용품센터","tel":"032-665-8733","addr":"경기도 부천시 원미동 110-10번지 3층","category":"보건위생 - 의료용품"},{"name":"미소노래연습장","tel":"032-651-1241","addr":"경기도 부천시 원미동 110-10번지 지하","category":"레저업소 - 노 래 방"},{"name":"토마토","tel":"02-2679-6605","addr":"경기도 부천시 원미동 110-10번지","category":"일반휴게음식 - 주점"}]},{"lat":"37.48778967","long":"126.78951975","items":[{"name":"동아일보도당원총지국","tel":"032-681-0548","addr":"경기도 부천시 원미동 204-121번지 1층","category":"서적문구 - 정기간행물"},{"name":"슈퍼덴트칼라","tel":"032-653-7233","addr":"경기도 부천시 원미동 204-121번지 1층","category":"자동차정비 유지 - 가타자동차서비스"}]},{"lat":"37.497984355","long":"126.78701419","items":[{"name":"동양볼링센터","tel":"032-657-3366","addr":"경기도 부천시 원미동 48-4번지","category":"레저업소 - 볼 링 장"},{"name":"동양볼링장","tel":"032-657-3366","addr":"경기도 부천시 원미동 48-4번지","category":"레저업소 - 볼 링 장"},{"name":"비엔알(B&R)휘트니스","tel":"032-665-6989","addr":"경기도 부천시 원미동 48-4번지 4층","category":"레저업소 - 헬스클럽"},{"name":"신부천로타리클럽","tel":"032-665-8204","addr":"경기도 부천시 원미동 48-4번지","category":"기타 - 비영리/비대상"},{"name":"주식회사 바나나선데이","tel":"070-4466-2992","addr":"경기도 부천시 원미동 48-4번지 3층 304호","category":"신변잡화 - 기타잡화"}]},{"lat":"37.493286621","long":"126.78507147","items":[{"name":"동양사","tel":"032-651-1223","addr":"경기도 부천시 원미동 134-2번지","category":"신변잡화 - 귀금속"},{"name":"부천토방","tel":"032-663-3340","addr":"경기도 부천시 원미동 134-2번지 3층","category":"문화.취미 - 문화취미기타"},{"name":"삼성전자판매장","tel":"032-651-8789","addr":"경기도 부천시 원미동 134-2번지","category":"전기제품 - 가전제품"},{"name":"아가페(AGAPE)","tel":"","addr":"경기도 부천시 원미동 134-2번지 1층","category":"자동차정비 유지 - 자동차부품"},{"name":"오늘은포차가는날","tel":"032-663-3027","addr":"경기도 부천시 원미동 134-2번지 1층","category":"일반휴게음식 - 일반한식"},{"name":"요술램프","tel":"032-664-3515","addr":"경기도 부천시 원미동 134-2번지","category":"보건위생 - 미용재료"},{"name":"장어소풍가는날","tel":"032-661-4221","addr":"경기도 부천시 원미동 134-2번지 1층 외2필지","category":"일반휴게음식 - 일반한식"},{"name":"파란나라","tel":"070-7736-1396","addr":"경기도 부천시 원미동 134-2번지","category":"음료식품 - 기타음료식품"}]},{"lat":"37.489091681","long":"126.79207146","items":[{"name":"동인상사","tel":"031-318-2422","addr":"경기도 부천시 원미동 189-126번지","category":"보건위생 - 화장품"}]},{"lat":"37.494598492","long":"126.79305108","items":[{"name":"동일축산유통","tel":"032-654-8008","addr":"경기도 부천시 원미동 157-23번지 삼성그린빌 101호일부","category":"음료식품 - 정육점"},{"name":"안심축산물전문점원미점","tel":"032-654-3480","addr":"경기도 부천시 원미동 157-23번지 삼성그린빌 101호","category":"음료식품 - 정육점"},{"name":"파파돈카츠","tel":"032-656-2566","addr":"경기도 부천시 원미동 157-23번지 삼성그린빌 102호","category":"일반휴게음식 - 일반한식"}]},{"lat":"37.494732836","long":"126.79259839","items":[{"name":"돼지가 김치에 빠질때","tel":"032-661-0313","addr":"경기도 부천시 원미동 166-1번지 1층","category":"일반휴게음식 - 일반한식"}]},{"lat":"37.495819857","long":"126.79081996","items":[{"name":"두레식당","tel":"032-662-0477","addr":"경기도 부천시 원미동 59-22번지 중앙연립 1층 102호","category":"일반휴게음식 - 일반한식"}]},{"lat":"37.490708444","long":"126.78927399","items":[{"name":"두리미용실","tel":"032-662-5352","addr":"경기도 부천시 원미동 174-45","category":"보건위생 - 미용원"}]},{"lat":"37.492758153","long":"126.78676916","items":[{"name":"두리서호프","tel":"032-655-1871","addr":"경기도 부천시 원미동 129-2번지 1층","category":"일반휴게음식 - 주점"},{"name":"술술(soolsool)","tel":"032-613-2040","addr":"경기도 부천시 원미동 129-2번지 1층 일부","category":"일반휴게음식 - 주점"}]},{"lat":"37.48804209","long":"126.78959818","items":[{"name":"두발로호프","tel":"032-655-8273","addr":"경기도 부천시 원미동 201-33번지","category":"일반휴게음식 - 주점"},{"name":"리치헤어","tel":"032-611-9811","addr":"경기도 부천시 원미동 201-33번지 1층","category":"보건위생 - 미용원"},{"name":"유달타이어","tel":"032-614-3330","addr":"경기도 부천시 원미동 201-33번지","category":"자동차정비 유지 - 자동차시트·타이어"},{"name":"화덕구이","tel":"032-665-8889","addr":"경기도 부천시 원미동 201-33번지 1층","category":"일반휴게음식 - 일반한식"}]},{"lat":"37.495176847","long":"126.79402196","items":[{"name":"두산문구","tel":"032-251-6609","addr":"경기도 부천시 원미동 151-1번지 두산아파트","category":"서적문구 - 문구용품"},{"name":"라온태권도장","tel":"032-652-0106","addr":"경기도 부천시 원미동 151-1번지","category":"학원 - 예·체능계학원"},{"name":"부천상회","tel":"032-661-9303","addr":"경기도 부천시 원미동 151-1번지 두산아파트","category":"음료식품 - 농·축·수산품"}]},{"lat":"37.494285349","long":"126.79429583","items":[{"name":"두산홈마트","tel":"032-662-5363","addr":"경기도 부천시 원미동 164-18번지","category":"유통업 영리 - 슈퍼마켓"}]},{"lat":"37.495432324","long":"126.78580026","items":[{"name":"두성전기광고","tel":"032-654-2350","addr":"경기도 부천시 원미동 91-4번지 현대주택 4층 101호","category":"전기제품 - 기타전기제품"}]},{"lat":"37.492427323","long":"126.78816095","items":[{"name":"드로잉그루브","tel":"","addr":"경기도 부천시 원미동 122-3번지 성원아트빌라 403호","category":"문화.취미 - 화랑"}]},{"lat":"37.494622099","long":"126.78616446","items":[{"name":"들녘","tel":"032-655-8292","addr":"경기도 부천시 원미동 105-2번지 심환홈빌리지아파트","category":"일반휴게음식 - 일반한식"},{"name":"웰빙쌈밥","tel":"032-611-2840","addr":"경기도 부천시 원미동 105-2번지 심환홈빌리지아파트 B동 101, 102, 103호","category":"일반휴게음식 - 일반한식"}]},{"lat":"37.493147208","long":"126.78766135","items":[{"name":"디아자닷컴","tel":"032-668-7725","addr":"경기도 부천시 원미동 103-6번지 1층","category":"사무통신 - 컴퓨터"}]},{"lat":"37.494900076","long":"126.78543995","items":[{"name":"디엠짐","tel":"032-230-9200","addr":"경기도 부천시 원미동 111-1번지","category":"레저업소 - 헬스클럽"},{"name":"졸라빨라PC방","tel":"","addr":"경기도 부천시 원미동 111-1번지 지하1층","category":"레저업소 - 기타레져업소"},{"name":"한사랑치과의원","tel":"032-651-2870","addr":"경기도 부천시 원미동 111-1번지 메타웨어빌딩 6층","category":"의원 - 치과의원"}]},{"lat":"37.492681752","long":"126.78934753","items":[{"name":"디오디너리샵","tel":"","addr":"경기도 부천시 원미동 117-20번지 명성연립 1층 101호","category":"의류 - 정장"},{"name":"헤어디자인","tel":"032-651-8268","addr":"경기도 부천시 원미동 117-20번지 명성연립 1층 103호","category":"보건위생 - 미용원"}]},{"lat":"37.495842436","long":"126.78835472","items":[{"name":"디자인맥","tel":"032-613-5110","addr":"경기도 부천시 원미동 65-22","category":"용역 서비스 - 종합용역"}]},{"lat":"37.493089945","long":"126.79087291","items":[{"name":"땅땅치킨 원미사거리점","tel":"032-666-1199","addr":"경기도 부천시 원미동 95-5번지 유림연립 다동 1층 1호","category":"일반휴게음식 - 일반한식"},{"name":"제주생고기","tel":"070-7317-7794","addr":"경기도 부천시 원미동 95-5번지 유림연립 다동 1층 3호","category":"일반휴게음식 - 일반한식"}]},{"lat":"37.495682674","long":"126.78968954","items":[{"name":"또또기획","tel":"032-612-3511","addr":"경기도 부천시 원미동 60-6번지","category":"용역 서비스 - 종합용역"},{"name":"부천시니어클럽유니-원기획","tel":"032-668-4106","addr":"경기도 부천시 원미동 60-6번지","category":"의류 - 단체복"}]},{"lat":"37.490764258","long":"126.79024627","items":[{"name":"또바기의 발자국","tel":"070-4282-2467","addr":"경기도 부천시 원미동 181-8번지 1층","category":"신변잡화 - 신발"},{"name":"이가인테리어","tel":"032-657-6210","addr":"경기도 부천시 원미동 181-8번지","category":"기타 - 기타 전문점"}]},{"lat":"37.491452567","long":"126.78723653","items":[{"name":"똥강아지","tel":"032-668-0544","addr":"경기도 부천시 원미동 146-1번지 정화연립 B동 101호","category":"회원제형태 - 기타4"}]},{"lat":"37.496983391","long":"126.78654212","items":[{"name":"뚝배기집","tel":"032-653-3786","addr":"경기도 부천시 원미동 70-3번지","category":"일반휴게음식 - 일반한식"},{"name":"법무사한철우사무소","tel":"032-664-3661","addr":"경기도 부천시 원미동 70-3번지","category":"용역 서비스 - 법률회계서비스(개인)"},{"name":"씨유원미구청점","tel":"032-611-9946","addr":"경기도 부천시 원미동 70-3번지 1층","category":"유통업 영리 - 편 의 점"},{"name":"한영인쇄","tel":"032-664-4521","addr":"경기도 부천시 원미동 70-3번지","category":"서적문구 - 출판 및 인쇄물"},{"name":"헤어트렌드","tel":"032-612-2915","addr":"경기도 부천시 원미동 70-3번지","category":"보건위생 - 미용원"},{"name":"호프마을","tel":"032-657-7878","addr":"경기도 부천시 원미동 70-3번지","category":"일반휴게음식 - 주점"},{"name":"황진이 뮤비방","tel":"032-564-3865","addr":"경기도 부천시 원미동 70-3번지 지하1층","category":"용역 서비스 - 종합용역"}]},{"lat":"37.495203842","long":"126.78896718","items":[{"name":"라라당","tel":"031-000-0000","addr":"경기도 부천시 원미동 83-26번지 1층","category":"음료식품 - 기타음료식품"},{"name":"점순이네 건어물","tel":"","addr":"경기도 부천시 원미동 83-26번지","category":"음료식품 - 농·축·수산품"}]},{"lat":"37.4928772","long":"126.78782043","items":[{"name":"라엘음악학원","tel":"032-664-4714","addr":"경기도 부천시 원미동 123-1번지 2층 일부","category":"학원 - 예·체능계학원"},{"name":"사오정치킨","tel":"032-668-1228","addr":"경기도 부천시 원미동 123-1번지 1층","category":"일반휴게음식 - 스넥"},{"name":"시대종합공사","tel":"032-667-4657","addr":"경기도 부천시 원미동 123-1번지 1층 일부","category":"건축자재 - 보일러·펌프·샷시"}]},{"lat":"37.491320298","long":"126.78881995","items":[{"name":"라온바디핏","tel":"032-655-6788","addr":"경기도 부천시 원미동 173-5번지 4층","category":"레저업소 - 헬스클럽"},{"name":"부천의료복지사회적협동조합","tel":"032-664-1119","addr":"경기도 부천시 원미동 173-5번지 2층","category":"의원 - 의원"},{"name":"신세기마트","tel":"032-664-8082","addr":"경기도 부천시 원미동 173-5번지 중일부 1층","category":"음료식품 - 농·축·수산품"},{"name":"쓰리에이치 부천센터","tel":"032-225-0202","addr":"경기도 부천시 원미동 173-5번지 3층","category":"보건위생 - 의료용품"},{"name":"왕창할인마트","tel":"032-612-7666","addr":"경기도 부천시 원미동 173-5번지 1층 지하창고","category":"유통업 영리 - 슈퍼마켓"},{"name":"토닥토닥","tel":"032-654-9946","addr":"경기도 부천시 원미동 173-5번지 대희빌딩 2층 일부","category":"일반휴게음식 - 서양음식"}]},{"lat":"37.489342867","long":"126.79146017","items":[{"name":"라이커OA","tel":"02-777-6262","addr":"경기도 부천시 원미동 189-319번지 주영샤르망 1층","category":"사무통신 - 사무용 OA기기"}]},{"lat":"37.491397141","long":"126.79146568","items":[{"name":"라헬영어","tel":"070-4064-8346","addr":"경기도 부천시 원미동 114-1번지 풍림아파트","category":"학원 - 기타 교육기관"},{"name":"부천사임당라이온스클럽","tel":"032-324-6116","addr":"경기도 부천시 원미동 114-1번지 풍림아파트","category":"기타 - 비영리/비대상"},{"name":"준쌤보습학원","tel":"032-666-1236","addr":"경기도 부천시 원미동 114-1번지 상가동 2층 201호,202호","category":"학원 - 보습학원"},{"name":"창조인테리어","tel":"032-612-9246","addr":"경기도 부천시 원미동 114-1외필지 풍림상가 B107호","category":"건축자재 - 인테리어전문"},{"name":"클린앤제이 청라지점","tel":"","addr":"경기도 부천시 원미동 114-1번지 풍림아파트","category":"용역 서비스 - 종합용역"},{"name":"피아첼음악학원","tel":"032-651-3496","addr":"경기도 부천시 원미동 114-1번지 103~105호","category":"학원 - 예·체능계학원"}]},{"lat":"37.492235828","long":"126.78690635","items":[{"name":"런스카이스포츠(RUNSKY SPORTS)","tel":"","addr":"경기도 부천시 원미동 127-10번지 라데팡스 401호","category":"레져용품 - 스포츠·레져용품"},{"name":"진호프","tel":"032-111-1111","addr":"경기도 부천시 원미동 127-10번지 라데팡스 1층 일부","category":"일반휴게음식 - 주점"}]},{"lat":"37.495153289","long":"126.79091231","items":[{"name":"레드버켓원미시장점","tel":"032-662-5713","addr":"경기도 부천시 원미동 77-3번지","category":"음료식품 - 기타음료식품"},{"name":"아빠네 정육점","tel":"032-572-8141","addr":"경기도 부천시 원미동 77-3번지 1층","category":"음료식품 - 정육점"},{"name":"오복청과","tel":"070-7367-2933","addr":"경기도 부천시 원미동 77-3번지","category":"음료식품 - 농·축·수산품"}]},{"lat":"37.494342887","long":"126.79118599","items":[{"name":"레드클럽","tel":"070-8912-3017","addr":"경기도 부천시 원미동 78-15번지 1층","category":"보건위생 - 미용원"},{"name":"스마트플래닛","tel":"032-614-2332","addr":"경기도 부천시 원미동 78-15번지 101호 (101호,103동)","category":"사무통신 - 통신기기"}]},{"lat":"37.49270784","long":"126.7888273","items":[{"name":"레오곤충샵","tel":"032-612-7644","addr":"경기도 부천시 원미동 117-2번지 명성연립 103호","category":"문화.취미 - 애완동물"},{"name":"보물구제","tel":"","addr":"경기도 부천시 원미동 117-2번지 명성연립 103호","category":"의류 - 기타의류"},{"name":"아쿠아하이텍","tel":"032-673-6065","addr":"경기도 부천시 원미동 117-2번지 명성연립 103호","category":"주방용구 - 정수기"},{"name":"카페(cafe)모퉁이","tel":"070-7819-7474","addr":"경기도 부천시 원미동 117-2번지 명성연립 1층 105호","category":"일반휴게음식 - 서양음식"},{"name":"크리스탈 샵(christal shOp)","tel":"032-651-2079","addr":"경기도 부천시 원미동 117-2번지 명성연립 1층 102호","category":"의류 - 정장"}]},{"lat":"37.495653024","long":"126.78824218","items":[{"name":"레이 엔터테인먼트","tel":"070-4632-6676","addr":"경기도 부천시 원미동 83-2번지 현지그린빌 5층 501호","category":"용역 서비스 - 종합용역"},{"name":"앤스","tel":"","addr":"경기도 부천시 원미동 83-2번지 현지그린빌 202호","category":"의류 - 정장"}]},{"lat":"37.49200911","long":"126.78610417","items":[{"name":"레츠고","tel":"032-612-0799","addr":"경기도 부천시 원미동 133-2번지 101호","category":"의류 - 정장"},{"name":"천지암","tel":"032-504-8898","addr":"경기도 부천시 원미동 133-2번지 대우연립 C동 201호","category":"신변잡화 - 기념품점"}]},{"lat":"37.493153116","long":"126.78596517","items":[{"name":"로덱스화장품","tel":"070-4922-1261","addr":"경기도 부천시 원미동 130-9번지 우성맨션 1층","category":"보건위생 - 화장품"}]},{"lat":"37.493035642","long":"126.79073737","items":[{"name":"로뎀종합동물병원","tel":"032-611-8976","addr":"경기도 부천시 원미동 95-5번지 유림연립","category":"기타의료기관 - 동물병원"}]},{"lat":"37.491258803","long":"126.7896908","items":[{"name":"로쟈니에","tel":"032-622-2430","addr":"경기도 부천시 원미동 172-34번지 1,층","category":"의류 - 정장"},{"name":"부흥치과의원","tel":"032-612-8868","addr":"경기도 부천시 원미동 172-34번지 2층","category":"의원 - 치과의원"},{"name":"조이너스신발가게","tel":"032-612-3094","addr":"경기도 부천시 원미동 172-34번지","category":"신변잡화 - 신발"},{"name":"풍기인견","tel":"032-732-0740","addr":"경기도 부천시 원미동 172-34번지 1층","category":"의류 - 정장"}]},{"lat":"37.493070584","long":"126.79012665","items":[{"name":"루디아","tel":"032-656-5023","addr":"경기도 부천시 원미동 98-6번지","category":"의류 - 정장"},{"name":"아울렛","tel":"032-651-3120","addr":"경기도 부천시 원미동 98-6번지","category":"신변잡화 - 액세서리"}]},{"lat":"37.491091014","long":"126.78660435","items":[{"name":"루비헤어","tel":"","addr":"경기도 부천시 원미동 149-4번지 1층","category":"보건위생 - 미용원"},{"name":"우진포차","tel":"","addr":"경기도 부천시 원미동 149-4번지 1층 일부","category":"일반휴게음식 - 일반한식"}]},{"lat":"37.495540064","long":"126.79054936","items":[{"name":"리샤헤어","tel":"032-667-8788","addr":"경기도 부천시 원미동 59-19번지 중앙연립 101호","category":"보건위생 - 미용원"},{"name":"시골막걸리","tel":"032-663-3027","addr":"경기도 부천시 원미동 59-19번지 중앙연립 102호","category":"일반휴게음식 - 주점"},{"name":"시골막걸리","tel":"032-221-4529","addr":"경기도 부천시 원미동 59-19번지 중앙연립 102호","category":"일반휴게음식 - 일반한식"}]},{"lat":"37.496234961","long":"126.79118065","items":[{"name":"리제프헤어","tel":"02-1111-1111","addr":"경기도 부천시 원미동 53-7번지 1층 일부","category":"보건위생 - 미용원"}]},{"lat":"37.491372509","long":"126.78780213","items":[{"name":"리즌정보통신","tel":"032-662-0702","addr":"경기도 부천시 원미동 146-4번지 정화연립 B동 1층 1호","category":"사무통신 - 통신기기"}]},{"lat":"37.496371485","long":"126.78696229","items":[{"name":"마린씨드(MARINESEED)","tel":"032-661-8898","addr":"경기도 부천시 원미동 71번지 부천동 행정복지센터, 경기도일자리재단 4층 404호","category":"음료식품 - 기타음료식품"},{"name":"부천시니어클럽카페(CAFE)어울 (원미점)","tel":"032-656-3999","addr":"경기도 부천시 원미동 71번지 원미1동어울마당 1층","category":"일반휴게음식 - 서양음식"},{"name":"부천시원미노인복지관","tel":"032-667-0261","addr":"경기도 부천시 원미동 71번지 원미어울마당","category":"일반휴게음식 - 위탁급식업"},{"name":"부천시원미노인복지관","tel":"032-667-0261","addr":"경기도 부천시 원미동 71번지 원미어울마당","category":"문화.취미 - 문화취미기타"},{"name":"원미구경영인협의회","tel":"032-650-2216","addr":"경기도 부천시 원미동 71번지","category":"문화.취미 - 민예·공예품"},{"name":"케이와이이엔지","tel":"070-4655-0989","addr":"경기도 부천시 원미동 71번지 원미구청사 4층 407호","category":"기타 - 기계공구"},{"name":"플럼디자인연구소","tel":"032-677-5519","addr":"경기도 부천시 원미동 71번지 4층","category":"건축자재 - 인테리어전문"}]},{"lat":"37.49503689","long":"126.79131973","items":[{"name":"마릴린먼로","tel":"031-000-0000","addr":"경기도 부천시 원미동 77-8번지 1층","category":"보건위생 - 화장품"}]},{"lat":"37.495620094","long":"126.78996111","items":[{"name":"마마푸드","tel":"070-7379-8884","addr":"경기도 부천시 원미동 59-9번지 1층 2호","category":"일반휴게음식 - 일반한식"},{"name":"문스갈비","tel":"032-652-2292","addr":"경기도 부천시 원미동 59-9번지 1층","category":"일반휴게음식 - 일반한식"}]},{"lat":"37.496928129","long":"126.7858864","items":[{"name":"마부마라탕 마라샹궈","tel":"032-710-0779","addr":"경기도 부천시 원미동 73-8번지 1층","category":"일반휴게음식 - 중국식"}]},{"lat":"37.495454107","long":"126.78785827","items":[{"name":"마이 퍼스트 케이크","tel":"","addr":"경기도 부천시 원미동 84-5번지 에코빌 101호","category":"음료식품 - 제과점"}]},{"lat":"37.496929227","long":"126.7914614","items":[{"name":"마이호프","tel":"032-661-1652","addr":"경기도 부천시 원미동 52-2번지","category":"일반휴게음식 - 주점"},{"name":"밥먹꼬술먹꼬","tel":"032-613-8089","addr":"경기도 부천시 원미동 52-2번지 1층","category":"일반휴게음식 - 일반한식"}]},{"lat":"37.497645969","long":"126.789209","items":[{"name":"마콧 (MACOT)","tel":"032-612-3815","addr":"경기도 부천시 원미동 44-9번지 1층","category":"자동차판매 - 이륜차판매"}]},{"lat":"37.488897048","long":"126.78905301","items":[{"name":"막파마","tel":"032-204-5364","addr":"경기도 부천시 원미동 198-7번지","category":"보건위생 - 미용원"},{"name":"모던","tel":"070-7397-3110","addr":"경기도 부천시 원미동 198-7번지 1층","category":"회원제형태 - 기타1"}]},{"lat":"37.496208741","long":"126.79163305","items":[{"name":"만s해물포차","tel":"032-1111-1111","addr":"경기도 부천시 원미동 53-16번지 1층","category":"일반휴게음식 - 일반한식"},{"name":"샹떼PC방 부천원미점","tel":"","addr":"경기도 부천시 원미동 53-16번지 2층","category":"레저업소 - 기타레져업소"},{"name":"원미치킨호프","tel":"032-655-3428","addr":"경기도 부천시 원미동 53-16번지 1층","category":"일반휴게음식 - 주점"},{"name":"황금포차","tel":"032-611-1131","addr":"경기도 부천시 원미동 53-16번지 1층","category":"일반휴게음식 - 주점"}]},{"lat":"37.496037452","long":"126.79157699","items":[{"name":"만남","tel":"032-611-1195","addr":"경기도 부천시 원미동 54-10번지 1층","category":"일반휴게음식 - 일반한식"},{"name":"베르네닭강정","tel":"032-612-4692","addr":"경기도 부천시 원미동 54-10번지","category":"일반휴게음식 - 스넥"}]},{"lat":"37.493174032","long":"126.78754819","items":[{"name":"만들자","tel":"032-221-2335","addr":"경기도 부천시 원미동 103-5번지","category":"보건위생 - 미용재료"},{"name":"바가지머리","tel":"031-9565-1232","addr":"경기도 부천시 원미동 103-5번지","category":"보건위생 - 미용원"}]},{"lat":"37.493593422","long":"126.79027217","items":[{"name":"맛고향장독대원미점","tel":"032-661-2919","addr":"경기도 부천시 원미동 97-11번지","category":"음료식품 - 기타음료식품"},{"name":"옹고집","tel":"032-612-8865","addr":"경기도 부천시 원미동 97-11번지 1층","category":"일반휴게음식 - 일반한식"}]},{"lat":"37.492980933","long":"126.79037568","items":[{"name":"맛나빵집","tel":"032-611-4003","addr":"경기도 부천시 원미동 96-17번지 1층 원미종합상가","category":"음료식품 - 제과점"},{"name":"원미정보통신","tel":"032-613-1011","addr":"경기도 부천시 원미동 96-17번지","category":"사무통신 - 통신기기"},{"name":"한양떡집","tel":"032-666-5489","addr":"경기도 부천시 원미동 96-17번지 1층","category":"음료식품 - 제과점"}]},{"lat":"37.4999793","long":"126.78907796","items":[{"name":"맛나식당","tel":"032-611-6912","addr":"경기도 부천시 원미동 41-3번지 나동 1층","category":"일반휴게음식 - 일반한식"}]},{"lat":"37.493234124","long":"126.79088381","items":[{"name":"맛닭꼬 원미점","tel":"032-667-3392","addr":"경기도 부천시 원미동 95-9번지 1층","category":"일반휴게음식 - 스넥"},{"name":"빽다방 부천원미사거리점","tel":"032-612-4377","addr":"경기도 부천시 원미동 95-9번지 1층","category":"일반휴게음식 - 서양음식"}]},{"lat":"37.493765747","long":"126.79090492","items":[{"name":"매니아당구장","tel":"070-8031-4038","addr":"경기도 부천시 원미동 95-19번지 지하","category":"레저업소 - 당 구 장"}]},{"lat":"37.493874069","long":"126.7910177","items":[{"name":"맨투맨보습학원","tel":"032-655-7593","addr":"경기도 부천시 원미동 95-2번지","category":"학원 - 기타 교육기관"},{"name":"명태어장 원미점","tel":"032-613-0475","addr":"경기도 부천시 원미동 95-2번지 1층","category":"일반휴게음식 - 일반한식"}]},{"lat":"37.496237802","long":"126.78776556","items":[{"name":"맵시방화장품","tel":"032-652-6287","addr":"경기도 부천시 원미동 66-1번지","category":"보건위생 - 화장품"},{"name":"하늘자전거원미점","tel":"032-655-5570","addr":"경기도 부천시 원미동 66-1번지","category":"일반휴게음식 - 스넥"}]},{"lat":"37.491262244","long":"126.78662647","items":[{"name":"머리마을","tel":"032-655-6387","addr":"경기도 부천시 원미동 147-5번지 1층 일부","category":"보건위생 - 미용원"}]},{"lat":"37.497010027","long":"126.78632719","items":[{"name":"머리이야기","tel":"070-7613-1633","addr":"경기도 부천시 원미동 73-1번지 1층","category":"보건위생 - 미용원"},{"name":"삼복돈가스냉면","tel":"032-613-7982","addr":"경기도 부천시 원미동 73-1번지 1층","category":"일반휴게음식 - 일반한식"},{"name":"승희네 다육이","tel":"","addr":"경기도 부천시 원미동 73-1번지","category":"문화.취미 - 화원"},{"name":"칼삼","tel":"032-614-5677","addr":"경기도 부천시 원미동 73-1번지","category":"일반휴게음식 - 일반한식"}]},{"lat":"37.495709398","long":"126.78951984","items":[{"name":"머리하는날","tel":"032-661-1354","addr":"경기도 부천시 원미동 60-8번지","category":"보건위생 - 미용원"}]},{"lat":"37.491457824","long":"126.78518985","items":[{"name":"머리하러가자","tel":"032-654-4398","addr":"경기도 부천시 원미동 140-1번지 1층 일부","category":"보건위생 - 미용원"},{"name":"멋내기의류","tel":"070-4922-1161","addr":"경기도 부천시 원미동 140-1번지 1층","category":"의류 - 정장"},{"name":"성원창호","tel":"032-344-2265","addr":"경기도 부천시 원미동 140-1번지 1층 좌 3호","category":"건축자재 - 기타건축자재"},{"name":"스마일노래연습장","tel":"032-611-4322","addr":"경기도 부천시 원미동 140-1번지 지하","category":"레저업소 - 노 래 방"},{"name":"옛날양꼬치(본점)","tel":"032-652-1688","addr":"경기도 부천시 원미동 140-1번지 1층","category":"일반휴게음식 - 중국식"}]},{"lat":"37.495063313","long":"126.78601618","items":[{"name":"메디팜 해성약국","tel":"032-613-5028","addr":"경기도 부천시 원미동 90-8번지","category":"약국 - 약국"}]},{"lat":"37.495513379","long":"126.79074167","items":[{"name":"멜리사","tel":"070-8865-0729","addr":"경기도 부천시 원미동 59-21번지 중앙연립","category":"신변잡화 - 신발"},{"name":"신앙촌상회","tel":"070-7345-9502","addr":"경기도 부천시 원미동 59-21번지 중앙연립 온누리약국옆 1층","category":"신변잡화 - 기타잡화"},{"name":"천수당온누리약국","tel":"032-655-2829","addr":"경기도 부천시 원미동 59-21번지 중앙연립 1층","category":"약국 - 약국"},{"name":"한빛약국","tel":"032-611-6330","addr":"경기도 부천시 원미동 59-21번지 중앙연립","category":"약국 - 약국"}]},{"lat":"37.496479885","long":"126.79210723","items":[{"name":"명가부동산","tel":"032-651-8955","addr":"경기도 부천시 원미동 50-5번지 1층","category":"용역 서비스 - 부동산 중개·임대"},{"name":"중앙오토바이","tel":"032-652-4905","addr":"경기도 부천시 원미동 50-5번지 1층","category":"자동차판매 - 이륜차판매"}]},{"lat":"37.49148147","long":"126.78826542","items":[{"name":"명가수제왕만두","tel":"","addr":"경기도 부천시 원미동 141-1번지 1층 일부","category":"일반휴게음식 - 일반한식"},{"name":"바다수산","tel":"032-611-8784","addr":"경기도 부천시 원미동 141-1번지 1층 일부","category":"음료식품 - 농·축·수산품"},{"name":"부흥전기전자","tel":"032-613-0734","addr":"경기도 부천시 원미동 141-1번지","category":"건축자재 - 조명기구"},{"name":"현수네 싱싱 야채 과일","tel":"032-721-4490","addr":"경기도 부천시 원미동 141-1번지 1층","category":"음료식품 - 농·축·수산품"}]},{"lat":"37.491347737","long":"126.78904602","items":[{"name":"명동의류","tel":"031-000-0000","addr":"경기도 부천시 원미동 173-2번지 부흥빌딩","category":"의류 - 정장"},{"name":"비타민청과","tel":"032-663-8278","addr":"경기도 부천시 원미동 173-2번지","category":"음료식품 - 농·축·수산품"},{"name":"이화외국어속셈학원","tel":"032-652-0937","addr":"경기도 부천시 원미동 173-2번지","category":"학원 - 독서실"}]},{"lat":"37.491177347","long":"126.7894875","items":[{"name":"명성 철학관","tel":"032-652-1777","addr":"경기도 부천시 원미동 172-26번지 1층","category":"보건위생 - 기타대인서비스"}]},{"lat":"37.497508049","long":"126.78768276","items":[{"name":"명성식품","tel":"032-664-7104","addr":"경기도 부천시 원미동 67-1번지","category":"음료식품 - 기타음료식품"}]},{"lat":"37.498876498","long":"126.78710209","items":[{"name":"명진정밀","tel":"032-207-1362","addr":"경기도 부천시 원미동 47-4,1층","category":"기타 - 기계공구"}]},{"lat":"37.494928589","long":"126.79121826","items":[{"name":"모닝카센타","tel":"032-652-8417","addr":"경기도 부천시 원미동 77-12번지","category":"자동차정비 유지 - 자동차정비"}]},{"lat":"37.488868994","long":"126.78848773","items":[{"name":"모모헤어","tel":"032-207-8385","addr":"경기도 부천시 원미동 199-23번지 1층 일부","category":"보건위생 - 미용원"},{"name":"챠밍미용실","tel":"032-652-3762","addr":"경기도 부천시 원미동 199-23번지","category":"보건위생 - 미용원"},{"name":"피엘 에스테틱","tel":"070-7357-1387","addr":"경기도 부천시 원미동 199-23번지","category":"보건위생 - 피부미용실"}]},{"lat":"37.498174588","long":"126.79257743","items":[{"name":"모츠","tel":"032-614-5830","addr":"경기도 부천시 원미동 2-2번지 4층","category":"서적문구 - 문구용품"},{"name":"설면","tel":"032-668-8338","addr":"경기도 부천시 원미동 2-2번지 1층 101호","category":"일반휴게음식 - 일반한식"},{"name":"원미정도태권도장","tel":"032-668-7557","addr":"경기도 부천시 원미동 2-2번지 2층","category":"학원 - 예·체능계학원"},{"name":"투더탑보습학원","tel":"032-208-9595","addr":"경기도 부천시 원미동 2-2번지","category":"학원 - 보습학원"}]},{"lat":"37.490652664","long":"126.78832433","items":[{"name":"몽당","tel":"031-222-2222","addr":"경기도 부천시 원미동 174-5번지 1층","category":"일반휴게음식 - 서양음식"}]},{"lat":"37.490817563","long":"126.78982774","items":[{"name":"무통약손","tel":"070-7651-1369","addr":"경기도 부천시 원미동 181-12번지 1층 일부","category":"보건위생 - 의료용품"}]},{"lat":"37.493621752","long":"126.79099579","items":[{"name":"문지원헤어에코","tel":"070-7848-9304","addr":"경기도 부천시 원미동 95-3번지 1층","category":"보건위생 - 미용원"},{"name":"바른시루","tel":"032-663-0700","addr":"경기도 부천시 원미동 95-3번지 1층","category":"음료식품 - 제과점"},{"name":"신바람노래연습장","tel":"032-655-1905","addr":"경기도 부천시 원미동 95-3번지 지층","category":"레저업소 - 노 래 방"},{"name":"피자스쿨 부천원미점","tel":"032-657-9966","addr":"경기도 부천시 원미동 95-3번지 1층","category":"일반휴게음식 - 서양음식"}]},{"lat":"37.494702531","long":"126.79076658","items":[{"name":"물레방아포차","tel":"070-7865-9652","addr":"경기도 부천시 원미동 78-4번지 1층","category":"일반휴게음식 - 주점"},{"name":"영일수산","tel":"032-654-8704","addr":"경기도 부천시 원미동 78-4번지","category":"음료식품 - 농·축·수산품"}]},{"lat":"37.487176835","long":"126.78943104","items":[{"name":"물보라","tel":"032-665-9552","addr":"경기도 부천시 원미동 204-91번지","category":"일반휴게음식 - 일반한식"},{"name":"별이빛나는밤에","tel":"032-668-1239","addr":"경기도 부천시 원미동 204-91번지 1층","category":"일반휴게음식 - 주점"},{"name":"보리수","tel":"032-651-5182","addr":"경기도 부천시 원미동 204-91번지 1층","category":"일반휴게음식 - 주점"}]},{"lat":"37.494760882","long":"126.78815427","items":[{"name":"뮤엠영어수학보습학원","tel":"032-665-0588","addr":"경기도 부천시 원미동 86-12번지 2층","category":"학원 - 보습학원"},{"name":"수정미용타운","tel":"032-613-4893","addr":"경기도 부천시 원미동 86-12번지","category":"보건위생 - 미용원"},{"name":"현대장식","tel":"032-653-7500","addr":"경기도 부천시 원미동 86-12번지","category":"직물 - 카페트,커튼,천막,지물"}]},{"lat":"37.493261802","long":"126.79124558","items":[{"name":"미도안경","tel":"032-662-9975","addr":"경기도 부천시 원미동 94-10번지","category":"보건위생 - 안경"},{"name":"배철현헤어클럽","tel":"032-651-1345","addr":"경기도 부천시 원미동 94-10번지","category":"보건위생 - 미용원"},{"name":"소리향기색소폰실용음악학원","tel":"032-654-1300","addr":"경기도 부천시 원미동 94-10번지 2층","category":"학원 - 예·체능계학원"},{"name":"잉글리시아이원미보습학원","tel":"032-650-8171","addr":"경기도 부천시 원미동 94-10번지 4층","category":"학원 - 외국어학원"}]},