[{"lat":"37.857501287","long":"127.03157397","items":[{"name":"(주)중앙알디씨(RDC)","tel":"031-863-7474","addr":"경기도 양주시 은현면 선암리 91-1","category":"자동차정비 유지 - 가타자동차서비스"}]},{"lat":"37.873549416","long":"127.01862334","items":[{"name":"(주)화정","tel":"031-847-6803","addr":"경기도 양주시 은현면 선암리 490-2번지","category":"용역 서비스 - 사무서비스"},{"name":"오로라하이테크","tel":"031-867-2263","addr":"경기도 양주시 은현면 선암리 490-2번지 3","category":"자동차정비 유지 - 자동차정비"}]},{"lat":"37.860835892","long":"127.0264616","items":[{"name":"1959추억의 옛날통닭.닭강정","tel":"031-864-0999","addr":"경기도 양주시 은현면 선암리 187-1번지 2층 일부","category":"일반휴게음식 - 스넥"},{"name":"인제막국수","tel":"031-865-0605","addr":"경기도 양주시 은현면 선암리 187-1번지 1층","category":"일반휴게음식 - 일반한식"}]},{"lat":"37.871918175","long":"127.02229402","items":[{"name":"J-Life","tel":"031-865-4095","addr":"경기도 양주시 은현면 선암리 512-4","category":"용역 서비스 - 기타용역서비스"}]},{"lat":"37.869305405","long":"127.02262292","items":[{"name":"K한일모타","tel":"031-867-5677","addr":"경기도 양주시 은현면 선암리 529-7번지","category":"기타 - 기계공구"},{"name":"한일모터","tel":"031-867-5677","addr":"경기도 양주시 은현면 선암리 529-7번지 상가 1층 우측","category":"기타 - 기계공구"}]},{"lat":"37.87425051","long":"127.02804571","items":[{"name":"OKrental","tel":"031-865-2041","addr":"경기도 양주시 은현면 선암리 353-10","category":"직물 - 카페트,커튼,천막,지물"}]},{"lat":"37.87030502","long":"127.02500987","items":[{"name":"거성자동차공업사","tel":"031-857-0905","addr":"경기도 양주시 은현면 선암리 296-5","category":"자동차정비 유지 - 자동차정비"}]},{"lat":"37.8560594","long":"127.03311878","items":[{"name":"경기가설산업","tel":"031-858-1600","addr":"경기도 양주시 은현면 선암리 93-4번지","category":"건축자재 - 기타건축자재"}]},{"lat":"37.86694478","long":"127.02362238","items":[{"name":"굳이너프(good-enough)","tel":"","addr":"경기도 양주시 은현면 선암리 249번지","category":"문화.취미 - 화원"}]},{"lat":"37.87485494","long":"127.02395421","items":[{"name":"궁중순대국","tel":"031-868-9388","addr":"경기도 양주시 은현면 선암리 475-8번지 1층 102호","category":"일반휴게음식 - 일반한식"},{"name":"커피와여행","tel":"","addr":"경기도 양주시 은현면 선암리 475-8번지","category":"일반휴게음식 - 서양음식"}]},{"lat":"37.863250726","long":"127.02479185","items":[{"name":"금강자동차유리(썬팅)","tel":"031-861-4351","addr":"경기도 양주시 은현면 선암리 225-5번지 1층","category":"자동차정비 유지 - 자동차부품"}]},{"lat":"37.874215245","long":"127.02412451","items":[{"name":"길커피앤호프","tel":"070-8118-8890","addr":"경기도 양주시 은현면 선암리 341-4번지 지하1층","category":"일반휴게음식 - 서양음식"},{"name":"컴세상","tel":"031-857-3270","addr":"경기도 양주시 은현면 선암리 341-4번지 1층","category":"수리서비스 - 사무·통신기기수리"}]},{"lat":"37.873160784","long":"127.02606773","items":[{"name":"나들목","tel":"","addr":"경기도 양주시 은현면 선암리 331-2번지","category":"유통업 영리 - 슈퍼마켓"},{"name":"은현숯불삼겹살","tel":"031-868-3392","addr":"경기도 양주시 은현면 선암리 331-2번지 1층 일부","category":"일반휴게음식 - 일반한식"}]},{"lat":"37.87266558","long":"127.02443094","items":[{"name":"넘버원","tel":"031-857-8446","addr":"경기도 양주시 은현면 선암리 333-4","category":"신변잡화 - 기타잡화"}]},{"lat":"37.874359454","long":"127.02379495","items":[{"name":"네네치킨","tel":"031-861-8955","addr":"경기도 양주시 은현면 선암리 337-1번지","category":"일반휴게음식 - 스넥"},{"name":"다실","tel":"031-863-3400","addr":"경기도 양주시 은현면 선암리 337-1번지","category":"일반휴게음식 - 일반한식"},{"name":"동인당약국","tel":"031-826-0000","addr":"경기도 양주시 은현면 선암리 337-1번지","category":"약국 - 약국"},{"name":"한울환경","tel":"031-866-1491","addr":"경기도 양주시 은현면 선암리 337-1번지","category":"용역 서비스 - 종합용역"}]},{"lat":"37.864773423","long":"127.02417862","items":[{"name":"농업회사법인주식회사 은현","tel":"031-862-2377","addr":"경기도 양주시 은현면 선암리 230-3번지","category":"음료식품 - 농·축·수산품"},{"name":"삼성금속","tel":"031-844-1246","addr":"경기도 양주시 은현면 선암리 230-3번지 다동","category":"건축자재 - 기타건축자재"},{"name":"삼성기어기계","tel":"031-840-6521","addr":"경기도 양주시 은현면 선암리 230-3번지","category":"기타 - 기계공구"},{"name":"최강철강","tel":"031-843-9966","addr":"경기도 양주시 은현면 선암리 230-3번지","category":"건축자재 - 기타건축자재"}]},{"lat":"37.875359512","long":"127.02368157","items":[{"name":"다온식당","tel":"031-859-7577","addr":"경기도 양주시 은현면 선암리 342-2번지","category":"일반휴게음식 - 일반한식"},{"name":"안민동물병원","tel":"031-859-0087","addr":"경기도 양주시 은현면 선암리 342-2","category":"기타의료기관 - 동물병원"}]},{"lat":"37.862800314","long":"127.02448489","items":[{"name":"대건페인트","tel":"031-866-9911","addr":"경기도 양주시 은현면 선암리 226-4번지 1층","category":"건축자재 - 페인트"}]},{"lat":"37.864249484","long":"127.03084928","items":[{"name":"대길물류보관센타","tel":"031-858-8352","addr":"경기도 양주시 은현면 선암리 67번지 외1필지","category":"용역 서비스 - 보관및 창고업"}]},{"lat":"37.879078983","long":"127.03045705","items":[{"name":"대도","tel":"031-863-7108","addr":"경기도 양주시 은현면 선암리 427번지","category":"용역 서비스 - 부동산 중개·임대"}]},{"lat":"37.857916424","long":"127.02851742","items":[{"name":"대륙산업","tel":"031-858-4042","addr":"경기도 양주시 은현면 선암리 133-2번지","category":"건축자재 - 기타건축자재"}]},{"lat":"37.870080435","long":"127.02123658","items":[{"name":"대륙짬뽕","tel":"031-867-1007","addr":"경기도 양주시 은현면 선암리 522-2번지","category":"일반휴게음식 - 중국식"},{"name":"백장돈까스","tel":"031-862-4320","addr":"경기도 양주시 은현면 선암리 522-2번지 1층 일부(5호)","category":"일반휴게음식 - 일반한식"},{"name":"어썸 1976","tel":"031-861-0021","addr":"경기도 양주시 은현면 선암리 522-2번지","category":"일반휴게음식 - 서양음식"},{"name":"추어뜰남원추어탕","tel":"031-858-3100","addr":"경기도 양주시 은현면 선암리 522-2번지 1층","category":"일반휴게음식 - 일반한식"},{"name":"프롬당구클럽","tel":"031-859-3949","addr":"경기도 양주시 은현면 선암리 522-2번지 가동 2층","category":"레저업소 - 당 구 장"}]},{"lat":"37.872855278","long":"127.02148731","items":[{"name":"대산상사","tel":"031-867-0284","addr":"경기도 양주시 은현면 선암리 507-2번지","category":"자동차정비 유지 - 자동차부품"},{"name":"양주송둘라","tel":"031-861-1035","addr":"경기도 양주시 은현면 선암리 507-2","category":"자동차정비 유지 - 자동차부품"}]},{"lat":"37.861944166","long":"127.0258483","items":[{"name":"대신볼트","tel":"031-858-3183","addr":"경기도 양주시 은현면 선암리 192-1번지","category":"기타 - 기계공구"},{"name":"은현재활용센터","tel":"031-867-7282","addr":"경기도 양주시 은현면 선암리 192-1번지","category":"수리서비스 - 가정용품수리"},{"name":"태평양","tel":"031-867-2046","addr":"경기도 양주시 은현면 선암리 192-1번지","category":"일반휴게음식 - 일반한식"}]},{"lat":"37.866556702","long":"127.02715666","items":[{"name":"대진휠타","tel":"031-857-6918","addr":"경기도 양주시 은현면 선암리 255번지 가동","category":"자동차정비 유지 - 자동차부품"}]},{"lat":"37.871160939","long":"127.02485101","items":[{"name":"대한종합건축","tel":"031-865-1553","addr":"경기도 양주시 은현면 선암리 302","category":"직물 - 카페트,커튼,천막,지물"}]},{"lat":"37.863467191","long":"127.02346231","items":[{"name":"덕원보습학원","tel":"070-4236-6158","addr":"경기도 양주시 은현면 선암리 556-3번지","category":"학원 - 보습학원"},{"name":"둘리상회","tel":"031-863-7049","addr":"경기도 양주시 은현면 선암리 556-3","category":"음료식품 - 기타음료식품"}]},{"lat":"37.862998428","long":"127.02498496","items":[{"name":"덕정삼성라디에터","tel":"031-859-0388","addr":"경기도 양주시 은현면 선암리 225-7번지","category":"자동차정비 유지 - 자동차부품"}]},{"lat":"37.865169278","long":"127.02706529","items":[{"name":"독도리","tel":"031-866-1672","addr":"경기도 양주시 은현면 선암리 217번지","category":"일반휴게음식 - 일반한식"},{"name":"스킨아이","tel":"031-859-9820","addr":"경기도 양주시 은현면 선암리 217번지","category":"신변잡화 - 기타잡화"}]},{"lat":"37.861358424","long":"127.02651858","items":[{"name":"동수용접전문학원","tel":"031-864-0160","addr":"경기도 양주시 은현면 선암리 189-15번지 2층","category":"회원제형태 - 학원"},{"name":"용접박사","tel":"031-862-7120","addr":"경기도 양주시 은현면 선암리 189-15번지","category":"기타 - 기계공구"}]},{"lat":"37.872611157","long":"127.02635169","items":[{"name":"동이부대찌개","tel":"031-868-2037","addr":"경기도 양주시 은현면 선암리 322-1번지 1층","category":"일반휴게음식 - 일반한식"}]},{"lat":"37.869828062","long":"127.02192979","items":[{"name":"동해","tel":"031-865-0681","addr":"경기도 양주시 은현면 선암리 527-1번지 1층","category":"일반휴게음식 - 일반한식"},{"name":"은현용품","tel":"031-866-6857","addr":"경기도 양주시 은현면 선암리 527-1번지","category":"자동차정비 유지 - 자동차부품"},{"name":"후평정육점","tel":"031-867-4317","addr":"경기도 양주시 은현면 선암리 527-1번지 상가","category":"음료식품 - 정육점"}]},{"lat":"37.867494546","long":"127.02248606","items":[{"name":"두일수산","tel":"031-868-1887","addr":"경기도 양주시 은현면 선암리 530-9","category":"일반휴게음식 - 일반한식"}]},{"lat":"37.876855","long":"127.02404571","items":[{"name":"로곤컴퍼니","tel":"070-7519-1070","addr":"경기도 양주시 은현면 선암리 345번지","category":"기타 - 기계공구"}]},{"lat":"37.874413627","long":"127.02312438","items":[{"name":"마마스테이블","tel":"031-863-7666","addr":"경기도 양주시 은현면 선암리 475-20번지 1층","category":"일반휴게음식 - 일반한식"},{"name":"마마스테이블","tel":"070-1111-1111","addr":"경기도 양주시 은현면 선암리 475-20번지","category":"일반휴게음식 - 일반한식"}]},{"lat":"37.873801121","long":"127.02235134","items":[{"name":"만인슈퍼","tel":"031-863-7371","addr":"경기도 양주시 은현면 선암리 475-5번지","category":"유통업 영리 - 편 의 점"}]},{"lat":"37.873215282","long":"127.0237037","items":[{"name":"밀국시","tel":"","addr":"경기도 양주시 은현면 선암리 334-1번지","category":"일반휴게음식 - 일반한식"},{"name":"은현떡방앗간","tel":"031-863-4673","addr":"경기도 양주시 은현면 선암리 334-1번지","category":"음료식품 - 제과점"}]},{"lat":"37.856167954","long":"127.0313462","items":[{"name":"반쪽의하루","tel":"02-1111-1111","addr":"경기도 양주시 은현면 선암리 96-2번지","category":"일반휴게음식 - 서양음식"}]},{"lat":"37.874719804","long":"127.02393144","items":[{"name":"밥가","tel":"031-865-2729","addr":"경기도 양주시 은현면 선암리 475-9번지 1층 일부","category":"일반휴게음식 - 일반한식"}]},{"lat":"37.860358254","long":"127.02715463","items":[{"name":"베스트올양주산곡점","tel":"031-862-9359","addr":"경기도 양주시 은현면 선암리 189-12번지","category":"유통업 영리 - 편 의 점"},{"name":"세븐일레븐양주산곡점","tel":"031-1577-0711","addr":"경기도 양주시 은현면 선암리 189-12번지","category":"유통업 영리 - 편 의 점"}]},{"lat":"37.872161258","long":"127.02329425","items":[{"name":"베스트올은현점","tel":"031-863-2256","addr":"경기도 양주시 은현면 선암리 317-2","category":"유통업 영리 - 기타유통업"}]},{"lat":"37.867134129","long":"127.02273599","items":[{"name":"별미찌개전문점","tel":"031-867-8882","addr":"경기도 양주시 은현면 선암리 539-2번지","category":"일반휴게음식 - 일반한식"},{"name":"세이당구클럽","tel":"","addr":"경기도 양주시 은현면 선암리 539-2번지 2층","category":"레저업소 - 당 구 장"},{"name":"씨유양주온누리점","tel":"031-868-0760","addr":"경기도 양주시 은현면 선암리 539-2 1층 103호~104호","category":"유통업 영리 - 편 의 점"}]},{"lat":"37.870467828","long":"127.02129351","items":[{"name":"보훈케어 주식회사","tel":"031-858-9112","addr":"경기도 양주시 은현면 선암리 520-1번지","category":"기타의료기관 - 기타의료기관 및 기타"}]},{"lat":"37.858889498","long":"127.02823367","items":[{"name":"블루모터스","tel":"031-868-8860","addr":"경기도 양주시 은현면 선암리 168-4번지 블루모터스","category":"자동차정비 유지 - 자동차정비"}]},{"lat":"37.87499909","long":"127.02395425","items":[{"name":"비비큐(BBQ)은현점","tel":"033-866-8292","addr":"경기도 양주시 은현면 선암리 475-7번지","category":"일반휴게음식 - 스넥"},{"name":"아연미용실","tel":"031-867-7279","addr":"경기도 양주시 은현면 선암리 475-7 1층","category":"보건위생 - 미용원"}]},{"lat":"37.87530551","long":"127.02337467","items":[{"name":"비젼축산,동물약품","tel":"031-867-9960","addr":"경기도 양주시 은현면 선암리 342-18번지 선암파크 101호","category":"농업 - 비료,사료,종자"},{"name":"우미관","tel":"031-867-7788","addr":"경기도 양주시 은현면 선암리 342-18번지 1층 102호","category":"일반휴게음식 - 일반한식"}]},{"lat":"37.868800529","long":"127.02462302","items":[{"name":"선비양봉","tel":"031-863-4968","addr":"경기도 양주시 은현면 선암리 288-1번지","category":"농업 - 기타농업관련"}]},{"lat":"37.869521731","long":"127.02200927","items":[{"name":"성원모터스","tel":"031-866-2370","addr":"경기도 양주시 은현면 선암리 527-3번지","category":"자동차정비 유지 - 자동차정비"},{"name":"성원모터스","tel":"031-866-2370","addr":"경기도 양주시 은현면 선암리 527-3번지","category":"자동차정비 유지 - 세차장"},{"name":"주식회사 에이치디이앤지","tel":"031-837-6200","addr":"경기도 양주시 은현면 선암리 527-3번지","category":"용역 서비스 - 기타용역서비스"}]},{"lat":"37.861917324","long":"127.024871","items":[{"name":"세종상사","tel":"031-861-8988","addr":"경기도 양주시 은현면 선암리 226-15","category":"자동차정비 유지 - 자동차정비"},{"name":"세종손세차장","tel":"031-894-2619","addr":"경기도 양주시 은현면 선암리 226-15번지","category":"자동차정비 유지 - 세차장"}]},{"lat":"37.874584678","long":"127.02385184","items":[{"name":"슬기네김밥","tel":"031-863-7019","addr":"경기도 양주시 은현면 선암리 475-11번지","category":"일반휴게음식 - 일반한식"},{"name":"은현약국","tel":"031-867-8333","addr":"경기도 양주시 은현면 선암리 475-11번지","category":"약국 - 약국"}]},{"lat":"37.872187822","long":"127.02581738","items":[{"name":"신선식당","tel":"031-857-8577","addr":"경기도 양주시 은현면 선암리 321-2번지","category":"일반휴게음식 - 일반한식"}]},{"lat":"37.874051485","long":"127.03162585","items":[{"name":"신우","tel":"031-859-7051","addr":"경기도 양주시 은현면 선암리 385-3번지","category":"직물 - 침구·수예점"}]},{"lat":"37.873917957","long":"127.02401077","items":[{"name":"씨유양주은현제일점","tel":"031-866-1450","addr":"경기도 양주시 은현면 선암리 338-2번지 101호","category":"유통업 영리 - 편 의 점"}]},{"lat":"37.874251595","long":"127.02231737","items":[{"name":"앞마당","tel":"031-863-7533","addr":"경기도 양주시 은현면 선암리 475-17번지","category":"일반휴게음식 - 일반한식"}]},{"lat":"37.872359546","long":"127.02281695","items":[{"name":"양주골부대찌개","tel":"031-825-9343","addr":"경기도 양주시 은현면 선암리 512-5번지 1층","category":"일반휴게음식 - 일반한식"},{"name":"오레오레","tel":"031-867-6163","addr":"경기도 양주시 은현면 선암리 512-5번지 1층","category":"일반휴게음식 - 일반한식"},{"name":"은현 노래연습장","tel":"031-821-0722","addr":"경기도 양주시 은현면 선암리 512-5번지 1층","category":"레저업소 - 노 래 방"}]},{"lat":"37.875611744","long":"127.02385213","items":[{"name":"양주종합축산","tel":"031-862-6055","addr":"경기도 양주시 은현면 선암리 342-16번지","category":"음료식품 - 농·축·수산품"},{"name":"임진강매운탕","tel":"031-865-5305","addr":"경기도 양주시 은현면 선암리 342-16번지","category":"일반휴게음식 - 일반한식"}]},{"lat":"37.863384199","long":"127.03242856","items":[{"name":"양주탑 스크린골프","tel":"031-863-7030","addr":"경기도 양주시 은현면 선암리 64-1번지","category":"레저업소 - 스크린골프"}]},{"lat":"37.856663885","long":"127.02957375","items":[{"name":"에이치케이HK모터스","tel":"031-867-8890","addr":"경기도 양주시 은현면 선암리 102-1번지 1층","category":"자동차판매 - 중고자동차판매"}]},{"lat":"37.862836238","long":"127.02509855","items":[{"name":"원우공업사","tel":"031-864-5490","addr":"경기도 양주시 은현면 선암리 225-2","category":"자동차정비 유지 - 자동차정비"}]},{"lat":"37.862556911","long":"127.02529166","items":[{"name":"유니온상사","tel":"031-867-2026","addr":"경기도 양주시 은현면 선암리 224-2번지 1층","category":"직물 - 침구·수예점"}]},{"lat":"37.861079431","long":"127.02498439","items":[{"name":"유니테크","tel":"031-867-2270","addr":"경기도 양주시 은현면 선암리 183-2번지","category":"기타 - 기계공구"}]},{"lat":"37.873611659","long":"127.02389703","items":[{"name":"은약국","tel":"031-868-3273","addr":"경기도 양주시 은현면 선암리 335-1번지 선암교회,은약국 101호","category":"약국 - 약국"},{"name":"차차차노래연습장","tel":"031-867-3370","addr":"경기도 양주시 은현면 선암리 335-1번지 2층","category":"레저업소 - 노 래 방"},{"name":"천냥하우스","tel":"031-865-1587","addr":"경기도 양주시 은현면 선암리 335-1번지 선암교회,은약국 1층 102호","category":"신변잡화 - 기타잡화"}]},{"lat":"37.874440608","long":"127.02339717","items":[{"name":"은현농업협동조합","tel":"031-866-8585","addr":"경기도 양주시 은현면 선암리 475-6번지","category":"유통업 비영리 - 농,축협 직영매장"},{"name":"은현농업협동조합","tel":"031-863-7006","addr":"경기도 양주시 은현면 선암리 475-6번지","category":"유통업 비영리 - 농,축협 직영매장"},{"name":"은현농협경제사업소","tel":"031-866-8585","addr":"경기도 양주시 은현면 선암리 475-6","category":"연료판매점 - 주유소"}]},{"lat":"37.872358383","long":"127.02879519","items":[{"name":"은현버섯농장","tel":"031-865-5341","addr":"경기도 양주시 은현면 선암리 36-4","category":"음료식품 - 농·축·수산품"}]},{"lat":"37.874467493","long":"127.02420415","items":[{"name":"은현텔레콤","tel":"031-867-6010","addr":"경기도 양주시 은현면 선암리 341-7번지 1층","category":"사무통신 - 통신기기"}]},{"lat":"37.87210733","long":"127.02254411","items":[{"name":"이마트24 양주은현점","tel":"","addr":"경기도 양주시 은현면 선암리 512-6번지 1층","category":"유통업 영리 - 편 의 점"},{"name":"최부자연탄구이","tel":"031-868-1712","addr":"경기도 양주시 은현면 선암리 512-6번지 1층","category":"일반휴게음식 - 일반한식"}]},{"lat":"37.873134289","long":"127.02318086","items":[{"name":"이모네식당","tel":"031-862-8776","addr":"경기도 양주시 은현면 선암리 478","category":"일반휴게음식 - 일반한식"}]},{"lat":"37.87541352","long":"127.02395437","items":[{"name":"정다운밥상","tel":"031-866-6722","addr":"경기도 양주시 은현면 선암리 342-12번지","category":"일반휴게음식 - 일반한식"}]},{"lat":"37.867584321","long":"127.02431581","items":[{"name":"제이엔지진호","tel":"031-868-9999","addr":"경기도 양주시 은현면 선암리 236-17번지","category":"건축자재 - 건축용 요업제품"},{"name":"진호공구철물","tel":"031-859-0989","addr":"경기도 양주시 은현면 선암리 236-17번지","category":"건축자재 - 목재·석재·철물"}]},{"lat":"37.872413487","long":"127.02348753","items":[{"name":"좋은목장만들기","tel":"031-862-7577","addr":"경기도 양주시 은현면 선암리 318-1번지","category":"기타 - 기타 전문점"}]},{"lat":"37.860890107","long":"127.02565479","items":[{"name":"주식회사 모티브","tel":"031-829-3050","addr":"경기도 양주시 은현면 선암리 183번지","category":"기타 - 기계공구"}]},{"lat":"37.859385101","long":"127.02782475","items":[{"name":"주식회사 엠케이모터스","tel":"031-1111-1111","addr":"경기도 양주시 은현면 선암리 166번지","category":"자동차판매 - 중고자동차판매"}]},{"lat":"37.854330237","long":"127.03051601","items":[{"name":"주식회사 한솔축구클럽","tel":"031-875-8610","addr":"경기도 양주시 은현면 선암리 105-3번지","category":"레져용품 - 스포츠·레져용품"}]},{"lat":"37.873386507","long":"127.02343097","items":[{"name":"주원생고기","tel":"031-867-2512","addr":"경기도 양주시 은현면 선암리 477-3번지","category":"일반휴게음식 - 일반한식"}]},{"lat":"37.859277353","long":"127.02604065","items":[{"name":"진흥건업","tel":"031-857-7750","addr":"경기도 양주시 은현면 선암리 175-9","category":"건축자재 - 보일러·펌프·샷시"}]},{"lat":"37.856447509","long":"127.03023273","items":[{"name":"차이나","tel":"031-859-6970","addr":"경기도 양주시 은현면 선암리 103-1번지","category":"일반휴게음식 - 중국식"}]},{"lat":"37.862141506","long":"127.029928","items":[{"name":"창운산업","tel":"031-866-9696","addr":"경기도 양주시 은현면 선암리 81-6번지","category":"주방용구 - 주방용식기"}]},{"lat":"37.854078906","long":"127.02620947","items":[{"name":"청록테크","tel":"031-866-3839","addr":"경기도 양주시 은현면 선암리 122번지","category":"서적문구 - 과학기자재"}]},{"lat":"37.861529663","long":"127.02621181","items":[{"name":"캐리어에어컨 양주센터","tel":"070-4193-4813","addr":"경기도 양주시 은현면 선암리 191-1번지","category":"수리서비스 - 가정용품수리"}]},{"lat":"37.875107196","long":"127.02398838","items":[{"name":"타쿠&파슨","tel":"070-4252-0608","addr":"경기도 양주시 은현면 선암리 475-1번지","category":"일반휴게음식 - 일반한식"}]},{"lat":"37.856050992","long":"127.03067574","items":[{"name":"티에스산업","tel":"031-858-1196","addr":"경기도 양주시 은현면 선암리 104번지","category":"유통업 영리 - 기타유통업"}]},{"lat":"37.874053505","long":"127.02160127","items":[{"name":"펠릭스코리아","tel":"031-866-5688","addr":"경기도 양주시 은현면 선암리 473번지","category":"전기제품 - 냉열기기"}]},{"lat":"37.874853987","long":"127.02873923","items":[{"name":"풍년식당","tel":"031-861-8588","addr":"경기도 양주시 은현면 선암리 357-1번지","category":"일반휴게음식 - 일반한식"}]},{"lat":"37.862439391","long":"127.02729168","items":[{"name":"피아노여관","tel":"031-867-3883","addr":"경기도 양주시 은현면 선암리 198-14","category":"숙박업 - 여관/기타숙박업"}]},{"lat":"37.863079538","long":"127.02484862","items":[{"name":"하나전기","tel":"031-858-5856","addr":"경기도 양주시 은현면 선암리 226-1 2/3","category":"건축자재 - 조명기구"}]},{"lat":"37.869332475","long":"127.0223729","items":[{"name":"한성E.N.G","tel":"031-868-6421","addr":"경기도 양주시 은현면 선암리 529-4번지","category":"기타 - 기계공구"}]},{"lat":"37.863863414","long":"127.02451929","items":[{"name":"한성기공","tel":"031-837-7551","addr":"경기도 양주시 은현면 선암리 228-2번지","category":"건축자재 - 기타건축자재"}]},{"lat":"37.875305381","long":"127.02410209","items":[{"name":"한올문구","tel":"031-868-8998","addr":"경기도 양주시 은현면 선암리 342-1번지","category":"서적문구 - 문구용품"}]},{"lat":"37.871557285","long":"127.02520346","items":[{"name":"현대모터스","tel":"031-867-8204","addr":"경기도 양주시 은현면 선암리 316-1","category":"자동차정비 유지 - 자동차정비"}]},{"lat":"37.871521314","long":"127.02485112","items":[{"name":"현대손세차","tel":"","addr":"경기도 양주시 은현면 선암리 316-9번지","category":"자동차정비 유지 - 세차장"}]},{"lat":"37.873386439","long":"127.0238174","items":[{"name":"현대철물","tel":"031-861-1500","addr":"경기도 양주시 은현면 선암리 335-3번지","category":"건축자재 - 목재·석재·철물"},{"name":"현대철물","tel":"031-861-1500","addr":"경기도 양주시 은현면 선암리 335-3번지","category":"건축자재 - 목재·석재·철물"}]}]