[{"lat":"37.473928303","long":"126.79227232","imageIndex":0,"items":[{"name":"경원카센타","tel":"032-342-3810","addr":"경기도 부천시 소사본동 178번지","indutype":"자동차정비 유지 - 자동차정비","category":"car"}]},{"lat":"37.480565711","long":"126.79571329","imageIndex":0,"items":[{"name":"광진상회","tel":"032-346-7736","addr":"경기도 부천시 소사본동 128-16번지","indutype":"자동차정비 유지 - 자동차부품","category":"car"}]},{"lat":"37.482378697","long":"126.7968502","imageIndex":0,"items":[{"name":"대경카센타","tel":"032-348-1140","addr":"경기도 부천시 소사본동 52-2번지","indutype":"자동차정비 유지 - 자동차정비","category":"car"}]},{"lat":"37.481454765","long":"126.79404885","imageIndex":0,"items":[{"name":"덴트온","tel":"032-346-2044","addr":"경기도 부천시 소사본동 70-10번지 1층","indutype":"자동차정비 유지 - 카인테리어","category":"car"}]},{"lat":"37.472601011","long":"126.79576918","imageIndex":0,"items":[{"name":"명오토바이","tel":"032-348-8100","addr":"경기도 부천시 소사본동 203-19번지 로체스카이뷰아파트","indutype":"자동차판매 - 이륜차판매","category":"car"}]},{"lat":"37.472621846","long":"126.79226468","imageIndex":0,"items":[{"name":"바이크하우스","tel":"032-431-3335","addr":"경기도 부천시 소사본동 211-32번지 1층","indutype":"자동차판매 - 이륜차판매","category":"car"}]},{"lat":"37.47659574","long":"126.79254747","imageIndex":0,"items":[{"name":"벧엘카센타","tel":"032-347-9600","addr":"경기도 부천시 소사본동 149-29번지","indutype":"자동차정비 유지 - 자동차정비","category":"car"}]},{"lat":"37.475234982","long":"126.79240432","imageIndex":0,"items":[{"name":"삼진공업사","tel":"032-347-0211","addr":"경기도 부천시 소사본동 166-9번지","indutype":"자동차정비 유지 - 자동차정비","category":"car"}]},{"lat":"37.473846569","long":"126.7919108","imageIndex":0,"items":[{"name":"세계덴트칼라시스템","tel":"032-345-8277","addr":"경기도 부천시 소사본동 211-1번지","indutype":"자동차정비 유지 - 가타자동차서비스","category":"car"}]},{"lat":"37.470851419","long":"126.79482444","imageIndex":0,"items":[{"name":"소사3엠","tel":"032-351-3294","addr":"경기도 부천시 소사본동 233-19번지 1층","indutype":"자동차정비 유지 - 카인테리어","category":"car"},{"name":"카보드 부천","tel":"032-351-3294","addr":"경기도 부천시 소사본동 233-19번지 1층","indutype":"자동차정비 유지 - 자동차부품","category":"car"}]},{"lat":"37.471096632","long":"126.7959316","imageIndex":0,"items":[{"name":"소사점현대자동차","tel":"032-342-3989","addr":"경기도 부천시 소사본동 230-19번지","indutype":"자동차정비 유지 - 자동차부품","category":"car"}]},{"lat":"37.472962612","long":"126.80168055","imageIndex":0,"items":[{"name":"슈퍼광맨","tel":"031-000-0000","addr":"경기도 부천시 소사본동 278-33번지","indutype":"자동차정비 유지 - 세차장","category":"car"}]},{"lat":"37.481682062","long":"126.8004022","imageIndex":0,"items":[{"name":"스피드메이트소사본동점","tel":"032-344-5282","addr":"경기도 부천시 소사본동 62-1번지 카센터 1층","indutype":"자동차정비 유지 - 자동차정비","category":"car"}]},{"lat":"37.481736992","long":"126.80091083","imageIndex":0,"items":[{"name":"신현대공업사","tel":"032-348-1162","addr":"경기도 부천시 소사본동 62-29번지 더힐","indutype":"자동차정비 유지 - 자동차정비","category":"car"},{"name":"우성카센타","tel":"032-348-1162","addr":"경기도 부천시 소사본동 62-29번지 더힐","indutype":"자동차정비 유지 - 자동차정비","category":"car"}]},{"lat":"37.47160091","long":"126.79577194","imageIndex":0,"items":[{"name":"쌍용서비스프라자(소사)","tel":"032-347-5581","addr":"경기도 부천시 소사본동 216-35번지","indutype":"자동차정비 유지 - 자동차정비","category":"car"}]},{"lat":"37.478349353","long":"126.79576463","imageIndex":0,"items":[{"name":"안전카센타","tel":"032-346-0448","addr":"경기도 부천시 소사본동 139번지","indutype":"자동차정비 유지 - 자동차정비","category":"car"}]},{"lat":"37.480987328","long":"126.79466067","imageIndex":0,"items":[{"name":"엘모터스(L-MOTORS)","tel":"070-8887-3384","addr":"경기도 부천시 소사본동 75-1번지 1층 점포 3칸","indutype":"자동차정비 유지 - 자동차시트·타이어","category":"car"}]},{"lat":"37.477961015","long":"126.79524565","imageIndex":0,"items":[{"name":"엘케이(LK)스피드카공업사","tel":"032-613-5151","addr":"경기도 부천시 소사본동 140-15번지","indutype":"자동차정비 유지 - 자동차정비","category":"car"}]},{"lat":"37.480982793","long":"126.79721582","imageIndex":0,"items":[{"name":"영광모터스","tel":"032-342-8589","addr":"경기도 부천시 소사본동 65-22번지","indutype":"자동차정비 유지 - 자동차정비","category":"car"}]},{"lat":"37.479815542","long":"126.79438128","imageIndex":0,"items":[{"name":"오토 파츠","tel":"032-341-3288","addr":"경기도 부천시 소사본동 78-65번지 1층","indutype":"자동차정비 유지 - 자동차부품","category":"car"}]},{"lat":"37.479877397","long":"126.79884688","imageIndex":0,"items":[{"name":"오토오아시스 소사점","tel":"032-667-9955","addr":"경기도 부천시 소사본동 65-31번지 대화빌딩 1층","indutype":"자동차정비 유지 - 자동차정비","category":"car"}]},{"lat":"37.473960492","long":"126.80037781","imageIndex":0,"items":[{"name":"오토월드","tel":"070-4641-9629","addr":"경기도 부천시 소사본동 277-12번지 한신아파트","indutype":"자동차정비 유지 - 카인테리어","category":"car"}]},{"lat":"37.474902656","long":"126.79812558","imageIndex":0,"items":[{"name":"원일카센타","tel":"032-346-7744","addr":"경기도 부천시 소사본동 195-43번지","indutype":"자동차정비 유지 - 자동차정비","category":"car"}]},{"lat":"37.480175739","long":"126.79426722","imageIndex":0,"items":[{"name":"주식회사 스마트파킹","tel":"032-341-0081","addr":"경기도 부천시 소사본동 78번지 세명타워메카 211호","indutype":"자동차정비 유지 - 주차장","category":"car"}]},{"lat":"37.482232136","long":"126.79040612","imageIndex":0,"items":[{"name":"주신바퀴","tel":"032-351-4909","addr":"경기도 부천시 소사본동 89-14번지","indutype":"자동차정비 유지 - 자동차시트·타이어","category":"car"}]},{"lat":"37.470010298","long":"126.79301809","imageIndex":0,"items":[{"name":"중동정비","tel":"032-611-9766","addr":"경기도 부천시 소사본동 236-27번지","indutype":"자동차정비 유지 - 자동차정비","category":"car"}]},{"lat":"37.481571654","long":"126.79391285","imageIndex":0,"items":[{"name":"철천사종합카","tel":"032-404-5515","addr":"경기도 부천시 소사본동 70-6번지","indutype":"자동차정비 유지 - 세차장","category":"car"}]},{"lat":"37.470291188","long":"126.79391035","imageIndex":0,"items":[{"name":"카앤피플 시흥5호점","tel":"","addr":"경기도 부천시 소사본동 235-19번지 1층","indutype":"자동차정비 유지 - 세차장","category":"car"}]},{"lat":"37.481683647","long":"126.80132929","imageIndex":0,"items":[{"name":"카플러스","tel":"032-346-4742","addr":"경기도 부천시 소사본동 62-5번지 1층","indutype":"자동차정비 유지 - 자동차부품","category":"car"}]},{"lat":"37.473404021","long":"126.80163415","imageIndex":0,"items":[{"name":"큐텍","tel":"032-349-3328","addr":"경기도 부천시 소사본동 267-1","indutype":"자동차정비 유지 - 자동차부품","category":"car"}]},{"lat":"37.482429071","long":"126.79474712","imageIndex":0,"items":[{"name":"파크존소사","tel":"","addr":"경기도 부천시 소사본동 395-7번지 1층","indutype":"자동차정비 유지 - 주차장","category":"car"}]},{"lat":"37.46979132","long":"126.79657954","imageIndex":0,"items":[{"name":"하이전자","tel":"032-351-4208","addr":"경기도 부천시 소사본동 229-22번지 1층","indutype":"자동차정비 유지 - 자동차부품","category":"car"}]},{"lat":"37.47653733","long":"126.79518175","imageIndex":0,"items":[{"name":"한강오토밋션","tel":"032-341-6865","addr":"경기도 부천시 소사본동 152-17번지 1층","indutype":"자동차정비 유지 - 자동차정비","category":"car"}]},{"lat":"37.47115361","long":"126.7976045","imageIndex":0,"items":[{"name":"한영카센타","tel":"032-348-4374","addr":"경기도 부천시 소사본동 222-1번지 2호","indutype":"자동차정비 유지 - 자동차정비","category":"car"}]},{"lat":"37.46998944","long":"126.79652247","imageIndex":0,"items":[{"name":"현대카마스타","tel":"032-651-0330","addr":"경기도 부천시 소사본동 229-32번지","indutype":"자동차정비 유지 - 자동차정비","category":"car"}]}]