[{"lat":"37.570952042","long":"127.19450999","items":[{"name":"(주) 아트앱","tel":"031-796-2981","addr":"경기도 하남시 망월동 941번지 2층 201호","category":"가구 - 일반가구"},{"name":"(주)쥬라리움 에프앤비","tel":"070-4216-7542","addr":"경기도 하남시 망월동 941번지","category":"음료식품 - 제과점"},{"name":"153(일오삼)","tel":"031-795-1153","addr":"경기도 하남시 망월동 941번지","category":"의류 - 정장"},{"name":"A-garden (에이가든)","tel":"031-111-1111","addr":"경기도 하남시 망월동 941번지 1층","category":"문화.취미 - 애완동물"},{"name":"OTOP(오탑)","tel":"02-000-0000","addr":"경기도 하남시 망월동 941번지","category":"문화.취미 - 민예·공예품"},{"name":"공예마을","tel":"02-720-0103","addr":"경기도 하남시 망월동 941번지","category":"문화.취미 - 민예·공예품"},{"name":"나누리 중아트갤러리점","tel":"031-511-5754","addr":"경기도 하남시 망월동 941번지","category":"문화.취미 - 민예·공예품"},{"name":"뚱이네","tel":"","addr":"경기도 하남시 망월동 941번지 중아트갤러리&벤처마켓.아트마켓 1층 C-8호","category":"문화.취미 - 민예·공예품"},{"name":"라푼젤","tel":"031-8028-1238","addr":"경기도 하남시 망월동 941번지 1층 B-2호","category":"신변잡화 - 액세서리"},{"name":"수 장인의 숨결","tel":"031-791-8719","addr":"경기도 하남시 망월동 941번지 1층","category":"문화.취미 - 민예·공예품"},{"name":"숲","tel":"","addr":"경기도 하남시 망월동 941번지 1층","category":"의류 - 정장"},{"name":"와이앤에스 아트(Y&S ART)","tel":"031-793-7353","addr":"경기도 하남시 망월동 941번지 중아트그룹 중아트갤러리A-5","category":"신변잡화 - 가방"},{"name":"장이","tel":"02-1833-7432","addr":"경기도 하남시 망월동 941번지 A-2.4.5호","category":"문화.취미 - 민예·공예품"},{"name":"주식회사 쥬라리움","tel":"070-4216-7542","addr":"경기도 하남시 망월동 941번지","category":"학원 - 기타 교육기관"},{"name":"중아트 구내식당/(주)중아트그룹중아트갤러","tel":"031-791-5134","addr":"경기도 하남시 망월동 941번지","category":"일반휴게음식 - 위탁급식업"},{"name":"중아트 플라워","tel":"02-473-5931","addr":"경기도 하남시 망월동 941번지 중아트마켓 Z-2","category":"문화.취미 - 화원"},{"name":"쭌 인디아","tel":"031-743-9250","addr":"경기도 하남시 망월동 941번지 1층 C-9호 아트마켓","category":"문화.취미 - 민예·공예품"},{"name":"키친앤데코","tel":"02-1111-1111","addr":"경기도 하남시 망월동 941번지 2층 H-3호","category":"신변잡화 - 기타잡화"},{"name":"하비루(Habiru)","tel":"02-454-3172","addr":"경기도 하남시 망월동 941번지 1층 E-2호호","category":"신변잡화 - 기타잡화"},{"name":"허브블라썸","tel":"033-000-0000","addr":"경기도 하남시 망월동 941번지 1층 A-6 ,7,8","category":"보건위생 - 화장품"},{"name":"헵시바","tel":"031-793-7521","addr":"경기도 하남시 망월동 941번지 1층 F1호 중아트갤러리","category":"신변잡화 - 액세서리"}]},{"lat":"37.557234099","long":"127.19756451","items":[{"name":"(주)구갈인터렉티브","tel":"02-425-6500","addr":"경기도 하남시 망월동 69-4 8호","category":"사무통신 - 컴퓨터"}]},{"lat":"37.573645449","long":"127.19483384","items":[{"name":"(주)구산에너지","tel":"031-792-0902","addr":"경기도 하남시 망월동 307","category":"연료판매점 - SK주유소"}]},{"lat":"37.564479804","long":"127.18514431","items":[{"name":"(주)그리드케이","tel":"02-3436-7533","addr":"경기도 하남시 망월동 1060번지 미사강변푸르지오1차 112동 1203호","category":"문화.취미 - 티켓"},{"name":"꿈빛나무어린이집[아이행복]","tel":"031-699-5132","addr":"경기도 하남시 망월동 1060번지 미사강변푸르지오 102동 102호","category":"학원 - 유아원"},{"name":"도하몽(DOHAMON)","tel":"","addr":"경기도 하남시 망월동 1060번지 미사강변푸르지오 108동 1502호","category":"신변잡화 - 액세서리"},{"name":"라온어린이집[아이행복]","tel":"031-7950-728","addr":"경기도 하남시 망월동 1060번지 미사강변푸르지오","category":"학원 - 유아원"},{"name":"로제타스톤 미사캠퍼스","tel":"","addr":"경기도 하남시 망월동 1060번지 미사강변푸르지오 101동 102호","category":"학원 - 기타 교육기관"},{"name":"리킴 (Likeem)","tel":"02-3013-0753","addr":"경기도 하남시 망월동 1060번지 미사강변푸르지오 102동 304호","category":"의류 - 정장"},{"name":"멜리사의 영어 공부방","tel":"","addr":"경기도 하남시 망월동 1060번지 미사강변푸르지오 102동 10층 1003호","category":"학원 - 기타 교육기관"},{"name":"뮤엠영어푸르지오네스트","tel":"031-794-3975","addr":"경기도 하남시 망월동 1060번지 미사강변푸르지오 107동 202호","category":"학원 - 기타 교육기관"},{"name":"반디의빛","tel":"070-8623-8209","addr":"경기도 하남시 망월동 1060번지 미사강변푸르지오 114동 101호","category":"학원 - 기타 교육기관"},{"name":"별바라기 어린이집[아이행복]","tel":"031-794-5732","addr":"경기도 하남시 망월동 1060번지 미사강변푸르지오 105동 104호","category":"학원 - 유아원"},{"name":"샤이닝커뮤니티","tel":"070-4384-1452","addr":"경기도 하남시 망월동 1060번지 미사강변푸르지오 104동 1602호","category":"문화.취미 - 티켓"},{"name":"송수학","tel":"","addr":"경기도 하남시 망월동 1060번지 미사강변푸르지오 113동 103호","category":"학원 - 기타 교육기관"},{"name":"수학공부방","tel":"","addr":"경기도 하남시 망월동 1060번지 미사강변푸르지오 106동 302호","category":"학원 - 기타 교육기관"},{"name":"아이룸","tel":"031-000-0000","addr":"경기도 하남시 망월동 1060번지 미사강변푸르지오 101동 701호","category":"의류 - 아동의류"},{"name":"아이스크림살래","tel":"","addr":"경기도 하남시 망월동 1060번지 미사강변푸르지오 127동 105호","category":"음료식품 - 기타음료식품"},{"name":"예은어린이집[아이행복]","tel":"031-8028-0027","addr":"경기도 하남시 망월동 1060번지 미사강변푸르지오 104동 102호","category":"학원 - 유아원"},{"name":"유노우","tel":"070-7518-8515","addr":"경기도 하남시 망월동 1060번지 미사강변푸르지오 112동 201호","category":"의류 - 기타의류"},{"name":"정현희 헤어","tel":"031-795-0837","addr":"경기도 하남시 망월동 1060번지 하남미사 A19BL 단지내상가","category":"보건위생 - 미용원"},{"name":"파란교육","tel":"031-790-6399","addr":"경기도 하남시 망월동 1060번지 미사강변푸르지오 113동 401호","category":"학원 - 기타 교육기관"},{"name":"플러스공인중개사사무소","tel":"070-7728-5000","addr":"경기도 하남시 망월동 1060번지 미사강변푸르지오 127동 104호","category":"용역 서비스 - 부동산 중개·임대"},{"name":"할타스","tel":"","addr":"경기도 하남시 망월동 1060번지 미사강변푸르지오 111동 6층 602호","category":"일반휴게음식 - 일반한식"}]},{"lat":"37.573590561","long":"127.17797837","items":[{"name":"(주)그린쿨텍","tel":"031-792-1614","addr":"경기도 하남시 망월동 458-27","category":"전기제품 - 냉열기기"},{"name":"그린쿨텍","tel":"02-900-4686","addr":"경기도 하남시 망월동 458-27번지 그린쿨텍","category":"전기제품 - 냉열기기"}]},{"lat":"37.569704463","long":"127.18581356","items":[{"name":"(주)도드람푸드(미사점)","tel":"031-786-0231","addr":"경기도 하남시 망월동 974번지 A+구산프라자 108호","category":"음료식품 - 정육점"},{"name":"구산프라자관리단","tel":"070-5167-2386","addr":"경기도 하남시 망월동 974번지 A+구산프라자","category":"자동차정비 유지 - 주차장"},{"name":"김간지","tel":"031-793-7944","addr":"경기도 하남시 망월동 974번지 A+구산프라자 110호","category":"일반휴게음식 - 스넥"},{"name":"깜빠니오","tel":"070-4151-7228","addr":"경기도 하남시 망월동 974번지 A+구산프라자 1층 102호","category":"음료식품 - 제과점"},{"name":"닭찬들 마켓","tel":"031-794-4445","addr":"경기도 하남시 망월동 974번지 A+구산프라자 1층 106호","category":"일반휴게음식 - 스넥"},{"name":"더풋샵미사강변점","tel":"031-792-3334","addr":"경기도 하남시 망월동 974번지 406,407호","category":"보건위생 - 화장품"},{"name":"도드람미트마켓(미사점)/(주)도드람푸드","tel":"031-786-0231","addr":"경기도 하남시 망월동 974번지 A+구산프라자 108호","category":"음료식품 - 정육점"},{"name":"라키즈 바이올린 음악학원","tel":"031-793-8252","addr":"경기도 하남시 망월동 974번지 A+구산프라자 5층 2호","category":"학원 - 예·체능계학원"},{"name":"리틀팍스어학원/(주)리틀팍스 강동","tel":"031-793-0594","addr":"경기도 하남시 망월동 974번지 A+구산프라자 304호-307호","category":"학원 - 외국어학원"},{"name":"마음자람 심리상담 미사센터","tel":"031-791-8882","addr":"경기도 하남시 망월동 974번지 A+구산프라자 507호","category":"보건위생 - 기타대인서비스"},{"name":"미사리스테이크/(주)하남에프앤비","tel":"032-794-2451","addr":"경기도 하남시 망월동 974번지 A+구산프라자 112호 113호","category":"일반휴게음식 - 서양음식"},{"name":"미생","tel":"031-795-0049","addr":"경기도 하남시 망월동 974번지 A+구산프라자 109호","category":"일반휴게음식 - 일반한식"},{"name":"바퀴달린그림책","tel":"031-796-5152","addr":"경기도 하남시 망월동 974번지 A+구산프라자 3층 302호","category":"학원 - 예·체능계학원"},{"name":"산울림삼겹살","tel":"031-796-2779","addr":"경기도 하남시 망월동 974번지 2층 203,204호","category":"일반휴게음식 - 일반한식"},{"name":"셈마루종합학원","tel":"031-792-0369","addr":"경기도 하남시 망월동 974번지 A+구산프라자 503호","category":"학원 - 보습학원"},{"name":"수다","tel":"031-796-2554","addr":"경기도 하남시 망월동 974번지 A+구산프라자 1층 114호","category":"일반휴게음식 - 서양음식"},{"name":"스파머시 하남점","tel":"031-793-8024","addr":"경기도 하남시 망월동 974번지 A+구산프라자 303호","category":"보건위생 - 피부미용실"},{"name":"아이큐로봇키즈카페","tel":"031-8028-2282","addr":"경기도 하남시 망월동 974번지 A+구산프라자 301호","category":"일반휴게음식 - 서양음식"},{"name":"와이즈몽 미술학원","tel":"031-793-7842","addr":"경기도 하남시 망월동 974번지 A+구산프라자 4층 404호","category":"학원 - 예·체능계학원"},{"name":"윤선생스마트랜드하남직영점","tel":"031-795-8205","addr":"경기도 하남시 망월동 974번지 A+구산프라자 506호","category":"서적문구 - 일반서적"},{"name":"턴업 휘트니스","tel":"070-7320-7600","addr":"경기도 하남시 망월동 974번지 A+구산프라자 4층 05호","category":"레저업소 - 헬스클럽"},{"name":"페테리안동물병원","tel":"031-790-0906","addr":"경기도 하남시 망월동 974번지 외 1필지 에이플러스구산프라자 201호","category":"기타의료기관 - 동물병원"},{"name":"하남미사감각심리센터","tel":"031-794-9947","addr":"경기도 하남시 망월동 974번지 1,2,3호","category":"보건위생 - 기타대인서비스"},{"name":"휴대폰도매센터","tel":"031-793-8684","addr":"경기도 하남시 망월동 974번지 A+구산프라자 1층 101호","category":"사무통신 - 통신기기"}]},{"lat":"37.566149478","long":"127.18908731","items":[{"name":"(주)미사심슨어학원","tel":"02-429-3321","addr":"경기도 하남시 망월동 1079-1번지 우성미사타워 801동 806호","category":"학원 - 보습학원"},{"name":"GS25미사우성타워점","tel":"","addr":"경기도 하남시 망월동 1079-1번지 우성미사타워","category":"유통업 영리 - 편 의 점"},{"name":"LP그루브","tel":"031-796-0129","addr":"경기도 하남시 망월동 1079-1번지 우성미사타워 7층 703호","category":"일반휴게음식 - 서양음식"},{"name":"강향숙댄스스포츠","tel":"070-8887-0990","addr":"경기도 하남시 망월동 1079-1번지 우성미사타워 1006호","category":"학원 - 예·체능계학원"},{"name":"교동전선생","tel":"031-796-6333","addr":"경기도 하남시 망월동 1079-1번지 우성미사타워 1층 114호","category":"일반휴게음식 - 일반한식"},{"name":"꽃길오뎅","tel":"","addr":"경기도 하남시 망월동 1079-1번지 우성미사타워 110호","category":"일반휴게음식 - 일식·회집"},{"name":"꽃샘에스테틱","tel":"031-791-0102","addr":"경기도 하남시 망월동 1079-1번지 우성미사타워 1405호","category":"보건위생 - 화장품"},{"name":"늘푸른목장","tel":"031-793-1070","addr":"경기도 하남시 망월동 1079-1번지 우성미사타워 116,117,118호","category":"일반휴게음식 - 일반한식"},{"name":"돌리고제주도야지","tel":"031-795-5588","addr":"경기도 하남시 망월동 1079-1번지 우성미사타워 1층 101호","category":"일반휴게음식 - 일반한식"},{"name":"로즈","tel":"","addr":"경기도 하남시 망월동 1079-1번지 우성미사타워 7층 708호","category":"보건위생 - 화장품"},{"name":"마부마라탕 마라샹궈","tel":"031-792-7284","addr":"경기도 하남시 망월동 1079-1번지 우성미사타워 2층 205-1호","category":"일반휴게음식 - 중국식"},{"name":"만찬 (10000chan)","tel":"031-796-3376","addr":"경기도 하남시 망월동 1079-1번지 우성미사타워 1층 112호","category":"음료식품 - 기타음료식품"},{"name":"맛닭꼬","tel":"031-792-5592","addr":"경기도 하남시 망월동 1079-1번지 우성미사타워 1층 107호","category":"일반휴게음식 - 스넥"},{"name":"메고지고","tel":"031-111-1111","addr":"경기도 하남시 망월동 1079-1번지 우성미사타워 111호","category":"일반휴게음식 - 서양음식"},{"name":"명사원풋샵","tel":"031-796-6799","addr":"경기도 하남시 망월동 1079-1번지 우성미사타워 1001호","category":"보건위생 - 피부미용실"},{"name":"미사 스크린골프/신우메탈(주)","tel":"031-791-2671","addr":"경기도 하남시 망월동 1079-1번지 1401호,1402호,1403호","category":"레저업소 - 스크린골프"},{"name":"미사빌리아드클럽","tel":"031-793-2979","addr":"경기도 하남시 망월동 1079-1번지 우성미사타워 401동 402호","category":"레저업소 - 당 구 장"},{"name":"미사애한의원","tel":"031-928-1021","addr":"경기도 하남시 망월동 1079-1번지 우성미사타워 6층 4호","category":"의원 - 한의원"},{"name":"미사약국","tel":"031-791-1688","addr":"경기도 하남시 망월동 1079-1번지 우성미사타워 1층 102호","category":"약국 - 약국"},{"name":"미소준내과의원","tel":"031-8028-3082","addr":"경기도 하남시 망월동 1079-1번지 우성미사타워 3층 301호","category":"의원 - 의원"},{"name":"미술로생각하기 미사학원","tel":"031-794-0946","addr":"경기도 하남시 망월동 1079-1번지 우성미사타워 902호","category":"학원 - 예·체능계학원"},{"name":"미아리우동","tel":"031-795-0911","addr":"경기도 하남시 망월동 1079-1번지 우성미사타워 105호","category":"일반휴게음식 - 일반한식"},{"name":"블리스피티엔필라테스스튜디오(BLISS pt&pi","tel":"031-793-3812","addr":"경기도 하남시 망월동 1079-1번지 우성미사타워 1408호","category":"레저업소 - 헬스클럽"},{"name":"쁘띠몽드 하남미사점","tel":"031-792-2331","addr":"경기도 하남시 망월동 1079-1번지 우성미사타워 1002~1004호","category":"레저업소 - 기타레져업소"},{"name":"샤우칭","tel":"031-794-6687","addr":"경기도 하남시 망월동 1079-1번지 우성미사타워 2층 206-1,206-2,207호","category":"일반휴게음식 - 중국식"},{"name":"스마일소아청소년과의원","tel":"031-791-6800","addr":"경기도 하남시 망월동 1079-1번지 우성미사타워 5층 5호","category":"의원 - 의원"},{"name":"스마일웰빙샵","tel":"031-791-6800","addr":"경기도 하남시 망월동 1079-1번지 우성미사타워 5층 505호","category":"회원제형태 - 건강식품"},{"name":"스푼더마켓 하남미사점","tel":"031-795-4540","addr":"경기도 하남시 망월동 1079-1번지 우성미사타워 1103동 1108호","category":"일반휴게음식 - 일반한식"},{"name":"신의주찹쌀순대","tel":"031-795-9344","addr":"경기도 하남시 망월동 1079-1번지 우성미사타워 106호","category":"일반휴게음식 - 일반한식"},{"name":"에리카","tel":"","addr":"경기도 하남시 망월동 1079-1번지 우성미사타워 3층 306-1,306-2호","category":"보건위생 - 화장품"},{"name":"오아시스(OASIS)","tel":"","addr":"경기도 하남시 망월동 1079-1번지 우성미사타워 103호","category":"일반휴게음식 - 서양음식"},{"name":"워크아웃짐(workout Gym)","tel":"031-791-2377","addr":"경기도 하남시 망월동 1079-1번지 우성미사타워 12층 1201호","category":"레저업소 - 헬스클럽"},{"name":"이도비어 미사점","tel":"031-796-7477","addr":"경기도 하남시 망월동 1079-1번지 우성미사타워 115호","category":"일반휴게음식 - 주점"},{"name":"이진항","tel":"","addr":"경기도 하남시 망월동 1079-1번지 우성미사타워 2층 204-1호","category":"일반휴게음식 - 일반한식"},{"name":"인싸노래연습장","tel":"031-791-8894","addr":"경기도 하남시 망월동 1079-1번지 우성미사타워 5층 506호","category":"레저업소 - 노 래 방"},{"name":"제이엠더블유","tel":"070-7808-4567","addr":"경기도 하남시 망월동 1079-1번지 우성미사타워 1406호","category":"의류 - 아동의류"},{"name":"좋은하루치과의원","tel":"031-796-2085","addr":"경기도 하남시 망월동 1079-1번지 우성미사타워 403호","category":"의원 - 치과의원"},{"name":"주식회사 돈화지","tel":"031-793-3492","addr":"경기도 하남시 망월동 1079-1번지 우성미사타워 203호","category":"일반휴게음식 - 일반한식"},{"name":"커브스 미사강변클럽","tel":"031-792-7330","addr":"경기도 하남시 망월동 1079-1번지 우성미사타워 10층 1005호","category":"레저업소 - 헬스클럽"},{"name":"탑기어골프","tel":"031-699-1313","addr":"경기도 하남시 망월동 1079-1번지 우성미사타워 12층 4호","category":"수리서비스 - 레져용품수리"},{"name":"포커스공인중개사사무소","tel":"031-795-1124","addr":"경기도 하남시 망월동 1079-1번지 우성미사타워 102호","category":"용역 서비스 - 부동산 중개·임대"},{"name":"플라타너스 스튜디오","tel":"031-792-8240","addr":"경기도 하남시 망월동 하남미사지구중심상업용지1-2블럭 우성미사타워9층901호","category":"광학제품 - 사진관"},{"name":"플레이하남점","tel":"031-794-3235","addr":"경기도 하남시 망월동 1079-1번지 우성미사타워 705호","category":"서적문구 - 완구점"},{"name":"하나산부인과","tel":"031-791-0366","addr":"경기도 하남시 망월동 1079-1번지 우성미사타워 5층 503호","category":"의원 - 의원"},{"name":"학습심리상담센터 티움","tel":"031-699-0040","addr":"경기도 하남시 망월동 1079-1번지 우성미사타워 1207호","category":"보건위생 - 기타대인서비스"},{"name":"행복한 소아 치과의원","tel":"031-795-7928","addr":"경기도 하남시 망월동 1079-1번지 우성미사타워 504호","category":"의원 - 치과의원"},{"name":"허그맘 허그인 심리상담 하남센터","tel":"031-8042-6255","addr":"경기도 하남시 망월동 1079-1번지 우성미사타워 9층 3호","category":"보건위생 - 기타대인서비스"},{"name":"헤어살롱노이","tel":"031-795-0612","addr":"경기도 하남시 망월동 1079-1번지 우성미사타워 2층 204-2호","category":"보건위생 - 미용원"},{"name":"황소곱창and수라면가","tel":"031-792-1933","addr":"경기도 하남시 망월동 1079-1번지 우성미사타워 2층 202호","category":"일반휴게음식 - 일반한식"},{"name":"힐링엔젤스 미사점","tel":"031-792-7985","addr":"경기도 하남시 망월동 1079-1번지 우성미사타워 12층 1206호","category":"건강식품 - 기타건강식품"}]},{"lat":"37.566121483","long":"127.18969845","items":[{"name":"(주)박씨네","tel":"031-246-2222","addr":"경기도 하남시 망월동 1079-2번지 4,5층","category":"신변잡화 - 기타잡화"},{"name":"3POP카페","tel":"","addr":"경기도 하남시 망월동 1079-2번지 성산타워 4층 406호","category":"일반휴게음식 - 서양음식"},{"name":"GS25 미사엠시티점","tel":"","addr":"경기도 하남시 망월동 1079-2번지 성산타워 1층 113호","category":"유통업 영리 - 편 의 점"},{"name":"MEGABOX","tel":"031-246-2222","addr":"경기도 하남시 망월동 1079-2번지 4,5층","category":"문화.취미 - 영화관"},{"name":"더원","tel":"031-796-0258","addr":"경기도 하남시 망월동 1079-2번지 성산타워 3층 306-309호","category":"레저업소 - 스크린골프"},{"name":"땅땅치킨 미사점","tel":"031-792-9215","addr":"경기도 하남시 망월동 1079-2번지 성산타워 1층 104호","category":"일반휴게음식 - 스넥"},{"name":"램프리","tel":"031-792-6602","addr":"경기도 하남시 망월동 1079-2번지 성산타워 3층 305호","category":"일반휴게음식 - 일반한식"},{"name":"롯데리아 미사역점","tel":"","addr":"경기도 하남시 망월동 1079-2번지 성산타워 111,112,205호","category":"일반휴게음식 - 서양음식"},{"name":"리븐벨르","tel":"","addr":"경기도 하남시 망월동 1079-2번지 성산타워 6층 23호","category":"보건위생 - 기타대인서비스"},{"name":"리안헤어 미사역점","tel":"031-792-1555","addr":"경기도 하남시 망월동 1079-2번지 성산타워 2층 201호","category":"보건위생 - 미용원"},{"name":"막창자부심 하남미사점","tel":"031-0000-0000","addr":"경기도 하남시 망월동 1079-2번지 성산타워 110호","category":"일반휴게음식 - 일반한식"},{"name":"메가박스중앙 (주)-하남미사강변박씨네","tel":"031-795-2206","addr":"경기도 하남시 망월동 1079-2번지 ,4,5층","category":"문화.취미 - 영화관"},{"name":"메가박스하남미사강변호랑이굴매점","tel":"031-795-2206","addr":"경기도 하남시 망월동 1079-2번지 성산타워 4층","category":"일반휴게음식 - 일반한식"},{"name":"미스터깐풍 미사점","tel":"031-795-6705","addr":"경기도 하남시 망월동 1079-2번지 성산타워 102호","category":"일반휴게음식 - 주점"},{"name":"보울룸","tel":"031-000-0000","addr":"경기도 하남시 망월동 1079-2번지 성산타워 118호","category":"일반휴게음식 - 서양음식"},{"name":"생활맥주(미사수변공원점)","tel":"031-791-9806","addr":"경기도 하남시 망월동 1079-2번지 성산타워 117호","category":"일반휴게음식 - 주점"},{"name":"성모척척의원","tel":"031-796-0986","addr":"경기도 하남시 망월동 1079-2번지 미사강변도시 중심상업용지 8-1 경서타워 3층 304,305,306호","category":"의원 - 의원"},{"name":"소담촌 하남미사점","tel":"031-794-2770","addr":"경기도 하남시 망월동 1079-2번지 성산타워 303,304호","category":"일반휴게음식 - 일반한식"},{"name":"송하정 참치","tel":"031-000-0000","addr":"경기도 하남시 망월동 1079-2번지 성산타워 1층 105호","category":"일반휴게음식 - 일반한식"},{"name":"신(  )발통","tel":"031-792-9253","addr":"경기도 하남시 망월동 1079-2번지 성산타워 1층 101호","category":"일반휴게음식 - 일반한식"},{"name":"쓰리팝 PC방","tel":"","addr":"경기도 하남시 망월동 1079-2번지 성산타워 4층 405호","category":"레저업소 - 기타레져업소"},{"name":"쓰리팝플러스 PC방","tel":"02-000-0000","addr":"경기도 하남시 망월동 1079-2번지 407호 406호,407호","category":"레저업소 - 기타레져업소"},{"name":"아름","tel":"","addr":"경기도 하남시 망월동 1079-2번지 성산타워 2층 209호","category":"보건위생 - 화장품"},{"name":"안테나헤어","tel":"031-796-9622","addr":"경기도 하남시 망월동 1079-2번지 성산타워 207호","category":"보건위생 - 미용원"},{"name":"오늘밤골뱅이","tel":"","addr":"경기도 하남시 망월동 1079-2번지 성산타워 1층 109호","category":"일반휴게음식 - 일반한식"},{"name":"유케야 미사점","tel":"","addr":"경기도 하남시 망월동 1079-2번지 성산타워 1층 106호","category":"일반휴게음식 - 일반한식"},{"name":"이심닭심","tel":"","addr":"경기도 하남시 망월동 1079-2번지 성산타워 1층 107호","category":"일반휴게음식 - 일반한식"},{"name":"주식회사 미래석건","tel":"070-8153-0345","addr":"경기도 하남시 망월동 1079-2번지 성산타워 723호","category":"용역 서비스 - 기타용역서비스"},{"name":"주식회사 박씨네","tel":"031-246-2222","addr":"경기도 하남시 망월동 1079-2번지 4,5층","category":"음료식품 - 기타음료식품"},{"name":"주식회사 박씨네","tel":"031-242-9242","addr":"경기도 하남시 망월동 1079-2번지 4,5층","category":"일반휴게음식 - 일반한식"}]},{"lat":"37.565784541","long":"127.18623408","items":[{"name":"(주)백원유통","tel":"031-791-6002","addr":"경기도 하남시 망월동 582-3","category":"음료식품 - 기타음료식품"}]},{"lat":"37.564980437","long":"127.19884103","items":[{"name":"(주)송추가마골 하남미사지점","tel":"031-794-9566","addr":"경기도 하남시 망월동 1149","category":"일반휴게음식 - 일반한식"}]},{"lat":"37.572285268","long":"127.19464924","items":[{"name":"(주)아워홈 산은아카데미하남점","tel":"02-6966-9040","addr":"경기도 하남시 망월동 290-1번지 1층","category":"일반휴게음식 - 위탁급식업"}]},{"lat":"37.571203052","long":"127.1838929","items":[{"name":"(주)애플디아이하남","tel":"031-791-9532","addr":"경기도 하남시 망월동 508-6 A8BL","category":"일반휴게음식 - 일반한식"},{"name":"주식회사애플디아이하남","tel":"031-791-9532","addr":"경기도 하남시 망월동 508-6 A-8BL 1층","category":"일반휴게음식 - 일반한식"}]},{"lat":"37.566258647","long":"127.18841977","items":[{"name":"(주)얌샘김밥 하남 미사 중앙점","tel":"031-793-3357","addr":"경기도 하남시 망월동 1077-1번지 센트럴파크2 107호","category":"일반휴게음식 - 일반한식"},{"name":"IZNAIM","tel":"031-796-7557","addr":"경기도 하남시 망월동 1077-1번지","category":"의류 - 정장"},{"name":"교동짬뽕","tel":"031-791-5004","addr":"경기도 하남시 망월동 1077-1번지 센트럴파크2 201,202호","category":"일반휴게음식 - 중국식"},{"name":"까페 무","tel":"","addr":"경기도 하남시 망월동 1077-1번지 센트럴파크2 1층 108호","category":"음료식품 - 기타음료식품"},{"name":"나이스가이","tel":"031-794-9688","addr":"경기도 하남시 망월동 1077-1번지 센트럴파크2 113호","category":"보건위생 - 미용원"},{"name":"두찜 하남미사점","tel":"031-794-3848","addr":"경기도 하남시 망월동 1077-1번지 센트럴파크 205호","category":"일반휴게음식 - 일반한식"},{"name":"라이트브로(light bro)","tel":"031-795-7974","addr":"경기도 하남시 망월동 1077-1번지 센트럴파크2 1층 112호","category":"광학제품 - 사진관"},{"name":"맥쓰 (MEXX)세계치킨 미사강변도시점","tel":"031-793-0084","addr":"경기도 하남시 망월동 1077-1번지 센트럴파크2 114호","category":"일반휴게음식 - 스넥"},{"name":"명륜진사갈비 하남미사점","tel":"031-724-2005","addr":"경기도 하남시 망월동 1077-1번지 2층 207호,208호","category":"일반휴게음식 - 일반한식"},{"name":"명품노래연습장","tel":"","addr":"경기도 하남시 망월동 1077-1번지 301호,302호,303-1호","category":"레저업소 - 노 래 방"},{"name":"미스사이공 미사강변점","tel":"031-795-0422","addr":"경기도 하남시 망월동 1077-1번지 센트럴파크2 101호","category":"일반휴게음식 - 서양음식"},{"name":"바오밥 미사호수공원점","tel":"031-794-3665","addr":"경기도 하남시 망월동 1077-1번지 센트럴파크2 1층 110,111호","category":"일반휴게음식 - 서양음식"},{"name":"베니스스타","tel":"031-795-0046","addr":"경기도 하남시 망월동 1077-1번지 센트럴파크2 2층 205-208호","category":"일반휴게음식 - 서양음식"},{"name":"이디야커피 하남미사중앙점","tel":"031-793-7184","addr":"경기도 하남시 망월동 1077-1번지 센트럴파크2 1층 104,105호","category":"일반휴게음식 - 서양음식"},{"name":"족발예찬","tel":"031-792-2344","addr":"경기도 하남시 망월동 1077-1번지 센트럴파크2 1층 109호","category":"일반휴게음식 - 일반한식"},{"name":"추닭집하남미사점","tel":"031-793-7185","addr":"경기도 하남시 망월동 1077-1번지","category":"일반휴게음식 - 일반한식"},{"name":"퀸즈","tel":"","addr":"경기도 하남시 망월동 1077-1번지 센트럴파크2 1층 102호","category":"의류 - 정장"}]},{"lat":"37.562177928","long":"127.19361601","items":[{"name":"(주)에이치마트","tel":"031-796-6678","addr":"경기도 하남시 망월동 1131-1번지","category":"유통업 영리 - 슈퍼마켓"}]},{"lat":"37.569122525","long":"127.19483356","items":[{"name":"(주)이비가푸드이비가짬뽕하남본점","tel":"031-793-7485","addr":"경기도 하남시 망월동 927번지 한강타워 2층 201호,202호,203호","category":"일반휴게음식 - 중국식"},{"name":"한강타워","tel":"031-796-8200","addr":"경기도 하남시 망월동 927번지 한강타워 3층 301호","category":"자동차정비 유지 - 주차장"},{"name":"한국피자헛 하남미사점","tel":"031-796-5515","addr":"경기도 하남시 망월동 927번지 한강타워 114호,115호","category":"일반휴게음식 - 서양음식"},{"name":"호천당 미사점","tel":"031-795-5585","addr":"경기도 하남시 망월동 927번지 한강타워 112호,113호","category":"일반휴게음식 - 일반한식"}]},{"lat":"37.560204443","long":"127.19931519","items":[{"name":"(주)정문대리석","tel":"031-794-8769","addr":"경기도 하남시 망월동 40-1번지","category":"건축자재 - 건축용 요업제품"},{"name":"소문난수산","tel":"031-791-3707","addr":"경기도 하남시 망월동 40-1","category":"음료식품 - 농·축·수산품"}]},{"lat":"37.571260953","long":"127.18136878","items":[{"name":"(주)쿨마트","tel":"031-795-0600","addr":"경기도 하남시 망월동 1014번지 1층","category":"유통업 영리 - 슈퍼마켓"}]},{"lat":"37.571034989","long":"127.18184366","items":[{"name":"(주)파워스포츠","tel":"031-791-0238","addr":"경기도 하남시 망월동 494-3망월221호","category":"레져용품 - 스포츠·레져용품"}]},{"lat":"37.559925234","long":"127.19925787","items":[{"name":"015네일샵","tel":"","addr":"경기도 하남시 망월동 1188번지 1층","category":"보건위생 - 피부미용실"},{"name":"레테(Lethe)","tel":"031-793-8060","addr":"경기도 하남시 망월동 1188번지","category":"일반휴게음식 - 서양음식"},{"name":"앙마카롱","tel":"","addr":"경기도 하남시 망월동 1188번지 1층","category":"음료식품 - 기타음료식품"}]},{"lat":"37.56151188","long":"127.19319555","items":[{"name":"153e참치","tel":"031-795-9102","addr":"경기도 하남시 망월동 1117번지 미사강변노블레스 3층 322호","category":"일반휴게음식 - 일식·회집"},{"name":"FROMMINA (프롬미나)","tel":"050-5306-1472","addr":"경기도 하남시 망월동 1117번지 미사강변노블레스 104호,105호","category":"일반휴게음식 - 서양음식"},{"name":"SSO네일","tel":"031-528-6263","addr":"경기도 하남시 망월동 1117번지 미사강변노블레스 521호","category":"보건위생 - 피부미용실"},{"name":"경희대 석사 The 비채","tel":"032-792-9921","addr":"경기도 하남시 망월동 1117번지 미사강변노블레스 913동 917호","category":"학원 - 예·체능계학원"},{"name":"길벗정신건강의학과의원","tel":"031-795-5850","addr":"경기도 하남시 망월동 1117번지 6층 605,606,607호","category":"의원 - 의원"},{"name":"나래옷수선","tel":"031-795-0520","addr":"경기도 하남시 망월동 1117번지 미사강변노블레스 2층 20호","category":"수리서비스 - 세탁소"},{"name":"너구리굴 전자담배 하남 미사역점","tel":"","addr":"경기도 하남시 망월동 1117번지 미사강변노블레스 1층 116호","category":"기타 - 기타 전문점"},{"name":"네일에끌려","tel":"02-1111-1111","addr":"경기도 하남시 망월동 1117번지 미사강변노블레스 5층 504호","category":"보건위생 - 피부미용실"},{"name":"네일프레소","tel":"031-000-0000","addr":"경기도 하남시 망월동 1117번지 미사강변노블레스 321호","category":"보건위생 - 피부미용실"},{"name":"뉴톤보청기 미사센터","tel":"","addr":"경기도 하남시 망월동 1117번지 미사강변노블레스 506호, 507호","category":"보건위생 - 의료용품"},{"name":"리틀피아니스트 음악학원","tel":"031-793-0225","addr":"경기도 하남시 망월동 1117번지 미사강변 노블레스 9층 918~920호","category":"학원 - 예·체능계학원"},{"name":"마음속내과의원","tel":"031-8027-2137","addr":"경기도 하남시 망월동 1117번지 미사강변노블레스타워 614~620호","category":"의원 - 의원"},{"name":"미사강변호프치킨","tel":"031-792-7783","addr":"경기도 하남시 망월동 1117번지 2층 221,222호","category":"일반휴게음식 - 주점"},{"name":"미사드림의원","tel":"031-791-8588","addr":"경기도 하남시 망월동 1117번지 미사강변노블레스 5층 513호 ,514,515호","category":"의원 - 의원"},{"name":"미사마사지 릴렉스타임","tel":"031-796-6833","addr":"경기도 하남시 망월동 1117번지 미사강변노블레스 3층 305호,306호","category":"보건위생 - 피부미용실"},{"name":"미사역노블레스키즈엔리딩영어교습소","tel":"","addr":"경기도 하남시 망월동 1117번지 미사강변노블레스 902호","category":"학원 - 외국어학원"},{"name":"미사연세이비인후과","tel":"031-794-2460","addr":"경기도 하남시 망월동 1117번지 5층 508,509,510호","category":"의원 - 의원"},{"name":"미사중앙삼성영어탑매쓰수학학원","tel":"031-792-3305","addr":"경기도 하남시 망월동 1117번지 905호,906호,907호,910호","category":"학원 - 보습학원"},{"name":"미사태양한의원","tel":"031-793-7883","addr":"경기도 하남시 망월동 1117번지 미사강변노블레스 5층 519호","category":"의원 - 한의원"},{"name":"미사튼튼병원","tel":"031-795-7582","addr":"경기도 하남시 망월동 1117번지 미사강변노블레스","category":"병원 - 병원"},{"name":"반스타트헤어","tel":"031-795-7347","addr":"경기도 하남시 망월동 1117번지 미사강변노블레스 207호","category":"보건위생 - 미용원"},{"name":"샬롱드 시저스","tel":"031-793-8880","addr":"경기도 하남시 망월동 1117번지 망월동미사강변노블레스 2층 213호","category":"보건위생 - 미용원"},{"name":"설향기 헤어","tel":"031-796-0388","addr":"경기도 하남시 망월동 1117번지 미사강변노블레스 2층 219호","category":"보건위생 - 미용원"},{"name":"세븐일레븐미사노블레스점","tel":"031-1577-0711","addr":"경기도 하남시 망월동 1117번지 미사강변노블레스 1층 107호","category":"유통업 영리 - 편 의 점"},{"name":"수라상","tel":"031-793-6343","addr":"경기도 하남시 망월동 1117번지 미사강변노블레스 2층 208호","category":"일반휴게음식 - 일반한식"},{"name":"수학의기쁨교습소","tel":"031-795-5130","addr":"경기도 하남시 망월동 1117번지 미사강변노블레스 6층 622호","category":"학원 - 보습학원"},{"name":"아빠미소 소아청소년과 의원","tel":"031-8027-3993","addr":"경기도 하남시 망월동 1117번지 미사강변노블레스 413~415호","category":"의원 - 의원"},{"name":"아빠미소 소아청소년과의원","tel":"031-8027-3993","addr":"경기도 하남시 망월동 1117번지 413-415호","category":"건강식품 - 기타건강식품"},{"name":"아이미속눈썹연장","tel":"","addr":"경기도 하남시 망월동 1117번지 미사강변노블레스 10층 1002호","category":"보건위생 - 피부미용실"},{"name":"안심 행정사사무소","tel":"031-795-6292","addr":"경기도 하남시 망월동 1117번지 미사강변노블레스 10층 1022호","category":"용역 서비스 - 법률회계서비스(개인)"},{"name":"에그스포츠","tel":"031-8028-0920","addr":"경기도 하남시 망월동 1117번지 미사강변노블레스 401호","category":"레져용품 - 스포츠·레져용품"},{"name":"에츠헤어살롱","tel":"031-796-6399","addr":"경기도 하남시 망월동 1117번지 미사강변노블레스 311호","category":"보건위생 - 미용원"},{"name":"연세위더스치과의원","tel":"031-792-7070","addr":"경기도 하남시 망월동 1117번지 미사강변노블레스 404-1,405~407호","category":"의원 - 치과의원"},{"name":"연세이담치과의원","tel":"031-792-2275","addr":"경기도 하남시 망월동 1117번지 미사강변노블레스 607,609,610,611호","category":"의원 - 치과의원"},{"name":"영렘브란트 미술학원 (미사강변센터)","tel":"031-792-2627","addr":"경기도 하남시 망월동 1117번지 901,921,922,923,924호","category":"학원 - 예·체능계학원"},{"name":"올레 김밥","tel":"031-000-0000","addr":"경기도 하남시 망월동 1117번지 미사강변노블레스 103호","category":"일반휴게음식 - 일반한식"},{"name":"와이비엔 랩","tel":"02-1111-1111","addr":"경기도 하남시 망월동 1117번지 미사강변노블레스 1002호","category":"농업 - 농기계"},{"name":"웰치과의원","tel":"031-791-4003","addr":"경기도 하남시 망월동 1117번지 미사강변노블레스 516호 ,517,518호","category":"의원 - 치과의원"},{"name":"장태수한의원","tel":"031-792-1033","addr":"경기도 하남시 망월동 1117번지 미사강변노블레스 3층 307호","category":"의원 - 한의원"},{"name":"제너스PC 하남미사점","tel":"070-7471-7422","addr":"경기도 하남시 망월동 1117번지 미사강변노블레스 3층 314-318호","category":"레저업소 - 기타레져업소"},{"name":"졸리","tel":"","addr":"경기도 하남시 망월동 1117번지 미사강변노블레스 1층 119호","category":"일반휴게음식 - 서양음식"},{"name":"주식회사 큐브스튜디오","tel":"031-795-3580","addr":"경기도 하남시 망월동 1117번지 12층","category":"일반휴게음식 - 일반한식"},{"name":"최강수학(미사)학원","tel":"031-792-1123","addr":"경기도 하남시 망월동 1117번지 미사강변노블레스 909호","category":"학원 - 보습학원"},{"name":"코코블라인드 갤러리","tel":"","addr":"경기도 하남시 망월동 1117번지 미사강변노블레스 621호","category":"직물 - 카페트,커튼,천막,지물"},{"name":"클럽밸런스5 하남미사점","tel":"031-791-3093","addr":"경기도 하남시 망월동 1117번지 미사강변노블레스 10층 1015호","category":"건강식품 - 기타건강식품"},{"name":"튼튼동물의료센터","tel":"031-792-5277","addr":"경기도 하남시 망월동 1117번지 1층 114,115호","category":"기타의료기관 - 동물병원"},{"name":"하나약국","tel":"031-8027-9191","addr":"경기도 하남시 망월동 1117번지 1층 112,113호","category":"약국 - 약국"},{"name":"하남 동태탕","tel":"031-0000-0004","addr":"경기도 하남시 망월동 1117번지 미사강변노블레스 2층 201,222호","category":"일반휴게음식 - 일반한식"},{"name":"한나식빵미사역점","tel":"031-8027-2290","addr":"경기도 하남시 망월동 1117번지 미사강변노블레스 106호","category":"음료식품 - 제과점"}]},{"lat":"37.568813475","long":"127.1851775","items":[{"name":"1950할매손집밥","tel":"031-791-7676","addr":"경기도 하남시 망월동 976-2번지 디럭스프라자1 205호","category":"일반휴게음식 - 일반한식"},{"name":"Bee BAR (비바)","tel":"070-4210-5061","addr":"경기도 하남시 망월동 976-2번지 디럭스프라자1, 2층 201호","category":"일반휴게음식 - 일반한식"},{"name":"금탑(귀금속)","tel":"031-795-6780","addr":"경기도 하남시 망월동 976-2번지 디럭스프라자1 102호","category":"신변잡화 - 귀금속"},{"name":"뉴욕패션","tel":"031-791-0189","addr":"경기도 하남시 망월동 976-2번지 디럭스프라자1 1층 112호","category":"의류 - 정장"},{"name":"더스타핏","tel":"02-000-0000","addr":"경기도 하남시 망월동 976-2번지 4층 401,402,406,407호","category":"레저업소 - 헬스클럽"},{"name":"더스타핏 휘트니스","tel":"","addr":"경기도 하남시 망월동 976-2번지 403호~405호","category":"레저업소 - 헬스클럽"},{"name":"디플레이스 하남 미사점 독서실","tel":"031-000-0000","addr":"경기도 하남시 망월동 976-2번지 디럭스프라자 501,502,503호","category":"학원 - 독서실"},{"name":"떳다아이스크림할인점","tel":"031-000-0000","addr":"경기도 하남시 망월동 976-2번지 디럭스프라자1 105호","category":"음료식품 - 제과점"},{"name":"떴다아이스크림할인점","tel":"031-000-0000","addr":"경기도 하남시 망월동 976-2번지 디럭스프라자1 105호","category":"음료식품 - 기타음료식품"},{"name":"마카홍","tel":"","addr":"경기도 하남시 망월동 976-2번지 디럭스프라자1 2층 203호","category":"일반휴게음식 - 주점"},{"name":"메가커피 하남미사점","tel":"031-793-6611","addr":"경기도 하남시 망월동 976-2번지 디럭스프라자1 111호","category":"일반휴게음식 - 서양음식"},{"name":"미사소곱창","tel":"031-795-9280","addr":"경기도 하남시 망월동 976-2번지 디럭스프라자1 103호","category":"일반휴게음식 - 일반한식"},{"name":"선에스테스파","tel":"031-791-4483","addr":"경기도 하남시 망월동 976-2번지 디럭스프라자1 3층 305호","category":"보건위생 - 피부미용실"},{"name":"성악뮤지컬전문학원(제이콥스성악뮤지컬아","tel":"031-794-9654","addr":"경기도 하남시 망월동 976-2번지 디럭스프라자1 5층 506호, 507호","category":"학원 - 예·체능계학원"},{"name":"수혁수학교습소","tel":"","addr":"경기도 하남시 망월동 976-2번지 디럭스프라자1 307호","category":"학원 - 보습학원"},{"name":"아트앤하트 미술학원","tel":"","addr":"경기도 하남시 망월동 976-2번지 디럭스프라자1 306호","category":"학원 - 예·체능계학원"},{"name":"이티피엔에스 (ET PNS)","tel":"031-794-2615","addr":"경기도 하남시 망월동 976-2번지 디럭스프라자1 1층 110호","category":"신변잡화 - 기타잡화"},{"name":"제이 모바일","tel":"031-792-4011","addr":"경기도 하남시 망월동 976-2번지 디럭스프라자1 104호","category":"사무통신 - 통신기기"},{"name":"찬수학학원","tel":"031-794-4290","addr":"경기도 하남시 망월동 976-2번지 디럭스프라자1 5층 505호","category":"학원 - 보습학원"},{"name":"최선장생선구이","tel":"031-791-6007","addr":"경기도 하남시 망월동 976-2번지 디럭스프라자1 106,107호","category":"일반휴게음식 - 일반한식"},{"name":"토리헤어","tel":"031-792-6866","addr":"경기도 하남시 망월동 976-2번지 디럭스프라자1 303,304호","category":"보건위생 - 미용원"},{"name":"한센스네일","tel":"031-792-8208","addr":"경기도 하남시 망월동 976-2번지 디럭스프라자1 3층 302호","category":"보건위생 - 피부미용실"},{"name":"히든코인 노래연습장 미사점","tel":"","addr":"경기도 하남시 망월동 976-2번지 디럭스프라자1 1동 2층 204호","category":"레저업소 - 노 래 방"}]},{"lat":"37.569421981","long":"127.18200959","items":[{"name":"1977방서방 코다리한상","tel":"031-795-7995","addr":"경기도 하남시 망월동 1022-8번지 101호","category":"일반휴게음식 - 일반한식"}]},{"lat":"37.569985444","long":"127.18472759","items":[{"name":"247필라테스","tel":"031-794-2470","addr":"경기도 하남시 망월동 962-2번지 송하프라자 303호","category":"레저업소 - 헬스클럽"},{"name":"Born요가","tel":"031-441-3211","addr":"경기도 하남시 망월동 962-2번지 예스프라자포틴 4층 401호","category":"레저업소 - 헬스클럽"},{"name":"감성스터디카페 하남미사점","tel":"","addr":"경기도 하남시 망월동 962-2번지 예스프라자포틴 501호","category":"용역 서비스 - 사무서비스"},{"name":"강의하는아이들보습학원","tel":"031-792-9522","addr":"경기도 하남시 망월동 962-2번지 예스프라자포틴 405호","category":"학원 - 보습학원"},{"name":"고길동 푸르넷 아카데미 학원","tel":"031-796-6112","addr":"경기도 하남시 망월동 962-2번지 예스프라자포틴 4층 404호","category":"학원 - 보습학원"},{"name":"달성 영어학원","tel":"","addr":"경기도 하남시 망월동 962-2번지 예스프라자포틴 504호","category":"학원 - 외국어학원"},{"name":"대치수학전문학원","tel":"031-000-0000","addr":"경기도 하남시 망월동 962-2번지 예스프라자포틴 305호","category":"학원 - 보습학원"},{"name":"더램","tel":"031-794-1599","addr":"경기도 하남시 망월동 962-2번지 예스프라자포틴 2층 201호,202호","category":"일반휴게음식 - 일반한식"},{"name":"드림하이해법영어수학학원","tel":"031-792-0503","addr":"경기도 하남시 망월동 962-2번지 예스프라자포틴 503호","category":"학원 - 보습학원"},{"name":"랭귀지오딧어학원","tel":"031-791-0582","addr":"경기도 하남시 망월동 962-2번지 예스프라자포틴 601호","category":"학원 - 외국어학원"},{"name":"미래진학보습학원","tel":"031-7944-6253","addr":"경기도 하남시 망월동 962-2번지 예스프라자포틴 304호","category":"학원 - 보습학원"},{"name":"바디메이드","tel":"031-794-2330","addr":"경기도 하남시 망월동 962-2번지 701,702호","category":"레저업소 - 헬스클럽"},{"name":"바바헤어 미사강변점","tel":"031-794-0308","addr":"경기도 하남시 망월동 962-2번지 3층 301,302호","category":"보건위생 - 미용원"},{"name":"본필라테스","tel":"","addr":"경기도 하남시 망월동 962-2번지 4층 402,403호","category":"레저업소 - 헬스클럽"},{"name":"수학을보다 보습학원","tel":"070-8872-1126","addr":"경기도 하남시 망월동 962-2번지 예스프라자포틴 604호 603호,604호","category":"학원 - 보습학원"},{"name":"신소양강닭갈비","tel":"031-792-2045","addr":"경기도 하남시 망월동 962-2번지 예스프라자포틴 205호 204호, 205호","category":"일반휴게음식 - 일반한식"},{"name":"아이데코 미사강변점","tel":"031-792-8447","addr":"경기도 하남시 망월동 962-2번지 예스프라자 203호","category":"보건위생 - 안경"},{"name":"주식회사 백향목교육","tel":"031-792-2426","addr":"경기도 하남시 망월동 962-2번지 예스프라자포틴 3층","category":"학원 - 보습학원"},{"name":"주식회사디더블유유통","tel":"031-794-4402","addr":"경기도 하남시 망월동 962-2번지 1층","category":"유통업 영리 - 슈퍼마켓"},{"name":"하남소한마리","tel":"031-794-7989","addr":"경기도 하남시 망월동 962-2번지 예스프라자포틴 2층 205호","category":"일반휴게음식 - 일반한식"},{"name":"한예종음악학원","tel":"031-528-6263","addr":"경기도 하남시 망월동 962-2번지 예스프라자포틴 602호","category":"학원 - 예·체능계학원"},{"name":"해동검도 택견","tel":"031-792-6440","addr":"경기도 하남시 망월동 962-2번지 예스프라자포턴 502호","category":"학원 - 예·체능계학원"}]},{"lat":"37.561451173","long":"127.19172404","items":[{"name":"247필라테스 미사역점","tel":"","addr":"경기도 하남시 망월동 1111번지 신성프라자 410, 411, 412호","category":"레저업소 - 헬스클럽"},{"name":"GS25미사신성점","tel":"","addr":"경기도 하남시 망월동 1111번지 신성프라자I 1층 107호","category":"유통업 영리 - 편 의 점"},{"name":"다함께야구왕 미사신도시점","tel":"031-791-7277","addr":"경기도 하남시 망월동 1111번지 6층 601,602,603호","category":"레저업소 - 기타레져업소"},{"name":"덕인자산관리 (주)미사지점","tel":"031-111-1111","addr":"경기도 하남시 망월동 1111번지 지하1층","category":"자동차정비 유지 - 주차장"},{"name":"딘딘향","tel":"031-1234-1234","addr":"경기도 하남시 망월동 1111번지 1층 108,109호","category":"일반휴게음식 - 중국식"},{"name":"롤링팝 롤러스케이트","tel":"070-7576-4222","addr":"경기도 하남시 망월동 1111번지 신성프라자 403동 409호","category":"레저업소 - 기타레져업소"},{"name":"롤링팝카페","tel":"070-7576-4222","addr":"경기도 하남시 망월동 1111번지 신성프라자1 4층 402호","category":"일반휴게음식 - 서양음식"},{"name":"모두와","tel":"031-793-6667","addr":"경기도 하남시 망월동 1111번지 신성프라자 3층 306호","category":"일반휴게음식 - 일반한식"},{"name":"몬스터족발","tel":"031-000-0000","addr":"경기도 하남시 망월동 1111번지 신성프라자I 105호","category":"일반휴게음식 - 일반한식"},{"name":"미사힐링","tel":"031-792-3883","addr":"경기도 하남시 망월동 1111번지 10층","category":"음료식품 - 기타음료식품"},{"name":"미사힐링스파","tel":"","addr":"경기도 하남시 망월동 1111번지 신성프라자 10층 1001호일부","category":"음료식품 - 기타음료식품"},{"name":"미사힐링스파 불가마싸우나","tel":"","addr":"경기도 하남시 망월동 1111번지 신성프라자 1001호","category":"보건위생 - 기타대인서비스"},{"name":"미사힐링스파 스넥","tel":"","addr":"경기도 하남시 망월동 1111번지 9층","category":"음료식품 - 기타음료식품"},{"name":"미사힐링스파 치킨&호프","tel":"","addr":"경기도 하남시 망월동 1111번지 9층","category":"일반휴게음식 - 스넥"},{"name":"미사힐링스파사우나","tel":"070-2911-0793","addr":"경기도 하남시 망월동 1111번지 10층","category":"보건위생 - 기타대인서비스"},{"name":"미사힐링스파식당","tel":"","addr":"경기도 하남시 망월동 1111번지 9층","category":"일반휴게음식 - 일반한식"},{"name":"볼원볼링장","tel":"","addr":"경기도 하남시 망월동 1111번지 신성프라자 1102, 1103호","category":"레저업소 - 볼 링 장"},{"name":"볼원카페","tel":"","addr":"경기도 하남시 망월동 1111번지 신성프라자I 1101호","category":"일반휴게음식 - 서양음식"},{"name":"볼원프로샵","tel":"","addr":"경기도 하남시 망월동 1111번지 신성프라자 1103(일부)호","category":"레져용품 - 스포츠·레져용품"},{"name":"부자곱 미사역점","tel":"","addr":"경기도 하남시 망월동 1111번지 신성프라자 110, 111호","category":"일반휴게음식 - 일반한식"},{"name":"비스트로 운","tel":"","addr":"경기도 하남시 망월동 1111번지 신성프라자 207동 209호","category":"일반휴게음식 - 일반한식"},{"name":"샤브마니아","tel":"031-794-5581","addr":"경기도 하남시 망월동 1111번지 202,203호","category":"일반휴게음식 - 일반한식"},{"name":"수산시장 미사점","tel":"031-796-3006","addr":"경기도 하남시 망월동 1111번지 신성프라자 101호","category":"일반휴게음식 - 일반한식"},{"name":"시나본 미사점","tel":"","addr":"경기도 하남시 망월동 1111번지 신성프라자1 112호","category":"일반휴게음식 - 서양음식"},{"name":"아이비스PC하남미사점","tel":"","addr":"경기도 하남시 망월동 1111번지 신섬프라자1 6층 610,611,612호","category":"레저업소 - 기타레져업소"},{"name":"에이치스튜디오 멀티짐","tel":"031-795-1114","addr":"경기도 하남시 망월동 1111번지 신성프라자 503호","category":"레저업소 - 헬스클럽"},{"name":"엘리스넥스트도어호텔","tel":"031-796-1772","addr":"경기도 하남시 망월동 1111번지 신성프라자 8층 801호","category":"숙박업 - 여관/기타숙박업"},{"name":"오늘밤노가리","tel":"031-0000-0000","addr":"경기도 하남시 망월동 1111번지 신성프라자 1층 106호","category":"일반휴게음식 - 일반한식"},{"name":"이차돌 미사역점","tel":"031-795-8929","addr":"경기도 하남시 망월동 1111번지 1층 102,103,104호","category":"일반휴게음식 - 일반한식"},{"name":"케이팝스타 코인노래연습장","tel":"031-0000-0000","addr":"경기도 하남시 망월동 1111번지 6층608호609호","category":"레저업소 - 노 래 방"},{"name":"토리헤어","tel":"031-794-6766","addr":"경기도 하남시 망월동 1111번지 3층 308,309호","category":"보건위생 - 미용원"},{"name":"힐링헤어","tel":"031-6937-1560","addr":"경기도 하남시 망월동 1111번지 신성프라자 10층","category":"보건위생 - 미용원"}]},{"lat":"37.566645408","long":"127.18883953","items":[{"name":"24시 히메노라멘 미사점","tel":"","addr":"경기도 하남시 망월동 1079번지 우성르보아파크 122호","category":"일반휴게음식 - 일식·회집"},{"name":"365약국","tel":"031-794-0367","addr":"경기도 하남시 망월동 1079번지 미사우성르보아파크 1층 112호","category":"약국 - 약국"},{"name":"가또블랑제 미사본점","tel":"031-794-9588","addr":"경기도 하남시 망월동 1079번지 미사우성르보아파크 118호","category":"음료식품 - 제과점"},{"name":"김가네(미사중앙점)","tel":"031-795-5355","addr":"경기도 하남시 망월동 1079번지 우성르보아파크 1층 124호","category":"일반휴게음식 - 스넥"},{"name":"나인필라테스","tel":"031-791-6990","addr":"경기도 하남시 망월동 1079번지 우성브로아파크 307호","category":"레저업소 - 헬스클럽"},{"name":"네모오징어 미사강변점","tel":"031-793-5245","addr":"경기도 하남시 망월동 1079번지 우성르보아파크 127,128호","category":"일반휴게음식 - 일반한식"},{"name":"라무진","tel":"031-795-9092","addr":"경기도 하남시 망월동 1079번지 우성르부아파크 2층 207호","category":"일반휴게음식 - 일반한식"},{"name":"라쥬뷰티","tel":"","addr":"경기도 하남시 망월동 1079번지 우성르보아파크 4층 402호","category":"보건위생 - 피부미용실"},{"name":"말뚝곱창","tel":"","addr":"경기도 하남시 망월동 1079번지 우성르보아파크 1층 121호","category":"일반휴게음식 - 일반한식"},{"name":"모던헤어","tel":"031-794-2107","addr":"경기도 하남시 망월동 1079번지 우성르보아파크 2층 205-1호","category":"보건위생 - 미용원"},{"name":"미사플러스치과","tel":"031-791-2876","addr":"경기도 하남시 망월동 1079번지 우성르보아파크 303호,304호","category":"의원 - 치과의원"},{"name":"블랙앤쿡(BLACK&COOK)미사점","tel":"031-529-9875","addr":"경기도 하남시 망월동 1079번지 우성르보아파크 1층 131호","category":"일반휴게음식 - 일반한식"},{"name":"샤이안스포츠","tel":"","addr":"경기도 하남시 망월동 1079번지 우성르보아파크 924호","category":"의류 - 단체복"},{"name":"서울365소아청소년과의원","tel":"031-8028-7600","addr":"경기도 하남시 망월동 1079번지 미사우성르보아파크 4층 407,408,409호","category":"의원 - 의원"},{"name":"서울아산바른의원","tel":"031-8027-9001","addr":"경기도 하남시 망월동 1079번지 미사우성르보아파크 3층 301,302호","category":"의원 - 의원"},{"name":"쉐프엠 미사강변점/주식회사 엠디에스코리","tel":"031-792-5514","addr":"경기도 하남시 망월동 1079번지 미사우성르보아파크 1층 117호","category":"음료식품 - 기타음료식품"},{"name":"얌앤꼬 모바일","tel":"031-796-7932","addr":"경기도 하남시 망월동 1079번지 우성르보아파크 1층 111호","category":"사무통신 - 통신기기"},{"name":"오늘밤 노가리","tel":"031-791-0538","addr":"경기도 하남시 망월동 1079번지 우성르보아파크 123호","category":"일반휴게음식 - 일반한식"},{"name":"오징어시대","tel":"031-795-3647","addr":"경기도 하남시 망월동 1079번지 우성르보아파크 125호,126호","category":"일반휴게음식 - 일반한식"},{"name":"이마트24 미사아리수로점","tel":"","addr":"경기도 하남시 망월동 1079번지 우성르보아파크 1층 109,110호","category":"유통업 영리 - 편 의 점"},{"name":"이바돔감자탕 하남미사점","tel":"031-791-2252","addr":"경기도 하남시 망월동 1079번지 우성르보아파크 201-1,201,202,203,204호","category":"일반휴게음식 - 일반한식"},{"name":"주인의 주방","tel":"031-792-0874","addr":"경기도 하남시 망월동 1079번지 우성르보아파크 1층 120호","category":"일반휴게음식 - 일식·회집"},{"name":"짚신매운갈비찜 미사강변점","tel":"031-796-9233","addr":"경기도 하남시 망월동 1079번지 우성르보아파크 1층 102,103호","category":"일반휴게음식 - 일반한식"},{"name":"크린에이드 미사점","tel":"031-795-2410","addr":"경기도 하남시 망월동 1079번지 우성르보아파크 129호","category":"수리서비스 - 세탁소"},{"name":"파주 닭국수 하남미사점","tel":"031-796-1311","addr":"경기도 하남시 망월동 1079번지 우성르보아파크 130호","category":"일반휴게음식 - 일반한식"},{"name":"하나샤브샤브 미사리점","tel":"031-796-6877","addr":"경기도 하남시 망월동 1079번지 미사우성르보아파크 211호","category":"일반휴게음식 - 일반한식"},{"name":"홍콩반점 미사강변중앙점","tel":"031-795-0410","addr":"경기도 하남시 망월동 1079번지 미사우성르보아파크 214호","category":"일반휴게음식 - 중국식"},{"name":"회식가","tel":"031-791-1833","addr":"경기도 하남시 망월동 1079번지 우성르보아파크 1층 101호","category":"일반휴게음식 - 일식·회집"}]},{"lat":"37.563319601","long":"127.19520349","items":[{"name":"365플러스 치과의원","tel":"031-791-2870","addr":"경기도 하남시 망월동 1129-4번지 에코타워 405,406호","category":"의원 - 치과의원"},{"name":"365플러스내과의원","tel":"031-796-8288","addr":"경기도 하남시 망월동 1129-4번지 에코타워 4층 401~404,407호","category":"의원 - 의원"},{"name":"감성스터디카페 미사역중앙점","tel":"","addr":"경기도 하남시 망월동 1129-4번지 에코타워 7층 707호","category":"용역 서비스 - 사무서비스"},{"name":"더 필라테스 랩","tel":"","addr":"경기도 하남시 망월동 1129-4번지 에코타워 9층 901호","category":"레저업소 - 헬스클럽"},{"name":"박승철헤어스투디오 하남미사역점","tel":"031-793-3529","addr":"경기도 하남시 망월동 1129-4번지 에코타워 2층 203호","category":"보건위생 - 미용원"},{"name":"쁘띠몽드 스위밍 아카데미","tel":"031-791-0818","addr":"경기도 하남시 망월동 1129-4번지 에코타워 9층 902-906호","category":"레저업소 - 수 영 장"},{"name":"아이알다언어심리상담센터","tel":"031-796-1238","addr":"경기도 하남시 망월동 1129-4번지 에코타워 304호","category":"보건위생 - 기타대인서비스"},{"name":"정다운약국","tel":"031-791-4032","addr":"경기도 하남시 망월동 1129-4번지 에코타워 1층 108호","category":"약국 - 약국"},{"name":"제이민 정신건강의학과의원","tel":"031-794-1889","addr":"경기도 하남시 망월동 1129-4번지 미사에코타워 미사지구중상15블럭 5로트 502호","category":"의원 - 의원"},{"name":"책먹는미술관미술학원","tel":"","addr":"경기도 하남시 망월동 1129-4번지 에코타워 908호","category":"학원 - 예·체능계학원"},{"name":"피플미술학원","tel":"031-794-4048","addr":"경기도 하남시 망월동 1129-4번지 에코타워 503호","category":"학원 - 예·체능계학원"},{"name":"핏걸미사가로수길점","tel":"","addr":"경기도 하남시 망월동 1129-4번지 에코타워 7층 701,702호","category":"레저업소 - 헬스클럽"}]},{"lat":"37.570593476","long":"127.18186524","items":[{"name":"60계 미사점","tel":"031-795-6082","addr":"경기도 하남시 망월동 1015-4번지 101호","category":"일반휴게음식 - 스넥"},{"name":"기호네 곱창 미사점","tel":"031-792-6287","addr":"경기도 하남시 망월동 1015-4번지 1층 102호","category":"일반휴게음식 - 일반한식"},{"name":"본네일","tel":"031-793-9955","addr":"경기도 하남시 망월동 1015-4번지 103호","category":"보건위생 - 피부미용실"}]},{"lat":"37.562429305","long":"127.19417125","items":[{"name":"6월","tel":"","addr":"경기도 하남시 망월동 1132번지 퀸즈파크미사1차 116호","category":"일반휴게음식 - 서양음식"},{"name":"GS25미사퀸즈파크2점","tel":"","addr":"경기도 하남시 망월동 1132번지 미사퀸즈파크 120호","category":"유통업 영리 - 편 의 점"},{"name":"GS25미사퀸즈파크점","tel":"","addr":"경기도 하남시 망월동 1132번지 퀸즈파크미사1차 101호","category":"유통업 영리 - 편 의 점"},{"name":"나도쿡(NA DO COOK)","tel":"031-8028-8233","addr":"경기도 하남시 망월동 1132번지 퀸즈파크 107,108호","category":"음료식품 - 기타음료식품"},{"name":"매쓰클리닉","tel":"02-4679-4519","addr":"경기도 하남시 망월동 1132번지 퀸즈파크미사1차 3103동 1302호","category":"학원 - 기타 교육기관"},{"name":"아드망헤어","tel":"031-8082-8566","addr":"경기도 하남시 망월동 1132번지 2층 216,217호","category":"보건위생 - 미용원"},{"name":"여주한식부페","tel":"031-8028-8700","addr":"경기도 하남시 망월동 1132번지 2층 234호~237호","category":"일반휴게음식 - 일반한식"},{"name":"퀴즈노스","tel":"070-8716-5180","addr":"경기도 하남시 망월동 1132번지 퀸즈파크미사1차 1층 115호","category":"일반휴게음식 - 서양음식"},{"name":"퀸즈파크세탁","tel":"031-8028-8383","addr":"경기도 하남시 망월동 1132번지 퀸즈파크미사1차 212호","category":"수리서비스 - 세탁소"},{"name":"한아름","tel":"","addr":"경기도 하남시 망월동 1132번지 퀸즈파크미사1차 308호","category":"문화.취미 - 애완동물"}]},{"lat":"37.569789867","long":"127.18300657","items":[{"name":"988 다이닝 펍","tel":"070-4142-1471","addr":"경기도 하남시 망월동 988-5번지 101호","category":"일반휴게음식 - 일반한식"},{"name":"미삼회관","tel":"031-795-9671","addr":"경기도 하남시 망월동 988-5번지 1층 102호","category":"일반휴게음식 - 일반한식"}]},{"lat":"37.570846418","long":"127.18142439","items":[{"name":"ANNE Skin (앤스킨)","tel":"031-791-2413","addr":"경기도 하남시 망월동 1015-8번지 1층 103호","category":"보건위생 - 피부미용실"},{"name":"남자피자 미사점","tel":"031-794-5571","addr":"경기도 하남시 망월동 1015-8번지","category":"일반휴게음식 - 서양음식"},{"name":"해피하남미사점","tel":"070-4649-1101","addr":"경기도 하남시 망월동 1015-8번지 1층 101호","category":"보건위생 - 미용원"}]},{"lat":"37.570089887","long":"127.18123015","items":[{"name":"Awesome","tel":"031-792-1018","addr":"경기도 하남시 망월동 1018번지","category":"일반휴게음식 - 서양음식"}]},{"lat":"37.577260894","long":"127.1932809","items":[{"name":"A모터","tel":"031-792-0339","addr":"경기도 하남시 망월동 320-2","category":"자동차정비 유지 - 자동차부품"}]},{"lat":"37.56070486","long":"127.19078277","items":[{"name":"B.B Baking house(비비베이킹하우스)","tel":"","addr":"경기도 하남시 망월동 1104-2번지 리버테라스 202-1호","category":"음료식품 - 제과점"},{"name":"건강한밥상","tel":"031-795-8813","addr":"경기도 하남시 망월동 1104-2번지 2층 201-1호망월동","category":"일반휴게음식 - 일반한식"},{"name":"곰방대라운지","tel":"031-791-6890","addr":"경기도 하남시 망월동 1104-2번지 리버테라스 1층 109호","category":"기타 - 기타 전문점"},{"name":"별빛개냥","tel":"031-8027-0025","addr":"경기도 하남시 망월동 1104-2번지 112,113호","category":"일반휴게음식 - 서양음식"},{"name":"오니보","tel":"031-123-4567","addr":"경기도 하남시 망월동 1104-2번지 2층 204-2호","category":"문화.취미 - 화원"},{"name":"주식회사 코지마경기총판","tel":"031-908-6001","addr":"경기도 하남시 망월동 1104-2번지 리버테라스 205-1,205-2,206-1호","category":"가구 - 기타가구"},{"name":"주식회사엠케이엘","tel":"031-795-1517","addr":"경기도 하남시 망월동 1104-2번지 리버테라스 1층 110호","category":"레져용품 - 스포츠·레져용품"},{"name":"지코바 미사1호점","tel":"","addr":"경기도 하남시 망월동 1104-2번지 리버테라스 103호","category":"일반휴게음식 - 스넥"},{"name":"참맛깔곱창","tel":"031-791-9600","addr":"경기도 하남시 망월동 1104-2번지 리버테라스 1층 107호","category":"일반휴게음식 - 일반한식"},{"name":"청아대하구이","tel":"","addr":"경기도 하남시 망월동 1104-2번지 리버테라스 1층 115호","category":"일반휴게음식 - 일반한식"}]},{"lat":"37.568562021","long":"127.18464489","items":[{"name":"BBQ하남미사점","tel":"031-795-9285","addr":"경기도 하남시 망월동 968-1번지 미사센트럴프라자 1층 120호","category":"일반휴게음식 - 스넥"},{"name":"J헤어","tel":"031-791-9948","addr":"경기도 하남시 망월동 968-1번지 2층 211,212호","category":"보건위생 - 미용원"},{"name":"PK어린이 수영장","tel":"031-794-3883","addr":"경기도 하남시 망월동 968-1번지 미사센트럴프라자 701~705호","category":"레저업소 - 수 영 장"},{"name":"boil(보일)","tel":"031-792-8055","addr":"경기도 하남시 망월동 968-1번지 미사센트럴프라자 1층 115호","category":"일반휴게음식 - 일반한식"},{"name":"강변미사점 첸첸","tel":"031-796-6796","addr":"경기도 하남시 망월동 968-1번지 208호,209호","category":"일반휴게음식 - 중국식"},{"name":"김가네 미사1호점","tel":"031-791-1203","addr":"경기도 하남시 망월동 968-1번지 미사센트럴프라자 1층 105호","category":"일반휴게음식 - 일반한식"},{"name":"꼬마마녀 매직슬라임 카페","tel":"031-1111-1111","addr":"경기도 하남시 망월동 968-1번지 미사센트럴프라자 407호","category":"일반휴게음식 - 서양음식"},{"name":"담주 온누리 약국","tel":"031-796-2515","addr":"경기도 하남시 망월동 968-1번지 미사센트럴프라자 108호","category":"약국 - 약국"},{"name":"담주온누리약국","tel":"031-791-1230","addr":"경기도 하남시 망월동 968-1번지 미사센트럴프라자 108호","category":"약국 - 약국"},{"name":"라임 필라테스","tel":"031-792-8355","addr":"경기도 하남시 망월동 968-1번지 401호 402호","category":"레저업소 - 헬스클럽"},{"name":"라임 필라테스 미사점","tel":"031-0792-8355","addr":"경기도 하남시 망월동 968-1번지 미사센트럴프라자","category":"레저업소 - 헬스클럽"},{"name":"로웰피아노학원","tel":"031-796-7817","addr":"경기도 하남시 망월동 968-1번지 미사센트럴프라자 602호","category":"학원 - 예·체능계학원"},{"name":"마스터학원","tel":"031-792-5548","addr":"경기도 하남시 망월동 968-1번지 미사센트럴프라자 5층 505호","category":"학원 - 보습학원"},{"name":"멘토0819학원","tel":"031-794-0819","addr":"경기도 하남시 망월동 968-1번지 미사센트럴프라자 607,608호","category":"학원 - 보습학원"},{"name":"미사센트럴치과","tel":"031-791-0202","addr":"경기도 하남시 망월동 968-1번지 미사센트럴프라자 303호","category":"의원 - 치과의원"},{"name":"미사센트럴프라자관리단","tel":"031-793-8898","addr":"경기도 하남시 망월동 968-1번지 미사센트럴프라자","category":"자동차정비 유지 - 주차장"},{"name":"미사아산내과","tel":"031-793-2373","addr":"경기도 하남시 망월동 968-1번지 미사센트럴프라자 504호","category":"의원 - 의원"},{"name":"미사에듀학원","tel":"031-795-1031","addr":"경기도 하남시 망월동 968-1번지 미사센트럴프라자 6층 609호","category":"학원 - 기타 교육기관"},{"name":"바른그림","tel":"031-794-2070","addr":"경기도 하남시 망월동 968-1번지 미사센트럴프라자 6층 604호","category":"학원 - 예·체능계학원"},{"name":"박준영논리속독학원","tel":"031-794-2153","addr":"경기도 하남시 망월동 968-1번지 미사센트럴프라자","category":"학원 - 기타 교육기관"},{"name":"보드레떡","tel":"031-796-6248","addr":"경기도 하남시 망월동 968-1번지 미사센트럴프라자 1층 121호","category":"음료식품 - 제과점"},{"name":"블루클럽","tel":"031-792-7668","addr":"경기도 하남시 망월동 968-1번지 미사센트럴프라자 104호","category":"보건위생 - 이용원"},{"name":"사골먹은 감자탕","tel":"031-796-1538","addr":"경기도 하남시 망월동 968-1번지 미사센트럴프라자 1층 117호","category":"일반휴게음식 - 일반한식"},{"name":"삼성바른치과","tel":"031-792-2808","addr":"경기도 하남시 망월동 968-1번지 미사센트럴프라자 306,307호","category":"의원 - 치과의원"},{"name":"세븐일레븐미사센트럴프라자점","tel":"031-1577-0711","addr":"경기도 하남시 망월동 968-1번지 미사센트럴프라자 1층 106호","category":"유통업 영리 - 편 의 점"},{"name":"스시노백쉐프 하남미사점","tel":"031-796-5801","addr":"경기도 하남시 망월동 968-1번지 미사센트럴프라자 201호","category":"일반휴게음식 - 일반한식"},{"name":"시매쓰미사학원","tel":"031-795-3699","addr":"경기도 하남시 망월동 968-1번지 미사센트럴프라자 404호","category":"학원 - 보습학원"},{"name":"시카고 어학원","tel":"031-793-0209","addr":"경기도 하남시 망월동 968-1번지 미사센트럴프라자 5층 503호","category":"학원 - 외국어학원"},{"name":"신의주 순대와 쭈꾸미","tel":"031-792-5077","addr":"경기도 하남시 망월동 968-1번지 미사센트럴프라자 210호","category":"일반휴게음식 - 일반한식"},{"name":"아이누리한의원","tel":"031-791-1088","addr":"경기도 하남시 망월동 968-1번지 미사센트럴프라자 501호","category":"의원 - 한의원"},{"name":"알파해법수학","tel":"031-791-4448","addr":"경기도 하남시 망월동 968-1번지 미사센트럴프라자 5층 509호","category":"학원 - 보습학원"},{"name":"에이린무용학원","tel":"031-793-3308","addr":"경기도 하남시 망월동 968-1번지 미사센트럴프라자 603호","category":"학원 - 예·체능계학원"},{"name":"열린음악센터학원","tel":"070-6253-3253","addr":"경기도 하남시 망월동 968-1번지 미사센트럴프라자 4층 403호","category":"학원 - 예·체능계학원"},{"name":"용인대태권도쏭","tel":"031-794-1331","addr":"경기도 하남시 망월동 968-1번지 미사센트럴프라자 7층 708-709호","category":"학원 - 예·체능계학원"},{"name":"이계선성악아카데미학원","tel":"031-744-8488","addr":"경기도 하남시 망월동 968-1번지 미사센트럴프라자 601호","category":"학원 - 예·체능계학원"},{"name":"이두부야","tel":"","addr":"경기도 하남시 망월동 968-1번지 미사센트럴프라자 110호","category":"음료식품 - 기타음료식품"},{"name":"이루다수학교습소","tel":"031-795-1235","addr":"경기도 하남시 망월동 968-1번지 미사센트럴프라자 610호","category":"학원 - 보습학원"},{"name":"인포레(Infore)","tel":"","addr":"경기도 하남시 망월동 968-1번지 미사센트럴프라자 1층 116호","category":"일반휴게음식 - 서양음식"},{"name":"잉글리시에그 하남미사센터","tel":"031-796-2406","addr":"경기도 하남시 망월동 968-1번지 미사센트럴프라자 4층 406호","category":"서적문구 - 일반서적"},{"name":"전주콩각시콩나물국밥","tel":"031-794-2438","addr":"경기도 하남시 망월동 968-1번지 122, 123호","category":"일반휴게음식 - 일반한식"},{"name":"제이제이음악학원","tel":"031-796-3330","addr":"경기도 하남시 망월동 968-1번지 미사센트럴프라자 5층","category":"학원 - 예·체능계학원"},{"name":"종근당건강 헬스벨스토리 미사강변점","tel":"031-794-5325","addr":"경기도 하남시 망월동 968-1번지 미사센트럴프라자 1층 118호","category":"건강식품 - 기타건강식품"},{"name":"초록마을 미사강변점","tel":"031-793-6285","addr":"경기도 하남시 망월동 968-1번지 미사센트럴프라자 112호","category":"유통업 영리 - 슈퍼마켓"},{"name":"캣툰","tel":"070-7775-4554","addr":"경기도 하남시 망월동 968-1번지 미사센트럴프라자 4층 407호","category":"레저업소 - 기타레져업소"},{"name":"키즈스피치마루지웅변학원","tel":"070-4411-4204","addr":"경기도 하남시 망월동 968-1번지 미사센트럴프라자 405호","category":"학원 - 기타 교육기관"},{"name":"토즈멤버십라운지 미사센터","tel":"031-792-3789","addr":"경기도 하남시 망월동 968-1번지 미사센트럴프라자","category":"용역 서비스 - 사무서비스"},{"name":"토즈스터디센터 미사독서실","tel":"031-792-3789","addr":"경기도 하남시 망월동 968-1번지 미사센트럴프라자 308,309,310호","category":"학원 - 독서실"},{"name":"파크뷰의원","tel":"031-791-2255","addr":"경기도 하남시 망월동 968-1번지 미사센트럴프라자 301동 303호","category":"의원 - 의원"},{"name":"파파존스미사점","tel":"031-791-8081","addr":"경기도 하남시 망월동 968-1번지 미사센트럴프라자 207호","category":"일반휴게음식 - 서양음식"},{"name":"프라임FC","tel":"031-794-4010","addr":"경기도 하남시 망월동 968-1번지 미사센트럴프라자 705동 707호","category":"학원 - 예·체능계학원"},{"name":"하남미사 리아한의원","tel":"031-8028-4975","addr":"경기도 하남시 망월동 968-1번지 미사센트럴프라자 3층 304호","category":"의원 - 한의원"},{"name":"한나식빵 미사점","tel":"070-8282-0908","addr":"경기도 하남시 망월동 968-1번지 미사센트럴프라자 1층 103호","category":"음료식품 - 제과점"}]},{"lat":"37.569810755","long":"127.18111629","items":[{"name":"BY THE CREEK(바이 더 크릭)","tel":"031-794-1942","addr":"경기도 하남시 망월동 1022-2번지 1층","category":"일반휴게음식 - 일반한식"}]},{"lat":"37.570620127","long":"127.18211433","items":[{"name":"C300(씨삼백)","tel":"031-9038-3669","addr":"경기도 하남시 망월동 1010-5번지 1층 102호","category":"음료식품 - 제과점"},{"name":"헤어스토리","tel":"032-612-1414","addr":"경기도 하남시 망월동 1010-5번지 1층","category":"보건위생 - 미용원"}]},{"lat":"37.575011287","long":"127.19150924","items":[{"name":"Ciel(씨엘)","tel":"031-528-6263","addr":"경기도 하남시 망월동 872-5번지 102호","category":"의류 - 정장"},{"name":"폼나는 수선","tel":"031-8028-0009","addr":"경기도 하남시 망월동 872-5번지 1층 103호","category":"수리서비스 - 세탁소"}]},{"lat":"37.569285578","long":"127.18283557","items":[{"name":"Claire fleur (끌레르플루)","tel":"031-000-0000","addr":"경기도 하남시 망월동 1004-2번지 1층 101호","category":"일반휴게음식 - 서양음식"},{"name":"요거스토리","tel":"","addr":"경기도 하남시 망월동 1004-2번지 1층 101호","category":"일반휴게음식 - 서양음식"},{"name":"초이스뷰티","tel":"","addr":"경기도 하남시 망월동 1004-2번지 103호","category":"보건위생 - 피부미용실"}]},{"lat":"37.568952954","long":"127.19383703","items":[{"name":"ENTER BIKE(엔터바이크)","tel":"031-795-8118","addr":"경기도 하남시 망월동 924-3번지 102호","category":"레져용품 - 스포츠·레져용품"},{"name":"멜로니아","tel":"031-528-6263","addr":"경기도 하남시 망월동 924-3번지","category":"자동차정비 유지 - 자동차부품"}]},{"lat":"37.565035415","long":"127.18120678","items":[{"name":"E·T스포츠","tel":"","addr":"경기도 하남시 망월동 1044번지 미사강변도시17단지 1706동 2102호","category":"학원 - 기타 교육기관"},{"name":"GS25미사17단지점","tel":"","addr":"경기도 하남시 망월동 1044번지 제2상가동 103,104","category":"유통업 영리 - 편 의 점"},{"name":"건강 life","tel":"031-528-6263","addr":"경기도 하남시 망월동 1044번지 미사강변도시17단지 204호","category":"건강식품 - 기타건강식품"},{"name":"고일체육관","tel":"031-795-4447","addr":"경기도 하남시 망월동 1044번지 미사강변도시17단지 2층 201호 ,202호","category":"학원 - 예·체능계학원"},{"name":"도르가","tel":"070-2699-0807","addr":"경기도 하남시 망월동 1044번지 미사강변도시17단지 1703동 909호","category":"의류 - 내의판매"},{"name":"모던패션","tel":"","addr":"경기도 하남시 망월동 1044번지 미사강변도시17단지 1710동 1209호","category":"의류 - 정장"},{"name":"모두티비","tel":"","addr":"경기도 하남시 망월동 1044번지 미사강변도시17단지 1706동 108호","category":"용역 서비스 - 기타용역서비스"},{"name":"바른약국","tel":"031-792-2996","addr":"경기도 하남시 망월동 1044번지 미사강변도시17단지 203호","category":"약국 - 약국"},{"name":"보물창고","tel":"070-7018-5392","addr":"경기도 하남시 망월동 1044번지 미사강변도시17단지 1704동 1406호","category":"전기제품 - 가전제품"},{"name":"서울아산나은의원","tel":"031-792-8278","addr":"경기도 하남시 망월동 1044번지 미사강변도시17단지 1동 204호","category":"의원 - 의원"},{"name":"세민수산(미사점)","tel":"031-795-1119","addr":"경기도 하남시 망월동 1044번지 미사강변도시17단지 상가 2동 102호","category":"음료식품 - 농·축·수산품"},{"name":"씨유미사본점","tel":"031-898-6567","addr":"경기도 하남시 망월동 1044번지 1상가 101호(미사 17단지)","category":"유통업 영리 - 편 의 점"},{"name":"아름다운 사람들","tel":"","addr":"경기도 하남시 망월동 1044번지 미사강변도시17단지 1709동 1503호","category":"의류 - 내의판매"},{"name":"얼음천국","tel":"","addr":"경기도 하남시 망월동 1044번지 미사강변도시17단지 1707동 606호","category":"유통업 영리 - 기타유통업"},{"name":"제니 다비치","tel":"070-2699-0807","addr":"경기도 하남시 망월동 1044번지 미사강변도시17단지 1706동 1409호","category":"의류 - 내의판매"},{"name":"준영정보","tel":"","addr":"경기도 하남시 망월동 1044번지 미사강변도시17단지 1706동 2306호","category":"사무통신 - 컴퓨터"},{"name":"찰 토마토","tel":"031-000-0000","addr":"경기도 하남시 망월동 1044번지 미사강변도시17단지 1702동 110호","category":"음료식품 - 농·축·수산품"},{"name":"캐리앤캐리","tel":"","addr":"경기도 하남시 망월동 1044번지 미사강변도시17단지 1708동 1907호","category":"신변잡화 - 가방"},{"name":"폭스달","tel":"031-793-6322","addr":"경기도 하남시 망월동 1044번지 미사강변도시17단지 1710동 1307호","category":"의류 - 정장"},{"name":"홈마트","tel":"031-793-4901","addr":"경기도 하남시 망월동 1044번지 1,02호,103호,104호","category":"유통업 영리 - 슈퍼마켓"}]},{"lat":"37.569678763","long":"127.18495323","items":[{"name":"FTC태권도","tel":"031-792-4492","addr":"경기도 하남시 망월동 970-1번지 미사원프라자 502호","category":"학원 - 예·체능계학원"},{"name":"ST(에스티)학원","tel":"031-8027-2746","addr":"경기도 하남시 망월동 970-1번지 미사원프라자 4층 407호","category":"학원 - 보습학원"},{"name":"구산인성한의원","tel":"031-795-1575","addr":"경기도 하남시 망월동 970-1번지 미사원프라자 305호","category":"의원 - 한의원"},{"name":"국수나무미사강변점","tel":"031-792-6003","addr":"경기도 하남시 망월동 970-1번지 미사원프라자 1층 105호","category":"일반휴게음식 - 스넥"},{"name":"국어로이루다보습학원","tel":"031-699-0187","addr":"경기도 하남시 망월동 970-1번지 미사원프라자 4층 402호","category":"학원 - 보습학원"},{"name":"더불어","tel":"031-790-8560","addr":"경기도 하남시 망월동 970-1번지 미사원프라자 109호","category":"일반휴게음식 - 일반한식"},{"name":"던킨도너츠 하남미사점","tel":"031-792-7339","addr":"경기도 하남시 망월동 970-1번지 1층 113,114호","category":"음료식품 - 제과점"},{"name":"미사 성민 정형외과의원","tel":"031-793-6224","addr":"경기도 하남시 망월동 970-1번지 2층","category":"의원 - 의원"},{"name":"미사강변삼성영어학원","tel":"031-796-3353","addr":"경기도 하남시 망월동 970-1번지 미사원프라자 4층 403호","category":"학원 - 외국어학원"},{"name":"미사온누리약국","tel":"031-794-2270","addr":"경기도 하남시 망월동 970-1번지 미사원프라자 106호","category":"약국 - 약국"},{"name":"미사원프라자관리단","tel":"031-791-7086","addr":"경기도 하남시 망월동 970-1번지 미사원프라자","category":"자동차정비 유지 - 주차장"},{"name":"미사이비인후과의원","tel":"031-791-2158","addr":"경기도 하남시 망월동 970-1번지 미사원프라자 405호","category":"의원 - 의원"},{"name":"미사제1지엠에이(GMA)개념원리수학학원","tel":"031-792-5630","addr":"경기도 하남시 망월동 970-1번지 미사원프라자 406호","category":"학원 - 보습학원"},{"name":"미사한돈한우정육","tel":"031-796-9228","addr":"경기도 하남시 망월동 970-1번지 미사원프라자 201호","category":"음료식품 - 정육점"},{"name":"미사한돈한우정육식당","tel":"031-796-9228","addr":"경기도 하남시 망월동 970-1번지 미사원프라자 201호","category":"일반휴게음식 - 일반한식"},{"name":"서울힐치과의원","tel":"031-792-2872","addr":"경기도 하남시 망월동 970-1번지 미사원프라자 304호","category":"의원 - 치과의원"},{"name":"신바람떡볶이","tel":"031-111-1111","addr":"경기도 하남시 망월동 970-1번지 미사원프라자 1층 111호","category":"일반휴게음식 - 일반한식"},{"name":"씨유미사원프라자점","tel":"031-898-6567","addr":"경기도 하남시 망월동 970-1번지 미사원프라자 112호","category":"유통업 영리 - 편 의 점"},{"name":"연세365소아청소년과의원","tel":"031-796-3650","addr":"경기도 하남시 망월동 970-1번지 미사원프라자 3층 302호","category":"의원 - 의원"},{"name":"오투네일(O2네일)","tel":"031-793-7973","addr":"경기도 하남시 망월동 970-1번지 미사원프라자 1층 115호","category":"보건위생 - 미용원"},{"name":"올가네일","tel":"031-793-3345","addr":"경기도 하남시 망월동 970-1번지 미사원프라자 303호","category":"보건위생 - 피부미용실"},{"name":"올가뷰티","tel":"031-793-3345","addr":"경기도 하남시 망월동 970-1번지 미사원프라자 303호","category":"보건위생 - 피부미용실"},{"name":"이디야 미사강변도시점","tel":"070-7691-5181","addr":"경기도 하남시 망월동 970-1번지 미사원프라자 1층 103호","category":"일반휴게음식 - 서양음식"},{"name":"이엠씨보습학원","tel":"031-791-1253","addr":"경기도 하남시 망월동 970-1번지 미사원프라자 5층 504호","category":"학원 - 보습학원"},{"name":"이유나 음악학원","tel":"031-792-0792","addr":"경기도 하남시 망월동 970-1번지 미사원프라자 408호","category":"학원 - 예·체능계학원"},{"name":"주식회사 민선","tel":"031-795-1575","addr":"경기도 하남시 망월동 970-1번지 미사원프라자 305호","category":"건강식품 - 기타건강식품"},{"name":"지혜로운눈교육보습학원","tel":"031-795-7651","addr":"경기도 하남시 망월동 970-1번지 미사원프라자 5층 3호","category":"학원 - 보습학원"},{"name":"청진동 해장국(미사점)","tel":"031-795-0888","addr":"경기도 하남시 망월동 970-1번지","category":"일반휴게음식 - 일반한식"},{"name":"치앤강 하남미사점","tel":"","addr":"경기도 하남시 망월동 970-1번지 미사원프라자 1층 107호","category":"일반휴게음식 - 스넥"},{"name":"카츠젠 미사점","tel":"031-795-1110","addr":"경기도 하남시 망월동 970-1번지 미사원프라자 1층 110호","category":"일반휴게음식 - 서양음식"},{"name":"킹당구장","tel":"070-7788-5179","addr":"경기도 하남시 망월동 970-1번지 미사원프라자 301호","category":"레저업소 - 당 구 장"},{"name":"하나로축산","tel":"031-223-5214","addr":"경기도 하남시 망월동 970-1번지 미사원프라자 101호","category":"음료식품 - 정육점"},{"name":"헤어살롱121미사점","tel":"031-794-8121","addr":"경기도 하남시 망월동 970-1번지 미사원프라자 202호","category":"보건위생 - 미용원"},{"name":"호림합기도","tel":"031-792-4492","addr":"경기도 하남시 망월동 970-1번지 미사원프라자 502호","category":"학원 - 예·체능계학원"},{"name":"홍대쌀국수 미사강변점","tel":"","addr":"경기도 하남시 망월동 970-1번지 미사원프라자 1층 102호","category":"일반휴게음식 - 서양음식"}]},{"lat":"37.57068018","long":"127.18986831","items":[{"name":"GS25미사14단지점","tel":"","addr":"경기도 하남시 망월동 907번지 제2상가동 103호","category":"유통업 영리 - 편 의 점"},{"name":"씨유미사빅점","tel":"080-080-3663","addr":"경기도 하남시 망월동 907번지 미사강변도시14단지 1층 105호","category":"유통업 영리 - 편 의 점"}]},{"lat":"37.560951231","long":"127.18300793","items":[{"name":"GS25미사18단지점","tel":"","addr":"경기도 하남시 망월동 1050번지 제1상가동 102호","category":"유통업 영리 - 편 의 점"},{"name":"나무약국","tel":"031-796-7566","addr":"경기도 하남시 망월동 1050번지 미사강변도시18단지상가 1동 2층 203호","category":"약국 - 약국"},{"name":"써니음악원교습소","tel":"031-772-0650","addr":"경기도 하남시 망월동 1050번지 미사강변도시18단지 203호","category":"학원 - 예·체능계학원"},{"name":"씨유미사18단지점","tel":"031-791-2446","addr":"경기도 하남시 망월동 1050번지 미사18단지 2상가 102호","category":"유통업 영리 - 편 의 점"},{"name":"조민서 펌&컷","tel":"031-796-5488","addr":"경기도 하남시 망월동 1050번지 미사강변도시18단지 201호","category":"보건위생 - 미용원"},{"name":"진리수학","tel":"031-792-7225","addr":"경기도 하남시 망월동 1050번지 미사강변도시18단지 1811동 2003호","category":"학원 - 기타 교육기관"}]},{"lat":"37.575145782","long":"127.1919171","items":[{"name":"GS25미사강변점","tel":"","addr":"경기도 하남시 망월동 874-1번지","category":"유통업 영리 - 편 의 점"},{"name":"위드미미사강변점","tel":"02-6916-1500","addr":"경기도 하남시 망월동 874-1번지","category":"유통업 영리 - 편 의 점"}]},{"lat":"37.565952136","long":"127.1885322","items":[{"name":"GS25미사레이크힐점","tel":"","addr":"경기도 하남시 망월동 1077-2번지 레이크힐 101호","category":"유통업 영리 - 편 의 점"},{"name":"뉴욕야시장(미사강변점)","tel":"031-792-7474","addr":"경기도 하남시 망월동 1077-2번지 레이크힐 2층 204호","category":"일반휴게음식 - 서양음식"},{"name":"달빛맥주 하남미사점","tel":"031-795-4442","addr":"경기도 하남시 망월동 1077-2번지 레이크힐 1층 102호","category":"일반휴게음식 - 주점"},{"name":"더리터","tel":"031-791-0522","addr":"경기도 하남시 망월동 1077-2번지 레이크힐 1층 104호","category":"일반휴게음식 - 서양음식"},{"name":"메가엠지씨커피 미사중앙점","tel":"031-791-7751","addr":"경기도 하남시 망월동 1077-2번지 레이크힐 1층 106호","category":"일반휴게음식 - 서양음식"},{"name":"미술관 하남미사점","tel":"031-793-0294","addr":"경기도 하남시 망월동 1077-2번지 레이크힐 111호 112호","category":"일반휴게음식 - 일반한식"},{"name":"슈팅스타","tel":"031-791-0966","addr":"경기도 하남시 망월동 1077-2번지 1층 107,108호","category":"일반휴게음식 - 일반한식"},{"name":"스토리카페","tel":"031-792-1254","addr":"경기도 하남시 망월동 1077-2번지 레이크힐 3층 304호","category":"일반휴게음식 - 서양음식"},{"name":"스튜디오306(STUDIO 306)","tel":"031-796-0306","addr":"경기도 하남시 망월동 1077-2번지 레이크힐 1동 306층","category":"광학제품 - 사진관"},{"name":"시골여행","tel":"031-791-5838","addr":"경기도 하남시 망월동 1077-2번지 레이크힐 205호","category":"일반휴게음식 - 일반한식"},{"name":"역전우동0410 미사강변중앙점","tel":"031-796-0410","addr":"경기도 하남시 망월동 1077-2번지 레이크힐 1층 103호","category":"일반휴게음식 - 스넥"},{"name":"캔디독","tel":"","addr":"경기도 하남시 망월동 1077-2번지 레이크힐 1동 305호","category":"일반휴게음식 - 서양음식"},{"name":"파스타 트리(PAsta Tree)","tel":"031-794-9879","addr":"경기도 하남시 망월동 1077-2번지 레이크힐 1층 110호","category":"일반휴게음식 - 서양음식"},{"name":"한돈한우생고기마을","tel":"031-791-9238","addr":"경기도 하남시 망월동 1077-2번지 레이크힐 2층 201,202호","category":"일반휴게음식 - 일반한식"},{"name":"혼다라멘 미사중앙점","tel":"031-792-8276","addr":"경기도 하남시 망월동 1077-2번지 레이크힐 1층 105호","category":"일반휴게음식 - 일식·회집"}]},{"lat":"37.565895216","long":"127.19034306","items":[{"name":"GS25미사성산타워점","tel":"","addr":"경기도 하남시 망월동 1089번지 성산타워플러스 112호","category":"유통업 영리 - 편 의 점"},{"name":"Moonstar 휘트니스(미사점)","tel":"031-699-3454","addr":"경기도 하남시 망월동 1089번지 성산타워플러스 10층 1001호","category":"레져용품 - 스포츠·레져용품"},{"name":"강변아틀리에","tel":"032-508-8855","addr":"경기도 하남시 망월동 1089번지 성산타워플러스 603호","category":"광학제품 - 사진관"},{"name":"놀고먹소","tel":"070-7543-4770","addr":"경기도 하남시 망월동 1089번지 2층205-1,206","category":"일반휴게음식 - 일반한식"},{"name":"다올세무회계","tel":"031-8026-9277","addr":"경기도 하남시 망월동 1089번지 성산타워플러스 401호","category":"용역 서비스 - 법률회계서비스(개인)"},{"name":"리듬앤유","tel":"02-793-7888","addr":"경기도 하남시 망월동 1089번지 성산타워플러스 904호","category":"학원 - 예·체능계학원"},{"name":"맘스터치 미사역점","tel":"031-794-6969","addr":"경기도 하남시 망월동 1089번지 성산타워플러스 104,105호","category":"일반휴게음식 - 서양음식"},{"name":"미사세탁","tel":"031-793-9999","addr":"경기도 하남시 망월동 1089번지 성산타워플러스 1층 114호","category":"수리서비스 - 세탁소"},{"name":"바365","tel":"031-795-7728","addr":"경기도 하남시 망월동 1089번지 성산타워플러스 6층 604호","category":"일반휴게음식 - 주점"},{"name":"백운양꼬치","tel":"031-795-9989","addr":"경기도 하남시 망월동 1089번지 성산타워플러스 2층 204호","category":"일반휴게음식 - 일반한식"},{"name":"시크릿쥬쥬&또봇프리미엄키즈카페 미사점","tel":"","addr":"경기도 하남시 망월동 1089번지 803-805호","category":"일반휴게음식 - 서양음식"},{"name":"어거스토Agosto20","tel":"031-000-0000","addr":"경기도 하남시 망월동 1089번지 성산타워플러스 301호","category":"일반휴게음식 - 서양음식"},{"name":"옵티머스당구클럽","tel":"031-8004-7050","addr":"경기도 하남시 망월동 1089번지 성산타워플러스 9층 901,902,903호","category":"레저업소 - 당 구 장"},{"name":"용범이네인계동껍데기미사점","tel":"","addr":"경기도 하남시 망월동 1089번지 1층 102호 103호","category":"일반휴게음식 - 일반한식"},{"name":"육쌈냉면 미사점","tel":"031-795-6392","addr":"경기도 하남시 망월동 1089번지 성산타워플러스 2층 205호","category":"일반휴게음식 - 일반한식"},{"name":"점핑파크 미사점","tel":"031-793-7799","addr":"경기도 하남시 망월동 1089번지 성산타워플러스 7층","category":"레저업소 - 기타레져업소"},{"name":"주식회사 바디케어필라테스미사","tel":"031-796-4471","addr":"경기도 하남시 망월동 1089번지 성산타워플러스 5층 505호","category":"레저업소 - 헬스클럽"},{"name":"추억의미사리 카페","tel":"031-795-7728","addr":"경기도 하남시 망월동 1089번지 성산타워플러스 6층 605호","category":"일반휴게음식 - 주점"},{"name":"피에프코리아","tel":"031-795-4520","addr":"경기도 하남시 망월동 1089번지 성산타워플러스 4층 404호","category":"보건위생 - 화장품"},{"name":"함소아 한의원","tel":"031-794-1130","addr":"경기도 하남시 망월동 1089번지 성산타워플러스 4층 405-1호","category":"의원 - 한의원"},{"name":"호오탕 훠꿔","tel":"031-793-8638","addr":"경기도 하남시 망월동 1089번지 성산타워플러스 304호","category":"일반휴게음식 - 중국식"},{"name":"휴&미사","tel":"031-796-7967","addr":"경기도 하남시 망월동 1089번지 성산플러스 9층 905호","category":"보건위생 - 기타대인서비스"}]},{"lat":"37.561425859","long":"127.19064876","items":[{"name":"GS25미사수변공원점","tel":"","addr":"경기도 하남시 망월동 1104번지 강변신성프라자 101호","category":"유통업 영리 - 편 의 점"},{"name":"공릉동 원조 멸치국수","tel":"031-111-1111","addr":"경기도 하남시 망월동 1104번지 강변신성프라자 1층 107호","category":"일반휴게음식 - 일반한식"},{"name":"동림건설(주)","tel":"031-793-7570","addr":"경기도 하남시 망월동 1104번지 강변신성프라자 302호","category":"자동차정비 유지 - 주차장"},{"name":"리자카야","tel":"","addr":"경기도 하남시 망월동 1104번지 강변신성프라자 1층 111호","category":"일반휴게음식 - 일반한식"},{"name":"비엔나 커피 하우스","tel":"031-795-2552","addr":"경기도 하남시 망월동 1104번지 신성프라자 2 1층 102호112호","category":"일반휴게음식 - 서양음식"},{"name":"오향밀면 미사점","tel":"031-793-6748","addr":"경기도 하남시 망월동 1104번지 강변신성프라자 1동 109호","category":"일반휴게음식 - 일반한식"},{"name":"용대리김밥","tel":"031-796-0281","addr":"경기도 하남시 망월동 1104번지 강변신성프라자 1층 107호","category":"일반휴게음식 - 일반한식"},{"name":"차오차오 미사점","tel":"031-796-3382","addr":"경기도 하남시 망월동 1104번지 강변신성프라자 2층 204호","category":"일반휴게음식 - 중국식"},{"name":"행복한 낙지","tel":"031-796-0281","addr":"경기도 하남시 망월동 1104번지 신성프라자 3층 301호","category":"일반휴게음식 - 일반한식"},{"name":"호수신의주토종순대국","tel":"031-796-9388","addr":"경기도 하남시 망월동 1104번지 201,202호","category":"일반휴게음식 - 일반한식"}]},{"lat":"37.573983776","long":"127.19175568","items":[{"name":"GS25미사한신점","tel":"","addr":"경기도 하남시 망월동 904번지 미사강변한신휴플러스 상가동 104호","category":"유통업 영리 - 편 의 점"},{"name":"꿈자람어린이집[아이행복]","tel":"","addr":"경기도 하남시 망월동 904번지 A11블럭미사강변도시11단지관리동","category":"학원 - 유아원"},{"name":"맘스쏘잉","tel":"070-7137-7780","addr":"경기도 하남시 망월동 904번지 미사강변한신휴플러스 1101동 4층 3호","category":"직물 - 침구·수예점"},{"name":"명성특수유리","tel":"031-795-9842","addr":"경기도 하남시 망월동 904번지 미사강변한신휴플러스 1109동 1001호","category":"용역 서비스 - 기타용역서비스"},{"name":"미사아이자람어린이집[아이행복]","tel":"031-8028-8002","addr":"경기도 하남시 망월동 904번지 미사강변한신휴플러스 1109동 104호","category":"학원 - 유아원"},{"name":"미사태권도","tel":"031-795-8485","addr":"경기도 하남시 망월동 904번지 미사강변도시11단지 상가 202호","category":"학원 - 예·체능계학원"},{"name":"베이비캐슬어린이집[아이행복]","tel":"031-794-2202","addr":"경기도 하남시 망월동 904번지 미사강변한신휴플러스 1107동 102층","category":"학원 - 유아원"},{"name":"예랑어린이집[아이행복]","tel":"031-794-9982","addr":"경기도 하남시 망월동 904번지 미사강변도시 207동 105호","category":"학원 - 유아원"},{"name":"카앤피플 강동구2","tel":"","addr":"경기도 하남시 망월동 904번지 미사강변한신휴플러스 1102동 904호","category":"자동차정비 유지 - 세차장"},{"name":"한땀컴퍼니","tel":"031-000-0008","addr":"경기도 하남시 망월동 904번지 미사강변한신휴플러스 1109동 1904호","category":"신변잡화 - 제화"}]},{"lat":"37.571950529","long":"127.17814432","items":[{"name":"GS25미사한일점","tel":"","addr":"경기도 하남시 망월동 464-1번지 하남미사강변도시 A2BL 105호","category":"유통업 영리 - 편 의 점"}]},{"lat":"37.56673309","long":"127.19036779","items":[{"name":"GS25미사해링턴점","tel":"","addr":"경기도 하남시 망월동 1081번지 미사역효성해링턴타워더퍼스트 1층 1081호","category":"유통업 영리 - 편 의 점"},{"name":"GS25미사효성해링턴점","tel":"","addr":"경기도 하남시 망월동 1081번지 미사역효성해링턴타워더퍼스트 1층 1037호","category":"유통업 영리 - 편 의 점"},{"name":"공작","tel":"031-793-1211","addr":"경기도 하남시 망월동 1081번지 미사역 효성해링턴타워 더 퍼스트 2045호","category":"보건위생 - 화장품"},{"name":"광어왕자오징어공주","tel":"","addr":"경기도 하남시 망월동 1081번지 미사역효성해링턴타워더퍼스트 1층 1021호","category":"음료식품 - 기타음료식품"},{"name":"국민학교","tel":"","addr":"경기도 하남시 망월동 1081번지 미사역효성해링턴타워더퍼스트 1층 1016호","category":"일반휴게음식 - 일반한식"},{"name":"기분전환헤어샵","tel":"031-794-4199","addr":"경기도 하남시 망월동 1081번지 미사역효성해링턴타워더퍼스트 2058호","category":"보건위생 - 미용원"},{"name":"더 멜로우 라이프(THE MELLOW LIFE)","tel":"031-0000-0000","addr":"경기도 하남시 망월동 1081번지 미사역효성해링턴타워더퍼스트 101동 25층 01호","category":"문화.취미 - 문화취미기타"},{"name":"만선식당","tel":"","addr":"경기도 하남시 망월동 1081번지 미사역효성해링턴타워더퍼스트 1층 1023호","category":"일반휴게음식 - 일반한식"},{"name":"모토서프 코리아 (MOTO SURF KOREA)","tel":"","addr":"경기도 하남시 망월동 1081번지 미사역효성해링턴타워더퍼스트 102동 1714호","category":"레져용품 - 스포츠·레져용품"},{"name":"미가수산","tel":"","addr":"경기도 하남시 망월동 1081번지 미사역효성해링턴타워더퍼스트 1층 1022호","category":"일반휴게음식 - 일반한식"},{"name":"미사무에타이구심캠프","tel":"031-759-9877","addr":"경기도 하남시 망월동 1081번지 미사역효성해링턴타워더퍼스트 3층 3011호","category":"레저업소 - 헬스클럽"},{"name":"미사왁싱","tel":"","addr":"경기도 하남시 망월동 1081번지 미사역효성해링턴타워더퍼스트 2층 2023호","category":"보건위생 - 피부미용실"},{"name":"미카도스시 미사강변점","tel":"070-1111-1111","addr":"경기도 하남시 망월동 1081번지 1층 1085호,1086호","category":"일반휴게음식 - 일식·회집"},{"name":"박지영내과의원","tel":"","addr":"경기도 하남시 망월동 1081번지 3001,3002호","category":"의원 - 의원"},{"name":"별을품은곱창 미사점","tel":"070-9175-0610","addr":"경기도 하남시 망월동 1081번지 미사역효성해링턴타워더퍼스트 1층 1024호","category":"일반휴게음식 - 일반한식"},{"name":"보드람치킨 미사강변점","tel":"031-792-2932","addr":"경기도 하남시 망월동 1081번지 미사역효성해링턴타워더퍼스트 1층 1025호","category":"일반휴게음식 - 스넥"},{"name":"보탬(BOTAIME)","tel":"031-791-3736","addr":"경기도 하남시 망월동 1081번지 미사역효성해링턴타워더퍼스트 1층 1058호","category":"의류 - 정장"},{"name":"빵긋 행복공작소","tel":"","addr":"경기도 하남시 망월동 1081번지 효성해링턴 1067호 상가","category":"음료식품 - 제과점"},{"name":"살롱 드 바비","tel":"031-795-9915","addr":"경기도 하남시 망월동 1081번지 미사역효성해밀턴타워 더 퍼스트 2056호","category":"보건위생 - 화장품"},{"name":"샤인 요가 앤 핏","tel":"","addr":"경기도 하남시 망월동 1081번지 미사역 효성해링턴타워 더퍼스트 3층 3012,3013호","category":"레저업소 - 헬스클럽"},{"name":"숲에스테틱","tel":"02-1111-1111","addr":"경기도 하남시 망월동 1081번지 미사역효성해링턴타워더퍼스트 2층 2054호","category":"보건위생 - 피부미용실"},{"name":"신데렐라","tel":"031-794-5123","addr":"경기도 하남시 망월동 1081번지 미사역효성해링턴타워더퍼스트 2046호","category":"수리서비스 - 세탁소"},{"name":"악마의 과일(DEVILS FRUIT)","tel":"031-796-9149","addr":"경기도 하남시 망월동 1081번지 미사역효성해링턴타워더퍼스트 상가 1층 1017호","category":"음료식품 - 농·축·수산품"},{"name":"어울림연기뮤지컬아카데미교습소","tel":"","addr":"경기도 하남시 망월동 1081번지 효성해링턴타워 2073호","category":"학원 - 예·체능계학원"},{"name":"얼반스킨 미사점","tel":"02-417-1171","addr":"경기도 하남시 망월동 1081번지 미사역효성해리언타워더퍼스트 2층 2042호","category":"보건위생 - 피부미용실"},{"name":"에머이 하남미사역점","tel":"02-1111-1111","addr":"경기도 하남시 망월동 1081번지 미사역효성해링턴타워더퍼스트 2층 2059호","category":"일반휴게음식 - 서양음식"},{"name":"에이치수네일(H.SooNail)","tel":"02-4646-1646","addr":"경기도 하남시 망월동 1081번지 미사역효성해링턴타워더퍼스트 2층 2043호","category":"보건위생 - 피부미용실"},{"name":"에이플러스치과의원","tel":"031-792-7528","addr":"경기도 하남시 망월동 1081번지 미사역효성해링턴타워더퍼스트 2003~2005호","category":"의원 - 치과의원"},{"name":"엣지필라테스(EdgE Pilates)","tel":"070-9004-9587","addr":"경기도 하남시 망월동 1081번지 미사역효성해링턴타워더퍼스트 102동 23층 2318호","category":"레저업소 - 헬스클럽"},{"name":"연우랑한복","tel":"031-791-7720","addr":"경기도 하남시 망월동 1081번지 미사역효성해링턴타워더퍼스트 2층 2044호","category":"의류 - 맞춤복점"},{"name":"오 유니통닭","tel":"031-793-8316","addr":"경기도 하남시 망월동 1081번지 미사역효성해령턴타워더퍼스트 1층 1026호","category":"일반휴게음식 - 일반한식"},{"name":"오빛헤어다뉴브점","tel":"031-791-5560","addr":"경기도 하남시 망월동 1081번지 미사역효성해링턴타워 더 퍼스트 1층 1069,1070호","category":"보건위생 - 미용원"},{"name":"오시오 상회","tel":"070-4149-2222","addr":"경기도 하남시 망월동 1081번지 미사역효성해링턴타워더퍼스트 1층 1018호","category":"일반휴게음식 - 주점"},{"name":"이거시 통닭이닭","tel":"031-795-7282","addr":"경기도 하남시 망월동 1081번지 미사역효성해링턴타워더퍼스트 1층 1020호","category":"일반휴게음식 - 일반한식"},{"name":"제이에이치(JH)하오란","tel":"031-792-9283","addr":"경기도 하남시 망월동 1081번지 미사역효성해링턴타워더퍼스트 2층 2061호","category":"일반휴게음식 - 중국식"},{"name":"제이힐필라테스스튜디오(J HEAL PILATES ST","tel":"","addr":"경기도 하남시 망월동 1081번지 미사역효성해링턴타워더퍼스트 2층 2002호","category":"레저업소 - 헬스클럽"},{"name":"제일의류","tel":"031-796-2554","addr":"경기도 하남시 망월동 1081번지 미사역효성해링턴타워더퍼스트 101동 2915호","category":"의류 - 정장"},{"name":"쥬씨&차얌 하남호수공원점","tel":"02-000-0000","addr":"경기도 하남시 망월동 1081번지 미사역효성해링턴타워더퍼스트 1층 1010호","category":"일반휴게음식 - 서양음식"},{"name":"지니약국","tel":"031-795-2506","addr":"경기도 하남시 망월동 1081번지 한스에비뉴 1068호","category":"약국 - 약국"},{"name":"찬다르크 망월점","tel":"031-793-3689","addr":"경기도 하남시 망월동 1081번지 마시역 효성해링턴타워 더 퍼스트 1층 1073,1074호","category":"음료식품 - 기타음료식품"},{"name":"초콜릿","tel":"","addr":"경기도 하남시 망월동 1081번지 1층 1115호 하남미사택지개발사업지구 2BL","category":"의류 - 정장"},{"name":"쿠로","tel":"","addr":"경기도 하남시 망월동 1081번지 미사역효성해링턴타워더퍼스트 1052호","category":"일반휴게음식 - 일식·회집"},{"name":"티드루(TDLU)","tel":"","addr":"경기도 하남시 망월동 1081번지 미사역효성해링턴타워더퍼스트 1113호","category":"일반휴게음식 - 서양음식"},{"name":"풍촌코다리네","tel":"031-796-0772","addr":"경기도 하남시 망월동 1081번지 1062,1063호","category":"일반휴게음식 - 일반한식"},{"name":"하비어클락","tel":"031-792-7740","addr":"경기도 하남시 망월동 1081번지 미사역효성해링턴타워더퍼스트 1층 1111호","category":"문화.취미 - 문화취미기타"},{"name":"하와유(HowRU)","tel":"031-000-0000","addr":"경기도 하남시 망월동 1081번지 미사역효성해링턴타워더퍼스트 101동 916호","category":"문화.취미 - 문화취미기타"},{"name":"한스케익 미사강변점","tel":"","addr":"경기도 하남시 망월동 1081번지 미사역효성해링턴타워더퍼스트 1층 1084호","category":"일반휴게음식 - 서양음식"},{"name":"홍춘천치즈닭갈비","tel":"031-792-3579","addr":"경기도 하남시 망월동 1081번지 미사역효성해링턴타워더퍼스트 2층 2006호","category":"일반휴게음식 - 일반한식"},{"name":"흑화당","tel":"","addr":"경기도 하남시 망월동 1081번지 미사역효성해링턴타워더퍼스트 1층 1008호","category":"일반휴게음식 - 서양음식"}]},{"lat":"37.565839933","long":"127.19111259","items":[{"name":"GS25미시강변시티점","tel":"","addr":"경기도 하남시 망월동 1093-1번지 미사푸르지오시티 106호","category":"유통업 영리 - 편 의 점"},{"name":"RITA NAIL SALON (리타 네일 살롱)","tel":"","addr":"경기도 하남시 망월동 1093-1번지 미사푸르지오시티 A동 3층 320호","category":"보건위생 - 피부미용실"},{"name":"디에이치오프닝","tel":"","addr":"경기도 하남시 망월동 1093-1번지 미사푸르지오시티 ,A동 3층 319호","category":"일반휴게음식 - 스넥"},{"name":"뚱뎅이감자탕","tel":"031-795-0605","addr":"경기도 하남시 망월동 1093-1번지 미사푸르지오시티 A동 2층 S202호","category":"일반휴게음식 - 일반한식"},{"name":"미사당구클럽","tel":"","addr":"경기도 하남시 망월동 1093-1번지 에이동 3층 301호,303호","category":"레저업소 - 당 구 장"},{"name":"예쁜걸 김재은 헤어콜렉션","tel":"031-796-5007","addr":"경기도 하남시 망월동 1093-1번지 미사푸르지오시티 A동 2층 S-204호","category":"보건위생 - 미용원"},{"name":"와이에스에스 컴퍼니(YSS COMPANY)","tel":"031-791-1493","addr":"경기도 하남시 망월동 1093-1번지 미사푸르지오시티 916호","category":"문화.취미 - 민예·공예품"},{"name":"주식회사 원스","tel":"031-794-5123","addr":"경기도 하남시 망월동 1093-1번지 미사푸르지오시티 A동 1430호","category":"수리서비스 - 세탁소"},{"name":"죽 이야기 미사역점","tel":"031-794-6233","addr":"경기도 하남시 망월동 1093-1번지 미사푸르지오시티 A동 1층 111호","category":"일반휴게음식 - 일반한식"},{"name":"큰맘할매순대국 미사역점","tel":"031-792-5955","addr":"경기도 하남시 망월동 1093-1번지 미사푸르지오시티 1층 108호","category":"일반휴게음식 - 일반한식"},{"name":"탐앤탐스 미사강변점","tel":"031-792-4565","addr":"경기도 하남시 망월동 1093-1번지 미사푸르지오시티 A동 101,102,201,202호","category":"일반휴게음식 - 서양음식"}]},{"lat":"37.564895001","long":"127.19601116","items":[{"name":"GS25하남호반점","tel":"","addr":"경기도 하남시 망월동 1127번지 미사강변 호반 써밋 201동 1층 179호","category":"유통업 영리 - 편 의 점"},{"name":"가마치통닭 (하남미사역점)","tel":"031-699-8070","addr":"경기도 하남시 망월동 1127번지 미사강변호반써밋 1동 1층 195호","category":"일반휴게음식 - 스넥"},{"name":"시립미사호반어린이집[아이행복]","tel":"031-792-1558","addr":"경기도 하남시 망월동 1127번지 미사강변호반써밋 관리동","category":"학원 - 유아원"},{"name":"일조수산","tel":"031-792-4052","addr":"경기도 하남시 망월동 1127번지 1층 1-168호","category":"일반휴게음식 - 일식·회집"}]},{"lat":"37.576346338","long":"127.19050509","items":[{"name":"GT GLASS(지티글라스)","tel":"031-793-6282","addr":"경기도 하남시 망월동 853-2번지 103호","category":"자동차정비 유지 - 자동차부품"}]},{"lat":"37.573734637","long":"127.18978539","items":[{"name":"GUEL(구엘)","tel":"","addr":"경기도 하남시 망월동 897-4번지 3호","category":"신변잡화 - 기타잡화"}]},{"lat":"37.574618917","long":"127.18894991","items":[{"name":"Guardian Fit (가디언핏)","tel":"031-000-0000","addr":"경기도 하남시 망월동 878번지 301호","category":"레저업소 - 헬스클럽"}]},{"lat":"37.568789557","long":"127.18315131","items":[{"name":"H 부띠끄","tel":"031-000-0000","addr":"경기도 하남시 망월동 1002-5번지 103호","category":"의류 - 정장"},{"name":"H&D","tel":"031-791-3380","addr":"경기도 하남시 망월동 1002-5번지 1층 102호","category":"직물 - 카페트,커튼,천막,지물"}]},{"lat":"37.568095128","long":"127.18359108","items":[{"name":"Individual(인디비주얼)","tel":"031-795-3504","addr":"경기도 하남시 망월동 1000-4번지 1층","category":"일반휴게음식 - 서양음식"}]},{"lat":"37.574985863","long":"127.19050168","items":[{"name":"J(제이)헤어#","tel":"031-794-3664","addr":"경기도 하남시 망월동 843-10번지 1층","category":"보건위생 - 미용원"},{"name":"매워도 가고픈 떡볶이","tel":"031-794-0703","addr":"경기도 하남시 망월동 843-10번지 1층 103호","category":"일반휴게음식 - 스넥"},{"name":"블랙빈(BLACK BEAN)","tel":"031-793-0079","addr":"경기도 하남시 망월동 843-10번지","category":"일반휴게음식 - 서양음식"}]},{"lat":"37.560984199","long":"127.19076084","items":[{"name":"KIM'S KITCHEN","tel":"031-796-8683","addr":"경기도 하남시 망월동 1104-1번지 미사파크뷰 118호","category":"일반휴게음식 - 서양음식"},{"name":"누왓","tel":"","addr":"경기도 하남시 망월동 1104-1번지 미사파크뷰 304,305,306호","category":"보건위생 - 화장품"},{"name":"더맨#남성컷트전문점","tel":"031-792-2259","addr":"경기도 하남시 망월동 1104-1번지 미사파크뷰 105호","category":"보건위생 - 미용원"},{"name":"동방푸드","tel":"","addr":"경기도 하남시 망월동 1104-1번지 동양파라곤 현장식당","category":"일반휴게음식 - 일반한식"},{"name":"땡기네곱창","tel":"031-793-3647","addr":"경기도 하남시 망월동 1104-1번지 미사파크뷰 116호","category":"일반휴게음식 - 일반한식"},{"name":"레드175 미사지구","tel":"031-793-1750","addr":"경기도 하남시 망월동 1104-1번지 미사파크뷰 102호","category":"일반휴게음식 - 스넥"},{"name":"비에치씨 미사역점","tel":"031-794-9233","addr":"경기도 하남시 망월동 1104-1번지 파크뷰프라자 1층 1호 120호","category":"일반휴게음식 - 스넥"},{"name":"아틀리에 릴리(atelier lily)","tel":"","addr":"경기도 하남시 망월동 1104-1번지 미사파크뷰 1층 108호","category":"문화.취미 - 화원"},{"name":"이디야 미사수변공원점","tel":"031-794-4442","addr":"경기도 하남시 망월동 1104-1번지 미사파크뷰 106호","category":"일반휴게음식 - 서양음식"},{"name":"치킨플러스 하남미사점","tel":"","addr":"경기도 하남시 망월동 1104-1번지 미사파크뷰 1층 111호","category":"일반휴게음식 - 스넥"},{"name":"황금덕장","tel":"031-791-7234","addr":"경기도 하남시 망월동 1104-1번지 201,202호","category":"일반휴게음식 - 일반한식"},{"name":"황금웰빙플러스","tel":"031-795-7911","addr":"경기도 하남시 망월동 1104-1번지 미사파크뷰 1층 113호","category":"건강식품 - 기타건강식품"}]},{"lat":"37.575339574","long":"127.18903095","items":[{"name":"M BEER(엠 비어)","tel":"031-792-0043","addr":"경기도 하남시 망월동 843번지","category":"일반휴게음식 - 주점"},{"name":"어쏨","tel":"031-795-3395","addr":"경기도 하남시 망월동 843번지","category":"일반휴게음식 - 일반한식"}]},{"lat":"37.574979611","long":"127.18875837","items":[{"name":"MI4텔레콤","tel":"031-792-0980","addr":"경기도 하남시 망월동 868-2번지 1층 101호","category":"사무통신 - 통신기기"},{"name":"피피유피피(PPUPP)","tel":"","addr":"경기도 하남시 망월동 868-2번지 1층 102호","category":"의류 - 정장"}]},{"lat":"37.575149833","long":"127.18937008","items":[{"name":"MR.촌돼지","tel":"031-793-1202","addr":"경기도 하남시 망월동 843-17번지 1층 101호","category":"일반휴게음식 - 일반한식"}]},{"lat":"37.569093127","long":"127.1849518","items":[{"name":"MS당구클럽","tel":"031-000-0000","addr":"경기도 하남시 망월동 972-1번지 상아프라자 501 ,502호","category":"레저업소 - 당 구 장"},{"name":"공차","tel":"","addr":"경기도 하남시 망월동 972-1번지 상아프라자 104,105호","category":"일반휴게음식 - 서양음식"},{"name":"라쎈느","tel":"031-111-1111","addr":"경기도 하남시 망월동 972-1번지 상아프라자 106호","category":"의류 - 정장"},{"name":"맵스벅","tel":"","addr":"경기도 하남시 망월동 972-1번지 상아프라자 4층 405호","category":"일반휴게음식 - 스넥"},{"name":"미사강변사진관","tel":"","addr":"경기도 하남시 망월동 972-1번지 상아프라자 303호","category":"광학제품 - 사진관"},{"name":"미사노래연습장","tel":"031-791-5689","addr":"경기도 하남시 망월동 972-1번지 상아프라자 504호","category":"레저업소 - 노 래 방"},{"name":"비원PC","tel":"","addr":"경기도 하남시 망월동 972-1번지 상아프라자 4층 401,402,403,404호","category":"레저업소 - 기타레져업소"},{"name":"설맥 미사점","tel":"070-7848-4869","addr":"경기도 하남시 망월동 972-1번지 상아프라자","category":"일반휴게음식 - 주점"},{"name":"에그머거(eggmurger)","tel":"031-791-0430","addr":"경기도 하남시 망월동 972-1번지 상아프라자 1층 103호","category":"일반휴게음식 - 서양음식"},{"name":"오징어랑 육회랑","tel":"02-795-2263","addr":"경기도 하남시 망월동 972-1번지 상아프라자 1층 104,105호","category":"일반휴게음식 - 일반한식"},{"name":"지산한의원","tel":"031-791-7075","addr":"경기도 하남시 망월동 972-1번지 상아프라자 304,305호","category":"의원 - 한의원"}]},{"lat":"37.569199966","long":"127.1915059","items":[{"name":"NEW LOVE (뉴러브)","tel":"031-594-7300","addr":"경기도 하남시 망월동 910번지 미사강변파밀리에 2층 201호","category":"보건위생 - 피부미용실"},{"name":"공감팩토리","tel":"","addr":"경기도 하남시 망월동 910번지 미사강변파밀리에 1503동 204호","category":"학원 - 기타 교육기관"},{"name":"그린키즈어린이집[아이행복]","tel":"031-795-7778","addr":"경기도 하남시 망월동 910번지 강변도시15단지 1506동 102호","category":"학원 - 유아원"},{"name":"다솜어린이집[아이행복]","tel":"031-793-9809","addr":"경기도 하남시 망월동 910번지 미사강변파밀리에 1509동 101호","category":"학원 - 유아원"},{"name":"다솜어린이집[아이행복]","tel":"031-793-9809","addr":"경기도 하남시 망월동 910번지 미사강변파밀리에 1509동 101호","category":"학원 - 유아원"},{"name":"미사랑어린이집[아이행복]","tel":"031-796-0715","addr":"경기도 하남시 망월동 910번지 미사강변파밀리에 관리동","category":"학원 - 유아원"},{"name":"미사키즈어린이집[아이행복]","tel":"031-793-1881","addr":"경기도 하남시 망월동 910번지 미사강변파밀리에 1503동 103호","category":"학원 - 유아원"},{"name":"뷰티화장품","tel":"031-791-3559","addr":"경기도 하남시 망월동 910번지 미사강변도시15단지 1508동 1403호","category":"회원제형태 - 기타1"},{"name":"시온 컴퍼니(ZION COMPANY)","tel":"","addr":"경기도 하남시 망월동 910번지 미사강변파밀리에 1501동 1901호","category":"신변잡화 - 기념품점"},{"name":"아이원스포츠","tel":"070-4186-5641","addr":"경기도 하남시 망월동 910번지 미샤강변파밀리에 1504동 1103호","category":"의류 - 스포츠의류"},{"name":"유니크","tel":"","addr":"경기도 하남시 망월동 910번지 미사강변파밀리에 1504동 703호","category":"레져용품 - 스포츠·레져용품"},{"name":"인재미술교습소","tel":"031-795-3885","addr":"경기도 하남시 망월동 910번지 파밀리에 상가동 203호","category":"학원 - 예·체능계학원"},{"name":"제이(J)청담헤어","tel":"031-795-3225","addr":"경기도 하남시 망월동 910번지 미사강변파밀리에 상가동 201호","category":"보건위생 - 미용원"},{"name":"지음피아노음악교습소","tel":"031-794-3706","addr":"경기도 하남시 망월동 910번지 미사강변파밀리에 상가동 204호","category":"학원 - 예·체능계학원"},{"name":"칼의 부활 (강남점)","tel":"070-4337-1256","addr":"경기도 하남시 망월동 910번지 미시강변패밀리에 1507동 101호","category":"수리서비스 - 기타수리서비스"},{"name":"크린토피아 (하남미사강변15단지점)","tel":"031-791-5515","addr":"경기도 하남시 망월동 910번지 미사강변파밀리에 2층 202호","category":"수리서비스 - 세탁소"},{"name":"퓨리스트","tel":"031-111-1111","addr":"경기도 하남시 망월동 910번지 미사강변파밀리에 1506동 2103호","category":"신변잡화 - 기타잡화"},{"name":"하나로정보마을","tel":"031-792-3627","addr":"경기도 하남시 망월동 910번지 미사강변파밀리에 1505동 502호","category":"용역 서비스 - 종합용역"}]},{"lat":"37.571593218","long":"127.18209403","items":[{"name":"OBIT HAIR (오빛헤어)","tel":"031-792-5558","addr":"경기도 하남시 망월동 985번지 101호","category":"보건위생 - 미용원"}]},{"lat":"37.569674306","long":"127.18197624","items":[{"name":"ORA . M (오라 .엠)","tel":"031-826-4341","addr":"경기도 하남시 망월동 1020-5번지 1층","category":"의류 - 정장"},{"name":"The Nest (더 네스트)","tel":"031-792-0703","addr":"경기도 하남시 망월동 1020-5번지 1층","category":"일반휴게음식 - 서양음식"},{"name":"전곱 하남미사점","tel":"031-754-8542","addr":"경기도 하남시 망월동 1020-5번지 1층","category":"일반휴게음식 - 일반한식"}]},{"lat":"37.568897812","long":"127.18306102","items":[{"name":"RICCO (리꼬)","tel":"031-000-0000","addr":"경기도 하남시 망월동 1002-6번지 1층","category":"일반휴게음식 - 서양음식"},{"name":"파리바게뜨 미사강변포레점","tel":"031-796-1777","addr":"경기도 하남시 망월동 1002-6번지 미사강변 더샵 리버포레 근린생활시설동 1층 106호,107호","category":"음료식품 - 제과점"},{"name":"프랑스어 전문 아카데미","tel":"031-285-5582","addr":"경기도 하남시 망월동 1002-6번지 201호","category":"학원 - 외국어학원"}]},{"lat":"37.576203152","long":"127.18989344","items":[{"name":"SOODA네일#","tel":"","addr":"경기도 하남시 망월동 849번지","category":"보건위생 - 피부미용실"},{"name":"숲미술교습소","tel":"031-793-1309","addr":"경기도 하남시 망월동 849번지 102호","category":"학원 - 예·체능계학원"}]},{"lat":"37.569928002","long":"127.18103734","items":[{"name":"WHITE HAVEN COFFEE(화이트 헤이븐 커피)","tel":"070-4120-5597","addr":"경기도 하남시 망월동 1022-1번지 1층","category":"일반휴게음식 - 서양음식"}]},{"lat":"37.576200233","long":"127.19172732","items":[{"name":"cafe 열매 맺은 무화과나무","tel":"031-528-6263","addr":"경기도 하남시 망월동 855-4번지 1층","category":"일반휴게음식 - 서양음식"},{"name":"엘리네일","tel":"","addr":"경기도 하남시 망월동 855-4번지 여현재 102호","category":"보건위생 - 피부미용실"}]},{"lat":"37.566092369","long":"127.19101136","items":[{"name":"care pilates","tel":"031-794-4888","addr":"경기도 하남시 망월동 1093번지 경서타워 8층 808,809,810,811호","category":"레저업소 - 헬스클럽"},{"name":"눈꽃피부과의원","tel":"031-792-3408","addr":"경기도 하남시 망월동 1093번지 경서타워 606호","category":"의원 - 의원"},{"name":"다섯손가락 기타교습소","tel":"031-8028-0804","addr":"경기도 하남시 망월동 1093번지 경서타워 907호","category":"학원 - 예·체능계학원"},{"name":"대구막창 짜장짬뽕","tel":"","addr":"경기도 하남시 망월동 1093번지 경서타워 2층 202호","category":"일반휴게음식 - 일반한식"},{"name":"더맑은스킨","tel":"031-796-6555","addr":"경기도 하남시 망월동 1093번지 경서타워 8층 802호","category":"보건위생 - 화장품"},{"name":"더서울이비인후과의원","tel":"031-795-8375","addr":"경기도 하남시 망월동 1093번지 경서타워 4층 406호,407호","category":"의원 - 의원"},{"name":"라디앙","tel":"","addr":"경기도 하남시 망월동 1093번지 경서타워 8층 803호","category":"보건위생 - 피부미용실"},{"name":"라인업PT","tel":"","addr":"경기도 하남시 망월동 1093번지 경서타워 7층 708호","category":"레저업소 - 헬스클럽"},{"name":"류치과의원","tel":"031-794-2279","addr":"경기도 하남시 망월동 1093번지 경서타워 303호","category":"의원 - 치과의원"},{"name":"리드빌","tel":"02-854-8255","addr":"경기도 하남시 망월동 1093번지 6층 607,608호","category":"학원 - 독서실"},{"name":"미사우리약국","tel":"031-795-1106","addr":"경기도 하남시 망월동 1093번지 경서타워 1층 111,112호","category":"약국 - 약국"},{"name":"밀론부티크미사","tel":"070-7436-1565","addr":"경기도 하남시 망월동 1093번지 경서타워 812호,813호,814호","category":"레저업소 - 헬스클럽"},{"name":"박경수 스시","tel":"031-793-1189","addr":"경기도 하남시 망월동 1093번지 경서타워 1층 116호","category":"일반휴게음식 - 일식·회집"},{"name":"백미르수학학원(미사점)","tel":"031-796-0527","addr":"경기도 하남시 망월동 1093번지 8층 806호, 807호","category":"학원 - 보습학원"},{"name":"비타민골프플러스 주식회사","tel":"031-793-0708","addr":"경기도 하남시 망월동 1093번지 경서타워 10층 1001호~1012호","category":"레져용품 - 골프용품 전문점"},{"name":"삐사감김밥에빠지다 하남미사점","tel":"031-476-1376","addr":"경기도 하남시 망월동 1093번지 경서타워 1층 107호","category":"일반휴게음식 - 스넥"},{"name":"세븐일레븐미사경서점","tel":"031-1577-0711","addr":"경기도 하남시 망월동 1093번지 경서타워 1층 106호","category":"유통업 영리 - 편 의 점"},{"name":"센트럴내과의원","tel":"031-796-2600","addr":"경기도 하남시 망월동 1093번지 경서타워 4층 403호","category":"의원 - 의원"},{"name":"셀렉토 커피 미사중앙점","tel":"031-795-6928","addr":"경기도 하남시 망월동 1093번지 경서타워 1층 110호","category":"일반휴게음식 - 서양음식"},{"name":"아지툰","tel":"","addr":"경기도 하남시 망월동 1093번지 경서타워 805호","category":"일반휴게음식 - 서양음식"},{"name":"앙포인트발레학원","tel":"","addr":"경기도 하남시 망월동 1093번지 경서타워 702호","category":"학원 - 예·체능계학원"},{"name":"약손부부한의원","tel":"031-791-8575","addr":"경기도 하남시 망월동 1093번지 경서타워 506호","category":"의원 - 한의원"},{"name":"연세솔정신건강의학과","tel":"031-792-7337","addr":"경기도 하남시 망월동 1093번지 경서타워 4층 405호","category":"의원 - 의원"},{"name":"이루다 미술학원","tel":"032-796-0885","addr":"경기도 하남시 망월동 1093번지 경서타워 704호","category":"학원 - 예·체능계학원"},{"name":"일품훠궈","tel":"031-8027-8867","addr":"경기도 하남시 망월동 1093번지 경서타워 203호","category":"일반휴게음식 - 일반한식"},{"name":"장N항외과","tel":"031-791-2581","addr":"경기도 하남시 망월동 1093번지 503,504호","category":"의원 - 의원"},{"name":"장앤항","tel":"031-791-2581","addr":"경기도 하남시 망월동 1093번지 경서타워 503호,504호","category":"건강식품 - 기타건강식품"},{"name":"주식회사 쿠우쿠우 미사점","tel":"031-795-1998","addr":"경기도 하남시 망월동 1093번지 경서타워 11층","category":"일반휴게음식 - 일식·회집"},{"name":"지노헤어","tel":"031-793-0051","addr":"경기도 하남시 망월동 1093번지 경서타워 2층","category":"보건위생 - 미용원"},{"name":"플래뮤 미술학원","tel":"031-793-8364","addr":"경기도 하남시 망월동 1093번지 경서타워 6층 605호","category":"학원 - 예·체능계학원"},{"name":"플랜에이 스터디카페 미사센터","tel":"031-795-3683","addr":"경기도 하남시 망월동 1093번지 경서타워 308호","category":"용역 서비스 - 사무서비스"},{"name":"현텔레콤","tel":"02-0000-0000","addr":"경기도 하남시 망월동 1093번지 경서타워 1층 114호","category":"사무통신 - 통신기기"}]},{"lat":"37.569232257","long":"127.19383775","items":[{"name":"ch공감","tel":"031-792-7863","addr":"경기도 하남시 망월동 924-4번지 101호","category":"일반휴게음식 - 서양음식"}]},{"lat":"37.56195407","long":"127.19275526","items":[{"name":"crabber 대게나라","tel":"031-8027-6789","addr":"경기도 하남시 망월동 1116-1번지 미사역타워 201동 203호","category":"일반휴게음식 - 일반한식"},{"name":"나이스가이","tel":"031-794-6628","addr":"경기도 하남시 망월동 1116-1번지 미사역타워 118호","category":"보건위생 - 미용원"},{"name":"뚜레쥬르 미사역점","tel":"031-796-7270","addr":"경기도 하남시 망월동 1116-1번지 미사역타워 1층 101,102호","category":"음료식품 - 제과점"},{"name":"르하임스터디카페 미사역점","tel":"","addr":"경기도 하남시 망월동 1116-1번지 604호,605호","category":"용역 서비스 - 사무서비스"},{"name":"마라클뮤직아카데미음악학원","tel":"","addr":"경기도 하남시 망월동 1116-1번지 미사역타워 904호","category":"학원 - 예·체능계학원"},{"name":"명동찌개마을","tel":"031-791-2722","addr":"경기도 하남시 망월동 1116-1번지 미사역타워 206호","category":"일반휴게음식 - 일반한식"},{"name":"미사봄내과의원","tel":"031-793-0369","addr":"경기도 하남시 망월동 1116-1번지 미사역타워 6층 602,603호","category":"의원 - 의원"},{"name":"배고을산골순대국 미사역점","tel":"031-791-1329","addr":"경기도 하남시 망월동 1116-1번지 미사역타워 2층 207호","category":"일반휴게음식 - 일반한식"},{"name":"브레통 캐롬클럽","tel":"","addr":"경기도 하남시 망월동 1116-1번지 미사역타워 10층 1001-1005호","category":"레저업소 - 당 구 장"},{"name":"비스타안경","tel":"031-796-2588","addr":"경기도 하남시 망월동 1116-1번지 미사역타워 106,107호","category":"보건위생 - 안경"},{"name":"상아 치과교정과 치과의원","tel":"031-791-2822","addr":"경기도 하남시 망월동 1116-1번지 미사역타워 505,506호","category":"의원 - 치과의원"},{"name":"아마레 필라테스","tel":"","addr":"경기도 하남시 망월동 1116-1번지 9층 901호,902호,903호","category":"레저업소 - 헬스클럽"},{"name":"아임헤어","tel":"031-796-3933","addr":"경기도 하남시 망월동 1116-1번지 미사역타워 205호","category":"보건위생 - 미용원"},{"name":"연세바른치과의원","tel":"031-796-2870","addr":"경기도 하남시 망월동 1116-1번지 미사역타워 7층 703호","category":"의원 - 치과의원"},{"name":"연세봄안과의원","tel":"031-8027-0885","addr":"경기도 하남시 망월동 1116-1번지 미사역타워 401,402,403,404호","category":"의원 - 의원"},{"name":"요가룩스 미사강변역점","tel":"031-796-5884","addr":"경기도 하남시 망월동 1116-1번지 미사역타워 8층 804호, 805호","category":"레저업소 - 헬스클럽"},{"name":"우리온누리약국","tel":"031-795-1692","addr":"경기도 하남시 망월동 1116-1번지 미사역타워","category":"약국 - 약국"},{"name":"유미즈외과의원","tel":"031-795-9934","addr":"경기도 하남시 망월동 1116-1번지 301,302호","category":"의원 - 의원"},{"name":"주식회사 어반코리아","tel":"031-792-6211","addr":"경기도 하남시 망월동 1116-1번지 미사역타워 6층 607호","category":"보건위생 - 화장품"},{"name":"주식회사 타고(TAGO)","tel":"031-111-1111","addr":"경기도 하남시 망월동 1116-1번지 1306,1307호","category":"레저업소 - 헬스클럽"},{"name":"초려","tel":"","addr":"경기도 하남시 망월동 1116-1번지 미사역타워 2층 204호","category":"일반휴게음식 - 중국식"},{"name":"코끼리한의원","tel":"031-796-1079","addr":"경기도 하남시 망월동 1116-1번지 미사역타워 5층 506,507호","category":"의원 - 한의원"},{"name":"크라우드PC 미사점","tel":"","addr":"경기도 하남시 망월동 1116-1번지 미사역타워 7층 704~707호","category":"수리서비스 - 사무·통신기기수리"},{"name":"타워점핑 다이어트","tel":"","addr":"경기도 하남시 망월동 1116-1번지 미사역타워 12층 1207호","category":"건강식품 - 기타건강식품"},{"name":"통합뇌휴먼 심리연구소","tel":"031-793-4377","addr":"경기도 하남시 망월동 1116-1번지 미사역타워 6층 606호","category":"보건위생 - 기타대인서비스"}]},{"lat":"37.563479148","long":"127.19681111","items":[{"name":"drawingroom(드로잉룸)","tel":"","addr":"경기도 하남시 망월동 1140번지 미사강변도시씨3단지 상가동 202호","category":"문화.취미 - 문화취미기타"},{"name":"네일반짝","tel":"031-792-7990","addr":"경기도 하남시 망월동 1140번지 미사강변도시씨3단지 2층 221호","category":"보건위생 - 피부미용실"},{"name":"달항아리","tel":"","addr":"경기도 하남시 망월동 1140번지 미사강변도시씨3단지 1층 114호","category":"음료식품 - 기타음료식품"},{"name":"더불닭","tel":"031-794-0150","addr":"경기도 하남시 망월동 1140번지 미사강변도시씨3단지 상가동 1층 113호","category":"일반휴게음식 - 스넥"},{"name":"더하기","tel":"","addr":"경기도 하남시 망월동 1140번지 미사강변도시씨3단지 302동 2102호","category":"광학제품 - 사진관"},{"name":"던킨 미사역점","tel":"031-791-8817","addr":"경기도 하남시 망월동 1140번지 미사강변도시씨3단지 1층 108호","category":"음료식품 - 제과점"},{"name":"디케이바이오트리(DK BioTree)","tel":"031-000-0000","addr":"경기도 하남시 망월동 1140번지 미사강변도시씨3단지 상가 232호","category":"서적문구 - 과학기자재"},{"name":"맘.s찬","tel":"031-793-6617","addr":"경기도 하남시 망월동 1140번지 미사강변도시씨3단지 상가동 1층 118호","category":"음료식품 - 기타음료식품"},{"name":"모노키친","tel":"031-794-3734","addr":"경기도 하남시 망월동 1140번지 미사강변도시씨3단지 1층 103호","category":"일반휴게음식 - 일반한식"},{"name":"목화로피어난","tel":"","addr":"경기도 하남시 망월동 1140번지 미사강변도시씨3단지 304동 2101호","category":"직물 - 카페트,커튼,천막,지물"},{"name":"미사강변도시 C3단지","tel":"031-796-8356","addr":"경기도 하남시 망월동 1140번지 미사강변도시씨3단지","category":"신변잡화 - 기타잡화"},{"name":"미사빵집","tel":"02-1111-1111","addr":"경기도 하남시 망월동 1140번지 미사강변도시씨3단지 1층 115호","category":"음료식품 - 제과점"},{"name":"미사옥","tel":"031-000-0000","addr":"경기도 하남시 망월동 1140번지 미사강변도시씨3단지 상가동 207호","category":"일반휴게음식 - 일반한식"},{"name":"봄빛","tel":"","addr":"경기도 하남시 망월동 1140번지 미사강변도시씨3단지 304동 1508호","category":"의류 - 아동의류"},{"name":"쁘띠씨엘로","tel":"","addr":"경기도 하남시 망월동 1140번지 미사강변도시씨3단지 1층 110호","category":"일반휴게음식 - 서양음식"},{"name":"씨유미사행복점","tel":"080-080-3663","addr":"경기도 하남시 망월동 1140번지 미사강변도시씨3단지 상가동 119호","category":"유통업 영리 - 편 의 점"},{"name":"어린 가우디 미술학원","tel":"031-791-8066","addr":"경기도 하남시 망월동 1140번지","category":"학원 - 예·체능계학원"},{"name":"연세 본 학원","tel":"02-0000-0000","addr":"경기도 하남시 망월동 1140번지 미사강변도시씨3단지 상가동 205호","category":"학원 - 보습학원"},{"name":"오늘도라라라","tel":"031-000-0000","addr":"경기도 하남시 망월동 1140번지 미사강변도시씨3단지 116호","category":"일반휴게음식 - 서양음식"},{"name":"오봉도시락","tel":"031-796-8089","addr":"경기도 하남시 망월동 1140번지 미사강변도시씨3단지 상가동 1층 125호","category":"일반휴게음식 - 스넥"},{"name":"왕(  )짬뽕","tel":"031-795-1325","addr":"경기도 하남시 망월동 1140번지 미사강변도시씨3단지 1층 130호","category":"일반휴게음식 - 중국식"},{"name":"용인대 성원 태권도","tel":"031-796-1051","addr":"경기도 하남시 망월동 1140번지 상가 222,223호","category":"학원 - 예·체능계학원"},{"name":"원데이노마드/(주)앤스페이스","tel":"070-7439-9495","addr":"경기도 하남시 망월동 1140번지 상가동 229,230,231,232호","category":"일반휴게음식 - 서양음식"},{"name":"이디야커피 하남미사가로수길점","tel":"","addr":"경기도 하남시 망월동 1140번지 미사강변도시씨3단지 1층 109호","category":"일반휴게음식 - 서양음식"},{"name":"이지컴스","tel":"031-4791-0070","addr":"경기도 하남시 망월동 1140번지 303동21층2104호 미사강변도시C3","category":"수리서비스 - 사무·통신기기수리"},{"name":"주식회사러쉬룸","tel":"031-699-9575","addr":"경기도 하남시 망월동 1140번지 미사강변도시씨3단지 203,204호","category":"문화.취미 - 문화취미기타"},{"name":"참다한홍삼 미사역점","tel":"031-794-4135","addr":"경기도 하남시 망월동 1140번지 미사강변도시씨3단지 123호","category":"건강식품 - 홍삼제품"},{"name":"코지썸머케이크","tel":"","addr":"경기도 하남시 망월동 1140번지 미사강변도시씨3단지 상가동 2층 215호","category":"음료식품 - 제과점"},{"name":"클랑스튜디오","tel":"031-792-4779","addr":"경기도 하남시 망월동 1140번지 미사강변도시씨3단지 2층 226호","category":"광학제품 - 사진관"},{"name":"톰쿡스토리(TOMCOOKSTORY)","tel":"031-793-2019","addr":"경기도 하남시 망월동 1140번지 미사강변도시씨3단지 상가동 2층 216호","category":"일반휴게음식 - 일반한식"},{"name":"팔당생명살림소비자생활 협동조합 미사점","tel":"031-8027-2440","addr":"경기도 하남시 망월동 1140번지 미사강변3단지 111,112호","category":"유통업 영리 - 슈퍼마켓"},{"name":"플로리시","tel":"02-6008-3248","addr":"경기도 하남시 망월동 1140번지 미사강변도시씨3단지 상가동 2층 214호","category":"문화.취미 - 화원"},{"name":"하남추어탕매운탕","tel":"031-1111-1111","addr":"경기도 하남시 망월동 1140번지 미사강변도시씨3단지 상가동 1층 135호","category":"일반휴게음식 - 일반한식"},{"name":"한돌곱창","tel":"031-794-0102","addr":"경기도 하남시 망월동 1140번지 미사강변도시씨3단지 1층 117호","category":"일반휴게음식 - 일반한식"},{"name":"한우직거래 판매장","tel":"","addr":"경기도 하남시 망월동 1140번지 미사강변도시씨3단지 119호","category":"음료식품 - 정육점"},{"name":"호정의 식탁","tel":"031-791-0932","addr":"경기도 하남시 망월동 1140번지 미사강변도시씨3단지 상가동 1층 102호","category":"일반휴게음식 - 일반한식"}]},{"lat":"37.569898486","long":"127.19414507","items":[{"name":"flower for 2 / 플라워포투","tel":"031-794-4220","addr":"경기도 하남시 망월동 932-2번지 1층 101호","category":"문화.취미 - 화원"}]},{"lat":"37.563625988","long":"127.1895564","items":[{"name":"for a day(포러데이)","tel":"031-796-1048","addr":"경기도 하남시 망월동 1098번지 에코브리지 1동 1층 112호","category":"일반휴게음식 - 일반한식"},{"name":"맛나푸드","tel":"031-9584-4888","addr":"경기도 하남시 망월동 1098번지 3층 309,310,311호","category":"일반휴게음식 - 일반한식"},{"name":"모던라멘","tel":"031-794-9528","addr":"경기도 하남시 망월동 1098번지 에코브리지 2층 211호","category":"일반휴게음식 - 서양음식"},{"name":"미미곱창","tel":"","addr":"경기도 하남시 망월동 1098번지 에코브리지 1층 120,121호","category":"일반휴게음식 - 일반한식"},{"name":"어빌리지커피","tel":"031-643-8782","addr":"경기도 하남시 망월동 1098번지 에코브리지 1층 114호","category":"일반휴게음식 - 서양음식"},{"name":"오리지널시카고피자 미사강변점","tel":"031-792-5935","addr":"경기도 하남시 망월동 1098번지 에코브리지 2층 208호","category":"일반휴게음식 - 서양음식"},{"name":"오후다섯시","tel":"070-4159-1234","addr":"경기도 하남시 망월동 1098번지 에코브리지 1층 119호","category":"일반휴게음식 - 서양음식"},{"name":"온스헤어","tel":"","addr":"경기도 하남시 망월동 1098번지 에코브리지 201호","category":"보건위생 - 미용원"},{"name":"원할머니보쌈 미사 강변배달점","tel":"031-791-4445","addr":"경기도 하남시 망월동 1098번지 에코브리지 1층 103호","category":"일반휴게음식 - 일반한식"},{"name":"이마트24","tel":"","addr":"경기도 하남시 망월동 1098번지 에코브릿지 105호","category":"유통업 영리 - 편 의 점"}]},{"lat":"37.569400696","long":"127.18414888","items":[{"name":"me.a mi (미아미)","tel":"031-795-0127","addr":"경기도 하남시 망월동 966번지 미사중앙프라자 1층 103호","category":"의류 - 정장"},{"name":"김밥킹 미사강변점","tel":"031-795-5644","addr":"경기도 하남시 망월동 966번지 미사중앙프라자 1층 103호","category":"일반휴게음식 - 스넥"},{"name":"미사(em4u)학원","tel":"031-793-7715","addr":"경기도 하남시 망월동 966번지 미사중앙프라자 3층 304호","category":"학원 - 보습학원"},{"name":"미사경희한의원","tel":"031-792-1975","addr":"경기도 하남시 망월동 966번지 미사중앙프라자 404호","category":"의원 - 한의원"},{"name":"미사나무내과의원","tel":"031-792-9722","addr":"경기도 하남시 망월동 966번지 미사중앙프라자 402,403","category":"의원 - 의원"},{"name":"미사리더스치과","tel":"031-699-2282","addr":"경기도 하남시 망월동 966번지 미사중앙프라자 303호 302호,303호","category":"의원 - 치과의원"},{"name":"미사보룡약국","tel":"031-795-8175","addr":"경기도 하남시 망월동 966번지 중앙프라자 107호","category":"약국 - 약국"},{"name":"미사숲동물의료센터","tel":"031-791-7579","addr":"경기도 하남시 망월동 966번지 미사중앙프라자 2층 202호","category":"기타의료기관 - 동물병원"},{"name":"미사정형외과","tel":"031-546-8119","addr":"경기도 하남시 망월동 966번지 미사 중앙프라자 6,7층","category":"의원 - 의원"},{"name":"백남옥손만두","tel":"","addr":"경기도 하남시 망월동 966번지 미사중앙프라자 1층 102호","category":"일반휴게음식 - 스넥"},{"name":"서울미소샘치과","tel":"031-699-7275","addr":"경기도 하남시 망월동 966번지 미사중앙프라자 301호","category":"의원 - 치과의원"},{"name":"소망피부과의원","tel":"031-793-8051","addr":"경기도 하남시 망월동 966번지 미사중앙프라자 5층 504호","category":"의원 - 의원"},{"name":"씨제이올리브네트웍스(주)하남미사점","tel":"031-791-9732","addr":"경기도 하남시 망월동 966번지 미사중앙프라자","category":"유통업 영리 - 편 의 점"},{"name":"웰빙마사지 피부경락, 비만관리","tel":"","addr":"경기도 하남시 망월동 966번지 미사중앙프라자 7층 701호","category":"보건위생 - 피부미용실"},{"name":"유촌","tel":"031-792-9422","addr":"경기도 하남시 망월동 966번지 미사중앙프라자 203호","category":"일반휴게음식 - 일반한식"},{"name":"이니스프리 미사신도시점","tel":"031-796-2999","addr":"경기도 하남시 망월동 966번지 미사중앙프라자 104호","category":"보건위생 - 화장품"},{"name":"이삭토스트하남미사점","tel":"031-795-5584","addr":"경기도 하남시 망월동 966번지 미사중앙프라자 1층 101호","category":"일반휴게음식 - 서양음식"},{"name":"코미웰빙","tel":"031-792-6987","addr":"경기도 하남시 망월동 966번지 미사중앙프라자 5층 502호","category":"건강식품 - 기타건강식품"},{"name":"코미이비인후과","tel":"031-792-6987","addr":"경기도 하남시 망월동 966번지 미사중앙프라자 5층 502호 503호","category":"의원 - 의원"},{"name":"통찰보습학원","tel":"031-792-8744","addr":"경기도 하남시 망월동 966번지 미사중앙프라자 5층 501호","category":"학원 - 보습학원"},{"name":"폴리한의원 하남점","tel":"031-8027-9111","addr":"경기도 하남시 망월동 966번지 미사중앙프라자 2층 201호","category":"의원 - 한의원"},{"name":"햇님소아청소년과의원","tel":"031-792-3055","addr":"경기도 하남시 망월동 966번지 미사중앙프라자 401호","category":"의원 - 의원"}]},{"lat":"37.569593854","long":"127.19309159","items":[{"name":"가나스포츠","tel":"031-793-7775","addr":"경기도 하남시 망월동 930번지","category":"레져용품 - 스포츠·레져용품"},{"name":"네네치킨 미사1호점","tel":"031-792-7792","addr":"경기도 하남시 망월동 930번지","category":"일반휴게음식 - 스넥"},{"name":"불닭발 동대문 엽기떡볶이","tel":"031-791-8592","addr":"경기도 하남시 망월동 930번지 103호","category":"일반휴게음식 - 스넥"},{"name":"테트리스찜닭 하남미사점","tel":"031-791-9530","addr":"경기도 하남시 망월동 930번지 1층","category":"일반휴게음식 - 일반한식"}]},{"lat":"37.559785598","long":"127.18520078","items":[{"name":"가마치통닭 하남고점","tel":"031-794-0759","addr":"경기도 하남시 망월동 1066-1번지 광장프라자 105호","category":"일반휴게음식 - 스넥"},{"name":"올가드림뷰티","tel":"031-111-1111","addr":"경기도 하남시 망월동 1066-1번지 광장프라자 2층 203호","category":"보건위생 - 피부미용실"},{"name":"참자연두부","tel":"031-794-4728","addr":"경기도 하남시 망월동 1066-1번지 광장프라자 104호","category":"음료식품 - 기타음료식품"},{"name":"트레져스영어학원","tel":"031-791-1195","addr":"경기도 하남시 망월동 1066-1번지 광장프라자 301호","category":"학원 - 외국어학원"}]},{"lat":"37.570538265","long":"127.18262351","items":[{"name":"가장맛있는족발","tel":"031-791-5844","addr":"경기도 하남시 망월동 988번지 1층","category":"일반휴게음식 - 일반한식"},{"name":"고마트 미사강변점","tel":"031-796-5596","addr":"경기도 하남시 망월동 988번지","category":"유통업 영리 - 슈퍼마켓"},{"name":"풍년 가정식 백반","tel":"","addr":"경기도 하남시 망월동 988번지 1층","category":"일반휴게음식 - 일반한식"}]},{"lat":"37.562396984","long":"127.19186225","items":[{"name":"감성커피 미사역점","tel":"031-792-9724","addr":"경기도 하남시 망월동 1106번지 힐스테이트에코미사 137호","category":"일반휴게음식 - 서양음식"},{"name":"그리드채플린 미사점","tel":"031-000-0000","addr":"경기도 하남시 망월동 1106번지 311,312호","category":"일반휴게음식 - 서양음식"},{"name":"다윈세무회계","tel":"031-699-2945","addr":"경기도 하남시 망월동 1106번지 힐스테이트에코미사 226호","category":"용역 서비스 - 법률회계서비스(개인)"},{"name":"레이블에스앤티","tel":"070-4320-9155","addr":"경기도 하남시 망월동 1106번지 힐스테이트 에코 미사 101동 1325호","category":"보건위생 - 화장품"},{"name":"리오메드","tel":"031-111-1111","addr":"경기도 하남시 망월동 1106번지 힐스테이크에코미사 1530호","category":"보건위생 - 의료용품"},{"name":"민아네 한상","tel":"031-791-0287","addr":"경기도 하남시 망월동 1106번지 힐스테이트 에코 미사 135,136호","category":"일반휴게음식 - 일반한식"},{"name":"세븐일레븐미사힐스테이트점","tel":"031-1577-0711","addr":"경기도 하남시 망월동 1106번지 힐스테이트 에코 미사 134호","category":"유통업 영리 - 편 의 점"},{"name":"써니 블라인드","tel":"","addr":"경기도 하남시 망월동 1106번지 힐스테이트에코미사 1동 515호","category":"직물 - 카페트,커튼,천막,지물"},{"name":"씨유미사힐스테이트점","tel":"080-080-3663","addr":"경기도 하남시 망월동 1106번지 힐스테이트 에코 미사 105호","category":"유통업 영리 - 편 의 점"},{"name":"참치야","tel":"031-793-8258","addr":"경기도 하남시 망월동 1106번지 힐스테이트에코미사 1층 124호","category":"일반휴게음식 - 일식·회집"},{"name":"헤어 in 헤어 살롱(HAIR IN HAIR SALON)","tel":"031-792-1795","addr":"경기도 하남시 망월동 1106번지 힐스테이트에코미사 2층 216호","category":"보건위생 - 미용원"}]},{"lat":"37.564839612","long":"127.19125722","items":[{"name":"강변","tel":"","addr":"경기도 하남시 망월동 1096-1번지 미사푸르지오시티 B동 315호,316호","category":"레저업소 - 헬스클럽"},{"name":"계몽돈까스 미사점","tel":"031-795-1090","addr":"경기도 하남시 망월동 1096-1번지 미사푸르지오시티 202호","category":"일반휴게음식 - 서양음식"},{"name":"나를 위한 필라테스","tel":"","addr":"경기도 하남시 망월동 1096-1번지 미사푸르지오시티 1109호","category":"레저업소 - 헬스클럽"},{"name":"네일아드망","tel":"","addr":"경기도 하남시 망월동 1096-1번지 미사푸르지오시티 B동 2층 B-210호","category":"보건위생 - 피부미용실"},{"name":"다감에스테틱","tel":"070-4009-0090","addr":"경기도 하남시 망월동 1096-1번지 미사푸르지오시티B동 3층 B-311호","category":"보건위생 - 피부미용실"},{"name":"다니엘기타교습소","tel":"","addr":"경기도 하남시 망월동 1096-1번지 미사푸르지오시티 B동 306호","category":"학원 - 예·체능계학원"},{"name":"뮤트(MUTE)","tel":"","addr":"경기도 하남시 망월동 1096-1번지 미사푸르지오시티 B동 912호","category":"레저업소 - 기타레져업소"},{"name":"미사문고 헌책의발견","tel":"031-793-4943","addr":"경기도 하남시 망월동 1096-1번지 미사푸르지오시티 B동 2층 204호","category":"서적문구 - 일반서적"},{"name":"블루 바디","tel":"070-4324-0999","addr":"경기도 하남시 망월동 1096-1번지 미사푸르지오시티 B동 3층 320호","category":"레저업소 - 헬스클럽"},{"name":"비엘아드망","tel":"","addr":"경기도 하남시 망월동 1096-1번지 미사푸르지오시티 210호","category":"보건위생 - 피부미용실"},{"name":"옷수선","tel":"031-793-4698","addr":"경기도 하남시 망월동 1096-1번지 미사푸르지오시티 B동 3층 319호","category":"수리서비스 - 세탁소"},{"name":"이마트24 미사시티점","tel":"031-1111-1111","addr":"경기도 하남시 망월동 1093-1번지 미사푸르지오시티 B동 107호","category":"유통업 영리 - 편 의 점"},{"name":"장안우동","tel":"","addr":"경기도 하남시 망월동 1096-1번지 미사푸르지오시티 B동 1층 105호","category":"일반휴게음식 - 스넥"},{"name":"주식회사 하나렌탈경기동부","tel":"031-796-1110","addr":"경기도 하남시 망월동 1096-1번지 미사푸르지오시티 B동 201호","category":"사무통신 - 사무용 OA기기"},{"name":"총각네 출장 손세차","tel":"","addr":"경기도 하남시 망월동 1096-1번지 미사푸르지오시티 B동 4층 411호","category":"자동차정비 유지 - 세차장"}]},{"lat":"37.562011855","long":"127.19042387","items":[{"name":"강변 최부자국밥","tel":"031-793-7884","addr":"경기도 하남시 망월동 1102번지 미사리버에비뉴 2층 202호","category":"일반휴게음식 - 일반한식"},{"name":"곤지암소머리국밥","tel":"","addr":"경기도 하남시 망월동 1102번지 미사리버에비뉴 206호","category":"일반휴게음식 - 일반한식"},{"name":"굿맘할매순대국&양선지해장국","tel":"031-791-0058","addr":"경기도 하남시 망월동 1102번지","category":"일반휴게음식 - 일반한식"},{"name":"귀한족발","tel":"031-795-5988","addr":"경기도 하남시 망월동 1102번지 미사리버에비뉴 1층 123호","category":"일반휴게음식 - 일반한식"},{"name":"까페망월천(cafe mangwolchun)","tel":"02-1111-1111","addr":"경기도 하남시 망월동 1102번지 미사리버에비뉴 1층 114호","category":"일반휴게음식 - 서양음식"},{"name":"미사푸름부동산공인중개사사무소","tel":"031-794-8933","addr":"경기도 하남시 망월동 1102번지 리버에비뉴 101호","category":"용역 서비스 - 부동산 중개·임대"},{"name":"밥먹는집 미사점","tel":"031-2794-3900","addr":"경기도 하남시 망월동 1102번지 미사리버에비뉴 2층 210호","category":"일반휴게음식 - 일반한식"},{"name":"브릴이언트","tel":"","addr":"경기도 하남시 망월동 1102번지","category":"일반휴게음식 - 서양음식"},{"name":"블랙(Black)","tel":"","addr":"경기도 하남시 망월동 1102번지 미사 리버에비뉴 1층 119-1,2호","category":"일반휴게음식 - 주점"},{"name":"서진정보통신","tel":"031-1899-4540","addr":"경기도 하남시 망월동 1102번지 미사리버에비뉴 310-1호","category":"사무통신 - 통신기기"},{"name":"세븐일레븐미사리버에비뉴점","tel":"","addr":"경기도 하남시 망월동 1102번지 미사리버에비뉴 112호","category":"유통업 영리 - 편 의 점"},{"name":"요리사의 식탁","tel":"031-796-7906","addr":"경기도 하남시 망월동 1102번지 미사리버에비뉴 1층 120호","category":"일반휴게음식 - 서양음식"},{"name":"우등생(미사강변점)","tel":"031-791-5002","addr":"경기도 하남시 망월동 1102번지 116,117,118호","category":"일반휴게음식 - 일반한식"},{"name":"유노우 아이어블","tel":"031-795-8122","addr":"경기도 하남시 망월동 1102번지 미사리버에비뉴 2층 201호","category":"보건위생 - 안경"},{"name":"처갓집양념치킨 미사1점","tel":"","addr":"경기도 하남시 망월동 1102번지 미사리버에비뉴 1층 122호","category":"일반휴게음식 - 스넥"},{"name":"카페갤러리","tel":"031-794-9495","addr":"경기도 하남시 망월동 1102번지 1층 117,118호","category":"일반휴게음식 - 서양음식"},{"name":"프롬마이룸","tel":"031-795-4557","addr":"경기도 하남시 망월동 1102번지 미사리버에비뉴 121호","category":"일반휴게음식 - 서양음식"},{"name":"하남돼지집 미사역점","tel":"031-796-0706","addr":"경기도 하남시 망월동 1102번지 미사리버에비뉴 207호","category":"일반휴게음식 - 일반한식"},{"name":"헤이미쉬(Heimish)","tel":"031-793-0614","addr":"경기도 하남시 망월동 1102번지 203-2호","category":"보건위생 - 미용원"}]},{"lat":"37.565120734","long":"127.19011474","items":[{"name":"강변노래연습장","tel":"031-793-7002","addr":"경기도 하남시 망월동 1087번지 501-502호","category":"레저업소 - 노 래 방"},{"name":"다른식당/주식회사 화우","tel":"031-796-8285","addr":"경기도 하남시 망월동 1087번지 마들렌오피스텔 206호,207호","category":"일반휴게음식 - 일반한식"},{"name":"도야족발 미사하남점","tel":"031-791-1250","addr":"경기도 하남시 망월동 1087번지 1층 105, 106호","category":"일반휴게음식 - 일반한식"},{"name":"만원의 행복","tel":"031-793-7002","addr":"경기도 하남시 망월동 1087번지 506호","category":"유통업 영리 - 편 의 점"},{"name":"미사이화약국","tel":"031-795-5427","addr":"경기도 하남시 망월동 1087번지 마들렌 109호","category":"약국 - 약국"},{"name":"브롱스 하남미사점","tel":"031-791-5935","addr":"경기도 하남시 망월동 1087번지 303호","category":"일반휴게음식 - 일반한식"},{"name":"우리동네문화센터 미사점","tel":"","addr":"경기도 하남시 망월동 1087번지 5층 503~505호","category":"문화.취미 - 문화취미기타"},{"name":"형노가(하남5호점)","tel":"031-796-2992","addr":"경기도 하남시 망월동 1087번지 102호 101호, 102호","category":"일반휴게음식 - 일반한식"}]},{"lat":"37.576178588","long":"127.19398","items":[{"name":"강변손두부","tel":"031-791-6470","addr":"경기도 하남시 망월동 314-6","category":"일반휴게음식 - 일반한식"}]},{"lat":"37.564956125","long":"127.19164234","items":[{"name":"강변자연한식부페","tel":"031-792-5225","addr":"경기도 하남시 망월동 1096-2번지 우성르보아리버 301호302호","category":"일반휴게음식 - 일반한식"},{"name":"공차 (미사강변점)","tel":"031-796-4422","addr":"경기도 하남시 망월동 1096-2번지 우성르보아리버 1층 112호","category":"일반휴게음식 - 서양음식"},{"name":"마이스토리 공인중개사 사무소","tel":"031-794-3900","addr":"경기도 하남시 망월동 1096-2번지 우성르보아리버422호","category":"용역 서비스 - 부동산 중개·임대"},{"name":"몽땅","tel":"031-795-7812","addr":"경기도 하남시 망월동 1096-2번지 우성르보아리버 1층 105호","category":"일반휴게음식 - 스넥"},{"name":"미사중앙약국","tel":"031-793-0159","addr":"경기도 하남시 망월동 1096-2번지 우성르보아리버 104호","category":"약국 - 약국"},{"name":"바이롬","tel":"02-2671-8080","addr":"경기도 하남시 망월동 1096-2번지 우성르보아리버 204호","category":"보건위생 - 미용원"},{"name":"세븐일레븐미사르보아점","tel":"031-1577-0711","addr":"경기도 하남시 망월동 1096-2번지 우성르보아리버 1층 108호","category":"유통업 영리 - 편 의 점"},{"name":"양꼬치랑 짜장면(영빈각)","tel":"031-795-1585","addr":"경기도 하남시 망월동 1096-2번지 2층 202-1호","category":"일반휴게음식 - 중국식"},{"name":"연세남다른치과의원","tel":"031-791-0901","addr":"경기도 하남시 망월동 1096-2번지 우성르보아리버 305동 306호","category":"의원 - 치과의원"},{"name":"옥이네한중식뷔페","tel":"031-795-1585","addr":"경기도 하남시 망월동 1096-2번지 우성르보아리버 201호","category":"일반휴게음식 - 일반한식"}]},{"lat":"37.563483477","long":"127.19964072","items":[{"name":"거궁 하남점","tel":"031-796-8123","addr":"경기도 하남시 망월동 1155번지 라파르코 4층 410-417호","category":"일반휴게음식 - 일반한식"},{"name":"다원","tel":"031-792-1576","addr":"경기도 하남시 망월동 1155번지 2층 218호,219호,220호","category":"일반휴게음식 - 일반한식"},{"name":"이마트24 미사라파르코점","tel":"031-1111-1111","addr":"경기도 하남시 망월동 1155번지 라파르코 1층 106호","category":"유통업 영리 - 편 의 점"}]},{"lat":"37.559731924","long":"127.18495166","items":[{"name":"걸작떡볶이치킨 하남미사점","tel":"031-793-5029","addr":"경기도 하남시 망월동 1066번지 마인드프라자 1층 1호","category":"일반휴게음식 - 스넥"},{"name":"미사바른치과","tel":"031-8027-2528","addr":"경기도 하남시 망월동 1066번지 마인드프라자 3층","category":"의원 - 치과의원"},{"name":"써니이비인후과","tel":"031-793-7772","addr":"경기도 하남시 망월동 1066번지 3층","category":"의원 - 의원"},{"name":"유명약국","tel":"070-4111-0088","addr":"경기도 하남시 망월동 1066번지 마인드프라자 106호","category":"약국 - 약국"},{"name":"파리바게뜨 미사하남고점","tel":"031-796-6664","addr":"경기도 하남시 망월동 1066번지 1층","category":"음료식품 - 제과점"}]},{"lat":"37.575762408","long":"127.18942821","items":[{"name":"경성집","tel":"02-000-0000","addr":"경기도 하남시 망월동 847번지","category":"일반휴게음식 - 일반한식"}]},{"lat":"37.570012003","long":"127.18503327","items":[{"name":"경희 선 한의원","tel":"031-792-9275","addr":"경기도 하남시 망월동 962-3번지 미사프라자 303호","category":"의원 - 한의원"},{"name":"공부뒤집기학원","tel":"031-796-0996","addr":"경기도 하남시 망월동 962-3번지 미사프라자 702호","category":"학원 - 보습학원"},{"name":"구산테라피","tel":"031-792-8707","addr":"경기도 하남시 망월동 962-3번지 미사프라자 304호","category":"보건위생 - 피부미용실"},{"name":"늘사랑음악학원","tel":"031-8027-3960","addr":"경기도 하남시 망월동 962-3번지 601-603호","category":"학원 - 예·체능계학원"},{"name":"롱맨영수학원","tel":"031-8027-3960","addr":"경기도 하남시 망월동 962-3번지 604-605호","category":"학원 - 외국어학원"},{"name":"미사TOP태권도장","tel":"031-796-7956","addr":"경기도 하남시 망월동 962-3번지 502,503호","category":"학원 - 예·체능계학원"},{"name":"미사서울치과의원","tel":"031-793-2880","addr":"경기도 하남시 망월동 962-3번지","category":"의원 - 치과의원"},{"name":"블럭파티플러스","tel":"031-791-0085","addr":"경기도 하남시 망월동 962-3번지 미사프라자 404호","category":"학원 - 기타 교육기관"},{"name":"상상고양이미술나라학원","tel":"031-793-0621","addr":"경기도 하남시 망월동 962-3번지 미사프라자 402호","category":"학원 - 예·체능계학원"},{"name":"수학마녀학원","tel":"031-796-1119","addr":"경기도 하남시 망월동 962-3번지 미사프라자 401호","category":"학원 - 보습학원"},{"name":"숙명음악학원","tel":"031-795-2949","addr":"경기도 하남시 망월동 962-3번지 미사프라자 501호","category":"학원 - 예·체능계학원"},{"name":"스카이푸드","tel":"","addr":"경기도 하남시 망월동 962-3번지 미사프라자 2층 205호","category":"일반휴게음식 - 일반한식"},{"name":"알파 미사점","tel":"031-793-9535","addr":"경기도 하남시 망월동 962-3번지 미사프라자 201호","category":"서적문구 - 문구용품"},{"name":"예스알미사점","tel":"031-795-8810","addr":"경기도 하남시 망월동 962-3번지","category":"사무통신 - 통신기기"},{"name":"이세돌바둑학원","tel":"031-792-1171","addr":"경기도 하남시 망월동 962-3번지 미사프라자 403호","category":"학원 - 기타 교육기관"},{"name":"제이와이텔레콤","tel":"031-795-8810","addr":"경기도 하남시 망월동 962-3번지 미사프라자 101호","category":"사무통신 - 통신기기"},{"name":"축산나라(미사점)","tel":"031-796-7050","addr":"경기도 하남시 망월동 962-3번지 미사프라자 109호","category":"음료식품 - 정육점"},{"name":"하남농협황산지점","tel":"031-795-3491","addr":"경기도 하남시 망월동 962-3번지 미사프라자 202호","category":"유통업 비영리 - 농,축협 직영매장"}]},{"lat":"37.557675317","long":"127.19772411","items":[{"name":"경희대퍼스트태권도","tel":"031-795-1897","addr":"경기도 하남시 망월동 1177번지 미사강변사랑으로부영아파트 상가동 2층 203호","category":"학원 - 예·체능계학원"},{"name":"정연헤어","tel":"031-794-6584","addr":"경기도 하남시 망월동 1177번지 하남미사부영사랑으로 상가 1층","category":"보건위생 - 미용원"}]},{"lat":"37.56100724","long":"127.19325085","items":[{"name":"경희미르애한의원","tel":"031-8027-8275","addr":"경기도 하남시 망월동 1121-2번지 랑데르3 202호","category":"의원 - 한의원"},{"name":"김가네 랑데르점","tel":"031-791-2294","addr":"경기도 하남시 망월동 1121-2번지 미사랑데르III 110호","category":"일반휴게음식 - 스넥"},{"name":"더좋은학원(미사강변점)","tel":"031-699-9566","addr":"경기도 하남시 망월동 1121-2번지 미사랑데르 507호","category":"학원 - 보습학원"},{"name":"두리이비인후과의원","tel":"031-699-6161","addr":"경기도 하남시 망월동 1121-2번지 403,404호","category":"의원 - 의원"},{"name":"디와이엔티(DYNT)","tel":"","addr":"경기도 하남시 망월동 1121-2번지 미사랑데르3 105호","category":"사무통신 - 통신기기"},{"name":"미사랑약국","tel":"031-699-0199","addr":"경기도 하남시 망월동 1121-2번지 미사랑데르III 101호","category":"약국 - 약국"},{"name":"미사한식부페","tel":"","addr":"경기도 하남시 망월동 1121-2번지 미사랑데르lll 208,209호","category":"일반휴게음식 - 일반한식"},{"name":"배스킨라빈스 미사역점","tel":"031-8028-0866","addr":"경기도 하남시 망월동 1121-2번지 1층 103호,104호","category":"음료식품 - 제과점"},{"name":"서울네이처치과의원","tel":"031-699-4322","addr":"경기도 하남시 망월동 1121-2번지 미사랑데르III 303,304호","category":"의원 - 치과의원"},{"name":"서울클리어치과교정과치과의원","tel":"031-699-3222","addr":"경기도 하남시 망월동 1121-2번지 미사랑데르 503, 504호","category":"의원 - 치과의원"},{"name":"서울홍 피부과","tel":"031-699-2037","addr":"경기도 하남시 망월동 1121-2번지 미사랑데르 501호,502호,601호","category":"의원 - 의원"},{"name":"소진담fnb","tel":"","addr":"경기도 하남시 망월동 1121-2번지 미사랑데르3 905호","category":"주방용구 - 주방용구"},{"name":"아산키즈건강식품","tel":"031-699-4100","addr":"경기도 하남시 망월동 1121-2번지 미사랑데르 302호","category":"건강식품 - 기타건강식품"},{"name":"아산키즈소아과청소년과의원","tel":"031-699-4100","addr":"경기도 하남시 망월동 1121-2번지 3층 301,302호","category":"의원 - 의원"},{"name":"에그드랍 미사역점","tel":"","addr":"경기도 하남시 망월동 1121-2번지 미사랑데르III 1층 106호","category":"일반휴게음식 - 서양음식"},{"name":"연세다편한통증의학과의원","tel":"031-791-7581","addr":"경기도 하남시 망월동 1121-2번지 미사랑데르III 5층 506호","category":"의원 - 의원"},{"name":"연안식당 하남미사역점","tel":"031-791-7174","addr":"경기도 하남시 망월동 1121-2번지 108,109호","category":"일반휴게음식 - 일반한식"},{"name":"피코미술학원","tel":"031-792-1491","addr":"경기도 하남시 망월동 1121-2번지 미사랑데르III 509호","category":"학원 - 예·체능계학원"},{"name":"하이엔드 영수학원","tel":"031-794-7779","addr":"경기도 하남시 망월동 1121-2번지 미사랑데르III 408호","category":"학원 - 보습학원"},{"name":"헤어식스","tel":"031-8027-8765","addr":"경기도 하남시 망월동 1121-2번지 미사랑데르III 2층 207호","category":"보건위생 - 미용원"}]},{"lat":"37.560062885","long":"127.18650301","items":[{"name":"경희양지한의원","tel":"031-792-7275","addr":"경기도 하남시 망월동 1067번지 골든브릿지 312호","category":"의원 - 한의원"},{"name":"나무시루","tel":"","addr":"경기도 하남시 망월동 1067번지 골든브릿지 117호","category":"음료식품 - 제과점"},{"name":"대웅마트","tel":"031-795-4042","addr":"경기도 하남시 망월동 1067번지 골드브릿지 112호","category":"유통업 영리 - 슈퍼마켓"},{"name":"더선 영어교습소","tel":"031-000-0000","addr":"경기도 하남시 망월동 1067번지 골든브릿지 309호","category":"학원 - 외국어학원"},{"name":"돈스타 치킨","tel":"031-792-1822","addr":"경기도 하남시 망월동 1067번지 골든브릿지 202호","category":"일반휴게음식 - 스넥"},{"name":"동명카츠","tel":"031-792-1822","addr":"경기도 하남시 망월동 1067번지 골든브릿지 202호","category":"일반휴게음식 - 일반한식"},{"name":"모던필라테스 미사점","tel":"031-778-7770","addr":"경기도 하남시 망월동 1067번지 골든브릿지 2층 201호","category":"레저업소 - 헬스클럽"},{"name":"미사서울동물병원","tel":"031-795-6061","addr":"경기도 하남시 망월동 1067번지 골든브릿지 1동 211호","category":"기타의료기관 - 동물병원"},{"name":"서울샤인치과의원","tel":"","addr":"경기도 하남시 망월동 1067번지 골든브릿지 310,311호","category":"의원 - 치과의원"},{"name":"순곱이네 하남미사점","tel":"031-796-5813","addr":"경기도 하남시 망월동 1067번지 골든브릿지 123호","category":"일반휴게음식 - 일반한식"},{"name":"예명학원","tel":"031-791-7660","addr":"경기도 하남시 망월동 1067번지 골든브릿지 308호","category":"학원 - 보습학원"},{"name":"완도식당","tel":"031-796-5813","addr":"경기도 하남시 망월동 1067번지 골든브릿지 123호","category":"일반휴게음식 - 일반한식"},{"name":"응급실국물떡볶이 하남미사점","tel":"031-792-2378","addr":"경기도 하남시 망월동 1067번지 골든브릿지 상가 1층 101호","category":"일반휴게음식 - 일반한식"},{"name":"이디야 미사센트럴점","tel":"031-796-7969","addr":"경기도 하남시 망월동 1067번지 골든브릿지 1층 118,119호","category":"일반휴게음식 - 서양음식"},{"name":"제니영어독서클럽","tel":"031-796-1241","addr":"경기도 하남시 망월동 1067번지 골든브릿지 3층 307호","category":"학원 - 외국어학원"},{"name":"켈리잉글리쉬교습소","tel":"","addr":"경기도 하남시 망월동 1067번지 골든브릿지 310호","category":"학원 - 외국어학원"},{"name":"홍베이팡 미사망월점","tel":"031-792-5028","addr":"경기도 하남시 망월동 1067번지 골든브릿지 1층 102호","category":"일반휴게음식 - 서양음식"}]},{"lat":"37.575812414","long":"127.19197539","items":[{"name":"고래식당 미사강변점","tel":"031-795-7092","addr":"경기도 하남시 망월동 859-3번지","category":"일반휴게음식 - 일반한식"}]},{"lat":"37.57473359","long":"127.19050105","items":[{"name":"고봉민김밥  하남구신성지점","tel":"031-793-5677","addr":"경기도 하남시 망월동 870-7번지 제이제이빌딩 1층","category":"일반휴게음식 - 일반한식"},{"name":"오선생 국어 논술","tel":"031-795-6611","addr":"경기도 하남시 망월동 870-7번지 제이제이빌딩 2층 202호","category":"학원 - 보습학원"},{"name":"흑우","tel":"070-8832-7111","addr":"경기도 하남시 망월동 870-7번지 제이제이빌딩 1층 101호","category":"일반휴게음식 - 일반한식"}]},{"lat":"37.569537213","long":"127.18325499","items":[{"name":"고봉민김밥인 하남미사2동점","tel":"031-792-6556","addr":"경기도 하남시 망월동 990번지 윈더스위트 101호,112호","category":"일반휴게음식 - 스넥"},{"name":"대왕참치","tel":"031-793-3782","addr":"경기도 하남시 망월동 990번지 2층 201호","category":"일반휴게음식 - 일식·회집"},{"name":"류길상 피자","tel":"031-796-7004","addr":"경기도 하남시 망월동 990번지 1층 103호","category":"일반휴게음식 - 서양음식"},{"name":"명랑시대쌀핫도그(미사점)","tel":"070-7806-6659","addr":"경기도 하남시 망월동 990번지","category":"일반휴게음식 - 일반한식"},{"name":"원더스위트 주차빌딩","tel":"070-4247-1298","addr":"경기도 하남시 망월동 990번지 ,2,3층","category":"자동차정비 유지 - 주차장"}]},{"lat":"37.561537831","long":"127.19386338","items":[{"name":"고봉민김밥인 하남미사역점","tel":"031-791-8993","addr":"경기도 하남시 망월동 1134-1번지 에스비비즈타워 1층 101호","category":"일반휴게음식 - 스넥"},{"name":"골드라인 필라테스","tel":"","addr":"경기도 하남시 망월동 1134-1번지 에스비비즈타워 303,304호","category":"레저업소 - 헬스클럽"},{"name":"꾸밈","tel":"02-451-7373","addr":"경기도 하남시 망월동 1134-1번지 에스비비즈타워 202호","category":"보건위생 - 미용원"},{"name":"리안헤어","tel":"031-792-8485","addr":"경기도 하남시 망월동 1134-1번지 3층 301,302호","category":"보건위생 - 미용원"},{"name":"모멘트스틸","tel":"031-000-0000","addr":"경기도 하남시 망월동 1134-1번지 에스비비즈타워 9층 906호","category":"광학제품 - 사진관"},{"name":"블루클럽 미사역점","tel":"031-793-8821","addr":"경기도 하남시 망월동 1134-1번지 SB BIZ타워 106호","category":"보건위생 - 미용원"},{"name":"에스엠(SM) 클래식음악학원","tel":"031-795-3034","addr":"경기도 하남시 망월동 1134-1번지 에스비비즈타워 505호,506호","category":"학원 - 예·체능계학원"},{"name":"유니메디전국지사","tel":"031-795-1840","addr":"경기도 하남시 망월동 1134-1번지 SBBIZ타워 711호","category":"건강식품 - 기타건강식품"},{"name":"유타복싱클럽","tel":"031-8028-0710","addr":"경기도 하남시 망월동 1134-1번지 에스비비즈타워 5층 501~504호","category":"레저업소 - 헬스클럽"},{"name":"이마트24 미사SB타워점","tel":"","addr":"경기도 하남시 망월동 1134-1번지 에스비비즈타워 108호","category":"유통업 영리 - 편 의 점"},{"name":"중고폰 매입판매 소녀폰 하남점","tel":"","addr":"경기도 하남시 망월동 1134-1번지 에스비비즈타워 7층 702호","category":"사무통신 - 통신기기"},{"name":"참맛옛날통닭미사역점","tel":"001-0000-0000","addr":"경기도 하남시 망월동 1134-1번지 에스비비즈타워 105호","category":"일반휴게음식 - 스넥"},{"name":"체험닷컴","tel":"070-8065-2237","addr":"경기도 하남시 망월동 1134-1번지 에스비비즈타워 7층 709호","category":"사무통신 - 컴퓨터"},{"name":"포시즌라이프(Fourseason Life)","tel":"070-7779-9109","addr":"경기도 하남시 망월동 1134-1번지 에스비비즈타워 11층 1111호","category":"건강식품 - 기타건강식품"},{"name":"해 아카데미","tel":"070-4661-0401","addr":"경기도 하남시 망월동 1134-1번지 에스비비즈타워 3층 306호","category":"학원 - 기능학원"},{"name":"해네일","tel":"070-4661-0401","addr":"경기도 하남시 망월동 1134-1번지 에스비비즈타워 3층 305호","category":"보건위생 - 피부미용실"}]},{"lat":"37.569173149","long":"127.18564247","items":[{"name":"고수학(고등관)학원","tel":"031-794-3887","addr":"경기도 하남시 망월동 976번지 파인빌딩 403호","category":"학원 - 보습학원"},{"name":"시너지카페","tel":"","addr":"경기도 하남시 망월동 976번지 파인빌딩 5층 503호","category":"용역 서비스 - 사무서비스"},{"name":"시너지플레이스독서실","tel":"","addr":"경기도 하남시 망월동 976번지 파인빌딩 501,502,503호","category":"학원 - 독서실"},{"name":"하남미사에듀플렉스심리상담연구소","tel":"","addr":"경기도 하남시 망월동 976번지 파인빌딩 3층 303호","category":"보건위생 - 기타대인서비스"}]},{"lat":"37.568868702","long":"127.18441925","items":[{"name":"고수학학원","tel":"02-471-3887","addr":"경기도 하남시 망월동 968번지 한강트윈2 602호","category":"학원 - 보습학원"},{"name":"놀숲 하남미사점","tel":"031-795-3242","addr":"경기도 하남시 망월동 968번지 한강트윈프라자2 6층 603호","category":"레저업소 - 기타레져업소"},{"name":"뉴런잉글리쉬학원","tel":"031-792-5205","addr":"경기도 하남시 망월동 968번지 한강트윈프라자2 401호","category":"학원 - 외국어학원"},{"name":"리안헤어미사강변점","tel":"031-796-4220","addr":"경기도 하남시 망월동 968번지 한강트윈프라자2 ,201호","category":"보건위생 - 미용원"},{"name":"릴리펏 미사점","tel":"031-795-3032","addr":"경기도 하남시 망월동 968번지 한강트윈프라자2 302호 301호,302호","category":"일반휴게음식 - 서양음식"},{"name":"마구로 진","tel":"031-795-7233","addr":"경기도 하남시 망월동 968번지 한강트윈프라자2 108, 109, 111호","category":"일반휴게음식 - 일식·회집"},{"name":"명동찌개마을","tel":"","addr":"경기도 하남시 망월동 968번지 2층","category":"일반휴게음식 - 일반한식"},{"name":"명품 도너츠","tel":"","addr":"경기도 하남시 망월동 968번지 한강트윈프라자2 108호","category":"일반휴게음식 - 서양음식"},{"name":"미사길약국","tel":"070-8880-0232","addr":"경기도 하남시 망월동 968번지 한강트윈프라자2,107호","category":"약국 - 약국"},{"name":"미사에스한의원","tel":"031-795-0588","addr":"경기도 하남시 망월동 968번지 한강트윈프라자2 4층 2호","category":"의원 - 한의원"},{"name":"방이샤브샤브칼국수(미사강변점)","tel":"031-793-4885","addr":"경기도 하남시 망월동 968번지 한강트윈프라자 101호","category":"일반휴게음식 - 일반한식"},{"name":"본죽&비빔밥cafe (하남미사점)","tel":"031-793-6233","addr":"경기도 하남시 망월동 968번지 한강윈프라자2 1층 103호","category":"일반휴게음식 - 일반한식"},{"name":"서울S치과","tel":"031-792-2409","addr":"경기도 하남시 망월동 968번지 한강트윈프라자2 3층 303호","category":"의원 - 치과의원"},{"name":"세일즈에이스","tel":"031-794-6577","addr":"경기도 하남시 망월동 968번지 105,106호","category":"사무통신 - 통신기기"},{"name":"신김밥천국(미사)","tel":"031-791-7422","addr":"경기도 하남시 망월동 968번지 한강트윈프라자2 1층 104호","category":"일반휴게음식 - 스넥"},{"name":"아이닉스PC","tel":"031-0000-0000","addr":"경기도 하남시 망월동 968번지 4층","category":"레저업소 - 기타레져업소"},{"name":"아이별소아청소년과의원","tel":"031-794-0275","addr":"경기도 하남시 망월동 968번지 한강트윈2 501호","category":"의원 - 의원"},{"name":"유엔에스더블유 영어학원","tel":"031-795-0533","addr":"경기도 하남시 망월동 968번지 한강트륀프라자 5층 504호","category":"학원 - 외국어학원"},{"name":"제이엠에스보습학원","tel":"","addr":"경기도 하남시 망월동 968번지 한강트윈프라자2 502호","category":"학원 - 보습학원"},{"name":"지에이피영어학원","tel":"031-795-5779","addr":"경기도 하남시 망월동 968번지 한강트윈프라자2 601호","category":"학원 - 외국어학원"},{"name":"화인마취통증의학과의원 하남미사점","tel":"031-791-2290","addr":"경기도 하남시 망월동 968번지 한강트윈프라자2 5층 503호","category":"의원 - 의원"}]},{"lat":"37.567957685","long":"127.18508487","items":[{"name":"고운우리피부과의원","tel":"031-1111-1111","addr":"경기도 하남시 망월동 968-4번지 리더스프라자 501호,502호","category":"의원 - 의원"},{"name":"미사국제정상어학원","tel":"031-793-0085","addr":"경기도 하남시 망월동 968-4번지 3층","category":"학원 - 외국어학원"},{"name":"미사주니어치과","tel":"031-793-2811","addr":"경기도 하남시 망월동 968-4번지 리더스프라자 6층 603,604호","category":"의원 - 치과의원"},{"name":"서윤소아청소년과의원","tel":"031-795-2587","addr":"경기도 하남시 망월동 968-4번지 리더스프라자 5층 503호 504호","category":"의원 - 의원"},{"name":"세븐일레븐미사리더스점","tel":"031-1577-0711","addr":"경기도 하남시 망월동 968-4번지 리더스프라자 108호","category":"유통업 영리 - 편 의 점"},{"name":"에스바디핏 미사강변점","tel":"031-792-6252","addr":"경기도 하남시 망월동 968-4번지 리더스프라자 701호","category":"레저업소 - 헬스클럽"},{"name":"에이치앤씨(HNC)네일살롱","tel":"031-8018-8166","addr":"경기도 하남시 망월동 968-4번지 리더스프라자 2층 204호","category":"보건위생 - 피부미용실"},{"name":"이가자헤어비스 미사강변점","tel":"031-793-8322","addr":"경기도 하남시 망월동 968-4번지 하남리더스프라자 203호","category":"보건위생 - 미용원"},{"name":"임선영국어논술학원","tel":"031-795-6628","addr":"경기도 하남시 망월동 968-4번지 리더스프라자 605호","category":"학원 - 보습학원"}]},{"lat":"37.563006975","long":"127.19902827","items":[{"name":"고은수산","tel":"","addr":"경기도 하남시 망월동 132-12 B102","category":"음료식품 - 농·축·수산품"}]},{"lat":"37.559848229","long":"127.18548388","items":[{"name":"골드라인 필라테스","tel":"031-1111-1111","addr":"경기도 하남시 망월동 1066-2번지 황금프라자 201호","category":"레저업소 - 헬스클럽"},{"name":"신수전독서토론논술학원","tel":"031-793-2767","addr":"경기도 하남시 망월동 1066-2번지 황금프라자 203호","category":"학원 - 보습학원"},{"name":"이에스파워영어학원","tel":"031-795-9234","addr":"경기도 하남시 망월동 1066-2번지 황금프라자 301호","category":"학원 - 보습학원"}]},{"lat":"37.56173064","long":"127.19162289","items":[{"name":"골프존파크 미사신성스크린/푸른숲 (주)","tel":"031-791-6666","addr":"경기도 하남시 망월동 1110번지 미사신성타워 801호","category":"레져용품 - 골프용품 전문점"},{"name":"글라스코드","tel":"031-791-5585","addr":"경기도 하남시 망월동 1110번지 미사신성타워 102호 101호,102호","category":"보건위생 - 안경"},{"name":"미남곱창","tel":"070-4413-7700","addr":"경기도 하남시 망월동 1110번지 미사신성타워 105,106호","category":"일반휴게음식 - 일반한식"},{"name":"미락","tel":"","addr":"경기도 하남시 망월동 1110번지 미사신성타워 8층 802호","category":"일반휴게음식 - 일반한식"},{"name":"쉐빌로뜨 당구클럽","tel":"031-000-0000","addr":"경기도 하남시 망월동 1110번지 미사신성타워 901호","category":"레저업소 - 당 구 장"},{"name":"제이비비J.B.B","tel":"02-866-8222","addr":"경기도 하남시 망월동 1110번지 미사신성타워 107호","category":"일반휴게음식 - 서양음식"}]},{"lat":"37.560478731","long":"127.19133678","items":[{"name":"곱분이곱창","tel":"031-794-5383","addr":"경기도 하남시 망월동 1119번지 스타파크 109호","category":"일반휴게음식 - 일반한식"},{"name":"다나은약국","tel":"031-699-1011","addr":"경기도 하남시 망월동 1119번지 스타파크 1층 108,119호","category":"약국 - 약국"},{"name":"모던필라테스 미사2호점","tel":"031-795-7743","addr":"경기도 하남시 망월동 1119번지 스타파크 306호","category":"레저업소 - 헬스클럽"},{"name":"미사늘편한내과","tel":"031-8027-2777","addr":"경기도 하남시 망월동 1119번지 스타파크 4층 406호","category":"의원 - 의원"},{"name":"박애별산부인과","tel":"031-795-5970","addr":"경기도 하남시 망월동 1119번지 스타파크 304,305호","category":"의원 - 의원"},{"name":"살롱0.02","tel":"031-699-1089","addr":"경기도 하남시 망월동 1119번지 스타파크 3층 307호","category":"보건위생 - 화장품"},{"name":"서울바른후치과","tel":"031-699-1035","addr":"경기도 하남시 망월동 1119번지 미사스타파크 403,404호","category":"의원 - 치과의원"},{"name":"스푼스토리 하남미사점","tel":"031-792-3010","addr":"경기도 하남시 망월동 1119번지 스타파크 1층 117, 118호","category":"일반휴게음식 - 서양음식"},{"name":"오#네일아이","tel":"","addr":"경기도 하남시 망월동 1119번지 스타파크 3층 311호","category":"보건위생 - 피부미용실"},{"name":"진스시","tel":"031-792-6270","addr":"경기도 하남시 망월동 1119번지 스타파크 1층 115호","category":"일반휴게음식 - 일식·회집"}]},{"lat":"37.574733842","long":"127.19034257","items":[{"name":"곱창스토리","tel":"031-793-3939","addr":"경기도 하남시 망월동 870-6번지 1층","category":"일반휴게음식 - 일반한식"}]},{"lat":"37.568758821","long":"127.18556222","items":[{"name":"공이일 샵(021shop)","tel":"031-795-0210","addr":"경기도 하남시 망월동 976-4번지 명성빌딩 1층","category":"보건위생 - 피부미용실"},{"name":"미사EMS이지핏다이어트","tel":"031-796-1775","addr":"경기도 하남시 망월동 976-4번지 명성빌딩 5층 501호","category":"레저업소 - 헬스클럽"},{"name":"바탕소 미술학원","tel":"","addr":"경기도 하남시 망월동 976-4번지 명성빌딩 501호","category":"학원 - 예·체능계학원"},{"name":"별하스터디센터하남미사독서실","tel":"031-795-0706","addr":"경기도 하남시 망월동 976-4번지 302호~304호","category":"학원 - 독서실"},{"name":"상승수학학원","tel":"031-791-5150","addr":"경기도 하남시 망월동 976-4번지 명성빌딩 4층 401호","category":"학원 - 보습학원"},{"name":"엘리어스 키즈카페","tel":"031-793-1171","addr":"경기도 하남시 망월동 976-4번지 명성빌딩 402호","category":"레저업소 - 기타레져업소"},{"name":"오블리스","tel":"","addr":"경기도 하남시 망월동 976-4번지 명성빌딩 102호","category":"의류 - 정장"},{"name":"카페 더치즈케이크","tel":"","addr":"경기도 하남시 망월동 976-4번지 명성빌딩 101호","category":"일반휴게음식 - 서양음식"}]},{"lat":"37.559401648","long":"127.19986766","items":[{"name":"공터영어 미사센터","tel":"0507-1331-1269","addr":"경기도 하남시 망월동 1196번지 201호","category":"학원 - 기타 교육기관"},{"name":"아침에뜨는별미술교습소","tel":"","addr":"경기도 하남시 망월동 1196번지 101호","category":"학원 - 예·체능계학원"}]},{"lat":"37.566289528","long":"127.18595235","items":[{"name":"광동LPG충전소","tel":"031-792-9088","addr":"경기도 하남시 망월동 575-1","category":"연료판매점 - SK가스충전소"},{"name":"주식회사 씨앤제이오토모티브","tel":"02-778-4169","addr":"경기도 하남시 망월동 575-1번지","category":"자동차정비 유지 - 자동차시트·타이어"},{"name":"찬찬모터스","tel":"031-795-4305","addr":"경기도 하남시 망월동 575-1번지","category":"자동차정비 유지 - 세차장"}]},{"lat":"37.56953354","long":"127.18564335","items":[{"name":"광진소곱창","tel":"031-793-6660","addr":"경기도 하남시 망월동 974-1번지 1층 108호,109호","category":"일반휴게음식 - 일반한식"},{"name":"김종인국어전문학원","tel":"031-792-7165","addr":"경기도 하남시 망월동 974-1번지 Apple빌딩 4층 401호","category":"학원 - 보습학원"},{"name":"등촌샤브칼국수","tel":"031-796-2344","addr":"경기도 하남시 망월동 974-1번지 APPLE빌딩 204호","category":"일반휴게음식 - 일반한식"},{"name":"마인드허그","tel":"070-4076-5830","addr":"경기도 하남시 망월동 974-1번지 APPLE빌딩 3층 301호","category":"학원 - 예·체능계학원"},{"name":"열강영어전문학원","tel":"031-791-3200","addr":"경기도 하남시 망월동 974-1번지 APPLE빌딩 3층 302호","category":"학원 - 외국어학원"},{"name":"작심독서실 (하남미사점)","tel":"031-795-0920","addr":"경기도 하남시 망월동 974-1번지 APPLE빌딩 5층 501,502호","category":"학원 - 독서실"},{"name":"제주백정의필살기 미사강변점","tel":"031-000-0000","addr":"경기도 하남시 망월동 974-1번지 APPLE빌딩 106,107호","category":"일반휴게음식 - 일반한식"},{"name":"족발야시장 미사점","tel":"","addr":"경기도 하남시 망월동 974-1번지 애플빌딩 103호,104호105호","category":"일반휴게음식 - 일반한식"},{"name":"하남미사 작심스페이스","tel":"031-795-0920","addr":"경기도 하남시 망월동 974-1번지 APPLE빌딩 5층 503호","category":"용역 서비스 - 사무서비스"}]},{"lat":"37.575588888","long":"127.1908994","items":[{"name":"광평도새기촌 미사강변점","tel":"031-791-5577","addr":"경기도 하남시 망월동 864번지","category":"일반휴게음식 - 일반한식"}]},{"lat":"37.569366442","long":"127.18298291","items":[{"name":"교촌치킨 미사1호점","tel":"031-796-7337","addr":"경기도 하남시 망월동 1004-1번지 1층","category":"일반휴게음식 - 스넥"}]},{"lat":"37.575313193","long":"127.1942608","items":[{"name":"구산 세차장","tel":"031-792-0902","addr":"경기도 하남시 망월동 835번지","category":"자동차정비 유지 - 세차장"}]},{"lat":"37.570457573","long":"127.18236297","items":[{"name":"국민전통갈비","tel":"031-796-8295","addr":"경기도 하남시 망월동 1008번지","category":"일반휴게음식 - 일반한식"}]},{"lat":"37.569007854","long":"127.19331649","items":[{"name":"군산아구","tel":"031-791-8897","addr":"경기도 하남시 망월동 922-1번지 1층 103호","category":"일반휴게음식 - 일반한식"},{"name":"리커버리(RECOVERY)","tel":"031-795-4527","addr":"경기도 하남시 망월동 922-1번지 1층 일부 101호","category":"자동차정비 유지 - 카인테리어"}]},{"lat":"37.576227787","long":"127.1913991","items":[{"name":"군산오징어 하남미사점","tel":"031-791-9484","addr":"경기도 하남시 망월동 855-2번지","category":"일반휴게음식 - 일반한식"}]},{"lat":"37.560959755","long":"127.20022262","items":[{"name":"굴뚝집","tel":"","addr":"경기도 하남시 망월동 1184-1번지 1층","category":"일반휴게음식 - 일반한식"}]},{"lat":"37.569979969","long":"127.18241842","items":[{"name":"굽네치킨하남미사1호점","tel":"031-795-9294","addr":"경기도 하남시 망월동 1008-6번지 1층","category":"일반휴게음식 - 스넥"},{"name":"땡촌닭발","tel":"031-791-3564","addr":"경기도 하남시 망월동 1008-6번지 1층","category":"일반휴게음식 - 일반한식"}]},{"lat":"37.569841845","long":"127.18436502","items":[{"name":"굿쎈수학학원","tel":"031-794-1277","addr":"경기도 하남시 망월동 962-1번지 송하프라자 302호","category":"학원 - 보습학원"},{"name":"금한우","tel":"","addr":"경기도 하남시 망월동 962-1번지 송하빌딩 108호","category":"음료식품 - 정육점"},{"name":"딜라잇 (DELIGHT)","tel":"070-4112-3190","addr":"경기도 하남시 망월동 962-1번지 송하프라자 106호","category":"의류 - 정장"},{"name":"뚱이순대국 미사강변점","tel":"031-791-0421","addr":"경기도 하남시 망월동 962-1번지 송하빌딩 109호","category":"일반휴게음식 - 일반한식"},{"name":"라이스샵미주 (주)","tel":"031-794-4910","addr":"경기도 하남시 망월동 962-1번지 송하빌딩 1층 111호","category":"음료식품 - 미곡상"},{"name":"리틀비틀","tel":"031-8028-6964","addr":"경기도 하남시 망월동 962-1번지 송하빌딩 404,405호","category":"레저업소 - 기타레져업소"},{"name":"명가 한약국","tel":"031-796-0084","addr":"경기도 하남시 망월동 962-1번지 송하프라자 105호","category":"약국 - 한약방"},{"name":"명인만두 미사점","tel":"031-794-3323","addr":"경기도 하남시 망월동 962-1번지 송하빌딩 102호","category":"일반휴게음식 - 일반한식"},{"name":"모닝아트","tel":"02-363-7252","addr":"경기도 하남시 망월동 962-1번지 송하빌딩 201호","category":"서적문구 - 문구용품"},{"name":"미사강변복싱클럽","tel":"031-794-1282","addr":"경기도 하남시 망월동 962-1번지 송하프라자 604호 ,605호","category":"레저업소 - 헬스클럽"},{"name":"미아리우동집","tel":"031-791-1189","addr":"경기도 하남시 망월동 962-1번지 송하빌딩 107호","category":"일반휴게음식 - 스넥"},{"name":"봉봉키즈 하남미사","tel":"031-8028-0932","addr":"경기도 하남시 망월동 962-1번지 송하빌딩 3층 301호","category":"일반휴게음식 - 서양음식"},{"name":"브이투(V2) 과학국어전문학원","tel":"031-792-7720","addr":"경기도 하남시 망월동 962-1번지 송하빌딩 4층 402호","category":"학원 - 보습학원"},{"name":"비에이치씨 미사강변점","tel":"031-796-5757","addr":"경기도 하남시 망월동 962-1번지 송하빌딩 2층 202호","category":"일반휴게음식 - 스넥"},{"name":"비욘드영어 미사강변어학원","tel":"","addr":"경기도 하남시 망월동 962-1번지 상하빌딩 304,305호","category":"학원 - 외국어학원"},{"name":"소년공방미술학원","tel":"031-795-0828","addr":"경기도 하남시 망월동 962-1번지 송하빌딩 603호","category":"학원 - 예·체능계학원"},{"name":"송하프라자관리단","tel":"070-5165-7133","addr":"경기도 하남시 망월동 962-1번지 송하빌딩","category":"자동차정비 유지 - 주차장"},{"name":"시루(미사점)","tel":"031-794-9619","addr":"경기도 하남시 망월동 962-1번지 송하빌딩 1층 101호","category":"음료식품 - 제과점"},{"name":"앙포레 모리노 헤어","tel":"031-794-6451","addr":"경기도 하남시 망월동 962-1번지 송하프라자 203호","category":"보건위생 - 미용원"},{"name":"어썸팩토리 미사독서실","tel":"031-793-4627","addr":"경기도 하남시 망월동 962-1번지 송하프라자 701동 704호","category":"학원 - 독서실"},{"name":"장독대 미사점","tel":"031-796-5289","addr":"경기도 하남시 망월동 962-1번지 송하빌딩 104호","category":"음료식품 - 기타음료식품"},{"name":"전설의왕만두","tel":"031-123-4567","addr":"경기도 하남시 망월동 962-1번지 송하빌딩 103호","category":"일반휴게음식 - 스넥"},{"name":"주식회사 이츠에듀 미사점","tel":"031-795-3757","addr":"경기도 하남시 망월동 962-1번지 송하프라자 204호,205호","category":"학원 - 보습학원"},{"name":"지혜의숲사고력논술학원","tel":"031-791-2211","addr":"경기도 하남시 망월동 962-1번지 송하프라자 4층 1호","category":"학원 - 보습학원"},{"name":"칸타빌레 음악학원","tel":"031-765-7823","addr":"경기도 하남시 망월동 962-1번지 송하프라자 503호","category":"학원 - 예·체능계학원"},{"name":"콩나라팥나라","tel":"031-791-0868","addr":"경기도 하남시 망월동 962-1번지 송하빌딩 1층 110호","category":"일반휴게음식 - 일반한식"},{"name":"크리스글로벌에듀케이션","tel":"031-1544-9021","addr":"경기도 하남시 망월동 962-1번지 송하프라자 601호","category":"학원 - 유학원"},{"name":"크리스아카데믹어학원(미사직영제1캠퍼스)","tel":"070-4337-1256","addr":"경기도 하남시 망월동 962-1번지 송하프라자 601,602호","category":"학원 - 외국어학원"},{"name":"프로예종발레학원","tel":"031-795-6311","addr":"경기도 하남시 망월동 962-1번지 송하프라자 501호,502호","category":"학원 - 예·체능계학원"},{"name":"헤럴드 어학원","tel":"031-1544-9021","addr":"경기도 하남시 망월동 962-1번지 6층 601호,602호","category":"학원 - 외국어학원"},{"name":"혜종 음악학원","tel":"031-794-3991","addr":"경기도 하남시 망월동 962-1번지 송하프라자 4층 403호","category":"학원 - 예·체능계학원"},{"name":"흑호종합무술센터 미사","tel":"031-792-7982","addr":"경기도 하남시 망월동 962-1번지 송하프라자 5층 504호, 505호","category":"레저업소 - 헬스클럽"}]},{"lat":"37.568872945","long":"127.193169","items":[{"name":"권쌤수학","tel":"070-5031-0327","addr":"경기도 하남시 망월동 916-5번지","category":"학원 - 기타 교육기관"}]},{"lat":"37.569172763","long":"127.18589149","items":[{"name":"그래도참치","tel":"031-791-6226","addr":"경기도 하남시 망월동 976-6번지 디럭스프라자2 104호","category":"일반휴게음식 - 일식·회집"},{"name":"두아잉글리쉬학원","tel":"031-8024-8666","addr":"경기도 하남시 망월동 976-6번지 디럭스프라자2 5층 503호","category":"학원 - 보습학원"},{"name":"레드락 하남미사점","tel":"031-791-4524","addr":"경기도 하남시 망월동 976-6번지 105,106호","category":"일반휴게음식 - 주점"},{"name":"손수학교습소","tel":"031-794-5078","addr":"경기도 하남시 망월동 976-6번지 디럭스프라자2 403호","category":"학원 - 보습학원"},{"name":"수학의시대학원","tel":"031-791-9870","addr":"경기도 하남시 망월동 976-6번지 디럭스프라자2 4층 402호","category":"학원 - 보습학원"},{"name":"시대에듀 주식회사","tel":"031-791-9870","addr":"경기도 하남시 망월동 976-6번지 디럭스프라자2 401,402호","category":"학원 - 보습학원"},{"name":"조이풀 미술놀이터","tel":"031-793-3001","addr":"경기도 하남시 망월동 976-6번지 디럭스프라자2 502호","category":"학원 - 기타 교육기관"}]},{"lat":"37.575095291","long":"127.18967559","items":[{"name":"그린리프 녹엽 미사점(GreenLeaf)","tel":"031-792-9602","addr":"경기도 하남시 망월동 843-15번지 1층","category":"보건위생 - 화장품"}]},{"lat":"37.569589136","long":"127.18464739","items":[{"name":"그림아트스튜디오미술학원","tel":"031-791-7767","addr":"경기도 하남시 망월동 970번지 예스프라자 미사 401호","category":"학원 - 예·체능계학원"},{"name":"미사온아치과의원","tel":"031-793-2815","addr":"경기도 하남시 망월동 970번지 예스프라자 미사 403호","category":"의원 - 치과의원"},{"name":"미정국수0410 미사강변점","tel":"070-7756-0410","addr":"경기도 하남시 망월동 970번지 예스프라자미사 1층 107호","category":"일반휴게음식 - 일반한식"},{"name":"백준호 영어전문학원","tel":"031-794-4299","addr":"경기도 하남시 망월동 970번지 예스프라자 미사 4층 402호","category":"학원 - 외국어학원"},{"name":"삼성키즈소아청소년과의원","tel":"031-796-0875","addr":"경기도 하남시 망월동 970번지","category":"의원 - 의원"},{"name":"오래참숯수제갈비","tel":"031-793-7573","addr":"경기도 하남시 망월동 970번지 예스프라자미사 203호","category":"일반휴게음식 - 일반한식"},{"name":"오마뎅","tel":"031-791-7430","addr":"경기도 하남시 망월동 970번지 예스프라자 미사 1층 104호","category":"일반휴게음식 - 일반한식"},{"name":"이마트24 미사프라자점","tel":"031-792-4357","addr":"경기도 하남시 망월동 970번지 예스프라자 미사 101호","category":"유통업 영리 - 편 의 점"},{"name":"이마트24미사프라자점","tel":"02-6916-1500","addr":"경기도 하남시 망월동 970번지 예스프라자 미사 101호","category":"유통업 영리 - 편 의 점"},{"name":"이철헤어커커 미사1호점","tel":"031-793-2326","addr":"경기도 하남시 망월동 970번지 예스프라자미사 2층","category":"보건위생 - 미용원"},{"name":"쥬씨 하남미사점","tel":"031-792-0978","addr":"경기도 하남시 망월동 970번지 예스프라자 1층 105호","category":"일반휴게음식 - 일반한식"},{"name":"참맛옛날통닭","tel":"031-791-9249","addr":"경기도 하남시 망월동 970번지 예스프라자 미사 1층 108호","category":"일반휴게음식 - 스넥"},{"name":"한국체대중앙태권도","tel":"031-792-2599","addr":"경기도 하남시 망월동 970번지 예스프라자 5층 503호,504호","category":"학원 - 예·체능계학원"},{"name":"핸드폰프라자365(미사점)","tel":"031-791-0364","addr":"경기도 하남시 망월동 970번지 예스미사프라자 1층 106호","category":"사무통신 - 통신기기"},{"name":"허종한의원","tel":"031-794-9845","addr":"경기도 하남시 망월동 970번지 예스프라자미사 303호","category":"의원 - 한의원"},{"name":"환희음악학원","tel":"031-791-5565","addr":"경기도 하남시 망월동 970번지 예스프라자 미사 5층 1,2호","category":"학원 - 예·체능계학원"}]},{"lat":"37.569788586","long":"127.1838442","items":[{"name":"글라스스토리(미사지구점)","tel":"031-795-1995","addr":"경기도 하남시 망월동 962번지 미사메디프라자 105호","category":"보건위생 - 안경"},{"name":"나나약국","tel":"031-792-7951","addr":"경기도 하남시 망월동 962번지 106호.107호","category":"약국 - 약국"},{"name":"다니엘소아청소년과의원","tel":"031-791-7588","addr":"경기도 하남시 망월동 962번지 미사메디프라자 3층 301호","category":"의원 - 의원"},{"name":"미사프라임치과","tel":"031-794-2879","addr":"경기도 하남시 망월동 962번지 미사메디프라자 302호","category":"의원 - 치과의원"},{"name":"미사하나이비인후과","tel":"031-792-8511","addr":"경기도 하남시 망월동 962번지 미사메디프라자 401호","category":"의원 - 의원"},{"name":"미엘피부과미사점","tel":"031-791-3434","addr":"경기도 하남시 망월동 962번지 502,503호","category":"의원 - 의원"},{"name":"배스킨라빈스 하남미사점","tel":"031-795-3458","addr":"경기도 하남시 망월동 962번지 미사메디프라자 104호","category":"음료식품 - 제과점"},{"name":"서울안과의원","tel":"031-8027-2977","addr":"경기도 하남시 망월동 962번지 미사메디프라자 402호","category":"의원 - 의원"},{"name":"연세정내과의원","tel":"03-792-7571","addr":"경기도 하남시 망월동 962번지 메디프라자 5층 501호","category":"의원 - 의원"},{"name":"오케타니 모유육아 상담실","tel":"","addr":"경기도 하남시 망월동 962번지 미사메디프라자","category":"보건위생 - 기타대인서비스"},{"name":"최장석한의원","tel":"031-795-7572","addr":"경기도 하남시 망월동 962번지 미사메디프라자 201호 202호 일부","category":"의원 - 한의원"},{"name":"커피랑도서관 미사강변점","tel":"070-4152-1140","addr":"경기도 하남시 망월동 962번지 메디프라자 601호","category":"용역 서비스 - 사무서비스"},{"name":"키즈필 키즈카페","tel":"031-793-9277","addr":"경기도 하남시 망월동 962번지 미사메디프라자 7층","category":"일반휴게음식 - 서양음식"},{"name":"파리바게뜨 미사강변점","tel":"031-792-1295","addr":"경기도 하남시 망월동 962번지 101,102호","category":"음료식품 - 제과점"}]},{"lat":"37.575482854","long":"127.18958599","items":[{"name":"글로시뷰티 (Glossy Beauty)","tel":"070-4125-2912","addr":"경기도 하남시 망월동 845-2번지 B01호","category":"보건위생 - 화장품"},{"name":"루아흐1025(ruach1025)","tel":"02-111-1111","addr":"경기도 하남시 망월동 845-2번지 1층 101호","category":"신변잡화 - 액세서리"},{"name":"리리케이크","tel":"","addr":"경기도 하남시 망월동 845-2번지 지층 2호","category":"음료식품 - 제과점"}]},{"lat":"37.569791321","long":"127.19355619","items":[{"name":"글씨 그리다","tel":"","addr":"경기도 하남시 망월동 930-3번지 1동 102호","category":"용역 서비스 - 사무서비스"},{"name":"한울종합상사","tel":"031-793-0769","addr":"경기도 하남시 망월동 930-3번지 401호","category":"유통업 영리 - 기타유통업"}]},{"lat":"37.569175278","long":"127.18426153","items":[{"name":"금강산감자탕","tel":"031-792-8202","addr":"경기도 하남시 망월동 966-1번지 한강트윈프라자1차 204호","category":"일반휴게음식 - 일반한식"},{"name":"나비이비인후과의원","tel":"031-795-8882","addr":"경기도 하남시 망월동 966-1번지 한강트윈프라자1 403호","category":"의원 - 의원"},{"name":"나이스가이","tel":"031-792-5355","addr":"경기도 하남시 망월동 966-1번지 한강트윈프라자1 1층 110호","category":"보건위생 - 미용원"},{"name":"더맑은치과의원(미사점)","tel":"031-792-3633","addr":"경기도 하남시 망월동 966-1번지 401호,402호","category":"의원 - 치과의원"},{"name":"뚜레쥬르 카페 미사강변점","tel":"031-795-1986","addr":"경기도 하남시 망월동 966-1번지 한강트윈프라자 1동 1층 104,105,106호","category":"음료식품 - 제과점"},{"name":"미사대학약국","tel":"031-793-8128","addr":"경기도 하남시 망월동 966-1번지 한강트윈파라자 107호","category":"약국 - 약국"},{"name":"미사피부과의원","tel":"031-792-7536","addr":"경기도 하남시 망월동 966-1번지 한강트윈프라자1 503,504호","category":"의원 - 의원"},{"name":"미사피플미술학원","tel":"031-794-4048","addr":"경기도 하남시 망월동 966-1번지 한강트윈프라자 702호, 703호","category":"학원 - 예·체능계학원"},{"name":"배달돼지 미사강변점","tel":"031-793-6116","addr":"경기도 하남시 망월동 966-1번지 2층","category":"일반휴게음식 - 일반한식"},{"name":"블루텔레콤 미사점","tel":"031-792-7112","addr":"경기도 하남시 망월동 966-1번지 한강트윈프라자1 102호","category":"사무통신 - 통신기기"},{"name":"스타노래연습장","tel":"031-793-3688","addr":"경기도 하남시 망월동 966-1번지 한강트윈프라자 301,302호","category":"레저업소 - 노 래 방"},{"name":"우리안경","tel":"031-792-2924","addr":"경기도 하남시 망월동 966-1번지 101호(한강트윈1 ,망월동)","category":"보건위생 - 안경"},{"name":"이마트24 미사스타점","tel":"031-793-4357","addr":"경기도 하남시 망월동 966-1번지 한강트윈프라자1 108호","category":"유통업 영리 - 편 의 점"},{"name":"정 스시","tel":"031-792-6272","addr":"경기도 하남시 망월동 966-1번지 한강트윈프라자1 1층 103호","category":"일반휴게음식 - 일식·회집"},{"name":"컴포즈커피 하남미사점","tel":"031-000-0000","addr":"경기도 하남시 망월동 966-1번지 한강트윈프라자1 1층 109호","category":"일반휴게음식 - 서양음식"},{"name":"파라나미사점","tel":"031-791-8485","addr":"경기도 하남시 망월동 966-1번지 한강트윈프라자1 6층 601,602호","category":"보건위생 - 화장품"},{"name":"포베이(미사강변)","tel":"031-794-6777","addr":"경기도 하남시 망월동 966-1번지 한강트윈프라자1 2층 203호","category":"일반휴게음식 - 서양음식"},{"name":"헤어팰리스","tel":"031-792-7114","addr":"경기도 하남시 망월동 966-1번지 한강트윈프라자1 2층 201호","category":"보건위생 - 미용원"}]},{"lat":"37.563202385","long":"127.18964589","items":[{"name":"기와집냉칼","tel":"031-111-1111","addr":"경기도 하남시 망월동 1098-1번지 에코브리지2 111호","category":"일반휴게음식 - 일반한식"},{"name":"꼬지사께","tel":"031-793-7848","addr":"경기도 하남시 망월동 1098-1번지 에코브리지2 1층 120호","category":"일반휴게음식 - 일반한식"},{"name":"루나스(Lunas)","tel":"","addr":"경기도 하남시 망월동 1098-1번지 3층 에코브리지2 311호","category":"문화.취미 - 애완동물"},{"name":"송치킨(song치킨)","tel":"031-796-9006","addr":"경기도 하남시 망월동 1098-1번지 에코브릿지2 1층 115호","category":"일반휴게음식 - 스넥"},{"name":"에코","tel":"031-793-6010","addr":"경기도 하남시 망월동 1098-1번지 에코브리지2 2층 204호","category":"보건위생 - 화장품"},{"name":"오닭발오곱창 (미사점)","tel":"031-795-6070","addr":"경기도 하남시 망월동 1098-1번지 에코브리지2 1층 109호","category":"일반휴게음식 - 일반한식"},{"name":"인생포차","tel":"031-795-6874","addr":"경기도 하남시 망월동 1098-1번지 에코브리지2 1층 121호","category":"일반휴게음식 - 서양음식"}]},{"lat":"37.571485701","long":"127.18169758","items":[{"name":"김경희의 쿠킹스쿨","tel":"031-791-7766","addr":"경기도 하남시 망월동 1012번지 1층 103호","category":"문화.취미 - 문화취미기타"},{"name":"비지티(BGT)24종빵","tel":"070-7420-6334","addr":"경기도 하남시 망월동 1012번지 1동 101호","category":"음료식품 - 제과점"},{"name":"스튜디오미담","tel":"031-791-7766","addr":"경기도 하남시 망월동 1012번지 1층 102호","category":"음료식품 - 기타음료식품"}]},{"lat":"37.568645279","long":"127.1832302","items":[{"name":"까사밍고 미사강변점","tel":"031-794-9070","addr":"경기도 하남시 망월동 1002-4번지 1층","category":"일반휴게음식 - 서양음식"}]},{"lat":"37.576145903","long":"127.19189699","items":[{"name":"꼬꼬마","tel":"070-4337-1255","addr":"경기도 하남시 망월동 855-5번지 101호","category":"일반휴게음식 - 서양음식"},{"name":"튼튼아이","tel":"02-111-1111","addr":"경기도 하남시 망월동 855-5번지 1층","category":"음료식품 - 기타음료식품"}]},{"lat":"37.568536694","long":"127.18353555","items":[{"name":"꼴통 참숯구이","tel":"031-111-1111","addr":"경기도 하남시 망월동 1000번지 101호","category":"일반휴게음식 - 일반한식"}]},{"lat":"37.568284213","long":"127.18367077","items":[{"name":"꽁언니 눈썹방","tel":"070-4337-1255","addr":"경기도 하남시 망월동 1000-2번지 1층","category":"보건위생 - 피부미용실"},{"name":"한고서적 (미사점)","tel":"031-794-3336","addr":"경기도 하남시 망월동 1000-2번지","category":"서적문구 - 일반서적"}]},{"lat":"37.567922797","long":"127.18433772","items":[{"name":"꽃밭주유소","tel":"031-795-5110","addr":"경기도 하남시 망월동 998번지","category":"연료판매점 - 쌍용S-OIL"}]},{"lat":"37.560230322","long":"127.20000565","items":[{"name":"꽃찬찜닭(하남점)","tel":"031-792-9640","addr":"경기도 하남시 망월동 1190-1번지 1층","category":"일반휴게음식 - 일반한식"},{"name":"유앤아이푸드","tel":"031-796-5321","addr":"경기도 하남시 망월동 1190-1번지","category":"일반휴게음식 - 일반한식"}]},{"lat":"37.564173124","long":"127.19667709","items":[{"name":"나라종합유리","tel":"031-4403-6204","addr":"경기도 하남시 망월동 152-1 3/1","category":"용역 서비스 - 기타용역서비스"}]},{"lat":"37.559876284","long":"127.20158921","items":[{"name":"남도밥상","tel":"031-791-0987","addr":"경기도 하남시 망월동 1202-1번지 1층 101호","category":"일반휴게음식 - 일반한식"}]},{"lat":"37.570394745","long":"127.18220435","items":[{"name":"내담","tel":"031-793-0098","addr":"경기도 하남시 망월동 1008-9번지 1층","category":"일반휴게음식 - 일반한식"}]},{"lat":"37.569232751","long":"127.19353213","items":[{"name":"네오피자하남점","tel":"031-794-4426","addr":"경기도 하남시 망월동 924번지 세현하우스 1층","category":"일반휴게음식 - 서양음식"}]},{"lat":"37.575427953","long":"127.1901179","items":[{"name":"네이쳐 앤 뷰티(Nature&Beauty)","tel":"031-796-3889","addr":"경기도 하남시 망월동 845-6번지","category":"보건위생 - 피부미용실"},{"name":"휴스파","tel":"031-795-8885","addr":"경기도 하남시 망월동 845-6번지 1층","category":"보건위생 - 피부미용실"}]},{"lat":"37.574957717","long":"127.19120346","items":[{"name":"네일라인","tel":"02-1111-1111","addr":"경기도 하남시 망월동 872-3번지 1층 103호","category":"보건위생 - 피부미용실"},{"name":"별꽃미장","tel":"031-795-4002","addr":"경기도 하남시 망월동 872-3번지 102호","category":"보건위생 - 미용원"},{"name":"크린토피아","tel":"031-795-3882","addr":"경기도 하남시 망월동 872-3번지 101호","category":"수리서비스 - 세탁소"}]},{"lat":"37.571228707","long":"127.18478721","items":[{"name":"네일리","tel":"031-792-8755","addr":"경기도 하남시 망월동 956번지 미사강변도시8단지 상가동 2층 204호","category":"보건위생 - 피부미용실"},{"name":"대박클린","tel":"","addr":"경기도 하남시 망월동 956번지 미사강변도시8단지 812동 704호","category":"건축자재 - 인테리어전문"},{"name":"리본 (Re-born)","tel":"","addr":"경기도 하남시 망월동 956번지 미사강변도시8단지 810동 803호","category":"의류 - 정장"},{"name":"모마아틀리에미술교습소","tel":"","addr":"경기도 하남시 망월동 956번지 미사강변도시8단지 202호","category":"학원 - 예·체능계학원"},{"name":"모션씨앤비","tel":"","addr":"경기도 하남시 망월동 956번지 미사강변도시8단지 801동 504호","category":"용역 서비스 - 기타용역서비스"},{"name":"미사8단지 세탁소","tel":"031-793-5585","addr":"경기도 하남시 망월동 956번지 미사강변도시8단지 201호","category":"수리서비스 - 세탁소"},{"name":"미사랑헤어","tel":"031-795-2686","addr":"경기도 하남시 망월동 956번지 미사강변도시8단지 상가동 203호","category":"보건위생 - 미용원"},{"name":"셀파 우등생 교실 하남미사8교실","tel":"","addr":"경기도 하남시 망월동 956번지 미사강변도시8단지 814동 502호","category":"학원 - 기타 교육기관"},{"name":"씨유미사8단지점","tel":"031-796-1140","addr":"경기도 하남시 망월동 956번지 미사강변도시8단지 상가동 104호","category":"유통업 영리 - 편 의 점"},{"name":"오픈소스씨에이이","tel":"070-8031-4038","addr":"경기도 하남시 망월동 956번지 미사강변도시8단지 802동 1702호","category":"용역 서비스 - 사무서비스"}]},{"lat":"37.575985191","long":"127.19097964","items":[{"name":"네일을그리다","tel":"","addr":"경기도 하남시 망월동 857번지 1층","category":"보건위생 - 피부미용실"},{"name":"세븐일레븐미사빌리지점","tel":"031-1577-0711","addr":"경기도 하남시 망월동 857번지 101호","category":"유통업 영리 - 편 의 점"}]},{"lat":"37.560093774","long":"127.20084281","items":[{"name":"네일포레(Nail foret)","tel":"031-8028-1681","addr":"경기도 하남시 망월동 1194번지 1층 102호","category":"보건위생 - 피부미용실"},{"name":"커피나한잔","tel":"031-000-0000","addr":"경기도 하남시 망월동 1194번지 1층","category":"일반휴게음식 - 서양음식"}]},{"lat":"37.575704605","long":"127.19178267","items":[{"name":"노란황태 하남점","tel":"","addr":"경기도 하남시 망월동 859-4번지 1층","category":"일반휴게음식 - 일반한식"}]},{"lat":"37.570899637","long":"127.18197917","items":[{"name":"노랑통닭","tel":"031-795-3455","addr":"경기도 하남시 망월동 1010-7번지 1층","category":"일반휴게음식 - 스넥"}]},{"lat":"37.561425156","long":"127.19109017","items":[{"name":"노블레스카페","tel":"031-795-7940","addr":"경기도 하남시 망월동 1108-1번지 미타워 6층 605호","category":"일반휴게음식 - 서양음식"},{"name":"레드썬","tel":"","addr":"경기도 하남시 망월동 1108-1번지 미타워 5층 503호","category":"일반휴게음식 - 주점"},{"name":"맨하탄슈퍼 미사중앙점","tel":"","addr":"경기도 하남시 망월동 1108-1번지 미타워 1층 111호","category":"일반휴게음식 - 주점"},{"name":"미성양꼬치엔훠궈","tel":"031-000-0000","addr":"경기도 하남시 망월동 1108-1번지 미타워 2층 204-206호","category":"일반휴게음식 - 일반한식"},{"name":"반룬 코스메틱","tel":"","addr":"경기도 하남시 망월동 1108-1번지 미타워 608호","category":"보건위생 - 화장품"},{"name":"별 그리고 Beauty","tel":"","addr":"경기도 하남시 망월동 1108-1번지 미타워 3층 305호","category":"보건위생 - 피부미용실"},{"name":"아크모스호텔","tel":"031-794-5678","addr":"경기도 하남시 망월동 1108-1번지 미타워 11층 1101호","category":"숙박업 - 여관/기타숙박업"},{"name":"엔씨제이 인터네셔널","tel":"031-794-5179","addr":"경기도 하남시 망월동 1108-1번지 미타워 5층 501호","category":"보건위생 - 화장품"},{"name":"존케이지빌리어즈","tel":"031-974-7831","addr":"경기도 하남시 망월동 1108-1번지 미타워 5층 504~506호","category":"레져용품 - 스포츠·레져용품"},{"name":"초콜렛노래연습장","tel":"031-795-1848","addr":"경기도 하남시 망월동 1108-1번지 미타워 310호 309호,310호","category":"레저업소 - 노 래 방"},{"name":"헤어바이반룬하우트","tel":"031-795-5335","addr":"경기도 하남시 망월동 1108-1번지 미타워 607,608호","category":"보건위생 - 미용원"},{"name":"호텔 트레비엔","tel":"031-794-0185","addr":"경기도 하남시 망월동 1108-1번지 ,9,10층","category":"숙박업 - 여관/기타숙박업"}]},{"lat":"37.570119561","long":"127.18539575","items":[{"name":"농업회사법인 (주)연포손두부","tel":"031-791-5380","addr":"경기도 하남시 망월동 963번지 미사강변주차타워 103호","category":"음료식품 - 기타음료식품"},{"name":"레브","tel":"031-791-0703","addr":"경기도 하남시 망월동 963번지","category":"자동차정비 유지 - 주차장"},{"name":"어사또 하남미사점","tel":"","addr":"경기도 하남시 망월동 963번지 미사강변주차타워 101호","category":"음료식품 - 농·축·수산품"},{"name":"어사출또 하남미사점","tel":"","addr":"경기도 하남시 망월동 963번지 미사강변주차타워 1층","category":"일반휴게음식 - 일식·회집"},{"name":"타잔B&G 어린이 레슨전문 수영장","tel":"031-796-6543","addr":"경기도 하남시 망월동 963번지 미사강변주차타워 지하1층","category":"레저업소 - 수 영 장"}]},{"lat":"37.570259478","long":"127.18228326","items":[{"name":"누나홀닭 하남미사점","tel":"031-791-9922","addr":"경기도 하남시 망월동 1008-8번지 1층","category":"일반휴게음식 - 스넥"},{"name":"자매공방","tel":"","addr":"경기도 하남시 망월동 1008-8번지 1층","category":"음료식품 - 제과점"}]},{"lat":"37.575479705","long":"127.19156702","items":[{"name":"늘푸른밥상","tel":"031-111-1111","addr":"경기도 하남시 망월동 864-4번지 101호","category":"일반휴게음식 - 일반한식"}]},{"lat":"37.56892408","long":"127.18355913","items":[{"name":"닌자초밥하남미사점","tel":"031-791-3577","addr":"경기도 하남시 망월동 994-1번지 1층","category":"일반휴게음식 - 일식·회집"},{"name":"라온사고력수학","tel":"","addr":"경기도 하남시 망월동 994-1번지 202호","category":"학원 - 학습지 교육"}]},{"lat":"37.568644465","long":"127.1837622","items":[{"name":"다온정","tel":"02-000-0000","addr":"경기도 하남시 망월동 997번지 1층","category":"일반휴게음식 - 일식·회집"}]},{"lat":"37.571314138","long":"127.1819462","items":[{"name":"다올횟집","tel":"031-792-9988","addr":"경기도 하남시 망월동 1010번지 1층","category":"일반휴게음식 - 일식·회집"}]},{"lat":"37.570314087","long":"127.18192117","items":[{"name":"단단라멘","tel":"031-795-7882","addr":"경기도 하남시 망월동 1018-5번지 101호","category":"일반휴게음식 - 일식·회집"},{"name":"해피반찬","tel":"031-792-0788","addr":"경기도 하남시 망월동 1018-5번지 1층 103호","category":"음료식품 - 기타음료식품"},{"name":"홍루이젠 하남미사","tel":"031-8028-0119","addr":"경기도 하남시 망월동 1018-5번지","category":"일반휴게음식 - 스넥"}]},{"lat":"37.569844736","long":"127.1824747","items":[{"name":"단수이 대왕카스테라 미사점","tel":"031-793-5887","addr":"경기도 하남시 망월동 1008-5번지 103호","category":"음료식품 - 제과점"},{"name":"더앤(THE N)","tel":"","addr":"경기도 하남시 망월동 1008-5번지 B1블럭 B-6 102호","category":"의류 - 정장"},{"name":"뜨겁개핫도그","tel":"031-793-4060","addr":"경기도 하남시 망월동 1008-5번지 103호","category":"일반휴게음식 - 서양음식"},{"name":"위드미 미사타운점","tel":"02-6916-1500","addr":"경기도 하남시 망월동 1008-5번지 101호","category":"유통업 영리 - 편 의 점"},{"name":"이마트24 미사타운점","tel":"031-798-7891","addr":"경기도 하남시 망월동 1008-5번지 101호","category":"유통업 영리 - 편 의 점"}]},{"lat":"37.564732162","long":"127.19083816","items":[{"name":"닭장수 후라이드(미사점)","tel":"031-794-2700","addr":"경기도 하남시 망월동 1096번지 미사마이움센트럴아케이드 1층 112호","category":"일반휴게음식 - 스넥"},{"name":"두란노커피","tel":"","addr":"경기도 하남시 망월동 1096번지 미사마이움센트럴아케이드 1419호","category":"음료식품 - 기타음료식품"},{"name":"로이드밤 미사역점","tel":"031-795-3338","addr":"경기도 하남시 망월동 1096번지 3층 309, 310호","category":"보건위생 - 미용원"},{"name":"세븐일레븐미사마이움점","tel":"031-1577-0711","addr":"경기도 하남시 망월동 1096번지 마이움센트럴아케이드 102호","category":"유통업 영리 - 편 의 점"},{"name":"유니크 네일 부띠끄","tel":"","addr":"경기도 하남시 망월동 1096번지 미사마이움센트럴아케이드 3층 308호","category":"보건위생 - 피부미용실"},{"name":"이디야 미사로데오점","tel":"","addr":"경기도 하남시 망월동 1096번지 미사마이움센트럴아케이드 114호","category":"일반휴게음식 - 서양음식"},{"name":"전주콩나물국밥","tel":"031-111-1111","addr":"경기도 하남시 망월동 1096번지 미사마이움센트럴아케이드 2층 202호","category":"일반휴게음식 - 일반한식"},{"name":"크린토피아 하남미사역점","tel":"031-791-0511","addr":"경기도 하남시 망월동 1096번지 미사마이움센트럴아케이드 106호","category":"수리서비스 - 세탁소"}]},{"lat":"37.568817661","long":"127.19392724","items":[{"name":"담아내기","tel":"070-7736-6116","addr":"경기도 하남시 망월동 920-3번지 1층","category":"일반휴게음식 - 일식·회집"}]},{"lat":"37.569041294","long":"127.18350282","items":[{"name":"담아담아 아이스크림 할인점","tel":"031-791-8089","addr":"경기도 하남시 망월동 994번지 101호","category":"음료식품 - 제과점"}]},{"lat":"37.562286643","long":"127.19875475","items":[{"name":"대길","tel":"031-731-1196","addr":"경기도 하남시 망월동 127-49,1층","category":"음료식품 - 농·축·수산품"}]},{"lat":"37.57023341","long":"127.18164931","items":[{"name":"대동집미사점","tel":"063-0000-0000","addr":"경기도 하남시 망월동 1018-3번지","category":"일반휴게음식 - 일반한식"}]},{"lat":"37.561510032","long":"127.19981662","items":[{"name":"대리기사","tel":"031-1544-7149","addr":"경기도 하남시 망월동 1170번지 미사강변효성해링턴플레이스엔에이치에프 2912동 904호","category":"보건위생 - 기타대인서비스"},{"name":"마에스트로(Maestro)","tel":"031-000-0000","addr":"경기도 하남시 망월동 1170번지 미사강변효성해링턴플레이스엔에이치에프 2910동 1004호","category":"용역 서비스 - 사무서비스"},{"name":"물보라","tel":"","addr":"경기도 하남시 망월동 1170번지 미사강변효성해링턴플레이스엔에이치에프 2911동 2205호","category":"의류 - 정장"},{"name":"미사유통","tel":"","addr":"경기도 하남시 망월동 1170번지 미사강변효성해링턴플레이스엔에이치에프 2908동 905호","category":"음료식품 - 기타음료식품"},{"name":"비에이치씨","tel":"","addr":"경기도 하남시 망월동 1170번지 미사강변효성해링턴플레이스엔에이치에프 2901동 1604호","category":"음료식품 - 기타음료식품"},{"name":"씨유미사해링턴점","tel":"080-080-3663","addr":"경기도 하남시 망월동 1170번지 제2상가동 102호","category":"유통업 영리 - 편 의 점"},{"name":"씨유미사효성점","tel":"080-080-3663","addr":"경기도 하남시 망월동 1170번지 미사강변효성해링턴플레이스엔에이치에프 제상가1동 1층 101,102호","category":"유통업 영리 - 편 의 점"},{"name":"아소비","tel":"","addr":"경기도 하남시 망월동 1170번지 미사강변효성해링턴플레이스엔에이치에프 2912동 905호","category":"학원 - 기타 교육기관"},{"name":"오마이스토어","tel":"032-717-0427","addr":"경기도 하남시 망월동 1170번지 미사강변효성해링턴플레이스엔에이치에프 2907동 1803호","category":"의류 - 기타의류"},{"name":"해링턴 공부방","tel":"031-795-1638","addr":"경기도 하남시 망월동 1170번지 미사강변효성해링턴플레이스엔에이치에프 2910동 2103호","category":"학원 - 기타 교육기관"}]},{"lat":"37.571007874","long":"127.18190019","items":[{"name":"대양부양꼬치","tel":"031-793-7959","addr":"경기도 하남시 망월동 1010-8번지 에덴빌 1층","category":"일반휴게음식 - 중국식"}]},{"lat":"37.563117845","long":"127.19736477","items":[{"name":"대유수산","tel":"031-792-4967","addr":"경기도 하남시 망월동 127-8,129-8","category":"음료식품 - 농·축·수산품"}]},{"lat":"37.576561148","long":"127.19139994","items":[{"name":"대정산업","tel":"031-791-2813","addr":"경기도 하남시 망월동 357-5","category":"건축자재 - 목재·석재·철물"}]},{"lat":"37.560374667","long":"127.19989285","items":[{"name":"댄디가이","tel":"031-555-2678","addr":"경기도 하남시 망월동 1190번지 103호","category":"보건위생 - 미용원"}]},{"lat":"37.570151773","long":"127.18201134","items":[{"name":"댄싱위드플라워","tel":"031-793-1125","addr":"경기도 하남시 망월동 1018-6번지 1층 101호","category":"문화.취미 - 화원"},{"name":"루쏘소 하남미사점","tel":"070-4337-1255","addr":"경기도 하남시 망월동 1018-6번지 102호","category":"의류 - 정장"},{"name":"미사네일","tel":"031-0000-0000","addr":"경기도 하남시 망월동 1018-6번지 1층","category":"보건위생 - 피부미용실"},{"name":"일리아뚜(Ilya tout)","tel":"","addr":"경기도 하남시 망월동 1018-6번지 103호","category":"의류 - 정장"}]},{"lat":"37.574870101","long":"127.18964106","items":[{"name":"더 드레스(THE DRESS)","tel":"02-1111-1111","addr":"경기도 하남시 망월동 870-1번지 1층","category":"의류 - 정장"},{"name":"배고을산골순대국","tel":"031-791-1320","addr":"경기도 하남시 망월동 870-1번지 1층 101호","category":"일반휴게음식 - 일반한식"},{"name":"헤어발란스","tel":"031-794-4320","addr":"경기도 하남시 망월동 870-1번지 1층","category":"보건위생 - 미용원"}]},{"lat":"37.562146246","long":"127.19089957","items":[{"name":"더마렛공방 미사점","tel":"","addr":"경기도 하남시 망월동 1105번지 해링턴타워레이크파크 2층 213호","category":"문화.취미 - 문화취미기타"},{"name":"돈까스클럽","tel":"031-793-5982","addr":"경기도 하남시 망월동 1105번지 207호,208호,209호,210호,211호","category":"일반휴게음식 - 일반한식"},{"name":"명품빨강오뎅","tel":"070-7817-1117","addr":"경기도 하남시 망월동 1105번지 해링턴타워레이크파크 1층 119호","category":"일반휴게음식 - 스넥"},{"name":"미니스톱 미사해링턴점","tel":"031-1577-9621","addr":"경기도 하남시 망월동 1105번지 해링턴타워레이크파크 101호","category":"유통업 영리 - 편 의 점"},{"name":"살롱 드 솔(Salon de Sol)","tel":"","addr":"경기도 하남시 망월동 1105번지 해링턴타워레이크파크 3층 306호","category":"보건위생 - 미용원"},{"name":"아이스크림 할인매장","tel":"","addr":"경기도 하남시 망월동 1105번지 해링턴타워레이크파크 109호","category":"음료식품 - 기타음료식품"},{"name":"파미에","tel":"","addr":"경기도 하남시 망월동 1105번지 해링턴타워 레이크파크 2층 216,217호","category":"일반휴게음식 - 서양음식"},{"name":"한국통닭 미사중앙점","tel":"02-1111-1111","addr":"경기도 하남시 망월동 1105번지 해링턴타워레이크파크 121호","category":"일반휴게음식 - 스넥"}]},{"lat":"37.575093495","long":"127.19080759","items":[{"name":"더베이커 시티","tel":"031-762-1358","addr":"경기도 하남시 망월동 866-2번지 1층","category":"일반휴게음식 - 서양음식"},{"name":"셀러파트너","tel":"","addr":"경기도 하남시 망월동 866-2번지 수란가옥 401호","category":"용역 서비스 - 종합용역"},{"name":"아빠마음사진관","tel":"031-795-4795","addr":"경기도 하남시 망월동 866-2번지 수란가옥 지하 101호","category":"광학제품 - 사진관"}]},{"lat":"37.560595225","long":"127.1917332","items":[{"name":"더오른수학교습소","tel":"","addr":"경기도 하남시 망월동 1119-1번지 르보아파크2 419호","category":"학원 - 보습학원"},{"name":"맛닭꼬","tel":"031-796-9252","addr":"경기도 하남시 망월동 1119-1번지 르보아파크2 1층 111호","category":"일반휴게음식 - 스넥"},{"name":"서가네기절닭발","tel":"031-791-1357","addr":"경기도 하남시 망월동 1119-1번지 르보아파크2 2층 218호","category":"일반휴게음식 - 일반한식"},{"name":"씨유미사르보아파크점","tel":"02-1577-8007","addr":"경기도 하남시 망월동 1119-1번지 르보아파크II 106호","category":"유통업 영리 - 편 의 점"},{"name":"커피베이 미사역중앙호수공원점","tel":"031-795-2713","addr":"경기도 하남시 망월동 1119-1번지 르보아파크II 1층 127호","category":"일반휴게음식 - 서양음식"},{"name":"프리파라프리미엄키즈카페/주식회사 에이치","tel":"031-318-1860","addr":"경기도 하남시 망월동 1119-1번지 2층 227-234호","category":"레저업소 - 기타레져업소"}]},{"lat":"37.575178218","long":"127.18850982","items":[{"name":"더코너(THE CORNER)","tel":"070-5030-4893","addr":"경기도 하남시 망월동 841-5번지 1층","category":"일반휴게음식 - 서양음식"},{"name":"킴보 하남점","tel":"031-794-1884","addr":"경기도 하남시 망월동 841-5번지 1층","category":"일반휴게음식 - 서양음식"}]},{"lat":"37.559371451","long":"127.20175764","items":[{"name":"덱스크루 하남점","tel":"031-792-2533","addr":"경기도 하남시 망월동 1203-2번지 1층","category":"자동차정비 유지 - 자동차부품"}]},{"lat":"37.565672601","long":"127.18867865","items":[{"name":"도어 투더 테라스(door to the terrace)","tel":"","addr":"경기도 하남시 망월동 1077-3번지 미사호수의아침 3층 306호","category":"일반휴게음식 - 서양음식"},{"name":"독도왕새우튀김 (미사역점)","tel":"031-792-7944","addr":"경기도 하남시 망월동 1077-3번지 미사호수의아침 111호","category":"일반휴게음식 - 일반한식"},{"name":"뚱이순대국미사점","tel":"031-000-0000","addr":"경기도 하남시 망월동 1077-3번지 미사호수의아침 1층 113호","category":"일반휴게음식 - 일반한식"},{"name":"리빌트헤어즌","tel":"031-796-5595","addr":"경기도 하남시 망월동 1077-3번지 미사호수의아침 203호","category":"보건위생 - 미용원"},{"name":"밀크독","tel":"031-792-5956","addr":"경기도 하남시 망월동 1077-3번지 미사호수의아침 305호","category":"문화.취미 - 애완동물"},{"name":"블럭제빵소 하남미사점","tel":"031-795-8868","addr":"경기도 하남시 망월동 1077-3번지 미사호수의아침 102호","category":"음료식품 - 제과점"},{"name":"설빙","tel":"031-794-9214","addr":"경기도 하남시 망월동 1077-3번지 미사호수의아침","category":"일반휴게음식 - 서양음식"},{"name":"소양간 미사본점/주식회사 에스엠디코퍼레","tel":"031-000-0000","addr":"경기도 하남시 망월동 1077-3번지 미사호수의아침 112호","category":"일반휴게음식 - 일반한식"},{"name":"쉼(Counceling Cafe)","tel":"031-793-1320","addr":"경기도 하남시 망월동 1077-3번지 미사호수의아침 3층 304호","category":"일반휴게음식 - 서양음식"},{"name":"시디즈 하남점","tel":"031-796-2325","addr":"경기도 하남시 망월동 1077-3번지 미사호수의아침 3층 303호","category":"가구 - 일반가구"},{"name":"신천장원보쌈족발","tel":"031-796-6692","addr":"경기도 하남시 망월동 1077-3번지 미사호수의아침 1층 104호","category":"일반휴게음식 - 일반한식"},{"name":"옛날참숯왕소금구이(2호점)","tel":"031-794-7475","addr":"경기도 하남시 망월동 1077-3번지 108호,109호","category":"일반휴게음식 - 일반한식"},{"name":"왓포","tel":"031-111-1111","addr":"경기도 하남시 망월동 1077-3번지 미사호수의아침 302호","category":"보건위생 - 화장품"},{"name":"이가원","tel":"031-792-0567","addr":"경기도 하남시 망월동 1077-3번지 2층 201호,202호","category":"일반휴게음식 - 일반한식"},{"name":"잔월 하남미사점","tel":"031-791-5359","addr":"경기도 하남시 망월동 1077-3번지","category":"일반휴게음식 - 주점"},{"name":"제이케이 (J.K)통상","tel":"031-9491-5535","addr":"경기도 하남시 망월동 1077-3번지 107호 B107호","category":"보건위생 - 미용재료"},{"name":"카페 미스터리","tel":"031-791-0099","addr":"경기도 하남시 망월동 1077-3번지 미사호수의 아침 110,205호","category":"일반휴게음식 - 서양음식"},{"name":"컴포즈커피이사중앙점","tel":"031-795-2046","addr":"경기도 하남시 망월동 1077-3번지 호수의아침 1층 101호","category":"일반휴게음식 - 서양음식"}]},{"lat":"37.575235208","long":"127.19233617","items":[{"name":"독도쭈꾸미","tel":"031-795-7186","addr":"경기도 하남시 망월동 874-4번지 1층","category":"일반휴게음식 - 일반한식"},{"name":"포터리 힘즈","tel":"","addr":"경기도 하남시 망월동 874-4번지 주건축물 1동 지1층","category":"문화.취미 - 문화취미기타"}]},{"lat":"37.575561606","long":"127.19105782","items":[{"name":"돌삼닭 하남점","tel":"031-792-2604","addr":"경기도 하남시 망월동 864-1번지 1층 101호","category":"일반휴게음식 - 일반한식"}]},{"lat":"37.575533999","long":"127.19141999","items":[{"name":"두남자스팀","tel":"","addr":"경기도 하남시 망월동 864-3번지 1층 101호","category":"자동차정비 유지 - 세차장"},{"name":"카페비니(cate bini)","tel":"031-794-2544","addr":"경기도 하남시 망월동 864-3번지 101호","category":"일반휴게음식 - 서양음식"}]},{"lat":"37.559454136","long":"127.20080717","items":[{"name":"등대수산","tel":"02-503-4345","addr":"경기도 하남시 망월동 14-5","category":"음료식품 - 농·축·수산품"},{"name":"에스크랩유통","tel":"031-796-0330","addr":"경기도 하남시 망월동 14-5번지","category":"음료식품 - 농·축·수산품"}]},{"lat":"37.562508237","long":"127.18989316","items":[{"name":"디저트39 하남미사역점","tel":"031-795-4639","addr":"경기도 하남시 망월동 1098-3번지 2층 더퍼스트테라스 210호","category":"일반휴게음식 - 서양음식"},{"name":"라미향마라탕","tel":"031-792-9196","addr":"경기도 하남시 망월동 1098-3번지 더퍼스트테라스 2층 201호","category":"일반휴게음식 - 중국식"},{"name":"메리엘(MERIEL)","tel":"02-1234-1234","addr":"경기도 하남시 망월동 1098-3번지 미사강변도시근상2-4블럭 더퍼스트테라스 105호","category":"의류 - 정장"},{"name":"보노","tel":"031-791-2825","addr":"경기도 하남시 망월동 1098-3번지 2층 218,219호","category":"일반휴게음식 - 서양음식"},{"name":"인바이트","tel":"","addr":"경기도 하남시 망월동 1098-3번지 2층 220호","category":"일반휴게음식 - 일반한식"},{"name":"티앙웨이 하남미사역점","tel":"031-791-0403","addr":"경기도 하남시 망월동 1098-3번지 1층 111호","category":"일반휴게음식 - 서양음식"},{"name":"펀비어킹","tel":"","addr":"경기도 하남시 망월동 1098-3번지 1층 121~123호","category":"일반휴게음식 - 일반한식"},{"name":"헤어살롱나루 미사테라스점","tel":"031-792-6618","addr":"경기도 하남시 망월동 1098-3번지 더퍼스트테라스 3층 301호","category":"보건위생 - 미용원"}]},{"lat":"37.574788385","long":"127.19003706","items":[{"name":"땅끝굴마을","tel":"02-793-9289","addr":"경기도 하남시 망월동 870-4번지 1층","category":"일반휴게음식 - 일반한식"}]},{"lat":"37.575758845","long":"127.1916696","items":[{"name":"또봉이통닭 미사점","tel":"031-796-5992","addr":"경기도 하남시 망월동 859-5번지 1층","category":"일반휴게음식 - 스넥"},{"name":"쓰나미퓨전호프","tel":"031-792-7305","addr":"경기도 하남시 망월동 859-5번지 1층","category":"일반휴게음식 - 주점"}]},{"lat":"37.5749575","long":"127.1913393","items":[{"name":"라떼킹","tel":"070-4351-1237","addr":"경기도 하남시 망월동 872-4번지 1층","category":"일반휴게음식 - 서양음식"}]},{"lat":"37.576401546","long":"127.18978073","items":[{"name":"라롭","tel":"","addr":"경기도 하남시 망월동 839번지","category":"의류 - 아동의류"}]},{"lat":"37.576255051","long":"127.19125201","items":[{"name":"라비앙","tel":"031-792-6106","addr":"경기도 하남시 망월동 855-1번지 1층 103호","category":"일반휴게음식 - 서양음식"}]},{"lat":"37.569511999","long":"127.1935668","items":[{"name":"러스터","tel":"031-794-4458","addr":"경기도 하남시 망월동 930-5번지","category":"자동차정비 유지 - 자동차부품"}]},{"lat":"37.568482895","long":"127.18336564","items":[{"name":"로이식당","tel":"031-794-0701","addr":"경기도 하남시 망월동 1000-7번지 1층","category":"일반휴게음식 - 일식·회집"}]},{"lat":"37.569954535","long":"127.18136566","items":[{"name":"루다","tel":"031-6275-9244","addr":"경기도 하남시 망월동 1018-11번지 1층 101호","category":"의류 - 정장"},{"name":"사심i","tel":"","addr":"경기도 하남시 망월동 1018-11번지 1층 101호","category":"일반휴게음식 - 일식·회집"}]},{"lat":"37.560429424","long":"127.19947423","items":[{"name":"리앙빈 강남지점","tel":"070-7534-5422","addr":"경기도 하남시 망월동 1186-3번지 302호","category":"주방용구 - 주방용구"},{"name":"미트-앤 (Meat-N)","tel":"","addr":"경기도 하남시 망월동 1186-3번지 1층 101호","category":"음료식품 - 정육점"}]},{"lat":"37.569089361","long":"127.19305635","items":[{"name":"리얼푸드","tel":"031-795-9727","addr":"경기도 하남시 망월동 916-4번지 102호","category":"일반휴게음식 - 일반한식"}]},{"lat":"37.570702142","long":"127.18150328","items":[{"name":"리테일 쿡","tel":"031-776-4991","addr":"경기도 하남시 망월동 1015-7번지 상가 1층 2호","category":"음료식품 - 기타음료식품"},{"name":"아기숟가락 하남점","tel":"031-796-2610","addr":"경기도 하남시 망월동 1015-7번지 1층","category":"일반휴게음식 - 일반한식"}]},{"lat":"37.56890254","long":"127.18584555","items":[{"name":"리틀스타즈아카데미","tel":"031-793-0556","addr":"경기도 하남시 망월동 976-5번지 라임프라자 401호 ,402,403호","category":"학원 - 외국어학원"},{"name":"마중물 언어심리센터","tel":"031-794-7975","addr":"경기도 하남시 망월동 976-5번지 라임프라자 301호","category":"보건위생 - 기타대인서비스"},{"name":"미사 로보마","tel":"031-794-8808","addr":"경기도 하남시 망월동 976-5번지 라임프라자","category":"레저업소 - 기타레져업소"},{"name":"써니클래식 필라테스","tel":"031-791-6485","addr":"경기도 하남시 망월동 976-5번지 라임프라자 304호","category":"레저업소 - 헬스클럽"},{"name":"안나블레스헤어 앤 메이크업","tel":"070-8150-9638","addr":"경기도 하남시 망월동 976-5번지 라임프라자 303호","category":"보건위생 - 미용원"},{"name":"오르다샘앤클래스미사학원","tel":"031-795-3445","addr":"경기도 하남시 망월동 976-5번지 라임프라자 302호","category":"학원 - 기타 교육기관"},{"name":"차오차오 미사 2동점","tel":"031-791-0038","addr":"경기도 하남시 망월동 976-5번지 라임프라자 2층 201호","category":"일반휴게음식 - 중국식"}]},{"lat":"37.559704774","long":"127.20178116","items":[{"name":"맛있는집밥","tel":"031-791-3998","addr":"경기도 하남시 망월동 1202-3번지 스탠다드하우스 1층 102호","category":"일반휴게음식 - 일반한식"}]},{"lat":"37.574843465","long":"127.18939195","items":[{"name":"맥쓰(MEXX)세계치킨 하남미사 한강점","tel":"031-794-7210","addr":"경기도 하남시 망월동 870번지 1층 101호","category":"일반휴게음식 - 스넥"}]},{"lat":"37.560455567","long":"127.20000625","items":[{"name":"맥주고래","tel":"","addr":"경기도 하남시 망월동 1190-7번지 1층","category":"일반휴게음식 - 일반한식"}]},{"lat":"37.566537808","long":"127.18851102","items":[{"name":"머거봐","tel":"","addr":"경기도 하남시 망월동 1077번지 센트럴파크1 105호","category":"일반휴게음식 - 스넥"},{"name":"미사동물병원","tel":"031-796-7179","addr":"경기도 하남시 망월동 1077번지 센트럴파크1 203호","category":"기타의료기관 - 동물병원"},{"name":"베이프로 하남미사점","tel":"031-793-9570","addr":"경기도 하남시 망월동 1077번지 센트럴파크1 107호","category":"기타 - 기타 전문점"},{"name":"쏘닭발맛있는집","tel":"02-481-5592","addr":"경기도 하남시 망월동 1077번지 센트럴파크1 1층 1115호","category":"일반휴게음식 - 일반한식"},{"name":"에그드랍 미사점","tel":"","addr":"경기도 하남시 망월동 1077번지 센트럴파크1 102호","category":"일반휴게음식 - 서양음식"},{"name":"천호독도쭈꾸미","tel":"03-111-1111","addr":"경기도 하남시 망월동 1077번지 센트럴파크1 111호","category":"일반휴게음식 - 일반한식"},{"name":"치어스","tel":"031-796-4508","addr":"경기도 하남시 망월동 1077번지 센트럴파크1 1,2층 114호,207호,208호","category":"일반휴게음식 - 일반한식"},{"name":"코코호도 미사강변점","tel":"031-794-4749","addr":"경기도 하남시 망월동 1077번지 센트럴파크1 1층 108호","category":"음료식품 - 제과점"},{"name":"타이지엔(미사점)","tel":"031-795-4272","addr":"경기도 하남시 망월동 1077번지 센트럴파크1 1층 103호","category":"일반휴게음식 - 서양음식"},{"name":"투썸플레이스 미사호수공원점","tel":"031-792-4567","addr":"경기도 하남시 망월동 1077번지 센트럴파크1 109호 204호","category":"일반휴게음식 - 서양음식"}]},{"lat":"37.569458616","long":"127.19314785","items":[{"name":"메리숲","tel":"031-792-9588","addr":"경기도 하남시 망월동 930-7번지 애월당 1층 102호","category":"직물 - 침구·수예점"},{"name":"투존치킨 미사점","tel":"031-793-4789","addr":"경기도 하남시 망월동 930-7번지 1층","category":"일반휴게음식 - 스넥"}]},{"lat":"37.575564515","long":"127.18922395","items":[{"name":"멕시카나 하남미사점","tel":"031-791-1888","addr":"경기도 하남시 망월동 845번지","category":"일반휴게음식 - 스넥"},{"name":"팡스","tel":"031-3505-2220","addr":"경기도 하남시 망월동 845번지 1층 102호","category":"음료식품 - 제과점"}]},{"lat":"37.565428213","long":"127.18939112","items":[{"name":"멘토세무회계컨설팅","tel":"031-8027-8807","addr":"경기도 하남시 망월동 1083-1번지 안강프라이빗뷰 802호","category":"용역 서비스 - 법률회계서비스(개인)"},{"name":"베풀장어 미사강변점","tel":"032-000-0000","addr":"경기도 하남시 망월동 1083-1번지 미사강변안강프라이빗뷰 1층 101호","category":"일반휴게음식 - 일반한식"},{"name":"살롱HM","tel":"031-794-5579","addr":"경기도 하남시 망월동 1083-1번지 미사강변안강프라이빗뷰 1층 106호","category":"보건위생 - 미용원"},{"name":"싱크퓨어","tel":"031-1688-3441","addr":"경기도 하남시 망월동 1083-1번지 미사강변안강프라이빗뷰 208호","category":"전기제품 - 가전제품"},{"name":"아뜨레","tel":"031-000-0000","addr":"경기도 하남시 망월동 1083-1번지 미사강변안강프라이빗뷰 3층 307호","category":"보건위생 - 미용원"},{"name":"아이엘 스튜디오","tel":"","addr":"경기도 하남시 망월동 1083-1번지 미사강변안강프라이빗뷰 207호","category":"보건위생 - 미용재료"},{"name":"주식회사 메드사피엔스","tel":"031-8018-2268","addr":"경기도 하남시 망월동 1083-1번지 미사강변안강프라이빗뷰 1301호","category":"전기제품 - 가전제품"},{"name":"하모니방문요양센터미사점","tel":"031-795-9088","addr":"경기도 하남시 망월동 1083-1번지 미사강변안강프라이빗뷰 801호","category":"기타의료기관 - 기타의료기관 및 기타"},{"name":"하윤수한의원","tel":"031-796-4348","addr":"경기도 하남시 망월동 1083-1번지 미사강변안강프라이빗뷰 303호","category":"의원 - 한의원"},{"name":"해피아쿠아","tel":"","addr":"경기도 하남시 망월동 1083-1번지 미사강변안강프라이빗뷰 2층 206호","category":"문화.취미 - 수족관"},{"name":"햇살품은 파스타","tel":"","addr":"경기도 하남시 망월동 1083-1번지 미사강변안강프라이빗뷰 2층 204호","category":"일반휴게음식 - 서양음식"}]},{"lat":"37.575731942","long":"127.19159029","items":[{"name":"모두의 만족","tel":"031-791-7723","addr":"경기도 하남시 망월동 859-6번지 1층 102호","category":"일반휴게음식 - 일반한식"}]},{"lat":"37.568620123","long":"127.19350793","items":[{"name":"모비원","tel":"031-528-6263","addr":"경기도 하남시 망월동 920번지 1층 104호","category":"자동차정비 유지 - 자동차부품"},{"name":"치킨욜로 미사점","tel":"031-791-9288","addr":"경기도 하남시 망월동 920번지 1층","category":"일반휴게음식 - 스넥"}]},{"lat":"37.568844434","long":"127.19408578","items":[{"name":"모터엑스 하남미사직영점","tel":"","addr":"경기도 하남시 망월동 920-4번지 101호, 102호","category":"자동차정비 유지 - 카인테리어"},{"name":"풍년식당","tel":"031-572-4242","addr":"경기도 하남시 망월동 920-4 번지","category":"일반휴게음식 - 일반한식"}]},{"lat":"37.567874096","long":"127.18081738","items":[{"name":"목동유쌤영어","tel":"070-4898-8454","addr":"경기도 하남시 망월동 1034번지 미사강변루나리움 509동 1602호","category":"학원 - 기타 교육기관"},{"name":"뮤엠영어 미사강변루나리움점","tel":"031-792-3553","addr":"경기도 하남시 망월동 1034번지 미사강변루나리움 501동 104호","category":"학원 - 기타 교육기관"},{"name":"미사강변5단지아파트입주자대표회의","tel":"031-796-1496","addr":"경기도 하남시 망월동 1034번지 미사강변루나리움","category":"자동차정비 유지 - 주차장"},{"name":"스타일G헤어스튜디오","tel":"070-8869-6999","addr":"경기도 하남시 망월동 1034번지 미사강변 루나리움 상가동 202호","category":"보건위생 - 미용원"},{"name":"씨유미사루나리움점","tel":"080-080-3663","addr":"경기도 하남시 망월동 1034번지 미사강변 루나리움 105호","category":"유통업 영리 - 편 의 점"},{"name":"아소비","tel":"","addr":"경기도 하남시 망월동 1034번지 미사강변루나리움 507동 703호","category":"학원 - 기타 교육기관"},{"name":"한가람어린이집[아이행복]","tel":"02-796-0367","addr":"경기도 하남시 망월동 1034번지 미사5블럭관리동","category":"학원 - 유아원"},{"name":"헤어S","tel":"031-794-4764","addr":"경기도 하남시 망월동 1034번지 미사강변도시5단지근린상가 203호","category":"보건위생 - 미용원"},{"name":"홈잉글리쉬 공부방","tel":"031-1111-1111","addr":"경기도 하남시 망월동 1034번지 미사강변루나리움 504동 303호","category":"학원 - 기타 교육기관"}]},{"lat":"37.562403301","long":"127.19353736","items":[{"name":"무봉리토종순대국(미사점)","tel":"031-793-8849","addr":"경기도 하남시 망월동 1131번지 서건미사메트로타워 2층 206호-208호","category":"일반휴게음식 - 일반한식"},{"name":"백현치과의원","tel":"031-794-7528","addr":"경기도 하남시 망월동 1131번지 서건미사메트로타워 501동 506호","category":"의원 - 치과의원"}]},{"lat":"37.574815163","long":"127.19019561","items":[{"name":"문 코스메틱","tel":"031-794-1906","addr":"경기도 하남시 망월동 870-5번지 302호","category":"보건위생 - 미용재료"},{"name":"황제푸드","tel":"031-753-6001","addr":"경기도 하남시 망월동 870-5번지","category":"일반휴게음식 - 일반한식"}]},{"lat":"37.574980003","long":"127.18850933","items":[{"name":"미니스톱미사골드점","tel":"031-1577-9621","addr":"경기도 하남시 망월동 868-1번지 1층","category":"유통업 영리 - 편 의 점"}]},{"lat":"37.569513076","long":"127.19289896","items":[{"name":"미니스톱하남미사점","tel":"031-1577-9621","addr":"경기도 하남시 망월동 916-1번지","category":"유통업 영리 - 편 의 점"}]},{"lat":"37.575734859","long":"127.18975643","items":[{"name":"미니펍미사강변점","tel":"031-795-6670","addr":"경기도 하남시 망월동 847-2번지 101호","category":"일반휴게음식 - 서양음식"},{"name":"장가계헤어","tel":"","addr":"경기도 하남시 망월동 847-2번지 1층 103호","category":"보건위생 - 미용원"},{"name":"제이하우스 제이공방","tel":"","addr":"경기도 하남시 망월동 847-2번지 102호","category":"문화.취미 - 문화취미기타"}]},{"lat":"37.571152082","long":"127.18186658","items":[{"name":"미드나잇","tel":"","addr":"경기도 하남시 망월동 1010-9번지 201호","category":"신변잡화 - 기타잡화"},{"name":"섬마을도야지","tel":"031-792-9474","addr":"경기도 하남시 망월동 1010-9번지 1층","category":"일반휴게음식 - 일반한식"}]},{"lat":"37.56448138","long":"127.18989809","items":[{"name":"미라클 독","tel":"","addr":"경기도 하남시 망월동 1094번지 E편한세상시티미사 3층 302-1호","category":"문화.취미 - 애완동물"},{"name":"씨유미사이편한점","tel":"02-1577-8007","addr":"경기도 하남시 망월동 1094번지 e편한세상 시티 미사 129호","category":"유통업 영리 - 편 의 점"},{"name":"엘리헤어","tel":"031-796-1200","addr":"경기도 하남시 망월동 1094번지 E편한세상시티미사 2층 212-2호","category":"보건위생 - 미용원"},{"name":"우리전수","tel":"","addr":"경기도 하남시 망월동 1094번지 3층 303-1호","category":"용역 서비스 - 사무서비스"}]},{"lat":"37.568926693","long":"127.19336156","items":[{"name":"미미돈","tel":"031-792-4410","addr":"경기도 하남시 망월동 922-2번지 103호","category":"일반휴게음식 - 일반한식"},{"name":"제주안방갈비","tel":"031-793-9223","addr":"경기도 하남시 망월동 922-2번지 1층 102호","category":"일반휴게음식 - 일반한식"}]},{"lat":"37.569483655","long":"127.1829266","items":[{"name":"미사 SEED GYROTONIC CENTER","tel":"","addr":"경기도 하남시 망월동 1004번지 201호","category":"보건위생 - 기타대인서비스"},{"name":"블레스롤 하남미사점","tel":"031-795-7298","addr":"경기도 하남시 망월동 1004번지 1층","category":"일반휴게음식 - 서양음식"}]},{"lat":"37.571260285","long":"127.18181024","items":[{"name":"미사 다나을 동물병원","tel":"031-8027-3999","addr":"경기도 하남시 망월동 1010-10번지","category":"기타의료기관 - 동물병원"}]},{"lat":"37.566153469","long":"127.19778014","items":[{"name":"미사강변 요양병원","tel":"031-8028-5577","addr":"경기도 하남시 망월동 1147번지 트레비타워 4-8층","category":"병원 - 병원"},{"name":"하남전시장/(주)유에스베드","tel":"031-876-2863","addr":"경기도 하남시 망월동 1147번지 트레비타워 2층","category":"가구 - 일반가구"}]},{"lat":"37.568346847","long":"127.1839539","items":[{"name":"미사강변검도관","tel":"031-795-8070","addr":"경기도 하남시 망월동 997-2번지 지하층","category":"학원 - 예·체능계학원"}]},{"lat":"37.560065571","long":"127.19611188","items":[{"name":"미사강변도시28단지아파트","tel":"031-793-7740","addr":"경기도 하남시 망월동 1162번지 미사강변도시28단지","category":"용역 서비스 - 종합용역"},{"name":"뷰티헤어","tel":"031-793-9355","addr":"경기도 하남시 망월동 1162번지 미사강변도시28단지상가동 2층201-1호","category":"보건위생 - 미용원"},{"name":"씨유미사강변도시점","tel":"080-080-3663","addr":"경기도 하남시 망월동 1162번지 미사강변 골든 센트로(GOLDEN CENTRO) 상가동 101호","category":"유통업 영리 - 편 의 점"},{"name":"큰나무어린이집[아이행복]","tel":"031-795-4962","addr":"경기도 하남시 망월동 1162번지 미사강변도시A28블럭관리동","category":"학원 - 유아원"},{"name":"힘찬태권도","tel":"031-791-9977","addr":"경기도 하남시 망월동 1162번지 미사강변도시28단지 상가동 202호","category":"학원 - 예·체능계학원"}]},{"lat":"37.568815824","long":"127.18364942","items":[{"name":"미사구르메","tel":"02-1111-1111","addr":"경기도 하남시 망월동 994-2번지 101호","category":"일반휴게음식 - 주점"}]},{"lat":"37.568482133","long":"127.18386368","items":[{"name":"미사늘봄동물병원","tel":"031-793-8875","addr":"경기도 하남시 망월동 997-1번지 상가 1층","category":"기타의료기관 - 동물병원"}]},{"lat":"37.575122589","long":"127.18950585","items":[{"name":"미사마이펫동물병원","tel":"031-795-7590","addr":"경기도 하남시 망월동 843-16번지 1동","category":"기타의료기관 - 동물병원"},{"name":"유은자 참숯과 닭발 미사점","tel":"","addr":"경기도 하남시 망월동 843-16번지 1층","category":"일반휴게음식 - 일반한식"}]},{"lat":"37.569539331","long":"127.18186272","items":[{"name":"미사생고기","tel":"031-794-4492","addr":"경기도 하남시 망월동 1022-7번지 1층","category":"음료식품 - 정육점"}]},{"lat":"37.559706827","long":"127.20055885","items":[{"name":"미사실내포차","tel":"","addr":"경기도 하남시 망월동 1196-8번지 1층 101호","category":"일반휴게음식 - 주점"}]},{"lat":"37.570954587","long":"127.18139069","items":[{"name":"미사에이비씨해법영어교실","tel":"031-796-0544","addr":"경기도 하남시 망월동 1015-9번지 102호","category":"학원 - 외국어학원"},{"name":"스윗베리","tel":"031-791-8051","addr":"경기도 하남시 망월동 1015-9번지 1층 101호","category":"의류 - 정장"},{"name":"율스베베 Yul's BeBe","tel":"","addr":"경기도 하남시 망월동 1015-9번지 1층 101호","category":"의류 - 아동의류"}]},{"lat":"37.55878885","long":"127.19994527","items":[{"name":"미사자동덮개","tel":"031-791-0999","addr":"경기도 하남시 망월동 16-3","category":"기타 - 기타 전문점"}]},{"lat":"37.57573225","long":"127.19139785","items":[{"name":"미사차이나","tel":"02-791-8898","addr":"경기도 하남시 망월동 859-7번지 1층","category":"일반휴게음식 - 중국식"}]},{"lat":"37.576338029","long":"127.19006358","items":[{"name":"미사회뜨는집","tel":"031-791-1477","addr":"경기도 하남시 망월동 853번지 101호","category":"음료식품 - 농·축·수산품"}]},{"lat":"37.561620182","long":"127.19859455","items":[{"name":"미소나눔광고","tel":"031-791-0245","addr":"경기도 하남시 망월동 36-1","category":"용역 서비스 - 종합용역"}]},{"lat":"37.575786579","long":"127.19122818","items":[{"name":"미소정육점","tel":"031-793-4465","addr":"경기도 하남시 망월동 859-8번지","category":"음료식품 - 정육점"},{"name":"반찬마루","tel":"031-793-0989","addr":"경기도 하남시 망월동 859-8번지 1층","category":"음료식품 - 기타음료식품"},{"name":"이차집","tel":"031-791-1992","addr":"경기도 하남시 망월동 859-8번지 1층","category":"일반휴게음식 - 일반한식"}]},{"lat":"37.575067778","long":"127.18998116","items":[{"name":"미스터앤미세스멍 하남점","tel":"031-793-8087","addr":"경기도 하남시 망월동 843-13번지 1층 102호","category":"문화.취미 - 애완동물"},{"name":"펫티끄(PETIQUE)","tel":"","addr":"경기도 하남시 망월동 843-13번지 1층 101호","category":"문화.취미 - 애완동물"}]},{"lat":"37.575977764","long":"127.18998344","items":[{"name":"바나개","tel":"031-791-2289","addr":"경기도 하남시 망월동 849-4번지 1층","category":"문화.취미 - 애완동물"}]},{"lat":"37.563314584","long":"127.19825943","items":[{"name":"바다수산","tel":"031-795-3277","addr":"경기도 하남시 망월동 131-10","category":"음료식품 - 농·축·수산품"}]},{"lat":"37.563929042","long":"127.19717447","items":[{"name":"바다수산","tel":"031-795-0547","addr":"경기도 하남시 망월동 145-22","category":"음료식품 - 농·축·수산품"}]},{"lat":"37.569233645","long":"127.19297749","items":[{"name":"바른치킨 미사강변파밀리에","tel":"031-793-8277","addr":"경기도 하남시 망월동 916-3번지 102호","category":"일반휴게음식 - 스넥"}]},{"lat":"37.56945778","long":"127.18216815","items":[{"name":"바얼리반","tel":"031-793-7859","addr":"경기도 하남시 망월동 1022-9번지","category":"일반휴게음식 - 서양음식"}]},{"lat":"37.569844922","long":"127.19383931","items":[{"name":"바이크 수리센타","tel":"","addr":"경기도 하남시 망월동 932번지 프랑프랑 102호","category":"수리서비스 - 레져용품수리"},{"name":"본스치킨 하남미사점","tel":"031-792-5092","addr":"경기도 하남시 망월동 932번지 프랑프랑 101호","category":"일반휴게음식 - 스넥"},{"name":"하회탈 국수마당","tel":"031-793-3369","addr":"경기도 하남시 망월동 932번지 1층","category":"일반휴게음식 - 스넥"}]},{"lat":"37.559762323","long":"127.19969884","items":[{"name":"바이크스패너","tel":"031-111-1111","addr":"경기도 하남시 망월동 1189-1번지 101호","category":"레져용품 - 스포츠·레져용품"}]},{"lat":"37.568701668","long":"127.19322516","items":[{"name":"바질12","tel":"","addr":"경기도 하남시 망월동 916-6번지 1층","category":"일반휴게음식 - 서양음식"}]},{"lat":"37.574895099","long":"127.1909203","items":[{"name":"반한네일","tel":"070-8031-4038","addr":"경기도 하남시 망월동 872-1번지 1층 101호","category":"보건위생 - 피부미용실"}]},{"lat":"37.58040039","long":"127.19073036","items":[{"name":"백제주유소","tel":"031-791-0500","addr":"경기도 하남시 망월동 333-12번지","category":"연료판매점 - 현대정유(오일뱅크)"}]},{"lat":"37.569592337","long":"127.19403109","items":[{"name":"버터앤드","tel":"","addr":"경기도 하남시 망월동 932-7번지 101호","category":"음료식품 - 제과점"}]},{"lat":"37.569484036","long":"127.19414401","items":[{"name":"베테랑짬뽕","tel":"031-791-7555","addr":"경기도 하남시 망월동 926-5번지 101호","category":"일반휴게음식 - 중국식"}]},{"lat":"37.575065039","long":"127.19170181","items":[{"name":"보물섬","tel":"031-795-3590","addr":"경기도 하남시 망월동 874번지","category":"일반휴게음식 - 스넥"}]},{"lat":"37.560590335","long":"127.20023296","items":[{"name":"보정골","tel":"031-1111-1111","addr":"경기도 하남시 망월동 1191번지","category":"일반휴게음식 - 일반한식"}]},{"lat":"37.576037695","long":"127.19195331","items":[{"name":"봉수아피자(미사점)","tel":"031-794-6226","addr":"경기도 하남시 망월동 855-6번지 1층","category":"일반휴게음식 - 서양음식"},{"name":"이레위드","tel":"","addr":"경기도 하남시 망월동 855-6번지 104호","category":"신변잡화 - 가방"},{"name":"토우로우","tel":"070-8254-2411","addr":"경기도 하남시 망월동 855-6번지 104호","category":"가구 - 기타가구"}]},{"lat":"37.569818205","long":"127.18214637","items":[{"name":"북촌 순두부","tel":"031-794-9732","addr":"경기도 하남시 망월동 1020-3번지 1층","category":"일반휴게음식 - 일반한식"}]},{"lat":"37.575734016","long":"127.19028847","items":[{"name":"브룩스버거앤비어","tel":"031-699-3317","addr":"경기도 하남시 망월동 847-5번지 1충 101호","category":"일반휴게음식 - 서양음식"}]},{"lat":"37.559265537","long":"127.2004445","items":[{"name":"블랭킷","tel":"","addr":"경기도 하남시 망월동 1199번지 101호","category":"일반휴게음식 - 서양음식"}]},{"lat":"37.571566618","long":"127.18181097","items":[{"name":"블루가이","tel":"031-792-1435","addr":"경기도 하남시 망월동 1012-1번지 1층 101호","category":"보건위생 - 미용원"},{"name":"제사떡","tel":"031-796-4417","addr":"경기도 하남시 망월동 1012-1번지","category":"음료식품 - 제과점"},{"name":"푸아네일","tel":"031-791-7916","addr":"경기도 하남시 망월동 1012-1번지 102-1호","category":"보건위생 - 화장품"},{"name":"홍","tel":"031-795-8615","addr":"경기도 하남시 망월동 1012-1번지 103호","category":"일반휴게음식 - 중국식"}]},{"lat":"37.559293342","long":"127.19998055","items":[{"name":"비법9","tel":"031-794-9944","addr":"경기도 하남시 망월동 1196-12번지 202호","category":"학원 - 기타 교육기관"},{"name":"크린토피아 코인워시 하남미사중학교점","tel":"031-792-8303","addr":"경기도 하남시 망월동 1196-12번지 102호","category":"수리서비스 - 세탁소"}]},{"lat":"37.561123498","long":"127.19928365","items":[{"name":"빛고을수산","tel":"031-795-5475","addr":"경기도 하남시 망월동 35-12","category":"음료식품 - 농·축·수산품"},{"name":"청보리수산","tel":"031-791-0313","addr":"경기도 하남시 망월동 35-12","category":"음료식품 - 농·축·수산품"}]},{"lat":"37.559843957","long":"127.19937084","items":[{"name":"사르르 아이스크림 할인점","tel":"070-997-9970","addr":"경기도 하남시 망월동 1188-7번지 상가 101호","category":"음료식품 - 기타음료식품"}]},{"lat":"37.574897863","long":"127.18917701","items":[{"name":"사찌","tel":"031-792-8081","addr":"경기도 하남시 망월동 868-5번지 1층","category":"일반휴게음식 - 일반한식"}]},{"lat":"37.570727643","long":"127.18251077","items":[{"name":"산카이 미사점","tel":"031-794-3425","addr":"경기도 하남시 망월동 985-6번지 1층","category":"일반휴게음식 - 일반한식"}]},{"lat":"37.562562244","long":"127.19552978","items":[{"name":"살렘(Salem)","tel":"070-7670-0833","addr":"경기도 하남시 망월동 1138번지 퀸즈파크미사2차 2층 216호","category":"일반휴게음식 - 서양음식"},{"name":"유니헤어(Yune hair)","tel":"02-111-1111","addr":"경기도 하남시 망월동 1138번지 퀸즈파크미사2차 2층 211호","category":"보건위생 - 미용원"}]},{"lat":"37.560204782","long":"127.19911147","items":[{"name":"살롱드라니","tel":"031-791-7948","addr":"경기도 하남시 망월동 1186-6번지 1층 101호","category":"보건위생 - 미용원"}]},{"lat":"37.574787289","long":"127.19072758","items":[{"name":"삼거리마트","tel":"031-791-7025","addr":"경기도 하남시 망월동 872번지","category":"유통업 영리 - 슈퍼마켓"}]},{"lat":"37.568789055","long":"127.18347957","items":[{"name":"삼곱식당(미사신도시점)","tel":"031-794-3992","addr":"경기도 하남시 망월동 1002-3번지 1층","category":"일반휴게음식 - 일반한식"}]},{"lat":"37.571062276","long":"127.18167393","items":[{"name":"삼구닭갈비","tel":"031-793-0730","addr":"경기도 하남시 망월동 1015번지 1층","category":"일반휴게음식 - 일반한식"}]},{"lat":"37.562700962","long":"127.19883506","items":[{"name":"삼성수산","tel":"031-791-4897","addr":"경기도 하남시 망월동 132-16.나102","category":"음료식품 - 농·축·수산품"}]},{"lat":"37.572118336","long":"127.19201133","items":[{"name":"상진유통","tel":"031-1899-0560","addr":"경기도 하남시 망월동 938번지 미사강변도시16단지 1603동 8층 04호","category":"음료식품 - 기타음료식품"}]},{"lat":"37.568870789","long":"127.1888677","items":[{"name":"새하남어린이집[아이행복]","tel":"031-795-4768","addr":"경기도 하남시 망월동 949번지 미사강변도시13단지","category":"학원 - 유아원"},{"name":"샬롱와이","tel":"031-791-6011","addr":"경기도 하남시 망월동 949번지 미사강변도시13단지 104호","category":"보건위생 - 미용원"},{"name":"제니패션","tel":"070-2699-0807","addr":"경기도 하남시 망월동 949번지 미사강변도시13단지 1306동 1410호","category":"의류 - 내의판매"}]},{"lat":"37.559924819","long":"127.19950686","items":[{"name":"샐리앤린","tel":"070-8734-0911","addr":"경기도 하남시 망월동 1188-6번지","category":"일반휴게음식 - 서양음식"}]},{"lat":"37.567981994","long":"127.18683938","items":[{"name":"샘물상사","tel":"02-420-0701","addr":"경기도 하남시 망월동 555-2번지 크리스탈샘물","category":"음료식품 - 기타음료식품"}]},{"lat":"37.569701044","long":"127.18216873","items":[{"name":"생활맥주 미사강변도시점","tel":"031-794-5315","addr":"경기도 하남시 망월동 1020-4번지 1층","category":"일반휴게음식 - 주점"},{"name":"어바웃 켈리","tel":"031-111-1111","addr":"경기도 하남시 망월동 1020-4번지 1층","category":"의류 - 정장"},{"name":"제이 켈리","tel":"031-111-1111","addr":"경기도 하남시 망월동 1020-4번지","category":"의류 - 정장"}]},{"lat":"37.560681132","long":"127.19981443","items":[{"name":"샤인텔레콤","tel":"031-000-0000","addr":"경기도 하남시 망월동 1186번지 1층","category":"사무통신 - 통신기기"},{"name":"코끼리할인마트","tel":"031-792-1811","addr":"경기도 하남시 망월동 1186번지 1층 101호","category":"유통업 영리 - 슈퍼마켓"}]},{"lat":"37.564451742","long":"127.18581203","items":[{"name":"서울H.F","tel":"031-792-4771","addr":"경기도 하남시 망월동 637-1","category":"용역 서비스 - 종합용역"}]},{"lat":"37.564729138","long":"127.19825181","items":[{"name":"서해자원","tel":"031-511-5954","addr":"경기도 하남시 망월동 141-6","category":"신변잡화 - 기타잡화"}]},{"lat":"37.57486789","long":"127.19103343","items":[{"name":"성일축산유통미사점","tel":"031-793-7414","addr":"경기도 하남시 망월동 872-2번지 1층","category":"음료식품 - 정육점"}]},{"lat":"37.575040533","long":"127.19011693","items":[{"name":"세탁하는날","tel":"031-795-4415","addr":"경기도 하남시 망월동 843-12번지 1층","category":"수리서비스 - 세탁소"}]},{"lat":"37.560122997","long":"127.19953002","items":[{"name":"소반상","tel":"","addr":"경기도 하남시 망월동 1188-2번지","category":"일반휴게음식 - 일식·회집"},{"name":"에이블","tel":"","addr":"경기도 하남시 망월동 1188-2번지","category":"보건위생 - 미용원"}]},{"lat":"37.569429855","long":"127.18275668","items":[{"name":"소울푸드","tel":"","addr":"경기도 하남시 망월동 1004-3번지 302호","category":"음료식품 - 기타음료식품"},{"name":"카페 보보스","tel":"031-792-8221","addr":"경기도 하남시 망월동 1004-3번지 1층","category":"일반휴게음식 - 서양음식"}]},{"lat":"37.569620625","long":"127.18172708","items":[{"name":"순수치킨 하남미사점","tel":"","addr":"경기도 하남시 망월동 1022-6번지 101호","category":"일반휴게음식 - 스넥"},{"name":"헤어살롱 베르시","tel":"031-793-2327","addr":"경기도 하남시 망월동 1022-6번지 1층 102호","category":"보건위생 - 미용원"}]},{"lat":"37.56951158","long":"127.18233806","items":[{"name":"슈슈앤크라 미사 강변도시점","tel":"031-8028-1268","addr":"경기도 하남시 망월동 1022-10번지 102호","category":"의류 - 정장"},{"name":"황제제면소","tel":"031-793-9870","addr":"경기도 하남시 망월동 1022-10번지","category":"일반휴게음식 - 일반한식"}]},{"lat":"37.575202673","long":"127.19013998","items":[{"name":"스노우벨","tel":"031-111-1111","addr":"경기도 하남시 망월동 843-7번지 상가 1층 101호","category":"문화.취미 - 화원"}]},{"lat":"37.570700992","long":"127.18226168","items":[{"name":"스마일찹쌀꽈배기","tel":"031-796-6269","addr":"경기도 하남시 망월동 1010-4번지 와이큐브하우스 1층 101호","category":"일반휴게음식 - 일반한식"},{"name":"코코오일","tel":"031-792-4975","addr":"경기도 하남시 망월동 1010-4번지 1층","category":"자동차정비 유지 - 윤활유 전문 판매"}]},{"lat":"37.575257216","long":"127.18983447","items":[{"name":"스팀보이 하남미사점","tel":"031-796-1002","addr":"경기도 하남시 망월동 843-5번지 1층 101호","category":"자동차정비 유지 - 세차장"}]},{"lat":"37.57015275","long":"127.18136614","items":[{"name":"시엔","tel":"031-1111-1111","addr":"경기도 하남시 망월동 1018-1번지 1층","category":"일반휴게음식 - 중국식"}]},{"lat":"37.570179574","long":"127.18150203","items":[{"name":"식호락 하남미사강변점","tel":"","addr":"경기도 하남시 망월동 1018-2번지 1층","category":"일반휴게음식 - 일반한식"}]},{"lat":"37.560734409","long":"127.18339222","items":[{"name":"신당기계","tel":"031-794-3091","addr":"경기도 하남시 망월동 783-1","category":"기타 - 기계공구"}]},{"lat":"37.563895313","long":"127.19016827","items":[{"name":"신송유통상사","tel":"02-447-2265","addr":"경기도 하남시 망월동 593","category":"음료식품 - 기타음료식품"}]},{"lat":"37.569952325","long":"127.19428104","items":[{"name":"신전떡볶이 미사강변도시점","tel":"031-791-9111","addr":"경기도 하남시 망월동 932-3번지","category":"일반휴게음식 - 스넥"}]},{"lat":"37.558513079","long":"127.19781683","items":[{"name":"씨월드수족관","tel":"031-794-0611","addr":"경기도 하남시 망월동 59-1","category":"문화.취미 - 수족관"}]},{"lat":"37.562011017","long":"127.1852062","items":[{"name":"씨유미사19단지점","tel":"02-1577-8007","addr":"경기도 하남시 망월동 1062번지 미사강변 하우스디 더 레이크 101호","category":"유통업 영리 - 편 의 점"}]},{"lat":"37.559094673","long":"127.20025165","items":[{"name":"씨유미사R5점","tel":"080-080-3663","addr":"경기도 하남시 망월동 1198번지 1층","category":"유통업 영리 - 편 의 점"}]},{"lat":"37.569762881","long":"127.1944277","items":[{"name":"씨유미사강변점","tel":"080-080-3663","addr":"경기도 하남시 망월동 932-4번지","category":"유통업 영리 - 편 의 점"},{"name":"카르페디엠","tel":"031-792-0291","addr":"경기도 하남시 망월동 932-4번지 1층","category":"일반휴게음식 - 서양음식"},{"name":"코코넛(Coconut)","tel":"031-521-1586","addr":"경기도 하남시 망월동 932-4번지","category":"의류 - 정장"}]},{"lat":"37.575228587","long":"127.19084189","items":[{"name":"씨유미사미소점","tel":"031-472-3281","addr":"경기도 하남시 망월동 866-1번지","category":"유통업 영리 - 편 의 점"}]},{"lat":"37.569122936","long":"127.1831408","items":[{"name":"씨유미사타운점","tel":"031-898-6656","addr":"경기도 하남시 망월동 1002번지","category":"유통업 영리 - 편 의 점"},{"name":"오땡큐염색샵","tel":"031-795-2585","addr":"경기도 하남시 망월동 1002번지 1층 101호","category":"보건위생 - 미용원"}]},{"lat":"37.565540149","long":"127.1981747","items":[{"name":"씨유미사힐스테이트강변점","tel":"02-1577-8007","addr":"경기도 하남시 망월동 1147-2번지 힐스테이트에코미사강변 125호","category":"유통업 영리 - 편 의 점"},{"name":"연푸드","tel":"031-791-8159","addr":"경기도 하남시 망월동 1147-2번지 힐스테이트에코미사강변 1층 131-133호","category":"일반휴게음식 - 일반한식"},{"name":"호수식당","tel":"031-795-0788","addr":"경기도 하남시 망월동 1147-2번지 2층 215~218호","category":"일반휴게음식 - 일반한식"}]},{"lat":"37.56979176","long":"127.18176145","items":[{"name":"아르떼칠드런 하남미사점","tel":"031-791-7275","addr":"경기도 하남시 망월동 1020번지 1층 102호","category":"일반휴게음식 - 서양음식"}]},{"lat":"37.575317457","long":"127.19161189","items":[{"name":"아임홈","tel":"070-8840-1143","addr":"경기도 하남시 망월동 864-5번지 concept house 1층","category":"일반휴게음식 - 서양음식"}]},{"lat":"37.575095076","long":"127.18981143","items":[{"name":"아토 ATO","tel":"","addr":"경기도 하남시 망월동 843-14번지 1층","category":"일반휴게음식 - 일식·회집"}]},{"lat":"37.575454803","long":"127.19023117","items":[{"name":"아트 스튜디오 마음 미술학원","tel":"031-794-0314","addr":"경기도 하남시 망월동 845-7번지 1층","category":"학원 - 예·체능계학원"}]},{"lat":"37.569899379","long":"127.18208997","items":[{"name":"안성깍두기 하남점","tel":"031-796-7277","addr":"경기도 하남시 망월동 1020-2번지","category":"일반휴게음식 - 일반한식"}]},{"lat":"37.570124245","long":"127.18233953","items":[{"name":"어거스트 우","tel":"","addr":"경기도 하남시 망월동 1008-7번지 102호","category":"의류 - 정장"},{"name":"유로코피자","tel":"031-791-1838","addr":"경기도 하남시 망월동 1008-7번지 1층","category":"일반휴게음식 - 서양음식"}]},{"lat":"37.569395858","long":"127.19295526","items":[{"name":"어나더뷰티","tel":"02-4348-4648","addr":"경기도 하남시 망월동 916-2번지 101호","category":"보건위생 - 피부미용실"}]},{"lat":"37.574925428","long":"127.18883747","items":[{"name":"에이스제빵소","tel":"031-747-3133","addr":"경기도 하남시 망월동 868-3번지 미사빌딩 1층","category":"음료식품 - 제과점"}]},{"lat":"37.575983237","long":"127.19220222","items":[{"name":"에이치인터내셔널","tel":"070-1681-3113","addr":"경기도 하남시 망월동 855-7번지 102호","category":"의류 - 정장"},{"name":"에이치인터네셔널","tel":"070-7681-3113","addr":"경기도 하남시 망월동 855-7번지 102호","category":"의류 - 정장"},{"name":"치요남치킨 하남미사점","tel":"031-795-1178","addr":"경기도 하남시 망월동 855-7번지 1층 101호","category":"일반휴게음식 - 스넥"}]},{"lat":"37.569340594","long":"127.19370219","items":[{"name":"엘리트","tel":"031-795-7641","addr":"경기도 하남시 망월동 924-5번지 1층","category":"의류 - 단체복"}]},{"lat":"37.5592912","long":"127.20125945","items":[{"name":"엘엑스제이 툴앤머신","tel":"031-794-0980","addr":"경기도 하남시 망월동 1200-4번지","category":"기타 - 기계공구"}]},{"lat":"37.568978641","long":"127.183231","items":[{"name":"연안식당 미사 망월점","tel":"","addr":"경기도 하남시 망월동 1002-1번지","category":"일반휴게음식 - 일반한식"}]},{"lat":"37.569204862","long":"127.19406406","items":[{"name":"연푸드(한식뷔페)","tel":"031-792-7923","addr":"경기도 하남시 망월동 926-1번지 1층","category":"일반휴게음식 - 일반한식"}]},{"lat":"37.560230869","long":"127.19967743","items":[{"name":"옐로우슈즈","tel":"070-4154-0780","addr":"경기도 하남시 망월동 1188-3번지 1층 101호","category":"신변잡화 - 신발"}]},{"lat":"37.575511152","long":"127.18878233","items":[{"name":"오렌지자전거","tel":"031-528-6263","addr":"경기도 하남시 망월동 841-2번지 미사미가 101호","category":"레져용품 - 스포츠·레져용품"}]},{"lat":"37.561236175","long":"127.18520431","items":[{"name":"오복식당","tel":"031-793-6572","addr":"경기도 하남시 망월동 780-6","category":"일반휴게음식 - 일반한식"}]},{"lat":"37.560094532","long":"127.2003901","items":[{"name":"오투닭갈비","tel":"","addr":"경기도 하남시 망월동 1190-4번지 1층 101호","category":"일반휴게음식 - 일반한식"}]},{"lat":"37.570846007","long":"127.18169605","items":[{"name":"오피스큐브","tel":"070-8842-9075","addr":"경기도 하남시 망월동 1015-2번지 1층","category":"서적문구 - 문구용품"}]},{"lat":"37.56856643","long":"127.19328141","items":[{"name":"옥루","tel":"031-793-5521","addr":"경기도 하남시 망월동 916-7번지 1층","category":"일반휴게음식 - 중국식"}]},{"lat":"37.569675147","long":"127.18142159","items":[{"name":"옥수수 통닭 하남미사점","tel":"031-794-3795","addr":"경기도 하남시 망월동 1022-4번지","category":"일반휴게음식 - 스넥"}]},{"lat":"37.558375738","long":"127.19914063","items":[{"name":"옥정수족관","tel":"031-796-0950","addr":"경기도 하남시 망월동 47-2","category":"문화.취미 - 수족관"}]},{"lat":"37.575841089","long":"127.19094532","items":[{"name":"올레닭갈비","tel":"031-729-9369","addr":"경기도 하남시 망월동 857-1번지 1층","category":"일반휴게음식 - 일반한식"}]},{"lat":"37.573699653","long":"127.18911742","items":[{"name":"우영플라워","tel":"02-426-8851","addr":"경기도 하남시 망월동 392-4","category":"문화.취미 - 화원"}]},{"lat":"37.56104288","long":"127.19900049","items":[{"name":"우현수산","tel":"031-796-0531","addr":"경기도 하남시 망월동 35-8","category":"일반휴게음식 - 일식·회집"}]},{"lat":"37.575287649","long":"127.1876724","items":[{"name":"웅진유통","tel":"031-712-6268","addr":"경기도 하남시 망월동 408-1번지","category":"음료식품 - 기타음료식품"}]},{"lat":"37.568978847","long":"127.19453889","items":[{"name":"원조감자탕닭갈비","tel":"","addr":"경기도 하남시 망월동 920-7번지 1층","category":"일반휴게음식 - 일반한식"}]},{"lat":"37.576149845","long":"127.18941785","items":[{"name":"웰빙리빙아울렛","tel":"031-791-7249","addr":"경기도 하남시 망월동 839-3번지 1층","category":"유통업 영리 - 슈퍼마켓"}]},{"lat":"37.569619267","long":"127.18262131","items":[{"name":"육감만족 하남미사점","tel":"031-795-1399","addr":"경기도 하남시 망월동 1006-1번지 1층","category":"일반휴게음식 - 일반한식"}]},{"lat":"37.568230396","long":"127.18351218","items":[{"name":"육풍미사신도시점","tel":"031-796-1518","addr":"경기도 하남시 망월동 1000-5번지 1층","category":"일반휴게음식 - 일반한식"}]},{"lat":"37.560013614","long":"127.20028803","items":[{"name":"율담프룻","tel":"","addr":"경기도 하남시 망월동 1190-3번지 1층","category":"일반휴게음식 - 서양음식"}]},{"lat":"37.560042963","long":"127.19889601","items":[{"name":"이디야커피 미사강변한강로점","tel":"","addr":"경기도 하남시 망월동 1186-8번지 1층","category":"일반휴게음식 - 서양음식"}]},{"lat":"37.570954073","long":"127.18173027","items":[{"name":"이디야커피(미사망월점)","tel":"031-791-3391","addr":"경기도 하남시 망월동 1015-1번지 1층","category":"일반휴게음식 - 서양음식"}]},{"lat":"37.559787688","long":"127.20069487","items":[{"name":"이마트24 미사중앙점","tel":"","addr":"경기도 하남시 망월동 1196-7번지 1층 102호","category":"유통업 영리 - 편 의 점"}]},{"lat":"37.568175956","long":"127.18376106","items":[{"name":"이차돌 하남미사","tel":"","addr":"경기도 하남시 망월동 1000-3번지 1층","category":"일반휴게음식 - 일반한식"}]},{"lat":"37.569458178","long":"127.19341951","items":[{"name":"이팀장오토미션","tel":"031-8028-0577","addr":"경기도 하남시 망월동 930-6번지 1층","category":"자동차정비 유지 - 자동차부품"}]},{"lat":"37.564569692","long":"127.18528035","items":[{"name":"이화계란","tel":"031-6323-9223","addr":"경기도 하남시 망월동 640-2번지","category":"음료식품 - 농·축·수산품"}]},{"lat":"37.5652641","long":"127.19061312","items":[{"name":"인스토리","tel":"070-8650-5500","addr":"경기도 하남시 망월동 1091번지 미사엘큐브 10층 1010호","category":"전기제품 - 가전제품"}]},{"lat":"37.576068346","long":"127.18967802","items":[{"name":"인정","tel":"031-792-0208","addr":"경기도 하남시 망월동 849-6번지 1층 102호","category":"일반휴게음식 - 일반한식"},{"name":"체인지(Change)","tel":"070-4007-5739","addr":"경기도 하남시 망월동 849-6번지 1층","category":"의류 - 정장"}]},{"lat":"37.57075536","long":"127.18205806","items":[{"name":"일미양구이","tel":"031-795-6908","addr":"경기도 하남시 망월동 1010-6번지 1층","category":"일반휴게음식 - 일반한식"}]},{"lat":"37.570512799","long":"127.18159338","items":[{"name":"일방통행 국물즉석떡볶이와 화덕피자","tel":"031-793-7957","addr":"경기도 하남시 망월동 1015-5번지 1층","category":"일반휴게음식 - 스넥"}]},{"lat":"37.575509525","long":"127.18981246","items":[{"name":"일오삼","tel":"031-795-3153","addr":"경기도 하남시 망월동 845-4번지 지하1층","category":"의류 - 정장"}]},{"lat":"37.561959557","long":"127.20039502","items":[{"name":"장군상회","tel":"031-796-6564","addr":"경기도 하남시 망월동 28-1하남수산센터3동1층7호","category":"신변잡화 - 기타잡화"}]},{"lat":"37.560652532","long":"127.20075375","items":[{"name":"정다운솜틀집","tel":"","addr":"경기도 하남시 망월동 1192-2번지 301호","category":"수리서비스 - 가정용품수리"}]},{"lat":"37.569871768","long":"127.19395257","items":[{"name":"정다운한식부페","tel":"","addr":"경기도 하남시 망월동 932-1번지 1층","category":"일반휴게음식 - 일반한식"}]},{"lat":"37.575313026","long":"127.18872524","items":[{"name":"정담은 코다리","tel":"031-794-0998","addr":"경기도 하남시 망월동 841-4번지 1층","category":"일반휴게음식 - 일반한식"}]},{"lat":"37.568924935","long":"127.1944482","items":[{"name":"제니패션 미사강변점","tel":"070-2699-0807","addr":"경기도 하남시 망월동 920-6번지 1층","category":"의류 - 내의판매"}]},{"lat":"37.569952474","long":"127.18272398","items":[{"name":"제주근고기 도니랑","tel":"031-792-9242","addr":"경기도 하남시 망월동 1008-4번지 1층","category":"일반휴게음식 - 일반한식"}]},{"lat":"37.569700114","long":"127.18277997","items":[{"name":"조카와 이모가 만드는 조이감자탕","tel":"031-791-7477","addr":"경기도 하남시 망월동 1006번지","category":"일반휴게음식 - 일반한식"}]},{"lat":"37.576282874","long":"127.19075398","items":[{"name":"존앤맷타코","tel":"070-8615-7977","addr":"경기도 하남시 망월동 853-3번지 큰가람루 103호","category":"일반휴게음식 - 서양음식"}]},{"lat":"37.570063285","long":"127.18094711","items":[{"name":"종로맥가 하남미사점","tel":"","addr":"경기도 하남시 망월동 1022번지","category":"일반휴게음식 - 주점"}]},{"lat":"37.56834761","long":"127.18345586","items":[{"name":"주식회사 블루휠스","tel":"02-3448-8999","addr":"경기도 하남시 망월동 1000-6번지 1층","category":"레져용품 - 스포츠·레져용품"}]},{"lat":"37.56879087","long":"127.19378002","items":[{"name":"주식회사 와우","tel":"02-2297-0045","addr":"경기도 하남시 망월동 920-2번지 1층 101호","category":"건축자재 - 인테리어전문"}]},{"lat":"37.569125072","long":"127.19326019","items":[{"name":"주식회사 피앤씨위드","tel":"","addr":"경기도 하남시 망월동 922번지 1층","category":"자동차정비 유지 - 카인테리어"}]},{"lat":"37.566736622","long":"127.1937861","items":[{"name":"진스포츠매점","tel":"031-796-6360","addr":"경기도 하남시 망월동 200","category":"음료식품 - 기타음료식품"},{"name":"코파카바나","tel":"031-796-0404","addr":"경기도 하남시 망월동 200 하남종합체육관3층","category":"일반휴게음식 - 서양음식"}]},{"lat":"37.575950484","long":"127.19014185","items":[{"name":"차고집칡냉면 미사점","tel":"031-793-2292","addr":"경기도 하남시 망월동 849-3번지 1층","category":"일반휴게음식 - 일반한식"}]},{"lat":"37.576005063","long":"127.1898137","items":[{"name":"착한전","tel":"031-792-2425","addr":"경기도 하남시 망월동 849-5번지 101호","category":"일반휴게음식 - 일반한식"}]},{"lat":"37.568202569","long":"127.18403279","items":[{"name":"참치요리전문점 참꽃","tel":"031-795-2570","addr":"경기도 하남시 망월동 997-3번지 지하1층","category":"일반휴게음식 - 일식·회집"}]},{"lat":"37.570674598","long":"127.1818428","items":[{"name":"청년다방미사강변점","tel":"031-793-5671","addr":"경기도 하남시 망월동 1015-3번지 율하우스 1층 101호","category":"일반휴게음식 - 스넥"},{"name":"크린토피아 코인워시 하남미사 망월점","tel":"031-791-8281","addr":"경기도 하남시 망월동 1015-3번지 율하우스 1층 102호","category":"수리서비스 - 세탁소"}]},{"lat":"37.575921292","long":"127.19150021","items":[{"name":"청년피자 (미사점)","tel":"070-4922-1261","addr":"경기도 하남시 망월동 859-1번지 로사펠리스","category":"일반휴게음식 - 서양음식"},{"name":"호세야","tel":"","addr":"경기도 하남시 망월동 859-1번지 로사펠리스 102호","category":"일반휴게음식 - 일반한식"}]},{"lat":"37.563012234","long":"127.19583653","items":[{"name":"청아수조","tel":"031-796-2930","addr":"경기도 하남시 망월동 127-45","category":"문화.취미 - 수족관"}]},{"lat":"37.562401604","long":"127.20005664","items":[{"name":"청해진미","tel":"031-794-2255","addr":"경기도 하남시 망월동 28-28 하남수산센터 103-108","category":"음료식품 - 농·축·수산품"}]},{"lat":"37.568898309","long":"127.19419911","items":[{"name":"최고집(하남미사직영점)","tel":"02-0000-0000","addr":"경기도 하남시 망월동 920-5번지 101호","category":"일반휴게음식 - 일반한식"}]},{"lat":"37.561314093","long":"127.19844662","items":[{"name":"카스전자저울강동점","tel":"02-474-1323","addr":"경기도 하남시 망월동 36-57","category":"기타 - 기계공구"}]},{"lat":"37.569096304","long":"127.19433544","items":[{"name":"카스페이스","tel":"031-974-9932","addr":"경기도 하남시 망월동 926-3번지 몬테오로 101호","category":"자동차정비 유지 - 카인테리어"}]},{"lat":"37.575312062","long":"127.18933652","items":[{"name":"카앤덴트 미사점","tel":"031-8028-0812","addr":"경기도 하남시 망월동 843-2번지 1층","category":"자동차정비 유지 - 카인테리어"}]},{"lat":"37.569952164","long":"127.18292773","items":[{"name":"카페 길","tel":"","addr":"경기도 하남시 망월동 988-4번지 1층","category":"일반휴게음식 - 서양음식"}]},{"lat":"37.570840252","long":"127.17953402","items":[{"name":"카페뜰","tel":"031-793-9182","addr":"경기도 하남시 망월동 1028번지 혜림교회 1층","category":"음료식품 - 기타음료식품"}]},{"lat":"37.560788985","long":"127.19997317","items":[{"name":"커피,담다","tel":"02-1111-1111","addr":"경기도 하남시 망월동 1184-3번지 1층","category":"일반휴게음식 - 서양음식"}]},{"lat":"37.560481991","long":"127.20036849","items":[{"name":"코인월드 하남미사 중앙초교점","tel":"031-791-8289","addr":"경기도 하남시 망월동 1191-1번지","category":"수리서비스 - 세탁소"}]},{"lat":"37.57595197","long":"127.18920227","items":[{"name":"퀸오브 주짓수 하남지점","tel":"","addr":"경기도 하남시 망월동 839-5번지","category":"레저업소 - 헬스클럽"}]},{"lat":"37.574788654","long":"127.18986726","items":[{"name":"크럼앤크러스트/(주)멜팅스톤","tel":"02-545-3094","addr":"경기도 하남시 망월동 870-3번지","category":"음료식품 - 제과점"}]},{"lat":"37.567180512","long":"127.18658839","items":[{"name":"크리스탈포엘주식회사","tel":"070-4133-9971","addr":"경기도 하남시 망월동 551-2","category":"음료식품 - 기타음료식품"}]},{"lat":"37.570620917","long":"127.18159364","items":[{"name":"킨더음악학원","tel":"031-791-9906","addr":"경기도 하남시 망월동 1015-6번지 1층","category":"학원 - 예·체능계학원"},{"name":"현미와 누룽지 하남미사점","tel":"","addr":"경기도 하남시 망월동 1015-6번지 101호","category":"음료식품 - 기타음료식품"}]},{"lat":"37.566284321","long":"127.18928006","items":[{"name":"태광상사","tel":"031-795-7860","addr":"경기도 하남시 망월동 179-3","category":"자동차정비 유지 - 자동차부품"}]},{"lat":"37.574815952","long":"127.18969753","items":[{"name":"투바이크","tel":"031-793-0280","addr":"경기도 하남시 망월동 870-2번지 1층","category":"레져용품 - 스포츠·레져용품"}]},{"lat":"37.569457135","long":"127.19406471","items":[{"name":"투엑스원(하남점)","tel":"","addr":"경기도 하남시 망월동 926번지 1층 101호","category":"자동차정비 유지 - 세차장"}]},{"lat":"37.56973653","long":"127.19400882","items":[{"name":"티바두마리","tel":"031-795-1344","addr":"경기도 하남시 망월동 932-6번지 1층 101호","category":"일반휴게음식 - 스넥"},{"name":"피자헤븐 하남점","tel":"031-792-5795","addr":"경기도 하남시 망월동 932-6번지 102호","category":"일반휴게음식 - 서양음식"}]},{"lat":"37.560595587","long":"127.18577997","items":[{"name":"프라임홈마트","tel":"031-791-6664","addr":"경기도 하남시 망월동 778-1번지 1상가 101호","category":"유통업 영리 - 슈퍼마켓"}]},{"lat":"37.565676361","long":"127.19752989","items":[{"name":"프로스타","tel":"031-793-6295","addr":"경기도 하남시 망월동 147-1 2층","category":"의류 - 정장"}]},{"lat":"37.560562245","long":"127.20086669","items":[{"name":"프리미엄 카 스파","tel":"031-791-0456","addr":"경기도 하남시 망월동 1192-3번지 1층","category":"자동차정비 유지 - 세차장"}]},{"lat":"37.569033045","long":"127.18300475","items":[{"name":"플랩잭팬트리","tel":"031-793-6422","addr":"경기도 하남시 망월동 1002-7번지 1층","category":"일반휴게음식 - 일반한식"}]},{"lat":"37.560869884","long":"127.20008656","items":[{"name":"플러피뷰티","tel":"","addr":"경기도 하남시 망월동 1184-2번지 101호","category":"보건위생 - 피부미용실"}]},{"lat":"37.575588274","long":"127.19128429","items":[{"name":"피부살리기","tel":"070-4327-1609","addr":"경기도 하남시 망월동 864-2번지 1층","category":"보건위생 - 피부미용실"}]},{"lat":"37.575866871","long":"127.19172648","items":[{"name":"피자나라치킨공주하남미사점","tel":"031-796-4201","addr":"경기도 하남시 망월동 859-2번지 1층 101호","category":"일반휴게음식 - 서양음식"}]},{"lat":"37.576282333","long":"127.19109359","items":[{"name":"픽스바이크","tel":"031-793-1798","addr":"경기도 하남시 망월동 855번지","category":"레져용품 - 스포츠·레져용품"}]},{"lat":"37.569620882","long":"127.18155729","items":[{"name":"하나미","tel":"031-794-2868","addr":"경기도 하남시 망월동 1022-5번지 1층 101호","category":"일반휴게음식 - 일반한식"}]},{"lat":"37.569756491","long":"127.181252","items":[{"name":"하남돼지집 미사신도시점","tel":"031-791-7992","addr":"경기도 하남시 망월동 1022-3번지 1층","category":"일반휴게음식 - 일반한식"}]},{"lat":"37.58001205","long":"127.19130675","items":[{"name":"하이난","tel":"031-796-4173","addr":"경기도 하남시 망월동 333-2","category":"일반휴게음식 - 중국식"}]},{"lat":"37.57036701","long":"127.18266838","items":[{"name":"하이어 헤어살롱","tel":"","addr":"경기도 하남시 망월동 988-1번지 1층","category":"보건위생 - 미용원"}]},{"lat":"37.569067379","long":"127.19550125","items":[{"name":"한강자동차공업사","tel":"031-495-6903","addr":"경기도 하남시 망월동 236-3","category":"자동차정비 유지 - 자동차정비"}]},{"lat":"37.576702106","long":"127.19339268","items":[{"name":"한겨레종합유통","tel":"031-792-7377","addr":"경기도 하남시 망월동 358-1","category":"음료식품 - 농·축·수산품"}]},{"lat":"37.569151572","long":"127.19358852","items":[{"name":"한명선 뷰티 갤러리","tel":"031-000-0000","addr":"경기도 하남시 망월동 924-1번지 101호","category":"보건위생 - 미용원"},{"name":"한지연헤어","tel":"02-481-1269","addr":"경기도 하남시 망월동 924-1번지","category":"보건위생 - 미용원"}]},{"lat":"37.56198757","long":"127.19980655","items":[{"name":"해풍수산","tel":"031-795-9448","addr":"경기도 하남시 망월동 29","category":"음료식품 - 농·축·수산품"}]},{"lat":"37.566818566","long":"127.1817317","items":[{"name":"행운","tel":"031-792-4425","addr":"경기도 하남시 망월동 673-2","category":"문화.취미 - 화원"}]},{"lat":"37.57572694","long":"127.18906587","items":[{"name":"헤어살롱 리파인","tel":"031-792-3396","addr":"경기도 하남시 망월동 841번지 101호","category":"보건위생 - 미용원"}]},{"lat":"37.56837105","long":"127.18578766","items":[{"name":"헤어살롱나루","tel":"031-793-7758","addr":"경기도 하남시 망월동 978번지 2층 203호","category":"보건위생 - 미용원"}]},{"lat":"37.564950373","long":"127.18959366","items":[{"name":"호수노래연습장","tel":"","addr":"경기도 하남시 망월동 1083-3번지 부강타워 10층","category":"레저업소 - 노 래 방"}]},{"lat":"37.575372707","long":"127.1908649","items":[{"name":"화이트365 미사점","tel":"","addr":"경기도 하남시 망월동 866번지 1동 101층","category":"수리서비스 - 세탁소"}]},{"lat":"37.568843373","long":"127.18330991","items":[{"name":"화포식당하남미사점","tel":"031-794-0822","addr":"경기도 하남시 망월동 1002-2번지 1층","category":"일반휴게음식 - 일반한식"}]},{"lat":"37.569673113","long":"127.19422373","items":[{"name":"황토향기/주식회사 푸짐한푸드","tel":"","addr":"경기도 하남시 망월동 932-5번지 101호","category":"일반휴게음식 - 일반한식"}]}]