[{"lat":"37.543653097","long":"127.32633194","items":[{"name":"(주)공간사랑","tel":"","addr":"경기도 양평군 양서면 용담리 515-1번지","category":"일반휴게음식 - 서양음식"},{"name":"용문산산더덕구이","tel":"031-774-5977","addr":"경기도 양평군 양서면 용담리 515-1번지","category":"일반휴게음식 - 일반한식"}]},{"lat":"37.541207582","long":"127.32444309","items":[{"name":"(주)양수주유소","tel":"031-772-6024","addr":"경기도 양평군 양서면 용담리 534-23","category":"연료판매점 - SK주유소"}]},{"lat":"37.54576883","long":"127.32690686","items":[{"name":"2시헤어","tel":"031-771-0333","addr":"경기도 양평군 양서면 용담리 215-2번지 102호","category":"보건위생 - 미용원"}]},{"lat":"37.542317317","long":"127.3238821","items":[{"name":"Cafe아뜨리에","tel":"031-772-0928","addr":"경기도 양평군 양서면 용담리 536-10번지","category":"일반휴게음식 - 서양음식"},{"name":"도둑냉면","tel":"031-775-1700","addr":"경기도 양평군 양서면 용담리 536-10번지","category":"일반휴게음식 - 일반한식"},{"name":"산들에농원","tel":"031-576-9622","addr":"경기도 양평군 양서면 용담리 536-10번지","category":"일반휴게음식 - 일반한식"}]},{"lat":"37.545377117","long":"127.32846672","items":[{"name":"GS25양수역점","tel":"","addr":"경기도 양평군 양서면 용담리 247-3번지 1층 106호","category":"유통업 영리 - 편 의 점"},{"name":"까페7그램양수역점","tel":"031-773-9924","addr":"경기도 양평군 양서면 용담리 247-3","category":"일반휴게음식 - 서양음식"},{"name":"꿀미트양수3","tel":"031-773-4392","addr":"경기도 양평군 양서면 용담리 247-3번지 2층","category":"일반휴게음식 - 일반한식"},{"name":"두물머리약초","tel":"031-774-2346","addr":"경기도 양평군 양서면 용담리 247-3번지","category":"일반휴게음식 - 서양음식"},{"name":"실버앤골드(주)/청춘연가","tel":"031-774-0161","addr":"경기도 양평군 양서면 용담리 247-3번지","category":"일반휴게음식 - 일반한식"},{"name":"양수스포츠","tel":"070-7718-8945","addr":"경기도 양평군 양서면 용담리 247-3번지","category":"의류 - 스포츠의류"},{"name":"연잎만두","tel":"031-572-4242","addr":"경기도 양평군 양서면 용담리 247-3번지 1층 109호","category":"일반휴게음식 - 일반한식"},{"name":"취팔선","tel":"031-775-0070","addr":"경기도 양평군 양서면 용담리 247-3번지","category":"일반휴게음식 - 중국식"},{"name":"홈마찌/주식회사 지아택","tel":"070-8229-8989","addr":"경기도 양평군 양서면 용담리 247-3번지 104호","category":"일반휴게음식 - 일식·회집"}]},{"lat":"37.546210772","long":"127.32673904","items":[{"name":"고프리양평점","tel":"031-1111-1111","addr":"경기도 양평군 양서면 용담리 218-3번지","category":"레져용품 - 스포츠·레져용품"}]},{"lat":"37.544137312","long":"127.32387858","items":[{"name":"그림숲어린이집[아이행복]","tel":"031-771-1940","addr":"경기도 양평군 양서면 용담리 540-1번지 푸르미빌 302동 101호","category":"학원 - 유아원"}]},{"lat":"37.543545817","long":"127.32602596","items":[{"name":"김나영헤어","tel":"","addr":"경기도 양평군 양서면 용담리 517-3번지 1층","category":"보건위생 - 미용원"},{"name":"어느 멋진날 in 양수","tel":"031-000-0000","addr":"경기도 양평군 양서면 용담리 517-3번지","category":"의류 - 정장"},{"name":"에잇골드(8 gold)","tel":"","addr":"경기도 양평군 양서면 용담리 517-3번지","category":"의류 - 정장"}]},{"lat":"37.543985092","long":"127.32683125","items":[{"name":"김명자낙지마당 양서점","tel":"031-774-9892","addr":"경기도 양평군 양서면 용담리 517-1번지 1층","category":"일반휴게음식 - 일반한식"},{"name":"썸버거","tel":"031-775-7677","addr":"경기도 양평군 양서면 용담리 517-1번지 1층","category":"일반휴게음식 - 일반한식"}]},{"lat":"37.542405135","long":"127.32471979","items":[{"name":"나무공방","tel":"031-8162-7511","addr":"경기도 양평군 양서면 용담리 507-13번지","category":"신변잡화 - 기타잡화"}]},{"lat":"37.542207692","long":"127.32443607","items":[{"name":"남한강장어","tel":"031-771-9200","addr":"경기도 양평군 양서면 용담리 534-4","category":"일반휴게음식 - 일반한식"}]},{"lat":"37.54307096","long":"127.3250508","items":[{"name":"농민마트","tel":"031-771-6117","addr":"경기도 양평군 양서면 용담리 524-2번지","category":"유통업 영리 - 슈퍼마켓"},{"name":"완도전복수산","tel":"031-773-1898","addr":"경기도 양평군 양서면 용담리 524-2번지 1층","category":"일반휴게음식 - 일식·회집"}]},{"lat":"37.541851973","long":"127.32271465","items":[{"name":"농업회사법인주식회사용문산산더덕","tel":"031-771-5955","addr":"경기도 양평군 양서면 용담리 580-7번지","category":"음료식품 - 농·축·수산품"},{"name":"두물길한정식","tel":"031-775-7096","addr":"경기도 양평군 양서면 용담리 580-7번지 2층","category":"일반휴게음식 - 일반한식"},{"name":"청목장어","tel":"031-773-6668","addr":"경기도 양평군 양서면 용담리 580-7번지","category":"일반휴게음식 - 일반한식"}]},{"lat":"37.54749078","long":"127.33302491","items":[{"name":"다우리","tel":"031-774-5250","addr":"경기도 양평군 양서면 용담리 289번지 1층","category":"일반휴게음식 - 일반한식"}]},{"lat":"37.541511563","long":"127.32198903","items":[{"name":"두물머리밥상","tel":"031-774-6022","addr":"경기도 양평군 양서면 용담리 582-1번지","category":"일반휴게음식 - 일반한식"},{"name":"운길산장어","tel":"031-774-8908","addr":"경기도 양평군 양서면 용담리 582-1번지","category":"일반휴게음식 - 일반한식"},{"name":"잇츠빈(It,s Bean)","tel":"070-7785-9892","addr":"경기도 양평군 양서면 용담리 582-1번지","category":"일반휴게음식 - 일반한식"}]},{"lat":"37.544990323","long":"127.32823873","items":[{"name":"두물머리약국","tel":"031-771-5177","addr":"경기도 양평군 양서면 용담리 245-4번지 1층 102호","category":"약국 - 약국"},{"name":"토스피아양수역점","tel":"031-774-8549","addr":"경기도 양평군 양서면 용담리 245-4번지","category":"일반휴게음식 - 서양음식"},{"name":"펀앤라이드","tel":"070-4477-0228","addr":"경기도 양평군 양서면 용담리 245-4번지","category":"레져용품 - 스포츠·레져용품"}]},{"lat":"37.544047415","long":"127.32710309","items":[{"name":"두물머리연꽃마을","tel":"031-772-7178","addr":"경기도 양평군 양서면 용담리 475-3번지","category":"일반휴게음식 - 일반한식"}]},{"lat":"37.544739017","long":"127.32788685","items":[{"name":"두물머리한우선지해장국","tel":"031-775-7011","addr":"경기도 양평군 양서면 용담리 242-6번지 1층","category":"일반휴게음식 - 일반한식"},{"name":"순이네국수","tel":"031-771-1854","addr":"경기도 양평군 양서면 용담리 242-6번지","category":"일반휴게음식 - 일반한식"}]},{"lat":"37.542792554","long":"127.32472146","items":[{"name":"둥굴레","tel":"031-772-8888","addr":"경기도 양평군 양서면 용담리 507-1번지 2층","category":"일반휴게음식 - 일반한식"},{"name":"무지개전기조명","tel":"031-772-7001","addr":"경기도 양평군 양서면 용담리 507-1번지 덕인빌딩 102호","category":"건축자재 - 조명기구"},{"name":"밥집","tel":"031-576-0530","addr":"경기도 양평군 양서면 용담리 507-1번지 1층","category":"일반휴게음식 - 일반한식"},{"name":"양수유일 피아노교습소","tel":"031-774-6487","addr":"경기도 양평군 양서면 용담리 507-1번지 102호","category":"학원 - 예·체능계학원"},{"name":"용진 공인중개사사무소","tel":"031-771-0709","addr":"경기도 양평군 양서면 용담리 507-1","category":"용역 서비스 - 부동산 중개·임대"},{"name":"처갓집 양념치킨","tel":"031-772-7974","addr":"경기도 양평군 양서면 용담리 507-1번지","category":"일반휴게음식 - 스넥"}]},{"lat":"37.541596385","long":"127.32393558","items":[{"name":"로컬푸드키친","tel":"031-775-9210","addr":"경기도 양평군 양서면 용담리 536-8번지 1층 101호","category":"일반휴게음식 - 일반한식"}]},{"lat":"37.544794868","long":"127.32393798","items":[{"name":"리딘","tel":"","addr":"경기도 양평군 양서면 용담리 208-2번지 푸르미빌 201동 201호","category":"신변잡화 - 기타잡화"}]},{"lat":"37.547569188","long":"127.32749177","items":[{"name":"매점","tel":"031-772-6382","addr":"경기도 양평군 양서면 용담리 221-1번지 양서고등학교 구내매점","category":"음료식품 - 기타음료식품"},{"name":"양서고등학교","tel":"031-770-1400","addr":"경기도 양평군 양서면 용담리 221-1번지 양서고등학교","category":"학원 - 초중고교육기관"}]},{"lat":"37.543043406","long":"127.32524304","items":[{"name":"물래길식당","tel":"031-771-5490","addr":"경기도 양평군 양서면 용담리 507-44번지","category":"일반휴게음식 - 일반한식"},{"name":"스마일명품찹쌀꽈배기","tel":"","addr":"경기도 양평군 양서면 용담리 507-44번지","category":"음료식품 - 기타음료식품"},{"name":"신짜오반미","tel":"","addr":"경기도 양평군 양서면 용담리 507-44번지 1층","category":"일반휴게음식 - 일반한식"}]},{"lat":"37.545958034","long":"127.32690768","items":[{"name":"민경수제","tel":"031-771-9091","addr":"경기도 양평군 양서면 용담리 215-18번지 1층 101호","category":"일반휴게음식 - 일반한식"}]},{"lat":"37.548572403","long":"127.32635319","items":[{"name":"변호사강병국사무소","tel":"02-978-3072","addr":"경기도 양평군 양서면 용담리 162-16번지","category":"용역 서비스 - 법률회계서비스(개인)"}]},{"lat":"37.543492068","long":"127.32591257","items":[{"name":"봉주르분식","tel":"031-772-4224","addr":"경기도 양평군 양서면 용담리 517-18번지","category":"일반휴게음식 - 일반한식"}]},{"lat":"37.542600415","long":"127.32579558","items":[{"name":"브라운스푼","tel":"031-773-2826","addr":"경기도 양평군 양서면 용담리 511-19번지","category":"일반휴게음식 - 일반한식"}]},{"lat":"37.545320093","long":"127.33599134","items":[{"name":"비엘스키","tel":"070-8883-4370","addr":"경기도 양평군 양서면 용담리 72번지","category":"수리서비스 - 사무·통신기기수리"}]},{"lat":"37.543651577","long":"127.32688638","items":[{"name":"삼화페인트","tel":"031-772-6402","addr":"경기도 양평군 양서면 용담리 516-4번지","category":"건축자재 - 페인트"}]},{"lat":"37.546628875","long":"127.32868716","items":[{"name":"서울우유양서대리점","tel":"031-772-6028","addr":"경기도 양평군 양서면 용담리 259-3","category":"음료식품 - 기타음료식품"}]},{"lat":"37.540848639","long":"127.32390974","items":[{"name":"실버앤골드(주)/심황후연꽃빵","tel":"031-774-0161","addr":"경기도 양평군 양서면 용담리 428-8번지","category":"음료식품 - 제과점"},{"name":"재단법인세미원","tel":"031-775-1834","addr":"경기도 양평군 양서면 용담리 428-8번지","category":"음료식품 - 농·축·수산품"}]},{"lat":"37.548042037","long":"127.32590957","items":[{"name":"암사자네 공방","tel":"","addr":"경기도 양평군 양서면 용담리 190번지","category":"문화.취미 - 민예·공예품"}]},{"lat":"37.548710897","long":"127.33488613","items":[{"name":"양서농협본소농기계수리센타","tel":"031-775-0334","addr":"경기도 양평군 양서면 용담리 97-5번지 외3필지","category":"수리서비스 - 기타수리서비스"}]},{"lat":"37.542154219","long":"127.32422085","items":[{"name":"양수소머리국밥","tel":"031-771-2505","addr":"경기도 양평군 양서면 용담리 534-9","category":"일반휴게음식 - 일반한식"},{"name":"자연애천수약국","tel":"031-774-4701","addr":"경기도 양평군 양서면 용담리 534-9번지 양수빌딩 1층 3호","category":"약국 - 약국"},{"name":"커피앤연김밥","tel":"031-772-9919","addr":"경기도 양평군 양서면 용담리 534-9번지","category":"일반휴게음식 - 일반한식"},{"name":"팡팡노래연습장","tel":"031-771-0661","addr":"경기도 양평군 양서면 용담리 534-9번지","category":"레저업소 - 노 래 방"},{"name":"호박감자탕","tel":"031-771-7447","addr":"경기도 양평군 양서면 용담리 534-9번지 1층","category":"일반휴게음식 - 일반한식"}]},{"lat":"37.544602812","long":"127.32827099","items":[{"name":"양수수학","tel":"031-773-2017","addr":"경기도 양평군 양서면 용담리 245-3번지 운주빌딩 3층 302호","category":"학원 - 보습학원"},{"name":"치킨신드롬","tel":"031-772-9920","addr":"경기도 양평군 양서면 용담리 245-3","category":"일반휴게음식 - 일반한식"},{"name":"한복이네 한과래","tel":"031-775-2506","addr":"경기도 양평군 양서면 용담리 245-3번지 운주빌딩 1층 103호","category":"음료식품 - 제과점"},{"name":"화우","tel":"031-773-2091","addr":"경기도 양평군 양서면 용담리 245-3번지 105호(외3필지운주빌딩)","category":"일반휴게음식 - 서양음식"}]},{"lat":"37.544262809","long":"127.32740954","items":[{"name":"양수역 준모터스","tel":"031-339-7877","addr":"경기도 양평군 양서면 용담리 475-1","category":"자동차정비 유지 - 자동차정비"}]},{"lat":"37.544629055","long":"127.3252725","items":[{"name":"양수중학교","tel":"031-772-2722","addr":"경기도 양평군 양서면 용담리 212번지 양수중학교","category":"학원 - 초중고교육기관"},{"name":"양수초등학교","tel":"031-772-2722","addr":"경기도 양평군 양서면 용담리 212번지 양수중학교","category":"학원 - 초중고교육기관"},{"name":"양수초병설유치원[아이행복]","tel":"031-771-0569","addr":"경기도 양평군 양서면 용담리 212번지 양수중학교","category":"학원 - 유치원"}]},{"lat":"37.5453759","long":"127.32890802","items":[{"name":"양수편의점","tel":"031-774-9377","addr":"경기도 양평군 양서면 용담리 255-2","category":"유통업 영리 - 편 의 점"},{"name":"자전거카페","tel":"031-772-0923","addr":"경기도 양평군 양서면 용담리 255-2","category":"음료식품 - 기타음료식품"},{"name":"카페(cafe) 봄","tel":"031-772-0923","addr":"경기도 양평군 양서면 용담리 255-2번지","category":"일반휴게음식 - 서양음식"}]},{"lat":"37.549988754","long":"127.32569165","items":[{"name":"연꽃언덕","tel":"031-774-4577","addr":"경기도 양평군 양서면 용담리 171-5번지","category":"일반휴게음식 - 일반한식"},{"name":"연꽃언덕","tel":"031-774-4577","addr":"경기도 양평군 양서면 용담리 171-5번지","category":"일반휴게음식 - 일반한식"}]},{"lat":"37.543292274","long":"127.32648879","items":[{"name":"연밭","tel":"031-772-6200","addr":"경기도 양평군 양서면 용담리 514번지","category":"일반휴게음식 - 일반한식"}]},{"lat":"37.543769851","long":"127.32646823","items":[{"name":"예전보리밥","tel":"031-771-4359","addr":"경기도 양평군 양서면 용담리 517-7번지","category":"일반휴게음식 - 일반한식"}]},{"lat":"37.543294318","long":"127.32574199","items":[{"name":"용담매운칼국수","tel":"031-773-5576","addr":"경기도 양평군 양서면 용담리 511-1번지 1층","category":"일반휴게음식 - 일반한식"},{"name":"포앤 라이스","tel":"031-773-0033","addr":"경기도 양평군 양서면 용담리 511-1번지","category":"일반휴게음식 - 일반한식"}]},{"lat":"37.551845622","long":"127.3286646","items":[{"name":"원양","tel":"","addr":"경기도 양평군 양서면 용담리 144-3번지","category":"신변잡화 - 신발"}]},{"lat":"37.543433415","long":"127.32429423","items":[{"name":"은유네 건어물나라","tel":"031-772-0873","addr":"경기도 양평군 양서면 용담리 532-4번지 1층","category":"음료식품 - 농·축·수산품"}]},{"lat":"37.542708686","long":"127.32573947","items":[{"name":"이삭종합건재","tel":"031-775-1545","addr":"경기도 양평군 양서면 용담리 511-18번지","category":"건축자재 - 기타건축자재"}]},{"lat":"37.544408269","long":"127.32693492","items":[{"name":"제이더블유추(J.W.CHOO)","tel":"031-774-8122","addr":"경기도 양평군 양서면 용담리 474-2번지 에코빌리지 301호","category":"회원제형태 - 기타4"}]},{"lat":"37.543128961","long":"127.32360269","items":[{"name":"주식회사희원빌","tel":"031-774-4787","addr":"경기도 양평군 양서면 용담리 540-5번지","category":"기타의료기관 - 기타의료기관 및 기타"}]},{"lat":"37.541569725","long":"127.32379969","items":[{"name":"쭉이야","tel":"031-773-6733","addr":"경기도 양평군 양서면 용담리 535-16번지","category":"유통업 영리 - 슈퍼마켓"}]},{"lat":"37.543431133","long":"127.32513156","items":[{"name":"출장세차유앤미","tel":"031-772-6422","addr":"경기도 양평군 양서면 용담리 524-1번지","category":"자동차정비 유지 - 세차장"}]},{"lat":"37.541568833","long":"127.32412782","items":[{"name":"칼국수","tel":"031-772-6724","addr":"경기도 양평군 양서면 용담리 534-7","category":"일반휴게음식 - 일반한식"}]},{"lat":"37.542795355","long":"127.32369179","items":[{"name":"팽오리농장","tel":"031-775-1081","addr":"경기도 양평군 양서면 용담리 536-1번지","category":"일반휴게음식 - 일반한식"}]}]