[{"lat":"38.2130967","long":"127.1387706","items":[{"name":"강변오리","tel":"031-834-6771","addr":"경기도 연천군 신서면 대광리 171-16번지","category":"일반휴게음식 - 일반한식"}]},{"lat":"38.18990214","long":"127.1094718","items":[{"name":"경유버스보조금_대광현대주유소","tel":"031-834-4244","addr":"경기도 연천군 신서면 대광리 1068-8번지","category":"연료판매점 - 현대정유(오일뱅크)"},{"name":"대광현대주유소","tel":"031-834-4244","addr":"경기도 연천군 신서면 대광리 1068-8번지","category":"연료판매점 - 현대정유(오일뱅크)"}]},{"lat":"38.21523932","long":"127.140042","items":[{"name":"고대산가든","tel":"031-834-4004","addr":"경기도 연천군 신서면 대광리 160-1번지","category":"일반휴게음식 - 일반한식"}]},{"lat":"38.21323821","long":"127.1410202","items":[{"name":"고대산건강원.고대산웰빙샵","tel":"031-834-0554","addr":"경기도 연천군 신서면 대광리 147-7번지 고대산건강원고대산웰빙샵","category":"일반휴게음식 - 일반한식"}]},{"lat":"38.21314803","long":"127.1411","items":[{"name":"고대산통나무집","tel":"031-834-9690","addr":"경기도 연천군 신서면 대광리 147-22번지","category":"일반휴게음식 - 일반한식"}]},{"lat":"38.21373617","long":"127.1464677","items":[{"name":"고향식당","tel":"031-834-2267","addr":"경기도 연천군 신서면 대광리 132-6번지","category":"일반휴게음식 - 일반한식"}]},{"lat":"38.21409461","long":"127.1405423","items":[{"name":"금강산가는길목","tel":"031-834-8921","addr":"경기도 연천군 신서면 대광리 155-9번지","category":"일반휴게음식 - 일반한식"}]},{"lat":"38.21315269","long":"127.1447424","items":[{"name":"금수강산","tel":"031-834-1399","addr":"경기도 연천군 신서면 대광리 133-2","category":"일반휴게음식 - 일반한식"}]},{"lat":"38.19326278","long":"127.1186316","items":[{"name":"대광가스","tel":"031-834-8783","addr":"경기도 연천군 신서면 대광리 915-1","category":"연료판매점 - LPG 취급점"}]},{"lat":"38.18695745","long":"127.108132","items":[{"name":"대광작목반","tel":"031-834-1944","addr":"경기도 연천군 신서면 대광리 1063-69","category":"건강식품 - 기타건강식품"}]},{"lat":"38.21353832","long":"127.1386001","items":[{"name":"동의건강원","tel":"","addr":"경기도 연천군 신서면 대광리 171-35","category":"건강식품 - 기타건강식품"}]},{"lat":"38.21265613","long":"127.1380162","items":[{"name":"뚝배기보신탕","tel":"031-834-8343","addr":"경기도 연천군 신서면 대광리 171-31번지","category":"일반휴게음식 - 일반한식"}]},{"lat":"38.21376241","long":"127.1471072","items":[{"name":"불끈장어 부끄송어","tel":"031-834-5355","addr":"경기도 연천군 신서면 대광리 132번지","category":"일반휴게음식 - 일반한식"}]},{"lat":"38.23745307","long":"127.1561889","items":[{"name":"사단법인 한국전통민족종교 총연합회 봉암","tel":"031-2198-5022","addr":"경기도 연천군 신서면 대광리 산172-1번지","category":"보건위생 - 기타대인서비스"}]},{"lat":"38.21509439","long":"127.1407155","items":[{"name":"쉬리모텔","tel":"031-834-0226","addr":"경기도 연천군 신서면 대광리 160번지 쉬리모텔","category":"숙박업 - 여관/기타숙박업"},{"name":"할매국수","tel":"031-834-0013","addr":"경기도 연천군 신서면 대광리 160번지 1층","category":"일반휴게음식 - 일반한식"}]},{"lat":"38.20471002","long":"127.1382983","items":[{"name":"알이랑 부추랑","tel":"","addr":"경기도 연천군 신서면 대광리 581번지","category":"음료식품 - 농·축·수산품"}]},{"lat":"38.21360094","long":"127.1389885","items":[{"name":"약수오리","tel":"031-834-1952","addr":"경기도 연천군 신서면 대광리 171-15번지 1층","category":"일반휴게음식 - 일반한식"}]},{"lat":"38.21445655","long":"127.1391842","items":[{"name":"연천송어집","tel":"02-000-0000","addr":"경기도 연천군 신서면 대광리 165-3번지","category":"일반휴게음식 - 일식·회집"},{"name":"연천수영장펜션","tel":"031-832-4980","addr":"경기도 연천군 신서면 대광리 165-3번지","category":"숙박업 - 여관/기타숙박업"}]},{"lat":"38.21257208","long":"127.1405737","items":[{"name":"우렁이랑장어랑","tel":"031-834-9848","addr":"경기도 연천군 신서면 대광리 142-5번지","category":"일반휴게음식 - 일반한식"}]},{"lat":"38.21298803","long":"127.1467974","items":[{"name":"주식회사 더호프","tel":"031-834-2555","addr":"경기도 연천군 신서면 대광리 130-3번지","category":"레저업소 - 기타레져업소"}]},{"lat":"38.18951621","long":"127.1174957","items":[{"name":"지현사","tel":"062-527-2222","addr":"경기도 연천군 신서면 대광리 산 72-1","category":"기타 - 비영리/대상"}]},{"lat":"38.21282081","long":"127.1435429","items":[{"name":"통일식당","tel":"031-834-8025","addr":"경기도 연천군 신서면 대광리 135-1번지","category":"일반휴게음식 - 일반한식"}]},{"lat":"38.21289915","long":"127.1382107","items":[{"name":"평화상회","tel":"","addr":"경기도 연천군 신서면 대광리 171-28번지","category":"유통업 영리 - 슈퍼마켓"}]},{"lat":"38.21345628","long":"127.1394335","items":[{"name":"호식이두마리치킨","tel":"031-834-9309","addr":"경기도 연천군 신서면 대광리 169-18번지","category":"일반휴게음식 - 스넥"}]}]