[{"lat":"37.661739579","long":"126.7647697","imageIndex":17,"items":[{"name":"SyncFish","tel":"031-917-7270","addr":"경기도 고양시 일산동구 호수로","indutype":"기타 - 기타 전문점","category":"other"},{"name":"유한회사라인네트웍스","tel":"02-2667-2666","addr":"경기도 고양시 일산동구 호수로","indutype":"의류 - 정장","category":"other"}]},{"lat":"37.639321054","long":"126.78691183","imageIndex":17,"items":[{"name":"겅호","tel":"031-962-2550","addr":"경기도 고양시 일산동구 호수로","indutype":"건축자재 - 기타건축자재","category":"other"}]},{"lat":"37.640383425","long":"126.78648954","imageIndex":17,"items":[{"name":"나이스정보서비스","tel":"02-1566-6539","addr":"경기도 고양시 일산동구 호수로","indutype":"사무통신 - 통신기기","category":"other"},{"name":"주식회사 청헌엠디","tel":"070-8801-8052","addr":"경기도 고양시 일산동구 호수로","indutype":"신변잡화 - 기타잡화","category":"other"},{"name":"퓨리웰","tel":"031-868-1581","addr":"경기도 고양시 일산동구 호수로","indutype":"회원제형태 - 사무서비스","category":"other"}]},{"lat":"37.638131552","long":"126.78679065","imageIndex":17,"items":[{"name":"밀레니엄세탁소","tel":"031-902-7988","addr":"경기도 고양시 일산동구 호수로","indutype":"수리서비스 - 세탁소","category":"other"},{"name":"옥시헤노그린 주식회사","tel":"031-906-7252","addr":"경기도 고양시 일산동구 호수로","indutype":"회원제형태 - 기타3","category":"other"}]},{"lat":"37.659827189","long":"126.76809637","imageIndex":17,"items":[{"name":"법무사신진태사무소","tel":"031-904-5872","addr":"경기도 고양시 일산동구 호수로","indutype":"용역 서비스 - 법률회계서비스(개인)","category":"other"},{"name":"에코앤에듀","tel":"031-911-7977","addr":"경기도 고양시 일산동구 호수로","indutype":"서적문구 - 출판 및 인쇄물","category":"other"},{"name":"일산자유로RC","tel":"031-907-3692","addr":"경기도 고양시 일산동구 호수로","indutype":"기타 - 비영리/비대상","category":"other"},{"name":"주식회사비티메디","tel":"031-810-9395","addr":"경기도 고양시 일산동구 호수로","indutype":"회원제형태 - 기타4","category":"other"},{"name":"프리존","tel":"02-795-6406","addr":"경기도 고양시 일산동구 호수로","indutype":"전기제품 - 가전제품","category":"other"}]},{"lat":"37.656684635","long":"126.76901286","imageIndex":17,"items":[{"name":"벽과창","tel":"031-908-7097","addr":"경기도 고양시 일산동구 호수로","indutype":"직물 - 카페트,커튼,천막,지물","category":"other"}]},{"lat":"37.636937114","long":"126.79393169","imageIndex":17,"items":[{"name":"사계절 야생화","tel":"031-904-7992","addr":"경기도 고양시 일산동구 호수로","indutype":"문화.취미 - 화원","category":"other"}]},{"lat":"37.637439527","long":"126.78773301","imageIndex":17,"items":[{"name":"사랑해줄개","tel":"031-901-2105","addr":"경기도 고양시 일산동구 호수로","indutype":"문화.취미 - 애완동물","category":"other"},{"name":"화이트","tel":"031-930-8895","addr":"경기도 고양시 일산동구 호수로","indutype":"의류 - 정장","category":"other"}]},{"lat":"37.639940974","long":"126.78595832","imageIndex":17,"items":[{"name":"상하이","tel":"031-902-3975","addr":"경기도 고양시 일산동구 호수로","indutype":"회원제형태 - 레져업소","category":"other"},{"name":"에듀톡톡","tel":"031-908-7262","addr":"경기도 고양시 일산동구 호수로","indutype":"서적문구 - 출판 및 인쇄물","category":"other"}]}]