[{"lat":"37.201404294","long":"126.79083537","items":[{"name":"(주)함께사는 세상","tel":"031-366-7085","addr":"경기도 화성시 마도면 두곡리 495-19번지 107호","category":"용역 서비스 - 종합용역"},{"name":"서진광고기획","tel":"031-355-6899","addr":"경기도 화성시 마도면 두곡리 495-19번지 111호","category":"용역 서비스 - 종합용역"}]},{"lat":"37.20743088","long":"126.77553194","items":[{"name":"GS25마도사거리점","tel":"","addr":"경기도 화성시 마도면 두곡리 344-3번지","category":"유통업 영리 - 편 의 점"}]},{"lat":"37.204321357","long":"126.7846092","items":[{"name":"GS25화성로점","tel":"","addr":"경기도 화성시 마도면 두곡리 452-6번지","category":"유통업 영리 - 편 의 점"}]},{"lat":"37.206653957","long":"126.77447537","items":[{"name":"Oil holic(오일홀릭)","tel":"070-4251-6024","addr":"경기도 화성시 마도면 두곡리 350-3번지","category":"자동차정비 유지 - 윤활유 전문 판매"},{"name":"남양마대상사","tel":"031-352-1673","addr":"경기도 화성시 마도면 두곡리 350-3번지","category":"유통업 영리 - 기타유통업"},{"name":"다솔모터","tel":"031-355-2442","addr":"경기도 화성시 마도면 두곡리 350-3","category":"기타 - 기계공구"}]},{"lat":"37.207708597","long":"126.77469749","items":[{"name":"갈비마을","tel":"031-357-0061","addr":"경기도 화성시 마도면 두곡리 260-7번지","category":"일반휴게음식 - 일반한식"},{"name":"엔돌핀노래방","tel":"031-355-5092","addr":"경기도 화성시 마도면 두곡리 260-7번지","category":"레저업소 - 노 래 방"},{"name":"킹","tel":"031-356-9460","addr":"경기도 화성시 마도면 두곡리 260-7번지 110,111호","category":"보건위생 - 피부미용실"}]},{"lat":"37.201931809","long":"126.78855854","items":[{"name":"경기목재","tel":"031-355-4300","addr":"경기도 화성시 마도면 두곡리 495-3 495-16","category":"건축자재 - 인테리어전문"}]},{"lat":"37.20562596","long":"126.78358035","items":[{"name":"경동천막산업","tel":"031-8356-6611","addr":"경기도 화성시 마도면 두곡리 186-3번지","category":"직물 - 카페트,커튼,천막,지물"}]},{"lat":"37.205799077","long":"126.77978364","items":[{"name":"고은헤어샵","tel":"031-355-3422","addr":"경기도 화성시 마도면 두곡리 402-16번지 우리홈타운 1층 102호","category":"보건위생 - 미용원"}]},{"lat":"37.205714662","long":"126.77802659","items":[{"name":"굽네치킨화성마도점","tel":"031-356-5708","addr":"경기도 화성시 마도면 두곡리 319-5번지 1층","category":"일반휴게음식 - 스넥"}]},{"lat":"37.205931764","long":"126.77847654","items":[{"name":"그때 그집","tel":"031-356-6649","addr":"경기도 화성시 마도면 두곡리 319-4","category":"일반휴게음식 - 일반한식"},{"name":"취향","tel":"031-357-9522","addr":"경기도 화성시 마도면 두곡리 319-4","category":"일반휴게음식 - 중국식"}]},{"lat":"37.205156086","long":"126.78286078","items":[{"name":"남양자동차유리","tel":"031-366-8392","addr":"경기도 화성시 마도면 두곡리 414-2번지 제임스빌 102호","category":"자동차정비 유지 - 자동차부품"}]},{"lat":"37.206713845","long":"126.78230428","items":[{"name":"대도맥간공예","tel":"031-366-8224","addr":"경기도 화성시 마도면 두곡리 191-5","category":"문화.취미 - 민예·공예품"}]},{"lat":"37.20621771","long":"126.78200157","items":[{"name":"대명창호","tel":"031-357-6885","addr":"경기도 화성시 마도면 두곡리 410번지","category":"건축자재 - 기타건축자재"}]},{"lat":"37.20571688","long":"126.77919811","items":[{"name":"대성한식뷔페","tel":"031-357-3797","addr":"경기도 화성시 마도면 두곡리 402-5번지 106호 마도상가","category":"일반휴게음식 - 일반한식"},{"name":"델리퀸치킨","tel":"031-366-8292","addr":"경기도 화성시 마도면 두곡리 402-5번지 1층 103호, 104호","category":"일반휴게음식 - 스넥"},{"name":"동산분식","tel":"031-355-4584","addr":"경기도 화성시 마도면 두곡리 402-5번지","category":"일반휴게음식 - 스넥"},{"name":"마도떡방앗간","tel":"031-356-2915","addr":"경기도 화성시 마도면 두곡리 402-5번지","category":"음료식품 - 제과점"},{"name":"마도불족발","tel":"031-357-8846","addr":"경기도 화성시 마도면 두곡리 402-5번지 108마도상가","category":"일반휴게음식 - 일반한식"},{"name":"마도식당","tel":"031-357-9491","addr":"경기도 화성시 마도면 두곡리 402-5번지 1층","category":"일반휴게음식 - 일반한식"},{"name":"명성육계장","tel":"031-356-3143","addr":"경기도 화성시 마도면 두곡리 402-5번지","category":"일반휴게음식 - 일반한식"},{"name":"친구야한잔어때","tel":"070-8184-8276","addr":"경기도 화성시 마도면 두곡리 402-5번지 1층","category":"일반휴게음식 - 주점"},{"name":"카페마도(Cafe MADO)","tel":"031-356-1193","addr":"경기도 화성시 마도면 두곡리 402-5번지","category":"일반휴게음식 - 서양음식"}]},{"lat":"37.205634156","long":"126.78314101","items":[{"name":"대원종합상사","tel":"031-357-4189","addr":"경기도 화성시 마도면 두곡리 413번지 102호 101호, 102호","category":"신변잡화 - 기타잡화"},{"name":"미니스톱화성로점","tel":"031-1577-9621","addr":"경기도 화성시 마도면 두곡리 413번지","category":"유통업 영리 - 편 의 점"}]},{"lat":"37.206182257","long":"126.77752955","items":[{"name":"돈이짱!","tel":"031-355-6487","addr":"경기도 화성시 마도면 두곡리 328번지 2","category":"일반휴게음식 - 일반한식"}]},{"lat":"37.206154953","long":"126.78217072","items":[{"name":"동양강철화성대리점","tel":"031-357-0114","addr":"경기도 화성시 마도면 두곡리 410-3번지 411호","category":"기타 - 기계공구"}]},{"lat":"37.205158256","long":"126.78403229","items":[{"name":"동양상사","tel":"031-357-9644","addr":"경기도 화성시 마도면 두곡리 184-2","category":"건축자재 - 기타건축자재"}]},{"lat":"37.204770125","long":"126.78366168","items":[{"name":"동하건재","tel":"031-357-2532","addr":"경기도 화성시 마도면 두곡리 448-20번지","category":"건축자재 - 기타건축자재"}]},{"lat":"37.204186658","long":"126.78485741","items":[{"name":"드림디포 송산마도점","tel":"031-356-8246","addr":"경기도 화성시 마도면 두곡리 452-2번지","category":"서적문구 - 문구용품"}]},{"lat":"37.207629474","long":"126.77572285","items":[{"name":"드림정육점","tel":"031-355-6777","addr":"경기도 화성시 마도면 두곡리 342-2번지","category":"음료식품 - 정육점"},{"name":"만나정육식당","tel":"031-355-6777","addr":"경기도 화성시 마도면 두곡리 342-2번지 1층","category":"일반휴게음식 - 일반한식"}]},{"lat":"37.206352294","long":"126.77692075","items":[{"name":"땡구당구클럽","tel":"070-7313-5413","addr":"경기도 화성시 마도면 두곡리 333-2번지 2층","category":"레저업소 - 당 구 장"},{"name":"별이치킨","tel":"","addr":"경기도 화성시 마도면 두곡리 333-2번지 106호","category":"일반휴게음식 - 스넥"},{"name":"소문난바지락손칼국수","tel":"031-357-9984","addr":"경기도 화성시 마도면 두곡리 333-2번지 1층","category":"일반휴게음식 - 일반한식"},{"name":"약선당감자탕","tel":"","addr":"경기도 화성시 마도면 두곡리 333-2번지","category":"일반휴게음식 - 일반한식"},{"name":"양평해장국","tel":"031-356-5036","addr":"경기도 화성시 마도면 두곡리 333-2번지","category":"일반휴게음식 - 일반한식"},{"name":"일등분식","tel":"031-357-3082","addr":"경기도 화성시 마도면 두곡리 333-2번지 1층 103호","category":"일반휴게음식 - 일반한식"},{"name":"황진이노래뮤비방","tel":"031-0313-5565","addr":"경기도 화성시 마도면 두곡리 333-2번지 2층","category":"용역 서비스 - 종합용역"}]},{"lat":"37.205770197","long":"126.77880369","items":[{"name":"또래오래","tel":"031-357-8836","addr":"경기도 화성시 마도면 두곡리 402-2번지","category":"일반휴게음식 - 스넥"}]},{"lat":"37.206181935","long":"126.77736058","items":[{"name":"마도꽃농원","tel":"031-356-8257","addr":"경기도 화성시 마도면 두곡리 328번지","category":"문화.취미 - 화원"},{"name":"마도면사랑","tel":"031-355-0339","addr":"경기도 화성시 마도면 두곡리 328번지 1층","category":"일반휴게음식 - 일반한식"},{"name":"수","tel":"070-2699-0807","addr":"경기도 화성시 마도면 두곡리 328번지 2층","category":"보건위생 - 미용재료"},{"name":"장터식당","tel":"031-355-2449","addr":"경기도 화성시 마도면 두곡리 328번지 성도빌딩 106호","category":"일반휴게음식 - 일반한식"}]},{"lat":"37.206431794","long":"126.77608691","items":[{"name":"마도메디의원","tel":"031-357-1077","addr":"경기도 화성시 마도면 두곡리 334-1번지","category":"의원 - 의원"},{"name":"마도서울치과의원","tel":"031-356-4757","addr":"경기도 화성시 마도면 두곡리 334-1번지 3층","category":"의원 - 치과의원"},{"name":"마도수정약국","tel":"031-357-7235","addr":"경기도 화성시 마도면 두곡리 334-1번지 103호","category":"약국 - 약국"}]},{"lat":"37.20321048","long":"126.78811561","items":[{"name":"마도샤링","tel":"031-366-9847","addr":"경기도 화성시 마도면 두곡리 494-12번지","category":"건축자재 - 기타건축자재"}]},{"lat":"37.205270669","long":"126.77672121","items":[{"name":"마도제일카센타","tel":"031-356-7095","addr":"경기도 화성시 마도면 두곡리 363-7번지","category":"자동차정비 유지 - 자동차정비"}]},{"lat":"37.206101699","long":"126.77781141","items":[{"name":"마도포장산업","tel":"031-356-9175","addr":"경기도 화성시 마도면 두곡리 324번지","category":"기타 - 기타 전문점"}]},{"lat":"37.20654828","long":"126.77574862","items":[{"name":"마도회관","tel":"031-356-2009","addr":"경기도 화성시 마도면 두곡리 347-3번지","category":"일반휴게음식 - 일반한식"}]},{"lat":"37.206316067","long":"126.78159575","items":[{"name":"마포곱창전골","tel":"031-357-9960","addr":"경기도 화성시 마도면 두곡리 407-1번지 B동 1층","category":"일반휴게음식 - 일반한식"}]},{"lat":"37.205852757","long":"126.77958071","items":[{"name":"만남슈퍼 편의점","tel":"031-356-3733","addr":"경기도 화성시 마도면 두곡리 402-8번지 우리홈타운 101동 101호","category":"유통업 영리 - 슈퍼마켓"},{"name":"씨유화성두곡점","tel":"031-356-4653","addr":"경기도 화성시 마도면 두곡리 402-8번지 우리홈타운 101동 101호","category":"유통업 영리 - 편 의 점"}]},{"lat":"37.208015208","long":"126.77483175","items":[{"name":"명가원","tel":"031-355-7525","addr":"경기도 화성시 마도면 두곡리 260-1","category":"일반휴게음식 - 일반한식"}]},{"lat":"37.203800698","long":"126.79063717","items":[{"name":"명진SP샤링","tel":"031-356-9507","addr":"경기도 화성시 마도면 두곡리 13-3","category":"건축자재 - 기타건축자재"}]},{"lat":"37.205994452","long":"126.77827358","items":[{"name":"모란다방","tel":"031-111-1111","addr":"경기도 화성시 마도면 두곡리 320-3번지","category":"일반휴게음식 - 서양음식"},{"name":"무지개지물포","tel":"031-356-4363","addr":"경기도 화성시 마도면 두곡리 320-3번지","category":"직물 - 카페트,커튼,천막,지물"},{"name":"불타는장작구이&치맥먹고노가리풀자","tel":"031-356-9193","addr":"경기도 화성시 마도면 두곡리 320-3번지 1층","category":"일반휴게음식 - 일반한식"}]},{"lat":"37.205406619","long":"126.77713759","items":[{"name":"미니스톱 화성마도타운점","tel":"031-1577-9621","addr":"경기도 화성시 마도면 두곡리 325-7번지","category":"유통업 영리 - 편 의 점"}]},{"lat":"37.207602335","long":"126.7756666","items":[{"name":"병천순대 마도점","tel":"031-355-5055","addr":"경기도 화성시 마도면 두곡리 344-3번지 1동 1층","category":"일반휴게음식 - 일반한식"}]},{"lat":"37.208493036","long":"126.77497676","items":[{"name":"산새소리어린이집[아이행복]","tel":"031-356-9393","addr":"경기도 화성시 마도면 두곡리 260-27번지 중아아트빌 1동 101호","category":"학원 - 유아원"}]},{"lat":"37.203544555","long":"126.78849765","items":[{"name":"삼다성계약백숙","tel":"031-356-4321","addr":"경기도 화성시 마도면 두곡리 494-13번지","category":"일반휴게음식 - 일반한식"}]},{"lat":"37.206047333","long":"126.78244139","items":[{"name":"새론방범창","tel":"031-355-0113","addr":"경기도 화성시 마도면 두곡리 411-1번지 외1필지","category":"기타 - 기타 전문점"}]},{"lat":"37.204688574","long":"126.7834141","items":[{"name":"서진메탈","tel":"031-357-7964","addr":"경기도 화성시 마도면 두곡리 448-19번지","category":"기타 - 기계공구"}]},{"lat":"37.20587612","long":"126.77764311","items":[{"name":"세탁프리(워시) 화성마도","tel":"031-0000-0000","addr":"경기도 화성시 마도면 두곡리 326-2번지","category":"수리서비스 - 세탁소"}]},{"lat":"37.205548977","long":"126.77619094","items":[{"name":"송산렉카","tel":"031-355-4902","addr":"경기도 화성시 마도면 두곡리 359-1번지 303호","category":"자동차정비 유지 - 견인서비스"}]},{"lat":"37.203548457","long":"126.78569281","items":[{"name":"수성산업","tel":"031-356-0947","addr":"경기도 화성시 마도면 두곡리 484-7번지 104호","category":"기타 - 기계공구"},{"name":"수연택크 통상","tel":"031-356-0947","addr":"경기도 화성시 마도면 두곡리 484-7번지 104호","category":"기타 - 기계공구"}]},{"lat":"37.207680915","long":"126.77435963","items":[{"name":"스마트카서비스","tel":"031-357-7119","addr":"경기도 화성시 마도면 두곡리 260-19","category":"자동차정비 유지 - 자동차정비"},{"name":"화성스피드특수렉카","tel":"064-000-0000","addr":"경기도 화성시 마도면 두곡리 260-19번지","category":"자동차정비 유지 - 견인서비스"}]},{"lat":"37.200849202","long":"126.78780691","items":[{"name":"씨유화성마도두곡점","tel":"080-080-3663","addr":"경기도 화성시 마도면 두곡리 507번지","category":"유통업 영리 - 편 의 점"}]},{"lat":"37.206010267","long":"126.77711327","items":[{"name":"아띠랑스","tel":"02-357-3791","addr":"경기도 화성시 마도면 두곡리 328-3번지 성도빌라 B동 402호","category":"보건위생 - 화장품"}]},{"lat":"37.206353893","long":"126.78255315","items":[{"name":"엄지둥공예","tel":"031-366-8220","addr":"경기도 화성시 마도면 두곡리 190-2번지 외1필지","category":"문화.취미 - 민예·공예품"}]},{"lat":"37.208432363","long":"126.77622737","items":[{"name":"에스아이","tel":"031-355-6302","addr":"경기도 화성시 마도면 두곡리 287-4번지 1층 2호","category":"전기제품 - 가전제품"}]},{"lat":"37.210652718","long":"126.77822598","items":[{"name":"엠케이엔터","tel":"","addr":"경기도 화성시 마도면 두곡리 240-1번지","category":"기타 - 기계공구"}]},{"lat":"37.206101742","long":"126.77783394","items":[{"name":"옛날짜장","tel":"031-355-3354","addr":"경기도 화성시 마도면 두곡리 323-5번지","category":"일반휴게음식 - 중국식"}]},{"lat":"37.206243648","long":"126.78141573","items":[{"name":"우객노","tel":"031-356-8440","addr":"경기도 화성시 마도면 두곡리 407-1 1층 A","category":"일반휴게음식 - 일반한식"},{"name":"우객정육센터","tel":"031-356-8440","addr":"경기도 화성시 마도면 두곡리 407-1","category":"음료식품 - 정육점"}]},{"lat":"37.201182482","long":"126.78774964","items":[{"name":"우신펌프","tel":"031-356-7767","addr":"경기도 화성시 마도면 두곡리 506번지","category":"건축자재 - 보일러·펌프·샷시"},{"name":"우신펌프","tel":"031-356-7767","addr":"경기도 화성시 마도면 두곡리 506번지","category":"건축자재 - 보일러·펌프·샷시"},{"name":"월드테크","tel":"031-356-7675","addr":"경기도 화성시 마도면 두곡리 506번지","category":"기타 - 기계공구"},{"name":"혁신특수레이저알곤용접","tel":"031-351-6522","addr":"경기도 화성시 마도면 두곡리 506번지 A동","category":"용역 서비스 - 기타용역서비스"}]},{"lat":"37.202434426","long":"126.78747575","items":[{"name":"이동상사","tel":"031-318-4067","addr":"경기도 화성시 마도면 두곡리 493번지","category":"자동차정비 유지 - 자동차시트·타이어"}]},{"lat":"37.199245302","long":"126.78777767","items":[{"name":"인우종합상사","tel":"031-357-3948","addr":"경기도 화성시 마도면 두곡리 508-16","category":"전기제품 - 기타전기제품"}]},{"lat":"37.199100584","long":"126.78747396","items":[{"name":"장모님밥상","tel":"070-4410-2585","addr":"경기도 화성시 마도면 두곡리 508-2번지 1층","category":"일반휴게음식 - 일반한식"}]},{"lat":"37.205819952","long":"126.78130432","items":[{"name":"정도천막기업","tel":"031-366-8390","addr":"경기도 화성시 마도면 두곡리 405-6번지","category":"직물 - 카페트,커튼,천막,지물"}]},{"lat":"37.203797496","long":"126.7888574","items":[{"name":"정성한식부페","tel":"031-366-9610","addr":"경기도 화성시 마도면 두곡리 494-14번지","category":"일반휴게음식 - 일반한식"}]},{"lat":"37.204239807","long":"126.78436161","items":[{"name":"조선산업","tel":"031-355-3527","addr":"경기도 화성시 마도면 두곡리 448-8번지","category":"기타 - 기계공구"}]},{"lat":"37.199741728","long":"126.78824934","items":[{"name":"주식회사 신성석기","tel":"031-355-1171","addr":"경기도 화성시 마도면 두곡리 510-4번지","category":"주방용구 - 주방용구"}]},{"lat":"37.206268528","long":"126.77552416","items":[{"name":"주식회사 지앤텍","tel":"031-366-8765","addr":"경기도 화성시 마도면 두곡리 353번지","category":"보건위생 - 의료용품"}]},{"lat":"37.205876741","long":"126.77796979","items":[{"name":"진주돈가","tel":"031-355-3555","addr":"경기도 화성시 마도면 두곡리 320-2번지","category":"일반휴게음식 - 일반한식"}]},{"lat":"37.205017964","long":"126.78613918","items":[{"name":"참나무바베큐","tel":"031-1688-9233","addr":"경기도 화성시 마도면 두곡리 산46번지 나동","category":"음료식품 - 기타음료식품"}]},{"lat":"37.205575275","long":"126.77580786","items":[{"name":"청산골","tel":"031-355-0232","addr":"경기도 화성시 마도면 두곡리 358-4 1층","category":"일반휴게음식 - 일반한식"}]},{"lat":"37.205881991","long":"126.78075216","items":[{"name":"쵸이스노래연습장","tel":"031-366-8181","addr":"경기도 화성시 마도면 두곡리 406-10","category":"레저업소 - 노 래 방"}]},{"lat":"37.206682484","long":"126.77525256","items":[{"name":"춘천닭갈비","tel":"031-356-4716","addr":"경기도 화성시 마도면 두곡리 347번지","category":"일반휴게음식 - 일반한식"}]},{"lat":"37.205828297","long":"126.7761901","items":[{"name":"카페리즈","tel":"","addr":"경기도 화성시 마도면 두곡리 361-3번지 1동 1층","category":"일반휴게음식 - 서양음식"}]},{"lat":"37.209015568","long":"126.77967278","items":[{"name":"태양청과","tel":"031-111-1111","addr":"경기도 화성시 마도면 두곡리 220-6번지 102동 101호","category":"음료식품 - 농·축·수산품"}]},{"lat":"37.201767948","long":"126.78763534","items":[{"name":"한화호텔앤드리조트(주)화성장례문화원점","tel":"031-111-1111","addr":"경기도 화성시 마도면 두곡리 501번지 1동 1층일부 화성장례문화원","category":"일반휴게음식 - 일반한식"}]},{"lat":"37.205737044","long":"126.78033579","items":[{"name":"헤라","tel":"031-355-1600","addr":"경기도 화성시 마도면 두곡리 406-13번지","category":"숙박업 - 여관/기타숙박업"}]},{"lat":"37.203243013","long":"126.78618931","items":[{"name":"현대토탈씽크대","tel":"031-366-8810","addr":"경기도 화성시 마도면 두곡리 484-1번지","category":"주방용구 - 주방용구"}]},{"lat":"37.204098885","long":"126.79110945","items":[{"name":"화성OK리퍼브샵","tel":"","addr":"경기도 화성시 마도면 두곡리 13-12번지 1동","category":"신변잡화 - 기타잡화"}]},{"lat":"37.203072846","long":"126.78675302","items":[{"name":"화성알뜰매장","tel":"031-356-8272","addr":"경기도 화성시 마도면 두곡리 488-3번지 하사알뜰매장","category":"가구 - 일반가구"},{"name":"효성중전기","tel":"031-356-8494","addr":"경기도 화성시 마도면 두곡리 488-3번지","category":"기타 - 기계공구"}]},{"lat":"37.206545804","long":"126.78400576","items":[{"name":"화성양봉원","tel":"031-356-1717","addr":"경기도 화성시 마도면 두곡리 159","category":"음료식품 - 농·축·수산품"}]},{"lat":"37.20355328","long":"126.78833993","items":[{"name":"황가네","tel":"031-223-5214","addr":"경기도 화성시 마도면 두곡리 494-13번지 2동 1층","category":"일반휴게음식 - 일반한식"}]}]