[{"lat":"37.822508933","long":"127.39750882","items":[{"name":"대금산영농조합법인","tel":"070-8809-9579","addr":"경기도 가평군 조종면 대보리 231-2번지 1층","category":"음료식품 - 농·축·수산품"}]},{"lat":"37.799736557","long":"127.37714298","items":[{"name":"대보리쉼터","tel":"031-585-1281","addr":"경기도 가평군 조종면 대보리 150-2번지","category":"일반휴게음식 - 일반한식"}]},{"lat":"37.796987661","long":"127.38308988","items":[{"name":"모닝펠리스","tel":"031-585-3682","addr":"경기도 가평군 조종면 대보리 92-1번지","category":"숙박업 - 여관/기타숙박업"}]},{"lat":"37.818673045","long":"127.36604038","items":[{"name":"밀마운트","tel":"070-8801-6420","addr":"경기도 가평군 조종면 대보리 419-22번지","category":"음료식품 - 농·축·수산품"}]},{"lat":"37.798732564","long":"127.3922616","items":[{"name":"밤꽃향기","tel":"031-585-1284","addr":"경기도 가평군 조종면 대보리 60-1번지","category":"일반휴게음식 - 일반한식"}]},{"lat":"37.809318177","long":"127.36412086","items":[{"name":"버섯구지녹색농촌체험마을","tel":"031-584-9614","addr":"경기도 가평군 조종면 대보리 519-21번지","category":"음료식품 - 농·축·수산품"}]},{"lat":"37.820394478","long":"127.34784282","items":[{"name":"버섯구지체험휴양마을","tel":"031-584-9614","addr":"경기도 가평군 조종면 대보리 519-21번지","category":"레져업소-기타레져업소"}]},{"lat":"37.802737254","long":"127.3881495","items":[{"name":"번창농원","tel":"","addr":"경기도 가평군 조종면 대보리 34번지","category":"음료식품 - 농·축·수산품"}]},{"lat":"37.814539877","long":"127.37115329","items":[{"name":"숙이네","tel":"031-0000-0000","addr":"경기도 가평군 조종면 대보리 525-6번지 포도밭","category":"음료식품 - 농·축·수산품"}]},{"lat":"37.80389728","long":"127.3661497","items":[{"name":"에너지뱅크(이경란)","tel":"031-585-5295","addr":"경기도 가평군 조종면 대보리 505-2번지","category":"연료판매점 - LPG 취급점"}]},{"lat":"37.819732189","long":"127.35548324","items":[{"name":"우리유통","tel":"031-585-8525","addr":"경기도 가평군 조종면 대보리 432-2번지","category":"음료식품 - 기타음료식품"}]},{"lat":"37.79925926","long":"127.39100405","items":[{"name":"은계한옥민박","tel":"031-584-4027","addr":"경기도 가평군 조종면 대보리 73-2번지","category":"숙박업 - 여관/기타숙박업"}]},{"lat":"37.801788057","long":"127.36648001","items":[{"name":"은빛물결캠핑장","tel":"","addr":"경기도 가평군 조종면 대보리 506-1번지","category":"숙박업 - 여관/기타숙박업"}]},{"lat":"37.809563245","long":"127.39994955","items":[{"name":"주식회사 천하대금","tel":"070-5096-2167","addr":"경기도 가평군 조종면 대보리 19번지","category":"유통업 영리 - 기타유통업"}]},{"lat":"37.806315312","long":"127.38497725","items":[{"name":"흥국농산유통","tel":"","addr":"경기도 가평군 조종면 대보리 122번지","category":"음료식품 - 기타음료식품"}]}]