[{"lat":"37.21452046","long":"126.97406342","imageIndex":13,"items":[{"name":"거흥농수산(해피소닉)","tel":"031-234-8382","addr":"경기도 화성시 봉담읍 와우리 240번지 해오름마을봉담그대가2단지 116호","indutype":"보건위생 - 화장품","category":"beauty"},{"name":"명헤어크리닉","tel":"031-223-4922","addr":"경기도 화성시 봉담읍 와우리 240번지 해오름마을봉담그대가2단지아파트 1층 117호","indutype":"보건위생 - 미용원","category":"beauty"},{"name":"민헤어","tel":"031-226-5788","addr":"경기도 화성시 봉담읍 와우리 240번지 해오름마을봉담그대가2단지 108호","indutype":"보건위생 - 미용원","category":"beauty"}]},{"lat":"37.217241719","long":"126.97459191","imageIndex":13,"items":[{"name":"김싸롱","tel":"031-222-8969","addr":"경기도 화성시 봉담읍 와우리 196-2번지 1층","indutype":"보건위생 - 미용원","category":"beauty"}]},{"lat":"37.214718463","long":"126.97315079","imageIndex":13,"items":[{"name":"나이스가이 봉담점","tel":"031-223-2320","addr":"경기도 화성시 봉담읍 와우리 26-6번지 스마트오피스텔상가 지하1층 107호","indutype":"보건위생 - 미용원","category":"beauty"},{"name":"미쁘다헤어","tel":"031-222-9006","addr":"경기도 화성시 봉담읍 와우리 26-6번지 B104호","indutype":"보건위생 - 미용원","category":"beauty"}]},{"lat":"37.215492954","long":"126.97159575","imageIndex":13,"items":[{"name":"더쉼 스킨 하우스","tel":"","addr":"경기도 화성시 봉담읍 와우리 589번지 봉담그대가3단지 제2동 2층 212호","indutype":"보건위생 - 피부미용실","category":"beauty"}]},{"lat":"37.213493576","long":"126.97531432","imageIndex":13,"items":[{"name":"도도헤어","tel":"031-234-2234","addr":"경기도 화성시 봉담읍 와우리 31-6번지 토마토쇼핑 105호","indutype":"보건위생 - 미용원","category":"beauty"}]},{"lat":"37.212968893","long":"126.96748477","imageIndex":13,"items":[{"name":"라보떼헤어","tel":"031-295-9903","addr":"경기도 화성시 봉담읍 와우리 597번지 봉당센트럴푸르지오 상가 2동 105호","indutype":"보건위생 - 미용원","category":"beauty"},{"name":"머리빨","tel":"031-222-5671","addr":"경기도 화성시 봉담읍 와우리 597번지 봉담센트럴푸르지오 상가 1동 108호","indutype":"보건위생 - 미용원","category":"beauty"},{"name":"이레 뷰티호텔","tel":"","addr":"경기도 화성시 봉담읍 와우리 597번지 봉담센트럴푸르지오 상가동 106호","indutype":"보건위생 - 피부미용실","category":"beauty"}]},{"lat":"37.215989456","long":"126.97534721","imageIndex":13,"items":[{"name":"라인헤어","tel":"031-222-6658","addr":"경기도 화성시 봉담읍 와우리 78-13번지 1층","indutype":"보건위생 - 미용원","category":"beauty"}]},{"lat":"37.213881554","long":"126.97770256","imageIndex":13,"items":[{"name":"리안헤어(수원대점)","tel":"031-236-2022","addr":"경기도 화성시 봉담읍 와우리 41-5번지 2층","indutype":"보건위생 - 미용원","category":"beauty"}]},{"lat":"37.2140776","long":"126.96896009","imageIndex":13,"items":[{"name":"모노뷰티아카데미","tel":"031-223-6079","addr":"경기도 화성시 봉담읍 와우리 221-75번지 도원프라자 405호","indutype":"보건위생 - 피부미용실","category":"beauty"},{"name":"아이디어안경","tel":"031-309-0642","addr":"경기도 화성시 봉담읍 와우리 221-75번지 105,106호","indutype":"보건위생 - 안경","category":"beauty"}]},{"lat":"37.214052328","long":"126.97578729","imageIndex":13,"items":[{"name":"바디블랑","tel":"070-7358-0901","addr":"경기도 화성시 봉담읍 와우리 31-3번지 캠퍼스타운 514호","indutype":"보건위생 - 화장품","category":"beauty"},{"name":"캠퍼스헤어","tel":"031-223-0329","addr":"경기도 화성시 봉담읍 와우리 31-3번지 캠퍼스타운 305호","indutype":"보건위생 - 미용원","category":"beauty"}]},{"lat":"37.213962044","long":"126.97500997","imageIndex":13,"items":[{"name":"밝은안경 수원대점","tel":"031-224-0666","addr":"경기도 화성시 봉담읍 와우리 31-4번지 B06,B07호","indutype":"보건위생 - 안경","category":"beauty"},{"name":"아리따움 수원대점","tel":"031-233-1500","addr":"경기도 화성시 봉담읍 와우리 31-4번지 토마토오피스텔 103호","indutype":"보건위생 - 화장품","category":"beauty"}]},{"lat":"37.214213452","long":"126.97148362","imageIndex":13,"items":[{"name":"별헤어","tel":"031-223-1128","addr":"경기도 화성시 봉담읍 와우리 591번지 봉담휴먼빌 상가동 8201호","indutype":"보건위생 - 미용원","category":"beauty"}]},{"lat":"37.21574646","long":"126.97659785","imageIndex":13,"items":[{"name":"뷰티플렉스(수원대점)","tel":"031-225-7796","addr":"경기도 화성시 봉담읍 와우리 75-6번지 101호","indutype":"보건위생 - 화장품","category":"beauty"}]},{"lat":"37.212906755","long":"126.97076315","imageIndex":13,"items":[{"name":"샤이니헤어","tel":"031-232-7766","addr":"경기도 화성시 봉담읍 와우리 590번지 봉담아이파크 상가동 106호","indutype":"보건위생 - 미용원","category":"beauty"}]},{"lat":"37.218989623","long":"126.97415185","imageIndex":13,"items":[{"name":"송이헤어","tel":"031-225-3832","addr":"경기도 화성시 봉담읍 와우리 177-4번지 제1호외1필지 가동 102호","indutype":"보건위생 - 미용원","category":"beauty"}]},{"lat":"37.213880838","long":"126.97453683","imageIndex":13,"items":[{"name":"쉬즈아이 속눈썹","tel":"","addr":"경기도 화성시 봉담읍 와우리 31-1번지 202-2호(와우라상가)","indutype":"보건위생 - 피부미용실","category":"beauty"}]},{"lat":"37.216296017","long":"126.97625967","imageIndex":13,"items":[{"name":"쉬크헤어","tel":"031-225-6328","addr":"경기도 화성시 봉담읍 와우리 84-3번지 1동 1층 103호","indutype":"보건위생 - 미용원","category":"beauty"}]},{"lat":"37.213961803","long":"126.9740073","imageIndex":13,"items":[{"name":"쏭네일","tel":"","addr":"경기도 화성시 봉담읍 와우리 26-12번지 태천센타 2층 203호","indutype":"보건위생 - 피부미용실","category":"beauty"},{"name":"올가드림뷰티(봉담점)","tel":"031-222-7855","addr":"경기도 화성시 봉담읍 와우리 26-12번지 태천센타 215호","indutype":"보건위생 - 화장품","category":"beauty"},{"name":"태천사우나","tel":"031-224-1974","addr":"경기도 화성시 봉담읍 와우리 26-12번지 태천센터빌딩 116,117,118호","indutype":"보건위생 - 사우나","category":"beauty"},{"name":"헤어트랜드","tel":"031-232-8488","addr":"경기도 화성시 봉담읍 와우리 26-12번지 태천센타 117호","indutype":"보건위생 - 미용원","category":"beauty"},{"name":"휴앤샵","tel":"070-8970-4011","addr":"경기도 화성시 봉담읍 와우리 26-12번지 태천센타 206호","indutype":"보건위생 - 화장품","category":"beauty"}]},{"lat":"37.213655948","long":"126.97612541","imageIndex":13,"items":[{"name":"안경나라 수원대점","tel":"031-235-2046","addr":"경기도 화성시 봉담읍 와우리 38-13번지 1층","indutype":"보건위생 - 안경","category":"beauty"}]},{"lat":"37.216521046","long":"126.97525689","imageIndex":13,"items":[{"name":"안경세상","tel":"031-297-2972","addr":"경기도 화성시 봉담읍 와우리 82-1번지 103호","indutype":"보건위생 - 안경","category":"beauty"}]},{"lat":"37.215413064","long":"126.97654164","imageIndex":13,"items":[{"name":"올맨클럽","tel":"031-222-6942","addr":"경기도 화성시 봉담읍 와우리 72-3 시라빌딩3","indutype":"보건위생 - 미용원","category":"beauty"}]},{"lat":"37.214322392","long":"126.97472819","imageIndex":13,"items":[{"name":"지지GO헤어샵","tel":"031-222-6054","addr":"경기도 화성시 봉담읍 와우리 31-16번지 리젠트프라자 104호","indutype":"보건위생 - 미용원","category":"beauty"}]},{"lat":"37.217052658","long":"126.9752567","imageIndex":13,"items":[{"name":"진헤어","tel":"031-235-0605","addr":"경기도 화성시 봉담읍 와우리 89번지 1층 일부","indutype":"보건위생 - 미용원","category":"beauty"}]},{"lat":"37.216268756","long":"126.97525698","imageIndex":13,"items":[{"name":"진헤어 (Jin HAIR)","tel":"031-111-1111","addr":"경기도 화성시 봉담읍 와우리 79-5번지 101호","indutype":"보건위생 - 미용원","category":"beauty"}]},{"lat":"37.213979461","long":"126.97255398","imageIndex":13,"items":[{"name":"최수아 통합발달2센터","tel":"","addr":"경기도 화성시 봉담읍 와우리 591번지 봉담휴먼빌 105동 101호","indutype":"보건위생 - 기타대인서비스","category":"beauty"}]},{"lat":"37.212528249","long":"126.9705042","imageIndex":13,"items":[{"name":"최수아아동발달4센터","tel":"","addr":"경기도 화성시 봉담읍 와우리 590번지 봉담아이파크 107동 102호","indutype":"보건위생 - 기타대인서비스","category":"beauty"}]},{"lat":"37.218601958","long":"126.97326193","imageIndex":13,"items":[{"name":"컷트클럽","tel":"031-221-0560","addr":"경기도 화성시 봉담읍 와우리 183번지 와우프라자 나동 101호","indutype":"보건위생 - 미용원","category":"beauty"}]},{"lat":"37.216385935","long":"126.97544847","imageIndex":13,"items":[{"name":"코코헤어","tel":"031-221-5055","addr":"경기도 화성시 봉담읍 와우리 82-6번지 1층","indutype":"보건위생 - 미용원","category":"beauty"}]},{"lat":"37.214323321","long":"126.97895295","imageIndex":13,"items":[{"name":"토니모리 수원대점","tel":"031-233-1919","addr":"경기도 화성시 봉담읍 와우리 43-3번지 1층","indutype":"보건위생 - 화장품","category":"beauty"}]},{"lat":"37.214133688","long":"126.97698146","imageIndex":13,"items":[{"name":"토리헤어","tel":"031-222-4224","addr":"경기도 화성시 봉담읍 와우리 38-21번지","indutype":"보건위생 - 미용원","category":"beauty"}]},{"lat":"37.215475852","long":"126.97529107","imageIndex":13,"items":[{"name":"파이 메디컬","tel":"031-225-9324","addr":"경기도 화성시 봉담읍 와우리 239번지 해오름마을봉담그대가1단지 102동 1101호","indutype":"보건위생 - 미용재료","category":"beauty"}]},{"lat":"37.215908596","long":"126.97637247","imageIndex":13,"items":[{"name":"허경옥헤어","tel":"031-222-9762","addr":"경기도 화성시 봉담읍 와우리 75-3","indutype":"보건위생 - 미용원","category":"beauty"}]},{"lat":"37.215368007","long":"126.97651912","imageIndex":13,"items":[{"name":"헤어칸","tel":"","addr":"경기도 화성시 봉담읍 와우리 69-1번지 B동 2층 2호","indutype":"보건위생 - 미용원","category":"beauty"}]},{"lat":"37.216683298","long":"126.97553849","imageIndex":13,"items":[{"name":"힐링클럽","tel":"031-226-5080","addr":"경기도 화성시 봉담읍 와우리 83-1번지 2층 좌측상가","indutype":"보건위생 - 화장품","category":"beauty"}]}]