[{"lat":"36.997330149","long":"127.15224833","imageIndex":16,"items":[{"name":"(주)커리어개발연구소","tel":"","addr":"경기도 안성시 공도읍 승두리 782-6번지 평택대글로벌피어선창업보육센터 101호","indutype":"학원 - 기타 교육기관","category":"study"}]},{"lat":"36.998273819","long":"127.16771948","imageIndex":16,"items":[{"name":"강남제일학원","tel":"031-656-6281","addr":"경기도 안성시 공도읍 승두리 67-4","indutype":"학원 - 보습학원","category":"study"}]},{"lat":"36.999051646","long":"127.17205755","imageIndex":16,"items":[{"name":"공도어린이집[아이행복]","tel":"031-618-3320","addr":"경기도 안성시 공도읍 승두리 60-4번지","indutype":"학원 - 유아원","category":"study"},{"name":"공도어린이집[아이행복]","tel":"031-618-3320","addr":"경기도 안성시 공도읍 승두리 60-4번지","indutype":"학원 - 유아원","category":"study"}]},{"lat":"36.989830122","long":"127.17455328","imageIndex":16,"items":[{"name":"이든유치원[아이행복]","tel":"031-618-4499","addr":"경기도 안성시 공도읍 승두리 365-1번지","indutype":"학원 - 유치원","category":"study"}]},{"lat":"36.999690457","long":"127.17272178","imageIndex":16,"items":[{"name":"한국교육협회","tel":"031-656-1885","addr":"경기도 안성시 공도읍 승두리 60-11번지 2층","indutype":"학원 - 기능학원","category":"study"}]}]