[{"lat":"37.579094205","long":"127.22196098","items":[{"name":"(주)모터메이트","tel":"031-577-8008","addr":"경기도 남양주시 와부읍 도곡리 1025-1번지 도심지식산업센터 A동 602호","category":"기타 - 기계공구"},{"name":"(주)태우정밀","tel":"031-521-6904","addr":"경기도 남양주시 와부읍 도곡리 1025-1번지 남양주시범공단 A동 302호","category":"기타 - 기계공구"},{"name":"씨제이메디컬(CJ medical)","tel":"031-521-5942","addr":"경기도 남양주시 와부읍 도곡리 1025-1번지 외2필지 A동 602호","category":"보건위생 - 의료용품"}]},{"lat":"37.586449174","long":"127.22991915","items":[{"name":"(주)세자매연구소","tel":"070-4418-4422","addr":"경기도 남양주시 와부읍 도곡리 866번지","category":"건축자재 - 인테리어전문"}]},{"lat":"37.58645264","long":"127.23278359","items":[{"name":"(주)오성지엔티","tel":"031-481-8992","addr":"경기도 남양주시 와부읍 도곡리 748-13번지","category":"건축자재 - 유리"}]},{"lat":"37.586873066","long":"127.229694","items":[{"name":"(주)코팬글로벌","tel":"070-7701-4505","addr":"경기도 남양주시 와부읍 도곡리 864-12번지","category":"서적문구 - 문구용품"}]},{"lat":"37.589450401","long":"127.2340609","items":[{"name":"32초콜릿","tel":"02-6489-3232","addr":"경기도 남양주시 와부읍 도곡리 819-3번지 1층","category":"일반휴게음식 - 서양음식"}]},{"lat":"37.577898034","long":"127.22563666","items":[{"name":"7 휘트니스","tel":"","addr":"경기도 남양주시 와부읍 도곡리 1058-3번지 동성프라자 3층","category":"레저업소 - 헬스클럽"},{"name":"GS25도곡효담점","tel":"","addr":"경기도 남양주시 와부읍 도곡리 1058-3번지 동성프라자 101호","category":"유통업 영리 - 편 의 점"},{"name":"대천부양꼬치","tel":"031-521-8875","addr":"경기도 남양주시 와부읍 도곡리 1058-3번지 동성프라자 2층 201호","category":"일반휴게음식 - 일반한식"},{"name":"동성빌딩","tel":"031-577-7114","addr":"경기도 남양주시 와부읍 도곡리 1058-3","category":"용역 서비스 - 부동산 중개·임대"},{"name":"동성세차장","tel":"031-577-4718","addr":"경기도 남양주시 와부읍 도곡리 1058-3번지 동성프라자","category":"자동차정비 유지 - 세차장"},{"name":"뚜레쥬르남양주도심","tel":"031-521-1919","addr":"경기도 남양주시 와부읍 도곡리 1058-3번지 동성프라자 1015호 1015호~1016호","category":"음료식품 - 제과점"},{"name":"마리포사","tel":"","addr":"경기도 남양주시 와부읍 도곡리 1058-3번지 동성프라자 1층 1008호","category":"의류 - 정장"},{"name":"민트","tel":"031-521-0895","addr":"경기도 남양주시 와부읍 도곡리 1058-3번지 동성프라자 107호","category":"의류 - 정장"},{"name":"애니컴퓨터","tel":"031-515-7875","addr":"경기도 남양주시 와부읍 도곡리 1058-3번지 동성프라자 1001호","category":"사무통신 - 컴퓨터"},{"name":"콰스타커피(덕소점)","tel":"031-577-7114","addr":"경기도 남양주시 와부읍 도곡리 1058-3번지 1층(외2필지동성프라자)","category":"일반휴게음식 - 서양음식"},{"name":"헤어인","tel":"031-576-3437","addr":"경기도 남양주시 와부읍 도곡리 1058-3번지 동성프라자 1층","category":"보건위생 - 미용원"}]},{"lat":"37.577096252","long":"127.22558899","items":[{"name":"7080라이브","tel":"031-521-1194","addr":"경기도 남양주시 와부읍 도곡리 1062-18번지 강변스포렉스 206호","category":"일반휴게음식 - 주점"},{"name":"경희클래식음악학원","tel":"031-527-7575","addr":"경기도 남양주시 와부읍 도곡리 1062-18번지 강변스포렉스 504호","category":"학원 - 예·체능계학원"},{"name":"금상푸드","tel":"031-000-0000","addr":"경기도 남양주시 와부읍 도곡리 1062-18번지 116,117,118호","category":"일반휴게음식 - 일반한식"},{"name":"다원노인복지센터","tel":"031-577-5320","addr":"경기도 남양주시 와부읍 도곡리 1062-18 강변스포렉스 304,305호","category":"기타의료기관 - 기타의료기관 및 기타"},{"name":"대한태권도스쿨","tel":"031-577-6800","addr":"경기도 남양주시 와부읍 도곡리 1062-18 강변스포렉스 606.607호","category":"학원 - 예·체능계학원"},{"name":"덕소큐이엠학원","tel":"031-521-0578","addr":"경기도 남양주시 와부읍 도곡리 1062-18번지 강변스포렉스 507호","category":"학원 - 보습학원"},{"name":"도곡한국UPI학원","tel":"031-521-4115","addr":"경기도 남양주시 와부읍 도곡리 1062-18번지 강변스포렉스 506호","category":"학원 - 보습학원"},{"name":"마포숯불구이","tel":"031-576-6608","addr":"경기도 남양주시 와부읍 도곡리 1062-18번지 강변스포렉스 102호","category":"일반휴게음식 - 일반한식"},{"name":"봉구스밥버거","tel":"031-521-4330","addr":"경기도 남양주시 와부읍 도곡리 1062-18번지 강변스포렉스 103호","category":"일반휴게음식 - 스넥"},{"name":"아지트","tel":"031-577-4283","addr":"경기도 남양주시 와부읍 도곡리 1062-18번지 강변스포렉스 201호","category":"일반휴게음식 - 주점"},{"name":"에이스독서실","tel":"031-521-4438","addr":"경기도 남양주시 와부읍 도곡리 1062-18번지 강변스포렉스 706동 707호","category":"학원 - 독서실"},{"name":"우리들헤어스토리","tel":"070-8876-8589","addr":"경기도 남양주시 와부읍 도곡리 1062-18번지 강변스포렉스 110호","category":"보건위생 - 미용원"},{"name":"의치한덕소학원","tel":"031-556-1357","addr":"경기도 남양주시 와부읍 도곡리 1062-18번지 406~407호","category":"학원 - 보습학원"},{"name":"참 토탈 인테리어","tel":"031-576-5054","addr":"경기도 남양주시 와부읍 도곡리 1062-18번지 강변스포렉스 1층 108호","category":"건축자재 - 인테리어전문"},{"name":"탐스비어","tel":"031-577-1671","addr":"경기도 남양주시 와부읍 도곡리 1062-18번지 강변스포렉스 107호","category":"일반휴게음식 - 주점"},{"name":"탕스냉면&국면","tel":"031-576-3838","addr":"경기도 남양주시 와부읍 도곡리 1062-18번지 강변스포렉스 119호","category":"일반휴게음식 - 일반한식"},{"name":"팀파이터","tel":"","addr":"경기도 남양주시 와부읍 도곡리 1062-18번지 강변스포렉스 6층 601~604호","category":"레저업소 - 헬스클럽"},{"name":"풍미양꼬치","tel":"031-577-1555","addr":"경기도 남양주시 와부읍 도곡리 1062-18번지 강변스포렉스 111호 112호","category":"일반휴게음식 - 일반한식"},{"name":"한림한의원","tel":"031-577-7522","addr":"경기도 남양주시 와부읍 도곡리 1062-18번지 강변스포렉스 301호","category":"의원 - 한의원"},{"name":"해맑은치과","tel":"031-577-8847","addr":"경기도 남양주시 와부읍 도곡리 강변스포렉스 302","category":"의원 - 치과의원"},{"name":"호식이두마리치킨도심역점","tel":"031-576-9995","addr":"경기도 남양주시 와부읍 도곡리 1062-18번지 강변스포렉스 109호","category":"일반휴게음식 - 스넥"},{"name":"호프호프","tel":"031-521-9123","addr":"경기도 남양주시 와부읍 도곡리 1062-18번지 1층 강변스포렉스 106호","category":"일반휴게음식 - 주점"}]},{"lat":"37.587228093","long":"127.23246896","items":[{"name":"DADA(다다)","tel":"031-521-6258","addr":"경기도 남양주시 와부읍 도곡리 857번지","category":"신변잡화 - 기타잡화"}]},{"lat":"37.580096789","long":"127.21566951","items":[{"name":"GS25도곡두산점","tel":"","addr":"경기도 남양주시 와부읍 도곡리 985번지 덕소두산위브아파트 두산위브상가201~3","category":"유통업 영리 - 편 의 점"},{"name":"김밥나라","tel":"031-521-7100","addr":"경기도 남양주시 와부읍 도곡리 985번지 두산 상가 110호","category":"일반휴게음식 - 스넥"},{"name":"김현아음악학원","tel":"031-577-3156","addr":"경기도 남양주시 와부읍 도곡리 985번지 덕소두산위브아파트 402,403호","category":"회원제형태 - 학원"},{"name":"뉴베리영어교습소","tel":"031-521-9505","addr":"경기도 남양주시 와부읍 도곡리 985번지 두산 상가 304호","category":"학원 - 외국어학원"},{"name":"두산떡방","tel":"031-521-1211","addr":"경기도 남양주시 와부읍 도곡리 985번지 두산사악 112호","category":"음료식품 - 제과점"},{"name":"두산한우마을정육점","tel":"031-521-6272","addr":"경기도 남양주시 와부읍 도곡리 985번지 두산위브 상가 219호","category":"음료식품 - 정육점"},{"name":"벨네일","tel":"031-521-8933","addr":"경기도 남양주시 와부읍 도곡리 985번지 두산 상가 209호","category":"보건위생 - 기타대인서비스"},{"name":"상상인테리어","tel":"031-521-7977","addr":"경기도 남양주시 와부읍 도곡리 985번지 두산 상가 217호","category":"건축자재 - 인테리어전문"},{"name":"서울엘소아청소년과의원","tel":"031-521-8305","addr":"경기도 남양주시 와부읍 도곡리 985번지 덕소두산위브아파트 313(313호~314호)","category":"의원 - 의원"},{"name":"어필황국오교습소","tel":"031-577-8164","addr":"경기도 남양주시 와부읍 도곡리 985번지 두산 상가 307호","category":"회원제형태 - 학원"},{"name":"텐시몰","tel":"031-521-8008","addr":"경기도 남양주시 와부읍 도곡리 985번지 두산 상가 1층 109호","category":"신변잡화 - 액세서리"},{"name":"헤어토크","tel":"031-521-4247","addr":"경기도 남양주시 와부읍 도곡리 985번지 덕소두산위브 상가동 305호","category":"보건위생 - 미용원"}]},{"lat":"37.579647729","long":"127.21983429","items":[{"name":"J.H공조설비산업","tel":"031-577-8960","addr":"경기도 남양주시 와부읍 도곡리 981-3번지","category":"전기제품 - 가전제품"},{"name":"도심건재","tel":"031-577-6429","addr":"경기도 남양주시 와부읍 도곡리 981-3번지","category":"건축자재 - 기타건축자재"},{"name":"도심꽃화원","tel":"031-516-8423","addr":"경기도 남양주시 와부읍 도곡리 981-3번지 도심꽃화원","category":"문화.취미 - 화원"},{"name":"멍블리","tel":"031-521-4754","addr":"경기도 남양주시 와부읍 도곡리 981-3번지","category":"문화.취미 - 애완동물"}]},{"lat":"37.579429075","long":"127.22114687","items":[{"name":"JK탁구클럽","tel":"031-521-6959","addr":"경기도 남양주시 와부읍 도곡리 996-6번지 골드타워 8층","category":"레저업소 - 기타레져업소"},{"name":"T-영어학원","tel":"031-521-0988","addr":"경기도 남양주시 와부읍 도곡리 996-6번지 골드타워 501호","category":"학원 - 보습학원"},{"name":"W당구클럽","tel":"02-575-4155","addr":"경기도 남양주시 와부읍 도곡리 996-6번지 601,602호","category":"레저업소 - 당 구 장"},{"name":"맨헤어숍","tel":"031-521-7624","addr":"경기도 남양주시 와부읍 도곡리 996-6번지 골드타워 101호","category":"보건위생 - 미용원"},{"name":"에이(A)스터디카페","tel":"031-521-0063","addr":"경기도 남양주시 와부읍 도곡리 996-6번지 골드타워 301호","category":"용역 서비스 - 사무서비스"},{"name":"연정다례문화원","tel":"070-8241-1078","addr":"경기도 남양주시 와부읍 도곡리 996-6번지 골드타워 1002호","category":"회원제형태 - 학원"},{"name":"참조은한의원","tel":"031-577-8082","addr":"경기도 남양주시 와부읍 도곡리 996-6번지 골드타워 901호","category":"의원 - 한의원"},{"name":"채움수학학원","tel":"031-576-9311","addr":"경기도 남양주시 와부읍 도곡리 996-6번지 골드타워 502호","category":"학원 - 보습학원"},{"name":"청명이비인후과의원","tel":"031-577-9993","addr":"경기도 남양주시 와부읍 도곡리 996-6번지 201호(외2필지골드타워)","category":"의원 - 의원"}]},{"lat":"37.577035194","long":"127.21966823","items":[{"name":"JM골프연습장","tel":"031-576-5767","addr":"경기도 남양주시 와부읍 도곡리 1122-3번지","category":"회원제형태 - 레져업소"},{"name":"SG스크린골프 덕소점","tel":"031-521-1118","addr":"경기도 남양주시 와부읍 도곡리 1122-3번지","category":"레저업소 - 스크린골프"}]},{"lat":"37.578784371","long":"127.22383931","items":[{"name":"LG인테리어","tel":"031-577-2800","addr":"경기도 남양주시 와부읍 도곡리 1040-5번지","category":"직물 - 카페트,커튼,천막,지물"},{"name":"네일또와","tel":"031-111-1111","addr":"경기도 남양주시 와부읍 도곡리 1040-5번지","category":"보건위생 - 피부미용실"},{"name":"베니코리아","tel":"031-576-7410","addr":"경기도 남양주시 와부읍 도곡리 1040-5번지","category":"음료식품 - 기타음료식품"}]},{"lat":"37.576121261","long":"127.22180511","items":[{"name":"M큐브수학","tel":"031-4153-8229","addr":"경기도 남양주시 와부읍 도곡리 1117번지 건영덕소리버파크 108동 602호","category":"학원 - 보습학원"},{"name":"시너지","tel":"070-4184-5114","addr":"경기도 남양주시 와부읍 도곡리 1117번지 건영덕소리버파크 108동 1103호","category":"건강식품 - 기타건강식품"}]},{"lat":"37.568707881","long":"127.23044257","items":[{"name":"NK웰빙가든","tel":"031-521-7334","addr":"경기도 남양주시 와부읍 도곡리 498-1번지","category":"일반휴게음식 - 일반한식"},{"name":"엔케이(NK)웰빙","tel":"031-521-7334","addr":"경기도 남양주시 와부읍 도곡리 498-1번지","category":"일반휴게음식 - 일반한식"}]},{"lat":"37.579143641","long":"127.21958377","items":[{"name":"SKY골프클럽","tel":"031-521-1011","addr":"경기도 남양주시 와부읍 도곡리 997-13번지 재령빌딩 4층","category":"레저업소 - 골프연습장"},{"name":"경희도곡한의원","tel":"031-576-9124","addr":"경기도 남양주시 와부읍 도곡리 997-13번지 재령빌딩 2층","category":"의원 - 한의원"},{"name":"그린랩테크","tel":"031-521-1150","addr":"경기도 남양주시 와부읍 도곡리 997-13번지 재령빌딩 4층","category":"기타 - 기계공구"},{"name":"나을약국","tel":"031-521-4990","addr":"경기도 남양주시 와부읍 도곡리 997-13번지 101,102호","category":"약국 - 약국"},{"name":"도심공사","tel":"031-577-1146","addr":"경기도 남양주시 와부읍 도곡리 997-13번지 재령빌딩 108호","category":"건축자재 - 부동산 분양"},{"name":"은혜상회","tel":"031-568-3381","addr":"경기도 남양주시 와부읍 도곡리 997-13번지 재령빌딩 1층 5호","category":"음료식품 - 기타음료식품"},{"name":"이디야커피도심역점","tel":"031-576-5300","addr":"경기도 남양주시 와부읍 도곡리 997-13번지 재령빌딩 1층","category":"일반휴게음식 - 서양음식"},{"name":"이삭토스트남양주덕소도심역점","tel":"031-568-3381","addr":"경기도 남양주시 와부읍 도곡리 997-13번지 재령빌딩 1층 5-1호","category":"일반휴게음식 - 서양음식"},{"name":"충무김밥","tel":"031-576-3536","addr":"경기도 남양주시 와부읍 도곡리 997-13번지 외3필지","category":"일반휴게음식 - 일반한식"},{"name":"하시","tel":"","addr":"경기도 남양주시 와부읍 도곡리 997-13번지 재령빌딩 2층","category":"용역 서비스 - 사무서비스"}]},{"lat":"37.577178278","long":"127.22509113","items":[{"name":"가락정육식당","tel":"031-521-0192","addr":"경기도 남양주시 와부읍 도곡리 1062-20번지 1층","category":"일반휴게음식 - 일반한식"},{"name":"윤선생우리집앞영어교실도심학원","tel":"031-576-0595","addr":"경기도 남양주시 와부읍 도곡리 1062-20번지 외1필지","category":"학원 - 보습학원"},{"name":"주식회사매쓰타임","tel":"031-521-4528","addr":"경기도 남양주시 와부읍 도곡리 1062-20번지 (2층201,202,203호)","category":"서적문구 - 기타서적문구"}]},{"lat":"37.580923024","long":"127.21714359","items":[{"name":"가람마트","tel":"031-576-0212","addr":"경기도 남양주시 와부읍 도곡리 976-1번지","category":"유통업 영리 - 슈퍼마켓"},{"name":"미성음악학원","tel":"031-577-1243","addr":"경기도 남양주시 와부읍 도곡리 976-1번지 벽산상가 304.305호","category":"학원 - 예·체능계학원"},{"name":"소풍","tel":"031-577-5222","addr":"경기도 남양주시 와부읍 도곡리 976-1번지 벽산 상가 205호","category":"일반휴게음식 - 스넥"},{"name":"컴동산","tel":"031-521-5575","addr":"경기도 남양주시 와부읍 도곡리 976-1번지 벽산상가 104호","category":"사무통신 - 컴퓨터"}]},{"lat":"37.575123836","long":"127.22036454","items":[{"name":"강변비치파크","tel":"031-576-8554","addr":"경기도 남양주시 와부읍 도곡리 1112-1번지 강변비치모텔","category":"숙박업 - 여관/기타숙박업"},{"name":"강변비치파크","tel":"031-576-8554","addr":"경기도 남양주시 와부읍 도곡리 1112-1번지","category":"숙박업 - 여관/기타숙박업"}]},{"lat":"37.575679469","long":"127.22197362","items":[{"name":"건강한집","tel":"031-577-5554","addr":"경기도 남양주시 와부읍 도곡리 1117번지 건영덕소리버파크 상가동 102호 109호","category":"건축자재 - 인테리어전문"},{"name":"네일에 반하다","tel":"031-576-7775","addr":"경기도 남양주시 와부읍 도곡리 1117번지 건영덕소리버파크 상가동 104호","category":"보건위생 - 피부미용실"},{"name":"달콩피아노교습소","tel":"070-8754-9280","addr":"경기도 남양주시 와부읍 도곡리 1117번지 1층 205호,206호","category":"학원 - 예·체능계학원"},{"name":"러브로지","tel":"070-8291-0723","addr":"경기도 남양주시 와부읍 도곡리 1117번지 건영덕소리버파크 상가동 102호","category":"의류 - 정장"},{"name":"셈수학교습소","tel":"031-512-2966","addr":"경기도 남양주시 와부읍 도곡리 1117 건영상가210호","category":"회원제형태 - 학원"},{"name":"씨유덕소수민점","tel":"080-080-3663","addr":"경기도 남양주시 와부읍 도곡리 1117번지 110,111호","category":"유통업 영리 - 편 의 점"},{"name":"얌얌이","tel":"031-577-7733","addr":"경기도 남양주시 와부읍 도곡리 1117번지 건영덕소리버파크 상가동 105호","category":"일반휴게음식 - 일반한식"},{"name":"요거티","tel":"031-528-6263","addr":"경기도 남양주시 와부읍 도곡리 1117번지 건영덕소리버파크 상가동 104호","category":"일반휴게음식 - 서양음식"}]},{"lat":"37.575372209","long":"127.23655309","items":[{"name":"건국승마","tel":"031-521-6288","addr":"경기도 남양주시 와부읍 도곡리 305-3","category":"회원제형태 - 학원"}]},{"lat":"37.579402464","long":"127.22092038","items":[{"name":"경희체육관","tel":"031-577-7634","addr":"경기도 남양주시 와부읍 도곡리 996-4번지","category":"학원 - 기타 교육기관"},{"name":"남양주 크낙새 태권도장","tel":"070-8945-3313","addr":"경기도 남양주시 와부읍 도곡리 996-4번지","category":"학원 - 예·체능계학원"},{"name":"다나약국","tel":"031-577-8339","addr":"경기도 남양주시 와부읍 도곡리 996-4번지 외2필지 골드타워 102호","category":"약국 - 약국"},{"name":"덕소창조의 아침미술학원","tel":"031-576-4220","addr":"경기도 남양주시 와부읍 도곡리 996-4번지 외2필지 8층 801호","category":"학원 - 예·체능계학원"},{"name":"덕소창조의 아침미술학원","tel":"031-576-4220","addr":"경기도 남양주시 와부읍 도곡리 996-4번지 외2필지 8층 801호","category":"학원 - 예·체능계학원"},{"name":"신탑학원","tel":"031-521-0757","addr":"경기도 남양주시 와부읍 도곡리 996-4번지 3층","category":"학원 - 보습학원"},{"name":"싱싱활어회센타","tel":"031-521-6946","addr":"경기도 남양주시 와부읍 도곡리 996-4번지 골드타워 103호","category":"일반휴게음식 - 일반한식"},{"name":"웰치과의원","tel":"031-576-0888","addr":"경기도 남양주시 와부읍 도곡리 996-4번지 202호","category":"의원 - 치과의원"},{"name":"최용훈국어에이펙스학원","tel":"031-577-5503","addr":"경기도 남양주시 와부읍 도곡리 996-4번지 지소2 3층","category":"학원 - 보습학원"}]},{"lat":"37.576619269","long":"127.22530456","items":[{"name":"고려정육식당","tel":"031-521-6515","addr":"경기도 남양주시 와부읍 도곡리 1090-1번지 1층","category":"일반휴게음식 - 일반한식"},{"name":"까마라 요가 명상원","tel":"070-8987-0114","addr":"경기도 남양주시 와부읍 도곡리 1090-1번지","category":"회원제형태 - 레져업소"},{"name":"농업회사법인(주)고려축산","tel":"031-521-6515","addr":"경기도 남양주시 와부읍 도곡리 1090-1번지","category":"음료식품 - 정육점"},{"name":"도곡큐이엠학원","tel":"031-000-0000","addr":"경기도 남양주시 와부읍 도곡리 1090-1번지 3층","category":"학원 - 보습학원"}]},{"lat":"37.578472259","long":"127.22210633","items":[{"name":"광미크린","tel":"031-577-2405","addr":"경기도 남양주시 와부읍 도곡리 1024-16 전원빌라 가-206","category":"신변잡화 - 기타잡화"}]},{"lat":"37.578145177","long":"127.21869788","items":[{"name":"광어두마리15000","tel":"031-511-8333","addr":"경기도 남양주시 와부읍 도곡리 991-5번지 도곡빌딩 1층 일부","category":"일반휴게음식 - 일반한식"},{"name":"따뜻한11월학원","tel":"070-4150-4911","addr":"경기도 남양주시 와부읍 도곡리 991-5번지 도곡빌딩 301호","category":"학원 - 보습학원"},{"name":"수력발전소 수학학원","tel":"","addr":"경기도 남양주시 와부읍 도곡리 991-5번지 도곡빌딩 2층 201호","category":"학원 - 보습학원"},{"name":"신전떡볶이","tel":"031-577-0301","addr":"경기도 남양주시 와부읍 도곡리 991-5번지 도곡빌딩 102호","category":"일반휴게음식 - 스넥"},{"name":"오투24","tel":"031-591-5905","addr":"경기도 남양주시 와부읍 도곡리 991-5번지 도곡빌딩","category":"유통업 영리 - 슈퍼마켓"},{"name":"페리카나독고점","tel":"031-577-9229","addr":"경기도 남양주시 와부읍 도곡리 991-5번지 도곡빌딩 101호","category":"일반휴게음식 - 스넥"}]},{"lat":"37.577034697","long":"127.22478506","items":[{"name":"국어생각수학생각학원","tel":"031-717-9927","addr":"경기도 남양주시 와부읍 도곡리 1071-4번지 금강빌딩","category":"학원 - 보습학원"},{"name":"네네치킨덕소도곡점","tel":"031-577-9005","addr":"경기도 남양주시 와부읍 도곡리 1071-4번지 금강빌딩 1층 101호","category":"일반휴게음식 - 주점"},{"name":"도나의이야기나라 (Donnabook)","tel":"031-557-9996","addr":"경기도 남양주시 와부읍 도곡리 1071-4번지 금강빌딩 3층","category":"서적문구 - 일반서적"},{"name":"스타일","tel":"031-576-3353","addr":"경기도 남양주시 와부읍 도곡리 1071-4번지 금강빌딩 102호","category":"의류 - 정장"},{"name":"옷수선","tel":"031-521-4698","addr":"경기도 남양주시 와부읍 도곡리 1071-4","category":"수리서비스 - 세탁소"},{"name":"진인테리어","tel":"031-576-3304","addr":"경기도 남양주시 와부읍 도곡리 1071-4번지 금강빌딩 104호","category":"건축자재 - 인테리어전문"}]},{"lat":"37.58053429","long":"127.22275767","items":[{"name":"굴다리곱창","tel":"031-521-9880","addr":"경기도 남양주시 와부읍 도곡리 1027-16번지","category":"일반휴게음식 - 일반한식"},{"name":"맛매불닭발","tel":"031-576-5722","addr":"경기도 남양주시 와부읍 도곡리 1027-16번지","category":"일반휴게음식 - 일반한식"}]},{"lat":"37.580149603","long":"127.22128482","items":[{"name":"굴다리방아간","tel":"031-577-6746","addr":"경기도 남양주시 와부읍 도곡리 969-9","category":"음료식품 - 기타음료식품"},{"name":"역전앞2층집","tel":"031-576-6626","addr":"경기도 남양주시 와부읍 도곡리 969-9번지","category":"일반휴게음식 - 일반한식"}]},{"lat":"37.576399681","long":"127.22228138","items":[{"name":"그리너리(greenery)","tel":"031-577-0919","addr":"경기도 남양주시 와부읍 도곡리 1079-4번지 태양빌딩 101호","category":"일반휴게음식 - 서양음식"},{"name":"날라리뽕꾸","tel":"031-576-5657","addr":"경기도 남양주시 와부읍 도곡리 1079-4번지 태양빌딩 104호","category":"의류 - 정장"},{"name":"알콩미술학원","tel":"070-7126-9280","addr":"경기도 남양주시 와부읍 도곡리 1079-4번지 태양빌딩 2층 2일부","category":"학원 - 예·체능계학원"},{"name":"크린토피아덕소도곡점","tel":"031-576-3544","addr":"경기도 남양주시 와부읍 도곡리 1079-4번지 태양빌딩 105호","category":"수리서비스 - 세탁소"}]},{"lat":"37.577010051","long":"127.22828299","items":[{"name":"그리너리플레이스","tel":"031-510-5219","addr":"경기도 남양주시 와부읍 도곡리 604번지","category":"음료식품 - 기타음료식품"}]},{"lat":"37.578284946","long":"127.23524901","items":[{"name":"금장F&D","tel":"031-594-5356","addr":"경기도 남양주시 와부읍 도곡리 687번지 1,2동","category":"가구 - 일반가구"}]},{"lat":"37.580345718","long":"127.22241749","items":[{"name":"기분좋은날","tel":"031-577-1034","addr":"경기도 남양주시 와부읍 도곡리 1027-20번지","category":"보건위생 - 화장품"}]},{"lat":"37.580399566","long":"127.22253086","items":[{"name":"꺄롱꺄롱","tel":"070-7231-0207","addr":"경기도 남양주시 와부읍 도곡리 1027-14번지 1층","category":"일반휴게음식 - 서양음식"}]},{"lat":"37.564677009","long":"127.23683661","items":[{"name":"꽃드란농원","tel":"031-576-1076","addr":"경기도 남양주시 와부읍 도곡리 448-2번지","category":"학원 - 기타 교육기관"}]},{"lat":"37.577283573","long":"127.22658575","items":[{"name":"나능이백숙","tel":"031-576-6613","addr":"경기도 남양주시 와부읍 도곡리 1064-7","category":"일반휴게음식 - 일반한식"}]},{"lat":"37.578259149","long":"127.22525283","items":[{"name":"나무","tel":"031-528-6263","addr":"경기도 남양주시 와부읍 도곡리 1060-2번지 1층","category":"의류 - 정장"},{"name":"떡향기","tel":"031-521-0633","addr":"경기도 남양주시 와부읍 도곡리 1060-2번지","category":"음료식품 - 제과점"},{"name":"뽕차이","tel":"031-577-8122","addr":"경기도 남양주시 와부읍 도곡리 1060-2번지 104호(104호~105호)","category":"일반휴게음식 - 일식·회집"},{"name":"쎈수학러닝센터도곡학원","tel":"031-512-9202","addr":"경기도 남양주시 와부읍 도곡리 1060-2번지 가은빌딩 2층 203호","category":"학원 - 보습학원"},{"name":"유메노치킨앤커리","tel":"031-576-0121","addr":"경기도 남양주시 와부읍 도곡리 1060-2번지 1층","category":"일반휴게음식 - 일식·회집"}]},{"lat":"37.579094703","long":"127.21677609","items":[{"name":"남양주(도곡점)피자스쿨","tel":"031-577-1082","addr":"경기도 남양주시 와부읍 도곡리 986번지 외4필지 덕소고등학교 108호","category":"일반휴게음식 - 서양음식"},{"name":"덕소고등학교매점","tel":"031-577-6284","addr":"경기도 남양주시 와부읍 도곡리 986번지 덕소고등학교","category":"음료식품 - 기타음료식품"}]},{"lat":"37.579506929","long":"127.21799992","items":[{"name":"남양주도곡초등학교병설유치원[아이행복]","tel":"031-521-5305","addr":"경기도 남양주시 와부읍 도곡리 산46-7번지 남양주도곡초등학교","category":"학원 - 유치원"}]},{"lat":"37.577428843","long":"127.22599752","items":[{"name":"낭만돼지","tel":"031-555-0687","addr":"경기도 남양주시 와부읍 도곡리 1062-15번지","category":"일반휴게음식 - 일반한식"}]},{"lat":"37.576953418","long":"127.2248867","items":[{"name":"네일하트(Nail Hart)","tel":"","addr":"경기도 남양주시 와부읍 도곡리 1071-3번지 1층 103호","category":"보건위생 - 피부미용실"},{"name":"도곡리양삼커피","tel":"070-4136-0390","addr":"경기도 남양주시 와부읍 도곡리 1071-3번지 102호","category":"일반휴게음식 - 서양음식"}]},{"lat":"37.577205627","long":"127.22492141","items":[{"name":"놀이터","tel":"031-521-9881","addr":"경기도 남양주시 와부읍 도곡리 1062-4번지","category":"일반휴게음식 - 일반한식"},{"name":"복네네식당","tel":"031-576-5551","addr":"경기도 남양주시 와부읍 도곡리 1062-4","category":"일반휴게음식 - 일반한식"},{"name":"하늘실내포차","tel":"031-111-1111","addr":"경기도 남양주시 와부읍 도곡리 1062-4번지 (2호)","category":"일반휴게음식 - 일반한식"}]},{"lat":"37.581091325","long":"127.2376125","items":[{"name":"농업회사법인 주식회사 이룸테크","tel":"031-521-6261","addr":"경기도 남양주시 와부읍 도곡리 산72-14번지 1층","category":"음료식품 - 농·축·수산품"}]},{"lat":"37.57939454","long":"127.22033167","items":[{"name":"뉴스카이독서실","tel":"031-521-4435","addr":"경기도 남양주시 와부읍 도곡리 997-10번지 3층 302호","category":"학원 - 독서실"},{"name":"도심당구클럽","tel":"031-521-0750","addr":"경기도 남양주시 와부읍 도곡리 997-10번지 2층","category":"레저업소 - 당 구 장"},{"name":"리폼라이트","tel":"031-521-6455","addr":"경기도 남양주시 와부읍 도곡리 997-10번지 재령빌딩 1층 108호","category":"건축자재 - 조명기구"},{"name":"멕시칸치킨","tel":"031-577-9941","addr":"경기도 남양주시 와부읍 도곡리 997-10번지 지하1층","category":"일반휴게음식 - 스넥"},{"name":"에스바디 머슬캠프","tel":"031-576-8085","addr":"경기도 남양주시 와부읍 도곡리 997-10번지 외3 재령빌딩 5층","category":"레저업소 - 헬스클럽"},{"name":"에이블청담(ABLE ChungDam)학원","tel":"031-521-8655","addr":"경기도 남양주시 와부읍 도곡리 997-10번지 2층 일부","category":"학원 - 보습학원"},{"name":"오마이찬","tel":"031-521-9413","addr":"경기도 남양주시 와부읍 도곡리 997-10번지 상가동 1층 110호","category":"음료식품 - 기타음료식품"},{"name":"오휘덕소도심점","tel":"031-521-8587","addr":"경기도 남양주시 와부읍 도곡리 997-10번지 202호","category":"보건위생 - 화장품"},{"name":"죽이야기 덕소점","tel":"031-576-6288","addr":"경기도 남양주시 와부읍 도곡리 997-10번지","category":"일반휴게음식 - 일반한식"},{"name":"청석골","tel":"031-576-5844","addr":"경기도 남양주시 와부읍 도곡리 997-10번지 외3필지","category":"음료식품 - 기타음료식품"},{"name":"청아왕족발","tel":"031-577-2623","addr":"경기도 남양주시 와부읍 도곡리 997-10번지 외 3필지","category":"일반휴게음식 - 일반한식"},{"name":"투비스마트학원","tel":"031-577-1028","addr":"경기도 남양주시 와부읍 도곡리 997-10번지 301호","category":"학원 - 보습학원"},{"name":"파리바게뜨덕소도심점","tel":"031-521-0449","addr":"경기도 남양주시 와부읍 도곡리 997-10번지 1층","category":"음료식품 - 제과점"},{"name":"해피동물병원","tel":"031-521-7573","addr":"경기도 남양주시 와부읍 도곡리 997-10번지","category":"기타의료기관 - 동물병원"},{"name":"헤어까페","tel":"031-577-5507","addr":"경기도 남양주시 와부읍 도곡리 997-10번지 재령빌딩","category":"보건위생 - 미용원"}]},{"lat":"37.576511514","long":"127.22511179","items":[{"name":"늘푸른 청송옥","tel":"031-577-9595","addr":"경기도 남양주시 와부읍 도곡리 1090-4번지 1층 청송빌딩","category":"일반휴게음식 - 일반한식"}]},{"lat":"37.576755672","long":"127.22463706","items":[{"name":"다마네기","tel":"031-577-3311","addr":"경기도 남양주시 와부읍 도곡리 1072-3번지 1층","category":"일반휴게음식 - 일반한식"},{"name":"블루블랙","tel":"","addr":"경기도 남양주시 와부읍 도곡리 1072-3번지 3층","category":"신변잡화 - 가방"}]},{"lat":"37.578731603","long":"127.22314859","items":[{"name":"다모아헤어숍","tel":"031-577-8618","addr":"경기도 남양주시 와부읍 도곡리 1042-13번지 성진빌라 B동 102호","category":"보건위생 - 미용원"}]},{"lat":"37.585152026","long":"127.23897252","items":[{"name":"다빈디자인","tel":"031-577-8213","addr":"경기도 남양주시 와부읍 도곡리 752-1번지","category":"용역 서비스 - 기타용역서비스"}]},{"lat":"37.576620466","long":"127.22941385","items":[{"name":"다산도시건축","tel":"031-521-1144","addr":"경기도 남양주시 와부읍 도곡리 600-9번지 2층 202호","category":"건축자재 - 인테리어전문"},{"name":"봉평산골메밀촌","tel":"031-521-1517","addr":"경기도 남양주시 와부읍 도곡리 600-9번지 1층","category":"일반휴게음식 - 일반한식"},{"name":"지원스튜디오","tel":"031-577-0604","addr":"경기도 남양주시 와부읍 도곡리 600-9번지 2층","category":"직물 - 침구·수예점"}]},{"lat":"37.563737408","long":"127.23813528","items":[{"name":"대명에스엔씨","tel":"031-521-8075","addr":"경기도 남양주시 와부읍 도곡리 437번지","category":"기타 - 기계공구"},{"name":"캥거루종합상사","tel":"","addr":"경기도 남양주시 와부읍 도곡리 437번지","category":"신변잡화 - 기타잡화"}]},{"lat":"37.589648081","long":"127.23888482","items":[{"name":"대흥상사","tel":"031-576-7757","addr":"경기도 남양주시 와부읍 도곡리 73","category":"건축자재 - 페인트"}]},{"lat":"37.577457986","long":"127.22003171","items":[{"name":"더함한의원","tel":"031-576-0550","addr":"경기도 남양주시 와부읍 도곡리 1010-1번지 201(강변해태A상가동)","category":"의원 - 한의원"}]},{"lat":"37.57642246","long":"127.22455683","items":[{"name":"덕소스크린","tel":"031-577-1991","addr":"경기도 남양주시 와부읍 도곡리 1089-8번지 일신빌딩 4층","category":"회원제형태 - 레져업소"},{"name":"수림헤어","tel":"031-521-0765","addr":"경기도 남양주시 와부읍 도곡리 1089-8","category":"보건위생 - 미용원"},{"name":"자작나무","tel":"031-521-9386","addr":"경기도 남양주시 와부읍 도곡리 1089-8번지 1층 일부","category":"일반휴게음식 - 일반한식"},{"name":"조막집","tel":"031-293-4062","addr":"경기도 남양주시 와부읍 도곡리 1089-8번지","category":"일반휴게음식 - 일반한식"},{"name":"홈마트","tel":"031-577-2267","addr":"경기도 남양주시 와부읍 도곡리 1089-8번지","category":"유통업 영리 - 슈퍼마켓"}]},{"lat":"37.579871066","long":"127.23041993","items":[{"name":"덕소자연사박물관","tel":"031-521-7166","addr":"경기도 남양주시 와부읍 도곡리 619-4번지","category":"문화.취미 - 티켓"},{"name":"별주부","tel":"031-558-3000","addr":"경기도 남양주시 와부읍 도곡리 619-4번지 1층","category":"일반휴게음식 - 일반한식"}]},{"lat":"37.579311655","long":"127.22130502","items":[{"name":"덕소토마스국제어학원","tel":"031-576-0579","addr":"경기도 남양주시 와부읍 도곡리 1027-10번지","category":"학원 - 외국어학원"},{"name":"돈통마늘보쌈덕소점","tel":"031-521-3392","addr":"경기도 남양주시 와부읍 도곡리 1027-10번지 101호","category":"일반휴게음식 - 일반한식"},{"name":"서울리드치과","tel":"031-521-8275","addr":"경기도 남양주시 와부읍 도곡리 1027-10번지 4층","category":"의원 - 치과의원"},{"name":"아이센스PC방","tel":"070-8607-1408","addr":"경기도 남양주시 와부읍 도곡리 1027-10번지 재우빌딩 5층","category":"레저업소 - 기타레져업소"}]},{"lat":"37.577705075","long":"127.22761717","items":[{"name":"덕소화로구이","tel":"031-521-6692","addr":"경기도 남양주시 와부읍 도곡리 610-9번지 1층","category":"일반휴게음식 - 일반한식"},{"name":"예인아트팩토리","tel":"031-577-0968","addr":"경기도 남양주시 와부읍 도곡리 610-9번지 B1층","category":"건축자재 - 인테리어전문"}]},{"lat":"37.580262655","long":"127.23749669","items":[{"name":"도곡개구리어린이집[아이행복]","tel":"070-4201-1214","addr":"경기도 남양주시 와부읍 도곡리 721-1","category":"학원 - 유아원"}]},{"lat":"37.576763574","long":"127.22522575","items":[{"name":"도곡영양탕","tel":"031-577-6316","addr":"경기도 남양주시 와부읍 도곡리 1089-11번지","category":"일반휴게음식 - 일반한식"}]},{"lat":"37.583063404","long":"127.22416895","items":[{"name":"도깨비정원","tel":"070-5133-2112","addr":"경기도 남양주시 와부읍 도곡리 945-5번지","category":"용역 서비스 - 사무서비스"},{"name":"한옥체험학당","tel":"031-576-0019","addr":"경기도 남양주시 와부읍 도곡리 945-5번지","category":"학원 - 기타 교육기관"}]},{"lat":"37.580615863","long":"127.22249753","items":[{"name":"도심각","tel":"031-577-6195","addr":"경기도 남양주시 와부읍 도곡리 1032-1번지","category":"일반휴게음식 - 중국식"},{"name":"처가집양념통닭","tel":"031-577-2054","addr":"경기도 남양주시 와부읍 도곡리 1032-1","category":"일반휴게음식 - 주점"}]},{"lat":"37.581541225","long":"127.22391538","items":[{"name":"도심건강원","tel":"031-527-5485","addr":"경기도 남양주시 와부읍 도곡리 918-11번지 1층","category":"건강식품 - 기타건강식품"},{"name":"우리정보통신","tel":"031-577-1885","addr":"경기도 남양주시 와부읍 도곡리 918-11번지","category":"사무통신 - 통신기기"}]},{"lat":"37.579621822","long":"127.21922289","items":[{"name":"도심골영양탕","tel":"031-577-2866","addr":"경기도 남양주시 와부읍 도곡리 980","category":"일반휴게음식 - 일반한식"}]},{"lat":"37.580589759","long":"127.22199933","items":[{"name":"도심모터스","tel":"031-577-8292","addr":"경기도 남양주시 와부읍 도곡리 1030","category":"자동차정비 유지 - 자동차정비"},{"name":"커피엔커피","tel":"031-577-7735","addr":"경기도 남양주시 와부읍 도곡리 1030번지","category":"일반휴게음식 - 서양음식"}]},{"lat":"37.579509258","long":"127.22644523","items":[{"name":"도심문구슈퍼","tel":"031-577-2659","addr":"경기도 남양주시 와부읍 도곡리 1049-8번지","category":"유통업 영리 - 슈퍼마켓"}]},{"lat":"37.580705539","long":"127.22272421","items":[{"name":"도심소머리국밥","tel":"031-577-2981","addr":"경기도 남양주시 와부읍 도곡리 1032-7번지 외1필지","category":"일반휴게음식 - 일반한식"},{"name":"디에이치(DH)크린월드","tel":"031-576-9744","addr":"경기도 남양주시 와부읍 도곡리 1032-7번지","category":"신변잡화 - 기타잡화"}]},{"lat":"37.580065605","long":"127.22763559","items":[{"name":"도심초등학교병설유치원[아이행복]","tel":"031-521-9827","addr":"경기도 남양주시 와부읍 도곡리 1051-7번지 도심초등학교","category":"학원 - 유치원"}]},{"lat":"37.580491282","long":"127.22165941","items":[{"name":"돌쇠네 과일","tel":"02-111-1111","addr":"경기도 남양주시 와부읍 도곡리 969-13번지 삼성아트빌 D동 102호","category":"의류 - 내의판매"}]},{"lat":"37.576952566","long":"127.22533951","items":[{"name":"동막골","tel":"031-521-6723","addr":"경기도 남양주시 와부읍 도곡리 1062-23번지","category":"일반휴게음식 - 일반한식"}]},{"lat":"37.575353666","long":"127.22275376","items":[{"name":"드림키즈","tel":"070-8881-5181","addr":"경기도 남양주시 와부읍 도곡리 1117번지 건영덕소리버파크 103동 1206호","category":"서적문구 - 기타서적문구"},{"name":"제이윙즈(JWings)","tel":"031-521-6726","addr":"경기도 남양주시 와부읍 도곡리 1117번지 건영덕소리버파크 103동 105호","category":"레져용품 - 스포츠·레져용품"}]},{"lat":"37.576811361","long":"127.22853144","items":[{"name":"또바기집","tel":"031-577-3528","addr":"경기도 남양주시 와부읍 도곡리 602-12번지","category":"일반휴게음식 - 일반한식"}]},{"lat":"37.576844193","long":"127.22547503","items":[{"name":"뚜껑모아","tel":"031-521-2340","addr":"경기도 남양주시 와부읍 도곡리 1069-4번지","category":"일반휴게음식 - 일반한식"}]},{"lat":"37.57878267","long":"127.21494125","items":[{"name":"뚜레쥬르 덕소두산","tel":"031-521-0445","addr":"경기도 남양주시 와부읍 도곡리 두산상가 114동 115호","category":"음료식품 - 제과점"}]},{"lat":"37.576450211","long":"127.22417202","items":[{"name":"라끄엘르코스메틱스 주식회사","tel":"","addr":"경기도 남양주시 와부읍 도곡리 1087-5번지 이자락빌딩 402호","category":"보건위생 - 화장품"}]},{"lat":"37.56220878","long":"127.23200735","items":[{"name":"라미레스토랑","tel":"031-577-3200","addr":"경기도 남양주시 와부읍 도곡리 493-4번지","category":"일반휴게음식 - 서양음식"}]},{"lat":"37.576842567","long":"127.22633538","items":[{"name":"로또도곡점","tel":"031-576-9040","addr":"경기도 남양주시 와부읍 도곡리 1067-5번지 1층 4호","category":"음료식품 - 기타음료식품"},{"name":"블루카(BlueCar)","tel":"031-521-6868","addr":"경기도 남양주시 와부읍 도곡리 1067-5번지","category":"자동차정비 유지 - 카인테리어"},{"name":"에스엠 오디오","tel":"031-576-1976","addr":"경기도 남양주시 와부읍 도곡리 1067-5번지","category":"자동차정비 유지 - 자동차부품"},{"name":"예봉국수","tel":"031-577-5353","addr":"경기도 남양주시 와부읍 도곡리 1067-5번지 1층","category":"일반휴게음식 - 일반한식"},{"name":"팔당카","tel":"031-577-8300","addr":"경기도 남양주시 와부읍 도곡리 1067-5번지","category":"자동차정비 유지 - 자동차정비"}]},{"lat":"37.576144452","long":"127.22386547","items":[{"name":"로얄킨더어린이집[아이행복]","tel":"031-576-0747","addr":"경기도 남양주시 와부읍 도곡리 1086-5번지","category":"학원 - 유아원"}]},{"lat":"37.576648171","long":"127.22430845","items":[{"name":"로얄킨더어린이집[아이행복]","tel":"031-576-9101","addr":"경기도 남양주시 와부읍 도곡리 1087-3","category":"학원 - 유아원"}]},{"lat":"37.567423849","long":"127.22816355","items":[{"name":"로즈베이","tel":"031-521-3355","addr":"경기도 남양주시 와부읍 도곡리 504-43번지 외","category":"유통업 영리 - 기타유통업"}]},{"lat":"37.578956699","long":"127.2232285","items":[{"name":"롤링큐브","tel":"031-0000-0000","addr":"경기도 남양주시 와부읍 도곡리 1038-3번지 도심빌딩 1층","category":"음료식품 - 제과점"},{"name":"마레몬떼","tel":"031-528-6263","addr":"경기도 남양주시 와부읍 도곡리 1038-3번지","category":"의류 - 기타의류"},{"name":"봉구비어 남양주도심역점","tel":"031-521-8789","addr":"경기도 남양주시 와부읍 도곡리 1038-3번지 도심빌딩 1층","category":"일반휴게음식 - 주점"},{"name":"티엠에스학원","tel":"031-576-8334","addr":"경기도 남양주시 와부읍 도곡리 1038-3번지 도심빌딩 2층","category":"학원 - 보습학원"}]},{"lat":"37.589063105","long":"127.23855463","items":[{"name":"루나쥬얼리","tel":"","addr":"경기도 남양주시 와부읍 도곡리 89-6번지","category":"신변잡화 - 기타잡화"}]},{"lat":"37.575539056","long":"127.2199469","items":[{"name":"리버모텔","tel":"031-521-8020","addr":"경기도 남양주시 와부읍 도곡리 1123-13번지","category":"숙박업 - 여관/기타숙박업"},{"name":"리버모텔R","tel":"031-521-8020","addr":"경기도 남양주시 와부읍 도곡리 1123-13번지 지하1층","category":"일반휴게음식 - 일반한식"}]},{"lat":"37.578874786","long":"127.22366977","items":[{"name":"리틀펫","tel":"031-521-8477","addr":"경기도 남양주시 와부읍 도곡리 1042-24번지 1층","category":"문화.취미 - 애완동물"}]},{"lat":"37.588618291","long":"127.2310806","items":[{"name":"마스터가라지","tel":"070-7626-4515","addr":"경기도 남양주시 와부읍 도곡리 848-2번지","category":"자동차판매 - 이륜차판매"},{"name":"프로디지커스텀","tel":"031-521-5356","addr":"경기도 남양주시 와부읍 도곡리 848-2번지","category":"자동차판매 - 이륜차판매"},{"name":"프로디지커스텀파츠","tel":"031-521-5356","addr":"경기도 남양주시 와부읍 도곡리 848-2번지","category":"자동차판매 - 이륜차판매"}]},{"lat":"37.580953222","long":"127.2435556","items":[{"name":"마음의고향","tel":"031-577-6303","addr":"경기도 남양주시 와부읍 도곡리 185번지 외1필지","category":"일반휴게음식 - 일반한식"}]},{"lat":"37.579287069","long":"127.21998042","items":[{"name":"마인디자인","tel":"031-577-0335","addr":"경기도 남양주시 와부읍 도곡리 997-12,외3필지 11호","category":"건축자재 - 인테리어전문"}]},{"lat":"37.579541227","long":"127.24230576","items":[{"name":"매일상사","tel":"02-2213-3381","addr":"경기도 남양주시 와부읍 도곡리 245번지 외 1필지","category":"자동차정비 유지 - 자동차부품"},{"name":"주식회사자유렌탈","tel":"031-528-5071","addr":"경기도 남양주시 와부읍 도곡리 245번지","category":"기타 - 기타 전문점"}]},{"lat":"37.578535264","long":"127.22214048","items":[{"name":"맨","tel":"001-0000-0000","addr":"경기도 남양주시 와부읍 도곡리 1025-4번지 덕소전원빌라 가동 106호","category":"회원제형태 - 기타1"}]},{"lat":"37.589977188","long":"127.24100315","items":[{"name":"메젠코리아","tel":"","addr":"경기도 남양주시 와부읍 도곡리 77-10번지","category":"신변잡화 - 기타잡화"}]},{"lat":"37.580310919","long":"127.22174945","items":[{"name":"명문세탁전문점","tel":"031-521-8683","addr":"경기도 남양주시 와부읍 도곡리 969-6번지 우송다세대주택 102호","category":"수리서비스 - 세탁소"}]},{"lat":"37.576566711","long":"127.2292552","items":[{"name":"모락식당","tel":"031-577-9992","addr":"경기도 남양주시 와부읍 도곡리 602-4번지 1층","category":"일반휴게음식 - 일반한식"},{"name":"티라","tel":"031-521-8604","addr":"경기도 남양주시 와부읍 도곡리 602-4번지 101호","category":"일반휴게음식 - 서양음식"}]},{"lat":"37.585060214","long":"127.23067348","items":[{"name":"무지개 농장","tel":"031-577-1572","addr":"경기도 남양주시 와부읍 도곡리 895","category":"음료식품 - 농·축·수산품"}]},{"lat":"37.574811269","long":"127.23772863","items":[{"name":"문 세라믹","tel":"031-577-3486","addr":"경기도 남양주시 와부읍 도곡리 309번지","category":"문화.취미 - 문화취미기타"}]},{"lat":"37.577455958","long":"127.22595232","items":[{"name":"민들레플라워","tel":"031-515-1569","addr":"경기도 남양주시 와부읍 도곡리 1062-14번지","category":"문화.취미 - 화원"},{"name":"스시준","tel":"031-577-0632","addr":"경기도 남양주시 와부읍 도곡리 1062-14번지 1층","category":"일반휴게음식 - 일반한식"}]},{"lat":"37.58037363","long":"127.22194209","items":[{"name":"불타는등갈비","tel":"031-528-6263","addr":"경기도 남양주시 와부읍 도곡리 969-4번지","category":"일반휴게음식 - 일반한식"},{"name":"위드미남양도심역점","tel":"02-6916-1500","addr":"경기도 남양주시 와부읍 도곡리 969-4번지","category":"유통업 영리 - 편 의 점"}]},{"lat":"37.579012479","long":"127.23639466","items":[{"name":"비목마을 궁노루 다정","tel":"031-576-6302","addr":"경기도 남양주시 와부읍 도곡리 703-4번지","category":"일반휴게음식 - 서양음식"}]},{"lat":"37.575951327","long":"127.23066837","items":[{"name":"사단법인 한국숲밧줄놀이연구회","tel":"031-576-4985","addr":"경기도 남양주시 와부읍 도곡리 575-2번지","category":"용역 서비스 - 사무서비스"},{"name":"사단법인한국숲밧줄놀이연구회","tel":"031-576-9559","addr":"경기도 남양주시 와부읍 도곡리 575-2번지","category":"학원 - 기타 교육기관"},{"name":"아이다움숲,자연놀이 숲생태교육연구소","tel":"031-521-5152","addr":"경기도 남양주시 와부읍 도곡리 575-2번지","category":"학원 - 기타 교육기관"}]},{"lat":"37.57890207","long":"127.223534","items":[{"name":"새순카센타","tel":"031-577-3378","addr":"경기도 남양주시 와부읍 도곡리 1042-8번지","category":"자동차정비 유지 - 자동차정비"}]},{"lat":"37.580873492","long":"127.24727995","items":[{"name":"새재골정육점","tel":"031-577-6171","addr":"경기도 남양주시 와부읍 도곡리 11-3","category":"음료식품 - 정육점"}]},{"lat":"37.577121894","long":"127.23103419","items":[{"name":"서클/주식회사 피스빌딩","tel":"02-577-8690","addr":"경기도 남양주시 와부읍 도곡리 594-9번지 피스빌딩","category":"일반휴게음식 - 서양음식"},{"name":"주식회사 피스빌딩","tel":"031-577-8690","addr":"경기도 남양주시 와부읍 도곡리 594-9번지","category":"학원 - 외국어학원"},{"name":"피스빌딩","tel":"031-521-8697","addr":"경기도 남양주시 와부읍 도곡리 594-9번지 도곡리594-9,594-24,598-2,598-7","category":"서적문구 - 출판 및 인쇄물"},{"name":"한국평화교육훈련원 협동조합","tel":"031-521-8697","addr":"경기도 남양주시 와부읍 도곡리 594-9번지","category":"용역 서비스 - 사무서비스"}]},{"lat":"37.586956434","long":"127.23317008","items":[{"name":"성원자동문","tel":"031-577-8427","addr":"경기도 남양주시 와부읍 도곡리 770-4번지","category":"건축자재 - 기타건축자재"}]},{"lat":"37.578867024","long":"127.22300182","items":[{"name":"솔로몬카센타","tel":"031-521-1082","addr":"경기도 남양주시 와부읍 도곡리 1042-11","category":"자동차정비 유지 - 자동차정비"},{"name":"카페블랑","tel":"031-576-1470","addr":"경기도 남양주시 와부읍 도곡리 1042-11번지 2층","category":"음료식품 - 기타음료식품"},{"name":"한스실용음악학원","tel":"031-577-8285","addr":"경기도 남양주시 와부읍 도곡리 1042-11번지 3층","category":"학원 - 예·체능계학원"}]},{"lat":"37.576315235","long":"127.22408106","items":[{"name":"솔헤어","tel":"031-576-7796","addr":"경기도 남양주시 와부읍 도곡리 1086-2번지","category":"보건위생 - 미용원"}]},{"lat":"37.575840273","long":"127.22749837","items":[{"name":"숙아채콩나물국밥","tel":"031-576-3419","addr":"경기도 남양주시 와부읍 도곡리 567-1","category":"일반휴게음식 - 일반한식"}]},{"lat":"37.578478103","long":"127.22380444","items":[{"name":"술뜰","tel":"","addr":"경기도 남양주시 와부읍 도곡리 1042-6번지 1층 일부","category":"일반휴게음식 - 주점"},{"name":"오늘","tel":"","addr":"경기도 남양주시 와부읍 도곡리 1042-6번지 1층 일부","category":"일반휴게음식 - 서양음식"}]},{"lat":"37.579261723","long":"127.21906336","items":[{"name":"숯불꼬치구이전문점","tel":"031-577-1006","addr":"경기도 남양주시 와부읍 도곡리 982-10번지 한강프라자 101호","category":"일반휴게음식 - 일반한식"},{"name":"스마트바둑학원","tel":"031-521-5921","addr":"경기도 남양주시 와부읍 도곡리 982-10번지 한강프라자 203호","category":"학원 - 기타 교육기관"},{"name":"실로암안경","tel":"031-577-3373","addr":"경기도 남양주시 와부읍 도곡리 982-10번지 한강프라자 105호","category":"보건위생 - 안경"},{"name":"엔플러스","tel":"031-527-5404","addr":"경기도 남양주시 와부읍 도곡리 982-10번지 한강프라자 106호","category":"보건위생 - 피부미용실"},{"name":"윤선생영어숲덕소동학원/도곡","tel":"031-553-0505","addr":"경기도 남양주시 와부읍 도곡리 982-10번지 한강프라자 4층","category":"학원 - 보습학원"}]},{"lat":"37.578812184","long":"127.22342053","items":[{"name":"스시궁","tel":"031-576-1513","addr":"경기도 남양주시 와부읍 도곡리 1042-21번지","category":"일반휴게음식 - 일반한식"}]},{"lat":"37.589143916","long":"127.23413921","items":[{"name":"스타일가구","tel":"031-1566-7085","addr":"경기도 남양주시 와부읍 도곡리 776-1번지 1동, 2동전부","category":"가구 - 일반가구"}]},{"lat":"37.577617451","long":"127.23102438","items":[{"name":"시립와부어린이집[아이행복]","tel":"031-576-6868","addr":"경기도 남양주시 와부읍 도곡리 649-1번지","category":"학원 - 유아원"},{"name":"시립와부어린이집[아이행복]","tel":"031-576-6868","addr":"경기도 남양주시 와부읍 도곡리 649-1번지","category":"학원 - 유아원"}]},{"lat":"37.582425423","long":"127.2280276","items":[{"name":"심마니산약초백숙","tel":"031-577-6000","addr":"경기도 남양주시 와부읍 도곡리 909번지","category":"일반휴게음식 - 일반한식"}]},{"lat":"37.577479671","long":"127.2229185","items":[{"name":"쎈츄리미용실","tel":"031-576-4352","addr":"경기도 남양주시 와부읍 도곡리 1012 우성상가 115호","category":"보건위생 - 미용원"},{"name":"연세대태랑태권도장","tel":"031-521-3500","addr":"경기도 남양주시 와부읍 도곡리 1012번지 우성 상가 307호","category":"학원 - 예·체능계학원"},{"name":"우성슈퍼렛","tel":"031-577-3357","addr":"경기도 남양주시 와부읍 도곡리 1012번지 우성한강B상가 102호","category":"유통업 영리 - 슈퍼마켓"},{"name":"카이로약국","tel":"031-577-0188","addr":"경기도 남양주시 와부읍 도곡리 1012번지 113 (우성상가113호~114호)","category":"약국 - 약국"}]},{"lat":"37.584869666","long":"127.22666505","items":[{"name":"씨앤에이티(C&AT)","tel":"02-1111-1111","addr":"경기도 남양주시 와부읍 도곡리 960-2번지","category":"용역 서비스 - 기타용역서비스"}]},{"lat":"37.585539512","long":"127.23893978","items":[{"name":"아로마산업","tel":"031-553-4066","addr":"경기도 남양주시 와부읍 도곡리 752-13번지","category":"신변잡화 - 시계"}]},{"lat":"37.579064129","long":"127.21872317","items":[{"name":"아리","tel":"031-577-7830","addr":"경기도 남양주시 와부읍 도곡리 982-6번지 메종홈패션의류 103호","category":"의류 - 정장"}]},{"lat":"37.59203527","long":"127.23908485","items":[{"name":"안골예절학교","tel":"031-521-2238","addr":"경기도 남양주시 와부읍 도곡리 49-3 외1필지","category":"학원 - 기타 교육기관"}]},{"lat":"37.577424791","long":"127.2373859","items":[{"name":"어룡농산","tel":"","addr":"경기도 남양주시 와부읍 도곡리 679-5번지","category":"음료식품 - 농·축·수산품"}]},{"lat":"37.580229201","long":"127.22208884","items":[{"name":"엄마손맛","tel":"031-559-5586","addr":"경기도 남양주시 와부읍 도곡리 1027-12번지","category":"일반휴게음식 - 일반한식"}]},{"lat":"37.584672287","long":"127.24008052","items":[{"name":"에스비유통","tel":"031-576-3332","addr":"경기도 남양주시 와부읍 도곡리 164-23번지 1층","category":"의류 - 정장"}]},{"lat":"37.590202774","long":"127.24083403","items":[{"name":"에스에이치컴","tel":"","addr":"경기도 남양주시 와부읍 도곡리 77-4번지","category":"레져용품 - 스포츠·레져용품"}]},{"lat":"37.579040272","long":"127.2218929","items":[{"name":"에이원","tel":"031-521-9983","addr":"경기도 남양주시 와부읍 도곡리 1025-1번지 도심지식산업센타 B동 302-2호","category":"전기제품 - 가전제품"},{"name":"웰빙홈","tel":"031-511-5176","addr":"경기도 남양주시 와부읍 도곡리 1025-1번지 외1필지제비동제 지하1층 동제101호","category":"직물 - 침구·수예점"}]},{"lat":"37.584207162","long":"127.24286414","items":[{"name":"엔에스디자인","tel":"031-567-5002","addr":"경기도 남양주시 와부읍 도곡리 161-2번지","category":"건축자재 - 인테리어전문"}]},{"lat":"37.563786141","long":"127.23627922","items":[{"name":"엠에스가구","tel":"031-594-1604","addr":"경기도 남양주시 와부읍 도곡리 440-1","category":"가구 - 일반가구"}]},{"lat":"37.584379038","long":"127.22405963","items":[{"name":"연이메이드","tel":"","addr":"경기도 남양주시 와부읍 도곡리 940-3번지 에코빌라 가동 302호","category":"의류 - 기타의류"}]},{"lat":"37.578674614","long":"127.21986543","items":[{"name":"예솔어린이집[아이행복]","tel":"031-521-0556","addr":"경기도 남양주시 와부읍 도곡리 993번지 쌍용아파트","category":"학원 - 유아원"},{"name":"잉컴솔루션","tel":"031-577-8526","addr":"경기도 남양주시 와부읍 도곡리 993번지 쌍용아파트","category":"사무통신 - 컴퓨터"}]},{"lat":"37.583451649","long":"127.22372857","items":[{"name":"예인인서트","tel":"02-717-3740","addr":"경기도 남양주시 와부읍 도곡리 942-9번지 1층","category":"전기제품 - 가전제품"}]},{"lat":"37.579147253","long":"127.22250454","items":[{"name":"옥스 남양주점","tel":"","addr":"경기도 남양주시 와부읍 도곡리 1025-6번지 인덕빌딩 5층","category":"일반휴게음식 - 일반한식"},{"name":"옥스PC 와부읍","tel":"","addr":"경기도 남양주시 와부읍 도곡리 1025-6번지 인덕빌딩 503호","category":"레저업소 - 기타레져업소"},{"name":"킹콩점프","tel":"031-576-1155","addr":"경기도 남양주시 와부읍 도곡리 1025-6번지 인덕빌딩 4층","category":"레저업소 - 기타레져업소"}]},{"lat":"37.576619887","long":"127.22497627","items":[{"name":"와부빛예꼬어린이집[아이행복]","tel":"031-577-2345","addr":"경기도 남양주시 와부읍 도곡리 1089-5번지","category":"학원 - 유아원"}]},{"lat":"37.578703855","long":"127.22353341","items":[{"name":"와우카페","tel":"031-1544-4315","addr":"경기도 남양주시 와부읍 도곡리 1042-1 우진빌라 201 10/2","category":"음료식품 - 기타음료식품"}]},{"lat":"37.577093939","long":"127.22681159","items":[{"name":"우리서적","tel":"031-577-8942","addr":"경기도 남양주시 와부읍 도곡리 1066-1번지","category":"회원제형태 - 서적"}]},{"lat":"37.576700719","long":"127.22511236","items":[{"name":"우리식당","tel":"031-521-5019","addr":"경기도 남양주시 와부읍 도곡리 1089-2번지 1층","category":"일반휴게음식 - 일반한식"},{"name":"초연미용실","tel":"031-521-0610","addr":"경기도 남양주시 와부읍 도곡리 1089-2","category":"보건위생 - 미용원"}]},{"lat":"37.575929973","long":"127.22292526","items":[{"name":"웰시스템","tel":"031-624-1644","addr":"경기도 남양주시 와부읍 도곡리 1117번지 건영덕소리버파크 102동 102호","category":"사무통신 - 컴퓨터"}]},{"lat":"37.580176276","long":"127.22147736","items":[{"name":"위너스포츠","tel":"031-521-8066","addr":"경기도 남양주시 와부읍 도곡리 969-8번지 우송타운 201호","category":"레져용품 - 스포츠·레져용품"}]},{"lat":"37.580203762","long":"127.21630379","items":[{"name":"유림약국","tel":"031-521-2675","addr":"경기도 남양주시 와부읍 도곡리 985-4 두산위브상가 3층 312호","category":"약국 - 약국"}]},{"lat":"37.590176406","long":"127.2405056","items":[{"name":"윤빌딩","tel":"031-577-8301","addr":"경기도 남양주시 와부읍 도곡리 69-1번지","category":"직물 - 옷감·직물"}]},{"lat":"37.579763376","long":"127.22063841","items":[{"name":"윤헤어짱","tel":"031-576-0306","addr":"경기도 남양주시 와부읍 도곡리 981-1번지 1층","category":"보건위생 - 미용원"}]},{"lat":"37.576846338","long":"127.22908624","items":[{"name":"일품정","tel":"031-577-3660","addr":"경기도 남양주시 와부읍 도곡리 600-6번지","category":"일반휴게음식 - 일반한식"}]},{"lat":"37.570289636","long":"127.23708055","items":[{"name":"자연산농원","tel":"031-577-1295","addr":"경기도 남양주시 와부읍 도곡리 346","category":"음료식품 - 농·축·수산품"}]},{"lat":"37.575732048","long":"127.22755464","items":[{"name":"잣나무집","tel":"031-577-6849","addr":"경기도 남양주시 와부읍 도곡리 566-1","category":"일반휴게음식 - 일반한식"}]},{"lat":"37.578513152","long":"127.24277794","items":[{"name":"전원일기","tel":"031-579-3212","addr":"경기도 남양주시 와부읍 도곡리 253-4","category":"일반휴게음식 - 일반한식"}]},{"lat":"37.57990107","long":"127.22411431","items":[{"name":"정성기계","tel":"031-577-4038","addr":"경기도 남양주시 와부읍 도곡리 1036-22번지","category":"기타 - 기계공구"},{"name":"지엘코리아","tel":"","addr":"경기도 남양주시 와부읍 도곡리 1036-22번지","category":"보건위생 - 화장품"}]},{"lat":"37.5799808","long":"127.23422408","items":[{"name":"제이-클라쎄","tel":"070-7787-8011","addr":"경기도 남양주시 와부읍 도곡리 696번지","category":"가구 - 일반가구"}]},{"lat":"37.579338894","long":"127.22119189","items":[{"name":"제이골프아카데미","tel":"031-576-4069","addr":"경기도 남양주시 와부읍 도곡리 998-7","category":"회원제형태 - 레져업소"}]},{"lat":"37.576759116","long":"127.22758037","items":[{"name":"제이티통상","tel":"031-521-3679","addr":"경기도 남양주시 와부읍 도곡리 1067-1","category":"유통업 영리 - 기타유통업"}]},{"lat":"37.589593758","long":"127.23446895","items":[{"name":"조씨네","tel":"031-866-0058","addr":"경기도 남양주시 와부읍 도곡리 819-2번지","category":"음료식품 - 농·축·수산품"}]},{"lat":"37.563040028","long":"127.2354167","items":[{"name":"주닉스","tel":"031-576-9258","addr":"경기도 남양주시 와부읍 도곡리 440-2번지","category":"사무통신 - 기타 사무용품"}]},{"lat":"37.568287695","long":"127.23796849","items":[{"name":"주식회사 경기항공","tel":"031-576-0801","addr":"경기도 남양주시 와부읍 도곡리 356번지 신한농산 (주)사무실 2동","category":"학원 - 기능학원"}]},{"lat":"37.572229753","long":"127.23555846","items":[{"name":"주식회사 도성상사","tel":"","addr":"경기도 남양주시 와부읍 도곡리 335-7번지 2동","category":"주방용구 - 주방용구"}]},{"lat":"37.578967248","long":"127.22240212","items":[{"name":"주식회사 예스코리아","tel":"031-577-5512","addr":"경기도 남양주시 와부읍 도곡리 1025-1번지 남양주시범공단 B동 지하 101호","category":"음료식품 - 기타음료식품"}]},{"lat":"37.576535888","long":"127.23122485","items":[{"name":"주식회사 파섹언리미티드","tel":"031-521-7722","addr":"경기도 남양주시 와부읍 도곡리 595-2번지","category":"레져용품 - 스포츠·레져용품"}]},{"lat":"37.567730375","long":"127.2280626","items":[{"name":"주식회사 플레이트485","tel":"031-577-4850","addr":"경기도 남양주시 와부읍 도곡리 504-16번지","category":"일반휴게음식 - 일반한식"}]},{"lat":"37.58770673","long":"127.231893","items":[{"name":"주식회사 한국도로기술","tel":"031-555-2263","addr":"경기도 남양주시 와부읍 도곡리 852-2번지 101호","category":"건축자재 - 기타건축자재"}]},{"lat":"37.577089602","long":"127.22908698","items":[{"name":"쥬쁠레","tel":"070-6665-3666","addr":"경기도 남양주시 와부읍 도곡리 600-8번지","category":"일반휴게음식 - 서양음식"}]},{"lat":"37.580089248","long":"127.21981293","items":[{"name":"지구환경에너지탐사연구원","tel":"031-577-1023","addr":"경기도 남양주시 와부읍 도곡리 972-8 14/6","category":"보건위생 - 기타대인서비스"}]},{"lat":"37.57498086","long":"127.23397089","items":[{"name":"지엠씨테크","tel":"070-8863-0171","addr":"경기도 남양주시 와부읍 도곡리 303-5번지","category":"레저업소 - 기타레져업소"}]},{"lat":"37.576369548","long":"127.22394538","items":[{"name":"지예피아노","tel":"031-577-3199","addr":"경기도 남양주시 와부읍 도곡리 1086-1","category":"회원제형태 - 학원"}]},{"lat":"37.576872053","long":"127.22503362","items":[{"name":"직화불닭집","tel":"031-577-9281","addr":"경기도 남양주시 와부읍 도곡리 1071-2번지","category":"일반휴게음식 - 일반한식"}]},{"lat":"37.584369625","long":"127.22427471","items":[{"name":"채운그라피","tel":"","addr":"경기도 남양주시 와부읍 도곡리 940-4번지 효성아트빌 가동 303호 1","category":"용역 서비스 - 사무서비스"}]},{"lat":"37.580410467","long":"127.221512","items":[{"name":"천상암","tel":"031-577-9446","addr":"경기도 남양주시 와부읍 도곡리 969-12번지 삼성아트빌 C동 102호","category":"기타 - 비영리/대상"}]},{"lat":"37.582206331","long":"127.22477776","items":[{"name":"천신암","tel":"031-577-7795","addr":"경기도 남양주시 와부읍 도곡리 947-2번지","category":"기타 - 비영리/비대상"}]},{"lat":"37.576761395","long":"127.23108969","items":[{"name":"철수네뽕잎칼국수","tel":"031-577-5779","addr":"경기도 남양주시 와부읍 도곡리 594-5번지","category":"일반휴게음식 - 일반한식"}]},{"lat":"37.580282965","long":"127.22224749","items":[{"name":"청솔유통","tel":"031-111-1111","addr":"경기도 남양주시 와부읍 도곡리 1027-11번지","category":"음료식품 - 농·축·수산품"}]},{"lat":"37.56192906","long":"127.23222153","items":[{"name":"청용호","tel":"031-576-1116","addr":"경기도 남양주시 와부읍 도곡리 492번지","category":"일반휴게음식 - 일반한식"}]},{"lat":"37.580008015","long":"127.21989194","items":[{"name":"축산명가 고기백화점","tel":"","addr":"경기도 남양주시 와부읍 도곡리 972-9번지","category":"음료식품 - 정육점"}]},{"lat":"37.579510308","long":"127.22589052","items":[{"name":"카스토리(Sohun art painting 1998)","tel":"031-576-5750","addr":"경기도 남양주시 와부읍 도곡리 1049-2번지 (외1필지제1호1층)","category":"자동차정비 유지 - 카인테리어"}]},{"lat":"37.579203142","long":"127.22633111","items":[{"name":"컴프러스","tel":"070-7686-1376","addr":"경기도 남양주시 와부읍 도곡리 1049-14번지","category":"사무통신 - 컴퓨터"}]},{"lat":"37.588509024","long":"127.23627713","items":[{"name":"케빈앤돈매트리스","tel":"02-6340-5359","addr":"경기도 남양주시 와부읍 도곡리 795번지","category":"가구 - 일반가구"}]},{"lat":"37.57950479","long":"127.22403389","items":[{"name":"킹콩 매트리스","tel":"031-521-6605","addr":"경기도 남양주시 와부읍 도곡리 1037-4번지 2동","category":"가구 - 일반가구"}]},{"lat":"37.576119726","long":"127.22741997","items":[{"name":"타이어T월드","tel":"031-576-2270","addr":"경기도 남양주시 와부읍 도곡리 568-22번지 1층","category":"자동차정비 유지 - 자동차시트·타이어"}]},{"lat":"37.584202756","long":"127.2405885","items":[{"name":"토이퍼니처","tel":"031-521-8579","addr":"경기도 남양주시 와부읍 도곡리 164-35번지","category":"가구 - 기타가구"}]},{"lat":"37.579424457","long":"127.23764123","items":[{"name":"투에이치 주식회사","tel":"031-576-9603","addr":"경기도 남양주시 와부읍 도곡리 720번지","category":"직물 - 침구·수예점"}]},{"lat":"37.577977567","long":"127.23578012","items":[{"name":"팀리얼","tel":"070-7808-8753","addr":"경기도 남양주시 와부읍 도곡리 685-1번지 1층","category":"학원 - 예·체능계학원"}]},{"lat":"37.585952898","long":"127.23030258","items":[{"name":"팔당유기농자재","tel":"031-521-3700","addr":"경기도 남양주시 와부읍 도곡리 886-4번지","category":"농업 - 기타농업관련"}]},{"lat":"37.562260416","long":"127.23325251","items":[{"name":"팔당휴게소","tel":"031-576-3598","addr":"경기도 남양주시 와부읍 도곡리 478-4번지 1층","category":"음료식품 - 기타음료식품"}]},{"lat":"37.57839674","long":"127.22395137","items":[{"name":"푸드미가","tel":"070-4233-8707","addr":"경기도 남양주시 와부읍 도곡리 1043-1","category":"음료식품 - 기타음료식품"}]},{"lat":"37.575625095","long":"127.22214327","items":[{"name":"푸르니어린이집[아이행복]","tel":"031-576-4451","addr":"경기도 남양주시 와부읍 도곡리 1117번지 건영덕소리버파크 104동 101호","category":"학원 - 유아원"},{"name":"현공조","tel":"031-521-5032","addr":"경기도 남양주시 와부읍 도곡리 1117번지 건영덕소리버파크 104동 1601호","category":"회원제형태 - 기타3"}]},{"lat":"37.56826333","long":"127.22733979","items":[{"name":"프라움 박물관","tel":"031-0000-0000","addr":"경기도 남양주시 와부읍 도곡리 504-41번지","category":"문화.취미 - 티켓"},{"name":"프라움박물관","tel":"031-521-0441","addr":"경기도 남양주시 와부읍 도곡리 504-41","category":"문화.취미 - 티켓"}]},{"lat":"37.576622815","long":"127.22341407","items":[{"name":"플라워홀릭(flower holics)","tel":"031-577-6059","addr":"경기도 남양주시 와부읍 도곡리 1076-1번지 501호","category":"문화.취미 - 화원"}]},{"lat":"37.568175076","long":"127.235693","items":[{"name":"플레이팜","tel":"031-577-1634","addr":"경기도 남양주시 와부읍 도곡리 349-8번지","category":"레저업소 - 기타레져업소"}]},{"lat":"37.581199829","long":"127.22339361","items":[{"name":"피자레어","tel":"031-577-8777","addr":"경기도 남양주시 와부읍 도곡리 922-5번지","category":"일반휴게음식 - 일반한식"}]},{"lat":"37.563094577","long":"127.23516787","items":[{"name":"하늘정원","tel":"031-521-7777","addr":"경기도 남양주시 와부읍 도곡리 461번지 1층","category":"일반휴게음식 - 일반한식"}]},{"lat":"37.589234744","long":"127.22911241","items":[{"name":"하늘해농장","tel":"0505-333-9002","addr":"경기도 남양주시 와부읍 도곡리 846-2","category":"음료식품 - 농·축·수산품"}]},{"lat":"37.561791577","long":"127.23342083","items":[{"name":"한강정","tel":"031-576-0700","addr":"경기도 남양주시 와부읍 도곡리 485-3번지","category":"일반휴게음식 - 일반한식"}]},{"lat":"37.58275754","long":"127.22391898","items":[{"name":"한옥예술 어린이집[아이행복]","tel":"031-576-0019","addr":"경기도 남양주시 와부읍 도곡리 946-6번지 외2필지","category":"학원 - 유아원"},{"name":"한옥예술유치원","tel":"031-576-0019","addr":"경기도 남양주시 와부읍 도곡리 946-6번지","category":"학원 - 유치원"}]},{"lat":"37.58290108","long":"127.22424772","items":[{"name":"한옥예술유치원[아이행복]","tel":"031-576-0019","addr":"경기도 남양주시 와부읍 도곡리 945-3번지","category":"학원 - 유치원"}]},{"lat":"37.577735286","long":"127.23528126","items":[{"name":"해머(HAMMER)","tel":"031-521-7916","addr":"경기도 남양주시 와부읍 도곡리 669-1번지","category":"가구 - 일반가구"}]},{"lat":"37.588290186","long":"127.23758982","items":[{"name":"홈인스타일","tel":"070-7198-6163","addr":"경기도 남양주시 와부읍 도곡리 799-2번지 1동","category":"가구 - 기타가구"}]},{"lat":"37.562427186","long":"127.23550534","items":[{"name":"화난덕","tel":"031-577-1294","addr":"경기도 남양주시 와부읍 도곡리 482-1번지","category":"일반휴게음식 - 일반한식"}]},{"lat":"37.562427743","long":"127.23522239","items":[{"name":"화난푸드","tel":"031-577-1255","addr":"경기도 남양주시 와부읍 도곡리 482-2번지","category":"일반휴게음식 - 서양음식"}]},{"lat":"37.574423451","long":"127.23335788","items":[{"name":"힐링소울시스템컴파니","tel":"","addr":"경기도 남양주시 와부읍 도곡리 300번지 101호","category":"전기제품 - 기타전기제품"}]},{"lat":"37.578594658","long":"127.22411045","items":[{"name":"힐사이드모텔","tel":"031-576-3300","addr":"경기도 남양주시 와부읍 도곡리 1040-7번지","category":"숙박업 - 여관/기타숙박업"},{"name":"힐사이드모텔알","tel":"031-521-8020","addr":"경기도 남양주시 와부읍 도곡리 1040-7번지","category":"일반휴게음식 - 일반한식"}]}]