[{"lat":"37.763398307","long":"126.81120108","items":[{"name":"(주)아자아자닷컴","tel":"031-945-4912","addr":"경기도 파주시 조리읍 뇌조리 415-12번지","category":"서적문구 - 일반서적"}]},{"lat":"37.763981542","long":"126.81531921","items":[{"name":"SK주유소","tel":"031-945-5185","addr":"경기도 파주시 조리읍 뇌조리 376-10번지","category":"연료판매점 - SK주유소"},{"name":"신세계에너지","tel":"","addr":"경기도 파주시 조리읍 뇌조리 376-10번지","category":"연료판매점 - 유류판매"}]},{"lat":"37.764757256","long":"126.82164998","items":[{"name":"공구쟁이","tel":"031-948-0945","addr":"경기도 파주시 조리읍 뇌조리 461-4번지","category":"기타 - 기계공구"},{"name":"코아","tel":"070-8817-4174","addr":"경기도 파주시 조리읍 뇌조리 461-4","category":"서적문구 - 출판 및 인쇄물"}]},{"lat":"37.753951352","long":"126.81939552","items":[{"name":"나무이야기","tel":"031-942-2207","addr":"경기도 파주시 조리읍 뇌조리 73-5","category":"가구 - 일반가구"},{"name":"더 스타일","tel":"031-942-6330","addr":"경기도 파주시 조리읍 뇌조리 73-5번지","category":"가구 - 일반가구"}]},{"lat":"37.750982238","long":"126.81062038","items":[{"name":"다다종합상사","tel":"070-5031-0327","addr":"경기도 파주시 조리읍 뇌조리 141-1번지","category":"건축자재 - 기타건축자재"}]},{"lat":"37.771088403","long":"126.81429111","items":[{"name":"다시오리","tel":"031-941-7223","addr":"경기도 파주시 조리읍 뇌조리 543-1번지","category":"일반휴게음식 - 일반한식"}]},{"lat":"37.763615217","long":"126.81162042","items":[{"name":"대동천막","tel":"031-111-1111","addr":"경기도 파주시 조리읍 뇌조리 416-4번지","category":"직물 - 카페트,커튼,천막,지물"},{"name":"대동천막공사","tel":"031-942-7964","addr":"경기도 파주시 조리읍 뇌조리 416-4번지","category":"직물 - 카페트,커튼,천막,지물"},{"name":"삼성가구철물","tel":"031-943-9645","addr":"경기도 파주시 조리읍 뇌조리 416-4번지","category":"기타 - 기계공구"}]},{"lat":"37.75139758","long":"126.8111753","items":[{"name":"대성초경","tel":"031-945-3983","addr":"경기도 파주시 조리읍 뇌조리 145","category":"기타 - 기계공구"}]},{"lat":"37.772035195","long":"126.81478811","items":[{"name":"대작인테리어","tel":"031-945-2981","addr":"경기도 파주시 조리읍 뇌조리 539번지","category":"가구 - 일반가구"},{"name":"장단상회","tel":"031-949-7777","addr":"경기도 파주시 조리읍 뇌조리 539번지","category":"유통업 영리 - 편 의 점"}]},{"lat":"37.752401815","long":"126.82534522","items":[{"name":"대한피엠아이","tel":"02-2273-5351","addr":"경기도 파주시 조리읍 뇌조리 111-20","category":"서적문구 - 출판 및 인쇄물"}]},{"lat":"37.755037134","long":"126.82239993","items":[{"name":"더나은재활용","tel":"070-8951-5234","addr":"경기도 파주시 조리읍 뇌조리 89-19","category":"신변잡화 - 기타잡화"}]},{"lat":"37.764924871","long":"126.81934572","items":[{"name":"덕암초등학교병설유치원[아이행복]","tel":"031-941-4219","addr":"경기도 파주시 조리읍 뇌조리 457-1번지","category":"학원 - 유치원"}]},{"lat":"37.764088062","long":"126.81432024","items":[{"name":"동성포장","tel":"031-944-0031","addr":"경기도 파주시 조리읍 뇌조리 403-3번지","category":"기타 - 기타 전문점"},{"name":"유진볼트","tel":"031-943-3575","addr":"경기도 파주시 조리읍 뇌조리 403-3","category":"건축자재 - 목재·석재·철물"}]},{"lat":"37.757225727","long":"126.81615331","items":[{"name":"등원농장","tel":"070-8549-3579","addr":"경기도 파주시 조리읍 뇌조리 182-6","category":"음료식품 - 농·축·수산품"}]},{"lat":"37.764310801","long":"126.81276487","items":[{"name":"명성자동차3급공업사","tel":"031-941-5464","addr":"경기도 파주시 조리읍 뇌조리 418-19번지","category":"자동차정비 유지 - 자동차정비"}]},{"lat":"37.752399089","long":"126.81206914","items":[{"name":"모아키즈플러스어린이집[아이행복]","tel":"031-942-4220","addr":"경기도 파주시 조리읍 뇌조리 159-1번지","category":"학원 - 유아원"}]},{"lat":"37.753400945","long":"126.82473009","items":[{"name":"문일기계","tel":"031-947-8617","addr":"경기도 파주시 조리읍 뇌조리 108번지","category":"기타 - 기계공구"}]},{"lat":"37.751010449","long":"126.8113465","items":[{"name":"민족농산","tel":"070-8524-2580","addr":"경기도 파주시 조리읍 뇌조리 149번지","category":"음료식품 - 농·축·수산품"}]},{"lat":"37.753287945","long":"126.81017187","items":[{"name":"믿음전장","tel":"070-4158-9473","addr":"경기도 파주시 조리읍 뇌조리 389-7","category":"자동차정비 유지 - 자동차정비"},{"name":"한성농자재","tel":"031-945-1035","addr":"경기도 파주시 조리읍 뇌조리 389-7","category":"농업 - 기타농업관련"}]},{"lat":"37.752010497","long":"126.80587466","items":[{"name":"백두카센타","tel":"031-942-5120","addr":"경기도 파주시 조리읍 뇌조리 190-8번지","category":"자동차정비 유지 - 자동차정비"}]},{"lat":"37.770200077","long":"126.81656333","items":[{"name":"사회복지법인 에벤에셀어린이집[아이행복]","tel":"031-946-3939","addr":"경기도 파주시 조리읍 뇌조리 535-4번지","category":"학원 - 유아원"}]},{"lat":"37.751563569","long":"126.80800907","items":[{"name":"산장가든","tel":"031-943-7666","addr":"경기도 파주시 조리읍 뇌조리 171-6번지","category":"일반휴게음식 - 일반한식"}]},{"lat":"37.768446974","long":"126.81895113","items":[{"name":"삼오공조","tel":"","addr":"경기도 파주시 조리읍 뇌조리 505-1번지","category":"용역 서비스 - 기타용역서비스"}]},{"lat":"37.763398713","long":"126.81145075","items":[{"name":"세븐일레븐파주대명점","tel":"","addr":"경기도 파주시 조리읍 뇌조리 416-6번지","category":"유통업 영리 - 편 의 점"},{"name":"소문난찐빵","tel":"031-942-5917","addr":"경기도 파주시 조리읍 뇌조리 416-6번지","category":"일반휴게음식 - 스넥"},{"name":"에어컨공조시스템냉동","tel":"","addr":"경기도 파주시 조리읍 뇌조리 416-6번지","category":"용역 서비스 - 기타용역서비스"}]},{"lat":"37.750511958","long":"126.82084506","items":[{"name":"세움가구","tel":"031-949-4453","addr":"경기도 파주시 조리읍 뇌조리 124-66번지","category":"가구 - 일반가구"}]},{"lat":"37.755145804","long":"126.82276278","items":[{"name":"시골기사식당","tel":"031-947-9374","addr":"경기도 파주시 조리읍 뇌조리 89-53번지 1층","category":"일반휴게음식 - 일반한식"}]},{"lat":"37.750755127","long":"126.82078773","items":[{"name":"신라","tel":"031-946-7619","addr":"경기도 파주시 조리읍 뇌조리 124-29번지","category":"가구 - 일반가구"}]},{"lat":"37.764058916","long":"126.81867828","items":[{"name":"신용천막판넬기업","tel":"031-948-5949","addr":"경기도 파주시 조리읍 뇌조리 375-1번지","category":"직물 - 카페트,커튼,천막,지물"}]},{"lat":"37.769477862","long":"126.81564582","items":[{"name":"신흥오일","tel":"031-941-5172","addr":"경기도 파주시 조리읍 뇌조리 527-1번지","category":"자동차정비 유지 - 윤활유 전문 판매"}]},{"lat":"37.774891955","long":"126.8152576","items":[{"name":"아트너울","tel":"070-4211-6011","addr":"경기도 파주시 조리읍 뇌조리 555-1 나동","category":"건축자재 - 기타건축자재"}]},{"lat":"37.768754692","long":"126.81984699","items":[{"name":"알피니스트슈즈","tel":"","addr":"경기도 파주시 조리읍 뇌조리 501-4번지","category":"수리서비스 - 신변잡화수리"}]},{"lat":"37.767287818","long":"126.82092879","items":[{"name":"에스앤디퍼니처","tel":"031-944-1621","addr":"경기도 파주시 조리읍 뇌조리 476-33번지","category":"가구 - 일반가구"}]},{"lat":"37.751227211","long":"126.81167501","items":[{"name":"예담ENG","tel":"070-8878-2004","addr":"경기도 파주시 조리읍 뇌조리 150-5번지","category":"기타 - 기계공구"}]},{"lat":"37.771504035","long":"126.81503916","items":[{"name":"올어바웃 2호점","tel":"031-946-0711","addr":"경기도 파주시 조리읍 뇌조리 539-1번지","category":"학원 - 예·체능계학원"},{"name":"파주 글러브 야구레슨장","tel":"","addr":"경기도 파주시 조리읍 뇌조리 539-1번지","category":"학원 - 예·체능계학원"}]},{"lat":"37.764204385","long":"126.81382059","items":[{"name":"올우드(Allwood)","tel":"031-945-3737","addr":"경기도 파주시 조리읍 뇌조리 403-13번지","category":"가구 - 일반가구"}]},{"lat":"37.76470208","long":"126.82092378","items":[{"name":"우리동네","tel":"031-943-5673","addr":"경기도 파주시 조리읍 뇌조리 460-3번지 우리동네마트,파주옥 가동","category":"유통업 영리 - 편 의 점"},{"name":"전주웰빙한식부페","tel":"031-942-0779","addr":"경기도 파주시 조리읍 뇌조리 460-3번지","category":"일반휴게음식 - 일반한식"},{"name":"파주옥","tel":"031-945-0204","addr":"경기도 파주시 조리읍 뇌조리 460-3번지","category":"일반휴게음식 - 일반한식"}]},{"lat":"37.755031854","long":"126.81898435","items":[{"name":"우리스포츠","tel":"031-945-7734","addr":"경기도 파주시 조리읍 뇌조리 261-10","category":"레져용품 - 스포츠·레져용품"}]},{"lat":"37.768149874","long":"126.81908806","items":[{"name":"원배경","tel":"031-945-4900","addr":"경기도 파주시 조리읍 뇌조리 446-1번지","category":"건축자재 - 인테리어전문"}]},{"lat":"37.764119471","long":"126.81144889","items":[{"name":"월드전자","tel":"031-957-5355","addr":"경기도 파주시 조리읍 뇌조리 415-11","category":"보건위생 - 미용재료"}]},{"lat":"37.770225088","long":"126.81529209","items":[{"name":"자연밥상","tel":"031-948-0606","addr":"경기도 파주시 조리읍 뇌조리 527-2번지","category":"일반휴게음식 - 일반한식"}]},{"lat":"37.756032865","long":"126.82548407","items":[{"name":"조리샘농원가든","tel":"031-948-4207","addr":"경기도 파주시 조리읍 뇌조리 103-16번지","category":"일반휴게음식 - 일반한식"}]},{"lat":"37.762203081","long":"126.82461819","items":[{"name":"주식회사 광양기술서비스","tel":"031-949-7281","addr":"경기도 파주시 조리읍 뇌조리 338-1번지","category":"기타 - 기계공구"},{"name":"주식회사콤포지션","tel":"070-8680-9353","addr":"경기도 파주시 조리읍 뇌조리 338-1번지","category":"기타 - 기계공구"}]},{"lat":"37.770063732","long":"126.82156893","items":[{"name":"주식회사 에스엠에어코리아","tel":"031-946-0949","addr":"경기도 파주시 조리읍 뇌조리 482-3번지","category":"유통업 영리 - 기타유통업"}]},{"lat":"37.76375798","long":"126.81637521","items":[{"name":"파주부대찌개","tel":"031-945-4336","addr":"경기도 파주시 조리읍 뇌조리 371-1번지","category":"일반휴게음식 - 일반한식"}]},{"lat":"37.763840011","long":"126.81134747","items":[{"name":"파주현대씽크","tel":"031-943-5336","addr":"경기도 파주시 조리읍 뇌조리 415-5","category":"주방용구 - 주방용구"}]},{"lat":"37.771119408","long":"126.82258784","items":[{"name":"피카소","tel":"031-946-5644","addr":"경기도 파주시 조리읍 뇌조리 487-3","category":"유통업 영리 - 기타유통업"},{"name":"피카소포장","tel":"031-946-5643","addr":"경기도 파주시 조리읍 뇌조리 487-3","category":"유통업 영리 - 기타유통업"}]},{"lat":"37.753677406","long":"126.81143041","items":[{"name":"효성특수전기","tel":"031-944-5471","addr":"경기도 파주시 조리읍 뇌조리 133-37번지","category":"기타 - 기계공구"}]}]