[{"lat":"37.308278336","long":"127.07952974","items":[{"name":"(Jebs)영어성경 홈스쿨","tel":"","addr":"경기도 용인시 수지구 상현동 860번지 서원마을3단지아이파크","category":"학원 - 기타 교육기관"}]},{"lat":"37.306094444","long":"127.08463722","items":[{"name":"(뉴)강혁학원","tel":"031-889-1324","addr":"경기도 용인시 수지구 상현동 252번지 512호 511호,512호","category":"학원 - 보습학원"},{"name":"SJS영어학원","tel":"031-898-0582","addr":"경기도 용인시 수지구 상현동 252번지 SR프라자 514호","category":"학원 - 보습학원"},{"name":"고기의 참맛","tel":"031-889-8199","addr":"경기도 용인시 수지구 상현동 252번지 SR프라자 201호","category":"일반휴게음식 - 일반한식"},{"name":"길선생영어학원","tel":"031-898-1142","addr":"경기도 용인시 수지구 상현동 252번지 SR프라자 3층 301호","category":"학원 - 보습학원"},{"name":"나다논술학원","tel":"031-889-9493","addr":"경기도 용인시 수지구 상현동 252번지 외2필지 SR프라자 314호","category":"회원제형태 - 학원"},{"name":"네일킹(NAILKING)","tel":"031-889-3765","addr":"경기도 용인시 수지구 상현동 252번지 SR프라자 125호","category":"신변잡화 - 액세서리"},{"name":"노블레스미용실","tel":"031-263-1044","addr":"경기도 용인시 수지구 상현동 252번지 SR프라자 127호","category":"보건위생 - 미용원"},{"name":"다다","tel":"031-272-4868","addr":"경기도 용인시 수지구 상현동 252번지 SR프라자 지하 B106호","category":"신변잡화 - 기타잡화"},{"name":"더 쉐어","tel":"031-265-3379","addr":"경기도 용인시 수지구 상현동 252번지 SR프라자 101호","category":"일반휴게음식 - 스넥"},{"name":"더이룸안경","tel":"031-276-0731","addr":"경기도 용인시 수지구 상현동 252번지 SR프라자 1층 114호","category":"보건위생 - 안경"},{"name":"라파","tel":"031-889-9828","addr":"경기도 용인시 수지구 상현동 252번지 외2필지SR프라자 209호","category":"보건위생 - 화장품"},{"name":"루카스학원","tel":"031-898-2233","addr":"경기도 용인시 수지구 상현동 252번지 SR프라자 505호","category":"회원제형태 - 학원"},{"name":"리딩아일랜드학원","tel":"031-263-0522","addr":"경기도 용인시 수지구 상현동 252번지 외2필지SR프라자502,503호","category":"회원제형태 - 학원"},{"name":"리앤한피아노스튜디오학원","tel":"031-266-6494","addr":"경기도 용인시 수지구 상현동 252번지 SR프라자 313호","category":"학원 - 예·체능계학원"},{"name":"매쓰풀사고력수학학원","tel":"031-264-3588","addr":"경기도 용인시 수지구 상현동 252번지 에스알프라자 513호","category":"학원 - 보습학원"},{"name":"메가 엠지씨커피 수지상현점","tel":"031-889-4211","addr":"경기도 용인시 수지구 상현동 252번지 SR프라자 126호","category":"일반휴게음식 - 서양음식"},{"name":"명주치과","tel":"031-266-2827","addr":"경기도 용인시 수지구 상현동 252번지 SR프라자 507호","category":"의원 - 치과의원"},{"name":"벙커","tel":"031-703-1453","addr":"경기도 용인시 수지구 상현동 252번지 SR프라자 2층 206-1호","category":"일반휴게음식 - 주점"},{"name":"뷰티콜라겐(상현)","tel":"031-265-9006","addr":"경기도 용인시 수지구 상현동 252번지 SR프라자 110호","category":"보건위생 - 화장품"},{"name":"블랙스타일헤어","tel":"031-261-6633","addr":"경기도 용인시 수지구 상현동 252번지 SR프라자 216호","category":"보건위생 - 미용원"},{"name":"비마이뮤즈","tel":"031-9700-8370","addr":"경기도 용인시 수지구 상현동 252번지 SR프라자 103호","category":"보건위생 - 화장품"},{"name":"삼막집","tel":"031-264-9600","addr":"경기도 용인시 수지구 상현동 252번지 SR프라자 119호","category":"일반휴게음식 - 일반한식"},{"name":"상현e해법수학셀파수학학원","tel":"031-893-3001","addr":"경기도 용인시 수지구 상현동 252번지 SR프라자 407호","category":"학원 - 보습학원"},{"name":"상현서예한문학원","tel":"031-898-1964","addr":"경기도 용인시 수지구 상현동 252번지 SR프라자 404호","category":"학원 - 기타 교육기관"},{"name":"새마을휘트니스 수지","tel":"031-889-9131","addr":"경기도 용인시 수지구 상현동 252번지 SR프라자 외2필지 지하 비101,102,103,104,105호","category":"레저업소 - 헬스클럽"},{"name":"솔루션 수학학원","tel":"031-263-1435","addr":"경기도 용인시 수지구 상현동 252번지 SR프라자 509,510호","category":"학원 - 보습학원"},{"name":"수어재 국어학원","tel":"031-261-0799","addr":"경기도 용인시 수지구 상현동 252번지 SR프라자 402호","category":"학원 - 보습학원"},{"name":"수지스즈키바이올린첼로전문학원","tel":"031-276-8996","addr":"경기도 용인시 수지구 상현동 252번지 에스알프라자 501호","category":"학원 - 예·체능계학원"},{"name":"수지풀무질수학전문학원","tel":"031-265-7442","addr":"경기도 용인시 수지구 상현동 252번지 SR프라자 506호","category":"학원 - 보습학원"},{"name":"수학공감학원","tel":"031-898-1203","addr":"경기도 용인시 수지구 상현동 252번지 SR프라자 215호","category":"학원 - 보습학원"},{"name":"스마트모바일","tel":"070-4124-3353","addr":"경기도 용인시 수지구 상현동 252번지 SR프라자 128호","category":"사무통신 - 통신기기"},{"name":"스카이점핑다이어트","tel":"031-276-1577","addr":"경기도 용인시 수지구 상현동 252번지 SR프라자 2층 203호","category":"건강식품 - 기타건강식품"},{"name":"스타샵","tel":"070-7573-3494","addr":"경기도 용인시 수지구 상현동 252번지 SR프라자 110호","category":"의류 - 정장"},{"name":"스타일리스트 은우","tel":"031-889-8669","addr":"경기도 용인시 수지구 상현동 252번지 SR프라자 210호","category":"보건위생 - 미용원"},{"name":"심훈치과의원","tel":"031-898-1308","addr":"경기도 용인시 수지구 상현동 252번지 SR프라자 308호","category":"의원 - 치과의원"},{"name":"아로마건강","tel":"031-265-5022","addr":"경기도 용인시 수지구 상현동 252번지 SR프라자 103호","category":"회원제형태 - 기타4"},{"name":"아임필라테스(상현점)","tel":"031-261-0812","addr":"경기도 용인시 수지구 상현동 252번지 205,206호","category":"레저업소 - 헬스클럽"},{"name":"아크사고력수학학원","tel":"031-889-5678","addr":"경기도 용인시 수지구 상현동 252번지 SR프라자 405호","category":"학원 - 보습학원"},{"name":"안심축산판매점","tel":"031-265-2389","addr":"경기도 용인시 수지구 상현동 252번지 SR프라자 1층 123호","category":"음료식품 - 정육점"},{"name":"에이블영어수학학원","tel":"031-263-8893","addr":"경기도 용인시 수지구 상현동 252번지 SR프라자 312호","category":"학원 - 보습학원"},{"name":"엘리시스","tel":"031-286-6655","addr":"경기도 용인시 수지구 상현동 252번지 SR프라자 102호","category":"보건위생 - 화장품"},{"name":"열공스터디카페상현점","tel":"031-7845-6787","addr":"경기도 용인시 수지구 상현동 252번지 SR프라자 5층 515,516호","category":"용역 서비스 - 사무서비스"},{"name":"영심이","tel":"031-263-7666","addr":"경기도 용인시 수지구 상현동 252번지 SR프라자 1층 122호","category":"일반휴게음식 - 일반한식"},{"name":"예감쪽갈비","tel":"031-266-3216","addr":"경기도 용인시 수지구 상현동 252번지 SR프라자 105호","category":"일반휴게음식 - 일반한식"},{"name":"오송한약국","tel":"031-889-9112","addr":"경기도 용인시 수지구 상현동 252번지 외2필지 에스알프라자 111호","category":"약국 - 약국"},{"name":"와이비엠잉글루용인상현제1학습관학원","tel":"031-262-2966","addr":"경기도 용인시 수지구 상현동 252번지 SR프라자 416호 외2필지SR프라자","category":"학원 - 보습학원"},{"name":"용인대 태풍 태권도장","tel":"031-266-6768","addr":"경기도 용인시 수지구 상현동 252번지 SR프라자 307호","category":"학원 - 예·체능계학원"},{"name":"우리돈축산","tel":"031-266-3562","addr":"경기도 용인시 수지구 상현동 252번지 SR프라자 111호","category":"음료식품 - 정육점"},{"name":"우리스튜디오","tel":"031-898-2030","addr":"경기도 용인시 수지구 상현동 252번지 외2필지SR프라자1층116호117호","category":"광학제품 - 사진관"},{"name":"원희플라워","tel":"031-276-9999","addr":"경기도 용인시 수지구 상현동 252번지 에스알프라자 107호","category":"문화.취미 - 화원"},{"name":"위드매쓰메카수학학원","tel":"031-265-3063","addr":"경기도 용인시 수지구 상현동 252번지 SR프라자 315호","category":"회원제형태 - 학원"},{"name":"유로코스메틱","tel":"031-263-1601","addr":"경기도 용인시 수지구 상현동 252번지 에스알프라자 208호","category":"보건위생 - 화장품"},{"name":"이가자헤어비스","tel":"031-263-5251","addr":"경기도 용인시 수지구 상현동 252번지 SR프라자 212호","category":"보건위생 - 미용재료"},{"name":"이가자헤어비스","tel":"031-263-5251","addr":"경기도 용인시 수지구 상현동 252번지 SR프라자 2층 211,212호","category":"보건위생 - 미용재료"},{"name":"이가자헤어비스 상현점","tel":"031-263-5251","addr":"경기도 용인시 수지구 상현동 252번지 외2필지 SR프라자 211,212호","category":"보건위생 - 미용원"},{"name":"이퀸즈학원","tel":"02-1111-1111","addr":"경기도 용인시 수지구 상현동 252번지 SR프라자 4층 415호","category":"학원 - 보습학원"},{"name":"이현음악학원","tel":"031-898-2297","addr":"경기도 용인시 수지구 상현동 252번지 SR프라자 411호","category":"학원 - 예·체능계학원"},{"name":"장젬마영어교습소","tel":"031-272-3222","addr":"경기도 용인시 수지구 상현동 252번지 SR프라자 508호","category":"회원제형태 - 학원"},{"name":"재능바둑학원","tel":"031-276-6414","addr":"경기도 용인시 수지구 상현동 252번지 SR프라자 412호","category":"학원 - 기타 교육기관"},{"name":"정동물병원","tel":"031-898-2298","addr":"경기도 용인시 수지구 상현동 252번지 SR프라자 112호","category":"기타의료기관 - 동물병원"},{"name":"정스시","tel":"031-265-8466","addr":"경기도 용인시 수지구 상현동 252번지 SR프라자 108호","category":"일반휴게음식 - 일식·회집"},{"name":"정희경맞춤영어학원","tel":"031-265-1778","addr":"경기도 용인시 수지구 상현동 252번지 외2필지 SR프라자 302호","category":"회원제형태 - 학원"},{"name":"착한시루","tel":"031-264-5577","addr":"경기도 용인시 수지구 상현동 252번지 SR프라자 1층 120호","category":"음료식품 - 제과점"},{"name":"코스메틱","tel":"031-725-1061","addr":"경기도 용인시 수지구 상현동 252번지 SR프라자 B1층 107호","category":"보건위생 - 화장품"},{"name":"콜린스영어학원","tel":"031-276-0414","addr":"경기도 용인시 수지구 상현동 252번지 SR프라자 414호","category":"학원 - 보습학원"},{"name":"클럽밸런스5수지상현점","tel":"031-889-7949","addr":"경기도 용인시 수지구 상현동 252번지 SR프라자 213호","category":"보건위생 - 의료용품"},{"name":"튼튼영어마스터클럽수지상현학원","tel":"031-896-0582","addr":"경기도 용인시 수지구 상현동 252번지 SR프라자","category":"학원 - 보습학원"},{"name":"파라미수학학원","tel":"031-263-5508","addr":"경기도 용인시 수지구 상현동 252번지 외2필지 SR프라자 302호","category":"학원 - 보습학원"},{"name":"판다포차","tel":"070-4212-7990","addr":"경기도 용인시 수지구 상현동 252번지 SR프라자 104호","category":"일반휴게음식 - 일반한식"},{"name":"풍경이있는집","tel":"031-889-9799","addr":"경기도 용인시 수지구 상현동 252번지 SR프라자 118호","category":"신변잡화 - 기타잡화"},{"name":"플스빌 용인수지점","tel":"031-261-2777","addr":"경기도 용인시 수지구 상현동 252번지 SR프라자 1층 103호","category":"서적문구 - 완구점"},{"name":"헤어리","tel":"031-266-0120","addr":"경기도 용인시 수지구 상현동 252번지 SR프라자 110호","category":"보건위생 - 미용원"},{"name":"헬스토피아","tel":"070-7571-1122","addr":"경기도 용인시 수지구 상현동 252번지 SR프라자 1층 115호","category":"건강식품 - 기타건강식품"},{"name":"홍춘천치즈닭갈비 상현점","tel":"031-889-9288","addr":"경기도 용인시 수지구 상현동 252번지 SR프라자 124호","category":"일반휴게음식 - 일반한식"}]},{"lat":"37.30098817","long":"127.06575076","items":[{"name":"(의)현당의료재단 늘봄요양병원","tel":"031-8005-1470","addr":"경기도 용인시 수지구 상현동 1186번지 광교복합의료센터 201호","category":"병원 - 병원"},{"name":"씨유광교늘봄병원점","tel":"080-080-3663","addr":"경기도 용인시 수지구 상현동 1186번지","category":"유통업 영리 - 편 의 점"}]},{"lat":"37.29806625","long":"127.07047402","items":[{"name":"(주)더웨이에듀케이션","tel":"031-211-0500","addr":"경기도 용인시 수지구 상현동 1132번지 에스비타운 201,202호","category":"학원 - 보습학원"},{"name":"(주)해일러닝","tel":"031-211-0579","addr":"경기도 용인시 수지구 상현동 1132번지 201,202호","category":"학원 - 보습학원"},{"name":"김구한의원","tel":"031-546-2966","addr":"경기도 용인시 수지구 상현동 1132번지 203호","category":"의원 - 한의원"},{"name":"김칠순 찌개박사","tel":"070-4407-4771","addr":"경기도 용인시 수지구 상현동 1132번지 2층","category":"일반휴게음식 - 일반한식"},{"name":"떡마당","tel":"031-213-3578","addr":"경기도 용인시 수지구 상현동 1132번지 SB타운 105호","category":"음료식품 - 제과점"},{"name":"뜰사랑","tel":"031-215-0088","addr":"경기도 용인시 수지구 상현동 1132번지 에스비타운 204호, 205호","category":"일반휴게음식 - 일반한식"},{"name":"라이즈광교어학원","tel":"031-212-9950","addr":"경기도 용인시 수지구 상현동 1132번지 5층 에스비타운 5층 501~503호","category":"회원제형태 - 학원"},{"name":"머리못하는집","tel":"031-211-7644","addr":"경기도 용인시 수지구 상현동 1132번지 104호","category":"보건위생 - 미용원"},{"name":"산하곱창구이","tel":"031-215-0321","addr":"경기도 용인시 수지구 상현동 1132번지 111호","category":"일반휴게음식 - 일반한식"},{"name":"상현프라임치과","tel":"031-216-3528","addr":"경기도 용인시 수지구 상현동 1132번지 광교택지개발지구내주23블럭1로트에스타운3층304호","category":"의원 - 치과의원"},{"name":"샐러디 상현역점","tel":"031-213-6454","addr":"경기도 용인시 수지구 상현동 1132번지 에스비타운 114호","category":"일반휴게음식 - 서양음식"},{"name":"서울피아노포르테음악학원","tel":"031-215-0156","addr":"경기도 용인시 수지구 상현동 1132번지 402호","category":"학원 - 예·체능계학원"},{"name":"시온성","tel":"031-212-2580","addr":"경기도 용인시 수지구 상현동 1132번지 303호","category":"일반휴게음식 - 일반한식"},{"name":"쎈수학용인광교상현학원","tel":"031-217-7773","addr":"경기도 용인시 수지구 상현동 1132번지 308호","category":"학원 - 보습학원"},{"name":"아름드리리더스태권도","tel":"031-266-7289","addr":"경기도 용인시 수지구 상현동 1132번지 405, 406호","category":"학원 - 예·체능계학원"},{"name":"알파문구(광교상현역점)","tel":"031-216-3309","addr":"경기도 용인시 수지구 상현동 1132번지","category":"서적문구 - 문구용품"},{"name":"온누리기분좋은약국","tel":"031-212-7004","addr":"경기도 용인시 수지구 상현동 1132번지 에스비타운 110호","category":"약국 - 약국"},{"name":"용인대 가온 합기도","tel":"031-213-7997","addr":"경기도 용인시 수지구 상현동 1132번지 401호","category":"학원 - 예·체능계학원"},{"name":"웰키친pho","tel":"02-123-1234","addr":"경기도 용인시 수지구 상현동 1132번지 112호","category":"일반휴게음식 - 서양음식"},{"name":"크린토피아 코인워시 용인광교상현점","tel":"031-211-0365","addr":"경기도 용인시 수지구 상현동 1132번지 1층 106호","category":"수리서비스 - 세탁소"}]},{"lat":"37.296039642","long":"127.06924288","items":[{"name":"(주)도솔방재","tel":"031-719-6119","addr":"경기도 용인시 수지구 상현동 1133번지 변호사빌딩 803호","category":"기타 - 기계공구"},{"name":"광교 산내들화원","tel":"031-285-2642","addr":"경기도 용인시 수지구 상현동 1133번지 변호사빌딩 107호","category":"문화.취미 - 화원"},{"name":"광교인내과의원","tel":"031-212-3082","addr":"경기도 용인시 수지구 상현동 1133번지 301호,303호","category":"의원 - 의원"},{"name":"광교치과","tel":"031-211-2835","addr":"경기도 용인시 수지구 상현동 1133번지 엘리치안 302호","category":"의원 - 치과의원"},{"name":"광교회수산","tel":"031-211-4550","addr":"경기도 용인시 수지구 상현동 1133번지 엘리치안 109호","category":"일반휴게음식 - 일식·회집"},{"name":"다온약국","tel":"031-8001-3177","addr":"경기도 용인시 수지구 상현동 1133번지 1층","category":"약국 - 약국"},{"name":"다온약국","tel":"031-8001-3177","addr":"경기도 용인시 수지구 상현동 1133번지 변호사빌딩 108호","category":"약국 - 약국"},{"name":"더진국 상현역점","tel":"031-217-3337","addr":"경기도 용인시 수지구 상현동 1133번지 변호사빌딩 107호","category":"일반휴게음식 - 일반한식"},{"name":"돈벌마트","tel":"031-266-8119","addr":"경기도 용인시 수지구 상현동 1133번지 변호사빌딩 1층 105호","category":"유통업 영리 - 편 의 점"},{"name":"명랑핫도그 광교상현역점","tel":"031-217-2626","addr":"경기도 용인시 수지구 상현동 1133번지 변호사빌딩 103호","category":"일반휴게음식 - 서양음식"},{"name":"백채김치찌개","tel":"031-217-9361","addr":"경기도 용인시 수지구 상현동 1133번지 변호사빌딩 102호","category":"일반휴게음식 - 일반한식"},{"name":"법률사무소 은인","tel":"031-546-1544","addr":"경기도 용인시 수지구 상현동 1133번지 변호사빌딩 2층 203호","category":"용역 서비스 - 법률회계서비스(개인)"},{"name":"부가네한우곱창","tel":"031-304-0332","addr":"경기도 용인시 수지구 상현동 1133번지 변호사빌딩 105호","category":"일반휴게음식 - 일반한식"},{"name":"선굼터","tel":"031-211-7980","addr":"경기도 용인시 수지구 상현동 1133번지 변호사빌딩 205호","category":"일반휴게음식 - 일반한식"},{"name":"정정아식당","tel":"031-214-6789","addr":"경기도 용인시 수지구 상현동 1133번지 엘리치안 101호","category":"일반휴게음식 - 일반한식"},{"name":"주식회사 길벗투어","tel":"031-211-0042","addr":"경기도 용인시 수지구 상현동 1133번지 변호사빌딩 914호","category":"여행 - 관광여행"},{"name":"하버드신경과의원","tel":"031-225-3080","addr":"경기도 용인시 수지구 상현동 1133번지 엘리치안빌딩 3층 304호","category":"의원 - 의원"},{"name":"훗스테이크","tel":"031-215-8820","addr":"경기도 용인시 수지구 상현동 1133번지 변호사빌딩 110호","category":"일반휴게음식 - 서양음식"}]},{"lat":"37.301935929","long":"127.07829388","items":[{"name":"(주)동행서비스","tel":"070-8031-4038","addr":"경기도 용인시 수지구 상현동 831번지 상현마을쌍용 216동 1604호","category":"의류 - 아동의류"}]},{"lat":"37.29842777","long":"127.0685006","items":[{"name":"(주)비엔케이에프비 이화수 광교점","tel":"031-216-3008","addr":"경기도 용인시 수지구 상현동 1116번지 광교2차푸르지오시티 A동 419호","category":"일반휴게음식 - 일반한식"},{"name":"곱선생(상현점)","tel":"031-613-7971","addr":"경기도 용인시 수지구 상현동 1116번지 A동 106,107호","category":"일반휴게음식 - 일반한식"},{"name":"더골프아카데미","tel":"","addr":"경기도 용인시 수지구 상현동 1116번지 A동 2층 203호~208호","category":"레져용품 - 골프용품 전문점"},{"name":"더도어즈골프","tel":"","addr":"경기도 용인시 수지구 상현동 1116번지 광교2차푸르지오시티 A동 201,202,209,210,211호","category":"레져용품 - 골프용품 전문점"},{"name":"더바른고깃집","tel":"02-501-4427","addr":"경기도 용인시 수지구 상현동 1116번지 광교2차푸르지오시티 A동 419호","category":"일반휴게음식 - 일반한식"},{"name":"도라네꼬오뎅","tel":"02-501-4427","addr":"경기도 용인시 수지구 상현동 1116번지 광교2차푸르지오시티 A동 419호","category":"일반휴게음식 - 일반한식"},{"name":"루미스튜디오","tel":"070-8285-9336","addr":"경기도 용인시 수지구 상현동 1116번지 A동 109호","category":"광학제품 - 사진관"},{"name":"미미생양꼬치&샤브샤브","tel":"031-213-9980","addr":"경기도 용인시 수지구 상현동 1116번지 광교2차푸르지오시티 A동 102호","category":"일반휴게음식 - 중국식"},{"name":"아재네","tel":"","addr":"경기도 용인시 수지구 상현동 1116번지 A동 103호","category":"일반휴게음식 - 일식·회집"},{"name":"티바두마리치킨 상현점","tel":"031-213-1732","addr":"경기도 용인시 수지구 상현동 1116번지 광교2차푸르지오시티 A동 105호","category":"일반휴게음식 - 스넥"}]},{"lat":"37.297986024","long":"127.06894007","items":[{"name":"(주)아임구루","tel":"031-211-9593","addr":"경기도 용인시 수지구 상현동 1117-2번지 프리미어타워 8층 803호","category":"용역 서비스 - 소프트웨어"},{"name":"강만가","tel":"031-214-0120","addr":"경기도 용인시 수지구 상현동 1117-2번지 프리미어타워 6층 606호","category":"보건위생 - 화장품"},{"name":"광교서점","tel":"031-215-9449","addr":"경기도 용인시 수지구 상현동 1117-2번지 광교프리미워타워 205호,206호","category":"서적문구 - 일반서적"},{"name":"광교요리학원","tel":"031-212-5282","addr":"경기도 용인시 수지구 상현동 1117-2번지 프리미어타워 7층 702호","category":"학원 - 기능학원"},{"name":"광교칼국수","tel":"031-211-1831","addr":"경기도 용인시 수지구 상현동 1117-2번지 201호","category":"일반휴게음식 - 일반한식"},{"name":"국가대표점핑다이어트","tel":"031-111-1111","addr":"경기도 용인시 수지구 상현동 1117-2번지 502호","category":"건강식품 - 기타건강식품"},{"name":"군 (GooN)","tel":"032-000-0000","addr":"경기도 용인시 수지구 상현동 1117-2번지 프리미어타워 202호","category":"일반휴게음식 - 일반한식"},{"name":"담소사골순대 광교역점","tel":"031-214-1821","addr":"경기도 용인시 수지구 상현동 1117-2번지 프리미어타워 105호","category":"일반휴게음식 - 일반한식"},{"name":"더 포토스타일","tel":"031-267-3175","addr":"경기도 용인시 수지구 상현동 1117-2번지 프리미어타워 305호","category":"광학제품 - 사진관"},{"name":"더나인","tel":"031-252-4148","addr":"경기도 용인시 수지구 상현동 1117-2번지 프리미어타워 701호","category":"보건위생 - 피부미용실"},{"name":"돌격수학교습소","tel":"031-215-4979","addr":"경기도 용인시 수지구 상현동 1117-2번지 광교프리미워타워 301호","category":"학원 - 보습학원"},{"name":"레오수학학원","tel":"031-214-1114","addr":"경기도 용인시 수지구 상현동 1117-2번지 프리미어타워 404호","category":"학원 - 보습학원"},{"name":"맥스네이처(MAXNATURE)학원","tel":"031-548-1174","addr":"경기도 용인시 수지구 상현동 1117-2번지 프리미어타워 306호","category":"학원 - 보습학원"},{"name":"미","tel":"070-8281-8866","addr":"경기도 용인시 수지구 상현동 1117-2번지 광교프리미어타워 706호","category":"보건위생 - 화장품"},{"name":"상현수학교습소","tel":"031-215-7588","addr":"경기도 용인시 수지구 상현동 1117-2번지 광교프리미어타워 401호","category":"학원 - 보습학원"},{"name":"시크릿","tel":"070-8281-8886","addr":"경기도 용인시 수지구 상현동 1117-2번지 광교프리미어타워 706호","category":"보건위생 - 화장품"},{"name":"씽크홀릭(Think Holic)학원","tel":"031-548-0051","addr":"경기도 용인시 수지구 상현동 1117-2번지 302호","category":"회원제형태 - 학원"},{"name":"역전우동광교상현점","tel":"031-213-1119","addr":"경기도 용인시 수지구 상현동 1117-2번지 108호","category":"일반휴게음식 - 일반한식"},{"name":"오다헤어","tel":"031-212-1667","addr":"경기도 용인시 수지구 상현동 1117-2번지 203호","category":"보건위생 - 미용원"},{"name":"올가수기명가","tel":"031-216-7575","addr":"경기도 용인시 수지구 상현동 1117-2번지 프리미어타워 204호","category":"보건위생 - 화장품"},{"name":"위너스 골프존","tel":"031-202-7070","addr":"경기도 용인시 수지구 상현동 1117-2번지 9층","category":"레저업소 - 골프연습장"},{"name":"주식회사 멘토미술학원","tel":"031-212-0311","addr":"경기도 용인시 수지구 상현동 1117-2번지 프리미어타워 504,505,506호","category":"학원 - 예·체능계학원"},{"name":"주식회사리드비스(Readvis Inc.)","tel":"031-216-0601","addr":"경기도 용인시 수지구 상현동 1117-2번지 602호","category":"회원제형태 - 학원"},{"name":"주식회사엔에스에이치","tel":"031-8003-9214","addr":"경기도 용인시 수지구 상현동 1117-2번지 프리미어타워 5층 505호","category":"음료식품 - 정육점"},{"name":"지커피(G-coffee)","tel":"031-214-3161","addr":"경기도 용인시 수지구 상현동 1117-2번지 광교프리미어타워 109호","category":"일반휴게음식 - 서양음식"},{"name":"치맥소통(상현점)","tel":"031-212-3400","addr":"경기도 용인시 수지구 상현동 1117-2번지 프리미어타워 102,103호","category":"일반휴게음식 - 일반한식"},{"name":"팔층피티 (87PT)","tel":"031-212-1187","addr":"경기도 용인시 수지구 상현동 1117-2번지 801호","category":"레저업소 - 헬스클럽"},{"name":"한솥 용인상현역점","tel":"031-213-2014","addr":"경기도 용인시 수지구 상현동 1117-2번지 프리미어타워 104호","category":"일반휴게음식 - 일반한식"},{"name":"히어로애니미술학원","tel":"031-217-5188","addr":"경기도 용인시 수지구 상현동 1117-2번지 205,206호","category":"학원 - 예·체능계학원"}]},{"lat":"37.297814361","long":"127.06977453","items":[{"name":"(주)에스케이특수운수","tel":"050-4096-7712","addr":"경기도 용인시 수지구 상현동 1131-2번지 세현빌딩 728호","category":"자동차정비 유지 - 견인서비스"},{"name":"광교윤하약국","tel":"070-8259-3291","addr":"경기도 용인시 수지구 상현동 1131-2번지 세현빌딩 104호","category":"약국 - 약국"},{"name":"광교제이씨(JC)정형외과의원","tel":"031-217-4700","addr":"경기도 용인시 수지구 상현동 1131-2번지 세현빌딩 401,402,403호","category":"의원 - 의원"},{"name":"다락마을","tel":"031-266-5959","addr":"경기도 용인시 수지구 상현동 1131-2번지 세현빌딩 106동 202호","category":"일반휴게음식 - 서양음식"},{"name":"더아이비의원","tel":"031-281-2881","addr":"경기도 용인시 수지구 상현동 1131-2번지 세현빌딩 5층","category":"의원 - 의원"},{"name":"박승철헤어스튜디오(광교지점)","tel":"031-213-5202","addr":"경기도 용인시 수지구 상현동 1131-2번지 세현빌딩 201호","category":"보건위생 - 미용원"},{"name":"숲요가필라테스","tel":"031-213-7718","addr":"경기도 용인시 수지구 상현동 1131-2번지 세현빌딩 301호 ,302,303,304,305호","category":"레저업소 - 헬스클럽"},{"name":"스파나무 광교상현점","tel":"031-212-5674","addr":"경기도 용인시 수지구 상현동 1131-2번지 세현빌딩 4층 404,405호","category":"보건위생 - 피부미용실"},{"name":"오꼬치","tel":"031-213-5604","addr":"경기도 용인시 수지구 상현동 1131-2번지 세현빌딩 110호","category":"일반휴게음식 - 일식·회집"},{"name":"유씨엘학원","tel":"031-217-7896","addr":"경기도 용인시 수지구 상현동 1131-2번지 세현빌딩 504호","category":"학원 - 보습학원"},{"name":"유천미각감자탕","tel":"031-215-8933","addr":"경기도 용인시 수지구 상현동 1131-2 세현빌딩203호,204호","category":"일반휴게음식 - 일반한식"},{"name":"조 앤 바이오(JOE & BIO)","tel":"","addr":"경기도 용인시 수지구 상현동 1131-2번지 세현빌딩 7층 757호","category":"서적문구 - 과학기자재"},{"name":"주식회사 디데이컴퍼니","tel":"031-000-0000","addr":"경기도 용인시 수지구 상현동 1131-2번지 세현빌딩 794호","category":"신변잡화 - 기타잡화"},{"name":"주식회사 라온중기","tel":"031-323-5666","addr":"경기도 용인시 수지구 상현동 1131-2번지 세현빌딩 7층 772호","category":"기타 - 기계공구"},{"name":"주식회사 피엠디엑스","tel":"","addr":"경기도 용인시 수지구 상현동 1131-2번지 세현빌딩 7층 714호","category":"서적문구 - 과학기자재"},{"name":"주식회사지음코퍼레이션","tel":"070-7766-8193","addr":"경기도 용인시 수지구 상현동 1131-2번지 세현빌딩 785호","category":"의류 - 정장"},{"name":"청년농부도시여행 주식회사","tel":"031-000-0000","addr":"경기도 용인시 수지구 상현동 1131-2번지 세현빌딩 745호","category":"음료식품 - 농·축·수산품"},{"name":"카페베네광교마을점","tel":"031-215-5432","addr":"경기도 용인시 수지구 상현동 1131-2번지 108,109호","category":"일반휴게음식 - 서양음식"},{"name":"테라공인중개사사무소","tel":"","addr":"경기도 용인시 수지구 상현동 1131-2번지 세현빌딩 701호 일부","category":"용역 서비스 - 부동산 중개·임대"},{"name":"토즈멤버십라운지광교중앙로센터","tel":"031-211-9010","addr":"경기도 용인시 수지구 상현동 1131-2번지 세현빌딩 601호","category":"용역 서비스 - 사무서비스"},{"name":"토즈스터디센터광교중앙로독서실","tel":"031-211-9010","addr":"경기도 용인시 수지구 상현동 1131-2번지 세현빌딩 601,602,603호","category":"학원 - 독서실"},{"name":"플라이","tel":"031-213-7718","addr":"경기도 용인시 수지구 상현동 1131-2번지 세현빌딩 304 ,305호","category":"레저업소 - 헬스클럽"},{"name":"피자스쿨 광교상현역점","tel":"031-213-9589","addr":"경기도 용인시 수지구 상현동 1131-2번지 세현빌딩 1층 107호","category":"일반휴게음식 - 서양음식"}]},{"lat":"37.30942744","long":"127.08576885","items":[{"name":"(주)엔팩토리","tel":"031-6578-8743","addr":"경기도 용인시 수지구 상현동 66-2번지 헤르메스 603호 상가","category":"가구 - 일반가구"},{"name":"갈라파꼬치","tel":"031-266-0847","addr":"경기도 용인시 수지구 상현동 66-2번지 헤르메스 상가 106호","category":"일반휴게음식 - 일반한식"},{"name":"경희푸른솔한의원","tel":"031-265-7111","addr":"경기도 용인시 수지구 상현동 66-2,18헤르메스빌딩304","category":"의원 - 한의원"},{"name":"더클래스","tel":"031-261-0011","addr":"경기도 용인시 수지구 상현동 66-2번지 헤르메스빌딩 603호","category":"회원제형태 - 레져업소"},{"name":"레몬미술학원","tel":"031-262-2801","addr":"경기도 용인시 수지구 상현동 66-2번지 외1필지헤르메스상가 203호","category":"학원 - 예·체능계학원"},{"name":"명가네순대국","tel":"031-2626-3733","addr":"경기도 용인시 수지구 상현동 66-2번지 헤르메스상가 112호","category":"일반휴게음식 - 일반한식"},{"name":"무림합기도","tel":"031-262-9314","addr":"경기도 용인시 수지구 상현동 66-2번지 헤르메스상가 6층 602호","category":"학원 - 예·체능계학원"},{"name":"뮤지끄실용음악학원","tel":"031-264-8641","addr":"경기도 용인시 수지구 상현동 66-2번지 헤르메스상가 603호","category":"학원 - 예·체능계학원"},{"name":"미스터피자상현","tel":"031-896-0707","addr":"경기도 용인시 수지구 상현동 66-2번지 헤르메스 201호 상가","category":"일반휴게음식 - 서양음식"},{"name":"믿음찬 내과의원","tel":"031-000-0000","addr":"경기도 용인시 수지구 상현동 66-2번지 헤르메스상가 4층 404호","category":"의원 - 의원"},{"name":"벽오동","tel":"031-272-8882","addr":"경기도 용인시 수지구 상현동 66-2번지 헤르메스빌딩 108,109호","category":"일반휴게음식 - 일반한식"},{"name":"봉평메밀막국수","tel":"031-276-8255","addr":"경기도 용인시 수지구 상현동 66-2번지 헤르메스빌딩 105호","category":"일반휴게음식 - 일반한식"},{"name":"브로스복싱","tel":"031-898-1279","addr":"경기도 용인시 수지구 상현동 66-2번지 헤르메스상가 6층 604호","category":"레저업소 - 헬스클럽"},{"name":"사층당구","tel":"","addr":"경기도 용인시 수지구 상현동 66-2번지 4층 402,403호","category":"레저업소 - 당 구 장"},{"name":"생활맥주 수지상현점","tel":"","addr":"경기도 용인시 수지구 상현동 66-2번지 헤르메스 상가 115호","category":"일반휴게음식 - 주점"},{"name":"성광글로벌","tel":"070-8847-1297","addr":"경기도 용인시 수지구 상현동 66-2번지 헤르메스 상가 107호","category":"의류 - 정장"},{"name":"수약국","tel":"","addr":"경기도 용인시 수지구 상현동 66-2번지 4층 404-1호","category":"약국 - 약국"},{"name":"스탠퍼드독서실","tel":"031-262-3783","addr":"경기도 용인시 수지구 상현동 66-2번지 헤르메스 상가 505호","category":"학원 - 독서실"},{"name":"씨앗수학 상현점학원","tel":"031-272-5733","addr":"경기도 용인시 수지구 상현동 66-2번지 헤르메스상가 3층 305호","category":"학원 - 보습학원"},{"name":"씨유수지만현점","tel":"080-080-3663","addr":"경기도 용인시 수지구 상현동 66-2번지 헤르메스 상가 117호","category":"유통업 영리 - 편 의 점"},{"name":"아델리오헤어","tel":"031-744-4257","addr":"경기도 용인시 수지구 상현동 66-2번지 헤르메스 상가 107호","category":"보건위생 - 미용원"},{"name":"아이비당구클럽","tel":"031-204-0907","addr":"경기도 용인시 수지구 상현동 66-2번지 헤르메스 상가 502호","category":"레저업소 - 당 구 장"},{"name":"엘리어트영어학원","tel":"031-262-1802","addr":"경기도 용인시 수지구 상현동 66-2번지 헤르메스빌딩 504호","category":"학원 - 외국어학원"},{"name":"예찬궁","tel":"031-266-5092","addr":"경기도 용인시 수지구 상현동 66-2번지 헤르메스상가 202호","category":"일반휴게음식 - 중국식"},{"name":"오롯이","tel":"","addr":"경기도 용인시 수지구 상현동 66-2번지 4층 402-1호","category":"음료식품 - 기타음료식품"},{"name":"와팡 & 피크닉","tel":"031-261-5879","addr":"경기도 용인시 수지구 상현동 66-2번지 헤르메스상가 104호","category":"일반휴게음식 - 서양음식"},{"name":"웃어라청춘(상현점)","tel":"031-272-8253","addr":"경기도 용인시 수지구 상현동 66-2번지 헤르메스 204호 상가","category":"일반휴게음식 - 서양음식"},{"name":"원할머니보쌈상현점","tel":"031-276-5382","addr":"경기도 용인시 수지구 상현동 66-2번지 헤르메스상가204호,205호","category":"일반휴게음식 - 일반한식"},{"name":"위너3D골프","tel":"","addr":"경기도 용인시 수지구 상현동 66-2번지 헤르메스상가 지층 B02호","category":"레져용품 - 골프용품 전문점"},{"name":"이튼치과","tel":"031-262-1871","addr":"경기도 용인시 수지구 상현동 66-2번지 헤르메스빌딩 306호","category":"의원 - 치과의원"},{"name":"점핑 몬스터 수지상현점","tel":"031-261-7988","addr":"경기도 용인시 수지구 상현동 66-2번지 헤르메스상가 5층 504호, 505호","category":"레저업소 - 기타레져업소"},{"name":"정읍축산","tel":"031-262-9166","addr":"경기도 용인시 수지구 상현동 66-2번지 외1필지헤르메스상가113호중일부(우측)","category":"음료식품 - 정육점"},{"name":"지나요가스튜디오","tel":"031-276-3596","addr":"경기도 용인시 수지구 상현동 66-2번지 헤르메스상가 303호","category":"레저업소 - 헬스클럽"},{"name":"지음마취통증의학과 의원","tel":"031-261-3917","addr":"경기도 용인시 수지구 상현동 66-2번지 301,302-1호","category":"의원 - 의원"},{"name":"쩜 포차","tel":"031-272-3938","addr":"경기도 용인시 수지구 상현동 66-2번지 헤르메스 103호 상가","category":"일반휴게음식 - 일반한식"},{"name":"최강한일학원","tel":"031-276-0576","addr":"경기도 용인시 수지구 상현동 66-2번지 헤르메스 상가 604호","category":"회원제형태 - 학원"},{"name":"커피베이 용인상현점","tel":"031-214-8090","addr":"경기도 용인시 수지구 상현동 66-2번지 헤르메스상가 1층 110호","category":"일반휴게음식 - 서양음식"},{"name":"플랜A프리미엄 스터디카페","tel":"031-898-0099","addr":"경기도 용인시 수지구 상현동 66-2번지 헤르메스상가 501호","category":"학원 - 독서실"},{"name":"한샘수지지홈","tel":"031-265-9496","addr":"경기도 용인시 수지구 상현동 66-2번지 헤르메스 101호 상가","category":"주방용구 - 주방용구"},{"name":"한샘키친 수지코너스톤 대리점","tel":"031-265-9496","addr":"경기도 용인시 수지구 상현동 66-2번지 헤르메스상가 101호","category":"건축자재 - 인테리어전문"},{"name":"홍두께손칼국수","tel":"031-263-5245","addr":"경기도 용인시 수지구 상현동 66-2번지 헤르매스상가 111호","category":"일반휴게음식 - 스넥"},{"name":"회사가고싶은날","tel":"031-264-4314","addr":"경기도 용인시 수지구 상현동 66-2번지 헤르메스 상가 118호","category":"음료식품 - 농·축·수산품"}]},{"lat":"37.296516778","long":"127.06996511","items":[{"name":"(주)오늘의기획","tel":"031-215-1017","addr":"경기도 용인시 수지구 상현동 1132-4번지 광교리치안오피스텔 지하1층 103호","category":"의류 - 정장"},{"name":"(주)오늘커뮤니케이션","tel":"070-8785-7130","addr":"경기도 용인시 수지구 상현동 1132-4번지 광교리치안오피스텔 상가 104호","category":"용역 서비스 - 종합용역"},{"name":"25시가마솥통닭","tel":"031-212-9282","addr":"경기도 용인시 수지구 상현동 1132-4번지 상가동 1층 113,114호","category":"일반휴게음식 - 스넥"},{"name":"광교리치안오피스텔관리단","tel":"031-213-6755","addr":"경기도 용인시 수지구 상현동 1132-4번지 관리사무소동 리치안오피스텔 광교","category":"자동차정비 유지 - 주차장"},{"name":"광교먹을집","tel":"031-212-9340","addr":"경기도 용인시 수지구 상현동 1132-4번지 광교리치안오피스텔 101호","category":"일반휴게음식 - 일반한식"},{"name":"뚱보집","tel":"031-214-5700","addr":"경기도 용인시 수지구 상현동 1132-4번지 광교리치안오피스텔 1층 108호","category":"일반휴게음식 - 일반한식"},{"name":"메이탄광교점/주식회사 메이탄홀딩스","tel":"031-261-1800","addr":"경기도 용인시 수지구 상현동 1132-4번지 205-208호","category":"일반휴게음식 - 중국식"},{"name":"아씨닭발","tel":"031-216-8459","addr":"경기도 용인시 수지구 상현동 1132-4번지 광교리치안오피스텔 102호","category":"일반휴게음식 - 일반한식"},{"name":"에이커피(A-coffee)/(주)라라랜드","tel":"031-215-1017","addr":"경기도 용인시 수지구 상현동 1132-4번지 광교리치안오피스텔 103호","category":"일반휴게음식 - 서양음식"},{"name":"이모김밥","tel":"031-217-3090","addr":"경기도 용인시 수지구 상현동 1132-4번지 광교리치안오피스텔 1층 109호","category":"일반휴게음식 - 스넥"},{"name":"진짜돼지","tel":"031-4665-6526","addr":"경기도 용인시 수지구 상현동 1132-4번지 광교리치안오피스텔 1층 105호, 106호","category":"일반휴게음식 - 일반한식"}]},{"lat":"37.309990511","long":"127.0791705","items":[{"name":"(주)잇다애드","tel":"031-1111-1111","addr":"경기도 용인시 수지구 상현동 96-1번지","category":"용역 서비스 - 종합용역"},{"name":"삼오조명","tel":"031-262-3062","addr":"경기도 용인시 수지구 상현동 96-1번지 풍산아파트","category":"건축자재 - 조명기구"}]},{"lat":"37.29705729","long":"127.07014604","items":[{"name":"(주)진렌트카 용인광교영업소","tel":"031-211-2233","addr":"경기도 용인시 수지구 상현동 1132-3번지 310호","category":"여행 - 렌터카"},{"name":"(주)집사람","tel":"031-211-0500","addr":"경기도 용인시 수지구 상현동 1132-3번지 2층 202호","category":"학원 - 보습학원"},{"name":"군반장 광교점","tel":"031-214-9622","addr":"경기도 용인시 수지구 상현동 1132-3번지 107호","category":"일반휴게음식 - 일반한식"},{"name":"더케이(The K)","tel":"031-213-7933","addr":"경기도 용인시 수지구 상현동 1132-3번지 303호","category":"일반휴게음식 - 일반한식"},{"name":"미톡에스테틱","tel":"070-4416-0088","addr":"경기도 용인시 수지구 상현동 1132-3번지 광교푸르지오시티3단지 302호","category":"회원제형태 - 기타4"},{"name":"본전","tel":"031-212-2199","addr":"경기도 용인시 수지구 상현동 1132-3번지","category":"일반휴게음식 - 일반한식"},{"name":"스타일 스토리","tel":"031-211-4766","addr":"경기도 용인시 수지구 상현동 1132-3번지 광교푸르지오시티3단지 301호","category":"보건위생 - 미용원"},{"name":"오렌지 노래연습장","tel":"031-217-7666","addr":"경기도 용인시 수지구 상현동 1132-3번지 307, 308호","category":"레저업소 - 노 래 방"},{"name":"오렌지 노래연습장","tel":"031-217-7666","addr":"경기도 용인시 수지구 상현동 1132-3번지 광교푸르지오시티3단지 307호,308호","category":"레저업소 - 노 래 방"},{"name":"와쿠","tel":"031-232-2774","addr":"경기도 용인시 수지구 상현동 1132-3번지 105호","category":"일반휴게음식 - 일식·회집"},{"name":"유리네일","tel":"031-274-6342","addr":"경기도 용인시 수지구 상현동 1132-3번지 푸르지오시티3단지 1층 110호","category":"보건위생 - 피부미용실"},{"name":"육감만족 상현역점","tel":"031-216-9285","addr":"경기도 용인시 수지구 상현동 1132-3번지 광교푸르지오시티3단지 101, 102호","category":"일반휴게음식 - 일반한식"},{"name":"이교수만두전골","tel":"031-215-3430","addr":"경기도 용인시 수지구 상현동 1132-3번지 201호","category":"일반휴게음식 - 일반한식"},{"name":"이디야커피 광교상현역점","tel":"031-216-1108","addr":"경기도 용인시 수지구 상현동 1132-3번지 103,104호","category":"일반휴게음식 - 서양음식"},{"name":"정초밥","tel":"031-211-0617","addr":"경기도 용인시 수지구 상현동 1132-3번지 109호","category":"일반휴게음식 - 일식·회집"},{"name":"짝태패밀리 수지상현역점","tel":"031-891-5063","addr":"경기도 용인시 수지구 상현동 1132-3번지 108호","category":"일반휴게음식 - 주점"},{"name":"킹당구장","tel":"031-000-0000","addr":"경기도 용인시 수지구 상현동 1132-3번지 304,305,306호","category":"레저업소 - 당 구 장"}]},{"lat":"37.307179846","long":"127.09136119","items":[{"name":"(주)크로체코리아","tel":"070-7795-2160","addr":"경기도 용인시 수지구 상현동 272-1번지 B층 01호","category":"신변잡화 - 기타잡화"}]},{"lat":"37.308761086","long":"127.08519283","items":[{"name":"153유소년스포츠","tel":"031-266-4153","addr":"경기도 용인시 수지구 상현동 66-9번지 상현종합상가 B101호","category":"레저업소 - 기타레져업소"},{"name":"가람그룹세무법인","tel":"031-261-8411","addr":"경기도 용인시 수지구 상현동 66-9번지 상현종합상가 508,509호","category":"용역 서비스 - 법률회계서비스(법인)"},{"name":"가람약국","tel":"031-266-9460","addr":"경기도 용인시 수지구 상현동 66-9상현종합프라자201-2","category":"약국 - 약국"},{"name":"감탄용인상현점","tel":"031-264-6410","addr":"경기도 용인시 수지구 상현동 66-9번지 상현종합상가 105호","category":"일반휴게음식 - 스넥"},{"name":"경희명한의원","tel":"031-276-1075","addr":"경기도 용인시 수지구 상현동 66-9번지 상현종합상가 302호","category":"의원 - 한의원"},{"name":"김숙경의Knit & Clothes","tel":"031-896-2142","addr":"경기도 용인시 수지구 상현동 66-9 상현종합상가106-2호","category":"직물 - 침구·수예점"},{"name":"까르보가든","tel":"031-272-3379","addr":"경기도 용인시 수지구 상현동 66-9번지 상현종합상가 106-1호","category":"일반휴게음식 - 스넥"},{"name":"꾸러기소아과의원","tel":"031-896-2228","addr":"경기도 용인시 수지구 상현동 66-9번지 상현종합프라자 201호","category":"의원 - 의원"},{"name":"뒤뜰황소곱창","tel":"031-272-8892","addr":"경기도 용인시 수지구 상현동 66-9번지 상현종합상가 121호","category":"일반휴게음식 - 일반한식"},{"name":"드림디포","tel":"031-276-7414","addr":"경기도 용인시 수지구 상현동 66-9번지 상현종합상가 지하층 103호","category":"서적문구 - 문구용품"},{"name":"레드썬수지상현점","tel":"031-265-6677","addr":"경기도 용인시 수지구 상현동 66-9번지 상현종합상가 118동 119호","category":"일반휴게음식 - 스넥"},{"name":"리안헤어(상현점)","tel":"031-266-1007","addr":"경기도 용인시 수지구 상현동 66-9번지 상현종합상가 107동 108호","category":"보건위생 - 미용원"},{"name":"맥주생각","tel":"031-889-9891","addr":"경기도 용인시 수지구 상현동 66-9번지 상현종합상가 116호","category":"일반휴게음식 - 일반한식"},{"name":"명수학전문학원","tel":"031-261-3041","addr":"경기도 용인시 수지구 상현동 66-9번지 상현종합상가 3층 305호","category":"학원 - 보습학원"},{"name":"명인태권도장","tel":"031-272-5548","addr":"경기도 용인시 수지구 상현동 66-9번지 상현종합상가 504~505호","category":"학원 - 예·체능계학원"},{"name":"보스턴  치과의원","tel":"031-896-0022","addr":"경기도 용인시 수지구 상현동 66-9번지 상현종합상가 301호","category":"의원 - 치과의원"},{"name":"불닭발땡초동대문엽기떡볶이 상현점","tel":"031-272-8591","addr":"경기도 용인시 수지구 상현동 66-9번지 상현종합상가 106-2호","category":"일반휴게음식 - 일반한식"},{"name":"비오비(BOB) 독서실","tel":"031-262-1010","addr":"경기도 용인시 수지구 상현동 66-9번지 상현종합상가 202,203,204호","category":"학원 - 독서실"},{"name":"비오비(BOB)휴게실","tel":"031-262-1018","addr":"경기도 용인시 수지구 상현동 66-9번지 상현종합상가 203호 일부","category":"일반휴게음식 - 서양음식"},{"name":"비전문고","tel":"031-276-6311","addr":"경기도 용인시 수지구 상현동 66-9번지 제비층103호~104호","category":"서적문구 - 일반서적"},{"name":"뽕나무족발당귀냉채","tel":"031-266-0041","addr":"경기도 용인시 수지구 상현동 66-9번지 상현종합상가 115호","category":"일반휴게음식 - 일반한식"},{"name":"상현한우리독서논술학원","tel":"031-276-1919","addr":"경기도 용인시 수지구 상현동 66-9번지 상현종합상가 503호","category":"학원 - 기타 교육기관"},{"name":"서울예지치과의원","tel":"031-276-2754","addr":"경기도 용인시 수지구 상현동 66-9번지 상현종합상가 3층 309호","category":"의원 - 치과의원"},{"name":"송대관네박자 노래연습장","tel":"031-263-7879","addr":"경기도 용인시 수지구 상현동 66-9번지 상현종합상가 210호","category":"레저업소 - 노 래 방"},{"name":"수지탁구교실","tel":"031-265-3790","addr":"경기도 용인시 수지구 상현동 66-9번지 상현종합상가B102호","category":"레저업소 - 기타레져업소"},{"name":"스마트브릭스","tel":"031-265-2050","addr":"경기도 용인시 수지구 상현동 66-9번지 5층 510-1호","category":"서적문구 - 기타서적문구"},{"name":"스마트브릭스학원","tel":"031-265-2050","addr":"경기도 용인시 수지구 상현동 66-9번지 상현종합상가 510호","category":"학원 - 기타 교육기관"},{"name":"신인서어학원","tel":"031-261-1772","addr":"경기도 용인시 수지구 상현동 66-9번지 상현종합상가 4층 403호","category":"학원 - 외국어학원"},{"name":"아트앤하트미술교습소","tel":"031-265-8910","addr":"경기도 용인시 수지구 상현동 66-9번지 상현종합상가 3층 307호","category":"학원 - 예·체능계학원"},{"name":"오븐 온","tel":"031-889-5955","addr":"경기도 용인시 수지구 상현동 66-9번지 상현종합상가 1층 103호","category":"음료식품 - 제과점"},{"name":"와와+수학과학학원","tel":"032-000-0000","addr":"경기도 용인시 수지구 상현동 66-9번지 상현종합상가 5층 506호","category":"학원 - 보습학원"},{"name":"용인대석사 도담태권도장","tel":"","addr":"경기도 용인시 수지구 상현동 66-9번지 5층 504,505호","category":"학원 - 예·체능계학원"},{"name":"용인안마지압원","tel":"031-266-7275","addr":"경기도 용인시 수지구 상현동 66-9번지 상현종합상가 208호","category":"보건위생 - 안마시술소"},{"name":"은샵상현지점","tel":"031-262-0730","addr":"경기도 용인시 수지구 상현동 66-9번지 상현상가 1동 308호","category":"보건위생 - 화장품"},{"name":"일등축산","tel":"031-266-3268","addr":"경기도 용인시 수지구 상현동 66-9번지 상현종합상가 1동 104호","category":"음료식품 - 정육점"},{"name":"일박이일(1박2일)","tel":"031-266-0008","addr":"경기도 용인시 수지구 상현동 66-9번지 상현종합상가 113호","category":"일반휴게음식 - 주점"},{"name":"정평종합철물","tel":"031-263-4196","addr":"경기도 용인시 수지구 상현동 66-9번지 외1필지제상현종합 상가동 114호","category":"건축자재 - 목재·석재·철물"},{"name":"젤루스단과학원","tel":"031-264-3336","addr":"경기도 용인시 수지구 상현동 66-9번지 상현종합상가 410호","category":"학원 - 보습학원"},{"name":"질풍상회","tel":"031-263-7056","addr":"경기도 용인시 수지구 상현동 66-9번지 상현종합상가 111호","category":"일반휴게음식 - 일반한식"},{"name":"탑헤어뱅크","tel":"031-263-4030","addr":"경기도 용인시 수지구 상현동 66-9번지 상현종합상가 206호","category":"보건위생 - 미용원"},{"name":"판장상현점","tel":"031-898-4436","addr":"경기도 용인시 수지구 상현동 66-9번지 상현종합상가 117호","category":"일반휴게음식 - 일반한식"},{"name":"팔도명가","tel":"031-263-8563","addr":"경기도 용인시 수지구 상현동 66-9번지 상현종합상가 107호","category":"음료식품 - 제과점"},{"name":"피자알볼로(상현점)","tel":"031-276-8495","addr":"경기도 용인시 수지구 상현동 66-9번지 상현종합상가 102호","category":"일반휴게음식 - 서양음식"},{"name":"하루엔소쿠","tel":"031-898-0781","addr":"경기도 용인시 수지구 상현동 66-9번지 상현종합상가 112호","category":"일반휴게음식 - 일반한식"},{"name":"햄프리","tel":"031-896-5343","addr":"경기도 용인시 수지구 상현동 66-9번지 상현종합상가 306호","category":"의류 - 기타의류"},{"name":"향기나무유통","tel":"031-263-6900","addr":"경기도 용인시 수지구 상현동 66-9번지 상현종합상가 지하1층 103-2호","category":"신변잡화 - 기념품점"},{"name":"호치킨수지상현점","tel":"031-272-1119","addr":"경기도 용인시 수지구 상현동 66-9번지 상현종합상가 118호","category":"일반휴게음식 - 일반한식"},{"name":"휴(Hue)","tel":"031-262-9465","addr":"경기도 용인시 수지구 상현동 66-9번지 상현종합상가 122호","category":"보건위생 - 미용원"}]},{"lat":"37.295708665","long":"127.08013728","items":[{"name":"180펍","tel":"031-272-0509","addr":"경기도 용인시 수지구 상현동 1161-4번지 1층 일부","category":"일반휴게음식 - 일반한식"},{"name":"생각상자 미술학원","tel":"","addr":"경기도 용인시 수지구 상현동 1161-4번지 1층","category":"학원 - 예·체능계학원"}]},{"lat":"37.30845495","long":"127.08488794","items":[{"name":"24시전주명가콩나물국밥","tel":"031-261-3818","addr":"경기도 용인시 수지구 상현동 257-1번지 IT프라자 106,107,107-1호","category":"일반휴게음식 - 일반한식"},{"name":"J스크린골프","tel":"031-896-8282","addr":"경기도 용인시 수지구 상현동 257-1번지 IT프라자 1동 지하층 비102호","category":"레저업소 - 스크린골프"},{"name":"경희보라한의원","tel":"031-265-1075","addr":"경기도 용인시 수지구 상현동 257-1번지 IT프라자 207호 208호","category":"의원 - 한의원"},{"name":"꽃피는수학프로매쓰학원","tel":"031-1644-9351","addr":"경기도 용인시 수지구 상현동 257-1번지 IT프라자 5층 501호","category":"학원 - 보습학원"},{"name":"꾹꾹이다락방","tel":"031-261-0992","addr":"경기도 용인시 수지구 상현동 257-1번지 IT프라자 1동 302호","category":"일반휴게음식 - 일반한식"},{"name":"라이또 PC방 상현점","tel":"070-6484-9466","addr":"경기도 용인시 수지구 상현동 257-1번지 IT프라자 1동 3층 308호","category":"레저업소 - 기타레져업소"},{"name":"리안헤어 상현2호점","tel":"031-266-1207","addr":"경기도 용인시 수지구 상현동 257-1번지 IT프라자 IT프라자동 117호","category":"보건위생 - 미용원"},{"name":"본가짜장","tel":"031-261-7084","addr":"경기도 용인시 수지구 상현동 257-1번지 IT프라자119,119-1호","category":"일반휴게음식 - 중국식"},{"name":"살롱드 아모르","tel":"031-266-1542","addr":"경기도 용인시 수지구 상현동 257-1번지 IT프라자 1층 105호","category":"보건위생 - 미용원"},{"name":"상현에듀플렉스심리상담연구소","tel":"031-548-1622","addr":"경기도 용인시 수지구 상현동 257-1번지 IT프라자 507호 504 일부","category":"보건위생 - 기타대인서비스"},{"name":"수텔레콤","tel":"031-263-7086","addr":"경기도 용인시 수지구 상현동 257-1 아이티프라자 111,111-1,112,112-1호","category":"사무통신 - 통신기기"},{"name":"아이티프라자 상가관리단","tel":"031-344-6270","addr":"경기도 용인시 수지구 상현동 257-1번지 IT프라자","category":"자동차정비 유지 - 주차장"},{"name":"에듀플렉스에듀코치개별지도상현학원","tel":"031-548-7622","addr":"경기도 용인시 수지구 상현동 257-1번지 IT프라자 504,507호일부","category":"학원 - 보습학원"},{"name":"오장동함흥냉면(다솔)","tel":"031-276-9982","addr":"경기도 용인시 수지구 상현동 257-1번지 IT프라자113호,113-1호","category":"일반휴게음식 - 일반한식"},{"name":"잇츠방방","tel":"031-262-0705","addr":"경기도 용인시 수지구 상현동 257-1번지 IT프라자 307호","category":"레저업소 - 기타레져업소"},{"name":"주식회사 다원","tel":"031-889-9601","addr":"경기도 용인시 수지구 상현동 257-1번지 IT프라자 306호","category":"용역 서비스 - 종합용역"},{"name":"주식회사 다원","tel":"031-889-9601","addr":"경기도 용인시 수지구 상현동 257-1번지 IT프라자 306호","category":"용역 서비스 - 종합용역"},{"name":"주식회사 다원","tel":"031-889-9601","addr":"경기도 용인시 수지구 상현동 257-1번지 IT프라자 306호","category":"용역 서비스 - 종합용역"},{"name":"척척정형외과","tel":"031-266-7800","addr":"경기도 용인시 수지구 상현동 257-1번지 IT프라자 401~418호","category":"의원 - 의원"},{"name":"청호 한약국","tel":"031-266-7700","addr":"경기도 용인시 수지구 상현동 257-1번지 IT프라자 1동 114호","category":"약국 - 약국"},{"name":"청호한한약국","tel":"070-4948-7824","addr":"경기도 용인시 수지구 상현동 257-1번지 IT프라자 302호","category":"약국 - 약국"},{"name":"키즈칼리지수지어학원","tel":"031-266-4888","addr":"경기도 용인시 수지구 상현동 257-1번지 IT프라자 201동 206호","category":"회원제형태 - 학원"},{"name":"피쉬학원","tel":"031-261-3153","addr":"경기도 용인시 수지구 상현동 257-1번지 IT프라자 301호","category":"학원 - 보습학원"},{"name":"행복치킨 상현점","tel":"031-265-1152","addr":"경기도 용인시 수지구 상현동 257-1번지 IT프라자101,102,103호","category":"일반휴게음식 - 스넥"},{"name":"현진약국","tel":"031-889-8727","addr":"경기도 용인시 수지구 상현동 257-1번지 IT프라자 116호","category":"약국 - 약국"}]},{"lat":"37.296985546","long":"127.06954823","items":[{"name":"292짬떡 상현점","tel":"031-215-0292","addr":"경기도 용인시 수지구 상현동 1131-6번지 미주프라자 106호","category":"일반휴게음식 - 일반한식"},{"name":"JK서울안과","tel":"031-216-0050","addr":"경기도 용인시 수지구 상현동 1131-6번지 301.302호","category":"의원 - 의원"},{"name":"광교고운꿈피부과","tel":"031-217-7555","addr":"경기도 용인시 수지구 상현동 1131-6번지 미주프라자 4층 401호","category":"의원 - 의원"},{"name":"광교팜약국","tel":"031-217-9986","addr":"경기도 용인시 수지구 상현동 1131-6번지 105호","category":"약국 - 약국"},{"name":"다솜힐링심리상담센터","tel":"031-211-3000","addr":"경기도 용인시 수지구 상현동 1131-6번지 8층 802호","category":"보건위생 - 기타대인서비스"},{"name":"매드폴 스튜디오","tel":"031-226-4025","addr":"경기도 용인시 수지구 상현동 1131-6번지 9층 904호","category":"레저업소 - 헬스클럽"},{"name":"메가커피 상현역점","tel":"031-213-7746","addr":"경기도 용인시 수지구 상현동 1131-6번지 103호","category":"일반휴게음식 - 서양음식"},{"name":"명품약손","tel":"031-215-2126","addr":"경기도 용인시 수지구 상현동 1131-6번지 미주프라자 701호","category":"보건위생 - 화장품"},{"name":"비춤안경원(상현점)","tel":"031-216-4416","addr":"경기도 용인시 수지구 상현동 1131-6번지 101호","category":"보건위생 - 안경"},{"name":"수내닭꼬치 광교상현역점","tel":"031-217-5292","addr":"경기도 용인시 수지구 상현동 1131-6번지 1층 107호","category":"일반휴게음식 - 일반한식"},{"name":"썸","tel":"031-427-3330","addr":"경기도 용인시 수지구 상현동 1131-6번지 203호","category":"일반휴게음식 - 주점"},{"name":"쓰리팝 피씨 광교점","tel":"02-222-2222","addr":"경기도 용인시 수지구 상현동 1131-6번지 미주프라자 703,704호","category":"레저업소 - 기타레져업소"},{"name":"아이엠코인노래연습장(광교점)","tel":"031-213-0207","addr":"경기도 용인시 수지구 상현동 1131-6번지 미주프라자 702호","category":"레저업소 - 노 래 방"},{"name":"우리맘심리상담센터주식회사","tel":"031-217-0076","addr":"경기도 용인시 수지구 상현동 1131-6번지 미주프라자 501호","category":"보건위생 - 기타대인서비스"},{"name":"우리맘정신건강의학과","tel":"031-217-0076","addr":"경기도 용인시 수지구 상현동 1131-6번지 501호","category":"의원 - 의원"},{"name":"위드도기 광교점","tel":"070-7614-3579","addr":"경기도 용인시 수지구 상현동 1131-6번지 104호","category":"문화.취미 - 애완동물"},{"name":"진이찬방","tel":"031-000-0000","addr":"경기도 용인시 수지구 상현동 1131-6번지 108호","category":"음료식품 - 기타음료식품"},{"name":"칭따오양꼬치","tel":"031-215-6998","addr":"경기도 용인시 수지구 상현동 1131-6번지 미주프라자 110호","category":"일반휴게음식 - 일반한식"},{"name":"탑스칼프 (용인점)","tel":"031-216-8799","addr":"경기도 용인시 수지구 상현동 1131-6번지 미주프라자 204호","category":"보건위생 - 화장품"},{"name":"파로스수학학원","tel":"031-211-7107","addr":"경기도 용인시 수지구 상현동 1131-6번지 미주프라자 502호","category":"학원 - 보습학원"},{"name":"풀잎문화센터(광교지부)","tel":"031-305-5579","addr":"경기도 용인시 수지구 상현동 1131-6번지 미주프라자 902호","category":"문화.취미 - 문화취미기타"},{"name":"필","tel":"","addr":"경기도 용인시 수지구 상현동 1131-6번지 202호","category":"보건위생 - 화장품"},{"name":"필라테스 인사이트(Pilates insight)","tel":"031-213-1006","addr":"경기도 용인시 수지구 상현동 1131-6번지 미주프라자 601동 602호","category":"레저업소 - 헬스클럽"},{"name":"하우스터디광교독서실","tel":"031-216-9915","addr":"경기도 용인시 수지구 상현동 1131-6번지 미주프라자 303,304호","category":"학원 - 독서실"},{"name":"하우스터디모임공간","tel":"031-216-7957","addr":"경기도 용인시 수지구 상현동 1131-6번지 미주프라자 304호","category":"용역 서비스 - 사무서비스"}]},{"lat":"37.305227191","long":"127.08786224","items":[{"name":"2nd 에일린","tel":"070-9286-9805","addr":"경기도 용인시 수지구 상현동 861번지","category":"회원제형태 - 기타1"},{"name":"반딧불이","tel":"","addr":"경기도 용인시 수지구 상현동 861번지 만현마을8단지두산위브아파트","category":"용역 서비스 - 종합용역"}]},{"lat":"37.298211249","long":"127.06899666","items":[{"name":"3.14고등수학학원","tel":"031-8002-5599","addr":"경기도 용인시 수지구 상현동 1117-1번지 광교타워 2층 201-202호","category":"학원 - 보습학원"},{"name":"가두리수산","tel":"031-234-4492","addr":"경기도 용인시 수지구 상현동 1117-1번지 109,110호","category":"일반휴게음식 - 일식·회집"},{"name":"고은e치과","tel":"031-231-2080","addr":"경기도 용인시 수지구 상현동 1117-1번지 광교티타워 204호","category":"의원 - 치과의원"},{"name":"광교운동화&이불빨래방","tel":"031-216-8284","addr":"경기도 용인시 수지구 상현동 1117-1번지 티타워 104호","category":"수리서비스 - 세탁소"},{"name":"굽네치킨광교1호점","tel":"031-217-9492","addr":"경기도 용인시 수지구 상현동 1117-1번지 102호","category":"일반휴게음식 - 스넥"},{"name":"달봉감자(광교점)","tel":"031-217-8925","addr":"경기도 용인시 수지구 상현동 1117-1번지 티타워 101호","category":"일반휴게음식 - 주점"},{"name":"라화쿵부마라탕","tel":"031-213-1888","addr":"경기도 용인시 수지구 상현동 1117-1번지 110호","category":"일반휴게음식 - 일반한식"},{"name":"뮤즈헤어","tel":"031-215-7740","addr":"경기도 용인시 수지구 상현동 1117-1번지 109호","category":"보건위생 - 미용원"},{"name":"오마뎅 수지상현역점","tel":"031-214-5649","addr":"경기도 용인시 수지구 상현동 1117-1번지 광교티타워 106호","category":"일반휴게음식 - 일반한식"},{"name":"토리헤어(광교상현점)","tel":"031-236-2236","addr":"경기도 용인시 수지구 상현동 1117-1번지 203호","category":"보건위생 - 미용원"}]},{"lat":"37.313062333","long":"127.09293611","items":[{"name":"3030영어 용인상현센터","tel":"","addr":"경기도 용인시 수지구 상현동 30번지 성원상떼빌아파트","category":"학원 - 기타 교육기관"}]},{"lat":"37.308901883","long":"127.07663138","items":[{"name":"4D인테리어","tel":"031-8031-5702","addr":"경기도 용인시 수지구 상현동 107-14번지 중앙프라자 106호","category":"건축자재 - 인테리어전문"},{"name":"단아한의원","tel":"031-261-8217","addr":"경기도 용인시 수지구 상현동 107-14번지 중앙프라자 201호","category":"의원 - 한의원"},{"name":"단아한의원","tel":"031-261-8217","addr":"경기도 용인시 수지구 상현동 107-14번지 중앙프라자 201호","category":"의원 - 한의원"},{"name":"사단법인대한체케티발레협회","tel":"0311-261-7488","addr":"경기도 용인시 수지구 상현동 107-14번지 중앙프라자 402호","category":"회원제형태 - 학원"},{"name":"삼성영어심곡영어교습소","tel":"031-261-3405","addr":"경기도 용인시 수지구 상현동 107-14번지 중앙프라자 102호","category":"학원 - 외국어학원"},{"name":"아이스 빙고","tel":"","addr":"경기도 용인시 수지구 상현동 107-14번지 중앙프라자 104호","category":"음료식품 - 기타음료식품"},{"name":"엘가음악학원","tel":"031-262-3645","addr":"경기도 용인시 수지구 상현동 107-14번지 중앙프라자 201-2호","category":"학원 - 예·체능계학원"},{"name":"용인대심곡태권도","tel":"031-276-7060","addr":"경기도 용인시 수지구 상현동 107-14번지 중앙프라자 301호","category":"학원 - 예·체능계학원"},{"name":"웰빙종합인테리어","tel":"031-266-8303","addr":"경기도 용인시 수지구 상현동 107-14번지 중앙프라자 102호","category":"건축자재 - 인테리어전문"},{"name":"체케티무용학원","tel":"031-261-4051","addr":"경기도 용인시 수지구 상현동 107-14 중앙프라자302호~303호","category":"회원제형태 - 학원"},{"name":"풀빛이화미술학원","tel":"031-276-2466","addr":"경기도 용인시 수지구 상현동 107-14번지 401-1호","category":"학원 - 예·체능계학원"},{"name":"해법에듀플러스학원","tel":"031-8002-8600","addr":"경기도 용인시 수지구 상현동 107-14번지 중앙프라자 402호","category":"학원 - 보습학원"},{"name":"해변","tel":"031-261-2656","addr":"경기도 용인시 수지구 상현동 107-14번지 중앙프라자 105호","category":"일반휴게음식 - 일반한식"}]},{"lat":"37.308507595","long":"127.08690713","items":[{"name":"508","tel":"031-8234-0088","addr":"경기도 용인시 수지구 상현동 858번지 만현마을현대아이파크5단지 상가 103호","category":"일반휴게음식 - 주점"},{"name":"바른치킨수지상현점","tel":"031-272-5949","addr":"경기도 용인시 수지구 상현동 858번지 만현마을현대아이파크5단지 상가동 104호","category":"일반휴게음식 - 스넥"},{"name":"자연음악학원","tel":"031-272-5152","addr":"경기도 용인시 수지구 상현동 858번지 I현대5단지내상가 201호","category":"회원제형태 - 학원"},{"name":"케이앤케이영어학원","tel":"031-276-0579","addr":"경기도 용인시 수지구 상현동 858번지 만현마을5단지아이파크제상가동301,302호","category":"회원제형태 - 학원"}]},{"lat":"37.298427463","long":"127.06905324","items":[{"name":"519키친","tel":"031-215-0519","addr":"경기도 용인시 수지구 상현동 1117번지 604호","category":"일반휴게음식 - 서양음식"},{"name":"The대박떡볶이","tel":"031-211-5051","addr":"경기도 용인시 수지구 상현동 1117번지 광교스타천 108호","category":"일반휴게음식 - 일반한식"},{"name":"가두리유통","tel":"031-241-1665","addr":"경기도 용인시 수지구 상현동 1117번지 광교스타천빌딩 110호","category":"음료식품 - 농·축·수산품"},{"name":"경희차이한의원","tel":"031-217-7275","addr":"경기도 용인시 수지구 상현동 1117번지 502호","category":"의원 - 한의원"},{"name":"광교미소바른치과","tel":"031-202-8275","addr":"경기도 용인시 수지구 상현동 1117번지 광교스타천 4층 402호","category":"의원 - 치과의원"},{"name":"까칠한파스타","tel":"","addr":"경기도 용인시 수지구 상현동 1117번지 102호","category":"일반휴게음식 - 일반한식"},{"name":"닥터정이클래스학원","tel":"031-272-4808","addr":"경기도 용인시 수지구 상현동 1117번지 광교스타천 703호","category":"학원 - 보습학원"},{"name":"더문영어학원","tel":"031-212-7192","addr":"경기도 용인시 수지구 상현동 1117번지 광교스타천 501호","category":"학원 - 보습학원"},{"name":"더풋샵광교점","tel":"031-214-9997","addr":"경기도 용인시 수지구 상현동 1117번지 403호","category":"보건위생 - 안마시술소"},{"name":"델리하우스","tel":"031-212-1072","addr":"경기도 용인시 수지구 상현동 1117번지 광교스타천 101호","category":"일반휴게음식 - 일반한식"},{"name":"맘스터치 상현역점","tel":"031-214-2202","addr":"경기도 용인시 수지구 상현동 1117번지 광교스타천 106,107호","category":"일반휴게음식 - 서양음식"},{"name":"바스짐 (VASGYM)","tel":"031-898-2338","addr":"경기도 용인시 수지구 상현동 1117번지 8층 801호","category":"레저업소 - 헬스클럽"},{"name":"변호사안재중법률사무소","tel":"031-214-9361","addr":"경기도 용인시 수지구 상현동 1117번지 704호","category":"용역 서비스 - 법률회계서비스(개인)"},{"name":"샤인스킨","tel":"031-212-2999","addr":"경기도 용인시 수지구 상현동 1117번지 303-1호","category":"보건위생 - 화장품"},{"name":"스터디엔카페독서실","tel":"031-216-0982","addr":"경기도 용인시 수지구 상현동 1117번지 701,702호","category":"학원 - 독서실"},{"name":"우영한의원","tel":"031-893-5555","addr":"경기도 용인시 수지구 상현동 1117번지 광교스타천 201호","category":"의원 - 한의원"},{"name":"이철헤어커커(광교상현역점)","tel":"031-213-2326","addr":"경기도 용인시 수지구 상현동 1117번지 301,302호","category":"보건위생 - 미용원"},{"name":"이투스수학상현1학원","tel":"031-217-0979","addr":"경기도 용인시 수지구 상현동 1117번지 503호","category":"학원 - 보습학원"},{"name":"이플음악학원","tel":"031-893-8643","addr":"경기도 용인시 수지구 상현동 1117번지 광교스타천 304호","category":"학원 - 예·체능계학원"},{"name":"주식회사 임팩트 투어","tel":"031-214-6632","addr":"경기도 용인시 수지구 상현동 1117번지 광교스타천빌딩 303호","category":"여행 - 관광여행"},{"name":"최쌤기타교습소","tel":"031-212-6515","addr":"경기도 용인시 수지구 상현동 1117번지 303-2호","category":"학원 - 예·체능계학원"}]},{"lat":"37.296481049","long":"127.06941244","items":[{"name":"5월의 공작소","tel":"031-213-8050","addr":"경기도 용인시 수지구 상현동 1131-8번지 드림타워2주건축물 1동 9층 904호","category":"문화.취미 - 화랑"},{"name":"GS25광교드림점","tel":"","addr":"경기도 용인시 수지구 상현동 1131-8번지 광교드림타워 1층 111호","category":"유통업 영리 - 편 의 점"},{"name":"광교상현역공인중개사사무소","tel":"031-217-0087","addr":"경기도 용인시 수지구 상현동 1131-8번지 109호","category":"용역 서비스 - 부동산 중개·임대"},{"name":"놀숲 용인광교점","tel":"031-213-6671","addr":"경기도 용인시 수지구 상현동 1131-8번지 드림타워 301호, 302호","category":"서적문구 - 일반서적"},{"name":"대박폰통신","tel":"031-215-3230","addr":"경기도 용인시 수지구 상현동 1131-8번지 105호","category":"사무통신 - 통신기기"},{"name":"루비","tel":"031-213-4554","addr":"경기도 용인시 수지구 상현동 1131-8번지 광교드림2 801동 802호","category":"보건위생 - 화장품"},{"name":"배우장JK연기학원","tel":"031-211-7768","addr":"경기도 용인시 수지구 상현동 1131-8번지 503호","category":"학원 - 예·체능계학원"},{"name":"법률사무소 로안","tel":"031-000-0000","addr":"경기도 용인시 수지구 상현동 1131-8번지 드림타워2 5층 504호","category":"용역 서비스 - 법률회계서비스(개인)"},{"name":"상현행정사사무소","tel":"031-213-8800","addr":"경기도 용인시 수지구 상현동 1131-8번지 109호","category":"용역 서비스 - 법률회계서비스(개인)"},{"name":"아마스빈 (광교상현역점)","tel":"031-211-1079","addr":"경기도 용인시 수지구 상현동 1131-8번지 104호","category":"일반휴게음식 - 서양음식"},{"name":"아이엠스타 코인노래방(광교2호점)","tel":"","addr":"경기도 용인시 수지구 상현동 1131-8번지 7층 704,705호","category":"레저업소 - 노 래 방"},{"name":"에스지에이(SGA)","tel":"031-212-8212","addr":"경기도 용인시 수지구 상현동 1131-8번지 505호","category":"레져용품 - 골프용품 전문점"},{"name":"인생펍","tel":"031-212-1761","addr":"경기도 용인시 수지구 상현동 1131-8번지 드림타워2 1층 102호","category":"일반휴게음식 - 일반한식"},{"name":"제이나헤어살롱","tel":"031-304-7080","addr":"경기도 용인시 수지구 상현동 1131-8번지 112호","category":"보건위생 - 미용원"},{"name":"컴포즈 상현점","tel":"031-212-0805","addr":"경기도 용인시 수지구 상현동 1131-8번지 1층 101호","category":"일반휴게음식 - 서양음식"},{"name":"크리드PC 광교점","tel":"070-9880-9889","addr":"경기도 용인시 수지구 상현동 1131-8번지 드림타워2 304,305호","category":"레저업소 - 기타레져업소"},{"name":"팀유앤아이아카데미","tel":"031-212-8212","addr":"경기도 용인시 수지구 상현동 1131-8번지 드림타워2 505호","category":"레저업소 - 골프연습장"},{"name":"행복덮밥&스시","tel":"","addr":"경기도 용인시 수지구 상현동 1131-8번지 110호","category":"일반휴게음식 - 일식·회집"},{"name":"홍루이젠 광교상현역점","tel":"031-211-2231","addr":"경기도 용인시 수지구 상현동 1131-8번지 드림타워2 106호","category":"일반휴게음식 - 서양음식"},{"name":"황제","tel":"031-215-5188","addr":"경기도 용인시 수지구 상현동 1131-8번지 드림타워2 303호","category":"보건위생 - 피부미용실"}]},{"lat":"37.299394108","long":"127.07974629","items":[{"name":"ABG 한중골프기업가위원회","tel":"02-1600-0279","addr":"경기도 용인시 수지구 상현동 866번지 상현마을성원상떼빌아파트","category":"회원제형태 - 기타4"}]},{"lat":"37.308372024","long":"127.07377701","items":[{"name":"B&J에스데틱","tel":"031-896-7688","addr":"경기도 용인시 수지구 상현동 1099번지 심곡마을광교힐스테이트 202호 상가","category":"회원제형태 - 기타4"},{"name":"김민재헤어갤러리","tel":"031-889-5477","addr":"경기도 용인시 수지구 상현동 1099번지 심곡마을광교힐스테이트 102호 상가","category":"보건위생 - 미용원"},{"name":"홍선생미술용인수지지사","tel":"031-264-0188","addr":"경기도 용인시 수지구 상현동 1099번지 심곡마을광교힐스테이트 202호","category":"회원제형태 - 서적"},{"name":"힐세탁소","tel":"031-896-3444","addr":"경기도 용인시 수지구 상현동 1099번지 심곡마을광교힐스테이트 상가동 201호","category":"수리서비스 - 세탁소"}]},{"lat":"37.297400453","long":"127.06877038","items":[{"name":"CCTV다나와","tel":"11-1661-9308","addr":"경기도 용인시 수지구 상현동 1117-5번지 광교푸르지오시티2차 C동 619호","category":"수리서비스 - 사무·통신기기수리"},{"name":"더엘뷰티","tel":"02-4648-4676","addr":"경기도 용인시 수지구 상현동 1117-5번지 206호","category":"보건위생 - 피부미용실"},{"name":"돌리고 제주도야지","tel":"031-215-4292","addr":"경기도 용인시 수지구 상현동 1117-5번지 C동 111호","category":"일반휴게음식 - 일반한식"},{"name":"마통","tel":"031-889-9292","addr":"경기도 용인시 수지구 상현동 1117-5번지 C동 114호","category":"일반휴게음식 - 스넥"},{"name":"모로미쿠시","tel":"031-212-4022","addr":"경기도 용인시 수지구 상현동 1117-5번지 푸르지오시티 C동 113호","category":"일반휴게음식 - 주점"},{"name":"바르다김선생 광교상현점","tel":"031-215-2152","addr":"경기도 용인시 수지구 상현동 1117-5번지 광교2차푸르지오시티 C동 106호","category":"일반휴게음식 - 스넥"},{"name":"브로우301","tel":"031-123-4567","addr":"경기도 용인시 수지구 상현동 1117-5번지 C동 301호","category":"보건위생 - 피부미용실"},{"name":"순자딸네일","tel":"031-214-5350","addr":"경기도 용인시 수지구 상현동 1117-5번지 광교2차푸르지오시티 C동 2층 202호","category":"보건위생 - 피부미용실"},{"name":"써브웨이 광교상현역점","tel":"031-212-1877","addr":"경기도 용인시 수지구 상현동 1117-5번지 대우푸르지오시티 C동 104호","category":"일반휴게음식 - 스넥"},{"name":"안테나헤어","tel":"031-212-1717","addr":"경기도 용인시 수지구 상현동 1117-5번지 C동 201,215호","category":"보건위생 - 미용원"},{"name":"왁싱캣","tel":"063-911-6321","addr":"경기도 용인시 수지구 상현동 1117-5번지 광교2차푸르지오시티 C동 1005호","category":"보건위생 - 화장품"},{"name":"유가네닭갈비 (광교점)","tel":"031-211-3338","addr":"경기도 용인시 수지구 상현동 1117-5번지 광교2차푸르지오시티 C동 207호","category":"일반휴게음식 - 일반한식"},{"name":"이삭토스트 광교상현역점","tel":"031-212-4234","addr":"경기도 용인시 수지구 상현동 1117-5번지 광교2차푸르지오시티 C동 103호","category":"일반휴게음식 - 서양음식"},{"name":"지유킴필라테스","tel":"","addr":"경기도 용인시 수지구 상현동 1117-5번지 C동 2층 204호","category":"레저업소 - 헬스클럽"},{"name":"진1926 광교상현점","tel":"031-216-1926","addr":"경기도 용인시 수지구 상현동 1117-5번지 C동 117호","category":"일반휴게음식 - 일반한식"},{"name":"청년다방용인상현역점","tel":"031-212-2373","addr":"경기도 용인시 수지구 상현동 1117-5번지","category":"일반휴게음식 - 일반한식"},{"name":"키친월드","tel":"031-721-6469","addr":"경기도 용인시 수지구 상현동 1117-5번지 광교2차푸르지오시티 C동 307호","category":"전기제품 - 가전제품"},{"name":"핀네일(FIN.NAIL)","tel":"031-211-5052","addr":"경기도 용인시 수지구 상현동 1117-5번지 C동 1층 110호","category":"보건위생 - 피부미용실"},{"name":"헬스앤뷰티","tel":"070-8621-8661","addr":"경기도 용인시 수지구 상현동 1117-5번지 광교푸르지오시트제 C동 430호","category":"보건위생 - 화장품"},{"name":"황소고집한우곱창","tel":"031-217-5255","addr":"경기도 용인시 수지구 상현동 1117-5번지 C동 116호","category":"일반휴게음식 - 일반한식"}]},{"lat":"37.296842218","long":"127.06804809","items":[{"name":"CGV광교상현","tel":"070-8822-4031","addr":"경기도 용인시 수지구 상현동 1116-4번지 3층 301호","category":"문화.취미 - 영화관"},{"name":"금석","tel":"031-213-1013","addr":"경기도 용인시 수지구 상현동 1116-4번지 더블유스퀘어광교 107호","category":"신변잡화 - 귀금속"},{"name":"뉴욕버거 광교상현역점","tel":"053-000-0000","addr":"경기도 용인시 수지구 상현동 1116-4번지 1층 103호","category":"일반휴게음식 - 서양음식"},{"name":"달콤커피 CGV광교상현점","tel":"031-215-0958","addr":"경기도 용인시 수지구 상현동 1116-4번지 201호","category":"일반휴게음식 - 서양음식"},{"name":"원달러커피(1＄coffee)","tel":"070-8616-2223","addr":"경기도 용인시 수지구 상현동 1116-4번지 114호","category":"일반휴게음식 - 서양음식"},{"name":"치어스 용인상현점","tel":"","addr":"경기도 용인시 수지구 상현동 1116-4번지 1층 112호,113호","category":"일반휴게음식 - 서양음식"}]},{"lat":"37.309502394","long":"127.08156141","items":[{"name":"CHOI전자","tel":"031-559-7937","addr":"경기도 용인시 수지구 상현동 85-6번지 서원마을현대홈타운아파트","category":"전기제품 - 기타전기제품"}]},{"lat":"37.297598147","long":"127.06971795","items":[{"name":"DERMADEEP","tel":"031-214-6111","addr":"경기도 용인시 수지구 상현동 1131-3번지 501호","category":"보건위생 - 화장품"},{"name":"G골드광교점","tel":"031-212-9853","addr":"경기도 용인시 수지구 상현동 1131-3번지 1층 101호","category":"신변잡화 - 액세서리"},{"name":"경희누리한의원","tel":"031-212-2125","addr":"경기도 용인시 수지구 상현동 1131-3번지 산업프라자 302호","category":"의원 - 한의원"},{"name":"광교엘씨학원","tel":"031-214-9332","addr":"경기도 용인시 수지구 상현동 1131-3번지 신명프라자 303-1호","category":"서적문구 - 기타서적문구"},{"name":"광교엘씨학원","tel":"031-214-9332","addr":"경기도 용인시 수지구 상현동 1131-3번지 303호 일부","category":"학원 - 보습학원"},{"name":"광교최용훈국어학원","tel":"031-211-9232","addr":"경기도 용인시 수지구 상현동 1131-3번지 신영프라자 401호","category":"학원 - 보습학원"},{"name":"더말에스테틱","tel":"031-213-7704","addr":"경기도 용인시 수지구 상현동 1131-3번지 301호","category":"보건위생 - 피부미용실"},{"name":"메이젠(MEIZEN)","tel":"031-212-1827","addr":"경기도 용인시 수지구 상현동 1131-3번지 1층 107호","category":"일반휴게음식 - 스넥"},{"name":"비온바","tel":"031-212-8248","addr":"경기도 용인시 수지구 상현동 1131-3번지 신명프라자 205호","category":"일반휴게음식 - 일반한식"},{"name":"빽다방 상현역 광교점","tel":"031-261-9749","addr":"경기도 용인시 수지구 상현동 1131-3번지 신명프라자 105호","category":"일반휴게음식 - 서양음식"},{"name":"성원","tel":"031-217-5771","addr":"경기도 용인시 수지구 상현동 1131-3번지 603호","category":"회원제형태 - 기타4"},{"name":"세븐일레븐광교신대역점","tel":"","addr":"경기도 용인시 수지구 상현동 1131-3번지 신명프라자 1층","category":"유통업 영리 - 편 의 점"},{"name":"신명프라자 관리단","tel":"031-759-8801","addr":"경기도 용인시 수지구 상현동 1131-3번지 신명프라자","category":"자동차정비 유지 - 주차장"},{"name":"씨엠에스광교영재교육센터학원","tel":"031-217-4909","addr":"경기도 용인시 수지구 상현동 1131-3번지 (701~703호)","category":"학원 - 보습학원"},{"name":"양나무수학학원","tel":"031-212-9455","addr":"경기도 용인시 수지구 상현동 1131-3번지 401호","category":"회원제형태 - 학원"},{"name":"어바웃클라리넷교습소","tel":"070-4177-0930","addr":"경기도 용인시 수지구 상현동 1131-3번지 신명프라자 601호","category":"학원 - 예·체능계학원"},{"name":"에듀브릿지학원","tel":"031-211-5617","addr":"경기도 용인시 수지구 상현동 1131-3번지 신명프라자 401호","category":"학원 - 보습학원"},{"name":"오렌즈 광교상현역점","tel":"031-214-5523","addr":"경기도 용인시 수지구 상현동 1131-3번지 신명프라자 103호","category":"보건위생 - 안경"},{"name":"우리두리","tel":"031-213-7680","addr":"경기도 용인시 수지구 상현동 1131-3번지 901-903호","category":"보건위생 - 기타대인서비스"},{"name":"율 법무사사무소","tel":"031-217-5787","addr":"경기도 용인시 수지구 상현동 1131-3번지 신명프라자 4층 402-2호","category":"용역 서비스 - 법률회계서비스(개인)"},{"name":"이룸세무회계사무소","tel":"031-213-1568","addr":"경기도 용인시 수지구 상현동 1131-3번지 신명프라자 301호","category":"용역 서비스 - 법률회계서비스(개인)"},{"name":"이엠(EM)세탁화이트","tel":"031-215-8557","addr":"경기도 용인시 수지구 상현동 1131-3번지 신명프라자 108호","category":"수리서비스 - 세탁소"},{"name":"정관장 광교점","tel":"031-212-2303","addr":"경기도 용인시 수지구 상현동 1131-3번지 신명프라자 104호","category":"건강식품 - 홍삼제품"},{"name":"정관장경기광교점","tel":"031-212-2303","addr":"경기도 용인시 수지구 상현동 1131-3번지 신명프라자 104호","category":"건강식품 - 홍삼제품"},{"name":"클린짐","tel":"","addr":"경기도 용인시 수지구 상현동 1131-3번지 8층 602,801~804호","category":"레저업소 - 헬스클럽"},{"name":"폰마당","tel":"031-214-0909","addr":"경기도 용인시 수지구 상현동 1131-3번지 신명프라자 102호","category":"사무통신 - 통신기기"},{"name":"피아플룻음악학원","tel":"031-212-2733","addr":"경기도 용인시 수지구 상현동 1131-3번지 3층 305호","category":"학원 - 예·체능계학원"},{"name":"하나미스시(광교점)","tel":"031-214-0121","addr":"경기도 용인시 수지구 상현동 1131-3번지 신명프라자 204호","category":"일반휴게음식 - 일식·회집"},{"name":"한예종색소폰학원","tel":"031-0000-0000","addr":"경기도 용인시 수지구 상현동 1131-3번지 일부 601호","category":"학원 - 예·체능계학원"}]},{"lat":"37.310263667","long":"127.08819504","items":[{"name":"E-해법수학수지상현점교습소","tel":"031-263-2357","addr":"경기도 용인시 수지구 상현동 856번지 만현마을2단지아이파크 205호","category":"회원제형태 - 학원"},{"name":"금속공예공방(Choi Gyuyoung Craft studio)","tel":"031-304-4877","addr":"경기도 용인시 수지구 상현동 856번지 상가동 103-2호","category":"신변잡화 - 액세서리"},{"name":"코치클래스용인상현점영어교습소","tel":"031-262-9798","addr":"경기도 용인시 수지구 상현동 856번지 만현마을2단지아이파크 상가동 204호","category":"학원 - 외국어학원"},{"name":"크린토피아만현점","tel":"031-262-2453","addr":"경기도 용인시 수지구 상현동 856번지 만현마을아이파트2단지 상가 101호","category":"수리서비스 - 세탁소"}]},{"lat":"37.313278216","long":"127.09341016","items":[{"name":"E.GHP시스템","tel":"070-7656-9818","addr":"경기도 용인시 수지구 상현동 30번지 성원상떼빌아파트","category":"회원제형태 - 기타4"}]},{"lat":"37.307292263","long":"127.08541683","items":[{"name":"ECA수학과학학원","tel":"031-896-5558","addr":"경기도 용인시 수지구 상현동 259번지 한길프라자 304호","category":"학원 - 보습학원"},{"name":"GS25용인상현점","tel":"","addr":"경기도 용인시 수지구 상현동 259번지 한길프라자 104호","category":"유통업 영리 - 편 의 점"},{"name":"고미선 건강한 다이어트 스쿨","tel":"070-4242-6849","addr":"경기도 용인시 수지구 상현동 259번지 한길프라자 105호","category":"건강식품 - 기타건강식품"},{"name":"고봉민김밥수지상현점","tel":"031-261-7776","addr":"경기도 용인시 수지구 상현동 259번지 한길프라자 103호","category":"일반휴게음식 - 스넥"},{"name":"고탁구","tel":"031-261-5757","addr":"경기도 용인시 수지구 상현동 259번지 한길프라자 602호","category":"레져용품 - 스포츠·레져용품"},{"name":"국수나무 상현점","tel":"031-272-8252","addr":"경기도 용인시 수지구 상현동 259번지 한길프라자 102호","category":"일반휴게음식 - 일반한식"},{"name":"김정훈 탁구클럽","tel":"031-261-5757","addr":"경기도 용인시 수지구 상현동 259번지 한길프라자 603호 ,604호,605호","category":"레저업소 - 기타레져업소"},{"name":"다사랑약국","tel":"031-272-5005","addr":"경기도 용인시 수지구 상현동 259번지 한길프라자 106호","category":"약국 - 약국"},{"name":"미래여성한의원","tel":"031-265-5678","addr":"경기도 용인시 수지구 상현동 259번지 한길프라자 404호","category":"의원 - 한의원"},{"name":"미서울치과의원","tel":"031-276-5335","addr":"경기도 용인시 수지구 상현동 259번지 한길프라자 403호","category":"의원 - 치과의원"},{"name":"바다","tel":"02-2678-7789","addr":"경기도 용인시 수지구 상현동 259번지 한길프라자 205호","category":"일반휴게음식 - 일반한식"},{"name":"본향팥칼국수","tel":"031-896-5202","addr":"경기도 용인시 수지구 상현동 259번지 한길프라자 109호","category":"일반휴게음식 - 일반한식"},{"name":"뷰티킹상현점","tel":"031-276-2787","addr":"경기도 용인시 수지구 상현동 259번지 한길프라자 201호","category":"보건위생 - 미용원"},{"name":"브이아이피(VIP)통신","tel":"070-7543-2977","addr":"경기도 용인시 수지구 상현동 259번지 한길프라자 108호","category":"사무통신 - 통신기기"},{"name":"수담수학전문학원","tel":"","addr":"경기도 용인시 수지구 상현동 259번지 한길프라자 402호","category":"학원 - 보습학원"},{"name":"스웩피씨방(swag pc club)","tel":"070-8816-1183","addr":"경기도 용인시 수지구 상현동 259번지 한길프라자 203,204호","category":"레저업소 - 기타레져업소"},{"name":"안경매니져","tel":"031-262-9006","addr":"경기도 용인시 수지구 상현동 259번지 한길프라자 107호","category":"보건위생 - 안경"},{"name":"연세이비인후과의원","tel":"031-261-0275","addr":"경기도 용인시 수지구 상현동 259번지 한길프라자 401호","category":"의원 - 의원"},{"name":"완이수학교습소","tel":"","addr":"경기도 용인시 수지구 상현동 259번지 한길프라자 405호","category":"학원 - 보습학원"},{"name":"이디야상현점","tel":"031-261-3188","addr":"경기도 용인시 수지구 상현동 259번지 한길프라자 101호","category":"일반휴게음식 - 서양음식"},{"name":"이승복내과의원","tel":"031-272-0082","addr":"경기도 용인시 수지구 상현동 259번지 한길프라자 301호","category":"의원 - 의원"},{"name":"헬스카페","tel":"031-266-7776","addr":"경기도 용인시 수지구 상현동 259번지 한길프라자 601호","category":"레저업소 - 헬스클럽"}]},{"lat":"37.297931621","long":"127.06954906","items":[{"name":"GS25S상현역점","tel":"","addr":"경기도 용인시 수지구 상현동 502-10번지 상현역 내 상가","category":"유통업 영리 - 편 의 점"}]},{"lat":"37.297733782","long":"127.0688609","items":[{"name":"GS25광교우리점","tel":"080-555-2525","addr":"경기도 용인시 수지구 상현동 1117-3번지 108호(상현동1117-3,우리상가)","category":"유통업 영리 - 편 의 점"},{"name":"광교이사랑치과","tel":"031-213-2810","addr":"경기도 용인시 수지구 상현동 1117-3번지 우리상가 402호","category":"의원 - 치과의원"},{"name":"광교참좋은요양병원","tel":"031-216-9887","addr":"경기도 용인시 수지구 상현동 1117-3번지 희성빌딩 4층~9층","category":"병원 - 병원"},{"name":"굿모닝보청기 용인광교센터","tel":"031-215-9119","addr":"경기도 용인시 수지구 상현동 1117-3번지 우리 상가 401호","category":"보건위생 - 의료용품"},{"name":"더441","tel":"02-123-1234","addr":"경기도 용인시 수지구 상현동 1117-3번지 우리상가 201호","category":"일반휴게음식 - 일반한식"},{"name":"삼갈","tel":"031-216-7557","addr":"경기도 용인시 수지구 상현동 1117-3번지 우리상가 105,106,107호","category":"일반휴게음식 - 일반한식"},{"name":"삼갈","tel":"031-216-7557","addr":"경기도 용인시 수지구 상현동 1117-3번지 우리상가 105, 106, 107호","category":"일반휴게음식 - 일반한식"},{"name":"설빙 광교상현역점","tel":"031-211-5334","addr":"경기도 용인시 수지구 상현동 1117-3번지 202호, 203호일부","category":"일반휴게음식 - 일반한식"},{"name":"아미띠에헤어","tel":"031-216-3089","addr":"경기도 용인시 수지구 상현동 1117-3번지 우리상가 110호","category":"보건위생 - 미용원"},{"name":"준호초밥","tel":"070-7442-7745","addr":"경기도 용인시 수지구 상현동 1117-3번지 1층","category":"일반휴게음식 - 일식·회집"},{"name":"참앤굿","tel":"031-216-9887","addr":"경기도 용인시 수지구 상현동 1117-3번지 4층","category":"신변잡화 - 기타잡화"},{"name":"한스(광교신대점)","tel":"031-214-6227","addr":"경기도 용인시 수지구 상현동 1117-3번지 우리상가 101호,201호","category":"일반휴게음식 - 스넥"},{"name":"항실","tel":"031-213-9989","addr":"경기도 용인시 수지구 상현동 1117-3번지 우리 상가 301호","category":"보건위생 - 기타대인서비스"}]},{"lat":"37.300704322","long":"127.07376982","items":[{"name":"GS25광교웅진점","tel":"","addr":"경기도 용인시 수지구 상현동 1107번지 광교마을46단지광교스타클래스","category":"유통업 영리 - 편 의 점"}]},{"lat":"37.296627835","long":"127.07994649","items":[{"name":"GS25광교타운점","tel":"","addr":"경기도 용인시 수지구 상현동 1159-1번지","category":"유통업 영리 - 편 의 점"},{"name":"벽창호인테리어 광교점","tel":"031-217-7733","addr":"경기도 용인시 수지구 상현동 1159-1번지","category":"건축자재 - 인테리어전문"}]},{"lat":"37.311436797","long":"127.08565825","items":[{"name":"GS25수지만현마을점","tel":"","addr":"경기도 용인시 수지구 상현동 857번지 만현마을10단지아이파크 상가동 109호","category":"유통업 영리 - 편 의 점"},{"name":"찬샘헤어","tel":"","addr":"경기도 용인시 수지구 상현동 857번지 만현마을10단지아이파크 상가동 1층 105호","category":"보건위생 - 미용원"},{"name":"한성에너텍","tel":"031-897-9890","addr":"경기도 용인시 수지구 상현동 857","category":"전기제품 - 냉열기기"}]},{"lat":"37.304512173","long":"127.07935672","items":[{"name":"GS25수지상현로점","tel":"","addr":"경기도 용인시 수지구 상현동 827번지 상가동 103~104호","category":"유통업 영리 - 편 의 점"},{"name":"아네스","tel":"031-896-1627","addr":"경기도 용인시 수지구 상현동 827 금호베스트빌 상가-203","category":"일반휴게음식 - 일반한식"},{"name":"젬마","tel":"031-263-0755","addr":"경기도 용인시 수지구 상현동 827금호베스트빌상가건물계단및부속상가","category":"의류 - 정장"}]},{"lat":"37.302125423","long":"127.07785418","items":[{"name":"GS25수지성진점","tel":"02-2006-2118","addr":"경기도 용인시 수지구 상현동 830번지 성진프라자 108호","category":"유통업 영리 - 편 의 점"},{"name":"U-그린치과의원","tel":"031-276-2801","addr":"경기도 용인시 수지구 상현동 830번지 성진프라자 201호","category":"의원 - 치과의원"},{"name":"U-그린치과의원","tel":"031-276-2801","addr":"경기도 용인시 수지구 상현동 830번지 성진프라자 2층 201호","category":"의원 - 치과의원"},{"name":"경희대석사태권도","tel":"031-265-2570","addr":"경기도 용인시 수지구 상현동 830번지 성진프라자 303호","category":"학원 - 예·체능계학원"},{"name":"더희헤어","tel":"","addr":"경기도 용인시 수지구 상현동 830번지 성진프라자 106호","category":"보건위생 - 미용원"},{"name":"블링블링","tel":"031-263-7516","addr":"경기도 용인시 수지구 상현동 830번지 성진프라자 101호","category":"보건위생 - 미용원"},{"name":"삼성영어수학에이플러스정상학원","tel":"031-272-7313","addr":"경기도 용인시 수지구 상현동 830번지 성진프라자 302호","category":"학원 - 보습학원"},{"name":"상현떡방","tel":"031-896-6767","addr":"경기도 용인시 수지구 상현동 830번지 성진프라자 104호","category":"음료식품 - 제과점"},{"name":"서원약국","tel":"031-266-5146","addr":"경기도 용인시 수지구 상현동 341-25번지 성진프라자 102호","category":"약국 - 약국"},{"name":"아름다운음악학원","tel":"031-272-1510","addr":"경기도 용인시 수지구 상현동 830번지 성진프라자 301호","category":"학원 - 예·체능계학원"},{"name":"엘리","tel":"031-0000-0000","addr":"경기도 용인시 수지구 상현동 830번지 성진프라자 102호","category":"의류 - 정장"},{"name":"우리들내과의원","tel":"031-266-5430","addr":"경기도 용인시 수지구 상현동 830번지 성진프라자 2층 204호","category":"의원 - 의원"},{"name":"청담학원","tel":"031-896-8008","addr":"경기도 용인시 수지구 상현동 830번지 성진프라자 202호 401호","category":"학원 - 보습학원"},{"name":"코끼리 아이스바","tel":"031-261-0111","addr":"경기도 용인시 수지구 상현동 830번지 성진프라자 105호","category":"음료식품 - 기타음료식품"},{"name":"퀸즈음악학원","tel":"031-000-0000","addr":"경기도 용인시 수지구 상현동 830번지 성진프라자 205호","category":"학원 - 예·체능계학원"}]},{"lat":"37.31223487","long":"127.09097229","items":[{"name":"GS25수지송화점","tel":"080-555-2525","addr":"경기도 용인시 수지구 상현동 17-1번지 상록상현프라자 139호","category":"유통업 영리 - 편 의 점"},{"name":"가자할인마트","tel":"031-265-7449","addr":"경기도 용인시 수지구 상현동 17-1번지 상현프라자 139호","category":"유통업 영리 - 슈퍼마켓"},{"name":"고려대리더스태권도장","tel":"031-896-2663","addr":"경기도 용인시 수지구 상현동 17-1번지 상현프라자 210호","category":"학원 - 예·체능계학원"},{"name":"고우리음악학원","tel":"031-263-8823","addr":"경기도 용인시 수지구 상현동 17-1번지 상록상현프라자 209호","category":"학원 - 예·체능계학원"},{"name":"낮엔밥 밤에술","tel":"031-227-1326","addr":"경기도 용인시 수지구 상현동 17-1번지 상록상현프라자 132호","category":"일반휴게음식 - 일반한식"},{"name":"레벨업학원","tel":"031-896-7407","addr":"경기도 용인시 수지구 상현동 17-1번지 상현프라자 307호","category":"학원 - 보습학원"},{"name":"로제타스톤 상현영어학원","tel":"070-8827-0709","addr":"경기도 용인시 수지구 상현동 17-1번지 상현프라자 207호","category":"학원 - 외국어학원"},{"name":"만나카페","tel":"031-266-5001","addr":"경기도 용인시 수지구 상현동 17-1번지 101,102호","category":"일반휴게음식 - 서양음식"},{"name":"문제해결의길잡이미래수학학원","tel":"070-8200-9095","addr":"경기도 용인시 수지구 상현동 17-1번지 상록상현프라자 208호","category":"회원제형태 - 학원"},{"name":"물감정원미술교습소","tel":"070-7750-5292","addr":"경기도 용인시 수지구 상현동 17-1번지 상록상현프라자 135호","category":"학원 - 예·체능계학원"},{"name":"브레인에듀","tel":"070-7535-5777","addr":"경기도 용인시 수지구 상현동 17-1번지 상록상현프라자 117,118호","category":"서적문구 - 기타서적문구"},{"name":"비비큐(BBQ)상현행복점","tel":"031-272-0092","addr":"경기도 용인시 수지구 상현동 17-1번지 상록상현프라자","category":"일반휴게음식 - 스넥"},{"name":"상현강희경음악학원","tel":"031-272-6700","addr":"경기도 용인시 수지구 상현동 17-1번지 상록상현프라자 306호","category":"학원 - 예·체능계학원"},{"name":"세븐피아노","tel":"031-702-2258","addr":"경기도 용인시 수지구 상현동 17-1번지 상록상현프라자 310호","category":"레져용품 - 피아노대리점"},{"name":"수지행복마지요양원","tel":"031-896-2000","addr":"경기도 용인시 수지구 상현동 17-1번지 상록상현프라자 201호","category":"기타의료기관 - 기타의료기관 및 기타"},{"name":"수지헤어","tel":"","addr":"경기도 용인시 수지구 상현동 17-1번지 상록상현프라자 1층 131호","category":"보건위생 - 미용원"},{"name":"에밀리앤제이","tel":"031-261-4692","addr":"경기도 용인시 수지구 상현동 17-1번지 상록상현프라자 103,104호","category":"문화.취미 - 화원"},{"name":"오분땡","tel":"031-276-9166","addr":"경기도 용인시 수지구 상현동 17-1번지 상현프라자 108,109호","category":"일반휴게음식 - 스넥"},{"name":"이현탑수학교습소","tel":"031-302-9887","addr":"경기도 용인시 수지구 상현동 17-1번지 상록상현프라자 137호","category":"학원 - 보습학원"},{"name":"이화뮤즈음악학원","tel":"031-265-7055","addr":"경기도 용인시 수지구 상현동 17-1번지 상록상현프라자 305호","category":"학원 - 예·체능계학원"},{"name":"이화뮤즈음악학원","tel":"","addr":"경기도 용인시 수지구 상현동 17-1번지 상록상현프라자 3층 305호","category":"학원 - 예·체능계학원"},{"name":"지앤지컴파니(G&G Company)","tel":"031-266-3431","addr":"경기도 용인시 수지구 상현동 17-1번지 상록상현프라자 1층 116호","category":"유통업 영리 - 기타유통업"},{"name":"차일드유어학원","tel":"031-272-7907","addr":"경기도 용인시 수지구 상현동 854-1상현프라자401,402","category":"학원 - 외국어학원"},{"name":"청우태권도","tel":"031-261-9376","addr":"경기도 용인시 수지구 상현동 17-1번지 상현프라자 301호","category":"학원 - 예·체능계학원"},{"name":"크린토피아성원롯데점","tel":"031-266-7406","addr":"경기도 용인시 수지구 상현동 17-1번지 상현프라자 138호","category":"수리서비스 - 세탁소"},{"name":"태후사랑","tel":"031-266-4927","addr":"경기도 용인시 수지구 상현동 17-1번지 상록상현프라자 107호","category":"보건위생 - 화장품"},{"name":"파인HSC","tel":"070-4245-3202","addr":"경기도 용인시 수지구 상현동 17-1번지 상현프라자 114동 124호","category":"건강식품 - 기타건강식품"},{"name":"하연과학상현과학교습소","tel":"","addr":"경기도 용인시 수지구 상현동 17-1번지 상록상현프라자 1층 119호","category":"학원 - 보습학원"},{"name":"헤어센스","tel":"031-266-1366","addr":"경기도 용인시 수지구 상현동 17-1번지 상록상현프라자 136호","category":"보건위생 - 미용원"},{"name":"호식이두마리치킨 수지1호점","tel":"031-234-2362","addr":"경기도 용인시 수지구 상현동 17-1번지 상록상현프라자 1층 133호","category":"일반휴게음식 - 스넥"},{"name":"홍쌤손만두칼국수","tel":"031-262-0034","addr":"경기도 용인시 수지구 상현동 17-1번지 상록상현프라자 134호","category":"일반휴게음식 - 일반한식"}]},{"lat":"37.306734287","long":"127.08446872","items":[{"name":"GS25수지원희점","tel":"","addr":"경기도 용인시 수지구 상현동 254-14번지 원희캐슬프라자 A동 104호","category":"유통업 영리 - 편 의 점"},{"name":"경희탑한의원","tel":"031-261-1075","addr":"경기도 용인시 수지구 상현동 254-14번지 원희캐슬프라자 제에이- 203호","category":"의원 - 한의원"},{"name":"경희토비한의원","tel":"031-264-2264","addr":"경기도 용인시 수지구 상현동 254-14번지 원희캐슬프라자 A동 305호","category":"의원 - 한의원"},{"name":"노블산부인과","tel":"031-261-3550","addr":"경기도 용인시 수지구 상현동 254-14번지","category":"의원 - 의원"},{"name":"뉴월드 이용원","tel":"031-548-2217","addr":"경기도 용인시 수지구 상현동 254-14번지 원희캐슬프라자 B102호","category":"보건위생 - 이용원"},{"name":"늘고운의원","tel":"031-265-1212","addr":"경기도 용인시 수지구 상현동 254-14번지 원희캐슬프라자에이601-602호 601호","category":"의원 - 의원"},{"name":"두부장수","tel":"031-276-8855","addr":"경기도 용인시 수지구 상현동 254-14번지 원희캐슬프라자 108호","category":"음료식품 - 기타음료식품"},{"name":"드림텔레콤","tel":"031-266-7363","addr":"경기도 용인시 수지구 상현동 254-14번지 원희캐슬프라자 A동 107호","category":"사무통신 - 통신기기"},{"name":"로이팩토리(Loe Factory)","tel":"031-261-7952","addr":"경기도 용인시 수지구 상현동 254-14번지 원희캐슬프라자 B204호","category":"문화.취미 - 문화취미기타"},{"name":"롱드메이","tel":"","addr":"경기도 용인시 수지구 상현동 254-14번지 원희캐슬프라자 121호","category":"음료식품 - 기타음료식품"},{"name":"마이룸","tel":"031-265-8848","addr":"경기도 용인시 수지구 상현동 254-14번지 원희캐슬프라자 A동 122호","category":"의류 - 정장"},{"name":"메디미의원","tel":"031-264-2800","addr":"경기도 용인시 수지구 상현동 254-14번지 원희캐슬프라자 A동 304호","category":"의원 - 의원"},{"name":"메디미의원","tel":"031-264-2800","addr":"경기도 용인시 수지구 상현동 254-14번지 원희캐슬프라자 A동 304호","category":"의원 - 의원"},{"name":"명문내과의원","tel":"031-265-7585","addr":"경기도 용인시 수지구 상현동 254-14번지 원희캐슬프라자 A동 302호","category":"의원 - 의원"},{"name":"명품옷수선","tel":"031-261-7907","addr":"경기도 용인시 수지구 상현동 254-14번지 원희캐슬프라자 A동 120호","category":"수리서비스 - 세탁소"},{"name":"모블링","tel":"031-372-3550","addr":"경기도 용인시 수지구 상현동 254-14번지 원희캐슬프라자 A동 3층 303호","category":"보건위생 - 피부미용실"},{"name":"미누링힐링스파","tel":"031-272-3550","addr":"경기도 용인시 수지구 상현동 254-14번지 원희캐슬프라자 A-303A호","category":"보건위생 - 화장품"},{"name":"미담","tel":"031-262-9529","addr":"경기도 용인시 수지구 상현동 254-14번지 원희캐슬프라자 121호","category":"음료식품 - 기타음료식품"},{"name":"미래공인중개사사무소","tel":"031-266-7600","addr":"경기도 용인시 수지구 상현동 254-14번지 원희캐슬프라자 A동 105호","category":"용역 서비스 - 부동산 중개·임대"},{"name":"미래약국","tel":"031-265-1255","addr":"경기도 용인시 수지구 상현동 254-14번지 외6필지 원희캐슬프라자 A-407호","category":"약국 - 약국"},{"name":"바푸리수지상현점/대현티씨에스(주)","tel":"031-265-2278","addr":"경기도 용인시 수지구 상현동 254-14번지 원희캐슬프라자","category":"일반휴게음식 - 일반한식"},{"name":"봉구스 밥버거 상현점","tel":"031-276-5452","addr":"경기도 용인시 수지구 상현동 254-14번지 원희캐슬프라자 A동 119호","category":"일반휴게음식 - 일반한식"},{"name":"비너스 모바일","tel":"031-889-7724","addr":"경기도 용인시 수지구 상현동 254-14번지 원희캐슬프라자 A동 101호","category":"사무통신 - 통신기기"},{"name":"서울삼성치과","tel":"031-272-2870","addr":"경기도 용인시 수지구 상현동 254-14번지 외6필지원희캐슬프라자 A동 204호","category":"의원 - 치과의원"},{"name":"선이고운 여성의원","tel":"031-265-1212","addr":"경기도 용인시 수지구 상현동 254-14번지 에이동 601~602호","category":"의원 - 의원"},{"name":"선화음악학원","tel":"031-261-1333","addr":"경기도 용인시 수지구 상현동 254-14번지 외6필지 원희캐슬프라자 B-601호","category":"학원 - 예·체능계학원"},{"name":"셀렉토커피용인상현점","tel":"031-266-0405","addr":"경기도 용인시 수지구 상현동 254-14번지 원희캐슬프라자 A동 123호,124호","category":"일반휴게음식 - 서양음식"},{"name":"셀파수학학원","tel":"031-898-1566","addr":"경기도 용인시 수지구 상현동 254-14번지 원시캐슬프라자 a동 504호 셀파수학학원","category":"학원 - 보습학원"},{"name":"소미치과","tel":"031-262-2828","addr":"경기도 용인시 수지구 상현동 254-14번지 원희캐슬 A동 201호","category":"병원 - 치과병원"},{"name":"수지맑은피부과","tel":"031-264-5664","addr":"경기도 용인시 수지구 상현동 254-14번지 원희캐슬프라자 A동 403호","category":"의원 - 의원"},{"name":"수지서울안과","tel":"031-276-4177","addr":"경기도 용인시 수지구 상현동 254-14번지 캐슬프라자 A동 404호","category":"의원 - 의원"},{"name":"수지필즈수학보습학원","tel":"031-272-3531","addr":"경기도 용인시 수지구 상현동 254-14번지 원희캐슬프라자 A동 501호","category":"학원 - 보습학원"},{"name":"수지하나이비인후과의원","tel":"031-266-8875","addr":"경기도 용인시 수지구 상현동 254-14번지 원희캐슬프라자 A동 202호","category":"의원 - 의원"},{"name":"수지해동검도관","tel":"031-266-4288","addr":"경기도 용인시 수지구 상현동 254-14번지 원희캐슬프라자 A동 604호","category":"레저업소 - 기타레져업소"},{"name":"스파리스사우나","tel":"031-548-2217","addr":"경기도 용인시 수지구 상현동 254-14번지 원희캐슬프라자 B101호","category":"보건위생 - 기타대인서비스"},{"name":"스파머시 수지점","tel":"031-266-5655","addr":"경기도 용인시 수지구 상현동 254-14번지 원희캐슬프라자 B동 3층 304-1호","category":"보건위생 - 화장품"},{"name":"아마스빈 상현점","tel":"031-262-6888","addr":"경기도 용인시 수지구 상현동 254-14번지 원희캐슬프라자 A동 102호","category":"일반휴게음식 - 일반한식"},{"name":"아이스월드","tel":"070-4522-4988","addr":"경기도 용인시 수지구 상현동 254-14번지 원희캐슬프라자 A동 105호","category":"음료식품 - 기타음료식품"},{"name":"아카데미라운지 수지상현 모임센터","tel":"031-893-9324","addr":"경기도 용인시 수지구 상현동 254-14번지 원희캐슬프라자 6층 A-603","category":"용역 서비스 - 사무서비스"},{"name":"알통떡강정","tel":"031-898-3652","addr":"경기도 용인시 수지구 상현동 254-14번지 원희캐슬프라자 A동 109호","category":"일반휴게음식 - 일반한식"},{"name":"연세수지아이들치과","tel":"031-265-2858","addr":"경기도 용인시 수지구 상현동 254-14번지 원희캐슬프라자 B동 304-1호","category":"의원 - 치과의원"},{"name":"오산조은참치(수지상현점)","tel":"031-272-2874","addr":"경기도 용인시 수지구 상현동 254-14번지 원희캐슬프라자 118호","category":"일반휴게음식 - 일식·회집"},{"name":"용우동","tel":"031-293-9997","addr":"경기도 용인시 수지구 상현동 254-14번지 원희캐슬프라자비동102호","category":"일반휴게음식 - 일반한식"},{"name":"용인 상현 작심 스페이스","tel":"031-264-8681","addr":"경기도 용인시 수지구 상현동 254-14번지 원희캐슬프라자 A동 605호","category":"용역 서비스 - 사무서비스"},{"name":"원희온누리약국","tel":"031-897-7856","addr":"경기도 용인시 수지구 상현동 254-14 원희캐슬프라자B111-2GH","category":"약국 - 약국"},{"name":"원희캐슬 골프존","tel":"031-265-7227","addr":"경기도 용인시 수지구 상현동 254-14번지 원희캐슬프라자 B동 405-1호,406호","category":"레저업소 - 골프연습장"},{"name":"원희캐슬약국","tel":"031-272-9482","addr":"경기도 용인시 수지구 상현동 254-14번지 원희캐슬프라자 304-1호","category":"약국 - 약국"},{"name":"원희캐슬약국","tel":"031-272-9482","addr":"경기도 용인시 수지구 상현동 254-14번지 외1필지원희캐슬프라 자비동 304호","category":"약국 - 약국"},{"name":"원희캐슬프라자관리단","tel":"031-261-6991","addr":"경기도 용인시 수지구 상현동 254-14번지 원희캐슬프라자","category":"자동차정비 유지 - 주차장"},{"name":"위드미편의점상현점","tel":"031-265-6725","addr":"경기도 용인시 수지구 상현동 254-14번지 원희캐슬프라자 A동 104호","category":"유통업 영리 - 편 의 점"},{"name":"이삭토스트","tel":"031-262-0032","addr":"경기도 용인시 수지구 상현동 254-14번지 원희캐슬프라자제1층비동117호","category":"일반휴게음식 - 스넥"},{"name":"이영은소아과의원","tel":"031-265-7146","addr":"경기도 용인시 수지구 상현동 254-14번지 원일캐슬프라자 A동 405호","category":"의원 - 의원"},{"name":"이투스수학상현2점학원","tel":"031-273-0979","addr":"경기도 용인시 수지구 상현동 254-14번지 원희캐슬프라자 B동 3층 302호 이투스수학상현2점","category":"학원 - 보습학원"},{"name":"이호선이비인후과","tel":"031-261-3800","addr":"경기도 용인시 수지구 상현동 254-14번지 원희캐슬프라자 A동 301호","category":"의원 - 의원"},{"name":"작심상현독서실","tel":"031-264-8681","addr":"경기도 용인시 수지구 상현동 254-14번지 원희캐슬프라자 A동 605호","category":"학원 - 독서실"},{"name":"점프스쿨 상현센터","tel":"031-262-2880","addr":"경기도 용인시 수지구 상현동 254-14번지 원희캐슬프라자 B동 6층 601-1호","category":"레저업소 - 헬스클럽"},{"name":"지쎄븐(G7)치과의원","tel":"031-263-2275","addr":"경기도 용인시 수지구 상현동 254-14번지 원희캐슬프라자 A동 401호 402호","category":"의원 - 치과의원"},{"name":"지앤미","tel":"031-262-6778","addr":"경기도 용인시 수지구 상현동 254-14번지 원희캐슬프라자 A동 116호","category":"보건위생 - 화장품"},{"name":"참누리동물병원","tel":"031-264-7525","addr":"경기도 용인시 수지구 상현동 254-14번지 원희캐슬프라자 A동 112호","category":"기타의료기관 - 동물병원"},{"name":"캐슬프라자약국","tel":"031-272-9481","addr":"경기도 용인시 수지구 상현동 254-14번지 원희캐슬프라자 A-303A호","category":"약국 - 약국"},{"name":"커피에반하다","tel":"031-263-8320","addr":"경기도 용인시 수지구 상현동 254-14번지 원희캐슬프라자 B동 120,121호","category":"일반휴게음식 - 서양음식"},{"name":"크리스필라테스","tel":"","addr":"경기도 용인시 수지구 상현동 254-14번지 원희캐슬프라자 203호","category":"레저업소 - 헬스클럽"},{"name":"킹스타피자 수지상현점","tel":"031-265-7786","addr":"경기도 용인시 수지구 상현동 254-14번지 원희캐슬프라자 A동 115호","category":"일반휴게음식 - 서양음식"},{"name":"톡톡어학원","tel":"031-896-1302","addr":"경기도 용인시 수지구 상현동 254-14번지 원희캐슬 A동 506호","category":"회원제형태 - 학원"},{"name":"풍성호 수지점","tel":"031-266-0132","addr":"경기도 용인시 수지구 상현동 254-14번지 원희캐슬프라자 A동 1층 106호","category":"일반휴게음식 - 서양음식"},{"name":"플라츠베이커리","tel":"070-4196-1514","addr":"경기도 용인시 수지구 상현동 254-14번지 원희캐슬프라자 A층 103호","category":"음료식품 - 제과점"},{"name":"플레잉아트센터","tel":"031-272-3309","addr":"경기도 용인시 수지구 상현동 254-14번지 원희캐슬프라자 B502호","category":"회원제형태 - 학원"},{"name":"한가정약국","tel":"031-272-8485","addr":"경기도 용인시 수지구 상현동 254-14번지 원희캐슬프라자 A동 106호","category":"약국 - 약국"},{"name":"한솔병인한의원","tel":"031-282-3567","addr":"경기도 용인시 수지구 상현동 254-14번지 원회캐슬프라자 A동 306호","category":"의원 - 한의원"},{"name":"해법중국어교습소","tel":"031-276-9596","addr":"경기도 용인시 수지구 상현동 254-14번지 원희캐슬프라자 A503-2호","category":"학원 - 외국어학원"}]},{"lat":"37.308557124","long":"127.08034218","items":[{"name":"HIM경영컨설팅","tel":"031-263-6207","addr":"경기도 용인시 수지구 상현동 860번지 서원마을3단지아이파크 305동 9003호","category":"보건위생 - 화장품"}]},{"lat":"37.307761335","long":"127.08463903","items":[{"name":"HS디자인","tel":"031-241-0459","addr":"경기도 용인시 수지구 상현동 257-22번지 거묵푸라자 204호","category":"건축자재 - 인테리어전문"},{"name":"KISS","tel":"031-266-1995","addr":"경기도 용인시 수지구 상현동 257-22번지 거묵프라자 116호","category":"보건위생 - 화장품"},{"name":"갤러리","tel":"070-4224-5425","addr":"경기도 용인시 수지구 상현동 257-22번지 거묵푸라자 1층 123호","category":"의류 - 정장"},{"name":"귀부인","tel":"031-264-1115","addr":"경기도 용인시 수지구 상현동 257-22번지 거묵프라바 1층 121호","category":"신변잡화 - 귀금속"},{"name":"글라스스토리(용인상현점)","tel":"031-272-9008","addr":"경기도 용인시 수지구 상현동 257-22번지 109,110호","category":"보건위생 - 안경"},{"name":"나이스가이","tel":"02-0000-0000","addr":"경기도 용인시 수지구 상현동 257-22번지 거묵푸라자 133호","category":"보건위생 - 미용원"},{"name":"네네치킨상현점","tel":"031-276-9291","addr":"경기도 용인시 수지구 상현동 257-22번지 거묵프라자 131호","category":"일반휴게음식 - 스넥"},{"name":"농산물공판장","tel":"031-266-1446","addr":"경기도 용인시 수지구 상현동 257-22번지 거묵프라자 103호","category":"음료식품 - 농·축·수산품"},{"name":"더풋샵수지상현점","tel":"031-261-8848","addr":"경기도 용인시 수지구 상현동 257-22번지 거묵푸라자 2층 201호","category":"보건위생 - 안마시술소"},{"name":"럭셔리","tel":"031-276-4636","addr":"경기도 용인시 수지구 상현동 257-22번지 거묵프라자 135호","category":"의류 - 정장"},{"name":"맘스터치 수지상현점","tel":"031-266-4959","addr":"경기도 용인시 수지구 상현동 257-22번지 거묵상가 1층 142호 일부","category":"일반휴게음식 - 서양음식"},{"name":"메이 MAY","tel":"","addr":"경기도 용인시 수지구 상현동 257-22번지 거묵푸라자 113호","category":"의류 - 정장"},{"name":"베스킨라빈스용인상현점","tel":"031-264-3191","addr":"경기도 용인시 수지구 상현동 257-22번지 134호 거묵푸라자","category":"음료식품 - 제과점"},{"name":"블루(BLUE)","tel":"031-263-6249","addr":"경기도 용인시 수지구 상현동 257-22번지 거묵프라자 128호","category":"의류 - 정장"},{"name":"블루클럽","tel":"031-261-2882","addr":"경기도 용인시 수지구 상현동 257-22번지 거묵프라자 138호","category":"보건위생 - 미용원"},{"name":"살롱드블랑","tel":"031-265-0933","addr":"경기도 용인시 수지구 상현동 257-22번지 거묵푸라자 1층 112호","category":"보건위생 - 미용원"},{"name":"상현경희한의원","tel":"031-272-2777","addr":"경기도 용인시 수지구 상현동 257-22번지 외2필지","category":"의원 - 한의원"},{"name":"상현메디칼약국","tel":"031-272-8805","addr":"경기도 용인시 수지구 상현동 257-22번지 거묵프라자 203호 일부","category":"약국 - 약국"},{"name":"상현서울치과","tel":"031-262-0275","addr":"경기도 용인시 수지구 상현동 257-22번지 거묵프라자 208호","category":"의원 - 치과의원"},{"name":"상현연세내과의원","tel":"031-261-8275","addr":"경기도 용인시 수지구 상현동 257-22번지 거묵프라자 2층 202호","category":"의원 - 의원"},{"name":"상현컴퓨터","tel":"031-272-0700","addr":"경기도 용인시 수지구 상현동 257-22번지 거묵프라자 119호","category":"사무통신 - 컴퓨터"},{"name":"수앤지디자인","tel":"031-261-2552","addr":"경기도 용인시 수지구 상현동 257-22번지 거묵프라자 204호","category":"용역 서비스 - 종합용역"},{"name":"쏭스핫도그(상현점)","tel":"031-263-1654","addr":"경기도 용인시 수지구 상현동 257-22번지 거묵프라자 1층 127호","category":"일반휴게음식 - 서양음식"},{"name":"아이린","tel":"031-272-1971","addr":"경기도 용인시 수지구 상현동 257-22번지 거묵프라자 132호","category":"의류 - 정장"},{"name":"예쁜네일","tel":"031-000-0000","addr":"경기도 용인시 수지구 상현동 257-22번지 거묵푸라자 124호","category":"보건위생 - 피부미용실"},{"name":"예울","tel":"02-6340-5359","addr":"경기도 용인시 수지구 상현동 257-22번지 거묵프라자 104,105,117,118호","category":"사무통신 - 통신기기"},{"name":"웁스마마(oops mama)","tel":"","addr":"경기도 용인시 수지구 상현동 257-22번지 거묵푸라자 132호","category":"음료식품 - 기타음료식품"},{"name":"이:두부야","tel":"031-265-3897","addr":"경기도 용인시 수지구 상현동 257-22번지 거묵푸라자 137호","category":"음료식품 - 기타음료식품"},{"name":"종로떡방앗간","tel":"031-263-7789","addr":"경기도 용인시 수지구 상현동 257-22번지 거묵프라자 1층 102호","category":"음료식품 - 제과점"},{"name":"쪼리청바지","tel":"031-000-0000","addr":"경기도 용인시 수지구 상현동 257-22번지 거묵프라자 108호","category":"의류 - 정장"},{"name":"치킨89 수지상현점","tel":"031-263-0890","addr":"경기도 용인시 수지구 상현동 257-22번지 거묵푸라자 1층 139호","category":"일반휴게음식 - 스넥"},{"name":"커피하우스","tel":"","addr":"경기도 용인시 수지구 상현동 257-22번지 거묵푸라자 120호","category":"일반휴게음식 - 서양음식"},{"name":"코코마카롱","tel":"","addr":"경기도 용인시 수지구 상현동 257-22번지 거묵푸라자 114호","category":"일반휴게음식 - 서양음식"},{"name":"콩사돈","tel":"031-272-5554","addr":"경기도 용인시 수지구 상현동 257-22번지 거묵프라자 141호","category":"일반휴게음식 - 일반한식"},{"name":"파리바게뜨(수지만현점)","tel":"031-272-8211","addr":"경기도 용인시 수지구 상현동 257-22번지 거묵프라자 106동 107호","category":"음료식품 - 제과점"},{"name":"파리바게뜨수지만현점","tel":"031-272-8211","addr":"경기도 용인시 수지구 상현동 257-22번지 거묵프라자 1층 106,107호","category":"음료식품 - 제과점"},{"name":"포토웰(photowell studio)","tel":"080-950-0955","addr":"경기도 용인시 수지구 상현동 257-22번지 거묵프라자 130호","category":"광학제품 - 사진관"},{"name":"함께하는치과의원","tel":"031-272-6543","addr":"경기도 용인시 수지구 상현동 257-22번지 거묵프라자 2층 205호","category":"의원 - 치과의원"}]},{"lat":"37.307094407","long":"127.08488646","items":[{"name":"H요가","tel":"031-896-8080","addr":"경기도 용인시 수지구 상현동 254-1번지 만현프라자 3층 301호","category":"레저업소 - 헬스클럽"},{"name":"갤러리치과","tel":"031-266-7855","addr":"경기도 용인시 수지구 상현동 254-1번지 만현프라자 302호","category":"의원 - 치과의원"},{"name":"동그라미김밥","tel":"031-265-8881","addr":"경기도 용인시 수지구 상현동 254-1번지 만현프라자 105호","category":"일반휴게음식 - 일반한식"},{"name":"랑스스킨","tel":"031-276-3223","addr":"경기도 용인시 수지구 상현동 254-1번지 만현프라자 202호","category":"보건위생 - 화장품"},{"name":"레브필라테스","tel":"031-264-5668","addr":"경기도 용인시 수지구 상현동 254-1번지 만현프라자 6층 601호","category":"레저업소 - 헬스클럽"},{"name":"맥땡","tel":"031-897-9632","addr":"경기도 용인시 수지구 상현동 254-1번지 만현프라자 107호","category":"일반휴게음식 - 주점"},{"name":"명랑쌀핫도그 용인수지상현점","tel":"","addr":"경기도 용인시 수지구 상현동 254-1번지 만현프라자 104호","category":"일반휴게음식 - 스넥"},{"name":"보스톤치과","tel":"043-535-7528","addr":"경기도 용인시 수지구 상현동 254-1번지 만현프라자 302호","category":"의원 - 치과의원"},{"name":"상현채플린노래연습장","tel":"031-263-6385","addr":"경기도 용인시 수지구 상현동 254-1번지 만현프라자 502호","category":"레저업소 - 노 래 방"},{"name":"슈퍼스타코인노래연습장","tel":"","addr":"경기도 용인시 수지구 상현동 254-1번지 만현프라자 4층 402호","category":"레저업소 - 노 래 방"},{"name":"신정순뷰티클럽","tel":"031-263-6556","addr":"경기도 용인시 수지구 상현동 254-1번지 만현프라자 401호","category":"회원제형태 - 기타4"},{"name":"원치과기공소","tel":"031-262-2852","addr":"경기도 용인시 수지구 상현동 254-1번지 만현프라자 4층 401-1,2호","category":"보건위생 - 의료용품"},{"name":"율고떡방","tel":"031-276-1233","addr":"경기도 용인시 수지구 상현동 254-1번지 만현프라자 103호","category":"음료식품 - 제과점"},{"name":"이니스프리 용인상현점","tel":"031-265-2999","addr":"경기도 용인시 수지구 상현동 254-1번지 만현프라자 1층 102호","category":"보건위생 - 화장품"},{"name":"천기킥복싱","tel":"031-889-1616","addr":"경기도 용인시 수지구 상현동 254-1번지 만현프라자 5층 501호","category":"레저업소 - 헬스클럽"},{"name":"하나축산","tel":"031-264-3330","addr":"경기도 용인시 수지구 상현동 254-1번지 외2필지만현프라자 106호","category":"음료식품 - 정육점"},{"name":"헤어망고","tel":"031-263-5161","addr":"경기도 용인시 수지구 상현동 254-1번지 만현프라자 201호","category":"보건위생 - 미용원"}]},{"lat":"37.306508413","long":"127.08535957","items":[{"name":"JADE(제이드)","tel":"031-265-6344","addr":"경기도 용인시 수지구 상현동 263번지 미래프라자 113호","category":"의류 - 정장"},{"name":"TMR코스매틱","tel":"031-272-9932","addr":"경기도 용인시 수지구 상현동 263번지 외6필지 미래프라자 204호","category":"보건위생 - 화장품"},{"name":"꿈과길에듀 학원","tel":"031-889-1871","addr":"경기도 용인시 수지구 상현동 263번지 미래프라자 4층 404호","category":"학원 - 보습학원"},{"name":"꿈과길에듀학원","tel":"070-4649-1101","addr":"경기도 용인시 수지구 상현동 263번지 미래프라자 404호","category":"학원 - 보습학원"},{"name":"꿈마루독서실","tel":"031-265-9470","addr":"경기도 용인시 수지구 상현동 263번지 미래프라자 501호","category":"학원 - 독서실"},{"name":"네이든앤드류로제타스톤학원","tel":"","addr":"경기도 용인시 수지구 상현동 263번지 미래프라자 506호","category":"학원 - 보습학원"},{"name":"네이든엔드류어학원","tel":"031-265-0513","addr":"경기도 용인시 수지구 상현동 263번지 미래프라자 505호","category":"회원제형태 - 학원"},{"name":"동의보감한의원","tel":"031-272-7290","addr":"경기도 용인시 수지구 상현동 263번지 미래프라자 406호","category":"의원 - 한의원"},{"name":"동의보감한의원","tel":"031-272-7290","addr":"경기도 용인시 수지구 상현동 263번지 미래프라자 406호","category":"의원 - 한의원"},{"name":"로뎀수학교습소","tel":"","addr":"경기도 용인시 수지구 상현동 263번지 미래프라자 2층 205-1호","category":"학원 - 보습학원"},{"name":"로타커피(rota coffee)수지","tel":"031-265-1265","addr":"경기도 용인시 수지구 상현동 263번지 미래프라자 107호","category":"일반휴게음식 - 서양음식"},{"name":"르하임스터디카페 수지상현점","tel":"031-000-0000","addr":"경기도 용인시 수지구 상현동 263번지 미래프라자 4층 401호","category":"용역 서비스 - 사무서비스"},{"name":"미래연세내과소아과","tel":"031-265-9413","addr":"경기도 용인시 수지구 상현동 236미래프라자402호,403호","category":"의원 - 의원"},{"name":"비어첸수지상현점","tel":"","addr":"경기도 용인시 수지구 상현동 263번지 미래프라자 2층 202,203호","category":"일반휴게음식 - 일반한식"},{"name":"상현당구클럽","tel":"031-896-4436","addr":"경기도 용인시 수지구 상현동 263번지 미래프라자 302호~303호","category":"레저업소 - 당 구 장"},{"name":"생각아이미술학원","tel":"031-262-4139","addr":"경기도 용인시 수지구 상현동 263번지 미래프라자 204호","category":"학원 - 예·체능계학원"},{"name":"솔약국","tel":"031-261-5958","addr":"경기도 용인시 수지구 상현동 263외6필지미래프라자106","category":"약국 - 약국"},{"name":"수신수학학원","tel":"031-262-8688","addr":"경기도 용인시 수지구 상현동 263번지 미래프라자 504호","category":"학원 - 보습학원"},{"name":"신전떡뽁이 상현점","tel":"02-265-8588","addr":"경기도 용인시 수지구 상현동 263번지 미래프라자 1층 105호","category":"일반휴게음식 - 스넥"},{"name":"싱싱마트","tel":"031-264-6459","addr":"경기도 용인시 수지구 상현동 263번지 미래프라자 101,102호","category":"유통업 영리 - 슈퍼마켓"},{"name":"씨엠아이영재해법수학학원","tel":"031-266-2668","addr":"경기도 용인시 수지구 상현동 263번지 미래프라자 405호","category":"학원 - 보습학원"},{"name":"아르떼유미술학원","tel":"031-261-7677","addr":"경기도 용인시 수지구 상현동 263번지 미래프라자 2층 206호","category":"학원 - 예·체능계학원"},{"name":"옛날통닭","tel":"","addr":"경기도 용인시 수지구 상현동 263번지 미래프라자 1층 112호","category":"일반휴게음식 - 스넥"},{"name":"온네일","tel":"","addr":"경기도 용인시 수지구 상현동 263번지 미래프라자 113호","category":"보건위생 - 피부미용실"},{"name":"유명학원","tel":"031-265-1117","addr":"경기도 용인시 수지구 상현동 263번지 미래프라자 405호","category":"학원 - 보습학원"},{"name":"쭈가돈가","tel":"031-263-9245","addr":"경기도 용인시 수지구 상현동 263외6필지미래프라자206","category":"일반휴게음식 - 일반한식"},{"name":"창언어논술학원","tel":"031-262-9101","addr":"경기도 용인시 수지구 상현동 263번지 미래프라자 503호","category":"학원 - 보습학원"},{"name":"카르티요가","tel":"031-265-1157","addr":"경기도 용인시 수지구 상현동 263번지 미래프라자 3층 301호","category":"레저업소 - 헬스클럽"},{"name":"코나PC방","tel":"070-8816-1183","addr":"경기도 용인시 수지구 상현동 263번지 미래프라자 304호 305호","category":"레저업소 - 기타레져업소"},{"name":"헤어담쟁이","tel":"031-264-7849","addr":"경기도 용인시 수지구 상현동 263번지 미래프라자 108호","category":"보건위생 - 미용원"}]},{"lat":"37.30677253","long":"127.0812089","items":[{"name":"JK 영어","tel":"","addr":"경기도 용인시 수지구 상현동 842번지 상현마을수지센트럴아이파크 111동 1401호","category":"학원 - 기타 교육기관"}]},{"lat":"37.297766932","long":"127.07385729","items":[{"name":"JK영어교습소","tel":"031-264-9030","addr":"경기도 용인시 수지구 상현동 1130번지 301호","category":"학원 - 외국어학원"},{"name":"광교독서실","tel":"031-217-0577","addr":"경기도 용인시 수지구 상현동 1130번지 501호,502호,503호","category":"학원 - 독서실"},{"name":"설아할인마트 상현점","tel":"031-211-5987","addr":"경기도 용인시 수지구 상현동 1130번지 106호","category":"음료식품 - 기타음료식품"},{"name":"신교동짬뽕 활어회초밥","tel":"031-217-7667","addr":"경기도 용인시 수지구 상현동 1130번지 101-102호","category":"일반휴게음식 - 일반한식"},{"name":"온가족 족발","tel":"031-261-5092","addr":"경기도 용인시 수지구 상현동 1130번지 위너스타워 105호","category":"일반휴게음식 - 일반한식"},{"name":"용인대광교태권도","tel":"031-212-6077","addr":"경기도 용인시 수지구 상현동 1130번지 403호~404호","category":"학원 - 예·체능계학원"},{"name":"줄리어드광교음악학원","tel":"031-212-2266","addr":"경기도 용인시 수지구 상현동 1130번지 위너스타워 302호","category":"학원 - 예·체능계학원"},{"name":"화사랑화로구이","tel":"031-215-5677","addr":"경기도 용인시 수지구 상현동 1130번지 201호","category":"일반휴게음식 - 일반한식"}]},{"lat":"37.297321225","long":"127.08055623","items":[{"name":"JK헤어브띠끄(JK Hair Boutiqe)","tel":"031-211-5452","addr":"경기도 용인시 수지구 상현동 1158-6번지","category":"보건위생 - 미용원"}]},{"lat":"37.301200395","long":"127.07291308","items":[{"name":"JQ엔터테인먼트","tel":"031-263-6404","addr":"경기도 용인시 수지구 상현동 853번지","category":"용역 서비스 - 종합용역"}]},{"lat":"37.312732773","long":"127.08776916","items":[{"name":"LG생활건강 오휘 상현점","tel":"031-261-8668","addr":"경기도 용인시 수지구 상현동 12번지 토마토프라자 502호","category":"보건위생 - 화장품"},{"name":"미소찬방","tel":"031-265-6376","addr":"경기도 용인시 수지구 상현동 12번지 토마토프라자 105호","category":"음료식품 - 기타음료식품"},{"name":"삼성영어주니어학원","tel":"031-272-3305","addr":"경기도 용인시 수지구 상현동 12번지 토마토프라자 301호","category":"학원 - 보습학원"},{"name":"수지늘푸른독서실","tel":"031-262-1934","addr":"경기도 용인시 수지구 상현동 12번지 토마토프라자 303호","category":"학원 - 독서실"},{"name":"스타25시","tel":"031-262-2752","addr":"경기도 용인시 수지구 상현동 12번지","category":"유통업 영리 - 슈퍼마켓"},{"name":"아트피플","tel":"031-266-1635","addr":"경기도 용인시 수지구 상현동 12번지 토마토프라자 201호","category":"문화.취미 - 민예·공예품"},{"name":"에프티케이잉글리쉬엠베스트학원","tel":"031-264-2340","addr":"경기도 용인시 수지구 상현동 12번지 토마토프라자 6층 601호","category":"학원 - 외국어학원"},{"name":"엠베스트SE학원","tel":"031-264-2340","addr":"경기도 용인시 수지구 상현동 12번지 토마토프라자 601호","category":"학원 - 보습학원"},{"name":"영어독서클럽(수지캠퍼스)학원","tel":"031-264-0575","addr":"경기도 용인시 수지구 상현동 12번지 토마토프라자 4층","category":"회원제형태 - 학원"},{"name":"오울바이크","tel":"02-1577-0000","addr":"경기도 용인시 수지구 상현동 12번지 토마토프라자 1층 107호","category":"레져용품 - 스포츠·레져용품"},{"name":"왁자지껄 상현점","tel":"031-262-7354","addr":"경기도 용인시 수지구 상현동 12번지 토마토프라자 109,110호","category":"일반휴게음식 - 일반한식"},{"name":"용인대수지상현태권도","tel":"031-264-6460","addr":"경기도 용인시 수지구 상현동 12번지 토마토프라자 503호","category":"학원 - 예·체능계학원"},{"name":"차이","tel":"031-257-8706","addr":"경기도 용인시 수지구 상현동 12번지 토마토프라자 104호","category":"의류 - 정장"},{"name":"청담동봉수비어&꼬치","tel":"031-898-1240","addr":"경기도 용인시 수지구 상현동 12번지 토마토프라자 106호","category":"일반휴게음식 - 주점"},{"name":"치킨만세 (상현점)","tel":"031-261-9981","addr":"경기도 용인시 수지구 상현동 12번지 토마토프라자 101호","category":"일반휴게음식 - 스넥"},{"name":"토마토골프존파크","tel":"031-276-0756","addr":"경기도 용인시 수지구 상현동 12번지 토마토프라자 403호","category":"회원제형태 - 레져업소"},{"name":"파리바게트 (수지롯데점)","tel":"02-0000-0000","addr":"경기도 용인시 수지구 상현동 12번지 111,112호","category":"음료식품 - 제과점"},{"name":"헤어블란서","tel":"031-265-0415","addr":"경기도 용인시 수지구 상현동 12번지 토마토프라자 204호","category":"보건위생 - 미용원"}]},{"lat":"37.306761029","long":"127.0848861","items":[{"name":"Lucid K (루시드 케이)","tel":"031-262-0426","addr":"경기도 용인시 수지구 상현동 254-14번지 외6필지원희캐슬프라자 B동 125호","category":"레져용품 - 스포츠·레져용품"},{"name":"OK정보통신(수지)","tel":"031-276-1982","addr":"경기도 용인시 수지구 상현동 254-14번지 원희케슬프라자 B동 115호","category":"사무통신 - 통신기기"},{"name":"가또마들렌","tel":"031-265-2785","addr":"경기도 용인시 수지구 상현동 254-3원희캐슬프라자B동1층10호","category":"음료식품 - 제과점"},{"name":"고운비한의원","tel":"031-263-8878","addr":"경기도 용인시 수지구 상현동 254-14번지 원희캐슬프라자 B동 305호","category":"의원 - 한의원"},{"name":"대한예수교장로회수지제자교회","tel":"031-266-0633","addr":"경기도 용인시 수지구 상현동 254-14번지 원희캐술 B동 4층","category":"기타 - 비영리/대상"},{"name":"더루츠실용음악학원","tel":"031-266-6531","addr":"경기도 용인시 수지구 상현동 254-14번지 원희캐슬프라자 B동 6층 6호","category":"학원 - 예·체능계학원"},{"name":"더룩","tel":"031-263-8134","addr":"경기도 용인시 수지구 상현동 254-3원희캐슬프라자A-110,A-111","category":"보건위생 - 안경"},{"name":"도그캐슬","tel":"031-263-0322","addr":"경기도 용인시 수지구 상현동 254-14번지 원희캐슬프라자 B동 121호","category":"문화.취미 - 애완동물"},{"name":"레마수학학원","tel":"031-264-1241","addr":"경기도 용인시 수지구 상현동 254-14번지 원희캐슬프라자 B동 504호","category":"회원제형태 - 학원"},{"name":"본죽(상현점)","tel":"031-261-8672","addr":"경기도 용인시 수지구 상현동 254-14번지 원희캐슬프라자 B동 109호","category":"일반휴게음식 - 일반한식"},{"name":"블럭팡용인수지점","tel":"070-8762-1334","addr":"경기도 용인시 수지구 상현동 254-14번지 원희캐슬프라자 B동 6층 605호","category":"서적문구 - 완구점"},{"name":"비에이블스터디카페 수지상현센터","tel":"02-854-8255","addr":"경기도 용인시 수지구 상현동 254-14번지 원희캐슬프라자 B동 604호","category":"용역 서비스 - 사무서비스"},{"name":"비와이씨(BYC) 상현점","tel":"031-266-2662","addr":"경기도 용인시 수지구 상현동 254-14번지 원희캐슬프라자 B동 106호,107호","category":"의류 - 내의판매"},{"name":"상현검도관(대한검도)","tel":"031-264-0520","addr":"경기도 용인시 수지구 상현동 254-14번지 원희캐슬프라자 B동 501호","category":"학원 - 예·체능계학원"},{"name":"상현정형외과","tel":"031-272-7775","addr":"경기도 용인시 수지구 상현동 254-14번지 원희캐슬프라자 B동 301호","category":"의원 - 의원"},{"name":"서울은마콩고물꽈배기","tel":"070-7614-3579","addr":"경기도 용인시 수지구 상현동 254-14번지 원희캐슬프라자 B동 115호","category":"일반휴게음식 - 일반한식"},{"name":"셰익스피어에세이어학원","tel":"031-896-3545","addr":"경기도 용인시 수지구 상현동 254-14번지 원희캐슬프라자 B동 602호","category":"학원 - 외국어학원"},{"name":"아리따움상현점","tel":"031-265-1447","addr":"경기도 용인시 수지구 상현동 254-14번지 원희캐슬프라자 B동 112호","category":"보건위생 - 화장품"},{"name":"아미(Ami)","tel":"031-592-7623","addr":"경기도 용인시 수지구 상현동 254-14번지 원희캐슬프라자 B동 118호","category":"의류 - 정장"},{"name":"아크로폴리스 PC방","tel":"070-8816-1183","addr":"경기도 용인시 수지구 상현동 254-14번지 원희캐슬프라자 B동 306호","category":"레저업소 - 기타레져업소"},{"name":"에뛰드하우스상현점","tel":"031-276-1766","addr":"경기도 용인시 수지구 상현동 254-14번지 원희캐슬프라자 B동 105호","category":"보건위생 - 화장품"},{"name":"엘샤론 탈모두피천연염색 전문점","tel":"031-211-6707","addr":"경기도 용인시 수지구 상현동 254-14번지 원희캐슬프라자 B동 126호","category":"보건위생 - 미용원"},{"name":"옛날통닭","tel":"","addr":"경기도 용인시 수지구 상현동 254-14번지 원희캐슬프라자 B동 101호","category":"일반휴게음식 - 스넥"},{"name":"올리브용인수지점","tel":"031-272-9944","addr":"경기도 용인시 수지구 상현동 254-14번지 원희캐슬프라자 B동 119호","category":"보건위생 - 화장품"},{"name":"요거프레소 상현원희캐슬점","tel":"","addr":"경기도 용인시 수지구 상현동 254-14번지 원희캐슬프라자 B동 1층 101호","category":"일반휴게음식 - 서양음식"},{"name":"용인대백호태권도장","tel":"031-261-7280","addr":"경기도 용인시 수지구 상현동 254-14번지 원희캐슬프라자 B동 601호","category":"학원 - 예·체능계학원"},{"name":"용인대백호태권도장","tel":"031-263-7426","addr":"경기도 용인시 수지구 상현동 254-14번지 원희캐슬프라자 B동 601호","category":"학원 - 예·체능계학원"},{"name":"우리네코다리(상현분점)","tel":"031-265-8060","addr":"경기도 용인시 수지구 상현동 254-14번지 원희캐슬프라자 B동 202호","category":"일반휴게음식 - 일반한식"},{"name":"원모아(화장품대학)","tel":"031-272-5631","addr":"경기도 용인시 수지구 상현동 254-14번지 외6필지원희캐슬프라자 B동 114호","category":"보건위생 - 화장품"},{"name":"인의한의원","tel":"031-261-7511","addr":"경기도 용인시 수지구 상현동 254-14번지 원희캐슬프라자 B동 303호","category":"의원 - 한의원"},{"name":"자연약국","tel":"031-263-5218","addr":"경기도 용인시 수지구 상현동 254-14번지 원희캐슬프라자 B동 304호","category":"약국 - 약국"},{"name":"정쌤수학교습소","tel":"031-241-8100","addr":"경기도 용인시 수지구 상현동 254-14번지 원희캐슬프라자 B동 125호","category":"학원 - 보습학원"},{"name":"주식회사 이상네트웍스","tel":"031-261-3195","addr":"경기도 용인시 수지구 상현동 254-14번지 원희캐슬프라자 B동 115호","category":"사무통신 - 통신기기"},{"name":"참사랑치과의원","tel":"031-262-7528","addr":"경기도 용인시 수지구 상현동 254-14번지 원희캐슬프라자 B동 404호","category":"의원 - 치과의원"},{"name":"카툰명가(수지점)","tel":"","addr":"경기도 용인시 수지구 상현동 254-14번지 원희캐슬프라자 B동 205호","category":"레저업소 - 기타레져업소"},{"name":"캡스톤캠퍼스 상현점","tel":"031-1111-1111","addr":"경기도 용인시 수지구 상현동 254-14번지 원희캐슬프라자 B동 2층 201호","category":"용역 서비스 - 사무서비스"},{"name":"커브스상현클럽","tel":"031-264-7030","addr":"경기도 용인시 수지구 상현동 254-14번지 원희캐슬프라자 B동 503호","category":"레저업소 - 헬스클럽"},{"name":"헤어라이","tel":"031-896-6116","addr":"경기도 용인시 수지구 상현동 254-14번지 원희캐슬 B동 204-1호","category":"보건위생 - 미용원"},{"name":"헤어프레소","tel":"031-262-0103","addr":"경기도 용인시 수지구 상현동 254-14번지 원희캐슬프라자 B동 124호","category":"보건위생 - 미용원"},{"name":"휘슬어학원","tel":"031-265-0542","addr":"경기도 용인시 수지구 상현동 254-14번지 원희캐슬프라자 B동 505호","category":"학원 - 외국어학원"}]},{"lat":"37.30723578","long":"127.07535513","items":[{"name":"T-스테이션(서수지점)","tel":"031-261-4848","addr":"경기도 용인시 수지구 상현동 193-18번지","category":"자동차정비 유지 - 자동차정비"}]},{"lat":"37.313406038","long":"127.09118799","items":[{"name":"YOUNG","tel":"070-7694-0811","addr":"경기도 용인시 수지구 상현동 30번지 성원상떼빌아파트","category":"회원제형태 - 기타1"},{"name":"메이","tel":"","addr":"경기도 용인시 수지구 상현동 30번지 성원상떼빌아파트","category":"문화.취미 - 화원"}]},{"lat":"37.300017008","long":"127.07788593","items":[{"name":"iBT잉글리쉬PAL","tel":"031-261-3380","addr":"경기도 용인시 수지구 상현동 866번지 성원 상가 201호","category":"학원 - 보습학원"},{"name":"성원인테리어","tel":"031-264-5003","addr":"경기도 용인시 수지구 상현동 866번지 상가동 1층 112,113호","category":"건축자재 - 인테리어전문"},{"name":"안심뜰미트","tel":"031-266-2214","addr":"경기도 용인시 수지구 상현동 866번지 성원상떼빌 상가동 105호","category":"음료식품 - 정육점"}]},{"lat":"37.309929544","long":"127.07583148","items":[{"name":"가람바지락칼국수","tel":"031-266-0300","addr":"경기도 용인시 수지구 상현동 106-8번지 힐프라자","category":"일반휴게음식 - 일반한식"},{"name":"공치는아이","tel":"031-266-0722","addr":"경기도 용인시 수지구 상현동 106-8번지 힐프라자 B01호","category":"회원제형태 - 레져업소"},{"name":"머리하는날","tel":"070-7722-1098","addr":"경기도 용인시 수지구 상현동 106-8번지 힐프라자 301호","category":"보건위생 - 미용원"},{"name":"수원통큰숯불화로갈비","tel":"031-262-2031","addr":"경기도 용인시 수지구 상현동 106-8번지 힐프라자 102,103,104호","category":"일반휴게음식 - 일반한식"},{"name":"수지동물의료원","tel":"031-365-3375","addr":"경기도 용인시 수지구 상현동 106-8번지 힐프라자 101호","category":"기타의료기관 - 동물병원"},{"name":"수지본내과의원","tel":"031-261-6888","addr":"경기도 용인시 수지구 상현동 106-8번지 힐프라자 201호","category":"의원 - 의원"},{"name":"수지펫","tel":"031-896-8880","addr":"경기도 용인시 수지구 상현동 106-8번지 힐프라자 101호","category":"문화.취미 - 애완동물"},{"name":"케이앤비체육관","tel":"031-266-4178","addr":"경기도 용인시 수지구 상현동 106-8번지 힐프라자 201호","category":"레저업소 - 헬스클럽"},{"name":"폰이야기","tel":"","addr":"경기도 용인시 수지구 상현동 106-8번지 힐프라자 106호","category":"사무통신 - 통신기기"},{"name":"헤리티지 디자인","tel":"031-334-0398","addr":"경기도 용인시 수지구 상현동 106-8번지 힐프라자 105호","category":"가구 - 일반가구"},{"name":"힐링엔젤스 수지점","tel":"031-889-9400","addr":"경기도 용인시 수지구 상현동 106-8번지 힐프라자 302호","category":"신변잡화 - 기타잡화"}]},{"lat":"37.296733304","long":"127.06946906","items":[{"name":"가비국수","tel":"031-215-8989","addr":"경기도 용인시 수지구 상현동 1131-7번지 블루스퀘어 107호","category":"일반휴게음식 - 일반한식"},{"name":"광교기독문화센터","tel":"070-7624-4644","addr":"경기도 용인시 수지구 상현동 1131-7번지 602호","category":"문화.취미 - 문화취미기타"},{"name":"광교당구장","tel":"031-217-0852","addr":"경기도 용인시 수지구 상현동 1131-7번지 803호,804호","category":"레저업소 - 당 구 장"},{"name":"광교한우","tel":"031-269-6297","addr":"경기도 용인시 수지구 상현동 1131-7번지 108호","category":"일반휴게음식 - 일반한식"},{"name":"라이또피씨 상현점","tel":"070-7615-8516","addr":"경기도 용인시 수지구 상현동 1131-7번지 블루스퀘어 303,304호","category":"레저업소 - 기타레져업소"},{"name":"마음제곱 발달센터","tel":"031-548-1805","addr":"경기도 용인시 수지구 상현동 1131-7번지 404호","category":"보건위생 - 기타대인서비스"},{"name":"무한도전노래연습장","tel":"031-214-8230","addr":"경기도 용인시 수지구 상현동 1131-7번지 블루스퀘어 301호","category":"레저업소 - 노 래 방"},{"name":"밀겨울 (상현역점)","tel":"031-893-6500","addr":"경기도 용인시 수지구 상현동 1131-7번지","category":"일반휴게음식 - 스넥"},{"name":"불닭발동대문엽기떡볶이 광교상현역점","tel":"031-212-8592","addr":"경기도 용인시 수지구 상현동 1131-7번지 106호","category":"일반휴게음식 - 일반한식"},{"name":"세이","tel":"031-217-0982","addr":"경기도 용인시 수지구 상현동 1131-7번지 5층 502호","category":"용역 서비스 - 사무서비스"},{"name":"신대참숯닭갈비&꼼장어","tel":"031-214-7288","addr":"경기도 용인시 수지구 상현동 1131-7번지 광교지구블루스퀘어 109호","category":"일반휴게음식 - 일반한식"},{"name":"씨유광교역점","tel":"031-216-9193","addr":"경기도 용인시 수지구 상현동 1131-7번지 블루스퀘어 1층 105호","category":"유통업 영리 - 편 의 점"},{"name":"엘 한의원","tel":"031-214-9898","addr":"경기도 용인시 수지구 상현동 1131-7번지 블루스퀘어 1동 2층 203호","category":"의원 - 한의원"},{"name":"온더데스크광교상현독서실","tel":"031-217-0982","addr":"경기도 용인시 수지구 상현동 1131-7번지 광교지구블루스퀘어 5층 501호,502호","category":"학원 - 독서실"},{"name":"왕돈까스&왕냉면","tel":"031-215-1368","addr":"경기도 용인시 수지구 상현동 1131-7번지 광교지구블루스퀘어 1층 103호","category":"일반휴게음식 - 일반한식"},{"name":"웃는아이더설쌤댄스학원","tel":"031-217-0778","addr":"경기도 용인시 수지구 상현동 1131-7번지 601호","category":"학원 - 예·체능계학원"},{"name":"웰동물병원","tel":"031-213-7522","addr":"경기도 용인시 수지구 상현동 1131-7번지 광교지구블루스퀘어 101호","category":"기타의료기관 - 동물병원"},{"name":"유앤아이 테니스 아카데미","tel":"070-4174-1700","addr":"경기도 용인시 수지구 상현동 1131-7번지 블루스퀘어 7층","category":"레저업소 - 테니스장"},{"name":"음악상자피아노학원","tel":"031-215-6611","addr":"경기도 용인시 수지구 상현동 1131-7번지 광교지구블루스퀘어 603호 일부","category":"학원 - 보습학원"},{"name":"이지 재활의학과의원","tel":"031-548-1095","addr":"경기도 용인시 수지구 상현동 1131-7번지 401-403호","category":"의원 - 의원"},{"name":"주식회사여심좌훈","tel":"031-211-8838","addr":"경기도 용인시 수지구 상현동 1131-7번지 504호","category":"용역 서비스 - 사무서비스"},{"name":"특수목적코딩학원","tel":"031-216-1546","addr":"경기도 용인시 수지구 상현동 1131-7번지 602호","category":"학원 - 컴퓨터학원"},{"name":"황실궁","tel":"031-213-8253","addr":"경기도 용인시 수지구 상현동 1131-7번지 블루스퀘어 302호","category":"회원제형태 - 기타4"},{"name":"황실수","tel":"031-211-2683","addr":"경기도 용인시 수지구 상현동 1131-7번지 5층 503호","category":"보건위생 - 화장품"}]},{"lat":"37.301066979","long":"127.06991276","items":[{"name":"가야부띠끄","tel":"","addr":"경기도 용인시 수지구 상현동 1190-2번지 3층","category":"의류 - 정장"}]},{"lat":"37.296877935","long":"127.06863459","items":[{"name":"감성커피(광교상현역점)","tel":"031-213-0402","addr":"경기도 용인시 수지구 상현동 1117-7번지 드림타워 102호","category":"일반휴게음식 - 서양음식"},{"name":"광교노래방연습장","tel":"031-214-0999","addr":"경기도 용인시 수지구 상현동 1117-7번지 503호","category":"레저업소 - 노 래 방"},{"name":"광교미소모아내과의원","tel":"031-212-1475","addr":"경기도 용인시 수지구 상현동 1117-7번지 403호","category":"의원 - 의원"},{"name":"나브르","tel":"","addr":"경기도 용인시 수지구 상현동 1117-7번지 드림타워 405호","category":"문화.취미 - 문화취미기타"},{"name":"노블코스메틱","tel":"031-212-1470","addr":"경기도 용인시 수지구 상현동 1117-7번지 드림타워 402호","category":"보건위생 - 화장품"},{"name":"드림골프연습장","tel":"031-216-0772","addr":"경기도 용인시 수지구 상현동 1117-7번지 506-508호","category":"레저업소 - 골프연습장"},{"name":"라멘81번옥","tel":"031-2111-8659","addr":"경기도 용인시 수지구 상현동 1117-7번지 드림타워1 105호","category":"일반휴게음식 - 일식·회집"},{"name":"래래차이니즈","tel":"031-212-5633","addr":"경기도 용인시 수지구 상현동 1117-7번지 드림타워 108호 ,109,110호","category":"일반휴게음식 - 중국식"},{"name":"레나헤어(RENA hair)","tel":"031-214-3379","addr":"경기도 용인시 수지구 상현동 1117-7번지 드림타워 201호","category":"보건위생 - 미용원"},{"name":"법무법인 운율","tel":"031-548-1737","addr":"경기도 용인시 수지구 상현동 1117-7번지 드림타워 602호, 603호","category":"용역 서비스 - 법률회계서비스(법인)"},{"name":"법무법인 운율","tel":"031-548-1737","addr":"경기도 용인시 수지구 상현동 1117-7번지 드림타워 602호 603호","category":"용역 서비스 - 법률회계서비스(법인)"},{"name":"뷰티 시저스","tel":"02-3452-4456","addr":"경기도 용인시 수지구 상현동 1117-7번지 드림타워1 714-2호","category":"보건위생 - 미용재료"},{"name":"블루","tel":"031-214-7865","addr":"경기도 용인시 수지구 상현동 1117-7번지 3층","category":"일반휴게음식 - 일반한식"},{"name":"살롱드보떼","tel":"031-212-1179","addr":"경기도 용인시 수지구 상현동 1117-7번지 1층 101호","category":"보건위생 - 미용원"},{"name":"서민반찬","tel":"031-000-0000","addr":"경기도 용인시 수지구 상현동 1117-7번지 103호 일부","category":"음료식품 - 기타음료식품"},{"name":"세무법인 윤승 (분사무소)","tel":"","addr":"경기도 용인시 수지구 상현동 1117-7번지 5층 501호","category":"용역 서비스 - 법률회계서비스(법인)"},{"name":"슈퍼맘용인.수지.죽전지사","tel":"031-215-2254","addr":"경기도 용인시 수지구 상현동 1117-7번지 1동 7층 705호","category":"용역 서비스 - 종합용역"},{"name":"씨유광교드림타워점","tel":"031-217-8487","addr":"경기도 용인시 수지구 상현동 1117-7번지 드림타워제1동제1층제106호","category":"유통업 영리 - 편 의 점"},{"name":"엘오엘컴패니","tel":"031-216-6766","addr":"경기도 용인시 수지구 상현동 1117-7번지 101호","category":"일반휴게음식 - 서양음식"},{"name":"올리브유압","tel":"031-213-4018","addr":"경기도 용인시 수지구 상현동 1117-7번지 드림타워 714-1호","category":"기타 - 기계공구"},{"name":"웃음꽃피는치과의원","tel":"031-216-2872","addr":"경기도 용인시 수지구 상현동 1117-7번지 드림타워 3층 302,303호","category":"의원 - 치과의원"},{"name":"전주한옥골","tel":"031-214-6333","addr":"경기도 용인시 수지구 상현동 1117-7번지 드림타워 104호","category":"일반휴게음식 - 일반한식"},{"name":"크린토피아 광교역점","tel":"031-215-9975","addr":"경기도 용인시 수지구 상현동 1117-7번지 드림타워 103호","category":"수리서비스 - 세탁소"},{"name":"하다코참치","tel":"031-217-9595","addr":"경기도 용인시 수지구 상현동 1117-7번지 202호","category":"일반휴게음식 - 일식·회집"}]},{"lat":"37.307094773","long":"127.08435631","items":[{"name":"강근홍영어학원","tel":"051-262-0985","addr":"경기도 용인시 수지구 상현동 254-9번지 나래빌딩 5층 2호","category":"학원 - 보습학원"},{"name":"롯데리아용인상현점","tel":"031-261-9193","addr":"경기도 용인시 수지구 상현동 254-9번지 나래빌딩 104~106호","category":"일반휴게음식 - 서양음식"},{"name":"루","tel":"031-263-3063","addr":"경기도 용인시 수지구 상현동 254-9번지 나래빌딩 103호","category":"의류 - 정장"},{"name":"삼신유통","tel":"031-212-3542","addr":"경기도 용인시 수지구 상현동 254-9번지 나래빌딩 1층 2호","category":"의류 - 내의판매"},{"name":"온더데스크 스터디 센터","tel":"031-264-0909","addr":"경기도 용인시 수지구 상현동 254-9번지 나래빌딩 4층 2호","category":"용역 서비스 - 사무서비스"},{"name":"온더데스크수지상현독서실","tel":"031-264-0909","addr":"경기도 용인시 수지구 상현동 254-9번지 나래빌딩 4층","category":"학원 - 독서실"},{"name":"이레한의원","tel":"031-276-0017","addr":"경기도 용인시 수지구 상현동 254-9번지 나래빌딩 6층","category":"의원 - 한의원"},{"name":"홈스토리","tel":"031-897-5815","addr":"경기도 용인시 수지구 상현동 254-9번지 나래빌딩 1층 2호","category":"건축자재 - 인테리어전문"}]},{"lat":"37.298066616","long":"127.06983114","items":[{"name":"강현학원","tel":"031-213-2555","addr":"경기도 용인시 수지구 상현동 1131-1번지 킴앤코시티하임빌딩 503호","category":"학원 - 보습학원"},{"name":"광교약국","tel":"031-212-6615","addr":"경기도 용인시 수지구 상현동 1131-1번지 광교씨티하임 102호","category":"약국 - 약국"},{"name":"김씨도마","tel":"031-214-8266","addr":"경기도 용인시 수지구 상현동 1131-1번지 킴앤코씨티하임 108호","category":"일반휴게음식 - 일반한식"},{"name":"더 모스트","tel":"031-214-3003","addr":"경기도 용인시 수지구 상현동 1131-1번지 601,602호","category":"레저업소 - 스크린골프"},{"name":"법무사정재훈사무소","tel":"031-217-2547","addr":"경기도 용인시 수지구 상현동 1131-1번지 킴앤코시티하임 603호","category":"용역 서비스 - 법률회계서비스(개인)"},{"name":"봉구스밥버거광교역점","tel":"031-213-5909","addr":"경기도 용인시 수지구 상현동 1131-1번지 킴앤코시티하임 109호","category":"일반휴게음식 - 스넥"},{"name":"빠세빠세상현역점","tel":"031-211-9707","addr":"경기도 용인시 수지구 상현동 1131-1번지 킴앤코시타하임1 107호","category":"일반휴게음식 - 스넥"},{"name":"서울S치과","tel":"031-889-2875","addr":"경기도 용인시 수지구 상현동 1131-1번지 킴앤코시티하임 402호","category":"의원 - 치과의원"},{"name":"선우가족놀이치료센타","tel":"031-216-7709","addr":"경기도 용인시 수지구 상현동 1131-1번지 킴앤코시티하임1 403호","category":"보건위생 - 기타대인서비스"},{"name":"송한의원","tel":"031-214-3356","addr":"경기도 용인시 수지구 상현동 1131-1번지 킴엔코시티하임 401호","category":"의원 - 한의원"},{"name":"수지햇살약국","tel":"031-217-0990","addr":"경기도 용인시 수지구 상현동 1131-1번지","category":"약국 - 약국"},{"name":"스핀애니만화미술학원","tel":"031-215-5223","addr":"경기도 용인시 수지구 상현동 1131-1번지 501호","category":"학원 - 예·체능계학원"},{"name":"신김밥천국2900","tel":"031-213-4499","addr":"경기도 용인시 수지구 상현동 1131-1번지 1층 106호","category":"일반휴게음식 - 일반한식"},{"name":"안경매니저광교점","tel":"031-265-2400","addr":"경기도 용인시 수지구 상현동 1131-1번지 킴앤코시티하임I 104,105호","category":"보건위생 - 안경"},{"name":"엔비","tel":"031-548-0575","addr":"경기도 용인시 수지구 상현동 1131-1번지 302호","category":"보건위생 - 화장품"},{"name":"와","tel":"","addr":"경기도 용인시 수지구 상현동 1131-1번지 205,206호","category":"보건위생 - 화장품"},{"name":"이니스프리광교점","tel":"031-214-6377","addr":"경기도 용인시 수지구 상현동 502-13 킴앤코씨티하임 103","category":"보건위생 - 화장품"}]},{"lat":"37.297790052","long":"127.08010557","items":[{"name":"갱스터도그","tel":"031-212-5077","addr":"경기도 용인시 수지구 상현동 1157-1번지 1층","category":"문화.취미 - 애완동물"},{"name":"갱스터독(광교점)","tel":"031-212-5077","addr":"경기도 용인시 수지구 상현동 1157-1번지 1층","category":"문화.취미 - 애완동물"}]},{"lat":"37.297676361","long":"127.07463541","items":[{"name":"경희 국가대표 태권도장","tel":"031-215-5211","addr":"경기도 용인시 수지구 상현동 1130-2번지 신우프파자 4층 401호,402호","category":"학원 - 예·체능계학원"},{"name":"광교 호수 동물병원","tel":"031-212-7515","addr":"경기도 용인시 수지구 상현동 1130-2번지 신우프라자 102호 103호","category":"기타의료기관 - 동물병원"},{"name":"광교바리스타학원","tel":"031-548-1340","addr":"경기도 용인시 수지구 상현동 1130-2번지 503호","category":"학원 - 기능학원"},{"name":"광교쇼팽음악학원","tel":"031-217-0835","addr":"경기도 용인시 수지구 상현동 1130-2번지 신우프라자 1동 4층 403호","category":"학원 - 예·체능계학원"},{"name":"나미가광교","tel":"031-265-7114","addr":"경기도 용인시 수지구 상현동 1130-2번지 신우프라자 101호","category":"일반휴게음식 - 일반한식"},{"name":"또봉이통닭 광교마을점","tel":"031-216-2169","addr":"경기도 용인시 수지구 상현동 1130-2번지 1층 108호","category":"일반휴게음식 - 스넥"},{"name":"라온무용학원","tel":"031-212-1079","addr":"경기도 용인시 수지구 상현동 1130-2번지 신우프라자 203호","category":"학원 - 예·체능계학원"},{"name":"메이컬헤어","tel":"031-214-3139","addr":"경기도 용인시 수지구 상현동 1130-2번지 105호","category":"보건위생 - 미용원"},{"name":"브레드에비뉴85","tel":"031-224-1094","addr":"경기도 용인시 수지구 상현동 1130-2번지 신우프라자 106호","category":"음료식품 - 제과점"},{"name":"인디안별캠핑","tel":"031-211-2292","addr":"경기도 용인시 수지구 상현동 1130-2번지 105호일부,107호","category":"일반휴게음식 - 주점"},{"name":"제이바이올린첼로음악학원","tel":"","addr":"경기도 용인시 수지구 상현동 1130-2번지 501호","category":"학원 - 예·체능계학원"},{"name":"초이스쿨(COOL)학원","tel":"031-8019-9190","addr":"경기도 용인시 수지구 상현동 1130-2번지 1동 301호","category":"학원 - 보습학원"},{"name":"한국파워점핑줄넘기","tel":"","addr":"경기도 용인시 수지구 상현동 1130-2번지 신우프라자 201,202호","category":"학원 - 예·체능계학원"}]},{"lat":"37.298291827","long":"127.06991029","items":[{"name":"경희대한미태권도특공무술","tel":"031-276-8279","addr":"경기도 용인시 수지구 상현동 1131번지 803,804호","category":"학원 - 예·체능계학원"},{"name":"경희리뮤음악학원","tel":"031-214-2102","addr":"경기도 용인시 수지구 상현동 1131번지 8층 802호","category":"학원 - 예·체능계학원"},{"name":"광교수약국","tel":"031-215-7611","addr":"경기도 용인시 수지구 상현동 1131번지 303호","category":"약국 - 약국"},{"name":"광교한의원","tel":"031-217-7975","addr":"경기도 용인시 수지구 상현동 1131번지 701호","category":"의원 - 한의원"},{"name":"김병연소아청소년과","tel":"031-214-1600","addr":"경기도 용인시 수지구 상현동 504-5 (광교스타지빌딩302호)","category":"의원 - 의원"},{"name":"김유진정신건강의학과","tel":"031-213-1575","addr":"경기도 용인시 수지구 상현동 1131번지","category":"의원 - 의원"},{"name":"꾸떼드미엘(Gouter du miel)","tel":"031-215-8253","addr":"경기도 용인시 수지구 상현동 1131번지 광교스타지 109호","category":"음료식품 - 제과점"},{"name":"다그림미술교습소","tel":"031-214-2102","addr":"경기도 용인시 수지구 상현동 1131번지 일부 801호","category":"학원 - 예·체능계학원"},{"name":"다솜마음연구소","tel":"031-213-1575","addr":"경기도 용인시 수지구 상현동 1131번지 501호일부","category":"보건위생 - 기타대인서비스"},{"name":"두잉글리쉬학원","tel":"031-217-0141","addr":"경기도 용인시 수지구 상현동 1131번지 4층 403호","category":"학원 - 외국어학원"},{"name":"디팡 펫스토어","tel":"031-211-7424","addr":"경기도 용인시 수지구 상현동 1131번지 광교스타지 394호","category":"문화.취미 - 애완동물"},{"name":"밝은약국","tel":"031-217-8081","addr":"경기도 용인시 수지구 상현동 1131번지 503호","category":"약국 - 약국"},{"name":"블링블링","tel":"","addr":"경기도 용인시 수지구 상현동 1131번지 스타지빌딩 204호","category":"보건위생 - 미용원"},{"name":"생쥐코끼리","tel":"031-323-6016","addr":"경기도 용인시 수지구 상현동 1131번지 801호","category":"학원 - 기타 교육기관"},{"name":"서강학원","tel":"031-898-1597","addr":"경기도 용인시 수지구 상현동 1131번지 601호","category":"학원 - 보습학원"},{"name":"씨유수지광교스타지프라자점","tel":"031-216-6618","addr":"경기도 용인시 수지구 상현동 1131번지 1층 106호","category":"유통업 영리 - 편 의 점"},{"name":"에이스스크린골프","tel":"031-215-7773","addr":"경기도 용인시 수지구 상현동 1131번지 901호","category":"레저업소 - 스크린골프"},{"name":"연세스마트치과","tel":"031-217-5991","addr":"경기도 용인시 수지구 상현동 504-5번지 광교스타지빌딩 401호","category":"의원 - 치과의원"},{"name":"이남옥커피","tel":"031-202-5520","addr":"경기도 용인시 수지구 상현동 1131번지 광교스타지빌딩 110호","category":"일반휴게음식 - 스넥"},{"name":"이모네식당","tel":"031-217-1231","addr":"경기도 용인시 수지구 상현동 1131번지 505호 광교스타지","category":"일반휴게음식 - 일반한식"},{"name":"종로김밥","tel":"031-212-3720","addr":"경기도 용인시 수지구 상현동 1131번지 광교스타지빌딩 104호","category":"일반휴게음식 - 일반한식"},{"name":"파리바게트 (광교상현역점)","tel":"031-213-8204","addr":"경기도 용인시 수지구 상현동 1131번지 105호,504호","category":"음료식품 - 제과점"}]},{"lat":"37.307128349","long":"127.07421576","items":[{"name":"고구려대장간","tel":"","addr":"경기도 용인시 수지구 상현동 168-1번지 심곡마을현대프레미오아파트","category":"수리서비스 - 기타수리서비스"},{"name":"그레이스","tel":"031-635-2000","addr":"경기도 용인시 수지구 상현동 168-1번지 심곡마을현대프레미오아파트 101동 706호","category":"신변잡화 - 액세서리"}]},{"lat":"37.314038209","long":"127.08921458","items":[{"name":"고기리찹쌀순대","tel":"031-276-2766","addr":"경기도 용인시 수지구 상현동 5-14 서림빌딩 101-104호","category":"일반휴게음식 - 일반한식"},{"name":"에이치엔디주식회사","tel":"031-264-2277","addr":"경기도 용인시 수지구 상현동 5-14 4층","category":"주방용구 - 주방용구"}]},{"lat":"37.298767331","long":"127.07341836","items":[{"name":"고등어학원","tel":"","addr":"경기도 용인시 수지구 상현동 1127-1번지 402호","category":"학원 - 보습학원"},{"name":"이룸","tel":"031-215-1357","addr":"경기도 용인시 수지구 상현동 1127-1번지 신영빌딩 301호","category":"일반휴게음식 - 서양음식"},{"name":"이룸인재학원","tel":"031-215-1003","addr":"경기도 용인시 수지구 상현동 1127-1번지 1동 4층 401호","category":"학원 - 보습학원"},{"name":"이룸프리미엄독서실","tel":"031-215-1357","addr":"경기도 용인시 수지구 상현동 1127-1번지 3층 302호","category":"학원 - 독서실"},{"name":"이마스터영어교습소","tel":"031-896-3137","addr":"경기도 용인시 수지구 상현동 1127-1번지 1동 5층","category":"학원 - 외국어학원"},{"name":"청년갑우동","tel":"031-211-5001","addr":"경기도 용인시 수지구 상현동 1127-1번지 1층 102호","category":"일반휴게음식 - 일반한식"},{"name":"코다리밥상 광교점","tel":"031-211-9255","addr":"경기도 용인시 수지구 상현동 1127-1번지 신영빌딩 201호","category":"일반휴게음식 - 일반한식"},{"name":"토마솔리","tel":"031-266-5267","addr":"경기도 용인시 수지구 상현동 1127-1번지 신영빌딩 101호","category":"서적문구 - 문구용품"}]},{"lat":"37.31403879","long":"127.08841364","items":[{"name":"고려가정의원","tel":"031-264-1504","addr":"경기도 용인시 수지구 상현동 3-4번지 성산빌딩 401호","category":"의원 - 의원"},{"name":"교촌치킨상현점","tel":"031-276-1566","addr":"경기도 용인시 수지구 상현동 3-4번지 성산빌딩 104호","category":"일반휴게음식 - 주점"},{"name":"막창이네","tel":"031-276-7703","addr":"경기도 용인시 수지구 상현동 3-4번지 성산빌딩 106호","category":"일반휴게음식 - 일반한식"},{"name":"명인참치","tel":"031-266-3792","addr":"경기도 용인시 수지구 상현동 3-4번지 성산빌딩 103호","category":"일반휴게음식 - 일식·회집"},{"name":"브이아이피 짐(VIP GYM)","tel":"","addr":"경기도 용인시 수지구 상현동 3-4번지 성산빌딩 501호","category":"레저업소 - 헬스클럽"},{"name":"새차만들기","tel":"031-262-6161","addr":"경기도 용인시 수지구 상현동 3-4번지 성산빌딩 104호","category":"자동차정비 유지 - 자동차정비"},{"name":"스마트당구클럽","tel":"02-265-1080","addr":"경기도 용인시 수지구 상현동 3-4번지 성산빌딩 301,302호","category":"레저업소 - 당 구 장"},{"name":"에프엠팩토리","tel":"02-2244-6208","addr":"경기도 용인시 수지구 상현동 3-4번지 성산빌딩 105호","category":"회원제형태 - 기타4"},{"name":"재일약국","tel":"031-265-5120","addr":"경기도 용인시 수지구 상현동 3-4번지 성산빌딩 101호","category":"약국 - 약국"},{"name":"콘서트노래연습장","tel":"031-896-2001","addr":"경기도 용인시 수지구 상현동 3-4번지 성산빌딩 502호 503호","category":"레저업소 - 노 래 방"},{"name":"화로닭발","tel":"031-272-4799","addr":"경기도 용인시 수지구 상현동 3-4번지 성산빌딩 102호","category":"일반휴게음식 - 주점"}]},{"lat":"37.297373741","long":"127.06819516","items":[{"name":"고베규카츠 광교점","tel":"031-216-1224","addr":"경기도 용인시 수지구 상현동 1116-3번지 B동 208호,209호","category":"일반휴게음식 - 일식·회집"},{"name":"김영희동태찜 광교점","tel":"031-211-3177","addr":"경기도 용인시 수지구 상현동 1116-3번지 B동 204호","category":"일반휴게음식 - 일반한식"},{"name":"리즈네일(Lee's nail)","tel":"","addr":"경기도 용인시 수지구 상현동 1116-3번지 B동 109호","category":"보건위생 - 피부미용실"},{"name":"뷰티호텔(BEAUTY HOTEL)","tel":"031-714-6993","addr":"경기도 용인시 수지구 상현동 1116-3번지 광교푸르지오시티 B동 105호","category":"보건위생 - 화장품"},{"name":"수식당","tel":"031-216-3222","addr":"경기도 용인시 수지구 상현동 1116-3번지 광교2차푸르지오 B동 103호","category":"일반휴게음식 - 일반한식"},{"name":"이화수 광교점","tel":"031-216-3008","addr":"경기도 용인시 수지구 상현동 1116-3번지 B동 111,112,113호","category":"일반휴게음식 - 일반한식"},{"name":"참치피크닉","tel":"031-215-3737","addr":"경기도 용인시 수지구 상현동 1116-3번지 광교2차푸르지오시티 B동 1층 102호","category":"음료식품 - 농·축·수산품"},{"name":"충만치킨","tel":"031-217-7292","addr":"경기도 용인시 수지구 상현동 1116-3번지 B동 1층 101호,117호","category":"일반휴게음식 - 일반한식"},{"name":"팥이랑 밀이랑","tel":"031-000-0000","addr":"경기도 용인시 수지구 상현동 1116-3번지 B동 110호","category":"일반휴게음식 - 일반한식"},{"name":"포메인상현역점","tel":"031-212-2468","addr":"경기도 용인시 수지구 상현동 1116-3번지 비종 비동 206,207","category":"일반휴게음식 - 일반한식"},{"name":"함흥면옥생불고기","tel":"","addr":"경기도 용인시 수지구 상현동 1116-3번지 B동 114호,115호","category":"일반휴게음식 - 일반한식"}]},{"lat":"37.297264832","long":"127.06960487","items":[{"name":"고봉민김밥인(상현역점)","tel":"031-212-2221","addr":"경기도 용인시 수지구 상현동 1131-5번지 에스타워 104호","category":"일반휴게음식 - 스넥"},{"name":"광교간호학원","tel":"031-213-7535","addr":"경기도 용인시 수지구 상현동 1131-5번지","category":"회원제형태 - 학원"},{"name":"광교그린산부인과의원","tel":"031-211-0095","addr":"경기도 용인시 수지구 상현동 1131-5번지 광교에스타워 301호","category":"의원 - 의원"},{"name":"광교바른이치과","tel":"031-211-2885","addr":"경기도 용인시 수지구 상현동 1131-5번지 S타워 401호","category":"의원 - 치과의원"},{"name":"광교성음스즈키음악학원","tel":"031-211-6427","addr":"경기도 용인시 수지구 상현동 1131-5번지 404호","category":"학원 - 예·체능계학원"},{"name":"광교으뜸정형외과의원","tel":"031-216-8875","addr":"경기도 용인시 수지구 상현동 1131-5번지 (302~303호)","category":"의원 - 의원"},{"name":"광교푸른약국","tel":"031-891-1214","addr":"경기도 용인시 수지구 상현동 1131-5번지 에스타워 305호","category":"약국 - 약국"},{"name":"독한국어학원","tel":"031-895-6776","addr":"경기도 용인시 수지구 상현동 1131-5번지 4층 403호","category":"학원 - 보습학원"},{"name":"라임","tel":"031-1111-1111","addr":"경기도 용인시 수지구 상현동 1131-5번지 에스타워 101호","category":"의류 - 정장"},{"name":"리더스에듀디베이트논술학원","tel":"031-216-3152","addr":"경기도 용인시 수지구 상현동 1131-5번지 604호","category":"학원 - 보습학원"},{"name":"명문이화미술교습소","tel":"031-217-0224","addr":"경기도 용인시 수지구 상현동 1131-5번지 일부 광교에스타워 703호","category":"학원 - 예·체능계학원"},{"name":"미올한의원","tel":"031-217-2170","addr":"경기도 용인시 수지구 상현동 1131-5번지 202호","category":"의원 - 한의원"},{"name":"베스트보컬학원","tel":"031-215-7770","addr":"경기도 용인시 수지구 상현동 1131-5번지 광교에스타워 602호","category":"학원 - 예·체능계학원"},{"name":"보우(BOW)쥬얼리","tel":"","addr":"경기도 용인시 수지구 상현동 1131-5번지 105호","category":"신변잡화 - 액세서리"},{"name":"봉원당한의원","tel":"031-217-7579","addr":"경기도 용인시 수지구 상현동 1131-5번지 S타워 502호","category":"의원 - 한의원"},{"name":"어썸핏","tel":"031-217-9682","addr":"경기도 용인시 수지구 상현동 1131-5번지 902호","category":"레저업소 - 헬스클럽"},{"name":"에꼴드피아노음악교습소","tel":"031-214-7959","addr":"경기도 용인시 수지구 상현동 1131-5번지 S타워 703호","category":"학원 - 예·체능계학원"},{"name":"오마이빙수","tel":"","addr":"경기도 용인시 수지구 상현동 1131-5번지 108호","category":"일반휴게음식 - 서양음식"},{"name":"오징어나라(광교중앙로점)","tel":"031-216-9255","addr":"경기도 용인시 수지구 상현동 1131-5번지 에스타워 107호","category":"일반휴게음식 - 일반한식"},{"name":"울엄마설농탕","tel":"031-214-7688","addr":"경기도 용인시 수지구 상현동 1131-5번지 204호","category":"일반휴게음식 - 일반한식"},{"name":"이고집쭈꾸미(광교점)","tel":"031-215-0500","addr":"경기도 용인시 수지구 상현동 1131-5번지 106호","category":"일반휴게음식 - 일반한식"},{"name":"이앤피학원","tel":"031-215-1470","addr":"경기도 용인시 수지구 상현동 1131-5번지 702호","category":"학원 - 보습학원"},{"name":"주식회사 브엘세바 하임","tel":"031-234-7778","addr":"경기도 용인시 수지구 상현동 1131-5번지 901호","category":"건축자재 - 부동산 분양"},{"name":"주식회사 예울","tel":"02-1111-1111","addr":"경기도 용인시 수지구 상현동 1131-5번지 에스타워 103호","category":"사무통신 - 통신기기"},{"name":"초록마을 상현역점","tel":"031-214-6289","addr":"경기도 용인시 수지구 상현동 1131-5번지 에스타워 109호","category":"유통업 영리 - 슈퍼마켓"},{"name":"커피랑도서관 광교상현역점","tel":"","addr":"경기도 용인시 수지구 상현동 1131-5번지 201호","category":"용역 서비스 - 사무서비스"},{"name":"키즈스피치마스(MARS)학원","tel":"031-000-0000","addr":"경기도 용인시 수지구 상현동 1131-5번지 광교에스타워 801호","category":"학원 - 기타 교육기관"},{"name":"헤어아티스트엠","tel":"031-217-3456","addr":"경기도 용인시 수지구 상현동 1131-5번지 110호","category":"보건위생 - 미용원"},{"name":"헬로닥터원의원","tel":"031-213-1980","addr":"경기도 용인시 수지구 상현동 1131-5번지 405호","category":"의원 - 의원"},{"name":"힐링","tel":"070-9148-4082","addr":"경기도 용인시 수지구 상현동 1131-5번지 에스타워 601호","category":"보건위생 - 기타대인서비스"}]},{"lat":"37.308202898","long":"127.08454926","items":[{"name":"고향바다","tel":"","addr":"경기도 용인시 수지구 상현동 257-32번지 파크빌딩 105호","category":"음료식품 - 농·축·수산품"},{"name":"베이프하우스","tel":"031-889-6561","addr":"경기도 용인시 수지구 상현동 257-32번지 파크빌딩 104호","category":"기타 - 기타 전문점"},{"name":"생생돈까스","tel":"031-264-2558","addr":"경기도 용인시 수지구 상현동 257-32번지 파크빌딩 105호","category":"일반휴게음식 - 일반한식"},{"name":"어라운드스터디룸 상현점","tel":"","addr":"경기도 용인시 수지구 상현동 257-32번지 파크빌딩 외2필지 301,302호","category":"용역 서비스 - 사무서비스"},{"name":"종로 금은거래소","tel":"031-261-7367","addr":"경기도 용인시 수지구 상현동 257-32번지 파크빌딩 103호","category":"신변잡화 - 귀금속"},{"name":"토즈멤버십라운지 상현센터","tel":"031-261-0097","addr":"경기도 용인시 수지구 상현동 257-32번지 4층 401,402호","category":"용역 서비스 - 사무서비스"},{"name":"토즈스터디센터 상현독서실","tel":"031-261-0097","addr":"경기도 용인시 수지구 상현동 257-32번지 파크 상가 402호 일부","category":"학원 - 독서실"},{"name":"펄스온 생명공학","tel":"031-262-6672","addr":"경기도 용인시 수지구 상현동 257-32번지 파크빌딩 502호","category":"보건위생 - 의료용품"}]},{"lat":"37.297509505","long":"127.06707872","items":[{"name":"골드경남세탁소","tel":"031-217-7898","addr":"경기도 용인시 수지구 상현동 1115번지 광교경남아너스빌 상가동 104호","category":"수리서비스 - 세탁소"},{"name":"광교서울이비인후과의원","tel":"031-282-8200","addr":"경기도 용인시 수지구 상현동 1115번지 광교택지개발지구주23-1에스비타운 403호","category":"의원 - 의원"},{"name":"광교퀸즈헤나헤어샵","tel":"031-217-7285","addr":"경기도 용인시 수지구 상현동 1115번지 광교경남아너스빌 101호 상가","category":"보건위생 - 미용원"},{"name":"보석십자수 수재샵","tel":"","addr":"경기도 용인시 수지구 상현동 1115번지 광교경남아너스빌 상가동 102-1호","category":"직물 - 침구·수예점"}]},{"lat":"37.299040316","long":"127.06877181","items":[{"name":"골프선수촌","tel":"031-211-1888","addr":"경기도 용인시 수지구 상현동 1119번지 삼중프라자 401호","category":"레저업소 - 스크린골프"},{"name":"쁘띠프랑","tel":"031-211-1888","addr":"경기도 용인시 수지구 상현동 1119번지 삼중프라자 402호","category":"일반휴게음식 - 서양음식"},{"name":"큐타임당구클럽","tel":"031-211-7849","addr":"경기도 용인시 수지구 상현동 1119번지 삼중프라자 201호","category":"레저업소 - 당 구 장"},{"name":"키즈라인","tel":"031-215-7974","addr":"경기도 용인시 수지구 상현동 1119번지 삼중프라자 501호","category":"레저업소 - 기타레져업소"}]},{"lat":"37.30295624","long":"127.07483218","items":[{"name":"곰디자인","tel":"031-266-1113","addr":"경기도 용인시 수지구 상현동 354-1번지 상현프라자 B102호","category":"건축자재 - 인테리어전문"},{"name":"공간리뷰","tel":"031-262-0077","addr":"경기도 용인시 수지구 상현동 354-1번지 상현프라자 203동 204호","category":"건축자재 - 인테리어전문"},{"name":"노다지","tel":"031-276-7884","addr":"경기도 용인시 수지구 상현동 354-1번지 상현프라자 지하층 104호","category":"일반휴게음식 - 주점"},{"name":"사운드프로","tel":"031-0000-0000","addr":"경기도 용인시 수지구 상현동 354-1번지 상현프라자 3층 301호","category":"전기제품 - 가전제품"},{"name":"세명바이오텍","tel":"070-4100-3328","addr":"경기도 용인시 수지구 상현동 354-1번지 상현프라자 204호 , 제2층","category":"서적문구 - 과학기자재"},{"name":"수도권남부서비스","tel":"031-263-6650","addr":"경기도 용인시 수지구 상현동 354-1번지 상현프라자 302호","category":"수리서비스 - 기타수리서비스"},{"name":"수지골프클럽","tel":"031-272-1872","addr":"경기도 용인시 수지구 상현동 354-1번지 상현프라자 501호","category":"회원제형태 - 레져업소"},{"name":"시래기해장국함바식당","tel":"031-261-7180","addr":"경기도 용인시 수지구 상현동 354-1번지 상현프라자 F104~F111호","category":"일반휴게음식 - 일반한식"},{"name":"용인대PHK복싱클럽","tel":"031-264-7336","addr":"경기도 용인시 수지구 상현동 354-1번지 상현프라자 601호","category":"회원제형태 - 레져업소"},{"name":"캐빈골프,캐빈유학원","tel":"031-272-0008","addr":"경기도 용인시 수지구 상현동 354-1번지 상현마을상현프라자 5층","category":"레저업소 - 골프연습장"}]},{"lat":"37.298316853","long":"127.07336155","items":[{"name":"곽만근갈비탕광교점","tel":"031-212-6649","addr":"경기도 용인시 수지구 상현동 1127-3번지","category":"일반휴게음식 - 일반한식"},{"name":"르뺑지앵","tel":"031-8013-5603","addr":"경기도 용인시 수지구 상현동 1127-3번지 1층","category":"음료식품 - 제과점"}]},{"lat":"37.298931992","long":"127.06913264","items":[{"name":"광교곱창","tel":"031-213-1245","addr":"경기도 용인시 수지구 상현동 1119-1번지 신대프라자 101호","category":"일반휴게음식 - 일반한식"},{"name":"드림디포 광교법원점","tel":"031-216-0970","addr":"경기도 용인시 수지구 상현동 1119-1번지 신대프라자 1층 102호","category":"서적문구 - 문구용품"},{"name":"에르모소","tel":"070-4155-5724","addr":"경기도 용인시 수지구 상현동 1119-1번지 신대프라자 103호","category":"보건위생 - 미용재료"},{"name":"유니크헤어","tel":"031-211-7277","addr":"경기도 용인시 수지구 상현동 1119-1번지 신대프라자 202호","category":"보건위생 - 미용원"},{"name":"카리","tel":"031-226-3388","addr":"경기도 용인시 수지구 상현동 1119-1번지 신대프라자 201호","category":"일반휴게음식 - 서양음식"},{"name":"타르트팜카페 광교점","tel":"031-216-9629","addr":"경기도 용인시 수지구 상현동 1119-1번지 신대프라자 106호","category":"음료식품 - 제과점"}]},{"lat":"37.29595559","long":"127.07432927","items":[{"name":"광교분식","tel":"","addr":"경기도 용인시 수지구 상현동 1135번지 광교마을휴먼시아41단지 상가동 104호","category":"일반휴게음식 - 스넥"},{"name":"미니스톱수지휴먼시아점","tel":"031-1577-9621","addr":"경기도 용인시 수지구 상현동 1135번지 광교마을휴먼시아41단지 상가동 101호","category":"유통업 영리 - 편 의 점"},{"name":"보보헤어","tel":"031-252-1968","addr":"경기도 용인시 수지구 상현동 1135번지 휴먼시아 상가동 205호","category":"보건위생 - 미용원"},{"name":"세탁유토피아","tel":"031-276-0991","addr":"경기도 용인시 수지구 상현동 1135번지 광교마을휴먼시아41단지 상가동 103호","category":"수리서비스 - 세탁소"},{"name":"캐롤린피아노교습소","tel":"031-217-3557","addr":"경기도 용인시 수지구 상현동 1135번지 광교마을휴먼시아41단지","category":"학원 - 예·체능계학원"}]},{"lat":"37.30337027","long":"127.07555444","items":[{"name":"광교세차장","tel":"031-272-2242","addr":"경기도 용인시 수지구 상현동 342-9번지 외4필지","category":"자동차정비 유지 - 세차장"},{"name":"착한코다리. 갑오징어","tel":"031-264-3770","addr":"경기도 용인시 수지구 상현동 342-9번지 나동 1층","category":"일반휴게음식 - 일반한식"}]},{"lat":"37.295904108","long":"127.06991945","items":[{"name":"광교실용음악학원","tel":"031-217-1002","addr":"경기도 용인시 수지구 상현동 1133-2번지 206호","category":"학원 - 예·체능계학원"},{"name":"리치아이 (주)","tel":"031-262-5544","addr":"경기도 용인시 수지구 상현동 1133-2번지 2층 205호","category":"용역 서비스 - 부동산 중개·임대"},{"name":"오륙도","tel":"031-211-8998","addr":"경기도 용인시 수지구 상현동 1133-2번지 과아교어드밴스힐 103,104호,105호106호","category":"일반휴게음식 - 일식·회집"},{"name":"유아이","tel":"031-212-1106","addr":"경기도 용인시 수지구 상현동 1133-2번지 1층 102호","category":"일반휴게음식 - 주점"},{"name":"제이바이오(J-Bio)","tel":"031-232-1355","addr":"경기도 용인시 수지구 상현동 1133-2번지 이드벤스힐오피스텔 408호","category":"서적문구 - 과학기자재"},{"name":"족이요","tel":"070-7797-2222","addr":"경기도 용인시 수지구 상현동 1133-2번지 113호","category":"일반휴게음식 - 일반한식"},{"name":"주식회사 대성디앤씨","tel":"031-213-2929","addr":"경기도 용인시 수지구 상현동 1133-2번지 205호","category":"자동차정비 유지 - 주차장"},{"name":"주식회사 샤크스킨코리아","tel":"031-212-1198","addr":"경기도 용인시 수지구 상현동 1133-2번지 918호","category":"레져용품 - 스포츠·레져용품"},{"name":"투더디프런트 광교점","tel":"031-255-1224","addr":"경기도 용인시 수지구 상현동 1133-2번지 어드밴스힐 201호","category":"일반휴게음식 - 서양음식"},{"name":"호오탕훠꿔(샤브샤브)","tel":"031-211-8630","addr":"경기도 용인시 수지구 상현동 1133-2번지 1층 107~110호","category":"일반휴게음식 - 중국식"}]},{"lat":"37.301481006","long":"127.07069138","items":[{"name":"광교현대자동차서비스","tel":"031-333-9800","addr":"경기도 용인시 수지구 상현동 1191-1","category":"자동차정비 유지 - 자동차부품"}]},{"lat":"37.309189323","long":"127.07804168","items":[{"name":"광천수압구정판매점","tel":"070-8784-8241","addr":"경기도 용인시 수지구 상현동 99 벽산@ 107-1303","category":"유통업 영리 - 기타유통업"},{"name":"웅이아저씨","tel":"070-5482-4421","addr":"경기도 용인시 수지구 상현동 99번지 벽산블루밍아파트 107동 11층 1102호","category":"용역 서비스 - 종합용역"}]},{"lat":"37.296348503","long":"127.07996876","items":[{"name":"교촌치킨 상현역점","tel":"031-213-1996","addr":"경기도 용인시 수지구 상현동 1160번지","category":"일반휴게음식 - 스넥"}]},{"lat":"37.304514568","long":"127.07555555","items":[{"name":"국제롤라","tel":"031-898-0787","addr":"경기도 용인시 수지구 상현동 345-2번지","category":"레저업소 - 기타레져업소"},{"name":"아슬란","tel":"031-8002-5577","addr":"경기도 용인시 수지구 상현동 345-2번지","category":"음료식품 - 기타음료식품"}]},{"lat":"37.309335696","long":"127.08808119","items":[{"name":"굽네치킨상현2동점","tel":"031-896-9492","addr":"경기도 용인시 수지구 상현동 54-5번지 신화 가동 103호","category":"일반휴게음식 - 주점"},{"name":"민초","tel":"031-897-6555","addr":"경기도 용인시 수지구 상현동 54-5번지 신화 가동 103호","category":"일반휴게음식 - 스넥"},{"name":"바베큐덕삼이수지상현점","tel":"031-263-5392","addr":"경기도 용인시 수지구 상현동 54-5번지 신화 가동 104호","category":"일반휴게음식 - 일반한식"},{"name":"박연수의예쁜세상","tel":"031-261-1114","addr":"경기도 용인시 수지구 상현동 54-5 외1필지 가-201","category":"보건위생 - 화장품"},{"name":"블록잉글리시영어교습소","tel":"031-261-1181","addr":"경기도 용인시 수지구 상현동 54-5번지 신화 가동 103호","category":"학원 - 외국어학원"},{"name":"상현블랙벨트태권도","tel":"031-272-8889","addr":"경기도 용인시 수지구 상현동 54-5번지 신화 가동 202호","category":"학원 - 예·체능계학원"},{"name":"손톱가게","tel":"031-266-6963","addr":"경기도 용인시 수지구 상현동 54-5번지 신화 가동 105호","category":"보건위생 - 미용재료"},{"name":"연세벨로체음악교습소","tel":"","addr":"경기도 용인시 수지구 상현동 54-5번지 신화 가동 101호","category":"학원 - 예·체능계학원"},{"name":"인테리어디자인D.K","tel":"031-264-4404","addr":"경기도 용인시 수지구 상현동 54-5 신화상가 가-105","category":"직물 - 카페트,커튼,천막,지물"}]},{"lat":"37.309262257","long":"127.07668813","items":[{"name":"그루치과의원","tel":"031-264-2275","addr":"경기도 용인시 수지구 상현동 107-4 성진빌딩 2층","category":"의원 - 치과의원"},{"name":"뚜레쥬르수지힐스테이트점","tel":"031-264-8811","addr":"경기도 용인시 수지구 상현동 107-4번지 성진빌딩 1층 102호","category":"음료식품 - 제과점"},{"name":"로타커피","tel":"031-265-2558","addr":"경기도 용인시 수지구 상현동 107-4번지 106호","category":"일반휴게음식 - 서양음식"},{"name":"모아당구클럽","tel":"","addr":"경기도 용인시 수지구 상현동 107-4번지 301, 302호","category":"레저업소 - 당 구 장"},{"name":"상현스크린골프존","tel":"031-272-3003","addr":"경기도 용인시 수지구 상현동 107-4번지 성진프라자 B1층","category":"레저업소 - 스크린골프"},{"name":"서울석사태권도","tel":"031-266-7676","addr":"경기도 용인시 수지구 상현동 107-4번지 성진빌딩 3층 302호","category":"학원 - 예·체능계학원"},{"name":"에스지제이스파(SGJSPA)","tel":"031-266-8862","addr":"경기도 용인시 수지구 상현동 107-4번지 4층 401호","category":"보건위생 - 화장품"},{"name":"온더네일 (On the nail)","tel":"031-000-0000","addr":"경기도 용인시 수지구 상현동 107-4번지 성진빌딩 103호","category":"보건위생 - 피부미용실"},{"name":"파리바게트상현힐스테이트점","tel":"031-265-8280","addr":"경기도 용인시 수지구 상현동 107-4번지 성진빌딩 1층 101,102호","category":"음료식품 - 제과점"},{"name":"행복만들기보나미용실","tel":"031-263-5263","addr":"경기도 용인시 수지구 상현동 107-4번지","category":"보건위생 - 미용원"}]},{"lat":"37.297294364","long":"127.0802968","items":[{"name":"금애화 에스테틱","tel":"031-212-3088","addr":"경기도 용인시 수지구 상현동 1158-16번지 예다움하우스 101호","category":"보건위생 - 피부미용실"},{"name":"더 네일(The Nail)","tel":"031-214-0880","addr":"경기도 용인시 수지구 상현동 1158-16번지 예다움하우스 102호","category":"보건위생 - 피부미용실"},{"name":"헤어살롱드스텔라","tel":"031-213-2522","addr":"경기도 용인시 수지구 상현동 1158-16번지 예다움하우스 1층 101호","category":"보건위생 - 미용원"}]},{"lat":"37.30287177","long":"127.08018972","items":[{"name":"금호마트","tel":"031-262-5682","addr":"경기도 용인시 수지구 상현동 832번지 금호베스트2단지 상가 102호","category":"유통업 영리 - 슈퍼마켓"},{"name":"상현수 치과의원","tel":"031-266-4717","addr":"경기도 용인시 수지구 상현동 832번지 금호베스트빌 2단지상가 302호","category":"의원 - 치과의원"},{"name":"전주반찬. 먹거리","tel":"031-265-4700","addr":"경기도 용인시 수지구 상현동 832번지 상현마을금호베스트빌2단지 상가동 101호","category":"음료식품 - 기타음료식품"}]},{"lat":"37.306873604","long":"127.07818601","items":[{"name":"금호마트","tel":"031-262-6530","addr":"경기도 용인시 수지구 상현동 867금호베스트빌상가105","category":"유통업 영리 - 슈퍼마켓"},{"name":"나쿠펜다","tel":"031-262-8965","addr":"경기도 용인시 수지구 상현동 867번지 서원마을5단지금호베스트빌 상가동 1층 106호","category":"일반휴게음식 - 서양음식"},{"name":"오뜨블러썸","tel":"070-8734-5919","addr":"경기도 용인시 수지구 상현동 867번지 서원마을5단지금호베스트빌","category":"문화.취미 - 화원"},{"name":"이마트24 수지금호점","tel":"031-000-0000","addr":"경기도 용인시 수지구 상현동 867번지 서원마을5단지금호베스트빌 상가동 1층 104,105호","category":"유통업 영리 - 편 의 점"},{"name":"이마트24 수지금호점","tel":"","addr":"경기도 용인시 수지구 상현동 867번지 서원마을5단지금호베스트빌 상가동 1층 104호","category":"유통업 영리 - 편 의 점"},{"name":"칸타빌레음악학원","tel":"031-272-9954","addr":"경기도 용인시 수지구 상현동 867 금호베스트빌5단지내상가 303","category":"학원 - 예·체능계학원"}]},{"lat":"37.311424624","long":"127.07682561","items":[{"name":"기가건장","tel":"031-262-6777","addr":"경기도 용인시 수지구 상현동 102-3번지","category":"건축자재 - 목재·석재·철물"},{"name":"대성유통상사","tel":"031-264-3349","addr":"경기도 용인시 수지구 상현동 102-3번지","category":"건축자재 - 기타건축자재"},{"name":"성남목재","tel":"031-262-6777","addr":"경기도 용인시 수지구 상현동 102-3번지","category":"건축자재 - 기타건축자재"},{"name":"오로지 스팀세차","tel":"031-262-2886","addr":"경기도 용인시 수지구 상현동 102-3번지","category":"자동차정비 유지 - 세차장"}]},{"lat":"37.3091464","long":"127.08819377","items":[{"name":"기린미술교습소","tel":"031-266-2407","addr":"경기도 용인시 수지구 상현동 54-5번지 신화 상가 나동 1층 104호","category":"학원 - 예·체능계학원"}]},{"lat":"37.313795775","long":"127.08805238","items":[{"name":"기프트포토(Gift Photo)","tel":"","addr":"경기도 용인시 수지구 상현동 1번지 만현마을동보2차아파트","category":"광학제품 - 사진관"},{"name":"네잎디자인","tel":"070-4274-2658","addr":"경기도 용인시 수지구 상현동 1번지 만현마을동보2차아파트","category":"건축자재 - 인테리어전문"},{"name":"월유화의 리틀가든","tel":"","addr":"경기도 용인시 수지구 상현동 1번지 만현마을동보2차아파트","category":"문화.취미 - 화원"},{"name":"젠플스코리아(genplex)","tel":"031-307-4777","addr":"경기도 용인시 수지구 상현동 1번지 만현마을동보2차아파트","category":"서적문구 - 과학기자재"}]},{"lat":"37.309760676","long":"127.08597226","items":[{"name":"김경자소문난대구왕뽈찜","tel":"031-266-0707","addr":"경기도 용인시 수지구 상현동 64-2번지 심곡서원건물 1층","category":"일반휴게음식 - 일반한식"},{"name":"대성카센타","tel":"031-263-4868","addr":"경기도 용인시 수지구 상현동 64-2번지","category":"자동차정비 유지 - 자동차정비"},{"name":"신분당선","tel":"031-262-3850","addr":"경기도 용인시 수지구 상현동 64-2번지","category":"일반휴게음식 - 일반한식"},{"name":"예빛선교단","tel":"031-268-8196","addr":"경기도 용인시 수지구 상현동 64-2번지","category":"학원 - 기타 교육기관"},{"name":"카메이크업","tel":"031-266-7193","addr":"경기도 용인시 수지구 상현동 64-2번지","category":"자동차정비 유지 - 자동차정비"}]},{"lat":"37.30901016","long":"127.07638332","items":[{"name":"김밥천국 상현점","tel":"031-889-6916","addr":"경기도 용인시 수지구 상현동 107-5번지 신성프라자 103호","category":"일반휴게음식 - 스넥"},{"name":"라미모모아트스튜디오미술교습소","tel":"031-266-2656","addr":"경기도 용인시 수지구 상현동 107-5번지 신성프라자 201호","category":"학원 - 예·체능계학원"},{"name":"라온","tel":"031-263-3477","addr":"경기도 용인시 수지구 상현동 107-5번지 신성프라자 102호","category":"일반휴게음식 - 일반한식"},{"name":"리본키즈","tel":"070-4068-1260","addr":"경기도 용인시 수지구 상현동 107-5번지 신성프라자 107호","category":"의류 - 정장"},{"name":"마리","tel":"031-896-4462","addr":"경기도 용인시 수지구 상현동 107-5번지 신성프라자 1층 109호","category":"의류 - 정장"},{"name":"밥만퍼#","tel":"031-891-2220","addr":"경기도 용인시 수지구 상현동 107-5번지 신성프라자 108호","category":"음료식품 - 기타음료식품"},{"name":"본프로매쓰학원","tel":"031-262-6060","addr":"경기도 용인시 수지구 상현동 107-5번지 신성프라자 302호","category":"학원 - 보습학원"},{"name":"슈에뜨","tel":"031-893-3110","addr":"경기도 용인시 수지구 상현동 107-5번지 신성프라자 111호","category":"보건위생 - 미용재료"},{"name":"와이비엠리딩클럽스피킹학원","tel":"031-262-6464","addr":"경기도 용인시 수지구 상현동 107-5번지 신성 상가 202호","category":"회원제형태 - 학원"},{"name":"용인대청룡태권도장","tel":"","addr":"경기도 용인시 수지구 상현동 107-5번지 신성프라자 303호","category":"학원 - 예·체능계학원"},{"name":"잉글리시아이상현영어교습소","tel":"070-8181-1485","addr":"경기도 용인시 수지구 상현동 107-5번지 신성프라자 1층 115호~116호","category":"회원제형태 - 학원"},{"name":"컴스토어","tel":"031-000-0000","addr":"경기도 용인시 수지구 상현동 107-5번지 신성프라자 107호","category":"사무통신 - 컴퓨터"},{"name":"크린토피아","tel":"031-896-7777","addr":"경기도 용인시 수지구 상현동 107-5번지 신성프라자 111호","category":"수리서비스 - 세탁소"},{"name":"포르테음악학원","tel":"031-308-7102","addr":"경기도 용인시 수지구 상현동 107-5번지 신성프라자 2층 205호","category":"학원 - 예·체능계학원"},{"name":"프로매쓰학원","tel":"070-7528-9334","addr":"경기도 용인시 수지구 상현동 107-5번지 신성프라자 3층 302호","category":"학원 - 보습학원"},{"name":"피부과학연구소","tel":"031-7803-6410","addr":"경기도 용인시 수지구 상현동 107-5번지 신성프라자 108호","category":"보건위생 - 화장품"},{"name":"현헤어클럽","tel":"031-263-1442","addr":"경기도 용인시 수지구 상현동 107-5번지 신성프라자 104호","category":"보건위생 - 미용원"}]},{"lat":"37.296625692","long":"127.06855542","items":[{"name":"김밥킹 상현점","tel":"031-215-7758","addr":"경기도 용인시 수지구 상현동 1117-8번지 푸르지오시티 D동 111호","category":"일반휴게음식 - 스넥"},{"name":"레드PC","tel":"070-8523-5513","addr":"경기도 용인시 수지구 상현동 1117-8번지 푸르지오시티 D동 206-208호","category":"레저업소 - 기타레져업소"},{"name":"법률사무소 동행","tel":"031-214-1400","addr":"경기도 용인시 수지구 상현동 1117-8번지 광교2차푸르지오시티 D동 2층 205호","category":"용역 서비스 - 법률회계서비스(개인)"},{"name":"베스트팜","tel":"031-211-5312","addr":"경기도 용인시 수지구 상현동 1117-8번지 상가 D동 104호 상현동","category":"음료식품 - 농·축·수산품"},{"name":"블레슈","tel":"","addr":"경기도 용인시 수지구 상현동 1117-8번지 광교2차푸르지오시티 D동 109호","category":"의류 - 정장"},{"name":"위블랙","tel":"","addr":"경기도 용인시 수지구 상현동 1117-8번지 D동 105호","category":"일반휴게음식 - 서양음식"},{"name":"카카오농산물","tel":"031-211-1325","addr":"경기도 용인시 수지구 상현동 1117-8번지 푸르지오시티 D동 104호","category":"음료식품 - 농·축·수산품"},{"name":"캔들라인광교점","tel":"031-217-3559","addr":"경기도 용인시 수지구 상현동 1117-8번지 광교푸르지오시티 D동 102호","category":"신변잡화 - 기타잡화"},{"name":"필라테스의 온도","tel":"","addr":"경기도 용인시 수지구 상현동 1117-8번지 광교2차푸르지오시티 D동 204호","category":"레저업소 - 헬스클럽"},{"name":"한잔","tel":"","addr":"경기도 용인시 수지구 상현동 1117-8번지 D동 1층 108호","category":"일반휴게음식 - 주점"}]},{"lat":"37.296150277","long":"127.07996856","items":[{"name":"김연화헤어","tel":"031-264-5733","addr":"경기도 용인시 수지구 상현동 1160-1번지 102호","category":"보건위생 - 미용원"},{"name":"분스","tel":"031-212-4604","addr":"경기도 용인시 수지구 상현동 1160-1번지 101호","category":"의류 - 정장"}]},{"lat":"37.307265928","long":"127.08441289","items":[{"name":"깐부(상현점)","tel":"031-261-3294","addr":"경기도 용인시 수지구 상현동 255-1번지 (1층,1,2,3,4호)","category":"일반휴게음식 - 스넥"}]},{"lat":"37.313317548","long":"127.08899942","items":[{"name":"꽃가람화원","tel":"031-272-1235","addr":"경기도 용인시 수지구 상현동 9-12번지","category":"문화.취미 - 화원"}]},{"lat":"37.309454059","long":"127.08635545","items":[{"name":"꿉(용인상현점)","tel":"031-264-0015","addr":"경기도 용인시 수지구 상현동 64-5번지 헤르메스빌딩2 104호","category":"일반휴게음식 - 일반한식"},{"name":"담소 소사골순대(수지 만현마을점)","tel":"031-265-1821","addr":"경기도 용인시 수지구 상현동 64-5번지 1층 105,106호","category":"일반휴게음식 - 일반한식"},{"name":"램 아일랜드","tel":"031-261-1230","addr":"경기도 용인시 수지구 상현동 64-5번지 102,103호","category":"일반휴게음식 - 일반한식"},{"name":"수지양곱창","tel":"031-261-0722","addr":"경기도 용인시 수지구 상현동 64-5번지 헤르메스빌딩 101호","category":"일반휴게음식 - 일반한식"}]},{"lat":"37.311482311","long":"127.08499275","items":[{"name":"나노지비에스(NANOGBS)","tel":"031-898-2738","addr":"경기도 용인시 수지구 상현동 857번지 만현마을10단지아이파크","category":"회원제형태 - 기타4"}]},{"lat":"37.297267613","long":"127.06447321","items":[{"name":"나라통신GPS","tel":"070-7673-0202","addr":"경기도 용인시 수지구 상현동 1113번지 광교마을45단지","category":"사무통신 - 통신기기"}]},{"lat":"37.308953802","long":"127.07999291","items":[{"name":"나린헬스케어","tel":"11-111-1111","addr":"경기도 용인시 수지구 상현동 95-7번지 라임카운티 D동 502호","category":"회원제형태 - 기타1"}]},{"lat":"37.314011318","long":"127.08902277","items":[{"name":"나와바리","tel":"031-262-4476","addr":"경기도 용인시 수지구 상현동 5-4번지","category":"일반휴게음식 - 일식·회집"},{"name":"디자이너스카페","tel":"031-264-2277","addr":"경기도 용인시 수지구 상현동 5-4번지 서림빌딩 109호","category":"일반휴게음식 - 서양음식"},{"name":"레벨업휘트니스 (상현점)","tel":"031-276-1045","addr":"경기도 용인시 수지구 상현동 5-4번지 서림빌딩 3층","category":"레저업소 - 헬스클럽"},{"name":"마이리틀오븐","tel":"031-276-5262","addr":"경기도 용인시 수지구 상현동 5-4번지 2층","category":"일반휴게음식 - 일반한식"},{"name":"성실카센타","tel":"031-276-0365","addr":"경기도 용인시 수지구 상현동 5-4번지","category":"자동차정비 유지 - 자동차정비"},{"name":"용인상현우편취급소","tel":"031-272-2720","addr":"경기도 용인시 수지구 상현동 5-4번지","category":"용역 서비스 - 공공요금대행서비스/소"}]},{"lat":"37.300397486","long":"127.0745816","items":[{"name":"나준한의원","tel":"031-213-1075","addr":"경기도 용인시 수지구 상현동 1129번지 파크프라자 2층 204호","category":"의원 - 한의원"},{"name":"동백서서갈비","tel":"031-000-0000","addr":"경기도 용인시 수지구 상현동 1129번지 지하1층","category":"일반휴게음식 - 일반한식"},{"name":"리엠(RI-M)","tel":"031-216-3455","addr":"경기도 용인시 수지구 상현동 1129번지 1층 103호","category":"보건위생 - 미용원"},{"name":"멘토르7 스터디센터","tel":"031-213-0505","addr":"경기도 용인시 수지구 상현동 1129번지 광교파크프라자 205호","category":"용역 서비스 - 사무서비스"},{"name":"멘토르7독서실","tel":"031-213-0505","addr":"경기도 용인시 수지구 상현동 1129번지 광교파크프라자 202,203호","category":"학원 - 독서실"},{"name":"상현국수집","tel":"","addr":"경기도 용인시 수지구 상현동 1129번지 104호","category":"일반휴게음식 - 일반한식"},{"name":"세븐일레븐수지상현도서관점","tel":"031-1577-0711","addr":"경기도 용인시 수지구 상현동 1129번지 광교파크프라자 102호","category":"유통업 영리 - 편 의 점"},{"name":"주식회사 디아망산후조리원","tel":"031-225-0011","addr":"경기도 용인시 수지구 상현동 1129번지 3 ,4,5층","category":"기타의료기관 - 산후조리원"}]},{"lat":"37.297597834","long":"127.07027059","items":[{"name":"남매양대창","tel":"","addr":"경기도 용인시 수지구 상현동 1132-1번지 광교푸르지오시티2단지 1층 110호","category":"일반휴게음식 - 일반한식"},{"name":"남매한우곱창","tel":"031-212-3392","addr":"경기도 용인시 수지구 상현동 1132-1번지 108호","category":"일반휴게음식 - 일반한식"},{"name":"다이닝참치J.S","tel":"031-216-0415","addr":"경기도 용인시 수지구 상현동 1132-1번지 302호 301","category":"일반휴게음식 - 일반한식"},{"name":"맥주창고","tel":"070-8945-4497","addr":"경기도 용인시 수지구 상현동 1132-1번지 205호","category":"일반휴게음식 - 일반한식"},{"name":"미래상사","tel":"031-898-8811","addr":"경기도 용인시 수지구 상현동 1132-1번지 광교푸르지오시티2단지 706호","category":"자동차정비 유지 - 자동차부품"},{"name":"미래포차 (수작요리전문점)","tel":"031-705-8512","addr":"경기도 용인시 수지구 상현동 1132-1번지 대우푸르지오그린2단지 109호","category":"일반휴게음식 - 일반한식"},{"name":"미소오뎅","tel":"031-211-1830","addr":"경기도 용인시 수지구 상현동 1132-1번지 1층 102호","category":"일반휴게음식 - 주점"},{"name":"밀라노 옷수선","tel":"031-217-6175","addr":"경기도 용인시 수지구 상현동 1132-1번지 203호","category":"수리서비스 - 세탁소"},{"name":"백수학","tel":"031-216-0308","addr":"경기도 용인시 수지구 상현동 1132-1번지 210호","category":"학원 - 보습학원"},{"name":"법무사방돈기","tel":"031-211-5230","addr":"경기도 용인시 수지구 상현동 1132-1번지 305호","category":"용역 서비스 - 법률회계서비스(개인)"},{"name":"상현역해법중국어교습소","tel":"031-216-5252","addr":"경기도 용인시 수지구 상현동 1132-1번지 310호","category":"학원 - 외국어학원"},{"name":"수연당수학학원","tel":"031-212-2244","addr":"경기도 용인시 수지구 상현동 1132-1번지 광교푸르지오시티2단지 207동 209호","category":"학원 - 보습학원"},{"name":"스트릿츄러스 광교상현역점","tel":"031-248-1137","addr":"경기도 용인시 수지구 상현동 1132-1번지 105호","category":"일반휴게음식 - 일반한식"},{"name":"얄리스","tel":"031-304-9294","addr":"경기도 용인시 수지구 상현동 1132-1번지 1층 107호","category":"일반휴게음식 - 일반한식"},{"name":"에벤에셀","tel":"031-212-6222","addr":"경기도 용인시 수지구 상현동 1132-1번지 110호","category":"수리서비스 - 세탁소"},{"name":"주식회사 상하이스토리","tel":"031-212-4959","addr":"경기도 용인시 수지구 상현동 1132-1번지 201,202","category":"일반휴게음식 - 중국식"},{"name":"최장군","tel":"070-4652-4049","addr":"경기도 용인시 수지구 상현동 1132-1번지 대우푸르지오시티2단지 106호","category":"일반휴게음식 - 일반한식"},{"name":"케이티메디칼","tel":"031-217-9831","addr":"경기도 용인시 수지구 상현동 1132-1번지 광교푸르지오시티2단지 413호","category":"보건위생 - 의료용품"},{"name":"해쉬(HESHE)","tel":"031-276-8447","addr":"경기도 용인시 수지구 상현동 1132-1번지 306호","category":"보건위생 - 미용원"},{"name":"호치킨하우스","tel":"031-212-5727","addr":"경기도 용인시 수지구 상현동 1132-1번지 103-104호 광교푸르지오시티상가","category":"일반휴게음식 - 스넥"}]},{"lat":"37.308843096","long":"127.08386187","items":[{"name":"남문떡볶이","tel":"031-262-9800","addr":"경기도 용인시 수지구 상현동 843번지 성우5차@ 상가-103","category":"일반휴게음식 - 스넥"},{"name":"라파헤어","tel":"031-276-8769","addr":"경기도 용인시 수지구 상현동 843 성우5차 상가-105","category":"보건위생 - 미용원"}]},{"lat":"37.297682072","long":"127.0644961","items":[{"name":"남자의 손길","tel":"031-216-8560","addr":"경기도 용인시 수지구 상현동 1113번지 광교마을45단지 1층 104호 상가동","category":"음료식품 - 정육점"},{"name":"리틀상상공작소미술교습소","tel":"031-216-1401","addr":"경기도 용인시 수지구 상현동 1113번지 광교마을45단지 상가동 103호","category":"학원 - 예·체능계학원"},{"name":"설찬","tel":"031-214-2579","addr":"경기도 용인시 수지구 상현동 1113번지 광교마을45단지 상가동 102호","category":"음료식품 - 기타음료식품"},{"name":"에이버리단열필름","tel":"031-336-2281","addr":"경기도 용인시 수지구 상현동 1113번지 4505호 21층 3호","category":"직물 - 카페트,커튼,천막,지물"},{"name":"프라임할인마트광교2호점","tel":"031-211-7766","addr":"경기도 용인시 수지구 상현동 1113번지 단지내상가101,102호","category":"유통업 영리 - 슈퍼마켓"}]},{"lat":"37.307064551","long":"127.07541136","items":[{"name":"넘버원 자동차 피부과","tel":"","addr":"경기도 용인시 수지구 상현동 193-17번지","category":"자동차정비 유지 - 세차장"},{"name":"애니카랜드 상현점","tel":"031-896-2842","addr":"경기도 용인시 수지구 상현동 193-17번지 193-17,193-25","category":"자동차정비 유지 - 세차장"},{"name":"애니카랜드 상현점","tel":"031-896-2842","addr":"경기도 용인시 수지구 상현동 193-17번지 (193-17,193-25)","category":"자동차정비 유지 - 자동차정비"},{"name":"코스코 모터스","tel":"031-896-2843","addr":"경기도 용인시 수지구 상현동 193-17번지","category":"자동차정비 유지 - 자동차정비"}]},{"lat":"37.304208207","long":"127.07557781","items":[{"name":"네오프런트(주)","tel":"031-276-8624","addr":"경기도 용인시 수지구 상현동 346번지 3층","category":"건축자재 - 인테리어전문"},{"name":"세인트폴(St.Paul)프렙센터 어학원","tel":"031-889-5047","addr":"경기도 용인시 수지구 상현동 346번지 광신빌딩 1동1층 세인트폴 프렙센터어학원","category":"학원 - 외국어학원"}]},{"lat":"37.297897953","long":"127.08044404","items":[{"name":"네일리(Naily)","tel":"031-216-0217","addr":"경기도 용인시 수지구 상현동 1158번지 1층 일부","category":"보건위생 - 피부미용실"},{"name":"릴리디저트","tel":"031-217-5599","addr":"경기도 용인시 수지구 상현동 1158번지","category":"일반휴게음식 - 서양음식"}]},{"lat":"37.306650281","long":"127.07508385","items":[{"name":"넥센타이어(주)타이어테크용인상현점(R/C)","tel":"031-896-5985","addr":"경기도 용인시 수지구 상현동 193-11번지 1층","category":"자동차정비 유지 - 자동차시트·타이어"},{"name":"디잘인테리어","tel":"031-264-1004","addr":"경기도 용인시 수지구 상현동 193-11번지 1층","category":"건축자재 - 인테리어전문"},{"name":"헤어&엘피부","tel":"031-266-4433","addr":"경기도 용인시 수지구 상현동 193-11번지 2층","category":"보건위생 - 피부미용실"}]},{"lat":"37.296600627","long":"127.08021714","items":[{"name":"늘봄","tel":"070-3452-8952","addr":"경기도 용인시 수지구 상현동 1158-12번지 1층 102호","category":"의류 - 정장"},{"name":"늘봄봄","tel":"","addr":"경기도 용인시 수지구 상현동 1158-12번지 1동 102호","category":"의류 - 정장"}]},{"lat":"37.31398441","long":"127.08885353","items":[{"name":"다경","tel":"031-263-6360","addr":"경기도 용인시 수지구 상현동 5-6번지 1층","category":"일반휴게음식 - 일반한식"}]},{"lat":"37.301648576","long":"127.07674837","items":[{"name":"다온헤어","tel":"031-272-3223","addr":"경기도 용인시 수지구 상현동 828번지 상현마을쌍용2차B단지 상가동 105호","category":"보건위생 - 미용원"},{"name":"물꼬기미술","tel":"031-211-4011","addr":"경기도 용인시 수지구 상현동 828번지 상현마을쌍용2차B단지 102호","category":"학원 - 예·체능계학원"}]},{"lat":"37.311400945","long":"127.08538748","items":[{"name":"다움교육","tel":"070-4045-2215","addr":"경기도 용인시 수지구 상현동 857번지 만현마을10단지아이파크","category":"서적문구 - 기타서적문구"}]},{"lat":"37.297118128","long":"127.07396946","items":[{"name":"다인방충망","tel":"070-8265-3022","addr":"경기도 용인시 수지구 상현동 1135번지 광교마을휴먼시아41단지","category":"수리서비스 - 기타수리서비스"},{"name":"시에스알비즈","tel":"070-8286-8470","addr":"경기도 용인시 수지구 상현동 1135번지 광교마을휴먼시아41단지","category":"음료식품 - 기타음료식품"}]},{"lat":"37.295870798","long":"127.08021639","items":[{"name":"다인에스앤티","tel":"070-4122-2985","addr":"경기도 용인시 수지구 상현동 1161-3번지 201호","category":"서적문구 - 과학기자재"},{"name":"수피아헤어","tel":"031-217-0614","addr":"경기도 용인시 수지구 상현동 1161-3번지 1층 일부","category":"보건위생 - 미용원"},{"name":"플레이스130","tel":"031-212-3130","addr":"경기도 용인시 수지구 상현동 1161-3번지 102-103호","category":"일반휴게음식 - 서양음식"}]},{"lat":"37.306010804","long":"127.08824663","items":[{"name":"단델리온(dandelion)","tel":"","addr":"경기도 용인시 수지구 상현동 850번지","category":"일반휴게음식 - 서양음식"},{"name":"랑스네일","tel":"","addr":"경기도 용인시 수지구 상현동 850번지 만현마을쌍용1차아파트 202호","category":"보건위생 - 피부미용실"},{"name":"여우속눈썹","tel":"031-272-2988","addr":"경기도 용인시 수지구 상현동 850번지","category":"보건위생 - 화장품"},{"name":"헤어금밭크리닉","tel":"031-262-0021","addr":"경기도 용인시 수지구 상현동 850번지 만현마을2단지아이파크 쌍용아 상가동 115호","category":"보건위생 - 미용원"}]},{"lat":"37.311785036","long":"127.09005804","items":[{"name":"단지옷장","tel":"","addr":"경기도 용인시 수지구 상현동 859번지 만현마을롯데캐슬아파트","category":"의류 - 정장"}]},{"lat":"37.29763284","long":"127.07206389","items":[{"name":"당근의원리교육","tel":"031-304-0841","addr":"경기도 용인시 수지구 상현동 1134번지 광교상록자이아파트","category":"회원제형태 - 학원"}]},{"lat":"37.307726876","long":"127.08231532","items":[{"name":"대교식품64","tel":"031-265-7413","addr":"경기도 용인시 수지구 상현동 842번지 상현마을수지센트럴아이파크 113동 1201호","category":"음료식품 - 기타음료식품"},{"name":"핑거몬스터","tel":"","addr":"경기도 용인시 수지구 상현동 842번지 상현마을수지센트럴아이파크 113동 6층 603호","category":"신변잡화 - 기타잡화"}]},{"lat":"37.30723697","long":"127.08716515","items":[{"name":"대림바스플랜용인상현점","tel":"","addr":"경기도 용인시 수지구 상현동 852번지 만현마을쌍용3차아파트 상가동 B동 101호","category":"건축자재 - 건축용 요업제품"},{"name":"만물상사","tel":"031-272-6318","addr":"경기도 용인시 수지구 상현동 852번지 만현마을쌍용3차아파트","category":"음료식품 - 기타음료식품"}]},{"lat":"37.297959319","long":"127.06835357","items":[{"name":"더그릿짐","tel":"031-213-0909","addr":"경기도 용인시 수지구 상현동 1116-1번지 광교푸르지오시티1단지 3층 303호~306호","category":"레저업소 - 헬스클럽"},{"name":"두톡스","tel":"031-212-1706","addr":"경기도 용인시 수지구 상현동 1116-1번지 301호","category":"보건위생 - 화장품"},{"name":"만병통찜닭(광교상현점)","tel":"031-215-8541","addr":"경기도 용인시 수지구 상현동 1116-1번지 1층 110호","category":"일반휴게음식 - 일반한식"},{"name":"미니스톱수지푸르지오점","tel":"031-1577-9621","addr":"경기도 용인시 수지구 상현동 1116-1번지 108,109호","category":"유통업 영리 - 편 의 점"},{"name":"본밸런스광교점","tel":"031-8001-1119","addr":"경기도 용인시 수지구 상현동 1116-1번지 308-9호","category":"회원제형태 - 레져업소"},{"name":"성진 쿨(cool)","tel":"02-1522-4662","addr":"경기도 용인시 수지구 상현동 1116-1번지 광교푸르지오시티1단지 503호","category":"주방용구 - 주방용구"},{"name":"식.빵(영컴퍼니)","tel":"031-212-3542","addr":"경기도 용인시 수지구 상현동 1116-1번지 110호","category":"음료식품 - 제과점"},{"name":"식빵이 맛있는집 네모 (광교상현역점)","tel":"","addr":"경기도 용인시 수지구 상현동 1116-1번지 푸르지오시티1단지 104호","category":"음료식품 - 제과점"},{"name":"신전떡볶이","tel":"031-215-6889","addr":"경기도 용인시 수지구 상현동 1116-1번지 103호","category":"일반휴게음식 - 일반한식"},{"name":"올에이융합독서","tel":"031-212-3870","addr":"경기도 용인시 수지구 상현동 1116-1번지 광교푸르지오시티1단지 904호","category":"회원제형태 - 서적"},{"name":"캡틴 페퍼스","tel":"031-225-2055","addr":"경기도 용인시 수지구 상현동 1116-1번지 102호","category":"일반휴게음식 - 스넥"},{"name":"커피에반하다 상현역점","tel":"070-8838-9780","addr":"경기도 용인시 수지구 상현동 1116-1번지 105호","category":"일반휴게음식 - 서양음식"},{"name":"코큐헤어 (Coccu hair)","tel":"031-215-7308","addr":"경기도 용인시 수지구 상현동 1116-1번지 푸르지오시티1단지 201호","category":"보건위생 - 미용원"},{"name":"티위낫(TEEWINOT)","tel":"031-306-3218","addr":"경기도 용인시 수지구 상현동 1116-1번지 504호","category":"용역 서비스 - 종합용역"},{"name":"펀 비어킹","tel":"031-000-0000","addr":"경기도 용인시 수지구 상현동 1116-1번지 1층 106,107호","category":"일반휴게음식 - 일반한식"}]},{"lat":"37.302726157","long":"127.08237774","items":[{"name":"더젬마","tel":"031-111-1111","addr":"경기도 용인시 수지구 상현동 837번지 상현마을금호베스트빌3단지","category":"신변잡화 - 기타잡화"}]},{"lat":"37.307424905","long":"127.07550195","items":[{"name":"더하스디자인그룹","tel":"031-234-7933","addr":"경기도 용인시 수지구 상현동 193-10번지","category":"건축자재 - 인테리어전문"}]},{"lat":"37.296238501","long":"127.06810396","items":[{"name":"델리봉봉(Deli Bon Bon)","tel":"031-216-7004","addr":"경기도 용인시 수지구 상현동 1118번지 1층 106호","category":"음료식품 - 제과점"},{"name":"디자인베어","tel":"070-4624-7173","addr":"경기도 용인시 수지구 상현동 1118번지 518호","category":"용역 서비스 - 소프트웨어"},{"name":"보티브 플라워 부티크","tel":"031-212-7788","addr":"경기도 용인시 수지구 상현동 1118번지 광교유타워 1층 107호","category":"문화.취미 - 화원"},{"name":"쎈(cen)한의원","tel":"031-216-0677","addr":"경기도 용인시 수지구 상현동 1118번지 광교유-타워","category":"의원 - 한의원"},{"name":"엠티에스(MTS)","tel":"031-218-3213","addr":"경기도 용인시 수지구 상현동 1118번지 533호","category":"기타 - 기계공구"},{"name":"이원건강의료기 수지점","tel":"031-212-2129","addr":"경기도 용인시 수지구 상현동 1118번지 111,112호","category":"보건위생 - 의료용품"},{"name":"주식회사 문앤인","tel":"031-627-2200","addr":"경기도 용인시 수지구 상현동 1118번지 광교유타워 790호","category":"자동차정비 유지 - 주차장"},{"name":"체크엠주식회사","tel":"031-635-4130","addr":"경기도 용인시 수지구 상현동 1118번지 655호","category":"용역 서비스 - 종합용역"}]},{"lat":"37.308676901","long":"127.07619124","items":[{"name":"도예카페예현","tel":"031-263-2449","addr":"경기도 용인시 수지구 상현동 108-1번지 대진아파트","category":"일반휴게음식 - 서양음식"},{"name":"씨유수지대진점","tel":"031-898-6708","addr":"경기도 용인시 수지구 상현동 108-1번지 대진아파트 105~106호","category":"유통업 영리 - 편 의 점"}]},{"lat":"37.299925035","long":"127.06561453","items":[{"name":"독바위찻집","tel":"031-262-0891","addr":"경기도 용인시 수지구 상현동 414-9번지","category":"음료식품 - 기타음료식품"}]},{"lat":"37.305598788","long":"127.08477204","items":[{"name":"돈마나","tel":"031-266-7756","addr":"경기도 용인시 수지구 상현동 251-3번지 자이프라자 109호,110호","category":"일반휴게음식 - 일반한식"},{"name":"디딤돌수학학원","tel":"031-261-2005","addr":"경기도 용인시 수지구 상현동 251-3번지 자이프라자 403호","category":"학원 - 보습학원"},{"name":"리딩아일랜드2관학원","tel":"031-263-0522","addr":"경기도 용인시 수지구 상현동 251-3번지 301,302호","category":"학원 - 외국어학원"},{"name":"리딩아일랜드수학학원","tel":"031-276-0520","addr":"경기도 용인시 수지구 상현동 251-3번지 자이프라자 401호","category":"학원 - 보습학원"},{"name":"보니따필라테스 수지상현점","tel":"031-264-1927","addr":"경기도 용인시 수지구 상현동 251-3번지 자이프라자 504호,505호","category":"레저업소 - 헬스클럽"},{"name":"어울림한의원","tel":"031-264-5775","addr":"경기도 용인시 수지구 상현동 251-3 자이프라자 303.304호","category":"의원 - 한의원"},{"name":"와이즈리더","tel":"031-896-9500","addr":"경기도 용인시 수지구 상현동 251-3번지 자이프라자 402호","category":"회원제형태 - 학원"},{"name":"투썸플레이스 용인상현점","tel":"031-897-2233","addr":"경기도 용인시 수지구 상현동 251-3번지 자이프라자 1층 101호","category":"일반휴게음식 - 서양음식"}]},{"lat":"37.310262236","long":"127.07693728","items":[{"name":"돌풍 (직영점)","tel":"031-276-9222","addr":"경기도 용인시 수지구 상현동 106-5번지","category":"일반휴게음식 - 일반한식"}]},{"lat":"37.298150277","long":"127.0803879","items":[{"name":"동강회참치","tel":"031-217-1379","addr":"경기도 용인시 수지구 상현동 1156-2번지","category":"일반휴게음식 - 일반한식"}]},{"lat":"37.31326469","long":"127.08732981","items":[{"name":"동보마트","tel":"031-262-2991","addr":"경기도 용인시 수지구 상현동 1번지 동보2차 상가 106호","category":"유통업 영리 - 슈퍼마켓"},{"name":"우정유통","tel":"031-335-9583","addr":"경기도 용인시 수지구 상현동 1번지 동보2차 상가동 비05호","category":"음료식품 - 농·축·수산품"}]},{"lat":"37.30973324","long":"127.08654752","items":[{"name":"동작그만","tel":"031-897-8112","addr":"경기도 용인시 수지구 상현동 64-9번지 105호","category":"일반휴게음식 - 일반한식"},{"name":"숯불직화꼬치구이","tel":"031-266-5905","addr":"경기도 용인시 수지구 상현동 64-9번지","category":"일반휴게음식 - 주점"},{"name":"쭈꾸미일당백","tel":"031-266-2848","addr":"경기도 용인시 수지구 상현동 64-9번지 두연빌딩 108호","category":"일반휴게음식 - 일반한식"}]},{"lat":"37.297654935","long":"127.08004904","items":[{"name":"두리싸롱","tel":"","addr":"경기도 용인시 수지구 상현동 1157-2번지 1층 101호","category":"신변잡화 - 신발"},{"name":"살롱드포레","tel":"070-4922-1261","addr":"경기도 용인시 수지구 상현동 1157-2번지 102호","category":"보건위생 - 미용원"},{"name":"코샤 맘","tel":"031-212-1282","addr":"경기도 용인시 수지구 상현동 1157-2번지 102호","category":"일반휴게음식 - 서양음식"}]},{"lat":"37.304561263","long":"127.0866997","items":[{"name":"드림송가","tel":"070-8806-9016","addr":"경기도 용인시 수지구 상현동 861번지 만현마을8단지두산위브아파트","category":"사무통신 - 통신기기"}]},{"lat":"37.309092185","long":"127.08840803","items":[{"name":"디딤돌캠브릿지학원","tel":"031-266-8010","addr":"경기도 용인시 수지구 상현동 54-5번지 신화 나동 201호","category":"학원 - 보습학원"},{"name":"에쯔하임","tel":"031-276-2202","addr":"경기도 용인시 수지구 상현동 54-5번지 신화 나동 105호","category":"일반휴게음식 - 서양음식"},{"name":"질경이와 함께하는 조은염색","tel":"031-284-3410","addr":"경기도 용인시 수지구 상현동 54-5번지 신화 나동 104호","category":"보건위생 - 미용원"},{"name":"페르마타","tel":"031-263-6709","addr":"경기도 용인시 수지구 상현동 54-5번지 신화 나동 101호","category":"보건위생 - 미용원"},{"name":"헤어공간","tel":"031-276-7202","addr":"경기도 용인시 수지구 상현동 54-5신화상가나동103호","category":"보건위생 - 미용원"}]},{"lat":"37.297762659","long":"127.08065819","items":[{"name":"디백","tel":"070-4789-2381","addr":"경기도 용인시 수지구 상현동 1158-2번지 102호","category":"의류 - 정장"},{"name":"오브제이","tel":"031-203-0398","addr":"경기도 용인시 수지구 상현동 1158-2번지 101호","category":"신변잡화 - 액세서리"}]},{"lat":"37.30930035","long":"127.08711105","items":[{"name":"디자인 글로벌 맵","tel":"031-898-8866","addr":"경기도 용인시 수지구 상현동 858번지 만현마을5단지아이파크","category":"건축자재 - 인테리어전문"},{"name":"본 퍼퓸(BON perfume)","tel":"","addr":"경기도 용인시 수지구 상현동 858번지 만현마을5단지아이파크","category":"신변잡화 - 기타잡화"}]},{"lat":"37.304095855","long":"127.08216487","items":[{"name":"떡이랑","tel":"031-261-6787","addr":"경기도 용인시 수지구 상현동 838,동일스위트상가208","category":"음료식품 - 제과점"},{"name":"마리세실플라워","tel":"031-266-5777","addr":"경기도 용인시 수지구 상현동 838번지 상현마을동일스위트 상현-207","category":"문화.취미 - 화원"},{"name":"용인대상현태권도","tel":"031-272-3303","addr":"경기도 용인시 수지구 상현동 838번지 상현마을동일스위트 상가동 103호","category":"학원 - 예·체능계학원"},{"name":"파리바게뜨수지상현점","tel":"031-263-0448","addr":"경기도 용인시 수지구 상현동 838상현마을동일스위트상가204","category":"음료식품 - 제과점"},{"name":"효도쿡123 상현점","tel":"031-898-1230","addr":"경기도 용인시 수지구 상현동 838번지 상현마을동일스위트 상가동 1층 101호","category":"일반휴게음식 - 일반한식"}]},{"lat":"37.303257051","long":"127.08342727","items":[{"name":"띄우지 꽃차","tel":"070-3702-9595","addr":"경기도 용인시 수지구 상현동 855번지 상현마을현대성우3차아파트","category":"음료식품 - 기타음료식품"}]},{"lat":"37.29689778","long":"127.0804994","items":[{"name":"라라마랑","tel":"","addr":"경기도 용인시 수지구 상현동 1158-9번지 101호","category":"의류 - 아동의류"},{"name":"바비엘","tel":"031-425-2062","addr":"경기도 용인시 수지구 상현동 1158-9번지 102호","category":"의류 - 정장"}]},{"lat":"37.294898944","long":"127.07827558","items":[{"name":"라파엘한의원","tel":"031-215-6490","addr":"경기도 용인시 수지구 상현동 1137번지 A102~103호","category":"의원 - 한의원"},{"name":"맛닭꼬(상현광교점)","tel":"031-216-5592","addr":"경기도 용인시 수지구 상현동 1137번지 광교지웰홈스 109호","category":"일반휴게음식 - 스넥"},{"name":"몽짬뽕","tel":"031-214-2772","addr":"경기도 용인시 수지구 상현동 1137번지 A106,A107","category":"일반휴게음식 - 중국식"},{"name":"세븐일레븐광교지웰점","tel":"031-1577-0711","addr":"경기도 용인시 수지구 상현동 1137번지 광교지웰홈스 1층 A105호","category":"유통업 영리 - 편 의 점"},{"name":"어니스트짐 광교상현점","tel":"031-306-3009","addr":"경기도 용인시 수지구 상현동 1137번지 광교지웰홈스 101동 111호","category":"레저업소 - 헬스클럽"},{"name":"커피에반하다","tel":"031-212-9336","addr":"경기도 용인시 수지구 상현동 1137번지 광교지웰홈스 1층 101호","category":"일반휴게음식 - 서양음식"},{"name":"티 (T)네일","tel":"","addr":"경기도 용인시 수지구 상현동 1137번지 광교지웰홈스 104호","category":"보건위생 - 피부미용실"},{"name":"헤어스케치","tel":"031-213-1047","addr":"경기도 용인시 수지구 상현동 1137번지 광교지웰홈스 108호","category":"보건위생 - 미용원"}]},{"lat":"37.29595836","long":"127.06958116","items":[{"name":"래이","tel":"031-211-2796","addr":"경기도 용인시 수지구 상현동 1133-1번지 2층 203,204호","category":"일반휴게음식 - 칵테일바"},{"name":"상현골 한우곱창","tel":"","addr":"경기도 용인시 수지구 상현동 1133-1번지 골드리치안오피스텔 1층 103호","category":"일반휴게음식 - 일반한식"},{"name":"애리조나막창","tel":"031-217-6526","addr":"경기도 용인시 수지구 상현동 1133-1번지 골드리치안오피스텔 102호","category":"일반휴게음식 - 일반한식"}]},{"lat":"37.310064025","long":"127.07691452","items":[{"name":"루나","tel":"031-000-0000","addr":"경기도 용인시 수지구 상현동 106-6번지 2층 일부","category":"일반휴게음식 - 서양음식"},{"name":"속초식당","tel":"031-266-4545","addr":"경기도 용인시 수지구 상현동 106-6번지 1층","category":"일반휴게음식 - 일반한식"},{"name":"쵸콜렛","tel":"031-000-0000","addr":"경기도 용인시 수지구 상현동 106-6번지 2층 일부","category":"레저업소 - 노 래 방"}]},{"lat":"37.308510309","long":"127.08299295","items":[{"name":"루루","tel":"031-261-0059","addr":"경기도 용인시 수지구 상현동 90-8번지 세움빌딩 1층","category":"의류 - 정장"},{"name":"청림수학교습소","tel":"070-4207-1311","addr":"경기도 용인시 수지구 상현동 90-8번지","category":"회원제형태 - 학원"},{"name":"헝그리오디오","tel":"070-4154-6759","addr":"경기도 용인시 수지구 상현동 90-8번지 세움빌딩 401호 상현동","category":"전기제품 - 가전제품"}]},{"lat":"37.300537364","long":"127.06630305","items":[{"name":"린병원","tel":"031-8005-1371","addr":"경기도 용인시 수지구 상현동 1186-1번지","category":"병원 - 병원"},{"name":"커피에이라인","tel":"031-212-8011","addr":"경기도 용인시 수지구 상현동 1186-1번지 린병원 내","category":"일반휴게음식 - 서양음식"},{"name":"팝스토어 린병원점","tel":"031-111-1111","addr":"경기도 용인시 수지구 상현동 1186-1번지","category":"유통업 영리 - 편 의 점"}]},{"lat":"37.309227581","long":"127.07446591","items":[{"name":"릴코리아","tel":"","addr":"경기도 용인시 수지구 상현동 1099번지 심곡마을광교힐스테이트 208동 1104호","category":"용역 서비스 - 기타용역서비스"}]},{"lat":"37.31250462","long":"127.09171713","items":[{"name":"마실아띠","tel":"","addr":"경기도 용인시 수지구 상현동 30번지 성원상떼빌아파트","category":"의류 - 정장"},{"name":"장기옥 아동 통합발달센터","tel":"","addr":"경기도 용인시 수지구 상현동 30번지 성원상떼빌아파트","category":"보건위생 - 기타대인서비스"}]},{"lat":"37.306753102","long":"127.08330692","items":[{"name":"마음을채우는요리","tel":"070-7680-5504","addr":"경기도 용인시 수지구 상현동 842번지 상현마을수지센트럴아이파크 103동 1004호","category":"학원 - 기타 교육기관"}]},{"lat":"37.303694325","long":"127.08941706","items":[{"name":"마이우스","tel":"031-276-7446","addr":"경기도 용인시 수지구 상현동 869번지 만현마을9단지엘지자이아파트","category":"서적문구 - 문구용품"},{"name":"알씨카","tel":"031-308-5392","addr":"경기도 용인시 수지구 상현동 869번지 만현마을9단지엘지자이아파트","category":"서적문구 - 완구점"}]},{"lat":"37.305014542","long":"127.08269597","items":[{"name":"맘스마레","tel":"031-261-7077","addr":"경기도 용인시 수지구 상현동 244-2번지 외2필지 6층","category":"음료식품 - 제과점"},{"name":"매쓰랩(MathLab)수학·과학학원","tel":"031-266-7010","addr":"경기도 용인시 수지구 상현동 244-2번지 반석빌딩 6층 일부","category":"학원 - 보습학원"},{"name":"머리못하는집","tel":"031-264-3519","addr":"경기도 용인시 수지구 상현동 244-2번지 반석빌딩 104호","category":"보건위생 - 미용원"},{"name":"문구플러스","tel":"031-262-8955","addr":"경기도 용인시 수지구 상현동 244-2번지 반석빌딩 1층 102호","category":"서적문구 - 문구용품"},{"name":"수지솔개초교점","tel":"031-264-8414","addr":"경기도 용인시 수지구 상현동 244-2번지","category":"수리서비스 - 세탁소"},{"name":"알모드예원미술학원","tel":"031-272-0023","addr":"경기도 용인시 수지구 상현동 244-2번지 반석빌딩 2층","category":"학원 - 예·체능계학원"},{"name":"윤선생영어숲용인상현학원","tel":"031-265-0582","addr":"경기도 용인시 수지구 상현동 244-2번지","category":"학원 - 보습학원"},{"name":"윤선생영어숲용인상현학원","tel":"031-265-0582","addr":"경기도 용인시 수지구 상현동 244-2번지 4층","category":"학원 - 보습학원"},{"name":"플라워풀(Flowerful)","tel":"031-266-4740","addr":"경기도 용인시 수지구 상현동 244-2번지 반석빌딩 103호","category":"문화.취미 - 화원"},{"name":"한양예술음악학원","tel":"031-261-8754","addr":"경기도 용인시 수지구 상현동 244-2번지 반석빌딩 5층","category":"학원 - 예·체능계학원"}]},{"lat":"37.302693402","long":"127.07732463","items":[{"name":"멍 Mother","tel":"","addr":"경기도 용인시 수지구 상현동 824번지","category":"문화.취미 - 애완동물"}]},{"lat":"37.308191731","long":"127.08761741","items":[{"name":"메리핑크","tel":"031-266-5884","addr":"경기도 용인시 수지구 상현동 858 만현마을5단지아이파크 502-1802 14/","category":"회원제형태 - 기타1"}]},{"lat":"37.30578798","long":"127.08480608","items":[{"name":"멘토수학영어학원","tel":"031-264-4999","addr":"경기도 용인시 수지구 상현동 251외2필지 SR프라자 301호","category":"학원 - 보습학원"},{"name":"팍스영어학원","tel":"031-897-0075","addr":"경기도 용인시 수지구 상현동 SR프라자304","category":"회원제형태 - 학원"}]},{"lat":"37.30378532","long":"127.08818772","items":[{"name":"멜로즈(Melrose)","tel":"070-7567-5226","addr":"경기도 용인시 수지구 상현동 869번지 만현마을9단지엘지자이아파트","category":"회원제형태 - 기타4"}]},{"lat":"37.296933969","long":"127.08027387","items":[{"name":"모리노야","tel":"031-217-0554","addr":"경기도 용인시 수지구 상현동 1158-14번지 102호","category":"일반휴게음식 - 일식·회집"},{"name":"예네하우스","tel":"0507-1409-7447","addr":"경기도 용인시 수지구 상현동 1158-14번지 401호","category":"숙박업 - 여관/기타숙박업"}]},{"lat":"37.307265757","long":"127.08466105","items":[{"name":"목우촌웰빙마을","tel":"031-248-8877","addr":"경기도 용인시 수지구 상현동 255번지 Top헤어뱅크 1호","category":"음료식품 - 정육점"},{"name":"별미찬방","tel":"031-266-9909","addr":"경기도 용인시 수지구 상현동 255번지 Top헤어뱅크 3호","category":"음료식품 - 기타음료식품"},{"name":"유에스투코리아","tel":"031-276-2345","addr":"경기도 용인시 수지구 상현동 255번지 2층","category":"자동차정비 유지 - 자동차부품"},{"name":"피자스쿨","tel":"031-896-9080","addr":"경기도 용인시 수지구 상현동 255번지","category":"일반휴게음식 - 일반한식"}]},{"lat":"37.297344129","long":"127.07271777","items":[{"name":"뮤엠영어 상록자이","tel":"070-7620-1859","addr":"경기도 용인시 수지구 상현동 1134번지 광교상록자이아파트","category":"학원 - 기타 교육기관"}]},{"lat":"37.312596617","long":"127.08915653","items":[{"name":"뮤엠영어 상현롯데Nest","tel":"031-304-0920","addr":"경기도 용인시 수지구 상현동 859번지 만현마을롯데캐슬아파트","category":"학원 - 외국어학원"}]},{"lat":"37.301722915","long":"127.07303763","items":[{"name":"미소화장품","tel":"","addr":"경기도 용인시 수지구 상현동 853번지","category":"보건위생 - 화장품"}]},{"lat":"37.313183518","long":"127.08744252","items":[{"name":"민예사","tel":"070-4001-2522","addr":"경기도 용인시 수지구 상현동 1","category":"회원제형태 - 기타4"},{"name":"세종상사","tel":"031-304-1113","addr":"경기도 용인시 수지구 상현동 1","category":"회원제형태 - 기타3"},{"name":"한줄기빛","tel":"031-708-3571","addr":"경기도 용인시 수지구 상현동 1번지 만현마을동보2차아파트","category":"의류 - 내의판매"}]},{"lat":"37.306588379","long":"127.08696139","items":[{"name":"바비","tel":"031-262-6293","addr":"경기도 용인시 수지구 상현동 850번지 만현마을쌍용1차아파트","category":"보건위생 - 화장품"}]},{"lat":"37.310761877","long":"127.08443923","items":[{"name":"반짝임","tel":"","addr":"경기도 용인시 수지구 상현동 1201번지 수지휴엔하임아파트","category":"신변잡화 - 액세서리"}]},{"lat":"37.297095991","long":"127.08052216","items":[{"name":"발리데꼬르","tel":"070-8170-7242","addr":"경기도 용인시 수지구 상현동 1158-8","category":"직물 - 침구·수예점"},{"name":"헬로니트(Hello Knit)","tel":"070-4035-7554","addr":"경기도 용인시 수지구 상현동 1158-8번지 1층","category":"의류 - 정장"}]},{"lat":"37.310094988","long":"127.08463027","items":[{"name":"방주어린이집","tel":"031-262-1114","addr":"경기도 용인시 수지구 상현동 78-32번지","category":"학원 - 유아원"}]},{"lat":"37.296762789","long":"127.08025114","items":[{"name":"보름","tel":"031-282-3885","addr":"경기도 용인시 수지구 상현동 1158-13번지 101호","category":"일반휴게음식 - 일반한식"}]},{"lat":"37.300514144","long":"127.07535996","items":[{"name":"보생이 식문화 연구소","tel":"031-8025-0902","addr":"경기도 용인시 수지구 상현동 1108번지 광교마을46단지광교스타클래스","category":"회원제형태 - 사무서비스"}]},{"lat":"37.309598997","long":"127.08525015","items":[{"name":"복정아구해물","tel":"031-265-0027","addr":"경기도 용인시 수지구 상현동 70-1번지","category":"일반휴게음식 - 일반한식"}]},{"lat":"37.298068859","long":"127.08088407","items":[{"name":"본 아미코 (Boun Amico)","tel":"","addr":"경기도 용인시 수지구 상현동 1156-5번지 101호","category":"일반휴게음식 - 서양음식"}]},{"lat":"37.304260863","long":"127.09091787","items":[{"name":"부들(booodl)","tel":"","addr":"경기도 용인시 수지구 상현동 869번지 만현마을9단지엘지자이아파트","category":"문화.취미 - 애완동물"}]},{"lat":"37.30487519","long":"127.08869653","items":[{"name":"브랜타임","tel":"031-302-8463","addr":"경기도 용인시 수지구 상현동 861","category":"회원제형태 - 기타4"}]},{"lat":"37.297402487","long":"127.08029691","items":[{"name":"브루노","tel":"031-217-9393","addr":"경기도 용인시 수지구 상현동 1158-17번지 1층","category":"일반휴게음식 - 서양음식"}]},{"lat":"37.302981899","long":"127.07705421","items":[{"name":"블루밍스킨케어","tel":"031-896-9698","addr":"경기도 용인시 수지구 상현동 824번지 상현마을쌍용2차A단지 상가동 207호","category":"보건위생 - 피부미용실"},{"name":"창신인테리어","tel":"031-476-2204","addr":"경기도 용인시 수지구 상현동 824번지 상현마을쌍용2차A단지 101호","category":"건축자재 - 인테리어전문"}]},{"lat":"37.300987823","long":"127.0814172","items":[{"name":"비엔(Bien)","tel":"","addr":"경기도 용인시 수지구 상현동 573-2번지 1층","category":"일반휴게음식 - 서양음식"},{"name":"타임 (TIME)","tel":"031-889-7178","addr":"경기도 용인시 수지구 상현동 573-2번지 1층","category":"의류 - 정장"}]},{"lat":"37.298284563","long":"127.0667523","items":[{"name":"비케이 이벤트","tel":"","addr":"경기도 용인시 수지구 상현동 1115번지 광교경남아너스빌 4302동 304호","category":"용역 서비스 - 종합용역"},{"name":"와이에스(YS)인터내셔날","tel":"031-372-1719","addr":"경기도 용인시 수지구 상현동 1115번지 광교경남아너스빌 4302동 1301호","category":"신변잡화 - 기타잡화"}]},{"lat":"37.305320454","long":"127.08333923","items":[{"name":"빅트와","tel":"031-4722-0322","addr":"경기도 용인시 수지구 상현동 855번지 상현마을현대성우3차아파트","category":"의류 - 정장"}]},{"lat":"37.302928651","long":"127.07574577","items":[{"name":"사계절수산","tel":"031-276-7719","addr":"경기도 용인시 수지구 상현동 823","category":"일반휴게음식 - 일반한식"},{"name":"피이씨(PEC)스포츠아카데미","tel":"031-263-6434","addr":"경기도 용인시 수지구 상현동 823번지","category":"학원 - 예·체능계학원"},{"name":"현대카하우스","tel":"031-263-8349","addr":"경기도 용인시 수지구 상현동 823번지","category":"자동차정비 유지 - 자동차정비"}]},{"lat":"37.296993304","long":"127.07173623","items":[{"name":"상록자이세탁","tel":"031-212-0065","addr":"경기도 용인시 수지구 상현동 1134번지 광교상록자이 상가 202호","category":"수리서비스 - 세탁소"},{"name":"지아이엠(GIM)그린아이뮤직","tel":"031-213-1229","addr":"경기도 용인시 수지구 상현동 1134번지 광교상록자이아파트","category":"학원 - 학습지 교육"}]},{"lat":"37.310459778","long":"127.07802038","items":[{"name":"상현골프마사지","tel":"031-263-1666","addr":"경기도 용인시 수지구 상현동 101-5번지 상현골프클럽내 3층","category":"보건위생 - 기타대인서비스"},{"name":"상현골프샵","tel":"031-265-8506","addr":"경기도 용인시 수지구 상현동 101-5번지 상현골프연습장내 1층","category":"레져용품 - 스포츠·레져용품"},{"name":"영우어패럴","tel":"031-264-4167","addr":"경기도 용인시 수지구 상현동 101-5번지 상현골프연습장내 1층","category":"의류 - 정장"}]},{"lat":"37.30995243","long":"127.08227254","items":[{"name":"상현노인전문요양원","tel":"031-896-1507","addr":"경기도 용인시 수지구 상현동 85-3번지 보라프라자 1층","category":"기타의료기관 - 기타의료기관 및 기타"},{"name":"상현노인주야간보호센터","tel":"031-896-1507","addr":"경기도 용인시 수지구 상현동 85-3번지 보라프라자","category":"기타의료기관 - 기타의료기관 및 기타"}]},{"lat":"37.312109967","long":"127.08929134","items":[{"name":"상현메디칼","tel":"031-264-7919","addr":"경기도 용인시 수지구 상현동 859번지 만현마을롯데캐슬아파트","category":"기타의료기관 - 기타의료기관 및 기타"}]},{"lat":"37.301203927","long":"127.08163172","items":[{"name":"상현손세차장","tel":"031-264-8890","addr":"경기도 용인시 수지구 상현동 573-1번지","category":"자동차정비 유지 - 세차장"}]},{"lat":"37.306488453","long":"127.07449715","items":[{"name":"상현우렁쌈밥","tel":"031-261-4838","addr":"경기도 용인시 수지구 상현동 166-4번지 2층","category":"일반휴게음식 - 일반한식"},{"name":"자작나무","tel":"031-272-3848","addr":"경기도 용인시 수지구 상현동 166-4번지 가동 1,2층","category":"일반휴게음식 - 서양음식"},{"name":"프렌즈노래연습장","tel":"031-272-7972","addr":"경기도 용인시 수지구 상현동 166-4번지 3층","category":"레저업소 - 노 래 방"}]},{"lat":"37.299351582","long":"127.0757536","items":[{"name":"상현유통","tel":"","addr":"경기도 용인시 수지구 상현동 866번지 상현마을성원상떼빌아파트","category":"음료식품 - 농·축·수산품"}]},{"lat":"37.300531152","long":"127.07699541","items":[{"name":"샘즈랩","tel":"031-205-8496","addr":"경기도 용인시 수지구 상현동 866번지 상현마을성원상떼빌아파트","category":"서적문구 - 기타서적문구"}]},{"lat":"37.297429333","long":"127.0805789","items":[{"name":"샬롱드슈","tel":"031-213-0701","addr":"경기도 용인시 수지구 상현동 1158-5번지 102호","category":"일반휴게음식 - 서양음식"}]},{"lat":"37.311283497","long":"127.08583857","items":[{"name":"서유상사","tel":"070-8222-8744","addr":"경기도 용인시 수지구 상현동 857만현마을10단지아이파크1004-304 25/","category":"회원제형태 - 기타4"}]},{"lat":"37.306384843","long":"127.08158073","items":[{"name":"석천씨씨주식회사","tel":"070-7570-3801","addr":"경기도 용인시 수지구 상현동 842번지 상현마을수지센트럴아이파크 108동 1304호","category":"신변잡화 - 기타잡화"}]},{"lat":"37.303704089","long":"127.07483289","items":[{"name":"세덴","tel":"070-8670-2011","addr":"경기도 용인시 수지구 상현동 351-13번지 1층 2호일부,3호","category":"자동차정비 유지 - 자동차정비"},{"name":"혜성조명","tel":"","addr":"경기도 용인시 수지구 상현동 351-13번지 2층","category":"건축자재 - 조명기구"}]},{"lat":"37.29601494","long":"127.08025038","items":[{"name":"손끝에","tel":"031-223-4572","addr":"경기도 용인시 수지구 상현동 1161-2번지 1층 101호","category":"문화.취미 - 민예·공예품"}]},{"lat":"37.313506984","long":"127.08869506","items":[{"name":"솔담","tel":"031-896-3025","addr":"경기도 용인시 수지구 상현동 9-1","category":"문화.취미 - 화원"}]},{"lat":"37.303035442","long":"127.07787765","items":[{"name":"수농원","tel":"031-896-5510","addr":"경기도 용인시 수지구 상현동 824번지","category":"문화.취미 - 화원"}]},{"lat":"37.297204091","long":"127.08055611","items":[{"name":"수작","tel":"031-213-0127","addr":"경기도 용인시 수지구 상현동 1158-7번지 101호","category":"일반휴게음식 - 서양음식"}]},{"lat":"37.30826248","long":"127.07611187","items":[{"name":"수지21세기의원","tel":"031-272-8995","addr":"경기도 용인시 수지구 상현동 193-1번지","category":"의원 - 의원"},{"name":"정성가득미소치과","tel":"031-272-7528","addr":"경기도 용인시 수지구 상현동 193-1번지","category":"의원 - 치과의원"},{"name":"크린팡팡","tel":"031-233-8285","addr":"경기도 용인시 수지구 상현동 193-1번지 2층","category":"수리서비스 - 세탁소"}]},{"lat":"37.307676521","long":"127.07658506","items":[{"name":"수지열린요양원","tel":"031-272-8580","addr":"경기도 용인시 수지구 상현동 200번지","category":"기타의료기관 - 기타의료기관 및 기타"}]},{"lat":"37.308793181","long":"127.07755624","items":[{"name":"수학인탑수학교습소","tel":"070-7519-6500","addr":"경기도 용인시 수지구 상현동 99,벽산상가206","category":"회원제형태 - 학원"},{"name":"제일유통상사","tel":"031-263-0840","addr":"경기도 용인시 수지구 상현동 99 벽산상가208호","category":"유통업 영리 - 기타유통업"}]},{"lat":"37.300793275","long":"127.07566475","items":[{"name":"숙명피아노","tel":"031-261-4424","addr":"경기도 용인시 수지구 상현동 1108번지 광교마을46단지광교스타클래스","category":"학원 - 예·체능계학원"},{"name":"크린에이드","tel":"031-261-5755","addr":"경기도 용인시 수지구 상현동 1108번지 광교마을46단지광교스타클래스","category":"수리서비스 - 세탁소"},{"name":"헤리움헤어","tel":"031-263-3221","addr":"경기도 용인시 수지구 상현동 1108번지 광교마을46단지광교스타클래스단지 상가 211동 204호","category":"보건위생 - 미용원"}]},{"lat":"37.306816738","long":"127.08247228","items":[{"name":"스완에스테틱","tel":"031-276-4666","addr":"경기도 용인시 수지구 상현동 842번지 센트럴아이파크단지내상가202","category":"회원제형태 - 기타4"},{"name":"씨유수지베스트점","tel":"02-1577-8007","addr":"경기도 용인시 수지구 상현동 842번지 상현마을수지센트럴아이파크 상가동 1층 101호","category":"유통업 영리 - 편 의 점"},{"name":"오레시피 용인수지상현점","tel":"","addr":"경기도 용인시 수지구 상현동 842번지 상현마을수지센트럴아이파크 107호","category":"음료식품 - 기타음료식품"},{"name":"장연우헤어","tel":"031-272-9202","addr":"경기도 용인시 수지구 상현동 842번지 상현마을수지센트럴아이파크 상가동 201호","category":"보건위생 - 미용원"},{"name":"포셀린카페","tel":"031-889-7557","addr":"경기도 용인시 수지구 상현동 842번지 상현마을수지센트럴아이파크 104,105호","category":"일반휴게음식 - 일반한식"}]},{"lat":"37.295988093","long":"127.07996839","items":[{"name":"스타일노리터","tel":"031-216-9979","addr":"경기도 용인시 수지구 상현동 1160-2번지 1층 101-1호","category":"의류 - 아동의류"}]},{"lat":"37.301264935","long":"127.07038665","items":[{"name":"스피드메이트SK용인고속점","tel":"031-264-1373","addr":"경기도 용인시 수지구 상현동 373-3번지","category":"자동차정비 유지 - 자동차정비"}]},{"lat":"37.314063665","long":"127.0913467","items":[{"name":"시네이","tel":"070-8688-8496","addr":"경기도 용인시 수지구 상현동 30","category":"회원제형태 - 기타4"},{"name":"행복한가족상담센터","tel":"","addr":"경기도 용인시 수지구 상현동 30번지 성원상떼빌아파트","category":"보건위생 - 기타대인서비스"}]},{"lat":"37.304667008","long":"127.08999343","items":[{"name":"시소컨설팅","tel":"031-255-2626","addr":"경기도 용인시 수지구 상현동 869번지 만현마을9단지엘지자이아파트","category":"용역 서비스 - 사무서비스"}]},{"lat":"37.304031383","long":"127.08422893","items":[{"name":"시크릿하우스","tel":"070-8776-2670","addr":"경기도 용인시 수지구 상현동 851번지 상현마을현대성우아파트","category":"회원제형태 - 기타4"}]},{"lat":"37.312702318","long":"127.09241677","items":[{"name":"쌈지인테리어","tel":"031-262-6897","addr":"경기도 용인시 수지구 상현동 30번지 성원 상가 109호","category":"건축자재 - 인테리어전문"},{"name":"어느별부엌","tel":"031-111-1111","addr":"경기도 용인시 수지구 상현동 30번지 성원상떼빌아파트 상가2동 203호","category":"일반휴게음식 - 스넥"},{"name":"커피볶는집","tel":"031-266-8890","addr":"경기도 용인시 수지구 상현동 30번지 상현동상가 2동 106호","category":"일반휴게음식 - 주점"},{"name":"쿨수학학원","tel":"031-261-5553","addr":"경기도 용인시 수지구 상현동 30번지 수지성원2차상가 1동 3층 302호","category":"학원 - 보습학원"},{"name":"탐구 수학학원","tel":"031-282-2999","addr":"경기도 용인시 수지구 상현동 30번지 303,308호","category":"학원 - 보습학원"},{"name":"튼튼영어마스터클럽수지송화마을영어교습소","tel":"031-262-4250","addr":"경기도 용인시 수지구 상현동 30번지","category":"학원 - 외국어학원"}]},{"lat":"37.29796121","long":"127.08016214","items":[{"name":"씨유광교숲속마을점","tel":"031-239-6698","addr":"경기도 용인시 수지구 상현동 1157번지 1층","category":"유통업 영리 - 편 의 점"}]},{"lat":"37.305425911","long":"127.07339074","items":[{"name":"씨유수지꿈에그린점","tel":"080-080-3663","addr":"경기도 용인시 수지구 상현동 1206번지 광교상현 꿈에그린 401동 지1층 1-1호","category":"유통업 영리 - 편 의 점"},{"name":"해비카페트","tel":"","addr":"경기도 용인시 수지구 상현동 1206번지 광교상현꿈에그린 106동 1801호","category":"직물 - 카페트,커튼,천막,지물"}]},{"lat":"37.303845685","long":"127.09186486","items":[{"name":"아르데오캔들","tel":"","addr":"경기도 용인시 수지구 상현동 869번지 만현마을9단지엘지자이아파트","category":"신변잡화 - 기타잡화"}]},{"lat":"37.305834289","long":"127.08296755","items":[{"name":"아르띠앙","tel":"070-8182-3767","addr":"경기도 용인시 수지구 상현동 842 상현마을수지센트럴아이파크 101-1501 30/","category":"회원제형태 - 서적"}]},{"lat":"37.299980399","long":"127.07877692","items":[{"name":"아르마디오","tel":"","addr":"경기도 용인시 수지구 상현동 866번지 상현마을성원상떼빌아파트","category":"의류 - 정장"},{"name":"윤(  )가족치료연구소","tel":"070-8261-8127","addr":"경기도 용인시 수지구 상현동 866번지 상현마을성원상떼빌아파트","category":"회원제형태 - 기타4"}]},{"lat":"37.297537433","long":"127.08061284","items":[{"name":"아베크비","tel":"070-4207-1004","addr":"경기도 용인시 수지구 상현동 1158-4번지 1층","category":"일반휴게음식 - 서양음식"}]},{"lat":"37.297186119","long":"127.06524007","items":[{"name":"아소비 교육원","tel":"","addr":"경기도 용인시 수지구 상현동 1113번지 광교마을45단지","category":"학원 - 기타 교육기관"}]},{"lat":"37.307917598","long":"127.08003697","items":[{"name":"아스트로파마","tel":"0505-756-3043","addr":"경기도 용인시 수지구 상현동 860번지 서원마을3단지아이파크","category":"회원제형태 - 기타1"}]},{"lat":"37.307297916","long":"127.07686669","items":[{"name":"아이디어브레인","tel":"051-740-3700","addr":"경기도 용인시 수지구 상현동 867번지 서원마을5단지금호베스트빌","category":"회원제형태 - 기타4"}]},{"lat":"37.296321214","long":"127.08036347","items":[{"name":"아일랜드15","tel":"031-212-1525","addr":"경기도 용인시 수지구 상현동 1161번지 1층 전체","category":"일반휴게음식 - 일반한식"}]},{"lat":"37.309622469","long":"127.09021347","items":[{"name":"아지트","tel":"031-262-3893","addr":"경기도 용인시 수지구 상현동 864번지 만현마을성원상떼빌아파트 상가 103호","category":"일반휴게음식 - 일반한식"}]},{"lat":"37.309901912","long":"127.07680156","items":[{"name":"안천건재상사","tel":"031-264-2141","addr":"경기도 용인시 수지구 상현동 107-6번지","category":"기타 - 기계공구"}]},{"lat":"37.30962099","long":"127.07932805","items":[{"name":"어울림","tel":"031-266-7721","addr":"경기도 용인시 수지구 상현동 96-1번지 풍산아파트 106호","category":"의류 - 정장"}]},{"lat":"37.304197611","long":"127.07811567","items":[{"name":"에너세이버썬팅(Enersaver 썬팅)","tel":"070-8723-1776","addr":"경기도 용인시 수지구 상현동 825번지 상현마을현대성우2차아파트","category":"회원제형태 - 기타3"}]},{"lat":"37.309920056","long":"127.08987541","items":[{"name":"에넥스디앤에스(D&S)","tel":"02-415-9095","addr":"경기도 용인시 수지구 상현동 864번지 만현마을성원상떼빌아파트","category":"회원제형태 - 기타4"}]},{"lat":"37.312416953","long":"127.0884118","items":[{"name":"에디트리커뮤니케이션","tel":"031-8748-3258","addr":"경기도 용인시 수지구 상현동 859번지 만현마을롯데캐슬아파트","category":"회원제형태 - 기타4"}]},{"lat":"37.313927783","long":"127.09231669","items":[{"name":"에스엠 인테리어 필름","tel":"031-266-0141","addr":"경기도 용인시 수지구 상현동 30번지 성원상떼빌아파트","category":"회원제형태 - 기타4"},{"name":"잇츠깡스","tel":"","addr":"경기도 용인시 수지구 상현동 30번지 성원상떼빌아파트","category":"의류 - 정장"}]},{"lat":"37.307765364","long":"127.0785817","items":[{"name":"에스티(ST)솔루션","tel":"031-000-0000","addr":"경기도 용인시 수지구 상현동 867번지 서원마을5단지금호베스트빌","category":"용역 서비스 - 사무서비스"}]},{"lat":"37.309537831","long":"127.08246387","items":[{"name":"에스티(ST)수지알티오라학원","tel":"031-896-1794","addr":"경기도 용인시 수지구 상현동 85-9번지 지하1층 지하2층","category":"학원 - 보습학원"},{"name":"해나무유치원","tel":"031-896-1791","addr":"경기도 용인시 수지구 상현동 85-9번지","category":"학원 - 유치원"}]},{"lat":"37.305094605","long":"127.08420752","items":[{"name":"에쓰제이인터내셔날(주)","tel":"031-893-0212","addr":"경기도 용인시 수지구 상현동 851번지 상현마을현대성우아파트","category":"신변잡화 - 기타잡화"},{"name":"중앙상사","tel":"070-7625-0202","addr":"경기도 용인시 수지구 상현동 851번지 상현마을현대성우아파트","category":"건축자재 - 조명기구"}]},{"lat":"37.300755897","long":"127.07780771","items":[{"name":"에어뮤직","tel":"070-7548-9003","addr":"경기도 용인시 수지구 상현동 866번지 상현마을성원상떼빌아파트","category":"전기제품 - 가전제품"}]},{"lat":"37.30420707","long":"127.09055687","items":[{"name":"엘지세탁","tel":"031-266-8995","addr":"경기도 용인시 수지구 상현동 869번지 만현마을9단지엘지자이아파트 102호","category":"수리서비스 - 세탁소"},{"name":"엘지자이마트","tel":"031-276-2949","addr":"경기도 용인시 수지구 상현동 869번지 만현마을엘지상현자이 상가동 101호","category":"유통업 영리 - 슈퍼마켓"},{"name":"이(e)해법수학상현LG자이점수학교습소","tel":"031-261-5747","addr":"경기도 용인시 수지구 상현동 869번지 만현마을9단지엘지자이아파트 상가동 202호","category":"학원 - 보습학원"},{"name":"자이헤어샵","tel":"031-266-4128","addr":"경기도 용인시 수지구 상현동 869 만현마을9단지엘지상가201","category":"보건위생 - 미용원"}]},{"lat":"37.302874997","long":"127.07508024","items":[{"name":"엠(M)","tel":"070-7862-1697","addr":"경기도 용인시 수지구 상현동 354-12번지 송정빌딩 2층 201호","category":"일반휴게음식 - 칵테일바"},{"name":"정직한용인금거래소","tel":"031-272-1866","addr":"경기도 용인시 수지구 상현동 354-12번지 송정빌딩","category":"신변잡화 - 귀금속"},{"name":"텃밭김치관","tel":"031-266-0018","addr":"경기도 용인시 수지구 상현동 354-12번지 송정빌딩","category":"일반휴게음식 - 일반한식"},{"name":"헌터 PC 상현점","tel":"","addr":"경기도 용인시 수지구 상현동 354-12번지 송정빌딩 3층","category":"레저업소 - 기타레져업소"},{"name":"휠링노래연습장","tel":"031-266-5647","addr":"경기도 용인시 수지구 상현동 354-12번지 송정빌딩 202호","category":"레저업소 - 노 래 방"}]},{"lat":"37.304217174","long":"127.089068","items":[{"name":"엠에스 트레이딩","tel":"","addr":"경기도 용인시 수지구 상현동 869번지 만현마을9단지엘지자이아파트","category":"신변잡화 - 기타잡화"}]},{"lat":"37.301097284","long":"127.06385599","items":[{"name":"예니리봉","tel":"","addr":"경기도 용인시 수지구 상현동 414번지 광교수리마을","category":"신변잡화 - 액세서리"}]},{"lat":"37.297654551","long":"127.08063552","items":[{"name":"오렌지정원","tel":"070-4839-7971","addr":"경기도 용인시 수지구 상현동 1158-3번지","category":"문화.취미 - 문화취미기타"},{"name":"카페스토리","tel":"070-7723-1158","addr":"경기도 용인시 수지구 상현동 1158-3번지","category":"일반휴게음식 - 일반한식"}]},{"lat":"37.303649364","long":"127.07591565","items":[{"name":"오토오아시스대한2점","tel":"031-264-5588","addr":"경기도 용인시 수지구 상현동 342번지","category":"자동차정비 유지 - 자동차정비"}]},{"lat":"37.309754273","long":"127.08217081","items":[{"name":"와우팡(WOWPANG)","tel":"02-3789-2222","addr":"경기도 용인시 수지구 상현동 85-6번지","category":"음료식품 - 기타음료식품"}]},{"lat":"37.306000595","long":"127.08989345","items":[{"name":"와이에이치씨","tel":"031-265-8345","addr":"경기도 용인시 수지구 상현동 850번지 만현마을쌍용1차아파트","category":"회원제형태 - 기타4"}]},{"lat":"37.305514738","long":"127.07550011","items":[{"name":"용인수지화훼집하장","tel":"031-263-3202","addr":"경기도 용인시 수지구 상현동 198-4","category":"문화.취미 - 화원"}]},{"lat":"37.303123441","long":"127.08112616","items":[{"name":"우리오토도어","tel":"031-263-6617","addr":"경기도 용인시 수지구 상현동 832번지 상현마을금호베스트빌2단지 256동 1601호","category":"용역 서비스 - 기타용역서비스"}]},{"lat":"37.30477138","long":"127.08252652","items":[{"name":"우선미플라워","tel":"02-3463-8787","addr":"경기도 용인시 수지구 상현동 838번지 상현마을동일스위트","category":"회원제형태 - 기타4"}]},{"lat":"37.305449418","long":"127.07907568","items":[{"name":"원조가평잣집","tel":"031-304-7465","addr":"경기도 용인시 수지구 상현동 827번지 금호베스트빌1단지아파트","category":"음료식품 - 미곡상"}]},{"lat":"37.298542075","long":"127.07341815","items":[{"name":"위드미 발달센터","tel":"070-8832-0409","addr":"경기도 용인시 수지구 상현동 1127-2번지 3층","category":"보건위생 - 기타대인서비스"},{"name":"홍박사정육도매","tel":"031-213-0708","addr":"경기도 용인시 수지구 상현동 1127-2번지 1층","category":"음료식품 - 정육점"}]},{"lat":"37.30821037","long":"127.08674887","items":[{"name":"위아소","tel":"","addr":"경기도 용인시 수지구 상현동 858번지 만현마을5단지아이파크","category":"신변잡화 - 기타잡화"}]},{"lat":"37.304603328","long":"127.07771001","items":[{"name":"유-모터스","tel":"","addr":"경기도 용인시 수지구 상현동 825번지 상현마을현대성우2차아파트","category":"자동차판매 - 중고자동차판매"}]},{"lat":"37.309038881","long":"127.07360844","items":[{"name":"유니래브","tel":"","addr":"경기도 용인시 수지구 상현동 1099번지 심곡마을광교힐스테이트 215동 201호","category":"신변잡화 - 액세서리"}]},{"lat":"37.309738853","long":"127.07818887","items":[{"name":"유니버스에듀","tel":"031-454-9449","addr":"경기도 용인시 수지구 상현동 99번지 벽산블루밍아파트","category":"회원제형태 - 서적"}]},{"lat":"37.305016629","long":"127.07953771","items":[{"name":"유진상사","tel":"031-898-2669","addr":"경기도 용인시 수지구 상현동 827번지 금호베스트빌1단지아파트","category":"회원제형태 - 기타1"}]},{"lat":"37.299266077","long":"127.06785844","items":[{"name":"유후키즈랜드광교점/(주)씨넥스아이디어그","tel":"","addr":"경기도 용인시 수지구 상현동 1174번지 3층 일부","category":"일반휴게음식 - 일반한식"},{"name":"장난감전문점 토이플러스","tel":"031-211-8960","addr":"경기도 용인시 수지구 상현동 1174번지 2층","category":"서적문구 - 완구점"}]},{"lat":"37.297510786","long":"127.08002634","items":[{"name":"이가네동태탕","tel":"031-214-1230","addr":"경기도 용인시 수지구 상현동 1157-3번지","category":"일반휴게음식 - 일반한식"}]},{"lat":"37.302756855","long":"127.07671561","items":[{"name":"이레시스템","tel":"070-7675-0880","addr":"경기도 용인시 수지구 상현동 824번지 상현마을쌍용2차A단지 171동 1701호","category":"회원제형태 - 기타4"}]},{"lat":"37.310123381","long":"127.08263369","items":[{"name":"이룸카페","tel":"031-548-2641","addr":"경기도 용인시 수지구 상현동 83-9번지 이룸교회 1층 일부","category":"일반휴게음식 - 서양음식"}]},{"lat":"37.301882538","long":"127.07723359","items":[{"name":"이신우컬렉션","tel":"","addr":"경기도 용인시 수지구 상현동 828번지 상현마을쌍용2차스윗닷홈B단지아파트","category":"의류 - 정장"},{"name":"이신우컬렉션","tel":"","addr":"경기도 용인시 수지구 상현동 828번지 상현마을쌍용2차스윗닷홈B단지아파트","category":"의류 - 정장"}]},{"lat":"37.306070466","long":"127.08009148","items":[{"name":"이지셀렉트주식회사","tel":"031-286-3852","addr":"경기도 용인시 수지구 상현동 840번지 상현마을금호베스트빌4단지","category":"용역 서비스 - 소프트웨어"}]},{"lat":"37.311874655","long":"127.09071242","items":[{"name":"일영비엔","tel":"031-262-6115","addr":"경기도 용인시 수지구 상현동 859번지 만현마을롯데캐슬아파트","category":"기타 - 기타 전문점"}]},{"lat":"37.298204449","long":"127.08021878","items":[{"name":"일오삼설렁탕","tel":"031-265-0153","addr":"경기도 용인시 수지구 상현동 1156-1번지","category":"일반휴게음식 - 일반한식"}]},{"lat":"37.308254918","long":"127.07373178","items":[{"name":"임주혁 골프아카데미","tel":"","addr":"경기도 용인시 수지구 상현동 1099번지 심곡마을광교힐스테이트 210동 1304호","category":"레저업소 - 골프연습장"}]},{"lat":"37.313262244","long":"127.09069147","items":[{"name":"자린고비","tel":"031-272-4666","addr":"경기도 용인시 수지구 상현동 24-10번지","category":"일반휴게음식 - 일반한식"}]},{"lat":"37.304221084","long":"127.08351853","items":[{"name":"작은소나무","tel":"","addr":"경기도 용인시 수지구 상현동 855번지 상현마을현대성우3차아파트","category":"학원 - 기타 교육기관"}]},{"lat":"37.310595543","long":"127.07705041","items":[{"name":"저먼오토","tel":"031-265-3330","addr":"경기도 용인시 수지구 상현동 105-1번지 3층 1호 2","category":"자동차정비 유지 - 자동차부품"}]},{"lat":"37.298123158","long":"127.08052322","items":[{"name":"전주명가쌈밥","tel":"070-8834-1282","addr":"경기도 용인시 수지구 상현동 1156-3번지 1층","category":"일반휴게음식 - 일반한식"}]},{"lat":"37.309259543","long":"127.08091819","items":[{"name":"정성한 골프아카데미","tel":"070-7677-7988","addr":"경기도 용인시 수지구 상현동 85-6번지 서원마을현대홈타운아파트","category":"레저업소 - 골프연습장"}]},{"lat":"37.305038557","long":"127.0870499","items":[{"name":"제이디(JD)헤어","tel":"031-898-1444","addr":"경기도 용인시 수지구 상현동 861번지 만현마을두산위브 상가 105호","category":"보건위생 - 미용원"}]},{"lat":"37.297654736","long":"127.08035356","items":[{"name":"제이엔제이(J&J) 영어교습소","tel":"","addr":"경기도 용인시 수지구 상현동 1158-19번지 101호","category":"학원 - 외국어학원"}]},{"lat":"37.304427592","long":"127.08457902","items":[{"name":"제이제이헤어팀","tel":"031-896-9441","addr":"경기도 용인시 수지구 상현동 851번지 현대성우1차 상가동 101호","category":"보건위생 - 미용원"}]},{"lat":"37.308097559","long":"127.08040939","items":[{"name":"조수아헤어맘","tel":"031-263-8080","addr":"경기도 용인시 수지구 상현동 860 아이파크3단지 상가201","category":"보건위생 - 미용원"},{"name":"토킹스타영어학원","tel":"","addr":"경기도 용인시 수지구 상현동 860번지 서월마을3단지 아이파크 상가동 204,205,206호","category":"학원 - 외국어학원"},{"name":"현대마트","tel":"031-262-2733","addr":"경기도 용인시 수지구 상현동 860번지 서원마을3단지아이파크 상가동 101호","category":"유통업 영리 - 슈퍼마켓"},{"name":"현대세탁","tel":"031-266-1220","addr":"경기도 용인시 수지구 상현동 860번지 서원마을3단지아이파크 104호","category":"수리서비스 - 세탁소"}]},{"lat":"37.302772421","long":"127.08055056","items":[{"name":"조유미 수학","tel":"031-302-0916","addr":"경기도 용인시 수지구 상현동 832번지 상현마을금호베스트빌2단지","category":"학원 - 보습학원"}]},{"lat":"37.309395413","long":"127.07982415","items":[{"name":"조은공조","tel":"031-272-5955","addr":"경기도 용인시 수지구 상현동 96-1번지 풍산아파트","category":"전기제품 - 냉열기기"}]},{"lat":"37.29984426","long":"127.08029941","items":[{"name":"주식회사 리틀소시에광교(리틀소시에광교어","tel":"031-215-8085","addr":"경기도 용인시 수지구 상현동 560-1번지 1층","category":"학원 - 외국어학원"}]},{"lat":"37.299596734","long":"127.0726409","items":[{"name":"주식회사 썬스엠디","tel":"031-211-5810","addr":"경기도 용인시 수지구 상현동 1125번지 큐브빌딩","category":"자동차정비 유지 - 주차장"}]},{"lat":"37.312440654","long":"127.09290152","items":[{"name":"주영","tel":"070-8632-5336","addr":"경기도 용인시 수지구 상현동 30","category":"회원제형태 - 기타3"}]},{"lat":"37.308968898","long":"127.08435833","items":[{"name":"주영인더스트리","tel":"031-896-1966","addr":"경기도 용인시 수지구 상현동 843번지 상현마을성우5차아파트","category":"회원제형태 - 기타4"}]},{"lat":"37.295757838","long":"127.07353961","items":[{"name":"지니출장세차","tel":"02-994-7933","addr":"경기도 용인시 수지구 상현동 1135번지 광교마을휴먼시아41단지","category":"자동차정비 유지 - 세차장"},{"name":"지온 세차","tel":"","addr":"경기도 용인시 수지구 상현동 1135번지 광교마을휴먼시아41단지","category":"자동차정비 유지 - 세차장"}]},{"lat":"37.308812012","long":"127.07625905","items":[{"name":"진헤어갤러리","tel":"031-261-1843","addr":"경기도 용인시 수지구 상현동 108-1대진a101-105","category":"보건위생 - 미용원"}]},{"lat":"37.303396694","long":"127.07653577","items":[{"name":"참조은커뮤니케이션","tel":"031-8004-0053","addr":"경기도 용인시 수지구 상현동 824번지","category":"용역 서비스 - 종합용역"}]},{"lat":"37.295708776","long":"127.07996811","items":[{"name":"참품 정육점","tel":"031-216-2110","addr":"경기도 용인시 수지구 상현동 1161-5번지 1층 102호","category":"음료식품 - 정육점"},{"name":"파리바게뜨 (광교마을점)","tel":"031-216-0482","addr":"경기도 용인시 수지구 상현동 1161-5번지 1층 일부","category":"음료식품 - 제과점"}]},{"lat":"37.29633376","long":"127.0747582","items":[{"name":"초이스","tel":"","addr":"경기도 용인시 수지구 상현동 1135번지 광교마을휴먼시아41단지","category":"보건위생 - 화장품"}]},{"lat":"37.312597377","long":"127.08810743","items":[{"name":"촌","tel":"031-266-7222","addr":"경기도 용인시 수지구 상현동 13-5번지 외3필지","category":"일반휴게음식 - 일반한식"}]},{"lat":"37.297123162","long":"127.0803079","items":[{"name":"카요코코","tel":"","addr":"경기도 용인시 수지구 상현동 1158-15번지 102호","category":"일반휴게음식 - 서양음식"}]},{"lat":"37.309323022","long":"127.08029785","items":[{"name":"카인드요가","tel":"031-000-0000","addr":"경기도 용인시 수지구 상현동 95-5번지 라임카운티 B동 201호","category":"레저업소 - 헬스클럽"}]},{"lat":"37.304343712","long":"127.07500269","items":[{"name":"카츠 마루젠","tel":"031-262-6040","addr":"경기도 용인시 수지구 상현동 347-1번지","category":"일반휴게음식 - 서양음식"},{"name":"팔당냉면","tel":"031-262-6040","addr":"경기도 용인시 수지구 상현동 347-1번지","category":"일반휴게음식 - 일반한식"}]},{"lat":"37.304517764","long":"127.0844776","items":[{"name":"카트린의소망Cather ine'sWish","tel":"031-889-5091","addr":"경기도 용인시 수지구 상현동 851번지 상현마을현대성우아파트","category":"음료식품 - 기타음료식품"}]},{"lat":"37.309568548","long":"127.07677867","items":[{"name":"카페레스트(CAFE REST)","tel":"031-262-0452","addr":"경기도 용인시 수지구 상현동 107-10번지 2층","category":"일반휴게음식 - 서양음식"}]},{"lat":"37.310094346","long":"127.08555526","items":[{"name":"카페마노아","tel":"031-896-6611","addr":"경기도 용인시 수지구 상현동 71번지","category":"일반휴게음식 - 서양음식"}]},{"lat":"37.297789868","long":"127.08038753","items":[{"name":"코니핑크","tel":"","addr":"경기도 용인시 수지구 상현동 1158-20번지 1층","category":"음료식품 - 기타음료식품"}]},{"lat":"37.30623395","long":"127.07807258","items":[{"name":"코리상사(KORI Corp.)","tel":"031-245-5924","addr":"경기도 용인시 수지구 상현동 867번지 서원마을5단지금호베스트빌","category":"회원제형태 - 기타4"}]},{"lat":"37.307678919","long":"127.08653397","items":[{"name":"코빗","tel":"","addr":"경기도 용인시 수지구 상현동 852번지 만현마을쌍용3차아파트","category":"서적문구 - 문구용품"}]},{"lat":"37.308543568","long":"127.07319061","items":[{"name":"코스모스교육","tel":"","addr":"경기도 용인시 수지구 상현동 1099번지 심곡마을광교힐스테이트","category":"학원 - 기타 교육기관"}]},{"lat":"37.310623709","long":"127.08870306","items":[{"name":"코코","tel":"070-2699-0807","addr":"경기도 용인시 수지구 상현동 856번지 만현마을2단지아이파크","category":"의류 - 내의판매"}]},{"lat":"37.297843729","long":"127.08069211","items":[{"name":"코코","tel":"000-000-0000","addr":"경기도 용인시 수지구 상현동 1158-1번지 101호","category":"의류 - 정장"}]},{"lat":"37.310801504","long":"127.0919633","items":[{"name":"크린텍통상","tel":"031-265-9602","addr":"경기도 용인시 수지구 상현동 33번지 현대파인빌리지 203동 602호","category":"회원제형태 - 기타4"}]},{"lat":"37.309820799","long":"127.07683532","items":[{"name":"타이어프로 상현점","tel":"031-263-8333","addr":"경기도 용인시 수지구 상현동 107-1번지","category":"자동차정비 유지 - 자동차시트·타이어"},{"name":"타이어프로 상현점","tel":"031-263-8333","addr":"경기도 용인시 수지구 상현동 107-1번지","category":"자동차정비 유지 - 자동차시트·타이어"}]},{"lat":"37.308667251","long":"127.07721771","items":[{"name":"태종지에스(TAE JONG G.S)","tel":"031-896-1220","addr":"경기도 용인시 수지구 상현동 99번지 벽산블루밍아파트","category":"건축자재 - 기타건축자재"}]},{"lat":"37.304909111","long":"127.09157284","items":[{"name":"토브","tel":"","addr":"경기도 용인시 수지구 상현동 869번지 만현마을9단지엘지자이아파트","category":"직물 - 침구·수예점"}]},{"lat":"37.308667646","long":"127.07658603","items":[{"name":"토이강정","tel":"031-272-3552","addr":"경기도 용인시 수지구 상현동 108-1번지 대진아파트","category":"일반휴게음식 - 일반한식"}]},{"lat":"37.297537618","long":"127.08033088","items":[{"name":"토프레소 광교숲속마을점","tel":"031-212-8572","addr":"경기도 용인시 수지구 상현동 1158-18번지","category":"일반휴게음식 - 서양음식"}]},{"lat":"37.303788701","long":"127.08336016","items":[{"name":"트윈 스포츠","tel":"070-7783-9919","addr":"경기도 용인시 수지구 상현동 855번지 상현마을현대성우3차아파트","category":"레져용품 - 스포츠·레져용품"}]},{"lat":"37.30875023","long":"127.07414961","items":[{"name":"티지이(TGE)","tel":"031-264-2687","addr":"경기도 용인시 수지구 상현동 1099번지 심곡마을광교힐스테이트 209동 1802호","category":"회원제형태 - 기타1"}]},{"lat":"37.29809705","long":"127.06351521","items":[{"name":"티파니","tel":"","addr":"경기도 용인시 수지구 상현동 1113번지 광교마을45단지","category":"의류 - 정장"},{"name":"후 바이 리쎄","tel":"031-245-4207","addr":"경기도 용인시 수지구 상현동 1113번지 광교마을45단지","category":"신변잡화 - 기타잡화"}]},{"lat":"37.299266428","long":"127.06721555","items":[{"name":"판교크레인 주식회사","tel":"031-706-5504","addr":"경기도 용인시 수지구 상현동 493-8번지","category":"기타 - 기계공구"}]},{"lat":"37.312774476","long":"127.09231533","items":[{"name":"팔도상회","tel":"031-6242-0194","addr":"경기도 용인시 수지구 상현동 30번지 성원상떼빌아파트","category":"음료식품 - 농·축·수산품"}]},{"lat":"37.306227745","long":"127.08727682","items":[{"name":"팜트리스","tel":"070-4212-7990","addr":"경기도 용인시 수지구 상현동 850번지 만현마을쌍용1차아파트","category":"가구 - 일반가구"}]},{"lat":"37.312544322","long":"127.08669728","items":[{"name":"패티즘","tel":"031-000-0000","addr":"경기도 용인시 수지구 상현동 1번지 만현마을동보2차아파트","category":"의류 - 정장"}]},{"lat":"37.303994914","long":"127.08484926","items":[{"name":"포맘","tel":"031-262-8298","addr":"경기도 용인시 수지구 상현동 851번지 상현마을현대성우아파트","category":"보건위생 - 기타대인서비스"}]},{"lat":"37.298074885","long":"127.07112818","items":[{"name":"프레야캔들","tel":"031-722-6090","addr":"경기도 용인시 수지구 상현동 1134번지 광교상록자이아파트","category":"신변잡화 - 기타잡화"}]},{"lat":"37.296564476","long":"127.08038628","items":[{"name":"플라츠로스팅컴퍼니","tel":"031-213-0722","addr":"경기도 용인시 수지구 상현동 1158-11번지 101호","category":"일반휴게음식 - 서양음식"}]},{"lat":"37.314143669","long":"127.09279074","items":[{"name":"해법영어 수지이룸교실","tel":"","addr":"경기도 용인시 수지구 상현동 30번지 성원상떼빌아파트 102동 202호","category":"학원 - 기타 교육기관"}]},{"lat":"37.306434649","long":"127.08773952","items":[{"name":"향기 이룸(Hyanggi eRoom)","tel":"031-890-4477","addr":"경기도 용인시 수지구 상현동 850번지 만현마을쌍용1차아파트","category":"문화.취미 - 문화취미기타"}]},{"lat":"37.296735633","long":"127.08044284","items":[{"name":"헤븐해즈","tel":"031-215-1149","addr":"경기도 용인시 수지구 상현동 1158-10번지 101호","category":"의류 - 정장"}]},{"lat":"37.313181627","long":"127.09004838","items":[{"name":"헤어휠미용실","tel":"031-263-4895","addr":"경기도 용인시 수지구 상현동 20번지 성원상가 101호 헤어휠미용실","category":"보건위생 - 미용원"}]},{"lat":"37.29850131","long":"127.06581636","items":[{"name":"헬로버니","tel":"","addr":"경기도 용인시 수지구 상현동 1113번지 광교마을45단지","category":"서적문구 - 문구용품"}]},{"lat":"37.302728207","long":"127.07926468","items":[{"name":"혁장기획","tel":"","addr":"경기도 용인시 수지구 상현동 832번지 상현마을금호베스트빌2단지 251동 401호","category":"건축자재 - 목재·석재·철물"}]},{"lat":"37.299010641","long":"127.0733622","items":[{"name":"홍박사생고기","tel":"031-213-0708","addr":"경기도 용인시 수지구 상현동 1127번지 1층 2층","category":"일반휴게음식 - 일반한식"}]}]