[{"lat":"37.07684144","long":"127.05506182","items":[{"name":"(주)맥스텔","tel":"031-611-3771","addr":"경기도 평택시 신장동 237-4번지","category":"사무통신 - 통신기기"}]},{"lat":"37.079293389","long":"127.05256688","items":[{"name":"(주)송탄유통","tel":"031-666-3356","addr":"경기도 평택시 신장동 274-202번지","category":"유통업 영리 - 슈퍼마켓"},{"name":"㈜송탄유통","tel":"031-666-8662","addr":"경기도 평택시 신장동 274-202번지","category":"소매업 - 생필품"},{"name":"송탄호스텔","tel":"031-666-0678","addr":"경기도 평택시 신장동 274-202번지","category":"숙박업 - 여관/기타숙박업"},{"name":"쿨스포츠","tel":"031-666-6340","addr":"경기도 평택시 신장동 274-202번지","category":"의류 - 정장"}]},{"lat":"37.087867204","long":"127.06184023","items":[{"name":"(주)원일도장","tel":"031-657-7703","addr":"경기도 평택시 신장동 503번지 109호","category":"건축자재 - 페인트"},{"name":"국일상회","tel":"031-663-9880","addr":"경기도 평택시 신장동 503번지","category":"음료식품 - 농·축·수산품"},{"name":"늘푸른","tel":"031-666-2713","addr":"경기도 평택시 신장동 503번지 107호","category":"건축자재 - 인테리어전문"},{"name":"대신상회","tel":"031-666-7707","addr":"경기도 평택시 신장동 503번지","category":"음료식품 - 농·축·수산품"},{"name":"모던광고사","tel":"031-668-8006","addr":"경기도 평택시 신장동 503번지 114호","category":"용역 서비스 - 종합용역"},{"name":"생명유통","tel":"031-663-8989","addr":"경기도 평택시 신장동 503번지 102호","category":"음료식품 - 기타음료식품"},{"name":"중앙상회","tel":"031-663-7117","addr":"경기도 평택시 신장동 503번지 113호","category":"음료식품 - 농·축·수산품"}]},{"lat":"37.081897974","long":"127.05128649","items":[{"name":"(주)호아마이푸드컴퍼니","tel":"031-664-2555","addr":"경기도 평택시 신장동 310-4번지 2층 외2필지","category":"일반휴게음식 - 서양음식"}]},{"lat":"37.077069225","long":"127.04897806","items":[{"name":"153공조","tel":"031-372-6687","addr":"경기도 평택시 신장동 690-154번지","category":"용역 서비스 - 기타용역서비스"},{"name":"평택에어컨","tel":"031-667-7197","addr":"경기도 평택시 신장동 690-154번지","category":"용역 서비스 - 기타용역서비스"}]},{"lat":"37.080014413","long":"127.05214","items":[{"name":"17번가","tel":"031-663-2635","addr":"경기도 평택시 신장동 317-63번지","category":"의류 - 정장"},{"name":"네일싸롱","tel":"","addr":"경기도 평택시 신장동 317-63번지 1층","category":"보건위생 - 피부미용실"}]},{"lat":"37.078923979","long":"127.05251041","items":[{"name":"333하니숙녀복","tel":"031-663-0288","addr":"경기도 평택시 신장동 274-330번지","category":"의류 - 정장"},{"name":"333하니숙녀복","tel":"031-663-0288","addr":"경기도 평택시 신장동 274-330번지","category":"소매업 - 의류"},{"name":"꼬마도깨비","tel":"031-664-9792","addr":"경기도 평택시 신장동 274-330번지","category":"일반휴게음식 - 칵테일바"},{"name":"미스미스터송탄대리점","tel":"031-662-9733","addr":"경기도 평택시 신장동 274-330번지","category":"신변잡화 - 제화"},{"name":"응답하라짱구야","tel":"031-664-8295","addr":"경기도 평택시 신장동 274-330번지 1층","category":"일반휴게음식 - 일반한식"},{"name":"이스케이프","tel":"","addr":"경기도 평택시 신장동 274-330번지","category":"소매업 - 의류"},{"name":"청미사","tel":"031-666-8311","addr":"경기도 평택시 신장동 274-330번지","category":"소매업 - 미용재료"},{"name":"청미사","tel":"031-663-0288","addr":"경기도 평택시 신장동 274-330번지","category":"보건위생 - 미용재료"}]},{"lat":"37.080095297","long":"127.05264613","items":[{"name":"4썸(SUM)","tel":"070-4644-2354","addr":"경기도 평택시 신장동 319-38번지 1층","category":"회원제형태 - 기타4"},{"name":"마닐라바이","tel":"","addr":"경기도 평택시 신장동 319-38번지 지하1층","category":"일반휴게음식 - 서양음식"},{"name":"시몬상회","tel":"031-666-2892","addr":"경기도 평택시 신장동 319-38번지","category":"신변잡화 - 신발"}]},{"lat":"37.08034865","long":"127.05005967","items":[{"name":"808타이키친(THAI KITCHEN)","tel":"070-4229-4949","addr":"경기도 평택시 신장동 302-90번지 2층 A호","category":"일반휴게음식 - 서양음식"},{"name":"블루째즈","tel":"031-611-5689","addr":"경기도 평택시 신장동 302-90번지","category":"일반휴게음식 - 주점"}]},{"lat":"37.079844057","long":"127.05005936","items":[{"name":"A+(에이플러스)","tel":"031-662-4469","addr":"경기도 평택시 신장동 302-173번지","category":"신변잡화 - 기타잡화"},{"name":"오산 베스트샵","tel":"031-664-0431","addr":"경기도 평택시 신장동 302-173번지","category":"의류 - 정장"},{"name":"태평양양복점","tel":"031-667-5077","addr":"경기도 평택시 신장동 302-173번지","category":"소매업 - 의류"}]},{"lat":"37.08042942","long":"127.05086945","items":[{"name":"A.J-SHOP","tel":"031-611-1982","addr":"경기도 평택시 신장동 302-7번지","category":"의류 - 정장"},{"name":"네일홀릭2","tel":"031-111-1111","addr":"경기도 평택시 신장동 302-7번지 2호","category":"보건위생 - 피부미용실"},{"name":"로그인평택제일","tel":"031-662-3573","addr":"경기도 평택시 신장동 302-7번지","category":"유통업 영리 - 슈퍼마켓"},{"name":"로얄양복점","tel":"031-666-6602","addr":"경기도 평택시 신장동 302-7번지","category":"의류 - 맞춤복점"},{"name":"세비체210","tel":"031-665-4698","addr":"경기도 평택시 신장동 302-7번지 2층","category":"일반휴게음식 - 서양음식"},{"name":"옥스포드가죽","tel":"031-666-2054","addr":"경기도 평택시 신장동 302-7번지 1층","category":"의류 - 맞춤복점"},{"name":"유림사","tel":"031-662-9855","addr":"경기도 평택시 신장동 302-7번지","category":"의류 - 정장"},{"name":"유에스에이이불집","tel":"031-662-4166","addr":"경기도 평택시 신장동 302-7번지","category":"직물 - 침구·수예점"},{"name":"화신공예","tel":"031-662-3260","addr":"경기도 평택시 신장동 302-7번지","category":"문화.취미 - 민예·공예품"}]},{"lat":"37.078932174","long":"127.05442223","items":[{"name":"AWESOME VAPE","tel":"","addr":"경기도 평택시 신장동 224-5번지 3층 4호","category":"신변잡화 - 기타잡화"},{"name":"개스타그램","tel":"070-4922-1261","addr":"경기도 평택시 신장동 224-5번지 2층 3호","category":"일반휴게음식 - 일반한식"}]},{"lat":"37.079925162","long":"127.05003692","items":[{"name":"BE Bridge Communication","tel":"","addr":"경기도 평택시 신장동 302-170번지","category":"사무통신 - 컴퓨터"}]},{"lat":"37.079789214","long":"127.05198241","items":[{"name":"BIGBRO","tel":"031-663-9158","addr":"경기도 평택시 신장동 317-72번지","category":"의류 - 정장"}]},{"lat":"37.081373848","long":"127.05486249","items":[{"name":"CFSTORY","tel":"031-663-6647","addr":"경기도 평택시 신장동 208-17번지","category":"의류 - 정장"}]},{"lat":"37.081347605","long":"127.05302932","items":[{"name":"CNC골프. 헬스","tel":"031-664-8825","addr":"경기도 평택시 신장동 324-9번지 1층 102호~127호","category":"레저업소 - 스크린골프"},{"name":"CNC골프헬스","tel":"","addr":"경기도 평택시 신장동 324-9번지 월드프라자 1층","category":"서비스업 - 골프"},{"name":"MITO CHA","tel":"031-665-1365","addr":"경기도 평택시 신장동 324-9번지 월드프라자 301호","category":"일반휴게음식 - 서양음식"},{"name":"bag hug","tel":"031-664-8774","addr":"경기도 평택시 신장동 324-9번지 월드프라자 102호","category":"신변잡화 - 가방"},{"name":"내맘대로","tel":"","addr":"경기도 평택시 신장동 324-9번지 월드프라자 102호","category":"일반휴게음식 - 서양음식"},{"name":"미스리햄버거","tel":"031-667-6277","addr":"경기도 평택시 신장동 324-9번지 월드프라자 104호","category":"음식점 - 간이음식"},{"name":"비엔피","tel":"","addr":"경기도 평택시 신장동 324-9번지 월드프라자 지하","category":"레저업소 - 볼 링 장"},{"name":"아워갱","tel":"","addr":"경기도 평택시 신장동 324-9번지 월드프라자 1층 101호","category":"의류 - 정장"}]},{"lat":"37.080816354","long":"127.05214052","items":[{"name":"CU평택쇼핑타운점","tel":"031-667-4566","addr":"경기도 평택시 신장동 319-15번지","category":"소매업 - 편의점"},{"name":"남성크로커다일송탄점","tel":"031-611-5766","addr":"경기도 평택시 신장동 319-15번지","category":"레져용품 - 스포츠·레져용품"},{"name":"싸왓디","tel":"031-666-5040","addr":"경기도 평택시 신장동 319-15번지","category":"일반휴게음식 - 서양음식"},{"name":"씨유평택쇼핑타운점","tel":"031-664-0518","addr":"경기도 평택시 신장동 319-15번지","category":"유통업 영리 - 편 의 점"},{"name":"제이에스어페럴(JS)","tel":"070-7617-2270","addr":"경기도 평택시 신장동 319-15번지","category":"의류 - 내의판매"}]},{"lat":"37.08543052","long":"127.05028776","items":[{"name":"Co N Co","tel":"031-666-4040","addr":"경기도 평택시 신장동 368-2번지","category":"자동차정비 유지 - 자동차부품"},{"name":"Co N Co Korea","tel":"031-666-4040","addr":"경기도 평택시 신장동 368-2번지","category":"자동차판매 - 중고자동차판매"},{"name":"준 모터스","tel":"031-668-8181","addr":"경기도 평택시 신장동 368-2","category":"자동차정비 유지 - 자동차정비"},{"name":"지우카","tel":"031-666-0024","addr":"경기도 평택시 신장동 368-2번지 8동 1층","category":"자동차정비 유지 - 세차장"}]},{"lat":"37.079456017","long":"127.05150986","items":[{"name":"Crazy","tel":"031-663-7078","addr":"경기도 평택시 신장동 300-60번지","category":"신변잡화 - 액세서리"},{"name":"서독안경","tel":"031-666-5271","addr":"경기도 평택시 신장동 300-60번지","category":"보건위생 - 안경"},{"name":"스타일링헤어샵","tel":"031-000-0000","addr":"경기도 평택시 신장동 300-60번지 1층","category":"보건위생 - 미용원"},{"name":"아주양품","tel":"031-664-5004","addr":"경기도 평택시 신장동 300-60번지","category":"의류 - 정장"},{"name":"코코졸리","tel":"031-665-8765","addr":"경기도 평택시 신장동 300-60번지","category":"의류 - 정장"},{"name":"클레오파트라","tel":"031-668-1919","addr":"경기도 평택시 신장동 300-60번지","category":"보건위생 - 화장품"}]},{"lat":"37.074733676","long":"127.05341855","items":[{"name":"FOR YOU 25","tel":"031-663-4580","addr":"경기도 평택시 신장동 263-43번지","category":"유통업 영리 - 슈퍼마켓"},{"name":"포유25 송탄역","tel":"","addr":"경기도 평택시 신장동 263-43번지","category":"소매업 - 편의점"}]},{"lat":"37.084149019","long":"127.05505558","items":[{"name":"GS25송탄목천로점","tel":"","addr":"경기도 평택시 신장동 172-10번지 1층","category":"유통업 영리 - 편 의 점"},{"name":"쉼터","tel":"031-665-0650","addr":"경기도 평택시 신장동 172-10번지","category":"음식점 - 한식"}]},{"lat":"37.078536998","long":"127.05136308","items":[{"name":"GS25송탄밀월로점","tel":"","addr":"경기도 평택시 신장동 274-148번지 1층","category":"유통업 영리 - 편 의 점"}]},{"lat":"37.074931232","long":"127.05498179","items":[{"name":"GS25송탄센트점","tel":"","addr":"경기도 평택시 신장동 247-6번지 동영센트럴타워 102호","category":"유통업 영리 - 편 의 점"},{"name":"김밥천국송탄역점","tel":"031-611-4466","addr":"경기도 평택시 신장동 247-6번지 동영센트럴타워 101호","category":"음식점 - 분식"},{"name":"김밥천국송탄역점","tel":"031-666-3351","addr":"경기도 평택시 신장동 247-6번지 동영센트럴타워 101호","category":"일반휴게음식 - 일반한식"},{"name":"시즌아이PC(송탄역점)","tel":"","addr":"경기도 평택시 신장동 247-6번지 동영센트럴타워 104호","category":"레저업소 - 기타레져업소"},{"name":"에이에스리페어샵","tel":"031-8001-3204","addr":"경기도 평택시 신장동 247-6번지 동영센트럴타워 811호","category":"수리서비스 - 사무·통신기기수리"},{"name":"요가로움","tel":"070-7535-7773","addr":"경기도 평택시 신장동 247-6번지 동영센트럴타워 506호","category":"레저업소 - 헬스클럽"},{"name":"제이앤피(J&P)당구재료","tel":"","addr":"경기도 평택시 신장동 247-6번지 동영센트럴타워 지하1층","category":"레져용품 - 스포츠·레져용품"}]},{"lat":"37.087817248","long":"127.05289861","items":[{"name":"GS25송탄스카이점","tel":"","addr":"경기도 평택시 신장동 392-2번지 1층","category":"유통업 영리 - 편 의 점"}]},{"lat":"37.082871937","long":"127.04922899","items":[{"name":"GS25송탄신장로점","tel":"","addr":"경기도 평택시 신장동 306-109번지 1층","category":"유통업 영리 - 편 의 점"},{"name":"이화공판장","tel":"031-662-6000","addr":"경기도 평택시 신장동 306-109번지","category":"유통업 영리 - 슈퍼마켓"},{"name":"항아리호프","tel":"031-666-4965","addr":"경기도 평택시 신장동 306-109번지 1층","category":"일반휴게음식 - 주점"}]},{"lat":"37.07757147","long":"127.05466872","items":[{"name":"GS25송탄아리스타점","tel":"","addr":"경기도 평택시 신장동 232-35번지 대양 아리스타 II 1층 102호, 103호","category":"유통업 영리 - 편 의 점"}]},{"lat":"37.081870308","long":"127.05281598","items":[{"name":"GS25송탄화신점","tel":"","addr":"경기도 평택시 신장동 324-37번지 화신노블레스6차 8203,204호","category":"유통업 영리 - 편 의 점"}]},{"lat":"37.081176285","long":"127.05331037","items":[{"name":"GS25평택쇼핑로점","tel":"","addr":"경기도 평택시 신장동 324-11번지 1층","category":"유통업 영리 - 편 의 점"},{"name":"고릴라","tel":"031-666-9057","addr":"경기도 평택시 신장동 324-11번지","category":"의류 - 정장"}]},{"lat":"37.073426072","long":"127.05586913","items":[{"name":"GS25평택신장점","tel":"080-555-2525","addr":"경기도 평택시 신장동 252-82번지","category":"유통업 영리 - 편 의 점"}]},{"lat":"37.085899641","long":"127.04883719","items":[{"name":"GS평택남산로점","tel":"031-666-8760","addr":"경기도 평택시 신장동 613-1번지","category":"소매업 - 편의점"}]},{"lat":"37.079375373","long":"127.05039645","items":[{"name":"Gounicorn","tel":"070-7098-4421","addr":"경기도 평택시 신장동 298-106번지","category":"신변잡화 - 가방"},{"name":"미스터피스샵","tel":"031-666-9424","addr":"경기도 평택시 신장동 298-106번지","category":"의류 - 정장"}]},{"lat":"37.077482055","long":"127.05306051","items":[{"name":"HARPUT 코리아","tel":"","addr":"경기도 평택시 신장동 278-15번지 에덴빌리지I A동 701호","category":"용역 서비스 - 종합용역"}]},{"lat":"37.079843655","long":"127.05106026","items":[{"name":"Hot Topics","tel":"031-667-5885","addr":"경기도 평택시 신장동 300-29번지","category":"의류 - 정장"},{"name":"몬트리올","tel":"031-662-9667","addr":"경기도 평택시 신장동 300-29번지","category":"의류 - 정장"}]},{"lat":"37.072786788","long":"127.05481165","items":[{"name":"IVY CLUB","tel":"031-667-7288","addr":"경기도 평택시 신장동 252-11번지","category":"의류 - 단체복"},{"name":"베베몽드","tel":"031-662-6033","addr":"경기도 평택시 신장동 252-11번지","category":"광학제품 - 사진관"},{"name":"아이비클럽 송탄점","tel":"031-665-1318","addr":"경기도 평택시 신장동 252-11번지","category":"도소매업 - 학생복"},{"name":"일진사","tel":"031-662-1676","addr":"경기도 평택시 신장동 252-11번지","category":"의류 - 정장"}]},{"lat":"37.079564939","long":"127.04953062","items":[{"name":"J.B Bag","tel":"","addr":"경기도 평택시 신장동 298-76번지","category":"소매업 - 잡화"},{"name":"J.B.BAG","tel":"031-664-7918","addr":"경기도 평택시 신장동 298-76번지","category":"신변잡화 - 가방"},{"name":"그레이스샵","tel":"","addr":"경기도 평택시 신장동 298-76번지","category":"소매업 - 의류"},{"name":"그레이스샵","tel":"031-663-4917","addr":"경기도 평택시 신장동 298-76번지","category":"의류 - 정장"},{"name":"그레이프바인","tel":"031-662-0071","addr":"경기도 평택시 신장동 298-76번지 2층","category":"일반휴게음식 - 서양음식"},{"name":"앤드류 신 테일러","tel":"031-662-7651","addr":"경기도 평택시 신장동 298-76번지 1층","category":"의류 - 맞춤복점"},{"name":"토이샵","tel":"031-664-0185","addr":"경기도 평택시 신장동 298-76번지","category":"서적문구 - 완구점"},{"name":"허니문샵","tel":"031-663-4917","addr":"경기도 평택시 신장동 298-76번지 1층","category":"의류 - 내의판매"},{"name":"허니문샾","tel":"","addr":"경기도 평택시 신장동 298-76번지","category":"소매업 - 의류"},{"name":"호리타쿠디자인","tel":"070-7687-5047","addr":"경기도 평택시 신장동 298-76번지 2층","category":"용역 서비스 - 사무서비스"}]},{"lat":"37.087311677","long":"127.05517022","items":[{"name":"K RIDER","tel":"","addr":"경기도 평택시 신장동 163-3번지","category":"레져용품 - 스포츠·레져용품"},{"name":"씨유평택목천점","tel":"080-080-3663","addr":"경기도 평택시 신장동 163-3번지","category":"유통업 영리 - 편 의 점"}]},{"lat":"37.074429518","long":"127.04795314","items":[{"name":"K 마트","tel":"031-668-7220","addr":"경기도 평택시 신장동 267-318번지","category":"소매업 - 슈퍼"},{"name":"모뉴스","tel":"031-666-7888","addr":"경기도 평택시 신장동 267-318번지","category":"수리서비스 - 레져용품수리"},{"name":"케이마트","tel":"031-666-1408","addr":"경기도 평택시 신장동 267-318번지","category":"유통업 영리 - 슈퍼마켓"}]},{"lat":"37.080708847","long":"127.05062221","items":[{"name":"KING KONG","tel":"","addr":"경기도 평택시 신장동 302-24번지","category":"기타 - 기타 전문점"},{"name":"다크호스가죽","tel":"031-663-9120","addr":"경기도 평택시 신장동 302-24번지","category":"의류 - 정장"},{"name":"디에치커스텀","tel":"031-663-9120","addr":"경기도 평택시 신장동 302-24번지","category":"신변잡화 - 액세서리"},{"name":"미스타오실크스크린","tel":"031-662-5792","addr":"경기도 평택시 신장동 302-24번지","category":"의류 - 정장"}]},{"lat":"37.079951658","long":"127.05136398","items":[{"name":"L.ASHOP","tel":"031-663-5803","addr":"경기도 평택시 신장동 316-32번지","category":"의류 - 정장"},{"name":"아메리카","tel":"","addr":"경기도 평택시 신장동 316-32번지","category":"소매업 - 의류"},{"name":"아메리카 트랜드","tel":"031-667-2006","addr":"경기도 평택시 신장동 316-32번지","category":"의류 - 정장"}]},{"lat":"37.07959155","long":"127.05058777","items":[{"name":"LEE'SSHOP","tel":"031-611-6044","addr":"경기도 평택시 신장동 298-25번지","category":"기타 - 기타 전문점"},{"name":"림스스포츠","tel":"070-4220-5875","addr":"경기도 평택시 신장동 298-25번지","category":"의류 - 정장"},{"name":"세이예스(SAYYES)","tel":"031-663-4045","addr":"경기도 평택시 신장동 298-25번지","category":"의류 - 정장"},{"name":"윤패션직영공장","tel":"031-666-2685","addr":"경기도 평택시 신장동 298-25번지","category":"소매업 - 의류"},{"name":"윤패션직영공장","tel":"031-666-2054","addr":"경기도 평택시 신장동 298-25번지","category":"의류 - 정장"}]},{"lat":"37.079952018","long":"127.05047554","items":[{"name":"M&C","tel":"031-662-1704","addr":"경기도 평택시 신장동 302-162번지","category":"의류 - 정장"}]},{"lat":"37.080456763","long":"127.05009348","items":[{"name":"M.Q가방","tel":"031-667-5501","addr":"경기도 평택시 신장동 302-88번지","category":"소매업 - 가방"},{"name":"워싱턴악세사리","tel":"031-662-1918","addr":"경기도 평택시 신장동 302-88번지","category":"신변잡화 - 가방"}]},{"lat":"37.080987796","long":"127.05155582","items":[{"name":"MIC샵","tel":"031-668-7878","addr":"경기도 평택시 신장동 314-4번지","category":"기타 - 기타 전문점"}]},{"lat":"37.079681831","long":"127.05014923","items":[{"name":"Mr.Lee-CUSTOM-TAILER","tel":"031-668-2948","addr":"경기도 평택시 신장동 298-32번지","category":"의류 - 맞춤복점"}]},{"lat":"37.080897119","long":"127.05292781","items":[{"name":"Myung da yeoun","tel":"070-7533-5340","addr":"경기도 평택시 신장동 324-19번지","category":"보건위생 - 화장품"},{"name":"센스선언","tel":"031-664-8825","addr":"경기도 평택시 신장동 324-19번지","category":"소매업 - 의류"},{"name":"센스선언","tel":"031-666-9916","addr":"경기도 평택시 신장동 324-19번지 1층","category":"의류 - 정장"},{"name":"시네이악세사리","tel":"02-6345-5385","addr":"경기도 평택시 신장동 324-19번지 1층","category":"신변잡화 - 액세서리"}]},{"lat":"37.076598851","long":"127.05345353","items":[{"name":"NISSI공인중개사","tel":"031-662-2173","addr":"경기도 평택시 신장동 279-8번지 1층","category":"서비스업 - 부동산"},{"name":"주식회사 닛시코퍼레이션","tel":"031-667-1407","addr":"경기도 평택시 신장동 279-8번지","category":"레져용품 - 스포츠·레져용품"},{"name":"플로랄베이크","tel":"02-0000-0000","addr":"경기도 평택시 신장동 279-8번지 1층","category":"음료식품 - 기타음료식품"}]},{"lat":"37.079896158","long":"127.05476026","items":[{"name":"OTSYSTEM","tel":"031-666-0270","addr":"경기도 평택시 신장동 220-27번지","category":"사무통신 - 컴퓨터"},{"name":"태후사랑 신장점","tel":"070-4405-3310","addr":"경기도 평택시 신장동 220-27번지","category":"보건위생 - 화장품"}]},{"lat":"37.081068729","long":"127.0519495","items":[{"name":"P.A.T","tel":"031-663-2147","addr":"경기도 평택시 신장동 312-17번지","category":"소매업 - 의류"},{"name":"P.A.T송탄점","tel":"031-662-2002","addr":"경기도 평택시 신장동 312-17번지","category":"레져용품 - 스포츠·레져용품"},{"name":"커리아","tel":"031-662-2002","addr":"경기도 평택시 신장동 312-17번지 3층","category":"일반휴게음식 - 스넥"}]},{"lat":"37.079590878","long":"127.05222969","items":[{"name":"Pho79","tel":"031-664-7978","addr":"경기도 평택시 신장동 318-19번지 101호","category":"음료식품 - 기타음료식품"},{"name":"대박구이구이","tel":"","addr":"경기도 평택시 신장동 318-19번지","category":"일반휴게음식 - 일반한식"},{"name":"포친구","tel":"","addr":"경기도 평택시 신장동 318-19번지","category":"음식점 - 베트남음식"},{"name":"포친구(Pho79)","tel":"031-664-7978","addr":"경기도 평택시 신장동 318-19번지","category":"일반휴게음식 - 서양음식"}]},{"lat":"37.079591793","long":"127.04998048","items":[{"name":"Q양복점","tel":"031-665-5612","addr":"경기도 평택시 신장동 298-176번지","category":"의류 - 정장"}]},{"lat":"37.08042915","long":"127.05153297","items":[{"name":"REALKOREA","tel":"031-611-5726","addr":"경기도 평택시 신장동 316-51번지 1층","category":"문화.취미 - 민예·공예품"},{"name":"현대이불","tel":"031-666-4960","addr":"경기도 평택시 신장동 316-51번지","category":"직물 - 침구·수예점"}]},{"lat":"37.080681148","long":"127.05225289","items":[{"name":"RJ","tel":"031-667-2010","addr":"경기도 평택시 신장동 319-16번지","category":"일반휴게음식 - 주점"},{"name":"마담홍","tel":"031-666-8286","addr":"경기도 평택시 신장동 319-16번지","category":"소매업 - 의류"},{"name":"마이플레이스","tel":"070-8966-6992","addr":"경기도 평택시 신장동 319-16번지","category":"일반휴게음식 - 주점"},{"name":"미스홍샵","tel":"031-666-3978","addr":"경기도 평택시 신장동 319-16","category":"의류 - 정장"},{"name":"비비안","tel":"031-667-5133","addr":"경기도 평택시 신장동 319-16","category":"의류 - 내의판매"},{"name":"소이 에끌리에","tel":"031-663-1177","addr":"경기도 평택시 신장동 319-16번지","category":"의류 - 아동의류"},{"name":"애플(APPLE)","tel":"031-611-7849","addr":"경기도 평택시 신장동 319-16","category":"일반휴게음식 - 주점"},{"name":"제로(Zero)모바일","tel":"031-611-8678","addr":"경기도 평택시 신장동 319-16번지","category":"사무통신 - 통신기기"}]},{"lat":"37.079735382","long":"127.05142007","items":[{"name":"ROYAL화방","tel":"031-665-6290","addr":"경기도 평택시 신장동 300-43번지","category":"문화.취미 - 화방·표구점"},{"name":"글램","tel":"031-611-6063","addr":"경기도 평택시 신장동 300-43번지","category":"의류 - 정장"}]},{"lat":"37.080482351","long":"127.05359106","items":[{"name":"SENTIDO(센티도)","tel":"031-611-8381","addr":"경기도 평택시 신장동 322-17번지","category":"의류 - 정장"},{"name":"수가","tel":"031-662-1825","addr":"경기도 평택시 신장동 322-17번지","category":"의류 - 정장"},{"name":"펄","tel":"031-662-2006","addr":"경기도 평택시 신장동 322-17번지","category":"신변잡화 - 액세서리"}]},{"lat":"37.0798442","long":"127.04969949","items":[{"name":"U.S. 양복","tel":"031-611-2997","addr":"경기도 평택시 신장동 302-125번지 1층","category":"의류 - 맞춤복점"},{"name":"농업회사법인 주식회사 대성","tel":"031-653-3640","addr":"경기도 평택시 신장동 302-125번지","category":"음료식품 - 정육점"},{"name":"이지에어컨","tel":"","addr":"경기도 평택시 신장동 302-125번지","category":"용역 서비스 - 기타용역서비스"},{"name":"저스트포유","tel":"031-667-5955","addr":"경기도 평택시 신장동 302-125번지 2층 4호","category":"보건위생 - 피부미용실"}]},{"lat":"37.079257636","long":"127.05186961","items":[{"name":"Unclejun","tel":"031-664-2888","addr":"경기도 평택시 신장동 300-92번지","category":"신변잡화 - 가방"},{"name":"국제공인중개사사무소","tel":"031-662-5262","addr":"경기도 평택시 신장동 300-92번지","category":"용역 서비스 - 부동산 중개·임대"},{"name":"보라네포차","tel":"031-000-0000","addr":"경기도 평택시 신장동 300-92번지","category":"일반휴게음식 - 일반한식"},{"name":"엉클준","tel":"","addr":"경기도 평택시 신장동 300-92번지","category":"소매업 - 의류, 잡화"},{"name":"차밍미용실","tel":"031-666-8323","addr":"경기도 평택시 신장동 300-92번지","category":"보건위생 - 미용원"},{"name":"칼리지","tel":"031-668-4739","addr":"경기도 평택시 신장동 300-92번지","category":"의류 - 정장"}]},{"lat":"37.079510478","long":"127.05053149","items":[{"name":"VIP양복점","tel":"031-662-3052","addr":"경기도 평택시 신장동 298-26번지","category":"의류 - 맞춤복점"},{"name":"심포니테일러","tel":"031-611-2702","addr":"경기도 평택시 신장동 298-26번지","category":"의류 - 정장"},{"name":"심포니테일러","tel":"","addr":"경기도 평택시 신장동 298-26번지","category":"소매업 - 의류"}]},{"lat":"37.080068997","long":"127.05086922","items":[{"name":"YB","tel":"031-663-3663","addr":"경기도 평택시 신장동 301-26번지 30동 13호","category":"신변잡화 - 가방"},{"name":"괌이불","tel":"031-662-3414","addr":"경기도 평택시 신장동 301-26번지","category":"직물 - 침구·수예점"}]},{"lat":"37.079537885","long":"127.04958684","items":[{"name":"platinum","tel":"031-611-7563","addr":"경기도 평택시 신장동 298-75번지","category":"의류 - 정장"},{"name":"맨하탄","tel":"031-666-5374","addr":"경기도 평택시 신장동 298-75번지","category":"소매업 - 양복"},{"name":"올림픽가방","tel":"031-662-2240","addr":"경기도 평택시 신장동 298-75번지","category":"신변잡화 - 가방"}]},{"lat":"37.080428876","long":"127.0521965","items":[{"name":"ㄴㅇㄴㅇ","tel":"","addr":"경기도 평택시 신장동 317-51번지 1층","category":"소매업 - 의류, 잡화"},{"name":"컴키즈","tel":"031-665-2246","addr":"경기도 평택시 신장동 317-51번지","category":"의류 - 아동의류"},{"name":"폭시앤콕시(Foxy&Coxy)","tel":"031-667-8836","addr":"경기도 평택시 신장동 317-51번지 1층","category":"의류 - 정장"}]},{"lat":"37.090010566","long":"127.06411391","items":[{"name":"가(  )미(  )손두부","tel":"031-662-3053","addr":"경기도 평택시 신장동 511-1번지","category":"일반휴게음식 - 일반한식"}]},{"lat":"37.08029254","long":"127.05495172","items":[{"name":"가나기획","tel":"031-611-6110","addr":"경기도 평택시 신장동 219-3","category":"용역 서비스 - 종합용역"},{"name":"굽네치킨 지산신장점","tel":"031-666-5959","addr":"경기도 평택시 신장동 219-3번지","category":"일반휴게음식 - 스넥"},{"name":"이벤트코리아","tel":"031-667-5055","addr":"경기도 평택시 신장동 219-3번지","category":"용역 서비스 - 종합용역"},{"name":"천사랑커튼","tel":"031-656-2247","addr":"경기도 평택시 신장동 219-3","category":"직물 - 침구·수예점"}]},{"lat":"37.072400446","long":"127.05220255","items":[{"name":"간판언니","tel":"031-665-5742","addr":"경기도 평택시 신장동 261-85번지","category":"용역 서비스 - 종합용역"}]},{"lat":"37.082258711","long":"127.05051072","items":[{"name":"갈리피노레스토랑","tel":"031-618-8019","addr":"경기도 평택시 신장동 309-25번지","category":"일반휴게음식 - 서양음식"},{"name":"퀸즈치킨앤비어(Queen'schickenandbeer)","tel":"02-000-0000","addr":"경기도 평택시 신장동 309-25번지","category":"일반휴게음식 - 스넥"}]},{"lat":"37.080203329","long":"127.05287112","items":[{"name":"감골식당","tel":"031-666-4281","addr":"경기도 평택시 신장동 321-35번지","category":"일반휴게음식 - 일반한식"},{"name":"바니엘(Bauuny.L)","tel":"070-8966-6992","addr":"경기도 평택시 신장동 321-35번지 1층","category":"의류 - 정장"}]},{"lat":"37.080708431","long":"127.05164561","items":[{"name":"감브로스(KAMBROS)","tel":"","addr":"경기도 평택시 신장동 315-5번지 1층 2호","category":"일반휴게음식 - 주점"}]},{"lat":"37.081348159","long":"127.05170226","items":[{"name":"강스펫케어","tel":"031-611-6548","addr":"경기도 평택시 신장동 313-25번지 아리스타팰리스1 1층 104,105호","category":"문화.취미 - 애완동물"},{"name":"라티노스(Latinos)","tel":"031-667-6929","addr":"경기도 평택시 신장동 313-25번지 아리스타팰리스1 102호","category":"일반휴게음식 - 서양음식"},{"name":"살루트(Salute)","tel":"031-666-6546","addr":"경기도 평택시 신장동 313-25번지 엠타워 106호 아리스타펠리스1","category":"일반휴게음식 - 주점"},{"name":"스텔라바버샵(Stella Barbershop)","tel":"","addr":"경기도 평택시 신장동 313-25번지 아리스타팰리스 107호","category":"보건위생 - 이용원"},{"name":"이태원 뷰티서플라이","tel":"070-4177-3272","addr":"경기도 평택시 신장동 313-25번지 엠타워 108호","category":"신변잡화 - 기타잡화"},{"name":"카페온(cafe on)","tel":"031-000-0000","addr":"경기도 평택시 신장동 313-25번지 엠타워 101호","category":"일반휴게음식 - 서양음식"}]},{"lat":"37.07809395","long":"127.05497271","items":[{"name":"개풍종합닥트공사","tel":"031-666-0919","addr":"경기도 평택시 신장동 227-19번지","category":"건축자재 - 기타건축자재"},{"name":"보건약국","tel":"031-666-3948","addr":"경기도 평택시 신장동 227-19번지","category":"약국 - 약국"},{"name":"보건약국","tel":"031-667-7288","addr":"경기도 평택시 신장동 227-19번지","category":"소매업 - 약국"},{"name":"평택리더스라이온스클럽","tel":"031-666-5584","addr":"경기도 평택시 신장동 227-19번지 2층","category":"기타 - 비영리/비대상"}]},{"lat":"37.081870749","long":"127.05175882","items":[{"name":"개화식당","tel":"031-665-3767","addr":"경기도 평택시 신장동 312-9번지","category":"일반휴게음식 - 일반한식"}]},{"lat":"37.082265265","long":"127.05628015","items":[{"name":"갤러리피씨방","tel":"031-664-6630","addr":"경기도 평택시 신장동 212-6번지","category":"레저업소 - 기타레져업소"},{"name":"삼보약국","tel":"031-611-7378","addr":"경기도 평택시 신장동 212-6번지 1층","category":"약국 - 약국"},{"name":"한국마트","tel":"031-664-4547","addr":"경기도 평택시 신장동 212-6번지","category":"소매업 - 슈퍼"}]},{"lat":"37.07834629","long":"127.05487167","items":[{"name":"겜잘알","tel":"","addr":"경기도 평택시 신장동 227-13번지 1층 2호","category":"서적문구 - 완구점"},{"name":"럭셔리전자담배신장점","tel":"031-665-3777","addr":"경기도 평택시 신장동 227-13번지 2층 2호","category":"기타 - 기타 전문점"},{"name":"브레인온메디컬 송탄점","tel":"031-664-4153","addr":"경기도 평택시 신장동 227-13번지","category":"보건위생 - 의료용품"}]},{"lat":"37.073705674","long":"127.05525084","items":[{"name":"경기건축기술학원","tel":"031-667-2358","addr":"경기도 평택시 신장동 252-2번지 2층","category":"학원 - 기능학원"},{"name":"로데오 부동산공인중개사","tel":"031-665-2586","addr":"경기도 평택시 신장동 252-2번지 1층","category":"서비스업 - 부동산"},{"name":"정인당","tel":"031-662-2929","addr":"경기도 평택시 신장동 252-2번지","category":"건축자재 - 목재·석재·철물"},{"name":"정인음향","tel":"031-662-8331","addr":"경기도 평택시 신장동 252-2번지 1층","category":"전기제품 - 가전제품"}]},{"lat":"37.080789378","long":"127.05200555","items":[{"name":"경기약국","tel":"","addr":"경기도 평택시 신장동 317-4번지","category":"소매업 - 약국"},{"name":"경기약국","tel":"031-666-8549","addr":"경기도 평택시 신장동 317-4번지","category":"약국 - 약국"},{"name":"송탄스타일랩","tel":"070-8222-2328","addr":"경기도 평택시 신장동 317-4번지 1층","category":"의류 - 정장"},{"name":"스타일랩","tel":"031-662-2376","addr":"경기도 평택시 신장동 317-4번지","category":"소매업 - 의류"}]},{"lat":"37.078735997","long":"127.0494514","items":[{"name":"경기열쇠","tel":"031-663-1818","addr":"경기도 평택시 신장동 690-3번지","category":"기타 - 기계공구"}]},{"lat":"37.074374525","long":"127.05033711","items":[{"name":"경선유통","tel":"031-666-6484","addr":"경기도 평택시 신장동 269-74번지","category":"음료식품 - 기타음료식품"}]},{"lat":"37.080373585","long":"127.05506424","items":[{"name":"경아미용실","tel":"031-663-1601","addr":"경기도 평택시 신장동 219-4번지","category":"보건위생 - 미용원"},{"name":"경아헤어","tel":"031-666-7475","addr":"경기도 평택시 신장동 219-4번지","category":"서비스업 - 이미용"}]},{"lat":"37.080122712","long":"127.05172396","items":[{"name":"경아트","tel":"031-666-6321","addr":"경기도 평택시 신장동 316-36번지","category":"문화.취미 - 화랑"},{"name":"베러리(BETTERLEE)","tel":"","addr":"경기도 평택시 신장동 316-36번지 1층 다호","category":"의류 - 정장"}]},{"lat":"37.078652689","long":"127.05478191","items":[{"name":"경영인쇄","tel":"031-666-3922","addr":"경기도 평택시 신장동 227-25번지","category":"서적문구 - 출판 및 인쇄물"}]},{"lat":"37.079401473","long":"127.05266817","items":[{"name":"경인정육점","tel":"","addr":"경기도 평택시 신장동 295-14번지","category":"소매업 - 정육"}]},{"lat":"37.080177246","long":"127.05056565","items":[{"name":"경주이불","tel":"031-668-7396","addr":"경기도 평택시 신장동 302-134번지","category":"직물 - 침구·수예점"}]},{"lat":"37.076041238","long":"127.0509454","items":[{"name":"경희대드림아이태권스쿨","tel":"031-666-3926","addr":"경기도 평택시 신장동 271-19번지 1층","category":"학원 - 예·체능계학원"},{"name":"명문보습학원","tel":"031-662-2950","addr":"경기도 평택시 신장동 271-19번지 2층","category":"학원 - 보습학원"},{"name":"쥴리어드음악학원","tel":"031-665-4938","addr":"경기도 평택시 신장동 271-19번지 3층","category":"학원 - 예·체능계학원"}]},{"lat":"37.081535705","long":"127.0556161","items":[{"name":"고운피부","tel":"031-663-7237","addr":"경기도 평택시 신장동 214-39번지 3층","category":"보건위생 - 화장품"},{"name":"수약국","tel":"","addr":"경기도 평택시 신장동 214-39번지","category":"소매업 - 약국"},{"name":"수약국","tel":"031-668-0292","addr":"경기도 평택시 신장동 214-39번지 1층","category":"약국 - 약국"},{"name":"정비뇨기과의원","tel":"031-667-3396","addr":"경기도 평택시 신장동 214-39번지","category":"서비스업 - 병원"},{"name":"정비뇨기과피부과의원","tel":"031-663-3311","addr":"경기도 평택시 신장동 214-39번지 2층","category":"의원 - 의원"}]},{"lat":"37.080870309","long":"127.05239922","items":[{"name":"골드뱅크","tel":"031-666-3020","addr":"경기도 평택시 신장동 321-3번지","category":"신변잡화 - 액세서리"},{"name":"샌드폭스","tel":"031-664-0903","addr":"경기도 평택시 신장동 321-3번지 2층 1호","category":"일반휴게음식 - 서양음식"}]},{"lat":"37.080122526","long":"127.05217381","items":[{"name":"골든버드","tel":"070-8291-5200","addr":"경기도 평택시 신장동 317-59번지","category":"보건위생 - 화장품"},{"name":"에이치테크","tel":"031-662-2038","addr":"경기도 평택시 신장동 317-59번지","category":"기타 - 기계공구"}]},{"lat":"37.081896053","long":"127.05578505","items":[{"name":"골목칼국수","tel":"031-665-1441","addr":"경기도 평택시 신장동 210-1번지","category":"음식점 - 분식"},{"name":"골목칼국수","tel":"031-667-0922","addr":"경기도 평택시 신장동 210-1번지","category":"일반휴게음식 - 일반한식"}]},{"lat":"37.073398955","long":"127.05606028","items":[{"name":"골반발성영어아카데미","tel":"031-663-7189","addr":"경기도 평택시 신장동 252-35번지 4층","category":"회원제형태 - 학원"},{"name":"하나공인중개사사무소","tel":"031-662-0139","addr":"경기도 평택시 신장동 252-35번지 1층 하나부동산","category":"서비스업 - 부동산"}]},{"lat":"37.081286872","long":"127.04714746","items":[{"name":"공군오산기지어린이집[아이행복]","tel":"031-611-7737","addr":"경기도 평택시 신장동 229-17번지","category":"학원 - 유아원"},{"name":"창공","tel":"031-664-1589","addr":"경기도 평택시 신장동 229-17번지","category":"서적문구 - 문구용품"}]},{"lat":"37.080014719","long":"127.05139776","items":[{"name":"공작란제리샵","tel":"031-662-7980","addr":"경기도 평택시 신장동 316-31번지","category":"의류 - 내의판매"},{"name":"뉴신샵(NEW SHIN SHOP)","tel":"070-7717-6201","addr":"경기도 평택시 신장동 316-31번지","category":"수리서비스 - 세탁소"},{"name":"레이지 헤븐(lazy heaven)","tel":"031-111-1111","addr":"경기도 평택시 신장동 316-31번지","category":"의류 - 정장"},{"name":"캐롤라인콕스","tel":"031-663-3434","addr":"경기도 평택시 신장동 316-31번지","category":"의류 - 정장"}]},{"lat":"37.08064571","long":"127.05077962","items":[{"name":"광안당안경원","tel":"031-666-6767","addr":"경기도 평택시 신장동 303-17번지","category":"보건위생 - 안경"},{"name":"밀리터리샵","tel":"031-000-0000","addr":"경기도 평택시 신장동 303-17번지","category":"의류 - 정장"},{"name":"웨어하우스(warehouse)","tel":"","addr":"경기도 평택시 신장동 303-17번지 2층","category":"신변잡화 - 기타잡화"},{"name":"카드랜드","tel":"031-611-7244","addr":"경기도 평택시 신장동 303-17번지 1동","category":"사무통신 - 통신기기"}]},{"lat":"37.080681707","long":"127.0508921","items":[{"name":"광안당안경원","tel":"031-667-0978","addr":"경기도 평택시 신장동 302-1번지","category":"소매업 - 안경"},{"name":"임대사업","tel":"031-611-6678","addr":"경기도 평택시 신장동 302-1번지","category":"서비스업 - 임대"},{"name":"조샵","tel":"031-666-7784","addr":"경기도 평택시 신장동 302-1번지","category":"의류 - 정장"},{"name":"크레오파트라미용실","tel":"","addr":"경기도 평택시 신장동 302-1번지","category":"서비스업 - 미용"},{"name":"크레오파트라미용실","tel":"031-663-8348","addr":"경기도 평택시 신장동 302-1번지","category":"보건위생 - 미용원"},{"name":"클레오네일","tel":"031-663-8348","addr":"경기도 평택시 신장동 302-1번지","category":"서비스업 - 미용"},{"name":"클레오네일","tel":"031-663-8348","addr":"경기도 평택시 신장동 302-1번지 A동 2층 2호","category":"보건위생 - 피부미용실"}]},{"lat":"37.079230376","long":"127.05242064","items":[{"name":"광주식당","tel":"031-668-7883","addr":"경기도 평택시 신장동 295-12번지","category":"일반휴게음식 - 일반한식"},{"name":"오모야","tel":"031-666-8696","addr":"경기도 평택시 신장동 295-12번지","category":"일반휴게음식 - 일반한식"}]},{"lat":"37.081734535","long":"127.05425543","items":[{"name":"광진건축인테리어","tel":"031-668-0478","addr":"경기도 평택시 신장동 325-4번지","category":"건축자재 - 인테리어전문"}]},{"lat":"37.082202277","long":"127.05608892","items":[{"name":"구구미치킨신장점","tel":"031-611-5592","addr":"경기도 평택시 신장동 211-1번지","category":"일반휴게음식 - 스넥"},{"name":"만풍복꼬치구이","tel":"031-611-6609","addr":"경기도 평택시 신장동 211-1번지 1층","category":"일반휴게음식 - 중국식"},{"name":"먹방분식","tel":"031-666-8300","addr":"경기도 평택시 신장동 211-1번지 1층","category":"일반휴게음식 - 일반한식"},{"name":"빈티지샵","tel":"070-7789-7776","addr":"경기도 평택시 신장동 211-1번지","category":"의류 - 기타의류"}]},{"lat":"37.08153568","long":"127.05567234","items":[{"name":"구생당약국","tel":"","addr":"경기도 평택시 신장동 214-12번지","category":"소매업 - 약국"},{"name":"구생당약국","tel":"031-664-9752","addr":"경기도 평택시 신장동 214-12번지","category":"약국 - 약국"}]},{"lat":"37.077375258","long":"127.04981043","items":[{"name":"구스따레","tel":"","addr":"경기도 평택시 신장동 690-122번지 외1필지","category":"일반휴게음식 - 서양음식"}]},{"lat":"37.078455672","long":"127.05192532","items":[{"name":"구월산","tel":"031-663-1259","addr":"경기도 평택시 신장동 274-218번지","category":"일반휴게음식 - 일반한식"},{"name":"미래산업","tel":"031-666-4468","addr":"경기도 평택시 신장동 274-218번지","category":"건축자재 - 기타건축자재"}]},{"lat":"37.088033573","long":"127.05273005","items":[{"name":"국제식품","tel":"031-667-8150","addr":"경기도 평택시 신장동 391-1번지","category":"음료식품 - 기타음료식품"}]},{"lat":"37.080896129","long":"127.05522204","items":[{"name":"국제열쇄","tel":"031-662-8001","addr":"경기도 평택시 신장동 214-30번지","category":"기타 - 기계공구"}]},{"lat":"37.080565046","long":"127.04969993","items":[{"name":"그라스톤테크닉","tel":"031-668-1446","addr":"경기도 평택시 신장동 302-84번지","category":"보건위생 - 미용재료"},{"name":"자세건강센터","tel":"031-668-1446","addr":"경기도 평택시 신장동 302-84번지","category":"회원제형태 - 기타4"}]},{"lat":"37.07965425","long":"127.05150999","items":[{"name":"그레이스","tel":"031-665-2783","addr":"경기도 평택시 신장동 300-53번지","category":"의류 - 정장"}]},{"lat":"37.081952229","long":"127.05081418","items":[{"name":"그린라이프팩","tel":"031-667-7540","addr":"경기도 평택시 신장동 310-22번지 Centralville","category":"보건위생 - 화장품"},{"name":"시골식당","tel":"031-662-6638","addr":"경기도 평택시 신장동 310-22번지 Centralville","category":"일반휴게음식 - 일반한식"}]},{"lat":"37.081375384","long":"127.05122993","items":[{"name":"그린맨","tel":"031-664-3999","addr":"경기도 평택시 신장동 313-19번지 2층","category":"일반휴게음식 - 서양음식"}]},{"lat":"37.079564752","long":"127.05000296","items":[{"name":"그린샵","tel":"031-663-4009","addr":"경기도 평택시 신장동 298-56번지 2층","category":"신변잡화 - 기타잡화"}]},{"lat":"37.080923999","long":"127.05328771","items":[{"name":"그린조이","tel":"031-611-6989","addr":"경기도 평택시 신장동 324-23번지","category":"레져용품 - 스포츠·레져용품"},{"name":"그린조이","tel":"031-611-6989","addr":"경기도 평택시 신장동 324-23번지","category":"의류 - 정장"},{"name":"타이스파","tel":"031-666-4633","addr":"경기도 평택시 신장동 324-23번지 2층","category":"보건위생 - 미용재료"}]},{"lat":"37.079455466","long":"127.05283689","items":[{"name":"글래스홉퍼","tel":"031-666-2850","addr":"경기도 평택시 신장동 274-128번지","category":"소매업 - 의류"},{"name":"메르시","tel":"031-666-6844","addr":"경기도 평택시 신장동 274-128번지 1층","category":"의류 - 정장"}]},{"lat":"37.079564065","long":"127.05170111","items":[{"name":"금강산금방","tel":"031-662-6688","addr":"경기도 평택시 신장동 300-87번지","category":"신변잡화 - 시계"},{"name":"금강산금방","tel":"031-611-1008","addr":"경기도 평택시 신장동 300-87번지","category":"소매업 - 귀금속"},{"name":"사계절","tel":"031-665-4666","addr":"경기도 평택시 신장동 300-87번지","category":"일반휴게음식 - 일반한식"},{"name":"사계절(신장동)","tel":"","addr":"경기도 평택시 신장동 300-87번지","category":"음식점 - 한식"}]},{"lat":"37.079483219","long":"127.05109377","items":[{"name":"금강수입","tel":"","addr":"경기도 평택시 신장동 300-14번지","category":"소매업 - 식품"},{"name":"금강수입코너","tel":"031-666-5883","addr":"경기도 평택시 신장동 300-14번지","category":"음료식품 - 기타음료식품"},{"name":"월드가방","tel":"031-666-9126","addr":"경기도 평택시 신장동 300-14번지 1층","category":"신변잡화 - 가방"}]},{"lat":"37.073813567","long":"127.05577944","items":[{"name":"금비","tel":"031-111-7239","addr":"경기도 평택시 신장동 251-12번지 힐스타 201호","category":"보건위생 - 피부미용실"}]},{"lat":"37.079735483","long":"127.05117266","items":[{"name":"금산상회","tel":"031-667-2323","addr":"경기도 평택시 신장동 300-49번지","category":"음료식품 - 기타음료식품"},{"name":"준건강원","tel":"031-662-0443","addr":"경기도 평택시 신장동 300-49번지","category":"소매업 - 식품"}]},{"lat":"37.080068369","long":"127.0523987","items":[{"name":"금서현","tel":"031-8094-4424","addr":"경기도 평택시 신장동 318-32번지 2호","category":"의류 - 정장"},{"name":"모어디저트","tel":"031-000-0000","addr":"경기도 평택시 신장동 318-32번지","category":"음료식품 - 기타음료식품"},{"name":"모어디저트","tel":"031-662-9394","addr":"경기도 평택시 신장동 318-32번지","category":"소매업 - 디저트"},{"name":"킴스버거","tel":"","addr":"경기도 평택시 신장동 318-32번지","category":"일반휴게음식 - 서양음식"},{"name":"헤어메카","tel":"031-662-9645","addr":"경기도 평택시 신장동 318-32번지","category":"보건위생 - 미용원"}]},{"lat":"37.081122188","long":"127.05338905","items":[{"name":"금성지물장식","tel":"031-666-2656","addr":"경기도 평택시 신장동 325-21번지","category":"직물 - 카페트,커튼,천막,지물"},{"name":"데코앤코","tel":"031-976-3695","addr":"경기도 평택시 신장동 325-21번지","category":"가구 - 일반가구"},{"name":"새론기프트","tel":"070-7778-8594","addr":"경기도 평택시 신장동 325-21번지 1층","category":"유통업 영리 - 기타유통업"}]},{"lat":"37.080843897","long":"127.0508922","items":[{"name":"금용미트홈","tel":"031-611-6678","addr":"경기도 평택시 신장동 304-17번지 2층","category":"일반휴게음식 - 중국식"},{"name":"미트홈","tel":"","addr":"경기도 평택시 신장동 304-17번지","category":"음식점 - 한식"},{"name":"베이스먼트","tel":"","addr":"경기도 평택시 신장동 304-17번지","category":"일반휴게음식 - 칵테일바"}]},{"lat":"37.079537577","long":"127.05036282","items":[{"name":"금자샵","tel":"031-666-2027","addr":"경기도 평택시 신장동 298-29번지 1층","category":"의류 - 정장"},{"name":"브이아이피 가방","tel":"031-662-3052","addr":"경기도 평택시 신장동 298-29번지 1층 101호","category":"신변잡화 - 가방"}]},{"lat":"37.075257825","long":"127.04967418","items":[{"name":"기호장식","tel":"031-666-2773","addr":"경기도 평택시 신장동 269-88","category":"직물 - 카페트,커튼,천막,지물"}]},{"lat":"37.081067414","long":"127.05503097","items":[{"name":"길용판점","tel":"031-666-8516","addr":"경기도 평택시 신장동 216-8번지","category":"일반휴게음식 - 중국식"}]},{"lat":"37.081708618","long":"127.05161252","items":[{"name":"김선희헤어샵","tel":"031-666-8005","addr":"경기도 평택시 신장동 313-45번지","category":"보건위생 - 미용원"}]},{"lat":"37.080069201","long":"127.05036315","items":[{"name":"김스테일러","tel":"031-664-9960","addr":"경기도 평택시 신장동 302-158번지","category":"의류 - 정장"}]},{"lat":"37.081176069","long":"127.05381645","items":[{"name":"김영애숯고개부대찌개","tel":"031-666-2768","addr":"경기도 평택시 신장동 325-13번지","category":"일반휴게음식 - 일반한식"}]},{"lat":"37.079563531","long":"127.05298316","items":[{"name":"김정아커피하우스","tel":"031-662-1717","addr":"경기도 평택시 신장동 294-1번지","category":"일반휴게음식 - 서양음식"},{"name":"김정아커피하우스","tel":"031-666-6263","addr":"경기도 평택시 신장동 294-1번지","category":"음식점 - 커피"},{"name":"라벤더","tel":"031-662-0045","addr":"경기도 평택시 신장동 294-1번지","category":"의류 - 정장"},{"name":"뮤직웨이브기타학원","tel":"031-000-0000","addr":"경기도 평택시 신장동 294-1번지 2층","category":"학원 - 예·체능계학원"}]},{"lat":"37.080510674","long":"127.05047588","items":[{"name":"까사부리또","tel":"031-664-0602","addr":"경기도 평택시 신장동 302-31번지 1층","category":"일반휴게음식 - 서양음식"},{"name":"보스톤","tel":"031-666-3882","addr":"경기도 평택시 신장동 302-31번지","category":"신변잡화 - 신발"}]},{"lat":"37.079870173","long":"127.0523086","items":[{"name":"깔끔이분식","tel":"031-667-0201","addr":"경기도 평택시 신장동 318-6번지","category":"일반휴게음식 - 스넥"},{"name":"삼오악세사리","tel":"031-662-3076","addr":"경기도 평택시 신장동 318-6번지","category":"신변잡화 - 액세서리"},{"name":"여성의류","tel":"031-667-3338","addr":"경기도 평택시 신장동 318-6번지","category":"의류 - 정장"},{"name":"이리스","tel":"031-666-2971","addr":"경기도 평택시 신장동 318-6번지","category":"소매업 - 의류"}]},{"lat":"37.079591189","long":"127.05147621","items":[{"name":"껑미네일","tel":"031-666-7771","addr":"경기도 평택시 신장동 300-41번지 1층","category":"보건위생 - 피부미용실"},{"name":"카페로또","tel":"031-663-7873","addr":"경기도 평택시 신장동 300-41번지","category":"일반휴게음식 - 서양음식"}]},{"lat":"37.079374404","long":"127.05275812","items":[{"name":"꼬꼬닭개장","tel":"031-666-4210","addr":"경기도 평택시 신장동 274-134번지","category":"음식점 - 한식"},{"name":"꼬꼬닭개장","tel":"031-656-5335","addr":"경기도 평택시 신장동 274-134번지 1층","category":"일반휴게음식 - 일반한식"},{"name":"태양정육점","tel":"031-662-6569","addr":"경기도 평택시 신장동 274-134번지","category":"음료식품 - 정육점"},{"name":"태양정육점","tel":"031-665-4560","addr":"경기도 평택시 신장동 274-134번지","category":"소매업 - 정육"}]},{"lat":"37.07590439","long":"127.05494872","items":[{"name":"꼬치공방 송탄역점","tel":"031-111-1111","addr":"경기도 평택시 신장동 243-3번지 평택송탄역클래시아 110호,111호","category":"일반휴게음식 - 일식·회집"},{"name":"마왕족발 송탄역점","tel":"031-668-9282","addr":"경기도 평택시 신장동 243-3번지 113,114호","category":"일반휴게음식 - 일반한식"},{"name":"마왕족발 송탄역점","tel":"","addr":"경기도 평택시 신장동 243-3번지 113,114호","category":"음식점 - 한식"},{"name":"별떡송탄역점","tel":"031-666-7469","addr":"경기도 평택시 신장동 243-3번지 평택 송탄역 클래시아 106호","category":"음식점 - 분식"},{"name":"별떡송탄역점","tel":"031-667-2019","addr":"경기도 평택시 신장동 243-3번지 평택송탄역클래시아 106호","category":"일반휴게음식 - 스넥"},{"name":"송탄클래시아부동산","tel":"","addr":"경기도 평택시 신장동 243-3번지 평택송탄역클래시아 112호","category":"서비스업 - 부동산"},{"name":"아리랑숯불갈비","tel":"031-611-6789","addr":"경기도 평택시 신장동 243-3번지 평택송탄영클래시아 1층 101호","category":"일반휴게음식 - 일반한식"},{"name":"아리랑숯불갈비","tel":"031-662-0303","addr":"경기도 평택시 신장동 243-3번지 평택 송탄역 클래시아 1층 101호","category":"음식점 - 한식"},{"name":"아이비스PC","tel":"","addr":"경기도 평택시 신장동 243-3번지 1층 122,123,124호","category":"레저업소 - 기타레져업소"},{"name":"을용이곱창 송탄역점","tel":"031-667-2019","addr":"경기도 평택시 신장동 243-3번지 평택 송탄역 클래시아 111호 110호, 111호","category":"음식점 - 한식"},{"name":"주식회사 디지코퍼레이션","tel":"031-611-9782","addr":"경기도 평택시 신장동 243-3번지 평택 송탄역 클래시아 110호","category":"용역 서비스 - 사무서비스"},{"name":"카페마노 송탄역점","tel":"031-000-0000","addr":"경기도 평택시 신장동 243-3번지 평택 송탄역 클래시아 109호","category":"일반휴게음식 - 서양음식"},{"name":"커피에반하다 송탄역점","tel":"","addr":"경기도 평택시 신장동 243-3번지 평택송탄역클래시아 104호","category":"일반휴게음식 - 서양음식"},{"name":"클래시아스마트샵","tel":"031-000-0000","addr":"경기도 평택시 신장동 243-3번지 외6필지 평택송탄역클래시아 107호","category":"사무통신 - 통신기기"},{"name":"펀치킨 송탄역점","tel":"031-662-0303","addr":"경기도 평택시 신장동 243-3번지 클래시아 102호,103호","category":"일반휴게음식 - 스넥"},{"name":"펀치킨 송탄역점","tel":"031-662-0303","addr":"경기도 평택시 신장동 243-3번지 102호, 103호","category":"일반휴게음식 - 스넥"},{"name":"펀치킨 송탄역점","tel":"031-611-6789","addr":"경기도 평택시 신장동 243-3번지 102, 103호","category":"음식점 - 치킨"}]},{"lat":"37.080230885","long":"127.05161157","items":[{"name":"꼼꼬미네일","tel":"031-665-9114","addr":"경기도 평택시 신장동 316-15번지 1층","category":"보건위생 - 피부미용실"},{"name":"월드","tel":"031-666-1408","addr":"경기도 평택시 신장동 316-15번지","category":"소매업 - 의류"},{"name":"크로우","tel":"031-667-0821","addr":"경기도 평택시 신장동 316-15번지","category":"신변잡화 - 기타잡화"},{"name":"트리플엑스엘월드","tel":"031-664-0116","addr":"경기도 평택시 신장동 316-15번지","category":"의류 - 정장"},{"name":"후드윙크(hoodwink)","tel":"","addr":"경기도 평택시 신장동 316-15번지 1층","category":"의류 - 정장"}]},{"lat":"37.082790334","long":"127.05051105","items":[{"name":"꽃샘미용실","tel":"031-666-9750","addr":"경기도 평택시 신장동 309-24번지","category":"보건위생 - 미용원"}]},{"lat":"37.078760865","long":"127.05466952","items":[{"name":"나라애견송탄점","tel":"031-666-0027","addr":"경기도 평택시 신장동 227-7번지","category":"문화.취미 - 애완동물"},{"name":"나라애견송탄점","tel":"031-665-7585","addr":"경기도 평택시 신장동 227-7번지","category":"서비스업 - 애견샵"},{"name":"로코코","tel":"031-665-9028","addr":"경기도 평택시 신장동 227-7번지","category":"의류 - 정장"},{"name":"송탄 권투체육관","tel":"031-663-3412","addr":"경기도 평택시 신장동 227-7번지 2층","category":"회원제형태 - 레져업소"},{"name":"행운열쇠","tel":"031-663-6625","addr":"경기도 평택시 신장동 227-7번지","category":"소매업 - 열쇠, 도장"},{"name":"행운열쇠도장","tel":"031-662-2277","addr":"경기도 평택시 신장동 227-7번지 2층","category":"건축자재 - 목재·석재·철물"}]},{"lat":"37.079987066","long":"127.05289347","items":[{"name":"나무잎새","tel":"031-611-9970","addr":"경기도 평택시 신장동 321-40번지 101호","category":"의류 - 정장"},{"name":"스머프","tel":"031-662-6531","addr":"경기도 평택시 신장동 321-40번지","category":"의류 - 캐주얼의류"},{"name":"에스라인","tel":"031-221-0016","addr":"경기도 평택시 신장동 321-40번지 101호","category":"의류 - 정장"},{"name":"유미앤위","tel":"070-8116-3619","addr":"경기도 평택시 신장동 321-40번지 103호","category":"의류 - 정장"},{"name":"코코","tel":"031-611-8894","addr":"경기도 평택시 신장동 321-40번지","category":"소매업 - 의류"},{"name":"코코(COCO)","tel":"031-662-8577","addr":"경기도 평택시 신장동 321-40번지 102호","category":"의류 - 정장"},{"name":"해피랜드","tel":"","addr":"경기도 평택시 신장동 321-40번지","category":"소매업 - 의류"}]},{"lat":"37.088681233","long":"127.05528363","items":[{"name":"나우테크","tel":"031-611-0989","addr":"경기도 평택시 신장동 62-2번지","category":"수리서비스 - 사무·통신기기수리"}]},{"lat":"37.079482845","long":"127.0520047","items":[{"name":"낙원떡집","tel":"031-663-2770","addr":"경기도 평택시 신장동 318-29","category":"음료식품 - 제과점"}]},{"lat":"37.074840893","long":"127.05551026","items":[{"name":"남강치킨","tel":"031-662-0684","addr":"경기도 평택시 신장동 247-2번지 1층","category":"일반휴게음식 - 스넥"},{"name":"남일전기","tel":"031-662-7674","addr":"경기도 평택시 신장동 247-2번지","category":"전기제품 - 기타전기제품"}]},{"lat":"37.081122478","long":"127.05270303","items":[{"name":"남산카츠","tel":"02-1111-1111","addr":"경기도 평택시 신장동 323-28번지 2층","category":"일반휴게음식 - 일식·회집"},{"name":"에뛰드하우스 송탄점","tel":"031-611-9544","addr":"경기도 평택시 신장동 323-28번지 1층","category":"보건위생 - 화장품"}]},{"lat":"37.082042335","long":"127.05081423","items":[{"name":"남산통닭","tel":"031-663-3522","addr":"경기도 평택시 신장동 310-24번지","category":"음료식품 - 정육점"}]},{"lat":"37.074210217","long":"127.05536364","items":[{"name":"남성컷트전문 스타일컷","tel":"","addr":"경기도 평택시 신장동 250-1번지","category":"보건위생 - 미용원"},{"name":"장미페인트","tel":"031-666-7988","addr":"경기도 평택시 신장동 250-1","category":"건축자재 - 페인트"}]},{"lat":"37.07998777","long":"127.05119531","items":[{"name":"넘버원샵","tel":"031-662-8595","addr":"경기도 평택시 신장동 316-28번지","category":"의류 - 정장"},{"name":"메이저(MAJOR)","tel":"","addr":"경기도 평택시 신장동 316-28번지 2호","category":"의류 - 정장"},{"name":"킹양복점","tel":"","addr":"경기도 평택시 신장동 316-28번지","category":"의류 - 맞춤복점"}]},{"lat":"37.08081618","long":"127.05255663","items":[{"name":"네이처컬렉션 평택송탄점","tel":"031-665-4209","addr":"경기도 평택시 신장동 321-5번지 1층","category":"보건위생 - 화장품"},{"name":"뱅뱅어패럴","tel":"031-667-5949","addr":"경기도 평택시 신장동 321-5번지","category":"의류 - 스포츠의류"}]},{"lat":"37.079202888","long":"127.05350024","items":[{"name":"노다지비어","tel":"02-1111-1111","addr":"경기도 평택시 신장동 293-34번지 1층","category":"일반휴게음식 - 주점"}]},{"lat":"37.083401358","long":"127.05456021","items":[{"name":"노란카페","tel":"","addr":"경기도 평택시 신장동 198-11번지","category":"음료식품 - 제과점"}]},{"lat":"37.081149581","long":"127.05253435","items":[{"name":"노랑통닭 평택국제시장점","tel":"031-611-0311","addr":"경기도 평택시 신장동 320-37번지 1층","category":"일반휴게음식 - 스넥"}]},{"lat":"37.078870182","long":"127.05186936","items":[{"name":"노송가구","tel":"031-662-6745","addr":"경기도 평택시 신장동 274-142번지","category":"가구 - 일반가구"},{"name":"동양매직송탄대리점","tel":"031-4-5756","addr":"경기도 평택시 신장동 274-142번지","category":"전기제품 - 가전제품"},{"name":"서진기획","tel":"031-663-3005","addr":"경기도 평택시 신장동 274-142번지 힐사이드 101호","category":"건축자재 - 조명기구"},{"name":"훈스그릴","tel":"031-662-2183","addr":"경기도 평택시 신장동 274-142번지","category":"일반휴게음식 - 서양음식"}]},{"lat":"37.080618418","long":"127.05142063","items":[{"name":"놀부유통","tel":"031-665-3737","addr":"경기도 평택시 신장동 315-23번지 1층","category":"음료식품 - 기타음료식품"},{"name":"놀부집항아리갈비","tel":"031-666-2110","addr":"경기도 평택시 신장동 315-23번지 외2필지","category":"일반휴게음식 - 일반한식"},{"name":"라카사","tel":"031-668-8259","addr":"경기도 평택시 신장동 315-23번지 2층","category":"일반휴게음식 - 서양음식"},{"name":"한성에어컨","tel":"","addr":"경기도 평택시 신장동 315-23번지","category":"용역 서비스 - 기타용역서비스"}]},{"lat":"37.080149683","long":"127.05187018","items":[{"name":"뉴 굿프라이스(new good price)","tel":"031-611-0851","addr":"경기도 평택시 신장동 317-39번지","category":"의류 - 정장"},{"name":"버블버블","tel":"031-611-1826","addr":"경기도 평택시 신장동 317-39번지 1층","category":"의류 - 정장"},{"name":"쌍동이이불","tel":"031-665-2975","addr":"경기도 평택시 신장동 317-39번지 1층","category":"직물 - 침구·수예점"},{"name":"영패션","tel":"031-000-0000","addr":"경기도 평택시 신장동 317-39번지","category":"의류 - 정장"}]},{"lat":"37.078176115","long":"127.05247619","items":[{"name":"뉴욕스키친","tel":"031-662-5700","addr":"경기도 평택시 신장동 274-198번지 힐탑포레스트 1동","category":"일반휴게음식 - 서양음식"}]},{"lat":"37.08161828","long":"127.05217478","items":[{"name":"뉴크림","tel":"031-668-4405","addr":"경기도 평택시 신장동 320-22번지 1층","category":"일반휴게음식 - 주점"},{"name":"더 몽키즈(The Monkeys)","tel":"","addr":"경기도 평택시 신장동 320-22번지 1층","category":"일반휴게음식 - 서양음식"},{"name":"더스팟베엠","tel":"031-663-9218","addr":"경기도 평택시 신장동 320-22번지 2층","category":"일반휴게음식 - 주점"},{"name":"미스터치킨신장점","tel":"031-667-7171","addr":"경기도 평택시 신장동 320-22번지","category":"음식점 - 치킨"},{"name":"미스터치킨신장점","tel":"031-665-9995","addr":"경기도 평택시 신장동 320-22번지","category":"일반휴게음식 - 스넥"}]},{"lat":"37.07659813","long":"127.05511788","items":[{"name":"뉴평택공인중개사사무소","tel":"","addr":"경기도 평택시 신장동 238-8번지","category":"서비스업 - 부동산"},{"name":"스피더시스템","tel":"031-667-3566","addr":"경기도 평택시 신장동 238-8번지","category":"사무통신 - 컴퓨터"},{"name":"주식회사신호","tel":"031-667-5668","addr":"경기도 평택시 신장동 238-8번지 2층일부","category":"용역 서비스 - 기타용역서비스"},{"name":"청보석","tel":"031-663-4334","addr":"경기도 평택시 신장동 238-8번지 1층","category":"신변잡화 - 귀금속"}]},{"lat":"37.07948297","long":"127.05170106","items":[{"name":"느네의상실","tel":"","addr":"경기도 평택시 신장동 300-56번지 1층","category":"소매업 - 의류"},{"name":"느네의상실","tel":"031-662-3550","addr":"경기도 평택시 신장동 300-56번지 1층","category":"의류 - 맞춤복점"},{"name":"주디의피아노교습소","tel":"","addr":"경기도 평택시 신장동 300-56번지 1층","category":"학원 - 예·체능계학원"}]},{"lat":"37.079590799","long":"127.05242088","items":[{"name":"니키태국국수","tel":"031-611-0979","addr":"경기도 평택시 신장동 295-27번지 1층","category":"일반휴게음식 - 서양음식"},{"name":"니키태국국수","tel":"","addr":"경기도 평택시 신장동 295-27번지 1층","category":"음식점 - 한식"},{"name":"준분식","tel":"031-666-3698","addr":"경기도 평택시 신장동 295-27번지 1층","category":"일반휴게음식 - 스넥"}]},{"lat":"37.077042941","long":"127.04701005","items":[{"name":"다미정","tel":"031-669-1871","addr":"경기도 평택시 신장동 298-19번지","category":"일반휴게음식 - 일반한식"},{"name":"맘스터치오산공군기지점","tel":"031-669-4377","addr":"경기도 평택시 신장동 298-19번지 2층","category":"일반휴게음식 - 서양음식"},{"name":"오로디미용실","tel":"031-669-4379","addr":"경기도 평택시 신장동 298-19번지","category":"보건위생 - 미용원"},{"name":"커피베이오산공군기지점","tel":"031-5313-6312","addr":"경기도 평택시 신장동 298-19번지","category":"일반휴게음식 - 서양음식"},{"name":"커피에반하다(오산공군기지점)","tel":"070-7609-9872","addr":"경기도 평택시 신장동 298-19","category":"일반휴게음식 - 서양음식"},{"name":"크린상사","tel":"031-000-0000","addr":"경기도 평택시 신장동 298-19번지 레포츠센터 b1층","category":"수리서비스 - 세탁소"}]},{"lat":"37.078042152","long":"127.04952969","items":[{"name":"다복공인중개사사무소","tel":"031-667-9177","addr":"경기도 평택시 신장동 690-18번지","category":"용역 서비스 - 부동산 중개·임대"}]},{"lat":"37.080761784","long":"127.05334383","items":[{"name":"다인밥상","tel":"031-8094-0877","addr":"경기도 평택시 신장동 324-28번지 1층","category":"일반휴게음식 - 일반한식"}]},{"lat":"37.081265438","long":"127.05550345","items":[{"name":"단골순대국","tel":"031-611-1766","addr":"경기도 평택시 신장동 214-52번지 1층","category":"음식점 - 한식"},{"name":"단골순대국","tel":"031-662-0139","addr":"경기도 평택시 신장동 214-52번지 1층","category":"일반휴게음식 - 일반한식"}]},{"lat":"37.074320835","long":"127.04939247","items":[{"name":"달려라치킨","tel":"031-666-1702","addr":"경기도 평택시 신장동 269-109번지 2층","category":"일반휴게음식 - 주점"}]},{"lat":"37.077815819","long":"127.05217232","items":[{"name":"대광목공소","tel":"031-668-9978","addr":"경기도 평택시 신장동 274-408번지","category":"보건위생 - 기타대인서비스"}]},{"lat":"37.079626888","long":"127.05230844","items":[{"name":"대구떡집","tel":"031-667-2951","addr":"경기도 평택시 신장동 318-17번지 외2필지","category":"음료식품 - 제과점"},{"name":"대구떡집","tel":"031-666-4492","addr":"경기도 평택시 신장동 318-17번지","category":"제조업 - 떡"},{"name":"세진청과","tel":"031-664-4396","addr":"경기도 평택시 신장동 318-17번지","category":"음료식품 - 농·축·수산품"}]},{"lat":"37.08140084","long":"127.05495248","items":[{"name":"대구여인숙","tel":"031-644-5727","addr":"경기도 평택시 신장동 208-6번지","category":"숙박업 - 여관/기타숙박업"}]},{"lat":"37.082069257","long":"127.05108417","items":[{"name":"대동지물","tel":"031-662-4973","addr":"경기도 평택시 신장동 310-5번지","category":"직물 - 카페트,커튼,천막,지물"}]},{"lat":"37.077093677","long":"127.05519694","items":[{"name":"대림도기","tel":"031-666-9078","addr":"경기도 평택시 신장동 235-9번지","category":"건축자재 - 기타건축자재"}]},{"lat":"37.078870274","long":"127.05164444","items":[{"name":"대성공인중개사","tel":"031-666-9671","addr":"경기도 평택시 신장동 274-119번지","category":"서비스업 - 부동산"},{"name":"스타공인중개사사무소","tel":"","addr":"경기도 평택시 신장동 274-119번지 1층","category":"용역 서비스 - 부동산 중개·임대"},{"name":"후다닭치킨","tel":"070-8114-6143","addr":"경기도 평택시 신장동 274-119번지","category":"일반휴게음식 - 스넥"}]},{"lat":"37.07940161","long":"127.05234203","items":[{"name":"대성정육점","tel":"031-666-7711","addr":"경기도 평택시 신장동 295-8번지","category":"음료식품 - 정육점"},{"name":"대성정육점","tel":"","addr":"경기도 평택시 신장동 295-8번지","category":"도소매업 - 정육"},{"name":"진미닭집","tel":"031-611-2221","addr":"경기도 평택시 신장동 295-8번지","category":"음식점 - 한식"}]},{"lat":"37.080285629","long":"127.04992468","items":[{"name":"대왕사","tel":"031-666-6767","addr":"경기도 평택시 신장동 302-92번지","category":"소매업 - 의류"},{"name":"대왕상회","tel":"031-662-0237","addr":"경기도 평택시 신장동 302-92번지","category":"의류 - 정장"}]},{"lat":"37.078869555","long":"127.05336507","items":[{"name":"대진광고기획","tel":"031-665-2152","addr":"경기도 평택시 신장동 294-22번지","category":"용역 서비스 - 종합용역"},{"name":"신화스포츠무도학원(신장점)","tel":"031-611-8823","addr":"경기도 평택시 신장동 294-22번지","category":"회원제형태 - 레져업소"}]},{"lat":"37.073038802","long":"127.05545279","items":[{"name":"대진카독크센타","tel":"031-664-3030","addr":"경기도 평택시 신장동 252-47번지","category":"자동차정비 유지 - 자동차정비"}]},{"lat":"37.077654639","long":"127.04967565","items":[{"name":"대호낚시","tel":"031-666-6225","addr":"경기도 평택시 신장동 690-33번지","category":"레져용품 - 스포츠·레져용품"}]},{"lat":"37.078761675","long":"127.05278021","items":[{"name":"대호탕","tel":"031-662-2325","addr":"경기도 평택시 신장동 274-405번지","category":"서비스업 - 목욕탕"}]},{"lat":"37.079871307","long":"127.04950832","items":[{"name":"대흥사","tel":"031-662-6219","addr":"경기도 평택시 신장동 302-127번지","category":"신변잡화 - 액세서리"},{"name":"유스","tel":"031-666-4735","addr":"경기도 평택시 신장동 302-127번지","category":"의류 - 정장"}]},{"lat":"37.080536932","long":"127.05236526","items":[{"name":"댑","tel":"","addr":"경기도 평택시 신장동 319-4번지","category":"소매업 - 의류"},{"name":"댑dab","tel":"031-663-2330","addr":"경기도 평택시 신장동 319-4번지","category":"의류 - 정장"},{"name":"백인더데이","tel":"","addr":"경기도 평택시 신장동 319-4번지 3층","category":"일반휴게음식 - 주점"},{"name":"사보르페루아노","tel":"031-662-3656","addr":"경기도 평택시 신장동 319-4번지 3층","category":"일반휴게음식 - 서양음식"},{"name":"사뷔에르에아프리크","tel":"031-225-2300","addr":"경기도 평택시 신장동 319-4번지 2층","category":"일반휴게음식 - 서양음식"},{"name":"조이너스(송탄점)","tel":"031-662-0740","addr":"경기도 평택시 신장동 319-4번지","category":"의류 - 정장"},{"name":"컴부이","tel":"031-664-1260","addr":"경기도 평택시 신장동 319-4번지","category":"의류 - 정장"},{"name":"클라스마","tel":"031-662-9688","addr":"경기도 평택시 신장동 319-4번지","category":"의류 - 정장"}]},{"lat":"37.086206234","long":"127.04823004","items":[{"name":"더 아티스트(The artist.)","tel":"031-652-0205","addr":"경기도 평택시 신장동 614-5번지","category":"문화.취미 - 티켓"}]},{"lat":"37.083674018","long":"127.04886959","items":[{"name":"더 어썸 (The awesome)","tel":"02-0000-0000","addr":"경기도 평택시 신장동 634-2번지","category":"의류 - 정장"}]},{"lat":"37.080735454","long":"127.05166812","items":[{"name":"더바코드(The Barcode)","tel":"","addr":"경기도 평택시 신장동 315-4번지 2층 건물내 2-3호","category":"일반휴게음식 - 주점"},{"name":"제이-스팟(j-spot)","tel":"031-665-8308","addr":"경기도 평택시 신장동 315-4번지","category":"신변잡화 - 기타잡화"},{"name":"티키","tel":"031-667-9733","addr":"경기도 평택시 신장동 315-4번지","category":"일반휴게음식 - 주점"}]},{"lat":"37.080924786","long":"127.05139834","items":[{"name":"더커피트리","tel":"","addr":"경기도 평택시 신장동 314-6번지 2층","category":"일반휴게음식 - 서양음식"},{"name":"배스킨라빈스(송탄점)","tel":"","addr":"경기도 평택시 신장동 314-6번지","category":"음식점 - 디저트"},{"name":"베스킨라빈스 송탄점","tel":"031-611-1688","addr":"경기도 평택시 신장동 314-6번지 1층","category":"음료식품 - 제과점"},{"name":"전영숙헤어뉴스","tel":"031-663-8490","addr":"경기도 평택시 신장동 314-6번지","category":"보건위생 - 미용원"},{"name":"티팸(T-FAM)","tel":"031-000-0000","addr":"경기도 평택시 신장동 314-6번지 3층","category":"일반휴게음식 - 서양음식"}]},{"lat":"37.0733992","long":"127.05550926","items":[{"name":"더하리오","tel":"","addr":"경기도 평택시 신장동 252-43번지","category":"음식점 - 커피"},{"name":"더하리오","tel":"031-667-3399","addr":"경기도 평택시 신장동 252-43번지 1층","category":"일반휴게음식 - 서양음식"}]},{"lat":"37.080320632","long":"127.05247758","items":[{"name":"데이현","tel":"031-667-7857","addr":"경기도 평택시 신장동 319-8번지","category":"의류 - 정장"},{"name":"데이현","tel":"031-664-2888","addr":"경기도 평택시 신장동 319-8번지","category":"소매업 - 의류"},{"name":"미니멀","tel":"031-664-1260","addr":"경기도 평택시 신장동 319-8번지 2층","category":"일반휴게음식 - 일반한식"},{"name":"조이너스","tel":"031-664-3365","addr":"경기도 평택시 신장동 319-8번지","category":"의류 - 정장"},{"name":"퀸즈네일바","tel":"031-663-3431","addr":"경기도 평택시 신장동 319-8번지 1층","category":"보건위생 - 피부미용실"},{"name":"헤리티지엔코(HERITAGE&CO)","tel":"031-654-6708","addr":"경기도 평택시 신장동 319-8번지","category":"의류 - 정장"}]},{"lat":"37.080871128","long":"127.05039739","items":[{"name":"도그파운드","tel":"031-662-4736","addr":"경기도 평택시 신장동 302-50번지","category":"일반휴게음식 - 주점"},{"name":"딜리스바버샵","tel":"","addr":"경기도 평택시 신장동 302-50번지 1층 라호","category":"보건위생 - 이용원"},{"name":"월드","tel":"070-7572-4006","addr":"경기도 평택시 신장동 302-50번지 라호302-45다호","category":"사무통신 - 컴퓨터"},{"name":"하이웨이가죽","tel":"031-666-9301","addr":"경기도 평택시 신장동 302-50번지","category":"의류 - 정장"}]},{"lat":"37.076841391","long":"127.05517427","items":[{"name":"도깨비 김밥","tel":"031-666-4662","addr":"경기도 평택시 신장동 237-5번지","category":"일반휴게음식 - 일반한식"},{"name":"도깨비김밥","tel":"031-668-7887","addr":"경기도 평택시 신장동 237-5번지","category":"음식점 - 분식"}]},{"lat":"37.074678867","long":"127.05513905","items":[{"name":"도매폰센터","tel":"031-667-7381","addr":"경기도 평택시 신장동 249-2번지","category":"도소매업 - 전자기기"}]},{"lat":"37.073705324","long":"127.056038","items":[{"name":"돈가삼겹살","tel":"031-664-8895","addr":"경기도 평택시 신장동 252-27번지 1층","category":"일반휴게음식 - 일반한식"}]},{"lat":"37.086292522","long":"127.05730646","items":[{"name":"돌다암식점","tel":"031-611-7558","addr":"경기도 평택시 신장동 139-2번지","category":"일반휴게음식 - 일반한식"}]},{"lat":"37.080041556","long":"127.05187011","items":[{"name":"동광마트","tel":"031-667-2951","addr":"경기도 평택시 신장동 317-68번지","category":"소매업 - 슈퍼"},{"name":"동광마트","tel":"031-666-3455","addr":"경기도 평택시 신장동 317-68번지","category":"유통업 영리 - 슈퍼마켓"}]},{"lat":"37.080230318","long":"127.05297235","items":[{"name":"동네휴게소","tel":"","addr":"경기도 평택시 신장동 322-70번지","category":"유통업 영리 - 슈퍼마켓"},{"name":"블루(Blue)","tel":"070-8961-6992","addr":"경기도 평택시 신장동 322-70번지 2층","category":"신변잡화 - 액세서리"},{"name":"이치 (E.Chi)","tel":"031-000-0000","addr":"경기도 평택시 신장동 322-70번지 1층","category":"의류 - 정장"}]},{"lat":"37.081427703","long":"127.05533487","items":[{"name":"동명상사","tel":"","addr":"경기도 평택시 신장동 214-51번지","category":"자동차정비 유지 - 주차장"},{"name":"에이스크린환경","tel":"031-666-8674","addr":"경기도 평택시 신장동 214-51번지 301호","category":"용역 서비스 - 종합용역"},{"name":"영순양꼬치","tel":"031-665-5682","addr":"경기도 평택시 신장동 214-51번지","category":"일반휴게음식 - 중국식"}]},{"lat":"37.079735173","long":"127.05192614","items":[{"name":"동신침구","tel":"031-666-2842","addr":"경기도 평택시 신장동 317-73번지","category":"소매업 - 침구류"},{"name":"동신침구","tel":"031-666-4229","addr":"경기도 평택시 신장동 317-73번지","category":"직물 - 침구·수예점"},{"name":"신한우정육점","tel":"","addr":"경기도 평택시 신장동 317-73번지 나동","category":"음료식품 - 정육점"},{"name":"우리빨래방","tel":"031-666-7380","addr":"경기도 평택시 신장동 317-73번지 102호","category":"수리서비스 - 세탁소"}]},{"lat":"37.083707377","long":"127.05533644","items":[{"name":"동일공업사","tel":"031-611-9328","addr":"경기도 평택시 신장동 195-3번지","category":"서비스업 - 자동차정비"}]},{"lat":"37.076679215","long":"127.05514042","items":[{"name":"동일마트","tel":"031-662-3675","addr":"경기도 평택시 신장동 238-7번지","category":"유통업 영리 - 슈퍼마켓"},{"name":"동일마트","tel":"031-663-0515","addr":"경기도 평택시 신장동 238-7번지","category":"소매업 - 슈퍼"}]},{"lat":"37.077625202","long":"127.05542222","items":[{"name":"동태와삼겹살","tel":"031-665-0510","addr":"경기도 평택시 신장동 230-2번지","category":"일반휴게음식 - 일반한식"}]},{"lat":"37.07981604","long":"127.05247725","items":[{"name":"동해닭집","tel":"","addr":"경기도 평택시 신장동 318-34번지","category":"음식점 - 한식"},{"name":"동해닭집","tel":"031-666-8577","addr":"경기도 평택시 신장동 318-34번지","category":"일반휴게음식 - 주점"}]},{"lat":"37.074372298","long":"127.05561114","items":[{"name":"동호회식당","tel":"031-663-9690","addr":"경기도 평택시 신장동 251-1번지 지하","category":"일반휴게음식 - 일반한식"},{"name":"오성당","tel":"031-664-8566","addr":"경기도 평택시 신장동 251-1번지","category":"신변잡화 - 시계"}]},{"lat":"37.088259072","long":"127.05216783","items":[{"name":"동화상사","tel":"031-666-9840","addr":"경기도 평택시 신장동 389-1번지 오송맨션 101호","category":"유통업 영리 - 슈퍼마켓"},{"name":"오아시스(OASIS)","tel":"031-666-9840","addr":"경기도 평택시 신장동 389-1번지 오송맨션","category":"일반휴게음식 - 서양음식"},{"name":"한일해물칼국수","tel":"031-611-9239","addr":"경기도 평택시 신장동 389-1번지 오송맨션","category":"일반휴게음식 - 일반한식"},{"name":"행복밥상","tel":"031-666-2254","addr":"경기도 평택시 신장동 389-1번지 오송맨션 1층","category":"일반휴게음식 - 일반한식"},{"name":"홈스윗홈(Home Sweet Home)","tel":"031-691-0614","addr":"경기도 평택시 신장동 389-1번지 오송맨션","category":"일반휴게음식 - 서양음식"}]},{"lat":"37.078040696","long":"127.05309462","items":[{"name":"두꺼비식당","tel":"031-611-1252","addr":"경기도 평택시 신장동 274-245번지","category":"일반휴게음식 - 일반한식"}]},{"lat":"37.078923628","long":"127.05334261","items":[{"name":"두리하나호프","tel":"031-662-4386","addr":"경기도 평택시 신장동 294-21번지","category":"일반휴게음식 - 주점"},{"name":"자매한식당","tel":"031-667-2779","addr":"경기도 평택시 신장동 294-21번지","category":"일반휴게음식 - 일반한식"}]},{"lat":"37.073465114","long":"127.04866101","items":[{"name":"두물머리","tel":"031-666-4494","addr":"경기도 평택시 신장동 267-208번지 일신가든연립 나동 105호","category":"신변잡화 - 가방"}]},{"lat":"37.080095712","long":"127.05164522","items":[{"name":"듀크","tel":"031-666-4030","addr":"경기도 평택시 신장동 316-34번지","category":"의류 - 정장"}]},{"lat":"37.082707054","long":"127.05567315","items":[{"name":"드라마모텔","tel":"031-662-0067","addr":"경기도 평택시 신장동 192-11번지","category":"숙박업 - 여관/기타숙박업"}]},{"lat":"37.079348174","long":"127.05081254","items":[{"name":"드래곤라이더","tel":"031-667-8940","addr":"경기도 평택시 신장동 299-20","category":"의류 - 정장"}]},{"lat":"37.077815341","long":"127.05330814","items":[{"name":"드르와","tel":"031-667-1401","addr":"경기도 평택시 신장동 274-167번지","category":"일반휴게음식 - 스넥"}]},{"lat":"37.07776257","long":"127.05017053","items":[{"name":"디자인피부관리실","tel":"070-8947-4200","addr":"경기도 평택시 신장동 691-25번지 2층","category":"보건위생 - 피부미용실"}]},{"lat":"37.081041767","long":"127.05178078","items":[{"name":"디저트킹덤 인테리어","tel":"031-611-1491","addr":"경기도 평택시 신장동 313-2번지 2층","category":"건축자재 - 기타건축자재"}]},{"lat":"37.080068906","long":"127.05109415","items":[{"name":"디하프매딕","tel":"070-7756-6625","addr":"경기도 평택시 신장동 316-23번지 1층","category":"의류 - 기타의류"}]},{"lat":"37.076147636","long":"127.05503885","items":[{"name":"땟거리","tel":"031-611-6919","addr":"경기도 평택시 신장동 239-5번지","category":"일반휴게음식 - 일반한식"}]},{"lat":"37.080149384","long":"127.05258993","items":[{"name":"똑순네악세사리","tel":"031-662-3979","addr":"경기도 평택시 신장동 319-9번지","category":"신변잡화 - 액세서리"},{"name":"똑순네악세사리","tel":"","addr":"경기도 평택시 신장동 319-9번지","category":"소매업 - 잡화"},{"name":"레인블링 (LANE BLANC)","tel":"031-666-4861","addr":"경기도 평택시 신장동 319-9번지 1층","category":"의류 - 정장"},{"name":"로아","tel":"","addr":"경기도 평택시 신장동 319-9번지 1층","category":"소매업 - 의류"}]},{"lat":"37.080401891","long":"127.05208402","items":[{"name":"띵크","tel":"031-665-7726","addr":"경기도 평택시 신장동 317-23번지","category":"일반휴게음식 - 일반한식"},{"name":"비노","tel":"031-666-1617","addr":"경기도 평택시 신장동 317-23번지","category":"일반휴게음식 - 서양음식"},{"name":"킹노래방","tel":"031-668-2828","addr":"경기도 평택시 신장동 317-23번지 2층","category":"레저업소 - 노 래 방"}]},{"lat":"37.080293306","long":"127.05317483","items":[{"name":"라멘광훈","tel":"070-743-0883","addr":"경기도 평택시 신장동 322-35번지 1층","category":"일반휴게음식 - 일반한식"}]},{"lat":"37.080923812","long":"127.05372631","items":[{"name":"라바짜커피나무","tel":"031-667-6651","addr":"경기도 평택시 신장동 325-35번지 2층","category":"일반휴게음식 - 서양음식"}]},{"lat":"37.082285295","long":"127.05161289","items":[{"name":"라벤더공인중개사사무소","tel":"031-611-7782","addr":"경기도 평택시 신장동 342-18번지","category":"용역 서비스 - 부동산 중개·임대"}]},{"lat":"37.079736117","long":"127.04958696","items":[{"name":"라이프양화점","tel":"031-666-5913","addr":"경기도 평택시 신장동 298-146번지","category":"신변잡화 - 신발"},{"name":"에이스샵","tel":"031-611-1740","addr":"경기도 평택시 신장동 298-146번지","category":"의류 - 단체복"}]},{"lat":"37.087149487","long":"127.05517011","items":[{"name":"라플레이스(LAPLACE)","tel":"031-000-0000","addr":"경기도 평택시 신장동 163-9번지 1층","category":"일반휴게음식 - 서양음식"},{"name":"휴펫","tel":"","addr":"경기도 평택시 신장동 163-9번지 2층","category":"문화.취미 - 애완동물"}]},{"lat":"37.086257182","long":"127.05575434","items":[{"name":"라효","tel":"031-000-0000","addr":"경기도 평택시 신장동 145번지 조경빌딩 4층","category":"일반휴게음식 - 서양음식"}]},{"lat":"37.080654079","long":"127.05234285","items":[{"name":"러스티","tel":"031-667-3398","addr":"경기도 평택시 신장동 319-18번지","category":"일반휴게음식 - 주점"}]},{"lat":"37.081538156","long":"127.04977925","items":[{"name":"럭키스파피부미용실","tel":"031-611-9916","addr":"경기도 평택시 신장동 306-52번지 1층","category":"보건위생 - 피부미용실"}]},{"lat":"37.079790225","long":"127.04947453","items":[{"name":"럭키양복점","tel":"031-666-5156","addr":"경기도 평택시 신장동 298-10번지","category":"의류 - 맞춤복점"}]},{"lat":"37.080735961","long":"127.05041979","items":[{"name":"레더아트","tel":"031-662-4453","addr":"경기도 평택시 신장동 302-45,46","category":"신변잡화 - 기타잡화"}]},{"lat":"37.079960105","long":"127.05272476","items":[{"name":"레드페이스송탄점","tel":"031-666-6145","addr":"경기도 평택시 신장동 319-2번지","category":"도소매업 - 의류"}]},{"lat":"37.079590695","long":"127.05266829","items":[{"name":"레드페이스송탄점","tel":"031-668-2213","addr":"경기도 평택시 신장동 295-21번지","category":"레져용품 - 스포츠·레져용품"},{"name":"성신슈퍼","tel":"031-666-2850","addr":"경기도 평택시 신장동 295-21,295-1,295-20,295-23,295-24","category":"유통업 영리 - 슈퍼마켓"},{"name":"성신슈퍼","tel":"031-662-4469","addr":"경기도 평택시 신장동 295-21번지","category":"소매업 - 슈퍼"},{"name":"아이엠루","tel":"031-668-3303","addr":"경기도 평택시 신장동 295-21번지","category":"소매업 - 의류"},{"name":"평택중고폰탑폰","tel":"","addr":"경기도 평택시 신장동 295-21번지","category":"사무통신 - 통신기기"}]},{"lat":"37.080285665","long":"127.04983471","items":[{"name":"로얄","tel":"031-665-8446","addr":"경기도 평택시 신장동 302-93번지","category":"의류 - 정장"}]},{"lat":"37.079979194","long":"127.05011568","items":[{"name":"로얄가방","tel":"031-662-4950","addr":"경기도 평택시 신장동 302-168번지","category":"신변잡화 - 가방"},{"name":"로얄가방","tel":"","addr":"경기도 평택시 신장동 302-168번지","category":"소매업 - 잡화"}]},{"lat":"37.079591703","long":"127.0502054","items":[{"name":"로얄이불","tel":"031-667-6173","addr":"경기도 평택시 신장동 298-36번지","category":"직물 - 침구·수예점"}]},{"lat":"37.080285373","long":"127.05056571","items":[{"name":"록키즈버거","tel":"031-667-4502","addr":"경기도 평택시 신장동 302-132번지","category":"일반휴게음식 - 서양음식"},{"name":"부동산임대","tel":"","addr":"경기도 평택시 신장동 302-132번지","category":"서비스업 - 부동산"}]},{"lat":"37.080952133","long":"127.05062236","items":[{"name":"롤로(LOLO)","tel":"031-667-8836","addr":"경기도 평택시 신장동 303-3지하B01","category":"의류 - 정장"},{"name":"세이디스","tel":"","addr":"경기도 평택시 신장동 303-3번지 지하","category":"일반휴게음식 - 서양음식"},{"name":"원스탑","tel":"","addr":"경기도 평택시 신장동 303-3번지 1층","category":"음료식품 - 기타음료식품"},{"name":"테레사레스토랑(TERESA RESTAURANT)","tel":"070-4184-0283","addr":"경기도 평택시 신장동 303-3번지 지하층","category":"일반휴게음식 - 스넥"},{"name":"파인아이래쉬(fineeyelash)","tel":"","addr":"경기도 평택시 신장동 303-3번지 2층","category":"보건위생 - 미용재료"}]},{"lat":"37.078202101","long":"127.05491655","items":[{"name":"롯데주방","tel":"031-665-6194","addr":"경기도 평택시 신장동 227-5번지","category":"소매업 - 주방가구"},{"name":"롯데주방","tel":"031-4-8485","addr":"경기도 평택시 신장동 227-5번지","category":"주방용구 - 주방용구"},{"name":"이크포차","tel":"070-4024-8019","addr":"경기도 평택시 신장동 227-5번지","category":"일반휴게음식 - 일반한식"}]},{"lat":"37.075480917","long":"127.0548922","items":[{"name":"루덴스커피로스터스","tel":"031-668-0046","addr":"경기도 평택시 신장동 243-9번지","category":"소매업 - 카페"},{"name":"루덴스커피로스터스","tel":"031-000-0000","addr":"경기도 평택시 신장동 243-9번지 1층, 2층","category":"일반휴게음식 - 서양음식"}]},{"lat":"37.079429459","long":"127.05034026","items":[{"name":"리갈패션","tel":"031-663-7651","addr":"경기도 평택시 신장동 298-40번지","category":"의류 - 맞춤복점"},{"name":"하바드 양복점","tel":"031-663-6652","addr":"경기도 평택시 신장동 298-40번지","category":"의류 - 맞춤복점"}]},{"lat":"37.081312646","long":"127.05039766","items":[{"name":"리멤버","tel":"","addr":"경기도 평택시 신장동 306-68번지","category":"일반휴게음식 - 주점"}]},{"lat":"37.07942842","long":"127.05287061","items":[{"name":"리버희다(riverheeda)","tel":"","addr":"경기도 평택시 신장동 274-129번지","category":"의류 - 정장"},{"name":"월리샵","tel":"","addr":"경기도 평택시 신장동 274-129번지","category":"소매업 - 문구"},{"name":"월리샵 (Wallyshop)","tel":"031-000-0000","addr":"경기도 평택시 신장동 274-129번지","category":"신변잡화 - 기타잡화"}]},{"lat":"37.080177292","long":"127.05045318","items":[{"name":"리오그릴","tel":"031-666-7136","addr":"경기도 평택시 신장동 302-156번지 2층","category":"일반휴게음식 - 서양음식"},{"name":"마이크클로오딩","tel":"031-662-1704","addr":"경기도 평택시 신장동 302-156번지","category":"의류 - 정장"},{"name":"신라공예","tel":"031-665-7896","addr":"경기도 평택시 신장동 302-156,302-162","category":"문화.취미 - 민예·공예품"}]},{"lat":"37.074624604","long":"127.05558883","items":[{"name":"리오스튜디오","tel":"031-663-8255","addr":"경기도 평택시 신장동 247-12번지 1층","category":"광학제품 - 사진관"},{"name":"송탄공인중개사사무소","tel":"031-663-1190","addr":"경기도 평택시 신장동 247-12번지 1층 송탄부동산","category":"서비스업 - 부동산"},{"name":"일이삼 노래연습장","tel":"031-664-0058","addr":"경기도 평택시 신장동 247-12번지","category":"레저업소 - 노 래 방"}]},{"lat":"37.080374915","long":"127.05194905","items":[{"name":"리코 플레르","tel":"031-665-6057","addr":"경기도 평택시 신장동 317-45번지","category":"문화.취미 - 화원"}]},{"lat":"37.07976192","long":"127.05261217","items":[{"name":"리틀빅","tel":"031-662-0045","addr":"경기도 평택시 신장동 318-14번지 1층","category":"의류 - 정장"},{"name":"리틀빅","tel":"031-662-8577","addr":"경기도 평택시 신장동 318-14번지","category":"소매업 - 의류"}]},{"lat":"37.08028531","long":"127.05072316","items":[{"name":"림스양복점","tel":"031-666-2621","addr":"경기도 평택시 신장동 302-129번지","category":"의류 - 맞춤복점"},{"name":"스타케밥","tel":"031-668-5582","addr":"경기도 평택시 신장동 302-129번지","category":"일반휴게음식 - 일반한식"}]},{"lat":"37.079537305","long":"127.05103758","items":[{"name":"마나우스그릴","tel":"031-665-8011","addr":"경기도 평택시 신장동 300-103번지 1층 5호","category":"일반휴게음식 - 스넥"},{"name":"케어셀라신장점","tel":"","addr":"경기도 평택시 신장동 300-103번지","category":"건강식품 - 기타건강식품"}]},{"lat":"37.081068761","long":"127.05187077","items":[{"name":"마라나타","tel":"031-000-0000","addr":"경기도 평택시 신장동 312-16번지","category":"일반휴게음식 - 서양음식"},{"name":"코쿤","tel":"031-666-8537","addr":"경기도 평택시 신장동 312-16번지","category":"일반휴게음식 - 주점"}]},{"lat":"37.080761999","long":"127.05283775","items":[{"name":"마렌","tel":"","addr":"경기도 평택시 신장동 322-42번지 1층","category":"소매업 - 의류"},{"name":"마렌","tel":"031-666-8685","addr":"경기도 평택시 신장동 322-42번지 1층","category":"의류 - 정장"}]},{"lat":"37.07892404","long":"127.05236421","items":[{"name":"마루","tel":"031-666-3693","addr":"경기도 평택시 신장동 274-329번지 1층","category":"일반휴게음식 - 주점"}]},{"lat":"37.077264913","long":"127.05511834","items":[{"name":"마리아쿠아","tel":"070-4384-6949","addr":"경기도 평택시 신장동 235-7번지","category":"문화.취미 - 수족관"},{"name":"만영불교사","tel":"031-668-7858","addr":"경기도 평택시 신장동 235-7번지","category":"문화.취미 - 문화취미기타"}]},{"lat":"37.081789939","long":"127.0510615","items":[{"name":"마마식당","tel":"031-666-5311","addr":"경기도 평택시 신장동 310-6번지","category":"일반휴게음식 - 일반한식"}]},{"lat":"37.072544338","long":"127.0528661","items":[{"name":"마차차","tel":"031-665-0330","addr":"경기도 평택시 신장동 261-39번지 1층","category":"일반휴게음식 - 일반한식"},{"name":"배달의송탄점","tel":"031-000-0000","addr":"경기도 평택시 신장동 261-39번지","category":"일반휴게음식 - 일반한식"},{"name":"올댓","tel":"031-668-9282","addr":"경기도 평택시 신장동 261-39번지 103호","category":"일반휴게음식 - 일반한식"}]},{"lat":"37.078987513","long":"127.0513971","items":[{"name":"마파이카페","tel":"031-665-9994","addr":"경기도 평택시 신장동 274-319번지 2동","category":"일반휴게음식 - 서양음식"},{"name":"케이씨에스헤어샵","tel":"031-665-7277","addr":"경기도 평택시 신장동 274-319번지 1층","category":"보건위생 - 미용원"}]},{"lat":"37.087120478","long":"127.05947775","items":[{"name":"만물자동차공업사","tel":"031-662-4081","addr":"경기도 평택시 신장동 103번지","category":"자동차정비 유지 - 자동차정비"},{"name":"만물카센타","tel":"031-663-0044","addr":"경기도 평택시 신장동 103번지","category":"서비스업 - 자동차정비"},{"name":"삼성그릇주방","tel":"031-663-0712","addr":"경기도 평택시 신장동 103번지 101동 103호","category":"주방용구 - 주방용식기"},{"name":"삼성기물","tel":"031-663-0712","addr":"경기도 평택시 신장동 103번지","category":"주방용구 - 주방용구"},{"name":"삼성기사식당","tel":"031-665-5768","addr":"경기도 평택시 신장동 103번지 104호","category":"일반휴게음식 - 일반한식"},{"name":"현대천막건설공사","tel":"031-666-9391","addr":"경기도 평택시 신장동 103번지 105,106호","category":"직물 - 카페트,커튼,천막,지물"},{"name":"황제오리신장점","tel":"031-665-5279","addr":"경기도 평택시 신장동 103번지 107동 108호","category":"일반휴게음식 - 일반한식"},{"name":"황제오리신장점","tel":"031-663-6678","addr":"경기도 평택시 신장동 103번지","category":"음식점 - 한식"}]},{"lat":"37.078626502","long":"127.05281386","items":[{"name":"만보장","tel":"031-666-3313","addr":"경기도 평택시 신장동 274-406번지","category":"음식점 - 중식"},{"name":"만보장","tel":"031-665-4560","addr":"경기도 평택시 신장동 274-406번지","category":"일반휴게음식 - 중국식"}]},{"lat":"37.074759962","long":"127.05513911","items":[{"name":"만수무강 한복대여","tel":"","addr":"경기도 평택시 신장동 248-22번지","category":"소매업 - 한복"}]},{"lat":"37.076734296","long":"127.05277888","items":[{"name":"매화당","tel":"031-666-8917","addr":"경기도 평택시 신장동 280-16번지","category":"보건위생 - 기타대인서비스"}]},{"lat":"37.077627054","long":"127.05105886","items":[{"name":"맨헤어","tel":"031-000-0000","addr":"경기도 평택시 신장동 273-11번지 101호","category":"보건위생 - 미용원"},{"name":"태후사랑","tel":"031-667-2618","addr":"경기도 평택시 신장동 273-11번지","category":"보건위생 - 화장품"},{"name":"해담식당","tel":"031-611-8867","addr":"경기도 평택시 신장동 273-11번지 1층","category":"일반휴게음식 - 일반한식"}]},{"lat":"37.081870623","long":"127.05206248","items":[{"name":"맬리사","tel":"031-663-5515","addr":"경기도 평택시 신장동 320-14번지","category":"일반휴게음식 - 서양음식"},{"name":"포앤이원(4ne1)","tel":"031-611-4211","addr":"경기도 평택시 신장동 320-14번지 2층","category":"보건위생 - 화장품"},{"name":"헤븐리브레드","tel":"031-665-5956","addr":"경기도 평택시 신장동 320-14번지 1층","category":"일반휴게음식 - 일반한식"}]},{"lat":"37.08140237","long":"127.05134241","items":[{"name":"머디머피스","tel":"031-668-8966","addr":"경기도 평택시 신장동 313-33번지","category":"일반휴게음식 - 서양음식"},{"name":"와락","tel":"031-663-2060","addr":"경기도 평택시 신장동 313-33번지","category":"일반휴게음식 - 일반한식"},{"name":"체이스라운지","tel":"031-666-1674","addr":"경기도 평택시 신장동 313-33번지","category":"일반휴게음식 - 주점"}]},{"lat":"37.080230643","long":"127.05219637","items":[{"name":"먹자분식","tel":"031-666-0414","addr":"경기도 평택시 신장동 317-40번지","category":"음식점 - 분식"},{"name":"먹자분식","tel":"031-662-3155","addr":"경기도 평택시 신장동 317-40번지","category":"일반휴게음식 - 스넥"}]},{"lat":"37.080176645","long":"127.05203889","items":[{"name":"멋뜰","tel":"031-662-0122","addr":"경기도 평택시 신장동 317-27번지","category":"의류 - 정장"},{"name":"투 메이크(To make)","tel":"","addr":"경기도 평택시 신장동 317-27번지","category":"신변잡화 - 가방"},{"name":"혜영이네","tel":"031-663-1811","addr":"경기도 평택시 신장동 317-27번지","category":"의류 - 정장"}]},{"lat":"37.079654032","long":"127.05203855","items":[{"name":"멋쟁이","tel":"031-668-3992","addr":"경기도 평택시 신장동 318-27번지 1층","category":"수리서비스 - 세탁소"},{"name":"멋쟁이옷수선","tel":"031-664-7978","addr":"경기도 평택시 신장동 318-27번지","category":"서비스업 - 수선"},{"name":"보신닭집","tel":"031-662-4607","addr":"경기도 평택시 신장동 318-27번지","category":"음료식품 - 정육점"}]},{"lat":"37.081094212","long":"127.05555957","items":[{"name":"메디팜신광약국","tel":"031-662-2230","addr":"경기도 평택시 신장동 214-45번지","category":"소매업 - 약국"},{"name":"메디팜신광약국","tel":"031-666-2238","addr":"경기도 평택시 신장동 214-45번지","category":"약국 - 약국"},{"name":"송탄안과의원","tel":"031-664-6100","addr":"경기도 평택시 신장동 214-45번지","category":"의원 - 의원"},{"name":"송탄안과의원","tel":"031-666-2401","addr":"경기도 평택시 신장동 214-45번지","category":"서비스업 - 병원"}]},{"lat":"37.08340052","long":"127.05644965","items":[{"name":"메아리노래연습장","tel":"","addr":"경기도 평택시 신장동 190-12번지 지하1층","category":"레저업소 - 노 래 방"},{"name":"센스헤어샵","tel":"031-667-3847","addr":"경기도 평택시 신장동 190-12번지","category":"보건위생 - 미용원"}]},{"lat":"37.077626224","long":"127.05306061","items":[{"name":"면빨","tel":"031-664-2998","addr":"경기도 평택시 신장동 278-12번지","category":"일반휴게음식 - 중국식"}]},{"lat":"37.079761801","long":"127.05289332","items":[{"name":"명가부대찌개","tel":"031-665-9500","addr":"경기도 평택시 신장동 319-42번지","category":"일반휴게음식 - 일반한식"},{"name":"플라이플라이(FlyFly)","tel":"031-667-7190","addr":"경기도 평택시 신장동 319-42번지","category":"의류 - 정장"}]},{"lat":"37.078401143","long":"127.05303863","items":[{"name":"명진수입코너","tel":"031-664-1236","addr":"경기도 평택시 신장동 274-377번지","category":"신변잡화 - 기타잡화"}]},{"lat":"37.080204391","long":"127.05028451","items":[{"name":"명찰각인","tel":"","addr":"경기도 평택시 신장동 302-192번지 2층","category":"신변잡화 - 기념품점"}]},{"lat":"37.080761942","long":"127.0529727","items":[{"name":"모던비비드","tel":"031-664-3422","addr":"경기도 평택시 신장동 322-25번지","category":"의류 - 정장"}]},{"lat":"37.090038625","long":"127.06208936","items":[{"name":"모던종합상사","tel":"031-668-8007","addr":"경기도 평택시 신장동 505-3번지","category":"용역 서비스 - 종합용역"}]},{"lat":"37.080203931","long":"127.05142037","items":[{"name":"모이","tel":"031-662-3260","addr":"경기도 평택시 신장동 316-17번지 1층","category":"신변잡화 - 액세서리"}]},{"lat":"37.078293435","long":"127.05203767","items":[{"name":"모이세홍두깨손칼국수","tel":"031-668-2040","addr":"경기도 평택시 신장동 274-220번지","category":"음식점 - 한식"},{"name":"모이세홍두깨손칼국수","tel":"031-611-2221","addr":"경기도 평택시 신장동 274-220번지","category":"일반휴게음식 - 일반한식"}]},{"lat":"37.083401211","long":"127.05489761","items":[{"name":"목천골생삼겹","tel":"031-666-6712","addr":"경기도 평택시 신장동 200-15번지","category":"음식점 - 한식"},{"name":"목천골생삼겹살","tel":"031-664-2488","addr":"경기도 평택시 신장동 200-15번지","category":"일반휴게음식 - 일반한식"}]},{"lat":"37.082455258","long":"127.05453708","items":[{"name":"목천닭발","tel":"031-667-3959","addr":"경기도 평택시 신장동 203-32번지","category":"음식점 - 한식"}]},{"lat":"37.082482266","long":"127.05459333","items":[{"name":"목천닭발","tel":"031-662-5237","addr":"경기도 평택시 신장동 203-31번지","category":"일반휴게음식 - 일반한식"}]},{"lat":"37.083680514","long":"127.05495404","items":[{"name":"목천닭오리","tel":"","addr":"경기도 평택시 신장동 196-17번지","category":"음식점 - 한식"},{"name":"목천닭오리","tel":"031-665-0650","addr":"경기도 평택시 신장동 196-17번지","category":"일반휴게음식 - 일반한식"}]},{"lat":"37.072292514","long":"127.05173019","items":[{"name":"무대포","tel":"031-665-6698","addr":"경기도 평택시 신장동 263-139번지","category":"일반휴게음식 - 주점"},{"name":"착한빈대떡","tel":"031-665-9936","addr":"경기도 평택시 신장동 263-139번지","category":"일반휴게음식 - 주점"}]},{"lat":"37.080986692","long":"127.0541762","items":[{"name":"문의상실","tel":"031-662-7158","addr":"경기도 평택시 신장동 204-9번지","category":"의류 - 맞춤복점"}]},{"lat":"37.081230026","long":"127.0540639","items":[{"name":"문의상실","tel":"031-668-5456","addr":"경기도 평택시 신장동 325-9번지","category":"소매업 - 의류"},{"name":"크리스탈","tel":"031-666-4232","addr":"경기도 평택시 신장동 325-9번지","category":"회원제형태 - 기타4"}]},{"lat":"37.07842924","long":"127.05045209","items":[{"name":"물음표","tel":"031-667-9393","addr":"경기도 평택시 신장동 690-66번지","category":"일반휴게음식 - 일반한식"}]},{"lat":"37.080427624","long":"127.0551205","items":[{"name":"미(  )스킨앤바디","tel":"","addr":"경기도 평택시 신장동 219-1번지 1층","category":"보건위생 - 피부미용실"},{"name":"원네일","tel":"031-662-2071","addr":"경기도 평택시 신장동 219-1번지 1층","category":"보건위생 - 피부미용실"},{"name":"카이신tour","tel":"031-667-8050","addr":"경기도 평택시 신장동 219-1번지 우측호","category":"음료식품 - 기타음료식품"}]},{"lat":"37.080013864","long":"127.05344455","items":[{"name":"미각정","tel":"031-666-3349","addr":"경기도 평택시 신장동 322-15번지","category":"일반휴게음식 - 일반한식"}]},{"lat":"37.085070507","long":"127.04925283","items":[{"name":"미니스톱","tel":"031-611-5310","addr":"경기도 평택시 신장동 363-82번지","category":"소매업 - 편의점"}]},{"lat":"37.084428947","long":"127.05367242","items":[{"name":"미니스톱 송탄스타힐스점","tel":"031-1577-9621","addr":"경기도 평택시 신장동 329-7번지 1층","category":"유통업 영리 - 편 의 점"}]},{"lat":"37.077842573","long":"127.05283583","items":[{"name":"미니스톱 평택신장점","tel":"031-1577-9621","addr":"경기도 평택시 신장동 274-253번지","category":"유통업 영리 - 편 의 점"},{"name":"미니스톱평택신장점","tel":"031-1577-9621","addr":"경기도 평택시 신장동 274-253번지","category":"유통업 영리 - 편 의 점"}]},{"lat":"37.087441264","long":"127.04667866","items":[{"name":"미르앤베베","tel":"031-000-0000","addr":"경기도 평택시 신장동 597-32번지 윙덩하우스 E동 301호","category":"의류 - 정장"}]},{"lat":"37.080843325","long":"127.05228674","items":[{"name":"미샤화장품","tel":"031-665-6685","addr":"경기도 평택시 신장동 319-12번지","category":"보건위생 - 화장품"}]},{"lat":"37.07817595","long":"127.05286979","items":[{"name":"미소의집","tel":"031-663-3733","addr":"경기도 평택시 신장동 274-49번지","category":"일반휴게음식 - 일반한식"}]},{"lat":"37.079015107","long":"127.05000262","items":[{"name":"미스리햄버거","tel":"031-667-7171","addr":"경기도 평택시 신장동 298-88번지","category":"일반휴게음식 - 스넥"},{"name":"베이프스타","tel":"","addr":"경기도 평택시 신장동 298-88번지","category":"기타 - 기타 전문점"},{"name":"스마트리페어","tel":"","addr":"경기도 평택시 신장동 298-88번지","category":"수리서비스 - 사무·통신기기수리"},{"name":"하니문","tel":"031-663-5032","addr":"경기도 평택시 신장동 298-88번지","category":"의류 - 기타의류"}]},{"lat":"37.080312638","long":"127.04998093","items":[{"name":"미스진햄버거","tel":"031-667-0656","addr":"경기도 평택시 신장동 302-91번지","category":"일반휴게음식 - 스넥"},{"name":"썬안경","tel":"031-611-1001","addr":"경기도 평택시 신장동 302-91번지","category":"보건위생 - 안경"}]},{"lat":"37.073065992","long":"127.05509297","items":[{"name":"미스터마트송탄점","tel":"031-611-3311","addr":"경기도 평택시 신장동 산69번지","category":"소매업 - 편의점"},{"name":"미스터마트송탄점","tel":"031-664-7777","addr":"경기도 평택시 신장동 산69번지","category":"유통업 영리 - 편 의 점"}]},{"lat":"37.079844102","long":"127.0499469","items":[{"name":"미스터보스지큐양복점","tel":"031-664-5455","addr":"경기도 평택시 신장동 298-44번지","category":"의류 - 맞춤복점"},{"name":"샛별크린","tel":"02-2212-3767","addr":"경기도 평택시 신장동 298-44번지 4층","category":"용역 서비스 - 종합용역"}]},{"lat":"37.080987759","long":"127.05164579","items":[{"name":"미용타이","tel":"031-662-0064","addr":"경기도 평택시 신장동 313-14번지","category":"보건위생 - 화장품"},{"name":"제이피스바베큐(JP's BBQ) 송탄점","tel":"","addr":"경기도 평택시 신장동 313-14번지 1층","category":"일반휴게음식 - 일반한식"},{"name":"터치다운","tel":"031-665-0175","addr":"경기도 평택시 신장동 313-14번지","category":"일반휴게음식 - 일반한식"},{"name":"평화악기사","tel":"031-666-2630","addr":"경기도 평택시 신장동 313-14번지","category":"레져용품 - 음반/영상물"}]},{"lat":"37.078951346","long":"127.05170072","items":[{"name":"미진포토","tel":"031-611-5775","addr":"경기도 평택시 신장동 274-322번지","category":"서비스업 - 사진관"},{"name":"미진포토","tel":"031-666-2842","addr":"경기도 평택시 신장동 274-322번지","category":"광학제품 - 사진관"},{"name":"참좋은공인중개사사무소","tel":"031-663-3112","addr":"경기도 평택시 신장동 274-322번지","category":"용역 서비스 - 부동산 중개·임대"},{"name":"하나로의원","tel":"031-664-8007","addr":"경기도 평택시 신장동 274-322번지","category":"의원 - 의원"},{"name":"하나로의원","tel":"031-668-2433","addr":"경기도 평택시 신장동 274-322번지","category":"서비스업 - 병원"}]},{"lat":"37.076761218","long":"127.05303755","items":[{"name":"민지유통","tel":"031-663-0447","addr":"경기도 평택시 신장동 280-59번지 1층 가동","category":"음료식품 - 기타음료식품"}]},{"lat":"37.081176141","long":"127.05364775","items":[{"name":"밀라노","tel":"","addr":"경기도 평택시 신장동 325-16번지","category":"의류 - 정장"},{"name":"밀라노","tel":"031-662-7158","addr":"경기도 평택시 신장동 325-16번지","category":"소매업 - 의류"},{"name":"백채김치찌개","tel":"031-668-2391","addr":"경기도 평택시 신장동 325-16번지","category":"일반휴게음식 - 일반한식"}]},{"lat":"37.076562976","long":"127.05305991","items":[{"name":"바로크주방가구 송탄점","tel":"031-666-4556","addr":"경기도 평택시 신장동 280-11번지","category":"주방용구 - 주방용구"},{"name":"잼(JAM)인테리어","tel":"031-667-2617","addr":"경기도 평택시 신장동 280-11번지","category":"건축자재 - 인테리어전문"}]},{"lat":"37.080618154","long":"127.05206167","items":[{"name":"바이컴바이","tel":"031-664-1260","addr":"경기도 평택시 신장동 317-22번지","category":"의류 - 정장"},{"name":"바이컴바이","tel":"031-663-2292","addr":"경기도 평택시 신장동 317-22번지","category":"소매업 - 의류"},{"name":"이니스프리 송탄로데오점(신)","tel":"031-667-5450","addr":"경기도 평택시 신장동 317-22번지 1층","category":"보건위생 - 화장품"},{"name":"커피몰","tel":"031-664-9564","addr":"경기도 평택시 신장동 317-22번지","category":"일반휴게음식 - 서양음식"},{"name":"팬텀","tel":"031-662-6272","addr":"경기도 평택시 신장동 317-22번지 2층","category":"일반휴게음식 - 주점"}]},{"lat":"37.080069366","long":"127.04994704","items":[{"name":"바이킹이불","tel":"031-662-2566","addr":"경기도 평택시 신장동 302-112번지","category":"직물 - 옷감·직물"},{"name":"사계절이불","tel":"031-666-8311","addr":"경기도 평택시 신장동 302-112번지 지하1층","category":"직물 - 침구·수예점"},{"name":"사계절침구","tel":"031-664-4077","addr":"경기도 평택시 신장동 302-112번지","category":"소매업 - 이불"},{"name":"사계절침구","tel":"031-666-8311","addr":"경기도 평택시 신장동 302-112번지 지하층","category":"직물 - 침구·수예점"},{"name":"조슈아미용실","tel":"031-611-4521","addr":"경기도 평택시 신장동 302-112번지","category":"보건위생 - 미용원"}]},{"lat":"37.081175283","long":"127.05561585","items":[{"name":"박성준치과의원","tel":"031-663-2872","addr":"경기도 평택시 신장동 213-6번지 2층","category":"의원 - 치과의원"},{"name":"석봉토스트","tel":"070-8866-6638","addr":"경기도 평택시 신장동 213-6번지","category":"음식점 - 토스트"},{"name":"석봉토스트","tel":"031-667-1233","addr":"경기도 평택시 신장동 213-6번지 1층","category":"일반휴게음식 - 스넥"},{"name":"이디야송탄점","tel":"031-662-4746","addr":"경기도 평택시 신장동 213-6번지 1층","category":"일반휴게음식 - 서양음식"},{"name":"이디야송탄점","tel":"031-666-6889","addr":"경기도 평택시 신장동 213-6번지 1층","category":"음식점 - 카페"}]},{"lat":"37.077952024","long":"127.04958587","items":[{"name":"방수박사","tel":"031-665-0477","addr":"경기도 평택시 신장동 690-24","category":"용역 서비스 - 기타용역서비스"}]},{"lat":"37.073957931","long":"127.05534097","items":[{"name":"배나섬수입마트","tel":"031-663-2661","addr":"경기도 평택시 신장동 253-35번지 지층","category":"신변잡화 - 기타잡화"},{"name":"축구사랑 송탄점","tel":"031-611-1555","addr":"경기도 평택시 신장동 253-35번지 1호","category":"레져용품 - 스포츠·레져용품"},{"name":"한일 인테리어","tel":"031-663-4212","addr":"경기도 평택시 신장동 253-35번지","category":"직물 - 카페트,커튼,천막,지물"}]},{"lat":"37.081175333","long":"127.05550339","items":[{"name":"백순애뷰티헤어","tel":"031-668-8790","addr":"경기도 평택시 신장동 214-35","category":"보건위생 - 미용원"}]},{"lat":"37.080897261","long":"127.05259042","items":[{"name":"뱅뱅","tel":"031-666-9916","addr":"경기도 평택시 신장동 668-16번지","category":"소매업 - 의류"}]},{"lat":"37.082285566","long":"127.05094934","items":[{"name":"버지니아타바코","tel":"","addr":"경기도 평택시 신장동 310-3번지","category":"음료식품 - 기타음료식품"},{"name":"소사벌포크(신장점)","tel":"031-655-9929","addr":"경기도 평택시 신장동 310-3번지 1층","category":"일반휴게음식 - 일반한식"},{"name":"우리만물사","tel":"031-666-1310","addr":"경기도 평택시 신장동 310-3번지","category":"건축자재 - 목재·석재·철물"},{"name":"주미스","tel":"","addr":"경기도 평택시 신장동 310-3번지 외2필지","category":"일반휴게음식 - 주점"},{"name":"패디스","tel":"031-611-8966","addr":"경기도 평택시 신장동 310-3번지 외1필지","category":"일반휴게음식 - 주점"}]},{"lat":"37.080789943","long":"127.05062226","items":[{"name":"베가스","tel":"031-663-0255","addr":"경기도 평택시 신장동 303-11번지","category":"일반휴게음식 - 주점"}]},{"lat":"37.080537437","long":"127.05113943","items":[{"name":"베네지오","tel":"070-8947-8603","addr":"경기도 평택시 신장동 316-6번지","category":"일반휴게음식 - 주점"},{"name":"브릭스","tel":"031-6633-3009","addr":"경기도 평택시 신장동 316-6번지 외5필지1층 1층","category":"일반휴게음식 - 서양음식"},{"name":"하비씨티","tel":"031-666-2034","addr":"경기도 평택시 신장동 316-6번지","category":"서적문구 - 완구점"},{"name":"형제상회","tel":"031-666-2171","addr":"경기도 평택시 신장동 316-6번지","category":"의류 - 정장"},{"name":"홍콩안경원","tel":"","addr":"경기도 평택시 신장동 316-6번지","category":"소매업 - 안경"}]},{"lat":"37.080257949","long":"127.05153286","items":[{"name":"베니스","tel":"031-667-6322","addr":"경기도 평택시 신장동 316-16","category":"신변잡화 - 기타잡화"}]},{"lat":"37.080401457","long":"127.05311867","items":[{"name":"베베블랑(BEBE BLANC)","tel":"","addr":"경기도 평택시 신장동 322-33번지","category":"의류 - 아동의류"},{"name":"설화제과","tel":"","addr":"경기도 평택시 신장동 322-33번지 1층","category":"음료식품 - 제과점"},{"name":"설화제과","tel":"031-662-1968","addr":"경기도 평택시 신장동 322-33번지","category":"음식점 - 제과점"},{"name":"세윤양품","tel":"031-662-6688","addr":"경기도 평택시 신장동 322-33번지","category":"소매업 - 의류"},{"name":"세윤양품점","tel":"031-666-0377","addr":"경기도 평택시 신장동 322-33번지","category":"의류 - 정장"}]},{"lat":"37.084647063","long":"127.04911761","items":[{"name":"베이커리 카페 올리브","tel":"031-795-5657","addr":"경기도 평택시 신장동 산30-21번지","category":"일반휴게음식 - 서양음식"}]},{"lat":"37.080707945","long":"127.05281522","items":[{"name":"벨르(Belle)","tel":"031-000-0000","addr":"경기도 평택시 신장동 322-48번지","category":"의류 - 정장"}]},{"lat":"37.079510689","long":"127.05000293","items":[{"name":"보그패션","tel":"031-662-9831","addr":"경기도 평택시 신장동 298-57번지","category":"의류 - 정장"},{"name":"엑스쓰리모션X3 MOTION","tel":"","addr":"경기도 평택시 신장동 298-57번지 ,1,2층","category":"레져용품 - 스포츠·레져용품"}]},{"lat":"37.079869976","long":"127.05278093","items":[{"name":"보디가드","tel":"031-664-0731","addr":"경기도 평택시 신장동 319-11번지","category":"의류 - 내의판매"}]},{"lat":"37.078536804","long":"127.0518354","items":[{"name":"보루네오가구","tel":"031-664-4405","addr":"경기도 평택시 신장동 274-151번지","category":"가구 - 일반가구"}]},{"lat":"37.080789401","long":"127.05194932","items":[{"name":"보석당","tel":"031-666-2066","addr":"경기도 평택시 신장동 317-9번지","category":"신변잡화 - 시계"}]},{"lat":"37.079347904","long":"127.05147605","items":[{"name":"보신닭집","tel":"031-666-2051","addr":"경기도 평택시 신장동 300-78번지","category":"소매업 - 정육"},{"name":"아파치","tel":"031-668-1815","addr":"경기도 평택시 신장동 300-78번지","category":"일반휴게음식 - 주점"}]},{"lat":"37.07637541","long":"127.04897764","items":[{"name":"본점미락칡냉면","tel":"031-664-7700","addr":"경기도 평택시 신장동 692-54번지","category":"일반휴게음식 - 일반한식"}]},{"lat":"37.080870277","long":"127.05247794","items":[{"name":"부라더금방","tel":"031-666-5076","addr":"경기도 평택시 신장동 321-4번지","category":"신변잡화 - 시계"}]},{"lat":"37.07989781","long":"127.05083538","items":[{"name":"부르보이화방","tel":"031-662-6137","addr":"경기도 평택시 신장동 301-30번지","category":"문화.취미 - 화방·표구점"},{"name":"킹이불","tel":"031-666-5767","addr":"경기도 평택시 신장동 301-30번지","category":"직물 - 침구·수예점"}]},{"lat":"37.080429274","long":"127.05122933","items":[{"name":"부일스포츠","tel":"031-663-9422","addr":"경기도 평택시 신장동 316-4번지 1층","category":"의류 - 정장"},{"name":"선경패션","tel":"031-663-9875","addr":"경기도 평택시 신장동 316-4번지 2층","category":"의류 - 정장"}]},{"lat":"37.079707946","long":"127.05239846","items":[{"name":"부자수입코너","tel":"031-667-4756","addr":"경기도 평택시 신장동 318-15번지 1층","category":"음료식품 - 기타음료식품"},{"name":"블루밍","tel":"070-4069-1838","addr":"경기도 평택시 신장동 318-15번지 1층","category":"의류 - 정장"}]},{"lat":"37.080987726","long":"127.05172452","items":[{"name":"불독(BULLDOG)","tel":"031-664-5434","addr":"경기도 평택시 신장동 313-13번지","category":"일반휴게음식 - 서양음식"}]},{"lat":"37.078897144","long":"127.05203806","items":[{"name":"브라더 웍스(BROTHER WORKS)","tel":"031-665-7263","addr":"경기도 평택시 신장동 274-427번지 유에스하비","category":"용역 서비스 - 종합용역"},{"name":"유에스하비","tel":"031-665-7263","addr":"경기도 평택시 신장동 274-427번지 유에스하비","category":"서적문구 - 완구점"},{"name":"중부O.A시스템","tel":"031-611-5071","addr":"경기도 평택시 신장동 274-427번지","category":"사무통신 - 사무용 OA기기"}]},{"lat":"37.080924037","long":"127.05319774","items":[{"name":"브랑누아송탄점","tel":"031-662-6642","addr":"경기도 평택시 신장동 324-22번지","category":"신변잡화 - 제화"},{"name":"카페베네 송탄신장점","tel":"031-664-0101","addr":"경기도 평택시 신장동 324-22번지","category":"일반휴게음식 - 서양음식"}]},{"lat":"37.080510268","long":"127.0514768","items":[{"name":"브로스키친","tel":"031-611-3162","addr":"경기도 평택시 신장동 316-12번지 2층","category":"일반휴게음식 - 서양음식"},{"name":"패스트캐주얼다이닝","tel":"031-611-3162","addr":"경기도 평택시 신장동 316-12번지 2층","category":"일반휴게음식 - 서양음식"}]},{"lat":"37.079402373","long":"127.05047519","items":[{"name":"브이아이피양화점","tel":"031-662-3052","addr":"경기도 평택시 신장동 298-102번지","category":"신변잡화 - 신발"},{"name":"에이스 가방","tel":"","addr":"경기도 평택시 신장동 298-102번지","category":"신변잡화 - 가방"}]},{"lat":"37.079231258","long":"127.05026141","items":[{"name":"블랑뷰티","tel":"","addr":"경기도 평택시 신장동 298-127번지 2층","category":"보건위생 - 화장품"}]},{"lat":"37.080402646","long":"127.0502284","items":[{"name":"블루마운틴","tel":"031-666-7263","addr":"경기도 평택시 신장동 302-36번지 1층","category":"일반휴게음식 - 서양음식"},{"name":"송기념패","tel":"031-662-3395","addr":"경기도 평택시 신장동 302-36번지","category":"신변잡화 - 기념품점"},{"name":"송스 플랙(Song's Plaque)","tel":"031-666-2237","addr":"경기도 평택시 신장동 302-36번지","category":"신변잡화 - 기념품점"},{"name":"송스코인(SONG'S COIN)","tel":"031-662-3709","addr":"경기도 평택시 신장동 302-36번지","category":"신변잡화 - 기념품점"}]},{"lat":"37.080870838","long":"127.05111715","items":[{"name":"블루오페라","tel":"031-665-3552","addr":"경기도 평택시 신장동 314-11번지","category":"일반휴게음식 - 서양음식"}]},{"lat":"37.081931985","long":"127.0560325","items":[{"name":"비겐의료기 송탄지점","tel":"031-611-8700","addr":"경기도 평택시 신장동 211-29번지 대흥빌딩 2층","category":"보건위생 - 의료용품"},{"name":"송탄9,900냥","tel":"031-666-8205","addr":"경기도 평택시 신장동 211-29번지 외5필지","category":"의류 - 정장"}]},{"lat":"37.080401519","long":"127.05297247","items":[{"name":"비치리치","tel":"031-665-4952","addr":"경기도 평택시 신장동 322-65번지","category":"신변잡화 - 신발"}]},{"lat":"37.0793213","long":"127.05041891","items":[{"name":"빅토리이불","tel":"031-662-2240","addr":"경기도 평택시 신장동 298-107번지 1층","category":"직물 - 침구·수예점"}]},{"lat":"37.084202587","long":"127.05616904","items":[{"name":"빌보스미디어","tel":"","addr":"경기도 평택시 신장동 185-5번지","category":"용역 서비스 - 종합용역"}]},{"lat":"37.083203126","long":"127.05456008","items":[{"name":"뽀빠이상회","tel":"031-663-1537","addr":"경기도 평택시 신장동 200-7번지","category":"유통업 영리 - 슈퍼마켓"},{"name":"뽀빠이상회","tel":"031-662-5237","addr":"경기도 평택시 신장동 200-7번지","category":"소매업 - 식자재"}]},{"lat":"37.078987481","long":"127.05147582","items":[{"name":"뿌로마지오신장점","tel":"031-665-9318","addr":"경기도 평택시 신장동 274-321번지","category":"일반휴게음식 - 칵테일바"},{"name":"중앙약국","tel":"031-666-3158","addr":"경기도 평택시 신장동 274-321번지","category":"소매업 - 약국"},{"name":"중앙약국","tel":"031-666-2971","addr":"경기도 평택시 신장동 274-321번지","category":"약국 - 약국"}]},{"lat":"37.074373036","long":"127.05392435","items":[{"name":"사단법인 한국미래복지문화원","tel":"031-666-0004","addr":"경기도 평택시 신장동 262-26","category":"학원 - 기타 교육기관"}]},{"lat":"37.079924581","long":"127.05147642","items":[{"name":"사랑을 드려요 With Love","tel":"031-668-6555","addr":"경기도 평택시 신장동 316-33번지","category":"문화.취미 - 화원"},{"name":"올드리바이스","tel":"031-663-9158","addr":"경기도 평택시 신장동 316-33번지","category":"의류 - 정장"},{"name":"진흥누수탐지","tel":"031-666-5284","addr":"경기도 평택시 신장동 316-33번지","category":"용역 서비스 - 기타용역서비스"},{"name":"팬클럽","tel":"031-666-8465","addr":"경기도 평택시 신장동 316-33번지","category":"신변잡화 - 기타잡화"}]},{"lat":"37.078258152","long":"127.05017084","items":[{"name":"사랑정보통신","tel":"","addr":"경기도 평택시 신장동 690-82번지 1층 101호","category":"사무통신 - 통신기기"}]},{"lat":"37.080285228","long":"127.05092559","items":[{"name":"사스콰치","tel":"070-8181-2586","addr":"경기도 평택시 신장동 302-9번지 2층","category":"일반휴게음식 - 서양음식"},{"name":"프린스양복점","tel":"031-666-2021","addr":"경기도 평택시 신장동 302-9번지","category":"의류 - 맞춤복점"}]},{"lat":"37.079257697","long":"127.05172341","items":[{"name":"사쿠사쿠시즌2(신장점)","tel":"031-665-9559","addr":"경기도 평택시 신장동 300-156번지","category":"일반휴게음식 - 스넥"},{"name":"성신약국","tel":"","addr":"경기도 평택시 신장동 300-156번지","category":"제조업 - 약국"},{"name":"성신약국","tel":"031-666-3158","addr":"경기도 평택시 신장동 300-156번지","category":"약국 - 약국"},{"name":"인진이의 캐리커쳐","tel":"070-4209-2072","addr":"경기도 평택시 신장동 300-156번지","category":"보건위생 - 기타대인서비스"},{"name":"정문열쇠","tel":"","addr":"경기도 평택시 신장동 300-156번지","category":"소매업 - 열쇠, 도장"},{"name":"정문열쇠","tel":"031-663-8888","addr":"경기도 평택시 신장동 300-156번지 성신약국 우측상가","category":"건축자재 - 목재·석재·철물"},{"name":"플러스원","tel":"031-663-9647","addr":"경기도 평택시 신장동 300-156번지 156호","category":"일반휴게음식 - 주점"}]},{"lat":"37.078842595","long":"127.05319636","items":[{"name":"산정여관","tel":"031-666-2508","addr":"경기도 평택시 신장동 274-34번지","category":"숙박업 - 여관/기타숙박업"}]},{"lat":"37.082121096","long":"127.05628005","items":[{"name":"삼보약국","tel":"031-668-7140","addr":"경기도 평택시 신장동 212-7번지","category":"소매업 - 약국"}]},{"lat":"37.075816028","long":"127.05081032","items":[{"name":"삼성영어송신학원","tel":"031-668-3012","addr":"경기도 평택시 신장동 267-380번지 1층","category":"학원 - 보습학원"}]},{"lat":"37.075816459","long":"127.04973075","items":[{"name":"삼성철물","tel":"031-666-5945","addr":"경기도 평택시 신장동 270-8번지","category":"건축자재 - 목재·석재·철물"}]},{"lat":"37.086062422","long":"127.0472852","items":[{"name":"삼우하우징","tel":"02-1234-5678","addr":"경기도 평택시 신장동 619-28번지 머제스트 힐 1동 202호","category":"용역 서비스 - 기타용역서비스"}]},{"lat":"37.075373427","long":"127.05341898","items":[{"name":"삼호기업","tel":"031-663-3211","addr":"경기도 평택시 신장동 263-162번지","category":"전기제품 - 기타전기제품"},{"name":"카코디(car-coordi)","tel":"031-664-4654","addr":"경기도 평택시 신장동 263-162번지 1층","category":"자동차정비 유지 - 자동차부품"}]},{"lat":"37.081868961","long":"127.05591999","items":[{"name":"새골목식당","tel":"031-668-0276","addr":"경기도 평택시 신장동 211-11번지","category":"일반휴게음식 - 일반한식"}]},{"lat":"37.079923873","long":"127.05317458","items":[{"name":"새김마을","tel":"070-8771-7958","addr":"경기도 평택시 신장동 322-4번지 삼보테파트 504호","category":"문화.취미 - 화랑"}]},{"lat":"37.080041398","long":"127.05225248","items":[{"name":"새롬분식","tel":"031-666-3455","addr":"경기도 평택시 신장동 317-62번지","category":"음식점 - 분식"},{"name":"새롬분식","tel":"031-662-1426","addr":"경기도 평택시 신장동 317-62번지","category":"일반휴게음식 - 스넥"}]},{"lat":"37.078735102","long":"127.05167809","items":[{"name":"새시대미용실","tel":"031-662-2173","addr":"경기도 평택시 신장동 274-145번지","category":"보건위생 - 미용원"},{"name":"새시대미용실","tel":"031-666-9587","addr":"경기도 평택시 신장동 274-145번지","category":"서비스업 - 미용"},{"name":"훈스그릴","tel":"031-8053-2320","addr":"경기도 평택시 신장동 274-145번지","category":"음식점 - 한식"}]},{"lat":"37.089259206","long":"127.05225846","items":[{"name":"샘스그라지","tel":"031-667-7878","addr":"경기도 평택시 신장동 53-13번지","category":"자동차정비 유지 - 자동차정비"}]},{"lat":"37.079347211","long":"127.05314046","items":[{"name":"샘터분식한식","tel":"031-667-7116","addr":"경기도 평택시 신장동 294-8번지 1층","category":"일반휴게음식 - 스넥"},{"name":"창민송탄연탄불생고기신장점","tel":"031-662-9289","addr":"경기도 평택시 신장동 294-8번지","category":"일반휴게음식 - 일반한식"},{"name":"창민연탄불생고기","tel":"","addr":"경기도 평택시 신장동 294-8번지","category":"음식점 - 한식"}]},{"lat":"37.072040296","long":"127.05153886","items":[{"name":"생생호프앤치킨","tel":"070-8182-4679","addr":"경기도 평택시 신장동 261-60번지","category":"일반휴게음식 - 주점"}]},{"lat":"37.087510151","long":"127.05461924","items":[{"name":"샵모닌","tel":"031-8029-5310","addr":"경기도 평택시 신장동 124-1번지 2동 402호","category":"신변잡화 - 액세서리"},{"name":"카페오늘","tel":"031-664-0310","addr":"경기도 평택시 신장동 124-1번지 1층","category":"일반휴게음식 - 서양음식"}]},{"lat":"37.080284842","long":"127.05187027","items":[{"name":"서울수입코너","tel":"031-666-3386","addr":"경기도 평택시 신장동 317-38번지","category":"음료식품 - 기타음료식품"},{"name":"스타일","tel":"031-666-5883","addr":"경기도 평택시 신장동 317-38번지","category":"소매업 - 의류"},{"name":"스타일","tel":"031-666-9968","addr":"경기도 평택시 신장동 317-38번지","category":"의류 - 기타의류"}]},{"lat":"37.079320918","long":"127.05136358","items":[{"name":"서울여관","tel":"031-666-5889","addr":"경기도 평택시 신장동 300-7번지","category":"숙박업 - 여관/기타숙박업"}]},{"lat":"37.080789228","long":"127.05236543","items":[{"name":"서울의류타운","tel":"031-611-0246","addr":"경기도 평택시 신장동 319-1번지 1층","category":"의류 - 정장"},{"name":"스빅배이","tel":"031-663-9218","addr":"경기도 평택시 신장동 319-1번지","category":"일반휴게음식 - 서양음식"}]},{"lat":"37.073735081","long":"127.04956079","items":[{"name":"석문사우나","tel":"","addr":"경기도 평택시 신장동 267-148번지","category":"보건위생 - 사우나"}]},{"lat":"37.074291955","long":"127.05389056","items":[{"name":"석청","tel":"","addr":"경기도 평택시 신장동 262-3번지 나동 1호","category":"일반휴게음식 - 일반한식"},{"name":"클영","tel":"031-666-8906","addr":"경기도 평택시 신장동 262-3번지","category":"용역 서비스 - 종합용역"}]},{"lat":"37.075564406","long":"127.04911209","items":[{"name":"선화정육식당","tel":"031-663-6418","addr":"경기도 평택시 신장동 692-105번지 1층","category":"일반휴게음식 - 일반한식"}]},{"lat":"37.075654476","long":"127.04920211","items":[{"name":"선화정육점","tel":"031-667-9471","addr":"경기도 평택시 신장동 692-108번지","category":"음료식품 - 정육점"}]},{"lat":"37.07637288","long":"127.05508399","items":[{"name":"성모화원","tel":"031-667-7090","addr":"경기도 평택시 신장동 238-10번지 101호","category":"문화.취미 - 화원"},{"name":"성모화원","tel":"031-665-4572","addr":"경기도 평택시 신장동 238-10번지 101호","category":"도소매업 - 꽃집"}]},{"lat":"37.075237533","long":"127.05511694","items":[{"name":"성진공인중개사","tel":"031-662-8388","addr":"경기도 평택시 신장동 245-6번지 1층","category":"서비스업 - 부동산"}]},{"lat":"37.090456278","long":"127.05536359","items":[{"name":"세경 오토","tel":"031-666-9098","addr":"경기도 평택시 신장동 49-2번지","category":"자동차정비 유지 - 자동차정비"}]},{"lat":"37.083400469","long":"127.05656211","items":[{"name":"세대기업","tel":"031-611-0566","addr":"경기도 평택시 신장동 190-11번지","category":"용역 서비스 - 기타용역서비스"}]},{"lat":"37.080095484","long":"127.05219628","items":[{"name":"세모분식","tel":"031-666-0414","addr":"경기도 평택시 신장동 317-60번지","category":"일반휴게음식 - 스넥"},{"name":"세모분식","tel":"031-662-5032","addr":"경기도 평택시 신장동 317-60번지","category":"음식점 - 분식"},{"name":"와보리내","tel":"","addr":"경기도 평택시 신장동 317-60번지","category":"음식점 - 한식"},{"name":"와보리내집","tel":"031-611-5032","addr":"경기도 평택시 신장동 317-60번지 외1필지","category":"일반휴게음식 - 일반한식"}]},{"lat":"37.079897102","long":"127.05255603","items":[{"name":"세민네악세사리","tel":"031-668-1988","addr":"경기도 평택시 신장동 318-8번지","category":"신변잡화 - 기타잡화"},{"name":"세인네악세사리","tel":"","addr":"경기도 평택시 신장동 318-8번지","category":"소매업 - 잡화"},{"name":"에드블리스","tel":"031-664-0209","addr":"경기도 평택시 신장동 318-8번지","category":"소매업 - 잡화"},{"name":"에드블리스","tel":"031-611-9092","addr":"경기도 평택시 신장동 318-8번지","category":"신변잡화 - 신발"},{"name":"현정문구완구백화점","tel":"","addr":"경기도 평택시 신장동 318-8번지","category":"소매업 - 문구"}]},{"lat":"37.074320034","long":"127.05139413","items":[{"name":"세븐일레븐평택송신초교점","tel":"031-1577-0711","addr":"경기도 평택시 신장동 267-5번지 1층","category":"유통업 영리 - 편 의 점"}]},{"lat":"37.082536344","long":"127.05455963","items":[{"name":"세븐일레븐평택신장목천점","tel":"","addr":"경기도 평택시 신장동 203번지","category":"유통업 영리 - 편 의 점"}]},{"lat":"37.084872031","long":"127.04987128","items":[{"name":"세븐일레븐평택신장미도점","tel":"031-1577-0711","addr":"경기도 평택시 신장동 363-8번지 미도아파트 4동","category":"유통업 영리 - 편 의 점"}]},{"lat":"37.07829337","long":"127.05219512","items":[{"name":"세븐일레븐평택신장힐탑점","tel":"031-1577-0711","addr":"경기도 평택시 신장동 274-135번지 1층","category":"유통업 영리 - 편 의 점"},{"name":"위드미 평택신장점","tel":"02-6916-1500","addr":"경기도 평택시 신장동 274-135번지 1층","category":"유통업 영리 - 편 의 점"}]},{"lat":"37.083511657","long":"127.04930811","items":[{"name":"세탁잘하는집","tel":"","addr":"경기도 평택시 신장동 353-1번지","category":"서비스업 - 세탁소"},{"name":"오토하우스","tel":"031-662-3566","addr":"경기도 평택시 신장동 353-1번지","category":"자동차정비 유지 - 카인테리어"}]},{"lat":"37.08089719","long":"127.05275911","items":[{"name":"셀렉토 평택신장점","tel":"031-667-4566","addr":"경기도 평택시 신장동 668-20번지 2층","category":"일반휴게음식 - 일반한식"},{"name":"셀렉토 평택신장점","tel":"","addr":"경기도 평택시 신장동 668-20번지 2층","category":"음식점 - 커피"},{"name":"엣지 슈즈","tel":"031-668-1562","addr":"경기도 평택시 신장동 668-20번지","category":"신변잡화 - 신발"},{"name":"엣지슈즈","tel":"031-667-5949","addr":"경기도 평택시 신장동 668-20번지","category":"소매업 - 신발 및 잡화"},{"name":"행텐","tel":"","addr":"경기도 평택시 신장동 668-20번지","category":"소매업 - 의류"},{"name":"행텐","tel":"031-666-8286","addr":"경기도 평택시 신장동 668-20번지","category":"의류 - 정장"}]},{"lat":"37.079401712","long":"127.05209462","items":[{"name":"셀플러스 평택신장점","tel":"","addr":"경기도 평택시 신장동 295-9번지 힐사이드2 106호","category":"수리서비스 - 세탁소"}]},{"lat":"37.08128495","long":"127.05202836","items":[{"name":"소라장","tel":"","addr":"경기도 평택시 신장동 320-42번지","category":"숙박업 - 여관"},{"name":"소라장","tel":"031-666-3394","addr":"경기도 평택시 신장동 320-42번지","category":"숙박업 - 여관/기타숙박업"}]},{"lat":"37.08151062","long":"127.05103883","items":[{"name":"소사벌포크(신장점)","tel":"","addr":"경기도 평택시 신장동 305-9번지","category":"음식점 - 한식"}]},{"lat":"37.079293237","long":"127.05292675","items":[{"name":"손길","tel":"031-000-0000","addr":"경기도 평택시 신장동 274-155번지","category":"보건위생 - 미용원"}]},{"lat":"37.080014445","long":"127.05206128","items":[{"name":"손만두&도너츠","tel":"","addr":"경기도 평택시 신장동 317-64번지","category":"음식점 - 분식"},{"name":"손만두&도너츠","tel":"031-611-7282","addr":"경기도 평택시 신장동 317-64번지","category":"일반휴게음식 - 스넥"}]},{"lat":"37.080707864","long":"127.05300641","items":[{"name":"송'S 엔터테인먼트","tel":"031-667-7080","addr":"경기도 평택시 신장동 322-27번지 2층","category":"회원제형태 - 기타4"},{"name":"송쓰버거","tel":"031-667-7080","addr":"경기도 평택시 신장동 322-27번지 1층","category":"일반휴게음식 - 일반한식"},{"name":"송쓰버거","tel":"031-666-2060","addr":"경기도 평택시 신장동 322-27번지","category":"음식점 - 양식"}]},{"lat":"37.080590774","long":"127.05289387","items":[{"name":"송두학햄버거","tel":"031-667-7080","addr":"경기도 평택시 신장동 322-50번지","category":"일반휴게음식 - 서양음식"}]},{"lat":"37.082484688","long":"127.04870017","items":[{"name":"송림슈퍼","tel":"031-8029-2737","addr":"경기도 평택시 신장동 636-67번지 1층 일부","category":"유통업 영리 - 슈퍼마켓"}]},{"lat":"37.079230059","long":"127.05317412","items":[{"name":"송림식당","tel":"","addr":"경기도 평택시 신장동 294-12번지 1층","category":"음식점 - 한식"},{"name":"송림식당","tel":"031-662-9394","addr":"경기도 평택시 신장동 294-12번지 1층","category":"일반휴게음식 - 일반한식"}]},{"lat":"37.077563522","long":"127.05217215","items":[{"name":"송뷰티헤어라인","tel":"031-668-2040","addr":"경기도 평택시 신장동 274-411번지 101호","category":"보건위생 - 미용원"},{"name":"송뷰티헤어라인","tel":"031-668-5350","addr":"경기도 평택시 신장동 274-411번지","category":"서비스업 - 미용"}]},{"lat":"37.073599279","long":"127.05116877","items":[{"name":"송서 깍두기","tel":"031-611-7282","addr":"경기도 평택시 신장동 267-64번지","category":"음식점 - 한식"},{"name":"송서깍뚜기","tel":"031-611-2428","addr":"경기도 평택시 신장동 267-64번지","category":"일반휴게음식 - 일반한식"}]},{"lat":"37.076626145","long":"127.05283504","items":[{"name":"송서도배장판","tel":"031-667-1966","addr":"경기도 평택시 신장동 280-17번지","category":"직물 - 카페트,커튼,천막,지물"},{"name":"정화시스템 (송탄왕족발보쌈)","tel":"031-6650-905","addr":"경기도 평택시 신장동 280-17번지","category":"일반휴게음식 - 일반한식"}]},{"lat":"37.075175891","long":"127.05175453","items":[{"name":"송신초등학교","tel":"031-664-1035","addr":"경기도 평택시 신장동 267번지 송신초등학교","category":"학원 - 초중고교육기관"},{"name":"송신초등학교병설유치원[아이행복]","tel":"031-664-1036","addr":"경기도 평택시 신장동 267번지 송신초등학교","category":"학원 - 유치원"}]},{"lat":"37.076374538","long":"127.05117053","items":[{"name":"송일떡방아간","tel":"031-665-2067","addr":"경기도 평택시 신장동 274-174번지","category":"음료식품 - 제과점"},{"name":"송일떡방앗간","tel":"031-652-8361","addr":"경기도 평택시 신장동 274-174번지","category":"제조업 - 떡집"}]},{"lat":"37.082150732","long":"127.05013952","items":[{"name":"송탄 농수산물","tel":"031-611-4545","addr":"경기도 평택시 신장동 306-148번지","category":"음료식품 - 농·축·수산품"}]},{"lat":"37.079203391","long":"127.05230817","items":[{"name":"송탄계란","tel":"031-666-7711","addr":"경기도 평택시 신장동 295-13번지","category":"도소매업 - 계란"},{"name":"송탄계란","tel":"031-000-0000","addr":"경기도 평택시 신장동 295-13번지","category":"음료식품 - 농·축·수산품"}]},{"lat":"37.081068682","long":"127.05206196","items":[{"name":"송탄나이키","tel":"031-664-0518","addr":"경기도 평택시 신장동 320-50번지","category":"소매업 - 의류, 신발"}]},{"lat":"37.077626328","long":"127.0528132","items":[{"name":"송탄라이온스클럽","tel":"031-666-4794","addr":"경기도 평택시 신장동 277-1번지","category":"기타 - 비영리/비대상"},{"name":"스페셜당구장","tel":"031-662-7747","addr":"경기도 평택시 신장동 277-1번지 2층","category":"레저업소 - 당 구 장"}]},{"lat":"37.080563671","long":"127.05306254","items":[{"name":"송탄뱅뱅특약점","tel":"031-4-5907","addr":"경기도 평택시 신장동 322-30번지","category":"의류 - 정장"},{"name":"온드","tel":"","addr":"경기도 평택시 신장동 322-30번지 1층","category":"소매업 - 의류"},{"name":"온드(ONDE)","tel":"","addr":"경기도 평택시 신장동 322-30번지 1층","category":"의류 - 정장"}]},{"lat":"37.082013241","long":"127.05567267","items":[{"name":"송탄불교사","tel":"070-4922-1261","addr":"경기도 평택시 신장동 210-4번지 주신빌딩 1층 104호","category":"신변잡화 - 기념품점"},{"name":"중국식품점","tel":"070-4110-5699","addr":"경기도 평택시 신장동 210-4번지 주신빌딩","category":"음료식품 - 기타음료식품"},{"name":"허흑오리","tel":"031-662-9666","addr":"경기도 평택시 신장동 210-4번지","category":"일반휴게음식 - 중국식"}]},{"lat":"37.078707422","long":"127.05323001","items":[{"name":"송탄빈대떡식당","tel":"031-664-6240","addr":"경기도 평택시 신장동 274-35번지","category":"일반휴게음식 - 일반한식"}]},{"lat":"37.080536805","long":"127.05266891","items":[{"name":"송탄송쓰부대찌개","tel":"031-000-0000","addr":"경기도 평택시 신장동 321-18번지","category":"일반휴게음식 - 일반한식"},{"name":"총각BBQ&치킨","tel":"031-663-2292","addr":"경기도 평택시 신장동 321-18번지 1층","category":"일반휴게음식 - 스넥"},{"name":"총각BBQ&치킨","tel":"","addr":"경기도 평택시 신장동 321-18번지","category":"음식점 - 치킨"}]},{"lat":"37.073372417","long":"127.05494699","items":[{"name":"송탄쎈타","tel":"031-665-1313","addr":"경기도 평택시 신장동 252-8번지","category":"자동차정비 유지 - 자동차부품"}]},{"lat":"37.07525744","long":"127.05064128","items":[{"name":"송탄양복","tel":"031-000-0000","addr":"경기도 평택시 신장동 269-258번지 근호주택 A동 1층 오른쪽","category":"의류 - 맞춤복점"}]},{"lat":"37.082457235","long":"127.04977982","items":[{"name":"송탄얼음","tel":"031-662-5455","addr":"경기도 평택시 신장동 306-120번지","category":"유통업 영리 - 기타유통업"}]},{"lat":"37.080653801","long":"127.05300637","items":[{"name":"송탄에서만든부대찌개","tel":"031-667-7080","addr":"경기도 평택시 신장동 322-28번지","category":"일반휴게음식 - 서양음식"}]},{"lat":"37.07998624","long":"127.05481656","items":[{"name":"송탄영창피아노","tel":"031-662-4030","addr":"경기도 평택시 신장동 220-24번지","category":"레져용품 - 피아노대리점"}]},{"lat":"37.073373078","long":"127.05341765","items":[{"name":"송탄유리","tel":"031-668-6282","addr":"경기도 평택시 신장동 261-25번지","category":"건축자재 - 유리"}]},{"lat":"37.077571287","long":"127.05508481","items":[{"name":"송탄정형외과","tel":"031-668-7979","addr":"경기도 평택시 신장동 230-5번지","category":"서비스업 - 병원"}]},{"lat":"37.080122","long":"127.05342213","items":[{"name":"송탄제이","tel":"031-111-1111","addr":"경기도 평택시 신장동 322-14번지 1층 1호","category":"의류 - 정장"}]},{"lat":"37.081653725","long":"127.05359184","items":[{"name":"송탄중앙라이온스클럽","tel":"031-666-7855","addr":"경기도 평택시 신장동 325-2번지 구한성예식장 2층","category":"기타 - 비영리/비대상"}]},{"lat":"37.074092845","long":"127.05589208","items":[{"name":"송탄진미집","tel":"031-665-2828","addr":"경기도 평택시 신장동 252-17번지","category":"일반휴게음식 - 일반한식"},{"name":"씨유평택황금점","tel":"031-664-3544","addr":"경기도 평택시 신장동 252-17번지","category":"유통업 영리 - 편 의 점"}]},{"lat":"37.083647737","long":"127.04689016","items":[{"name":"송탄천막기업","tel":"031-666-3856","addr":"경기도 평택시 신장동 627-8번지 NOBLE TOWN A동 102호","category":"직물 - 카페트,커튼,천막,지물"}]},{"lat":"37.088429011","long":"127.05511475","items":[{"name":"송탄철물공업사","tel":"","addr":"경기도 평택시 신장동 65-2번지","category":"소매업 - 철물"}]},{"lat":"37.080401632","long":"127.05270256","items":[{"name":"송탄청년떡볶이","tel":"031-611-6466","addr":"경기도 평택시 신장동 321-28번지","category":"일반휴게음식 - 스넥"}]},{"lat":"37.079150395","long":"127.04967657","items":[{"name":"송탄체육사","tel":"031-666-5772","addr":"경기도 평택시 신장동 298-137번지","category":"레져용품 - 스포츠·레져용품"},{"name":"해피테리야끼","tel":"031-665-7942","addr":"경기도 평택시 신장동 298-137번지","category":"일반휴게음식 - 서양음식"}]},{"lat":"37.080843127","long":"127.05275908","items":[{"name":"송탄햇살","tel":"","addr":"경기도 평택시 신장동 322-37번지","category":"소매업 - 잡화"},{"name":"송탄햇살","tel":"","addr":"경기도 평택시 신장동 322-37번지 1층","category":"신변잡화 - 액세서리"}]},{"lat":"37.080652839","long":"127.05523312","items":[{"name":"송탄효자약국","tel":"031-666-5449","addr":"경기도 평택시 신장동 217-3번지","category":"약국 - 약국"},{"name":"송탄효자약국","tel":"031-666-2238","addr":"경기도 평택시 신장동 217-3번지","category":"소매업 - 약국"},{"name":"아시아마트","tel":"031-667-5959","addr":"경기도 평택시 신장동 217-3번지","category":"소매업 - 슈퍼"},{"name":"아시아마트","tel":"","addr":"경기도 평택시 신장동 217-3번지","category":"유통업 영리 - 슈퍼마켓"},{"name":"중앙의원","tel":"031-667-1233","addr":"경기도 평택시 신장동 217-3번지","category":"서비스업 - 병원"},{"name":"중앙의원","tel":"031-666-3369","addr":"경기도 평택시 신장동 217-3번지","category":"의원 - 의원"}]},{"lat":"37.07981618","long":"127.05213987","items":[{"name":"송프란시스코","tel":"","addr":"경기도 평택시 신장동 317-70번지","category":"음식점 - 커피"},{"name":"송프란시스코 (song francisco)","tel":"02-0000-0000","addr":"경기도 평택시 신장동 317-70번지 A동 1층","category":"일반휴게음식 - 서양음식"}]},{"lat":"37.080816316","long":"127.05223049","items":[{"name":"쇼박스","tel":"031-666-4117","addr":"경기도 평택시 신장동 319-13번지","category":"소매업 - 의류"},{"name":"쇼박스","tel":"031-000-0000","addr":"경기도 평택시 신장동 319-13번지","category":"의류 - 정장"},{"name":"씨에프","tel":"031-665-2936","addr":"경기도 평택시 신장동 319-13번지 외3필지","category":"일반휴게음식 - 칵테일바"}]},{"lat":"37.079203122","long":"127.05294919","items":[{"name":"수정약국","tel":"031-666-2060","addr":"경기도 평택시 신장동 274-157번지","category":"약국 - 약국"},{"name":"수정온누리약국","tel":"031-664-9283","addr":"경기도 평택시 신장동 274-157번지","category":"소매업 - 약국"},{"name":"육교상회","tel":"031-665-9845","addr":"경기도 평택시 신장동 274-157번지","category":"음료식품 - 기타음료식품"}]},{"lat":"37.08117605","long":"127.05386143","items":[{"name":"숯고개부대","tel":"031-662-1918","addr":"경기도 평택시 신장동 325-12번지","category":"음식점 - 한식"}]},{"lat":"37.081176025","long":"127.05391767","items":[{"name":"숯고개부대찌개","tel":"031-666-2768","addr":"경기도 평택시 신장동 325-11 외1필지(325-12)(1,2층)","category":"일반휴게음식 - 일반한식"}]},{"lat":"37.084176292","long":"127.05450451","items":[{"name":"쉼터","tel":"031-662-1343","addr":"경기도 평택시 신장동 170-21번지","category":"유통업 영리 - 슈퍼마켓"}]},{"lat":"37.076562881","long":"127.05328482","items":[{"name":"스마일오피스","tel":"031-668-5918","addr":"경기도 평택시 신장동 280-12번지","category":"서적문구 - 문구용품"}]},{"lat":"37.0737055","long":"127.05564442","items":[{"name":"스마트학생복","tel":"031-663-7706","addr":"경기도 평택시 신장동 252-24번지","category":"의류 - 맞춤복점"},{"name":"우리집강아지(송탄2호점)","tel":"031-662-0907","addr":"경기도 평택시 신장동 252-24번지","category":"문화.취미 - 애완동물"},{"name":"우리집강아지(송탄2호점)","tel":"031-662-0907","addr":"경기도 평택시 신장동 252-24번지","category":"문화.취미 - 애완동물"},{"name":"우리집강아지(송탄역점)","tel":"","addr":"경기도 평택시 신장동 252-24번지","category":"서비스업 - 동물위탁관리"}]},{"lat":"37.073957771","long":"127.05570082","items":[{"name":"스쿨룩스","tel":"031-665-1122","addr":"경기도 평택시 신장동 251-11번지","category":"도소매업 - 학생복"},{"name":"스쿨룩스","tel":"031-665-1318","addr":"경기도 평택시 신장동 251-11번지 1층","category":"의류 - 단체복"},{"name":"중부인쇄공사","tel":"031-667-5030","addr":"경기도 평택시 신장동 251-11번지","category":"서적문구 - 출판 및 인쇄물"}]},{"lat":"37.079428874","long":"127.05177975","items":[{"name":"스타월렛","tel":"031-611-1008","addr":"경기도 평택시 신장동 300-74","category":"광학제품 - 사진관"}]},{"lat":"37.079203804","long":"127.05130727","items":[{"name":"스테이크보스 K-55 신장점","tel":"031-665-9559","addr":"경기도 평택시 신장동 300-9번지","category":"일반휴게음식 - 일반한식"},{"name":"컬러미크레이지","tel":"","addr":"경기도 평택시 신장동 300-9번지","category":"보건위생 - 미용원"},{"name":"힐링운동요법","tel":"070-8968-6708","addr":"경기도 평택시 신장동 300-9번지 2층","category":"보건위생 - 피부미용실"}]},{"lat":"37.079203868","long":"127.05114983","items":[{"name":"스튜디오501","tel":"","addr":"경기도 평택시 신장동 300-111번지","category":"용역 서비스 - 종합용역"}]},{"lat":"37.080897778","long":"127.05134209","items":[{"name":"스파이스빌리지","tel":"031-668-4444","addr":"경기도 평택시 신장동 314-7번지 2층","category":"일반휴게음식 - 서양음식"},{"name":"타임아웃","tel":"031-665-0923","addr":"경기도 평택시 신장동 314-7번지 지하1층","category":"일반휴게음식 - 주점"},{"name":"포유25 송탄은성점","tel":"031-663-6981","addr":"경기도 평택시 신장동 314-7번지","category":"유통업 영리 - 편 의 점"}]},{"lat":"37.079483558","long":"127.05025032","items":[{"name":"스피켈","tel":"031-662-4775","addr":"경기도 평택시 신장동 298-38번지","category":"의류 - 내의판매"}]},{"lat":"37.083097725","long":"127.0478683","items":[{"name":"슬기샵","tel":"031-663-3108","addr":"경기도 평택시 신장동 636-56번지 두산빌라 1동 202호","category":"신변잡화 - 기타잡화"}]},{"lat":"37.081176669","long":"127.05239942","items":[{"name":"승리장","tel":"031-663-2121","addr":"경기도 평택시 신장동 320-40번지","category":"숙박업 - 여관/기타숙박업"},{"name":"이디야 평택송탄신장점","tel":"031-662-9994","addr":"경기도 평택시 신장동 320-40번지 2층","category":"일반휴게음식 - 서양음식"}]},{"lat":"37.087874237","long":"127.04539672","items":[{"name":"시립영아전담신장어린이집[아이행복]","tel":"031-668-6544","addr":"경기도 평택시 신장동 597-6번지","category":"학원 - 유아원"}]},{"lat":"37.074626708","long":"127.0506184","items":[{"name":"시큐리티시스템","tel":"031-664-0112","addr":"경기도 평택시 신장동 269-15번지","category":"용역 서비스 - 종합용역"},{"name":"오늘기획","tel":"031-611-2801","addr":"경기도 평택시 신장동 269-15번지","category":"용역 서비스 - 종합용역"}]},{"lat":"37.077176525","long":"127.05105858","items":[{"name":"식품편의점마트","tel":"031-665-6295","addr":"경기도 평택시 신장동 274-201번지","category":"유통업 영리 - 슈퍼마켓"}]},{"lat":"37.080123074","long":"127.05083552","items":[{"name":"신동양도자기","tel":"031-64-1133","addr":"경기도 평택시 신장동 302-11번지","category":"주방용구 - 주방용식기"}]},{"lat":"37.080923965","long":"127.05336643","items":[{"name":"신선바베큐족발구이","tel":"031-665-8892","addr":"경기도 평택시 신장동 324-24번지","category":"일반휴게음식 - 일반한식"}]},{"lat":"37.081841844","long":"127.05611116","items":[{"name":"신성약국","tel":"031-665-1177","addr":"경기도 평택시 신장동 213-3번지","category":"약국 - 약국"},{"name":"영빈루","tel":"031-666-2258","addr":"경기도 평택시 신장동 213-3번지","category":"일반휴게음식 - 중국식"},{"name":"일등약국","tel":"031-668-9630","addr":"경기도 평택시 신장동 213-3번지 1층 101호","category":"약국 - 약국"}]},{"lat":"37.079292548","long":"127.05453493","items":[{"name":"신세계","tel":"031-667-0707","addr":"경기도 평택시 신장동 223-1번지","category":"의류 - 정장"},{"name":"신세계","tel":"031-664-5018","addr":"경기도 평택시 신장동 223-1번지","category":"소매업 - 의류"}]},{"lat":"37.075238244","long":"127.05347512","items":[{"name":"신시장순대국집2호점","tel":"031-667-1030","addr":"경기도 평택시 신장동 263-3번지 1층","category":"일반휴게음식 - 일반한식"}]},{"lat":"37.081013796","long":"127.05400753","items":[{"name":"신안당안경","tel":"031-664-8007","addr":"경기도 평택시 신장동 325-23번지","category":"소매업 - 안경"},{"name":"신안당안경원","tel":"031-666-3665","addr":"경기도 평택시 신장동 325-23번지","category":"보건위생 - 안경"},{"name":"신안당안경원","tel":"","addr":"경기도 평택시 신장동 325-23번지","category":"소매업 - 안경"}]},{"lat":"37.079257798","long":"127.051476","items":[{"name":"신앙촌상회","tel":"031-666-4502","addr":"경기도 평택시 신장동 300-79번지","category":"음료식품 - 기타음료식품"}]},{"lat":"37.089816268","long":"127.05594802","items":[{"name":"신용샤링","tel":"031-666-8095","addr":"경기도 평택시 신장동 59-3번지","category":"용역 서비스 - 기타용역서비스"}]},{"lat":"37.07612141","long":"127.05317207","items":[{"name":"신장슈퍼","tel":"031-611-2428","addr":"경기도 평택시 신장동 266-4번지","category":"도소매업 - 슈퍼"},{"name":"신장슈퍼","tel":"031-667-5074","addr":"경기도 평택시 신장동 266-4번지","category":"유통업 영리 - 슈퍼마켓"},{"name":"평택샘물","tel":"031-662-1681","addr":"경기도 평택시 신장동 266-4번지","category":"유통업 영리 - 기타유통업"}]},{"lat":"37.090006532","long":"127.05356366","items":[{"name":"신장점 현대자동차","tel":"031-663-0955","addr":"경기도 평택시 신장동 52번지","category":"자동차정비 유지 - 자동차정비"},{"name":"현대자동차 신장점","tel":"031-662-2002","addr":"경기도 평택시 신장동 52번지","category":"서비스업 - 자동차정비"}]},{"lat":"37.084258894","long":"127.05091685","items":[{"name":"신장정육점","tel":"031-666-4413","addr":"경기도 평택시 신장동 348-1번지","category":"음료식품 - 정육점"}]},{"lat":"37.077680111","long":"127.05347674","items":[{"name":"신평택청소업","tel":"","addr":"경기도 평택시 신장동 287-1번지 지하1층","category":"용역 서비스 - 종합용역"}]},{"lat":"37.084761504","long":"127.0555846","items":[{"name":"신풍코리아","tel":"031-611-4100","addr":"경기도 평택시 신장동 175-5","category":"건축자재 - 기타건축자재"}]},{"lat":"37.07901504","long":"127.05017131","items":[{"name":"심가네숯불돼지갈비","tel":"031-000-0000","addr":"경기도 평택시 신장동 298-185번지 1층","category":"일반휴게음식 - 일반한식"}]},{"lat":"37.081591504","long":"127.05155621","items":[{"name":"심플맨","tel":"031-667-6987","addr":"경기도 평택시 신장동 313-46번지","category":"일반휴게음식 - 주점"},{"name":"올드체리보이바베큐","tel":"031-664-9282","addr":"경기도 평택시 신장동 313-46번지","category":"일반휴게음식 - 일반한식"},{"name":"피플즈","tel":"031-668-0631","addr":"경기도 평택시 신장동 313-46번지 2층","category":"보건위생 - 화장품"}]},{"lat":"37.079347301","long":"127.05292679","items":[{"name":"쌍용치킨","tel":"031-666-3607","addr":"경기도 평택시 신장동 274-132번지","category":"일반휴게음식 - 서양음식"}]},{"lat":"37.078843298","long":"127.05150947","items":[{"name":"써누기네","tel":"031-665-9994","addr":"경기도 평택시 신장동 274-65번지","category":"음료식품 - 기타음료식품"}]},{"lat":"37.079987879","long":"127.0509254","items":[{"name":"썬스샵","tel":"031-667-7844","addr":"경기도 평택시 신장동 301-27번지","category":"의류 - 정장"},{"name":"아이픽스(ifix)","tel":"031-891-5315","addr":"경기도 평택시 신장동 301-27번지","category":"수리서비스 - 사무·통신기기수리"},{"name":"엘리상회","tel":"031-665-4157","addr":"경기도 평택시 신장동 301-27번지 지하","category":"신변잡화 - 기타잡화"}]},{"lat":"37.082122896","long":"127.05211887","items":[{"name":"썬호텔","tel":"031-664-2114","addr":"경기도 평택시 신장동 320-3번지","category":"숙박업 - 여관/기타숙박업"},{"name":"썬호텔","tel":"031-664-2114","addr":"경기도 평택시 신장동 320-3번지","category":"숙박업 - 여관/기타숙박업"}]},{"lat":"37.081122126","long":"127.05353526","items":[{"name":"쎄이(Say)","tel":"070-4414-2019","addr":"경기도 평택시 신장동 325-19번지","category":"보건위생 - 피부미용실"}]},{"lat":"37.079230991","long":"127.05092492","items":[{"name":"씨유송탄신장점","tel":"031-667-8466","addr":"경기도 평택시 신장동 300-23번지","category":"유통업 영리 - 편 의 점"}]},{"lat":"37.080959912","long":"127.05359138","items":[{"name":"아가페펫살롱","tel":"","addr":"경기도 평택시 신장동 325-40번지 1층 2호","category":"문화.취미 - 애완동물"},{"name":"오딧세이","tel":"070-4643-1798","addr":"경기도 평택시 신장동 325-40번지 1층","category":"신변잡화 - 제화"},{"name":"표준당","tel":"031-662-3458","addr":"경기도 평택시 신장동 325-40번지","category":"신변잡화 - 시계"}]},{"lat":"37.076258687","long":"127.04789799","items":[{"name":"아띠어린이집[아이행복]","tel":"031-666-9988","addr":"경기도 평택시 신장동 693-59번지 1층","category":"학원 - 유아원"}]},{"lat":"37.080455601","long":"127.05292752","items":[{"name":"아랑주","tel":"031-665-2067","addr":"경기도 평택시 신장동 322-58번지","category":"도소매업 - 침구류"},{"name":"아랑주","tel":"031-666-3629","addr":"경기도 평택시 신장동 322-58번지","category":"직물 - 침구·수예점"}]},{"lat":"37.080591409","long":"127.05136438","items":[{"name":"아리따움 송탄로데오점","tel":"031-663-5878","addr":"경기도 평택시 신장동 316-11번지","category":"보건위생 - 화장품"},{"name":"할렘","tel":"031-664-4770","addr":"경기도 평택시 신장동 316-11번지","category":"의류 - 정장"}]},{"lat":"37.07998746","long":"127.0519488","items":[{"name":"아모르파티(Amor Fati)","tel":"031-667-5885","addr":"경기도 평택시 신장동 317-66번지","category":"신변잡화 - 액세서리"},{"name":"현가방","tel":"031-662-9025","addr":"경기도 평택시 신장동 317-66번지","category":"신변잡화 - 가방"}]},{"lat":"37.078987705","long":"127.05092477","items":[{"name":"아시아관광호텔","tel":"031-664-2367","addr":"경기도 평택시 신장동 297-61외9필지","category":"숙박업 - 여관/기타숙박업"}]},{"lat":"37.080816015","long":"127.05295025","items":[{"name":"아씨방","tel":"031-662-3550","addr":"경기도 평택시 신장동 322-24번지","category":"소매업 - 한복"},{"name":"아씨방","tel":"031-662-1968","addr":"경기도 평택시 신장동 322-24번지","category":"직물 - 옷감·직물"}]},{"lat":"37.082312675","long":"127.05075817","items":[{"name":"아이지에이 송탄밀려오네점","tel":"031-668-2976","addr":"경기도 평택시 신장동 309-3번지 103호 102호,103호","category":"유통업 영리 - 편 의 점"}]},{"lat":"37.079654125","long":"127.05181363","items":[{"name":"아이테르","tel":"031-666-4238","addr":"경기도 평택시 신장동 300-83번지","category":"신변잡화 - 기타잡화"},{"name":"아이테르","tel":"","addr":"경기도 평택시 신장동 300-83번지","category":"도소매업 - 공방"}]},{"lat":"37.080347384","long":"127.05314112","items":[{"name":"아장아장","tel":"02-1577-0000","addr":"경기도 평택시 신장동 322-34번지","category":"의류 - 아동의류"},{"name":"패션하우스","tel":"031-000-0000","addr":"경기도 평택시 신장동 322-34번지","category":"의류 - 정장"}]},{"lat":"37.072508676","long":"127.05195523","items":[{"name":"아키하나반","tel":"","addr":"경기도 평택시 신장동 263-128번지 1층","category":"건축자재 - 인테리어전문"}]},{"lat":"37.079257195","long":"127.05292673","items":[{"name":"안경세계","tel":"031-667-6003","addr":"경기도 평택시 신장동 274-156번지","category":"보건위생 - 안경"}]},{"lat":"37.078257962","long":"127.05064316","items":[{"name":"알쏭달쏭파티","tel":"","addr":"경기도 평택시 신장동 691-2번지 1층 101호","category":"서비스업 - 돌상대여"}]},{"lat":"37.076285304","long":"127.04897758","items":[{"name":"앙드리","tel":"031-665-5670","addr":"경기도 평택시 신장동 692-59번지","category":"의류 - 정장"}]},{"lat":"37.081897529","long":"127.05236615","items":[{"name":"애드플러스","tel":"031-777-0711","addr":"경기도 평택시 신장동 323-15번지 103호","category":"용역 서비스 - 종합용역"}]},{"lat":"37.081925365","long":"127.05039804","items":[{"name":"야미하우스","tel":"031-667-4777","addr":"경기도 평택시 신장동 306-77번지 1층","category":"일반휴게음식 - 서양음식"}]},{"lat":"37.077787402","long":"127.05539984","items":[{"name":"야착사","tel":"031-667-8456","addr":"경기도 평택시 신장동 229-2번지 외2필지 1층","category":"레져용품 - 스포츠·레져용품"},{"name":"한우리해장국","tel":"031-666-2370","addr":"경기도 평택시 신장동 229-2번지","category":"음식점 - 한식"},{"name":"한우리해장국","tel":"031-665-8896","addr":"경기도 평택시 신장동 229-2번지 외2필지 1층","category":"일반휴게음식 - 일반한식"},{"name":"해피애견","tel":"031-667-5030","addr":"경기도 평택시 신장동 229-2번지","category":"서비스업 - 애견샵"},{"name":"해피애견","tel":"031-665-0024","addr":"경기도 평택시 신장동 229-2번지","category":"문화.취미 - 애완동물"}]},{"lat":"37.079482568","long":"127.05266822","items":[{"name":"양지수입코너","tel":"031-666-4117","addr":"경기도 평택시 신장동 295-4번지","category":"음료식품 - 기타음료식품"},{"name":"온양상회","tel":"031-666-4117","addr":"경기도 평택시 신장동 295-4번지","category":"음료식품 - 기타음료식품"},{"name":"온양상회","tel":"","addr":"경기도 평택시 신장동 295-4번지","category":"소매업 - 식잡"}]},{"lat":"37.0762574","long":"127.05117045","items":[{"name":"어린이문구","tel":"","addr":"경기도 평택시 신장동 274-179번지","category":"소매업 - 문구"},{"name":"어린이백화점","tel":"","addr":"경기도 평택시 신장동 274-179번지","category":"소매업 - 문구"}]},{"lat":"37.080735","long":"127.05275901","items":[{"name":"어쩌다 꽃","tel":"","addr":"경기도 평택시 신장동 322-43번지 1층","category":"소매업 - 꽃집"},{"name":"어쩌다 꽃","tel":"","addr":"경기도 평택시 신장동 322-43번지","category":"문화.취미 - 화원"}]},{"lat":"37.080257698","long":"127.05214016","items":[{"name":"언와인드","tel":"","addr":"경기도 평택시 신장동 317-29번지","category":"일반휴게음식 - 일반한식"}]},{"lat":"37.077293525","long":"127.05139602","items":[{"name":"에스에프씨(SFC)","tel":"031-663-9292","addr":"경기도 평택시 신장동 274-85번지","category":"일반휴게음식 - 스넥"}]},{"lat":"37.079375328","long":"127.05050891","items":[{"name":"에스콰이어 양복점","tel":"","addr":"경기도 평택시 신장동 298-103번지 1층","category":"소매업 - 양복점"},{"name":"에스콰이어 양복점","tel":"","addr":"경기도 평택시 신장동 298-103번지 1층","category":"의류 - 맞춤복점"}]},{"lat":"37.079618681","long":"127.05034037","items":[{"name":"에이스 이불","tel":"031-662-5956","addr":"경기도 평택시 신장동 298-229번지 1층","category":"직물 - 침구·수예점"}]},{"lat":"37.080762933","long":"127.05056601","items":[{"name":"에이스부동산중개사무소","tel":"031-664-0105","addr":"경기도 평택시 신장동 302-240번지 1층","category":"용역 서비스 - 부동산 중개·임대"}]},{"lat":"37.080456642","long":"127.05039713","items":[{"name":"에이스안경","tel":"","addr":"경기도 평택시 신장동 302-34번지","category":"소매업 - 안경"},{"name":"에이스안경원","tel":"031-667-0978","addr":"경기도 평택시 신장동 302-34번지 1층","category":"보건위생 - 안경"}]},{"lat":"37.0802314","long":"127.05034076","items":[{"name":"에이큐드레스","tel":"000-000-0000","addr":"경기도 평택시 신장동 302-190번지","category":"의류 - 맞춤복점"},{"name":"에이큐양복점","tel":"031-666-4786","addr":"경기도 평택시 신장동 302-190번지 1층","category":"의류 - 맞춤복점"}]},{"lat":"37.080987782","long":"127.05158956","items":[{"name":"에페스","tel":"070-8116-3131","addr":"경기도 평택시 신장동 313-15번지","category":"일반휴게음식 - 서양음식"}]},{"lat":"37.082508661","long":"127.0560329","items":[{"name":"엔터시스템","tel":"031-611-2422","addr":"경기도 평택시 신장동 211-24번지 상가 1층","category":"사무통신 - 컴퓨터"}]},{"lat":"37.085980853","long":"127.04853357","items":[{"name":"엘리트청소박사","tel":"031-666-9269","addr":"경기도 평택시 신장동 621-20번지","category":"용역 서비스 - 종합용역"}]},{"lat":"37.073318145","long":"127.05541925","items":[{"name":"엘리트학생복","tel":"","addr":"경기도 평택시 신장동 252-45번지","category":"도소매업 - 학생복"},{"name":"엘리트학생복","tel":"031-664-8878","addr":"경기도 평택시 신장동 252-45번지","category":"의류 - 정장"}]},{"lat":"37.08012312","long":"127.05072306","items":[{"name":"엠제이숍","tel":"031-662-3769","addr":"경기도 평택시 신장동 302-139번지","category":"의류 - 정장"},{"name":"페일레스가방","tel":"031-668-6776","addr":"경기도 평택시 신장동 302-139번지","category":"신변잡화 - 가방"}]},{"lat":"37.080230596","long":"127.05230883","items":[{"name":"여성크로커다일(송탄점)","tel":"031-662-3759","addr":"경기도 평택시 신장동 317-54번지","category":"레져용품 - 스포츠·레져용품"}]},{"lat":"37.076068324","long":"127.05081047","items":[{"name":"여우비","tel":"070-7630-8202","addr":"경기도 평택시 신장동 271-18번지","category":"의류 - 정장"}]},{"lat":"37.075291779","long":"127.0547009","items":[{"name":"역전대박식당","tel":"031-666-3039","addr":"경기도 평택시 신장동 248-1번지","category":"일반휴게음식 - 일반한식"},{"name":"행복한효식이","tel":"031-667-7017","addr":"경기도 평택시 신장동 248-1번지","category":"일반휴게음식 - 일반한식"},{"name":"행복한효식이네","tel":"031-611-5445","addr":"경기도 평택시 신장동 248-1번지","category":"음식점 - 한식"}]},{"lat":"37.082508737","long":"127.0558642","items":[{"name":"연희미용실","tel":"031-665-2141","addr":"경기도 평택시 신장동 211-23번지","category":"보건위생 - 미용원"}]},{"lat":"37.079203735","long":"127.05147596","items":[{"name":"영 금 당","tel":"031-663-3138","addr":"경기도 평택시 신장동 300-80번지","category":"신변잡화 - 시계"},{"name":"영금당","tel":"031-611-2702","addr":"경기도 평택시 신장동 300-80번지","category":"소매업 - 귀금속"},{"name":"초코렛","tel":"031-662-9151","addr":"경기도 평택시 신장동 300-80번지","category":"신변잡화 - 가방"}]},{"lat":"37.080293392","long":"127.0529724","items":[{"name":"영민전기","tel":"031-668-4471","addr":"경기도 평택시 신장동 322-67번지","category":"서비스업 - 전기수리"}]},{"lat":"37.080230232","long":"127.05317479","items":[{"name":"영민전기","tel":"031-666-2051","addr":"경기도 평택시 신장동 322-36번지","category":"수리서비스 - 기타수리서비스"}]},{"lat":"37.080429633","long":"127.05034088","items":[{"name":"영샵","tel":"031-611-3781","addr":"경기도 평택시 신장동 302-35번지","category":"신변잡화 - 액세서리"},{"name":"옴니텔레콤","tel":"031-611-8252","addr":"경기도 평택시 신장동 302-35번지","category":"소매업 - 전자기기"},{"name":"핑크(PINK)","tel":"031-666-3802","addr":"경기도 평택시 신장동 302-35번지","category":"신변잡화 - 기타잡화"}]},{"lat":"37.080285342","long":"127.05064444","items":[{"name":"영샵(YOUNG SHOP)","tel":"031-611-1982","addr":"경기도 평택시 신장동 302-131번지","category":"의류 - 정장"}]},{"lat":"37.089209053","long":"127.06328095","items":[{"name":"영진석유(동방주유소)","tel":"","addr":"경기도 평택시 신장동 75-1번지","category":"자동차정비 유지 - 세차장"}]},{"lat":"37.082258319","long":"127.05147791","items":[{"name":"영천세탁소","tel":"031-666-2768","addr":"경기도 평택시 신장동 345-2번지","category":"서비스업 - 세탁"}]},{"lat":"37.073012028","long":"127.05486803","items":[{"name":"옛날통닭","tel":"031-663-9255","addr":"경기도 평택시 신장동 252-60번지 102호","category":"일반휴게음식 - 스넥"}]},{"lat":"37.07889689","long":"127.05264534","items":[{"name":"옛터삼겹살","tel":"031-611-5775","addr":"경기도 평택시 신장동 274-331번지 1층","category":"일반휴게음식 - 일반한식"},{"name":"옛터삼겹살","tel":"031-663-3138","addr":"경기도 평택시 신장동 274-331번지 1층","category":"음식점 - 한식"}]},{"lat":"37.080402842","long":"127.04973357","items":[{"name":"오로라칼라현상소","tel":"031-665-8954","addr":"경기도 평택시 신장동 302-85번지","category":"광학제품 - 사진관"}]},{"lat":"37.080122455","long":"127.0523425","items":[{"name":"오브스튜디오","tel":"","addr":"경기도 평택시 신장동 317-55번지 2층","category":"광학제품 - 사진관"},{"name":"오브커피","tel":"031-665-8655","addr":"경기도 평택시 신장동 317-55번지","category":"음식점 - 카페"},{"name":"오브커피","tel":"02-1111-1111","addr":"경기도 평택시 신장동 317-55번지 1층","category":"일반휴게음식 - 서양음식"}]},{"lat":"37.079708235","long":"127.0517012","items":[{"name":"오산1바바샵(OSAN 1 BARBER SHOP)","tel":"031-000-0000","addr":"경기도 평택시 신장동 317-75번지","category":"보건위생 - 이용원"},{"name":"원앙이불","tel":"031-665-3570","addr":"경기도 평택시 신장동 317-75번지","category":"직물 - 침구·수예점"},{"name":"원앙이불","tel":"","addr":"경기도 평택시 신장동 317-75번지","category":"소매업 - 침구류"},{"name":"코지썸데이","tel":"031-684-1330","addr":"경기도 평택시 신장동 317-75번지 1층","category":"일반휴게음식 - 서양음식"}]},{"lat":"37.079646078","long":"127.04941821","items":[{"name":"오산가방","tel":"031-662-2329","addr":"경기도 평택시 신장동 298-156번지","category":"신변잡화 - 가방"},{"name":"오잔가방","tel":"","addr":"경기도 평택시 신장동 298-156번지","category":"소매업 - 잡화"}]},{"lat":"37.080176368","long":"127.05270241","items":[{"name":"오산만물","tel":"031-666-3552","addr":"경기도 평택시 신장동 319-31번지","category":"의류 - 정장"}]},{"lat":"37.080842774","long":"127.0535913","items":[{"name":"오산스타일","tel":"031-663-0505","addr":"경기도 평택시 신장동 325-41번지","category":"일반휴게음식 - 일반한식"}]},{"lat":"37.087313075","long":"127.05189728","items":[{"name":"오산자동차크리닉","tel":"031-667-1544","addr":"경기도 평택시 신장동 397-13번지","category":"서비스업 - 세차장"},{"name":"오산자동차클리닉","tel":"","addr":"경기도 평택시 신장동 397-13번지","category":"자동차정비 유지 - 세차장"},{"name":"오산자동차클리닉","tel":"031-665-9929","addr":"경기도 평택시 신장동 397-13번지","category":"서비스업 - 세차"}]},{"lat":"37.079483491","long":"127.05041901","items":[{"name":"오산화방","tel":"031-666-5096","addr":"경기도 평택시 신장동 298-28번지","category":"문화.취미 - 화랑"}]},{"lat":"37.086232975","long":"127.0489836","items":[{"name":"오성","tel":"070-4067-7805","addr":"경기도 평택시 신장동 363-81번지 남산주택 B01호","category":"수리서비스 - 세탁소"}]},{"lat":"37.081598729","long":"127.05572861","items":[{"name":"오제호내과의원","tel":"031-662-8289","addr":"경기도 평택시 신장동 214-11번지","category":"서비스업 - 병원"}]},{"lat":"37.078869449","long":"127.05361248","items":[{"name":"오현상사","tel":"031-666-2224","addr":"경기도 평택시 신장동 293-15번지","category":"건축자재 - 기타건축자재"}]},{"lat":"37.082015371","long":"127.05064552","items":[{"name":"오호라","tel":"031-961-1316","addr":"경기도 평택시 신장동 310-25번지 1층 102호","category":"일반휴게음식 - 일반한식"},{"name":"타이우던","tel":"031-662-3656","addr":"경기도 평택시 신장동 310-25번지 1층","category":"일반휴게음식 - 일반한식"}]},{"lat":"37.089203994","long":"127.05494657","items":[{"name":"온누리 식자재마트","tel":"","addr":"경기도 평택시 신장동 56번지","category":"도소매업 - 슈퍼"}]},{"lat":"37.080708362","long":"127.05181431","items":[{"name":"올리브영 평택신장점","tel":"031-667-7498","addr":"경기도 평택시 신장동 314-14번지 1층","category":"유통업 영리 - 편 의 점"},{"name":"지투(G2)","tel":"031-668-5911","addr":"경기도 평택시 신장동 314-14번지 2층","category":"일반휴게음식 - 일반한식"}]},{"lat":"37.081400766","long":"127.05512117","items":[{"name":"올림픽체육사","tel":"031-666-3380","addr":"경기도 평택시 신장동 215-8번지","category":"레져용품 - 스포츠·레져용품"}]},{"lat":"37.079402418","long":"127.05036273","items":[{"name":"와이드헉(WildHawk)","tel":"070-7098-4221","addr":"경기도 평택시 신장동 298-105번지","category":"신변잡화 - 가방"}]},{"lat":"37.079843687","long":"127.05098154","items":[{"name":"와일드스타일","tel":"031-611-1690","addr":"경기도 평택시 신장동 300-24번지","category":"의류 - 정장"},{"name":"한국가구","tel":"031-666-3461","addr":"경기도 평택시 신장동 300-24번지","category":"가구 - 일반가구"},{"name":"호산나상회","tel":"031-665-4157","addr":"경기도 평택시 신장동 300-24번지","category":"신변잡화 - 가방"},{"name":"호산나상회","tel":"031-665-3570","addr":"경기도 평택시 신장동 300-24번지","category":"소매업 - 잡화"}]},{"lat":"37.082652643","long":"127.05644912","items":[{"name":"왕기봉(주)","tel":"031-668-8328","addr":"경기도 평택시 신장동 212-10번지","category":"일반휴게음식 - 중국식"}]},{"lat":"37.081231461","long":"127.05062254","items":[{"name":"욜로(YOLO)","tel":"031-000-0000","addr":"경기도 평택시 신장동 304-9번지 ,2층","category":"일반휴게음식 - 주점"}]},{"lat":"37.0787069","long":"127.05444457","items":[{"name":"용인대 바다의 해적","tel":"031-664-7662","addr":"경기도 평택시 신장동 227-18번지 청솔아다모 303호","category":"레저업소 - 헬스클럽"}]},{"lat":"37.090537348","long":"127.05541988","items":[{"name":"우루루","tel":"","addr":"경기도 평택시 신장동 49-12번지 1층","category":"일반휴게음식 - 서양음식"}]},{"lat":"37.082257065","long":"127.05444697","items":[{"name":"우리집반찬김밥(신장점)","tel":"031-611-1313","addr":"경기도 평택시 신장동 203-34번지","category":"음료식품 - 기타음료식품"},{"name":"이현희헤어칼라","tel":"031-667-9336","addr":"경기도 평택시 신장동 203-34번지","category":"보건위생 - 미용원"}]},{"lat":"37.085899457","long":"127.04930957","items":[{"name":"우성시스템","tel":"","addr":"경기도 평택시 신장동 363-11번지","category":"소매업 - 생수,정수기"},{"name":"우성시스템","tel":"031-339-3435","addr":"경기도 평택시 신장동 363-11번지","category":"유통업 영리 - 기타유통업"}]},{"lat":"37.080041626","long":"127.05170142","items":[{"name":"워싱톤공예","tel":"031-662-0461","addr":"경기도 평택시 신장동 316-58번지","category":"문화.취미 - 민예·공예품"}]},{"lat":"37.074147964","long":"127.05347439","items":[{"name":"원공인중개사사무소","tel":"031-668-1001","addr":"경기도 평택시 신장동 261번지","category":"서비스업 - 부동산"},{"name":"헬로염색","tel":"031-667-8428","addr":"경기도 평택시 신장동 261번지 2층","category":"보건위생 - 미용원"}]},{"lat":"37.083959648","long":"127.05539285","items":[{"name":"원푸드","tel":"031-0000-0000","addr":"경기도 평택시 신장동 196-23번지","category":"음료식품 - 기타음료식품"}]},{"lat":"37.080285072","long":"127.05130796","items":[{"name":"월드","tel":"031-666-0284","addr":"경기도 평택시 신장동 316-19","category":"직물 - 침구·수예점"},{"name":"월드필리","tel":"","addr":"경기도 평택시 신장동 316-19번지","category":"음식점 - 한식"}]},{"lat":"37.079653779","long":"127.05264584","items":[{"name":"웰메이드(인디안)","tel":"031-666-2685","addr":"경기도 평택시 신장동 295-2번지 1층","category":"레져용품 - 스포츠·레져용품"},{"name":"웰메이드송탄점","tel":"070-7620-0045","addr":"경기도 평택시 신장동 295-2번지","category":"소매업 - 의류"}]},{"lat":"37.078987909","long":"127.0504187","items":[{"name":"윙스앤띵스 (Wings-N-Thinhs)","tel":"031-000-0000","addr":"경기도 평택시 신장동 298-121번지","category":"일반휴게음식 - 일반한식"}]},{"lat":"37.075763606","long":"127.04655949","items":[{"name":"유라슈퍼","tel":"031-666-8549","addr":"경기도 평택시 신장동 693-23번지","category":"소매업 - 슈퍼"},{"name":"유라슈퍼","tel":"031-666-5374","addr":"경기도 평택시 신장동 693-23번지","category":"유통업 영리 - 슈퍼마켓"}]},{"lat":"37.08964597","long":"127.0538896","items":[{"name":"유림식당","tel":"","addr":"경기도 평택시 신장동 52-5번지","category":"음식점 - 한식"},{"name":"유림식당","tel":"031-662-7775","addr":"경기도 평택시 신장동 52-5번지","category":"일반휴게음식 - 일반한식"},{"name":"유림풍천민물장어","tel":"031-666-8878","addr":"경기도 평택시 신장동 52-5번지 3동 1층","category":"일반휴게음식 - 일반한식"}]},{"lat":"37.079204208","long":"127.05030638","items":[{"name":"유에스에이USA네일","tel":"031-664-1674","addr":"경기도 평택시 신장동 298-128번지 1층","category":"보건위생 - 피부미용실"},{"name":"타일랜드","tel":"031-668-7828","addr":"경기도 평택시 신장동 298-128번지","category":"일반휴게음식 - 서양음식"}]},{"lat":"37.079681912","long":"127.0499468","items":[{"name":"유용하고,실용적인 (U P Place)","tel":"031-663-0244","addr":"경기도 평택시 신장동 298-53번지 2층","category":"보건위생 - 기타대인서비스"}]},{"lat":"37.079654078","long":"127.05192609","items":[{"name":"은아네","tel":"031-611-8381","addr":"경기도 평택시 신장동 300-81번지","category":"음료식품 - 기타음료식품"}]},{"lat":"37.078229756","long":"127.0534771","items":[{"name":"음악당","tel":"031-668-0880","addr":"경기도 평택시 신장동 289-1번지 2층","category":"일반휴게음식 - 서양음식"}]},{"lat":"37.079455361","long":"127.05308431","items":[{"name":"이대","tel":"031-663-1381","addr":"경기도 평택시 신장동 294-7번지","category":"의류 - 정장"},{"name":"이대","tel":"","addr":"경기도 평택시 신장동 294-7번지","category":"소매업 - 의류"},{"name":"이찌펫","tel":"","addr":"경기도 평택시 신장동 294-7번지","category":"문화.취미 - 애완동물"},{"name":"휘성아울렛","tel":"","addr":"경기도 평택시 신장동 294-7번지","category":"소매업 - 의류"}]},{"lat":"37.082646165","long":"127.05051096","items":[{"name":"이바뷰티(EVA BEAUTY)","tel":"","addr":"경기도 평택시 신장동 309-22번지 1층","category":"보건위생 - 피부미용실"}]},{"lat":"37.079898143","long":"127.05000317","items":[{"name":"이뷰티샵","tel":"031-666-2700","addr":"경기도 평택시 신장동 302-171번지","category":"보건위생 - 미용원"}]},{"lat":"37.080347545","long":"127.05275875","items":[{"name":"이세미헤어샵&아로마피부관리","tel":"031-666-3306","addr":"경기도 평택시 신장동 321-29번지 1,2층","category":"보건위생 - 미용원"}]},{"lat":"37.080762711","long":"127.05111708","items":[{"name":"이스터베이","tel":"031-611-7151","addr":"경기도 평택시 신장동 315-18번지","category":"신변잡화 - 기타잡화"},{"name":"홍스셔츠","tel":"031-662-4338","addr":"경기도 평택시 신장동 315-18번지","category":"의류 - 와이셔츠·타이"}]},{"lat":"37.079348618","long":"127.04969918","items":[{"name":"이스터베이","tel":"031-666-6678","addr":"경기도 평택시 신장동 298-243번지","category":"신변잡화 - 기타잡화"}]},{"lat":"37.081679789","long":"127.05580739","items":[{"name":"이종광이비인후과의원","tel":"031-662-8787","addr":"경기도 평택시 신장동 214-18번지","category":"의원 - 의원"}]},{"lat":"37.08153791","long":"127.0503978","items":[{"name":"이즈미르","tel":"031-616-9353","addr":"경기도 평택시 신장동 306-85번지","category":"일반휴게음식 - 서양음식"}]},{"lat":"37.079654332","long":"127.05130756","items":[{"name":"인사동바실","tel":"031-666-0017","addr":"경기도 평택시 신장동 300-46번지","category":"소매업 - 의류"}]},{"lat":"37.079591258","long":"127.05130752","items":[{"name":"인피니티","tel":"031-663-3234","addr":"경기도 평택시 신장동 300-47번지","category":"의류 - 정장"}]},{"lat":"37.077787541","long":"127.05508496","items":[{"name":"인화루","tel":"031-664-2370","addr":"경기도 평택시 신장동 229-3번지","category":"일반휴게음식 - 서양음식"},{"name":"인화루","tel":"031-663-0111","addr":"경기도 평택시 신장동 229-3번지","category":"음식점 - 중식"}]},{"lat":"37.0816465","long":"127.04922825","items":[{"name":"일레븐타이거","tel":"031-666-2830","addr":"경기도 평택시 신장동 306-42번지","category":"일반휴게음식 - 칵테일바"},{"name":"일레븐타이거","tel":"031-668-5333","addr":"경기도 평택시 신장동 306-42번지","category":"일반휴게음식 - 일반한식"}]},{"lat":"37.084150653","long":"127.05119795","items":[{"name":"임대사업","tel":"","addr":"경기도 평택시 신장동 344-2번지","category":"서비스업 - 임대"}]},{"lat":"37.080923754","long":"127.05386126","items":[{"name":"임마누엘","tel":"031-667-0326","addr":"경기도 평택시 신장동 325-25번지 2층","category":"보건위생 - 화장품"},{"name":"임마누엘","tel":"031-611-1008","addr":"경기도 평택시 신장동 325-25번지 2층","category":"소매업 - 화장품"}]},{"lat":"37.085925068","long":"127.0528074","items":[{"name":"자연요법","tel":"031-376-9497","addr":"경기도 평택시 신장동 335-38번지","category":"보건위생 - 피부미용실"}]},{"lat":"37.083015252","long":"127.05136593","items":[{"name":"자은종 문수암","tel":"031-252-3474","addr":"경기도 평택시 신장동 345-22번지 1층 101호","category":"기타 - 비영리/대상"}]},{"lat":"37.081013142","long":"127.05550328","items":[{"name":"자혜한의원","tel":"031-668-7979","addr":"경기도 평택시 신장동 214-14번지","category":"의원 - 한의원"},{"name":"자혜한의원","tel":"031-667-3399","addr":"경기도 평택시 신장동 214-14번지","category":"서비스업 - 병원"}]},{"lat":"37.083509303","long":"127.05497641","items":[{"name":"작은빵집","tel":"031-691-1316","addr":"경기도 평택시 신장동 199-8번지","category":"음료식품 - 제과점"}]},{"lat":"37.078896715","long":"127.05306145","items":[{"name":"잔스버거코리아","tel":"031-665-3833","addr":"경기도 평택시 신장동 274-9번지 1층","category":"음료식품 - 제과점"}]},{"lat":"37.088565148","long":"127.05284287","items":[{"name":"장금이네","tel":"031-433-3441","addr":"경기도 평택시 신장동 406-1번지","category":"일반휴게음식 - 일반한식"}]},{"lat":"37.079871044","long":"127.05017184","items":[{"name":"장미여관","tel":"031-666-4724","addr":"경기도 평택시 신장동 302-174번지","category":"숙박업 - 여관/기타숙박업"},{"name":"크러쉬부티크","tel":"070-4129-6938","addr":"경기도 평택시 신장동 302-174번지","category":"의류 - 정장"}]},{"lat":"37.081898097","long":"127.05098284","items":[{"name":"장터곱창","tel":"031-663-0955","addr":"경기도 평택시 신장동 310-21번지","category":"음식점 - 한식"},{"name":"장터곱창","tel":"031-667-3959","addr":"경기도 평택시 신장동 310-21번지","category":"일반휴게음식 - 일반한식"}]},{"lat":"37.08145467","long":"127.05548109","items":[{"name":"재우산부인과부설 재우헬스케어","tel":"031-662-0002","addr":"경기도 평택시 신장동 214-55번지 3층","category":"건강식품 - 기타건강식품"},{"name":"파리바게뜨송탄송북점","tel":"031-668-0046","addr":"경기도 평택시 신장동 214-55번지 1층","category":"음료식품 - 제과점"},{"name":"파리바게트 송북점","tel":"","addr":"경기도 평택시 신장동 214-55번지","category":"음식점 - 제과점"},{"name":"해맑은치과의원","tel":"031-663-2824","addr":"경기도 평택시 신장동 214-55번지","category":"의원 - 치과의원"}]},{"lat":"37.078924943","long":"127.05014876","items":[{"name":"잭바이스클","tel":"031-663-7163","addr":"경기도 평택시 신장동 298-153번지","category":"레져용품 - 스포츠·레져용품"}]},{"lat":"37.07895978","long":"127.05308398","items":[{"name":"전주해장국","tel":"031-665-5388","addr":"경기도 평택시 신장동 274-30번지","category":"일반휴게음식 - 일반한식"},{"name":"편한머리","tel":"070-5043-1213","addr":"경기도 평택시 신장동 274-30번지","category":"보건위생 - 미용원"}]},{"lat":"37.083733937","long":"127.05639365","items":[{"name":"전화기위생소득대리점","tel":"031-663-5903","addr":"경기도 평택시 신장동 190-17번지","category":"용역 서비스 - 기타용역서비스"}]},{"lat":"37.080123372","long":"127.05009327","items":[{"name":"정마르꼬샵","tel":"031-611-4850","addr":"경기도 평택시 신장동 302-199번지 2층","category":"의류 - 정장"}]},{"lat":"37.07637446","long":"127.0513617","items":[{"name":"정미용실","tel":"031-666-9587","addr":"경기도 평택시 신장동 274-421번지","category":"보건위생 - 미용원"}]},{"lat":"37.080149914","long":"127.05130787","items":[{"name":"정운갈비","tel":"031-664-4279","addr":"경기도 평택시 신장동 316-18번지 1층","category":"일반휴게음식 - 일반한식"}]},{"lat":"37.076653774","long":"127.05139562","items":[{"name":"정유수프로헤어","tel":"031-667-7080","addr":"경기도 평택시 신장동 274-229번지","category":"서비스업 - 미용"},{"name":"정유수프로헤어","tel":"031-666-9587","addr":"경기도 평택시 신장동 274-229번지","category":"보건위생 - 미용원"}]},{"lat":"37.083484978","long":"127.04839712","items":[{"name":"제이","tel":"070-8666-4178","addr":"경기도 평택시 신장동 635-1번지 201호","category":"신변잡화 - 액세서리"}]},{"lat":"37.082429025","long":"127.05267015","items":[{"name":"제이","tel":"070-5714-3037","addr":"경기도 평택시 신장동 324-1번지 리치케슬 202호","category":"음료식품 - 기타음료식품"}]},{"lat":"37.085458101","long":"127.04889316","items":[{"name":"제이와이디자인컴퍼니","tel":"050-6410-0220","addr":"경기도 평택시 신장동 621-3번지","category":"신변잡화 - 기타잡화"}]},{"lat":"37.074258266","long":"127.04808798","items":[{"name":"제일어린이집[아이행복]","tel":"031-664-0233","addr":"경기도 평택시 신장동 267-111번지 1층","category":"학원 - 유아원"}]},{"lat":"37.082150238","long":"127.05136538","items":[{"name":"제일오토바이","tel":"031-667-1544","addr":"경기도 평택시 신장동 345-3번지","category":"자동차판매 - 이륜차판매"},{"name":"제일오토바이","tel":"","addr":"경기도 평택시 신장동 345-3번지","category":"소매업 - 오토바이"}]},{"lat":"37.081790098","long":"127.05066787","items":[{"name":"제임스텔러","tel":"","addr":"경기도 평택시 신장동 310-28번지","category":"소매업 - 잡화"},{"name":"제임스텔러","tel":"031-664-7675","addr":"경기도 평택시 신장동 310-28번지","category":"의류 - 맞춤복점"}]},{"lat":"37.073705769","long":"127.05503718","items":[{"name":"젠모텔","tel":"031-611-8141","addr":"경기도 평택시 신장동 253-39번지","category":"숙박업 - 여관/기타숙박업"}]},{"lat":"37.07920317","long":"127.05283673","items":[{"name":"조은수입코너","tel":"031-656-5335","addr":"경기도 평택시 신장동 274-160번지","category":"소매업 - 수입잡화"},{"name":"조은수입코너","tel":"031-664-0066","addr":"경기도 평택시 신장동 274-160번지","category":"음료식품 - 기타음료식품"},{"name":"칠공육(706)","tel":"","addr":"경기도 평택시 신장동 274-160번지 1층","category":"일반휴게음식 - 서양음식"}]},{"lat":"37.080735748","long":"127.05094837","items":[{"name":"조이펫그루밍(Joy Pet Grooming)","tel":"031-666-9003","addr":"경기도 평택시 신장동 301-32번지","category":"문화.취미 - 애완동물"},{"name":"지큐샵","tel":"031-662-2204","addr":"경기도 평택시 신장동 301-32번지","category":"의류 - 정장"},{"name":"크리스탈라운지","tel":"","addr":"경기도 평택시 신장동 301-32번지 3층","category":"일반휴게음식 - 주점"},{"name":"크리스탈샵","tel":"031-666-5507","addr":"경기도 평택시 신장동 301-32번지 1층","category":"신변잡화 - 액세서리"},{"name":"패밀리샵","tel":"031-666-5507","addr":"경기도 평택시 신장동 301-32번지","category":"신변잡화 - 액세서리"}]},{"lat":"37.082285488","long":"127.05114053","items":[{"name":"주마등포장마차","tel":"031-668-6268","addr":"경기도 평택시 신장동 310-51번지 1층","category":"일반휴게음식 - 일반한식"}]},{"lat":"37.074093756","long":"127.05381171","items":[{"name":"주식회사 ING레져","tel":"031-668-8114","addr":"경기도 평택시 신장동 261-93","category":"레져용품 - 스포츠·레져용품"}]},{"lat":"37.079456798","long":"127.0495643","items":[{"name":"주식회사 란나레스토랑","tel":"031-666-3435","addr":"경기도 평택시 신장동 298-74번지","category":"일반휴게음식 - 서양음식"}]},{"lat":"37.074372258","long":"127.05570111","items":[{"name":"주식회사 써치아이","tel":"02-1111-1111","addr":"경기도 평택시 신장동 251-6번지 2층","category":"신변잡화 - 기타잡화"},{"name":"중국마트","tel":"","addr":"경기도 평택시 신장동 251-6번지","category":"유통업 영리 - 슈퍼마켓"}]},{"lat":"37.078562594","long":"127.05475936","items":[{"name":"주식회사 에이치앤씨개발","tel":"032-517-1550","addr":"경기도 평택시 신장동 227-1번지 202호","category":"건축자재 - 부동산 분양"}]},{"lat":"37.078536482","long":"127.05261137","items":[{"name":"주식회사 제이피에셋","tel":"031-662-2900","addr":"경기도 평택시 신장동 274-187번지 힐탑더테라스 1층 102호","category":"용역 서비스 - 부동산 중개·임대"}]},{"lat":"37.083673737","long":"127.04958938","items":[{"name":"주주미용실","tel":"","addr":"경기도 평택시 신장동 351-4번지","category":"서비스업 - 미용업"}]},{"lat":"37.07887096","long":"127.0499463","items":[{"name":"준","tel":"031-668-1622","addr":"경기도 평택시 신장동 298-90번지","category":"의류 - 정장"},{"name":"행복한날","tel":"031-663-9417","addr":"경기도 평택시 신장동 298-90번지 1층","category":"일반휴게음식 - 서양음식"}]},{"lat":"37.073849804","long":"127.0553409","items":[{"name":"중부인쇄공사","tel":"031-666-3871","addr":"경기도 평택시 신장동 253-36번지","category":"서비스업 - 인쇄"}]},{"lat":"37.080400799","long":"127.05464815","items":[{"name":"중앙목욕탕","tel":"031-666-4500","addr":"경기도 평택시 신장동 206-5번지","category":"보건위생 - 사우나"}]},{"lat":"37.079843165","long":"127.05225235","items":[{"name":"중앙상사","tel":"031-665-7732","addr":"경기도 평택시 신장동 318-22번지","category":"도소매업 - 의류(내의)"}]},{"lat":"37.080150381","long":"127.05014952","items":[{"name":"중앙상사","tel":"031-666-2306","addr":"경기도 평택시 신장동 302-197번지","category":"문화.취미 - 민예·공예품"}]},{"lat":"37.076480993","long":"127.0551178","items":[{"name":"중앙유리","tel":"031-666-3545","addr":"경기도 평택시 신장동 238-9번지","category":"건축자재 - 유리"}]},{"lat":"37.078932101","long":"127.05459092","items":[{"name":"중원에어컨","tel":"","addr":"경기도 평택시 신장동 224-6번지 지층","category":"용역 서비스 - 기타용역서비스"}]},{"lat":"37.080204404","long":"127.05025077","items":[{"name":"지영사","tel":"","addr":"경기도 평택시 신장동 302-193번지","category":"소매업 - 액자"},{"name":"지영사","tel":"031-662-3130","addr":"경기도 평택시 신장동 302-193번지","category":"서적문구 - 출판 및 인쇄물"}]},{"lat":"37.081537565","long":"127.05125252","items":[{"name":"지원네일(G1 nail)","tel":"031-663-4320","addr":"경기도 평택시 신장동 311-6번지","category":"보건위생 - 피부미용실"}]},{"lat":"37.080762402","long":"127.05187057","items":[{"name":"지큐사","tel":"031-663-9844","addr":"경기도 평택시 신장동 317-7번지","category":"신변잡화 - 귀금속"}]},{"lat":"37.089200548","long":"127.06227992","items":[{"name":"진태옥설렁탕","tel":"031-666-1500","addr":"경기도 평택시 신장동 505번지 1층","category":"일반휴게음식 - 일반한식"}]},{"lat":"37.078816335","long":"127.05134076","items":[{"name":"찜했소","tel":"","addr":"경기도 평택시 신장동 274-98번지 1,2층","category":"일반휴게음식 - 일반한식"}]},{"lat":"37.088367347","long":"127.05180798","items":[{"name":"차사랑카클리닉","tel":"031-662-0917","addr":"경기도 평택시 신장동 389-7번지","category":"자동차정비 유지 - 자동차정비"}]},{"lat":"37.082481579","long":"127.05614534","items":[{"name":"착한밥상","tel":"031-662-3801","addr":"경기도 평택시 신장동 212-4번지","category":"일반휴게음식 - 일반한식"}]},{"lat":"37.07250887","long":"127.05148294","items":[{"name":"참행복한집 협동조합","tel":"031-684-4785","addr":"경기도 평택시 신장동 263-135번지","category":"직물 - 카페트,커튼,천막,지물"}]},{"lat":"37.081096079","long":"127.05117352","items":[{"name":"창푸아크","tel":"031-665-4488","addr":"경기도 평택시 신장동 304-14번지 2층","category":"일반휴게음식 - 일반한식"}]},{"lat":"37.078428802","long":"127.0515317","items":[{"name":"천일당한의원","tel":"031-668-1001","addr":"경기도 평택시 신장동 274-154번지","category":"의원 - 한의원"},{"name":"천일당한의원","tel":"031-666-3665","addr":"경기도 평택시 신장동 274-154번지","category":"서비스업 - 병원"}]},{"lat":"37.076014124","long":"127.05114781","items":[{"name":"철호문구","tel":"","addr":"경기도 평택시 신장동 274-314번지","category":"소매업 - 문구"}]},{"lat":"37.083482138","long":"127.05528005","items":[{"name":"청춘버거","tel":"031-663-1537","addr":"경기도 평택시 신장동 195-6번지","category":"음식점 - 양식"}]},{"lat":"37.075124088","long":"127.04591813","items":[{"name":"체인지미용실","tel":"031-611-0070","addr":"경기도 평택시 신장동 270-85번지","category":"보건위생 - 미용원"}]},{"lat":"37.077257629","long":"127.05103614","items":[{"name":"초간단레시피","tel":"031-611-2223","addr":"경기도 평택시 신장동 274-94번지 A동 1층","category":"음료식품 - 기타음료식품"}]},{"lat":"37.079014851","long":"127.05064364","items":[{"name":"축복","tel":"031-111-1111","addr":"경기도 평택시 신장동 297-56번지 1층","category":"신변잡화 - 기타잡화"}]},{"lat":"37.077789253","long":"127.05103647","items":[{"name":"춘천하우스","tel":"031-000-0000","addr":"경기도 평택시 신장동 273-5번지 1층","category":"일반휴게음식 - 일반한식"}]},{"lat":"37.079897135","long":"127.05247731","items":[{"name":"춤추는머리나라","tel":"031-8029-5816","addr":"경기도 평택시 신장동 318-21번지","category":"보건위생 - 미용원"},{"name":"핑크네일","tel":"031-691-2345","addr":"경기도 평택시 신장동 318-21번지 1층","category":"보건위생 - 피부미용실"}]},{"lat":"37.077014197","long":"127.05139584","items":[{"name":"치킨짱","tel":"031-611-7326","addr":"경기도 평택시 신장동 274-93번지","category":"일반휴게음식 - 스넥"}]},{"lat":"37.079925317","long":"127.04964331","items":[{"name":"카보이샵","tel":"031-662-5635","addr":"경기도 평택시 신장동 302-205번지 1층","category":"의류 - 정장"}]},{"lat":"37.080285387","long":"127.05053197","items":[{"name":"카운팅스타","tel":"031-662-7741","addr":"경기도 평택시 신장동 302-133번지 1동","category":"일반휴게음식 - 서양음식"}]},{"lat":"37.080401585","long":"127.05281502","items":[{"name":"카페레이커스","tel":"02-1577-0000","addr":"경기도 평택시 신장동 322-61번지 1,2층","category":"음료식품 - 기타음료식품"}]},{"lat":"37.07868155","long":"127.05041851","items":[{"name":"카프리모텔","tel":"031-664-1258","addr":"경기도 평택시 신장동 297-102번지","category":"숙박업 - 여관/기타숙박업"}]},{"lat":"37.080483392","long":"127.05109441","items":[{"name":"캐멀에스프레소","tel":"031-666-4112","addr":"경기도 평택시 신장동 316-5,316-6,316-7,301-3,301-10,301-11","category":"일반휴게음식 - 서양음식"}]},{"lat":"37.081400805","long":"127.0550312","items":[{"name":"코리아나살빼기교실","tel":"031-665-6603","addr":"경기도 평택시 신장동 215-7번지","category":"보건위생 - 피부미용실"}]},{"lat":"37.07470788","long":"127.05042728","items":[{"name":"코리아딜레마게임즈","tel":"031-000-0000","addr":"경기도 평택시 신장동 269-41번지","category":"서적문구 - 일반서적"}]},{"lat":"37.081402017","long":"127.05219713","items":[{"name":"코스모스모텔","tel":"031-664-9955","addr":"경기도 평택시 신장동 320-34번지","category":"숙박업 - 여관/기타숙박업"}]},{"lat":"37.081203018","long":"127.05400765","items":[{"name":"코코피니","tel":"031-666-3665","addr":"경기도 평택시 신장동 325-10번지","category":"소매업 - 의류"},{"name":"코코피니","tel":"031-667-2515","addr":"경기도 평택시 신장동 325-10번지","category":"의류 - 정장"}]},{"lat":"37.076951573","long":"127.05028248","items":[{"name":"쿠킹아트","tel":"031-378-0447","addr":"경기도 평택시 신장동 297-122번지 103호","category":"문화.취미 - 문화취미기타"}]},{"lat":"37.079979104","long":"127.0503406","items":[{"name":"쿨(CooL)","tel":"031-000-0000","addr":"경기도 평택시 신장동 302-182번지 1층","category":"보건위생 - 화장품"},{"name":"크라운여관","tel":"031-666-4748","addr":"경기도 평택시 신장동 302-182번지","category":"숙박업 - 여관/기타숙박업"},{"name":"크라운이불","tel":"031-662-7467","addr":"경기도 평택시 신장동 302-182번지","category":"직물 - 침구·수예점"}]},{"lat":"37.080374971","long":"127.05181409","items":[{"name":"크라운","tel":"031-667-0821","addr":"경기도 평택시 신장동 317-86번지 1층","category":"신변잡화 - 기념품점"}]},{"lat":"37.079175411","long":"127.05453485","items":[{"name":"크레이지베이프 송탄본점","tel":"070-8550-5212","addr":"경기도 평택시 신장동 224-3번지","category":"기타 - 기타 전문점"}]},{"lat":"37.076986497","long":"127.05300396","items":[{"name":"크로바 냉동산업","tel":"","addr":"경기도 평택시 신장동 280-3번지 상가동 1층","category":"수리서비스 - 가정용품수리"}]},{"lat":"37.079645811","long":"127.05009298","items":[{"name":"크로바샵","tel":"031-664-0650","addr":"경기도 평택시 신장동 298-35번지","category":"의류 - 정장"},{"name":"태평양양복점","tel":"031-662-4469","addr":"경기도 평택시 신장동 298-35번지","category":"의류 - 맞춤복점"}]},{"lat":"37.084873712","long":"127.04541753","items":[{"name":"크린존","tel":"031-663-0447","addr":"경기도 평택시 신장동 627-18번지 오페라하우스 E동 401호","category":"용역 서비스 - 종합용역"}]},{"lat":"37.087507895","long":"127.05955677","items":[{"name":"클레오 야채","tel":"","addr":"경기도 평택시 신장동 104-2번지 해륙하이츠맨션 202호","category":"음료식품 - 기타음료식품"}]},{"lat":"37.086845706","long":"127.04895023","items":[{"name":"키즈키즈[아이행복]","tel":"031-666-7755","addr":"경기도 평택시 신장동 610-2번지","category":"학원 - 유아원"}]},{"lat":"37.079456269","long":"127.05089133","items":[{"name":"타운스빌","tel":"02-583-0470","addr":"경기도 평택시 신장동 300-61번지","category":"숙박업 - 여관/기타숙박업"}]},{"lat":"37.078591641","long":"127.04992364","items":[{"name":"타이싸바이","tel":"","addr":"경기도 평택시 신장동 690-74번지","category":"보건위생 - 화장품"}]},{"lat":"37.079682041","long":"127.04962067","items":[{"name":"타일랜드2","tel":"031-668-7829","addr":"경기도 평택시 신장동 298-147번지 2층","category":"일반휴게음식 - 서양음식"}]},{"lat":"37.08831165","long":"127.0556208","items":[{"name":"타일하우스","tel":"02-1111-1111","addr":"경기도 평택시 신장동 62-10번지","category":"건축자재 - 건축용 요업제품"}]},{"lat":"37.073175379","long":"127.05214682","items":[{"name":"태광고등학교","tel":"031-646-5100","addr":"경기도 평택시 신장동 263-6번지","category":"학원 - 초중고교육기관"},{"name":"태광학교매점","tel":"070-7121-9405","addr":"경기도 평택시 신장동 263-6번지 태광고등학교 교내 매점","category":"음료식품 - 기타음료식품"}]},{"lat":"37.080041421","long":"127.05219625","items":[{"name":"태국슈퍼마켓","tel":"031-662-1426","addr":"경기도 평택시 신장동 317-61번지","category":"소매업 - 슈퍼"},{"name":"태국슈퍼마켓 (THAI WORLD MART)","tel":"031-611-0979","addr":"경기도 평택시 신장동 317-61번지","category":"유통업 영리 - 슈퍼마켓"}]},{"lat":"37.080258128","long":"127.05109426","items":[{"name":"태평양레스토랑","tel":"031-662-6242","addr":"경기도 평택시 신장동 301-4번지","category":"일반휴게음식 - 한정식"},{"name":"태평양여관","tel":"031-666-3428","addr":"경기도 평택시 신장동 301-4번지","category":"숙박업 - 여관/기타숙박업"},{"name":"홋또홋또","tel":"070-7622-6356","addr":"경기도 평택시 신장동 301-4번지 퍼시픽호텔 상가 1층","category":"일반휴게음식 - 일식·회집"}]},{"lat":"37.079896712","long":"127.05347821","items":[{"name":"태평양오토바이","tel":"031-662-3155","addr":"경기도 평택시 신장동 322-82번지","category":"도소매업 - 오토바이"}]},{"lat":"37.080176321","long":"127.05281487","items":[{"name":"태화분식","tel":"031-663-6141","addr":"경기도 평택시 신장동 321-34번지","category":"일반휴게음식 - 스넥"}]},{"lat":"37.074345191","long":"127.0557798","items":[{"name":"태후사랑(송탄역)","tel":"031-666-3948","addr":"경기도 평택시 신장동 251-8번지 1층","category":"서비스업 - 이미용"},{"name":"태후사랑송탄역점","tel":"031-668-5982","addr":"경기도 평택시 신장동 251-8번지","category":"서비스업 - 이미용"}]},{"lat":"37.081122502","long":"127.0526468","items":[{"name":"테마","tel":"031-662-9733","addr":"경기도 평택시 신장동 323-27번지","category":"신변잡화 - 제화"},{"name":"테마","tel":"031-664-7675","addr":"경기도 평택시 신장동 323-27번지","category":"소매업 - 구두"}]},{"lat":"37.080924269","long":"127.05264667","items":[{"name":"토니모리(평택점)","tel":"031-611-7939","addr":"경기도 평택시 신장동 323-4번지","category":"보건위생 - 화장품"}]},{"lat":"37.084486354","long":"127.0451474","items":[{"name":"토탈시스템","tel":"031-668-5206","addr":"경기도 평택시 신장동 627-6번지 정우그린하우스 1동 102호","category":"회원제형태 - 기타4"}]},{"lat":"37.075120246","long":"127.05545423","items":[{"name":"토탈유패션","tel":"031-663-9020","addr":"경기도 평택시 신장동 246-4번지 1층","category":"신변잡화 - 신발"}]},{"lat":"37.079653882","long":"127.05239843","items":[{"name":"토탈패션","tel":"031-665-4948","addr":"경기도 평택시 신장동 318-16번지","category":"의류 - 정장"}]},{"lat":"37.079843914","long":"127.05041924","items":[{"name":"투게더가방","tel":"031-663-8184","addr":"경기도 평택시 신장동 302-163번지","category":"신변잡화 - 가방"},{"name":"평화상회","tel":"031-662-6798","addr":"경기도 평택시 신장동 302-163번지","category":"신변잡화 - 신발"}]},{"lat":"37.084899306","long":"127.04925272","items":[{"name":"티는헤어","tel":"031-666-1817","addr":"경기도 평택시 신장동 360-1번지 1층","category":"보건위생 - 미용원"}]},{"lat":"37.080708725","long":"127.05092586","items":[{"name":"티바두마리치킨신장점","tel":"031-668-2992","addr":"경기도 평택시 신장동 301-9외7필지A동제4호2층","category":"일반휴게음식 - 주점"}]},{"lat":"37.074732741","long":"127.05556641","items":[{"name":"티파니","tel":"031-666-6160","addr":"경기도 평택시 신장동 247-11번지 1층","category":"보건위생 - 미용원"}]},{"lat":"37.08712375","long":"127.0521446","items":[{"name":"팀스크린골프","tel":"031-665-0782","addr":"경기도 평택시 신장동 397-15번지","category":"레저업소 - 스크린골프"}]},{"lat":"37.080564769","long":"127.05039719","items":[{"name":"팝콘","tel":"031-664-7965","addr":"경기도 평택시 신장동 302-32번지","category":"신변잡화 - 액세서리"}]},{"lat":"37.081897826","long":"127.05164638","items":[{"name":"펍제이알","tel":"031-666-7098","addr":"경기도 평택시 신장동 313-24번지 2층","category":"일반휴게음식 - 서양음식"}]},{"lat":"37.080509608","long":"127.05306251","items":[{"name":"페니블루","tel":"031-662-9733","addr":"경기도 평택시 신장동 322-31번지","category":"소매업 - 의류"},{"name":"페니블루","tel":"031-668-5456","addr":"경기도 평택시 신장동 322-31번지","category":"의류 - 정장"}]},{"lat":"37.080626759","long":"127.05302885","items":[{"name":"페니블루엠","tel":"031-633-3144","addr":"경기도 평택시 신장동 322-29번지 1층","category":"의류 - 정장"}]},{"lat":"37.082620208","long":"127.04775555","items":[{"name":"펫고동락","tel":"","addr":"경기도 평택시 신장동 636-60번지 정희주택 A동 B2층","category":"문화.취미 - 애완동물"}]},{"lat":"37.087096625","long":"127.05236952","items":[{"name":"평택유통","tel":"031-666-8801","addr":"경기도 평택시 신장동 396-1번지","category":"유통업 영리 - 기타유통업"}]},{"lat":"37.080897062","long":"127.05306276","items":[{"name":"포메인송탄신장점","tel":"031-663-9090","addr":"경기도 평택시 신장동 324-21번지 1,2층","category":"일반휴게음식 - 서양음식"}]},{"lat":"37.075258311","long":"127.04842594","items":[{"name":"포유덴탈","tel":"031-662-2874","addr":"경기도 평택시 신장동 693-85번지","category":"보건위생 - 의료용품"}]},{"lat":"37.079041995","long":"127.05036251","items":[{"name":"포테이토악기점","tel":"031-663-5344","addr":"경기도 평택시 신장동 298-120번지","category":"레져용품 - 악기점"}]},{"lat":"37.080790033","long":"127.05039734","items":[{"name":"포호치민","tel":"070-8174-5508","addr":"경기도 평택시 신장동 302-46번지","category":"일반휴게음식 - 서양음식"}]},{"lat":"37.080870769","long":"127.05128584","items":[{"name":"폭스라운지(Fox Lounge)","tel":"031-611-7687","addr":"경기도 평택시 신장동 314-8번지 1층","category":"일반휴게음식 - 주점"}]},{"lat":"37.087202382","long":"127.05775699","items":[{"name":"푸드네트워크 주식회사 평택","tel":"","addr":"경기도 평택시 신장동 100번지 1호","category":"일반휴게음식 - 일반한식"}]},{"lat":"37.080096129","long":"127.05062182","items":[{"name":"프라임 샵","tel":"031-662-3052","addr":"경기도 평택시 신장동 302-138번지","category":"의류 - 정장"}]},{"lat":"37.07889682","long":"127.05281403","items":[{"name":"프라자경양식","tel":"031-666-2742","addr":"경기도 평택시 신장동 274-186번지","category":"일반휴게음식 - 서양음식"},{"name":"할매식당","tel":"031-664-0066","addr":"경기도 평택시 신장동 274-186번지","category":"음식점 - 한식"},{"name":"할매식당","tel":"031-662-2325","addr":"경기도 평택시 신장동 274-186번지","category":"일반휴게음식 - 일반한식"}]},{"lat":"37.084230738","long":"127.05361605","items":[{"name":"프리모헤어","tel":"031-665-8208","addr":"경기도 평택시 신장동 329-10번지 브리찌빌라 1층","category":"보건위생 - 미용원"}]},{"lat":"37.080708983","long":"127.05028482","items":[{"name":"플레이오프","tel":"031-666-9844","addr":"경기도 평택시 신장동 302-48번지","category":"일반휴게음식 - 주점"},{"name":"한국여관","tel":"031-662-3927","addr":"경기도 평택시 신장동 302-48번지","category":"숙박업 - 여관/기타숙박업"}]},{"lat":"37.073039672","long":"127.05345116","items":[{"name":"피싱브로","tel":"031-665-2627","addr":"경기도 평택시 신장동 261-89번지 102호","category":"레져용품 - 스포츠·레져용품"}]},{"lat":"37.080871074","long":"127.05053234","items":[{"name":"피자앤유로","tel":"031-667-4992","addr":"경기도 평택시 신장동 303-7번지","category":"일반휴게음식 - 일반한식"}]},{"lat":"37.079204127","long":"127.05050881","items":[{"name":"피자클럽","tel":"031-666-6145","addr":"경기도 평택시 신장동 298-110번지","category":"일반휴게음식 - 서양음식"},{"name":"피자클럽","tel":"031-666-4229","addr":"경기도 평택시 신장동 298-110번지","category":"음식점 - 피자"}]},{"lat":"37.079402292","long":"127.05067762","items":[{"name":"핀리피야나","tel":"031-668-4853","addr":"경기도 평택시 신장동 299-17번지","category":"일반휴게음식 - 서양음식"}]},{"lat":"37.080375109","long":"127.05147671","items":[{"name":"필라델피아","tel":"070-8969-6168","addr":"경기도 평택시 신장동 316-116번지","category":"일반휴게음식 - 스넥"}]},{"lat":"37.079203882","long":"127.05111609","items":[{"name":"하나로군통신","tel":"031-611-4707","addr":"경기도 평택시 신장동 300-112번지 외1필지 1층","category":"사무통신 - 통신기기"}]},{"lat":"37.085845154","long":"127.04991687","items":[{"name":"하모니마트","tel":"","addr":"경기도 평택시 신장동 368-8번지","category":"소매업 - 슈퍼"}]},{"lat":"37.080562758","long":"127.05517683","items":[{"name":"하얀얼굴피부관리실","tel":"031-611-1163","addr":"경기도 평택시 신장동 217-12번지","category":"보건위생 - 피부미용실"},{"name":"현대화원","tel":"031-662-1765","addr":"경기도 평택시 신장동 217-12번지","category":"문화.취미 - 화원"}]},{"lat":"37.079762459","long":"127.05130763","items":[{"name":"한국고전가구","tel":"031-665-3964","addr":"경기도 평택시 신장동 300-44번지","category":"가구 - 일반가구"}]},{"lat":"37.079654556","long":"127.0507565","items":[{"name":"한국나전칠기사","tel":"031-666-8753","addr":"경기도 평택시 신장동 299-6번지","category":"문화.취미 - 민예·공예품"}]},{"lat":"37.077508895","long":"127.05351036","items":[{"name":"한라광고","tel":"031-662-6769","addr":"경기도 평택시 신장동 287-14번지","category":"용역 서비스 - 종합용역"}]},{"lat":"37.078788975","long":"127.05213921","items":[{"name":"한미만물사","tel":"031-668-2213","addr":"경기도 평택시 신장동 274-262번지","category":"소매업 - 의류"}]},{"lat":"37.07201314","long":"127.05184246","items":[{"name":"한빛상사","tel":"031-667-7740","addr":"경기도 평택시 신장동 261-87번지 101호","category":"건축자재 - 페인트"},{"name":"한입쪽갈비","tel":"031-668-3868","addr":"경기도 평택시 신장동 261-87번지","category":"일반휴게음식 - 일반한식"}]},{"lat":"37.07968054","long":"127.05328688","items":[{"name":"한아름 당구장","tel":"","addr":"경기도 평택시 신장동 293-13번지","category":"서비스업 - 당구장"},{"name":"한아름 당구장","tel":"","addr":"경기도 평택시 신장동 293-13번지","category":"레저업소 - 당 구 장"}]},{"lat":"37.075679273","long":"127.0546112","items":[{"name":"한양직업능력개발주식회사","tel":"031-611-0872","addr":"경기도 평택시 신장동 242번지 푸른솔빌딩 3층","category":"회원제형태 - 학원"},{"name":"한양직업전문학교(주)","tel":"031-611-0872","addr":"경기도 평택시 신장동 242번지 (2~3층,1층103호 한양직업전문학교)","category":"학원 - 기능학원"}]},{"lat":"37.080375668","long":"127.05009343","items":[{"name":"햅시바","tel":"031-662-3109","addr":"경기도 평택시 신장동 302-89번지","category":"의류 - 정장"}]},{"lat":"37.081762875","long":"127.0511402","items":[{"name":"헤이븐","tel":"031-611-9524","addr":"경기도 평택시 신장동 310-33번지","category":"일반휴게음식 - 일반한식"},{"name":"헤이븐","tel":"031-611-9524","addr":"경기도 평택시 신장동 310-33번지","category":"일반휴게음식 - 일반한식"}]},{"lat":"37.076535021","long":"127.05519655","items":[{"name":"헬스보충제","tel":"031-664-8499","addr":"경기도 평택시 신장동 238-1번지","category":"건강식품 - 기타건강식품"}]},{"lat":"37.07806864","long":"127.05089045","items":[{"name":"현대라사","tel":"031-664-7594","addr":"경기도 평택시 신장동 297-30번지","category":"의류 - 맞춤복점"}]},{"lat":"37.073707529","long":"127.05086521","items":[{"name":"현성","tel":"","addr":"경기도 평택시 신장동 267-67번지 104호","category":"서비스업 - 컴퓨터수리"}]},{"lat":"37.079843038","long":"127.05255599","items":[{"name":"현정문방구","tel":"031-662-8394","addr":"경기도 평택시 신장동 318-13번지","category":"서적문구 - 문구용품"}]},{"lat":"37.083121933","long":"127.05478496","items":[{"name":"형제오토바이","tel":"031-663-7242","addr":"경기도 평택시 신장동 200-10번지","category":"수리서비스 - 레져용품수리"}]},{"lat":"37.083175971","long":"127.05484123","items":[{"name":"형제오토바이","tel":"031-662-4137","addr":"경기도 평택시 신장동 200-5번지","category":"소매업 - 오토바이"}]},{"lat":"37.07973617","long":"127.04945201","items":[{"name":"호비","tel":"031-666-5053","addr":"경기도 평택시 신장동 298-11번지","category":"의류 - 정장"},{"name":"호비자수","tel":"031-663-5053","addr":"경기도 평택시 신장동 298-11번지 1층","category":"직물 - 침구·수예점"}]},{"lat":"37.082122038","long":"127.05414323","items":[{"name":"홈 Home","tel":"","addr":"경기도 평택시 신장동 203-60번지 블라썸하우스 202호","category":"보건위생 - 기타대인서비스"}]},{"lat":"37.079148418","long":"127.05444487","items":[{"name":"홍삼","tel":"031-1111-1111","addr":"경기도 평택시 신장동 224번지 1층 전체","category":"건강식품 - 홍삼제품"}]},{"lat":"37.081148386","long":"127.05531219","items":[{"name":"홍태루","tel":"031-615-7525","addr":"경기도 평택시 신장동 214-3번지","category":"음식점 - 중식"}]},{"lat":"37.073183194","long":"127.05494686","items":[{"name":"화랑자동차정비공업사","tel":"031-611-3159","addr":"경기도 평택시 신장동 252-10번지","category":"자동차정비 유지 - 자동차정비"}]},{"lat":"37.080094356","long":"127.05483912","items":[{"name":"화목포차","tel":"031-611-8381","addr":"경기도 평택시 신장동 220-23번지","category":"일반휴게음식 - 주점"}]},{"lat":"37.079681428","long":"127.05115013","items":[{"name":"황가","tel":"","addr":"경기도 평택시 신장동 300-59번지","category":"음식점 - 한식"}]},{"lat":"37.078456118","long":"127.05083447","items":[{"name":"효사랑 요양보호사교육원","tel":"031-665-3989","addr":"경기도 평택시 신장동 297-1번지 2층","category":"학원 - 기능학원"}]},{"lat":"37.080348156","long":"127.05128551","items":[{"name":"휜샵","tel":"031-662-5025","addr":"경기도 평택시 신장동 316-57번지","category":"의류 - 정장"}]},{"lat":"37.080347846","long":"127.052039","items":[{"name":"흙,그리고...","tel":"031-668-4625","addr":"경기도 평택시 신장동 317-25번지","category":"문화.취미 - 민예·공예품"}]},{"lat":"37.076347896","long":"127.05020339","items":[{"name":"희망하이퍼","tel":"","addr":"경기도 평택시 신장동 297-144번지","category":"소매업 - 슈퍼"},{"name":"희망하이퍼","tel":"031-666-6263","addr":"경기도 평택시 신장동 297-144번지","category":"유통업 영리 - 슈퍼마켓"}]}]