[{"lat":"36.961083541","long":"127.04989618","imageIndex":13,"items":[{"name":"경동노래방","tel":"031-691-0207","addr":"경기도 평택시 팽성읍 안정리 165-20번지","indutype":"레저업소 - 노 래 방","category":"leisure"}]},{"lat":"36.963245221","long":"127.05212084","imageIndex":13,"items":[{"name":"뉴욕당구클럽","tel":"031-651-9457","addr":"경기도 평택시 팽성읍 안정리 22-9번지 2층","indutype":"레저업소 - 당 구 장","category":"leisure"}]},{"lat":"36.960498437","long":"127.04836874","imageIndex":13,"items":[{"name":"세븐노래연습장","tel":"031-618-7679","addr":"경기도 평택시 팽성읍 안정리 154-3번지","indutype":"레저업소 - 노 래 방","category":"leisure"}]},{"lat":"36.961363374","long":"127.04861629","imageIndex":13,"items":[{"name":"야후PC","tel":"","addr":"경기도 평택시 팽성읍 안정리 31-5번지 한미빌딩 4층","indutype":"레저업소 - 기타레져업소","category":"leisure"},{"name":"큐당구클럽","tel":"031-657-7273","addr":"경기도 평택시 팽성읍 안정리 31-5번지 한미빌딩 3층","indutype":"레저업소 - 당 구 장","category":"leisure"}]},{"lat":"36.961192869","long":"127.04676346","imageIndex":13,"items":[{"name":"열린노래연습장","tel":"031-691-1415","addr":"경기도 평택시 팽성읍 안정리 37-13번지","indutype":"레저업소 - 노 래 방","category":"leisure"}]},{"lat":"36.961382895","long":"127.0445403","imageIndex":13,"items":[{"name":"용가리노래연습장","tel":"031-692-2002","addr":"경기도 평택시 팽성읍 안정리 111-5번지 외3필지 2층","indutype":"레저업소 - 노 래 방","category":"leisure"}]}]