[{"lat":"37.613134044","long":"126.83368424","imageIndex":4,"items":[{"name":"노가리까자","tel":"031-812-8282","addr":"경기도 고양시 덕양구 충장로","indutype":"일반휴게음식 - 일반한식","category":"restaurant"}]},{"lat":"37.614720824","long":"126.83442817","imageIndex":4,"items":[{"name":"리멤버(Remember)","tel":"031-0000-0000","addr":"경기도 고양시 덕양구 충장로","indutype":"일반휴게음식 - 서양음식","category":"restaurant"}]},{"lat":"37.614549639","long":"126.83442856","imageIndex":4,"items":[{"name":"종심이닭도리탕","tel":"031-974-3989","addr":"경기도 고양시 덕양구 충장로","indutype":"일반휴게음식 - 일반한식","category":"restaurant"},{"name":"한사발","tel":"031-938-0055","addr":"경기도 고양시 덕양구 충장로","indutype":"일반휴게음식 - 일반한식","category":"restaurant"}]},{"lat":"37.622667889","long":"126.83476139","imageIndex":4,"items":[{"name":"통큰아구찜","tel":"031-973-4797","addr":"경기도 고양시 덕양구 충장로","indutype":"일반휴게음식 - 일반한식","category":"restaurant"}]},{"lat":"37.624298887","long":"126.83492763","imageIndex":4,"items":[{"name":"피자알볼로","tel":"031-978-8495","addr":"경기도 고양시 덕양구 충장로","indutype":"일반휴게음식 - 스넥","category":"restaurant"}]},{"lat":"37.613719627","long":"126.83364893","imageIndex":4,"items":[{"name":"피자헛행신역점","tel":"031-971-5700","addr":"경기도 고양시 덕양구 충장로","indutype":"일반휴게음식 - 서양음식","category":"restaurant"}]}]