[{"lat":"37.092815416","long":"127.21204989","items":[{"name":"(주)OS에너지 남북대로 주유소","tel":"031-674-5163","addr":"경기도 안성시 양성면 이현리 103-1번지","category":"연료판매점 - SK주유소"},{"name":"쉼터커피타임","tel":"031-676-1350","addr":"경기도 안성시 양성면 이현리 103-1번지","category":"일반휴게음식 - 서양음식"}]},{"lat":"37.090596077","long":"127.20846703","items":[{"name":"(주)두암산업","tel":"031-671-8182","addr":"경기도 안성시 양성면 이현리 222번지","category":"연료판매점 - 기타연료"}]},{"lat":"37.092957375","long":"127.21329881","items":[{"name":"가온주유소","tel":"","addr":"경기도 안성시 양성면 이현리 100-2번지","category":"연료판매점 - 현대정유(오일뱅크)"},{"name":"우주하늘주유소","tel":"031-671-9119","addr":"경기도 안성시 양성면 이현리 100-2번지","category":"연료판매점 - 주유소"},{"name":"찬푸드 한식부페2호점","tel":"031-674-0305","addr":"경기도 안성시 양성면 이현리 100-2번지","category":"일반휴게음식 - 일반한식"},{"name":"통큰집","tel":"031-675-9115","addr":"경기도 안성시 양성면 이현리 100-2번지 1층","category":"일반휴게음식 - 일반한식"}]},{"lat":"37.091816043","long":"127.21159723","items":[{"name":"대주에너지","tel":"031-677-2257","addr":"경기도 안성시 양성면 이현리 206-3번지","category":"연료판매점 - LPG 취급점"}]},{"lat":"37.086516708","long":"127.20707263","items":[{"name":"명도주유소","tel":"031-674-5190","addr":"경기도 안성시 양성면 이현리 263-4번지","category":"연료판매점 - 현대정유(오일뱅크)"},{"name":"명도주유소","tel":"031-674-5190","addr":"경기도 안성시 양성면 이현리 263-4번지","category":"연료판매점 - 현대정유(오일뱅크)"}]},{"lat":"37.087456501","long":"127.21070799","items":[{"name":"성원엔비켐(주)","tel":"031-673-2376","addr":"경기도 안성시 양성면 이현리 260번지","category":"기타 - 기타 전문점"}]},{"lat":"37.090988145","long":"127.21098758","items":[{"name":"에너지B&S","tel":"031-378-7901","addr":"경기도 안성시 양성면 이현리 217-1","category":"연료판매점 - LPG 취급점"}]}]