[{"lat":"37.39514501","long":"127.2940611","items":[{"name":"(주) 온새미","tel":"031-761-9551","addr":"경기도 광주시 초월읍 도평리 156번지","category":"음료식품 - 기타음료식품"}]},{"lat":"37.40252795","long":"127.2925537","items":[{"name":"(주)경기서비스무진장","tel":"031-377-5963","addr":"경기도 광주시 초월읍 도평리 24-40번지","category":"일반휴게음식 - 일반한식"}]},{"lat":"37.39944777","long":"127.3028868","items":[{"name":"(주)에스쿠다마코리아","tel":"031-737-2228","addr":"경기도 광주시 초월읍 도평리 52-23번지","category":"신변잡화 - 기타잡화"},{"name":"오토리더","tel":"031-767-7655","addr":"경기도 광주시 초월읍 도평리 52-23번지","category":"기타 - 기계공구"}]},{"lat":"37.39444539","long":"127.3000323","items":[{"name":"(주)엠케이에프엔씨","tel":"02-759-1700","addr":"경기도 광주시 초월읍 도평리 123-1번지","category":"신변잡화 - 제화"},{"name":"(주)엠케이에프엔씨","tel":"02-759-1700","addr":"경기도 광주시 초월읍 도평리 123-1번지","category":"신변잡화 - 제화"},{"name":"(주)엠케이에프엔씨","tel":"02-759-1700","addr":"경기도 광주시 초월읍 도평리 123-1번지","category":"신변잡화 - 제화"}]},{"lat":"37.39635075","long":"127.2910392","items":[{"name":"(주)한주케이엠","tel":"031-761-6264","addr":"경기도 광주시 초월읍 도평리 205번지 도평리1차우림퓨전빌","category":"주방용구 - 주방용구"},{"name":"Paper&Fabric(종이와섬유)","tel":"031-4159-4386","addr":"경기도 광주시 초월읍 도평리 205번지 도평리1차우림퓨전빌","category":"직물 - 침구·수예점"}]},{"lat":"37.39667229","long":"127.2921923","items":[{"name":"BBQ펀앤정 광주도평점","tel":"031-797-3392","addr":"경기도 광주시 초월읍 도평리 209-1번지","category":"일반휴게음식 - 스넥"},{"name":"명품수제돈까스","tel":"031-797-4886","addr":"경기도 광주시 초월읍 도평리 209-1번지","category":"일반휴게음식 - 일반한식"},{"name":"언니'S 네일","tel":"031-767-1503","addr":"경기도 광주시 초월읍 도평리 209-1번지 108호","category":"보건위생 - 피부미용실"},{"name":"제니살롱","tel":"031-769-0305","addr":"경기도 광주시 초월읍 도평리 209-1번지 1층","category":"보건위생 - 미용원"},{"name":"짱투노래연습장","tel":"031-761-9907","addr":"경기도 광주시 초월읍 도평리 209-1","category":"레저업소 - 노 래 방"},{"name":"커피향기","tel":"031-798-3130","addr":"경기도 광주시 초월읍 도평리 209-1번지 1층 110호","category":"일반휴게음식 - 서양음식"},{"name":"피부사랑","tel":"031-798-8366","addr":"경기도 광주시 초월읍 도평리 209-1번지 108,109호","category":"보건위생 - 화장품"},{"name":"한큐당구클럽","tel":"031-798-6195","addr":"경기도 광주시 초월읍 도평리 209-1번지","category":"레저업소 - 당 구 장"},{"name":"화돌농장","tel":"031-764-5003","addr":"경기도 광주시 초월읍 도평리 209-1번지","category":"일반휴게음식 - 일반한식"}]},{"lat":"37.39433572","long":"127.2897102","items":[{"name":"KRT중기","tel":"031-769-8508","addr":"경기도 광주시 초월읍 도평리 259번지 대주피오레 103동 805호","category":"수리서비스 - 기타수리서비스"},{"name":"센트레코","tel":"070-8650-5500","addr":"경기도 광주시 초월읍 도평리 259번지 대주피오레","category":"용역 서비스 - 기타용역서비스"}]},{"lat":"37.39703222","long":"127.2923857","items":[{"name":"R&C (알앤씨)","tel":"031-763-0241","addr":"경기도 광주시 초월읍 도평리 194-2번지 1층","category":"일반휴게음식 - 서양음식"},{"name":"도평열쇠","tel":"031-767-9395","addr":"경기도 광주시 초월읍 도평리 194-2번지 대명빌딩 101호","category":"건축자재 - 목재·석재·철물"},{"name":"마르아카데미보습학원","tel":"031-4098-7998","addr":"경기도 광주시 초월읍 도평리 194-2번지 대명빌딩 201호","category":"학원 - 보습학원"},{"name":"아일랜드짐","tel":"031-797-9011","addr":"경기도 광주시 초월읍 도평리 194-2번지 대명빌딩 2층 202호","category":"레저업소 - 헬스클럽"}]},{"lat":"37.39528644","long":"127.2914981","items":[{"name":"S nail테라피","tel":"0700-8847-8083","addr":"경기도 광주시 초월읍 도평리 212-3번지 정인빌딩 105호","category":"보건위생 - 화장품"},{"name":"한체대태권도","tel":"031-768-5569","addr":"경기도 광주시 초월읍 도평리 212-3번지","category":"학원 - 예·체능계학원"},{"name":"행복한가정의학과의원","tel":"031-767-8677","addr":"경기도 광주시 초월읍 도평리 212-3번지 2층","category":"의원 - 의원"},{"name":"행복한강아지","tel":"031-797-8374","addr":"경기도 광주시 초월읍 도평리 212-3번지 107호","category":"문화.취미 - 애완동물"}]},{"lat":"37.39548018","long":"127.2896355","items":[{"name":"YELLOWL","tel":"070-4245-9596","addr":"경기도 광주시 초월읍 도평리 219-13번지","category":"일반휴게음식 - 서양음식"},{"name":"노란부엉이","tel":"070-4145-9596","addr":"경기도 광주시 초월읍 도평리 219-13번지 2층","category":"학원 - 기타 교육기관"}]},{"lat":"37.39481012","long":"127.2909994","items":[{"name":"coffee SSO","tel":"031-769-7880","addr":"경기도 광주시 초월읍 도평리 222-1번지 105호","category":"일반휴게음식 - 서양음식"},{"name":"남성컷트전문점","tel":"031-798-2650","addr":"경기도 광주시 초월읍 도평리 222-1번지 (전면우측2번째상가)","category":"보건위생 - 미용원"},{"name":"명품 노래연습장","tel":"031-765-7447","addr":"경기도 광주시 초월읍 도평리 222-1번지 정빌딩 2층","category":"레저업소 - 노 래 방"},{"name":"빅볼당구장","tel":"","addr":"경기도 광주시 초월읍 도평리 222-1번지 3층","category":"레저업소 - 당 구 장"},{"name":"아이스께끼","tel":"031-764-0816","addr":"경기도 광주시 초월읍 도평리 222-1번지 1층 101호","category":"음료식품 - 기타음료식품"},{"name":"아지트","tel":"","addr":"경기도 광주시 초월읍 도평리 222-1번지 1층","category":"일반휴게음식 - 주점"},{"name":"지니아","tel":"070-7443-6322","addr":"경기도 광주시 초월읍 도평리 222-1번지 정빌딩 106호","category":"의류 - 정장"}]},{"lat":"37.39500122","long":"127.3011412","items":[{"name":"가나사우나테크","tel":"031-768-3396","addr":"경기도 광주시 초월읍 도평리 103번지","category":"건축자재 - 건축용 요업제품"}]},{"lat":"37.39706331","long":"127.2907257","items":[{"name":"강헤어샵","tel":"031-761-7088","addr":"경기도 광주시 초월읍 도평리 205번지 도평리1차우림퓨전빌 상가 106호","category":"보건위생 - 미용원"},{"name":"도평철물","tel":"031-762-1507","addr":"경기도 광주시 초월읍 도평리 205번지 우림퓨전상가 103호","category":"건축자재 - 목재·석재·철물"}]},{"lat":"37.39381095","long":"127.2906116","items":[{"name":"건물주,멋쟁이와비즈","tel":"031-765-2460","addr":"경기도 광주시 초월읍 도평리 223-3번지 외1필지","category":"의류 - 아동의류"},{"name":"다올찬방","tel":"031-798-6488","addr":"경기도 광주시 초월읍 도평리 223-3번지","category":"일반휴게음식 - 일반한식"},{"name":"대주인테리어","tel":"031-768-7994","addr":"경기도 광주시 초월읍 도평리 223-3번지","category":"건축자재 - 인테리어전문"},{"name":"디와이전자담배","tel":"031-0000-0000","addr":"경기도 광주시 초월읍 도평리 223-3번지 산하빌딩 104호","category":"기타 - 기타 전문점"},{"name":"명당골","tel":"031-765-9294","addr":"경기도 광주시 초월읍 도평리 223-3번지 산하빌딩 108호","category":"음료식품 - 기타음료식품"},{"name":"샹떼PC방","tel":"","addr":"경기도 광주시 초월읍 도평리 223-3번지 산하빌딩 2층 201호","category":"레저업소 - 기타레져업소"},{"name":"섬뜰","tel":"031-768-1298","addr":"경기도 광주시 초월읍 도평리 223-3번지","category":"레저업소 - 노 래 방"},{"name":"세비랑족욕카페","tel":"031-765-7185","addr":"경기도 광주시 초월읍 도평리 223-3번지 산하빌딩 2층","category":"일반휴게음식 - 서양음식"},{"name":"슈헤어","tel":"070-7717-6157","addr":"경기도 광주시 초월읍 도평리 223-3번지 산하빌딩 106호","category":"보건위생 - 미용원"},{"name":"올리브","tel":"031-763-8798","addr":"경기도 광주시 초월읍 도평리 223-3번지 산하빌딩 1층 103호","category":"의류 - 정장"},{"name":"초월손만두랑찐빵","tel":"031-761-6996","addr":"경기도 광주시 초월읍 도평리 223-3번지 산하빌딩 105호","category":"일반휴게음식 - 스넥"}]},{"lat":"37.39567354","long":"127.2916351","items":[{"name":"게스트Pier26","tel":"031-768-6495","addr":"경기도 광주시 초월읍 도평리 212-11번지","category":"일반휴게음식 - 서양음식"},{"name":"맛반찬","tel":"031-765-7681","addr":"경기도 광주시 초월읍 도평리 212-11번지 1층 102호","category":"음료식품 - 기타음료식품"},{"name":"선우상사","tel":"031-768-7260","addr":"경기도 광주시 초월읍 도평리 212-11번지","category":"유통업 영리 - 기타유통업"},{"name":"옛날장터치킨","tel":"031-761-5307","addr":"경기도 광주시 초월읍 도평리 212-11번지 선우빌딩 104호","category":"일반휴게음식 - 스넥"},{"name":"컴퓨터마을","tel":"031-768-2265","addr":"경기도 광주시 초월읍 도평리 212-11번지 선우빌딩 1층 103호","category":"사무통신 - 컴퓨터"}]},{"lat":"37.39541988","long":"127.2958577","items":[{"name":"고향집","tel":"031-764-9941","addr":"경기도 광주시 초월읍 도평리 179번지","category":"일반휴게음식 - 일반한식"}]},{"lat":"37.39798138","long":"127.302","items":[{"name":"궁전편의점","tel":"031-767-2286","addr":"경기도 광주시 초월읍 도평리 66-11번지 2동 (상가)","category":"유통업 영리 - 편 의 점"},{"name":"예츠&갤러리","tel":"031-767-1250","addr":"경기도 광주시 초월읍 도평리 66-11번지","category":"유통업 영리 - 기타유통업"},{"name":"유주 Ceramic Studio","tel":"031-768-6771","addr":"경기도 광주시 초월읍 도평리 66-11번지","category":"문화.취미 - 문화취미기타"}]},{"lat":"37.39433583","long":"127.289665","items":[{"name":"금화루","tel":"031-764-7040","addr":"경기도 광주시 초월읍 도평리 259번지 대주피오레 상가 101,102호","category":"일반휴게음식 - 중국식"},{"name":"태후사랑","tel":"031-798-7025","addr":"경기도 광주시 초월읍 도평리 259번지 203호 대주상가","category":"보건위생 - 미용원"}]},{"lat":"37.39534138","long":"127.291137","items":[{"name":"김밥사냥","tel":"031-768-8821","addr":"경기도 광주시 초월읍 도평리 221-1번지","category":"일반휴게음식 - 스넥"},{"name":"꼬지사케","tel":"031-764-4630","addr":"경기도 광주시 초월읍 도평리 221-1번지 외1필지","category":"일반휴게음식 - 일반한식"},{"name":"다온GYM","tel":"031-797-0738","addr":"경기도 광주시 초월읍 도평리 221-1번지 3층","category":"레저업소 - 헬스클럽"},{"name":"레가토음악학원","tel":"031-764-8452","addr":"경기도 광주시 초월읍 도평리 221-1번지 2층일부","category":"학원 - 예·체능계학원"},{"name":"발원지학원","tel":"031-762-6799","addr":"경기도 광주시 초월읍 도평리 221-1번지 2층","category":"학원 - 보습학원"},{"name":"서울떡방앗간","tel":"031-768-0445","addr":"경기도 광주시 초월읍 도평리 221-1번지","category":"음료식품 - 제과점"},{"name":"용수산","tel":"031-797-3310","addr":"경기도 광주시 초월읍 도평리 221-1번지","category":"일반휴게음식 - 일식·회집"},{"name":"피자나눔터","tel":"031-764-4765","addr":"경기도 광주시 초월읍 도평리 221-1번지","category":"일반휴게음식 - 일반한식"}]},{"lat":"37.39728652","long":"127.2915623","items":[{"name":"김혜경 영어","tel":"031-766-0513","addr":"경기도 광주시 초월읍 도평리 205번지 도평리1차우림퓨전빌","category":"학원 - 기타 교육기관"},{"name":"제임스최스토어","tel":"","addr":"경기도 광주시 초월읍 도평리 205번지 도평리1차우림퓨전빌","category":"보건위생 - 미용재료"}]},{"lat":"37.39767193","long":"127.2923882","items":[{"name":"나누리FNC","tel":"031-111-1111","addr":"경기도 광주시 초월읍 도평리 196번지 삼성그린빌 1동 1층 101호","category":"음료식품 - 기타음료식품"},{"name":"영구크린","tel":"070-7469-8433","addr":"경기도 광주시 초월읍 도평리 196번지 삼성그린빌 1동 301호","category":"용역 서비스 - 종합용역"}]},{"lat":"37.39835044","long":"127.2912614","items":[{"name":"남부방수","tel":"","addr":"경기도 광주시 초월읍 도평리 200번지 도평우림2단지아파트","category":"용역 서비스 - 기타용역서비스"}]},{"lat":"37.39400523","long":"127.2922272","items":[{"name":"남촌","tel":"031-762-9393","addr":"경기도 광주시 초월읍 도평리 151-1번지 1층","category":"일반휴게음식 - 일반한식"}]},{"lat":"37.39605873","long":"127.2925513","items":[{"name":"남해상사","tel":"070-8873-7691","addr":"경기도 광주시 초월읍 도평리 163-1번지 1층","category":"직물 - 기타직물"}]},{"lat":"37.39542558","long":"127.2898612","items":[{"name":"노랑부엉이미술교습소","tel":"","addr":"경기도 광주시 초월읍 도평리 219번지 4호","category":"학원 - 예·체능계학원"}]},{"lat":"37.39556113","long":"127.2933851","items":[{"name":"농부와어민","tel":"031-765-6968","addr":"경기도 광주시 초월읍 도평리 162-14번지 하람빌리지","category":"음료식품 - 농·축·수산품"}]},{"lat":"37.3957017","long":"127.2911722","items":[{"name":"늘해랑한의원","tel":"031-797-0791","addr":"경기도 광주시 초월읍 도평리 213-3번지 성현빌딩 2층 201호","category":"의원 - 한의원"},{"name":"돈까스랑 빨.계.떡","tel":"031-766-3649","addr":"경기도 광주시 초월읍 도평리 213-3번지 성현빌딩 1층","category":"일반휴게음식 - 스넥"},{"name":"미스터브리즈 광주도평점","tel":"070-8785-7132","addr":"경기도 광주시 초월읍 도평리 213-3번지 성현빌딩","category":"일반휴게음식 - 서양음식"},{"name":"삼성영어도평학원","tel":"031-766-0585","addr":"경기도 광주시 초월읍 도평리 213-3번지 성현빌딩 2층 203호","category":"회원제형태 - 학원"},{"name":"쏘꼬맥","tel":"031-767-3560","addr":"경기도 광주시 초월읍 도평리 213-3번지 성현빌딩 103동 104호","category":"일반휴게음식 - 일반한식"},{"name":"아세넷 헤어러브","tel":"031-766-0588","addr":"경기도 광주시 초월읍 도평리 213-3번지 성현빌딩","category":"보건위생 - 미용원"},{"name":"웰빙헬스","tel":"031-767-5494","addr":"경기도 광주시 초월읍 도평리 213-3번지 성현빌딩 3층","category":"회원제형태 - 레져업소"},{"name":"한솔플러스영어수학학원","tel":"031-766-0585","addr":"경기도 광주시 초월읍 도평리 213-3번지 성현빌딩 2층 203호","category":"학원 - 보습학원"},{"name":"훌랄라바베큐치킨(도평1점)","tel":"031-767-9982","addr":"경기도 광주시 초월읍 도평리 213-3번지 성현빌딩 1층 102호","category":"일반휴게음식 - 일반한식"}]},{"lat":"37.39648123","long":"127.2929482","items":[{"name":"담순이네","tel":"031-699-4003","addr":"경기도 광주시 초월읍 도평리 209-4번지 1층 104","category":"의류 - 정장"},{"name":"진유통","tel":"031-767-5289","addr":"경기도 광주시 초월읍 도평리 209-4","category":"음료식품 - 정육점"}]},{"lat":"37.39700619","long":"127.291979","items":[{"name":"대장금","tel":"031-767-6727","addr":"경기도 광주시 초월읍 도평리 208번지 1층","category":"일반휴게음식 - 중국식"}]},{"lat":"37.39614589","long":"127.2937488","items":[{"name":"대한예수교장로회통합측평북노회갈보리교회","tel":"070-7848-9304","addr":"경기도 광주시 초월읍 도평리 165-2번지","category":"보건위생 - 기타대인서비스"}]},{"lat":"37.39461223","long":"127.2908631","items":[{"name":"도평","tel":"031-769-9966","addr":"경기도 광주시 초월읍 도평리 222-20번지 201,301호","category":"보건위생 - 피부미용실"},{"name":"불향기","tel":"031-798-8818","addr":"경기도 광주시 초월읍 도평리 222-20번지","category":"일반휴게음식 - 일반한식"},{"name":"아이지에이 광주도평점","tel":"031-000-0000","addr":"경기도 광주시 초월읍 도평리 222-20번지 101호","category":"유통업 영리 - 편 의 점"}]},{"lat":"37.39455738","long":"127.2911904","items":[{"name":"도평에듀스마트학원","tel":"031-769-2307","addr":"경기도 광주시 초월읍 도평리 225번지 동희상가 3층 301호","category":"학원 - 보습학원"},{"name":"또봉이통닭도평점","tel":"031-767-9980","addr":"경기도 광주시 초월읍 도평리 225번지 동희빌딩 1층","category":"일반휴게음식 - 스넥"},{"name":"믿음축산","tel":"031-766-9659","addr":"경기도 광주시 초월읍 도평리 225번지","category":"음료식품 - 정육점"},{"name":"순주헤어아트","tel":"031-765-5402","addr":"경기도 광주시 초월읍 도평리 225번지","category":"보건위생 - 미용원"},{"name":"아쿠아월드코리아(남부지사)","tel":"031-765-7160","addr":"경기도 광주시 초월읍 도평리 225번지 동희빌딩 3층 301호","category":"주방용구 - 정수기"},{"name":"에잇코너스 경기광주점","tel":"031-761-7823","addr":"경기도 광주시 초월읍 도평리 225번지 동희빌딩 3층 2,3호","category":"보건위생 - 화장품"},{"name":"오렌지음악미술학원","tel":"031-767-0948","addr":"경기도 광주시 초월읍 도평리 225번지 동희빌딩 2층","category":"학원 - 예·체능계학원"},{"name":"윤선생 영어교실 초월본부","tel":"031-798-0505","addr":"경기도 광주시 초월읍 도평리 225번지 동희빌딩 302호","category":"학원 - 외국어학원"},{"name":"자연과 약초","tel":"031-765-1015","addr":"경기도 광주시 초월읍 도평리 225번지 동희상가","category":"건강식품 - 기타건강식품"},{"name":"크린토피아","tel":"031-766-1808","addr":"경기도 광주시 초월읍 도평리 225","category":"수리서비스 - 세탁소"},{"name":"파리바게트","tel":"031-767-4256","addr":"경기도 광주시 초월읍 도평리 225번지","category":"음료식품 - 제과점"}]},{"lat":"37.3953282","long":"127.2928422","items":[{"name":"디알테크","tel":"","addr":"경기도 광주시 초월읍 도평리 154번지 도평신일아파트","category":"전기제품 - 가전제품"},{"name":"체크리더","tel":"070-4258-7458","addr":"경기도 광주시 초월읍 도평리 154","category":"회원제형태 - 기타1"},{"name":"풀하우스","tel":"031-797-3342","addr":"경기도 광주시 초월읍 도평리 154번지 도평신일아파트","category":"수리서비스 - 기타수리서비스"},{"name":"힐링","tel":"031-769-1410","addr":"경기도 광주시 초월읍 도평리 154번지 도평신일아파트","category":"의류 - 내의판매"}]},{"lat":"37.39422461","long":"127.2982472","items":[{"name":"디자이너 봉 소파","tel":"","addr":"경기도 광주시 초월읍 도평리 141번지","category":"가구 - 일반가구"}]},{"lat":"37.39914818","long":"127.3037778","items":[{"name":"뜨락","tel":"031-769-1230","addr":"경기도 광주시 초월읍 도평리 58-3번지","category":"일반휴게음식 - 일반한식"}]},{"lat":"37.39417088","long":"127.290805","items":[{"name":"렉스어학원","tel":"031-798-7030","addr":"경기도 광주시 초월읍 도평리 225번지 2(2층)","category":"회원제형태 - 학원"}]},{"lat":"37.39436822","long":"127.2911671","items":[{"name":"로라벨","tel":"070-3215-3529","addr":"경기도 광주시 초월읍 도평리 225-5번지 1층 104호","category":"의류 - 정장"},{"name":"우마이참치","tel":"031-765-3456","addr":"경기도 광주시 초월읍 도평리 225-5번지 1층 105호","category":"일반휴게음식 - 일식·회집"},{"name":"이승현헤어","tel":"031-769-3651","addr":"경기도 광주시 초월읍 도평리 225-5번지","category":"보건위생 - 미용원"},{"name":"인스영어인스수학학원","tel":"031-798-9106","addr":"경기도 광주시 초월읍 도평리 225-5번지","category":"학원 - 보습학원"},{"name":"행복떡집","tel":"031-769-4422","addr":"경기도 광주시 초월읍 도평리 225-5번지 1층 101호","category":"음료식품 - 제과점"},{"name":"현미와누룽지","tel":"031-797-3858","addr":"경기도 광주시 초월읍 도평리 225-5번지","category":"음료식품 - 기타음료식품"}]},{"lat":"37.39914255","long":"127.3024451","items":[{"name":"마베스 코리아 (MAVVES korea)","tel":"031-766-1795","addr":"경기도 광주시 초월읍 도평리 50번지 1층","category":"유통업 영리 - 기타유통업"}]},{"lat":"37.39521337","long":"127.2919044","items":[{"name":"명준공방","tel":"","addr":"경기도 광주시 초월읍 도평리 154번지 도평신일아파트","category":"문화.취미 - 문화취미기타"}]},{"lat":"37.39552996","long":"127.3022726","items":[{"name":"바스샵","tel":"031-769-8868","addr":"경기도 광주시 초월읍 도평리 84-4번지","category":"건축자재 - 건축용 요업제품"},{"name":"유진아트공방","tel":"031-763-2536","addr":"경기도 광주시 초월읍 도평리 84-4","category":"문화.취미 - 민예·공예품"}]},{"lat":"37.39714123","long":"127.2920247","items":[{"name":"봉평막국수칼국수","tel":"031-769-2555","addr":"경기도 광주시 초월읍 도평리 208-2번지","category":"일반휴게음식 - 일반한식"}]},{"lat":"37.39186936","long":"127.2996947","items":[{"name":"블루오션주식회사","tel":"031-798-2488","addr":"경기도 광주시 초월읍 도평리 133-3번지 2동","category":"전기제품 - 기타전기제품"}]},{"lat":"37.39511274","long":"127.2925251","items":[{"name":"비에이치씨(BHC) 도평점","tel":"031-768-6355","addr":"경기도 광주시 초월읍 도평리 154번지 도평신일아파트 102호","category":"일반휴게음식 - 스넥"}]},{"lat":"37.39483051","long":"127.2900283","items":[{"name":"비타민하우스H","tel":"070-8612-2295","addr":"경기도 광주시 초월읍 도평리 259번지 대주피오레 104동 703호","category":"회원제형태 - 건강식품"}]},{"lat":"37.39761815","long":"127.292275","items":[{"name":"빛과꿈터음악교습소","tel":"031-798-0658","addr":"경기도 광주시 초월읍 도평리 196번지 삼성그린빌 1층 102호","category":"학원 - 예·체능계학원"}]},{"lat":"37.39584097","long":"127.3004218","items":[{"name":"삼기스텐금속","tel":"031-767-0639","addr":"경기도 광주시 초월읍 도평리 87-7","category":"건축자재 - 기타건축자재"},{"name":"주식회사 신우하이텍","tel":"031-797-5015","addr":"경기도 광주시 초월읍 도평리 87-7번지","category":"기타 - 기계공구"}]},{"lat":"37.39367558","long":"127.2907015","items":[{"name":"섬뜰","tel":"03-766-9677","addr":"경기도 광주시 초월읍 도평리 232번지","category":"일반휴게음식 - 일반한식"}]},{"lat":"37.39680037","long":"127.2914023","items":[{"name":"소유","tel":"","addr":"경기도 광주시 초월읍 도평리 205번지 도평리1차우림퓨전빌","category":"신변잡화 - 신발"}]},{"lat":"37.3960917","long":"127.2974414","items":[{"name":"수산나요양원","tel":"031-798-9988","addr":"경기도 광주시 초월읍 도평리 181번지","category":"기타의료기관 - 기타의료기관 및 기타"}]},{"lat":"37.40100493","long":"127.2999453","items":[{"name":"수제비매운탕집","tel":"031-765-1855","addr":"경기도 광주시 초월읍 도평리 41번지","category":"일반휴게음식 - 일반한식"}]},{"lat":"37.40072916","long":"127.3021126","items":[{"name":"시골원두막집","tel":"031-766-4558","addr":"경기도 광주시 초월읍 도평리 42-2번지","category":"일반휴게음식 - 일반한식"}]},{"lat":"37.40028308","long":"127.3003603","items":[{"name":"씨에이치푸드","tel":"031-769-7856","addr":"경기도 광주시 초월읍 도평리 44-5번지","category":"음료식품 - 기타음료식품"}]},{"lat":"37.40047751","long":"127.3018631","items":[{"name":"에스씨텍/원격지","tel":"031-765-0794","addr":"경기도 광주시 초월읍 도평리 42-33","category":"기타 - 기타 전문점"}]},{"lat":"37.40250172","long":"127.2958853","items":[{"name":"에어쿨시스템","tel":"031-265-2244","addr":"경기도 광주시 초월읍 도평리 산1","category":"전기제품 - 냉열기기"}]},{"lat":"37.39790057","long":"127.2909999","items":[{"name":"엠플랫","tel":"031-528-6263","addr":"경기도 광주시 초월읍 도평리 200번지 도평우림2단지아파트","category":"의류 - 정장"}]},{"lat":"37.39780871","long":"127.2917224","items":[{"name":"예소리컬쳐","tel":"031-0000-0000","addr":"경기도 광주시 초월읍 도평리 200번지 도평우림2단지아파트","category":"문화.취미 - 티켓"}]},{"lat":"37.39558693","long":"127.2902006","items":[{"name":"유앤아이 보습학원","tel":"031-769-0814","addr":"경기도 광주시 초월읍 도평리 219번지 3층","category":"학원 - 보습학원"},{"name":"조이클래식피아노교습소","tel":"","addr":"경기도 광주시 초월읍 도평리 219번지 102호","category":"학원 - 예·체능계학원"},{"name":"초월경희대태권도도장","tel":"031-765-9798","addr":"경기도 광주시 초월읍 도평리 219번지","category":"학원 - 예·체능계학원"},{"name":"통근딱따구리","tel":"031-765-6975","addr":"경기도 광주시 초월읍 도평리 219","category":"서적문구 - 문구용품"}]},{"lat":"37.3960088","long":"127.301755","items":[{"name":"이레자동차","tel":"031-765-6491","addr":"경기도 광주시 초월읍 도평리 87-3","category":"자동차정비 유지 - 자동차정비"}]},{"lat":"37.39583875","long":"127.2903935","items":[{"name":"이원우드","tel":"031-768-8028","addr":"경기도 광주시 초월읍 도평리 218번지 해송빌라 202호","category":"건축자재 - 기타건축자재"}]},{"lat":"37.39469704","long":"127.3002818","items":[{"name":"이지테크","tel":"031-767-1539","addr":"경기도 광주시 초월읍 도평리 101-1번지","category":"기타 - 기계공구"}]},{"lat":"37.39673969","long":"127.2904195","items":[{"name":"인도로 간 빠리지엔","tel":"","addr":"경기도 광주시 초월읍 도평리 205번지 도평리1차우림퓨전빌","category":"의류 - 정장"}]},{"lat":"37.39563595","long":"127.2922674","items":[{"name":"전동지게차","tel":"031-797-0711","addr":"경기도 광주시 초월읍 도평리 154번지 도평신일아파트","category":"자동차판매 - 기타운송"}]},{"lat":"37.39391771","long":"127.2984718","items":[{"name":"주식회사 세임EM-메디칼","tel":"031-764-0844","addr":"경기도 광주시 초월읍 도평리 127-3번지","category":"보건위생 - 의료용품"}]},{"lat":"37.39572943","long":"127.3017765","items":[{"name":"주식회사 유앤아이","tel":"031-767-0689","addr":"경기도 광주시 초월읍 도평리 86-1번지","category":"전기제품 - 기타전기제품"}]},{"lat":"37.400255","long":"127.3007781","items":[{"name":"지남에어텍","tel":"031-769-1946","addr":"경기도 광주시 초월읍 도평리 44번지","category":"기타 - 기계공구"}]},{"lat":"37.39431228","long":"127.2992187","items":[{"name":"지니테크","tel":"070-4221-0021","addr":"경기도 광주시 초월읍 도평리 126-2번지","category":"사무통신 - 컴퓨터"}]},{"lat":"37.39575664","long":"127.290811","items":[{"name":"지향자수공방","tel":"031-765-7664","addr":"경기도 광주시 초월읍 도평리 214번지 2,1층","category":"직물 - 침구·수예점"},{"name":"카페214","tel":"031-528-6263","addr":"경기도 광주시 초월읍 도평리 214번지 경진빌딩 103,104호","category":"일반휴게음식 - 서양음식"},{"name":"팀 케이(Team K) 복싱체육관","tel":"","addr":"경기도 광주시 초월읍 도평리 214번지 3층 경진빌딩","category":"레저업소 - 헬스클럽"},{"name":"한빛음악미술학원","tel":"031-765-7543","addr":"경기도 광주시 초월읍 도평리 214번지 2층 경진빌딩","category":"학원 - 예·체능계학원"}]},{"lat":"37.39398159","long":"127.2908381","items":[{"name":"초월장군돼지부속","tel":"031-766-0607","addr":"경기도 광주시 초월읍 도평리 230-4번지 1층","category":"일반휴게음식 - 일반한식"}]},{"lat":"37.39533642","long":"127.3039771","items":[{"name":"통나무114","tel":"031-764-6101","addr":"경기도 광주시 초월읍 도평리 110-8","category":"기타 - 기계공구"}]},{"lat":"37.39742007","long":"127.2922178","items":[{"name":"행복자동문","tel":"031-767-1300","addr":"경기도 광주시 초월읍 도평리 195-2번지","category":"수리서비스 - 기타수리서비스"}]},{"lat":"37.40056177","long":"127.3006099","items":[{"name":"헬스서포터,워터스","tel":"031-338-6490","addr":"경기도 광주시 초월읍 도평리 42-16번지","category":"보건위생 - 의료용품"}]},{"lat":"37.39953604","long":"127.3036099","items":[{"name":"형제철강레이저","tel":"031-762-7657","addr":"경기도 광주시 초월읍 도평리 52-1번지","category":"기타 - 기계공구"}]},{"lat":"37.39516437","long":"127.2898263","items":[{"name":"홍미례 과외","tel":"","addr":"경기도 광주시 초월읍 도평리 259번지 대주피오레","category":"학원 - 기타 교육기관"}]},{"lat":"37.39511445","long":"127.2991089","items":[{"name":"휴텍스","tel":"031-742-7712","addr":"경기도 광주시 초월읍 도평리 96","category":"가구 - 일반가구"}]}]