[{"lat":"37.599263795","long":"127.42539482","items":[{"name":"개울가농원","tel":"031-774-2441","addr":"경기도 양평군 서종면 정배리 278-3번지","category":"음료식품 - 농·축·수산품"}]},{"lat":"37.596621242","long":"127.42614987","items":[{"name":"구스토씨앤에프","tel":"02-776-2657","addr":"경기도 양평군 서종면 정배리 229-8","category":"음료식품 - 기타음료식품"}]},{"lat":"37.599089414","long":"127.42879095","items":[{"name":"농부네쉼터","tel":"031-772-7171","addr":"경기도 양평군 서종면 정배리 147-1번지","category":"음료식품 - 기타음료식품"}]},{"lat":"37.607151918","long":"127.42661723","items":[{"name":"더베란다","tel":"031-771-7454","addr":"경기도 양평군 서종면 정배리 92-7번지","category":"문화.취미 - 화원"}]},{"lat":"37.596062617","long":"127.43115157","items":[{"name":"마노아","tel":"031-111-1111","addr":"경기도 양평군 서종면 정배리 22번지","category":"숙박업 - 여관/기타숙박업"}]},{"lat":"37.597122122","long":"127.43215411","items":[{"name":"맘스쿠킹","tel":"","addr":"경기도 양평군 서종면 정배리 39-1번지","category":"문화.취미 - 문화취미기타"}]},{"lat":"37.595202354","long":"127.43481533","items":[{"name":"반딧불이","tel":"031-775-2014","addr":"경기도 양평군 서종면 정배리 29","category":"숙박업 - 여관/기타숙박업"},{"name":"반딧불이계곡슈퍼","tel":"070-1478-1236","addr":"경기도 양평군 서종면 정배리 29번지 1층","category":"유통업 영리 - 슈퍼마켓"}]},{"lat":"37.599926692","long":"127.40587628","items":[{"name":"벨리즈펜션","tel":"031-773-7769","addr":"경기도 양평군 서종면 정배리 586-3번지","category":"숙박업 - 여관/기타숙박업"}]},{"lat":"37.593870221","long":"127.42195613","items":[{"name":"삼청티니","tel":"070-5119-9278","addr":"경기도 양평군 서종면 정배리 262-67번지","category":"신변잡화 - 액세서리"},{"name":"삼청티니","tel":"070-7645-9485","addr":"경기도 양평군 서종면 정배리 262-67번지","category":"신변잡화 - 액세서리"}]},{"lat":"37.600815985","long":"127.42720411","items":[{"name":"서종블루베리","tel":"031-772-6907","addr":"경기도 양평군 서종면 정배리 172-2번지","category":"음료식품 - 기타음료식품"},{"name":"솥비까페","tel":"031-775-0888","addr":"경기도 양평군 서종면 정배리 172-2번지 1층","category":"일반휴게음식 - 일반한식"}]},{"lat":"37.597902848","long":"127.43547638","items":[{"name":"소나무펜션","tel":"031-773-3957","addr":"경기도 양평군 서종면 정배리 37-9","category":"숙박업 - 여관/기타숙박업"}]},{"lat":"37.597650561","long":"127.4255329","items":[{"name":"시골여행","tel":"031-772-0601","addr":"경기도 양평군 서종면 정배리 233-5번지 1층","category":"일반휴게음식 - 일반한식"}]},{"lat":"37.611062138","long":"127.42156558","items":[{"name":"웃디야나","tel":"","addr":"경기도 양평군 서종면 정배리 385-3번지","category":"레저업소 - 헬스클럽"}]},{"lat":"37.596370666","long":"127.43067776","items":[{"name":"이볼(Evol)하우스","tel":"031-772-4816","addr":"경기도 양평군 서종면 정배리 203번지","category":"숙박업 - 여관/기타숙박업"}]},{"lat":"37.598369714","long":"127.43098362","items":[{"name":"이엠세제","tel":"","addr":"경기도 양평군 서종면 정배리 193-1번지","category":"신변잡화 - 기타잡화"}]},{"lat":"37.61173073","long":"127.42103702","items":[{"name":"자연이야기펜션","tel":"031-771-7963","addr":"경기도 양평군 서종면 정배리 388-7","category":"숙박업 - 여관/기타숙박업"}]},{"lat":"37.602402745","long":"127.41932015","items":[{"name":"정배슈퍼","tel":"02-308-2251","addr":"경기도 양평군 서종면 정배리 475-6번지","category":"유통업 영리 - 슈퍼마켓"}]},{"lat":"37.602650253","long":"127.42320574","items":[{"name":"정배초등학교","tel":"031-773-5376","addr":"경기도 양평군 서종면 정배리 330번지 정배분교 (서종초등학교)","category":"학원 - 초중고교육기관"},{"name":"정배초등학교병설유치원[아이행복]","tel":"031-773-5376","addr":"경기도 양평군 서종면 정배리 330번지","category":"학원 - 유치원"}]},{"lat":"37.59690135","long":"127.42592499","items":[{"name":"채움펜션","tel":"031-771-6451","addr":"경기도 양평군 서종면 정배리 230번지","category":"숙박업 - 여관/기타숙박업"}]},{"lat":"37.611008274","long":"127.42906276","items":[{"name":"포스","tel":"031-772-2232","addr":"경기도 양평군 서종면 정배리 72-94번지","category":"건축자재 - 인테리어전문"}]},{"lat":"37.60987456","long":"127.41853505","items":[{"name":"푸른언덕펜션","tel":"031-771-7596","addr":"경기도 양평군 서종면 정배리 415번지","category":"숙박업 - 여관/기타숙박업"}]},{"lat":"37.594954698","long":"127.43601415","items":[{"name":"플러스 펜션","tel":"031-775-1258","addr":"경기도 양평군 서종면 정배리 18-4번지","category":"숙박업 - 여관/기타숙박업"}]},{"lat":"37.60025959","long":"127.42909204","items":[{"name":"하구재비","tel":"031-774-2776","addr":"경기도 양평군 서종면 정배리 176-6번지","category":"문화.취미 - 문화취미기타"}]}]