[{"lat":"37.27618867","long":"127.44643728","imageIndex":13,"items":[{"name":"21세기 피부관리","tel":"031-633-9263","addr":"경기도 이천시 중리동 228-3번지 2층","indutype":"보건위생 - 피부미용실","category":"beauty"}]},{"lat":"37.277969183","long":"127.44254643","imageIndex":13,"items":[{"name":"J스킨&바디","tel":"031-638-9021","addr":"경기도 이천시 중리동 188-3번지 1층","indutype":"보건위생 - 피부미용실","category":"beauty"}]},{"lat":"37.275630134","long":"127.44641145","imageIndex":13,"items":[{"name":"LG화장품","tel":"031-635-1244","addr":"경기도 이천시 중리동 460-8번지","indutype":"보건위생 - 화장품","category":"beauty"},{"name":"오휘","tel":"031-635-1244","addr":"경기도 이천시 중리동 460-8번지","indutype":"보건위생 - 화장품","category":"beauty"},{"name":"오휘화장품","tel":"031-635-1244","addr":"경기도 이천시 중리동 460-8번지","indutype":"보건위생 - 화장품","category":"beauty"}]},{"lat":"37.27835394","long":"127.44568325","imageIndex":13,"items":[{"name":"Nail with Us 이천점","tel":"031-635-6387","addr":"경기도 이천시 중리동 213번지 이천라온팰리스 103호","indutype":"보건위생 - 화장품","category":"beauty"},{"name":"라온","tel":"","addr":"경기도 이천시 중리동 213번지 이천라온팰리스 지하1층 비16,비17호","indutype":"보건위생 - 화장품","category":"beauty"},{"name":"라온","tel":"","addr":"경기도 이천시 중리동 213번지 이천라온팰리스 지하1층 비16,비17호","indutype":"보건위생 - 화장품","category":"beauty"},{"name":"렉스","tel":"031-636-7666","addr":"경기도 이천시 중리동 213번지 이천라온팰리스 2층 221호","indutype":"보건위생 - 피부미용실","category":"beauty"},{"name":"박쌤래쉬걸","tel":"","addr":"경기도 이천시 중리동 213번지 이천라온팰리스 1층 104호","indutype":"보건위생 - 피부미용실","category":"beauty"},{"name":"비겐의료기 이천점","tel":"031-635-7589","addr":"경기도 이천시 중리동 213번지 이천라온팰리스 지하1층 B12호","indutype":"보건위생 - 의료용품","category":"beauty"},{"name":"어썸헤어(A.SOME hair 2nd class)","tel":"031-637-2008","addr":"경기도 이천시 중리동 213번지 이천라온팰리스 201호","indutype":"보건위생 - 미용원","category":"beauty"},{"name":"으뜸50안경","tel":"031-637-1103","addr":"경기도 이천시 중리동 213번지 이천라온팰리스 205호","indutype":"보건위생 - 안경","category":"beauty"},{"name":"태닝모나코","tel":"031-764-7959","addr":"경기도 이천시 중리동 213번지 이천라온팰리스 1층 107호","indutype":"보건위생 - 피부미용실","category":"beauty"},{"name":"포시즌코스메틱","tel":"070-8611-6511","addr":"경기도 이천시 중리동 213번지 이천라온팰리스 3층 356호,357호","indutype":"보건위생 - 화장품","category":"beauty"},{"name":"헤어숨","tel":"031-632-4455","addr":"경기도 이천시 중리동 213번지 이천라온팰리스 1층 119호","indutype":"보건위생 - 미용원","category":"beauty"}]},{"lat":"37.279104257","long":"127.44502239","imageIndex":13,"items":[{"name":"THE공간","tel":"031-885-0715","addr":"경기도 이천시 중리동 202-2번지 3층","indutype":"보건위생 - 미용원","category":"beauty"}]},{"lat":"37.279775497","long":"127.44381981","imageIndex":13,"items":[{"name":"Touch Nail","tel":"031-636-6653","addr":"경기도 이천시 중리동 201번지 1층","indutype":"보건위생 - 피부미용실","category":"beauty"}]},{"lat":"37.27921248","long":"127.44257621","imageIndex":13,"items":[{"name":"shes 뷰티","tel":"031-638-0710","addr":"경기도 이천시 중리동 193-12번지","indutype":"보건위생 - 피부미용실","category":"beauty"}]},{"lat":"37.276411637","long":"127.44704745","imageIndex":13,"items":[{"name":"경기의료기","tel":"031-634-2421","addr":"경기도 이천시 중리동 224번지","indutype":"보건위생 - 의료용품","category":"beauty"}]},{"lat":"37.277240086","long":"127.4374683","imageIndex":13,"items":[{"name":"고은피부","tel":"031-638-5231","addr":"경기도 이천시 중리동 444번지 천연자수정","indutype":"보건위생 - 화장품","category":"beauty"},{"name":"도도헤어","tel":"031-633-6300","addr":"경기도 이천시 중리동 444번지 산호3차아파트 17호","indutype":"보건위생 - 미용원","category":"beauty"},{"name":"산호자수정사우나","tel":"031-635-7212","addr":"경기도 이천시 중리동 444번지 지하층상가1호","indutype":"보건위생 - 사우나","category":"beauty"}]},{"lat":"37.27732679","long":"127.44326432","imageIndex":13,"items":[{"name":"김미영헤어샵","tel":"031-631-9475","addr":"경기도 이천시 중리동 207-11번지","indutype":"보건위생 - 미용원","category":"beauty"}]},{"lat":"37.280076351","long":"127.44287441","imageIndex":13,"items":[{"name":"나경헤어","tel":"031-631-6154","addr":"경기도 이천시 중리동 194-1","indutype":"보건위생 - 미용원","category":"beauty"},{"name":"다연스킨테라피","tel":"031-633-9775","addr":"경기도 이천시 중리동 194-1번지","indutype":"보건위생 - 화장품","category":"beauty"}]},{"lat":"37.278109788","long":"127.43863467","imageIndex":13,"items":[{"name":"노진헤어","tel":"031-633-3390","addr":"경기도 이천시 중리동 4-8번지 삼우타운빌 101호 101호~102호","indutype":"보건위생 - 미용원","category":"beauty"}]},{"lat":"37.279994581","long":"127.43818323","imageIndex":13,"items":[{"name":"뉴톤보청기 이천지사","tel":"031-632-6200","addr":"경기도 이천시 중리동 1-1번지","indutype":"보건위생 - 의료용품","category":"beauty"}]},{"lat":"37.278466825","long":"127.44198555","imageIndex":13,"items":[{"name":"도도","tel":"031-635-8561","addr":"경기도 이천시 중리동 186-6번지 1층","indutype":"보건위생 - 화장품","category":"beauty"}]},{"lat":"37.277967227","long":"127.4454893","imageIndex":13,"items":[{"name":"두발머리방","tel":"031-633-2112","addr":"경기도 이천시 중리동 214-1번지","indutype":"보건위생 - 미용원","category":"beauty"},{"name":"라벨르","tel":"031-633-0789","addr":"경기도 이천시 중리동 214-1번지","indutype":"보건위생 - 피부미용실","category":"beauty"},{"name":"베베로 네일샵","tel":"031-631-4219","addr":"경기도 이천시 중리동 214-1번지 1동 101호","indutype":"보건위생 - 피부미용실","category":"beauty"}]},{"lat":"37.274884838","long":"127.44813215","imageIndex":13,"items":[{"name":"드보라","tel":"031-636-0552","addr":"경기도 이천시 중리동 466-4번지 마리나산부인과의원내","indutype":"보건위생 - 기타대인서비스","category":"beauty"},{"name":"마리나 모유수유센터","tel":"","addr":"경기도 이천시 중리동 466-4번지 5층","indutype":"보건위생 - 기타대인서비스","category":"beauty"}]},{"lat":"37.276077987","long":"127.44951474","imageIndex":13,"items":[{"name":"라임 심리상담센타","tel":"031-634-1549","addr":"경기도 이천시 중리동 468-5번지 1동 501호","indutype":"보건위생 - 기타대인서비스","category":"beauty"}]},{"lat":"37.280158865","long":"127.44249151","imageIndex":13,"items":[{"name":"라희스타일","tel":"070-8253-2022","addr":"경기도 이천시 중리동 180-5번지 1층","indutype":"보건위생 - 미용원","category":"beauty"}]},{"lat":"37.279270601","long":"127.44390707","imageIndex":13,"items":[{"name":"루리헤어샵","tel":"031-638-0486","addr":"경기도 이천시 중리동 191-2번지 1층","indutype":"보건위생 - 미용원","category":"beauty"}]},{"lat":"37.276773195","long":"127.44190806","imageIndex":13,"items":[{"name":"매직포인트","tel":"031-633-6377","addr":"경기도 이천시 중리동 452-19번지 나동 1층","indutype":"보건위생 - 미용원","category":"beauty"}]},{"lat":"37.2800261","long":"127.44184803","imageIndex":13,"items":[{"name":"머리결사랑","tel":"031-635-8560","addr":"경기도 이천시 중리동 180-10번지 1층","indutype":"보건위생 - 미용원","category":"beauty"}]},{"lat":"37.279358641","long":"127.44446009","imageIndex":13,"items":[{"name":"명동목욕탕","tel":"031-634-3803","addr":"경기도 이천시 중리동 201-3","indutype":"보건위생 - 사우나","category":"beauty"},{"name":"샤론피부몸매관리실","tel":"031-633-2784","addr":"경기도 이천시 중리동 201-3 명동타운내 2층","indutype":"보건위생 - 피부미용실","category":"beauty"},{"name":"타미나","tel":"031-634-6514","addr":"경기도 이천시 중리동 201-3번지","indutype":"보건위생 - 화장품","category":"beauty"}]},{"lat":"37.279518443","long":"127.44267947","imageIndex":13,"items":[{"name":"미니헤어","tel":"070-4686-9412","addr":"경기도 이천시 중리동 193-15번지","indutype":"보건위생 - 미용원","category":"beauty"}]},{"lat":"37.278415028","long":"127.4438006","imageIndex":13,"items":[{"name":"뷔엔나미용실","tel":"","addr":"경기도 이천시 중리동 204번지","indutype":"보건위생 - 미용원","category":"beauty"}]},{"lat":"37.279716537","long":"127.44271445","imageIndex":13,"items":[{"name":"비니헤어","tel":"031-635-8580","addr":"경기도 이천시 중리동 193번지","indutype":"보건위생 - 미용원","category":"beauty"}]},{"lat":"37.279934452","long":"127.44226469","imageIndex":13,"items":[{"name":"살롱드 수아르(salon de soir)","tel":"031-000-0000","addr":"경기도 이천시 중리동 180-8번지 104호","indutype":"보건위생 - 피부미용실","category":"beauty"},{"name":"지아헤어아트","tel":"031-633-9824","addr":"경기도 이천시 중리동 180-8번지","indutype":"보건위생 - 미용원","category":"beauty"}]},{"lat":"37.277469779","long":"127.44599378","imageIndex":13,"items":[{"name":"살롱드54","tel":"031-694-5678","addr":"경기도 이천시 중리동 215-8번지","indutype":"보건위생 - 미용원","category":"beauty"}]},{"lat":"37.278548454","long":"127.43940394","imageIndex":13,"items":[{"name":"서연뷰티","tel":"","addr":"경기도 이천시 중리동 170-3번지 1층","indutype":"보건위생 - 피부미용실","category":"beauty"}]},{"lat":"37.279436574","long":"127.4404577","imageIndex":13,"items":[{"name":"솟대 사주","tel":"070-7779-4753","addr":"경기도 이천시 중리동 177-19번지 상가 1층","indutype":"보건위생 - 기타대인서비스","category":"beauty"},{"name":"퀸즈헤나","tel":"031-638-3369","addr":"경기도 이천시 중리동 177-19번지","indutype":"보건위생 - 미용원","category":"beauty"}]},{"lat":"37.279740849","long":"127.43857642","imageIndex":13,"items":[{"name":"숙미용실","tel":"031-635-7436","addr":"경기도 이천시 중리동 19-9번지","indutype":"보건위생 - 미용원","category":"beauty"}]},{"lat":"37.27927071","long":"127.43901346","imageIndex":13,"items":[{"name":"스칼렛헤어","tel":"031-631-3338","addr":"경기도 이천시 중리동 18-11번지","indutype":"보건위생 - 미용원","category":"beauty"}]},{"lat":"37.279441662","long":"127.44151764","imageIndex":13,"items":[{"name":"시원해헤어샵","tel":"031-634-0511","addr":"경기도 이천시 중리동 183-2번지","indutype":"보건위생 - 미용원","category":"beauty"}]},{"lat":"37.278137397","long":"127.44334797","imageIndex":13,"items":[{"name":"신현홈케어","tel":"031-634-3666","addr":"경기도 이천시 중리동 204-6번지","indutype":"보건위생 - 기타대인서비스","category":"beauty"}]},{"lat":"37.277580808","long":"127.44521643","imageIndex":13,"items":[{"name":"심원이용원","tel":"031-631-2855","addr":"경기도 이천시 중리동 215번지","indutype":"보건위생 - 이용원","category":"beauty"}]},{"lat":"37.27674715","long":"127.448876","imageIndex":13,"items":[{"name":"싸와디","tel":"031-636-3698","addr":"경기도 이천시 중리동 463-5번지 동원상가 201호","indutype":"보건위생 - 화장품","category":"beauty"}]},{"lat":"37.279855621","long":"127.44165535","imageIndex":13,"items":[{"name":"썬바이오의료기","tel":"031-636-5355","addr":"경기도 이천시 중리동 182번지","indutype":"보건위생 - 의료용품","category":"beauty"}]},{"lat":"37.278689292","long":"127.44515527","imageIndex":13,"items":[{"name":"아담","tel":"","addr":"경기도 이천시 중리동 212-4번지 1층","indutype":"보건위생 - 피부미용실","category":"beauty"},{"name":"코코뷰티","tel":"","addr":"경기도 이천시 중리동 212-4번지","indutype":"보건위생 - 피부미용실","category":"beauty"}]},{"lat":"37.277463072","long":"127.44296068","imageIndex":13,"items":[{"name":"아람 (ARam)","tel":"031-459-2828","addr":"경기도 이천시 중리동 206-4번지 1층","indutype":"보건위생 - 미용원","category":"beauty"}]},{"lat":"37.275712687","long":"127.4411803","imageIndex":13,"items":[{"name":"아르떼헤어","tel":"031-635-1304","addr":"경기도 이천시 중리동 450-28번지 1층","indutype":"보건위생 - 미용원","category":"beauty"}]},{"lat":"37.275519665","long":"127.44943251","imageIndex":13,"items":[{"name":"아모레","tel":"031-631-0617","addr":"경기도 이천시 중리동 468-11번지 경기동부자폐아전문치료센터 301호","indutype":"보건위생 - 화장품","category":"beauty"},{"name":"아모레","tel":"031-638-6658","addr":"경기도 이천시 중리동 468-11번지 설봉프라자 301호","indutype":"보건위생 - 화장품","category":"beauty"},{"name":"아모레","tel":"031-638-6658","addr":"경기도 이천시 중리동 468-11번지 설봉프라자 301호","indutype":"보건위생 - 화장품","category":"beauty"}]},{"lat":"37.279630497","long":"127.44404448","imageIndex":13,"items":[{"name":"아즈라헤어 애비뉴점","tel":"031-636-2008","addr":"경기도 이천시 중리동 201-1번지 이천씨네마복합빌딩","indutype":"보건위생 - 미용원","category":"beauty"},{"name":"주네일","tel":"031-635-9819","addr":"경기도 이천시 중리동 201-1번지 이천씨네마복합빌딩","indutype":"보건위생 - 피부미용실","category":"beauty"}]},{"lat":"37.27483036","long":"127.43610146","imageIndex":13,"items":[{"name":"안나가꿈","tel":"02-1111-1111","addr":"경기도 이천시 중리동 50-21번지 평산빌딩 305호","indutype":"보건위생 - 피부미용실","category":"beauty"}]},{"lat":"37.279962942","long":"127.43943466","imageIndex":13,"items":[{"name":"안녕미장원","tel":"","addr":"경기도 이천시 중리동 21-16번지 1층","indutype":"보건위생 - 미용원","category":"beauty"}]},{"lat":"37.276301007","long":"127.4404621","imageIndex":13,"items":[{"name":"에린","tel":"0070-4000-1988","addr":"경기도 이천시 중리동 450-3번지 2층","indutype":"보건위생 - 화장품","category":"beauty"}]},{"lat":"37.27910436","long":"127.44257559","imageIndex":13,"items":[{"name":"에스홀릭(S HOLIC)","tel":"031-635-0126","addr":"경기도 이천시 중리동 193-11번지 지하층1층","indutype":"보건위생 - 피부미용실","category":"beauty"}]},{"lat":"37.278914752","long":"127.44510021","imageIndex":13,"items":[{"name":"엔네일","tel":"","addr":"경기도 이천시 중리동 212번지 1층","indutype":"보건위생 - 피부미용실","category":"beauty"},{"name":"이철헤어커커 이천점","tel":"031-635-2326","addr":"경기도 이천시 중리동 212번지 2층","indutype":"보건위생 - 미용원","category":"beauty"}]},{"lat":"37.278851512","long":"127.43784966","imageIndex":13,"items":[{"name":"예언궁사주","tel":"02-1577-0000","addr":"경기도 이천시 중리동 3-1번지 101호","indutype":"보건위생 - 기타대인서비스","category":"beauty"}]},{"lat":"37.277192501","long":"127.44785258","imageIndex":13,"items":[{"name":"오현정 에스테틱","tel":"02-1577-0000","addr":"경기도 이천시 중리동 462-2번지 1층","indutype":"보건위생 - 피부미용실","category":"beauty"}]},{"lat":"37.275746123","long":"127.44671656","imageIndex":13,"items":[{"name":"원더제이왁싱","tel":"031-636-2250","addr":"경기도 이천시 중리동 227-1번지 동아빌딩 104호","indutype":"보건위생 - 피부미용실","category":"beauty"}]},{"lat":"37.279187956","long":"127.44432379","imageIndex":13,"items":[{"name":"유나 헤어샵","tel":"031-635-5594","addr":"경기도 이천시 중리동 201-5","indutype":"보건위생 - 미용원","category":"beauty"}]},{"lat":"37.276801899","long":"127.4462943","imageIndex":13,"items":[{"name":"유니시티헤어","tel":"031-634-9268","addr":"경기도 이천시 중리동 217-5번지","indutype":"보건위생 - 미용원","category":"beauty"}]},{"lat":"37.278045307","long":"127.43901767","imageIndex":13,"items":[{"name":"유리네일","tel":"070-8285-2003","addr":"경기도 이천시 중리동 171-11번지 105호","indutype":"보건위생 - 피부미용실","category":"beauty"}]},{"lat":"37.279356221","long":"127.44268981","imageIndex":13,"items":[{"name":"유성관헤어","tel":"031-633-8491","addr":"경기도 이천시 중리동 193-14번지","indutype":"보건위생 - 미용원","category":"beauty"}]},{"lat":"37.277967549","long":"127.44298616","imageIndex":13,"items":[{"name":"유애영뷰티라인","tel":"031-635-1051","addr":"경기도 이천시 중리동 205번지 3층","indutype":"보건위생 - 화장품","category":"beauty"}]},{"lat":"37.279212324","long":"127.44018579","imageIndex":13,"items":[{"name":"이민정헤어스케치","tel":"031-638-7560","addr":"경기도 이천시 중리동 175-19번지","indutype":"보건위생 - 미용원","category":"beauty"}]},{"lat":"37.276108756","long":"127.44852271","imageIndex":13,"items":[{"name":"이천네일왕","tel":"","addr":"경기도 이천시 중리동 464-5번지 코아루페라즈 2층 201호","indutype":"보건위생 - 피부미용실","category":"beauty"}]},{"lat":"37.27557364","long":"127.44465221","imageIndex":13,"items":[{"name":"이천네일은 봄","tel":"02-3154-5167","addr":"경기도 이천시 중리동 457번지 1층","indutype":"보건위생 - 피부미용실","category":"beauty"}]},{"lat":"37.277965524","long":"127.44110316","imageIndex":13,"items":[{"name":"이천시 장애인 종합복지관","tel":"070-4246-6683","addr":"경기도 이천시 중리동 187번지","indutype":"보건위생 - 기타대인서비스","category":"beauty"}]},{"lat":"37.280185821","long":"127.44007866","imageIndex":13,"items":[{"name":"잠언의료기 이천지점","tel":"031-637-7589","addr":"경기도 이천시 중리동 21번지 202호","indutype":"보건위생 - 의료용품","category":"beauty"}]},{"lat":"37.277747654","long":"127.44637877","imageIndex":13,"items":[{"name":"장에스테틱","tel":"031-635-2462","addr":"경기도 이천시 중리동 218-2번지 하나빌딩 3층 장세용피부비뇨기과의원 내","indutype":"보건위생 - 화장품","category":"beauty"}]},{"lat":"37.279716384","long":"127.44032401","imageIndex":13,"items":[{"name":"제일이발관","tel":"031-633-5485","addr":"경기도 이천시 중리동 177번지","indutype":"보건위생 - 이용원","category":"beauty"}]},{"lat":"37.279132339","long":"127.44474066","imageIndex":13,"items":[{"name":"쥬뗌헤어갤러리","tel":"031-635-7013","addr":"경기도 이천시 중리동 202-8번지","indutype":"보건위생 - 미용원","category":"beauty"}]},{"lat":"37.278520374","long":"127.4445454","imageIndex":13,"items":[{"name":"창대미용실","tel":"031-636-0242","addr":"경기도 이천시 중리동 211-10번지","indutype":"보건위생 - 미용원","category":"beauty"}]},{"lat":"37.275857709","long":"127.43605097","imageIndex":13,"items":[{"name":"청담스킨","tel":"031-564-6296","addr":"경기도 이천시 중리동 313-5번지 204호","indutype":"보건위생 - 화장품","category":"beauty"}]},{"lat":"37.279857301","long":"127.4436286","imageIndex":13,"items":[{"name":"킹스포츠발마사지","tel":"031-636-3242","addr":"경기도 이천시 중리동 194-9번지 3층","indutype":"보건위생 - 피부미용실","category":"beauty"}]},{"lat":"37.279636419","long":"127.44001911","imageIndex":13,"items":[{"name":"태후사랑","tel":"031-636-1607","addr":"경기도 이천시 중리동 21-4번지","indutype":"보건위생 - 화장품","category":"beauty"}]},{"lat":"37.27727177","long":"127.44593624","imageIndex":13,"items":[{"name":"파스텔헤어샵","tel":"031-632-6465","addr":"경기도 이천시 중리동 215-7번지","indutype":"보건위생 - 미용원","category":"beauty"}]},{"lat":"37.280130553","long":"127.44040534","imageIndex":13,"items":[{"name":"하나미용실","tel":"031-635-1982","addr":"경기도 이천시 중리동 178번지","indutype":"보건위생 - 미용원","category":"beauty"}]},{"lat":"37.280162077","long":"127.43918774","imageIndex":13,"items":[{"name":"해피의료기","tel":"031-637-7522","addr":"경기도 이천시 중리동 20-4번지","indutype":"보건위생 - 의료용품","category":"beauty"}]},{"lat":"37.279990804","long":"127.4392093","imageIndex":13,"items":[{"name":"헤어림","tel":"031-635-8561","addr":"경기도 이천시 중리동 20-5번지","indutype":"보건위생 - 미용원","category":"beauty"}]},{"lat":"37.279325868","long":"127.44115615","imageIndex":13,"items":[{"name":"헤어준","tel":"031-634-4694","addr":"경기도 이천시 중리동 177-14번지","indutype":"보건위생 - 미용원","category":"beauty"}]},{"lat":"37.279025739","long":"127.44190987","imageIndex":13,"items":[{"name":"현진헤어","tel":"","addr":"경기도 이천시 중리동 186번지","indutype":"보건위생 - 미용원","category":"beauty"}]},{"lat":"37.274636429","long":"127.44949495","imageIndex":13,"items":[{"name":"휴","tel":"031-223-9109","addr":"경기도 이천시 중리동 467-4번지 2층","indutype":"보건위생 - 미용재료","category":"beauty"}]},{"lat":"37.276824235","long":"127.44754598","imageIndex":13,"items":[{"name":"힐링아로마샵","tel":"","addr":"경기도 이천시 중리동 221번지","indutype":"보건위생 - 화장품","category":"beauty"}]},{"lat":"37.277712458","long":"127.44374013","imageIndex":13,"items":[{"name":"힐링엔젤스 이천여주점","tel":"031-635-1259","addr":"경기도 이천시 중리동 205-7번지","indutype":"보건위생 - 기타대인서비스","category":"beauty"}]},{"lat":"37.278826309","long":"127.43980019","imageIndex":13,"items":[{"name":"힐링하우스","tel":"031-632-2048","addr":"경기도 이천시 중리동 169번지","indutype":"보건위생 - 미용원","category":"beauty"}]}]