[{"lat":"37.359193626","long":"126.87315314","imageIndex":7,"items":[{"name":"그린슈퍼","tel":"031-480-8678","addr":"경기도 안산시 상록구 장상동 18-5,1층102","indutype":"유통업 영리 - 슈퍼마켓","category":"mart"}]},{"lat":"37.360192256","long":"126.87179689","imageIndex":7,"items":[{"name":"수암할인마트","tel":"031-480-7258","addr":"경기도 안산시 상록구 장상동 534-5번지 1층","indutype":"유통업 영리 - 슈퍼마켓","category":"mart"},{"name":"코사마트수암점","tel":"031-480-7258","addr":"경기도 안산시 상록구 장상동 534-5번지 1층 슈퍼","indutype":"유통업 영리 - 슈퍼마켓","category":"mart"},{"name":"하나엔지니어링","tel":"031-480-7258","addr":"경기도 안산시 상록구 장상동 534-5번지","indutype":"유통업 영리 - 슈퍼마켓","category":"mart"}]},{"lat":"37.360282632","long":"126.87204506","imageIndex":7,"items":[{"name":"전원슈퍼","tel":"031-480-5681","addr":"경기도 안산시 상록구 장상동 16-4번지","indutype":"유통업 영리 - 슈퍼마켓","category":"mart"}]},{"lat":"37.3601922561","long":"126.8717968890","imageIndex":7,"items":[{"name":"코사마트 수암","tel":"031-480-7258","addr":"경기도 안산시 상록구 장상동 534-5번지","indutype":"도매 및 소매업 - 슈퍼","category":"mart"}]},{"lat":"37.35294692","long":"126.87073725","imageIndex":7,"items":[{"name":"한우리","tel":"02-837-0045","addr":"경기도 안산시 상록구 장상동 221번지","indutype":"유통업 영리 - 슈퍼마켓","category":"mart"}]}]