[{"lat":"37.957295077","long":"127.0618683","items":[{"name":"강원식당","tel":"031-865-6400","addr":"경기도 동두천시 하봉암동 321-10번지","category":"일반휴게음식 - 일반한식"}]},{"lat":"37.956907737","long":"127.0617542","items":[{"name":"과일나라","tel":"031-861-8832","addr":"경기도 동두천시 하봉암동 318-6번지","category":"음료식품 - 농·축·수산품"}]},{"lat":"37.95921368","long":"127.0625867","items":[{"name":"대명장갑","tel":"031-868-0234","addr":"경기도 동두천시 하봉암동 312-10번지","category":"의류 - 기타의류"}]},{"lat":"37.970292186","long":"127.06792177","items":[{"name":"대명주유소","tel":"031-868-5140","addr":"경기도 동두천시 하봉암동 142-14번지","category":"연료판매점 - 쌍용S-OIL"}]},{"lat":"37.964094758","long":"127.06625488","items":[{"name":"동신장","tel":"031-866-7999","addr":"경기도 동두천시 하봉암동 67-3번지","category":"숙박업 - 여관/기타숙박업"}]},{"lat":"37.966459453","long":"127.05773332","items":[{"name":"동원연탄","tel":"031-865-2502","addr":"경기도 동두천시 하봉암동 200번지","category":"연료판매점 - 기타연료"}]},{"lat":"37.959656441","long":"127.05994715","items":[{"name":"매봉골식당","tel":"031-868-0548","addr":"경기도 동두천시 하봉암동 296-7번지","category":"일반휴게음식 - 일반한식"}]},{"lat":"37.970733649","long":"127.0678994","items":[{"name":"명품(LED)","tel":"031-834-5060","addr":"경기도 동두천시 하봉암동 142-13번지 1층13","category":"건축자재 - 조명기구"}]},{"lat":"37.963819584","long":"127.0580955","items":[{"name":"미주산업","tel":"031-865-1006","addr":"경기도 동두천시 하봉암동 263-1번지 하봉암 263-1,263-8,263-9","category":"직물 - 기타직물"}]},{"lat":"37.969039673","long":"127.06834174","items":[{"name":"백동양봉원","tel":"070-7755-1345","addr":"경기도 동두천시 하봉암동 115-6번지","category":"건강식품 - 기타건강식품"}]},{"lat":"37.956324609","long":"127.05658794","items":[{"name":"사회복지법인 샘솟는기쁨","tel":"031-862-2283","addr":"경기도 동두천시 하봉암동 373-7 373-9","category":"학원 - 유아원"},{"name":"해오름어린이집[아이행복]","tel":"031-868-2333","addr":"경기도 동두천시 하봉암동 373-7번지","category":"학원 - 유아원"}]},{"lat":"37.962765324","long":"127.05848161","items":[{"name":"수정얼음","tel":"031-868-9770","addr":"경기도 동두천시 하봉암동 269-1번지","category":"유통업 영리 - 기타유통업"}]},{"lat":"37.957322326","long":"127.06142456","items":[{"name":"시실리","tel":"031-857-9989","addr":"경기도 동두천시 하봉암동 320-1번지","category":"일반휴게음식 - 일반한식"},{"name":"시실리","tel":"031-857-9989","addr":"경기도 동두천시 하봉암동 320-1번지","category":"숙박업 - 여관/기타숙박업"}]},{"lat":"37.969571355","long":"127.06809184","items":[{"name":"신원타이어동두천","tel":"031-868-0907","addr":"경기도 동두천시 하봉암동 142-16번지","category":"자동차정비 유지 - 자동차시트·타이어"}]},{"lat":"37.963013769","long":"127.06603774","items":[{"name":"신흥석재","tel":"031-686-0014","addr":"경기도 동두천시 하봉암동 61-2번지","category":"건축자재 - 목재·석재·철물"}]},{"lat":"37.961789443","long":"127.06428429","items":[{"name":"양심가스","tel":"031-868-9903","addr":"경기도 동두천시 하봉암동 62-6번지","category":"연료판매점 - LPG 취급점"},{"name":"영선자동차공업사","tel":"031-867-0988","addr":"경기도 동두천시 하봉암동 62-6번지 1층","category":"자동차정비 유지 - 자동차정비"}]},{"lat":"37.957040023","long":"127.06720461","items":[{"name":"원방상사","tel":"02-000-0000","addr":"경기도 동두천시 하봉암동 35-9번지","category":"신변잡화 - 귀금속"}]},{"lat":"37.962295279","long":"127.06170161","items":[{"name":"유창산업기계","tel":"031-868-4585","addr":"경기도 동두천시 하봉암동 306-1번지","category":"기타 - 기계공구"}]},{"lat":"37.965184528","long":"127.06689308","items":[{"name":"제일LPG충전소","tel":"031-868-5180","addr":"경기도 동두천시 하봉암동 70번지","category":"연료판매점 - SK가스충전소"},{"name":"제일LPG충전소","tel":"031-818-5180","addr":"경기도 동두천시 하봉암동 70번지","category":"연료판매점 - SK가스충전소"}]},{"lat":"37.959510938","long":"127.06267797","items":[{"name":"제일공업사","tel":"031-864-2307","addr":"경기도 동두천시 하봉암동 312-3번지","category":"자동차정비 유지 - 자동차정비"},{"name":"조은타이어","tel":"070-4922-1261","addr":"경기도 동두천시 하봉암동 312-3번지","category":"자동차정비 유지 - 자동차시트·타이어"}]},{"lat":"37.958627866","long":"127.06300724","items":[{"name":"제일한식뷔페","tel":"","addr":"경기도 동두천시 하봉암동 313-17번지","category":"일반휴게음식 - 일반한식"}]},{"lat":"37.957150568","long":"127.06258503","items":[{"name":"종합수퍼","tel":"031-867-4137","addr":"경기도 동두천시 하봉암동 316-3","category":"유통업 영리 - 슈퍼마켓"}]},{"lat":"37.968484527","long":"127.06186587","items":[{"name":"주식회사 동방","tel":"031-837-0280","addr":"경기도 동두천시 하봉암동 179-32번지 가동","category":"건축자재 - 기타건축자재"}]},{"lat":"37.963824884","long":"127.0655036","items":[{"name":"주식회사 멍이사랑","tel":"031-862-5051","addr":"경기도 동두천시 하봉암동 65-5번지","category":"문화.취미 - 애완동물"}]},{"lat":"37.957321766","long":"127.06253965","items":[{"name":"중국성","tel":"031-867-7667","addr":"경기도 동두천시 하봉암동 315-11번지","category":"일반휴게음식 - 서양음식"}]},{"lat":"37.968958805","long":"127.06795473","items":[{"name":"진가네양평해장국(동두천본점)","tel":"031-867-8181","addr":"경기도 동두천시 하봉암동 115-8번지","category":"일반휴게음식 - 일반한식"}]},{"lat":"37.959294408","long":"127.06328087","items":[{"name":"창림건업","tel":"031-865-5525","addr":"경기도 동두천시 하봉암동 313-23번지","category":"건축자재 - 기타건축자재"}]},{"lat":"37.956789984","long":"127.06300574","items":[{"name":"티제이드론 주식회사","tel":"031-865-9009","addr":"경기도 동두천시 하봉암동 316-19번지 대영빌딩 1층","category":"학원 - 기능학원"}]},{"lat":"37.957041394","long":"127.06464445","items":[{"name":"평화로옛집","tel":"031-867-7765","addr":"경기도 동두천시 하봉암동 317","category":"일반휴게음식 - 일반한식"}]},{"lat":"37.964185089","long":"127.06581115","items":[{"name":"현대부엌가구인테리어","tel":"031-862-7997","addr":"경기도 동두천시 하봉암동 68-1번지","category":"주방용구 - 주방용구"}]},{"lat":"37.961681534","long":"127.06389731","items":[{"name":"현대카오디오","tel":"031-868-4248","addr":"경기도 동두천시 하봉암동 56-3번지","category":"자동차정비 유지 - 자동차부품"}]}]