[{"lat":"37.548358859","long":"127.6711504","items":[{"name":"농업회사법인 주식회사 미송","tel":"031-775-5557","addr":"경기도 양평군 단월면 덕수리 465-1번지","category":"음료식품 - 농·축·수산품"}]},{"lat":"37.54271821","long":"127.67601078","items":[{"name":"대명철물","tel":"031-773-0732","addr":"경기도 양평군 단월면 덕수리 241","category":"건축자재 - 목재·석재·철물"}]},{"lat":"37.554325094","long":"127.66923455","items":[{"name":"바이투바이(BUYTOBUY)","tel":"031-773-0465","addr":"경기도 양평군 단월면 덕수리 397-14번지","category":"음료식품 - 기타음료식품"}]},{"lat":"37.56063061","long":"127.68678794","items":[{"name":"백동낚시터","tel":"031-772-7750","addr":"경기도 양평군 단월면 덕수리 20번지","category":"레저업소 - 기타레져업소"}]},{"lat":"37.560079702","long":"127.68545874","items":[{"name":"백동식당","tel":"031-772-7750","addr":"경기도 양평군 단월면 덕수리 22-3","category":"일반휴게음식 - 일반한식"}]},{"lat":"37.555383273","long":"127.67487982","items":[{"name":"증골양봉원","tel":"031-771-1062","addr":"경기도 양평군 단월면 덕수리 336번지","category":"건강식품 - 기타건강식품"}]},{"lat":"37.545274953","long":"127.6826533","items":[{"name":"창인마트","tel":"031-772-5274","addr":"경기도 양평군 단월면 덕수리 217-1번지","category":"유통업 영리 - 슈퍼마켓"},{"name":"창인직업재활시설","tel":"031-774-2136","addr":"경기도 양평군 단월면 덕수리 217-1번지","category":"음료식품 - 기타음료식품"}]}]