[{"lat":"37.294419594","long":"127.08106075","imageIndex":16,"items":[{"name":"TOPmaker 영어공부방","tel":"031-214-2834","addr":"경기도 수원시 영통구 하동 1001번지 광교마을40단지 4002동 25층 2501호","indutype":"학원 - 보습학원","category":"study"}]},{"lat":"37.29092873","long":"127.07289228","imageIndex":16,"items":[{"name":"경희대석사이의태권도장","tel":"031-214-2544","addr":"경기도 수원시 영통구 하동 994번지 광교호수마을참누리레이크 지층 101호","indutype":"학원 - 예·체능계학원","category":"study"}]},{"lat":"37.292733249","long":"127.06858587","imageIndex":16,"items":[{"name":"광교 TEAM 무예원","tel":"031-215-9997","addr":"경기도 수원시 영통구 하동 983-4번지 2층 202호","indutype":"학원 - 예·체능계학원","category":"study"},{"name":"광교키즈아트미술학원","tel":"031-212-3334","addr":"경기도 수원시 영통구 하동 983-4번지 2층 203호","indutype":"학원 - 예·체능계학원","category":"study"},{"name":"에듀프라임수학전문학원","tel":"031-214-7889","addr":"경기도 수원시 영통구 하동 983-4번지 3층 304호","indutype":"학원 - 보습학원","category":"study"},{"name":"예린뮤즈음악학원","tel":"031-217-0357","addr":"경기도 수원시 영통구 하동 983-4번지 402호","indutype":"학원 - 예·체능계학원","category":"study"},{"name":"제이드영어중국어학원","tel":"031-215-6606","addr":"경기도 수원시 영통구 하동 983-4번지 403호","indutype":"학원 - 외국어학원","category":"study"}]},{"lat":"37.281732942","long":"127.06635493","imageIndex":16,"items":[{"name":"광교 생태환경체험교육관","tel":"070-4252-9510","addr":"경기도 수원시 영통구 하동 1024번지","indutype":"학원 - 기타 교육기관","category":"study"}]},{"lat":"37.292182782","long":"127.07008532","imageIndex":16,"items":[{"name":"광교2동주민자치위원회","tel":"031-228-8477","addr":"경기도 수원시 영통구 하동 976번지","indutype":"학원 - 기타 교육기관","category":"study"},{"name":"시립광교2동어린이집[아이행복]","tel":"031-228-2874","addr":"경기도 수원시 영통구 하동 976번지","indutype":"학원 - 유아원","category":"study"}]},{"lat":"37.295102314","long":"127.08411781","imageIndex":16,"items":[{"name":"광교동화나라어린이집[아이행복]","tel":"031-222-3131","addr":"경기도 수원시 영통구 하동 1001번지 광교마을40단지 4006동 104호","indutype":"학원 - 유아원","category":"study"},{"name":"그리고 미술공방","tel":"070-2825-6530","addr":"경기도 수원시 영통구 하동 1001번지 광교마을40단지 4006동 102호","indutype":"학원 - 예·체능계학원","category":"study"},{"name":"해피아이어린이집[아이행복]","tel":"031-214-3256","addr":"경기도 수원시 영통구 하동 1001번지 광교마을40단지 4006동 103호","indutype":"학원 - 유아원","category":"study"}]},{"lat":"37.291469664","long":"127.07235146","imageIndex":16,"items":[{"name":"광교라온어린이집[아이행복]","tel":"031-211-1578","addr":"경기도 수원시 영통구 하동 994번지 광교호수마을참누리레이크 3003동 101호","indutype":"학원 - 유아원","category":"study"},{"name":"리틀초록어린이집[아이행복]","tel":"031-8025-3004","addr":"경기도 수원시 영통구 하동 994번지 광교호수마을참누리레이크 3003동 103호","indutype":"학원 - 유아원","category":"study"}]},{"lat":"37.296226785","long":"127.08671301","imageIndex":16,"items":[{"name":"광교마을사임당어린이집[아이행복]","tel":"031-212-7979","addr":"경기도 수원시 영통구 하동 1001번지 광교마을40단지 4009동 104호","indutype":"학원 - 유아원","category":"study"}]},{"lat":"37.296785826","long":"127.08613844","imageIndex":16,"items":[{"name":"광교별나라빅스맘어린이집[아이행복]","tel":"031-216-9579","addr":"경기도 수원시 영통구 하동 1001번지 광교마을40단지 4010동 104호","indutype":"학원 - 유아원","category":"study"}]},{"lat":"37.290398393","long":"127.07071526","imageIndex":16,"items":[{"name":"꿈누리유치원[아이행복]","tel":"031-213-2950","addr":"경기도 수원시 영통구 하동 982번지","indutype":"학원 - 유치원","category":"study"}]},{"lat":"37.281152937","long":"127.07231943","imageIndex":16,"items":[{"name":"누리아이어린이집[아이행복]","tel":"031-217-0042","addr":"경기도 수원시 영통구 하동 1027번지 광교레이크파크한양수자인 2301동 103호","indutype":"학원 - 유아원","category":"study"}]},{"lat":"37.280567861","long":"127.07130406","imageIndex":16,"items":[{"name":"레이크파크어린이집[아이행복]","tel":"031-216-7978","addr":"경기도 수원시 영통구 하동 1027번지 광교LAKEPARK한양수자인","indutype":"학원 - 유아원","category":"study"},{"name":"벅스음악교습소","tel":"031-217-2625","addr":"경기도 수원시 영통구 하동 1027번지 광교LAKEPARK한양수자인 상가동 지층 204호","indutype":"학원 - 예·체능계학원","category":"study"}]},{"lat":"37.295318853","long":"127.08368948","imageIndex":16,"items":[{"name":"뮤엠영어광교40단지교습소","tel":"031-212-7776","addr":"경기도 수원시 영통구 하동 1001번지 광교마을40단지 상가 2층 205호","indutype":"학원 - 외국어학원","category":"study"}]},{"lat":"37.292127306","long":"127.07253251","imageIndex":16,"items":[{"name":"뮤엠참누리레이크네스트","tel":"070-4212-8066","addr":"경기도 수원시 영통구 하동 994번지 광교호수마을참누리레이크 3004동 401호","indutype":"학원 - 기타 교육기관","category":"study"},{"name":"햇살나무어린이집[아이행복]","tel":"031-893-6652","addr":"경기도 수원시 영통구 하동 994번지 광교호수마을참누리레이크 3004동 102호","indutype":"학원 - 유아원","category":"study"}]},{"lat":"37.288016018","long":"127.06064276","imageIndex":16,"items":[{"name":"비아이피(B.I.P)","tel":"031-302-5557","addr":"경기도 수원시 영통구 하동 1016번지 광교효성해링턴타워 2층 225호 ,226,227호","indutype":"학원 - 예·체능계학원","category":"study"}]},{"lat":"37.295257367","long":"127.0813323","imageIndex":16,"items":[{"name":"셀파우등생광교드림교실","tel":"031-8013-5558","addr":"경기도 수원시 영통구 하동 1001번지 광교마을40단지 4001동 104호","indutype":"회원제형태 - 학원","category":"study"}]},{"lat":"37.288951345","long":"127.06410556","imageIndex":16,"items":[{"name":"셀파우등생교실62단지교실","tel":"041-565-2060","addr":"경기도 수원시 영통구 하동 1013번지 광교센트럴타운62단지 6206동 1701호","indutype":"회원제형태 - 학원","category":"study"}]},{"lat":"37.291516088","long":"127.06997195","imageIndex":16,"items":[{"name":"수원법원어린이집 예랑원[아이행복]","tel":"031-261-7930","addr":"경기도 수원시 영통구 하동 980번지","indutype":"학원 - 유아원","category":"study"}]},{"lat":"37.289510673","long":"127.06275275","imageIndex":16,"items":[{"name":"수학여우 C2M에듀","tel":"031-225-5978","addr":"경기도 수원시 영통구 하동 1013번지 광교센트럴타운62단지 6202동 702호","indutype":"학원 - 기타 교육기관","category":"study"}]},{"lat":"37.292237642","long":"127.06866438","imageIndex":16,"items":[{"name":"수학의품격학원","tel":"031-214-3700","addr":"경기도 수원시 영통구 하동 984번지 302호","indutype":"학원 - 보습학원","category":"study"},{"name":"영어의품격학원","tel":"031-214-3702","addr":"경기도 수원시 영통구 하동 984번지 303호","indutype":"학원 - 외국어학원","category":"study"}]},{"lat":"37.285121765","long":"127.06453097","imageIndex":16,"items":[{"name":"시립힐스광교어린이집[아이행복]","tel":"031-211-9686","addr":"경기도 수원시 영통구 하동 1021번지 힐스테이트광교","indutype":"학원 - 유아원","category":"study"},{"name":"엠에스피","tel":"","addr":"경기도 수원시 영통구 하동 1021번지 힐스테이트광교 102동 1102호","indutype":"학원 - 기타 교육기관","category":"study"}]},{"lat":"37.289176886","long":"127.06355316","imageIndex":16,"items":[{"name":"썬(SUN)어린이집[아이행복]","tel":"031-214-6201","addr":"경기도 수원시 영통구 하동 1013번지 광교센트럴타운62단지","indutype":"학원 - 유아원","category":"study"}]},{"lat":"37.295803869","long":"127.0859118","imageIndex":16,"items":[{"name":"에코비아이미소어린이집[아이행복]","tel":"031-307-6953","addr":"경기도 수원시 영통구 하동 1001번지 광교마을40단지 4008동 104호","indutype":"학원 - 유아원","category":"study"}]},{"lat":"37.292489041","long":"127.07024348","imageIndex":16,"items":[{"name":"영어시간영어교습소","tel":"03-111-1111","addr":"경기도 수원시 영통구 하동 975-2번지 1층 일부","indutype":"학원 - 외국어학원","category":"study"}]},{"lat":"37.291930782","long":"127.0695776","imageIndex":16,"items":[{"name":"월잉글리쉬","tel":"031-217-5182","addr":"경기도 수원시 영통구 하동 973-5번지 202호","indutype":"학원 - 기타 교육기관","category":"study"}]},{"lat":"37.288365468","long":"127.06451106","imageIndex":16,"items":[{"name":"이글맘 스쿨","tel":"070-7557-6843","addr":"경기도 수원시 영통구 하동 1013번지 광교센트럴타운62단지 6205동 301호","indutype":"회원제형태 - 학원","category":"study"}]},{"lat":"37.292011","long":"127.07111142","imageIndex":16,"items":[{"name":"이의고등학교","tel":"031-280-6523","addr":"경기도 수원시 영통구 하동 977번지","indutype":"학원 - 초중고교육기관","category":"study"},{"name":"이의고등학교_수업료","tel":"031-280-6523","addr":"경기도 수원시 영통구 하동 977번지","indutype":"학원 - 초중고교육기관","category":"study"}]},{"lat":"37.29101107","long":"127.07074964","imageIndex":16,"items":[{"name":"이의중학교","tel":"031-8006-2905","addr":"경기도 수원시 영통구 하동 981번지 이의중학교 1층","indutype":"학원 - 초중고교육기관","category":"study"}]},{"lat":"37.292765216","long":"127.07555552","imageIndex":16,"items":[{"name":"이의초등학교","tel":"031-8006-1874","addr":"경기도 수원시 영통구 하동 993번지 이의초등학교 1층","indutype":"학원 - 초중고교육기관","category":"study"}]},{"lat":"37.295292958","long":"127.08200902","imageIndex":16,"items":[{"name":"잉글리쉬아이","tel":"","addr":"경기도 수원시 영통구 하동 1001번지 광교마을40단지 4016동 304호","indutype":"학원 - 기타 교육기관","category":"study"}]},{"lat":"37.293596581","long":"127.0714963","imageIndex":16,"items":[{"name":"주식회사 더더랩","tel":"070-4457-3774","addr":"경기도 수원시 영통구 하동 960-6번지 1층","indutype":"학원 - 컴퓨터학원","category":"study"}]},{"lat":"37.290424137","long":"127.07292565","imageIndex":16,"items":[{"name":"참누리 어린이집[아이행복]","tel":"031-214-7935","addr":"경기도 수원시 영통구 하동 광교 A21블록 울트라참누리 3008-104호","indutype":"학원 - 유아원","category":"study"}]},{"lat":"37.277407133","long":"127.06797495","imageIndex":16,"items":[{"name":"코니영어교습소","tel":"","addr":"경기도 수원시 영통구 하동 1032번지 광교호반마을21단지 상가동 102호","indutype":"학원 - 외국어학원","category":"study"},{"name":"한울어린이집[아이행복]","tel":"031-215-3633","addr":"경기도 수원시 영통구 하동 1032번지 관리동광교호반마을21단지","indutype":"학원 - 유아원","category":"study"}]},{"lat":"37.29054505","long":"127.06621572","imageIndex":16,"items":[{"name":"해보듬어린이집[아이행복]","tel":"031-214-9929","addr":"경기도 수원시 영통구 하동 988번지","indutype":"학원 - 유아원","category":"study"}]}]