[{"lat":"37.850722949","long":"126.90247457","items":[{"name":"SK신성에너지","tel":"031-958-7153","addr":"경기도 파주시 법원읍 갈곡리 346-5번지","category":"연료판매점 - SK주유소"}]},{"lat":"37.848719409","long":"126.89850065","items":[{"name":"갈곡가마솥보신탕","tel":"031-958-2700","addr":"경기도 파주시 법원읍 갈곡리 358-6번지","category":"일반휴게음식 - 일반한식"}]},{"lat":"37.851748778","long":"126.90103017","items":[{"name":"갈곡민물장어","tel":"031-958-0326","addr":"경기도 파주시 법원읍 갈곡리 335-5번지","category":"일반휴게음식 - 일반한식"}]},{"lat":"37.848141155","long":"126.90715912","items":[{"name":"대흥스틸(주)","tel":"031-959-5585","addr":"경기도 파주시 법원읍 갈곡리 237-2번지","category":"기타 - 기계공구"}]},{"lat":"37.848635816","long":"126.90611319","items":[{"name":"벤자롱스파 울산반구점","tel":"052-296-2233","addr":"경기도 파주시 법원읍 갈곡리 237-7번지","category":"보건위생 - 피부미용실"}]},{"lat":"37.850500299","long":"126.90555401","items":[{"name":"세광공업사","tel":"031-947-0795","addr":"경기도 파주시 법원읍 갈곡리 275-2","category":"기타 - 기계공구"}]},{"lat":"37.848077902","long":"126.89644508","items":[{"name":"엉터리참통생구이법원점","tel":"031-959-9252","addr":"경기도 파주시 법원읍 갈곡리 387-2번지","category":"일반휴게음식 - 일반한식"}]},{"lat":"37.849022906","long":"126.89536434","items":[{"name":"영일산업","tel":"070-4155-0316","addr":"경기도 파주시 법원읍 갈곡리 399-5번지","category":"문화.취미 - 화원"}]},{"lat":"37.851799671","long":"126.90802929","items":[{"name":"오뚜기 농산","tel":"031-922-5330","addr":"경기도 파주시 법원읍 갈곡리 285-1번지","category":"음료식품 - 농·축·수산품"}]},{"lat":"37.846888612","long":"126.89638998","items":[{"name":"주식회사 코리아스마트환경","tel":"02-1644-0809","addr":"경기도 파주시 법원읍 갈곡리 374-1번지","category":"주방용구 - 주방용구"}]},{"lat":"37.851439852","long":"126.90872284","items":[{"name":"주식회사월드팜농업회사법인","tel":"","addr":"경기도 파주시 법원읍 갈곡리 285-3번지","category":"문화.취미 - 문화취미기타"}]},{"lat":"37.84863643","long":"126.90686307","items":[{"name":"파주왕달팽이농장","tel":"","addr":"경기도 파주시 법원읍 갈곡리 237-12","category":"음료식품 - 농·축·수산품"}]},{"lat":"37.857360353","long":"126.91040843","items":[{"name":"퍼피루스","tel":"","addr":"경기도 파주시 법원읍 갈곡리 114-2번지","category":"문화.취미 - 애완동물"}]},{"lat":"37.848390903","long":"126.90411383","items":[{"name":"한양화랑","tel":"031-958-5313","addr":"경기도 파주시 법원읍 갈곡리 351-3","category":"문화.취미 - 화방·표구점"}]},{"lat":"37.85039089","long":"126.90399755","items":[{"name":"행운갈비","tel":"031-958-9698","addr":"경기도 파주시 법원읍 갈곡리 349번지","category":"일반휴게음식 - 일반한식"}]}]