[{"lat":"37.696358036","long":"127.12745862","imageIndex":4,"items":[{"name":"고수","tel":"031-111-1111","addr":"경기도 남양주시 별내면 광전리 236-5번지","indutype":"일반휴게음식 - 일반한식","category":"restaurant"}]},{"lat":"37.695051558","long":"127.1275358","imageIndex":4,"items":[{"name":"광릉불고기(별내점)","tel":"031-572-0689","addr":"경기도 남양주시 별내면 광전리 234-2","indutype":"일반휴게음식 - 일반한식","category":"restaurant"}]},{"lat":"37.696079172","long":"127.11817192","imageIndex":4,"items":[{"name":"꽃다지쌈밥","tel":"031-527-2230","addr":"경기도 남양주시 별내면 광전리 산87-3번지","indutype":"일반휴게음식 - 일반한식","category":"restaurant"}]},{"lat":"37.699965597","long":"127.12389284","imageIndex":4,"items":[{"name":"대가돈까스","tel":"031-529-5337","addr":"경기도 남양주시 별내면 광전리 101-1번지 1층","indutype":"일반휴게음식 - 일반한식","category":"restaurant"}]},{"lat":"37.695961025","long":"127.12801354","imageIndex":4,"items":[{"name":"망고스","tel":"031-852-3445","addr":"경기도 남양주시 별내면 광전리 236-1번지","indutype":"일반휴게음식 - 일반한식","category":"restaurant"}]},{"lat":"37.69774704","long":"127.12600958","imageIndex":4,"items":[{"name":"맷돌순두부","tel":"031-529-9298","addr":"경기도 남양주시 별내면 광전리 181-2번지","indutype":"일반휴게음식 - 일반한식","category":"restaurant"}]},{"lat":"37.69935208","long":"127.12473093","imageIndex":4,"items":[{"name":"먹골두부촌","tel":"031-528-9296","addr":"경기도 남양주시 별내면 광전리 177-3번지","indutype":"일반휴게음식 - 일반한식","category":"restaurant"}]},{"lat":"37.693273696","long":"127.13031066","imageIndex":4,"items":[{"name":"뫼아리 소머리국밥","tel":"02-0000-0000","addr":"경기도 남양주시 별내면 광전리 255번지","indutype":"일반휴게음식 - 일반한식","category":"restaurant"}]},{"lat":"37.678024187","long":"127.13503426","imageIndex":4,"items":[{"name":"배밭집","tel":"031-529-3503","addr":"경기도 남양주시 별내면 광전리 580번지","indutype":"일반휴게음식 - 일반한식","category":"restaurant"}]},{"lat":"37.700191","long":"127.12373446","imageIndex":4,"items":[{"name":"왕뼈해장국","tel":"031-527-9444","addr":"경기도 남양주시 별내면 광전리 102-11번지 1층","indutype":"일반휴게음식 - 일반한식","category":"restaurant"}]},{"lat":"37.699045777","long":"127.12470775","imageIndex":4,"items":[{"name":"전설애한우국밥","tel":"031-573-6989","addr":"경기도 남양주시 별내면 광전리 176-1번지 1층","indutype":"일반휴게음식 - 일반한식","category":"restaurant"}]},{"lat":"37.696440409","long":"127.12623419","imageIndex":4,"items":[{"name":"착한낙지마을","tel":"031-529-8711","addr":"경기도 남양주시 별내면 광전리 220-3번지","indutype":"일반휴게음식 - 일반한식","category":"restaurant"}]},{"lat":"37.675610932","long":"127.13383976","imageIndex":4,"items":[{"name":"초계면옥","tel":"031-571-9502","addr":"경기도 남양주시 별내면 광전리 587-3번지 1층","indutype":"일반휴게음식 - 일반한식","category":"restaurant"}]},{"lat":"37.698522421","long":"127.12547794","imageIndex":4,"items":[{"name":"추오정남원추어탕(별내점)","tel":"031-573-1977","addr":"경기도 남양주시 별내면 광전리 177-9번지 1층","indutype":"일반휴게음식 - 일반한식","category":"restaurant"}]},{"lat":"37.699216854","long":"127.12481008","imageIndex":4,"items":[{"name":"카페보리","tel":"031-527-8457","addr":"경기도 남양주시 별내면 광전리 177-12번지 1층","indutype":"일반휴게음식 - 일반한식","category":"restaurant"}]},{"lat":"37.704632121","long":"127.13279084","imageIndex":4,"items":[{"name":"카페에코","tel":"070-6356-4440","addr":"경기도 남양주시 별내면 광전리 1번지 수영장 주건축물 4동 1층","indutype":"일반휴게음식 - 서양음식","category":"restaurant"}]},{"lat":"37.694852999","long":"127.12786428","imageIndex":4,"items":[{"name":"큰바다","tel":"031-527-5896","addr":"경기도 남양주시 별내면 광전리 232-6번지 외1필지","indutype":"일반휴게음식 - 일반한식","category":"restaurant"}]},{"lat":"37.685052268","long":"127.13453657","imageIndex":4,"items":[{"name":"태능맥갈비 신관 제미주식회사","tel":"031-527-5275","addr":"경기도 남양주시 별내면 광전리 370-5번지","indutype":"일반휴게음식 - 일반한식","category":"restaurant"}]},{"lat":"37.685412842","long":"127.13436715","imageIndex":4,"items":[{"name":"태능맥갈비/맥갈비 제미주식회사","tel":"031-527-8800","addr":"경기도 남양주시 별내면 광전리 333-7번지","indutype":"일반휴게음식 - 일반한식","category":"restaurant"}]},{"lat":"37.687026547","long":"127.1334857","imageIndex":4,"items":[{"name":"투테일스","tel":"031-527-2053","addr":"경기도 남양주시 별내면 광전리 329-4번지","indutype":"일반휴게음식 - 서양음식","category":"restaurant"}]},{"lat":"37.698080714","long":"127.12570399","imageIndex":4,"items":[{"name":"향촌왕만두칼국수","tel":"031-528-0830","addr":"경기도 남양주시 별내면 광전리 182-6번지","indutype":"일반휴게음식 - 일반한식","category":"restaurant"}]},{"lat":"37.675441251","long":"127.13247922","imageIndex":4,"items":[{"name":"호림농원","tel":"031-527-8346","addr":"경기도 남양주시 별내면 광전리 613-1번지","indutype":"일반휴게음식 - 일반한식","category":"restaurant"}]}]