[{"lat":"38.02559008","long":"127.0685628","imageIndex":17,"items":[{"name":"(주)모바일프라자","tel":"031-833-3010","addr":"경기도 연천군 전곡읍 전곡리 464-11번지","indutype":"사무통신 - 통신기기","category":"other"}]},{"lat":"38.01072693","long":"127.0650311","imageIndex":17,"items":[{"name":"(주)케이비글로벌미디어","tel":"02-1644-1758","addr":"경기도 연천군 전곡읍 전곡리 169-1번지 나동 103호","indutype":"용역 서비스 - 기타용역서비스","category":"other"}]},{"lat":"38.01314829","long":"127.0688706","imageIndex":17,"items":[{"name":"1.2.3.보일러","tel":"031-835-9000","addr":"경기도 연천군 전곡읍 전곡리 159번지","indutype":"건축자재 - 보일러·펌프·샷시","category":"other"},{"name":"동현창호","tel":"031-835-7370","addr":"경기도 연천군 전곡읍 전곡리 159번지","indutype":"건축자재 - 기타건축자재","category":"other"}]},{"lat":"38.0260045","long":"127.0685632","imageIndex":17,"items":[{"name":"1004","tel":"070-4195-0410","addr":"경기도 연천군 전곡읍 전곡리 462-39","indutype":"의류 - 정장","category":"other"},{"name":"땡큐보세","tel":"031-832-6341","addr":"경기도 연천군 전곡읍 전곡리 462-39번지","indutype":"의류 - 정장","category":"other"}]},{"lat":"38.02331017","long":"127.06962","imageIndex":17,"items":[{"name":"38모터스","tel":"031-832-0304","addr":"경기도 연천군 전곡읍 전곡리 312-44번지","indutype":"수리서비스 - 레져용품수리","category":"other"}]},{"lat":"38.02708624","long":"127.0673911","imageIndex":17,"items":[{"name":"B.Y.C 전곡점","tel":"031-835-6757","addr":"경기도 연천군 전곡읍 전곡리 480-19","indutype":"레져용품 - 스포츠·레져용품","category":"other"},{"name":"이브자리커텐","tel":"031-832-5533","addr":"경기도 연천군 전곡읍 전곡리 480-19","indutype":"직물 - 침구·수예점","category":"other"}]},{"lat":"38.02759021","long":"127.068371","imageIndex":17,"items":[{"name":"Big(수빅)","tel":"031-832-6287","addr":"경기도 연천군 전곡읍 전곡리 459-3번지","indutype":"직물 - 침구·수예점","category":"other"}]},{"lat":"38.02625731","long":"127.0675612","imageIndex":17,"items":[{"name":"GS25연천전곡점","tel":"","addr":"경기도 연천군 전곡읍 전곡리 480-30번지","indutype":"유통업 영리 - 편 의 점","category":"other"}]},{"lat":"38.01997656","long":"127.0700269","imageIndex":17,"items":[{"name":"GS25전곡조흥점","tel":"","addr":"경기도 연천군 전곡읍 전곡리 268-10번지","indutype":"유통업 영리 - 편 의 점","category":"other"}]},{"lat":"38.02500431","long":"127.0688698","imageIndex":17,"items":[{"name":"GS25전곡중앙점","tel":"","addr":"경기도 연천군 전곡읍 전곡리 468-3번지","indutype":"유통업 영리 - 편 의 점","category":"other"},{"name":"세븐일레븐전곡중앙점","tel":"","addr":"경기도 연천군 전곡읍 전곡리 468-3번지","indutype":"유통업 영리 - 편 의 점","category":"other"}]},{"lat":"38.02553543","long":"127.0696106","imageIndex":17,"items":[{"name":"H Fitness","tel":"070-8111-3307","addr":"경기도 연천군 전곡읍 전곡리 333-32","indutype":"회원제형태 - 레져업소","category":"other"}]},{"lat":"38.02264506","long":"127.0668064","imageIndex":17,"items":[{"name":"가전유통114경기북부재활용","tel":"031-833-4114","addr":"경기도 연천군 전곡읍 전곡리 293-4번지","indutype":"전기제품 - 가전제품","category":"other"}]},{"lat":"38.02700571","long":"127.066366","imageIndex":17,"items":[{"name":"감각인테리어","tel":"031-835-3396","addr":"경기도 연천군 전곡읍 전곡리 483-21번지","indutype":"건축자재 - 인테리어전문","category":"other"}]},{"lat":"38.02430981","long":"127.0702814","imageIndex":17,"items":[{"name":"갑진목재,건재","tel":"031-835-4242","addr":"경기도 연천군 전곡읍 전곡리 333-12","indutype":"건축자재 - 목재·석재·철물","category":"other"}]},{"lat":"38.0127881","long":"127.0685628","imageIndex":17,"items":[{"name":"강남태양열","tel":"031-832-9114","addr":"경기도 연천군 전곡읍 전곡리 159-15번지","indutype":"건축자재 - 보일러·펌프·샷시","category":"other"}]},{"lat":"38.02864495","long":"127.0671419","imageIndex":17,"items":[{"name":"강원건축설비","tel":"031-832-3051","addr":"경기도 연천군 전곡읍 전곡리 457-33","indutype":"수리서비스 - 가정용품수리","category":"other"}]},{"lat":"38.02169898","long":"127.0670333","imageIndex":17,"items":[{"name":"갤러리패널","tel":"031-833-1920","addr":"경기도 연천군 전곡읍 전곡리 296번지","indutype":"건축자재 - 기타건축자재","category":"other"},{"name":"국인식물원","tel":"031-835-8820","addr":"경기도 연천군 전곡읍 전곡리 296번지","indutype":"문화.취미 - 화원","category":"other"},{"name":"다솔농원","tel":"","addr":"경기도 연천군 전곡읍 전곡리 296번지","indutype":"문화.취미 - 화원","category":"other"}]},{"lat":"38.02178663","long":"127.071361","imageIndex":17,"items":[{"name":"거북표씽크","tel":"031-832-5752","addr":"경기도 연천군 전곡읍 전곡리 315-22번지","indutype":"주방용구 - 주방용구","category":"other"},{"name":"티에이치상사","tel":"070-4227-7237","addr":"경기도 연천군 전곡읍 전곡리 315-22번지 2층","indutype":"서적문구 - 과학기자재","category":"other"}]},{"lat":"38.02812237","long":"127.0672325","imageIndex":17,"items":[{"name":"거성종합철물","tel":"031-833-4545","addr":"경기도 연천군 전곡읍 전곡리 458-5번지","indutype":"건축자재 - 목재·석재·철물","category":"other"}]},{"lat":"38.02641958","long":"127.0673677","imageIndex":17,"items":[{"name":"겨자씨","tel":"031-832-3055","addr":"경기도 연천군 전곡읍 전곡리 480-28번지","indutype":"의류 - 정장","category":"other"}]},{"lat":"38.02739206","long":"127.0682797","imageIndex":17,"items":[{"name":"경동상회","tel":"031-832-2162","addr":"경기도 연천군 전곡읍 전곡리 459-54번지","indutype":"주방용구 - 주방용식기","category":"other"}]},{"lat":"38.02281416","long":"127.0705078","imageIndex":17,"items":[{"name":"경동철물","tel":"031-832-3391","addr":"경기도 연천군 전곡읍 전곡리 312-34","indutype":"기타 - 기계공구","category":"other"}]},{"lat":"38.03031115","long":"127.0680317","imageIndex":17,"items":[{"name":"계양철물","tel":"031-832-4252","addr":"경기도 연천군 전곡읍 전곡리 449-7번지","indutype":"건축자재 - 목재·석재·철물","category":"other"}]},{"lat":"38.02689682","long":"127.0678123","imageIndex":17,"items":[{"name":"광명당","tel":"031-832-2936","addr":"경기도 연천군 전곡읍 전곡리 479-46번지","indutype":"신변잡화 - 시계","category":"other"},{"name":"광명당","tel":"031-832-2936","addr":"경기도 연천군 전곡읍 전곡리 479-46번지","indutype":"신변잡화 - 시계","category":"other"}]},{"lat":"38.02025618","long":"127.0694464","imageIndex":17,"items":[{"name":"교석서점","tel":"031-832-2405","addr":"경기도 연천군 전곡읍 전곡리 263번지","indutype":"서적문구 - 일반서적","category":"other"}]},{"lat":"38.02972563","long":"127.0678945","imageIndex":17,"items":[{"name":"국인플라워","tel":"031-835-8820","addr":"경기도 연천군 전곡읍 전곡리 450-1번지 전곡450빌딩 103호","indutype":"문화.취미 - 민예·공예품","category":"other"}]},{"lat":"38.03147967","long":"127.0726685","imageIndex":17,"items":[{"name":"귀뚜라미보일러서비스","tel":"","addr":"경기도 연천군 전곡읍 전곡리 414-16번지 2층 202호","indutype":"수리서비스 - 기타수리서비스","category":"other"}]},{"lat":"38.02775288","long":"127.0674486","imageIndex":17,"items":[{"name":"귀빈식물원","tel":"031-832-2391","addr":"경기도 연천군 전곡읍 전곡리 458-2번지 태성빌딩 1층","indutype":"문화.취미 - 화원","category":"other"}]},{"lat":"38.02817624","long":"127.0675857","imageIndex":17,"items":[{"name":"금성부동산공인중개사사무소","tel":"031-832-2434","addr":"경기도 연천군 전곡읍 전곡리 455-76번지","indutype":"용역 서비스 - 부동산 중개·임대","category":"other"},{"name":"행복한 꽃집","tel":"031-832-6800","addr":"경기도 연천군 전곡읍 전곡리 455-76번지","indutype":"문화.취미 - 화원","category":"other"}]},{"lat":"38.02728382","long":"127.0685074","imageIndex":17,"items":[{"name":"금은당","tel":"031-832-4948","addr":"경기도 연천군 전곡읍 전곡리 459-4번지","indutype":"신변잡화 - 귀금속","category":"other"}]},{"lat":"38.02075885","long":"127.0726128","imageIndex":17,"items":[{"name":"김삼중 프로샵","tel":"031-832-7575","addr":"경기도 연천군 전곡읍 전곡리 253-3번지","indutype":"레져용품 - 스포츠·레져용품","category":"other"},{"name":"전곡현대볼링센타","tel":"031-832-7575","addr":"경기도 연천군 전곡읍 전곡리 253-3","indutype":"레져용품 - 스포츠·레져용품","category":"other"}]},{"lat":"38.02772623","long":"127.0667538","imageIndex":17,"items":[{"name":"꽃나라화원","tel":"031-832-0223","addr":"경기도 연천군 전곡읍 전곡리 483-147","indutype":"문화.취미 - 화원","category":"other"},{"name":"한일침구","tel":"031-832-1938","addr":"경기도 연천군 전곡읍 전곡리 483-147번지 대양빌딩 1층","indutype":"직물 - 침구·수예점","category":"other"}]},{"lat":"38.01892052","long":"127.0733968","imageIndex":17,"items":[{"name":"나눔중고재활용센터","tel":"031-835-7218","addr":"경기도 연천군 전곡읍 전곡리 246-6번지","indutype":"전기제품 - 가전제품","category":"other"}]},{"lat":"38.02261579","long":"127.0708151","imageIndex":17,"items":[{"name":"나무랑놀자","tel":"031-835-6633","addr":"경기도 연천군 전곡읍 전곡리 315-36번지","indutype":"문화.취미 - 화원","category":"other"}]},{"lat":"38.02448158","long":"127.0692224","imageIndex":17,"items":[{"name":"날개","tel":"02-1522-9926","addr":"경기도 연천군 전곡읍 전곡리 335-10번지","indutype":"의류 - 기타의류","category":"other"}]},{"lat":"38.02467111","long":"127.068619","imageIndex":17,"items":[{"name":"내가방","tel":"031-833-3489","addr":"경기도 연천군 전곡읍 전곡리 469-36번지","indutype":"신변잡화 - 가방","category":"other"}]},{"lat":"38.01525563","long":"127.0702845","imageIndex":17,"items":[{"name":"노리공장","tel":"070-4239-4243","addr":"경기도 연천군 전곡읍 전곡리 232-19번지 103호","indutype":"서적문구 - 완구점","category":"other"}]},{"lat":"38.02284169","long":"127.0696423","imageIndex":17,"items":[{"name":"노리터","tel":"","addr":"경기도 연천군 전곡읍 전곡리 312-15번지","indutype":"의류 - 정장","category":"other"},{"name":"미리네","tel":"","addr":"경기도 연천군 전곡읍 전곡리 312-15번지 나동","indutype":"의류 - 정장","category":"other"}]},{"lat":"38.02842809","long":"127.0683148","imageIndex":17,"items":[{"name":"느루 공방 & 아쿠아","tel":"031-898-7455","addr":"경기도 연천군 전곡읍 전곡리 455-41번지 2층","indutype":"문화.취미 - 문화취미기타","category":"other"}]},{"lat":"38.02253476","long":"127.070724","imageIndex":17,"items":[{"name":"늑대와여우컴퓨터(전곡점)","tel":"031-833-0011","addr":"경기도 연천군 전곡읍 전곡리 315-12번지 2호","indutype":"사무통신 - 컴퓨터","category":"other"}]},{"lat":"38.02809492","long":"127.068007","imageIndex":17,"items":[{"name":"다빈치공방","tel":"031-832-2810","addr":"경기도 연천군 전곡읍 전곡리 455-64번지","indutype":"신변잡화 - 액세서리","category":"other"}]},{"lat":"38.01976097","long":"127.0689221","imageIndex":17,"items":[{"name":"다솔건업","tel":"031-835-9101","addr":"경기도 연천군 전곡읍 전곡리 276-9번지 2동 1호","indutype":"건축자재 - 기타건축자재","category":"other"}]},{"lat":"38.02542825","long":"127.0679477","imageIndex":17,"items":[{"name":"다이소 전곡점","tel":"031-833-8884","addr":"경기도 연천군 전곡읍 전곡리 469-19번지 외4필지","indutype":"신변잡화 - 기타잡화","category":"other"}]},{"lat":"38.0269779","long":"127.0678124","imageIndex":17,"items":[{"name":"대동상회","tel":"031-832-2226","addr":"경기도 연천군 전곡읍 전곡리 479-45번지","indutype":"의류 - 정장","category":"other"}]},{"lat":"38.01722857","long":"127.0703888","imageIndex":17,"items":[{"name":"대박","tel":"031-832-2772","addr":"경기도 연천군 전곡읍 전곡리 704번지 휴먼시아 112동 205호","indutype":"기타 - 기계공구","category":"other"}]},{"lat":"38.02533868","long":"127.0670023","imageIndex":17,"items":[{"name":"대영 기획","tel":"031-832-3456","addr":"경기도 연천군 전곡읍 전곡리 483-42번지 2층","indutype":"전기제품 - 기타전기제품","category":"other"}]},{"lat":"38.0222015","long":"127.070587","imageIndex":17,"items":[{"name":"대원모타","tel":"031-832-3117","addr":"경기도 연천군 전곡읍 전곡리 314-14번지","indutype":"수리서비스 - 기타수리서비스","category":"other"}]},{"lat":"38.02617583","long":"127.0682786","imageIndex":17,"items":[{"name":"대한사","tel":"031-832-2034","addr":"경기도 연천군 전곡읍 전곡리 462-16번지","indutype":"건축자재 - 조명기구","category":"other"},{"name":"윈덤골프웨어","tel":"070-8256-8011","addr":"경기도 연천군 전곡읍 전곡리 462-16번지 202호","indutype":"의류 - 정장","category":"other"}]},{"lat":"38.02345158","long":"127.0742781","imageIndex":17,"items":[{"name":"대호펌프카","tel":"031-832-0528","addr":"경기도 연천군 전곡읍 전곡리 325-85","indutype":"기타 - 기계공구","category":"other"}]},{"lat":"38.02367045","long":"127.0697797","imageIndex":17,"items":[{"name":"데시앙","tel":"031-835-0193","addr":"경기도 연천군 전곡읍 전곡리 308-2","indutype":"의류 - 정장","category":"other"},{"name":"백두어패럴","tel":"031-833-5428","addr":"경기도 연천군 전곡읍 전곡리 308-2번지","indutype":"의류 - 스포츠의류","category":"other"}]},{"lat":"38.02536499","long":"127.0683121","imageIndex":17,"items":[{"name":"도움사","tel":"031-832-4327","addr":"경기도 연천군 전곡읍 전곡리 336-93","indutype":"용역 서비스 - 기타용역서비스","category":"other"}]},{"lat":"38.02748285","long":"127.0670042","imageIndex":17,"items":[{"name":"동아빌딩","tel":"031-832-3580","addr":"경기도 연천군 전곡읍 전곡리 483-68번지","indutype":"용역 서비스 - 부동산 중개·임대","category":"other"}]},{"lat":"38.02653659","long":"127.0675614","imageIndex":17,"items":[{"name":"동원상회","tel":"031-832-2272","addr":"경기도 연천군 전곡읍 전곡리 480-26","indutype":"농업 - 기타농업관련","category":"other"}]},{"lat":"38.02603138","long":"127.0688138","imageIndex":17,"items":[{"name":"두날개 배드민턴샵","tel":"031-832-5045","addr":"경기도 연천군 전곡읍 전곡리 462-33번지","indutype":"레져용품 - 스포츠·레져용품","category":"other"}]},{"lat":"38.02333894","long":"127.0664767","imageIndex":17,"items":[{"name":"디아이디 하우징(DID Housing)","tel":"","addr":"경기도 연천군 전곡읍 전곡리 293-14번지 2동3호","indutype":"건축자재 - 인테리어전문","category":"other"},{"name":"엄기철세무회계사무소","tel":"031-833-8855","addr":"경기도 연천군 전곡읍 전곡리 293-14번지","indutype":"용역 서비스 - 법률회계서비스(개인)","category":"other"},{"name":"전곡종합인테리어","tel":"031-832-8874","addr":"경기도 연천군 전곡읍 전곡리 293-14번지","indutype":"건축자재 - 인테리어전문","category":"other"}]},{"lat":"38.02728364","long":"127.0688377","imageIndex":17,"items":[{"name":"디자이너 옷수선","tel":"031-833-3285","addr":"경기도 연천군 전곡읍 전곡리 333-160번지","indutype":"수리서비스 - 세탁소","category":"other"},{"name":"디자이너옷수선실","tel":"031-833-3285","addr":"경기도 연천군 전곡읍 전곡리 333-160 외1필지","indutype":"수리서비스 - 세탁소","category":"other"}]},{"lat":"38.01997824","long":"127.0670318","imageIndex":17,"items":[{"name":"라블리스","tel":"","addr":"경기도 연천군 전곡읍 전곡리 276번지","indutype":"의류 - 정장","category":"other"},{"name":"에봇","tel":"070-4101-8333","addr":"경기도 연천군 전곡읍 전곡리 276번지 전곡농협하나로마트내","indutype":"의류 - 기타의류","category":"other"},{"name":"크린토피아","tel":"031-833-3693","addr":"경기도 연천군 전곡읍 전곡리 276번지","indutype":"수리서비스 - 세탁소","category":"other"}]},{"lat":"38.0232852","long":"127.0658958","imageIndex":17,"items":[{"name":"로뎀건설","tel":"031-835-7041","addr":"경기도 연천군 전곡읍 전곡리 293번지","indutype":"용역 서비스 - 기타용역서비스","category":"other"}]},{"lat":"38.02592432","long":"127.0669231","imageIndex":17,"items":[{"name":"로뎀렌탈총판","tel":"","addr":"경기도 연천군 전곡읍 전곡리 483-111번지 2층","indutype":"전기제품 - 가전제품","category":"other"}]},{"lat":"38.0249791","long":"127.0655556","imageIndex":17,"items":[{"name":"로이코리아","tel":"01-696-5047","addr":"경기도 연천군 전곡읍 전곡리 487-8번지","indutype":"신변잡화 - 기념품점","category":"other"}]},{"lat":"38.02625658","long":"127.0688709","imageIndex":17,"items":[{"name":"루나팻션","tel":"031-832-4843","addr":"경기도 연천군 전곡읍 전곡리 462-29","indutype":"의류 - 양품점","category":"other"},{"name":"청담동에스테틱","tel":"031-832-1601","addr":"경기도 연천군 전곡읍 전곡리 462-29","indutype":"회원제형태 - 기타4","category":"other"}]},{"lat":"38.02642787","long":"127.0686661","imageIndex":17,"items":[{"name":"리아퀼트","tel":"070-4231-0153","addr":"경기도 연천군 전곡읍 전곡리 462-32번지","indutype":"직물 - 침구·수예점","category":"other"},{"name":"서울양화점","tel":"031-835-1895","addr":"경기도 연천군 전곡읍 전곡리 462-32","indutype":"신변잡화 - 제화","category":"other"}]},{"lat":"38.02842643","long":"127.0712305","imageIndex":17,"items":[{"name":"매일혼수방","tel":"031-832-3623","addr":"경기도 연천군 전곡읍 전곡리 353-23번지","indutype":"직물 - 침구·수예점","category":"other"}]},{"lat":"38.02864299","long":"127.0706385","imageIndex":17,"items":[{"name":"메리미키","tel":"031-832-2688","addr":"경기도 연천군 전곡읍 전곡리 343-35번지","indutype":"회원제형태 - 기타1","category":"other"}]},{"lat":"38.03417276","long":"127.0737304","imageIndex":17,"items":[{"name":"명동의류","tel":"031-833-3284","addr":"경기도 연천군 전곡읍 전곡리 430-15","indutype":"의류 - 정장","category":"other"}]},{"lat":"38.02242725","long":"127.0696761","imageIndex":17,"items":[{"name":"모일세탁소","tel":"031-835-0454","addr":"경기도 연천군 전곡읍 전곡리 316-3번지","indutype":"수리서비스 - 세탁소","category":"other"}]},{"lat":"38.02450919","long":"127.0681974","imageIndex":17,"items":[{"name":"무자크전곡점","tel":"031-832-3595","addr":"경기도 연천군 전곡읍 전곡리 471-4번지","indutype":"의류 - 스포츠의류","category":"other"}]},{"lat":"38.011428","long":"127.0680606","imageIndex":17,"items":[{"name":"미래종합중기","tel":"031-878-3556","addr":"경기도 연천군 전곡읍 전곡리 162-1번지","indutype":"기타 - 기계공구","category":"other"},{"name":"백호건설중기","tel":"031-832-8189","addr":"경기도 연천군 전곡읍 전곡리 162-1번지","indutype":"기타 - 기계공구","category":"other"},{"name":"백호건설중기","tel":"031-832-8189","addr":"경기도 연천군 전곡읍 전곡리 162-1번지","indutype":"기타 - 기계공구","category":"other"},{"name":"주식회사 그린아트","tel":"031-832-4400","addr":"경기도 연천군 전곡읍 전곡리 162-1번지 1층 일부","indutype":"건축자재 - 인테리어전문","category":"other"}]},{"lat":"38.02622758","long":"127.0722877","imageIndex":17,"items":[{"name":"민우건축","tel":"031-832-2345","addr":"경기도 연천군 전곡읍 전곡리 685번지 석미모닝파크 103호","indutype":"건축자재 - 보일러·펌프·샷시","category":"other"}]},{"lat":"38.02558975","long":"127.0691437","imageIndex":17,"items":[{"name":"바나나홀릭 송월타올","tel":"031-832-8788","addr":"경기도 연천군 전곡읍 전곡리 464-2번지","indutype":"직물 - 옷감·직물","category":"other"}]},{"lat":"38.0273115","long":"127.0673343","imageIndex":17,"items":[{"name":"백금당","tel":"031-832-2507","addr":"경기도 연천군 전곡읍 전곡리 480-11번지","indutype":"신변잡화 - 시계","category":"other"}]},{"lat":"38.02428286","long":"127.0701447","imageIndex":17,"items":[{"name":"백화세탁소","tel":"031-832-8454","addr":"경기도 연천군 전곡읍 전곡리 306-2번지","indutype":"수리서비스 - 세탁소","category":"other"}]},{"lat":"38.02420225","long":"127.0693133","imageIndex":17,"items":[{"name":"법무사이재홍사무소","tel":"031-832-5353","addr":"경기도 연천군 전곡읍 전곡리 335-17번지","indutype":"용역 서비스 - 법률회계서비스(개인)","category":"other"},{"name":"예진","tel":"","addr":"경기도 연천군 전곡읍 전곡리 335-17번지 1층","indutype":"사무통신 - 통신기기","category":"other"}]},{"lat":"38.02584284","long":"127.0676406","imageIndex":17,"items":[{"name":"보디가드","tel":"031-832-3503","addr":"경기도 연천군 전곡읍 전곡리 477-3번지","indutype":"레져용품 - 스포츠·레져용품","category":"other"}]},{"lat":"38.02642802","long":"127.0683928","imageIndex":17,"items":[{"name":"보세타운","tel":"031-832-3964","addr":"경기도 연천군 전곡읍 전곡리 462-9번지","indutype":"신변잡화 - 신발","category":"other"},{"name":"시즌","tel":"","addr":"경기도 연천군 전곡읍 전곡리 462-9번지","indutype":"의류 - 정장","category":"other"}]},{"lat":"38.03148049","long":"127.0712789","imageIndex":17,"items":[{"name":"부남세탁소","tel":"031-835-0874","addr":"경기도 연천군 전곡읍 전곡리 386-10","indutype":"수리서비스 - 세탁소","category":"other"}]},{"lat":"38.02597732","long":"127.0688365","imageIndex":17,"items":[{"name":"부루다 양품점","tel":"031-832-5045","addr":"경기도 연천군 전곡읍 전곡리 336-94번지","indutype":"의류 - 아동의류","category":"other"}]},{"lat":"38.02956349","long":"127.0678602","imageIndex":17,"items":[{"name":"부영지물포","tel":"031-832-0283","addr":"경기도 연천군 전곡읍 전곡리 456-35번지","indutype":"직물 - 카페트,커튼,천막,지물","category":"other"}]},{"lat":"38.02567148","long":"127.0679821","imageIndex":17,"items":[{"name":"블루텔전곡점","tel":"070-8704-4111","addr":"경기도 연천군 전곡읍 전곡리 466-3번지 외1필지","indutype":"사무통신 - 통신기기","category":"other"}]},{"lat":"38.02425657","long":"127.068835","imageIndex":17,"items":[{"name":"사랑동물병원","tel":"031-833-7773","addr":"경기도 연천군 전곡읍 전곡리 305-16번지","indutype":"문화.취미 - 애완동물","category":"other"}]},{"lat":"38.02261657","long":"127.0694485","imageIndex":17,"items":[{"name":"산돌바이오","tel":"031-832-2437","addr":"경기도 연천군 전곡읍 전곡리 300-17번지","indutype":"농업 - 비료,사료,종자","category":"other"}]},{"lat":"38.02789658","long":"127.0682574","imageIndex":17,"items":[{"name":"삼성당","tel":"031-832-2069","addr":"경기도 연천군 전곡읍 전곡리 459-35번지","indutype":"신변잡화 - 귀금속","category":"other"}]},{"lat":"38.0255364","long":"127.0678908","imageIndex":17,"items":[{"name":"삼형기획","tel":"031-832-2288","addr":"경기도 연천군 전곡읍 전곡리 466-9번지","indutype":"전기제품 - 기타전기제품","category":"other"}]},{"lat":"38.02836454","long":"127.069169","imageIndex":17,"items":[{"name":"새한 집수리","tel":"031-833-3677","addr":"경기도 연천군 전곡읍 전곡리 454-11","indutype":"건축자재 - 인테리어전문","category":"other"}]},{"lat":"38.02586944","long":"127.0684264","imageIndex":17,"items":[{"name":"서연5이동통신","tel":"070-7809-9110","addr":"경기도 연천군 전곡읍 전곡리 462-20번지","indutype":"사무통신 - 통신기기","category":"other"}]},{"lat":"38.02764411","long":"127.0686444","imageIndex":17,"items":[{"name":"서울상회","tel":"031-832-2361","addr":"경기도 연천군 전곡읍 전곡리 459-62번지","indutype":"주방용구 - 주방용식기","category":"other"}]},{"lat":"38.02181654","long":"127.0662248","imageIndex":17,"items":[{"name":"선진산업","tel":"031-000-0000","addr":"경기도 연천군 전곡읍 전곡리 289-32번지 108호","indutype":"용역 서비스 - 기타용역서비스","category":"other"}]},{"lat":"38.02667239","long":"127.0663429","imageIndex":17,"items":[{"name":"성음 기획","tel":"031-832-0922","addr":"경기도 연천군 전곡읍 전곡리 483-88번지","indutype":"서적문구 - 출판 및 인쇄물","category":"other"}]},{"lat":"38.02789549","long":"127.0701936","imageIndex":17,"items":[{"name":"성진전기","tel":"031-835-1026","addr":"경기도 연천군 전곡읍 전곡리 338-4번지","indutype":"용역 서비스 - 기타용역서비스","category":"other"}]},{"lat":"38.02609387","long":"127.0698389","imageIndex":17,"items":[{"name":"성화조명","tel":"031-832-3284","addr":"경기도 연천군 전곡읍 전곡리 333-255번지","indutype":"건축자재 - 조명기구","category":"other"}]},{"lat":"38.02764473","long":"127.0675282","imageIndex":17,"items":[{"name":"세계통신","tel":"031-832-1016","addr":"경기도 연천군 전곡읍 전곡리 458-4번지 세계통신","indutype":"사무통신 - 통신기기","category":"other"}]},{"lat":"38.02489584","long":"127.0695075","imageIndex":17,"items":[{"name":"세븐일레븐연천전곡점","tel":"031-1577-0711","addr":"경기도 연천군 전곡읍 전곡리 336-81번지","indutype":"유통업 영리 - 편 의 점","category":"other"}]},{"lat":"38.03297558","long":"127.0720093","imageIndex":17,"items":[{"name":"세븐일레븐전곡코아루점","tel":"031-1577-0711","addr":"경기도 연천군 전곡읍 전곡리 426-8번지 1층 좌측","indutype":"유통업 영리 - 편 의 점","category":"other"}]},{"lat":"38.02397765","long":"127.068197","imageIndex":17,"items":[{"name":"세일세일타운","tel":"031-835-0244","addr":"경기도 연천군 전곡읍 전곡리 302-26번지","indutype":"의류 - 정장","category":"other"}]},{"lat":"38.02003855","long":"127.0718946","imageIndex":17,"items":[{"name":"세화전기 주식회사","tel":"031-834-7212","addr":"경기도 연천군 전곡읍 전곡리 266-19번지 KT전곡지점 1층","indutype":"용역 서비스 - 기타용역서비스","category":"other"}]},{"lat":"38.02823053","long":"127.0671415","imageIndex":17,"items":[{"name":"송백장식","tel":"031-832-0774","addr":"경기도 연천군 전곡읍 전곡리 457-2번지","indutype":"직물 - 카페트,커튼,천막,지물","category":"other"},{"name":"탑지물인테리어","tel":"031-832-8341","addr":"경기도 연천군 전곡읍 전곡리 457-2번지","indutype":"직물 - 카페트,커튼,천막,지물","category":"other"}]},{"lat":"38.02578738","long":"127.0701461","imageIndex":17,"items":[{"name":"수레울장애인보호작업장","tel":"031-832-7969","addr":"경기도 연천군 전곡읍 전곡리 333-265번지","indutype":"유통업 영리 - 기타유통업","category":"other"}]},{"lat":"38.02333755","long":"127.069005","imageIndex":17,"items":[{"name":"수전자담배","tel":"070-7198-0490","addr":"경기도 연천군 전곡읍 전곡리 311-9번지","indutype":"기타 - 기타 전문점","category":"other"}]},{"lat":"38.02442825","long":"127.067924","imageIndex":17,"items":[{"name":"슈즈랜드","tel":"031-832-0024","addr":"경기도 연천군 전곡읍 전곡리 302-19번지","indutype":"신변잡화 - 신발","category":"other"}]},{"lat":"38.02422906","long":"127.0697005","imageIndex":17,"items":[{"name":"스마일이동통신","tel":"070-8746-4541","addr":"경기도 연천군 전곡읍 전곡리 306-3번지 제일상가 1층 102호","indutype":"사무통신 - 통신기기","category":"other"},{"name":"연천청년회의소","tel":"031-832-8780","addr":"경기도 연천군 전곡읍 전곡리 306-3번지","indutype":"기타 - 비영리/대상","category":"other"},{"name":"탑공인중개사사무소","tel":"031-833-4988","addr":"경기도 연천군 전곡읍 전곡리 306-3번지 제일상가 101호","indutype":"용역 서비스 - 부동산 중개·임대","category":"other"},{"name":"해성가축(NK CONSULTING)","tel":"031-833-1722","addr":"경기도 연천군 전곡읍 전곡리 306-3번지 제일상가 104호","indutype":"문화.취미 - 애완동물","category":"other"}]},{"lat":"38.02905903","long":"127.0677573","imageIndex":17,"items":[{"name":"스킨매니저","tel":"031-833-5700","addr":"경기도 연천군 전곡읍 전곡리 457-7번지","indutype":"회원제형태 - 기타4","category":"other"}]},{"lat":"38.02269776","long":"127.069255","imageIndex":17,"items":[{"name":"시즌","tel":"031-835-2521","addr":"경기도 연천군 전곡읍 전곡리 300-3번지 1동","indutype":"수리서비스 - 사무·통신기기수리","category":"other"}]},{"lat":"38.02739264","long":"127.0672319","imageIndex":17,"items":[{"name":"신발매니아","tel":"031-833-1849","addr":"경기도 연천군 전곡읍 전곡리 480-41번지","indutype":"레져용품 - 스포츠·레져용품","category":"other"}]},{"lat":"38.03039996","long":"127.0703098","imageIndex":17,"items":[{"name":"신우전자냉동","tel":"031-832-9069","addr":"경기도 연천군 전곡읍 전곡리 348-11번지","indutype":"수리서비스 - 가정용품수리","category":"other"}]},{"lat":"38.0181198","long":"127.0715626","imageIndex":17,"items":[{"name":"신인용법무사사무소","tel":"02-832-1939","addr":"경기도 연천군 전곡읍 전곡리 261-28번지","indutype":"용역 서비스 - 법률회계서비스(개인)","category":"other"}]},{"lat":"38.027978","long":"127.0676424","imageIndex":17,"items":[{"name":"신일전기조명","tel":"031-832-8478","addr":"경기도 연천군 전곡읍 전곡리 455-78번지","indutype":"전기제품 - 기타전기제품","category":"other"},{"name":"신일철물","tel":"031-0000-0000","addr":"경기도 연천군 전곡읍 전곡리 455-78번지 1층","indutype":"건축자재 - 목재·석재·철물","category":"other"}]},{"lat":"38.02433844","long":"127.0674228","imageIndex":17,"items":[{"name":"쌍방울전곡대리점","tel":"031-832-3298","addr":"경기도 연천군 전곡읍 전곡리 485-39번지","indutype":"레져용품 - 스포츠·레져용품","category":"other"}]},{"lat":"38.02370396","long":"127.0740847","imageIndex":17,"items":[{"name":"썬플라워화원","tel":"031-835-9004","addr":"경기도 연천군 전곡읍 전곡리 325-18번지","indutype":"문화.취미 - 화원","category":"other"}]},{"lat":"38.0280316","long":"127.0684739","imageIndex":17,"items":[{"name":"쓰리현's 맘의 아트공방","tel":"070-4225-9439","addr":"경기도 연천군 전곡읍 전곡리 459-20번지","indutype":"신변잡화 - 액세서리","category":"other"}]},{"lat":"38.03158905","long":"127.0705045","imageIndex":17,"items":[{"name":"씨유연천대삼점","tel":"031-832-7800","addr":"경기도 연천군 전곡읍 전곡리 394-4번지","indutype":"유통업 영리 - 편 의 점","category":"other"}]},{"lat":"38.02725724","long":"127.0676987","imageIndex":17,"items":[{"name":"씨유전곡점","tel":"031-832-6189","addr":"경기도 연천군 전곡읍 전곡리 479-22번지","indutype":"유통업 영리 - 편 의 점","category":"other"}]},{"lat":"38.02450887","long":"127.0687555","imageIndex":17,"items":[{"name":"씨유전곡조은점","tel":"031-833-5424","addr":"경기도 연천군 전곡읍 전곡리 335-6번지","indutype":"유통업 영리 - 편 의 점","category":"other"},{"name":"조은","tel":"031-833-5424","addr":"경기도 연천군 전곡읍 전곡리 335-6번지","indutype":"문화.취미 - 애완동물","category":"other"}]},{"lat":"38.02878762","long":"127.0697844","imageIndex":17,"items":[{"name":"씨유전곡한성점","tel":"031-833-2800","addr":"경기도 연천군 전곡읍 전곡리 343-21번지","indutype":"유통업 영리 - 편 의 점","category":"other"}]},{"lat":"38.02523009","long":"127.0678906","imageIndex":17,"items":[{"name":"아디다스코리아","tel":"031-835-1816","addr":"경기도 연천군 전곡읍 전곡리 473-5번지","indutype":"레져용품 - 스포츠·레져용품","category":"other"}]},{"lat":"38.02650889","long":"127.0687801","imageIndex":17,"items":[{"name":"아름당","tel":"031-832-8158","addr":"경기도 연천군 전곡읍 전곡리 462-25번지","indutype":"신변잡화 - 시계","category":"other"},{"name":"여우통신","tel":"070-8239-7534","addr":"경기도 연천군 전곡읍 전곡리 462-25번지","indutype":"사무통신 - 통신기기","category":"other"}]},{"lat":"38.01768808","long":"127.0703209","imageIndex":17,"items":[{"name":"아우라지","tel":"","addr":"경기도 연천군 전곡읍 전곡리 704번지 휴먼시아 113동 5층 504호","indutype":"직물 - 침구·수예점","category":"other"}]},{"lat":"38.02558948","long":"127.069622","imageIndex":17,"items":[{"name":"안나","tel":"031-833-2419","addr":"경기도 연천군 전곡읍 전곡리 333-32번지 나동 104호","indutype":"신변잡화 - 기타잡화","category":"other"}]},{"lat":"38.02428389","long":"127.0683111","imageIndex":17,"items":[{"name":"알로앤루","tel":"031-833-1810","addr":"경기도 연천군 전곡읍 전곡리 304-1번지","indutype":"레져용품 - 스포츠·레져용품","category":"other"},{"name":"컬리수전곡점","tel":"031-832-6278","addr":"경기도 연천군 전곡읍 전곡리 304-1번지","indutype":"레져용품 - 스포츠·레져용품","category":"other"}]},{"lat":"38.02314755","long":"127.070417","imageIndex":17,"items":[{"name":"알파와오메가","tel":"031-835-7287","addr":"경기도 연천군 전곡읍 전곡리 310-4번지 104호","indutype":"신변잡화 - 기타잡화","category":"other"}]},{"lat":"38.01314445","long":"127.0753954","imageIndex":17,"items":[{"name":"애견세상","tel":"031-833-7773","addr":"경기도 연천군 전곡읍 전곡리 66-3번지","indutype":"문화.취미 - 애완동물","category":"other"}]},{"lat":"38.02464383","long":"127.0690859","imageIndex":17,"items":[{"name":"애견세상","tel":"031-833-2213","addr":"경기도 연천군 전곡읍 전곡리 468-24번지 1,층","indutype":"문화.취미 - 애완동물","category":"other"}]},{"lat":"38.02158779","long":"127.0724541","imageIndex":17,"items":[{"name":"에이스CCTV","tel":"","addr":"경기도 연천군 전곡읍 전곡리 320-30번지","indutype":"용역 서비스 - 기타용역서비스","category":"other"}]},{"lat":"38.02653634","long":"127.0680056","imageIndex":17,"items":[{"name":"엠 스토리(M-Story)","tel":"","addr":"경기도 연천군 전곡읍 전곡리 479-4번지 1호","indutype":"의류 - 정장","category":"other"},{"name":"짱(ZZANG)","tel":"031-832-5240","addr":"경기도 연천군 전곡읍 전곡리 479-4번지","indutype":"의류 - 정장","category":"other"}]},{"lat":"38.02517505","long":"127.0696444","imageIndex":17,"items":[{"name":"여우궁디","tel":"031-835-6990","addr":"경기도 연천군 전곡읍 전곡리 336-4","indutype":"의류 - 정장","category":"other"}]},{"lat":"38.0217883","long":"127.0684228","imageIndex":17,"items":[{"name":"연천군건강가정지원센터/아이돌봄","tel":"","addr":"경기도 연천군 전곡읍 전곡리 297-36번지","indutype":"기타 - 비영리/대상","category":"other"}]},{"lat":"38.00873008","long":"127.0586757","imageIndex":17,"items":[{"name":"연천군청","tel":"031-833-0030","addr":"경기도 연천군 전곡읍 전곡리 696-3번지","indutype":"문화.취미 - 티켓","category":"other"}]},{"lat":"38.0067354","long":"127.0659272","imageIndex":17,"items":[{"name":"연천나누미로타리클럽","tel":"031-833-6607","addr":"경기도 연천군 전곡읍 전곡리 122-1번지","indutype":"기타 - 비영리/비대상","category":"other"}]},{"lat":"38.0207262","long":"127.0666453","imageIndex":17,"items":[{"name":"연천라이온스","tel":"031-832-8599","addr":"경기도 연천군 전곡읍 전곡리 296-6번지 연천군새마을마을지회2층","indutype":"기타 - 비영리/비대상","category":"other"},{"name":"연천온골라이온스클럽","tel":"031-832-0059","addr":"경기도 연천군 전곡읍 전곡리 296-6번지","indutype":"기타 - 비영리/비대상","category":"other"}]},{"lat":"38.02014583","long":"127.0732841","imageIndex":17,"items":[{"name":"연천신흥","tel":"031-832-7001","addr":"경기도 연천군 전곡읍 전곡리 254번지","indutype":"농업 - 농기계","category":"other"},{"name":"창수건축","tel":"031-835-4331","addr":"경기도 연천군 전곡읍 전곡리 254번지","indutype":"용역 서비스 - 기타용역서비스","category":"other"}]},{"lat":"38.02442859","long":"127.067309","imageIndex":17,"items":[{"name":"연천재활용센타","tel":"031-832-1448","addr":"경기도 연천군 전곡읍 전곡리 485-14번지","indutype":"전기제품 - 기타전기제품","category":"other"}]},{"lat":"38.02859045","long":"127.0679505","imageIndex":17,"items":[{"name":"영원세탁","tel":"031-833-0900","addr":"경기도 연천군 전곡읍 전곡리 455-53번지","indutype":"수리서비스 - 세탁소","category":"other"}]},{"lat":"38.02559028","long":"127.0681984","imageIndex":17,"items":[{"name":"올리브영 연천전곡점","tel":"031-833-5290","addr":"경기도 연천군 전곡읍 전곡리 336-59번지","indutype":"유통업 영리 - 편 의 점","category":"other"}]},{"lat":"38.02548232","long":"127.067925","imageIndex":17,"items":[{"name":"올리비아로렌전곡점","tel":"031-833-5736","addr":"경기도 연천군 전곡읍 전곡리 336-70","indutype":"레져용품 - 스포츠·레져용품","category":"other"}]},{"lat":"38.02731071","long":"127.068758","imageIndex":17,"items":[{"name":"와이즈텔레콤","tel":"070-8711-2134","addr":"경기도 연천군 전곡읍 전곡리 333-158번지 1층","indutype":"사무통신 - 통신기기","category":"other"}]},{"lat":"38.02461723","long":"127.0683114","imageIndex":17,"items":[{"name":"용사의집","tel":"031-832-8514","addr":"경기도 연천군 전곡읍 전곡리 470-18번지","indutype":"레져용품 - 스포츠·레져용품","category":"other"}]},{"lat":"38.02714896","long":"127.0680062","imageIndex":17,"items":[{"name":"우리 수선집","tel":"031-833-9981","addr":"경기도 연천군 전곡읍 전곡리 479-29번지","indutype":"수리서비스 - 세탁소","category":"other"}]},{"lat":"38.02545516","long":"127.0681755","imageIndex":17,"items":[{"name":"우리세탁빨래방","tel":"031-833-1005","addr":"경기도 연천군 전곡읍 전곡리 336-61번지","indutype":"수리서비스 - 세탁소","category":"other"}]},{"lat":"38.02695054","long":"127.068416","imageIndex":17,"items":[{"name":"우리양품","tel":"031-832-2945","addr":"경기도 연천군 전곡읍 전곡리 460-37번지","indutype":"의류 - 정장","category":"other"}]},{"lat":"38.01740056","long":"127.0689541","imageIndex":17,"items":[{"name":"우리장의운송","tel":"031-862-5021","addr":"경기도 연천군 전곡읍 전곡리 235번지 지층","indutype":"용역 서비스 - 가례서비스업","category":"other"}]},{"lat":"38.02248091","long":"127.0703709","imageIndex":17,"items":[{"name":"우리조명전기","tel":"031-835-8989","addr":"경기도 연천군 전곡읍 전곡리 314-9번지","indutype":"전기제품 - 기타전기제품","category":"other"}]},{"lat":"38.01658771","long":"127.0724722","imageIndex":17,"items":[{"name":"우복종합설비","tel":"031-832-8448","addr":"경기도 연천군 전곡읍 전곡리 239-15번지","indutype":"용역 서비스 - 기타용역서비스","category":"other"}]},{"lat":"38.02325679","long":"127.0684241","imageIndex":17,"items":[{"name":"웰메이드","tel":"031-835-4384","addr":"경기도 연천군 전곡읍 전곡리 302-37번지 성신빌딩","indutype":"의류 - 스포츠의류","category":"other"}]},{"lat":"38.02306451","long":"127.0737538","imageIndex":17,"items":[{"name":"유명기획","tel":"031-832-2731","addr":"경기도 연천군 전곡읍 전곡리 325-7번지 신승빌라 302호","indutype":"전기제품 - 기타전기제품","category":"other"}]},{"lat":"38.02697728","long":"127.0689172","imageIndex":17,"items":[{"name":"이마트24 연천전곡","tel":"","addr":"경기도 연천군 전곡읍 전곡리 333-166번지 2호","indutype":"유통업 영리 - 편 의 점","category":"other"}]},{"lat":"38.02517603","long":"127.0678905","imageIndex":17,"items":[{"name":"이마트24 전곡터미널점","tel":"031-832-2955","addr":"경기도 연천군 전곡읍 전곡리 473-6번지","indutype":"유통업 영리 - 편 의 점","category":"other"}]},{"lat":"38.02692323","long":"127.0689171","imageIndex":17,"items":[{"name":"이쁜옷가게","tel":"031-833-8745","addr":"경기도 연천군 전곡읍 전곡리 333-167","indutype":"의류 - 정장","category":"other"}]},{"lat":"38.02073419","long":"127.0685016","imageIndex":17,"items":[{"name":"이원건철","tel":"031-835-8949","addr":"경기도 연천군 전곡읍 전곡리 276-28","indutype":"건축자재 - 기타건축자재","category":"other"}]},{"lat":"38.02681537","long":"127.0684728","imageIndex":17,"items":[{"name":"일흥지물포","tel":"031-835-0004","addr":"경기도 연천군 전곡읍 전곡리 460-6번지","indutype":"직물 - 카페트,커튼,천막,지물","category":"other"}]},{"lat":"38.01937257","long":"127.0706983","imageIndex":17,"items":[{"name":"입세아모르","tel":"","addr":"경기도 연천군 전곡읍 전곡리 267-6번지 진상아파트","indutype":"신변잡화 - 액세서리","category":"other"}]},{"lat":"38.02381597","long":"127.0673085","imageIndex":17,"items":[{"name":"자전거 매니아","tel":"031-833-5326","addr":"경기도 연천군 전곡읍 전곡리 295-5번지 가동","indutype":"레져용품 - 스포츠·레져용품","category":"other"}]},{"lat":"38.02242694","long":"127.0702228","imageIndex":17,"items":[{"name":"전곡 성화 볼트","tel":"031-922-8600","addr":"경기도 연천군 전곡읍 전곡리 314-10번지","indutype":"기타 - 기계공구","category":"other"}]},{"lat":"38.0282303","long":"127.0675629","imageIndex":17,"items":[{"name":"전곡금성수리실","tel":"031-832-2344","addr":"경기도 연천군 전곡읍 전곡리 455-74.1/10","indutype":"수리서비스 - 신변잡화수리","category":"other"}]},{"lat":"38.02303207","long":"127.0675014","imageIndex":17,"items":[{"name":"전곡낚시마트","tel":"031-835-2700","addr":"경기도 연천군 전곡읍 전곡리 295-3번지","indutype":"레져용품 - 스포츠·레져용품","category":"other"}]},{"lat":"38.02905886","long":"127.0680648","imageIndex":17,"items":[{"name":"전곡냉동에어컨","tel":"031-832-3307","addr":"경기도 연천군 전곡읍 전곡리 455-102","indutype":"수리서비스 - 기타수리서비스","category":"other"}]},{"lat":"38.02517658","long":"127.0668883","imageIndex":17,"items":[{"name":"전곡롤로타바코","tel":"031-835-2501","addr":"경기도 연천군 전곡읍 전곡리 483-81번지 1층","indutype":"기타 - 기타 전문점","category":"other"}]},{"lat":"38.0137332","long":"127.0700895","imageIndex":17,"items":[{"name":"전곡목재철물","tel":"031-832-6359","addr":"경기도 연천군 전곡읍 전곡리 85-27번지","indutype":"건축자재 - 기타건축자재","category":"other"}]},{"lat":"38.02145306","long":"127.0717593","imageIndex":17,"items":[{"name":"전곡사무기","tel":"031-833-0423","addr":"경기도 연천군 전곡읍 전곡리 320-23번지 2층","indutype":"사무통신 - 컴퓨터","category":"other"}]},{"lat":"38.02126209","long":"127.0747315","imageIndex":17,"items":[{"name":"전곡시온열쇠","tel":"031-832-8691","addr":"경기도 연천군 전곡읍 전곡리 324-31번지 세림빌라 B동 201호","indutype":"건축자재 - 목재·석재·철물","category":"other"}]},{"lat":"38.02633776","long":"127.0687002","imageIndex":17,"items":[{"name":"전곡신앙촌상회","tel":"031-832-2633","addr":"경기도 연천군 전곡읍 전곡리 462-10번지","indutype":"신변잡화 - 기타잡화","category":"other"}]},{"lat":"38.02625694","long":"127.0682218","imageIndex":17,"items":[{"name":"전곡열쇠커텐","tel":"031-832-2173","addr":"경기도 연천군 전곡읍 전곡리 462-14번지","indutype":"직물 - 카페트,커튼,천막,지물","category":"other"}]},{"lat":"38.02340041","long":"127.0693695","imageIndex":17,"items":[{"name":"전곡우리통신","tel":"013-832-8572","addr":"경기도 연천군 전곡읍 전곡리 311-4번지 1층","indutype":"사무통신 - 통신기기","category":"other"}]},{"lat":"38.025788","long":"127.0690641","imageIndex":17,"items":[{"name":"전곡인쇄소","tel":"031-835-0171","addr":"경기도 연천군 전곡읍 전곡리 336-27","indutype":"서적문구 - 출판 및 인쇄물","category":"other"}]},{"lat":"38.02284201","long":"127.0690615","imageIndex":17,"items":[{"name":"전곡천막사","tel":"031-832-2043","addr":"경기도 연천군 전곡읍 전곡리 300-23번지 1층","indutype":"직물 - 카페트,커튼,천막,지물","category":"other"}]},{"lat":"38.02781549","long":"127.0682801","imageIndex":17,"items":[{"name":"전곡체육사","tel":"031-832-8080","addr":"경기도 연천군 전곡읍 전곡리 459-37번지 1통12반","indutype":"레져용품 - 스포츠·레져용품","category":"other"}]},{"lat":"38.02895099","long":"127.0676433","imageIndex":17,"items":[{"name":"전곡행운열쇠","tel":"031-833-1304","addr":"경기도 연천군 전곡읍 전곡리 457-11번지","indutype":"건축자재 - 목재·석재·철물","category":"other"}]},{"lat":"38.02614918","long":"127.0675839","imageIndex":17,"items":[{"name":"전우사","tel":"031-832-2263","addr":"경기도 연천군 전곡읍 전곡리 480-15번지","indutype":"서적문구 - 문구용품","category":"other"}]},{"lat":"38.02548296","long":"127.0667519","imageIndex":17,"items":[{"name":"정구지물포","tel":"031-832-7513","addr":"경기도 연천군 전곡읍 전곡리 483-80","indutype":"직물 - 카페트,커튼,천막,지물","category":"other"}]},{"lat":"38.02622963","long":"127.0687229","imageIndex":17,"items":[{"name":"정은패션","tel":"031-832-3457","addr":"경기도 연천군 전곡읍 전곡리 462-11번지","indutype":"의류 - 정장","category":"other"}]},{"lat":"38.02589591","long":"127.0694173","imageIndex":17,"items":[{"name":"제일금방","tel":"031-832-6363","addr":"경기도 연천군 전곡읍 전곡리 336-16번지 2통2반","indutype":"신변잡화 - 시계","category":"other"}]},{"lat":"38.03816954","long":"127.0789513","imageIndex":17,"items":[{"name":"제일사","tel":"031-832-2437","addr":"경기도 연천군 전곡읍 전곡리 1번지","indutype":"사무통신 - 기타 사무용품","category":"other"}]},{"lat":"38.01973128","long":"127.0735001","imageIndex":17,"items":[{"name":"조은건설중기","tel":"031-832-1717","addr":"경기도 연천군 전곡읍 전곡리 256번지","indutype":"기타 - 기계공구","category":"other"},{"name":"천보건설기계","tel":"031-876-0741","addr":"경기도 연천군 전곡읍 전곡리 256","indutype":"기타 - 기계공구","category":"other"}]},{"lat":"38.02517476","long":"127.0701456","imageIndex":17,"items":[{"name":"종이문화재단연천종이문화교육원","tel":"031-832-7777","addr":"경기도 연천군 전곡읍 전곡리 333-221번지","indutype":"문화.취미 - 문화취미기타","category":"other"}]},{"lat":"38.02836498","long":"127.0683945","imageIndex":17,"items":[{"name":"종합가전냉동서비스","tel":"031-835-9033","addr":"경기도 연천군 전곡읍 전곡리 459-71","indutype":"수리서비스 - 가정용품수리","category":"other"}]},{"lat":"38.02800545","long":"127.066868","imageIndex":17,"items":[{"name":"종합가전마트","tel":"","addr":"경기도 연천군 전곡읍 전곡리 483-2번지","indutype":"전기제품 - 가전제품","category":"other"}]},{"lat":"38.02384363","long":"127.0661469","imageIndex":17,"items":[{"name":"주식회사 디엘테크","tel":"","addr":"경기도 연천군 전곡읍 전곡리 295-60번지","indutype":"광학제품 - 사진관","category":"other"}]},{"lat":"38.02242659","long":"127.070815","imageIndex":17,"items":[{"name":"주식회사 정원","tel":"031-832-2398","addr":"경기도 연천군 전곡읍 전곡리 315-32번지","indutype":"건축자재 - 인테리어전문","category":"other"}]},{"lat":"38.02676163","long":"127.0678919","imageIndex":17,"items":[{"name":"중앙텔레콤","tel":"031-832-3000","addr":"경기도 연천군 전곡읍 전곡리 479-12 제1호","indutype":"사무통신 - 통신기기","category":"other"}]},{"lat":"38.0263124","long":"127.0656479","imageIndex":17,"items":[{"name":"즐거운발견문화학교협동조합","tel":"031-834-7847","addr":"경기도 연천군 전곡읍 전곡리 483-20번지 105호","indutype":"용역 서비스 - 사무서비스","category":"other"},{"name":"팝콘아트","tel":"031-832-7945","addr":"경기도 연천군 전곡읍 전곡리 483-20번지","indutype":"서적문구 - 출판 및 인쇄물","category":"other"},{"name":"한원그래픽스","tel":"031-835-3221","addr":"경기도 연천군 전곡읍 전곡리 483-20번지 햇살고운집 103호","indutype":"용역 서비스 - 종합용역","category":"other"}]},{"lat":"38.02612149","long":"127.0687797","imageIndex":17,"items":[{"name":"지연상품백화점","tel":"031-832-3186","addr":"경기도 연천군 전곡읍 전곡리 462-21번지","indutype":"유통업 영리 - 기타유통업","category":"other"}]},{"lat":"38.02881573","long":"127.067871","imageIndex":17,"items":[{"name":"지후네뜨개방","tel":"","addr":"경기도 연천군 전곡읍 전곡리 455-47번지","indutype":"신변잡화 - 기타잡화","category":"other"}]},{"lat":"38.02217685","long":"127.0663162","imageIndex":17,"items":[{"name":"천하영농 조합법인","tel":"031-832-1229","addr":"경기도 연천군 전곡읍 전곡리 292번지","indutype":"농업 - 비료,사료,종자","category":"other"},{"name":"천하제일사료","tel":"031-832-1229","addr":"경기도 연천군 전곡읍 전곡리 292번지","indutype":"농업 - 비료,사료,종자","category":"other"}]},{"lat":"38.01509184","long":"127.0730629","imageIndex":17,"items":[{"name":"청록다육","tel":"","addr":"경기도 연천군 전곡읍 전곡리 684번지 전곡예일세띠앙아파트","indutype":"문화.취미 - 화원","category":"other"}]},{"lat":"38.01670507","long":"127.0720623","imageIndex":17,"items":[{"name":"청록화원","tel":"031-832-5158","addr":"경기도 연천군 전곡읍 전곡리 239-18번지","indutype":"문화.취미 - 화원","category":"other"}]},{"lat":"38.02278867","long":"127.0677859","imageIndex":17,"items":[{"name":"청화지물포","tel":"031-832-4609","addr":"경기도 연천군 전곡읍 전곡리 297-3번지","indutype":"직물 - 카페트,커튼,천막,지물","category":"other"}]},{"lat":"38.02459031","long":"127.0681178","imageIndex":17,"items":[{"name":"크로커다일레이디","tel":"031-833-3789","addr":"경기도 연천군 전곡읍 전곡리 470-22번지 1층","indutype":"레져용품 - 스포츠·레져용품","category":"other"}]},{"lat":"38.02550967","long":"127.0673328","imageIndex":17,"items":[{"name":"크린토피아","tel":"031-833-6351","addr":"경기도 연천군 전곡읍 전곡리 477-10번지","indutype":"수리서비스 - 세탁소","category":"other"}]},{"lat":"38.02956327","long":"127.0682589","imageIndex":17,"items":[{"name":"타임C&P","tel":"031-833-6607","addr":"경기도 연천군 전곡읍 전곡리 456-20번지 가동","indutype":"주방용구 - 정수기","category":"other"}]},{"lat":"38.03113905","long":"127.0696954","imageIndex":17,"items":[{"name":"통일건설중기","tel":"031-833-3847","addr":"경기도 연천군 전곡읍 전곡리 390-8번지 신양빌라1차 나동 201호","indutype":"기타 - 기계공구","category":"other"}]},{"lat":"38.02586975","long":"127.0678684","imageIndex":17,"items":[{"name":"트라이엄프, 엘르 전곡점","tel":"031-835-7400","addr":"경기도 연천군 전곡읍 전곡리 467-1번지","indutype":"레져용품 - 스포츠·레져용품","category":"other"}]},{"lat":"38.02597928","long":"127.0652262","imageIndex":17,"items":[{"name":"트랜스몰","tel":"031-1111-1111","addr":"경기도 연천군 전곡읍 전곡리 483-214번지 1층","indutype":"신변잡화 - 기타잡화","category":"other"}]},{"lat":"38.02781533","long":"127.0685648","imageIndex":17,"items":[{"name":"파란나라","tel":"031-835-2030","addr":"경기도 연천군 전곡읍 전곡리 459-26번지","indutype":"레져용품 - 스포츠·레져용품","category":"other"}]},{"lat":"38.0252834","long":"127.0692231","imageIndex":17,"items":[{"name":"파비안느","tel":"031-832-4544","addr":"경기도 연천군 전곡읍 전곡리 336-42","indutype":"의류 - 정장","category":"other"}]},{"lat":"38.01837352","long":"127.0690005","imageIndex":17,"items":[{"name":"펫마을","tel":"031-833-4459","addr":"경기도 연천군 전곡읍 전곡리 273-1번지","indutype":"문화.취미 - 애완동물","category":"other"}]},{"lat":"38.02389373","long":"127.0731169","imageIndex":17,"items":[{"name":"포그니","tel":"031-832-6722","addr":"경기도 연천군 전곡읍 전곡리 332-89번지","indutype":"전기제품 - 기타전기제품","category":"other"}]},{"lat":"38.02442705","long":"127.0700651","imageIndex":17,"items":[{"name":"피부미인","tel":"031-832-0868","addr":"경기도 연천군 전곡읍 전곡리 334-13번지 2층","indutype":"회원제형태 - 기타4","category":"other"}]},{"lat":"38.02578652","long":"127.0716381","imageIndex":17,"items":[{"name":"필그린인카운터전곡특약점","tel":"033-254-8486","addr":"경기도 연천군 전곡읍 전곡리 332-131번지 1층","indutype":"주방용구 - 주방용구","category":"other"}]},{"lat":"38.02686967","long":"127.0680287","imageIndex":17,"items":[{"name":"하얀패션","tel":"031-835-1510","addr":"경기도 연천군 전곡읍 전곡리 479-32","indutype":"의류 - 정장","category":"other"}]},{"lat":"38.0286446","long":"127.0677797","imageIndex":17,"items":[{"name":"하얀피부고운몸매","tel":"031-834-3535","addr":"경기도 연천군 전곡읍 전곡리 455-52번지","indutype":"회원제형태 - 기타4","category":"other"}]},{"lat":"38.02867138","long":"127.0682239","imageIndex":17,"items":[{"name":"한솔","tel":"031-832-7730","addr":"경기도 연천군 전곡읍 전곡리 455-35번지 1층","indutype":"주방용구 - 주방용구","category":"other"}]},{"lat":"38.03011964","long":"127.0720863","imageIndex":17,"items":[{"name":"한양낚시랜드편의점","tel":"031-835-2965","addr":"경기도 연천군 전곡읍 전곡리 378-2번지","indutype":"레져용품 - 스포츠·레져용품","category":"other"}]},{"lat":"38.01992188","long":"127.0711201","imageIndex":17,"items":[{"name":"한일정수기","tel":"031-872-2551","addr":"경기도 연천군 전곡읍 전곡리 318-46번지","indutype":"주방용구 - 정수기","category":"other"}]},{"lat":"38.02531174","long":"127.0668428","imageIndex":17,"items":[{"name":"함(haam)","tel":"02-722-3370","addr":"경기도 연천군 전곡읍 전곡리 483-43번지 2층 내","indutype":"신변잡화 - 액세서리","category":"other"}]},{"lat":"38.01750453","long":"127.0759463","imageIndex":17,"items":[{"name":"현대건설","tel":"031-833-1235","addr":"경기도 연천군 전곡읍 전곡리 26-6번지","indutype":"용역 서비스 - 기타용역서비스","category":"other"}]},{"lat":"38.02912212","long":"127.0677232","imageIndex":17,"items":[{"name":"현대기프트","tel":"031-832-8839","addr":"경기도 연천군 전곡읍 전곡리 457-6번지 1층","indutype":"신변잡화 - 기념품점","category":"other"}]},{"lat":"38.02659066","long":"127.0675273","imageIndex":17,"items":[{"name":"현대낚시","tel":"031-832-2661","addr":"경기도 연천군 전곡읍 전곡리 480-24번지","indutype":"레져용품 - 스포츠·레져용품","category":"other"}]},{"lat":"38.01995704","long":"127.072612","imageIndex":17,"items":[{"name":"현대창호","tel":"031-833-5678","addr":"경기도 연천군 전곡읍 전곡리 266-35번지","indutype":"용역 서비스 - 기타용역서비스","category":"other"}]},{"lat":"38.02645549","long":"127.0675841","imageIndex":17,"items":[{"name":"형제사","tel":"031-832-0853","addr":"경기도 연천군 전곡읍 전곡리 480-14번지","indutype":"신변잡화 - 귀금속","category":"other"}]},{"lat":"38.02664414","long":"127.0685638","imageIndex":17,"items":[{"name":"호국군인마트","tel":"031-833-0351","addr":"경기도 연천군 전곡읍 전곡리 460-24번지","indutype":"신변잡화 - 기념품점","category":"other"}]},{"lat":"38.02489371","long":"127.0731748","imageIndex":17,"items":[{"name":"화랑사빨래방","tel":"031-832-6115","addr":"경기도 연천군 전곡읍 전곡리 332-10번지","indutype":"수리서비스 - 세탁소","category":"other"}]},{"lat":"38.02848283","long":"127.067062","imageIndex":17,"items":[{"name":"화요일 플라워","tel":"031-833-3334","addr":"경기도 연천군 전곡읍 전곡리 457-49번지 상가","indutype":"문화.취미 - 화원","category":"other"}]},{"lat":"38.02684208","long":"127.0690309","imageIndex":17,"items":[{"name":"황금사","tel":"031-832-2020","addr":"경기도 연천군 전곡읍 전곡리 333-347번지","indutype":"신변잡화 - 액세서리","category":"other"}]},{"lat":"38.02217685","long":"127.0663162","imageIndex":0,"items":[{"name":"1급 로하스자동차공업사","tel":"031-832-0900","addr":"경기도 연천군 전곡읍 전곡리 292","indutype":"자동차정비 유지 - 자동차정비","category":"car"},{"name":"선가드 전곡","tel":"031-833-5536","addr":"경기도 연천군 전곡읍 전곡리 292번지","indutype":"자동차정비 유지 - 카인테리어","category":"car"}]},{"lat":"38.02217509","long":"127.069505","imageIndex":0,"items":[{"name":"강화밧데리","tel":"031-832-0898","addr":"경기도 연천군 전곡읍 전곡리 299-12번지","indutype":"자동차정비 유지 - 자동차정비","category":"car"}]},{"lat":"38.01781489","long":"127.0691139","imageIndex":0,"items":[{"name":"골든24셀프세차","tel":"031-833-6665","addr":"경기도 연천군 전곡읍 전곡리 262번지","indutype":"자동차정비 유지 - 세차장","category":"car"}]},{"lat":"38.02367045","long":"127.0697797","imageIndex":0,"items":[{"name":"대성카 인테리어","tel":"","addr":"경기도 연천군 전곡읍 전곡리 308-2번지","indutype":"자동차정비 유지 - 자동차부품","category":"car"},{"name":"대성카 인테리어","tel":"031-832-5888","addr":"경기도 연천군 전곡읍 전곡리 308-2번지","indutype":"자동차정비 유지 - 자동차부품","category":"car"}]},{"lat":"38.02014583","long":"127.0732841","imageIndex":0,"items":[{"name":"덴트하우스","tel":"031-833-6597","addr":"경기도 연천군 전곡읍 전곡리 254번지","indutype":"자동차정비 유지 - 자동차정비","category":"car"},{"name":"카사운드","tel":"031-832-4331","addr":"경기도 연천군 전곡읍 전곡리 254번지","indutype":"자동차정비 유지 - 카인테리어","category":"car"}]},{"lat":"38.02128217","long":"127.0712808","imageIndex":0,"items":[{"name":"모던자동차공업사","tel":"031-832-6969","addr":"경기도 연천군 전곡읍 전곡리 266-60번지","indutype":"자동차정비 유지 - 자동차정비","category":"car"}]},{"lat":"38.0238409","long":"127.0710327","imageIndex":0,"items":[{"name":"배터리엔터(전곡점)","tel":"031-835-8725","addr":"경기도 연천군 전곡읍 전곡리 333-287번지","indutype":"자동차정비 유지 - 자동차부품","category":"car"}]},{"lat":"38.02250933","long":"127.0678882","imageIndex":0,"items":[{"name":"삐까뻔적","tel":"031-833-3963","addr":"경기도 연천군 전곡읍 전곡리 297-7번지","indutype":"자동차정비 유지 - 세차장","category":"car"}]},{"lat":"38.02220539","long":"127.0634464","imageIndex":0,"items":[{"name":"애니카랜드 전곡점","tel":"031-832-0119","addr":"경기도 연천군 전곡읍 전곡리 289-85번지","indutype":"자동차정비 유지 - 자동차정비","category":"car"},{"name":"전곡읍 대박 세차&광택","tel":"031-832-6530","addr":"경기도 연천군 전곡읍 전곡리 289-85번지","indutype":"자동차정비 유지 - 세차장","category":"car"}]},{"lat":"38.01376081","long":"127.0690647","imageIndex":0,"items":[{"name":"우리자동차공업사","tel":"031-832-9556","addr":"경기도 연천군 전곡읍 전곡리 85-16번지","indutype":"자동차정비 유지 - 자동차정비","category":"car"}]},{"lat":"38.02353662","long":"127.0674449","imageIndex":0,"items":[{"name":"지게차나라","tel":"031-967-4959","addr":"경기도 연천군 전곡읍 전곡리 295-2번지","indutype":"자동차판매 - 기타운송","category":"car"}]},{"lat":"38.01072693","long":"127.0650311","imageIndex":0,"items":[{"name":"카스피드","tel":"031-835-0909","addr":"경기도 연천군 전곡읍 전곡리 169-1번지","indutype":"자동차정비 유지 - 자동차부품","category":"car"}]},{"lat":"38.01081658","long":"127.0658624","imageIndex":0,"items":[{"name":"통일자동차매매상사","tel":"031-832-1303","addr":"경기도 연천군 전곡읍 전곡리 177-1","indutype":"자동차판매 - 중고자동차판매","category":"car"}]},{"lat":"38.01361671","long":"127.0689735","imageIndex":0,"items":[{"name":"하나로자동차공업사","tel":"031-835-0006","addr":"경기도 연천군 전곡읍 전곡리 85-17","indutype":"자동차정비 유지 - 자동차정비","category":"car"}]},{"lat":"38.02394812","long":"127.0725589","imageIndex":7,"items":[{"name":"1등 한우전문점","tel":"031-832-6626","addr":"경기도 연천군 전곡읍 전곡리 333-543","indutype":"음료식품 - 정육점","category":"food"}]},{"lat":"38.0153945","long":"127.063418","imageIndex":7,"items":[{"name":"구석기랜드","tel":"031-833-6300","addr":"경기도 연천군 전곡읍 전곡리 189번지","indutype":"음료식품 - 농·축·수산품","category":"food"}]},{"lat":"38.02820319","long":"127.0677224","imageIndex":7,"items":[{"name":"금산인삼사","tel":"031-832-7224","addr":"경기도 연천군 전곡읍 전곡리 455-75번지","indutype":"건강식품 - 기타건강식품","category":"food"}]},{"lat":"38.02428286","long":"127.0701447","imageIndex":7,"items":[{"name":"꽁마님","tel":"070-2078-2755","addr":"경기도 연천군 전곡읍 전곡리 306-2번지","indutype":"음료식품 - 기타음료식품","category":"food"}]},{"lat":"38.01436853","long":"127.0613105","imageIndex":7,"items":[{"name":"농업법인회사 주식회사 가온누리","tel":"031-833-6300","addr":"경기도 연천군 전곡읍 전곡리 515번지","indutype":"음료식품 - 농·축·수산품","category":"food"}]},{"lat":"38.01961541","long":"127.0713932","imageIndex":7,"items":[{"name":"농협앞과일","tel":"031-833-6193","addr":"경기도 연천군 전곡읍 전곡리 318-52번지","indutype":"음료식품 - 농·축·수산품","category":"food"}]},{"lat":"38.00745786","long":"127.0626144","imageIndex":7,"items":[{"name":"뉴요커핫도그","tel":"","addr":"경기도 연천군 전곡읍 전곡리 705-2번지","indutype":"음료식품 - 기타음료식품","category":"food"}]},{"lat":"38.02284169","long":"127.0696423","imageIndex":7,"items":[{"name":"달카롱디져트작업실","tel":"031-000-0000","addr":"경기도 연천군 전곡읍 전곡리 312-15번지","indutype":"음료식품 - 기타음료식품","category":"food"}]},{"lat":"38.02676163","long":"127.0678919","imageIndex":7,"items":[{"name":"대륙정육점","tel":"031-832-2008","addr":"경기도 연천군 전곡읍 전곡리 479-12번지","indutype":"음료식품 - 정육점","category":"food"},{"name":"대륙정육점 2호","tel":"031-832-2008","addr":"경기도 연천군 전곡읍 전곡리 479-12번지","indutype":"음료식품 - 정육점","category":"food"}]},{"lat":"38.02014583","long":"127.0732841","imageIndex":7,"items":[{"name":"대웅상사","tel":"031-832-2984","addr":"경기도 연천군 전곡읍 전곡리 254","indutype":"음료식품 - 기타음료식품","category":"food"}]},{"lat":"38.02525704","long":"127.0680273","imageIndex":7,"items":[{"name":"대흥","tel":"031-832-0038","addr":"경기도 연천군 전곡읍 전곡리 469-22번지","indutype":"음료식품 - 정육점","category":"food"}]},{"lat":"38.0255364","long":"127.0678908","imageIndex":7,"items":[{"name":"던킨도너츠 (전곡터미널점)","tel":"031-833-9869","addr":"경기도 연천군 전곡읍 전곡리 466-9번지","indutype":"음료식품 - 제과점","category":"food"},{"name":"던킨도너츠(전곡터미널점)","tel":"","addr":"경기도 연천군 전곡읍 전곡리 466-9번지","indutype":"음료식품 - 제과점","category":"food"}]},{"lat":"38.0187858","long":"127.072702","imageIndex":7,"items":[{"name":"로하스유통","tel":"031-832-7236","addr":"경기도 연천군 전곡읍 전곡리 261-18","indutype":"음료식품 - 정육점","category":"food"}]},{"lat":"38.02589591","long":"127.0694173","imageIndex":7,"items":[{"name":"민경찬방","tel":"031-832-8819","addr":"경기도 연천군 전곡읍 전곡리 336-16번지","indutype":"음료식품 - 기타음료식품","category":"food"}]},{"lat":"38.02745532","long":"127.0679267","imageIndex":7,"items":[{"name":"바우네집","tel":"031-832-7339","addr":"경기도 연천군 전곡읍 전곡리 458-23","indutype":"음료식품 - 기타음료식품","category":"food"}]},{"lat":"38.02269776","long":"127.069255","imageIndex":7,"items":[{"name":"박사식품","tel":"031-832-6942","addr":"경기도 연천군 전곡읍 전곡리 300-3번지 나동","indutype":"음료식품 - 정육점","category":"food"}]},{"lat":"38.02645523","long":"127.0680625","imageIndex":7,"items":[{"name":"배스킨라빈스","tel":"031-832-3133","addr":"경기도 연천군 전곡읍 전곡리 460-4번지","indutype":"음료식품 - 제과점","category":"food"}]},{"lat":"38.0207262","long":"127.0666453","imageIndex":7,"items":[{"name":"사단법인연천군새마을회","tel":"031-835-1023","addr":"경기도 연천군 전곡읍 전곡리 296-6","indutype":"음료식품 - 기타음료식품","category":"food"}]},{"lat":"38.02828369","long":"127.0687589","imageIndex":7,"items":[{"name":"사랑방떡집","tel":"031-833-1213","addr":"경기도 연천군 전곡읍 전곡리 454-25","indutype":"음료식품 - 제과점","category":"food"}]},{"lat":"38.0183448","long":"127.07195","imageIndex":7,"items":[{"name":"산야초건강원","tel":"","addr":"경기도 연천군 전곡읍 전곡리 260-2번지","indutype":"건강식품 - 기타건강식품","category":"food"}]},{"lat":"38.02705866","long":"127.0683933","imageIndex":7,"items":[{"name":"서울제일떡집","tel":"031-832-3098","addr":"경기도 연천군 전곡읍 전곡리 460-33","indutype":"음료식품 - 제과점","category":"food"}]},{"lat":"38.02575325","long":"127.0667293","imageIndex":7,"items":[{"name":"성심유통","tel":"","addr":"경기도 연천군 전곡읍 전곡리 483-300번지","indutype":"음료식품 - 정육점","category":"food"}]},{"lat":"38.02748285","long":"127.0670042","imageIndex":7,"items":[{"name":"엄수산","tel":"031-832-8240","addr":"경기도 연천군 전곡읍 전곡리 483-68번지 (주)삼주국민마트내","indutype":"음료식품 - 농·축·수산품","category":"food"}]},{"lat":"38.01492307","long":"127.0689177","imageIndex":7,"items":[{"name":"에이미스","tel":"031-8088-7018","addr":"경기도 연천군 전곡읍 전곡리 217-17번지","indutype":"음료식품 - 기타음료식품","category":"food"}]},{"lat":"38.02397765","long":"127.068197","imageIndex":7,"items":[{"name":"에이플러스24","tel":"031-833-6004","addr":"경기도 연천군 전곡읍 전곡리 302-26번지","indutype":"음료식품 - 기타음료식품","category":"food"}]},{"lat":"38.01470661","long":"127.0693389","imageIndex":7,"items":[{"name":"연천네츄럴조경","tel":"031-832-1472","addr":"경기도 연천군 전곡읍 전곡리 217-5번지 1층 (외11필지(217-3번지포함))","indutype":"음료식품 - 기타음료식품","category":"food"}]},{"lat":"38.023031","long":"127.0694261","imageIndex":7,"items":[{"name":"연천양봉영농조합법인","tel":"","addr":"경기도 연천군 전곡읍 전곡리 311-3번지 한진임대연립 302호","indutype":"건강식품 - 기타건강식품","category":"food"}]},{"lat":"38.03430792","long":"127.0736963","imageIndex":7,"items":[{"name":"열두개울식품","tel":"031-835-1161","addr":"경기도 연천군 전곡읍 전곡리 430-14번지","indutype":"음료식품 - 기타음료식품","category":"food"}]},{"lat":"38.02384246","long":"127.068288","imageIndex":7,"items":[{"name":"열두달. 찬","tel":"031-833-2227","addr":"경기도 연천군 전곡읍 전곡리 302-31번지 1층","indutype":"음료식품 - 기타음료식품","category":"food"},{"name":"철구네반찬","tel":"031-833-2227","addr":"경기도 연천군 전곡읍 전곡리 302-31번지","indutype":"음료식품 - 기타음료식품","category":"food"}]},{"lat":"38.02401062","long":"127.0735042","imageIndex":7,"items":[{"name":"오리정육점","tel":"031-835-0415","addr":"경기도 연천군 전곡읍 전곡리 329-8번지 외2필지","indutype":"음료식품 - 정육점","category":"food"}]},{"lat":"38.02261657","long":"127.0694485","imageIndex":7,"items":[{"name":"유진계란농장","tel":"031-835-3354","addr":"경기도 연천군 전곡읍 전곡리 300-17번지","indutype":"음료식품 - 농·축·수산품","category":"food"}]},{"lat":"38.02131015","long":"127.0696182","imageIndex":7,"items":[{"name":"자연의마음영농조합법인","tel":"070-8161-2883","addr":"경기도 연천군 전곡읍 전곡리 318-29번지","indutype":"건강식품 - 인삼제품","category":"food"}]},{"lat":"38.02253517","long":"127.0700065","imageIndex":7,"items":[{"name":"전곡건강원","tel":"031-835-2913","addr":"경기도 연천군 전곡읍 전곡리 314-7번지","indutype":"건강식품 - 기타건강식품","category":"food"}]},{"lat":"38.02836454","long":"127.069169","imageIndex":7,"items":[{"name":"전곡정육점","tel":"031-835-8355","addr":"경기도 연천군 전곡읍 전곡리 454-11번지 1층","indutype":"음료식품 - 정육점","category":"food"}]},{"lat":"38.01772644","long":"127.0661416","imageIndex":7,"items":[{"name":"제주수산","tel":"031-832-8889","addr":"경기도 연천군 전곡읍 전곡리 278-19번지","indutype":"음료식품 - 농·축·수산품","category":"food"}]},{"lat":"38.02753547","long":"127.0695896","imageIndex":7,"items":[{"name":"참게여울주가 주식회사","tel":"031-835-6788","addr":"경기도 연천군 전곡읍 전곡리 333-239번지","indutype":"음료식품 - 농·축·수산품","category":"food"}]},{"lat":"38.02848185","long":"127.0688388","imageIndex":7,"items":[{"name":"참누렁소","tel":"031-832-9295","addr":"경기도 연천군 전곡읍 전곡리 454-19","indutype":"음료식품 - 정육점","category":"food"}]},{"lat":"38.02261579","long":"127.0708151","imageIndex":7,"items":[{"name":"창산흑염소","tel":"031-835-6633","addr":"경기도 연천군 전곡읍 전곡리 315-36번지","indutype":"건강식품 - 기타건강식품","category":"food"}]},{"lat":"38.01981286","long":"127.0726688","imageIndex":7,"items":[{"name":"케이씨","tel":"031-832-6722","addr":"경기도 연천군 전곡읍 전곡리 266-36번지","indutype":"음료식품 - 기타음료식품","category":"food"}]},{"lat":"38.01837135","long":"127.0727586","imageIndex":7,"items":[{"name":"태산건강원","tel":"031-832-0742","addr":"경기도 연천군 전곡읍 전곡리 245-9번지","indutype":"건강식품 - 기타건강식품","category":"food"}]},{"lat":"38.02625731","long":"127.0675612","imageIndex":7,"items":[{"name":"파리바게트","tel":"031-835-3415","addr":"경기도 연천군 전곡읍 전곡리 480-30번지 파리바게트","indutype":"음료식품 - 제과점","category":"food"}]},{"lat":"38.02600427","long":"127.0689732","imageIndex":7,"items":[{"name":"피움(전곡점)","tel":"031-1111-1111","addr":"경기도 연천군 전곡읍 전곡리 336-23번지","indutype":"음료식품 - 기타음료식품","category":"food"}]},{"lat":"38.02812237","long":"127.0672325","imageIndex":7,"items":[{"name":"하나 축산물 판매장","tel":"031-833-6578","addr":"경기도 연천군 전곡읍 전곡리 458-5번지","indutype":"음료식품 - 정육점","category":"food"}]},{"lat":"38.00875654","long":"127.0598713","imageIndex":7,"items":[{"name":"한탄강관광지구내매점","tel":"031-832-2036","addr":"경기도 연천군 전곡읍 전곡리 640 한탄강관광지내","indutype":"음료식품 - 기타음료식품","category":"food"}]},{"lat":"38.02217685","long":"127.0663162","imageIndex":7,"items":[{"name":"해인축산","tel":"031-000-0000","addr":"경기도 연천군 전곡읍 전곡리 292번지 1층","indutype":"음료식품 - 정육점","category":"food"}]},{"lat":"38.025337","long":"127.070009","imageIndex":7,"items":[{"name":"행복가득찬","tel":"031-835-4000","addr":"경기도 연천군 전곡읍 전곡리 333-440번지","indutype":"음료식품 - 기타음료식품","category":"food"}]},{"lat":"38.02489371","long":"127.0731748","imageIndex":7,"items":[{"name":"허니브래드","tel":"031-833-7858","addr":"경기도 연천군 전곡읍 전곡리 332-10번지","indutype":"음료식품 - 제과점","category":"food"}]},{"lat":"38.02403219","long":"127.0673087","imageIndex":7,"items":[{"name":"현대떡방아간","tel":"031-832-2609","addr":"경기도 연천군 전곡읍 전곡리 485-7","indutype":"음료식품 - 제과점","category":"food"}]},{"lat":"38.0270948","long":"127.0681997","imageIndex":7,"items":[{"name":"홍가네떡집","tel":"031-833-1253","addr":"경기도 연천군 전곡읍 전곡리 460-43번지","indutype":"음료식품 - 제과점","category":"food"}]},{"lat":"38.01740056","long":"127.0689541","imageIndex":7,"items":[{"name":"효사랑병원 구내매점","tel":"031-833-5696","addr":"경기도 연천군 전곡읍 전곡리 235번지","indutype":"음료식품 - 기타음료식품","category":"food"}]},{"lat":"38.02656325","long":"127.068222","imageIndex":4,"items":[{"name":"1번지 옛날통닭","tel":"031-832-7277","addr":"경기도 연천군 전곡읍 전곡리 460-8번지 1층","indutype":"일반휴게음식 - 스넥","category":"restaurant"}]},{"lat":"38.02558975","long":"127.0691437","imageIndex":4,"items":[{"name":"1빠(BAR)","tel":"070-4176-9931","addr":"경기도 연천군 전곡읍 전곡리 464-2번지 2층","indutype":"일반휴게음식 - 칵테일바","category":"restaurant"}]},{"lat":"38.01781489","long":"127.0691139","imageIndex":4,"items":[{"name":"531카페","tel":"031-833-6665","addr":"경기도 연천군 전곡읍 전곡리 262번지","indutype":"일반휴게음식 - 서양음식","category":"restaurant"}]},{"lat":"38.02842801","long":"127.0684515","imageIndex":4,"items":[{"name":"59족발","tel":"031-832-5177","addr":"경기도 연천군 전곡읍 전곡리 459-12번지","indutype":"일반휴게음식 - 일반한식","category":"restaurant"}]},{"lat":"38.02536517","long":"127.0679818","imageIndex":4,"items":[{"name":"59피자","tel":"031-835-5982","addr":"경기도 연천군 전곡읍 전곡리 469-20번지","indutype":"일반휴게음식 - 서양음식","category":"restaurant"}]},{"lat":"38.0249232","long":"127.0689267","imageIndex":4,"items":[{"name":"B.B.Q전곡점","tel":"031-832-1202","addr":"경기도 연천군 전곡읍 전곡리 468-4","indutype":"일반휴게음식 - 주점","category":"restaurant"},{"name":"피자에땅","tel":"031-832-1202","addr":"경기도 연천군 전곡읍 전곡리 468-4","indutype":"일반휴게음식 - 서양음식","category":"restaurant"}]},{"lat":"38.0181198","long":"127.0715626","imageIndex":4,"items":[{"name":"BHC","tel":"0504-3142-1017","addr":"경기도 연천군 전곡읍 전곡리 261-28번지","indutype":"일반휴게음식 - 스넥","category":"restaurant"},{"name":"경희네밥상","tel":"031-833-6660","addr":"경기도 연천군 전곡읍 전곡리 261-28번지","indutype":"일반휴게음식 - 일반한식","category":"restaurant"},{"name":"덩달이피자치킨","tel":"031-832-9090","addr":"경기도 연천군 전곡읍 전곡리 261-28번지","indutype":"일반휴게음식 - 서양음식","category":"restaurant"},{"name":"어도횟집","tel":"031-832-7033","addr":"경기도 연천군 전곡읍 전곡리 261-28","indutype":"일반휴게음식 - 일식·회집","category":"restaurant"}]},{"lat":"38.02520201","long":"127.0697583","imageIndex":4,"items":[{"name":"NAL(날)","tel":"031-111-1111","addr":"경기도 연천군 전곡읍 전곡리 333-43번지","indutype":"일반휴게음식 - 일반한식","category":"restaurant"},{"name":"달보드레","tel":"031-000-0000","addr":"경기도 연천군 전곡읍 전곡리 333-43번지","indutype":"일반휴게음식 - 일반한식","category":"restaurant"},{"name":"봉구비어","tel":"031-832-6225","addr":"경기도 연천군 전곡읍 전곡리 333-43번지","indutype":"일반휴게음식 - 주점","category":"restaurant"},{"name":"초밥 좋은날","tel":"031-832-7578","addr":"경기도 연천군 전곡읍 전곡리 333-43번지","indutype":"일반휴게음식 - 일식·회집","category":"restaurant"}]},{"lat":"38.02976093","long":"127.0692272","imageIndex":4,"items":[{"name":"가드닝카페온실","tel":"070-7802-6570","addr":"경기도 연천군 전곡읍 전곡리 344-4번지 1층","indutype":"일반휴게음식 - 서양음식","category":"restaurant"}]},{"lat":"38.01412105","long":"127.0692814","imageIndex":4,"items":[{"name":"가마골흑염소탕","tel":"031-835-4247","addr":"경기도 연천군 전곡읍 전곡리 85-18번지","indutype":"일반휴게음식 - 일반한식","category":"restaurant"}]},{"lat":"38.02337281","long":"127.0703603","imageIndex":4,"items":[{"name":"가마솥 수제 생갈비","tel":"031-000-0000","addr":"경기도 연천군 전곡읍 전곡리 308-21번지","indutype":"일반휴게음식 - 일반한식","category":"restaurant"},{"name":"무교동왕족발","tel":"031-832-1161","addr":"경기도 연천군 전곡읍 전곡리 308-21번지","indutype":"일반휴게음식 - 일반한식","category":"restaurant"}]},{"lat":"38.02720248","long":"127.0689743","imageIndex":4,"items":[{"name":"가보","tel":"031-835-5289","addr":"경기도 연천군 전곡읍 전곡리 333-619번지 1층","indutype":"일반휴게음식 - 일반한식","category":"restaurant"}]},{"lat":"38.02469778","long":"127.0692568","imageIndex":4,"items":[{"name":"가이호프","tel":"031-833-4500","addr":"경기도 연천군 전곡읍 전곡리 468-5번지 전흥빌딩","indutype":"일반휴게음식 - 주점","category":"restaurant"}]},{"lat":"38.01711946","long":"127.0721197","imageIndex":4,"items":[{"name":"갈비천하육장군","tel":"031-835-9277","addr":"경기도 연천군 전곡읍 전곡리 239-26번지 1층","indutype":"일반휴게음식 - 일반한식","category":"restaurant"}]},{"lat":"38.02714819","long":"127.0693957","imageIndex":4,"items":[{"name":"감성돼지","tel":"031-832-9288","addr":"경기도 연천군 전곡읍 전곡리 333-151번지","indutype":"일반휴게음식 - 일반한식","category":"restaurant"},{"name":"정든고향 닭발","tel":"031-832-7325","addr":"경기도 연천군 전곡읍 전곡리 333-151번지","indutype":"일반휴게음식 - 일반한식","category":"restaurant"}]},{"lat":"38.02822975","long":"127.0685652","imageIndex":4,"items":[{"name":"개미분식","tel":"031-835-1207","addr":"경기도 연천군 전곡읍 전곡리 459-15번지","indutype":"일반휴게음식 - 스넥","category":"restaurant"}]},{"lat":"38.02714803","long":"127.069669","imageIndex":4,"items":[{"name":"경식이네알쌈쭈꾸미","tel":"031-832-6999","addr":"경기도 연천군 전곡읍 전곡리 333-179","indutype":"일반휴게음식 - 일반한식","category":"restaurant"}]},{"lat":"38.02458944","long":"127.0696667","imageIndex":4,"items":[{"name":"계륵장군","tel":"","addr":"경기도 연천군 전곡읍 전곡리 334-11번지","indutype":"일반휴게음식 - 일반한식","category":"restaurant"},{"name":"흐르는음악처럼","tel":"02-0000-0000","addr":"경기도 연천군 전곡읍 전곡리 334-11번지 2층","indutype":"일반휴게음식 - 일반한식","category":"restaurant"}]},{"lat":"38.02842563","long":"127.0725859","imageIndex":4,"items":[{"name":"고려왕족발","tel":"031-832-8056","addr":"경기도 연천군 전곡읍 전곡리 354-3번지 1층","indutype":"일반휴게음식 - 일반한식","category":"restaurant"}]},{"lat":"38.02431109","long":"127.0680036","imageIndex":4,"items":[{"name":"고모네식당","tel":"031-832-8976","addr":"경기도 연천군 전곡읍 전곡리 302-20번지","indutype":"일반휴게음식 - 일반한식","category":"restaurant"}]},{"lat":"38.02781549","long":"127.0682801","imageIndex":4,"items":[{"name":"고스트피자 1번지스테이크","tel":"031-832-9666","addr":"경기도 연천군 전곡읍 전곡리 459-37번지","indutype":"일반휴게음식 - 서양음식","category":"restaurant"}]},{"lat":"38.0232828","long":"127.0702235","imageIndex":4,"items":[{"name":"고창식당","tel":"031-835-0194","addr":"경기도 연천군 전곡읍 전곡리 308-23번지","indutype":"일반휴게음식 - 일반한식","category":"restaurant"}]},{"lat":"38.02586913","long":"127.0689731","imageIndex":4,"items":[{"name":"고향마루","tel":"031-832-1494","addr":"경기도 연천군 전곡읍 전곡리 336-25번지","indutype":"일반휴게음식 - 일반한식","category":"restaurant"}]},{"lat":"38.02522893","long":"127.069952","imageIndex":4,"items":[{"name":"골목집","tel":"031-833-1192","addr":"경기도 연천군 전곡읍 전곡리 333-220번지","indutype":"일반휴게음식 - 일반한식","category":"restaurant"}]},{"lat":"38.02456353","long":"127.0676736","imageIndex":4,"items":[{"name":"교촌치킨 전곡점","tel":"031-832-1991","addr":"경기도 연천군 전곡읍 전곡리 302-11번지 1층","indutype":"일반휴게음식 - 스넥","category":"restaurant"},{"name":"반올림 피자샵 전곡점","tel":"031-835-9282","addr":"경기도 연천군 전곡읍 전곡리 302-11번지 1층","indutype":"일반휴게음식 - 서양음식","category":"restaurant"}]},{"lat":"38.02559062","long":"127.0675834","imageIndex":4,"items":[{"name":"구구무한삼겹 전곡점","tel":"031-832-9901","addr":"경기도 연천군 전곡읍 전곡리 476번지 2층","indutype":"일반휴게음식 - 일반한식","category":"restaurant"}]},{"lat":"38.01789789","long":"127.0656179","imageIndex":4,"items":[{"name":"구석기 숯불장군","tel":"031-832-9290","addr":"경기도 연천군 전곡읍 전곡리 281-3번지 2층","indutype":"일반휴게음식 - 일반한식","category":"restaurant"}]},{"lat":"38.01434549","long":"127.0706709","imageIndex":4,"items":[{"name":"구석기오리숯불갈비","tel":"031-833-5454","addr":"경기도 연천군 전곡읍 전곡리 219-6번지","indutype":"일반휴게음식 - 일반한식","category":"restaurant"}]},{"lat":"38.02753624","long":"127.0682229","imageIndex":4,"items":[{"name":"구석돌소곱창","tel":"031-832-9282","addr":"경기도 연천군 전곡읍 전곡리 459-7번지","indutype":"일반휴게음식 - 일반한식","category":"restaurant"}]},{"lat":"38.02864495","long":"127.0671419","imageIndex":4,"items":[{"name":"구이가","tel":"031-835-9253","addr":"경기도 연천군 전곡읍 전곡리 457-33번지","indutype":"일반휴게음식 - 일반한식","category":"restaurant"}]},{"lat":"38.02764473","long":"127.0675282","imageIndex":4,"items":[{"name":"국물명가전주콩나물국밥","tel":"031-111-1111","addr":"경기도 연천군 전곡읍 전곡리 458-4번지 1층","indutype":"일반휴게음식 - 일반한식","category":"restaurant"},{"name":"블랙바","tel":"","addr":"경기도 연천군 전곡읍 전곡리 458-4번지 2층","indutype":"일반휴게음식 - 칵테일바","category":"restaurant"}]},{"lat":"38.02761677","long":"127.0692025","imageIndex":4,"items":[{"name":"굽네치킨 전곡점","tel":"031-835-9492","addr":"경기도 연천군 전곡읍 전곡리 333-142번지","indutype":"일반휴게음식 - 스넥","category":"restaurant"}]},{"lat":"38.00740209","long":"127.0658936","imageIndex":4,"items":[{"name":"그루터기","tel":"031-832-1376","addr":"경기도 연천군 전곡읍 전곡리 119-1번지 1층","indutype":"일반휴게음식 - 일반한식","category":"restaurant"}]},{"lat":"38.0261497","long":"127.0666386","imageIndex":4,"items":[{"name":"기발한 치킨","tel":"031-833-7199","addr":"경기도 연천군 전곡읍 전곡리 483-15번지","indutype":"일반휴게음식 - 스넥","category":"restaurant"}]},{"lat":"38.02469766","long":"127.0694732","imageIndex":4,"items":[{"name":"길목","tel":"031-833-5581","addr":"경기도 연천군 전곡읍 전곡리 334-1번지","indutype":"일반휴게음식 - 일반한식","category":"restaurant"}]},{"lat":"38.02292186","long":"127.0712254","imageIndex":4,"items":[{"name":"길손 아구와코다리찜탕","tel":"031-833-0792","addr":"경기도 연천군 전곡읍 전곡리 333-119번지","indutype":"일반휴게음식 - 일반한식","category":"restaurant"}]},{"lat":"38.02584284","long":"127.0676406","imageIndex":4,"items":[{"name":"김밥스토리","tel":"031-832-7756","addr":"경기도 연천군 전곡읍 전곡리 477-3번지","indutype":"일반휴게음식 - 일반한식","category":"restaurant"}]},{"lat":"38.02545465","long":"127.0690866","imageIndex":4,"items":[{"name":"깻잎닭갈비","tel":"031-833-5834","addr":"경기도 연천군 전곡읍 전곡리 336-39번지 1층","indutype":"일반휴게음식 - 일반한식","category":"restaurant"}]},{"lat":"38.03125603","long":"127.0699461","imageIndex":4,"items":[{"name":"꼬레랑옛날통닭","tel":"031-943-1003","addr":"경기도 연천군 전곡읍 전곡리 390-9번지 신양빌딩 101호","indutype":"일반휴게음식 - 스넥","category":"restaurant"}]},{"lat":"38.03156152","long":"127.0713701","imageIndex":4,"items":[{"name":"꼬슬꼬슬","tel":"031-832-6985","addr":"경기도 연천군 전곡읍 전곡리 386-9번지 1층","indutype":"일반휴게음식 - 스넥","category":"restaurant"}]},{"lat":"38.02569787","long":"127.069121","imageIndex":4,"items":[{"name":"꼬지사께","tel":"031-833-9938","addr":"경기도 연천군 전곡읍 전곡리 336-30번지","indutype":"일반휴게음식 - 일반한식","category":"restaurant"},{"name":"실버놀이터","tel":"031-832-2611","addr":"경기도 연천군 전곡읍 전곡리 336-30번지","indutype":"일반휴게음식 - 일반한식","category":"restaurant"}]},{"lat":"38.02536445","long":"127.0692802","imageIndex":4,"items":[{"name":"꼬치꼬치?","tel":"","addr":"경기도 연천군 전곡읍 전곡리 336-12번지","indutype":"일반휴게음식 - 일반한식","category":"restaurant"}]},{"lat":"38.02589611","long":"127.0690642","imageIndex":4,"items":[{"name":"꼴딱꼴닭","tel":"031-835-5259","addr":"경기도 연천군 전곡읍 전곡리 336-24번지","indutype":"일반휴게음식 - 일반한식","category":"restaurant"}]},{"lat":"38.02170079","long":"127.0636168","imageIndex":4,"items":[{"name":"꽃핀다.방","tel":"031-835-8820","addr":"경기도 연천군 전곡읍 전곡리 289-119번지 국인상가 102호","indutype":"일반휴게음식 - 서양음식","category":"restaurant"}]},{"lat":"38.02567148","long":"127.0679821","imageIndex":4,"items":[{"name":"꿀삐닭강정","tel":"031-832-7744","addr":"경기도 연천군 전곡읍 전곡리 466-3번지","indutype":"일반휴게음식 - 스넥","category":"restaurant"},{"name":"이삭토스트","tel":"031-832-6981","addr":"경기도 연천군 전곡읍 전곡리 466-3","indutype":"일반휴게음식 - 스넥","category":"restaurant"},{"name":"페리카나","tel":"031-832-3823","addr":"경기도 연천군 전곡읍 전곡리 466-3번지","indutype":"일반휴게음식 - 주점","category":"restaurant"}]},{"lat":"38.02284201","long":"127.0690615","imageIndex":4,"items":[{"name":"나들목","tel":"031-833-3568","addr":"경기도 연천군 전곡읍 전곡리 300-23번지 1층","indutype":"일반휴게음식 - 일반한식","category":"restaurant"},{"name":"여기서 먹자 포차","tel":"031-833-7615","addr":"경기도 연천군 전곡읍 전곡리 300-23번지","indutype":"일반휴게음식 - 일반한식","category":"restaurant"}]},{"lat":"38.01492307","long":"127.0689177","imageIndex":4,"items":[{"name":"난타칼국수","tel":"031-832-7179","addr":"경기도 연천군 전곡읍 전곡리 217-17번지 나동","indutype":"일반휴게음식 - 일반한식","category":"restaurant"}]},{"lat":"38.02658997","long":"127.0687801","imageIndex":4,"items":[{"name":"남대문 부대찌개","tel":"031-832-2211","addr":"경기도 연천군 전곡읍 전곡리 462-24번지","indutype":"일반휴게음식 - 일반한식","category":"restaurant"},{"name":"돼지다방","tel":"","addr":"경기도 연천군 전곡읍 전곡리 462-24번지","indutype":"일반휴게음식 - 서양음식","category":"restaurant"},{"name":"아구아구아귀찜전문점","tel":"031-835-5959","addr":"경기도 연천군 전곡읍 전곡리 462-24번지","indutype":"일반휴게음식 - 일반한식","category":"restaurant"}]},{"lat":"38.02612099","long":"127.0696681","imageIndex":4,"items":[{"name":"남도식당","tel":"031-833-8639","addr":"경기도 연천군 전곡읍 전곡리 333-176번지","indutype":"일반휴게음식 - 일반한식","category":"restaurant"}]},{"lat":"38.02842809","long":"127.0683148","imageIndex":4,"items":[{"name":"내고향부대찌개","tel":"031-832-7272","addr":"경기도 연천군 전곡읍 전곡리 455-41 459-11","indutype":"일반휴게음식 - 일반한식","category":"restaurant"}]},{"lat":"38.02772559","long":"127.0679269","imageIndex":4,"items":[{"name":"내담해물갈비찜","tel":"031-832-3989","addr":"경기도 연천군 전곡읍 전곡리 458-14번지","indutype":"일반휴게음식 - 일반한식","category":"restaurant"}]},{"lat":"38.0252834","long":"127.0692231","imageIndex":4,"items":[{"name":"낸시일글리쉬카페","tel":"031-833-7732","addr":"경기도 연천군 전곡읍 전곡리 336-42번지","indutype":"일반휴게음식 - 서양음식","category":"restaurant"},{"name":"유명","tel":"031-832-5651","addr":"경기도 연천군 전곡읍 전곡리 336-42번지","indutype":"일반휴게음식 - 일식·회집","category":"restaurant"}]},{"lat":"38.02705838","long":"127.0688944","imageIndex":4,"items":[{"name":"너구리","tel":"","addr":"경기도 연천군 전곡읍 전곡리 333-164번지 2층","indutype":"일반휴게음식 - 일반한식","category":"restaurant"},{"name":"벙커","tel":"031-111-1111","addr":"경기도 연천군 전곡읍 전곡리 333-164번지","indutype":"일반휴게음식 - 일반한식","category":"restaurant"},{"name":"카페아마떼","tel":"031-835-3483","addr":"경기도 연천군 전곡읍 전곡리 333-164번지","indutype":"일반휴게음식 - 서양음식","category":"restaurant"}]},{"lat":"38.02695042","long":"127.068621","imageIndex":4,"items":[{"name":"네네치킨(전곡점)","tel":"031-832-9956","addr":"경기도 연천군 전곡읍 전곡리 460-13번지","indutype":"일반휴게음식 - 스넥","category":"restaurant"}]},{"lat":"38.02556279","long":"127.0690298","imageIndex":4,"items":[{"name":"누나포차","tel":"031-862-1864","addr":"경기도 연천군 전곡읍 전곡리 336-37번지","indutype":"일반휴게음식 - 일반한식","category":"restaurant"},{"name":"전원호프","tel":"","addr":"경기도 연천군 전곡읍 전곡리 336-37번지 1층","indutype":"일반휴게음식 - 주점","category":"restaurant"}]},{"lat":"38.0185338","long":"127.0722804","imageIndex":4,"items":[{"name":"누룽지한방백숙","tel":"031-833-9966","addr":"경기도 연천군 전곡읍 전곡리 260-5번지","indutype":"일반휴게음식 - 일반한식","category":"restaurant"},{"name":"엄마손식당","tel":"031-832-0086","addr":"경기도 연천군 전곡읍 전곡리 260-5번지 5,6,7호","indutype":"일반휴게음식 - 일반한식","category":"restaurant"}]},{"lat":"38.01514367","long":"127.0766956","imageIndex":4,"items":[{"name":"다래가든","tel":"031-832-7892","addr":"경기도 연천군 전곡읍 전곡리 56-5번지 1층","indutype":"일반휴게음식 - 일반한식","category":"restaurant"}]},{"lat":"38.01767822","long":"127.0717786","imageIndex":4,"items":[{"name":"다올 족발","tel":"031-835-9288","addr":"경기도 연천군 전곡읍 전곡리 237-17번지 1,2층","indutype":"일반휴게음식 - 일반한식","category":"restaurant"}]},{"lat":"38.02848194","long":"127.0686679","imageIndex":4,"items":[{"name":"닭이봉원조춘천닭갈비","tel":"031-835-3249","addr":"경기도 연천군 전곡읍 전곡리 454-22번지","indutype":"일반휴게음식 - 일반한식","category":"restaurant"}]},{"lat":"38.02905935","long":"127.0671764","imageIndex":4,"items":[{"name":"대가보신탕","tel":"031-832-3491","addr":"경기도 연천군 전곡읍 전곡리 457-17번지","indutype":"일반휴게음식 - 일반한식","category":"restaurant"}]},{"lat":"38.0093748","long":"127.0664532","imageIndex":4,"items":[{"name":"대명식당","tel":"031-832-5547","addr":"경기도 연천군 전곡읍 전곡리 108","indutype":"일반휴게음식 - 일반한식","category":"restaurant"}]},{"lat":"38.02367045","long":"127.0697797","imageIndex":4,"items":[{"name":"대복식당","tel":"031-832-2612","addr":"경기도 연천군 전곡읍 전곡리 308-2","indutype":"일반휴게음식 - 일반한식","category":"restaurant"},{"name":"어촌 낙지 마을","tel":"031-832-2604","addr":"경기도 연천군 전곡읍 전곡리 308-2번지","indutype":"일반휴게음식 - 일반한식","category":"restaurant"},{"name":"은하식당","tel":"031-832-2604","addr":"경기도 연천군 전곡읍 전곡리 308-2번지","indutype":"일반휴게음식 - 일반한식","category":"restaurant"}]},{"lat":"38.02761735","long":"127.068166","imageIndex":4,"items":[{"name":"대장금","tel":"031-833-3999","addr":"경기도 연천군 전곡읍 전곡리 459-43 459-70","indutype":"일반휴게음식 - 일반한식","category":"restaurant"}]},{"lat":"38.02830968","long":"127.0705926","imageIndex":4,"items":[{"name":"대정골","tel":"031-832-0574","addr":"경기도 연천군 전곡읍 전곡리 340-13번지","indutype":"일반휴게음식 - 일반한식","category":"restaurant"}]},{"lat":"38.02525704","long":"127.0680273","imageIndex":4,"items":[{"name":"대흥식당","tel":"031-832-0038","addr":"경기도 연천군 전곡읍 전곡리 469-22번지","indutype":"일반휴게음식 - 스넥","category":"restaurant"}]},{"lat":"38.02605904","long":"127.0676749","imageIndex":4,"items":[{"name":"더 벤티 연천전곡점","tel":"031-835-2626","addr":"경기도 연천군 전곡읍 전곡리 480-25번지 1층","indutype":"일반휴게음식 - 서양음식","category":"restaurant"}]},{"lat":"38.02558948","long":"127.069622","imageIndex":4,"items":[{"name":"도리도리","tel":"031-835-7982","addr":"경기도 연천군 전곡읍 전곡리 333-32번지 나동 1층","indutype":"일반휴게음식 - 서양음식","category":"restaurant"}]},{"lat":"38.02175536","long":"127.0626146","imageIndex":4,"items":[{"name":"돈까스나라","tel":"031-832-2230","addr":"경기도 연천군 전곡읍 전곡리 289-7번지","indutype":"일반휴게음식 - 일반한식","category":"restaurant"},{"name":"온골부대찌개","tel":"031-833-2333","addr":"경기도 연천군 전곡읍 전곡리 289-7번지","indutype":"일반휴게음식 - 일반한식","category":"restaurant"}]},{"lat":"38.02805832","long":"127.0690092","imageIndex":4,"items":[{"name":"돈미옥","tel":"031-000-0000","addr":"경기도 연천군 전곡읍 전곡리 454-30번지","indutype":"일반휴게음식 - 일반한식","category":"restaurant"},{"name":"최고에 밥상","tel":"031-835-7719","addr":"경기도 연천군 전곡읍 전곡리 454-30번지","indutype":"일반휴게음식 - 일반한식","category":"restaurant"}]},{"lat":"38.03148049","long":"127.0712789","imageIndex":4,"items":[{"name":"돈치킨피자","tel":"031-833-1222","addr":"경기도 연천군 전곡읍 전곡리 386-10번지","indutype":"일반휴게음식 - 스넥","category":"restaurant"}]},{"lat":"38.02645574","long":"127.06714","imageIndex":4,"items":[{"name":"돌채불고기","tel":"031-832-1116","addr":"경기도 연천군 전곡읍 전곡리 483-109번지","indutype":"일반휴게음식 - 일반한식","category":"restaurant"}]},{"lat":"38.02422906","long":"127.0697005","imageIndex":4,"items":[{"name":"동대문 엽기떡볶이","tel":"031-111-1111","addr":"경기도 연천군 전곡읍 전곡리 306-3번지 106,107호","indutype":"일반휴게음식 - 일반한식","category":"restaurant"},{"name":"뼈다귀천국","tel":"031-832-8255","addr":"경기도 연천군 전곡읍 전곡리 306-3","indutype":"일반휴게음식 - 일반한식","category":"restaurant"}]},{"lat":"38.0270047","long":"127.0682224","imageIndex":4,"items":[{"name":"두꺼비식당","tel":"031-832-7716","addr":"경기도 연천군 전곡읍 전곡리 460-44번지","indutype":"일반휴게음식 - 일반한식","category":"restaurant"}]},{"lat":"38.02442792","long":"127.0685276","imageIndex":4,"items":[{"name":"디저트39(연천전곡점)","tel":"031-835-7739","addr":"경기도 연천군 전곡읍 전곡리 305-24번지 1층","indutype":"일반휴게음식 - 서양음식","category":"restaurant"}]},{"lat":"38.02725621","long":"127.0695552","imageIndex":4,"items":[{"name":"또또와","tel":"","addr":"경기도 연천군 전곡읍 전곡리 333-178번지","indutype":"일반휴게음식 - 일반한식","category":"restaurant"}]},{"lat":"38.02784206","long":"127.0690888","imageIndex":4,"items":[{"name":"뚱스포차","tel":"031-832-7414","addr":"경기도 연천군 전곡읍 전곡리 454-36번지","indutype":"일반휴게음식 - 일반한식","category":"restaurant"}]},{"lat":"38.02564404","long":"127.0687223","imageIndex":4,"items":[{"name":"뜨락","tel":"031-832-2114","addr":"경기도 연천군 전곡읍 전곡리 336-33번지","indutype":"일반휴게음식 - 일반한식","category":"restaurant"},{"name":"피자나라치킨공주","tel":"031-835-8982","addr":"경기도 연천군 전곡읍 전곡리 336-33번지","indutype":"일반휴게음식 - 스넥","category":"restaurant"}]},{"lat":"38.02950957","long":"127.067621","imageIndex":4,"items":[{"name":"로스타임","tel":"031-832-3990","addr":"경기도 연천군 전곡읍 전곡리 456-43번지","indutype":"일반휴게음식 - 일반한식","category":"restaurant"}]},{"lat":"38.01436853","long":"127.0613105","imageIndex":4,"items":[{"name":"로이(Roi)","tel":"031-835-5612","addr":"경기도 연천군 전곡읍 전곡리 515번지","indutype":"일반휴게음식 - 서양음식","category":"restaurant"}]},{"lat":"38.02514915","long":"127.0676172","imageIndex":4,"items":[{"name":"롯데리아전곡점","tel":"031-832-2552","addr":"경기도 연천군 전곡읍 전곡리 474-2번지","indutype":"일반휴게음식 - 서양음식","category":"restaurant"},{"name":"채선당 전곡점","tel":"031-832-3337","addr":"경기도 연천군 전곡읍 전곡리 474-2번지","indutype":"일반휴게음식 - 일반한식","category":"restaurant"},{"name":"코다츠","tel":"031-832-7987","addr":"경기도 연천군 전곡읍 전곡리 474-2번지 2층","indutype":"일반휴게음식 - 일반한식","category":"restaurant"},{"name":"터미널 레스 호프 식당","tel":"031-835-2156","addr":"경기도 연천군 전곡읍 전곡리 474-2번지 지하","indutype":"일반휴게음식 - 주점","category":"restaurant"},{"name":"파스타 조","tel":"031-832-0206","addr":"경기도 연천군 전곡읍 전곡리 474-2번지","indutype":"일반휴게음식 - 서양음식","category":"restaurant"}]},{"lat":"38.0246718","long":"127.067389","imageIndex":4,"items":[{"name":"루쏘(LUSSO)","tel":"070-7316-6883","addr":"경기도 연천군 전곡읍 전곡리 485-34번지","indutype":"일반휴게음식 - 서양음식","category":"restaurant"},{"name":"월선네 모던주막","tel":"","addr":"경기도 연천군 전곡읍 전곡리 485-34번지","indutype":"일반휴게음식 - 일반한식","category":"restaurant"}]},{"lat":"38.02297612","long":"127.070861","imageIndex":4,"items":[{"name":"마당쇠","tel":"031-835-1040","addr":"경기도 연천군 전곡읍 전곡리 310-20번지","indutype":"일반휴게음식 - 일반한식","category":"restaurant"}]},{"lat":"38.02973199","long":"127.0725302","imageIndex":4,"items":[{"name":"마루카페","tel":"031-832-8733","addr":"경기도 연천군 전곡읍 전곡리 367-5번지","indutype":"일반휴게음식 - 서양음식","category":"restaurant"}]},{"lat":"38.02956349","long":"127.0678602","imageIndex":4,"items":[{"name":"마스터 통삼겹","tel":"031-832-0199","addr":"경기도 연천군 전곡읍 전곡리 456-35번지","indutype":"일반휴게음식 - 일반한식","category":"restaurant"}]},{"lat":"38.02486937","long":"127.068528","imageIndex":4,"items":[{"name":"마왕족발 연천전곡점","tel":"031-835-2588","addr":"경기도 연천군 전곡읍 전곡리 469-29번지","indutype":"일반휴게음식 - 일반한식","category":"restaurant"},{"name":"이가네칡냉면","tel":"031-832-1060","addr":"경기도 연천군 전곡읍 전곡리 469-29번지","indutype":"일반휴게음식 - 일반한식","category":"restaurant"}]},{"lat":"38.02567122","long":"127.068449","imageIndex":4,"items":[{"name":"맘스터치전곡점","tel":"031-835-7750","addr":"경기도 연천군 전곡읍 전곡리 462-41번지","indutype":"일반휴게음식 - 일반한식","category":"restaurant"}]},{"lat":"38.02503106","long":"127.069371","imageIndex":4,"items":[{"name":"맛있는만두","tel":"031-832-1170","addr":"경기도 연천군 전곡읍 전곡리 336-76","indutype":"일반휴게음식 - 일반한식","category":"restaurant"},{"name":"삼겹살파티","tel":"031-832-9009","addr":"경기도 연천군 전곡읍 전곡리 336-76번지","indutype":"일반휴게음식 - 일반한식","category":"restaurant"},{"name":"세실호프","tel":"031-832-2121","addr":"경기도 연천군 전곡읍 전곡리 336-76번지 2층","indutype":"일반휴게음식 - 주점","category":"restaurant"},{"name":"신마포갈매기","tel":"031-835-6092","addr":"경기도 연천군 전곡읍 전곡리 336-76번지","indutype":"일반휴게음식 - 일반한식","category":"restaurant"},{"name":"처음처럼","tel":"031-832-2506","addr":"경기도 연천군 전곡읍 전곡리 336-76번지","indutype":"일반휴게음식 - 일반한식","category":"restaurant"},{"name":"태광식당","tel":"031-000-0000","addr":"경기도 연천군 전곡읍 전곡리 336-76번지","indutype":"일반휴게음식 - 일반한식","category":"restaurant"}]},{"lat":"38.01917749","long":"127.0650382","imageIndex":4,"items":[{"name":"맛자랑 순대국","tel":"031-833-9595","addr":"경기도 연천군 전곡읍 전곡리 285-8번지","indutype":"일반휴게음식 - 일반한식","category":"restaurant"}]},{"lat":"38.02450937","long":"127.0678672","imageIndex":4,"items":[{"name":"매니아","tel":"","addr":"경기도 연천군 전곡읍 전곡리 302-18번지","indutype":"일반휴게음식 - 주점","category":"restaurant"}]},{"lat":"38.02617583","long":"127.0682786","imageIndex":4,"items":[{"name":"메가커피","tel":"031-833-3336","addr":"경기도 연천군 전곡읍 전곡리 462-16번지","indutype":"일반휴게음식 - 서양음식","category":"restaurant"}]},{"lat":"38.02525711","long":"127.0678906","imageIndex":4,"items":[{"name":"명랑핫도그","tel":"031-1111-1111","addr":"경기도 연천군 전곡읍 전곡리 473-3번지","indutype":"일반휴게음식 - 서양음식","category":"restaurant"}]},{"lat":"38.02437113","long":"127.073254","imageIndex":4,"items":[{"name":"모던닭발","tel":"031-000-0000","addr":"경기도 연천군 전곡읍 전곡리 332-182번지","indutype":"일반휴게음식 - 일반한식","category":"restaurant"}]},{"lat":"38.02292261","long":"127.0699157","imageIndex":4,"items":[{"name":"모향촌손두부","tel":"031-832-1372","addr":"경기도 연천군 전곡읍 전곡리 312-32번지","indutype":"일반휴게음식 - 일반한식","category":"restaurant"}]},{"lat":"38.02609422","long":"127.0692239","imageIndex":4,"items":[{"name":"못난이꽈배기전곡점","tel":"031-832-1015","addr":"경기도 연천군 전곡읍 전곡리 336-14번지","indutype":"일반휴게음식 - 스넥","category":"restaurant"}]},{"lat":"38.02895099","long":"127.0676433","imageIndex":4,"items":[{"name":"묵은지","tel":"031-832-0963","addr":"경기도 연천군 전곡읍 전곡리 457-11번지","indutype":"일반휴게음식 - 일반한식","category":"restaurant"}]},{"lat":"38.01698386","long":"127.0728939","imageIndex":4,"items":[{"name":"문화공간 카페- in","tel":"","addr":"경기도 연천군 전곡읍 전곡리 239-13번지","indutype":"일반휴게음식 - 서양음식","category":"restaurant"}]},{"lat":"38.02523009","long":"127.0678906","imageIndex":4,"items":[{"name":"미소야","tel":"031-832-2070","addr":"경기도 연천군 전곡읍 전곡리 473-5번지","indutype":"일반휴게음식 - 일식·회집","category":"restaurant"}]},{"lat":"38.02775288","long":"127.0674486","imageIndex":4,"items":[{"name":"미스터피자전곡점","tel":"031-833-1577","addr":"경기도 연천군 전곡읍 전곡리 458-2번지 태성빌딩","indutype":"일반휴게음식 - 서양음식","category":"restaurant"}]},{"lat":"38.02270559","long":"127.0713049","imageIndex":4,"items":[{"name":"미원손두부보리밥","tel":"031-835-1366","addr":"경기도 연천군 전곡읍 전곡리 333-607번지","indutype":"일반휴게음식 - 일반한식","category":"restaurant"}]},{"lat":"38.0187858","long":"127.072702","imageIndex":4,"items":[{"name":"민초쌈밥","tel":"031-835-5353","addr":"경기도 연천군 전곡읍 전곡리 261-18번지","indutype":"일반휴게음식 - 일반한식","category":"restaurant"}]},{"lat":"38.027059","long":"127.0677783","imageIndex":4,"items":[{"name":"바불리옛날왕만두","tel":"","addr":"경기도 연천군 전곡읍 전곡리 479-48번지","indutype":"일반휴게음식 - 일반한식","category":"restaurant"}]},{"lat":"38.0269772","long":"127.0690652","imageIndex":4,"items":[{"name":"바카스","tel":"031-832-8181","addr":"경기도 연천군 전곡읍 전곡리 333-7","indutype":"일반휴게음식 - 일반한식","category":"restaurant"}]},{"lat":"38.02672543","long":"127.0681994","imageIndex":4,"items":[{"name":"박뜯어봐","tel":"031-832-2395","addr":"경기도 연천군 전곡읍 전곡리 460-53번지","indutype":"일반휴게음식 - 일반한식","category":"restaurant"}]},{"lat":"38.01686803","long":"127.070696","imageIndex":4,"items":[{"name":"박순자 옛날통닭&똥집","tel":"031-832-8799","addr":"경기도 연천군 전곡읍 전곡리 704번지 휴먼시아 1동 107호","indutype":"일반휴게음식 - 일반한식","category":"restaurant"},{"name":"밥이술술도시락","tel":"031-835-5959","addr":"경기도 연천군 전곡읍 전곡리 704번지 104호 상가","indutype":"일반휴게음식 - 일반한식","category":"restaurant"}]},{"lat":"38.02442808","long":"127.0682315","imageIndex":4,"items":[{"name":"박원명초밥&참치전문점","tel":"031-833-7798","addr":"경기도 연천군 전곡읍 전곡리 471-5번지","indutype":"일반휴게음식 - 일식·회집","category":"restaurant"}]},{"lat":"38.02458999","long":"127.0686986","imageIndex":4,"items":[{"name":"백정한판","tel":"031-833-0678","addr":"경기도 연천군 전곡읍 전곡리 335-4번지 진성빌딩","indutype":"일반휴게음식 - 일반한식","category":"restaurant"},{"name":"블루","tel":"031-111-1111","addr":"경기도 연천군 전곡읍 전곡리 335-4번지 진성빌딩 지하1층","indutype":"일반휴게음식 - 주점","category":"restaurant"},{"name":"블루바","tel":"","addr":"경기도 연천군 전곡읍 전곡리 335-4번지 진성빌딩 지하1층","indutype":"일반휴게음식 - 주점","category":"restaurant"}]},{"lat":"38.02333894","long":"127.0664767","imageIndex":4,"items":[{"name":"백화원","tel":"031-832-1100","addr":"경기도 연천군 전곡읍 전곡리 293-14번지","indutype":"일반휴게음식 - 일반한식","category":"restaurant"},{"name":"양평뚝배기해장국","tel":"031-832-0088","addr":"경기도 연천군 전곡읍 전곡리 293-14번지 건영상가 1층 3호","indutype":"일반휴게음식 - 일반한식","category":"restaurant"},{"name":"카페리","tel":"031-832-0608","addr":"경기도 연천군 전곡읍 전곡리 293-14번지 4호","indutype":"일반휴게음식 - 서양음식","category":"restaurant"}]},{"lat":"38.02731106","long":"127.0681202","imageIndex":4,"items":[{"name":"보리보쌈","tel":"031-832-2012","addr":"경기도 연천군 전곡읍 전곡리 458-25번지","indutype":"일반휴게음식 - 일반한식","category":"restaurant"},{"name":"영자네서","tel":"031-832-1112","addr":"경기도 연천군 전곡읍 전곡리 458-25번지","indutype":"일반휴게음식 - 일반한식","category":"restaurant"}]},{"lat":"38.02994934","long":"127.0705827","imageIndex":4,"items":[{"name":"본가놀부왕족발보쌈","tel":"031-833-7878","addr":"경기도 연천군 전곡읍 전곡리 347-20","indutype":"일반휴게음식 - 일반한식","category":"restaurant"}]},{"lat":"38.03178672","long":"127.0714159","imageIndex":4,"items":[{"name":"부뚜막","tel":"031-835-7979","addr":"경기도 연천군 전곡읍 전곡리 386-1번지","indutype":"일반휴게음식 - 일반한식","category":"restaurant"}]},{"lat":"38.02969845","long":"127.0681679","imageIndex":4,"items":[{"name":"부뚜막식당","tel":"070-4232-7505","addr":"경기도 연천군 전곡읍 전곡리 456-12번지","indutype":"일반휴게음식 - 일반한식","category":"restaurant"}]},{"lat":"38.02828408","long":"127.0680641","imageIndex":4,"items":[{"name":"부마","tel":"031-832-3255","addr":"경기도 연천군 전곡읍 전곡리 455-61번지","indutype":"일반휴게음식 - 일반한식","category":"restaurant"}]},{"lat":"38.02856295","long":"127.0688047","imageIndex":4,"items":[{"name":"부평식당","tel":"031-832-0998","addr":"경기도 연천군 전곡읍 전곡리 454-18번지","indutype":"일반휴게음식 - 일반한식","category":"restaurant"}]},{"lat":"38.02597732","long":"127.0688365","imageIndex":4,"items":[{"name":"비엠더블유(BMW)","tel":"031-832-1188","addr":"경기도 연천군 전곡읍 전곡리 336-94번지","indutype":"일반휴게음식 - 주점","category":"restaurant"}]},{"lat":"38.0262568","long":"127.0684723","imageIndex":4,"items":[{"name":"산양100유","tel":"031-000-0000","addr":"경기도 연천군 전곡읍 전곡리 462-37번지","indutype":"일반휴게음식 - 일반한식","category":"restaurant"}]},{"lat":"38.02470428","long":"127.0735618","imageIndex":4,"items":[{"name":"산오징어전어","tel":"031-832-5750","addr":"경기도 연천군 전곡읍 전곡리 329-21번지","indutype":"일반휴게음식 - 일반한식","category":"restaurant"},{"name":"치킨타임","tel":"031-832-8877","addr":"경기도 연천군 전곡읍 전곡리 329-21번지 1층","indutype":"일반휴게음식 - 스넥","category":"restaurant"}]},{"lat":"38.0096161","long":"127.0699491","imageIndex":4,"items":[{"name":"산책","tel":"031-832-6634","addr":"경기도 연천군 전곡읍 전곡리 96-1번지","indutype":"일반휴게음식 - 일반한식","category":"restaurant"}]},{"lat":"38.03530811","long":"127.0733897","imageIndex":4,"items":[{"name":"삼부식당","tel":"031-833-2930","addr":"경기도 연천군 전곡읍 전곡리 430-24번지 1층","indutype":"일반휴게음식 - 일반한식","category":"restaurant"}]},{"lat":"38.02642716","long":"127.0699189","imageIndex":4,"items":[{"name":"삼순이커피숍","tel":"031-832-1500","addr":"경기도 연천군 전곡읍 전곡리 333-251번지 롯데모텔 1층","indutype":"일반휴게음식 - 서양음식","category":"restaurant"},{"name":"할매 분식","tel":"031-832-3641","addr":"경기도 연천군 전곡읍 전곡리 333-251번지","indutype":"일반휴게음식 - 스넥","category":"restaurant"}]},{"lat":"38.02014583","long":"127.0732841","imageIndex":4,"items":[{"name":"삼시세끼백반","tel":"031-833-1026","addr":"경기도 연천군 전곡읍 전곡리 254번지","indutype":"일반휴게음식 - 일반한식","category":"restaurant"}]},{"lat":"38.02589591","long":"127.0694173","imageIndex":4,"items":[{"name":"삼청동동태탕","tel":"031-832-4357","addr":"경기도 연천군 전곡읍 전곡리 336-16번지","indutype":"일반휴게음식 - 일반한식","category":"restaurant"},{"name":"카페공간","tel":"031-832-1888","addr":"경기도 연천군 전곡읍 전곡리 336-16번지","indutype":"일반휴게음식 - 서양음식","category":"restaurant"},{"name":"한입식도락","tel":"070-7617-1600","addr":"경기도 연천군 전곡읍 전곡리 336-16번지","indutype":"일반휴게음식 - 일반한식","category":"restaurant"}]},{"lat":"38.02578854","long":"127.0680847","imageIndex":4,"items":[{"name":"생활맥주 연천전곡점","tel":"031-835-7776","addr":"경기도 연천군 전곡읍 전곡리 336-2번지 2층","indutype":"일반휴게음식 - 주점","category":"restaurant"}]},{"lat":"38.02500453","long":"127.0684826","imageIndex":4,"items":[{"name":"설빙","tel":"031-832-6040","addr":"경기도 연천군 전곡읍 전곡리 469-14번지 2층","indutype":"일반휴게음식 - 일반한식","category":"restaurant"},{"name":"아벡데프리츠","tel":"031-835-0900","addr":"경기도 연천군 전곡읍 전곡리 469-14번지","indutype":"일반휴게음식 - 주점","category":"restaurant"}]},{"lat":"38.02312013","long":"127.0711117","imageIndex":4,"items":[{"name":"설악순두부","tel":"031-832-1372","addr":"경기도 연천군 전곡읍 전곡리 333-366번지","indutype":"일반휴게음식 - 일반한식","category":"restaurant"}]},{"lat":"38.02625731","long":"127.0675612","imageIndex":4,"items":[{"name":"성일분식","tel":"031-832-2655","addr":"경기도 연천군 전곡읍 전곡리 480-30번지","indutype":"일반휴게음식 - 일반한식","category":"restaurant"},{"name":"엘리팝","tel":"031-835-7339","addr":"경기도 연천군 전곡읍 전곡리 480-30번지","indutype":"일반휴게음식 - 주점","category":"restaurant"}]},{"lat":"38.01917714","long":"127.0656987","imageIndex":4,"items":[{"name":"소달구지","tel":"031-832-8292","addr":"경기도 연천군 전곡읍 전곡리 283-7번지","indutype":"일반휴게음식 - 일반한식","category":"restaurant"},{"name":"소달구지","tel":"031-832-8292","addr":"경기도 연천군 전곡읍 전곡리 283-7번지","indutype":"일반휴게음식 - 일반한식","category":"restaurant"}]},{"lat":"38.02623039","long":"127.0673676","imageIndex":4,"items":[{"name":"소담돈까스","tel":"031-835-2173","addr":"경기도 연천군 전곡읍 전곡리 480-34번지","indutype":"일반휴게음식 - 일반한식","category":"restaurant"}]},{"lat":"38.02748229","long":"127.0680292","imageIndex":4,"items":[{"name":"소라네 마약김밥","tel":"031-833-7680","addr":"경기도 연천군 전곡읍 전곡리 458-22번지","indutype":"일반휴게음식 - 스넥","category":"restaurant"}]},{"lat":"38.02489371","long":"127.0731748","imageIndex":4,"items":[{"name":"소복소복","tel":"070-4200-4775","addr":"경기도 연천군 전곡읍 전곡리 332-10번지 1층","indutype":"일반휴게음식 - 서양음식","category":"restaurant"},{"name":"야인통닭","tel":"031-833-0492","addr":"경기도 연천군 전곡읍 전곡리 332-10번지","indutype":"일반휴게음식 - 스넥","category":"restaurant"}]},{"lat":"38.02686937","long":"127.068564","imageIndex":4,"items":[{"name":"소소한달","tel":"031-000-0000","addr":"경기도 연천군 전곡읍 전곡리 460-18번지 2층","indutype":"일반휴게음식 - 일반한식","category":"restaurant"}]},{"lat":"38.02833819","long":"127.067973","imageIndex":4,"items":[{"name":"송가곱창","tel":"031-000-0000","addr":"경기도 연천군 전곡읍 전곡리 455-59번지","indutype":"일반휴게음식 - 일반한식","category":"restaurant"}]},{"lat":"38.02706709","long":"127.0694184","imageIndex":4,"items":[{"name":"송가네오리마을","tel":"031-833-3232","addr":"경기도 연천군 전곡읍 전곡리 333-182번지","indutype":"일반휴게음식 - 일반한식","category":"restaurant"}]},{"lat":"38.02489673","long":"127.0679244","imageIndex":4,"items":[{"name":"송탄햄버거","tel":"031-833-3088","addr":"경기도 연천군 전곡읍 전곡리 470-9번지 외1필지","indutype":"일반휴게음식 - 스넥","category":"restaurant"},{"name":"피자나눔터","tel":"031-832-0552","addr":"경기도 연천군 전곡읍 전곡리 470-9번지 나동","indutype":"일반휴게음식 - 서양음식","category":"restaurant"}]},{"lat":"38.02278867","long":"127.0677859","imageIndex":4,"items":[{"name":"수피자","tel":"031-832-8320","addr":"경기도 연천군 전곡읍 전곡리 297-3번지 1동 4호","indutype":"일반휴게음식 - 서양음식","category":"restaurant"},{"name":"오떡 (연천,전곡점)","tel":"031-835-5840","addr":"경기도 연천군 전곡읍 전곡리 297-3번지 1동 3,4호","indutype":"일반휴게음식 - 스넥","category":"restaurant"}]},{"lat":"38.02684356","long":"127.0663431","imageIndex":4,"items":[{"name":"숙이네","tel":"031-833-2376","addr":"경기도 연천군 전곡읍 전곡리 483-87","indutype":"일반휴게음식 - 일반한식","category":"restaurant"}]},{"lat":"38.00981451","long":"127.069585","imageIndex":4,"items":[{"name":"시나몬","tel":"070-7760-4686","addr":"경기도 연천군 전곡읍 전곡리 89-8","indutype":"일반휴게음식 - 서양음식","category":"restaurant"}]},{"lat":"38.02625658","long":"127.0688709","imageIndex":4,"items":[{"name":"신림동대박순대곱창","tel":"031-833-9282","addr":"경기도 연천군 전곡읍 전곡리 462-29번지 1층","indutype":"일반휴게음식 - 일반한식","category":"restaurant"}]},{"lat":"38.02756279","long":"127.0690657","imageIndex":4,"items":[{"name":"신망리 순대국","tel":"031-833-8558","addr":"경기도 연천군 전곡읍 전곡리 333-143번지","indutype":"일반휴게음식 - 일반한식","category":"restaurant"}]},{"lat":"38.02545516","long":"127.0681755","imageIndex":4,"items":[{"name":"신전떡볶이","tel":"031-835-0888","addr":"경기도 연천군 전곡읍 전곡리 336-61번지 1층","indutype":"일반휴게음식 - 스넥","category":"restaurant"}]},{"lat":"38.02842714","long":"127.0700005","imageIndex":4,"items":[{"name":"신포닭강정175","tel":"031-833-5770","addr":"경기도 연천군 전곡읍 전곡리 340-21번지","indutype":"일반휴게음식 - 스넥","category":"restaurant"},{"name":"제일반점","tel":"031-832-1236","addr":"경기도 연천군 전곡읍 전곡리 340-21번지","indutype":"일반휴게음식 - 중국식","category":"restaurant"},{"name":"제일분식","tel":"031-000-0000","addr":"경기도 연천군 전곡읍 전곡리 340-21번지","indutype":"일반휴게음식 - 스넥","category":"restaurant"}]},{"lat":"38.0258956","long":"127.0699526","imageIndex":4,"items":[{"name":"신화불닭발","tel":"031-835-9279","addr":"경기도 연천군 전곡읍 전곡리 333-260번지","indutype":"일반휴게음식 - 일반한식","category":"restaurant"}]},{"lat":"38.02261657","long":"127.0694485","imageIndex":4,"items":[{"name":"쌍둥이부대찌개","tel":"031-835-7900","addr":"경기도 연천군 전곡읍 전곡리 300-17번지","indutype":"일반휴게음식 - 일반한식","category":"restaurant"},{"name":"원조장군족발","tel":"031-832-0733","addr":"경기도 연천군 전곡읍 전곡리 300-17번지 1층","indutype":"일반휴게음식 - 일반한식","category":"restaurant"}]},{"lat":"38.02761747","long":"127.0679496","imageIndex":4,"items":[{"name":"쌤통돌곱창","tel":"031-000-0000","addr":"경기도 연천군 전곡읍 전곡리 458-15번지","indutype":"일반휴게음식 - 일반한식","category":"restaurant"}]},{"lat":"38.02631048","long":"127.0691443","imageIndex":4,"items":[{"name":"쑤와리 질러","tel":"","addr":"경기도 연천군 전곡읍 전곡리 333-169번지","indutype":"일반휴게음식 - 일반한식","category":"restaurant"}]},{"lat":"38.01556194","long":"127.0702848","imageIndex":4,"items":[{"name":"아가페식당","tel":"031-834-4297","addr":"경기도 연천군 전곡읍 전곡리 232-2번지 2동","indutype":"일반휴게음식 - 일반한식","category":"restaurant"},{"name":"중원","tel":"031-832-1259","addr":"경기도 연천군 전곡읍 전곡리 232-2번지 2동 1층","indutype":"일반휴게음식 - 중국식","category":"restaurant"}]},{"lat":"38.02697683","long":"127.0697258","imageIndex":4,"items":[{"name":"아랑호프","tel":"","addr":"경기도 연천군 전곡읍 전곡리 333-244번지","indutype":"일반휴게음식 - 주점","category":"restaurant"}]},{"lat":"38.02556293","long":"127.0687792","imageIndex":4,"items":[{"name":"아서원","tel":"031-832-3425","addr":"경기도 연천군 전곡읍 전곡리 336-46번지","indutype":"일반휴게음식 - 중국식","category":"restaurant"}]},{"lat":"38.02889718","long":"127.067199","imageIndex":4,"items":[{"name":"아씨보쌈","tel":"031-833-5353","addr":"경기도 연천군 전곡읍 전곡리 457-43번지","indutype":"일반휴게음식 - 일반한식","category":"restaurant"}]},{"lat":"38.02889666","long":"127.0681444","imageIndex":4,"items":[{"name":"아지트","tel":"","addr":"경기도 연천군 전곡읍 전곡리 455-29번지","indutype":"일반휴게음식 - 일반한식","category":"restaurant"},{"name":"평창식당","tel":"031-833-8530","addr":"경기도 연천군 전곡읍 전곡리 455-29번지","indutype":"일반휴게음식 - 일반한식","category":"restaurant"}]},{"lat":"38.02567093","long":"127.0689729","imageIndex":4,"items":[{"name":"안서방네","tel":"031-832-5323","addr":"경기도 연천군 전곡읍 전곡리 464-4번지","indutype":"일반휴게음식 - 일반한식","category":"restaurant"}]},{"lat":"38.02689682","long":"127.0678123","imageIndex":4,"items":[{"name":"알리바바","tel":"031-835-1288","addr":"경기도 연천군 전곡읍 전곡리 479-46번지 1층","indutype":"일반휴게음식 - 일반한식","category":"restaurant"}]},{"lat":"38.03053582","long":"127.0690342","imageIndex":4,"items":[{"name":"압록강면옥","tel":"031-835-7224","addr":"경기도 연천군 전곡읍 전곡리 447-41번지","indutype":"일반휴게음식 - 일반한식","category":"restaurant"}]},{"lat":"38.02717571","long":"127.0685073","imageIndex":4,"items":[{"name":"앗싸곱창","tel":"031-832-2174","addr":"경기도 연천군 전곡읍 전곡리 460-30","indutype":"일반휴게음식 - 일반한식","category":"restaurant"}]},{"lat":"38.02859007","long":"127.0686452","imageIndex":4,"items":[{"name":"앙플러브","tel":"","addr":"경기도 연천군 전곡읍 전곡리 454-20번지","indutype":"일반휴게음식 - 일반한식","category":"restaurant"}]},{"lat":"38.02572574","long":"127.0676177","imageIndex":4,"items":[{"name":"얌샘","tel":"031-832-5663","addr":"경기도 연천군 전곡읍 전곡리 477-6번지","indutype":"일반휴게음식 - 일반한식","category":"restaurant"}]},{"lat":"38.02848283","long":"127.067062","imageIndex":4,"items":[{"name":"어수정국수","tel":"031-835-8005","addr":"경기도 연천군 전곡읍 전곡리 457-49번지","indutype":"일반휴게음식 - 일반한식","category":"restaurant"}]},{"lat":"38.02828369","long":"127.0687589","imageIndex":4,"items":[{"name":"엄마밥집","tel":"","addr":"경기도 연천군 전곡읍 전곡리 454-25번지","indutype":"일반휴게음식 - 일반한식","category":"restaurant"}]},{"lat":"38.02767131","long":"127.0683369","imageIndex":4,"items":[{"name":"에스 (S)","tel":"031-833-7990","addr":"경기도 연천군 전곡읍 전곡리 459-41","indutype":"일반휴게음식 - 일반한식","category":"restaurant"}]},{"lat":"38.01445447","long":"127.0691451","imageIndex":4,"items":[{"name":"엠가든","tel":"","addr":"경기도 연천군 전곡읍 전곡리 85-33번지 맨하탄모텔 나동 1층","indutype":"일반휴게음식 - 일반한식","category":"restaurant"}]},{"lat":"38.02533799","long":"127.0682551","imageIndex":4,"items":[{"name":"연인","tel":"031-835-5616","addr":"경기도 연천군 전곡읍 전곡리 468-1번지","indutype":"일반휴게음식 - 일반한식","category":"restaurant"}]},{"lat":"38.02520245","long":"127.0689725","imageIndex":4,"items":[{"name":"영흥돌곱창","tel":"031-832-8007","addr":"경기도 연천군 전곡읍 전곡리 336-54번지 1층","indutype":"일반휴게음식 - 일반한식","category":"restaurant"}]},{"lat":"38.02459013","long":"127.0684481","imageIndex":4,"items":[{"name":"예인실버놀이마차","tel":"031-832-6985","addr":"경기도 연천군 전곡읍 전곡리 470-19번지","indutype":"일반휴게음식 - 주점","category":"restaurant"}]},{"lat":"38.02776095","long":"127.0691456","imageIndex":4,"items":[{"name":"옛날 소금구이","tel":"031-833-0915","addr":"경기도 연천군 전곡읍 전곡리 333-139번지","indutype":"일반휴게음식 - 일반한식","category":"restaurant"}]},{"lat":"38.02442859","long":"127.067309","imageIndex":4,"items":[{"name":"옛날토종순대국","tel":"031-000-0000","addr":"경기도 연천군 전곡읍 전곡리 485-14번지","indutype":"일반휴게음식 - 일반한식","category":"restaurant"},{"name":"전박사해물등갈비찜","tel":"031-832-5163","addr":"경기도 연천군 전곡읍 전곡리 485-14번지","indutype":"일반휴게음식 - 일반한식","category":"restaurant"}]},{"lat":"38.02209407","long":"127.0693911","imageIndex":4,"items":[{"name":"오늘통닭","tel":"031-833-5977","addr":"경기도 연천군 전곡읍 전곡리 299-80번지 1층","indutype":"일반휴게음식 - 일반한식","category":"restaurant"}]},{"lat":"38.02578808","long":"127.0689161","imageIndex":4,"items":[{"name":"올푸드","tel":"031-866-7932","addr":"경기도 연천군 전곡읍 전곡리 336-28번지","indutype":"일반휴게음식 - 일반한식","category":"restaurant"}]},{"lat":"38.02705895","long":"127.0678694","imageIndex":4,"items":[{"name":"왕장수족발","tel":"031-832-1432","addr":"경기도 연천군 전곡읍 전곡리 479-9번지","indutype":"일반휴게음식 - 일반한식","category":"restaurant"}]},{"lat":"38.02814865","long":"127.0685879","imageIndex":4,"items":[{"name":"왕창부대찌개","tel":"031-832-7722","addr":"경기도 연천군 전곡읍 전곡리 454-39번지","indutype":"일반휴게음식 - 일반한식","category":"restaurant"}]},{"lat":"38.02795147","long":"127.0667312","imageIndex":4,"items":[{"name":"우거지품은순대국","tel":"031-833-3350","addr":"경기도 연천군 전곡읍 전곡리 483-177번지","indutype":"일반휴게음식 - 일반한식","category":"restaurant"}]},{"lat":"38.02920321","long":"127.0677005","imageIndex":4,"items":[{"name":"우두리식당","tel":"031-832-6768","addr":"경기도 연천군 전곡읍 전곡리 457-4번지","indutype":"일반휴게음식 - 일반한식","category":"restaurant"}]},{"lat":"38.02433769","long":"127.0687781","imageIndex":4,"items":[{"name":"우리도한번 잘구워보세","tel":"031-835-9293","addr":"경기도 연천군 전곡읍 전곡리 305-15번지","indutype":"일반휴게음식 - 일반한식","category":"restaurant"}]},{"lat":"38.02492362","long":"127.068175","imageIndex":4,"items":[{"name":"우리식당","tel":"031-832-0070","addr":"경기도 연천군 전곡읍 전곡리 470-5","indutype":"일반휴게음식 - 일반한식","category":"restaurant"}]},{"lat":"38.02392259","long":"127.0699736","imageIndex":4,"items":[{"name":"우리오리탕","tel":"031-835-7787","addr":"경기도 연천군 전곡읍 전곡리 308-5번지","indutype":"일반휴게음식 - 일반한식","category":"restaurant"},{"name":"한강식당","tel":"031-835-0133","addr":"경기도 연천군 전곡읍 전곡리 308-5번지","indutype":"일반휴게음식 - 일반한식","category":"restaurant"}]},{"lat":"38.02831165","long":"127.0670846","imageIndex":4,"items":[{"name":"우성식당","tel":"031-832-9898","addr":"경기도 연천군 전곡읍 전곡리 457-44번지","indutype":"일반휴게음식 - 일반한식","category":"restaurant"}]},{"lat":"38.02769773","long":"127.0694189","imageIndex":4,"items":[{"name":"울엄마","tel":"031-832-1493","addr":"경기도 연천군 전곡읍 전곡리 333-134번지","indutype":"일반휴게음식 - 일반한식","category":"restaurant"}]},{"lat":"38.02703113","long":"127.0692817","imageIndex":4,"items":[{"name":"원주보신탕","tel":"031-832-8008","addr":"경기도 연천군 전곡읍 전곡리 333-184번지","indutype":"일반휴게음식 - 일반한식","category":"restaurant"}]},{"lat":"38.02858917","long":"127.0702284","imageIndex":4,"items":[{"name":"유명통닭","tel":"031-835-9298","addr":"경기도 연천군 전곡읍 전곡리 340-11번지 1층","indutype":"일반휴게음식 - 스넥","category":"restaurant"}]},{"lat":"38.02553543","long":"127.0696106","imageIndex":4,"items":[{"name":"육회본가","tel":"031-832-7785","addr":"경기도 연천군 전곡읍 전곡리 333-32번지","indutype":"일반휴게음식 - 일반한식","category":"restaurant"},{"name":"칠구 이자카야","tel":"031-000-0000","addr":"경기도 연천군 전곡읍 전곡리 333-32번지","indutype":"일반휴게음식 - 일반한식","category":"restaurant"},{"name":"크림","tel":"031-833-2603","addr":"경기도 연천군 전곡읍 전곡리 333-32번지","indutype":"일반휴게음식 - 서양음식","category":"restaurant"}]},{"lat":"38.02597758","long":"127.0683696","imageIndex":4,"items":[{"name":"이디야커피전곡역점","tel":"031-832-0095","addr":"경기도 연천군 전곡읍 전곡리 462-19번지","indutype":"일반휴게음식 - 서양음식","category":"restaurant"}]},{"lat":"38.02503086","long":"127.069724","imageIndex":4,"items":[{"name":"일차돌연천전곡점","tel":"031-833-3335","addr":"경기도 연천군 전곡읍 전곡리 336-6번지","indutype":"일반휴게음식 - 일반한식","category":"restaurant"}]},{"lat":"38.02678856","long":"127.0680856","imageIndex":4,"items":[{"name":"잉꼬집","tel":"031-832-0376","addr":"경기도 연천군 전곡읍 전곡리 666-19번지","indutype":"일반휴게음식 - 일반한식","category":"restaurant"}]},{"lat":"38.02548183","long":"127.0688133","imageIndex":4,"items":[{"name":"장가네","tel":"031-832-9544","addr":"경기도 연천군 전곡읍 전곡리 336-48번지","indutype":"일반휴게음식 - 일반한식","category":"restaurant"}]},{"lat":"38.02867117","long":"127.0686112","imageIndex":4,"items":[{"name":"쟁이골","tel":"","addr":"경기도 연천군 전곡읍 전곡리 455-20번지","indutype":"일반휴게음식 - 일반한식","category":"restaurant"}]},{"lat":"38.02720316","long":"127.0677556","imageIndex":4,"items":[{"name":"전곡만두분식","tel":"031-832-4146","addr":"경기도 연천군 전곡읍 전곡리 479-23번지","indutype":"일반휴게음식 - 스넥","category":"restaurant"},