[{"lat":"37.002494229","long":"127.23099104","imageIndex":17,"items":[{"name":"(주)우일테크노컬쳐","tel":"031-8057-2115","addr":"경기도 안성시 대덕면 내리 10-1번지 중앙대학교 17호 창업보육센터 1관","indutype":"용역 서비스 - 기타용역서비스","category":"other"},{"name":"(주)케이바이오스","tel":"031-618-9019","addr":"경기도 안성시 대덕면 내리 10-1번지 중앙대학교 창업보육센터 1관 4호","indutype":"농업 - 비료,사료,종자","category":"other"},{"name":"그린은하수소(주)","tel":"031-670-4757","addr":"경기도 안성시 대덕면 내리 10-1번지 중앙대학교 811동 3호","indutype":"전기제품 - 기타전기제품","category":"other"},{"name":"수소천국 (주)","tel":"031-677-7183","addr":"경기도 안성시 대덕면 내리 10-1번지 중앙대안성캠퍼스609관경기벤처창업지원센터 202호","indutype":"전기제품 - 기타전기제품","category":"other"},{"name":"씨유안성중앙대학생복지관점","tel":"031-898-6568","addr":"경기도 안성시 대덕면 내리 10-1번지 중앙대학교 학생복지관 610관 1층","indutype":"유통업 영리 - 편 의 점","category":"other"},{"name":"유원에벤에셀","tel":"031-673-3608","addr":"경기도 안성시 대덕면 내리 10-1번지 중앙대학교","indutype":"서적문구 - 과학기자재","category":"other"},{"name":"이시시 (ECC)","tel":"050-5041-8883","addr":"경기도 안성시 대덕면 내리 10-1번지 중앙대학교 609관 203호","indutype":"용역 서비스 - 사무서비스","category":"other"},{"name":"주식회사 가온","tel":"031-671-1708","addr":"경기도 안성시 대덕면 내리 10-1번지 중앙대학교 609관 201호","indutype":"기타 - 기계공구","category":"other"},{"name":"주식회사 유진테크시스템","tel":"031-670-4755","addr":"경기도 안성시 대덕면 내리 10-1번지 중앙대학교 5호 ,중앙대학교 창업보육센터1관 811관","indutype":"사무통신 - 통신기기","category":"other"},{"name":"태웅system","tel":"031-654-5731","addr":"경기도 안성시 대덕면 내리 10-1번지 (중앙대창업보육센터9호실)","indutype":"건축자재 - 기타건축자재","category":"other"}]},{"lat":"37.001800014","long":"127.22646143","imageIndex":17,"items":[{"name":"(주)코리아세븐안성중대점/953호점","tel":"031-675-9633","addr":"경기도 안성시 대덕면 내리 687-2번지","indutype":"유통업 영리 - 편 의 점","category":"other"}]},{"lat":"37.000692109","long":"127.22624474","imageIndex":17,"items":[{"name":"1979","tel":"031-676-1979","addr":"경기도 안성시 대덕면 내리 141-39번지 트윈노블레스 101호","indutype":"의류 - 정장","category":"other"}]},{"lat":"37.001298644","long":"127.22474109","imageIndex":17,"items":[{"name":"24시 뽀송뽀송 빨래방","tel":"031-675-7549","addr":"경기도 안성시 대덕면 내리 689-5번지 중앙프라자 1층 102호","indutype":"수리서비스 - 세탁소","category":"other"}]},{"lat":"37.002775819","long":"127.22504872","imageIndex":17,"items":[{"name":"DIGITAL집현전","tel":"031-676-6877","addr":"경기도 안성시 대덕면 내리 682-11번지","indutype":"서적문구 - 출판 및 인쇄물","category":"other"}]},{"lat":"37.000632466","long":"127.22441336","imageIndex":17,"items":[{"name":"GS25안성내리점","tel":"02-2006-2485","addr":"경기도 안성시 대덕면 내리 692-1번지 1층","indutype":"유통업 영리 - 편 의 점","category":"other"}]},{"lat":"37.002300332","long":"127.2239351","imageIndex":17,"items":[{"name":"GS25안성웰빙점","tel":"","addr":"경기도 안성시 대덕면 내리 681-7번지","indutype":"유통업 영리 - 편 의 점","category":"other"}]},{"lat":"37.001881786","long":"127.22610217","imageIndex":17,"items":[{"name":"GS25안성중대점","tel":"","addr":"경기도 안성시 대덕면 내리 685-1번지 1층","indutype":"유통업 영리 - 편 의 점","category":"other"}]},{"lat":"37.000387276","long":"127.22057049","imageIndex":17,"items":[{"name":"M.K사무기","tel":"031-671-0331","addr":"경기도 안성시 대덕면 내리 709-8번지 태성펠리체타운제비 101호","indutype":"사무통신 - 사무용 OA기기","category":"other"}]},{"lat":"36.99977632","long":"127.2196026","imageIndex":17,"items":[{"name":"강남전기조명","tel":"031-676-4153","addr":"경기도 안성시 대덕면 내리 591-2번지","indutype":"전기제품 - 기타전기제품","category":"other"}]},{"lat":"37.000910767","long":"127.22496465","imageIndex":17,"items":[{"name":"내리세탁소","tel":"031-675-7184","addr":"경기도 안성시 대덕면 내리 686-4번지","indutype":"수리서비스 - 세탁소","category":"other"}]},{"lat":"37.005052654","long":"127.21679758","imageIndex":17,"items":[{"name":"농업회사법인(주)원농종묘","tel":"031-676-5251","addr":"경기도 안성시 대덕면 내리 455번지","indutype":"농업 - 비료,사료,종자","category":"other"}]},{"lat":"37.003297235","long":"127.22569062","imageIndex":17,"items":[{"name":"다혜꽃방","tel":"031-676-5887","addr":"경기도 안성시 대덕면 내리 676-2번지","indutype":"문화.취미 - 화원","category":"other"}]},{"lat":"37.002444189","long":"127.22410404","imageIndex":17,"items":[{"name":"대덕세탁점","tel":"031-675-9333","addr":"경기도 안성시 대덕면 내리 681-5번지 1층 좌 1층","indutype":"수리서비스 - 세탁소","category":"other"}]},{"lat":"36.999214035","long":"127.22157823","imageIndex":17,"items":[{"name":"대우가스보일러","tel":"031-615-2332","addr":"경기도 안성시 대덕면 내리 713-5","indutype":"건축자재 - 보일러·펌프·샷시","category":"other"}]},{"lat":"37.008217284","long":"127.22071641","imageIndex":17,"items":[{"name":"동우철강","tel":"031-672-2222","addr":"경기도 안성시 대덕면 내리 419-7번지","indutype":"건축자재 - 기타건축자재","category":"other"}]},{"lat":"37.007993746","long":"127.21977199","imageIndex":17,"items":[{"name":"동일철강","tel":"031-674-2710","addr":"경기도 안성시 대덕면 내리 419-8","indutype":"건축자재 - 기타건축자재","category":"other"}]},{"lat":"37.002384751","long":"127.22696871","imageIndex":17,"items":[{"name":"드림플러스","tel":"031-676-1605","addr":"경기도 안성시 대덕면 내리 112-1번지","indutype":"서적문구 - 문구용품","category":"other"}]},{"lat":"37.003247639","long":"127.22329746","imageIndex":17,"items":[{"name":"드미트리김(DMITRIY KIM)","tel":"","addr":"경기도 안성시 대덕면 내리 679-7번지 402호","indutype":"광학제품 - 사진관","category":"other"}]},{"lat":"36.99921483","long":"127.22599326","imageIndex":17,"items":[{"name":"리얼골프존스크린","tel":"031-677-7878","addr":"경기도 안성시 대덕면 내리 160-5","indutype":"회원제형태 - 레져업소","category":"other"}]},{"lat":"36.997582768","long":"127.23132462","imageIndex":17,"items":[{"name":"마니나라","tel":"031-675-6504","addr":"경기도 안성시 대덕면 내리 766-1번지","indutype":"유통업 영리 - 기타유통업","category":"other"}]},{"lat":"36.999915226","long":"127.22246774","imageIndex":17,"items":[{"name":"명장인테리어","tel":"031-677-4077","addr":"경기도 안성시 대덕면 내리 704-4번지","indutype":"건축자재 - 인테리어전문","category":"other"}]},{"lat":"36.998853665","long":"127.2263854","imageIndex":17,"items":[{"name":"문산상회","tel":"","addr":"경기도 안성시 대덕면 내리 159번지 206호","indutype":"의류 - 정장","category":"other"}]},{"lat":"37.002303375","long":"127.22229486","imageIndex":17,"items":[{"name":"미니스톱 안성중앙대학로점","tel":"031-1577-9621","addr":"경기도 안성시 대덕면 내리 690-1번지 101호","indutype":"유통업 영리 - 편 의 점","category":"other"},{"name":"시대조명","tel":"031-111-1111","addr":"경기도 안성시 대덕면 내리 690-1번지 102호","indutype":"건축자재 - 조명기구","category":"other"}]},{"lat":"36.998716042","long":"127.22287996","imageIndex":17,"items":[{"name":"미니스톱안성내리센터점","tel":"031-1577-9621","addr":"경기도 안성시 대덕면 내리 715-1번지 지하1층","indutype":"유통업 영리 - 편 의 점","category":"other"},{"name":"주식회사 청보산업","tel":"031-000-0000","addr":"경기도 안성시 대덕면 내리 715-1번지 청룡오피스텔 302호","indutype":"용역 서비스 - 기타용역서비스","category":"other"}]},{"lat":"37.001465625","long":"127.22698848","imageIndex":17,"items":[{"name":"미니스톱안성내리원룸점","tel":"031-1577-9621","addr":"경기도 안성시 대덕면 내리 141-9번지","indutype":"유통업 영리 - 편 의 점","category":"other"}]},{"lat":"37.00071419","long":"127.22407656","imageIndex":17,"items":[{"name":"미니스톱안성내리중앙점","tel":"031-340-4260","addr":"경기도 안성시 대덕면 내리 691-10번지 외 1필지","indutype":"유통업 영리 - 편 의 점","category":"other"}]},{"lat":"37.005324858","long":"127.23032539","imageIndex":17,"items":[{"name":"미니스톱안성중앙대점","tel":"031-676-0792","addr":"경기도 안성시 대덕면 내리 72-1","indutype":"유통업 영리 - 편 의 점","category":"other"},{"name":"중앙대학교 구내세탁소","tel":"031-670-3581","addr":"경기도 안성시 대덕면 내리 산40중앙대학교","indutype":"수리서비스 - 세탁소","category":"other"}]},{"lat":"37.000162821","long":"127.22499618","imageIndex":17,"items":[{"name":"미소생활용품","tel":"031-676-5407","addr":"경기도 안성시 대덕면 내리 692-5번지 1층","indutype":"신변잡화 - 기타잡화","category":"other"}]},{"lat":"37.001499369","long":"127.22340476","imageIndex":17,"items":[{"name":"바이더웨이안성리더스뷰점","tel":"031-675-4843","addr":"경기도 안성시 대덕면 내리 691-1번지 리더스뷰오피스텔 1층","indutype":"유통업 영리 - 편 의 점","category":"other"},{"name":"세븐일레븐안성리더스뷰점","tel":"","addr":"경기도 안성시 대덕면 내리 691-1번지","indutype":"유통업 영리 - 편 의 점","category":"other"}]},{"lat":"37.001215675","long":"127.22574072","imageIndex":17,"items":[{"name":"보물상자","tel":"031-675-8981","addr":"경기도 안성시 대덕면 내리 687-7번지","indutype":"신변잡화 - 기타잡화","category":"other"}]},{"lat":"37.001360309","long":"127.22549398","imageIndex":17,"items":[{"name":"생활용품 전문점","tel":"031-676-6563","addr":"경기도 안성시 대덕면 내리 686-1번지","indutype":"신변잡화 - 기타잡화","category":"other"}]},{"lat":"37.000444498","long":"127.22373875","imageIndex":17,"items":[{"name":"성인샵","tel":"031-675-8550","addr":"경기도 안성시 대덕면 내리 700-4번지 스카이오피스텔","indutype":"회원제형태 - 기타4","category":"other"}]},{"lat":"36.999577298","long":"127.2249046","imageIndex":17,"items":[{"name":"세븐일레븐안성내리으뜸점","tel":"","addr":"경기도 안성시 대덕면 내리 134번지","indutype":"유통업 영리 - 편 의 점","category":"other"}]},{"lat":"37.003662191","long":"127.22326496","imageIndex":17,"items":[{"name":"세븐일레븐안성내리중앙점","tel":"031-1577-0711","addr":"경기도 안성시 대덕면 내리 338-2번지 1층","indutype":"유통업 영리 - 편 의 점","category":"other"}]},{"lat":"37.002744169","long":"127.22268934","imageIndex":17,"items":[{"name":"세븐일레븐안성중대본점","tel":"031-1577-0711","addr":"경기도 안성시 대덕면 내리 688-11번지 1층","indutype":"유통업 영리 - 편 의 점","category":"other"}]},{"lat":"37.000775292","long":"127.22513277","imageIndex":17,"items":[{"name":"세븐일레븐안성중대후문점","tel":"","addr":"경기도 안성시 대덕면 내리 687-9번지","indutype":"유통업 영리 - 편 의 점","category":"other"}]},{"lat":"37.000297766","long":"127.22024444","imageIndex":17,"items":[{"name":"세븐일레븐안성팰리체타운점","tel":"031-1577-0711","addr":"경기도 안성시 대덕면 내리 709-7번지 태승펠리체타운 101호","indutype":"유통업 영리 - 편 의 점","category":"other"}]},{"lat":"37.002469246","long":"127.22029556","imageIndex":17,"items":[{"name":"스티커아빠","tel":"031-656-7644","addr":"경기도 안성시 대덕면 내리 313-4번지 1층 101호(꿈속의집)","indutype":"신변잡화 - 기타잡화","category":"other"}]},{"lat":"37.000443661","long":"127.21930117","imageIndex":17,"items":[{"name":"시흥스텐","tel":"031-671-0012","addr":"경기도 안성시 대덕면 내리 623번지","indutype":"기타 - 기계공구","category":"other"}]},{"lat":"36.999050076","long":"127.22735212","imageIndex":17,"items":[{"name":"씨유안성내리낙원점","tel":"031-655-0951","addr":"경기도 안성시 대덕면 내리 154-4번지 낙원빌딩 1층 103호","indutype":"유통업 영리 - 편 의 점","category":"other"},{"name":"인빅스 (invix)","tel":"031-677-5273","addr":"경기도 안성시 대덕면 내리 154-4번지 낙원빌딩 지하 102호","indutype":"의류 - 정장","category":"other"}]},{"lat":"37.000108505","long":"127.22513083","imageIndex":17,"items":[{"name":"씨유안성내리대로점","tel":"031-677-7776","addr":"경기도 안성시 대덕면 내리 692-6번지 1층","indutype":"유통업 영리 - 편 의 점","category":"other"}]},{"lat":"37.000355728","long":"127.22301949","imageIndex":17,"items":[{"name":"씨유안성내리원룸점","tel":"031-675-1765","addr":"경기도 안성시 대덕면 내리 699-7","indutype":"유통업 영리 - 편 의 점","category":"other"}]},{"lat":"37.001469384","long":"127.22498874","imageIndex":17,"items":[{"name":"씨유안성내리점","tel":"031-676-3948","addr":"경기도 안성시 대덕면 내리 684-7번지","indutype":"유통업 영리 - 편 의 점","category":"other"}]},{"lat":"37.000991688","long":"127.22019024","imageIndex":17,"items":[{"name":"씨유안성내리펠리체점","tel":"02-1577-8007","addr":"경기도 안성시 대덕면 내리 291-1번지","indutype":"유통업 영리 - 편 의 점","category":"other"}]},{"lat":"37.00202163","long":"127.22359726","imageIndex":17,"items":[{"name":"씨유안성삼성점","tel":"031-677-3079","addr":"경기도 안성시 대덕면 내리 688-6번지 삼성오피스텔 101호","indutype":"유통업 영리 - 편 의 점","category":"other"}]},{"lat":"37.003135423","long":"127.22548792","imageIndex":17,"items":[{"name":"씨유안성신라점","tel":"031-676-0933","addr":"경기도 안성시 대덕면 내리 676-3번지","indutype":"유통업 영리 - 편 의 점","category":"other"}]},{"lat":"37.010796867","long":"127.22421813","imageIndex":17,"items":[{"name":"씨유안성큐브에스점","tel":"080-080-3663","addr":"경기도 안성시 대덕면 내리 411-5번지 1층","indutype":"유통업 영리 - 편 의 점","category":"other"}]},{"lat":"37.008552909","long":"127.22438016","imageIndex":17,"items":[{"name":"아시아천연물학회","tel":"031-670-4830","addr":"경기도 안성시 대덕면 내리 391번지 중앙대학교 809동 3층 4353호","indutype":"기타 - 비영리/비대상","category":"other"}]},{"lat":"37.001745981","long":"127.22160795","imageIndex":17,"items":[{"name":"안성정보통신","tel":"031-636-6300","addr":"경기도 안성시 대덕면 내리 694-1번지 명경오피스텔 209호","indutype":"사무통신 - 통신기기","category":"other"}]},{"lat":"37.00010343","long":"127.22301877","imageIndex":17,"items":[{"name":"애견호텔리어","tel":"031-675-7934","addr":"경기도 안성시 대덕면 내리 705-12번지","indutype":"문화.취미 - 애완동물","category":"other"}]},{"lat":"36.999554489","long":"127.22263522","imageIndex":17,"items":[{"name":"애플모바일","tel":"031-671-1422","addr":"경기도 안성시 대덕면 내리 705-5번지 1층","indutype":"사무통신 - 통신기기","category":"other"},{"name":"이마트24 내리점","tel":"02-6916-1500","addr":"경기도 안성시 대덕면 내리 705-5번지","indutype":"유통업 영리 - 편 의 점","category":"other"},{"name":"준 휘트니스","tel":"031-675-3311","addr":"경기도 안성시 대덕면 내리 705-5번지","indutype":"회원제형태 - 레져업소","category":"other"}]},{"lat":"37.002666976","long":"127.22543038","imageIndex":17,"items":[{"name":"야촌문화사","tel":"031-427-9914","addr":"경기도 안성시 대덕면 내리 676-6번지 101호","indutype":"서적문구 - 문구용품","category":"other"}]},{"lat":"37.001804957","long":"127.22382132","imageIndex":17,"items":[{"name":"옷가게","tel":"031-677-2501","addr":"경기도 안성시 대덕면 내리 689-13번지 1층","indutype":"의류 - 정장","category":"other"}]},{"lat":"37.000353031","long":"127.22446872","imageIndex":17,"items":[{"name":"유림출판사","tel":"031-676-1369","addr":"경기도 안성시 대덕면 내리 692-10번지 엘림오피스텔 501호","indutype":"서적문구 - 출판 및 인쇄물","category":"other"}]},{"lat":"37.000078248","long":"127.22201884","imageIndex":17,"items":[{"name":"으뜸청소대행","tel":"031-674-0789","addr":"경기도 안성시 대덕면 내리 712-2번지 그린빌 301호","indutype":"용역 서비스 - 종합용역","category":"other"}]},{"lat":"37.001999354","long":"127.22102447","imageIndex":17,"items":[{"name":"주식회사 옵티머스빌리어드에이젼시","tel":"070-8977-4939","addr":"경기도 안성시 대덕면 내리 322-8번지 아름다운빌 나동 201호","indutype":"레져용품 - 스포츠·레져용품","category":"other"}]},{"lat":"37.001274353","long":"127.2232693","imageIndex":17,"items":[{"name":"주식회사 제이투","tel":"031-675-9580","addr":"경기도 안성시 대덕면 내리 691-18번지 듀크오피스텔 B동 201호","indutype":"용역 서비스 - 사무서비스","category":"other"},{"name":"황진이#","tel":"031-675-6070","addr":"경기도 안성시 대덕면 내리 691-18번지 듀크오피스텔 2층 202호","indutype":"신변잡화 - 액세서리","category":"other"}]},{"lat":"37.003999486","long":"127.22115377","imageIndex":17,"items":[{"name":"주식회사피플크린","tel":"031-676-5277","addr":"경기도 안성시 대덕면 내리 355-1번지 203호","indutype":"용역 서비스 - 종합용역","category":"other"}]},{"lat":"37.010046936","long":"127.2300698","imageIndex":17,"items":[{"name":"중대서적","tel":"031-676-1884","addr":"경기도 안성시 대덕면 내리 산40-1번지","indutype":"서적문구 - 일반서적","category":"other"},{"name":"중앙대 구내원형관 복사문구","tel":"031-652-0215","addr":"경기도 안성시 대덕면 내리 산 40-1","indutype":"용역 서비스 - 사무서비스","category":"other"}]},{"lat":"37.000525385","long":"127.22385133","imageIndex":17,"items":[{"name":"중앙빨래방","tel":"031-675-9868","addr":"경기도 안성시 대덕면 내리 700-3","indutype":"수리서비스 - 세탁소","category":"other"}]},{"lat":"37.011365785","long":"127.22834338","imageIndex":17,"items":[{"name":"중앙사진관","tel":"031-676-0760","addr":"경기도 안성시 대덕면 내리 399-5번지","indutype":"광학제품 - 사진관","category":"other"}]},{"lat":"37.002856599","long":"127.22521747","imageIndex":17,"items":[{"name":"크린토피아&코인워시(안성중앙대점)빨래방","tel":"031-677-2800","addr":"경기도 안성시 대덕면 내리 676-5번지","indutype":"수리서비스 - 세탁소","category":"other"}]},{"lat":"36.999303126","long":"127.22212896","imageIndex":17,"items":[{"name":"킹스타텔레콤 인성점","tel":"02-1111-1111","addr":"경기도 안성시 대덕면 내리 714-3번지","indutype":"사무통신 - 통신기기","category":"other"}]},{"lat":"37.004243268","long":"127.22088483","imageIndex":17,"items":[{"name":"타일하우스","tel":"031-675-8513","addr":"경기도 안성시 대덕면 내리 355-2번지 1층","indutype":"건축자재 - 기타건축자재","category":"other"},{"name":"한국미소문학","tel":"031-675-7508","addr":"경기도 안성시 대덕면 내리 355-2번지 3층","indutype":"서적문구 - 출판 및 인쇄물","category":"other"}]},{"lat":"37.001582151","long":"127.22249501","imageIndex":17,"items":[{"name":"통에듀(tongedu)","tel":"070-7554-3458","addr":"경기도 안성시 대덕면 내리 693-16번지 정보빌딩","indutype":"서적문구 - 기타서적문구","category":"other"}]},{"lat":"37.009243363","long":"127.21638237","imageIndex":17,"items":[{"name":"평택캐리어냉난방센터","tel":"0031-658-6020","addr":"경기도 안성시 대덕면 내리 488-1","indutype":"전기제품 - 냉열기기","category":"other"}]},{"lat":"37.003664499","long":"127.2220179","imageIndex":17,"items":[{"name":"한솔원룸","tel":"031-672-9035","addr":"경기도 안성시 대덕면 내리 328-2","indutype":"용역 서비스 - 부동산 중개·임대","category":"other"}]},{"lat":"37.00143942","long":"127.22655025","imageIndex":17,"items":[{"name":"행사 푸드","tel":"031-677-5994","addr":"경기도 안성시 대덕면 내리 141-10번지 102호","indutype":"신변잡화 - 기타잡화","category":"other"}]},{"lat":"37.003550943","long":"127.22493862","imageIndex":17,"items":[{"name":"허브앤밀크","tel":"070-7789-8787","addr":"경기도 안성시 대덕면 내리 신라A나동1516호 106","indutype":"회원제형태 - 기타4","category":"other"}]}]