[{"lat":"37.887279908","long":"127.21935818","imageIndex":7,"items":[{"name":"군내떡방앗간","tel":"031-535-3464","addr":"경기도 포천시 군내면 구읍리 190-4","indutype":"음료식품 - 제과점","category":"food"},{"name":"다일사과농원","tel":"031-535-3464","addr":"경기도 포천시 군내면 구읍리 190-4번지","indutype":"음료식품 - 농·축·수산품","category":"food"}]},{"lat":"37.88263466","long":"127.22230001","imageIndex":7,"items":[{"name":"농업회사법인주식회사삼마홀","tel":"031-535-3245","addr":"경기도 포천시 군내면 구읍리 59-5번지","indutype":"음료식품 - 기타음료식품","category":"food"}]},{"lat":"37.893863323","long":"127.20551894","imageIndex":7,"items":[{"name":"데일리 미트","tel":"031-534-5767","addr":"경기도 포천시 군내면 구읍리 576-1번지 1층","indutype":"음료식품 - 정육점","category":"food"}]},{"lat":"37.890022261","long":"127.20205249","imageIndex":7,"items":[{"name":"바다먹거리","tel":"031-533-9015","addr":"경기도 포천시 군내면 구읍리 740번지 포천아이파크 103동 302호","indutype":"음료식품 - 농·축·수산품","category":"food"}]},{"lat":"37.887972414","long":"127.21507453","imageIndex":7,"items":[{"name":"우리쌀상회","tel":"031-536-1740","addr":"경기도 포천시 군내면 구읍리 504-1번지","indutype":"음료식품 - 미곡상","category":"food"}]},{"lat":"37.882920109","long":"127.22382405","imageIndex":7,"items":[{"name":"육회사랑","tel":"031-532-9783","addr":"경기도 포천시 군내면 구읍리 47-12번지","indutype":"음료식품 - 정육점","category":"food"}]},{"lat":"37.888721779","long":"127.21418998","imageIndex":7,"items":[{"name":"청심건강원","tel":"","addr":"경기도 포천시 군내면 구읍리 550-3번지","indutype":"건강식품 - 기타건강식품","category":"food"}]},{"lat":"37.892943025","long":"127.20630085","imageIndex":7,"items":[{"name":"청정육세상","tel":"031-535-7129","addr":"경기도 포천시 군내면 구읍리 574-2번지","indutype":"음료식품 - 정육점","category":"food"}]},{"lat":"37.886053831","long":"127.21979793","imageIndex":7,"items":[{"name":"행복건강원","tel":"031-542-9772","addr":"경기도 포천시 군내면 구읍리 230-14번지 1층","indutype":"건강식품 - 기타건강식품","category":"food"}]}]