[{"lat":"37.824146457","long":"127.26191401","imageIndex":17,"items":[{"name":"(주)미립","tel":"031-534-6696","addr":"경기도 포천시 내촌면 소학리 25-4번지","indutype":"유통업 영리 - 기타유통업","category":"other"}]},{"lat":"37.818093797","long":"127.26115465","imageIndex":17,"items":[{"name":"(주)원솔루션","tel":"031-531-8500","addr":"경기도 포천시 내촌면 소학리 99-24번지","indutype":"용역 서비스 - 부동산 중개·임대","category":"other"}]},{"lat":"37.804063675","long":"127.24968268","imageIndex":17,"items":[{"name":"(주)지성그린텍","tel":"031-531-1150","addr":"경기도 포천시 내촌면 소학리 423-10번지","indutype":"건축자재 - 기타건축자재","category":"other"}]},{"lat":"37.805540047","long":"127.250244","imageIndex":17,"items":[{"name":"CU소학리점","tel":"534-5072","addr":"경기도 포천시 내촌면 소학리 427-3번지","indutype":"편의점 - 편의점","category":"other"},{"name":"씨유포천소학리점","tel":"031-534-5072","addr":"경기도 포천시 내촌면 소학리 427-3번지","indutype":"유통업 영리 - 편 의 점","category":"other"}]},{"lat":"37.806840918","long":"127.25284873","imageIndex":17,"items":[{"name":"GS25포천대로점","tel":"031-533-3778","addr":"경기도 포천시 내촌면 소학리 241-2번지","indutype":"편의점 - 편의점","category":"other"},{"name":"GS편의점내촌점","tel":"533-3778","addr":"경기도 포천시 내촌면 소학리 241-2번지","indutype":"소매업 - 편의점","category":"other"}]},{"lat":"37.797814858","long":"127.24351937","imageIndex":17,"items":[{"name":"건물주","tel":"031-533-0662","addr":"경기도 포천시 내촌면 소학리 337-2번지","indutype":"용역 서비스 - 부동산 중개·임대","category":"other"}]},{"lat":"37.805950385","long":"127.25218712","imageIndex":17,"items":[{"name":"깨비엔틱","tel":"031-0000-0000","addr":"경기도 포천시 내촌면 소학리 234-1번지 1층","indutype":"주방용구 - 주방용식기","category":"other"}]},{"lat":"37.805707492","long":"127.25201597","imageIndex":17,"items":[{"name":"나무명장","tel":"031-000-0000","addr":"경기도 포천시 내촌면 소학리 234-9번지","indutype":"문화.취미 - 민예·공예품","category":"other"}]},{"lat":"37.817670706","long":"127.25684885","imageIndex":17,"items":[{"name":"내촌참숯가마","tel":"533-6477","addr":"경기도 포천시 내촌면 소학리 118-45번지","indutype":"도소매 - 숯제품외","category":"other"}]},{"lat":"37.79778725","long":"127.24380313","imageIndex":17,"items":[{"name":"독바위편의점","tel":"031-533-0662","addr":"경기도 포천시 내촌면 소학리 337-5번지","indutype":"유통업 영리 - 편 의 점","category":"other"},{"name":"베어스타운 캐나다스키","tel":"031-531-3001","addr":"경기도 포천시 내촌면 소학리 337-5번지","indutype":"레져용품 - 스포츠·레져용품","category":"other"},{"name":"제임스보드","tel":"031-532-9897","addr":"경기도 포천시 내촌면 소학리 337-5번지","indutype":"레져용품 - 스포츠·레져용품","category":"other"}]},{"lat":"37.827341314","long":"127.26349266","imageIndex":17,"items":[{"name":"동산","tel":"031-527-5439","addr":"경기도 포천시 내촌면 소학리 12-2번지","indutype":"직물 - 침구·수예점","category":"other"}]},{"lat":"37.811092955","long":"127.25304476","imageIndex":17,"items":[{"name":"두성수우텍(구 두성정밀)","tel":"031-533-8346","addr":"경기도 포천시 내촌면 소학리 208-37번지","indutype":"기타 - 기계공구","category":"other"}]},{"lat":"37.79447987","long":"127.24860628","imageIndex":17,"items":[{"name":"문성공방","tel":"031-588-2311","addr":"경기도 포천시 내촌면 소학리 314-8","indutype":"신변잡화 - 기타잡화","category":"other"},{"name":"포천실버타운매점","tel":"031-533-0056","addr":"경기도 포천시 내촌면 소학리 314-8번지 301호","indutype":"신변잡화 - 기타잡화","category":"other"}]},{"lat":"37.799789397","long":"127.2427991","imageIndex":17,"items":[{"name":"백설공주","tel":"031-534-1088","addr":"경기도 포천시 내촌면 소학리 341-8","indutype":"레져용품 - 스포츠·레져용품","category":"other"}]},{"lat":"37.797535056","long":"127.24376825","imageIndex":17,"items":[{"name":"보드프린스","tel":"031-534-6430","addr":"경기도 포천시 내촌면 소학리 332-6","indutype":"레져용품 - 스포츠·레져용품","category":"other"}]},{"lat":"37.815562248","long":"127.25696655","imageIndex":17,"items":[{"name":"성불원","tel":"031-532-2001","addr":"경기도 포천시 내촌면 소학리 125-4번지","indutype":"신변잡화 - 기념품점","category":"other"}]},{"lat":"37.802125297","long":"127.24599732","imageIndex":17,"items":[{"name":"성진공예","tel":"031-534-0177","addr":"경기도 포천시 내촌면 소학리 377-2번지","indutype":"가구 - 기타가구","category":"other"}]},{"lat":"37.821812787","long":"127.26201943","imageIndex":17,"items":[{"name":"소학편의점","tel":"031-533-5434","addr":"경기도 포천시 내촌면 소학리 79-1","indutype":"유통업 영리 - 편 의 점","category":"other"}]},{"lat":"37.796734958","long":"127.24291411","imageIndex":17,"items":[{"name":"슈퍼스타","tel":"031-531-5866","addr":"경기도 포천시 내촌면 소학리 334-2번지","indutype":"레져용품 - 스포츠·레져용품","category":"other"}]},{"lat":"37.798204298","long":"127.24252147","imageIndex":17,"items":[{"name":"스키세상","tel":"031-531-1311","addr":"경기도 포천시 내촌면 소학리 341-3번지","indutype":"레져용품 - 스포츠·레져용품","category":"other"}]},{"lat":"37.808037983","long":"127.25340918","imageIndex":17,"items":[{"name":"씨유내촌휴게소점","tel":"031-533-5552","addr":"경기도 포천시 내촌면 소학리 236번지","indutype":"유통업 영리 - 편 의 점","category":"other"},{"name":"주식회사세기 CU","tel":"","addr":"경기도 포천시 내촌면 소학리 236번지","indutype":"소매업 - 편의점","category":"other"}]},{"lat":"37.819068348","long":"127.26454251","imageIndex":17,"items":[{"name":"아웃도어디포","tel":"031-876-0911","addr":"경기도 포천시 내촌면 소학리 69-7번지 (베어힐캠핑장)","indutype":"레져용품 - 스포츠·레져용품","category":"other"}]},{"lat":"37.797923712","long":"127.24315639","imageIndex":17,"items":[{"name":"에스키모타운","tel":"031-531-2239","addr":"경기도 포천시 내촌면 소학리 339-1번지","indutype":"레져용품 - 스포츠·레져용품","category":"other"}]},{"lat":"37.801676722","long":"127.24507612","imageIndex":17,"items":[{"name":"원케어시스템","tel":"","addr":"경기도 포천시 내촌면 소학리 380-1번지","indutype":"용역 서비스 - 종합용역","category":"other"}]},{"lat":"37.811032666","long":"127.25596306","imageIndex":17,"items":[{"name":"이글루 아웃도어","tel":"070-4126-7505","addr":"경기도 포천시 내촌면 소학리 194-1번지","indutype":"레져용품 - 스포츠·레져용품","category":"other"}]},{"lat":"37.815506327","long":"127.25782947","imageIndex":17,"items":[{"name":"주식회사 필산업","tel":"031-534-3082","addr":"경기도 포천시 내촌면 소학리 123-9번지","indutype":"직물 - 옷감·직물","category":"other"}]},{"lat":"37.822649631","long":"127.26248803","imageIndex":17,"items":[{"name":"진정물류","tel":"031-1522-3643","addr":"경기도 포천시 내촌면 소학리 31-10번지","indutype":"용역 서비스 - 보관및 창고업","category":"other"}]},{"lat":"37.807675479","long":"127.25440725","imageIndex":17,"items":[{"name":"한성 F&G","tel":"031-534-3082","addr":"경기도 포천시 내촌면 소학리 237번지","indutype":"건축자재 - 유리","category":"other"}]},{"lat":"37.820337548","long":"127.26096939","imageIndex":17,"items":[{"name":"해피타임","tel":"031-534-7524","addr":"경기도 포천시 내촌면 소학리 93번지","indutype":"유통업 영리 - 편 의 점","category":"other"},{"name":"해피타임소학점","tel":"532-1028","addr":"경기도 포천시 내촌면 소학리 93번지","indutype":"소매업 - 편의점","category":"other"}]},{"lat":"37.807067548","long":"127.25219087","imageIndex":9,"items":[{"name":"(주)유니콘스/해바라기주유소","tel":"031-532-6226","addr":"경기도 포천시 내촌면 소학리 226-2번지","indutype":"연료판매점 - GS주유소","category":"oil"},{"name":"경유버스보조금_해바라기주유소/(주)유니콘","tel":"031-532-6226","addr":"경기도 포천시 내촌면 소학리 226-2번지","indutype":"연료판매점 - GS주유소","category":"oil"}]},{"lat":"37.819484093","long":"127.2598534","imageIndex":9,"items":[{"name":"삼광주유소","tel":"031-534-3113","addr":"경기도 포천시 내촌면 소학리 94-19번지","indutype":"연료판매점 - 현대정유(오일뱅크)","category":"oil"}]},{"lat":"37.828672177","long":"127.26463321","imageIndex":9,"items":[{"name":"하늘땅LPG충전소","tel":"031-532-0888","addr":"경기도 포천시 내촌면 소학리 1-3번지","indutype":"연료판매점 - LPG 취급점","category":"oil"},{"name":"하늘땅충전소","tel":"031-532-0888","addr":"경기도 포천시 내촌면 소학리 1-3번지","indutype":"연료판매점 - LPG 취급점","category":"oil"}]},{"lat":"37.798456458","long":"127.24696175","imageIndex":13,"items":[{"name":"(주)자연과사람","tel":"031-532-1110","addr":"경기도 포천시 내촌면 소학리 295번지 베어스타운","indutype":"레저업소 - 기타레져업소","category":"leisure"}]},{"lat":"37.819068348","long":"127.26454251","imageIndex":13,"items":[{"name":"목석삼방관광농원","tel":"031-531-2828","addr":"경기도 포천시 내촌면 소학리 69-7번지 외1필지","indutype":"레저업소 - 기타레져업소","category":"leisure"}]},{"lat":"37.79778725","long":"127.24380313","imageIndex":13,"items":[{"name":"팡팡노래연습장","tel":"031-535-5617","addr":"경기도 포천시 내촌면 소학리 337-5번지","indutype":"레저업소 - 노 래 방","category":"leisure"}]},{"lat":"37.815480687","long":"127.26132725","imageIndex":4,"items":[{"name":"11월","tel":"031-534-4324","addr":"경기도 포천시 내촌면 소학리 144-1번지","indutype":"일반휴게음식 - 일반한식","category":"restaurant"}]},{"lat":"37.808037983","long":"127.25340918","imageIndex":4,"items":[{"name":"247커피coffee","tel":"031-998-8888","addr":"경기도 포천시 내촌면 소학리 236번지 1층","indutype":"일반휴게음식 - 서양음식","category":"restaurant"},{"name":"247커피coffee","tel":"","addr":"경기도 포천시 내촌면 소학리 236번지","indutype":"음식 - 커피","category":"restaurant"},{"name":"내촌휴게소/주식회사 세기","tel":"031-999-8888","addr":"경기도 포천시 내촌면 소학리 236번지","indutype":"일반휴게음식 - 일반한식","category":"restaurant"},{"name":"큰맘할매순대포천내촌점","tel":"533-6236","addr":"경기도 포천시 내촌면 소학리 236번지","indutype":"음식 - 한식","category":"restaurant"},{"name":"포천내촌큰맘할매순대국","tel":"031-533-6236","addr":"경기도 포천시 내촌면 소학리 236번지","indutype":"일반휴게음식 - 일반한식","category":"restaurant"}]},{"lat":"37.806840918","long":"127.25284873","imageIndex":4,"items":[{"name":"김씨네 해장국","tel":"031-571-0903","addr":"경기도 포천시 내촌면 소학리 241-2번지","indutype":"일반휴게음식 - 일반한식","category":"restaurant"},{"name":"김씨네해장국","tel":"-","addr":"경기도 포천시 내촌면 소학리 241-2번지","indutype":"음식 - 한식","category":"restaurant"}]},{"lat":"37.822649631","long":"127.26248803","imageIndex":4,"items":[{"name":"만복식당","tel":"532-1987","addr":"경기도 포천시 내촌면 소학리 31-10번지","indutype":"음식 - 한식","category":"restaurant"},{"name":"만복식당","tel":"031-532-1987","addr":"경기도 포천시 내촌면 소학리 31-10번지","indutype":"일반휴게음식 - 일반한식","category":"restaurant"}]},{"lat":"37.819897556","long":"127.26029777","imageIndex":4,"items":[{"name":"박도윤해장국","tel":"531-5516","addr":"경기도 포천시 내촌면 소학리 94-15번지","indutype":"음식 - 한식","category":"restaurant"},{"name":"박도윤해장국","tel":"031-531-5516","addr":"경기도 포천시 내촌면 소학리 94-15번지","indutype":"일반휴게음식 - 일반한식","category":"restaurant"}]},{"lat":"37.797624523","long":"127.2440751","imageIndex":4,"items":[{"name":"벙커","tel":"031-111-1111","addr":"경기도 포천시 내촌면 소학리 304-7번지 외2필지","indutype":"일반휴게음식 - 주점","category":"restaurant"}]},{"lat":"37.819756128","long":"127.26315934","imageIndex":4,"items":[{"name":"베어힐","tel":"070-4240-4002","addr":"경기도 포천시 내촌면 소학리 69번지 1층","indutype":"일반휴게음식 - 일반한식","category":"restaurant"},{"name":"베어힐","tel":"031-534-2828","addr":"경기도 포천시 내촌면 소학리 69번지 2층","indutype":"일반휴게음식 - 일반한식","category":"restaurant"}]},{"lat":"37.797535056","long":"127.24376825","imageIndex":4,"items":[{"name":"블랙나인커피 (Black 9 coffee)","tel":"031-111-1111","addr":"경기도 포천시 내촌면 소학리 332-6번지 A동 2층","indutype":"일반휴게음식 - 서양음식","category":"restaurant"}]},{"lat":"37.798456458","long":"127.24696175","imageIndex":4,"items":[{"name":"비에이치씨(BHC)베어스타운점","tel":"031-531-9988","addr":"경기도 포천시 내촌면 소학리 295번지 베어스타운타워콘도 1층","indutype":"일반휴게음식 - 스넥","category":"restaurant"},{"name":"파노라마카페(전망카페)","tel":"","addr":"경기도 포천시 내촌면 소학리 295번지 1층","indutype":"일반휴게음식 - 서양음식","category":"restaurant"},{"name":"푸른목장 정육식당","tel":"031-1111-1111","addr":"경기도 포천시 내촌면 소학리 295번지","indutype":"일반휴게음식 - 일반한식","category":"restaurant"}]},{"lat":"37.802677674","long":"127.24463656","imageIndex":4,"items":[{"name":"샛강","tel":"534-6679","addr":"경기도 포천시 내촌면 소학리 363-3번지","indutype":"음식 - 한식","category":"restaurant"}]},{"lat":"37.804231451","long":"127.24699211","imageIndex":4,"items":[{"name":"서파가든","tel":"533-6605","addr":"경기도 포천시 내촌면 소학리 411번지","indutype":"음식 - 한식","category":"restaurant"}]},{"lat":"37.804733263","long":"127.24829959","imageIndex":4,"items":[{"name":"송파나루","tel":"070-8883-5301","addr":"경기도 포천시 내촌면 소학리 417번지 1층","indutype":"일반휴게음식 - 일반한식","category":"restaurant"}]},{"lat":"37.807506671","long":"127.25329383","imageIndex":4,"items":[{"name":"오다","tel":"031-0000-0000","addr":"경기도 포천시 내촌면 소학리 236-3번지","indutype":"일반휴게음식 - 서양음식","category":"restaurant"},{"name":"착한낙지","tel":"531-8801","addr":"경기도 포천시 내촌면 소학리 236-3번지","indutype":"음식 - 한식","category":"restaurant"},{"name":"착한낙지","tel":"031-531-8801","addr":"경기도 포천시 내촌면 소학리 236-3번지","indutype":"일반휴게음식 - 일반한식","category":"restaurant"}]},{"lat":"37.812171589","long":"127.25421809","imageIndex":4,"items":[{"name":"원조강영숙봉평메밀촌","tel":"031-533-2173","addr":"경기도 포천시 내촌면 소학리 179-16번지","indutype":"일반휴게음식 - 일반한식","category":"restaurant"}]},{"lat":"37.827814926","long":"127.26524355","imageIndex":4,"items":[{"name":"전주가정식백반쌈밥부페","tel":"031-534-2030","addr":"경기도 포천시 내촌면 소학리 1-4번지","indutype":"일반휴게음식 - 일반한식","category":"restaurant"}]},{"lat":"37.805979404","long":"127.25124473","imageIndex":4,"items":[{"name":"주막집생고기","tel":"031-534-0074","addr":"경기도 포천시 내촌면 소학리 230-11번지","indutype":"일반휴게음식 - 일반한식","category":"restaurant"}]},{"lat":"37.805540047","long":"127.250244","imageIndex":4,"items":[{"name":"찐빵브라더스","tel":"070-4415-7878","addr":"경기도 포천시 내촌면 소학리 427-3번지 1층","indutype":"음식 - 제과","category":"restaurant"}]},{"lat":"37.822145583","long":"127.26227047","imageIndex":4,"items":[{"name":"청진동간장게장","tel":"532-3669","addr":"경기도 포천시 내촌면 소학리 31-2번지","indutype":"음식 - 한식","category":"restaurant"},{"name":"청진동간장게장","tel":"031-532-3669","addr":"경기도 포천시 내촌면 소학리 31-2번지","indutype":"일반휴게음식 - 일반한식","category":"restaurant"}]},{"lat":"37.801014795","long":"127.24712913","imageIndex":4,"items":[{"name":"초롱농원","tel":"031-532-2720","addr":"경기도 포천시 내촌면 소학리 387-5번지","indutype":"일반휴게음식 - 일반한식","category":"restaurant"}]},{"lat":"37.8001768","long":"127.24280035","imageIndex":4,"items":[{"name":"카페루아","tel":"070-8882-4860","addr":"경기도 포천시 내촌면 소학리 341-5번지 1층","indutype":"일반휴게음식 - 서양음식","category":"restaurant"},{"name":"카페주아","tel":"535-4747","addr":"경기도 포천시 내촌면 소학리 341-5번지","indutype":"음식 - 양식","category":"restaurant"}]},{"lat":"37.809894685","long":"127.25305207","imageIndex":4,"items":[{"name":"큰처형밥집","tel":"031-533-1230","addr":"경기도 포천시 내촌면 소학리 211-7번지","indutype":"일반휴게음식 - 일반한식","category":"restaurant"},{"name":"하얀집","tel":"531-1239","addr":"경기도 포천시 내촌면 소학리 211-7번지","indutype":"음식 - 한식","category":"restaurant"}]},{"lat":"37.817673263","long":"127.25982441","imageIndex":4,"items":[{"name":"풍천장어","tel":"031-532-8892","addr":"경기도 포천시 내촌면 소학리 113번지","indutype":"일반휴게음식 - 일반한식","category":"restaurant"}]},{"lat":"37.820337548","long":"127.26096939","imageIndex":0,"items":[{"name":"경강타이어","tel":"031-535-0990","addr":"경기도 포천시 내촌면 소학리 93번지","indutype":"자동차정비 유지 - 자동차시트·타이어","category":"car"}]},{"lat":"37.812783232","long":"127.25468577","imageIndex":0,"items":[{"name":"정원건설기계정비","tel":"031-533-5147","addr":"경기도 포천시 내촌면 소학리 177-7번지","indutype":"자동차정비 유지 - 자동차정비","category":"car"}]},{"lat":"37.823064911","long":"127.26210332","imageIndex":7,"items":[{"name":"고려양행","tel":"031-532-0777","addr":"경기도 포천시 내촌면 소학리 32-32번지","indutype":"건강식품 - 기타건강식품","category":"food"}]},{"lat":"37.817393128","long":"127.25605291","imageIndex":7,"items":[{"name":"농업회사법인 내촌굼뱅이 주식회사","tel":"031-533-6477","addr":"경기도 포천시 내촌면 소학리 118-5번지","indutype":"음료식품 - 농·축·수산품","category":"food"}]},{"lat":"37.798456458","long":"127.24696175","imageIndex":7,"items":[{"name":"베어스타운매점","tel":"031-551-2698","addr":"경기도 포천시 내촌면 소학리 295번지 스키대여실내","indutype":"음료식품 - 기타음료식품","category":"food"},{"name":"베어스타운매점","tel":"031-551-2698","addr":"경기도 포천시 내촌면 소학리 295번지 스키대여실내","indutype":"음료식품 - 기타음료식품","category":"food"},{"name":"피스랩매점","tel":"02-517-1474","addr":"경기도 포천시 내촌면 소학리 295번지 베어스타운 푸드코드 내 매점","indutype":"음료식품 - 기타음료식품","category":"food"}]},{"lat":"37.805979404","long":"127.25124473","imageIndex":7,"items":[{"name":"주막집정육점","tel":"031-534-3074","addr":"경기도 포천시 내촌면 소학리 230-11번지","indutype":"음료식품 - 정육점","category":"food"}]},{"lat":"37.805540047","long":"127.250244","imageIndex":7,"items":[{"name":"찐빵브라더스","tel":"070-4415-7878","addr":"경기도 포천시 내촌면 소학리 427-3번지","indutype":"음료식품 - 제과점","category":"food"}]},{"lat":"37.808454366","long":"127.25249078","imageIndex":5,"items":[{"name":"그랜드","tel":"031-534-0056","addr":"경기도 포천시 내촌면 소학리 222번지","indutype":"숙박업 - 여관/기타숙박업","category":"hotel"}]},{"lat":"37.801368462","long":"127.24601755","imageIndex":5,"items":[{"name":"녹천모텔","tel":"031-532-2737","addr":"경기도 포천시 내촌면 소학리 380-3번지","indutype":"숙박업 - 여관/기타숙박업","category":"hotel"}]},{"lat":"37.812262168","long":"127.25399127","imageIndex":5,"items":[{"name":"메트로","tel":"031-531-2072","addr":"경기도 포천시 내촌면 소학리 179-9번지 메트로","indutype":"숙박업 - 여관/기타숙박업","category":"hotel"},{"name":"메트로","tel":"-","addr":"경기도 포천시 내촌면 소학리 179-9번지","indutype":"숙박업 - 모텔","category":"hotel"}]},{"lat":"37.808512404","long":"127.25485296","imageIndex":5,"items":[{"name":"이리스모텔","tel":"031-533-0877","addr":"경기도 포천시 내촌면 소학리 203번지 (1필지 203-6)","indutype":"숙박업 - 여관/기타숙박업","category":"hotel"}]},{"lat":"37.804173806","long":"127.24871788","imageIndex":5,"items":[{"name":"하나로지엘에스(주)호텔꼬뮨","tel":"031-532-6666","addr":"경기도 포천시 내촌면 소학리 409-7번지","indutype":"숙박업 - 여관/기타숙박업","category":"hotel"}]},{"lat":"37.8128127","long":"127.25774072","imageIndex":5,"items":[{"name":"하얀집","tel":"031-534-1634","addr":"경기도 포천시 내촌면 소학리 153번지","indutype":"숙박업 - 여관/기타숙박업","category":"hotel"}]},{"lat":"37.821312179","long":"127.26432328","imageIndex":8,"items":[{"name":"주식회사 동양한방제약","tel":"031-534-3565","addr":"경기도 포천시 내촌면 소학리 56번지","indutype":"약국 - 한약방","category":"medical"}]}]