[{"lat":"37.143332481","long":"127.04942342","items":[{"name":"(자)대우건기","tel":"031-372-8850","addr":"경기도 오산시 누읍동 424-3번지","category":"자동차정비 유지 - 중장비수리"}]},{"lat":"37.140611886","long":"127.04794734","items":[{"name":"(주)다다플러스","tel":"031-373-6177","addr":"경기도 오산시 누읍동 528번지 1층","category":"유통업 영리 - 슈퍼마켓"},{"name":"베리니크 오산점","tel":"031-378-3781","addr":"경기도 오산시 누읍동 528번지 2층","category":"일반휴게음식 - 일반한식"},{"name":"주식회사 승세","tel":"031-378-9751","addr":"경기도 오산시 누읍동 528번지 2층","category":"의류 - 정장"}]},{"lat":"37.138417117","long":"127.06005616","items":[{"name":"(주)다민","tel":"031-377-3304","addr":"경기도 오산시 누읍동 90-1번지","category":"가구 - 일반가구"},{"name":"(주)모든오피스오산물류","tel":"02-538-2257","addr":"경기도 오산시 누읍동 90-1번지","category":"사무통신 - 사무용 OA기기"}]},{"lat":"37.140500474","long":"127.05589335","items":[{"name":"(주)신호정유","tel":"031-375-5173","addr":"경기도 오산시 누읍동 644번지","category":"연료판매점 - 유류판매"},{"name":"디에스파워주식회사_지역난방 전용","tel":"031-370-7400","addr":"경기도 오산시 누읍동 644번지","category":"용역 서비스 - 공공요금대행서비스/소"}]},{"lat":"37.140999443","long":"127.04766619","items":[{"name":"1988추억의통닭오산누읍점","tel":"031-377-3993","addr":"경기도 오산시 누읍동 532번지 세란빌딩 104호","category":"일반휴게음식 - 주점"},{"name":"KISS노래연습장","tel":"031-373-1767","addr":"경기도 오산시 누읍동 532번지 세란빌딩 지층","category":"레저업소 - 노 래 방"},{"name":"고기굽네","tel":"031-375-3003","addr":"경기도 오산시 누읍동 532번지 세란빌딩 2층","category":"일반휴게음식 - 일반한식"},{"name":"꿀맛집(조개구이&돈주물럭)","tel":"070-8947-4490","addr":"경기도 오산시 누읍동 532번지 세란빌딩 1층","category":"일반휴게음식 - 일반한식"},{"name":"다선한의원","tel":"031-375-3332","addr":"경기도 오산시 누읍동 532번지 세란빌딩 3층","category":"의원 - 한의원"},{"name":"닭발앤골뱅이","tel":"031-372-1201","addr":"경기도 오산시 누읍동 532번지","category":"일반휴게음식 - 일반한식"},{"name":"맥스피드PC 누읍2호점","tel":"","addr":"경기도 오산시 누읍동 532번지 세란빌딩 5층","category":"레저업소 - 기타레져업소"},{"name":"베스트약국","tel":"031-377-1812","addr":"경기도 오산시 누읍동 532번지 세란빌딩 101호","category":"약국 - 약국"},{"name":"봉달이네","tel":"070-8947-4490","addr":"경기도 오산시 누읍동 532번지 세란빌딩 106호 107호","category":"일반휴게음식 - 일반한식"},{"name":"비비당구클럽","tel":"031-375-5025","addr":"경기도 오산시 누읍동 532번지 세란빌딩 4층","category":"레저업소 - 당 구 장"},{"name":"산내들건강원","tel":"031-374-1288","addr":"경기도 오산시 누읍동 532번지 세란빌딩 105호","category":"건강식품 - 기타건강식품"}]},{"lat":"37.1421167","long":"127.0477794","items":[{"name":"GS25오산이림점","tel":"02-2006-2485","addr":"경기도 오산시 누읍동 431-1번지","category":"유통업 영리 - 편 의 점"},{"name":"그린힐의원","tel":"064-787-6780","addr":"경기도 오산시 누읍동 431-1번지 석선빌딩 2층 202호","category":"의원 - 의원"},{"name":"다사랑온누리약국","tel":"070-7724-6865","addr":"경기도 오산시 누읍동 431-1번지 석선빌딩 1층 103호","category":"약국 - 약국"},{"name":"비에이치씨(BHC)오산누읍점","tel":"031-376-3256","addr":"경기도 오산시 누읍동 431-1번지 석선빌딩 102호","category":"일반휴게음식 - 스넥"},{"name":"오산미소치과의원","tel":"031-378-0428","addr":"경기도 오산시 누읍동 431-1번지 석선빌딩 2층 201호","category":"의원 - 치과의원"},{"name":"제이더블유","tel":"031-375-7010","addr":"경기도 오산시 누읍동 431-1번지 석선빌딩 1층 101호","category":"사무통신 - 통신기기"},{"name":"퀸즈노래연습장","tel":"031-374-4869","addr":"경기도 오산시 누읍동 431-1번지 외1필지 석선빌딩 401호","category":"레저업소 - 노 래 방"},{"name":"허갈닭강정","tel":"031-373-5304","addr":"경기도 오산시 누읍동 431-1번지 외1필지 석선빌딩 1층 105호","category":"일반휴게음식 - 일반한식"}]},{"lat":"37.1413955","long":"127.04872442","items":[{"name":"Hesed학원","tel":"031-372-7805","addr":"경기도 오산시 누읍동 443-2번지 3층","category":"학원 - 보습학원"},{"name":"다욧이엠에스(경기남부총판)","tel":"031-375-9696","addr":"경기도 오산시 누읍동 443-2번지 2층","category":"레저업소 - 헬스클럽"},{"name":"더헤어","tel":"031-376-1287","addr":"경기도 오산시 누읍동 443-2번지 2층","category":"보건위생 - 미용원"},{"name":"밝은안경콘택트","tel":"031-376-5110","addr":"경기도 오산시 누읍동 443-2번지 청솔태권도 101호","category":"보건위생 - 안경"},{"name":"컬투치킨 (오산누읍사랑점)","tel":"031-377-8292","addr":"경기도 오산시 누읍동 443-2번지 1층","category":"일반휴게음식 - 스넥"}]},{"lat":"37.141224344","long":"127.04861176","items":[{"name":"T-up 비젼 스크린골프","tel":"031-373-8969","addr":"경기도 오산시 누읍동 444번지 주명빌딩 101호","category":"레저업소 - 스크린골프"},{"name":"임마누엘 음악학원","tel":"031-372-6253","addr":"경기도 오산시 누읍동 444번지","category":"회원제형태 - 학원"}]},{"lat":"37.141062208","long":"127.0484766","items":[{"name":"T.Y system","tel":"031-373-2003","addr":"경기도 오산시 누읍동 447번지 1층","category":"사무통신 - 컴퓨터"},{"name":"방방월드","tel":"031-377-4953","addr":"경기도 오산시 누읍동 447번지 가동","category":"레저업소 - 기타레져업소"},{"name":"카우보이정육식당","tel":"031-378-1101","addr":"경기도 오산시 누읍동 447번지 나동 1층","category":"일반휴게음식 - 일반한식"},{"name":"카우보이축산","tel":"031-378-1101","addr":"경기도 오산시 누읍동 447번지","category":"음료식품 - 정육점"}]},{"lat":"37.139340127","long":"127.05119925","items":[{"name":"i노리터어린이집[아이행복]","tel":"031-373-2514","addr":"경기도 오산시 누읍동 293-2번지","category":"학원 - 유아원"},{"name":"문정유통","tel":"031-373-7101","addr":"경기도 오산시 누읍동 293-2번지","category":"유통업 영리 - 슈퍼마켓"},{"name":"불로소정육식당","tel":"031-778-6675","addr":"경기도 오산시 누읍동 293-2번지","category":"일반휴게음식 - 일반한식"},{"name":"제이디에스","tel":"031-378-4222","addr":"경기도 오산시 누읍동 293-2번지","category":"사무통신 - 컴퓨터"}]},{"lat":"37.142447057","long":"127.05517437","items":[{"name":"가람인테리어","tel":"031-378-9532","addr":"경기도 오산시 누읍동 365","category":"건축자재 - 인테리어전문"}]},{"lat":"37.138474172","long":"127.05347216","items":[{"name":"갤러웨이스크린골프오산센터","tel":"070-8888-7020","addr":"경기도 오산시 누읍동 270번지","category":"레저업소 - 스크린골프"}]},{"lat":"37.140143456","long":"127.04764318","items":[{"name":"고향솥단지 삼겹살","tel":"031-376-0804","addr":"경기도 오산시 누읍동 522번지 1층","category":"일반휴게음식 - 일반한식"}]},{"lat":"37.139781696","long":"127.05106447","items":[{"name":"그린남성컷","tel":"031-377-4574","addr":"경기도 오산시 누읍동 296번지","category":"보건위생 - 미용원"},{"name":"왔슈","tel":"031-378-1308","addr":"경기도 오산시 누읍동 296번지 101호","category":"일반휴게음식 - 일반한식"},{"name":"왔슈","tel":"031-378-1308","addr":"경기도 오산시 누읍동 296번지 1층","category":"일반휴게음식 - 일반한식"},{"name":"투다리(누읍점)","tel":"031-373-0199","addr":"경기도 오산시 누읍동 296번지 1층","category":"일반휴게음식 - 일반한식"},{"name":"형제농산물마트","tel":"031-374-1614","addr":"경기도 오산시 누읍동 296번지","category":"유통업 영리 - 슈퍼마켓"}]},{"lat":"37.140366157","long":"127.0539799","items":[{"name":"금채원공방","tel":"031-372-4212","addr":"경기도 오산시 누읍동 625-7번지 상가 1층","category":"문화.취미 - 문화취미기타"},{"name":"금채원에스테틱","tel":"031-372-4212","addr":"경기도 오산시 누읍동 625-7번지 1층 일부","category":"보건위생 - 피부미용실"}]},{"lat":"37.141116786","long":"127.04711476","items":[{"name":"김밥천국 누읍서동점","tel":"031-376-7050","addr":"경기도 오산시 누읍동 533-1번지 1층","category":"일반휴게음식 - 일반한식"},{"name":"정든노래연습장","tel":"031-377-9983","addr":"경기도 오산시 누읍동 533-1번지","category":"레저업소 - 노 래 방"},{"name":"파리바게뜨 오산누읍점","tel":"031-375-8208","addr":"경기도 오산시 누읍동 533-1번지","category":"음료식품 - 제과점"}]},{"lat":"37.140422193","long":"127.04917403","items":[{"name":"꼼대장숯불꼼장어","tel":"031-373-9289","addr":"경기도 오산시 누읍동 500번지 1층","category":"일반휴게음식 - 일반한식"},{"name":"누읍동","tel":"031-111-1111","addr":"경기도 오산시 누읍동 500번지 1층","category":"일반휴게음식 - 일반한식"}]},{"lat":"37.138726733","long":"127.05284206","items":[{"name":"남해경정비카센타","tel":"031-372-3088","addr":"경기도 오산시 누읍동 271번지","category":"자동차정비 유지 - 자동차정비"},{"name":"메카디테일링","tel":"","addr":"경기도 오산시 누읍동 271번지","category":"자동차정비 유지 - 세차장"},{"name":"브라더카(Brother Car)","tel":"031-374-3734","addr":"경기도 오산시 누읍동 271번지 1층","category":"자동차정비 유지 - 카인테리어"}]},{"lat":"37.140423163","long":"127.04661913","items":[{"name":"다경감자탕","tel":"031-376-3640","addr":"경기도 오산시 누읍동 541번지 1층","category":"일반휴게음식 - 일반한식"},{"name":"아트빌리아드","tel":"","addr":"경기도 오산시 누읍동 541번지 2층","category":"레저업소 - 당 구 장"},{"name":"후니카페(HooNeyCafe)","tel":"","addr":"경기도 오산시 누읍동 541번지 아트빌 1,2층","category":"일반휴게음식 - 서양음식"}]},{"lat":"37.13906038","long":"127.05222327","items":[{"name":"다원푸드","tel":"031-376-6691","addr":"경기도 오산시 누읍동 274-1번지 나동 104호","category":"음료식품 - 정육점"},{"name":"뚱이포차","tel":"","addr":"경기도 오산시 누읍동 274-1번지 가동 1층","category":"일반휴게음식 - 일반한식"},{"name":"막퍼주는고깃간","tel":"031-376-6692","addr":"경기도 오산시 누읍동 274-1번지 나동 1층","category":"일반휴게음식 - 일반한식"},{"name":"쥬얼리 노래연습장","tel":"","addr":"경기도 오산시 누읍동 274-1번지 가동 1층 103호","category":"레저업소 - 노 래 방"}]},{"lat":"37.138978913","long":"127.05311235","items":[{"name":"닥터후카센터","tel":"031-376-0427","addr":"경기도 오산시 누읍동 626-10번지","category":"자동차정비 유지 - 자동차시트·타이어"}]},{"lat":"37.139312486","long":"127.05267363","items":[{"name":"당구카페","tel":"031-375-2353","addr":"경기도 오산시 누읍동 626-6번지 2층","category":"레저업소 - 당 구 장"},{"name":"작은영토","tel":"031-376-5279","addr":"경기도 오산시 누읍동 626-6번지 1층","category":"일반휴게음식 - 일반한식"}]},{"lat":"37.142338881","long":"127.05528685","items":[{"name":"대림종합공구상사","tel":"031-375-0981","addr":"경기도 오산시 누읍동 366번지","category":"기타 - 기계공구"},{"name":"현대라이닝","tel":"031-372-4848","addr":"경기도 오산시 누읍동 366번지","category":"자동차정비 유지 - 자동차부품"}]},{"lat":"37.139366244","long":"127.05339397","items":[{"name":"대학가 서울불고기누읍점","tel":"031-377-2915","addr":"경기도 오산시 누읍동 630-2번지 1층","category":"일반휴게음식 - 일반한식"}]},{"lat":"37.139060055","long":"127.05299985","items":[{"name":"더리얼","tel":"02-1111-1111","addr":"경기도 오산시 누읍동 626-9번지","category":"음료식품 - 기타음료식품"}]},{"lat":"37.140005964","long":"127.05345067","items":[{"name":"동구네중국집","tel":"031-372-5770","addr":"경기도 오산시 누읍동 627-7번지 1층","category":"일반휴게음식 - 중국식"}]},{"lat":"37.139032736","long":"127.05367512","items":[{"name":"두원상사","tel":"031-374-1461","addr":"경기도 오산시 누읍동 629-4번지","category":"자동차정비 유지 - 자동차부품"}]},{"lat":"37.13661559","long":"127.05886183","items":[{"name":"드림포워드구내식당","tel":"031-377-3233","addr":"경기도 오산시 누읍동 146번지 4층","category":"일반휴게음식 - 위탁급식업"}]},{"lat":"37.140113853","long":"127.05400224","items":[{"name":"뜰","tel":"031-377-1740","addr":"경기도 오산시 누읍동 628-6번지 1층","category":"일반휴게음식 - 서양음식"}]},{"lat":"37.140864648","long":"127.04669817","items":[{"name":"럼버잭","tel":"031-377-5006","addr":"경기도 오산시 누읍동 535-2번지 2층","category":"일반휴게음식 - 일반한식"},{"name":"송탄부대찌개","tel":"031-376-0112","addr":"경기도 오산시 누읍동 535-2번지 1층","category":"일반휴게음식 - 일반한식"},{"name":"큰집막창(누읍점)","tel":"031-377-8295","addr":"경기도 오산시 누읍동 535-2번지","category":"일반휴게음식 - 일반한식"}]},{"lat":"37.139701972","long":"127.04756413","items":[{"name":"루미쌀유통","tel":"031-375-4335","addr":"경기도 오산시 누읍동 519번지","category":"음료식품 - 기타음료식품"}]},{"lat":"37.139222076","long":"127.05339388","items":[{"name":"맛있는 밥집","tel":"031-376-8444","addr":"경기도 오산시 누읍동 630-3번지 1층","category":"일반휴게음식 - 일반한식"}]},{"lat":"37.140366089","long":"127.05413747","items":[{"name":"맛집","tel":"031-378-1432","addr":"경기도 오산시 누읍동 625-8번지","category":"일반휴게음식 - 일반한식"}]},{"lat":"37.139393131","long":"127.05373164","items":[{"name":"망고마트","tel":"031-375-0444","addr":"경기도 오산시 누읍동 629-1번지 1층","category":"유통업 영리 - 슈퍼마켓"}]},{"lat":"37.140918606","long":"127.04697958","items":[{"name":"맥스피드PC누읍점","tel":"","addr":"경기도 오산시 누읍동 534-4번지 정호빌딩 4층","category":"레저업소 - 기타레져업소"},{"name":"세무사김기훈사무소","tel":"031-377-3774","addr":"경기도 오산시 누읍동 534-4번지 정호빌딩 202호","category":"용역 서비스 - 법률회계서비스(개인)"},{"name":"오산농업협동조합초평지점","tel":"031-378-6150","addr":"경기도 오산시 누읍동 534-4번지","category":"유통업 비영리 - 농,축협 직영매장"},{"name":"촌놈도야지고깃집","tel":"031-376-8277","addr":"경기도 오산시 누읍동 534-4번지 정호빌딩 2층","category":"일반휴게음식 - 일반한식"},{"name":"힘찬태권도장","tel":"031-377-7255","addr":"경기도 오산시 누읍동 534-4번지 3층","category":"학원 - 예·체능계학원"}]},{"lat":"37.139168665","long":"127.05184067","items":[{"name":"멋진친구스포츠클럽","tel":"070-8841-0530","addr":"경기도 오산시 누읍동 274-2번지 윤수빌딩 3층","category":"학원 - 기타 교육기관"},{"name":"앤써이벤트기획","tel":"070-8841-0530","addr":"경기도 오산시 누읍동 274-2번지 윤수빌딩","category":"용역 서비스 - 종합용역"},{"name":"인지향","tel":"031-374-7957","addr":"경기도 오산시 누읍동 274-2번지 윤수빌딩 2층 202호","category":"직물 - 기타직물"},{"name":"회랑조개랑포차","tel":"031-372-8598","addr":"경기도 오산시 누읍동 274-2번지 윤수빌딩 1층","category":"일반휴게음식 - 일반한식"}]},{"lat":"37.140224529","long":"127.0476995","items":[{"name":"명태명가","tel":"031-373-0322","addr":"경기도 오산시 누읍동 523번지","category":"일반휴게음식 - 일반한식"}]},{"lat":"37.141305757","long":"127.04777893","items":[{"name":"미당남원골추어탕","tel":"031-377-9530","addr":"경기도 오산시 누읍동 445번지","category":"일반휴게음식 - 일반한식"},{"name":"스미프레소","tel":"031-374-0233","addr":"경기도 오산시 누읍동 445번지 1층 스미프레소카페","category":"일반휴게음식 - 서양음식"},{"name":"스카이","tel":"031-376-0302","addr":"경기도 오산시 누읍동 445번지 3층","category":"일반휴게음식 - 주점"},{"name":"한마음치과의원","tel":"031-375-7525","addr":"경기도 오산시 누읍동 445번지","category":"의원 - 치과의원"}]},{"lat":"37.139861796","long":"127.05345058","items":[{"name":"바다식당","tel":"031-000-0000","addr":"경기도 오산시 누읍동 627-8번지 1층","category":"일반휴게음식 - 일반한식"}]},{"lat":"37.139945196","long":"127.04772185","items":[{"name":"바른유통","tel":"031-378-4601","addr":"경기도 오산시 누읍동 520번지 1층","category":"주방용구 - 주방용구"}]},{"lat":"37.139618609","long":"127.05322532","items":[{"name":"번개맞은닭","tel":"031-377-5581","addr":"경기도 오산시 누읍동 627-5번지 1층","category":"일반휴게음식 - 일반한식"}]},{"lat":"37.141422051","long":"127.04995125","items":[{"name":"빨강머리","tel":"031-377-1053","addr":"경기도 오산시 누읍동 456-6번지 휴먼시아 가상가동 103호","category":"보건위생 - 미용원"}]},{"lat":"37.139840957","long":"127.05967456","items":[{"name":"석전의료공업(주)","tel":"031-374-4031","addr":"경기도 오산시 누읍동 17번지","category":"기타의료기관 - 기타의료기관 및 기타"}]},{"lat":"37.140140982","long":"127.05377716","items":[{"name":"세븐일레븐오산누읍점","tel":"031-1577-0711","addr":"경기도 오산시 누읍동 628-1번지 1층","category":"유통업 영리 - 편 의 점"}]},{"lat":"37.140061677","long":"127.04942142","items":[{"name":"아이펀어린이집[아이행복]","tel":"031-378-0607","addr":"경기도 오산시 누읍동 502-4번지","category":"학원 - 유아원"}]},{"lat":"37.13750735","long":"127.05944773","items":[{"name":"엘에스컴퍼니(LS COMPANY)","tel":"031-204-8186","addr":"경기도 오산시 누읍동 131-3번지","category":"건축자재 - 인테리어전문"}]},{"lat":"37.140366446","long":"127.0533046","items":[{"name":"예담","tel":"031-0000-0000","addr":"경기도 오산시 누읍동 625-3번지 103호","category":"음료식품 - 농·축·수산품"}]},{"lat":"37.13888876","long":"127.05322483","items":[{"name":"오족오족맛있는족발","tel":"031-377-7458","addr":"경기도 오산시 누읍동 626-11번지 1층","category":"일반휴게음식 - 일반한식"}]},{"lat":"37.140944048","long":"127.05106521","items":[{"name":"운암공조닥트","tel":"031-377-6707","addr":"경기도 오산시 누읍동 488-4번지","category":"기타 - 기타 전문점"}]},{"lat":"37.143257865","long":"127.05547882","items":[{"name":"윈실내테니스","tel":"031-111-1111","addr":"경기도 오산시 누읍동 355번지","category":"레저업소 - 테니스장"}]},{"lat":"37.143422089","long":"127.05067284","items":[{"name":"이랑촌","tel":"031-373-5070","addr":"경기도 오산시 누읍동 419번지","category":"일반휴게음식 - 일반한식"}]},{"lat":"37.141702593","long":"127.04677744","items":[{"name":"제2다우상사","tel":"031-374-0330","addr":"경기도 오산시 누읍동 561-6","category":"자동차판매 - 중고자동차판매"}]},{"lat":"37.139032644","long":"127.05388897","items":[{"name":"제이에이뷰티","tel":"031-375-0414","addr":"경기도 오산시 누읍동 629-9번지 1층","category":"보건위생 - 화장품"}]},{"lat":"37.139195302","long":"127.0527861","items":[{"name":"조쿠만","tel":"031-373-9991","addr":"경기도 오산시 누읍동 626-7번지","category":"일반휴게음식 - 일반한식"}]},{"lat":"37.138058016","long":"127.05725347","items":[{"name":"주식회사 시온텍","tel":"031-352-5241","addr":"경기도 오산시 누읍동 141-1번지","category":"건축자재 - 기타건축자재"}]},{"lat":"37.139167883","long":"127.05369772","items":[{"name":"중앙상사","tel":"031-374-4050","addr":"경기도 오산시 누읍동 629-3번지","category":"자동차정비 유지 - 자동차부품"}]},{"lat":"37.139753885","long":"127.05294403","items":[{"name":"지움어린이집[아이행복]","tel":"031-378-7400","addr":"경기도 오산시 누읍동 626-2번지","category":"학원 - 유아원"}]},{"lat":"37.140673678","long":"127.0512001","items":[{"name":"처갓집양념치킨 누읍점","tel":"031-373-9282","addr":"경기도 오산시 누읍동 621번지 휴먼시아나상가동 104호","category":"일반휴게음식 - 스넥"}]},{"lat":"37.139474618","long":"127.05280879","items":[{"name":"키즈맘어린이집[아이행복]","tel":"031-372-2050","addr":"경기도 오산시 누읍동 626-4번지 1층","category":"학원 - 유아원"}]},{"lat":"37.141306999","long":"127.04436861","items":[{"name":"풍천장어직판장","tel":"031-376-8987","addr":"경기도 오산시 누읍동 577","category":"음료식품 - 농·축·수산품"}]},{"lat":"37.14014289","long":"127.04911759","items":[{"name":"하쌤영수전문학원","tel":"070-8881-1009","addr":"경기도 오산시 누읍동 502-1번지 3층","category":"학원 - 보습학원"}]},{"lat":"37.142116022","long":"127.04953523","items":[{"name":"한국학원","tel":"031-377-3188","addr":"경기도 오산시 누읍동 438 한라그린타운상가3층","category":"회원제형태 - 학원"},{"name":"한라세탁소","tel":"031-377-8910","addr":"경기도 오산시 누읍동 438한라그린타운@상가1-105","category":"수리서비스 - 세탁소"},{"name":"해법영어오산멘토링교실","tel":"031-377-3454","addr":"경기도 오산시 누읍동 438한라그린타운상가202","category":"회원제형태 - 학원"}]},{"lat":"37.141698163","long":"127.05744741","items":[{"name":"한성기업","tel":"031-372-7642","addr":"경기도 오산시 누읍동 45번지","category":"직물 - 옷감·직물"}]},{"lat":"37.140088575","long":"127.04975909","items":[{"name":"행복한세상","tel":"031-378-8380","addr":"경기도 오산시 누읍동 503-2번지","category":"의류 - 정장"}]},{"lat":"37.139584942","long":"127.04728269","items":[{"name":"현주네곱창","tel":"031-377-2289","addr":"경기도 오산시 누읍동 518번지","category":"일반휴게음식 - 일반한식"}]},{"lat":"37.139783088","long":"127.04750791","items":[{"name":"홍빈루","tel":"031-378-8833","addr":"경기도 오산시 누읍동 519-1번지","category":"일반휴게음식 - 중국식"}]}]