[{"lat":"37.121282717","long":"127.01978283","imageIndex":17,"items":[{"name":"(주)상경토탈비즈","tel":"031-000-0000","addr":"경기도 평택시 서탄면 수월암리 1042-2번지","indutype":"전기제품 - 가전제품","category":"other"}]},{"lat":"37.121398777","long":"127.02614037","imageIndex":17,"items":[{"name":"(주)에이블에스원","tel":"031-611-3301","addr":"경기도 평택시 서탄면 수월암리 954-20번지","indutype":"건축자재 - 목재·석재·철물","category":"other"}]},{"lat":"37.124921345","long":"127.02875209","imageIndex":17,"items":[{"name":"(주)이디아이테크","tel":"031-451-8573","addr":"경기도 평택시 서탄면 수월암리 939-2번지 1층","indutype":"사무통신 - 컴퓨터","category":"other"}]},{"lat":"37.129589108","long":"127.02723446","imageIndex":17,"items":[{"name":"BLS","tel":"031-376-4332","addr":"경기도 평택시 서탄면 수월암리 761번지","indutype":"기타 - 기타 전문점","category":"other"}]},{"lat":"37.12306363","long":"127.0350866","imageIndex":17,"items":[{"name":"HIGGS","tel":"031-668-0940","addr":"경기도 평택시 서탄면 수월암리 378-3번지","indutype":"건축자재 - 인테리어전문","category":"other"}]},{"lat":"37.116260066","long":"127.03731151","imageIndex":17,"items":[{"name":"K.M.C 칼라","tel":"031-665-1563","addr":"경기도 평택시 서탄면 수월암리 449-8,9","indutype":"유통업 영리 - 기타유통업","category":"other"}]},{"lat":"37.132418762","long":"127.02542349","imageIndex":17,"items":[{"name":"거성웰딩","tel":"031-662-6013","addr":"경기도 평택시 서탄면 수월암리 844","indutype":"기타 - 기타 전문점","category":"other"},{"name":"대한체인공업","tel":"031-663-2277","addr":"경기도 평택시 서탄면 수월암리 844","indutype":"기타 - 기계공구","category":"other"}]},{"lat":"37.132896463","long":"127.02464711","imageIndex":17,"items":[{"name":"경기인더스","tel":"031-375-1433","addr":"경기도 평택시 서탄면 수월암리 850-5","indutype":"건축자재 - 기타건축자재","category":"other"},{"name":"세진상사","tel":"031-664-3522","addr":"경기도 평택시 서탄면 수월암리 850-5번지","indutype":"신변잡화 - 기타잡화","category":"other"}]},{"lat":"37.132806409","long":"127.02436574","imageIndex":17,"items":[{"name":"경원종합콤푸레샤","tel":"031-376-8047","addr":"경기도 평택시 서탄면 수월암리 850-2번지","indutype":"기타 - 기계공구","category":"other"}]},{"lat":"37.12061356","long":"127.03203624","imageIndex":17,"items":[{"name":"공신툴링","tel":"031-688-8105","addr":"경기도 평택시 서탄면 수월암리 638-1번지","indutype":"기타 - 기계공구","category":"other"},{"name":"세운툴링","tel":"031-668-0945","addr":"경기도 평택시 서탄면 수월암리 638-1","indutype":"기타 - 기계공구","category":"other"}]},{"lat":"37.113593392","long":"127.03575766","imageIndex":17,"items":[{"name":"광진가설산업","tel":"031-666-5111","addr":"경기도 평택시 서탄면 수월암리 454-6번지","indutype":"건축자재 - 기타건축자재","category":"other"}]},{"lat":"37.128119634","long":"127.03069998","imageIndex":17,"items":[{"name":"국제화성","tel":"031-203-8123","addr":"경기도 평택시 서탄면 수월암리 692","indutype":"건축자재 - 기타건축자재","category":"other"}]},{"lat":"37.132283821","long":"127.02425305","imageIndex":17,"items":[{"name":"까치종합상사","tel":"031-611-0509","addr":"경기도 평택시 서탄면 수월암리 851-4번지","indutype":"기타 - 기계공구","category":"other"},{"name":"인광종합상사","tel":"031-665-0241","addr":"경기도 평택시 서탄면 수월암리 851-4번지 203호","indutype":"전기제품 - 가전제품","category":"other"},{"name":"제이히타테크","tel":"031-663-0067","addr":"경기도 평택시 서탄면 수월암리 851-4번지","indutype":"전기제품 - 냉열기기","category":"other"}]},{"lat":"37.117533237","long":"127.02628546","imageIndex":17,"items":[{"name":"늑대와여우컴퓨터 서탄점","tel":"031-366-6212","addr":"경기도 평택시 서탄면 수월암리 980-4번지","indutype":"사무통신 - 컴퓨터","category":"other"}]},{"lat":"37.132643483","long":"127.02811324","imageIndex":17,"items":[{"name":"대산계전","tel":"031-663-5050","addr":"경기도 평택시 서탄면 수월암리 833번지","indutype":"기타 - 기타 전문점","category":"other"}]},{"lat":"37.135002729","long":"127.0343939","imageIndex":17,"items":[{"name":"대한종합펌프","tel":"031-378-1079","addr":"경기도 평택시 서탄면 수월암리 227-2번지 외2필지 240-11,240-12번지 104호","indutype":"건축자재 - 보일러·펌프·샷시","category":"other"},{"name":"피플 앤 네트웍스","tel":"070-8800-3822","addr":"경기도 평택시 서탄면 수월암리 227-2번지 102호","indutype":"사무통신 - 컴퓨터","category":"other"}]},{"lat":"37.132644299","long":"127.02392679","imageIndex":17,"items":[{"name":"명성특수인쇄","tel":"031-372-4176","addr":"경기도 평택시 서탄면 수월암리 851-5번지 2층","indutype":"서적문구 - 출판 및 인쇄물","category":"other"},{"name":"씨유평택로드점","tel":"070-8877-1364","addr":"경기도 평택시 서탄면 수월암리 851-5번지 1층","indutype":"유통업 영리 - 편 의 점","category":"other"},{"name":"현대프라자","tel":"031-372-0834","addr":"경기도 평택시 서탄면 수월암리 851-5번지","indutype":"기타 - 기타 전문점","category":"other"}]},{"lat":"37.130418006","long":"127.02756108","imageIndex":17,"items":[{"name":"미니스톱 서탄로드점","tel":"031-1577-9621","addr":"경기도 평택시 서탄면 수월암리 773번지","indutype":"유통업 영리 - 편 의 점","category":"other"}]},{"lat":"37.124337377","long":"127.01908584","imageIndex":17,"items":[{"name":"밝을명디자인","tel":"031-664-5955","addr":"경기도 평택시 서탄면 수월암리 891번지 B동","indutype":"문화.취미 - 민예·공예품","category":"other"}]},{"lat":"37.132806464","long":"127.02406188","imageIndex":17,"items":[{"name":"부일볼트","tel":"031-377-7016","addr":"경기도 평택시 서탄면 수월암리 851-2번지","indutype":"기타 - 기계공구","category":"other"}]},{"lat":"37.123452184","long":"127.03073203","imageIndex":17,"items":[{"name":"부테크(BOO TECH)","tel":"031-666-7715","addr":"경기도 평택시 서탄면 수월암리 673-1번지","indutype":"전기제품 - 기타전기제품","category":"other"}]},{"lat":"37.11884121","long":"127.01717185","imageIndex":17,"items":[{"name":"삼광산업(주)","tel":"02-595-7375","addr":"경기도 평택시 서탄면 수월암리 1105번지 삼광산업주식회사","indutype":"기타 - 기계공구","category":"other"}]},{"lat":"37.120367432","long":"127.04192673","imageIndex":17,"items":[{"name":"성호물류기계","tel":"031-663-4088","addr":"경기도 평택시 서탄면 수월암리 165번지","indutype":"기타 - 기계공구","category":"other"}]},{"lat":"37.135111146","long":"127.03327977","imageIndex":17,"items":[{"name":"성화이엔지","tel":"031-666-5336","addr":"경기도 평택시 서탄면 수월암리 240-8번지 1층","indutype":"기타 - 기계공구","category":"other"}]},{"lat":"37.119092307","long":"127.02498072","imageIndex":17,"items":[{"name":"세븐일레븐평택서탄로점","tel":"031-1577-0711","addr":"경기도 평택시 서탄면 수월암리 960-4번지 1층","indutype":"유통업 영리 - 편 의 점","category":"other"}]},{"lat":"37.120974294","long":"127.03073113","imageIndex":17,"items":[{"name":"세븐일레븐평택수월암점","tel":"031-1577-0711","addr":"경기도 평택시 서탄면 수월암리 651-7번지","indutype":"유통업 영리 - 편 의 점","category":"other"}]},{"lat":"37.120343008","long":"127.03298131","imageIndex":17,"items":[{"name":"세이프영","tel":"031-611-7033","addr":"경기도 평택시 서탄면 수월암리 619-1번지","indutype":"기타 - 기계공구","category":"other"}]},{"lat":"37.123089354","long":"127.03958761","imageIndex":17,"items":[{"name":"씨유평택경동나비엔점","tel":"031-8060-5540","addr":"경기도 평택시 서탄면 수월암리 2022번지","indutype":"유통업 영리 - 편 의 점","category":"other"}]},{"lat":"37.121537815","long":"127.04480791","imageIndex":17,"items":[{"name":"씨유평택서탄공단점","tel":"031-665-6219","addr":"경기도 평택시 서탄면 수월암리 147번지","indutype":"유통업 영리 - 편 의 점","category":"other"}]},{"lat":"37.117704545","long":"127.02573418","imageIndex":17,"items":[{"name":"씨유평택수월암리점","tel":"031-662-7235","addr":"경기도 평택시 서탄면 수월암리 980번지","indutype":"유통업 영리 - 편 의 점","category":"other"}]},{"lat":"37.13486794","long":"127.03297581","imageIndex":17,"items":[{"name":"아모르가구","tel":"031-377-8872","addr":"경기도 평택시 서탄면 수월암리 240-5번지","indutype":"가구 - 일반가구","category":"other"}]},{"lat":"37.115953893","long":"127.03667004","imageIndex":17,"items":[{"name":"아신창호","tel":"031-668-3667","addr":"경기도 평택시 서탄면 수월암리 450-5 A","indutype":"건축자재 - 보일러·펌프·샷시","category":"other"}]},{"lat":"37.127783619","long":"127.04025381","imageIndex":17,"items":[{"name":"애프터레인 주식회사","tel":"031-000-0000","addr":"경기도 평택시 서탄면 수월암리 200-3번지","indutype":"전기제품 - 기타전기제품","category":"other"}]},{"lat":"37.115954949","long":"127.03273204","imageIndex":17,"items":[{"name":"에이치비티(HBT)","tel":"070-4755-4788","addr":"경기도 평택시 서탄면 수월암리 557-1번지","indutype":"전기제품 - 기타전기제품","category":"other"}]},{"lat":"37.126529297","long":"127.04575591","imageIndex":17,"items":[{"name":"일광테크","tel":"031-375-7928","addr":"경기도 평택시 서탄면 수월암리 45-2번지","indutype":"기타 - 기계공구","category":"other"}]},{"lat":"37.123619211","long":"127.04489908","imageIndex":17,"items":[{"name":"정솔루션","tel":"","addr":"경기도 평택시 서탄면 수월암리 112번지 1동","indutype":"레져용품 - 스포츠·레져용품","category":"other"}]},{"lat":"37.12311553","long":"127.04225446","imageIndex":17,"items":[{"name":"주식회사 대명유리","tel":"031-664-8051","addr":"경기도 평택시 서탄면 수월암리 191-13번지","indutype":"건축자재 - 유리","category":"other"}]},{"lat":"37.118115806","long":"127.03875258","imageIndex":17,"items":[{"name":"중고나라","tel":"031-224-2540","addr":"경기도 평택시 서탄면 수월암리 1290-11번지","indutype":"전기제품 - 가전제품","category":"other"}]},{"lat":"37.12133973","long":"127.04439147","imageIndex":17,"items":[{"name":"태진종합상사","tel":"031-668-5563","addr":"경기도 평택시 서탄면 수월암리 152번지 A동","indutype":"건축자재 - 기타건축자재","category":"other"}]},{"lat":"37.119558147","long":"127.03650287","imageIndex":17,"items":[{"name":"프로신소재","tel":"031-665-1577","addr":"경기도 평택시 서탄면 수월암리 1283번지 에이동,비동 C동 1층","indutype":"기타 - 기계공구","category":"other"}]},{"lat":"37.122420777","long":"127.04499969","imageIndex":17,"items":[{"name":"하나테크","tel":"031-663-1112","addr":"경기도 평택시 서탄면 수월암리 95-1번지","indutype":"기타 - 기계공구","category":"other"}]},{"lat":"37.133031113","long":"127.02725807","imageIndex":17,"items":[{"name":"한국흑판교재주식회사","tel":"031-667-8171","addr":"경기도 평택시 서탄면 수월암리 831번지","indutype":"사무통신 - 기타 사무용품","category":"other"}]},{"lat":"37.116622044","long":"127.03144963","imageIndex":17,"items":[{"name":"현대빠우","tel":"031-664-5777","addr":"경기도 평택시 서탄면 수월암리 556번지","indutype":"용역 서비스 - 기타용역서비스","category":"other"}]},{"lat":"37.117704545","long":"127.02573418","imageIndex":7,"items":[{"name":"J마트","tel":"031-662-7235","addr":"경기도 평택시 서탄면 수월암리 980번지 영일 상가 101호","indutype":"유통업 영리 - 슈퍼마켓","category":"mart"}]},{"lat":"37.119341384","long":"127.03825807","imageIndex":7,"items":[{"name":"공단마트","tel":"031-666-1888","addr":"경기도 평택시 서탄면 수월암리 418-1번지","indutype":"유통업 영리 - 슈퍼마켓","category":"mart"},{"name":"공단마트","tel":"031-611-7677","addr":"경기도 평택시 서탄면 수월암리 418-1번지","indutype":"소매업 - 슈퍼","category":"mart"}]},{"lat":"37.133202307","long":"127.02728063","imageIndex":7,"items":[{"name":"굿모닝마트(평택서탄)","tel":"031-656-9299","addr":"경기도 평택시 서탄면 수월암리 828-1번지","indutype":"소매업 - 슈퍼","category":"mart"}]},{"lat":"37.121976572","long":"127.01945666","imageIndex":4,"items":[{"name":"개여울","tel":"","addr":"경기도 평택시 서탄면 수월암리 1030-3번지","indutype":"일반휴게음식 - 서양음식","category":"restaurant"},{"name":"오리와촌닭","tel":"031-663-5702","addr":"경기도 평택시 서탄면 수월암리 1030-3","indutype":"일반휴게음식 - 일반한식","category":"restaurant"}]},{"lat":"37.122618517","long":"127.04636134","imageIndex":4,"items":[{"name":"다복셀프식당","tel":"031-666-1110","addr":"경기도 평택시 서탄면 수월암리 130-4번지","indutype":"일반휴게음식 - 일반한식","category":"restaurant"}]},{"lat":"37.123060995","long":"127.04364974","imageIndex":4,"items":[{"name":"다연정","tel":"031-668-1280","addr":"경기도 평택시 서탄면 수월암리 190-1번지","indutype":"일반휴게음식 - 일반한식","category":"restaurant"}]},{"lat":"37.120974294","long":"127.03073113","imageIndex":4,"items":[{"name":"대웅식당","tel":"031-611-1118","addr":"경기도 평택시 서탄면 수월암리 651-7번지","indutype":"일반휴게음식 - 일반한식","category":"restaurant"}]},{"lat":"37.1200016","long":"127.02878417","imageIndex":4,"items":[{"name":"도담푸드","tel":"031-663-7148","addr":"경기도 평택시 서탄면 수월암리 964-19번지","indutype":"일반휴게음식 - 일반한식","category":"restaurant"}]},{"lat":"37.133391166","long":"127.02898005","imageIndex":4,"items":[{"name":"로얄식당","tel":"031-374-5603","addr":"경기도 평택시 서탄면 수월암리 261번지","indutype":"일반휴게음식 - 일반한식","category":"restaurant"}]},{"lat":"37.117308401","long":"127.02401256","imageIndex":4,"items":[{"name":"맛고을한식부페","tel":"031-667-5020","addr":"경기도 평택시 서탄면 수월암리 2008-3번지 1층","indutype":"일반휴게음식 - 일반한식","category":"restaurant"}]},{"lat":"37.121537815","long":"127.04480791","imageIndex":4,"items":[{"name":"맛집엄마손","tel":"070-7760-6230","addr":"경기도 평택시 서탄면 수월암리 147번지 C동","indutype":"일반휴게음식 - 일반한식","category":"restaurant"}]},{"lat":"37.118864017","long":"127.03761649","imageIndex":4,"items":[{"name":"명가한식부페","tel":"031-666-7783","addr":"경기도 평택시 서탄면 수월암리 419번지 1층 103호","indutype":"일반휴게음식 - 일반한식","category":"restaurant"}]},{"lat":"37.13339133","long":"127.02822603","imageIndex":4,"items":[{"name":"미소얼큰이샤브샤브칼국수","tel":"031-664-8511","addr":"경기도 평택시 서탄면 수월암리 827번지","indutype":"일반휴게음식 - 일반한식","category":"restaurant"},{"name":"오븐과 치킨","tel":"031-271-4119","addr":"경기도 평택시 서탄면 수월암리 827번지 2층","indutype":"일반휴게음식 - 스넥","category":"restaurant"},{"name":"청마루감자탕해장국","tel":"031-667-9990","addr":"경기도 평택시 서탄면 수월암리 827번지","indutype":"일반휴게음식 - 일반한식","category":"restaurant"}]},{"lat":"37.128085365","long":"127.02167488","imageIndex":4,"items":[{"name":"민지한식뷔페","tel":"","addr":"경기도 평택시 서탄면 수월암리 861-24번지 1층","indutype":"일반휴게음식 - 일반한식","category":"restaurant"}]},{"lat":"37.133364355","long":"127.02795592","imageIndex":4,"items":[{"name":"별커피카페","tel":"031-663-3383","addr":"경기도 평택시 서탄면 수월암리 828-5번지 2층","indutype":"일반휴게음식 - 서양음식","category":"restaurant"},{"name":"장터순대국감자탕","tel":"031-667-3232","addr":"경기도 평택시 서탄면 수월암리 828-5번지","indutype":"일반휴게음식 - 일반한식","category":"restaurant"}]},{"lat":"37.117533237","long":"127.02628546","imageIndex":4,"items":[{"name":"북경반점","tel":"031-611-1815","addr":"경기도 평택시 서탄면 수월암리 980-4번지","indutype":"일반휴게음식 - 중국식","category":"restaurant"},{"name":"우리들밥상","tel":"031-688-1158","addr":"경기도 평택시 서탄면 수월암리 980-4번지","indutype":"일반휴게음식 - 일반한식","category":"restaurant"}]},{"lat":"37.123230902","long":"127.04725064","imageIndex":4,"items":[{"name":"빌드매니아글로벌","tel":"031-611-1479","addr":"경기도 평택시 서탄면 수월암리 124번지 가동","indutype":"일반휴게음식 - 서양음식","category":"restaurant"}]},{"lat":"37.134390913","long":"127.03081482","imageIndex":4,"items":[{"name":"산홍(오산평택직영점)","tel":"031-665-7757","addr":"경기도 평택시 서탄면 수월암리 246-3번지","indutype":"일반휴게음식 - 일반한식","category":"restaurant"}]},{"lat":"37.121030546","long":"127.01889385","imageIndex":4,"items":[{"name":"서탄민물장어","tel":"031-667-5121","addr":"경기도 평택시 서탄면 수월암리 1036번지","indutype":"일반휴게음식 - 일반한식","category":"restaurant"},{"name":"서탄민물장어","tel":"","addr":"경기도 평택시 서탄면 수월암리 1036번지","indutype":"음식점 - 한식","category":"restaurant"}]},{"lat":"37.12356291","long":"127.01548486","imageIndex":4,"items":[{"name":"써니한식뷔페(내천점)","tel":"031-662-3222","addr":"경기도 평택시 서탄면 수월암리 1151-4번지 나동","indutype":"일반휴게음식 - 일반한식","category":"restaurant"}]},{"lat":"37.119756487","long":"127.03612039","imageIndex":4,"items":[{"name":"아현한식부페","tel":"031-666-0778","addr":"경기도 평택시 서탄면 수월암리 1283-10번지","indutype":"일반휴게음식 - 일반한식","category":"restaurant"}]},{"lat":"37.135002729","long":"127.0343939","imageIndex":4,"items":[{"name":"양감고추장돼지불백","tel":"031-353-5569","addr":"경기도 평택시 서탄면 수월암리 227-2번지","indutype":"일반휴게음식 - 일반한식","category":"restaurant"}]},{"lat":"37.128842159","long":"127.02222648","imageIndex":4,"items":[{"name":"엄마손가정식밥상","tel":"031-000-0000","addr":"경기도 평택시 서탄면 수월암리 861-12번지 1층","indutype":"일반휴게음식 - 일반한식","category":"restaurant"}]},{"lat":"37.130418006","long":"127.02756108","imageIndex":4,"items":[{"name":"오산한식부페","tel":"031-222-2265","addr":"경기도 평택시 서탄면 수월암리 773번지 3동","indutype":"일반휴게음식 - 일반한식","category":"restaurant"}]},{"lat":"37.134588999","long":"127.03142262","imageIndex":4,"items":[{"name":"전라도한식뷔페","tel":"031-000-0000","addr":"경기도 평택시 서탄면 수월암리 244-4번지 재명빌딩 1층 2호","indutype":"일반휴게음식 - 일반한식","category":"restaurant"}]},{"lat":"37.132896463","long":"127.02464711","imageIndex":4,"items":[{"name":"중화요리북경","tel":"031-372-6001","addr":"경기도 평택시 서탄면 수월암리 850-5번지","indutype":"일반휴게음식 - 중국식","category":"restaurant"}]},{"lat":"37.123089354","long":"127.03958761","imageIndex":4,"items":[{"name":"풀무원푸드앤컬처 경동나비엔서탄","tel":"02-3400-7544","addr":"경기도 평택시 서탄면 수월암리 2022번지 구내식당 202동 1층","indutype":"일반휴게음식 - 위탁급식업","category":"restaurant"}]},{"lat":"37.117397843","long":"127.02745559","imageIndex":4,"items":[{"name":"호남한식뷔페","tel":"031-611-8124","addr":"경기도 평택시 서탄면 수월암리 978-1번지","indutype":"일반휴게음식 - 일반한식","category":"restaurant"}]},{"lat":"37.116090812","long":"127.02978422","imageIndex":4,"items":[{"name":"황소네","tel":"031-663-1959","addr":"경기도 평택시 서탄면 수월암리 537-1번지","indutype":"일반휴게음식 - 일반한식","category":"restaurant"}]},{"lat":"37.132643109","long":"127.02981258","imageIndex":0,"items":[{"name":"금호자동구리스","tel":"031-379-9784","addr":"경기도 평택시 서탄면 수월암리 252번지 금호자동구리스","indutype":"자동차정비 유지 - 자동차부품","category":"car"},{"name":"진도모터스","tel":"031-665-7943","addr":"경기도 평택시 서탄면 수월암리 252","indutype":"자동차정비 유지 - 자동차부품","category":"car"}]},{"lat":"37.118368438","long":"127.03761627","imageIndex":0,"items":[{"name":"네오오토","tel":"031-611-6035","addr":"경기도 평택시 서탄면 수월암리 1287번지","indutype":"자동차판매 - 수입자동차","category":"car"}]},{"lat":"37.132418371","long":"127.02739292","imageIndex":0,"items":[{"name":"삼성라지에타카에어콘","tel":"031-375-6788","addr":"경기도 평택시 서탄면 수월암리 834-2","indutype":"자동차정비 유지 - 자동차정비","category":"car"}]},{"lat":"37.133139296","long":"127.02697675","imageIndex":0,"items":[{"name":"성창자동차공업사","tel":"031-665-3332","addr":"경기도 평택시 서탄면 수월암리 829-2번지","indutype":"자동차정비 유지 - 자동차정비","category":"car"}]},{"lat":"37.132806409","long":"127.02436574","imageIndex":0,"items":[{"name":"중앙카클리닉","tel":"031-373-3000","addr":"경기도 평택시 서탄면 수월암리 850-2번지","indutype":"자동차정비 유지 - 자동차정비","category":"car"}]},{"lat":"37.116396894","long":"127.03097698","imageIndex":0,"items":[{"name":"퍼펙트출장스팀세차","tel":"","addr":"경기도 평택시 서탄면 수월암리 540-3번지","indutype":"자동차정비 유지 - 세차장","category":"car"}]},{"lat":"37.120367432","long":"127.04192673","imageIndex":0,"items":[{"name":"한스카서비스","tel":"031-665-0165","addr":"경기도 평택시 서탄면 수월암리 165번지 1층","indutype":"자동차정비 유지 - 자동차부품","category":"car"}]},{"lat":"37.125725006","long":"127.01900737","imageIndex":7,"items":[{"name":"기린농원","tel":"031-663-6304","addr":"경기도 평택시 서탄면 수월암리 892-1번지","indutype":"음료식품 - 농·축·수산품","category":"food"}]},{"lat":"37.133031113","long":"127.02725807","imageIndex":7,"items":[{"name":"농업회사법인(주)유답","tel":"031-666-9430","addr":"경기도 평택시 서탄면 수월암리 831번지","indutype":"음료식품 - 농·축·수산품","category":"food"}]},{"lat":"37.131147884","long":"127.02742627","imageIndex":7,"items":[{"name":"룽월드주식회사","tel":"031-668-5912","addr":"경기도 평택시 서탄면 수월암리 819번지","indutype":"음료식품 - 기타음료식품","category":"food"}]},{"lat":"37.116422472","long":"127.03655774","imageIndex":7,"items":[{"name":"쌍둥이네푸드","tel":"","addr":"경기도 평택시 서탄면 수월암리 449-4번지","indutype":"음료식품 - 기타음료식품","category":"food"}]},{"lat":"37.117704545","long":"127.02573418","imageIndex":7,"items":[{"name":"우래","tel":"031-378-0447","addr":"경기도 평택시 서탄면 수월암리 980번지","indutype":"음료식품 - 기타음료식품","category":"food"}]},{"lat":"37.119730129","long":"127.03362243","imageIndex":7,"items":[{"name":"주식회사 베스트포굿","tel":"031-1600-9240","addr":"경기도 평택시 서탄면 수월암리 402-1번지 A동","indutype":"음료식품 - 정육점","category":"food"}]},{"lat":"37.133202307","long":"127.02728063","imageIndex":7,"items":[{"name":"천지한우방","tel":"","addr":"경기도 평택시 서탄면 수월암리 828-1번지 굿모닝마트내 정육코너","indutype":"음료식품 - 정육점","category":"food"}]},{"lat":"37.120676448","long":"127.0327789","imageIndex":7,"items":[{"name":"한길","tel":"031-666-0592","addr":"경기도 평택시 서탄면 수월암리 639-1번지","indutype":"음료식품 - 농·축·수산품","category":"food"}]},{"lat":"37.127092852","long":"127.02886535","imageIndex":16,"items":[{"name":"꿈을키우는라온어린이집[아이행복]","tel":"031-665-1786","addr":"경기도 평택시 서탄면 수월암리 579-1번지","indutype":"학원 - 유아원","category":"study"}]},{"lat":"37.13614667","long":"127.03583494","imageIndex":13,"items":[{"name":"다임","tel":"031-223-5214","addr":"경기도 평택시 서탄면 수월암리 215-13번지 2층","indutype":"보건위생 - 화장품","category":"beauty"}]},{"lat":"37.135002729","long":"127.0343939","imageIndex":13,"items":[{"name":"주식회사 옐로우트리코스메틱","tel":"031-8094-2591","addr":"경기도 평택시 서탄면 수월암리 227-2번지","indutype":"보건위생 - 화장품","category":"beauty"}]},{"lat":"37.13614667","long":"127.03583494","imageIndex":8,"items":[{"name":"세명약국","tel":"031-376-9797","addr":"경기도 평택시 서탄면 수월암리 215-13번지","indutype":"약국 - 약국","category":"medical"},{"name":"세명약국","tel":"031-664-6875","addr":"경기도 평택시 서탄면 수월암리 215-13번지","indutype":"소매업 - 약국","category":"medical"}]},{"lat":"37.134588999","long":"127.03142262","imageIndex":13,"items":[{"name":"아카데미당구","tel":"070-8834-1439","addr":"경기도 평택시 서탄면 수월암리 244-4","indutype":"레저업소 - 당 구 장","category":"leisure"}]},{"lat":"37.133364355","long":"127.02795592","imageIndex":13,"items":[{"name":"채플린 노래연습장","tel":"031-666-6534","addr":"경기도 평택시 서탄면 수월암리 828-5번지 2층","indutype":"레저업소 - 노 래 방","category":"leisure"}]},{"lat":"37.135002729","long":"127.0343939","imageIndex":13,"items":[{"name":"히트(Hit)스크린골프","tel":"031-374-2266","addr":"경기도 평택시 서탄면 수월암리 227-2번지 1층 108호","indutype":"레저업소 - 스크린골프","category":"leisure"}]}]