[{"lat":"37.244218439","long":"127.43229712","items":[{"name":"(주)아모르컨벤션웨딩","tel":"031-638-5222","addr":"경기도 이천시 호법면 유산리 784-14번지","category":"용역 서비스 - 혼례서비스"},{"name":"구가짬뽕","tel":"","addr":"경기도 이천시 호법면 유산리 784-14번지","category":"일반휴게음식 - 중국식"},{"name":"바다양푼이동태탕(호법점)","tel":"031-637-2272","addr":"경기도 이천시 호법면 유산리 784-14번지 1층","category":"일반휴게음식 - 일반한식"}]},{"lat":"37.246805924","long":"127.43435181","items":[{"name":"글로벌축복교회","tel":"031-634-9988","addr":"경기도 이천시 호법면 유산리 508-11번지","category":"용역 서비스 - 혼례서비스"}]},{"lat":"37.244278134","long":"127.43815807","items":[{"name":"금호타이어 이천대리점","tel":"031-638-0951","addr":"경기도 이천시 호법면 유산리 129-1번지","category":"자동차정비 유지 - 자동차시트·타이어"}]},{"lat":"37.244941287","long":"127.43668545","items":[{"name":"기사식당","tel":"031-635-0242","addr":"경기도 이천시 호법면 유산리 497-5번지","category":"일반휴게음식 - 일반한식"}]},{"lat":"37.246137823","long":"127.43963395","items":[{"name":"다담옥설렁탕","tel":"031-633-3595","addr":"경기도 이천시 호법면 유산리 479-3","category":"일반휴게음식 - 일반한식"}]},{"lat":"37.24375032","long":"127.43466123","items":[{"name":"대림자동차매매상사","tel":"031-637-4988","addr":"경기도 이천시 호법면 유산리 803-6번지 (803-6외4필지)","category":"자동차판매 - 중고자동차판매"},{"name":"서이천자동차매매상사","tel":"031-632-6981","addr":"경기도 이천시 호법면 유산리 803-6번지","category":"자동차판매 - 중고자동차판매"}]},{"lat":"37.244355715","long":"127.43665955","items":[{"name":"대성전자","tel":"031-635-0278","addr":"경기도 이천시 호법면 유산리 517-1번지 101호","category":"자동차정비 유지 - 자동차부품"},{"name":"씨유이천유산로드점","tel":"031-898-6567","addr":"경기도 이천시 호법면 유산리 517-1번지","category":"유통업 영리 - 편 의 점"},{"name":"양평해장국","tel":"","addr":"경기도 이천시 호법면 유산리 517-1번지 104호","category":"일반휴게음식 - 일반한식"},{"name":"우동가","tel":"031-635-5595","addr":"경기도 이천시 호법면 유산리 517-1번지","category":"일반휴게음식 - 중국식"}]},{"lat":"37.243889168","long":"127.43857283","items":[{"name":"동서철물건재","tel":"031-635-4288","addr":"경기도 이천시 호법면 유산리 536-4번지","category":"건축자재 - 기타건축자재"}]},{"lat":"37.241746057","long":"127.43821113","items":[{"name":"동원샘물","tel":"031-635-8472","addr":"경기도 이천시 호법면 유산리 545-14번지","category":"유통업 영리 - 기타유통업"}]},{"lat":"37.24647377","long":"127.4389371","items":[{"name":"동현 황제칼국수","tel":"031-635-9013","addr":"경기도 이천시 호법면 유산리 471-1번지","category":"일반휴게음식 - 일반한식"}]},{"lat":"37.246246188","long":"127.42968256","items":[{"name":"두레손만두","tel":"031-633-1303","addr":"경기도 이천시 호법면 유산리 817번지 1동","category":"일반휴게음식 - 일반한식"}]},{"lat":"37.248303187","long":"127.44612726","items":[{"name":"드림내추럴","tel":"031-000-0000","addr":"경기도 이천시 호법면 유산리 382-11번지","category":"음료식품 - 기타음료식품"}]},{"lat":"37.243499839","long":"127.43168445","items":[{"name":"리얼바베큐","tel":"031-633-4888","addr":"경기도 이천시 호법면 유산리 799번지","category":"일반휴게음식 - 일반한식"},{"name":"호 메밀막국수","tel":"031-636-1771","addr":"경기도 이천시 호법면 유산리 799번지","category":"일반휴게음식 - 일반한식"}]},{"lat":"37.244720899","long":"127.43535427","items":[{"name":"모락모락한식뷔페","tel":"031-637-5217","addr":"경기도 이천시 호법면 유산리 806-3번지","category":"일반휴게음식 - 일반한식"},{"name":"안평약국","tel":"031-636-8673","addr":"경기도 이천시 호법면 유산리 806-3번지 1동","category":"약국 - 약국"},{"name":"포레스트그린","tel":"","addr":"경기도 이천시 호법면 유산리 806-3번지 2동 1층","category":"문화.취미 - 화원"}]},{"lat":"37.247862049","long":"127.44118802","items":[{"name":"베베창꼬","tel":"031-633-0054","addr":"경기도 이천시 호법면 유산리 356-5번지 1동 103호","category":"의류 - 아동의류"},{"name":"엔젝타 엘케이센터","tel":"031-631-4770","addr":"경기도 이천시 호법면 유산리 356-5번지","category":"건강식품 - 기타건강식품"}]},{"lat":"37.244994232","long":"127.43699005","items":[{"name":"부흥식당","tel":"031-636-8912","addr":"경기도 이천시 호법면 유산리 495-1","category":"일반휴게음식 - 일반한식"}]},{"lat":"37.248996815","long":"127.44132984","items":[{"name":"브루","tel":"0000-0000-0000","addr":"경기도 이천시 호법면 유산리 367-8번지","category":"일반휴게음식 - 서양음식"}]},{"lat":"37.247081341","long":"127.44032691","items":[{"name":"사운드업","tel":"031-633-4732","addr":"경기도 이천시 호법면 유산리 355-3번지 B-2호","category":"자동차정비 유지 - 자동차부품"},{"name":"이천제일광고기획","tel":"031-638-8052","addr":"경기도 이천시 호법면 유산리 355-3번지","category":"용역 서비스 - 종합용역"}]},{"lat":"37.250110301","long":"127.44235071","items":[{"name":"삼성NS","tel":"031-635-9511","addr":"경기도 이천시 호법면 유산리 399번지 삼성NS","category":"전기제품 - 기타전기제품"}]},{"lat":"37.245773308","long":"127.43830191","items":[{"name":"서희토목ENG","tel":"031-637-1663","addr":"경기도 이천시 호법면 유산리 466번지 송암빌딩","category":"용역 서비스 - 사무서비스"}]},{"lat":"37.237911863","long":"127.4370734","items":[{"name":"설봉","tel":"031-635-2955","addr":"경기도 이천시 호법면 유산리 573-17번지 (1)","category":"음료식품 - 정육점"}]},{"lat":"37.24933552","long":"127.44232366","items":[{"name":"세원종합테크","tel":"031-636-0914","addr":"경기도 이천시 호법면 유산리 369-8번지","category":"기타 - 기계공구"}]},{"lat":"37.243994197","long":"127.43696178","items":[{"name":"세종유통","tel":"031-635-3358","addr":"경기도 이천시 호법면 유산리 518-4","category":"음료식품 - 주류 판매점"}]},{"lat":"37.236475184","long":"127.43324489","items":[{"name":"쇼미더도어","tel":"031-636-8439","addr":"경기도 이천시 호법면 유산리 729-2번지","category":"건축자재 - 인테리어전문"}]},{"lat":"37.24994003","long":"127.44210175","items":[{"name":"시골밥상","tel":"031-633-0733","addr":"경기도 이천시 호법면 유산리 365-1번지","category":"일반휴게음식 - 일반한식"}]},{"lat":"37.243438685","long":"127.4311544","items":[{"name":"씨스페이스이천호법점","tel":"031-636-1110","addr":"경기도 이천시 호법면 유산리 777-1번지 1층 우측","category":"유통업 영리 - 편 의 점"}]},{"lat":"37.244940667","long":"127.4368545","items":[{"name":"씨유이천유산점","tel":"031-637-7845","addr":"경기도 이천시 호법면 유산리 495번지","category":"유통업 영리 - 편 의 점"}]},{"lat":"37.244439197","long":"127.43846329","items":[{"name":"아주상사","tel":"031-635-8352","addr":"경기도 이천시 호법면 유산리 130-1번지","category":"자동차정비 유지 - 윤활유 전문 판매"}]},{"lat":"37.25005737","long":"127.44204608","items":[{"name":"용호육개장","tel":"031-637-7007","addr":"경기도 이천시 호법면 유산리 400번지 1동 1층","category":"일반휴게음식 - 일반한식"}]},{"lat":"37.243444145","long":"127.43213495","items":[{"name":"유산리토종순대국","tel":"031-636-7450","addr":"경기도 이천시 호법면 유산리 800-2번지 외 1필지","category":"일반휴게음식 - 일반한식"}]},{"lat":"37.234913776","long":"127.4339685","items":[{"name":"유한책임회사이천쌀강정","tel":"031-633-0250","addr":"경기도 이천시 호법면 유산리 697번지","category":"음료식품 - 기타음료식품"}]},{"lat":"37.244828273","long":"127.43059874","items":[{"name":"이지연한복","tel":"031-636-1254","addr":"경기도 이천시 호법면 유산리 783-1번지","category":"의류 - 맞춤복점"}]},{"lat":"37.24866148","long":"127.44185764","items":[{"name":"이천가설재렌탈","tel":"031-633-9233","addr":"경기도 이천시 호법면 유산리 325번지","category":"건축자재 - 기타건축자재"}]},{"lat":"37.24552533","long":"127.43712835","items":[{"name":"좋은판넬","tel":"031-635-4767","addr":"경기도 이천시 호법면 유산리 496","category":"건축자재 - 기타건축자재"}]},{"lat":"37.24594064","long":"127.43935105","items":[{"name":"차사랑모터스","tel":"031-636-6560","addr":"경기도 이천시 호법면 유산리 482-1번지","category":"자동차정비 유지 - 자동차정비"},{"name":"차사랑모터스","tel":"031-636-6660","addr":"경기도 이천시 호법면 유산리 482-1번지","category":"자동차정비 유지 - 자동차정비"}]},{"lat":"37.249084075","long":"127.44209678","items":[{"name":"찰김식품","tel":"031-634-6192","addr":"경기도 이천시 호법면 유산리 369-3","category":"음료식품 - 기타음료식품"}]},{"lat":"37.240946232","long":"127.43021617","items":[{"name":"코리아2000구내식당","tel":"031-637-9366","addr":"경기도 이천시 호법면 유산리 769-8번지","category":"일반휴게음식 - 일반한식"}]},{"lat":"37.238526021","long":"127.43912798","items":[{"name":"키우다","tel":"031-0000-0000","addr":"경기도 이천시 호법면 유산리 318번지","category":"문화.취미 - 화원"}]},{"lat":"37.24174912","long":"127.43737716","items":[{"name":"타이어빵구출장24시","tel":"031-636-8589","addr":"경기도 이천시 호법면 유산리 545번지","category":"자동차정비 유지 - 자동차정비"}]},{"lat":"37.240803159","long":"127.43979476","items":[{"name":"하늘땅별땅유치원[아이행복]","tel":"031-636-7878","addr":"경기도 이천시 호법면 유산리 550-16","category":"학원 - 유치원"}]},{"lat":"37.241246896","long":"127.42929373","items":[{"name":"한국미니스톱(주) 이천지점","tel":"031-1577-9621","addr":"경기도 이천시 호법면 유산리 769번지","category":"유통업 영리 - 편 의 점"}]},{"lat":"37.243780511","long":"127.43379359","items":[{"name":"한라냉동공업","tel":"031-635-1946","addr":"경기도 이천시 호법면 유산리 803-1번지","category":"자동차정비 유지 - 자동차부품"}]},{"lat":"37.24813431","long":"127.44065986","items":[{"name":"한양정비센타","tel":"031-637-6565","addr":"경기도 이천시 호법면 유산리 357-2번지","category":"자동차정비 유지 - 자동차정비"}]},{"lat":"37.251415677","long":"127.44021671","items":[{"name":"향미쌀농원","tel":"031-636-1291","addr":"경기도 이천시 호법면 유산리 420번지","category":"음료식품 - 미곡상"}]},{"lat":"37.247305176","long":"127.44071142","items":[{"name":"현대밧데리","tel":"031-637-6546","addr":"경기도 이천시 호법면 유산리 354-4번지","category":"자동차정비 유지 - 자동차부품"}]},{"lat":"37.236669059","long":"127.43444054","items":[{"name":"현대에너지","tel":"031-637-1414","addr":"경기도 이천시 호법면 유산리 745-1번지","category":"연료판매점 - 유류판매"}]},{"lat":"37.243693044","long":"127.42807905","items":[{"name":"흥부네집","tel":"031-637-0458","addr":"경기도 이천시 호법면 유산리 821-7번지","category":"일반휴게음식 - 일반한식"}]}]