[{"lat":"37.45729744","long":"127.2126425","imageIndex":4,"items":[{"name":"고향집","tel":"031-745-0473","addr":"경기도 광주시 남한산성면 불당리 81-2번지","indutype":"일반휴게음식 - 일반한식","category":"restaurant"}]},{"lat":"37.45347237","long":"127.210281","imageIndex":4,"items":[{"name":"대추나무집","tel":"031-743-8597","addr":"경기도 광주시 남한산성면 불당리 336번지","indutype":"일반휴게음식 - 일반한식","category":"restaurant"}]},{"lat":"37.45808349","long":"127.2164536","imageIndex":4,"items":[{"name":"백상가든","tel":"031-749-2617","addr":"경기도 광주시 남한산성면 불당리 27-2번지","indutype":"일반휴게음식 - 일반한식","category":"restaurant"}]},{"lat":"37.45625025","long":"127.2086725","imageIndex":4,"items":[{"name":"산촌","tel":"031-745-0898","addr":"경기도 광주시 남한산성면 불당리 90번지","indutype":"일반휴게음식 - 일반한식","category":"restaurant"}]},{"lat":"37.45621676","long":"127.2072031","imageIndex":4,"items":[{"name":"살구나무집","tel":"031-749-8190","addr":"경기도 광주시 남한산성면 불당리 110","indutype":"일반휴게음식 - 일반한식","category":"restaurant"}]},{"lat":"37.45655402","long":"127.2101426","imageIndex":4,"items":[{"name":"수성가든","tel":"031-747-9937","addr":"경기도 광주시 남한산성면 불당리 236번지","indutype":"일반휴게음식 - 일반한식","category":"restaurant"}]},{"lat":"37.4574956","long":"127.2126769","imageIndex":4,"items":[{"name":"주먹손두부","tel":"031-748-8636","addr":"경기도 광주시 남한산성면 불당리 80번지","indutype":"일반휴게음식 - 일반한식","category":"restaurant"}]},{"lat":"37.45665964","long":"127.211567","imageIndex":4,"items":[{"name":"포석정","tel":"031-745-0335","addr":"경기도 광주시 남한산성면 불당리 243번지 2층","indutype":"일반휴게음식 - 일반한식","category":"restaurant"}]},{"lat":"37.45279962","long":"127.2085613","imageIndex":4,"items":[{"name":"포시즌","tel":"031-764-3050","addr":"경기도 광주시 남한산성면 불당리 355번지","indutype":"일반휴게음식 - 일반한식","category":"restaurant"}]},{"lat":"37.45546759","long":"127.2079809","imageIndex":4,"items":[{"name":"하얀집","tel":"031-746-7887","addr":"경기도 광주시 남한산성면 불당리 230-1번지 외 1필지","indutype":"일반휴게음식 - 일반한식","category":"restaurant"}]},{"lat":"37.45683019","long":"127.2119291","imageIndex":4,"items":[{"name":"향나무집","tel":"031-743-8653","addr":"경기도 광주시 남한산성면 불당리 244번지","indutype":"일반휴게음식 - 일반한식","category":"restaurant"}]},{"lat":"37.45727173","long":"127.2118964","imageIndex":4,"items":[{"name":"호두나무집","tel":"031-744-8116","addr":"경기도 광주시 남한산성면 불당리 85번지","indutype":"일반휴게음식 - 일반한식","category":"restaurant"}]},{"lat":"37.45502283","long":"127.2046456","imageIndex":4,"items":[{"name":"후원","tel":"031-749-4786","addr":"경기도 광주시 남한산성면 불당리 189번지","indutype":"일반휴게음식 - 일반한식","category":"restaurant"}]},{"lat":"37.45797105","long":"127.2138424","imageIndex":17,"items":[{"name":"네오듀(Neodu)","tel":"031-722-6236","addr":"경기도 광주시 남한산성면 불당리 70번지","indutype":"서적문구 - 문구용품","category":"other"}]},{"lat":"37.46044147","long":"127.2128999","imageIndex":17,"items":[{"name":"소설악 휴게소","tel":"031-749-9998","addr":"경기도 광주시 남한산성면 불당리 8-2번지 1층","indutype":"유통업 영리 - 편 의 점","category":"other"}]},{"lat":"37.45735828","long":"127.2138972","imageIndex":17,"items":[{"name":"주식회사 후이솔루텍","tel":"031-746-7431","addr":"경기도 광주시 남한산성면 불당리 65-1번지 102호","indutype":"기타 - 기계공구","category":"other"}]},{"lat":"37.45808349","long":"127.2164536","imageIndex":7,"items":[{"name":"백상편의점","tel":"031-749-2616","addr":"경기도 광주시 남한산성면 불당리 27-2번지","indutype":"유통업 영리 - 슈퍼마켓","category":"mart"}]},{"lat":"37.46044147","long":"127.2128999","imageIndex":7,"items":[{"name":"소설악","tel":"031-749-9998","addr":"경기도 광주시 남한산성면 불당리 8-2번지","indutype":"음료식품 - 농·축·수산품","category":"food"},{"name":"소설악유통","tel":"031-749-9998","addr":"경기도 광주시 남한산성면 불당리 8-2번지","indutype":"음료식품 - 주류 판매점","category":"food"}]},{"lat":"37.4574956","long":"127.2126769","imageIndex":7,"items":[{"name":"주먹두부","tel":"031-748-8636","addr":"경기도 광주시 남한산성면 불당리 80번지 2동 1층","indutype":"음료식품 - 기타음료식품","category":"food"}]}]