[{"lat":"37.41105156","long":"127.2353753","items":[{"name":"(e)해법수학 벌원초교점","tel":"","addr":"경기도 광주시 탄벌동 765번지 경남아너스빌1단지","category":"학원 - 기타 교육기관"}]},{"lat":"37.4244773","long":"127.2439803","items":[{"name":"(주)ACT21","tel":"02-704-0718","addr":"경기도 광주시 탄벌동 259-7번지 골든힐","category":"사무통신 - 컴퓨터"}]},{"lat":"37.41713773","long":"127.2509492","items":[{"name":"(주)이에스스포츠","tel":"031-763-2002","addr":"경기도 광주시 탄벌동 35-52번지 1층","category":"레져용품 - 스포츠·레져용품"},{"name":"엄미영 왕대박 해신탕,조개찜","tel":"031-765-0011","addr":"경기도 광주시 탄벌동 35-52번지","category":"일반휴게음식 - 일반한식"},{"name":"우리소리 국악교습소","tel":"031-762-3383","addr":"경기도 광주시 탄벌동 35-52번지 2층 좌측","category":"학원 - 예·체능계학원"}]},{"lat":"37.42377441","long":"127.2440345","items":[{"name":"(주)재성","tel":"031-797-1210","addr":"경기도 광주시 탄벌동 243-2번지","category":"건축자재 - 기타건축자재"},{"name":"메이트리","tel":"070-8822-5025","addr":"경기도 광주시 탄벌동 243-2번지","category":"가구 - 일반가구"},{"name":"지노모터스","tel":"031-762-6830","addr":"경기도 광주시 탄벌동 243-2번지","category":"자동차정비 유지 - 자동차정비"},{"name":"탄벌현대카","tel":"031-761-6500","addr":"경기도 광주시 탄벌동 243-2번지","category":"자동차정비 유지 - 자동차정비"}]},{"lat":"37.41369635","long":"127.2419803","items":[{"name":"(주)정성유통","tel":"031-768-8317","addr":"경기도 광주시 탄벌동 78번지 1층","category":"유통업 영리 - 슈퍼마켓"},{"name":"(주)탑쇼핑탄벌","tel":"031-768-8318","addr":"경기도 광주시 탄벌동 78번지","category":"유통업 영리 - 슈퍼마켓"},{"name":"베이커리카페 가루밀","tel":"031-111-1111","addr":"경기도 광주시 탄벌동 78번지 1층","category":"음료식품 - 제과점"}]},{"lat":"37.41009069","long":"127.2383091","items":[{"name":"(주)제이삼네트웍스","tel":"031-765-7553","addr":"경기도 광주시 탄벌동 766번지 경남아너스빌2단지","category":"음료식품 - 기타음료식품"}]},{"lat":"37.41738965","long":"127.2511194","items":[{"name":"(주)청송나무병원조경방역","tel":"031-765-4849","addr":"경기도 광주시 탄벌동 20-8번지 1층","category":"용역 서비스 - 종합용역"},{"name":"빈티지오브제","tel":"031-797-4711","addr":"경기도 광주시 탄벌동 20-8번지 1층","category":"의류 - 정장"}]},{"lat":"37.41594403","long":"127.2487312","items":[{"name":"25스토어","tel":"031-769-5251","addr":"경기도 광주시 탄벌동 37-9번지 1층","category":"유통업 영리 - 슈퍼마켓"},{"name":"네일스토리","tel":"031-764-6632","addr":"경기도 광주시 탄벌동 37-9번지 1층","category":"보건위생 - 피부미용실"},{"name":"반스헤어","tel":"070-2075-3389","addr":"경기도 광주시 탄벌동 37-9번지 1층","category":"보건위생 - 미용원"},{"name":"스토리","tel":"031-764-6632","addr":"경기도 광주시 탄벌동 37-9번지 연세빌딩 1층","category":"의류 - 정장"},{"name":"이클래식음악학원","tel":"031-761-2711","addr":"경기도 광주시 탄벌동 37-9번지 2층","category":"학원 - 예·체능계학원"},{"name":"크리스마스자몽 광주점","tel":"070-8151-1225","addr":"경기도 광주시 탄벌동 37-9번지 연세빌딩 1층","category":"일반휴게음식 - 서양음식"}]},{"lat":"37.41563919","long":"127.2480072","items":[{"name":"7942(칠구사이)","tel":"031-762-1056","addr":"경기도 광주시 탄벌동 47번지","category":"일반휴게음식 - 일반한식"},{"name":"BHC경안점","tel":"031-764-9951","addr":"경기도 광주시 탄벌동 47번지","category":"일반휴게음식 - 스넥"},{"name":"S047카페","tel":"031-000-0000","addr":"경기도 광주시 탄벌동 47번지 1층","category":"일반휴게음식 - 서양음식"},{"name":"도로시찹쌀꽈배기","tel":"031-762-9707","addr":"경기도 광주시 탄벌동 47번지 1층 108호","category":"일반휴게음식 - 서양음식"},{"name":"모모","tel":"","addr":"경기도 광주시 탄벌동 47번지 1층","category":"일반휴게음식 - 일식·회집"},{"name":"블랙앵거스미우랑","tel":"031-766-8142","addr":"경기도 광주시 탄벌동 47번지 1층","category":"일반휴게음식 - 일반한식"},{"name":"용인대경안체육관","tel":"031-762-3658","addr":"경기도 광주시 탄벌동 47번지","category":"회원제형태 - 학원"},{"name":"쿠 노래연습장","tel":"031-797-3907","addr":"경기도 광주시 탄벌동 47번지 301호","category":"레저업소 - 노 래 방"},{"name":"탄벌동정육점","tel":"031-763-8228","addr":"경기도 광주시 탄벌동 47번지","category":"음료식품 - 정육점"}]},{"lat":"37.41708641","long":"127.2496386","items":[{"name":"DOODA GYM(두다 짐)","tel":"031-765-1548","addr":"경기도 광주시 탄벌동 18-14번지 2층","category":"레저업소 - 헬스클럽"},{"name":"한성공예","tel":"031-761-0877","addr":"경기도 광주시 탄벌동 18-14번지","category":"문화.취미 - 민예·공예품"},{"name":"호박코다리조림","tel":"031-769-2121","addr":"경기도 광주시 탄벌동 18-14번지 1층","category":"일반휴게음식 - 일반한식"}]},{"lat":"37.41758249","long":"127.2536731","items":[{"name":"GS25탄벌낙원점","tel":"","addr":"경기도 광주시 탄벌동 1-3번지 탄벌동파라다이스아파트","category":"유통업 영리 - 상품권전문판매"},{"name":"GS25탄벌낙원점","tel":"","addr":"경기도 광주시 탄벌동 1-3번지 탄벌동파라다이스아파트","category":"유통업 영리 - 편 의 점"},{"name":"코사마트파라다이스점","tel":"031-764-4822","addr":"경기도 광주시 탄벌동 1-3.103.104.105호","category":"유통업 영리 - 슈퍼마켓"}]},{"lat":"37.42089274","long":"127.2432797","items":[{"name":"J2. ENG","tel":"031-765-2033","addr":"경기도 광주시 탄벌동 202-4번지","category":"전기제품 - 기타전기제품"}]},{"lat":"37.41966568","long":"127.2441117","items":[{"name":"JK푸드","tel":"031-764-3344","addr":"경기도 광주시 탄벌동 176-3번지 성진빌딩 103호","category":"일반휴게음식 - 스넥"},{"name":"대광디자인","tel":"031-761-2700","addr":"경기도 광주시 탄벌동 176-3번지 성진빌딩 B동 101호","category":"건축자재 - 인테리어전문"},{"name":"키키미술교습소","tel":"","addr":"경기도 광주시 탄벌동 176-3번지 성진빌딩 B동 101호","category":"학원 - 예·체능계학원"}]},{"lat":"37.41680372","long":"127.2512531","items":[{"name":"K. COM","tel":"031-798-7444","addr":"경기도 광주시 탄벌동 35-36번지","category":"사무통신 - 컴퓨터"},{"name":"김현수 에스테틱","tel":"031-798-1774","addr":"경기도 광주시 탄벌동 35-36번지","category":"회원제형태 - 기타4"},{"name":"깊은생각보습학원","tel":"031-765-7957","addr":"경기도 광주시 탄벌동 35-36번지","category":"학원 - 보습학원"},{"name":"남녀 컷트 전문점","tel":"031-111-1111","addr":"경기도 광주시 탄벌동 35-36번지 1층","category":"보건위생 - 미용원"},{"name":"옛날통닭 탄벌점","tel":"031-798-1560","addr":"경기도 광주시 탄벌동 35-36번지 2층","category":"일반휴게음식 - 스넥"},{"name":"우촌축산물 직거래매장","tel":"031-767-5949","addr":"경기도 광주시 탄벌동 35-36번지","category":"음료식품 - 정육점"},{"name":"탄벌자전거","tel":"031-766-8530","addr":"경기도 광주시 탄벌동 35-36번지","category":"레져용품 - 스포츠·레져용품"},{"name":"한국치매예방협회 경기광주지부","tel":"031-763-2810","addr":"경기도 광주시 탄벌동 35-36번지","category":"학원 - 기타 교육기관"}]},{"lat":"37.41905745","long":"127.2419182","items":[{"name":"Korea zest(한국제스트)","tel":"031-763-1401","addr":"경기도 광주시 탄벌동 162-1번지 205호","category":"기타 - 기계공구"}]},{"lat":"37.42011571","long":"127.2398882","items":[{"name":"MJ 탁구용품점","tel":"031-0000-0000","addr":"경기도 광주시 탄벌동 377-21번지","category":"레져용품 - 스포츠·레져용품"}]},{"lat":"37.42066946","long":"127.2423074","items":[{"name":"Stunning(스터닝)","tel":"031-762-6500","addr":"경기도 광주시 탄벌동 198-7번지 106호","category":"일반휴게음식 - 서양음식"},{"name":"이기성헤어스토리","tel":"031-761-0058","addr":"경기도 광주시 탄벌동 198-7번지 101호","category":"보건위생 - 미용원"}]},{"lat":"37.42002996","long":"127.2422037","items":[{"name":"TC","tel":"031-765-7677","addr":"경기도 광주시 탄벌동 167-1번지","category":"기타 - 기타 전문점"}]},{"lat":"37.41505763","long":"127.2503662","items":[{"name":"THE(더)","tel":"031-766-6544","addr":"경기도 광주시 탄벌동 52-8번지 2층","category":"일반휴게음식 - 서양음식"},{"name":"고고노래연습장","tel":"031-764-6947","addr":"경기도 광주시 탄벌동 52-8번지 G동 1층","category":"레저업소 - 노 래 방"},{"name":"다울세무회계사무소","tel":"031-762-2278","addr":"경기도 광주시 탄벌동 52-8번지","category":"용역 서비스 - 법률회계서비스(개인)"},{"name":"명인만두탄벌점","tel":"031-361-1916","addr":"경기도 광주시 탄벌동 52-8번지 1층","category":"일반휴게음식 - 스넥"},{"name":"본죽","tel":"031-761-6279","addr":"경기도 광주시 탄벌동 52-8번지","category":"일반휴게음식 - 스넥"}]},{"lat":"37.41589142","long":"127.2480307","items":[{"name":"TKD점프업 줄넘기 학원","tel":"031-763-7779","addr":"경기도 광주시 탄벌동 42번지 현우빌딩","category":"학원 - 예·체능계학원"},{"name":"ga Che 헤어샵","tel":"031-761-9076","addr":"경기도 광주시 탄벌동 42번지","category":"보건위생 - 미용원"},{"name":"교정앞분식","tel":"031-797-6621","addr":"경기도 광주시 탄벌동 42번지 현우빌딩","category":"일반휴게음식 - 스넥"},{"name":"스토리PC","tel":"","addr":"경기도 광주시 탄벌동 42번지 현우빌딩 2층","category":"레저업소 - 기타레져업소"},{"name":"시그마수학학원","tel":"031-766-8822","addr":"경기도 광주시 탄벌동 42번지 현우빌딩 301호","category":"학원 - 보습학원"}]},{"lat":"37.41700013","long":"127.2521122","items":[{"name":"VIP카센타","tel":"031-761-8787","addr":"경기도 광주시 탄벌동 35-25번지","category":"자동차정비 유지 - 자동차정비"}]},{"lat":"37.42050018","long":"127.2457863","items":[{"name":"YH 커튼","tel":"031-768-5253","addr":"경기도 광주시 탄벌동 185번지","category":"직물 - 카페트,커튼,천막,지물"},{"name":"경희대 초심 태권도","tel":"031-768-2310","addr":"경기도 광주시 탄벌동 185번지 3층","category":"학원 - 예·체능계학원"},{"name":"순이네부대찌개","tel":"031-762-1552","addr":"경기도 광주시 탄벌동 185번지 1층","category":"일반휴게음식 - 일반한식"}]},{"lat":"37.41067321","long":"127.2353403","items":[{"name":"cafe lucy 카페루시","tel":"031-111-1111","addr":"경기도 광주시 탄벌동 765번지 경남아너스빌1단지","category":"일반휴게음식 - 서양음식"},{"name":"내가하는미술교습소","tel":"031-798-8675","addr":"경기도 광주시 탄벌동 765번지 경남아너스빌1단지 상가 B동 104호","category":"학원 - 예·체능계학원"},{"name":"아너스크리닝","tel":"031-798-8884","addr":"경기도 광주시 탄벌동 765번지 경남아너스빌1단지 A동 104호 상가","category":"수리서비스 - 세탁소"},{"name":"이천차일드","tel":"070-8257-4574","addr":"경기도 광주시 탄벌동 765번지 경남아너스빌1단지","category":"의류 - 아동의류"}]},{"lat":"37.41691804","long":"127.2525864","items":[{"name":"tresc coffee (뜨레스씨커피 탄벌점)","tel":"031-797-7883","addr":"경기도 광주시 탄벌동 34-2번지 1층","category":"일반휴게음식 - 서양음식"},{"name":"권진영헤어샵","tel":"031-762-8056","addr":"경기도 광주시 탄벌동 34-2번지","category":"보건위생 - 미용원"},{"name":"뉴-김밥천국","tel":"031-767-2377","addr":"경기도 광주시 탄벌동 34-2번지 103호","category":"일반휴게음식 - 스넥"},{"name":"다모아화장품","tel":"031-761-6065","addr":"경기도 광주시 탄벌동 34-2번지","category":"보건위생 - 화장품"},{"name":"또래오래","tel":"031-798-7892","addr":"경기도 광주시 탄벌동 34-2번지 1층","category":"일반휴게음식 - 스넥"},{"name":"파라다이스당구장","tel":"031-766-3949","addr":"경기도 광주시 탄벌동 34-2번지 3층","category":"레저업소 - 당 구 장"},{"name":"한우리독서논술학원","tel":"031-767-8122","addr":"경기도 광주시 탄벌동 34-2번지 2층","category":"학원 - 보습학원"}]},{"lat":"37.42314293","long":"127.2444166","items":[{"name":"가람목재","tel":"031-797-4212","addr":"경기도 광주시 탄벌동 242-2번지","category":"건축자재 - 기타건축자재"}]},{"lat":"37.41033819","long":"127.2361751","items":[{"name":"가비주헤어","tel":"031-768-0927","addr":"경기도 광주시 탄벌동 765-2번지 경남아너스빌1단지 상가 A동 108호","category":"보건위생 - 미용원"},{"name":"용인대 김명훈 타이곤 태권도","tel":"031-798-7774","addr":"경기도 광주시 탄벌동 765-2번지 경남아너스빌1단지","category":"학원 - 예·체능계학원"}]},{"lat":"37.41533701","long":"127.2503332","items":[{"name":"가스펠기독교서점","tel":"031-0000-0000","addr":"경기도 광주시 탄벌동 44-6번지","category":"서적문구 - 전문서적"},{"name":"쁘띠리옹","tel":"02-1566-7791","addr":"경기도 광주시 탄벌동 44-6번지 청호빌딩 1층","category":"의류 - 정장"},{"name":"샷 당구장","tel":"031-765-5424","addr":"경기도 광주시 탄벌동 44-6번지 2층","category":"레저업소 - 당 구 장"},{"name":"앗싸 노래연습장","tel":"031-761-5736","addr":"경기도 광주시 탄벌동 44-6번지","category":"레저업소 - 노 래 방"}]},{"lat":"37.41049934","long":"127.2366952","items":[{"name":"감동인(in)미술교습소","tel":"031-699-7430","addr":"경기도 광주시 탄벌동 766-1번지 경남아너스빌2단지 상가동 1층 104호","category":"학원 - 예·체능계학원"},{"name":"씨유광주탄벌레드점","tel":"080-080-3663","addr":"경기도 광주시 탄벌동 766-1번지 경남아너스빌2단지 상가동 202,203호","category":"유통업 영리 - 편 의 점"}]},{"lat":"37.4101432","long":"127.2390887","items":[{"name":"갑오징어 갑이랑쭈순이","tel":"031-797-5470","addr":"경기도 광주시 탄벌동 535번지 1층 101호 102호","category":"일반휴게음식 - 일반한식"},{"name":"신월합기도","tel":"031-761-0949","addr":"경기도 광주시 탄벌동 535번지 2층","category":"학원 - 예·체능계학원"},{"name":"의정부돌솥부대찌개","tel":"031-763-2007","addr":"경기도 광주시 탄벌동 535번지 105호","category":"일반휴게음식 - 일반한식"}]},{"lat":"37.42202453","long":"127.2313988","items":[{"name":"개천요","tel":"031-766-1885","addr":"경기도 광주시 탄벌동 630-57번지","category":"회원제형태 - 기타4"}]},{"lat":"37.41336438","long":"127.2321745","items":[{"name":"경기건축","tel":"031-761-8641","addr":"경기도 광주시 탄벌동 578-1","category":"건축자재 - 인테리어전문"}]},{"lat":"37.41666719","long":"127.2475926","items":[{"name":"경기광주윤선생영어교실","tel":"031-764-3828","addr":"경기도 광주시 탄벌동 40번지","category":"학원 - 학습지 교육"},{"name":"하늘소리피아노교습소","tel":"031-797-5396","addr":"경기도 광주시 탄벌동 40번지 현대상가 105호","category":"학원 - 예·체능계학원"}]},{"lat":"37.41583348","long":"127.2498943","items":[{"name":"골목안찜","tel":"031-797-7595","addr":"경기도 광주시 탄벌동 701-1","category":"일반휴게음식 - 일반한식"}]},{"lat":"37.41522571","long":"127.2475315","items":[{"name":"공인열쇠","tel":"031-766-0213","addr":"경기도 광주시 탄벌동 48-8번지","category":"기타 - 기계공구"},{"name":"또봉이통닭","tel":"031-761-7666","addr":"경기도 광주시 탄벌동 48-8번지 1층","category":"일반휴게음식 - 스넥"},{"name":"라운수산","tel":"","addr":"경기도 광주시 탄벌동 48-8번지 1층","category":"일반휴게음식 - 일식·회집"}]},{"lat":"37.4175558","long":"127.2492222","items":[{"name":"곽만근갈비탕","tel":"031-766-1560","addr":"경기도 광주시 탄벌동 18-4번지","category":"일반휴게음식 - 일반한식"}]},{"lat":"37.42613876","long":"127.2422006","items":[{"name":"광민인쇄","tel":"","addr":"경기도 광주시 탄벌동 274-7번지 1층","category":"서적문구 - 출판 및 인쇄물"},{"name":"부광인쇄기획","tel":"031-761-0533","addr":"경기도 광주시 탄벌동 274-7번지 101호","category":"서적문구 - 출판 및 인쇄물"},{"name":"용인토종순대국(탄벌점)","tel":"031-769-3644","addr":"경기도 광주시 탄벌동 274-7번지","category":"일반휴게음식 - 일반한식"}]},{"lat":"37.42150038","long":"127.2368085","items":[{"name":"광주ECC어학원","tel":"031-768-0566","addr":"경기도 광주시 탄벌동 358-1번지 한벌빌딩","category":"학원 - 외국어학원"},{"name":"광주ECC어학원","tel":"031-768-0566","addr":"경기도 광주시 탄벌동 358-1번지 한벌빌딩 1,2,3층","category":"학원 - 외국어학원"},{"name":"에이치비점프업영어수학학원","tel":"031-768-0566","addr":"경기도 광주시 탄벌동 358-1번지 한벌빌딩 4층 일부","category":"학원 - 보습학원"}]},{"lat":"37.40822289","long":"127.23967","items":[{"name":"광주경찰서 복지회","tel":"031-790-7394","addr":"경기도 광주시 탄벌동 541-2번지","category":"유통업 비영리 - 구내매점(국가기관"}]},{"lat":"37.41911265","long":"127.2457818","items":[{"name":"광주골재,건재","tel":"031-766-1339","addr":"경기도 광주시 탄벌동 140번지","category":"건축자재 - 기타건축자재"},{"name":"송정 종합동물병원","tel":"031-767-7975","addr":"경기도 광주시 탄벌동 140번지 태경빌딩 1층 좌1호","category":"기타의료기관 - 동물병원"},{"name":"체리종합학원","tel":"","addr":"경기도 광주시 탄벌동 140번지 태경빌딩 2층","category":"학원 - 예·체능계학원"},{"name":"쿠쿠경기광주점","tel":"031-766-9940","addr":"경기도 광주시 탄벌동 140번지","category":"수리서비스 - 가정용품수리"},{"name":"탄벌동과일","tel":"","addr":"경기도 광주시 탄벌동 140번지 태경빌딩","category":"음료식품 - 농·축·수산품"}]},{"lat":"37.41324812","long":"127.2452885","items":[{"name":"광주골프연습장","tel":"031-764-7979","addr":"경기도 광주시 탄벌동 110-10번지","category":"레저업소 - 골프연습장"}]},{"lat":"37.41686062","long":"127.2498977","items":[{"name":"광주시 노인복지관 카페 세잎클로버","tel":"031-769-9129","addr":"경기도 광주시 탄벌동 18-1번지 2층","category":"일반휴게음식 - 서양음식"},{"name":"굿복지약국","tel":"031-762-3939","addr":"경기도 광주시 탄벌동 18-1번지 노인복지회관 1층","category":"약국 - 약국"}]},{"lat":"37.41686532","long":"127.2519536","items":[{"name":"광주정보통신","tel":"031-767-1503","addr":"경기도 광주시 탄벌동 35-30번지 신혜빌딩 101호","category":"사무통신 - 통신기기"},{"name":"더플러스수학학원","tel":"031-769-3664","addr":"경기도 광주시 탄벌동 35-30번지 신혜빌딩 2층","category":"학원 - 보습학원"},{"name":"타래마을","tel":"031-768-7922","addr":"경기도 광주시 탄벌동 35-30번지","category":"일반휴게음식 - 일반한식"},{"name":"팀치빈","tel":"031-761-3386","addr":"경기도 광주시 탄벌동 35-30번지 2층","category":"회원제형태 - 레져업소"},{"name":"플러스 수학 플러스 영어학원","tel":"031-768-3663","addr":"경기도 광주시 탄벌동 35-30번지 3층","category":"회원제형태 - 학원"}]},{"lat":"37.41530724","long":"127.2429229","items":[{"name":"광주중고타이어","tel":"031-767-1222","addr":"경기도 광주시 탄벌동 87번지","category":"자동차정비 유지 - 자동차부품"},{"name":"타이어클럽","tel":"070-0000-0000","addr":"경기도 광주시 탄벌동 87번지","category":"자동차정비 유지 - 자동차시트·타이어"}]},{"lat":"37.42730228","long":"127.2415942","items":[{"name":"광주탑치과의원","tel":"031-8028-8828","addr":"경기도 광주시 탄벌동 278-3번지 2층","category":"의원 - 치과의원"},{"name":"크린위드 회덕점","tel":"031-767-0222","addr":"경기도 광주시 탄벌동 278-3번지 1층","category":"수리서비스 - 세탁소"}]},{"lat":"37.42700434","long":"127.2418983","items":[{"name":"광주탑학원","tel":"031-765-3888","addr":"경기도 광주시 탄벌동 274-23번지 2층","category":"학원 - 보습학원"},{"name":"여명오리농산","tel":"031-797-5219","addr":"경기도 광주시 탄벌동 274-23번지","category":"음료식품 - 정육점"},{"name":"임라온헤어","tel":"031-762-8669","addr":"경기도 광주시 탄벌동 274-23번지 1층","category":"보건위생 - 미용원"},{"name":"크리아트송정미술학원","tel":"031-765-3889","addr":"경기도 광주시 탄벌동 274-23번지 2층 일부","category":"학원 - 예·체능계학원"},{"name":"회덕한의원","tel":"031-766-1075","addr":"경기도 광주시 탄벌동 274-23번지","category":"의원 - 한의원"}]},{"lat":"37.41972385","long":"127.2420898","items":[{"name":"광진화학","tel":"031-765-5163","addr":"경기도 광주시 탄벌동 165-4번지","category":"건축자재 - 기타건축자재"}]},{"lat":"37.41750132","long":"127.2494254","items":[{"name":"교동짬뽕","tel":"031-797-9439","addr":"경기도 광주시 탄벌동 18-6번지 1층","category":"일반휴게음식 - 중국식"},{"name":"샘수학교습소","tel":"031-763-0228","addr":"경기도 광주시 탄벌동 18-6번지 101호","category":"학원 - 보습학원"},{"name":"영어100배즐기기학원","tel":"031-766-0553","addr":"경기도 광주시 탄벌동 18-6번지 1층","category":"학원 - 외국어학원"}]},{"lat":"37.42655329","long":"127.242168","items":[{"name":"구일구자동차정비공업사","tel":"031-764-0919","addr":"경기도 광주시 탄벌동 274-1번지","category":"자동차정비 유지 - 자동차정비"},{"name":"씨유탄벌이배재로점","tel":"031-735-4747","addr":"경기도 광주시 탄벌동 274-1번지","category":"유통업 영리 - 편 의 점"},{"name":"와우편의점","tel":"031-726-3661","addr":"경기도 광주시 탄벌동 274-1번지","category":"유통업 영리 - 편 의 점"},{"name":"웰빙밥상","tel":"031-761-1052","addr":"경기도 광주시 탄벌동 274-1번지","category":"일반휴게음식 - 일반한식"}]},{"lat":"37.41080989","long":"127.2391134","items":[{"name":"군산아구찜","tel":"031-761-6463","addr":"경기도 광주시 탄벌동 527-38번지 1층","category":"일반휴게음식 - 일반한식"}]},{"lat":"37.41599978","long":"127.247918","items":[{"name":"굿모닝약국","tel":"031-764-7178","addr":"경기도 광주시 탄벌동 41-18번지","category":"약국 - 약국"},{"name":"라이프타임휘트니스클럽","tel":"031-764-2966","addr":"경기도 광주시 탄벌동 41-18번지 미래빌딩 4층","category":"회원제형태 - 레져업소"},{"name":"브람스음악학원","tel":"031-766-5241","addr":"경기도 광주시 탄벌동 41-18번지 미래빌딩","category":"학원 - 예·체능계학원"},{"name":"엄마의 부엌 반찬가게","tel":"031-797-5797","addr":"경기도 광주시 탄벌동 41-18번지 미래빌딩 1층","category":"음료식품 - 기타음료식품"},{"name":"이룸학원","tel":"031-762-1254","addr":"경기도 광주시 탄벌동 41-18번지 미래빌딩 5층","category":"학원 - 기타 교육기관"},{"name":"이삭토스트탄벌점","tel":"031-769-0206","addr":"경기도 광주시 탄벌동 41-18번지 미래빌딩 102호","category":"일반휴게음식 - 스넥"}]},{"lat":"37.41319225","long":"127.2417527","items":[{"name":"그남자가꽃파는집","tel":"031-765-4500","addr":"경기도 광주시 탄벌동 66-2","category":"문화.취미 - 화원"}]},{"lat":"37.41669955","long":"127.2493662","items":[{"name":"그루그루밍","tel":"031-798-9870","addr":"경기도 광주시 탄벌동 16-2번지","category":"문화.취미 - 애완동물"},{"name":"로봇과학교습소","tel":"031-769-7963","addr":"경기도 광주시 탄벌동 16-2번지 3층","category":"학원 - 보습학원"},{"name":"명미용실","tel":"031-766-3521","addr":"경기도 광주시 탄벌동 16-2번지","category":"보건위생 - 미용원"}]},{"lat":"37.42124964","long":"127.2360282","items":[{"name":"그린힐홈케어","tel":"","addr":"경기도 광주시 탄벌동 596번지 이원빌리지 101동 101호","category":"기타의료기관 - 기타의료기관 및 기타"}]},{"lat":"37.42047225","long":"127.2462268","items":[{"name":"기문중기-(토성건기)","tel":"031-768-2100","addr":"경기도 광주시 탄벌동 717번지","category":"기타 - 기계공구"},{"name":"장지지게차(토성건기)","tel":"031-766-0047","addr":"경기도 광주시 탄벌동 717번지","category":"기타 - 기계공구"},{"name":"토성건기(궁평지게차)","tel":"031-763-5999","addr":"경기도 광주시 탄벌동 717번지","category":"기타 - 기계공구"}]},{"lat":"37.41508547","long":"127.2499822","items":[{"name":"김가네부대찌개닭갈비","tel":"031-766-2568","addr":"경기도 광주시 탄벌동 52-4번지","category":"일반휴게음식 - 일반한식"},{"name":"뉴탑학원","tel":"031-769-4749","addr":"경기도 광주시 탄벌동 52-4번지 201호","category":"회원제형태 - 학원"},{"name":"미카도스시","tel":"031-798-3568","addr":"경기도 광주시 탄벌동 52-4번지 1층","category":"일반휴게음식 - 일식·회집"},{"name":"슬래쉬 영어학원","tel":"031-761-5092","addr":"경기도 광주시 탄벌동 52-4번지","category":"회원제형태 - 학원"},{"name":"신개념수학영어학원","tel":"031-766-0969","addr":"경기도 광주시 탄벌동 52-4번지 201호","category":"학원 - 보습학원"},{"name":"신개념수학영어학원","tel":"031-766-0969","addr":"경기도 광주시 탄벌동 52-4번지 201호","category":"학원 - 보습학원"},{"name":"탄벌점핑다이어트","tel":"062-715-1618","addr":"경기도 광주시 탄벌동 52-4번지 3층","category":"건강식품 - 기타건강식품"}]},{"lat":"37.42010915","long":"127.2431416","items":[{"name":"김밥나라","tel":"031-762-1124","addr":"경기도 광주시 탄벌동 196-1번지","category":"일반휴게음식 - 스넥"},{"name":"쏭's 헤어","tel":"","addr":"경기도 광주시 탄벌동 196-1번지","category":"보건위생 - 미용원"},{"name":"씨유광주탄벌점","tel":"031-767-6198","addr":"경기도 광주시 탄벌동 196-1.2","category":"유통업 영리 - 편 의 점"},{"name":"와우치킨","tel":"031-798-7033","addr":"경기도 광주시 탄벌동 196-1번지","category":"일반휴게음식 - 주점"},{"name":"좋은김밥","tel":"031-761-1182","addr":"경기도 광주시 탄벌동 196-1번지","category":"일반휴게음식 - 일반한식"},{"name":"추억의포장마차","tel":"031-761-8443","addr":"경기도 광주시 탄벌동 196-1번지","category":"일반휴게음식 - 일반한식"},{"name":"춘희네막창나라","tel":"031-766-6537","addr":"경기도 광주시 탄벌동 196-1번지","category":"일반휴게음식 - 일반한식"},{"name":"크린위드탄벌1호점","tel":"031-763-4347","addr":"경기도 광주시 탄벌동 196-1번지 107호","category":"수리서비스 - 세탁소"},{"name":"탄벌당구장","tel":"070-8951-0280","addr":"경기도 광주시 탄벌동 196-1번지 2층","category":"레저업소 - 당 구 장"},{"name":"탄벌태권도","tel":"031-765-2211","addr":"경기도 광주시 탄벌동 196-1번지","category":"학원 - 예·체능계학원"}]},{"lat":"37.41947601","long":"127.244337","items":[{"name":"김샘교실","tel":"031-765-1562","addr":"경기도 광주시 탄벌동 176-4번지 성진빌딩","category":"학원 - 보습학원"},{"name":"오렌지 크린 세탁소","tel":"031-761-7662","addr":"경기도 광주시 탄벌동 176-4번지 A동 104호","category":"수리서비스 - 세탁소"}]},{"lat":"37.413692","long":"127.2257595","items":[{"name":"까페동산/(복)한국발달장애복지센터","tel":"031-764-6896","addr":"경기도 광주시 탄벌동 674-1번지 인덕학교 1층","category":"일반휴게음식 - 서양음식"}]},{"lat":"37.42783474","long":"127.2411666","items":[{"name":"깨순이김밥","tel":"031-761-1213","addr":"경기도 광주시 탄벌동 278-1번지","category":"일반휴게음식 - 스넥"},{"name":"더호프데이","tel":"031-761-9157","addr":"경기도 광주시 탄벌동 278-1번지","category":"일반휴게음식 - 주점"},{"name":"킹당구장","tel":"070-4530-2174","addr":"경기도 광주시 탄벌동 278-1번지","category":"레저업소 - 당 구 장"}]},{"lat":"37.42111291","long":"127.2413373","items":[{"name":"꿈을키우는음악교습소","tel":"031-8028-7122","addr":"경기도 광주시 탄벌동 332번지 나동 202호","category":"학원 - 예·체능계학원"}]},{"lat":"37.42325229","long":"127.2438069","items":[{"name":"나능이","tel":"031-769-2221","addr":"경기도 광주시 탄벌동 244-3번지","category":"일반휴게음식 - 일반한식"}]},{"lat":"37.41044329","long":"127.2377003","items":[{"name":"나무","tel":"031-762-8777","addr":"경기도 광주시 탄벌동 766번지 경남아너스빌 상가동 2층 205호","category":"일반휴게음식 - 일반한식"},{"name":"뉴벅스음악학원","tel":"031-767-5230","addr":"경기도 광주시 탄벌동 766번지 경남아너스빌2단지 1층 101호 ,102,103호","category":"학원 - 예·체능계학원"}]},{"lat":"37.41252597","long":"127.2277328","items":[{"name":"나무와자이목공방","tel":"031-111-1111","addr":"경기도 광주시 탄벌동 683-1번지","category":"문화.취미 - 문화취미기타"}]},{"lat":"37.40978318","long":"127.2388955","items":[{"name":"낙지도가 (탄벌점)","tel":"031-797-6665","addr":"경기도 광주시 탄벌동 535-5번지 1층","category":"일반휴게음식 - 일반한식"}]},{"lat":"37.41108633","long":"127.2360193","items":[{"name":"내가하는미술","tel":"031-798-8675","addr":"경기도 광주시 탄벌동 765번지 경남아너스빌1단지","category":"서적문구 - 출판 및 인쇄물"},{"name":"월드플라워","tel":"02-578-8828","addr":"경기도 광주시 탄벌동 765번지 경남아너스빌1단지","category":"문화.취미 - 화원"}]},{"lat":"37.42400001","long":"127.2438658","items":[{"name":"내차처럼","tel":"031-767-8333","addr":"경기도 광주시 탄벌동 243번지 1층","category":"자동차정비 유지 - 세차장"},{"name":"더 스타일","tel":"031-762-6236","addr":"경기도 광주시 탄벌동 243번지","category":"자동차정비 유지 - 카인테리어"},{"name":"목요일","tel":"070-111-1111","addr":"경기도 광주시 탄벌동 243","category":"일반휴게음식 - 서양음식"}]},{"lat":"37.41503124","long":"127.2500611","items":[{"name":"냄비닭발","tel":"031-797-7332","addr":"경기도 광주시 탄벌동 52-5번지","category":"일반휴게음식 - 일반한식"},{"name":"슈퍼맨 노래연습장","tel":"031-798-5256","addr":"경기도 광주시 탄벌동 52-5번지 2층","category":"레저업소 - 노 래 방"}]},{"lat":"37.41947511","long":"127.2447776","items":[{"name":"네일모해","tel":"031-763-3976","addr":"경기도 광주시 탄벌동 141-6번지 101호","category":"보건위생 - 피부미용실"},{"name":"미진테크","tel":"031-768-9066","addr":"경기도 광주시 탄벌동 141-6번지 103호","category":"사무통신 - 기타 사무용품"},{"name":"삼성벤딩","tel":"031-765-9144","addr":"경기도 광주시 탄벌동 141-6번지 B동 106호","category":"음료식품 - 기타음료식품"},{"name":"장수분식","tel":"031-797-1708","addr":"경기도 광주시 탄벌동 141-6번지 102호","category":"일반휴게음식 - 스넥"}]},{"lat":"37.41516623","long":"127.2501406","items":[{"name":"노가리앤비어(광주점)","tel":"031-764-3030","addr":"경기도 광주시 탄벌동 52-3번지 1층","category":"일반휴게음식 - 주점"},{"name":"밥피씨(BOB PC)","tel":"070-8882-6180","addr":"경기도 광주시 탄벌동 52-3번지 4층","category":"레저업소 - 기타레져업소"},{"name":"성적이즐거운수학학원","tel":"031-797-1505","addr":"경기도 광주시 탄벌동 52-3번지","category":"회원제형태 - 학원"},{"name":"엔젤스코인노래연습장(경기광주점)","tel":"070-8881-3600","addr":"경기도 광주시 탄벌동 52-3번지 2층","category":"레저업소 - 노 래 방"}]},{"lat":"37.41558946","long":"127.250255","items":[{"name":"놀작조아미술교습소","tel":"","addr":"경기도 광주시 탄벌동 44-2번지 세양빌딩 401호","category":"학원 - 예·체능계학원"},{"name":"돈세돈","tel":"031-761-4025","addr":"경기도 광주시 탄벌동 44-2번지","category":"일반휴게음식 - 일식·회집"},{"name":"서울우리치과","tel":"031-767-2827","addr":"경기도 광주시 탄벌동 44-2번지 세양빌딩 301호","category":"의원 - 치과의원"},{"name":"세양당구장","tel":"031-762-0580","addr":"경기도 광주시 탄벌동 44-2번지","category":"레저업소 - 당 구 장"},{"name":"스타편의점,사진관","tel":"031-768-3622","addr":"경기도 광주시 탄벌동 44-2번지","category":"유통업 영리 - 슈퍼마켓"},{"name":"예쁜여우","tel":"031-767-8787","addr":"경기도 광주시 탄벌동 44-2번지 4층","category":"회원제형태 - 기타4"},{"name":"지세븐학원","tel":"031-768-0004","addr":"경기도 광주시 탄벌동 44-2번지 세양빌딩 5층","category":"학원 - 보습학원"},{"name":"톡톡경희한의원","tel":"031-767-0075","addr":"경기도 광주시 탄벌동 44-2번지 세양빌딩 2층 202호","category":"의원 - 한의원"},{"name":"평안도찹쌀순대","tel":"031-762-2279","addr":"경기도 광주시 탄벌동 44-2번지 세양빌딩 103호","category":"일반휴게음식 - 일반한식"},{"name":"푸른내과의원","tel":"031-768-8074","addr":"경기도 광주시 탄벌동 44-2번지","category":"의원 - 의원"},{"name":"한림독서실","tel":"031-798-1011","addr":"경기도 광주시 탄벌동 44-2번지 세양빌딩 4층 4호","category":"학원 - 독서실"}]},{"lat":"37.41589044","long":"127.2485051","items":[{"name":"농수산물직판장","tel":"031-764-8028","addr":"경기도 광주시 탄벌동 42-11번지","category":"유통업 영리 - 슈퍼마켓"},{"name":"숙명예능미술교습소","tel":"070-8352-4783","addr":"경기도 광주시 탄벌동 42-11번지","category":"학원 - 예·체능계학원"},{"name":"숙명예능음악학원","tel":"070-8141-4783","addr":"경기도 광주시 탄벌동 42-11번지","category":"학원 - 예·체능계학원"},{"name":"일층떡볶이","tel":"","addr":"경기도 광주시 탄벌동 42-11번지","category":"일반휴게음식 - 스넥"},{"name":"잎새꽃방","tel":"031-762-0483","addr":"경기도 광주시 탄벌동 42-11번지","category":"문화.취미 - 화원"},{"name":"지혜보습학원","tel":"031-763-4123","addr":"경기도 광주시 탄벌동 42-11번지","category":"학원 - 기타 교육기관"},{"name":"커피마마 광주탄벌점","tel":"031-763-5467","addr":"경기도 광주시 탄벌동 42-11번지 1층","category":"일반휴게음식 - 서양음식"}]},{"lat":"37.41194466","long":"127.2348133","items":[{"name":"농장가든","tel":"031-764-2522","addr":"경기도 광주시 탄벌동 563-2번지","category":"일반휴게음식 - 일반한식"}]},{"lat":"37.42519221","long":"127.2424461","items":[{"name":"누룽지가게","tel":"070-8292-5428","addr":"경기도 광주시 탄벌동 256-9번지","category":"음료식품 - 기타음료식품"},{"name":"영광감자탕","tel":"","addr":"경기도 광주시 탄벌동 256-9번지","category":"일반휴게음식 - 일반한식"}]},{"lat":"37.4169999","long":"127.2522252","items":[{"name":"늘방실꼼장어","tel":"031-766-7749","addr":"경기도 광주시 탄벌동 35-26번지","category":"일반휴게음식 - 일반한식"},{"name":"럭셔리노래방","tel":"031-769-9991","addr":"경기도 광주시 탄벌동 35-26번지","category":"레저업소 - 노 래 방"}]},{"lat":"37.41591655","long":"127.2489457","items":[{"name":"달빛아래쿵떡쿵떡","tel":"031-767-6345","addr":"경기도 광주시 탄벌동 37-6번지","category":"음료식품 - 제과점"},{"name":"삼성영어 탄벌1학원","tel":"031-768-3405","addr":"경기도 광주시 탄벌동 37-6번지 2층","category":"학원 - 외국어학원"},{"name":"아토헤어","tel":"031-765-3635","addr":"경기도 광주시 탄벌동 37-6번지 1층","category":"보건위생 - 미용원"}]},{"lat":"37.42080291","long":"127.2431438","items":[{"name":"닭발바닥(탄벌점)","tel":"031-797-9289","addr":"경기도 광주시 탄벌동 201-3번지 1층","category":"일반휴게음식 - 일반한식"}]},{"lat":"37.4176682","long":"127.2514818","items":[{"name":"담비슈퍼","tel":"031-2610-5269","addr":"경기도 광주시 탄벌동 27-38번지","category":"유통업 영리 - 슈퍼마켓"}]},{"lat":"37.42747377","long":"127.2414479","items":[{"name":"대명철물건재","tel":"031-8028-1255","addr":"경기도 광주시 탄벌동 278-4번지","category":"건축자재 - 목재·석재·철물"},{"name":"만남노래연습장","tel":"031-764-1565","addr":"경기도 광주시 탄벌동 278-4번지 지하층","category":"레저업소 - 노 래 방"}]},{"lat":"37.41958114","long":"127.2501439","items":[{"name":"대주콘테이너","tel":"031-766-3380","addr":"경기도 광주시 탄벌동 27-126번지","category":"건축자재 - 기타건축자재"}]},{"lat":"37.41597009","long":"127.2491944","items":[{"name":"더오름보습학원","tel":"031-763-1567","addr":"경기도 광주시 탄벌동 37-3번지 2층","category":"학원 - 보습학원"}]},{"lat":"37.42283719","long":"127.2441219","items":[{"name":"더이거차이나","tel":"070-8805-8571","addr":"경기도 광주시 탄벌동 244-5번지 이정빌딩","category":"일반휴게음식 - 중국식"},{"name":"킹콩점프","tel":"070-4655-4255","addr":"경기도 광주시 탄벌동 244-5번지 이정빌딩 2층","category":"레저업소 - 기타레져업소"},{"name":"푸른집","tel":"031-762-2529","addr":"경기도 광주시 탄벌동 244-5번지","category":"일반휴게음식 - 일반한식"}]},{"lat":"37.4155321","long":"127.2475099","items":[{"name":"더찬스짐","tel":"031-769-5308","addr":"경기도 광주시 탄벌동 48-3번지 2층","category":"레저업소 - 헬스클럽"},{"name":"월드무한대정육점","tel":"031-768-4747","addr":"경기도 광주시 탄벌동 48-3번지","category":"음료식품 - 정육점"}]},{"lat":"37.42636397","long":"127.2422239","items":[{"name":"덕산모텔","tel":"031-762-0126","addr":"경기도 광주시 탄벌동 274-4번지","category":"숙박업 - 여관/기타숙박업"},{"name":"덕산모텔","tel":"031-762-0126","addr":"경기도 광주시 탄벌동 274-4번지","category":"숙박업 - 여관/기타숙박업"},{"name":"미스터스마일","tel":"031-762-6426","addr":"경기도 광주시 탄벌동 274-4번지","category":"일반휴게음식 - 주점"}]},{"lat":"37.41563693","long":"127.2447314","items":[{"name":"돈까스카페","tel":"031-768-8253","addr":"경기도 광주시 탄벌동 95번지","category":"일반휴게음식 - 일반한식"}]},{"lat":"37.41450171","long":"127.2447051","items":[{"name":"동대문명동닭한마리","tel":"031-766-5111","addr":"경기도 광주시 탄벌동 108-1번지","category":"일반휴게음식 - 일반한식"}]},{"lat":"37.41445048","long":"127.224892","items":[{"name":"동산식품","tel":"031-766-3133","addr":"경기도 광주시 탄벌동 672-6번지","category":"음료식품 - 기타음료식품"}]},{"lat":"37.41739292","long":"127.2495606","items":[{"name":"동신측량설계공사","tel":"031-764-0022","addr":"경기도 광주시 탄벌동 18-19번지 동신빌딩 2층","category":"용역 서비스 - 사무서비스"}]},{"lat":"37.41577544","long":"127.2474768","items":[{"name":"동원각","tel":"031-763-8381","addr":"경기도 광주시 탄벌동 41-17번지 1층 4.5호","category":"일반휴게음식 - 중국식"},{"name":"오케이점핑다이어트","tel":"","addr":"경기도 광주시 탄벌동 41-17번지 2층","category":"건강식품 - 기타건강식품"},{"name":"유진모터스","tel":"031-764-1570","addr":"경기도 광주시 탄벌동 41-17번지 1층 101호","category":"자동차정비 유지 - 자동차정비"},{"name":"크린토피아탄벌점","tel":"031-763-1112","addr":"경기도 광주시 탄벌동 41-17번지","category":"용역 서비스 - 보관및 창고업"},{"name":"파리바게뜨","tel":"031-797-0160","addr":"경기도 광주시 탄벌동 41-17탄벌동현대정문상가1층106.107","category":"음료식품 - 제과점"},{"name":"현대카센타","tel":"031-764-4524","addr":"경기도 광주시 탄벌동 41-17번지 101(101호~102호)","category":"자동차정비 유지 - 자동차정비"}]},{"lat":"37.41591787","long":"127.2483131","items":[{"name":"두리아(광주탄벌점)","tel":"031-762-2007","addr":"경기도 광주시 탄벌동 42-14번지","category":"일반휴게음식 - 스넥"},{"name":"카메","tel":"031-766-8708","addr":"경기도 광주시 탄벌동 42-14번지 영원빌딩 1층","category":"일반휴게음식 - 서양음식"},{"name":"피자스쿨 광주탄벌점","tel":"031-761-1053","addr":"경기도 광주시 탄벌동 42-14번지 영원빌딩 103호","category":"일반휴게음식 - 서양음식"}]},{"lat":"37.4114466","long":"127.2360882","items":[{"name":"두현할인마트","tel":"031-793-3275","addr":"경기도 광주시 탄벌동","category":"유통업 영리 - 슈퍼마켓"}]},{"lat":"37.42433377","long":"127.2436748","items":[{"name":"떡드림방앗간","tel":"031-763-1180","addr":"경기도 광주시 탄벌동 258-4번지","category":"음료식품 - 제과점"},{"name":"오토오아시스(탄벌점)","tel":"031-761-3430","addr":"경기도 광주시 탄벌동 258-4번지","category":"자동차정비 유지 - 자동차정비"}]},{"lat":"37.41547708","long":"127.2479728","items":[{"name":"떡복기타임","tel":"031-767-7977","addr":"경기도 광주시 탄벌동 48-11번지","category":"일반휴게음식 - 스넥"},{"name":"명품옷수선및옷판매","tel":"031-000-0000","addr":"경기도 광주시 탄벌동 48-11번지 1층","category":"수리서비스 - 세탁소"},{"name":"선정유도체육관","tel":"031-797-8006","addr":"경기도 광주시 탄벌동 48-11번지 202호","category":"학원 - 예·체능계학원"},{"name":"착한머리방","tel":"031-769-2418","addr":"경기도 광주시 탄벌동 48-11번지 111호","category":"보건위생 - 미용원"},{"name":"탕탕시원한마차","tel":"031-765-8020","addr":"경기도 광주시 탄벌동 48-11번지","category":"일반휴게음식 - 일반한식"}]},{"lat":"37.41519226","long":"127.2506152","items":[{"name":"뚜레쥬르광주탄벌점","tel":"031-797-0458","addr":"경기도 광주시 탄벌동 53-2번지","category":"음료식품 - 제과점"},{"name":"추미애가정의학과의원","tel":"031-763-4684","addr":"경기도 광주시 탄벌동 53-2.4","category":"의원 - 의원"},{"name":"파란통신","tel":"031-767-7272","addr":"경기도 광주시 탄벌동 53-2번지","category":"사무통신 - 통신기기"}]},{"lat":"37.4107299","long":"127.2385596","items":[{"name":"러닝아트코리아","tel":"070-7715-2020","addr":"경기도 광주시 탄벌동 766번지 경남아너스빌2단지","category":"용역 서비스 - 사무서비스"},{"name":"와카씨져스","tel":"","addr":"경기도 광주시 탄벌동 766번지 경남아너스빌2단지","category":"보건위생 - 미용재료"}]},{"lat":"37.41112153","long":"127.2364486","items":[{"name":"레드폭스","tel":"031-769-7289","addr":"경기도 광주시 탄벌동 765-1번지","category":"보건위생 - 미용원"}]},{"lat":"37.41924921","long":"127.2450932","items":[{"name":"레몬트리","tel":"02-8725-8771","addr":"경기도 광주시 탄벌동 141-1번지 이모션 A동 101호","category":"일반휴게음식 - 서양음식"},{"name":"하이네일","tel":"031-762-8881","addr":"경기도 광주시 탄벌동 141-1번지 103호","category":"보건위생 - 피부미용실"},{"name":"헤어붐","tel":"031-767-3337","addr":"경기도 광주시 탄벌동 141-1번지 102호","category":"보건위생 - 미용원"}]},{"lat":"37.41810841","long":"127.2520933","items":[{"name":"마루도사","tel":"070-4408-8192","addr":"경기도 광주시 탄벌동 29-2번지","category":"건축자재 - 인테리어전문"}]},{"lat":"37.42033105","long":"127.2403407","items":[{"name":"마실헤어살롱","tel":"031-764-6978","addr":"경기도 광주시 탄벌동 383번지","category":"보건위생 - 미용원"}]},{"lat":"37.4208356","long":"127.2403423","items":[{"name":"마이니노","tel":"","addr":"경기도 광주시 탄벌동 339-1번지 황제쉐르빌","category":"서적문구 - 일반서적"}]},{"lat":"37.41875002","long":"127.2468651","items":[{"name":"모던센스","tel":"031-761-1638","addr":"경기도 광주시 탄벌동 11번지","category":"직물 - 침구·수예점"},{"name":"삼해수산","tel":"031-764-7222","addr":"경기도 광주시 탄벌동 11번지","category":"일반휴게음식 - 일반한식"}]},{"lat":"37.42055586","long":"127.2405561","items":[{"name":"미래냉난방","tel":"031-797-1739","addr":"경기도 광주시 탄벌동 386-3번지","category":"전기제품 - 기타전기제품"}]},{"lat":"37.41416959","long":"127.2440941","items":[{"name":"미애부경기광주탄벌점","tel":"031-764-1401","addr":"경기도 광주시 탄벌동 74-1번지 1층 105호","category":"보건위생 - 화장품"},{"name":"아띠랑스","tel":"070-4763-5091","addr":"경기도 광주시 탄벌동 74-1번지","category":"일반휴게음식 - 일반한식"},{"name":"와이제이","tel":"","addr":"경기도 광주시 탄벌동 74-1번지","category":"사무통신 - 기타 사무용품"},{"name":"카마","tel":"","addr":"경기도 광주시 탄벌동 74-1번지 1층 103호","category":"문화.취미 - 문화취미기타"}]},{"lat":"37.41738656","long":"127.252588","items":[{"name":"미카도 참치","tel":"031-761-5566","addr":"경기도 광주시 탄벌동 32-2번지 1층","category":"일반휴게음식 - 일식·회집"},{"name":"배틀존","tel":"031-767-0742","addr":"경기도 광주시 탄벌동 32-2번지 해빛나빌딩 2층","category":"레져용품 - 골프용품 전문점"},{"name":"어시장(ASIJANG)수산","tel":"031-8795-0809","addr":"경기도 광주시 탄벌동 32-2번지 1층 104호","category":"음료식품 - 농·축·수산품"},{"name":"제이제이영수학원","tel":"031-763-0627","addr":"경기도 광주시 탄벌동 32-2번지 3층","category":"학원 - 보습학원"}]},{"lat":"37.42544381","long":"127.2427858","items":[{"name":"민들레식당","tel":"031-797-1011","addr":"경기도 광주시 탄벌동 270번지","category":"일반휴게음식 - 일반한식"}]},{"lat":"37.41539065","long":"127.2505367","items":[{"name":"밝은세상안경콘택트","tel":"031-765-8648","addr":"경기도 광주시 탄벌동 44-5번지","category":"보건위생 - 안경"},{"name":"배스킨라빈스(탄벌점)","tel":"031-797-9119","addr":"경기도 광주시 탄벌동 44-5번지 KJ빌딩 103호","category":"음료식품 - 제과점"},{"name":"베스트빈광주점","tel":"031-768-5269","addr":"경기도 광주시 탄벌동 44-5번지 KJ빌딩 102호","category":"일반휴게음식 - 서양음식"},{"name":"소통부부한의원","tel":"031-797-5075","addr":"경기도 광주시 탄벌동 44-5번지 KJ빌딩","category":"의원 - 한의원"},{"name":"아이린 PC","tel":"070-4128-7225","addr":"경기도 광주시 탄벌동 44-5번지 KJ빌딩 3층","category":"레저업소 - 기타레져업소"},{"name":"이니스프리탄벌점","tel":"031-763-2111","addr":"경기도 광주시 탄벌동 44-5번지 KJ빌딩 104호","category":"보건위생 - 화장품"},{"name":"지세븐학원(탄벌캠퍼스)","tel":"031-768-0004","addr":"경기도 광주시 탄벌동 44-5번지 KJ빌딩 3층","category":"학원 - 보습학원"},{"name":"카페토스피아","tel":"031-765-8595","addr":"경기도 광주시 탄벌동 44-5번지 KJ빌딩 1층","category":"일반휴게음식 - 서양음식"}]},{"lat":"37.41985884","long":"127.2421693","items":[{"name":"백상기업","tel":"031-763-7575","addr":"경기도 광주시 탄벌동 166-2,3","category":"농업 - 농기계"}]},{"lat":"37.42102974","long":"127.2423651","items":[{"name":"법무사김옥희사무소","tel":"031-798-9799","addr":"경기도 광주시 탄벌동 204-5번지 효행빌딩 2층","category":"용역 서비스 - 법률회계서비스(개인)"},{"name":"본스치킨","tel":"031-769-1357","addr":"경기도 광주시 탄벌동 204-5번지","category":"일반휴게음식 - 일반한식"},{"name":"은가비밥상","tel":"","addr":"경기도 광주시 탄벌동 204-5번지 효행빌딩","category":"일반휴게음식 - 일반한식"},{"name":"현헤어","tel":"031-766-9004","addr":"경기도 광주시 탄벌동 204-5번지 효행빌딩 1층","category":"보건위생 - 미용원"}]},{"lat":"37.41706001","long":"127.2218722","items":[{"name":"베스트공조","tel":"031-765-7277","addr":"경기도 광주시 탄벌동 657-4번지","category":"전기제품 - 냉열기기"},{"name":"베스트샵 경기광주점","tel":"031-765-7277","addr":"경기도 광주시 탄벌동 657-4번지","category":"전기제품 - 가전제품"}]},{"lat":"37.4163667","long":"127.2491166","items":[{"name":"보떼에스테틱","tel":"031-769-1651","addr":"경기도 광주시 탄벌동 37-1번지 우리빌딩 1층","category":"보건위생 - 화장품"},{"name":"주소영헤어","tel":"070-8950-4077","addr":"경기도 광주시 탄벌동 37-1번지","category":"보건위생 - 미용원"}]},{"lat":"37.4149732","long":"127.2476436","items":[{"name":"본낙원갈비","tel":"031-765-4980","addr":"경기도 광주시 탄벌동 49-3번지","category":"일반휴게음식 - 일반한식"},{"name":"용가리노래연습장","tel":"","addr":"경기도 광주시 탄벌동 49-3번지","category":"레저업소 - 노 래 방"}]},{"lat":"37.42091598","long":"127.236174","items":[{"name":"뷰티","tel":"02-429-2357","addr":"경기도 광주시 탄벌동 361번지 101동 402호","category":"회원제형태 - 기타1"}]},{"lat":"37.41299828","long":"127.2396398","items":[{"name":"블랙우드","tel":"031-766-6532","addr":"경기도 광주시 탄벌동 479-6번지","category":"건축자재 - 인테리어전문"}]},{"lat":"37.41874869","long":"127.247509","items":[{"name":"비젼스크린골프","tel":"031-763-8207","addr":"경기도 광주시 탄벌동 11-6번지","category":"회원제형태 - 레져업소"}]},{"lat":"37.41710908","long":"127.247402","items":[{"name":"빛든공방","tel":"031-765-7192","addr":"경기도 광주시 탄벌동 40번지 탄벌리현대아파트","category":"문화.취미 - 민예·공예품"}]},{"lat":"37.41192127","long":"127.2420311","items":[{"name":"사랑채","tel":"031-766-5457","addr":"경기도 광주시 탄벌동 500-2번지","category":"일반휴게음식 - 일반한식"}]},{"lat":"37.41619452","long":"127.2495905","items":[{"name":"산호문구","tel":"031-764-9763","addr":"경기도 광주시 탄벌동 37","category":"서적문구 - 문구용품"}]},{"lat":"37.41103154","long":"127.2363919","items":[{"name":"삼성영어수학여우벌원학원","tel":"031-764-7004","addr":"경기도 광주시 탄벌동 765-1번지 106,107호","category":"학원 - 보습학원"}]},{"lat":"37.419473","long":"127.2458056","items":[{"name":"서운건축사사무소","tel":"031-769-1177","addr":"경기도 광주시 탄벌동 180-5번지 외1필지 계림빌딩 2층","category":"용역 서비스 - 사무서비스"},{"name":"알파종합설비","tel":"031-763-5610","addr":"경기도 광주시 탄벌동 180-5번지","category":"수리서비스 - 기타수리서비스"},{"name":"영동돈까스","tel":"031-766-0333","addr":"경기도 광주시 탄벌동 180-5번지","category":"일반휴게음식 - 일반한식"},{"name":"인영음악학원","tel":"031-764-9554","addr":"경기도 광주시 탄벌동 180-5번지 2층","category":"학원 - 예·체능계학원"},{"name":"플로마차","tel":"070-7562-2389","addr":"경기도 광주시 탄벌동 180-5번지 1층","category":"음료식품 - 기타음료식품"},{"name":"플로마차","tel":"070-7562-2389","addr":"경기도 광주시 탄벌동 180-5번지","category":"문화.취미 - 화원"},{"name":"한나헤어&피부샵","tel":"","addr":"경기도 광주시 탄벌동 180-5번지 1층","category":"보건위생 - 미용원"}]},{"lat":"37.41172079","long":"127.2247032","items":[{"name":"선한빛요양병원","tel":"031-765-0908","addr":"경기도 광주시 탄벌동 696-2번지","category":"음료식품 - 기타음료식품"}]},{"lat":"37.4214969","long":"127.2293412","items":[{"name":"설봉","tel":"031-0000-0000","addr":"경기도 광주시 탄벌동 634-1번지 1층","category":"학원 - 기타 교육기관"}]},{"lat":"37.42494853","long":"127.2426487","items":[{"name":"세계철거","tel":"031-763-2994","addr":"경기도 광주시 탄벌동 256-1번지","category":"용역 서비스 - 기타용역서비스"}]},{"lat":"37.42078216","long":"127.2400371","items":[{"name":"세븐일레븐경기광주탄벌본점","tel":"","addr":"경기도 광주시 탄벌동 340-1번지","category":"유통업 영리 - 편 의 점"}]},{"lat":"37.41024887","long":"127.2357795","items":[{"name":"셀파우등생교실","tel":"","addr":"경기도 광주시 탄벌동 765번지 경남아너스빌1단지","category":"학원 - 기타 교육기관"}]},{"lat":"37.41714382","long":"127.2523386","items":[{"name":"손문대구막창갈매기","tel":"","addr":"경기도 광주시 탄벌동 35-1번지","category":"일반휴게음식 - 일반한식"}]},{"lat":"37.42711269","long":"127.2417857","items":[{"name":"스마트모바일","tel":"031-763-3555","addr":"경기도 광주시 탄벌동 274-2번지","category":"사무통신 - 통신기기"},{"name":"중앙광고","tel":"031-761-4227","addr":"경기도 광주시 탄벌동 274-2번지","category":"용역 서비스 - 종합용역"},{"name":"해동검도용문관","tel":"031-766-7137","addr":"경기도 광주시 탄벌동 274-2번지 2층","category":"학원 - 예·체능계학원"}]},{"lat":"37.41525614","long":"127.2502313","items":[{"name":"스카이짐(SKY GYM)","tel":"031-797-6064","addr":"경기도 광주시 탄벌동 52-1번지 5층","category":"레저업소 - 헬스클럽"},{"name":"첼시 노래연습장","tel":"031-763-3777","addr":"경기도 광주시 탄벌동 52-1번지 3층","category":"레저업소 - 노 래 방"},{"name":"치어스(탄벌점)","tel":"031-769-8870","addr":"경기도 광주시 탄벌동 52-1번지","category":"일반휴게음식 - 주점"}]},{"lat":"37.41749849","long":"127.2507809","items":[{"name":"스토리아찌","tel":"070-7761-9607","addr":"경기도 광주시 탄벌동 20-18번지","category":"건축자재 - 기타건축자재"}]},{"lat":"37.42058162","long":"127.2456171","items":[{"name":"시대천막","tel":"031-761-1870","addr":"경기도 광주시 탄벌동 186번지","category":"직물 - 카페트,커튼,천막,지물"}]},{"lat":"37.42069348","long":"127.2393252","items":[{"name":"신디공방","tel":"","addr":"경기도 광주시 탄벌동 377번지 크로바빌라트","category":"문화.취미 - 문화취미기타"}]},{"lat":"37.41730956","long":"127.2506447","items":[{"name":"신영카센타","tel":"031-792-8251","addr":"경기도 광주시 탄벌동 19-1번지","category":"자동차정비 유지 - 자동차정비"}]},{"lat":"37.41853338","long":"127.2470565","items":[{"name":"쌤이콕학원","tel":"031-766-6634","addr":"경기도 광주시 탄벌동 11-42번지 2층","category":"학원 - 보습학원"},{"name":"아이넷문구,완구","tel":"031-766-3733","addr":"경기도 광주시 탄벌동 11-42번지 1층","category":"서적문구 - 문구용품"},{"name":"화랑태권도장","tel":"031-762-2999","addr":"경기도 광주시 탄벌동 11-42번지 3층","category":"학원 - 예·체능계학원"}]},{"lat":"37.42155574","long":"127.2451119","items":[{"name":"썬샤인 스킨&바디","tel":"031-768-6610","addr":"경기도 광주시 탄벌동 222-11번지 3층","category":"회원제형태 - 기타4"},{"name":"해성모터스","tel":"031-763-0202","addr":"경기도 광주시 탄벌동 222-11번지 1층","category":"자동차정비 유지 - 자동차정비"},{"name":"해성자동차용품","tel":"031-763-0202","addr":"경기도 광주시 탄벌동 222-11번지 1층","category":"자동차정비 유지 - 자동차부품"}]},{"lat":"37.41403079","long":"127.2414504","items":[{"name":"쎄븐카센타","tel":"031-767-3190","addr":"경기도 광주시 탄벌동 81-3번지","category":"자동차정비 유지 - 자동차정비"}]},{"lat":"37.41013668","long":"127.2378349","items":[{"name":"아름다운당신","tel":"070-7799-1139","addr":"경기도 광주시 탄벌동 766번지 경남아너스빌2단지","category":"신변잡화 - 기타잡화"}]},{"lat":"37.41702821","long":"127.2516153","items":[{"name":"아이누리","tel":"031-761-4333","addr":"경기도 광주시 탄벌동 35-21번지 101호","category":"회원제형태 - 학원"}]},{"lat":"37.42688794","long":"127.2415364","items":[{"name":"아지트","tel":"031-797-4085","addr":"경기도 광주시 탄벌동 279번지","category":"일반휴게음식 - 주점"}]},{"lat":"37.41849785","long":"127.2468078","items":[{"name":"액정천국","tel":"070-7256-8949","addr":"경기도 광주시 탄벌동 717-10번지","category":"사무통신 - 통신기기"}]},{"lat":"37.41525892","long":"127.2488984","items":[{"name":"에스더블유(S.W)냉동","tel":"031-764-8032","addr":"경기도 광주시 탄벌동 45번지 동보아파트","category":"회원제형태 - 기타1"}]},{"lat":"37.42136607","long":"127.2453372","items":[{"name":"엠비에이(MBA)모터스","tel":"031-762-6054","addr":"경기도 광주시 탄벌동 222-12번지 1층","category":"자동차정비 유지 - 자동차정비"}]},{"lat":"37.42485811","long":"127.2428066","items":[{"name":"영신유통","tel":"031-768-3623","addr":"경기도 광주시 탄벌동 256-3번지","category":"보건위생 - 화장품"}]},{"lat":"37.42183017","long":"127.2430906","items":[{"name":"예닮특장차량","tel":"031-797-3379","addr":"경기도 광주시 탄벌동 218번지","category":"자동차정비 유지 - 중장비수리"}]},{"lat":"37.4212246","long":"127.2395641","items":[{"name":"예성에너테크","tel":"031-764-9630","addr":"경기도 광주시 탄벌동 346-1번지 201호","category":"건축자재 - 기타건축자재"}]},{"lat":"37.41532034","long":"127.2496893","items":[{"name":"오네스또","tel":"031-797-0305","addr":"경기도 광주시 탄벌동 45번지 동보아파트","category":"회원제형태 - 사무서비스"},{"name":"현대인테리어","tel":"031-769-0664","addr":"경기도 광주시 탄벌동 45번지 동보아파트","category":"회원제형태 - 기타4"}]},{"lat":"37.41583556","long":"127.2445287","items":[{"name":"오복가설재","tel":"031-763-3013","addr":"경기도 광주시 탄벌동 91번지","category":"건축자재 - 기타건축자재"}]},{"lat":"37.41811684","long":"127.2480605","items":[{"name":"오토프라자","tel":"031-768-8572","addr":"경기도 광주시 탄벌동 12-1번지","category":"자동차정비 유지 - 자동차정비"}]},{"lat":"37.42063593","long":"127.2410647","items":[{"name":"옥돌네생삼겹","tel":"031-764-6739","addr":"경기도 광주시 탄벌동 389-1번지","category":"일반휴게음식 - 일반한식"},{"name":"위드치킨","tel":"031-765-9288","addr":"경기도 광주시 탄벌동 389-1번지","category":"일반휴게음식 - 스넥"},{"name":"윤여옥헤어샵","tel":"031-766-1585","addr":"경기도 광주시 탄벌동 389-1번지","category":"보건위생 - 미용원"},{"name":"화난곱창 신난닭갈비","tel":"031-767-2627","addr":"경기도 광주시 탄벌동 389-1번지 1층","category":"일반휴게음식 - 일반한식"}]},{"lat":"37.42058617","long":"127.2389181","items":[{"name":"요리조리쿡","tel":"080-849-2577","addr":"경기도 광주시 탄벌동 377번지 크로바빌라트 지하1층","category":"음료식품 - 기타음료식품"},{"name":"준이네 할인마트","tel":"031-733-4954","addr":"경기도 광주시 탄벌동 377번지 크로바빌라트 지하1층 1,2호","category":"유통업 영리 - 슈퍼마켓"}]},{"lat":"37.42075206","long":"127.2415621","items":[{"name":"우림세탁소","tel":"031-765-8882","addr":"경기도 광주시 탄벌동 391번지","category":"수리서비스 - 세탁소"},{"name":"탄벌 진짜루","tel":"070-1478-1236","addr":"경기도 광주시 탄벌동 391번지 1층","category":"일반휴게음식 - 중국식"}]},{"lat":"37.4219429","long":"127.240809","items":[{"name":"유앤아이 반품마트/(주)유앤아이글로벌","tel":"02-111-1111","addr":"경기도 광주시 탄벌동 327-2번지","category":"신변잡화 - 기타잡화"}]},{"lat":"37.42091915","long":"127.2435848","items":[{"name":"은성산업사","tel":"02-2232-4781","addr":"경기도 광주시 탄벌동 194-1번지","category":"기타 - 기타 전문점"},{"name":"크린키퍼","tel":"031-793-2700","addr":"경기도 광주시 탄벌동 194-1번지","category":"의류 - 기타의류"}]},{"lat":"37.42094808","long":"127.2426472","items":[{"name":"이마트24 탄벌회관점","tel":"031-1111-1111","addr":"경기도 광주시 탄벌동 204-2번지","category":"유통업 영리 - 편 의 점"},{"name":"이마트24 탄벌회관점","tel":"","addr":"경기도 광주시 탄벌동 204-2번지","category":"유통업 영리 - 편 의 점"}]},{"lat":"37.41503096","long":"127.2501967","items":[{"name":"이주성영어교습소","tel":"031-765-6909","addr":"경기도 광주시 탄벌동 52-6번지 4층","category":"학원 - 외국어학원"},{"name":"주포차","tel":"","addr":"경기도 광주시 탄벌동 52-6번지 1층","category":"일반휴게음식 - 주점"}]},{"lat":"37.41788759","long":"127.2499801","items":[{"name":"이화보습학원","tel":"031-761-6188","addr":"경기도 광주시 탄벌동 21-1번지 2층","category":"학원 - 보습학원"}]},{"lat":"37.41714111","long":"127.2493338","items":[{"name":"인서울학원","tel":"031-767-7275","addr":"경기도 광주시 탄벌동 18-2번지 3층","category":"학원 - 보습학원"},{"name":"태강한의원","tel":"031-768-8844","addr":"경기도 광주시 탄벌동 18-2번지 3층","category":"의원 - 한의원"}]},{"lat":"37.42341355","long":"127.2442593","items":[{"name":"일광종합건재,철물","tel":"031-768-6423","addr":"경기도 광주시 탄벌동 242번지","category":"건축자재 - 기타건축자재"}]},{"lat":"37.42763629","long":"127.2412789","items":[{"name":"자연미","tel":"031-766-5429","addr":"경기도 광주시 탄벌동 278-2번지","category":"회원제형태 - 기타4"},{"name":"회덕루","tel":"031-764-1282","addr":"경기도 광주시 탄벌동 278-2번지","category":"일반휴게음식 - 중국식"},{"name":"회덕식당","tel":"031-761-3335","addr":"경기도 광주시 탄벌동 278-2번지","category":"일반휴게음식 - 일반한식"}]},{"lat":"37.41650288","long":"127.2486201","items":[{"name":"정성칼국수&닭한마리","tel":"070-4354-8913","addr":"경기도 광주시 탄벌동 39-3번지 1층","category":"일반휴게음식 - 일반한식"}]},{"lat":"37.41317265","long":"127.2425321","items":[{"name":"정유통","tel":"031-793-2529","addr":"경기도 광주시 탄벌동 65-1번지","category":"의류 - 정장"},{"name":"주식회사더테니스","tel":"031-798-8531","addr":"경기도 광주시 탄벌동 65-1번지","category":"레져용품 - 스포츠·레져용품"}]},{"lat":"37.42110642","long":"127.2400833","items":[{"name":"제이 루멘텍","tel":"","addr":"경기도 광주시 탄벌동 762번지 우림루미아트아파트","category":"건축자재 - 조명기구"}]},{"lat":"37.40891739","long":"127.2393107","items":[{"name":"제이디자인(Jdesign)","tel":"","addr":"경기도 광주시 탄벌동 547번지","category":"직물 - 카페트,커튼,천막,지물"},{"name":"타이어테크","tel":"031-768-7970","addr":"경기도 광주시 탄벌동 547번지","category":"자동차정비 유지 - 자동차시트·타이어"},{"name":"타이어테크광주점","tel":"031-768-7970","addr":"경기도 광주시 탄벌동 547번지","category":"자동차정비 유지 - 자동차시트·타이어"},{"name":"프렌즈","tel":"031-761-9990","addr":"경기도 광주시 탄벌동 547번지 2층","category":"일반휴게음식 - 서양음식"}]},{"lat":"37.41816505","long":"127.2421187","items":[{"name":"주식회사 온플랜비","tel":"031-797-7806","addr":"경기도 광주시 탄벌동 159-1번지 102호","category":"음료식품 - 기타음료식품"}]},{"lat":"37.40961203","long":"127.2388724","items":[{"name":"주식회사 코너크로스핏","tel":"070-8690-2731","addr":"경기도 광주시 탄벌동 544-2번지 한베프라자 1층, 2층 203호, 204호","category":"레저업소 - 헬스클럽"}]},{"lat":"37.41683929","long":"127.2514791","items":[{"name":"주식회사 흠창무역","tel":"031-333-1102","addr":"경기도 광주시 탄벌동 35-34번지","category":"기타 - 기계공구"},{"name":"크린토피아","tel":"031-769-8999","addr":"경기도 광주시 탄벌동 35-34번지 202호","category":"수리서비스 - 세탁소"}]},{"lat":"37.42255965","long":"127.2432511","items":[{"name":"주식회사광주현대카서비스센터","tel":"031-762-9952","addr":"경기도 광주시 탄벌동 216번지","category":"자동차정비 유지 - 자동차정비"}]},{"lat":"37.41811479","long":"127.2402321","items":[{"name":"주호유통","tel":"031-8028-3609","addr":"경기도 광주시 탄벌동 430번지 전원그린빌 103동 402호","category":"유통업 영리 - 기타유통업"}]},{"lat":"37.41425554","long":"127.2416996","items":[{"name":"중고시스템","tel":"031-9770-2580","addr":"경기도 광주시 탄벌동 81-1번지","category":"전기제품 - 냉열기기"}]},{"lat":"37.41983761","long":"127.2437508","items":[{"name":"중앙ENG","tel":"031-8028-0985","addr":"경기도 광주시 탄벌동 175-1번지","category":"전기제품 - 기타전기제품"},{"name":"초은통신","tel":"070-4806-3728","addr":"경기도 광주시 탄벌동 175-1번지 위드 101호","category":"사무통신 - 통신기기"}]},{"lat":"37.42199785","long":"127.2448083","items":[{"name":"진뚝닭","tel":"031-797-6662","addr":"경기도 광주시 탄벌동 222-1번지 1층","category":"일반휴게음식 - 일반한식"}]},{"lat":"37.41705852","long":"127.2226743","items":[{"name":"진솔정보시스템","tel":"031-8065-6117","addr":"경기도 광주시 탄벌동 657번지","category":"사무통신 - 컴퓨터"}]},{"lat":"37.41441561","long":"127.2471448","items":[{"name":"청정한우&돼지고기백화점","tel":"031-798-0892","addr":"경기도 광주시 탄벌동 110-9번지 1층","category":"음료식품 - 정육점"}]},{"lat":"37.41444311","long":"127.2469189","items":[{"name":"청정한우연탄구이","tel":"031-798-0892","addr":"경기도 광주시 탄벌동 110-5번지","category":"일반휴게음식 - 일반한식"}]},{"lat":"37.41880966","long":"127.2441429","items":[{"name":"최지숙의힐링센터","tel":"031-766-2955","addr":"경기도 광주시 탄벌동 144-2번지 청우골드빌 203동 201호","category":"보건위생 - 기타대인서비스"}]},{"lat":"37.41816871","long":"127.2447508","items":[{"name":"카페 1913","tel":"031-762-1913","addr":"경기도 광주시 탄벌동 144-6번지 2층","category":"일반휴게음식 - 일반한식"},{"name":"탄벌카써비스","tel":"031-762-0904","addr":"경기도 광주시 탄벌동 144-6번지","category":"자동차정비 유지 - 자동차정비"},{"name":"퍼니","tel":"031-768-9599","addr":"경기도 광주시 탄벌동 144-6번지 1층 102호","category":"자동차정비 유지 - 카인테리어"}]},{"lat":"37.41397663","long":"127.2459234","items":[{"name":"카페보니또 경기광주점","tel":"031-797-5877","addr":"경기도 광주시 탄벌동 110-21번지 지하2층","category":"일반휴게음식 - 서양음식"}]},{"lat":"37.41858848","long":"127.2421427","items":[{"name":"캥거루 잉글리시","tel":"","addr":"경기도 광주시 탄벌동 160-1번지 신영타운 A동 301호","category":"학원 - 외국어학원"}]},{"lat":"37.41816737","long":"127.2497551","items":[{"name":"큐","tel":"031-768-0991","addr":"경기도 광주시 탄벌동 27-46번지","category":"숙박업 - 여관/기타숙박업"}]},{"lat":"37.41119218","long":"127.2371717","items":[{"name":"크린토피아","tel":"031-763-7444","addr":"경기도 광주시 탄벌동 526 경남아너스빌1층107호","category":"수리서비스 - 세탁소"}]},{"lat":"37.4151111","long":"127.2506488","items":[{"name":"큰사랑약국","tel":"031-797-7952","addr":"경기도 광주시 탄벌동 53-4번지","category":"약국 - 약국"}]},{"lat":"37.41741751","long":"127.2507242","items":[{"name":"탄벌마트","tel":"031-763-0287","addr":"경기도 광주시 탄벌동 20-17번지","category":"유통업 영리 - 슈퍼마켓"}]},{"lat":"37.42105927","long":"127.2455622","items":[{"name":"탄벌세차장","tel":"031-766-8233","addr":"경기도 광주시 탄벌동 222-8번지","category":"자동차정비 유지 - 세차장"},{"name":"한국모터스","tel":"031-763-1775","addr":"경기도 광주시 탄벌동 222-8번지","category":"자동차정비 유지 - 자동차정비"}]},{"lat":"37.42102683","long":"127.2393375","items":[{"name":"탄벌전자","tel":"031-765-0351","addr":"경기도 광주시 탄벌동 347번지","category":"수리서비스 - 기타수리서비스"}]},{"lat":"37.41921944","long":"127.2464261","items":[{"name":"토성건기","tel":"031-884-9588","addr":"경기도 광주시 탄벌동 717-5번지","category":"기타 - 기계공구"},{"name":"토성건기","tel":"031-767-1832","addr":"경기도 광주시 탄벌동 717-5번지","category":"기타 - 기계공구"}]},{"lat":"37.42152922","long":"127.2358935","items":[{"name":"푸른축산","tel":"031-767-1273","addr":"경기도 광주시 탄벌동 598-1번지","category":"음료식품 - 정육점"}]},{"lat":"37.42822412","long":"127.2401962","items":[{"name":"푸주옥","tel":"031-765-3055","addr":"경기도 광주시 탄벌동 275번지","category":"일반휴게음식 - 일반한식"}]},{"lat":"37.41031863","long":"127.2369544","items":[{"name":"하나수산","tel":"070-4755-4788","addr":"경기도 광주시 탄벌동 766번지 경남아너스빌2단지","category":"음료식품 - 농·축·수산품"}]},{"lat":"37.41755739","long":"127.252758","items":[{"name":"하얀피부","tel":"031-769-4795","addr":"경기도 광주시 탄벌동 33번지 307호","category":"보건위생 - 화장품"},{"name":"한은이샵","tel":"031-764-0455","addr":"경기도 광주시 탄벌동 33번지 306호","category":"회원제형태 - 기타4"}]},{"lat":"37.41747221","long":"127.2504193","items":[{"name":"한결유통","tel":"031-761-3081","addr":"경기도 광주시 탄벌동 20-28번지","category":"음료식품 - 농·축·수산품"}]},{"lat":"37.41714358","long":"127.2524516","items":[{"name":"한나샘국어교습소","tel":"031-000-0000","addr":"경기도 광주시 탄벌동 34-1번지 2층","category":"학원 - 보습학원"}]},{"lat":"37.42155482","long":"127.2366166","items":[{"name":"한벌주니어음악","tel":"031-768-0580","addr":"경기도 광주시 탄벌동 358번지 2층","category":"학원 - 예·체능계학원"},{"name":"한벌태권도&주짓수교육마을","tel":"031-798-4723","addr":"경기도 광주시 탄벌동 358번지","category":"학원 - 예·체능계학원"}]},{"lat":"37.41391664","long":"127.2444209","items":[{"name":"한소울장애인자립생활센터","tel":"031-762-4583","addr":"경기도 광주시 탄벌동 73번지 한울빌딩 3층","category":"신변잡화 - 기타잡화"}]},{"lat":"37.42149904","long":"127.2419825","items":[{"name":"해오름식당","tel":"031-769-3012","addr":"경기도 광주시 탄벌동 205-5번지","category":"일반휴게음식 - 일반한식"}]},{"lat":"37.41872694","long":"127.2493051","items":[{"name":"현대공구","tel":"031-798-0373","addr":"경기도 광주시 탄벌동 25번지","category":"기타 - 기계공구"}]},{"lat":"37.41736897","long":"127.2480807","items":[{"name":"현대수학","tel":"031-798-4216","addr":"경기도 광주시 탄벌동 40번지 탄벌리현대아파트","category":"회원제형태 - 학원"}]},{"lat":"37.42538869","long":"127.2433054","items":[{"name":"현대종합기계상사","tel":"031-762-4515","addr":"경기도 광주시 탄벌동 269-1번지","category":"기타 - 기계공구"}]},{"lat":"37.42713994","long":"127.2416728","items":[{"name":"현선아트유리","tel":"031-764-2338","addr":"경기도 광주시 탄벌동 278-7번지 1층","category":"용역 서비스 - 기타용역서비스"}]},{"lat":"37.41852567","long":"127.2464238","items":[{"name":"황구산장","tel":"031-765-6545","addr":"경기도 광주시 탄벌동 138-2번지","category":"일반휴게음식 - 일반한식"}]},{"lat":"37.4211354","long":"127.2345592","items":[{"name":"훼미리통상","tel":"","addr":"경기도 광주시 탄벌동 614번지","category":"음료식품 - 기타음료식품"}]},{"lat":"37.41169313","long":"127.2344285","items":[{"name":"휴도시락","tel":"031-765-4161","addr":"경기도 광주시 탄벌동 566번지","category":"일반휴게음식 - 일반한식"}]},{"lat":"37.42219693","long":"127.244391","items":[{"name":"휴팩토리(hue factory)","tel":"031-765-5574","addr":"경기도 광주시 탄벌동 222-2번지","category":"가구 - 일반가구"}]},{"lat":"37.41694446","long":"127.2485763","items":[{"name":"희망과일","tel":"031-765-0914","addr":"경기도 광주시 탄벌동 40번지 탄벌리현대아파트","category":"회원제형태 - 기타1"}]},{"lat":"37.41650436","long":"127.2479084","items":[{"name":"희현 플라워","tel":"","addr":"경기도 광주시 탄벌동 40번지 탄벌리현대아파트","category":"문화.취미 - 화원"}]},{"lat":"37.4202217","long":"127.2409504","items":[{"name":"히트산업경인지사","tel":"031-765-0100","addr":"경기도 광주시 탄벌동 386-8번지","category":"신변잡화 - 기타잡화"}]}]