[{"lat":"37.239300086","long":"127.05475658","imageIndex":4,"items":[{"name":"(주)담쟁이 수원지점","tel":"031-202-0356","addr":"경기도 수원시 영통구 망포동 381-2번지 1층 외2필지","indutype":"일반휴게음식 - 서양음식","category":"restaurant"},{"name":"고봉민김밥인(수원망포점)","tel":"031-202-3955","addr":"경기도 수원시 영통구 망포동 381-2번지 e타운 1층","indutype":"일반휴게음식 - 일반한식","category":"restaurant"},{"name":"국수나무망포점","tel":"031-203-0244","addr":"경기도 수원시 영통구 망포동 381-2번지 1층","indutype":"일반휴게음식 - 일반한식","category":"restaurant"},{"name":"땡큐 꼬마김밥 망포점","tel":"","addr":"경기도 수원시 영통구 망포동 381-2번지 망포동타운빌딩 1층 107호","indutype":"일반휴게음식 - 스넥","category":"restaurant"}]},{"lat":"37.234877381","long":"127.0515306","imageIndex":4,"items":[{"name":"19 세꼬시","tel":"031-273-8819","addr":"경기도 수원시 영통구 망포동 649-38번지 진성프라자 101호","indutype":"일반휴게음식 - 일식·회집","category":"restaurant"},{"name":"교촌치킨","tel":"031-273-7333","addr":"경기도 수원시 영통구 망포동 649-38번지 진성프라자 105호","indutype":"일반휴게음식 - 주점","category":"restaurant"},{"name":"구이구이쪽갈비 수원망포점","tel":"031-205-8592","addr":"경기도 수원시 영통구 망포동 649-38번지 진성프라자 1층 108호","indutype":"일반휴게음식 - 일반한식","category":"restaurant"},{"name":"칠갑산","tel":"031-202-8007","addr":"경기도 수원시 영통구 망포동 649-38 진성프라자 112호~113호","indutype":"일반휴게음식 - 일반한식","category":"restaurant"},{"name":"카페하늘별","tel":"","addr":"경기도 수원시 영통구 망포동 649-38번지 진성프라자 107호","indutype":"일반휴게음식 - 서양음식","category":"restaurant"},{"name":"호식이두마리치킨(신영통점)","tel":"031-273-9008","addr":"경기도 수원시 영통구 망포동 649-38번지 진성프라자 105호","indutype":"일반휴게음식 - 스넥","category":"restaurant"},{"name":"황정자발효음식연구원","tel":"031-111-1111","addr":"경기도 수원시 영통구 망포동 649-38번지 진성프라자","indutype":"일반휴게음식 - 일반한식","category":"restaurant"}]},{"lat":"37.237244176","long":"127.05819235","imageIndex":4,"items":[{"name":"24시전주명가콩나물국밥","tel":"070-1111-1111","addr":"경기도 수원시 영통구 망포동 570-5번지 뉴LG프라자 108,109","indutype":"일반휴게음식 - 일반한식","category":"restaurant"},{"name":"뉴","tel":"031-206-4353","addr":"경기도 수원시 영통구 망포동 570-5번지 뉴LG프라자 601호","indutype":"일반휴게음식 - 일반한식","category":"restaurant"},{"name":"더돈","tel":"031-206-0328","addr":"경기도 수원시 영통구 망포동 570-5번지 뉴LG프라자 202호","indutype":"일반휴게음식 - 일반한식","category":"restaurant"},{"name":"레비/(주)알트","tel":"031-202-9915","addr":"경기도 수원시 영통구 망포동 570-5번지 뉴LG프라자105호,201호","indutype":"일반휴게음식 - 주점","category":"restaurant"},{"name":"신주쿠카레","tel":"","addr":"경기도 수원시 영통구 망포동 570-5번지 1층 106,107호","indutype":"일반휴게음식 - 일반한식","category":"restaurant"},{"name":"일품왕만두찐빵","tel":"031-203-8355","addr":"경기도 수원시 영통구 망포동 570-5번지 뉴엘지프라자 104호","indutype":"일반휴게음식 - 스넥","category":"restaurant"},{"name":"주식회사알트","tel":"031-202-2272","addr":"경기도 수원시 영통구 망포동 570-5번지 뉴엘지프라자 201호","indutype":"일반휴게음식 - 일반한식","category":"restaurant"}]},{"lat":"37.243577443","long":"127.060282","imageIndex":4,"items":[{"name":"355커피","tel":"031-203-3550","addr":"경기도 수원시 영통구 망포동 355-23번지","indutype":"일반휴게음식 - 서양음식","category":"restaurant"}]},{"lat":"37.239155056","long":"127.05669488","imageIndex":4,"items":[{"name":"5.5닭갈비","tel":"031-226-4025","addr":"경기도 수원시 영통구 망포동 540-5번지 나눔빌딩","indutype":"일반휴게음식 - 일반한식","category":"restaurant"},{"name":"고향솥단지삼겹살(신영통점)","tel":"031-205-3363","addr":"경기도 수원시 영통구 망포동 540-5번지","indutype":"일반휴게음식 - 일반한식","category":"restaurant"},{"name":"동해참치","tel":"031-273-6336","addr":"경기도 수원시 영통구 망포동 540-5번지 나눔빌딩","indutype":"일반휴게음식 - 일식·회집","category":"restaurant"},{"name":"미소야","tel":"031-273-8765","addr":"경기도 수원시 영통구 망포동 540-5번지 나눔빌딩 1층 3호","indutype":"일반휴게음식 - 일반한식","category":"restaurant"},{"name":"양씨부엌","tel":"031-205-9009","addr":"경기도 수원시 영통구 망포동 540-5번지 나눔빌딩 1층 5호","indutype":"일반휴게음식 - 일반한식","category":"restaurant"}]},{"lat":"37.237738872","long":"127.06002964","imageIndex":4,"items":[{"name":"59쌀피자망포점","tel":"031-204-5982","addr":"경기도 수원시 영통구 망포동 485-3번지 1층","indutype":"일반휴게음식 - 서양음식","category":"restaurant"},{"name":"페리카나","tel":"031-206-2266","addr":"경기도 수원시 영통구 망포동 485-3번지","indutype":"일반휴게음식 - 주점","category":"restaurant"}]},{"lat":"37.239578705","long":"127.05633454","imageIndex":4,"items":[{"name":"79대포수원망포점","tel":"070-4268-1111","addr":"경기도 수원시 영통구 망포동 386번지 센트럴타워 1층 119호","indutype":"일반휴게음식 - 일반한식","category":"restaurant"},{"name":"노랑통닭","tel":"031-203-5504","addr":"경기도 수원시 영통구 망포동 386번지 센트럴타워 110호","indutype":"일반휴게음식 - 스넥","category":"restaurant"},{"name":"더갓 (The GOD)","tel":"","addr":"경기도 수원시 영통구 망포동 386번지 센트럴타워 308호","indutype":"일반휴게음식 - 일반한식","category":"restaurant"},{"name":"렉스","tel":"","addr":"경기도 수원시 영통구 망포동 386번지 센트럴타워 210호","indutype":"일반휴게음식 - 일반한식","category":"restaurant"},{"name":"맘스터치(Mom''s Touch)","tel":"031-206-0456","addr":"경기도 수원시 영통구 망포동 386번지 센트럴타워107,108","indutype":"일반휴게음식 - 서양음식","category":"restaurant"},{"name":"매홀고기촌","tel":"031-273-7288","addr":"경기도 수원시 영통구 망포동 386번지 센트럴타워 109호","indutype":"일반휴게음식 - 일반한식","category":"restaurant"},{"name":"미스터오징어","tel":"031-273-7717","addr":"경기도 수원시 영통구 망포동 386번지 센트럴타워 115,116호","indutype":"일반휴게음식 - 일반한식","category":"restaurant"},{"name":"본죽(망포점)","tel":"031-273-1599","addr":"경기도 수원시 영통구 망포동 386번지 센트럴타워 1층 118-1호","indutype":"일반휴게음식 - 일반한식","category":"restaurant"},{"name":"빨간석쇠구이 망포점","tel":"031-206-0239","addr":"경기도 수원시 영통구 망포동 386번지 센트럴타워 1층 120호","indutype":"일반휴게음식 - 주점","category":"restaurant"},{"name":"삼국지제철수산","tel":"031-205-7351","addr":"경기도 수원시 영통구 망포동 386번지 센트럴타워 211,212호","indutype":"일반휴게음식 - 일반한식","category":"restaurant"},{"name":"쉐프의부대찌개","tel":"031-205-5670","addr":"경기도 수원시 영통구 망포동 386번지 센트럴타워 205호","indutype":"일반휴게음식 - 일반한식","category":"restaurant"},{"name":"신수작","tel":"031-205-9255","addr":"경기도 수원시 영통구 망포동 386번지 센트럴타워 121호","indutype":"일반휴게음식 - 일반한식","category":"restaurant"},{"name":"이삭토스트 (태장사거리점)","tel":"031-203-2492","addr":"경기도 수원시 영통구 망포동 386번지 센트럴타워 1층 113호","indutype":"일반휴게음식 - 서양음식","category":"restaurant"},{"name":"커피에반하다","tel":"031-206-4900","addr":"경기도 수원시 영통구 망포동 386번지 센트럴타워 1층 104호","indutype":"일반휴게음식 - 서양음식","category":"restaurant"},{"name":"태영 생막창","tel":"031-205-9371","addr":"경기도 수원시 영통구 망포동 386번지 센트럴타워 123호","indutype":"일반휴게음식 - 일식·회집","category":"restaurant"},{"name":"피자알볼로 신영통점","tel":"031-203-8495","addr":"경기도 수원시 영통구 망포동 386번지 센트럴타워 105호","indutype":"일반휴게음식 - 서양음식","category":"restaurant"}]},{"lat":"37.241462594","long":"127.05469045","imageIndex":4,"items":[{"name":"Ringo(링고)","tel":"031-208-0240","addr":"경기도 수원시 영통구 망포동 369-6번지","indutype":"일반휴게음식 - 일식·회집","category":"restaurant"},{"name":"아미더치커피","tel":"031-204-7973","addr":"경기도 수원시 영통구 망포동 369-6번지","indutype":"일반휴게음식 - 서양음식","category":"restaurant"}]},{"lat":"37.239300307","long":"127.05424945","imageIndex":4,"items":[{"name":"가마로닭강정 신영통점","tel":"031-204-7292","addr":"경기도 수원시 영통구 망포동 378번지 정석그린프라자 107호","indutype":"일반휴게음식 - 스넥","category":"restaurant"},{"name":"금촌샤브칼국수","tel":"031-205-5636","addr":"경기도 수원시 영통구 망포동 378번지 정석그린프라자 202호","indutype":"일반휴게음식 - 일반한식","category":"restaurant"},{"name":"해비치만화카페","tel":"","addr":"경기도 수원시 영통구 망포동 378번지 정석그린프라자 402호","indutype":"일반휴게음식 - 서양음식","category":"restaurant"}]},{"lat":"37.238713936","long":"127.05583807","imageIndex":4,"items":[{"name":"가비앙","tel":"031-111-1111","addr":"경기도 수원시 영통구 망포동 543-2번지 센타프라자 B03-04호","indutype":"일반휴게음식 - 서양음식","category":"restaurant"},{"name":"굽네치킨","tel":"031-203-9492","addr":"경기도 수원시 영통구 망포동 543-2번지 센타프라자 102호","indutype":"일반휴게음식 - 스넥","category":"restaurant"},{"name":"스마일명품찹쌀꽈배기","tel":"031-307-3947","addr":"경기도 수원시 영통구 망포동 543-2번지 센타프라자 101호","indutype":"일반휴게음식 - 스넥","category":"restaurant"},{"name":"혜화동돈까스극장","tel":"031-111-1111","addr":"경기도 수원시 영통구 망포동 543-2번지 센타프라자 1층 108호","indutype":"일반휴게음식 - 일반한식","category":"restaurant"}]},{"lat":"37.238910971","long":"127.0584415","imageIndex":4,"items":[{"name":"강돼박 정육식당","tel":"031-205-2235","addr":"경기도 수원시 영통구 망포동 537-1번지 나동 1호","indutype":"일반휴게음식 - 일반한식","category":"restaurant"}]},{"lat":"37.236328123","long":"127.05133995","imageIndex":4,"items":[{"name":"고기가정육식당","tel":"031-203-6200","addr":"경기도 수원시 영통구 망포동 650-43번지 1층","indutype":"일반휴게음식 - 일반한식","category":"restaurant"}]},{"lat":"37.241823782","long":"127.05288748","imageIndex":4,"items":[{"name":"골목집","tel":"031-223-5214","addr":"경기도 수원시 영통구 망포동 293번지 101호","indutype":"일반휴게음식 - 일반한식","category":"restaurant"}]},{"lat":"37.238243358","long":"127.06022161","imageIndex":4,"items":[{"name":"광명이네순대곱창","tel":"031-206-1387","addr":"경기도 수원시 영통구 망포동 485-5번지","indutype":"일반휴게음식 - 일반한식","category":"restaurant"},{"name":"후라이드참잘하는집","tel":"031-203-4589","addr":"경기도 수원시 영통구 망포동 485-5번지 1층 103호","indutype":"일반휴게음식 - 일반한식","category":"restaurant"}]},{"lat":"37.238823094","long":"127.05347152","imageIndex":4,"items":[{"name":"광야닭발망포점","tel":"031-0000-0000","addr":"경기도 수원시 영통구 망포동 651-4번지 3층 일부 오로라휘트니스","indutype":"일반휴게음식 - 일반한식","category":"restaurant"},{"name":"대머리칼국수 (망포점)","tel":"031-273-2338","addr":"경기도 수원시 영통구 망포동 651-4번지","indutype":"일반휴게음식 - 일반한식","category":"restaurant"}]},{"lat":"37.245048158","long":"127.05592139","imageIndex":4,"items":[{"name":"김밥천국","tel":"031-206-3009","addr":"경기도 수원시 영통구 망포동 322-3번지 골든스퀘어 103호","indutype":"일반휴게음식 - 일반한식","category":"restaurant"},{"name":"깐부치킨","tel":"031-205-5689","addr":"경기도 수원시 영통구 망포동 322-3번지 외12필지골든스퀘어133","indutype":"일반휴게음식 - 스넥","category":"restaurant"},{"name":"닐리비스트로(수원망포역점)","tel":"031-205-3877","addr":"경기도 수원시 영통구 망포동 322-3번지 외12필지 골든스퀘어 1층 110호","indutype":"일반휴게음식 - 서양음식","category":"restaurant"},{"name":"생활맥주 망포점","tel":"031-206-8025","addr":"경기도 수원시 영통구 망포동 322-3번지 골든스퀘어 1층 124호","indutype":"일반휴게음식 - 주점","category":"restaurant"},{"name":"써브웨이수원망포역점","tel":"031-205-5508","addr":"경기도 수원시 영통구 망포동 322-3번지 골든스퀘어 1층 116호","indutype":"일반휴게음식 - 일반한식","category":"restaurant"},{"name":"이디야 망포역점","tel":"031-203-4355","addr":"경기도 수원시 영통구 망포동 322-3번지 골든스퀘어 115호","indutype":"일반휴게음식 - 서양음식","category":"restaurant"},{"name":"전티마이베트남쌀국수(망포점)","tel":"","addr":"경기도 수원시 영통구 망포동 322-3번지 골든스퀘어 108호","indutype":"일반휴게음식 - 서양음식","category":"restaurant"},{"name":"정지영커피로스터즈","tel":"","addr":"경기도 수원시 영통구 망포동 322-3번지 골든스퀘어 1층 111호","indutype":"일반휴게음식 - 서양음식","category":"restaurant"},{"name":"청년다방망포역점","tel":"031-203-4597","addr":"경기도 수원시 영통구 망포동 322-3번지 골든스퀘어 1층 120호","indutype":"일반휴게음식 - 스넥","category":"restaurant"},{"name":"카페메트로","tel":"070-4222-7333","addr":"경기도 수원시 영통구 망포동 322-3번지 골든스퀘어 B108호","indutype":"일반휴게음식 - 서양음식","category":"restaurant"},{"name":"컴포즈망포역점","tel":"02-1577-0000","addr":"경기도 수원시 영통구 망포동 322-3번지 골든스퀘어 104호","indutype":"일반휴게음식 - 서양음식","category":"restaurant"},{"name":"하태우 노란황태","tel":"031-202-0939","addr":"경기도 수원시 영통구 망포동 322-3번지 골든스퀘어 125호","indutype":"일반휴게음식 - 일반한식","category":"restaurant"},{"name":"호차킨하우스망포역점","tel":"031-203-5727","addr":"경기도 수원시 영통구 망포동 322-3번지 골든스퀘어 117호","indutype":"일반휴게음식 - 스넥","category":"restaurant"},{"name":"혼다라멘 영통점","tel":"031-111-1111","addr":"경기도 수원시 영통구 망포동 322-3번지 골든스퀘어 119호","indutype":"일반휴게음식 - 일반한식","category":"restaurant"},{"name":"흑화당 수원망포점","tel":"031-202-3988","addr":"경기도 수원시 영통구 망포동 322-3번지 골든스퀘어 105호","indutype":"일반휴게음식 - 서양음식","category":"restaurant"}]},{"lat":"37.239272077","long":"127.05694289","imageIndex":4,"items":[{"name":"까르본치킨","tel":"031-202-1549","addr":"경기도 수원시 영통구 망포동 539번지","indutype":"일반휴게음식 - 스넥","category":"restaurant"},{"name":"당당국수","tel":"","addr":"경기도 수원시 영통구 망포동 539번지 1층 일부","indutype":"일반휴게음식 - 일반한식","category":"restaurant"},{"name":"대동집","tel":"031-202-3345","addr":"경기도 수원시 영통구 망포동 539번지","indutype":"일반휴게음식 - 일반한식","category":"restaurant"},{"name":"동네술집","tel":"031-306-1555","addr":"경기도 수원시 영통구 망포동 539번지 1층","indutype":"일반휴게음식 - 일반한식","category":"restaurant"}]},{"lat":"37.239687736","long":"127.05428352","imageIndex":4,"items":[{"name":"꼬자야양꼬치","tel":"","addr":"경기도 수원시 영통구 망포동 372번지 2층 202호","indutype":"일반휴게음식 - 중국식","category":"restaurant"},{"name":"스쿨푸드 영통딜리버리점","tel":"031-273-0411","addr":"경기도 수원시 영통구 망포동 372번지 2층 203호","indutype":"일반휴게음식 - 일반한식","category":"restaurant"},{"name":"여시막창","tel":"031-204-2888","addr":"경기도 수원시 영통구 망포동 372번지 206호","indutype":"일반휴게음식 - 일반한식","category":"restaurant"},{"name":"주식회사 형제짬뽕","tel":"031-206-0011","addr":"경기도 수원시 영통구 망포동 372번지 205호","indutype":"일반휴게음식 - 중국식","category":"restaurant"},{"name":"호천당","tel":"","addr":"경기도 수원시 영통구 망포동 372번지 201호","indutype":"일반휴게음식 - 일반한식","category":"restaurant"},{"name":"훈훈한커피","tel":"070-5234-2744","addr":"경기도 수원시 영통구 망포동 372번지 2층 207호","indutype":"일반휴게음식 - 서양음식","category":"restaurant"}]},{"lat":"37.237987853","long":"127.04664162","imageIndex":4,"items":[{"name":"넝쿨식당","tel":"031-204-6838","addr":"경기도 수원시 영통구 망포동 221-13번지 1층","indutype":"일반휴게음식 - 일반한식","category":"restaurant"}]},{"lat":"37.238519266","long":"127.04717159","imageIndex":4,"items":[{"name":"네네치킨엔봉구스밥버거 망포점","tel":"031-205-9284","addr":"경기도 수원시 영통구 망포동 223-9번지 1층","indutype":"일반휴게음식 - 스넥","category":"restaurant"},{"name":"봉화칼국수","tel":"031-206-0255","addr":"경기도 수원시 영통구 망포동 223-9번지","indutype":"일반휴게음식 - 일반한식","category":"restaurant"}]},{"lat":"37.240658499","long":"127.05944581","imageIndex":4,"items":[{"name":"니어바이","tel":"031-205-6026","addr":"경기도 수원시 영통구 망포동 416-21번지 1층 101,102호","indutype":"일반휴게음식 - 서양음식","category":"restaurant"},{"name":"배달삼겹 돼지되지","tel":"","addr":"경기도 수원시 영통구 망포동 416-21번지 1층","indutype":"일반휴게음식 - 일반한식","category":"restaurant"}]},{"lat":"37.239325922","long":"127.05741626","imageIndex":4,"items":[{"name":"달봉감자 신영통점","tel":"031-202-2585","addr":"경기도 수원시 영통구 망포동 539-1번지","indutype":"일반휴게음식 - 일반한식","category":"restaurant"},{"name":"마성의짜글이","tel":"031-204-3045","addr":"경기도 수원시 영통구 망포동 539-1번지 1층","indutype":"일반휴게음식 - 일반한식","category":"restaurant"}]},{"lat":"37.238189589","long":"127.05961301","imageIndex":4,"items":[{"name":"달빛바다","tel":"031-206-0060","addr":"경기도 수원시 영통구 망포동 485-4번지 1층","indutype":"일반휴게음식 - 일식·회집","category":"restaurant"}]},{"lat":"37.243658432","long":"127.0604962","imageIndex":4,"items":[{"name":"대박","tel":"031-203-9403","addr":"경기도 수원시 영통구 망포동 355-2번지","indutype":"일반휴게음식 - 일반한식","category":"restaurant"}]},{"lat":"37.247688907","long":"127.05427768","imageIndex":4,"items":[{"name":"대성각","tel":"031-206-2533","addr":"경기도 수원시 영통구 망포동 10-8번지","indutype":"일반휴게음식 - 중국식","category":"restaurant"}]},{"lat":"37.235272115","long":"127.05555393","imageIndex":4,"items":[{"name":"도일처","tel":"031-204-8282","addr":"경기도 수원시 영통구 망포동 599-7번지 1층","indutype":"일반휴게음식 - 중국식","category":"restaurant"}]},{"lat":"37.237857579","long":"127.05667142","imageIndex":4,"items":[{"name":"동대문엽기떡볶이 망포점","tel":"031-206-8595","addr":"경기도 수원시 영통구 망포동 558번지 신영통알파빌딩 108호","indutype":"일반휴게음식 - 일반한식","category":"restaurant"},{"name":"이디야 커피","tel":"031-202-1476","addr":"경기도 수원시 영통구 망포동 558번지 엘지탑프라자 107호","indutype":"일반휴게음식 - 서양음식","category":"restaurant"}]},{"lat":"37.245905199","long":"127.05349879","imageIndex":4,"items":[{"name":"동수원갈비","tel":"031-206-2822","addr":"경기도 수원시 영통구 망포동 26번지","indutype":"일반휴게음식 - 일반한식","category":"restaurant"}]},{"lat":"37.237630856","long":"127.05980417","imageIndex":4,"items":[{"name":"두발로","tel":"031-204-2855","addr":"경기도 수원시 영통구 망포동 485-16번지 남도빌딩지층일부","indutype":"일반휴게음식 - 주점","category":"restaurant"},{"name":"용초밥","tel":"","addr":"경기도 수원시 영통구 망포동 485-16번지 102호","indutype":"일반휴게음식 - 일식·회집","category":"restaurant"}]},{"lat":"37.239352787","long":"127.05777691","imageIndex":4,"items":[{"name":"뒷고기랑막창","tel":"031-273-2229","addr":"경기도 수원시 영통구 망포동 538번지","indutype":"일반휴게음식 - 일반한식","category":"restaurant"},{"name":"몽스비어망포점","tel":"031-206-4942","addr":"경기도 수원시 영통구 망포동 538번지 1층 일부","indutype":"일반휴게음식 - 일반한식","category":"restaurant"},{"name":"불타는 안창살","tel":"","addr":"경기도 수원시 영통구 망포동 538번지 104호","indutype":"일반휴게음식 - 일반한식","category":"restaurant"},{"name":"전뱅이","tel":"031-234-6126","addr":"경기도 수원시 영통구 망포동 538번지 1층","indutype":"일반휴게음식 - 주점","category":"restaurant"},{"name":"족발야시장망포점","tel":"031-225-4969","addr":"경기도 수원시 영통구 망포동 538번지 1층 105,106호","indutype":"일반휴게음식 - 일반한식","category":"restaurant"}]},{"lat":"37.235191301","long":"127.05492281","imageIndex":4,"items":[{"name":"딩고","tel":"070-4242-5959","addr":"경기도 수원시 영통구 망포동 599-1번지","indutype":"일반휴게음식 - 서양음식","category":"restaurant"}]},{"lat":"37.241154266","long":"127.05902919","imageIndex":4,"items":[{"name":"또봉이통닭망포점","tel":"031-203-7275","addr":"경기도 수원시 영통구 망포동 417-2번지 103호","indutype":"일반휴게음식 - 스넥","category":"restaurant"},{"name":"위드블럭","tel":"031-203-2376","addr":"경기도 수원시 영통구 망포동 417-2번지 3층 일부호","indutype":"일반휴게음식 - 서양음식","category":"restaurant"},{"name":"지니아","tel":"031-202-8255","addr":"경기도 수원시 영통구 망포동 417-2번지","indutype":"일반휴게음식 - 서양음식","category":"restaurant"},{"name":"채선당 망포역점","tel":"031-206-0097","addr":"경기도 수원시 영통구 망포동 417-2번지 102.103호","indutype":"일반휴게음식 - 일반한식","category":"restaurant"}]},{"lat":"37.240828112","long":"127.06266915","imageIndex":4,"items":[{"name":"뚱스수제돈까스떡볶이","tel":"031-205-8028","addr":"경기도 수원시 영통구 망포동 509-2번지 영통 마젤란21 아파트(2단지)","indutype":"일반휴게음식 - 스넥","category":"restaurant"}]},{"lat":"37.237576473","long":"127.06046903","imageIndex":4,"items":[{"name":"마포주물럭1호","tel":"031-203-6110","addr":"경기도 수원시 영통구 망포동 483-1번지 월드빌딩 1층","indutype":"일반휴게음식 - 일반한식","category":"restaurant"},{"name":"코리안바베큐","tel":"031-204-3335","addr":"경기도 수원시 영통구 망포동 483-1번지 월드빌딩 102호","indutype":"일반휴게음식 - 주점","category":"restaurant"},{"name":"투다리","tel":"031-205-5532","addr":"경기도 수원시 영통구 망포동 483-1번지 DMB미용실 102호","indutype":"일반휴게음식 - 주점","category":"restaurant"}]},{"lat":"37.242022019","long":"127.05286507","imageIndex":4,"items":[{"name":"망포세꼬시","tel":"031-203-8083","addr":"경기도 수원시 영통구 망포동 291-18번지 102호","indutype":"일반휴게음식 - 일식·회집","category":"restaurant"}]},{"lat":"37.238849888","long":"127.05402375","imageIndex":4,"items":[{"name":"망포순대","tel":"031-204-9890","addr":"경기도 수원시 영통구 망포동 651-6번지 1층","indutype":"일반휴게음식 - 일반한식","category":"restaurant"},{"name":"피엠푸드 망포점","tel":"031-202-8281","addr":"경기도 수원시 영통구 망포동 651-6번지","indutype":"일반휴게음식 - 일반한식","category":"restaurant"}]},{"lat":"37.239272837","long":"127.05525243","imageIndex":4,"items":[{"name":"메가엠지씨커피 수원망포점","tel":"070-6201-9253","addr":"경기도 수원시 영통구 망포동 380-1번지 엘지프라자 1층 104호","indutype":"일반휴게음식 - 서양음식","category":"restaurant"},{"name":"신전떡볶이","tel":"031-273-7771","addr":"경기도 수원시 영통구 망포동 380-1번지 엘지프라자 1층 106호","indutype":"일반휴게음식 - 스넥","category":"restaurant"},{"name":"정다믄김밥천국","tel":"031-273-1008","addr":"경기도 수원시 영통구 망포동 380-1번지 엘지프라자 1층 103호","indutype":"일반휴게음식 - 스넥","category":"restaurant"}]},{"lat":"37.238885293","long":"127.05547756","imageIndex":4,"items":[{"name":"명랑쌀핫도그 태장사거리점","tel":"031-111-1111","addr":"경기도 수원시 영통구 망포동 544-11번지 망포프라자 1층 109호","indutype":"일반휴게음식 - 일반한식","category":"restaurant"},{"name":"아마스빈 신영통점","tel":"031-273-2227","addr":"경기도 수원시 영통구 망포동 544-11번지 망포프라자 1층 108호","indutype":"일반휴게음식 - 서양음식","category":"restaurant"}]},{"lat":"37.238821735","long":"127.0565594","imageIndex":4,"items":[{"name":"미스사이공 망포점","tel":"031-202-0420","addr":"경기도 수원시 영통구 망포동 542-11번지 중앙프라자 1층","indutype":"일반휴게음식 - 일반한식","category":"restaurant"}]},{"lat":"37.240465884","long":"127.06616253","imageIndex":4,"items":[{"name":"바른치킨 수원대선초점","tel":"031-205-5822","addr":"경기도 수원시 영통구 망포동 727번지 이편한세상영통2차2단지 1층 106호","indutype":"일반휴게음식 - 스넥","category":"restaurant"},{"name":"빠다리아","tel":"031-202-9542","addr":"경기도 수원시 영통구 망포동 727번지 e편한세상상가동 1층 206동 104,105호","indutype":"일반휴게음식 - 서양음식","category":"restaurant"},{"name":"심쿵","tel":"031-273-4654","addr":"경기도 수원시 영통구 망포동 727번지 e편한세상 영통2차 2단지 상가동 102호","indutype":"일반휴게음식 - 스넥","category":"restaurant"}]},{"lat":"37.23968752","long":"127.05477939","imageIndex":4,"items":[{"name":"배가족발","tel":"031-206-0917","addr":"경기도 수원시 영통구 망포동 382-3번지 101-6호","indutype":"일반휴게음식 - 일반한식","category":"restaurant"},{"name":"수원칼국수","tel":"031-8050-3126","addr":"경기도 수원시 영통구 망포동 382-3번지 망포동 e-타운II 1층 103호","indutype":"일반휴게음식 - 일반한식","category":"restaurant"},{"name":"카페웨스트로스터스","tel":"","addr":"경기도 수원시 영통구 망포동 382-3번지 101-3호","indutype":"일반휴게음식 - 서양음식","category":"restaurant"}]},{"lat":"37.237432428","long":"127.06022099","imageIndex":4,"items":[{"name":"배서방족발집","tel":"031-202-7797","addr":"경기도 수원시 영통구 망포동 483번지 1층 102호","indutype":"일반휴게음식 - 일반한식","category":"restaurant"}]},{"lat":"37.246184012","long":"127.05467114","imageIndex":4,"items":[{"name":"벌교추어탕","tel":"031-202-3377","addr":"경기도 수원시 영통구 망포동 20-1번지 성일빌딩 1층","indutype":"일반휴게음식 - 일반한식","category":"restaurant"}]},{"lat":"37.244019139","long":"127.05988787","imageIndex":4,"items":[{"name":"보물섬","tel":"","addr":"경기도 수원시 영통구 망포동 345-10번지 1층","indutype":"일반휴게음식 - 일반한식","category":"restaurant"}]},{"lat":"37.242570775","long":"127.05489407","imageIndex":4,"items":[{"name":"본도시락 수원망포역점","tel":"031-203-4282","addr":"경기도 수원시 영통구 망포동 297-8번지 가동 1층 2호","indutype":"일반휴게음식 - 일반한식","category":"restaurant"},{"name":"치킨플러스 수원망포점","tel":"031-273-8295","addr":"경기도 수원시 영통구 망포동 297-8번지 가동 1층","indutype":"일반휴게음식 - 스넥","category":"restaurant"}]},{"lat":"37.241327375","long":"127.05483686","imageIndex":4,"items":[{"name":"불스떡볶이(영통점)","tel":"031-205-1002","addr":"경기도 수원시 영통구 망포동 370-3번지 1층 101호","indutype":"일반휴게음식 - 스넥","category":"restaurant"},{"name":"커피앤드","tel":"031-202-4884","addr":"경기도 수원시 영통구 망포동 370-3번지 태장프라자 103호","indutype":"일반휴게음식 - 서양음식","category":"restaurant"},{"name":"피자스쿨망포점","tel":"031-205-4848","addr":"경기도 수원시 영통구 망포동 370-3번지 1층","indutype":"일반휴게음식 - 서양음식","category":"restaurant"}]},{"lat":"37.239605191","long":"127.05752916","imageIndex":4,"items":[{"name":"브라더양꼬치","tel":"","addr":"경기도 수원시 영통구 망포동 387-2번지 1층","indutype":"일반휴게음식 - 중국식","category":"restaurant"},{"name":"수원다찌","tel":"031-306-6666","addr":"경기도 수원시 영통구 망포동 387-2번지 영화교회 가동 1층","indutype":"일반휴게음식 - 일반한식","category":"restaurant"}]},{"lat":"37.236381995","long":"127.05180203","imageIndex":4,"items":[{"name":"브라운 썸","tel":"","addr":"경기도 수원시 영통구 망포동 649-24번지 1층 103호","indutype":"일반휴게음식 - 서양음식","category":"restaurant"},{"name":"치킨신드롬(떡갈비)","tel":"031-202-5295","addr":"경기도 수원시 영통구 망포동 649-24번지 102호","indutype":"일반휴게음식 - 서양음식","category":"restaurant"}]},{"lat":"37.237829572","long":"127.0587788","imageIndex":4,"items":[{"name":"비어스토리","tel":"031-205-6552","addr":"경기도 수원시 영통구 망포동 532-1번지 세호프라자 105호","indutype":"일반휴게음식 - 주점","category":"restaurant"},{"name":"장호덕손만두신영통점","tel":"031-204-1114","addr":"경기도 수원시 영통구 망포동 532-1번지 세호프라자 1층 103호","indutype":"일반휴게음식 - 일반한식","category":"restaurant"},{"name":"택이네조개전골","tel":"031-203-6111","addr":"경기도 수원시 영통구 망포동 532-1번지 세호프라자 108호","indutype":"일반휴게음식 - 일반한식","category":"restaurant"},{"name":"해수본점","tel":"031-206-8898","addr":"경기도 수원시 영통구 망포동 532-1번지 세호프라자 108호","indutype":"일반휴게음식 - 일반한식","category":"restaurant"}]},{"lat":"37.239019865","long":"127.05677367","imageIndex":4,"items":[{"name":"비어퀸","tel":"","addr":"경기도 수원시 영통구 망포동 540-15번지 2층","indutype":"일반휴게음식 - 주점","category":"restaurant"}]},{"lat":"37.240049541","long":"127.05097043","imageIndex":4,"items":[{"name":"비에이치씨치킨","tel":"031-205-5595","addr":"경기도 수원시 영통구 망포동 683번지 망포마을현대2차아이파크 상가동 101호","indutype":"일반휴게음식 - 스넥","category":"restaurant"}]},{"lat":"37.241408772","long":"127.05413818","imageIndex":4,"items":[{"name":"빨강쭈꾸미","tel":"031-205-8383","addr":"경기도 수원시 영통구 망포동 295-2번지 해피프라자 101호","indutype":"일반휴게음식 - 일반한식","category":"restaurant"},{"name":"코바코(신영통망포점)","tel":"031-203-4811","addr":"경기도 수원시 영통구 망포동 295-2번지 해피프라자 103호","indutype":"일반휴게음식 - 스넥","category":"restaurant"}]},{"lat":"37.244154953","long":"127.0585017","imageIndex":4,"items":[{"name":"뽕뜨락피자 영통1호점","tel":"031-204-0304","addr":"경기도 수원시 영통구 망포동 341번지 103호","indutype":"일반휴게음식 - 서양음식","category":"restaurant"}]},{"lat":"37.239326754","long":"127.05557929","imageIndex":4,"items":[{"name":"사랑채","tel":"031-203-6537","addr":"경기도 수원시 영통구 망포동 383-1지하1층","indutype":"일반휴게음식 - 일반한식","category":"restaurant"}]},{"lat":"37.247464432","long":"127.05244036","imageIndex":4,"items":[{"name":"삼삼오","tel":"031-206-3357","addr":"경기도 수원시 영통구 망포동 12-7번지 B동 1층","indutype":"일반휴게음식 - 일반한식","category":"restaurant"},{"name":"싱싱포차","tel":"031-206-2526","addr":"경기도 수원시 영통구 망포동 12-7번지","indutype":"일반휴게음식 - 일반한식","category":"restaurant"},{"name":"쿵로스터리","tel":"031-222-5006","addr":"경기도 수원시 영통구 망포동 12-7번지 1층","indutype":"일반휴게음식 - 서양음식","category":"restaurant"}]},{"lat":"37.238850326","long":"127.05299821","imageIndex":4,"items":[{"name":"서래갈매기 신영통점","tel":"031-203-8283","addr":"경기도 수원시 영통구 망포동 651-1번지 신영통동원프라자 101호","indutype":"일반휴게음식 - 일반한식","category":"restaurant"},{"name":"성신제피자영통점","tel":"031-202-9889","addr":"경기도 수원시 영통구 망포동 651-1번지 연번지 101호","indutype":"일반휴게음식 - 서양음식","category":"restaurant"},{"name":"신성푸드","tel":"031-204-9282","addr":"경기도 수원시 영통구 망포동 651-1번지 외1필지 동원프라자 105호","indutype":"일반휴게음식 - 주점","category":"restaurant"},{"name":"영광굴비백반집","tel":"031-206-3925","addr":"경기도 수원시 영통구 망포동 651-1번지 신영통동원프라자 1층 111호","indutype":"일반휴게음식 - 일반한식","category":"restaurant"},{"name":"컵뽁이","tel":"070-8241-0266","addr":"경기도 수원시 영통구 망포동 651-1번지 신영통동원프라자 101호","indutype":"일반휴게음식 - 스넥","category":"restaurant"},{"name":"파란달이뜨는날에","tel":"031-203-3640","addr":"경기도 수원시 영통구 망포동 651-1번지 신영통동원프라자 104호","indutype":"일반휴게음식 - 서양음식","category":"restaurant"},{"name":"팔복가마솥족발","tel":"031-202-6607","addr":"경기도 수원시 영통구 망포동 651-1번지 신영통동원프라자 106호","indutype":"일반휴게음식 - 일반한식","category":"restaurant"},{"name":"해피타임","tel":"031-205-5232","addr":"경기도 수원시 영통구 망포동 651-1번지 신영통동원프라자 109호","indutype":"일반휴게음식 - 주점","category":"restaurant"}]},{"lat":"37.2437399","long":"127.0597186","imageIndex":4,"items":[{"name":"서른책방","tel":"031-111-1111","addr":"경기도 수원시 영통구 망포동 345-15번지 1층 1호","indutype":"일반휴게음식 - 서양음식","category":"restaurant"}]},{"lat":"37.245932369","long":"127.05317196","imageIndex":4,"items":[{"name":"서울24시감자탕해장국","tel":"031-273-2324","addr":"경기도 수원시 영통구 망포동 28-9번지 2,3층","indutype":"일반휴게음식 - 일반한식","category":"restaurant"}]},{"lat":"37.23918305","long":"127.05453111","imageIndex":4,"items":[{"name":"수경수제만두","tel":"031-202-2555","addr":"경기도 수원시 영통구 망포동 380-4번지 1층","indutype":"일반휴게음식 - 일반한식","category":"restaurant"}]},{"lat":"37.23840589","long":"127.05950048","imageIndex":4,"items":[{"name":"수산포차청해","tel":"031-206-2325","addr":"경기도 수원시 영통구 망포동 486-6번지 상가1층102호~103호 102호","indutype":"일반휴게음식 - 일반한식","category":"restaurant"}]},{"lat":"37.241490141","long":"127.05349584","imageIndex":4,"items":[{"name":"쉐브론","tel":"031-206-0004","addr":"경기도 수원시 영통구 망포동 295번지 에덴하우스 101호","indutype":"일반휴게음식 - 서양음식","category":"restaurant"}]},{"lat":"37.244100721","long":"127.05886232","imageIndex":4,"items":[{"name":"시골집","tel":"031-204-8288","addr":"경기도 수원시 영통구 망포동 342번지","indutype":"일반휴게음식 - 일반한식","category":"restaurant"}]},{"lat":"37.237487737","long":"127.05758398","imageIndex":4,"items":[{"name":"신사량도참치","tel":"031-206-3788","addr":"경기도 수원시 영통구 망포동 569-3번지 1층","indutype":"일반휴게음식 - 일반한식","category":"restaurant"}]},{"lat":"37.243957135","long":"127.05762247","imageIndex":4,"items":[{"name":"썬치킨앤호프","tel":"031-206-5592","addr":"경기도 수원시 영통구 망포동 693번지 망포마을현대1차아이파크 108동 109호","indutype":"일반휴게음식 - 주점","category":"restaurant"}]},{"lat":"37.241598357","long":"127.05328178","imageIndex":4,"items":[{"name":"아부지하면돼지","tel":"","addr":"경기도 수원시 영통구 망포동 296-12번지 1층","indutype":"일반휴게음식 - 일반한식","category":"restaurant"}]},{"lat":"37.240517436","long":"127.05252597","imageIndex":4,"items":[{"name":"안나의 테이블","tel":"070-4190-4726","addr":"경기도 수원시 영통구 망포동 690번지 망포마을동수원엘지빌리지 상가동 1층 111호","indutype":"일반휴게음식 - 서양음식","category":"restaurant"}]},{"lat":"37.247626404","long":"127.05294766","imageIndex":4,"items":[{"name":"암퇘지89","tel":"031-202-4242","addr":"경기도 수원시 영통구 망포동 12-12번지 2층","indutype":"일반휴게음식 - 일반한식","category":"restaurant"}]},{"lat":"37.247355136","long":"127.05516786","imageIndex":4,"items":[{"name":"압구정한식부페","tel":"031-273-8289","addr":"경기도 수원시 영통구 망포동 5-21번지 1층","indutype":"일반휴게음식 - 일반한식","category":"restaurant"}]},{"lat":"37.242936065","long":"127.04224907","imageIndex":4,"items":[{"name":"얌샘김밥수원망포점","tel":"031-8002-1288","addr":"경기도 수원시 영통구 망포동 760번지 영통아이파크캐슬2단지 상가 B동 1층 105호","indutype":"일반휴게음식 - 일반한식","category":"restaurant"}]},{"lat":"37.244073401","long":"127.0594709","imageIndex":4,"items":[{"name":"열정분식소 영통점","tel":"031-8001-0123","addr":"경기도 수원시 영통구 망포동 345-8번지 황오빌딩 1층 2호","indutype":"일반휴게음식 - 스넥","category":"restaurant"}]},{"lat":"37.241490021","long":"127.05377759","imageIndex":4,"items":[{"name":"오굿치킨","tel":"031-206-5988","addr":"경기도 수원시 영통구 망포동 295-3번지 해피홈타운 104호","indutype":"일반휴게음식 - 스넥","category":"restaurant"}]},{"lat":"37.246463164","long":"127.05505453","imageIndex":4,"items":[{"name":"오봉자싸롱 망포역점","tel":"031-202-2079","addr":"경기도 수원시 영통구 망포동 3-12번지 신진빌딩 A동 1층","indutype":"일반휴게음식 - 주점","category":"restaurant"}]},{"lat":"37.247437092","long":"127.05317296","imageIndex":4,"items":[{"name":"원푸드","tel":"031-223-5214","addr":"경기도 수원시 영통구 망포동 11-12번지","indutype":"일반휴게음식 - 일반한식","category":"restaurant"},{"name":"제이푸드(J푸드)","tel":"031-203-1245","addr":"경기도 수원시 영통구 망포동 11-12번지 두더지컴퓨터세탁 1동 108호","indutype":"일반휴게음식 - 일반한식","category":"restaurant"},{"name":"주식회사 딜리버리텐","tel":"031-202-8818","addr":"경기도 수원시 영통구 망포동 11-12번지 타운빌딩 101,102호","indutype":"일반휴게음식 - 서양음식","category":"restaurant"},{"name":"지배온삼겹","tel":"031-2039-9966","addr":"경기도 수원시 영통구 망포동 11-12번지 두더지컴퓨터세탁 105호","indutype":"일반휴게음식 - 일반한식","category":"restaurant"},{"name":"치요남치킨 수원영통점","tel":"031-204-5598","addr":"경기도 수원시 영통구 망포동 11-12번지 타운빌딩 103호","indutype":"일반휴게음식 - 스넥","category":"restaurant"},{"name":"흥부찜닭 삼겹본능 공수간","tel":"031-202-3936","addr":"경기도 수원시 영통구 망포동 11-12번지 두더지컴퓨터세탁 1층 104호","indutype":"일반휴게음식 - 일반한식","category":"restaurant"}]},{"lat":"37.238829612","long":"127.05900493","imageIndex":4,"items":[{"name":"이웃집양념통닭","tel":"031-204-0221","addr":"경기도 수원시 영통구 망포동 527-6번지","indutype":"일반휴게음식 - 스넥","category":"restaurant"}]},{"lat":"37.239154685","long":"127.0575063","imageIndex":4,"items":[{"name":"전설의스테이크갈비","tel":"031-203-1475","addr":"경기도 수원시 영통구 망포동 540-39번지 2층","indutype":"일반휴게음식 - 일반한식","category":"restaurant"}]},{"lat":"37.238605158","long":"127.05728051","imageIndex":4,"items":[{"name":"전주청기와감자탕","tel":"031-206-8900","addr":"경기도 수원시 영통구 망포동 541-1번지 1층 전체","indutype":"일반휴게음식 - 일반한식","category":"restaurant"}]},{"lat":"37.232879126","long":"127.04627806","imageIndex":4,"items":[{"name":"제주할망돈가","tel":"031-252-5292","addr":"경기도 수원시 영통구 망포동 669-1번지","indutype":"일반휴게음식 - 일반한식","category":"restaurant"}]},{"lat":"37.247518046","long":"127.05349987","imageIndex":4,"items":[{"name":"지단김밥","tel":"031-217-4030","addr":"경기도 수원시 영통구 망포동 9-2번지 유진빌딩","indutype":"일반휴게음식 - 스넥","category":"restaurant"},{"name":"푸라닭","tel":"031-203-5321","addr":"경기도 수원시 영통구 망포동 9-2번지 유진빌딩 2층","indutype":"일반휴게음식 - 스넥","category":"restaurant"},{"name":"한식부페집밥","tel":"070-8117-0642","addr":"경기도 수원시 영통구 망포동 9-2번지 유진빌딩 3층","indutype":"일반휴게음식 - 일반한식","category":"restaurant"}]},{"lat":"37.236632266","long":"127.0564677","imageIndex":4,"items":[{"name":"짱구네김밥","tel":"031-204-7113","addr":"경기도 수원시 영통구 망포동 698주상가111","indutype":"일반휴게음식 - 일반한식","category":"restaurant"}]},{"lat":"37.233077129","long":"127.04688669","imageIndex":4,"items":[{"name":"챕터","tel":"","addr":"경기도 수원시 영통구 망포동 668-5번지 1층","indutype":"일반휴게음식 - 서양음식","category":"restaurant"}]},{"lat":"37.243849338","long":"127.05691235","imageIndex":4,"items":[{"name":"청년피자 수원영통점","tel":"031-205-4428","addr":"경기도 수원시 영통구 망포동 693번지 망포마을현대1차아이파크 상가 103호","indutype":"일반휴게음식 - 서양음식","category":"restaurant"}]},{"lat":"37.240632533","long":"127.05716926","imageIndex":4,"items":[{"name":"치킨싸롱","tel":"031-203-0165","addr":"경기도 수원시 영통구 망포동 723번지 한양수자인에듀파크 121동 101호","indutype":"일반휴게음식 - 주점","category":"restaurant"}]},{"lat":"37.247328421","long":"127.0544465","imageIndex":4,"items":[{"name":"카페 내러티브","tel":"031-111-1111","addr":"경기도 수원시 영통구 망포동 5-15번지 207호","indutype":"일반휴게음식 - 서양음식","category":"restaurant"}]},{"lat":"37.238991904","long":"127.05877965","imageIndex":4,"items":[{"name":"카페디벨로먼트","tel":"","addr":"경기도 수원시 영통구 망포동 527-1번지 1층","indutype":"일반휴게음식 - 서양음식","category":"restaurant"}]},{"lat":"37.235688218","long":"127.0517565","imageIndex":4,"items":[{"name":"카페릴리","tel":"","addr":"경기도 수원시 영통구 망포동 649-71번지 107호","indutype":"일반휴게음식 - 서양음식","category":"restaurant"},{"name":"황부자치킨","tel":"031-202-3338","addr":"경기도 수원시 영통구 망포동 649-71번지","indutype":"일반휴게음식 - 스넥","category":"restaurant"}]},{"lat":"37.242630415","long":"127.06219722","imageIndex":4,"items":[{"name":"카페세실","tel":"031-203-5944","addr":"경기도 수원시 영통구 망포동 725번지 영통SKVIEW 102호","indutype":"일반휴게음식 - 서양음식","category":"restaurant"}]},{"lat":"37.241329428","long":"127.04992313","imageIndex":4,"items":[{"name":"카페크레마","tel":"070-8899-2119","addr":"경기도 수원시 영통구 망포동 255-2번지 1층 101호 102호","indutype":"일반휴게음식 - 서양음식","category":"restaurant"},{"name":"현죽망포점","tel":"031-204-5224","addr":"경기도 수원시 영통구 망포동 255-2번지 국제프라자 1층 106-1호","indutype":"일반휴게음식 - 일반한식","category":"restaurant"}]},{"lat":"37.236606514","long":"127.05356019","imageIndex":4,"items":[{"name":"카페크레마","tel":"070-8899-2119","addr":"경기도 수원시 영통구 망포동 686번지 동수원엘지빌리지 상가 106호","indutype":"일반휴게음식 - 서양음식","category":"restaurant"}]},{"lat":"37.241217048","long":"127.05963782","imageIndex":4,"items":[{"name":"커피베이 망포점","tel":"031-203-3008","addr":"경기도 수원시 영통구 망포동 417-26번지 B01호","indutype":"일반휴게음식 - 서양음식","category":"restaurant"}]},{"lat":"37.236021637","long":"127.05166656","imageIndex":4,"items":[{"name":"커피정류장","tel":"031-204-0888","addr":"경기도 수원시 영통구 망포동 650-146번지","indutype":"일반휴게음식 - 일반한식","category":"restaurant"}]},{"lat":"37.247049615","long":"127.0532516","imageIndex":4,"items":[{"name":"커피좋은날 망포점","tel":"031-205-9601","addr":"경기도 수원시 영통구 망포동 8-12번지","indutype":"일반휴게음식 - 일반한식","category":"restaurant"}]},{"lat":"37.24323717","long":"127.05572853","imageIndex":4,"items":[{"name":"파스쿠찌수원망포점","tel":"031-204-8497","addr":"경기도 수원시 영통구 망포동 332-7번지 1층 101호","indutype":"일반휴게음식 - 서양음식","category":"restaurant"}]},{"lat":"37.239551382","long":"127.0569769","imageIndex":4,"items":[{"name":"펀비어킹","tel":"031-202-9932","addr":"경기도 수원시 영통구 망포동 387번지 1층","indutype":"일반휴게음식 - 주점","category":"restaurant"}]},{"lat":"37.237550001","long":"127.05930825","imageIndex":4,"items":[{"name":"할매손맛집","tel":"031-206-1387","addr":"경기도 수원시 영통구 망포동 530-15번지 1층 일부","indutype":"일반휴게음식 - 일반한식","category":"restaurant"}]},{"lat":"37.234516967","long":"127.05153037","imageIndex":4,"items":[{"name":"홍익돈까스(영통망포점)","tel":"031-204-2343","addr":"경기도 수원시 영통구 망포동 649-16번지","indutype":"일반휴게음식 - 일반한식","category":"restaurant"}]},{"lat":"37.239577682","long":"127.05855469","imageIndex":4,"items":[{"name":"황소곱창","tel":"031-223-5214","addr":"경기도 수원시 영통구 망포동 524-4번지","indutype":"일반휴게음식 - 일반한식","category":"restaurant"}]},{"lat":"37.239632159","long":"127.05766442","imageIndex":4,"items":[{"name":"훈이네 구이","tel":"031-203-9700","addr":"경기도 수원시 영통구 망포동 387-3번지","indutype":"일반휴게음식 - 일반한식","category":"restaurant"}]}]