[{"lat":"37.676048657","long":"127.20638743","imageIndex":17,"items":[{"name":"(주)남양동산","tel":"031-528-4444","addr":"경기도 남양주시 진건읍 송능리 48-3번지","indutype":"용역 서비스 - 가례서비스업","category":"other"}]},{"lat":"37.670438332","long":"127.21508841","imageIndex":17,"items":[{"name":"(주)블루오션","tel":"02-918-0112","addr":"경기도 남양주시 진건읍 송능리 33-33번지","indutype":"회원제형태 - 기타4","category":"other"},{"name":"남양정비기기","tel":"031-527-4199","addr":"경기도 남양주시 진건읍 송능리 33-33번지","indutype":"기타 - 기계공구","category":"other"}]},{"lat":"37.675943967","long":"127.20439211","imageIndex":17,"items":[{"name":"(주)쉬레코","tel":"031-573-4672","addr":"경기도 남양주시 진건읍 송능리 49-21번지","indutype":"신변잡화 - 기타잡화","category":"other"}]},{"lat":"37.670195134","long":"127.21505371","imageIndex":17,"items":[{"name":"(주)주오","tel":"031-562-1999","addr":"경기도 남양주시 진건읍 송능리 33-34번지 2동","indutype":"문화.취미 - 애완동물","category":"other"}]},{"lat":"37.669970905","long":"127.2041946","imageIndex":17,"items":[{"name":"(주)케이씨씨총판대리점현대아이창호","tel":"031-528-6317","addr":"경기도 남양주시 진건읍 송능리 241번지","indutype":"건축자재 - 기타건축자재","category":"other"},{"name":"kcc총판대리점 현대아이창호","tel":"031-528-6317","addr":"경기도 남양주시 진건읍 송능리 241번지","indutype":"건축자재 - 보일러·펌프·샷시","category":"other"},{"name":"이베스타","tel":"","addr":"경기도 남양주시 진건읍 송능리 241번지","indutype":"건축자재 - 목재·석재·철물","category":"other"}]},{"lat":"37.659724995","long":"127.21050206","imageIndex":17,"items":[{"name":"(주)플러스렌탈","tel":"031-573-6033","addr":"경기도 남양주시 진건읍 송능리 319번지","indutype":"가구 - 기타가구","category":"other"}]},{"lat":"37.647524993","long":"127.20053072","imageIndex":17,"items":[{"name":"(주)피에스라인","tel":"070-8667-8117","addr":"경기도 남양주시 진건읍 송능리 390-5번지","indutype":"용역 서비스 - 종합용역","category":"other"}]},{"lat":"37.640805528","long":"127.20480702","imageIndex":17,"items":[{"name":"CI아키","tel":"031-529-8959","addr":"경기도 남양주시 진건읍 송능리 571번지","indutype":"건축자재 - 인테리어전문","category":"other"},{"name":"대영 디자인","tel":"031-574-7535","addr":"경기도 남양주시 진건읍 송능리 571번지 2동","indutype":"건축자재 - 기타건축자재","category":"other"},{"name":"주식회사 한국","tel":"031-1577-2047","addr":"경기도 남양주시 진건읍 송능리 571번지","indutype":"직물 - 카페트,커튼,천막,지물","category":"other"},{"name":"지앤에프(GNF)유통","tel":"031-528-3440","addr":"경기도 남양주시 진건읍 송능리 571번지","indutype":"서적문구 - 완구점","category":"other"}]},{"lat":"37.672692898","long":"127.19819444","imageIndex":17,"items":[{"name":"GS25남양주송능점","tel":"","addr":"경기도 남양주시 진건읍 송능리 121-38번지","indutype":"유통업 영리 - 편 의 점","category":"other"},{"name":"태운케미칼","tel":"031-529-9754","addr":"경기도 남양주시 진건읍 송능리 121-38번지","indutype":"건축자재 - 페인트","category":"other"}]},{"lat":"37.672965312","long":"127.20230975","imageIndex":17,"items":[{"name":"HS건철","tel":"031-551-8844","addr":"경기도 남양주시 진건읍 송능리 160-19번지","indutype":"건축자재 - 목재·석재·철물","category":"other"}]},{"lat":"37.670577342","long":"127.20255272","imageIndex":17,"items":[{"name":"SS제화","tel":"031-528-8523","addr":"경기도 남양주시 진건읍 송능리 250-2번지","indutype":"신변잡화 - 제화","category":"other"}]},{"lat":"37.671996103","long":"127.20002886","imageIndex":17,"items":[{"name":"강남태양열","tel":"031-528-1822","addr":"경기도 남양주시 진건읍 송능리 136-1","indutype":"건축자재 - 보일러·펌프·샷시","category":"other"}]},{"lat":"37.672138948","long":"127.20081134","imageIndex":17,"items":[{"name":"강원상사","tel":"031-575-4697","addr":"경기도 남양주시 진건읍 송능리 152-2번지 1층","indutype":"유통업 영리 - 기타유통업","category":"other"}]},{"lat":"37.672689938","long":"127.19997402","imageIndex":17,"items":[{"name":"꽃사슴안전","tel":"031-529-7256","addr":"경기도 남양주시 진건읍 송능리 130-2번지 3호","indutype":"기타 - 기계공구","category":"other"},{"name":"철원공사","tel":"031-573-6629","addr":"경기도 남양주시 진건읍 송능리 130-2번지","indutype":"건축자재 - 목재·석재·철물","category":"other"}]},{"lat":"37.643692839","long":"127.20233345","imageIndex":17,"items":[{"name":"다산냉열","tel":"031-571-9285","addr":"경기도 남양주시 진건읍 송능리 506-2번지","indutype":"전기제품 - 냉열기기","category":"other"}]},{"lat":"37.671251138","long":"127.2089133","imageIndex":17,"items":[{"name":"다산자동문","tel":"031-591-2734","addr":"경기도 남양주시 진건읍 송능리 39-1번지 1동","indutype":"건축자재 - 기타건축자재","category":"other"}]},{"lat":"37.669331734","long":"127.20911202","imageIndex":17,"items":[{"name":"닥터벨로(Dr. Velo)","tel":"","addr":"경기도 남양주시 진건읍 송능리 195-1번지","indutype":"수리서비스 - 레져용품수리","category":"other"}]},{"lat":"37.672743256","long":"127.20041622","imageIndex":17,"items":[{"name":"대동엔지니어링","tel":"070-8272-7344","addr":"경기도 남양주시 진건읍 송능리 129-4","indutype":"용역 서비스 - 기타용역서비스","category":"other"}]},{"lat":"37.66963664","long":"127.21499545","imageIndex":17,"items":[{"name":"대림기업","tel":"031-572-5238","addr":"경기도 남양주시 진건읍 송능리 16-4번지","indutype":"건축자재 - 기타건축자재","category":"other"}]},{"lat":"37.661638722","long":"127.21849734","imageIndex":17,"items":[{"name":"대한불교조계종봉인사","tel":"031-574-5585","addr":"경기도 남양주시 진건읍 송능리 307번지 봉인사","indutype":"기타 - 비영리/대상","category":"other"},{"name":"봉인사 청림공원","tel":"031-527-5678","addr":"경기도 남양주시 진건읍 송능리 307번지 외2필지","indutype":"회원제형태 - 기타4","category":"other"}]},{"lat":"37.670000113","long":"127.20291388","imageIndex":17,"items":[{"name":"대한예수교장로회성신장로교회","tel":"031-529-9939","addr":"경기도 남양주시 진건읍 송능리 236번지","indutype":"기타 - 기타 전문점","category":"other"}]},{"lat":"37.676466621","long":"127.20433684","imageIndex":17,"items":[{"name":"더미 더미","tel":"","addr":"경기도 남양주시 진건읍 송능리 49-7번지 2동 1층","indutype":"의류 - 정장","category":"other"}]},{"lat":"37.64738943","long":"127.20077964","imageIndex":17,"items":[{"name":"덕바위 육묘장","tel":"031-574-8180","addr":"경기도 남양주시 진건읍 송능리 393번지","indutype":"농업 - 비료,사료,종자","category":"other"}]},{"lat":"37.672771989","long":"127.19939615","imageIndex":17,"items":[{"name":"두원건철","tel":"031-528-9808","addr":"경기도 남양주시 진건읍 송능리 115-10번지 외1필지 103호","indutype":"건축자재 - 목재·석재·철물","category":"other"},{"name":"에어존","tel":"031-111-1111","addr":"경기도 남양주시 진건읍 송능리 115-10번지 1층 2호","indutype":"기타 - 기계공구","category":"other"}]},{"lat":"37.648388664","long":"127.20128087","imageIndex":17,"items":[{"name":"드랍슛(Drop Shoot)","tel":"031-529-1386","addr":"경기도 남양주시 진건읍 송능리 388-2번지","indutype":"신변잡화 - 기타잡화","category":"other"}]},{"lat":"37.641052799","long":"127.20245102","imageIndex":17,"items":[{"name":"라라아쿠아","tel":"031-573-1814","addr":"경기도 남양주시 진건읍 송능리 562-1번지 1동","indutype":"문화.취미 - 수족관","category":"other"}]},{"lat":"37.640003009","long":"127.19986498","imageIndex":17,"items":[{"name":"라씨에르","tel":"031-528-4410","addr":"경기도 남양주시 진건읍 송능리 529번지 1층","indutype":"가구 - 일반가구","category":"other"}]},{"lat":"37.673022498","long":"127.20045097","imageIndex":17,"items":[{"name":"메트로펫","tel":"031-529-2022","addr":"경기도 남양주시 진건읍 송능리 113-6번지","indutype":"문화.취미 - 애완동물","category":"other"}]},{"lat":"37.670862892","long":"127.20938829","imageIndex":17,"items":[{"name":"모스트 MOST","tel":"031-573-4457","addr":"경기도 남양주시 진건읍 송능리 188번지 외 6필지","indutype":"건축자재 - 인테리어전문","category":"other"}]},{"lat":"37.673083375","long":"127.19633652","imageIndex":17,"items":[{"name":"베스트부동산공인중개사사무소","tel":"031-529-0019","addr":"경기도 남양주시 진건읍 송능리 105-1","indutype":"용역 서비스 - 부동산 중개·임대","category":"other"}]},{"lat":"37.671219586","long":"127.20103559","imageIndex":17,"items":[{"name":"베스트영","tel":"","addr":"경기도 남양주시 진건읍 송능리 141-2번지 제우스상사 1동 1층","indutype":"유통업 영리 - 기타유통업","category":"other"}]},{"lat":"37.673020975","long":"127.20135776","imageIndex":17,"items":[{"name":"벽지촌","tel":"031-574-2733","addr":"경기도 남양주시 진건읍 송능리 158-7","indutype":"직물 - 카페트,커튼,천막,지물","category":"other"}]},{"lat":"37.669390517","long":"127.20639192","imageIndex":17,"items":[{"name":"본퍼니처","tel":"031-573-5767","addr":"경기도 남양주시 진건읍 송능리 178-5번지","indutype":"가구 - 일반가구","category":"other"},{"name":"트윈스진열장","tel":"031-529-6381","addr":"경기도 남양주시 진건읍 송능리 178-5","indutype":"가구 - 일반가구","category":"other"}]},{"lat":"37.672328111","long":"127.20083451","imageIndex":17,"items":[{"name":"봉구시스템","tel":"031-591-6148","addr":"경기도 남양주시 진건읍 송능리 151-7번지 성진빌라 A동 301호","indutype":"건축자재 - 인테리어전문","category":"other"}]},{"lat":"37.671083624","long":"127.21697181","imageIndex":17,"items":[{"name":"사단법인한국냉동공조시공관리협회","tel":"031-528-0471","addr":"경기도 남양주시 진건읍 송능리 15-25번지 2층","indutype":"기타 - 비영리/비대상","category":"other"}]},{"lat":"37.647469528","long":"127.20136907","imageIndex":17,"items":[{"name":"서광디엔피","tel":"031-571-5396","addr":"경기도 남양주시 진건읍 송능리 394-13번지 나동 1층","indutype":"서적문구 - 출판 및 인쇄물","category":"other"}]},{"lat":"37.672494443","long":"127.19834127","imageIndex":17,"items":[{"name":"세븐일레븐남양주송능점","tel":"","addr":"경기도 남양주시 진건읍 송능리 121-3","indutype":"유통업 영리 - 편 의 점","category":"other"}]},{"lat":"37.672193803","long":"127.20033542","imageIndex":17,"items":[{"name":"세븐일레븐송능공단점","tel":"031-1577-0711","addr":"경기도 남양주시 진건읍 송능리 134-1번지","indutype":"유통업 영리 - 편 의 점","category":"other"}]},{"lat":"37.669243969","long":"127.20777431","imageIndex":17,"items":[{"name":"세진실업","tel":"02-714-5358","addr":"경기도 남양주시 진건읍 송능리 179-1번지","indutype":"신변잡화 - 기타잡화","category":"other"}]},{"lat":"37.669830361","long":"127.20733388","imageIndex":17,"items":[{"name":"신라산업","tel":"031-574-6543","addr":"경기도 남양주시 진건읍 송능리 181-2번지","indutype":"주방용구 - 주방용구","category":"other"}]},{"lat":"37.672526037","long":"127.20100506","imageIndex":17,"items":[{"name":"신발할인매장","tel":"031-528-4249","addr":"경기도 남양주시 진건읍 송능리 150-5번지","indutype":"신변잡화 - 신발","category":"other"},{"name":"일광","tel":"031-575-2490","addr":"경기도 남양주시 진건읍 송능리 150-5번지","indutype":"건축자재 - 조명기구","category":"other"}]},{"lat":"37.674078147","long":"127.19406074","imageIndex":17,"items":[{"name":"아이온플러스","tel":"031-574-0230","addr":"경기도 남양주시 진건읍 송능리 85-5번지","indutype":"서적문구 - 출판 및 인쇄물","category":"other"}]},{"lat":"37.648496399","long":"127.20150778","imageIndex":17,"items":[{"name":"아지펫","tel":"031-555-6544","addr":"경기도 남양주시 진건읍 송능리 388-1번지 1층","indutype":"문화.취미 - 애완동물","category":"other"}]},{"lat":"37.670977486","long":"127.20034353","imageIndex":17,"items":[{"name":"여우야","tel":"031-573-1090","addr":"경기도 남양주시 진건읍 송능리 139-4 월드빌라 103-304 29/","indutype":"의류 - 정장","category":"other"}]},{"lat":"37.675222515","long":"127.19397299","imageIndex":17,"items":[{"name":"오거토크코리아","tel":"031-574-2202","addr":"경기도 남양주시 진건읍 송능리 68-3번지","indutype":"기타 - 기계공구","category":"other"}]},{"lat":"37.668995014","long":"127.2110266","imageIndex":17,"items":[{"name":"우리인테리어","tel":"031-528-5765","addr":"경기도 남양주시 진건읍 송능리 30-2번지","indutype":"직물 - 카페트,커튼,천막,지물","category":"other"}]},{"lat":"37.64869335","long":"127.20225617","imageIndex":17,"items":[{"name":"웰빙코리아","tel":"","addr":"경기도 남양주시 진건읍 송능리 401-4번지","indutype":"신변잡화 - 기타잡화","category":"other"}]},{"lat":"37.674493788","long":"127.20417282","imageIndex":17,"items":[{"name":"유니온가구","tel":"031-529-9920","addr":"경기도 남양주시 진건읍 송능리 50-10번지","indutype":"가구 - 일반가구","category":"other"}]},{"lat":"37.66844437","long":"127.20646867","imageIndex":17,"items":[{"name":"제로크린(ZEROCLEAN)","tel":"031-661-9072","addr":"경기도 남양주시 진건읍 송능리 208-2번지","indutype":"신변잡화 - 기타잡화","category":"other"}]},{"lat":"37.6708312","long":"127.20161263","imageIndex":17,"items":[{"name":"제이다이아 연마","tel":"070-4001-2376","addr":"경기도 남양주시 진건읍 송능리 252번지","indutype":"기타 - 기계공구","category":"other"}]},{"lat":"37.641609803","long":"127.20339292","imageIndex":17,"items":[{"name":"주식회사 예감","tel":"031-521-8006","addr":"경기도 남양주시 진건읍 송능리 557-1번지","indutype":"건축자재 - 기타건축자재","category":"other"}]},{"lat":"37.670606475","long":"127.20130599","imageIndex":17,"items":[{"name":"주식회사 타임머신발열침대","tel":"031-575-3633","addr":"경기도 남양주시 진건읍 송능리 253번지","indutype":"가구 - 일반가구","category":"other"}]},{"lat":"37.669389792","long":"127.20681129","imageIndex":17,"items":[{"name":"주식회사 하이큐정밀","tel":"031-574-2358","addr":"경기도 남양주시 진건읍 송능리 180-2번지","indutype":"기타 - 기계공구","category":"other"}]},{"lat":"37.669248138","long":"127.2053601","imageIndex":17,"items":[{"name":"주식회사 햇빛나눔 경기지사","tel":"031-529-5128","addr":"경기도 남양주시 진건읍 송능리 210번지","indutype":"용역 서비스 - 기타용역서비스","category":"other"}]},{"lat":"37.669993593","long":"127.20672226","imageIndex":17,"items":[{"name":"주식회사비아트","tel":"031-527-6070","addr":"경기도 남양주시 진건읍 송능리 183-4번지","indutype":"건축자재 - 인테리어전문","category":"other"}]},{"lat":"37.669385609","long":"127.20400034","imageIndex":17,"items":[{"name":"주식회사신화제약","tel":"031-529-7021","addr":"경기도 남양주시 진건읍 송능리 237-3번지","indutype":"신변잡화 - 기타잡화","category":"other"}]},{"lat":"37.674305301","long":"127.20375291","imageIndex":17,"items":[{"name":"주식회사이카루스","tel":"031-527-1602","addr":"경기도 남양주시 진건읍 송능리 50-2","indutype":"의류 - 정장","category":"other"}]},{"lat":"37.669556638","long":"127.20930533","imageIndex":17,"items":[{"name":"주식회사탐진기획","tel":"031-575-0070","addr":"경기도 남양주시 진건읍 송능리 199-8","indutype":"용역 서비스 - 종합용역","category":"other"}]},{"lat":"37.641471357","long":"127.20000482","imageIndex":17,"items":[{"name":"주식회사투바이유통사업단","tel":"031-528-4040","addr":"경기도 남양주시 진건읍 송능리 549-7번지 사릉로","indutype":"사무통신 - 통신기기","category":"other"}]},{"lat":"37.670993564","long":"127.20149971","imageIndex":17,"items":[{"name":"주식회사파워테크놀러지","tel":"","addr":"경기도 남양주시 진건읍 송능리 143-2번지","indutype":"전기제품 - 기타전기제품","category":"other"}]},{"lat":"37.649333035","long":"127.20225788","imageIndex":17,"items":[{"name":"주식회사피엔지테크놀러지","tel":"031-527-2802","addr":"경기도 남양주시 진건읍 송능리 376-1번지","indutype":"의류 - 정장","category":"other"}]},{"lat":"37.673109101","long":"127.2025255","imageIndex":17,"items":[{"name":"준디자인폰테가구","tel":"031-575-2001","addr":"경기도 남양주시 진건읍 송능리 160-4번지 (송능리160-17,건물2동일체)","indutype":"가구 - 일반가구","category":"other"},{"name":"폰테가구백화점","tel":"031-528-5870","addr":"경기도 남양주시 진건읍 송능리 160-4번지 외1(160-17)","indutype":"가구 - 일반가구","category":"other"}]},{"lat":"37.67235681","long":"127.19983712","imageIndex":17,"items":[{"name":"줄눈스토어","tel":"031-574-2064","addr":"경기도 남양주시 진건읍 송능리 133번지 2층 (133외1필지)","indutype":"건축자재 - 인테리어전문","category":"other"}]},{"lat":"37.671417341","long":"127.20130815","imageIndex":17,"items":[{"name":"중앙측량설계사무소","tel":"031-573-2446","addr":"경기도 남양주시 진건읍 송능리 141-1번지","indutype":"용역 서비스 - 사무서비스","category":"other"}]},{"lat":"37.669578759","long":"127.20694782","imageIndex":17,"items":[{"name":"진명특수곡유리","tel":"031-873-8921","addr":"경기도 남양주시 진건읍 송능리 180번지","indutype":"건축자재 - 보일러·펌프·샷시","category":"other"}]},{"lat":"37.6398584","long":"127.20013652","imageIndex":17,"items":[{"name":"천마산용품점","tel":"031-595-4241","addr":"경기도 남양주시 진건읍 송능리 530","indutype":"레져용품 - 스포츠·레져용품","category":"other"}]},{"lat":"37.643053995","long":"127.2018332","imageIndex":17,"items":[{"name":"첼로우드","tel":"031-575-5122","addr":"경기도 남양주시 진건읍 송능리 518-1번지","indutype":"가구 - 일반가구","category":"other"}]},{"lat":"37.649170727","long":"127.20233677","imageIndex":17,"items":[{"name":"캠프랜드","tel":"031-595-9164","addr":"경기도 남양주시 진건읍 송능리 401-7","indutype":"레져용품 - 스포츠·레져용품","category":"other"}]},{"lat":"37.67069464","long":"127.20245103","imageIndex":17,"items":[{"name":"태성메디텍","tel":"031-5734-7620","addr":"경기도 남양주시 진건읍 송능리 250-1번지","indutype":"레져용품 - 스포츠·레져용품","category":"other"}]},{"lat":"37.641586908","long":"127.20094553","imageIndex":17,"items":[{"name":"태양주방","tel":"031-575-0604","addr":"경기도 남양주시 진건읍 송능리 553-3번지","indutype":"기타 - 기타 전문점","category":"other"}]},{"lat":"37.66893984","long":"127.20650403","imageIndex":17,"items":[{"name":"한국프레나","tel":"031-527-2564","addr":"경기도 남양주시 진건읍 송능리 209-5","indutype":"전기제품 - 가전제품","category":"other"}]},{"lat":"37.671914372","long":"127.20041402","imageIndex":17,"items":[{"name":"한세무역","tel":"031-575-8284","addr":"경기도 남양주시 진건읍 송능리 137-9번지 1동","indutype":"직물 - 침구·수예점","category":"other"}]},{"lat":"37.675384712","long":"127.204776","imageIndex":17,"items":[{"name":"화이트","tel":"031-527-5312","addr":"경기도 남양주시 진건읍 송능리 50-1","indutype":"가구 - 일반가구","category":"other"}]},{"lat":"37.669303972","long":"127.20953132","imageIndex":17,"items":[{"name":"휴먼바이브","tel":"031-575-0521","addr":"경기도 남양주시 진건읍 송능리 199-1번지 2층","indutype":"회원제형태 - 기타4","category":"other"}]}]