[{"lat":"37.175300349","long":"126.68895855","items":[{"name":"고라물농원","tel":"031-357-3052","addr":"경기도 화성시 서신면 광평리 309","category":"음료식품 - 농·축·수산품"}]},{"lat":"37.174801391","long":"126.69108877","items":[{"name":"느티나무농원","tel":"031-357-2659","addr":"경기도 화성시 서신면 광평리 294-1","category":"음료식품 - 농·축·수산품"}]},{"lat":"37.171794896","long":"126.6991743","items":[{"name":"대성농자재","tel":"031-355-2106","addr":"경기도 화성시 서신면 광평리 199-4번지","category":"농업 - 기타농업관련"}]},{"lat":"37.175823394","long":"126.68912529","items":[{"name":"명가","tel":"031-355-5783","addr":"경기도 화성시 서신면 광평리 312-2번지","category":"일반휴게음식 - 일반한식"}]},{"lat":"37.180103311","long":"126.68911885","items":[{"name":"명인종합상사","tel":"070-4213-3047","addr":"경기도 화성시 서신면 광평리 360번지","category":"기타 - 기계공구"}]},{"lat":"37.176190161","long":"126.69153348","items":[{"name":"백설연차","tel":"031-356-2943","addr":"경기도 화성시 서신면 광평리 296-3번지 1동","category":"음료식품 - 기타음료식품"}]},{"lat":"37.173520624","long":"126.6905986","items":[{"name":"상아포도","tel":"031-356-4865","addr":"경기도 화성시 서신면 광평리 269-3번지","category":"음료식품 - 농·축·수산품"}]},{"lat":"37.170886122","long":"126.69617164","items":[{"name":"서신공업사","tel":"031-357-8601","addr":"경기도 화성시 서신면 광평리 221-23번지","category":"용역 서비스 - 기타용역서비스"}]},{"lat":"37.173962989","long":"126.69092332","items":[{"name":"세자매농원","tel":"031-357-3364","addr":"경기도 화성시 서신면 광평리 269-1번지","category":"회원제형태 - 기타1"},{"name":"재명침구류","tel":"031-356-8121","addr":"경기도 화성시 서신면 광평리 269-1번지","category":"직물 - 침구·수예점"}]},{"lat":"37.181520368","long":"126.6900364","items":[{"name":"숯향기","tel":"","addr":"경기도 화성시 서신면 광평리 353-7번지 1층","category":"일반휴게음식 - 일반한식"}]},{"lat":"37.172745358","long":"126.69736893","items":[{"name":"어울림레저보트","tel":"031-357-4507","addr":"경기도 화성시 서신면 광평리 195-2번지","category":"레져용품 - 스포츠·레져용품"}]},{"lat":"37.17254621","long":"126.69354141","items":[{"name":"엄마손식당","tel":"031-355-9973","addr":"경기도 화성시 서신면 광평리 232-3번지","category":"일반휴게음식 - 일반한식"}]},{"lat":"37.179051371","long":"126.68997901","items":[{"name":"원두막농원","tel":"031-357-2999","addr":"경기도 화성시 서신면 광평리 350-2번지","category":"음료식품 - 농·축·수산품"}]},{"lat":"37.176021978","long":"126.68925959","items":[{"name":"한가네농원","tel":"031-357-3341","addr":"경기도 화성시 서신면 광평리 312번지","category":"음료식품 - 농·축·수산품"}]},{"lat":"37.174997512","long":"126.6902885","items":[{"name":"흙과나무","tel":"031-357-9908","addr":"경기도 화성시 서신면 광평리 292-1번지","category":"일반휴게음식 - 일반한식"}]}]