[{"lat":"37.290444536","long":"127.63452361","imageIndex":13,"items":[{"name":"강남당구장","tel":"031-881-3909","addr":"경기도 여주시 홍문동 232-2번지 3층","indutype":"레저업소 - 당 구 장","category":"leisure"},{"name":"토르PC방","tel":"070-8441-0745","addr":"경기도 여주시 홍문동 232-2번지","indutype":"레저업소 - 기타레져업소","category":"leisure"}]},{"lat":"37.290274771","long":"127.63594311","imageIndex":13,"items":[{"name":"극장당구클럽","tel":"031-885-8822","addr":"경기도 여주시 홍문동 273번지 월드피아2040 403호 402호,403호","indutype":"레저업소 - 당 구 장","category":"leisure"}]},{"lat":"37.295666932","long":"127.6368567","imageIndex":13,"items":[{"name":"네오지오PC방","tel":"070-8235-0586","addr":"경기도 여주시 홍문동 83-1번지 명진빌딩 5층","indutype":"레저업소 - 기타레져업소","category":"leisure"},{"name":"락스타노래연습장","tel":"070-8722-5529","addr":"경기도 여주시 홍문동 83-1번지 6층","indutype":"레저업소 - 노 래 방","category":"leisure"}]},{"lat":"37.296547827","long":"127.63724754","imageIndex":13,"items":[{"name":"디 요가핏(Thee Yoga Fit)","tel":"031-883-1988","addr":"경기도 여주시 홍문동 110번지 여주빌딩 4층 402호","indutype":"레저업소 - 헬스클럽","category":"leisure"}]},{"lat":"37.291188751","long":"127.63688678","imageIndex":13,"items":[{"name":"락큐빌라이드클럽","tel":"031-881-9500","addr":"경기도 여주시 홍문동 271-10번지","indutype":"레저업소 - 당 구 장","category":"leisure"}]},{"lat":"37.28999993","long":"127.6351063","imageIndex":13,"items":[{"name":"레전드 스크린 야구존 여주점","tel":"031-886-3596","addr":"경기도 여주시 홍문동 274-6번지","indutype":"레저업소 - 기타레져업소","category":"leisure"},{"name":"레전드스크린야구존여주점","tel":"031-886-3596","addr":"경기도 여주시 홍문동 274-6번지 지하1층","indutype":"레저업소 - 기타레져업소","category":"leisure"},{"name":"롤러타요","tel":"031-886-0217","addr":"경기도 여주시 홍문동 274-6번지","indutype":"레저업소 - 기타레져업소","category":"leisure"},{"name":"여주라온볼링센타","tel":"031-885-5515","addr":"경기도 여주시 홍문동 274-6번지 공용버스터미널 지하1층","indutype":"레저업소 - 볼 링 장","category":"leisure"},{"name":"여주클라이밍센터","tel":"031-882-5421","addr":"경기도 여주시 홍문동 274-6번지 2층","indutype":"레저업소 - 기타레져업소","category":"leisure"}]},{"lat":"37.29125023","long":"127.63550019","imageIndex":13,"items":[{"name":"레전드PC존","tel":"070-4616-5555","addr":"경기도 여주시 홍문동 269-1번지","indutype":"레저업소 - 기타레져업소","category":"leisure"},{"name":"소리새노래연습장","tel":"031-881-0077","addr":"경기도 여주시 홍문동 269-1번지 명승빌딩 지하층","indutype":"레저업소 - 노 래 방","category":"leisure"}]},{"lat":"37.290132018","long":"127.63736283","imageIndex":13,"items":[{"name":"로얄노래연습장","tel":"031-882-2255","addr":"경기도 여주시 홍문동 281-5번지","indutype":"레저업소 - 노 래 방","category":"leisure"}]},{"lat":"37.29496599","long":"127.63819288","imageIndex":13,"items":[{"name":"명품 노래연습장","tel":"031-885-7952","addr":"경기도 여주시 홍문동 74-125번지","indutype":"레저업소 - 노 래 방","category":"leisure"}]},{"lat":"37.297689579","long":"127.63771954","imageIndex":13,"items":[{"name":"무지개노래연습장","tel":"031-881-1119","addr":"경기도 여주시 홍문동 5-6번지","indutype":"레저업소 - 노 래 방","category":"leisure"}]},{"lat":"37.294911386","long":"127.63661352","imageIndex":13,"items":[{"name":"불독","tel":"031-0000-0000","addr":"경기도 여주시 홍문동 73-15번지 지하1층","indutype":"레저업소 - 기타레져업소","category":"leisure"}]},{"lat":"37.295936057","long":"127.63539282","imageIndex":13,"items":[{"name":"비비텍 장구장","tel":"031-885-2105","addr":"경기도 여주시 홍문동 49-1번지","indutype":"레저업소 - 당 구 장","category":"leisure"},{"name":"비비텍노래연습장","tel":"031-885-2880","addr":"경기도 여주시 홍문동 49-1번지","indutype":"레저업소 - 노 래 방","category":"leisure"},{"name":"비비텍노래연습장","tel":"031-885-2880","addr":"경기도 여주시 홍문동 49-1번지","indutype":"레저업소 - 노 래 방","category":"leisure"},{"name":"케이팝(K-POP)노래연습장","tel":"031-885-7282","addr":"경기도 여주시 홍문동 49-1번지 2층 201호","indutype":"레저업소 - 노 래 방","category":"leisure"}]},{"lat":"37.291271167","long":"127.63663938","imageIndex":13,"items":[{"name":"빵빵노래방","tel":"031-885-5030","addr":"경기도 여주시 홍문동 271번지 지층","indutype":"레저업소 - 노 래 방","category":"leisure"}]},{"lat":"37.291110231","long":"127.63472089","imageIndex":13,"items":[{"name":"뻐꾸기노래연습장","tel":"031-885-2372","addr":"경기도 여주시 홍문동 231-9번지","indutype":"레저업소 - 노 래 방","category":"leisure"}]},{"lat":"37.295606889","long":"127.63797271","imageIndex":13,"items":[{"name":"세종빌리아드","tel":"031-886-7227","addr":"경기도 여주시 홍문동 135번지 3층","indutype":"레저업소 - 당 구 장","category":"leisure"}]},{"lat":"37.290548919","long":"127.63522367","imageIndex":13,"items":[{"name":"스타 노래연습장(뚜껑점)","tel":"031-000-0000","addr":"경기도 여주시 홍문동 274번지 2층","indutype":"레저업소 - 노 래 방","category":"leisure"}]},{"lat":"37.2954385944","long":"127.6357495443","imageIndex":13,"items":[{"name":"스타노래연습장","tel":"031-882-7688","addr":"경기도 여주시 홍문동 65-10번지","indutype":"레저업소 - 노 래 방","category":"leisure"}]},{"lat":"37.296247968","long":"127.6377187","imageIndex":13,"items":[{"name":"스타노래연습장(상동점)","tel":"","addr":"경기도 여주시 홍문동 115-2번지 1층","indutype":"레저업소 - 노 래 방","category":"leisure"}]},{"lat":"37.295302797","long":"127.63755287","imageIndex":13,"items":[{"name":"심쿵해노래연습장","tel":"031-882-8982","addr":"경기도 여주시 홍문동 74-10번지 지층","indutype":"레저업소 - 노 래 방","category":"leisure"}]},{"lat":"37.295243899","long":"127.6367742","imageIndex":13,"items":[{"name":"앵콜노래연습장","tel":"031-885-3855","addr":"경기도 여주시 홍문동 72번지","indutype":"레저업소 - 노 래 방","category":"leisure"}]},{"lat":"37.285357762","long":"127.63547342","imageIndex":13,"items":[{"name":"여주 건 주짓수","tel":"070-7425-4545","addr":"경기도 여주시 홍문동 401-8번지 206호","indutype":"레저업소 - 헬스클럽","category":"leisure"}]},{"lat":"37.290270909","long":"127.63666482","imageIndex":13,"items":[{"name":"열린노래연습장","tel":"031-886-5322","addr":"경기도 여주시 홍문동 272-2번지 지하1층","indutype":"레저업소 - 노 래 방","category":"leisure"}]},{"lat":"37.290214495","long":"127.63710415","imageIndex":13,"items":[{"name":"올래노래방","tel":"031-885-4125","addr":"경기도 여주시 홍문동 281번지","indutype":"레저업소 - 노 래 방","category":"leisure"}]},{"lat":"37.2901948893","long":"127.6357169001","imageIndex":13,"items":[{"name":"월드헬스","tel":"031-885-5595","addr":"경기도 여주시 홍문동 273번지","indutype":"레저업소 - 헬스클럽","category":"leisure"}]},{"lat":"37.29074641","long":"127.63536065","imageIndex":13,"items":[{"name":"첼시 당구장","tel":"031-123-4567","addr":"경기도 여주시 홍문동 269-5번지 세화빌딩 지층","indutype":"레저업소 - 당 구 장","category":"leisure"},{"name":"첼시노래연습장","tel":"031-884-7888","addr":"경기도 여주시 홍문동 269-5번지 외2필지","indutype":"레저업소 - 노 래 방","category":"leisure"}]},{"lat":"37.282639307","long":"127.64002873","imageIndex":13,"items":[{"name":"큐당구클럽","tel":"031-635-2000","addr":"경기도 여주시 홍문동 376-4번지","indutype":"레저업소 - 당 구 장","category":"leisure"}]},{"lat":"37.291441686","long":"127.63844518","imageIndex":13,"items":[{"name":"키즈점프랜드","tel":"031-881-3811","addr":"경기도 여주시 홍문동 287-7번지","indutype":"레저업소 - 기타레져업소","category":"leisure"}]},{"lat":"37.295747757","long":"127.63522207","imageIndex":13,"items":[{"name":"판테온 노래연습장","tel":"031-1111-111","addr":"경기도 여주시 홍문동 55번지 2층","indutype":"레저업소 - 노 래 방","category":"leisure"}]},{"lat":"37.296165605","long":"127.63627442","imageIndex":13,"items":[{"name":"풀타임PC방","tel":"031-886-7153","addr":"경기도 여주시 홍문동 35번지 중앙빌딩","indutype":"레저업소 - 기타레져업소","category":"leisure"}]},{"lat":"37.295745225","long":"127.63569572","imageIndex":13,"items":[{"name":"필노래연습장","tel":"070-7807-9134","addr":"경기도 여주시 홍문동 50-6번지","indutype":"레저업소 - 노 래 방","category":"leisure"},{"name":"히트노래연습장","tel":"031-881-6677","addr":"경기도 여주시 홍문동 50-6번지 지하1층","indutype":"레저업소 - 노 래 방","category":"leisure"}]},{"lat":"37.29071603","long":"127.63430034","imageIndex":13,"items":[{"name":"필라테스하는날","tel":"031-111-1111","addr":"경기도 여주시 홍문동 232번지","indutype":"레저업소 - 헬스클럽","category":"leisure"}]}]