[{"lat":"37.551593755","long":"127.2083119","imageIndex":4,"items":[{"name":"(THE)슈가네돈가츠","tel":"","addr":"경기도 하남시 덕풍동 743번지 트윈렉스1 107호","indutype":"일반휴게음식 - 일식·회집","category":"restaurant"},{"name":"fully fully (폴리폴리)","tel":"031-792-0052","addr":"경기도 하남시 덕풍동 743번지 트윈렉스1 A동 1층 122호","indutype":"일반휴게음식 - 서양음식","category":"restaurant"},{"name":"가마로강정풍산점","tel":"031-791-8292","addr":"경기도 하남시 덕풍동 743번지 트윈렉스 A동 122호","indutype":"일반휴게음식 - 스넥","category":"restaurant"},{"name":"강서회수산","tel":"031-794-6484","addr":"경기도 하남시 덕풍동 743번지 A동 1층 111호, 112호","indutype":"일반휴게음식 - 일반한식","category":"restaurant"},{"name":"나미꼬스시","tel":"031-792-6667","addr":"경기도 하남시 덕풍동 743번지 트윈렉스1 A동 1층 121호","indutype":"일반휴게음식 - 일식·회집","category":"restaurant"},{"name":"베리치킨","tel":"031-794-7809","addr":"경기도 하남시 덕풍동 743번지 트윈렉스1 117호","indutype":"일반휴게음식 - 스넥","category":"restaurant"},{"name":"비어스타","tel":"031-795-7723","addr":"경기도 하남시 덕풍동 743번지 A동 208,209호","indutype":"일반휴게음식 - 주점","category":"restaurant"},{"name":"삼대돈카츠","tel":"031-795-3345","addr":"경기도 하남시 덕풍동 743번지 트윈렉스 상가 1층 104호","indutype":"일반휴게음식 - 일반한식","category":"restaurant"},{"name":"시크릿","tel":"031-791-9829","addr":"경기도 하남시 덕풍동 743번지 트윈렉스 204호","indutype":"일반휴게음식 - 일반한식","category":"restaurant"},{"name":"오븐마루","tel":"031-792-1991","addr":"경기도 하남시 덕풍동 743번지 트윈렉스1 에이동1층118호,119호","indutype":"일반휴게음식 - 스넥","category":"restaurant"},{"name":"전집","tel":"031-791-4517","addr":"경기도 하남시 덕풍동 743번지 덕풍동트윈렉스1 117호","indutype":"일반휴게음식 - 일반한식","category":"restaurant"},{"name":"족발야시장","tel":"031-793-5969","addr":"경기도 하남시 덕풍동 743번지 115,116호","indutype":"일반휴게음식 - 일반한식","category":"restaurant"},{"name":"해랑","tel":"031-795-7399","addr":"경기도 하남시 덕풍동 743번지 1층 105,106호","indutype":"일반휴게음식 - 일식·회집","category":"restaurant"},{"name":"호참치&스시","tel":"031-791-5030","addr":"경기도 하남시 덕풍동 743번지 트원렉스1 A동 203호","indutype":"일반휴게음식 - 일식·회집","category":"restaurant"},{"name":"홍루이젠 덕풍점","tel":"031-796-7613","addr":"경기도 하남시 덕풍동 743번지 트윈렉스1 A동 104호","indutype":"일반휴게음식 - 스넥","category":"restaurant"}]},{"lat":"37.554790949","long":"127.20905629","imageIndex":4,"items":[{"name":"(주)리치코리아 색동면옥지점","tel":"031-793-9663","addr":"경기도 하남시 덕풍동 26-20번지","indutype":"일반휴게음식 - 일반한식","category":"restaurant"}]},{"lat":"37.55172758","long":"127.20907048","imageIndex":4,"items":[{"name":"24시 전주콩나물국밥","tel":"031-791-1489","addr":"경기도 하남시 덕풍동 742-2번지 103호,104호,105호,106호","indutype":"일반휴게음식 - 일반한식","category":"restaurant"},{"name":"강창구찹쌀진순대 하남덕풍점","tel":"031-795-8653","addr":"경기도 하남시 덕풍동 742-2번지 101호","indutype":"일반휴게음식 - 일반한식","category":"restaurant"},{"name":"하남경찰서 복지회","tel":"031-790-0325","addr":"경기도 하남시 덕풍동 742-2번지 하남경찰서","indutype":"일반휴게음식 - 위탁급식업","category":"restaurant"}]},{"lat":"37.551174852","long":"127.20567401","imageIndex":4,"items":[{"name":"59쌀피자(풍산점)","tel":"031-792-5988","addr":"경기도 하남시 덕풍동 226-30번지 1층 103호","indutype":"일반휴게음식 - 서양음식","category":"restaurant"}]},{"lat":"37.541458019","long":"127.20286419","imageIndex":4,"items":[{"name":"7080포차","tel":"031-7966-630","addr":"경기도 하남시 덕풍동 328-12번지","indutype":"일반휴게음식 - 칵테일바","category":"restaurant"},{"name":"백년족발","tel":"031-796-7892","addr":"경기도 하남시 덕풍동 328-12번지","indutype":"일반휴게음식 - 일반한식","category":"restaurant"},{"name":"안면도 생바지락칼국수","tel":"031-794-6967","addr":"경기도 하남시 덕풍동 328-12번지 1층","indutype":"일반휴게음식 - 일반한식","category":"restaurant"}]},{"lat":"37.540759367","long":"127.2004183","imageIndex":4,"items":[{"name":"89러버","tel":"031-792-1071","addr":"경기도 하남시 덕풍동 382-1번지","indutype":"일반휴게음식 - 서양음식","category":"restaurant"},{"name":"맥그릴","tel":"031-792-7692","addr":"경기도 하남시 덕풍동 382-1번지 1층","indutype":"일반휴게음식 - 스넥","category":"restaurant"},{"name":"불난쭈닭","tel":"031-765-4089","addr":"경기도 하남시 덕풍동 382-1번지 2층","indutype":"일반휴게음식 - 일반한식","category":"restaurant"},{"name":"솥뚜껑삼겹살","tel":"031-792-8956","addr":"경기도 하남시 덕풍동 382-1번지 솥뚜껑삼겹살","indutype":"일반휴게음식 - 일반한식","category":"restaurant"}]},{"lat":"37.538539394","long":"127.20252827","imageIndex":4,"items":[{"name":"??돈까스 하남점","tel":"","addr":"경기도 하남시 덕풍동 426-7번지 1층","indutype":"일반휴게음식 - 서양음식","category":"restaurant"},{"name":"아르코팜","tel":"031-796-8254","addr":"경기도 하남시 덕풍동 426-7번지 1층","indutype":"일반휴게음식 - 서양음식","category":"restaurant"}]},{"lat":"37.552824537","long":"127.20515791","imageIndex":4,"items":[{"name":"BKR버거킹하남이마트점","tel":"031-795-0237","addr":"경기도 하남시 덕풍동 736번지 하남풍산지구E-MART 1층 푸트코트내 이마트","indutype":"일반휴게음식 - 서양음식","category":"restaurant"},{"name":"더카페","tel":"070-8261-1660","addr":"경기도 하남시 덕풍동 736번지 이마트하남점1층 이마트","indutype":"일반휴게음식 - 서양음식","category":"restaurant"}]},{"lat":"37.553293997","long":"127.20981039","imageIndex":4,"items":[{"name":"EVOLVE","tel":"031-791-9959","addr":"경기도 하남시 덕풍동 31-6번지 1층","indutype":"일반휴게음식 - 서양음식","category":"restaurant"},{"name":"루나리치","tel":"031-791-6886","addr":"경기도 하남시 덕풍동 31-6번지","indutype":"일반휴게음식 - 서양음식","category":"restaurant"},{"name":"일마레 앤 더피크닉 하남","tel":"031-791-6886","addr":"경기도 하남시 덕풍동 31-6번지","indutype":"일반휴게음식 - 일반한식","category":"restaurant"}]},{"lat":"37.538294999","long":"127.20319518","imageIndex":4,"items":[{"name":"JJ카페","tel":"031-791-2478","addr":"경기도 하남시 덕풍동 419-11번지 2층","indutype":"일반휴게음식 - 주점","category":"restaurant"}]},{"lat":"37.543122484","long":"127.19889697","imageIndex":4,"items":[{"name":"NAMOO애견유치원&카페","tel":"031-793-0031","addr":"경기도 하남시 덕풍동 340-28번지","indutype":"일반휴게음식 - 서양음식","category":"restaurant"}]},{"lat":"37.539764863","long":"127.20245233","imageIndex":4,"items":[{"name":"SINCE1977나라감자탕","tel":"031-792-9238","addr":"경기도 하남시 덕풍동 415-64번지","indutype":"일반휴게음식 - 일반한식","category":"restaurant"}]},{"lat":"37.547762967","long":"127.19864885","imageIndex":4,"items":[{"name":"THE 슈가네","tel":"031-795-1245","addr":"경기도 하남시 덕풍동 212번지 1층","indutype":"일반휴게음식 - 서양음식","category":"restaurant"},{"name":"행복푸드","tel":"031-1111-1111","addr":"경기도 하남시 덕풍동 212번지","indutype":"일반휴게음식 - 일반한식","category":"restaurant"}]},{"lat":"37.538708778","long":"127.2035923","imageIndex":4,"items":[{"name":"Top고추장찌개","tel":"031-793-5767","addr":"경기도 하남시 덕풍동 412-21번지","indutype":"일반휴게음식 - 주점","category":"restaurant"}]},{"lat":"37.548553515","long":"127.21055547","imageIndex":4,"items":[{"name":"bhc(비에이치씨)덕풍점","tel":"031-793-7666","addr":"경기도 하남시 덕풍동 807-1번지","indutype":"일반휴게음식 - 스넥","category":"restaurant"}]},{"lat":"37.548183017","long":"127.21117682","imageIndex":4,"items":[{"name":"가나안","tel":"031-792-2220","addr":"경기도 하남시 덕풍동 808-3번지 1층","indutype":"일반휴게음식 - 스넥","category":"restaurant"}]},{"lat":"37.538375319","long":"127.20364798","imageIndex":4,"items":[{"name":"가마로강정","tel":"031-793-7292","addr":"경기도 하남시 덕풍동 419-23번지 1층","indutype":"일반휴게음식 - 스넥","category":"restaurant"}]},{"lat":"37.540596338","long":"127.20092704","imageIndex":4,"items":[{"name":"가마솥토방","tel":"031-793-8922","addr":"경기도 하남시 덕풍동 389-2","indutype":"일반휴게음식 - 일반한식","category":"restaurant"},{"name":"미래","tel":"031-792-4110","addr":"경기도 하남시 덕풍동 389-2번지","indutype":"일반휴게음식 - 일반한식","category":"restaurant"},{"name":"버터프라이","tel":"031-792-4110","addr":"경기도 하남시 덕풍동 389-2번지 외2필지 2층","indutype":"일반휴게음식 - 주점","category":"restaurant"}]},{"lat":"37.544489171","long":"127.20589352","imageIndex":4,"items":[{"name":"가정식백반","tel":"031-796-7727","addr":"경기도 하남시 덕풍동 285-60번지 1층","indutype":"일반휴게음식 - 일반한식","category":"restaurant"},{"name":"가정식백반","tel":"031-796-7727","addr":"경기도 하남시 덕풍동 285-60번지 1층","indutype":"일반휴게음식 - 일반한식","category":"restaurant"}]},{"lat":"37.554620927","long":"127.20838811","imageIndex":4,"items":[{"name":"갑산면옥","tel":"031-792-7768","addr":"경기도 하남시 덕풍동 62-3번지 2층","indutype":"일반휴게음식 - 일반한식","category":"restaurant"},{"name":"원할머니보쌈족발&박가부대찌개 하남미사점","tel":"031-795-5666","addr":"경기도 하남시 덕풍동 62-3번지 1층","indutype":"일반휴게음식 - 일반한식","category":"restaurant"},{"name":"자성화맛집코다리네 미사리점","tel":"031-796-0771","addr":"경기도 하남시 덕풍동 62-3번지","indutype":"일반휴게음식 - 일반한식","category":"restaurant"}]},{"lat":"37.551953674","long":"127.20858449","imageIndex":4,"items":[{"name":"강가네 닭한마리","tel":"031-794-3399","addr":"경기도 하남시 덕풍동 742번지 트윈렉스제비동116호~117호 제비-116","indutype":"일반휴게음식 - 일반한식","category":"restaurant"},{"name":"롯데리아 하남 풍산점","tel":"031-796-0096","addr":"경기도 하남시 덕풍동 742번지 트윈렉스오피스텔 B동 119,120,121,122호","indutype":"일반휴게음식 - 서양음식","category":"restaurant"},{"name":"명륜진사갈비 하남덕풍점","tel":"031-792-7011","addr":"경기도 하남시 덕풍동 742번지 트윈렉스2 111호,112호,113호,114호,115호","indutype":"일반휴게음식 - 일반한식","category":"restaurant"},{"name":"빨간모자피자 하남점","tel":"031-796-7606","addr":"경기도 하남시 덕풍동 742번지 트윈렉스오피스텔 B동 104호","indutype":"일반휴게음식 - 서양음식","category":"restaurant"},{"name":"쥬씨 하남 풍산점","tel":"031-795-5153","addr":"경기도 하남시 덕풍동 742번지 트윈렉스2 102호","indutype":"일반휴게음식 - 서양음식","category":"restaurant"},{"name":"쥬씨(하남덕풍2호점)","tel":"031-795-5153","addr":"경기도 하남시 덕풍동 742번지","indutype":"일반휴게음식 - 서양음식","category":"restaurant"},{"name":"찐한 부산돼지국밥","tel":"031-795-2149","addr":"경기도 하남시 덕풍동 742번지 트윈렉스2 108동 110호","indutype":"일반휴게음식 - 일반한식","category":"restaurant"},{"name":"청년다방하남점","tel":"031-792-0949","addr":"경기도 하남시 덕풍동 742번지","indutype":"일반휴게음식 - 일반한식","category":"restaurant"}]},{"lat":"37.540568054","long":"127.20167375","imageIndex":4,"items":[{"name":"강가네옛날통닭","tel":"031-796-4960","addr":"경기도 하남시 덕풍동 391-3번지","indutype":"일반휴게음식 - 스넥","category":"restaurant"},{"name":"태양식당","tel":"031-794-4550","addr":"경기도 하남시 덕풍동 391-3번지","indutype":"일반휴게음식 - 일반한식","category":"restaurant"}]},{"lat":"37.553607892","long":"127.19465796","imageIndex":4,"items":[{"name":"강동복집","tel":"031-790-4111","addr":"경기도 하남시 덕풍동 762번지 아이테코 지하1층 RB 114호 113","indutype":"일반휴게음식 - 일반한식","category":"restaurant"},{"name":"강동복집","tel":"031-790-4111","addr":"경기도 하남시 덕풍동 762번지 아이테코 지하1층 114호 113 아이테코 RB","indutype":"일반휴게음식 - 일반한식","category":"restaurant"},{"name":"국제구락부","tel":"","addr":"경기도 하남시 덕풍동 762번지 아이테코 지하1층 RB127호","indutype":"일반휴게음식 - 일반한식","category":"restaurant"},{"name":"권서방네 순대국","tel":"031-790-4588","addr":"경기도 하남시 덕풍동 762번지 아이테코 지하1층 RB 119호","indutype":"일반휴게음식 - 일반한식","category":"restaurant"},{"name":"권서방네순대국","tel":"031-790-4588","addr":"경기도 하남시 덕풍동 762번지 아이데코 지하1층 119호","indutype":"일반휴게음식 - 일반한식","category":"restaurant"},{"name":"금강산 감자탕","tel":"031-790-4441","addr":"경기도 하남시 덕풍동 762번지 아이테코 B동 117호","indutype":"일반휴게음식 - 일반한식","category":"restaurant"},{"name":"넘버원(No.1)돈까스","tel":"","addr":"경기도 하남시 덕풍동 762번지 아이테코 1층 R110호","indutype":"일반휴게음식 - 일반한식","category":"restaurant"},{"name":"놀부부대찌개&철판구이하남점","tel":"031-790-1551","addr":"경기도 하남시 덕풍동 762번지 하남아이테코 B131호","indutype":"일반휴게음식 - 일반한식","category":"restaurant"},{"name":"다솜푸드","tel":"","addr":"경기도 하남시 덕풍동 762번지 아이테코 지하1층 B125호","indutype":"일반휴게음식 - 일반한식","category":"restaurant"},{"name":"단골집","tel":"031-000-0000","addr":"경기도 하남시 덕풍동 762번지 아이테코 지하1층 117호","indutype":"일반휴게음식 - 일반한식","category":"restaurant"},{"name":"담쿡","tel":"02-426-9657","addr":"경기도 하남시 덕풍동 762번지 아이테코 제지 1층 제알비 122호 아이데코","indutype":"일반휴게음식 - 일반한식","category":"restaurant"},{"name":"마님보쌈제육볶음훠궈샤브샤브","tel":"031-790-1365","addr":"경기도 하남시 덕풍동 762번지 아이테코 제지1층 제알비 115호","indutype":"일반휴게음식 - 일반한식","category":"restaurant"},{"name":"명가김밥","tel":"031-790-0709","addr":"경기도 하남시 덕풍동 762번지 아이테코 1층 112호 111 아이테코 지식산업센터아이테코근린생활시설","indutype":"일반휴게음식 - 스넥","category":"restaurant"},{"name":"몽땅떡볶이","tel":"031-790-1515","addr":"경기도 하남시 덕풍동 762번지 아이테코 126호","indutype":"일반휴게음식 - 스넥","category":"restaurant"},{"name":"미사리 바지락 칼국수","tel":"031-790-4589","addr":"경기도 하남시 덕풍동 762번지 아이테코 지하1층 RB116호","indutype":"일반휴게음식 - 일반한식","category":"restaurant"},{"name":"미사리바지락칼국수","tel":"031-790-4589","addr":"경기도 하남시 덕풍동 762번지 아이테코 지하1층 RB 116호","indutype":"일반휴게음식 - 일반한식","category":"restaurant"},{"name":"봉채국수","tel":"031-790-4589","addr":"경기도 하남시 덕풍동 762 아이테코지하1층 116","indutype":"일반휴게음식 - 일반한식","category":"restaurant"},{"name":"블랙드롭/(주)아이앤에이글로벌","tel":"02-1599-6991","addr":"경기도 하남시 덕풍동 762번지 아이테코","indutype":"일반휴게음식 - 스넥","category":"restaurant"},{"name":"신단설렁탕","tel":"031-790-0567","addr":"경기도 하남시 덕풍동 762번지 아이테코지하1층RB 120호","indutype":"일반휴게음식 - 일반한식","category":"restaurant"},{"name":"오모가리김치찌개","tel":"031-790-1335","addr":"경기도 하남시 덕풍동 762번지 하남아이테코 B132호","indutype":"일반휴게음식 - 일반한식","category":"restaurant"},{"name":"오븐에빠진닭","tel":"031-790-0892","addr":"경기도 하남시 덕풍동 762번지 아이테코 109호","indutype":"일반휴게음식 - 스넥","category":"restaurant"},{"name":"전주콩나물국밥유명한집","tel":"031-790-4440","addr":"경기도 하남시 덕풍동 762번지 아이테코 지층 107호","indutype":"일반휴게음식 - 일반한식","category":"restaurant"},{"name":"죽이야기(하남아이데코점)","tel":"031-790-4009","addr":"경기도 하남시 덕풍동 762번지 아이데코 1층 116호","indutype":"일반휴게음식 - 일반한식","category":"restaurant"},{"name":"짜짜루","tel":"031-790-0014","addr":"경기도 하남시 덕풍동 762번지 하남아이테코 1층 102호","indutype":"일반휴게음식 - 중국식","category":"restaurant"},{"name":"캐논이 그린세상BIZ","tel":"031-790-1792","addr":"경기도 하남시 덕풍동 762번지 아이테코 115호","indutype":"일반휴게음식 - 서양음식","category":"restaurant"},{"name":"쿄다이 라멘","tel":"","addr":"경기도 하남시 덕풍동 762번지 아이테코 1층 R115호","indutype":"일반휴게음식 - 일식·회집","category":"restaurant"},{"name":"투썸플레이스하남아이테코점","tel":"031-790-1314","addr":"경기도 하남시 덕풍동 762번지 아이테코 1층 R104호","indutype":"일반휴게음식 - 서양음식","category":"restaurant"},{"name":"포로이","tel":"031-790-0510","addr":"경기도 하남시 덕풍동 762번지 하남아이테코 지하1층 112호","indutype":"일반휴게음식 - 일반한식","category":"restaurant"},{"name":"포몬스","tel":"031-790-4190","addr":"경기도 하남시 덕풍동 762번지 아이테코지하RB 112호","indutype":"일반휴게음식 - 일반한식","category":"restaurant"},{"name":"하남아이테코굴마을낙지촌","tel":"031-790-1699","addr":"경기도 하남시 덕풍동 762번지 아이테코지하1층RB121호","indutype":"일반휴게음식 - 일반한식","category":"restaurant"},{"name":"한국에프앤피(주)하남지점/아이테코할리스","tel":"031-790-1513","addr":"경기도 하남시 덕풍동 762번지 아이테코알 123호","indutype":"일반휴게음식 - 서양음식","category":"restaurant"},{"name":"한솥도시락(하남아이테코점)","tel":"031-790-0650","addr":"경기도 하남시 덕풍동 762번지 아이테코 지하1층 RB108호","indutype":"일반휴게음식 - 일반한식","category":"restaurant"},{"name":"한촌설렁탕 하남미사점","tel":"031-790-0038","addr":"경기도 하남시 덕풍동 762번지 아이테코 1층 R101호","indutype":"일반휴게음식 - 일반한식","category":"restaurant"},{"name":"흑돈면옥","tel":"031-790-1789","addr":"경기도 하남시 덕풍동 762번지 아이테코 지하1층 RB 129호","indutype":"일반휴게음식 - 일반한식","category":"restaurant"}]},{"lat":"37.542959988","long":"127.1990889","imageIndex":4,"items":[{"name":"강영숙봉평메밀촌하남점","tel":"031-795-3364","addr":"경기도 하남시 덕풍동 340-30번지 1층","indutype":"일반휴게음식 - 일반한식","category":"restaurant"},{"name":"김밥천국","tel":"031-769-1134","addr":"경기도 하남시 덕풍동 340-30번지","indutype":"일반휴게음식 - 스넥","category":"restaurant"},{"name":"선릉역매운떡볶이","tel":"031-795-6544","addr":"경기도 하남시 덕풍동 340-30번지 1층 106호","indutype":"일반휴게음식 - 일반한식","category":"restaurant"},{"name":"캬","tel":"070-4324-5080","addr":"경기도 하남시 덕풍동 340-30번지 1층 106호","indutype":"일반휴게음식 - 주점","category":"restaurant"},{"name":"화로 부산양곱창","tel":"031-111-1111","addr":"경기도 하남시 덕풍동 340-30번지 1층","indutype":"일반휴게음식 - 일반한식","category":"restaurant"}]},{"lat":"37.537294621","long":"127.20336222","imageIndex":4,"items":[{"name":"갱여사네홍떡","tel":"031-792-2882","addr":"경기도 하남시 덕풍동 421-7번지","indutype":"일반휴게음식 - 일반한식","category":"restaurant"}]},{"lat":"37.539014496","long":"127.20395519","imageIndex":4,"items":[{"name":"고고스펍(GO GOSS pub)","tel":"031-792-9289","addr":"경기도 하남시 덕풍동 412-18번지 1층","indutype":"일반휴게음식 - 주점","category":"restaurant"},{"name":"노랑통닭 하남덕풍점","tel":"031-791-3302","addr":"경기도 하남시 덕풍동 412-18번지 105호","indutype":"일반휴게음식 - 스넥","category":"restaurant"},{"name":"다락방곱창","tel":"070-8221-7118","addr":"경기도 하남시 덕풍동 412-18번지","indutype":"일반휴게음식 - 일반한식","category":"restaurant"},{"name":"본초불닭발","tel":"031-792-1182","addr":"경기도 하남시 덕풍동 412-18번지 103호","indutype":"일반휴게음식 - 일반한식","category":"restaurant"},{"name":"스시오지상","tel":"031-111-1111","addr":"경기도 하남시 덕풍동 412-18번지","indutype":"일반휴게음식 - 일반한식","category":"restaurant"},{"name":"신떡","tel":"031-792-1182","addr":"경기도 하남시 덕풍동 412-18번지","indutype":"일반휴게음식 - 스넥","category":"restaurant"},{"name":"쭈꾸미사랑","tel":"031-8028-0104","addr":"경기도 하남시 덕풍동 412-18번지","indutype":"일반휴게음식 - 일반한식","category":"restaurant"},{"name":"쭈꾸미사랑","tel":"031-8028-0104","addr":"경기도 하남시 덕풍동 412-18번지","indutype":"일반휴게음식 - 일반한식","category":"restaurant"},{"name":"하남 숯불고기","tel":"031-796-7743","addr":"경기도 하남시 덕풍동 412-18번지 1층","indutype":"일반휴게음식 - 일반한식","category":"restaurant"},{"name":"하남숯불고기","tel":"031-796-7743","addr":"경기도 하남시 덕풍동 412-18번지 1층","indutype":"일반휴게음식 - 일반한식","category":"restaurant"}]},{"lat":"37.551288051","long":"127.20794894","imageIndex":4,"items":[{"name":"고구려","tel":"031-792-5408","addr":"경기도 하남시 덕풍동 744-1번지 리치플러스하남센터 105호~107호 105","indutype":"일반휴게음식 - 일반한식","category":"restaurant"},{"name":"국민닭발","tel":"031-796-5119","addr":"경기도 하남시 덕풍동 744-1번지 리치플러스하남센터 1층 102호","indutype":"일반휴게음식 - 일반한식","category":"restaurant"},{"name":"본죽(하남풍산점)","tel":"031-796-6261","addr":"경기도 하남시 덕풍동 744-1번지 리치플러스하남센터 112호","indutype":"일반휴게음식 - 일반한식","category":"restaurant"},{"name":"불닭발땡초동대문엽기떡볶이풍산점","tel":"031-795-8593","addr":"경기도 하남시 덕풍동 744-1번지 리치플러스하남센터 114호","indutype":"일반휴게음식 - 스넥","category":"restaurant"},{"name":"블랑","tel":"031-792-3969","addr":"경기도 하남시 덕풍동 744-1번지 리치플러스하남센터 110호","indutype":"일반휴게음식 - 서양음식","category":"restaurant"},{"name":"아딸(하남풍산점)","tel":"031-796-5889","addr":"경기도 하남시 덕풍동 744-1번지 110호 , 리치플러스1층","indutype":"일반휴게음식 - 일반한식","category":"restaurant"},{"name":"원조마포소금구이","tel":"031-795-4927","addr":"경기도 하남시 덕풍동 744-1번지 리치플러스하남센터 1층 101호","indutype":"일반휴게음식 - 일반한식","category":"restaurant"},{"name":"짱구짱구꼬마김밥&만두","tel":"031-796-8250","addr":"경기도 하남시 덕풍동 744-1번지 리치플러스하남센터 103호","indutype":"일반휴게음식 - 스넥","category":"restaurant"},{"name":"치어스","tel":"031-796-6279","addr":"경기도 하남시 덕풍동 744-1번지 리치플러스하남센터 202호","indutype":"일반휴게음식 - 주점","category":"restaurant"},{"name":"커피&커플","tel":"031-794-2864","addr":"경기도 하남시 덕풍동 744-1번지 리치플러스하남센터 104호","indutype":"일반휴게음식 - 서양음식","category":"restaurant"},{"name":"키스톤 (Keystone)","tel":"031-8027-2196","addr":"경기도 하남시 덕풍동 744-1번지 리치플러스하남센터 604호~606호","indutype":"일반휴게음식 - 서양음식","category":"restaurant"},{"name":"키즈팝","tel":"031-794-2582","addr":"경기도 하남시 덕풍동 744-1번지 리치플러스하남센터304~306호 304호","indutype":"일반휴게음식 - 서양음식","category":"restaurant"},{"name":"타요키즈까페 하남풍산점","tel":"031-791-2997","addr":"경기도 하남시 덕풍동 744-1번지 리치플러스하남센터 10층 1001-1004호","indutype":"일반휴게음식 - 일반한식","category":"restaurant"}]},{"lat":"37.541013266","long":"127.19944588","imageIndex":4,"items":[{"name":"고구려생삼겹살","tel":"031-792-9755","addr":"경기도 하남시 덕풍동 358-1무학프라자201호~202호","indutype":"일반휴게음식 - 일반한식","category":"restaurant"}]},{"lat":"37.539873917","long":"127.2018982","imageIndex":4,"items":[{"name":"고기굽는숯총각두근두근","tel":"031-791-9228","addr":"경기도 하남시 덕풍동 394-1번지 하남프라자 1층 112호 113호","indutype":"일반휴게음식 - 일반한식","category":"restaurant"},{"name":"김밥나라","tel":"031-792-1145","addr":"경기도 하남시 덕풍동 394-1번지 하남프라자 1층 110호","indutype":"일반휴게음식 - 일반한식","category":"restaurant"},{"name":"바불리 옛날왕만두","tel":"031-795-1593","addr":"경기도 하남시 덕풍동 394-1번지 하남프라자 1층 111호","indutype":"일반휴게음식 - 일반한식","category":"restaurant"},{"name":"웰빙 한식","tel":"031-793-5962","addr":"경기도 하남시 덕풍동 394-1번지 하남프라자 202호","indutype":"일반휴게음식 - 일반한식","category":"restaurant"},{"name":"콩나라두부장수","tel":"031-792-8863","addr":"경기도 하남시 덕풍동 394-1번지 하남프라자 204호","indutype":"일반휴게음식 - 일반한식","category":"restaurant"}]},{"lat":"37.5366504","long":"127.20600804","imageIndex":4,"items":[{"name":"고향묵은지생삼겹살","tel":"031-793-0484","addr":"경기도 하남시 덕풍동 461-25번지","indutype":"일반휴게음식 - 일반한식","category":"restaurant"},{"name":"전주해물찜","tel":"031-794-8732","addr":"경기도 하남시 덕풍동 461-25번지","indutype":"일반휴게음식 - 일반한식","category":"restaurant"}]},{"lat":"37.536513771","long":"127.20686756","imageIndex":4,"items":[{"name":"고향집","tel":"031-796-1215","addr":"경기도 하남시 덕풍동 465-18번지 1층","indutype":"일반휴게음식 - 일반한식","category":"restaurant"}]},{"lat":"37.544205011","long":"127.19808509","imageIndex":4,"items":[{"name":"골목안 혼술식당","tel":"031-791-0021","addr":"경기도 하남시 덕풍동 342-35번지 1층","indutype":"일반휴게음식 - 일반한식","category":"restaurant"}]},{"lat":"37.539155336","long":"127.20058379","imageIndex":4,"items":[{"name":"골목포차","tel":"031-8208-4035","addr":"경기도 하남시 덕풍동 373-15번지","indutype":"일반휴게음식 - 주점","category":"restaurant"}]},{"lat":"37.542320886","long":"127.20408853","imageIndex":4,"items":[{"name":"곱돌&곱순","tel":"031-792-6678","addr":"경기도 하남시 덕풍동 326-116번지 1층","indutype":"일반휴게음식 - 일반한식","category":"restaurant"}]},{"lat":"37.552404597","long":"127.20833676","imageIndex":4,"items":[{"name":"곱창공작소","tel":"031-791-2627","addr":"경기도 하남시 덕풍동 741번지 하남푸르지오시티상가106-1","indutype":"일반휴게음식 - 일반한식","category":"restaurant"},{"name":"공차 하남풍산점","tel":"031-791-0787","addr":"경기도 하남시 덕풍동 741번지 하남푸르지오시티오피스텔 104호","indutype":"일반휴게음식 - 서양음식","category":"restaurant"},{"name":"그린플레이트","tel":"031-793-6602","addr":"경기도 하남시 덕풍동 741번지 하남푸르지오시티 2층 201호","indutype":"일반휴게음식 - 일반한식","category":"restaurant"},{"name":"우리집한식부페","tel":"031-793-3210","addr":"경기도 하남시 덕풍동 741번지 하남푸르지오시티 104호","indutype":"일반휴게음식 - 일반한식","category":"restaurant"},{"name":"제주에 가면","tel":"031-795-5418","addr":"경기도 하남시 덕풍동 741번지 하남푸르지오시티 1층 102-1,2호","indutype":"일반휴게음식 - 일반한식","category":"restaurant"},{"name":"치킨더비 덕풍점","tel":"031-795-4060","addr":"경기도 하남시 덕풍동 741번지 하남푸르지오시티 102호","indutype":"일반휴게음식 - 스넥","category":"restaurant"},{"name":"투썸플레이스","tel":"031-791-9531","addr":"경기도 하남시 덕풍동 741번지 1층 101,102호","indutype":"일반휴게음식 - 서양음식","category":"restaurant"},{"name":"현풍닭칼국수","tel":"031-795-0909","addr":"경기도 하남시 덕풍동 741번지 하남푸르지오시티 1층 112호","indutype":"일반휴게음식 - 일반한식","category":"restaurant"}]},{"lat":"37.555513034","long":"127.20831134","imageIndex":4,"items":[{"name":"공가네한우국밥전문점","tel":"031-796-3210","addr":"경기도 하남시 덕풍동 26-12번지 1층","indutype":"일반휴게음식 - 일반한식","category":"restaurant"},{"name":"미사리밀빛초계국수","tel":"031-795-0331","addr":"경기도 하남시 덕풍동 26-12번지 1층","indutype":"일반휴게음식 - 일반한식","category":"restaurant"}]},{"lat":"37.540928827","long":"127.20144841","imageIndex":4,"items":[{"name":"공포마라탕","tel":"031-793-5676","addr":"경기도 하남시 덕풍동 387-10번지","indutype":"일반휴게음식 - 중국식","category":"restaurant"}]},{"lat":"37.540426231","long":"127.20028164","imageIndex":4,"items":[{"name":"광나루","tel":"031-794-0708","addr":"경기도 하남시 덕풍동 379-6번지","indutype":"일반휴게음식 - 중국식","category":"restaurant"},{"name":"피자스쿨(하남덕풍점)","tel":"031-793-8281","addr":"경기도 하남시 덕풍동 379-6번지","indutype":"일반휴게음식 - 서양음식","category":"restaurant"}]},{"lat":"37.54340456","long":"127.20262045","imageIndex":4,"items":[{"name":"교촌치킨덕풍1호점","tel":"031-792-8288","addr":"경기도 하남시 덕풍동 309-64번지 승호빌딩 1층","indutype":"일반휴게음식 - 스넥","category":"restaurant"}]},{"lat":"37.542681003","long":"127.19889581","imageIndex":4,"items":[{"name":"국수작업장","tel":"031-8028-0877","addr":"경기도 하남시 덕풍동 349-2번지 105호","indutype":"일반휴게음식 - 일반한식","category":"restaurant"},{"name":"꼬꼬매니아","tel":"031-794-7282","addr":"경기도 하남시 덕풍동 349-2번지 1층","indutype":"일반휴게음식 - 스넥","category":"restaurant"},{"name":"사랑방밥집","tel":"031-795-2444","addr":"경기도 하남시 덕풍동 349-2번지 1층","indutype":"일반휴게음식 - 일반한식","category":"restaurant"}]},{"lat":"37.541538782","long":"127.20305676","imageIndex":4,"items":[{"name":"군산횟집","tel":"031-792-0881","addr":"경기도 하남시 덕풍동 328-15번지 덕원상가B동1층101호","indutype":"일반휴게음식 - 일반한식","category":"restaurant"}]},{"lat":"37.543736126","long":"127.19831017","imageIndex":4,"items":[{"name":"굽네치킨","tel":"031-792-9290","addr":"경기도 하남시 덕풍동 342-32번지","indutype":"일반휴게음식 - 스넥","category":"restaurant"}]},{"lat":"37.53637721","long":"127.20242068","imageIndex":4,"items":[{"name":"궁가네김밥,수제비","tel":"070-7583-0959","addr":"경기도 하남시 덕풍동 431-3번지 B동 1층","indutype":"일반휴게음식 - 스넥","category":"restaurant"}]},{"lat":"37.54137867","long":"127.20183431","imageIndex":4,"items":[{"name":"귀빈","tel":"031-8028-3635","addr":"경기도 하남시 덕풍동 397번지 지하1층","indutype":"일반휴게음식 - 일반한식","category":"restaurant"},{"name":"양푼동태&홍어회냉면","tel":"031-796-1989","addr":"경기도 하남시 덕풍동 397번지 1층","indutype":"일반휴게음식 - 일반한식","category":"restaurant"},{"name":"주막집","tel":"031-792-2533","addr":"경기도 하남시 덕풍동 397번지","indutype":"일반휴게음식 - 일반한식","category":"restaurant"},{"name":"치킨플러스덕풍점","tel":"031-793-9998","addr":"경기도 하남시 덕풍동 397번지 1층","indutype":"일반휴게음식 - 스넥","category":"restaurant"}]},{"lat":"37.534155036","long":"127.20048008","imageIndex":4,"items":[{"name":"그루터기","tel":"031-807-3756","addr":"경기도 하남시 덕풍동 441-38번지 1층","indutype":"일반휴게음식 - 일반한식","category":"restaurant"}]},{"lat":"37.541233138","long":"127.2026486","imageIndex":4,"items":[{"name":"그린족발","tel":"031-794-6568","addr":"경기도 하남시 덕풍동 398-22번지 1층 3호","indutype":"일반휴게음식 - 스넥","category":"restaurant"},{"name":"돼지국밥","tel":"031-794-0609","addr":"경기도 하남시 덕풍동 398-22번지 1층","indutype":"일반휴게음식 - 일반한식","category":"restaurant"}]},{"lat":"37.54046026","long":"127.20148111","imageIndex":4,"items":[{"name":"금자네왕족발","tel":"070-4652-4048","addr":"경기도 하남시 덕풍동 391-7번지 1층","indutype":"일반휴게음식 - 일반한식","category":"restaurant"},{"name":"진포차","tel":"070-7869-5522","addr":"경기도 하남시 덕풍동 391-7번지","indutype":"일반휴게음식 - 주점","category":"restaurant"}]},{"lat":"37.542123901","long":"127.20336383","imageIndex":4,"items":[{"name":"금화식당","tel":"031-794-4688","addr":"경기도 하남시 덕풍동 326-124번지","indutype":"일반휴게음식 - 일반한식","category":"restaurant"},{"name":"덕풍양심이네포차","tel":"070-8796-1711","addr":"경기도 하남시 덕풍동 326-124번지 1층 101호","indutype":"일반휴게음식 - 일반한식","category":"restaurant"},{"name":"덕풍한돈한우정육식당","tel":"031-794-4709","addr":"경기도 하남시 덕풍동 326-124번지","indutype":"일반휴게음식 - 일반한식","category":"restaurant"}]},{"lat":"37.536458585","long":"127.20225118","imageIndex":4,"items":[{"name":"길목밥집","tel":"031-111-1111","addr":"경기도 하남시 덕풍동 429-3번지 1층","indutype":"일반휴게음식 - 일반한식","category":"restaurant"}]},{"lat":"37.541287675","long":"127.20236587","imageIndex":4,"items":[{"name":"김가네칼국수","tel":"031-792-6388","addr":"경기도 하남시 덕풍동 397-6번지 1층","indutype":"일반휴게음식 - 일반한식","category":"restaurant"},{"name":"우렁각시찬방","tel":"1111-1111-1111","addr":"경기도 하남시 덕풍동 397-6번지","indutype":"일반휴게음식 - 일반한식","category":"restaurant"}]},{"lat":"37.541899443","long":"127.20289931","imageIndex":4,"items":[{"name":"김떡순","tel":"031-000-0000","addr":"경기도 하남시 덕풍동 326-130번지 1층","indutype":"일반휴게음식 - 일반한식","category":"restaurant"},{"name":"내고향빈대떡","tel":"031-791-7056","addr":"경기도 하남시 덕풍동 326-130번지 1층","indutype":"일반휴게음식 - 일반한식","category":"restaurant"},{"name":"한우일번가정육식당","tel":"031-793-4495","addr":"경기도 하남시 덕풍동 326-130번지","indutype":"일반휴게음식 - 일반한식","category":"restaurant"}]},{"lat":"37.540344953","long":"127.20039457","imageIndex":4,"items":[{"name":"김미자 당진 동태 아구","tel":"","addr":"경기도 하남시 덕풍동 379-8번지 흥진빌딩","indutype":"일반휴게음식 - 일반한식","category":"restaurant"},{"name":"명륜진사갈비(하남덕풍시장점)","tel":"031-792-9001","addr":"경기도 하남시 덕풍동 379-8번지 흥진빌딩 2층","indutype":"일반휴게음식 - 일반한식","category":"restaurant"}]},{"lat":"37.552930919","long":"127.21133715","imageIndex":4,"items":[{"name":"김보성star.s","tel":"031-795-8407","addr":"경기도 하남시 덕풍동 42-1번지","indutype":"일반휴게음식 - 서양음식","category":"restaurant"}]},{"lat":"37.551721012","long":"127.20766721","imageIndex":4,"items":[{"name":"깐부치킨","tel":"031-795-9990","addr":"경기도 하남시 덕풍동 744번지 104호 KN몰","indutype":"일반휴게음식 - 스넥","category":"restaurant"},{"name":"니뽕내뽕","tel":"031-791-3100","addr":"경기도 하남시 덕풍동 744번지 KNMALL117호~118호","indutype":"일반휴게음식 - 일반한식","category":"restaurant"},{"name":"더하남컨벤션","tel":"031-792-5200","addr":"경기도 하남시 덕풍동 744번지 케이엔몰 8층,9층","indutype":"일반휴게음식 - 일반한식","category":"restaurant"},{"name":"매워도가고픈떡볶이","tel":"031-793-8703","addr":"경기도 하남시 덕풍동 744번지 KN몰 112호","indutype":"일반휴게음식 - 스넥","category":"restaurant"},{"name":"모스트(MOST)","tel":"","addr":"경기도 하남시 덕풍동 744번지 케이엔몰 209호","indutype":"일반휴게음식 - 서양음식","category":"restaurant"},{"name":"야무야무하남점","tel":"031-563-3323","addr":"경기도 하남시 덕풍동 744,케이앤몰2층203~204호","indutype":"일반휴게음식 - 주점","category":"restaurant"},{"name":"에이미스커피하남점","tel":"031-794-5315","addr":"경기도 하남시 덕풍동 744번지 케이엔몰 1층 116호","indutype":"일반휴게음식 - 서양음식","category":"restaurant"},{"name":"이디야커피(덕품하남점)","tel":"031-792-6406","addr":"경기도 하남시 덕풍동 744번지 KNMALL 1층 102호","indutype":"일반휴게음식 - 서양음식","category":"restaurant"},{"name":"이삭토스트풍산점","tel":"031-792-2414","addr":"경기도 하남시 덕풍동 744번지 1층 KNMALL 114호","indutype":"일반휴게음식 - 서양음식","category":"restaurant"},{"name":"종로김밥","tel":"031-793-1204","addr":"경기도 하남시 덕풍동 744번지 케이엔몰 1층 113호","indutype":"일반휴게음식 - 일반한식","category":"restaurant"},{"name":"짝태&노가리","tel":"03-111-1111","addr":"경기도 하남시 덕풍동 744번지 케이엔몰 108호","indutype":"일반휴게음식 - 주점","category":"restaurant"},{"name":"치킨앤칩스","tel":"031-795-9282","addr":"경기도 하남시 덕풍동 744번지 케이엔몰 106호,107호","indutype":"일반휴게음식 - 스넥","category":"restaurant"},{"name":"홍열아 초밥주라","tel":"031-792-6907","addr":"경기도 하남시 덕풍동 744번지 KNMALL 1층 104호","indutype":"일반휴게음식 - 일식·회집","category":"restaurant"},{"name":"홍윤식당","tel":"02-1111-1111","addr":"경기도 하남시 덕풍동 744번지 KNMALL 116호","indutype":"일반휴게음식 - 일반한식","category":"restaurant"}]},{"lat":"37.541316116","long":"127.20152864","imageIndex":4,"items":[{"name":"깜보","tel":"031-795-8518","addr":"경기도 하남시 덕풍동 386-2번지","indutype":"일반휴게음식 - 일반한식","category":"restaurant"}]},{"lat":"37.548290995","long":"127.21125633","imageIndex":4,"items":[{"name":"꼰치아","tel":"031-796-3376","addr":"경기도 하남시 덕풍동 808-2번지 1층","indutype":"일반휴게음식 - 일반한식","category":"restaurant"}]},{"lat":"37.541511273","long":"127.20333956","imageIndex":4,"items":[{"name":"꽃돼지","tel":"031-792-9139","addr":"경기도 하남시 덕풍동 328번지 1층","indutype":"일반휴게음식 - 일반한식","category":"restaurant"},{"name":"덕풍손칼국수","tel":"031-795-4228","addr":"경기도 하남시 덕풍동 328번지 A-102 (1층)","indutype":"일반휴게음식 - 일반한식","category":"restaurant"},{"name":"바른곱창","tel":"031-791-0322","addr":"경기도 하남시 덕풍동 328번지 A동 101호","indutype":"일반휴게음식 - 일반한식","category":"restaurant"},{"name":"이모네김치찌개","tel":"031-795-3353","addr":"경기도 하남시 덕풍동 328번지 1층","indutype":"일반휴게음식 - 일반한식","category":"restaurant"}]},{"lat":"37.540342865","long":"127.2016392","imageIndex":4,"items":[{"name":"꿀꿀이삼겹살","tel":"031-795-8926","addr":"경기도 하남시 덕풍동 391-5번지","indutype":"일반휴게음식 - 일반한식","category":"restaurant"},{"name":"유인포차","tel":"031-795-8926","addr":"경기도 하남시 덕풍동 391-5번지 1층","indutype":"일반휴게음식 - 일반한식","category":"restaurant"},{"name":"칭따오 양꼬치","tel":"031-793-4448","addr":"경기도 하남시 덕풍동 391-5번지 2층","indutype":"일반휴게음식 - 중국식","category":"restaurant"}]},{"lat":"37.53971254","long":"127.20142255","imageIndex":4,"items":[{"name":"꿀삐닭강정하남덕풍점","tel":"031-792-0899","addr":"경기도 하남시 덕풍동 373-9번지","indutype":"일반휴게음식 - 일반한식","category":"restaurant"},{"name":"샘이깊은청학동","tel":"031-793-4636","addr":"경기도 하남시 덕풍동 373-9번지","indutype":"일반휴게음식 - 일반한식","category":"restaurant"}]},{"lat":"37.537239697","long":"127.20387122","imageIndex":4,"items":[{"name":"나도미","tel":"031-793-5421","addr":"경기도 하남시 덕풍동 420-8번지 1층","indutype":"일반휴게음식 - 일반한식","category":"restaurant"}]},{"lat":"37.550875717","long":"127.20672563","imageIndex":4,"items":[{"name":"나룰집","tel":"031-791-2425","addr":"경기도 하남시 덕풍동 226-16번지","indutype":"일반휴게음식 - 일반한식","category":"restaurant"}]},{"lat":"37.5418423","long":"127.19936885","imageIndex":4,"items":[{"name":"나리네","tel":"031-792-6878","addr":"경기도 하남시 덕풍동 357-55번지","indutype":"일반휴게음식 - 일반한식","category":"restaurant"}]},{"lat":"37.54762638","long":"127.21005499","imageIndex":4,"items":[{"name":"나무그늘","tel":"031-796-6181","addr":"경기도 하남시 덕풍동 815번지","indutype":"일반휴게음식 - 서양음식","category":"restaurant"}]},{"lat":"37.537844316","long":"127.20330712","imageIndex":4,"items":[{"name":"낙원커피숍","tel":"031-796-4665","addr":"경기도 하남시 덕풍동 423-8번지 지층","indutype":"일반휴게음식 - 서양음식","category":"restaurant"},{"name":"낙원커피호프","tel":"031-796-4665","addr":"경기도 하남시 덕풍동 423-8번지 G동 1층","indutype":"일반휴게음식 - 주점","category":"restaurant"}]},{"lat":"37.543121562","long":"127.19945141","imageIndex":4,"items":[{"name":"남도식당","tel":"","addr":"경기도 하남시 덕풍동 339-17번지 1층","indutype":"일반휴게음식 - 일반한식","category":"restaurant"}]},{"lat":"37.54201657","long":"127.20289963","imageIndex":4,"items":[{"name":"남매식당","tel":"031-793-0786","addr":"경기도 하남시 덕풍동 326-67,326-130","indutype":"일반휴게음식 - 일반한식","category":"restaurant"}]},{"lat":"37.543122199","long":"127.20441883","imageIndex":4,"items":[{"name":"내고향족발","tel":"031-795-6669","addr":"경기도 하남시 덕풍동 322-5번지","indutype":"일반휴게음식 - 일반한식","category":"restaurant"}]},{"lat":"37.541844866","long":"127.20320467","imageIndex":4,"items":[{"name":"너국수","tel":"031-794-5912","addr":"경기도 하남시 덕풍동 326-7번지","indutype":"일반휴게음식 - 일반한식","category":"restaurant"},{"name":"물박사","tel":"031-794-7892","addr":"경기도 하남시 덕풍동 326-7번지","indutype":"일반휴게음식 - 일반한식","category":"restaurant"}]},{"lat":"37.54118114","long":"127.20142644","imageIndex":4,"items":[{"name":"네네치킨","tel":"031-795-1140","addr":"경기도 하남시 덕풍동 387-4번지","indutype":"일반휴게음식 - 스넥","category":"restaurant"},{"name":"슈가네","tel":"031-795-1245","addr":"경기도 하남시 덕풍동 387-4번지","indutype":"일반휴게음식 - 일반한식","category":"restaurant"},{"name":"캐슬바베큐","tel":"031-796-5592","addr":"경기도 하남시 덕풍동 387-4번지","indutype":"일반휴게음식 - 주점","category":"restaurant"}]},{"lat":"37.539374812","long":"127.20400141","imageIndex":4,"items":[{"name":"노랑분식","tel":"031-793-0300","addr":"경기도 하남시 덕풍동 413-27번지 1층","indutype":"일반휴게음식 - 스넥","category":"restaurant"},{"name":"배달의 쌀국수 하남점","tel":"070-4036-5779","addr":"경기도 하남시 덕풍동 413-27번지 1층 104호","indutype":"일반휴게음식 - 일반한식","category":"restaurant"},{"name":"쏙닭쏙닭","tel":"000-000-0000","addr":"경기도 하남시 덕풍동 413-27번지","indutype":"일반휴게음식 - 스넥","category":"restaurant"},{"name":"엄마손돈가스","tel":"031-793-7707","addr":"경기도 하남시 덕풍동 413-27번지 1층","indutype":"일반휴게음식 - 일반한식","category":"restaurant"},{"name":"여수식당","tel":"031-795-7525","addr":"경기도 하남시 덕풍동 413-27번지","indutype":"일반휴게음식 - 일반한식","category":"restaurant"},{"name":"웰빙 추어탕","tel":"031-796-0422","addr":"경기도 하남시 덕풍동 413-27번지","indutype":"일반휴게음식 - 일반한식","category":"restaurant"}]},{"lat":"37.54153972","long":"127.20250233","imageIndex":4,"items":[{"name":"녹동수산","tel":"070-8118-1672","addr":"경기도 하남시 덕풍동 328-7번지 지하1층 1층 103호","indutype":"일반휴게음식 - 일반한식","category":"restaurant"},{"name":"동원소랑돼지랑오리랑","tel":"031-792-1888","addr":"경기도 하남시 덕풍동 328-7번지","indutype":"일반휴게음식 - 일반한식","category":"restaurant"},{"name":"옛날포장마차","tel":"031-792-7014","addr":"경기도 하남시 덕풍동 328-7번지","indutype":"일반휴게음식 - 스넥","category":"restaurant"},{"name":"하남족뱅이","tel":"031-795-5524","addr":"경기도 하남시 덕풍동 328-7번지 107호","indutype":"일반휴게음식 - 일반한식","category":"restaurant"}]},{"lat":"37.539482447","long":"127.20428457","imageIndex":4,"items":[{"name":"놀자포차","tel":"031-795-0821","addr":"경기도 하남시 덕풍동 412-33번지 1층","indutype":"일반휴게음식 - 일반한식","category":"restaurant"},{"name":"앙마곱창","tel":"031-795-9942","addr":"경기도 하남시 덕풍동 412-33번지 1층","indutype":"일반휴게음식 - 일반한식","category":"restaurant"}]},{"lat":"37.5422111","long":"127.1997319","imageIndex":4,"items":[{"name":"누나홀닭 덕풍점","tel":"031-794-7941","addr":"경기도 하남시 덕풍동 356-9번지 2층","indutype":"일반휴게음식 - 스넥","category":"restaurant"},{"name":"박군치킨","tel":"031-796-1033","addr":"경기도 하남시 덕풍동 356-9번지 2층","indutype":"일반휴게음식 - 일반한식","category":"restaurant"}]},{"lat":"37.541150746","long":"127.2034178","imageIndex":4,"items":[{"name":"누리소","tel":"031-793-5155","addr":"경기도 하남시 덕풍동 398-27번지 1층","indutype":"일반휴게음식 - 일반한식","category":"restaurant"}]},{"lat":"37.538735192","long":"127.20395444","imageIndex":4,"items":[{"name":"뉴로얄부페","tel":"031-793-6663","addr":"경기도 하남시 덕풍동 419-32번지","indutype":"일반휴게음식 - 서양음식","category":"restaurant"}]},{"lat":"37.548705944","long":"127.21097459","imageIndex":4,"items":[{"name":"느티나무 퀄트카페","tel":"03-1791-4808","addr":"경기도 하남시 덕풍동 806-1번지 103호","indutype":"일반휴게음식 - 서양음식","category":"restaurant"}]},{"lat":"37.54223248","long":"127.20309256","imageIndex":4,"items":[{"name":"닥치고 구이","tel":"031-795-9382","addr":"경기도 하남시 덕풍동 326-6번지 1층","indutype":"일반휴게음식 - 일반한식","category":"restaurant"},{"name":"송엘림치킨","tel":"031-795-1182","addr":"경기도 하남시 덕풍동 326-6번지 104호","indutype":"일반휴게음식 - 스넥","category":"restaurant"},{"name":"수정분식","tel":"031-793-3014","addr":"경기도 하남시 덕풍동 326-6번지","indutype":"일반휴게음식 - 일반한식","category":"restaurant"},{"name":"희노애락포차","tel":"031-792-3945","addr":"경기도 하남시 덕풍동 326-6번지","indutype":"일반휴게음식 - 일반한식","category":"restaurant"}]},{"lat":"37.539656975","long":"127.20231627","imageIndex":4,"items":[{"name":"닭이봉춘천닭갈비","tel":"031-795-5762","addr":"경기도 하남시 덕풍동 415-65번지","indutype":"일반휴게음식 - 일반한식","category":"restaurant"},{"name":"연김밥","tel":"031-794-8009","addr":"경기도 하남시 덕풍동 415-65번지","indutype":"일반휴게음식 - 스넥","category":"restaurant"}]},{"lat":"37.535567775","long":"127.20155865","imageIndex":4,"items":[{"name":"담쟁이쉼터","tel":"031-796-0691","addr":"경기도 하남시 덕풍동 447-13번지","indutype":"일반휴게음식 - 서양음식","category":"restaurant"}]},{"lat":"37.53709554","long":"127.20387083","imageIndex":4,"items":[{"name":"대갓집숯불갈비","tel":"031-792-3799","addr":"경기도 하남시 덕풍동 420-36번지 1층","indutype":"일반휴게음식 - 일반한식","category":"restaurant"}]},{"lat":"37.535378988","long":"127.20130924","imageIndex":4,"items":[{"name":"대현이네","tel":"031-111-1111","addr":"경기도 하남시 덕풍동 446-18번지 1층","indutype":"일반휴게음식 - 주점","category":"restaurant"},{"name":"빨강빨강 떡볶이","tel":"031-699-5501","addr":"경기도 하남시 덕풍동 446-18번지","indutype":"일반휴게음식 - 스넥","category":"restaurant"},{"name":"빨강빨강떡볶이","tel":"031-795-5153","addr":"경기도 하남시 덕풍동 446-18번지 1층","indutype":"일반휴게음식 - 스넥","category":"restaurant"},{"name":"싸닭(SSA DAK)","tel":"031-792-5545","addr":"경기도 하남시 덕풍동 446-18번지 1층","indutype":"일반휴게음식 - 주점","category":"restaurant"}]},{"lat":"37.540594797","long":"127.20184354","imageIndex":4,"items":[{"name":"더우개곱창 덕풍점","tel":"031-796-9933","addr":"경기도 하남시 덕풍동 390-23번지 1층","indutype":"일반휴게음식 - 일반한식","category":"restaurant"}]},{"lat":"37.550514601","long":"127.20714335","imageIndex":4,"items":[{"name":"덕구네복돈이","tel":"031-794-5592","addr":"경기도 하남시 덕풍동 251-11번지 1층 101호","indutype":"일반휴게음식 - 일반한식","category":"restaurant"}]},{"lat":"37.538820244","long":"127.20161253","imageIndex":4,"items":[{"name":"덕풍골칡냉면","tel":"031-791-3830","addr":"경기도 하남시 덕풍동 372-75번지","indutype":"일반휴게음식 - 일반한식","category":"restaurant"}]},{"lat":"37.541036754","long":"127.20156184","imageIndex":4,"items":[{"name":"덕풍아구찜","tel":"031-794-1227","addr":"경기도 하남시 덕풍동 387-5번지","indutype":"일반휴게음식 - 일반한식","category":"restaurant"}]},{"lat":"37.548040771","long":"127.21009009","imageIndex":4,"items":[{"name":"델리포크","tel":"031-791-9233","addr":"경기도 하남시 덕풍동 811-2번지 서하빌딩 103호","indutype":"일반휴게음식 - 일반한식","category":"restaurant"},{"name":"비비큐풍산행복점","tel":"031-792-9268","addr":"경기도 하남시 덕풍동 811-2번지","indutype":"일반휴게음식 - 주점","category":"restaurant"}]},{"lat":"37.539295932","long":"127.20270001","imageIndex":4,"items":[{"name":"도깨비뚝딱족발","tel":"031-795-5825","addr":"경기도 하남시 덕풍동 416-13번지 1층","indutype":"일반휴게음식 - 일반한식","category":"restaurant"},{"name":"힐링","tel":"031-791-9894","addr":"경기도 하남시 덕풍동 416-13번지 1층","indutype":"일반휴게음식 - 주점","category":"restaurant"}]},{"lat":"37.553014019","long":"127.21019439","imageIndex":4,"items":[{"name":"도령남원추어탕","tel":"","addr":"경기도 하남시 덕풍동 41-5번지 1층","indutype":"일반휴게음식 - 일반한식","category":"restaurant"}]},{"lat":"37.53890686","long":"127.20367203","imageIndex":4,"items":[{"name":"도쿠도쿠","tel":"031-791-6705","addr":"경기도 하남시 덕풍동 412-19번지 1층","indutype":"일반휴게음식 - 일반한식","category":"restaurant"},{"name":"아벡 데 프리츠","tel":"031-796-3532","addr":"경기도 하남시 덕풍동 412-19번지 1층","indutype":"일반휴게음식 - 주점","category":"restaurant"},{"name":"어부","tel":"031-792-9786","addr":"경기도 하남시 덕풍동 412-19번지","indutype":"일반휴게음식 - 일반한식","category":"restaurant"},{"name":"현카페","tel":"031-123-4567","addr":"경기도 하남시 덕풍동 412-19번지 1층","indutype":"일반휴게음식 - 서양음식","category":"restaurant"}]},{"lat":"37.552931672","long":"127.20041647","imageIndex":4,"items":[{"name":"돈치킨 (하남덕풍점)","tel":"031-794-2292","addr":"경기도 하남시 덕풍동 775번지 휴먼시아꽃뫼마을1단지 상가동 1층 105호","indutype":"일반휴게음식 - 스넥","category":"restaurant"},{"name":"분식이 이래도 되는가(하남풍산점)","tel":"031-000-0000","addr":"경기도 하남시 덕풍동 775번지 휴먼시아꽃뫼마을1단지 상가동 1층 102호","indutype":"일반휴게음식 - 일반한식","category":"restaurant"}]},{"lat":"37.534016713","long":"127.20236913","imageIndex":4,"items":[{"name":"돌구이한식","tel":"031-795-0523","addr":"경기도 하남시 덕풍동 513-3번지 1층","indutype":"일반휴게음식 - 일반한식","category":"restaurant"}]},{"lat":"37.539456266","long":"127.20378665","imageIndex":4,"items":[{"name":"동대문곱창","tel":"031-699-1343","addr":"경기도 하남시 덕풍동 415-41번지 1층","indutype":"일반휴게음식 - 일반한식","category":"restaurant"}]},{"lat":"37.544374138","long":"127.20467114","imageIndex":4,"items":[{"name":"동동커피","tel":"070-1478-1236","addr":"경기도 하남시 덕풍동 946번지 하남더샵센트럴뷰 1층 103호","indutype":"일반휴게음식 - 서양음식","category":"restaurant"}]},{"lat":"37.542177018","long":"127.20391842","imageIndex":4,"items":[{"name":"동이 감자탕","tel":"031-792-2081","addr":"경기도 하남시 덕풍동 326-120번지 1층","indutype":"일반휴게음식 - 일반한식","category":"restaurant"}]},{"lat":"37.541092674","long":"127.20045312","imageIndex":4,"items":[{"name":"동해수산","tel":"031-795-1005","addr":"경기도 하남시 덕풍동 383-23번지","indutype":"일반휴게음식 - 일반한식","category":"restaurant"}]},{"lat":"37.538458019","long":"127.20269777","imageIndex":4,"items":[{"name":"두끼떡볶이 하남신장점","tel":"031-792-7999","addr":"경기도 하남시 덕풍동 426-6번지 2층","indutype":"일반휴게음식 - 스넥","category":"restaurant"}]},{"lat":"37.539956413","long":"127.20106112","imageIndex":4,"items":[{"name":"두부자통닭","tel":"031-795-6130","addr":"경기도 하남시 덕풍동 378-3번지","indutype":"일반휴게음식 - 스넥","category":"restaurant"},{"name":"중앙커피숍","tel":"","addr":"경기도 하남시 덕풍동 378-3번지 지하","indutype":"일반휴게음식 - 서양음식","category":"restaurant"}]},{"lat":"37.539374888","long":"127.19859297","imageIndex":4,"items":[{"name":"둘둘치킨","tel":"031-796-2289","addr":"경기도 하남시 덕풍동 365-82번지 1층","indutype":"일반휴게음식 - 스넥","category":"restaurant"}]},{"lat":"37.541207045","long":"127.2020941","imageIndex":4,"items":[{"name":"둥지아구찜","tel":"031-791-2126","addr":"경기도 하남시 덕풍동 397-3번지 1층","indutype":"일반휴게음식 - 일반한식","category":"restaurant"},{"name":"둥지포차","tel":"031-791-2126","addr":"경기도 하남시 덕풍동 397-3번지","indutype":"일반휴게음식 - 주점","category":"restaurant"}]},{"lat":"37.540041249","long":"127.20417293","imageIndex":4,"items":[{"name":"등마루","tel":"031-794-1709","addr":"경기도 하남시 덕풍동 415-15번지 지층","indutype":"일반휴게음식 - 일반한식","category":"restaurant"}]},{"lat":"37.540621083","long":"127.20228489","imageIndex":4,"items":[{"name":"따봉","tel":"031-792-7215","addr":"경기도 하남시 덕풍동 395-20번지 1층","indutype":"일반휴게음식 - 일반한식","category":"restaurant"},{"name":"불타는포차","tel":"031-796-9292","addr":"경기도 하남시 덕풍동 395-20번지","indutype":"일반휴게음식 - 일반한식","category":"restaurant"},{"name":"오시네","tel":"031-793-3258","addr":"경기도 하남시 덕풍동 395-20번지","indutype":"일반휴게음식 - 일반한식","category":"restaurant"}]},{"lat":"37.539123384","long":"127.20350289","imageIndex":4,"items":[{"name":"딱좋아","tel":"031-795-6460","addr":"경기도 하남시 덕풍동 417-3번지 1층","indutype":"일반휴게음식 - 주점","category":"restaurant"}]},{"lat":"37.547563986","long":"127.20967008","imageIndex":4,"items":[{"name":"딸기하우스","tel":"031-796-7776","addr":"경기도 하남시 덕풍동 817-2번지 1층","indutype":"일반휴게음식 - 일반한식","category":"restaurant"}]},{"lat":"37.540681235","long":"127.20400492","imageIndex":4,"items":[{"name":"또또도시락","tel":"031-796-7907","addr":"경기도 하남시 덕풍동 402-1번지 1층","indutype":"일반휴게음식 - 일반한식","category":"restaurant"}]},{"lat":"37.551403781","long":"127.20875273","imageIndex":4,"items":[{"name":"또봉이통닭 덕풍점","tel":"031-796-1509","addr":"경기도 하남시 덕풍동 743-2번지 103호","indutype":"일반휴게음식 - 스넥","category":"restaurant"},{"name":"진감자탕순대국","tel":"031-794-0994","addr":"경기도 하남시 덕풍동 743-2번지 1층 2호","indutype":"일반휴게음식 - 일반한식","category":"restaurant"}]},{"lat":"37.541733768","long":"127.1996175","imageIndex":4,"items":[{"name":"뚱이네순대국","tel":"031-792-0648","addr":"경기도 하남시 덕풍동 357-50번지 102호","indutype":"일반휴게음식 - 일반한식","category":"restaurant"}]},{"lat":"37.538954629","long":"127.20206548","imageIndex":4,"items":[{"name":"롯데리아하남덕풍점","tel":"031-795-8877","addr":"경기도 하남시 덕풍동 372-19번지","indutype":"일반휴게음식 - 서양음식","category":"restaurant"}]},{"lat":"37.539848485","long":"127.20094769","imageIndex":4,"items":[{"name":"리치","tel":"031-8028-7999","addr":"경기도 하남시 덕풍동 378-5번지 2층","indutype":"일반휴게음식 - 주점","category":"restaurant"},{"name":"시골집","tel":"031-796-4112","addr":"경기도 하남시 덕풍동 378-5번지","indutype":"일반휴게음식 - 일반한식","category":"restaurant"}]},{"lat":"37.538817472","long":"127.20325315","imageIndex":4,"items":[{"name":"마니땡겨","tel":"031-635-2000","addr":"경기도 하남시 덕풍동 418-1번지 2충 1호","indutype":"일반휴게음식 - 주점","category":"restaurant"},{"name":"막걸리총각 전처녀","tel":"031-794-7945","addr":"경기도 하남시 덕풍동 418-1번지 3동","indutype":"일반휴게음식 - 일반한식","category":"restaurant"},{"name":"본가갈매기","tel":"031-794-7344","addr":"경기도 하남시 덕풍동 418-1번지 (418-81층)","indutype":"일반휴게음식 - 일반한식","category":"restaurant"},{"name":"왕노가리천국","tel":"031-794-3421","addr":"경기도 하남시 덕풍동 418-1번지 1층 5호","indutype":"일반휴게음식 - 주점","category":"restaurant"}]},{"lat":"37.540512544","long":"127.20253353","imageIndex":4,"items":[{"name":"마산아구찜","tel":"031-796-6687","addr":"경기도 하남시 덕풍동 395-3번지 1층","indutype":"일반휴게음식 - 일반한식","category":"restaurant"}]},{"lat":"37.540406067","long":"127.20156017","imageIndex":4,"items":[{"name":"마실","tel":"031-791-1447","addr":"경기도 하남시 덕풍동 391-6번지 1층","indutype":"일반휴게음식 - 스넥","category":"restaurant"}]},{"lat":"37.542482505","long":"127.19906502","imageIndex":4,"items":[{"name":"마왕족발","tel":"031-792-9695","addr":"경기도 하남시 덕풍동 348번지","indutype":"일반휴게음식 - 일반한식","category":"restaurant"},{"name":"투마리치킨(덕풍점)","tel":"031-791-7999","addr":"경기도 하남시 덕풍동 348번지","indutype":"일반휴게음식 - 스넥","category":"restaurant"}]},{"lat":"37.540541443","long":"127.20142475","imageIndex":4,"items":[{"name":"마포식당","tel":"031-793-8934","addr":"경기도 하남시 덕풍동 391-8번지 1층","indutype":"일반휴게음식 - 일반한식","category":"restaurant"}]},{"lat":"37.541649231","long":"127.20167662","imageIndex":4,"items":[{"name":"막걸리세상","tel":"031-794-6447","addr":"경기도 하남시 덕풍동 331-37번지 1층","indutype":"일반휴게음식 - 주점","category":"restaurant"},{"name":"복돼지네","tel":"031-794-0286","addr":"경기도 하남시 덕풍동 331-37번지 1층","indutype":"일반휴게음식 - 일반한식","category":"restaurant"},{"name":"지누비어","tel":"","addr":"경기도 하남시 덕풍동 331-37번지 1층","indutype":"일반휴게음식 - 주점","category":"restaurant"}]},{"lat":"37.54959237","long":"127.19840467","imageIndex":4,"items":[{"name":"막짱곱짱","tel":"031-792-1101","addr":"경기도 하남시 덕풍동 771-1번지 101호","indutype":"일반휴게음식 - 일반한식","category":"restaurant"},{"name":"잇빠쯔","tel":"","addr":"경기도 하남시 덕풍동 771-1번지 1층 102호","indutype":"일반휴게음식 - 일식·회집","category":"restaurant"}]},{"lat":"37.544069863","long":"127.19808474","imageIndex":4,"items":[{"name":"만강","tel":"031-792-3033","addr":"경기도 하남시 덕풍동 342-36번지","indutype":"일반휴게음식 - 중국식","category":"restaurant"}]},{"lat":"37.539958042","long":"127.20008805","imageIndex":4,"items":[{"name":"말바위식당","tel":"031-791-7382","addr":"경기도 하남시 덕풍동 379-20번지","indutype":"일반휴게음식 - 일반한식","category":"restaurant"}]},{"lat":"37.543454712","long":"127.2049176","imageIndex":4,"items":[{"name":"맛있는꼬소내치킨","tel":"031-795-1162","addr":"경기도 하남시 덕풍동 316-53번지","indutype":"일반휴게음식 - 서양음식","category":"restaurant"}]},{"lat":"37.555535572","long":"127.20569714","imageIndex":4,"items":[{"name":"맛있는집밥","tel":"031-796-6927","addr":"경기도 하남시 덕풍동 944번지 스마트프라자 2층","indutype":"일반휴게음식 - 일반한식","category":"restaurant"}]},{"lat":"37.540931385","long":"127.19992089","imageIndex":4,"items":[{"name":"매드해터카페","tel":"031-793-3545","addr":"경기도 하남시 덕풍동 381-6번지 1층","indutype":"일반휴게음식 - 서양음식","category":"restaurant"},{"name":"아띠분식","tel":"","addr":"경기도 하남시 덕풍동 381-6번지 1층","indutype":"일반휴게음식 - 스넥","category":"restaurant"},{"name":"엄마분식","tel":"031-794-9957","addr":"경기도 하남시 덕풍동 381-6번지","indutype":"일반휴게음식 - 일반한식","category":"restaurant"},{"name":"홍곱창","tel":"031-794-2297","addr":"경기도 하남시 덕풍동 381-6번지","indutype":"일반휴게음식 - 일반한식","category":"restaurant"}]},{"lat":"37.539512054","long":"127.19737134","imageIndex":4,"items":[{"name":"머거본","tel":"031-795-1192","addr":"경기도 하남시 덕풍동 363-20번지","indutype":"일반휴게음식 - 스넥","category":"restaurant"}]},{"lat":"37.540954216","long":"127.20242156","imageIndex":4,"items":[{"name":"먹거리순대국","tel":"031-793-6722","addr":"경기도 하남시 덕풍동 397-14번지 지층","indutype":"일반휴게음식 - 일반한식","category":"restaurant"}]},{"lat":"37.537264931","long":"127.20492353","imageIndex":4,"items":[{"name":"먹어봐뒷고기","tel":"031-794-4454","addr":"경기도 하남시 덕풍동 459-8번지","indutype":"일반휴게음식 - 일반한식","category":"restaurant"},{"name":"조선별관","tel":"","addr":"경기도 하남시 덕풍동 459-8번지 1층","indutype":"일반휴게음식 - 일반한식","category":"restaurant"}]},{"lat":"37.542903153","long":"127.20605895","imageIndex":4,"items":[{"name":"멧돼지순대국","tel":"031-794-9512","addr":"경기도 하남시 덕풍동 317-28번지 1층","indutype":"일반휴게음식 - 일반한식","category":"restaurant"},{"name":"목포댁덕장금","tel":"031-794-9512","addr":"경기도 하남시 덕풍동 317-28번지","indutype":"일반휴게음식 - 일반한식","category":"restaurant"},{"name":"목포댁덕장금","tel":"031-792-7891","addr":"경기도 하남시 덕풍동 317-28 4/3","indutype":"일반휴게음식 - 일반한식","category":"restaurant"}]},{"lat":"37.535738486","long":"127.20184195","imageIndex":4,"items":[{"name":"명가밥상","tel":"031-794-9115","addr":"경기도 하남시 덕풍동 431-18번지 1층","indutype":"일반휴게음식 - 일반한식","category":"restaurant"}]},{"lat":"37.534234778","long":"127.20128358","imageIndex":4,"items":[{"name":"명성짜장","tel":"031-000-0000","addr":"경기도 하남시 덕풍동 514-45번지","indutype":"일반휴게음식 - 중국식","category":"restaurant"},{"name":"짬신","tel":"031-791-5454","addr":"경기도 하남시 덕풍동 514-45번지","indutype":"일반휴게음식 - 중국식","category":"restaurant"}]},{"lat":"37.533290547","long":"127.20020626","imageIndex":4,"items":[{"name":"모퉁이밭","tel":"031-792-5612","addr":"경기도 하남시 덕풍동 534-15번지","indutype":"일반휴게음식 - 일반한식","category":"restaurant"}]},{"lat":"37.536568981","long":"127.20620017","imageIndex":4,"items":[{"name":"몽고","tel":"031-794-5444","addr":"경기도 하남시 덕풍동 465-1번지","indutype":"일반휴게음식 - 중국식","category":"restaurant"}]},{"lat":"37.55404361","long":"127.20878262","imageIndex":4,"items":[{"name":"몽뜨커피","tel":"070-7745-3788","addr":"경기도 하남시 덕풍동 51-1번지","indutype":"일반휴게음식 - 서양음식","category":"restaurant"}]},{"lat":"37.554015553","long":"127.20937103","imageIndex":4,"items":[{"name":"몽뜨화덕피자","tel":"031-792-0247","addr":"경기도 하남시 덕풍동 28번지 1층","indutype":"일반휴게음식 - 서양음식","category":"restaurant"}]},{"lat":"37.553762606","long":"127.2097551","imageIndex":4,"items":[{"name":"몽촌토성보리밥손칼국수","tel":"031-796-0636","addr":"경기도 하남시 덕풍동 32-2번지","indutype":"일반휴게음식 - 일반한식","category":"restaurant"}]},{"lat":"37.539347493","long":"127.20417106","imageIndex":4,"items":[{"name":"무창포 조개나라","tel":"031-794-1333","addr":"경기도 하남시 덕풍동 412-7번지 1층","indutype":"일반휴게음식 - 일반한식","category":"restaurant"},{"name":"형노가","tel":"070-8955-1167","addr":"경기도 하남시 덕풍동 412-7번지 2층","indutype":"일반휴게음식 - 일반한식","category":"restaurant"}]},{"lat":"37.533991037","long":"127.20156578","imageIndex":4,"items":[{"name":"미가","tel":"031-793-2664","addr":"경기도 하남시 덕풍동 515-25번지","indutype":"일반휴게음식 - 일반한식","category":"restaurant"}]},{"lat":"37.553120903","long":"127.21089633","imageIndex":4,"items":[{"name":"미사리밀빛초계국수2","tel":"031-794-0337","addr":"경기도 하남시 덕풍동 38-3번지 1,2층","indutype":"일반휴게음식 - 일반한식","category":"restaurant"}]},{"lat":"37.539847877","long":"127.20130976","imageIndex":4,"items":[{"name":"미스사이공","tel":"031-792-5549","addr":"경기도 하남시 덕풍동 378-10번지","indutype":"일반휴게음식 - 서양음식","category":"restaurant"},{"name":"황기순손칼국수 하남덕풍점","tel":"031-792-5549","addr":"경기도 하남시 덕풍동 378-10번지 1층","indutype":"일반휴게음식 - 일반한식","category":"restaurant"}]},{"lat":"37.539098939","long":"127.20197534","imageIndex":4,"items":[{"name":"미아리 우동집","tel":"031-795-6750","addr":"경기도 하남시 덕풍동 372-18번지 1층","indutype":"일반휴게음식 - 일반한식","category":"restaurant"}]},{"lat":"37.534875557","long":"127.20064037","imageIndex":4,"items":[{"name":"바니포차","tel":"031-794-0744","addr":"경기도 하남시 덕풍동 443-2번지 1층 3호","indutype":"일반휴게음식 - 일반한식","category":"restaurant"},{"name":"역말진순대국","tel":"02-000-0000","addr":"경기도 하남시 덕풍동 443-2번지 1층","indutype":"일반휴게음식 - 일반한식","category":"restaurant"},{"name":"편의점 포차","tel":"031-795-1511","addr":"경기도 하남시 덕풍동 443-2번지 1층","indutype":"일반휴게음식 - 주점","category":"restaurant"},{"name":"홍쌤떡볶이 덕풍점","tel":"031-699-9446","addr":"경기도 하남시 덕풍동 443-2번지","indutype":"일반휴게음식 - 스넥","category":"restaurant"}]},{"lat":"37.53415462","long":"127.20072898","imageIndex":4,"items":[{"name":"바다향기","tel":"031-795-9327","addr":"경기도 하남시 덕풍동 519-8번지","indutype":"일반휴게음식 - 일반한식","category":"restaurant"},{"name":"심통막창구이","tel":"031-794-8309","addr":"경기도 하남시 덕풍동 519-8번지","indutype":"일반휴게음식 - 일반한식","category":"restaurant"}]},{"lat":"37.536988287","long":"127.2033614","imageIndex":4,"items":[{"name":"바다횟집","tel":"031-793-8920","addr":"경기도 하남시 덕풍동 421-9번지","indutype":"일반휴게음식 - 일식·회집","category":"restaurant"}]},{"lat":"37.548652423","long":"127.2106689","imageIndex":4,"items":[{"name":"바비버거","tel":"070-4567-4444","addr":"경기도 하남시 덕풍동 807번지 1층","indutype":"일반휴게음식 - 서양음식","category":"restaurant"},{"name":"바비하우스","tel":"070-5577-5555","addr":"경기도 하남시 덕풍동 807번지 1층","indutype":"일반휴게음식 - 서양음식","category":"restaurant"}]},{"lat":"37.547759816","long":"127.21102854","imageIndex":4,"items":[{"name":"반올림피자샵 하남점","tel":"031-795-2782","addr":"경기도 하남시 덕풍동 813-1번지 1층","indutype":"일반휴게음식 - 서양음식","category":"restaurant"}]},{"lat":"37.540677938","long":"127.20062175","imageIndex":4,"items":[{"name":"반주","tel":"031-794-7978","addr":"경기도 하남시 덕풍동 387-19번지","indutype":"일반휴게음식 - 일반한식","category":"restaurant"}]},{"lat":"37.552373688","long":"127.21055475","imageIndex":4,"items":[{"name":"발칙한 (Bal chicken)닭발","tel":"031-795-7469","addr":"경기도 하남시 덕풍동 43-8번지 1층 102호","indutype":"일반휴게음식 - 일반한식","category":"restaurant"}]},{"lat":"37.538510889","long":"127.20339942","imageIndex":4,"items":[{"name":"백남옥달인손만두 하남점","tel":"031-792-9494","addr":"경기도 하남시 덕풍동 419-20번지 1층","indutype":"일반휴게음식 - 스넥","category":"restaurant"},{"name":"짝태노가리야","tel":"031-8028-9911","addr":"경기도 하남시 덕풍동 419-20번지","indutype":"일반휴게음식 - 일반한식","category":"restaurant"},{"name":"투썸플레이스하남신장점","tel":"031-795-4178","addr":"경기도 하남시 덕풍동 419-20번지","indutype":"일반휴게음식 - 서양음식","category":"restaurant"}]},{"lat":"37.540126953","long":"127.20144628","imageIndex":4,"items":[{"name":"벌떼어시장","tel":"031-794-5971","addr":"경기도 하남시 덕풍동 393-1번지 1층","indutype":"일반휴게음식 - 일반한식","category":"restaurant"},{"name":"부자네 왕족발","tel":"031-795-7373","addr":"경기도 하남시 덕풍동 393-1번지 1층","indutype":"일반휴게음식 - 일반한식","category":"restaurant"}]},{"lat":"37.538651618","long":"127.20008461","imageIndex":4,"items":[{"name":"베트남쌀국수","tel":"031-794-7336","addr":"경기도 하남시 덕풍동 370-14번지","indutype":"일반휴게음식 - 일반한식","category":"restaurant"}]},{"lat":"37.554375905","long":"127.20939465","imageIndex":4,"items":[{"name":"베티나르디","tel":"031-8027-3992","addr":"경기도 하남시 덕풍동 26-3번지 삼주빌딩 3-4층","indutype":"일반휴게음식 - 서양음식","category":"restaurant"}]},{"lat":"37.536296145","long":"127.20767028","imageIndex":4,"items":[{"name":"보훈식당","tel":"070-1111-1111","addr":"경기도 하남시 덕풍동 467-7번지","indutype":"일반휴게음식 - 일반한식","category":"restaurant"},{"name":"하남식당","tel":"031-794-8609","addr":"경기도 하남시 덕풍동 467-7번지 지층 1호","indutype":"일반휴게음식 - 일반한식","category":"restaurant"}]},{"lat":"37.547401587","long":"127.20458877","imageIndex":4,"items":[{"name":"복조리","tel":"031-2699-3062","addr":"경기도 하남시 덕풍동 303-1번지 1층","indutype":"일반휴게음식 - 일반한식","category":"restaurant"},{"name":"통닭가","tel":"031-794-2122","addr":"경기도 하남시 덕풍동 303-1번지 샤론빌딩","indutype":"일반휴게음식 - 일반한식","category":"restaurant"}]},{"lat":"37.536207398","long":"127.20688935","imageIndex":4,"items":[{"name":"본뜰고기정","tel":"031-795-4422","addr":"경기도 하남시 덕풍동 465-23번지 2층","indutype":"일반휴게음식 - 일반한식","category":"restaurant"}]},{"lat":"37.548238689","long":"127.21026038","imageIndex":4,"items":[{"name":"본스치킨","tel":"031-794-5092","addr":"경기도 하남시 덕풍동 811번지 1층 101호","indutype":"일반휴게음식 - 스넥","category":"restaurant"}]},{"lat":"37.539378891","long":"127.20159139","imageIndex":4,"items":[{"name":"본죽","tel":"031-791-5222","addr":"경기도 하남시 덕풍동 372-2번지 대동피렌체","indutype":"일반휴게음식 - 일반한식","category":"restaurant"},{"name":"죠스떡볶이","tel":"031-795-2255","addr":"경기도 하남시 덕풍동 372-2번지 대동피렌체 107호","indutype":"일반휴게음식 - 스넥","category":"restaurant"},{"name":"철판야채곱창","tel":"031-794-7449","addr":"경기도 하남시 덕풍동 372-2번지 대동피렌체 114호","indutype":"일반휴게음식 - 일반한식","category":"restaurant"}]},{"lat":"37.540126439","long":"127.20175178","imageIndex":4,"items":[{"name":"북경중화요리","tel":"031-795-3131","addr":"경기도 하남시 덕풍동 393-5번지","indutype":"일반휴게음식 - 중국식","category":"restaurant"}]},{"lat":"37.539623183","long":"127.20098104","imageIndex":4,"items":[{"name":"불티나","tel":"031-0000-0000","addr":"경기도 하남시 덕풍동 378-7번지","indutype":"일반휴게음식 - 일반한식","category":"restaurant"}]},{"lat":"37.541125173","long":"127.2025578","imageIndex":4,"items":[{"name":"불티나","tel":"02-1111-1111","addr":"경기도 하남시 덕풍동 397-26번지","indutype":"일반휴게음식 - 일반한식","category":"restaurant"}]},{"lat":"37.547707262","long":"127.20497434","imageIndex":4,"items":[{"name":"블루테라스","tel":"031-795-9259","addr":"경기도 하남시 덕풍동 297-3번지 1층","indutype":"일반휴게음식 - 서양음식","category":"restaurant"}]},{"lat":"37.537065959","long":"127.20536425","imageIndex":4,"items":[{"name":"비무장지대","tel":"031-791-8003","addr":"경기도 하남시 덕풍동 458-2번지 대흥빌딩 1층","indutype":"일반휴게음식 - 일반한식","category":"restaurant"}]},{"lat":"37.539204376","long":"127.20355968","imageIndex":4,"items":[{"name":"비어트리","tel":"031-791-9949","addr":"경기도 하남시 덕풍동 417-1번지 1층","indutype":"일반휴게음식 - 주점","category":"restaurant"},{"name":"족발킹","tel":"031-793-2851","addr":"경기도 하남시 덕풍동 417-1번지 1층","indutype":"일반휴게음식 - 일반한식","category":"restaurant"}]},{"lat":"37.54026746","long":"127.19823323","imageIndex":4,"items":[{"name":"빨간사과","tel":"031-794-3350","addr":"경기도 하남시 덕풍동 359-46번지 1층","indutype":"일반휴게음식 - 스넥","category":"restaurant"}]},{"lat":"37.539654979","long":"127.19811849","imageIndex":4,"items":[{"name":"쁘띠타미","tel":"031-792-9797","addr":"경기도 하남시 덕풍동 362번지","indutype":"일반휴게음식 - 서양음식","category":"restaurant"},{"name":"쁘띠타미/하남장애인직업재활센터","tel":"031-796-2340","addr":"경기도 하남시 덕풍동 362번지","indutype":"일반휴게음식 - 서양음식","category":"restaurant"}]},{"lat":"37.539873172","long":"127.20233948","imageIndex":4,"items":[{"name":"사랑초","tel":"031-795-4353","addr":"경기도 하남시 덕풍동 395-24번지","indutype":"일반휴게음식 - 일반한식","category":"restaurant"}]},{"lat":"37.537987184","long":"127.20406557","imageIndex":4,"items":[{"name":"사카","tel":"031-791-9421","addr":"경기도 하남시 덕풍동 419-8번지","indutype":"일반휴게음식 - 서양음식","category":"restaurant"}]},{"lat":"37.534961385","long":"127.20317495","imageIndex":4,"items":[{"name":"사탄곱창","tel":"031-793-1554","addr":"경기도 하남시 덕풍동 511-38번지 102호","indutype":"일반휴게음식 - 일반한식","category":"restaurant"}]},{"lat":"37.542267251","long":"127.20383945","imageIndex":4,"items":[{"name":"새말집","tel":"031-000-0000","addr":"경기도 하남시 덕풍동 326-121번지 1층","indutype":"일반휴게음식 - 일반한식","category":"restaurant"}]},{"lat":"37.543235502","long":"127.20664825","imageIndex":4,"items":[{"name":"샹하이","tel":"031-796-2225","addr":"경기도 하남시 덕풍동 285-52번지 1층","indutype":"일반휴게음식 - 중국식","category":"restaurant"}]},{"lat":"37.540983399","long":"127.20114305","imageIndex":4,"items":[{"name":"셰프의 돈까스 하남점","tel":"031-795-0978","addr":"경기도 하남시 덕풍동 387-8번지 1층","indutype":"일반휴게음식 - 일반한식","category":"restaurant"}]},{"lat":"37.539731585","long":"127.2008116","imageIndex":4,"items":[{"name":"송가네솥뚜껑생삼겹","tel":"031-793-3301","addr":"경기도 하남시 덕풍동 378-6번지 1층","indutype":"일반휴게음식 - 일반한식","category":"restaurant"},{"name":"여주한우촌","tel":"031-793-3045","addr":"경기도 하남시 덕풍동 378-6번지","indutype":"일반휴게음식 - 일반한식","category":"restaurant"}]},{"lat":"37.536405946","long":"127.20669755","imageIndex":4,"items":[{"name":"송도복어탕","tel":"031-794-9977","addr":"경기도 하남시 덕풍동 465-25번지","indutype":"일반휴게음식 - 일반한식","category":"restaurant"}]},{"lat":"37.541012606","long":"127.1998419","imageIndex":4,"items":[{"name":"수릿골","tel":"031-791-1717","addr":"경기도 하남시 덕풍동 358-5번지 2층","indutype":"일반휴게음식 - 일반한식","category":"restaurant"}]},{"lat":"37.533706169","long":"127.1995059","imageIndex":4,"items":[{"name":"수제뜰","tel":"031-796-4933","addr":"경기도 하남시 덕풍동 441-74번지 지하1층","indutype":"일반휴게음식 - 서양음식","category":"restaurant"}]},{"lat":"37.534566465","long":"127.20228009","imageIndex":4,"items":[{"name":"순대싸롱","tel":"031-794-8577","addr":"경기도 하남시 덕풍동 514-12번지 1층","indutype":"일반휴게음식 - 일반한식","category":"restaurant"}]},{"lat":"37.539569731","long":"127.20061882","imageIndex":4,"items":[{"name":"술이머무는곳","tel":"031-8028-7999","addr":"경기도 하남시 덕풍동 373-11번지","indutype":"일반휴게음식 - 일반한식","category":"restaurant"},{"name":"허벅","tel":"031-792-0059","addr":"경기도 하남시 덕풍동 373-11번지 1층","indutype":"일반휴게음식 - 일반한식","category":"restaurant"}]},{"lat":"37.54812172","long":"127.21016952","imageIndex":4,"items":[{"name":"숯불&닭발","tel":"","addr":"경기도 하남시 덕풍동 811-1번지 1층","indutype":"일반휴게음식 - 일반한식","category":"restaurant"},{"name":"투다리하남본점","tel":"02-0000-0000","addr":"경기도 하남시 덕풍동 811-1번지 1층","indutype":"일반휴게음식 - 일반한식","category":"restaurant"}]},{"lat":"37.533740489","long":"127.20053555","imageIndex":4,"items":[{"name":"숯불직화꼬치바베큐","tel":"031-795-5792","addr":"경기도 하남시 덕풍동 521-1번지","indutype":"일반휴게음식 - 일반한식","category":"restaurant"},{"name":"역말횟집","tel":"031-794-1388","addr":"경기도 하남시 덕풍동 521-1번지 1층","indutype":"일반휴게음식 - 일식·회집","category":"restaurant"}]},{"lat":"37.544370034","long":"127.20705869","imageIndex":4,"items":[{"name":"쉬즈씨앤씨 (쉬즈트럭)","tel":"000-000-0000","addr":"경기도 하남시 덕풍동 694번지","indutype":"일반휴게음식 - 일반한식","category":"restaurant"},{"name":"커피볶는낭만곰","tel":"031-725-1739","addr":"경기도 하남시 덕풍동 694번지","indutype":"일반휴게음식 - 서양음식","category":"restaurant"}]},{"lat":"37.543455408","long":"127.20451025","imageIndex":4,"items":[{"name":"스카이","tel":"031-795-9644","addr":"경기도 하남시 덕풍동 산23-9번지","indutype":"일반휴게음식 - 주점","category":"restaurant"}]},{"lat":"37.539461291","long":"127.20081089","imageIndex":4,"items":[{"name":"시골왕족발","tel":"031-794-6664","addr":"경기도 하남시 덕풍동 373-12번지 1층 104호","indutype":"일반휴게음식 - 일반한식","category":"restaurant"}]},{"lat":"37.540873224","long":"127.20236477","imageIndex":4,"items":[{"name":"시장통닭","tel":"031-792-8586","addr":"경기도 하남시 덕풍동 397-15번지 지층","indutype":"일반휴게음식 - 일반한식","category":"restaurant"}]},{"lat":"37.535649377","long":"127.20125338","imageIndex":4,"items":[{"name":"신 돈까스","tel":"031-795-5453","addr":"경기도 하남시 덕풍동 432-7번지 1층","indutype":"일반휴게음식 - 일식·회집","category":"restaurant"}]},{"lat":"37.536125908","long":"127.20184298","imageIndex":4,"items":[{"name":"신선옛날통닭","tel":"031-795-8233","addr":"경기도 하남시 덕풍동 435-69번지 1층","indutype":"일반휴게음식 - 스넥","category":"restaurant"},{"name":"신전떡볶이","tel":"031-793-7711","addr":"경기도 하남시 덕풍동 435-69번지","indutype":"일반휴게음식 - 스넥","category":"restaurant"}]},{"lat":"37.54090343","long":"127.20047525","imageIndex":4,"items":[{"name":"신안집","tel":"031-793-4003","addr":"경기도 하남시 덕풍동 383-4번지 1층","indutype":"일반휴게음식 - 주점","category":"restaurant"},{"name":"훈이네곱창","tel":"031-795-9946","addr":"경기도 하남시 덕풍동 383-4번지","indutype":"일반휴게음식 - 일반한식","category":"restaurant"}]},{"lat":"37.5417601","long":"127.20003622","imageIndex":4,"items":[{"name":"신장다방","tel":"031-796-1135","addr":"경기도 하남시 덕풍동 356-4번지 2층","indutype":"일반휴게음식 - 서양음식","category":"restaurant"},{"name":"썬더치킨","tel":"031-792-7234","addr":"경기도 하남시 덕풍동 356-4번지 1층","indutype":"일반휴게음식 - 스넥","category":"restaurant"},{"name":"오남호프","tel":"","addr":"경기도 하남시 덕풍동 356-4번지 2층","indutype":"일반휴게음식 - 주점","category":"restaurant"},{"name":"짱가","tel":"031-793-9514","addr":"경기도 하남시 덕풍동 356-4번지 1층","indutype":"일반휴게음식 - 중국식","category":"restaurant"}]},{"lat":"37.544263692","long":"127.2060287","imageIndex":4,"items":[{"name":"신토종","tel":"031-796-5880","addr":"경기도 하남시 덕풍동 285-62.101~102호","indutype":"일반휴게음식 - 일반한식","category":"restaurant"}]},{"lat":"37.548369595","long":"127.20226027","imageIndex":4,"items":[{"name":"신한함바","tel":"031-796-7730","addr":"경기도 하남시 덕풍동 300-6번지","indutype":"일반휴게음식 - 일반한식","category":"restaurant"}]},{"lat":"37.542789877","long":"127.20380691","imageIndex":4,"items":[{"name":"싸닭","tel":"031-792-8255","addr":"경기도 하남시 덕풍동 322-8번지 1층","indutype":"일반휴게음식 - 주점","category":"restaurant"},{"name":"이삭(덕풍점)","tel":"031-792-7447","addr":"경기도 하남시 덕풍동 322-8번지 1층","indutype":"일반휴게음식 - 스넥","category":"restaurant"}]},{"lat":"37.55423321","long":"127.2085568","imageIndex":4,"items":[{"name":"아빠찜","tel":"031-793-0019","addr":"경기도 하남시 덕풍동 60-1번지 1층","indutype":"일반휴게음식 - 일반한식","category":"restaurant"}]},{"lat":"37.534739898","long":"127.20094549","imageIndex":4,"items":[{"name":"아재초콜릿","tel":"","addr":"경기도 하남시 덕풍동 445-1번지","indutype":"일반휴게음식 - 서양음식","category":"restaurant"},{"name":"형노가 (5호점)","tel":"070-3892-1167","addr":"경기도 하남시 덕풍동 445-1번지 지층","indutype":"일반휴게음식 - 일반한식","category":"restaurant"}]},{"lat":"37.54135017","long":"127.20270549","imageIndex":4,"items":[{"name":"안동한우곱창","tel":"031-795-9988","addr":"경기도 하남시 덕풍동 398-12번지 1층","indutype":"일반휴게음식 - 일반한식","category":"restaurant"}]},{"lat":"37.555486673","long":"127.20792649","imageIndex":4,"items":[{"name":"안동한우국밥.정육식당","tel":"031-794-9295","addr":"경기도 하남시 덕풍동 69번지 2층","indutype":"일반휴게음식 - 일반한식","category":"restaurant"},{"name":"지리산유황오리","tel":"031-794-7999","addr":"경기도 하남시 덕풍동 69번지 1층","indutype":"일반휴게음식 - 일반한식","category":"restaurant"},{"name":"참신한우마을","tel":"031-794-9295","addr":"경기도 하남시 덕풍동 69번지 1층","indutype":"일반휴게음식 - 일반한식","category":"restaurant"},{"name":"한강한식부페","tel":"031-796-9978","addr":"경기도 하남시 덕풍동 69번지 2층","indutype":"일반휴게음식 - 일반한식","category":"restaurant"}]},{"lat":"37.541793902","long":"127.20137149","imageIndex":4,"items":[{"name":"암사동벼락떡볶이 (하남점)","tel":"031-795-2531","addr":"경기도 하남시 덕풍동 331-18번지 1층","indutype":"일반휴게음식 - 일반한식","category":"restaurant"},{"name":"어깨쭉펴포장마차","tel":"031-111-1111","addr":"경기도 하남시 덕풍동 331-18번지 1층 101호","indutype":"일반휴게음식 - 일반한식","category":"restaurant"}]},{"lat":"37.54198559","long":"127.19988972","imageIndex":4,"items":[{"name":"압구정봉구비어","tel":"070-8670-5177","addr":"경기도 하남시 덕풍동 356-25번지","indutype":"일반휴게음식 - 주점","category":"restaurant"}]},{"lat":"37.538405259","long":"127.20192824","imageIndex":4,"items":[{"name":"애신카페","tel":"031-000-0000","addr":"경기도 하남시 덕풍동 372-162번지 1층","indutype":"일반휴게음식 - 서양음식","category":"restaurant"}]},{"lat":"37.535261405","long":"127.19614969","imageIndex":4,"items":[{"name":"양계장집 아들","tel":"031-795-9131","addr":"경기도 하남시 덕풍동 558-27번지 1층","indutype":"일반휴게음식 - 스넥","category":"restaurant"},{"name":"종로김밥","tel":"031-792-5929","addr":"경기도 하남시 덕풍동 558-27,1-101","indutype":"일반휴게음식 - 일반한식","category":"restaurant"}]},{"lat":"37.541206682","long":"127.20230908","imageIndex":4,"items":[{"name":"양지곱창","tel":"031-795-1936","addr":"경기도 하남시 덕풍동 397-7번지 외2필지","indutype":"일반휴게음식 - 일반한식","category":"restaurant"}]},{"lat":"37.541259842","long":"127.20284103","imageIndex":4,"items":[{"name":"양푼이동태탕 덕풍점","tel":"031-795-6655","addr":"경기도 하남시 덕풍동 398-13번지 1층","indutype":"일반휴게음식 - 일반한식","category":"restaurant"},{"name":"퇘랑숯돌생고기","tel":"031-795-6655","addr":"경기도 하남시 덕풍동 398-13번지 1층","indutype":"일반휴게음식 - 일반한식","category":"restaurant"}]},{"lat":"37.539069882","long":"127.20317462","imageIndex":4,"items":[{"name":"언덕위에오리집","tel":"031-796-5225","addr":"경기도 하남시 덕풍동 416-21번지","indutype":"일반휴게음식 - 일반한식","category":"restaurant"}]},{"lat":"37.53840179","long":"127.20397617","imageIndex":4,"items":[{"name":"엉터리생고기 하남점","tel":"031-796-6364","addr":"경기도 하남시 덕풍동 419-42번지 1층","indutype":"일반휴게음식 - 일반한식","category":"restaurant"}]},{"lat":"37.534011068","long":"127.20036656","imageIndex":4,"items":[{"name":"에이스","tel":"031-795-0165","addr":"경기도 하남시 덕풍동 441-13번지 1층","indutype":"일반휴게음식 - 주점","category":"restaurant"}]},{"lat":"37.541066022","long":"127.20022675","imageIndex":4,"items":[{"name":"에이탑(a TOP)호프","tel":"031-791-8027","addr":"경기도 하남시 덕풍동 383-10번지 1층","indutype":"일반휴게음식 - 주점","category":"restaurant"},{"name":"자매집","tel":"031-796-0420","addr":"경기도 하남시 덕풍동 383-10번지 1층 덕동","indutype":"일반휴게음식 - 일반한식","category":"restaurant"},{"name":"추억커피호프","tel":"031-792-0607","addr":"경기도 하남시 덕풍동 383-10번지 지층","indutype":"일반휴게음식 - 주점","category":"restaurant"}]},{"lat":"37.533539478","long":"127.20219816","imageIndex":4,"items":[{"name":"역말왕족발","tel":"031-791-0156","addr":"경기도 하남시 덕풍동 515-70번지","indutype":"일반휴게음식 - 일반한식","category":"restaurant"}]},{"lat":"37.542287152","long":"127.20273062","imageIndex":4,"items":[{"name":"영동갈비","tel":"031-794-9669","addr":"경기도 하남시 덕풍동 326-39번지 1층","indutype":"일반휴게음식 - 일반한식","category":"restaurant"}]},{"lat":"37.547321224","long":"127.19880612","imageIndex":4,"items":[{"name":"영락문화마을/카페나드","tel":"031-794-0091","addr":"경기도 하남시 덕풍동 213-8번지","indutype":"일반휴게음식 - 서양음식","category":"restaurant"}]},{"lat":"37.543233527","long":"127.20252947","imageIndex":4,"items":[{"name":"예그리나","tel":"031-791-7942","addr":"경기도 하남시 덕풍동 335-7번지 1층","indutype":"일반휴게음식 - 주점","category":"restaurant"}]},{"lat":"37.54076001","long":"127.20003359","imageIndex":4,"items":[{"name":"옛날통닭","tel":"031-792-7200","addr":"경기도 하남시 덕풍동 381-16번지","indutype":"일반휴게음식 - 일반한식","category":"restaurant"}]},{"lat":"37.540711791","long":"127.20192306","imageIndex":4,"items":[{"name":"옛날통닭","tel":"031-796-2120","addr":"경기도 하남시 덕풍동 390-3번지","indutype":"일반휴게음식 - 일반한식","category":"restaurant"}]},{"lat":"37.541514883","long":"127.20120103","imageIndex":4,"items":[{"name":"오늘먹자","tel":"031-793-3340","addr":"경기도 하남시 덕풍동 386-1번지 106호","indutype":"일반휴게음식 - 일반한식","category":"restaurant"}]},{"lat":"37.533540926","long":"127.20133831","imageIndex":4,"items":[{"name":"오뚝이백반","tel":"031-796-2228","addr":"경기도 하남시 덕풍동 517-10번지 1층","indutype":"일반휴게음식 - 일반한식","category":"restaurant"}]},{"lat":"37.542594575","long":"127.20208647","imageIndex":4,"items":[{"name":"오마이 닭갈비 막국수 전문점","tel":"031-793-8355","addr":"경기도 하남시 덕풍동 332-30번지 1층 102호","indutype":"일반휴게음식 - 일반한식","category":"restaurant"}]},{"lat":"37.536768053","long":"127.20570288","imageIndex":4,"items":[{"name":"오징어콩나물국밥","tel":"","addr":"경기도 하남시 덕풍동 461-21번지 1층","indutype":"일반휴게음식 - 일반한식","category":"restaurant"},{"name":"이모네","tel":"","addr":"경기도 하남시 덕풍동 461-21번지","indutype":"일반휴게음식 - 일반한식","category":"restaurant"}]},{"lat":"37.540486832","long":"127.20175274","imageIndex":4,"items":[{"name":"옥희네국밥","tel":"031-792-3676","addr":"경기도 하남시 덕풍동 391-4번지 1층","indutype":"일반휴게음식 - 일반한식","category":"restaurant"}]},{"lat":"37.533704961","long":"127.20022998","imageIndex":4,"items":[{"name":"와그너치킨","tel":"031-796-3700","addr":"경기도 하남시 덕풍동 441-16번지","indutype":"일반휴게음식 - 주점","category":"restaurant"}]},{"lat":"37.536875937","long":"127.20583894","imageIndex":4,"items":[{"name":"왕십리곱창","tel":"031-793-1008","addr":"경기도 하남시 덕풍동 461-36번지","indutype":"일반휴게음식 - 일반한식","category":"restaurant"},{"name":"일번지 포차","tel":"031-795-7968","addr":"경기도 하남시 덕풍동 461-36번지 1층","indutype":"일반휴게음식 - 주점","category":"restaurant"}]},{"lat":"37.547761904","long":"127.20984036","imageIndex":4,"items":[{"name":"요거프레소풍산점","tel":"031-791-7529","addr":"경기도 하남시 덕풍동 817번지","indutype":"일반휴게음식 - 서양음식","category":"restaurant"}]},{"lat":"37.548067325","long":"127.20516768","imageIndex":4,"items":[{"name":"용궁 위에 목장","tel":"031-791-9295","addr":"경기도 하남시 덕풍동 297-12번지 2층 1","indutype":"일반휴게음식 - 일반한식","category":"restaurant"}]},{"lat":"37.536597022","long":"127.2056119","imageIndex":4,"items":[{"name":"우리식당","tel":"031-792-7670","addr":"경기도 하남시 덕풍동 461-29번지","indutype":"일반휴게음식 - 일반한식","category":"restaurant"}]},{"lat":"37.533934686","long":"127.2029233","imageIndex":4,"items":[{"name":"우리집식당","tel":"031-794-1717","addr":"경기도 하남시 덕풍동 515-50번지","indutype":"일반휴게음식 - 일반한식","category":"restaurant"}]},{"lat":"37.543537498","long":"127.19855859","imageIndex":4,"items":[{"name":"원조명품곱창전문점(구)길","tel":"031-792-3597","addr":"경기도 하남시 덕풍동 341-21번지 1층","indutype":"일반휴게음식 - 일반한식","category":"restaurant"}]},{"lat":"37.542850381","long":"127.19998252","imageIndex":4,"items":[{"name":"이가네","tel":"031-791-0665","addr":"경기도 하남시 덕풍동 352-43번지","indutype":"일반휴게음식 - 일반한식","category":"restaurant"}]},{"lat":"37.541542087","long":"127.20639471","imageIndex":4,"items":[{"name":"이디아(하남점)","tel":"031-794-9481","addr":"경기도 하남시 덕풍동 406-2번지","indutype":"일반휴게음식 - 서양음식","category":"restaurant"}]},{"lat":"37.538123236","long":"127.20353416","imageIndex":4,"items":[{"name":"이디야커피 하남덕풍점","tel":"031-795-5937","addr":"경기도 하남시 덕풍동 419-17번지 2층","indutype":"일반휴게음식 - 서양음식","category":"restaurant"}]},{"lat":"37.538483687","long":"127.20350118","imageIndex":4,"items":[{"name":"이디야커피- 하남덕풍점","tel":"031-795-5937","addr":"경기도 하남시 덕풍동 419-47번지 2층","indutype":"일반휴게음식 - 서양음식","category":"restaurant"}]},{"lat":"37.533152895","long":"127.20169932","imageIndex":4,"items":[{"name":"이모네 소머리 국밥","tel":"031-796-5163","addr":"경기도 하남시 덕풍동 525-4번지 1층","indutype":"일반휴게음식 - 일반한식","category":"restaurant"}]},{"lat":"37.540263581","long":"127.20056408","imageIndex":4,"items":[{"name":"이정수치킨익스프레스","tel":"031-793-8866","addr":"경기도 하남시 덕풍동 378-4번지","indutype":"일반휴게음식 - 일반한식","category":"restaurant"}]},{"lat":"37.541815661","long":"127.2044832","imageIndex":4,"items":[{"name":"이종숙황금약선","tel":"","addr":"경기도 하남시 덕풍동 326-77번지 1,2층","indutype":"일반휴게음식 - 일반한식","category":"restaurant"}]},{"lat":"37.540764723","long":"127.20259078","imageIndex":4,"items":[{"name":"인천찹쌀순대","tel":"031-793-5010","addr":"경기도 하남시 덕풍동 397-25번지","indutype":"일반휴게음식 - 일반한식","category":"restaurant"}]},{"lat":"37.53354233","long":"127.20050109","imageIndex":4,"items":[{"name":"있잖아요 아빠 치킨점","tel":"031-795-6362","addr":"경기도 하남시 덕풍동 522-1번지","indutype":"일반휴게음식 - 주점","category":"restaurant"}]},{"lat":"37.541071955","long":"127.20205979","imageIndex":4,"items":[{"name":"자미손칼국수","tel":"031-792-1511","addr":"경기도 하남시 덕풍동 390-6,390-7(1층)","indutype":"일반휴게음식 - 일반한식","category":"restaurant"}]},{"lat":"37.541345005","long":"127.20041984","imageIndex":4,"items":[{"name":"자연밥상","tel":"031-791-5459","addr":"경기도 하남시 덕풍동 383-15번지 1층","indutype":"일반휴게음식 - 일반한식","category":"restaurant"}]},{"lat":"37.541460025","long":"127.20167611","imageIndex":4,"items":[{"name":"자연포크","tel":"031-794-8675","addr":"경기도 하남시 덕풍동 386-9번지","indutype":"일반휴게음식 - 일반한식","category":"restaurant"}]},{"lat":"37.539149932","long":"127.20378583","imageIndex":4,"items":[{"name":"작은공간","tel":"031-794-9253","addr":"경기도 하남시 덕풍동 412-17번지","indutype":"일반휴게음식 - 일반한식","category":"restaurant"},{"name":"청춘시대","tel":"031-793-3458","addr":"경기도 하남시 덕풍동 412-17번지","indutype":"일반휴게음식 - 일반한식","category":"restaurant"}]},{"lat":"37.540316711","long":"127.20111865","imageIndex":4,"items":[{"name":"장수감자탕","tel":"031-795-0063","addr":"경기도 하남시 덕풍동 392-1번지","indutype":"일반휴게음식 - 일반한식","category":"restaurant"},{"name":"황토마루","tel":"031-795-8350","addr":"경기도 하남시 덕풍동 392-1번지","indutype":"일반휴게음식 - 일반한식","category":"restaurant"}]},{"lat":"37.551265629","long":"127.20527817","imageIndex":4,"items":[{"name":"장위동 유성집","tel":"031-793-0610","addr":"경기도 하남시 덕풍동 226-6번지 101호 ,102호","indutype":"일반휴게음식 - 일반한식","category":"restaurant"}]},{"lat":"37.540792746","long":"127.20200248","imageIndex":4,"items":[{"name":"장터일번지","tel":"031-792-6083","addr":"경기도 하남시 덕풍동 390-15번지 G동 1층","indutype":"일반휴게음식 - 일반한식","category":"restaurant"}]},{"lat":"37.546932029","long":"127.21039255","imageIndex":4,"items":[{"name":"전설의두루치기/애자일주식회사","tel":"031-796-4941","addr":"경기도 하남시 덕풍동 813-8번지","indutype":"일반휴게음식 - 일반한식","category":"restaurant"}]},{"lat":"37.536488943","long":"127.20558898","imageIndex":4,"items":[{"name":"전주밥상","tel":"031-792-6119","addr":"경기도 하남시 덕풍동 461-32번지","indutype":"일반휴게음식 - 일반한식","category":"restaurant"}]},{"lat":"37.553626486","long":"127.21030925","imageIndex":4,"items":[{"name":"정가네밥상/주식회사거성푸드","tel":"031-793-1855","addr":"경기도 하남시 덕풍동 31-2번지 1층","indutype":"일반휴게음식 - 일반한식","category":"restaurant"}]},{"lat":"37.547930463","long":"127.21133454","imageIndex":4,"items":[{"name":"정마구로야","tel":"031-793-8896","addr":"경기도 하남시 덕풍동 809-2번지 1층","indutype":"일반휴게음식 - 일식·회집","category":"restaurant"}]},{"lat":"37.537068279","long":"127.20400653","imageIndex":4,"items":[{"name":"제이","tel":"031-795-2965","addr":"경기도 하남시 덕풍동 420-35번지 지층 1호","indutype":"일반휴게음식 - 주점","category":"restaurant"}]},{"lat":"37.540485381","long":"127.20261266","imageIndex":4,"items":[{"name":"제주애가","tel":"031-794-0660","addr":"경기도 하남시 덕풍동 401-36번지 1층","indutype":"일반휴게음식 - 일반한식","category":"restaurant"},{"name":"제주육백","tel":"031-794-0660","addr":"경기도 하남시 덕풍동 401-36번지 1층","indutype":"일반휴게음식 - 일반한식","category":"restaurant"}]},{"lat":"37.547651598","long":"127.21108482","imageIndex":4,"items":[{"name":"젠틀 로스터스","tel":"02-1111-1111","addr":"경기도 하남시 덕풍동 813-2번지 1층 후면","indutype":"일반휴게음식 - 서양음식","category":"restaurant"}]},{"lat":"37.539239838","long":"127.20389922","imageIndex":4,"items":[{"name":"조개본능","tel":"031-796-3532","addr":"경기도 하남시 덕풍동 412-15번지","indutype":"일반휴게음식 - 일반한식","category":"restaurant"},{"name":"컨츄리꼬꼬","tel":"031-794-9182","addr":"경기도 하남시 덕풍동 412-15번지","indutype":"일반휴게음식 - 주점","category":"restaurant"},{"name":"타노시","tel":"031-795-5680","addr":"경기도 하남시 덕풍동 412-15번지 1층 타노시","indutype":"일반휴게음식 - 일식·회집","category":"restaurant"},{"name":"황,바베큐","tel":"031-793-5590","addr":"경기도 하남시 덕풍동 412-15번지","indutype":"일반휴게음식 - 일반한식","category":"restaurant"}]},{"lat":"37.549258426","long":"127.1987546","imageIndex":4,"items":[{"name":"조짜장","tel":"031-796-3383","addr":"경기도 하남시 덕풍동 782-3번지 1층","indutype":"일반휴게음식 - 중국식","category":"restaurant"},{"name":"호식이두마리치킨(풍산지구점)","tel":"031-795-9299","addr":"경기도 하남시 덕풍동 782-3번지 1층 102호","indutype":"일반휴게음식 - 스넥","category":"restaurant"}]},{"lat":"37.541731859","long":"127.20076031","imageIndex":4,"items":[{"name":"종가댁밥상","tel":"031-792-3451","addr":"경기도 하남시 덕풍동 355-18번지 1층","indutype":"일반휴게음식 - 일반한식","category":"restaurant"}]},{"lat":"37.536712846","long":"127.20637027","imageIndex":4,"items":[{"name":"주식회사 두럭","tel":"031-795-9918","addr":"경기도 하남시 덕풍동 465번지","indutype":"일반휴게음식 - 일반한식","category":"restaurant"},{"name":"하남집클라쓰","tel":"031-792-9912","addr":"경기도 하남시 덕풍동 465번지 1층","indutype":"일반휴게음식 - 일반한식","category":"restaurant"}]},{"lat":"37.553591122","long":"127.20992438","imageIndex":4,"items":[{"name":"주식회사선한","tel":"031-791-9234","addr":"경기도 하남시 덕풍동 31-5번지 1층","indutype":"일반휴게음식 - 일반한식","category":"restaurant"}]},{"lat":"37.543294907","long":"127.19815061","imageIndex":4,"items":[{"name":"주식회사진품/진주품은활어","tel":"031-795-0221","addr":"경기도 하남시 덕풍동 346-11번지 1층","indutype":"일반휴게음식 - 일식·회집","category":"restaurant"}]},{"lat":"37.542759132","long":"127.20597935","imageIndex":4,"items":[{"name":"준이네식당","tel":"031-795-4447","addr":"경기도 하남시 덕풍동 317-34번지","indutype":"일반휴게음식 - 일반한식","category":"restaurant"}]},{"lat":"37.542484332","long":"127.20334217","imageIndex":4,"items":[{"name":"착한먹거리","tel":"031-795-6604","addr":"경기도 하남시 덕풍동 326-29번지 1층","indutype":"일반휴게음식 - 일반한식","category":"restaurant"},{"name":"홍천국시 메밀부침","tel":"031-792-1109","addr":"경기도 하남시 덕풍동 326-29번지 외3필지 1층","indutype":"일반휴게음식 - 일반한식","category":"restaurant"}]},{"lat":"37.532372299","long":"127.1997513","imageIndex":4,"items":[{"name":"찰스치킨","tel":"031-794-7492","addr":"경기도 하남시 덕풍동 534-13번지 1층 103호","indutype":"일반휴게음식 - 스넥","category":"restaurant"}]},{"lat":"37.536315653","long":"127.20681045","imageIndex":4,"items":[{"name":"참야콘왕냉면갈비","tel":"031-795-4101","addr":"경기도 하남시 덕풍동 465-24번지","indutype":"일반휴게음식 - 일반한식","category":"restaurant"}]},{"lat":"37.53992746","long":"127.20220384","imageIndex":4,"items":[{"name":"처가집식당","tel":"031-791-7222","addr":"경기도 하남시 덕풍동 395-11번지","indutype":"일반휴게음식 - 일반한식","category":"restaurant"}]},{"lat":"37.536678013","long":"127.20566869","imageIndex":4,"items":[{"name":"처을처럼 포차","tel":"031-794-2285","addr":"경기도 하남시 덕풍동 461-28번지 1층","indutype":"일반휴게음식 - 주점","category":"restaurant"}]},{"lat":"37.538707835","long":"127.20414671","imageIndex":4,"items":[{"name":"천하불닭발","tel":"031-794-9282","addr":"경기도 하남시 덕풍동 419-30번지","indutype":"일반휴게음식 - 주점","category":"restaurant"}]},{"lat":"37.553924544","long":"127.20989135","imageIndex":4,"items":[{"name":"청와삼대칼국수(미사리본점)","tel":"031-796-5267","addr":"경기도 하남시 덕풍동 29-3번지","indutype":"일반휴게음식 - 일반한식","category":"restaurant"}]},{"lat":"37.55108","long":"127.20842366","imageIndex":4,"items":[{"name":"첸첸","tel":"031-791-1020","addr":"경기도 하남시 덕풍동 744-2번지 풍산캐슬 205호~206호","indutype":"일반휴게음식 - 중국식","category":"restaurant"}]},{"lat":"37.541737553","long":"127.20272915","imageIndex":4,"items":[{"name":"촌놈촌닭","tel":"031-795-2228","addr":"경기도 하남시 덕풍동 326-113번지 1층","indutype":"일반휴게음식 - 일반한식","category":"restaurant"}]},{"lat":"37.541767253","long":"127.20114512","imageIndex":4,"items":[{"name":"치킨처럼(하남점)","tel":"031-794-9592","addr":"경기도 하남시 덕풍동 386번지","indutype":"일반휴게음식 - 스넥","category":"restaurant"}]},{"lat":"37.548480839","long":"127.21089475","imageIndex":4,"items":[{"name":"칭구들","tel":"031-795-0930","addr":"경기도 하남시 덕풍동 808번지 1층","indutype":"일반휴게음식 - 주점","category":"restaurant"}]},{"lat":"37.548373597","long":"127.21039654","imageIndex":4,"items":[{"name":"카페보르사","tel":"","addr":"경기도 하남시 덕풍동 810번지 1층 102호","indutype":"일반휴게음식 - 서양음식","category":"restaurant"}]},{"lat":"37.552980715","long":"127.20339291","imageIndex":4,"items":[{"name":"커피베이","tel":"031-793-4078","addr":"경기도 하남시 덕풍동 731번지 하남풍산아이파크5단지 상가동 102호","indutype":"일반휴게음식 - 서양음식","category":"restaurant"}]},{"lat":"37.541816848","long":"127.19841831","imageIndex":4,"items":[{"name":"커피베이","tel":"031-792-1376","addr":"경기도 하남시 덕풍동 348-84번지 1층","indutype":"일반휴게음식 - 서양음식","category":"restaurant"}]},{"lat":"37.547456066","long":"127.20955662","imageIndex":4,"items":[{"name":"커피볶는아침","tel":"031-791-7692","addr":"경기도 하남시 덕풍동 817-3번지 1층","indutype":"일반휴게음식 - 서양음식","category":"restaurant"},{"name":"커피볶는아침","tel":"031-791-7692","addr":"경기도 하남시 덕풍동 817-3번지 1층","indutype":"일반휴게음식 - 서양음식","category":"restaurant"}]},{"lat":"37.533650012","long":"127.20076159","imageIndex":4,"items":[{"name":"콩닥콩닥","tel":"031-792-2828","addr":"경기도 하남시 덕풍동 521-4번지 1층","indutype":"일반휴게음식 - 일반한식","category":"restaurant"}]},{"lat":"37.539459045","long":"127.20214602","imageIndex":4,"items":[{"name":"탐앤탐스 하남덕풍점","tel":"031-796-5250","addr":"경기도 하남시 덕풍동 415-72번지 성하빌딩 1층","indutype":"일반휴게음식 - 서양음식","category":"restaurant"}]},{"lat":"37.540683348","long":"127.20276029","imageIndex":4,"items":[{"name":"탕이랑볶음","tel":"031-795-3870","addr":"경기도 하남시 덕풍동 396-4번지","indutype":"일반휴게음식 - 일반한식","category":"restaurant"}]},{"lat":"37.538266585","long":"127.20400975","imageIndex":4,"items":[{"name":"토모토모","tel":"031-792-0332","addr":"경기도 하남시 덕풍동 419-25번지 2층","indutype":"일반휴게음식 - 일반한식","category":"restaurant"}]},{"lat":"37.538905954","long":"127.20420382","imageIndex":4,"items":[{"name":"통키식당","tel":"031-791-0302","addr":"경기도 하남시 덕풍동 419-33","indutype":"일반휴게음식 - 일반한식","category":"restaurant"}]},{"lat":"37.542428251","long":"127.20453011","imageIndex":4,"items":[{"name":"투힘","tel":"031-794-0687","addr":"경기도 하남시 덕풍동 321-2번지 신정프라자 3층 303-1호","indutype":"일반휴게음식 - 서양음식","category":"restaurant"},{"name":"하남덕풍골","tel":"031-792-4907","addr":"경기도 하남시 덕풍동 321-2번지 신정프라자 1층 109호","indutype":"일반휴게음식 - 일반한식","category":"restaurant"},{"name":"호야","tel":"031-699-8680","addr":"경기도 하남시 덕풍동 321-2번지 신정프라자 107호","indutype":"일반휴게음식 - 일반한식","category":"restaurant"}]},{"lat":"37.543654888","long":"127.19840048","imageIndex":4,"items":[{"name":"티바두마리치킨","tel":"031-796-9266","addr":"경기도 하남시 덕풍동 341-22번지 1층","indutype":"일반휴게음식 - 주점","category":"restaurant"}]},{"lat":"37.53584708","long":"127.20155939","imageIndex":4,"items":[{"name":"페리카나","tel":"031-793-9922","addr":"경기도 하남시 덕풍동 432-13번지","indutype":"일반휴게음식 - 주점","category":"restaurant"}]},{"lat":"37.542232902","long":"127.20284363","imageIndex":4,"items":[{"name":"포차탕탕","tel":"031-792-6629","addr":"경기도 하남시 덕풍동 326-40번지 1층","indutype":"일반휴게음식 - 일반한식","category":"restaurant"}]},{"lat":"37.555731763","long":"127.20158953","imageIndex":4,"items":[{"name":"푸챠오","tel":"031-796-9488","addr":"경기도 하남시 덕풍동 706번지 대성빌딩 1층 4층","indutype":"일반휴게음식 - 중국식","category":"restaurant"}]},{"lat":"37.542121661","long":"127.19933564","imageIndex":4,"items":[{"name":"풍물옹심이 메밀칼국수","tel":"031-793-2333","addr":"경기도 하남시 덕풍동 348-96번지 1층","indutype":"일반휴게음식 - 일반한식","category":"restaurant"}]},{"lat":"37.53648635","long":"127.20709377","imageIndex":4,"items":[{"name":"풍전호프","tel":"","addr":"경기도 하남시 덕풍동 465-19번지 1층","indutype":"일반휴게음식 - 주점","category":"restaurant"}]},{"lat":"37.543402201","long":"127.19864876","imageIndex":4,"items":[{"name":"풍천장어탕","tel":"","addr":"경기도 하남시 덕풍동 341-20번지 1층","indutype":"일반휴게음식 - 일반한식","category":"restaurant"}]},{"lat":"37.541987619","long":"127.20403106","imageIndex":4,"items":[{"name":"피자캣","tel":"031-791-9285","addr":"경기도 하남시 덕풍동 326-84번지 1층","indutype":"일반휴게음식 - 서양음식","category":"restaurant"}]},{"lat":"37.548372382","long":"127.21108682","imageIndex":4,"items":[{"name":"피플스카페","tel":"070-8880-0155","addr":"경기도 하남시 덕풍동 808-1번지 1층","indutype":"일반휴게음식 - 서양음식","category":"restaurant"}]},{"lat":"37.544349168","long":"127.19808546","imageIndex":4,"items":[{"name":"하나다방","tel":"031-792-5787","addr":"경기도 하남시 덕풍동 342","indutype":"일반휴게음식 - 서양음식","category":"restaurant"}]},{"lat":"37.549789816","long":"127.19886916","imageIndex":4,"items":[{"name":"하남 엉클샘","tel":"070-5121-6771","addr":"경기도 하남시 덕풍동 782번지 1층 103호","indutype":"일반휴게음식 - 서양음식","category":"restaurant"}]},{"lat":"37.55428557","long":"127.20953021","imageIndex":4,"items":[{"name":"하남동래복국","tel":"031-796-0855","addr":"경기도 하남시 덕풍동 29-2번지 1층","indutype":"일반휴게음식 - 일반한식","category":"restaurant"}]},{"lat":"37.551119176","long":"127.20661313","imageIndex":4,"items":[{"name":"하남돼지집 풍산직영점/(주)하남에프앤비","tel":"031-796-9232","addr":"경기도 하남시 덕풍동 226-1번지","indutype":"일반휴게음식 - 일반한식","category":"restaurant"},{"name":"하남장 돼지집/(주)하남에프앤비","tel":"02-3445-2255","addr":"경기도 하남시 덕풍동 226-1번지","indutype":"일반휴게음식 - 일반한식","category":"restaurant"}]},{"lat":"37.538349614","long":"127.2028672","imageIndex":4,"items":[{"name":"하남아구찜동태탕","tel":"","addr":"경기도 하남시 덕풍동 426-4번지 1층","indutype":"일반휴게음식 - 일반한식","category":"restaurant"}]},{"lat":"37.537293486","long":"127.20402977","imageIndex":4,"items":[{"name":"하남양꼬치","tel":"","addr":"경기도 하남시 덕풍동 420-51번지 1층","indutype":"일반휴게음식 - 중국식","category":"restaurant"}]},{"lat":"37.533713271","long":"127.20064862","imageIndex":4,"items":[{"name":"하남윤이네 김치찜","tel":"031-794-4624","addr":"경기도 하남시 덕풍동 521-6번지 1층","indutype":"일반휴게음식 - 일반한식","category":"restaurant"}]},{"lat":"37.541487245","long":"127.20156304","imageIndex":4,"items":[{"name":"하남집","tel":"031-795-9918","addr":"경기도 하남시 덕풍동 386-8번지","indutype":"일반휴게음식 - 일반한식","category":"restaurant"}]},{"lat":"37.538627748","long":"127.20355814","imageIndex":4,"items":[{"name":"하남포차","tel":"031-796-7809","addr":"경기도 하남시 덕풍동 412-22번지 1층","indutype":"일반휴게음식 - 일반한식","category":"restaurant"}]},{"lat":"37.542961718","long":"127.20342265","imageIndex":4,"items":[{"name":"하이미트 하남점","tel":"031-791-3379","addr":"경기도 하남시 덕풍동 309-63번지 두명빌딩","indutype":"일반휴게음식 - 일반한식","category":"restaurant"},{"name":"하이미트하남점","tel":"031-791-3379","addr":"경기도 하남시 덕풍동 309-63번지 두명빌딩","indutype":"일반휴게음식 - 일반한식","category":"restaurant"}]},{"lat":"37.542267809","long":"127.20351132","imageIndex":4,"items":[{"name":"한가득칼국수","tel":"031-794-6989","addr":"경기도 하남시 덕풍동 326-4번지","indutype":"일반휴게음식 - 일반한식","category":"restaurant"},{"name":"한맛","tel":"031-793-3075","addr":"경기도 하남시 덕풍동 326-4번지","indutype":"일반휴게음식 - 일반한식","category":"restaurant"}]},{"lat":"37.540765201","long":"127.20230791","imageIndex":4,"items":[{"name":"한우궁","tel":"031-791-7896","addr":"경기도 하남시 덕풍동 390-17번지","indutype":"일반휴게음식 - 일반한식","category":"restaurant"}]},{"lat":"37.541623741","long":"127.20076003","imageIndex":4,"items":[{"name":"한우소머리국밥","tel":"031-795-0347","addr":"경기도 하남시 덕풍동 384-10번지","indutype":"일반휴게음식 - 일반한식","category":"restaurant"}]},{"lat":"37.546456957","long":"127.19839649","imageIndex":4,"items":[{"name":"할리스커피 하남덕풍점","tel":"031-0000-0000","addr":"경기도 하남시 덕풍동 343-13번지","indutype":"일반휴게음식 - 서양음식","category":"restaurant"}]},{"lat":"37.54062473","long":"127.20011244","imageIndex":4,"items":[{"name":"할매순대국","tel":"031-794-0071","addr":"경기도 하남시 덕풍동 381-12번지 1층","indutype":"일반휴게음식 - 일반한식","category":"restaurant"}]},{"lat":"37.542626117","long":"127.19939354","imageIndex":4,"items":[{"name":"핫한핫도그","tel":"","addr":"경기도 하남시 덕풍동 340-25번지 1층","indutype":"일반휴게음식 - 서양음식","category":"restaurant"},{"name":"황궁","tel":"031-791-1444","addr":"경기도 하남시 덕풍동 340-25번지 1층","indutype":"일반휴게음식 - 중국식","category":"restaurant"}]},{"lat":"37.534677379","long":"127.20061722","imageIndex":4,"items":[{"name":"행복짜장","tel":"070-0000-0000","addr":"경기도 하남시 덕풍동 442-1번지 1층","indutype":"일반휴게음식 - 중국식","category":"restaurant"}]},{"lat":"37.534240791","long":"127.20305988","imageIndex":4,"items":[{"name":"호자","tel":"031-792-1900","addr":"경기도 하남시 덕풍동 512-44번지 1층","indutype":"일반휴게음식 - 일반한식","category":"restaurant"}]},{"lat":"37.538789828","long":"127.20361514","imageIndex":4,"items":[{"name":"홍가갈비","tel":"031-795-2644","addr":"경기도 하남시 덕풍동 412-20번지","indutype":"일반휴게음식 - 일반한식","category":"restaurant"}]},{"lat":"37.542236232","long":"127.20617029","imageIndex":4,"items":[{"name":"홍대노가리","tel":"070-8150-2122","addr":"경기도 하남시 덕풍동 317-8번지 10호","indutype":"일반휴게음식 - 일반한식","category":"restaurant"}]},{"lat":"37.541207655","long":"127.20173202","imageIndex":4,"items":[{"name":"홍성민속주점","tel":"031-793-5226","addr":"경기도 하남시 덕풍동 386-10번지 1층","indutype":"일반휴게음식 - 주점","category":"restaurant"}]},{"lat":"37.541044219","long":"127.20247837","imageIndex":4,"items":[{"name":"홍어나라","tel":"","addr":"경기도 하남시 덕풍동 397-13번지 지하1층","indutype":"일반휴게음식 - 일반한식","category":"restaurant"}]},{"lat":"37.542068515","long":"127.20414443","imageIndex":4,"items":[{"name":"황금방석","tel":"031-794-5292","addr":"경기도 하남시 덕풍동 326-114번지","indutype":"일반휴게음식 - 일반한식","category":"restaurant"}]},{"lat":"37.543904133","long":"127.20022292","imageIndex":4,"items":[{"name":"황제곱창","tel":"031-791-7740","addr":"경기도 하남시 덕풍동 692-3번지 한솔솔파크아파트 상가 101호","indutype":"일반휴게음식 - 일반한식","category":"restaurant"}]},{"lat":"37.543735845","long":"127.1984799","imageIndex":4,"items":[{"name":"훈설렁탕","tel":"031-793-4681","addr":"경기도 하남시 덕풍동 341-18번지","indutype":"일반휴게음식 - 일반한식","category":"restaurant"}]}]