[{"lat":"37.690577015","long":"127.16225559","imageIndex":4,"items":[{"name":"밤섬식당","tel":"031-574-6282","addr":"경기도 남양주시 진접읍 내곡리 259번지","indutype":"일반휴게음식 - 일반한식","category":"restaurant"}]},{"lat":"37.687991104","long":"127.16236343","imageIndex":4,"items":[{"name":"쇠뿔국밥&국시","tel":"070-4808-0518","addr":"경기도 남양주시 진접읍 내곡리 192-1번지 1층","indutype":"일반휴게음식 - 일반한식","category":"restaurant"}]},{"lat":"37.689721332","long":"127.1620837","imageIndex":4,"items":[{"name":"안마을","tel":"031-571-7235","addr":"경기도 남양주시 진접읍 내곡리 251-3번지","indutype":"일반휴게음식 - 일반한식","category":"restaurant"}]},{"lat":"37.685830356","long":"127.16120244","imageIndex":4,"items":[{"name":"용가네기사식당","tel":"031-573-1133","addr":"경기도 남양주시 진접읍 내곡리 135-3번지","indutype":"일반휴게음식 - 일반한식","category":"restaurant"}]},{"lat":"37.67241034","long":"127.15792081","imageIndex":4,"items":[{"name":"임송가든","tel":"031-571-0161","addr":"경기도 남양주시 진접읍 내곡리 501-2번지","indutype":"일반휴게음식 - 일반한식","category":"restaurant"}]},{"lat":"37.688720576","long":"127.16259174","imageIndex":4,"items":[{"name":"정원가든","tel":"031-568-5589","addr":"경기도 남양주시 진접읍 내곡리 185번지","indutype":"일반휴게음식 - 일반한식","category":"restaurant"}]},{"lat":"37.690378956","long":"127.16214179","imageIndex":4,"items":[{"name":"한끼만두~우리동네밥집","tel":"031-571-8135","addr":"경기도 남양주시 진접읍 내곡리 255번지 1층","indutype":"일반휴게음식 - 일반한식","category":"restaurant"}]}]