[{"lat":"37.732241131","long":"127.28902332","items":[{"name":"남양주요양원","tel":"03-111-1111","addr":"경기도 남양주시 수동면 수산리 434-13번지","category":"기타의료기관 - 기타의료기관 및 기타"},{"name":"마석복지센터 (주)","tel":"03-111-1111","addr":"경기도 남양주시 수동면 수산리 434-13번지","category":"기타의료기관 - 기타의료기관 및 기타"},{"name":"법무사길사무소","tel":"031-595-3943","addr":"경기도 남양주시 수동면 수산리 434-13번지 중앙프라자 203호","category":"용역 서비스 - 법률회계서비스(개인)"},{"name":"수학의달인화도수학교습소","tel":"0031-512-8866","addr":"경기도 남양주시 수동면 수산리 434-13번지 505호","category":"회원제형태 - 학원"}]},{"lat":"37.750568825","long":"127.27276585","items":[{"name":"너래바우","tel":"031-591-1481","addr":"경기도 남양주시 수동면 수산리 589-6","category":"일반휴게음식 - 일반한식"}]},{"lat":"37.725686667","long":"127.28340601","items":[{"name":"농업회사법인주식회사명품산야초","tel":"031-594-0007","addr":"경기도 남양주시 수동면 수산리 160-1번지","category":"회원제형태 - 기타1"}]},{"lat":"37.757907814","long":"127.27046618","items":[{"name":"다락","tel":"070-4146-2727","addr":"경기도 남양주시 수동면 수산리 599번지","category":"유통업 영리 - 슈퍼마켓"}]},{"lat":"37.721884207","long":"127.27199255","items":[{"name":"뜨란채","tel":"031-595-8122","addr":"경기도 남양주시 수동면 수산리 318번지","category":"숙박업 - 여관/기타숙박업"}]},{"lat":"37.738076091","long":"127.28662932","items":[{"name":"물가의 쉼터","tel":"031-592-2234","addr":"경기도 남양주시 수동면 수산리 444-1번지","category":"유통업 영리 - 슈퍼마켓"}]},{"lat":"37.722215899","long":"127.27271966","items":[{"name":"물소리 민박","tel":"031-000-0000","addr":"경기도 남양주시 수동면 수산리 318-5번지","category":"숙박업 - 여관/기타숙박업"}]},{"lat":"37.7452102","long":"127.27965609","items":[{"name":"미니슈퍼","tel":"031-592-5624","addr":"경기도 남양주시 수동면 수산리 551-24","category":"유통업 영리 - 슈퍼마켓"}]},{"lat":"37.727909831","long":"127.2880765","items":[{"name":"산수정원","tel":"031-592-9247","addr":"경기도 남양주시 수동면 수산리 97","category":"일반휴게음식 - 일반한식"}]},{"lat":"37.724049599","long":"127.26663526","items":[{"name":"산자락","tel":"031-559-0888","addr":"경기도 남양주시 수동면 수산리 395-9번지","category":"일반휴게음식 - 일반한식"}]},{"lat":"37.734687755","long":"127.29065498","items":[{"name":"수동계곡펜션","tel":"031-511-5881","addr":"경기도 남양주시 수동면 수산리 20-5번지","category":"숙박업 - 여관/기타숙박업"}]},{"lat":"37.733433624","long":"127.29505166","items":[{"name":"수산농수산물","tel":"031-111-1111","addr":"경기도 남양주시 수동면 수산리 5-5번지","category":"음료식품 - 농·축·수산품"}]},{"lat":"37.728551203","long":"127.28737567","items":[{"name":"수산성","tel":"031-559-5578","addr":"경기도 남양주시 수동면 수산리 93번지","category":"일반휴게음식 - 중국식"}]},{"lat":"37.733769528","long":"127.29402066","items":[{"name":"신카네이션요양원","tel":"031-592-2130","addr":"경기도 남양주시 수동면 수산리 14-4번지","category":"기타의료기관 - 기타의료기관 및 기타"}]},{"lat":"37.723878441","long":"127.27844242","items":[{"name":"영농조합법인남양주조복산삼","tel":"031-591-4959","addr":"경기도 남양주시 수동면 수산리 169-5","category":"건강식품 - 인삼제품"}]},{"lat":"37.728600728","long":"127.28924753","items":[{"name":"오소","tel":"031-111-1111","addr":"경기도 남양주시 수동면 수산리 92-11번지 1층","category":"일반휴게음식 - 서양음식"}]},{"lat":"37.725543869","long":"127.27121178","items":[{"name":"참황토참숯","tel":"031-559-3001","addr":"경기도 남양주시 수동면 수산리 280-8번지","category":"보건위생 - 피부미용실"}]},{"lat":"37.726591408","long":"127.27797606","items":[{"name":"통큰바베큐","tel":"080-592-9900","addr":"경기도 남양주시 수동면 수산리 245번지 예성빌라 B동 2층 202호","category":"음료식품 - 기타음료식품"}]},{"lat":"37.722405436","long":"127.2725729","items":[{"name":"티피쿤(TIPPYCOON)","tel":"","addr":"경기도 남양주시 수동면 수산리 317-3번지","category":"문화.취미 - 애완동물"}]},{"lat":"37.739853379","long":"127.28562638","items":[{"name":"푸르내하우스","tel":"031-592-8907","addr":"경기도 남양주시 수동면 수산리 450번지","category":"일반휴게음식 - 일반한식"}]},{"lat":"37.727660875","long":"127.28293704","items":[{"name":"하늘농장","tel":"","addr":"경기도 남양주시 수동면 수산리 119-1번지","category":"음료식품 - 미곡상"}]},{"lat":"37.747291184","long":"127.27588552","items":[{"name":"해마루","tel":"031-592-1472","addr":"경기도 남양주시 수동면 수산리 574-4번지","category":"숙박업 - 여관/기타숙박업"}]},{"lat":"37.727103941","long":"127.278409","items":[{"name":"호평재활용센터","tel":"031-593-0686","addr":"경기도 남양주시 수동면 수산리 246-1번지","category":"용역 서비스 - 기타용역서비스"}]}]