[{"lat":"37.41591969","long":"127.2839185","items":[{"name":"(주) 골든벨","tel":"031-767-8500","addr":"경기도 광주시 초월읍 지월리 712-1","category":"일반휴게음식 - 서양음식"}]},{"lat":"37.412195","long":"127.2964991","items":[{"name":"(주)건강한사람들","tel":"031-763-3991","addr":"경기도 광주시 초월읍 지월리 279번지","category":"기타의료기관 - 기타의료기관 및 기타"},{"name":"경덕재주간보호센터초월점","tel":"031-798-5278","addr":"경기도 광주시 초월읍 지월리 279번지","category":"기타의료기관 - 기타의료기관 및 기타"}]},{"lat":"37.41913739","long":"127.2872178","items":[{"name":"(주)너나들이","tel":"031-799-8181","addr":"경기도 광주시 초월읍 지월리 729-5번지 지하1층","category":"회원제형태 - 기타4"},{"name":"뜰애","tel":"","addr":"경기도 광주시 초월읍 지월리 729-5번지","category":"음료식품 - 기타음료식품"},{"name":"베네라이프 마켓","tel":"031-760-3664","addr":"경기도 광주시 초월읍 지월리 729-5번지 1층 SRC내 베네라이프마켓","category":"음료식품 - 기타음료식품"},{"name":"에스알씨(SRC)노인전문병원","tel":"031-761-3636","addr":"경기도 광주시 초월읍 지월리 729-5번지","category":"병원 - 병원"}]},{"lat":"37.41714501","long":"127.2950838","items":[{"name":"(주)세븐의료기","tel":"00-1600-5102","addr":"경기도 광주시 초월읍 지월리 314번지","category":"전기제품 - 냉열기기"},{"name":"동양기계","tel":"031-765-3802","addr":"경기도 광주시 초월읍 지월리 314번지 2동","category":"전기제품 - 기타전기제품"}]},{"lat":"37.4185066","long":"127.2909772","items":[{"name":"(주)크린케어","tel":"031-762-8045","addr":"경기도 광주시 초월읍 지월리 565-18번지","category":"직물 - 옷감·직물"},{"name":"K-룩스","tel":"000-1566-5675","addr":"경기도 광주시 초월읍 지월리 565-18번지","category":"건축자재 - 조명기구"}]},{"lat":"37.41469681","long":"127.297695","items":[{"name":"(주)태양벽난로","tel":"031-797-3119","addr":"경기도 광주시 초월읍 지월리 343번지","category":"전기제품 - 냉열기기"}]},{"lat":"37.41788842","long":"127.2932228","items":[{"name":"(주)해드림푸드","tel":"","addr":"경기도 광주시 초월읍 지월리 397-2번지","category":"음료식품 - 기타음료식품"}]},{"lat":"37.41261754","long":"127.3004768","items":[{"name":"(주)해피엔딩 지점","tel":"031-1899-5127","addr":"경기도 광주시 초월읍 지월리 134번지 1층","category":"문화.취미 - 애완동물"},{"name":"천사이야기","tel":"032-000-0000","addr":"경기도 광주시 초월읍 지월리 134번지","category":"문화.취미 - 애완동물"}]},{"lat":"37.41478058","long":"127.3002256","items":[{"name":"CDN(시디엔)","tel":"031-766-9849","addr":"경기도 광주시 초월읍 지월리 502-1번지","category":"신변잡화 - 기타잡화"},{"name":"우성기획","tel":"031-764-6147","addr":"경기도 광주시 초월읍 지월리 502-1번지","category":"기타 - 기계공구"},{"name":"이디피(EDP) 신중원점","tel":"","addr":"경기도 광주시 초월읍 지월리 502-1번지","category":"음료식품 - 기타음료식품"},{"name":"주식회사 심안채","tel":"02-703-4011","addr":"경기도 광주시 초월읍 지월리 502-1","category":"회원제형태 - 기타1"}]},{"lat":"37.41356224","long":"127.2974194","items":[{"name":"GS25광주지월로점","tel":"","addr":"경기도 광주시 초월읍 지월리 335-1번지","category":"유통업 영리 - 편 의 점"}]},{"lat":"37.42566947","long":"127.2835256","items":[{"name":"GS25광주지월점","tel":"","addr":"경기도 광주시 초월읍 지월리 753-2번지","category":"유통업 영리 - 편 의 점"},{"name":"대호민물메기메운탕","tel":"031-769-5679","addr":"경기도 광주시 초월읍 지월리 753-2번지","category":"일반휴게음식 - 일반한식"}]},{"lat":"37.42514278","long":"127.2852522","items":[{"name":"HJH","tel":"031-761-6138","addr":"경기도 광주시 초월읍 지월리 782-15번지","category":"가구 - 일반가구"}]},{"lat":"37.41505801","long":"127.3009722","items":[{"name":"JB O&C","tel":"031-769-0109","addr":"경기도 광주시 초월읍 지월리 503-1","category":"기타 - 기계공구"}]},{"lat":"37.4179175","long":"127.292387","items":[{"name":"Learn & Joy 공부방","tel":"031-111-1111","addr":"경기도 광주시 초월읍 지월리 568-13번지 현대밸리타운 107동 401호","category":"학원 - 기타 교육기관"}]},{"lat":"37.41789183","long":"127.3026892","items":[{"name":"Neo Max","tel":"02-476-9596","addr":"경기도 광주시 초월읍 지월리 56-1번지 2층","category":"신변잡화 - 기타잡화"}]},{"lat":"37.41272577","long":"127.2968288","items":[{"name":"OH 공조","tel":"031-000-0000","addr":"경기도 광주시 초월읍 지월리 281번지 우정빌리지 302호","category":"용역 서비스 - 기타용역서비스"}]},{"lat":"37.404836","long":"127.2992263","items":[{"name":"가우디 퍼니처","tel":"031-756-4611","addr":"경기도 광주시 초월읍 지월리 186-7번지","category":"가구 - 일반가구"}]},{"lat":"37.41783505","long":"127.2778595","items":[{"name":"강민주의 집반찬","tel":"031-635-2000","addr":"경기도 광주시 초월읍 지월리 715-2번지 나동 1층","category":"음료식품 - 기타음료식품"},{"name":"베스트 아트 벽난로","tel":"","addr":"경기도 광주시 초월읍 지월리 715-2번지","category":"건축자재 - 기타건축자재"}]},{"lat":"37.40803386","long":"127.2885313","items":[{"name":"갯마을","tel":"070-8200-5848","addr":"경기도 광주시 초월읍 지월리 638-4","category":"음료식품 - 농·축·수산품"}]},{"lat":"37.41711059","long":"127.2870294","items":[{"name":"공구마켓","tel":"031-765-4248","addr":"경기도 광주시 초월읍 지월리 576-8번지 1층","category":"기타 - 기계공구"},{"name":"포토나인","tel":"031-763-8772","addr":"경기도 광주시 초월읍 지월리 576-8번지 2층 2호","category":"광학제품 - 사진관"}]},{"lat":"37.42569405","long":"127.2845538","items":[{"name":"관우통신","tel":"","addr":"경기도 광주시 초월읍 지월리 769-2번지 102동 202호 (설월랑)","category":"용역 서비스 - 기타용역서비스"},{"name":"정덕옷장","tel":"","addr":"경기도 광주시 초월읍 지월리 769-2번지 설월랑 102동 203호","category":"서적문구 - 완구점"}]},{"lat":"37.41472696","long":"127.2964412","items":[{"name":"그린유통","tel":"","addr":"경기도 광주시 초월읍 지월리 348-2번지 현대그랑블빌라 402호","category":"주방용구 - 주방용구"}]},{"lat":"37.41631266","long":"127.29647","items":[{"name":"금강","tel":"031-761-8962","addr":"경기도 광주시 초월읍 지월리 885","category":"음료식품 - 기타음료식품"}]},{"lat":"37.4139175","long":"127.295862","items":[{"name":"금강노래연습장","tel":"031-798-0490","addr":"경기도 광주시 초월읍 지월리 331-4번지","category":"레저업소 - 노 래 방"},{"name":"금강노래연습장","tel":"031-798-0490","addr":"경기도 광주시 초월읍 지월리 331-4번지","category":"레저업소 - 노 래 방"},{"name":"나눔 금강 당구장","tel":"070-8973-0819","addr":"경기도 광주시 초월읍 지월리 331-4번지 3층","category":"레저업소 - 당 구 장"},{"name":"나눔금강당구장","tel":"070-8973-0819","addr":"경기도 광주시 초월읍 지월리 331-4번지","category":"레저업소 - 당 구 장"},{"name":"분식카페이삭","tel":"031-000-0000","addr":"경기도 광주시 초월읍 지월리 331-4번지","category":"일반휴게음식 - 일반한식"}]},{"lat":"37.41603305","long":"127.3001967","items":[{"name":"금빛농산","tel":"031-761-4933","addr":"경기도 광주시 초월읍 지월리 500-4번지","category":"음료식품 - 기타음료식품"}]},{"lat":"37.40914288","long":"127.299198","items":[{"name":"기가식품","tel":"031-769-9233","addr":"경기도 광주시 초월읍 지월리 159번지 32호","category":"음료식품 - 기타음료식품"}]},{"lat":"37.42508111","long":"127.2846645","items":[{"name":"꼭-e교육","tel":"031-768-4166","addr":"경기도 광주시 초월읍 지월리 774-2번지","category":"서적문구 - 기타서적문구"},{"name":"설월오리동산","tel":"031-769-4166","addr":"경기도 광주시 초월읍 지월리 774-2번지","category":"일반휴게음식 - 일반한식"}]},{"lat":"37.40494791","long":"127.2903944","items":[{"name":"나무서리만두전골","tel":"031-767-0901","addr":"경기도 광주시 초월읍 지월리 662번지 2층","category":"일반휴게음식 - 일반한식"}]},{"lat":"37.40350631","long":"127.2903889","items":[{"name":"내담","tel":"031-797-7799","addr":"경기도 광주시 초월읍 지월리 686번지","category":"일반휴게음식 - 일반한식"},{"name":"장안면옥","tel":"031-762-4346","addr":"경기도 광주시 초월읍 지월리 686번지","category":"일반휴게음식 - 일반한식"}]},{"lat":"37.41261614","long":"127.3010303","items":[{"name":"네모아크릴","tel":"031-764-4445","addr":"경기도 광주시 초월읍 지월리 119번지","category":"건축자재 - 기타건축자재"}]},{"lat":"37.42347561","long":"127.2964754","items":[{"name":"농업회사법인 아이새참(주)","tel":"031-1644-8276","addr":"경기도 광주시 초월읍 지월리 470-1번지","category":"음료식품 - 농·축·수산품"}]},{"lat":"37.40397437","long":"127.2905827","items":[{"name":"능이고을","tel":"031-761-9350","addr":"경기도 광주시 초월읍 지월리 685-4번지","category":"일반휴게음식 - 일반한식"}]},{"lat":"37.42525262","long":"127.2845296","items":[{"name":"다미정","tel":"031-764-0473","addr":"경기도 광주시 초월읍 지월리 773-1번지","category":"일반휴게음식 - 일반한식"}]},{"lat":"37.4151182","long":"127.2985325","items":[{"name":"다올","tel":"031-767-3100","addr":"경기도 광주시 초월읍 지월리 104-3번지","category":"일반휴게음식 - 서양음식"}]},{"lat":"37.40614143","long":"127.299638","items":[{"name":"다우리 기업","tel":"031-797-6888","addr":"경기도 광주시 초월읍 지월리 172-4번지 외2필지","category":"건축자재 - 기타건축자재"}]},{"lat":"37.41308967","long":"127.2954182","items":[{"name":"담터식당","tel":"031-763-5339","addr":"경기도 광주시 초월읍 지월리 287-2번지","category":"일반휴게음식 - 일반한식"}]},{"lat":"37.41630911","long":"127.3050325","items":[{"name":"대성건재상사","tel":"031-769-6853","addr":"경기도 광주시 초월읍 지월리 64-9번지","category":"건축자재 - 목재·석재·철물"}]},{"lat":"37.41772111","long":"127.2841625","items":[{"name":"던에드워드 경기광주점","tel":"031-769-3877","addr":"경기도 광주시 초월읍 지월리 724-2번지","category":"건축자재 - 페인트"},{"name":"디제이세라믹 주식회사","tel":"02-2638-0997","addr":"경기도 광주시 초월읍 지월리 724-2번지","category":"건축자재 - 건축용 요업제품"}]},{"lat":"37.42286506","long":"127.2882487","items":[{"name":"동백가든","tel":"031-765-0023","addr":"경기도 광주시 초월읍 지월리 555-26번지","category":"일반휴게음식 - 일반한식"}]},{"lat":"37.42299966","long":"127.2884751","items":[{"name":"동백가든","tel":"031-761-0044","addr":"경기도 광주시 초월읍 지월리 555-12번지","category":"일반휴게음식 - 일반한식"}]},{"lat":"37.41502961","long":"127.286886","items":[{"name":"동양볼링센터","tel":"031-763-4556","addr":"경기도 광주시 초월읍 지월리 600-4번지","category":"레저업소 - 볼 링 장"}]},{"lat":"37.40739581","long":"127.2915559","items":[{"name":"등대라이브","tel":"02-111-1111","addr":"경기도 광주시 초월읍 지월리 625-7번지 2층","category":"일반휴게음식 - 주점"}]},{"lat":"37.42153165","long":"127.2955866","items":[{"name":"디자인 우리","tel":"031-733-2051","addr":"경기도 광주시 초월읍 지월리 422-3번지","category":"가구 - 일반가구"}]},{"lat":"37.42700105","long":"127.2880836","items":[{"name":"디자인카페인","tel":"031-768-0486","addr":"경기도 광주시 초월읍 지월리 548-6번지","category":"일반휴게음식 - 서양음식"},{"name":"리틀킹","tel":"031-763-4586","addr":"경기도 광주시 초월읍 지월리 548-6번지 1층 A","category":"서적문구 - 일반서적"},{"name":"씨유광주세광점","tel":"080-080-3663","addr":"경기도 광주시 초월읍 지월리 548-6번지 1층","category":"유통업 영리 - 편 의 점"},{"name":"이엠챌린지학원","tel":"031-764-0588","addr":"경기도 광주시 초월읍 지월리 548-6번지 2층","category":"학원 - 보습학원"},{"name":"자연광주리협동조합","tel":"031-768-0486","addr":"경기도 광주시 초월읍 지월리 548-6번지 1층","category":"음료식품 - 기타음료식품"},{"name":"키즈빌","tel":"031-763-4586","addr":"경기도 광주시 초월읍 지월리 548-6번지 (1층B)","category":"서적문구 - 기타서적문구"}]},{"lat":"37.42622835","long":"127.2871882","items":[{"name":"뜰에공방","tel":"","addr":"경기도 광주시 초월읍 지월리 546번지 광주1차세광엔리치빌아파트","category":"문화.취미 - 문화취미기타"}]},{"lat":"37.41855779","long":"127.288447","items":[{"name":"라니갤러리","tel":"031-261-0556","addr":"경기도 광주시 초월읍 지월리 562-24번지 A동 1층","category":"가구 - 일반가구"}]},{"lat":"37.41519409","long":"127.2896655","items":[{"name":"랩스타","tel":"031-768-2144","addr":"경기도 광주시 초월읍 지월리 580-2번지 1층","category":"자동차정비 유지 - 자동차부품"},{"name":"수지공업사","tel":"031-768-2144","addr":"경기도 광주시 초월읍 지월리 580-2번지","category":"자동차정비 유지 - 자동차정비"}]},{"lat":"37.41669323","long":"127.2844749","items":[{"name":"러브펫","tel":"031-796-4341","addr":"경기도 광주시 초월읍 지월리 712-10","category":"용역 서비스 - 가례서비스업"},{"name":"주식회사 동물사랑","tel":"031-796-4341","addr":"경기도 광주시 초월읍 지월리 712-10번지","category":"문화.취미 - 애완동물"}]},{"lat":"37.42650122","long":"127.2861159","items":[{"name":"레드밀크","tel":"031-000-0000","addr":"경기도 광주시 초월읍 지월리 785-4번지 1층","category":"음료식품 - 기타음료식품"}]},{"lat":"37.42614031","long":"127.2863292","items":[{"name":"로하","tel":"031-764-3252","addr":"경기도 광주시 초월읍 지월리 550-1번지 1층","category":"일반휴게음식 - 서양음식"},{"name":"산채뜰","tel":"031-761-1199","addr":"경기도 광주시 초월읍 지월리 550-1번지 1층","category":"일반휴게음식 - 일반한식"}]},{"lat":"37.41678289","long":"127.3029672","items":[{"name":"리틀아이랜드","tel":"031-765-0453","addr":"경기도 광주시 초월읍 지월리 64-1","category":"기타 - 기계공구"}]},{"lat":"37.41620167","long":"127.3082741","items":[{"name":"마밥차","tel":"031-797-0711","addr":"경기도 광주시 초월읍 지월리 890번지 1층","category":"일반휴게음식 - 일반한식"},{"name":"씨유광주물류센터점","tel":"031-898-6567","addr":"경기도 광주시 초월읍 지월리 890번지","category":"유통업 영리 - 편 의 점"},{"name":"이레분식","tel":"031-764-3950","addr":"경기도 광주시 초월읍 지월리 890번지 1층","category":"일반휴게음식 - 스넥"}]},{"lat":"37.40328246","long":"127.2898121","items":[{"name":"말그미","tel":"031-761-1150","addr":"경기도 광주시 초월읍 지월리 685-15번지","category":"일반휴게음식 - 서양음식"}]},{"lat":"37.41753013","long":"127.2923629","items":[{"name":"맑은들 F&B","tel":"031-000-0000","addr":"경기도 광주시 초월읍 지월리 568-20번지 현대밸리타운","category":"음료식품 - 기타음료식품"}]},{"lat":"37.41500461","long":"127.2897777","items":[{"name":"멍이랑 냥이랑","tel":"","addr":"경기도 광주시 초월읍 지월리 580-3번지 1층 2호","category":"문화.취미 - 애완동물"},{"name":"지리산 식당","tel":"031-797-5564","addr":"경기도 광주시 초월읍 지월리 580-3번지","category":"일반휴게음식 - 일반한식"}]},{"lat":"37.40405924","long":"127.2890244","items":[{"name":"명랑크린","tel":"031-761-7671","addr":"경기도 광주시 초월읍 지월리 685-29번지","category":"주방용구 - 정수기"}]},{"lat":"37.41681001","long":"127.2769521","items":[{"name":"명문골프연습장","tel":"031-765-4000","addr":"경기도 광주시 초월읍 지월리 715-4번지","category":"회원제형태 - 레져업소"}]},{"lat":"37.42066807","long":"127.2950297","items":[{"name":"명성산업","tel":"031-763-5821","addr":"경기도 광주시 초월읍 지월리 417","category":"자동차정비 유지 - 자동차부품"}]},{"lat":"37.41331195","long":"127.2966164","items":[{"name":"명성이용원","tel":"031-636-1199","addr":"경기도 광주시 초월읍 지월리 283-1번지 101호","category":"보건위생 - 이용원"}]},{"lat":"37.40833252","long":"127.291695","items":[{"name":"모세수산","tel":"031-797-5400","addr":"경기도 광주시 초월읍 지월리 625번지","category":"음료식품 - 농·축·수산품"},{"name":"장어천국","tel":"031-797-5400","addr":"경기도 광주시 초월읍 지월리 625번지 1층","category":"일반휴게음식 - 일반한식"}]},{"lat":"37.41642085","long":"127.307134","items":[{"name":"미니스톱광주물류센터점","tel":"031-1577-9621","addr":"경기도 광주시 초월읍 지월리 887-1번지 1층","category":"유통업 영리 - 편 의 점"}]},{"lat":"37.41388764","long":"127.2970028","items":[{"name":"밀레오호프","tel":"031-761-1468","addr":"경기도 광주시 초월읍 지월리 337-2번지 1층","category":"일반휴게음식 - 주점"},{"name":"봉스팩토리(BONG'S FACTORY)","tel":"070-8844-1092","addr":"경기도 광주시 초월읍 지월리 337-2번지","category":"자동차정비 유지 - 카인테리어"}]},{"lat":"37.41736719","long":"127.285223","items":[{"name":"바이존(지월)","tel":"031-761-6582","addr":"경기도 광주시 초월읍 지월리 726-5번지 바이존 지월","category":"유통업 영리 - 슈퍼마켓"},{"name":"예진보일러&종합공사","tel":"031-798-5055","addr":"경기도 광주시 초월읍 지월리 726-5번지","category":"건축자재 - 보일러·펌프·샷시"}]},{"lat":"37.41708602","long":"127.2860014","items":[{"name":"복돼지","tel":"031-763-3153","addr":"경기도 광주시 초월읍 지월리 709-1번지","category":"일반휴게음식 - 일반한식"},{"name":"아이유통","tel":"031-767-1503","addr":"경기도 광주시 초월읍 지월리 709-1번지 103호","category":"음료식품 - 기타음료식품"},{"name":"하나전기종합상사","tel":"031-764-9799","addr":"경기도 광주시 초월읍 지월리 709-1번지 103호","category":"전기제품 - 기타전기제품"}]},{"lat":"37.40900607","long":"127.2962495","items":[{"name":"뷰티독","tel":"031-763-1828","addr":"경기도 광주시 초월읍 지월리 203-1","category":"문화.취미 - 애완동물"}]},{"lat":"37.41783536","long":"127.3036379","items":[{"name":"비티앤에스","tel":"031-671-0115","addr":"경기도 광주시 초월읍 지월리 58번지","category":"전기제품 - 냉열기기"}]},{"lat":"37.40883707","long":"127.2916969","items":[{"name":"산우리","tel":"031-769-0136","addr":"경기도 광주시 초월읍 지월리 621번지","category":"음료식품 - 정육점"},{"name":"산우리","tel":"031-769-0136","addr":"경기도 광주시 초월읍 지월리 621번지","category":"일반휴게음식 - 일반한식"}]},{"lat":"37.41769935","long":"127.3039762","items":[{"name":"삼경케미칼","tel":"031-746-9620","addr":"경기도 광주시 초월읍 지월리 61번지","category":"유통업 영리 - 기타유통업"}]},{"lat":"37.41416812","long":"127.2965294","items":[{"name":"서울뚝배기","tel":"031-762-1438","addr":"경기도 광주시 초월읍 지월리 350-2번지","category":"일반휴게음식 - 일반한식"}]},{"lat":"37.41364279","long":"127.2939971","items":[{"name":"설렘천연염색공방","tel":"","addr":"경기도 광주시 초월읍 지월리 304번지","category":"의류 - 정장"}]},{"lat":"37.42536009","long":"127.2848011","items":[{"name":"설월","tel":"031-769-0439","addr":"경기도 광주시 초월읍 지월리 769-8번지","category":"가구 - 기타가구"}]},{"lat":"37.42572777","long":"127.2855255","items":[{"name":"설월도예","tel":"031-762-0439","addr":"경기도 광주시 초월읍 지월리 783번지","category":"문화.취미 - 민예·공예품"},{"name":"이르베스","tel":"031-769-1555","addr":"경기도 광주시 초월읍 지월리 783번지","category":"가구 - 일반가구"}]},{"lat":"37.42672568","long":"127.2864444","items":[{"name":"성진유통","tel":"070-4763-5713","addr":"경기도 광주시 초월읍 지월리 787-2번지","category":"음료식품 - 기타음료식품"}]},{"lat":"37.40436553","long":"127.3000037","items":[{"name":"성팩","tel":"031-769-3702","addr":"경기도 광주시 초월읍 지월리 186번지","category":"유통업 영리 - 기타유통업"}]},{"lat":"37.4053644","long":"127.2895602","items":[{"name":"소석도예","tel":"031-762-2345","addr":"경기도 광주시 초월읍 지월리 658번지","category":"문화.취미 - 민예·공예품"}]},{"lat":"37.41053441","long":"127.2902802","items":[{"name":"소쿠리","tel":"031-765-0101","addr":"경기도 광주시 초월읍 지월리 612-10번지","category":"일반휴게음식 - 일반한식"}]},{"lat":"37.41283924","long":"127.2946718","items":[{"name":"수광","tel":"031-761-0086","addr":"경기도 광주시 초월읍 지월리 292-1","category":"주방용구 - 정수기"},{"name":"중앙석유","tel":"031-762-5252","addr":"경기도 광주시 초월읍 지월리 292-1번지 1층","category":"연료판매점 - 유류판매"},{"name":"함지박식당","tel":"031-761-4752","addr":"경기도 광주시 초월읍 지월리 292-1번지","category":"일반휴게음식 - 일반한식"}]},{"lat":"37.41633633","long":"127.286778","items":[{"name":"승진패키지","tel":"031-793-5440","addr":"경기도 광주시 초월읍 지월리 709-7번지","category":"유통업 영리 - 기타유통업"}]},{"lat":"37.42889146","long":"127.2997504","items":[{"name":"식물나라","tel":"031-764-7872","addr":"경기도 광주시 초월읍 지월리 22번지","category":"농업 - 비료,사료,종자"}]},{"lat":"37.4163881","long":"127.2877271","items":[{"name":"신용타공","tel":"031-769-0361","addr":"경기도 광주시 초월읍 지월리 576-1번지","category":"기타 - 기계공구"}]},{"lat":"37.40812393","long":"127.2885429","items":[{"name":"싱싱수산","tel":"","addr":"경기도 광주시 초월읍 지월리 638-1번지 휠하우스 A동 301호","category":"회원제형태 - 기타1"}]},{"lat":"37.41344865","long":"127.2959957","items":[{"name":"씨유광주지월점","tel":"031-898-6567","addr":"경기도 광주시 초월읍 지월리 329-2번지","category":"유통업 영리 - 편 의 점"},{"name":"아서원","tel":"031-763-7900","addr":"경기도 광주시 초월읍 지월리 329-2번지","category":"일반휴게음식 - 중국식"}]},{"lat":"37.41844889","long":"127.2924681","items":[{"name":"아도바","tel":"","addr":"경기도 광주시 초월읍 지월리 568-7번지 현대밸리타운 104동 301호","category":"문화.취미 - 화랑"}]},{"lat":"37.41327788","long":"127.2994402","items":[{"name":"아산유리산업","tel":"031-766-1502","addr":"경기도 광주시 초월읍 지월리 135-21","category":"건축자재 - 유리"}]},{"lat":"37.4161387","long":"127.3047268","items":[{"name":"어제스트 경기광주점","tel":"031-266-4266","addr":"경기도 광주시 초월읍 지월리 64-15번지","category":"자동차정비 유지 - 자동차부품"},{"name":"유성 디자인","tel":"031-763-2712","addr":"경기도 광주시 초월읍 지월리 64-15번지","category":"자동차정비 유지 - 세차장"}]},{"lat":"37.40744963","long":"127.2879417","items":[{"name":"엘하이(L.H.I)","tel":"031-798-1640","addr":"경기도 광주시 초월읍 지월리 642-6 39/","category":"의류 - 내의판매"}]},{"lat":"37.4185833","long":"127.2927736","items":[{"name":"오렌지마트","tel":"031-769-0245","addr":"경기도 광주시 초월읍 지월리 568-10번지 현대밸리타운 108동 103호","category":"유통업 영리 - 슈퍼마켓"},{"name":"제니헤어","tel":"031-699-1150","addr":"경기도 광주시 초월읍 지월리 568-10번지 현대밸리타운 108동 103호","category":"보건위생 - 미용원"}]},{"lat":"37.42352913","long":"127.2856076","items":[{"name":"오월에","tel":"031-798-2630","addr":"경기도 광주시 초월읍 지월리 737","category":"일반휴게음식 - 주점"}]},{"lat":"37.41378104","long":"127.2999957","items":[{"name":"오테르 원목가구","tel":"031-763-0055","addr":"경기도 광주시 초월읍 지월리 135-14번지 1층","category":"가구 - 일반가구"}]},{"lat":"37.40952874","long":"127.292558","items":[{"name":"우리산 양삼영농조합법인","tel":"031-797-9757","addr":"경기도 광주시 초월읍 지월리 619-1","category":"건강식품 - 인삼제품"}]},{"lat":"37.42102643","long":"127.2958558","items":[{"name":"우리하이텍","tel":"02-418-0033","addr":"경기도 광주시 초월읍 지월리 418-3번지","category":"가구 - 일반가구"}]},{"lat":"37.40364064","long":"127.2907283","items":[{"name":"우생마루","tel":"031-797-9235","addr":"경기도 광주시 초월읍 지월리 687번지","category":"일반휴게음식 - 일반한식"},{"name":"우생미트","tel":"031-797-9235","addr":"경기도 광주시 초월읍 지월리 687번지","category":"음료식품 - 정육점"}]},{"lat":"37.42572245","long":"127.2839777","items":[{"name":"우진상회","tel":"031-762-2151","addr":"경기도 광주시 초월읍 지월리 751번지","category":"음료식품 - 기타음료식품"}]},{"lat":"37.42517226","long":"127.2842242","items":[{"name":"우진호프","tel":"02-1111-1111","addr":"경기도 광주시 초월읍 지월리 773-3번지 1층","category":"일반휴게음식 - 주점"}]},{"lat":"37.40519408","long":"127.2891982","items":[{"name":"웅진경안산해유통","tel":"031-797-6746","addr":"경기도 광주시 초월읍 지월리 656-1","category":"회원제형태 - 기타4"}]},{"lat":"37.41508773","long":"127.2889421","items":[{"name":"원탑폴딩도어","tel":"02-1588-6205","addr":"경기도 광주시 초월읍 지월리 577-7번지","category":"기타 - 기계공구"}]},{"lat":"37.41850293","long":"127.2887744","items":[{"name":"위드미경기광주지월점","tel":"02-6916-1500","addr":"경기도 광주시 초월읍 지월리 564번지 골든빌라 지층 B02호 A동","category":"유통업 영리 - 편 의 점"}]},{"lat":"37.41363771","long":"127.2960529","items":[{"name":"윤가이헤어샵","tel":"031-769-1147","addr":"경기도 광주시 초월읍 지월리 331-12번지","category":"보건위생 - 미용원"}]},{"lat":"37.41869523","long":"127.2948865","items":[{"name":"윤정이네슈퍼","tel":"031-763-4273","addr":"경기도 광주시 초월읍 지월리 407","category":"유통업 영리 - 슈퍼마켓"}]},{"lat":"37.41292191","long":"127.2940282","items":[{"name":"이서윤미용실","tel":"031-765-1377","addr":"경기도 광주시 초월읍 지월리 294-2번지","category":"보건위생 - 미용원"}]},{"lat":"37.4147807","long":"127.2892233","items":[{"name":"일광","tel":"031-761-5667","addr":"경기도 광주시 초월읍 지월리 599-3번지","category":"자동차정비 유지 - 자동차부품"}]},{"lat":"37.4169147","long":"127.2860572","items":[{"name":"임정권만두찐빵","tel":"031-764-8495","addr":"경기도 광주시 초월읍 지월리 709-31번지","category":"일반휴게음식 - 일반한식"}]},{"lat":"37.41583874","long":"127.2761691","items":[{"name":"자유공원","tel":"031-798-6117","addr":"경기도 광주시 초월읍 지월리 713-2번지","category":"음료식품 - 정육점"},{"name":"자유공원","tel":"031-798-6117","addr":"경기도 광주시 초월읍 지월리 713-2번지","category":"일반휴게음식 - 일반한식"}]},{"lat":"37.41322108","long":"127.2932839","items":[{"name":"장원ENG","tel":"031-794-7044","addr":"경기도 광주시 초월읍 지월리 296-3번지","category":"건축자재 - 기타건축자재"}]},{"lat":"37.41864117","long":"127.2948863","items":[{"name":"정든식당","tel":"031-763-4273","addr":"경기도 광주시 초월읍 지월리 388-9","category":"일반휴게음식 - 일반한식"}]},{"lat":"37.40239699","long":"127.2908365","items":[{"name":"정순아낙지","tel":"031-767-1120","addr":"경기도 광주시 초월읍 지월리 690번지 1층","category":"일반휴게음식 - 일반한식"}]},{"lat":"37.41578085","long":"127.3072444","items":[{"name":"주식회사 매쉬원","tel":"031-763-2941","addr":"경기도 광주시 초월읍 지월리 70번지 1층","category":"직물 - 침구·수예점"}]},{"lat":"37.41347371","long":"127.2894443","items":[{"name":"주식회사 애니테크(Any-tech)","tel":"031-768-0910","addr":"경기도 광주시 초월읍 지월리 610번지","category":"기타 - 기계공구"}]},{"lat":"37.41983557","long":"127.2964725","items":[{"name":"주식회사 에코킹","tel":"031-000-0000","addr":"경기도 광주시 초월읍 지월리 412-7번지","category":"직물 - 카페트,커튼,천막,지물"}]},{"lat":"37.41331121","long":"127.2895792","items":[{"name":"주식회사 온누리바이오생약","tel":"02-967-9679","addr":"경기도 광주시 초월읍 지월리 610-1번지","category":"약국 - 한약방"}]},{"lat":"37.4046442","long":"127.289309","items":[{"name":"주식회사 제이케이산업","tel":"031-000-0000","addr":"경기도 광주시 초월읍 지월리 667번지","category":"레져용품 - 스포츠·레져용품"}]},{"lat":"37.41367226","long":"127.2893095","items":[{"name":"주식회사 준아트피아","tel":"031-769-5037","addr":"경기도 광주시 초월읍 지월리 607-2번지 준아트피아 주식회사","category":"문화.취미 - 화랑"}]},{"lat":"37.42072151","long":"127.2952785","items":[{"name":"주식회사엠오이","tel":"031-861-8370","addr":"경기도 광주시 초월읍 지월리 417-6번지","category":"주방용구 - 주방용구"}]},{"lat":"37.40422208","long":"127.2997208","items":[{"name":"준서산업","tel":"031-793-3265","addr":"경기도 광주시 초월읍 지월리 186-4번지","category":"기타 - 기계공구"}]},{"lat":"37.40278012","long":"127.2888953","items":[{"name":"지월농원","tel":"031-762-0079","addr":"경기도 광주시 초월읍 지월리 681-2번지","category":"음료식품 - 농·축·수산품"}]},{"lat":"37.41458249","long":"127.2929164","items":[{"name":"지월동산","tel":"031-762-7892","addr":"경기도 광주시 초월읍 지월리 307번지 1층","category":"일반휴게음식 - 일반한식"}]},{"lat":"37.41719268","long":"127.2866118","items":[{"name":"지월현대정비공업사","tel":"031-763-5109","addr":"경기도 광주시 초월읍 지월리 576-6번지","category":"자동차정비 유지 - 자동차정비"}]},{"lat":"37.42577533","long":"127.284475","items":[{"name":"착한미용실","tel":"031-763-8535","addr":"경기도 광주시 초월읍 지월리 769-4번지 설월랑 2층","category":"보건위생 - 미용원"}]},{"lat":"37.40458798","long":"127.2902011","items":[{"name":"참낙지","tel":"031-761-0610","addr":"경기도 광주시 초월읍 지월리 685번지","category":"일반휴게음식 - 일반한식"}]},{"lat":"37.41664146","long":"127.2758105","items":[{"name":"청석송어","tel":"031-762-0906","addr":"경기도 광주시 초월읍 지월리 713번지","category":"일반휴게음식 - 일반한식"}]},{"lat":"37.41006149","long":"127.2920857","items":[{"name":"최고집","tel":"031-000-0000","addr":"경기도 광주시 초월읍 지월리 618-4번지","category":"일반휴게음식 - 일반한식"},{"name":"카네기플라워","tel":"031-768-6755","addr":"경기도 광주시 초월읍 지월리 618-4번지","category":"문화.취미 - 화원"}]},{"lat":"37.41856181","long":"127.2905029","items":[{"name":"치킨앤곱창마을","tel":"031-761-5157","addr":"경기도 광주시 초월읍 지월리 566-7번지","category":"일반휴게음식 - 일반한식"},{"name":"포시즌슈퍼","tel":"031-764-3914","addr":"경기도 광주시 초월읍 지월리 566-7번지","category":"유통업 영리 - 슈퍼마켓"}]},{"lat":"37.41179747","long":"127.2969381","items":[{"name":"카리스","tel":"031-699-6801","addr":"경기도 광주시 초월읍 지월리 276번지 한주타운 106동 202호","category":"회원제형태 - 기타1"}]},{"lat":"37.40799929","long":"127.2916372","items":[{"name":"카페베네치아","tel":"031-762-5032","addr":"경기도 광주시 초월읍 지월리 625-1번지","category":"일반휴게음식 - 서양음식"}]},{"lat":"37.4180338","long":"127.2927263","items":[{"name":"컨피언스코리아(Confiance Korea)","tel":"","addr":"경기도 광주시 초월읍 지월리 568-27번지 현대밸리타운 110동 401호","category":"용역 서비스 - 사무서비스"}]},{"lat":"37.42539154","long":"127.2867218","items":[{"name":"킹크랩스","tel":"031-761-6007","addr":"경기도 광주시 초월읍 지월리 550-2번지","category":"음료식품 - 농·축·수산품"},{"name":"킹크랩스","tel":"031-761-6007","addr":"경기도 광주시 초월읍 지월리 550-2번지","category":"일반휴게음식 - 일반한식"},{"name":"학원매점","tel":"031-768-1270","addr":"경기도 광주시 초월읍 지월리 550-2번지","category":"회원제형태 - 서적"},{"name":"허브나무","tel":"","addr":"경기도 광주시 초월읍 지월리 550-2번지 1층","category":"일반휴게음식 - 일반한식"}]},{"lat":"37.40311229","long":"127.2893935","items":[{"name":"탐라은갈치","tel":"031-798-8292","addr":"경기도 광주시 초월읍 지월리 685-3번지","category":"일반휴게음식 - 일반한식"}]},{"lat":"37.41531244","long":"127.2854186","items":[{"name":"태광물산","tel":"031-798-0110","addr":"경기도 광주시 초월읍 지월리 711-66","category":"유통업 영리 - 기타유통업"}]},{"lat":"37.41508618","long":"127.2969171","items":[{"name":"투케이컴퍼니(TwoK COMPANY)","tel":"031-797-1184","addr":"경기도 광주시 초월읍 지월리 347-1번지 1층","category":"문화.취미 - 애완동물"}]},{"lat":"37.41819649","long":"127.2961724","items":[{"name":"팜네이처농업회사법인주식회사","tel":"031-000-0000","addr":"경기도 광주시 초월읍 지월리 485-1번지","category":"문화.취미 - 화원"}]},{"lat":"37.42322636","long":"127.2952543","items":[{"name":"폼스튜디오","tel":"031-797-2051","addr":"경기도 광주시 초월읍 지월리 440-1번지","category":"광학제품 - 사진관"}]},{"lat":"37.41555991","long":"127.2984439","items":[{"name":"풍경","tel":"031-766-9412","addr":"경기도 광주시 초월읍 지월리 102-2번지","category":"일반휴게음식 - 일반한식"}]},{"lat":"37.42755967","long":"127.2880857","items":[{"name":"풍천장어마을","tel":"031-797-0559","addr":"경기도 광주시 초월읍 지월리 544-1번지","category":"일반휴게음식 - 일반한식"}]},{"lat":"37.41600122","long":"127.2874997","items":[{"name":"퓨처메이트(Future Mate)","tel":"031-767-5593","addr":"경기도 광주시 초월읍 지월리 709-15번지","category":"서적문구 - 과학기자재"}]},{"lat":"37.41581221","long":"127.2948075","items":[{"name":"프렌쉬렌탈 주식회사","tel":"031-1566-3422","addr":"경기도 광주시 초월읍 지월리 317-2번지","category":"신변잡화 - 기타잡화"}]},{"lat":"37.40825789","long":"127.2999965","items":[{"name":"하나애드","tel":"031-793-0826","addr":"경기도 광주시 초월읍 지월리 169-7번지 2층","category":"건축자재 - 인테리어전문"}]},{"lat":"37.41612227","long":"127.2969437","items":[{"name":"하늘판매","tel":"","addr":"경기도 광주시 초월읍 지월리 885번지 광주초월금강아미움아파트","category":"자동차정비 유지 - 자동차부품"}]},{"lat":"37.40942122","long":"127.2995832","items":[{"name":"한국EAC 경기광주대리점","tel":"031-766-8508","addr":"경기도 광주시 초월읍 지월리 158번지","category":"자동차정비 유지 - 자동차부품"}]},{"lat":"37.40423021","long":"127.2891154","items":[{"name":"한국농산","tel":"031-718-3338","addr":"경기도 광주시 초월읍 지월리 685-1번지","category":"음료식품 - 농·축·수산품"}]},{"lat":"37.41316576","long":"127.2901096","items":[{"name":"한국상사","tel":"042-383-1104","addr":"경기도 광주시 초월읍 지월리 611-1번지 외 6필지","category":"레져용품 - 스포츠·레져용품"}]},{"lat":"37.41439065","long":"127.2903063","items":[{"name":"한남수지","tel":"031-765-6467","addr":"경기도 광주시 초월읍 지월리 590-9번지","category":"직물 - 기타직물"}]},{"lat":"37.41297817","long":"127.2931361","items":[{"name":"한일봉지포장","tel":"031-797-8990","addr":"경기도 광주시 초월읍 지월리 296-1번지 302호","category":"유통업 영리 - 기타유통업"}]},{"lat":"37.41475313","long":"127.2894492","items":[{"name":"행복정원","tel":"031-798-0468","addr":"경기도 광주시 초월읍 지월리 599-1번지","category":"문화.취미 - 화원"}]},{"lat":"37.40475158","long":"127.2896144","items":[{"name":"현산올갱이해장국","tel":"031-762-2899","addr":"경기도 광주시 초월읍 지월리 665번지","category":"일반휴게음식 - 일반한식"}]},{"lat":"37.40297412","long":"127.2906354","items":[{"name":"홍익돈까스(경기광주점)","tel":"031-761-6241","addr":"경기도 광주시 초월읍 지월리 689번지","category":"일반휴게음식 - 서양음식"}]}]