[{"lat":"37.34809245","long":"127.3544396","items":[{"name":"(주)쌍별바이오","tel":"031-000-0000","addr":"경기도 광주시 곤지암읍 곤지암리 75번지","category":"보건위생 - 화장품"},{"name":"정글주주","tel":"031-761-2153","addr":"경기도 광주시 곤지암읍 곤지암리 75번지","category":"문화.취미 - 티켓"}]},{"lat":"37.33882274","long":"127.3628598","items":[{"name":"(주)엠디제이","tel":"031-761-8060","addr":"경기도 광주시 곤지암읍 곤지암리 21-7번지","category":"건축자재 - 기타건축자재"}]},{"lat":"37.34006739","long":"127.3378926","items":[{"name":"(주)예전","tel":"031-763-8051","addr":"경기도 광주시 곤지암읍 곤지암리 500-3번지","category":"음료식품 - 기타음료식품"}]},{"lat":"37.34831882","long":"127.3448363","items":[{"name":"(주)제이앤케이커뮤니케이션","tel":"070-4280-5851","addr":"경기도 광주시 곤지암읍 곤지암리 343-38번지 2층 201호","category":"신변잡화 - 기타잡화"}]},{"lat":"37.34834634","long":"127.3446671","items":[{"name":"(주)제일상사","tel":"031-763-6300","addr":"경기도 광주시 곤지암읍 곤지암리 343-40번지","category":"유통업 영리 - 기타유통업"}]},{"lat":"37.3472307","long":"127.3378003","items":[{"name":"(주)청실","tel":"031-769-5292","addr":"경기도 광주시 곤지암읍 곤지암리 453-134번지","category":"음료식품 - 농·축·수산품"},{"name":"청실홍실","tel":"031-769-5292","addr":"경기도 광주시 곤지암읍 곤지암리 453-134번지","category":"일반휴게음식 - 일반한식"}]},{"lat":"37.34990424","long":"127.3418301","items":[{"name":"123한의원","tel":"031-766-4123","addr":"경기도 광주시 곤지암읍 곤지암리 435-19번지 곤지암터미널 2층","category":"의원 - 한의원"},{"name":"GS25곤지암점","tel":"","addr":"경기도 광주시 곤지암읍 곤지암리 435-19번지","category":"유통업 영리 - 편 의 점"},{"name":"GS25곤지암점","tel":"","addr":"경기도 광주시 곤지암읍 곤지암리 435-19번지","category":"유통업 영리 - 상품권전문판매"},{"name":"더 폰 코리아","tel":"031-797-4949","addr":"경기도 광주시 곤지암읍 곤지암리 435-19번지","category":"신변잡화 - 기타잡화"},{"name":"미소야","tel":"031-797-3332","addr":"경기도 광주시 곤지암읍 곤지암리 435-19번지","category":"일반휴게음식 - 스넥"},{"name":"에뽕버거","tel":"031-769-1333","addr":"경기도 광주시 곤지암읍 곤지암리 435-19번지 1~2층","category":"일반휴게음식 - 서양음식"}]},{"lat":"37.34114712","long":"127.3384165","items":[{"name":"124번지삼겹살&동치미국수","tel":"031-767-2229","addr":"경기도 광주시 곤지암읍 곤지암리 488번지","category":"일반휴게음식 - 일반한식"},{"name":"올웨이즈","tel":"031-761-6215","addr":"경기도 광주시 곤지암읍 곤지암리 488번지","category":"유통업 영리 - 슈퍼마켓"}]},{"lat":"37.34309768","long":"127.352464","items":[{"name":"153순수","tel":"031-764-0153","addr":"경기도 광주시 곤지암읍 곤지암리 224번지","category":"일반휴게음식 - 일반한식"}]},{"lat":"37.34942965","long":"127.3408009","items":[{"name":"365양꼬치훠궈","tel":"031-797-3656","addr":"경기도 광주시 곤지암읍 곤지암리 433-2번지","category":"일반휴게음식 - 일반한식"},{"name":"누나홀닭 곤지암점","tel":"031-764-9242","addr":"경기도 광주시 곤지암읍 곤지암리 433-2번지 1층","category":"일반휴게음식 - 스넥"},{"name":"뉴가나안제과","tel":"031-762-6430","addr":"경기도 광주시 곤지암읍 곤지암리 433-2번지","category":"음료식품 - 제과점"},{"name":"이디야커피점 (곤지암점)","tel":"031-762-4408","addr":"경기도 광주시 곤지암읍 곤지암리 433-2번지","category":"일반휴게음식 - 서양음식"}]},{"lat":"37.33896151","long":"127.3370527","items":[{"name":"Bakery 150 (베이커리 150)","tel":"","addr":"경기도 광주시 곤지암읍 곤지암리 510-3번지 1층","category":"음료식품 - 제과점"},{"name":"빌리보스","tel":"02-1111-1111","addr":"경기도 광주시 곤지암읍 곤지암리 510-3번지 102호","category":"유통업 영리 - 기타유통업"},{"name":"스카이당구클럽","tel":"02-994-7933","addr":"경기도 광주시 곤지암읍 곤지암리 510-3번지 2층","category":"레저업소 - 당 구 장"}]},{"lat":"37.35034522","long":"127.3451389","items":[{"name":"Black Coffee (블랙커피)","tel":"031-761-7212","addr":"경기도 광주시 곤지암읍 곤지암리 555-6번지 1층","category":"일반휴게음식 - 서양음식"},{"name":"라운지","tel":"070-4922-1261","addr":"경기도 광주시 곤지암읍 곤지암리 555-6번지 1층","category":"일반휴게음식 - 서양음식"},{"name":"라운지","tel":"070-4922-1261","addr":"경기도 광주시 곤지암읍 곤지암리 555-6번지 101호","category":"유통업 영리 - 편 의 점"}]},{"lat":"37.35020305","long":"127.3506347","items":[{"name":"D&G골프용품점","tel":"031-798-5312","addr":"경기도 광주시 곤지암읍 곤지암리 133-7번지 1층 101호,102호","category":"레져용품 - 골프용품 전문점"},{"name":"GS25광주곤지암점","tel":"02-2006-2485","addr":"경기도 광주시 곤지암읍 곤지암리 133-7","category":"유통업 영리 - 상품권전문판매"},{"name":"GS25광주곤지암점","tel":"02-2006-2485","addr":"경기도 광주시 곤지암읍 곤지암리 133-7","category":"유통업 영리 - 편 의 점"},{"name":"곤지암라이온스클럽","tel":"031-797-8181","addr":"경기도 광주시 곤지암읍 곤지암리 133-7번지 세원빌딩 2층","category":"용역 서비스 - 기타용역서비스"}]},{"lat":"37.34315264","long":"127.3521595","items":[{"name":"G&E코리아","tel":"031-798-3652","addr":"경기도 광주시 곤지암읍 곤지암리 224-4번지 105호","category":"전기제품 - 냉열기기"}]},{"lat":"37.33926706","long":"127.3373361","items":[{"name":"GD마트","tel":"031-798-8935","addr":"경기도 광주시 곤지암읍 곤지암리 509-15 4","category":"유통업 영리 - 편 의 점"},{"name":"일광종합상사","tel":"031-763-3346","addr":"경기도 광주시 곤지암읍 곤지암리 509-15번지","category":"기타 - 기계공구"}]},{"lat":"37.35009545","long":"127.3411312","items":[{"name":"GG모텔","tel":"031-764-6156","addr":"경기도 광주시 곤지암읍 곤지암리 435-28번지","category":"숙박업 - 여관/기타숙박업"},{"name":"GG사우나","tel":"031-764-6158","addr":"경기도 광주시 곤지암읍 곤지암리 435-28번지 지층","category":"보건위생 - 사우나"}]},{"lat":"37.3490396","long":"127.3385532","items":[{"name":"GS25광주실촌점","tel":"","addr":"경기도 광주시 곤지암읍 곤지암리 453-47번지","category":"유통업 영리 - 상품권전문판매"},{"name":"GS25광주실촌점","tel":"","addr":"경기도 광주시 곤지암읍 곤지암리 453-47번지","category":"유통업 영리 - 편 의 점"},{"name":"대감","tel":"031-762-8870","addr":"경기도 광주시 곤지암읍 곤지암리 453-47번지 2층","category":"일반휴게음식 - 일반한식"},{"name":"대감뒷고기","tel":"031-762-8870","addr":"경기도 광주시 곤지암읍 곤지암리 453-47번지 2층","category":"일반휴게음식 - 일반한식"},{"name":"대성","tel":"031-763-9478","addr":"경기도 광주시 곤지암읍 곤지암리 453-47","category":"일반휴게음식 - 일반한식"},{"name":"대성정육점","tel":"031-763-9478","addr":"경기도 광주시 곤지암읍 곤지암리 453-47번지","category":"음료식품 - 정육점"},{"name":"맛짱수제왕만두","tel":"02-1111-1111","addr":"경기도 광주시 곤지암읍 곤지암리 453-47번지 1층","category":"일반휴게음식 - 스넥"},{"name":"봉구스밥버거(곤지암점)","tel":"031-762-7947","addr":"경기도 광주시 곤지암읍 곤지암리 453-47","category":"일반휴게음식 - 일반한식"},{"name":"색연필","tel":"070-8876-1196","addr":"경기도 광주시 곤지암읍 곤지암리 453-47","category":"서적문구 - 문구용품"},{"name":"윤혜진뷰티샵","tel":"031-762-0639","addr":"경기도 광주시 곤지암읍 곤지암리 453-47번지","category":"회원제형태 - 기타4"},{"name":"일등학원","tel":"031-797-0646","addr":"경기도 광주시 곤지암읍 곤지암리 453-47번지 2층","category":"학원 - 보습학원"},{"name":"종로옛날통닭","tel":"031-769-5501","addr":"경기도 광주시 곤지암읍 곤지암리 453-47번지 1층","category":"일반휴게음식 - 일반한식"},{"name":"커피에반하다","tel":"031-797-3567","addr":"경기도 광주시 곤지암읍 곤지암리 453-47번지","category":"일반휴게음식 - 서양음식"},{"name":"태반찬","tel":"031-763-7333","addr":"경기도 광주시 곤지암읍 곤지암리 453-47번지 1층","category":"음료식품 - 기타음료식품"},{"name":"픽미픽미아이스(곤지암점)","tel":"","addr":"경기도 광주시 곤지암읍 곤지암리 453-47번지","category":"음료식품 - 기타음료식품"}]},{"lat":"37.33884288","long":"127.3375825","items":[{"name":"GS25광주희망점","tel":"","addr":"경기도 광주시 곤지암읍 곤지암리 510-5번지 1층","category":"유통업 영리 - 편 의 점"},{"name":"GS25광주희망점","tel":"","addr":"경기도 광주시 곤지암읍 곤지암리 510-5번지 1층","category":"유통업 영리 - 상품권전문판매"}]},{"lat":"37.34887624","long":"127.3389701","items":[{"name":"J헤어","tel":"031-766-1611","addr":"경기도 광주시 곤지암읍 곤지암리 447-1번지 1층","category":"보건위생 - 미용원"},{"name":"스마일찰진꽈배기","tel":"031-762-0799","addr":"경기도 광주시 곤지암읍 곤지암리 447-1번지 1층","category":"일반휴게음식 - 스넥"}]},{"lat":"37.35004262","long":"127.3375307","items":[{"name":"Kcc페인트형제상사","tel":"031-762-7709","addr":"경기도 광주시 곤지암읍 곤지암리 453-103번지","category":"건축자재 - 페인트"},{"name":"꽃뜰 (태인농산)","tel":"031-764-7775","addr":"경기도 광주시 곤지암읍 곤지암리 453-103번지","category":"문화.취미 - 화원"}]},{"lat":"37.34559763","long":"127.3448804","items":[{"name":"Mans","tel":"031-793-2898","addr":"경기도 광주시 곤지암읍 곤지암리 593","category":"회원제형태 - 기타4"},{"name":"에스현소프트","tel":"031-699-1424","addr":"경기도 광주시 곤지암읍 곤지암리 593번지 삼주노블리제아파트","category":"회원제형태 - 기타4"}]},{"lat":"37.34932154","long":"127.343938","items":[{"name":"RUSSIAN BAKERY(러시안베이커리)","tel":"070-4082-0211","addr":"경기도 광주시 곤지암읍 곤지암리 345-6번지 1층","category":"일반휴게음식 - 서양음식"},{"name":"광주컴퓨터","tel":"031-762-1557","addr":"경기도 광주시 곤지암읍 곤지암리 345-6번지 1층","category":"사무통신 - 컴퓨터"},{"name":"다나약국","tel":"031-764-1588","addr":"경기도 광주시 곤지암읍 곤지암리 345-6번지","category":"약국 - 약국"},{"name":"동아모타","tel":"031-764-7349","addr":"경기도 광주시 곤지암읍 곤지암리 345-6번지 1층","category":"기타 - 기계공구"},{"name":"러시안마트","tel":"070-4069-0211","addr":"경기도 광주시 곤지암읍 곤지암리 345-6번지","category":"음료식품 - 기타음료식품"}]},{"lat":"37.34953761","long":"127.3562747","items":[{"name":"SS스포츠","tel":"031-797-5163","addr":"경기도 광주시 곤지암읍 곤지암리 93-10번지 1층","category":"레져용품 - 스포츠·레져용품"},{"name":"까사디자인","tel":"031-798-1155","addr":"경기도 광주시 곤지암읍 곤지암리 93-10번지","category":"가구 - 일반가구"},{"name":"주식회사 아니 (ANI.co.LTD)","tel":"","addr":"경기도 광주시 곤지암읍 곤지암리 93-10번지 1층","category":"용역 서비스 - 사무서비스"}]},{"lat":"37.34984704","long":"127.3397757","items":[{"name":"TANDYR KEBAB(탄두르 케밥)","tel":"031-767-1503","addr":"경기도 광주시 곤지암읍 곤지암리 441-21번지","category":"일반휴게음식 - 일반한식"}]},{"lat":"37.34998116","long":"127.3401375","items":[{"name":"YOLO 욜로","tel":"031-761-3877","addr":"경기도 광주시 곤지암읍 곤지암리 443-9번지 1층","category":"일반휴게음식 - 주점"},{"name":"교촌치킨","tel":"031-763-1991","addr":"경기도 광주시 곤지암읍 곤지암리 443-9번지","category":"일반휴게음식 - 스넥"},{"name":"꿈의궁전","tel":"031-797-6050","addr":"경기도 광주시 곤지암읍 곤지암리 443-9번지","category":"숙박업 - 여관/기타숙박업"},{"name":"꿈의궁전","tel":"031-797-6050","addr":"경기도 광주시 곤지암읍 곤지암리 443-9번지","category":"숙박업 - 여관/기타숙박업"},{"name":"빵구네닭발곤지암점","tel":"031-223-5214","addr":"경기도 광주시 곤지암읍 곤지암리 443-9번지 1층","category":"일반휴게음식 - 일반한식"}]},{"lat":"37.34479406","long":"127.3485558","items":[{"name":"flower 테오","tel":"070-4763-5091","addr":"경기도 광주시 곤지암읍 곤지암리 185-9번지 2호","category":"문화.취미 - 화원"}]},{"lat":"37.34929385","long":"127.3441636","items":[{"name":"갑일상사","tel":"031-761-9940","addr":"경기도 광주시 곤지암읍 곤지암리 345-1번지","category":"자동차정비 유지 - 자동차부품"},{"name":"곤지암잉크충전소","tel":"031-764-1261","addr":"경기도 광주시 곤지암읍 곤지암리 345-1","category":"사무통신 - 기타 사무용품"},{"name":"수정식당","tel":"031-761-1174","addr":"경기도 광주시 곤지암읍 곤지암리 345-1번지","category":"일반휴게음식 - 일반한식"},{"name":"에스더미용실","tel":"031-797-4971","addr":"경기도 광주시 곤지암읍 곤지암리 345-1","category":"보건위생 - 미용원"},{"name":"중앙인쇄기획","tel":"031-797-6237","addr":"경기도 광주시 곤지암읍 곤지암리 345-1","category":"서적문구 - 출판 및 인쇄물"}]},{"lat":"37.34240421","long":"127.358408","items":[{"name":"건진주유소","tel":"031-769-0982","addr":"경기도 광주시 곤지암읍 곤지암리 53-2번지","category":"연료판매점 - SK주유소"},{"name":"곤지암주유소","tel":"031-798-5180","addr":"경기도 광주시 곤지암읍 곤지암리 53-2번지","category":"연료판매점 - SK주유소"},{"name":"곤지암주유소/광천에너지 주식회사","tel":"031-798-5180","addr":"경기도 광주시 곤지암읍 곤지암리 53-2번지","category":"연료판매점 - SK주유소"},{"name":"광천에너지 주식회사","tel":"031-798-5180","addr":"경기도 광주시 곤지암읍 곤지암리 53-2번지","category":"연료판매점 - SK주유소"}]},{"lat":"37.34274792","long":"127.3394732","items":[{"name":"겔러리 모멘트","tel":"031-797-8322","addr":"경기도 광주시 곤지암읍 곤지암리 469-6번지 현대빌라 A동 101호","category":"광학제품 - 사진관"}]},{"lat":"37.34976389","long":"127.3404977","items":[{"name":"경희팔팔한의원","tel":"031-762-6575","addr":"경기도 광주시 곤지암읍 곤지암리 439-5번지","category":"의원 - 한의원"},{"name":"곤지암우체국","tel":"031-762-6000","addr":"경기도 광주시 곤지암읍 곤지암리 439-5번지","category":"용역 서비스 - 공공요금대행서비스/소"},{"name":"연세미치과의원","tel":"031-797-2842","addr":"경기도 광주시 곤지암읍 곤지암리 439-5번지 3층","category":"의원 - 치과의원"}]},{"lat":"37.34975899","long":"127.339053","items":[{"name":"고양이호프","tel":"031-767-1503","addr":"경기도 광주시 곤지암읍 곤지암리 441-13번지","category":"일반휴게음식 - 주점"},{"name":"곤지암 전국 대리운전","tel":"031-765-9900","addr":"경기도 광주시 곤지암읍 곤지암리 441-13번지 1층","category":"보건위생 - 기타대인서비스"},{"name":"쥬씨 곤지암점","tel":"070-4117-1028","addr":"경기도 광주시 곤지암읍 곤지암리 441-13번지 1동","category":"일반휴게음식 - 서양음식"}]},{"lat":"37.34903867","long":"127.3451669","items":[{"name":"곤지곤지대구탕","tel":"031-769-4194","addr":"경기도 광주시 곤지암읍 곤지암리 341-8번지","category":"일반휴게음식 - 일반한식"},{"name":"효담기사식당","tel":"031-764-5478","addr":"경기도 광주시 곤지암읍 곤지암리 341-8번지","category":"일반휴게음식 - 일반한식"}]},{"lat":"37.3501461","long":"127.3391676","items":[{"name":"곤지생선조림","tel":"031-769-1952","addr":"경기도 광주시 곤지암읍 곤지암리 443-13번지","category":"일반휴게음식 - 일반한식"}]},{"lat":"37.34920304","long":"127.3444115","items":[{"name":"곤지암 독일 보청기","tel":"031-8028-8728","addr":"경기도 광주시 곤지암읍 곤지암리 341-17번지 3층","category":"보건위생 - 의료용품"}]},{"lat":"37.34431975","long":"127.3505286","items":[{"name":"곤지암 마산아구찜.탕","tel":"031-769-7994","addr":"경기도 광주시 곤지암읍 곤지암리 200-6번지","category":"일반휴게음식 - 일반한식"},{"name":"수상한선술집","tel":"031-764-7875","addr":"경기도 광주시 곤지암읍 곤지암리 200-6번지 G동 1층","category":"일반휴게음식 - 일반한식"},{"name":"크린에이드 곤지암점","tel":"031-763-3006","addr":"경기도 광주시 곤지암읍 곤지암리 200-6번지 지1층 4호(썬타운)","category":"수리서비스 - 세탁소"}]},{"lat":"37.34887645","long":"127.3604136","items":[{"name":"곤지암 보그너","tel":"031-762-5274","addr":"경기도 광주시 곤지암읍 곤지암리 1-1번지 B동 101,102,103호","category":"레져용품 - 스포츠·레져용품"}]},{"lat":"37.34954041","long":"127.3430248","items":[{"name":"곤지암 양꼬치","tel":"031-761-5567","addr":"경기도 광주시 곤지암읍 곤지암리 430-10번지","category":"일반휴게음식 - 일반한식"},{"name":"구가유리","tel":"031-761-8584","addr":"경기도 광주시 곤지암읍 곤지암리 430-10번지","category":"건축자재 - 유리"},{"name":"돼지끼리","tel":"031-761-1518","addr":"경기도 광주시 곤지암읍 곤지암리 430-10번지","category":"일반휴게음식 - 일반한식"},{"name":"수원신닭발","tel":"031-797-8218","addr":"경기도 광주시 곤지암읍 곤지암리 430-10번지","category":"일반휴게음식 - 일반한식"},{"name":"연노래연습장","tel":"031-763-3950","addr":"경기도 광주시 곤지암읍 곤지암리 430-10번지","category":"레저업소 - 노 래 방"},{"name":"진주다방","tel":"031-765-1562","addr":"경기도 광주시 곤지암읍 곤지암리 430-10번지","category":"일반휴게음식 - 서양음식"}]},{"lat":"37.34945494","long":"127.3414105","items":[{"name":"곤지암 통신","tel":"031-763-5017","addr":"경기도 광주시 곤지암읍 곤지암리 433-19번지","category":"사무통신 - 통신기기"},{"name":"뚜레쥬르 곤지암점","tel":"031-761-0701","addr":"경기도 광주시 곤지암읍 곤지암리 433-19번지","category":"음료식품 - 제과점"},{"name":"뷰티하우스(화장품)","tel":"031-769-6653","addr":"경기도 광주시 곤지암읍 곤지암리 433-19번지","category":"보건위생 - 화장품"},{"name":"쟁반노래방","tel":"031-798-1151","addr":"경기도 광주시 곤지암읍 곤지암리 433-19번지 2층","category":"레저업소 - 노 래 방"}]},{"lat":"37.34945587","long":"127.3410832","items":[{"name":"곤지암건강원","tel":"031-764-2969","addr":"경기도 광주시 곤지암읍 곤지암리 440-15번지","category":"건강식품 - 기타건강식품"},{"name":"루비헤어","tel":"031-338-4934","addr":"경기도 광주시 곤지암읍 곤지암리 440-15번지","category":"보건위생 - 미용원"},{"name":"시골식당","tel":"031-762-6437","addr":"경기도 광주시 곤지암읍 곤지암리 440-15번지","category":"일반휴게음식 - 일반한식"},{"name":"에뛰드하우스곤지암점","tel":"070-4143-1201","addr":"경기도 광주시 곤지암읍 곤지암리 440-15번지","category":"보건위생 - 화장품"},{"name":"이미경혜어스토리","tel":"031-769-5175","addr":"경기도 광주시 곤지암읍 곤지암리 440-15번지","category":"보건위생 - 미용원"}]},{"lat":"37.34895366","long":"127.3465208","items":[{"name":"곤지암건재","tel":"031-764-2493","addr":"경기도 광주시 곤지암읍 곤지암리 348-31번지","category":"건축자재 - 건축용 요업제품"}]},{"lat":"37.34953986","long":"127.3432166","items":[{"name":"곤지암공구프라자","tel":"031-767-0944","addr":"경기도 광주시 곤지암읍 곤지암리 430-11번지 1층","category":"기타 - 기계공구"},{"name":"용인공업사","tel":"031-762-6372","addr":"경기도 광주시 곤지암읍 곤지암리 430-11번지","category":"농업 - 농기계"},{"name":"주식회사 용광상사","tel":"031-762-6372","addr":"경기도 광주시 곤지암읍 곤지암리 430-11번지","category":"농업 - 농기계"}]},{"lat":"37.34984166","long":"127.3416605","items":[{"name":"곤지암국제주방","tel":"031-797-4204","addr":"경기도 광주시 곤지암읍 곤지암리 435-15번지","category":"주방용구 - 주방용구"}]},{"lat":"37.34684554","long":"127.3495245","items":[{"name":"곤지암기와집","tel":"031-798-2626","addr":"경기도 광주시 곤지암읍 곤지암리 178번지","category":"일반휴게음식 - 일반한식"}]},{"lat":"37.3420412","long":"127.3592752","items":[{"name":"곤지암김치찜","tel":"031-763-4396","addr":"경기도 광주시 곤지암읍 곤지암리 51-1번지 2층","category":"일반휴게음식 - 일반한식"}]},{"lat":"37.34939871","long":"127.3421664","items":[{"name":"곤지암농약사","tel":"031-769-2243","addr":"경기도 광주시 곤지암읍 곤지암리 433-4번지","category":"농업 - 비료,사료,종자"},{"name":"공구광장","tel":"031-764-0120","addr":"경기도 광주시 곤지암읍 곤지암리 433-4번지","category":"기타 - 기계공구"},{"name":"신참떡볶이","tel":"031-769-8877","addr":"경기도 광주시 곤지암읍 곤지암리 433-4번지 1호동 2층","category":"일반휴게음식 - 스넥"},{"name":"에넥스광주대리점","tel":"031-762-3131","addr":"경기도 광주시 곤지암읍 곤지암리 433-4번지","category":"주방용구 - 주방용구"},{"name":"연세행복을심는치과의원","tel":"031-763-2872","addr":"경기도 광주시 곤지암읍 곤지암리 433-4번지 2층","category":"의원 - 치과의원"},{"name":"진보석","tel":"031-762-1886","addr":"경기도 광주시 곤지암읍 곤지암리 433-4번지","category":"신변잡화 - 시계"},{"name":"쭈꾸미일당백","tel":"031-766-7878","addr":"경기도 광주시 곤지암읍 곤지암리 433-4번지","category":"일반휴게음식 - 일반한식"}]},{"lat":"37.34923625","long":"127.3391071","items":[{"name":"곤지암농업협동조합","tel":"031-763-8036","addr":"경기도 광주시 곤지암읍 곤지암리 446-3번지","category":"유통업 비영리 - 농,축협 직영매장"},{"name":"곤지암농업협동조합","tel":"031-762-6038","addr":"경기도 광주시 곤지암읍 곤지암리 446-3번지","category":"유통업 비영리 - 농,축협 직영매장"},{"name":"곤지암농협하나로마트","tel":"031-763-8036","addr":"경기도 광주시 곤지암읍 곤지암리 446-3번지","category":"유통업 비영리 - 농,축협 직영매장"}]},{"lat":"37.35034149","long":"127.3525766","items":[{"name":"곤지암대구탕","tel":"031-766-8193","addr":"경기도 광주시 곤지암읍 곤지암리 140-2번지","category":"일반휴게음식 - 일반한식"},{"name":"미성순대국","tel":"031-768-3135","addr":"경기도 광주시 곤지암읍 곤지암리 140-2번지","category":"일반휴게음식 - 일반한식"},{"name":"미소한식","tel":"031-761-9379","addr":"경기도 광주시 곤지암읍 곤지암리 140-2번지 1층 101호","category":"일반휴게음식 - 일반한식"},{"name":"법무사유경렬사무소","tel":"031-763-3631","addr":"경기도 광주시 곤지암읍 곤지암리 140-2번지 103호","category":"용역 서비스 - 법률회계서비스(개인)"},{"name":"신대건축사사무소","tel":"031-764-0416","addr":"경기도 광주시 곤지암읍 곤지암리 140-2번지 3층","category":"용역 서비스 - 사무서비스"}]},{"lat":"37.34945549","long":"127.3412186","items":[{"name":"곤지암대박복권방","tel":"031-797-2511","addr":"경기도 광주시 곤지암읍 곤지암리 433-3","category":"의류 - 정장"}]},{"lat":"37.35004019","long":"127.3383884","items":[{"name":"곤지암동물병원","tel":"031-769-5675","addr":"경기도 광주시 곤지암읍 곤지암리 453-7번지","category":"기타의료기관 - 동물병원"},{"name":"곤지암우등생셀파학원","tel":"031-763-8252","addr":"경기도 광주시 곤지암읍 곤지암리 453-7번지","category":"학원 - 보습학원"},{"name":"뮤엠영어곤지암학원","tel":"031-769-9913","addr":"경기도 광주시 곤지암읍 곤지암리 453-7번지 2층","category":"학원 - 보습학원"},{"name":"배달건재","tel":"031-761-0411","addr":"경기도 광주시 곤지암읍 곤지암리 453-7번지","category":"건축자재 - 기타건축자재"},{"name":"일퍼센트수학원","tel":"031-797-9636","addr":"경기도 광주시 곤지암읍 곤지암리 453-7번지 3층","category":"학원 - 보습학원"},{"name":"포도당 Macaron&Desserts","tel":"031-762-5421","addr":"경기도 광주시 곤지암읍 곤지암리 453-7번지","category":"음료식품 - 기타음료식품"}]},{"lat":"37.34967665","long":"127.3394928","items":[{"name":"곤지암떡집","tel":"031-763-3901","addr":"경기도 광주시 곤지암읍 곤지암리 441-16번지","category":"음료식품 - 제과점"},{"name":"더페이스샵","tel":"031-769-8687","addr":"경기도 광주시 곤지암읍 곤지암리 441-16번지","category":"보건위생 - 화장품"},{"name":"신성대리운전","tel":"031-762-2264","addr":"경기도 광주시 곤지암읍 곤지암리 441-16 4층 1/","category":"보건위생 - 기타대인서비스"}]},{"lat":"37.3495931","long":"127.343499","items":[{"name":"곤지암마트","tel":"031-762-6073","addr":"경기도 광주시 곤지암읍 곤지암리 341-1번지","category":"유통업 영리 - 슈퍼마켓"}]},{"lat":"37.33929086","long":"127.338476","items":[{"name":"곤지암볼링쎈타","tel":"031-769-3337","addr":"경기도 광주시 곤지암읍 곤지암리 508-1번지","category":"레저업소 - 볼 링 장"}]},{"lat":"37.34934367","long":"127.3393559","items":[{"name":"곤지암서적문구","tel":"031-762-6253","addr":"경기도 광주시 곤지암읍 곤지암리 445-4번지","category":"서적문구 - 일반서적"},{"name":"궁전","tel":"031-761-6296","addr":"경기도 광주시 곤지암읍 곤지암리 445-4번지","category":"일반휴게음식 - 일반한식"},{"name":"벅스팝","tel":"031-797-3588","addr":"경기도 광주시 곤지암읍 곤지암리 445-4번지","category":"일반휴게음식 - 주점"},{"name":"본죽(곤지암점)","tel":"031-769-6286","addr":"경기도 광주시 곤지암읍 곤지암리 445-4번지","category":"일반휴게음식 - 일반한식"},{"name":"서울노래방","tel":"031-762-7833","addr":"경기도 광주시 곤지암읍 곤지암리 445-4","category":"레저업소 - 노 래 방"}]},{"lat":"37.34978575","long":"127.3423036","items":[{"name":"곤지암약국","tel":"031-763-0678","addr":"경기도 광주시 곤지암읍 곤지암리 434-2","category":"약국 - 약국"},{"name":"광명전기","tel":"031-761-1941","addr":"경기도 광주시 곤지암읍 곤지암리 434-2번지","category":"직물 - 카페트,커튼,천막,지물"},{"name":"더치킨","tel":"031-762-9192","addr":"경기도 광주시 곤지암읍 곤지암리 434-2번지","category":"일반휴게음식 - 스넥"},{"name":"수비뇨기과의원","tel":"031-798-7582","addr":"경기도 광주시 곤지암읍 곤지암리 434-2번지","category":"의원 - 의원"},{"name":"탈랜트노래연습장","tel":"031-763-1043","addr":"경기도 광주시 곤지암읍 곤지암리 434-2번지","category":"레저업소 - 노 래 방"},{"name":"화신세차장","tel":"031-762-6062","addr":"경기도 광주시 곤지암읍 곤지암리 434-2","category":"자동차정비 유지 - 세차장"}]},{"lat":"37.34981322","long":"127.3544928","items":[{"name":"곤지암유통","tel":"031-798-2704","addr":"경기도 광주시 곤지암읍 곤지암리 139-4번지 1층 7호","category":"의류 - 정장"}]},{"lat":"37.34964901","long":"127.342856","items":[{"name":"곤지암정형외과","tel":"031-761-9731","addr":"경기도 광주시 곤지암읍 곤지암리 430-9번지 2층","category":"의원 - 의원"},{"name":"맘스터치","tel":"031-797-1436","addr":"경기도 광주시 곤지암읍 곤지암리 430-9번지 한영빌딩 1층","category":"일반휴게음식 - 서양음식"},{"name":"팝PC방","tel":"031-763-8252","addr":"경기도 광주시 곤지암읍 곤지암리 430-9번지","category":"레저업소 - 기타레져업소"}]},{"lat":"37.34986978","long":"127.3412769","items":[{"name":"곤지암후계자농원","tel":"031-764-9844","addr":"경기도 광주시 곤지암읍 곤지암리 435-3번지","category":"문화.취미 - 화원"},{"name":"유성칡냉면","tel":"031-762-8150","addr":"경기도 광주시 곤지암읍 곤지암리 435-3","category":"일반휴게음식 - 일반한식"},{"name":"하림맥시칸","tel":"031-762-6333","addr":"경기도 광주시 곤지암읍 곤지암리 435-3번지","category":"일반휴게음식 - 스넥"},{"name":"호랑나비세탁","tel":"031-762-7841","addr":"경기도 광주시 곤지암읍 곤지암리 435-3","category":"수리서비스 - 세탁소"},{"name":"황제","tel":"031-769-7089","addr":"경기도 광주시 곤지암읍 곤지암리 435-3번지","category":"보건위생 - 피부미용실"}]},{"lat":"37.3500636","long":"127.3396638","items":[{"name":"골목집소머리국밥","tel":"031-762-6265","addr":"경기도 광주시 곤지암읍 곤지암리 443-10번지","category":"일반휴게음식 - 일반한식"}]},{"lat":"37.35329148","long":"127.3420259","items":[{"name":"곰탱이슈퍼","tel":"031-764-2195","addr":"경기도 광주시 곤지암읍 곤지암리 410번지 104호","category":"유통업 영리 - 슈퍼마켓"},{"name":"태능돼지갈비","tel":"031-766-4547","addr":"경기도 광주시 곤지암읍 곤지암리 410","category":"일반휴게음식 - 일반한식"}]},{"lat":"37.35012051","long":"127.3386596","items":[{"name":"공구백화점","tel":"031-764-0949","addr":"경기도 광주시 곤지암읍 곤지암리 444-5번지","category":"기타 - 기계공구"},{"name":"소망약국","tel":"031-797-1241","addr":"경기도 광주시 곤지암읍 곤지암리 444-5번지","category":"약국 - 약국"},{"name":"페리카나","tel":"031-763-8068","addr":"경기도 광주시 곤지암읍 곤지암리 444-5","category":"일반휴게음식 - 일반한식"}]},{"lat":"37.34987596","long":"127.33911","items":[{"name":"공릉동멸치국수","tel":"031-768-2015","addr":"경기도 광주시 곤지암읍 곤지암리 441-12번지 1층","category":"일반휴게음식 - 일반한식"},{"name":"또봉이통닭곤지암점","tel":"031-769-5076","addr":"경기도 광주시 곤지암읍 곤지암리 441-12번지","category":"일반휴게음식 - 스넥"}]},{"lat":"37.34826577","long":"127.3381886","items":[{"name":"과일백화점","tel":"031-765-1562","addr":"경기도 광주시 곤지암읍 곤지암리 453-91번지","category":"음료식품 - 농·축·수산품"}]},{"lat":"37.34965473","long":"127.3532506","items":[{"name":"광주상사","tel":"031-762-6414","addr":"경기도 광주시 곤지암읍 곤지암리 139-6","category":"신변잡화 - 기타잡화"},{"name":"국수집","tel":"031-769-3954","addr":"경기도 광주시 곤지암읍 곤지암리 139-6","category":"일반휴게음식 - 스넥"},{"name":"중앙유통","tel":"031-762-2445","addr":"경기도 광주시 곤지암읍 곤지암리 139-6번지 1층","category":"음료식품 - 기타음료식품"}]},{"lat":"37.35009615","long":"127.3532752","items":[{"name":"국수봉뽕잎바지락칼국수","tel":"031-761-7311","addr":"경기도 광주시 곤지암읍 곤지암리 141-4번지 1층","category":"일반휴게음식 - 일반한식"}]},{"lat":"37.34984742","long":"127.3396403","items":[{"name":"궁전부페","tel":"031-762-0345","addr":"경기도 광주시 곤지암읍 곤지암리 441-19번지","category":"일반휴게음식 - 일반한식"},{"name":"김용문 미식점","tel":"031-797-2722","addr":"경기도 광주시 곤지암읍 곤지암리 441-19번지 1층","category":"일반휴게음식 - 중국식"}]},{"lat":"37.3480948","long":"127.3381089","items":[{"name":"그랜드탁구장","tel":"070-4225-3969","addr":"경기도 광주시 곤지암읍 곤지암리 453-23번지","category":"레저업소 - 기타레져업소"},{"name":"뱅뱅뱅","tel":"031-769-1220","addr":"경기도 광주시 곤지암읍 곤지암리 453-23번지 1층 3호","category":"일반휴게음식 - 일반한식"}]},{"lat":"37.34945659","long":"127.3439724","items":[{"name":"금강한의원","tel":"031-769-7747","addr":"경기도 광주시 곤지암읍 곤지암리 341-19번지","category":"의원 - 한의원"}]},{"lat":"37.34995689","long":"127.3391668","items":[{"name":"기분좋은하루","tel":"031-798-4854","addr":"경기도 광주시 곤지암읍 곤지암리 441-5번지","category":"일반휴게음식 - 주점"},{"name":"로뎀나무","tel":"","addr":"경기도 광주시 곤지암읍 곤지암리 441-5번지 1층","category":"의류 - 정장"}]},{"lat":"37.34948077","long":"127.3386681","items":[{"name":"기아오토바이","tel":"031-762-6340","addr":"경기도 광주시 곤지암읍 곤지암리 453-20번지","category":"자동차판매 - 이륜차판매"},{"name":"성보농약","tel":"031-762-6007","addr":"경기도 광주시 곤지암읍 곤지암리 453-20번지","category":"농업 - 비료,사료,종자"},{"name":"유라시아","tel":"","addr":"경기도 광주시 곤지암읍 곤지암리 453-20번지","category":"일반휴게음식 - 일반한식"},{"name":"이가미장","tel":"031-767-2580","addr":"경기도 광주시 곤지암읍 곤지암리 453-20번지 이가미장","category":"보건위생 - 미용원"},{"name":"푸른치과의원","tel":"031-762-8618","addr":"경기도 광주시 곤지암읍 곤지암리 453-20번지","category":"의원 - 치과의원"},{"name":"피자스쿨(곤지암점)","tel":"031-797-7790","addr":"경기도 광주시 곤지암읍 곤지암리 453-20","category":"일반휴게음식 - 서양음식"},{"name":"학우사","tel":"031-762-6419","addr":"경기도 광주시 곤지암읍 곤지암리 453-20","category":"서적문구 - 기타서적문구"}]},{"lat":"37.34004385","long":"127.3612971","items":[{"name":"기와집순두부","tel":"031-769-5942","addr":"경기도 광주시 곤지암읍 곤지암리 10-13번지","category":"일반휴게음식 - 일반한식"}]},{"lat":"37.34992559","long":"127.3406677","items":[{"name":"길림양꼬치구이","tel":"031-764-8123","addr":"경기도 광주시 곤지암읍 곤지암리 436-4번지","category":"일반휴게음식 - 일반한식"},{"name":"신토불이","tel":"031-767-1503","addr":"경기도 광주시 곤지암읍 곤지암리 436-4번지","category":"일반휴게음식 - 일반한식"}]},{"lat":"37.35050817","long":"127.3385824","items":[{"name":"김윤정세무회계사무소","tel":"031-769-4859","addr":"경기도 광주시 곤지암읍 곤지암리 443-23번지 미봉빌딩 5층","category":"용역 서비스 - 법률회계서비스(개인)"},{"name":"늘푸른한의원","tel":"031-798-8275","addr":"경기도 광주시 곤지암읍 곤지암리 443-23번지 미봉빌딩 3층","category":"의원 - 한의원"},{"name":"초원생고기","tel":"","addr":"경기도 광주시 곤지암읍 곤지암리 443-23번지 미봉빌딩 1층","category":"일반휴게음식 - 일반한식"}]},{"lat":"37.3497032","long":"127.3396622","items":[{"name":"깨돌이김밥","tel":"031-762-6344","addr":"경기도 광주시 곤지암읍 곤지암리 441-20번지","category":"일반휴게음식 - 스넥"},{"name":"보물섬","tel":"070-4531-5199","addr":"경기도 광주시 곤지암읍 곤지암리 441-20번지","category":"의류 - 정장"},{"name":"신비주의","tel":"031-797-4348","addr":"경기도 광주시 곤지암읍 곤지암리 441-20","category":"의류 - 정장"},{"name":"푸른화원","tel":"031-764-0504","addr":"경기도 광주시 곤지암읍 곤지암리 441-20번지","category":"문화.취미 - 화원"}]},{"lat":"37.35004218","long":"127.3376887","items":[{"name":"꽃뜰","tel":"031-764-7775","addr":"경기도 광주시 곤지암읍 곤지암리 453-11번지","category":"문화.취미 - 화원"},{"name":"삼천리자전거","tel":"031-764-1514","addr":"경기도 광주시 곤지암읍 곤지암리 453-11번지","category":"레져용품 - 스포츠·레져용품"}]},{"lat":"37.35020667","long":"127.3400482","items":[{"name":"꿈의궁전별관","tel":"031-763-1642","addr":"경기도 광주시 곤지암읍 곤지암리 435-7번지","category":"숙박업 - 여관/기타숙박업"},{"name":"수니와순이의콩나물해장국","tel":"031-762-3804","addr":"경기도 광주시 곤지암읍 곤지암리 435-7번지 18호","category":"일반휴게음식 - 일반한식"}]},{"lat":"37.34773573","long":"127.347057","items":[{"name":"남도식당","tel":"031-798-1929","addr":"경기도 광주시 곤지암읍 곤지암리 337-12번지 LG상가 201호","category":"일반휴게음식 - 일반한식"},{"name":"대유명보성","tel":"031-768-8838","addr":"경기도 광주시 곤지암읍 곤지암리 337-12번지 엘지아파트","category":"일반휴게음식 - 중국식"}]},{"lat":"37.34868059","long":"127.3443639","items":[{"name":"노블앤초이아트종합학원","tel":"031-763-2131","addr":"경기도 광주시 곤지암읍 곤지암리 343-9번지 4층","category":"학원 - 예·체능계학원"},{"name":"더스캣댄스","tel":"","addr":"경기도 광주시 곤지암읍 곤지암리 343-9번지 2층","category":"학원 - 예·체능계학원"},{"name":"세무사신정헌사무소","tel":"032-764-5023","addr":"경기도 광주시 곤지암읍 곤지암리 343-9번지 kt건물 3층","category":"용역 서비스 - 법률회계서비스(개인)"},{"name":"썬골프연습장","tel":"031-798-2222","addr":"경기도 광주시 곤지암읍 곤지암리 343-9번지","category":"회원제형태 - 레져업소"},{"name":"청하세무회계","tel":"031-764-5023","addr":"경기도 광주시 곤지암읍 곤지암리 343-9번지 KT곤지암빌딩 3층","category":"용역 서비스 - 법률회계서비스(개인)"}]},{"lat":"37.34940458","long":"127.3401124","items":[{"name":"노을다방","tel":"031-769-0420","addr":"경기도 광주시 곤지암읍 곤지암리 445-6번지","category":"일반휴게음식 - 서양음식"},{"name":"미스터피자(곤지암점)","tel":"031-763-2017","addr":"경기도 광주시 곤지암읍 곤지암리 445-6번지","category":"일반휴게음식 - 서양음식"},{"name":"씨앤씨안경원","tel":"031-797-2593","addr":"경기도 광주시 곤지암읍 곤지암리 445-6번지","category":"보건위생 - 안경"}]},{"lat":"37.34923368","long":"127.3431588","items":[{"name":"놀부식당","tel":"031-763-3522","addr":"경기도 광주시 곤지암읍 곤지암리 431-8번지","category":"일반휴게음식 - 일반한식"}]},{"lat":"37.34401514","long":"127.3529986","items":[{"name":"농업회사법인 코리아하이팜 주식회사","tel":"031-763-9803","addr":"경기도 광주시 곤지암읍 곤지암리 196-3번지","category":"농업 - 기타농업관련"}]},{"lat":"37.34134433","long":"127.3602989","items":[{"name":"농업회사법인예송원주식회사","tel":"031-766-7962","addr":"경기도 광주시 곤지암읍 곤지암리 47-2","category":"음료식품 - 농·축·수산품"}]},{"lat":"37.34945413","long":"127.3416926","items":[{"name":"다솔약국","tel":"031-764-7975","addr":"경기도 광주시 곤지암읍 곤지암리 433-14번지 1층","category":"약국 - 약국"},{"name":"수치과","tel":"031-764-0372","addr":"경기도 광주시 곤지암읍 곤지암리 433-14번지 3층","category":"의원 - 치과의원"}]},{"lat":"37.34203677","long":"127.3392443","items":[{"name":"대명산업","tel":"031-797-0487","addr":"경기도 광주시 곤지암읍 곤지암리 472-3번지","category":"건축자재 - 보일러·펌프·샷시"},{"name":"돈가스뷔페","tel":"031-768-7066","addr":"경기도 광주시 곤지암읍 곤지암리 472-3번지","category":"일반휴게음식 - 서양음식"},{"name":"씨유광주곤지암로점","tel":"080-080-3663","addr":"경기도 광주시 곤지암읍 곤지암리 472-3번지","category":"유통업 영리 - 편 의 점"},{"name":"조형미술학원","tel":"031-797-7723","addr":"경기도 광주시 곤지암읍 곤지암리 472-3","category":"학원 - 예·체능계학원"},{"name":"주식회사대정패널","tel":"031-761-7084","addr":"경기도 광주시 곤지암읍 곤지암리 472-3번지","category":"건축자재 - 기타건축자재"}]},{"lat":"37.34873272","long":"127.3450301","items":[{"name":"대박","tel":"031-797-5551","addr":"경기도 광주시 곤지암읍 곤지암리 343-22번지","category":"일반휴게음식 - 일반한식"},{"name":"주사발","tel":"031-764-7080","addr":"경기도 광주시 곤지암읍 곤지암리 343-22번지","category":"일반휴게음식 - 일반한식"}]},{"lat":"37.35179053","long":"127.3469739","items":[{"name":"대박공업사","tel":"031-797-9146","addr":"경기도 광주시 곤지암읍 곤지암리 377-7번지 2동 1층","category":"자동차정비 유지 - 자동차부품"},{"name":"셀세모 광주시 곤지암점","tel":"031-766-6469","addr":"경기도 광주시 곤지암읍 곤지암리 377-7번지","category":"자동차정비 유지 - 자동차부품"}]},{"lat":"37.34959745","long":"127.3388266","items":[{"name":"대박족발","tel":"","addr":"경기도 광주시 곤지암읍 곤지암리 581번지","category":"일반휴게음식 - 일반한식"},{"name":"파리바게트 곤지암점","tel":"031-763-1986","addr":"경기도 광주시 곤지암읍 곤지암리 581번지","category":"음료식품 - 제과점"},{"name":"헤어스케치","tel":"031-763-7788","addr":"경기도 광주시 곤지암읍 곤지암리 581번지","category":"보건위생 - 미용원"}]},{"lat":"37.34503909","long":"127.338558","items":[{"name":"대원축산","tel":"031-798-4089","addr":"경기도 광주시 곤지암읍 곤지암리 459 1층101호","category":"음료식품 - 정육점"},{"name":"맥시칸치킨(곤지암점)","tel":"031-763-7560","addr":"경기도 광주시 곤지암읍 곤지암리 459번지 쌍용1차아파트 104호","category":"일반휴게음식 - 스넥"}]},{"lat":"37.34348033","long":"127.357104","items":[{"name":"대창자원","tel":"031-766-8640","addr":"경기도 광주시 곤지암읍 곤지암리 73-10번지","category":"신변잡화 - 기타잡화"}]},{"lat":"37.3493722","long":"127.3543327","items":[{"name":"대한사무용가구","tel":"031-767-8727","addr":"경기도 광주시 곤지암읍 곤지암리 142-3","category":"가구 - 기타가구"}]},{"lat":"37.35009672","long":"127.3530833","items":[{"name":"더(The)짬뽕","tel":"031-768-7007","addr":"경기도 광주시 곤지암읍 곤지암리 141-3번지","category":"일반휴게음식 - 중국식"}]},{"lat":"37.3473747","long":"127.3378574","items":[{"name":"더오른보습학원","tel":"031-699-2295","addr":"경기도 광주시 곤지암읍 곤지암리 453-34번지 3층","category":"학원 - 보습학원"},{"name":"더오른보습학원","tel":"031-699-2295","addr":"경기도 광주시 곤지암읍 곤지암리 453-34번지 3층","category":"학원 - 보습학원"},{"name":"한국체육관","tel":"031-765-8805","addr":"경기도 광주시 곤지암읍 곤지암리 453-34번지 1층","category":"레저업소 - 헬스클럽"}]},{"lat":"37.34942661","long":"127.3418618","items":[{"name":"돈데이 곤지암점","tel":"031-762-9582","addr":"경기도 광주시 곤지암읍 곤지암리 433-8번지 2층","category":"일반휴게음식 - 일반한식"},{"name":"명화플라워","tel":"","addr":"경기도 광주시 곤지암읍 곤지암리 433-8번지 301호","category":"문화.취미 - 화원"},{"name":"새로미미용실","tel":"031-762-7822","addr":"경기도 광주시 곤지암읍 곤지암리 433-8번지","category":"보건위생 - 미용원"},{"name":"시골뚝배기","tel":"031-769-1231","addr":"경기도 광주시 곤지암읍 곤지암리 433-8","category":"일반휴게음식 - 일반한식"}]},{"lat":"37.35003869","long":"127.3389188","items":[{"name":"동광제분소","tel":"031-762-6070","addr":"경기도 광주시 곤지암읍 곤지암리 444-2번지 1층","category":"음료식품 - 제과점"},{"name":"박지영 음악학원","tel":"031-764-3067","addr":"경기도 광주시 곤지암읍 곤지암리 444-2","category":"학원 - 예·체능계학원"},{"name":"캠브리지학원","tel":"031-762-0544","addr":"경기도 광주시 곤지암읍 곤지암리 444-2번지","category":"학원 - 보습학원"}]},{"lat":"37.34384984","long":"127.3510004","items":[{"name":"동수기업","tel":"031-2590-3990","addr":"경기도 광주시 곤지암읍 곤지암리 220-7번지 1층","category":"건축자재 - 인테리어전문"}]},{"lat":"37.34015187","long":"127.3613314","items":[{"name":"동아냉동","tel":"031-798-7790","addr":"경기도 광주시 곤지암읍 곤지암리 9-1","category":"전기제품 - 냉열기기"}]},{"lat":"37.34990363","long":"127.3388844","items":[{"name":"두연여행사","tel":"031-797-8588","addr":"경기도 광주시 곤지암읍 곤지암리 444-8","category":"회원제형태 - 기타3"},{"name":"백두태권도","tel":"031-763-5991","addr":"경기도 광주시 곤지암읍 곤지암리 444-8번지","category":"학원 - 예·체능계학원"},{"name":"성신종합장식","tel":"031-762-6033","addr":"경기도 광주시 곤지암읍 곤지암리 444-8번지 (1층2칸)","category":"직물 - 카페트,커튼,천막,지물"},{"name":"연변양고기구이","tel":"031-761-9015","addr":"경기도 광주시 곤지암읍 곤지암리 444-8","category":"일반휴게음식 - 일반한식"},{"name":"오늘도 예쁜머리","tel":"031-769-2588","addr":"경기도 광주시 곤지암읍 곤지암리 444-8번지","category":"보건위생 - 미용원"}]},{"lat":"37.34812058","long":"127.3385491","items":[{"name":"듀오뮤직아트학원","tel":"031-764-5155","addr":"경기도 광주시 곤지암읍 곤지암리 447-9번지 우진빌딩 3층","category":"학원 - 예·체능계학원"},{"name":"주방장","tel":"","addr":"경기도 광주시 곤지암읍 곤지암리 447-9번지 우진빌딩","category":"일반휴게음식 - 일반한식"}]},{"lat":"37.34854351","long":"127.3387429","items":[{"name":"디바","tel":"031-111-1111","addr":"경기도 광주시 곤지암읍 곤지암리 447-3번지 동신빌딩 2층","category":"일반휴게음식 - 일반한식"},{"name":"미도 하나비","tel":"031-797-0268","addr":"경기도 광주시 곤지암읍 곤지암리 447-3번지 1층","category":"일반휴게음식 - 일식·회집"},{"name":"발리헤어클럽","tel":"031-763-3339","addr":"경기도 광주시 곤지암읍 곤지암리 447-3번지 동성빌딩 2층","category":"보건위생 - 미용원"},{"name":"신불떡볶이","tel":"031-7654-4747","addr":"경기도 광주시 곤지암읍 곤지암리 447-3번지","category":"일반휴게음식 - 스넥"},{"name":"오춘자비어 곤지암점","tel":"031-798-8590","addr":"경기도 광주시 곤지암읍 곤지암리 447-3","category":"일반휴게음식 - 주점"},{"name":"용인대 청산K타이거즈","tel":"","addr":"경기도 광주시 곤지암읍 곤지암리 447-3번지 동신빌딩 204호","category":"학원 - 예·체능계학원"},{"name":"잉크앤컴","tel":"031-761-6191","addr":"경기도 광주시 곤지암읍 곤지암리 447-3","category":"사무통신 - 기타 사무용품"},{"name":"카페올리","tel":"","addr":"경기도 광주시 곤지암읍 곤지암리 447-3번지 동신빌딩","category":"일반휴게음식 - 서양음식"},{"name":"훈이네양꼬치","tel":"031-764-0997","addr":"경기도 광주시 곤지암읍 곤지암리 447-3번지 동신빌딩 1층","category":"일반휴게음식 - 일반한식"}]},{"lat":"37.34934216","long":"127.3398863","items":[{"name":"디지탈아이몽스튜디오","tel":"031-762-5806","addr":"경기도 광주시 곤지암읍 곤지암리 445-2번지","category":"광학제품 - 사진관"},{"name":"미니스톱 곤지암점","tel":"031-1577-9621","addr":"경기도 광주시 곤지암읍 곤지암리 445-2번지","category":"유통업 영리 - 편 의 점"},{"name":"보금당","tel":"031-762-8262","addr":"경기도 광주시 곤지암읍 곤지암리 445-2","category":"신변잡화 - 시계"},{"name":"보금당","tel":"031-762-8262","addr":"경기도 광주시 곤지암읍 곤지암리 445-2번지 중앙빌딩","category":"음료식품 - 농·축·수산품"},{"name":"샤인네일","tel":"031-8028-3337","addr":"경기도 광주시 곤지암읍 곤지암리 445-2번지 중앙빌딩 1층","category":"보건위생 - 피부미용실"},{"name":"스타노래연습장","tel":"031-769-7558","addr":"경기도 광주시 곤지암읍 곤지암리 445-2번지","category":"레저업소 - 노 래 방"},{"name":"어울림 호프","tel":"031-763-5710","addr":"경기도 광주시 곤지암읍 곤지암리 445-2번지 중앙빌딩 2층","category":"일반휴게음식 - 주점"},{"name":"중앙당구클럽","tel":"031-762-7470","addr":"경기도 광주시 곤지암읍 곤지암리 445-2번지 중앙빌딩 2층","category":"레저업소 - 당 구 장"},{"name":"파라팜헤어","tel":"031-764-7966","addr":"경기도 광주시 곤지암읍 곤지암리 445-2번지","category":"보건위생 - 미용원"},{"name":"호수다방","tel":"031-762-8446","addr":"경기도 광주시 곤지암읍 곤지암리 445-2번지 중앙빌딩 지하층","category":"일반휴게음식 - 서양음식"}]},{"lat":"37.34912491","long":"127.3433841","items":[{"name":"럭셔리노래연습장","tel":"031-761-4639","addr":"경기도 광주시 곤지암읍 곤지암리 344-2번지","category":"레저업소 - 노 래 방"},{"name":"설맥","tel":"031-764-6453","addr":"경기도 광주시 곤지암읍 곤지암리 344-2번지","category":"일반휴게음식 - 주점"},{"name":"컨티넨탈(CONTINENTAL)","tel":"070-8967-1417","addr":"경기도 광주시 곤지암읍 곤지암리 344-2번지 2층","category":"일반휴게음식 - 일반한식"},{"name":"포텐PC","tel":"070-8576-0039","addr":"경기도 광주시 곤지암읍 곤지암리 344-2번지 3층","category":"레저업소 - 기타레져업소"}]},{"lat":"37.35143189","long":"127.3432478","items":[{"name":"로싸","tel":"031-764-9510","addr":"경기도 광주시 곤지암읍 곤지암리 428-2","category":"레져용품 - 스포츠·레져용품"},{"name":"코지스정보","tel":"031-798-6822","addr":"경기도 광주시 곤지암읍 곤지암리 428-2번지 2층","category":"사무통신 - 통신기기"}]},{"lat":"37.34934556","long":"127.33869","items":[{"name":"루비나","tel":"031-797-4221","addr":"경기도 광주시 곤지암읍 곤지암리 453-119번지","category":"보건위생 - 미용원"}]},{"lat":"37.34926197","long":"127.3427188","items":[{"name":"루시헤어","tel":"031-764-2263","addr":"경기도 광주시 곤지암읍 곤지암리 432-1번지","category":"보건위생 - 미용원"},{"name":"신현대마취과의원","tel":"031-797-0880","addr":"경기도 광주시 곤지암읍 곤지암리 432-1번지","category":"의원 - 의원"},{"name":"힐링","tel":"","addr":"경기도 광주시 곤지암읍 곤지암리 432-1번지","category":"보건위생 - 미용재료"}]},{"lat":"37.34912712","long":"127.354941","items":[{"name":"마담포라 곤지암 대리점","tel":"","addr":"경기도 광주시 곤지암읍 곤지암리 92-2번지","category":"의류 - 정장"}]},{"lat":"37.34928549","long":"127.3408003","items":[{"name":"마당오리","tel":"031-761-0203","addr":"경기도 광주시 곤지암읍 곤지암리 460-5번지 201호","category":"일반휴게음식 - 일반한식"},{"name":"신광카센타","tel":"031-762-7585","addr":"경기도 광주시 곤지암읍 곤지암리 460-5번지","category":"자동차정비 유지 - 자동차정비"},{"name":"오와스시 곤지암점","tel":"02-111-1111","addr":"경기도 광주시 곤지암읍 곤지암리 460-5번지","category":"일반휴게음식 - 일식·회집"},{"name":"장미다방","tel":"031-767-0066","addr":"경기도 광주시 곤지암읍 곤지암리 460-5번지 3층","category":"일반휴게음식 - 서양음식"}]},{"lat":"37.34981518","long":"127.3414685","items":[{"name":"명동의류","tel":"031-699-2171","addr":"경기도 광주시 곤지암읍 곤지암리 435-29번지 1층","category":"의류 - 정장"},{"name":"비와이씨(BYC)곤지암점","tel":"031-769-6709","addr":"경기도 광주시 곤지암읍 곤지암리 435-29번지 (BYC)","category":"의류 - 내의판매"},{"name":"빙고노래연습장","tel":"070-4228-7999","addr":"경기도 광주시 곤지암읍 곤지암리 435-29번지 지층","category":"레저업소 - 노 래 방"}]},{"lat":"37.34412074","long":"127.3507985","items":[{"name":"목방부녀상회","tel":"031-763-3105","addr":"경기도 광주시 곤지암읍 곤지암리 199-3","category":"회원제형태 - 기타4"},{"name":"산야초","tel":"031-763-9963","addr":"경기도 광주시 곤지암읍 곤지암리 199-3번지","category":"일반휴게음식 - 일반한식"}]},{"lat":"37.3497646","long":"127.3402494","items":[{"name":"몽소","tel":"031-762-6203","addr":"경기도 광주시 곤지암읍 곤지암리 441-1번지","category":"의류 - 정장"}]},{"lat":"37.34876073","long":"127.3446916","items":[{"name":"미도장","tel":"031-761-3223","addr":"경기도 광주시 곤지암읍 곤지암리 343-12번지","category":"숙박업 - 여관/기타숙박업"}]},{"lat":"37.34812974","long":"127.3447903","items":[{"name":"미미속눈썹","tel":"031-765-7227","addr":"경기도 광주시 곤지암읍 곤지암리 343-48번지 효성아트빌 B동 1층","category":"보건위생 - 기타대인서비스"}]},{"lat":"37.34943123","long":"127.3402479","items":[{"name":"미스사이공 곤지암점","tel":"031-765-0420","addr":"경기도 광주시 곤지암읍 곤지암리 445-13번지 1층 1호","category":"일반휴게음식 - 서양음식"},{"name":"춘천닭갈비","tel":"031-762-9775","addr":"경기도 광주시 곤지암읍 곤지암리 445-13번지 1층 102호(SUN힐링)","category":"일반휴게음식 - 일반한식"},{"name":"황진이","tel":"031-761-5550","addr":"경기도 광주시 곤지암읍 곤지암리 445-13번지 2층","category":"일반휴게음식 - 서양음식"}]},{"lat":"37.34770807","long":"127.3378589","items":[{"name":"밀스튜디오","tel":"031-767-5605","addr":"경기도 광주시 곤지암읍 곤지암리 453-145번지 2호동 외1필지","category":"의류 - 정장"}]},{"lat":"37.34937439","long":"127.3443558","items":[{"name":"바드랄","tel":"031-797-1870","addr":"경기도 광주시 곤지암읍 곤지암리 341-16번지","category":"일반휴게음식 - 일반한식"},{"name":"붕붕자동차용품점","tel":"031-797-7900","addr":"경기도 광주시 곤지암읍 곤지암리 341-16번지","category":"자동차정비 유지 - 자동차부품"},{"name":"청국장과보리밥/곤지암점","tel":"031-761-3313","addr":"경기도 광주시 곤지암읍 곤지암리 341-16","category":"일반휴게음식 - 일반한식"}]},{"lat":"37.34220393","long":"127.3499997","items":[{"name":"밥샵","tel":"031-762-3437","addr":"경기도 광주시 곤지암읍 곤지암리 213-2번지","category":"일반휴게음식 - 일반한식"}]},{"lat":"37.35004135","long":"127.3535232","items":[{"name":"배블리","tel":"031-111-1111","addr":"경기도 광주시 곤지암읍 곤지암리 141-8번지 1층","category":"일반휴게음식 - 일반한식"},{"name":"유일정밀","tel":"031-792-3423","addr":"경기도 광주시 곤지암읍 곤지암리 141-8번지 1층","category":"기타 - 기계공구"}]},{"lat":"37.34943052","long":"127.3404962","items":[{"name":"배스킨라빈스(곤지암점)","tel":"031-797-1652","addr":"경기도 광주시 곤지암읍 곤지암리 445-1번지","category":"음료식품 - 제과점"},{"name":"헤어이네누","tel":"031-763-2163","addr":"경기도 광주시 곤지암읍 곤지암리 445-1번지 2층","category":"보건위생 - 미용원"}]},{"lat":"37.35029122","long":"127.3388297","items":[{"name":"배연정소머리국밥","tel":"031-763-8030","addr":"경기도 광주시 곤지암읍 곤지암리 443-4번지","category":"일반휴게음식 - 일반한식"}]},{"lat":"37.34918023","long":"127.3429442","items":[{"name":"백악관2노래방","tel":"031-763-2866","addr":"경기도 광주시 곤지암읍 곤지암리 431-2번지 2층","category":"레저업소 - 노 래 방"},{"name":"백악관노래방","tel":"031-763-2866","addr":"경기도 광주시 곤지암읍 곤지암리 431-2번지","category":"레저업소 - 노 래 방"}]},{"lat":"37.34803845","long":"127.3482998","items":[{"name":"블루","tel":"031-762-7627","addr":"경기도 광주시 곤지암읍 곤지암리 338-4번지","category":"일반휴게음식 - 서양음식"}]},{"lat":"37.34948498","long":"127.3434986","items":[{"name":"비비케이(BBK)","tel":"031-797-0119","addr":"경기도 광주시 곤지암읍 곤지암리 345-2번지 2층","category":"레저업소 - 노 래 방"},{"name":"월드푸드마트","tel":"070-7762-3333","addr":"경기도 광주시 곤지암읍 곤지암리 345-2번지","category":"유통업 영리 - 슈퍼마켓"}]},{"lat":"37.35023588","long":"127.3392809","items":[{"name":"비어스쿨","tel":"031-769-6606","addr":"경기도 광주시 곤지암읍 곤지암리 443-14번지 2층","category":"일반휴게음식 - 주점"},{"name":"사조참치곤지암점","tel":"031-769-8988","addr":"경기도 광주시 곤지암읍 곤지암리 443-14번지","category":"일반휴게음식 - 일식·회집"}]},{"lat":"37.34164844","long":"127.345833","items":[{"name":"비에이치(BH)경영인증원","tel":"031-762-6614","addr":"경기도 광주시 곤지암읍 곤지암리 328-1","category":"회원제형태 - 기타4"}]},{"lat":"37.3504519","long":"127.3393609","items":[{"name":"사랑방","tel":"031-762-8171","addr":"경기도 광주시 곤지암읍 곤지암리 442-16번지","category":"일반휴게음식 - 일반한식"}]},{"lat":"37.34842747","long":"127.3383587","items":[{"name":"새털","tel":"031-764-6574","addr":"경기도 광주시 곤지암읍 곤지암리 453-112 1층2호","category":"의류 - 정장"},{"name":"컷팅클럽","tel":"031-763-1206","addr":"경기도 광주시 곤지암읍 곤지암리 453-112","category":"보건위생 - 미용원"}]},{"lat":"37.35042842","long":"127.338108","items":[{"name":"서울감동치과의원","tel":"","addr":"경기도 광주시 곤지암읍 곤지암리 444-7번지 3,4층","category":"의원 - 치과의원"}]},{"lat":"37.34976508","long":"127.3400801","items":[{"name":"서울전통찻집","tel":"031-769-8573","addr":"경기도 광주시 곤지암읍 곤지암리 441-2번지 2층","category":"일반휴게음식 - 서양음식"},{"name":"씨유곤지암중앙점","tel":"080-080-3663","addr":"경기도 광주시 곤지암읍 곤지암리 441-2번지","category":"유통업 영리 - 편 의 점"},{"name":"야쓰 컴퍼니","tel":"031-797-4444","addr":"경기도 광주시 곤지암읍 곤지암리 441-2번지","category":"사무통신 - 통신기기"},{"name":"정헤어클럽","tel":"031-764-3738","addr":"경기도 광주시 곤지암읍 곤지암리 441-2번지","category":"보건위생 - 미용원"},{"name":"청산칼국수","tel":"031-769-5296","addr":"경기도 광주시 곤지암읍 곤지암리 441-2번지","category":"일반휴게음식 - 스넥"}]},{"lat":"37.348181","long":"127.3488535","items":[{"name":"서준가설","tel":"031-761-1892","addr":"경기도 광주시 곤지암읍 곤지암리 555-46번지 1층","category":"건축자재 - 기타건축자재"}]},{"lat":"37.33957184","long":"127.3624458","items":[{"name":"선녀와나무꾼","tel":"031-761-9175","addr":"경기도 광주시 곤지암읍 곤지암리 17번지","category":"일반휴게음식 - 일반한식"}]},{"lat":"37.3496771","long":"127.3393348","items":[{"name":"선녀와호떡꾼","tel":"031-000-0000","addr":"경기도 광주시 곤지암읍 곤지암리 441-17번지 1층","category":"일반휴게음식 - 스넥"}]},{"lat":"37.34578544","long":"127.3453665","items":[{"name":"선행","tel":"","addr":"경기도 광주시 곤지암읍 곤지암리 593번지 삼주노블리제아파트","category":"신변잡화 - 기타잡화"}]},{"lat":"37.34370505","long":"127.3512141","items":[{"name":"세븐일레븐광주곤지암본점","tel":"","addr":"경기도 광주시 곤지암읍 곤지암리 221-4번지 중부빌딩","category":"유통업 영리 - 편 의 점"},{"name":"큐브","tel":"031-764-7375","addr":"경기도 광주시 곤지암읍 곤지암리 221-4번지 중부빌딩","category":"자동차정비 유지 - 자동차부품"}]},{"lat":"37.34771751","long":"127.3471246","items":[{"name":"소피스티케이트(SOPHISTICATE)","tel":"","addr":"경기도 광주시 곤지암읍 곤지암리 337-12번지 엘지아파트","category":"의류 - 기타의류"}]},{"lat":"37.3421231","long":"127.3499091","items":[{"name":"수현도요","tel":"031-762-7821","addr":"경기도 광주시 곤지암읍 곤지암리 213-10번지","category":"문화.취미 - 민예·공예품"}]},{"lat":"37.34998591","long":"127.3384672","items":[{"name":"순금당","tel":"031-762-0991","addr":"경기도 광주시 곤지암읍 곤지암리 453-8번지","category":"신변잡화 - 시계"},{"name":"오땡큐","tel":"031-768-1973","addr":"경기도 광주시 곤지암읍 곤지암리 453-8번지","category":"보건위생 - 화장품"},{"name":"현대이발관","tel":"031-798-2126","addr":"경기도 광주시 곤지암읍 곤지암리 453-8번지","category":"보건위생 - 이용원"}]},{"lat":"37.34967451","long":"127.3556885","items":[{"name":"스튜디오카페 쥬뗌므","tel":"031-767-7023","addr":"경기도 광주시 곤지암읍 곤지암리 93-1번지 1호","category":"광학제품 - 사진관"}]},{"lat":"37.33843085","long":"127.3367231","items":[{"name":"스피드자동차공업사","tel":"031-767-7464","addr":"경기도 광주시 곤지암읍 곤지암리 486-1번지","category":"자동차정비 유지 - 자동차정비"}]},{"lat":"37.35286991","long":"127.3444958","items":[{"name":"신대식당","tel":"","addr":"경기도 광주시 곤지암읍 곤지암리 394번지","category":"일반휴게음식 - 일반한식"}]},{"lat":"37.3508737","long":"127.349306","items":[{"name":"신신타이어","tel":"031-764-1108","addr":"경기도 광주시 곤지암읍 곤지암리 131-1번지","category":"자동차정비 유지 - 자동차정비"}]},{"lat":"37.34931329","long":"127.3405295","items":[{"name":"신화반점","tel":"031-767-4800","addr":"경기도 광주시 곤지암읍 곤지암리 445-10번지 지암빌라 101호","category":"일반휴게음식 - 중국식"}]},{"lat":"37.34979363","long":"127.3550231","items":[{"name":"심스커피(Sim's COFFEE)","tel":"031-767-6557","addr":"경기도 광주시 곤지암읍 곤지암리 94-6번지 1층","category":"일반휴게음식 - 서양음식"}]},{"lat":"37.34598319","long":"127.3392506","items":[{"name":"쌍용포차","tel":"","addr":"경기도 광주시 곤지암읍 곤지암리 456-17번지","category":"일반휴게음식 - 일반한식"}]},{"lat":"37.34984607","long":"127.3525291","items":[{"name":"썬당구장","tel":"031-762-4115","addr":"경기도 광주시 곤지암읍 곤지암리 139-8번지 2층","category":"레저업소 - 당 구 장"},{"name":"썬당구장","tel":"031-762-4115","addr":"경기도 광주시 곤지암읍 곤지암리 139-8번지","category":"레저업소 - 당 구 장"},{"name":"애견미용실","tel":"031-762-0842","addr":"경기도 광주시 곤지암읍 곤지암리 139-8번지 2호동 1층 102호","category":"문화.취미 - 애완동물"},{"name":"펀카워시(Funcarwash)","tel":"","addr":"경기도 광주시 곤지암읍 곤지암리 139-8번지 1층","category":"자동차정비 유지 - 카인테리어"},{"name":"하나유통","tel":"031-798-0602","addr":"경기도 광주시 곤지암읍 곤지암리 139-8번지 1층 102호","category":"직물 - 침구·수예점"}]},{"lat":"37.3507654","long":"127.3368341","items":[{"name":"썸타이아로마","tel":"031-764-7993","addr":"경기도 광주시 곤지암읍 곤지암리 453-222번지 2층","category":"보건위생 - 화장품"},{"name":"차사랑 손세차장","tel":"","addr":"경기도 광주시 곤지암읍 곤지암리 453-222","category":"자동차정비 유지 - 세차장"},{"name":"차사랑 외형 복원 광택점","tel":"031-761-4297","addr":"경기도 광주시 곤지암읍 곤지암리 453-222번지","category":"자동차정비 유지 - 카인테리어"}]},{"lat":"37.34329261","long":"127.3505238","items":[{"name":"씨유곤지암목방마을점","tel":"080-080-3663","addr":"경기도 광주시 곤지암읍 곤지암리 203-6번지 1층","category":"유통업 영리 - 편 의 점"}]},{"lat":"37.34842406","long":"127.34583","items":[{"name":"아리곱창","tel":"031-797-8482","addr":"경기도 광주시 곤지암읍 곤지암리 340-6번지 2층","category":"일반휴게음식 - 일반한식"}]},{"lat":"37.34976556","long":"127.3399108","items":[{"name":"아우라지","tel":"031-763-4663","addr":"경기도 광주시 곤지암읍 곤지암리 441-3번지","category":"일반휴게음식 - 주점"},{"name":"이삭토스트","tel":"031-797-8594","addr":"경기도 광주시 곤지암읍 곤지암리 441-3번지","category":"일반휴게음식 - 일반한식"},{"name":"장모님왕만두","tel":"02-1111-1111","addr":"경기도 광주시 곤지암읍 곤지암리 441-3번지 1층","category":"일반휴게음식 - 일반한식"},{"name":"체이스컬트","tel":"031-763-5255","addr":"경기도 광주시 곤지암읍 곤지암리 441-3번지","category":"의류 - 기타의류"}]},{"lat":"37.34973551","long":"127.3409716","items":[{"name":"아이린PC방","tel":"","addr":"경기도 광주시 곤지암읍 곤지암리 437-1번지 3층","category":"레저업소 - 기타레져업소"},{"name":"푸른안과","tel":"031-763-4200","addr":"경기도 광주시 곤지암읍 곤지암리 437-1번지","category":"의원 - 의원"}]},{"lat":"37.34912533","long":"127.3585526","items":[{"name":"아쿠아통상주식회사","tel":"0311-763-2170","addr":"경기도 광주시 곤지암읍 곤지암리 84-12번지 1층","category":"주방용구 - 정수기"}]},{"lat":"37.3501239","long":"127.3406347","items":[{"name":"아트스크린골프","tel":"031-763-6800","addr":"경기도 광주시 곤지암읍 곤지암리 435-8번지","category":"회원제형태 - 레져업소"},{"name":"아트휘트니스","tel":"031-797-3554","addr":"경기도 광주시 곤지암읍 곤지암리 435-8번지 4층","category":"레저업소 - 헬스클럽"},{"name":"킹콩점프","tel":"031-764-1616","addr":"경기도 광주시 곤지암읍 곤지암리 435-8번지 3층","category":"레저업소 - 기타레져업소"}]},{"lat":"37.34658089","long":"127.3381812","items":[{"name":"앤컨츄리","tel":"031-764-0534","addr":"경기도 광주시 곤지암읍 곤지암리 457번지 곤지암2차쌍용아파트","category":"회원제형태 - 기타4"}]},{"lat":"37.34928713","long":"127.3402247","items":[{"name":"약수사우나","tel":"031-797-7482","addr":"경기도 광주시 곤지암읍 곤지암리 445-23번지","category":"보건위생 - 사우나"},{"name":"유인안경원","tel":"031-767-0927","addr":"경기도 광주시 곤지암읍 곤지암리 445-23번지 1층","category":"보건위생 - 안경"},{"name":"카페디아떼","tel":"031-1577-3697","addr":"경기도 광주시 곤지암읍 곤지암리 445-23번지 1층","category":"일반휴게음식 - 일반한식"}]},{"lat":"37.34909339","long":"127.3449414","items":[{"name":"어반헤어에스쁘티","tel":"031-769-2100","addr":"경기도 광주시 곤지암읍 곤지암리 341-11번지","category":"보건위생 - 미용원"},{"name":"쥬비코스","tel":"031-753-7786","addr":"경기도 광주시 곤지암읍 곤지암리 341-11번지","category":"회원제형태 - 기타1"},{"name":"천덕봉농원산삼삼계탕","tel":"031-797-3259","addr":"경기도 광주시 곤지암읍 곤지암리 341-11","category":"일반휴게음식 - 일반한식"},{"name":"큐 노래연습장","tel":"031-761-9691","addr":"경기도 광주시 곤지암읍 곤지암리 341-11번지 지하1층","category":"레저업소 - 노 래 방"},{"name":"화이트","tel":"031-111-1111","addr":"경기도 광주시 곤지암읍 곤지암리 341-11번지","category":"보건위생 - 화장품"}]},{"lat":"37.3465938","long":"127.3368044","items":[{"name":"어썸브로","tel":"031-798-5680","addr":"경기도 광주시 곤지암읍 곤지암리 555-99번지 1층","category":"일반휴게음식 - 서양음식"}]},{"lat":"37.35023544","long":"127.3488065","items":[{"name":"에스지(SG)스크린골프(곤지암점)","tel":"031-764-9992","addr":"경기도 광주시 곤지암읍 곤지암리 355번지 2층 201,202호","category":"레저업소 - 스크린골프"},{"name":"온정손만두","tel":"031-763-2280","addr":"경기도 광주시 곤지암읍 곤지암리 355번지 1층","category":"일반휴게음식 - 일반한식"}]},{"lat":"37.35003602","long":"127.3398556","items":[{"name":"엠모텔","tel":"031-798-6972","addr":"경기도 광주시 곤지암읍 곤지암리 443-2번지","category":"숙박업 - 여관/기타숙박업"},{"name":"엠모텔","tel":"031-798-6972","addr":"경기도 광주시 곤지암읍 곤지암리 443-2번지","category":"숙박업 - 여관/기타숙박업"}]},{"lat":"37.34834557","long":"127.3386404","items":[{"name":"엠와이 (MY)수학원","tel":"031-762-0606","addr":"경기도 광주시 곤지암읍 곤지암리 447-4번지 2층","category":"학원 - 보습학원"},{"name":"한솥도시락","tel":"031-761-8668","addr":"경기도 광주시 곤지암읍 곤지암리 447-4번지 1층","category":"일반휴게음식 - 일반한식"}]},{"lat":"37.35045304","long":"127.3514146","items":[{"name":"영수종합목재상사","tel":"031-761-9240","addr":"경기도 광주시 곤지암읍 곤지암리 137-2","category":"건축자재 - 기타건축자재"}]},{"lat":"37.353236","long":"127.3425223","items":[{"name":"영진분식","tel":"031-767-1503","addr":"경기도 광주시 곤지암읍 곤지암리 410-4번지 제1호동 1층","category":"일반휴게음식 - 스넥"},{"name":"티엠리서치주식회사","tel":"031-763-3080","addr":"경기도 광주시 곤지암읍 곤지암리 410-4번지 캐슬 411호","category":"농업 - 비료,사료,종자"}]},{"lat":"37.34939793","long":"127.354773","items":[{"name":"예원","tel":"031-797-9993","addr":"경기도 광주시 곤지암읍 곤지암리 94-3번지","category":"일반휴게음식 - 일반한식"}]},{"lat":"37.35187291","long":"127.3402701","items":[{"name":"옛님손","tel":"031-764-4741","addr":"경기도 광주시 곤지암읍 곤지암리 422-15번지","category":"용역 서비스 - 종합용역"}]},{"lat":"37.3470935","long":"127.338522","items":[{"name":"오떡(곤지암점)","tel":"031-798-3358","addr":"경기도 광주시 곤지암읍 곤지암리 454-7번지 유명빌라 1층 101호","category":"일반휴게음식 - 일반한식"}]},{"lat":"37.34879056","long":"127.3437211","items":[{"name":"오케이마트정육(곤지암)","tel":"031-766-0203","addr":"경기도 광주시 곤지암읍 곤지암리 343-7번지","category":"음료식품 - 정육점"},{"name":"은혜수산","tel":"031-766-0203","addr":"경기도 광주시 곤지암읍 곤지암리 343-7번지","category":"음료식품 - 농·축·수산품"}]},{"lat":"37.3522351","long":"127.345915","items":[{"name":"온드림 창의교육연구소","tel":"031-758-5362","addr":"경기도 광주시 곤지암읍 곤지암리 376-2번지 대석빌딩 401호","category":"학원 - 기타 교육기관"}]},{"lat":"37.34793268","long":"127.3380856","items":[{"name":"와사비","tel":"031-764-2621","addr":"경기도 광주시 곤지암읍 곤지암리 453-90번지","category":"일반휴게음식 - 일식·회집"}]},{"lat":"37.34973142","long":"127.3392448","items":[{"name":"왓포","tel":"031-769-5788","addr":"경기도 광주시 곤지암읍 곤지암리 441-6번지 2층","category":"보건위생 - 미용재료"},{"name":"태린고무","tel":"031-769-3502","addr":"경기도 광주시 곤지암읍 곤지암리 441-6번지","category":"신변잡화 - 신발"},{"name":"향기나라","tel":"031-767-5759","addr":"경기도 광주시 곤지암읍 곤지암리 441-6번지","category":"보건위생 - 화장품"}]},{"lat":"37.34934296","long":"127.3396042","items":[{"name":"왕릉갈비","tel":"031-763-3260","addr":"경기도 광주시 곤지암읍 곤지암리 445-3번지","category":"일반휴게음식 - 일반한식"},{"name":"용맥주","tel":"","addr":"경기도 광주시 곤지암읍 곤지암리 445-3번지 2층","category":"일반휴게음식 - 주점"}]},{"lat":"37.34809656","long":"127.3469119","items":[{"name":"요양원실버브릿지","tel":"031-798-9111","addr":"경기도 광주시 곤지암읍 곤지암리 337번지 브릿지타워 4-6층","category":"기타의료기관 - 기타의료기관 및 기타"},{"name":"한성포홈","tel":"070-7853-7407","addr":"경기도 광주시 곤지암읍 곤지암리 337번지 2층","category":"주방용구 - 주방용구"}]},{"lat":"37.34934748","long":"127.3535539","items":[{"name":"용인목재","tel":"031-762-3913","addr":"경기도 광주시 곤지암읍 곤지암리 143번지","category":"건축자재 - 목재·석재·철물"}]},{"lat":"37.34979245","long":"127.3554181","items":[{"name":"육모정","tel":"031-761-4408","addr":"경기도 광주시 곤지암읍 곤지암리 94-1번지","category":"일반휴게음식 - 일반한식"}]},{"lat":"37.34873403","long":"127.338281","items":[{"name":"윤선생영어곤지암숲학원","tel":"031-798-0503","addr":"경기도 광주시 곤지암읍 곤지암리 453-83번지","category":"학원 - 외국어학원"}]},{"lat":"37.34890231","long":"127.3455838","items":[{"name":"으뜸종합카센타","tel":"031-797-3726","addr":"경기도 광주시 곤지암읍 곤지암리 341-9번지","category":"자동차정비 유지 - 자동차정비"},{"name":"현대오일뱅크 (주)직영 곤지암셀프주유소","tel":"031-762-7686","addr":"경기도 광주시 곤지암읍 곤지암리 341-9번지","category":"연료판매점 - 현대정유(오일뱅크)"}]},{"lat":"37.34292606","long":"127.3526099","items":[{"name":"을지풍력환기닥트산업","tel":"","addr":"경기도 광주시 곤지암읍 곤지암리 226번지","category":"전기제품 - 기타전기제품"},{"name":"을지환기닥트집진시스템","tel":"031-761-6238","addr":"경기도 광주시 곤지암읍 곤지암리 226번지","category":"건축자재 - 기타건축자재"}]},{"lat":"37.34931675","long":"127.3424708","items":[{"name":"이모네포차","tel":"070-8156-7711","addr":"경기도 광주시 곤지암읍 곤지암리 432번지","category":"일반휴게음식 - 일반한식"}]},{"lat":"37.3446776","long":"127.3389401","items":[{"name":"이오엘컴퍼니","tel":"02-111-1111","addr":"경기도 광주시 곤지암읍 곤지암리 459번지 쌍용1차아파트","category":"가구 - 일반가구"}]},{"lat":"37.3426003","long":"127.3500241","items":[{"name":"인디자인건축","tel":"070-8202-1192","addr":"경기도 광주시 곤지암읍 곤지암리 208-4번지 104호","category":"건축자재 - 인테리어전문"}]},{"lat":"37.34964664","long":"127.3559705","items":[{"name":"자연과사람","tel":"070-8152-6954","addr":"경기도 광주시 곤지암읍 곤지암리 93-13번지","category":"음료식품 - 농·축·수산품"},{"name":"제주두육92","tel":"","addr":"경기도 광주시 곤지암읍 곤지암리 93-13번지","category":"일반휴게음식 - 일반한식"}]},{"lat":"37.34825744","long":"127.3442492","items":[{"name":"정연희스킨케어","tel":"031-699-5556","addr":"경기도 광주시 곤지암읍 곤지암리 343-28번지 금강맨션","category":"회원제형태 - 기타4"}]},{"lat":"37.34856845","long":"127.3457516","items":[{"name":"정우테크","tel":"031-763-7796","addr":"경기도 광주시 곤지암읍 곤지암리 340-4번지","category":"전기제품 - 기타전기제품"}]},{"lat":"37.3412059","long":"127.3613816","items":[{"name":"정원산업","tel":"031-768-6683","addr":"경기도 광주시 곤지암읍 곤지암리 7번지","category":"가구 - 일반가구"}]},{"lat":"37.34236982","long":"127.3393586","items":[{"name":"정원헬스뷰티","tel":"031-000-0000","addr":"경기도 광주시 곤지암읍 곤지암리 469-3번지 202호","category":"건강식품 - 기타건강식품"}]},{"lat":"37.35207138","long":"127.3464447","items":[{"name":"제이에이치 가라지(JH garage)","tel":"031-797-4601","addr":"경기도 광주시 곤지암읍 곤지암리 376-5번지 101호","category":"자동차정비 유지 - 카인테리어"}]},{"lat":"37.34962237","long":"127.3427204","items":[{"name":"종합상사","tel":"031-762-6677","addr":"경기도 광주시 곤지암읍 곤지암리 430-1번지","category":"건축자재 - 기타건축자재"}]},{"lat":"37.33978887","long":"127.3376093","items":[{"name":"좋은느낌","tel":"031-769-1259","addr":"경기도 광주시 곤지암읍 곤지암리 509-12번지","category":"건축자재 - 인테리어전문"},{"name":"폐토너월드","tel":"070-4251-3456","addr":"경기도 광주시 곤지암읍 곤지암리 509-12번지","category":"사무통신 - 기타 사무용품"}]},{"lat":"37.34326382","long":"127.3571933","items":[{"name":"주식회사 마크에프에스","tel":"","addr":"경기도 광주시 곤지암읍 곤지암리 72-16번지","category":"음료식품 - 기타음료식품"}]},{"lat":"37.34006937","long":"127.340364","items":[{"name":"주식회사 신우유통","tel":"031-791-1213","addr":"경기도 광주시 곤지암읍 곤지암리 495-1번지","category":"의류 - 정장"}]},{"lat":"37.34976389","long":"127.3589393","items":[{"name":"주식회사 신자이코리아","tel":"070-7543-8820","addr":"경기도 광주시 곤지암읍 곤지암리 84-6번지","category":"의류 - 정장"}]},{"lat":"37.35251529","long":"127.3456115","items":[{"name":"주식회사온수산업","tel":"031-766-5374","addr":"경기도 광주시 곤지암읍 곤지암리 385-1번지 1층","category":"건축자재 - 보일러·펌프·샷시"}]},{"lat":"37.3411263","long":"127.348776","items":[{"name":"지원테크","tel":"","addr":"경기도 광주시 곤지암읍 곤지암리 312-2번지 명성타운 A동 401호","category":"기타 - 기계공구"},{"name":"카페 앨리스","tel":"031-000-0000","addr":"경기도 광주시 곤지암읍 곤지암리 312-2번지 1층","category":"일반휴게음식 - 서양음식"}]},{"lat":"37.3503195","long":"127.3383896","items":[{"name":"차사랑손세차","tel":"","addr":"경기도 광주시 곤지암읍 곤지암리 444-1","category":"자동차정비 유지 - 세차장"}]},{"lat":"37.34923155","long":"127.3591851","items":[{"name":"참조아식품","tel":"031-763-2852","addr":"경기도 광주시 곤지암읍 곤지암리 84-1번지","category":"음료식품 - 농·축·수산품"}]},{"lat":"37.34959953","long":"127.353634","items":[{"name":"천일광고기획","tel":"031-767-1001","addr":"경기도 광주시 곤지암읍 곤지암리 139-17번지","category":"건축자재 - 인테리어전문"}]},{"lat":"37.34090212","long":"127.3390248","items":[{"name":"천일스테이션","tel":"031-766-9109","addr":"경기도 광주시 곤지암읍 곤지암리 491-1번지","category":"자동차정비 유지 - 자동차부품"}]},{"lat":"37.35248357","long":"127.3563901","items":[{"name":"체크홀릭","tel":"031-766-8063","addr":"경기도 광주시 곤지암읍 곤지암리 104번지","category":"의류 - 정장"}]},{"lat":"37.34998589","long":"127.353997","items":[{"name":"최강풍천장어","tel":"031-797-9229","addr":"경기도 광주시 곤지암읍 곤지암리 141-1번지","category":"일반휴게음식 - 일반한식"}]},{"lat":"37.34778782","long":"127.3383332","items":[{"name":"충북방아간","tel":"031-762-6251","addr":"경기도 광주시 곤지암읍 곤지암리 454-2번지","category":"음료식품 - 제과점"},{"name":"키즈박스","tel":"031-769-7779","addr":"경기도 광주시 곤지암읍 곤지암리 454-2번지","category":"의류 - 아동의류"},{"name":"풍경소리","tel":"031-769-0071","addr":"경기도 광주시 곤지암읍 곤지암리 454-2번지","category":"일반휴게음식 - 일반한식"}]},{"lat":"37.34740007","long":"127.3384444","items":[{"name":"치킨플러스 곤지암점","tel":"031-798-3443","addr":"경기도 광주시 곤지암읍 곤지암리 454-6번지","category":"일반휴게음식 - 주점"}]},{"lat":"37.34295355","long":"127.3585009","items":[{"name":"친환경쌈밥","tel":"031-798-8389","addr":"경기도 광주시 곤지암읍 곤지암리 57번지","category":"일반휴게음식 - 일반한식"}]},{"lat":"37.348953","long":"127.3436316","items":[{"name":"카리스피부샵","tel":"02-1111-1111","addr":"경기도 광주시 곤지암읍 곤지암리 344-5번지 1층","category":"보건위생 - 피부미용실"}]},{"lat":"37.35364669","long":"127.3438334","items":[{"name":"카작 곤지암점","tel":"031-762-2642","addr":"경기도 광주시 곤지암읍 곤지암리 400-2번지","category":"일반휴게음식 - 서양음식"}]},{"lat":"37.34920248","long":"127.3446033","items":[{"name":"케이마취통증의학과의원","tel":"031-798-8912","addr":"경기도 광주시 곤지암읍 곤지암리 341-20번지 3층","category":"의원 - 의원"}]},{"lat":"37.34823761","long":"127.3385835","items":[{"name":"크린아이세탁전문점","tel":"070-4409-3012","addr":"경기도 광주시 곤지암읍 곤지암리 447-5번지","category":"수리서비스 - 세탁소"},{"name":"크린아이세탁편의점","tel":"070-4409-3012","addr":"경기도 광주시 곤지암읍 곤지암리 447-5번지","category":"수리서비스 - 세탁소"}]},{"lat":"37.35067454","long":"127.3371046","items":[{"name":"큰맘원조할매순대국","tel":"031-763-2604","addr":"경기도 광주시 곤지암읍 곤지암리 453-3번지","category":"일반휴게음식 - 일반한식"}]},{"lat":"37.3515407","long":"127.3492188","items":[{"name":"큰집가든","tel":"031-797-0533","addr":"경기도 광주시 곤지암읍 곤지암리 126-4번지","category":"일반휴게음식 - 일반한식"}]},{"lat":"37.34850872","long":"127.3383026","items":[{"name":"클래식","tel":"","addr":"경기도 광주시 곤지암읍 곤지암리 453-93번지 1층","category":"의류 - 정장"},{"name":"황금용","tel":"031-762-2773","addr":"경기도 광주시 곤지암읍 곤지암리 453-93번지 1층","category":"일반휴게음식 - 중국식"}]},{"lat":"37.34975746","long":"127.3427436","items":[{"name":"태화 대리운전","tel":"031-762-7729","addr":"경기도 광주시 곤지암읍 곤지암리 430-6번지 2층 101호","category":"보건위생 - 기타대인서비스"}]},{"lat":"37.34629001","long":"127.3390827","items":[{"name":"티 바이크 카페","tel":"031-762-0249","addr":"경기도 광주시 곤지암읍 곤지암리 456-1번지","category":"레져용품 - 스포츠·레져용품"}]},{"lat":"37.34315336","long":"127.3579714","items":[{"name":"팜다이렉트PNK,춘천연옥흙침대","tel":"02-1111-1111","addr":"경기도 광주시 곤지암읍 곤지암리 73-2번지 1,2,3층","category":"가구 - 일반가구"}]},{"lat":"37.34817476","long":"127.3448018","items":[{"name":"퍼니헤어","tel":"031-797-5111","addr":"경기도 광주시 곤지암읍 곤지암리 343-48번지","category":"보건위생 - 미용원"}]},{"lat":"37.34242611","long":"127.3601122","items":[{"name":"푸른안과","tel":"031-763-4200","addr":"경기도 광주시 곤지암읍 곤지암리 54, 2층","category":"회원제형태 - 건강식품"}]},{"lat":"37.34984774","long":"127.3395275","items":[{"name":"필라델피아","tel":"031-762-5513","addr":"경기도 광주시 곤지암읍 곤지암리 441-14번지","category":"일반휴게음식 - 일반한식"}]},{"lat":"37.34859646","long":"127.3454132","items":[{"name":"필모텔","tel":"031-761-2048","addr":"경기도 광주시 곤지암읍 곤지암리 340-2번지","category":"숙박업 - 여관/기타숙박업"}]},{"lat":"37.34314845","long":"127.3505232","items":[{"name":"한남세라믹","tel":"031-633-4163","addr":"경기도 광주시 곤지암읍 곤지암리 203-1번지","category":"문화.취미 - 민예·공예품"}]},{"lat":"37.34116986","long":"127.349284","items":[{"name":"한올한올","tel":"070-8031-0164","addr":"경기도 광주시 곤지암읍 곤지암리 312-23번지 네스트빌","category":"보건위생 - 화장품"}]},{"lat":"37.34554099","long":"127.3394969","items":[{"name":"한우명가박가네","tel":"031-769-1241","addr":"경기도 광주시 곤지암읍 곤지암리 456-8번지","category":"일반휴게음식 - 일반한식"}]},{"lat":"37.34605701","long":"127.3449276","items":[{"name":"해법영어곤지암삼주교실","tel":"031-699-2295","addr":"경기도 광주시 곤지암읍 곤지암리 593번지 삼주노블리제아파트","category":"학원 - 보습학원"}]},{"lat":"37.34467633","long":"127.351828","items":[{"name":"호남초경톱공구","tel":"031-797-3670","addr":"경기도 광주시 곤지암읍 곤지암리 196-2","category":"기타 - 기계공구"},{"name":"호남톱공구","tel":"031-798-0797","addr":"경기도 광주시 곤지암읍 곤지암리 196-2번지","category":"기타 - 기계공구"}]},{"lat":"37.34328886","long":"127.351799","items":[{"name":"호텔야자곤지암점","tel":"","addr":"경기도 광주시 곤지암읍 곤지암리 220-4번지","category":"숙박업 - 여관/기타숙박업"}]},{"lat":"37.34206674","long":"127.3567701","items":[{"name":"화성타일","tel":"031-797-9136","addr":"경기도 광주시 곤지암읍 곤지암리 61-3번지","category":"건축자재 - 건축용 요업제품"}]},{"lat":"37.34617589","long":"127.3380214","items":[{"name":"화이서비스/원격지","tel":"02-3463-4050","addr":"경기도 광주시 곤지암읍 곤지암리 457번지 곤지암2차쌍용아파트","category":"기타 - 기타 전문점"}]},{"lat":"37.35326112","long":"127.3431883","items":[{"name":"후암휀스","tel":"031-762-6532","addr":"경기도 광주시 곤지암읍 곤지암리 400-5번지","category":"용역 서비스 - 기타용역서비스"}]},{"lat":"37.35004059","long":"127.3414131","items":[{"name":"휘가로모텔","tel":"031-764-8779","addr":"경기도 광주시 곤지암읍 곤지암리 435-32번지","category":"숙박업 - 여관/기타숙박업"}]},{"lat":"37.34559671","long":"127.3482999","items":[{"name":"힐탑파크","tel":"031-761-7614","addr":"경기도 광주시 곤지암읍 곤지암리 332-1번지 185동 3호","category":"숙박업 - 여관/기타숙박업"}]}]