[{"lat":"37.281765898","long":"127.025062","imageIndex":13,"items":[{"name":"H헤어#","tel":"031-242-0706","addr":"경기도 수원시 팔달구 지동 146-17번지 1층","indutype":"보건위생 - 미용원","category":"beauty"}]},{"lat":"37.278351184","long":"127.0240913","imageIndex":13,"items":[{"name":"가비헤어","tel":"031-254-2555","addr":"경기도 수원시 팔달구 지동 124-15번지","indutype":"보건위생 - 미용원","category":"beauty"},{"name":"헤어필미용실","tel":"031-273-9347","addr":"경기도 수원시 팔달구 지동 124-15번지","indutype":"보건위생 - 미용원","category":"beauty"}]},{"lat":"37.277711626","long":"127.02311015","imageIndex":13,"items":[{"name":"궁타이","tel":"070-7420-9911","addr":"경기도 수원시 팔달구 지동 362-10번지","indutype":"보건위생 - 화장품","category":"beauty"}]},{"lat":"37.275432439","long":"127.02052754","imageIndex":13,"items":[{"name":"김경순미용실","tel":"031-244-8220","addr":"경기도 수원시 팔달구 지동 424-1번지 1층","indutype":"보건위생 - 미용원","category":"beauty"}]},{"lat":"37.278432707","long":"127.02153177","imageIndex":13,"items":[{"name":"꽃님이","tel":"031-257-1223","addr":"경기도 수원시 팔달구 지동 309-9번지","indutype":"보건위생 - 기타대인서비스","category":"beauty"}]},{"lat":"37.280432612","long":"127.02377616","imageIndex":13,"items":[{"name":"나드리미용실","tel":"031-258-5229","addr":"경기도 수원시 팔달구 지동 279-7번지","indutype":"보건위생 - 미용원","category":"beauty"}]},{"lat":"37.278738358","long":"127.02553469","imageIndex":13,"items":[{"name":"난영미용실","tel":"031-251-8987","addr":"경기도 수원시 팔달구 지동 109-9번지","indutype":"보건위생 - 미용원","category":"beauty"}]},{"lat":"37.276072253","long":"127.01995265","imageIndex":13,"items":[{"name":"동아미용실","tel":"031-256-7360","addr":"경기도 수원시 팔달구 지동 415번지 팔달주차타워내상가 15호","indutype":"보건위생 - 미용원","category":"beauty"},{"name":"신한일사","tel":"031-242-0078","addr":"경기도 수원시 팔달구 지동 415번지 팔달주차타워 상가 2호","indutype":"보건위생 - 미용재료","category":"beauty"}]},{"lat":"37.27728845","long":"127.02122705","imageIndex":13,"items":[{"name":"동현미용실","tel":"031-243-5877","addr":"경기도 수원시 팔달구 지동 333-14번지","indutype":"보건위생 - 미용원","category":"beauty"}]},{"lat":"37.281350561","long":"127.0292791","imageIndex":13,"items":[{"name":"디에이치(DH)메디칼","tel":"070-4366-0825","addr":"경기도 수원시 팔달구 지동 480-18번지 1층","indutype":"보건위생 - 의료용품","category":"beauty"}]},{"lat":"37.278377083","long":"127.02967271","imageIndex":13,"items":[{"name":"루케헤어(LUCE HAIR)","tel":"031-207-3633","addr":"경기도 수원시 팔달구 지동 71-2번지 우성빌딩 102호","indutype":"보건위생 - 미용원","category":"beauty"},{"name":"성광메디칼","tel":"031-257-7200","addr":"경기도 수원시 팔달구 지동 71-2번지 우성빌딩 3층","indutype":"보건위생 - 의료용품","category":"beauty"}]},{"lat":"37.2779012","long":"127.02088893","imageIndex":13,"items":[{"name":"멋쟁이미용실","tel":"031-247-8864","addr":"경기도 수원시 팔달구 지동 307-2번지","indutype":"보건위생 - 미용원","category":"beauty"}]},{"lat":"37.282981973","long":"127.02666358","imageIndex":13,"items":[{"name":"명성미용실","tel":"031-251-3669","addr":"경기도 수원시 팔달구 지동 474-8번지","indutype":"보건위생 - 미용원","category":"beauty"}]},{"lat":"37.283928051","long":"127.02666388","imageIndex":13,"items":[{"name":"뮤즈헤어샵","tel":"031-241-7706","addr":"경기도 수원시 팔달구 지동 216-9번지","indutype":"보건위생 - 미용원","category":"beauty"}]},{"lat":"37.280593592","long":"127.02975242","imageIndex":13,"items":[{"name":"미래사","tel":"031-247-2110","addr":"경기도 수원시 팔달구 지동 481번지","indutype":"보건위생 - 기타대인서비스","category":"beauty"}]},{"lat":"37.27782031","long":"127.01950203","imageIndex":13,"items":[{"name":"박에스터스킨케어앤왁싱","tel":"031-253-7074","addr":"경기도 수원시 팔달구 지동 402-2번지 A동 2층 4-1호","indutype":"보건위생 - 피부미용실","category":"beauty"},{"name":"자광메디컬co","tel":"031-241-7315","addr":"경기도 수원시 팔달구 지동 402-2번지 지동시장 B동 지하층","indutype":"보건위생 - 의료용품","category":"beauty"},{"name":"한국팜머스협동조합","tel":"031-216-1482","addr":"경기도 수원시 팔달구 지동 402-2번지 지동시장 A동 1층","indutype":"보건위생 - 화장품","category":"beauty"}]},{"lat":"37.281982218","long":"127.0246674","imageIndex":13,"items":[{"name":"백제미용 (백제코스메틱)","tel":"02-1111-1111","addr":"경기도 수원시 팔달구 지동 146-34번지","indutype":"보건위생 - 미용재료","category":"beauty"}]},{"lat":"37.276296653","long":"127.02511677","imageIndex":13,"items":[{"name":"백제보조기상사","tel":"031-253-6884","addr":"경기도 수원시 팔달구 지동 117-2번지","indutype":"보건위생 - 의료용품","category":"beauty"}]},{"lat":"37.280567449","long":"127.02550141","imageIndex":13,"items":[{"name":"보니따헤어","tel":"031-241-9916","addr":"경기도 수원시 팔달구 지동 138-6번지 진우빌라트 1층 108호","indutype":"보건위생 - 미용원","category":"beauty"},{"name":"브엘세바미용실","tel":"031-8002-1259","addr":"경기도 수원시 팔달구 지동 138-6번지 진우빌라트 104호","indutype":"보건위생 - 미용원","category":"beauty"}]},{"lat":"37.275540297","long":"127.02223011","imageIndex":13,"items":[{"name":"보청기매니져","tel":"031-212-1007","addr":"경기도 수원시 팔달구 지동 368-7번지 2층","indutype":"보건위생 - 의료용품","category":"beauty"},{"name":"쓰리팩토리공장형안경원남문점","tel":"031-212-1007","addr":"경기도 수원시 팔달구 지동 368-7번지","indutype":"보건위생 - 안경","category":"beauty"}]},{"lat":"37.277657423","long":"127.02392197","imageIndex":13,"items":[{"name":"빨강머리","tel":"031-258-3571","addr":"경기도 수원시 팔달구 지동 123-91번지","indutype":"보건위생 - 미용원","category":"beauty"}]},{"lat":"37.27912573","long":"127.02589562","imageIndex":13,"items":[{"name":"샬룸헤어샵","tel":"031-000-0000","addr":"경기도 수원시 팔달구 지동 106-5번지","indutype":"보건위생 - 미용원","category":"beauty"}]},{"lat":"37.275594395","long":"127.02200462","imageIndex":13,"items":[{"name":"세븐힐여성사우나","tel":"031-244-0071","addr":"경기도 수원시 팔달구 지동 371번지 지하1층","indutype":"보건위생 - 사우나","category":"beauty"}]},{"lat":"37.278486368","long":"127.0239222","imageIndex":13,"items":[{"name":"세일전자","tel":"031-246-3248","addr":"경기도 수원시 팔달구 지동 360-1번지","indutype":"보건위생 - 화장품","category":"beauty"}]},{"lat":"37.280738538","long":"127.02605398","imageIndex":13,"items":[{"name":"소강탕","tel":"031-242-1020","addr":"경기도 수원시 팔달구 지동 138-85번지","indutype":"보건위생 - 사우나","category":"beauty"}]},{"lat":"37.284126726","long":"127.02430717","imageIndex":13,"items":[{"name":"소연미용실","tel":"031-246-7707","addr":"경기도 수원시 팔달구 지동 270-55번지","indutype":"보건위생 - 미용원","category":"beauty"}]},{"lat":"37.282873937","long":"127.02622377","imageIndex":13,"items":[{"name":"수아미헤어","tel":"031-241-3636","addr":"경기도 수원시 팔달구 지동 225-66번지","indutype":"보건위생 - 미용원","category":"beauty"}]},{"lat":"37.279657412","long":"127.02550113","imageIndex":13,"items":[{"name":"수원파이모아","tel":"031-245-8223","addr":"경기도 수원시 팔달구 지동 138-7번지 삼호아파트","indutype":"보건위생 - 미용재료","category":"beauty"}]},{"lat":"37.275963487","long":"127.02394405","imageIndex":13,"items":[{"name":"스칼렛","tel":"031-244-1114","addr":"경기도 수원시 팔달구 지동 123-8번지 2층","indutype":"보건위생 - 미용재료","category":"beauty"}]},{"lat":"37.286072447","long":"127.02689009","imageIndex":13,"items":[{"name":"실버의료기","tel":"070-8800-3259","addr":"경기도 수원시 팔달구 지동 253-6번지 1층","indutype":"보건위생 - 의료용품","category":"beauty"}]},{"lat":"37.278513747","long":"127.02185878","imageIndex":13,"items":[{"name":"아모레카운셀러","tel":"031-252-2248","addr":"경기도 수원시 팔달구 지동 314-6번지","indutype":"보건위생 - 화장품","category":"beauty"}]},{"lat":"37.280539568","long":"127.02958327","imageIndex":13,"items":[{"name":"아이엘","tel":"02-1111-1111","addr":"경기도 수원시 팔달구 지동 481-1번지 반석빌라 501호","indutype":"보건위생 - 미용재료","category":"beauty"}]},{"lat":"37.275432312","long":"127.0213619","imageIndex":13,"items":[{"name":"아카베화장품","tel":"031-253-3232","addr":"경기도 수원시 팔달구 지동 380번지 105호","indutype":"보건위생 - 화장품","category":"beauty"},{"name":"종합화장품","tel":"031-0000-0000","addr":"경기도 수원시 팔달구 지동 380번지","indutype":"보건위생 - 화장품","category":"beauty"}]},{"lat":"37.28248648","long":"127.02630259","imageIndex":13,"items":[{"name":"에이앤화장품수원중앙지사","tel":"031-258-4986","addr":"경기도 수원시 팔달구 지동 224-4번지","indutype":"보건위생 - 화장품","category":"beauty"}]},{"lat":"37.280540278","long":"127.02622305","imageIndex":13,"items":[{"name":"엘에이미용실","tel":"031-258-8022","addr":"경기도 수원시 팔달구 지동 138-46번지 1층","indutype":"보건위생 - 미용원","category":"beauty"}]},{"lat":"37.278629391","long":"127.02958259","imageIndex":13,"items":[{"name":"원뷰티끄","tel":"","addr":"경기도 수원시 팔달구 지동 70-9번지","indutype":"보건위생 - 피부미용실","category":"beauty"}]},{"lat":"37.276594337","long":"127.02320006","imageIndex":13,"items":[{"name":"유진네일","tel":"","addr":"경기도 수원시 팔달구 지동 365-31번지","indutype":"보건위생 - 피부미용실","category":"beauty"},{"name":"이경화토탈뷰티헤어","tel":"031-251-0903","addr":"경기도 수원시 팔달구 지동 365-31번지","indutype":"보건위생 - 미용원","category":"beauty"}]},{"lat":"37.2795393","long":"127.0301467","imageIndex":13,"items":[{"name":"인스타헤어동수원점","tel":"031-241-3684","addr":"경기도 수원시 팔달구 지동 482-2번지 신환빌 2층 201호","indutype":"보건위생 - 미용원","category":"beauty"}]},{"lat":"37.275567517","long":"127.02103495","imageIndex":13,"items":[{"name":"잠언의료기 지동점","tel":"031-248-7589","addr":"경기도 수원시 팔달구 지동 383-1번지 2층","indutype":"보건위생 - 의료용품","category":"beauty"}]},{"lat":"37.278376975","long":"127.03014628","imageIndex":13,"items":[{"name":"제이모","tel":"031-224-0808","addr":"경기도 수원시 팔달구 지동 483-16번지 우성빌딩 2층","indutype":"보건위생 - 미용재료","category":"beauty"},{"name":"좌훈카페","tel":"031-243-1892","addr":"경기도 수원시 팔달구 지동 483-16번지 우성빌딩 202호","indutype":"보건위생 - 기타대인서비스","category":"beauty"}]},{"lat":"37.277900004","long":"127.0275302","imageIndex":13,"items":[{"name":"제일의료기상사","tel":"031-246-8382","addr":"경기도 수원시 팔달구 지동 93-6번지 성빈센트병원 지하2층","indutype":"보건위생 - 의료용품","category":"beauty"}]},{"lat":"37.280621881","long":"127.02347176","imageIndex":13,"items":[{"name":"주식회사 그린비코퍼레이션","tel":"031-000-0000","addr":"경기도 수원시 팔달구 지동 279-11번지","indutype":"보건위생 - 의료용품","category":"beauty"}]},{"lat":"37.281404994","long":"127.02755389","imageIndex":13,"items":[{"name":"천하대장군 성수대신","tel":"031-222-3376","addr":"경기도 수원시 팔달구 지동 479-21번지","indutype":"보건위생 - 기타대인서비스","category":"beauty"}]},{"lat":"37.278099489","long":"127.02047179","imageIndex":13,"items":[{"name":"체리미용실","tel":"031-235-8530","addr":"경기도 수원시 팔달구 지동 306-2번지 1층","indutype":"보건위생 - 미용원","category":"beauty"}]},{"lat":"37.27692766","long":"127.02352713","imageIndex":13,"items":[{"name":"추나교정원","tel":"031-891-1166","addr":"경기도 수원시 팔달구 지동 360-20번지 2층 1호","indutype":"보건위생 - 피부미용실","category":"beauty"}]},{"lat":"37.280657356","long":"127.02650499","imageIndex":13,"items":[{"name":"카르페디엠헤어","tel":"031-253-0903","addr":"경기도 수원시 팔달구 지동 138-42번지 1층","indutype":"보건위생 - 미용원","category":"beauty"}]},{"lat":"37.277846405","long":"127.02519615","imageIndex":13,"items":[{"name":"해원사","tel":"031-242-0025","addr":"경기도 수원시 팔달구 지동 121-5번지","indutype":"보건위생 - 기타대인서비스","category":"beauty"}]},{"lat":"37.283261257","long":"127.02683281","imageIndex":13,"items":[{"name":"햇살미용실","tel":"031-244-3577","addr":"경기도 수원시 팔달구 지동 474번지","indutype":"보건위생 - 미용원","category":"beauty"}]},{"lat":"37.278045447","long":"127.02033647","imageIndex":13,"items":[{"name":"향나라화장품","tel":"031-245-9201","addr":"경기도 수원시 팔달구 지동 306-11번지 1층","indutype":"보건위생 - 화장품","category":"beauty"}]},{"lat":"37.281233862","long":"127.02724938","imageIndex":13,"items":[{"name":"헤어꼬삐에","tel":"","addr":"경기도 수원시 팔달구 지동 166-1번지","indutype":"보건위생 - 미용원","category":"beauty"}]},{"lat":"37.278180078","long":"127.02358385","imageIndex":13,"items":[{"name":"헤어샵오디션","tel":"031-241-8199","addr":"경기도 수원시 팔달구 지동 360-16번지","indutype":"보건위생 - 미용원","category":"beauty"}]},{"lat":"37.278315579","long":"127.02149791","imageIndex":13,"items":[{"name":"호산나헤어클럽","tel":"031-254-4294","addr":"경기도 수원시 팔달구 지동 309-11번지","indutype":"보건위생 - 미용원","category":"beauty"}]}]