[{"lat":"37.826205731","long":"127.31887201","items":[{"name":"4U펜션","tel":"031-000-0000","addr":"경기도 가평군 상면 원흥리 538번지 지하1층, 지상2층","category":"숙박업 - 여관/기타숙박업"},{"name":"포유 (4U)","tel":"031-000-0000","addr":"경기도 가평군 상면 원흥리 538번지","category":"일반휴게음식 - 일반한식"}]},{"lat":"37.822207454","long":"127.32151268","items":[{"name":"가평군 티.엠.알.영농조합법인","tel":"031-584-5192","addr":"경기도 가평군 상면 원흥리 519-7번지","category":"농업 - 비료,사료,종자"}]},{"lat":"37.818395054","long":"127.32534637","items":[{"name":"금강산푸른농원","tel":"031-585-2218","addr":"경기도 가평군 상면 원흥리 244-9번지","category":"음료식품 - 농·축·수산품"}]},{"lat":"37.821786908","long":"127.33031307","items":[{"name":"대지농원","tel":"","addr":"경기도 가평군 상면 원흥리 184-4번지","category":"음료식품 - 농·축·수산품"}]},{"lat":"37.812844782","long":"127.31887185","items":[{"name":"봉우리 포도농원","tel":"031-585-1985","addr":"경기도 가평군 상면 원흥리 436-1번지","category":"음료식품 - 농·축·수산품"}]},{"lat":"37.819262678","long":"127.3243507","items":[{"name":"선경농원","tel":"031-584-3431","addr":"경기도 가평군 상면 원흥리 507-1번지","category":"음료식품 - 농·축·수산품"}]},{"lat":"37.812540018","long":"127.31829138","items":[{"name":"수목포도원","tel":"031-585-2085","addr":"경기도 가평군 상면 원흥리 557번지 수목포도원","category":"음료식품 - 농·축·수산품"}]},{"lat":"37.805626193","long":"127.31626346","items":[{"name":"숲속하늘펜션","tel":"031-585-2614","addr":"경기도 가평군 상면 원흥리 603-1번지 숲속하늘펜션","category":"숙박업 - 여관/기타숙박업"}]},{"lat":"37.821199763","long":"127.32100861","items":[{"name":"알파고글램핑","tel":"031-585-3949","addr":"경기도 가평군 상면 원흥리 514-6번지","category":"숙박업 - 여관/기타숙박업"}]},{"lat":"37.818231734","long":"127.32903672","items":[{"name":"엘르","tel":"031-585-5596","addr":"경기도 가평군 상면 원흥리 260-3번지","category":"숙박업 - 여관/기타숙박업"}]},{"lat":"37.81798016","long":"127.32551492","items":[{"name":"위크팜","tel":"031-585-5539","addr":"경기도 가평군 상면 원흥리 249-5번지 위크팜","category":"음료식품 - 기타음료식품"}]},{"lat":"37.811730577","long":"127.31776555","items":[{"name":"유명농원","tel":"031-585-1897","addr":"경기도 가평군 상면 원흥리 563번지","category":"음료식품 - 주류 판매점"}]},{"lat":"37.821985074","long":"127.32045546","items":[{"name":"이가네","tel":"031-585-9980","addr":"경기도 가평군 상면 원흥리 514-12번지 1동 1층","category":"일반휴게음식 - 일반한식"}]},{"lat":"37.81939654","long":"127.32809919","items":[{"name":"이레캠핑장","tel":"031-585-3063","addr":"경기도 가평군 상면 원흥리 211-5번지","category":"음료식품 - 기타음료식품"},{"name":"평화가스","tel":"031-585-3061","addr":"경기도 가평군 상면 원흥리 211-5번지","category":"연료판매점 - LPG 취급점"}]},{"lat":"37.812564518","long":"127.31923405","items":[{"name":"자연농원","tel":"031-584-3482","addr":"경기도 가평군 상면 원흥리 433-1번지 자연농원","category":"음료식품 - 농·축·수산품"}]},{"lat":"37.818872306","long":"127.32871018","items":[{"name":"전원농원","tel":"031-585-2353","addr":"경기도 가평군 상면 원흥리 221-3번지","category":"음료식품 - 농·축·수산품"}]},{"lat":"37.815202391","long":"127.32326557","items":[{"name":"진산삼바이오","tel":"02-444-3381","addr":"경기도 가평군 상면 원흥리 463번지","category":"건강식품 - 인삼제품"}]},{"lat":"37.818618855","long":"127.32586977","items":[{"name":"태봉민박","tel":"031-584-1491","addr":"경기도 가평군 상면 원흥리 229-1번지","category":"숙박업 - 여관/기타숙박업"}]},{"lat":"37.821759841","long":"127.32045449","items":[{"name":"투웰브리조트가든","tel":"031-585-5799","addr":"경기도 가평군 상면 원흥리 514-10번지","category":"일반휴게음식 - 일반한식"}]},{"lat":"37.827175162","long":"127.32020509","items":[{"name":"포시즌캠핑장","tel":"031-585-3141","addr":"경기도 가평군 상면 원흥리 535번지","category":"숙박업 - 여관/기타숙박업"}]}]