[{"lat":"37.362442842","long":"126.71353373","imageIndex":8,"items":[{"name":"365경희바른한의원","tel":"031-433-1082","addr":"경기도 시흥시 정왕동 2564번지 한라비발디캠퍼스2차 2동 204호","indutype":"보건업 - 한의원","category":"medical"}]},{"lat":"37.351086114","long":"126.74286551","imageIndex":8,"items":[{"name":"365행복약국","tel":"031-431-4691","addr":"경기도 시흥시 정왕동 2326-1번지","indutype":"보건업 - 약국","category":"medical"}]},{"lat":"37.344859259","long":"126.73841794","imageIndex":8,"items":[{"name":"3층신동아약국","tel":"031-434-4588","addr":"경기도 시흥시 정왕동 1734-7번지 제일프라자 306호","indutype":"보건업 - 약국","category":"medical"},{"name":"승재한의원","tel":"031-498-4520","addr":"경기도 시흥시 정왕동 1734-7번지 제일프라자 308호","indutype":"보건업 - 한의원","category":"medical"},{"name":"정문약국","tel":"031-496-0903","addr":"경기도 시흥시 정왕동 1734-7번지","indutype":"보건업 - 약국","category":"medical"},{"name":"조안과의원","tel":"031-433-7575","addr":"경기도 시흥시 정왕동 1734-7번지 제일프라자 307호","indutype":"보건업 - 안과의원","category":"medical"}]},{"lat":"37.363221248","long":"126.73019214","imageIndex":8,"items":[{"name":"경희다나한의원","tel":"031-433-1566","addr":"경기도 시흥시 정왕동 1882-4번지 세종프라자 307호","indutype":"보건업 - 한의원","category":"medical"},{"name":"보룡온누리약국","tel":"031-433-8307","addr":"경기도 시흥시 정왕동 1882-4번지 세종프라자 302호","indutype":"보건업 - 약국","category":"medical"}]},{"lat":"37.368024793","long":"126.73069404","imageIndex":8,"items":[{"name":"경희용한의원","tel":"031-365-3250","addr":"경기도 시흥시 정왕동 2537-2번지 베니스스퀘어 414호","indutype":"보건업 - 한의원","category":"medical"}]},{"lat":"37.369861331","long":"126.73003263","imageIndex":8,"items":[{"name":"단비의원 한의원","tel":"031-364-8282","addr":"경기도 시흥시 정왕동 2514번지 M-플러스 5층 507호","indutype":"보건업 - 한의원","category":"medical"},{"name":"세종한의원","tel":"031-319-7555","addr":"경기도 시흥시 정왕동 2514번지 M-플러스 406동 1호","indutype":"보건업 - 한의원","category":"medical"}]},{"lat":"37.352030133","long":"126.71475878","imageIndex":8,"items":[{"name":"대원한방병원","tel":"031-490-2400","addr":"경기도 시흥시 정왕동 2164-2번지 메가폴리스 C동 2층","indutype":"보건업 - 한방병원","category":"medical"}]},{"lat":"37.370302119","long":"126.72972623","imageIndex":8,"items":[{"name":"배곧다온약국","tel":"031-431-1661","addr":"경기도 시흥시 정왕동 2513-1번지 센터프라자2차 107호","indutype":"보건업 - 약국","category":"medical"},{"name":"함신경외과의원","tel":"031-499-7301","addr":"경기도 시흥시 정왕동 2513-1번지 센터프라자2 제3층 303,304호","indutype":"보건업 - 신경외과의원","category":"medical"}]},{"lat":"37.374473194","long":"126.73339161","imageIndex":8,"items":[{"name":"배곧애(愛)한의원","tel":"031-434-5445","addr":"경기도 시흥시 정왕동 2470-1번지 베스트프라자 3층 305호","indutype":"보건업 - 한의원","category":"medical"}]},{"lat":"37.370444608","long":"126.7290032","imageIndex":8,"items":[{"name":"배곧정문약국","tel":"031-431-8822","addr":"경기도 시흥시 정왕동 2513번지 센타프라자 113~4호","indutype":"보건업 - 약국","category":"medical"},{"name":"우리가족한의원","tel":"031-497-7588","addr":"경기도 시흥시 정왕동 2513번지 센터프라자 401호","indutype":"보건업 - 한의원","category":"medical"}]},{"lat":"37.36669497","long":"126.72838466","imageIndex":8,"items":[{"name":"배곧한방병원","tel":"031-431-2119","addr":"경기도 시흥시 정왕동 2536-1번지","indutype":"보건업 - 한방병원","category":"medical"}]},{"lat":"37.354419529","long":"126.72297779","imageIndex":8,"items":[{"name":"새로운치과의원","tel":"031-432-5755","addr":"경기도 시흥시 정왕동 1861-1번지 세종월드빌딩 201호","indutype":"보건업 - 치과의원","category":"medical"}]},{"lat":"37.345116628","long":"126.73666778","imageIndex":8,"items":[{"name":"서울보스톤고른이치과","tel":"031-319-2804","addr":"경기도 시흥시 정왕동 1737-2번지 3층","indutype":"보건업 - 치과의원","category":"medical"}]},{"lat":"37.344389527","long":"126.68992628","imageIndex":8,"items":[{"name":"세종약국","tel":"031-432-7200","addr":"경기도 시흥시 정왕동 2014-2번지","indutype":"보건업 - 약국","category":"medical"}]},{"lat":"37.345362029","long":"126.7376149","imageIndex":8,"items":[{"name":"시화군자한의원","tel":"031-319-7522","addr":"경기도 시흥시 정왕동 1734-5번지 우리메디칼센타 401호","indutype":"보건업 - 한의원","category":"medical"},{"name":"종로세명약국","tel":"031-431-4044","addr":"경기도 시흥시 정왕동 1734-5번지 우리메디칼센타 106호","indutype":"보건업 - 약국","category":"medical"}]},{"lat":"37.347364019","long":"126.73439139","imageIndex":8,"items":[{"name":"시화박산부인과","tel":"031-319-7861","addr":"경기도 시흥시 정왕동 1726-4번지 한성타운 3층","indutype":"보건업 - 병원,산후조리원","category":"medical"}]},{"lat":"37.352863536","long":"126.7241461","imageIndex":8,"items":[{"name":"시화제일약국","tel":"031-319-1058","addr":"경기도 시흥시 정왕동 1860-6번지 102호","indutype":"보건업 - 약국","category":"medical"}]},{"lat":"37.354024581","long":"126.72361132","imageIndex":8,"items":[{"name":"시화종합동물병원","tel":"031-507-0082","addr":"경기도 시흥시 정왕동 1861-3번지 메가쇼핑몰 108호","indutype":"보건업 - 동물병원","category":"medical"}]},{"lat":"37.356051433","long":"126.73116619","imageIndex":8,"items":[{"name":"시화한의원","tel":"031-497-2177","addr":"경기도 시흥시 정왕동 1873-3번지 월드아파트 202호","indutype":"보건업 - 한의원","category":"medical"},{"name":"태평양약국","tel":"031-497-2951","addr":"경기도 시흥시 정왕동 1873-3번지","indutype":"보건업 - 약국","category":"medical"}]},{"lat":"37.346002345","long":"126.73388839","imageIndex":8,"items":[{"name":"시흥하나의료소비자생활협동조합(행복한의원)","tel":"031-432-7171","addr":"경기도 시흥시 정왕동 1728-20번지 3층","indutype":"보건업 - 일반의원","category":"medical"}]},{"lat":"37.362580076","long":"126.72956232","imageIndex":8,"items":[{"name":"열린온누리약국","tel":"031-431-9930","addr":"경기도 시흥시 정왕동 1884-9번지","indutype":"보건업 - 약국","category":"medical"}]},{"lat":"37.345449442","long":"126.73641832","imageIndex":8,"items":[{"name":"왕온누리약국","tel":"070-7797-0544","addr":"경기도 시흥시 정왕동 1736-2번지","indutype":"보건업 - 약국","category":"medical"}]},{"lat":"37.353216919","long":"126.72499129","imageIndex":8,"items":[{"name":"원광한의원","tel":"031-433-1640","addr":"경기도 시흥시 정왕동 1861-8번지 트윈프라자 B동 208호","indutype":"보건업 - 한의원","category":"medical"}]},{"lat":"37.352774392","long":"126.72455274","imageIndex":8,"items":[{"name":"의료법인 남촌의료재단","tel":"031-432-2600","addr":"경기도 시흥시 정왕동 1860-1번지","indutype":"보건업 - 종합병원","category":"medical"}]},{"lat":"37.336807934","long":"126.72820006","imageIndex":8,"items":[{"name":"의료법인 석경의료재단(센트럴병원)","tel":"031-8041-3000","addr":"경기도 시흥시 정왕동 1366-11번지","indutype":"보건업 - 종합병원","category":"medical"}]},{"lat":"37.353387341","long":"126.72466335","imageIndex":8,"items":[{"name":"의료법인 소애의료재단 한울요양병원","tel":"031-433-8577","addr":"경기도 시흥시 정왕동 1861-7번지 A동 3,4층","indutype":"보건업 - 일반병원","category":"medical"}]},{"lat":"37.343414967","long":"126.73722676","imageIndex":8,"items":[{"name":"이튼튼치과의원","tel":"031-498-0026","addr":"경기도 시흥시 정왕동 1744-1번지 4층 402,403호","indutype":"보건업 - 치과의원","category":"medical"}]},{"lat":"37.34749782","long":"126.74183958","imageIndex":8,"items":[{"name":"전약국","tel":"031-433-9363","addr":"경기도 시흥시 정왕동 1600번지 삼호빌딩 102호","indutype":"보건업 - 약국","category":"medical"}]},{"lat":"37.352999006","long":"126.72428104","imageIndex":8,"items":[{"name":"정왕라성약국","tel":"031-496-9693","addr":"경기도 시흥시 정왕동 1860-7번지 골든스퀘어 105호","indutype":"보건업 - 약국, 의료기기판매","category":"medical"}]},{"lat":"37.345476872","long":"126.74888877","imageIndex":8,"items":[{"name":"정왕시장약국","tel":"031-319-9396","addr":"경기도 시흥시 정왕동 1202번지","indutype":"보건업 - 약국","category":"medical"}]},{"lat":"37.377861106","long":"126.72564556","imageIndex":8,"items":[{"name":"지성약국","tel":"031-319-1065","addr":"경기도 시흥시 정왕동 2476-2번지 광장프라자 109호","indutype":"보건업 - 약국","category":"medical"}]},{"lat":"37.353002439","long":"126.73753158","imageIndex":8,"items":[{"name":"푸른약국","tel":"031-432-0258","addr":"경기도 시흥시 정왕동 2305-1번지 흥성심메디칼","indutype":"보건업 - 약국","category":"medical"}]},{"lat":"37.347974497","long":"126.73341863","imageIndex":8,"items":[{"name":"해수약국","tel":"031-432-5721","addr":"경기도 시흥시 정왕동 1726-1번지 광개토빌딩1 305호","indutype":"보건업 - 약국","category":"medical"}]}]