[{"lat":"37.271295163","long":"126.97681532","imageIndex":8,"items":[{"name":"나래약국","tel":"031-278-1355","addr":"경기도 수원시 권선구 탑동 300-17번지 101호","indutype":"약국 - 약국","category":"medical"},{"name":"방찬호소아청소년과의원","tel":"031-293-2346","addr":"경기도 수원시 권선구 탑동 300-17번지","indutype":"의원 - 의원","category":"medical"}]},{"lat":"37.269600793","long":"126.97489928","imageIndex":8,"items":[{"name":"다솔내과","tel":"031-293-0971","addr":"경기도 수원시 권선구 탑동 841-3번지","indutype":"의원 - 의원","category":"medical"},{"name":"밝은수치과의원","tel":"031-292-2875","addr":"경기도 수원시 권선구 탑동 841-3번지 태영빌딩 2층","indutype":"의원 - 치과의원","category":"medical"},{"name":"한아름약국","tel":"031-294-4999","addr":"경기도 수원시 권선구 탑동 841-3번지","indutype":"약국 - 약국","category":"medical"}]},{"lat":"37.275683466","long":"126.97820065","imageIndex":8,"items":[{"name":"도그스타동물병원","tel":"031-291-8896","addr":"경기도 수원시 권선구 탑동 5-29번지 동은빌딩","indutype":"기타의료기관 - 동물병원","category":"medical"}]},{"lat":"37.274709366","long":"126.97383753","imageIndex":8,"items":[{"name":"매홀의료소비자협동조합 탑온누리한의원","tel":"031-295-9204","addr":"경기도 수원시 권선구 탑동 757-2번지 4층","indutype":"의원 - 한의원","category":"medical"},{"name":"바로세움의원","tel":"031-298-7730","addr":"경기도 수원시 권선구 탑동 757-2번지 2층","indutype":"의원 - 의원","category":"medical"}]},{"lat":"37.274988786","long":"126.9742546","imageIndex":8,"items":[{"name":"미담치과의원","tel":"031-291-2282","addr":"경기도 수원시 권선구 탑동 758-2번지","indutype":"의원 - 치과의원","category":"medical"}]},{"lat":"37.268843821","long":"126.97444859","imageIndex":8,"items":[{"name":"민가정의학과의원","tel":"031-293-0114","addr":"경기도 수원시 권선구 탑동 835-4번지 2층","indutype":"의원 - 의원","category":"medical"},{"name":"자연과건강","tel":"031-227-0069","addr":"경기도 수원시 권선구 탑동 835-4번지 102호","indutype":"약국 - 약국","category":"medical"}]},{"lat":"37.269349476","long":"126.97936396","imageIndex":8,"items":[{"name":"뷰티펫동물병원","tel":"031-278-3593","addr":"경기도 수원시 권선구 탑동 888-6번지","indutype":"기타의료기관 - 동물병원","category":"medical"}]},{"lat":"37.269015174","long":"126.9751137","imageIndex":8,"items":[{"name":"사랑이치과의원","tel":"031-278-4022","addr":"경기도 수원시 권선구 탑동 835-8번지 스타타워 4층","indutype":"의원 - 치과의원","category":"medical"}]},{"lat":"37.275232386","long":"126.9756188","imageIndex":8,"items":[{"name":"상쾌한이비인후과","tel":"031-291-5075","addr":"경기도 수원시 권선구 탑동 759-5번지","indutype":"의원 - 의원","category":"medical"},{"name":"홍익한의원","tel":"031-294-0110","addr":"경기도 수원시 권선구 탑동 759-5,759-6,2층","indutype":"의원 - 한의원","category":"medical"}]},{"lat":"37.27509705","long":"126.97484087","imageIndex":8,"items":[{"name":"서수원치과의원","tel":"031-298-2828","addr":"경기도 수원시 권선구 탑동 758-5번지 운영빌딩 4층","indutype":"의원 - 치과의원","category":"medical"},{"name":"서울탑안과","tel":"031-294-0975","addr":"경기도 수원시 권선구 탑동 758-5번지","indutype":"의원 - 의원","category":"medical"}]},{"lat":"37.268988646","long":"126.977346","imageIndex":8,"items":[{"name":"소망가정의학과의원","tel":"031-297-5977","addr":"경기도 수원시 권선구 탑동 885-2번지","indutype":"의원 - 의원","category":"medical"},{"name":"파랑새약국","tel":"031-296-1717","addr":"경기도 수원시 권선구 탑동 885-2번지","indutype":"약국 - 약국","category":"medical"}]},{"lat":"37.275484926","long":"126.97673495","imageIndex":8,"items":[{"name":"연세소망치과","tel":"031-298-2804","addr":"경기도 수원시 권선구 탑동 5-9번지 2층","indutype":"의원 - 치과의원","category":"medical"}]},{"lat":"37.275178246","long":"126.97528057","imageIndex":8,"items":[{"name":"연합치과","tel":"031-293-2307","addr":"경기도 수원시 권선구 탑동 759-2번지 참크리닉빌딩 5층","indutype":"의원 - 치과의원","category":"medical"},{"name":"참비뇨기과의원","tel":"031-293-2900","addr":"경기도 수원시 권선구 탑동 759-2번지 4층","indutype":"의원 - 의원","category":"medical"},{"name":"참소아과의원","tel":"031-293-3392","addr":"경기도 수원시 권선구 탑동 759-2번지","indutype":"의원 - 의원","category":"medical"}]},{"lat":"37.275295523","long":"126.97590065","imageIndex":8,"items":[{"name":"연희동물병원","tel":"031-296-7875","addr":"경기도 수원시 권선구 탑동 759-7번지 삼호빌딩 B동 101호","indutype":"기타의료기관 - 동물병원","category":"medical"}]},{"lat":"37.268961081","long":"126.97497843","imageIndex":8,"items":[{"name":"자운한의원","tel":"031-293-1010","addr":"경기도 수원시 권선구 탑동 835-7번지 운강빌딩 3층","indutype":"의원 - 한의원","category":"medical"}]},{"lat":"37.272934355","long":"126.97389459","imageIndex":8,"items":[{"name":"정다운한의원","tel":"031-222-8277","addr":"경기도 수원시 권선구 탑동 782-8번지","indutype":"의원 - 한의원","category":"medical"}]},{"lat":"37.275376765","long":"126.97656586","imageIndex":8,"items":[{"name":"정한의원","tel":"031-278-1010","addr":"경기도 수원시 권선구 탑동 759-12번지 정한의원","indutype":"의원 - 한의원","category":"medical"}]},{"lat":"37.274871537","long":"126.9737811","imageIndex":8,"items":[{"name":"차정형외과의원","tel":"031-227-8274","addr":"경기도 수원시 권선구 탑동 757-1번지","indutype":"의원 - 의원","category":"medical"}]},{"lat":"37.268762608","long":"126.97395256","imageIndex":8,"items":[{"name":"청운약품","tel":"02-717-6015","addr":"경기도 수원시 권선구 탑동 835-1번지 202호","indutype":"약국 - 제약회사","category":"medical"}]},{"lat":"37.275349646","long":"126.97617124","imageIndex":8,"items":[{"name":"탑약국","tel":"031-292-8610","addr":"경기도 수원시 권선구 탑동 759-9번지","indutype":"약국 - 약국","category":"medical"}]},{"lat":"37.268816752","long":"126.97429076","imageIndex":8,"items":[{"name":"튼튼한의원","tel":"031-296-3778","addr":"경기도 수원시 권선구 탑동 835-3번지 3층-5층","indutype":"의원 - 한의원","category":"medical"}]},{"lat":"37.275015858","long":"126.97442372","imageIndex":8,"items":[{"name":"허준한의원","tel":"031-294-8799","addr":"경기도 수원시 권선구 탑동 758-3번지 새로본빌딩 2층","indutype":"의원 - 한의원","category":"medical"}]}]