[{"lat":"37.023494122","long":"127.25940666","items":[{"name":"(주)옥산에너지","tel":"031-676-0620","addr":"경기도 안성시 대덕면 소현리 297-1번지","category":"연료판매점 - SK가스충전소"}]},{"lat":"37.023463116","long":"127.26123831","items":[{"name":"광고나라","tel":"031-671-2904","addr":"경기도 안성시 대덕면 소현리 302-3","category":"용역 서비스 - 종합용역"},{"name":"신선푸드","tel":"031-676-9254","addr":"경기도 안성시 대덕면 소현리 302-3번지","category":"음료식품 - 기타음료식품"},{"name":"신선푸드","tel":"031-676-9254","addr":"경기도 안성시 대덕면 소현리 302-3번지","category":"음료식품 - 농·축·수산품"},{"name":"신원전기모타","tel":"031-677-2356","addr":"경기도 안성시 대덕면 소현리 302-3번지","category":"기타 - 기계공구"},{"name":"풀무원샘물 남부유통","tel":"031-673-3332","addr":"경기도 안성시 대덕면 소현리 302-3번지","category":"유통업 영리 - 기타유통업"}]},{"lat":"37.036100343","long":"127.25076084","items":[{"name":"금화도시개발(주)","tel":"031-575-1441","addr":"경기도 안성시 대덕면 소현리 2-1번지","category":"건축자재 - 부동산 분양"}]},{"lat":"37.034607703","long":"127.24926115","items":[{"name":"덕산콩마을","tel":"031-677-4233","addr":"경기도 안성시 대덕면 소현리 12-8번지 전체","category":"음료식품 - 기타음료식품"}]},{"lat":"37.02648948","long":"127.25762986","items":[{"name":"모두의샵 솜니엄(Somnium)","tel":"031-000-0000","addr":"경기도 안성시 대덕면 소현리 244-1번지","category":"의류 - 정장"}]},{"lat":"37.034353373","long":"127.25023815","items":[{"name":"비더블유아이코리아 (BWI KOREA)","tel":"070-4757-4333","addr":"경기도 안성시 대덕면 소현리 11번지","category":"음료식품 - 주류 판매점"},{"name":"티허드","tel":"070-5089-5505","addr":"경기도 안성시 대덕면 소현리 11번지","category":"의류 - 스포츠의류"}]},{"lat":"37.023495213","long":"127.25890097","items":[{"name":"신도시자동차정비공업사","tel":"031-675-0019","addr":"경기도 안성시 대덕면 소현리 295번지","category":"자동차정비 유지 - 자동차부품"}]},{"lat":"37.029573693","long":"127.25642638","items":[{"name":"안성싸인테크","tel":"031-671-2338","addr":"경기도 안성시 대덕면 소현리 153번지","category":"건축자재 - 인테리어전문"}]},{"lat":"37.026913651","long":"127.2573166","items":[{"name":"파란나라 어린이집[아이행복]","tel":"031-677-1591","addr":"경기도 안성시 대덕면 소현리 244-5번지","category":"학원 - 유아원"}]}]