[{"lat":"37.298522775","long":"127.68863709","items":[{"name":"고려도자산업","tel":"031-884-2229","addr":"경기도 여주시 북내면 가정리 88번지","category":"문화.취미 - 민예·공예품"}]},{"lat":"37.299916427","long":"127.69069116","items":[{"name":"긴골이야기","tel":"031-886-5474","addr":"경기도 여주시 북내면 가정리 78-5번지","category":"문화.취미 - 문화취미기타"}]},{"lat":"37.299305871","long":"127.69032469","items":[{"name":"도자공방나래","tel":"031-886-5030","addr":"경기도 여주시 북내면 가정리 84번지","category":"문화.취미 - 민예·공예품"}]},{"lat":"37.301832797","long":"127.68337737","items":[{"name":"산내들","tel":"031-885-4600","addr":"경기도 여주시 북내면 가정리 245-5번지","category":"일반휴게음식 - 일반한식"}]},{"lat":"37.299243608","long":"127.68863236","items":[{"name":"성현도예","tel":"031-885-9823","addr":"경기도 여주시 북내면 가정리 178-3번지","category":"문화.취미 - 민예·공예품"}]},{"lat":"37.31210123","long":"127.67285506","items":[{"name":"신일CMP","tel":"031-885-6767","addr":"경기도 여주시 북내면 가정리 181번지","category":"서적문구 - 출판 및 인쇄물"}]},{"lat":"37.297548562","long":"127.68727486","items":[{"name":"엘림코리아","tel":"031-886-5232","addr":"경기도 여주시 북내면 가정리 166-4번지","category":"유통업 영리 - 기타유통업"}]},{"lat":"37.296830765","long":"127.68519319","items":[{"name":"엠제이하우징","tel":"031-886-1227","addr":"경기도 여주시 북내면 가정리 160번지","category":"용역 서비스 - 기타용역서비스"}]},{"lat":"37.299521733","long":"127.69193948","items":[{"name":"여주가스","tel":"031-884-2126","addr":"경기도 여주시 북내면 가정리 97번지","category":"연료판매점 - LPG 취급점"}]},{"lat":"37.299663558","long":"127.68299691","items":[{"name":"여주냉동","tel":"031-882-2359","addr":"경기도 여주시 북내면 가정리 211-13번지","category":"수리서비스 - 가정용품수리"}]},{"lat":"37.29694051","long":"127.68177691","items":[{"name":"예인도예","tel":"031-885-3580","addr":"경기도 여주시 북내면 가정리 501-6번지","category":"문화.취미 - 민예·공예품"},{"name":"청사도예","tel":"031-885-8068","addr":"경기도 여주시 북내면 가정리 501-6번지","category":"문화.취미 - 민예·공예품"}]},{"lat":"37.296687406","long":"127.68348891","items":[{"name":"태화도예","tel":"031-886-2890","addr":"경기도 여주시 북내면 가정리 158번지 1층","category":"주방용구 - 주방용식기"},{"name":"효진도예","tel":"031-885-0777","addr":"경기도 여주시 북내면 가정리 158번지","category":"문화.취미 - 민예·공예품"}]},{"lat":"37.300995293","long":"127.68330215","items":[{"name":"한샘슈퍼","tel":"031-885-9288","addr":"경기도 여주시 북내면 가정리 213-1번지","category":"유통업 영리 - 슈퍼마켓"},{"name":"한우명문가든","tel":"031-885-9288","addr":"경기도 여주시 북내면 가정리 213-1번지","category":"일반휴게음식 - 일반한식"}]},{"lat":"37.299940247","long":"127.68501826","items":[{"name":"한울디자인","tel":"031-885-6200","addr":"경기도 여주시 북내면 가정리 205번지","category":"문화.취미 - 민예·공예품"}]}]