[{"lat":"37.232907706","long":"127.06330521","imageIndex":13,"items":[{"name":"3D당구장","tel":"031-4693-1943","addr":"경기도 화성시 반월동 138-8번지 신영통빌딩 2층","indutype":"레저업소 - 당 구 장","category":"leisure"},{"name":"아이조아","tel":"031-203-1300","addr":"경기도 화성시 반월동 138-8번지 신영통빌딩 3층","indutype":"레저업소 - 기타레져업소","category":"leisure"}]},{"lat":"37.233295179","long":"127.06324918","imageIndex":13,"items":[{"name":"BM노래연습장","tel":"031-285-7745","addr":"경기도 화성시 반월동 160-14번지","indutype":"레저업소 - 노 래 방","category":"leisure"}]},{"lat":"37.23457558","long":"127.06139081","imageIndex":13,"items":[{"name":"Q당구장","tel":"031-202-9036","addr":"경기도 화성시 반월동 869-4번지 골드프라자 201호","indutype":"레저업소 - 당 구 장","category":"leisure"}]},{"lat":"37.234962778","long":"127.06188695","imageIndex":13,"items":[{"name":"Time 노래연습장","tel":"031-206-5122","addr":"경기도 화성시 반월동 869번지 현대프라자 203호","indutype":"레저업소 - 노 래 방","category":"leisure"},{"name":"갤러리 노래연습장","tel":"031-206-5122","addr":"경기도 화성시 반월동 869번지 현대프라자 201호","indutype":"레저업소 - 노 래 방","category":"leisure"},{"name":"따봉짐","tel":"031-204-1033","addr":"경기도 화성시 반월동 869번지 현대프라자 306호","indutype":"레저업소 - 헬스클럽","category":"leisure"},{"name":"삼성당구장","tel":"031-273-4988","addr":"경기도 화성시 반월동 869번지 현대프라자 2층 212, 213호","indutype":"레저업소 - 당 구 장","category":"leisure"},{"name":"스타덤PC 반월점","tel":"070-8332-6004","addr":"경기도 화성시 반월동 869번지 현대프라자 3층 301-2, 302호","indutype":"레저업소 - 기타레져업소","category":"leisure"},{"name":"은하수노래연습장","tel":"031-204-0035","addr":"경기도 화성시 반월동 869번지 현대프라자 210,211호","indutype":"레저업소 - 노 래 방","category":"leisure"}]},{"lat":"37.219548493","long":"127.05680488","imageIndex":13,"items":[{"name":"골프존파크 반월신동탄점","tel":"031-222-1120","addr":"경기도 화성시 반월동 639번지","indutype":"레저업소 - 스크린골프","category":"leisure"}]},{"lat":"37.229636337","long":"127.06449704","imageIndex":13,"items":[{"name":"국제당구클럽","tel":"031-204-4243","addr":"경기도 화성시 반월동 344-4번지 4층","indutype":"레저업소 - 당 구 장","category":"leisure"}]},{"lat":"37.222136964","long":"127.05100413","imageIndex":13,"items":[{"name":"그린비바디쉐이핑","tel":"031-0000-0000","addr":"경기도 화성시 반월동 717번지 신풍프라자 4층 401호","indutype":"레저업소 - 헬스클럽","category":"leisure"},{"name":"엠에스짐(MSGym)","tel":"","addr":"경기도 화성시 반월동 717번지 신풍프라자 3층 305호","indutype":"레저업소 - 헬스클럽","category":"leisure"}]},{"lat":"37.231771059","long":"127.06588482","imageIndex":13,"items":[{"name":"까치노래연습장","tel":"031-202-6662","addr":"경기도 화성시 반월동 100-8번지","indutype":"레저업소 - 노 래 방","category":"leisure"}]},{"lat":"37.222470416","long":"127.05083533","imageIndex":13,"items":[{"name":"대한체대입시","tel":"031-111-1111","addr":"경기도 화성시 반월동 713-23번지","indutype":"레저업소 - 헬스클럽","category":"leisure"}]},{"lat":"37.222323336","long":"127.05756176","imageIndex":13,"items":[{"name":"더앨리","tel":"070-4149-0109","addr":"경기도 화성시 반월동 944번지 에스케이뷰파크 2동 1층 109호","indutype":"레저업소 - 기타레져업소","category":"leisure"}]},{"lat":"37.235440777","long":"127.06097452","imageIndex":13,"items":[{"name":"딸기노래연습장","tel":"031-203-2672","addr":"경기도 화성시 반월동 864-1번지 제일프라자 2층 213호","indutype":"레저업소 - 노 래 방","category":"leisure"},{"name":"빈요가","tel":"031-221-2884","addr":"경기도 화성시 반월동 864-1번지 제일프라자 411,412호","indutype":"레저업소 - 헬스클럽","category":"leisure"},{"name":"위드(WITH)필라테스앤요가","tel":"031-206-0109","addr":"경기도 화성시 반월동 864-1번지 제일프라자 302호","indutype":"레저업소 - 헬스클럽","category":"leisure"},{"name":"이네이처PC방신영통점","tel":"070-8861-3009","addr":"경기도 화성시 반월동 864-1번지 제일프라자 505호","indutype":"레저업소 - 기타레져업소","category":"leisure"},{"name":"제일당구클럽","tel":"031-206-3949","addr":"경기도 화성시 반월동 864-1번지 제일프라자 B04호","indutype":"레저업소 - 당 구 장","category":"leisure"},{"name":"카카오노래연습장","tel":"031-7617-2591","addr":"경기도 화성시 반월동 864-1번지 208,209호","indutype":"레저업소 - 노 래 방","category":"leisure"}]},{"lat":"37.22765903","long":"127.07183091","imageIndex":13,"items":[{"name":"리얼야구장편의점","tel":"031-202-0666","addr":"경기도 화성시 반월동 364-5번지","indutype":"레저업소 - 기타레져업소","category":"leisure"}]},{"lat":"37.228325194","long":"127.07285691","imageIndex":13,"items":[{"name":"마이큐","tel":"","addr":"경기도 화성시 반월동 360-1번지 1층","indutype":"레저업소 - 당 구 장","category":"leisure"}]},{"lat":"37.228018259","long":"127.07383695","imageIndex":13,"items":[{"name":"몽노래연습장","tel":"02-466-6664","addr":"경기도 화성시 반월동 359-1번지 지하","indutype":"레저업소 - 노 래 방","category":"leisure"},{"name":"에스원 당구클럽(S1)","tel":"031-206-1714","addr":"경기도 화성시 반월동 359-1번지 2층 201호","indutype":"레저업소 - 당 구 장","category":"leisure"}]},{"lat":"37.229771363","long":"127.06474506","imageIndex":13,"items":[{"name":"반월골프존","tel":"031-202-0750","addr":"경기도 화성시 반월동 345-3번지 태양빌딩 4층","indutype":"레저업소 - 스크린골프","category":"leisure"}]},{"lat":"37.230246767","long":"127.06872319","imageIndex":13,"items":[{"name":"비지니스당구클럽","tel":"031-203-5968","addr":"경기도 화성시 반월동 109-3번지 2층","indutype":"레저업소 - 당 구 장","category":"leisure"}]},{"lat":"37.237826849","long":"127.06427832","imageIndex":13,"items":[{"name":"수원실내바다랍스터 낚시터","tel":"031-206-5133","addr":"경기도 화성시 반월동 38번지 B동","indutype":"레저업소 - 기타레져업소","category":"leisure"}]},{"lat":"37.229689873","long":"127.06549997","imageIndex":13,"items":[{"name":"슈팅스타 사격교실","tel":"","addr":"경기도 화성시 반월동 347-5번지 2층","indutype":"레저업소 - 기타레져업소","category":"leisure"}]},{"lat":"37.234493381","long":"127.06358821","imageIndex":13,"items":[{"name":"신영통노래방","tel":"031-206-5777","addr":"경기도 화성시 반월동 63-3번지","indutype":"레저업소 - 노 래 방","category":"leisure"}]},{"lat":"37.233996934","long":"127.06527815","imageIndex":13,"items":[{"name":"아이코어 필라테스","tel":"","addr":"경기도 화성시 반월동 66-9번지 명성프라자 3층 305,306호","indutype":"레저업소 - 헬스클럽","category":"leisure"},{"name":"지 필라테스(g pilates)","tel":"031-203-3358","addr":"경기도 화성시 반월동 66-9번지 명성프라자 2층 208호","indutype":"레저업소 - 헬스클럽","category":"leisure"},{"name":"포시즌 스크린골프","tel":"031-273-5665","addr":"경기도 화성시 반월동 66-9번지 명성프라자 2층 206, 207호","indutype":"레저업소 - 스크린골프","category":"leisure"}]},{"lat":"37.23131718","long":"127.05417642","imageIndex":13,"items":[{"name":"엠비씨휘트니스(MBC fitness)","tel":"02-303-0071","addr":"경기도 화성시 반월동 868번지 신영통현대타운 209동 804호","indutype":"레저업소 - 헬스클럽","category":"leisure"}]},{"lat":"37.22479798","long":"127.06411001","imageIndex":13,"items":[{"name":"육체발전소","tel":"031-203-2660","addr":"경기도 화성시 반월동 462번지 대경빌딩 3층","indutype":"레저업소 - 헬스클럽","category":"leisure"}]},{"lat":"37.236134261","long":"127.06160613","imageIndex":13,"items":[{"name":"째즈노래연습장","tel":"031-203-4382","addr":"경기도 화성시 반월동 28-1번지 4층","indutype":"레저업소 - 노 래 방","category":"leisure"}]},{"lat":"37.233771191","long":"127.06619075","imageIndex":13,"items":[{"name":"파라에스트라","tel":"","addr":"경기도 화성시 반월동 83번지 신우프라자 3층 305호","indutype":"레저업소 - 헬스클럽","category":"leisure"}]},{"lat":"37.231518649","long":"127.06610998","imageIndex":13,"items":[{"name":"파브노래연습장","tel":"031-202-7898","addr":"경기도 화성시 반월동 100-12번지","indutype":"레저업소 - 노 래 방","category":"leisure"}]},{"lat":"37.234293923","long":"127.06594327","imageIndex":13,"items":[{"name":"풀타임PC방","tel":"070-8633-0500","addr":"경기도 화성시 반월동 67-4번지 203,204호","indutype":"레저업소 - 기타레져업소","category":"leisure"}]},{"lat":"37.236467944","long":"127.06099785","imageIndex":13,"items":[{"name":"플존PC방","tel":"070-8889-6389","addr":"경기도 화성시 반월동 27-1번지 3층","indutype":"레저업소 - 기타레져업소","category":"leisure"}]},{"lat":"37.232996905","long":"127.06505195","imageIndex":13,"items":[{"name":"휘트니스&유","tel":"031-202-8682","addr":"경기도 화성시 반월동 88-4번지 토마토프라자 308,309,401호,402호","indutype":"레저업소 - 헬스클럽","category":"leisure"}]}]