[{"lat":"37.117367505","long":"126.79283646","items":[{"name":"(주)동구림","tel":"031-351-5900","addr":"경기도 화성시 우정읍 화수리 935-12번지","category":"건축자재 - 기타건축자재"}]},{"lat":"37.114229177","long":"126.7964455","items":[{"name":"(주)아워홈 근로복지공단 경기요양병원점","tel":"02-6966-9049","addr":"경기도 화성시 우정읍 화수리 40-17번지 경기요양병원","category":"일반휴게음식 - 위탁급식업"},{"name":"경기요양병원매점","tel":"031-111-1111","addr":"경기도 화성시 우정읍 화수리 40-17번지","category":"유통업 영리 - 슈퍼마켓"}]},{"lat":"37.113248288","long":"126.79716823","items":[{"name":"(주)아워홈 근로복지공단 경기케어센터점","tel":"02-6966-9285","addr":"경기도 화성시 우정읍 화수리 40-14번지","category":"일반휴게음식 - 위탁급식업"}]},{"lat":"37.107978004","long":"126.78750728","items":[{"name":"국제공조","tel":"031-111-1111","addr":"경기도 화성시 우정읍 화수리 511-5번지 1층 1호","category":"용역 서비스 - 기타용역서비스"}]},{"lat":"37.109417587","long":"126.80170127","items":[{"name":"만물상","tel":"031-1577-1215","addr":"경기도 화성시 우정읍 화수리 847-6번지","category":"신변잡화 - 기타잡화"},{"name":"화수상회","tel":"031-351-0014","addr":"경기도 화성시 우정읍 화수리 847-6번지","category":"음료식품 - 기타음료식품"}]},{"lat":"37.100838434","long":"126.79580689","items":[{"name":"아성특장","tel":"031-351-9895","addr":"경기도 화성시 우정읍 화수리 1019번지","category":"자동차판매 - 기타운송"}]},{"lat":"37.11344446","long":"126.78103371","items":[{"name":"예담","tel":"","addr":"경기도 화성시 우정읍 화수리 219-2번지","category":"의류 - 내의판매"}]},{"lat":"37.11200378","long":"126.79144492","items":[{"name":"용천수지","tel":"031-351-4749","addr":"경기도 화성시 우정읍 화수리 55-6번지","category":"유통업 영리 - 기타유통업"}]},{"lat":"37.107750434","long":"126.79633933","items":[{"name":"유라시스템","tel":"","addr":"경기도 화성시 우정읍 화수리 830번지","category":"사무통신 - 통신기기"}]},{"lat":"37.11438978","long":"126.78547516","items":[{"name":"콜(CALL)엘리베이터","tel":"031-353-4535","addr":"경기도 화성시 우정읍 화수리 122-3","category":"기타 - 기타 전문점"}]},{"lat":"37.112472685","long":"126.79164614","items":[{"name":"크린쇼핑","tel":"032-831-2023","addr":"경기도 화성시 우정읍 화수리 55-11번지 1동","category":"신변잡화 - 기타잡화"}]},{"lat":"37.108643918","long":"126.79716943","items":[{"name":"화성화수초등학교병설유치원[아이행복]","tel":"031-351-5280","addr":"경기도 화성시 우정읍 화수리 834-13번지","category":"학원 - 유치원"}]},{"lat":"37.112641056","long":"126.7951447","items":[{"name":"화수농원","tel":"031-351-2741","addr":"경기도 화성시 우정읍 화수리 43-7번지","category":"일반휴게음식 - 일반한식"}]}]