[{"lat":"37.175972943","long":"126.88504269","items":[{"name":"(주)금강이엔지","tel":"031-359-9983","addr":"경기도 화성시 팔탄면 율암리 산38번지 (제2동호)","category":"기타 - 기계공구"}]},{"lat":"37.170695731","long":"126.87904955","items":[{"name":"(주)나르샤푸드","tel":"031-8059-4668","addr":"경기도 화성시 팔탄면 율암리 134-23번지","category":"음료식품 - 기타음료식품"}]},{"lat":"37.177694076","long":"126.8851864","items":[{"name":"(주)대현전열","tel":"031-353-7500","addr":"경기도 화성시 팔탄면 율암리 74-15번지","category":"전기제품 - 냉열기기"},{"name":"범은엔지니어링","tel":"031-354-4404","addr":"경기도 화성시 팔탄면 율암리 74-15번지","category":"기타 - 기계공구"}]},{"lat":"37.16819171","long":"126.88890541","items":[{"name":"(주)복슨로하스","tel":"031-359-8872","addr":"경기도 화성시 팔탄면 율암리 483-26번지 114호","category":"회원제형태 - 기타4"},{"name":"소플러스","tel":"031-359-8443","addr":"경기도 화성시 팔탄면 율암리 483-26번지 106호,107호,113호","category":"일반휴게음식 - 일반한식"},{"name":"옷가게","tel":"031-352-1673","addr":"경기도 화성시 팔탄면 율암리 483-26번지 지하1층","category":"의류 - 정장"},{"name":"하피","tel":"000-1577-5757","addr":"경기도 화성시 팔탄면 율암리 483-26번지","category":"보건위생 - 이용원"},{"name":"하피당구클럽","tel":"031-663-0447","addr":"경기도 화성시 팔탄면 율암리 483-26번지 상가동 102호","category":"레저업소 - 당 구 장"},{"name":"하피블루","tel":"02-1577-5752","addr":"경기도 화성시 팔탄면 율암리 483-26번지 하피랜드 남탕내","category":"보건위생 - 기타대인서비스"},{"name":"힐링테라피","tel":"031-8059-8161","addr":"경기도 화성시 팔탄면 율암리 483-26번지 지하1층","category":"보건위생 - 피부미용실"}]},{"lat":"37.167776673","long":"126.87935831","items":[{"name":"(주)부흥엘티","tel":"031-353-8885","addr":"경기도 화성시 팔탄면 율암리 196-6번지 다동","category":"기타 - 기계공구"}]},{"lat":"37.165470239","long":"126.87121072","items":[{"name":"(주)에이치앤에스산업개발","tel":"031-352-1673","addr":"경기도 화성시 팔탄면 율암리 378-2번지","category":"건축자재 - 기타건축자재"}]},{"lat":"37.16128166","long":"126.8899065","items":[{"name":"(주)엠에스디자인건축","tel":"070-8739-6629","addr":"경기도 화성시 팔탄면 율암리 580-11번지 현대공구타운 401동 116호","category":"건축자재 - 인테리어전문"},{"name":"I. M. TECH","tel":"031-353-0696","addr":"경기도 화성시 팔탄면 율암리 580-11번지 발안현대공구타운 401동 111호","category":"기타 - 기계공구"},{"name":"극동산업기계","tel":"031-353-3905","addr":"경기도 화성시 팔탄면 율암리 580-11번지 발안현대공구타운 401동 123호","category":"기타 - 기계공구"},{"name":"한국종합상사","tel":"031-366-4099","addr":"경기도 화성시 팔탄면 율암리 580-10번지 발안현대공구타운 401동 120호","category":"기타 - 기계공구"}]},{"lat":"37.177773696","long":"126.88371114","items":[{"name":"(주)오공철강","tel":"031-434-0050","addr":"경기도 화성시 팔탄면 율암리 74-10","category":"건축자재 - 기타건축자재"},{"name":"제이엔에이치(JNH)","tel":"031-8059-8218","addr":"경기도 화성시 팔탄면 율암리 74-10번지","category":"기타 - 기계공구"}]},{"lat":"37.173107766","long":"126.88518226","items":[{"name":"(주)카페치올라","tel":"031-352-7848","addr":"경기도 화성시 팔탄면 율암리 103번지 1층","category":"음료식품 - 기타음료식품"},{"name":"치올라협동조합","tel":"031-8059-0252","addr":"경기도 화성시 팔탄면 율암리 103번지","category":"음료식품 - 기타음료식품"}]},{"lat":"37.153722667","long":"126.88157629","items":[{"name":"1959카페","tel":"","addr":"경기도 화성시 팔탄면 율암리 835-10번지 1층 103호","category":"일반휴게음식 - 서양음식"},{"name":"온천손세차장","tel":"02-1111-1111","addr":"경기도 화성시 팔탄면 율암리 835-10번지 101호","category":"자동차정비 유지 - 세차장"}]},{"lat":"37.153523814","long":"126.88096873","items":[{"name":"GS25율암온천점","tel":"","addr":"경기도 화성시 팔탄면 율암리 840번지","category":"유통업 영리 - 편 의 점"},{"name":"시골민물매운탕","tel":"031-353-5157","addr":"경기도 화성시 팔탄면 율암리 840번지","category":"일반휴게음식 - 일반한식"},{"name":"해피마트","tel":"031-352-2054","addr":"경기도 화성시 팔탄면 율암리 840번지","category":"유통업 영리 - 슈퍼마켓"}]},{"lat":"37.170548481","long":"126.87613358","items":[{"name":"GS25팔탄공단점","tel":"","addr":"경기도 화성시 팔탄면 율암리 398-58번지 106호","category":"유통업 영리 - 편 의 점"},{"name":"SUN SYSTEM","tel":"031-353-5019","addr":"경기도 화성시 팔탄면 율암리 398-58번지","category":"사무통신 - 컴퓨터"},{"name":"꼬꼬호프","tel":"031-352-0940","addr":"경기도 화성시 팔탄면 율암리 398-58번지 1층","category":"일반휴게음식 - 주점"},{"name":"다래노래연습장","tel":"031-352-8579","addr":"경기도 화성시 팔탄면 율암리 398-58번지 2층","category":"레저업소 - 노 래 방"},{"name":"다래스크린골프","tel":"031-353-9973","addr":"경기도 화성시 팔탄면 율암리 398-58번지 2동 3층","category":"회원제형태 - 레져업소"},{"name":"대박두루치기","tel":"031-000-0000","addr":"경기도 화성시 팔탄면 율암리 398-58번지 1동 1층","category":"일반휴게음식 - 일반한식"},{"name":"명성인테리어","tel":"031-354-5740","addr":"경기도 화성시 팔탄면 율암리 398-58번지","category":"건축자재 - 인테리어전문"},{"name":"소고기한근","tel":"031-3532-9219","addr":"경기도 화성시 팔탄면 율암리 398-58번지 1층","category":"일반휴게음식 - 일반한식"},{"name":"예담한식부페","tel":"031-359-9598","addr":"경기도 화성시 팔탄면 율암리 398-58번지","category":"일반휴게음식 - 일반한식"},{"name":"지리산흑도야지","tel":"031-352-9667","addr":"경기도 화성시 팔탄면 율암리 398-58번지 105,106호","category":"일반휴게음식 - 일반한식"}]},{"lat":"37.176581881","long":"126.8728242","items":[{"name":"K. C ENT","tel":"031-352-7960","addr":"경기도 화성시 팔탄면 율암리 38-14","category":"기타 - 기계공구"}]},{"lat":"37.176357935","long":"126.88259859","items":[{"name":"KTT TECH (케이티티 테크)","tel":"031-8047-0307","addr":"경기도 화성시 팔탄면 율암리 88-1번지 1층","category":"기타 - 기계공구"}]},{"lat":"37.161525903","long":"126.89091937","items":[{"name":"OK닥트공사","tel":"031-354-9906","addr":"경기도 화성시 팔탄면 율암리 580-14번지 발안현대공구타운 502동 110호","category":"건축자재 - 기타건축자재"},{"name":"광진종합상사","tel":"031-366-1358","addr":"경기도 화성시 팔탄면 율암리 580-14번지 발안현대공구타운 502동 113호","category":"의류 - 기타의류"},{"name":"대양전열","tel":"031-359-8880","addr":"경기도 화성시 팔탄면 율암리 580-14번지 발안현대공구타운 502동 132호","category":"전기제품 - 냉열기기"},{"name":"삼화화공약품","tel":"031-354-2660","addr":"경기도 화성시 팔탄면 율암리 580-14번지 발안현대공구타운 502동 106호","category":"기타 - 기타 전문점"},{"name":"오토기전","tel":"031-366-0588","addr":"경기도 화성시 팔탄면 율암리 580-14번지 현대공구상가 502동 101호","category":"기타 - 기계공구"},{"name":"유성특수강","tel":"031-366-1247","addr":"경기도 화성시 팔탄면 율암리 580-14번지 발안현대공구타운 502동 118호","category":"건축자재 - 기타건축자재"},{"name":"은성배관종합공구","tel":"031-354-1016","addr":"경기도 화성시 팔탄면 율암리 580-14번지 공구타운 502동 102호","category":"건축자재 - 기타건축자재"},{"name":"준테크","tel":"031-353-6826","addr":"경기도 화성시 팔탄면 율암리 580-14번지 발안현대공구타운 502동 131호","category":"기타 - 기계공구"},{"name":"지승용재산업","tel":"031-366-4807","addr":"경기도 화성시 팔탄면 율암리 580-14번지 발안현대공구타운 502동 115-116호","category":"기타 - 기계공구"},{"name":"코렌자동제어","tel":"031-354-7848","addr":"경기도 화성시 팔탄면 율암리 580-14번지 발안현대공구타운 502동 지층 124호","category":"전기제품 - 기타전기제품"},{"name":"한신유공압","tel":"031-359-9692","addr":"경기도 화성시 팔탄면 율암리 580-14번지 발안공구타운 502동 105호","category":"기타 - 기타 전문점"},{"name":"현대상사","tel":"070-8800-4078","addr":"경기도 화성시 팔탄면 율암리 580-14번지 현대공구타운 502동 102호","category":"자동차정비 유지 - 자동차부품"}]},{"lat":"37.167888954","long":"126.88341141","items":[{"name":"가고파한식뷔페","tel":"031-354-5379","addr":"경기도 화성시 팔탄면 율암리 177-12번지","category":"일반휴게음식 - 일반한식"},{"name":"동국상사","tel":"031-8059-5686","addr":"경기도 화성시 팔탄면 율암리 177-12","category":"자동차정비 유지 - 윤활유 전문 판매"},{"name":"미니스톱화성율암점","tel":"031-352-2454","addr":"경기도 화성시 팔탄면 율암리 177-12번지 110호","category":"유통업 영리 - 편 의 점"},{"name":"소정원","tel":"031-8059-0890","addr":"경기도 화성시 팔탄면 율암리 177-12번지 104호","category":"일반휴게음식 - 일반한식"}]},{"lat":"37.166914504","long":"126.8821069","items":[{"name":"가보자쌈밥","tel":"031-353-5423","addr":"경기도 화성시 팔탄면 율암리 481-1","category":"일반휴게음식 - 일반한식"},{"name":"성지종합상사","tel":"031-353-5421","addr":"경기도 화성시 팔탄면 율암리 481-1번지","category":"기타 - 기타 전문점"},{"name":"썬노래연습장","tel":"031-366-3070","addr":"경기도 화성시 팔탄면 율암리 481-1번지","category":"레저업소 - 노 래 방"},{"name":"일품양평해장국","tel":"031-353-9583","addr":"경기도 화성시 팔탄면 율암리 481-1번지 1층 102호","category":"일반휴게음식 - 일반한식"},{"name":"중남해","tel":"031-353-9123","addr":"경기도 화성시 팔탄면 율암리 481-1번지 2층","category":"일반휴게음식 - 일반한식"},{"name":"청풍건재철물","tel":"031-353-4606","addr":"경기도 화성시 팔탄면 율암리 481-1번지","category":"기타 - 기계공구"}]},{"lat":"37.17424677","long":"126.87154455","items":[{"name":"경기세하냉동","tel":"031-353-4006","addr":"경기도 화성시 팔탄면 율암리 242-5번지 원진빌딩 가동 101호","category":"전기제품 - 냉열기기"},{"name":"미니스톱 화성시청로점","tel":"031-1577-9621","addr":"경기도 화성시 팔탄면 율암리 242-5번지 가동 103호","category":"유통업 영리 - 편 의 점"},{"name":"선일정밀","tel":"031-353-3406","addr":"경기도 화성시 팔탄면 율암리 242-5번지 나동 101호","category":"기타 - 기계공구"},{"name":"푸르내산펌프","tel":"031-353-3964","addr":"경기도 화성시 팔탄면 율암리 242-5번지 나동 103호","category":"건축자재 - 보일러·펌프·샷시"}]},{"lat":"37.172964867","long":"126.8864661","items":[{"name":"경도트레이","tel":"","addr":"경기도 화성시 팔탄면 율암리 99-11번지","category":"전기제품 - 기타전기제품"}]},{"lat":"37.170260413","long":"126.87638177","items":[{"name":"고려바퀴프로파일","tel":"031-8059-0925","addr":"경기도 화성시 팔탄면 율암리 398-73번지 녹원상가 1동","category":"기타 - 기타 전문점"},{"name":"별밤지기","tel":"031-354-1138","addr":"경기도 화성시 팔탄면 율암리 398-73번지 녹원상가 1동 2층","category":"일반휴게음식 - 주점"},{"name":"신진양금속","tel":"031-354-7721","addr":"경기도 화성시 팔탄면 율암리 398-73 1동 105호","category":"기타 - 기계공구"}]},{"lat":"37.166634491","long":"126.88143181","items":[{"name":"고향솥단지삼겹살","tel":"031-353-3408","addr":"경기도 화성시 팔탄면 율암리 481-5번지 1층","category":"일반휴게음식 - 일반한식"},{"name":"스타모터스","tel":"031-354-3004","addr":"경기도 화성시 팔탄면 율암리 481-5번지","category":"자동차정비 유지 - 자동차정비"},{"name":"약손","tel":"031-352-7608","addr":"경기도 화성시 팔탄면 율암리 481-5번지 3층 303호","category":"보건위생 - 피부미용실"},{"name":"유순관미용실","tel":"031-355-4759","addr":"경기도 화성시 팔탄면 율암리 481-5번지 율암빌딩 202호","category":"보건위생 - 미용원"},{"name":"율암당구장","tel":"031-354-5328","addr":"경기도 화성시 팔탄면 율암리 481-5번지 301호","category":"레저업소 - 당 구 장"}]},{"lat":"37.176580715","long":"126.87176572","items":[{"name":"공간21C","tel":"031-354-3123","addr":"경기도 화성시 팔탄면 율암리 252-1번지 외 1필지","category":"건축자재 - 보일러·펌프·샷시"}]},{"lat":"37.174021085","long":"126.8711621","items":[{"name":"과천토종닭","tel":"031-353-0808","addr":"경기도 화성시 팔탄면 율암리 242-2","category":"음료식품 - 정육점"}]},{"lat":"37.161093498","long":"126.89102133","items":[{"name":"광고기획친구","tel":"031-366-6579","addr":"경기도 화성시 팔탄면 율암리 580-15번지 발안현대공구타운 503동 201-2호","category":"용역 서비스 - 종합용역"},{"name":"대광쪼인트","tel":"031-354-6770","addr":"경기도 화성시 팔탄면 율암리 580-15번지 발안현대공구타운 503동 105호","category":"기타 - 기계공구"}]},{"lat":"37.174498912","long":"126.871409","items":[{"name":"광명톱초경","tel":"031-8059-1826","addr":"경기도 화성시 팔탄면 율암리 242-4","category":"기타 - 기계공구"}]},{"lat":"37.178243319","long":"126.88479143","items":[{"name":"광신스틸주식회사","tel":"031-354-2600","addr":"경기도 화성시 팔탄면 율암리 74-14번지","category":"건축자재 - 기타건축자재"}]},{"lat":"37.169945168","long":"126.87649488","items":[{"name":"국민종합볼트","tel":"031-353-3140","addr":"경기도 화성시 팔탄면 율암리 398-73번지","category":"기타 - 기계공구"},{"name":"삼한용접기","tel":"031-8059-1844","addr":"경기도 화성시 팔탄면 율암리 398-73번지 녹원상가 105호","category":"기타 - 기계공구"},{"name":"정일공구","tel":"031-223-0933","addr":"경기도 화성시 팔탄면 율암리 398-73번지 녹원상가 2동 상가 1층","category":"건축자재 - 목재·석재·철물"}]},{"lat":"37.162174377","long":"126.8906257","items":[{"name":"그린유공압기계","tel":"031-366-3119","addr":"경기도 화성시 팔탄면 율암리 580-3번지 발안현대공구타운 102동 114호","category":"기타 - 기계공구"},{"name":"대한체인베아링","tel":"031-354-5587","addr":"경기도 화성시 팔탄면 율암리 580-3번지 발안현대공구타운 102동 115호","category":"기타 - 기계공구"},{"name":"왕림테크","tel":"031-352-1079","addr":"경기도 화성시 팔탄면 율암리 580-4번지 발안현대공구타운 102동 117호","category":"기타 - 기계공구"},{"name":"이레토탈엔지니어링","tel":"031-354-5898","addr":"경기도 화성시 팔탄면 율암리 580-3번지 발안현대공구타운 102동 125호","category":"기타 - 기계공구"}]},{"lat":"37.165995659","long":"126.88232228","items":[{"name":"그린하이팜","tel":"031-353-8418","addr":"경기도 화성시 팔탄면 율암리 483-1번지","category":"농업 - 농기계"}]},{"lat":"37.161263316","long":"126.88956878","items":[{"name":"극동호이스트","tel":"031-366-2179","addr":"경기도 화성시 팔탄면 율암리 580-10번지 발안현대공구타운 302동 106호","category":"기타 - 기계공구"},{"name":"두성이엔지주식회사","tel":"031-366-4385","addr":"경기도 화성시 팔탄면 율암리 580-10번지 발안현대공구타운 302동 108호","category":"전기제품 - 기타전기제품"},{"name":"이지카이로","tel":"031-351-9521","addr":"경기도 화성시 팔탄면 율암리 580-10번지 발안현대공구타운 302동 1층 117호","category":"보건위생 - 의료용품"},{"name":"프로싸인","tel":"031-352-8758","addr":"경기도 화성시 팔탄면 율암리 580-10번지 발안현대공구타운 302동 111호","category":"용역 서비스 - 종합용역"},{"name":"피크로니","tel":"031-111-1111","addr":"경기도 화성시 팔탄면 율암리 580-10번지 발안현대공구타운 302동 107호","category":"신변잡화 - 기타잡화"},{"name":"현주상사","tel":"031-366-3518","addr":"경기도 화성시 팔탄면 율암리 580-10번지 발안현대공구타운 302동 110호","category":"기타 - 기계공구"}]},{"lat":"37.156748396","long":"126.88885504","items":[{"name":"금강T&C","tel":"","addr":"경기도 화성시 팔탄면 율암리 752-6번지","category":"자동차정비 유지 - 자동차부품"}]},{"lat":"37.161444522","long":"126.89061552","items":[{"name":"금성모타전기","tel":"031-000-0000","addr":"경기도 화성시 팔탄면 율암리 580-13번지 발안현대공구타운 501동 106호","category":"기타 - 기계공구"},{"name":"디엔에프(DNF)","tel":"070-4151-2220","addr":"경기도 화성시 팔탄면 율암리 580-13번지 발안현대공구타운 501동 127호","category":"기타 - 기계공구"},{"name":"명성공구","tel":"031-354-2868","addr":"경기도 화성시 팔탄면 율암리 580-13번지 발안현대공구타운 501동 111호","category":"기타 - 기계공구"},{"name":"이편한자재","tel":"031-354-9775","addr":"경기도 화성시 팔탄면 율암리 580-13번지 현대공구타운 501동 112호","category":"건축자재 - 기타건축자재"},{"name":"정원종합상사","tel":"031-406-5849","addr":"경기도 화성시 팔탄면 율암리 580-13번지 발안현대공구타운 501동 103호","category":"기타 - 기계공구"},{"name":"현대마트","tel":"","addr":"경기도 화성시 팔탄면 율암리 580-13번지 발안현대공구타운 501동 116호","category":"유통업 영리 - 슈퍼마켓"},{"name":"현대뿌리","tel":"031-352-8242","addr":"경기도 화성시 팔탄면 율암리 580-13번지 발안현대공구타운 501동 120호","category":"건축자재 - 기타건축자재"}]},{"lat":"37.161867155","long":"126.88971424","items":[{"name":"금현종합건설","tel":"031-352-5628","addr":"경기도 화성시 팔탄면 율암리 580-7번지 발안현대공구타운 202동 102호","category":"기타 - 기계공구"},{"name":"대경종합공구","tel":"031-8059-2802","addr":"경기도 화성시 팔탄면 율암리 580-7번지 공구타운 202동 지층 114호","category":"기타 - 기계공구"},{"name":"대연랩테크","tel":"031-366-3965","addr":"경기도 화성시 팔탄면 율암리 580-7번지 발안현대공구타운 202동 104호","category":"서적문구 - 과학기자재"},{"name":"대한종합상사","tel":"031-366-3480","addr":"경기도 화성시 팔탄면 율암리 580-7번지 현대공구타운 202동 112호","category":"신변잡화 - 기타잡화"},{"name":"서우전자","tel":"031-366-4508","addr":"경기도 화성시 팔탄면 율암리 580-7번지 발안현대공구타운 202동 112호","category":"전기제품 - 기타전기제품"},{"name":"제이디(JD)테크","tel":"031-352-0308","addr":"경기도 화성시 팔탄면 율암리 580-7번지 발안현대공구타운 202동 107호","category":"신변잡화 - 기타잡화"}]},{"lat":"37.176639332","long":"126.8846588","items":[{"name":"기사님식당","tel":"031-352-2290","addr":"경기도 화성시 팔탄면 율암리 97번지 A","category":"일반휴게음식 - 일반한식"},{"name":"현대로링","tel":"031-8059-7945","addr":"경기도 화성시 팔탄면 율암리 97번지 B","category":"건축자재 - 기타건축자재"}]},{"lat":"37.16231881","long":"126.89090694","items":[{"name":"기선와이어컷팅","tel":"031-352-9891","addr":"경기도 화성시 팔탄면 율암리 580-3번지 발안현대공구타운 101동 지층 127호","category":"용역 서비스 - 기타용역서비스"},{"name":"대광나이프","tel":"031-366-0192","addr":"경기도 화성시 팔탄면 율암리 580-3번지 발안현대공구타운 101동 122호","category":"기타 - 기계공구"},{"name":"대성상사","tel":"031-366-0589","addr":"경기도 화성시 팔탄면 율암리 580-3번지 발안현대공구타운 101동 118호","category":"의류 - 단체복"},{"name":"대희산업벨트","tel":"031-8059-0908","addr":"경기도 화성시 팔탄면 율암리 580-11 발안현대공구타운 101-113","category":"기타 - 기타 전문점"},{"name":"모터피아","tel":"031-366-9250","addr":"경기도 화성시 팔탄면 율암리 580-3번지 발안현대공구타운 101동 117호","category":"건축자재 - 보일러·펌프·샷시"},{"name":"박인배관","tel":"031-8059-0945","addr":"경기도 화성시 팔탄면 율암리 580-3번지 발안현대공구타운 101동 123호","category":"건축자재 - 기타건축자재"},{"name":"서린용접기","tel":"031-353-0273","addr":"경기도 화성시 팔탄면 율암리 580-3번지 발안현대공구타운 101동 130호","category":"기타 - 기계공구"},{"name":"서호산업","tel":"031-366-4006","addr":"경기도 화성시 팔탄면 율암리 580-3번지 발안현대공구타운 101동 109호","category":"기타 - 기계공구"},{"name":"수아볼트","tel":"031-366-2621","addr":"경기도 화성시 팔탄면 율암리 580-3번지 발안현대공구타운 101동 115호","category":"기타 - 기계공구"},{"name":"오에스","tel":"031-352-9912","addr":"경기도 화성시 팔탄면 율암리 580-3번지 발안현대공구타운 101동 106호","category":"사무통신 - 사무용 OA기기"},{"name":"유진카오디오","tel":"031-238-2848","addr":"경기도 화성시 팔탄면 율암리 580-3번지 발안현대공구타운 101동 1층 107호","category":"자동차정비 유지 - 자동차부품"},{"name":"조영웰 용접재료","tel":"031-359-9838","addr":"경기도 화성시 팔탄면 율암리 580-3번지 발안현대공구타운 101동 108호","category":"기타 - 기계공구"},{"name":"조은명판","tel":"031-353-8123","addr":"경기도 화성시 팔탄면 율암리 580-3번지 발안현대공구타운 101동 103호","category":"건축자재 - 목재·석재·철물"},{"name":"주식회사 정광툴링화성","tel":"070-4402-0080","addr":"경기도 화성시 팔탄면 율암리 580-3번지 발안현대공구타운 101동 116호","category":"기타 - 기계공구"},{"name":"지에이테크","tel":"031-352-6466","addr":"경기도 화성시 팔탄면 율암리 580-3번지 발안현대공구타운 101동 125호","category":"기타 - 기계공구"},{"name":"평선호이스트(화성점)","tel":"031-8059-3415","addr":"경기도 화성시 팔탄면 율암리 580-3번지 발안현대공구타운 101동 101호","category":"기타 - 기계공구"},{"name":"화성사무기","tel":"031-366-0635","addr":"경기도 화성시 팔탄면 율암리 580-3번지 발안현대공구타운 101동 120호","category":"사무통신 - 사무용 OA기기"},{"name":"화성자석총판","tel":"031-352-2880","addr":"경기도 화성시 팔탄면 율암리 580-3번지 발안현대공구타운 101동 112호","category":"신변잡화 - 기타잡화"}]},{"lat":"37.162002891","long":"126.89032198","items":[{"name":"기성정밀","tel":"070-4136-9387","addr":"경기도 화성시 팔탄면 율암리 580-5번지","category":"기타 - 기계공구"}]},{"lat":"37.167802561","long":"126.87826613","items":[{"name":"꿈에어린이집[아이행복]","tel":"031-352-1694","addr":"경기도 화성시 팔탄면 율암리 398-17번지","category":"학원 - 유아원"}]},{"lat":"37.168106872","long":"126.88507742","items":[{"name":"네비게이션블랙박스판매AS센터 SF 팔탄점","tel":"031-354-0155","addr":"경기도 화성시 팔탄면 율암리 483-61번지 1층","category":"자동차정비 유지 - 자동차부품"}]},{"lat":"37.169001432","long":"126.87040518","items":[{"name":"누리팜","tel":"031-253-8979","addr":"경기도 화성시 팔탄면 율암리 313-1번지","category":"음료식품 - 농·축·수산품"}]},{"lat":"37.167717084","long":"126.88274739","items":[{"name":"다인광고기획","tel":"031-352-5233","addr":"경기도 화성시 팔탄면 율암리 177-11번지 B동 106호","category":"건축자재 - 인테리어전문"},{"name":"라면그리고불고기","tel":"031-366-2508","addr":"경기도 화성시 팔탄면 율암리 177-11번지 B동 1층 110호","category":"일반휴게음식 - 스넥"},{"name":"미래베어링","tel":"031-354-5445","addr":"경기도 화성시 팔탄면 율암리 177-11번지 1층 104호","category":"기타 - 기계공구"},{"name":"오비탈","tel":"031-354-4520","addr":"경기도 화성시 팔탄면 율암리 177-11번지 1(02호103호)","category":"사무통신 - 기타 사무용품"},{"name":"하명숯불생선구이","tel":"031-366-9282","addr":"경기도 화성시 팔탄면 율암리 177-11번지 1층 102호, 103호","category":"일반휴게음식 - 일반한식"},{"name":"해피홈","tel":"031-354-9992","addr":"경기도 화성시 팔탄면 율암리 177-11번지 가동 1층","category":"일반휴게음식 - 서양음식"}]},{"lat":"37.16971892","long":"126.87557199","items":[{"name":"대국기계","tel":"031-353-0708","addr":"경기도 화성시 팔탄면 율암리 398-1번지","category":"자동차정비 유지 - 자동차부품"}]},{"lat":"37.164137234","long":"126.8801073","items":[{"name":"대명콘텍(주)","tel":"031-352-8801","addr":"경기도 화성시 팔탄면 율암리 428-7번지","category":"건축자재 - 기타건축자재"}]},{"lat":"37.153860242","long":"126.88396257","items":[{"name":"대박한식부페","tel":"031-353-9925","addr":"경기도 화성시 팔탄면 율암리 842-18번지 1층","category":"일반휴게음식 - 일반한식"}]},{"lat":"37.174382871","long":"126.88085641","items":[{"name":"대성케미칼(주)","tel":"031-111-1111","addr":"경기도 화성시 팔탄면 율암리 84-9번지","category":"건축자재 - 페인트"},{"name":"티엘이엔지주식회사","tel":"031-354-2691","addr":"경기도 화성시 팔탄면 율암리 84-9","category":"기타 - 기계공구"}]},{"lat":"37.173298308","long":"126.88652189","items":[{"name":"대영테크","tel":"031-352-6684","addr":"경기도 화성시 팔탄면 율암리 99번지","category":"기타 - 기계공구"}]},{"lat":"37.173831143","long":"126.88777093","items":[{"name":"대웅철강(주)","tel":"031-8059-6580","addr":"경기도 화성시 팔탄면 율암리 98-17","category":"건축자재 - 기타건축자재"}]},{"lat":"37.174305219","long":"126.88424581","items":[{"name":"대진방화문","tel":"031-359-8877","addr":"경기도 화성시 팔탄면 율암리 91-17,91-22","category":"건축자재 - 기타건축자재"}]},{"lat":"37.171888888","long":"126.86609893","items":[{"name":"대한불교유가종","tel":"031-353-9618","addr":"경기도 화성시 팔탄면 율암리 267-1번지","category":"신변잡화 - 기념품점"}]},{"lat":"37.170135034","long":"126.87710258","items":[{"name":"대한전기공사재료","tel":"031-355-0472","addr":"경기도 화성시 팔탄면 율암리 199번지 1동 105호","category":"전기제품 - 기타전기제품"},{"name":"삼성철물상사","tel":"031-354-4008","addr":"경기도 화성시 팔탄면 율암리 199번지","category":"건축자재 - 목재·석재·철물"},{"name":"삼원합판목재","tel":"031-359-9335","addr":"경기도 화성시 팔탄면 율암리 199","category":"건축자재 - 기타건축자재"},{"name":"토탈C&G","tel":"031-354-0925","addr":"경기도 화성시 팔탄면 율암리 199번지","category":"직물 - 기타직물"},{"name":"토탈솔루션","tel":"","addr":"경기도 화성시 팔탄면 율암리 199번지 1동 103호","category":"기타 - 기계공구"}]},{"lat":"37.161469789","long":"126.88876914","items":[{"name":"대한환경약품","tel":"031-353-6902","addr":"경기도 화성시 팔탄면 율암리 580-9번지 발안현대공구타운 301동 106호","category":"서적문구 - 과학기자재"},{"name":"태영테크","tel":"031-354-9357","addr":"경기도 화성시 팔탄면 율암리 580-9번지 발안현대공구타운 301동 112호","category":"전기제품 - 기타전기제품"},{"name":"호원글로벌","tel":"031-366-6763","addr":"경기도 화성시 팔탄면 율암리 580-9번지 발안현대공구타운 301동 105호","category":"기타 - 기계공구"}]},{"lat":"37.167827624","long":"126.87640834","items":[{"name":"동산루브텍","tel":"","addr":"경기도 화성시 팔탄면 율암리 396-12번지 2층","category":"자동차정비 유지 - 윤활유 전문 판매"},{"name":"한길윤활유","tel":"031-469-6561","addr":"경기도 화성시 팔탄면 율암리 396-12번지","category":"자동차정비 유지 - 윤활유 전문 판매"}]},{"lat":"37.161984559","long":"126.88999552","items":[{"name":"동성정공","tel":"031-366-0923","addr":"경기도 화성시 팔탄면 율암리 580-6번지 발안현대공구타운 201동 125호","category":"기타 - 기계공구"},{"name":"성도전기건설","tel":"031-8059-5693","addr":"경기도 화성시 팔탄면 율암리 580-6번지 발안현대공구타운 201동 103호","category":"전기제품 - 기타전기제품"},{"name":"영진기계","tel":"031-8059-8107","addr":"경기도 화성시 팔탄면 율암리 580-6번지 발안현대공구타운 201동 119호","category":"기타 - 기계공구"},{"name":"이지솔루션","tel":"031-359-9447","addr":"경기도 화성시 팔탄면 율암리 580-6번지 발안현대공구타운 201동 102호","category":"사무통신 - 사무용 OA기기"},{"name":"준케이(JUN-K)","tel":"031-211-4425","addr":"경기도 화성시 팔탄면 율암리 580-6번지 현대공구타운 201동 115호","category":"기타 - 기계공구"},{"name":"호야car카센타","tel":"031-352-7455","addr":"경기도 화성시 팔탄면 율암리 580-6번지 발안현대공구타운 201동 106호","category":"자동차정비 유지 - 자동차정비"}]},{"lat":"37.161372075","long":"126.89023285","items":[{"name":"동아스프링","tel":"031-352-6042","addr":"경기도 화성시 팔탄면 율암리 580-12 발안현대공구타운 402-102","category":"기타 - 기계공구"},{"name":"성진기계","tel":"031-366-1827","addr":"경기도 화성시 팔탄면 율암리 580-12번지 발안현대공구타운 402동 128호","category":"기타 - 기계공구"},{"name":"신환명판사","tel":"031-353-2743","addr":"경기도 화성시 팔탄면 율암리 580-3번지 외1필지발안현대공구타운 402동 123호","category":"서적문구 - 출판 및 인쇄물"},{"name":"에스지 CNC&ROBOT","tel":"031-000-0000","addr":"경기도 화성시 팔탄면 율암리 580-12번지 발안현대공구타운 402동 지층 121호","category":"기타 - 기계공구"},{"name":"지성기계","tel":"031-354-8567","addr":"경기도 화성시 팔탄면 율암리 580-12번지 현대공구타운 402동 122호","category":"기타 - 기계공구"},{"name":"케이엠산업(KM산업)","tel":"031-8059-3222","addr":"경기도 화성시 팔탄면 율암리 580-3 발안현대공구타운 402-119","category":"기타 - 기계공구"},{"name":"태성이엔지","tel":"031-352-9329","addr":"경기도 화성시 팔탄면 율암리 580-12번지 발안현대공구타운 402동 120호","category":"기타 - 기계공구"},{"name":"힐링디저트숍","tel":"031-000-0000","addr":"경기도 화성시 팔탄면 율암리 580-12번지 발안현대공구타운 402동 1층 116호","category":"음료식품 - 기타음료식품"}]},{"lat":"37.171217379","long":"126.87813667","items":[{"name":"동양기업","tel":"031-291-8180","addr":"경기도 화성시 팔탄면 율암리 133-1,133-2,133-3","category":"기타 - 기타 전문점"}]},{"lat":"37.170468216","long":"126.87691062","items":[{"name":"동진포장공구","tel":"031-352-6531","addr":"경기도 화성시 팔탄면 율암리 199-1번지","category":"유통업 영리 - 기타유통업"},{"name":"동진포장공구","tel":"031-352-6531","addr":"경기도 화성시 팔탄면 율암리 199-1번지 1층","category":"기타 - 기계공구"},{"name":"화성행궁","tel":"031-354-7966","addr":"경기도 화성시 팔탄면 율암리 199-1번지","category":"일반휴게음식 - 중국식"}]},{"lat":"37.154862695","long":"126.88626872","items":[{"name":"두산아이브이(주)","tel":"031-352-0475","addr":"경기도 화성시 팔탄면 율암리 781번지 1층","category":"기타 - 기계공구"}]},{"lat":"37.160639729","long":"126.88763333","items":[{"name":"디에스이","tel":"070-4644-1469","addr":"경기도 화성시 팔탄면 율암리 597-1번지","category":"기타 - 기계공구"}]},{"lat":"37.171723236","long":"126.87935188","items":[{"name":"로드트립캠핑(Road Trip Camping)","tel":"031-353-0178","addr":"경기도 화성시 팔탄면 율암리 134-45번지","category":"레져용품 - 스포츠·레져용품"}]},{"lat":"37.170884321","long":"126.88734754","items":[{"name":"로얄앤컴퍼니주식회사","tel":"031-354-8115","addr":"경기도 화성시 팔탄면 율암리 154-2번지 1층","category":"건축자재 - 건축용 요업제품"}]},{"lat":"37.173278729","long":"126.88494553","items":[{"name":"만나한식뷔페","tel":"031-353-0650","addr":"경기도 화성시 팔탄면 율암리 104번지 1동 1층","category":"일반휴게음식 - 일반한식"}]},{"lat":"37.168912143","long":"126.86326696","items":[{"name":"만석한식부페","tel":"031-353-9599","addr":"경기도 화성시 팔탄면 율암리 357-4번지 1층","category":"일반휴게음식 - 일반한식"}]},{"lat":"37.166471597","long":"126.88074528","items":[{"name":"맛있는 커피가","tel":"070-2353-7276","addr":"경기도 화성시 팔탄면 율암리 483-14번지","category":"일반휴게음식 - 서양음식"},{"name":"아이나비 팔탄점","tel":"031-353-4854","addr":"경기도 화성시 팔탄면 율암리 483-14번지 102동 103호","category":"자동차정비 유지 - 자동차부품"},{"name":"율암치킨","tel":"031-352-9234","addr":"경기도 화성시 팔탄면 율암리 483-14번지 1층 101호","category":"일반휴게음식 - 주점"},{"name":"진주","tel":"070-9144-1839","addr":"경기도 화성시 팔탄면 율암리 483-14번지 210호","category":"보건위생 - 미용재료"},{"name":"혜화동돈까스","tel":"031-8059-3773","addr":"경기도 화성시 팔탄면 율암리 483-14번지","category":"일반휴게음식 - 일반한식"}]},{"lat":"37.169215972","long":"126.8771041","items":[{"name":"명소","tel":"000-000-0000","addr":"경기도 화성시 팔탄면 율암리 398-55번지 A동 102호","category":"일반휴게음식 - 중국식"},{"name":"씨유화성율암점","tel":"031-8047-6235","addr":"경기도 화성시 팔탄면 율암리 398-55번지 104, 105호","category":"유통업 영리 - 편 의 점"},{"name":"영선종합공사","tel":"031-8059-0382","addr":"경기도 화성시 팔탄면 율암리 398-55번지 110호","category":"직물 - 카페트,커튼,천막,지물"},{"name":"태영알곤레이져용접","tel":"031-8059-8921","addr":"경기도 화성시 팔탄면 율암리 398-55번지 A동 103호","category":"건축자재 - 기타건축자재"},{"name":"한일레이저조각","tel":"031-8059-1055","addr":"경기도 화성시 팔탄면 율암리 398-55번지 외1필지, A-108","category":"기타 - 기계공구"},{"name":"화성뿌리","tel":"031-366-4564","addr":"경기도 화성시 팔탄면 율암리 398-55번지 (율암리398-55,56)","category":"기타 - 기계공구"}]},{"lat":"37.175719345","long":"126.88373689","items":[{"name":"명인푸드","tel":"031-366-4685","addr":"경기도 화성시 팔탄면 율암리 90번지","category":"일반휴게음식 - 일반한식"}]},{"lat":"37.16113855","long":"126.89102126","items":[{"name":"미래씰링시스템","tel":"031-366-5166","addr":"경기도 화성시 팔탄면 율암리 580-15번지 발안현대공구타운 503동 B101-1호","category":"기타 - 기계공구"}]},{"lat":"37.169329526","long":"126.88232825","items":[{"name":"미성르호봇","tel":"031-352-1964","addr":"경기도 화성시 팔탄면 율암리 163번지 163호","category":"건축자재 - 기타건축자재"}]},{"lat":"37.175548789","long":"126.87568607","items":[{"name":"미소","tel":"070-8862-7700","addr":"경기도 화성시 팔탄면 율암리 52-35번지 가동 1층","category":"일반휴게음식 - 일반한식"},{"name":"큰손한식뷔페","tel":"031-353-9037","addr":"경기도 화성시 팔탄면 율암리 52-35번지 1층","category":"일반휴게음식 - 일반한식"}]},{"lat":"37.173993615","long":"126.87076805","items":[{"name":"박은자맛사랑화성팔탄점","tel":"031-354-7850","addr":"경기도 화성시 팔탄면 율암리 280-1번지","category":"일반휴게음식 - 일반한식"}]},{"lat":"37.161137127","long":"126.88952394","items":[{"name":"반도호이스트","tel":"031-8059-2301","addr":"경기도 화성시 팔탄면 율암리 580-10번지","category":"자동차판매 - 기타운송"}]},{"lat":"37.168773333","long":"126.87604647","items":[{"name":"밥향기푸드","tel":"","addr":"경기도 화성시 팔탄면 율암리 396-14번지 1층 4동","category":"일반휴게음식 - 일반한식"}]},{"lat":"37.166273101","long":"126.88048664","items":[{"name":"백가원짬뽕","tel":"031-353-7117","addr":"경기도 화성시 팔탄면 율암리 474-25번지","category":"일반휴게음식 - 중국식"},{"name":"씨유화성율암삼거리점","tel":"031-898-6568","addr":"경기도 화성시 팔탄면 율암리 474-25번지","category":"유통업 영리 - 편 의 점"},{"name":"오봉도시락(화성팔탄점)","tel":"031-353-8039","addr":"경기도 화성시 팔탄면 율암리 474-25번지 1층 일부","category":"일반휴게음식 - 일반한식"},{"name":"정찬맛상","tel":"031-8059-0347","addr":"경기도 화성시 팔탄면 율암리 474-25번지 1층일부","category":"일반휴게음식 - 일반한식"}]},{"lat":"37.178247533","long":"126.8800732","items":[{"name":"부광엠텍","tel":"031-446-4821","addr":"경기도 화성시 팔탄면 율암리 65-19번지","category":"자동차정비 유지 - 자동차부품"}]},{"lat":"37.176936698","long":"126.88468086","items":[{"name":"삼남벤딩","tel":"031-354-8425","addr":"경기도 화성시 팔탄면 율암리 97-13번지","category":"기타 - 기계공구"}]},{"lat":"37.16221977","long":"126.8909859","items":[{"name":"삼정물산","tel":"031-354-5798","addr":"경기도 화성시 팔탄면 율암리 580-3번지 현대발안공구타운 302동 125호","category":"기타 - 기타 전문점"},{"name":"신영엔진","tel":"031-8047-0077","addr":"경기도 화성시 팔탄면 율암리 580-3번지 501동 123호,124호,126호","category":"기타 - 기계공구"}]},{"lat":"37.179500527","long":"126.88060044","items":[{"name":"삼진콘베어","tel":"02-805-5101","addr":"경기도 화성시 팔탄면 율암리 65-9번지","category":"기타 - 기계공구"}]},{"lat":"37.175773668","long":"126.88399579","items":[{"name":"상지방전","tel":"031-0000-0000","addr":"경기도 화성시 팔탄면 율암리 91번지 3동","category":"기타 - 기계공구"}]},{"lat":"37.174219251","long":"126.87110546","items":[{"name":"서기H&C","tel":"031-376-4311","addr":"경기도 화성시 팔탄면 율암리 242-6번지","category":"회원제형태 - 기타1"}]},{"lat":"37.169054689","long":"126.87796008","items":[{"name":"서부카센타","tel":"031-8047-6226","addr":"경기도 화성시 팔탄면 율암리 196-2","category":"자동차정비 유지 - 자동차부품"}]},{"lat":"37.169440933","long":"126.87682225","items":[{"name":"서아레이져","tel":"031-353-2645","addr":"경기도 화성시 팔탄면 율암리 398-43번지","category":"기타 - 기계공구"},{"name":"원조추어탕","tel":"031-366-2878","addr":"경기도 화성시 팔탄면 율암리 398-43번지","category":"일반휴게음식 - 일반한식"},{"name":"팔탄종합사료","tel":"031-353-1170","addr":"경기도 화성시 팔탄면 율암리 398-43번지","category":"문화.취미 - 애완동물"}]},{"lat":"37.172667818","long":"126.87790909","items":[{"name":"서울슈퍼","tel":"031-354-7889","addr":"경기도 화성시 팔탄면 율암리 127-9,10","category":"유통업 영리 - 슈퍼마켓"}]},{"lat":"37.172195532","long":"126.87440808","items":[{"name":"선익아이디","tel":"031-356-6851","addr":"경기도 화성시 팔탄면 율암리 220-2번지","category":"기타 - 기계공구"},{"name":"우일","tel":"031-359-9190","addr":"경기도 화성시 팔탄면 율암리 220-2번지","category":"기타 - 기계공구"},{"name":"유일목재","tel":"031-354-6217","addr":"경기도 화성시 팔탄면 율암리 220-2번지","category":"건축자재 - 목재·석재·철물"},{"name":"정인테크","tel":"070-4223-1639","addr":"경기도 화성시 팔탄면 율암리 220-2번지","category":"기타 - 기계공구"}]},{"lat":"37.155333328","long":"126.87943484","items":[{"name":"선인장휴게실","tel":"031-354-3220","addr":"경기도 화성시 팔탄면 율암리 824번지","category":"일반휴게음식 - 일반한식"},{"name":"주식회사윈켐","tel":"031-354-2531","addr":"경기도 화성시 팔탄면 율암리 824번지","category":"전기제품 - 기타전기제품"}]},{"lat":"37.162055732","long":"126.8800206","items":[{"name":"성광한식부페","tel":"031-359-8572","addr":"경기도 화성시 팔탄면 율암리 466-6번지","category":"일반휴게음식 - 일반한식"}]},{"lat":"37.163303427","long":"126.8755152","items":[{"name":"세븐일레븐화성율암점","tel":"031-1577-0711","addr":"경기도 화성시 팔탄면 율암리 430-10번지 108호 107호,108호","category":"유통업 영리 - 편 의 점"},{"name":"율암해장국","tel":"031-352-1323","addr":"경기도 화성시 팔탄면 율암리 430-10번지","category":"일반휴게음식 - 일반한식"}]},{"lat":"37.173770811","long":"126.88148795","items":[{"name":"소나무한식부페","tel":"031-354-6724","addr":"경기도 화성시 팔탄면 율암리 117번지","category":"일반휴게음식 - 일반한식"}]},{"lat":"37.174744935","long":"126.88246602","items":[{"name":"소담밥상","tel":"031-353-2295","addr":"경기도 화성시 팔탄면 율암리 83-6번지 A동","category":"일반휴게음식 - 일반한식"}]},{"lat":"37.166137513","long":"126.88007028","items":[{"name":"수원볼트","tel":"031-366-5912","addr":"경기도 화성시 팔탄면 율암리 474-27번지 1층 106호,107호","category":"기타 - 기계공구"},{"name":"우진산업","tel":"031-366-2037","addr":"경기도 화성시 팔탄면 율암리 474-27번지","category":"신변잡화 - 기타잡화"}]},{"lat":"37.162065953","long":"126.89031063","items":[{"name":"수원상사","tel":"031-352-3547","addr":"경기도 화성시 팔탄면 율암리 580-5번지 현대공구타운 103동 114호","category":"건축자재 - 기타건축자재"},{"name":"신성ENG","tel":"031-354-4382","addr":"경기도 화성시 팔탄면 율암리 580-5 발암현대공구타운103동 116호~117호","category":"기타 - 기계공구"},{"name":"오케이와이어컷팅","tel":"031-000-0000","addr":"경기도 화성시 팔탄면 율암리 580-5번지 발안현대공구타운 103동 121호","category":"기타 - 기계공구"},{"name":"우수웰텍","tel":"031-359-8048","addr":"경기도 화성시 팔탄면 율암리 580-5번지 발안현대공구타운 103동 지층 122호","category":"기타 - 기계공구"}]},{"lat":"37.173858997","long":"126.87962991","items":[{"name":"수정한식부페","tel":"031-352-3939","addr":"경기도 화성시 팔탄면 율암리 80번지 1층 일부","category":"일반휴게음식 - 일반한식"},{"name":"우리식당","tel":"070-8992-6950","addr":"경기도 화성시 팔탄면 율암리 80번지 1층","category":"일반휴게음식 - 일반한식"}]},{"lat":"37.161605269","long":"126.88007762","items":[{"name":"승우","tel":"031-1111-1111","addr":"경기도 화성시 팔탄면 율암리 466-8번지","category":"직물 - 기타직물"}]},{"lat":"37.153444079","long":"126.88229718","items":[{"name":"시골한식부페","tel":"031-352-4708","addr":"경기도 화성시 팔탄면 율암리 842-4번지","category":"일반휴게음식 - 일반한식"}]},{"lat":"37.160972208","long":"126.87784954","items":[{"name":"신세계정밀","tel":"031-355-0188","addr":"경기도 화성시 팔탄면 율암리 433-17번지","category":"기타 - 기계공구"}]},{"lat":"37.173328505","long":"126.87226678","items":[{"name":"신양철강","tel":"031-373-6356","addr":"경기도 화성시 팔탄면 율암리 289-3번지","category":"건축자재 - 기타건축자재"}]},{"lat":"37.167389623","long":"126.87974175","items":[{"name":"신의주찹쌀순대","tel":"031-354-2747","addr":"경기도 화성시 팔탄면 율암리 177-6번지 2동 1층","category":"일반휴게음식 - 일반한식"},{"name":"여명","tel":"031-366-4393","addr":"경기도 화성시 팔탄면 율암리 177-6번지","category":"일반휴게음식 - 일반한식"}]},{"lat":"37.161767739","long":"126.88939915","items":[{"name":"씨엠씨텍(CMC TECH)","tel":"02-111-1111","addr":"경기도 화성시 팔탄면 율암리 580-8번지 발안현대공구타운 203동 109호","category":"자동차정비 유지 - 자동차부품"},{"name":"영신월드텍","tel":"031-353-4890","addr":"경기도 화성시 팔탄면 율암리 580-8번지 발안현대공구상가 203동 지층 116호","category":"건축자재 - 페인트"},{"name":"주식회사핀포텍","tel":"031-8047-0027","addr":"경기도 화성시 팔탄면 율암리 580-9번지 발안현대공구타운 203동 112호","category":"전기제품 - 기타전기제품"}]},{"lat":"37.153525675","long":"126.88279236","items":[{"name":"씨유화성율암온천점","tel":"031-8059-3306","addr":"경기도 화성시 팔탄면 율암리 842-39번지 1층 1호","category":"유통업 영리 - 편 의 점"},{"name":"아름종합상사","tel":"031-8059-2880","addr":"경기도 화성시 팔탄면 율암리 842-39번지 2호","category":"기타 - 기계공구"},{"name":"퍼니마트낚시","tel":"031-8059-3306","addr":"경기도 화성시 팔탄면 율암리 842-39번지","category":"유통업 영리 - 슈퍼마켓"}]},{"lat":"37.175250305","long":"126.87462811","items":[{"name":"씨유화성큐브에스점","tel":"080-080-3663","addr":"경기도 화성시 팔탄면 율암리 52-10번지 저온센터 식당/휴게실","category":"유통업 영리 - 편 의 점"}]},{"lat":"37.172415289","long":"126.87768431","items":[{"name":"씨유화성팔탄베스트점","tel":"031-898-6568","addr":"경기도 화성시 팔탄면 율암리 131-7번지","category":"유통업 영리 - 편 의 점"}]},{"lat":"37.151218944","long":"126.88273973","items":[{"name":"아를1,2","tel":"031-352-7275","addr":"경기도 화성시 팔탄면 율암리 845-21번지 1동 1층 일부","category":"일반휴게음식 - 서양음식"}]},{"lat":"37.160944355","long":"126.87707278","items":[{"name":"아이티비","tel":"031-354-8961","addr":"경기도 화성시 팔탄면 율암리 430-34","category":"기타 - 기계공구"},{"name":"아이티비/원격지","tel":"031-354-8961","addr":"경기도 화성시 팔탄면 율암리 430-34","category":"기타 - 기타 전문점"}]},{"lat":"37.168584919","long":"126.87680115","items":[{"name":"아트박스","tel":"031-8059-6460","addr":"경기도 화성시 팔탄면 율암리 398-27번지","category":"유통업 영리 - 기타유통업"}]},{"lat":"37.17347319","long":"126.88121819","items":[{"name":"아현한식부페","tel":"","addr":"경기도 화성시 팔탄면 율암리 120-9번지","category":"일반휴게음식 - 일반한식"}]},{"lat":"37.153081442","long":"126.88013643","items":[{"name":"에이치에스솔라(HS솔라)","tel":"031-353-9511","addr":"경기도 화성시 팔탄면 율암리 838-2번지 2호","category":"전기제품 - 기타전기제품"},{"name":"전주가마솥손두부","tel":"031-353-4017","addr":"경기도 화성시 팔탄면 율암리 838-2번지","category":"일반휴게음식 - 일반한식"},{"name":"태림","tel":"031-352-4530","addr":"경기도 화성시 팔탄면 율암리 838-2번지","category":"일반휴게음식 - 중국식"}]},{"lat":"37.172943798","long":"126.88340345","items":[{"name":"엠테크","tel":"031-355-9187","addr":"경기도 화성시 팔탄면 율암리 112-5번지","category":"기타 - 기계공구"}]},{"lat":"37.167410078","long":"126.88210611","items":[{"name":"예은플라워","tel":"031-352-7489","addr":"경기도 화성시 팔탄면 율암리 177-10번지 을암뷰타운 109호","category":"문화.취미 - 화원"},{"name":"창조기획","tel":"031-8059-5704","addr":"경기도 화성시 팔탄면 율암리 177-10번지 율암뷰타운 1층 106호","category":"용역 서비스 - 종합용역"},{"name":"황제 노래연습장","tel":"031-359-8573","addr":"경기도 화성시 팔탄면 율암리 177-10번지 2층","category":"레저업소 - 노 래 방"}]},{"lat":"37.16990002","long":"126.87640488","items":[{"name":"오비탈(화성점)","tel":"031-354-4520","addr":"경기도 화성시 팔탄면 율암리 398-73번지 녹원상가 2동 102호","category":"서적문구 - 문구용품"}]},{"lat":"37.16675211","long":"126.8819045","items":[{"name":"용추골미궁순대","tel":"031-353-2731","addr":"경기도 화성시 팔탄면 율암리 481-3번지 2층 일부","category":"일반휴게음식 - 일반한식"},{"name":"율암삼거리치킨호프","tel":"031-352-2642","addr":"경기도 화성시 팔탄면 율암리 481-3번지 2층 일부","category":"일반휴게음식 - 스넥"}]},{"lat":"37.166274362","long":"126.88171386","items":[{"name":"율암25편의점","tel":"031-354-2626","addr":"경기도 화성시 팔탄면 율암리 481-2번지 율암빌딩 2차","category":"유통업 영리 - 슈퍼마켓"}]},{"lat":"37.175021977","long":"126.87182472","items":[{"name":"율암특장","tel":"031-366-2933","addr":"경기도 화성시 팔탄면 율암리 251번지","category":"수리서비스 - 기타수리서비스"},{"name":"한신콤프레샤","tel":"031-352-4728","addr":"경기도 화성시 팔탄면 율암리 251번지","category":"기타 - 기계공구"}]},{"lat":"37.167304574","long":"126.87599263","items":[{"name":"율암팜","tel":"070-5101-6741","addr":"경기도 화성시 팔탄면 율암리 398-87번지","category":"음료식품 - 농·축·수산품"}]},{"lat":"37.167084503","long":"126.88093569","items":[{"name":"정든김밥&포차","tel":"031-352-5573","addr":"경기도 화성시 팔탄면 율암리 177-8번지 104호","category":"일반휴게음식 - 스넥"}]},{"lat":"37.157358265","long":"126.88593842","items":[{"name":"제일전동공구","tel":"031-352-2291","addr":"경기도 화성시 팔탄면 율암리 726-2번지","category":"수리서비스 - 기타수리서비스"}]},{"lat":"37.165443196","long":"126.87957602","items":[{"name":"제일파이프","tel":"031-354-3054","addr":"경기도 화성시 팔탄면 율암리 473-4번지","category":"기타 - 기타 전문점"}]},{"lat":"37.166634121","long":"126.88107153","items":[{"name":"주사부","tel":"031-353-3996","addr":"경기도 화성시 팔탄면 율암리 483-11번지","category":"일반휴게음식 - 중국식"}]},{"lat":"37.171466079","long":"126.87476963","items":[{"name":"주식회사 린백","tel":"","addr":"경기도 화성시 팔탄면 율암리 220-22번지","category":"가구 - 일반가구"}]},{"lat":"37.166081984","long":"126.87866302","items":[{"name":"주식회사 장수렌탈","tel":"031-353-8206","addr":"경기도 화성시 팔탄면 율암리 398-113번지","category":"기타 - 기계공구"}]},{"lat":"37.173131727","long":"126.88213079","items":[{"name":"주식회사프레코","tel":"031-8059-4757","addr":"경기도 화성시 팔탄면 율암리 121-8번지","category":"건축자재 - 페인트"}]},{"lat":"37.174776259","long":"126.88676735","items":[{"name":"주식회사혜성에너지","tel":"031-354-4686","addr":"경기도 화성시 팔탄면 율암리 98-3번지","category":"연료판매점 - 주유소"},{"name":"주식회사혜성에너지","tel":"031-354-4686","addr":"경기도 화성시 팔탄면 율암리 98-3번지","category":"연료판매점 - 쌍용S-OIL"}]},{"lat":"37.169966136","long":"126.86307361","items":[{"name":"주주광고기획","tel":"031-353-8610","addr":"경기도 화성시 팔탄면 율암리 267-16번지 가동 1층","category":"건축자재 - 인테리어전문"}]},{"lat":"37.172528917","long":"126.87440752","items":[{"name":"진성기계","tel":"031-352-6128","addr":"경기도 화성시 팔탄면 율암리 220-1번지","category":"기타 - 기계공구"}]},{"lat":"37.169387932","long":"126.87782442","items":[{"name":"진성종합기계","tel":"031-8059-4554","addr":"경기도 화성시 팔탄면 율암리 195번지 A","category":"기타 - 기계공구"},{"name":"파워ENG","tel":"070-4256-7440","addr":"경기도 화성시 팔탄면 율암리 195번지","category":"기타 - 기계공구"}]},{"lat":"37.153670355","long":"126.8832987","items":[{"name":"진수성찬","tel":"031-8059-0415","addr":"경기도 화성시 팔탄면 율암리 842-40번지 1층","category":"일반휴게음식 - 일반한식"},{"name":"페리카나 율암온천점","tel":"031-353-8553","addr":"경기도 화성시 팔탄면 율암리 842-40번지","category":"일반휴게음식 - 스넥"}]},{"lat":"37.153941978","long":"126.88460409","items":[{"name":"진영테크","tel":"031-352-7740","addr":"경기도 화성시 팔탄면 율암리 842-25번지","category":"기타 - 기계공구"}]},{"lat":"37.151948287","long":"126.88224328","items":[{"name":"창신사","tel":"031-359-9461","addr":"경기도 화성시 팔탄면 율암리 842-8번지","category":"신변잡화 - 기타잡화"}]},{"lat":"37.169913555","long":"126.88071722","items":[{"name":"카본리사이클","tel":"031-354-1337","addr":"경기도 화성시 팔탄면 율암리 137-3번지 1층","category":"용역 서비스 - 기타용역서비스"}]},{"lat":"37.162777288","long":"126.88071745","items":[{"name":"카포스화성 협동조합","tel":"070-7775-7337","addr":"경기도 화성시 팔탄면 율암리 467-1번지","category":"자동차정비 유지 - 자동차부품"}]},{"lat":"37.173966193","long":"126.87874019","items":[{"name":"케비이이 모터스포츠","tel":"031-111-1111","addr":"경기도 화성시 팔탄면 율암리 77번지","category":"자동차정비 유지 - 자동차부품"}]},{"lat":"37.166523778","long":"126.87893251","items":[{"name":"케이에스정밀(KS정밀)","tel":"031-352-8641","addr":"경기도 화성시 팔탄면 율암리 398-105번지","category":"기타 - 기계공구"}]},{"lat":"37.172660476","long":"126.87113068","items":[{"name":"케이이씨(KEC)","tel":"031-8059-8805","addr":"경기도 화성시 팔탄면 율암리 283-2번지","category":"기타 - 기계공구"}]},{"lat":"37.168024695","long":"126.87532713","items":[{"name":"키모텍/원격지","tel":"031-374-3611","addr":"경기도 화성시 팔탄면 율암리 396","category":"기타 - 기타 전문점"}]},{"lat":"37.162776974","long":"126.88041347","items":[{"name":"태성기업","tel":"031-366-0355","addr":"경기도 화성시 팔탄면 율암리 467-3번지","category":"건축자재 - 기타건축자재"}]},{"lat":"37.172304172","long":"126.88351706","items":[{"name":"테크노바이오","tel":"031-352-1953","addr":"경기도 화성시 팔탄면 율암리 112-7번지","category":"서적문구 - 과학기자재"}]},{"lat":"37.178327525","long":"126.87901457","items":[{"name":"풍림기계","tel":"031-458-7041","addr":"경기도 화성시 팔탄면 율암리 65-22번지 2층","category":"기타 - 기계공구"}]},{"lat":"37.154253141","long":"126.88952296","items":[{"name":"한정식뷔페","tel":"031-352-6049","addr":"경기도 화성시 팔탄면 율암리 758-5번지 나동 1층","category":"일반휴게음식 - 일반한식"}]},{"lat":"37.161363417","long":"126.89060438","items":[{"name":"현대한식부페","tel":"031-000-0000","addr":"경기도 화성시 팔탄면 율암리 580-13번지 발안현대공구타운 501동 지1층 124호","category":"일반휴게음식 - 일반한식"}]},{"lat":"37.172275197","long":"126.88160294","items":[{"name":"혜성산업","tel":"031-366-5205","addr":"경기도 화성시 팔탄면 율암리 121-1","category":"기타 - 기계공구"}]},{"lat":"37.170639318","long":"126.87682026","items":[{"name":"흥인전력공사","tel":"031-354-8697","addr":"경기도 화성시 팔탄면 율암리 199-2번지","category":"기타 - 기타 전문점"}]}]