[{"lat":"37.222777952","long":"127.36943974","imageIndex":4,"items":[{"name":"coffee it suda(커피잇수다)","tel":"031-637-0005","addr":"경기도 이천시 마장면 이평리 368-7번지","indutype":"일반휴게음식 - 서양음식","category":"restaurant"},{"name":"마루(본점)","tel":"031-637-0005","addr":"경기도 이천시 마장면 이평리 368-7번지","indutype":"일반휴게음식 - 일반한식","category":"restaurant"}]},{"lat":"37.228028095","long":"127.36744818","imageIndex":4,"items":[{"name":"곰작골나주곰탕(덕평점)","tel":"031-631-4672","addr":"경기도 이천시 마장면 이평리 267-6번지","indutype":"일반휴게음식 - 일반한식","category":"restaurant"}]},{"lat":"37.222668365","long":"127.36991243","imageIndex":4,"items":[{"name":"나고야","tel":"031-637-8042","addr":"경기도 이천시 마장면 이평리 396-7번지","indutype":"일반휴게음식 - 일식·회집","category":"restaurant"}]},{"lat":"37.222307434","long":"127.37007969","imageIndex":4,"items":[{"name":"늘봄","tel":"031-637-8228","addr":"경기도 이천시 마장면 이평리 395","indutype":"일반휴게음식 - 일반한식","category":"restaurant"}]},{"lat":"37.219607879","long":"127.37758153","imageIndex":4,"items":[{"name":"다오네","tel":"031-638-0577","addr":"경기도 이천시 마장면 이평리 146-1번지 1호","indutype":"일반휴게음식 - 일반한식","category":"restaurant"}]},{"lat":"37.22572131","long":"127.37041174","imageIndex":4,"items":[{"name":"도드람삼겹살","tel":"031-638-7977","addr":"경기도 이천시 마장면 이평리 267-24번지 1층","indutype":"일반휴게음식 - 일반한식","category":"restaurant"}]},{"lat":"37.221358938","long":"127.36794563","imageIndex":4,"items":[{"name":"마장들밥","tel":"031-637-6040","addr":"경기도 이천시 마장면 이평리 371-3번지","indutype":"일반휴게음식 - 일반한식","category":"restaurant"}]},{"lat":"37.225919883","long":"127.37030002","imageIndex":4,"items":[{"name":"맛내음터","tel":"031-638-9442","addr":"경기도 이천시 마장면 이평리 267-55","indutype":"일반휴게음식 - 일반한식","category":"restaurant"}]},{"lat":"37.218941382","long":"127.37463764","imageIndex":4,"items":[{"name":"서울가든","tel":"031-638-2523","addr":"경기도 이천시 마장면 이평리 154-2번지 1층","indutype":"일반휴게음식 - 일반한식","category":"restaurant"}]},{"lat":"37.226943367","long":"127.36858101","imageIndex":4,"items":[{"name":"소풍","tel":"031-635-2000","addr":"경기도 이천시 마장면 이평리 267-14번지","indutype":"일반휴게음식 - 일반한식","category":"restaurant"},{"name":"오복국밥","tel":"031-635-9191","addr":"경기도 이천시 마장면 이평리 267-14번지 2동 1층","indutype":"일반휴게음식 - 일반한식","category":"restaurant"},{"name":"이천뚝배기","tel":"031-634-3338","addr":"경기도 이천시 마장면 이평리 267-14번지","indutype":"일반휴게음식 - 일반한식","category":"restaurant"}]},{"lat":"37.221640161","long":"127.3673273","imageIndex":4,"items":[{"name":"수원배나무갈비식당","tel":"031-637-6030","addr":"경기도 이천시 마장면 이평리 371번지","indutype":"일반휴게음식 - 갈비전문점","category":"restaurant"}]},{"lat":"37.227669733","long":"127.36678165","imageIndex":4,"items":[{"name":"여기가좋겠네","tel":"031-638-9878","addr":"경기도 이천시 마장면 이평리 293-11번지","indutype":"일반휴게음식 - 일반한식","category":"restaurant"}]},{"lat":"37.228217829","long":"127.36728007","imageIndex":4,"items":[{"name":"오미가해오름","tel":"031-632-3253","addr":"경기도 이천시 마장면 이평리 267-95번지 1동 1층","indutype":"일반휴게음식 - 일반한식","category":"restaurant"},{"name":"토프레소 이천마장점","tel":"031-635-3867","addr":"경기도 이천시 마장면 이평리 267-95번지 1층","indutype":"일반휴게음식 - 서양음식","category":"restaurant"}]},{"lat":"37.222086781","long":"127.37149828","imageIndex":4,"items":[{"name":"오아시스한식뷔페","tel":"031-637-7974","addr":"경기도 이천시 마장면 이평리 400번지 1층","indutype":"일반휴게음식 - 일반한식","category":"restaurant"}]},{"lat":"37.224473084","long":"127.36905358","imageIndex":4,"items":[{"name":"올래한식부페","tel":"031-638-1235","addr":"경기도 이천시 마장면 이평리 293-161번지 1층","indutype":"일반휴게음식 - 일반한식","category":"restaurant"}]},{"lat":"37.228470807","long":"127.36705593","imageIndex":4,"items":[{"name":"육개장인","tel":"031-638-9200","addr":"경기도 이천시 마장면 이평리 267-5번지 2동 1층","indutype":"일반휴게음식 - 일반한식","category":"restaurant"}]},{"lat":"37.221444342","long":"127.36946709","imageIndex":4,"items":[{"name":"자매식당","tel":"031-635-7455","addr":"경기도 이천시 마장면 이평리 378-5번지 A동","indutype":"일반휴게음식 - 일반한식","category":"restaurant"}]},{"lat":"37.227695828","long":"127.36708601","imageIndex":4,"items":[{"name":"차이홍","tel":"031-634-4588","addr":"경기도 이천시 마장면 이평리 293-1번지","indutype":"일반휴게음식 - 중국식","category":"restaurant"}]},{"lat":"37.228084547","long":"127.36667096","imageIndex":4,"items":[{"name":"해천명가","tel":"031-634-1220","addr":"경기도 이천시 마장면 이평리 293-176번지","indutype":"일반휴게음식 - 일반한식","category":"restaurant"}]},{"lat":"37.218857921","long":"127.36669425","imageIndex":4,"items":[{"name":"향연정육점식당","tel":"031-638-7177","addr":"경기도 이천시 마장면 이평리 477-6번지","indutype":"일반휴게음식 - 일반한식","category":"restaurant"}]}]