[{"lat":"36.975357874","long":"127.21429985","items":[{"name":"A coffee farm(에이커피팜)","tel":"031-672-8302","addr":"경기도 안성시 미양면 양지리 206-1번지 1층","category":"일반휴게음식 - 서양음식"},{"name":"명신식당","tel":"031-674-3337","addr":"경기도 안성시 미양면 양지리 206-1번지","category":"일반휴게음식 - 일반한식"},{"name":"철희네횟집","tel":"031-674-3337","addr":"경기도 안성시 미양면 양지리 206-1번지","category":"일반휴게음식 - 일식·회집"}]},{"lat":"36.977109943","long":"127.21204728","items":[{"name":"나라네농장","tel":"031-672-8159","addr":"경기도 안성시 미양면 양지리 314-3번지","category":"음료식품 - 기타음료식품"}]},{"lat":"36.98060655","long":"127.22179452","items":[{"name":"대복가든","tel":"031-674-7775","addr":"경기도 안성시 미양면 양지리 31-4번지","category":"일반휴게음식 - 일반한식"}]},{"lat":"36.97477268","long":"127.21401747","items":[{"name":"대우보일러취급점","tel":"031-674-9019","addr":"경기도 안성시 미양면 양지리 198-7","category":"건축자재 - 보일러·펌프·샷시"},{"name":"양지헤어","tel":"031-111-1111","addr":"경기도 안성시 미양면 양지리 198-7번지 1층","category":"보건위생 - 미용원"}]},{"lat":"36.97650219","long":"127.21432548","items":[{"name":"미래재활의집","tel":"031-672-4123","addr":"경기도 안성시 미양면 양지리 211-1번지","category":"신변잡화 - 제화"}]},{"lat":"36.981748495","long":"127.22310066","items":[{"name":"미양건재","tel":"031-676-0113","addr":"경기도 안성시 미양면 양지리 33-3번지","category":"건축자재 - 목재·석재·철물"}]},{"lat":"36.978027081","long":"127.21818196","items":[{"name":"미양농업협동조합","tel":"031-672-8773","addr":"경기도 안성시 미양면 양지리 91-11번지","category":"음료식품 - 농·축·수산품"},{"name":"미양농업협동조합","tel":"031-672-8773","addr":"경기도 안성시 미양면 양지리 91-11번지","category":"연료판매점 - 주유소"},{"name":"미양농업협동조합","tel":"031-8046-1836","addr":"경기도 안성시 미양면 양지리 91-11번지","category":"용역 서비스 - 부동산 중개·임대"},{"name":"미양농업협동조합","tel":"031-672-8770","addr":"경기도 안성시 미양면 양지리 91-11번지","category":"유통업 비영리 - 농,축협 직영매장"},{"name":"미양농업협동조합","tel":"031-672-8770","addr":"경기도 안성시 미양면 양지리 91-11번지","category":"음료식품 - 농·축·수산품"},{"name":"미양농협(주유소)","tel":"031-674-8774","addr":"경기도 안성시 미양면 양지리 91-11번지","category":"연료판매점 - 주유소"}]},{"lat":"36.979027815","long":"127.21788153","items":[{"name":"미양농협(마트)","tel":"031-672-8770","addr":"경기도 안성시 미양면 양지리 90-1번지","category":"유통업 비영리 - 농협하나로클럽"}]},{"lat":"36.97924965","long":"127.21976901","items":[{"name":"미양세차장","tel":"031-671-3485","addr":"경기도 안성시 미양면 양지리 97-9번지","category":"자동차정비 유지 - 세차장"}]},{"lat":"36.975752158","long":"127.2155251","items":[{"name":"미양우체국","tel":"031-672-8000","addr":"경기도 안성시 미양면 양지리 186-5번지","category":"용역 서비스 - 공공요금대행서비스/소"}]},{"lat":"36.980724764","long":"127.22121082","items":[{"name":"미양주유소","tel":"031-673-0510","addr":"경기도 안성시 미양면 양지리 40-8번지","category":"연료판매점 - 쌍용S-OIL"}]},{"lat":"36.975332717","long":"127.2132441","items":[{"name":"미양초등학교","tel":"031-673-1997","addr":"경기도 안성시 미양면 양지리 201번지 미양초등학교","category":"학원 - 초중고교육기관"},{"name":"미양초등학교_수업료","tel":"031-673-1997","addr":"경기도 안성시 미양면 양지리 201번지 미양초등학교","category":"학원 - 초중고교육기관"},{"name":"미양초등학교병설유치원[아이행복]","tel":"031-673-8085","addr":"경기도 안성시 미양면 양지리 201번지","category":"학원 - 유치원"}]},{"lat":"36.975772765","long":"127.21407639","items":[{"name":"백은영","tel":"","addr":"경기도 안성시 미양면 양지리 207-1번지","category":"학원 - 기타 교육기관"}]},{"lat":"36.977972566","long":"127.2134086","items":[{"name":"부강메디AD","tel":"031-674-6223","addr":"경기도 안성시 미양면 양지리 285-2번지 1층","category":"건축자재 - 인테리어전문"},{"name":"에스케이애드","tel":"031-676-3336","addr":"경기도 안성시 미양면 양지리 285-2번지","category":"건축자재 - 조명기구"}]},{"lat":"36.979834234","long":"127.22037716","items":[{"name":"사랑채부대찌개","tel":"031-673-1212","addr":"경기도 안성시 미양면 양지리 96-2번지","category":"일반휴게음식 - 일반한식"}]},{"lat":"36.980804018","long":"127.22221065","items":[{"name":"쌀로만제과","tel":"031-674-3874","addr":"경기도 안성시 미양면 양지리 32-6번지","category":"음료식품 - 제과점"}]},{"lat":"36.975662614","long":"127.21521039","items":[{"name":"안성당약국","tel":"031-674-5497","addr":"경기도 안성시 미양면 양지리 186-7번지","category":"약국 - 약국"}]},{"lat":"36.97972456","long":"127.2212192","items":[{"name":"양지농원","tel":"031-672-8103","addr":"경기도 안성시 미양면 양지리 39-4번지 1층","category":"음료식품 - 농·축·수산품"}]},{"lat":"36.980445929","long":"127.22094047","items":[{"name":"태영농자재","tel":"","addr":"경기도 안성시 미양면 양지리 40-38번지","category":"농업 - 기타농업관련"}]},{"lat":"36.977694683","long":"127.2176307","items":[{"name":"푸짐한집","tel":"031-674-0678","addr":"경기도 안성시 미양면 양지리 89-1번지","category":"일반휴게음식 - 일반한식"}]}]