[{"lat":"37.886628689","long":"126.87783758","imageIndex":17,"items":[{"name":"GS25파주금곡점","tel":"","addr":"경기도 파주시 법원읍 금곡리 305-4번지","indutype":"유통업 영리 - 편 의 점","category":"other"}]},{"lat":"37.882133264","long":"126.86983147","imageIndex":17,"items":[{"name":"쇠꼴","tel":"031-959-0123","addr":"경기도 파주시 법원읍 금곡리 420-6번지","indutype":"문화.취미 - 화원","category":"other"}]},{"lat":"37.893738841","long":"126.87122031","imageIndex":17,"items":[{"name":"주식회사 솔(SOL)","tel":"031-959-3333","addr":"경기도 파주시 법원읍 금곡리 477-1번지","indutype":"용역 서비스 - 사무서비스","category":"other"}]},{"lat":"37.88268468","long":"126.87981075","imageIndex":17,"items":[{"name":"주식회사 코스모스산업","tel":"031-958-4394","addr":"경기도 파주시 법원읍 금곡리 362-10","indutype":"레져용품 - 스포츠·레져용품","category":"other"}]},{"lat":"37.891157689","long":"126.87532888","imageIndex":17,"items":[{"name":"해진누리(주)","tel":"031-958-1746","addr":"경기도 파주시 법원읍 금곡리 459-4번지","indutype":"전기제품 - 가전제품","category":"other"}]}]