[{"lat":"37.090769768","long":"127.43533279","imageIndex":4,"items":[{"name":"길연","tel":"031-676-6900","addr":"경기도 안성시 죽산면 매산리 420-2번지 1층 우측호","indutype":"일반휴게음식 - 일반한식","category":"restaurant"},{"name":"길연","tel":"031-676-6900","addr":"경기도 안성시 죽산면 매산리 420-2번지","indutype":"일반휴게음식 - 일반한식","category":"restaurant"},{"name":"드라미블랙누들","tel":"031-677-7435","addr":"경기도 안성시 죽산면 매산리 420-2번지","indutype":"일반휴게음식 - 중국식","category":"restaurant"},{"name":"죽주소머리국밥","tel":"031-676-6900","addr":"경기도 안성시 죽산면 매산리 420-2번지","indutype":"일반휴게음식 - 일반한식","category":"restaurant"}]},{"lat":"37.097876105","long":"127.43366337","imageIndex":4,"items":[{"name":"맛있으면 돼지백반","tel":"031-676-3839","addr":"경기도 안성시 죽산면 매산리 479-7번지","indutype":"일반휴게음식 - 일반한식","category":"restaurant"}]},{"lat":"37.097487436","long":"127.43399863","imageIndex":4,"items":[{"name":"매밀꽃 막국수","tel":"031-672-4606","addr":"경기도 안성시 죽산면 매산리 479-6번지","indutype":"일반휴게음식 - 일반한식","category":"restaurant"},{"name":"엄탕","tel":"031-672-4606","addr":"경기도 안성시 죽산면 매산리 479-6번지","indutype":"일반휴게음식 - 일반한식","category":"restaurant"}]},{"lat":"37.085156634","long":"127.43522217","imageIndex":4,"items":[{"name":"상황버섯삼계탕","tel":"031-675-7796","addr":"경기도 안성시 죽산면 매산리 367-1번지","indutype":"일반휴게음식 - 일반한식","category":"restaurant"}]},{"lat":"37.093735932","long":"127.4373293","imageIndex":4,"items":[{"name":"원더풀스낵","tel":"031-674-8255","addr":"경기도 안성시 죽산면 매산리 247외12필지가동(1층)","indutype":"일반휴게음식 - 스넥","category":"restaurant"}]},{"lat":"37.093461386","long":"127.4335484","imageIndex":4,"items":[{"name":"원시인빌리지(Village)장작구이","tel":"031-672-5211","addr":"경기도 안성시 죽산면 매산리 452-9번지","indutype":"일반휴게음식 - 일반한식","category":"restaurant"}]}]