[{"lat":"37.022139755","long":"127.40091636","imageIndex":4,"items":[{"name":"너와골","tel":"031-677-5259","addr":"경기도 안성시 죽산면 칠장리 816번지","indutype":"일반휴게음식 - 일반한식","category":"restaurant"}]},{"lat":"37.022139121","long":"127.40378192","imageIndex":4,"items":[{"name":"물레방아손두부","tel":"031-674-2250","addr":"경기도 안성시 죽산면 칠장리 626-4번지","indutype":"일반휴게음식 - 일반한식","category":"restaurant"}]},{"lat":"37.020748108","long":"127.40211149","imageIndex":4,"items":[{"name":"참솔마루","tel":"031-674-7746","addr":"경기도 안성시 죽산면 칠장리 829-1번지","indutype":"일반휴게음식 - 일반한식","category":"restaurant"}]},{"lat":"37.028387804","long":"127.42080726","imageIndex":4,"items":[{"name":"천만애황제해신탕","tel":"031-675-0426","addr":"경기도 안성시 죽산면 칠장리 19-1번지","indutype":"일반휴게음식 - 일반한식","category":"restaurant"}]},{"lat":"37.024250384","long":"127.40027558","imageIndex":4,"items":[{"name":"칠장골먹거리","tel":"031-671-1134","addr":"경기도 안성시 죽산면 칠장리 804-2번지","indutype":"일반휴게음식 - 일반한식","category":"restaurant"}]},{"lat":"37.023881106","long":"127.4002287","imageIndex":4,"items":[{"name":"칠현산 숲거리","tel":"031-674-9565","addr":"경기도 안성시 죽산면 칠장리 810-1번지","indutype":"일반휴게음식 - 일반한식","category":"restaurant"}]},{"lat":"37.024188777","long":"127.39983698","imageIndex":4,"items":[{"name":"한스토이랜드","tel":"031-673-1332","addr":"경기도 안성시 죽산면 칠장리 800번지","indutype":"일반휴게음식 - 일반한식","category":"restaurant"}]},{"lat":"37.020940175","long":"127.41705815","imageIndex":7,"items":[{"name":"능일농장","tel":"031-671-1315","addr":"경기도 안성시 죽산면 칠장리 224-2","indutype":"음료식품 - 농·축·수산품","category":"food"}]},{"lat":"37.021026312","long":"127.40511332","imageIndex":7,"items":[{"name":"조아떼농원","tel":"070-8801-9463","addr":"경기도 안성시 죽산면 칠장리 603번지 조아떼농원","indutype":"음료식품 - 농·축·수산품","category":"food"}]},{"lat":"37.02155654","long":"127.40817269","imageIndex":17,"items":[{"name":"칠장휴게실","tel":"031-671-0700","addr":"경기도 안성시 죽산면 칠장리 613번지 1동","indutype":"신변잡화 - 기타잡화","category":"other"}]},{"lat":"37.021830866","long":"127.40963502","imageIndex":17,"items":[{"name":"호국사","tel":"031-672-2466","addr":"경기도 안성시 죽산면 칠장리 403-1번지","indutype":"기타 - 비영리/대상","category":"other"}]}]