[{"lat":"37.599394606","long":"127.13665027","imageIndex":5,"items":[{"name":"AFRICA(아프리카)","tel":"031-566-3258","addr":"경기도 구리시 수택동 373-8번지 1층","indutype":"숙박업 - 여관/기타숙박업","category":"hotel"},{"name":"아프리카","tel":"031-566-3256","addr":"경기도 구리시 수택동 373-8번지","indutype":"숙박업 - 여관/기타숙박업","category":"hotel"}]},{"lat":"37.599896681","long":"127.13881403","imageIndex":5,"items":[{"name":"ALL HILL","tel":"031-553-8101","addr":"경기도 구리시 수택동 383-20번지","indutype":"숙박업 - 여관/기타숙박업","category":"hotel"},{"name":"올(ALL)모텔","tel":"031-553-8101","addr":"경기도 구리시 수택동 383-20번지 ,3~5층","indutype":"숙박업 - 여관/기타숙박업","category":"hotel"}]},{"lat":"37.597501514","long":"127.13756409","imageIndex":5,"items":[{"name":"HOTEL POP","tel":"031-555-5556","addr":"경기도 구리시 수택동 378-27.28.29.30","indutype":"숙박업 - 여관/기타숙박업","category":"hotel"}]},{"lat":"37.598146331","long":"127.14092836","imageIndex":5,"items":[{"name":"RG호텔","tel":"031-563-5544","addr":"경기도 구리시 수택동 419-19번지 1층","indutype":"숙박업 - 여관/기타숙박업","category":"hotel"}]},{"lat":"37.599869808","long":"127.13867809","imageIndex":5,"items":[{"name":"e모텔","tel":"031-567-0105","addr":"경기도 구리시 수택동 383-21번지","indutype":"숙박업 - 여관/기타숙박업","category":"hotel"}]},{"lat":"37.597112628","long":"127.13884294","imageIndex":5,"items":[{"name":"가바나모텔","tel":"031-563-9779","addr":"경기도 구리시 수택동 430-37번지","indutype":"숙박업 - 여관/기타숙박업","category":"hotel"}]},{"lat":"37.599088184","long":"127.13672899","imageIndex":5,"items":[{"name":"골드여인숙","tel":"031-566-5020","addr":"경기도 구리시 수택동 373-11번지","indutype":"숙박업 - 여관/기타숙박업","category":"hotel"}]},{"lat":"37.597533018","long":"127.14148209","imageIndex":5,"items":[{"name":"궁전장여관","tel":"031-551-8348","addr":"경기도 구리시 수택동 426-23번지","indutype":"숙박업 - 여관/기타숙박업","category":"hotel"}]},{"lat":"37.599892439","long":"127.14244899","imageIndex":5,"items":[{"name":"금강여인숙","tel":"031-563-2437","addr":"경기도 구리시 수택동 525-2번지","indutype":"숙박업 - 여관/기타숙박업","category":"hotel"}]},{"lat":"37.597868807","long":"127.13939917","imageIndex":5,"items":[{"name":"꿈의궁전여관","tel":"031-552-0882","addr":"경기도 구리시 수택동 379-23번지 꿈의궁전모텔","indutype":"숙박업 - 여관/기타숙박업","category":"hotel"}]},{"lat":"37.597696715","long":"127.14018018","imageIndex":5,"items":[{"name":"뉴밀라노여관","tel":"031-556-1254","addr":"경기도 구리시 수택동 427-4번지","indutype":"숙박업 - 여관/기타숙박업","category":"hotel"}]},{"lat":"37.597056667","long":"127.14048474","imageIndex":5,"items":[{"name":"뉴스타파크장여관","tel":"031-566-5354","addr":"경기도 구리시 수택동 431-14번지","indutype":"숙박업 - 여관/기타숙박업","category":"hotel"}]},{"lat":"37.598425568","long":"127.1409855","imageIndex":5,"items":[{"name":"다래장여관","tel":"","addr":"경기도 구리시 수택동 419-31번지","indutype":"숙박업 - 여관/기타숙박업","category":"hotel"}]},{"lat":"37.597786496","long":"127.14045211","imageIndex":5,"items":[{"name":"더모텔","tel":"031-566-6389","addr":"경기도 구리시 수택동 427-22번지","indutype":"숙박업 - 여관/기타숙박업","category":"hotel"}]},{"lat":"37.597921312","long":"127.14073545","imageIndex":5,"items":[{"name":"동원파크장여관","tel":"031-564-1211","addr":"경기도 구리시 수택동 426번지 2층","indutype":"숙박업 - 여관/기타숙박업","category":"hotel"}]},{"lat":"37.59808778","long":"127.13701028","imageIndex":5,"items":[{"name":"러쉬(LUSH)","tel":"031-551-9627","addr":"경기도 구리시 수택동 376-15번지","indutype":"숙박업 - 여관/기타숙박업","category":"hotel"}]},{"lat":"37.59878175","long":"127.13681903","imageIndex":5,"items":[{"name":"로고스호텔","tel":"031-551-3088","addr":"경기도 구리시 수택동 376-10번지","indutype":"숙박업 - 여관/기타숙박업","category":"hotel"}]},{"lat":"37.598701073","long":"127.13645652","imageIndex":5,"items":[{"name":"로얄파크장여관","tel":"031-67-3377","addr":"경기도 구리시 수택동 376-2번지","indutype":"숙박업 - 여관/기타숙박업","category":"hotel"}]},{"lat":"37.598036256","long":"127.14259273","imageIndex":5,"items":[{"name":"로즈모텔","tel":"031-568-2641","addr":"경기도 구리시 수택동 424-16번지","indutype":"숙박업 - 여관/기타숙박업","category":"hotel"}]},{"lat":"37.600031122","long":"127.13942577","imageIndex":5,"items":[{"name":"루비모텔","tel":"031-555-2377","addr":"경기도 구리시 수택동 383-12번지 3~5층","indutype":"숙박업 - 여관/기타숙박업","category":"hotel"},{"name":"미림빌딩","tel":"031-555-2377","addr":"경기도 구리시 수택동 383-12번지","indutype":"숙박업 - 여관/기타숙박업","category":"hotel"}]},{"lat":"37.599453275","long":"127.14047783","imageIndex":5,"items":[{"name":"마르쉘모텔","tel":"031-563-2540","addr":"경기도 구리시 수택동 414-18번지","indutype":"숙박업 - 여관/기타숙박업","category":"hotel"}]},{"lat":"37.599252318","long":"127.14281016","imageIndex":5,"items":[{"name":"메이저모텔","tel":"031-564-9444","addr":"경기도 구리시 수택동 524-13번지","indutype":"숙박업 - 여관/기타숙박업","category":"hotel"},{"name":"메이저모텔","tel":"","addr":"경기도 구리시 수택동 524-13번지","indutype":"숙박업 - 여관/기타숙박업","category":"hotel"}]},{"lat":"37.59766843","long":"127.14125587","imageIndex":5,"items":[{"name":"모텔리베라","tel":"031-553-1707","addr":"경기도 구리시 수택동 426-26번지","indutype":"숙박업 - 여관/기타숙박업","category":"hotel"},{"name":"호텔 얌(구리수택점)","tel":"031-554-6505","addr":"경기도 구리시 수택동 426-26번지","indutype":"숙박업 - 여관/기타숙박업","category":"hotel"},{"name":"호텔 얌(구리수택점)","tel":"031-553-1707","addr":"경기도 구리시 수택동 426-26번지","indutype":"숙박업 - 여관/기타숙박업","category":"hotel"}]},{"lat":"37.600030083","long":"127.14032035","imageIndex":5,"items":[{"name":"목화모텔","tel":"031-563-9633","addr":"경기도 구리시 수택동 404-12번지 목화모텔","indutype":"숙박업 - 여관/기타숙박업","category":"hotel"}]},{"lat":"37.598196308","long":"127.13664812","imageIndex":5,"items":[{"name":"몽모텔","tel":"031-553-7572","addr":"경기도 구리시 수택동 376-6번지","indutype":"숙박업 - 여관/기타숙박업","category":"hotel"},{"name":"몽모텔","tel":"031-553-7572","addr":"경기도 구리시 수택동 376-6번지 2,3,4,5층","indutype":"숙박업 - 여관/기타숙박업","category":"hotel"}]},{"lat":"37.598529541","long":"127.13676196","imageIndex":5,"items":[{"name":"미즈모텔","tel":"031-553-7786","addr":"경기도 구리시 수택동 376-18번지 1층","indutype":"숙박업 - 여관/기타숙박업","category":"hotel"},{"name":"미즈모텔","tel":"031-552-7070","addr":"경기도 구리시 수택동 376-18번지","indutype":"숙박업 - 여관/기타숙박업","category":"hotel"}]},{"lat":"37.59983403","long":"127.13845155","imageIndex":5,"items":[{"name":"바람개비","tel":"031-555-0254","addr":"경기도 구리시 수택동 383-22번지 4,5,6층","indutype":"숙박업 - 여관/기타숙박업","category":"hotel"}]},{"lat":"37.598424984","long":"127.14148374","imageIndex":5,"items":[{"name":"박스도로시 여관","tel":"031-569-2198","addr":"경기도 구리시 수택동 422-24번지","indutype":"숙박업 - 여관/기타숙박업","category":"hotel"},{"name":"박스도로시여관","tel":"031-569-2198","addr":"경기도 구리시 수택동 422-24번지","indutype":"숙박업 - 여관/기타숙박업","category":"hotel"}]},{"lat":"37.59955682","long":"127.13661659","imageIndex":5,"items":[{"name":"박스모텔","tel":"031-566-0355","addr":"경기도 구리시 수택동 373-4번지","indutype":"숙박업 - 여관/기타숙박업","category":"hotel"}]},{"lat":"37.599953429","long":"127.13645876","imageIndex":5,"items":[{"name":"발리","tel":"031-551-1800","addr":"경기도 구리시 수택동 370-16번지","indutype":"숙박업 - 여관/기타숙박업","category":"hotel"}]},{"lat":"37.597948156","long":"127.14089403","imageIndex":5,"items":[{"name":"백합여관","tel":"031-563-2498","addr":"경기도 구리시 수택동 426-13번지","indutype":"숙박업 - 여관/기타숙박업","category":"hotel"}]},{"lat":"37.597029214","long":"127.14084704","imageIndex":5,"items":[{"name":"부림파크","tel":"031-1111-1111","addr":"경기도 구리시 수택동 433-14번지","indutype":"숙박업 - 여관/기타숙박업","category":"hotel"}]},{"lat":"37.597535799","long":"127.13909282","imageIndex":5,"items":[{"name":"부티크호텔 엑스와이엠(XYM) 구리점","tel":"031-554-5100","addr":"경기도 구리시 수택동 379-17번지","indutype":"숙박업 - 여관/기타숙박업","category":"hotel"}]},{"lat":"37.599556935","long":"127.13651467","imageIndex":5,"items":[{"name":"불가리모텔","tel":"031-566-3331","addr":"경기도 구리시 수택동 373-3번지","indutype":"숙박업 - 여관/기타숙박업","category":"hotel"},{"name":"연애시대","tel":"031-557-1810","addr":"경기도 구리시 수택동 373-3번지 외 1필지","indutype":"숙박업 - 여관/기타숙박업","category":"hotel"}]},{"lat":"37.599564269","long":"127.13798679","imageIndex":5,"items":[{"name":"브띠끄호텔 여기","tel":"031-557-7900","addr":"경기도 구리시 수택동 374-21번지 4,5,6,7,8,8호","indutype":"숙박업 - 여관/기타숙박업","category":"hotel"}]},{"lat":"37.599311581","long":"127.13834869","imageIndex":5,"items":[{"name":"삼성모텔","tel":"031-563-2774","addr":"경기도 구리시 수택동 382-3번지","indutype":"숙박업 - 여관/기타숙박업","category":"hotel"}]},{"lat":"37.597780816","long":"127.13756459","imageIndex":5,"items":[{"name":"셔블모텔여관","tel":"031-568-1117","addr":"경기도 구리시 수택동 378-2번지","indutype":"숙박업 - 여관/기타숙박업","category":"hotel"}]},{"lat":"37.599364845","long":"127.13903954","imageIndex":5,"items":[{"name":"썬모텔","tel":"031-551-3054","addr":"경기도 구리시 수택동 382-15번지","indutype":"숙박업 - 여관/기타숙박업","category":"hotel"}]},{"lat":"37.597559821","long":"127.14167464","imageIndex":5,"items":[{"name":"씨부티크호텔","tel":"031-552-0961","addr":"경기도 구리시 수택동 426-46번지","indutype":"숙박업 - 여관/기타숙박업","category":"hotel"}]},{"lat":"37.596921031","long":"127.14090345","imageIndex":5,"items":[{"name":"아담파크","tel":"031-562-6598","addr":"경기도 구리시 수택동 433-15번지","indutype":"숙박업 - 여관/기타숙박업","category":"hotel"}]},{"lat":"37.597947984","long":"127.14104123","imageIndex":5,"items":[{"name":"아랑장여관","tel":"031-555-5631","addr":"경기도 구리시 수택동 426-15번지","indutype":"숙박업 - 여관/기타숙박업","category":"hotel"}]},{"lat":"37.598313499","long":"127.13659171","imageIndex":5,"items":[{"name":"엘린","tel":"031-555-6513","addr":"경기도 구리시 수택동 376-4번지","indutype":"숙박업 - 여관/기타숙박업","category":"hotel"}]},{"lat":"37.597586263","long":"127.14217292","imageIndex":5,"items":[{"name":"유성프라자여관","tel":"031-563-0168","addr":"경기도 구리시 수택동 425-32번지","indutype":"숙박업 - 여관/기타숙박업","category":"hotel"},{"name":"유성프라자여관","tel":"031-563-0168","addr":"경기도 구리시 수택동 425-32번지","indutype":"숙박업 - 여관/기타숙박업","category":"hotel"}]},{"lat":"37.599087734","long":"127.13712532","imageIndex":5,"items":[{"name":"제니스","tel":"031-556-7735","addr":"경기도 구리시 수택동 375-2번지","indutype":"숙박업 - 여관/기타숙박업","category":"hotel"}]},{"lat":"37.597947852","long":"127.14115447","imageIndex":5,"items":[{"name":"청해장여관","tel":"031-567-1333","addr":"경기도 구리시 수택동 426-28번지 1층","indutype":"숙박업 - 여관/기타숙박업","category":"hotel"}]},{"lat":"37.599925899","long":"127.13690034","imageIndex":5,"items":[{"name":"카프리","tel":"031-567-2451","addr":"경기도 구리시 수택동 370-12번지","indutype":"숙박업 - 여관/기타숙박업","category":"hotel"}]},{"lat":"37.597561253","long":"127.1404517","imageIndex":5,"items":[{"name":"캘리포니아 호텔","tel":"031-552-9002","addr":"경기도 구리시 수택동 427-20번지","indutype":"숙박업 - 여관/기타숙박업","category":"hotel"}]},{"lat":"37.597807691","long":"127.13770052","imageIndex":5,"items":[{"name":"케이모텔(K motel)","tel":"031-566-0049","addr":"경기도 구리시 수택동 378-3번지","indutype":"숙박업 - 여관/기타숙박업","category":"hotel"}]},{"lat":"37.59914024","long":"127.13848426","imageIndex":5,"items":[{"name":"크로바모텔","tel":"031-562-2274","addr":"경기도 구리시 수택동 381-1번지","indutype":"숙박업 - 여관/기타숙박업","category":"hotel"}]},{"lat":"37.600029833","long":"127.14053551","imageIndex":5,"items":[{"name":"탑모텔","tel":"031-566-2376","addr":"경기도 구리시 수택동 404-10번지","indutype":"숙박업 - 여관/기타숙박업","category":"hotel"}]},{"lat":"37.597786628","long":"127.14033887","imageIndex":5,"items":[{"name":"파티마모텔","tel":"031-562-7569","addr":"경기도 구리시 수택동 427-23번지","indutype":"숙박업 - 여관/기타숙박업","category":"hotel"}]},{"lat":"37.597840225","long":"127.1407353","imageIndex":5,"items":[{"name":"프린스모텔","tel":"031-569-7712","addr":"경기도 구리시 수택동 426-1번지","indutype":"숙박업 - 여관/기타숙박업","category":"hotel"}]},{"lat":"37.597393177","long":"127.13775639","imageIndex":5,"items":[{"name":"필름37.2모텔","tel":"031-554-5754","addr":"경기도 구리시 수택동 378-32번지","indutype":"숙박업 - 여관/기타숙박업","category":"hotel"}]},{"lat":"37.594364194","long":"127.13923424","imageIndex":5,"items":[{"name":"한림드림고시텔","tel":"031-562-4046","addr":"경기도 구리시 수택동 438-76번지","indutype":"숙박업 - 여관/기타숙박업","category":"hotel"}]},{"lat":"37.599336398","long":"127.14026246","imageIndex":5,"items":[{"name":"한양여관","tel":"031-566-3769","addr":"경기도 구리시 수택동 414-5번지","indutype":"숙박업 - 여관/기타숙박업","category":"hotel"}]},{"lat":"37.600252829","long":"127.14244967","imageIndex":5,"items":[{"name":"현대여인숙","tel":"031-564-4144","addr":"경기도 구리시 수택동 526-20","indutype":"숙박업 - 여관/기타숙박업","category":"hotel"}]},{"lat":"37.59967293","long":"127.13751138","imageIndex":5,"items":[{"name":"호텔에너지","tel":"031-569-6957","addr":"경기도 구리시 수택동 374-2번지","indutype":"숙박업 - 여관/기타숙박업","category":"hotel"}]},{"lat":"37.598259055","long":"127.13693133","imageIndex":5,"items":[{"name":"호텔인카페구리점(HOTEL IN CAFE)","tel":"031-556-9864","addr":"경기도 구리시 수택동 376-16번지 팰리스모텔 1-7층","indutype":"숙박업 - 여관/기타숙박업","category":"hotel"}]},{"lat":"37.599259434","long":"127.13667267","imageIndex":5,"items":[{"name":"홍콩모텔","tel":"031-564-1818","addr":"경기도 구리시 수택동 373-9번지","indutype":"숙박업 - 여관/기타숙박업","category":"hotel"},{"name":"홍콩모텔","tel":"031-564-1818","addr":"경기도 구리시 수택동 373-9번지","indutype":"숙박업 - 여관/기타숙박업","category":"hotel"}]}]