[{"lat":"37.038542248","long":"127.1314451","items":[{"name":"(주) 백봉중기산업","tel":"031-653-8981","addr":"경기도 안성시 원곡면 외가천리 114-4번지","category":"기타 - 기계공구"},{"name":"루마건물윈도우필름","tel":"031-787-9373","addr":"경기도 안성시 원곡면 외가천리 114-4번지","category":"건축자재 - 기타건축자재"},{"name":"병천 정가네 순대","tel":"031-656-0428","addr":"경기도 안성시 원곡면 외가천리 114-4번지","category":"일반휴게음식 - 일반한식"},{"name":"원곡성심약국","tel":"031-691-6174","addr":"경기도 안성시 원곡면 외가천리 114-4","category":"약국 - 약국"}]},{"lat":"37.03546033","long":"127.14735509","items":[{"name":"(주)다산중공업","tel":"031-618-0053","addr":"경기도 안성시 원곡면 외가천리 21","category":"자동차판매 - 기타운송"},{"name":"(주)다산중공업/원격지","tel":"031-618-0053","addr":"경기도 안성시 원곡면 외가천리 21번지","category":"기타 - 기타 전문점"}]},{"lat":"37.037047117","long":"127.13085812","items":[{"name":"(주)제이에스건설","tel":"031-691-0830","addr":"경기도 안성시 원곡면 외가천리 228-12","category":"회원제형태 - 레져업소"},{"name":"삼화 화장품","tel":"","addr":"경기도 안성시 원곡면 외가천리 228-12번지 제일오투그란데 308동 202호","category":"보건위생 - 화장품"},{"name":"세븐일레븐안성원곡오투점","tel":"031-1577-0711","addr":"경기도 안성시 원곡면 외가천리 228-12번지 원곡제일오투그란데 101호","category":"유통업 영리 - 편 의 점"},{"name":"유니유니","tel":"","addr":"경기도 안성시 원곡면 외가천리 228-12번지 원곡제일오투그란데 309동 12층 2호","category":"의류 - 아동의류"},{"name":"태형무역","tel":"031-657-3304","addr":"경기도 안성시 원곡면 외가천리 228-12","category":"음료식품 - 농·축·수산품"}]},{"lat":"37.041074474","long":"127.13122457","items":[{"name":"GS25안성원곡본점","tel":"02-2006-2485","addr":"경기도 안성시 원곡면 외가천리 193-1번지","category":"유통업 영리 - 편 의 점"},{"name":"가람인쇄","tel":"031-653-2870","addr":"경기도 안성시 원곡면 외가천리 193-1번지","category":"서적문구 - 출판 및 인쇄물"},{"name":"아로마스퀘어","tel":"031-647-0953","addr":"경기도 안성시 원곡면 외가천리 193-1번지 1층 101호","category":"신변잡화 - 기타잡화"}]},{"lat":"37.036988431","long":"127.12672178","items":[{"name":"GS25원곡외가천점","tel":"","addr":"경기도 안성시 원곡면 외가천리 303-14번지","category":"유통업 영리 - 편 의 점"}]},{"lat":"37.037130175","long":"127.12902617","items":[{"name":"GS25원곡중앙점","tel":"","addr":"경기도 안성시 원곡면 외가천리 231-4번지","category":"유통업 영리 - 편 의 점"}]},{"lat":"37.037214247","long":"127.12619388","items":[{"name":"JB케미칼","tel":"031-655-7004","addr":"경기도 안성시 원곡면 외가천리 303-6번지 나동 5호","category":"건축자재 - 페인트"},{"name":"별난팔도해장국","tel":"031-655-9333","addr":"경기도 안성시 원곡면 외가천리 303-6번지","category":"일반휴게음식 - 일반한식"},{"name":"봉학골 황태 전문점/봉학골 주식회사","tel":"031-656-0906","addr":"경기도 안성시 원곡면 외가천리 303-6번지 가동","category":"일반휴게음식 - 일반한식"},{"name":"제일자동차정비센타","tel":"031-657-7294","addr":"경기도 안성시 원곡면 외가천리 303-6번지 2동 1,2,3호","category":"자동차정비 유지 - 자동차정비"}]},{"lat":"37.034239757","long":"127.12713318","items":[{"name":"고드름모빌","tel":"031-654-3559","addr":"경기도 안성시 원곡면 외가천리 249-1번지 103호","category":"전기제품 - 기타전기제품"}]},{"lat":"37.036132305","long":"127.12683279","items":[{"name":"공인중개사 노영석사무소","tel":"031-653-1875","addr":"경기도 안성시 원곡면 외가천리 256-5번지 101호","category":"용역 서비스 - 부동산 중개·임대"}]},{"lat":"37.038236458","long":"127.13091631","items":[{"name":"광역가설","tel":"031-654-4932","addr":"경기도 안성시 원곡면 외가천리 114-18번지","category":"건축자재 - 기타건축자재"}]},{"lat":"37.038435466","long":"127.13019729","items":[{"name":"광역가설자원(주)","tel":"031-654-4922","addr":"경기도 안성시 원곡면 외가천리 225번지","category":"건축자재 - 기타건축자재"}]},{"lat":"37.035347071","long":"127.1280791","items":[{"name":"국민약국","tel":"031-652-3434","addr":"경기도 안성시 원곡면 외가천리 253-1번지","category":"약국 - 약국"},{"name":"힘찬추어탕","tel":"031-656-1410","addr":"경기도 안성시 원곡면 외가천리 253-1번지","category":"일반휴게음식 - 일반한식"}]},{"lat":"37.03884795","long":"127.13205258","items":[{"name":"궁전코다리찜","tel":"031-657-3692","addr":"경기도 안성시 원곡면 외가천리 114-3번지 가동 1층","category":"일반휴게음식 - 일반한식"}]},{"lat":"37.038660767","long":"127.13016394","items":[{"name":"기천농산","tel":"031-656-2225","addr":"경기도 안성시 원곡면 외가천리 224-11번지","category":"음료식품 - 정육점"}]},{"lat":"37.041737177","long":"127.13494627","items":[{"name":"김재철순대국","tel":"031-654-5652","addr":"경기도 안성시 원곡면 외가천리 161-3번지 103호","category":"일반휴게음식 - 일반한식"},{"name":"세븐일레븐안성원곡본점","tel":"031-1577-0711","addr":"경기도 안성시 원곡면 외가천리 161-3번지","category":"유통업 영리 - 편 의 점"}]},{"lat":"37.034986848","long":"127.12788744","items":[{"name":"김주방장 중화요리","tel":"031-652-9300","addr":"경기도 안성시 원곡면 외가천리 252-1번지","category":"일반휴게음식 - 중국식"},{"name":"별난돼지김치","tel":"031-656-2288","addr":"경기도 안성시 원곡면 외가천리 252-1번지 101호","category":"일반휴게음식 - 일반한식"},{"name":"세븐일레븐안성원곡삼거리점","tel":"031-1577-0711","addr":"경기도 안성시 원곡면 외가천리 252-1번지 2동 1층 101호(세윤상가)","category":"유통업 영리 - 편 의 점"},{"name":"옛날아우내순대","tel":"031-653-9997","addr":"경기도 안성시 원곡면 외가천리 252-1번지 1층 103,104호","category":"일반휴게음식 - 일반한식"},{"name":"와이제이당구장(YJ당구장)","tel":"031-691-4939","addr":"경기도 안성시 원곡면 외가천리 252-1번지","category":"레저업소 - 당 구 장"},{"name":"주식회사비에스팜","tel":"031-652-1902","addr":"경기도 안성시 원곡면 외가천리 252-1번지","category":"약국 - 제약회사"},{"name":"필스크린골프","tel":"031-656-0303","addr":"경기도 안성시 원곡면 외가천리 252-1번지 세윤상가 1동 4-9호","category":"레저업소 - 스크린골프"}]},{"lat":"37.04237678","long":"127.13508227","items":[{"name":"김포한탄강메기매운탕","tel":"031-653-0711","addr":"경기도 안성시 원곡면 외가천리 146-5","category":"일반휴게음식 - 중국식"},{"name":"풍림농기계유통","tel":"070-7529-8843","addr":"경기도 안성시 원곡면 외가천리 146-5번지","category":"농업 - 농기계"}]},{"lat":"37.040490788","long":"127.1293577","items":[{"name":"깡통치킨","tel":"031-658-4939","addr":"경기도 안성시 원곡면 외가천리 200-2번지 1층 2호","category":"일반휴게음식 - 스넥"},{"name":"미니스톱안성원곡점","tel":"031-1577-9621","addr":"경기도 안성시 원곡면 외가천리 200-2번지","category":"유통업 영리 - 편 의 점"},{"name":"우딘도어몰딩","tel":"031-655-1547","addr":"경기도 안성시 원곡면 외가천리 200-2번지","category":"건축자재 - 기타건축자재"},{"name":"원조마포소금구이","tel":"031-618-1692","addr":"경기도 안성시 원곡면 외가천리 200-2번지 나동 1층","category":"일반휴게음식 - 일반한식"},{"name":"장터마당","tel":"031-655-8050","addr":"경기도 안성시 원곡면 외가천리 200-2번지 가동 1층 1호","category":"일반휴게음식 - 일반한식"}]},{"lat":"37.038463865","long":"127.12891598","items":[{"name":"끌리네","tel":"031-653-6062","addr":"경기도 안성시 원곡면 외가천리 223-10번지","category":"의류 - 정장"}]},{"lat":"37.042350273","long":"127.13461012","items":[{"name":"나주곰탕","tel":"031-658-9500","addr":"경기도 안성시 원곡면 외가천리 146-23번지","category":"일반휴게음식 - 일반한식"},{"name":"자연수목농원","tel":"031-656-9538","addr":"경기도 안성시 원곡면 외가천리 146-23","category":"문화.취미 - 화원"}]},{"lat":"37.035654941","long":"127.12664094","items":[{"name":"대성오토","tel":"","addr":"경기도 안성시 원곡면 외가천리 255-2번지","category":"자동차정비 유지 - 자동차정비"}]},{"lat":"37.040876623","long":"127.13896882","items":[{"name":"대원상사","tel":"031-692-6060","addr":"경기도 안성시 원곡면 외가천리 145-9","category":"건축자재 - 목재·석재·철물"}]},{"lat":"37.039213419","long":"127.12733236","items":[{"name":"도시어부","tel":"","addr":"경기도 안성시 원곡면 외가천리 285-1번지 2층 204호","category":"음료식품 - 농·축·수산품"}]},{"lat":"37.038041484","long":"127.12785873","items":[{"name":"동삭골","tel":"031-654-5077","addr":"경기도 안성시 원곡면 외가천리 259-18번지 1층","category":"일반휴게음식 - 일반한식"}]},{"lat":"37.036014932","long":"127.12705739","items":[{"name":"동서가구송탄점","tel":"031-656-6773","addr":"경기도 안성시 원곡면 외가천리 256-3번지","category":"가구 - 일반가구"},{"name":"왕당구장","tel":"031-000-0000","addr":"경기도 안성시 원곡면 외가천리 256-3번지 2층","category":"레저업소 - 당 구 장"}]},{"lat":"37.041127121","long":"127.13252854","items":[{"name":"디유엔지니어링","tel":"031-657-3671","addr":"경기도 안성시 원곡면 외가천리 189번지","category":"용역 서비스 - 기타용역서비스"}]},{"lat":"37.035237848","long":"127.12911296","items":[{"name":"라온교육","tel":"070-4133-4402","addr":"경기도 안성시 원곡면 외가천리 243-6번지 1동","category":"학원 - 기타 교육기관"}]},{"lat":"37.038596677","long":"127.131108","items":[{"name":"마산아구찜","tel":"031-651-8592","addr":"경기도 안성시 원곡면 외가천리 114-20번지","category":"일반휴게음식 - 일반한식"}]},{"lat":"37.037408581","long":"127.1298921","items":[{"name":"마왕족발","tel":"031-655-0201","addr":"경기도 안성시 원곡면 외가천리 229-23번지 나동 1층","category":"일반휴게음식 - 일반한식"}]},{"lat":"37.039545235","long":"127.12882784","items":[{"name":"만세식당","tel":"031-651-6268","addr":"경기도 안성시 원곡면 외가천리 269-2번지","category":"일반휴게음식 - 일반한식"},{"name":"원곡장수원","tel":"031-691-7730","addr":"경기도 안성시 원곡면 외가천리 269-2","category":"건강식품 - 기타건강식품"}]},{"lat":"37.040715429","long":"127.12994257","items":[{"name":"맛있는엘피스존","tel":"031-653-6474","addr":"경기도 안성시 원곡면 외가천리 199-4번지 1층","category":"일반휴게음식 - 서양음식"}]},{"lat":"37.038770286","long":"127.12886028","items":[{"name":"명동김밥마을 만두나라","tel":"031-339-3510","addr":"경기도 안성시 원곡면 외가천리 266-5번지 명동김밥마을 만두나라","category":"일반휴게음식 - 스넥"},{"name":"명동김밥마을 만두나라","tel":"031-657-5025","addr":"경기도 안성시 원곡면 외가천리 266-5번지","category":"일반휴게음식 - 일반한식"},{"name":"명동김밥마을 만두나라","tel":"031-657-5025","addr":"경기도 안성시 원곡면 외가천리 266-5번지","category":"일반휴게음식 - 일반한식"}]},{"lat":"37.035268524","long":"127.12564","items":[{"name":"명진칼라강판","tel":"031-651-8550","addr":"경기도 안성시 원곡면 외가천리 318-13번지","category":"건축자재 - 기타건축자재"}]},{"lat":"37.036464531","long":"127.12794606","items":[{"name":"무봉리토종순대국 서안성점","tel":"031-658-9295","addr":"경기도 안성시 원곡면 외가천리 258-15번지 1층","category":"일반휴게음식 - 일반한식"}]},{"lat":"37.03574426","long":"127.12739414","items":[{"name":"미성삼색장어어죽","tel":"031-681-3533","addr":"경기도 안성시 원곡면 외가천리 255-9번지 1층","category":"일반휴게음식 - 일반한식"}]},{"lat":"37.039740575","long":"127.13152581","items":[{"name":"미성철강주식회사","tel":"031-618-3816","addr":"경기도 안성시 원곡면 외가천리 210-6번지 외3필지(217-2,210-7,217-3)","category":"건축자재 - 기타건축자재"}]},{"lat":"37.039714925","long":"127.13024438","items":[{"name":"미친곱창&미친닭도리탕","tel":"031-674-0166","addr":"경기도 안성시 원곡면 외가천리 218-5번지","category":"일반휴게음식 - 일반한식"},{"name":"이정숙헤어","tel":"031-663-7929","addr":"경기도 안성시 원곡면 외가천리 218-5번지 1층","category":"보건위생 - 미용원"}]},{"lat":"37.03849192","long":"127.12794938","items":[{"name":"밍이네국수","tel":"031-657-8875","addr":"경기도 안성시 원곡면 외가천리 262번지","category":"일반휴게음식 - 일반한식"},{"name":"비비큐치킨","tel":"031-652-3048","addr":"경기도 안성시 원곡면 외가천리 262번지 1층","category":"일반휴게음식 - 스넥"}]},{"lat":"37.034464752","long":"127.12739205","items":[{"name":"박가네","tel":"031-656-9219","addr":"경기도 안성시 원곡면 외가천리 248-3번지","category":"일반휴게음식 - 일반한식"}]},{"lat":"37.034320263","long":"127.12769528","items":[{"name":"백제갈비","tel":"031-691-4592","addr":"경기도 안성시 원곡면 외가천리 248-8번지","category":"일반휴게음식 - 일반한식"}]},{"lat":"37.041432841","long":"127.13311356","items":[{"name":"별밤지기노래연습장","tel":"031-658-5566","addr":"경기도 안성시 원곡면 외가천리 176-3번지","category":"레저업소 - 노 래 방"},{"name":"한식기사뷔페","tel":"031-652-0024","addr":"경기도 안성시 원곡면 외가천리 176-3번지","category":"일반휴게음식 - 일반한식"}]},{"lat":"37.036796303","long":"127.12947521","items":[{"name":"비어사케 원곡점","tel":"","addr":"경기도 안성시 원곡면 외가천리 229-68번지 1층 103호","category":"일반휴게음식 - 주점"},{"name":"이디야커피 안성원곡점","tel":"031-654-4277","addr":"경기도 안성시 원곡면 외가천리 229-68번지 108호","category":"일반휴게음식 - 서양음식"},{"name":"지니헤어","tel":"","addr":"경기도 안성시 원곡면 외가천리 229-68번지 외 7필지 107호","category":"보건위생 - 미용원"},{"name":"푸릴리안성원곡점","tel":"031-654-6765","addr":"경기도 안성시 원곡면 외가천리 229-68번지 JS프라자 1층 1동 101,102호","category":"일반휴게음식 - 일반한식"}]},{"lat":"37.035267285","long":"127.14302752","items":[{"name":"상록수","tel":"031-618-1784","addr":"경기도 안성시 원곡면 외가천리 42-10번지","category":"자동차정비 유지 - 자동차부품"}]},{"lat":"37.039965511","long":"127.13182967","items":[{"name":"새벽옛날통닭","tel":"031-663-0447","addr":"경기도 안성시 원곡면 외가천리 211번지 1층","category":"일반휴게음식 - 스넥"},{"name":"쌍령해장국","tel":"","addr":"경기도 안성시 원곡면 외가천리 211번지 1층","category":"일반휴게음식 - 일반한식"}]},{"lat":"37.039021577","long":"127.12980486","items":[{"name":"서안성농업협동조합원곡지점","tel":"031-656-4275","addr":"경기도 안성시 원곡면 외가천리 221-5번지","category":"농업 - 농기계"},{"name":"서안성농업협동조합원곡지점(경제사업장)","tel":"031-653-3138","addr":"경기도 안성시 원곡면 외가천리 221-5번지 서안성농업협동조합원곡지점","category":"연료판매점 - 유류판매"},{"name":"서안성농협하나로마트","tel":"031-655-8950","addr":"경기도 안성시 원곡면 외가천리 221-5번지","category":"유통업 비영리 - 농,축협 직영매장"},{"name":"서안성농협협동조합원곡지점(경제사업장)","tel":"031-656-4275","addr":"경기도 안성시 원곡면 외가천리 221-5번지","category":"농업 - 비료,사료,종자"}]},{"lat":"37.037688594","long":"127.12925189","items":[{"name":"서울유통","tel":"031-653-9339","addr":"경기도 안성시 원곡면 외가천리 230-1","category":"음료식품 - 주류 판매점"},{"name":"크린토피아 안성 원곡점","tel":"031-618-7288","addr":"경기도 안성시 원곡면 외가천리 230-1번지","category":"수리서비스 - 세탁소"}]},{"lat":"37.035078027","long":"127.12686479","items":[{"name":"서울재활의학과의원","tel":"031-657-2271","addr":"경기도 안성시 원곡면 외가천리 333-10번지 1층","category":"의원 - 의원"}]},{"lat":"37.038878914","long":"127.12838838","items":[{"name":"세븐일레븐안성원곡센터점","tel":"031-1577-0711","addr":"경기도 안성시 원곡면 외가천리 265-12번지 1층","category":"유통업 영리 - 편 의 점"},{"name":"태영장식","tel":"031-654-3339","addr":"경기도 안성시 원곡면 외가천리 265-12번지 1층 2호","category":"건축자재 - 인테리어전문"}]},{"lat":"37.040849658","long":"127.13080829","items":[{"name":"세븐일레븐안성원곡타운점","tel":"031-1577-0711","addr":"경기도 안성시 원곡면 외가천리 196-3번지 1층","category":"유통업 영리 - 편 의 점"}]},{"lat":"37.034772252","long":"127.12630233","items":[{"name":"수라간 코다리","tel":"031-658-6670","addr":"경기도 안성시 원곡면 외가천리 333-3번지","category":"일반휴게음식 - 일반한식"}]},{"lat":"37.041208032","long":"127.13269728","items":[{"name":"쉐농","tel":"031-652-1015","addr":"경기도 안성시 원곡면 외가천리 173-2번지","category":"일반휴게음식 - 서양음식"}]},{"lat":"37.040380985","long":"127.13091991","items":[{"name":"스팀닥터 출장세차","tel":"","addr":"경기도 안성시 원곡면 외가천리 196-22번지 다온빌동 403호","category":"자동차정비 유지 - 세차장"}]},{"lat":"37.03857167","long":"127.12921963","items":[{"name":"신난다노래연습장","tel":"031-618-9611","addr":"경기도 안성시 원곡면 외가천리 224-5번지 지하층","category":"레저업소 - 노 래 방"},{"name":"원곡우체국","tel":"031-653-1300","addr":"경기도 안성시 원곡면 외가천리 224-5번지","category":"용역 서비스 - 공공요금대행서비스/소"}]},{"lat":"37.041519148","long":"127.1365308","items":[{"name":"신사부대찌개 품격삼겹살 안성원곡점","tel":"031-655-6566","addr":"경기도 안성시 원곡면 외가천리 147-5번지","category":"일반휴게음식 - 일반한식"}]},{"lat":"37.03537737","long":"127.12494332","items":[{"name":"신성발전기","tel":"031-657-9077","addr":"경기도 안성시 원곡면 외가천리 318-6번지","category":"전기제품 - 기타전기제품"}]},{"lat":"37.039181648","long":"127.13177214","items":[{"name":"신성시스템","tel":"031-653-3486","addr":"경기도 안성시 원곡면 외가천리 215번지 1층","category":"용역 서비스 - 기타용역서비스"}]},{"lat":"37.041155958","long":"127.13086501","items":[{"name":"신통치킨(원곡점)","tel":"031-658-9277","addr":"경기도 안성시 원곡면 외가천리 195-3번지 1층","category":"일반휴게음식 - 스넥"}]},{"lat":"37.039047717","long":"127.13063667","items":[{"name":"예당어죽","tel":"031-692-6556","addr":"경기도 안성시 원곡면 외가천리 221-9번지 1동","category":"일반휴게음식 - 일반한식"}]},{"lat":"37.039965779","long":"127.13158239","items":[{"name":"옥이네막국수","tel":"031-328-7556","addr":"경기도 안성시 원곡면 외가천리 210-5번지","category":"일반휴게음식 - 일반한식"}]},{"lat":"37.042402542","long":"127.13621761","items":[{"name":"용성종합주방","tel":"031-691-1052","addr":"경기도 안성시 원곡면 외가천리 146-31번지","category":"신변잡화 - 기타잡화"}]},{"lat":"37.041487545","long":"127.13252915","items":[{"name":"우리상사","tel":"031-668-5477","addr":"경기도 안성시 원곡면 외가천리 189-9번지 1층","category":"건축자재 - 페인트"}]},{"lat":"37.041513603","long":"127.13341719","items":[{"name":"원곡교동짬뽕","tel":"031-654-8250","addr":"경기도 안성시 원곡면 외가천리 176-22번지 A동 1층 우측호","category":"일반휴게음식 - 중국식"}]},{"lat":"37.042322039","long":"127.13568916","items":[{"name":"원곡떡방앗간","tel":"031-653-3030","addr":"경기도 안성시 원곡면 외가천리 146-3번지","category":"음료식품 - 제과점"}]},{"lat":"37.041765628","long":"127.13366491","items":[{"name":"원곡타이어","tel":"031-667-0418","addr":"경기도 안성시 원곡면 외가천리 162-2번지 1층","category":"자동차정비 유지 - 자동차정비"},{"name":"이건설공구","tel":"031-656-2094","addr":"경기도 안성시 원곡면 외가천리 162-2번지","category":"기타 - 기계공구"},{"name":"이공구","tel":"031-656-2094","addr":"경기도 안성시 원곡면 외가천리 162-2번지 1층","category":"기타 - 기계공구"}]},{"lat":"37.036049365","long":"127.12858604","items":[{"name":"정훈건강원","tel":"031-666-9194","addr":"경기도 안성시 원곡면 외가천리 257-1번지","category":"건강식품 - 기타건강식품"},{"name":"평택방화문","tel":"031-657-2882","addr":"경기도 안성시 원곡면 외가천리 257-1번지","category":"건축자재 - 기타건축자재"}]},{"lat":"37.03679213","long":"127.12485567","items":[{"name":"제일공방","tel":"031-651-1008","addr":"경기도 안성시 원곡면 외가천리 307-9번지","category":"문화.취미 - 문화취미기타"}]},{"lat":"37.035488183","long":"127.13094542","items":[{"name":"좋구먼안성점","tel":"031-665-9800","addr":"경기도 안성시 원곡면 외가천리 235-1","category":"일반휴게음식 - 일반한식"}]},{"lat":"37.034992583","long":"127.14669108","items":[{"name":"주식회사 명보에너지","tel":"02-1599-0689","addr":"경기도 안성시 원곡면 외가천리 12-1번지 B동 2층","category":"건축자재 - 보일러·펌프·샷시"}]},{"lat":"37.037985537","long":"127.12963454","items":[{"name":"주식회사 소담고을 (원곡지점)","tel":"031-658-9250","addr":"경기도 안성시 원곡면 외가천리 229-20번지","category":"일반휴게음식 - 일반한식"}]},{"lat":"37.038825052","long":"127.12819721","items":[{"name":"주식회사 티엘디앤씨","tel":"031-692-0018","addr":"경기도 안성시 원곡면 외가천리 265-3번지 101호","category":"건축자재 - 부동산 분양"},{"name":"토바기공인중개사사무소","tel":"031-652-0116","addr":"경기도 안성시 원곡면 외가천리 265-3번지 102호","category":"용역 서비스 - 부동산 중개·임대"}]},{"lat":"37.039353872","long":"127.13082827","items":[{"name":"주신산업","tel":"070-7531-9004","addr":"경기도 안성시 원곡면 외가천리 221-3","category":"유통업 영리 - 기타유통업"}]},{"lat":"37.041826882","long":"127.13530613","items":[{"name":"준 당구클럽","tel":"031-653-5348","addr":"경기도 안성시 원곡면 외가천리 161-34번지","category":"레저업소 - 당 구 장"},{"name":"화진포생선구이","tel":"031-651-9293","addr":"경기도 안성시 원곡면 외가천리 161-34번지 1층","category":"일반휴게음식 - 일반한식"}]},{"lat":"37.039654526","long":"127.12772649","items":[{"name":"중고나라","tel":"031-611-3103","addr":"경기도 안성시 원곡면 외가천리 275-4번지","category":"가구 - 일반가구"}]},{"lat":"37.036320562","long":"127.12775475","items":[{"name":"중국성","tel":"031-656-3307","addr":"경기도 안성시 원곡면 외가천리 258-16","category":"일반휴게음식 - 중국식"}]},{"lat":"37.040347359","long":"127.12866056","items":[{"name":"참씽크가구","tel":"031-655-9487","addr":"경기도 안성시 원곡면 외가천리 201-3번지","category":"가구 - 일반가구"}]},{"lat":"37.041658045","long":"127.13317015","items":[{"name":"충남철물포장","tel":"031-692-1408","addr":"경기도 안성시 원곡면 외가천리 176-2번지","category":"건축자재 - 기타건축자재"}]},{"lat":"37.041457723","long":"127.13505819","items":[{"name":"카페달 CAFE DAR","tel":"","addr":"경기도 안성시 원곡면 외가천리 161-7번지 1층","category":"일반휴게음식 - 서양음식"}]},{"lat":"37.038131992","long":"127.12747672","items":[{"name":"코리아마트원곡점","tel":"031-655-0097","addr":"경기도 안성시 원곡면 외가천리 260-1","category":"유통업 영리 - 슈퍼마켓"},{"name":"코리아푸드","tel":"031-618-9737","addr":"경기도 안성시 원곡면 외가천리 260-1번지","category":"음료식품 - 정육점"}]},{"lat":"37.036436237","long":"127.12913742","items":[{"name":"통큰손쭈꾸미마을","tel":"031-655-6656","addr":"경기도 안성시 원곡면 외가천리 233-5번지 1층","category":"일반휴게음식 - 일반한식"}]},{"lat":"37.035743266","long":"127.12833826","items":[{"name":"평택가스","tel":"031-656-7800","addr":"경기도 안성시 원곡면 외가천리 254-1번지","category":"연료판매점 - LPG 취급점"}]},{"lat":"37.035077796","long":"127.14325196","items":[{"name":"평택석유직영서안성주유소","tel":"031-651-5148","addr":"경기도 안성시 원곡면 외가천리 42-3번지","category":"연료판매점 - 현대정유(오일뱅크)"}]},{"lat":"37.038626081","long":"127.12889376","items":[{"name":"평택안성영호클린","tel":"031-654-5304","addr":"경기도 안성시 원곡면 외가천리 223-6번지","category":"용역 서비스 - 종합용역"}]},{"lat":"37.04071018","long":"127.13475341","items":[{"name":"하루","tel":"031-657-2541","addr":"경기도 안성시 원곡면 외가천리 160-9번지 1층","category":"일반휴게음식 - 일반한식"}]},{"lat":"37.039240133","long":"127.12763589","items":[{"name":"한솔라이프주식회사","tel":"031-658-0616","addr":"경기도 안성시 원곡면 외가천리 281-1번지 5층 502호","category":"주방용구 - 주방용구"}]}]