[{"lat":"37.659769706","long":"126.72505396","imageIndex":4,"items":[{"name":"꼬막일번지","tel":"031-918-3838","addr":"경기도 고양시 일산서구 법곳동 256-44번지","indutype":"일반휴게음식 - 일반한식","category":"restaurant"},{"name":"메기1번지","tel":"031-918-3838","addr":"경기도 고양시 일산서구 법곳동","indutype":"일반휴게음식 - 일반한식","category":"restaurant"}]},{"lat":"37.660987572","long":"126.72571808","imageIndex":4,"items":[{"name":"시골보신탕","tel":"031-911-1133","addr":"경기도 고양시 일산서구 법곳동 208-4번지","indutype":"일반휴게음식 - 일반한식","category":"restaurant"}]},{"lat":"37.666990977","long":"126.72698784","imageIndex":4,"items":[{"name":"양평해장국","tel":"031-911-1049","addr":"경기도 고양시 일산서구 법곳동 751-2번지","indutype":"일반휴게음식 - 일반한식","category":"restaurant"}]},{"lat":"37.665602973","long":"126.7267663","imageIndex":4,"items":[{"name":"우리집밥","tel":"031-916-2468","addr":"경기도 고양시 일산서구 법곳동 110-1번지","indutype":"일반휴게음식 - 일반한식","category":"restaurant"}]},{"lat":"37.662296736","long":"126.72307254","imageIndex":4,"items":[{"name":"자유로추어탕","tel":"031-923-6563","addr":"경기도 고양시 일산서구 법곳동 1732-9번지","indutype":"일반휴게음식 - 일반한식","category":"restaurant"}]},{"lat":"37.669353556","long":"126.69851839","imageIndex":4,"items":[{"name":"잔치잔치","tel":"031-923-5779","addr":"경기도 고양시 일산서구 법곳동 1191-15번지","indutype":"일반휴게음식 - 일반한식","category":"restaurant"}]},{"lat":"37.665792519","long":"126.72691294","imageIndex":4,"items":[{"name":"파주된장국밥 본점","tel":"031-915-5020","addr":"경기도 고양시 일산서구 법곳동 126번지","indutype":"일반휴게음식 - 일반한식","category":"restaurant"}]},{"lat":"37.660599174","long":"126.7253002","imageIndex":4,"items":[{"name":"한가람","tel":"031-915-3881","addr":"경기도 고양시 일산서구 법곳동 209-22번지","indutype":"일반휴게음식 - 일반한식","category":"restaurant"}]}]