[{"lat":"37.835415935","long":"126.73523378","imageIndex":17,"items":[{"name":"(주)선우종합상사","tel":"031-945-2101","addr":"경기도 파주시 탄현면 낙하리 269-2번지","indutype":"기타 - 기계공구","category":"other"}]},{"lat":"37.832164813","long":"126.7318491","imageIndex":17,"items":[{"name":"(주)유니버샬엠","tel":"070-4285-0579","addr":"경기도 파주시 탄현면 낙하리 301-7번지","indutype":"서적문구 - 일반서적","category":"other"}]},{"lat":"37.832687478","long":"126.73584569","imageIndex":17,"items":[{"name":"ISNATURE","tel":"070-4733-9850","addr":"경기도 파주시 탄현면 낙하리 282-3번지","indutype":"회원제형태 - 기타4","category":"other"}]},{"lat":"37.835527798","long":"126.74499144","imageIndex":17,"items":[{"name":"갈릴리편의점","tel":"070-7536-8331","addr":"경기도 파주시 탄현면 낙하리 96-9","indutype":"유통업 영리 - 편 의 점","category":"other"}]},{"lat":"37.825690952","long":"126.73751785","imageIndex":17,"items":[{"name":"경북상가","tel":"031-942-8598","addr":"경기도 파주시 탄현면 낙하리 297-6번지","indutype":"용역 서비스 - 부동산 중개·임대","category":"other"}]},{"lat":"37.838549056","long":"126.73429092","imageIndex":17,"items":[{"name":"낙하리편의점","tel":"031-941-8982","addr":"경기도 파주시 탄현면 낙하리 231-1번지","indutype":"유통업 영리 - 편 의 점","category":"other"}]},{"lat":"37.837494625","long":"126.7381231","imageIndex":17,"items":[{"name":"더브러컴퍼니","tel":"031-941-7250","addr":"경기도 파주시 탄현면 낙하리 210-3번지","indutype":"가구 - 일반가구","category":"other"}]},{"lat":"37.838774366","long":"126.73432419","imageIndex":17,"items":[{"name":"세원판넬","tel":"031-954-1044","addr":"경기도 파주시 탄현면 낙하리 230-1번지","indutype":"건축자재 - 기타건축자재","category":"other"}]},{"lat":"37.827383729","long":"126.74110109","imageIndex":17,"items":[{"name":"아뜰리에 렌토(atelier lento)","tel":"031-000-0000","addr":"경기도 파주시 탄현면 낙하리 607번지","indutype":"문화.취미 - 화원","category":"other"}]},{"lat":"37.833939764","long":"126.74390645","imageIndex":17,"items":[{"name":"이마트24 파주 낙하리점","tel":"","addr":"경기도 파주시 탄현면 낙하리 6-23번지","indutype":"유통업 영리 - 편 의 점","category":"other"}]},{"lat":"37.8254995","long":"126.73651901","imageIndex":17,"items":[{"name":"이마트24 파주방촌로점","tel":"","addr":"경기도 파주시 탄현면 낙하리 298-6번지","indutype":"유통업 영리 - 편 의 점","category":"other"},{"name":"이마트24 파주방촌로점","tel":"031-0000-0000","addr":"경기도 파주시 탄현면 낙하리 298-6번지","indutype":"유통업 영리 - 편 의 점","category":"other"}]},{"lat":"37.831550667","long":"126.74317646","imageIndex":17,"items":[{"name":"인더라인25","tel":"070-4044-8794","addr":"경기도 파주시 탄현면 낙하리 595번지","indutype":"유통업 영리 - 편 의 점","category":"other"}]},{"lat":"37.837663807","long":"126.7372364","imageIndex":17,"items":[{"name":"주식회사 에스엠디코리아","tel":"031-957-2053","addr":"경기도 파주시 탄현면 낙하리 208-1번지","indutype":"기타 - 기계공구","category":"other"}]},{"lat":"37.826550207","long":"126.73901408","imageIndex":17,"items":[{"name":"지니디오","tel":"031-947-4689","addr":"경기도 파주시 탄현면 낙하리 55-7번지","indutype":"신변잡화 - 신발","category":"other"}]},{"lat":"37.833995043","long":"126.74446288","imageIndex":17,"items":[{"name":"태영컨테이너","tel":"070-4400-2184","addr":"경기도 파주시 탄현면 낙하리 6-24,92-2","indutype":"건축자재 - 기타건축자재","category":"other"}]}]