[{"lat":"37.634086795","long":"127.14042836","imageIndex":4,"items":[{"name":"(주)다온갈비","tel":"031-573-9282","addr":"경기도 구리시 사노동 242-1번지 1층","indutype":"일반휴게음식 - 일반한식","category":"restaurant"}]},{"lat":"37.632725999","long":"127.14070908","imageIndex":4,"items":[{"name":"153한식당","tel":"031-552-9445","addr":"경기도 구리시 사노동 209-5번지 1층","indutype":"일반휴게음식 - 위탁급식업","category":"restaurant"}]},{"lat":"37.633365463","long":"127.14090285","imageIndex":4,"items":[{"name":"구룡각","tel":"031-555-7555","addr":"경기도 구리시 사노동 248번지 105호","indutype":"일반휴게음식 - 중국식","category":"restaurant"},{"name":"서울해장국","tel":"031-527-8522","addr":"경기도 구리시 사노동 248번지","indutype":"일반휴게음식 - 일반한식","category":"restaurant"}]},{"lat":"37.632391964","long":"127.14128623","imageIndex":4,"items":[{"name":"남원추어탕","tel":"031-571-1808","addr":"경기도 구리시 사노동 209-11번지","indutype":"일반휴게음식 - 일반한식","category":"restaurant"}]},{"lat":"37.633780267","long":"127.14059773","imageIndex":4,"items":[{"name":"동구릉막국수","tel":"031-529-9935","addr":"경기도 구리시 사노동 248-4번지 1층","indutype":"일반휴게음식 - 일반한식","category":"restaurant"}]},{"lat":"37.627753355","long":"127.14008818","imageIndex":4,"items":[{"name":"두메골","tel":"031-573-5558","addr":"경기도 구리시 사노동 170-3번지","indutype":"일반휴게음식 - 일반한식","category":"restaurant"}]},{"lat":"37.635916291","long":"127.13997856","imageIndex":4,"items":[{"name":"맛좋은집밥","tel":"031-575-5378","addr":"경기도 구리시 사노동 340-12번지 (2종근린생활)","indutype":"일반휴게음식 - 일반한식","category":"restaurant"},{"name":"무봉리토종순대국 구리사노점","tel":"031-528-3455","addr":"경기도 구리시 사노동 340-12번지 1층","indutype":"일반휴게음식 - 일반한식","category":"restaurant"}]},{"lat":"37.629888365","long":"127.14034133","imageIndex":4,"items":[{"name":"사노리","tel":"031-573-6766","addr":"경기도 구리시 사노동 196번지 약산가든 가동","indutype":"일반휴게음식 - 일반한식","category":"restaurant"}]},{"lat":"37.636582586","long":"127.14034233","imageIndex":4,"items":[{"name":"샘터집","tel":"031-571-5166","addr":"경기도 구리시 사노동 352-7번지","indutype":"일반휴게음식 - 일반한식","category":"restaurant"}]},{"lat":"37.643059654","long":"127.14112473","imageIndex":4,"items":[{"name":"신토방유황오리전문점","tel":"02-3463-1088","addr":"경기도 구리시 사노동 452-10번지 1층","indutype":"일반휴게음식 - 일반한식","category":"restaurant"}]},{"lat":"37.643384599","long":"127.14061546","imageIndex":4,"items":[{"name":"아궁이","tel":"031-572-8604","addr":"경기도 구리시 사노동 449-2번지","indutype":"일반휴게음식 - 일반한식","category":"restaurant"}]},{"lat":"37.637803287","long":"127.1442533","imageIndex":4,"items":[{"name":"앰비션","tel":"031-575-5878","addr":"경기도 구리시 사노동 78-2번지 1층","indutype":"일반휴게음식 - 주점","category":"restaurant"}]},{"lat":"37.636921756","long":"127.14306203","imageIndex":4,"items":[{"name":"양지가든","tel":"031-574-1240","addr":"경기도 구리시 사노동 86번지","indutype":"일반휴게음식 - 일반한식","category":"restaurant"}]},{"lat":"37.638449169","long":"127.1389862","imageIndex":4,"items":[{"name":"양지쌈밥","tel":"031-573-8985","addr":"경기도 구리시 사노동 387-4번지 104호 103","indutype":"일반휴게음식 - 일반한식","category":"restaurant"},{"name":"주식회사 아카시","tel":"031-575-4260","addr":"경기도 구리시 사노동 387-4번지 상가 1층 102호","indutype":"일반휴게음식 - 일반한식","category":"restaurant"}]},{"lat":"37.638691382","long":"127.13989302","imageIndex":4,"items":[{"name":"양평해장국 구리점","tel":"031-572-1561","addr":"경기도 구리시 사노동 386-13번지 1층","indutype":"일반휴게음식 - 일반한식","category":"restaurant"}]},{"lat":"37.6321392","long":"127.14170493","imageIndex":4,"items":[{"name":"주원식당","tel":"031-574-5958","addr":"경기도 구리시 사노동 207-2번지","indutype":"일반휴게음식 - 일반한식","category":"restaurant"}]},{"lat":"37.637643351","long":"127.14237228","imageIndex":4,"items":[{"name":"푸드포레","tel":"031-557-3700","addr":"경기도 구리시 사노동 71-2번지 1층","indutype":"일반휴게음식 - 일반한식","category":"restaurant"}]},{"lat":"37.63747416","long":"127.13273048","imageIndex":4,"items":[{"name":"행복출장부페","tel":"02-2773-9600","addr":"경기도 구리시 사노동 534-6번지 가동","indutype":"일반휴게음식 - 일반한식","category":"restaurant"}]},{"lat":"37.632418474","long":"127.1417281","imageIndex":4,"items":[{"name":"행복한 밥상","tel":"031-528-0063","addr":"경기도 구리시 사노동 209-20번지","indutype":"일반휴게음식 - 일반한식","category":"restaurant"}]},{"lat":"37.635699187","long":"127.1407259","imageIndex":4,"items":[{"name":"향인식당","tel":"031-528-3204","addr":"경기도 구리시 사노동 340-22번지 1층","indutype":"일반휴게음식 - 일반한식","category":"restaurant"}]}]