[{"lat":"37.708496214","long":"127.32243145","imageIndex":7,"items":[{"name":"깨솜이찐빵","tel":"031-594-8656","addr":"경기도 남양주시 수동면 입석리 327-7번지 1층","indutype":"음료식품 - 제과점","category":"food"},{"name":"만수보강원","tel":"031-593-8500","addr":"경기도 남양주시 수동면 입석리 327-7","indutype":"건강식품 - 기타건강식품","category":"food"}]},{"lat":"37.714437993","long":"127.32410144","imageIndex":7,"items":[{"name":"대한불교조계종 무량정사","tel":"031-594-7970","addr":"경기도 남양주시 수동면 입석리 441-1번지","indutype":"음료식품 - 기타음료식품","category":"food"}]},{"lat":"37.713746385","long":"127.32988245","imageIndex":7,"items":[{"name":"물골안농수산물","tel":"031-511-2114","addr":"경기도 남양주시 수동면 입석리 442-11번지","indutype":"음료식품 - 농·축·수산품","category":"food"}]},{"lat":"37.71238365","long":"127.32416062","imageIndex":7,"items":[{"name":"물골안물동네","tel":"031-593-3314","addr":"경기도 남양주시 수동면 입석리 445","indutype":"음료식품 - 농·축·수산품","category":"food"},{"name":"물골안물동네장류","tel":"031-593-3314","addr":"경기도 남양주시 수동면 입석리 445번지 외1필지","indutype":"음료식품 - 기타음료식품","category":"food"}]},{"lat":"37.691774327","long":"127.34803982","imageIndex":7,"items":[{"name":"바른식품","tel":"031-529-5982","addr":"경기도 남양주시 수동면 입석리 38-13번지 가동","indutype":"음료식품 - 기타음료식품","category":"food"}]},{"lat":"37.6944722","long":"127.355819","imageIndex":7,"items":[{"name":"바바어묵공방(바른식품제2공장)","tel":"031-594-5988","addr":"경기도 남양주시 수동면 입석리 22-2번지","indutype":"음료식품 - 기타음료식품","category":"food"}]},{"lat":"37.720940705","long":"127.31485155","imageIndex":7,"items":[{"name":"신망애이룸터","tel":"031-594-6624","addr":"경기도 남양주시 수동면 입석리 522-2번지 비룡로972번길1,비룡로972번길 17-1","indutype":"음료식품 - 기타음료식품","category":"food"},{"name":"희망을 나누는 가게","tel":"031-594-6644","addr":"경기도 남양주시 수동면 입석리 522-2번지","indutype":"음료식품 - 기타음료식품","category":"food"}]},{"lat":"37.716940139","long":"127.32170782","imageIndex":7,"items":[{"name":"중간회색","tel":"031-592-8840","addr":"경기도 남양주시 수동면 입석리 478-1번지","indutype":"음료식품 - 기타음료식품","category":"food"}]},{"lat":"37.712827243","long":"127.32338001","imageIndex":7,"items":[{"name":"햇살촌","tel":"031-593-3314","addr":"경기도 남양주시 수동면 입석리 471-1","indutype":"음료식품 - 농·축·수산품","category":"food"}]}]