[{"lat":"37.214937924","long":"126.817746","imageIndex":9,"items":[{"name":"(주)에스엠 화성주유소","tel":"031-858-5101","addr":"경기도 화성시 남양읍 남양리 1104번지","indutype":"연료판매점 - 쌍용S-OIL","category":"oil"}]},{"lat":"37.202991441","long":"126.79668838","imageIndex":9,"items":[{"name":"남양제일주유소","tel":"031-355-5147","addr":"경기도 화성시 남양읍 남양리 371-11번지","indutype":"연료판매점 - 주유소","category":"oil"},{"name":"이포에너지(주)우리주유소","tel":"02-392-2516","addr":"경기도 화성시 남양읍 남양리 371-11번지","indutype":"연료판매점 - 현대정유(오일뱅크)","category":"oil"}]},{"lat":"37.211573297","long":"126.8211339","imageIndex":9,"items":[{"name":"태양가스","tel":"031-353-1001","addr":"경기도 화성시 남양읍 남양리 1311-1번지","indutype":"연료판매점 - LPG 취급점","category":"oil"}]},{"lat":"37.215436435","long":"126.8196375","imageIndex":9,"items":[{"name":"한성주유소","tel":"031-356-5705","addr":"경기도 화성시 남양읍 남양리 1120-5번지","indutype":"연료판매점 - GS주유소","category":"oil"},{"name":"한성주유소","tel":"031-356-5705","addr":"경기도 화성시 남양읍 남양리 1120-5번지","indutype":"연료판매점 - GS주유소","category":"oil"}]},{"lat":"37.215272256","long":"126.81835356","imageIndex":9,"items":[{"name":"행복주유소","tel":"031-356-8472","addr":"경기도 화성시 남양읍 남양리 1108-3번지","indutype":"연료판매점 - SK주유소","category":"oil"}]}]