[{"lat":"37.31062964","long":"127.64411139","items":[{"name":"(GnB)지앤비 어학원","tel":"031-885-0522","addr":"경기도 여주시 오학동 261-7번지 오학빌딩 2층","category":"학원 - 외국어학원"},{"name":"La vie en bonbon(라비앙봉봉)","tel":"","addr":"경기도 여주시 오학동 261-7번지 102호","category":"일반휴게음식 - 일반한식"},{"name":"경희대 튼튼 태권도","tel":"","addr":"경기도 여주시 오학동 261-7번지 201호","category":"학원 - 예·체능계학원"},{"name":"교촌치킨 여주오학점","tel":"031-885-1999","addr":"경기도 여주시 오학동 261-7번지 101호","category":"일반휴게음식 - 스넥"},{"name":"위니드수학 토론하는 아이들학원","tel":"031-885-0522","addr":"경기도 여주시 오학동 261-7번지 2층 202호","category":"학원 - 보습학원"},{"name":"쭌모바일","tel":"031-883-7774","addr":"경기도 여주시 오학동 261-7번지 1층 105호","category":"사무통신 - 통신기기"}]},{"lat":"37.313713694","long":"127.65025169","items":[{"name":"(주)생활미인","tel":"031-886-1975","addr":"경기도 여주시 오학동 140-7번지","category":"문화.취미 - 민예·공예품"}]},{"lat":"37.308633771","long":"127.64330485","items":[{"name":"21세기조명전기","tel":"031-881-2121","addr":"경기도 여주시 오학동 286번지","category":"전기제품 - 기타전기제품"},{"name":"구이가","tel":"031-886-6692","addr":"경기도 여주시 오학동 286번지","category":"일반휴게음식 - 일반한식"},{"name":"닥터크린세탁소","tel":"031-885-3488","addr":"경기도 여주시 오학동 286번지","category":"수리서비스 - 세탁소"},{"name":"박지연헤어필","tel":"031-881-2078","addr":"경기도 여주시 오학동 286번지","category":"보건위생 - 미용원"},{"name":"밤을달리다","tel":"031-886-6586","addr":"경기도 여주시 오학동 286번지 1층","category":"일반휴게음식 - 주점"},{"name":"엘스터디학원","tel":"031-886-9187","addr":"경기도 여주시 오학동 286번지 2층","category":"학원 - 보습학원"},{"name":"오학노래연습장","tel":"031-882-0645","addr":"경기도 여주시 오학동 286번지","category":"레저업소 - 노 래 방"},{"name":"쿡당구장","tel":"031-886-2557","addr":"경기도 여주시 오학동 286번지","category":"레저업소 - 당 구 장"}]},{"lat":"37.302243312","long":"127.64705166","items":[{"name":"Capella(카펠라)","tel":"031-883-5447","addr":"경기도 여주시 오학동 402-5번지","category":"일반휴게음식 - 서양음식"}]},{"lat":"37.310463281","long":"127.64321884","items":[{"name":"GS25여주승리점","tel":"","addr":"경기도 여주시 오학동 279-41번지","category":"유통업 영리 - 편 의 점"},{"name":"Oic피부&헤어","tel":"","addr":"경기도 여주시 오학동 279-41번지 1동 3호","category":"보건위생 - 피부미용실"},{"name":"라이또 PC 오학점","tel":"070-4802-3146","addr":"경기도 여주시 오학동 279-41번지 2층","category":"레저업소 - 기타레져업소"},{"name":"신유정헤어oic","tel":"031-882-6915","addr":"경기도 여주시 오학동 279-41번지 1층 3호","category":"보건위생 - 미용원"},{"name":"핫꾸이","tel":"031-882-6915","addr":"경기도 여주시 오학동 279-41번지 1층","category":"일반휴게음식 - 주점"}]},{"lat":"37.303552531","long":"127.64488595","items":[{"name":"GS25여주오학점","tel":"","addr":"경기도 여주시 오학동 361번지 여주신도브래뉴 101호","category":"유통업 영리 - 편 의 점"},{"name":"사랑가득어린이집[아이행복]","tel":"031-883-7305","addr":"경기도 여주시 오학동 361번지 여주신도브래뉴","category":"학원 - 유아원"},{"name":"이연희헤어커커","tel":"031-881-5580","addr":"경기도 여주시 오학동 361번지 신도상가 201호","category":"보건위생 - 미용원"},{"name":"한빛어린이집[아이행복]","tel":"031-886-6001","addr":"경기도 여주시 오학동 361번지 여주신도브래뉴","category":"학원 - 유아원"}]},{"lat":"37.31230102","long":"127.64161004","items":[{"name":"H hair (헤어)","tel":"031-886-5766","addr":"경기도 여주시 오학동 408번지 여주오드카운티 상가동 103호","category":"보건위생 - 미용원"},{"name":"꽃누리어린이집[아이행복]","tel":"031-884-5056","addr":"경기도 여주시 오학동 408번지 여주오드카운티 103동 102호","category":"학원 - 유아원"},{"name":"라온유통","tel":"","addr":"경기도 여주시 오학동 408번지 여주오드카운티 상가동 101호","category":"신변잡화 - 액세서리"},{"name":"서하어린이집[아이행복]","tel":"031-885-8334","addr":"경기도 여주시 오학동 408번지 여주오드카운티","category":"학원 - 유아원"},{"name":"세종푸드","tel":"","addr":"경기도 여주시 오학동 408번지 여주오드카운티 110동 304호","category":"음료식품 - 기타음료식품"},{"name":"송쌤음악학원","tel":"031-882-4731","addr":"경기도 여주시 오학동 408번지 여주오드카운티 상가 201호 202호","category":"학원 - 예·체능계학원"},{"name":"술간","tel":"031-111-1111","addr":"경기도 여주시 오학동 408번지 여주오드카운티 상가동 102호","category":"일반휴게음식 - 일반한식"},{"name":"씨유여주오드카운티점","tel":"080-080-3663","addr":"경기도 여주시 오학동 408번지 여주오드카운티 상가동 1층 104호","category":"유통업 영리 - 편 의 점"},{"name":"엄마최고","tel":"","addr":"경기도 여주시 오학동 408번지 여주오드카운티 110동 102호","category":"음료식품 - 기타음료식품"},{"name":"오드키즈어린이집[아이행복]","tel":"031-886-7110","addr":"경기도 여주시 오학동 408번지 여주오드카운티 110동 103호","category":"학원 - 유아원"},{"name":"오띠모","tel":"","addr":"경기도 여주시 오학동 408번지 여주오드카운티","category":"의류 - 내의판매"},{"name":"해법오드 교실","tel":"","addr":"경기도 여주시 오학동 408번지 여주오드카운티 103동 203호","category":"학원 - 기타 교육기관"},{"name":"해법오드 영수학원","tel":"031-635-2000","addr":"경기도 여주시 오학동 408번지 여주오토카티 103동 203호","category":"학원 - 기타 교육기관"}]},{"lat":"37.308247088","long":"127.64316621","items":[{"name":"JoveIy(조블리)","tel":"031-885-3735","addr":"경기도 여주시 오학동 286-4번지 1층","category":"일반휴게음식 - 서양음식"},{"name":"오학정육점","tel":"031-886-5784","addr":"경기도 여주시 오학동 286-4번지","category":"음료식품 - 정육점"},{"name":"원당구클럽","tel":"03-111-1111","addr":"경기도 여주시 오학동 286-4번지","category":"레저업소 - 당 구 장"}]},{"lat":"37.305745146","long":"127.64263742","items":[{"name":"J에스테틱","tel":"031-885-1588","addr":"경기도 여주시 오학동 292-13번지","category":"보건위생 - 피부미용실"},{"name":"대박이네 막창","tel":"031-882-5892","addr":"경기도 여주시 오학동 292-13번지","category":"일반휴게음식 - 일반한식"},{"name":"드라이119수선","tel":"031-885-9904","addr":"경기도 여주시 오학동 292-13번지","category":"수리서비스 - 세탁소"},{"name":"아다솔피아노교습소","tel":"031-883-7535","addr":"경기도 여주시 오학동 292-13번지","category":"학원 - 예·체능계학원"},{"name":"옥봉도예","tel":"031-885-7573","addr":"경기도 여주시 오학동 292-13번지","category":"문화.취미 - 민예·공예품"},{"name":"용호체육관","tel":"031-886-6776","addr":"경기도 여주시 오학동 292-13번지 2층","category":"학원 - 예·체능계학원"},{"name":"헤어로비","tel":"031-885-1588","addr":"경기도 여주시 오학동 292-13번지","category":"보건위생 - 미용원"}]},{"lat":"37.306885495","long":"127.64502708","items":[{"name":"K 월드세라믹","tel":"070-8845-0927","addr":"경기도 여주시 오학동 322-2번지 2층","category":"문화.취미 - 민예·공예품"},{"name":"거성요업전시장","tel":"031-885-1308","addr":"경기도 여주시 오학동 322-2번지","category":"건축자재 - 건축용 요업제품"}]},{"lat":"37.301554403","long":"127.64449677","items":[{"name":"LKmade","tel":"031-885-5441","addr":"경기도 여주시 오학동 376번지 376호","category":"문화.취미 - 민예·공예품"},{"name":"두광도예","tel":"031-885-2659","addr":"경기도 여주시 오학동 376번지 102호","category":"문화.취미 - 민예·공예품"},{"name":"오학당구장","tel":"031-882-0909","addr":"경기도 여주시 오학동 376번지","category":"레저업소 - 당 구 장"}]},{"lat":"37.310353517","long":"127.64352247","items":[{"name":"La stella(라스칼라)","tel":"031-000-0000","addr":"경기도 여주시 오학동 279-38번지 1층 102호","category":"음료식품 - 제과점"},{"name":"알투스영어","tel":"031-886-1236","addr":"경기도 여주시 오학동 279-38번지 2층","category":"학원 - 보습학원"},{"name":"준앤 큐사랑","tel":"031-1111-1111","addr":"경기도 여주시 오학동 279-38번지","category":"보건위생 - 미용재료"}]},{"lat":"37.301578192","long":"127.64675273","items":[{"name":"MYQ진양당구클럽","tel":"","addr":"경기도 여주시 오학동 404-9번지 진양빌딩 2층","category":"레저업소 - 당 구 장"},{"name":"서향감자탕","tel":"031-886-3479","addr":"경기도 여주시 오학동 404-9번지 진양빌딩","category":"일반휴게음식 - 일반한식"},{"name":"윌스튜디오","tel":"031-882-3007","addr":"경기도 여주시 오학동 404-9번지 진양빌딩 2층","category":"광학제품 - 사진관"},{"name":"임진숙 천연발효빵","tel":"031-1111-1111","addr":"경기도 여주시 오학동 404-9번지 진양빌딩 1층","category":"음료식품 - 제과점"},{"name":"진양 스포츠 기획","tel":"","addr":"경기도 여주시 오학동 404-9번지 진양빌딩","category":"레져용품 - 스포츠·레져용품"},{"name":"퀸카페(Queen cafe)","tel":"031-1111-1111","addr":"경기도 여주시 오학동 404-9번지 진양빌딩","category":"일반휴게음식 - 서양음식"}]},{"lat":"37.30985481","long":"127.64410481","items":[{"name":"PIXEL","tel":"031-885-3366","addr":"경기도 여주시 오학동 256-4번지","category":"서적문구 - 출판 및 인쇄물"},{"name":"대림종합설비","tel":"031-882-7333","addr":"경기도 여주시 오학동 256-4번지","category":"용역 서비스 - 기타용역서비스"},{"name":"머리이야기","tel":"031-881-0898","addr":"경기도 여주시 오학동 256-4번지","category":"보건위생 - 미용원"}]},{"lat":"37.306384101","long":"127.64277819","items":[{"name":"PORSL IN","tel":"031-885-8823","addr":"경기도 여주시 오학동 292-11번지 1층","category":"주방용구 - 주방용식기"},{"name":"뷰티온","tel":"","addr":"경기도 여주시 오학동 292-11번지 1동 102호","category":"보건위생 - 피부미용실"},{"name":"아이스킹여주오학점","tel":"031-882-8885","addr":"경기도 여주시 오학동 292-11번지 1동 101호","category":"음료식품 - 제과점"}]},{"lat":"37.308104459","long":"127.642883","items":[{"name":"She ri (쉬리)","tel":"031-1111-1111","addr":"경기도 여주시 오학동 285-11번지","category":"의류 - 정장"},{"name":"네일은 행복","tel":"031-882-4540","addr":"경기도 여주시 오학동 285-11번지 201호","category":"보건위생 - 피부미용실"},{"name":"달구지막창","tel":"031-885-5211","addr":"경기도 여주시 오학동 285-11번지","category":"일반휴게음식 - 일반한식"},{"name":"풍성식당","tel":"031-882-4957","addr":"경기도 여주시 오학동 285-11번지","category":"일반휴게음식 - 일반한식"}]},{"lat":"37.309911556","long":"127.64360897","items":[{"name":"S클래스학원","tel":"031-886-0082","addr":"경기도 여주시 오학동 283-1번지","category":"학원 - 보습학원"},{"name":"과일승주맘(여주점)","tel":"070-4763-5091","addr":"경기도 여주시 오학동 283-1번지","category":"음료식품 - 농·축·수산품"},{"name":"오학감자탕","tel":"031-886-8448","addr":"경기도 여주시 오학동 283-1번지","category":"일반휴게음식 - 일반한식"},{"name":"오학열쇠","tel":"031-885-3248","addr":"경기도 여주시 오학동 283-1번지","category":"건축자재 - 목재·석재·철물"}]},{"lat":"37.301411475","long":"127.64758595","items":[{"name":"haru hana (하루하나)","tel":"031-886-0704","addr":"경기도 여주시 오학동 404-12번지","category":"문화.취미 - 화원"},{"name":"다이소 여주오학점","tel":"031-885-0262","addr":"경기도 여주시 오학동 404-12번지","category":"신변잡화 - 기타잡화"},{"name":"엘지럭셔리뷰티 신여주점","tel":"031-883-5355","addr":"경기도 여주시 오학동 404-12번지","category":"보건위생 - 화장품"},{"name":"한그릇뚝닭","tel":"031-881-1101","addr":"경기도 여주시 오학동 404-12번지","category":"일반휴게음식 - 일반한식"}]},{"lat":"37.314628515","long":"127.64772136","items":[{"name":"가야","tel":"031-886-5317","addr":"경기도 여주시 오학동 124-2번지","category":"주방용구 - 주방용식기"}]},{"lat":"37.319246431","long":"127.65343539","items":[{"name":"가온농원","tel":"031-637-2277","addr":"경기도 여주시 오학동 61-5번지","category":"음료식품 - 농·축·수산품"},{"name":"농업회사법인주식회사 천고송","tel":"031-000-0000","addr":"경기도 여주시 오학동 61-5번지","category":"음료식품 - 농·축·수산품"},{"name":"송하소리","tel":"","addr":"경기도 여주시 오학동 61-5번지 26동내 재배사","category":"음료식품 - 농·축·수산품"}]},{"lat":"37.310522584","long":"127.64224925","items":[{"name":"거기로 가자","tel":"031-883-7355","addr":"경기도 여주시 오학동 280번지","category":"일반휴게음식 - 일반한식"},{"name":"공간(타이앤타이)","tel":"031-881-3493","addr":"경기도 여주시 오학동 280번지","category":"가구 - 기타가구"},{"name":"돌판생삼겹살","tel":"031-884-3014","addr":"경기도 여주시 오학동 280번지","category":"일반휴게음식 - 일반한식"},{"name":"커피나무","tel":"031-886-8843","addr":"경기도 여주시 오학동 280번지 1층","category":"일반휴게음식 - 서양음식"}]},{"lat":"37.305106618","long":"127.6424177","items":[{"name":"경기이화덴탈","tel":"031-886-0928","addr":"경기도 여주시 오학동 292-24번지","category":"보건위생 - 의료용품"}]},{"lat":"37.32012874","long":"127.65027286","items":[{"name":"경진요업","tel":"031-885-0953","addr":"경기도 여주시 오학동 62-11번지","category":"문화.취미 - 골동품점"},{"name":"현진도예","tel":"031-886-0897","addr":"경기도 여주시 오학동 62-11번지","category":"문화.취미 - 민예·공예품"}]},{"lat":"37.311994337","long":"127.64500285","items":[{"name":"계동치킨(오학점)","tel":"031-886-9211","addr":"경기도 여주시 오학동 272-4번지","category":"일반휴게음식 - 스넥"},{"name":"골드그린세탁","tel":"031-885-8853","addr":"경기도 여주시 오학동 272-4번지","category":"수리서비스 - 세탁소"},{"name":"오학토종순대국","tel":"031-886-7988","addr":"경기도 여주시 오학동 272-4번지","category":"일반휴게음식 - 일반한식"},{"name":"키즈중앙태권도장","tel":"031-886-7070","addr":"경기도 여주시 오학동 272-4번지 2층","category":"학원 - 예·체능계학원"},{"name":"페밀리푸드","tel":"","addr":"경기도 여주시 오학동 272-4번지 1층","category":"일반휴게음식 - 일반한식"},{"name":"학동맛집","tel":"031-884-3647","addr":"경기도 여주시 오학동 272-4번지","category":"일반휴게음식 - 일반한식"}]},{"lat":"37.319886097","long":"127.65015797","items":[{"name":"고센화분","tel":"031-886-1532","addr":"경기도 여주시 오학동 62-12번지","category":"문화.취미 - 민예·공예품"}]},{"lat":"37.301718364","long":"127.64582906","items":[{"name":"광크리닝","tel":"031-882-8257","addr":"경기도 여주시 오학동 358-2번지 1동 1층","category":"자동차정비 유지 - 카인테리어"},{"name":"대광기계공구","tel":"031-885-0985","addr":"경기도 여주시 오학동 358-2번지 105호","category":"기타 - 기계공구"},{"name":"러블리 펫","tel":"031-883-8525","addr":"경기도 여주시 오학동 358-2번지 1동 1층","category":"문화.취미 - 애완동물"},{"name":"세종가축병원","tel":"031-83-2802","addr":"경기도 여주시 오학동 358-2번지","category":"기타의료기관 - 동물병원"},{"name":"자연빛","tel":"031-885-2888","addr":"경기도 여주시 오학동 358-2번지","category":"음료식품 - 기타음료식품"},{"name":"횡성더덕도라지직판장","tel":"031-884-7638","addr":"경기도 여주시 오학동 358-2번지","category":"음료식품 - 농·축·수산품"}]},{"lat":"37.309272136","long":"127.64521658","items":[{"name":"금강건재상사","tel":"031-884-4105","addr":"경기도 여주시 오학동 300-11번지","category":"건축자재 - 목재·석재·철물"}]},{"lat":"37.312387195","long":"127.64400223","items":[{"name":"꼬몽이","tel":"031-111-1111","addr":"경기도 여주시 오학동 100-28번지 1층","category":"일반휴게음식 - 일반한식"}]},{"lat":"37.311856682","long":"127.64546417","items":[{"name":"꽃과나무","tel":"031-883-1944","addr":"경기도 여주시 오학동 270번지","category":"문화.취미 - 화원"}]},{"lat":"37.311882043","long":"127.64411074","items":[{"name":"꿈초롱어린이집[아이행복]","tel":"031-886-5243","addr":"경기도 여주시 오학동 273-2번지","category":"학원 - 유아원"},{"name":"꿈초롱어린이집[아이행복]","tel":"031-886-5243","addr":"경기도 여주시 오학동 273-2번지","category":"학원 - 유아원"}]},{"lat":"37.3151028900","long":"127.6483007350","items":[{"name":"꿈터어린이집[아이행복]","tel":"031-886-1080","addr":"경기도 여주시 오학동 124-4번지","category":"학원 - 유아원"}]},{"lat":"37.307549699","long":"127.6454952","items":[{"name":"나의손 소고기샤브 만두칼국수","tel":"031-884-1444","addr":"경기도 여주시 오학동 306-1번지","category":"일반휴게음식 - 일반한식"}]},{"lat":"37.31194163","long":"127.64641245","items":[{"name":"남양문구","tel":"031-885-2619","addr":"경기도 여주시 오학동 237-1번지","category":"서적문구 - 문구용품"}]},{"lat":"37.31160288","long":"127.64574402","items":[{"name":"남촌식당","tel":"031-886-4895","addr":"경기도 여주시 오학동 237-6번지 1층","category":"일반휴게음식 - 일반한식"}]},{"lat":"37.312190205","long":"127.64377495","items":[{"name":"남혁도예","tel":"031-886-5655","addr":"경기도 여주시 오학동 100-35번지","category":"문화.취미 - 민예·공예품"},{"name":"예꼬어린이집[아이행복]","tel":"031-886-4803","addr":"경기도 여주시 오학동 100-35번지","category":"학원 - 유아원"}]},{"lat":"37.303134639","long":"127.643856","items":[{"name":"농가보쌈족발","tel":"031-885-8852","addr":"경기도 여주시 오학동 359-6번지","category":"일반휴게음식 - 일반한식"},{"name":"리나플라워","tel":"031-123-4567","addr":"경기도 여주시 오학동 359-6번지","category":"문화.취미 - 화원"},{"name":"자연산가잠물회등뼈찜","tel":"031-885-8216","addr":"경기도 여주시 오학동 359-6번지","category":"일반휴게음식 - 일반한식"},{"name":"토마스커피(THOMAS COFFEE)","tel":"031-885-6777","addr":"경기도 여주시 오학동 359-6번지","category":"일반휴게음식 - 서양음식"}]},{"lat":"37.318880609","long":"127.65768533","items":[{"name":"농업회사법인아이팜주식회사","tel":"031-280-5101","addr":"경기도 여주시 오학동 47번지","category":"음료식품 - 농·축·수산품"}]},{"lat":"37.302776451","long":"127.64344692","items":[{"name":"다미인 토탈 뷰티샵","tel":"031-881-0027","addr":"경기도 여주시 오학동 369-2번지 2층","category":"보건위생 - 피부미용실"},{"name":"만우정육점 생고기식당","tel":"031-882-9631","addr":"경기도 여주시 오학동 369-2번지","category":"일반휴게음식 - 일반한식"},{"name":"싱싱횟집","tel":"031-881-6550","addr":"경기도 여주시 오학동 369-2번지 1층","category":"일반휴게음식 - 일반한식"},{"name":"여주 스크린 골프","tel":"031-883-6900","addr":"경기도 여주시 오학동 369-2번지 2동","category":"레져용품 - 스포츠·레져용품"},{"name":"여주골프아카데미","tel":"031-883-6900","addr":"경기도 여주시 오학동 369-2번지","category":"회원제형태 - 레져업소"}]},{"lat":"37.306129237","long":"127.64657722","items":[{"name":"다보도예","tel":"031-886-3589","addr":"경기도 여주시 오학동 310번지","category":"문화.취미 - 민예·공예품"}]},{"lat":"37.308938756","long":"127.64355559","items":[{"name":"단골집","tel":"031-882-0563","addr":"경기도 여주시 오학동 254번지","category":"일반휴게음식 - 일반한식"},{"name":"엄마밥상","tel":"031-885-1610","addr":"경기도 여주시 오학동 254번지","category":"일반휴게음식 - 일반한식"},{"name":"오학유리","tel":"031-885-6443","addr":"경기도 여주시 오학동 254번지","category":"건축자재 - 유리"},{"name":"초원구이","tel":"031-885-8610","addr":"경기도 여주시 오학동 254번지","category":"일반휴게음식 - 일반한식"}]},{"lat":"37.311633768","long":"127.64669183","items":[{"name":"대명제형","tel":"031-885-8812","addr":"경기도 여주시 오학동 239-3번지","category":"기타 - 기타 전문점"},{"name":"삼미물산","tel":"031-885-8667","addr":"경기도 여주시 오학동 239-3번지","category":"문화.취미 - 민예·공예품"},{"name":"삼영산업개발","tel":"031-881-0957","addr":"경기도 여주시 오학동 239-3번지","category":"건축자재 - 보일러·펌프·샷시"},{"name":"예랑석고아트","tel":"031-886-7849","addr":"경기도 여주시 오학동 239-3번지","category":"문화.취미 - 민예·공예품"}]},{"lat":"37.301435136","long":"127.64489051","items":[{"name":"대선정(오학)","tel":"031-635-7792","addr":"경기도 여주시 오학동 378-4번지 1층","category":"일반휴게음식 - 일반한식"},{"name":"아이엠씨푸드","tel":"031-111-1111","addr":"경기도 여주시 오학동 378-4번지","category":"일반휴게음식 - 일반한식"}]},{"lat":"37.3146285151","long":"127.6477213596","items":[{"name":"대성가마공업","tel":"031-885-3576","addr":"경기도 여주시 오학동 124-2번지","category":"기타 - 기계공구"}]},{"lat":"37.3034690513","long":"127.6419977876","items":[{"name":"대원도재상사","tel":"031-885-7005","addr":"경기도 여주시 오학동 292-50번지","category":"건축자재 - 기타건축자재"}]},{"lat":"37.312436606","long":"127.64485996","items":[{"name":"대일손세차","tel":"031-883-2253","addr":"경기도 여주시 오학동 100-24번지","category":"자동차정비 유지 - 세차장"}]},{"lat":"37.307075187","long":"127.64493846","items":[{"name":"더나은갤러리","tel":"0231-885-0133","addr":"경기도 여주시 오학동 321-8번지","category":"문화.취미 - 화랑"},{"name":"창덕도자유통센타","tel":"031-881-2255","addr":"경기도 여주시 오학동 321-8번지","category":"주방용구 - 주방용식기"}]},{"lat":"37.302407508","long":"127.64502284","items":[{"name":"더페이스샵 하나로마트 여주점","tel":"031-886-2937","addr":"경기도 여주시 오학동 359-1번지","category":"보건위생 - 화장품"},{"name":"신라명과","tel":"031-885-8852","addr":"경기도 여주시 오학동 359-1번지","category":"음료식품 - 제과점"}]},{"lat":"37.3056081489","long":"127.6463020763","items":[{"name":"덕산방","tel":"031-885-1747","addr":"경기도 여주시 오학동 315-4번지","category":"문화.취미 - 민예·공예품"}]},{"lat":"37.311244271","long":"127.64541384","items":[{"name":"도화","tel":"031-883-3204","addr":"경기도 여주시 오학동 268-3번지","category":"주방용구 - 주방용식기"},{"name":"바이더웨이여주오학점","tel":"","addr":"경기도 여주시 오학동 268-3번지","category":"유통업 영리 - 편 의 점"},{"name":"새마을설렁탕","tel":"031-886-9848","addr":"경기도 여주시 오학동 268-3번지","category":"일반휴게음식 - 일반한식"},{"name":"세븐일레븐여주오학점","tel":"","addr":"경기도 여주시 오학동 268-3번지","category":"유통업 영리 - 편 의 점"}]},{"lat":"37.310352296","long":"127.64374807","items":[{"name":"독도수산시장","tel":"031-885-7911","addr":"경기도 여주시 오학동 261-13번지","category":"일반휴게음식 - 일반한식"}]},{"lat":"37.310853842","long":"127.64430506","items":[{"name":"돈돼지","tel":"031-881-0919","addr":"경기도 여주시 오학동 261-8번지","category":"일반휴게음식 - 일반한식"}]},{"lat":"37.305046277","long":"127.64357897","items":[{"name":"돌판구이전문점하루","tel":"031-886-9111","addr":"경기도 여주시 오학동 292-33번지","category":"일반휴게음식 - 일반한식"},{"name":"딸봉싸롱","tel":"031-882-2988","addr":"경기도 여주시 오학동 292-33번지","category":"일반휴게음식 - 주점"},{"name":"삐삐족발","tel":"031-882-5892","addr":"경기도 여주시 오학동 292-33번지 1층","category":"일반휴게음식 - 일반한식"},{"name":"오늘애포차","tel":"031-1111-1111","addr":"경기도 여주시 오학동 292-33번지 1동 1층 104호","category":"일반휴게음식 - 주점"},{"name":"용인대오학복싱다이어트스쿨","tel":"031-882-8887","addr":"경기도 여주시 오학동 292-33번지 201호","category":"레저업소 - 헬스클럽"},{"name":"해피점핑","tel":"031-885-6741","addr":"경기도 여주시 오학동 292-33번지","category":"레저업소 - 기타레져업소"}]},{"lat":"37.310662255","long":"127.64474336","items":[{"name":"동경반점","tel":"031-886-5233","addr":"경기도 여주시 오학동 258-5번지","category":"일반휴게음식 - 중국식"},{"name":"수진음악학원","tel":"031-886-5213","addr":"경기도 여주시 오학동 258-5번지 3층","category":"학원 - 예·체능계학원"},{"name":"오학경희체육관","tel":"031-885-8810","addr":"경기도 여주시 오학동 258-5번지 여주오학우편취급소","category":"학원 - 예·체능계학원"},{"name":"정도루어피싱","tel":"031-885-3012","addr":"경기도 여주시 오학동 258-5번지","category":"레져용품 - 스포츠·레져용품"},{"name":"평화가정의학과의원","tel":"031-881-2468","addr":"경기도 여주시 오학동 258-5번지","category":"의원 - 의원"}]},{"lat":"37.307300677","long":"127.64655337","items":[{"name":"동방UK","tel":"070-4255-0905","addr":"경기도 여주시 오학동 303-40번지","category":"농업 - 비료,사료,종자"}]},{"lat":"37.309023545","long":"127.64619582","items":[{"name":"떡이야기","tel":"031-881-2147","addr":"경기도 여주시 오학동 303-103번지","category":"문화.취미 - 문화취미기타"}]},{"lat":"37.309378886","long":"127.64380749","items":[{"name":"떡이야기&미니카페","tel":"","addr":"경기도 여주시 오학동 255-5번지","category":"일반휴게음식 - 서양음식"},{"name":"새시대대리운전","tel":"031-884-1182","addr":"경기도 여주시 오학동 255-5번지","category":"보건위생 - 기타대인서비스"},{"name":"솔약국","tel":"031-886-3305","addr":"경기도 여주시 오학동 255-5번지","category":"약국 - 약국"},{"name":"에이엠씨 정육점","tel":"031-883-5784","addr":"경기도 여주시 오학동 255-5번지","category":"음료식품 - 정육점"}]},{"lat":"37.306772126","long":"127.64266868","items":[{"name":"또바기","tel":"031-886-7688","addr":"경기도 여주시 오학동 292-9번지 1층","category":"일반휴게음식 - 일반한식"}]},{"lat":"37.301467252","long":"127.64727061","items":[{"name":"라안커피 LAAN COFFEE","tel":"031-883-5790","addr":"경기도 여주시 오학동 404-11번지","category":"일반휴게음식 - 서양음식"}]},{"lat":"37.311802251","long":"127.6471896","items":[{"name":"라온태권도","tel":"031-885-5566","addr":"경기도 여주시 오학동 233-2번지","category":"학원 - 예·체능계학원"},{"name":"삼성영어 오학학원","tel":"031-883-2435","addr":"경기도 여주시 오학동 233-2번지","category":"학원 - 외국어학원"}]},{"lat":"37.302414802","long":"127.64699672","items":[{"name":"리얼 야구존 여주점","tel":"031-884-8124","addr":"경기도 여주시 오학동 402-1번지 2층","category":"레저업소 - 기타레져업소"},{"name":"소현식당","tel":"031-885-0023","addr":"경기도 여주시 오학동 402-1번지","category":"일반휴게음식 - 일반한식"},{"name":"쎄리하우스","tel":"031-883-6674","addr":"경기도 여주시 오학동 402-1번지 1층","category":"보건위생 - 미용원"},{"name":"쎄리하우스(SSERIHOUSE)","tel":"031-883-6674","addr":"경기도 여주시 오학동 402-1번지","category":"보건위생 - 미용원"}]},{"lat":"37.317437331","long":"127.64649314","items":[{"name":"리히트","tel":"031-885-6380","addr":"경기도 여주시 오학동 85-1번지","category":"일반휴게음식 - 서양음식"}]},{"lat":"37.309992296","long":"127.6453355","items":[{"name":"마약생고기","tel":"031-886-7392","addr":"경기도 여주시 오학동 251-4번지 1층","category":"일반휴게음식 - 일반한식"}]},{"lat":"37.303439441","long":"127.64414057","items":[{"name":"마하수능영어전문학원","tel":"070-8850-5888","addr":"경기도 여주시 오학동 363-3번지 2층 202호","category":"학원 - 보습학원"}]},{"lat":"37.301442984","long":"127.64510488","items":[{"name":"명성카인테리어","tel":"031-886-7977","addr":"경기도 여주시 오학동 377번지","category":"자동차정비 유지 - 자동차부품"}]},{"lat":"37.30607383","long":"127.6468249","items":[{"name":"뫼풀세라믹","tel":"031-886-7551","addr":"경기도 여주시 오학동 311번지","category":"문화.취미 - 민예·공예품"}]},{"lat":"37.303721505","long":"127.64196609","items":[{"name":"문경상회","tel":"031-886-7080","addr":"경기도 여주시 오학동 292-48번지","category":"일반휴게음식 - 일반한식"},{"name":"아랑디자인","tel":"","addr":"경기도 여주시 오학동 292-48번지 102호","category":"가구 - 기타가구"}]},{"lat":"37.317522158","long":"127.64580571","items":[{"name":"미가도예","tel":"031-886-6286","addr":"경기도 여주시 오학동 86-2번지","category":"주방용구 - 주방용식기"}]},{"lat":"37.328267271","long":"127.68041137","items":[{"name":"미가람미용실","tel":"031-882-9100","addr":"경기도 여주시 오학동 322-2번지","category":"보건위생 - 미용원"}]},{"lat":"37.305574084","long":"127.64261341","items":[{"name":"미니스톱 여주오학점","tel":"031-1577-9621","addr":"경기도 여주시 오학동 292-14번지 1층","category":"유통업 영리 - 편 의 점"},{"name":"아트앤하트여주미술학원","tel":"031-881-2156","addr":"경기도 여주시 오학동 292-14번지","category":"학원 - 예·체능계학원"}]},{"lat":"37.316575655","long":"127.6458879","items":[{"name":"밀양가마솥설렁탕","tel":"031-885-8855","addr":"경기도 여주시 오학동 91번지","category":"일반휴게음식 - 일반한식"}]},{"lat":"37.313326588","long":"127.65019197","items":[{"name":"범석도예","tel":"031-881-5805","addr":"경기도 여주시 오학동 141-1번지","category":"문화.취미 - 민예·공예품"}]},{"lat":"37.309101236","long":"127.64350057","items":[{"name":"베란다(VERANDA)","tel":"031-881-5038","addr":"경기도 여주시 오학동 255-8번지","category":"의류 - 정장"},{"name":"윤경꽃화원","tel":"031-885-8237","addr":"경기도 여주시 오학동 255-8번지","category":"문화.취미 - 화원"}]},{"lat":"37.309664384","long":"127.64432879","items":[{"name":"별미돈까스","tel":"031-885-8414","addr":"경기도 여주시 오학동 254-1번지","category":"일반휴게음식 - 일반한식"},{"name":"오학동주민센터","tel":"031-887-3478","addr":"경기도 여주시 오학동 254-1번지 1층","category":"용역 서비스 - 사무서비스"}]},{"lat":"37.315774119","long":"127.64912998","items":[{"name":"보산","tel":"031-886-0625","addr":"경기도 여주시 오학동 127-13번지","category":"문화.취미 - 민예·공예품"}]},{"lat":"37.3088814","long":"127.64416422","items":[{"name":"보하(boha)","tel":"","addr":"경기도 여주시 오학동 298번지 1층","category":"일반휴게음식 - 일반한식"},{"name":"수피아독서실","tel":"031-883-7908","addr":"경기도 여주시 오학동 298번지","category":"학원 - 독서실"},{"name":"쌀통닭 여주오학동점","tel":"031-883-5235","addr":"경기도 여주시 오학동 298번지 1층 101호","category":"일반휴게음식 - 스넥"},{"name":"와이비엠이씨씨(YBM ECC)여주어학원","tel":"","addr":"경기도 여주시 오학동 298번지 3층","category":"학원 - 외국어학원"}]},{"lat":"37.313463583","long":"127.64985473","items":[{"name":"부여도자기","tel":"031-881-4384","addr":"경기도 여주시 오학동 137번지","category":"문화.취미 - 민예·공예품"}]},{"lat":"37.301881929","long":"127.64391305","items":[{"name":"비빔밥의 정석","tel":"031-881-5654","addr":"경기도 여주시 오학동 359-14번지 2층","category":"일반휴게음식 - 일반한식"},{"name":"여주 극진공수도","tel":"031-885-9962","addr":"경기도 여주시 오학동 359-14번지","category":"학원 - 예·체능계학원"},{"name":"풀향기궁중해물칼국수","tel":"031-882-5123","addr":"경기도 여주시 오학동 359-14번지 1층","category":"일반휴게음식 - 일반한식"}]},{"lat":"37.312993735","long":"127.64513543","items":[{"name":"뻘떡낙지쭈꾸미","tel":"031-886-5258","addr":"경기도 여주시 오학동 100-15번지","category":"일반휴게음식 - 일반한식"}]},{"lat":"37.311109555","long":"127.64533373","items":[{"name":"사거리돼지국밥","tel":"031-885-8855","addr":"경기도 여주시 오학동 267-2번지","category":"일반휴게음식 - 일반한식"},{"name":"사과나무 음악학원(오학점)","tel":"031-886-0030","addr":"경기도 여주시 오학동 267-2번지 2층","category":"학원 - 예·체능계학원"},{"name":"엠베스트(SE)전과목차일드에듀학원","tel":"","addr":"경기도 여주시 오학동 267-2번지 3층","category":"학원 - 보습학원"},{"name":"엠베스트SE전과목차일드에듀학원","tel":"031-882-5688","addr":"경기도 여주시 오학동 267-2번지 3층","category":"학원 - 보습학원"}]},{"lat":"37.308768024","long":"127.64513333","items":[{"name":"삼성종합주방","tel":"031-886-9121","addr":"경기도 여주시 오학동 300-13번지","category":"주방용구 - 주방용식기"}]},{"lat":"37.3148582886","long":"127.6501938209","items":[{"name":"서라벌도예","tel":"031-886-7717","addr":"경기도 여주시 오학동 132-1번지","category":"문화.취미 - 민예·공예품"},{"name":"소우재도예","tel":"031-885-8788","addr":"경기도 여주시 오학동 132-1번지","category":"문화.취미 - 민예·공예품"}]},{"lat":"37.311549435","long":"127.64563076","items":[{"name":"석천해장국","tel":"031-883-2577","addr":"경기도 여주시 오학동 237-9번지","category":"일반휴게음식 - 일반한식"},{"name":"셀파우등생오학교실","tel":"031-885-8605","addr":"경기도 여주시 오학동 237-9번지","category":"학원 - 보습학원"}]},{"lat":"37.318044829","long":"127.64744595","items":[{"name":"성월요업","tel":"031-885-2179","addr":"경기도 여주시 오학동 85-10번지","category":"문화.취미 - 민예·공예품"}]},{"lat":"37.302164098","long":"127.64338533","items":[{"name":"세종꽃화원","tel":"031-881-0150","addr":"경기도 여주시 오학동 359-15번지","category":"문화.취미 - 화원"},{"name":"옥향","tel":"031-885-0711","addr":"경기도 여주시 오학동 369-2번지","category":"일반휴게음식 - 중국식"}]},{"lat":"37.310774245","long":"127.64236418","items":[{"name":"세종유도관","tel":"031-886-3336","addr":"경기도 여주시 오학동 280-10번지","category":"학원 - 예·체능계학원"},{"name":"아띠 필라테스","tel":"","addr":"경기도 여주시 오학동 280-10번지 에덴플라자 301호","category":"레저업소 - 헬스클럽"},{"name":"제이헤어","tel":"031-886-0503","addr":"경기도 여주시 오학동 280-10번지 동우프라자 101호","category":"보건위생 - 미용원"}]},{"lat":"37.309184459","long":"127.64310648","items":[{"name":"속옷패션","tel":"031-886-2225","addr":"경기도 여주시 오학동 284-5번지","category":"의류 - 내의판매"},{"name":"씨유여주오학점","tel":"031-885-0798","addr":"경기도 여주시 오학동 284-5번지","category":"유통업 영리 - 편 의 점"},{"name":"우성전사","tel":"031-885-0100","addr":"경기도 여주시 오학동 284-5번지","category":"기타 - 기타 전문점"}]},{"lat":"37.314273834","long":"127.64997448","items":[{"name":"송전도예공방","tel":"031-886-2288","addr":"경기도 여주시 오학동 134-6번지","category":"문화.취미 - 민예·공예품"}]},{"lat":"37.308303376","long":"127.64441875","items":[{"name":"수정사우나","tel":"031-885-0308","addr":"경기도 여주시 오학동 297-12번지","category":"보건위생 - 사우나"},{"name":"수정파크","tel":"031-885-0380","addr":"경기도 여주시 오학동 297-12번지","category":"숙박업 - 여관/기타숙박업"},{"name":"은성사","tel":"031-886-1190","addr":"경기도 여주시 오학동 297-12번지","category":"용역 서비스 - 가례서비스업"},{"name":"은성사우나","tel":"031-882-0059","addr":"경기도 여주시 오학동 297-12번지 지층","category":"보건위생 - 사우나"}]},{"lat":"37.302520831","long":"127.64738111","items":[{"name":"순하네돌솥밥집","tel":"031-886-3330","addr":"경기도 여주시 오학동 402-3번지","category":"일반휴게음식 - 일반한식"},{"name":"청춘닭갈비","tel":"031-884-9600","addr":"경기도 여주시 오학동 402-3번지","category":"일반휴게음식 - 일반한식"}]},{"lat":"37.29735276","long":"127.63330693","items":[{"name":"쉬크헤어","tel":"031-881-0731","addr":"경기도 여주시 오학동 100-28번지","category":"보건위생 - 미용원"}]},{"lat":"37.307330786","long":"127.64266213","items":[{"name":"스마일찹쌀꽈배기","tel":"031-881-2233","addr":"경기도 여주시 오학동 291-1번지","category":"일반휴게음식 - 스넥"},{"name":"원키친","tel":"031-000-0000","addr":"경기도 여주시 오학동 291-1번지 1층","category":"일반휴게음식 - 일반한식"}]},{"lat":"37.302359319","long":"127.64393966","items":[{"name":"스팀손세차장","tel":"031-883-0204","addr":"경기도 여주시 오학동 369-3번지","category":"자동차정비 유지 - 세차장"},{"name":"카페수다","tel":"070-7758-7979","addr":"경기도 여주시 오학동 369-3번지","category":"일반휴게음식 - 서양음식"}]},{"lat":"37.313137013","long":"127.64363634","items":[{"name":"쏘자 토스트","tel":"031-884-6337","addr":"경기도 여주시 오학동 100-5번지 여주현진아파트 상가동 107호","category":"일반휴게음식 - 서양음식"},{"name":"애플영어교습소","tel":"031-886-1861","addr":"경기도 여주시 오학동 100-5번지 여주현진아파트","category":"회원제형태 - 학원"},{"name":"에덴","tel":"031-886-1319","addr":"경기도 여주시 오학동 100-5번지 현진 상가 108호","category":"음료식품 - 기타음료식품"},{"name":"현진마트","tel":"031-881-3287","addr":"경기도 여주시 오학동 100-5번지 여주현진아파트 104,105,106호","category":"유통업 영리 - 슈퍼마켓"}]},{"lat":"37.308103849","long":"127.6429958","items":[{"name":"아이러브21세기유아체육원","tel":"","addr":"경기도 여주시 오학동 285-11번지","category":"용역 서비스 - 사무서비스"}]},{"lat":"37.314712183","long":"127.64724828","items":[{"name":"앵두나무집","tel":"031-881-1112","addr":"경기도 여주시 오학동 124-1번지","category":"일반휴게음식 - 일반한식"}]},{"lat":"37.313406194","long":"127.65046339","items":[{"name":"양평서울해장국","tel":"031-000-0000","addr":"경기도 여주시 오학동 140-8번지 양평서울해장국","category":"일반휴게음식 - 일반한식"}]},{"lat":"37.314969488","long":"127.64963073","items":[{"name":"엘림도예","tel":"031-884-0368","addr":"경기도 여주시 오학동 132-3번지","category":"문화.취미 - 민예·공예품"}]},{"lat":"37.307242452","long":"127.64566178","items":[{"name":"여기맛소","tel":"031-883-7775","addr":"경기도 여주시 오학동 303-20번지","category":"일반휴게음식 - 일반한식"}]},{"lat":"37.308413203","long":"127.64410385","items":[{"name":"여주 세론 청과","tel":"031-881-5985","addr":"경기도 여주시 오학동 297-15번지","category":"음료식품 - 농·축·수산품"}]},{"lat":"37.310102712","long":"127.64324962","items":[{"name":"여주대왕탁구클럽","tel":"031-885-0742","addr":"경기도 여주시 오학동 279-40번지","category":"레저업소 - 기타레져업소"},{"name":"허브화장품","tel":"031-885-7077","addr":"경기도 여주시 오학동 279-40번지 1동 2층","category":"보건위생 - 화장품"}]},{"lat":"37.307969896","long":"127.64443847","items":[{"name":"여주도자기","tel":"031-886-4184","addr":"경기도 여주시 오학동 296-2번지","category":"주방용구 - 주방용식기"},{"name":"여주도자기마을","tel":"031-886-7497","addr":"경기도 여주시 오학동 296-2번지","category":"문화.취미 - 민예·공예품"},{"name":"화조화분","tel":"031-886-7791","addr":"경기도 여주시 오학동 296-2번지","category":"문화.취미 - 민예·공예품"}]},{"lat":"37.307052637","long":"127.64577296","items":[{"name":"여주도자기그릇백화점","tel":"031-885-4141","addr":"경기도 여주시 오학동 303-35번지","category":"주방용구 - 주방용식기"}]},{"lat":"37.313801527","long":"127.64404808","items":[{"name":"여주도자기아울렛","tel":"031-886-4370","addr":"경기도 여주시 오학동 100-48번지","category":"주방용구 - 주방용식기"},{"name":"주식회사 한경","tel":"031-885-3740","addr":"경기도 여주시 오학동 100-48번지","category":"수리서비스 - 세탁소"}]},{"lat":"37.3119943372","long":"127.6450028480","items":[{"name":"여주수호태권도체육관","tel":"031-886-6835","addr":"경기도 여주시 오학동 272-4번지","category":"학원 - 예·체능계학원"}]},{"lat":"37.302941371","long":"127.64294076","items":[{"name":"여주시민스피드대리운전","tel":"031-886-8206","addr":"경기도 여주시 오학동 370-1번지","category":"보건위생 - 기타대인서비스"}]},{"lat":"37.310712824","long":"127.64538676","items":[{"name":"여주토기","tel":"031-885-5685","addr":"경기도 여주시 오학동 250-1번지","category":"문화.취미 - 민예·공예품"}]},{"lat":"37.316240464","long":"127.64952881","items":[{"name":"영보도자기","tel":"031-886-0921","addr":"경기도 여주시 오학동 127-9번지","category":"주방용구 - 주방용식기"}]},{"lat":"37.3033566083","long":"127.6427976523","items":[{"name":"영주헌도예","tel":"031-884-9249","addr":"경기도 여주시 오학동 292-7번지","category":"문화.취미 - 민예·공예품"}]},{"lat":"37.310019549","long":"127.64363244","items":[{"name":"영통신","tel":"031-881-4343","addr":"경기도 여주시 오학동 283-5번지","category":"사무통신 - 통신기기"},{"name":"이엔아이지 해독센타","tel":"031-882-5032","addr":"경기도 여주시 오학동 283-5번지 2층","category":"보건위생 - 미용재료"}]},{"lat":"37.316495198","long":"127.64907975","items":[{"name":"영화송어횟집","tel":"031-885-4216","addr":"경기도 여주시 오학동 127-20번지","category":"일반휴게음식 - 일반한식"}]},{"lat":"37.315212563","long":"127.64966666","items":[{"name":"예나공방","tel":"070-7521-5158","addr":"경기도 여주시 오학동 132-8번지","category":"문화.취미 - 민예·공예품"}]},{"lat":"37.307105667","long":"127.64263767","items":[{"name":"오학기사식당","tel":"031-883-9973","addr":"경기도 여주시 오학동 292-1번지","category":"일반휴게음식 - 일반한식"}]},{"lat":"37.31540891","long":"127.64835976","items":[{"name":"오학민물장어","tel":"031-886-8855","addr":"경기도 여주시 오학동 124-3번지","category":"일반휴게음식 - 일반한식"}]},{"lat":"37.309797726","long":"127.64299888","items":[{"name":"오학자동차","tel":"031-885-1901","addr":"경기도 여주시 오학동 282번지","category":"자동차정비 유지 - 자동차정비"}]},{"lat":"37.312351839","long":"127.64719429","items":[{"name":"오학초등학교","tel":"","addr":"경기도 여주시 오학동 105-1번지 오학초등학교","category":"학원 - 초중고교육기관"},{"name":"오학초등학교병설유치원[아이행복]","tel":"031-885-8115","addr":"경기도 여주시 오학동 105-1번지 오학초등학교","category":"학원 - 유치원"}]},{"lat":"37.3124366058","long":"127.6448599634","items":[{"name":"오학카공업사","tel":"031-885-6070","addr":"경기도 여주시 오학동 100-24번지","category":"자동차정비 유지 - 자동차정비"}]},{"lat":"37.312357301","long":"127.64619038","items":[{"name":"올스커피","tel":"031-1111-1111","addr":"경기도 여주시 오학동 236번지 1층 102호","category":"일반휴게음식 - 서양음식"}]},{"lat":"37.306013728","long":"127.64295552","items":[{"name":"우리미어린이집[아이행복]","tel":"031-884-3399","addr":"경기도 여주시 오학동 401번지 성일우리미아파트","category":"학원 - 유아원"}]},{"lat":"37.308771939","long":"127.64441145","items":[{"name":"우주공업사","tel":"031-885-1116","addr":"경기도 여주시 오학동 297-3번지","category":"기타 - 기계공구"},{"name":"은성도예전시관","tel":"031-885-0303","addr":"경기도 여주시 오학동 297-3번지","category":"문화.취미 - 골동품점"},{"name":"의석도예","tel":"031-886-1484","addr":"경기도 여주시 오학동 297-3번지","category":"문화.취미 - 민예·공예품"},{"name":"주식회사소도연","tel":"031-883-7078","addr":"경기도 여주시 오학동 297-3번지","category":"문화.취미 - 화랑"}]},{"lat":"37.311214255","long":"127.64263864","items":[{"name":"유림환경","tel":"","addr":"경기도 여주시 오학동 279-13번지 굿모닝타운 104동 201호","category":"용역 서비스 - 종합용역"}]},{"lat":"37.307490366","long":"127.64480663","items":[{"name":"유진도요","tel":"031-885-7272","addr":"경기도 여주시 오학동 321-1번지","category":"문화.취미 - 민예·공예품"},{"name":"태현전시장","tel":"031-885-1633","addr":"경기도 여주시 오학동 321-1번지","category":"문화.취미 - 화랑"},{"name":"한국종합주방","tel":"031-885-4141","addr":"경기도 여주시 오학동 303-35번지","category":"주방용구 - 주방용구"}]},{"lat":"37.308943122","long":"127.6444129","items":[{"name":"은성도토","tel":"031-885-0303","addr":"경기도 여주시 오학동 297-3번지","category":"문화.취미 - 민예·공예품"}]},{"lat":"37.311798389","long":"127.64458381","items":[{"name":"이가국수","tel":"031-881-4839","addr":"경기도 여주시 오학동 272-3번지","category":"일반휴게음식 - 일반한식"}]},{"lat":"37.307803011","long":"127.6453056","items":[{"name":"이진코리아","tel":"031-886-5455","addr":"경기도 여주시 오학동 305-1번지","category":"주방용구 - 주방용식기"}]},{"lat":"37.312025342","long":"127.64426989","items":[{"name":"일억정육마트","tel":"031-882-5948","addr":"경기도 여주시 오학동 273-1번지","category":"음료식품 - 정육점"},{"name":"일억할인마트","tel":"031-882-5948","addr":"경기도 여주시 오학동 273-1번지","category":"유통업 영리 - 슈퍼마켓"}]},{"lat":"37.301023211","long":"127.64608256","items":[{"name":"장미정원","tel":"031-885-8928","addr":"경기도 여주시 오학동 380-2번지 ,1,2층","category":"일반휴게음식 - 일반한식"}]},{"lat":"37.308608695","long":"127.64294368","items":[{"name":"장원카센타","tel":"031-885-6264","addr":"경기도 여주시 오학동 258-5번지","category":"자동차정비 유지 - 자동차정비"}]},{"lat":"37.3110508931","long":"127.6445210539","items":[{"name":"장인도예","tel":"031-885-8361","addr":"경기도 여주시 오학동 263번지","category":"문화.취미 - 민예·공예품"}]},{"lat":"37.312715721","long":"127.6498596","items":[{"name":"제일식당","tel":"031-881-1817","addr":"경기도 여주시 오학동 147-3번지","category":"일반휴게음식 - 일반한식"}]},{"lat":"37.303355084","long":"127.64307962","items":[{"name":"조광도예","tel":"031-885-2836","addr":"경기도 여주시 오학동 292-43번지","category":"문화.취미 - 민예·공예품"}]},{"lat":"37.302748826","long":"127.64189018","items":[{"name":"조이텔","tel":"031-885-6812","addr":"경기도 여주시 오학동 374-4번지 조이텔","category":"숙박업 - 여관/기타숙박업"}]},{"lat":"37.314078212","long":"127.64949901","items":[{"name":"증터가마","tel":"031-886-6810","addr":"경기도 여주시 오학동 136-5번지","category":"문화.취미 - 민예·공예품"}]},{"lat":"37.339021962","long":"127.64047083","items":[{"name":"청강도예","tel":"031-884-6231","addr":"경기도 여주시 오학동 86-2번지","category":"문화.취미 - 민예·공예품"}]},{"lat":"37.313218671","long":"127.64519375","items":[{"name":"청개구리도형","tel":"031-885-0834","addr":"경기도 여주시 오학동 100-30번지","category":"문화.취미 - 민예·공예품"}]},{"lat":"37.313913017","long":"127.65005035","items":[{"name":"청일도예","tel":"031-884-0788","addr":"경기도 여주시 오학동 138-3번지","category":"문화.취미 - 민예·공예품"}]},{"lat":"37.311274789","long":"127.64477112","items":[{"name":"춤추는쏘잉 (레이스나라 원단공주)","tel":"031-1111-1111","addr":"경기도 여주시 오학동 264-2번지","category":"직물 - 옷감·직물"}]},{"lat":"37.31616249","long":"127.64730578","items":[{"name":"태평플라워","tel":"031-885-4400","addr":"경기도 여주시 오학동 123-8번지","category":"문화.취미 - 화원"},{"name":"한국장례문화원","tel":"031-885-4400","addr":"경기도 여주시 오학동 123-8번지","category":"용역 서비스 - 가례서비스업"}]},{"lat":"37.302548054","long":"127.6423622","items":[{"name":"하이텔","tel":"031-884-3677","addr":"경기도 여주시 오학동 374-10번지","category":"숙박업 - 여관/기타숙박업"}]},{"lat":"37.3174373306","long":"127.6464931393","items":[{"name":"한솔도예","tel":"031-885-4036","addr":"경기도 여주시 오학동 85-1번지","category":"문화.취미 - 민예·공예품"}]},{"lat":"37.305022543","long":"127.64296968","items":[{"name":"항방양육관(오학점)","tel":"031-884-0814","addr":"경기도 여주시 오학동 292-38번지","category":"일반휴게음식 - 일반한식"}]},{"lat":"37.305693464","long":"127.64552452","items":[{"name":"해성다원","tel":"031-885-7667","addr":"경기도 여주시 오학동 318-2번지","category":"주방용구 - 주방용식기"}]},{"lat":"37.306354908","long":"127.64650019","items":[{"name":"해성요","tel":"031-885-7667","addr":"경기도 여주시 오학동 308번지","category":"문화.취미 - 민예·공예품"}]},{"lat":"37.315187612","long":"127.65257691","items":[{"name":"해청도예","tel":"031-885-4802","addr":"경기도 여주시 오학동 160-6번지","category":"문화.취미 - 민예·공예품"}]},{"lat":"37.317577249","long":"127.64727274","items":[{"name":"홍원막국수 여주점","tel":"031-885-0559","addr":"경기도 여주시 오학동 85-4번지","category":"일반휴게음식 - 일반한식"},{"name":"홍원여주점","tel":"031-885-0559","addr":"경기도 여주시 오학동 85-4번지","category":"일반휴게음식 - 일반한식"}]},{"lat":"37.318633746","long":"127.64850014","items":[{"name":"황제능이버섯백숙","tel":"031-881-5285","addr":"경기도 여주시 오학동 85-16번지","category":"일반휴게음식 - 일반한식"}]},{"lat":"37.306799753","long":"127.6458836","items":[{"name":"회랑","tel":"031-886-3808","addr":"경기도 여주시 오학동 303-37번지","category":"일반휴게음식 - 일식·회집"}]},{"lat":"37.314858366","long":"127.64521898","items":[{"name":"흙고을","tel":"031-885-2093","addr":"경기도 여주시 오학동 98-4번지","category":"문화.취미 - 민예·공예품"}]},{"lat":"37.311216323","long":"127.64558281","items":[{"name":"흙과사람들","tel":"031-885-0133","addr":"경기도 여주시 오학동 267-1번지","category":"문화.취미 - 민예·공예품"}]}]