[{"lat":"37.227271934","long":"127.02291639","items":[{"name":"(주)수원선창수산","tel":"031-238-2990","addr":"경기도 수원시 권선구 대황교동 65-9번지 (주)동명철강 B동","category":"음료식품 - 농·축·수산품"},{"name":"두울전력주식회사","tel":"031-251-5407","addr":"경기도 수원시 권선구 대황교동 65-9번지 1층","category":"용역 서비스 - 기타용역서비스"},{"name":"초록수산","tel":"","addr":"경기도 수원시 권선구 대황교동 65-9번지","category":"음료식품 - 농·축·수산품"},{"name":"초록수산","tel":"","addr":"경기도 수원시 권선구 대황교동 65-9번지","category":"음료식품 - 농·축·수산품"}]},{"lat":"37.232300144","long":"127.02014562","items":[{"name":"강남천막","tel":"031-236-6000","addr":"경기도 수원시 권선구 대황교동 34-3번지","category":"직물 - 카페트,커튼,천막,지물"}]},{"lat":"37.235273597","long":"127.01986457","items":[{"name":"강화밴댕이횟집","tel":"031-236-6623","addr":"경기도 수원시 권선구 대황교동 248-26","category":"일반휴게음식 - 일반한식"}]},{"lat":"37.234660889","long":"127.01989824","items":[{"name":"대원샤링","tel":"031-234-0211","addr":"경기도 수원시 권선구 대황교동 248-29번지","category":"건축자재 - 기타건축자재"}]},{"lat":"37.229155266","long":"127.02189148","items":[{"name":"대형자동차공업사","tel":"031-222-5109","addr":"경기도 수원시 권선구 대황교동 100-3번지","category":"자동차정비 유지 - 자동차시트·타이어"}]},{"lat":"37.236490248","long":"127.0179716","items":[{"name":"동양판유리할인매장","tel":"031-232-3302","addr":"경기도 수원시 권선구 대황교동 259-29번지","category":"건축자재 - 유리"},{"name":"에듀써밋","tel":"070-8222-7972","addr":"경기도 수원시 권선구 대황교동 259-29번지","category":"용역 서비스 - 기타용역서비스"}]},{"lat":"37.237355275","long":"127.0177013","items":[{"name":"반도스틸","tel":"031-226-0048","addr":"경기도 수원시 권선구 대황교동 269-5번지","category":"건축자재 - 기타건축자재"}]},{"lat":"37.236382011","long":"127.01883931","items":[{"name":"수원경수LPG충전소","tel":"031-235-5885","addr":"경기도 수원시 권선구 대황교동 251번지","category":"연료판매점 - E1가스충전소"}]},{"lat":"37.228046885","long":"127.02255602","items":[{"name":"신성골재(주)","tel":"031-238-3614","addr":"경기도 수원시 권선구 대황교동 65-4,65-11","category":"건축자재 - 기타건축자재"}]},{"lat":"37.227767549","long":"127.02264609","items":[{"name":"오진전기상사","tel":"031-225-1505","addr":"경기도 수원시 권선구 대황교동 65-8번지","category":"전기제품 - 기타전기제품"}]},{"lat":"37.232047834","long":"127.02028079","items":[{"name":"정우프라스틱","tel":"031-225-2222","addr":"경기도 수원시 권선구 대황교동 34-5번지","category":"기타 - 기타 전문점"}]},{"lat":"37.235742181","long":"127.01953787","items":[{"name":"제노미용","tel":"","addr":"경기도 수원시 권선구 대황교동 248-50번지 휴먼빌리지 3층","category":"보건위생 - 미용재료"},{"name":"주식회사 다인디자인그룹","tel":"031-377-7171","addr":"경기도 수원시 권선구 대황교동 248-50번지 1층","category":"용역 서비스 - 사무서비스"},{"name":"주식회사 푸드밀","tel":"031-778-6871","addr":"경기도 수원시 권선구 대황교동 248-50번지 3층","category":"음료식품 - 기타음료식품"},{"name":"주식회사 휴먼푸드서비스","tel":"031-281-6085","addr":"경기도 수원시 권선구 대황교동 248-50번지 401호","category":"일반휴게음식 - 위탁급식업"},{"name":"주식회사다인커뮤니케이션","tel":"031-377-7171","addr":"경기도 수원시 권선구 대황교동 248-50번지 1층","category":"건축자재 - 인테리어전문"}]},{"lat":"37.231155735","long":"127.02078767","items":[{"name":"주식회사 대황교동주유소","tel":"031-232-3100","addr":"경기도 수원시 권선구 대황교동 33-5번지","category":"연료판매점 - SK주유소"}]},{"lat":"37.236769586","long":"127.01783642","items":[{"name":"주식회사 서현우드","tel":"031-267-4648","addr":"경기도 수원시 권선구 대황교동 259-25번지","category":"건축자재 - 목재·석재·철물"}]},{"lat":"37.235688407","long":"127.01734036","items":[{"name":"주식회사에스에이치인터내셔날","tel":"031-237-7203","addr":"경기도 수원시 권선구 대황교동 262-2번지","category":"용역 서비스 - 종합용역"}]},{"lat":"37.23726519","long":"127.01755478","items":[{"name":"진성카","tel":"031-235-8761","addr":"경기도 수원시 권선구 대황교동 268-3번지","category":"자동차정비 유지 - 자동차정비"}]}]