[{"lat":"37.758648892","long":"127.03404368","imageIndex":8,"items":[{"name":"구심한의원","tel":"031-829-7585","addr":"경기도 의정부시 녹양동 158-21번지 1층","indutype":"의원 - 한의원","category":"medical"}]},{"lat":"37.759998141","long":"127.04142062","imageIndex":8,"items":[{"name":"굿모닝 신경외과 의원","tel":"031-855-0332","addr":"경기도 의정부시 녹양동 412-8번지 굿모닝프라자 2층 201호","indutype":"의원 - 의원","category":"medical"},{"name":"녹양약국","tel":"031-829-3147","addr":"경기도 의정부시 녹양동 412-8번지 굿모닝프라자 106호","indutype":"약국 - 약국","category":"medical"}]},{"lat":"37.760043229","long":"127.04129581","imageIndex":8,"items":[{"name":"노아소아청소년과의원","tel":"031-853-2698","addr":"경기도 의정부시 녹양동 412-9번지 성해프라자 301호","indutype":"의원 - 의원","category":"medical"},{"name":"아빠약국","tel":"031-873-3927","addr":"경기도 의정부시 녹양동 412-9번지 성해프라자 105호","indutype":"약국 - 약국","category":"medical"}]},{"lat":"37.758125279","long":"127.03782234","imageIndex":8,"items":[{"name":"녹양돌봄동물병원","tel":"031-829-7577","addr":"경기도 의정부시 녹양동 326-5번지 1층","indutype":"기타의료기관 - 동물병원","category":"medical"}]},{"lat":"37.756730056","long":"127.03329393","imageIndex":8,"items":[{"name":"녹양동물병원","tel":"031-855-0275","addr":"경기도 의정부시 녹양동 354-1번지","indutype":"기타의료기관 - 동물병원","category":"medical"}]},{"lat":"37.758153705","long":"127.03273846","imageIndex":8,"items":[{"name":"녹양서울치과의원","tel":"031-836-2870","addr":"경기도 의정부시 녹양동 388-11번지 용광빌딩 2층","indutype":"의원 - 치과의원","category":"medical"}]},{"lat":"37.75807153","long":"127.03676695","imageIndex":8,"items":[{"name":"녹양성모치과의원","tel":"031-855-7222","addr":"경기도 의정부시 녹양동 325-7번지 2층","indutype":"의원 - 치과의원","category":"medical"},{"name":"누가온누리약국","tel":"031-874-9927","addr":"경기도 의정부시 녹양동 325-7번지 1층","indutype":"약국 - 약국","category":"medical"}]},{"lat":"37.758261349","long":"127.03454283","imageIndex":8,"items":[{"name":"다나이비인후과의원","tel":"031-837-7072","addr":"경기도 의정부시 녹양동 83-40번지 2층","indutype":"의원 - 의원","category":"medical"},{"name":"인정약국","tel":"031-874-0541","addr":"경기도 의정부시 녹양동 83-40번지","indutype":"약국 - 약국","category":"medical"}]},{"lat":"37.758124885","long":"127.03912736","imageIndex":8,"items":[{"name":"라파가정의학과의원","tel":"031-879-2500","addr":"경기도 의정부시 녹양동 328번지 2층","indutype":"의원 - 의원","category":"medical"},{"name":"희망온누리약국","tel":"031-855-9927","addr":"경기도 의정부시 녹양동 328번지 1층","indutype":"약국 - 약국","category":"medical"}]},{"lat":"37.758288174","long":"127.03529181","imageIndex":8,"items":[{"name":"명선약국","tel":"031-873-8075","addr":"경기도 의정부시 녹양동 83-34번지","indutype":"약국 - 약국","category":"medical"},{"name":"홍삼약국","tel":"031-872-0101","addr":"경기도 의정부시 녹양동 83-34번지","indutype":"약국 - 약국","category":"medical"}]},{"lat":"37.759835995","long":"127.0413411","imageIndex":8,"items":[{"name":"본치과의원","tel":"031-836-7528","addr":"경기도 의정부시 녹양동 412-7 키움프라자303호304호","indutype":"의원 - 치과의원","category":"medical"},{"name":"송한의원","tel":"031-829-7759","addr":"경기도 의정부시 녹양동 412-7번지 키움프라자 2층 201,202호","indutype":"의원 - 한의원","category":"medical"}]},{"lat":"37.758288429","long":"127.03434993","imageIndex":8,"items":[{"name":"새한치과의원","tel":"031-876-0464","addr":"경기도 의정부시 녹양동 83-13번지","indutype":"의원 - 치과의원","category":"medical"},{"name":"우리한의원","tel":"031-826-7580","addr":"경기도 의정부시 녹양동 83-13번지 태경빌딩 2층","indutype":"의원 - 한의원","category":"medical"},{"name":"천호기내과의원","tel":"031-874-7844","addr":"경기도 의정부시 녹양동 83-13 2층","indutype":"의원 - 의원","category":"medical"}]},{"lat":"37.758539947","long":"127.03703952","imageIndex":8,"items":[{"name":"서울우리치과","tel":"031-826-2877","addr":"경기도 의정부시 녹양동 83-89번지 2층","indutype":"의원 - 치과의원","category":"medical"},{"name":"푸른정형외과의원","tel":"031-836-7585","addr":"경기도 의정부시 녹양동 83-89번지 2층","indutype":"의원 - 의원","category":"medical"}]},{"lat":"37.758404922","long":"127.03663093","imageIndex":8,"items":[{"name":"소림한의원","tel":"031-873-5800","addr":"경기도 의정부시 녹양동 83-65번지","indutype":"의원 - 한의원","category":"medical"}]},{"lat":"37.757847064","long":"127.03396391","imageIndex":8,"items":[{"name":"숲속샘터의원","tel":"031-874-7800","addr":"경기도 의정부시 녹양동 154-24번지 1층","indutype":"의원 - 의원","category":"medical"}]},{"lat":"37.756676029","long":"127.03318043","imageIndex":8,"items":[{"name":"이든한의원","tel":"031-838-3111","addr":"경기도 의정부시 녹양동 354-2번지 지원빌딩 2층","indutype":"의원 - 한의원","category":"medical"}]},{"lat":"37.758071458","long":"127.03701661","imageIndex":8,"items":[{"name":"자연담은한약국","tel":"031-855-7377","addr":"경기도 의정부시 녹양동 326번지","indutype":"약국 - 한약방","category":"medical"}]},{"lat":"37.760403721","long":"127.04095555","imageIndex":8,"items":[{"name":"한사랑이비인후과의원","tel":"031-829-5075","addr":"경기도 의정부시 녹양동 412-3번지 현대프라자 301호","indutype":"의원 - 의원","category":"medical"},{"name":"햇살온누리약국","tel":"031-836-8251","addr":"경기도 의정부시 녹양동 412-3번지 현대프라자 1층 106호","indutype":"약국 - 약국","category":"medical"}]},{"lat":"37.758315149","long":"127.03548474","imageIndex":8,"items":[{"name":"현대성모의원","tel":"031-876-2727","addr":"경기도 의정부시 녹양동 83-36번지","indutype":"의원 - 의원","category":"medical"}]},{"lat":"37.757765882","long":"127.03432701","imageIndex":8,"items":[{"name":"화성당한약방","tel":"031-875-7600","addr":"경기도 의정부시 녹양동 351번지","indutype":"약국 - 한약방","category":"medical"}]},{"lat":"37.760872106","long":"127.04129624","imageIndex":8,"items":[{"name":"화이트치과의원","tel":"031-826-2871","addr":"경기도 의정부시 녹양동 412-12번지 녹양프라자 501호","indutype":"의원 - 치과의원","category":"medical"}]}]