[{"lat":"36.978574171","long":"126.92348883","imageIndex":7,"items":[{"name":"24FIT프렌즈","tel":"031-684-7711","addr":"경기도 평택시 안중읍 현화리 837-13번지 우성프라자 203호","indutype":"회원제형태 - 건강식품","category":"food"},{"name":"착한아이스크림 안중점","tel":"","addr":"경기도 평택시 안중읍 현화리 837-13번지 우성프라자 103호","indutype":"음료식품 - 기타음료식품","category":"food"}]},{"lat":"36.987324411","long":"126.92473778","imageIndex":7,"items":[{"name":"D.C아울렛마트","tel":"031-686-9698","addr":"경기도 평택시 안중읍 현화리 289-1번지 1층","indutype":"음료식품 - 기타음료식품","category":"food"}]},{"lat":"36.98196414","long":"126.92643924","imageIndex":7,"items":[{"name":"GMW모닝클럽평생건강지킴이 안중센터","tel":"031-681-9344","addr":"경기도 평택시 안중읍 현화리 867-1번지","indutype":"소매업 - 건강기능식품","category":"food"}]},{"lat":"36.98354727","long":"126.92227062","imageIndex":7,"items":[{"name":"OK마트","tel":"031-684-6010","addr":"경기도 평택시 안중읍 현화리 843-1번지 단지상가 나동 101호","indutype":"음료식품 - 정육점","category":"food"}]},{"lat":"36.987602561","long":"126.92296276","imageIndex":7,"items":[{"name":"거산유통","tel":"031-665-8233","addr":"경기도 평택시 안중읍 현화리 293-2번지 지하1층","indutype":"음료식품 - 기타음료식품","category":"food"}]},{"lat":"36.984774231","long":"126.92451574","imageIndex":7,"items":[{"name":"경복궁떡집","tel":"031-682-6637","addr":"경기도 평택시 안중읍 현화리 71-3번지 창전빌딩 101호","indutype":"음료식품 - 기타음료식품","category":"food"}]},{"lat":"36.984655359","long":"126.92193249","imageIndex":7,"items":[{"name":"과일","tel":"031-111-1111","addr":"경기도 평택시 안중읍 현화리 236번지 1층 101호","indutype":"음료식품 - 농·축·수산품","category":"food"}]},{"lat":"36.984718173","long":"126.92155053","imageIndex":7,"items":[{"name":"과일파는정육점","tel":"","addr":"경기도 평택시 안중읍 현화리 327번지 101호","indutype":"음료식품 - 정육점","category":"food"},{"name":"던킨도너츠안중점","tel":"031-682-5015","addr":"경기도 평택시 안중읍 현화리 327번지 103호","indutype":"음료식품 - 제과점","category":"food"}]},{"lat":"36.985351901","long":"126.92602026","imageIndex":7,"items":[{"name":"까궁수산","tel":"031-682-8390","addr":"경기도 평택시 안중읍 현화리 50","indutype":"음료식품 - 농·축·수산품","category":"food"}]},{"lat":"36.979942647","long":"126.92178024","imageIndex":7,"items":[{"name":"나누리공원","tel":"","addr":"경기도 평택시 안중읍 현화리 841번지 서광미소마을 105동 1302호","indutype":"음료식품 - 농·축·수산품","category":"food"}]},{"lat":"36.984829207","long":"126.92590847","imageIndex":7,"items":[{"name":"다락방","tel":"031-682-9526","addr":"경기도 평택시 안중읍 현화리 47번지 111호","indutype":"음료식품 - 기타음료식품","category":"food"}]},{"lat":"36.9854364","long":"126.91779822","imageIndex":7,"items":[{"name":"루미아떼과자점","tel":"031-684-3007","addr":"경기도 평택시 안중읍 현화리 822-1번지 우림 상가 108호","indutype":"음료식품 - 제과점","category":"food"},{"name":"현화한우마을","tel":"031-684-1011","addr":"경기도 평택시 안중읍 현화리 822-1번지 화현마을우림필유 상가 107호","indutype":"음료식품 - 정육점","category":"food"}]},{"lat":"36.978886497","long":"126.91905218","imageIndex":7,"items":[{"name":"리나베이커리","tel":"031-682-3261","addr":"경기도 평택시 안중읍 현화리 831번지 붐붐프라자 1층 105호","indutype":"음료식품 - 제과점","category":"food"},{"name":"맘스착한먹거리","tel":"031-684-0596","addr":"경기도 평택시 안중읍 현화리 831번지 붐붐프라자 1층 168호","indutype":"음료식품 - 농·축·수산품","category":"food"},{"name":"맘스착한먹거리","tel":"031-683-7086","addr":"경기도 평택시 안중읍 현화리 831번지 붐붐프라자 168호","indutype":"도소매업 - 가공식품","category":"food"},{"name":"소나무웰빙하우스","tel":"031-683-6263","addr":"경기도 평택시 안중읍 현화리 831번지 붐붐프라자 147호","indutype":"건강식품 - 기타건강식품","category":"food"},{"name":"신화네츄럴","tel":"031-684-7883","addr":"경기도 평택시 안중읍 현화리 831번지 211-3호","indutype":"음료식품 - 기타음료식품","category":"food"},{"name":"천둥산 여탕매점","tel":"031-682-5394","addr":"경기도 평택시 안중읍 현화리 831번지 붐붐프라자 3층 천둥산레져피아내매점","indutype":"음료식품 - 기타음료식품","category":"food"},{"name":"천둥산매점","tel":"031-682-5394","addr":"경기도 평택시 안중읍 현화리 831번지 붐붐프라자 3층","indutype":"음료식품 - 기타음료식품","category":"food"}]},{"lat":"36.986020646","long":"126.91579822","imageIndex":7,"items":[{"name":"멜라","tel":"031-682-3316","addr":"경기도 평택시 안중읍 현화리 540-6번지 정동빌딩 405호","indutype":"회원제형태 - 건강식품","category":"food"}]},{"lat":"36.990156947","long":"126.91632145","imageIndex":7,"items":[{"name":"배스킨라빈스홈플러스평택안중점","tel":"031-681-2931","addr":"경기도 평택시 안중읍 현화리 637-19번지 홈플러스평택안중점","indutype":"음료식품 - 제과점","category":"food"}]},{"lat":"36.98301771","long":"126.92538239","imageIndex":7,"items":[{"name":"보넬","tel":"031-682-3378","addr":"경기도 평택시 안중읍 현화리 861-1번지 1층","indutype":"음료식품 - 제과점","category":"food"}]},{"lat":"36.976352525","long":"126.91632586","imageIndex":7,"items":[{"name":"비앤비","tel":"","addr":"경기도 평택시 안중읍 현화리 424-12번지","indutype":"건강식품 - 기타건강식품","category":"food"},{"name":"어린왕자 체험농원","tel":"","addr":"경기도 평택시 안중읍 현화리 424-12번지","indutype":"음료식품 - 기타음료식품","category":"food"}]},{"lat":"36.97669093","long":"126.92349079","imageIndex":7,"items":[{"name":"서평택탁주","tel":"031-682-6826","addr":"경기도 평택시 안중읍 현화리 172-3번지 지하1층","indutype":"음료식품 - 주류 판매점","category":"food"}]},{"lat":"36.985657739","long":"126.92521123","imageIndex":7,"items":[{"name":"선화와와수산","tel":"031-683-3896","addr":"경기도 평택시 안중읍 현화리 67번지 1층","indutype":"음료식품 - 농·축·수산품","category":"food"}]},{"lat":"36.984822992","long":"126.91685541","imageIndex":7,"items":[{"name":"성일수산","tel":"031-8029-2600","addr":"경기도 평택시 안중읍 현화리 822-1번지 화현마을우림필유 103동 202호","indutype":"음료식품 - 농·축·수산품","category":"food"}]},{"lat":"36.984988432","long":"126.92146039","imageIndex":7,"items":[{"name":"아라수산","tel":"031-684-7634","addr":"경기도 평택시 안중읍 현화리 325번지","indutype":"음료식품 - 농·축·수산품","category":"food"}]},{"lat":"36.989767202","long":"126.9132441","imageIndex":7,"items":[{"name":"아프리카쥬 체험카페","tel":"031-480-8343","addr":"경기도 평택시 안중읍 현화리 640-4번지","indutype":"음료식품 - 기타음료식품","category":"food"}]},{"lat":"36.978158708","long":"126.92205168","imageIndex":7,"items":[{"name":"안중수산물직판장","tel":"031-686-9335","addr":"경기도 평택시 안중읍 현화리 834-9번지","indutype":"음료식품 - 농·축·수산품","category":"food"}]},{"lat":"36.986549386","long":"126.92458132","imageIndex":7,"items":[{"name":"안중식품","tel":"031-682-3180","addr":"경기도 평택시 안중읍 현화리 288-3번지 한양빌리지","indutype":"소매업 - 식품","category":"food"}]},{"lat":"36.987079698","long":"126.92260387","imageIndex":7,"items":[{"name":"안중중고등학교 매점","tel":"","addr":"경기도 평택시 안중읍 현화리 315번지 안중고등학교","indutype":"음료식품 - 기타음료식품","category":"food"}]},{"lat":"36.977718489","long":"126.92399512","imageIndex":7,"items":[{"name":"안중터미널매점","tel":"031-664-6319","addr":"경기도 평택시 안중읍 현화리 838번지 안중버스터미널","indutype":"음료식품 - 기타음료식품","category":"food"}]},{"lat":"36.987267996","long":"126.92124454","imageIndex":7,"items":[{"name":"안중한우도매집","tel":"031-684-9888","addr":"경기도 평택시 안중읍 현화리 299번지","indutype":"음료식품 - 정육점","category":"food"}]},{"lat":"36.983242794","long":"126.92510137","imageIndex":7,"items":[{"name":"엄마손반찬","tel":"031-682-5974","addr":"경기도 평택시 안중읍 현화리 847-7번지 1층","indutype":"음료식품 - 기타음료식품","category":"food"}]},{"lat":"36.977852921","long":"126.92290557","imageIndex":7,"items":[{"name":"옥주청과","tel":"031-684-0698","addr":"경기도 평택시 안중읍 현화리 837-9번지","indutype":"음료식품 - 농·축·수산품","category":"food"}]},{"lat":"36.984746498","long":"126.92345996","imageIndex":7,"items":[{"name":"이지바이(현화점)","tel":"031-681-3037","addr":"경기도 평택시 안중읍 현화리 249번지 IMAX빌딩 101호","indutype":"음료식품 - 제과점","category":"food"}]},{"lat":"36.98055536","long":"126.92175713","imageIndex":7,"items":[{"name":"제이샵","tel":"031-684-4277","addr":"경기도 평택시 안중읍 현화리 841번지 서광미소마을 106동 402호","indutype":"건강식품 - 기타건강식품","category":"food"}]},{"lat":"36.984738778","long":"126.92541434","imageIndex":7,"items":[{"name":"파리바게뜨안중하나로점","tel":"031-684-8296","addr":"경기도 평택시 안중읍 현화리 48","indutype":"음료식품 - 제과점","category":"food"}]},{"lat":"36.983464666","long":"126.92008049","imageIndex":7,"items":[{"name":"파리바케트안중현화점","tel":"031-681-3310","addr":"경기도 평택시 안중읍 현화리 825-1번지 성원 상가 104호","indutype":"음료식품 - 제과점","category":"food"}]},{"lat":"36.978858311","long":"126.91743491","imageIndex":7,"items":[{"name":"현화고등학교매점","tel":"031-612-5604","addr":"경기도 평택시 안중읍 현화리 830-1번지 현화고등학교","indutype":"음료식품 - 기타음료식품","category":"food"}]},{"lat":"36.978608272","long":"126.92063608","imageIndex":7,"items":[{"name":"환희마카롱","tel":"070-6170-3251","addr":"경기도 평택시 안중읍 현화리 833-2번지 세연프라자 118호","indutype":"음료식품 - 기타음료식품","category":"food"}]},{"lat":"36.988131163","long":"126.9185815","imageIndex":7,"items":[{"name":"흙내음농장","tel":"033-111-1111","addr":"경기도 평택시 안중읍 현화리 820-1번지 이화마을건영캐스빌 108동 102호","indutype":"음료식품 - 농·축·수산품","category":"food"}]},{"lat":"36.985628008","long":"126.92119013","imageIndex":7,"items":[{"name":"흙사랑청과","tel":"031-681-5055","addr":"경기도 평택시 안중읍 현화리 305-11번지","indutype":"음료식품 - 농·축·수산품","category":"food"}]},{"lat":"36.981240884","long":"126.92280094","imageIndex":7,"items":[{"name":"흥나라 센언니 떡볶이","tel":"","addr":"경기도 평택시 안중읍 현화리 841번지 서광미소마을 101동 1704호","indutype":"음료식품 - 기타음료식품","category":"food"}]}]