[{"lat":"37.831722541","long":"126.96423778","items":[{"name":"(주)참살드림","tel":"031-877-2553","addr":"경기도 양주시 광적면 우고리 204-4","category":"음료식품 - 농·축·수산품"}]},{"lat":"37.831497234","long":"126.96402207","items":[{"name":"고수F&B","tel":"031-1111-1111","addr":"경기도 양주시 광적면 우고리 204-2번지 1층","category":"음료식품 - 기타음료식품"},{"name":"주식회사 참살","tel":"031-877-2553","addr":"경기도 양주시 광적면 우고리 204-2번지","category":"일반휴게음식 - 일반한식"}]},{"lat":"37.824919335","long":"126.96104968","items":[{"name":"광희공업사","tel":"031-837-1668","addr":"경기도 양주시 광적면 우고리 154-13,14","category":"자동차정비 유지 - 자동차정비"}]},{"lat":"37.815839629","long":"126.96649471","items":[{"name":"대가쇼파","tel":"031-855-6075","addr":"경기도 양주시 광적면 우고리 18-4번지 1동","category":"수리서비스 - 가정용품수리"},{"name":"주식회사경인개발","tel":"031-847-0304","addr":"경기도 양주시 광적면 우고리 18-4","category":"용역 서비스 - 기타용역서비스"}]},{"lat":"37.824476661","long":"126.95776743","items":[{"name":"대성축산기계","tel":"031-836-6927","addr":"경기도 양주시 광적면 우고리 129-2번지 1층","category":"기타 - 기계공구"}]},{"lat":"37.820442944","long":"126.96487968","items":[{"name":"명인시스템","tel":"031-879-0508","addr":"경기도 양주시 광적면 우고리 77-3번지","category":"건축자재 - 기타건축자재"}]},{"lat":"37.831586019","long":"126.96023941","items":[{"name":"세기식당","tel":"031-837-4693","addr":"경기도 양주시 광적면 우고리 301번지 2동 1층","category":"일반휴게음식 - 일반한식"},{"name":"약수터휴게소","tel":"031-836-3855","addr":"경기도 양주시 광적면 우고리 301번지 1동","category":"회원제형태 - 기타4"}]},{"lat":"37.837531837","long":"126.95915677","items":[{"name":"송림기업 (주)","tel":"031-866-9352","addr":"경기도 양주시 광적면 우고리 242번지","category":"건축자재 - 보일러·펌프·샷시"}]},{"lat":"37.830447445","long":"126.93404611","items":[{"name":"승민종합건축","tel":"031-836-1704","addr":"경기도 양주시 광적면 우고리 527-14번지","category":"기타 - 기계공구"}]},{"lat":"37.836748052","long":"126.95924812","items":[{"name":"신용일개미","tel":"031-837-1233","addr":"경기도 양주시 광적면 우고리 270번지","category":"유통업 영리 - 기타유통업"}]},{"lat":"37.828171225","long":"126.959628","items":[{"name":"야생생물보전연구소","tel":"031-836-7609","addr":"경기도 양주시 광적면 우고리 332번지","category":"문화.취미 - 티켓"},{"name":"양주자연생태관","tel":"031-836-7609","addr":"경기도 양주시 광적면 우고리 332번지","category":"학원 - 기타 교육기관"}]},{"lat":"37.822836765","long":"126.95730275","items":[{"name":"왕성지게차","tel":"031-942-8185","addr":"경기도 양주시 광적면 우고리 120-17","category":"기타 - 기계공구"}]},{"lat":"37.814947923","long":"126.96724469","items":[{"name":"제일알미늄","tel":"031-878-6898","addr":"경기도 양주시 광적면 우고리 18-1","category":"농업 - 농기계"}]},{"lat":"37.831389259","long":"126.96444242","items":[{"name":"주식회사참살","tel":"031-877-2553","addr":"경기도 양주시 광적면 우고리 204-3","category":"음료식품 - 농·축·수산품"}]},{"lat":"37.819533524","long":"126.9665724","items":[{"name":"지플러스","tel":"031-829-8001","addr":"경기도 양주시 광적면 우고리 82번지","category":"전기제품 - 가전제품"}]},{"lat":"37.812920048","long":"126.96484947","items":[{"name":"진영엔지니어링","tel":"031-829-8234","addr":"경기도 양주시 광적면 우고리 14-8번지","category":"기타 - 기계공구"}]},{"lat":"37.832335061","long":"126.94251842","items":[{"name":"티(tea)차연","tel":"031-836-6809","addr":"경기도 양주시 광적면 우고리 500-1번지 2층","category":"음료식품 - 기타음료식품"}]},{"lat":"37.828972079","long":"126.95702637","items":[{"name":"한빛애견마을","tel":"","addr":"경기도 양주시 광적면 우고리 322-2번지","category":"문화.취미 - 애완동물"}]},{"lat":"37.827998623","long":"126.95591382","items":[{"name":"해마루","tel":"031-829-6093","addr":"경기도 양주시 광적면 우고리 344-1번지","category":"회원제형태 - 기타4"}]}]