[{"lat":"37.130421226","long":"126.9583741","items":[{"name":"(주)삼성플러스배터리","tel":"031-354-7011","addr":"경기도 화성시 향남읍 동오리 212-2번지","category":"자동차판매 - 기타운송"}]},{"lat":"37.134143953","long":"126.94134443","items":[{"name":"GS25향남마루점","tel":"","addr":"경기도 화성시 향남읍 동오리 556-4번지","category":"유통업 영리 - 편 의 점"},{"name":"더뷰","tel":"031-352-0267","addr":"경기도 화성시 향남읍 동오리 556-4번지 3층","category":"일반휴게음식 - 서양음식"},{"name":"정마루","tel":"031-354-5365","addr":"경기도 화성시 향남읍 동오리 556-4번지 1층","category":"일반휴게음식 - 일반한식"},{"name":"캘러웨이 스크린골프장","tel":"031-352-5959","addr":"경기도 화성시 향남읍 동오리 556-4번지 2층","category":"레저업소 - 스크린골프"},{"name":"캠프사이트","tel":"070-7719-8848","addr":"경기도 화성시 향남읍 동오리 556-4번지","category":"레져용품 - 스포츠·레져용품"}]},{"lat":"37.134972911","long":"126.96223164","items":[{"name":"K&C건업","tel":"031-8059-8360","addr":"경기도 화성시 향남읍 동오리 118-6번지","category":"건축자재 - 기타건축자재"}]},{"lat":"37.134950159","long":"126.95021212","items":[{"name":"NS (남선)TECH","tel":"031-353-4981","addr":"경기도 화성시 향남읍 동오리 476번지","category":"기타 - 기계공구"}]},{"lat":"37.134862069","long":"126.95496147","items":[{"name":"가람시스템","tel":"031-8059-7662","addr":"경기도 화성시 향남읍 동오리 135-16번지","category":"기타 - 기계공구"}]},{"lat":"37.136673268","long":"126.95518542","items":[{"name":"경일공업사","tel":"031-8055-6131","addr":"경기도 화성시 향남읍 동오리 286-5번지","category":"자동차정비 유지 - 자동차정비"},{"name":"타이어프로화성동오점","tel":"031-8059-6131","addr":"경기도 화성시 향남읍 동오리 286-5번지","category":"자동차정비 유지 - 자동차시트·타이어"}]},{"lat":"37.131527103","long":"126.95235271","items":[{"name":"고운도장공사","tel":"031-8059-2407","addr":"경기도 화성시 향남읍 동오리 249-2번지","category":"건축자재 - 페인트"},{"name":"금성수지","tel":"031-353-3182","addr":"경기도 화성시 향남읍 동오리 249-2번지","category":"직물 - 기타직물"},{"name":"다윤산업","tel":"031-8059-3618","addr":"경기도 화성시 향남읍 동오리 249-2번지 1층 102호","category":"기타 - 기계공구"},{"name":"동일산업벨트","tel":"031-8047-0456","addr":"경기도 화성시 향남읍 동오리 249-2번지","category":"기타 - 기계공구"}]},{"lat":"37.131923775","long":"126.95284761","items":[{"name":"국제수도","tel":"031-354-2799","addr":"경기도 화성시 향남읍 동오리 249-8번지","category":"건축자재 - 기타건축자재"},{"name":"모터앤풀리","tel":"031-8059-6007","addr":"경기도 화성시 향남읍 동오리 249-8번지 102호","category":"기타 - 기계공구"}]},{"lat":"37.136304483","long":"126.95681754","items":[{"name":"그린한식부페","tel":"031-354-3449","addr":"경기도 화성시 향남읍 동오리 133번지","category":"일반휴게음식 - 일반한식"}]},{"lat":"37.133307085","long":"126.94351713","items":[{"name":"금호타이어케이티에스 (KTS)향남점","tel":"031-353-1406","addr":"경기도 화성시 향남읍 동오리 553-6번지","category":"자동차정비 유지 - 자동차시트·타이어"}]},{"lat":"37.133002625","long":"126.94743375","items":[{"name":"기와집","tel":"031-353-3951","addr":"경기도 화성시 향남읍 동오리 537-1번지","category":"일반휴게음식 - 일반한식"}]},{"lat":"37.133140343","long":"126.95320694","items":[{"name":"나래컴퓨터","tel":"031-377-4601","addr":"경기도 화성시 향남읍 동오리 705번지 B1층 우측","category":"사무통신 - 컴퓨터"},{"name":"동오볼트센터","tel":"031-353-7781","addr":"경기도 화성시 향남읍 동오리 705번지 지층","category":"기타 - 기계공구"},{"name":"씨유화성동오사거리점","tel":"080-080-3663","addr":"경기도 화성시 향남읍 동오리 705번지","category":"유통업 영리 - 편 의 점"},{"name":"아이페트(IPET)","tel":"070-8113-8282","addr":"경기도 화성시 향남읍 동오리 705번지","category":"가구 - 기타가구"}]},{"lat":"37.132194099","long":"126.95286994","items":[{"name":"나우폴리텍","tel":"031-233-4599","addr":"경기도 화성시 향남읍 동오리 707-19번지 1층","category":"직물 - 기타직물"}]},{"lat":"37.131390662","long":"126.94942683","items":[{"name":"남양건재","tel":"031-353-7798","addr":"경기도 화성시 향남읍 동오리 512번지","category":"건축자재 - 목재·석재·철물"}]},{"lat":"37.133362625","long":"126.94654442","items":[{"name":"단성한우국밥/월드푸드","tel":"031-366-3369","addr":"경기도 화성시 향남읍 동오리 542-3번지","category":"일반휴게음식 - 일반한식"}]},{"lat":"37.141332572","long":"126.95743353","items":[{"name":"대성에너지","tel":"031-354-2703","addr":"경기도 화성시 향남읍 동오리 76-2번지","category":"연료판매점 - LPG 취급점"},{"name":"영신가스","tel":"031-366-1387","addr":"경기도 화성시 향남읍 동오리 76-2번지","category":"연료판매점 - 기타연료"},{"name":"정남종합가스","tel":"031-352-1952","addr":"경기도 화성시 향남읍 동오리 76-2번지","category":"연료판매점 - LPG 취급점"},{"name":"크린에너지","tel":"031-354-1163","addr":"경기도 화성시 향남읍 동오리 76-2번지","category":"연료판매점 - LPG 취급점"}]},{"lat":"37.138808973","long":"126.95573556","items":[{"name":"대왕성 대반점","tel":"031-352-7967","addr":"경기도 화성시 향남읍 동오리 79-3번지","category":"일반휴게음식 - 중국식"},{"name":"동오","tel":"031-353-6511","addr":"경기도 화성시 향남읍 동오리 79-3번지 1동","category":"일반휴게음식 - 일반한식"},{"name":"세븐일레븐화성동오점","tel":"","addr":"경기도 화성시 향남읍 동오리 79-3번지","category":"유통업 영리 - 편 의 점"},{"name":"예스마트동오점","tel":"031-353-6511","addr":"경기도 화성시 향남읍 동오리 79-3번지","category":"유통업 영리 - 슈퍼마켓"},{"name":"조화라 셀프맛집","tel":"031-353-7495","addr":"경기도 화성시 향남읍 동오리 79-3번지","category":"일반휴게음식 - 일반한식"}]},{"lat":"37.133227782","long":"126.9472085","items":[{"name":"동백정","tel":"031-354-7113","addr":"경기도 화성시 향남읍 동오리 537-2번지 1층 1호","category":"일반휴게음식 - 일반한식"}]},{"lat":"37.135748814","long":"126.94329014","items":[{"name":"동산숲유치원[아이행복]","tel":"031-8059-8885","addr":"경기도 화성시 향남읍 동오리 565-12","category":"학원 - 유치원"}]},{"lat":"37.132753228","long":"126.95401747","items":[{"name":"동서폴리머","tel":"031-8077-2200","addr":"경기도 화성시 향남읍 동오리 708-11번지","category":"직물 - 기타직물"}]},{"lat":"37.130448371","long":"126.95867793","items":[{"name":"동오기사식당","tel":"031-353-1753","addr":"경기도 화성시 향남읍 동오리 208-2번지","category":"일반휴게음식 - 일반한식"},{"name":"신세계광고기획","tel":"031-352-5513","addr":"경기도 화성시 향남읍 동오리 208-2번지 신세계광고","category":"건축자재 - 인테리어전문"}]},{"lat":"37.134558784","long":"126.94201935","items":[{"name":"동오정","tel":"031-366-4488","addr":"경기도 화성시 향남읍 동오리 560-5번지","category":"일반휴게음식 - 일반한식"}]},{"lat":"37.136837659","long":"126.96101516","items":[{"name":"두리뷔페","tel":"031-352-6879","addr":"경기도 화성시 향남읍 동오리 49번지 1층","category":"일반휴게음식 - 일반한식"}]},{"lat":"37.134085177","long":"126.95026899","items":[{"name":"명가식당","tel":"031-366-4137","addr":"경기도 화성시 향남읍 동오리 481-1번지","category":"일반휴게음식 - 일반한식"}]},{"lat":"37.141226009","long":"126.96171056","items":[{"name":"명품산업","tel":"031-366-3620","addr":"경기도 화성시 향남읍 동오리 6-2번지","category":"문화.취미 - 애완동물"}]},{"lat":"37.135366743","long":"126.95517498","items":[{"name":"명품한식뷔페","tel":"031-354-7729","addr":"경기도 화성시 향남읍 동오리 135-1번지","category":"일반휴게음식 - 일반한식"}]},{"lat":"37.132257502","long":"126.95365767","items":[{"name":"무림오피스웨이 향남점","tel":"031-366-5771","addr":"경기도 화성시 향남읍 동오리 238","category":"서적문구 - 문구용품"},{"name":"현대","tel":"031-354-6544","addr":"경기도 화성시 향남읍 동오리 238번지 1층(238-1,238-6번지)","category":"직물 - 카페트,커튼,천막,지물"}]},{"lat":"37.135970746","long":"126.95592865","items":[{"name":"미래금속샤링","tel":"031-352-9991","addr":"경기도 화성시 향남읍 동오리 134번지 1층","category":"건축자재 - 기타건축자재"},{"name":"월드아크릴 주식회사","tel":"031-291-5522","addr":"경기도 화성시 향남읍 동오리 134번지","category":"기타 - 기계공구"}]},{"lat":"37.133865372","long":"126.94279643","items":[{"name":"보보스모텔","tel":"031-352-5447","addr":"경기도 화성시 향남읍 동오리 556-5번지","category":"숙박업 - 여관/기타숙박업"}]},{"lat":"37.139033846","long":"126.95476751","items":[{"name":"부광상사","tel":"031-354-6818","addr":"경기도 화성시 향남읍 동오리 79-2번지","category":"자동차정비 유지 - 자동차부품"}]},{"lat":"37.135117773","long":"126.9426829","items":[{"name":"브라메리타","tel":"031-354-5240","addr":"경기도 화성시 향남읍 동오리 560-8번지","category":"일반휴게음식 - 서양음식"}]},{"lat":"37.138945317","long":"126.9588193","items":[{"name":"비젼케이","tel":"031-359-8623","addr":"경기도 화성시 향남읍 동오리 82-18","category":"유통업 영리 - 기타유통업"},{"name":"삼진","tel":"070-6253-3253","addr":"경기도 화성시 향남읍 동오리 82-18번지","category":"유통업 영리 - 기타유통업"}]},{"lat":"37.133055122","long":"126.94418131","items":[{"name":"빈티지카페","tel":"031-000-0000","addr":"경기도 화성시 향남읍 동오리 548-1번지 3동 1층","category":"일반휴게음식 - 서양음식"}]},{"lat":"37.140668263","long":"126.96440083","items":[{"name":"삼성파이텍","tel":"031-353-7951","addr":"경기도 화성시 향남읍 동오리 9-5번지 4동","category":"기타 - 기계공구"}]},{"lat":"37.135754261","long":"126.95534356","items":[{"name":"삼진화학","tel":"031-366-0846","addr":"경기도 화성시 향남읍 동오리 135-15","category":"연료판매점 - 유류판매"}]},{"lat":"37.134757015","long":"126.94201919","items":[{"name":"서봉산 도토리식당","tel":"031-352-5678","addr":"경기도 화성시 향남읍 동오리 560-3번지 1층","category":"일반휴게음식 - 일반한식"}]},{"lat":"37.130556672","long":"126.95915052","items":[{"name":"서해공조","tel":"031-352-7983","addr":"경기도 화성시 향남읍 동오리 207-1번지","category":"전기제품 - 기타전기제품"},{"name":"조이할인마트","tel":"031-353-0847","addr":"경기도 화성시 향남읍 동오리 207-1","category":"유통업 영리 - 슈퍼마켓"}]},{"lat":"37.136165807","long":"126.94851186","items":[{"name":"성민축산","tel":"031-355-4784","addr":"경기도 화성시 향남읍 동오리 441-3번지","category":"음료식품 - 농·축·수산품"}]},{"lat":"37.130951379","long":"126.95462633","items":[{"name":"성신테크","tel":"031-8047-0444","addr":"경기도 화성시 향남읍 동오리 232-20번지 103호","category":"기타 - 기계공구"}]},{"lat":"37.142054808","long":"126.96123739","items":[{"name":"세진건드릴","tel":"031-8047-0310","addr":"경기도 화성시 향남읍 동오리 2-5번지 A동","category":"기타 - 기계공구"}]},{"lat":"37.141000805","long":"126.96187951","items":[{"name":"셀론(SELLON)","tel":"031-000-0000","addr":"경기도 화성시 향남읍 동오리 1-13번지","category":"보건위생 - 의료용품"}]},{"lat":"37.13091837","long":"126.96276273","items":[{"name":"솜씨방가구","tel":"031-352-0589","addr":"경기도 화성시 향남읍 동오리 203-2","category":"가구 - 일반가구"}]},{"lat":"37.13377883","long":"126.95029171","items":[{"name":"수원우원덮개","tel":"031-352-8790","addr":"경기도 화성시 향남읍 동오리 484번지 1층","category":"자동차정비 유지 - 자동차부품"}]},{"lat":"37.130561747","long":"126.94953995","items":[{"name":"슈퍼맨주유소","tel":"031-366-2556","addr":"경기도 화성시 향남읍 동오리 505-1번지","category":"연료판매점 - 주유소"}]},{"lat":"37.132554333","long":"126.9524308","items":[{"name":"씨엔테크","tel":"031-354-7429","addr":"경기도 화성시 향남읍 동오리 250번지","category":"직물 - 카페트,커튼,천막,지물"}]},{"lat":"37.130447868","long":"126.95735001","items":[{"name":"에이플러스 사운드(A PLUS SOUND)","tel":"031-352-1932","addr":"경기도 화성시 향남읍 동오리 227-1번지 B동","category":"자동차정비 유지 - 자동차부품"},{"name":"이레전열","tel":"031-366-4880","addr":"경기도 화성시 향남읍 동오리 227-1번지","category":"전기제품 - 냉열기기"}]},{"lat":"37.133757036","long":"126.96384163","items":[{"name":"영광래핑","tel":"031-354-8223","addr":"경기도 화성시 향남읍 동오리 196-2번지 나동","category":"기타 - 기계공구"}]},{"lat":"37.132392368","long":"126.95295984","items":[{"name":"영진앵글","tel":"031-366-6013","addr":"경기도 화성시 향남읍 동오리 707-22번지","category":"건축자재 - 목재·석재·철물"}]},{"lat":"37.133527864","long":"126.95337549","items":[{"name":"옥볼트","tel":"031-354-2642","addr":"경기도 화성시 향남읍 동오리 706번지 1층 일부","category":"기타 - 기계공구"}]},{"lat":"37.131450305","long":"126.96370777","items":[{"name":"용추골미궁순대","tel":"031-353-5057","addr":"경기도 화성시 향남읍 동오리 200-10번지 1층","category":"일반휴게음식 - 일반한식"}]},{"lat":"37.133311495","long":"126.95309428","items":[{"name":"우리식당","tel":"031-353-7035","addr":"경기도 화성시 향남읍 동오리 705-10번지 1동 지하1층","category":"일반휴게음식 - 일반한식"}]},{"lat":"37.134891246","long":"126.96059982","items":[{"name":"우리한식","tel":"031-111-1111","addr":"경기도 화성시 향남읍 동오리 118-14번지","category":"일반휴게음식 - 일반한식"},{"name":"킹마트","tel":"031-5538-3213","addr":"경기도 화성시 향남읍 동오리 118-14번지","category":"유통업 영리 - 슈퍼마켓"}]},{"lat":"37.130861182","long":"126.95440131","items":[{"name":"이마트24 화성발안로점","tel":"031-000-0000","addr":"경기도 화성시 향남읍 동오리 232-19번지 1층","category":"유통업 영리 - 편 의 점"},{"name":"이마트24 화성발안로점","tel":"031-000-0000","addr":"경기도 화성시 향남읍 동오리 232-19번지","category":"유통업 영리 - 편 의 점"}]},{"lat":"37.13144652","long":"126.95356816","items":[{"name":"장면이엔지(주)","tel":"031-354-2114","addr":"경기도 화성시 향남읍 동오리 240번지 202호","category":"용역 서비스 - 기타용역서비스"}]},{"lat":"37.1433611","long":"126.96059511","items":[{"name":"장수보신원","tel":"031-353-0732","addr":"경기도 화성시 향남읍 동오리 1-3번지","category":"일반휴게음식 - 일반한식"}]},{"lat":"37.133610732","long":"126.95782079","items":[{"name":"정성담은한식뷔페","tel":"031-354-1198","addr":"경기도 화성시 향남읍 동오리 673-5번지 1층","category":"일반휴게음식 - 일반한식"}]},{"lat":"37.131337974","long":"126.95256665","items":[{"name":"제이에스타바코","tel":"031-1800-6743","addr":"경기도 화성시 향남읍 동오리 248-3번지 1층 101호","category":"기타 - 기타 전문점"}]},{"lat":"37.13414448","long":"126.96381892","items":[{"name":"제이엘테크","tel":"031-354-8947","addr":"경기도 화성시 향남읍 동오리 196-3","category":"기타 - 기계공구"}]},{"lat":"37.136862851","long":"126.95609692","items":[{"name":"주식회사드림물류장비","tel":"031-352-7434","addr":"경기도 화성시 향남읍 동오리 133-9번지 다동","category":"자동차판매 - 기타운송"}]},{"lat":"37.13088898","long":"126.95631441","items":[{"name":"지에스칼텍스(주)캐피탈주유소","tel":"031-366-5126","addr":"경기도 화성시 향남읍 동오리 229-3번지","category":"연료판매점 - GS주유소"}]},{"lat":"37.132839252","long":"126.944958","items":[{"name":"창영주유소","tel":"031-366-5120","addr":"경기도 화성시 향남읍 동오리 547-1번지","category":"연료판매점 - SK주유소"}]},{"lat":"37.134918599","long":"126.9615114","items":[{"name":"청화대 구내식당","tel":"","addr":"경기도 화성시 향남읍 동오리 115-13번지","category":"일반휴게음식 - 위탁급식업"}]},{"lat":"37.130673053","long":"126.95714731","items":[{"name":"케이디모터스","tel":"031-354-5272","addr":"경기도 화성시 향남읍 동오리 227-3번지 1층","category":"자동차정비 유지 - 자동차시트·타이어"}]},{"lat":"37.133056556","long":"126.94715236","items":[{"name":"콩미가손두부","tel":"031-353-8639","addr":"경기도 화성시 향남읍 동오리 537번지","category":"일반휴게음식 - 일반한식"}]},{"lat":"37.131338534","long":"126.95390584","items":[{"name":"타이어타운 동오점","tel":"031-352-6505","addr":"경기도 화성시 향남읍 동오리 240-6","category":"자동차정비 유지 - 자동차시트·타이어"}]},{"lat":"37.135583053","long":"126.95532115","items":[{"name":"토탈오일나라","tel":"031-373-8762","addr":"경기도 화성시 향남읍 동오리 135-29번지","category":"연료판매점 - 유류판매"}]},{"lat":"37.142720012","long":"126.95698248","items":[{"name":"티엔티(T&T)","tel":"031-366-1809","addr":"경기도 화성시 향남읍 동오리 77-3번지","category":"기타 - 기계공구"}]},{"lat":"37.14005547","long":"126.96415353","items":[{"name":"한상애찬 한식부페","tel":"031-366-0995","addr":"경기도 화성시 향남읍 동오리 606-1번지","category":"일반휴게음식 - 일반한식"}]},{"lat":"37.132617687","long":"126.95309474","items":[{"name":"한신공압기계","tel":"031-354-2935","addr":"경기도 화성시 향남읍 동오리 707-12번지","category":"기타 - 기계공구"}]},{"lat":"37.131499201","long":"126.95034956","items":[{"name":"한신콤프렛서","tel":"031-354-3517","addr":"경기도 화성시 향남읍 동오리 499-1번지","category":"기타 - 기계공구"}]},{"lat":"37.132500494","long":"126.95295977","items":[{"name":"한양전기조명","tel":"031-366-4555","addr":"경기도 화성시 향남읍 동오리 707-26번지","category":"건축자재 - 조명기구"}]},{"lat":"37.136005875","long":"126.95367775","items":[{"name":"현엔지니어링","tel":"031-8058-4955","addr":"경기도 화성시 향남읍 동오리 283번지","category":"수리서비스 - 기타수리서비스"}]},{"lat":"37.143721398","long":"126.96025724","items":[{"name":"화전밭","tel":"031-354-0956","addr":"경기도 화성시 향남읍 동오리 1-1번지","category":"일반휴게음식 - 일반한식"}]}]