[{"lat":"37.637024285","long":"127.13217455","imageIndex":0,"items":[{"name":"(csmoters) 씨에스모터스","tel":"070-4151-7983","addr":"경기도 구리시 사노동 539-6번지","indutype":"자동차정비 유지 - 카인테리어","category":"car"}]},{"lat":"37.630669079","long":"127.1351996","imageIndex":0,"items":[{"name":"(주)한우리","tel":"031-571-4184","addr":"경기도 구리시 사노동 573-22번지","indutype":"자동차정비 유지 - 자동차부품","category":"car"}]},{"lat":"37.632136065","long":"127.1366183","imageIndex":0,"items":[{"name":"골든오일","tel":"031-527-6433","addr":"경기도 구리시 사노동 287-10번지","indutype":"자동차정비 유지 - 윤활유 전문 판매","category":"car"}]},{"lat":"37.639754038","long":"127.14031418","imageIndex":0,"items":[{"name":"네바퀴진솔타이어(타이어프로사노IC점)","tel":"031-575-7177","addr":"경기도 구리시 사노동 391-14 101,102호","indutype":"자동차정비 유지 - 자동차시트·타이어","category":"car"}]},{"lat":"37.637557144","long":"127.13904122","imageIndex":0,"items":[{"name":"대륙상사","tel":"031-567-6631","addr":"경기도 구리시 사노동 332-14번지","indutype":"자동차정비 유지 - 자동차시트·타이어","category":"car"}]},{"lat":"37.630670778","long":"127.14156625","imageIndex":0,"items":[{"name":"대진사","tel":"031-573-5286","addr":"경기도 구리시 사노동 201번지","indutype":"자동차정비 유지 - 자동차정비","category":"car"}]},{"lat":"37.635500124","long":"127.1414506","imageIndex":0,"items":[{"name":"모터스테이션","tel":"070-4365-4720","addr":"경기도 구리시 사노동 344-2번지","indutype":"자동차정비 유지 - 자동차정비","category":"car"}]},{"lat":"37.642583252","long":"127.1401721","imageIndex":0,"items":[{"name":"복지모터스","tel":"031-566-5151","addr":"경기도 구리시 사노동 444-3번지","indutype":"자동차정비 유지 - 자동차부품","category":"car"}]},{"lat":"37.639420548","long":"127.14042686","imageIndex":0,"items":[{"name":"붕붕","tel":"031-562-2217","addr":"경기도 구리시 사노동 391-25번지","indutype":"자동차정비 유지 - 카인테리어","category":"car"},{"name":"붕붕모터스","tel":"031-1111-111","addr":"경기도 구리시 사노동 391-25번지","indutype":"자동차정비 유지 - 자동차부품","category":"car"}]},{"lat":"37.632721284","long":"127.13698187","imageIndex":0,"items":[{"name":"수상한카오디오","tel":"070-7725-0406","addr":"경기도 구리시 사노동 289-6번지 나동","indutype":"자동차정비 유지 - 자동차부품","category":"car"}]},{"lat":"37.633085751","long":"127.14125353","imageIndex":0,"items":[{"name":"신구리자동차공업사","tel":"031-567-1357","addr":"경기도 구리시 사노동 252-6번지 301호","indutype":"자동차정비 유지 - 자동차정비","category":"car"}]},{"lat":"37.635557188","long":"127.13886763","imageIndex":0,"items":[{"name":"오피에스(OPS)","tel":"031-527-0823","addr":"경기도 구리시 사노동 308번지 나동","indutype":"자동차정비 유지 - 자동차부품","category":"car"}]},{"lat":"37.639140081","long":"127.14142337","imageIndex":0,"items":[{"name":"원티드","tel":"031-572-0917","addr":"경기도 구리시 사노동 384-9번지","indutype":"자동차정비 유지 - 자동차정비","category":"car"}]},{"lat":"37.637914336","long":"127.14178365","imageIndex":0,"items":[{"name":"유경컴퍼니","tel":"031-554-2735","addr":"경기도 구리시 사노동 379번지","indutype":"자동차정비 유지 - 자동차정비","category":"car"}]},{"lat":"37.632363695","long":"127.14233976","imageIndex":0,"items":[{"name":"자동차밧데리 배터리출장마트","tel":"031-527-7110","addr":"경기도 구리시 사노동 211-7번지 2층","indutype":"자동차정비 유지 - 자동차부품","category":"car"}]},{"lat":"37.633637376","long":"127.13950988","imageIndex":0,"items":[{"name":"챔프카(champcar)","tel":"031-574-5563","addr":"경기도 구리시 사노동 244-8번지","indutype":"자동차정비 유지 - 자동차부품","category":"car"}]},{"lat":"37.644140178","long":"127.1416706","imageIndex":0,"items":[{"name":"카스토리 (CAR STORY)","tel":"","addr":"경기도 구리시 사노동 452-29번지 1층 2호","indutype":"자동차정비 유지 - 자동차부품","category":"car"}]},{"lat":"37.63255362","long":"127.14172835","imageIndex":0,"items":[{"name":"큐브","tel":"","addr":"경기도 구리시 사노동 209-19번지 1층","indutype":"자동차정비 유지 - 자동차부품","category":"car"}]},{"lat":"37.632139626","long":"127.14134241","imageIndex":0,"items":[{"name":"파비스케어 주식회사","tel":"031-572-8182","addr":"경기도 구리시 사노동 207-5번지","indutype":"자동차정비 유지 - 자동차부품","category":"car"}]},{"lat":"37.643662891","long":"127.14147709","imageIndex":0,"items":[{"name":"펄스코(PULSECO)","tel":"031-572-7329","addr":"경기도 구리시 사노동 452-12번지","indutype":"자동차정비 유지 - 자동차부품","category":"car"}]},{"lat":"37.635113384","long":"127.1408721","imageIndex":0,"items":[{"name":"평화카센타","tel":"031-572-1300","addr":"경기도 구리시 사노동 340-25번지 평화카센터","indutype":"자동차정비 유지 - 자동차정비","category":"car"}]},{"lat":"37.638449169","long":"127.1389862","imageIndex":0,"items":[{"name":"화승","tel":"031-529-6678","addr":"경기도 구리시 사노동 387-4번지","indutype":"자동차정비 유지 - 카인테리어","category":"car"}]},{"lat":"37.637421504","long":"127.13145015","imageIndex":17,"items":[{"name":"(주)내츄럴데이","tel":"070-4253-7602","addr":"경기도 구리시 사노동 541-8번지","indutype":"레져용품 - 스포츠·레져용품","category":"other"}]},{"lat":"37.633780267","long":"127.14059773","imageIndex":17,"items":[{"name":"(주)다산피엠씨","tel":"031-1666-4025","addr":"경기도 구리시 사노동 248-4번지 2층 201호","indutype":"용역 서비스 - 종합용역","category":"other"},{"name":"세븐일레븐구리희망점","tel":"","addr":"경기도 구리시 사노동 248-4번지","indutype":"유통업 영리 - 편 의 점","category":"other"}]},{"lat":"37.638447593","long":"127.14034576","imageIndex":17,"items":[{"name":"(주)탐큐수학","tel":"031-571-6611","addr":"경기도 구리시 사노동 355-7번지","indutype":"서적문구 - 출판 및 인쇄물","category":"other"},{"name":"미가엘음향","tel":"031-571-9987","addr":"경기도 구리시 사노동 355-7번지","indutype":"전기제품 - 가전제품","category":"other"}]},{"lat":"37.630671673","long":"127.13286592","imageIndex":17,"items":[{"name":"D.S디자인","tel":"031-512-8204","addr":"경기도 구리시 사노동 578-8번지 가-1호","indutype":"건축자재 - 인테리어전문","category":"other"},{"name":"금성금속","tel":"031-528-3372","addr":"경기도 구리시 사노동 578-8번지 다동 1호","indutype":"건축자재 - 목재·석재·철물","category":"other"}]},{"lat":"37.63580891","long":"127.13934392","imageIndex":17,"items":[{"name":"D.Y산업","tel":"031-564-4282","addr":"경기도 구리시 사노동 306번지 1층","indutype":"직물 - 카페트,커튼,천막,지물","category":"other"}]},{"lat":"37.634224858","long":"127.13790223","imageIndex":17,"items":[{"name":"J.S.KOREA","tel":"031-528-7818","addr":"경기도 구리시 사노동 296-12번지","indutype":"문화.취미 - 화방·표구점","category":"other"},{"name":"펫글로비즈","tel":"02-493-6178","addr":"경기도 구리시 사노동 296-12번지","indutype":"의류 - 정장","category":"other"}]},{"lat":"37.63211145","long":"127.14231663","imageIndex":17,"items":[{"name":"SG골프피팅센타","tel":"031-571-1931","addr":"경기도 구리시 사노동 206-1번지 1층","indutype":"레져용품 - 골프용품 전문점","category":"other"},{"name":"축복애견카페","tel":"031-553-0981","addr":"경기도 구리시 사노동 206-1번지 2층","indutype":"문화.취미 - 애완동물","category":"other"}]},{"lat":"37.638916361","long":"127.14012003","imageIndex":17,"items":[{"name":"THEDIY","tel":"031-571-8188","addr":"경기도 구리시 사노동 385-4번지","indutype":"신변잡화 - 기타잡화","category":"other"},{"name":"루디아명품구제","tel":"031-557-7774","addr":"경기도 구리시 사노동 385-4번지","indutype":"의류 - 기타의류","category":"other"}]},{"lat":"37.633220471","long":"127.14161631","imageIndex":17,"items":[{"name":"TPT (탑프라임테크)","tel":"031-571-5220","addr":"경기도 구리시 사노동 212-5","indutype":"기타 - 기계공구","category":"other"}]},{"lat":"37.637998708","long":"127.14656493","imageIndex":17,"items":[{"name":"maiim정수기","tel":"031-575-8491","addr":"경기도 구리시 사노동 63번지","indutype":"용역 서비스 - 종합용역","category":"other"}]},{"lat":"37.638611036","long":"127.14683802","imageIndex":17,"items":[{"name":"가예","tel":"031-558-2395","addr":"경기도 구리시 사노동 27번지","indutype":"문화.취미 - 화방·표구점","category":"other"}]},{"lat":"37.632531358","long":"127.13761594","imageIndex":17,"items":[{"name":"가이아","tel":"031-529-0590","addr":"경기도 구리시 사노동 286-1번지","indutype":"건축자재 - 기타건축자재","category":"other"}]},{"lat":"37.639468268","long":"127.13811565","imageIndex":17,"items":[{"name":"고려종합식품","tel":"02-2215-6417","addr":"경기도 구리시 사노동 396-1번지","indutype":"유통업 영리 - 기타유통업","category":"other"}]},{"lat":"37.635413215","long":"127.13870876","imageIndex":17,"items":[{"name":"골든펫 (Golden Pet)","tel":"031-571-1326","addr":"경기도 구리시 사노동 310-5번지","indutype":"문화.취미 - 애완동물","category":"other"}]},{"lat":"37.631449259","long":"127.13842965","imageIndex":17,"items":[{"name":"골프존파크","tel":"031-527-2226","addr":"경기도 구리시 사노동 204-27번지 3층","indutype":"레져용품 - 골프용품 전문점","category":"other"},{"name":"세영세무회계사무소","tel":"031-556-9200","addr":"경기도 구리시 사노동 204-27번지 나동 1층","indutype":"용역 서비스 - 법률회계서비스(개인)","category":"other"}]},{"lat":"37.643662891","long":"127.14147709","imageIndex":17,"items":[{"name":"곰곰연구소","tel":"031-573-2293","addr":"경기도 구리시 사노동 452-12번지 D동","indutype":"문화.취미 - 애완동물","category":"other"}]},{"lat":"37.640001236","long":"127.13689298","imageIndex":17,"items":[{"name":"공간연출","tel":"031-528-2900","addr":"경기도 구리시 사노동 401번지","indutype":"주방용구 - 주방용구","category":"other"},{"name":"광명금속","tel":"031-528-2826","addr":"경기도 구리시 사노동 401번지","indutype":"건축자재 - 인테리어전문","category":"other"}]},{"lat":"37.638082351","long":"127.13673092","imageIndex":17,"items":[{"name":"구리선우요양원","tel":"031-575-2022","addr":"경기도 구리시 사노동 331-1번지","indutype":"기타의료기관 - 기타의료기관 및 기타","category":"other"}]},{"lat":"37.643384599","long":"127.14061546","imageIndex":17,"items":[{"name":"구리수중개발","tel":"031-575-8815","addr":"경기도 구리시 사노동 449-2번지","indutype":"기타 - 기계공구","category":"other"}]},{"lat":"37.63544726","long":"127.14795352","imageIndex":17,"items":[{"name":"구리왕숙일등체육사","tel":"02-2604-3353","addr":"경기도 구리시 사노동 39-6번지","indutype":"레져용품 - 스포츠·레져용품","category":"other"}]},{"lat":"37.633171395","long":"127.13731122","imageIndex":17,"items":[{"name":"그레이스 피플","tel":"031-111-1111","addr":"경기도 구리시 사노동 293-9번지","indutype":"용역 서비스 - 기타용역서비스","category":"other"}]},{"lat":"37.629672001","long":"127.14045421","imageIndex":17,"items":[{"name":"꽃 돌 나무 숲","tel":"","addr":"경기도 구리시 사노동 182-3번지","indutype":"문화.취미 - 화원","category":"other"}]},{"lat":"37.632809412","long":"127.13870402","imageIndex":17,"items":[{"name":"꿈꾸는자전거","tel":"070-7787-8068","addr":"경기도 구리시 사노동 273번지","indutype":"레져용품 - 스포츠·레져용품","category":"other"},{"name":"준한교육","tel":"031-853-9151","addr":"경기도 구리시 사노동 273번지","indutype":"서적문구 - 기타서적문구","category":"other"}]},{"lat":"37.627140918","long":"127.13989447","imageIndex":17,"items":[{"name":"남산유통","tel":"031-574-3366","addr":"경기도 구리시 사노동 166-2번지","indutype":"유통업 영리 - 기타유통업","category":"other"}]},{"lat":"37.642862288","long":"127.14039922","imageIndex":17,"items":[{"name":"노동자원재활용","tel":"031-571-3471","addr":"경기도 구리시 사노동 444-1번지","indutype":"신변잡화 - 기타잡화","category":"other"},{"name":"성지목재합판","tel":"031-594-3727","addr":"경기도 구리시 사노동 444-1번지","indutype":"건축자재 - 기타건축자재","category":"other"}]},{"lat":"37.633283406","long":"127.14172971","imageIndex":17,"items":[{"name":"다온TS","tel":"031-592-2824","addr":"경기도 구리시 사노동 212-4번지","indutype":"회원제형태 - 기타4","category":"other"}]},{"lat":"37.644086439","long":"127.14139857","imageIndex":17,"items":[{"name":"대림포장","tel":"031-554-5353","addr":"경기도 구리시 사노동 452-18 (외1필지)","indutype":"유통업 영리 - 기타유통업","category":"other"}]},{"lat":"37.642502744","long":"127.13967341","imageIndex":17,"items":[{"name":"대명어닝","tel":"031-528-0290","addr":"경기도 구리시 사노동 446-1번지","indutype":"직물 - 카페트,커튼,천막,지물","category":"other"},{"name":"미주철강","tel":"031-573-1833","addr":"경기도 구리시 사노동 446-1번지","indutype":"기타 - 기계공구","category":"other"}]},{"lat":"37.6447261","long":"127.14142242","imageIndex":17,"items":[{"name":"대성사","tel":"031-573-7740","addr":"경기도 구리시 사노동 457-5번지","indutype":"수리서비스 - 기타수리서비스","category":"other"}]},{"lat":"37.630587585","long":"127.13556197","imageIndex":17,"items":[{"name":"대신정기화물","tel":"031-555-8000","addr":"경기도 구리시 사노동 573-23번지","indutype":"용역 서비스 - 보관및 창고업","category":"other"}]},{"lat":"37.637470227","long":"127.14400342","imageIndex":17,"items":[{"name":"대현","tel":"031-555-0712","addr":"경기도 구리시 사노동 60-27번지","indutype":"용역 서비스 - 기타용역서비스","category":"other"}]},{"lat":"37.63264385","long":"127.14161523","imageIndex":17,"items":[{"name":"도시공구철물","tel":"031-572-0942","addr":"경기도 구리시 사노동 209-18번지","indutype":"기타 - 기계공구","category":"other"},{"name":"주식회사 에어컨 나라","tel":"031-516-7398","addr":"경기도 구리시 사노동 209-18번지 1층","indutype":"전기제품 - 냉열기기","category":"other"}]},{"lat":"37.639278609","long":"127.13851186","imageIndex":17,"items":[{"name":"동남산업","tel":"031-571-5906","addr":"경기도 구리시 사노동 395번지","indutype":"기타 - 기타 전문점","category":"other"}]},{"lat":"37.644137869","long":"127.14361946","imageIndex":17,"items":[{"name":"동부고압호스","tel":"031-551-5845","addr":"경기도 구리시 사노동 3-3번지","indutype":"건축자재 - 기타건축자재","category":"other"},{"name":"엄지철거","tel":"","addr":"경기도 구리시 사노동 3-3번지","indutype":"용역 서비스 - 기타용역서비스","category":"other"}]},{"lat":"37.63422194","long":"127.14042861","imageIndex":17,"items":[{"name":"동서가구 (사노점)","tel":"031-528-1005","addr":"경기도 구리시 사노동 242번지","indutype":"가구 - 일반가구","category":"other"},{"name":"현스튜디오","tel":"031-573-2191","addr":"경기도 구리시 사노동 242번지","indutype":"광학제품 - 사진관","category":"other"}]},{"lat":"37.628338207","long":"127.14075762","imageIndex":17,"items":[{"name":"디인건축","tel":"031-555-0098","addr":"경기도 구리시 사노동 171-10번지","indutype":"건축자재 - 인테리어전문","category":"other"}]},{"lat":"37.633608857","long":"127.14079001","imageIndex":17,"items":[{"name":"리마코","tel":"031-529-5844","addr":"경기도 구리시 사노동 250-2번지","indutype":"직물 - 카페트,커튼,천막,지물","category":"other"},{"name":"에이치엔피산업","tel":"031-528-2453","addr":"경기도 구리시 사노동 250-2번지","indutype":"건축자재 - 기타건축자재","category":"other"}]},{"lat":"37.635081362","long":"127.13739396","imageIndex":17,"items":[{"name":"마띠에르가방","tel":"031-571-1877","addr":"경기도 구리시 사노동 314-5번지","indutype":"신변잡화 - 가방","category":"other"}]},{"lat":"37.632941981","long":"127.14092473","imageIndex":17,"items":[{"name":"미도공조","tel":"","addr":"경기도 구리시 사노동 252-4번지","indutype":"전기제품 - 냉열기기","category":"other"}]},{"lat":"37.626609661","long":"127.13962163","imageIndex":17,"items":[{"name":"본 타일 도기","tel":"031-572-8786","addr":"경기도 구리시 사노동 164-16번지","indutype":"건축자재 - 건축용 요업제품","category":"other"}]},{"lat":"37.635699187","long":"127.1407259","imageIndex":17,"items":[{"name":"부성천막","tel":"031-572-9800","addr":"경기도 구리시 사노동 340-22번지","indutype":"직물 - 카페트,커튼,천막,지물","category":"other"},{"name":"수성볼트","tel":"031-575-6168","addr":"경기도 구리시 사노동 340-22번지","indutype":"기타 - 기계공구","category":"other"},{"name":"주식회사다산디엔씨","tel":"031-575-8273","addr":"경기도 구리시 사노동 340-22번지 2층","indutype":"의류 - 정장","category":"other"}]},{"lat":"37.633143733","long":"127.13786629","imageIndex":17,"items":[{"name":"비앙토탈가구","tel":"031-573-9811","addr":"경기도 구리시 사노동 296-6번지","indutype":"가구 - 일반가구","category":"other"}]},{"lat":"37.639390138","long":"127.13550964","imageIndex":17,"items":[{"name":"삼보ENG","tel":"031-573-8591","addr":"경기도 구리시 사노동 479-16번지","indutype":"기타 - 기계공구","category":"other"}]},{"lat":"37.638086066","long":"127.14131945","imageIndex":17,"items":[{"name":"삼화산업","tel":"031-573-7805","addr":"경기도 구리시 사노동 380-2번지","indutype":"기타 - 기계공구","category":"other"},{"name":"성북에너지","tel":"","addr":"경기도 구리시 사노동 380-2번지 삼화산업 가동","indutype":"건축자재 - 보일러·펌프·샷시","category":"other"}]},{"lat":"37.634866389","long":"127.13628331","imageIndex":17,"items":[{"name":"상진문구산업사","tel":"031-571-7797","addr":"경기도 구리시 사노동 553","indutype":"서적문구 - 문구용품","category":"other"}]},{"lat":"37.638449169","long":"127.1389862","imageIndex":17,"items":[{"name":"샤인빌리지(클릭준INT)","tel":"031-529-3874","addr":"경기도 구리시 사노동 387-4번지","indutype":"회원제형태 - 기타1","category":"other"}]},{"lat":"37.64377955","long":"127.14187388","imageIndex":17,"items":[{"name":"서울바스","tel":"070-4140-2076","addr":"경기도 구리시 사노동 452-1번지","indutype":"건축자재 - 건축용 요업제품","category":"other"}]},{"lat":"37.643059654","long":"127.14112473","imageIndex":17,"items":[{"name":"서원종합주방","tel":"031-527-9752","addr":"경기도 구리시 사노동 452-10번지 1동","indutype":"주방용구 - 주방용구","category":"other"}]},{"lat":"37.630113096","long":"127.13284229","imageIndex":17,"items":[{"name":"선영문구 유통","tel":"031-551-3420","addr":"경기도 구리시 사노동 578-24번지","indutype":"서적문구 - 문구용품","category":"other"}]},{"lat":"37.633638786","long":"127.13828635","imageIndex":17,"items":[{"name":"성남사","tel":"02-2264-7939","addr":"경기도 구리시 사노동 296-3번지 다동","indutype":"의류 - 정장","category":"other"}]},{"lat":"37.636195789","long":"127.13980913","imageIndex":17,"items":[{"name":"성신전자","tel":"031-529-1544","addr":"경기도 구리시 사노동 336-2번지","indutype":"전기제품 - 기타전기제품","category":"other"}]},{"lat":"37.635199646","long":"127.13637454","imageIndex":17,"items":[{"name":"세종아이앤디","tel":"031-555-6447","addr":"경기도 구리시 사노동 511-2번지","indutype":"건축자재 - 인테리어전문","category":"other"}]},{"lat":"37.634587268","long":"127.13612421","imageIndex":17,"items":[{"name":"스미스","tel":"031-1577-7860","addr":"경기도 구리시 사노동 552-2번지","indutype":"신변잡화 - 기타잡화","category":"other"}]},{"lat":"37.635143341","long":"127.13834573","imageIndex":17,"items":[{"name":"스타존","tel":"031-572-8802","addr":"경기도 구리시 사노동 304-1번지","indutype":"레져용품 - 스포츠·레져용품","category":"other"}]},{"lat":"37.635557188","long":"127.13886763","imageIndex":17,"items":[{"name":"스타플레임","tel":"031-527-4642","addr":"경기도 구리시 사노동 308번지","indutype":"레져용품 - 스포츠·레져용품","category":"other"}]},{"lat":"37.634976641","long":"127.14223135","imageIndex":17,"items":[{"name":"신우냉열","tel":"031-604-4123","addr":"경기도 구리시 사노동 217-18번지 1층","indutype":"전기제품 - 냉열기기","category":"other"}]},{"lat":"37.645195055","long":"127.14103804","imageIndex":17,"items":[{"name":"실락원","tel":"031-528-5555","addr":"경기도 구리시 사노동 458-9, 457-3, 457-8","indutype":"문화.취미 - 화원","category":"other"}]},{"lat":"37.631863419","long":"127.13867964","imageIndex":17,"items":[{"name":"아승씽크","tel":"031-555-5128","addr":"경기도 구리시 사노동 281-10번지","indutype":"주방용구 - 주방용구","category":"other"}]},{"lat":"37.630557623","long":"127.13814482","imageIndex":17,"items":[{"name":"아해뜰","tel":"","addr":"경기도 구리시 사노동 193번지","indutype":"문화.취미 - 화원","category":"other"}]},{"lat":"37.639197713","long":"127.14597808","imageIndex":17,"items":[{"name":"애니아트","tel":"031-575-9106","addr":"경기도 구리시 사노동 24","indutype":"문화.취미 - 화방·표구점","category":"other"},{"name":"애니아트","tel":"02-2279-7071","addr":"경기도 구리시 사노동 24번지","indutype":"문화.취미 - 화방·표구점","category":"other"}]},{"lat":"37.635415699","long":"127.13653354","imageIndex":17,"items":[{"name":"에스엠텍","tel":"031-558-9596","addr":"경기도 구리시 사노동 511-1번지 가동","indutype":"레져용품 - 스포츠·레져용품","category":"other"}]},{"lat":"37.636086789","long":"127.140568","imageIndex":17,"items":[{"name":"영림냉기공업","tel":"02-495-9838","addr":"경기도 구리시 사노동 340-9번지","indutype":"전기제품 - 냉열기기","category":"other"}]},{"lat":"37.638390748","long":"127.13489606","imageIndex":17,"items":[{"name":"와이디시스템","tel":"031-574-7439","addr":"경기도 구리시 사노동 493-3번지 나동 1층","indutype":"신변잡화 - 기타잡화","category":"other"}]},{"lat":"37.636975285","long":"127.13573194","imageIndex":17,"items":[{"name":"우드플러스인","tel":"025-423-4854","addr":"경기도 구리시 사노동 506-4번지 마동","indutype":"가구 - 기타가구","category":"other"}]},{"lat":"37.633365463","long":"127.14090285","imageIndex":17,"items":[{"name":"유라이브","tel":"031-528-3901","addr":"경기도 구리시 사노동 248번지 102,103호","indutype":"수리서비스 - 기타수리서비스","category":"other"}]},{"lat":"37.629755548","long":"127.13023613","imageIndex":17,"items":[{"name":"장원서적","tel":"02-2208-6741","addr":"경기도 구리시 사노동 579-5번지","indutype":"서적문구 - 일반서적","category":"other"}]},{"lat":"37.630583754","long":"127.13892654","imageIndex":17,"items":[{"name":"주도플라워","tel":"031-529-0014","addr":"경기도 구리시 사노동 193-3번지 외1필지 산 174-12","indutype":"문화.취미 - 화원","category":"other"}]},{"lat":"37.637421108","long":"127.13181269","imageIndex":17,"items":[{"name":"주식회사 워터포인트","tel":"031-513-1016","addr":"경기도 구리시 사노동 539-2번지","indutype":"서적문구 - 과학기자재","category":"other"}]},{"lat":"37.63747416","long":"127.13273048","imageIndex":17,"items":[{"name":"주식회사 유투디스플레이","tel":"031-551-5119","addr":"경기도 구리시 사노동 534-6번지","indutype":"사무통신 - 컴퓨터","category":"other"}]},{"lat":"37.632970749","long":"127.13942936","imageIndex":17,"items":[{"name":"주식회사 해충박사","tel":"031-527-3224","addr":"경기도 구리시 사노동 259번지","indutype":"용역 서비스 - 사무서비스","category":"other"}]},{"lat":"37.638195717","long":"127.14000541","imageIndex":17,"items":[{"name":"주식회사 효사랑요양원","tel":"031-558-3000","addr":"경기도 구리시 사노동 355-12번지","indutype":"기타의료기관 - 기타의료기관 및 기타","category":"other"}]},{"lat":"37.643527812","long":"127.14142019","imageIndex":17,"items":[{"name":"주식회사금강안전도어","tel":"02-477-4194","addr":"경기도 구리시 사노동 452-20번지","indutype":"건축자재 - 기타건축자재","category":"other"}]},{"lat":"37.635109048","long":"127.13681622","imageIndex":17,"items":[{"name":"주식회사바이젠(BYGEN CO.,LTD)","tel":"02-484-0829","addr":"경기도 구리시 사노동 314번지","indutype":"레져용품 - 스포츠·레져용품","category":"other"}]},{"lat":"37.637087626","long":"127.13192541","imageIndex":17,"items":[{"name":"주식회사알파인터테크","tel":"031-528-8486","addr":"경기도 구리시 사노동 540-2번지 201호","indutype":"전기제품 - 기타전기제품","category":"other"},{"name":"준스크린","tel":"031-574-9010","addr":"경기도 구리시 사노동 540-2번지 외1필지","indutype":"회원제형태 - 레져업소","category":"other"}]},{"lat":"37.636890682","long":"127.14642684","imageIndex":17,"items":[{"name":"진명냉동","tel":"070-4258-6320","addr":"경기도 구리시 사노동 55번지","indutype":"용역 서비스 - 기타용역서비스","category":"other"}]},{"lat":"37.633862395","long":"127.13970289","imageIndex":17,"items":[{"name":"투엔원산업","tel":"031-528-8620","addr":"경기도 구리시 사노동 244번지","indutype":"건축자재 - 기타건축자재","category":"other"}]},{"lat":"37.639748861","long":"127.13698317","imageIndex":17,"items":[{"name":"툴가이즈","tel":"","addr":"경기도 구리시 사노동 479-18번지","indutype":"가구 - 일반가구","category":"other"}]},{"lat":"37.637581656","long":"127.14120522","imageIndex":17,"items":[{"name":"포스트바이오(주)","tel":"031-523-2730","addr":"경기도 구리시 사노동 360-1번지","indutype":"서적문구 - 과학기자재","category":"other"}]},{"lat":"37.629866649","long":"127.14347926","imageIndex":17,"items":[{"name":"플랜트하우스 다산","tel":"","addr":"경기도 구리시 사노동 141-2번지 1,2호","indutype":"문화.취미 - 화원","category":"other"}]},{"lat":"37.638529142","long":"127.13994937","imageIndex":17,"items":[{"name":"플러스가구","tel":"031-559-4520","addr":"경기도 구리시 사노동 386-3번지","indutype":"가구 - 일반가구","category":"other"}]},{"lat":"37.632448252","long":"127.13937176","imageIndex":17,"items":[{"name":"하나공조","tel":"02-1522-9396","addr":"경기도 구리시 사노동 280번지","indutype":"전기제품 - 냉열기기","category":"other"}]},{"lat":"37.636002734","long":"127.13528836","imageIndex":17,"items":[{"name":"한가람","tel":"","addr":"경기도 구리시 사노동 519-1번지 301호","indutype":"전기제품 - 가전제품","category":"other"}]},{"lat":"37.635747588","long":"127.12970255","imageIndex":17,"items":[{"name":"한국불교태고종사나사","tel":"031-574-8600","addr":"경기도 구리시 사노동 536-6번지","indutype":"기타 - 비영리/대상","category":"other"}]},{"lat":"37.639249588","long":"127.14023394","imageIndex":17,"items":[{"name":"한양철망휀스","tel":"031-565-7070","addr":"경기도 구리시 사노동 391-15번지","indutype":"건축자재 - 건축용 요업제품","category":"other"}]},{"lat":"37.632803129","long":"127.13631361","imageIndex":17,"items":[{"name":"화인캐스코","tel":"031-571-2145","addr":"경기도 구리시 사노동 289-1번지","indutype":"기타 - 기계공구","category":"other"}]},{"lat":"37.632055797","long":"127.13589311","imageIndex":17,"items":[{"name":"휴안노인요양원","tel":"031-571-8897","addr":"경기도 구리시 사노동 287-11번지","indutype":"기타의료기관 - 기타의료기관 및 기타","category":"other"}]},{"lat":"37.634086795","long":"127.14042836","imageIndex":4,"items":[{"name":"(주)다온갈비","tel":"031-573-9282","addr":"경기도 구리시 사노동 242-1번지 1층","indutype":"일반휴게음식 - 일반한식","category":"restaurant"}]},{"lat":"37.632725999","long":"127.14070908","imageIndex":4,"items":[{"name":"153한식당","tel":"031-552-9445","addr":"경기도 구리시 사노동 209-5번지 1층","indutype":"일반휴게음식 - 위탁급식업","category":"restaurant"}]},{"lat":"37.633365463","long":"127.14090285","imageIndex":4,"items":[{"name":"구룡각","tel":"031-555-7555","addr":"경기도 구리시 사노동 248번지 105호","indutype":"일반휴게음식 - 중국식","category":"restaurant"},{"name":"서울해장국","tel":"031-527-8522","addr":"경기도 구리시 사노동 248번지","indutype":"일반휴게음식 - 일반한식","category":"restaurant"}]},{"lat":"37.632391964","long":"127.14128623","imageIndex":4,"items":[{"name":"남원추어탕","tel":"031-571-1808","addr":"경기도 구리시 사노동 209-11번지","indutype":"일반휴게음식 - 일반한식","category":"restaurant"}]},{"lat":"37.633780267","long":"127.14059773","imageIndex":4,"items":[{"name":"동구릉막국수","tel":"031-529-9935","addr":"경기도 구리시 사노동 248-4번지 1층","indutype":"일반휴게음식 - 일반한식","category":"restaurant"}]},{"lat":"37.627753355","long":"127.14008818","imageIndex":4,"items":[{"name":"두메골","tel":"031-573-5558","addr":"경기도 구리시 사노동 170-3번지","indutype":"일반휴게음식 - 일반한식","category":"restaurant"}]},{"lat":"37.635916291","long":"127.13997856","imageIndex":4,"items":[{"name":"맛좋은집밥","tel":"031-575-5378","addr":"경기도 구리시 사노동 340-12번지 (2종근린생활)","indutype":"일반휴게음식 - 일반한식","category":"restaurant"},{"name":"무봉리토종순대국 구리사노점","tel":"031-528-3455","addr":"경기도 구리시 사노동 340-12번지 1층","indutype":"일반휴게음식 - 일반한식","category":"restaurant"}]},{"lat":"37.629888365","long":"127.14034133","imageIndex":4,"items":[{"name":"사노리","tel":"031-573-6766","addr":"경기도 구리시 사노동 196번지 약산가든 가동","indutype":"일반휴게음식 - 일반한식","category":"restaurant"}]},{"lat":"37.636582586","long":"127.14034233","imageIndex":4,"items":[{"name":"샘터집","tel":"031-571-5166","addr":"경기도 구리시 사노동 352-7번지","indutype":"일반휴게음식 - 일반한식","category":"restaurant"}]},{"lat":"37.643059654","long":"127.14112473","imageIndex":4,"items":[{"name":"신토방유황오리전문점","tel":"02-3463-1088","addr":"경기도 구리시 사노동 452-10번지 1층","indutype":"일반휴게음식 - 일반한식","category":"restaurant"}]},{"lat":"37.643384599","long":"127.14061546","imageIndex":4,"items":[{"name":"아궁이","tel":"031-572-8604","addr":"경기도 구리시 사노동 449-2번지","indutype":"일반휴게음식 - 일반한식","category":"restaurant"}]},{"lat":"37.637803287","long":"127.1442533","imageIndex":4,"items":[{"name":"앰비션","tel":"031-575-5878","addr":"경기도 구리시 사노동 78-2번지 1층","indutype":"일반휴게음식 - 주점","category":"restaurant"}]},{"lat":"37.636921756","long":"127.14306203","imageIndex":4,"items":[{"name":"양지가든","tel":"031-574-1240","addr":"경기도 구리시 사노동 86번지","indutype":"일반휴게음식 - 일반한식","category":"restaurant"}]},{"lat":"37.638449169","long":"127.1389862","imageIndex":4,"items":[{"name":"양지쌈밥","tel":"031-573-8985","addr":"경기도 구리시 사노동 387-4번지 104호 103","indutype":"일반휴게음식 - 일반한식","category":"restaurant"},{"name":"주식회사 아카시","tel":"031-575-4260","addr":"경기도 구리시 사노동 387-4번지 상가 1층 102호","indutype":"일반휴게음식 - 일반한식","category":"restaurant"}]},{"lat":"37.638691382","long":"127.13989302","imageIndex":4,"items":[{"name":"양평해장국 구리점","tel":"031-572-1561","addr":"경기도 구리시 사노동 386-13번지 1층","indutype":"일반휴게음식 - 일반한식","category":"restaurant"}]},{"lat":"37.6321392","long":"127.14170493","imageIndex":4,"items":[{"name":"주원식당","tel":"031-574-5958","addr":"경기도 구리시 사노동 207-2번지","indutype":"일반휴게음식 - 일반한식","category":"restaurant"}]},{"lat":"37.637643351","long":"127.14237228","imageIndex":4,"items":[{"name":"푸드포레","tel":"031-557-3700","addr":"경기도 구리시 사노동 71-2번지 1층","indutype":"일반휴게음식 - 일반한식","category":"restaurant"}]},{"lat":"37.63747416","long":"127.13273048","imageIndex":4,"items":[{"name":"행복출장부페","tel":"02-2773-9600","addr":"경기도 구리시 사노동 534-6번지 가동","indutype":"일반휴게음식 - 일반한식","category":"restaurant"}]},{"lat":"37.632418474","long":"127.1417281","imageIndex":4,"items":[{"name":"행복한 밥상","tel":"031-528-0063","addr":"경기도 구리시 사노동 209-20번지","indutype":"일반휴게음식 - 일반한식","category":"restaurant"}]},{"lat":"37.635699187","long":"127.1407259","imageIndex":4,"items":[{"name":"향인식당","tel":"031-528-3204","addr":"경기도 구리시 사노동 340-22번지 1층","indutype":"일반휴게음식 - 일반한식","category":"restaurant"}]},{"lat":"37.636750868","long":"127.14281246","imageIndex":7,"items":[{"name":"(주)따순둥푸드","tel":"031-873-0309","addr":"경기도 구리시 사노동 86-1번지 1층","indutype":"음료식품 - 정육점","category":"food"}]},{"lat":"37.633059953","long":"127.14019989","imageIndex":7,"items":[{"name":"(주)장성캐터링","tel":"031-571-4740","addr":"경기도 구리시 사노동 246-6번지","indutype":"음료식품 - 기타음료식품","category":"food"}]},{"lat":"37.632781323","long":"127.13962161","imageIndex":7,"items":[{"name":"굿맨브루어리(주)","tel":"031-572-6376","addr":"경기도 구리시 사노동 257-1번지","indutype":"음료식품 - 기타음료식품","category":"food"}]},{"lat":"37.638474371","long":"127.14056108","imageIndex":7,"items":[{"name":"농업회사법인 주식회사 참조아","tel":"031-553-6464","addr":"경기도 구리시 사노동 356번지","indutype":"음료식품 - 정육점","category":"food"}]},{"lat":"37.635699187","long":"127.1407259","imageIndex":7,"items":[{"name":"덕산식품","tel":"031-572-5494","addr":"경기도 구리시 사노동 340-22번지","indutype":"음료식품 - 제과점","category":"food"}]},{"lat":"37.639530724","long":"127.13864827","imageIndex":7,"items":[{"name":"델몬트종로대리점","tel":"031-527-6744","addr":"경기도 구리시 사노동 395-2번지","indutype":"음료식품 - 기타음료식품","category":"food"}]},{"lat":"37.629804858","long":"127.14240295","imageIndex":7,"items":[{"name":"동구농원","tel":"031-552-7257","addr":"경기도 구리시 사노동 181-3","indutype":"음료식품 - 농·축·수산품","category":"food"}]},{"lat":"37.626166336","long":"127.14120672","imageIndex":7,"items":[{"name":"두레박농장","tel":"","addr":"경기도 구리시 사노동 157-4번지","indutype":"음료식품 - 농·축·수산품","category":"food"}]},{"lat":"37.63788841","long":"127.14084324","imageIndex":7,"items":[{"name":"디엔비푸드","tel":"031-575-8345","addr":"경기도 구리시 사노동 358-2번지","indutype":"음료식품 - 기타음료식품","category":"food"}]},{"lat":"37.633973514","long":"127.14478984","imageIndex":7,"items":[{"name":"믿음농원","tel":"031-563-6216","addr":"경기도 구리시 사노동 119번지","indutype":"음료식품 - 농·축·수산품","category":"food"}]},{"lat":"37.632665985","long":"127.13806934","imageIndex":7,"items":[{"name":"베스트푸드","tel":"070-4417-0808","addr":"경기도 구리시 사노동 276-3번지","indutype":"음료식품 - 기타음료식품","category":"food"}]},{"lat":"37.637498147","long":"127.14325572","imageIndex":7,"items":[{"name":"비엠푸드","tel":"031-573-5315","addr":"경기도 구리시 사노동 75번지 2층","indutype":"음료식품 - 정육점","category":"food"}]},{"lat":"37.631809321","long":"127.13064747","imageIndex":7,"items":[{"name":"서강농원","tel":"031-573-8840","addr":"경기도 구리시 사노동 산 175-35","indutype":"음료식품 - 농·축·수산품","category":"food"}]},{"lat":"37.637614539","long":"127.13611828","imageIndex":7,"items":[{"name":"소풍","tel":"031-573-4115","addr":"경기도 구리시 사노동 501-1번지","indutype":"음료식품 - 정육점","category":"food"}]},{"lat":"37.633115585","long":"127.13884052","imageIndex":7,"items":[{"name":"안말,내동경노당","tel":"031-571-4457","addr":"경기도 구리시 사노동 270-1","indutype":"음료식품 - 기타음료식품","category":"food"}]},{"lat":"37.634503431","long":"127.13853716","imageIndex":7,"items":[{"name":"에스알(SR)푸드","tel":"031-566-0610","addr":"경기도 구리시 사노동 233번지","indutype":"음료식품 - 기타음료식품","category":"food"}]},{"lat":"37.632970749","long":"127.13942936","imageIndex":7,"items":[{"name":"연선무역 주식회사","tel":"031-571-4195","addr":"경기도 구리시 사노동 259번지 103호","indutype":"건강식품 - 기타건강식품","category":"food"}]},{"lat":"37.64347003","long":"127.13684256","imageIndex":7,"items":[{"name":"영농조합법인 에코시티","tel":"031-5227-1414","addr":"경기도 구리시 사노동 465-4번지","indutype":"음료식품 - 농·축·수산품","category":"food"}]},{"lat":"37.637695929","long":"127.14361864","imageIndex":7,"items":[{"name":"오가식품","tel":"070-4257-9497","addr":"경기도 구리시 사노동 77","indutype":"음료식품 - 기타음료식품","category":"food"}]},{"lat":"37.632527017","long":"127.14136578","imageIndex":7,"items":[{"name":"원이네","tel":"031-527-3618","addr":"경기도 구리시 사노동 209-10번지","indutype":"음료식품 - 농·축·수산품","category":"food"}]},{"lat":"37.637864334","long":"127.14593021","imageIndex":7,"items":[{"name":"자연유통","tel":"031-311-0410","addr":"경기도 구리시 사노동 61번지","indutype":"음료식품 - 농·축·수산품","category":"food"}]},{"lat":"37.634060923","long":"127.13943136","imageIndex":7,"items":[{"name":"제일유통","tel":"031-571-1154","addr":"경기도 구리시 사노동 239-2번지","indutype":"음료식품 - 기타음료식품","category":"food"},{"name":"주식회사 허드슨리버트레이딩","tel":"031-571-6422","addr":"경기도 구리시 사노동 239-2번지","indutype":"음료식품 - 기타음료식품","category":"food"}]},{"lat":"37.637610275","long":"127.13184701","imageIndex":7,"items":[{"name":"주산농원","tel":"031-571-6151","addr":"경기도 구리시 사노동 534-10번지","indutype":"음료식품 - 농·축·수산품","category":"food"}]},{"lat":"37.632554338","long":"127.1411166","imageIndex":7,"items":[{"name":"주식회사 다재푸드9","tel":"031-111-1111","addr":"경기도 구리시 사노동 209-7번지","indutype":"음료식품 - 기타음료식품","category":"food"}]},{"lat":"37.63342088","long":"127.13973607","imageIndex":7,"items":[{"name":"주식회사가인에프엔디","tel":"070-8830-7400","addr":"경기도 구리시 사노동 245-3번지","indutype":"음료식품 - 정육점","category":"food"}]},{"lat":"37.632942245","long":"127.14069815","imageIndex":7,"items":[{"name":"주식회사그린푸드시스템","tel":"031-529-3554","addr":"경기도 구리시 사노동 252-5번지","indutype":"음료식품 - 정육점","category":"food"}]},{"lat":"37.634414889","long":"127.13717751","imageIndex":7,"items":[{"name":"하나로유통","tel":"031-572-6683","addr":"경기도 구리시 사노동 295-1번지","indutype":"건강식품 - 기타건강식품","category":"food"}]},{"lat":"37.638390748","long":"127.13489606","imageIndex":7,"items":[{"name":"하늘FS","tel":"031-574-4922","addr":"경기도 구리시 사노동 493-3번지","indutype":"음료식품 - 기타음료식품","category":"food"}]},{"lat":"37.637858859","long":"127.13517836","imageIndex":7,"items":[{"name":"한라유통","tel":"031-554-8944","addr":"경기도 구리시 사노동 497번지","indutype":"음료식품 - 농·축·수산품","category":"food"}]},{"lat":"37.637914336","long":"127.14178365","imageIndex":7,"items":[{"name":"해신유통","tel":"031-935-4700","addr":"경기도 구리시 사노동 379번지 가동","indutype":"음료식품 - 농·축·수산품","category":"food"}]},{"lat":"37.637723821","long":"127.1428936","imageIndex":13,"items":[{"name":"BC아모레","tel":"031-529-5633","addr":"경기도 구리시 사노동 72-2번지","indutype":"보건위생 - 화장품","category":"beauty"}]},{"lat":"37.637163259","long":"127.13681991","imageIndex":13,"items":[{"name":"주식회사 국보산업","tel":"02-956-2588","addr":"경기도 구리시 사노동 504-1번지 2동 1층","indutype":"보건위생 - 의료용품","category":"beauty"}]},{"lat":"37.632891137","long":"127.13814905","imageIndex":16,"items":[{"name":"가위바위보아트센터학원","tel":"031-1599-3949","addr":"경기도 구리시 사노동 270-5번지 1층","indutype":"학원 - 예·체능계학원","category":"study"}]},{"lat":"37.643059654","long":"127.14112473","imageIndex":16,"items":[{"name":"건강한미래교육","tel":"031-527-9927","addr":"경기도 구리시 사노동 452-10번지 2층","indutype":"학원 - 기타 교육기관","category":"study"}]},{"lat":"37.634975374","long":"127.13551312","imageIndex":16,"items":[{"name":"구리서머힐어린이집[아이행복]","tel":"031-564-0603","addr":"경기도 구리시 사노동 552-1번지","indutype":"학원 - 유아원","category":"study"}]},{"lat":"37.640196775","long":"127.13922731","imageIndex":16,"items":[{"name":"내양초등학교","tel":"031-571-6669","addr":"경기도 구리시 사노동 393-2번지 내양초등학교","indutype":"학원 - 초중고교육기관","category":"study"},{"name":"내양초병설유치원[아이행복]","tel":"031-571-6669","addr":"경기도 구리시 사노동 393-2번지","indutype":"학원 - 유치원","category":"study"}]},{"lat":"37.63755842","long":"127.13793092","imageIndex":16,"items":[{"name":"일레트릭스포츠","tel":"","addr":"경기도 구리시 사노동 322-2번지 203호","indutype":"학원 - 기타 교육기관","category":"study"}]},{"lat":"37.638449169","long":"127.1389862","imageIndex":16,"items":[{"name":"한국생활환경평생교육원/한국생활환경크린(","tel":"031-527-1770","addr":"경기도 구리시 사노동 387-4번지 양지빌딩 2층","indutype":"학원 - 기타 교육기관","category":"study"}]},{"lat":"37.643525037","long":"127.1360042","imageIndex":13,"items":[{"name":"모모 체험 농장","tel":"","addr":"경기도 구리시 사노동 464-2번지","indutype":"레저업소 - 기타레져업소","category":"leisure"}]},{"lat":"37.634557775","long":"127.13828802","imageIndex":8,"items":[{"name":"보명한의원","tel":"031-566-2080","addr":"경기도 구리시 사노동 302-3번지","indutype":"의원 - 한의원","category":"medical"}]},{"lat":"37.635916291","long":"127.13997856","imageIndex":8,"items":[{"name":"예닮치과의원","tel":"031-528-2872","addr":"경기도 구리시 사노동 340-12번지 2층","indutype":"의원 - 치과의원","category":"medical"}]},{"lat":"37.632418474","long":"127.1417281","imageIndex":7,"items":[{"name":"알뜰슈퍼","tel":"031-527-1303","addr":"경기도 구리시 사노동 209-20번지","indutype":"유통업 영리 - 슈퍼마켓","category":"mart"}]}]