[{"lat":"37.14514874","long":"127.43754437","items":[{"name":"(주)대한멀티팩","tel":"070-7763-8994","addr":"경기도 안성시 일죽면 방초리 4-1번지","category":"직물 - 기타직물"}]},{"lat":"37.125564752","long":"127.43379772","items":[{"name":"(주)씨아이에스인터내셔날","tel":"031-673-3380","addr":"경기도 안성시 일죽면 방초리 218-1번지","category":"전기제품 - 가전제품"}]},{"lat":"37.120732978","long":"127.43191375","items":[{"name":"(주)케이.엠","tel":"031-674-2980","addr":"경기도 안성시 일죽면 방초리 472-1번지","category":"농업 - 농기계"}]},{"lat":"37.119625508","long":"127.4164699","items":[{"name":"APINA MOBLER","tel":"031-674-0662","addr":"경기도 안성시 일죽면 방초리 917번지","category":"가구 - 일반가구"},{"name":"APINA MOBLER/주식회사 아피나코리아","tel":"031-674-0661","addr":"경기도 안성시 일죽면 방초리 917번지","category":"가구 - 일반가구"},{"name":"주식회사 아피나코리아","tel":"031-674-0662","addr":"경기도 안성시 일죽면 방초리 917번지","category":"가구 - 일반가구"},{"name":"주식회사 아피나코리아","tel":"031-674-0661","addr":"경기도 안성시 일죽면 방초리 917번지","category":"가구 - 일반가구"}]},{"lat":"37.113762692","long":"127.43086183","items":[{"name":"GS25일죽방초점","tel":"","addr":"경기도 안성시 일죽면 방초리 349-3번지","category":"유통업 영리 - 편 의 점"}]},{"lat":"37.138537711","long":"127.43683127","items":[{"name":"남이천 스크린골프","tel":"031-111-1111","addr":"경기도 안성시 일죽면 방초리 71-1번지","category":"레져용품 - 골프용품 전문점"}]},{"lat":"37.138438269","long":"127.43692074","items":[{"name":"남이천포차","tel":"031-111-1111","addr":"경기도 안성시 일죽면 방초리 71-1번지 나동 1층","category":"일반휴게음식 - 주점"}]},{"lat":"37.128372533","long":"127.43227195","items":[{"name":"다울주식회사","tel":"031-671-7755","addr":"경기도 안성시 일죽면 방초리 145-10번지","category":"자동차정비 유지 - 가타자동차서비스"}]},{"lat":"37.141014486","long":"127.43466193","items":[{"name":"롯데상사(주) 안성공장","tel":"031-671-8675","addr":"경기도 안성시 일죽면 방초리 1143번지","category":"음료식품 - 기타음료식품"}]},{"lat":"37.138898532","long":"127.43672078","items":[{"name":"멋대로 한식부페","tel":"031-671-5015","addr":"경기도 안성시 일죽면 방초리 71-4번지","category":"일반휴게음식 - 일반한식"}]},{"lat":"37.127320411","long":"127.43169211","items":[{"name":"명성급식소","tel":"031-672-6579","addr":"경기도 안성시 일죽면 방초리 227-1 B-1동","category":"일반휴게음식 - 위탁급식업"}]},{"lat":"37.142260128","long":"127.43652613","items":[{"name":"목련","tel":"031-674-3554","addr":"경기도 안성시 일죽면 방초리 44-13번지","category":"일반휴게음식 - 일반한식"}]},{"lat":"37.117679639","long":"127.43158147","items":[{"name":"몬스팜","tel":"02-2635-8839","addr":"경기도 안성시 일죽면 방초리 1140-10번지","category":"음료식품 - 농·축·수산품"}]},{"lat":"37.120315195","long":"127.42782692","items":[{"name":"물레방아","tel":"031-671-5959","addr":"경기도 안성시 일죽면 방초리 306-1번지","category":"일반휴게음식 - 일반한식"}]},{"lat":"37.127731594","long":"127.43508161","items":[{"name":"미립꼬기마을","tel":"031-674-6904","addr":"경기도 안성시 일죽면 방초리 202-1번지","category":"일반휴게음식 - 일반한식"}]},{"lat":"37.122348409","long":"127.42110941","items":[{"name":"방초식당","tel":"031-674-5528","addr":"경기도 안성시 일죽면 방초리 868-1번지","category":"일반휴게음식 - 일반한식"}]},{"lat":"37.119537954","long":"127.43347102","items":[{"name":"방초초등학교","tel":"031-674-5048","addr":"경기도 안성시 일죽면 방초리 459-2번지 방초초등학교","category":"학원 - 초중고교육기관"}]},{"lat":"37.139150118","long":"127.43691355","items":[{"name":"북경짜장","tel":"031-677-0112","addr":"경기도 안성시 일죽면 방초리 37-2번지 가동","category":"일반휴게음식 - 중국식"}]},{"lat":"37.12373687","long":"127.41830392","items":[{"name":"비룡주유소","tel":"031-672-5185","addr":"경기도 안성시 일죽면 방초리 900-7번지","category":"연료판매점 - 쌍용S-OIL"}]},{"lat":"37.138540181","long":"127.436156","items":[{"name":"쁘띠포레","tel":"","addr":"경기도 안성시 일죽면 방초리 73-4번지 1동","category":"서적문구 - 완구점"}]},{"lat":"37.114565513","long":"127.42810982","items":[{"name":"사천성","tel":"031-672-1888","addr":"경기도 안성시 일죽면 방초리 553-1번지 외2필지","category":"일반휴게음식 - 중국식"}]},{"lat":"37.122516971","long":"127.41929871","items":[{"name":"삼보자동차정비","tel":"031-677-7518","addr":"경기도 안성시 일죽면 방초리 901-2번지","category":"자동차정비 유지 - 자동차정비"},{"name":"삼원써모가드(주)","tel":"031-671-8960","addr":"경기도 안성시 일죽면 방초리 901-2번지 1동","category":"전기제품 - 냉열기기"}]},{"lat":"37.121982121","long":"127.42021847","items":[{"name":"삼보주유소","tel":"031-671-8770","addr":"경기도 안성시 일죽면 방초리 866번지","category":"연료판매점 - GS주유소"}]},{"lat":"37.122127473","long":"127.4198817","items":[{"name":"삼보휴게소식당","tel":"031-676-4846","addr":"경기도 안성시 일죽면 방초리 906-4번지 1층","category":"일반휴게음식 - 일반한식"},{"name":"씨유안성삼보점","tel":"031-898-6568","addr":"경기도 안성시 일죽면 방초리 906-4번지 1층","category":"유통업 영리 - 편 의 점"}]},{"lat":"37.12715225","long":"127.42329642","items":[{"name":"서광공업(주)","tel":"031-709-1430","addr":"경기도 안성시 일죽면 방초리 896-2번지","category":"용역 서비스 - 기타용역서비스"}]},{"lat":"37.133979789","long":"127.43399174","items":[{"name":"성지종합가스","tel":"031-984-9758","addr":"경기도 안성시 일죽면 방초리 127번지","category":"연료판매점 - LPG 취급점"},{"name":"엘지종합가스","tel":"031-984-9758","addr":"경기도 안성시 일죽면 방초리 127","category":"연료판매점 - LPG 취급점"}]},{"lat":"37.138177632","long":"127.43673918","items":[{"name":"세븐일레븐안성방초리점","tel":"","addr":"경기도 안성시 일죽면 방초리 70-2번지","category":"유통업 영리 - 편 의 점"},{"name":"신갈미반계탕열무국수","tel":"031-674-8889","addr":"경기도 안성시 일죽면 방초리 70-2번지","category":"일반휴게음식 - 일반한식"}]},{"lat":"37.130288533","long":"127.43563631","items":[{"name":"세븐일레븐안성방초세화","tel":"","addr":"경기도 안성시 일죽면 방초리 175번지","category":"유통업 영리 - 편 의 점"}]},{"lat":"37.113680015","long":"127.43130015","items":[{"name":"수정식당","tel":"031-672-1955","addr":"경기도 안성시 일죽면 방초리 642-1번지","category":"일반휴게음식 - 일반한식"}]},{"lat":"37.115040675","long":"127.4287763","items":[{"name":"시선광고","tel":"031-671-0102","addr":"경기도 안성시 일죽면 방초리 526","category":"용역 서비스 - 종합용역"}]},{"lat":"37.138591525","long":"127.4368991","items":[{"name":"신갈미추어탕 생선국수","tel":"031-674-8889","addr":"경기도 안성시 일죽면 방초리 71-1번지 가동 1층","category":"일반휴게음식 - 일반한식"}]},{"lat":"37.113677495","long":"127.42949998","items":[{"name":"신안종합농자재마트","tel":"031-677-1587","addr":"경기도 안성시 일죽면 방초리 364","category":"농업 - 농기계"}]},{"lat":"37.124038514","long":"127.42474203","items":[{"name":"옛마당","tel":"031-673-8847","addr":"경기도 안성시 일죽면 방초리 884-8번지","category":"일반휴게음식 - 일반한식"}]},{"lat":"37.114072853","long":"127.42980598","items":[{"name":"오방식당","tel":"031-676-6025","addr":"경기도 안성시 일죽면 방초리 637-3번지","category":"일반휴게음식 - 일반한식"}]},{"lat":"37.119954468","long":"127.43291078","items":[{"name":"옹기나라 두번째이야기","tel":"031-674-2170","addr":"경기도 안성시 일죽면 방초리 465-1번지","category":"일반휴게음식 - 일반한식"}]},{"lat":"37.131178861","long":"127.43610278","items":[{"name":"은석슈퍼","tel":"031-111-1111","addr":"경기도 안성시 일죽면 방초리 177번지","category":"유통업 영리 - 슈퍼마켓"}]},{"lat":"37.117932983","long":"127.43377697","items":[{"name":"조은푸드(주)","tel":"031-672-6509","addr":"경기도 안성시 일죽면 방초리 496-1","category":"음료식품 - 농·축·수산품"}]},{"lat":"37.123293416","long":"127.42141842","items":[{"name":"주식회사 태호텍","tel":"031-673-4210","addr":"경기도 안성시 일죽면 방초리 869번지","category":"유통업 영리 - 기타유통업"}]},{"lat":"37.118259003","long":"127.41558484","items":[{"name":"죽산목재","tel":"031-674-0663","addr":"경기도 안성시 일죽면 방초리 971-4번지 C동","category":"건축자재 - 목재·석재·철물"}]},{"lat":"37.112509858","long":"127.43096729","items":[{"name":"짜장나드리","tel":"031-676-1228","addr":"경기도 안성시 일죽면 방초리 646-6번지","category":"일반휴게음식 - 중국식"}]},{"lat":"37.146229759","long":"127.43760684","items":[{"name":"청자연가든","tel":"031-671-2009","addr":"경기도 안성시 일죽면 방초리 3-1번지","category":"일반휴게음식 - 일반한식"}]},{"lat":"37.122123206","long":"127.42363993","items":[{"name":"케이원무인텔","tel":"","addr":"경기도 안성시 일죽면 방초리 856-1번지 외7필지","category":"숙박업 - 여관/기타숙박업"}]},{"lat":"37.123455816","long":"127.41879749","items":[{"name":"콩사랑두부마을","tel":"031-671-9130","addr":"경기도 안성시 일죽면 방초리 900-8번지 1층","category":"일반휴게음식 - 일반한식"}]},{"lat":"37.136069279","long":"127.43671588","items":[{"name":"팔삼이(832)","tel":"","addr":"경기도 안성시 일죽면 방초리 83-2번지","category":"음료식품 - 기타음료식품"}]}]