[{"lat":"37.623047356","long":"126.80629478","imageIndex":8,"items":[{"name":"(주)가온메디텍","tel":"031-938-2230","addr":"경기도 고양시 덕양구 토당동 665-11번지","indutype":"약국 - 제약회사","category":"medical"}]},{"lat":"37.620493496","long":"126.82057354","imageIndex":8,"items":[{"name":"경희유원한약국","tel":"031-979-6160","addr":"경기도 고양시 덕양구 토당동 444-1번지","indutype":"약국 - 약국","category":"medical"},{"name":"연세사랑꽃소아과","tel":"031-979-9717","addr":"경기도 고양시 덕양구 토당동 444-1번지","indutype":"의원 - 의원","category":"medical"},{"name":"작은친구 동물병원","tel":"031-970-9204","addr":"경기도 고양시 덕양구 토당동 444-1번지","indutype":"기타의료기관 - 동물병원","category":"medical"},{"name":"정성치과의원","tel":"031-974-2806","addr":"경기도 고양시 덕양구 토당동 444-1번지","indutype":"의원 - 치과의원","category":"medical"}]},{"lat":"37.625497303","long":"126.81698174","imageIndex":8,"items":[{"name":"능곡맑은성모의원","tel":"031-972-7775","addr":"경기도 고양시 덕양구 토당동 282-23번지","indutype":"의원 - 의원","category":"medical"},{"name":"능곡명치과의원","tel":"031-970-2828","addr":"경기도 고양시 덕양구 토당동 282-23번지","indutype":"의원 - 치과의원","category":"medical"},{"name":"미래온누리약국","tel":"","addr":"경기도 고양시 덕양구 토당동 282-23번지","indutype":"약국 - 약국","category":"medical"},{"name":"박내과의원","tel":"031-972-2111","addr":"경기도 고양시 덕양구 토당동 282-23번지","indutype":"의원 - 의원","category":"medical"},{"name":"영재약국","tel":"031-970-4577","addr":"경기도 고양시 덕양구 토당동 282-23번지","indutype":"약국 - 약국","category":"medical"}]},{"lat":"37.61974303","long":"126.82473234","imageIndex":8,"items":[{"name":"능곡서울치과","tel":"031-972-2875","addr":"경기도 고양시 덕양구 토당동 882번지","indutype":"의원 - 치과의원","category":"medical"},{"name":"능곡성모의원","tel":"031-974-8268","addr":"경기도 고양시 덕양구 토당동 882번지","indutype":"의원 - 의원","category":"medical"},{"name":"유명약국","tel":"031-972-9871","addr":"경기도 고양시 덕양구 토당동 882번지","indutype":"약국 - 약국","category":"medical"},{"name":"토당한의원","tel":"031-973-3001","addr":"경기도 고양시 덕양구 토당동 882번지","indutype":"의원 - 한의원","category":"medical"}]},{"lat":"37.626054293","long":"126.82173805","imageIndex":8,"items":[{"name":"능곡예인의원","tel":"031-971-5464","addr":"경기도 고양시 덕양구 토당동 837-7번지","indutype":"의원 - 의원","category":"medical"},{"name":"능곡종로약국","tel":"031-979-4503","addr":"경기도 고양시 덕양구 토당동 837-7번지","indutype":"약국 - 약국","category":"medical"}]},{"lat":"37.626471232","long":"126.82336826","imageIndex":8,"items":[{"name":"능곡의원","tel":"031-972-1112","addr":"경기도 고양시 덕양구 토당동 840-3번지","indutype":"병원 - 병원","category":"medical"},{"name":"주행한의원","tel":"031-971-5288","addr":"경기도 고양시 덕양구 토당동 840-3번지","indutype":"의원 - 한의원","category":"medical"}]},{"lat":"37.626021814","long":"126.82407167","imageIndex":8,"items":[{"name":"능곡치과의원","tel":"031-971-2233","addr":"경기도 고양시 덕양구 토당동 845번지","indutype":"의원 - 치과의원","category":"medical"}]},{"lat":"37.62113194","long":"126.81976775","imageIndex":8,"items":[{"name":"능곡한의원","tel":"031-974-3212","addr":"경기도 고양시 덕양구 토당동 340-6번지","indutype":"의원 - 한의원","category":"medical"},{"name":"서우약국","tel":"031-972-8764","addr":"경기도 고양시 덕양구 토당동 340-6번지","indutype":"약국 - 약국","category":"medical"}]},{"lat":"37.622024023","long":"126.81984486","imageIndex":8,"items":[{"name":"닥터서울 양한방의원","tel":"031-819-9900","addr":"경기도 고양시 덕양구 토당동 342-7번지 한강능곡역성원상떼빌1단지","indutype":"의원 - 한의원","category":"medical"}]},{"lat":"37.620664365","long":"126.82036923","imageIndex":8,"items":[{"name":"닥터우신경외과의원","tel":"","addr":"경기도 고양시 덕양구 토당동 444-4번지","indutype":"의원 - 의원","category":"medical"},{"name":"미약국","tel":"031-971-2033","addr":"경기도 고양시 덕양구 토당동 444-4번지","indutype":"약국 - 약국","category":"medical"},{"name":"장윤치과","tel":"031-979-2700","addr":"경기도 고양시 덕양구 토당동 444-4번지","indutype":"의원 - 치과의원","category":"medical"}]},{"lat":"37.62527206","long":"126.8169823","imageIndex":8,"items":[{"name":"동양당한의원","tel":"031-970-1075","addr":"경기도 고양시 덕양구 토당동","indutype":"의원 - 한의원","category":"medical"}]},{"lat":"37.62818844","long":"126.82098521","imageIndex":8,"items":[{"name":"드림팜","tel":"031-979-5949","addr":"경기도 고양시 덕양구 토당동 831-1번지","indutype":"약국 - 제약회사","category":"medical"}]},{"lat":"37.620354146","long":"126.82371145","imageIndex":8,"items":[{"name":"메디팜글라라약국","tel":"031-972-1247","addr":"경기도 고양시 덕양구 토당동 863-2번지","indutype":"약국 - 약국","category":"medical"}]},{"lat":"37.620358386","long":"126.82059652","imageIndex":8,"items":[{"name":"사랑약국","tel":"031-970-0072","addr":"경기도 고양시 덕양구 토당동","indutype":"약국 - 약국","category":"medical"}]},{"lat":"37.626084039","long":"126.82351646","imageIndex":8,"items":[{"name":"새능곡메디슨약국","tel":"031-979-0930","addr":"경기도 고양시 덕양구 토당동 841-16번지 대광주택","indutype":"약국 - 약국","category":"medical"}]},{"lat":"37.620663593","long":"126.81987085","imageIndex":8,"items":[{"name":"아림약국","tel":"031-974-7634","addr":"경기도 고양시 덕양구 토당동 339-4번지","indutype":"약국 - 약국","category":"medical"}]},{"lat":"37.626382049","long":"126.81812366","imageIndex":8,"items":[{"name":"약손약국","tel":"031-974-1678","addr":"경기도 고양시 덕양구 토당동","indutype":"약국 - 약국","category":"medical"}]},{"lat":"37.619888771","long":"126.8257854","imageIndex":8,"items":[{"name":"인우약품","tel":"031-938-2390","addr":"경기도 고양시 덕양구 토당동 877-8번지","indutype":"약국 - 제약회사","category":"medical"}]},{"lat":"37.620247625","long":"126.82476512","imageIndex":8,"items":[{"name":"조은치과의원","tel":"031-979-7528","addr":"경기도 고양시 덕양구 토당동 877-13번지","indutype":"의원 - 치과의원","category":"medical"},{"name":"호랑이한의원","tel":"031-971-9995","addr":"경기도 고양시 덕양구 토당동 877-13번지","indutype":"의원 - 한의원","category":"medical"}]}]