[{"lat":"37.294105831","long":"127.44270799","items":[{"name":"(주)에스엔솔루션","tel":"031-8021-0607","addr":"경기도 이천시 송정동 106-1번지","category":"자동차정비 유지 - 자동차부품"},{"name":"꿈인","tel":"070-7672-2000","addr":"경기도 이천시 송정동 106-1번지","category":"일반휴게음식 - 서양음식"}]},{"lat":"37.301543833","long":"127.44146549","items":[{"name":"AK우드","tel":"031-636-0526","addr":"경기도 이천시 송정동 168-21번지 1동","category":"건축자재 - 목재·석재·철물"},{"name":"비알(BR)컴퍼니","tel":"031-631-3053","addr":"경기도 이천시 송정동 168-21번지 1층","category":"수리서비스 - 기타수리서비스"}]},{"lat":"37.295465039","long":"127.43326491","items":[{"name":"EDIYA(이디야)","tel":"031-634-2010","addr":"경기도 이천시 송정동 314번지 1층 101,102호","category":"일반휴게음식 - 서양음식"},{"name":"바이더웨이천송정점","tel":"031-637-8930","addr":"경기도 이천시 송정동 314-13ANI프라자105","category":"유통업 영리 - 편 의 점"},{"name":"송정마스터클럽학원","tel":"031-631-8115","addr":"경기도 이천시 송정동 314번지 202호","category":"학원 - 보습학원"},{"name":"스터디존독서실","tel":"031-631-1106","addr":"경기도 이천시 송정동 314번지 203호~205호","category":"학원 - 독서실"},{"name":"신통치킨","tel":"031-632-0992","addr":"경기도 이천시 송정동 314번지 1층 106호","category":"일반휴게음식 - 스넥"},{"name":"형제막창","tel":"031-638-2584","addr":"경기도 이천시 송정동 314번지 109호","category":"일반휴게음식 - 일반한식"}]},{"lat":"37.295658289","long":"127.43463066","items":[{"name":"E편한치과의원","tel":"031-631-2831","addr":"경기도 이천시 송정동 315번지","category":"의원 - 치과의원"},{"name":"머리치장","tel":"031-638-7804","addr":"경기도 이천시 송정동 315번지 1층","category":"보건위생 - 미용원"},{"name":"모던네일","tel":"031-637-9400","addr":"경기도 이천시 송정동 315번지 송정프라자1층 송정가정의학과","category":"보건위생 - 피부미용실"},{"name":"송정온누리약국","tel":"031-631-2855","addr":"경기도 이천시 송정동 315번지","category":"약국 - 약국"},{"name":"송정한빛의원","tel":"031-633-4377","addr":"경기도 이천시 송정동 315번지","category":"의원 - 의원"},{"name":"이편한치과","tel":"031-631-2831","addr":"경기도 이천시 송정동 315번지 106호","category":"의원 - 치과의원"},{"name":"혜담미술학원","tel":"031-634-5036","addr":"경기도 이천시 송정동 315번지 송정프라자","category":"회원제형태 - 학원"}]},{"lat":"37.295433245","long":"127.43457298","items":[{"name":"GM유통","tel":"031-631-0138","addr":"경기도 이천시 송정동 374번지","category":"음료식품 - 농·축·수산품"},{"name":"농심과일","tel":"031-632-0886","addr":"경기도 이천시 송정동 374번지","category":"음료식품 - 농·축·수산품"},{"name":"모드니","tel":"","addr":"경기도 이천시 송정동 374번지","category":"일반휴게음식 - 서양음식"}]},{"lat":"37.301994875","long":"127.44132149","items":[{"name":"GOLD M MOTORS","tel":"031-637-1172","addr":"경기도 이천시 송정동 168-10번지 168-10,168-5","category":"자동차정비 유지 - 자동차정비"}]},{"lat":"37.294960069","long":"127.43337482","items":[{"name":"GS25송정제일점","tel":"","addr":"경기도 이천시 송정동 375-9번지 101호 102호","category":"유통업 영리 - 편 의 점"},{"name":"메디홈즈의원","tel":"031-631-5191","addr":"경기도 이천시 송정동 375-9번지 102호","category":"의원 - 의원"},{"name":"뮤엠영어송정달님교습소","tel":"031-633-8505","addr":"경기도 이천시 송정동 375-9번지 금정프라자 201호","category":"회원제형태 - 학원"},{"name":"봉구스밥버거","tel":"031-635-0010","addr":"경기도 이천시 송정동 375-9번지 1동 B층 105호","category":"일반휴게음식 - 스넥"},{"name":"비비큐(송정점)","tel":"031-637-7292","addr":"경기도 이천시 송정동 375-9번지 금정프라자 B103호","category":"일반휴게음식 - 일반한식"},{"name":"뿌리 깊은 수학교습소","tel":"031-636-5709","addr":"경기도 이천시 송정동 375-9번지 201호","category":"학원 - 보습학원"},{"name":"샘이 깊은 영어","tel":"070-7796-3622","addr":"경기도 이천시 송정동 375-9번지 201호","category":"학원 - 보습학원"},{"name":"서울음악학원","tel":"031-636-6131","addr":"경기도 이천시 송정동 375-9번지 202호","category":"학원 - 예·체능계학원"},{"name":"송정우리약국","tel":"031-634-0173","addr":"경기도 이천시 송정동 375-9번지","category":"약국 - 약국"},{"name":"전봇대곱창","tel":"031-637-4207","addr":"경기도 이천시 송정동 375-9번지 금정프라자 1동 B105호","category":"일반휴게음식 - 일반한식"},{"name":"크리닝월드","tel":"031-632-6959","addr":"경기도 이천시 송정동 375-9번지","category":"수리서비스 - 세탁소"}]},{"lat":"37.297384868","long":"127.43801274","items":[{"name":"GS25이천송정점","tel":"","addr":"경기도 이천시 송정동 328번지 거장프라자 가동 103호","category":"유통업 영리 - 편 의 점"},{"name":"베스티안어학원","tel":"031-638-1322","addr":"경기도 이천시 송정동 328번지 거장프라자 2층 201호 202호","category":"회원제형태 - 학원"},{"name":"비어가리식당","tel":"031-631-9667","addr":"경기도 이천시 송정동 328번지 거장프라자","category":"일반휴게음식 - 일반한식"},{"name":"수니와순이의즉석김밥","tel":"031-637-3804","addr":"경기도 이천시 송정동 328번지 거장프라자 가동 106호","category":"일반휴게음식 - 스넥"},{"name":"옛날시장통닭","tel":"031-633-8295","addr":"경기도 이천시 송정동 328번지 거장프라자 107호","category":"일반휴게음식 - 일반한식"},{"name":"이화전기철물공구","tel":"031-632-1800","addr":"경기도 이천시 송정동 328번지 거장프라자 1동 107호","category":"건축자재 - 기타건축자재"},{"name":"티나헤어","tel":"031-635-2002","addr":"경기도 이천시 송정동 328번지 거장프라자 가동 101호~102호 1층","category":"보건위생 - 미용원"},{"name":"파리바게트(송정점)","tel":"031-631-0546","addr":"경기도 이천시 송정동 328번지 거장프라자상가 가동 105호","category":"음료식품 - 제과점"},{"name":"홍춘천치즈닭갈비","tel":"031-631-3824","addr":"경기도 이천시 송정동 328번지 가동 101호,102호","category":"일반휴게음식 - 일반한식"}]},{"lat":"37.295132776","long":"127.43295852","items":[{"name":"JUN합기도마샬아츠종합무술체육관","tel":"031-637-1983","addr":"경기도 이천시 송정동 314-4번지 2층 201호 , 태인상가","category":"학원 - 예·체능계학원"},{"name":"다같이올래","tel":"031-638-3518","addr":"경기도 이천시 송정동 314-4번지 1층 109호","category":"일반휴게음식 - 일반한식"},{"name":"돈키돈키","tel":"031-631-9585","addr":"경기도 이천시 송정동 314-4번지","category":"일반휴게음식 - 일반한식"},{"name":"뚜레쥬르 이천송정(3)","tel":"031-632-0095","addr":"경기도 이천시 송정동 314-4번지 태인프라자 101호","category":"음료식품 - 제과점"},{"name":"송정문구","tel":"031-633-5565","addr":"경기도 이천시 송정동 314-4번지 108호","category":"서적문구 - 문구용품"},{"name":"송정정육","tel":"031-634-8565","addr":"경기도 이천시 송정동 314-4번지","category":"음료식품 - 정육점"},{"name":"송정정육점식당","tel":"031-634-8565","addr":"경기도 이천시 송정동 314-4번지 102호","category":"일반휴게음식 - 일반한식"},{"name":"아이스콘 나라","tel":"031-636-8828","addr":"경기도 이천시 송정동 314-4번지 105호","category":"음료식품 - 기타음료식품"},{"name":"엔젤문구마켓","tel":"031-637-8185","addr":"경기도 이천시 송정동 314-4번지 104호","category":"서적문구 - 문구용품"},{"name":"이삭토스트","tel":"031-633-2492","addr":"경기도 이천시 송정동 314-4번지 106호","category":"일반휴게음식 - 서양음식"},{"name":"커피 앤(COFFEE N)","tel":"070-8800-3251","addr":"경기도 이천시 송정동 314-4번지 107호","category":"일반휴게음식 - 서양음식"},{"name":"하늘사이미술교습소","tel":"031-635-6009","addr":"경기도 이천시 송정동 314-4번지 202호","category":"학원 - 예·체능계학원"}]},{"lat":"37.293024399","long":"127.44518277","items":[{"name":"KCC중부총판","tel":"031-631-0993","addr":"경기도 이천시 송정동 91-1번지 1층 103호","category":"건축자재 - 페인트"}]},{"lat":"37.296770092","long":"127.43365581","items":[{"name":"LG에어컨","tel":"031-638-2371","addr":"경기도 이천시 송정동 446번지 송정동동양파라곤 105동 1802호","category":"회원제형태 - 기타1"},{"name":"오네스또","tel":"031-1599-4779","addr":"경기도 이천시 송정동 446번지 송정동동양파라곤 105동 202호","category":"학원 - 예·체능계학원"}]},{"lat":"37.290882759","long":"127.44443721","items":[{"name":"THE H","tel":"031-637-1120","addr":"경기도 이천시 송정동 82-7번지 201호","category":"보건위생 - 미용원"},{"name":"아리솔밭스크린골프","tel":"031-634-6165","addr":"경기도 이천시 송정동 82-7번지","category":"레져용품 - 골프용품 전문점"},{"name":"에스모터스","tel":"","addr":"경기도 이천시 송정동 82-7번지","category":"자동차정비 유지 - 자동차부품"},{"name":"이천맛집바다향왕코다리","tel":"031-632-2640","addr":"경기도 이천시 송정동 82-7번지 1층","category":"일반휴게음식 - 일반한식"},{"name":"칸타빌당구장","tel":"070-4045-0444","addr":"경기도 이천시 송정동 82-7번지 2층","category":"레저업소 - 당 구 장"},{"name":"홍익돈까스","tel":"031-634-6165","addr":"경기도 이천시 송정동 82-7번지","category":"일반휴게음식 - 서양음식"},{"name":"화덕고깃간(이천점)","tel":"031-633-7767","addr":"경기도 이천시 송정동 82-7번지","category":"일반휴게음식 - 일반한식"}]},{"lat":"37.29393664","long":"127.43482382","items":[{"name":"The 이쁨","tel":"031-0000-0000","addr":"경기도 이천시 송정동 375-7번지 드림캐슬 103동 103호","category":"보건위생 - 미용원"}]},{"lat":"37.295574142","long":"127.43299486","items":[{"name":"가마치통닭 (이천송정점)","tel":"02-1111-1111","addr":"경기도 이천시 송정동 314-7번지","category":"일반휴게음식 - 일반한식"},{"name":"베스트클래스153보습학원","tel":"031-633-3056","addr":"경기도 이천시 송정동 314-7번지 2층 201호","category":"학원 - 보습학원"}]},{"lat":"37.296574714","long":"127.43534642","items":[{"name":"가시나","tel":"","addr":"경기도 이천시 송정동 317-2번지 103호","category":"의류 - 정장"},{"name":"꽃이핀다","tel":"031-633-1004","addr":"경기도 이천시 송정동 317-2번지 105호","category":"일반휴게음식 - 일반한식"},{"name":"도너리감자탕(이천점)","tel":"031-637-9291","addr":"경기도 이천시 송정동 317-2번지","category":"일반휴게음식 - 일반한식"},{"name":"마실","tel":"031-000-0000","addr":"경기도 이천시 송정동 317-2번지 1층 106호","category":"의류 - 정장"},{"name":"소유스킨플레이스","tel":"031-631-5970","addr":"경기도 이천시 송정동 317-2번지 1층 106호","category":"보건위생 - 화장품"},{"name":"위너수학교습소","tel":"031-635-1304","addr":"경기도 이천시 송정동 317-2번지 104호","category":"학원 - 보습학원"},{"name":"홍선생미술","tel":"031-631-3931","addr":"경기도 이천시 송정동 317-2번지 103호","category":"회원제형태 - 서적"}]},{"lat":"37.290467879","long":"127.44454756","items":[{"name":"가장맛있는족발","tel":"031-633-4849","addr":"경기도 이천시 송정동 82번지","category":"일반휴게음식 - 일반한식"},{"name":"아지트","tel":"031-635-2000","addr":"경기도 이천시 송정동 82번지","category":"일반휴게음식 - 서양음식"},{"name":"원 트레이닝 센터","tel":"","addr":"경기도 이천시 송정동 82번지 2층 202호","category":"레저업소 - 헬스클럽"},{"name":"제이앰비 카페아지트","tel":"031-635-2000","addr":"경기도 이천시 송정동 82번지","category":"일반휴게음식 - 서양음식"}]},{"lat":"37.295546743","long":"127.43309621","items":[{"name":"감탄","tel":"031-636-0099","addr":"경기도 이천시 송정동 314-13번지 에이앤아이스튜디오103호","category":"일반휴게음식 - 스넥"}]},{"lat":"37.299603425","long":"127.44716122","items":[{"name":"건국푸드","tel":"031-634-2849","addr":"경기도 이천시 송정동 27-3번지","category":"음료식품 - 기타음료식품"}]},{"lat":"37.296295487","long":"127.43532227","items":[{"name":"고기아울렛","tel":"001-0000-0000","addr":"경기도 이천시 송정동 317-4번지 중앙프라자 105,106","category":"음료식품 - 정육점"},{"name":"길손보리밥","tel":"031-637-6339","addr":"경기도 이천시 송정동 317-4번지 중앙프라자 103호","category":"일반휴게음식 - 일반한식"},{"name":"라이온PC","tel":"","addr":"경기도 이천시 송정동 317-4번지","category":"레저업소 - 기타레져업소"},{"name":"송정떡마루","tel":"031-635-7783","addr":"경기도 이천시 송정동 317-4번지 중앙프라자","category":"음료식품 - 제과점"},{"name":"송정푸른솔한의원","tel":"031-631-8902","addr":"경기도 이천시 송정동 317-4번지 중앙프라자 2층 1호","category":"의원 - 한의원"},{"name":"와우노래연습장","tel":"031-638-8977","addr":"경기도 이천시 송정동 317-4번지 중앙프라자 지하1층","category":"레저업소 - 노 래 방"},{"name":"큰손횟집","tel":"031-631-7687","addr":"경기도 이천시 송정동 317-4번지 중앙프라자 107호","category":"일반휴게음식 - 일반한식"}]},{"lat":"37.297209984","long":"127.4390155","items":[{"name":"공간쟁이","tel":"031-631-0248","addr":"경기도 이천시 송정동 343번지 송정치과 1층 103호","category":"직물 - 카페트,커튼,천막,지물"},{"name":"신대박","tel":"031-638-6399","addr":"경기도 이천시 송정동 343번지 송정치과 B동 103호","category":"일반휴게음식 - 일반한식"},{"name":"안암교육주식회사","tel":"031-631-0984","addr":"경기도 이천시 송정동 343번지 송정치과 202호","category":"학원 - 보습학원"},{"name":"에스엘치과의원","tel":"031-635-7528","addr":"경기도 이천시 송정동 343번지 송정치과 102호","category":"의원 - 치과의원"},{"name":"오백국수","tel":"031-634-8140","addr":"경기도 이천시 송정동 343번지 송정치과 B102호","category":"일반휴게음식 - 일반한식"},{"name":"치킨마루 송정점","tel":"031-632-9292","addr":"경기도 이천시 송정동 343번지 송정치과 102호","category":"일반휴게음식 - 스넥"}]},{"lat":"37.294242405","long":"127.44232533","items":[{"name":"공화춘","tel":"031-635-2288","addr":"경기도 이천시 송정동 106-7번지","category":"일반휴게음식 - 중국식"}]},{"lat":"37.293018924","long":"127.44423542","items":[{"name":"과일농장","tel":"","addr":"경기도 이천시 송정동 98-3번지","category":"음료식품 - 농·축·수산품"}]},{"lat":"37.297046765","long":"127.43929652","items":[{"name":"구이구이","tel":"031-637-7005","addr":"경기도 이천시 송정동 340-8번지","category":"일반휴게음식 - 일반한식"}]},{"lat":"37.294298973","long":"127.43429583","items":[{"name":"굽기의신","tel":"031-633-9298","addr":"경기도 이천시 송정동 375-37번지","category":"일반휴게음식 - 일반한식"},{"name":"더수학교습소","tel":"070-8944-1124","addr":"경기도 이천시 송정동 375-37번지 102호","category":"학원 - 보습학원"},{"name":"드림실용음악학원","tel":"031-632-1331","addr":"경기도 이천시 송정동 375-37번지 201호","category":"회원제형태 - 학원"},{"name":"보은인테리어","tel":"031-637-1661","addr":"경기도 이천시 송정동 375-37번지 103호","category":"건축자재 - 인테리어전문"},{"name":"업고 (UP GO)영어교습소","tel":"02-1577-0000","addr":"경기도 이천시 송정동 375-37번지 102호","category":"학원 - 외국어학원"},{"name":"이(e)해법수학송정교습소","tel":"031-635-6797","addr":"경기도 이천시 송정동 375-37번지","category":"회원제형태 - 학원"},{"name":"클랑음악학원","tel":"031-635-2342","addr":"경기도 이천시 송정동 375-37번지 (202호동)","category":"학원 - 예·체능계학원"}]},{"lat":"37.298380861","long":"127.44640965","items":[{"name":"그린수도설비/누수탐지","tel":"031-636-0153","addr":"경기도 이천시 송정동 49번지","category":"건축자재 - 인테리어전문"}]},{"lat":"37.293877562","long":"127.44351866","items":[{"name":"그린인테리어","tel":"031-638-5858","addr":"경기도 이천시 송정동 100-14번지 101호","category":"건축자재 - 인테리어전문"},{"name":"더네일은","tel":"070-4036-2729","addr":"경기도 이천시 송정동 100-14번지 1층","category":"보건위생 - 피부미용실"},{"name":"아리 플라워","tel":"031-632-7827","addr":"경기도 이천시 송정동 100-14번지","category":"문화.취미 - 화원"},{"name":"아리플라워","tel":"031-632-7827","addr":"경기도 이천시 송정동 100-14번지","category":"문화.취미 - 화원"},{"name":"에버푸드","tel":"070-4407-5736","addr":"경기도 이천시 송정동 100-14번지 1층 104호","category":"음료식품 - 농·축·수산품"}]},{"lat":"37.29746297","long":"127.43882523","items":[{"name":"김가네송정점","tel":"031-637-7714","addr":"경기도 이천시 송정동 342번지 1층","category":"일반휴게음식 - 일반한식"},{"name":"세원종합상사","tel":"031-636-1388","addr":"경기도 이천시 송정동 342번지 세종빌딩 1층 108호","category":"기타 - 기계공구"},{"name":"에쿠스노래연습장","tel":"031-636-2001","addr":"경기도 이천시 송정동 342번지","category":"레저업소 - 노 래 방"},{"name":"크린토피아","tel":"031-635-9361","addr":"경기도 이천시 송정동 342 세종빌딩1","category":"수리서비스 - 세탁소"}]},{"lat":"37.296326533","long":"127.4366871","items":[{"name":"꼬꼬불닭발","tel":"031-633-9289","addr":"경기도 이천시 송정동 428-1번지 제상가동제1층 104호","category":"일반휴게음식 - 주점"},{"name":"박소연의커피공방","tel":"031-634-8690","addr":"경기도 이천시 송정동 428-1번지 수림1차아파트 302호","category":"음료식품 - 기타음료식품"}]},{"lat":"37.293906983","long":"127.44287599","items":[{"name":"나고야","tel":"031-635-7832","addr":"경기도 이천시 송정동 103-2번지","category":"일반휴게음식 - 일반한식"},{"name":"홍두깨해물손칼국수","tel":"031-636-4421","addr":"경기도 이천시 송정동 103-2번지","category":"일반휴게음식 - 일반한식"}]},{"lat":"37.29593882","long":"127.44648554","items":[{"name":"나무향기","tel":"","addr":"경기도 이천시 송정동 115-52번지 1동 1층","category":"일반휴게음식 - 서양음식"}]},{"lat":"37.294603561","long":"127.43230138","items":[{"name":"난나어린이집","tel":"031-637-2636","addr":"경기도 이천시 송정동 314-9번지","category":"학원 - 유아원"},{"name":"난나어린이집[아이행복]","tel":"031-637-2636","addr":"경기도 이천시 송정동 314-9번지","category":"학원 - 유아원"},{"name":"자연어린이집","tel":"031-637-2636","addr":"경기도 이천시 송정동 314-9번지 자연어린이집","category":"기타 - 비영리/비대상"},{"name":"자연유치원","tel":"031-637-2636","addr":"경기도 이천시 송정동 314-9번지","category":"학원 - 유치원"},{"name":"자연유치원[아이행복]","tel":"031-637-2636","addr":"경기도 이천시 송정동 314-9번지","category":"학원 - 유치원"},{"name":"자연음악교습소","tel":"031-633-8835","addr":"경기도 이천시 송정동 314-9번지","category":"학원 - 예·체능계학원"}]},{"lat":"37.300043558","long":"127.43782504","items":[{"name":"남촌칼국수","tel":"031-635-0991","addr":"경기도 이천시 송정동 193번지","category":"일반휴게음식 - 일반한식"},{"name":"송정관","tel":"031-634-6625","addr":"경기도 이천시 송정동 193외1필지","category":"일반휴게음식 - 일반한식"},{"name":"우륵","tel":"031-634-6625","addr":"경기도 이천시 송정동 193번지","category":"음료식품 - 정육점"},{"name":"이삭자수","tel":"031-632-0397","addr":"경기도 이천시 송정동 193 가-103","category":"직물 - 침구·수예점"},{"name":"황금복권마트","tel":"031-632-3949","addr":"경기도 이천시 송정동 193트윈스빌딩나동3번째","category":"기타 - 기타 전문점"}]},{"lat":"37.29507805","long":"127.44051444","items":[{"name":"네일미","tel":"031-635-2229","addr":"경기도 이천시 송정동 346-32번지 103호","category":"보건위생 - 피부미용실"},{"name":"아리골","tel":"031-633-3733","addr":"경기도 이천시 송정동 346-32번지 아리메디컬타운 지층 101호","category":"일반휴게음식 - 일반한식"},{"name":"준디자인","tel":"031-632-0420","addr":"경기도 이천시 송정동 346-32번지 아리메디컬타운 101호 102호","category":"건축자재 - 인테리어전문"},{"name":"카멘즈","tel":"02-521-1269","addr":"경기도 이천시 송정동 346-32번지 아리메디컬타운 지층 104호","category":"자동차정비 유지 - 카인테리어"}]},{"lat":"37.298656982","long":"127.44485484","items":[{"name":"능안말 남스네","tel":"031-635-3483","addr":"경기도 이천시 송정동 135-1번지","category":"음료식품 - 농·축·수산품"}]},{"lat":"37.296266846","long":"127.43329204","items":[{"name":"다빈치교육","tel":"031-694-5524","addr":"경기도 이천시 송정동 446번지 송정동동양파라곤 130동 601호","category":"회원제형태 - 서적"}]},{"lat":"37.296436267","long":"127.43129677","items":[{"name":"달용이마켓","tel":"031-732-3362","addr":"경기도 이천시 송정동 306번지 이천송정동신일아파트","category":"의류 - 정장"}]},{"lat":"37.295996833","long":"127.43321155","items":[{"name":"대경코리아","tel":"031-631-6847","addr":"경기도 이천시 송정동 446번지 송정동동양파라곤 102동 702호","category":"신변잡화 - 기타잡화"}]},{"lat":"37.298131369","long":"127.43837795","items":[{"name":"대구왕뽈찜(송정점)","tel":"031-631-3038","addr":"경기도 이천시 송정동 332-4번지","category":"일반휴게음식 - 일반한식"},{"name":"손짜장명가","tel":"031-634-9088","addr":"경기도 이천시 송정동 332-4번지","category":"일반휴게음식 - 중국식"},{"name":"이천치킨호프","tel":"031-635-2399","addr":"경기도 이천시 송정동 332-4번지","category":"일반휴게음식 - 주점"},{"name":"케이엠(KM)발레아카데미","tel":"031-635-2750","addr":"경기도 이천시 송정동 332-4번지 201,202호","category":"학원 - 예·체능계학원"}]},{"lat":"37.296188067","long":"127.43512992","items":[{"name":"대구전봇대막창","tel":"031-631-7006","addr":"경기도 이천시 송정동 316번지 제일상가 101호","category":"일반휴게음식 - 일반한식"},{"name":"대지 당구장","tel":"031-636-3340","addr":"경기도 이천시 송정동 316번지 201호","category":"레저업소 - 당 구 장"},{"name":"바른치킨 이천송정점","tel":"031-633-9587","addr":"경기도 이천시 송정동 316번지 제일상가 1층 102호","category":"일반휴게음식 - 스넥"},{"name":"안경천국","tel":"031-631-9808","addr":"경기도 이천시 송정동 316번지 1층 104호 외2필지","category":"보건위생 - 안경"},{"name":"유정반찬","tel":"031-631-8492","addr":"경기도 이천시 송정동 316번지 외2필지재일상가 103호","category":"음료식품 - 기타음료식품"},{"name":"토킹스타송정어학원","tel":"031-638-9909","addr":"경기도 이천시 송정동 316번지 3층","category":"학원 - 외국어학원"},{"name":"피자스쿨(송정점)","tel":"031-635-2999","addr":"경기도 이천시 송정동 316번지 재일상가 101동2호외2필지","category":"일반휴게음식 - 서양음식"}]},{"lat":"37.29357173","long":"127.44579498","items":[{"name":"대한사무용가구","tel":"031-638-6644","addr":"경기도 이천시 송정동 90-5번지","category":"가구 - 일반가구"}]},{"lat":"37.295882757","long":"127.43484623","items":[{"name":"더스페셜 태권도장","tel":"031-634-6363","addr":"경기도 이천시 송정동 315-1번지 1동 301,302호","category":"학원 - 예·체능계학원"},{"name":"베네통","tel":"031-634-4456","addr":"경기도 이천시 송정동 315-1번지 1동 202호","category":"일반휴게음식 - 주점"},{"name":"술이술술","tel":"031-635-2000","addr":"경기도 이천시 송정동 315-1번지 1동 104호","category":"일반휴게음식 - 일반한식"},{"name":"오동환휘트니스헬스클럽","tel":"031-638-6874","addr":"경기도 이천시 송정동 315-1번지","category":"회원제형태 - 레져업소"},{"name":"이선미음악학원","tel":"031-631-1009","addr":"경기도 이천시 송정동 315-1번지 송정빌딩 2층 201호","category":"학원 - 예·체능계학원"},{"name":"일조","tel":"031-634-6266","addr":"경기도 이천시 송정동 315-1 1-102","category":"일반휴게음식 - 일반한식"},{"name":"주.막끌리네","tel":"031-638-2950","addr":"경기도 이천시 송정동 315-1번지 1동 105호","category":"일반휴게음식 - 주점"}]},{"lat":"37.300382078","long":"127.43887591","items":[{"name":"도깨비밥상/(주)여행버스 이천지점","tel":"031-635-4483","addr":"경기도 이천시 송정동 182-9번지","category":"일반휴게음식 - 일반한식"},{"name":"주식회사 여행버스 이천지점","tel":"031-635-9300","addr":"경기도 이천시 송정동 182-9번지","category":"레저업소 - 기타레져업소"}]},{"lat":"37.297766357","long":"127.43962775","items":[{"name":"독도볼태기","tel":"031-633-6888","addr":"경기도 이천시 송정동 340-1번지","category":"일반휴게음식 - 일반한식"},{"name":"배드민턴과좋은친구들","tel":"070-8172-5541","addr":"경기도 이천시 송정동 340-1번지","category":"레져용품 - 스포츠·레져용품"},{"name":"송정OK스크린골프","tel":"031-636-0972","addr":"경기도 이천시 송정동 340-1번지","category":"회원제형태 - 레져업소"}]},{"lat":"37.294911858","long":"127.43424294","items":[{"name":"돈치킨","tel":"031-635-9245","addr":"경기도 이천시 송정동 375-54번지","category":"일반휴게음식 - 스넥"},{"name":"몬스터디독서실","tel":"031-637-3729","addr":"경기도 이천시 송정동 375-54번지 4,5층","category":"학원 - 독서실"},{"name":"삼서영어수학여우송정학원","tel":"031-635-7779","addr":"경기도 이천시 송정동 375-54번지 2층","category":"학원 - 보습학원"},{"name":"요가플레이","tel":"","addr":"경기도 이천시 송정동 375-54번지 601호","category":"레저업소 - 헬스클럽"},{"name":"이루미독서스쿨학원","tel":"031-637-3381","addr":"경기도 이천시 송정동 375-54번지 3층","category":"학원 - 보습학원"},{"name":"허브통신","tel":"031-634-7060","addr":"경기도 이천시 송정동 375-54번지","category":"사무통신 - 통신기기"}]},{"lat":"37.296490709","long":"127.44587976","items":[{"name":"동부윤활유","tel":"031-632-7965","addr":"경기도 이천시 송정동 115-3번지","category":"자동차정비 유지 - 자동차부품"}]},{"lat":"37.302297805","long":"127.45184659","items":[{"name":"동신농자재판넬","tel":"031-633-0284","addr":"경기도 이천시 송정동 441-1번지","category":"건축자재 - 기타건축자재"}]},{"lat":"37.29471105","long":"127.44229423","items":[{"name":"드림전기조명","tel":"031-638-6895","addr":"경기도 이천시 송정동 107-29번지","category":"건축자재 - 조명기구"},{"name":"일등 로또  편의점","tel":"031-637-1710","addr":"경기도 이천시 송정동 107-29번지 1층","category":"음료식품 - 기타음료식품"}]},{"lat":"37.29482258","long":"127.43401687","items":[{"name":"라스짐","tel":"031-635-1301","addr":"경기도 이천시 송정동 375-40번지 대용빌딩","category":"레저업소 - 헬스클럽"},{"name":"목이당한의원","tel":"031-634-7977","addr":"경기도 이천시 송정동 375-40번지 대용빌딩 1층","category":"의원 - 한의원"},{"name":"송암태권도체육관","tel":"031-634-0330","addr":"경기도 이천시 송정동 375-40번지 대용빌딩 송암태권도체육관","category":"학원 - 예·체능계학원"},{"name":"애플영어학원","tel":"031-635-1301","addr":"경기도 이천시 송정동 375-40번지 대용빌딩 103호","category":"학원 - 외국어학원"},{"name":"파라팜미용실","tel":"031-631-4254","addr":"경기도 이천시 송정동 375-40대용빌딩비1층101호","category":"보건위생 - 미용원"}]},{"lat":"37.300799035","long":"127.43574281","items":[{"name":"라온 함바식당","tel":"031-632-6253","addr":"경기도 이천시 송정동 204-1번지","category":"일반휴게음식 - 일반한식"}]},{"lat":"37.294989108","long":"127.43282236","items":[{"name":"라임음악학원","tel":"031-631-7866","addr":"경기도 이천시 송정동 314-6번지 PHC빌딩 2층 201호,202호","category":"학원 - 예·체능계학원"},{"name":"리틀팡팡","tel":"031-637-2232","addr":"경기도 이천시 송정동 314-6번지 평산빌딩 203동 204호","category":"레저업소 - 기타레져업소"},{"name":"말렌미술학원","tel":"031-633-1341","addr":"경기도 이천시 송정동 314-6번지 301호","category":"학원 - 예·체능계학원"},{"name":"생각키움학원","tel":"031-631-7442","addr":"경기도 이천시 송정동 314-6번지 평산빌딩 304-2호","category":"학원 - 보습학원"},{"name":"서일영어학원","tel":"031-635-2955","addr":"경기도 이천시 송정동 314-6번지 6층 602호","category":"학원 - 외국어학원"},{"name":"슈리아요가","tel":"070-8884-3787","addr":"경기도 이천시 송정동 314-6번지 103,104호","category":"레저업소 - 헬스클럽"},{"name":"시온유소년스포츠센터","tel":"031-635-8561","addr":"경기도 이천시 송정동 314-6번지","category":"레저업소 - 기타레져업소"},{"name":"에이.씨.엘.미술학원","tel":"031-635-0192","addr":"경기도 이천시 송정동 314-6번지 3층","category":"학원 - 예·체능계학원"},{"name":"윤선생영어숲 이천송정학원","tel":"031-631-5303","addr":"경기도 이천시 송정동 314-6번지 3층","category":"학원 - 보습학원"},{"name":"이지핏(EZ-FIT)","tel":"031-638-5657","addr":"경기도 이천시 송정동 314-6번지 504호","category":"건강식품 - 기타건강식품"},{"name":"한국체대석사 라온태권도장","tel":"031-631-2827","addr":"경기도 이천시 송정동 314-6번지 4층","category":"학원 - 예·체능계학원"}]},{"lat":"37.292968568","long":"127.44565611","items":[{"name":"런우드","tel":"","addr":"경기도 이천시 송정동 90-21번지","category":"건축자재 - 기타건축자재"}]},{"lat":"37.294437733","long":"127.44310464","items":[{"name":"루마썬팅","tel":"031-631-1769","addr":"경기도 이천시 송정동 108-2번지","category":"자동차정비 유지 - 자동차정비"}]},{"lat":"37.29268757","long":"127.44610557","items":[{"name":"류재열의 명품코다리찜","tel":"031-635-4015","addr":"경기도 이천시 송정동 72-4번지","category":"일반휴게음식 - 일반한식"}]},{"lat":"37.293744656","long":"127.44048416","items":[{"name":"리틀킹어린이집[아이행복]","tel":"031-631-7881","addr":"경기도 이천시 송정동 106-38번지","category":"학원 - 유아원"}]},{"lat":"37.294461358","long":"127.43424037","items":[{"name":"린나이 이천 서비스","tel":"","addr":"경기도 이천시 송정동 375-53번지 나동 602호","category":"수리서비스 - 가정용품수리"}]},{"lat":"37.294878446","long":"127.43352096","items":[{"name":"모닝글로리송정점","tel":"031-638-0708","addr":"경기도 이천시 송정동 375-39번지 하나빌딩 지하 2호","category":"서적문구 - 문구용품"},{"name":"송정이엠(EM)보습학원","tel":"031-636-0113","addr":"경기도 이천시 송정동 375-39번지 2층","category":"학원 - 보습학원"},{"name":"지우헤어샵","tel":"031-631-4555","addr":"경기도 이천시 송정동 375-39번지 지하3층","category":"보건위생 - 미용원"},{"name":"피자마루(송정점)","tel":"031-633-1084","addr":"경기도 이천시 송정동 375-39번지 제지하비 1층","category":"일반휴게음식 - 서양음식"}]},{"lat":"37.296850374","long":"127.43879914","items":[{"name":"몽돌해물탕","tel":"031-631-3033","addr":"경기도 이천시 송정동 429-1번지","category":"일반휴게음식 - 일반한식"},{"name":"비쥬헤어샵","tel":"031-631-9520","addr":"경기도 이천시 송정동 429-1수림2차임대@제상가동2층201,202호","category":"보건위생 - 미용원"}]},{"lat":"37.303462332","long":"127.43429177","items":[{"name":"미니스톱이천사음점","tel":"031-1577-9621","addr":"경기도 이천시 송정동 217-3번지","category":"유통업 영리 - 편 의 점"},{"name":"이천전기","tel":"031-632-1973","addr":"경기도 이천시 송정동 217-3번지 2동 1층","category":"전기제품 - 기타전기제품"}]},{"lat":"37.297545253","long":"127.44818672","items":[{"name":"미정이네","tel":"031-635-6920","addr":"경기도 이천시 송정동 55-7번지","category":"음료식품 - 농·축·수산품"}]},{"lat":"37.294105639","long":"127.44032836","items":[{"name":"번지농장돌판아구찜","tel":"031-631-4545","addr":"경기도 이천시 송정동 106-36번지","category":"일반휴게음식 - 일반한식"}]},{"lat":"37.296911698","long":"127.43927318","items":[{"name":"베스트 클래스 153음악 교습소","tel":"031-633-3053","addr":"경기도 이천시 송정동 344-5번지 2층 202호","category":"학원 - 예·체능계학원"},{"name":"송정황토대중탕","tel":"031-634-8524","addr":"경기도 이천시 송정동 344-5번지","category":"보건위생 - 사우나"},{"name":"아리토종순대국","tel":"031-631-8352","addr":"경기도 이천시 송정동 344-5번지","category":"일반휴게음식 - 일반한식"}]},{"lat":"37.294135531","long":"127.44441111","items":[{"name":"봉평메밀/봉평메밀특산단지영농조합법인(","tel":"031-632-9938","addr":"경기도 이천시 송정동 100-10번지","category":"일반휴게음식 - 일반한식"}]},{"lat":"37.294683308","long":"127.44248579","items":[{"name":"부광인테리어","tel":"031-632-1204","addr":"경기도 이천시 송정동 107-28번지 1층","category":"직물 - 카페트,커튼,천막,지물"}]},{"lat":"37.293935563","long":"127.44245888","items":[{"name":"부부세차장","tel":"031-694-8007","addr":"경기도 이천시 송정동 106-48번지","category":"자동차정비 유지 - 세차장"},{"name":"삼보종합철물건재","tel":"031-636-7458","addr":"경기도 이천시 송정동 106-48번지 1층","category":"기타 - 기계공구"},{"name":"아리카공업사","tel":"031-633-9129","addr":"경기도 이천시 송정동 106-48번지","category":"자동차정비 유지 - 자동차정비"}]},{"lat":"37.291631639","long":"127.44415965","items":[{"name":"뷰라인드(Beaulind)","tel":"","addr":"경기도 이천시 송정동 84-12번지 1층 뷰라인드","category":"가구 - 기타가구"}]},{"lat":"37.298627831","long":"127.43813269","items":[{"name":"산내들마을","tel":"031-638-5225","addr":"경기도 이천시 송정동 332번지","category":"일반휴게음식 - 일반한식"},{"name":"홈가덕","tel":"031-638-5995","addr":"경기도 이천시 송정동 332번지","category":"일반휴게음식 - 중국식"}]},{"lat":"37.298044489","long":"127.44720844","items":[{"name":"산들어린이집","tel":"031-633-9723","addr":"경기도 이천시 송정동 52-3번지","category":"학원 - 유치원"},{"name":"산들어린이집[아이행복]","tel":"031-633-9723","addr":"경기도 이천시 송정동 52-3번지","category":"학원 - 유아원"}]},{"lat":"37.293827946","long":"127.44232292","items":[{"name":"삼보목재나라","tel":"031-636-7458","addr":"경기도 이천시 송정동 105-9번지,106-48일부","category":"건축자재 - 기타건축자재"}]},{"lat":"37.294710318","long":"127.4449107","items":[{"name":"새롬어린이집[아이행복]","tel":"031-634-7070","addr":"경기도 이천시 송정동 102-17번지","category":"학원 - 유아원"}]},{"lat":"37.293408203","long":"127.44374147","items":[{"name":"샤브향","tel":"031-636-7747","addr":"경기도 이천시 송정동 100-11번지","category":"일반휴게음식 - 일반한식"}]},{"lat":"37.302129292","long":"127.4366302","items":[{"name":"서원조경","tel":"031-632-9449","addr":"경기도 이천시 송정동 209-13","category":"건축자재 - 인테리어전문"},{"name":"송정주차장(화물)","tel":"031-635-4518","addr":"경기도 이천시 송정동 209-13번지","category":"자동차정비 유지 - 주차장"}]},{"lat":"37.291826783","long":"127.43768752","items":[{"name":"선차이나(SUN CHINA)","tel":"031-631-9285","addr":"경기도 이천시 송정동 357-4번지 1층 103호","category":"일반휴게음식 - 중국식"}]},{"lat":"37.295385223","long":"127.44029066","items":[{"name":"손진관세무회계사무소","tel":"031-638-9601","addr":"경기도 이천시 송정동 346-30번지 2층","category":"용역 서비스 - 법률회계서비스(개인)"},{"name":"장어도소매총판","tel":"031-634-8592","addr":"경기도 이천시 송정동 346-30번지 103호","category":"음료식품 - 농·축·수산품"},{"name":"화로불민물장어 송정점","tel":"031-634-8592","addr":"경기도 이천시 송정동 346-30번지 1층","category":"일반휴게음식 - 일반한식"}]},{"lat":"37.302356301","long":"127.43860533","items":[{"name":"솔플라워","tel":"031-637-9879","addr":"경기도 이천시 송정동 179-15 솔플라워","category":"문화.취미 - 화원"}]},{"lat":"37.301883917","long":"127.43965155","items":[{"name":"송정가스텍","tel":"031-638-5000","addr":"경기도 이천시 송정동 172-1번지 1층","category":"연료판매점 - LPG 취급점"}]},{"lat":"37.301848792","long":"127.43940321","items":[{"name":"송정보리밥","tel":"031-631-7666","addr":"경기도 이천시 송정동 172-5번지","category":"일반휴게음식 - 일반한식"},{"name":"씨유이천송정교차로점","tel":"080-080-3663","addr":"경기도 이천시 송정동 172-5번지 1층","category":"유통업 영리 - 편 의 점"},{"name":"정함세무회계사무소","tel":"031-632-2497","addr":"경기도 이천시 송정동 172-5번지 2층","category":"용역 서비스 - 법률회계서비스(개인)"}]},{"lat":"37.304656556","long":"127.4304636","items":[{"name":"송정셀프 세차타운","tel":"031-633-6230","addr":"경기도 이천시 송정동 234-1번지","category":"자동차정비 유지 - 세차장"}]},{"lat":"37.302019967","long":"127.43201645","items":[{"name":"송정영양집","tel":"031-637-3558","addr":"경기도 이천시 송정동 257번지","category":"일반휴게음식 - 일반한식"}]},{"lat":"37.296269857","long":"127.43493866","items":[{"name":"송정위슬런채움수학교습소","tel":"","addr":"경기도 이천시 송정동 315-5번지","category":"학원 - 보습학원"}]},{"lat":"37.300682976","long":"127.43790767","items":[{"name":"송정자동차공업사","tel":"031-631-3347","addr":"경기도 이천시 송정동 192-3번지","category":"자동차정비 유지 - 자동차정비"}]},{"lat":"37.298293756","long":"127.43832249","items":[{"name":"송정철물건재","tel":"031-634-2425","addr":"경기도 이천시 송정동 332-5번지","category":"건축자재 - 목재·석재·철물"}]},{"lat":"37.301933511","long":"127.43349351","items":[{"name":"송정추어국수","tel":"031-633-8691","addr":"경기도 이천시 송정동 259-5번지","category":"일반휴게음식 - 일반한식"}]},{"lat":"37.294574224","long":"127.44274455","items":[{"name":"스타분양전문","tel":"031-1877-5588","addr":"경기도 이천시 송정동 107-12번지 2층","category":"건축자재 - 부동산 분양"}]},{"lat":"37.292605889","long":"127.44626297","items":[{"name":"신새한공업사","tel":"031-635-2886","addr":"경기도 이천시 송정동 89-7번지","category":"자동차정비 유지 - 자동차정비"}]},{"lat":"37.293127623","long":"127.44649159","items":[{"name":"신진상사","tel":"031-635-1161","addr":"경기도 이천시 송정동 72-11번지","category":"기타 - 기계공구"}]},{"lat":"37.297689963","long":"127.43835285","items":[{"name":"씨유이천동양점","tel":"080-080-3663","addr":"경기도 이천시 송정동 329-4번지 1층 101호, 102호","category":"유통업 영리 - 편 의 점"},{"name":"죽이야기 이천송정점","tel":"031-635-6233","addr":"경기도 이천시 송정동 329-4번지 1층","category":"일반휴게음식 - 일반한식"}]},{"lat":"37.295404673","long":"127.43252022","items":[{"name":"씨유이천신일점","tel":"080-080-3663","addr":"경기도 이천시 송정동 306-5번지 상가동 1층 101,102,105,106호","category":"유통업 영리 - 편 의 점"}]},{"lat":"37.294965013","long":"127.43449136","items":[{"name":"아리당구클럽","tel":"031-635-1301","addr":"경기도 이천시 송정동 375-63번지 2층","category":"레저업소 - 당 구 장"},{"name":"정직한 푸드","tel":"031-637-0503","addr":"경기도 이천시 송정동 375-63번지 1동 1층 비101호","category":"음료식품 - 정육점"},{"name":"투다리(송정점)","tel":"031-632-7880","addr":"경기도 이천시 송정동 375-63번지 1동 1층","category":"일반휴게음식 - 주점"}]},{"lat":"37.292710481","long":"127.4447975","items":[{"name":"아리묵밥집","tel":"031-634-6674","addr":"경기도 이천시 송정동 92-1번지","category":"일반휴게음식 - 일반한식"}]},{"lat":"37.29952322","long":"127.43227296","items":[{"name":"아이뜰어린이집[아이행복]","tel":"031-637-0306","addr":"경기도 이천시 송정동 270-7번지 아이뜰어린이집","category":"학원 - 유아원"}]},{"lat":"37.288410992","long":"127.44523471","items":[{"name":"아이어린이집[아이행복]","tel":"031-633-1306","addr":"경기도 이천시 송정동 74-20번지","category":"학원 - 유아원"}]},{"lat":"37.288657755","long":"127.44430016","items":[{"name":"아이유치원[아이행복]","tel":"031-633-1306","addr":"경기도 이천시 송정동 78-4번지","category":"학원 - 유치원"}]},{"lat":"37.303798202","long":"127.43112422","items":[{"name":"약초이야기","tel":"031-634-0007","addr":"경기도 이천시 송정동 230-3번지","category":"건강식품 - 기타건강식품"}]},{"lat":"37.297048103","long":"127.4462101","items":[{"name":"엘림쇼파","tel":"031-635-6497","addr":"경기도 이천시 송정동 60-5번지","category":"수리서비스 - 가정용품수리"}]},{"lat":"37.29054699","long":"127.44507805","items":[{"name":"연촌염소탕","tel":"031-631-8292","addr":"경기도 이천시 송정동 80-30번지","category":"일반휴게음식 - 일반한식"}]},{"lat":"37.291830279","long":"127.44404804","items":[{"name":"예광몬테소리어린이집[아이행복]","tel":"031-635-4171","addr":"경기도 이천시 송정동 87번지","category":"학원 - 유아원"}]},{"lat":"37.295468462","long":"127.43479874","items":[{"name":"예스송정영어학원","tel":"031-636-0910","addr":"경기도 이천시 송정동 374번지 ,2.3층","category":"학원 - 외국어학원"}]},{"lat":"37.292215353","long":"127.44468183","items":[{"name":"오리먹음돼지","tel":"031-694-5252","addr":"경기도 이천시 송정동 90-17번지","category":"일반휴게음식 - 일반한식"}]},{"lat":"37.301909697","long":"127.43999007","items":[{"name":"원복요리전문점","tel":"031-632-3797","addr":"경기도 이천시 송정동 172-10번지","category":"일반휴게음식 - 일반한식"}]},{"lat":"37.293405723","long":"127.44440684","items":[{"name":"이동우스시","tel":"031-634-3634","addr":"경기도 이천시 송정동 98-16번지 1동 1층","category":"일반휴게음식 - 일식·회집"}]},{"lat":"37.295607886","long":"127.43362662","items":[{"name":"이천 도배","tel":"031-634-6213","addr":"경기도 이천시 송정동 446번지 송정동동양파라곤 103동 601호","category":"직물 - 카페트,커튼,천막,지물"}]},{"lat":"37.293437954","long":"127.43320826","items":[{"name":"이천송정중학교","tel":"031-631-8300","addr":"경기도 이천시 송정동 375-31번지 송정중학교","category":"학원 - 초중고교육기관"},{"name":"이천송정중학교_수업료","tel":"031-631-8300","addr":"경기도 이천시 송정동 375-31번지 송정중학교","category":"학원 - 초중고교육기관"}]},{"lat":"37.294266669","long":"127.43326936","items":[{"name":"이천송정초등학교","tel":"","addr":"경기도 이천시 송정동 375-23번지 송정초등학교","category":"학원 - 초중고교육기관"},{"name":"이천송정초등학교병설유치원[아이행복]","tel":"031-631-8436","addr":"경기도 이천시 송정동 375-23번지 외2필지 송정초등학교","category":"학원 - 유치원"}]},{"lat":"37.29649099","long":"127.44096248","items":[{"name":"이천유치원[아이행복]","tel":"031-633-1565","addr":"경기도 이천시 송정동 107-82","category":"학원 - 유치원"}]},{"lat":"37.294519578","long":"127.44290212","items":[{"name":"이천컴퓨터랜드","tel":"031-631-8247","addr":"경기도 이천시 송정동 107-11번지","category":"사무통신 - 컴퓨터"},{"name":"잉크에버","tel":"031-637-2848","addr":"경기도 이천시 송정동 107-11번지 1층","category":"사무통신 - 컴퓨터"},{"name":"특별한날엔꾸밈","tel":"031-638-9716","addr":"경기도 이천시 송정동 107-11번지","category":"보건위생 - 미용원"}]},{"lat":"37.302632031","long":"127.43712936","items":[{"name":"자연농원","tel":"031-634-1960","addr":"경기도 이천시 송정동 397-4번지","category":"문화.취미 - 화원"}]},{"lat":"37.301988386","long":"127.44306969","items":[{"name":"정상산업","tel":"031-633-4765","addr":"경기도 이천시 송정동 167-14번지","category":"기타 - 기계공구"}]},{"lat":"37.301906135","long":"127.4385125","items":[{"name":"조은농산물판매장","tel":"031-653-3509","addr":"경기도 이천시 송정동 179-2","category":"음료식품 - 농·축·수산품"}]},{"lat":"37.294520308","long":"127.44512386","items":[{"name":"주안부엌가구인조대리석","tel":"031-638-9841","addr":"경기도 이천시 송정동 100-3번지","category":"주방용구 - 주방용구"}]},{"lat":"37.292469387","long":"127.44662306","items":[{"name":"중화요리 왕서방","tel":"031-635-1282","addr":"경기도 이천시 송정동 73-10번지","category":"일반휴게음식 - 중국식"}]},{"lat":"37.298269018","long":"127.4474015","items":[{"name":"진공 냉 난방","tel":"","addr":"경기도 이천시 송정동 52-1번지","category":"용역 서비스 - 기타용역서비스"}]},{"lat":"37.297523171","long":"127.43960378","items":[{"name":"진암밧데리","tel":"031-643-5151","addr":"경기도 이천시 송정동 340-2번지","category":"자동차정비 유지 - 자동차정비"}]},{"lat":"37.292434284","long":"127.44396134","items":[{"name":"짬뽕의 천국","tel":"031-634-7376","addr":"경기도 이천시 송정동 86-4번지","category":"일반휴게음식 - 중국식"}]},{"lat":"37.292495084","long":"127.44457069","items":[{"name":"채움바스","tel":"031-631-6705","addr":"경기도 이천시 송정동 93-1번지","category":"건축자재 - 건축용 요업제품"}]},{"lat":"37.294856632","long":"127.44191162","items":[{"name":"취향","tel":"031-111-1111","addr":"경기도 이천시 송정동 107-32번지","category":"일반휴게음식 - 중국식"}]},{"lat":"37.297356179","long":"127.43846371","items":[{"name":"커피 아뜰리에","tel":"031-634-8670","addr":"경기도 이천시 송정동 327-2번지 1층","category":"일반휴게음식 - 서양음식"}]},{"lat":"37.292718775","long":"127.44498927","items":[{"name":"컨트리공예","tel":"031-631-8003","addr":"경기도 이천시 송정동 91-5번지","category":"가구 - 일반가구"}]},{"lat":"37.291774243","long":"127.44457775","items":[{"name":"평창송정약수송어회집","tel":"031-638-3861","addr":"경기도 이천시 송정동 90-27번지 1층","category":"일반휴게음식 - 일식·회집"},{"name":"평창약수송어장","tel":"031-633-0654","addr":"경기도 이천시 송정동 90-27번지","category":"일반휴게음식 - 일식·회집"}]},{"lat":"37.302265952","long":"127.45074106","items":[{"name":"하이스크린골프","tel":"031-634-7460","addr":"경기도 이천시 송정동 438번지","category":"레저업소 - 스크린골프"}]},{"lat":"37.302023032","long":"127.44101712","items":[{"name":"한내농원","tel":"031-635-3486","addr":"경기도 이천시 송정동 168-3","category":"음료식품 - 농·축·수산품"}]},{"lat":"37.297215624","long":"127.43992908","items":[{"name":"한양본참숯돼지갈비","tel":"031-632-5776","addr":"경기도 이천시 송정동 340-3번지","category":"일반휴게음식 - 일반한식"}]},{"lat":"37.296292276","long":"127.43373203","items":[{"name":"행복한공예세상","tel":"031-635-7311","addr":"경기도 이천시 송정동 446번지 송정동동양파라곤 104동 701호","category":"회원제형태 - 기타4"}]},{"lat":"37.295687557","long":"127.4413751","items":[{"name":"헤어아트","tel":"031-000-0000","addr":"경기도 이천시 송정동 107-48번지 풍산아파트 1층","category":"보건위생 - 미용원"}]},{"lat":"37.287906517","long":"127.4452092","items":[{"name":"현진세탁소","tel":"031-631-0164","addr":"경기도 이천시 송정동 445번지 현진에버빌 상가 103호","category":"수리서비스 - 세탁소"}]},{"lat":"37.288167554","long":"127.44527839","items":[{"name":"현진유통","tel":"031-636-3213","addr":"경기도 이천시 송정동 445번지 현진에버빌1차아파트 101-306 송정동","category":"회원제형태 - 기타4"}]}]