[{"lat":"37.181328401","long":"127.05225074","items":[{"name":"(주)마봉 삼화주유소","tel":"031-376-5101","addr":"경기도 오산시 내삼미동 573-1번지","category":"연료판매점 - 쌍용S-OIL"},{"name":"버거킹 오산세교에스오일점/(주)비케이알","tel":"070-7462-6732","addr":"경기도 오산시 내삼미동 573-1번지 삼화주유소(SK) 3동 1층","category":"일반휴게음식 - 서양음식"},{"name":"삼화기사식당","tel":"031-372-9103","addr":"경기도 오산시 내삼미동 573-1번지","category":"일반휴게음식 - 일반한식"},{"name":"삼화부분정비공업사","tel":"031-373-5387","addr":"경기도 오산시 내삼미동 573-1번지","category":"자동차정비 유지 - 자동차정비"},{"name":"삼화주유소","tel":"031-374-6059","addr":"경기도 오산시 내삼미동 573-1번지","category":"연료판매점 - 주유소"}]},{"lat":"37.178803347","long":"127.05713626","items":[{"name":"(주)신화푸드 우설화 오산세교점 신화푸드","tel":"031-378-5763","addr":"경기도 오산시 내삼미동 484-1번지 2층","category":"일반휴게음식 - 일반한식"},{"name":"블루가든세교점","tel":"031-378-5283","addr":"경기도 오산시 내삼미동 484-1번지 2층","category":"일반휴게음식 - 서양음식"},{"name":"좋은날들","tel":"031-378-9444","addr":"경기도 오산시 내삼미동 484-1,495-1","category":"일반휴게음식 - 스넥"},{"name":"천지연세교점 (주식회사 신화푸드)","tel":"031-378-5282","addr":"경기도 오산시 내삼미동 484-1번지 1층","category":"일반휴게음식 - 일반한식"}]},{"lat":"37.178001645","long":"127.05664022","items":[{"name":"(주)웰룩스","tel":"031-689-3997","addr":"경기도 오산시 내삼미동 466-5번지 2층","category":"건축자재 - 조명기구"},{"name":"감성 플라워","tel":"031-376-1866","addr":"경기도 오산시 내삼미동 466-5번지","category":"문화.취미 - 화원"},{"name":"갤러리희","tel":"031-373-8544","addr":"경기도 오산시 내삼미동 466-5번지","category":"가구 - 일반가구"},{"name":"배스당","tel":"031-377-6066","addr":"경기도 오산시 내삼미동 466-5번지 2층","category":"레져용품 - 스포츠·레져용품"},{"name":"삼천리자전거","tel":"031-736-4445","addr":"경기도 오산시 내삼미동 466-5번지","category":"레져용품 - 스포츠·레져용품"},{"name":"중고가전알뜰이","tel":"","addr":"경기도 오산시 내삼미동 466-5번지 1층","category":"전기제품 - 가전제품"}]},{"lat":"37.177523888","long":"127.0570903","items":[{"name":"1급이변자동차공업사","tel":"031-376-7113","addr":"경기도 오산시 내삼미동 493-7번지","category":"자동차정비 유지 - 자동차정비"},{"name":"이변자동차부품","tel":"031-378-2906","addr":"경기도 오산시 내삼미동 493-7번지 5층","category":"자동차정비 유지 - 자동차부품"},{"name":"주식회사에버","tel":"031-8003-8225","addr":"경기도 오산시 내삼미동 493-7번지","category":"여행 - 렌터카"}]},{"lat":"37.175225976","long":"127.05764041","items":[{"name":"7당구장","tel":"02-1661-6368","addr":"경기도 오산시 내삼미동 856-13번지 유진빌","category":"레저업소 - 당 구 장"}]},{"lat":"37.174694272","long":"127.05783145","items":[{"name":"88수산","tel":"031-377-1088","addr":"경기도 오산시 내삼미동 856-17번지 토인빌 102호","category":"일반휴게음식 - 일반한식"},{"name":"초밥집","tel":"031-377-6095","addr":"경기도 오산시 내삼미동 856-17번지 토인빌 102호","category":"일반휴게음식 - 일식·회집"},{"name":"협신오토","tel":"070-4023-2037","addr":"경기도 오산시 내삼미동 856-17번지 토인빌 406호","category":"자동차정비 유지 - 자동차부품"}]},{"lat":"37.173252367","long":"127.0583371","items":[{"name":"BHC(비에이치씨) 세교점","tel":"031-376-8555","addr":"경기도 오산시 내삼미동 861-8번지 1층3호상가","category":"일반휴게음식 - 일반한식"},{"name":"김밥천국수청점","tel":"031-376-3134","addr":"경기도 오산시 내삼미동 861-8번지 가동 1층","category":"일반휴게음식 - 일반한식"},{"name":"노란주전자","tel":"031-375-6692","addr":"경기도 오산시 내삼미동 861-8번지","category":"일반휴게음식 - 일반한식"}]},{"lat":"37.174302128","long":"127.06716577","items":[{"name":"ETIENNE개인과외","tel":"031-8043-1591","addr":"경기도 오산시 내삼미동 899번지 세교신도시호반베르디움 107동 603호","category":"학원 - 기타 교육기관"},{"name":"더레몬미술교습소","tel":"031-377-8854","addr":"경기도 오산시 내삼미동 899번지 세교신도시호반베르디움 상가 204호","category":"학원 - 예·체능계학원"},{"name":"더쇼팽 음악학원","tel":"031-223-5214","addr":"경기도 오산시 내삼미동 899번지 세교신도시호반베르디움 상가동 201-203호","category":"학원 - 예·체능계학원"},{"name":"더쇼팽음악학원","tel":"031-377-8852","addr":"경기도 오산시 내삼미동 899번지 호반베르디움상가 201호-203호","category":"학원 - 예·체능계학원"},{"name":"렛뷰티","tel":"","addr":"경기도 오산시 내삼미동 899번지 세교신도시호반베르디움 110동 20층 2호","category":"보건위생 - 화장품"},{"name":"반헤어","tel":"","addr":"경기도 오산시 내삼미동 899번지 세교신도시호반베르디움 203동 104호","category":"보건위생 - 미용원"},{"name":"보빈앤니들","tel":"","addr":"경기도 오산시 내삼미동 899번지 세교신도시호반베르디움 109동 1304호","category":"신변잡화 - 가방"},{"name":"상상디자인","tel":"032-567-4478","addr":"경기도 오산시 내삼미동 899번지 세교신도시호반베르디움 105동 1504호","category":"용역 서비스 - 종합용역"},{"name":"설미술교습소","tel":"031-377-8854","addr":"경기도 오산시 내삼미동 899번지 세교신도시호반베르디움 203동 204호","category":"학원 - 예·체능계학원"},{"name":"시립세교호반어린이집[아이행복]","tel":"031-378-9654","addr":"경기도 오산시 내삼미동 899번지 세교신도시호반베르디움 관리동","category":"학원 - 유아원"},{"name":"씨유오산세교호반점","tel":"080-080-3663","addr":"경기도 오산시 내삼미동 899번지 호반베르디움 상가동 01호","category":"유통업 영리 - 편 의 점"},{"name":"아이야어린이집[아이행복]","tel":"031-376-9826","addr":"경기도 오산시 내삼미동 899번지 세교신도시호반베르디움 103동 101호","category":"학원 - 유아원"},{"name":"아이키 유아체육","tel":"","addr":"경기도 오산시 내삼미동 899번지 세교신도시호반베르디움 103동 2002호","category":"학원 - 기타 교육기관"},{"name":"용인대세미태권도장","tel":"031-223-5214","addr":"경기도 오산시 내삼미동 899번지 세교신도시호반베르디움 상가동 2층","category":"학원 - 예·체능계학원"},{"name":"잉플영어","tel":"070-4065-3913","addr":"경기도 오산시 내삼미동 899번지 세교신도시호반베르디움 107동 2304호","category":"학원 - 기타 교육기관"},{"name":"제이엠디자인","tel":"031-378-6466","addr":"경기도 오산시 내삼미동 899번지 세교신도시호반베르디움 109동 604호","category":"건축자재 - 인테리어전문"},{"name":"해법 교습소","tel":"031-373-0508","addr":"경기도 오산시 내삼미동 899번지 세교신도시호반베르디움 110동 202호","category":"학원 - 기타 교육기관"},{"name":"호반위너스공부방","tel":"","addr":"경기도 오산시 내삼미동 899번지 세교신도시호반베르디움 103동 202호","category":"학원 - 기타 교육기관"}]},{"lat":"37.173224863","long":"127.05933922","items":[{"name":"GS25오산대역점","tel":"02-2006-2485","addr":"경기도 오산시 내삼미동 861-16번지 세교프라자 17동 101호","category":"유통업 영리 - 편 의 점"},{"name":"메카PC방","tel":"070-9206-5053","addr":"경기도 오산시 내삼미동 861-16번지 세교프라자 3층 301,302호","category":"레저업소 - 기타레져업소"},{"name":"몽키네일","tel":"031-373-2515","addr":"경기도 오산시 내삼미동 861-16번지 세교프라자 106호","category":"보건위생 - 피부미용실"},{"name":"물향기노래연습장","tel":"031-372-2684","addr":"경기도 오산시 내삼미동 861-16번지 세교프라자 201,202","category":"레저업소 - 노 래 방"},{"name":"윰헤어","tel":"031-377-2429","addr":"경기도 오산시 내삼미동 861-16번지 세교프라자 105호","category":"보건위생 - 미용원"}]},{"lat":"37.181833213","long":"127.05169927","items":[{"name":"LED 미","tel":"031-376-7732","addr":"경기도 오산시 내삼미동 573-30번지","category":"건축자재 - 조명기구"}]},{"lat":"37.179470694","long":"127.05586426","items":[{"name":"Midas자동차용품점","tel":"031-377-1117","addr":"경기도 오산시 내삼미동 535-2번지 2동","category":"자동차정비 유지 - 카인테리어"},{"name":"선미옥","tel":"031-378-9882","addr":"경기도 오산시 내삼미동 535-2번지 1동","category":"일반휴게음식 - 일반한식"},{"name":"좋은날들","tel":"031-373-3732","addr":"경기도 오산시 내삼미동 535-2번지","category":"신변잡화 - 기타잡화"},{"name":"주식회사원미디어","tel":"031-377-2254","addr":"경기도 오산시 내삼미동 535-2번지","category":"용역 서비스 - 종합용역"},{"name":"주식회사펫클럽/오산점","tel":"070-4675-2258","addr":"경기도 오산시 내삼미동 535-2","category":"문화.취미 - 애완동물"},{"name":"탑앤존 오산점","tel":"070-7529-8843","addr":"경기도 오산시 내삼미동 535-2번지 1동1층(좌)호 (2동 )","category":"자동차정비 유지 - 세차장"},{"name":"트윈비즈","tel":"","addr":"경기도 오산시 내삼미동 535-2번지 2동 2층","category":"레져용품 - 스포츠·레져용품"},{"name":"편의점사랑(내삼미동점)","tel":"031-378-5958","addr":"경기도 오산시 내삼미동 535-2번지 1동","category":"유통업 영리 - 편 의 점"}]},{"lat":"37.175969758","long":"127.06586099","items":[{"name":"NOS마트 세교점","tel":"031-372-8989","addr":"경기도 오산시 내삼미동 127-3번지 외3필지(127-13.126-3)","category":"유통업 영리 - 슈퍼마켓"}]},{"lat":"37.176028586","long":"127.05614337","items":[{"name":"adonai","tel":"070-7704-6415","addr":"경기도 오산시 내삼미동 850-3번지 천하빌딩 1층","category":"신변잡화 - 기타잡화"},{"name":"이레제이에스","tel":"031-377-3885","addr":"경기도 오산시 내삼미동 850-3번지 천하빌딩 1층","category":"용역 서비스 - 기타용역서비스"}]},{"lat":"37.174524166","long":"127.05542166","items":[{"name":"mini2mom","tel":"","addr":"경기도 오산시 내삼미동 883-2번지 1층 101호","category":"신변잡화 - 액세서리"},{"name":"아임유_혜닝(IMU_henning)","tel":"","addr":"경기도 오산시 내삼미동 883-2번지 1층 102호","category":"의류 - 정장"}]},{"lat":"37.177441993","long":"127.05881311","items":[{"name":"가미오리","tel":"031-374-5233","addr":"경기도 오산시 내삼미동 462-1번지","category":"일반휴게음식 - 일반한식"},{"name":"통큰낚시","tel":"031-378-2755","addr":"경기도 오산시 내삼미동 462-1번지","category":"레져용품 - 스포츠·레져용품"}]},{"lat":"37.173197901","long":"127.05919282","items":[{"name":"경아네곱창개맛있는꿀돼지(개꿀)","tel":"031-375-2562","addr":"경기도 오산시 내삼미동 861-15번지","category":"일반휴게음식 - 일반한식"}]},{"lat":"37.176639632","long":"127.05972461","items":[{"name":"고갯마루","tel":"031-373-2541","addr":"경기도 오산시 내삼미동 493-41번지 1층","category":"일반휴게음식 - 일반한식"}]},{"lat":"37.175586999","long":"127.05631196","items":[{"name":"골든벨에듀","tel":"031-223-2336","addr":"경기도 오산시 내삼미동 857-4번지 성운빌딩 2층","category":"서적문구 - 일반서적"},{"name":"바른교육","tel":"031-223-2336","addr":"경기도 오산시 내삼미동 857-4번지 성운빌딩","category":"서적문구 - 일반서적"}]},{"lat":"37.17455909","long":"127.05788765","items":[{"name":"공임나라","tel":"031-376-7790","addr":"경기도 오산시 내삼미동 856-18번지","category":"자동차정비 유지 - 자동차부품"},{"name":"아우디 팩토리 (Audi Factory)","tel":"","addr":"경기도 오산시 내삼미동 856-18번지","category":"자동차정비 유지 - 자동차부품"},{"name":"아우디 팩토리(Audi Factory)","tel":"","addr":"경기도 오산시 내삼미동 856-18번지","category":"자동차정비 유지 - 자동차부품"}]},{"lat":"37.175415309","long":"127.05739282","items":[{"name":"교촌치킨세마1호점","tel":"031-372-1994","addr":"경기도 오산시 내삼미동 856-8번지 프리지빌 1층 좌측 상가","category":"일반휴게음식 - 스넥"}]},{"lat":"37.175389032","long":"127.05572629","items":[{"name":"구인자한밥상","tel":"031-378-1696","addr":"경기도 오산시 내삼미동 857-11번지 1층","category":"일반휴게음식 - 일반한식"},{"name":"큰손 쭈꾸미","tel":"031-372-9369","addr":"경기도 오산시 내삼미동 857-11번지 1층","category":"일반휴게음식 - 일반한식"}]},{"lat":"37.176028672","long":"127.05595194","items":[{"name":"구전주식당","tel":"031-378-2307","addr":"경기도 오산시 내삼미동 850-2번지","category":"일반휴게음식 - 일반한식"}]},{"lat":"37.179776637","long":"127.05677661","items":[{"name":"국제전기상사","tel":"031-373-9501","addr":"경기도 오산시 내삼미동 499번지","category":"전기제품 - 기타전기제품"}]},{"lat":"37.179614408","long":"127.05686658","items":[{"name":"국제케이블주식회사","tel":"031-373-9501","addr":"경기도 오산시 내삼미동 498","category":"전기제품 - 기타전기제품"}]},{"lat":"37.180003552","long":"127.05300436","items":[{"name":"굿모닝카서비스","tel":"031-375-1996","addr":"경기도 오산시 내삼미동 568-5번지","category":"자동차정비 유지 - 자동차정비"}]},{"lat":"37.1754155","long":"127.05697619","items":[{"name":"그랜드마트D.C아울렛","tel":"031-375-7737","addr":"경기도 오산시 내삼미동 856-10번지","category":"유통업 영리 - 슈퍼마켓"}]},{"lat":"37.177361576","long":"127.05736044","items":[{"name":"금호자동차매매상사","tel":"031-372-3111","addr":"경기도 오산시 내삼미동 493-14번지","category":"자동차판매 - 중고자동차판매"},{"name":"다우자동차매매상사","tel":"031-377-2345","addr":"경기도 오산시 내삼미동 493-14번지","category":"자동차판매 - 중고자동차판매"},{"name":"오산중고차매매상사","tel":"031-375-1121","addr":"경기도 오산시 내삼미동 493-14번지","category":"자동차판매 - 중고자동차판매"},{"name":"오토빌리지(주)","tel":"031-378-9062","addr":"경기도 오산시 내삼미동 493-14번지 1호","category":"자동차판매 - 중고자동차판매"}]},{"lat":"37.173612328","long":"127.05930572","items":[{"name":"김상호옹기보쌈","tel":"031-372-5559","addr":"경기도 오산시 내삼미동 864-8번지","category":"일반휴게음식 - 일반한식"},{"name":"또래오래세교점","tel":"031-372-9033","addr":"경기도 오산시 내삼미동 864-8번지","category":"일반휴게음식 - 스넥"}]},{"lat":"37.177252673","long":"127.05902692","items":[{"name":"김영호0타이어","tel":"031-376-8002","addr":"경기도 오산시 내삼미동 462-17번지","category":"자동차정비 유지 - 자동차시트·타이어"}]},{"lat":"37.174000349","long":"127.05808993","items":[{"name":"까까보까","tel":"031-372-3275","addr":"경기도 오산시 내삼미동 861-3번지 1층","category":"보건위생 - 미용원"},{"name":"명품춘천닭갈비","tel":"031-375-5665","addr":"경기도 오산시 내삼미동 861-3번지 1층","category":"일반휴게음식 - 일반한식"},{"name":"무한삼겹110","tel":"031-373-6999","addr":"경기도 오산시 내삼미동 861-3번지 1층","category":"일반휴게음식 - 일반한식"},{"name":"오감자","tel":"031-374-6443","addr":"경기도 오산시 내삼미동 861-3번지 1층","category":"일반휴게음식 - 주점"}]},{"lat":"37.173360519","long":"127.05828088","items":[{"name":"꼬닭치킨호프","tel":"031-372-0047","addr":"경기도 오산시 내삼미동 861-20번지 B동 1층 1층","category":"일반휴게음식 - 스넥"}]},{"lat":"37.17428075","long":"127.05572552","items":[{"name":"남양우유 오산가정대리점","tel":"031-375-9160","addr":"경기도 오산시 내삼미동 859-11번지 행복주택 101호","category":"음료식품 - 기타음료식품"}]},{"lat":"37.181392056","long":"127.05083188","items":[{"name":"네비원오산점","tel":"031-378-9916","addr":"경기도 오산시 내삼미동 575번지","category":"수리서비스 - 기타수리서비스"},{"name":"두산오토컴","tel":"031-378-9616","addr":"경기도 오산시 내삼미동 575번지 1층","category":"전기제품 - 기타전기제품"},{"name":"서진낚시","tel":"031-372-3508","addr":"경기도 오산시 내삼미동 575번지","category":"레져용품 - 스포츠·레져용품"},{"name":"웅신아트기획","tel":"031-373-4481","addr":"경기도 오산시 내삼미동 575번지 1층","category":"건축자재 - 인테리어전문"}]},{"lat":"37.175830184","long":"127.05652608","items":[{"name":"네일샵 (Nail#)","tel":"","addr":"경기도 오산시 내삼미동 850-12번지 1층","category":"보건위생 - 피부미용실"}]},{"lat":"37.179524051","long":"127.0574183","items":[{"name":"뉴꿈의궁전","tel":"031-677-3115","addr":"경기도 오산시 내삼미동 429-1번지","category":"숙박업 - 여관/기타숙박업"}]},{"lat":"37.177501709","long":"127.06552444","items":[{"name":"뉴엠텍","tel":"031-372-9962","addr":"경기도 오산시 내삼미동 219-7번지 101동","category":"서적문구 - 출판 및 인쇄물"}]},{"lat":"37.176501564","long":"127.06550109","items":[{"name":"다온건축디자인","tel":"","addr":"경기도 오산시 내삼미동 125-1번지 1층","category":"건축자재 - 인테리어전문"}]},{"lat":"37.182083062","long":"127.05730752","items":[{"name":"다온산업","tel":"031-372-6555","addr":"경기도 오산시 내삼미동 508-3번지 전체 B동 1,2층","category":"기타 - 기계공구"}]},{"lat":"37.175586913","long":"127.05650339","items":[{"name":"닥엔돈스세교점","tel":"031-376-9285","addr":"경기도 오산시 내삼미동 857-5번지 1층","category":"일반휴게음식 - 일반한식"},{"name":"리틀황제 회","tel":"","addr":"경기도 오산시 내삼미동 857-5번지 1층 좌측","category":"일반휴게음식 - 일식·회집"},{"name":"어도해물찜","tel":"031-000-0000","addr":"경기도 오산시 내삼미동 857-5번지 1층","category":"일반휴게음식 - 일반한식"},{"name":"어부이야기","tel":"031-372-7471","addr":"경기도 오산시 내삼미동 857-5번지 1층","category":"일반휴게음식 - 일반한식"}]},{"lat":"37.175081783","long":"127.05769661","items":[{"name":"담터감자탕&해물뼈찜","tel":"031-374-9077","addr":"경기도 오산시 내삼미동 856-14번지 덕원빌","category":"일반휴게음식 - 일반한식"}]},{"lat":"37.175001599","long":"127.05569224","items":[{"name":"대교수산","tel":"031-375-4827","addr":"경기도 오산시 내삼미동 858-1번지","category":"일반휴게음식 - 일식·회집"},{"name":"씨유내삼미원룸점","tel":"031-377-9085","addr":"경기도 오산시 내삼미동 858-1번지","category":"유통업 영리 - 편 의 점"}]},{"lat":"37.173134893","long":"127.05905765","items":[{"name":"대박공인중개사사무소","tel":"031-376-3795","addr":"경기도 오산시 내삼미동 861-14번지 백승 102호","category":"용역 서비스 - 부동산 중개·임대"},{"name":"사쿠사쿠","tel":"031-378-4946","addr":"경기도 오산시 내삼미동 861-14번지 1층","category":"일반휴게음식 - 스넥"},{"name":"팡팡노래연습장","tel":"031-377-7391","addr":"경기도 오산시 내삼미동 861-14번지 3층","category":"레저업소 - 노 래 방"}]},{"lat":"37.174720898","long":"127.0586985","items":[{"name":"대박마트","tel":"031-375-8955","addr":"경기도 오산시 내삼미동 853-8번지 정감빌딩 101호","category":"유통업 영리 - 슈퍼마켓"}]},{"lat":"37.180443367","long":"127.05686717","items":[{"name":"대성리사이클","tel":"031-375-9225","addr":"경기도 오산시 내삼미동 500번지 외4필지","category":"용역 서비스 - 종합용역"}]},{"lat":"37.174416041","long":"127.05542159","items":[{"name":"대성정보시스템","tel":"031-373-3211","addr":"경기도 오산시 내삼미동 883-3번지 상가동 101호","category":"사무통신 - 사무용 OA기기"}]},{"lat":"37.173774644","long":"127.0590356","items":[{"name":"대신과외","tel":"","addr":"경기도 오산시 내삼미동 864-13번지 A동 402호","category":"학원 - 기타 교육기관"}]},{"lat":"37.177082061","long":"127.05777688","items":[{"name":"대우남부부품센타","tel":"031-378-8866","addr":"경기도 오산시 내삼미동 493-17번지","category":"자동차정비 유지 - 중장비수리"},{"name":"동문대우센타","tel":"031-239-2515","addr":"경기도 오산시 내삼미동 493-17번지","category":"기타 - 기계공구"},{"name":"현대지게차","tel":"031-375-9008","addr":"경기도 오산시 내삼미동 493-17번지 2층","category":"기타 - 기계공구"}]},{"lat":"37.175833551","long":"127.0678089","items":[{"name":"대한창호","tel":"031-373-6315","addr":"경기도 오산시 내삼미동 132-2번지 상호유리창호공사","category":"건축자재 - 인테리어전문"},{"name":"민트라벨","tel":"","addr":"경기도 오산시 내삼미동 132-2번지 나동","category":"의류 - 정장"},{"name":"삼오유리창호공사","tel":"031-372-3562","addr":"경기도 오산시 내삼미동 132-2번지 다동","category":"건축자재 - 기타건축자재"},{"name":"주식회사 해드림","tel":"031-372-4432","addr":"경기도 오산시 내삼미동 132-2번지 가동","category":"음료식품 - 기타음료식품"}]},{"lat":"37.174026978","long":"127.05894571","items":[{"name":"더존인테리어","tel":"","addr":"경기도 오산시 내삼미동 864-15번지 C동 3층 01호","category":"건축자재 - 인테리어전문"}]},{"lat":"37.175001483","long":"127.05595122","items":[{"name":"동서타일아이엔씨","tel":"031-377-2003","addr":"경기도 오산시 내삼미동 858-2,858-3","category":"건축자재 - 건축용 요업제품"}]},{"lat":"37.177775501","long":"127.05855436","items":[{"name":"동서합판","tel":"031-373-4763","addr":"경기도 오산시 내삼미동 431-5번지","category":"건축자재 - 기타건축자재"},{"name":"주식회사 비에스디(BSD Co.,Ltd)","tel":"031-000-0000","addr":"경기도 오산시 내삼미동 431-5번지 애경화학","category":"건축자재 - 기타건축자재"},{"name":"주식회사 인테크","tel":"031-8003-6510","addr":"경기도 오산시 내삼미동 431-5번지 애경화학 C동 202호","category":"전기제품 - 기타전기제품"}]},{"lat":"37.185443935","long":"127.05733246","items":[{"name":"동탄숲유치원[아이행복]","tel":"031-375-6211","addr":"경기도 오산시 내삼미동 721번지","category":"학원 - 유치원"}]},{"lat":"37.181470743","long":"127.05645124","items":[{"name":"드림글로벌학원","tel":"031-373-8271","addr":"경기도 오산시 내삼미동 509번지 A동 2층 전체","category":"학원 - 예·체능계학원"},{"name":"드림스포츠팩토리","tel":"031-373-8271","addr":"경기도 오산시 내삼미동 509번지","category":"학원 - 기타 교육기관"},{"name":"드림스포츠팩토리","tel":"031-373-8271","addr":"경기도 오산시 내삼미동 509번지 1,2,3층","category":"레저업소 - 수 영 장"},{"name":"카페 오아시스","tel":"031-373-8271","addr":"경기도 오산시 내삼미동 509번지 B동 1층","category":"일반휴게음식 - 서양음식"}]},{"lat":"37.179442386","long":"127.05864567","items":[{"name":"디에스하우징","tel":"031-375-2469","addr":"경기도 오산시 내삼미동 431-1번지 H동","category":"건축자재 - 기타건축자재"}]},{"lat":"37.175830443","long":"127.0559518","items":[{"name":"디자인마인","tel":"031-222-5244","addr":"경기도 오산시 내삼미동 850-11번지 광봉빌 B동 203호","category":"건축자재 - 인테리어전문"}]},{"lat":"37.172364795","long":"127.06733303","items":[{"name":"또또와","tel":"","addr":"경기도 오산시 내삼미동 898번지 세교쌍용예가NHF 1806동 1103호","category":"신변잡화 - 액세서리"},{"name":"미니스톱 오산쌍용예가점","tel":"031-1577-9621","addr":"경기도 오산시 내삼미동 898번지 세교쌍용예가 상가동 104호","category":"유통업 영리 - 편 의 점"},{"name":"스마트쎈큰수학","tel":"","addr":"경기도 오산시 내삼미동 898번지 세교쌍용예가NHF 110동 202호","category":"학원 - 기타 교육기관"},{"name":"스타에어컨","tel":"","addr":"경기도 오산시 내삼미동 898번지 세교쌍용예가NHF 1808동 701호","category":"용역 서비스 - 기타용역서비스"},{"name":"영렘브란트 (세교쌍용클래스)","tel":"","addr":"경기도 오산시 내삼미동 898번지 세교쌍용예가NHF 1801동 1303호","category":"학원 - 예·체능계학원"},{"name":"예가어린이집[아이행복]","tel":"031-373-7903","addr":"경기도 오산시 내삼미동 898번지 쌍용예가단지내단독 1층","category":"학원 - 유아원"}]},{"lat":"37.175001372","long":"127.05619895","items":[{"name":"뚱이네붕장어추어탕","tel":"031-373-6631","addr":"경기도 오산시 내삼미동 858-4번지","category":"일반휴게음식 - 일반한식"}]},{"lat":"37.176694224","long":"127.05860987","items":[{"name":"롯데하이마트(주)오산세교점","tel":"031-8055-7731","addr":"경기도 오산시 내삼미동 483-5번지","category":"전기제품 - 가전제품"}]},{"lat":"37.175445133","long":"127.06955391","items":[{"name":"루키윤활유","tel":"070-8237-0048","addr":"경기도 오산시 내삼미동 143번지","category":"자동차정비 유지 - 윤활유 전문 판매"}]},{"lat":"37.175415397","long":"127.0572014","items":[{"name":"마포연탄소금구이","tel":"031-372-2434","addr":"경기도 오산시 내삼미동 856-9번지 그린나래 101호","category":"일반휴게음식 - 일반한식"}]},{"lat":"37.174749427","long":"127.05542182","items":[{"name":"매듭달,이틀","tel":"070-7584-5388","addr":"경기도 오산시 내삼미동 884-4번지 1층","category":"일반휴게음식 - 서양음식"}]},{"lat":"37.178551716","long":"127.05567219","items":[{"name":"맥도날드오산세교디티(DT)점","tel":"070-7017-6516","addr":"경기도 오산시 내삼미동 466-1번지","category":"일반휴게음식 - 서양음식"},{"name":"한국맥도날드(유)오산세교DT점","tel":"070-7017-6516","addr":"경기도 오산시 내삼미동 466-1","category":"일반휴게음식 - 서양음식"}]},{"lat":"37.175888915","long":"127.06538799","items":[{"name":"명인부품판매","tel":"031-374-0505","addr":"경기도 오산시 내삼미동 123번지 1층","category":"자동차정비 유지 - 자동차부품"}]},{"lat":"37.174524251","long":"127.05523024","items":[{"name":"몰리","tel":"031-376-5816","addr":"경기도 오산시 내삼미동 883-1번지 1층","category":"일반휴게음식 - 서양음식"}]},{"lat":"37.173053969","long":"127.05869727","items":[{"name":"무쏘오산세교점","tel":"","addr":"경기도 오산시 내삼미동 861-12번지 1층 103호","category":"일반휴게음식 - 일반한식"},{"name":"육영숙뷰티","tel":"031-377-1353","addr":"경기도 오산시 내삼미동 861-12번지 상가 101호","category":"보건위생 - 미용원"}]},{"lat":"37.180777962","long":"127.05414224","items":[{"name":"무진장","tel":"031-372-7500","addr":"경기도 오산시 내삼미동 541-2번지","category":"일반휴게음식 - 일반한식"}]},{"lat":"37.173865182","long":"127.05811235","items":[{"name":"묵고갈래싸갈래","tel":"031-372-9451","addr":"경기도 오산시 내삼미동 861-4번지 A동 1층","category":"일반휴게음식 - 일반한식"},{"name":"수청철물건재","tel":"031-377-5776","addr":"경기도 오산시 내삼미동 861-4번지","category":"건축자재 - 목재·석재·철물"}]},{"lat":"37.174948038","long":"127.05455492","items":[{"name":"물향기쌈밥정식","tel":"031-377-3839","addr":"경기도 오산시 내삼미동 881-3번지 1층","category":"일반휴게음식 - 일반한식"}]},{"lat":"37.176113745","long":"127.06619892","items":[{"name":"뮤즈데(MUZDE)","tel":"070-4512-9311","addr":"경기도 오산시 내삼미동 126-3번지 1층 입구앞","category":"의류 - 정장"}]},{"lat":"37.173720989","long":"127.05816855","items":[{"name":"미쉘","tel":"070-8019-5499","addr":"경기도 오산시 내삼미동 861-5번지","category":"일반휴게음식 - 주점"},{"name":"복분자숙성통도야지","tel":"031-372-8523","addr":"경기도 오산시 내삼미동 861-5번지 삼미노래연습장 1층 104호","category":"일반휴게음식 - 일반한식"},{"name":"우미노래연습장","tel":"","addr":"경기도 오산시 내삼미동 861-5번지 1층","category":"레저업소 - 노 래 방"},{"name":"즐겨찾기","tel":"031-367-6787","addr":"경기도 오산시 내삼미동 861-5번지","category":"일반휴게음식 - 일반한식"}]},{"lat":"37.18272312","long":"127.05660978","items":[{"name":"배팅스타","tel":"031-376-6258","addr":"경기도 오산시 내삼미동 516-2번지 1동","category":"레저업소 - 기타레져업소"}]},{"lat":"37.174695746","long":"127.05455475","items":[{"name":"벌교꼬막정식짱뚱어탕서대회무침","tel":"031-8003-9517","addr":"경기도 오산시 내삼미동 882-1번지 1층","category":"일반휴게음식 - 일반한식"}]},{"lat":"37.180804665","long":"127.05489674","items":[{"name":"벨리노모텔","tel":"031-375-1663","addr":"경기도 오산시 내삼미동 541-1번지","category":"숙박업 - 여관/기타숙박업"}]},{"lat":"37.173107952","long":"127.05886621","items":[{"name":"별밤실내포차","tel":"031-378-9287","addr":"경기도 오산시 내삼미동 861-13번지","category":"일반휴게음식 - 주점"},{"name":"올가스킨","tel":"02-3281-5233","addr":"경기도 오산시 내삼미동 861-13번지","category":"보건위생 - 화장품"},{"name":"킴스바베큐치킨","tel":"031-375-9907","addr":"경기도 오산시 내삼미동 861-13번지 1층","category":"일반휴게음식 - 스넥"},{"name":"한잔해야쥐이곳이딱이야","tel":"031-374-2390","addr":"경기도 오산시 내삼미동 861-13번지 1층 일부","category":"일반휴게음식 - 일반한식"}]},{"lat":"37.184640606","long":"127.06030495","items":[{"name":"별빛","tel":"070-7724-2952","addr":"경기도 오산시 내삼미동 389-1번지","category":"음료식품 - 기타음료식품"},{"name":"별빛터널","tel":"","addr":"경기도 오산시 내삼미동 389-1번지","category":"유통업 영리 - 슈퍼마켓"},{"name":"오산별빛터널바베큐","tel":"031-271-6000","addr":"경기도 오산시 내삼미동 389-1번지","category":"일반휴게음식 - 일반한식"},{"name":"주식회사 오마이주","tel":"031-378-6678","addr":"경기도 오산시 내삼미동 389-1번지","category":"레저업소 - 기타레져업소"},{"name":"주식회사 오산별빛터널","tel":"031-271-6000","addr":"경기도 오산시 내삼미동 389-1번지","category":"문화.취미 - 티켓"}]},{"lat":"37.174829786","long":"127.0570546","items":[{"name":"본가왕뼈감자탕오산세교점","tel":"031-375-5588","addr":"경기도 오산시 내삼미동 859-4번지 1층","category":"일반휴게음식 - 일반한식"}]},{"lat":"37.174718623","long":"127.06333768","items":[{"name":"뷰티호텔","tel":"070-7848-9306","addr":"경기도 오산시 내삼미동 895번지 오산세교자이근린생활시설 301동 108호","category":"보건위생 - 화장품"},{"name":"이마트24 오산세교자이점","tel":"031-000-0000","addr":"경기도 오산시 내삼미동 895번지 세교자이 상가 102호,103호","category":"유통업 영리 - 편 의 점"},{"name":"하얀크리닝","tel":"031-377-3586","addr":"경기도 오산시 내삼미동 895번지 오산세교자이근린생활시설1 301동 1층 104호","category":"수리서비스 - 세탁소"}]},{"lat":"37.174695623","long":"127.05483626","items":[{"name":"블레스롤 세교점","tel":"031-377-8520","addr":"경기도 오산시 내삼미동 882-2번지 상가 1층","category":"일반휴게음식 - 서양음식"}]},{"lat":"37.17772612","long":"127.06711237","items":[{"name":"비나(VINA)과일","tel":"031-000-0000","addr":"경기도 오산시 내삼미동 209번지 103호","category":"음료식품 - 농·축·수산품"}]},{"lat":"37.184776136","long":"127.059528","items":[{"name":"빈이네 주","tel":"031-378-6678","addr":"경기도 오산시 내삼미동 389-11번지","category":"문화.취미 - 애완동물"}]},{"lat":"37.172972991","long":"127.0584495","items":[{"name":"사거리주막","tel":"","addr":"경기도 오산시 내삼미동 861-10번지 노서빌 1층 102호","category":"일반휴게음식 - 일반한식"},{"name":"신통치킨","tel":"","addr":"경기도 오산시 내삼미동 861-10번지 노서빌 1층 103호","category":"일반휴게음식 - 스넥"},{"name":"썬노래연습장","tel":"031-223-9159","addr":"경기도 오산시 내삼미동 861-10번지 노서빌 2층","category":"레저업소 - 노 래 방"},{"name":"썬노래연습장","tel":"031-376-7772","addr":"경기도 오산시 내삼미동 861-10번지 노서빌 2층","category":"레저업소 - 노 래 방"},{"name":"썬노래연습장","tel":"","addr":"경기도 오산시 내삼미동 861-10번지 노서빌 2층","category":"레저업소 - 노 래 방"},{"name":"파리바게트 오산물향기점","tel":"031-373-8288","addr":"경기도 오산시 내삼미동 861-10번지 노서빌 1층 101호","category":"음료식품 - 제과점"}]},{"lat":"37.180607098","long":"127.05336511","items":[{"name":"삼미석유주유소","tel":"031-373-6998","addr":"경기도 오산시 내삼미동 570-5번지 외3필지","category":"연료판매점 - GS주유소"}]},{"lat":"37.174135531","long":"127.05803373","items":[{"name":"서가닭발","tel":"031-377-1547","addr":"경기도 오산시 내삼미동 861-2번지 한성빌 1층 우측","category":"일반휴게음식 - 일반한식"},{"name":"족많이족가네","tel":"031-375-3773","addr":"경기도 오산시 내삼미동 861-2번지 한성빌 1층 101호","category":"일반휴게음식 - 일반한식"}]},{"lat":"37.180001959","long":"127.05664164","items":[{"name":"서남자동차정비","tel":"031-376-3338","addr":"경기도 오산시 내삼미동 500-3번지","category":"자동차정비 유지 - 자동차정비"},{"name":"오산드림모터스","tel":"031-376-3338","addr":"경기도 오산시 내삼미동 500-3번지 오산드림모터스","category":"자동차정비 유지 - 자동차정비"}]},{"lat":"37.175415704","long":"127.05652578","items":[{"name":"서진세차","tel":"","addr":"경기도 오산시 내삼미동 857-6번지 1층","category":"자동차정비 유지 - 세차장"},{"name":"프로모터스","tel":"031-378-8922","addr":"경기도 오산시 내삼미동 857-6번지","category":"자동차정비 유지 - 자동차정비"}]},{"lat":"37.182415606","long":"127.05910957","items":[{"name":"서한도서","tel":"031-373-6402","addr":"경기도 오산시 내삼미동 412-1번지","category":"서적문구 - 일반서적"}]},{"lat":"37.17428097","long":"127.05523007","items":[{"name":"세교과일아저씨","tel":"","addr":"경기도 오산시 내삼미동 883-8번지 1층 101호","category":"음료식품 - 농·축·수산품"},{"name":"아이돌슬라임","tel":"","addr":"경기도 오산시 내삼미동 883-8번지 1동","category":"서적문구 - 문구용품"}]},{"lat":"37.179335162","long":"127.05669747","items":[{"name":"세교스크린골프","tel":"031-375-0752","addr":"경기도 오산시 내삼미동 497번지","category":"레저업소 - 스크린골프"}]},{"lat":"37.175388947","long":"127.05591771","items":[{"name":"세교카세차","tel":"031-373-4972","addr":"경기도 오산시 내삼미동 857-10","category":"자동차정비 유지 - 세차장"}]},{"lat":"37.178140538","long":"127.06722533","items":[{"name":"세라엔아트","tel":"070-8031-4038","addr":"경기도 오산시 내삼미동 207번지 405호","category":"문화.취미 - 문화취미기타"}]},{"lat":"37.173997103","long":"127.06466578","items":[{"name":"세미초등학교","tel":"031-378-5803","addr":"경기도 오산시 내삼미동 896번지 세미초등학교","category":"학원 - 초중고교육기관"},{"name":"세미초등학교병설유치원[아이행복]","tel":"031-378-5852","addr":"경기도 오산시 내삼미동 896","category":"학원 - 유치원"}]},{"lat":"37.175995861","long":"127.06758384","items":[{"name":"셀세모 스팀세차(SSL)","tel":"031-111-1111","addr":"경기도 오산시 내삼미동 132-1번지","category":"자동차정비 유지 - 세차장"},{"name":"셀세모 오산점","tel":"031-375-5335","addr":"경기도 오산시 내삼미동 132-1번지","category":"자동차정비 유지 - 세차장"}]},{"lat":"37.177884759","long":"127.05608837","items":[{"name":"셀프세차 시실리","tel":"031-376-9392","addr":"경기도 오산시 내삼미동 487번지","category":"자동차정비 유지 - 세차장"}]},{"lat":"37.180498794","long":"127.05378169","items":[{"name":"소담남원추어탕","tel":"031-377-9293","addr":"경기도 오산시 내삼미동 570-14번지 1층","category":"일반휴게음식 - 일반한식"}]},{"lat":"37.174974688","long":"127.05542198","items":[{"name":"솔라가드 노블레스 오산점","tel":"02-1111-1111","addr":"경기도 오산시 내삼미동 884-2번지 상가 1층","category":"자동차정비 유지 - 카인테리어"}]},{"lat":"37.173108174","long":"127.0583933","items":[{"name":"술동아리","tel":"031-376-3864","addr":"경기도 오산시 내삼미동 861-9번지","category":"일반휴게음식 - 주점"},{"name":"제주족발보쌈","tel":"031-372-9222","addr":"경기도 오산시 내삼미동 861-9번지 1층","category":"일반휴게음식 - 일반한식"},{"name":"향수세탁소","tel":"031-0000-0000","addr":"경기도 오산시 내삼미동 861-9번지","category":"수리서비스 - 세탁소"}]},{"lat":"37.174469533","long":"127.05669402","items":[{"name":"숲속사랑유치원[아이행복]","tel":"031-373-7920","addr":"경기도 오산시 내삼미동 859-14","category":"학원 - 유치원"}]},{"lat":"37.173858015","long":"127.05400244","items":[{"name":"시립수청어린이집[아이행복]","tel":"031-373-4330","addr":"경기도 오산시 내삼미동 753-2","category":"학원 - 유아원"}]},{"lat":"37.172141037","long":"127.06450664","items":[{"name":"시크릿헤어","tel":"031-373-5447","addr":"경기도 오산시 내삼미동 897번지 삼미마을상가동2층, 203","category":"보건위생 - 미용원"}]},{"lat":"37.175001296","long":"127.05636785","items":[{"name":"신마포갈매기(세교점)","tel":"031-377-5092","addr":"경기도 오산시 내삼미동 858-5번지 1층","category":"일반휴게음식 - 일반한식"}]},{"lat":"37.182358384","long":"127.06541584","items":[{"name":"신삼성자동차운전전문학원","tel":"031-223-3328","addr":"경기도 오산시 내삼미동 275-1번지","category":"학원 - 기능학원"}]},{"lat":"37.176087085","long":"127.06550075","items":[{"name":"신용철물건재","tel":"031-376-6041","addr":"경기도 오산시 내삼미동 124번지 1층","category":"건축자재 - 목재·석재·철물"}]},{"lat":"37.17683508","long":"127.06525364","items":[{"name":"신이수상사","tel":"031-377-5153","addr":"경기도 오산시 내삼미동 219-2번지","category":"자동차정비 유지 - 자동차부품"}]},{"lat":"37.174495494","long":"127.05900236","items":[{"name":"쌍용자동차세교서비스프라자","tel":"031-376-5584","addr":"경기도 오산시 내삼미동 864-1번지","category":"자동차정비 유지 - 자동차정비"}]},{"lat":"37.175028139","long":"127.05678449","items":[{"name":"씨앤비텍","tel":"031-8015-3980","addr":"경기도 오산시 내삼미동 859-24번지 1층","category":"레져용품 - 스포츠·레져용품"}]},{"lat":"37.174279724","long":"127.05797753","items":[{"name":"씨유오산내삼미동점","tel":"031-375-8078","addr":"경기도 오산시 내삼미동 861-1번지 한창빌 1층","category":"유통업 영리 - 편 의 점"},{"name":"지동순대곱창","tel":"031-377-8949","addr":"경기도 오산시 내삼미동 861-1번지 한창빌 102호","category":"일반휴게음식 - 일반한식"}]},{"lat":"37.175586042","long":"127.05839511","items":[{"name":"씨유오산내삼미스카이점","tel":"080-080-3663","addr":"경기도 오산시 내삼미동 853-14번지 소바빌 1층","category":"유통업 영리 - 편 의 점"}]},{"lat":"37.174829454","long":"127.05777525","items":[{"name":"아랑김치찌개","tel":"031-8043-2377","addr":"경기도 오산시 내삼미동 856-16번지 태화빌 1층","category":"일반휴게음식 - 일반한식"},{"name":"우진황소곱창","tel":"031-831-0619","addr":"경기도 오산시 내삼미동 856-16번지 대화빌딩","category":"일반휴게음식 - 일반한식"}]},{"lat":"37.174441522","long":"127.0588109","items":[{"name":"아이앤아이","tel":"","addr":"경기도 오산시 내삼미동 864-18번지 포근한빌 305호","category":"주방용구 - 주방용구"}]},{"lat":"37.175914509","long":"127.0680567","items":[{"name":"에스씨(SC)인터내셔날(기가특판)","tel":"070-4204-0796","addr":"경기도 오산시 내삼미동 133번지","category":"레져용품 - 스포츠·레져용품"},{"name":"에스씨(SC)인터내셔날(기가특판)","tel":"070-5017-5736","addr":"경기도 오산시 내삼미동 133번지","category":"레져용품 - 스포츠·레져용품"}]},{"lat":"37.177749122","long":"127.05714677","items":[{"name":"엘로이산업","tel":"031-377-2644","addr":"경기도 오산시 내삼미동 484-22번지","category":"기타 - 기계공구"},{"name":"오산엔세븐카페","tel":"031-374-1000","addr":"경기도 오산시 내삼미동 484-22번지 A동 2층","category":"일반휴게음식 - 서양음식"},{"name":"주식회사힐링캠프투어","tel":"031-378-4225","addr":"경기도 오산시 내삼미동 484-22번지 상가 4층","category":"여행 - 관광여행"}]},{"lat":"37.174307906","long":"127.05544403","items":[{"name":"엘림","tel":"031-372-2722","addr":"경기도 오산시 내삼미동 883-4번지 101호","category":"보건위생 - 의료용품"}]},{"lat":"37.173441629","long":"127.05824716","items":[{"name":"엠바","tel":"031-372-2779","addr":"경기도 오산시 내삼미동 861-7번지 1층","category":"일반휴게음식 - 일반한식"}]},{"lat":"37.176609306","long":"127.06622185","items":[{"name":"엠텍","tel":"031-000-0000","addr":"경기도 오산시 내삼미동 213-1번지","category":"기타 - 기계공구"}]},{"lat":"37.18247051","long":"127.0573078","items":[{"name":"영화프린팅","tel":"031-255-5666","addr":"경기도 오산시 내삼미동 508-5번지","category":"사무통신 - 기타 사무용품"}]},{"lat":"37.17544333","long":"127.05519709","items":[{"name":"예뻐지는공간","tel":"031-373-6374","addr":"경기도 오산시 내삼미동 887-7번지 102호","category":"보건위생 - 피부미용실"}]},{"lat":"37.174163739","long":"127.05544393","items":[{"name":"예스아이엠(Yes IAM)","tel":"","addr":"경기도 오산시 내삼미동 883-5번지","category":"일반휴게음식 - 서양음식"}]},{"lat":"37.178550629","long":"127.05805946","items":[{"name":"오산농업협동조합 경제사업장","tel":"031-373-9607","addr":"경기도 오산시 내삼미동 429-2번지","category":"음료식품 - 농·축·수산품"},{"name":"오산농업협동조합 경제사업장","tel":"031-373-9607","addr":"경기도 오산시 내삼미동 429-2번지","category":"음료식품 - 농·축·수산품"},{"name":"오산농업협동조합경제사업장","tel":"031-373-9607","addr":"경기도 오산시 내삼미동 429-2번지","category":"음료식품 - 농·축·수산품"}]},{"lat":"37.182248509","long":"127.04967251","items":[{"name":"오산삼미주유소","tel":"031-378-1146","addr":"경기도 오산시 내삼미동 588-3,589-2,589-8번지","category":"연료판매점 - GS주유소"}]},{"lat":"37.175027923","long":"127.05725742","items":[{"name":"오산축산정육식당","tel":"031-377-6259","addr":"경기도 오산시 내삼미동 859-3번지 1층","category":"일반휴게음식 - 일반한식"}]},{"lat":"37.178217358","long":"127.05781148","items":[{"name":"오투모텔","tel":"031-377-3138","addr":"경기도 오산시 내삼미동 430-3번지","category":"숙박업 - 여관/기타숙박업"},{"name":"오투모텔","tel":"031-377-3138","addr":"경기도 오산시 내삼미동 430-3번지","category":"숙박업 - 여관/기타숙박업"}]},{"lat":"37.181022391","long":"127.05141722","items":[{"name":"왕가돈까스","tel":"031-372-0028","addr":"경기도 오산시 내삼미동 576-3번지","category":"일반휴게음식 - 스넥"}]},{"lat":"37.180885005","long":"127.05658596","items":[{"name":"우드웰","tel":"031-378-5633","addr":"경기도 오산시 내삼미동 504번지 1층","category":"건축자재 - 기타건축자재"},{"name":"하나플러스","tel":"031-376-5781","addr":"경기도 오산시 내삼미동 504번지 하나플러스","category":"신변잡화 - 기타잡화"}]},{"lat":"37.181197831","long":"127.06192394","items":[{"name":"우정광고기획","tel":"031-377-6345","addr":"경기도 오산시 내삼미동 350-3번지","category":"용역 서비스 - 종합용역"}]},{"lat":"37.174892123","long":"127.05864233","items":[{"name":"월드식품","tel":"031-000-0000","addr":"경기도 오산시 내삼미동 853-9번지 지혜빌딩 1층 101호","category":"음료식품 - 기타음료식품"}]},{"lat":"37.17544322","long":"127.05544482","items":[{"name":"육마담","tel":"031-376-5585","addr":"경기도 오산시 내삼미동 887-5번지 1층","category":"일반휴게음식 - 일반한식"}]},{"lat":"37.175414965","long":"127.058136","items":[{"name":"으뜸교육","tel":"031-8043-9922","addr":"경기도 오산시 내삼미동 854-2번지 장미빌 상가 1층","category":"서적문구 - 기타서적문구"}]},{"lat":"37.175279782","long":"127.0581922","items":[{"name":"이넬화장품(관악)","tel":"070-8840-5511","addr":"경기도 오산시 내삼미동 854-3번지 신영빌 1층 상가","category":"보건위생 - 화장품"}]},{"lat":"37.180137869","long":"127.05495259","items":[{"name":"장미면옥","tel":"031-000-0000","addr":"경기도 오산시 내삼미동 538-2번지","category":"일반휴게음식 - 일반한식"}]},{"lat":"37.181308929","long":"127.0556178","items":[{"name":"제이에스테크","tel":"070-4411-5751","addr":"경기도 오산시 내삼미동 746-2번지","category":"전기제품 - 기타전기제품"}]},{"lat":"37.181550734","long":"127.05883866","items":[{"name":"제이엠알앤디(JM R&D)","tel":"031-372-0772","addr":"경기도 오산시 내삼미동 418번지","category":"자동차정비 유지 - 자동차부품"}]},{"lat":"37.181558482","long":"127.06145125","items":[{"name":"주식회사 반석철강","tel":"031-204-3417","addr":"경기도 오산시 내삼미동 347-4번지 다동","category":"건축자재 - 기타건축자재"}]},{"lat":"37.17605955","long":"127.0664466","items":[{"name":"주식회사 중앙정밀","tel":"031-377-8334","addr":"경기도 오산시 내삼미동 127-1번지","category":"기타 - 기계공구"}]},{"lat":"37.176028763","long":"127.05574925","items":[{"name":"지노","tel":"","addr":"경기도 오산시 내삼미동 850-1번지 현대공인중개사 1층 1호","category":"기타 - 기계공구"}]},{"lat":"37.175388795","long":"127.05625552","items":[{"name":"짝태&노가리오산세교점","tel":"","addr":"경기도 오산시 내삼미동 857-8번지 1층","category":"일반휴게음식 - 일반한식"},{"name":"코리안바베큐","tel":"031-373-9244","addr":"경기도 오산시 내삼미동 857-8번지 1층","category":"일반휴게음식 - 주점"}]},{"lat":"37.176697283","long":"127.07008425","items":[{"name":"청담식품","tel":"031-000-0000","addr":"경기도 오산시 내삼미동 166-1번지","category":"음료식품 - 기타음료식품"}]},{"lat":"37.182802947","long":"127.05933508","items":[{"name":"초가집","tel":"031-373-8980","addr":"경기도 오산시 내삼미동 414번지 1층","category":"일반휴게음식 - 일반한식"}]},{"lat":"37.174775964","long":"127.05652533","items":[{"name":"출장배관관리 욕실관리","tel":"","addr":"경기도 오산시 내삼미동 858-7번지 주현주택 101호","category":"용역 서비스 - 기타용역서비스"}]},{"lat":"37.174776323","long":"127.05572586","items":[{"name":"카카오토(CArCArauto)","tel":"031-373-8748","addr":"경기도 오산시 내삼미동 858-11번지 상가 1층","category":"자동차정비 유지 - 가타자동차서비스"}]},{"lat":"37.177555461","long":"127.06611003","items":[{"name":"카페안","tel":"031-373-9995","addr":"경기도 오산시 내삼미동 222-3번지 1층","category":"일반휴게음식 - 서양음식"}]},{"lat":"37.177086049","long":"127.06771989","items":[{"name":"카페정원","tel":"031-374-7935","addr":"경기도 오산시 내삼미동 181번지","category":"일반휴게음식 - 서양음식"}]},{"lat":"37.175470495","long":"127.05489309","items":[{"name":"커피에이세교점","tel":"031-372-1781","addr":"경기도 오산시 내삼미동 885-5번지 1층","category":"일반휴게음식 - 서양음식"}]},{"lat":"37.176001408","long":"127.0564699","items":[{"name":"케이에스 광고기획","tel":"031-373-3641","addr":"경기도 오산시 내삼미동 850-5번지 신동아빌2차 1층","category":"용역 서비스 - 종합용역"}]},{"lat":"37.177392807","long":"127.06697696","items":[{"name":"킹콩반품마트","tel":"031-275-7497","addr":"경기도 오산시 내삼미동 210번지 상가A동 1층 101-104호","category":"신변잡화 - 기타잡화"}]},{"lat":"37.182308374","long":"127.05719507","items":[{"name":"태성건설","tel":"031-224-5115","addr":"경기도 오산시 내삼미동 508-1번지 1층","category":"용역 서비스 - 기타용역서비스"}]},{"lat":"37.175830245","long":"127.05639095","items":[{"name":"태웅공조시스템","tel":"032-377-1514","addr":"경기도 오산시 내삼미동 850-6번지 B블럭 2층 202호","category":"용역 서비스 - 기타용역서비스"}]},{"lat":"37.175553087","long":"127.06985803","items":[{"name":"토브","tel":"031-222-8848","addr":"경기도 오산시 내삼미동 145번지 4층","category":"건축자재 - 기타건축자재"},{"name":"한지아이티","tel":"031-222-8424","addr":"경기도 오산시 내삼미동 145번지 4층","category":"사무통신 - 컴퓨터"}]},{"lat":"37.181191082","long":"127.05719427","items":[{"name":"토탈","tel":"","addr":"경기도 오산시 내삼미동 505-2번지 일부","category":"주방용구 - 주방용구"}]},{"lat":"37.174612958","long":"127.05830432","items":[{"name":"패션카","tel":"031-372-4374","addr":"경기도 오산시 내삼미동 855","category":"자동차정비 유지 - 주차장"}]},{"lat":"37.174974787","long":"127.05519677","items":[{"name":"포트커피세교점","tel":"031-000-0000","addr":"경기도 오산시 내삼미동 884-7번지 1층","category":"일반휴게음식 - 서양음식"}]},{"lat":"37.17555122","long":"127.0557264","items":[{"name":"피자와치킨의 러브레터","tel":"031-378-8252","addr":"경기도 오산시 내삼미동 857-1번지 1층","category":"일반휴게음식 - 서양음식"}]},{"lat":"37.180722401","long":"127.05749798","items":[{"name":"한울공조","tel":"031-378-8870","addr":"경기도 오산시 내삼미동 428-2번지","category":"용역 서비스 - 기타용역서비스"}]},{"lat":"37.174857652","long":"127.05519669","items":[{"name":"행복열매참기름짜는집","tel":"031-373-5189","addr":"경기도 오산시 내삼미동 884-6번지","category":"음료식품 - 기타음료식품"}]},{"lat":"37.176365092","long":"127.06794448","items":[{"name":"행복한밥상","tel":"031-376-7998","addr":"경기도 오산시 내삼미동 186번지 1층","category":"일반휴게음식 - 일반한식"}]},{"lat":"37.175055108","long":"127.05691964","items":[{"name":"헤어다움","tel":"031-377-5747","addr":"경기도 오산시 내삼미동 859-1번지 1층","category":"보건위생 - 미용원"}]},{"lat":"37.173864907","long":"127.05869787","items":[{"name":"현대상사","tel":"031-372-8500","addr":"경기도 오산시 내삼미동 863-2번지","category":"자동차정비 유지 - 자동차부품"}]},{"lat":"37.179001827","long":"127.05658462","items":[{"name":"호텔벨리노","tel":"031-378-1552","addr":"경기도 오산시 내삼미동 496번지","category":"숙박업 - 여관/기타숙박업"},{"name":"호텔벨리노","tel":"031-378-1551","addr":"경기도 오산시 내삼미동 496번지","category":"숙박업 - 여관/기타숙박업"}]},{"lat":"37.175055047","long":"127.05705476","items":[{"name":"홍가네왕돌구이","tel":"031-378-2772","addr":"경기도 오산시 내삼미동 859-2번지 1층","category":"일반휴게음식 - 일반한식"}]},{"lat":"37.175586785","long":"127.05678489","items":[{"name":"황태대가","tel":"031-373-9253","addr":"경기도 오산시 내삼미동 856-1번지","category":"일반휴게음식 - 일반한식"}]}]