[{"lat":"37.632034148","long":"127.28982822","items":[{"name":"(주) 카이엔모터스","tel":"031-592-5582","addr":"경기도 남양주시 화도읍 차산리 745-6번지","category":"자동차정비 유지 - 자동차정비"}]},{"lat":"37.636999162","long":"127.3040205","items":[{"name":"(주)비건스프라웃(VEGAN SPROUT)","tel":"","addr":"경기도 남양주시 화도읍 차산리 63-4번지 2층","category":"음료식품 - 기타음료식품"}]},{"lat":"37.630028904","long":"127.28821187","items":[{"name":"(주)비피판넬","tel":"031-000-0000","addr":"경기도 남양주시 화도읍 차산리 837번지 다동 1층","category":"건축자재 - 기타건축자재"}]},{"lat":"37.62603557","long":"127.30354581","items":[{"name":"(주)서비디자인","tel":"070-7574-5244","addr":"경기도 남양주시 화도읍 차산리 261-2번지","category":"가구 - 일반가구"}]},{"lat":"37.633973568","long":"127.30688587","items":[{"name":"(주)수목정보시스템","tel":"031-595-8420","addr":"경기도 남양주시 화도읍 차산리 37-18번지","category":"전기제품 - 가전제품"}]},{"lat":"37.622200124","long":"127.30248826","items":[{"name":"(주)허브갤러리","tel":"070-4171-9879","addr":"경기도 남양주시 화도읍 차산리 346-4번지","category":"보건위생 - 화장품"}]},{"lat":"37.637347173","long":"127.30180132","items":[{"name":"GOGO글로벌","tel":"031-111-1111","addr":"경기도 남양주시 화도읍 차산리 86-17번지 한림로얄팰리스 102동 101호","category":"의류 - 아동의류"}]},{"lat":"37.636896636","long":"127.30182217","items":[{"name":"YBM시사주니어차산학원","tel":"031-591-9405","addr":"경기도 남양주시 화도읍 차산리 84-11번지 전체 1층","category":"학원 - 보습학원"},{"name":"바람머리","tel":"031-591-7790","addr":"경기도 남양주시 화도읍 차산리 84-11번지 1층","category":"보건위생 - 미용원"},{"name":"블럭신","tel":"031-559-1007","addr":"경기도 남양주시 화도읍 차산리 84-11번지 1층","category":"학원 - 기타 교육기관"},{"name":"학교앞가게","tel":"031-594-0627","addr":"경기도 남양주시 화도읍 차산리 84-11","category":"음료식품 - 기타음료식품"},{"name":"호산나뮤직슐레음악학원","tel":"031-594-2045","addr":"경기도 남양주시 화도읍 차산리 84-11번지 외2필지 2층","category":"학원 - 예·체능계학원"}]},{"lat":"37.631722738","long":"127.30274173","items":[{"name":"간지골프","tel":"031-595-1871","addr":"경기도 남양주시 화도읍 차산리 149-16번지","category":"레져용품 - 스포츠·레져용품"}]},{"lat":"37.633419245","long":"127.30168362","items":[{"name":"갓지은솥밥","tel":"031-111-1111","addr":"경기도 남양주시 화도읍 차산리 144-4번지 주건축물제 1동 1층","category":"일반휴게음식 - 일반한식"}]},{"lat":"37.632056644","long":"127.29168622","items":[{"name":"경일금속","tel":"031-594-8074","addr":"경기도 남양주시 화도읍 차산리 737-3","category":"신변잡화 - 기타잡화"}]},{"lat":"37.636784693","long":"127.30332854","items":[{"name":"고래실","tel":"031-6724-5151","addr":"경기도 남양주시 화도읍 차산리 83-6번지","category":"일반휴게음식 - 일반한식"},{"name":"링링스낵","tel":"","addr":"경기도 남양주시 화도읍 차산리 83-6번지 1층","category":"일반휴게음식 - 스넥"},{"name":"영주자동차공업사","tel":"031-592-8213","addr":"경기도 남양주시 화도읍 차산리 83-6","category":"자동차정비 유지 - 자동차정비"},{"name":"주원ENG","tel":"031-592-7402","addr":"경기도 남양주시 화도읍 차산리 83-6번지 2층","category":"용역 서비스 - 기타용역서비스"}]},{"lat":"37.627807282","long":"127.30479904","items":[{"name":"고려불상조각원","tel":"031-566-8821","addr":"경기도 남양주시 화도읍 차산리 237-5번지","category":"기타 - 기타 전문점"}]},{"lat":"37.621644106","long":"127.31196686","items":[{"name":"골프라인샵","tel":"031-592-2292","addr":"경기도 남양주시 화도읍 차산리 369-8번지 그린힐골프클럽1층","category":"레져용품 - 스포츠·레져용품"},{"name":"그린힐 그늘집","tel":"031-000-0000","addr":"경기도 남양주시 화도읍 차산리 369-8번지 그린골프연습장3층 매점","category":"음료식품 - 기타음료식품"},{"name":"그린힐골프클럽","tel":"031-595-5400","addr":"경기도 남양주시 화도읍 차산리 369-8번지 6필지","category":"회원제형태 - 레져업소"}]},{"lat":"37.633611701","long":"127.2968016","items":[{"name":"굴러들어온복집","tel":"031-593-3384","addr":"경기도 남양주시 화도읍 차산리 118번지","category":"일반휴게음식 - 일반한식"},{"name":"성우공조","tel":"","addr":"경기도 남양주시 화도읍 차산리 118번지 1층","category":"자동차정비 유지 - 자동차부품"},{"name":"차사랑 외형복원","tel":"","addr":"경기도 남양주시 화도읍 차산리 118번지","category":"자동차정비 유지 - 카인테리어"}]},{"lat":"37.633611794","long":"127.28943777","items":[{"name":"굿아트 (good art)","tel":"070-8237-0464","addr":"경기도 남양주시 화도읍 차산리 806-4번지 2층","category":"용역 서비스 - 종합용역"}]},{"lat":"37.622862328","long":"127.30071252","items":[{"name":"그린앤씨 주식회사","tel":"070-4699-3700","addr":"경기도 남양주시 화도읍 차산리 601-1번지","category":"농업 - 농기계"}]},{"lat":"37.635445449","long":"127.29121217","items":[{"name":"그린푸드","tel":"031-559-0741","addr":"경기도 남양주시 화도읍 차산리 800번지","category":"음료식품 - 미곡상"}]},{"lat":"37.630952636","long":"127.28997133","items":[{"name":"금강우레탄","tel":"031-594-0139","addr":"경기도 남양주시 화도읍 차산리 711-7","category":"직물 - 기타직물"}]},{"lat":"37.630674219","long":"127.30407428","items":[{"name":"금정현대자동차공업사","tel":"031-593-9941","addr":"경기도 남양주시 화도읍 차산리 222-1번지","category":"자동차정비 유지 - 자동차정비"}]},{"lat":"37.629643761","long":"127.30184976","items":[{"name":"꿈에가구","tel":"031-559-8821","addr":"경기도 남양주시 화도읍 차산리 200-2번지","category":"가구 - 일반가구"}]},{"lat":"37.619673378","long":"127.30051857","items":[{"name":"네오퍼니처","tel":"070-4914-0730","addr":"경기도 남양주시 화도읍 차산리 511번지","category":"가구 - 일반가구"}]},{"lat":"37.617591621","long":"127.30427069","items":[{"name":"다이팩토리","tel":"","addr":"경기도 남양주시 화도읍 차산리 553-4번지","category":"전기제품 - 가전제품"}]},{"lat":"37.6332265","long":"127.3065996","items":[{"name":"대니버거","tel":"031-511-5589","addr":"경기도 남양주시 화도읍 차산리 30-4번지 101호","category":"용역 서비스 - 사무서비스"}]},{"lat":"37.63283643","long":"127.30762894","items":[{"name":"대성산업","tel":"031-595-9621","addr":"경기도 남양주시 화도읍 차산리 27-20","category":"신변잡화 - 기타잡화"}]},{"lat":"37.616784649","long":"127.30273836","items":[{"name":"대영홈케어","tel":"","addr":"경기도 남양주시 화도읍 차산리 532-14번지","category":"용역 서비스 - 종합용역"}]},{"lat":"37.62439588","long":"127.29635752","items":[{"name":"대운기기산업","tel":"031-593-3228","addr":"경기도 남양주시 화도읍 차산리 645-2","category":"전기제품 - 기타전기제품"}]},{"lat":"37.636615988","long":"127.30235353","items":[{"name":"대화아구탕,찜","tel":"031-593-9199","addr":"경기도 남양주시 화도읍 차산리 80","category":"일반휴게음식 - 일반한식"}]},{"lat":"37.633088911","long":"127.31101731","items":[{"name":"더 파츠 (THE Parts)","tel":"031-591-1810","addr":"경기도 남양주시 화도읍 차산리 10-6번지 나동일부","category":"자동차정비 유지 - 자동차부품"},{"name":"아로마코코","tel":"031-594-0912","addr":"경기도 남양주시 화도읍 차산리 10-6번지 나동","category":"신변잡화 - 기타잡화"}]},{"lat":"37.638306969","long":"127.30347062","items":[{"name":"더담부대찌개","tel":"","addr":"경기도 남양주시 화도읍 차산리 94-2번지","category":"일반휴게음식 - 일반한식"},{"name":"뮤직오페라","tel":"031-511-2060","addr":"경기도 남양주시 화도읍 차산리 94-2번지 2층","category":"레져용품 - 음반/영상물"},{"name":"미트캠프","tel":"031-591-1190","addr":"경기도 남양주시 화도읍 차산리 94-2번지 지하1층","category":"음료식품 - 정육점"},{"name":"오페라","tel":"031-511-2060","addr":"경기도 남양주시 화도읍 차산리 94-2번지 2층","category":"일반휴게음식 - 주점"}]},{"lat":"37.633027618","long":"127.30685936","items":[{"name":"더크레용학원","tel":"031-511-0781","addr":"경기도 남양주시 화도읍 차산리 27-39번지 전체","category":"학원 - 외국어학원"}]},{"lat":"37.637973412","long":"127.30354859","items":[{"name":"더테이블제이","tel":"031-593-8008","addr":"경기도 남양주시 화도읍 차산리 93-2번지","category":"일반휴게음식 - 일반한식"}]},{"lat":"37.623256862","long":"127.28686068","items":[{"name":"동강그린모터스","tel":"031-592-8782","addr":"경기도 남양주시 화도읍 차산리 872-10번지 남양주폐차장 가동","category":"자동차정비 유지 - 가타자동차서비스"},{"name":"주식회사 동강그린모터스","tel":"031-592-8782","addr":"경기도 남양주시 화도읍 차산리 872-10번지","category":"자동차정비 유지 - 가타자동차서비스"}]},{"lat":"37.621368877","long":"127.30341375","items":[{"name":"두영에스티","tel":"031-594-8328","addr":"경기도 남양주시 화도읍 차산리 350-1번지","category":"건축자재 - 기타건축자재"}]},{"lat":"37.6260027","long":"127.30229962","items":[{"name":"디에이치업소몰","tel":"070-7684-6486","addr":"경기도 남양주시 화도읍 차산리 274-1번지 가동","category":"주방용구 - 주방용구"},{"name":"디에이치업소몰","tel":"070-4197-4353","addr":"경기도 남양주시 화도읍 차산리 274-1번지 1층","category":"가구 - 일반가구"}]},{"lat":"37.632556706","long":"127.28983022","items":[{"name":"디에프(D.F)","tel":"031-542-0950","addr":"경기도 남양주시 화도읍 차산리 750-1번지","category":"가구 - 일반가구"},{"name":"이월로스터스 마석점","tel":"070-8845-2568","addr":"경기도 남양주시 화도읍 차산리 750-1번지","category":"일반휴게음식 - 서양음식"}]},{"lat":"37.628888751","long":"127.2865196","items":[{"name":"디엔파워 주식회사","tel":"031-593-5548","addr":"경기도 남양주시 화도읍 차산리 839-1번지","category":"전기제품 - 기타전기제품"}]},{"lat":"37.632281885","long":"127.29168709","items":[{"name":"마강공방","tel":"031-0593-4559","addr":"경기도 남양주시 화도읍 차산리 737-2번지","category":"가구 - 일반가구"},{"name":"유창근부동산","tel":"031-594-1940","addr":"경기도 남양주시 화도읍 차산리 737-2번지 735동 736호","category":"용역 서비스 - 부동산 중개·임대"}]},{"lat":"37.63341674","long":"127.30968185","items":[{"name":"마석가구광장","tel":"031-594-0332","addr":"경기도 남양주시 화도읍 차산리 18-1","category":"가구 - 일반가구"}]},{"lat":"37.633610743","long":"127.30432404","items":[{"name":"마석종합카센타","tel":"031-594-0001","addr":"경기도 남양주시 화도읍 차산리 166-4번지","category":"자동차정비 유지 - 자동차정비"}]},{"lat":"37.636891191","long":"127.30396342","items":[{"name":"막창일번지","tel":"031-559-6999","addr":"경기도 남양주시 화도읍 차산리 63-39번지","category":"일반휴게음식 - 일반한식"},{"name":"화도성","tel":"031-592-4774","addr":"경기도 남양주시 화도읍 차산리 63-39번지","category":"일반휴게음식 - 중국식"}]},{"lat":"37.63359186","long":"127.30816449","items":[{"name":"명재정밀","tel":"031-571-1182","addr":"경기도 남양주시 화도읍 차산리 17-3번지","category":"기타 - 기계공구"}]},{"lat":"37.634393898","long":"127.29746177","items":[{"name":"명진아크릴","tel":"031-593-9237","addr":"경기도 남양주시 화도읍 차산리 114","category":"용역 서비스 - 종합용역"}]},{"lat":"37.638250859","long":"127.30427481","items":[{"name":"모던인테리어","tel":"031-592-6866","addr":"경기도 남양주시 화도읍 차산리 63-1번지","category":"건축자재 - 인테리어전문"},{"name":"빅토키즈","tel":"031-511-0192","addr":"경기도 남양주시 화도읍 차산리 63-1번지 2층","category":"일반휴게음식 - 일반한식"},{"name":"솥뚜껑삼겹살","tel":"031-511-1541","addr":"경기도 남양주시 화도읍 차산리 63-1번지 1층","category":"일반휴게음식 - 일반한식"},{"name":"우리네부동산공인중개사사무소","tel":"031-592-5454","addr":"경기도 남양주시 화도읍 차산리 63-1번지 (주)우리네마트 1층 105호","category":"용역 서비스 - 부동산 중개·임대"},{"name":"우리당구클럽","tel":"031-591-0731","addr":"경기도 남양주시 화도읍 차산리 63-1번지 3층","category":"레저업소 - 당 구 장"},{"name":"창현철물전기","tel":"031-595-5922","addr":"경기도 남양주시 화도읍 차산리 63-1번지 외2필지","category":"건축자재 - 목재·석재·철물"},{"name":"케이휘트니스","tel":"031-594-9989","addr":"경기도 남양주시 화도읍 차산리 63-1번지 3층","category":"회원제형태 - 레져업소"}]},{"lat":"37.630257543","long":"127.29052375","items":[{"name":"문성산업","tel":"031-1577-9936","addr":"경기도 남양주시 화도읍 차산리 709-2번지","category":"전기제품 - 기타전기제품"}]},{"lat":"37.638171824","long":"127.29991256","items":[{"name":"뮤직컴스토리","tel":"","addr":"경기도 남양주시 화도읍 차산리 874번지 신창현풍림아이원2차 상가동 101호","category":"학원 - 기타 교육기관"},{"name":"주식회사젠트리움","tel":"031-559-1239","addr":"경기도 남양주시 화도읍 차산리 874번지 신창현풍림아이원2차 상가동 102호","category":"건축자재 - 부동산 분양"}]},{"lat":"37.623672623","long":"127.3044878","items":[{"name":"미피아세","tel":"","addr":"경기도 남양주시 화도읍 차산리 302-1번지","category":"의류 - 기타의류"}]},{"lat":"37.62797307","long":"127.30338369","items":[{"name":"바다양푼이동태탕","tel":"031-511-1695","addr":"경기도 남양주시 화도읍 차산리 252번지 유진빌딩 1층 일부","category":"일반휴게음식 - 일반한식"}]},{"lat":"37.631947834","long":"127.30279927","items":[{"name":"바다오리","tel":"031-591-5052","addr":"경기도 남양주시 화도읍 차산리 149-1번지","category":"일반휴게음식 - 일반한식"}]},{"lat":"37.63447456","long":"127.29763203","items":[{"name":"발효와자연사랑","tel":"031-511-0369","addr":"경기도 남양주시 화도읍 차산리 114-2번지","category":"음료식품 - 기타음료식품"}]},{"lat":"37.634918147","long":"127.3039328","items":[{"name":"배양리 두루치기 화도점","tel":"","addr":"경기도 남양주시 화도읍 차산리 74-1번지","category":"일반휴게음식 - 일반한식"}]},{"lat":"37.617037695","long":"127.30243357","items":[{"name":"보리향기","tel":"031-559-0248","addr":"경기도 남양주시 화도읍 차산리 532-30번지 1층","category":"일반휴게음식 - 일반한식"}]},{"lat":"37.623620678","long":"127.30010387","items":[{"name":"보성그래픽스","tel":"031-595-9585","addr":"경기도 남양주시 화도읍 차산리 630-1","category":"건축자재 - 기타건축자재"},{"name":"예스바베큐","tel":"02-1577-9295","addr":"경기도 남양주시 화도읍 차산리 630-1번지 (경기남양주화도차산630-1)","category":"일반휴게음식 - 일반한식"}]},{"lat":"37.618870495","long":"127.3044684","items":[{"name":"보우팩","tel":"031-592-7752","addr":"경기도 남양주시 화도읍 차산리 557-2번지 주2동","category":"기타 - 기계공구"}]},{"lat":"37.631563358","long":"127.29076668","items":[{"name":"부성분체도장","tel":"","addr":"경기도 남양주시 화도읍 차산리 740-2번지","category":"용역 서비스 - 기타용역서비스"}]},{"lat":"37.620282338","long":"127.30551619","items":[{"name":"부흥가설재상사","tel":"031-7864-1177","addr":"경기도 남양주시 화도읍 차산리 357-4번지","category":"건축자재 - 기타건축자재"}]},{"lat":"37.632889753","long":"127.31137901","items":[{"name":"붕붕스테이션","tel":"031-1644-2499","addr":"경기도 남양주시 화도읍 차산리 8-13번지 101호","category":"자동차정비 유지 - 자동차부품"}]},{"lat":"37.618420304","long":"127.30435332","items":[{"name":"비건팜(VEGAN FARM)","tel":"031-594-8335","addr":"경기도 남양주시 화도읍 차산리 556번지","category":"음료식품 - 기타음료식품"}]},{"lat":"37.636639327","long":"127.30380379","items":[{"name":"비해피(Be Happy)","tel":"031-511-3959","addr":"경기도 남양주시 화도읍 차산리 63-24번지 1층","category":"일반휴게음식 - 스넥"},{"name":"왕새우직판장","tel":"031-000-0000","addr":"경기도 남양주시 화도읍 차산리 63-24번지 주1동 1층","category":"일반휴게음식 - 일반한식"},{"name":"이가네감자탕","tel":"031-511-7494","addr":"경기도 남양주시 화도읍 차산리 63-24번지 1층 2호","category":"일반휴게음식 - 일반한식"}]},{"lat":"37.63000449","long":"127.30171526","items":[{"name":"빛솔","tel":"031-593-3591","addr":"경기도 남양주시 화도읍 차산리 192-1 외1필지(192-4) 나동","category":"학원 - 기타 교육기관"}]},{"lat":"37.62989548","long":"127.30560047","items":[{"name":"삼흥화학","tel":"031-593-9334","addr":"경기도 남양주시 화도읍 차산리 226-2번지","category":"기타 - 기타 전문점"}]},{"lat":"37.63244547","long":"127.29110995","items":[{"name":"상상스토리","tel":"031-594-2229","addr":"경기도 남양주시 화도읍 차산리 746번지","category":"주방용구 - 주방용식기"}]},{"lat":"37.634033089","long":"127.29763028","items":[{"name":"서울철물","tel":"031-593-2667","addr":"경기도 남양주시 화도읍 차산리 133번지","category":"건축자재 - 기타건축자재"}]},{"lat":"37.63711321","long":"127.30168708","items":[{"name":"석정","tel":"031-595-9233","addr":"경기도 남양주시 화도읍 차산리 87-1번지","category":"일반휴게음식 - 일반한식"}]},{"lat":"37.627812078","long":"127.30644163","items":[{"name":"성광모피","tel":"02-2215-7459","addr":"경기도 남양주시 화도읍 차산리 237-29번지 가동","category":"의류 - 기타의류"}]},{"lat":"37.63511685","long":"127.303741","items":[{"name":"세븐일레븐남양주차산점","tel":"031-1577-0711","addr":"경기도 남양주시 화도읍 차산리 75번지","category":"유통업 영리 - 편 의 점"}]},{"lat":"37.635917244","long":"127.30782279","items":[{"name":"세븐일레븐차산풍림점","tel":"031-1577-0711","addr":"경기도 남양주시 화도읍 차산리 49번지 늘찬빌 201동 1층 101호","category":"유통업 영리 - 편 의 점"}]},{"lat":"37.633834418","long":"127.30493671","items":[{"name":"센토사 인터내셔널(SENTO SA INTENNATIONAL","tel":"031-513-4665","addr":"경기도 남양주시 화도읍 차산리 166-13번지 1동","category":"가구 - 일반가구"}]},{"lat":"37.638584012","long":"127.30435546","items":[{"name":"셀세모 마석","tel":"031-512-5474","addr":"경기도 남양주시 화도읍 차산리 95-18번지 외3필지","category":"자동차정비 유지 - 세차장"}]},{"lat":"37.63275382","long":"127.3082177","items":[{"name":"솔기","tel":"031-515-9389","addr":"경기도 남양주시 화도읍 차산리 19-3번지","category":"직물 - 옷감·직물"}]},{"lat":"37.62727933","long":"127.3033809","items":[{"name":"송어마을","tel":"031-591-8188","addr":"경기도 남양주시 화도읍 차산리 263-2번지 1층","category":"일반휴게음식 - 일반한식"}]},{"lat":"37.630112785","long":"127.3051822","items":[{"name":"송천포장","tel":"031-593-2568","addr":"경기도 남양주시 화도읍 차산리 227-1","category":"유통업 영리 - 기타유통업"},{"name":"주식회사산내들","tel":"031-559-3471","addr":"경기도 남양주시 화도읍 차산리 227-1번지","category":"음료식품 - 농·축·수산품"}]},{"lat":"37.636861962","long":"127.30482434","items":[{"name":"씨오헤어","tel":"031-592-7655","addr":"경기도 남양주시 화도읍 차산리 60-5번지 1층","category":"보건위생 - 미용원"},{"name":"안동국시","tel":"","addr":"경기도 남양주시 화도읍 차산리 60-5번지","category":"일반휴게음식 - 일반한식"},{"name":"용인대차산i태권도","tel":"031-594-6877","addr":"경기도 남양주시 화도읍 차산리 60-5번지 2층","category":"회원제형태 - 학원"},{"name":"치피떡","tel":"031-595-8070","addr":"경기도 남양주시 화도읍 차산리 60-5번지 1층 3호","category":"일반휴게음식 - 스넥"}]},{"lat":"37.627534277","long":"127.30232842","items":[{"name":"씨유화도고래산점","tel":"031-511-0627","addr":"경기도 남양주시 화도읍 차산리 208번지 101호","category":"유통업 영리 - 편 의 점"}]},{"lat":"37.633451774","long":"127.29224673","items":[{"name":"씨유화도원차산점","tel":"031-592-4483","addr":"경기도 남양주시 화도읍 차산리 771번지","category":"유통업 영리 - 편 의 점"},{"name":"에드워드소파","tel":"031-511-9580","addr":"경기도 남양주시 화도읍 차산리 771","category":"가구 - 일반가구"}]},{"lat":"37.634253574","long":"127.2922725","items":[{"name":"아모레카운셀러","tel":"031-593-3292","addr":"경기도 남양주시 화도읍 차산리 776-5번지","category":"보건위생 - 화장품"}]},{"lat":"37.63391919","long":"127.29269038","items":[{"name":"아우네","tel":"031-511-3838","addr":"경기도 남양주시 화도읍 차산리 776-6번지","category":"일반휴게음식 - 일반한식"}]},{"lat":"37.636113325","long":"127.30514986","items":[{"name":"아쿠아 덴","tel":"031-511-9661","addr":"경기도 남양주시 화도읍 차산리 875번지 신창현풍림아이원1차 102동 1301호","category":"전기제품 - 가전제품"}]},{"lat":"37.633757151","long":"127.30344097","items":[{"name":"아쿠아가든 남양주점","tel":"","addr":"경기도 남양주시 화도읍 차산리 156-2번지 내 156-15","category":"문화.취미 - 애완동물"}]},{"lat":"37.619087033","long":"127.30785598","items":[{"name":"알뜰시장","tel":"031-0000-0000","addr":"경기도 남양주시 화도읍 차산리 372-7번지 102호","category":"회원제형태 - 기타1"},{"name":"웅이네농산","tel":"031-594-1124","addr":"경기도 남양주시 화도읍 차산리 372-7번지","category":"음료식품 - 농·축·수산품"}]},{"lat":"37.633341149","long":"127.30405106","items":[{"name":"약수수퍼","tel":"031-593-8842","addr":"경기도 남양주시 화도읍 차산리 165-6번지 약수빌딩 101호","category":"음료식품 - 기타음료식품"}]},{"lat":"37.628418224","long":"127.30193548","items":[{"name":"양지토탈기획","tel":"02-434-2374","addr":"경기도 남양주시 화도읍 차산리 204-4번지","category":"유통업 영리 - 슈퍼마켓"},{"name":"제일장갑테이프","tel":"031-593-7373","addr":"경기도 남양주시 화도읍 차산리 204-4번지","category":"신변잡화 - 기타잡화"}]},{"lat":"37.636174532","long":"127.30587519","items":[{"name":"어드벤처뮤직학원","tel":"031-595-2529","addr":"경기도 남양주시 화도읍 차산리 875번지 신창현풍림아이원1차 상가동 2층 201호","category":"학원 - 예·체능계학원"},{"name":"여니미스토리","tel":"031-515-6537","addr":"경기도 남양주시 화도읍 차산리 875 풍림아이원1차상가 102호","category":"보건위생 - 미용원"},{"name":"이마트24 차산풍림점","tel":"","addr":"경기도 남양주시 화도읍 차산리 875번지 신창현풍림아이원1차 상가동 103호","category":"유통업 영리 - 편 의 점"}]},{"lat":"37.62875158","long":"127.30193681","items":[{"name":"엄마밥상","tel":"02-1594-5798","addr":"경기도 남양주시 화도읍 차산리 204-3번지","category":"일반휴게음식 - 일반한식"}]},{"lat":"37.623810453","long":"127.28893571","items":[{"name":"에덴850","tel":"","addr":"경기도 남양주시 화도읍 차산리 850-4번지 에덴추모공원 1층","category":"음료식품 - 기타음료식품"},{"name":"재단법인 에덴","tel":"031-591-7758","addr":"경기도 남양주시 화도읍 차산리 850-4번지","category":"용역 서비스 - 가례서비스업"}]},{"lat":"37.627000378","long":"127.30324384","items":[{"name":"에스와이 디자인 (SY DESIGN)","tel":"070-4202-1075","addr":"경기도 남양주시 화도읍 차산리 261-4번지 1층","category":"가구 - 일반가구"}]},{"lat":"37.632728891","long":"127.29310492","items":[{"name":"에스크","tel":"031-592-2494","addr":"경기도 남양주시 화도읍 차산리 725번지","category":"가구 - 일반가구"}]},{"lat":"37.619922999","long":"127.30510696","items":[{"name":"에이스","tel":"031-000-0000","addr":"경기도 남양주시 화도읍 차산리 357-21번지","category":"자동차정비 유지 - 자동차부품"}]},{"lat":"37.63389516","long":"127.29146675","items":[{"name":"엘킨어학원","tel":"031-595-0060","addr":"경기도 남양주시 화도읍 차산리 770-3번지 2층","category":"회원제형태 - 학원"},{"name":"자연숲생태어린이집[아이행복]","tel":"031-593-8890","addr":"경기도 남양주시 화도읍 차산리 770-3번지","category":"학원 - 유아원"}]},{"lat":"37.634087563","long":"127.30809854","items":[{"name":"엠에스쥐(msg)","tel":"","addr":"경기도 남양주시 화도읍 차산리 37-8번지 나동 1층","category":"일반휴게음식 - 서양음식"}]},{"lat":"37.624756876","long":"127.28876943","items":[{"name":"영광운송","tel":"031-593-0019","addr":"경기도 남양주시 화도읍 차산리 846","category":"용역 서비스 - 가례서비스업"}]},{"lat":"37.636450501","long":"127.30365575","items":[{"name":"영동카프라자","tel":"031-511-7080","addr":"경기도 남양주시 화도읍 차산리 63-14번지","category":"자동차정비 유지 - 자동차정비"},{"name":"피어스트퍼시픽(주)","tel":"","addr":"경기도 남양주시 화도읍 차산리 63-14번지","category":"보건위생 - 화장품"}]},{"lat":"37.6249538","long":"127.29663158","items":[{"name":"영파이팅","tel":"031-551-9375","addr":"경기도 남양주시 화도읍 차산리 650-2","category":"주방용구 - 주방용구"}]},{"lat":"37.635946599","long":"127.30340447","items":[{"name":"예맥","tel":"595-595-1127","addr":"경기도 남양주시 화도읍 차산리 76-1번지","category":"신변잡화 - 기념품점"}]},{"lat":"37.626286583","long":"127.3004883","items":[{"name":"예스 아이템","tel":"","addr":"경기도 남양주시 화도읍 차산리 664-3번지","category":"신변잡화 - 기타잡화"}]},{"lat":"37.632229378","long":"127.29105247","items":[{"name":"옛맛","tel":"031-593-3763","addr":"경기도 남양주시 화도읍 차산리 738번지","category":"일반휴게음식 - 스넥"}]},{"lat":"37.637890707","long":"127.30418271","items":[{"name":"올품축산","tel":"031-511-8648","addr":"경기도 남양주시 화도읍 차산리 63-6번지","category":"음료식품 - 정육점"},{"name":"왕빨대","tel":"031-593-5605","addr":"경기도 남양주시 화도읍 차산리 63-6번지 1층","category":"일반휴게음식 - 주점"}]},{"lat":"37.633507666","long":"127.29515849","items":[{"name":"우신기획","tel":"031-877-8650","addr":"경기도 남양주시 화도읍 차산리 775-6번지","category":"용역 서비스 - 종합용역"}]},{"lat":"37.626532409","long":"127.29946977","items":[{"name":"원푸드","tel":"031-593-6599","addr":"경기도 남양주시 화도읍 차산리 669-5번지 1층","category":"음료식품 - 농·축·수산품"}]},{"lat":"37.634251506","long":"127.30035012","items":[{"name":"유명가설산업","tel":"031-595-4204","addr":"경기도 남양주시 화도읍 차산리 140","category":"기타 - 기계공구"}]},{"lat":"37.62622906","long":"127.30185874","items":[{"name":"유병은부동산","tel":"031-593-1907","addr":"경기도 남양주시 화도읍 차산리 274-2번지 274호","category":"용역 서비스 - 부동산 중개·임대"}]},{"lat":"37.633417289","long":"127.29527143","items":[{"name":"유신타이어","tel":"031-511-5112","addr":"경기도 남양주시 화도읍 차산리 775-2","category":"자동차정비 유지 - 자동차시트·타이어"}]},{"lat":"37.62739759","long":"127.29210998","items":[{"name":"유엠 주식회사","tel":"031-595-2230","addr":"경기도 남양주시 화도읍 차산리 861-6번지","category":"전기제품 - 가전제품"}]},{"lat":"37.618282231","long":"127.30549675","items":[{"name":"유원플랜트","tel":"02-478-1194","addr":"경기도 남양주시 화도읍 차산리 561번지","category":"용역 서비스 - 기타용역서비스"}]},{"lat":"37.633674649","long":"127.30399576","items":[{"name":"윤덕쇼파","tel":"031-511-1356","addr":"경기도 남양주시 화도읍 차산리 166-6번지","category":"가구 - 일반가구"}]},{"lat":"37.635586519","long":"127.3068018","items":[{"name":"윤선생우리집앞영어교실차산공부방","tel":"070-8210-7422","addr":"경기도 남양주시 화도읍 차산리 875번지 신창현풍림아이원1차 105동 1204호","category":"회원제형태 - 학원"}]},{"lat":"37.63442464","long":"127.30313777","items":[{"name":"은성비빔국수칼국수","tel":"031-511-4530","addr":"경기도 남양주시 화도읍 차산리 159-7번지","category":"일반휴게음식 - 일반한식"}]},{"lat":"37.618562893","long":"127.30496554","items":[{"name":"은성퍼니처ESF","tel":"031-593-8136","addr":"경기도 남양주시 화도읍 차산리 559-3","category":"가구 - 일반가구"}]},{"lat":"37.622342435","long":"127.30321378","items":[{"name":"이마트24 차산공단점","tel":"","addr":"경기도 남양주시 화도읍 차산리 307-3번지 1층","category":"유통업 영리 - 편 의 점"}]},{"lat":"37.638757477","long":"127.30346111","items":[{"name":"인치업타운","tel":"031-593-7416","addr":"경기도 남양주시 화도읍 차산리 97-5번지","category":"자동차정비 유지 - 자동차시트·타이어"}]},{"lat":"37.635333513","long":"127.30357194","items":[{"name":"장어명가","tel":"031-511-5887","addr":"경기도 남양주시 화도읍 차산리 76-20번지","category":"일반휴게음식 - 일반한식"},{"name":"장어명가수산","tel":"031-511-5887","addr":"경기도 남양주시 화도읍 차산리 76-20번지 1층","category":"음료식품 - 농·축·수산품"}]},{"lat":"37.632119017","long":"127.30279996","items":[{"name":"정원산업","tel":"031-594-3007","addr":"경기도 남양주시 화도읍 차산리 150번지","category":"기타 - 기계공구"}]},{"lat":"37.628064434","long":"127.30288562","items":[{"name":"정일품","tel":"031-521-0366","addr":"경기도 남양주시 화도읍 차산리 211-1번지","category":"일반휴게음식 - 일반한식"}]},{"lat":"37.623868945","long":"127.28710088","items":[{"name":"제영ENG","tel":"031-511-0502","addr":"경기도 남양주시 화도읍 차산리 872-5번지","category":"기타 - 기계공구"}]},{"lat":"37.635949729","long":"127.30570434","items":[{"name":"제임스아카데미","tel":"031-515-5506","addr":"경기도 남양주시 화도읍 차산리 875번지 신창현풍림아이원1차 103동 305호","category":"학원 - 기타 교육기관"}]},{"lat":"37.634673111","long":"127.29749686","items":[{"name":"주식회사 머치슨앤파이워터","tel":"031-595-4559","addr":"경기도 남양주시 화도읍 차산리 114-4번지","category":"주방용구 - 정수기"}]},{"lat":"37.619643642","long":"127.30512849","items":[{"name":"주식회사 에스케이전기","tel":"031-511-9935","addr":"경기도 남양주시 화도읍 차산리 357-15번지","category":"용역 서비스 - 기타용역서비스"}]},{"lat":"37.627280802","long":"127.30632619","items":[{"name":"주식회사 원환경솔루션","tel":"031-595-5463","addr":"경기도 남양주시 화도읍 차산리 237-17번지 1층","category":"전기제품 - 기타전기제품"},{"name":"화도ENG","tel":"031-559-9254","addr":"경기도 남양주시 화도읍 차산리 237-17번지 1층","category":"주방용구 - 주방용구"}]},{"lat":"37.619338599","long":"127.30812885","items":[{"name":"주식회사 이에프티코리아","tel":"070-8827-2665","addr":"경기도 남양주시 화도읍 차산리 386-2번지","category":"서적문구 - 출판 및 인쇄물"}]},{"lat":"37.624115656","long":"127.30387791","items":[{"name":"주식회사 인옥션","tel":"031-595-7290","addr":"경기도 남양주시 화도읍 차산리 300-1번지","category":"문화.취미 - 골동품점"}]},{"lat":"37.630453013","long":"127.28794161","items":[{"name":"주식회사 재림종합상사","tel":"031-574-1118","addr":"경기도 남양주시 화도읍 차산리 827-2번지 가동","category":"건축자재 - 기타건축자재"}]},{"lat":"37.626730706","long":"127.29943657","items":[{"name":"주식회사 제이디에이치산업","tel":"031-0000-0000","addr":"경기도 남양주시 화도읍 차산리 669-7번지","category":"음료식품 - 기타음료식품"}]},{"lat":"37.633839604","long":"127.2920783","items":[{"name":"주식회사 청담아이스","tel":"031-593-0490","addr":"경기도 남양주시 화도읍 차산리 778번지","category":"유통업 영리 - 기타유통업"}]},{"lat":"37.630336078","long":"127.30594211","items":[{"name":"주식회사전시렌탈일일구","tel":"031-1800-7221","addr":"경기도 남양주시 화도읍 차산리 225-1번지 (전시렌탈119)","category":"가구 - 기타가구"}]},{"lat":"37.628200074","long":"127.30621665","items":[{"name":"지미디자인","tel":"031-594-1202","addr":"경기도 남양주시 화도읍 차산리 237-50번지","category":"가구 - 일반가구"}]},{"lat":"37.623287236","long":"127.30013652","items":[{"name":"지민푸드시스템","tel":"031-523-2060","addr":"경기도 남양주시 화도읍 차산리 630-2번지 외2필지","category":"음료식품 - 기타음료식품"}]},{"lat":"37.637728303","long":"127.3042727","items":[{"name":"진수성찬","tel":"031-511-9293","addr":"경기도 남양주시 화도읍 차산리 63-18번지 1층","category":"일반휴게음식 - 일반한식"},{"name":"참맛오향족발보쌈","tel":"031-593-3801","addr":"경기도 남양주시 화도읍 차산리 63-18번지 101호","category":"일반휴게음식 - 일반한식"}]},{"lat":"37.623397684","long":"127.30277625","items":[{"name":"진식당부페","tel":"031-594-2922","addr":"경기도 남양주시 화도읍 차산리 304번지 1층","category":"일반휴게음식 - 일반한식"}]},{"lat":"37.633838659","long":"127.29246348","items":[{"name":"차산찜마을","tel":"031-595-4769","addr":"경기도 남양주시 화도읍 차산리 777","category":"일반휴게음식 - 일반한식"}]},{"lat":"37.636005861","long":"127.3013541","items":[{"name":"차산초등학교병설유치원[아이행복]","tel":"031-593-0706","addr":"경기도 남양주시 화도읍 차산리 79-9번지 차산초등학교","category":"학원 - 유치원"}]},{"lat":"37.634000006","long":"127.30360055","items":[{"name":"차산카센타","tel":"031-595-1041","addr":"경기도 남양주시 화도읍 차산리 159-9","category":"자동차정비 유지 - 자동차정비"}]},{"lat":"37.620945619","long":"127.29977606","items":[{"name":"차산프레스트빌","tel":"031-2266-6929","addr":"경기도 남양주시 화도읍 차산리 599-13번지","category":"건축자재 - 부동산 분양"}]},{"lat":"37.631615644","long":"127.29149192","items":[{"name":"창조ENG","tel":"031-594-3083","addr":"경기도 남양주시 화도읍 차산리 734-5번지","category":"건축자재 - 인테리어전문"}]},{"lat":"37.626453411","long":"127.3022108","items":[{"name":"충남화학","tel":"","addr":"경기도 남양주시 화도읍 차산리 275번지 대영코리아","category":"유통업 영리 - 기타유통업"}]},{"lat":"37.629194599","long":"127.30132686","items":[{"name":"커피 바르도","tel":"070-4789-2381","addr":"경기도 남양주시 화도읍 차산리 199-4번지","category":"보건위생 - 기타대인서비스"}]},{"lat":"37.6300306","long":"127.30207788","items":[{"name":"케이현대자동차공업사 주식회사","tel":"031-559-1215","addr":"경기도 남양주시 화도읍 차산리 192-2번지","category":"자동차정비 유지 - 자동차정비"}]},{"lat":"37.635714344","long":"127.30614522","items":[{"name":"코벤트","tel":"031-577-9841","addr":"경기도 남양주시 화도읍 차산리 875번지 신창현풍림아이원1차 104동 1102호","category":"가구 - 일반가구"},{"name":"풍림둥지어린이집[아이행복]","tel":"031-512-0909","addr":"경기도 남양주시 화도읍 차산리 875번지 신장현풍림아이원1차 104동 102호","category":"학원 - 유아원"}]},{"lat":"37.635694186","long":"127.3034601","items":[{"name":"쿡솜씨 화도점","tel":"","addr":"경기도 남양주시 화도읍 차산리 76-2번지 1층 좌측호","category":"음료식품 - 기타음료식품"}]},{"lat":"37.633645362","long":"127.3048793","items":[{"name":"태림문구","tel":"031-559-4901","addr":"경기도 남양주시 화도읍 차산리 166-3번지","category":"서적문구 - 문구용품"}]},{"lat":"37.634142788","long":"127.29699629","items":[{"name":"태성브라인드","tel":"031-591-2031","addr":"경기도 남양주시 화도읍 차산리 115번지 1,3층","category":"직물 - 카페트,커튼,천막,지물"}]},{"lat":"37.632780846","long":"127.3047172","items":[{"name":"토마토어린이집[아이행복]","tel":"031-511-7412","addr":"경기도 남양주시 화도읍 차산리 173-1","category":"학원 - 유아원"}]},{"lat":"37.625837073","long":"127.30010136","items":[{"name":"티알에스(T.R.S)","tel":"031-559-6872","addr":"경기도 남양주시 화도읍 차산리 662-1번지","category":"가구 - 일반가구"}]},{"lat":"37.629701541","long":"127.3003773","items":[{"name":"티피오인터내셔널","tel":"031-559-5017","addr":"경기도 남양주시 화도읍 차산리 686번지 1층","category":"레져용품 - 스포츠·레져용품"}]},{"lat":"37.62095037","long":"127.30146381","items":[{"name":"파티컴","tel":"031-775-0073","addr":"경기도 남양주시 화도읍 차산리 331-7번지 1층","category":"일반휴게음식 - 일반한식"}]},{"lat":"37.63855918","long":"127.3034943","items":[{"name":"평화모터","tel":"031-594-9197","addr":"경기도 남양주시 화도읍 차산리 94-3","category":"기타 - 기계공구"}]},{"lat":"37.633396131","long":"127.30368875","items":[{"name":"풍년","tel":"031-591-9211","addr":"경기도 남양주시 화도읍 차산리 164-3번지 1층 일부","category":"일반휴게음식 - 일반한식"}]},{"lat":"37.634201547","long":"127.30582186","items":[{"name":"풍천장어랑갈비랑","tel":"031-591-9282","addr":"경기도 남양주시 화도읍 차산리 169번지","category":"일반휴게음식 - 일반한식"}]},{"lat":"37.628896996","long":"127.30143895","items":[{"name":"플랜트202","tel":"031-594-2021","addr":"경기도 남양주시 화도읍 차산리 202-5번지 1층","category":"일반휴게음식 - 서양음식"}]},{"lat":"37.636063291","long":"127.30357488","items":[{"name":"피알시대","tel":"031-511-1580","addr":"경기도 남양주시 화도읍 차산리 64-2번지","category":"용역 서비스 - 종합용역"}]},{"lat":"37.630786482","long":"127.291602","items":[{"name":"한국SYSTEM","tel":"031-559-4997","addr":"경기도 남양주시 화도읍 차산리 702","category":"건축자재 - 조명기구"}]},{"lat":"37.633587219","long":"127.29938451","items":[{"name":"한국중고자원","tel":"031-559-8994","addr":"경기도 남양주시 화도읍 차산리 138-2","category":"건축자재 - 목재·석재·철물"}]},{"lat":"37.631557476","long":"127.30746512","items":[{"name":"헤르만쇼파","tel":"031-591-3738","addr":"경기도 남양주시 화도읍 차산리 25-2번지","category":"가구 - 일반가구"}]},{"lat":"37.634277254","long":"127.29726872","items":[{"name":"효실버노인복지센터","tel":"031-555-5095","addr":"경기도 남양주시 화도읍 차산리 115-4번지","category":"기타의료기관 - 기타의료기관 및 기타"}]},{"lat":"37.636451324","long":"127.30685064","items":[{"name":"희망철물","tel":"031-511-3995","addr":"경기도 남양주시 화도읍 차산리 52","category":"건축자재 - 목재·석재·철물"}]}]