[{"lat":"37.382960824","long":"127.63765858","items":[{"name":"가당","tel":"031-884-9253","addr":"경기도 여주시 대신면 상구리 209번지","category":"일반휴게음식 - 일반한식"}]},{"lat":"37.373128483","long":"127.64313018","items":[{"name":"대광연탄","tel":"031-883-6331","addr":"경기도 여주시 대신면 상구리 351-3번지","category":"연료판매점 - 기타연료"}]},{"lat":"37.380405232","long":"127.63368532","items":[{"name":"대성토종닭요리전문점","tel":"031-883-0801","addr":"경기도 여주시 대신면 상구리 231번지","category":"일반휴게음식 - 일반한식"}]},{"lat":"37.389789458","long":"127.63446405","items":[{"name":"쇠불도예연구소","tel":"031-881-0342","addr":"경기도 여주시 대신면 상구리 128번지","category":"문화.취미 - 민예·공예품"}]},{"lat":"37.383847032","long":"127.63705633","items":[{"name":"토담정","tel":"031-884-0655","addr":"경기도 여주시 대신면 상구리 201-6번지","category":"일반휴게음식 - 일반한식"}]}]