[{"lat":"37.195141867","long":"127.54389503","imageIndex":17,"items":[{"name":"가남자원","tel":"031-884-5665","addr":"경기도 여주시 가남읍 건장리 190번지","indutype":"건축자재 - 목재·석재·철물","category":"other"}]},{"lat":"37.195899212","long":"127.54967843","imageIndex":17,"items":[{"name":"대호산업","tel":"031-881-3004","addr":"경기도 여주시 가남읍 건장리 142-23번지","indutype":"건축자재 - 기타건축자재","category":"other"}]},{"lat":"37.196698084","long":"127.55033746","imageIndex":17,"items":[{"name":"미러클","tel":"031-1588-1839","addr":"경기도 여주시 가남읍 건장리 142-15번지","indutype":"건축자재 - 인테리어전문","category":"other"}]},{"lat":"37.19983849","long":"127.54537031","imageIndex":17,"items":[{"name":"반석부동산컨설팅","tel":"031-882-1800","addr":"경기도 여주시 가남읍 건장리 161번지","indutype":"용역 서비스 - 부동산 중개·임대","category":"other"},{"name":"발해","tel":"031-882-5114","addr":"경기도 여주시 가남읍 건장리 161번지","indutype":"전기제품 - 기타전기제품","category":"other"}]},{"lat":"37.200812054","long":"127.54723581","imageIndex":17,"items":[{"name":"법무사김영준","tel":"031-885-0089","addr":"경기도 여주시 가남읍 건장리 148-5번지","indutype":"용역 서비스 - 법률회계서비스(개인)","category":"other"}]},{"lat":"37.195616137","long":"127.54853882","imageIndex":17,"items":[{"name":"세븐일레븐여주건장사거리점","tel":"","addr":"경기도 여주시 가남읍 건장리 142-33번지","indutype":"유통업 영리 - 편 의 점","category":"other"},{"name":"월드산업개발","tel":"031-883-3909","addr":"경기도 여주시 가남읍 건장리 142-33번지 1층","indutype":"용역 서비스 - 사무서비스","category":"other"}]},{"lat":"37.197755391","long":"127.54770946","imageIndex":17,"items":[{"name":"와이제이공조","tel":"031-884-0244","addr":"경기도 여주시 가남읍 건장리 151-12번지","indutype":"전기제품 - 냉열기기","category":"other"}]},{"lat":"37.192621353","long":"127.54731216","imageIndex":17,"items":[{"name":"일신도예","tel":"031-884-7197","addr":"경기도 여주시 가남읍 건장리 131-8번지","indutype":"회원제형태 - 기타4","category":"other"}]},{"lat":"37.200673227","long":"127.54803455","imageIndex":17,"items":[{"name":"현대자원","tel":"031-883-3277","addr":"경기도 여주시 가남읍 건장리 148-3번지","indutype":"신변잡화 - 기타잡화","category":"other"}]}]