[{"lat":"37.272060087","long":"127.71309921","items":[{"name":"GS25여주강천점","tel":"","addr":"경기도 여주시 강천면 간매리 272-11번지","category":"유통업 영리 - 편 의 점"},{"name":"강천슈퍼","tel":"031-882-5941","addr":"경기도 여주시 강천면 간매리 272-11번지","category":"유통업 영리 - 슈퍼마켓"}]},{"lat":"37.270835918","long":"127.71888266","items":[{"name":"가람하우스","tel":"031-881-5055","addr":"경기도 여주시 강천면 간매리 424-2번지","category":"농업 - 기타농업관련"}]},{"lat":"37.274362643","long":"127.7077428","items":[{"name":"간매사철탕","tel":"031-881-0598","addr":"경기도 여주시 강천면 간매리 240번지","category":"일반휴게음식 - 일반한식"}]},{"lat":"37.271584684","long":"127.71424473","items":[{"name":"간매철물점","tel":"031-881-5936","addr":"경기도 여주시 강천면 간매리 275-10번지","category":"건축자재 - 목재·석재·철물"}]},{"lat":"37.272196245","long":"127.71293138","items":[{"name":"강천당구클럽","tel":"031-881-3437","addr":"경기도 여주시 강천면 간매리 272-1번지","category":"레저업소 - 당 구 장"},{"name":"덕희네감자탕","tel":"031-882-6523","addr":"경기도 여주시 강천면 간매리 272-1번지","category":"일반휴게음식 - 일반한식"}]},{"lat":"37.272944015","long":"127.71143889","items":[{"name":"강천면사무소","tel":"031-887-3993","addr":"경기도 여주시 강천면 간매리 311-2번지","category":"용역 서비스 - 사무서비스"}]},{"lat":"37.271079595","long":"127.71582965","items":[{"name":"강천우체국","tel":"031-882-6004","addr":"경기도 여주시 강천면 간매리 302-6번지","category":"용역 서비스 - 공공요금대행서비스/소"}]},{"lat":"37.270972699","long":"127.71262676","items":[{"name":"강천중학교","tel":"070-8768-6741","addr":"경기도 여주시 강천면 간매리 268-1번지 강천중학교","category":"학원 - 초중고교육기관"}]},{"lat":"37.267943456","long":"127.71443595","items":[{"name":"강천철물","tel":"031-883-1011","addr":"경기도 여주시 강천면 간매리 480-7번지 1동 104호","category":"건축자재 - 목재·석재·철물"},{"name":"주식회사 강천전기","tel":"02-1882-0481","addr":"경기도 여주시 강천면 간매리 480-7번지 101호","category":"전기제품 - 기타전기제품"}]},{"lat":"37.268803101","long":"127.71979914","items":[{"name":"강천초등학교","tel":"","addr":"경기도 여주시 강천면 간매리 443번지 강천초등학교","category":"학원 - 초중고교육기관"},{"name":"강천초등학교병설유치원[아이행복]","tel":"031-881-1356","addr":"경기도 여주시 강천면 간매리 443번지 강천초등학교","category":"학원 - 유치원"}]},{"lat":"37.27197467","long":"127.71381997","items":[{"name":"강천호프","tel":"031-881-5305","addr":"경기도 여주시 강천면 간매리 274-5번지 2층","category":"일반휴게음식 - 일반한식"},{"name":"대성건강원","tel":"031-881-4377","addr":"경기도 여주시 강천면 간매리 274-5번지","category":"건강식품 - 기타건강식품"},{"name":"도환뼈다귀감자탕","tel":"031-883-0034","addr":"경기도 여주시 강천면 간매리 274-5번지","category":"일반휴게음식 - 일반한식"}]},{"lat":"37.264447578","long":"127.71891236","items":[{"name":"걸구쟁이","tel":"031-885-9875","addr":"경기도 여주시 강천면 간매리 496-5번지","category":"음료식품 - 농·축·수산품"},{"name":"걸구쟁이네","tel":"031-885-9875","addr":"경기도 여주시 강천면 간매리 496-5번지","category":"일반휴게음식 - 일반한식"}]},{"lat":"37.261837905","long":"127.71688109","items":[{"name":"노적봉미니슈퍼","tel":"031-886-2588","addr":"경기도 여주시 강천면 간매리 502-41번지","category":"유통업 영리 - 슈퍼마켓"},{"name":"노적봉한정식부페","tel":"031-886-2588","addr":"경기도 여주시 강천면 간매리 502-41번지","category":"일반휴게음식 - 일반한식"}]},{"lat":"37.28030825","long":"127.71843114","items":[{"name":"다솔농원","tel":"031-882-6134","addr":"경기도 여주시 강천면 간매리 20","category":"음료식품 - 농·축·수산품"}]},{"lat":"37.272281029","long":"127.70930181","items":[{"name":"마산아구찜. 탕","tel":"031-884-7669","addr":"경기도 여주시 강천면 간매리 263번지","category":"일반휴게음식 - 일반한식"}]},{"lat":"37.272778535","long":"127.71198979","items":[{"name":"마이웨이","tel":"031-883-3938","addr":"경기도 여주시 강천면 간매리 310번지","category":"일반휴게음식 - 주점"},{"name":"조선옥","tel":"031-883-3939","addr":"경기도 여주시 강천면 간매리 310번지","category":"일반휴게음식 - 일반한식"}]},{"lat":"37.271774428","long":"127.71415632","items":[{"name":"매화반점","tel":"031-883-1808","addr":"경기도 여주시 강천면 간매리 274-3번지","category":"일반휴게음식 - 중국식"}]},{"lat":"37.271053458","long":"127.71418336","items":[{"name":"삿갓봉정육점","tel":"031-884-1461","addr":"경기도 여주시 강천면 간매리 280-2번지","category":"음료식품 - 정육점"}]},{"lat":"37.2776647837","long":"127.7069955946","items":[{"name":"에디션 오브 북아트(EditionofBookarts)","tel":"070-7571-6467","addr":"경기도 여주시 강천면 간매리 201-12번지","category":"문화.취미 - 화방·표구점"}]},{"lat":"37.2634427","long":"127.71671587","items":[{"name":"유덕첨단소재 (주)","tel":"031-884-8857","addr":"경기도 여주시 강천면 간매리 502-1번지","category":"전기제품 - 기타전기제품"}]},{"lat":"37.272809028","long":"127.70990429","items":[{"name":"주식회사 새한컨테이너","tel":"031-886-1170","addr":"경기도 여주시 강천면 간매리 259번지","category":"건축자재 - 기타건축자재"}]},{"lat":"37.272833026","long":"127.71041187","items":[{"name":"창성포장산업","tel":"031-884-9250","addr":"경기도 여주시 강천면 간매리 259-5번지","category":"기타 - 기타 전문점"}]},{"lat":"37.264310457","long":"127.71923799","items":[{"name":"카페여주","tel":"","addr":"경기도 여주시 강천면 간매리 496-2번지","category":"음료식품 - 농·축·수산품"},{"name":"카페여주","tel":"","addr":"경기도 여주시 강천면 간매리 496-2번지","category":"일반휴게음식 - 일반한식"}]},{"lat":"37.272530539","long":"127.70976639","items":[{"name":"한미공업사","tel":"031-884-1259","addr":"경기도 여주시 강천면 간매리 259-2번지","category":"자동차정비 유지 - 중장비수리"}]},{"lat":"37.270663674","long":"127.71457429","items":[{"name":"할머니순두부","tel":"031-883-5747","addr":"경기도 여주시 강천면 간매리 281-2번지 1층","category":"일반휴게음식 - 일반한식"}]}]