[{"lat":"37.486941927","long":"127.47901121","imageIndex":16,"items":[{"name":"뮤엠영어 (강상초NEST)","tel":"031-774-8272","addr":"경기도 양평군 강상면 병산리 1208번지 양평2차휴먼빌 103동 104호","indutype":"학원 - 기타 교육기관","category":"study"},{"name":"휴먼빌어린이집[아이행복]","tel":"031-775-7125","addr":"경기도 양평군 강상면 병산리 1208번지 양평2차휴먼빌","indutype":"학원 - 유아원","category":"study"}]},{"lat":"37.489636002","long":"127.46306262","imageIndex":16,"items":[{"name":"사임당어린이집[아이행복]","tel":"031-771-6233","addr":"경기도 양평군 강상면 병산리 604번지","indutype":"학원 - 유아원","category":"study"}]},{"lat":"37.487215431","long":"127.4804489","imageIndex":16,"items":[{"name":"영피아노뮤직아카데미학원","tel":"031-775-5659","addr":"경기도 양평군 강상면 병산리 29-3번지","indutype":"학원 - 예·체능계학원","category":"study"},{"name":"유쌤수학교습소","tel":"031-775-8823","addr":"경기도 양평군 강상면 병산리 29-3번지 한흥 1동 104호","indutype":"학원 - 보습학원","category":"study"},{"name":"한울가람관","tel":"031-774-1227","addr":"경기도 양평군 강상면 병산리 29-3번지 2층 202호","indutype":"학원 - 예·체능계학원","category":"study"}]},{"lat":"37.489468875","long":"127.47572557","imageIndex":16,"items":[{"name":"자연숲어린이집[아이행복]","tel":"031-774-6580","addr":"경기도 양평군 강상면 병산리 753-2번지","indutype":"학원 - 유아원","category":"study"}]},{"lat":"37.494854806","long":"127.45787038","imageIndex":16,"items":[{"name":"하얀꼬마숲어린이집[아이행복]","tel":"","addr":"경기도 양평군 강상면 병산리 1020번지","indutype":"학원 - 유아원","category":"study"}]}]