[{"lat":"37.23005002","long":"127.1048043","imageIndex":4,"items":[{"name":"Promise Land/재단법인 예일선교회","tel":"031-8005-7711","addr":"경기도 용인시 기흥구 고매동 553-5번지","indutype":"일반휴게음식 - 서양음식","category":"restaurant"},{"name":"오유스튜디오","tel":"070-5044-7255","addr":"경기도 용인시 기흥구 고매동 553-5번지 1층","indutype":"일반휴게음식 - 서양음식","category":"restaurant"}]},{"lat":"37.226550178","long":"127.10916025","imageIndex":4,"items":[{"name":"가덕","tel":"031-286-4063","addr":"경기도 용인시 기흥구 고매동 377-50번지 1층","indutype":"일반휴게음식 - 일반한식","category":"restaurant"},{"name":"오뜨아르","tel":"031-285-5225","addr":"경기도 용인시 기흥구 고매동 377-50번지 1층","indutype":"일반휴게음식 - 서양음식","category":"restaurant"}]},{"lat":"37.225580485","long":"127.10527153","imageIndex":4,"items":[{"name":"경복궁","tel":"031-287-1003","addr":"경기도 용인시 기흥구 고매동 410-7번지","indutype":"일반휴게음식 - 일반한식","category":"restaurant"}]},{"lat":"37.227493438","long":"127.10202894","imageIndex":4,"items":[{"name":"고매골추어탕","tel":"031-275-7938","addr":"경기도 용인시 기흥구 고매동 535-7번지 1층","indutype":"일반휴게음식 - 일반한식","category":"restaurant"},{"name":"하우스포차","tel":"031-282-8565","addr":"경기도 용인시 기흥구 고매동 535-7번지","indutype":"일반휴게음식 - 일반한식","category":"restaurant"}]},{"lat":"37.221549833","long":"127.10871381","imageIndex":4,"items":[{"name":"고매루","tel":"031-283-2480","addr":"경기도 용인시 기흥구 고매동 448-2번지","indutype":"일반휴게음식 - 중국식","category":"restaurant"}]},{"lat":"37.223743044","long":"127.09338192","imageIndex":4,"items":[{"name":"고매쭈꾸미","tel":"031-211-1033","addr":"경기도 용인시 기흥구 고매동 842-10번지","indutype":"일반휴게음식 - 일반한식","category":"restaurant"}]},{"lat":"37.221801892","long":"127.09838221","imageIndex":4,"items":[{"name":"고향칼국수.백반","tel":"031-286-8611","addr":"경기도 용인시 기흥구 고매동 726-1번지 1층","indutype":"일반휴게음식 - 일반한식","category":"restaurant"}]},{"lat":"37.224048583","long":"127.13296489","imageIndex":4,"items":[{"name":"구매골식당","tel":"031-284-0536","addr":"경기도 용인시 기흥구 고매동 67-2번지","indutype":"일반휴게음식 - 일반한식","category":"restaurant"}]},{"lat":"37.222915579","long":"127.10274405","imageIndex":4,"items":[{"name":"기흥민물장어","tel":"031-286-9717","addr":"경기도 용인시 기흥구 고매동 525-19번지","indutype":"일반휴게음식 - 일반한식","category":"restaurant"},{"name":"기흥파크","tel":"031-8-9717","addr":"경기도 용인시 기흥구 고매동 525-19번지","indutype":"일반휴게음식 - 갈비전문점","category":"restaurant"}]},{"lat":"37.230576068","long":"127.10071457","imageIndex":4,"items":[{"name":"기흥수상","tel":"031-285-2953","addr":"경기도 용인시 기흥구 고매동 567번지 1층","indutype":"일반휴게음식 - 일반한식","category":"restaurant"},{"name":"수","tel":"070-8545-6666","addr":"경기도 용인시 기흥구 고매동 567번지 2층","indutype":"일반휴게음식 - 서양음식","category":"restaurant"},{"name":"자작나무","tel":"031-283-0074","addr":"경기도 용인시 기흥구 고매동 567번지 2층","indutype":"일반휴게음식 - 일반한식","category":"restaurant"}]},{"lat":"37.223130506","long":"127.10429923","imageIndex":4,"items":[{"name":"기흥한우집","tel":"031-282-4684","addr":"경기도 용인시 기흥구 고매동 413-17번지 외3필지 1층","indutype":"일반휴게음식 - 일반한식","category":"restaurant"}]},{"lat":"37.229248506","long":"127.10432996","imageIndex":4,"items":[{"name":"김가네 바지락손칼국수","tel":"031-285-3568","addr":"경기도 용인시 기흥구 고매동 551-3번지","indutype":"일반휴게음식 - 일반한식","category":"restaurant"}]},{"lat":"37.230636094","long":"127.11436073","imageIndex":4,"items":[{"name":"능내집","tel":"031-286-0896","addr":"경기도 용인시 기흥구 고매동 354-4번지","indutype":"일반휴게음식 - 일반한식","category":"restaurant"}]},{"lat":"37.229023267","long":"127.10430712","imageIndex":4,"items":[{"name":"더담아","tel":"031-285-9293","addr":"경기도 용인시 기흥구 고매동 550-2번지 1층","indutype":"일반휴게음식 - 일반한식","category":"restaurant"}]},{"lat":"37.23121473","long":"127.1122431","imageIndex":4,"items":[{"name":"더원푸드(The one food)","tel":"031-286-9936","addr":"경기도 용인시 기흥구 고매동 819-9번지","indutype":"일반휴게음식 - 일반한식","category":"restaurant"},{"name":"손큰국밥","tel":"031-284-5028","addr":"경기도 용인시 기흥구 고매동 819-9번지 1층","indutype":"일반휴게음식 - 일반한식","category":"restaurant"},{"name":"햇살과나무","tel":"070-8940-9384","addr":"경기도 용인시 기흥구 고매동 819-9번지 1층","indutype":"일반휴게음식 - 스넥","category":"restaurant"}]},{"lat":"37.222549121","long":"127.09916059","imageIndex":4,"items":[{"name":"돈가네돼지찌개(기흥고매점)","tel":"031-693-6999","addr":"경기도 용인시 기흥구 고매동 512-6번지","indutype":"일반휴게음식 - 일반한식","category":"restaurant"}]},{"lat":"37.230854421","long":"127.1121299","imageIndex":4,"items":[{"name":"동성식당","tel":"031-286-7300","addr":"경기도 용인시 기흥구 고매동 359번지 동성 상가동 104,105호","indutype":"일반휴게음식 - 일반한식","category":"restaurant"}]},{"lat":"37.227075045","long":"127.10660317","imageIndex":4,"items":[{"name":"떼레노시떼","tel":"031-8005-5767","addr":"경기도 용인시 기흥구 고매동 409-95번지 1층","indutype":"일반휴게음식 - 스넥","category":"restaurant"}]},{"lat":"37.227435527","long":"127.10652478","imageIndex":4,"items":[{"name":"뜰채","tel":"031-286-7651","addr":"경기도 용인시 기흥구 고매동 409-97번지 1층","indutype":"일반휴게음식 - 일반한식","category":"restaurant"}]},{"lat":"37.220769167","long":"127.10502842","imageIndex":4,"items":[{"name":"리더스비엠씨","tel":"031-286-0300","addr":"경기도 용인시 기흥구 고매동 456번지 넥사이언공장B동10층","indutype":"일반휴게음식 - 위탁급식업","category":"restaurant"}]},{"lat":"37.222045966","long":"127.097391","imageIndex":4,"items":[{"name":"만평식당","tel":"031-286-0010","addr":"경기도 용인시 기흥구 고매동 697-2번지","indutype":"일반휴게음식 - 일반한식","category":"restaurant"}]},{"lat":"37.231524526","long":"127.10844604","imageIndex":4,"items":[{"name":"맛있다수제돈까스","tel":"031-286-1237","addr":"경기도 용인시 기흥구 고매동 388-4번지 한영속셈피아노학원 1층 2호","indutype":"일반휴게음식 - 일반한식","category":"restaurant"},{"name":"소주집양푼이","tel":"031-286-2121","addr":"경기도 용인시 기흥구 고매동 388-4번지","indutype":"일반휴게음식 - 일반한식","category":"restaurant"}]},{"lat":"37.219968577","long":"127.10347252","imageIndex":4,"items":[{"name":"모두국밥","tel":"031-283-1163","addr":"경기도 용인시 기흥구 고매동 485-16번지 1층","indutype":"일반휴게음식 - 일반한식","category":"restaurant"}]},{"lat":"37.226769446","long":"127.11563958","imageIndex":4,"items":[{"name":"모듈라레&라이커스/(주)토바시스템용인지점","tel":"02-2634-6167","addr":"경기도 용인시 기흥구 고매동 375-29번지","indutype":"일반휴게음식 - 서양음식","category":"restaurant"}]},{"lat":"37.22421421","long":"127.1013824","imageIndex":4,"items":[{"name":"백억한식부페","tel":"031-287-0416","addr":"경기도 용인시 기흥구 고매동 516-2번지 외1필지 1층","indutype":"일반휴게음식 - 일반한식","category":"restaurant"},{"name":"유연","tel":"031-693-5509","addr":"경기도 용인시 기흥구 고매동 516-2번지 2층","indutype":"일반휴게음식 - 일반한식","category":"restaurant"},{"name":"유연","tel":"031-693-5509","addr":"경기도 용인시 기흥구 고매동 516-2번지","indutype":"일반휴게음식 - 일반한식","category":"restaurant"}]},{"lat":"37.22157705","long":"127.09786364","imageIndex":4,"items":[{"name":"사거리식당","tel":"031-286-6900","addr":"경기도 용인시 기흥구 고매동 726-7번지","indutype":"일반휴게음식 - 일반한식","category":"restaurant"}]},{"lat":"37.225297862","long":"127.10902328","imageIndex":4,"items":[{"name":"산정","tel":"031-286-4466","addr":"경기도 용인시 기흥구 고매동 409-28번지 1-2층","indutype":"일반휴게음식 - 일반한식","category":"restaurant"},{"name":"산정","tel":"031-286-4466","addr":"경기도 용인시 기흥구 고매동 409-28번지 ,1-2층","indutype":"일반휴게음식 - 일반한식","category":"restaurant"}]},{"lat":"37.222272632","long":"127.09561107","imageIndex":4,"items":[{"name":"삼시세끼","tel":"031-111-1111","addr":"경기도 용인시 기흥구 고매동 701-12번지 1층 일부","indutype":"일반휴게음식 - 일반한식","category":"restaurant"}]},{"lat":"37.221856335","long":"127.09790906","imageIndex":4,"items":[{"name":"삼장식당","tel":"031-286-8108","addr":"경기도 용인시 기흥구 고매동 725-17번지 1층","indutype":"일반휴게음식 - 중국식","category":"restaurant"},{"name":"해바라기분식","tel":"031-284-5388","addr":"경기도 용인시 기흥구 고매동 725-17번지 1층일부","indutype":"일반휴게음식 - 일반한식","category":"restaurant"}]},{"lat":"37.219412593","long":"127.11069378","imageIndex":4,"items":[{"name":"성림","tel":"031-275-8887","addr":"경기도 용인시 기흥구 고매동 245-2번지","indutype":"일반휴게음식 - 일반한식","category":"restaurant"}]},{"lat":"37.231018837","long":"127.10968487","imageIndex":4,"items":[{"name":"세원치킨","tel":"031-286-8033","addr":"경기도 용인시 기흥구 고매동 385-1번지 세원아파트 1층","indutype":"일반휴게음식 - 스넥","category":"restaurant"}]},{"lat":"37.229962575","long":"127.11193705","imageIndex":4,"items":[{"name":"씨에프치킨","tel":"031-285-9392","addr":"경기도 용인시 기흥구 고매동 877번지 우남 상가","indutype":"일반휴게음식 - 주점","category":"restaurant"}]},{"lat":"37.224520374","long":"127.10160815","imageIndex":4,"items":[{"name":"아리랑 비빔국수","tel":"031-282-5651","addr":"경기도 용인시 기흥구 고매동 518-1번지 BLUE ZONE B동","indutype":"일반휴게음식 - 일반한식","category":"restaurant"}]},{"lat":"37.219887038","long":"127.11405198","imageIndex":4,"items":[{"name":"안골식당","tel":"031-286-7001","addr":"경기도 용인시 기흥구 고매동 227-1번지 동원식당 113호","indutype":"일반휴게음식 - 일반한식","category":"restaurant"}]},{"lat":"37.2260224","long":"127.10479888","imageIndex":4,"items":[{"name":"양반두부","tel":"031-286-5208","addr":"경기도 용인시 기흥구 고매동 411-11번지","indutype":"일반휴게음식 - 일반한식","category":"restaurant"}]},{"lat":"37.220770574","long":"127.10338345","imageIndex":4,"items":[{"name":"양평해장국","tel":"031-217-3311","addr":"경기도 용인시 기흥구 고매동 481-2번지","indutype":"일반휴게음식 - 일반한식","category":"restaurant"}]},{"lat":"37.221130326","long":"127.10416135","imageIndex":4,"items":[{"name":"어반리","tel":"031-281-0997","addr":"경기도 용인시 기흥구 고매동 482-1번지 ,1,2층","indutype":"일반휴게음식 - 서양음식","category":"restaurant"},{"name":"어반리","tel":"031-281-0997","addr":"경기도 용인시 기흥구 고매동 482-1번지 ,1,2층","indutype":"일반휴게음식 - 서양음식","category":"restaurant"}]},{"lat":"37.22013488","long":"127.11869429","imageIndex":4,"items":[{"name":"엄마손백반 고매점","tel":"031-275-3357","addr":"경기도 용인시 기흥구 고매동 201번지 1층","indutype":"일반휴게음식 - 일반한식","category":"restaurant"}]},{"lat":"37.222245407","long":"127.09585891","imageIndex":4,"items":[{"name":"엄마손토속정","tel":"1111-1111-1111","addr":"경기도 용인시 기흥구 고매동 700번지","indutype":"일반휴게음식 - 일반한식","category":"restaurant"}]},{"lat":"37.226828819","long":"127.10991558","imageIndex":4,"items":[{"name":"에이비씨디카페(abcd cafe)","tel":"031-285-5827","addr":"경기도 용인시 기흥구 고매동 377-10번지","indutype":"일반휴게음식 - 서양음식","category":"restaurant"}]},{"lat":"37.225994912","long":"127.10532843","imageIndex":4,"items":[{"name":"여명","tel":"031-274-2004","addr":"경기도 용인시 기흥구 고매동 409-91번지 A동 1층","indutype":"일반휴게음식 - 일반한식","category":"restaurant"}]},{"lat":"37.22216302","long":"127.09749255","imageIndex":4,"items":[{"name":"와우카페","tel":"031-285-5228","addr":"경기도 용인시 기흥구 고매동 696-4번지 1층","indutype":"일반휴게음식 - 서양음식","category":"restaurant"}]},{"lat":"37.226189491","long":"127.10946397","imageIndex":4,"items":[{"name":"우리랑","tel":"031-285-9292","addr":"경기도 용인시 기흥구 고매동 377-52번지 (고매동/산 377-52)","indutype":"일반휴게음식 - 일반한식","category":"restaurant"}]},{"lat":"37.221747584","long":"127.09868635","imageIndex":4,"items":[{"name":"우리푸드","tel":"031-285-0713","addr":"경기도 용인시 기흥구 고매동 726-4번지 1층 101호","indutype":"일반휴게음식 - 일반한식","category":"restaurant"}]},{"lat":"37.222852317","long":"127.10296932","imageIndex":4,"items":[{"name":"운촌갤러리카페","tel":"031-274-0021","addr":"경기도 용인시 기흥구 고매동 413-30번지","indutype":"일반휴게음식 - 서양음식","category":"restaurant"}]},{"lat":"37.222243978","long":"127.09766166","imageIndex":4,"items":[{"name":"일정당","tel":"031-274-0718","addr":"경기도 용인시 기흥구 고매동 696-1번지 지하1층","indutype":"일반휴게음식 - 일반한식","category":"restaurant"}]},{"lat":"37.220581471","long":"127.10324799","imageIndex":4,"items":[{"name":"전라도시골밥상","tel":"031-805-4959","addr":"경기도 용인시 기흥구 고매동 485-15번지 1층 105호","indutype":"일반휴게음식 - 일반한식","category":"restaurant"}]},{"lat":"37.226301478","long":"127.10508095","imageIndex":4,"items":[{"name":"전주생태탕","tel":"031-274-8845","addr":"경기도 용인시 기흥구 고매동 411-8번지 지하1층","indutype":"일반휴게음식 - 일반한식","category":"restaurant"},{"name":"전주콩나물.생태탕","tel":"031-274-5645","addr":"경기도 용인시 기흥구 고매동 411-8번지","indutype":"일반휴게음식 - 일반한식","category":"restaurant"}]},{"lat":"37.230767266","long":"127.10888445","imageIndex":4,"items":[{"name":"조선팔도","tel":"031-274-1248","addr":"경기도 용인시 기흥구 고매동 385-2번지","indutype":"일반휴게음식 - 일반한식","category":"restaurant"},{"name":"토속음식점","tel":"031-287-8298","addr":"경기도 용인시 기흥구 고매동 385-2번지 1층","indutype":"일반휴게음식 - 일반한식","category":"restaurant"},{"name":"프라이드치킨호프","tel":"031-286-1474","addr":"경기도 용인시 기흥구 고매동 385-2번지 외1필지 1층","indutype":"일반휴게음식 - 주점","category":"restaurant"},{"name":"흥부네솥뚜껑삼겹살","tel":"031-287-8298","addr":"경기도 용인시 기흥구 고매동 385-2번지","indutype":"일반휴게음식 - 일반한식","category":"restaurant"}]},{"lat":"37.221802822","long":"127.09722169","imageIndex":4,"items":[{"name":"집에서먹던밥","tel":"031-285-3338","addr":"경기도 용인시 기흥구 고매동 722-2번지","indutype":"일반휴게음식 - 일반한식","category":"restaurant"}]},{"lat":"37.230851607","long":"127.11513857","imageIndex":4,"items":[{"name":"카페352(cafe352)","tel":"031-282-0352","addr":"경기도 용인시 기흥구 고매동 352-46번지 1층","indutype":"일반휴게음식 - 서양음식","category":"restaurant"}]},{"lat":"37.22202021","long":"127.09577977","imageIndex":4,"items":[{"name":"카페고매(Cafe Gomae)","tel":"031-287-0445","addr":"경기도 용인시 기흥구 고매동 721번지 ,1,2층","indutype":"일반휴게음식 - 서양음식","category":"restaurant"}]},{"lat":"37.225437105","long":"127.10435866","imageIndex":4,"items":[{"name":"카페아미","tel":"031-286-7272","addr":"경기도 용인시 기흥구 고매동 411-19번지","indutype":"일반휴게음식 - 서양음식","category":"restaurant"}]},{"lat":"37.228852734","long":"127.10352939","imageIndex":4,"items":[{"name":"콩게미","tel":"031-285-5234","addr":"경기도 용인시 기흥구 고매동 546-24번지 1층","indutype":"일반휴게음식 - 일반한식","category":"restaurant"}]},{"lat":"37.221910188","long":"127.09816827","imageIndex":4,"items":[{"name":"페리카나치킨","tel":"031-286-4296","addr":"경기도 용인시 기흥구 고매동 725-2","indutype":"일반휴게음식 - 서양음식","category":"restaurant"}]},{"lat":"37.227657645","long":"127.099584","imageIndex":4,"items":[{"name":"펠리스뻬로","tel":"070-8267-9017","addr":"경기도 용인시 기흥구 고매동 541-6번지","indutype":"일반휴게음식 - 서양음식","category":"restaurant"}]},{"lat":"37.222635696","long":"127.10340845","imageIndex":4,"items":[{"name":"한국면가","tel":"031-275-0606","addr":"경기도 용인시 기흥구 고매동 413-27번지","indutype":"일반휴게음식 - 스넥","category":"restaurant"}]},{"lat":"37.22983043","long":"127.11826965","imageIndex":4,"items":[{"name":"한빛캐터링","tel":"031-285-4410","addr":"경기도 용인시 기흥구 고매동 344-1번지","indutype":"일반휴게음식 - 일반한식","category":"restaurant"}]},{"lat":"37.221941036","long":"127.11443807","imageIndex":4,"items":[{"name":"행복식당 (함바)","tel":"","addr":"경기도 용인시 기흥구 고매동 266-10번지 가설건축물 1층 일부","indutype":"일반휴게음식 - 일반한식","category":"restaurant"}]},{"lat":"37.222380994","long":"127.09530699","imageIndex":4,"items":[{"name":"행복한식부페","tel":"","addr":"경기도 용인시 기흥구 고매동 701-11번지 1층","indutype":"일반휴게음식 - 일반한식","category":"restaurant"}]},{"lat":"37.222164921","long":"127.09508138","imageIndex":4,"items":[{"name":"향촌","tel":"031-286-9065","addr":"경기도 용인시 기흥구 고매동 710-9번지","indutype":"일반휴게음식 - 일반한식","category":"restaurant"}]},{"lat":"37.225495645","long":"127.10951933","imageIndex":4,"items":[{"name":"화담","tel":"031-544-7777","addr":"경기도 용인시 기흥구 고매동 409-155번지 1,2,3층","indutype":"일반휴게음식 - 일반한식","category":"restaurant"}]}]