[{"lat":"37.029187341","long":"127.04758924","items":[{"name":"GS25고덕국제점","tel":"","addr":"경기도 평택시 고덕면 여염리 4282-10번지 104호","category":"유통업 영리 - 편 의 점"},{"name":"커피에반하다 고덕점","tel":"","addr":"경기도 평택시 고덕면 여염리 4428-1번지 104호","category":"일반휴게음식 - 서양음식"},{"name":"커피에반하다 고덕점","tel":"","addr":"경기도 평택시 고덕면 여염리 4428-1번지 104호","category":"일반휴게음식 - 일반한식"}]},{"lat":"37.0410989022","long":"127.0489225863","items":[{"name":"GS25고덕삼성점","tel":"","addr":"경기도 평택시 고덕면 여염리 4485-1번지 102호","category":"유통업 영리 - 편 의 점"}]},{"lat":"37.0415751610","long":"127.0521713631","items":[{"name":"GS25고덕센트럴점","tel":"","addr":"경기도 평택시 고덕면 여염리 4427-1번지","category":"유통업 영리 - 편 의 점"}]},{"lat":"37.029791198","long":"127.04720748","items":[{"name":"GS25고덕행복점","tel":"","addr":"경기도 평택시 고덕면 여염리 4538-1번지 101호","category":"유통업 영리 - 편 의 점"},{"name":"삼성마트","tel":"","addr":"경기도 평택시 고덕면 여염리 4438-3번지 101호","category":"유통업 영리 - 슈퍼마켓"},{"name":"씨유평택고덕국제점","tel":"080-080-3663","addr":"경기도 평택시 고덕면 여염리 4298-2번지 101,102호","category":"유통업 영리 - 편 의 점"},{"name":"어느날","tel":"","addr":"경기도 평택시 고덕면 여염리 4439-4번지 101호","category":"일반휴게음식 - 서양음식"}]},{"lat":"37.034624421","long":"127.06005695","items":[{"name":"P1라인카페테리아 삼성전자 (주)","tel":"031-8096-0635","addr":"경기도 평택시 고덕면 여염리 1646번지 지하1층~지상2층","category":"일반휴게음식 - 위탁급식업"},{"name":"이디야 평택삼성점","tel":"","addr":"경기도 평택시 고덕면 여염리 1646번지","category":"음식점 - 카페"},{"name":"파리바게트 고덕삼성","tel":"","addr":"경기도 평택시 고덕면 여염리 1646번지 복지관 1층","category":"음식점 - 제과점"},{"name":"힐링약국","tel":"031-611-8177","addr":"경기도 평택시 고덕면 여염리 1646번지 삼성전자(주) 평택캠퍼스 복지동 1층","category":"소매업 - 약국"},{"name":"힐링약국","tel":"031-611-0432","addr":"경기도 평택시 고덕면 여염리 1646번지 삼성전자 1층 복지동","category":"약국 - 약국"}]},{"lat":"37.0413768007","long":"127.0524747261","items":[{"name":"가장맛있는족발 평택고덕점","tel":"031-667-5570","addr":"경기도 평택시 고덕면 여염리 4423-1번지 1층","category":"음식점 - 한식"},{"name":"가장맛있는족발 평택고덕점","tel":"031-671-8177","addr":"경기도 평택시 고덕면 여염리 4423-1번지 1층","category":"일반휴게음식 - 일반한식"}]},{"lat":"37.0416830538","long":"127.0527334559","items":[{"name":"거북식당뷔페","tel":"031-663-9295","addr":"경기도 평택시 고덕면 여염리 4427-8번지 1층","category":"일반휴게음식 - 일반한식"}]},{"lat":"37.0429635134","long":"127.0504187187","items":[{"name":"경복궁","tel":"031-668-1233","addr":"경기도 평택시 고덕면 여염리 4447-1번지","category":"일반휴게음식 - 일반한식"}]},{"lat":"37.0418184340","long":"127.0522052417","items":[{"name":"고기,원칙 고덕삼성점","tel":"031-651-0289","addr":"경기도 평택시 고덕면 여염리 4431-9번지 1층","category":"음식점 - 한식"},{"name":"고기.원칙 고덕삼성점","tel":"","addr":"경기도 평택시 고덕면 여염리 4431-9번지 1층","category":"일반휴게음식 - 일반한식"}]},{"lat":"37.0401531482","long":"127.0479778354","items":[{"name":"고덕 애 삼성 공인중개사사무소","tel":"031-692-3366","addr":"경기도 평택시 고덕면 여염리 4518-7번지 102,103호","category":"용역 서비스 - 부동산 중개·임대"},{"name":"고덕매점","tel":"031-692-3366","addr":"경기도 평택시 고덕면 여염리 4518-7번지 상가 103호 고덕국제화계획지구 FD13-1 7","category":"음료식품 - 기타음료식품"}]},{"lat":"37.0423234638","long":"127.0511489560","items":[{"name":"고덕76카페","tel":"","addr":"경기도 평택시 고덕면 여염리 4437-3번지 주건축물제 1동 1층","category":"일반휴게음식 - 서양음식"}]},{"lat":"37.0444853027","long":"127.0528701784","items":[{"name":"금호타이어 평택고덕신도시점","tel":"031-665-0053","addr":"경기도 평택시 고덕면 여염리 4402-2번지","category":"자동차정비 유지 - 자동차시트·타이어"}]},{"lat":"37.0419904865","long":"127.0501146184","items":[{"name":"김가네김밥 고덕삼성점","tel":"031-665-2223","addr":"경기도 평택시 고덕면 여염리 4490-3번지","category":"일반휴게음식 - 일반한식"}]},{"lat":"37.0414580554","long":"127.0520926044","items":[{"name":"김밥나라 고덕점","tel":"031-662-8306","addr":"경기도 평택시 고덕면 여염리 4428-1번지 102호 101호,102호","category":"일반휴게음식 - 일반한식"}]},{"lat":"37.0409366584","long":"127.0490573726","items":[{"name":"노아커피랩(NOAH COFFEE LAB)","tel":"","addr":"경기도 평택시 고덕면 여염리 4485-3번지 1층","category":"일반휴게음식 - 서양음식"}]},{"lat":"37.0411256528","long":"127.0496419868","items":[{"name":"다방카페","tel":"","addr":"경기도 평택시 고덕면 여염리 4486-2번지 1층 5호","category":"일반휴게음식 - 서양음식"},{"name":"찬이네황소곱창","tel":"031-667-3337","addr":"경기도 평택시 고덕면 여염리 4486-2번지 108~109호","category":"음식점 - 한식"},{"name":"찬이네황소곱창","tel":"031-223-5214","addr":"경기도 평택시 고덕면 여염리 4486-2번지","category":"일반휴게음식 - 일반한식"}]},{"lat":"37.0417645655","long":"127.0517331069","items":[{"name":"대찬짬뽕 (삼성점)","tel":"031-667-0709","addr":"경기도 평택시 고덕면 여염리 4436-2번지 1층","category":"일반휴게음식 - 중국식"}]},{"lat":"37.0417103764","long":"127.0520365648","items":[{"name":"던킨도너츠 평택고덕점","tel":"031-668-5578","addr":"경기도 평택시 고덕면 여염리 4431-10번지 1층","category":"음료식품 - 제과점"}]},{"lat":"37.0411258159","long":"127.0492260928","items":[{"name":"돈키호테돈까스","tel":"","addr":"경기도 평택시 고덕면 여염리 4488-10번지 1층","category":"일반휴게음식 - 일반한식"}]},{"lat":"37.0431782296","long":"127.0541170374","items":[{"name":"따뜻한 밥","tel":"031-665-0011","addr":"경기도 평택시 고덕면 여염리 4416-3번지 1층","category":"일반휴게음식 - 일반한식"}]},{"lat":"37.0441521309","long":"127.0523416411","items":[{"name":"똑순이밥상","tel":"070-1111-1111","addr":"경기도 평택시 고덕면 여염리 4406-4번지 1층","category":"일반휴게음식 - 일반한식"}]},{"lat":"37.0417370845","long":"127.0528121746","items":[{"name":"로그인고덕삼성점","tel":"031-856-9955","addr":"경기도 평택시 고덕면 여염리 4427-7번지 1층","category":"유통업 영리 - 편 의 점"},{"name":"세븐일레븐평택고덕여염점","tel":"031-1577-0711","addr":"경기도 평택시 고덕면 여염리 4427-7번지 1층","category":"유통업 영리 - 편 의 점"}]},{"lat":"37.0426831297","long":"127.0529814031","items":[{"name":"명태명가","tel":"","addr":"경기도 평택시 고덕면 여염리 4433-3번지 1층","category":"일반휴게음식 - 일반한식"}]},{"lat":"37.0426301830","long":"127.0502611425","items":[{"name":"명품짬뽕","tel":"031-665-6776","addr":"경기도 평택시 고덕면 여염리 4478-2번지 1층","category":"일반휴게음식 - 중국식"}]},{"lat":"37.0414848577","long":"127.0526434029","items":[{"name":"박군치킨삼성점","tel":"","addr":"경기도 평택시 고덕면 여염리 4423-2번지 1층","category":"일반휴게음식 - 스넥"},{"name":"황금옥","tel":"","addr":"경기도 평택시 고덕면 여염리 4423-2번지","category":"일반휴게음식 - 일반한식"}]},{"lat":"37.0422145437","long":"127.0530597791","items":[{"name":"박선혜순대국","tel":"031-665-9444","addr":"경기도 평택시 고덕면 여염리 4425-1번지 1층","category":"일반휴게음식 - 일반한식"}]},{"lat":"37.0419894153","long":"127.0527336562","items":[{"name":"버디","tel":"","addr":"경기도 평택시 고덕면 여염리 4427-5번지","category":"일반휴게음식 - 서양음식"}]},{"lat":"37.0373798257","long":"127.0425023989","items":[{"name":"본향","tel":"031-1234-5678","addr":"경기도 평택시 고덕면 여염리 4602-4번지 1층","category":"일반휴게음식 - 일반한식"}]},{"lat":"37.0416020194","long":"127.0525872771","items":[{"name":"서민밥상","tel":"031-666-1386","addr":"경기도 평택시 고덕면 여염리 4427-9번지 1층","category":"일반휴게음식 - 일반한식"}]},{"lat":"37.0440165885","long":"127.0532520585","items":[{"name":"서울한식뷔페","tel":"","addr":"경기도 평택시 고덕면 여염리 4404-2번지 1층 1호","category":"일반휴게음식 - 일반한식"}]},{"lat":"37.0429632414","long":"127.0510931576","items":[{"name":"선희네밥집","tel":"031-665-9259","addr":"경기도 평택시 고덕면 여염리 4448-9번지 1층","category":"일반휴게음식 - 일반한식"}]},{"lat":"37.0629853133","long":"127.0498915125","items":[{"name":"세븐일레븐평택고덕갈평점","tel":"031-1577-0711","addr":"경기도 평택시 고덕면 여염리 4156-9번지 가온누리 1층","category":"유통업 영리 - 편 의 점"}]},{"lat":"37.0418194936","long":"127.0495862098","items":[{"name":"세븐일레븐평택고덕신도시점","tel":"031-1577-0711","addr":"경기도 평택시 고덕면 여염리 4480-8번지 1층 101호","category":"유통업 영리 - 편 의 점"}]},{"lat":"37.0422423223","long":"127.0512613101","items":[{"name":"세븐일레븐평택고덕중앙점","tel":"031-1577-0711","addr":"경기도 평택시 고덕면 여염리 4437-4번지 1층 101호","category":"유통업 영리 - 편 의 점"}]},{"lat":"37.0427102562","long":"127.0527566087","items":[{"name":"셀프회수산","tel":"031-211-1111","addr":"경기도 평택시 고덕면 여염리 4434-3번지 1동 1층 101호","category":"일반휴게음식 - 일식·회집"}]},{"lat":"37.0366230403","long":"127.0421760540","items":[{"name":"신대박식당","tel":"031-666-9505","addr":"경기도 평택시 고덕면 여염리 4612-3번지 1층","category":"일반휴게음식 - 일반한식"}]},{"lat":"37.0429083241","long":"127.0531501607","items":[{"name":"씨유평택고덕골드점","tel":"080-080-3663","addr":"경기도 평택시 고덕면 여염리 4414-1번지","category":"유통업 영리 - 편 의 점"}]},{"lat":"37.0384329497","long":"127.0457288215","items":[{"name":"씨유평택고덕행복점","tel":"080-080-3663","addr":"경기도 평택시 고덕면 여염리 4561-1번지 (고덕국제화계획지구 에프디-15-8-1)","category":"유통업 영리 - 편 의 점"}]},{"lat":"37.037295282","long":"127.05175272","items":[{"name":"씨유평택디에스","tel":"","addr":"경기도 평택시 고덕면 여염리 1648번지 삼성전자(주) 평택캠퍼스 복지동 1층","category":"소매업 - 편의점"},{"name":"평택삼성전자 문구점","tel":"070-7034-0090","addr":"경기도 평택시 고덕면 여염리 1648번지 삼성전자 1층 복지동","category":"서적문구 - 문구용품"},{"name":"평택삼성전자문구점","tel":"031-658-7393","addr":"경기도 평택시 고덕면 여염리 1648번지 삼성전자(주) 평택캠퍼스 복지동 1층","category":"도소매업 - 문구"}]},{"lat":"37.0412146421","long":"127.0523959379","items":[{"name":"씨유평택삼성점","tel":"080-080-3663","addr":"경기도 평택시 고덕면 여염리 4428-3번지 1층","category":"유통업 영리 - 편 의 점"}]},{"lat":"37.0514075472","long":"127.0476472348","items":[{"name":"아임동물병원","tel":"031-663-6987","addr":"경기도 평택시 고덕면 여염리 4291-10번지","category":"기타의료기관 - 동물병원"}]},{"lat":"37.0428449186","long":"127.0539257227","items":[{"name":"양푼이김치찌개","tel":"031-663-3833","addr":"경기도 평택시 고덕면 여염리 4421-4번지 1층","category":"일반휴게음식 - 일반한식"}]},{"lat":"37.023904671","long":"127.05362087","items":[{"name":"엉터리김밥","tel":"031-611-3770","addr":"경기도 평택시 고덕면 여염리 37-2번지 102,103호","category":"일반휴게음식 - 일반한식"},{"name":"커피엔버거","tel":"031-663-9067","addr":"경기도 평택시 고덕면 여염리 37-2번지 주경빌딩 101호","category":"일반휴게음식 - 서양음식"}]},{"lat":"37.0417111659","long":"127.0500919645","items":[{"name":"오투닭갈비 고덕신도시점","tel":"031-667-2122","addr":"경기도 평택시 고덕면 여염리 4490-7번지 1층","category":"음식점 - 한식"},{"name":"오투닭갈비 고덕신도시점","tel":"031-665-4252","addr":"경기도 평택시 고덕면 여염리 4490-7번지 1층","category":"일반휴게음식 - 일반한식"}]},{"lat":"37.0497945615","long":"127.0478711209","items":[{"name":"우일식당","tel":"031-274-8922","addr":"경기도 평택시 고덕면 여염리 4301-8번지 1층","category":"일반휴게음식 - 일반한식"}]},{"lat":"37.0418456982","long":"127.0516432350","items":[{"name":"우주라이크커피 평택고덕점","tel":"031-666-0022","addr":"경기도 평택시 고덕면 여염리 4436-1번지 1층","category":"일반휴게음식 - 서양음식"}]},{"lat":"37.0404866693","long":"127.0476408240","items":[{"name":"을지로골뱅이.치킨","tel":"031-664-6004","addr":"경기도 평택시 고덕면 여염리 4518-4번지 1층 1호","category":"일반휴게음식 - 스넥"}]},{"lat":"37.0484341780","long":"127.0472857624","items":[{"name":"이가네 토스트","tel":"031-000-0000","addr":"경기도 평택시 고덕면 여염리 4306-7번지","category":"일반휴게음식 - 서양음식"}]},{"lat":"37.0611281239","long":"127.0523638997","items":[{"name":"이마트24 고덕갈평로점","tel":"","addr":"경기도 평택시 고덕면 여염리 4186-2번지","category":"유통업 영리 - 편 의 점"}]},{"lat":"37.02952065","long":"127.04781421","items":[{"name":"이마트24 고덕다채움앙상블점","tel":"031-000-0000","addr":"경기도 평택시 고덕면 여염리 4567-3번지 105,106호","category":"유통업 영리 - 편 의 점"}]},{"lat":"37.0485693373","long":"127.0472858411","items":[{"name":"이마트24 평택고덕신동아점","tel":"","addr":"경기도 평택시 고덕면 여염리 4306-6번지 103호 102호,103호","category":"유통업 영리 - 편 의 점"}]},{"lat":"37.0354877627","long":"127.0419843969","items":[{"name":"이마트24 평택고덕신화점","tel":"031-000-0000","addr":"경기도 평택시 고덕면 여염리 4618-6번지","category":"유통업 영리 - 편 의 점"}]},{"lat":"37.0393247820","long":"127.0463362887","items":[{"name":"이마트24 평택삼성점","tel":"031-000-0000","addr":"경기도 평택시 고덕면 여염리 4542-2번지 1층 101호 고덕국제화계획지구 1319-2","category":"유통업 영리 - 편 의 점"}]},{"lat":"37.0423227424","long":"127.0528912419","items":[{"name":"조가네 숯불갈비","tel":"031-666-7778","addr":"경기도 평택시 고덕면 여염리 4433-6번지","category":"일반휴게음식 - 일반한식"}]},{"lat":"37.0413228399","long":"127.0522274020","items":[{"name":"주식회사 79수육국밥 고덕점","tel":"031-664-7926","addr":"경기도 평택시 고덕면 여염리 4428-2번지","category":"일반휴게음식 - 일반한식"}]},{"lat":"37.037016856","long":"127.04950459","items":[{"name":"평택삼성어린이집[아이행복]","tel":"031-8094-9321","addr":"경기도 평택시 고덕면 여염리 1662번지","category":"학원 - 유아원"}]},{"lat":"37.0436563013","long":"127.0529258387","items":[{"name":"황재옥곰탕설렁탕(고덕1호점)","tel":"031-668-3326","addr":"경기도 평택시 고덕면 여염리 4409-8번지 1동 1층","category":"일반휴게음식 - 일반한식"}]}]