[{"lat":"37.847373011","long":"127.47171864","items":[{"name":"(주)이마트24 가평베뉴지점","tel":"031-1111-1111","addr":"경기도 가평군 가평읍 승안리 산176번지","category":"유통업 영리 - 편 의 점"},{"name":"베뉴지 컨트리클럽/부국관광(주)","tel":"031-582-5999","addr":"경기도 가평군 가평읍 승안리 산176번지 베뉴지CC","category":"레저업소 - 골프경기장"}]},{"lat":"37.861732248","long":"127.46985502","items":[{"name":"AD646펜션","tel":"031-582-9441","addr":"경기도 가평군 가평읍 승안리 646-3번지","category":"숙박업 - 여관/기타숙박업"}]},{"lat":"37.861948331","long":"127.46989048","items":[{"name":"AD646펜션","tel":"031-582-9441","addr":"경기도 가평군 가평읍 승안리 645번지 1층","category":"숙박업 - 여관/기타숙박업"}]},{"lat":"37.844816887","long":"127.48668782","items":[{"name":"G.O.M.E.T 263","tel":"031-582-3685","addr":"경기도 가평군 가평읍 승안리 263-2번지","category":"숙박업 - 여관/기타숙박업"}]},{"lat":"37.849619493","long":"127.4843332","items":[{"name":"가평관광문화콘텐츠협동조합진짜여행가","tel":"031-111-1111","addr":"경기도 가평군 가평읍 승안리 310번지","category":"여행 - 관광여행"},{"name":"나무의꿈","tel":"031-582-1737","addr":"경기도 가평군 가평읍 승안리 310","category":"숙박업 - 여관/기타숙박업"}]},{"lat":"37.846263471","long":"127.48764026","items":[{"name":"가평농림영농조합법인","tel":"031-796-7594","addr":"경기도 가평군 가평읍 승안리 285-1","category":"음료식품 - 농·축·수산품"},{"name":"아다지오","tel":"031-582-3456","addr":"경기도 가평군 가평읍 승안리 285-1번지","category":"숙박업 - 여관/기타숙박업"}]},{"lat":"37.840709062","long":"127.50593977","items":[{"name":"가평점 기아오토큐","tel":"031-581-5515","addr":"경기도 가평군 가평읍 승안리 11-36번지","category":"자동차정비 유지 - 자동차정비"}]},{"lat":"37.840318564","long":"127.50666419","items":[{"name":"가평종합냉동설비","tel":"031-582-8322","addr":"경기도 가평군 가평읍 승안리 11-20번지","category":"전기제품 - 냉열기기"}]},{"lat":"37.845954322","long":"127.49913589","items":[{"name":"가평특선주영농조합","tel":"031-582-5427","addr":"경기도 가평군 가평읍 승안리 100번지","category":"음료식품 - 기타음료식품"}]},{"lat":"37.869945985","long":"127.46369019","items":[{"name":"검봉산펜션타운","tel":"031-582-7488","addr":"경기도 가평군 가평읍 승안리 689","category":"숙박업 - 여관/기타숙박업"},{"name":"칼봉산쉼터","tel":"031-582-7488","addr":"경기도 가평군 가평읍 승안리 689","category":"음료식품 - 기타음료식품"},{"name":"칼봉산쉼터","tel":"031-582-7488","addr":"경기도 가평군 가평읍 승안리 689번지","category":"음료식품 - 기타음료식품"}]},{"lat":"37.850651213","long":"127.48319234","items":[{"name":"계곡의 아침","tel":"031-582-1643","addr":"경기도 가평군 가평읍 승안리 415-12번지","category":"숙박업 - 여관/기타숙박업"}]},{"lat":"37.842033781","long":"127.50585789","items":[{"name":"계량촌","tel":"031-582-4612","addr":"경기도 가평군 가평읍 승안리 60-3번지","category":"일반휴게음식 - 일반한식"}]},{"lat":"37.840290954","long":"127.50680033","items":[{"name":"김익주칡이야기","tel":"031-582-3353","addr":"경기도 가평군 가평읍 승안리 11-19번지 A동 1층","category":"음료식품 - 농·축·수산품"}]},{"lat":"37.850812496","long":"127.48340927","items":[{"name":"꽃피는산골","tel":"031-581-1725","addr":"경기도 가평군 가평읍 승안리 415-13번지","category":"숙박업 - 여관/기타숙박업"}]},{"lat":"37.842486174","long":"127.50540653","items":[{"name":"단오선","tel":"031-582-3826","addr":"경기도 가평군 가평읍 승안리 50-1번지","category":"일반휴게음식 - 일반한식"},{"name":"전우사","tel":"031-581-2253","addr":"경기도 가평군 가평읍 승안리 50-1","category":"신변잡화 - 기타잡화"}]},{"lat":"37.850511438","long":"127.48432764","items":[{"name":"동막골2","tel":"031-000-0000","addr":"경기도 가평군 가평읍 승안리 369번지","category":"숙박업 - 여관/기타숙박업"}]},{"lat":"37.862311769","long":"127.4668359","items":[{"name":"둥지상회","tel":"031-581-1156","addr":"경기도 가평군 가평읍 승안리 650-1번지","category":"음료식품 - 기타음료식품"},{"name":"둥지펜션","tel":"031-581-1156","addr":"경기도 가평군 가평읍 승안리 650-1번지","category":"숙박업 - 여관/기타숙박업"}]},{"lat":"37.845451391","long":"127.4879417","items":[{"name":"들밥","tel":"031-581-2016","addr":"경기도 가평군 가평읍 승안리 280-1번지","category":"일반휴게음식 - 일반한식"},{"name":"세븐일레븐가평용추계곡점","tel":"","addr":"경기도 가평군 가평읍 승안리 280-1번지","category":"유통업 영리 - 편 의 점"}]},{"lat":"37.840589225","long":"127.50657515","items":[{"name":"뚝배기","tel":"031-581-5055","addr":"경기도 가평군 가평읍 승안리 11-1번지","category":"음료식품 - 기타음료식품"},{"name":"형제건강원","tel":"031-582-5695","addr":"경기도 가평군 가평읍 승안리 11-1번지","category":"건강식품 - 기타건강식품"}]},{"lat":"37.846812931","long":"127.48766658","items":[{"name":"마마밥","tel":"031-581-6801","addr":"경기도 가평군 가평읍 승안리 284-2번지","category":"일반휴게음식 - 일반한식"}]},{"lat":"37.845957396","long":"127.48758145","items":[{"name":"미엔느펜션","tel":"031-582-3456","addr":"경기도 가평군 가평읍 승안리 285-6번지","category":"숙박업 - 여관/기타숙박업"}]},{"lat":"37.860255867","long":"127.47183432","items":[{"name":"민경식당","tel":"031-581-7010","addr":"경기도 가평군 가평읍 승안리 629번지","category":"일반휴게음식 - 일반한식"}]},{"lat":"37.841707708","long":"127.48472483","items":[{"name":"별빛가람","tel":"031-582-6119","addr":"경기도 가평군 가평읍 승안리 238번지","category":"숙박업 - 여관/기타숙박업"}]},{"lat":"37.860761189","long":"127.47163298","items":[{"name":"별천지","tel":"031-582-9004","addr":"경기도 가평군 가평읍 승안리 631-4","category":"숙박업 - 여관/기타숙박업"}]},{"lat":"37.849504917","long":"127.48591175","items":[{"name":"사과밭스테이","tel":"031-582-2751","addr":"경기도 가평군 가평읍 승안리 325-1번지","category":"숙박업 - 여관/기타숙박업"},{"name":"하가원","tel":"031-582-2751","addr":"경기도 가평군 가평읍 승안리 325-1번지","category":"음료식품 - 농·축·수산품"}]},{"lat":"37.840480873","long":"127.50663121","items":[{"name":"서울낚시","tel":"031-582-3146","addr":"경기도 가평군 가평읍 승안리 11-17번지","category":"레져용품 - 스포츠·레져용품"},{"name":"서울상회","tel":"","addr":"경기도 가평군 가평읍 승안리 11-17번지","category":"음료식품 - 기타음료식품"}]},{"lat":"37.869509275","long":"127.46477851","items":[{"name":"쉘부르식당","tel":"031-581-8868","addr":"경기도 가평군 가평읍 승안리 687번지 1층","category":"일반휴게음식 - 일반한식"}]},{"lat":"37.840760397","long":"127.50657631","items":[{"name":"승안리방아간","tel":"031-582-2295","addr":"경기도 가평군 가평읍 승안리 11-3번지","category":"음료식품 - 제과점"}]},{"lat":"37.861456109","long":"127.47133056","items":[{"name":"시즈닝","tel":"031-1577-9005","addr":"경기도 가평군 가평읍 승안리 641번지 1,2층","category":"숙박업 - 여관/기타숙박업"}]},{"lat":"37.861258226","long":"127.47124976","items":[{"name":"시즈닝페퍼","tel":"031-577-9005","addr":"경기도 가평군 가평읍 승안리 641-2번지","category":"숙박업 - 여관/기타숙박업"}]},{"lat":"37.838649117","long":"127.50730037","items":[{"name":"신흥사","tel":"","addr":"경기도 가평군 가평읍 승안리 60-5번지","category":"-"}]},{"lat":"37.847813312","long":"127.48758224","items":[{"name":"아홉마지기마을 전통한과 협동조합","tel":"031-582-3115","addr":"경기도 가평군 가평읍 승안리 286번지 2층","category":"음료식품 - 기타음료식품"},{"name":"아홉마지기체험휴양마을영농조합법인","tel":"031-582-3115","addr":"경기도 가평군 가평읍 승안리 286번지 2층","category":"레저업소 - 기타레져업소"}]},{"lat":"37.851149769","long":"127.48244568","items":[{"name":"언덕위의펜션","tel":"031-581-5803","addr":"경기도 가평군 가평읍 승안리 412-4","category":"숙박업 - 여관/기타숙박업"}]},{"lat":"37.861895808","long":"127.46950378","items":[{"name":"에이디646","tel":"031-582-9441","addr":"경기도 가평군 가평읍 승안리 646번지 1층","category":"음료식품 - 기타음료식품"}]},{"lat":"37.860391998","long":"127.47158519","items":[{"name":"연인과 산","tel":"031-581-4155","addr":"경기도 가평군 가평읍 승안리 630번지","category":"음료식품 - 기타음료식품"}]},{"lat":"37.844146431","long":"127.48760368","items":[{"name":"연인산테라스","tel":"031-581-2552","addr":"경기도 가평군 가평읍 승안리 271-1번지 연인산테라스","category":"숙박업 - 여관/기타숙박업"}]},{"lat":"37.843929745","long":"127.48771587","items":[{"name":"연인산테라스","tel":"031-581-2552","addr":"경기도 가평군 가평읍 승안리 271-2번지","category":"숙박업 - 여관/기타숙박업"}]},{"lat":"37.859816076","long":"127.48260409","items":[{"name":"열린마당","tel":"031-582-1647","addr":"경기도 가평군 가평읍 승안리 395번지 열린마당","category":"숙박업 - 여관/기타숙박업"}]},{"lat":"37.851093585","long":"127.48296797","items":[{"name":"올잣","tel":"031-582-8422","addr":"경기도 가평군 가평읍 승안리 415-4번지","category":"회원제형태 - 기타1"}]},{"lat":"37.859036541","long":"127.48155361","items":[{"name":"용추계곡 뜰","tel":"031-581-6689","addr":"경기도 가평군 가평읍 승안리 402번지","category":"일반휴게음식 - 일반한식"}]},{"lat":"37.851262545","long":"127.48129883","items":[{"name":"용추계곡유원지","tel":"031-581-4858","addr":"경기도 가평군 가평읍 승안리 409번지","category":"일반휴게음식 - 일반한식"}]},{"lat":"37.860927555","long":"127.47057722","items":[{"name":"용추사랑","tel":"031-582-0005","addr":"경기도 가평군 가평읍 승안리 633-13","category":"숙박업 - 여관/기타숙박업"}]},{"lat":"37.839066748","long":"127.50019169","items":[{"name":"용추숯불닭갈비","tel":"031-581-1292","addr":"경기도 가평군 가평읍 승안리 66-4번지","category":"일반휴게음식 - 일반한식"},{"name":"용추숯불닭갈비","tel":"031-581-1292","addr":"경기도 가평군 가평읍 승안리 66-4번지","category":"일반휴게음식 - 일반한식"}]},{"lat":"37.859007712","long":"127.48199659","items":[{"name":"용추스케치","tel":"031-582-5820","addr":"경기도 가평군 가평읍 승안리 402-3번지","category":"일반휴게음식 - 일반한식"},{"name":"용추스케치","tel":"031-582-5820","addr":"경기도 가평군 가평읍 승안리 402-3","category":"숙박업 - 여관/기타숙박업"}]},{"lat":"37.860782597","long":"127.47078085","items":[{"name":"용추아모르","tel":"031-582-9441","addr":"경기도 가평군 가평읍 승안리 633번지","category":"음료식품 - 기타음료식품"}]},{"lat":"37.861480625","long":"127.46969434","items":[{"name":"용추펜션","tel":"031-582-6217","addr":"경기도 가평군 가평읍 승안리 646-11번지","category":"숙박업 - 여관/기타숙박업"}]},{"lat":"37.842506663","long":"127.50482727","items":[{"name":"종가집곰탕순대국","tel":"031-585-4985","addr":"경기도 가평군 가평읍 승안리 49-3번지","category":"일반휴게음식 - 일반한식"}]},{"lat":"37.861344272","long":"127.4700003","items":[{"name":"추억만들기펜션","tel":"031-581-3510","addr":"경기도 가평군 가평읍 승안리 646-12","category":"숙박업 - 여관/기타숙박업"}]},{"lat":"37.844561316","long":"127.48749279","items":[{"name":"카리브펜션","tel":"031-581-2922","addr":"경기도 가평군 가평읍 승안리 272-2번지","category":"숙박업 - 여관/기타숙박업"},{"name":"카리브펜션","tel":"031-581-2922","addr":"경기도 가평군 가평읍 승안리 272-2번지","category":"숙박업 - 여관/기타숙박업"}]},{"lat":"37.861815717","long":"127.46925327","items":[{"name":"클레어드루나0915","tel":"031-582-2887","addr":"경기도 가평군 가평읍 승안리 646-5번지","category":"숙박업 - 여관/기타숙박업"}]},{"lat":"37.858900297","long":"127.48182545","items":[{"name":"털보네쉼터","tel":"031-582-4400","addr":"경기도 가평군 가평읍 승안리 402-1번지","category":"일반휴게음식 - 일반한식"}]},{"lat":"37.861143005","long":"127.47077176","items":[{"name":"풍경소리","tel":"031-582-8617","addr":"경기도 가평군 가평읍 승안리 633-4번지","category":"숙박업 - 여관/기타숙박업"}]},{"lat":"37.861280533","long":"127.47017035","items":[{"name":"햇빛여행펜션","tel":"031-582-3518","addr":"경기도 가평군 가평읍 승안리 646-18","category":"숙박업 - 여관/기타숙박업"}]},{"lat":"37.839341663","long":"127.49479739","items":[{"name":"횃불식당","tel":"031-582-8933","addr":"경기도 가평군 가평읍 승안리 216-1번지","category":"일반휴게음식 - 일반한식"}]}]