[{"lat":"37.002052671","long":"127.14413494","items":[{"name":"(Y&J telecom)와이앤제이텔레콤","tel":"","addr":"경기도 평택시 용이동 737번지 e편한세상평택용이1단지 102동 12층 1203호","category":"사무통신 - 통신기기"},{"name":"(주)시스런","tel":"","addr":"경기도 평택시 용이동 737번지 e편한세상평택용이1단지 113동 104호","category":"용역 서비스 - 소프트웨어"},{"name":"개인과외","tel":"","addr":"경기도 평택시 용이동 737번지 e편한세상평택용이1단지 110동 603호","category":"학원 - 기타 교육기관"},{"name":"뮤엠영어 용이e편한NEST","tel":"","addr":"경기도 평택시 용이동 737번지 e편한세상평택용이1단지 108동 3층 304호","category":"학원 - 기타 교육기관"},{"name":"시립이편한세상평택용이1단지어린이집[아이","tel":"031-656-1916","addr":"경기도 평택시 용이동 737번지 e편한세상평택용이1단지","category":"학원 - 유아원"},{"name":"아름드리유통","tel":"031-692-0204","addr":"경기도 평택시 용이동 737번지 e편한세상평택용이1단지 112동 1404호","category":"보건위생 - 화장품"},{"name":"아이편한어린이집[아이행복]","tel":"031-654-3336","addr":"경기도 평택시 용이동 737번지 e편한세상평택용이1단지 113동 103호","category":"학원 - 유아원"},{"name":"안녕람","tel":"031-000-0000","addr":"경기도 평택시 용이동 737번지 e편한세상평택용이1단지 1층","category":"의류 - 정장"},{"name":"용이새김영어","tel":"031-656-7415","addr":"경기도 평택시 용이동 737번지 e편한세상평택용이1단지 113동 101호","category":"학원 - 기타 교육기관"},{"name":"크린위드 신흥e편한세상점","tel":"031-655-8525","addr":"경기도 평택시 용이동 737번지 e편한세상평택용이1단지 상가동 107호","category":"수리서비스 - 세탁소"},{"name":"해법수학","tel":"031-666-1605","addr":"경기도 평택시 용이동 737번지 e편한세상평택용이1단지 107동 601호","category":"학원 - 기타 교육기관"},{"name":"핸디파파","tel":"","addr":"경기도 평택시 용이동 737번지 e편한세상평택용이1단지 103동 1101호","category":"문화.취미 - 민예·공예품"}]},{"lat":"37.001162395","long":"127.13475249","items":[{"name":"(주)당나귀장어","tel":"031-653-0592","addr":"경기도 평택시 용이동 182-6번지","category":"일반휴게음식 - 일반한식"},{"name":"새차만들기","tel":"031-691-1663","addr":"경기도 평택시 용이동 182-6번지 나동","category":"자동차정비 유지 - 카인테리어"}]},{"lat":"36.999355364","long":"127.13908578","items":[{"name":"(주)대한전력","tel":"031-618-3515","addr":"경기도 평택시 용이동 8-6번지","category":"전기제품 - 기타전기제품"}]},{"lat":"36.997469397","long":"127.13349915","items":[{"name":"(주)본아글로리","tel":"031-365-4466","addr":"경기도 평택시 용이동 597-11번지 예솔빌딩 6층","category":"보건위생 - 화장품"},{"name":"커피는내가빵은니가","tel":"","addr":"경기도 평택시 용이동 597-11번지 예솔빌딩 1층","category":"일반휴게음식 - 서양음식"},{"name":"크리스핀어학원","tel":"031-692-5001","addr":"경기도 평택시 용이동 597-11번지 예솔빌딩 4,5층","category":"학원 - 외국어학원"},{"name":"평택소마수학원","tel":"031-618-1131","addr":"경기도 평택시 용이동 597-11번지 3층","category":"학원 - 보습학원"}]},{"lat":"36.998110004","long":"127.14827301","items":[{"name":"(주)비젼건축자재","tel":"031-657-0730","addr":"경기도 평택시 용이동 493-2번지","category":"건축자재 - 기타건축자재"}]},{"lat":"37.000465263","long":"127.14541272","items":[{"name":"(주)삼원아이티에스(ITS)","tel":"031-657-1343","addr":"경기도 평택시 용이동 473-4","category":"기타 - 기계공구"},{"name":"멍멍하우스","tel":"031-647-3114","addr":"경기도 평택시 용이동 473-4번지","category":"문화.취미 - 애완동물"},{"name":"멍멍하우스","tel":"","addr":"경기도 평택시 용이동 473-4번지","category":"서비스업 - 애견샵"}]},{"lat":"37.001468796","long":"127.13471932","items":[{"name":"(주)차우","tel":"031-655-1127","addr":"경기도 평택시 용이동 181-5번지","category":"자동차정비 유지 - 자동차정비"},{"name":"㈜차우","tel":"031-652-6779","addr":"경기도 평택시 용이동 181-5번지","category":"서비스업 - 자동차정비"}]},{"lat":"36.999883669","long":"127.14944475","items":[{"name":"(헝키도리)HUNKY DORY","tel":"031-111-1111","addr":"경기도 평택시 용이동 486-6번지","category":"보건위생 - 미용원"}]},{"lat":"36.994076875","long":"127.13752616","items":[{"name":"123사진관","tel":"031-656-3123","addr":"경기도 평택시 용이동 467-7번지 청설빌딩 3층 301호","category":"광학제품 - 사진관"},{"name":"SO HOT 마라탕","tel":"","addr":"경기도 평택시 용이동 467-7번지 청설빌딩 2층 202호","category":"일반휴게음식 - 중국식"},{"name":"놀부보쌈평택용이점","tel":"031-618-4482","addr":"경기도 평택시 용이동 467-7번지 청설빌딩 2층","category":"일반휴게음식 - 일반한식"},{"name":"마님닭발","tel":"031-691-3352","addr":"경기도 평택시 용이동 467-7번지 청설빌딩 1층 103호","category":"일반휴게음식 - 일반한식"},{"name":"마님닭발","tel":"031-651-9798","addr":"경기도 평택시 용이동 467-7번지","category":"음식점 - 일반"},{"name":"보라텔레콤","tel":"031-657-7011","addr":"경기도 평택시 용이동 467-7번지 청설빌딩 1층 101호","category":"사무통신 - 통신기기"}]},{"lat":"36.99336052","long":"127.12503342","items":[{"name":"1989청과","tel":"031-651-1030","addr":"경기도 평택시 용이동 688-3번지 103호","category":"도소매업 - 과일"},{"name":"1989청과","tel":"","addr":"경기도 평택시 용이동 688-3번지 103호","category":"음료식품 - 농·축·수산품"},{"name":"달시루","tel":"031-651-2636","addr":"경기도 평택시 용이동 688-3번지 104호","category":"음료식품 - 제과점"},{"name":"더고은피부관리","tel":"070-4325-7063","addr":"경기도 평택시 용이동 688-3번지 3층 302호","category":"보건위생 - 피부미용실"},{"name":"르아샵헤어","tel":"031-000-0000","addr":"경기도 평택시 용이동 688-3번지 202호","category":"보건위생 - 미용원"},{"name":"육형제 정육점 용이동","tel":"","addr":"경기도 평택시 용이동 688-3번지 1층 102호","category":"도소매업 - 육류"},{"name":"육형제정육점","tel":"031-654-9289","addr":"경기도 평택시 용이동 688-3번지 1층 102호","category":"음료식품 - 정육점"},{"name":"크린토피아 코인워시 평택비전푸르지오점","tel":"031-651-1146","addr":"경기도 평택시 용이동 688-3번지","category":"수리서비스 - 세탁소"},{"name":"클라이어학원","tel":"031-654-0571","addr":"경기도 평택시 용이동 688-3번지 401호","category":"학원 - 외국어학원"},{"name":"해법원어민중국어교습소","tel":"031-653-3330","addr":"경기도 평택시 용이동 688-3번지 402호","category":"학원 - 외국어학원"}]},{"lat":"36.999937006","long":"127.13469421","items":[{"name":"24시팔도맛집","tel":"031-618-6648","addr":"경기도 평택시 용이동 169번지","category":"음식점 - 한식"},{"name":"24시팔도맛집","tel":"031-654-4466","addr":"경기도 평택시 용이동 169번지 A동 3-7호","category":"일반휴게음식 - 일반한식"},{"name":"남해수산","tel":"031-654-8899","addr":"경기도 평택시 용이동 169번지 A동 1-2호","category":"음료식품 - 농·축·수산품"},{"name":"정선집","tel":"031-656-6363","addr":"경기도 평택시 용이동 169번지 A동","category":"일반휴게음식 - 일반한식"}]},{"lat":"36.993997691","long":"127.13582977","items":[{"name":"292짬떡 (평택용이점)","tel":"031-655-2920","addr":"경기도 평택시 용이동 466-5번지 105호","category":"일반휴게음식 - 일반한식"},{"name":"불티나샤브샤브","tel":"031-655-8920","addr":"경기도 평택시 용이동 466-5번지 106호","category":"일반휴게음식 - 중국식"},{"name":"신안왕소금구이 (용이점)","tel":"031-618-2034","addr":"경기도 평택시 용이동 466-5번지","category":"일반휴게음식 - 일반한식"},{"name":"한씨마라탕마라샹궈","tel":"070-7543-9807","addr":"경기도 평택시 용이동 466-5번지 1층 103호","category":"일반휴게음식 - 일반한식"}]},{"lat":"36.99618701","long":"127.13608072","items":[{"name":"515","tel":"031-657-2175","addr":"경기도 평택시 용이동 441-5번지 101호","category":"의류 - 정장"},{"name":"슈가","tel":"031-655-5676","addr":"경기도 평택시 용이동 441-5번지 102호","category":"서비스업 - 피부, 왁싱"},{"name":"슈가","tel":"031-657-9329","addr":"경기도 평택시 용이동 441-5번지 102호","category":"회원제형태 - 기타4"}]},{"lat":"36.996632404","long":"127.14058626","items":[{"name":"59쌀피자용이점","tel":"031-618-5919","addr":"경기도 평택시 용이동 460-3번지 1층","category":"일반휴게음식 - 서양음식"},{"name":"파리바게뜨 푸르지오점","tel":"031-653-0294","addr":"경기도 평택시 용이동 460-3번지","category":"음료식품 - 제과점"}]},{"lat":"36.998074291","long":"127.14800332","items":[{"name":"7첩반상","tel":"","addr":"경기도 평택시 용이동 493-1번지 2층","category":"일반휴게음식 - 일반한식"},{"name":"마마돈","tel":"031-692-0777","addr":"경기도 평택시 용이동 493-1번지 상가동 1층","category":"일반휴게음식 - 일반한식"}]},{"lat":"36.994609446","long":"127.13669581","items":[{"name":"929숯불닭갈비평택대점","tel":"031-618-2995","addr":"경기도 평택시 용이동 465-2번지 105호","category":"음식점 - 한식"},{"name":"S노래뮤비방","tel":"","addr":"경기도 평택시 용이동 465-2번지 203호","category":"용역 서비스 - 종합용역"},{"name":"고기담다","tel":"031-655-6063","addr":"경기도 평택시 용이동 465-2번지 1층 105호","category":"일반휴게음식 - 일반한식"},{"name":"깡통닭발","tel":"031-656-4783","addr":"경기도 평택시 용이동 465-2번지 1층","category":"일반휴게음식 - 일반한식"},{"name":"똘마니양다리구이","tel":"","addr":"경기도 평택시 용이동 465-2번지 우광빌딩 101호","category":"일반휴게음식 - 일반한식"},{"name":"엘리팝 평택 용이점","tel":"031-657-4377","addr":"경기도 평택시 용이동 465-2번지 103,104호","category":"일반휴게음식 - 주점"},{"name":"하이센스 PC","tel":"","addr":"경기도 평택시 용이동 465-2번지 204호","category":"레저업소 - 기타레져업소"}]},{"lat":"36.994994222","long":"127.13905554","items":[{"name":"BBQ평택용이점","tel":"031-618-9282","addr":"경기도 평택시 용이동 464-6번지","category":"일반휴게음식 - 스넥"},{"name":"더맛쪽갈비","tel":"031-609-5019","addr":"경기도 평택시 용이동 464-6번지","category":"음식점 - 한식"},{"name":"더맛쪽갈비(평택대점)","tel":"031-691-0369","addr":"경기도 평택시 용이동 464-6번지 1층","category":"일반휴게음식 - 일반한식"},{"name":"떳다도매횟집","tel":"031-111-4111","addr":"경기도 평택시 용이동 464-6번지 109,110호","category":"일반휴게음식 - 일반한식"},{"name":"떳다도매횟집","tel":"031-655-6996","addr":"경기도 평택시 용이동 464-6번지","category":"음식점 - 한식"},{"name":"산삼창용이점","tel":"031-653-5969","addr":"경기도 평택시 용이동 464-6번지","category":"일반휴게음식 - 일반한식"},{"name":"전쟁이","tel":"","addr":"경기도 평택시 용이동 464-6번지","category":"음식점 - 한식"},{"name":"전쟁이","tel":"031-654-3559","addr":"경기도 평택시 용이동 464-6번지 (용이동102~103호)","category":"일반휴게음식 - 일반한식"},{"name":"제이제이바(JJ BAR)","tel":"031-111-1111","addr":"경기도 평택시 용이동 464-6번지 104호","category":"일반휴게음식 - 일반한식"}]},{"lat":"36.995999115","long":"127.13488962","items":[{"name":"BHC평택용이점","tel":"031-692-6969","addr":"경기도 평택시 용이동 439-7번지 1층","category":"일반휴게음식 - 일반한식"},{"name":"BHC평택용이점","tel":"031-618-7705","addr":"경기도 평택시 용이동 439-7번지 1층","category":"음식점 - 치킨"},{"name":"황금마트","tel":"031-658-8918","addr":"경기도 평택시 용이동 439-7번지 1층","category":"유통업 영리 - 슈퍼마켓"}]},{"lat":"36.994775832","long":"127.13292163","items":[{"name":"C 카페테리아","tel":"031-618-5990","addr":"경기도 평택시 용이동 605번지 평택대학교 제3국제관","category":"소매업 - 매점"},{"name":"C카페테리아","tel":"031-685-8600","addr":"경기도 평택시 용이동 605번지 평택대학교 제3국제관","category":"음료식품 - 기타음료식품"},{"name":"국제관매점","tel":"031-655-8596","addr":"경기도 평택시 용이동 605번지 국제관 2층","category":"음료식품 - 기타음료식품"},{"name":"누나버거","tel":"","addr":"경기도 평택시 용이동 605번지 평택대학교 학생회관 1층16동","category":"일반휴게음식 - 서양음식"},{"name":"누나버거","tel":"031-655-8512","addr":"경기도 평택시 용이동 605번지 1층, 평택대학교 16동 학생회관","category":"음식점 - 햄버거"},{"name":"미듬이푸드","tel":"031-659-8174","addr":"경기도 평택시 용이동 605번지 평택대학교16동학생회관","category":"일반휴게음식 - 위탁급식업"},{"name":"씨유평택대기숙사점","tel":"02-1577-8007","addr":"경기도 평택시 용이동 605번지 평택대학교 제2국제관 1층","category":"유통업 영리 - 편 의 점"},{"name":"제2국제관매점","tel":"031-655-8596","addr":"경기도 평택시 용이동 605번지 평택대학교 제2국제관","category":"음료식품 - 기타음료식품"},{"name":"진","tel":"031-658-8600","addr":"경기도 평택시 용이동 605번지 평택대학교 제3국제관 카페테리아","category":"음료식품 - 기타음료식품"},{"name":"타이코 평택점","tel":"031-652-5371","addr":"경기도 평택시 용이동 605번지 평택대학교 12동 이공관","category":"일반휴게음식 - 서양음식"},{"name":"투썸플레이스평택대점","tel":"031-692-4541","addr":"경기도 평택시 용이동 605번지 평택대학교 제2피어선빌딩1층","category":"일반휴게음식 - 서양음식"},{"name":"평택대 구내문구","tel":"031-659-8151","addr":"경기도 평택시 용이동 605번지 평택대학교","category":"서적문구 - 문구용품"},{"name":"평택대서적","tel":"031-618-5990","addr":"경기도 평택시 용이동 605번지","category":"서적문구 - 일반서적"},{"name":"평택대서적","tel":"","addr":"경기도 평택시 용이동 605번지","category":"소매업 - 서점"},{"name":"평택대학교복사","tel":"031-659-8149","addr":"경기도 평택시 용이동 605번지 평택대학교","category":"용역 서비스 - 사무서비스"}]},{"lat":"36.992687291","long":"127.12250486","items":[{"name":"GS25 용죽푸르지오점","tel":"031-654-0361","addr":"경기도 평택시 용이동 652번지 평택비전에듀포레푸르지오 331동 111~112호","category":"소매업 - 편의점"},{"name":"그림아트스튜디오미술교습소","tel":"031-658-3019","addr":"경기도 평택시 용이동 652번지 평택비전에듀포레푸르지오 상가동 지하1층 B03호","category":"학원 - 예·체능계학원"},{"name":"봄이중국어","tel":"","addr":"경기도 평택시 용이동 652번지 평택비전에듀포레푸르지오 305동 10층 04호","category":"학원 - 기타 교육기관"},{"name":"시립 에듀포레어린이집[아이행복]","tel":"031-653-7710","addr":"경기도 평택시 용이동 652번지 평택비전에듀포레푸르지오","category":"학원 - 유아원"},{"name":"아이짐스포츠(태권도)","tel":"031-654-6011","addr":"경기도 평택시 용이동 652번지 평택비전에듀포레푸르지오 지하1층 05호","category":"학원 - 예·체능계학원"},{"name":"유메헤어","tel":"031-651-5113","addr":"경기도 평택시 용이동 652번지 평택비전에듀포레푸르지오 331동 1층 9호","category":"보건위생 - 미용원"},{"name":"유메헤어","tel":"031-653-3593","addr":"경기도 평택시 용이동 652번지 비전에듀푸르지오 상가단지 109호 유메헤어","category":"서비스업 - 미용"},{"name":"이지 음악학원","tel":"","addr":"경기도 평택시 용이동 652번지 평택비전에듀포레푸르지오 지하1층 B02호","category":"학원 - 예·체능계학원"},{"name":"푸르지오","tel":"031-663-0447","addr":"경기도 평택시 용이동 652번지 평택비전에듀포레푸르지오 331동 804호","category":"수리서비스 - 세탁소"}]},{"lat":"36.994610757","long":"127.13552753","items":[{"name":"GS25 평택용이본점","tel":"031-658-4886","addr":"경기도 평택시 용이동 452-23번지 1층","category":"소매업 - 편의점"},{"name":"GS25평택용이본점","tel":"","addr":"경기도 평택시 용이동 452-23번지 1층","category":"소매업 - 편의점"},{"name":"사거리텔레콤5호","tel":"031-618-6010","addr":"경기도 평택시 용이동 452-23번지 1층","category":"사무통신 - 통신기기"},{"name":"지에스25 평택용이본점","tel":"","addr":"경기도 평택시 용이동 452-23번지 상가 1층","category":"유통업 영리 - 편 의 점"}]},{"lat":"36.99504934","long":"127.13813448","items":[{"name":"GS25 평택용이타운점","tel":"031-651-1126","addr":"경기도 평택시 용이동 464-1번지 102호","category":"소매업 - 편의점"},{"name":"GS25용이타운점","tel":"031-651-3721","addr":"경기도 평택시 용이동 464-1번지 102호","category":"소매업 - 편의점"},{"name":"GS25용이타운점","tel":"","addr":"경기도 평택시 용이동 464-1번지 102호","category":"유통업 영리 - 편 의 점"},{"name":"데이앤데이 대박점","tel":"031-658-4886","addr":"경기도 평택시 용이동 464-1 102호","category":"유통업 영리 - 편 의 점"},{"name":"본초불닭발","tel":"031-658-3334","addr":"경기도 평택시 용이동 464-1번지 1층 107호","category":"일반휴게음식 - 일반한식"},{"name":"비어타임","tel":"031-655-0902","addr":"경기도 평택시 용이동 464-1번지 104,105호","category":"음식점 - 일반"},{"name":"해강포차","tel":"031-618-1530","addr":"경기도 평택시 용이동 464-1번지","category":"음식점 - 한식"},{"name":"해강포차","tel":"031-657-2611","addr":"경기도 평택시 용이동 464-1번지","category":"일반휴게음식 - 일반한식"}]},{"lat":"36.993630331","long":"127.12552812","items":[{"name":"GS25 평택용죽점","tel":"031-658-4811","addr":"경기도 평택시 용이동 685-2번지","category":"소매업 - 편의점"}]},{"lat":"36.994551868","long":"127.12313686","items":[{"name":"GS25비전푸르지오점","tel":"","addr":"경기도 평택시 용이동 650번지 평택비전2차푸르지오단지내상가 101호","category":"유통업 영리 - 편 의 점"},{"name":"블랑봉봉","tel":"","addr":"경기도 평택시 용이동 650번지 평택비전센트럴푸르지오 204동 1601호","category":"직물 - 침구·수예점"},{"name":"비전아이뜰 어린이집[아이행복]","tel":"031-618-1279","addr":"경기도 평택시 용이동 650번지 평택비전센트럴푸르지오2차 관리동","category":"학원 - 유아원"},{"name":"요거프레소 평택용죽초교점","tel":"031-651-2221","addr":"경기도 평택시 용이동 650번지 평택비전센트럴푸르지오 상가동 102호","category":"일반휴게음식 - 서양음식"},{"name":"요거프레소 평택용죽초교점","tel":"031-618-3522","addr":"경기도 평택시 용이동 650번지 평택비전센트럴푸르지오 상가동 102호","category":"음식점 - 카페"},{"name":"파랑새키즈","tel":"","addr":"경기도 평택시 용이동 650번지 평택비전센트럴푸르지오 204동 202호","category":"서적문구 - 기타서적문구"}]},{"lat":"36.998356833","long":"127.13763481","items":[{"name":"GS25용이빌리지점","tel":"","addr":"경기도 평택시 용이동 444-12번지 101호","category":"유통업 영리 - 편 의 점"},{"name":"보니타템푸스","tel":"031-000-0000","addr":"경기도 평택시 용이동 444-12번지 201호","category":"일반휴게음식 - 일반한식"}]},{"lat":"37.000415548","long":"127.14924355","items":[{"name":"GS25용이원룸점","tel":"","addr":"경기도 평택시 용이동 481-9번지 101호","category":"유통업 영리 - 편 의 점"}]},{"lat":"36.998292541","long":"127.14636356","items":[{"name":"GS25용이이편한점","tel":"","addr":"경기도 평택시 용이동 492-1번지 e편한세상 편택 용이 1BL 단지상가 102호","category":"유통업 영리 - 편 의 점"},{"name":"경기해피케어","tel":"031-656-5100","addr":"경기도 평택시 용이동 492-1번지 용이반도유보라A 상가동 106호","category":"서비스업 - 산후조리원"},{"name":"소풍","tel":"031-618-6207","addr":"경기도 평택시 용이동 492-1번지 용이반도유보라 상가 1층 111호","category":"음식점 - 한식"},{"name":"스토리","tel":"031-657-3769","addr":"경기도 평택시 용이동 492-1번지 용이반도유보라아파트 G동 1층 114호","category":"일반휴게음식 - 일반한식"},{"name":"유보라세탁","tel":"031-655-1855","addr":"경기도 평택시 용이동 492-1번지 반도유보라 상가동 104호","category":"서비스업 - 세탁"},{"name":"유보라음악학원","tel":"031-651-5567","addr":"경기도 평택시 용이동 492-1번지 용이반도유보라아파트 (102,103)","category":"학원 - 예·체능계학원"},{"name":"이엘영재학원","tel":"031-656-3866","addr":"경기도 평택시 용이동 492-1번지 용이반도유보라아파트 103호,102호 일부","category":"학원 - 보습학원"},{"name":"커피스토리","tel":"031-652-7005","addr":"경기도 평택시 용이동 492-1번지 용이반도유보라아파트 G동 1층 114호","category":"음식점 - 커피"},{"name":"케이네일","tel":"","addr":"경기도 평택시 용이동 492-1번지 용이반도유보라아파트 116호","category":"서비스업 - 미용"}]},{"lat":"36.998518645","long":"127.12980493","items":[{"name":"GS25평택어울림점","tel":"","addr":"경기도 평택시 용이동 601 금호어울림2단지 상가동207호","category":"유통업 영리 - 편 의 점"},{"name":"금호세탁","tel":"","addr":"경기도 평택시 용이동 601번지 평택용이금호어울림2단지 상가 206호","category":"서비스업 - 세탁"},{"name":"금호온누리어린이집[아이행복]","tel":"031-658-5160","addr":"경기도 평택시 용이동 601번지 평택용이금호어울림2단지 관리동","category":"학원 - 유아원"},{"name":"드레스룸","tel":"031-657-1101","addr":"경기도 평택시 용이동 601번지 평택용이금호어울림2단지 근린생활시설 제1층 제210호","category":"의류 - 정장"},{"name":"리드인","tel":"02-3667-2068","addr":"경기도 평택시 용이동 601번지 평택용이금호어울림2단지 208동 802호","category":"학원 - 기타 교육기관"},{"name":"박군치킨 (용이동현촌점)","tel":"031-657-9289","addr":"경기도 평택시 용이동 601번지 평택용이금호어울림2단지 204호","category":"일반휴게음식 - 스넥"},{"name":"벽걸이티비","tel":"070-8031-4038","addr":"경기도 평택시 용이동 601번지 평택용이금호어울림2단지 204동 1801호","category":"용역 서비스 - 기타용역서비스"},{"name":"비이나(BeeINA)","tel":"031-000-0000","addr":"경기도 평택시 용이동 601번지 평택용이금호어울림2단지 203동 1001호","category":"의류 - 정장"},{"name":"삼삼구이","tel":"031-618-3392","addr":"경기도 평택시 용이동 601번지 평택용이금호어울림2단지 상가동 208호","category":"일반휴게음식 - 일반한식"},{"name":"어울림호프","tel":"031-655-2751","addr":"경기도 평택시 용이동 601번지 평택용이금호어울림2단지 209호","category":"일반휴게음식 - 주점"},{"name":"하루도빠짐없이노력하는 하빠노미용실","tel":"031-653-2223","addr":"경기도 평택시 용이동 601번지 평택용이금호어울림2단지 근린생활시설동 203호","category":"보건위생 - 미용원"},{"name":"한가득축산용이점","tel":"031-655-7395","addr":"경기도 평택시 용이동 601번지 평택용이금호어울림2단지 205호","category":"음료식품 - 정육점"},{"name":"한가득축산용이점","tel":"031-656-9569","addr":"경기도 평택시 용이동 601번지 평택용이금호어울림2단지","category":"도소매업 - 정육"},{"name":"현촌과일","tel":"031-658-4998","addr":"경기도 평택시 용이동 601번지 평택용이금호어울림2단지 제근린생활시설동 1층 208호","category":"음료식품 - 기타음료식품"}]},{"lat":"37.001518187","long":"127.13075361","items":[{"name":"GS25평택용이금호점","tel":"","addr":"경기도 평택시 용이동 581번지 평택용이금호어울림1단지 상가동 109~110호","category":"유통업 영리 - 편 의 점"},{"name":"GS25평택용이금호점","tel":"031-656-4886","addr":"경기도 평택시 용이동 581번지 평택용이금호어울림1단지","category":"소매업 - 편의점"},{"name":"공터영어현촌센터","tel":"031-618-1080","addr":"경기도 평택시 용이동 581번지 평택용이금호어울림1단지 111동 101호","category":"학원 - 기타 교육기관"},{"name":"꼬마아띠어린이집[아이행복]","tel":"031-658-9944","addr":"경기도 평택시 용이동 581번지 평택용이금호어울림1단지 103동 101호","category":"학원 - 유아원"},{"name":"꾼떡 (평택1호점)","tel":"031-2263-0129","addr":"경기도 평택시 용이동 581번지 평택용이금호어울림1단지 상가동 107호","category":"일반휴게음식 - 일반한식"},{"name":"대소골프클럽","tel":"","addr":"경기도 평택시 용이동 581번지 평택용이금호어울림1단지 107동 1003호","category":"레저업소 - 골프연습장"},{"name":"러브펫 멀티펫샵 평택용이","tel":"031-658-2468","addr":"경기도 평택시 용이동 581번지 금호어울림1단지 상가동 113호","category":"문화.취미 - 애완동물"},{"name":"러브펫멀티펫샵","tel":"031-655-1474","addr":"경기도 평택시 용이동 581번지 평택용이금호어울림1단지 상가동 113호","category":"서비스업 - 애견샵"},{"name":"로즈애플 평택점","tel":"031-655-9076","addr":"경기도 평택시 용이동 581번지 평택용이금호어울림1단지 부대복리동 1층 102호","category":"음료식품 - 농·축·수산품"},{"name":"로즈애플평택점","tel":"031-653-6535","addr":"경기도 평택시 용이동 581번지 금호어울림1단지 상가 102호","category":"도소매업 - 과일"},{"name":"로하스포유","tel":"070-8866-5299","addr":"경기도 평택시 용이동 581번지 평택용이금호어울림1단지 118동 501호","category":"신변잡화 - 기타잡화"},{"name":"뮤엠영어현촌어울림네스트","tel":"070-8274-2571","addr":"경기도 평택시 용이동 581번지 평택용이금호어울림1단지 116동 104호","category":"학원 - 보습학원"},{"name":"바른밥상","tel":"070-1111-1111","addr":"경기도 평택시 용이동 581번지 평택용이금호어울림1단지 108호","category":"일반휴게음식 - 일반한식"},{"name":"바이류","tel":"031-691-8223","addr":"경기도 평택시 용이동 581번지 평택용이금호어울림1단지 105동 1502호","category":"신변잡화 - 액세서리"},{"name":"바이류(저스트모먼츠)","tel":"031-611-2566","addr":"경기도 평택시 용이동 581번지 평택용이금호어울림1단지","category":"소매업 - 의류"},{"name":"빨간펜 수학의 달인","tel":"","addr":"경기도 평택시 용이동 581번지 평택용이금호어울림1단지 119동 101호","category":"학원 - 기타 교육기관"},{"name":"산들바람어린이집[아이행복]","tel":"031-655-3010","addr":"경기도 평택시 용이동 581번지 평택용이금호어울림1단지 116동 103호","category":"학원 - 유아원"},{"name":"색연필 현촌점","tel":"031-0000-0000","addr":"경기도 평택시 용이동 581번지 평택용이금호어울림1단지 상가 120호","category":"서적문구 - 문구용품"},{"name":"색연필 현촌점","tel":"031-8054-7337","addr":"경기도 평택시 용이동 581번지 평택용이금호어울림1단지 상가동 120호","category":"소매업 - 문구"},{"name":"수내닭꼬치","tel":"","addr":"경기도 평택시 용이동 581번지 평택용이금호어울림1단지 103호","category":"일반휴게음식 - 일반한식"},{"name":"수내닭꼬치(용이점)","tel":"","addr":"경기도 평택시 용이동 581번지 금호어울림 상가 103호","category":"음식점 - 분식"},{"name":"수피아어린이집[아이행복]","tel":"031-658-9138","addr":"경기도 평택시 용이동 581번지 금호어울림1단지","category":"학원 - 유아원"},{"name":"아가사랑어린이집[아이행복]","tel":"031-691-2252","addr":"경기도 평택시 용이동 581번지 평택용이금호어울림1단지 108동 105호","category":"학원 - 유아원"},{"name":"어울림헤어","tel":"031-657-2155","addr":"경기도 평택시 용이동 581번지 평택용이금호어울림1단지 상가동 114호","category":"보건위생 - 미용원"},{"name":"오늘 (O Neul)","tel":"032-656-2686","addr":"경기도 평택시 용이동 581번지 금호1단지 근린생활시설 117호","category":"음료식품 - 기타음료식품"},{"name":"잡스코딩 용이금호점","tel":"","addr":"경기도 평택시 용이동 581번지 평택용이금호어울림1단지 111동 503호","category":"학원 - 기타 교육기관"},{"name":"장터정육점","tel":"031-658-5220","addr":"경기도 평택시 용이동 581번지 평택용이금호어울림1단지 상가동 109호","category":"음료식품 - 정육점"},{"name":"장터정육점","tel":"031-658-5220","addr":"경기도 평택시 용이동 581번지 평택용이금호어울림1단지 상가 109호","category":"음료식품 - 정육점"},{"name":"치킨행성","tel":"031-653-2570","addr":"경기도 평택시 용이동 581번지 평택용이금호어울림1단지 근린생활시설동 117호","category":"일반휴게음식 - 스넥"},{"name":"카페인시애틀","tel":"031-655-9076","addr":"경기도 평택시 용이동 581번지 111,112호","category":"음식점 - 카페"},{"name":"커피마마 (평택용이점)","tel":"031-618-6648","addr":"경기도 평택시 용이동 581번지 평택용이금호어울림1단지 105호","category":"일반휴게음식 - 서양음식"},{"name":"커피마마(용이점)","tel":"031-656-1737","addr":"경기도 평택시 용이동 581번지 평택용이금호어울림1단지 상가동 105호","category":"음식점 - 카페"},{"name":"토론하는아이들","tel":"","addr":"경기도 평택시 용이동 581번지 평택용이금호어울림1단지 106동 1705호","category":"학원 - 기타 교육기관"},{"name":"하늘담은어린이집[아이행복]","tel":"031-657-5678","addr":"경기도 평택시 용이동 581번지 평택용이금호어울림1단지 104동 102호","category":"학원 - 유아원"},{"name":"한사랑정육","tel":"031-657-5689","addr":"경기도 평택시 용이동 581번지 평택용이금호어울림1단지 상가동 122호","category":"소매업 - 정육"},{"name":"해피키즈어린이집[아이행복]","tel":"","addr":"경기도 평택시 용이동 581번지 평택용이금호어울림1단지 103동 102호","category":"학원 - 유아원"},{"name":"헤어살롱명작","tel":"031-657-4288","addr":"경기도 평택시 용이동 581번지 평택용이금호어울림1단지 상가동 118호","category":"보건위생 - 미용원"},{"name":"헤어스타","tel":"031-692-5004","addr":"경기도 평택시 용이동 581번지 평택용이금호어울림1단지 121호","category":"보건위생 - 미용원"},{"name":"홍희통닭(용이점)","tel":"031-618-2430","addr":"경기도 평택시 용이동 581번지 평택용이금호어울림1단지 상가동 106호","category":"일반휴게음식 - 스넥"},{"name":"황당한치킨","tel":"031-657-5392","addr":"경기도 평택시 용이동 581번지 평택용이금호어울림1단지 상가동 115호","category":"일반휴게음식 - 스넥"}]},{"lat":"36.993548921","long":"127.12583129","items":[{"name":"GS25평택용죽점","tel":"","addr":"경기도 평택시 용이동 280-4번지 용죽지구 C4블럭 2롯트","category":"유통업 영리 - 편 의 점"}]},{"lat":"36.999498429","long":"127.1476353","items":[{"name":"GS25평택유보라점","tel":"080-555-2525","addr":"경기도 평택시 용이동 484-10번지","category":"유통업 영리 - 편 의 점"}]},{"lat":"37.000547326","long":"127.12860622","items":[{"name":"GS25평택이편한점","tel":"","addr":"경기도 평택시 용이동 580번지 e편한세상평택 상가동 101호","category":"유통업 영리 - 편 의 점"},{"name":"e편한세상평택아파트입주자대표회의","tel":"031-618-4822","addr":"경기도 평택시 용이동 580번지 커뮤니티센터 주민회의실","category":"레저업소 - 헬스클럽"},{"name":"금손에어컨냉장","tel":"","addr":"경기도 평택시 용이동 580번지 e편한세상평택 105동 1602호","category":"용역 서비스 - 기타용역서비스"},{"name":"대림햇살어린이집[아이행복]","tel":"031-656-6410","addr":"경기도 평택시 용이동 580번지 e편한세상평택","category":"학원 - 유아원"},{"name":"벨루디아153","tel":"031-651-7142","addr":"경기도 평택시 용이동 580번지 e편한세상평택 107동 1904호","category":"보건위생 - 화장품"},{"name":"시크헤어","tel":"031-653-4131","addr":"경기도 평택시 용이동 580번지 e편한세상평택 209동 102호","category":"보건위생 - 미용원"},{"name":"피아노숲음악학원","tel":"031-655-5979","addr":"경기도 평택시 용이동 580번지 e편한세상평택 209동 202호","category":"학원 - 예·체능계학원"},{"name":"효태권도","tel":"031-656-2123","addr":"경기도 평택시 용이동 580번지 e편한세상 209동 201호","category":"학원 - 예·체능계학원"}]},{"lat":"36.995491067","long":"127.12106011","items":[{"name":"GS25평택푸르지오점","tel":"031-658-4886","addr":"경기도 평택시 용이동 648번지 푸르지오 평택 비전","category":"소매업 - 편의점"},{"name":"카페푸른","tel":"02-111-1111","addr":"경기도 평택시 용이동 648번지 평택비전푸르지오 상가동 106호","category":"일반휴게음식 - 서양음식"},{"name":"타임공인중개사사무소","tel":"031-618-1192","addr":"경기도 평택시 용이동 648번지 비전푸르지오 105호","category":"서비스업 - 부동산"},{"name":"푸르지오키즈 어린이집[아이행복]","tel":"031-653-7991","addr":"경기도 평택시 용이동 648번지 평택비전푸르지오 관리동","category":"학원 - 유아원"},{"name":"푸르지오피아노","tel":"","addr":"경기도 평택시 용이동 648번지 평택비전푸르지오 108동 104호","category":"학원 - 예·체능계학원"},{"name":"헤어화","tel":"031-652-5111","addr":"경기도 평택시 용이동 648번지 평택비전푸르지오 상가동 102호","category":"보건위생 - 미용원"},{"name":"후라이드참잘하는집 비전용이점","tel":"031-618-3383","addr":"경기도 평택시 용이동 648번지 비전푸르지오단지내상가","category":"일반휴게음식 - 스넥"}]},{"lat":"36.997831344","long":"127.14013906","items":[{"name":"GS25평택현신점","tel":"","addr":"경기도 평택시 용이동 448-8번지","category":"유통업 영리 - 편 의 점"},{"name":"라임뷰티샵","tel":"031-691-1336","addr":"경기도 평택시 용이동 448-8번지 1층","category":"보건위생 - 미용원"}]},{"lat":"36.996215484","long":"127.14266375","items":[{"name":"GS현대에너지","tel":"031-656-7867","addr":"경기도 평택시 용이동 470-5번지","category":"자동차정비 유지 - 세차장"},{"name":"오토오아시스현대점","tel":"031-657-8432","addr":"경기도 평택시 용이동 470-5번지","category":"자동차정비 유지 - 자동차정비"},{"name":"팀딜라이트(Team Delight)","tel":"031-658-6262","addr":"경기도 평택시 용이동 470-5번지","category":"자동차정비 유지 - 세차장"}]},{"lat":"37.001491871","long":"127.14592019","items":[{"name":"JC태권스쿨","tel":"031-682-4042","addr":"경기도 평택시 용이동 742-1번지 신우프라자 4층 402,403호","category":"학원 - 예·체능계학원"},{"name":"감성닭발용이점","tel":"","addr":"경기도 평택시 용이동 742-1번지 신우프라자 101호,102호","category":"일반휴게음식 - 일반한식"},{"name":"감성술집","tel":"031-562-1980","addr":"경기도 평택시 용이동 742-1번지 108호 107호,108호","category":"일반휴게음식 - 일반한식"},{"name":"리틀포레스트미술교습소","tel":"031-657-1005","addr":"경기도 평택시 용이동 742-1번지","category":"학원 - 예·체능계학원"},{"name":"쥴린","tel":"","addr":"경기도 평택시 용이동 742-1번지 1층 104호","category":"의류 - 정장"},{"name":"카페플로렌스","tel":"031-653-1983","addr":"경기도 평택시 용이동 742-1번지 106호","category":"일반휴게음식 - 서양음식"}]},{"lat":"36.999686023","long":"127.13350294","items":[{"name":"JOSEPH (조셉)영어학원","tel":"031-691-9981","addr":"경기도 평택시 용이동 595-11번지 3층 일부","category":"학원 - 외국어학원"},{"name":"광명회수산","tel":"031-654-0798","addr":"경기도 평택시 용이동 595-11번지 송림빌딩 101호","category":"일반휴게음식 - 일식·회집"},{"name":"독한견 애견샵","tel":"031-655-1474","addr":"경기도 평택시 용이동 595-11번지 103호","category":"문화.취미 - 애완동물"},{"name":"독한견애견샵","tel":"","addr":"경기도 평택시 용이동 595-11번지 1층","category":"서비스업 - 애견미용"},{"name":"블랙라벨 스터디카페 평택용이점","tel":"031-618-5678","addr":"경기도 평택시 용이동 595-11번지 2층 201호","category":"용역 서비스 - 사무서비스"}]},{"lat":"36.997192351","long":"127.13947511","items":[{"name":"LOVELY U","tel":"","addr":"경기도 평택시 용이동 449-16번지 102호","category":"보건위생 - 피부미용실"},{"name":"나무마카롱","tel":"","addr":"경기도 평택시 용이동 449-16번지 101호","category":"일반휴게음식 - 서양음식"},{"name":"다니네일","tel":"","addr":"경기도 평택시 용이동 449-16번지","category":"보건위생 - 피부미용실"},{"name":"러블리속눈썹","tel":"02-1111-1111","addr":"경기도 평택시 용이동 449-16번지 102호","category":"보건위생 - 피부미용실"},{"name":"러블리속눈썹","tel":"031-668-6426","addr":"경기도 평택시 용이동 449-16번지 102호","category":"서비스업 - 이미용(메이크업)"},{"name":"러블리유","tel":"","addr":"경기도 평택시 용이동 449-16번지 102호","category":"서비스업 - 피부(왁싱)"}]},{"lat":"36.996635781","long":"127.13764301","items":[{"name":"Nail쟁이","tel":"031-692-1654","addr":"경기도 평택시 용이동 442-28번지","category":"서비스업 - 네일"},{"name":"Nail쟁이","tel":"031-657-4148","addr":"경기도 평택시 용이동 442-28번지 102호","category":"보건위생 - 화장품"},{"name":"카페붐","tel":"031-657-3677","addr":"경기도 평택시 용이동 442-28번지 1층","category":"음식점 - 카페"},{"name":"카페붐 (Cafe Boom)","tel":"031-656-8243","addr":"경기도 평택시 용이동 442-28번지 1층","category":"일반휴게음식 - 서양음식"},{"name":"피자명(용이점)","tel":"031-651-8270","addr":"경기도 평택시 용이동 442-28번지 1층","category":"일반휴게음식 - 서양음식"}]},{"lat":"36.994356868","long":"127.13694251","items":[{"name":"Q노래연습장","tel":"031-655-5171","addr":"경기도 평택시 용이동 465-9번지 2층","category":"레저업소 - 노 래 방"},{"name":"돈뼈랑감자탕 (평택대점)","tel":"031-691-6464","addr":"경기도 평택시 용이동 465-9번지 1층","category":"일반휴게음식 - 일반한식"},{"name":"미스터오징어용이점","tel":"031-618-5756","addr":"경기도 평택시 용이동 465-9번지 101호","category":"일반휴게음식 - 일반한식"},{"name":"바베큐통","tel":"031-652-7866","addr":"경기도 평택시 용이동 465-9번지 102호","category":"일반휴게음식 - 일반한식"},{"name":"황제센터","tel":"","addr":"경기도 평택시 용이동 465-9번지 3층 301호","category":"레저업소 - 헬스클럽"}]},{"lat":"36.999630787","long":"127.1499161","items":[{"name":"S아이래쉬","tel":"031-8038-4680","addr":"경기도 평택시 용이동 488-1번지 402호","category":"보건위생 - 화장품"},{"name":"헤라네일","tel":"031-8059-2349","addr":"경기도 평택시 용이동 488-1번지 102호","category":"보건위생 - 피부미용실"},{"name":"헤라네일","tel":"","addr":"경기도 평택시 용이동 488-1번지","category":"서비스업 - 이미용"}]},{"lat":"36.998218685","long":"127.13221975","items":[{"name":"TaYo(타요)스피닝","tel":"031-653-8379","addr":"경기도 평택시 용이동 600-1번지 블랑쉬에상가 2층 201호,202호","category":"레저업소 - 헬스클럽"},{"name":"노가리앤비어(평택용이점)","tel":"","addr":"경기도 평택시 용이동 600-1번지 블랑쉬에 제1동 제108호","category":"일반휴게음식 - 일반한식"},{"name":"누구나홀딱반한닭 평택용이점","tel":"031-657-8992","addr":"경기도 평택시 용이동 600-1번지 블랑쉬에 제1동 102호,103호","category":"일반휴게음식 - 일반한식"},{"name":"데이앤데이(평택대점)","tel":"031-657-6720","addr":"경기도 평택시 용이동 600-1번지 블랑쉬에 1동 104호","category":"유통업 영리 - 편 의 점"},{"name":"마미쿡 (용이점)","tel":"031-618-6696","addr":"경기도 평택시 용이동 600-1번지 블랑쉬에 상가 1층 105호","category":"일반휴게음식 - 스넥"},{"name":"밥도둑술도둑","tel":"","addr":"경기도 평택시 용이동 600-1번지 블랑쉬에 1층 124호","category":"일반휴게음식 - 일반한식"},{"name":"아기숟가락","tel":"031-655-3316","addr":"경기도 평택시 용이동 600-1번지 블랑쉬에 제1동 106호","category":"소매업 - 식품"},{"name":"아기숟가락평택점","tel":"031-656-2610","addr":"경기도 평택시 용이동 600-1번지 블랑쉬에 1동 106호","category":"일반휴게음식 - 일반한식"},{"name":"요거프레소","tel":"031-656-4749","addr":"경기도 평택시 용이동 600-1번지 블랑쉬에 상가 107호","category":"음식점 - 휴게음식"},{"name":"요거프레소 현촌지구점","tel":"031-618-3122","addr":"경기도 평택시 용이동 600-1번지 블랑쉬에 107호","category":"일반휴게음식 - 서양음식"},{"name":"우돈한마당","tel":"031-654-2446","addr":"경기도 평택시 용이동 600-1번지 118,119호","category":"일반휴게음식 - 일반한식"},{"name":"우돈한마당","tel":"031-658-0369","addr":"경기도 평택시 용이동 600-1번지 블랑쉬에 118호","category":"음식점 - 한식"},{"name":"원할머니보쌈 평택용이배달점","tel":"031-656-4665","addr":"경기도 평택시 용이동 600-1번지 블랑쉬에 상가동 109호","category":"일반휴게음식 - 일반한식"},{"name":"유엠골프","tel":"031-651-7141","addr":"경기도 평택시 용이동 600-1번지 블랑쉬에 1동 203호","category":"레져용품 - 골프용품 전문점"},{"name":"제이엔제이푸드","tel":"","addr":"경기도 평택시 용이동 600-1번지 블랑쉬에 126호","category":"일반휴게음식 - 일반한식"},{"name":"족왕","tel":"","addr":"경기도 평택시 용이동 600-1번지","category":"일반휴게음식 - 일반한식"},{"name":"짱만두","tel":"","addr":"경기도 평택시 용이동 600-1번지 블랑쉬에 104호","category":"음식점 - 분식"},{"name":"크린토피아 코인워시 평택현촌지구점","tel":"031-652-1290","addr":"경기도 평택시 용이동 600-1번지 블랑쉬에 상가 112호","category":"수리서비스 - 세탁소"},{"name":"태후사랑(용이현촌점)","tel":"031-654-5805","addr":"경기도 평택시 용이동 600-1번지 블랑쉬에 1동 113호","category":"보건위생 - 미용원"},{"name":"토우(본)정육식당","tel":"031-654-5957","addr":"경기도 평택시 용이동 600-1번지 블랑쉬에 110,111호","category":"일반휴게음식 - 일반한식"},{"name":"토우(본)정육식당","tel":"031-654-2446","addr":"경기도 평택시 용이동 600-1번지 블랑쉬에 110,111호","category":"음식점 - 한식"}]},{"lat":"37.004023381","long":"127.13866718","items":[{"name":"㈜세종디앤씨","tel":"","addr":"경기도 평택시 용이동 36-1번지","category":"서비스업 - 상하수도설비"},{"name":"뉴코리아특수여객","tel":"031-653-4411","addr":"경기도 평택시 용이동 36-1번지","category":"용역 서비스 - 가례서비스업"},{"name":"솔라가드","tel":"031-652-8527","addr":"경기도 평택시 용이동 36-1번지","category":"자동차정비 유지 - 카인테리어"},{"name":"자동차덴트하우스","tel":"","addr":"경기도 평택시 용이동 36-1번지","category":"자동차정비 유지 - 카인테리어"},{"name":"주식회사청인씨엔씨","tel":"031-611-6779","addr":"경기도 평택시 용이동 36-1번지","category":"용역 서비스 - 기타용역서비스"},{"name":"히든리페어","tel":"031-653-7936","addr":"경기도 평택시 용이동 36-1번지","category":"자동차정비 유지 - 자동차정비"}]},{"lat":"37.00030373","long":"127.14486194","items":[{"name":"㈜티엘","tel":"031-692-6969","addr":"경기도 평택시 용이동 473-1번지","category":"도소매업 - 의류"},{"name":"컨테이너카페티엘/(주)티엘","tel":"031-653-3458","addr":"경기도 평택시 용이동 473-1번지","category":"일반휴게음식 - 서양음식"}]},{"lat":"37.000213986","long":"127.14455844","items":[{"name":"㈜희상","tel":"","addr":"경기도 평택시 용이동 472-2번지","category":"서비스업 - 청소"},{"name":"스타일휴대폰","tel":"031-652-8859","addr":"경기도 평택시 용이동 472-2번지","category":"소매업 - 전자기기"},{"name":"스타필휴대폰","tel":"031-653-2535","addr":"경기도 평택시 용이동 472-2번지 1층 101호","category":"사무통신 - 통신기기"},{"name":"용이철물건재","tel":"031-653-0409","addr":"경기도 평택시 용이동 472-2번지","category":"건축자재 - 기타건축자재"}]},{"lat":"36.995103173","long":"127.13833678","items":[{"name":"가장맛있는족발 용이점","tel":"031-656-5849","addr":"경기도 평택시 용이동 464-2번지 1동 101 ,102,103호","category":"일반휴게음식 - 일반한식"},{"name":"돈데이평택대점","tel":"031-691-8844","addr":"경기도 평택시 용이동 464-2번지 2동 1층","category":"음식점 - 한식"},{"name":"믿음축산","tel":"031-658-4918","addr":"경기도 평택시 용이동 464-2번지","category":"도매업 - 정육"},{"name":"믿음축산","tel":"031-618-8788","addr":"경기도 평택시 용이동 464-2번지 1동 104호","category":"음료식품 - 정육점"},{"name":"에스투헤어샵","tel":"031-654-3377","addr":"경기도 평택시 용이동 464-2번지","category":"보건위생 - 미용원"},{"name":"용이노래연습장","tel":"031-654-8277","addr":"경기도 평택시 용이동 464-2번지 2층","category":"레저업소 - 노 래 방"},{"name":"일가일양꼬치","tel":"","addr":"경기도 평택시 용이동 464-2번지 1동 6호","category":"일반휴게음식 - 일반한식"},{"name":"천하양꼬치","tel":"031-657-2611","addr":"경기도 평택시 용이동 464-2번지","category":"음식점 - 중식"},{"name":"천하중국식품","tel":"031-657-8818","addr":"경기도 평택시 용이동 464-2번지 1동 5호","category":"유통업 영리 - 슈퍼마켓"}]},{"lat":"37.002212629","long":"127.14600019","items":[{"name":"감성식당","tel":"","addr":"경기도 평택시 용이동 739-2번지 1층 104호","category":"일반휴게음식 - 일반한식"},{"name":"또봉이통닭 용이점","tel":"031-656-9290","addr":"경기도 평택시 용이동 739-2번지 101호","category":"일반휴게음식 - 스넥"},{"name":"아원개발 주식회사","tel":"031-651-3993","addr":"경기도 평택시 용이동 739-2번지","category":"레저업소 - 기타레져업소"},{"name":"용이 아이스타 태권도","tel":"031-647-3221","addr":"경기도 평택시 용이동 739-2번지 아원프라자 5층 502호","category":"학원 - 예·체능계학원"}]},{"lat":"36.996470147","long":"127.14064214","items":[{"name":"강성숙헤어","tel":"031-691-5636","addr":"경기도 평택시 용이동 460-4번지","category":"서비스업 - 이미용"},{"name":"강성숙헤어","tel":"031-658-4330","addr":"경기도 평택시 용이동 460-4번지 1층","category":"보건위생 - 미용원"}]},{"lat":"37.001191632","long":"127.13275281","items":[{"name":"고구마키즈","tel":"031-651-9032","addr":"경기도 평택시 용이동 589-4번지 103호","category":"의류 - 아동의류"},{"name":"제이비텔레콤","tel":"031-618-4885","addr":"경기도 평택시 용이동 589-4번지 1층 101호","category":"사무통신 - 통신기기"}]},{"lat":"36.99377456","long":"127.12547218","items":[{"name":"고려승화체육관","tel":"031-654-4480","addr":"경기도 평택시 용이동 685-1번지 4층","category":"학원 - 예·체능계학원"},{"name":"마이뮤헤어","tel":"031-652-2003","addr":"경기도 평택시 용이동 685-1번지","category":"보건위생 - 미용원"},{"name":"마이뮤헤어","tel":"031-657-1572","addr":"경기도 평택시 용이동 685-1번지","category":"서비스업 - 미용"},{"name":"오브제클래스미술학원","tel":"","addr":"경기도 평택시 용이동 685-1번지 여유빌딩 2층 202호","category":"학원 - 예·체능계학원"},{"name":"커피베이용죽점","tel":"031-653-5776","addr":"경기도 평택시 용이동 685-1번지 1층","category":"일반휴게음식 - 서양음식"}]},{"lat":"36.99346808","long":"127.12558402","items":[{"name":"고봉민김밥인 평택용죽점","tel":"031-618-7989","addr":"경기도 평택시 용이동 685-3번지 101호","category":"일반휴게음식 - 스넥"},{"name":"다온튼튼정형외과의원","tel":"031-652-3399","addr":"경기도 평택시 용이동 685-3번지 3층","category":"의원 - 의원"},{"name":"투썸플레이스 평택용죽점","tel":"031-658-0406","addr":"경기도 평택시 용이동 685-3번지 1층","category":"일반휴게음식 - 서양음식"}]},{"lat":"36.992359882","long":"127.12546991","items":[{"name":"고운몸한의원","tel":"031-655-1075","addr":"경기도 평택시 용이동 687-4번지 205호","category":"의원 - 한의원"},{"name":"고운몸한의원","tel":"031-657-6993","addr":"경기도 평택시 용이동 687-4번지 205호","category":"서비스업 - 한의원"},{"name":"더바른치과의원","tel":"","addr":"경기도 평택시 용이동 687-4번지 라온스퀘어 403호, 404호, 405호","category":"의원 - 치과의원"},{"name":"라브리지헤어","tel":"031-656-1153","addr":"경기도 평택시 용이동 687-4번지","category":"보건위생 - 미용원"},{"name":"러블리에스테틱","tel":"","addr":"경기도 평택시 용이동 687-4번지 리더스타워 4층 402호","category":"보건위생 - 피부미용실"},{"name":"밝은아동발달센터","tel":"031-994-7579","addr":"경기도 평택시 용이동 687-4번지 702호","category":"학원 - 기타 교육기관"},{"name":"밝은아동발달센터","tel":"031-994-7579","addr":"경기도 평택시 용이동 687-4번지 701호","category":"보건위생 - 기타대인서비스"},{"name":"사랑의약국","tel":"031-653-2948","addr":"경기도 평택시 용이동 687-4번지 102호","category":"약국 - 약국"},{"name":"서울탑내과","tel":"031-657-7582","addr":"경기도 평택시 용이동 687-4번지 502,503,504,505호","category":"의원 - 의원"},{"name":"피씨(PC)토랑 용죽점","tel":"","addr":"경기도 평택시 용이동 687-4번지 6층 601-605호","category":"레저업소 - 기타레져업소"}]},{"lat":"36.993888464","long":"127.13680689","items":[{"name":"고현숙공인중개사사무소","tel":"031-656-0003","addr":"경기도 평택시 용이동 467-4번지","category":"용역 서비스 - 부동산 중개·임대"},{"name":"김정훈챠밍복싱클럽","tel":"031-656-2226","addr":"경기도 평택시 용이동 467-4번지 4층","category":"회원제형태 - 레져업소"},{"name":"김정훈챠밍복싱클럽","tel":"031-653-1424","addr":"경기도 평택시 용이동 467-4번지 평산빌딩 4층","category":"서비스업 - 체육시설"},{"name":"소담횟집","tel":"031-652-8177","addr":"경기도 평택시 용이동 467-4번지 2층","category":"음식점 - 일식"},{"name":"주현욱한의원","tel":"02-515-5875","addr":"경기도 평택시 용이동 467-4번지","category":"의원 - 한의원"},{"name":"주현욱한의원","tel":"031-655-7224","addr":"경기도 평택시 용이동 467-4번지 1층","category":"서비스업 - 병원"},{"name":"준 노래연습장","tel":"031-656-4223","addr":"경기도 평택시 용이동 467-4번지 3층","category":"레저업소 - 노 래 방"},{"name":"치킨방앗간(용이점)","tel":"031-618-2606","addr":"경기도 평택시 용이동 467-4번지","category":"일반휴게음식 - 스넥"},{"name":"토프레스 용이점","tel":"","addr":"경기도 평택시 용이동 467-4번지 1층","category":"음식점 - 카페"}]},{"lat":"36.99491341","long":"127.13880826","items":[{"name":"골뱅이상회","tel":"031-654-5082","addr":"경기도 평택시 용이동 464-7번지 1동 103호","category":"일반휴게음식 - 일반한식"},{"name":"김가네소곱창","tel":"031-692-2999","addr":"경기도 평택시 용이동 464-7번지","category":"음식점 - 한식"},{"name":"김가네소곱창","tel":"031-655-4958","addr":"경기도 평택시 용이동 464-7번지","category":"일반휴게음식 - 일반한식"},{"name":"여자친구","tel":"","addr":"경기도 평택시 용이동 464-7번지 102호","category":"일반휴게음식 - 일반한식"},{"name":"용이돈장군","tel":"031-111-1111","addr":"경기도 평택시 용이동 464-7번지 106호","category":"일반휴게음식 - 일반한식"},{"name":"용이돈장군","tel":"","addr":"경기도 평택시 용이동 464-7번지 106호","category":"음식점 - 한식"},{"name":"족사랑","tel":"","addr":"경기도 평택시 용이동 464-7번지","category":"음식점 - 한식"},{"name":"족사랑","tel":"031-655-6996","addr":"경기도 평택시 용이동 464-7번지 1층 104호","category":"일반휴게음식 - 일반한식"},{"name":"종로육회","tel":"031-654-5482","addr":"경기도 평택시 용이동 464-7번지 105호","category":"음식점 - 일반"}]},{"lat":"36.995192998","long":"127.13858408","items":[{"name":"곱창고(용이점)","tel":"031-657-8188","addr":"경기도 평택시 용이동 464-3번지","category":"음식점 - 한식"},{"name":"곱창고(용이점)","tel":"031-655-5592","addr":"경기도 평택시 용이동 464-3번지 108호 109호","category":"일반휴게음식 - 일반한식"},{"name":"공가네 통통닭","tel":"070-4036-8370","addr":"경기도 평택시 용이동 464-3번지 106호","category":"일반휴게음식 - 스넥"},{"name":"구구홍닭갈비","tel":"031-692-3435","addr":"경기도 평택시 용이동 464-3번지","category":"음식점 - 한식"},{"name":"구구홍닭갈비용이점","tel":"031-692-2999","addr":"경기도 평택시 용이동 464-3번지 103호,104호","category":"일반휴게음식 - 일반한식"},{"name":"꼬지사께","tel":"031-657-1956","addr":"경기도 평택시 용이동 464-3번지","category":"일반휴게음식 - 일반한식"},{"name":"라화쿵부","tel":"","addr":"경기도 평택시 용이동 464-3번지 1층 101호","category":"일반휴게음식 - 중국식"},{"name":"민속주점장금이","tel":"031-652-9292","addr":"경기도 평택시 용이동 464-3번지 106호","category":"음식점 - 일반"},{"name":"용이동삼겹","tel":"031-655-5592","addr":"경기도 평택시 용이동 464-3번지","category":"음식점 - 한식"},{"name":"유매","tel":"070-8966-7334","addr":"경기도 평택시 용이동 464-3번지 1층 102호","category":"일반휴게음식 - 일식·회집"},{"name":"진스비어","tel":"031-0000-0000","addr":"경기도 평택시 용이동 464-3번지 105호","category":"일반휴게음식 - 주점"}]},{"lat":"37.000217071","long":"127.13403186","items":[{"name":"광닭발 (현촌점)","tel":"031-654-0380","addr":"경기도 평택시 용이동 596-4번지 105호106호","category":"일반휴게음식 - 일반한식"},{"name":"카페그래비티","tel":"031-616-4442","addr":"경기도 평택시 용이동 596-4번지 102호","category":"음식점 - 카페"},{"name":"카페그래비티","tel":"031-654-4934","addr":"경기도 평택시 용이동 596-4번지 102호","category":"일반휴게음식 - 서양음식"},{"name":"행거샵","tel":"031-111-1111","addr":"경기도 평택시 용이동 596-4번지 101호","category":"의류 - 정장"},{"name":"헤어에스","tel":"031-691-8223","addr":"경기도 평택시 용이동 596-4번지 2층 201호","category":"보건위생 - 미용원"}]},{"lat":"36.993832307","long":"127.13052731","items":[{"name":"광미석재사","tel":"031-655-6644","addr":"경기도 평택시 용이동 241-9번지","category":"기타 - 기타 전문점"}]},{"lat":"36.995854794","long":"127.13502417","items":[{"name":"교동짬뽕","tel":"031-691-1669","addr":"경기도 평택시 용이동 439-8번지 1층 102호","category":"일반휴게음식 - 중국식"},{"name":"라이스존","tel":"031-691-2000","addr":"경기도 평택시 용이동 439-8번지 1층 101호","category":"음료식품 - 제과점"},{"name":"순쌀빵라이스존","tel":"","addr":"경기도 평택시 용이동 439-8번지","category":"음식점 - 제과점"}]},{"lat":"36.9946643","long":"127.12769785","items":[{"name":"구공탄","tel":"","addr":"경기도 평택시 용이동 674-5번지 101호","category":"일반휴게음식 - 일반한식"}]},{"lat":"36.994554378","long":"127.13758317","items":[{"name":"구떼쥬르","tel":"","addr":"경기도 평택시 용이동 465-7번지 2층","category":"음식점 - 양식"},{"name":"구떼쥬르","tel":"031-691-8954","addr":"경기도 평택시 용이동 465-7번지","category":"일반휴게음식 - 서양음식"},{"name":"굿돈까스","tel":"031-652-8177","addr":"경기도 평택시 용이동 465-7번지","category":"일반휴게음식 - 일반한식"},{"name":"굿돈까스","tel":"031-653-0289","addr":"경기도 평택시 용이동 465-7번지 106호","category":"음식점 - 양식"},{"name":"수원왕고기","tel":"070-8771-9144","addr":"경기도 평택시 용이동 465-7번지 104동 105호","category":"일반휴게음식 - 일반한식"},{"name":"월매불닭발","tel":"031-654-5382","addr":"경기도 평택시 용이동 465-7번지 1층 102,103호","category":"일반휴게음식 - 일반한식"},{"name":"파랑닭","tel":"031-618-7006","addr":"경기도 평택시 용이동 465-7번지 101호","category":"일반휴게음식 - 일반한식"}]},{"lat":"36.999992362","long":"127.13352593","items":[{"name":"국수나무 현촌점","tel":"031-655-5173","addr":"경기도 평택시 용이동 596-1번지 다올빌딩 1층","category":"일반휴게음식 - 스넥"},{"name":"국수나무현촌점","tel":"031-655-5173","addr":"경기도 평택시 용이동 596-1번지 다올빌딩 102호","category":"일반휴게음식 - 스넥"},{"name":"뮤직트리 음악학원","tel":"031-658-6658","addr":"경기도 평택시 용이동 596-1번지 다올빌딩 301호","category":"학원 - 예·체능계학원"},{"name":"해법영어교실현촌두드림영어교습소","tel":"","addr":"경기도 평택시 용이동 596-1번지 다올빌딩 302호","category":"학원 - 외국어학원"},{"name":"현촌식당","tel":"031-657-3126","addr":"경기도 평택시 용이동 596-1번지 다올빌딩","category":"일반휴게음식 - 일반한식"}]},{"lat":"36.998019714","long":"127.13289345","items":[{"name":"군계폐계닭(평택대학교점)","tel":"031-658-7430","addr":"경기도 평택시 용이동 599-1번지","category":"일반휴게음식 - 일반한식"},{"name":"송연한식뷔페","tel":"031-655-3316","addr":"경기도 평택시 용이동 599-1번지 1층","category":"일반휴게음식 - 일반한식"},{"name":"송연한식뷔페","tel":"031-618-3122","addr":"경기도 평택시 용이동 599-1번지","category":"음식점 - 뷔페"}]},{"lat":"36.995638075","long":"127.13543944","items":[{"name":"굽네치킨 평택대점","tel":"031-651-9295","addr":"경기도 평택시 용이동 452-2번지 1층 102호","category":"일반휴게음식 - 스넥"}]},{"lat":"36.998163219","long":"127.13350034","items":[{"name":"글라스스토리(현촌점)","tel":"031-654-5599","addr":"경기도 평택시 용이동 597-6번지 현인빌딩 1층101,103","category":"보건위생 - 안경"},{"name":"글라스스토리현촌점","tel":"031-658-3131","addr":"경기도 평택시 용이동 597-6번지 현인빌딩 1층 101, 103호","category":"도소매업 - 렌즈,안경"},{"name":"너와나동물병원","tel":"031-691-4275","addr":"경기도 평택시 용이동 597-6번지 현인빌딩 1동 102호","category":"기타의료기관 - 동물병원"},{"name":"순백설탕","tel":"070-8031-4038","addr":"경기도 평택시 용이동 597-6번지 현인빌딩","category":"일반휴게음식 - 서양음식"},{"name":"현촌 정스ESL어학원","tel":"031-618-1165","addr":"경기도 평택시 용이동 597-6번지 202호","category":"학원 - 외국어학원"}]},{"lat":"36.997354861","long":"127.12247847","items":[{"name":"기탄사고력교실 비전지웰푸르지오점","tel":"","addr":"경기도 평택시 용이동 644번지 평택비전지웰푸르지오 1104동 3층 303호","category":"학원 - 기타 교육기관"},{"name":"뮤엠영어 지웰푸르지오 NEST","tel":"","addr":"경기도 평택시 용이동 644번지 신영평택비전지웰푸르지오 1102동 401호","category":"학원 - 기타 교육기관"},{"name":"배다리수산","tel":"070-4610-7427","addr":"경기도 평택시 용이동 644번지 비전지웰푸르지오 상가 102호","category":"음료식품 - 농·축·수산품"},{"name":"시립평택비전지웰푸르지오어린이집[아이행","tel":"031-657-4567","addr":"경기도 평택시 용이동 644번지 비전지웰푸르지오","category":"학원 - 유아원"},{"name":"이마트24 평택비전지웰점","tel":"031-000-0000","addr":"경기도 평택시 용이동 644번지 평택지웰푸르지오단지 상가 1층 106호","category":"유통업 영리 - 편 의 점"},{"name":"헤어크레모나","tel":"070-8820-8224","addr":"경기도 평택시 용이동 644번지 신영평택비전지웰푸르지오 상가동 101호","category":"보건위생 - 미용원"}]},{"lat":"36.996993026","long":"127.1404184","items":[{"name":"김경숙헤어장","tel":"031-656-9363","addr":"경기도 평택시 용이동 450-11번지 에스빌리지 104호","category":"보건위생 - 미용원"},{"name":"김경숙헤어장","tel":"031-652-5557","addr":"경기도 평택시 용이동 450-11번지","category":"서비스업 - 이미용"},{"name":"정진원의 커피볶는집 용이점","tel":"","addr":"경기도 평택시 용이동 450-11번지","category":"음식점 - 커피"},{"name":"정진원의커피볶는집용이점","tel":"031-651-0247","addr":"경기도 평택시 용이동 450-11번지 에스빌리지","category":"일반휴게음식 - 서양음식"},{"name":"헹거","tel":"031-691-7222","addr":"경기도 평택시 용이동 450-11번지","category":"의류 - 정장"}]},{"lat":"36.995718819","long":"127.13575413","items":[{"name":"김밥천국","tel":"031-657-1009","addr":"경기도 평택시 용이동 452-4번지 1층 101호","category":"일반휴게음식 - 스넥"}]},{"lat":"36.993495738","long":"127.12497747","items":[{"name":"김밥천국용이점","tel":"031-652-3313","addr":"경기도 평택시 용이동 688-2번지 1층","category":"일반휴게음식 - 일반한식"},{"name":"잉글리쉬무무용죽제1어학원","tel":"031-652-9905","addr":"경기도 평택시 용이동 688-2번지 5층","category":"학원 - 외국어학원"},{"name":"합기도용무체육관","tel":"031-655-3117","addr":"경기도 평택시 용이동 688-2번지","category":"학원 - 예·체능계학원"}]},{"lat":"37.004213105","long":"127.14591406","items":[{"name":"김소원의 자작나무","tel":"","addr":"경기도 평택시 용이동 350-6번지","category":"문화.취미 - 문화취미기타"}]},{"lat":"36.998580768","long":"127.13880355","items":[{"name":"까리노헤어","tel":"031-618-9949","addr":"경기도 평택시 용이동 445-5번지","category":"서비스업 - 미용"},{"name":"까리노헤어","tel":"031-656-8235","addr":"경기도 평택시 용이동 445-5번지 1층","category":"보건위생 - 미용원"}]},{"lat":"36.996743475","long":"127.13802515","items":[{"name":"깜장콩커피","tel":"070-4109-4944","addr":"경기도 평택시 용이동 442-26번지 1층 103호","category":"일반휴게음식 - 서양음식"},{"name":"깜장콩커피","tel":"031-658-9792","addr":"경기도 평택시 용이동 442-26번지 103호","category":"음식점 - 커피"},{"name":"브릴랑(Brillunt)","tel":"","addr":"경기도 평택시 용이동 442-26번지 1층 102호","category":"신변잡화 - 액세서리"},{"name":"클레오파트라왁싱","tel":"","addr":"경기도 평택시 용이동 442-26번지 라온하우스 102호","category":"보건위생 - 피부미용실"}]},{"lat":"36.998298626","long":"127.13327589","items":[{"name":"깨비블럭","tel":"031-658-5315","addr":"경기도 평택시 용이동 597-5번지 4층","category":"서적문구 - 완구점"},{"name":"러블리펫","tel":"031-651-9798","addr":"경기도 평택시 용이동 597-5번지 101호","category":"문화.취미 - 애완동물"},{"name":"러블리펫","tel":"031-657-2535","addr":"경기도 평택시 용이동 597-5번지","category":"서비스업 - 애견샵"},{"name":"스페이스앤창","tel":"031-655-3041","addr":"경기도 평택시 용이동 597-5번지 젤존빌딩 102호","category":"직물 - 카페트,커튼,천막,지물"},{"name":"스페이스앤창","tel":"","addr":"경기도 평택시 용이동 597-5번지 젤존빌딩 102호","category":"소매업 - 커튼"},{"name":"유마로","tel":"031-692-6464","addr":"경기도 평택시 용이동 597-5번지 104호","category":"음식점 - 커피"},{"name":"젤존골프존","tel":"031-656-1737","addr":"경기도 평택시 용이동 597-5번지 2층","category":"레져용품 - 골프용품 전문점"},{"name":"젤존골프존","tel":"031-548-8242","addr":"경기도 평택시 용이동 597-5번지","category":"서비스업 - 스크린골프"},{"name":"해윰","tel":"070-6876-8678","addr":"경기도 평택시 용이동 597-5번지","category":"일반휴게음식 - 서양음식"}]},{"lat":"37.000053326","long":"127.15069209","items":[{"name":"꼬꼬인더박스(용이점)","tel":"031-618-0023","addr":"경기도 평택시 용이동 487-8번지 102호","category":"일반휴게음식 - 스넥"},{"name":"세븐일레븐평택용이공원점","tel":"031-1577-0711","addr":"경기도 평택시 용이동 487-8번지 101호","category":"유통업 영리 - 편 의 점"}]},{"lat":"36.998911719","long":"127.14846551","items":[{"name":"꼬꼬팜","tel":"031-658-8242","addr":"경기도 평택시 용이동 491-4번지 1층 101호","category":"일반휴게음식 - 스넥"},{"name":"꼬꼬팜","tel":"031-656-3666","addr":"경기도 평택시 용이동 491-4번지","category":"음식점 - 일반"},{"name":"물(mool)","tel":"031-656-6849","addr":"경기도 평택시 용이동 491-4번지","category":"일반휴게음식 - 일반한식"},{"name":"바다이야기","tel":"031-652-9812","addr":"경기도 평택시 용이동 491-4번지","category":"음식점 - 일식"},{"name":"바다이야기 (어수산)","tel":"031-656-2444","addr":"경기도 평택시 용이동 491-4번지 104호","category":"일반휴게음식 - 일식·회집"},{"name":"어린왕자스튜디오","tel":"","addr":"경기도 평택시 용이동 491-4번지","category":"서비스업 - 사진관"},{"name":"오산조은참치","tel":"","addr":"경기도 평택시 용이동 491-4번지","category":"음식점 - 한식"},{"name":"오산조은참치용이점","tel":"031-653-3458","addr":"경기도 평택시 용이동 491-4번지 제 2동 1층","category":"음식점 - 일반"},{"name":"오산조은참치용이점","tel":"031-656-3666","addr":"경기도 평택시 용이동 491-4번지 2동 1층","category":"일반휴게음식 - 일식·회집"},{"name":"하누팜","tel":"031-657-5757","addr":"경기도 평택시 용이동 491-4번지","category":"음식점 - 한식"},{"name":"하누팜","tel":"031-651-6692","addr":"경기도 평택시 용이동 491-4번지 2동 2층 202호","category":"일반휴게음식 - 일반한식"},{"name":"하누팜 축산물 전문점","tel":"031-651-6692","addr":"경기도 평택시 용이동 491-4번지","category":"소매업 - 정육"},{"name":"하누팜축산물전문점","tel":"031-651-6692","addr":"경기도 평택시 용이동 491-4번지 2동 2층 201호","category":"음료식품 - 정육점"}]},{"lat":"36.996578766","long":"127.1321945","items":[{"name":"꼬꼬팜 (본점)","tel":"031-658-9299","addr":"경기도 평택시 용이동 604-6번지 1층 101호","category":"일반휴게음식 - 스넥"},{"name":"꼬꼬팜(본점)","tel":"031-655-7094","addr":"경기도 평택시 용이동 604-6번지 금우 101호","category":"음식점 - 치킨"}]},{"lat":"37.00313108","long":"127.14652994","items":[{"name":"꼬치로","tel":"031-616-9255","addr":"경기도 평택시 용이동 738번지 e편한세상평택용이2단지 상가동 104호","category":"일반휴게음식 - 일반한식"},{"name":"시립이편한2단지어린이집[아이행복]","tel":"031-8054-0133","addr":"경기도 평택시 용이동 738번지 e편한세상평택용이2단지","category":"학원 - 유아원"},{"name":"하모니마트","tel":"031-652-0123","addr":"경기도 평택시 용이동 738번지 이편한세상 평택용이 단지내상가 상가동 101호, 102호","category":"유통업 영리 - 슈퍼마켓"}]},{"lat":"36.998886196","long":"127.14722971","items":[{"name":"꾸에롱","tel":"031-653-9302","addr":"경기도 평택시 용이동 492-1번지 용이반도유보라아파트 304동 1003호","category":"회원제형태 - 기타4"}]},{"lat":"36.999938656","long":"127.13320005","items":[{"name":"나무야 아동발달센터","tel":"031-655-3019","addr":"경기도 평택시 용이동 594-6번지 금광프라자 202호","category":"보건위생 - 기타대인서비스"},{"name":"로사플라워","tel":"031-657-6788","addr":"경기도 평택시 용이동 594-6번지 금강프라자 101호","category":"소매업 - 꽃집"},{"name":"보스톤어학원","tel":"031-655-9042","addr":"경기도 평택시 용이동 594-6번지 금광프라자 2층 201호","category":"학원 - 외국어학원"},{"name":"헤어살롱 라엘","tel":"031-657-0625","addr":"경기도 평택시 용이동 594-6번지 금광프라자 104호,105호","category":"보건위생 - 미용원"}]},{"lat":"37.000552609","long":"127.14769347","items":[{"name":"난타5000평택용이점","tel":"031-658-5092","addr":"경기도 평택시 용이동 481-1번지 103호","category":"일반휴게음식 - 서양음식"}]},{"lat":"37.00054915","long":"127.15050206","items":[{"name":"남양유업 평택안성점","tel":"031-6535-5550","addr":"경기도 평택시 용이동 480-6번지 101호","category":"음료식품 - 기타음료식품"},{"name":"델타드론","tel":"","addr":"경기도 평택시 용이동 480-6번지 신흥빌 102호","category":"학원 - 기능학원"}]},{"lat":"36.993108082","long":"127.12516781","items":[{"name":"낮밥밤술","tel":"031-654-0604","addr":"경기도 평택시 용이동 688-5번지 2층","category":"일반휴게음식 - 일반한식"},{"name":"세븐일레븐평택용죽스타점","tel":"031-1577-0711","addr":"경기도 평택시 용이동 688-5번지 101호","category":"유통업 영리 - 편 의 점"}]},{"lat":"36.994193696","long":"127.1378072","items":[{"name":"내방처럼만화카페","tel":"031-656-8144","addr":"경기도 평택시 용이동 468-1번지 3층 303호","category":"레저업소 - 기타레져업소"},{"name":"비어사케(용이점)","tel":"031-653-3022","addr":"경기도 평택시 용이동 468-1번지 102호","category":"일반휴게음식 - 주점"},{"name":"안경매니져용이점","tel":"031-654-5858","addr":"경기도 평택시 용이동 468-1번지 1층","category":"소매업 - 안경"},{"name":"안경매니져용이점","tel":"031-651-4001","addr":"경기도 평택시 용이동 468-1번지 1층","category":"보건위생 - 안경"},{"name":"오렌지나무치과의원","tel":"031-691-2111","addr":"경기도 평택시 용이동 468-1 503호","category":"의원 - 치과의원"},{"name":"프로페셔널헤어살롱스크린 평택점","tel":"031-376-8821","addr":"경기도 평택시 용이동 468-1번지 1층 101호","category":"보건위생 - 미용원"},{"name":"해피누리 키즈카페","tel":"031-652-0995","addr":"경기도 평택시 용이동 468-1번지 제이플러스빌딩 403호","category":"음식점 - 커피"}]},{"lat":"36.993663943","long":"127.13614372","items":[{"name":"내비게이션서비스","tel":"031-658-8376","addr":"경기도 평택시 용이동 467-1번지","category":"수리서비스 - 사무·통신기기수리"},{"name":"배스킨라빈스(평택용이점)","tel":"031-658-3031","addr":"경기도 평택시 용이동 467-1번지","category":"음료식품 - 제과점"},{"name":"봉바이크","tel":"031-656-6878","addr":"경기도 평택시 용이동 467-1번지","category":"소매업 - 자전거 및 용품"},{"name":"봉바이크(Bong Bike)","tel":"031-667-7423","addr":"경기도 평택시 용이동 467-1번지","category":"레져용품 - 스포츠·레져용품"}]},{"lat":"36.996824891","long":"127.13774444","items":[{"name":"냉방에어컨","tel":"","addr":"경기도 평택시 용이동 442-22번지 노블레스 402호","category":"용역 서비스 - 기타용역서비스"}]},{"lat":"37.00069339","long":"127.15044617","items":[{"name":"네네치킨 (용이점)","tel":"031-656-4479","addr":"경기도 평택시 용이동 480-5번지","category":"일반휴게음식 - 스넥"}]},{"lat":"37.000407656","long":"127.14833355","items":[{"name":"네일그리고","tel":"031-3279-6000","addr":"경기도 평택시 용이동 481-4번지 나래빌 101호","category":"보건위생 - 피부미용실"},{"name":"더쉼 헤어살롱","tel":"031-658-3110","addr":"경기도 평택시 용이동 481-4번지","category":"서비스업 - 미용업"}]},{"lat":"36.993026359","long":"127.12577428","items":[{"name":"네일꼬띠","tel":"031-618-1760","addr":"경기도 평택시 용이동 686-1번지 명진빌딩 101-2호","category":"보건위생 - 피부미용실"},{"name":"디앤디헤어","tel":"031-655-6550","addr":"경기도 평택시 용이동 686-1번지 3층","category":"보건위생 - 미용원"},{"name":"배스킨라빈스 평택용죽점","tel":"","addr":"경기도 평택시 용이동 686-1번지 1층","category":"음료식품 - 제과점"},{"name":"배스킨라빈스 평택용죽점","tel":"031-654-6004","addr":"경기도 평택시 용이동 686-1번지","category":"음식점 - 아이스크림"},{"name":"이마트24 평택용죽점","tel":"031-691-4004","addr":"경기도 평택시 용이동 686-1번지 101호","category":"소매업 - 편의점"},{"name":"이마트24 평택용죽점","tel":"031-000-0000","addr":"경기도 평택시 용이동 686-1번지 101호","category":"유통업 영리 - 편 의 점"}]},{"lat":"36.996359755","long":"127.13469927","items":[{"name":"네일하는 언니","tel":"031-657-9329","addr":"경기도 평택시 용이동 439-5번지 101호","category":"보건위생 - 피부미용실"},{"name":"휴대폰11번가","tel":"031-651-2272","addr":"경기도 평택시 용이동 439-5번지 102호","category":"사무통신 - 통신기기"}]},{"lat":"36.997604372","long":"127.13366789","items":[{"name":"넥스트수학학원","tel":"031-691-1980","addr":"경기도 평택시 용이동 597-10번지 202호","category":"학원 - 보습학원"},{"name":"라임스킨케어","tel":"031-691-5954","addr":"경기도 평택시 용이동 597-10번지 3층 302호","category":"보건위생 - 피부미용실"},{"name":"본아","tel":"031-365-4466","addr":"경기도 평택시 용이동 597-10번지 예술빌딩 7층","category":"보건위생 - 화장품"},{"name":"스모크비어","tel":"031-691-1316","addr":"경기도 평택시 용이동 597-10번지 103호","category":"일반휴게음식 - 주점"},{"name":"원바디 하스 줌바 피티니스","tel":"031-652-1010","addr":"경기도 평택시 용이동 597-10번지 데이지 401호","category":"레저업소 - 헬스클럽"},{"name":"태현축산","tel":"031-618-5228","addr":"경기도 평택시 용이동 597-10번지","category":"음료식품 - 정육점"},{"name":"헤어미스터리","tel":"031-653-9923","addr":"경기도 평택시 용이동 597-10번지 203호","category":"보건위생 - 미용원"},{"name":"힐스템건강평택용이점","tel":"031-655-2283","addr":"경기도 평택시 용이동 597-10번지 데이지 3층 1호","category":"보건위생 - 피부미용실"}]},{"lat":"36.998634511","long":"127.1390845","items":[{"name":"노란돼지집","tel":"031-651-0604","addr":"경기도 평택시 용이동 448-1번지","category":"일반휴게음식 - 일반한식"}]},{"lat":"36.992603656","long":"127.12499851","items":[{"name":"노란돼지집","tel":"031-656-0604","addr":"경기도 평택시 용이동 692-2번지 1층","category":"일반휴게음식 - 일반한식"}]},{"lat":"36.994854133","long":"127.13544932","items":[{"name":"노랑통닭(평택용이점)","tel":"","addr":"경기도 평택시 용이동 452-21번지 1층","category":"일반휴게음식 - 스넥"}]},{"lat":"36.997137301","long":"127.14032879","items":[{"name":"농심가마트","tel":"031-655-1640","addr":"경기도 평택시 용이동 450-10번지","category":"유통업 영리 - 슈퍼마켓"},{"name":"농심가마트","tel":"031-655-2791","addr":"경기도 평택시 용이동 450-10번지 은석빌딩","category":"소매업 - 슈퍼"}]},{"lat":"36.993269764","long":"127.12566234","items":[{"name":"누리봄아동청소년상담센터","tel":"031-655-5213","addr":"경기도 평택시 용이동 685-4번지 상보빌딩 4층 401호","category":"보건위생 - 기타대인서비스"},{"name":"파리바게뜨 평택용죽점","tel":"","addr":"경기도 평택시 용이동 685-4번지 1층 102호","category":"음료식품 - 제과점"},{"name":"파리바게뜨평택용죽점","tel":"","addr":"경기도 평택시 용이동 685-4번지 상보빌딩 1층 102호","category":"음식점 - 제과점"}]},{"lat":"36.999524596","long":"127.13280614","items":[{"name":"누리한","tel":"031-652-3068","addr":"경기도 평택시 용이동 594-3번지 1층","category":"음식점 - 한식"},{"name":"도자기공방","tel":"031-656-1843","addr":"경기도 평택시 용이동 594-3번지 101호","category":"문화.취미 - 문화취미기타"},{"name":"린헤어","tel":"070-4001-7679","addr":"경기도 평택시 용이동 594-3번지 1층","category":"보건위생 - 미용원"},{"name":"유니팝현촌미술학원","tel":"","addr":"경기도 평택시 용이동 594-3번지 우리프라자 2층","category":"서비스업 - 교육"},{"name":"유니팝현촌미술학원","tel":"031-618-9569","addr":"경기도 평택시 용이동 594-3번지 2층 202호","category":"학원 - 예·체능계학원"},{"name":"현촌 경희대 태권도","tel":"031-658-4322","addr":"경기도 평택시 용이동 594-3번지 우리프라자 3층","category":"학원 - 예·체능계학원"},{"name":"현촌경희대태권도","tel":"031-654-2950","addr":"경기도 평택시 용이동 594-3번지 3층","category":"서비스업 - 교육"},{"name":"현촌경희대태권도장","tel":"","addr":"경기도 평택시 용이동 594-3번지 우리프라자 3층","category":"서비스업 - 태권도"},{"name":"현촌토마토음악학원","tel":"031-656-9569","addr":"경기도 평택시 용이동 594-3번지 우리프라자 2층","category":"학원 - 예·체능계학원"},{"name":"현촌토마토음악학원","tel":"031-618-9569","addr":"경기도 평택시 용이동 594-3번지 우리프라자 2층","category":"서비스업 - 교육"}]},{"lat":"36.999218441","long":"127.13261464","items":[{"name":"뉴브레인보습학원","tel":"031-692-7753","addr":"경기도 평택시 용이동 594-1번지 금광프라자 3층 301호","category":"학원 - 보습학원"},{"name":"서울하이치과","tel":"031-658-2870","addr":"경기도 평택시 용이동 594-1번지 3층","category":"의원 - 치과의원"},{"name":"이플러스퓨처어학원","tel":"031-653-0580","addr":"경기도 평택시 용이동 594-1번지 2층","category":"학원 - 외국어학원"},{"name":"프리머학원","tel":"031-564-8210","addr":"경기도 평택시 용이동 594-1번지 4층","category":"학원 - 보습학원"}]},{"lat":"37.001664535","long":"127.15205459","items":[{"name":"뉴요커 커피팩토리","tel":"031-111-1111","addr":"경기도 평택시 용이동 419-1번지 2,3층","category":"일반휴게음식 - 서양음식"}]},{"lat":"36.997020578","long":"127.1399691","items":[{"name":"뉴이끌림헤어","tel":"031-691-0400","addr":"경기도 평택시 용이동 450-8번지","category":"보건위생 - 미용원"},{"name":"림인테리어","tel":"031-664-7955","addr":"경기도 평택시 용이동 450-8 102호","category":"건축자재 - 인테리어전문"},{"name":"칼라플라워","tel":"031-656-9854","addr":"경기도 평택시 용이동 450-8번지","category":"소매업 - 화훼"},{"name":"칼리플라워","tel":"031-658-9792","addr":"경기도 평택시 용이동 450-8번지 101호","category":"문화.취미 - 화원"}]},{"lat":"36.9944389","long":"127.13611137","items":[{"name":"니브헤어","tel":"031-692-1998","addr":"경기도 평택시 용이동 466-3번지 501호","category":"보건위생 - 미용원"},{"name":"더캠프PC평택대점","tel":"","addr":"경기도 평택시 용이동 466-3번지 3층","category":"레저업소 - 기타레져업소"},{"name":"애플노래연습장","tel":"031-692-0273","addr":"경기도 평택시 용이동 466-3번지 401호","category":"레저업소 - 노 래 방"},{"name":"이디야커피 평택대점","tel":"031-657-7512","addr":"경기도 평택시 용이동 466-3번지","category":"음식점 - 커피"},{"name":"이디야커피평택대점","tel":"031-652-0995","addr":"경기도 평택시 용이동 466-3번지 드림빌딩 101,201호","category":"일반휴게음식 - 서양음식"},{"name":"카레시노카레","tel":"031-657-7148","addr":"경기도 평택시 용이동 466-3번지 드림빌딩 1층 104호","category":"음식점 - 일식"}]},{"lat":"36.999683585","long":"127.14352391","items":[{"name":"다솜어린이집[아이행복]","tel":"031-651-7349","addr":"경기도 평택시 용이동 471-1번지 평택용이푸르지오 109동 104호","category":"학원 - 유아원"}]},{"lat":"36.999994425","long":"127.13969358","items":[{"name":"다우리어린이집[아이행복]","tel":"031-658-9933","addr":"경기도 평택시 용이동 15번지","category":"학원 - 유아원"}]},{"lat":"36.996805124","long":"127.13927221","items":[{"name":"단미케이크","tel":"02-1111-1111","addr":"경기도 평택시 용이동 450-4번지 101호","category":"음료식품 - 제과점"},{"name":"단미플라워케이크","tel":"031-652-2565","addr":"경기도 평택시 용이동 450-4번지 하늘정원 101호","category":"제조업 - 떡"},{"name":"마실","tel":"031-651-3545","addr":"경기도 평택시 용이동 450-4번지 102호","category":"소매업 - 의류"},{"name":"마실","tel":"031-657-3003","addr":"경기도 평택시 용이동 450-4번지 102호","category":"의류 - 정장"},{"name":"사장님 배달가야쥬","tel":"","addr":"경기도 평택시 용이동 450-4번지 1층","category":"일반휴게음식 - 일반한식"}]},{"lat":"36.995300714","long":"127.13894375","items":[{"name":"달봉감자용이점","tel":"031-652-0883","addr":"경기도 평택시 용이동 464-5번지 1층","category":"일반휴게음식 - 주점"},{"name":"씨유평택용이원룸점","tel":"031-656-9589","addr":"경기도 평택시 용이동 464-5번지 103호","category":"유통업 영리 - 편 의 점"},{"name":"일구야포차가자","tel":"031-657-7235","addr":"경기도 평택시 용이동 464-5번지 104호","category":"일반휴게음식 - 일반한식"},{"name":"코리아공인중개사사무소","tel":"031-618-1253","addr":"경기도 평택시 용이동 464-5번지 102호","category":"서비스업 - 부동산"},{"name":"평택불날개닭발","tel":"031-692-5988","addr":"경기도 평택시 용이동 464-5번지 1층","category":"일반휴게음식 - 일반한식"}]},{"lat":"36.993854643","long":"127.12644962","items":[{"name":"달콤한하루","tel":"","addr":"경기도 평택시 용이동 680-9번지 1층","category":"음료식품 - 기타음료식품"}]},{"lat":"36.997443729","long":"127.14027317","items":[{"name":"담아주","tel":"","addr":"경기도 평택시 용이동 449-11번지 101호","category":"음료식품 - 기타음료식품"},{"name":"안심농장","tel":"031-691-5631","addr":"경기도 평택시 용이동 449-11번지","category":"음료식품 - 정육점"},{"name":"안심농장","tel":"031-652-7441","addr":"경기도 평택시 용이동 449-11번지","category":"소매업 - 정육"},{"name":"우마우마","tel":"031-654-0088","addr":"경기도 평택시 용이동 449-11번지","category":"음식점 - 한식"}]},{"lat":"36.996963657","long":"127.1345318","items":[{"name":"대성식당","tel":"031-618-2566","addr":"경기도 평택시 용이동 439-1번지 1층","category":"일반휴게음식 - 일반한식"}]},{"lat":"37.000323768","long":"127.14316559","items":[{"name":"대풍갈비 용이점","tel":"031-618-3892","addr":"경기도 평택시 용이동 345-28번지 1동","category":"일반휴게음식 - 일반한식"},{"name":"삼색두보리","tel":"031-691-8203","addr":"경기도 평택시 용이동 345-28번지","category":"음식점 - 한식"},{"name":"삼색두보리","tel":"031-658-2252","addr":"경기도 평택시 용이동 345-28번지 2동","category":"일반휴게음식 - 일반한식"},{"name":"장수갈비탕","tel":"031-662-3990","addr":"경기도 평택시 용이동 345-28번지","category":"일반휴게음식 - 일반한식"},{"name":"장수곰탕","tel":"031-658-2252","addr":"경기도 평택시 용이동 345-28번지","category":"음식점 - 한식"}]},{"lat":"36.997577772","long":"127.13327466","items":[{"name":"대한검도회 후검도관","tel":"031-654-6614","addr":"경기도 평택시 용이동 598-5번지 동산메디컬 403호","category":"학원 - 예·체능계학원"},{"name":"아란심리언어&감각통합연구소","tel":"031-691-7579","addr":"경기도 평택시 용이동 598-5번지 2층 204,205호","category":"보건위생 - 기타대인서비스"},{"name":"아벡사 보떼(Avec sa beaute)","tel":"070-8624-9866","addr":"경기도 평택시 용이동 598-5번지 동산메디컬 201호","category":"문화.취미 - 문화취미기타"},{"name":"아벡사보떼","tel":"031-685-8600","addr":"경기도 평택시 용이동 598-5번지 동산메디컬 201호","category":"소매업 - 꽃집"},{"name":"어린아동가족상담센터","tel":"031-7795-7679","addr":"경기도 평택시 용이동 598-5번지 동산메디컬 2층 206호","category":"보건위생 - 기타대인서비스"},{"name":"주식회사 비티유에이앤","tel":"031-651-2341","addr":"경기도 평택시 용이동 598-5번지 동산메디컬 302호","category":"용역 서비스 - 부동산 중개·임대"}]},{"lat":"37.001075008","long":"127.13228076","items":[{"name":"대한민국만세축산","tel":"031-000-0000","addr":"경기도 평택시 용이동 589-1번지","category":"음료식품 - 정육점"},{"name":"대한민국만세축산","tel":"","addr":"경기도 평택시 용이동 589-1번지","category":"소매업 - 정육"},{"name":"삼성영어현촌교실","tel":"031-653-3305","addr":"경기도 평택시 용이동 589-1번지 301호","category":"학원 - 보습학원"}]},{"lat":"36.997993601","long":"127.14008318","items":[{"name":"더샵","tel":"031-657-2112","addr":"경기도 평택시 용이동 448-7번지 101호","category":"건축자재 - 인테리어전문"},{"name":"신김밥 (용이점)","tel":"031-657-7023","addr":"경기도 평택시 용이동 448-7번지 1층","category":"일반휴게음식 - 스넥"}]},{"lat":"37.000995048","long":"127.1469416","items":[{"name":"더쉼헤어살롱","tel":"031-658-6208","addr":"경기도 평택시 용이동 475-1번지 1층","category":"보건위생 - 미용원"}]},{"lat":"36.993131903","long":"127.12824578","items":[{"name":"더아로마앤 더예쁜꽃","tel":"","addr":"경기도 평택시 용이동 672-6번지 1층","category":"소매업 - 꽃집"}]},{"lat":"36.99430418","long":"127.13571797","items":[{"name":"더참맛수육국밥","tel":"031-651-6508","addr":"경기도 평택시 용이동 466-1번지 세종빌딩 102호","category":"음식점 - 한식"},{"name":"더참맛수육국밥(평택대점)","tel":"031-692-2289","addr":"경기도 평택시 용이동 466-1번지 세종빌딩 102호","category":"일반휴게음식 - 일반한식"},{"name":"불티나양꼬치","tel":"","addr":"경기도 평택시 용이동 466-1번지","category":"음식점 - 양꼬치"},{"name":"불티나양꼬치","tel":"031-655-8920","addr":"경기도 평택시 용이동 466-1번지 세종빌딩 105호","category":"일반휴게음식 - 일반한식"},{"name":"쎈수학러닝센터용이학원","tel":"031-658-5525","addr":"경기도 평택시 용이동 466-1번지 세종빌딩 3층","category":"학원 - 보습학원"},{"name":"이삭토스트 평택대점","tel":"031-655-8920","addr":"경기도 평택시 용이동 466-1번지 세종빌딩 103호","category":"음식점 - 토스트"},{"name":"이삭토스트평택대점","tel":"031-655-7224","addr":"경기도 평택시 용이동 466-1번지 세종빌딩 103호","category":"일반휴게음식 - 서양음식"},{"name":"제닉스아레나pc(평택대점)","tel":"","addr":"경기도 평택시 용이동 466-1번지 세종빌딩 202동 203호","category":"레저업소 - 기타레져업소"},{"name":"주식회사 지산사업개발","tel":"031-656-9106","addr":"경기도 평택시 용이동 466-1번지 세종빌딩 403호","category":"용역 서비스 - 종합용역"},{"name":"찌개와 백반","tel":"031-654-4466","addr":"경기도 평택시 용이동 466-1번지 세종빌딩 1층","category":"음식점 - 한식"},{"name":"찌개와백반","tel":"031-653-6535","addr":"경기도 평택시 용이동 466-1번지 세종빌딩","category":"일반휴게음식 - 일반한식"},{"name":"평택용이정철어학원","tel":"031-651-0584","addr":"경기도 평택시 용이동 466-1번지 세종빌딩 3층","category":"회원제형태 - 학원"}]},{"lat":"36.999552219","long":"127.14786009","items":[{"name":"데니스커피 평택용이점","tel":"031-655-6340","addr":"경기도 평택시 용이동 484-11번지","category":"음식점 - 커피"},{"name":"데니스커피(용이점)","tel":"031-657-1572","addr":"경기도 평택시 용이동 484-11번지 1층 101호","category":"일반휴게음식 - 서양음식"},{"name":"주헤어","tel":"031-655-1024","addr":"경기도 평택시 용이동 484-11번지 1층","category":"보건위생 - 미용원"}]},{"lat":"36.997353934","long":"127.1400034","items":[{"name":"도로시네일","tel":"031-618-4338","addr":"경기도 평택시 용이동 449-13번지 102호","category":"보건위생 - 피부미용실"},{"name":"슈어바이황희헤어샵","tel":"031-618-5937","addr":"경기도 평택시 용이동 449-13번지 101호","category":"보건위생 - 미용원"}]},{"lat":"36.998217098","long":"127.13366894","items":[{"name":"돈까스 스토리","tel":"031-656-6333","addr":"경기도 평택시 용이동 597-7번지 현촌프라자 101,102호","category":"일반휴게음식 - 일반한식"},{"name":"돈까스스토리","tel":"031-655-1890","addr":"경기도 평택시 용이동 597-7번지 101,102호","category":"음식점 - 양식"},{"name":"명문와이즈학원","tel":"031-658-0995","addr":"경기도 평택시 용이동 597-7번지 현촌프라자 201,202호","category":"학원 - 보습학원"},{"name":"썬브리스","tel":"","addr":"경기도 평택시 용이동 597-7번지 현촌프라자 301호","category":"의류 - 내의판매"},{"name":"아이콘짐 휘트니스","tel":"031-651-2303","addr":"경기도 평택시 용이동 597-7번지 현촌프라자 4층 401-405호","category":"레저업소 - 헬스클럽"},{"name":"해달천한의원","tel":"031-656-7507","addr":"경기도 평택시 용이동 597-7번지 현촌프라자 204호 205호","category":"의원 - 한의원"},{"name":"휴대폰멀티샵(용이동)","tel":"031-655-5024","addr":"경기도 평택시 용이동 597-7번지 현촌프라자 1층 107,108호","category":"사무통신 - 통신기기"},{"name":"흰돌치과의원","tel":"031-653-2842","addr":"경기도 평택시 용이동 597-7번지 현촌프라자 303호 ,304,305호","category":"의원 - 치과의원"}]},{"lat":"37.006600855","long":"127.138301","items":[{"name":"동화나라유치원","tel":"031-658-3233","addr":"경기도 평택시 용이동 377","category":"학원 - 유치원"},{"name":"동화나라유치원[아이행복]","tel":"031-658-3233","addr":"경기도 평택시 용이동 377","category":"학원 - 유치원"}]},{"lat":"36.99402694","long":"127.12539395","items":[{"name":"두쏠헤어 (평택점)","tel":"031-691-2777","addr":"경기도 평택시 용이동 684-1번지 2층 202호","category":"보건위생 - 미용원"},{"name":"삼성드림소아청소년과","tel":"","addr":"경기도 평택시 용이동 684-1번지 201호","category":"의원 - 의원"},{"name":"센트럴 이비인후과의원","tel":"031-653-7417","addr":"경기도 평택시 용이동 684-1번지 301,302호","category":"의원 - 의원"},{"name":"위드미치과","tel":"031-692-2275","addr":"경기도 평택시 용이동 684-1번지 4층 401,402호","category":"의원 - 치과의원"},{"name":"일일치킨","tel":"031-654-1172","addr":"경기도 평택시 용이동 684-1번지 101-102호","category":"일반휴게음식 - 스넥"},{"name":"자우당부부한의원","tel":"031-651-8175","addr":"경기도 평택시 용이동 684-1번지 2층 203호","category":"보건업 - 한의원"},{"name":"자우당부부한의원","tel":"031-656-1275","addr":"경기도 평택시 용이동 684-1번지 2층 203호","category":"의원 - 한의원"},{"name":"케이비젼안경 용죽초교점","tel":"031-657-3677","addr":"경기도 평택시 용이동 684-1번지 1동","category":"보건위생 - 안경"},{"name":"케이비젼안경 용죽초교점","tel":"","addr":"경기도 평택시 용이동 684-1번지 1동","category":"소매업 - 안경"},{"name":"큰솔약국","tel":"031-658-9881","addr":"경기도 평택시 용이동 684-1번지 105호","category":"소매업 - 약국"},{"name":"큰솔약국","tel":"031-651-8175","addr":"경기도 평택시 용이동 684-1번지 105호","category":"약국 - 약국"}]},{"lat":"36.994796682","long":"127.13844858","items":[{"name":"뒷고기 돈창고","tel":"031-652-9292","addr":"경기도 평택시 용이동 464-8번지 1층 103호","category":"일반휴게음식 - 일반한식"},{"name":"뒷고기돈창고","tel":"","addr":"경기도 평택시 용이동 464-8번지","category":"음식점 - 한식"},{"name":"보스노래연습장","tel":"","addr":"경기도 평택시 용이동 464-8번지 1층","category":"레저업소 - 노 래 방"},{"name":"스시다움","tel":"","addr":"경기도 평택시 용이동 464-8번지 1층","category":"음식점 - 일식"},{"name":"스시디움","tel":"031-654-5858","addr":"경기도 평택시 용이동 464-8번지 1층","category":"일반휴게음식 - 일반한식"},{"name":"안성갈비","tel":"031-691-6355","addr":"경기도 평택시 용이동 464-8번지 102호","category":"일반휴게음식 - 일반한식"},{"name":"참숯골","tel":"031-658-3003","addr":"경기도 평택시 용이동 464-8번지","category":"일반휴게음식 - 일반한식"},{"name":"참숯골","tel":"031-692-2289","addr":"경기도 평택시 용이동 464-8번지","category":"음식점 - 한식"},{"name":"취하고 데이","tel":"031-691-8954","addr":"경기도 평택시 용이동 464-8번지 1층","category":"음식점 - 양식"},{"name":"취하고데이","tel":"031-618-8211","addr":"경기도 평택시 용이동 464-8번지","category":"일반휴게음식 - 일반한식"}]},{"lat":"36.996828472","long":"127.13455404","items":[{"name":"듀플라워","tel":"031-657-9329","addr":"경기도 평택시 용이동 439-2번지","category":"소매업 - 화훼"},{"name":"자경에스떼","tel":"070-7522-6450","addr":"경기도 평택시 용이동 439-2번지 2층","category":"회원제형태 - 기타4"}]},{"lat":"36.994691577","long":"127.13577481","items":[{"name":"드림오피스평택용이점","tel":"031-652-6526","addr":"경기도 평택시 용이동 454-16번지 1-1호 미그린","category":"사무통신 - 기타 사무용품"}]},{"lat":"36.993052317","long":"127.12680779","items":[{"name":"디에떼에스프레소/주식회사 차오름","tel":"02-1566-1083","addr":"경기도 평택시 용이동 681-9번지 101호","category":"일반휴게음식 - 서양음식"}]},{"lat":"37.003075464","long":"127.14022713","items":[{"name":"디파크24시셀프세차장","tel":"031-654-8803","addr":"경기도 평택시 용이동 31-2번지","category":"자동차정비 유지 - 세차장"},{"name":"산천닭개장","tel":"031-652-9595","addr":"경기도 평택시 용이동 31-2번지","category":"일반휴게음식 - 일반한식"},{"name":"산천닭개장","tel":"","addr":"경기도 평택시 용이동 31-2번지","category":"음식점 - 한식"},{"name":"원조양명산","tel":"031-618-6611","addr":"경기도 평택시 용이동 31-2번지 1층","category":"일반휴게음식 - 중국식"},{"name":"원조양명산","tel":"031-656-3666","addr":"경기도 평택시 용이동 31-2번지 1층","category":"음식점 - 중식"}]},{"lat":"37.000713812","long":"127.14850265","items":[{"name":"디헤어아트","tel":"031-655-0685","addr":"경기도 평택시 용이동 477-12번지 해오름빌 101호","category":"보건위생 - 미용원"}]},{"lat":"36.99840721","long":"127.13286041","items":[{"name":"땡큐당구클럽","tel":"070-8144-8154","addr":"경기도 평택시 용이동 597-3번지 2층","category":"레저업소 - 당 구 장"},{"name":"이룬","tel":"031-618-6767","addr":"경기도 평택시 용이동 597-3번지 101호","category":"보건위생 - 미용원"},{"name":"최강태권도","tel":"031-653-9393","addr":"경기도 평택시 용이동 597-3번지 3층 301,302호","category":"학원 - 예·체능계학원"}]},{"lat":"36.994134697","long":"127.1257536","items":[{"name":"라라뮤직 음악학원","tel":"","addr":"경기도 평택시 용이동 684-3번지 401호","category":"학원 - 예·체능계학원"},{"name":"스윗발레학원","tel":"031-651-5553","addr":"경기도 평택시 용이동 684-3번지 2층 202호","category":"학원 - 예·체능계학원"},{"name":"오레시피 평택용죽점","tel":"031-654-2513","addr":"경기도 평택시 용이동 684-3번지 103호","category":"음료식품 - 기타음료식품"},{"name":"윤선생IGSE 용죽학원","tel":"031-654-0603","addr":"경기도 평택시 용이동 684-3번지 301호","category":"학원 - 보습학원"},{"name":"투셰펜싱클럽","tel":"","addr":"경기도 평택시 용이동 684-3번지 402호","category":"학원 - 예·체능계학원"}]},{"lat":"36.997165512","long":"127.13930656","items":[{"name":"라벨르","tel":"031-656-9854","addr":"경기도 평택시 용이동 449-17번지 상가 102호","category":"보건위생 - 미용원"},{"name":"라벨르헤어","tel":"","addr":"경기도 평택시 용이동 449-17번지 102호","category":"서비스업 - 미용"},{"name":"생생돈까스 평택대학점","tel":"031-652-3385","addr":"경기도 평택시 용이동 449-17번지 101호","category":"일반휴게음식 - 일반한식"},{"name":"용이복권방","tel":"","addr":"경기도 평택시 용이동 449-17번지 101호","category":"음료식품 - 기타음료식품"}]},{"lat":"36.998213388","long":"127.13699421","items":[{"name":"라벨르피부샵","tel":"031-8029-6747","addr":"경기도 평택시 용이동 444-8번지 101호","category":"보건위생 - 피부미용실"},{"name":"유어네일","tel":"","addr":"경기도 평택시 용이동 444-8번지 101호","category":"보건위생 - 피부미용실"}]},{"lat":"37.001775228","long":"127.14999887","items":[{"name":"라스토아(LASTOA)","tel":"031-000-0000","addr":"경기도 평택시 용이동 313-5번지 지층","category":"가구 - 일반가구"},{"name":"올리앤시카","tel":"031-618-0529","addr":"경기도 평택시 용이동 313-5번지","category":"회원제형태 - 학원"}]},{"lat":"36.998022543","long":"127.1384206","items":[{"name":"라코리아","tel":"070-8237-1590","addr":"경기도 평택시 용이동 445-7번지 403호","category":"학원 - 기능학원"}]},{"lat":"36.997105336","long":"127.11969207","items":[{"name":"레이크푸르지오 어린이집[아이행복]","tel":"031-652-3763","addr":"경기도 평택시 용이동 642번지 평택비전레이크푸르지오 관리동","category":"학원 - 유아원"},{"name":"이마트24 평택비전레이크점","tel":"031-000-0000","addr":"경기도 평택시 용이동 642번지 비전레이크푸르지오단지 상가 1층 101호","category":"유통업 영리 - 편 의 점"}]},{"lat":"36.998553865","long":"127.13869116","items":[{"name":"렌탈빅","tel":"031-616-8259","addr":"경기도 평택시 용이동 445-4번지","category":"주방용구 - 정수기"},{"name":"홍희통닭(용이2호점)","tel":"031-651-8289","addr":"경기도 평택시 용이동 445-4번지 1층","category":"음식점 - 치킨"},{"name":"홍희통닭(용이2호점)","tel":"031-618-9949","addr":"경기도 평택시 용이동 445-4번지","category":"일반휴게음식 - 스넥"}]},{"lat":"36.998249265","long":"127.13714032","items":[{"name":"로드스토리","tel":"","addr":"경기도 평택시 용이동 444-9번지 101호","category":"일반휴게음식 - 일반한식"}]},{"lat":"36.995548206","long":"127.13522585","items":[{"name":"로코팩토리","tel":"","addr":"경기도 평택시 용이동 452-1번지 102호","category":"일반휴게음식 - 서양음식"}]},{"lat":"36.999299415","long":"127.13272712","items":[{"name":"루시드커피","tel":"","addr":"경기도 평택시 용이동 594-2번지","category":"일반휴게음식 - 서양음식"},{"name":"블럭팡팡","tel":"031-656-8339","addr":"경기도 평택시 용이동 594-2번지","category":"학원 - 기타 교육기관"},{"name":"제이바디 필라테스 앤 핫요가","tel":"031-691-4008","addr":"경기도 평택시 용이동 594-2번지 4층","category":"레저업소 - 헬스클럽"}]},{"lat":"36.993216291","long":"127.12508935","items":[{"name":"루이르","tel":"","addr":"경기도 평택시 용이동 688-4번지 302호","category":"보건위생 - 피부미용실"},{"name":"린 음악학원","tel":"031-657-0102","addr":"경기도 평택시 용이동 688-4번지 501호","category":"학원 - 예·체능계학원"},{"name":"뮤엠영어용죽학원","tel":"031-657-7556","addr":"경기도 평택시 용이동 688-4번지 601호","category":"학원 - 외국어학원"},{"name":"본죽용죽점","tel":"","addr":"경기도 평택시 용이동 688-4번지 1층 102호","category":"일반휴게음식 - 일반한식"},{"name":"본죽용죽점","tel":"","addr":"경기도 평택시 용이동 688-4번지 YJ빌딩 102호","category":"음식점 - 죽"},{"name":"용죽텔레콤","tel":"","addr":"경기도 평택시 용이동 688-4번지 101호","category":"사무통신 - 통신기기"}]},{"lat":"36.994160455","long":"127.12697809","items":[{"name":"르부아플라워","tel":"031-652-1122","addr":"경기도 평택시 용이동 678-2번지","category":"도소매업 - 꽃집"},{"name":"르부아플라워(Revoir Flower)","tel":"","addr":"경기도 평택시 용이동 678-2번지 102호","category":"문화.취미 - 화원"},{"name":"유니벨라 네일샵","tel":"031-656-5200","addr":"경기도 평택시 용이동 678-2번지 1층 101호","category":"서비스업 - 이미용"},{"name":"유니벨라(UNIBELLA)","tel":"031-111-1111","addr":"경기도 평택시 용이동 678-2번지 1층 101호","category":"보건위생 - 피부미용실"}]},{"lat":"36.999659608","long":"127.13294118","items":[{"name":"리안헤어(용이점)","tel":"031-692-3330","addr":"경기도 평택시 용이동 594-4번지 102호","category":"보건위생 - 미용원"},{"name":"멘토수학학원","tel":"031-691-0992","addr":"경기도 평택시 용이동 594-4번지 2층 일부","category":"학원 - 보습학원"},{"name":"우리가정의학과의원","tel":"031-652-8575","addr":"경기도 평택시 용이동 594-4번지 202호","category":"의원 - 의원"},{"name":"잉글리시아이현촌학원","tel":"031-658-0579","addr":"경기도 평택시 용이동 594-4번지 현촌메디피아 4층 402호","category":"학원 - 보습학원"},{"name":"케이타이거즈최강태권도","tel":"031-653-6636","addr":"경기도 평택시 용이동 594-4번지 현촌메디피아 3층","category":"서비스업 - 교육"},{"name":"해법중국어교실","tel":"031-652-7836","addr":"경기도 평택시 용이동 594-4번지 현촌메디피아 403호","category":"학원 - 외국어학원"},{"name":"행복드림약국","tel":"031-654-6004","addr":"경기도 평택시 용이동 594-4번지 현촌메디피아 101호","category":"약국 - 약국"},{"name":"행복드림약국","tel":"","addr":"경기도 평택시 용이동 594-4번지","category":"소매업 - 약국"},{"name":"현촌한양피아노교습소","tel":"031-655-6699","addr":"경기도 평택시 용이동 594-4번지 4층","category":"학원 - 예·체능계학원"}]},{"lat":"36.99288213","long":"127.12583022","items":[{"name":"마루동물병원","tel":"031-652-8275","addr":"경기도 평택시 용이동 686-2번지 1층 101호","category":"기타의료기관 - 동물병원"},{"name":"마루동물병원","tel":"031-658-4599","addr":"경기도 평택시 용이동 686-2번지 101호","category":"서비스업 - 병원"},{"name":"와이즈만영재교육평택학원","tel":"031-691-9002","addr":"경기도 평택시 용이동 686-2번지 4층","category":"학원 - 보습학원"}]},{"lat":"36.999415737","long":"127.14893831","items":[{"name":"마루벌알막창(용이점)","tel":"031-652-3392","addr":"경기도 평택시 용이동 490-1번지 A동 101호","category":"일반휴게음식 - 일반한식"},{"name":"사쿠사쿠용이점","tel":"031-658-9797","addr":"경기도 평택시 용이동 490-1번지 A동 106호","category":"일반휴게음식 - 스넥"},{"name":"씨유평택용이파크점","tel":"031-651-3984","addr":"경기도 평택시 용이동 490-1번지 A동 102호","category":"유통업 영리 - 편 의 점"},{"name":"아우디스크린골프","tel":"031-655-2266","addr":"경기도 평택시 용이동 490-1번지","category":"회원제형태 - 레져업소"},{"name":"킹왕짱더쪽","tel":"031-667-3258","addr":"경기도 평택시 용이동 490-1번지 A동","category":"일반휴게음식 - 일반한식"},{"name":"테라스 비어","tel":"031-655-2266","addr":"경기도 평택시 용이동 490-1번지 B동 2층","category":"일반휴게음식 - 주점"}]},{"lat":"36.996967922","long":"127.13874451","items":[{"name":"마마돈부리","tel":"031-652-0550","addr":"경기도 평택시 용이동 449-20번지 1층","category":"일반휴게음식 - 일반한식"}]},{"lat":"36.995772669","long":"127.13594519","items":[{"name":"마마스토리","tel":"","addr":"경기도 평택시 용이동 452-5번지 101호","category":"문화.취미 - 문화취미기타"}]},{"lat":"36.998137811","long":"127.14004974","items":[{"name":"마마카롱","tel":"031-691-8223","addr":"경기도 평택시 용이동 448-6번지","category":"일반휴게음식 - 서양음식"},{"name":"메이저카평택점","tel":"031-667-0246","addr":"경기도 평택시 용이동 448-6번지","category":"자동차정비 유지 - 자동차부품"},{"name":"별별떡볶이 달달닭발","tel":"031-658-7788","addr":"경기도 평택시 용이동 448-6번지","category":"일반휴게음식 - 스넥"}]},{"lat":"36.996720307","long":"127.13458755","items":[{"name":"막스시오(MAXCIO)평택점","tel":"031-655-7233","addr":"경기도 평택시 용이동 439-12번지 101호","category":"의류 - 정장"}]},{"lat":"36.994332045","long":"127.12660766","items":[{"name":"말랑마카롱","tel":"","addr":"경기도 평택시 용이동 679-4번지","category":"음료식품 - 기타음료식품"}]},{"lat":"36.997646359","long":"127.14420543","items":[{"name":"맘스맘어린이집[아이행복]","tel":"070-4208-8666","addr":"경기도 평택시 용이동 470-1번지 평택용이2차푸르지오 205동 101호","category":"학원 - 유아원"}]},{"lat":"36.994519655","long":"127.13641482","items":[{"name":"메가MGC커피평택대점","tel":"031-658-3110","addr":"경기도 평택시 용이동 465-1번지 103호","category":"일반휴게음식 - 서양음식"},{"name":"메가MGC커피평택점","tel":"031-691-2479","addr":"경기도 평택시 용이동 465-1번지 1층","category":"음식점 - 카페"},{"name":"용이당구클럽","tel":"031-658-1110","addr":"경기도 평택시 용이동 465-1번지 3층","category":"레저업소 - 당 구 장"},{"name":"용이당구클럽","tel":"","addr":"경기도 평택시 용이동 465-1번지 3층","category":"서비스업 - 당구"},{"name":"이마트24 평택용이점","tel":"","addr":"경기도 평택시 용이동 465-1번지","category":"유통업 영리 - 편 의 점"},{"name":"이마트24 평택용이점","tel":"","addr":"경기도 평택시 용이동 465-1번지","category":"유통업 영리 - 편 의 점"}]},{"lat":"37.001803467","long":"127.14902152","items":[{"name":"메이슨게코","tel":"","addr":"경기도 평택시 용이동 312-4번지 502호","category":"문화.취미 - 애완동물"},{"name":"캐릭터친구","tel":"","addr":"경기도 평택시 용이동 312-4번지 401호","category":"의류 - 아동의류"}]},{"lat":"36.993998872","long":"127.12639368","items":[{"name":"멜번커피하우스","tel":"070-5014-4515","addr":"경기도 평택시 용이동 680-1번지 101호","category":"일반휴게음식 - 일반한식"}]},{"lat":"36.994467229","long":"127.12658541","items":[{"name":"명륜진사갈비(평택용죽점)","tel":"031-652-7333","addr":"경기도 평택시 용이동 679-1번지 1층","category":"일반휴게음식 - 일반한식"}]},{"lat":"36.994080807","long":"127.12558501","items":[{"name":"명인만두용죽점","tel":"031-655-1180","addr":"경기도 평택시 용이동 684-2번지 1층","category":"일반휴게음식 - 스넥"},{"name":"잔치한식뷔페","tel":"031-618-3369","addr":"경기도 평택시 용이동 684-2번지 2층","category":"일반휴게음식 - 일반한식"},{"name":"착한아이스크림 용이점","tel":"","addr":"경기도 평택시 용이동 684-2번지 1층 103호","category":"음료식품 - 기타음료식품"},{"name":"착한아이스크림 용이점","tel":"","addr":"경기도 평택시 용이동 684-2번지 가온빌딩 103호","category":"소매업 - 아이스크림"}]},{"lat":"37.001047731","long":"127.1325054","items":[{"name":"모던시크","tel":"031-0000-0000","addr":"경기도 평택시 용이동 589-2번지 블리스빌 102호","category":"의류 - 정장"},{"name":"아띠스떼미술","tel":"031-658-1009","addr":"경기도 평택시 용이동 589-2번지 203호","category":"학원 - 예·체능계학원"},{"name":"팔라스퀸","tel":"070-8866-1343","addr":"경기도 평택시 용이동 589-2번지 101호","category":"의류 - 정장"}]},{"lat":"36.999451108","long":"127.14199562","items":[{"name":"모마미술학원","tel":"031-000-0000","addr":"경기도 평택시 용이동 471-1번지 평택용이푸르지오 601동 204호","category":"학원 - 예·체능계학원"},{"name":"원어민해법중국어교습소","tel":"070-0000-0000","addr":"경기도 평택시 용이동 471-1번지 평택용이푸르지오 상가동 601동 201호","category":"학원 - 외국어학원"},{"name":"클래식잉글리쉬 영어교습소","tel":"031-654-5570","addr":"경기도 평택시 용이동 471-1번지 평택용이푸르지오 상가 601동 202호","category":"학원 - 외국어학원"},{"name":"푸르지오 수선 운동화 세탁","tel":"031-618-6207","addr":"경기도 평택시 용이동 471-1번지 평택용이푸르지오 601동 104호","category":"수리서비스 - 세탁소"},{"name":"푸르지오1차","tel":"031-658-8249","addr":"경기도 평택시 용이동 471-1번지 평택용이푸르지오 601동 104호","category":"서비스업 - 세탁"},{"name":"푸르지오세탁소1차","tel":"031-618-6207","addr":"경기도 평택시 용이동 471-1번지 평택용이푸르지오 601동 201호","category":"수리서비스 - 세탁소"}]},{"lat":"36.993664844","long":"127.12699975","items":[{"name":"무쇠원판","tel":"031-656-1542","addr":"경기도 평택시 용이동 678-7번지 101호","category":"일반휴게음식 - 일반한식"}]},{"lat":"37.002326287","long":"127.14133802","items":[{"name":"문진영스킨케어","tel":"031-658-1553","addr":"경기도 평택시 용이동 31-7번지","category":"회원제형태 - 기타4"},{"name":"이편한마트","tel":"031-654-8873","addr":"경기도 평택시 용이동 31-7번지 상가 103호","category":"유통업 영리 - 슈퍼마켓"}]},{"lat":"36.992549708","long":"127.12488609","items":[{"name":"뮤고 박스 평택센터","tel":"031-653-1564","addr":"경기도 평택시 용이동 692-1번지 4층","category":"서적문구 - 일반서적"},{"name":"박군치킨용죽점","tel":"031-658-0815","addr":"경기도 평택시 용이동 692-1번지 101호","category":"일반휴게음식 - 일반한식"},{"name":"정장군본점","tel":"","addr":"경기도 평택시 용이동 692-1번지 103호","category":"일반휴게음식 - 일반한식"},{"name":"혜화동돈까스극장","tel":"","addr":"경기도 평택시 용이동 692-1번지","category":"음식점 - 일식"},{"name":"혜화동돈까스극장","tel":"031-691-4004","addr":"경기도 평택시 용이동 692-1번지","category":"일반휴게음식 - 서양음식"}]},{"lat":"36.99983192","long":"127.14755729","items":[{"name":"뮤엠영어용이학원","tel":"031-618-4424","addr":"경기도 평택시 용이동 484-8번지 1층","category":"학원 - 보습학원"}]},{"lat":"36.997521608","long":"127.14302563","items":[{"name":"뮤직i아이 음악학원","tel":"","addr":"경기도 평택시 용이동 470-1번지 평택용이2차푸르지오 201호,202호 전부","category":"학원 - 예·체능계학원"},{"name":"용이2차푸르지오입주자대표회의","tel":"031-657-4664","addr":"경기도 평택시 용이동 470-1번지 평택용이2차푸르지오","category":"회원제형태 - 학원"},{"name":"용이푸른약국","tel":"031-691-5121","addr":"경기도 평택시 용이동 470-1번지 평택용이2차푸르지오 701동 101호","category":"약국 - 약국"},{"name":"용인대 라이온 태권도장","tel":"031-655-9995","addr":"경기도 평택시 용이동 470-1번지 평택용이2차푸르지오 상가동 204-206호","category":"학원 - 예·체능계학원"},{"name":"커뮤니티스포츠","tel":"031-656-6016","addr":"경기도 평택시 용이동 470-1번지 용이2차푸르지오A 스포츠센터 지하1층","category":"회원제형태 - 레져업소"},{"name":"포숑","tel":"031-652-8887","addr":"경기도 평택시 용이동 470-1번지 평택용이2차푸르지오 701동 104호","category":"음료식품 - 제과점"},{"name":"포숑","tel":"","addr":"경기도 평택시 용이동 470-1번지 평택용이2차푸르지오 701동 104호","category":"음료식품 - 제과점"},{"name":"포숑(용이점)","tel":"031-656-8678","addr":"경기도 평택시 용이동 470-1번지 평택용이2차푸르지오","category":"음식점 - 제과점"},{"name":"푸르지오어린이집[아이행복]","tel":"031-652-2462","addr":"경기도 평택시 용이동 470-1번지 평택용이2차푸르지오","category":"학원 - 유아원"},{"name":"푸르지오휘트니스앤골프","tel":"031-692-1793","addr":"경기도 평택시 용이동 470-1번지 용이푸르지오관리동커뮤니티센터","category":"회원제형태 - 레져업소"},{"name":"헤어두","tel":"031-657-0260","addr":"경기도 평택시 용이동 470-1번지 평택용이2차푸르지오 701동 103호","category":"보건위생 - 미용원"},{"name":"홍익아트미술교습소,홍익아트평택지사","tel":"031-668-2130","addr":"경기도 평택시 용이동 470-1번지 평택용이2차푸르지오 701동 203호","category":"학원 - 예·체능계학원"}]},{"lat":"36.995664944","long":"127.13558553","items":[{"name":"미니스톱평택용이대로점","tel":"031-1577-9621","addr":"경기도 평택시 용이동 452-3번지","category":"유통업 영리 - 편 의 점"}]},{"lat":"36.9990001","long":"127.14239923","items":[{"name":"미니스톱평택용이점","tel":"031-1577-9621","addr":"경기도 평택시 용이동 471-1번지 평택용이푸르지오 상가 101,102호","category":"유통업 영리 - 편 의 점"}]},{"lat":"36.994385024","long":"127.13594278","items":[{"name":"미미향 양꼬치","tel":"031-651-9789","addr":"경기도 평택시 용이동 466-2번지 A동 1층","category":"일반휴게음식 - 일반한식"},{"name":"에이플러스김밥","tel":"031-658-0045","addr":"경기도 평택시 용이동 466-2번지 104호","category":"일반휴게음식 - 일반한식"},{"name":"피자스쿨","tel":"031-655-7395","addr":"경기도 평택시 용이동 466-2번지 103호","category":"음식점 - 피자"},{"name":"피자스쿨(평택용이점)","tel":"031-655-1331","addr":"경기도 평택시 용이동 466-2번지 103호","category":"일반휴게음식 - 서양음식"}]},{"lat":"36.993275516","long":"127.12877398","items":[{"name":"미용실마카나이소","tel":"031-653-1791","addr":"경기도 평택시 용이동 671-7번지 1층","category":"보건위생 - 미용원"},{"name":"스윗곳간","tel":"","addr":"경기도 평택시 용이동 671-7번지 피닉스 1층 101호","category":"건축자재 - 기타건축자재"},{"name":"스윗곳간","tel":"","addr":"경기도 평택시 용이동 671-7번지 1층 101호","category":"일반휴게음식 - 서양음식"},{"name":"스윗곳간","tel":"031-657-5333","addr":"경기도 평택시 용이동 671-7번지 피닉스 1층 101호","category":"음식점 - 카페"}]},{"lat":"36.993969282","long":"127.13705416","items":[{"name":"밀 모텔","tel":"031-656-0631","addr":"경기도 평택시 용이동 467-5번지","category":"숙박업 - 여관/기타숙박업"}]},{"lat":"36.995106236","long":"127.1273054","items":[{"name":"바다로가자","tel":"","addr":"경기도 평택시 용이동 664-3번지 1층","category":"일반휴게음식 - 일식·회집"}]},{"lat":"36.997271926","long":"127.13280231","items":[{"name":"바다양푼이 동태탕 평택대점","tel":"031-655-8028","addr":"경기도 평택시 용이동 598-7번지","category":"음식점 - 한식"},{"name":"바다양푼이동태탕평택대점","tel":"031-654-7725","addr":"경기도 평택시 용이동 598-7번지 1층","category":"일반휴게음식 - 일반한식"},{"name":"솔밭사이로 물은흐르고","tel":"031-618-9255","addr":"경기도 평택시 용이동 598-7번지","category":"음식점 - 카페"},{"name":"솔밭사이로물은흐르고(평택점)","tel":"031-111-1111","addr":"경기도 평택시 용이동 598-7번지 301호","category":"일반휴게음식 - 서양음식"},{"name":"탁이포차","tel":"031-651-1118","addr":"경기도 평택시 용이동 598-7번지 102호","category":"일반휴게음식 - 일반한식"}]},{"lat":"36.999218852","long":"127.14783698","items":[{"name":"박군치킨용이반도유보라점","tel":"031-652-6325","addr":"경기도 평택시 용이동 491-1번지 A동 101호","category":"일반휴게음식 - 스넥"},{"name":"색연필 용이점","tel":"031-653-6636","addr":"경기도 평택시 용이동 491-1번지 A동 102호","category":"서적문구 - 문구용품"},{"name":"색연필용이점","tel":"031-652-1618","addr":"경기도 평택시 용이동 491-1번지 102호","category":"소매업 - 문구"},{"name":"샤음악학원","tel":"031-657-7559","addr":"경기도 평택시 용이동 491-1번지 203호","category":"학원 - 예·체능계학원"},{"name":"용인대 청용 태권도장","tel":"031-655-3757","addr":"경기도 평택시 용이동 491-1번지 조은빌딩 3층 301호","category":"학원 - 예·체능계학원"},{"name":"유진용이학원","tel":"031-657-3352","addr":"경기도 평택시 용이동 491-1번지 A동 201호","category":"학원 - 보습학원"},{"name":"장대포연탄불고기","tel":"031-652-4388","addr":"경기도 평택시 용이동 491-1번지 B동 102호","category":"일반휴게음식 - 일반한식"},{"name":"정대감","tel":"031-652-1618","addr":"경기도 평택시 용이동 491-1번지 1층","category":"일반휴게음식 - 일반한식"},{"name":"정대감","tel":"031-662-3990","addr":"경기도 평택시 용이동 491-1번지","category":"음식점 - 한식"},{"name":"트리니티 영어학원","tel":"031-111-1111","addr":"경기도 평택시 용이동 491-1번지 A동 302호","category":"학원 - 외국어학원"}]},{"lat":"36.992800567","long":"127.12627941","items":[{"name":"반트필라테스","tel":"031-654-5599","addr":"경기도 평택시 용이동 682-10번지 2층 201호","category":"서비스업 - 필라테스"},{"name":"반트필라테스","tel":"","addr":"경기도 평택시 용이동 682-10번지 2층 201호","category":"레저업소 - 헬스클럽"},{"name":"아구&명태어장","tel":"031-657-7702","addr":"경기도 평택시 용이동 682-10번지 1층","category":"일반휴게음식 - 일반한식"}]},{"lat":"37.001830188","long":"127.14177526","items":[{"name":"백세남원추어탕","tel":"","addr":"경기도 평택시 용이동 31-35번지","category":"음식점 - 한식"},{"name":"백세남원추어탕","tel":"031-656-9997","addr":"경기도 평택시 용이동 31-35번지 1층","category":"일반휴게음식 - 일반한식"}]},{"lat":"36.994409068","long":"127.13858269","items":[{"name":"백수당한의원","tel":"031-692-4476","addr":"경기도 평택시 용이동 468-4번지","category":"의원 - 한의원"},{"name":"사이다짐","tel":"031-656-0420","addr":"경기도 평택시 용이동 468-4번지 3층","category":"레저업소 - 헬스클럽"},{"name":"사이다짐","tel":"031-618-0980","addr":"경기도 평택시 용이동 468-4번지 3층","category":"서비스업 - 헬스"},{"name":"세사리빙 공도진사점","tel":"031-654-5224","addr":"경기도 평택시 용이동 468-4번지","category":"소매업 - 침구류"}]},{"lat":"37.00147005","long":"127.13358463","items":[{"name":"밴쿠버설비 송탄오산점","tel":"","addr":"경기도 평택시 용이동 589-11번지 303호","category":"용역 서비스 - 기타용역서비스"},{"name":"쏘쏘스토리","tel":"","addr":"경기도 평택시 용이동 589-11번지 센트럴빌 101호","category":"의류 - 정장"},{"name":"자리플라워","tel":"031-618-6522","addr":"경기도 평택시 용이동 589-11번지 102호","category":"문화.취미 - 화원"}]},{"lat":"36.997693723","long":"127.1422508","items":[{"name":"베르겐피아노","tel":"031-618-5922","addr":"경기도 평택시 용이동 470-1번지 평택용이2차푸르지오 215동 102호","category":"회원제형태 - 학원"}]},{"lat":"37.002158904","long":"127.14571922","items":[{"name":"벨리타헤어","tel":"031-652-9997","addr":"경기도 평택시 용이동 739-1번지 102호","category":"보건위생 - 미용원"},{"name":"봄그리고가을","tel":"","addr":"경기도 평택시 용이동 739-1번지 103호","category":"일반휴게음식 - 서양음식"},{"name":"이편한 정육점","tel":"031-654-6292","addr":"경기도 평택시 용이동 739-1번지 104호","category":"음료식품 - 정육점"},{"name":"크린토피아 평택용이 e편한점","tel":"031-655-3479","addr":"경기도 평택시 용이동 739-1번지 101호","category":"수리서비스 - 세탁소"}]},{"lat":"36.999163959","long":"127.13299651","items":[{"name":"보아헤어갤러리","tel":"031-655-2228","addr":"경기도 평택시 용이동 595-14번지 HK타워 3층","category":"보건위생 - 미용원"},{"name":"퀸즈네일","tel":"031-657-2016","addr":"경기도 평택시 용이동 595-14번지 한국마트주차빌딩 303호","category":"보건위생 - 피부미용실"},{"name":"튼튼소아청소년과의원","tel":"031-652-0275","addr":"경기도 평택시 용이동 595-14번지 한국마트주차빌딩 204호","category":"의원 - 의원"},{"name":"파리바게뜨 평택현촌점","tel":"031-655-1331","addr":"경기도 평택시 용이동 595-14번지","category":"음식점 - 제과점"},{"name":"파리바게뜨 평택현촌점","tel":"031-657-0599","addr":"경기도 평택시 용이동 595-14번지 102호,201호","category":"음료식품 - 제과점"},{"name":"한국마트","tel":"","addr":"경기도 평택시 용이동 595-14번지","category":"소매업 - 슈퍼"},{"name":"햇살약국","tel":"031-657-4576","addr":"경기도 평택시 용이동 595-14번지 한국마트주차빌딩 103호","category":"약국 - 약국"}]},{"lat":"36.99677664","long":"127.14053035","items":[{"name":"본데이","tel":"031-652-5557","addr":"경기도 평택시 용이동 460-2번지","category":"보건위생 - 안경"},{"name":"안경본데이","tel":"031-658-4330","addr":"경기도 평택시 용이동 460-2번지","category":"소매업 - 안경"},{"name":"제이필헤어","tel":"031-651-3771","addr":"경기도 평택시 용이동 460-2번지 103호","category":"보건위생 - 미용원"}]},{"lat":"36.994860869","long":"127.13747137","items":[{"name":"봉구비어용이점","tel":"031-691-0919","addr":"경기도 평택시 용이동 465-4번지 1층","category":"일반휴게음식 - 주점"},{"name":"씨유평택용이중앙점","tel":"031-671-4361","addr":"경기도 평택시 용이동 465-4번지 1층 101호","category":"유통업 영리 - 편 의 점"},{"name":"알콜퀸","tel":"031-692-1209","addr":"경기도 평택시 용이동 465-4번지 107호","category":"일반휴게음식 - 일반한식"},{"name":"오닭꼬치 평택대점","tel":"031-657-9099","addr":"경기도 평택시 용이동 465-4번지 1층","category":"일반휴게음식 - 스넥"},{"name":"이가양평해장국","tel":"031-655-8976","addr":"경기도 평택시 용이동 465-4번지","category":"음식점 - 한식"},{"name":"전라도 찌개마을","tel":"031-651-1126","addr":"경기도 평택시 용이동 465-4번지 107호 106호,107호","category":"일반휴게음식 - 일반한식"},{"name":"태영생막창","tel":"031-655-2828","addr":"경기도 평택시 용이동 465-4번지 104호","category":"일반휴게음식 - 일반한식"},{"name":"태영생막창","tel":"031-655-1213","addr":"경기도 평택시 용이동 465-4번지","category":"음식점 - 한식"}]},{"lat":"36.998132634","long":"127.13669075","items":[{"name":"봉주르맛집","tel":"031-654-0826","addr":"경기도 평택시 용이동 444-6번지 1층","category":"일반휴게음식 - 일반한식"},{"name":"필링헤어","tel":"031-618-3797","addr":"경기도 평택시 용이동 444-6번지 1층","category":"보건위생 - 미용원"}]},{"lat":"36.997992202","long":"127.13333153","items":[{"name":"부자곱","tel":"031-664-6231","addr":"경기도 평택시 용이동 598-1번지 103호","category":"일반휴게음식 - 일반한식"},{"name":"옥상라멘","tel":"031-000-0000","addr":"경기도 평택시 용이동 598-1번지 401호","category":"일반휴게음식 - 일반한식"}]},{"lat":"36.996689629","long":"127.13783408","items":[{"name":"분식예감","tel":"031-692-2008","addr":"경기도 평택시 용이동 442-27번지 대치프라임 101호","category":"일반휴게음식 - 스넥"},{"name":"에이치지1991(HG1991)","tel":"031-618-6410","addr":"경기도 평택시 용이동 442-27번지 1층","category":"일반휴게음식 - 일반한식"},{"name":"여기맛나","tel":"","addr":"경기도 평택시 용이동 442-27번지 1층","category":"일반휴게음식 - 일반한식"},{"name":"웅이네반찬가게","tel":"031-652-2562","addr":"경기도 평택시 용이동 442-27번지 대치프라임 102호","category":"음료식품 - 기타음료식품"}]},{"lat":"36.994105504","long":"127.13611079","items":[{"name":"불닭발땡초동대문엽기떡볶이평택대점","tel":"031-652-8592","addr":"경기도 평택시 용이동 466-4번지 104호","category":"일반휴게음식 - 일반한식"},{"name":"요거프레소 평택대점","tel":"","addr":"경기도 평택시 용이동 466-4번지","category":"음식점 - 카페"},{"name":"요거프레소 평택대점","tel":"070-7404-1465","addr":"경기도 평택시 용이동 466-4번지 1층 108호","category":"일반휴게음식 - 서양음식"},{"name":"이정순대게사랑","tel":"031-651-8859","addr":"경기도 평택시 용이동 466-4번지 1층","category":"일반휴게음식 - 일반한식"},{"name":"총각수산용이점","tel":"031-657-1253","addr":"경기도 평택시 용이동 466-4번지 1층","category":"일반휴게음식 - 일반한식"},{"name":"크크","tel":"031-658-9000","addr":"경기도 평택시 용이동 466-4번지 1층 109호","category":"일반휴게음식 - 주점"},{"name":"크크","tel":"031-656-4886","addr":"경기도 평택시 용이동 466-4번지","category":"음식점 - 한식"}]},{"lat":"36.995908633","long":"127.13522647","items":[{"name":"블로썸","tel":"031-655-0353","addr":"경기도 평택시 용이동 439-9번지 1층","category":"음식점 - 카페"},{"name":"블로썸(Blossom)","tel":"031-652-5323","addr":"경기도 평택시 용이동 439-9번지 우영 102호","category":"일반휴게음식 - 서양음식"},{"name":"신전떡볶이(평택대점)","tel":"031-655-4599","addr":"경기도 평택시 용이동 439-9번지 1층","category":"일반휴게음식 - 스넥"},{"name":"신전떡볶이평택대점","tel":"031-656-2016","addr":"경기도 평택시 용이동 439-9번지 1층","category":"음식점 - 분식"}]},{"lat":"36.996158686","long":"127.13722651","items":[{"name":"비비꼬마김밥","tel":"031-675-8905","addr":"경기도 평택시 용이동 451-3번지 101호","category":"일반휴게음식 - 스넥"},{"name":"비비꼬마김밥","tel":"031-651-2990","addr":"경기도 평택시 용이동 451-3번지","category":"음식점 - 분식"},{"name":"수고했어,오늘도","tel":"","addr":"경기도 평택시 용이동 451-3번지 102호","category":"일반휴게음식 - 서양음식"},{"name":"야식고고","tel":"031-1111-1111","addr":"경기도 평택시 용이동 451-3번지 102호","category":"일반휴게음식 - 일반한식"}]},{"lat":"36.994356237","long":"127.12930374","items":[{"name":"비비큐치킨카페(BBQ치킨카페)","tel":"031-656-9282","addr":"경기도 평택시 용이동 666-7번지 1층","category":"일반휴게음식 - 스넥"}]},{"lat":"36.997578954","long":"127.14021725","items":[{"name":"비쥬헤어","tel":"031-653-1005","addr":"경기도 평택시 용이동 449-10번지","category":"보건위생 - 미용원"},{"name":"용이동 분식점","tel":"031-653-3545","addr":"경기도 평택시 용이동 449-10번지","category":"일반휴게음식 - 스넥"},{"name":"지리산유기농마을","tel":"031-664-6279","addr":"경기도 평택시 용이동 449-10번지 102호","category":"음료식품 - 농·축·수산품"}]},{"lat":"36.994772487","long":"127.12764186","items":[{"name":"빅브랜드","tel":"","addr":"경기도 평택시 용이동 674-4번지 202호","category":"보건위생 - 미용원"},{"name":"우리할인마트","tel":"","addr":"경기도 평택시 용이동 674-4번지","category":"유통업 영리 - 슈퍼마켓"}]},{"lat":"36.992665056","long":"127.12661619","items":[{"name":"빌리엔젤","tel":"031-653-5188","addr":"경기도 평택시 용이동 682-7번지","category":"일반휴게음식 - 서양음식"},{"name":"빌리엔젤 평택점","tel":"031-656-0556","addr":"경기도 평택시 용이동 682-7번지 1층","category":"음식점 - 카페"},{"name":"와레아네일","tel":"","addr":"경기도 평택시 용이동 682-7번지 2층","category":"보건위생 - 피부미용실"}]},{"lat":"36.993718732","long":"127.12716834","items":[{"name":"빛날예정파티앤플라워","tel":"031-653-1895","addr":"경기도 평택시 용이동 678-6번지 202호","category":"소매업 - 꽃집"},{"name":"상하이문 (용죽점)","tel":"031-691-9112","addr":"경기도 평택시 용이동 678-6번지 1층","category":"일반휴게음식 - 중국식"},{"name":"예정파티앤플라워","tel":"02-1234-1234","addr":"경기도 평택시 용이동 678-6번지 2층 202호","category":"일반휴게음식 - 일반한식"}]},{"lat":"36.99685902","long":"127.13941835","items":[{"name":"서현미헤어갤러리","tel":"031-401-2471","addr":"경기도 평택시 용이동 450-5번지 101호","category":"보건위생 - 미용원"}]},{"lat":"37.000688596","long":"127.13939149","items":[{"name":"성화석재","tel":"031-658-0491","addr":"경기도 평택시 용이동 24번지","category":"건축자재 - 목재·석재·철물"}]},{"lat":"37.001326669","long":"127.13286538","items":[{"name":"세븐일레븐 현촌제일점","tel":"031-651-9282","addr":"경기도 평택시 용이동 589-6번지","category":"소매업 - 편의점"},{"name":"세븐일레븐현촌제일점","tel":"031-1577-0711","addr":"경기도 평택시 용이동 589-6번지","category":"유통업 영리 - 편 의 점"},{"name":"피부를디자인하다","tel":"","addr":"경기도 평택시 용이동 589-6번지 102호","category":"보건위생 - 화장품"}]},{"lat":"37.00076822","long":"127.1482219","items":[{"name":"세븐일레븐평택용이승천점","tel":"031-1577-0711","addr":"경기도 평택시 용이동 477-14번지 마노아하우스 1층 1호","category":"유통업 영리 - 편 의 점"}]},{"lat":"36.996797309","long":"127.13822745","items":[{"name":"세븐일레븐평택용이중앙점","tel":"","addr":"경기도 평택시 용이동 442-25번지","category":"유통업 영리 - 편 의 점"}]},{"lat":"36.994547539","long":"127.12733819","items":[{"name":"세븐일레븐평택용죽지구점","tel":"031-1577-0711","addr":"경기도 평택시 용이동 674-7번지","category":"유통업 영리 - 편 의 점"},{"name":"진미랑","tel":"070-5057-5003","addr":"경기도 평택시 용이동 674-7번지 1층","category":"일반휴게음식 - 일반한식"}]},{"lat":"37.001353529","long":"127.13302271","items":[{"name":"세탁친구","tel":"031-658-5527","addr":"경기도 평택시 용이동 589-7번지 102호","category":"수리서비스 - 세탁소"},{"name":"태미공방","tel":"031-662-3340","addr":"경기도 평택시 용이동 589-7번지 101호","category":"문화.취미 - 민예·공예품"}]},{"lat":"37.000689053","long":"127.14663769","items":[{"name":"소금커피","tel":"031-654-6887","addr":"경기도 평택시 용이동 474-3번지 1층","category":"일반휴게음식 - 서양음식"}]},{"lat":"36.995025436","long":"127.13535975","items":[{"name":"소망김밥","tel":"031-655-8593","addr":"경기도 평택시 용이동 452-20번지","category":"일반휴게음식 - 일반한식"},{"name":"쉐프 밥버거","tel":"031-655-8919","addr":"경기도 평택시 용이동 452-20번지 102호","category":"일반휴게음식 - 일반한식"},{"name":"프로젝트 B","tel":"","addr":"경기도 평택시 용이동 452-20번지 103호","category":"일반휴게음식 - 서양음식"}]},{"lat":"36.993685768","long":"127.12419143","items":[{"name":"소피아음악학원","tel":"031-654-3279","addr":"경기도 평택시 용이동 689-2번지 5층","category":"학원 - 예·체능계학원"},{"name":"에스엠(SM)명문학원","tel":"031-656-8477","addr":"경기도 평택시 용이동 689-2번지 7층","category":"학원 - 보습학원"},{"name":"키즈클래스","tel":"031-657-0582","addr":"경기도 평택시 용이동 689-2번지 6층","category":"학원 - 외국어학원"}]},{"lat":"36.996213878","long":"127.12794753","items":[{"name":"솔스튜디오(solstudio)","tel":"031-656-9146","addr":"경기도 평택시 용이동 661번지 평택비전지웰테라스 510동 7호","category":"보건위생 - 화장품"}]},{"lat":"36.996302386","long":"127.13764242","items":[{"name":"스시도마","tel":"","addr":"경기도 평택시 용이동 451-6번지 로드빌2 101호","category":"일반휴게음식 - 일식·회집"},{"name":"스시도마","tel":"031-657-4148","addr":"경기도 평택시 용이동 451-6번지","category":"음식점 - 일식"}]},{"lat":"36.996939523","long":"127.1318918","items":[{"name":"스윗닥&스윗밥","tel":"031-654-4445","addr":"경기도 평택시 용이동 604-2번지 1층","category":"일반휴게음식 - 일반한식"}]},{"lat":"37.000053773","long":"127.15033259","items":[{"name":"스타메디칼","tel":"031-657-3272","addr":"경기도 평택시 용이동 487-10번지 그랜드빌 101호","category":"보건위생 - 의료용품"},{"name":"유정헤어","tel":"031-655-7558","addr":"경기도 평택시 용이동 487-10번지 102호","category":"보건위생 - 미용원"},{"name":"카스코종합상사","tel":"031-653-6511","addr":"경기도 평택시 용이동 487-10번지 304호","category":"자동차정비 유지 - 윤활유 전문 판매"}]},{"lat":"36.996160166","long":"127.13591217","items":[{"name":"스테이(STAY)","tel":"","addr":"경기도 평택시 용이동 441-4번지 102호","category":"문화.취미 - 화원"},{"name":"청자다방","tel":"031-656-2444","addr":"경기도 평택시 용이동 441-4번지 1층","category":"음식점 - 한식"},{"name":"청자다방(평택용이점)","tel":"031-385-3181","addr":"경기도 평택시 용이동 441-4번지 1층 101호","category":"일반휴게음식 - 서양음식"}]},{"lat":"36.993221832","long":"127.12841443","items":[{"name":"스팀보이게러지평택용죽점","tel":"031-656-5566","addr":"경기도 평택시 용이동 672-5번지","category":"자동차정비 유지 - 세차장"}]},{"lat":"36.994023028","long":"127.13733509","items":[{"name":"신정골전통뼈해장국","tel":"031-652-8520","addr":"경기도 평택시 용이동 467-6번지","category":"음식점 - 한식"}]},{"lat":"36.996437048","long":"127.13808077","items":[{"name":"쌔카스팀세차 평택용이점","tel":"","addr":"경기도 평택시 용이동 451-8번지 101호","category":"자동차정비 유지 - 세차장"}]},{"lat":"36.99382558","long":"127.13663827","items":[{"name":"썬노래뮤비방","tel":"","addr":"경기도 평택시 용이동 467-3번지 301,302호","category":"용역 서비스 - 종합용역"},{"name":"오백국수 용이점","tel":"031-692-4788","addr":"경기도 평택시 용이동 467-3번지 203호","category":"일반휴게음식 - 일반한식"},{"name":"토프레소용이점","tel":"031-653-0289","addr":"경기도 평택시 용이동 467-3번지 103호","category":"일반휴게음식 - 서양음식"}]},{"lat":"36.993610227","long":"127.12752763","items":[{"name":"씨유평택스페이스점","tel":"02-1577-8007","addr":"경기도 평택시 용이동 676-1번지 1층","category":"유통업 영리 - 편 의 점"}]},{"lat":"36.9975545","long":"127.13797041","items":[{"name":"씨유평택용이점","tel":"031-657-3812","addr":"경기도 평택시 용이동 442-13번지","category":"유통업 영리 - 편 의 점"}]},{"lat":"36.994606609","long":"127.13918965","items":[{"name":"아곤인터내셔널","tel":"070-8861-3337","addr":"경기도 평택시 용이동 468-6번지 3층 2호","category":"레져용품 - 스포츠·레져용품"},{"name":"알레르망평택용이점","tel":"031-656-3452","addr":"경기도 평택시 용이동 468-6번지 1층","category":"도소매업 - 침구류"},{"name":"알레르망평택용이점","tel":"031-654-4686","addr":"경기도 평택시 용이동 468-6번지 1층","category":"직물 - 침구·수예점"},{"name":"장보는강아지와고양이 평택점","tel":"031-653-1070","addr":"경기도 평택시 용이동 468-6번지 1층","category":"문화.취미 - 애완동물"},{"name":"채선당플러스용이점","tel":"031-656-6639","addr":"경기도 평택시 용이동 468-6번지","category":"일반휴게음식 - 일반한식"},{"name":"티업스크린골프마켓","tel":"031-658-1872","addr":"경기도 평택시 용이동 468-6번지","category":"회원제형태 - 레져업소"}]},{"lat":"36.996077971","long":"127.13688936","items":[{"name":"아나이스","tel":"02-1111-1111","addr":"경기도 평택시 용이동 451-1번지 102호","category":"일반휴게음식 - 서양음식"}]},{"lat":"36.998025125","long":"127.1361401","items":[{"name":"아롬뷰티플레이스","tel":"","addr":"경기도 평택시 용이동 444-3번지 101호","category":"보건위생 - 피부미용실"}]},{"lat":"36.997451054","long":"127.14172236","items":[{"name":"아리숨 경기지사","tel":"","addr":"경기도 평택시 용이동 470-1번지 평택용이2차푸르지오 214동 302호","category":"용역 서비스 - 종합용역"},{"name":"이룬코스메틱","tel":"031-656-6411","addr":"경기도 평택시 용이동 470-1번지 평택용이2차푸르지오 214동 1101호","category":"보건위생 - 화장품"}]},{"lat":"36.993721639","long":"127.12435999","items":[{"name":"아빠마음칼국수","tel":"031-655-8658","addr":"경기도 평택시 용이동 689-3번지 104호","category":"일반휴게음식 - 일반한식"},{"name":"애니D미술학원","tel":"031-691-8223","addr":"경기도 평택시 용이동 689-3번지 2층 202호","category":"학원 - 예·체능계학원"},{"name":"용인대국가대표태권도","tel":"031-655-6565","addr":"경기도 평택시 용이동 689-3번지 현우빌딩 3층 301호","category":"학원 - 예·체능계학원"},{"name":"용죽음악학원","tel":"031-653-8034","addr":"경기도 평택시 용이동 689-3번지 3층 일부","category":"학원 - 예·체능계학원"},{"name":"평택축산사랑","tel":"080-855-5526","addr":"경기도 평택시 용이동 689-3번지","category":"소매업 - 정육"},{"name":"평택축산사랑","tel":"031-656-4144","addr":"경기도 평택시 용이동 689-3번지","category":"음료식품 - 정육점"},{"name":"프라임용죽캠퍼스학원","tel":"031-656-1920","addr":"경기도 평택시 용이동 689-3번지 현우빌딩 2층 1호","category":"학원 - 보습학원"}]},{"lat":"36.996248488","long":"127.13749628","items":[{"name":"아이러브피자앤치킨평택용이점","tel":"031-658-9283","addr":"경기도 평택시 용이동 451-5번지 1층","category":"일반휴게음식 - 스넥"}]},{"lat":"36.998403403","long":"127.14408325","items":[{"name":"아이원어린이집[아이행복]","tel":"070-4215-0084","addr":"경기도 평택시 용이동 470-1번지 평택용이2차푸르지오 203동 101호","category":"학원 - 유아원"},{"name":"해법영어푸르지오2차교실","tel":"031-657-2556","addr":"경기도 평택시 용이동 470-1번지 평택용이2차푸르지오 203동102호","category":"회원제형태 - 학원"},{"name":"해법영어푸르지오2차교실","tel":"","addr":"경기도 평택시 용이동 470-1번지 푸르지오2차아파트 203동 102호","category":"서비스업 - 교육"}]},{"lat":"36.99768515","long":"127.1255234","items":[{"name":"아이파크 어린이집[아이행복]","tel":"031-618-3679","addr":"경기도 평택시 용이동 639번지 비전아이파크평택 104동 1층","category":"학원 - 유아원"},{"name":"이마트24 평택아이파크점","tel":"","addr":"경기도 평택시 용이동 639번지 비전아이파크평택 상가동 107호","category":"유통업 영리 - 편 의 점"},{"name":"이마트24 평택아이파크점","tel":"","addr":"경기도 평택시 용이동 639번지 비전아이파크평택 상가동 107호","category":"유통업 영리 - 편 의 점"}]},{"lat":"36.998549661","long":"127.13442219","items":[{"name":"아침에 떡 2호점","tel":"031-652-7100","addr":"경기도 평택시 용이동 166-6번지","category":"음료식품 - 제과점"},{"name":"아침에떡2호점","tel":"","addr":"경기도 평택시 용이동 166-6번지","category":"제조업 - 떡"},{"name":"여우소리","tel":"031-691-5480","addr":"경기도 평택시 용이동 166-6번지","category":"보건위생 - 미용원"},{"name":"여우소리헤어살롱","tel":"031-657-4234","addr":"경기도 평택시 용이동 166-6번지","category":"서비스업 - 이미용"}]},{"lat":"36.999740544","long":"127.13308737","items":[{"name":"아트빈미술학원","tel":"031-657-6659","addr":"경기도 평택시 용이동 594-5번지 4층 401호","category":"학원 - 예·체능계학원"},{"name":"용죽관","tel":"031-691-9485","addr":"경기도 평택시 용이동 594-5번지 1층","category":"일반휴게음식 - 중국식"},{"name":"현촌쇼팽음악전문학원","tel":"031-654-1235","addr":"경기도 평택시 용이동 594-5번지 3층 301호","category":"학원 - 예·체능계학원"}]},{"lat":"36.992665757","long":"127.1259422","items":[{"name":"야호","tel":"031-655-5001","addr":"경기도 평택시 용이동 686-4번지 201호","category":"보건위생 - 화장품"}]},{"lat":"36.998855413","long":"127.1428371","items":[{"name":"얘들아 놀자","tel":"","addr":"경기도 평택시 용이동 471-1번지 평택용이푸르지오 112동 302호","category":"용역 서비스 - 종합용역"}]},{"lat":"36.992998627","long":"127.12644823","items":[{"name":"어니언테이블","tel":"","addr":"경기도 평택시 용이동 682-4번지 1층","category":"일반휴게음식 - 서양음식"}]},{"lat":"36.997047441","long":"127.14011519","items":[{"name":"얼룩빼기이박사","tel":"031-651-8289","addr":"경기도 평택시 용이동 450-9번지","category":"수리서비스 - 세탁소"},{"name":"얼룩빼기이박사","tel":"031-653-3936","addr":"경기도 평택시 용이동 450-9번지","category":"서비스업 - 세탁"},{"name":"카앤스토리","tel":"070-8947-1129","addr":"경기도 평택시 용이동 450-9번지 101호","category":"자동차정비 유지 - 자동차부품"}]},{"lat":"36.999524805","long":"127.14061394","items":[{"name":"에끌로","tel":"","addr":"경기도 평택시 용이동 11-3번지","category":"음식점 - 카페"},{"name":"에끌로(eclove)","tel":"031-656-9881","addr":"경기도 평택시 용이동 11-3번지 A동 1층","category":"일반휴게음식 - 서양음식"}]},{"lat":"37.006745268","long":"127.13808779","items":[{"name":"에듀빌리지학원","tel":"031-651-2665","addr":"경기도 평택시 용이동 378-13번지 2층","category":"학원 - 보습학원"},{"name":"에스에이치에듀플레이","tel":"070-4200-3546","addr":"경기도 평택시 용이동 378-13번지 4층","category":"서적문구 - 일반서적"},{"name":"키즈짐","tel":"","addr":"경기도 평택시 용이동 378-13번지 G동 1층","category":"학원 - 기타 교육기관"},{"name":"티월드평택용이점","tel":"070-4763-5091","addr":"경기도 평택시 용이동 378-13번지 1동 1층","category":"일반휴게음식 - 서양음식"},{"name":"평택알티오라어학원","tel":"031-651-2665","addr":"경기도 평택시 용이동 378-13번지 3층, 4층","category":"학원 - 외국어학원"}]},{"lat":"37.002857743","long":"127.14900107","items":[{"name":"에스공조에어콘","tel":"","addr":"경기도 평택시 용이동 746-4번지 예그리나 1동 3층 301호","category":"수리서비스 - 가정용품수리"}]},{"lat":"37.002023039","long":"127.14630316","items":[{"name":"에이스사무기","tel":"031-692-4525","addr":"경기도 평택시 용이동 741-2번지 1층","category":"사무통신 - 사무용 OA기기"}]},{"lat":"36.993771705","long":"127.13646968","items":[{"name":"에이스침대 평택점","tel":"031-653-5707","addr":"경기도 평택시 용이동 467-2번지 101호","category":"도소매업 - 가구"},{"name":"전자담배","tel":"031-618-1221","addr":"경기도 평택시 용이동 467-2번지","category":"기타 - 기타 전문점"},{"name":"커튼명가 창 평택용이점","tel":"031-655-5388","addr":"경기도 평택시 용이동 467-2번지 2층","category":"직물 - 카페트,커튼,천막,지물"}]},{"lat":"36.999964112","long":"127.14997292","items":[{"name":"에코","tel":"031-111-1111","addr":"경기도 평택시 용이동 487-12번지 1층","category":"일반휴게음식 - 서양음식"},{"name":"에코","tel":"","addr":"경기도 평택시 용이동 487-12번지 최고빌 상가 102호","category":"음식점 - 카페"},{"name":"주식회사 금문크린","tel":"031-1899-6021","addr":"경기도 평택시 용이동 487-12번지 101호","category":"수리서비스 - 가정용품수리"}]},{"lat":"36.999109044","long":"127.14170291","items":[{"name":"엑튼기업","tel":"","addr":"경기도 평택시 용이동 471-1번지 평택용이푸르지오 106동 1001호","category":"용역 서비스 - 종합용역"}]},{"lat":"36.996106253","long":"127.13577727","items":[{"name":"엔젤헤어","tel":"031-658-5033","addr":"경기도 평택시 용이동 441-3번지 101호","category":"보건위생 - 미용원"}]},{"lat":"36.995466809","long":"127.13549532","items":[{"name":"엘피에스바이오","tel":"070-4253-8492","addr":"경기도 평택시 용이동 452-17번지 서이원룸 405호","category":"서적문구 - 과학기자재"}]},{"lat":"36.993603924","long":"127.12492147","items":[{"name":"엠아이텔레콤","tel":"070-4064-3005","addr":"경기도 평택시 용이동 688-1번지","category":"사무통신 - 통신기기"}]},{"lat":"36.999215333","long":"127.15069046","items":[{"name":"엠제이오토평택점","tel":"031-657-9250","addr":"경기도 평택시 용이동 489-9번지 1층 102호","category":"자동차정비 유지 - 자동차부품"}]},{"lat":"36.993888528","long":"127.12850539","items":[{"name":"엠카페","tel":"031-657-9960","addr":"경기도 평택시 용이동 671-1번지 1층","category":"일반휴게음식 - 서양음식"},{"name":"엠카페","tel":"031-658-9299","addr":"경기도 평택시 용이동 671-1번지","category":"소매업 - 카페"}]},{"lat":"36.998075332","long":"127.13953286","items":[{"name":"여시네일","tel":"070-8966-6992","addr":"경기도 평택시 용이동 447-2번지 401호","category":"보건위생 - 미용재료"}]},{"lat":"37.00152433","long":"127.1488637","items":[{"name":"왔따메 건어물","tel":"","addr":"경기도 평택시 용이동 428-6번지 101호","category":"음료식품 - 농·축·수산품"}]},{"lat":"36.997884775","long":"127.13269101","items":[{"name":"용이FC유소년축구클럽","tel":"070-9953-6487","addr":"경기도 평택시 용이동 599-2번지 2층","category":"학원 - 예·체능계학원"},{"name":"주식회사알파고부동산중개컨설팅","tel":"031-618-1890","addr":"경기도 평택시 용이동 599-2번지 301,302호","category":"용역 서비스 - 부동산 중개·임대"}]},{"lat":"36.997021793","long":"127.13891311","items":[{"name":"용이대성공인중개사사무소","tel":"031-664-9119","addr":"경기도 평택시 용이동 449-19번지 101호","category":"용역 서비스 - 부동산 중개·임대"}]},{"lat":"36.99982392","long":"127.14672594","items":[{"name":"용이초등학교","tel":"031-692-4803","addr":"경기도 평택시 용이동 482번지 용이초등학교","category":"학원 - 초중고교육기관"},{"name":"용이초등학교_수업료","tel":"031-692-4803","addr":"경기도 평택시 용이동 482번지 용이초등학교","category":"학원 - 초중고교육기관"},{"name":"용이초등학교병설유치원[아이행복]","tel":"031-692-4805","addr":"경기도 평택시 용이동 482번지 용이초등학교","category":"학원 - 유치원"}]},{"lat":"36.994748995","long":"127.12422682","items":[{"name":"용죽초등학교","tel":"031-639-9607","addr":"경기도 평택시 용이동 278-25번지","category":"학원 - 초중고교육기관"}]},{"lat":"36.996742269","long":"127.13908112","items":[{"name":"웅이네반찬가게","tel":"031-655-2828","addr":"경기도 평택시 용이동 450-3번지","category":"음식점 - 반찬"}]},{"lat":"36.994438453","long":"127.12824792","items":[{"name":"워니아트","tel":"","addr":"경기도 평택시 용이동 670-10번지 2층","category":"보건위생 - 미용원"}]},{"lat":"37.000471033","long":"127.14808652","items":[{"name":"위더케이크","tel":"031-111-1111","addr":"경기도 평택시 용이동 481-3번지 상가동 101호","category":"일반휴게음식 - 서양음식"},{"name":"정담이유식","tel":"","addr":"경기도 평택시 용이동 481-3번지 101호","category":"음료식품 - 기타음료식품"}]},{"lat":"36.992658205","long":"127.1245268","items":[{"name":"위드음악학원","tel":"031-654-7557","addr":"경기도 평택시 용이동 693-2번지 3층","category":"학원 - 예·체능계학원"},{"name":"포세이돈","tel":"","addr":"경기도 평택시 용이동 693-2번지","category":"일반휴게음식 - 서양음식"},{"name":"하이스터디학원","tel":"031-657-7075","addr":"경기도 평택시 용이동 693-2번지 4층 전부","category":"학원 - 보습학원"},{"name":"헤어바이우영","tel":"","addr":"경기도 평택시 용이동 693-2번지 5층","category":"서비스업 - 이미용"},{"name":"헤어바이우영","tel":"031-657-7484","addr":"경기도 평택시 용이동 693-2번지 5층","category":"보건위생 - 미용원"}]},{"lat":"36.996912674","long":"127.13172325","items":[{"name":"육달미소를굽는사람들","tel":"031-656-4749","addr":"경기도 평택시 용이동 604-3번지 1층","category":"일반휴게음식 - 일반한식"},{"name":"육달미소를굽는사람들","tel":"031-652-8284","addr":"경기도 평택시 용이동 604-3번지 1층","category":"음식점 - 한식"}]},{"lat":"37.000380279","long":"127.14861436","items":[{"name":"윤셰프의해피박스 용이점","tel":"070-7633-7751","addr":"경기도 평택시 용이동 481-6번지 101호","category":"일반휴게음식 - 일반한식"}]},{"lat":"36.996494977","long":"127.13464333","items":[{"name":"융타이어","tel":"070-7687-5047","addr":"경기도 평택시 용이동 439-4번지 재화빌라 302호","category":"자동차정비 유지 - 자동차시트·타이어"}]},{"lat":"36.994133599","long":"127.12680954","items":[{"name":"이디야커피평택용죽점","tel":"","addr":"경기도 평택시 용이동 678-1번지 101호","category":"일반휴게음식 - 서양음식"},{"name":"필스킨케어","tel":"031-654-0140","addr":"경기도 평택시 용이동 678-1번지 2층","category":"보건위생 - 피부미용실"}]},{"lat":"36.995525401","long":"127.13944967","items":[{"name":"이루리컴퍼니","tel":"","addr":"경기도 평택시 용이동 463-2번지 제우스빌 304호","category":"보건위생 - 화장품"}]},{"lat":"36.999937289","long":"127.14980435","items":[{"name":"이마트24 평택용이원룸점","tel":"031-000-0000","addr":"경기도 평택시 용이동 487-13번지 101호","category":"유통업 영리 - 편 의 점"}]},{"lat":"36.993242146","long":"127.13461525","items":[{"name":"이비가짬뽕(평택대점)","tel":"031-658-2988","addr":"경기도 평택시 용이동 606-2번지","category":"음식점 - 중식"},{"name":"이비가짬뽕(평택대점)","tel":"031-618-7113","addr":"경기도 평택시 용이동 606-2번지","category":"일반휴게음식 - 중국식"}]},{"lat":"37.001101685","long":"127.1326066","items":[{"name":"이팝나무","tel":"031-653-1040","addr":"경기도 평택시 용이동 589-3번지","category":"소매업 - 여성의류"},{"name":"이팝나무","tel":"031-653-4664","addr":"경기도 평택시 용이동 589-3번지 1층","category":"의류 - 정장"},{"name":"파랑새인테리어","tel":"","addr":"경기도 평택시 용이동 589-3번지 101호","category":"건축자재 - 인테리어전문"}]},{"lat":"37.000525344","long":"127.1478844","items":[{"name":"이한냉열","tel":"031-653-1015","addr":"경기도 평택시 용이동 481-2번지 201호","category":"용역 서비스 - 기타용역서비스"}]},{"lat":"37.00074105","long":"127.14833419","items":[{"name":"인헤어","tel":"","addr":"경기도 평택시 용이동 477-13번지","category":"서비스업 - 이미용"},{"name":"인헤어","tel":"070-7783-9919","addr":"경기도 평택시 용이동 477-13번지 수완빌 102호","category":"보건위생 - 미용원"}]},{"lat":"36.995715656","long":"127.13855131","items":[{"name":"일품수산","tel":"","addr":"경기도 평택시 용이동 456-9번지 골든빌 304호","category":"음료식품 - 농·축·수산품"}]},{"lat":"37.0014424","long":"127.14205542","items":[{"name":"자동차마을","tel":"031-656-5249","addr":"경기도 평택시 용이동 31-12번지","category":"자동차정비 유지 - 자동차부품"},{"name":"주식회사 스마트바이오코리아","tel":"031-653-5630","addr":"경기도 평택시 용이동 31-12번지 5호","category":"용역 서비스 - 사무서비스"},{"name":"통합자동차정비공업사","tel":"031-651-2958","addr":"경기도 평택시 용이동 31-12번지","category":"자동차정비 유지 - 자동차정비"}]},{"lat":"36.995412983","long":"127.13528178","items":[{"name":"재홍분식플러스","tel":"031-656-8243","addr":"경기도 평택시 용이동 452-18번지","category":"음식점 - 한식"},{"name":"주식회사 재홍분식플러스","tel":"031-654-5482","addr":"경기도 평택시 용이동 452-18번지","category":"일반휴게음식 - 일반한식"}]},{"lat":"36.993547963","long":"127.12675242","items":[{"name":"정이가네한우곱창","tel":"","addr":"경기도 평택시 용이동 680-6번지 101호","category":"일반휴게음식 - 일반한식"}]},{"lat":"36.999493056","long":"127.13686165","items":[{"name":"제이독(J. DOG)","tel":"031-654-0690","addr":"경기도 평택시 용이동 126-2","category":"일반휴게음식 - 서양음식"}]},{"lat":"36.998914664","long":"127.13836601","items":[{"name":"제이에스아이엔씨 (JS)","tel":"031-618-8019","addr":"경기도 평택시 용이동 52-3번지 2층","category":"사무통신 - 통신기기"}]},{"lat":"36.994188563","long":"127.12594465","items":[{"name":"제이플라워","tel":"031-658-6895","addr":"경기도 평택시 용이동 684-4번지 101호","category":"소매업 - 꽃집"},{"name":"클래씨(classy)","tel":"","addr":"경기도 평택시 용이동 684-4번지 삼림빌딩 1층 103호","category":"의류 - 정장"}]},{"lat":"37.000136372","long":"127.13367223","items":[{"name":"제일식당","tel":"031-653-6606","addr":"경기도 평택시 용이동 596-2번지 1층","category":"일반휴게음식 - 일반한식"}]},{"lat":"36.992602216","long":"127.12639143","items":[{"name":"족발꾼 평택용죽점","tel":"","addr":"경기도 평택시 용이동 682-8번지","category":"일반휴게음식 - 일반한식"}]},{"lat":"36.997463316","long":"127.1389139","items":[{"name":"쥬얼바이로망","tel":"","addr":"경기도 평택시 용이동 446-8번지 미다스빌 206호","category":"신변잡화 - 액세서리"}]},{"lat":"36.996966734","long":"127.13977802","items":[{"name":"지오이아 용이점","tel":"031-654-4373","addr":"경기도 평택시 용이동 450-7번지 101호","category":"일반휴게음식 - 서양음식"},{"name":"지오이아 용이점","tel":"031-656-6217","addr":"경기도 평택시 용이동 450-7번지 101호","category":"음식점 - 카페"}]},{"lat":"36.992135355","long":"127.12475063","items":[{"name":"진1926 평택용이점","tel":"","addr":"경기도 평택시 용이동 693-6번지 1층","category":"일반휴게음식 - 일반한식"}]},{"lat":"36.99826871","long":"127.14368981","items":[{"name":"착한이불","tel":"","addr":"경기도 평택시 용이동 470-1번지 평택용이2차푸르지오 202동 1701호","category":"직물 - 침구·수예점"}]},{"lat":"37.001578021","long":"127.14166246","items":[{"name":"참숯갈비야","tel":"031-657-7629","addr":"경기도 평택시 용이동 31-30번지 1동 1층","category":"일반휴게음식 - 일반한식"}]},{"lat":"36.998941041","long":"127.138939","items":[{"name":"천태암","tel":"070-5525-5921","addr":"경기도 평택시 용이동 8-8번지","category":"보건위생 - 기타대인서비스"}]},{"lat":"36.993772502","long":"127.12744926","items":[{"name":"친구뷔폐","tel":"","addr":"경기도 평택시 용이동 675-7번지 1층","category":"일반휴게음식 - 일반한식"}]},{"lat":"36.994052772","long":"127.12655104","items":[{"name":"카라헤어","tel":"","addr":"경기도 평택시 용이동 680-2번지 2층","category":"보건위생 - 미용원"}]},{"lat":"37.000379768","long":"127.14903003","items":[{"name":"카페리가","tel":"031-663-0447","addr":"경기도 평택시 용이동 481-8번지 102호","category":"일반휴게음식 - 서양음식"}]},{"lat":"36.999110009","long":"127.14842096","items":[{"name":"카페마데테스","tel":"031-658-0190","addr":"경기도 평택시 용이동 491-3번지","category":"일반휴게음식 - 서양음식"}]},{"lat":"36.993494171","long":"127.13486282","items":[{"name":"커퍼스초이스","tel":"031-658-1292","addr":"경기도 평택시 용이동 606-3번지 1층","category":"일반휴게음식 - 서양음식"},{"name":"힐링엔젤스 (평택점)","tel":"031-692-8254","addr":"경기도 평택시 용이동 606-3번지 4층","category":"건강식품 - 기타건강식품"}]},{"lat":"36.999990935","long":"127.15014148","items":[{"name":"코스모모터스","tel":"070-7740-4795","addr":"경기도 평택시 용이동 487-11번지 101호","category":"자동차정비 유지 - 자동차부품"}]},{"lat":"37.00038769","long":"127.13456017","items":[{"name":"코스모한식분식","tel":"031-691-8033","addr":"경기도 평택시 용이동 172-1번지","category":"음식점 - 분식"}]},{"lat":"37.001215814","long":"127.15060446","items":[{"name":"큰길식당","tel":"031-656-6668","addr":"경기도 평택시 용이동 421-9번지","category":"일반휴게음식 - 일반한식"}]},{"lat":"36.998526961","long":"127.13857877","items":[{"name":"큰손김치삼겹살","tel":"031-656-8235","addr":"경기도 평택시 용이동 445-3번지","category":"음식점 - 한식"},{"name":"큰손김치삼겹살","tel":"031-691-8203","addr":"경기도 평택시 용이동 445-3번지","category":"일반휴게음식 - 일반한식"}]},{"lat":"36.993548139","long":"127.12658392","items":[{"name":"킹콩부대찌개 평택용죽점","tel":"","addr":"경기도 평택시 용이동 680-7번지","category":"음식점 - 한식"},{"name":"킹콩부대찌개평택용죽점","tel":"031-655-7094","addr":"경기도 평택시 용이동 680-7번지","category":"일반휴게음식 - 일반한식"}]},{"lat":"36.993610884","long":"127.13524496","items":[{"name":"통큰숯불장어","tel":"031-658-7553","addr":"경기도 평택시 용이동 248-11","category":"일반휴게음식 - 일반한식"}]},{"lat":"37.000605569","long":"127.13308884","items":[{"name":"튼튼영어평택비젼","tel":"031-692-7799","addr":"경기도 평택시 용이동 592-2번지 101호","category":"서적문구 - 일반서적"}]},{"lat":"36.993188368","long":"127.1343568","items":[{"name":"티스테이션 용이점","tel":"031-618-0078","addr":"경기도 평택시 용이동 606-1번지 1층","category":"자동차정비 유지 - 자동차시트·타이어"}]},{"lat":"36.995187691","long":"127.13530386","items":[{"name":"파파1215(PAPA1215)","tel":"031-751-1215","addr":"경기도 평택시 용이동 452-19번지 102호","category":"일반휴게음식 - 서양음식"}]},{"lat":"36.999274778","long":"127.15357777","items":[{"name":"평택한국자동차정비공업사","tel":"031-656-6777","addr":"경기도 평택시 용이동 419-12번지 한국자동차정비공업사","category":"자동차정비 유지 - 자동차정비"},{"name":"한국자동차정비","tel":"031-658-3678","addr":"경기도 평택시 용이동 419-12번지","category":"서비스업 - 자동차정비"}]},{"lat":"36.998487032","long":"127.1419377","items":[{"name":"푸르미에코비어린이집[아이행복]","tel":"031-616-1880","addr":"경기도 평택시 용이동 471-1번지 평택용이푸르지오 101동 104호","category":"학원 - 유아원"}]},{"lat":"36.997379895","long":"127.13294853","items":[{"name":"프렌즈당구장","tel":"031-657-2799","addr":"경기도 평택시 용이동 598-6번지 3층","category":"레저업소 - 당 구 장"}]},{"lat":"36.998576082","long":"127.13497271","items":[{"name":"하나로마트(평택과수농업협동조합 )","tel":"031-8053-6992","addr":"경기도 평택시 용이동 165-4번지","category":"소매업 - 슈퍼"}]},{"lat":"36.998660741","long":"127.13978106","items":[{"name":"하나로마트(평택농협 용이지점)","tel":"031-657-9708","addr":"경기도 평택시 용이동 448-4번지","category":"소매업 - 슈퍼"}]},{"lat":"36.995995137","long":"127.13028378","items":[{"name":"하니상사","tel":"031-915-1096","addr":"경기도 평택시 용이동 603-25번지 402호","category":"직물 - 침구·수예점"}]},{"lat":"36.996356297","long":"127.13777732","items":[{"name":"하얀콩수제순두부","tel":"031-692-2253","addr":"경기도 평택시 용이동 451-7번지 102호","category":"일반휴게음식 - 일반한식"},{"name":"하얀콩수제순두부","tel":"070-4109-4944","addr":"경기도 평택시 용이동 451-7번지","category":"음식점 - 한식"}]},{"lat":"36.99474598","long":"127.1354716","items":[{"name":"한솥도시락(평택대점)","tel":"031-654-1478","addr":"경기도 평택시 용이동 452-22번지 101호","category":"일반휴게음식 - 일반한식"}]},{"lat":"36.995971533","long":"127.13538385","items":[{"name":"해성","tel":"031-658-3500","addr":"경기도 평택시 용이동 439-10번지 1층","category":"음료식품 - 기타음료식품"}]},{"lat":"36.999381246","long":"127.1320532","items":[{"name":"현촌유치원[아이행복]","tel":"031-657-6879","addr":"경기도 평택시 용이동 593-2번지","category":"학원 - 유치원"}]},{"lat":"37.000189455","long":"127.13455983","items":[{"name":"현촌참치","tel":"070-8111-2220","addr":"경기도 평택시 용이동 172-3번지","category":"음식점 - 한식"},{"name":"화룡각","tel":"031-691-5565","addr":"경기도 평택시 용이동 172-3번지 104호","category":"일반휴게음식 - 중국식"}]},{"lat":"37.000300726","long":"127.13169526","items":[{"name":"현촌초등학교","tel":"031-617-8690","addr":"경기도 평택시 용이동 593-1번지 현촌초등학교","category":"학원 - 초중고교육기관"},{"name":"현촌초등학교병설유치원[아이행복]","tel":"031-617-8670","addr":"경기도 평택시 용이동 593-1번지 현촌초등학교","category":"학원 - 유치원"}]},{"lat":"36.999189307","long":"127.1345244","items":[{"name":"효성모터스","tel":"031-652-5580","addr":"경기도 평택시 용이동 168-6번지","category":"자동차정비 유지 - 자동차정비"},{"name":"효성모터스","tel":"031-655-1127","addr":"경기도 평택시 용이동 168-6번지","category":"서비스업 - 자동차정비"}]}]