[{"lat":"37.4821106","long":"127.3825402","items":[{"name":"(주)신암","tel":"031-768-8831","addr":"경기도 광주시 퇴촌면 영동리 287-1","category":"유통업 영리 - 기타유통업"}]},{"lat":"37.47663738","long":"127.3782165","items":[{"name":"(주)파머스대디(Farmer's daddy)","tel":"031-768-7924","addr":"경기도 광주시 퇴촌면 영동리 246-2번지 1호동 1층","category":"일반휴게음식 - 서양음식"}]},{"lat":"37.47138749","long":"127.3801346","items":[{"name":"고양이가 행복한 동네","tel":"","addr":"경기도 광주시 퇴촌면 영동리 182-6번지","category":"문화.취미 - 애완동물"}]},{"lat":"37.47668702","long":"127.3852147","items":[{"name":"고향마당","tel":"031-768-1851","addr":"경기도 광주시 퇴촌면 영동리 26-4번지 외3필지","category":"레저업소 - 당 구 장"},{"name":"춘천숯불닭갈비 2호점","tel":"","addr":"경기도 광주시 퇴촌면 영동리 26-4번지 1층","category":"일반휴게음식 - 일반한식"},{"name":"퇴촌메밀소바&막국수","tel":"031-797-9382","addr":"경기도 광주시 퇴촌면 영동리 26-4번지","category":"일반휴게음식 - 일반한식"}]},{"lat":"37.47877241","long":"127.3667973","items":[{"name":"과일나라","tel":"001-0000-0000","addr":"경기도 광주시 퇴촌면 영동리 461-2 8/","category":"음료식품 - 농·축·수산품"},{"name":"베이더크래프트스튜디오","tel":"031-761-0560","addr":"경기도 광주시 퇴촌면 영동리 461-2번지 101호","category":"가구 - 일반가구"},{"name":"태봉만물","tel":"031-763-5568","addr":"경기도 광주시 퇴촌면 영동리 461-2번지 1층","category":"가구 - 기타가구"}]},{"lat":"37.47650022","long":"127.3788489","items":[{"name":"나이테","tel":"031-763-7897","addr":"경기도 광주시 퇴촌면 영동리 245-2번지","category":"가구 - 일반가구"}]},{"lat":"37.47852503","long":"127.3681301","items":[{"name":"더(THE)담다","tel":"","addr":"경기도 광주시 퇴촌면 영동리 460번지 G동 1층","category":"음료식품 - 기타음료식품"},{"name":"디자인밈 (design meem)","tel":"031-768-6182","addr":"경기도 광주시 퇴촌면 영동리 460번지 지하1층,지하우측","category":"주방용구 - 주방용식기"},{"name":"무릇그릇","tel":"031-768-6182","addr":"경기도 광주시 퇴촌면 영동리 460번지 1층 우측","category":"문화.취미 - 민예·공예품"},{"name":"텍스타일카페","tel":"031-768-6182","addr":"경기도 광주시 퇴촌면 영동리 460번지 1층 도도갤러리","category":"일반휴게음식 - 서양음식"}]},{"lat":"37.48157897","long":"127.3740467","items":[{"name":"도그뉴스(Dognews)","tel":"","addr":"경기도 광주시 퇴촌면 영동리 320-11번지","category":"문화.취미 - 애완동물"}]},{"lat":"37.47558222","long":"127.3813541","items":[{"name":"돈가득","tel":"031-762-9898","addr":"경기도 광주시 퇴촌면 영동리 218-15번지 1층","category":"일반휴게음식 - 일반한식"},{"name":"돈가득정육점","tel":"031-762-9898","addr":"경기도 광주시 퇴촌면 영동리 218-15번지","category":"음료식품 - 정육점"}]},{"lat":"37.47688987","long":"127.375301","items":[{"name":"동서양 앤틱","tel":"","addr":"경기도 광주시 퇴촌면 영동리 346-6번지 1,2층","category":"가구 - 일반가구"}]},{"lat":"37.47713868","long":"127.3848552","items":[{"name":"드림팜","tel":"","addr":"경기도 광주시 퇴촌면 영동리 31번지","category":"음료식품 - 미곡상"},{"name":"천하제일","tel":"031-768-9230","addr":"경기도 광주시 퇴촌면 영동리 31번지","category":"일반휴게음식 - 일반한식"}]},{"lat":"37.47777188","long":"127.3727391","items":[{"name":"라타케리아","tel":"070-5475-4785","addr":"경기도 광주시 퇴촌면 영동리 332번지 1층","category":"일반휴게음식 - 서양음식"}]},{"lat":"37.47738241","long":"127.3874906","items":[{"name":"리즈파크","tel":"031-767-8484","addr":"경기도 광주시 퇴촌면 영동리 26-1번지","category":"숙박업 - 여관/기타숙박업"}]},{"lat":"37.47557598","long":"127.3832985","items":[{"name":"마노아","tel":"031-473-9107","addr":"경기도 광주시 퇴촌면 영동리 39-6번지","category":"음료식품 - 기타음료식품"},{"name":"엠케이상사","tel":"","addr":"경기도 광주시 퇴촌면 영동리 39-6번지 203호","category":"자동차정비 유지 - 자동차부품"}]},{"lat":"37.47241215","long":"127.3809085","items":[{"name":"만능맨인테리어","tel":"031-767-1503","addr":"경기도 광주시 퇴촌면 영동리 204번지 1층","category":"용역 서비스 - 기타용역서비스"}]},{"lat":"37.47916206","long":"127.3601628","items":[{"name":"메종디","tel":"031-767-0607","addr":"경기도 광주시 퇴촌면 영동리 593-2번지","category":"일반휴게음식 - 일반한식"}]},{"lat":"37.47688867","long":"127.3869341","items":[{"name":"명품갤러리","tel":"031-767-8989","addr":"경기도 광주시 퇴촌면 영동리 26-8번지","category":"기타 - 기타 전문점"}]},{"lat":"37.47605253","long":"127.3779649","items":[{"name":"버섯집","tel":"031-769-2202","addr":"경기도 광주시 퇴촌면 영동리 242-1번지","category":"일반휴게음식 - 일반한식"}]},{"lat":"37.47713174","long":"127.3757431","items":[{"name":"부띠끄서","tel":"070-7530-9681","addr":"경기도 광주시 퇴촌면 영동리 346-1번지 105호","category":"의류 - 정장"},{"name":"욜로 (YOLO)","tel":"070-8260-3322","addr":"경기도 광주시 퇴촌면 영동리 346-1번지 106호","category":"음료식품 - 제과점"}]},{"lat":"37.4766627","long":"127.3759104","items":[{"name":"빈티지 하이디","tel":"031-761-9627","addr":"경기도 광주시 퇴촌면 영동리 346-10번지","category":"의류 - 정장"}]},{"lat":"37.47791359","long":"127.3735199","items":[{"name":"빛고을","tel":"031-767-7332","addr":"경기도 광주시 퇴촌면 영동리 331-1번지","category":"일반휴게음식 - 일반한식"}]},{"lat":"37.47633112","long":"127.3838224","items":[{"name":"세나갤러리","tel":"","addr":"경기도 광주시 퇴촌면 영동리 36번지","category":"가구 - 기타가구"},{"name":"신세계","tel":"","addr":"경기도 광주시 퇴촌면 영동리 36번지 1층","category":"가구 - 기타가구"}]},{"lat":"37.47727458","long":"127.3761621","items":[{"name":"엘비스","tel":"031-763-6696","addr":"경기도 광주시 퇴촌면 영동리 340-2번지","category":"일반휴게음식 - 일반한식"}]},{"lat":"37.47533478","long":"127.3826529","items":[{"name":"영동리새마을회","tel":"031-768-9553","addr":"경기도 광주시 퇴촌면 영동리 222","category":"신변잡화 - 기타잡화"}]},{"lat":"37.47696546","long":"127.3770424","items":[{"name":"영동빈티지","tel":"","addr":"경기도 광주시 퇴촌면 영동리 344-2번지 5호","category":"문화.취미 - 민예·공예품"},{"name":"칠할래광낼래","tel":"070-4124-2170","addr":"경기도 광주시 퇴촌면 영동리 344-2번지","category":"자동차정비 유지 - 카인테리어"}]},{"lat":"37.47575107","long":"127.3792635","items":[{"name":"영동주유소","tel":"031-798-5153","addr":"경기도 광주시 퇴촌면 영동리 238-7번지","category":"연료판매점 - SK주유소"}]},{"lat":"37.4747429","long":"127.3817907","items":[{"name":"오카페갤러리","tel":"031-768-1225","addr":"경기도 광주시 퇴촌면 영동리 217-3번지","category":"일반휴게음식 - 일반한식"}]},{"lat":"37.47693843","long":"127.3684051","items":[{"name":"우진유통","tel":"031-766-9403","addr":"경기도 광주시 퇴촌면 영동리 449-3번지 스파그린랜드","category":"음료식품 - 기타음료식품"}]},{"lat":"37.47657574","long":"127.377764","items":[{"name":"이시돌","tel":"031-761-0112","addr":"경기도 광주시 퇴촌면 영동리 243번지","category":"일반휴게음식 - 일반한식"}]},{"lat":"37.47569222","long":"127.3807667","items":[{"name":"제이서플러스(J.SURPLUS)","tel":"031-764-3565","addr":"경기도 광주시 퇴촌면 영동리 236-1번지","category":"신변잡화 - 기타잡화"}]},{"lat":"37.47677518","long":"127.3773806","items":[{"name":"천수","tel":"031-797-7130","addr":"경기도 광주시 퇴촌면 영동리 344번지","category":"일반휴게음식 - 일반한식"},{"name":"천향","tel":"031-766-3345","addr":"경기도 광주시 퇴촌면 영동리 344번지","category":"일반휴게음식 - 일반한식"}]},{"lat":"37.48088671","long":"127.3706855","items":[{"name":"털보셀프바베큐","tel":"031-765-8395","addr":"경기도 광주시 퇴촌면 영동리 479번지 1층","category":"일반휴게음식 - 일반한식"}]},{"lat":"37.47577277","long":"127.3837404","items":[{"name":"퇴촌순두부","tel":"031-767-6041","addr":"경기도 광주시 퇴촌면 영동리 39-3번지","category":"일반휴게음식 - 일반한식"}]},{"lat":"37.47824349","long":"127.3688523","items":[{"name":"퇴촌허브랜드","tel":"031-768-6487","addr":"경기도 광주시 퇴촌면 영동리 459번지 1층","category":"신변잡화 - 기타잡화"}]}]