[{"lat":"37.3150614637","long":"126.9584008343","items":[{"name":"(신)정가네","tel":"031-461-9192","addr":"경기도 의왕시 월암동 425-12번지","category":"일반휴게음식 - 일반한식"}]},{"lat":"37.3064309515","long":"126.9619477602","items":[{"name":"(의왕)안양윤업사","tel":"031-462-8231","addr":"경기도 의왕시 월암동 236번지","category":"레져용품 - 스포츠·레져용품"}]},{"lat":"37.3029236233","long":"126.9556445749","items":[{"name":"(주)코콤텍 중부지점","tel":"031-462-8861","addr":"경기도 의왕시 월암동 611-4번지 부성하우스 2층 201호","category":"건축자재 - 조명기구"},{"name":"레이크앤빈","tel":"031-462-2270","addr":"경기도 의왕시 월암동 611-4번지 1층","category":"일반휴게음식 - 서양음식"}]},{"lat":"37.3116792659","long":"126.9502018803","items":[{"name":"GONTRAN CHERRIER/주식회사 라임푸드","tel":"031-462-3656","addr":"경기도 의왕시 월암동 720-3번지 3층","category":"일반휴게음식 - 서양음식"}]},{"lat":"37.3103188232","long":"126.9504284362","items":[{"name":"GS25의왕레일파크점","tel":"","addr":"경기도 의왕시 월암동 531-2번지 1층 4호","category":"유통업 영리 - 편 의 점"},{"name":"도이첸 의왕왕송호수점","tel":"031-461-1255","addr":"경기도 의왕시 월암동 531-2번지 1층","category":"일반휴게음식 - 스넥"},{"name":"엘 (ELL)","tel":"","addr":"경기도 의왕시 월암동 531-2번지","category":"의류 - 정장"},{"name":"커피온더레일","tel":"000-000-0000","addr":"경기도 의왕시 월암동 531-2번지 2층","category":"일반휴게음식 - 서양음식"}]},{"lat":"37.3025365268","long":"126.9565133129","items":[{"name":"GS25의왕호수점","tel":"","addr":"경기도 의왕시 월암동 607-42번지 1층","category":"유통업 영리 - 편 의 점"}]},{"lat":"37.3071209903","long":"126.9522579937","items":[{"name":"개똥이네","tel":"031-461-8888","addr":"경기도 의왕시 월암동 543-3번지 자연학습공원","category":"일반휴게음식 - 스넥"},{"name":"미달독'S","tel":"070-4694-1102","addr":"경기도 의왕시 월암동 543-3번지","category":"일반휴게음식 - 일반한식"},{"name":"영철이네","tel":"070-7848-9305","addr":"경기도 의왕시 월암동 543-3번지","category":"일반휴게음식 - 스넥"},{"name":"파파이스 의왕레일파크점","tel":"031-462-3001","addr":"경기도 의왕시 월암동 543-3번지 자연학습공원","category":"일반휴게음식 - 서양음식"}]},{"lat":"37.3035898555","long":"126.9543470359","items":[{"name":"거봉어린이집[아이행복]","tel":"031-461-8034","addr":"경기도 의왕시 월암동 651번지","category":"학원 - 유아원"}]},{"lat":"37.3136738907","long":"126.9584016520","items":[{"name":"곤드레향","tel":"031-461-0003","addr":"경기도 의왕시 월암동 403-14번지 구인빌딩 2층","category":"일반휴게음식 - 일반한식"}]},{"lat":"37.3135387163","long":"126.9583453276","items":[{"name":"그리다","tel":"031-462-7976","addr":"경기도 의왕시 월암동 403-3번지 1층 101호","category":"일반휴게음식 - 서양음식"}]},{"lat":"37.3120056984","long":"126.9550635829","items":[{"name":"나이스피싱","tel":"031-462-2693","addr":"경기도 의왕시 월암동 353-12","category":"레져용품 - 스포츠·레져용품"}]},{"lat":"37.3126449486","long":"126.9539012683","items":[{"name":"네모시스주식회사","tel":"031-461-7782","addr":"경기도 의왕시 월암동 360-1번지 한국철도기술연구원 신기술실용화센터 315호 기술사업화연구실","category":"용역 서비스 - 소프트웨어"},{"name":"사단법인 한국물류과학기술학회","tel":"031-460-5133","addr":"경기도 의왕시 월암동 360-1번지 한국철도기술연구원 2동202-1호","category":"용역 서비스 - 사무서비스"},{"name":"석천정보통신  주식회사","tel":"031-347-4172","addr":"경기도 의왕시 월암동 360-1번지 한국철도기술연구원 2동 306호","category":"사무통신 - 통신기기"},{"name":"주식회사 디에이피","tel":"031-462-1709","addr":"경기도 의왕시 월암동 360-1번지 한국철도기술연구원 신기술실용화센터 105호","category":"기타 - 기계공구"},{"name":"주식회사 제이에스시솔루션","tel":"031-462-9853","addr":"경기도 의왕시 월암동 360-1번지 한국철도기술연구원 206호","category":"용역 서비스 - 소프트웨어"}]},{"lat":"37.3092306191","long":"126.9552345431","items":[{"name":"농업회사법인쿠키라인주식회사","tel":"031-424-0424","addr":"경기도 의왕시 월암동 324-1번지 의왕선물빌딩 1,2층","category":"음료식품 - 제과점"},{"name":"쿠키라인 좋은나들가게","tel":"031-424-0424","addr":"경기도 의왕시 월암동 324-1번지 1층","category":"유통업 영리 - 편 의 점"}]},{"lat":"37.3048424890","long":"126.9548650883","items":[{"name":"다솜팜","tel":"","addr":"경기도 의왕시 월암동 628번지","category":"음료식품 - 농·축·수산품"}]},{"lat":"37.3122017579","long":"126.9499759035","items":[{"name":"다육정원 네덜란드","tel":"031-462-6653","addr":"경기도 의왕시 월암동 517-1번지","category":"문화.취미 - 화원"}]},{"lat":"37.3075121708","long":"126.9619246142","items":[{"name":"달바위골청국장","tel":"031-461-1833","addr":"경기도 의왕시 월암동 164-8번지","category":"일반휴게음식 - 일반한식"}]},{"lat":"37.3069805753","long":"126.9619474622","items":[{"name":"달카페","tel":"070-7559-9802","addr":"경기도 의왕시 월암동 177-3번지","category":"일반휴게음식 - 서양음식"}]},{"lat":"37.3050950255","long":"126.9554853029","items":[{"name":"대성이엔씨","tel":"031-427-6061","addr":"경기도 의왕시 월암동 626-8번지","category":"건축자재 - 인테리어전문"}]},{"lat":"37.3053439650","long":"126.9477586304","items":[{"name":"도시바캐리어","tel":"053-656-0018","addr":"경기도 의왕시 월암동 687","category":"수리서비스 - 가정용품수리"}]},{"lat":"37.3106523459","long":"126.9507553354","items":[{"name":"마법의 힐링","tel":"031-396-2335","addr":"경기도 의왕시 월암동 530-3번지","category":"일반휴게음식 - 일반한식"},{"name":"함지박손칼국수","tel":"031-462-1278","addr":"경기도 의왕시 월암동 530-3번지 2층","category":"일반휴게음식 - 일반한식"}]},{"lat":"37.3052300884","long":"126.9552596268","items":[{"name":"문&폴딩","tel":"031-462-8083","addr":"경기도 의왕시 월암동 626-6번지 제1동","category":"건축자재 - 기타건축자재"},{"name":"봉평메밀촌","tel":"031-461-2339","addr":"경기도 의왕시 월암동 626-6번지 2동 1층","category":"일반휴게음식 - 일반한식"},{"name":"파인스튜디오","tel":"070-1234-1234","addr":"경기도 의왕시 월암동 626-6번지 2동 2층","category":"광학제품 - 사진관"}]},{"lat":"37.3106791669","long":"126.9502815408","items":[{"name":"버드카페","tel":"","addr":"경기도 의왕시 월암동 525-10번지 조은생태과학관 1층","category":"일반휴게음식 - 서양음식"},{"name":"의왕시청/의왕조류생태과학관","tel":"031-8086-7492","addr":"경기도 의왕시 월암동 525-10","category":"문화.취미 - 티켓"}]},{"lat":"37.3110617985","long":"126.9607833640","items":[{"name":"범양냉열","tel":"031-429-5466","addr":"경기도 의왕시 월암동 71번지","category":"전기제품 - 냉열기기"}]},{"lat":"37.3067892128","long":"126.9561497478","items":[{"name":"부경무역주식회사","tel":"031-462-3440","addr":"경기도 의왕시 월암동 299-7번지 1층","category":"음료식품 - 기타음료식품"}]},{"lat":"37.3075636368","long":"126.9550099968","items":[{"name":"시골 백반","tel":"031-462-1486","addr":"경기도 의왕시 월암동 306번지","category":"일반휴게음식 - 일반한식"}]},{"lat":"37.3085921017","long":"126.9583369657","items":[{"name":"아랫녘 풍천장어 직판장","tel":"031-399-0029","addr":"경기도 의왕시 월암동 217-3번지","category":"일반휴게음식 - 일반한식"},{"name":"아랫녘풍전장어직판장","tel":"031-399-0029","addr":"경기도 의왕시 월암동 217-3번지","category":"음료식품 - 농·축·수산품"}]},{"lat":"37.3075664875","long":"126.9626690593","items":[{"name":"아침에 달인","tel":"","addr":"경기도 의왕시 월암동 168-13번지 2층","category":"음료식품 - 농·축·수산품"},{"name":"주식회사 웰","tel":"031-461-4515","addr":"경기도 의왕시 월암동 168-13번지 3층","category":"신변잡화 - 기타잡화"},{"name":"주식회사 웰 풍천물산지점","tel":"031-0000-0000","addr":"경기도 의왕시 월암동 168-13번지 1층 C호","category":"음료식품 - 농·축·수산품"}]},{"lat":"37.3031758647","long":"126.9555316245","items":[{"name":"에어리즘","tel":"","addr":"경기도 의왕시 월암동 612번지 2층 202호","category":"용역 서비스 - 기타용역서비스"}]},{"lat":"37.3075935373","long":"126.9627254445","items":[{"name":"엘림산업","tel":"031-462-6521","addr":"경기도 의왕시 월암동 169-1번지","category":"건축자재 - 기타건축자재"}]},{"lat":"37.3106181248","long":"126.9550644618","items":[{"name":"와이지바이오코리아(YG bio Korea)","tel":"031-461-4527","addr":"경기도 의왕시 월암동 331-2번지","category":"농업 - 기타농업관련"}]},{"lat":"37.3130610684","long":"126.9580635909","items":[{"name":"월암멧돌두부","tel":"031-462-4001","addr":"경기도 의왕시 월암동 400-1번지","category":"일반휴게음식 - 일반한식"}]},{"lat":"37.3036533753","long":"126.9554523698","items":[{"name":"월암점 기아오토큐","tel":"031-346-8585","addr":"경기도 의왕시 월암동 612-6번지","category":"자동차정비 유지 - 자동차정비"}]},{"lat":"37.3054312048","long":"126.9630875417","items":[{"name":"유경상사","tel":"031-461-6662","addr":"경기도 의왕시 월암동 240-1번지","category":"기타 - 기계공구"}]},{"lat":"37.3023749081","long":"126.9579797007","items":[{"name":"의왕도시공사/견인사업소","tel":"031-8086-7441","addr":"경기도 의왕시 월암동 602-2번지 교통약자센터 월암버스차고지2층","category":"용역 서비스 - 조세서비스"}]},{"lat":"37.3143129634","long":"126.9566978556","items":[{"name":"의왕부곡중학교","tel":"031-461-3604","addr":"경기도 의왕시 월암동 431번지 의왕부곡중학교","category":"학원 - 초중고교육기관"}]},{"lat":"37.3142576129","long":"126.9535053898","items":[{"name":"이노비젼","tel":"","addr":"경기도 의왕시 월암동 374-1","category":"회원제형태 - 기타4"}]},{"lat":"37.3090062893","long":"126.9575922325","items":[{"name":"이부자생고기","tel":"031-462-9291","addr":"경기도 의왕시 월암동 215번지","category":"일반휴게음식 - 일반한식"},{"name":"이부자생고기","tel":"031-462-9291","addr":"경기도 의왕시 월암동 215번지","category":"음료식품 - 정육점"}]},{"lat":"37.3029507975","long":"126.9560054933","items":[{"name":"일산칼국수","tel":"031-462-1570","addr":"경기도 의왕시 월암동 609-2번지 1층","category":"일반휴게음식 - 일반한식"},{"name":"홍익돈까스 의왕왕송호수점","tel":"031-000-0000","addr":"경기도 의왕시 월암동 609-2번지 2층","category":"일반휴게음식 - 서양음식"}]},{"lat":"37.3149262893","long":"126.9583445089","items":[{"name":"정록","tel":"","addr":"경기도 의왕시 월암동 425-11번지 1층","category":"일반휴게음식 - 일반한식"}]},{"lat":"37.3088173700","long":"126.9583706731","items":[{"name":"정수종합건재사","tel":"031-462-9667","addr":"경기도 의왕시 월암동 213번지","category":"건축자재 - 기타건축자재"}]},{"lat":"37.3114809556","long":"126.9500102501","items":[{"name":"정통밥집","tel":"031-461-0601","addr":"경기도 의왕시 월암동 530-1번지","category":"일반휴게음식 - 일반한식"}]},{"lat":"37.3146718746","long":"126.9530087557","items":[{"name":"제우","tel":"070-8855-1699","addr":"경기도 의왕시 월암동 374-18번지","category":"음료식품 - 기타음료식품"},{"name":"철도박물관 편의점","tel":"070-8806-4220","addr":"경기도 의왕시 월암동 374-18번지","category":"음료식품 - 기타음료식품"}]},{"lat":"37.3110610292","long":"126.9586739221","items":[{"name":"주식회사 아이스팩토리 제1공장","tel":"031-345-7520","addr":"경기도 의왕시 월암동 88번지","category":"음료식품 - 기타음료식품"}]},{"lat":"37.3074553767","long":"126.9546716684","items":[{"name":"주식회사 유신","tel":"031-424-3690","addr":"경기도 의왕시 월암동 311-1번지","category":"음료식품 - 농·축·수산품"},{"name":"튜나글로벌","tel":"031-462-4056","addr":"경기도 의왕시 월암동 311-1번지","category":"음료식품 - 농·축·수산품"}]},{"lat":"37.3062859282","long":"126.9595339773","items":[{"name":"주식회사 태을","tel":"031-111-1111","addr":"경기도 의왕시 월암동 226-4번지 2층","category":"전기제품 - 가전제품"}]},{"lat":"37.3069511548","long":"126.9555405369","items":[{"name":"차오름팩토리","tel":"031-1577-5374","addr":"경기도 의왕시 월암동 302번지 2층","category":"유통업 영리 - 기타유통업"}]},{"lat":"37.3030135356","long":"126.9551707907","items":[{"name":"청계종합목재","tel":"031-364-5219","addr":"경기도 의왕시 월암동 611번지","category":"건축자재 - 기타건축자재"},{"name":"형제상사","tel":"031-462-8411","addr":"경기도 의왕시 월암동 611번지","category":"기타 - 기타 전문점"}]},{"lat":"37.3134215069","long":"126.9581423425","items":[{"name":"카페 날마다봄날","tel":"070-4251-7685","addr":"경기도 의왕시 월암동 403-2번지 2층","category":"일반휴게음식 - 서양음식"}]},{"lat":"37.3038407008","long":"126.9509517869","items":[{"name":"카페막시 왕송호수점","tel":"070-7733-1241","addr":"경기도 의왕시 월암동 676-3번지 2층","category":"일반휴게음식 - 서양음식"}]},{"lat":"37.3151787611","long":"126.9588407264","items":[{"name":"커피게이트","tel":"031-461-2861","addr":"경기도 의왕시 월암동 425-18번지 ,1,2층","category":"일반휴게음식 - 서양음식"}]},{"lat":"37.3062576940","long":"126.9563643915","items":[{"name":"코리아리스","tel":"031-461-9295","addr":"경기도 의왕시 월암동 291-2번지","category":"신변잡화 - 기타잡화"}]},{"lat":"37.3063669789","long":"126.9594211334","items":[{"name":"태금무역","tel":"070-7565-1007","addr":"경기도 의왕시 월암동 227-5번지","category":"레져용품 - 스포츠·레져용품"}]},{"lat":"37.3064030942","long":"126.9596241480","items":[{"name":"태을","tel":"070-8672-5640","addr":"경기도 의왕시 월암동 226-1번지 2층","category":"자동차정비 유지 - 자동차부품"}]},{"lat":"37.3043744273","long":"126.9560384478","items":[{"name":"풍경","tel":"031-461-3500","addr":"경기도 의왕시 월암동 594-8번지","category":"일반휴게음식 - 서양음식"}]},{"lat":"37.3038407996","long":"126.9511773741","items":[{"name":"황장군 의왕점","tel":"031-461-8700","addr":"경기도 의왕시 월암동 676-1번지 1층","category":"일반휴게음식 - 일반한식"}]},{"lat":"37.3072329006","long":"126.9620601241","items":[{"name":"회화나무전통밥집","tel":"031-461-9866","addr":"경기도 의왕시 월암동 176번지","category":"일반휴게음식 - 일반한식"}]}]