[{"lat":"37.445117395","long":"127.53611828","imageIndex":7,"items":[{"name":"(주)정금에프앤씨","tel":"031-736-0055","addr":"경기도 양평군 개군면 하자포리 30-4번지","indutype":"음료식품 - 기타음료식품","category":"food"}]},{"lat":"37.425893457","long":"127.53739411","imageIndex":7,"items":[{"name":"개군방아간","tel":"031-772-8419","addr":"경기도 양평군 개군면 하자포리 220-10번지","indutype":"음료식품 - 제과점","category":"food"}]},{"lat":"37.424340883","long":"127.53802702","imageIndex":7,"items":[{"name":"신광방아간","tel":"031-772-0821","addr":"경기도 양평군 개군면 하자포리 224-14","indutype":"음료식품 - 기타음료식품","category":"food"}]},{"lat":"37.428144439","long":"127.53772646","imageIndex":7,"items":[{"name":"양평부산물","tel":"031-773-1489","addr":"경기도 양평군 개군면 하자포리 213-9번지 1층","indutype":"음료식품 - 정육점","category":"food"}]},{"lat":"37.425367012","long":"127.53824898","imageIndex":4,"items":[{"name":"BHC치킨","tel":"031-774-2191","addr":"경기도 양평군 개군면 하자포리 223-3번지 외1필지","indutype":"일반휴게음식 - 스넥","category":"restaurant"}]},{"lat":"37.433222792","long":"127.53645195","imageIndex":4,"items":[{"name":"Mr.J카페갤러리,꾜두마리치킨","tel":"070-8154-7471","addr":"경기도 양평군 개군면 하자포리 191-3번지","indutype":"일반휴게음식 - 서양음식","category":"restaurant"}]},{"lat":"37.433394128","long":"127.53641927","imageIndex":4,"items":[{"name":"가미식당","tel":"031-774-0527","addr":"경기도 양평군 개군면 하자포리 191-2번지","indutype":"일반휴게음식 - 일반한식","category":"restaurant"},{"name":"가미식당","tel":"031-774-0527","addr":"경기도 양평군 개군면 하자포리 191-2번지","indutype":"일반휴게음식 - 일반한식","category":"restaurant"},{"name":"남원추어탕","tel":"031-773-6639","addr":"경기도 양평군 개군면 하자포리 191-2번지","indutype":"일반휴게음식 - 일반한식","category":"restaurant"}]},{"lat":"37.427891555","long":"127.53786023","imageIndex":4,"items":[{"name":"개군갈비","tel":"031-773-5776","addr":"경기도 양평군 개군면 하자포리 213-4번지 1층","indutype":"일반휴게음식 - 일반한식","category":"restaurant"}]},{"lat":"37.424619671","long":"127.53814198","imageIndex":4,"items":[{"name":"개군불타는 연탄구이","tel":"031-775-8989","addr":"경기도 양평군 개군면 하자포리 224-8번지","indutype":"일반휴게음식 - 일반한식","category":"restaurant"}]},{"lat":"37.425448354","long":"127.53819307","imageIndex":4,"items":[{"name":"개군조가네소머리국밥","tel":"031-775-4158","addr":"경기도 양평군 개군면 하자포리 223-6번지 1층","indutype":"일반휴게음식 - 일반한식","category":"restaurant"}]},{"lat":"37.427396638","long":"127.53772114","imageIndex":4,"items":[{"name":"길운메밀옹심이칼국수","tel":"031-775-9577","addr":"경기도 양평군 개군면 하자포리 215-5번지","indutype":"일반휴게음식 - 일반한식","category":"restaurant"}]},{"lat":"37.425701085","long":"127.53809319","imageIndex":4,"items":[{"name":"김밥마을","tel":"031-774-8211","addr":"경기도 양평군 개군면 하자포리 223-2번지","indutype":"일반휴게음식 - 일반한식","category":"restaurant"}]},{"lat":"37.42650412","long":"127.53783906","imageIndex":4,"items":[{"name":"꼴랑커피","tel":"070-7570-2603","addr":"경기도 양평군 개군면 하자포리 218-3번지 1층","indutype":"일반휴게음식 - 서양음식","category":"restaurant"}]},{"lat":"37.425558107","long":"127.53783233","imageIndex":4,"items":[{"name":"다래주막촌","tel":"031-772-0509","addr":"경기도 양평군 개군면 하자포리 223-7번지 1층","indutype":"일반휴게음식 - 일반한식","category":"restaurant"}]},{"lat":"37.430002112","long":"127.53736683","imageIndex":4,"items":[{"name":"마당김치찌개","tel":"031-775-3345","addr":"경기도 양평군 개군면 하자포리 204-1번지 1층","indutype":"일반휴게음식 - 일반한식","category":"restaurant"}]},{"lat":"37.426170405","long":"127.53791577","imageIndex":4,"items":[{"name":"밥다됐어요","tel":"031-772-8050","addr":"경기도 양평군 개군면 하자포리 220-5","indutype":"일반휴게음식 - 일반한식","category":"restaurant"}]},{"lat":"37.426370713","long":"127.53745399","imageIndex":4,"items":[{"name":"밥집곳간","tel":"031-773-7001","addr":"경기도 양평군 개군면 하자포리 219-6번지","indutype":"일반휴게음식 - 일반한식","category":"restaurant"}]},{"lat":"37.426813616","long":"127.53714081","imageIndex":4,"items":[{"name":"섬마을","tel":"031-775-0662","addr":"경기도 양평군 개군면 하자포리 265-8번지","indutype":"일반휴게음식 - 일반한식","category":"restaurant"}]},{"lat":"37.424899328","long":"127.53806489","imageIndex":4,"items":[{"name":"솔이네","tel":"031-773-2325","addr":"경기도 양평군 개군면 하자포리 224-1번지","indutype":"일반휴게음식 - 일반한식","category":"restaurant"}]},{"lat":"37.42973121","long":"127.53750048","imageIndex":4,"items":[{"name":"양평서울해장국 큰아들집 양평본점","tel":"031-774-7404","addr":"경기도 양평군 개군면 하자포리 304-5번지","indutype":"일반휴게음식 - 일반한식","category":"restaurant"}]},{"lat":"37.425784728","long":"127.53752891","imageIndex":4,"items":[{"name":"오늘도이곳은맑음","tel":"070-8160-5530","addr":"경기도 양평군 개군면 하자포리 220-15번지","indutype":"일반휴게음식 - 일반한식","category":"restaurant"}]},{"lat":"37.440007049","long":"127.53650011","imageIndex":4,"items":[{"name":"오픈A키친","tel":"070-8848-8846","addr":"경기도 양평군 개군면 하자포리 99-10번지","indutype":"일반휴게음식 - 일반한식","category":"restaurant"}]},{"lat":"37.446174047","long":"127.53756096","imageIndex":4,"items":[{"name":"요리하는아빠","tel":"031-772-8133","addr":"경기도 양평군 개군면 하자포리 13-3번지","indutype":"일반휴게음식 - 일반한식","category":"restaurant"},{"name":"커피타는엄마","tel":"","addr":"경기도 양평군 개군면 하자포리 13-3번지 1층","indutype":"일반휴게음식 - 서양음식","category":"restaurant"}]},{"lat":"37.43900754","long":"127.53636872","imageIndex":4,"items":[{"name":"용골가든","tel":"031-772-8062","addr":"경기도 양평군 개군면 하자포리 105-10","indutype":"일반휴게음식 - 일반한식","category":"restaurant"}]},{"lat":"37.426614127","long":"127.53742183","imageIndex":4,"items":[{"name":"육해공옛날마차","tel":"031-771-4129","addr":"경기도 양평군 개군면 하자포리 219-1번지","indutype":"일반휴게음식 - 일반한식","category":"restaurant"}]},{"lat":"37.424647723","long":"127.53791623","imageIndex":4,"items":[{"name":"장모님보신탕","tel":"031-775-0729","addr":"경기도 양평군 개군면 하자포리 224-12번지","indutype":"일반휴게음식 - 일반한식","category":"restaurant"}]},{"lat":"37.426478982","long":"127.53742087","imageIndex":4,"items":[{"name":"정통호프","tel":"031-774-8227","addr":"경기도 양평군 개군면 하자포리 219-3번지 1층","indutype":"일반휴게음식 - 일반한식","category":"restaurant"}]},{"lat":"37.42636872","long":"127.53789459","imageIndex":4,"items":[{"name":"주거니받거니호프","tel":"031-000-0000","addr":"경기도 양평군 개군면 하자포리 218-4번지 1층","indutype":"일반휴게음식 - 주점","category":"restaurant"},{"name":"주거니받거니호프","tel":"031-774-0823","addr":"경기도 양평군 개군면 하자포리 218-4번지","indutype":"일반휴게음식 - 주점","category":"restaurant"}]},{"lat":"37.428144439","long":"127.53772646","imageIndex":4,"items":[{"name":"처갓집","tel":"031-774-9272","addr":"경기도 양평군 개군면 하자포리 213-9번지","indutype":"일반휴게음식 - 칵테일바","category":"restaurant"}]},{"lat":"37.426253332","long":"127.53750965","imageIndex":4,"items":[{"name":"페리카나체인점","tel":"031-772-4612","addr":"경기도 양평군 개군면 하자포리 219-5","indutype":"일반휴게음식 - 주점","category":"restaurant"}]},{"lat":"37.425145758","long":"127.5373662","imageIndex":4,"items":[{"name":"포리","tel":"031-774-0404","addr":"경기도 양평군 개군면 하자포리 261번지 1층","indutype":"일반휴게음식 - 서양음식","category":"restaurant"}]},{"lat":"37.424891852","long":"127.53772591","imageIndex":4,"items":[{"name":"힘찬풍천장어야","tel":"031-774-6161","addr":"경기도 양평군 개군면 하자포리 223-17번지","indutype":"일반휴게음식 - 일반한식","category":"restaurant"},{"name":"힘찬풍천장어야","tel":"031-774-4525","addr":"경기도 양평군 개군면 하자포리 223-17번지","indutype":"일반휴게음식 - 일반한식","category":"restaurant"}]},{"lat":"37.424951903","long":"127.53839289","imageIndex":17,"items":[{"name":"개군 세탁소","tel":"031-881-3372","addr":"경기도 양평군 개군면 하자포리 224-16번지 영재빌딩 1층","indutype":"수리서비스 - 세탁소","category":"other"}]},{"lat":"37.427146615","long":"127.53722226","imageIndex":17,"items":[{"name":"개군농업협동조합","tel":"031-772-0331","addr":"경기도 양평군 개군면 하자포리 215-11번지","indutype":"유통업 비영리 - 농,축협 직영매장","category":"other"},{"name":"개군농업협동조합","tel":"031-772-0334","addr":"경기도 양평군 개군면 하자포리 215-11번지","indutype":"유통업 비영리 - 농,축협 직영매장","category":"other"},{"name":"개군농협","tel":"031-772-0331","addr":"경기도 양평군 개군면 하자포리 215-11번지","indutype":"유통업 비영리 - 농,축협 직영매장","category":"other"}]},{"lat":"37.426564458","long":"127.53644988","imageIndex":17,"items":[{"name":"개군농협경제사업부","tel":"031-772-0332","addr":"경기도 양평군 개군면 하자포리 262-1","indutype":"농업 - 기타농업관련","category":"other"},{"name":"개군농협하나로마트","tel":"031-772-0333","addr":"경기도 양평군 개군면 하자포리 262-1","indutype":"유통업 비영리 - 농,축협 직영매장","category":"other"}]},{"lat":"37.427946329","long":"127.53770245","imageIndex":17,"items":[{"name":"경기상사","tel":"031-774-8678","addr":"경기도 양평군 개군면 하자포리 213-12번지","indutype":"농업 - 기타농업관련","category":"other"}]},{"lat":"37.424755072","long":"127.53808646","imageIndex":17,"items":[{"name":"고려전파사","tel":"031-772-8267","addr":"경기도 양평군 개군면 하자포리 224-7","indutype":"회원제형태 - 기타4","category":"other"}]},{"lat":"37.428144439","long":"127.53772646","imageIndex":17,"items":[{"name":"대명타일공사","tel":"031-774-0364","addr":"경기도 양평군 개군면 하자포리 213-9번지","indutype":"건축자재 - 건축용 요업제품","category":"other"}]},{"lat":"37.446281063","long":"127.53581013","imageIndex":17,"items":[{"name":"도담","tel":"","addr":"경기도 양평군 개군면 하자포리 38번지","indutype":"직물 - 침구·수예점","category":"other"}]},{"lat":"37.426311029","long":"127.5386963","imageIndex":17,"items":[{"name":"씨유양평개군점","tel":"031-775-4681","addr":"경기도 양평군 개군면 하자포리 220-1번지","indutype":"유통업 영리 - 편 의 점","category":"other"}]},{"lat":"37.42697931","long":"127.53636245","imageIndex":17,"items":[{"name":"웅기건재사","tel":"031-772-8079","addr":"경기도 양평군 개군면 하자포리 267-1번지","indutype":"건축자재 - 기타건축자재","category":"other"}]},{"lat":"37.434395625","long":"127.53611001","imageIndex":17,"items":[{"name":"케이씨씨 양평건재","tel":"031-771-7554","addr":"경기도 양평군 개군면 하자포리 188-1번지","indutype":"건축자재 - 기타건축자재","category":"other"}]},{"lat":"37.428168835","long":"127.53431468","imageIndex":17,"items":[{"name":"쿨공조시스템","tel":"","addr":"경기도 양평군 개군면 하자포리 285-1번지 중앙빌라 가동 401호","indutype":"용역 서비스 - 기타용역서비스","category":"other"}]},{"lat":"37.428394561","long":"127.53820275","imageIndex":17,"items":[{"name":"한국상사","tel":"031-773-0304","addr":"경기도 양평군 개군면 하자포리 211-6번지","indutype":"건축자재 - 기타건축자재","category":"other"}]},{"lat":"37.426675559","long":"127.53778379","imageIndex":7,"items":[{"name":"개군슈퍼","tel":"031-773-6871","addr":"경기도 양평군 개군면 하자포리 218-1번지 1층","indutype":"유통업 영리 - 슈퍼마켓","category":"mart"}]},{"lat":"37.446174047","long":"127.53756096","imageIndex":7,"items":[{"name":"케이제이(Kj) 편의점","tel":"070-6375-3835","addr":"경기도 양평군 개군면 하자포리 13-3번지","indutype":"유통업 영리 - 슈퍼마켓","category":"mart"}]},{"lat":"37.426036487","long":"127.53764368","imageIndex":8,"items":[{"name":"개군약국","tel":"031-773-5960","addr":"경기도 양평군 개군면 하자포리 220-8","indutype":"약국 - 약국","category":"medical"}]},{"lat":"37.426675559","long":"127.53778379","imageIndex":8,"items":[{"name":"개군한의원","tel":"031-773-0829","addr":"경기도 양평군 개군면 하자포리 218-1번지","indutype":"의원 - 한의원","category":"medical"}]},{"lat":"37.428342906","long":"127.53767138","imageIndex":0,"items":[{"name":"개군종합카센타","tel":"031-772-0774","addr":"경기도 양평군 개군면 하자포리 212-4번지","indutype":"자동차정비 유지 - 자동차정비","category":"car"}]},{"lat":"37.433033844","long":"127.53639411","imageIndex":0,"items":[{"name":"유로모터스","tel":"070-8985-0227","addr":"경기도 양평군 개군면 하자포리 191번지","indutype":"자동차정비 유지 - 자동차부품","category":"car"}]},{"lat":"37.44722182","long":"127.53698077","imageIndex":0,"items":[{"name":"이진영 AUTOJOY","tel":"031-772-2657","addr":"경기도 양평군 개군면 하자포리 11-3번지","indutype":"자동차정비 유지 - 자동차부품","category":"car"}]},{"lat":"37.427617976","long":"127.53459323","imageIndex":16,"items":[{"name":"개군초등학교","tel":"031-772-8008","addr":"경기도 양평군 개군면 하자포리 276-1번지 개군초등학교","indutype":"학원 - 초중고교육기관","category":"study"},{"name":"개군초병설유치원[아이행복]","tel":"031-774-1324","addr":"경기도 양평군 개군면 하자포리 276-1번지 개군초등학교","indutype":"학원 - 유치원","category":"study"}]},{"lat":"37.425701085","long":"127.53809319","imageIndex":13,"items":[{"name":"백합미용실","tel":"","addr":"경기도 양평군 개군면 하자포리 223-2번지","indutype":"보건위생 - 미용원","category":"beauty"}]},{"lat":"37.426253332","long":"127.53750965","imageIndex":13,"items":[{"name":"세화미용실","tel":"031-772-8092","addr":"경기도 양평군 개군면 하자포리 219-5번지 1층","indutype":"보건위생 - 미용원","category":"beauty"}]},{"lat":"37.426675559","long":"127.53778379","imageIndex":13,"items":[{"name":"토토헤어","tel":"031-775-7411","addr":"경기도 양평군 개군면 하자포리 218-1번지","indutype":"보건위생 - 미용원","category":"beauty"}]},{"lat":"37.440974749","long":"127.5356934","imageIndex":9,"items":[{"name":"우성주유소","tel":"031-771-7618","addr":"경기도 양평군 개군면 하자포리 89-3번지 우성주유소","indutype":"연료판매점 - 현대정유(오일뱅크)","category":"oil"}]}]