[{"lat":"37.389307145","long":"126.9425367","imageIndex":7,"items":[{"name":"(주)앤플레이버코리아","tel":"","addr":"경기도 안양시 동안구 호계동 898번지","indutype":"음료식품 - 기타음료식품","category":"food"}]},{"lat":"37.372700467","long":"126.96097473","imageIndex":7,"items":[{"name":"(주)천년의향기","tel":"","addr":"경기도 안양시 동안구 호계동 998-47번지","indutype":"음료식품 - 기타음료식품","category":"food"}]},{"lat":"37.379112189","long":"126.95208544","imageIndex":7,"items":[{"name":"98퍼센트 파트2","tel":"070-8780-2150","addr":"경기도 안양시 동안구 호계동 317-1번지","indutype":"음료식품 - 제과점","category":"food"},{"name":"미미농산","tel":"031-457-9042","addr":"경기도 안양시 동안구 호계동 317-1번지","indutype":"음료식품 - 농·축·수산품","category":"food"}]},{"lat":"37.378530027","long":"126.96100536","imageIndex":7,"items":[{"name":"OK유통","tel":"070-7500-1023","addr":"경기도 안양시 동안구 호계동 1088-4번지","indutype":"음료식품 - 기타음료식품","category":"food"}]},{"lat":"37.37569188","long":"126.96111984","imageIndex":7,"items":[{"name":"THE착한디저트","tel":"031-477-4058","addr":"경기도 안양시 동안구 호계동 1102-1번지","indutype":"음료식품 - 제과점","category":"food"},{"name":"날엔","tel":"031-477-2356","addr":"경기도 안양시 동안구 호계동 1102-1번지","indutype":"음료식품 - 제과점","category":"food"}]},{"lat":"37.364311926","long":"126.96067461","imageIndex":7,"items":[{"name":"가가호호","tel":"031-458-0233","addr":"경기도 안양시 동안구 호계동 811번지","indutype":"음료식품 - 제과점","category":"food"},{"name":"마미짱 쌀눈쌀 현미누룽지","tel":"031-387-2557","addr":"경기도 안양시 동안구 호계동 811번지","indutype":"음료식품 - 기타음료식품","category":"food"},{"name":"율이네 아이스크림","tel":"","addr":"경기도 안양시 동안구 호계동 811번지 호계2차현대홈타운","indutype":"음료식품 - 기타음료식품","category":"food"},{"name":"청담녀","tel":"","addr":"경기도 안양시 동안구 호계동 811번지","indutype":"음료식품 - 기타음료식품","category":"food"},{"name":"케이정육점","tel":"070-8202-0503","addr":"경기도 안양시 동안구 호계동 811번지","indutype":"음료식품 - 정육점","category":"food"},{"name":"한우마을","tel":"031-457-1851","addr":"경기도 안양시 동안구 호계동 811번지","indutype":"음료식품 - 정육점","category":"food"},{"name":"행복한 식탁","tel":"031-427-1114","addr":"경기도 안양시 동안구 호계동 811번지","indutype":"음료식품 - 기타음료식품","category":"food"},{"name":"홍삼전문점","tel":"031-429-0307","addr":"경기도 안양시 동안구 호계동","indutype":"건강식품 - 홍삼제품","category":"food"}]},{"lat":"37.368590029","long":"126.95612273","imageIndex":7,"items":[{"name":"가락농산","tel":"070-7782-5907","addr":"경기도 안양시 동안구 호계동 970-9번지","indutype":"음료식품 - 농·축·수산품","category":"food"}]},{"lat":"37.374834755","long":"126.95794783","imageIndex":7,"items":[{"name":"가락청과","tel":"031-429-9373","addr":"경기도 안양시 동안구 호계동 987-28번지","indutype":"음료식품 - 농·축·수산품","category":"food"}]},{"lat":"37.390303952","long":"126.95498001","imageIndex":7,"items":[{"name":"가월가물치","tel":"031-88-4495","addr":"경기도 안양시 동안구 호계동 1048-2번지","indutype":"건강식품 - 기타건강식품","category":"food"},{"name":"셰프마켓도반","tel":"031-381-9880","addr":"경기도 안양시 동안구 호계동 1048-2번지","indutype":"음료식품 - 기타음료식품","category":"food"},{"name":"윤채원건강식품","tel":"031-386-8273","addr":"경기도 안양시 동안구 호계동 1048-2번지","indutype":"건강식품 - 기타건강식품","category":"food"},{"name":"조이청","tel":"","addr":"경기도 안양시 동안구 호계동 1048-2번지","indutype":"음료식품 - 기타음료식품","category":"food"}]},{"lat":"37.385418676","long":"126.9507262","imageIndex":7,"items":[{"name":"강남방아간","tel":"031-452-4587","addr":"경기도 안양시 동안구 호계동 918-19번지","indutype":"음료식품 - 기타음료식품","category":"food"},{"name":"미가축산","tel":"031-429-1585","addr":"경기도 안양시 동안구 호계동 918-19번지","indutype":"음료식품 - 정육점","category":"food"}]},{"lat":"37.372086991","long":"126.95880748","imageIndex":7,"items":[{"name":"건강백화점","tel":"031-458-2546","addr":"경기도 안양시 동안구 호계동 997-28번지","indutype":"건강식품 - 기타건강식품","category":"food"}]},{"lat":"37.381580877","long":"126.95189183","imageIndex":7,"items":[{"name":"건강한이야기","tel":"031-451-9413","addr":"경기도 안양시 동안구 호계동 930-40번지","indutype":"음료식품 - 기타음료식품","category":"food"}]},{"lat":"37.374502456","long":"126.96087212","imageIndex":7,"items":[{"name":"건국우유호계보급소","tel":"031-426-9423","addr":"경기도 안양시 동안구 호계동 992-6번지","indutype":"음료식품 - 기타음료식품","category":"food"}]},{"lat":"37.380086733","long":"126.95558492","imageIndex":7,"items":[{"name":"건영옴니스토마정육점","tel":"031-387-8637","addr":"경기도 안양시 동안구 호계동 1055-1번지","indutype":"음료식품 - 정육점","category":"food"},{"name":"낙원떡방아간","tel":"031-382-9456","addr":"경기도 안양시 동안구 호계동 1055-1번지","indutype":"음료식품 - 제과점","category":"food"}]},{"lat":"37.381808619","long":"126.958034","imageIndex":7,"items":[{"name":"경기중부급식","tel":"031-451-1128","addr":"경기도 안양시 동안구 호계동 1060-4번지","indutype":"음료식품 - 기타음료식품","category":"food"}]},{"lat":"37.390475043","long":"126.95473147","imageIndex":7,"items":[{"name":"고려당","tel":"031-385-8451","addr":"경기도 안양시 동안구 호계동 1048번지","indutype":"음료식품 - 제과점","category":"food"}]},{"lat":"37.373114001","long":"126.95842302","imageIndex":7,"items":[{"name":"과일나라","tel":"","addr":"경기도 안양시 동안구 호계동 995-9번지 미성연립","indutype":"음료식품 - 농·축·수산품","category":"food"},{"name":"남해씨푸드","tel":"031-456-0805","addr":"경기도 안양시 동안구 호계동 995-9번지 미성연립","indutype":"음료식품 - 기타음료식품","category":"food"}]},{"lat":"37.37283473","long":"126.95853609","imageIndex":7,"items":[{"name":"광명건어물","tel":"031-459-1775","addr":"경기도 안양시 동안구 호계동 995-8번지","indutype":"음료식품 - 농·축·수산품","category":"food"},{"name":"덕현정육점","tel":"031-458-0211","addr":"경기도 안양시 동안구 호계동 995-8번지","indutype":"음료식품 - 정육점","category":"food"},{"name":"맛고을떡집","tel":"031-451-8585","addr":"경기도 안양시 동안구 호계동 995-8번지","indutype":"음료식품 - 제과점","category":"food"}]},{"lat":"37.373249259","long":"126.95870519","imageIndex":7,"items":[{"name":"구워구워","tel":"031-469-7333","addr":"경기도 안양시 동안구 호계동 995-21번지","indutype":"음료식품 - 농·축·수산품","category":"food"}]},{"lat":"37.362168144","long":"126.96248191","imageIndex":7,"items":[{"name":"국선생(안양호계점)","tel":"031-427-6655","addr":"경기도 안양시 동안구 호계동 873번지","indutype":"음료식품 - 기타음료식품","category":"food"},{"name":"포도원푸줏간","tel":"031-427-6659","addr":"경기도 안양시 동안구 호계동 873번지","indutype":"음료식품 - 정육점","category":"food"}]},{"lat":"37.382609241","long":"126.95478167","imageIndex":7,"items":[{"name":"굿로즈버드","tel":"031-408-1931","addr":"경기도 안양시 동안구 호계동 1055번지 무궁화효성,한양아파트","indutype":"음료식품 - 기타음료식품","category":"food"}]},{"lat":"37.373393387","long":"126.95861478","imageIndex":7,"items":[{"name":"그린야채","tel":"031-457-9525","addr":"경기도 안양시 동안구 호계동 995-20번지","indutype":"음료식품 - 농·축·수산품","category":"food"},{"name":"명품수산","tel":"031-427-2646","addr":"경기도 안양시 동안구 호계동 995-20번지","indutype":"음료식품 - 농·축·수산품","category":"food"},{"name":"빵이가득한집","tel":"031-427-3374","addr":"경기도 안양시 동안구 호계동 995-20번지","indutype":"음료식품 - 제과점","category":"food"},{"name":"일등청과","tel":"031-457-3251","addr":"경기도 안양시 동안구 호계동 995-20번지","indutype":"음료식품 - 농·축·수산품","category":"food"},{"name":"중앙닭집","tel":"031-452-0650","addr":"경기도 안양시 동안구 호계동 995-20번지","indutype":"음료식품 - 정육점","category":"food"},{"name":"호계식품","tel":"031-429-0290","addr":"경기도 안양시 동안구 호계동 995-20번지","indutype":"음료식품 - 기타음료식품","category":"food"}]},{"lat":"37.374753548","long":"126.95764305","imageIndex":7,"items":[{"name":"금산건강원","tel":"031-457-3307","addr":"경기도 안양시 동안구 호계동 986번지","indutype":"건강식품 - 기타건강식품","category":"food"}]},{"lat":"37.372474573","long":"126.95920239","imageIndex":7,"items":[{"name":"금산고려인삼도매","tel":"031-458-4303","addr":"경기도 안양시 동안구 호계동 997번지 청도아파트","indutype":"건강식품 - 인삼제품","category":"food"},{"name":"우리상회","tel":"031-447-5721","addr":"경기도 안양시 동안구 호계동 997번지 청도아파트","indutype":"음료식품 - 농·축·수산품","category":"food"},{"name":"청풍농수산몰","tel":"070-8722-5757","addr":"경기도 안양시 동안구 호계동 997번지 청도아파트","indutype":"음료식품 - 농·축·수산품","category":"food"},{"name":"호계참기름","tel":"031-453-4681","addr":"경기도 안양시 동안구 호계동","indutype":"음료식품 - 기타음료식품","category":"food"}]},{"lat":"37.370609122","long":"126.95825516","imageIndex":7,"items":[{"name":"김태숙소아과의원내","tel":"031-458-9982","addr":"경기도 안양시 동안구 호계동 1003-9번지","indutype":"건강식품 - 기타건강식품","category":"food"}]},{"lat":"37.361861799","long":"126.96248207","imageIndex":7,"items":[{"name":"낙원떡집","tel":"031-452-2527","addr":"경기도 안양시 동안구 호계동 859-12번지","indutype":"음료식품 - 제과점","category":"food"},{"name":"조이점핑다이어트","tel":"031-458-7779","addr":"경기도 안양시 동안구 호계동 859-12번지","indutype":"건강식품 - 기타건강식품","category":"food"}]},{"lat":"37.374366229","long":"126.95794811","imageIndex":7,"items":[{"name":"네모브레드(Nemo Bread)","tel":"070-7767-1983","addr":"경기도 안양시 동안구 호계동 986-4번지","indutype":"음료식품 - 제과점","category":"food"}]},{"lat":"37.382471509","long":"126.94880875","imageIndex":7,"items":[{"name":"녹색마을","tel":"031-455-2333","addr":"경기도 안양시 동안구 호계동 923-31번지","indutype":"음료식품 - 농·축·수산품","category":"food"}]},{"lat":"37.382167644","long":"126.95453355","imageIndex":7,"items":[{"name":"농협안심축산물전문점","tel":"031-382-6539","addr":"경기도 안양시 동안구 호계동","indutype":"음료식품 - 정육점","category":"food"},{"name":"쌀눈쌀현미누룽지범계점","tel":"031-387-3473","addr":"경기도 안양시 동안구 호계동 1055번지","indutype":"음료식품 - 기타음료식품","category":"food"}]},{"lat":"37.373087076","long":"126.95870528","imageIndex":7,"items":[{"name":"농협안심축산물전문점(호계시장점)","tel":"031-451-3839","addr":"경기도 안양시 동안구 호계동 995-24번지","indutype":"음료식품 - 정육점","category":"food"},{"name":"엄마손반찬","tel":"","addr":"경기도 안양시 동안구 호계동 995-24번지","indutype":"음료식품 - 기타음료식품","category":"food"},{"name":"유진축산물도매센타","tel":"031-451-9777","addr":"경기도 안양시 동안구 호계동 995-24번지","indutype":"음료식품 - 정육점","category":"food"},{"name":"청해건어물","tel":"031-429-9154","addr":"경기도 안양시 동안구 호계동 995-24번지","indutype":"음료식품 - 농·축·수산품","category":"food"}]},{"lat":"37.374999469","long":"126.96519592","imageIndex":7,"items":[{"name":"누룽지총각","tel":"","addr":"경기도 안양시 동안구 호계동 1121번지","indutype":"음료식품 - 기타음료식품","category":"food"},{"name":"대일한우생고기","tel":"031-456-6834","addr":"경기도 안양시 동안구 호계동 1121번지","indutype":"음료식품 - 정육점","category":"food"},{"name":"두리반찬","tel":"031-456-1357","addr":"경기도 안양시 동안구 호계동 1121번지","indutype":"음료식품 - 기타음료식품","category":"food"},{"name":"부흥반찬","tel":"031-454-8294","addr":"경기도 안양시 동안구 호계동","indutype":"음료식품 - 기타음료식품","category":"food"},{"name":"은혜청과마트","tel":"031-456-0837","addr":"경기도 안양시 동안구 호계동 1121번지 샘마을대우,한양아파트","indutype":"음료식품 - 농·축·수산품","category":"food"},{"name":"한양민속떡방아간","tel":"031-454-7160","addr":"경기도 안양시 동안구 호계동","indutype":"음료식품 - 제과점","category":"food"},{"name":"홍삼전문점","tel":"031-421-2344","addr":"경기도 안양시 동안구 호계동","indutype":"건강식품 - 홍삼제품","category":"food"}]},{"lat":"37.386110927","long":"126.94737209","imageIndex":7,"items":[{"name":"달달우주","tel":"","addr":"경기도 안양시 동안구 호계동 914-37번지","indutype":"음료식품 - 제과점","category":"food"}]},{"lat":"37.364673466","long":"126.96398193","imageIndex":7,"items":[{"name":"달콤새콤","tel":"070-8864-1105","addr":"경기도 안양시 동안구 호계동 829-9번지","indutype":"음료식품 - 기타음료식품","category":"food"}]},{"lat":"37.391249819","long":"126.95450513","imageIndex":7,"items":[{"name":"도시속의약초건강원","tel":"031-386-8845","addr":"경기도 안양시 동안구 호계동 1044-5번지","indutype":"건강식품 - 기타건강식품","category":"food"}]},{"lat":"37.38597643","long":"126.94878365","imageIndex":7,"items":[{"name":"돌고래과자점","tel":"031-451-6911","addr":"경기도 안양시 동안구 호계동 914-40번지","indutype":"음료식품 - 제과점","category":"food"},{"name":"신현대정육점","tel":"031-453-7794","addr":"경기도 안양시 동안구 호계동","indutype":"음료식품 - 정육점","category":"food"}]},{"lat":"37.36375389","long":"126.96236817","imageIndex":7,"items":[{"name":"돌쇠축산","tel":"031-455-6680","addr":"경기도 안양시 동안구 호계동 813번지 호계e-편한세상아파트","indutype":"음료식품 - 정육점","category":"food"}]},{"lat":"37.390419852","long":"126.95203264","imageIndex":7,"items":[{"name":"드루와 점핑다이어트","tel":"","addr":"경기도 안양시 동안구 호계동 1045-2번지","indutype":"건강식품 - 기타건강식품","category":"food"},{"name":"먼치번치범계역점","tel":"031-383-9485","addr":"경기도 안양시 동안구 호계동 1045-2번지","indutype":"음료식품 - 기타음료식품","category":"food"},{"name":"코코호도과자","tel":"031-386-4662","addr":"경기도 안양시 동안구 호계동 1045-2번지","indutype":"음료식품 - 제과점","category":"food"}]},{"lat":"37.371525659","long":"126.95206798","imageIndex":7,"items":[{"name":"디리이스","tel":"070-4063-2227","addr":"경기도 안양시 동안구 호계동 555-9번지","indutype":"음료식품 - 기타음료식품","category":"food"},{"name":"모아푸드","tel":"031-477-9115","addr":"경기도 안양시 동안구 호계동 555-9번지","indutype":"음료식품 - 기타음료식품","category":"food"},{"name":"통영참멸치","tel":"031-398-1033","addr":"경기도 안양시 동안구 호계동 555-9번지","indutype":"음료식품 - 농·축·수산품","category":"food"}]},{"lat":"37.385580833","long":"126.95066963","imageIndex":7,"items":[{"name":"땅스부대찌개범계점","tel":"","addr":"경기도 안양시 동안구 호계동 918-18번지","indutype":"음료식품 - 기타음료식품","category":"food"},{"name":"장생건강원","tel":"031-454-3471","addr":"경기도 안양시 동안구 호계동 918-18번지","indutype":"건강식품 - 기타건강식품","category":"food"},{"name":"한우직판장","tel":"070-8991-2044","addr":"경기도 안양시 동안구 호계동 918-18번지","indutype":"음료식품 - 정육점","category":"food"}]},{"lat":"37.368778318","long":"126.95384222","imageIndex":7,"items":[{"name":"떡담","tel":"031-452-6647","addr":"경기도 안양시 동안구 호계동 966-23번지","indutype":"음료식품 - 제과점","category":"food"}]},{"lat":"37.374672513","long":"126.95778987","imageIndex":7,"items":[{"name":"라곰디저트","tel":"031-452-2804","addr":"경기도 안양시 동안구 호계동 986-37번지","indutype":"음료식품 - 기타음료식품","category":"food"},{"name":"삼대유통","tel":"031-454-2811","addr":"경기도 안양시 동안구 호계동 986-37번지","indutype":"음료식품 - 기타음료식품","category":"food"}]},{"lat":"37.382250815","long":"126.95991934","imageIndex":7,"items":[{"name":"레드버켓평촌점","tel":"070-4652-4049","addr":"경기도 안양시 동안구 호계동 1065-7번지","indutype":"음료식품 - 기타음료식품","category":"food"}]},{"lat":"37.383746199","long":"126.95911681","imageIndex":7,"items":[{"name":"롤랑","tel":"031-424-5078","addr":"경기도 안양시 동안구 호계동 1058-6번지","indutype":"음료식품 - 기타음료식품","category":"food"},{"name":"정관장신촌점/상품권사용","tel":"031-386-3304","addr":"경기도 안양시 동안구 호계동 1058-6번지","indutype":"건강식품 - 홍삼제품","category":"food"}]},{"lat":"37.391384522","long":"126.95342097","imageIndex":7,"items":[{"name":"롤링핀범계역점","tel":"031-898-5566","addr":"경기도 안양시 동안구 호계동 1042번지","indutype":"음료식품 - 제과점","category":"food"},{"name":"미앤미케익전문점","tel":"031-381-9916","addr":"경기도 안양시 동안구 호계동 1042번지","indutype":"음료식품 - 제과점","category":"food"},{"name":"태림","tel":"031-689-4510","addr":"경기도 안양시 동안구 호계동 1042번지","indutype":"건강식품 - 기타건강식품","category":"food"}]},{"lat":"37.371474415","long":"126.95911265","imageIndex":7,"items":[{"name":"루시라이스케이크","tel":"031-342-4988","addr":"경기도 안양시 동안구 호계동 997-34번지","indutype":"음료식품 - 제과점","category":"food"}]},{"lat":"37.381778145","long":"126.94972382","imageIndex":7,"items":[{"name":"막퍼주는 농산물","tel":"032-812-5280","addr":"경기도 안양시 동안구 호계동 928-21번지","indutype":"음료식품 - 농·축·수산품","category":"food"}]},{"lat":"37.381859808","long":"126.95101094","imageIndex":7,"items":[{"name":"만복수산","tel":"064-700-0000","addr":"경기도 안양시 동안구 호계동 927번지 흥화아파트","indutype":"음료식품 - 농·축·수산품","category":"food"}]},{"lat":"37.385958358","long":"126.94867075","imageIndex":7,"items":[{"name":"맑은샘유통","tel":"031-429-2897","addr":"경기도 안양시 동안구 호계동 914-40번지 호계1차현대홈타운","indutype":"음료식품 - 기타음료식품","category":"food"}]},{"lat":"37.371970381","long":"126.96023003","imageIndex":7,"items":[{"name":"매일식품","tel":"031-454-1300","addr":"경기도 안양시 동안구 호계동 998-15번지","indutype":"음료식품 - 농·축·수산품","category":"food"}]},{"lat":"37.387110916","long":"126.94708906","imageIndex":7,"items":[{"name":"매일우유평촌과천대리점","tel":"031-427-5252","addr":"경기도 안양시 동안구 호계동 914-16번지","indutype":"음료식품 - 기타음료식품","category":"food"}]},{"lat":"37.372753761","long":"126.95886353","imageIndex":7,"items":[{"name":"맷돌재래식손두부","tel":"031-453-9736","addr":"경기도 안양시 동안구 호계동 995-29번지","indutype":"음료식품 - 기타음료식품","category":"food"},{"name":"보미네","tel":"","addr":"경기도 안양시 동안구 호계동 995-29번지","indutype":"음료식품 - 기타음료식품","category":"food"}]},{"lat":"37.385915015","long":"126.95253252","imageIndex":7,"items":[{"name":"모두애찬","tel":"031-385-4300","addr":"경기도 안양시 동안구 호계동 1053-3번지","indutype":"음료식품 - 기타음료식품","category":"food"}]},{"lat":"37.389195887","long":"126.95542111","imageIndex":7,"items":[{"name":"목련야채과일","tel":"031-381-6412","addr":"경기도 안양시 동안구 호계동","indutype":"음료식품 - 농·축·수산품","category":"food"}]},{"lat":"37.380132773","long":"126.95812532","imageIndex":7,"items":[{"name":"목포수산","tel":"031-421-0482","addr":"경기도 안양시 동안구 호계동 1056-6번지 무궁화진흥아파트","indutype":"음료식품 - 농·축·수산품","category":"food"}]},{"lat":"37.379025738","long":"126.96144542","imageIndex":7,"items":[{"name":"미래F&B","tel":"031-453-6951","addr":"경기도 안양시 동안구 호계동 1081-8번지","indutype":"음료식품 - 농·축·수산품","category":"food"}]},{"lat":"37.363446811","long":"126.96028001","imageIndex":7,"items":[{"name":"미문건강연구소","tel":"031-456-5811","addr":"경기도 안양시 동안구 호계동 804-9번지","indutype":"건강식품 - 기타건강식품","category":"food"},{"name":"우리푸드(식자재)","tel":"031-459-3355","addr":"경기도 안양시 동안구 호계동 804-9번지","indutype":"음료식품 - 기타음료식품","category":"food"}]},{"lat":"37.379557777","long":"126.94169771","imageIndex":7,"items":[{"name":"미연매점","tel":"031-455-4334","addr":"경기도 안양시 동안구 호계동 167-1번지","indutype":"음료식품 - 기타음료식품","category":"food"}]},{"lat":"37.367058686","long":"126.95709452","imageIndex":7,"items":[{"name":"바라","tel":"031-452-9168","addr":"경기도 안양시 동안구 호계동 973-7번지","indutype":"음료식품 - 제과점","category":"food"}]},{"lat":"37.382502152","long":"126.95738999","imageIndex":7,"items":[{"name":"바리바리(BARIBARI)반찬가게","tel":"031-386-1925","addr":"경기도 안양시 동안구 호계동 1059번지","indutype":"음료식품 - 기타음료식품","category":"food"}]},{"lat":"37.387862604","long":"126.95595267","imageIndex":7,"items":[{"name":"반찬대첩","tel":"031-387-7111","addr":"경기도 안양시 동안구 호계동 1052-5번지","indutype":"음료식품 - 기타음료식품","category":"food"},{"name":"우성청과","tel":"031-382-0999","addr":"경기도 안양시 동안구 호계동 1052-5번지 목련우성아파트","indutype":"음료식품 - 농·축·수산품","category":"food"}]},{"lat":"37.380139746","long":"126.95303317","imageIndex":7,"items":[{"name":"반찬작업실","tel":"031-447-3000","addr":"경기도 안양시 동안구 호계동 933-32번지","indutype":"음료식품 - 기타음료식품","category":"food"}]},{"lat":"37.373780506","long":"126.95777911","imageIndex":7,"items":[{"name":"배스킨라빈스 호계점","tel":"031-459-3311","addr":"경기도 안양시 동안구 호계동 986-28번지","indutype":"음료식품 - 제과점","category":"food"}]},{"lat":"37.363394045","long":"126.96403903","imageIndex":7,"items":[{"name":"보성반찬","tel":"031-427-3316","addr":"경기도 안양시 동안구 호계동 1278번지 호계동금호어울림","indutype":"음료식품 - 기타음료식품","category":"food"}]},{"lat":"37.390110363","long":"126.94517844","imageIndex":7,"items":[{"name":"봉드레만찬","tel":"","addr":"경기도 안양시 동안구 호계동 895번지","indutype":"음료식품 - 기타음료식품","category":"food"},{"name":"소망식품","tel":"031-456-2466","addr":"경기도 안양시 동안구 호계동 895번지 한마음아파트","indutype":"음료식품 - 기타음료식품","category":"food"}]},{"lat":"37.370834625","long":"126.9589211","imageIndex":7,"items":[{"name":"봉봉(Bonbon)","tel":"","addr":"경기도 안양시 동안구 호계동 1002-30번지","indutype":"음료식품 - 기타음료식품","category":"food"}]},{"lat":"37.384193475","long":"126.95112225","imageIndex":7,"items":[{"name":"불로장생","tel":"031-458-9121","addr":"경기도 안양시 동안구 호계동 923-5번지 노블오피스텔","indutype":"음료식품 - 제과점","category":"food"}]},{"lat":"37.38219358","long":"126.95192529","imageIndex":7,"items":[{"name":"블랑제","tel":"031-427-8560","addr":"경기도 안양시 동안구 호계동 926-29번지","indutype":"음료식품 - 제과점","category":"food"}]},{"lat":"37.383525233","long":"126.94781436","imageIndex":7,"items":[{"name":"비아트레","tel":"031-451-9603","addr":"경기도 안양시 동안구 호계동 921-5번지","indutype":"음료식품 - 기타음료식품","category":"food"}]},{"lat":"37.382556269","long":"126.95753674","imageIndex":7,"items":[{"name":"비앙비앙 (Bien Bien)","tel":"031-381-3188","addr":"경기도 안양시 동안구 호계동 1059-1번지","indutype":"음료식품 - 제과점","category":"food"}]},{"lat":"37.381475714","long":"126.95928749","imageIndex":7,"items":[{"name":"비젼에벤에셀청과","tel":"031-383-7927","addr":"경기도 안양시 동안구 호계동 1068-5번지","indutype":"음료식품 - 농·축·수산품","category":"food"}]},{"lat":"37.390556403","long":"126.95539767","imageIndex":7,"items":[{"name":"비타민마트","tel":"031-385-8665","addr":"경기도 안양시 동안구 호계동 1048-3번지","indutype":"건강식품 - 기타건강식품","category":"food"}]},{"lat":"37.373197031","long":"126.96392108","imageIndex":7,"items":[{"name":"빙그레상사","tel":"031-429-0095","addr":"경기도 안양시 동안구 호계동 1109-5번지","indutype":"음료식품 - 기타음료식품","category":"food"}]},{"lat":"37.381863269","long":"126.95961471","imageIndex":7,"items":[{"name":"빨간모자피자 평촌점","tel":"031-381-7072","addr":"경기도 안양시 동안구 호계동 1066-3번지","indutype":"음료식품 - 기타음료식품","category":"food"}]},{"lat":"37.365861011","long":"126.95886756","imageIndex":7,"items":[{"name":"빵Dream","tel":"","addr":"경기도 안양시 동안구 호계동 766-4번지 삼익아파트","indutype":"음료식품 - 제과점","category":"food"}]},{"lat":"37.380851161","long":"126.95212943","imageIndex":7,"items":[{"name":"사단법인 청소년의 미래 포유(FOR YOU)","tel":"031-455-9182","addr":"경기도 안양시 동안구 호계동 932-1번지","indutype":"음료식품 - 기타음료식품","category":"food"}]},{"lat":"37.381868058","long":"126.94930599","imageIndex":7,"items":[{"name":"삼성정육점","tel":"031-429-8205","addr":"경기도 안양시 동안구 호계동 928-9번지 대림아파트","indutype":"음료식품 - 정육점","category":"food"},{"name":"환중상회","tel":"","addr":"경기도 안양시 동안구 호계동 928-9번지 대림아파트","indutype":"음료식품 - 농·축·수산품","category":"food"}]},{"lat":"37.373169384","long":"126.96209215","imageIndex":7,"items":[{"name":"삼팔유통","tel":"031-422-3518","addr":"경기도 안양시 동안구 호계동 999-25번지 일신아파트","indutype":"음료식품 - 농·축·수산품","category":"food"}]},{"lat":"37.363897865","long":"126.96182625","imageIndex":7,"items":[{"name":"삼화유통","tel":"031-397-3422","addr":"경기도 안양시 동안구 호계동 813번지 호계e-편한세상아파트","indutype":"음료식품 - 기타음료식품","category":"food"}]},{"lat":"37.390222449","long":"126.95397505","imageIndex":7,"items":[{"name":"상쾌한코비","tel":"031-476-7585","addr":"경기도 안양시 동안구 호계동 1049번지","indutype":"회원제형태 - 건강식품","category":"food"}]},{"lat":"37.382782313","long":"126.95964805","imageIndex":7,"items":[{"name":"새빛","tel":"070-7464-9918","addr":"경기도 안양시 동안구 호계동 1065-3번지","indutype":"음료식품 - 기타음료식품","category":"food"}]},{"lat":"37.368033368","long":"126.96139502","imageIndex":7,"items":[{"name":"서울소년분류심사원","tel":"031-341-9102","addr":"경기도 안양시 동안구 호계동 773-9번지","indutype":"음료식품 - 기타음료식품","category":"food"}]},{"lat":"37.379637993","long":"126.96022568","imageIndex":7,"items":[{"name":"서울우유 평촌남부대리점","tel":"031-387-2253","addr":"경기도 안양시 동안구 호계동 1078번지","indutype":"음료식품 - 기타음료식품","category":"food"}]},{"lat":"37.379744186","long":"126.95517867","imageIndex":7,"items":[{"name":"선우유통","tel":"031-385-5346","addr":"경기도 안양시 동안구 호계동 1055-1번지 무궁화코오롱,건영아파트","indutype":"음료식품 - 기타음료식품","category":"food"}]},{"lat":"37.372474325","long":"126.9585363","imageIndex":7,"items":[{"name":"세창","tel":"031-459-2664","addr":"경기도 안양시 동안구 호계동 995-6번지","indutype":"음료식품 - 정육점","category":"food"}]},{"lat":"37.374754667","long":"126.96066876","imageIndex":7,"items":[{"name":"세창탕제원","tel":"031-56-7205","addr":"경기도 안양시 동안구 호계동 990-4번지","indutype":"건강식품 - 기타건강식품","category":"food"}]},{"lat":"37.364754565","long":"126.96400446","imageIndex":7,"items":[{"name":"소담떡방","tel":"031-429-5678","addr":"경기도 안양시 동안구 호계동 829-8번지","indutype":"음료식품 - 제과점","category":"food"}]},{"lat":"37.372636549","long":"126.9586491","imageIndex":7,"items":[{"name":"소문난수산","tel":"031-459-1008","addr":"경기도 안양시 동안구 호계동 995-7번지","indutype":"음료식품 - 농·축·수산품","category":"food"},{"name":"친절떡방아간","tel":"031-454-0480","addr":"경기도 안양시 동안구 호계동 995-7번지","indutype":"음료식품 - 제과점","category":"food"},{"name":"형제상회","tel":"031-452-5254","addr":"경기도 안양시 동안구 호계동 995-7번지","indutype":"음료식품 - 기타음료식품","category":"food"}]},{"lat":"37.381364742","long":"126.95214038","imageIndex":7,"items":[{"name":"손으로빚은봄","tel":"031-348-2232","addr":"경기도 안양시 동안구 호계동 930-18번지","indutype":"음료식품 - 제과점","category":"food"}]},{"lat":"37.386556411","long":"126.95664228","imageIndex":7,"items":[{"name":"솜소미 Bread","tel":"","addr":"경기도 안양시 동안구 호계동 1054-6번지 목련두산아파트","indutype":"음료식품 - 제과점","category":"food"}]},{"lat":"37.383282023","long":"126.94795003","imageIndex":7,"items":[{"name":"수라농산","tel":"031-384-2003","addr":"경기도 안양시 동안구 호계동 921-2번지","indutype":"음료식품 - 미곡상","category":"food"}]},{"lat":"37.37511391","long":"126.95752993","imageIndex":7,"items":[{"name":"신농건강원","tel":"031-453-4327","addr":"경기도 안양시 동안구 호계동 985-21번지","indutype":"건강식품 - 기타건강식품","category":"food"}]},{"lat":"37.367670685","long":"126.95534436","imageIndex":7,"items":[{"name":"신원당건강원","tel":"031-454-5467","addr":"경기도 안양시 동안구 호계동 971-13번지","indutype":"건강식품 - 기타건강식품","category":"food"}]},{"lat":"37.371835147","long":"126.96000431","imageIndex":7,"items":[{"name":"신원유통","tel":"031-429-7971","addr":"경기도 안양시 동안구 호계동 997-8번지","indutype":"음료식품 - 미곡상","category":"food"}]},{"lat":"37.372861937","long":"126.95901024","imageIndex":7,"items":[{"name":"싱싱야채","tel":"031-457-7787","addr":"경기도 안양시 동안구 호계동 995-31번지","indutype":"음료식품 - 농·축·수산품","category":"food"},{"name":"진주상회","tel":"031-452-3047","addr":"경기도 안양시 동안구 호계동 995-31번지","indutype":"음료식품 - 농·축·수산품","category":"food"}]},{"lat":"37.381725185","long":"126.95223046","imageIndex":7,"items":[{"name":"싸다구 아이스크림","tel":"","addr":"경기도 안양시 동안구 호계동 926-37번지","indutype":"음료식품 - 기타음료식품","category":"food"}]},{"lat":"37.382192309","long":"126.94905735","imageIndex":7,"items":[{"name":"아싸점핑다이어트","tel":"","addr":"경기도 안양시 동안구 호계동 924번지","indutype":"건강식품 - 기타건강식품","category":"food"}]},{"lat":"37.373501428","long":"126.95840022","imageIndex":7,"items":[{"name":"안동기름집","tel":"031-453-5668","addr":"경기도 안양시 동안구 호계동 995-14번지","indutype":"음료식품 - 기타음료식품","category":"food"}]},{"lat":"37.373114333","long":"126.95931491","imageIndex":7,"items":[{"name":"안성쌀어름상회","tel":"031-452-8244","addr":"경기도 안양시 동안구 호계동 994-22번지","indutype":"음료식품 - 미곡상","category":"food"},{"name":"장터축산","tel":"031-429-8080","addr":"경기도 안양시 동안구 호계동 994-22번지","indutype":"음료식품 - 정육점","category":"food"}]},{"lat":"37.378863115","long":"126.96020354","imageIndex":7,"items":[{"name":"안양과천키즈","tel":"070-4154-5254","addr":"경기도 안양시 동안구 호계동 1077-5번지","indutype":"음료식품 - 기타음료식품","category":"food"}]},{"lat":"37.387390462","long":"126.9475857","imageIndex":7,"items":[{"name":"안양온천","tel":"031-477-9179","addr":"경기도 안양시 동안구 호계동 915-2번지","indutype":"음료식품 - 기타음료식품","category":"food"},{"name":"온천매점","tel":"031-455-6785","addr":"경기도 안양시 동안구 호계동 915-2번지","indutype":"음료식품 - 기타음료식품","category":"food"}]},{"lat":"37.372303225","long":"126.95878477","imageIndex":7,"items":[{"name":"안양축산물도매센타","tel":"031-456-3079","addr":"경기도 안양시 동안구 호계동 997-27번지","indutype":"음료식품 - 농·축·수산품","category":"food"},{"name":"한아름청과","tel":"031-451-2038","addr":"경기도 안양시 동안구 호계동 997-27번지","indutype":"음료식품 - 농·축·수산품","category":"food"}]},{"lat":"37.381418783","long":"126.95209518","imageIndex":7,"items":[{"name":"안양흑염소","tel":"031-456-7081","addr":"경기도 안양시 동안구 호계동 930-45번지","indutype":"건강식품 - 기타건강식품","category":"food"}]},{"lat":"37.385025309","long":"126.95824662","imageIndex":7,"items":[{"name":"어장금","tel":"","addr":"경기도 안양시 동안구 호계동 1054-8번지 목련우성7차아파트","indutype":"음료식품 - 농·축·수산품","category":"food"}]},{"lat":"37.38208831","long":"126.95903873","imageIndex":7,"items":[{"name":"엄마찬스 (안양시니어클럽)","tel":"02-2049-1082","addr":"경기도 안양시 동안구 호계동 1067-7번지","indutype":"음료식품 - 기타음료식품","category":"food"}]},{"lat":"37.386418028","long":"126.94900917","imageIndex":7,"items":[{"name":"에그원계란","tel":"031-421-9774","addr":"경기도 안양시 동안구 호계동","indutype":"음료식품 - 농·축·수산품","category":"food"}]},{"lat":"37.388528368","long":"126.95353576","imageIndex":7,"items":[{"name":"에덴고려홍삼","tel":"031-388-0307","addr":"경기도 안양시 동안구 호계동","indutype":"건강식품 - 홍삼제품","category":"food"},{"name":"영도축산","tel":"031-388-8284","addr":"경기도 안양시 동안구 호계동 1052번지","indutype":"음료식품 - 정육점","category":"food"},{"name":"우리동네한돈한우","tel":"031-386-4582","addr":"경기도 안양시 동안구 호계동","indutype":"음료식품 - 정육점","category":"food"},{"name":"자매찬방","tel":"","addr":"경기도 안양시 동안구 호계동 1052번지","indutype":"음료식품 - 기타음료식품","category":"food"}]},{"lat":"37.372343379","long":"126.94717903","imageIndex":7,"items":[{"name":"엘에스(LS)매점","tel":"031-454-0039","addr":"경기도 안양시 동안구 호계동","indutype":"음료식품 - 기타음료식품","category":"food"}]},{"lat":"37.381832544","long":"126.95048028","imageIndex":7,"items":[{"name":"영호정육점","tel":"031-453-4338","addr":"경기도 안양시 동안구 호계동 928번지","indutype":"음료식품 - 정육점","category":"food"}]},{"lat":"37.374249277","long":"126.95842235","imageIndex":7,"items":[{"name":"영화축산","tel":"031-429-2585","addr":"경기도 안양시 동안구 호계동 988-22번지","indutype":"음료식품 - 정육점","category":"food"}]},{"lat":"37.382274671","long":"126.95192523","imageIndex":7,"items":[{"name":"우리동네푸주간","tel":"031-427-6699","addr":"경기도 안양시 동안구 호계동 926번지","indutype":"음료식품 - 정육점","category":"food"}]},{"lat":"37.387913384","long":"126.948308","imageIndex":7,"items":[{"name":"우리밀빵꿈터건강담은","tel":"","addr":"경기도 안양시 동안구 호계동 904-8번지","indutype":"음료식품 - 제과점","category":"food"}]},{"lat":"37.36795013","long":"126.95567157","imageIndex":7,"items":[{"name":"우리수산","tel":"031-429-9316","addr":"경기도 안양시 동안구 호계동 971-14번지","indutype":"음료식품 - 농·축·수산품","category":"food"},{"name":"일력정육점","tel":"031-452-7715","addr":"경기도 안양시 동안구 호계동 971-14번지","indutype":"음료식품 - 정육점","category":"food"}]},{"lat":"37.379553878","long":"126.95253677","imageIndex":7,"items":[{"name":"우영","tel":"","addr":"경기도 안양시 동안구 호계동 935-33번지","indutype":"음료식품 - 농·축·수산품","category":"food"}]},{"lat":"37.379052225","long":"126.95992117","imageIndex":7,"items":[{"name":"우주실업 (주)","tel":"031-429-8784","addr":"경기도 안양시 동안구 호계동 1077-8번지","indutype":"음료식품 - 정육점","category":"food"},{"name":"한강물산","tel":"031-453-2223","addr":"경기도 안양시 동안구 호계동 1077-8번지","indutype":"음료식품 - 기타음료식품","category":"food"}]},{"lat":"37.375277274","long":"126.96072492","imageIndex":7,"items":[{"name":"월드빈유통","tel":"070-8808-5954","addr":"경기도 안양시 동안구 호계동 1103-7번지","indutype":"음료식품 - 기타음료식품","category":"food"},{"name":"한백","tel":"070-8808-5954","addr":"경기도 안양시 동안구 호계동 1103-7번지","indutype":"음료식품 - 기타음료식품","category":"food"}]},{"lat":"37.382526591","long":"126.95108952","imageIndex":7,"items":[{"name":"월드유통","tel":"","addr":"경기도 안양시 동안구 호계동 925-3번지 탑빌라","indutype":"음료식품 - 기타음료식품","category":"food"}]},{"lat":"37.391835553","long":"126.95469673","imageIndex":7,"items":[{"name":"유니굿즈","tel":"","addr":"경기도 안양시 동안구 호계동 1043-1번지","indutype":"건강식품 - 기타건강식품","category":"food"}]},{"lat":"37.376751862","long":"126.95284348","imageIndex":7,"items":[{"name":"유동축산물도매센타","tel":"031-452-9339","addr":"경기도 안양시 동안구 호계동 335-90번지","indutype":"음료식품 - 정육점","category":"food"}]},{"lat":"37.380941267","long":"126.95214066","imageIndex":7,"items":[{"name":"유정양계","tel":"031-429-1875","addr":"경기도 안양시 동안구 호계동 932번지 대가맨숀","indutype":"음료식품 - 농·축·수산품","category":"food"}]},{"lat":"37.377979062","long":"126.95735885","imageIndex":7,"items":[{"name":"은혜유통","tel":"031-423-1445","addr":"경기도 안양시 동안구 호계동 1075번지 무궁화아파트","indutype":"음료식품 - 농·축·수산품","category":"food"}]},{"lat":"37.38775142","long":"126.94878237","imageIndex":7,"items":[{"name":"은혜허브","tel":"070-8201-5429","addr":"경기도 안양시 동안구 호계동 916번지","indutype":"건강식품 - 기타건강식품","category":"food"}]},{"lat":"37.369752877","long":"126.95751058","imageIndex":7,"items":[{"name":"이건용산부인과","tel":"031-429-1500","addr":"경기도 안양시 동안구 호계동 968-3번지","indutype":"건강식품 - 기타건강식품","category":"food"}]},{"lat":"37.372365727","long":"126.95728321","imageIndex":7,"items":[{"name":"이롬황성주생식안양동안지사","tel":"031-456-0607","addr":"경기도 안양시 동안구 호계동 949-17번지","indutype":"건강식품 - 기타건강식품","category":"food"}]},{"lat":"37.377835665","long":"126.95939121","imageIndex":7,"items":[{"name":"이원 인터내셔널","tel":"","addr":"경기도 안양시 동안구 호계동 1084-7번지","indutype":"건강식품 - 기타건강식품","category":"food"}]},{"lat":"37.376475401","long":"126.96011457","imageIndex":7,"items":[{"name":"이학순베이커리/(주)파티시에이학순","tel":"031-429-5600","addr":"경기도 안양시 동안구 호계동 1095-11번지","indutype":"음료식품 - 제과점","category":"food"}]},{"lat":"37.383525526","long":"126.94844667","imageIndex":7,"items":[{"name":"인컴퍼니","tel":"070-4254-0160","addr":"경기도 안양시 동안구 호계동 923-28번지 호계동신도브래뉴","indutype":"음료식품 - 기타음료식품","category":"food"}]},{"lat":"37.390834835","long":"126.95325194","imageIndex":7,"items":[{"name":"일신상회","tel":"031-388-4456","addr":"경기도 안양시 동안구 호계동 1045-9번지","indutype":"음료식품 - 기타음료식품","category":"food"}]},{"lat":"37.372888892","long":"126.95880701","imageIndex":7,"items":[{"name":"일심닭집","tel":"031-454-9234","addr":"경기도 안양시 동안구 호계동 995-28번지","indutype":"음료식품 - 정육점","category":"food"}]},{"lat":"37.37114094","long":"126.9588419","imageIndex":7,"items":[{"name":"장수건강원","tel":"031-456-1543","addr":"경기도 안양시 동안구 호계동 1002-25번지","indutype":"건강식품 - 기타건강식품","category":"food"}]},{"lat":"37.371086638","long":"126.95819843","imageIndex":7,"items":[{"name":"정관장 호계점","tel":"031-429-2335","addr":"경기도 안양시 동안구 호계동 1003번지","indutype":"건강식품 - 홍삼제품","category":"food"},{"name":"정관장호계점","tel":"031-429-2335","addr":"경기도 안양시 동안구 호계동 1003번지","indutype":"건강식품 - 홍삼제품","category":"food"}]},{"lat":"37.380782138","long":"126.95984115","imageIndex":7,"items":[{"name":"정훈유통","tel":"031-381-1398","addr":"경기도 안양시 동안구 호계동 1071-14번지","indutype":"음료식품 - 기타음료식품","category":"food"}]},{"lat":"37.387444316","long":"126.94714527","imageIndex":7,"items":[{"name":"제이루스커피(J-LUZ Coffee)","tel":"031-468-1949","addr":"경기도 안양시 동안구 호계동 905-21번지","indutype":"음료식품 - 기타음료식품","category":"food"}]},{"lat":"37.375032948","long":"126.95786868","imageIndex":7,"items":[{"name":"제일농산","tel":"031-456-1729","addr":"경기도 안양시 동안구 호계동 984-13번지","indutype":"음료식품 - 미곡상","category":"food"}]},{"lat":"37.373969976","long":"126.95845639","imageIndex":7,"items":[{"name":"종로복떡집","tel":"031-453-2558","addr":"경기도 안양시 동안구 호계동 988-23번지","indutype":"음료식품 - 제과점","category":"food"}]},{"lat":"37.380835694","long":"126.95847492","imageIndex":7,"items":[{"name":"종로식품","tel":"031-346-0059","addr":"경기도 안양시 동안구 호계동 1070-3번지","indutype":"음료식품 - 기타음료식품","category":"food"}]},{"lat":"37.389307608","long":"126.94345136","imageIndex":7,"items":[{"name":"주식회사 문식품","tel":"031-452-1057","addr":"경기도 안양시 동안구 호계동 897-2번지","indutype":"음료식품 - 기타음료식품","category":"food"}]},{"lat":"37.378890587","long":"126.96144549","imageIndex":7,"items":[{"name":"주식회사 에스엠미트","tel":"","addr":"경기도 안양시 동안구 호계동 1081-9번지","indutype":"음료식품 - 정육점","category":"food"}]},{"lat":"37.381916719","long":"126.95797748","imageIndex":7,"items":[{"name":"진솔","tel":"031-385-2566","addr":"경기도 안양시 동안구 호계동 1060-3번지","indutype":"음료식품 - 기타음료식품","category":"food"}]},{"lat":"37.382282338","long":"126.94889921","imageIndex":7,"items":[{"name":"찰떡궁합","tel":"031-429-6979","addr":"경기도 안양시 동안구 호계동 924-26번지","indutype":"음료식품 - 제과점","category":"food"}]},{"lat":"37.374276903","long":"126.96003679","imageIndex":7,"items":[{"name":"찹쌀누룽지","tel":"031-451-4826","addr":"경기도 안양시 동안구 호계동 993-2번지","indutype":"음료식품 - 기타음료식품","category":"food"}]},{"lat":"37.381196119","long":"126.95853116","imageIndex":7,"items":[{"name":"천일식품안양라두대리","tel":"031-387-1001","addr":"경기도 안양시 동안구 호계동 1069-7번지","indutype":"건강식품 - 기타건강식품","category":"food"}]},{"lat":"37.38947385","long":"126.95216879","imageIndex":7,"items":[{"name":"카카오토브(cacaoTOV)","tel":"031-295-3383","addr":"경기도 안양시 동안구 호계동 1051번지","indutype":"음료식품 - 제과점","category":"food"},{"name":"함백이떡방","tel":"031-384-5455","addr":"경기도 안양시 동안구 호계동 1051번지","indutype":"음료식품 - 제과점","category":"food"}]},{"lat":"37.381337246","long":"126.95106776","imageIndex":7,"items":[{"name":"카틀레아상사","tel":"031-458-1718","addr":"경기도 안양시 동안구 호계동 930-28번지","indutype":"건강식품 - 기타건강식품","category":"food"}]},{"lat":"37.390636379","long":"126.95269875","imageIndex":7,"items":[{"name":"코코슬라임카페","tel":"","addr":"경기도 안양시 동안구 호계동 1045-6번지","indutype":"음료식품 - 기타음료식품","category":"food"}]},{"lat":"37.376610872","long":"126.96100643","imageIndex":7,"items":[{"name":"티엔알","tel":"070-7634-4936","addr":"경기도 안양시 동안구 호계동 1097-5번지","indutype":"음료식품 - 농·축·수산품","category":"food"}]},{"lat":"37.366608136","long":"126.9569819","imageIndex":7,"items":[{"name":"티티케이 (TTK)","tel":"","addr":"경기도 안양시 동안구 호계동 972-9번지 양우내안애팰리스","indutype":"음료식품 - 기타음료식품","category":"food"}]},{"lat":"37.391411773","long":"126.95395169","imageIndex":7,"items":[{"name":"평촌건강생활","tel":"031-388-4911","addr":"경기도 안양시 동안구 호계동 1042-3번지","indutype":"건강식품 - 기타건강식품","category":"food"},{"name":"힙카롱","tel":"031-4054-4042","addr":"경기도 안양시 동안구 호계동 1042-3번지","indutype":"음료식품 - 기타음료식품","category":"food"}]},{"lat":"37.386087087","long":"126.95464395","imageIndex":7,"items":[{"name":"평촌고등학교매점","tel":"031-383-4824","addr":"경기도 안양시 동안구 호계동 1054번지","indutype":"음료식품 - 기타음료식품","category":"food"}]},{"lat":"37.376086626","long":"126.95655839","imageIndex":7,"items":[{"name":"평촌정육점","tel":"031-459-5596","addr":"경기도 안양시 동안구 호계동 976-5번지","indutype":"음료식품 - 정육점","category":"food"}]},{"lat":"37.386885519","long":"126.94678435","imageIndex":7,"items":[{"name":"평택축산","tel":"031-454-8660","addr":"경기도 안양시 동안구 호계동 914-35번지","indutype":"음료식품 - 농·축·수산품","category":"food"}]},{"lat":"37.381808777","long":"126.95845176","imageIndex":7,"items":[{"name":"포톤테라피","tel":"031-421-1401","addr":"경기도 안양시 동안구 호계동 1067번지","indutype":"건강식품 - 기타건강식품","category":"food"}]},{"lat":"37.390942665","long":"126.95256303","imageIndex":7,"items":[{"name":"폴리에스테틱","tel":"031-386-1262","addr":"경기도 안양시 동안구 호계동 1041-3번지","indutype":"건강식품 - 기타건강식품","category":"food"}]},{"lat":"37.383777887","long":"126.94861586","imageIndex":7,"items":[{"name":"하나로정육점","tel":"031-429-5070","addr":"경기도 안양시 동안구 호계동 923-26번지","indutype":"음료식품 - 정육점","category":"food"}]},{"lat":"37.387273848","long":"126.94870367","imageIndex":7,"items":[{"name":"한나누룽지","tel":"031-454-7359","addr":"경기도 안양시 동안구 호계동 915-6번지","indutype":"음료식품 - 기타음료식품","category":"food"}]},{"lat":"37.371222649","long":"126.96053527","imageIndex":7,"items":[{"name":"한삼인안양호계점","tel":"031-384-2548","addr":"경기도 안양시 동안구 호계동 1002-5번지","indutype":"건강식품 - 홍삼제품","category":"food"}]},{"lat":"37.387967652","long":"126.94875963","imageIndex":7,"items":[{"name":"해원유통","tel":"070-8225-0977","addr":"경기도 안양시 동안구 호계동 904-12번지","indutype":"음료식품 - 농·축·수산품","category":"food"}]},{"lat":"37.368977072","long":"126.95514034","imageIndex":7,"items":[{"name":"햇살담은빵","tel":"031-344-6821","addr":"경기도 안양시 동안구 호계동 966-1번지 리치밸리","indutype":"음료식품 - 제과점","category":"food"}]},{"lat":"37.376775299","long":"126.96791598","imageIndex":7,"items":[{"name":"허벌피트","tel":"070-4325-7063","addr":"경기도 안양시 동안구 호계동 1117번지 샘마을","indutype":"건강식품 - 기타건강식품","category":"food"}]},{"lat":"37.387526141","long":"126.94872608","imageIndex":7,"items":[{"name":"현대방앗간","tel":"031-455-8955","addr":"경기도 안양시 동안구 호계동 916-1번지","indutype":"음료식품 - 기타음료식품","category":"food"}]},{"lat":"37.36880637","long":"126.95637095","imageIndex":7,"items":[{"name":"호계 만물상회","tel":"","addr":"경기도 안양시 동안구 호계동 967-50번지","indutype":"음료식품 - 농·축·수산품","category":"food"}]},{"lat":"37.387390928","long":"126.94859067","imageIndex":7,"items":[{"name":"호계동시온쇼핑","tel":"031-458-5483","addr":"경기도 안양시 동안구 호계동 915-28번지","indutype":"음료식품 - 기타음료식품","category":"food"}]},{"lat":"37.372969974","long":"126.95878438","imageIndex":7,"items":[{"name":"호계반찬","tel":"031-455-6445","addr":"경기도 안양시 동안구 호계동 995-25번지","indutype":"음료식품 - 기타음료식품","category":"food"}]},{"lat":"37.388363648","long":"126.94778824","imageIndex":7,"items":[{"name":"호계제과","tel":"031-8091-1009","addr":"경기도 안양시 동안구 호계동 904번지","indutype":"음료식품 - 제과점","category":"food"}]},{"lat":"37.381914363","long":"126.9521513","imageIndex":7,"items":[{"name":"호원떡방앗간","tel":"031-456-9149","addr":"경기도 안양시 동안구 호계동 926-35번지","indutype":"음료식품 - 제과점","category":"food"}]},{"lat":"37.374032919","long":"126.95811765","imageIndex":7,"items":[{"name":"황금건어장","tel":"031-427-0133","addr":"경기도 안양시 동안구 호계동 986-25번지","indutype":"음료식품 - 농·축·수산품","category":"food"}]},{"lat":"37.382198381","long":"126.94294887","imageIndex":7,"items":[{"name":"효성매점","tel":"031-428-1219","addr":"경기도 안양시 동안구 호계동 183-2번지","indutype":"음료식품 - 기타음료식품","category":"food"}]},{"lat":"37.381247634","long":"126.95219691","imageIndex":7,"items":[{"name":"힐링사랑방","tel":"","addr":"경기도 안양시 동안구 호계동 930-30번지","indutype":"건강식품 - 기타건강식품","category":"food"}]}]