[{"lat":"37.351564413","long":"127.06185391","items":[{"name":"(사)파라미타청소년연합회 용인지회","tel":"031-111-1111","addr":"경기도 용인시 수지구 고기동 213-50번지 전체","category":"기타 - 비영리/대상"},{"name":"대한불교 조계종 좋은절","tel":"031-263-4360","addr":"경기도 용인시 수지구 고기동 213-50번지","category":"기타 - 비영리/대상"}]},{"lat":"37.360117344","long":"127.05705201","items":[{"name":"(주)그린프로방스(강산애)","tel":"031-262-8090","addr":"경기도 용인시 수지구 고기동 222번지","category":"일반휴게음식 - 일반한식"},{"name":"슈파인커피컴퍼니(Supine coffee company)","tel":"031-264-9835","addr":"경기도 용인시 수지구 고기동 222번지 2층","category":"일반휴게음식 - 서양음식"},{"name":"행가집(주)농협안심한우 고기동점","tel":"031-264-2727","addr":"경기도 용인시 수지구 고기동 222번지","category":"일반휴게음식 - 일반한식"}]},{"lat":"37.355114688","long":"127.06130363","items":[{"name":"(주)선진렌탈","tel":"02-6340-5359","addr":"경기도 용인시 수지구 고기동 213-57번지","category":"기타 - 기계공구"}]},{"lat":"37.358257786","long":"127.04316705","items":[{"name":"(주)아이뷰메디칼","tel":"031-261-8825","addr":"경기도 용인시 수지구 고기동 425-4번지","category":"약국 - 제약회사"}]},{"lat":"37.355815119","long":"127.04577307","items":[{"name":"(주)폰뎀킨트어학원","tel":"031-263-1403","addr":"경기도 용인시 수지구 고기동 393-5번지 1층 ,2층","category":"학원 - 외국어학원"}]},{"lat":"37.360396157","long":"127.05813584","items":[{"name":"1819(일팔일구)","tel":"031-262-1819","addr":"경기도 용인시 수지구 고기동 220-11번지 1-2층","category":"일반휴게음식 - 일반한식"}]},{"lat":"37.358336595","long":"127.06841726","items":[{"name":"Prizm 프리즘","tel":"031-261-1070","addr":"경기도 용인시 수지구 고기동 102-2번지","category":"일반휴게음식 - 일반한식"}]},{"lat":"37.354315935","long":"127.07216101","items":[{"name":"SY골프","tel":"031-266-6222","addr":"경기도 용인시 수지구 고기동 44-8번지 판교 레이크 골프클럽내","category":"레져용품 - 골프용품 전문점"},{"name":"갤러리 아나","tel":"031-548-2680","addr":"경기도 용인시 수지구 고기동 44-8번지 외8필지 판교레이크 골프클럽내 2층 공간 일부","category":"문화.취미 - 화랑"},{"name":"러벤코티","tel":"031-272-8877","addr":"경기도 용인시 수지구 고기동 44-8번지 1층 한백골프클럽내식당","category":"일반휴게음식 - 일반한식"},{"name":"테로세","tel":"031-261-1964","addr":"경기도 용인시 수지구 고기동 44-8번지 1층","category":"일반휴게음식 - 서양음식"}]},{"lat":"37.358370358","long":"127.05486098","items":[{"name":"가야","tel":"031-263-6665","addr":"경기도 용인시 수지구 고기동 214-1번지","category":"일반휴게음식 - 일반한식"}]},{"lat":"37.359644329","long":"127.04605745","items":[{"name":"개울가에핀야생화꽃집","tel":"031-265-0085","addr":"경기도 용인시 수지구 고기동 470번지","category":"일반휴게음식 - 일반한식"}]},{"lat":"37.354697349","long":"127.06685649","items":[{"name":"겟잇(get It)","tel":"031-754-2523","addr":"경기도 용인시 수지구 고기동 26-10번지","category":"음료식품 - 기타음료식품"}]},{"lat":"37.357587398","long":"127.05271583","items":[{"name":"고기동민박","tel":"031-264-4001","addr":"경기도 용인시 수지구 고기동 250-1번지","category":"숙박업 - 여관/기타숙박업"}]},{"lat":"37.357670032","long":"127.06807805","items":[{"name":"고기리 블루베리","tel":"031-262-8070","addr":"경기도 용인시 수지구 고기동 132-2번지","category":"음료식품 - 농·축·수산품"}]},{"lat":"37.363336265","long":"127.05177142","items":[{"name":"고기리금잔디","tel":"031-261-4449","addr":"경기도 용인시 수지구 고기동 478-9번지","category":"일반휴게음식 - 일반한식"}]},{"lat":"37.355672162","long":"127.04230785","items":[{"name":"고기리농원","tel":"031-262-6733","addr":"경기도 용인시 수지구 고기동 626-4번지","category":"일반휴게음식 - 일반한식"}]},{"lat":"37.359086345","long":"127.04425111","items":[{"name":"고기리막국수 주식회사","tel":"031-263-1107","addr":"경기도 용인시 수지구 고기동 439-1번지","category":"일반휴게음식 - 일반한식"}]},{"lat":"37.354893572","long":"127.05221742","items":[{"name":"고기리숯가마식당","tel":"031-272-1744","addr":"경기도 용인시 수지구 고기동 269-6","category":"일반휴게음식 - 일반한식"}]},{"lat":"37.358778829","long":"127.06707442","items":[{"name":"고기리쉼터","tel":"031-263-5573","addr":"경기도 용인시 수지구 고기동 109-1번지","category":"일반휴게음식 - 일반한식"}]},{"lat":"37.357453437","long":"127.0498036","items":[{"name":"고기리제빵소","tel":"031-263-8988","addr":"경기도 용인시 수지구 고기동 235-4번지","category":"음료식품 - 기타음료식품"},{"name":"나무하나","tel":"070-7529-8843","addr":"경기도 용인시 수지구 고기동 235-4번지 지하1층 일부호","category":"음료식품 - 기타음료식품"},{"name":"프리모","tel":"","addr":"경기도 용인시 수지구 고기동 235-4번지 1층","category":"일반휴게음식 - 서양음식"}]},{"lat":"37.35489388","long":"127.05147248","items":[{"name":"광교산장","tel":"031-261-4555","addr":"경기도 용인시 수지구 고기동 268-1번지","category":"일반휴게음식 - 일반한식"}]},{"lat":"37.359502917","long":"127.06072007","items":[{"name":"구름이네","tel":"031-266-1665","addr":"경기도 용인시 수지구 고기동 196-1번지","category":"문화.취미 - 애완동물"},{"name":"반려동물훈련학교","tel":"031-266-4665","addr":"경기도 용인시 수지구 고기동 196-1번지 제1동호","category":"문화.취미 - 애완동물"},{"name":"카르페디엠","tel":"02-276-3420","addr":"경기도 용인시 수지구 고기동 196-1번지","category":"일반휴게음식 - 스넥"}]},{"lat":"37.358865966","long":"127.05474844","items":[{"name":"귀래정","tel":"031-263-8266","addr":"경기도 용인시 수지구 고기동 755-11번지","category":"일반휴게음식 - 일반한식"}]},{"lat":"37.359730939","long":"127.05474904","items":[{"name":"나드리김밥국수","tel":"031-272-3391","addr":"경기도 용인시 수지구 고기동 224-1번지 1층 2호","category":"일반휴게음식 - 일반한식"}]},{"lat":"37.359951929","long":"127.04246812","items":[{"name":"나무수작카페","tel":"031-266-9237","addr":"경기도 용인시 수지구 고기동 445-1번지","category":"일반휴게음식 - 서양음식"}]},{"lat":"37.357253903","long":"127.0529978","items":[{"name":"나인패치","tel":"031-896-1979","addr":"경기도 용인시 수지구 고기동 249-6번지","category":"일반휴게음식 - 일반한식"}]},{"lat":"37.359419752","long":"127.04416099","items":[{"name":"남수원","tel":"031-262-5322","addr":"경기도 용인시 수지구 고기동 449-2번지","category":"일반휴게음식 - 일반한식"}]},{"lat":"37.353533442","long":"127.06974492","items":[{"name":"넷스쿨(NETSCHOOL)","tel":"031-4811-5971","addr":"경기도 용인시 수지구 고기동 30-78번지","category":"문화.취미 - 민예·공예품"}]},{"lat":"37.357507787","long":"127.06819079","items":[{"name":"농업회사법인 고기리농장 주식회사","tel":"031-262-8071","addr":"경기도 용인시 수지구 고기동 132-3번지","category":"문화.취미 - 화원"}]},{"lat":"37.359005206","long":"127.04438651","items":[{"name":"다닐목","tel":"031-261-1711","addr":"경기도 용인시 수지구 고기동 450번지 1층","category":"일반휴게음식 - 일반한식"}]},{"lat":"37.363255331","long":"127.05138757","items":[{"name":"담음","tel":"031-263-2813","addr":"경기도 용인시 수지구 고기동 478-11번지","category":"음료식품 - 기타음료식품"}]},{"lat":"37.361865759","long":"127.0292734","items":[{"name":"대왕골","tel":"031-276-8334","addr":"경기도 용인시 수지구 고기동 741번지","category":"일반휴게음식 - 일반한식"}]},{"lat":"37.351478967","long":"127.07002526","items":[{"name":"더 아티산(The Artisan)","tel":"","addr":"경기도 용인시 수지구 고기동 17-8번지","category":"일반휴게음식 - 일반한식"},{"name":"올드레이디(바인스)앤틱","tel":"031-713-7010","addr":"경기도 용인시 수지구 고기동 17-8번지","category":"건축자재 - 인테리어전문"}]},{"lat":"37.355148961","long":"127.06478006","items":[{"name":"더휴라르고","tel":"","addr":"경기도 용인시 수지구 고기동 158-28번지","category":"숙박업 - 여관/기타숙박업"}]},{"lat":"37.360918523","long":"127.03408172","items":[{"name":"델피노","tel":"031-896-8235","addr":"경기도 용인시 수지구 고기동 690-5번지","category":"숙박업 - 여관/기타숙박업"}]},{"lat":"37.361008734","long":"127.0336641","items":[{"name":"델피노1","tel":"031-896-8236","addr":"경기도 용인시 수지구 고기동 690-2번지 가동","category":"숙박업 - 여관/기타숙박업"},{"name":"델피노숲","tel":"031-272-5454","addr":"경기도 용인시 수지구 고기동 690-2번지","category":"숙박업 - 여관/기타숙박업"}]},{"lat":"37.357281639","long":"127.05130471","items":[{"name":"돌담집","tel":"031-261-4096","addr":"경기도 용인시 수지구 고기동 243-1번지","category":"일반휴게음식 - 일반한식"}]},{"lat":"37.359863378","long":"127.06060747","items":[{"name":"들꽃가마솥곰탕","tel":"031-262-3770","addr":"경기도 용인시 수지구 고기동 196-4번지 1층","category":"일반휴게음식 - 일반한식"},{"name":"주식회사 한신디엠","tel":"","addr":"경기도 용인시 수지구 고기동 196-4번지","category":"건축자재 - 부동산 분양"}]},{"lat":"37.362254964","long":"127.0519739","items":[{"name":"디에스플로라","tel":"031-266-4874","addr":"경기도 용인시 수지구 고기동 478-5번지","category":"가구 - 일반가구"}]},{"lat":"37.357392727","long":"127.04341491","items":[{"name":"뜰사랑3관","tel":"031-1111-1111","addr":"경기도 용인시 수지구 고기동 411-1번지 A동","category":"일반휴게음식 - 일반한식"}]},{"lat":"37.353201042","long":"127.06799518","items":[{"name":"라켄하임","tel":"031-262-8075","addr":"경기도 용인시 수지구 고기동 30-137번지","category":"가구 - 일반가구"}]},{"lat":"37.349757362","long":"127.07118621","items":[{"name":"리드디자인그룹 주식회사","tel":"031-898-4800","addr":"경기도 용인시 수지구 고기동 14-37번지","category":"용역 서비스 - 사무서비스"}]},{"lat":"37.360503032","long":"127.03775009","items":[{"name":"리움(Leeum)","tel":"031-896-0831","addr":"경기도 용인시 수지구 고기동 600번지","category":"일반휴게음식 - 일반한식"}]},{"lat":"37.358172184","long":"127.05474797","items":[{"name":"매직캠프","tel":"070-7404-0844","addr":"경기도 용인시 수지구 고기동 214-2번지 신정","category":"레져용품 - 스포츠·레져용품"}]},{"lat":"37.359004043","long":"127.04758091","items":[{"name":"멜린다(Melinda Gourmet)","tel":"031-272-0473","addr":"경기도 용인시 수지구 고기동 473번지","category":"일반휴게음식 - 서양음식"}]},{"lat":"37.350368397","long":"127.07399706","items":[{"name":"모네(Monet)","tel":"031-262-7383","addr":"경기도 용인시 수지구 고기동 10-4번지","category":"건축자재 - 인테리어전문"}]},{"lat":"37.359366598","long":"127.04147449","items":[{"name":"모노캠프(MONO CAMP)","tel":"031-265-2224","addr":"경기도 용인시 수지구 고기동 587번지","category":"일반휴게음식 - 일반한식"},{"name":"모노캠프(MONO CAMP)","tel":"031-265-2224","addr":"경기도 용인시 수지구 고기동 587번지","category":"음료식품 - 정육점"},{"name":"진진","tel":"031-265-9339","addr":"경기도 용인시 수지구 고기동 587번지","category":"일반휴게음식 - 중국식"}]},{"lat":"37.360225299","long":"127.0574133","items":[{"name":"모소밤부","tel":"031-548-2648","addr":"경기도 용인시 수지구 고기동 222-2번지 2층","category":"보건위생 - 미용원"},{"name":"모소밤부","tel":"031-548-2648","addr":"경기도 용인시 수지구 고기동 222-2번지 1층","category":"일반휴게음식 - 서양음식"}]},{"lat":"37.35742555","long":"127.05191432","items":[{"name":"무릉도원","tel":"031-264-4001","addr":"경기도 용인시 수지구 고기동 245-1번지 외3필지","category":"일반휴게음식 - 일반한식"}]},{"lat":"37.356257257","long":"127.04396737","items":[{"name":"뮤지엄 그라운드","tel":"","addr":"경기도 용인시 수지구 고기동 400-5번지 1층","category":"용역 서비스 - 종합용역"},{"name":"카페그라운드(주)","tel":"070-0000-0000","addr":"경기도 용인시 수지구 고기동 400-5번지","category":"일반휴게음식 - 서양음식"}]},{"lat":"37.361333621","long":"127.03158725","items":[{"name":"미디어팝콘","tel":"","addr":"경기도 용인시 수지구 고기동 651-2번지","category":"용역 서비스 - 종합용역"}]},{"lat":"37.368222764","long":"127.04386101","items":[{"name":"벤스튜디오","tel":"031-265-0934","addr":"경기도 용인시 수지구 고기동 502-17번지","category":"광학제품 - 사진관"},{"name":"주식회사 벤스튜디오(BENSTUDIO)","tel":"031-265-0934","addr":"경기도 용인시 수지구 고기동 502-17번지","category":"광학제품 - 사진관"},{"name":"토이카메라","tel":"031-265-0934","addr":"경기도 용인시 수지구 고기동 502-17번지","category":"광학제품 - 사진관"}]},{"lat":"37.356948814","long":"127.04993873","items":[{"name":"별다섯커피공장/(주)별다섯","tel":"031-263-1796","addr":"경기도 용인시 수지구 고기동 240-5번지","category":"일반휴게음식 - 서양음식"}]},{"lat":"37.349307959","long":"127.06924458","items":[{"name":"비앙컨테템포러리(BIEN CONTEMPORARY)","tel":"","addr":"경기도 용인시 수지구 고기동 15-57번지","category":"문화.취미 - 화랑"}]},{"lat":"37.359953131","long":"127.03869801","items":[{"name":"산골","tel":"031-261-0146","addr":"경기도 용인시 수지구 고기동 596-3번지 외3필지","category":"일반휴게음식 - 일반한식"}]},{"lat":"37.355426055","long":"127.06888878","items":[{"name":"산호상회","tel":"","addr":"경기도 용인시 수지구 고기동 32-1번지","category":"문화.취미 - 수족관"}]},{"lat":"37.359700471","long":"127.06207475","items":[{"name":"삼촌네 떡카페","tel":"031-264-0045","addr":"경기도 용인시 수지구 고기동 188-2번지 지하1층","category":"일반휴게음식 - 서양음식"}]},{"lat":"37.355281747","long":"127.05041175","items":[{"name":"서머힐키즈어학원/주식회사디맥스에듀케이","tel":"031-896-5514","addr":"경기도 용인시 수지구 고기동 259-15번지","category":"학원 - 외국어학원"}]},{"lat":"37.359307169","long":"127.05541472","items":[{"name":"선한우","tel":"031-263-5555","addr":"경기도 용인시 수지구 고기동 216-12번지","category":"일반휴게음식 - 일반한식"}]},{"lat":"37.357949146","long":"127.06843949","items":[{"name":"성지농원","tel":"070-7687-5047","addr":"경기도 용인시 수지구 고기동 132-1","category":"음료식품 - 농·축·수산품"}]},{"lat":"37.355140274","long":"127.06415927","items":[{"name":"세라미공방","tel":"","addr":"경기도 용인시 수지구 고기동 158-22번지","category":"문화.취미 - 문화취미기타"}]},{"lat":"37.354731491","long":"127.07027647","items":[{"name":"소가네","tel":"031-265-5957","addr":"경기도 용인시 수지구 고기동 40-1번지","category":"일반휴게음식 - 일반한식"}]},{"lat":"37.359009113","long":"127.03113486","items":[{"name":"소스코(Sanha Outdoor System)","tel":"031-263-2463","addr":"경기도 용인시 수지구 고기동 645-7","category":"건축자재 - 조명기구"}]},{"lat":"37.358337301","long":"127.06713048","items":[{"name":"손의터식당","tel":"031-263-5258","addr":"경기도 용인시 수지구 고기동 112번지 1층 일부","category":"일반휴게음식 - 일반한식"}]},{"lat":"37.360368957","long":"127.05849703","items":[{"name":"수리울","tel":"031-276-7533","addr":"경기도 용인시 수지구 고기동 220-1 1층,2층","category":"일반휴게음식 - 일반한식"},{"name":"토방","tel":"031-263-2870","addr":"경기도 용인시 수지구 고기동 220-1번지","category":"일반휴게음식 - 일반한식"}]},{"lat":"37.358834519","long":"127.04291903","items":[{"name":"수우드 목공방","tel":"031-262-9028","addr":"경기도 용인시 수지구 고기동 425-1번지","category":"가구 - 일반가구"}]},{"lat":"37.359365592","long":"127.04444315","items":[{"name":"수피아","tel":"031-757-5757","addr":"경기도 용인시 수지구 고기동 451-4번지","category":"일반휴게음식 - 일반한식"}]},{"lat":"37.355814821","long":"127.04658575","items":[{"name":"슈앤트리","tel":"070-4095-0217","addr":"경기도 용인시 수지구 고기동 259-129번지","category":"문화.취미 - 애완동물"}]},{"lat":"37.370784718","long":"127.03372454","items":[{"name":"스카이펜션","tel":"031-264-7679","addr":"경기도 용인시 수지구 고기동 525번지 스카이팬션 A동","category":"숙박업 - 여관/기타숙박업"}]},{"lat":"37.358561282","long":"127.05080888","items":[{"name":"시골집","tel":"031-263-5611","addr":"경기도 용인시 수지구 고기동 산133","category":"일반휴게음식 - 일반한식"}]},{"lat":"37.350369502","long":"127.07213482","items":[{"name":"씨엔티교역/원격지","tel":"031-262-7781","addr":"경기도 용인시 수지구 고기동 14-8번지","category":"기타 - 기타 전문점"}]},{"lat":"37.358697676","long":"127.06718723","items":[{"name":"씨유수지고기프리미엄점","tel":"080-080-3663","addr":"경기도 용인시 수지구 고기동 109-2번지","category":"유통업 영리 - 편 의 점"}]},{"lat":"37.359501313","long":"127.06391448","items":[{"name":"씽씽대리인력","tel":"031-272-8481","addr":"경기도 용인시 수지구 고기동 179번지","category":"보건위생 - 기타대인서비스"},{"name":"에코랩(Ecolab)","tel":"","addr":"경기도 용인시 수지구 고기동 179번지","category":"보건위생 - 화장품"}]},{"lat":"37.354723437","long":"127.04961002","items":[{"name":"아래아","tel":"031-3918-7100","addr":"경기도 용인시 수지구 고기동 259-13번지 1층","category":"일반휴게음식 - 일반한식"}]},{"lat":"37.360342301","long":"127.05769558","items":[{"name":"아로스토(arrosto)","tel":"031-262-2200","addr":"경기도 용인시 수지구 고기동 220번지 지하1층","category":"일반휴게음식 - 서양음식"}]},{"lat":"37.3579743","long":"127.053969","items":[{"name":"에어토랩:EROTO LAB/주식회사 에어보브","tel":"044-865-2011","addr":"경기도 용인시 수지구 고기동 248-3번지","category":"일반휴게음식 - 서양음식"}]},{"lat":"37.359925651","long":"127.06222166","items":[{"name":"에이알(AR)의류잡화","tel":"031-262-1539","addr":"경기도 용인시 수지구 고기동 184-2번지 1층","category":"의류 - 정장"}]},{"lat":"37.368393783","long":"127.04435782","items":[{"name":"에이치640(H640)","tel":"031-000-0000","addr":"경기도 용인시 수지구 고기동 499-2번지","category":"숙박업 - 여관/기타숙박업"}]},{"lat":"37.359672691","long":"127.06355341","items":[{"name":"엘제이","tel":"070-4649-1102","addr":"경기도 용인시 수지구 고기동 185-2번지","category":"의류 - 정장"}]},{"lat":"37.358168427","long":"127.04092079","items":[{"name":"엘테크","tel":"031-262-7191","addr":"경기도 용인시 수지구 고기동 612-2번지","category":"전기제품 - 기타전기제품"}]},{"lat":"37.357974085","long":"127.05446564","items":[{"name":"연탄갈비","tel":"031-263-5980","addr":"경기도 용인시 수지구 고기동 214-4번지","category":"일반휴게음식 - 일반한식"},{"name":"연탄갈비","tel":"031-263-5980","addr":"경기도 용인시 수지구 고기동 214-4번지","category":"일반휴게음식 - 일반한식"}]},{"lat":"37.36042265","long":"127.05927593","items":[{"name":"열두화덕","tel":"031-263-1260","addr":"경기도 용인시 수지구 고기동 194번지 2층","category":"일반휴게음식 - 일반한식"}]},{"lat":"37.359176152","long":"127.06543805","items":[{"name":"예쁜옷집","tel":"031-261-0459","addr":"경기도 용인시 수지구 고기동 173-4번지","category":"회원제형태 - 기타4"},{"name":"포근한집","tel":"031-334-1190","addr":"경기도 용인시 수지구 고기동 173-4번지 1층3호일부분","category":"직물 - 침구·수예점"}]},{"lat":"37.360368878","long":"127.05866635","items":[{"name":"온새미로한의원","tel":"031-276-2301","addr":"경기도 용인시 수지구 고기동 220-8","category":"의원 - 한의원"}]},{"lat":"37.360286567","long":"127.06119476","items":[{"name":"우리밥집","tel":"070-7719-0885","addr":"경기도 용인시 수지구 고기동 192-1번지 101,102호","category":"일반휴게음식 - 일반한식"}]},{"lat":"37.360395004","long":"127.06055144","items":[{"name":"우리집","tel":"031-272-0885","addr":"경기도 용인시 수지구 고기동 192번지","category":"일반휴게음식 - 일반한식"}]},{"lat":"37.355948021","long":"127.05158603","items":[{"name":"원강우주지구박물관","tel":"031-262-8111","addr":"경기도 용인시 수지구 고기동 255번지","category":"문화.취미 - 문화취미기타"}]},{"lat":"37.368529186","long":"127.04363539","items":[{"name":"위즈아이","tel":"070-4254-1146","addr":"경기도 용인시 수지구 고기동 502번지","category":"건축자재 - 인테리어전문"}]},{"lat":"37.359257404","long":"127.06513335","items":[{"name":"윤퍼피 하우스","tel":"031-898-1666","addr":"경기도 용인시 수지구 고기동 174-3번지 104호","category":"문화.취미 - 애완동물"}]},{"lat":"37.357093151","long":"127.04949862","items":[{"name":"이안","tel":"","addr":"경기도 용인시 수지구 고기동 240-4번지 201호","category":"숙박업 - 여관/기타숙박업"}]},{"lat":"37.356615003","long":"127.0510221","items":[{"name":"이안바베큐장","tel":"031-000-0000","addr":"경기도 용인시 수지구 고기동 241번지","category":"신변잡화 - 기타잡화"}]},{"lat":"37.360281173","long":"127.05332716","items":[{"name":"일박이일가든","tel":"031-262-5253","addr":"경기도 용인시 수지구 고기동 225-3번지","category":"일반휴게음식 - 일반한식"}]},{"lat":"37.351812202","long":"127.07027386","items":[{"name":"자작마을","tel":"070-4274-3384","addr":"경기도 용인시 수지구 고기동 18","category":"가구 - 일반가구"}]},{"lat":"37.356435517","long":"127.06830273","items":[{"name":"자평원","tel":"031-0000-0000","addr":"경기도 용인시 수지구 고기동 125-2번지 에코리움 가동 2층 202호","category":"광학제품 - 사진관"}]},{"lat":"37.359640048","long":"127.05652115","items":[{"name":"작은북유럽","tel":"031-000-0000","addr":"경기도 용인시 수지구 고기동 217번지","category":"가구 - 기타가구"}]},{"lat":"37.358003251","long":"127.04930729","items":[{"name":"장수식당","tel":"031-263-0057","addr":"경기도 용인시 수지구 고기동 235-1번지","category":"일반휴게음식 - 일반한식"}]},{"lat":"37.358973903","long":"127.05516616","items":[{"name":"장수촌","tel":"031-262-7711","addr":"경기도 용인시 수지구 고기동 216-2번지","category":"일반휴게음식 - 일반한식"}]},{"lat":"37.355308573","long":"127.05091968","items":[{"name":"전원향기","tel":"031-265-0768","addr":"경기도 용인시 수지구 고기동 265-1번지","category":"숙박업 - 여관/기타숙박업"}]},{"lat":"37.35145096","long":"127.053942","items":[{"name":"제나","tel":"031-781-7626","addr":"경기도 용인시 수지구 고기동 339-2번지","category":"의류 - 정장"}]},{"lat":"37.359086841","long":"127.04280629","items":[{"name":"제이. 에쓰","tel":"031-262-8934","addr":"경기도 용인시 수지구 고기동 441-1번지","category":"유통업 영리 - 슈퍼마켓"}]},{"lat":"37.364895916","long":"127.0495486","items":[{"name":"주식회사 고블링","tel":"031-306-1671","addr":"경기도 용인시 수지구 고기동 489-22번지 1층 104호","category":"서적문구 - 완구점"}]},{"lat":"37.355419194","long":"127.06491573","items":[{"name":"주식회사 쉐반스","tel":"031-265-5302","addr":"경기도 용인시 수지구 고기동 158-26번지","category":"보건위생 - 화장품"}]},{"lat":"37.360168839","long":"127.06239117","items":[{"name":"주식회사 억수푸드","tel":"031-265-1427","addr":"경기도 용인시 수지구 고기동 183-3번지","category":"음료식품 - 정육점"}]},{"lat":"37.359812228","long":"127.05429759","items":[{"name":"주식회사 프레이저커피","tel":"031-264-2248","addr":"경기도 용인시 수지구 고기동 224번지","category":"음료식품 - 기타음료식품"}]},{"lat":"37.351370317","long":"127.05289231","items":[{"name":"주식회사 힐포인트","tel":"070-7761-4882","addr":"경기도 용인시 수지구 고기동 346-1번지","category":"레져용품 - 스포츠·레져용품"}]},{"lat":"37.354418582","long":"127.0456707","items":[{"name":"주식회사산의아침","tel":"031-265-2200","addr":"경기도 용인시 수지구 고기동 379","category":"일반휴게음식 - 일반한식"}]},{"lat":"37.347475412","long":"127.07519063","items":[{"name":"준 하우징","tel":"031-258-7766","addr":"경기도 용인시 수지구 고기동 2-12번지","category":"건축자재 - 인테리어전문"}]},{"lat":"37.360729154","long":"127.03466861","items":[{"name":"지니어스/주식회사 지니졸리","tel":"031-262-2314","addr":"경기도 용인시 수지구 고기동 689-36번지","category":"음료식품 - 제과점"}]},{"lat":"37.356147329","long":"127.06805416","items":[{"name":"지승민 Pottery","tel":"02-794-0128","addr":"경기도 용인시 수지구 고기동 124번지","category":"주방용구 - 주방용식기"}]},{"lat":"37.368421624","long":"127.04197585","items":[{"name":"지유명차 용인수지점","tel":"031-262-8258","addr":"경기도 용인시 수지구 고기동 505번지","category":"음료식품 - 기타음료식품"}]},{"lat":"37.353229205","long":"127.0457716","items":[{"name":"쭈구리옷집","tel":"031-111-1111","addr":"경기도 용인시 수지구 고기동 372번지","category":"의류 - 정장"},{"name":"홍익음료","tel":"031-111-1111","addr":"경기도 용인시 수지구 고기동 372번지","category":"음료식품 - 기타음료식품"}]},{"lat":"37.356452512","long":"127.07013128","items":[{"name":"커피루툼","tel":"031-265-4141","addr":"경기도 용인시 수지구 고기동 141-1","category":"일반휴게음식 - 서양음식"}]},{"lat":"37.36145283","long":"127.05252649","items":[{"name":"케이씨","tel":"031-1544-4676","addr":"경기도 용인시 수지구 고기동 228-3번지 1층","category":"보건위생 - 의료용품"}]},{"lat":"37.355645916","long":"127.06204899","items":[{"name":"코나스(KSUYEON)","tel":"","addr":"경기도 용인시 수지구 고기동 213-70번지","category":"주방용구 - 정수기"}]},{"lat":"37.353668402","long":"127.07008365","items":[{"name":"코벤트가든","tel":"031-261-0504","addr":"경기도 용인시 수지구 고기동 30-77번지","category":"일반휴게음식 - 일반한식"}]},{"lat":"37.359037414","long":"127.05416161","items":[{"name":"쿠부스 주식회사","tel":"031-265-6488","addr":"경기도 용인시 수지구 고기동 215-1번지 1층","category":"일반휴게음식 - 서양음식"}]},{"lat":"37.357786368","long":"127.05090998","items":[{"name":"쿡(cook)치킨","tel":"031-262-6532","addr":"경기도 용인시 수지구 고기동 244-5번지 지하1층","category":"일반휴게음식 - 스넥"}]},{"lat":"37.363561745","long":"127.05121844","items":[{"name":"쿨(KUL)","tel":"070-7799-3022","addr":"경기도 용인시 수지구 고기동 477번지","category":"용역 서비스 - 사무서비스"}]},{"lat":"37.370027351","long":"127.0356434","items":[{"name":"키움애견스쿨","tel":"031-262-0922","addr":"경기도 용인시 수지구 고기동 519-1번지","category":"문화.취미 - 애완동물"}]},{"lat":"37.360009412","long":"127.05663429","items":[{"name":"테라스478","tel":"031-266-5758","addr":"경기도 용인시 수지구 고기동 223-3번지","category":"일반휴게음식 - 서양음식"}]},{"lat":"37.359703429","long":"127.05583264","items":[{"name":"파인하우스","tel":"031-263-4444","addr":"경기도 용인시 수지구 고기동 216-5번지","category":"일반휴게음식 - 서양음식"}]},{"lat":"37.359917577","long":"127.06032532","items":[{"name":"팜카밀레","tel":"031-265-3705","addr":"경기도 용인시 수지구 고기동 196-3번지","category":"신변잡화 - 기타잡화"},{"name":"팜카밀레가든인허브","tel":"031-265-3705","addr":"경기도 용인시 수지구 고기동 196-3번지","category":"신변잡화 - 기타잡화"}]},{"lat":"37.358668154","long":"127.05380015","items":[{"name":"퍼플래빗","tel":"031-777-1122","addr":"경기도 용인시 수지구 고기동 247-8번지 주2동 지1층","category":"음료식품 - 제과점"}]},{"lat":"37.358839225","long":"127.05408246","items":[{"name":"플라워14","tel":"031-276-9544","addr":"경기도 용인시 수지구 고기동 215번지 고기리노인회관","category":"문화.취미 - 화원"}]},{"lat":"37.360639348","long":"127.03355107","items":[{"name":"플레이스690","tel":"070-4112-0690","addr":"경기도 용인시 수지구 고기동 690-8번지","category":"일반휴게음식 - 서양음식"}]},{"lat":"37.358202069","long":"127.0672771","items":[{"name":"피아이에이학원","tel":"031-726-3988","addr":"경기도 용인시 수지구 고기동 107-1번지 1층일부 2층 3층 일부","category":"회원제형태 - 학원"}]},{"lat":"37.359925082","long":"127.041915","items":[{"name":"하늘애마음애","tel":"031-266-2232","addr":"경기도 용인시 수지구 고기동 445-12번지","category":"일반휴게음식 - 일반한식"}]},{"lat":"37.356974483","long":"127.05324593","items":[{"name":"해밀","tel":"031-285-5321","addr":"경기도 용인시 수지구 고기동 251-6번지 외5필지","category":"일반휴게음식 - 일반한식"}]},{"lat":"37.35839423","long":"127.06161093","items":[{"name":"향풍화원","tel":"031-263-0898","addr":"경기도 용인시 수지구 고기동 204-4번지","category":"문화.취미 - 화원"}]},{"lat":"37.360395436","long":"127.0596597","items":[{"name":"허브앤바움","tel":"","addr":"경기도 용인시 수지구 고기동 194-1번지","category":"일반휴게음식 - 서양음식"}]},{"lat":"37.361478407","long":"127.02888948","items":[{"name":"허브향기","tel":"031-266-0664","addr":"경기도 용인시 수지구 고기동 739-2번지","category":"일반휴게음식 - 일반한식"}]},{"lat":"37.355146472","long":"127.05071641","items":[{"name":"혜원","tel":"031-262-7306","addr":"경기도 용인시 수지구 고기동 265-16번지","category":"숙박업 - 여관/기타숙박업"}]},{"lat":"37.355092452","long":"127.0506148","items":[{"name":"혜원2","tel":"031-262-7306","addr":"경기도 용인시 수지구 고기동 265-15","category":"숙박업 - 여관/기타숙박업"}]},{"lat":"37.353370977","long":"127.0702414","items":[{"name":"홈씨앤에스","tel":"","addr":"경기도 용인시 수지구 고기동 40-19번지","category":"용역 서비스 - 기타용역서비스"}]},{"lat":"37.358064697","long":"127.05328052","items":[{"name":"홍대의coffee","tel":"","addr":"경기도 용인시 수지구 고기동 214번지","category":"음료식품 - 기타음료식품"},{"name":"홍대의coffee","tel":"","addr":"경기도 용인시 수지구 고기동 214번지 1층","category":"일반휴게음식 - 서양음식"}]},{"lat":"37.360368122","long":"127.06024664","items":[{"name":"홍재희 헤어","tel":"","addr":"경기도 용인시 수지구 고기동 194-2번지","category":"보건위생 - 미용원"},{"name":"화수분","tel":"031-264-7799","addr":"경기도 용인시 수지구 고기동 194-2번지","category":"일반휴게음식 - 일반한식"}]},{"lat":"37.359892403","long":"127.0563633","items":[{"name":"황토방펜션가든","tel":"031-262-0883","addr":"경기도 용인시 수지구 고기동 223번지","category":"일반휴게음식 - 일반한식"}]},{"lat":"37.359034929","long":"127.03583052","items":[{"name":"황토한옥펜션","tel":"031-265-1555","addr":"경기도 용인시 수지구 고기동 700-9번지 1층","category":"숙박업 - 여관/기타숙박업"}]},{"lat":"37.358365601","long":"127.06474884","items":[{"name":"흐르는 송어처럼","tel":"031-262-3235","addr":"경기도 용인시 수지구 고기동 208-7번지 1,2층","category":"일반휴게음식 - 일반한식"},{"name":"흐르는 송어처럼/골드앤골드주식회사","tel":"031-262-3235","addr":"경기도 용인시 수지구 고기동 208-7번지","category":"일반휴게음식 - 일반한식"},{"name":"흐르는송어처럼/골드앤골드주식회사","tel":"031-262-3235","addr":"경기도 용인시 수지구 고기동 208-7번지","category":"일반휴게음식 - 일반한식"}]},{"lat":"37.355200764","long":"127.05014081","items":[{"name":"힐링숲","tel":"031-276-4433","addr":"경기도 용인시 수지구 고기동 259-1번지","category":"숙박업 - 여관/기타숙박업"}]},{"lat":"37.35158668","long":"127.05261029","items":[{"name":"힐포인트키친","tel":"","addr":"경기도 용인시 수지구 고기동 346번지 외4필지","category":"레져용품 - 스포츠·레져용품"}]}]