[{"lat":"37.215979895","long":"127.56575362","items":[{"name":"(주)코폼인터내셔널","tel":"031-767-0890","addr":"경기도 여주시 가남읍 삼군리 448-2번지","category":"가구 - 일반가구"}]},{"lat":"37.223924079","long":"127.55872551","items":[{"name":"GS25여주백년점","tel":"","addr":"경기도 여주시 가남읍 삼군리 215-3번지","category":"유통업 영리 - 편 의 점"},{"name":"백년식당","tel":"031-884-2216","addr":"경기도 여주시 가남읍 삼군리 215-3번지 1층","category":"일반휴게음식 - 일반한식"}]},{"lat":"37.215252262","long":"127.55764795","items":[{"name":"가남냉동","tel":"031-884-4986","addr":"경기도 여주시 가남읍 삼군리 561-7번지","category":"전기제품 - 냉열기기"},{"name":"경기종합냉동설비","tel":"031-882-2070","addr":"경기도 여주시 가남읍 삼군리 561-7번지","category":"용역 서비스 - 기타용역서비스"}]},{"lat":"37.221804651","long":"127.55723399","items":[{"name":"가남신한폐차장","tel":"031-884-6644","addr":"경기도 여주시 가남읍 삼군리 292-6번지","category":"기타 - 기계공구"}]},{"lat":"37.222916975","long":"127.55828997","items":[{"name":"경기순대국해장국","tel":"031-884-8220","addr":"경기도 여주시 가남읍 삼군리 335-1번지","category":"일반휴게음식 - 일반한식"}]},{"lat":"37.212589903","long":"127.55664835","items":[{"name":"구좌리얼크니손칼국수","tel":"031-882-3903","addr":"경기도 여주시 가남읍 삼군리 565-3번지","category":"일반휴게음식 - 일반한식"}]},{"lat":"37.221640062","long":"127.56728292","items":[{"name":"국민해장국","tel":"031-883-9833","addr":"경기도 여주시 가남읍 삼군리 424-2번지 1층","category":"일반휴게음식 - 일반한식"}]},{"lat":"37.221584139","long":"127.56197576","items":[{"name":"기산산업개발","tel":"031-883-2223","addr":"경기도 여주시 가남읍 삼군리 354-2번지","category":"건축자재 - 목재·석재·철물"}]},{"lat":"37.224448729","long":"127.56020539","items":[{"name":"남도정","tel":"031-881-0116","addr":"경기도 여주시 가남읍 삼군리 199-2번지","category":"일반휴게음식 - 일반한식"}]},{"lat":"37.224944051","long":"127.55833864","items":[{"name":"로뎀나무어린이집[아이행복]","tel":"031-882-0015","addr":"경기도 여주시 가남읍 삼군리 216-2번지","category":"학원 - 유아원"}]},{"lat":"37.215778003","long":"127.55697583","items":[{"name":"마당집","tel":"031-884-2883","addr":"경기도 여주시 가남읍 삼군리 556-3번지","category":"일반휴게음식 - 일반한식"}]},{"lat":"37.216057153","long":"127.55701167","items":[{"name":"베드로자동차공업사","tel":"031-881-4787","addr":"경기도 여주시 가남읍 삼군리 554-4번지","category":"자동차정비 유지 - 자동차정비"}]},{"lat":"37.22858992","long":"127.55711463","items":[{"name":"삼일맨홀콘크리트","tel":"","addr":"경기도 여주시 가남읍 삼군리 188-18번지","category":"건축자재 - 기타건축자재"}]},{"lat":"37.221668099","long":"127.56136797","items":[{"name":"삼한식품","tel":"031-882-2873","addr":"경기도 여주시 가남읍 삼군리 355-3번지","category":"음료식품 - 기타음료식품"}]},{"lat":"37.222861383","long":"127.55861631","items":[{"name":"세븐일레븐여주삼군사거리점","tel":"","addr":"경기도 여주시 가남읍 삼군리 335-11번지","category":"유통업 영리 - 편 의 점"}]},{"lat":"37.217560865","long":"127.55722547","items":[{"name":"송어횟집","tel":"031-883-5166","addr":"경기도 여주시 가남읍 삼군리 546-5번지","category":"일반휴게음식 - 일반한식"}]},{"lat":"37.222339292","long":"127.56042648","items":[{"name":"수연 잣두부","tel":"031-886-1072","addr":"경기도 여주시 가남읍 삼군리 356-1번지 2동 1층","category":"일반휴게음식 - 일반한식"}]},{"lat":"37.224701522","long":"127.55817912","items":[{"name":"심광섭동게자","tel":"031-883-4016","addr":"경기도 여주시 가남읍 삼군리 217-1번지","category":"음료식품 - 기타음료식품"},{"name":"아우라 AURA","tel":"031-881-4264","addr":"경기도 여주시 가남읍 삼군리 217-1번지","category":"문화.취미 - 수족관"},{"name":"참좋은 방앗간","tel":"031-883-8155","addr":"경기도 여주시 가남읍 삼군리 217-1번지","category":"음료식품 - 기타음료식품"},{"name":"캘리코피아(CALICOPIA)","tel":"","addr":"경기도 여주시 가남읍 삼군리 217-1번지","category":"문화.취미 - 수족관"}]},{"lat":"37.225254585","long":"127.55936626","items":[{"name":"씨엔바텍","tel":"031-574-2515","addr":"경기도 여주시 가남읍 삼군리 216-6번지","category":"농업 - 비료,사료,종자"}]},{"lat":"37.224558703","long":"127.55981184","items":[{"name":"어가명가","tel":"031-886-0600","addr":"경기도 여주시 가남읍 삼군리 198-4번지","category":"일반휴게음식 - 일반한식"}]},{"lat":"37.231251958","long":"127.55625518","items":[{"name":"엘가든","tel":"031-882-3058","addr":"경기도 여주시 가남읍 삼군리 77번지","category":"일반휴게음식 - 일반한식"}]},{"lat":"37.222200219","long":"127.55934382","items":[{"name":"예가낙지마을","tel":"031-883-7789","addr":"경기도 여주시 가남읍 삼군리 336-2번지","category":"일반휴게음식 - 일반한식"}]},{"lat":"37.22880456","long":"127.56320094","items":[{"name":"유진컨테이너","tel":"031-884-4979","addr":"경기도 여주시 가남읍 삼군리 8번지","category":"건축자재 - 기타건축자재"}]},{"lat":"37.221145527","long":"127.56517232","items":[{"name":"이천콘크리트","tel":"031-883-4173","addr":"경기도 여주시 가남읍 삼군리 417-2번지","category":"건축자재 - 기타건축자재"}]},{"lat":"37.221667835","long":"127.56523253","items":[{"name":"정안지게차공업사","tel":"031-882-9803","addr":"경기도 여주시 가남읍 삼군리 423-1번지","category":"자동차정비 유지 - 자동차정비"}]},{"lat":"37.226447033","long":"127.55678345","items":[{"name":"주식회사 뒤에있다","tel":"070-4239-4007","addr":"경기도 여주시 가남읍 삼군리 236-1번지","category":"건축자재 - 인테리어전문"}]},{"lat":"37.221027703","long":"127.56150971","items":[{"name":"최고집농원","tel":"031-882-3442","addr":"경기도 여주시 가남읍 삼군리 산24-5번지","category":"음료식품 - 농·축·수산품"}]},{"lat":"37.227001496","long":"127.5615087","items":[{"name":"태양안전","tel":"031-884-1114","addr":"경기도 여주시 가남읍 삼군리 23번지","category":"기타 - 기계공구"}]},{"lat":"37.217534994","long":"127.55697742","items":[{"name":"태인공구","tel":"031-883-0945","addr":"경기도 여주시 가남읍 삼군리 546-6번지","category":"기타 - 기계공구"}]},{"lat":"37.213806141","long":"127.55667977","items":[{"name":"한국종합건재","tel":"031-883-6833","addr":"경기도 여주시 가남읍 삼군리 562-9번지","category":"건축자재 - 기타건축자재"}]},{"lat":"37.224111669","long":"127.55714946","items":[{"name":"한마당 대왕갈비","tel":"031-884-8843","addr":"경기도 여주시 가남읍 삼군리 224-5번지 1층","category":"일반휴게음식 - 일반한식"}]},{"lat":"37.224500309","long":"127.55689316","items":[{"name":"현대가든","tel":"031-881-5292","addr":"경기도 여주시 가남읍 삼군리 224-1번지","category":"일반휴게음식 - 일반한식"}]},{"lat":"37.220027343","long":"127.55964333","items":[{"name":"희망농원","tel":"031-882-2966","addr":"경기도 여주시 가남읍 삼군리 376-7번지","category":"음료식품 - 농·축·수산품"}]}]