[{"lat":"38.031596579","long":"127.36625753","imageIndex":4,"items":[{"name":"111커피","tel":"031-941-0174","addr":"경기도 포천시 이동면 장암리 242-16번지 1층","indutype":"일반휴게음식 - 서양음식","category":"restaurant"},{"name":"111커피","tel":"-","addr":"경기도 포천시 이동면 장암리 242-16번지","indutype":"음식 - 커피 등","category":"restaurant"}]},{"lat":"38.035235412","long":"127.36652609","imageIndex":4,"items":[{"name":"3Story","tel":"532-4321","addr":"경기도 포천시 이동면 장암리 510-3번지","indutype":"음식 - 커피 등","category":"restaurant"},{"name":"쓰리스토리","tel":"031-532-4321","addr":"경기도 포천시 이동면 장암리 510-3번지","indutype":"일반휴게음식 - 서양음식","category":"restaurant"},{"name":"쓰리스토리","tel":"031-532-4321","addr":"경기도 포천시 이동면 장암리 510-3번지","indutype":"일반휴게음식 - 서양음식","category":"restaurant"}]},{"lat":"38.032875178","long":"127.36648026","imageIndex":4,"items":[{"name":"6870대패부대","tel":"031-532-1896","addr":"경기도 포천시 이동면 장암리 218-1번지","indutype":"일반휴게음식 - 일반한식","category":"restaurant"}]},{"lat":"38.036180327","long":"127.3668611","imageIndex":4,"items":[{"name":"가나안제과","tel":"532-4290","addr":"경기도 포천시 이동면 장암리 504-23번지","indutype":"음식 - 제과","category":"restaurant"},{"name":"소화중식","tel":"","addr":"경기도 포천시 이동면 장암리 504-23번지 1층","indutype":"일반휴게음식 - 중국식","category":"restaurant"}]},{"lat":"38.026317768","long":"127.36899902","imageIndex":4,"items":[{"name":"갈비명가 할머니집","tel":"031-531-1700","addr":"경기도 포천시 이동면 장암리 278-7번지","indutype":"일반휴게음식 - 일반한식","category":"restaurant"},{"name":"갈비명가할머니집","tel":"531-1700","addr":"경기도 포천시 이동면 장암리 278-7번지","indutype":"음식 - 한식","category":"restaurant"}]},{"lat":"38.053005328","long":"127.3472226","imageIndex":4,"items":[{"name":"고개마루","tel":"031-531-5707","addr":"경기도 포천시 이동면 장암리 716-7번지 외1필지","indutype":"일반휴게음식 - 일반한식","category":"restaurant"}]},{"lat":"38.035065158","long":"127.3662291","imageIndex":4,"items":[{"name":"김근자할머니","tel":"531-2157","addr":"경기도 포천시 이동면 장암리 477-22번지","indutype":"음식 - 한식","category":"restaurant"}]},{"lat":"38.034983056","long":"127.36655902","imageIndex":4,"items":[{"name":"김밥천국이동점","tel":"533-1950","addr":"경기도 포천시 이동면 장암리 510-25번지","indutype":"음식 - 분식","category":"restaurant"}]},{"lat":"38.036125744","long":"127.36703169","imageIndex":4,"items":[{"name":"꿀꿀이네뒷고기","tel":"031-533-7775","addr":"경기도 포천시 이동면 장암리 504-22번지","indutype":"일반휴게음식 - 일반한식","category":"restaurant"},{"name":"시골집","tel":"031-532-2173","addr":"경기도 포천시 이동면 장암리 504-22번지","indutype":"일반휴게음식 - 일반한식","category":"restaurant"}]},{"lat":"38.035091339","long":"127.3665026","imageIndex":4,"items":[{"name":"네네치킨","tel":"031-531-9289","addr":"경기도 포천시 이동면 장암리 510-13번지","indutype":"일반휴게음식 - 스넥","category":"restaurant"},{"name":"네네치킨 이동점","tel":"531-9289","addr":"경기도 포천시 이동면 장암리 510-13번지","indutype":"음식 - 치킨등","category":"restaurant"},{"name":"피자에땅","tel":"031-532-9219","addr":"경기도 포천시 이동면 장암리 510-13번지","indutype":"일반휴게음식 - 서양음식","category":"restaurant"},{"name":"피자에땅 이동점","tel":"531-9289","addr":"경기도 포천시 이동면 장암리 510-13번지","indutype":"음식 - 피자 등","category":"restaurant"}]},{"lat":"38.036371909","long":"127.36608748","imageIndex":4,"items":[{"name":"느티나무갈비","tel":"031-532-4454","addr":"경기도 포천시 이동면 장암리 477-1번지","indutype":"일반휴게음식 - 갈비전문점","category":"restaurant"},{"name":"페리카나양념통닭","tel":"031-532-8908","addr":"경기도 포천시 이동면 장암리 477-1번지","indutype":"일반휴게음식 - 스넥","category":"restaurant"}]},{"lat":"38.035207151","long":"127.36692462","imageIndex":4,"items":[{"name":"닭막","tel":"531-1769","addr":"경기도 포천시 이동면 장암리 511-5번지","indutype":"음식 - 한식","category":"restaurant"},{"name":"닭막","tel":"031-531-1769","addr":"경기도 포천시 이동면 장암리 511-5번지","indutype":"일반휴게음식 - 일반한식","category":"restaurant"}]},{"lat":"38.036818831","long":"127.36722876","imageIndex":4,"items":[{"name":"매일식당","tel":"532-4688","addr":"경기도 포천시 이동면 장암리 481-29번지","indutype":"음식 - 한식","category":"restaurant"}]},{"lat":"38.034071921","long":"127.36695318","imageIndex":4,"items":[{"name":"명성한식","tel":"031-532-4335","addr":"경기도 포천시 이동면 장암리 214-8번지","indutype":"일반휴게음식 - 일반한식","category":"restaurant"}]},{"lat":"38.031758846","long":"127.36622416","imageIndex":4,"items":[{"name":"미미향","tel":"031-532-4331","addr":"경기도 포천시 이동면 장암리 242-15","indutype":"일반휴게음식 - 중국식","category":"restaurant"},{"name":"미미향","tel":"532-4331","addr":"경기도 포천시 이동면 장암리 242-15번지","indutype":"음식 - 중식","category":"restaurant"}]},{"lat":"38.031487099","long":"127.36670119","imageIndex":4,"items":[{"name":"본도시락(포천이동점)","tel":"031-532-4288","addr":"경기도 포천시 이동면 장암리 240-22번지 1층","indutype":"일반휴게음식 - 일반한식","category":"restaurant"},{"name":"이디야(포천이동점)","tel":"031-532-7717","addr":"경기도 포천시 이동면 장암리 240-22번지","indutype":"일반휴게음식 - 서양음식","category":"restaurant"}]},{"lat":"38.030515261","long":"127.36633191","imageIndex":4,"items":[{"name":"본스치킨이동점","tel":"031-532-8804","addr":"경기도 포천시 이동면 장암리 242-2번지","indutype":"일반휴게음식 - 스넥","category":"restaurant"}]},{"lat":"38.035288761","long":"127.36675417","imageIndex":4,"items":[{"name":"비비큐","tel":"031-531-9262","addr":"경기도 포천시 이동면 장암리 510-1","indutype":"일반휴게음식 - 주점","category":"restaurant"}]},{"lat":"38.032844308","long":"127.36480575","imageIndex":4,"items":[{"name":"산장갈비","tel":"532-8953","addr":"경기도 포천시 이동면 장암리 473-1번지","indutype":"음식 - 한식","category":"restaurant"}]},{"lat":"38.02603881","long":"127.36889513","imageIndex":4,"items":[{"name":"소문난이동갈비","tel":"031-531-0721","addr":"경기도 포천시 이동면 장암리 278-3번지","indutype":"일반휴게음식 - 일반한식","category":"restaurant"}]},{"lat":"38.030398519","long":"127.38330212","imageIndex":4,"items":[{"name":"수중궁갈비","tel":"531-3333","addr":"경기도 포천시 이동면 장암리 35-2번지","indutype":"음식 - 한식","category":"restaurant"}]},{"lat":"38.037314499","long":"127.36717426","imageIndex":4,"items":[{"name":"숯불막창구이","tel":"","addr":"경기도 포천시 이동면 장암리 479-8번지","indutype":"일반휴게음식 - 일반한식","category":"restaurant"},{"name":"숯불막창구이","tel":"","addr":"경기도 포천시 이동면 장암리 479-8번지","indutype":"음식 - 한식","category":"restaurant"},{"name":"옛날잔치국수","tel":"031-536-5386","addr":"경기도 포천시 이동면 장암리 479-8번지","indutype":"일반휴게음식 - 일반한식","category":"restaurant"}]},{"lat":"38.035819688","long":"127.36695044","imageIndex":4,"items":[{"name":"아우네순대국","tel":"031-532-3733","addr":"경기도 포천시 이동면 장암리 507-9(제374호)1층","indutype":"일반휴게음식 - 일반한식","category":"restaurant"}]},{"lat":"38.051065102","long":"127.34834141","imageIndex":4,"items":[{"name":"여우재산장","tel":"531-4471","addr":"경기도 포천시 이동면 장암리 716-96번지","indutype":"음식 - 펜션","category":"restaurant"},{"name":"여우재산장","tel":"531-4471","addr":"경기도 포천시 이동면 장암리 716-96번지","indutype":"음식 - 음식","category":"restaurant"}]},{"lat":"38.051010479","long":"127.34853484","imageIndex":4,"items":[{"name":"여우재산장","tel":"031-531-4471","addr":"경기도 포천시 이동면 장암리 716-38번지","indutype":"일반휴게음식 - 일반한식","category":"restaurant"}]},{"lat":"38.035675651","long":"127.36691555","imageIndex":4,"items":[{"name":"영식당","tel":"031-532-1691","addr":"경기도 포천시 이동면 장암리 507-12번지","indutype":"일반휴게음식 - 일반한식","category":"restaurant"}]},{"lat":"38.035486604","long":"127.36686905","imageIndex":4,"items":[{"name":"우리식당","tel":"031-531-4550","addr":"경기도 포천시 이동면 장암리 507-15","indutype":"일반휴게음식 - 일반한식","category":"restaurant"}]},{"lat":"38.024012047","long":"127.36880533","imageIndex":4,"items":[{"name":"우목청","tel":"532-5167","addr":"경기도 포천시 이동면 장암리 283번지","indutype":"음식 - 한식","category":"restaurant"}]},{"lat":"38.033597477","long":"127.36597126","imageIndex":4,"items":[{"name":"원조포천이동갈비","tel":"031-533-3807","addr":"경기도 포천시 이동면 장암리 216-7번지","indutype":"일반휴게음식 - 갈비전문점","category":"restaurant"}]},{"lat":"38.035848441","long":"127.36639244","imageIndex":4,"items":[{"name":"웰덤치킨포천이동점","tel":"031-533-9266","addr":"경기도 포천시 이동면 장암리 477-14번지","indutype":"일반휴게음식 - 일반한식","category":"restaurant"},{"name":"웰덤치킨포천이동점","tel":"533-9266","addr":"경기도 포천시 이동면 장암리 477-14번지","indutype":"음식 - 치킨등","category":"restaurant"}]},{"lat":"38.038709469","long":"127.36763682","imageIndex":4,"items":[{"name":"유성냉면 전주가","tel":"535-1199","addr":"경기도 포천시 이동면 장암리 610-9번지","indutype":"음식 - 한식","category":"restaurant"},{"name":"유성냉면전주   (가)","tel":"031-535-1199","addr":"경기도 포천시 이동면 장암리 610-9번지 2층 지상과직접접하는호","indutype":"일반휴게음식 - 일반한식","category":"restaurant"}]},{"lat":"38.043728755","long":"127.37300449","imageIndex":4,"items":[{"name":"이동강변갈비유원지","tel":"031-532-6988","addr":"경기도 포천시 이동면 장암리 628-8번지","indutype":"일반휴게음식 - 일반한식","category":"restaurant"},{"name":"이동강변갈비유원지","tel":"532-6988","addr":"경기도 포천시 이동면 장암리 628-8번지","indutype":"음식 - 한식","category":"restaurant"}]},{"lat":"38.038233328","long":"127.3642855","imageIndex":4,"items":[{"name":"이동백연갈비","tel":"031-531-0472","addr":"경기도 포천시 이동면 장암리 산193-2번지","indutype":"일반휴게음식 - 일반한식","category":"restaurant"}]},{"lat":"38.036037453","long":"127.36645033","imageIndex":4,"items":[{"name":"이동부산갈비","tel":"532-4578","addr":"경기도 포천시 이동면 장암리 477-12번지","indutype":"음식 - 한식","category":"restaurant"}]},{"lat":"38.036369408","long":"127.3668962","imageIndex":4,"items":[{"name":"이동뼈해장국","tel":"031-534-4827","addr":"경기도 포천시 이동면 장암리 504-15번지","indutype":"일반휴게음식 - 일반한식","category":"restaurant"}]},{"lat":"38.037035575","long":"127.36705897","imageIndex":4,"items":[{"name":"이동스크린 골프","tel":"531-7770","addr":"경기도 포천시 이동면 장암리 480-2번지","indutype":"음식 - 한식","category":"restaurant"}]},{"lat":"38.037900608","long":"127.3670063","imageIndex":4,"items":[{"name":"이동원주갈비","tel":"532-4786","addr":"경기도 포천시 이동면 장암리 477-4번지","indutype":"음식 - 한식","category":"restaurant"},{"name":"이동원주갈비","tel":"031-532-4786","addr":"경기도 포천시 이동면 장암리 477-4번지","indutype":"일반휴게음식 - 일반한식","category":"restaurant"}]},{"lat":"38.035064911","long":"127.36630883","imageIndex":4,"items":[{"name":"이동전주갈비","tel":"031-532-4562","addr":"경기도 포천시 이동면 장암리 510번지","indutype":"일반휴게음식 - 갈비전문점","category":"restaurant"},{"name":"제일갈비","tel":"031-531-2157","addr":"경기도 포천시 이동면 장암리 510번지","indutype":"일반휴게음식 - 갈비전문점","category":"restaurant"}]},{"lat":"38.023678858","long":"127.36875812","imageIndex":4,"items":[{"name":"이동정원갈비","tel":"533-0616","addr":"경기도 포천시 이동면 장암리 283-3번지","indutype":"음식 - 한식","category":"restaurant"}]},{"lat":"38.036566687","long":"127.36719334","imageIndex":4,"items":[{"name":"이동포장마차","tel":"531-2086","addr":"경기도 포천시 이동면 장암리 504-6번지","indutype":"음식 - 한식","category":"restaurant"},{"name":"이동포차","tel":"031-531-7698","addr":"경기도 포천시 이동면 장암리 504-6번지","indutype":"일반휴게음식 - 일반한식","category":"restaurant"}]},{"lat":"38.03801557","long":"127.36770172","imageIndex":4,"items":[{"name":"이맛치킨","tel":"031-531-5357","addr":"경기도 포천시 이동면 장암리 483-1","indutype":"일반휴게음식 - 스넥","category":"restaurant"}]},{"lat":"38.036873485","long":"127.36703539","imageIndex":4,"items":[{"name":"이모네순대국","tel":"031-535-0825","addr":"경기도 포천시 이동면 장암리 480-6번지","indutype":"일반휴게음식 - 일반한식","category":"restaurant"}]},{"lat":"38.036368809","long":"127.36708984","imageIndex":4,"items":[{"name":"일월","tel":"031-536-2061","addr":"경기도 포천시 이동면 장암리 504-14번지","indutype":"일반휴게음식 - 중국식","category":"restaurant"},{"name":"일월","tel":"536-2061","addr":"경기도 포천시 이동면 장암리 504-14번지","indutype":"음식 - 중식","category":"restaurant"}]},{"lat":"38.037232642","long":"127.36742446","imageIndex":4,"items":[{"name":"입에불붙는닭","tel":"031-532-8092","addr":"경기도 포천시 이동면 장암리 481-3번지","indutype":"일반휴게음식 - 일반한식","category":"restaurant"}]},{"lat":"38.035071524","long":"127.36708342","imageIndex":4,"items":[{"name":"족발애","tel":"031-532-7701","addr":"경기도 포천시 이동면 장암리 511-7번지 1층","indutype":"일반휴게음식 - 일반한식","category":"restaurant"},{"name":"족발애","tel":"532-7701","addr":"경기도 포천시 이동면 장암리 511-7번지","indutype":"음식 - 한식","category":"restaurant"}]},{"lat":"38.036233851","long":"127.36703222","imageIndex":4,"items":[{"name":"종가집한상가득","tel":"532-2421","addr":"경기도 포천시 이동면 장암리 504-17번지","indutype":"음식 - 한식","category":"restaurant"},{"name":"종가집한상가득","tel":"031-532-2421","addr":"경기도 포천시 이동면 장암리 504-17번지","indutype":"일반휴게음식 - 일반한식","category":"restaurant"}]},{"lat":"38.037456769","long":"127.36777868","imageIndex":4,"items":[{"name":"짱24시 짬뽕&수제돈까스","tel":"031-532-8211","addr":"경기도 포천시 이동면 장암리 482-2번지 1층","indutype":"일반휴게음식 - 중국식","category":"restaurant"}]},{"lat":"38.035206657","long":"127.36708409","imageIndex":4,"items":[{"name":"친구","tel":"031-532-1791","addr":"경기도 포천시 이동면 장암리 511-1번지","indutype":"일반휴게음식 - 일반한식","category":"restaurant"}]},{"lat":"38.037007595","long":"127.36736639","imageIndex":4,"items":[{"name":"카지노보드까페","tel":"","addr":"경기도 포천시 이동면 장암리 481-24번지 2층","indutype":"일반휴게음식 - 일반한식","category":"restaurant"}]},{"lat":"38.037709476","long":"127.37052515","imageIndex":4,"items":[{"name":"테라스","tel":"","addr":"경기도 포천시 이동면 장암리 489번지 1층","indutype":"일반휴게음식 - 서양음식","category":"restaurant"}]},{"lat":"38.035650421","long":"127.36633451","imageIndex":4,"items":[{"name":"페리카나 양념통닭","tel":"532-8908","addr":"경기도 포천시 이동면 장암리 477-15번지","indutype":"음식 - 한식","category":"restaurant"}]},{"lat":"38.035539388","long":"127.36727938","imageIndex":4,"items":[{"name":"포세이돈","tel":"070-8152-8977","addr":"경기도 포천시 이동면 장암리 503-15번지","indutype":"일반휴게음식 - 주점","category":"restaurant"}]},{"lat":"38.034981505","long":"127.36706019","imageIndex":4,"items":[{"name":"풍미식당","tel":"532-4314","addr":"경기도 포천시 이동면 장암리 511-8번지","indutype":"음식 - 한식","category":"restaurant"},{"name":"풍미식당","tel":"031-532-4314","addr":"경기도 포천시 이동면 장암리 511-8번지","indutype":"일반휴게음식 - 일반한식","category":"restaurant"}]},{"lat":"38.034099477","long":"127.36678246","imageIndex":4,"items":[{"name":"피자나라치킨공주","tel":"031-533-9230","addr":"경기도 포천시 이동면 장암리 214-28번지 1층","indutype":"일반휴게음식 - 서양음식","category":"restaurant"}]},{"lat":"38.039235185","long":"127.36950757","imageIndex":4,"items":[{"name":"항아리갈비탕","tel":"031-527-0482","addr":"경기도 포천시 이동면 장암리 590번지","indutype":"일반휴게음식 - 일반한식","category":"restaurant"}]},{"lat":"38.032710436","long":"127.36439504","imageIndex":4,"items":[{"name":"향유갈비","tel":"534-9770","addr":"경기도 포천시 이동면 장암리 471-2번지","indutype":"음식 - 한식","category":"restaurant"}]},{"lat":"38.03850961","long":"127.3681712","imageIndex":17,"items":[{"name":"CU포천장암점","tel":"533-2887","addr":"경기도 포천시 이동면 장암리 606-2번지 1층","indutype":"소매업 - 편의점","category":"other"},{"name":"씨유포천장암점","tel":"031-533-2887","addr":"경기도 포천시 이동면 장암리 606-2번지 1층","indutype":"유통업 영리 - 편 의 점","category":"other"}]},{"lat":"38.043561959","long":"127.3744732","imageIndex":17,"items":[{"name":"가든블루","tel":"031-969-2986","addr":"경기도 포천시 이동면 장암리 636-12번지 1층","indutype":"농업 - 비료,사료,종자","category":"other"}]},{"lat":"38.036674795","long":"127.36719388","imageIndex":17,"items":[{"name":"경기판넬건재","tel":"","addr":"경기도 포천시 이동면 장암리 504-4번지 2층","indutype":"건축자재 - 기타건축자재","category":"other"},{"name":"팔복철물점","tel":"031-532-4448","addr":"경기도 포천시 이동면 장암리 504-4번지","indutype":"기타 - 기계공구","category":"other"}]},{"lat":"38.035063185","long":"127.36686696","imageIndex":17,"items":[{"name":"경북기름","tel":"531-4314","addr":"경기도 포천시 이동면 장암리 511-18번지","indutype":"소매업 - 에너지","category":"other"}]},{"lat":"38.034541513","long":"127.36659101","imageIndex":17,"items":[{"name":"동아전기공사","tel":"031-532-4309","addr":"경기도 포천시 이동면 장암리 213-5번지","indutype":"용역 서비스 - 기타용역서비스","category":"other"}]},{"lat":"38.035901967","long":"127.36656356","imageIndex":17,"items":[{"name":"새한칼라스튜디오","tel":"031-532-4329","addr":"경기도 포천시 이동면 장암리 477-27번지","indutype":"광학제품 - 사진관","category":"other"}]},{"lat":"38.035675827","long":"127.3668586","imageIndex":17,"items":[{"name":"선물나라","tel":"031-534-4097","addr":"경기도 포천시 이동면 장암리 508-4","indutype":"신변잡화 - 기념품점","category":"other"},{"name":"전우사","tel":"031-534-1320","addr":"경기도 포천시 이동면 장암리 508-4번지","indutype":"서적문구 - 문구용품","category":"other"}]},{"lat":"38.035487485","long":"127.36658429","imageIndex":17,"items":[{"name":"세븐일레븐이동터미널점","tel":"532-4423","addr":"경기도 포천시 이동면 장암리 508-6번지","indutype":"서비스 - 담배.음료","category":"other"}]},{"lat":"38.03736961","long":"127.36683281","imageIndex":17,"items":[{"name":"승진건재","tel":"031-532-4846","addr":"경기도 포천시 이동면 장암리 477-6","indutype":"건축자재 - 기타건축자재","category":"other"}]},{"lat":"38.035541433","long":"127.36661873","imageIndex":17,"items":[{"name":"신우상패","tel":"031-534-2938","addr":"경기도 포천시 이동면 장암리 508-5","indutype":"신변잡화 - 기념품점","category":"other"}]},{"lat":"38.033371127","long":"127.36633463","imageIndex":17,"items":[{"name":"씨유포천이동점","tel":"031-533-4674","addr":"경기도 포천시 이동면 장암리 215-13번지 1층","indutype":"유통업 영리 - 편 의 점","category":"other"}]},{"lat":"38.037648534","long":"127.3669481","imageIndex":17,"items":[{"name":"알파문구 포천이동점","tel":"532-4846","addr":"경기도 포천시 이동면 장암리 477-5번지","indutype":"도소매 - 문구","category":"other"},{"name":"알파문구포천이동점(정장철물)","tel":"031-532-4846","addr":"경기도 포천시 이동면 장암리 477-5번지","indutype":"서적문구 - 문구용품","category":"other"}]},{"lat":"38.035099573","long":"127.36675323","imageIndex":17,"items":[{"name":"열린치과","tel":"532-7528","addr":"경기도 포천시 이동면 장암리 510-6번지","indutype":"보건업 - 치과","category":"other"}]},{"lat":"38.036648544","long":"127.36694315","imageIndex":17,"items":[{"name":"우리홈마트","tel":"533-5633","addr":"경기도 포천시 이동면 장암리 505-1번지","indutype":"도소매 - 잡화","category":"other"}]},{"lat":"38.03439737","long":"127.36659029","imageIndex":17,"items":[{"name":"워시프렌즈 셀프빨래방 포천시 이동면점","tel":"","addr":"경기도 포천시 이동면 장암리 213-7번지","indutype":"수리서비스 - 세탁소","category":"other"}]},{"lat":"38.037565901","long":"127.36744889","imageIndex":17,"items":[{"name":"이동건축","tel":"031-535-0405","addr":"경기도 포천시 이동면 장암리 483-21번지","indutype":"건축자재 - 인테리어전문","category":"other"}]},{"lat":"38.031148186","long":"127.36849912","imageIndex":17,"items":[{"name":"이동면주미자치센터","tel":"538-4598","addr":"경기도 포천시 이동면 장암리 232-1번지","indutype":"주민자치센터 - 주민자치센터","category":"other"}]},{"lat":"38.037035575","long":"127.36705897","imageIndex":17,"items":[{"name":"이동스크린골프","tel":"031-531-7770","addr":"경기도 포천시 이동면 장암리 480-2번지","indutype":"회원제형태 - 레져업소","category":"other"}]},{"lat":"38.04181308","long":"127.37196961","imageIndex":17,"items":[{"name":"이동오토바이","tel":"031-533-4966","addr":"경기도 포천시 이동면 장암리 632-5번지","indutype":"수리서비스 - 레져용품수리","category":"other"}]},{"lat":"38.034982633","long":"127.3666957","imageIndex":17,"items":[{"name":"이동의원","tel":"531-7598","addr":"경기도 포천시 이동면 장암리 510-7번지 2층","indutype":"보건업 - 내과","category":"other"}]},{"lat":"38.035180653","long":"127.36675363","imageIndex":17,"items":[{"name":"전우사(이동)","tel":"534-1320","addr":"경기도 포천시 이동면 장암리 511-4번지","indutype":"도소매 - 문구","category":"other"}]},{"lat":"38.047317171","long":"127.36922888","imageIndex":17,"items":[{"name":"캠핑라운지","tel":"031-533-4145","addr":"경기도 포천시 이동면 장암리 650-5,651-3,651","indutype":"레져용품 - 스포츠·레져용품","category":"other"}]},{"lat":"38.036180327","long":"127.3668611","imageIndex":17,"items":[{"name":"포천이동갈비직판장","tel":"533-5242","addr":"경기도 포천시 이동면 장암리 504-23번지","indutype":"도소매 - 축산물","category":"other"}]},{"lat":"38.031459649","long":"127.36683774","imageIndex":17,"items":[{"name":"포천이동우체국","tel":"031-532-4500","addr":"경기도 포천시 이동면 장암리 240-23번지","indutype":"용역 서비스 - 공공요금대행서비스/소","category":"other"}]},{"lat":"38.032154288","long":"127.36653364","imageIndex":7,"items":[{"name":"us보따리","tel":"031-532-6757","addr":"경기도 포천시 이동면 장암리 238-3번지","indutype":"음료식품 - 기타음료식품","category":"food"}]},{"lat":"38.036180327","long":"127.3668611","imageIndex":7,"items":[{"name":"가나안제과점","tel":"031-532-4290","addr":"경기도 포천시 이동면 장암리 504-23번지","indutype":"음료식품 - 제과점","category":"food"}]},{"lat":"38.028619534","long":"127.38181229","imageIndex":7,"items":[{"name":"기상사삼공 영농조합법인","tel":"031-533-4015","addr":"경기도 포천시 이동면 장암리 170번지","indutype":"음료식품 - 농·축·수산품","category":"food"}]},{"lat":"38.03092932","long":"127.36644786","imageIndex":7,"items":[{"name":"대덕슈퍼","tel":"031-532-9617","addr":"경기도 포천시 이동면 장암리 242-21번지","indutype":"음료식품 - 기타음료식품","category":"food"}]},{"lat":"38.037818151","long":"127.36745014","imageIndex":7,"items":[{"name":"백연식품","tel":"031-531-0472","addr":"경기도 포천시 이동면 장암리 483-5번지","indutype":"음료식품 - 기타음료식품","category":"food"}]},{"lat":"38.034676506","long":"127.36663724","imageIndex":7,"items":[{"name":"양구상회","tel":"031-532-4336","addr":"경기도 포천시 이동면 장암리 213-1","indutype":"음료식품 - 미곡상","category":"food"}]},{"lat":"38.036791487","long":"127.36733114","imageIndex":7,"items":[{"name":"영일농원","tel":"031-533-4938","addr":"경기도 포천시 이동면 장암리 481-30번지","indutype":"음료식품 - 농·축·수산품","category":"food"}]},{"lat":"38.029763079","long":"127.38200041","imageIndex":7,"items":[{"name":"이동 삼부자 표고버섯","tel":"","addr":"경기도 포천시 이동면 장암리 151-86번지","indutype":"음료식품 - 농·축·수산품","category":"food"}]},{"lat":"38.036369408","long":"127.3668962","imageIndex":7,"items":[{"name":"이동뼈해장국","tel":"","addr":"경기도 포천시 이동면 장암리 504-15번지","indutype":"음식 - 식품접객업","category":"food"}]},{"lat":"38.036098294","long":"127.36716824","imageIndex":7,"items":[{"name":"이층방앗간","tel":"031-532-4424","addr":"경기도 포천시 이동면 장암리 504-21번지","indutype":"음료식품 - 제과점","category":"food"}]},{"lat":"38.036371909","long":"127.36608748","imageIndex":7,"items":[{"name":"해와달","tel":"031-531-0472","addr":"경기도 포천시 이동면 장암리 477-1번지 5호","indutype":"음료식품 - 기타음료식품","category":"food"}]},{"lat":"38.035953551","long":"127.36736116","imageIndex":7,"items":[{"name":"홍재방앗간","tel":"031-532-4554","addr":"경기도 포천시 이동면 장암리 503-11번지","indutype":"음료식품 - 기타음료식품","category":"food"}]},{"lat":"38.02662517","long":"127.36864748","imageIndex":9,"items":[{"name":"경유버스보조금_갈비촌주유소","tel":"031-536-5153","addr":"경기도 포천시 이동면 장암리 278번지","indutype":"연료판매점 - 쌍용S-OIL","category":"oil"}]},{"lat":"38.045261686","long":"127.37541594","imageIndex":9,"items":[{"name":"믿음가스","tel":"031-534-7441","addr":"경기도 포천시 이동면 장암리 636번지","indutype":"연료판매점 - LPG 취급점","category":"oil"},{"name":"이동주유소","tel":"031-534-5189","addr":"경기도 포천시 이동면 장암리 636번지","indutype":"연료판매점 - GS주유소","category":"oil"}]},{"lat":"38.030628","long":"127.37063783","imageIndex":9,"items":[{"name":"이동가스","tel":"031-534-2703","addr":"경기도 포천시 이동면 장암리 246-1번지","indutype":"연료판매점 - LPG 취급점","category":"oil"}]},{"lat":"38.053063976","long":"127.34872679","imageIndex":5,"items":[{"name":"고은숲속펜션","tel":"031-532-8914","addr":"경기도 포천시 이동면 장암리 716-19번지 가동","indutype":"숙박업 - 여관/기타숙박업","category":"hotel"}]},{"lat":"38.036927538","long":"127.36703566","imageIndex":5,"items":[{"name":"부산장여관","tel":"031-533-3738","addr":"경기도 포천시 이동면 장암리 480-5","indutype":"숙박업 - 여관/기타숙박업","category":"hotel"}]},{"lat":"38.025509756","long":"127.38786663","imageIndex":5,"items":[{"name":"산울터 펜션 (관광농원)","tel":"031-533-1803","addr":"경기도 포천시 이동면 장암리 14번지","indutype":"숙박업 - 여관/기타숙박업","category":"hotel"}]},{"lat":"38.036566687","long":"127.36719334","imageIndex":5,"items":[{"name":"제일장여관","tel":"031-532-4608","addr":"경기도 포천시 이동면 장암리 504-6번지","indutype":"숙박업 - 여관/기타숙박업","category":"hotel"}]},{"lat":"38.047565616","long":"127.37044911","imageIndex":5,"items":[{"name":"지니어스관광농업","tel":"031-1599-2780","addr":"경기도 포천시 이동면 장암리 650-14번지","indutype":"숙박업 - 여관/기타숙박업","category":"hotel"}]},{"lat":"38.034901024","long":"127.36686616","imageIndex":5,"items":[{"name":"천수여관","tel":"031-531-4630","addr":"경기도 포천시 이동면 장암리 511-21번지","indutype":"숙박업 - 여관/기타숙박업","category":"hotel"}]},{"lat":"38.046536624","long":"127.3739414","imageIndex":5,"items":[{"name":"포천 이동 달빛캠핑","tel":"031-532-9102","addr":"경기도 포천시 이동면 장암리 640-3","indutype":"숙박업 - 여관/기타숙박업","category":"hotel"}]},{"lat":"38.034090714","long":"127.36670268","imageIndex":5,"items":[{"name":"한일장여관","tel":"031-532-4295","addr":"경기도 포천시 이동면 장암리 214-10","indutype":"숙박업 - 여관/기타숙박업","category":"hotel"}]},{"lat":"38.029210292","long":"127.38577891","imageIndex":13,"items":[{"name":"몬테비얀코관광농원","tel":"031-531-3334","addr":"경기도 포천시 이동면 장암리 46번지","indutype":"레저업소 - 기타레져업소","category":"leisure"}]},{"lat":"38.029230699","long":"127.38780637","imageIndex":13,"items":[{"name":"위크온 글램핑","tel":"031-764-3433","addr":"경기도 포천시 이동면 장암리 50번지","indutype":"레저업소 - 기타레져업소","category":"leisure"}]},{"lat":"38.036371909","long":"127.36608748","imageIndex":13,"items":[{"name":"캠프PC방 포천이동점","tel":"","addr":"경기도 포천시 이동면 장암리 477-1번지 1층 3호","indutype":"레저업소 - 기타레져업소","category":"leisure"}]},{"lat":"38.035486287","long":"127.36697157","imageIndex":13,"items":[{"name":"프래쉬 PC","tel":"070-3305-8217","addr":"경기도 포천시 이동면 장암리 509-4번지","indutype":"레저업소 - 기타레져업소","category":"leisure"}]},{"lat":"38.033453887","long":"127.37444491","imageIndex":16,"items":[{"name":"미래클어린이집[아이행복]","tel":"031-534-4870","addr":"경기도 포천시 이동면 장암리 203-2","indutype":"학원 - 유아원","category":"study"}]},{"lat":"38.030425629","long":"127.3690878","imageIndex":16,"items":[{"name":"뿔라음악학원","tel":"031-533-7200","addr":"경기도 포천시 이동면 장암리 246-19번지 1층","indutype":"학원 - 예·체능계학원","category":"study"}]},{"lat":"38.035955354","long":"127.37255531","imageIndex":16,"items":[{"name":"아이파크어린이집[아이행복]","tel":"031-536-1289","addr":"경기도 포천시 이동면 장암리 528번지 장암아이파크","indutype":"학원 - 유아원","category":"study"}]},{"lat":"38.031927337","long":"127.36709063","imageIndex":16,"items":[{"name":"영챔피언태권도","tel":"535-7271","addr":"경기도 포천시 이동면 장암리 240-12번지","indutype":"교육서비스 - 학원","category":"study"},{"name":"영챔피언태권도","tel":"031-535-7271","addr":"경기도 포천시 이동면 장암리 240-12번지 2층","indutype":"학원 - 예·체능계학원","category":"study"},{"name":"이동피아노학원","tel":"031-534-4335","addr":"경기도 포천시 이동면 장암리 240-12번지","indutype":"학원 - 예·체능계학원","category":"study"}]},{"lat":"38.031487099","long":"127.36670119","imageIndex":16,"items":[{"name":"이동영재보습학원","tel":"031-532-3002","addr":"경기도 포천시 이동면 장암리 240-22번지 2층","indutype":"학원 - 보습학원","category":"study"}]},{"lat":"38.030147566","long":"127.37158077","imageIndex":16,"items":[{"name":"이동예체능아카데미체육관","tel":"031-532-1212","addr":"경기도 포천시 이동면 장암리 180-13번지 2층","indutype":"학원 - 예·체능계학원","category":"study"},{"name":"이동예체능아카데미학원","tel":"532-1212","addr":"경기도 포천시 이동면 장암리 180-13번지","indutype":"교육서비스 - 학원","category":"study"},{"name":"이동종합학원","tel":"532-1212","addr":"경기도 포천시 이동면 장암리 180-13번지","indutype":"교육서비스 - 학원","category":"study"},{"name":"이동종합학원","tel":"031-533-6380","addr":"경기도 포천시 이동면 장암리 180-13번지","indutype":"회원제형태 - 학원","category":"study"}]},{"lat":"38.03051167","long":"127.3732569","imageIndex":16,"items":[{"name":"이동중학교","tel":"031-532-4512","addr":"경기도 포천시 이동면 장암리 180-1번지 이동중학교","indutype":"학원 - 초중고교육기관","category":"study"}]},{"lat":"38.02929454","long":"127.36778376","imageIndex":16,"items":[{"name":"이동초등학교","tel":"031-533-5893","addr":"경기도 포천시 이동면 장암리 252-3번지 이동초등학교","indutype":"학원 - 초중고교육기관","category":"study"},{"name":"이동초등학교 병설유치원[아이행복]","tel":"031-533-5893","addr":"경기도 포천시 이동면 장암리 252-3번지 이동초등학교","indutype":"학원 - 유치원","category":"study"}]},{"lat":"38.035180653","long":"127.36675363","imageIndex":8,"items":[{"name":"열린치과의원","tel":"031-532-7528","addr":"경기도 포천시 이동면 장암리 511-4번지 2층","indutype":"의원 - 치과의원","category":"medical"}]},{"lat":"38.035261663","long":"127.36677682","imageIndex":8,"items":[{"name":"이동해담한의원","tel":"031-533-9976","addr":"경기도 포천시 이동면 장암리 510-4 511-3 1층","indutype":"의원 - 한의원","category":"medical"}]},{"lat":"38.035235412","long":"127.36652609","imageIndex":8,"items":[{"name":"태영약국","tel":"031-531-0133","addr":"경기도 포천시 이동면 장암리 510-3번지","indutype":"약국 - 약국","category":"medical"},{"name":"태영약국","tel":"531-0133","addr":"경기도 포천시 이동면 장암리 510-3번지","indutype":"보건업 - 약국","category":"medical"}]},{"lat":"38.035541433","long":"127.36661873","imageIndex":7,"items":[{"name":"이동유통","tel":"031-532-1973","addr":"경기도 포천시 이동면 장암리 508-5번지","indutype":"유통업 영리 - 슈퍼마켓","category":"mart"}]},{"lat":"38.036904008","long":"127.37169438","imageIndex":7,"items":[{"name":"이동종점슈퍼","tel":"031-532-8675","addr":"경기도 포천시 이동면 장암리 527","indutype":"유통업 영리 - 슈퍼마켓","category":"mart"}]},{"lat":"38.045678934","long":"127.36877643","imageIndex":7,"items":[{"name":"캠핑랜드마트","tel":"031-532-0679","addr":"경기도 포천시 이동면 장암리 648-3","indutype":"유통업 영리 - 슈퍼마켓","category":"mart"}]},{"lat":"38.035729704","long":"127.36691582","imageIndex":13,"items":[{"name":"진헤어","tel":"534-3771","addr":"경기도 포천시 이동면 장암리 507-11번지","indutype":"서비스 - 미용","category":"beauty"},{"name":"진헤어","tel":"031-534-3771","addr":"경기도 포천시 이동면 장암리 507-11번지","indutype":"보건위생 - 미용원","category":"beauty"}]},{"lat":"38.035567685","long":"127.36686946","imageIndex":13,"items":[{"name":"코코헤어","tel":"031-533-3637","addr":"경기도 포천시 이동면 장암리 507-14번지","indutype":"보건위생 - 미용원","category":"beauty"}]},{"lat":"38.042037766","long":"127.37214161","imageIndex":13,"items":[{"name":"하이헤어","tel":"070-3344-2252","addr":"경기도 포천시 이동면 장암리 632-10번지","indutype":"보건위생 - 미용원","category":"beauty"}]},{"lat":"38.035063185","long":"127.36686696","imageIndex":13,"items":[{"name":"하쿠나마타타 헤어","tel":"","addr":"경기도 포천시 이동면 장암리 511-18번지","indutype":"보건위생 - 미용원","category":"beauty"},{"name":"하쿠나마타타헤어","tel":"","addr":"경기도 포천시 이동면 장암리 511-18번지","indutype":"서비스 - 미용","category":"beauty"}]},{"lat":"38.03415501","long":"127.36630434","imageIndex":13,"items":[{"name":"혜성미용실","tel":"031-531-3822","addr":"경기도 포천시 이동면 장암리 215-16번지","indutype":"보건위생 - 미용원","category":"beauty"}]}]