[{"lat":"37.642887341","long":"127.22930899","items":[{"name":"(사단법인)대한청소년교육문화진흥원","tel":"1544-3983-0000","addr":"경기도 남양주시 평내동 553번지","category":"학원 - 기타 교육기관"}]},{"lat":"37.645776254","long":"127.23558371","items":[{"name":"(주)두플레이","tel":"031-593-0480","addr":"경기도 남양주시 평내동 579-3번지 M2 PLAZA 501호","category":"음료식품 - 기타음료식품"},{"name":"59쌀피자","tel":"031-559-5946","addr":"경기도 남양주시 평내동 579-3번지 엠투프라자 105호","category":"일반휴게음식 - 서양음식"},{"name":"G&M팩토리문법수학공작소학원","tel":"031-511-6345","addr":"경기도 남양주시 평내동 579-3번지 평내엠투프라자 402호","category":"학원 - 보습학원"},{"name":"GS25평내타운점","tel":"","addr":"경기도 남양주시 평내동 579-3번지 M2PLAZA 107호","category":"유통업 영리 - 편 의 점"},{"name":"그린컴퓨터학원","tel":"031-594-4077","addr":"경기도 남양주시 평내동 579-3M2프라자8층810","category":"회원제형태 - 학원"},{"name":"김마취통증의학과의원","tel":"031-594-8375","addr":"경기도 남양주시 평내동 579-3번지 M2PLAZA301,302호","category":"의원 - 의원"},{"name":"남양주평내 작심스페이스","tel":"031-000-0000","addr":"경기도 남양주시 평내동 579-3번지 평내엠투프라자 7층 711호","category":"용역 서비스 - 사무서비스"},{"name":"남양주평내점작심독서실","tel":"031-559-0910","addr":"경기도 남양주시 평내동 579-3번지 709,710호","category":"학원 - 독서실"},{"name":"대치동 수학학원","tel":"031-594-1024","addr":"경기도 남양주시 평내동 579-3번지 평내엠투프라자 408호","category":"학원 - 보습학원"},{"name":"더(the) 헤어봉봉","tel":"031-511-0734","addr":"경기도 남양주시 평내동 579-3번지 엠투프라자 206호","category":"보건위생 - 미용원"},{"name":"라푼젤헤어","tel":"031-595-6466","addr":"경기도 남양주시 평내동 579-3번지 엠투플라자 112호~113호","category":"보건위생 - 미용원"},{"name":"맘블리 평내점","tel":"031-593-8585","addr":"경기도 남양주시 평내동 579-3번지 평내엠투프라자 4층 410-411호","category":"일반휴게음식 - 일반한식"},{"name":"맘씨솜씨선경씨 반찬가게","tel":"031-000-0000","addr":"경기도 남양주시 평내동 579-3번지 평내엠투프라자 1층 121-1호","category":"음료식품 - 기타음료식품"},{"name":"맛깔참죽 평내점","tel":"031-595-6245","addr":"경기도 남양주시 평내동 579-3번지 116-1호","category":"일반휴게음식 - 일반한식"},{"name":"명품수선","tel":"031-554-7775","addr":"경기도 남양주시 평내동 579-3번지 평내엠투프라자 1층 111호","category":"수리서비스 - 세탁소"},{"name":"물감토마토미술학원","tel":"031-559-9005","addr":"경기도 남양주시 평내동 579-3번지 PLAZA 2호 M","category":"학원 - 예·체능계학원"},{"name":"미니룸86","tel":"031-111-1111","addr":"경기도 남양주시 평내동 579-3번지 평내엠투프라자 116-2호","category":"의류 - 정장"},{"name":"밀레토스학원","tel":"031-591-8213","addr":"경기도 남양주시 평내동 579-3번지 평내엠투프라자 709동 711호","category":"학원 - 보습학원"},{"name":"베스트원학원","tel":"032-591-3339","addr":"경기도 남양주시 평내동 579-3번지 평내엠투프라자 608호","category":"학원 - 보습학원"},{"name":"벨트잉글리쉬어학원","tel":"031-511-0216","addr":"경기도 남양주시 평내동 579-3번지 M2플라자 604호","category":"학원 - 외국어학원"},{"name":"별별식빵","tel":"031-593-5552","addr":"경기도 남양주시 평내동 579-3번지 평내엠투프라자 101호","category":"음료식품 - 제과점"},{"name":"뷰티엔젤","tel":"031-591-4153","addr":"경기도 남양주시 평내동 579-3번지 MPLAZA 111","category":"보건위생 - 화장품"},{"name":"신데렐라만들기","tel":"031-559-1720","addr":"경기도 남양주시 평내동 579-3번지 엠투프라자 405호","category":"보건위생 - 화장품"},{"name":"신통방통한의원","tel":"031-595-5552","addr":"경기도 남양주시 평내동 579-3번지 M2프라자4층404호","category":"의원 - 한의원"},{"name":"쌈촌(평내점)","tel":"031-511-7991","addr":"경기도 남양주시 평내동 579-3번지 207(207호~208호)","category":"일반휴게음식 - 일반한식"},{"name":"쓰리팝 피씨 카페(3 POP PC CAFE)","tel":"070-8666-9458","addr":"경기도 남양주시 평내동 579-3번지 평내엠투프라자 2층 204,205호","category":"레저업소 - 기타레져업소"},{"name":"에듀(Edu)1번지학원","tel":"031-592-9558","addr":"경기도 남양주시 평내동 579-3번지 평내엠투프라자 511호","category":"학원 - 보습학원"},{"name":"에스","tel":"031-559-4313","addr":"경기도 남양주시 평내동 579-3번지 평내엠투프라자 202호","category":"일반휴게음식 - 일반한식"},{"name":"엠투프라자 관리단","tel":"031-591-2949","addr":"경기도 남양주시 평내동 579-3번지 평내엠투프라자 관리사무소","category":"용역 서비스 - 종합용역"},{"name":"연세의원","tel":"031-592-5552","addr":"경기도 남양주시 평내동 579-3번지 M 2동 프라자 304호","category":"의원 - 의원"},{"name":"열쇠박사","tel":"031-594-1313","addr":"경기도 남양주시 평내동 579-3M2프라자1층111호중2호","category":"기타 - 기타 전문점"},{"name":"예참치","tel":"031-591-2226","addr":"경기도 남양주시 평내동 579-3번지 평내엠투프라자 201호","category":"일반휴게음식 - 일식·회집"},{"name":"오롬수학학원","tel":"031-594-8870","addr":"경기도 남양주시 평내동 579-3번지 PLAZA 707호 M2","category":"학원 - 보습학원"},{"name":"오롬어학원","tel":"031-594-8870","addr":"경기도 남양주시 평내동 579-3M2프라자610~611호","category":"회원제형태 - 학원"},{"name":"와이비테크","tel":"031-559-6003","addr":"경기도 남양주시 평내동 579-3번지 엠푸프라자 관리사무소","category":"용역 서비스 - 종합용역"},{"name":"윤건식이비인후과","tel":"031-593-8275","addr":"경기도 남양주시 평내동 579-3번지 엠투프라자 307호","category":"의원 - 의원"},{"name":"이삭토스트","tel":"031-559-7349","addr":"경기도 남양주시 평내동 579-3번지 엠투프라자 1층","category":"일반휴게음식 - 스넥"},{"name":"이얼싼중국어한자보습학원","tel":"031-591-1351","addr":"경기도 남양주시 평내동 579-3번지 평내엠투프라자 503호","category":"학원 - 보습학원"},{"name":"이자벨 필라테스","tel":"031-0000-0000","addr":"경기도 남양주시 평내동 579-3번지 평내엠투프라자 401호","category":"레저업소 - 헬스클럽"},{"name":"점프노리","tel":"070-8285-8333","addr":"경기도 남양주시 평내동 579-3번지 엠투프라자 310,311호","category":"레저업소 - 기타레져업소"},{"name":"정앤박치과의원","tel":"031-592-7729","addr":"경기도 남양주시 평내동 579-3 M-2 프라자 406,407호","category":"의원 - 치과의원"},{"name":"제니스의원","tel":"031-595-5911","addr":"경기도 남양주시 평내동 579-3번지","category":"의원 - 의원"},{"name":"조이음악학원","tel":"031-594-5691","addr":"경기도 남양주시 평내동 579-3번지 평내엠투프라자 605호","category":"학원 - 예·체능계학원"},{"name":"주식회사 맘스터치평내점","tel":"031-594-2344","addr":"경기도 남양주시 평내동 579-3번지 평내엠투프라자 1층 118호","category":"일반휴게음식 - 서양음식"},{"name":"쥬씨 평내엠투프라자점","tel":"070-4117-1028","addr":"경기도 남양주시 평내동 579-3번지 평내엠투프라자 104호","category":"일반휴게음식 - 서양음식"},{"name":"찬스컵닭","tel":"031-594-1146","addr":"경기도 남양주시 평내동 579-3번지 엠투프라자 121-1호","category":"일반휴게음식 - 일반한식"},{"name":"카페린다","tel":"031-564-9921","addr":"경기도 남양주시 평내동 579-3번지 엠투프라자114호 2호","category":"일반휴게음식 - 서양음식"},{"name":"칼학원","tel":"031-511-1688","addr":"경기도 남양주시 평내동 579-3번지 엠투프라자 509호","category":"학원 - 보습학원"},{"name":"커피랑도서관 평내1호점","tel":"","addr":"경기도 남양주시 평내동 579-3번지 평내엠투프라자 2층 209,210,211호","category":"용역 서비스 - 사무서비스"},{"name":"크린청정","tel":"","addr":"경기도 남양주시 평내동 579-3번지 평내엠투프라자 9층 914호 903-14호","category":"주방용구 - 주방용구"},{"name":"키모로봇학원","tel":"031-594-1177","addr":"경기도 남양주시 평내동 579-3번지 엠투프라자 8층 802호","category":"학원 - 기타 교육기관"},{"name":"키투영수학원","tel":"031-511-0905","addr":"경기도 남양주시 평내동 579-3번지 평내엠투프라자 6층 610,611호","category":"학원 - 보습학원"},{"name":"킹콩점프","tel":"031-593-1579","addr":"경기도 남양주시 평내동 579-3번지 평내엠투프라자 804~806호","category":"레저업소 - 기타레져업소"},{"name":"탈모락","tel":"031-594-8681","addr":"경기도 남양주시 평내동 579-3번지 평내엠투프라자 308호","category":"보건위생 - 피부미용실"},{"name":"특공MAX태권도","tel":"031-594-4591","addr":"경기도 남양주시 평내동 579-3번지 평내엠투프라자 8층 807호","category":"학원 - 예·체능계학원"},{"name":"평내약국","tel":"031-594-3002","addr":"경기도 남양주시 평내동 579-3번지 엠투프라자 108호","category":"약국 - 약국"},{"name":"평내호평유투엠수학학원","tel":"031-524-9912","addr":"경기도 남양주시 평내동 579-3번지 평내엠투프라자 501,502호","category":"학원 - 보습학원"},{"name":"평안종합관리 주식회사","tel":"","addr":"경기도 남양주시 평내동 579-3번지 평내엠투프라자 904호","category":"용역 서비스 - 종합용역"},{"name":"피타고라스학원","tel":"031-591-4979","addr":"경기도 남양주시 평내동 579-3번지 엠투플라자 606호~607호","category":"학원 - 보습학원"},{"name":"하제입시학원","tel":"031-591-4338","addr":"경기도 남양주시 평내동 579-3번지 M2플라자 808호","category":"학원 - 보습학원"},{"name":"한국점토미술심리연구소(심리상담센터한점","tel":"031-593-7579","addr":"경기도 남양주시 평내동 579-3번지 평내엠투프라자 510호","category":"보건위생 - 기타대인서비스"},{"name":"휴미니하우스원룸텔관리단","tel":"031-559-6003","addr":"경기도 남양주시 평내동 579-3번지 M2PLAZA9층","category":"학원 - 독서실"},{"name":"희망서적","tel":"031-594-1694","addr":"경기도 남양주시 평내동 579-3번지 평내엠투프라자 203호","category":"서적문구 - 일반서적"}]},{"lat":"37.650274905","long":"127.2431672","items":[{"name":"(주)디자인팩토리","tel":"031-595-5458","addr":"경기도 남양주시 평내동 140번지 리치플러스 412호","category":"건축자재 - 인테리어전문"},{"name":"(주)뭉크","tel":"031-592-8616","addr":"경기도 남양주시 평내동 140번지 리치플러스 5층 504-6호","category":"건축자재 - 기타건축자재"},{"name":"(주)인큐넥스","tel":"031-592-2508","addr":"경기도 남양주시 평내동 140번지 리치플러스 4층 408호","category":"사무통신 - 컴퓨터"},{"name":"63휘트니스 골프클럽","tel":"031-559-7100","addr":"경기도 남양주시 평내동 140번지 평내리치플러스빌딩 B101호","category":"레져용품 - 스포츠·레져용품"},{"name":"고웰","tel":"031-1111-1111","addr":"경기도 남양주시 평내동 140번지 리치플러스 120호","category":"일반휴게음식 - 서양음식"},{"name":"그렙어바이트","tel":"","addr":"경기도 남양주시 평내동 140번지 리치플러스 136호","category":"일반휴게음식 - 서양음식"},{"name":"금산네트웍","tel":"031-591-6546","addr":"경기도 남양주시 평내동 140번지 리치플러스 상가 214호","category":"수리서비스 - 사무·통신기기수리"},{"name":"뉴랜드알로에 평내중앙지사","tel":"031-595-1159","addr":"경기도 남양주시 평내동 140번지 리치플러스 3층 310호","category":"보건위생 - 화장품"},{"name":"다산한의원","tel":"031-559-8102","addr":"경기도 남양주시 평내동 140번지 리치플러스 306호","category":"의원 - 한의원"},{"name":"대영학원","tel":"031-511-5841","addr":"경기도 남양주시 평내동 140번지 리치플러스 상가동 409호","category":"학원 - 보습학원"},{"name":"더요","tel":"031-551-5555","addr":"경기도 남양주시 평내동 140번지 리치플러스 1층 119호","category":"일반휴게음식 - 일반한식"},{"name":"라이브콘서트","tel":"031-593-4668","addr":"경기도 남양주시 평내동 140번지 리치플러스 202호","category":"일반휴게음식 - 주점"},{"name":"리치 스크린 골프","tel":"031-593-0752","addr":"경기도 남양주시 평내동 140번지 리치플러스 5층 501호","category":"레저업소 - 스크린골프"},{"name":"리치당구장","tel":"031-595-7244","addr":"경기도 남양주시 평내동 140번지 리치플러스제3층 308","category":"레저업소 - 당 구 장"},{"name":"리치플러스화장품","tel":"031-559-6200","addr":"경기도 남양주시 평내동 140번지 평내리치플러스 B201호","category":"보건위생 - 화장품"},{"name":"리치헤어","tel":"070-8874-7948","addr":"경기도 남양주시 평내동 140번지 리치플러스 B106호","category":"보건위생 - 미용원"},{"name":"린헤어","tel":"","addr":"경기도 남양주시 평내동 140번지 리치플러스 1층 121호","category":"보건위생 - 미용원"},{"name":"바나나노래연습장","tel":"031-559-0349","addr":"경기도 남양주시 평내동 140번지 리치플러스 2층 203호","category":"레저업소 - 노 래 방"},{"name":"버터영어학원","tel":"031-559-6014","addr":"경기도 남양주시 평내동 140번지 리치플러스 403호","category":"학원 - 보습학원"},{"name":"북경","tel":"031-559-1888","addr":"경기도 남양주시 평내동 140번지 204,215호","category":"일반휴게음식 - 중국식"},{"name":"불닭발땡초동대문엽기떡볶이","tel":"031-592-8591","addr":"경기도 남양주시 평내동 140번지 리치플러스상가빌딩 1층 114호","category":"일반휴게음식 - 일반한식"},{"name":"세븐1961호(평내리치점)","tel":"02-2127-5850","addr":"경기도 남양주시 평내동 140번지 평내리치플러스 107호","category":"유통업 영리 - 편 의 점"},{"name":"세븐일레븐평내리치플러스점","tel":"","addr":"경기도 남양주시 평내동 140번지 리치플러스 108호","category":"유통업 영리 - 편 의 점"},{"name":"쉬작","tel":"031-593-6361","addr":"경기도 남양주시 평내동 140번지 리치플러스 1동 307호","category":"보건위생 - 화장품"},{"name":"스타일인더룸","tel":"","addr":"경기도 남양주시 평내동 140번지 리치플러스 1층 124호","category":"의류 - 정장"},{"name":"신비유","tel":"031-511-2210","addr":"경기도 남양주시 평내동 140번지 리치프러스빌딩 310호","category":"보건위생 - 기타대인서비스"},{"name":"씨드에듀(Seed Edu)","tel":"070-4416-9928","addr":"경기도 남양주시 평내동 140번지 리치플러스 212호","category":"회원제형태 - 서적"},{"name":"씨유평내효성점","tel":"02-1577-8007","addr":"경기도 남양주시 평내동 140번지 리치플러스 1층 117호","category":"유통업 영리 - 편 의 점"},{"name":"앤헤어","tel":"031-592-9898","addr":"경기도 남양주시 평내동 140번지 리치플러스 107호","category":"보건위생 - 미용원"},{"name":"에스 엔 에스","tel":"","addr":"경기도 남양주시 평내동 140번지 리치플러스 B201호","category":"보건위생 - 피부미용실"},{"name":"에스에이치S.H축산","tel":"031-511-7666","addr":"경기도 남양주시 평내동 140번지 리치플러스 지층 B102-B105호 마트내 정육코너","category":"음료식품 - 정육점"},{"name":"엠푸드시스템","tel":"031-511-8040","addr":"경기도 남양주시 평내동 140번지 리치플러스 1층 104호","category":"일반휴게음식 - 서양음식"},{"name":"영선코스메틱","tel":"031-111-1111","addr":"경기도 남양주시 평내동 140번지 리치플러스 2층 211호","category":"보건위생 - 화장품"},{"name":"위드제이영어학원","tel":"031-591-3927","addr":"경기도 남양주시 평내동 140번지 리치플러스 403호","category":"회원제형태 - 학원"},{"name":"일하는사람들","tel":"031-593-6422","addr":"경기도 남양주시 평내동 140번지 리치플러스 118호","category":"수리서비스 - 사무·통신기기수리"},{"name":"임팩트수학교습소","tel":"031-591-3393","addr":"경기도 남양주시 평내동 140번지 리치플러스 4층 405호","category":"학원 - 보습학원"},{"name":"장인참숯바베큐","tel":"031-559-7357","addr":"경기도 남양주시 평내동 140번지 리치플러스 106호","category":"일반휴게음식 - 스넥"},{"name":"젠틀맨헤어","tel":"031-591-3357","addr":"경기도 남양주시 평내동 140번지 리치플러스 101호","category":"보건위생 - 미용원"},{"name":"주성민약원","tel":"031-573-2063","addr":"경기도 남양주시 평내동 140번지 리치플러스 상가 122호","category":"건강식품 - 기타건강식품"},{"name":"주식회사블루나일네트웍스","tel":"031-593-7804","addr":"경기도 남양주시 평내동 140번지 리치플러스 412호","category":"사무통신 - 컴퓨터"},{"name":"카페인 (cafe-in)","tel":"033-263-6814","addr":"경기도 남양주시 평내동 140번지 리치플러스 132호","category":"일반휴게음식 - 서양음식"},{"name":"칸수학학원","tel":"031-559-7441","addr":"경기도 남양주시 평내동 140번지 리치플러스 406호","category":"학원 - 보습학원"},{"name":"컬러링","tel":"031-559-9929","addr":"경기도 남양주시 평내동 140번지 리치플러스 129,130호","category":"일반휴게음식 - 일반한식"},{"name":"코알라공작소","tel":"","addr":"경기도 남양주시 평내동 140번지 리치플러스 1층 124호","category":"문화.취미 - 문화취미기타"},{"name":"티바치킨 평내호평점","tel":"031-592-0504","addr":"경기도 남양주시 평내동 140번지 리치플러스 145호","category":"일반휴게음식 - 스넥"},{"name":"페리스","tel":"031-510-7570","addr":"경기도 남양주시 평내동 140번지 리치플러스 503-2호","category":"문화.취미 - 문화취미기타"},{"name":"평내가우스학원","tel":"031-591-9885","addr":"경기도 남양주시 평내동 140번지 리치플러스 상가 406호","category":"회원제형태 - 학원"},{"name":"평내축산정육점","tel":"031-593-5145","addr":"경기도 남양주시 평내동 140번지","category":"음료식품 - 정육점"},{"name":"한결빌트인어플라이언스","tel":"070-8959-6508","addr":"경기도 남양주시 평내동 140번지 리치플러스 213호","category":"수리서비스 - 가정용품수리"},{"name":"한국공예디자이너협동조합","tel":"031-510-7570","addr":"경기도 남양주시 평내동 140번지 리치플러스 503-2호","category":"신변잡화 - 가방"},{"name":"한돈한우","tel":"031-592-1155","addr":"경기도 남양주시 평내동 140번지 리치플러스 115호","category":"일반휴게음식 - 일반한식"},{"name":"한방닭곰탕","tel":"031-511-1384","addr":"경기도 남양주시 평내동 140번지 리치플러스 131호","category":"일반휴게음식 - 일반한식"},{"name":"함께하는 요양원","tel":"031-559-9495","addr":"경기도 남양주시 평내동 140번지 리치플러스 301호","category":"기타의료기관 - 기타의료기관 및 기타"},{"name":"현진라이프","tel":"070-8836-4769","addr":"경기도 남양주시 평내동 140번지 리치플러스 304호","category":"전기제품 - 가전제품"},{"name":"호박네","tel":"031-559-3540","addr":"경기도 남양주시 평내동 140번지 리치플러스 142호","category":"일반휴게음식 - 일반한식"},{"name":"회시장","tel":"031-514-3355","addr":"경기도 남양주시 평내동 140번지 리치플러스 102호","category":"일반휴게음식 - 일반한식"}]},{"lat":"37.646029015","long":"127.23533522","items":[{"name":"(주)디펠리","tel":"031-511-1375","addr":"경기도 남양주시 평내동 579-2번지 강남프라자 306호","category":"유통업 영리 - 기타유통업"},{"name":"B612학원","tel":"031-594-8243","addr":"경기도 남양주시 평내동 579-2번지 강남프라자 603호 일부","category":"학원 - 보습학원"},{"name":"JS어패럴","tel":"031-511-9375","addr":"경기도 남양주시 평내동 579-2번지 오렌지웰빙타워 1층 101호","category":"의류 - 내의판매"},{"name":"강남프라자관리단","tel":"031-559-9577","addr":"경기도 남양주시 평내동 579-2번지","category":"자동차정비 유지 - 주차장"},{"name":"골프 카페","tel":"031-595-9644","addr":"경기도 남양주시 평내동 579-2번지 오렌지웰빙타워 9층 904-907호","category":"레저업소 - 골프연습장"},{"name":"김가네","tel":"031-591-0644","addr":"경기도 남양주시 평내동 579-2번지 오렌지웰빙타워 102호","category":"일반휴게음식 - 일반한식"},{"name":"라이또PC방","tel":"070-7997-4034","addr":"경기도 남양주시 평내동 579-2번지 209호,210호","category":"레저업소 - 기타레져업소"},{"name":"럭셔리뷰티평내점","tel":"031-592-3252","addr":"경기도 남양주시 평내동 579-2번지 오렌지웰빙타워 506호","category":"보건위생 - 화장품"},{"name":"레드엔블랙아지트","tel":"031-593-6330","addr":"경기도 남양주시 평내동 579-2번지 오렌지웰빙타워 205호","category":"일반휴게음식 - 일반한식"},{"name":"매스마스터학원","tel":"031-559-9872","addr":"경기도 남양주시 평내동 579-2번지 오렌지웰빙타워 702호","category":"학원 - 보습학원"},{"name":"메가엠지씨커피남양주평내점","tel":"","addr":"경기도 남양주시 평내동 579-2번지 오렌지웰빙타워 1층 104호","category":"일반휴게음식 - 서양음식"},{"name":"무지개 팡팡","tel":"070-4219-9081","addr":"경기도 남양주시 평내동 579-2번지 오렌지웰빙타워 강남프라자 901,908호","category":"레저업소 - 기타레져업소"},{"name":"무한리필고기간","tel":"031-593-3318","addr":"경기도 남양주시 평내동 579-2번지 오렌지웰빙타워 115호,116호,117호","category":"일반휴게음식 - 일반한식"},{"name":"미코(MICO)","tel":"031-594-6472","addr":"경기도 남양주시 평내동 579-2번지 강남프라자 105호","category":"음료식품 - 제과점"},{"name":"반석국어교습소","tel":"","addr":"경기도 남양주시 평내동 579-2번지 오렌지웰빙타워 607호 일부","category":"학원 - 보습학원"},{"name":"분홍무지개 남양주평내점","tel":"031-595-8200","addr":"경기도 남양주시 평내동 579-2번지 오렌지웰빙타워 1층 122호","category":"신변잡화 - 기타잡화"},{"name":"비타민","tel":"","addr":"경기도 남양주시 평내동 579-2번지 강남프라자 301호","category":"보건위생 - 화장품"},{"name":"서울아산내과","tel":"031-559-6650","addr":"경기도 남양주시 평내동 579-2번지 오렌지웰빙타워 4층 401호","category":"의원 - 의원"},{"name":"수능케이탑학원","tel":"031-594-0982","addr":"경기도 남양주시 평내동 579-2번지 오렌지웰빙타워 강남프라자 801호 일부","category":"학원 - 보습학원"},{"name":"수능혁명학원","tel":"031-594-9885","addr":"경기도 남양주시 평내동 579-2번지 강남프라자 601호","category":"학원 - 보습학원"},{"name":"술술실내포장마차","tel":"031-528-6263","addr":"경기도 남양주시 평내동 579-2번지 강남프라자 118호","category":"일반휴게음식 - 주점"},{"name":"아쉬탕가제니요가 4호점","tel":"070-4922-1261","addr":"경기도 남양주시 평내동 579-2번지 오렌지웰빙타워 402호 강남프라자","category":"레저업소 - 헬스클럽"},{"name":"아이엔 (IN)수학교습소","tel":"","addr":"경기도 남양주시 평내동 579-2번지 오렌지웰빙타워 707호 일부","category":"학원 - 보습학원"},{"name":"알투스영어학원","tel":"031-594-3401","addr":"경기도 남양주시 평내동 579-2번지 오렌지웰빙타워 608호","category":"회원제형태 - 학원"},{"name":"언니날다","tel":"031-591-4969","addr":"경기도 남양주시 평내동 579-2번지 오렌지웰빙타워 107호","category":"의류 - 정장"},{"name":"예원","tel":"031-591-5995","addr":"경기도 남양주시 평내동 579-2번지 오렌지웰빙타워 112,113,114호","category":"일반휴게음식 - 중국식"},{"name":"장찬주탁구클럽","tel":"031-591-0925","addr":"경기도 남양주시 평내동 579-2번지 강남프라자 207호","category":"레저업소 - 기타레져업소"},{"name":"조은산후조리원","tel":"031-511-1187","addr":"경기도 남양주시 평내동 579-2번지 오렌지웰빙타워 403호 ~ 408호","category":"기타의료기관 - 산후조리원"},{"name":"참빛약국","tel":"031-592-2906","addr":"경기도 남양주시 평내동 579-2번지 오렌지웰빙타워 401호","category":"약국 - 약국"},{"name":"천궁의료기 평내점","tel":"","addr":"경기도 남양주시 평내동 579-2번지 강남프라자 3층 305호","category":"보건위생 - 의료용품"},{"name":"카이스트수학학원","tel":"031-591-2194","addr":"경기도 남양주시 평내동 579-2번지 오렌지웰빙타워 703,704호","category":"학원 - 보습학원"},{"name":"카페노네임(무명)","tel":"031-592-4027","addr":"경기도 남양주시 평내동 579-2번지 오렌지웰빙타워 1층 109호~111호","category":"일반휴게음식 - 서양음식"},{"name":"커피에반하다","tel":"031-511-4961","addr":"경기도 남양주시 평내동 579-2번지 강남프라자 108호","category":"일반휴게음식 - 서양음식"},{"name":"평내당구클럽","tel":"031-591-9442","addr":"경기도 남양주시 평내동 579-2번지 오렌지웰빙타워 302,303호","category":"레저업소 - 당 구 장"},{"name":"평내큐이엠학원","tel":"031-594-0579","addr":"경기도 남양주시 평내동 579-2번지 강남프라자 703~705호","category":"학원 - 보습학원"},{"name":"피플스","tel":"","addr":"경기도 남양주시 평내동 579-2번지 오렌지웰빙타워 120호","category":"일반휴게음식 - 주점"},{"name":"필(FEEL)코인노래연습장","tel":"031-592-3457","addr":"경기도 남양주시 평내동 579-2번지 오렌지웰빙타워 상가동 2층 201호","category":"레저업소 - 노 래 방"},{"name":"하랑유소년스포츠센터","tel":"031-594-4545","addr":"경기도 남양주시 평내동 579-2번지 오렌지웰빙타워 1001호 , 1002","category":"학원 - 예·체능계학원"},{"name":"하이탑독서실평내점","tel":"031-523-3303","addr":"경기도 남양주시 평내동 579-2번지 오렌지웰빙타워 701호,708호","category":"학원 - 독서실"},{"name":"한돈,한우정육","tel":"031-591-0001","addr":"경기도 남양주시 평내동 579-2번지 115,116,1117호","category":"음료식품 - 정육점"},{"name":"허브힐링센타","tel":"","addr":"경기도 남양주시 평내동 579-2번지 오렌지웰빙타워 2층","category":"음료식품 - 기타음료식품"},{"name":"호식이두마리치킨(평내점)","tel":"031-593-9282","addr":"경기도 남양주시 평내동 579-2번지 강남프라자 119호","category":"일반휴게음식 - 스넥"}]},{"lat":"37.645279739","long":"127.22677816","items":[{"name":"(주)보해물류","tel":"031-595-3693","addr":"경기도 남양주시 평내동 388-2번지","category":"용역 서비스 - 종합용역"}]},{"lat":"37.645886821","long":"127.23433766","items":[{"name":"(주)세미백아이엔씨","tel":"031-478-0740","addr":"경기도 남양주시 평내동 578-1번지 다모아프라자 704호","category":"용역 서비스 - 소프트웨어"},{"name":"(주)탑스보안","tel":"031-559-8259","addr":"경기도 남양주시 평내동 578-1번지 다모아프라자 802호","category":"용역 서비스 - 종합용역"},{"name":"건축사사무소오가","tel":"031-595-5882","addr":"경기도 남양주시 평내동 578-1번지 다모아프라자 210호","category":"용역 서비스 - 사무서비스"},{"name":"공잘학원","tel":"031-595-3334","addr":"경기도 남양주시 평내동 578-1번지 503호~504호","category":"회원제형태 - 학원"},{"name":"김싸부의생연어엔마약덮밥","tel":"031-593-3960","addr":"경기도 남양주시 평내동 578-1번지 다모아프라자 114호","category":"일반휴게음식 - 일식·회집"},{"name":"나움누리한의원","tel":"031-591-7510","addr":"경기도 남양주시 평내동 578-1번지 다모아프라자 304,305호","category":"의원 - 한의원"},{"name":"다모아프라자 관리단","tel":"031-523-2720","addr":"경기도 남양주시 평내동 578-1번지 다모아프라자 지하1층","category":"자동차정비 유지 - 주차장"},{"name":"다모아프라자상가관리단","tel":"031-523-2720","addr":"경기도 남양주시 평내동 578-1번지 다모아프라자","category":"자동차정비 유지 - 주차장"},{"name":"더멘토","tel":"031-511-3925","addr":"경기도 남양주시 평내동 578-1번지 다모아프라자 117호","category":"일반휴게음식 - 일반한식"},{"name":"더짬뽕","tel":"031-511-4197","addr":"경기도 남양주시 평내동 578-1번지 다모아프라자 1층 111호","category":"일반휴게음식 - 중국식"},{"name":"디자인봄","tel":"070-8654-1263","addr":"경기도 남양주시 평내동 578-1번지 다모아프라자 308호","category":"광학제품 - 사진관"},{"name":"르하임스터디카페 남양주평내점","tel":"031-522-5739","addr":"경기도 남양주시 평내동 578-1번지 다모아프라자 303호","category":"음료식품 - 기타음료식품"},{"name":"르하임스터디카페 남양주평내점","tel":"031-000-0000","addr":"경기도 남양주시 평내동 578-1번지 다모아프라자 303호","category":"용역 서비스 - 사무서비스"},{"name":"만나김밥","tel":"031-593-8832","addr":"경기도 남양주시 평내동 578-1번지 다모아프라자 1층 118호","category":"일반휴게음식 - 일반한식"},{"name":"베스킨라빈스31","tel":"031-592-3330","addr":"경기도 남양주시 평내동 578-1번지 다모아프라자 1층 108호","category":"음료식품 - 제과점"},{"name":"상쾌한숲속약국","tel":"031-591-9555","addr":"경기도 남양주시 평내동 578-1번지 다모아프라자 1층 105호","category":"약국 - 약국"},{"name":"세븐일레븐평내지원점","tel":"","addr":"경기도 남양주시 평내동 578-1번지 다모아프라자 106호","category":"유통업 영리 - 편 의 점"},{"name":"소노수(SONOSU)","tel":"031-8866-2636","addr":"경기도 남양주시 평내동 578-1번지 다모아프라자 409호","category":"광학제품 - 사진관"},{"name":"순수스킨케어","tel":"031-510-7959","addr":"경기도 남양주시 평내동 578-1번지 다모아프라자 3층 306호","category":"보건위생 - 피부미용실"},{"name":"슈가헤어","tel":"031-593-2368","addr":"경기도 남양주시 평내동 578-1번지 다모아프라자 103호","category":"보건위생 - 미용원"},{"name":"스시동","tel":"031-591-0544","addr":"경기도 남양주시 평내동 578-1번지 다모아프라자 110호","category":"일반휴게음식 - 일반한식"},{"name":"심플하우스","tel":"031-0000-0000","addr":"경기도 남양주시 평내동 578-1번지 다모아프라자 6층 602-1,603호","category":"학원 - 독서실"},{"name":"심플하우스","tel":"031-511-1303","addr":"경기도 남양주시 평내동 578-1번지 다모아프라자 6층","category":"학원 - 독서실"},{"name":"아빠손두부","tel":"031-511-1029","addr":"경기도 남양주시 평내동 578-1번지 다모아프라자 116호","category":"음료식품 - 기타음료식품"},{"name":"엠엔에이치헤어(M&H HAIR)","tel":"031-593-8885","addr":"경기도 남양주시 평내동 578-1번지 다모아프라자 203호","category":"보건위생 - 미용원"},{"name":"여기","tel":"031-591-3363","addr":"경기도 남양주시 평내동 578-1번지 다모아프라자 112호, 113호","category":"일반휴게음식 - 일반한식"},{"name":"여자의봄","tel":"031-510-7473","addr":"경기도 남양주시 평내동 578-1번지 다모아프라자 810호","category":"레저업소 - 헬스클럽"},{"name":"열방네트웍스","tel":"070-7719-7951","addr":"경기도 남양주시 평내동 578-1번지 다모아프라자 804호","category":"사무통신 - 사무용 OA기기"},{"name":"예스24","tel":"031-511-6307","addr":"경기도 남양주시 평내동 578-1번지 다모아프라자 106호","category":"음료식품 - 기타음료식품"},{"name":"오엔이어학원","tel":"031-594-0086","addr":"경기도 남양주시 평내동 578-1번지 다모아프라자 8층 803호","category":"회원제형태 - 학원"},{"name":"요미요미평내호평미술학원","tel":"031-594-3115","addr":"경기도 남양주시 평내동 578-1번지 다모아프라자 503호","category":"학원 - 예·체능계학원"},{"name":"전통 할매순대국","tel":"031-559-5667","addr":"경기도 남양주시 평내동 578-1번지 다모아프라자 104호","category":"일반휴게음식 - 일반한식"},{"name":"쪽갈비에미치닭","tel":"02-111-1111","addr":"경기도 남양주시 평내동 578-1번지 다모아프라자 109호","category":"일반휴게음식 - 일반한식"},{"name":"차크라요가","tel":"031-593-7988","addr":"경기도 남양주시 평내동 578-1번지 다모아프라자 408호","category":"회원제형태 - 레져업소"},{"name":"철수네과일야채","tel":"","addr":"경기도 남양주시 평내동 578-1번지 다모아프라자 1층 116호","category":"음료식품 - 농·축·수산품"},{"name":"첫번째쌀국수","tel":"031-592-1511","addr":"경기도 남양주시 평내동 578-1번지 다모아프라자 119호","category":"일반휴게음식 - 일반한식"},{"name":"최강 봉 수학학원","tel":"031-595-3310","addr":"경기도 남양주시 평내동 578-1번지 다모아프라자 403호","category":"학원 - 보습학원"},{"name":"친정집","tel":"031-521-8272","addr":"경기도 남양주시 평내동 578-1번지 다모아프라자 120호","category":"일반휴게음식 - 일반한식"},{"name":"코딩앤메이커학원","tel":"031-515-9974","addr":"경기도 남양주시 평내동 578-1번지 다모아프라자 5층 506호","category":"학원 - 컴퓨터학원"},{"name":"키로프발레스쿨학원","tel":"031-591-7020","addr":"경기도 남양주시 평내동 578-1번지 다모아프라자 509동 510호","category":"학원 - 예·체능계학원"},{"name":"킹노래연습장","tel":"031-559-1121","addr":"경기도 남양주시 평내동 578-1번지 다모아프라자 310호","category":"레저업소 - 노 래 방"},{"name":"티오피영어수학학원","tel":"031-511-7747","addr":"경기도 남양주시 평내동 578-1번지 다모아프라자 801호","category":"학원 - 보습학원"},{"name":"해솔소아청소년과의원","tel":"031-592-7475","addr":"경기도 남양주시 평내동 578-1,다모아플라자3층301~302","category":"의원 - 의원"},{"name":"해피누리복지관미용실","tel":"031-511-8848","addr":"경기도 남양주시 평내동 578-1번지 다모아프라자 202호","category":"보건위생 - 미용원"}]},{"lat":"37.6466158","long":"127.23474784","items":[{"name":"(주)에이제이오토카","tel":"031-564-5500","addr":"경기도 남양주시 평내동 579번지 하나프라자 403호","category":"여행 - 렌터카"},{"name":"경신전기","tel":"031-592-4332","addr":"경기도 남양주시 평내동 579번지 하나프라자 113,114호","category":"전기제품 - 기타전기제품"},{"name":"굿샷 골프존스크린","tel":"031-591-0702","addr":"경기도 남양주시 평내동 579번지 하나프라자 702,703호","category":"레저업소 - 스크린골프"},{"name":"글재미국어교습소","tel":"031-591-7975","addr":"경기도 남양주시 평내동 579번지 하나프라자 118호","category":"학원 - 보습학원"},{"name":"명품족발","tel":"031-594-8640","addr":"경기도 남양주시 평내동 579번지 하나프라자 119호","category":"일반휴게음식 - 일반한식"},{"name":"미인","tel":"070-8805-2620","addr":"경기도 남양주시 평내동 579번지 평내하나프라자 108호","category":"보건위생 - 화장품"},{"name":"블루먼데이","tel":"","addr":"경기도 남양주시 평내동 579번지 하나프라자 1층 105호","category":"신변잡화 - 액세서리"},{"name":"아모레","tel":"031-591-6478","addr":"경기도 남양주시 평내동 579번지 하나프라자 705호","category":"보건위생 - 화장품"},{"name":"아모레","tel":"031-591-6478","addr":"경기도 남양주시 평내동 579번지 하나프라자 705호","category":"보건위생 - 화장품"},{"name":"아모레","tel":"031-591-6478","addr":"경기도 남양주시 평내동 579번지 하나프라자 705호","category":"보건위생 - 화장품"},{"name":"아모레","tel":"031-591-6479","addr":"경기도 남양주시 평내동 579번지 하나프라자 705호","category":"보건위생 - 화장품"},{"name":"아모레","tel":"031-591-6479","addr":"경기도 남양주시 평내동 579번지 하나프라자 705호","category":"보건위생 - 화장품"},{"name":"아모레","tel":"031-592-9988","addr":"경기도 남양주시 평내동 하나프라자 705호 아모레퍼시픽","category":"보건위생 - 화장품"},{"name":"아모레","tel":"031-591-6478","addr":"경기도 남양주시 평내동 579번지 하나프라자 705호","category":"보건위생 - 화장품"},{"name":"아모레 카운셀러","tel":"031-591-6478","addr":"경기도 남양주시 평내동 579번지 하나프라자 705호","category":"보건위생 - 화장품"},{"name":"아모레 카운셀러","tel":"031-591-6478","addr":"경기도 남양주시 평내동 579번지 하나프라자 705호","category":"보건위생 - 화장품"},{"name":"아모레 카운셀러","tel":"031-591-6478","addr":"경기도 남양주시 평내동 579번지 하나프라자 705호","category":"보건위생 - 화장품"},{"name":"아모레 카운셀러","tel":"031-591-6478","addr":"경기도 남양주시 평내동 579번지 하나프라자 705호","category":"보건위생 - 화장품"},{"name":"아모레 카운셀러","tel":"031-591-6478","addr":"경기도 남양주시 평내동 579번지 하나프라자 705호","category":"보건위생 - 화장품"},{"name":"아모레 카운셀러","tel":"031-591-6478","addr":"경기도 남양주시 평내동 579번지 하나프라자 705호","category":"보건위생 - 화장품"},{"name":"아모레 카운셀러","tel":"031-591-6478","addr":"경기도 남양주시 평내동 579번지 하나프라자 705호","category":"보건위생 - 화장품"},{"name":"아모레 카운셀러","tel":"031-591-6478","addr":"경기도 남양주시 평내동 579번지 하나프라자 705호","category":"보건위생 - 화장품"},{"name":"아모레 카운셀러","tel":"031-591-6478","addr":"경기도 남양주시 평내동 579번지 하나프라자 705호","category":"보건위생 - 화장품"},{"name":"아모레 카운셀러","tel":"031-591-6478","addr":"경기도 남양주시 평내동 579번지 하나프라자 705호","category":"보건위생 - 화장품"},{"name":"아모레 카운셀러","tel":"031-591-6478","addr":"경기도 남양주시 평내동 579번지 하나프라자 705호","category":"보건위생 - 화장품"},{"name":"아모레 카운셀러","tel":"031-591-6478","addr":"경기도 남양주시 평내동 579번지 하나프라자 705호","category":"보건위생 - 화장품"},{"name":"아모레 카운셀러","tel":"031-591-6478","addr":"경기도 남양주시 평내동 579번지 하나프라자 705호","category":"보건위생 - 화장품"},{"name":"아모레 카운셀러","tel":"031-591-6478","addr":"경기도 남양주시 평내동 579번지 하나프라자 705호","category":"보건위생 - 화장품"},{"name":"아모레 카운셀러","tel":"031-591-6478","addr":"경기도 남양주시 평내동 579번지 하나프라자 705호","category":"보건위생 - 화장품"},{"name":"아모레 카운셀러","tel":"031-591-6478","addr":"경기도 남양주시 평내동 579번지 하나프라자 705호","category":"보건위생 - 화장품"},{"name":"아모레 카운셀러","tel":"031-591-6478","addr":"경기도 남양주시 평내동 579번지 하나프라자 705호","category":"보건위생 - 화장품"},{"name":"아모레 카운셀러","tel":"031-591-6478","addr":"경기도 남양주시 평내동 579번지 하나프라자 705호","category":"보건위생 - 화장품"},{"name":"아모레 카운셀러","tel":"031-591-6478","addr":"경기도 남양주시 평내동 579번지 하나프라자 705호","category":"보건위생 - 화장품"},{"name":"아모레 카운셀러","tel":"031-591-6478","addr":"경기도 남양주시 평내동 579번지 하나프라자 705호","category":"보건위생 - 화장품"},{"name":"아모레 카운셀러","tel":"031-591-6478","addr":"경기도 남양주시 평내동 579번지 하나프라자 705호","category":"보건위생 - 화장품"},{"name":"아모레 카운셀러","tel":"031-591-6478","addr":"경기도 남양주시 평내동 579번지 하나프라자 705호","category":"보건위생 - 화장품"},{"name":"아모레카운셀러","tel":"031-591-6478","addr":"경기도 남양주시 평내동 579번지 하나프라자 705호","category":"보건위생 - 화장품"},{"name":"아모레카운셀러","tel":"031-553-2208","addr":"경기도 남양주시 평내동 579번지 하나프라자 705호","category":"보건위생 - 화장품"},{"name":"아모레카운셀러","tel":"031-591-6478","addr":"경기도 남양주시 평내동 579번지 하나프라자 705호","category":"보건위생 - 화장품"},{"name":"아모레카운셀러","tel":"031-591-6478","addr":"경기도 남양주시 평내동 579번지 하나프라자 705호","category":"보건위생 - 화장품"},{"name":"아모레카운셀러","tel":"031-591-6478","addr":"경기도 남양주시 평내동 579번지 하나프라자 705호","category":"보건위생 - 화장품"},{"name":"아모레카운셀러","tel":"031-591-6478","addr":"경기도 남양주시 평내동 579번지 하나프라자 705호","category":"보건위생 - 화장품"},{"name":"아모레카운셀러","tel":"031-513-3385","addr":"경기도 남양주시 평내동 하나프라자 7층","category":"보건위생 - 화장품"},{"name":"아모레카운셀러","tel":"031-591-6478","addr":"경기도 남양주시 평내동 579번지 하나프라자 705호","category":"보건위생 - 화장품"},{"name":"아모레카운셀러","tel":"031-591-6478","addr":"경기도 남양주시 평내동 579번지 하나프라자 705호","category":"보건위생 - 화장품"},{"name":"아모레카운셀러","tel":"031-591-6478","addr":"경기도 남양주시 평내동 579번지 하나프라자 705호","category":"보건위생 - 화장품"},{"name":"아모레카운셀러","tel":"031-591-6478","addr":"경기도 남양주시 평내동 579번지 하나프라자 705호","category":"보건위생 - 화장품"},{"name":"아모레카운셀러","tel":"031-591-6478","addr":"경기도 남양주시 평내동 579번지 하나프라자 701호","category":"보건위생 - 화장품"},{"name":"아모레카운셀러","tel":"031-591-6479","addr":"경기도 남양주시 평내동 579번지 하나프라자 705호","category":"보건위생 - 화장품"},{"name":"아모레카운셀러","tel":"031-591-6478","addr":"경기도 남양주시 평내동 579번지","category":"보건위생 - 화장품"},{"name":"아모레카운셀러","tel":"031-591-6478","addr":"경기도 남양주시 평내동 579번지 하나프라자 705호","category":"보건위생 - 화장품"},{"name":"아모레카운셀러","tel":"031-591-6478","addr":"경기도 남양주시 평내동 579번지 하나프라자 705호","category":"보건위생 - 화장품"},{"name":"아모레카운셀러","tel":"031-591-6478","addr":"경기도 남양주시 평내동 579번지 하나프라자 705호","category":"보건위생 - 화장품"},{"name":"아모레카운셀러","tel":"031-591-6479","addr":"경기도 남양주시 평내동 579번지 하나프라자 705호","category":"보건위생 - 화장품"},{"name":"아모레카운셀러","tel":"031-591-6478","addr":"경기도 남양주시 평내동 579번지 하나프라자 705호","category":"보건위생 - 화장품"},{"name":"아모레카운셀러","tel":"031-591-6479","addr":"경기도 남양주시 평내동 579번지 하나프라자 705호","category":"보건위생 - 화장품"},{"name":"아모레카운셀러","tel":"031-591-6478","addr":"경기도 남양주시 평내동 579번지 하나프라자 705호","category":"보건위생 - 화장품"},{"name":"아모레카운셀러","tel":"031-591-6478","addr":"경기도 남양주시 평내동 579번지 하나프라자 705호","category":"보건위생 - 화장품"},{"name":"아모레카운셀러","tel":"031-591-6479","addr":"경기도 남양주시 평내동 579번지 하나프라자 705호","category":"보건위생 - 화장품"},{"name":"아모레카운셀러","tel":"031-591-6478","addr":"경기도 남양주시 평내동 579번지 하나프라자","category":"보건위생 - 화장품"},{"name":"아모레카운셀러","tel":"031-591-6478","addr":"경기도 남양주시 평내동 579번지 하나프라자 705호","category":"보건위생 - 화장품"},{"name":"아모레카운셀러","tel":"031-591-6478","addr":"경기도 남양주시 평내동 579번지 하나프라자 705호","category":"보건위생 - 화장품"},{"name":"아모레카운셀러","tel":"031-591-6478","addr":"경기도 남양주시 평내동 579번지 하나프라자 705호","category":"보건위생 - 화장품"},{"name":"아모레카운셀러","tel":"031-591-6478","addr":"경기도 남양주시 평내동 579번지 하나프라자 705호","category":"보건위생 - 화장품"},{"name":"아모레카운셀러","tel":"031-591-6478","addr":"경기도 남양주시 평내동 579번지 하나프라자 705호","category":"보건위생 - 화장품"},{"name":"아모레카운셀러","tel":"031-591-6478","addr":"경기도 남양주시 평내동 579번지 하나프라자 705호","category":"보건위생 - 화장품"},{"name":"아모레카운셀러","tel":"031-591-6478","addr":"경기도 남양주시 평내동 579번지 하나프라자 705호","category":"보건위생 - 화장품"},{"name":"아모레카운셀러","tel":"031-591-6478","addr":"경기도 남양주시 평내동 579번지 하나프라자 705호","category":"보건위생 - 화장품"},{"name":"아모레카운셀러","tel":"031-591-6478","addr":"경기도 남양주시 평내동 579번지 하나프라자 705호","category":"보건위생 - 화장품"},{"name":"아모레카운셀러","tel":"034-591-6478","addr":"경기도 남양주시 평내동 579번지 하나프라자 705호","category":"보건위생 - 화장품"},{"name":"아모레카운셀러","tel":"031-591-6478","addr":"경기도 남양주시 평내동 579번지 하나프라자 705호","category":"보건위생 - 화장품"},{"name":"아모레카운셀러","tel":"031-591-6478","addr":"경기도 남양주시 평내동 579번지 하나프라자 705호","category":"보건위생 - 화장품"},{"name":"아모레카운셀러","tel":"031-591-6478","addr":"경기도 남양주시 평내동 579 하나프라자 705","category":"보건위생 - 화장품"},{"name":"아모레카운셀러","tel":"031-591-6478","addr":"경기도 남양주시 평내동 579번지 하나프라자 705호","category":"보건위생 - 화장품"},{"name":"아모레카운셀러","tel":"031-591-6478","addr":"경기도 남양주시 평내동 579번지 하나프라자 705호","category":"보건위생 - 화장품"},{"name":"아모레카운셀러","tel":"031-591-6478","addr":"경기도 남양주시 평내동 579번지 하나프라자 705호","category":"보건위생 - 화장품"},{"name":"아모레카운셀러","tel":"031-591-6479","addr":"경기도 남양주시 평내동 579번지 하나프라자 705호","category":"보건위생 - 화장품"},{"name":"아모레카운셀러","tel":"031-591-6478","addr":"경기도 남양주시 평내동 579번지 하나프라자 705호","category":"보건위생 - 화장품"},{"name":"아모레카운셀러","tel":"031-591-6479","addr":"경기도 남양주시 평내동 579번지 하나프라자 705호","category":"보건위생 - 화장품"},{"name":"아모레카운셀러","tel":"031-591-6478","addr":"경기도 남양주시 평내동 579번지 하나프라자 705호","category":"보건위생 - 화장품"},{"name":"아모레카운셀러","tel":"031-591-6479","addr":"경기도 남양주시 평내동 579번지 하나프라자 705호","category":"보건위생 - 화장품"},{"name":"아모레카운셀러","tel":"031-591-6479","addr":"경기도 남양주시 평내동 579번지 하나프라자 705호","category":"보건위생 - 화장품"},{"name":"아모레카운셀러","tel":"031-591-6479","addr":"경기도 남양주시 평내동 579번지 하나프라자 705호","category":"보건위생 - 화장품"},{"name":"아모레카운셀러","tel":"031-591-6479","addr":"경기도 남양주시 평내동 579 하나프라자705","category":"보건위생 - 화장품"},{"name":"아모레카운셀러","tel":"031-591-6478","addr":"경기도 남양주시 평내동 579번지 하나프라자 705호","category":"보건위생 - 화장품"},{"name":"아모레카운셀러","tel":"031-591-6479","addr":"경기도 남양주시 평내동 579번지 하나프라자 705호","category":"보건위생 - 화장품"},{"name":"아모레카운셀러","tel":"031-591-6479","addr":"경기도 남양주시 평내동 579번지 하나프라자","category":"보건위생 - 화장품"},{"name":"아모레카운셀러","tel":"031-591-6478","addr":"경기도 남양주시 평내동 579번지 하나프라자 705호","category":"보건위생 - 화장품"},{"name":"아모레카운셀러","tel":"031-591-6478","addr":"경기도 남양주시 평내동 579번지 하나프라자 705호","category":"보건위생 - 화장품"},{"name":"아모레카운셀러","tel":"031-591-6479","addr":"경기도 남양주시 평내동 579번지 하나프라자 705호","category":"보건위생 - 화장품"},{"name":"아모레카운셀러","tel":"031-591-6478","addr":"경기도 남양주시 평내동 579번지 하나프라자 705호","category":"보건위생 - 화장품"},{"name":"아모레카운셀러","tel":"031-591-6478","addr":"경기도 남양주시 평내동 579번지 하나프라자 705호","category":"보건위생 - 화장품"},{"name":"아모레카운셀러","tel":"031-591-6479","addr":"경기도 남양주시 평내동 579번지 하나프라자 705호","category":"보건위생 - 화장품"},{"name":"아모레카운셀러","tel":"031-591-6479","addr":"경기도 남양주시 평내동 579번지 하나프라자","category":"보건위생 - 화장품"},{"name":"아모레카운셀러","tel":"031-591-6478","addr":"경기도 남양주시 평내동 579번지 하나프라자 705호","category":"보건위생 - 화장품"},{"name":"아모레카운셀러","tel":"031-591-6479","addr":"경기도 남양주시 평내동 579번지 하나프라자 705호","category":"보건위생 - 화장품"},{"name":"아모레카운셀러","tel":"031-591-6479","addr":"경기도 남양주시 평내동 579번지 하나프라자 705호","category":"보건위생 - 화장품"},{"name":"아모레카운셀러","tel":"031-591-6478","addr":"경기도 남양주시 평내동 579번지 하나프라자 705호","category":"보건위생 - 화장품"},{"name":"아모레카운셀러","tel":"031-591-6478","addr":"경기도 남양주시 평내동 579번지 하나프라자 705호","category":"보건위생 - 화장품"},{"name":"아모레카운셀러","tel":"031-591-6479","addr":"경기도 남양주시 평내동 579번지 하나프라자 705호","category":"보건위생 - 화장품"},{"name":"아모레카운셀러","tel":"031-591-6478","addr":"경기도 남양주시 평내동 579번지 하나프라자 705호","category":"보건위생 - 화장품"},{"name":"아모레카운셀러","tel":"031-591-6478","addr":"경기도 남양주시 평내동 579번지 하나프라자 705호","category":"보건위생 - 화장품"},{"name":"아모레카운셀러","tel":"031-591-6478","addr":"경기도 남양주시 평내동 579번지 하나프라자 705호","category":"보건위생 - 화장품"},{"name":"아모레카운셀러","tel":"031-591-6478","addr":"경기도 남양주시 평내동 579번지 하나프라자 705호","category":"보건위생 - 화장품"},{"name":"아모레카운셀러","tel":"031-591-6478","addr":"경기도 남양주시 평내동 579번지 하나프라자 705호","category":"보건위생 - 화장품"},{"name":"아모레카운셀러","tel":"031-591-6478","addr":"경기도 남양주시 평내동 579번지 하나프라자 7층 705호","category":"보건위생 - 화장품"},{"name":"아모레카운셀러","tel":"031-591-6479","addr":"경기도 남양주시 평내동 579번지 하나프라자 705호","category":"보건위생 - 화장품"},{"name":"아모레카운셀러(오진선)","tel":"031-591-6478","addr":"경기도 남양주시 평내동 579번지 하나프라자 705호","category":"보건위생 - 화장품"},{"name":"아모레카운셀러/유영미","tel":"031-591-6478","addr":"경기도 남양주시 평내동 579번지 하나프라자 705호","category":"보건위생 - 화장품"},{"name":"아모레카운셀러/이명숙","tel":"031-591-6478","addr":"경기도 남양주시 평내동 579번지 하나프라자 705호","category":"보건위생 - 화장품"},{"name":"아모레퍼시픽","tel":"031-591-6478","addr":"경기도 남양주시 평내동 579번지 하나프라자 7층 705호","category":"보건위생 - 화장품"},{"name":"아모레퍼시픽","tel":"031-591-6479","addr":"경기도 남양주시 평내동 579번지 하나프라자 705호","category":"보건위생 - 화장품"},{"name":"아모레퍼시픽","tel":"031-591-6478","addr":"경기도 남양주시 평내동 579번지 하나프라자 705호","category":"보건위생 - 화장품"},{"name":"아모레퍼시픽","tel":"031-591-6478","addr":"경기도 남양주시 평내동 579번지 하나프라자 706호","category":"보건위생 - 화장품"},{"name":"아모레화장품","tel":"031-591-6478","addr":"경기도 남양주시 평내동 579번지 하나프라자 705호","category":"보건위생 - 화장품"},{"name":"에이치제이푸드","tel":"","addr":"경기도 남양주시 평내동 579번지 하나프라자 1층 115호","category":"일반휴게음식 - 일반한식"},{"name":"연세실용음악학원","tel":"070-8277-8267","addr":"경기도 남양주시 평내동 579번지 하나프라자 701호","category":"학원 - 예·체능계학원"},{"name":"이영건정형외과의원","tel":"031-592-6695","addr":"경기도 남양주시 평내동 579번지 하나프라자 3층 304호","category":"의원 - 의원"},{"name":"이현어패럴","tel":"031-595-6396","addr":"경기도 남양주시 평내동 579번지 지상동 1층 118호","category":"의류 - 정장"},{"name":"정도 엘이디(LED)","tel":"031-591-2700","addr":"경기도 남양주시 평내동 579번지 하나프라자 117,118호","category":"건축자재 - 조명기구"},{"name":"주소현세무회계사무소","tel":"031-591-2783","addr":"경기도 남양주시 평내동 579 하나플라자 405호","category":"용역 서비스 - 법률회계서비스(개인)"},{"name":"주식회사 그린포레","tel":"031-877-1851","addr":"경기도 남양주시 평내동 579번지 하나프라자 605호","category":"용역 서비스 - 사무서비스"},{"name":"참치자객","tel":"031-559-3759","addr":"경기도 남양주시 평내동 579번지 하나프라자 106동 107호","category":"일반휴게음식 - 일식·회집"},{"name":"퀸","tel":"070-2699-0807","addr":"경기도 남양주시 평내동 579번지 하나프라자 1층 110호","category":"의류 - 내의판매"},{"name":"평안요양원","tel":"031-511-3900","addr":"경기도 남양주시 평내동 579번지 하나프라자 9층 901호","category":"기타의료기관 - 기타의료기관 및 기타"},{"name":"하나프라자상가관리단","tel":"031-511-9974","addr":"경기도 남양주시 평내동 579번지 하나프라자 관리사무소","category":"자동차정비 유지 - 주차장"},{"name":"화장품타운","tel":"031-559-5884","addr":"경기도 남양주시 평내동 50-1블럭하나프라자1-105","category":"보건위생 - 화장품"}]},{"lat":"37.65191744","long":"127.24180135","items":[{"name":"(주)케이엔제이(KNJ Co.Ltd)","tel":"031-111-1111","addr":"경기도 남양주시 평내동 130-21번지 1층","category":"자동차정비 유지 - 세차장"}]},{"lat":"37.647664806","long":"127.24183306","items":[{"name":"(주)프라우덱스코리아","tel":"070-7772-5885","addr":"경기도 남양주시 평내동 595-1번지 101호","category":"보건위생 - 화장품"},{"name":"금천공조","tel":"031-1588-3366","addr":"경기도 남양주시 평내동 595-1번지 302 (302호~302호)","category":"회원제형태 - 기타4"},{"name":"마이렌탈","tel":"070-8229-4297","addr":"경기도 남양주시 평내동 595-1번지 101호","category":"신변잡화 - 기타잡화"}]},{"lat":"37.642663957","long":"127.23757948","items":[{"name":"09분식","tel":"031-000-0000","addr":"경기도 남양주시 평내동 604-4번지 성원프라자 1층 101호","category":"일반휴게음식 - 스넥"},{"name":"W골프","tel":"031-559-1449","addr":"경기도 남양주시 평내동 604-4번지 성원프라자 4층 401호","category":"레저업소 - 골프연습장"},{"name":"만타노수학교습소","tel":"031-595-1029","addr":"경기도 남양주시 평내동 604-4번지 성원프라자 3층일부","category":"학원 - 보습학원"},{"name":"미니비어","tel":"031-594-8904","addr":"경기도 남양주시 평내동 604-4번지 성원프라자 1층","category":"일반휴게음식 - 주점"},{"name":"봉평산골메밀촌","tel":"031-591-7994","addr":"경기도 남양주시 평내동 604-4번지 성원프라자 1층","category":"일반휴게음식 - 일반한식"},{"name":"비욘드어학원","tel":"02-591-2055","addr":"경기도 남양주시 평내동 604-4번지 성원프라자","category":"회원제형태 - 학원"},{"name":"사임당화장품 남양주지사","tel":"031-592-1983","addr":"경기도 남양주시 평내동 604-4번지 성원프라자 2층","category":"보건위생 - 화장품"},{"name":"엠아이티수학","tel":"031-559-3775","addr":"경기도 남양주시 평내동 604-4번지 성원프라자 3층 301호","category":"학원 - 보습학원"},{"name":"카라","tel":"031-511-3201","addr":"경기도 남양주시 평내동 604-4번지 성원프라자 103호","category":"의류 - 정장"},{"name":"화목금DIY","tel":"031-594-1913","addr":"경기도 남양주시 평내동 604-4번지 성원프라자 1층 102호","category":"문화.취미 - 화원"}]},{"lat":"37.643084596","long":"127.22980813","items":[{"name":"202호 공작소","tel":"031-246-7230","addr":"경기도 남양주시 평내동 556-3번지 102호","category":"문화.취미 - 민예·공예품"},{"name":"생물나라","tel":"031-591-1265","addr":"경기도 남양주시 평내동 556-3번지 지층 B02호","category":"문화.취미 - 수족관"}]},{"lat":"37.651003821","long":"127.23913549","items":[{"name":"24시편의점","tel":"031-591-0449","addr":"경기도 남양주시 평내동 121-10번지","category":"유통업 영리 - 편 의 점"},{"name":"경기서비스센타","tel":"031-594-0834","addr":"경기도 남양주시 평내동 121-10번지 유성빌딩 1층","category":"수리서비스 - 기타수리서비스"},{"name":"구영옥 댄스아카데미","tel":"031-595-6999","addr":"경기도 남양주시 평내동 121-10번지 유성빌딩 5층","category":"학원 - 예·체능계학원"},{"name":"다온파스타","tel":"031-594-3444","addr":"경기도 남양주시 평내동 121-10번지 정환빌딩 1층 108호","category":"일반휴게음식 - 서양음식"},{"name":"도미노피자 호평평내점","tel":"031-594-3037","addr":"경기도 남양주시 평내동 121-10번지 유성빌딩 1층","category":"일반휴게음식 - 서양음식"},{"name":"리홈/쿠첸 남양주서비스","tel":"031-511-0824","addr":"경기도 남양주시 평내동 121-10번지","category":"수리서비스 - 가정용품수리"},{"name":"제이 인 헤어","tel":"031-595-2957","addr":"경기도 남양주시 평내동 121-10번지 유성빌딩 1층","category":"보건위생 - 미용원"},{"name":"주식회사 젯","tel":"031-595-9566","addr":"경기도 남양주시 평내동 121-10번지","category":"용역 서비스 - 사무서비스"},{"name":"평내안전오토바이","tel":"031-591-3967","addr":"경기도 남양주시 평내동 121-10번지 유성빌딩 1층","category":"자동차판매 - 이륜차판매"},{"name":"평내호평영원한미소미술학원","tel":"031-593-8340","addr":"경기도 남양주시 평내동 121-10번지 유성빌딩 2층 일부","category":"학원 - 예·체능계학원"}]},{"lat":"37.643196898","long":"127.23689","items":[{"name":"CAFE 마카롱","tel":"031-594-9318","addr":"경기도 남양주시 평내동 604번지 드림코아 112호","category":"음료식품 - 제과점"},{"name":"GS25평내드림점","tel":"","addr":"경기도 남양주시 평내동 604번지 104, 105호","category":"유통업 영리 - 편 의 점"},{"name":"구피샵 평내점","tel":"031-511-5536","addr":"경기도 남양주시 평내동 604번지 드림코아 1층 102호","category":"보건위생 - 미용원"},{"name":"국수나무","tel":"031-591-0042","addr":"경기도 남양주시 평내동 604번지 평내동드림코아 108호","category":"일반휴게음식 - 일반한식"},{"name":"마지크","tel":"031-592-1005","addr":"경기도 남양주시 평내동 604번지 드림코어 107호","category":"보건위생 - 미용원"},{"name":"머리카락헤어샵","tel":"031-592-7669","addr":"경기도 남양주시 평내동 604번지 드림코아 111호","category":"보건위생 - 미용원"},{"name":"머리카락헤어샵","tel":"031-567-9269","addr":"경기도 남양주시 평내동 604번지 드림코아 111호","category":"보건위생 - 미용원"},{"name":"부어치킨","tel":"031-594-9282","addr":"경기도 남양주시 평내동 604번지 드림코아 115호","category":"일반휴게음식 - 주점"},{"name":"블링블링평내점","tel":"031-591-1977","addr":"경기도 남양주시 평내동 604번지 드림코아 114호","category":"보건위생 - 피부미용실"},{"name":"샹떼PC방 남양주평내본점","tel":"","addr":"경기도 남양주시 평내동 604번지 드림코아 상가동 204호,205호","category":"레저업소 - 기타레져업소"},{"name":"석봉복권토스트","tel":"031-593-9270","addr":"경기도 남양주시 평내동 604번지 드림코아 113호","category":"일반휴게음식 - 스넥"},{"name":"씨조마지크","tel":"031-592-1005","addr":"경기도 남양주시 평내동 604번지 드림코아 107호","category":"보건위생 - 화장품"},{"name":"언니네커피","tel":"031-559-4345","addr":"경기도 남양주시 평내동 604번지 드림코아 104호","category":"일반휴게음식 - 서양음식"},{"name":"얼음과자 평내점","tel":"070-8829-4862","addr":"경기도 남양주시 평내동 604번지 드림코아 106호","category":"유통업 영리 - 슈퍼마켓"},{"name":"쭈니하우스","tel":"031-511-4926","addr":"경기도 남양주시 평내동 604번지 드림코아 110호","category":"일반휴게음식 - 스넥"},{"name":"쿵떡","tel":"031-511-6414","addr":"경기도 남양주시 평내동 604번지 드림코아 112호","category":"음료식품 - 제과점"},{"name":"크린토피아마젤란점","tel":"031-511-0515","addr":"경기도 남양주시 평내동 604번지 드림코아 106호","category":"수리서비스 - 세탁소"},{"name":"평내지앤비어학원","tel":"031-111-1111","addr":"경기도 남양주시 평내동 604번지 드림코아 201호 202호","category":"학원 - 외국어학원"},{"name":"평내화원","tel":"031-591-5425","addr":"경기도 남양주시 평내동 604번지 드림코아 103호","category":"문화.취미 - 화원"},{"name":"플로우요가원","tel":"031-559-6561","addr":"경기도 남양주시 평내동 604번지 드림코아 204호","category":"회원제형태 - 레져업소"},{"name":"피자스쿨 평내점","tel":"031-594-8882","addr":"경기도 남양주시 평내동 604번지 드림코아 109호","category":"일반휴게음식 - 서양음식"}]},{"lat":"37.643394076","long":"127.23741182","items":[{"name":"D스튜디오","tel":"070-8956-7270","addr":"경기도 남양주시 평내동 603번지 평내동씨티프라자 204호","category":"광학제품 - 사진관"},{"name":"MS노래연습장","tel":"031-559-7077","addr":"경기도 남양주시 평내동 603번지 시티프라자 304,305호","category":"레저업소 - 노 래 방"},{"name":"강무관 호신술 아카데미","tel":"031-521-7782","addr":"경기도 남양주시 평내동 603번지 씨티프라자 504호","category":"학원 - 예·체능계학원"},{"name":"김밥사랑","tel":"031-595-5900","addr":"경기도 남양주시 평내동 603번지 씨티프라자 104호","category":"일반휴게음식 - 일반한식"},{"name":"대박고기","tel":"070-8801-4028","addr":"경기도 남양주시 평내동 603번지 씨티프라자 109호","category":"일반휴게음식 - 일반한식"},{"name":"도로시","tel":"031-595-0779","addr":"경기도 남양주시 평내동 603번지 씨티프라자 105호","category":"보건위생 - 미용원"},{"name":"두란노학원","tel":"031-516-0191","addr":"경기도 남양주시 평내동 603번지 평내동씨티프라자 501호","category":"학원 - 보습학원"},{"name":"랑데뷰","tel":"031-511-1310","addr":"경기도 남양주시 평내동 603번지 씨티프라자 107호","category":"일반휴게음식 - 스넥"},{"name":"러블리헤어","tel":"031-592-4478","addr":"경기도 남양주시 평내동 603번지 평내동씨티프라자 107호","category":"보건위생 - 미용원"},{"name":"마인드에듀센터(MIND EDU CENTER)","tel":"070-8772-8301","addr":"경기도 남양주시 평내동 603번지 평내동씨티프라자 201호","category":"학원 - 기타 교육기관"},{"name":"명품스마일찹쌀꽈베기","tel":"031-591-2751","addr":"경기도 남양주시 평내동 603번지 씨티프라자 107호","category":"일반휴게음식 - 일반한식"},{"name":"모젠하우스","tel":"031-559-3376","addr":"경기도 남양주시 평내동 603외1필지 시티프라자403,404,405호","category":"학원 - 독서실"},{"name":"미래교육(사)모두사랑나눔회 경기도서부지","tel":"070-4795-0899","addr":"경기도 남양주시 평내동 603번지 평내동씨티프라자 302호","category":"학원 - 기타 교육기관"},{"name":"베니","tel":"031-595-8424","addr":"경기도 남양주시 평내동 603외1필지105","category":"일반휴게음식 - 서양음식"},{"name":"베니샵","tel":"031-591-2702","addr":"경기도 남양주시 평내동 603번지 씨티프라자 108호","category":"의류 - 기타의류"},{"name":"어벤져스학원","tel":"031-595-4235","addr":"경기도 남양주시 평내동 603번지 씨티프라자 5층 502호","category":"학원 - 보습학원"},{"name":"올라학원","tel":"031-511-9844","addr":"경기도 남양주시 평내동 603번지 씨티프라자 202호","category":"학원 - 보습학원"},{"name":"점폴린파크평내점","tel":"031-592-7340","addr":"경기도 남양주시 평내동 603번지","category":"레저업소 - 기타레져업소"},{"name":"진구스짐","tel":"070-4045-9299","addr":"경기도 남양주시 평내동 603번지 평내동씨티프라자 402호","category":"회원제형태 - 레져업소"},{"name":"짱떡볶이","tel":"031-000-0000","addr":"경기도 남양주시 평내동 603번지 씨티프라자 101호","category":"일반휴게음식 - 스넥"},{"name":"창의숲에듀센터","tel":"","addr":"경기도 남양주시 평내동 603번지 씨티프라자 2층 1호","category":"학원 - 기타 교육기관"},{"name":"케이라인 교육산업","tel":"070-4413-7799","addr":"경기도 남양주시 평내동 603번지 씨티프라자 4층 401호","category":"서적문구 - 기타서적문구"},{"name":"평내물닭갈비","tel":"031-594-5370","addr":"경기도 남양주시 평내동 603번지 씨티프라자 1층 102호","category":"일반휴게음식 - 일반한식"},{"name":"필토탈인테리어","tel":"031-511-7714","addr":"경기도 남양주시 평내동 603번지 시티프라자 103호","category":"건축자재 - 인테리어전문"},{"name":"한우랑 한돈이랑","tel":"031-595-5251","addr":"경기도 남양주시 평내동 603번지 씨티프라자 1층 106호","category":"음료식품 - 정육점"}]},{"lat":"37.644270808","long":"127.24051916","items":[{"name":"FH 천수누리","tel":"031-591-7970","addr":"경기도 남양주시 평내동 601번지 평내마을신명스카이뷰 1802동 1404호","category":"유통업 영리 - 기타유통업"}]},{"lat":"37.649443816","long":"127.2397991","items":[{"name":"GS25남양주대명점","tel":"02-2006-2485","addr":"경기도 남양주시 평내동 107-1 대평@2동1층4호","category":"유통업 영리 - 편 의 점"},{"name":"늘푸른어린이집[아이행복]","tel":"031-592-7143","addr":"경기도 남양주시 평내동 107-1번지 대명아파트","category":"학원 - 유아원"},{"name":"평내칸타빌레음악학원","tel":"031-591-5505","addr":"경기도 남양주시 평내동 107-1번지 대명아파트 2층 8호","category":"학원 - 예·체능계학원"}]},{"lat":"37.646976382","long":"127.23919072","items":[{"name":"GS25평내데시앙점","tel":"02-2006-2118","addr":"경기도 남양주시 평내동 592 상록데시앙상가 105","category":"유통업 영리 - 편 의 점"},{"name":"e해법수학교습소","tel":"031-593-2456","addr":"경기도 남양주시 평내동 592번지 평내마을상록데시앙 상가 202호","category":"회원제형태 - 학원"},{"name":"상록세탁소","tel":"031-511-9022","addr":"경기도 남양주시 평내동 592 평내마을상록데시앙103","category":"수리서비스 - 세탁소"},{"name":"아름다운헤어샵","tel":"031-595-0662","addr":"경기도 남양주시 평내동 592 상록데시앙상가 206","category":"보건위생 - 미용원"},{"name":"카페제이(아이다)","tel":"031-511-0809","addr":"경기도 남양주시 평내동 592번지 상복데시앙apt상가 1층 102호","category":"일반휴게음식 - 서양음식"}]},{"lat":"37.643416249","long":"127.23069291","items":[{"name":"GS25평내중앙점","tel":"","addr":"경기도 남양주시 평내동 559번지","category":"유통업 영리 - 편 의 점"},{"name":"에스헤어","tel":"031-592-6066","addr":"경기도 남양주시 평내동 559번지 102호","category":"보건위생 - 미용원"}]},{"lat":"37.64044848","long":"127.22786267","items":[{"name":"HR조명전기","tel":"031-555-5987","addr":"경기도 남양주시 평내동 370-7번지","category":"건축자재 - 조명기구"}]},{"lat":"37.645336098","long":"127.23491382","items":[{"name":"HU PC","tel":"031-0000-0000","addr":"경기도 남양주시 평내동 578-3번지 메인프라자 3층","category":"레저업소 - 기타레져업소"},{"name":"KLT실전태권도","tel":"031-559-5533","addr":"경기도 남양주시 평내동 578-3번지 평내메인프라자 201호","category":"학원 - 예·체능계학원"},{"name":"THE 멋 GYM","tel":"031-595-2885","addr":"경기도 남양주시 평내동 578-3번지 메인프라자 2층 201호","category":"레저업소 - 헬스클럽"},{"name":"경무관","tel":"031-559-7942","addr":"경기도 남양주시 평내동 578-3번지 평내메인프라자 604호","category":"학원 - 예·체능계학원"},{"name":"김경욱내과의원","tel":"031-595-8575","addr":"경기도 남양주시 평내동 578-3번지 평내메인프라자 2층 202호","category":"의원 - 의원"},{"name":"김보경뷰티샵","tel":"031-592-3728","addr":"경기도 남양주시 평내동 578-3번지 평내메인프라자 303호","category":"보건위생 - 피부미용실"},{"name":"남양주어르신주간보호","tel":"031-591-5060","addr":"경기도 남양주시 평내동 578-3번지 메인프라자 4층 405-407호","category":"기타의료기관 - 기타의료기관 및 기타"},{"name":"남양주어르신주간보호","tel":"031-591-5003","addr":"경기도 남양주시 평내동 578-3번지 메인프라자 405~407호","category":"기타의료기관 - 기타의료기관 및 기타"},{"name":"뉴리얼 수학학원","tel":"031-523-9020","addr":"경기도 남양주시 평내동 578-3번지 메인프라자 602호","category":"학원 - 보습학원"},{"name":"대한S&C","tel":"031-567-5133","addr":"경기도 남양주시 평내동 578-3번지 평내메인프라자 109호,111호","category":"자동차정비 유지 - 자동차부품"},{"name":"대한S&C,홍성문커피","tel":"031-567-5133","addr":"경기도 남양주시 평내동 578-3번지 평내메인프라자 109호,111호","category":"일반휴게음식 - 서양음식"},{"name":"더만족해(The 만족해)","tel":"031-593-7885","addr":"경기도 남양주시 평내동 578-3번지 평내메인프라자 206호","category":"일반휴게음식 - 일반한식"},{"name":"더연세실버전문요양원(주)","tel":"031-595-2601","addr":"경기도 남양주시 평내동 578-3번지 평내메인프라자 801호","category":"기타의료기관 - 기타의료기관 및 기타"},{"name":"맥한의원","tel":"031-591-8575","addr":"경기도 남양주시 평내동 578-3번지 평내메일프라자 401호","category":"의원 - 한의원"},{"name":"메인프라자 상가번영회","tel":"031-593-4404","addr":"경기도 남양주시 평내동 578-3번지 메인프라자 304-1호","category":"자동차정비 유지 - 주차장"},{"name":"명지대다물도장","tel":"031-591-9895","addr":"경기도 남양주시 평내동 578-3번지 평내메인프라자 3층 306호","category":"학원 - 예·체능계학원"},{"name":"모아수학학원","tel":"031-594-4585","addr":"경기도 남양주시 평내동 578-3번지 메인프라자 503호","category":"학원 - 보습학원"},{"name":"모짜르테움음악학원","tel":"031-511-6055","addr":"경기도 남양주시 평내동 578-3번지 메인프라자 307호","category":"학원 - 예·체능계학원"},{"name":"뮤포토스튜디오","tel":"02-987-8728","addr":"경기도 남양주시 평내동 578-3번지 평내메인프라자 304호","category":"광학제품 - 사진관"},{"name":"바디앤미 스킨케어","tel":"031-595-7070","addr":"경기도 남양주시 평내동 578-3번지 메인프라자 1층 120호","category":"보건위생 - 피부미용실"},{"name":"뷰티살롱쏘뷰티","tel":"031-591-3363","addr":"경기도 남양주시 평내동 578-3번지 메인프라자 503-1호","category":"보건위생 - 피부미용실"},{"name":"사이버파크PC방","tel":"031-511-4279","addr":"경기도 남양주시 평내동 578-3번지 평내메인프라자상가 502호","category":"레저업소 - 기타레져업소"},{"name":"솜솜아뜰리에미술학원","tel":"070-8822-7214","addr":"경기도 남양주시 평내동 578-3번지 평내메인프라자 602호","category":"학원 - 예·체능계학원"},{"name":"스마일휘트니스센터","tel":"031-513-0020","addr":"경기도 남양주시 평내동 578-3메인프라자10-1","category":"회원제형태 - 기타4"},{"name":"씨유평내메인점","tel":"031-559-9711","addr":"경기도 남양주시 평내동 578-3번지 평내메인프라자 110호","category":"유통업 영리 - 편 의 점"},{"name":"아카데미라운지 평내독서실","tel":"031-510-7763","addr":"경기도 남양주시 평내동 578-3번지 메인프라자 10층 1001호","category":"학원 - 독서실"},{"name":"앤써헤어","tel":"031-523-2121","addr":"경기도 남양주시 평내동 578-3번지 평내메인프라자 121호~122호","category":"보건위생 - 미용원"},{"name":"에그트리","tel":"031-577-0858","addr":"경기도 남양주시 평내동 578-3번지 메인프라자 207호","category":"일반휴게음식 - 서양음식"},{"name":"예사랑치과의원","tel":"031-593-2875","addr":"경기도 남양주시 평내동 578-3 평내메인프라자 4층 2-1","category":"의원 - 치과의원"},{"name":"와와노래연습장","tel":"031-559-4363","addr":"경기도 남양주시 평내동 578-3번지 평내메인프라자 302호","category":"레저업소 - 노 래 방"},{"name":"이지씨어터연기학원","tel":"031-559-2909","addr":"경기도 남양주시 평내동 578-3번지 메인프라자 504호","category":"학원 - 예·체능계학원"},{"name":"일공공일안경평내점","tel":"031-559-4755","addr":"경기도 남양주시 평내동 578-3번지 메인프라자 103호","category":"보건위생 - 안경"},{"name":"점프아이","tel":"031-511-8144","addr":"경기도 남양주시 평내동 578-3번지 메인프라자 505호","category":"레저업소 - 기타레져업소"},{"name":"제이콥실전영어학원","tel":"031-523-3050","addr":"경기도 남양주시 평내동 578-3번지 메인프라자 4층 403-1호","category":"학원 - 보습학원"},{"name":"주식회사 양스스토어(Yang's Store)","tel":"070-7782-1604","addr":"경기도 남양주시 평내동 578-3번지 메인프라자 403호","category":"보건위생 - 화장품"},{"name":"주식회사로하스텔레콤","tel":"031-559-1200","addr":"경기도 남양주시 평내동 578-3번지 평내메인프라자 120호","category":"사무통신 - 통신기기"},{"name":"청춘다방","tel":"031-592-5858","addr":"경기도 남양주시 평내동 578-3번지 평내메인프라자 1층 101호","category":"일반휴게음식 - 스넥"},{"name":"쿠키스타","tel":"","addr":"경기도 남양주시 평내동 578-3번지 메인프라자 112호","category":"음료식품 - 기타음료식품"},{"name":"평내G1230독서실","tel":"031-559-9200","addr":"경기도 남양주시 평내동 578-3번지 메인프라자 601호 일부호","category":"학원 - 독서실"},{"name":"평내경희음악학원","tel":"031-594-7111","addr":"경기도 남양주시 평내동 578-3번지 메인프라자 6층 605호","category":"학원 - 예·체능계학원"},{"name":"평내성심약국","tel":"031-511-2101","addr":"경기도 남양주시 평내동 578-3번지 메인프라자 202-1호","category":"약국 - 약국"},{"name":"평내영어도서관","tel":"070-4192-1905","addr":"경기도 남양주시 평내동 578-3번지 평내메인프라자 5층 505호","category":"학원 - 독서실"},{"name":"평내지1230학원","tel":"031-559-9200","addr":"경기도 남양주시 평내동 578-3번지 메인프라자 601호","category":"학원 - 외국어학원"},{"name":"프로당구장","tel":"031-559-5975","addr":"경기도 남양주시 평내동 578-3번지 메인프라자 5층 501호","category":"레저업소 - 당 구 장"},{"name":"호랭이떡방","tel":"031-511-2115","addr":"경기도 남양주시 평내동 578-3번지 메인프라자 114호","category":"음료식품 - 제과점"},{"name":"휴대폰DC마트","tel":"","addr":"경기도 남양주시 평내동 578-3번지 메인프라자 1층 104호","category":"사무통신 - 통신기기"},{"name":"힐링엔젤스","tel":"031-516-1411","addr":"경기도 남양주시 평내동 578-3번지 메인프라자 404호","category":"신변잡화 - 기타잡화"}]},{"lat":"37.645588902","long":"127.23464267","items":[{"name":"JJ빌리아드","tel":"031-559-1748","addr":"경기도 남양주시 평내동 578-2번지 평내프라자 205호","category":"레저업소 - 당 구 장"},{"name":"감탄평내점","tel":"031-559-9558","addr":"경기도 남양주시 평내동 578-2번지 평내프라자 101호","category":"일반휴게음식 - 스넥"},{"name":"고마대구탕","tel":"031-559-5203","addr":"경기도 남양주시 평내동 578-2번지 평내프라자 103호","category":"일반휴게음식 - 일반한식"},{"name":"고봉민김밥인","tel":"031-593-5004","addr":"경기도 남양주시 평내동 578-2번지 평내프라자 103호","category":"일반휴게음식 - 일반한식"},{"name":"김양비어&포차 평내점","tel":"031-539-0945","addr":"경기도 남양주시 평내동 578-2번지 116호, 117호","category":"일반휴게음식 - 주점"},{"name":"나비노래연습장","tel":"031-595-4585","addr":"경기도 남양주시 평내동 578-2번지 평내프라자 302호","category":"레저업소 - 노 래 방"},{"name":"네이처컬렉션","tel":"031-594-1435","addr":"경기도 남양주시 평내동 578-2번지 평내프라자 105호","category":"보건위생 - 화장품"},{"name":"또봉이통닭","tel":"031-595-5844","addr":"경기도 남양주시 평내동 578-2번지 평내프라자 113호","category":"일반휴게음식 - 스넥"},{"name":"마음모아요양보호사교육원","tel":"031-593-5533","addr":"경기도 남양주시 평내동 578-2번지 평내프라자","category":"회원제형태 - 학원"},{"name":"벤또&동","tel":"031-592-0702","addr":"경기도 남양주시 평내동 578-2번지 평내프라자 118호","category":"일반휴게음식 - 일반한식"},{"name":"뿔난닭발","tel":"031-511-6231","addr":"경기도 남양주시 평내동 578-2번지 평내프라자 111호","category":"일반휴게음식 - 일반한식"},{"name":"쁘띠아이 키즈카페","tel":"031-593-5265","addr":"경기도 남양주시 평내동 578-2번지 평내프라자 501호 일부","category":"레저업소 - 기타레져업소"},{"name":"서유기","tel":"031-559-6554","addr":"경기도 남양주시 평내동 578-2번지 평내프라자 1층 104호","category":"일반휴게음식 - 주점"},{"name":"아이팰어학원","tel":"031-511-5979","addr":"경기도 남양주시 평내동 578-2번지 평내프라자","category":"학원 - 외국어학원"},{"name":"안상열 다이어트 복싱클럽","tel":"031-592-8279","addr":"경기도 남양주시 평내동 578-2번지 평내프라자 3층 306호","category":"회원제형태 - 레져업소"},{"name":"엄마손약국","tel":"031-559-7985","addr":"경기도 남양주시 평내동 578-2번지 평내프라자 407호","category":"약국 - 약국"},{"name":"오꾸꼬 평내점","tel":"031-559-5863","addr":"경기도 남양주시 평내동 578-2번지 평내프라자 107호","category":"일반휴게음식 - 일반한식"},{"name":"이태원소아과","tel":"031-559-5200","addr":"경기도 남양주시 평내동 578-2번지 평내프라자 401호","category":"의원 - 의원"},{"name":"인디라벨(평내점)","tel":"070-8612-9729","addr":"경기도 남양주시 평내동 578-2번지 평내프라자 102호","category":"의류 - 정장"},{"name":"주니유니","tel":"031-592-3750","addr":"경기도 남양주시 평내동 578-2 113호~115호","category":"서적문구 - 문구용품"},{"name":"주식회사 솔비정보통신","tel":"070-4112-5062","addr":"경기도 남양주시 평내동 578-2번지 평내프라자 306호","category":"사무통신 - 컴퓨터"},{"name":"쭈노치킨가게","tel":"031-593-1101","addr":"경기도 남양주시 평내동 578-2번지 평내프라자 112호","category":"일반휴게음식 - 스넥"},{"name":"천하대만족","tel":"031-511-8409","addr":"경기도 남양주시 평내동 578-2번지 평내프라자 115호","category":"일반휴게음식 - 일반한식"},{"name":"청춘골뱅이","tel":"","addr":"경기도 남양주시 평내동 578-2번지 평내프라자 1층 106호","category":"일반휴게음식 - 일반한식"},{"name":"키즈키즈어학원","tel":"031-595-8851","addr":"경기도 남양주시 평내동 578-2번지 평내프라자 404호","category":"학원 - 보습학원"},{"name":"토즈 멤버십라운지 평내센터","tel":"031-595-9969","addr":"경기도 남양주시 평내동 578-2번지 평내프라자 601호","category":"용역 서비스 - 사무서비스"},{"name":"토즈스터디센터 평내독서실","tel":"031-595-9969","addr":"경기도 남양주시 평내동 578-2번지 평내프라자 601호","category":"학원 - 독서실"},{"name":"티에스푸드","tel":"031-528-6263","addr":"경기도 남양주시 평내동 578-2번지 평내프라자 119호","category":"일반휴게음식 - 일반한식"},{"name":"퍼스트수학학원","tel":"031-515-5082","addr":"경기도 남양주시 평내동 578-2번지 평내프라자 6층 604호","category":"학원 - 보습학원"},{"name":"평내공신학원","tel":"031-511-2908","addr":"경기도 남양주시 평내동 578-2번지 평내프라자 603호","category":"학원 - 보습학원"},{"name":"평내나이스볼링센터","tel":"031-559-8620","addr":"경기도 남양주시 평내동 578-2번지 평내프라자 7층","category":"레저업소 - 볼 링 장"},{"name":"평내스크린골프","tel":"031-592-9907","addr":"경기도 남양주시 평내동 578-2번지 평내프라자 303,304호","category":"레저업소 - 스크린골프"},{"name":"평내해법수학학원","tel":"031-559-5775","addr":"경기도 남양주시 평내동 578-2번지 평내프라자 602호","category":"회원제형태 - 학원"},{"name":"플러스행복한요양원","tel":"031-558-3400","addr":"경기도 남양주시 평내동 578-2번지 평내프라자 502호","category":"기타의료기관 - 기타의료기관 및 기타"},{"name":"피맛골지지미","tel":"031-595-9895","addr":"경기도 남양주시 평내동 578-2번지 평내프라자 109호","category":"일반휴게음식 - 일반한식"},{"name":"황가네곱창","tel":"031-511-1603","addr":"경기도 남양주시 평내동 578-2번지 평내프라자 110호","category":"일반휴게음식 - 일반한식"}]},{"lat":"37.647665082","long":"127.24169708","items":[{"name":"J헤어디자인하우스","tel":"031-592-2717","addr":"경기도 남양주시 평내동 595번지 지층 1호","category":"보건위생 - 미용원"},{"name":"앙스엠(Angs' M)","tel":"070-7787-5580","addr":"경기도 남양주시 평내동 595번지","category":"의류 - 아동의류"}]},{"lat":"37.643308287","long":"127.23061327","items":[{"name":"L K 냉동","tel":"","addr":"경기도 남양주시 평내동 559-5번지 103호","category":"용역 서비스 - 기타용역서비스"},{"name":"섬마을 포차","tel":"031-511-5161","addr":"경기도 남양주시 평내동 559-5번지 지하1층","category":"일반휴게음식 - 주점"}]},{"lat":"37.647391294","long":"127.24341853","items":[{"name":"Lovely Pet(러블리펫)","tel":"031-559-9608","addr":"경기도 남양주시 평내동 597-2번지 늘봄프라자 1층 101호","category":"문화.취미 - 애완동물"},{"name":"깻잎치킨","tel":"031-7657-2970","addr":"경기도 남양주시 평내동 597-2번지 늘봄프라자 1층 102호","category":"일반휴게음식 - 스넥"},{"name":"남양주기독교청년회","tel":"031-595-6677","addr":"경기도 남양주시 평내동 597-2번지 늘봄프라자 4층","category":"레저업소 - 기타레져업소"},{"name":"남양주와이엠씨에이등대소비자생활협동조합","tel":"031-595-6677","addr":"경기도 남양주시 평내동 597-2번지 4층","category":"음료식품 - 농·축·수산품"},{"name":"늘봄스크린골프","tel":"031-529-1212","addr":"경기도 남양주시 평내동 597-2번지 늘봄프라자 지층 제비 104호","category":"레저업소 - 스크린골프"},{"name":"대박장충왕족발","tel":"031-591-3969","addr":"경기도 남양주시 평내동 597-2번지 늘봄프라자 104호","category":"일반휴게음식 - 일반한식"},{"name":"맵도리탕평내점","tel":"031-591-3644","addr":"경기도 남양주시 평내동 597-2번지 늘봄프라자 105호","category":"일반휴게음식 - 주점"},{"name":"멘토건강식품 (웰빙)건강원","tel":"031-559-6188","addr":"경기도 남양주시 평내동 597-2번지 늘봄프라자 108호","category":"회원제형태 - 건강식품"},{"name":"바다유통","tel":"031-592-3434","addr":"경기도 남양주시 평내동 597-2번지 늘봄프라자 B동 102호","category":"음료식품 - 농·축·수산품"},{"name":"반트독서실,반트영수학원","tel":"031-524-9879","addr":"경기도 남양주시 평내동 597-2번지 늘봄프라자 301,302,303호일부","category":"학원 - 독서실"},{"name":"뽕마루","tel":"031-511-8899","addr":"경기도 남양주시 평내동 597-2번지 늘봄프라자 103호","category":"일반휴게음식 - 일반한식"},{"name":"수차이","tel":"031-595-8453","addr":"경기도 남양주시 평내동 597-2번지 늘봄프라자 112호","category":"일반휴게음식 - 중국식"},{"name":"엠엘엠지커피(MLMG Coffee)","tel":"031-591-9500","addr":"경기도 남양주시 평내동 597-2번지 늘봄프라자 107호","category":"일반휴게음식 - 서양음식"},{"name":"준인테리어","tel":"031-592-9727","addr":"경기도 남양주시 평내동 597-2번지 늘봄프라자109호~110호 109호","category":"건축자재 - 인테리어전문"},{"name":"평내무술원","tel":"031-592-5332","addr":"경기도 남양주시 평내동 597-2번지 늘봄프라자 502호","category":"레저업소 - 기타레져업소"},{"name":"헤어스토리","tel":"031-591-5032","addr":"경기도 남양주시 평내동 597-2번지 늘봄프라자 106호","category":"보건위생 - 미용원"},{"name":"헤어스토리","tel":"031-591-5032","addr":"경기도 남양주시 평내동 597-2번지 늘봄프라자 106호","category":"보건위생 - 미용원"}]},{"lat":"37.648588106","long":"127.2396944","items":[{"name":"YB일렉트로닉","tel":"02-2173-8145","addr":"경기도 남양주시 평내동 105번지 양지아파트 상가동 1층 103호","category":"수리서비스 - 가정용품수리"}]},{"lat":"37.643354715","long":"127.23907728","items":[{"name":"kind버스코리아","tel":"000-1600-4634","addr":"경기도 남양주시 평내동 602번지 평내마을평내2차대주파크빌 1905동 801호","category":"여행 - 관광여행"}]},{"lat":"37.651691235","long":"127.24227656","items":[{"name":"moons 디자인","tel":"031-595-1008","addr":"경기도 남양주시 평내동 130-10번지 평내유리샷시 101호","category":"가구 - 기타가구"},{"name":"평내유리.샷시공업사","tel":"031-593-2252","addr":"경기도 남양주시 평내동 130-10번지 평내유리샷시 101호","category":"건축자재 - 유리"}]},{"lat":"37.649810462","long":"127.23666146","items":[{"name":"가남빌딩","tel":"02-466-7503","addr":"경기도 남양주시 평내동 204-1","category":"의류 - 기타의류"},{"name":"아모레","tel":"031-591-6478","addr":"경기도 남양주시 평내동 204-1흥인빌딩4층","category":"보건위생 - 화장품"},{"name":"아모레","tel":"031-595-8148","addr":"경기도 남양주시 평내동 204-1번지","category":"보건위생 - 화장품"},{"name":"아모레","tel":"031-591-6478","addr":"경기도 남양주시 평내동 204-1번지","category":"보건위생 - 화장품"}]},{"lat":"37.648302361","long":"127.23841307","items":[{"name":"가비향기 앤 꽃누르미","tel":"031-592-0233","addr":"경기도 남양주시 평내동 593-5번지 1층","category":"일반휴게음식 - 일반한식"},{"name":"하늘문고","tel":"070-8667-3725","addr":"경기도 남양주시 평내동 593-5번지 102호","category":"서적문구 - 일반서적"}]},{"lat":"37.649664756","long":"127.23744287","items":[{"name":"가위손","tel":"031-595-4031","addr":"경기도 남양주시 평내동 203-8번지 중앙상가","category":"보건위생 - 이용원"},{"name":"모아 telecom","tel":"031-592-9011","addr":"경기도 남양주시 평내동 203-8번지 중앙 상가 1층 우측","category":"사무통신 - 통신기기"},{"name":"숲(SOUP)","tel":"031-591-3260","addr":"경기도 남양주시 평내동 203-8번지 1층","category":"레져용품 - 스포츠·레져용품"},{"name":"스쿨룩스평내점","tel":"031-592-1317","addr":"경기도 남양주시 평내동 203-8번지 2층","category":"의류 - 단체복"},{"name":"파리바게트 평내중앙점","tel":"031-511-7071","addr":"경기도 남양주시 평내동 203-8번지","category":"음료식품 - 제과점"},{"name":"페리카나치킨","tel":"031-591-9332","addr":"경기도 남양주시 평내동 203-8번지","category":"일반휴게음식 - 주점"},{"name":"평내대한요양보호사교육원","tel":"031-591-4776","addr":"경기도 남양주시 평내동 203-8번지 2층","category":"회원제형태 - 학원"}]},{"lat":"37.64514399","long":"127.23638622","items":[{"name":"가현수제화","tel":"031-595-3379","addr":"경기도 남양주시 평내동 580-1번지 CH리베로2 114호","category":"신변잡화 - 제화"},{"name":"건형정보통신","tel":"070-4231-7010","addr":"경기도 남양주시 평내동 580-1번지 CH리베로2 1층 107호","category":"사무통신 - 통신기기"},{"name":"고고랜드(남양주점)","tel":"","addr":"경기도 남양주시 평내동 580-1번지 CH리베로2 B101호","category":"레저업소 - 기타레져업소"},{"name":"네일(NAIL)580","tel":"","addr":"경기도 남양주시 평내동 580-1번지 107-1호","category":"보건위생 - 피부미용실"},{"name":"더달달아이스크림할인점(평내점)","tel":"070-7423-6603","addr":"경기도 남양주시 평내동 580-1번지 CH리베로2 115호","category":"음료식품 - 기타음료식품"},{"name":"더컷","tel":"031-593-6512","addr":"경기도 남양주시 평내동 580-1번지 CH리베로2 1층 117호","category":"보건위생 - 미용원"},{"name":"루아헤어","tel":"031-511-3844","addr":"경기도 남양주시 평내동 580-1번지","category":"보건위생 - 미용원"},{"name":"미플러스치과의원","tel":"031-593-2842","addr":"경기도 남양주시 평내동 580-1ch리베로2-202","category":"의원 - 치과의원"},{"name":"부안 상회","tel":"","addr":"경기도 남양주시 평내동 580-1번지 CH리베로2 1층 104호","category":"음료식품 - 농·축·수산품"},{"name":"블로썸","tel":"","addr":"경기도 남양주시 평내동 580-1번지 CH리베로2 118호","category":"의류 - 정장"},{"name":"뽄쟁이","tel":"031-591-7727","addr":"경기도 남양주시 평내동 580-1번지 CH리베로2 102호","category":"보건위생 - 미용원"},{"name":"우럼마 왕만두","tel":"","addr":"경기도 남양주시 평내동 580-1번지 CH리베로2 109호","category":"일반휴게음식 - 스넥"},{"name":"장보고마트","tel":"070-4282-2467","addr":"경기도 남양주시 평내동 580-1번지 CH리베로2 104호","category":"유통업 영리 - 슈퍼마켓"},{"name":"제이비","tel":"","addr":"경기도 남양주시 평내동 580-1번지 CH리베로2 111호","category":"일반휴게음식 - 서양음식"},{"name":"종로떡방","tel":"031-592-9997","addr":"경기도 남양주시 평내동 580-1번지 CH리베로2 106호","category":"음료식품 - 제과점"},{"name":"주식회사 럭키상사(지점)","tel":"031-559-4566","addr":"경기도 남양주시 평내동 580-1번지 CH리베로2 G동 1층 비101호","category":"유통업 영리 - 슈퍼마켓"},{"name":"착한 정육점","tel":"031-591-3735","addr":"경기도 남양주시 평내동 580-1번지 CH리베로2 113호","category":"음료식품 - 정육점"},{"name":"착한정육점","tel":"031-591-3735","addr":"경기도 남양주시 평내동 580-1번지 CH리베로2 113호","category":"음료식품 - 정육점"},{"name":"평내 전자담배","tel":"031-1111-1111","addr":"경기도 남양주시 평내동 580-1번지 CH리베로2 104호","category":"기타 - 기타 전문점"},{"name":"허지선에 허브","tel":"031-593-0086","addr":"경기도 남양주시 평내동 580-1번지 CH리베로 상가 107호","category":"보건위생 - 화장품"},{"name":"호평열쇠도장","tel":"031-513-3579","addr":"경기도 남양주시 평내동 580-1번지 CH리베로2 1층 118호","category":"건축자재 - 목재·석재·철물"},{"name":"화한의원","tel":"031-511-2511","addr":"경기도 남양주시 평내동 580-1번지 씨에이치베로투 2층 201호","category":"의원 - 한의원"},{"name":"황금포차","tel":"031-511-9242","addr":"경기도 남양주시 평내동 580-1번지 CH리베로2 116호","category":"일반휴게음식 - 주점"},{"name":"휴대폰마트","tel":"031-111-1111","addr":"경기도 남양주시 평내동 580-1번지 CH리베로2 1층 112호","category":"사무통신 - 통신기기"}]},{"lat":"37.646755007","long":"127.23725242","items":[{"name":"갓지은 밥","tel":"031-591-7985","addr":"경기도 남양주시 평내동 586-8번지","category":"일반휴게음식 - 일반한식"},{"name":"예성에이앤디","tel":"031-593-2194","addr":"경기도 남양주시 평내동 586-8번지 301호","category":"전기제품 - 냉열기기"}]},{"lat":"37.647557875","long":"127.23674504","items":[{"name":"강희스킨케어","tel":"031-595-8722","addr":"경기도 남양주시 평내동 587번지 101호","category":"보건위생 - 피부미용실"},{"name":"퍼펙트데이","tel":"","addr":"경기도 남양주시 평내동 587번지 103호","category":"의류 - 정장"}]},{"lat":"37.647613189","long":"127.23611068","items":[{"name":"개벤져스","tel":"031-594-9669","addr":"경기도 남양주시 평내동 583-6번지","category":"문화.취미 - 애완동물"},{"name":"우드앤디자인멜랑주","tel":"070-7557-4904","addr":"경기도 남양주시 평내동 583-6번지 1층 101호","category":"가구 - 일반가구"},{"name":"장미농원","tel":"031-591-7667","addr":"경기도 남양주시 평내동 583-6번지","category":"문화.취미 - 화원"}]},{"lat":"37.647334115","long":"127.23599649","items":[{"name":"개인과외(노재란)","tel":"031-0000-0000","addr":"경기도 남양주시 평내동 583-11번지","category":"학원 - 기타 교육기관"},{"name":"건어물포차","tel":"031-594-7561","addr":"경기도 남양주시 평내동 583-11번지 1층","category":"일반휴게음식 - 일반한식"},{"name":"남자피자평내호평점","tel":"031-592-5570","addr":"경기도 남양주시 평내동 583-11번지 1층","category":"일반휴게음식 - 일반한식"}]},{"lat":"37.646611842","long":"127.23675341","items":[{"name":"갯골흑염소탕전골","tel":"031-591-7573","addr":"경기도 남양주시 평내동 586-4번지 지층","category":"일반휴게음식 - 일반한식"}]},{"lat":"37.645267258","long":"127.2423126","items":[{"name":"건강약촌","tel":"070-7608-1014","addr":"경기도 남양주시 평내동 599번지 평내마을중흥에스클래스 2007동 1703호","category":"건강식품 - 기타건강식품"}]},{"lat":"37.645863041","long":"127.24174797","items":[{"name":"건어물총판","tel":"031-592-3434","addr":"경기도 남양주시 평내동 599번지 평내마을중흥에스클래스 상가 1동 114호","category":"음료식품 - 농·축·수산품"},{"name":"본스치킨","tel":"031-594-0092","addr":"경기도 남양주시 평내동 599중흥에스클래스상가108","category":"일반휴게음식 - 서양음식"},{"name":"봄미술교습소","tel":"031-592-3388","addr":"경기도 남양주시 평내동 599번지 중흥에스클래스 상가2동 203호-2호","category":"학원 - 예·체능계학원"},{"name":"삼성영어평내학원","tel":"031-511-5047","addr":"경기도 남양주시 평내동 599번지 평내마을중흥에스클래스 상가 2동 302호","category":"학원 - 보습학원"},{"name":"상구비어","tel":"031-511-3975","addr":"경기도 남양주시 평내동 599번지 2동 101-3호 상가 평내마을중흥에스-클래스","category":"일반휴게음식 - 일반한식"},{"name":"아낌없이주는김밥","tel":"031-559-5151","addr":"경기도 남양주시 평내동 599번지 중흥에스클래스 상가 107호","category":"일반휴게음식 - 스넥"},{"name":"아이린음악학원","tel":"031-511-7200","addr":"경기도 남양주시 평내동 599번지 2동 303호 평내마을중흥에스-클래스상가","category":"학원 - 예·체능계학원"},{"name":"음악이야기음악교습소","tel":"031-511-8002","addr":"경기도 남양주시 평내동 599 평내마을중흥에스클래스 상가2-302","category":"학원 - 예·체능계학원"},{"name":"중흥신창세탁소","tel":"031-593-6333","addr":"경기도 남양주시 평내동 599 중흥에스클래스상가203호","category":"수리서비스 - 세탁소"},{"name":"지앤제이","tel":"031-559-4182","addr":"경기도 남양주시 평내동 599번지 평내마을중흥에스-클래스상가 2-108","category":"보건위생 - 미용원"},{"name":"지인스","tel":"031-591-8322","addr":"경기도 남양주시 평내동 599번지 평내마을중흥에스클래스 111호","category":"보건위생 - 미용원"},{"name":"크린토피아","tel":"031-559-6363","addr":"경기도 남양주시 평내동 599번지 중흥에스클래스 분산상가 110호","category":"수리서비스 - 세탁소"},{"name":"필학원","tel":"031-514-0276","addr":"경기도 남양주시 평내동 599번지 중흥에스클래스 상가 2동 305호","category":"학원 - 보습학원"},{"name":"한일1매트","tel":"031-592-5658","addr":"경기도 남양주시 평내동 599번지 중흥S-CLASS상가1동 109","category":"직물 - 침구·수예점"},{"name":"황제제과찐빵","tel":"031-594-9244","addr":"경기도 남양주시 평내동 599중흥에스클래스상가2동104","category":"음료식품 - 제과점"},{"name":"회뜨는총각","tel":"031-559-0263","addr":"경기도 남양주시 평내동 599번지 2동 평내마을중흥에스-클래스상가","category":"일반휴게음식 - 일반한식"}]},{"lat":"37.643141197","long":"127.23771695","items":[{"name":"계륵장군","tel":"031-591-7470","addr":"경기도 남양주시 평내동 603-2번지","category":"일반휴게음식 - 일반한식"},{"name":"마실","tel":"031-594-8252","addr":"경기도 남양주시 평내동 603-2번지 카스광장 101호","category":"일반휴게음식 - 일반한식"}]},{"lat":"37.644492439","long":"127.23782318","items":[{"name":"고려수도설비119","tel":"","addr":"경기도 남양주시 평내동 602번지 평내마을평내2차대주파크빌 1901동 701호","category":"용역 서비스 - 종합용역"},{"name":"우정윤활유","tel":"031-866-5185","addr":"경기도 남양주시 평내동 602번지 평내마을평내2차대주파크빌 1901동 805호","category":"자동차정비 유지 - 윤활유 전문 판매"}]},{"lat":"37.642249446","long":"127.23761217","items":[{"name":"고양이미술상자미술교습소","tel":"031-000-0000","addr":"경기도 남양주시 평내동 604-7번지 드림타워 108호","category":"학원 - 예·체능계학원"},{"name":"그린빌원룸텔","tel":"031-593-0213","addr":"경기도 남양주시 평내동 604-7 외1필지 302호~304호","category":"학원 - 독서실"},{"name":"글램","tel":"031-591-6766","addr":"경기도 남양주시 평내동 604-7번지 외1필지 드림타워 103호","category":"보건위생 - 미용원"},{"name":"꾸러기문구나라","tel":"031-595-0948","addr":"경기도 남양주시 평내동 45-8드림타워1층103호","category":"서적문구 - 문구용품"},{"name":"더피아노음악교습소","tel":"031-521-5815","addr":"경기도 남양주시 평내동 604-7번지 드림타워 104호","category":"학원 - 예·체능계학원"},{"name":"라온제나","tel":"031-528-6263","addr":"경기도 남양주시 평내동 604-7번지 드림타워 109호","category":"문화.취미 - 화원"},{"name":"미래산업","tel":"","addr":"경기도 남양주시 평내동 604-7번지 드림타워 304호","category":"주방용구 - 주방용구"},{"name":"봄인테리어","tel":"031-511-1237","addr":"경기도 남양주시 평내동 604-7,외1필지(604-8번지)101","category":"직물 - 카페트,커튼,천막,지물"},{"name":"블럭쟁이","tel":"031-594-2588","addr":"경기도 남양주시 평내동 604-7번지 드림타워 202호","category":"서적문구 - 완구점"},{"name":"샌치스","tel":"031-000-0000","addr":"경기도 남양주시 평내동 604-7번지 드림타워 110호","category":"일반휴게음식 - 서양음식"},{"name":"세븐일레븐평내드림타워점","tel":"","addr":"경기도 남양주시 평내동 604-7번지 드림타워 105호","category":"유통업 영리 - 편 의 점"},{"name":"온누리바이올린음악교습소","tel":"031-591-2653","addr":"경기도 남양주시 평내동 604-7번지 드림타워 301호 일부","category":"학원 - 예·체능계학원"},{"name":"올리앤","tel":"031-559-9711","addr":"경기도 남양주시 평내동 604-7번지 드림타워 202-1호","category":"일반휴게음식 - 서양음식"},{"name":"요거프레소남양주평내점","tel":"031-511-6047","addr":"경기도 남양주시 평내동 604-7번지 드림타워 102호","category":"일반휴게음식 - 서양음식"},{"name":"이젤헤어","tel":"031-594-3055","addr":"경기도 남양주시 평내동 6004-7외1필지드림타워제1층107","category":"보건위생 - 미용원"},{"name":"이화뮤즈음악학원","tel":"031-511-3530","addr":"경기도 남양주시 평내동 604-7번지 402호,403호","category":"학원 - 예·체능계학원"},{"name":"타이거태권도","tel":"031-511-0139","addr":"경기도 남양주시 평내동 604-7번지 드림타워 501호","category":"학원 - 예·체능계학원"},{"name":"틴틴하우스","tel":"031-593-2084","addr":"경기도 남양주시 평내동 604-7번지 드림타워 109호","category":"의류 - 정장"},{"name":"하나태권도&점핑클럽","tel":"031-511-0130","addr":"경기도 남양주시 평내동 604-7번지 드림타워 5층 502호","category":"학원 - 예·체능계학원"}]},{"lat":"37.647608656","long":"127.24286401","items":[{"name":"고향손칼국수","tel":"031-511-3837","addr":"경기도 남양주시 평내동 596-3번지 1층","category":"일반휴게음식 - 일반한식"},{"name":"바론교육","tel":"031-591-7951","addr":"경기도 남양주시 평내동 596-3번지 부원빌딩 지하층 B호","category":"서적문구 - 일반서적"},{"name":"배터지는 생동까스","tel":"031-593-6668","addr":"경기도 남양주시 평내동 596-3번지 부원빌딩 1층","category":"일반휴게음식 - 일반한식"}]},{"lat":"37.641460034","long":"127.23587617","items":[{"name":"골드마인","tel":"02-2273-8360","addr":"경기도 남양주시 평내동 564번지 평내화성파크힐즈 1703동 1402호","category":"직물 - 침구·수예점"},{"name":"비전수학","tel":"031-512-5585","addr":"경기도 남양주시 평내동 564번지 평내마을화성파크힐즈 1703동 103호","category":"회원제형태 - 학원"}]},{"lat":"37.647504805","long":"127.23624631","items":[{"name":"곱하기한우곱창막창","tel":"031-593-2480","addr":"경기도 남양주시 평내동 583-9번지 한양빌","category":"일반휴게음식 - 일반한식"}]},{"lat":"37.642502279","long":"127.2373297","items":[{"name":"공부감각학원","tel":"031-591-3641","addr":"경기도 남양주시 평내동 604-9번지 정환빌딩 2층","category":"학원 - 보습학원"},{"name":"교실밖으로논술보습학원","tel":"031-591-3641","addr":"경기도 남양주시 평내동 604-9번지 정환빌딩 5층","category":"학원 - 보습학원"},{"name":"꿈꾸는도자기별미술학원","tel":"031-511-3266","addr":"경기도 남양주시 평내동 604-9번지 정환빌딩 4층","category":"학원 - 예·체능계학원"},{"name":"류가네","tel":"031-521-1266","addr":"경기도 남양주시 평내동 604-9번지 정환빌딩 1층","category":"일반휴게음식 - 일반한식"},{"name":"브레인스토밍학원","tel":"031-521-8200","addr":"경기도 남양주시 평내동 604-9번지 정환빌딩 303호","category":"학원 - 보습학원"},{"name":"블레스","tel":"031-000-0000","addr":"경기도 남양주시 평내동 604-9번지 정환빌딩 101호","category":"의류 - 정장"},{"name":"아동발달심리센터 자람","tel":"031-595-1154","addr":"경기도 남양주시 평내동 604-9번지 정환빌딩 403호","category":"보건위생 - 기타대인서비스"},{"name":"예솜피아노교습소","tel":"031-595-6550","addr":"경기도 남양주시 평내동 604-9번지 정환빌딩 5층","category":"학원 - 예·체능계학원"},{"name":"윤선생영어숲남양주평내학원","tel":"031-592-9993","addr":"경기도 남양주시 평내동 604-9번지 정환빌딩 303호","category":"학원 - 보습학원"},{"name":"정수학교습소","tel":"031-591-6114","addr":"경기도 남양주시 평내동 604-9번지 정환빌딩 3층 301호","category":"학원 - 보습학원"},{"name":"커피유","tel":"070-7560-0205","addr":"경기도 남양주시 평내동 604-9번지 정환빌딩 103~105호","category":"일반휴게음식 - 서양음식"},{"name":"황후토탈피부샵","tel":"031-595-4021","addr":"경기도 남양주시 평내동 604-9번지 정환빌딩 402호","category":"보건위생 - 피부미용실"}]},{"lat":"37.646448298","long":"127.23286638","items":[{"name":"공주식당","tel":"031-511-8864","addr":"경기도 남양주시 평내동 441-53번지","category":"일반휴게음식 - 일반한식"}]},{"lat":"37.649643723","long":"127.24341446","items":[{"name":"곽만근갈비탕(평내점)","tel":"031-595-0282","addr":"경기도 남양주시 평내동 136번지 1층","category":"일반휴게음식 - 일반한식"},{"name":"광동상사(성동)","tel":"031-511-1983","addr":"경기도 남양주시 평내동 136번지","category":"음료식품 - 기타음료식품"}]},{"lat":"37.649359464","long":"127.23692066","items":[{"name":"교촌치킨평내점","tel":"031-593-9929","addr":"경기도 남양주시 평내동 203-2번지 혜림빌딩 109호","category":"일반휴게음식 - 스넥"},{"name":"그렘보(GREMBO)","tel":"031-595-0395","addr":"경기도 남양주시 평내동 203-2번지 헤림빌딩 214호","category":"전기제품 - 가전제품"},{"name":"노엘금방","tel":"031-592-9991","addr":"경기도 남양주시 평내동 203-2번지 혜림빌딩 106호","category":"신변잡화 - 귀금속"},{"name":"복음보청기","tel":"031-595-2300","addr":"경기도 남양주시 평내동 203-2번지 혜림빌딩 202호","category":"보건위생 - 의료용품"},{"name":"솰아있네평내점","tel":"070-7617-6079","addr":"경기도 남양주시 평내동 203-2번지 혜림빌딩 105호","category":"의류 - 정장"},{"name":"스마트 호평내점","tel":"031-559-4050","addr":"경기도 남양주시 평내동 203-2번지 혜림빌딩 2층 206호","category":"의류 - 맞춤복점"},{"name":"스카디","tel":"02-414-2152","addr":"경기도 남양주시 평내동 203-2번지 혜림빌딩 2층 217호","category":"여행 - 관광여행"},{"name":"용인대 다이어트 복싱클럽","tel":"031-594-1215","addr":"경기도 남양주시 평내동 203-2번지 3층 302,303호","category":"레저업소 - 헬스클럽"},{"name":"유솔평내점","tel":"031-559-7741","addr":"경기도 남양주시 평내동 203-2번지 혜림빌딩 1층 111-2호","category":"의류 - 정장"},{"name":"이브자리평내점","tel":"031-592-2588","addr":"경기도 남양주시 평내동 203-2번지 혜림빌딩 117동 118호","category":"직물 - 침구·수예점"},{"name":"진주주단","tel":"031-593-4200","addr":"경기도 남양주시 평내동 203-2번지 혜림빌딩 113-4호","category":"직물 - 침구·수예점"},{"name":"컬리수/모이몰른 평내호평점","tel":"031-511-4426","addr":"경기도 남양주시 평내동 203-2번지 혜림빌딩","category":"레져용품 - 스포츠·레져용품"},{"name":"평내벨리타사우나","tel":"031-591-9777","addr":"경기도 남양주시 평내동 203-2번지 혜림빌딩","category":"보건위생 - 사우나"},{"name":"평내의료기","tel":"031-559-1550","addr":"경기도 남양주시 평내동 203-2번지 혜림빌딩 110호","category":"보건위생 - 의료용품"},{"name":"혜림빌딩 벨리타사우나","tel":"031-591-9777","addr":"경기도 남양주시 평내동 203-2번지 혜림빌딩 지히","category":"보건위생 - 사우나"},{"name":"힐스템건강","tel":"","addr":"경기도 남양주시 평내동 203-2번지 혜림빌딩 2층 201호","category":"보건위생 - 의료용품"}]},{"lat":"37.646305806","long":"127.23660515","items":[{"name":"구쁘다코다리","tel":"031-511-0180","addr":"경기도 남양주시 평내동 586-13번지","category":"일반휴게음식 - 일반한식"},{"name":"큐브","tel":"031-591-0128","addr":"경기도 남양주시 평내동 586-13번지","category":"일반휴게음식 - 주점"}]},{"lat":"37.647530397","long":"127.23697158","items":[{"name":"구운족족","tel":"031-595-7272","addr":"경기도 남양주시 평내동 587-2번지 1층","category":"일반휴게음식 - 일반한식"}]},{"lat":"37.651749619","long":"127.24013505","items":[{"name":"국도SID","tel":"031-511-2535","addr":"경기도 남양주시 평내동 119-2,101","category":"건축자재 - 인테리어전문"}]},{"lat":"37.650330368","long":"127.24247616","items":[{"name":"국민에어컨","tel":"070-7878-5085","addr":"경기도 남양주시 평내동 132번지 효성문구 104호","category":"전기제품 - 냉열기기"},{"name":"명품자연세탁소(평내점)","tel":"031-592-8562","addr":"경기도 남양주시 평내동 132번지 효성문구 1호","category":"수리서비스 - 세탁소"}]},{"lat":"37.647169292","long":"127.23733304","items":[{"name":"국수육","tel":"031-593-1797","addr":"경기도 남양주시 평내동 587-5번지 1층","category":"일반휴게음식 - 일반한식"},{"name":"생기건강원","tel":"031-595-4288","addr":"경기도 남양주시 평내동 587-5번지","category":"건강식품 - 기타건강식품"},{"name":"생기건강원","tel":"031-595-4288","addr":"경기도 남양주시 평내동 587-5번지","category":"건강식품 - 기타건강식품"},{"name":"월드헤어숍","tel":"031-591-6785","addr":"경기도 남양주시 평내동 587-5번지","category":"보건위생 - 이용원"}]},{"lat":"37.644275671","long":"127.23352819","items":[{"name":"군산아구명가","tel":"031-559-5592","addr":"경기도 남양주시 평내동 577-18번지","category":"일반휴게음식 - 일반한식"}]},{"lat":"37.64772043","long":"127.23655292","items":[{"name":"굽네치킨 평내점","tel":"031-594-9492","addr":"경기도 남양주시 평내동 588-6번지","category":"일반휴게음식 - 스넥"},{"name":"나르샤헤어","tel":"031-593-6184","addr":"경기도 남양주시 평내동 588-6번지","category":"보건위생 - 미용원"},{"name":"리클래식기타교습소","tel":"031-591-1224","addr":"경기도 남양주시 평내동 588-6번지 1층","category":"학원 - 예·체능계학원"},{"name":"에녹미장","tel":"031-593-6184","addr":"경기도 남양주시 평내동 588-6번지","category":"보건위생 - 미용원"}]},{"lat":"37.642555548","long":"127.23772643","items":[{"name":"궁중샤브샤브칼국수","tel":"031-511-3451","addr":"경기도 남양주시 평내동 604-5번지 외1필지 동부프라자 110호","category":"일반휴게음식 - 일반한식"},{"name":"다사랑바둑교실","tel":"031-594-8912","addr":"경기도 남양주시 평내동 604-5번지 동부프라자 4층 403호","category":"학원 - 기타 교육기관"},{"name":"더에스헤어","tel":"031-511-1979","addr":"경기도 남양주시 평내동 604-5번지 동부프라자 105호","category":"보건위생 - 미용원"},{"name":"만나떡고추기름방앗간","tel":"031-511-0393","addr":"경기도 남양주시 평내동 604-5번지 외1필지 동부프라자 110","category":"음료식품 - 제과점"},{"name":"맛강정치킨","tel":"031-559-3001","addr":"경기도 남양주시 평내동 604-5번지 동부프라자 104호","category":"일반휴게음식 - 스넥"},{"name":"미술로생각하기남양주교육원","tel":"031-511-2780","addr":"경기도 남양주시 평내동 604-5번지 동부프라자 504호","category":"레저업소 - 기타레져업소"},{"name":"민영헤어","tel":"031-511-4102","addr":"경기도 남양주시 평내동 604-5번지 동부프라자 108호","category":"보건위생 - 미용원"},{"name":"식빵의품격","tel":"031-511-0077","addr":"경기도 남양주시 평내동 604-5번지 동부프라자 1층 107호","category":"음료식품 - 제과점"},{"name":"에이블EM학원","tel":"031-511-3381","addr":"경기도 남양주시 평내동 604-5번지 동부프라자 501,502호일부","category":"학원 - 보습학원"},{"name":"오레시피남양주평내점","tel":"031-592-9744","addr":"경기도 남양주시 평내동 604-5번지 동부프라자 1층 103호","category":"음료식품 - 기타음료식품"},{"name":"월드당구장","tel":"031-591-2207","addr":"경기도 남양주시 평내동 604-5번지 동부프라자 301호","category":"레저업소 - 당 구 장"},{"name":"익투스학원","tel":"031-559-0760","addr":"경기도 남양주시 평내동 604-5번지 동부프라자 501호","category":"회원제형태 - 학원"},{"name":"지세븐노래연습장","tel":"031-593-5556","addr":"경기도 남양주시 평내동 604-5번지 동부프라자 303,304호","category":"레저업소 - 노 래 방"},{"name":"코다리선생","tel":"031-571-0404","addr":"경기도 남양주시 평내동 604-5번지 동부프라자 102호","category":"일반휴게음식 - 일반한식"},{"name":"크레파스","tel":"031-594-5625","addr":"경기도 남양주시 평내동 604-5번지 외1필지동부프라자 101호","category":"서적문구 - 문구용품"},{"name":"평내중매인축산물직판장","tel":"031-592-3788","addr":"경기도 남양주시 평내동 604-5번지 외1필지동부프라자 106호","category":"음료식품 - 정육점"}]},{"lat":"37.651696227","long":"127.2442483","items":[{"name":"그라제가구","tel":"031-536-6699","addr":"경기도 남양주시 평내동 152-9번지","category":"가구 - 일반가구"}]},{"lat":"37.645283509","long":"127.23416583","items":[{"name":"그라찌에(Grazie)","tel":"031-511-6044","addr":"경기도 남양주시 평내동 576-5번지 주차장빌딩 1층 일부","category":"일반휴게음식 - 서양음식"},{"name":"단초밥전문점","tel":"031-593-8255","addr":"경기도 남양주시 평내동 576-5번지 2우빌딩 105,106호","category":"일반휴게음식 - 일식·회집"},{"name":"살롱드보배","tel":"031-511-0646","addr":"경기도 남양주시 평내동 576-5번지 주차장빌딩 1층","category":"보건위생 - 미용원"},{"name":"아찔한속눈썹","tel":"031-591-2628","addr":"경기도 남양주시 평내동 576-5번지 주차장빌딩 101호","category":"보건위생 - 화장품"},{"name":"자가제빵 선명희피자 평내호평점","tel":"031-559-7875","addr":"경기도 남양주시 평내동 576-5번지 주차장빌딩 1층 109,110호","category":"일반휴게음식 - 서양음식"},{"name":"탑프로","tel":"031-592-5533","addr":"경기도 남양주시 평내동 576-5번지 주차장빌딩 102호","category":"건강식품 - 기타건강식품"},{"name":"토프레소","tel":"031-593-0945","addr":"경기도 남양주시 평내동 576-5번지 이우빌딩 107,108호","category":"일반휴게음식 - 서양음식"}]},{"lat":"37.648808753","long":"127.2419727","items":[{"name":"그랑프리","tel":"031-592-1342","addr":"경기도 남양주시 평내동 87-1번지 진주상가 1-18호","category":"보건위생 - 미용원"}]},{"lat":"37.646413451","long":"127.23225441","items":[{"name":"그린힐여관","tel":"031-591-0831","addr":"경기도 남양주시 평내동 441-52번지","category":"숙박업 - 여관/기타숙박업"}]},{"lat":"37.650059577","long":"127.23824864","items":[{"name":"금성평내점","tel":"031-591-8532","addr":"경기도 남양주시 평내동 200-1번지","category":"전기제품 - 가전제품"},{"name":"남양주국민병원장례식장","tel":"031-594-4442","addr":"경기도 남양주시 평내동 200-1번지 지층1, 지층2일부 지하1,2,층","category":"용역 서비스 - 가례서비스업"},{"name":"엘림매점","tel":"","addr":"경기도 남양주시 평내동 200-1번지 1층 일부호 후면상가","category":"음료식품 - 기타음료식품"},{"name":"엘림커피전문점","tel":"","addr":"경기도 남양주시 평내동 200-1번지 1층","category":"일반휴게음식 - 서양음식"}]},{"lat":"37.644246956","long":"127.23438923","items":[{"name":"금호햇살 어린이집[아이행복]","tel":"031-595-7313","addr":"경기도 남양주시 평내동 550번지 평내마을금호어울림 1409동 101호","category":"학원 - 유아원"},{"name":"나루클래식","tel":"031-592-1279","addr":"경기도 남양주시 평내동 550번지 평내마을금호어울림아파트 1409동 901호","category":"회원제형태 - 서적"}]},{"lat":"37.642944696","long":"127.23685522","items":[{"name":"김밥천국","tel":"031-559-9410","addr":"경기도 남양주시 평내동 604-10번지 우영프라자 106호","category":"일반휴게음식 - 일반한식"},{"name":"땡스헤어","tel":"031-591-8500","addr":"경기도 남양주시 평내동 604-10번지 우영프라자 114호","category":"보건위생 - 미용원"},{"name":"라인피트니스(Line fitness)","tel":"031-595-0721","addr":"경기도 남양주시 평내동 604-10번지 우영프라자 2층 201호,202-1호","category":"레저업소 - 헬스클럽"},{"name":"리헤어","tel":"031-593-4671","addr":"경기도 남양주시 평내동 604-10번지 우영프라자 107호","category":"보건위생 - 미용원"},{"name":"마켓찌니","tel":"031-111-1111","addr":"경기도 남양주시 평내동 604-10번지 우영프라자 1층 112호","category":"음료식품 - 기타음료식품"},{"name":"무냐무냐평내점","tel":"070-4642-0425","addr":"경기도 남양주시 평내동 604-10번지 우영프라자 111호","category":"의류 - 내의판매"},{"name":"민들레한의원","tel":"031-559-5850","addr":"경기도 남양주시 평내동 604-12평내택지개발지구우영프라자202-1","category":"의원 - 한의원"},{"name":"아침햇살약국","tel":"031-595-0746","addr":"경기도 남양주시 평내동 604-10번지 우영프라자 108호","category":"약국 - 약국"},{"name":"에코헤어살롱","tel":"031-593-0050","addr":"경기도 남양주시 평내동 604-10번지 우영프라자 101호","category":"보건위생 - 미용원"},{"name":"웰소아과","tel":"031-595-5175","addr":"경기도 남양주시 평내동 604-10번지 우영프라자 302호","category":"의원 - 의원"},{"name":"유진헤어","tel":"070-8945-3313","addr":"경기도 남양주시 평내동 604-10번지 우영프라자 102호","category":"보건위생 - 미용원"},{"name":"쿨가이","tel":"031-000-0000","addr":"경기도 남양주시 평내동 604-10번지 우영프라자 103호","category":"보건위생 - 미용원"},{"name":"탑 멀티방","tel":"","addr":"경기도 남양주시 평내동 604-10번지 우영프라자 204호","category":"레저업소 - 기타레져업소"},{"name":"파리바게트평내마을점","tel":"031-511-8211","addr":"경기도 남양주시 평내동 604-10번지 우영프라자 109호,110호","category":"음료식품 - 제과점"},{"name":"평내검도교실","tel":"031-511-5807","addr":"경기도 남양주시 평내동 604-10번지 우영프라자 504호,505호","category":"학원 - 예·체능계학원"},{"name":"평내미소치과","tel":"031-559-0275","addr":"경기도 남양주시 평내동 604-10번지 우영프라자 203호","category":"의원 - 치과의원"},{"name":"평내연세이비인후과","tel":"031-295-0342","addr":"경기도 남양주시 평내동 604-10번지 외2필지우영프라자 301호","category":"의원 - 의원"},{"name":"푸른나무","tel":"070-8616-9441","addr":"경기도 남양주시 평내동 604-10번지 우영프라자 113호","category":"가구 - 기타가구"},{"name":"하기오스어학원","tel":"031-595-2535","addr":"경기도 남양주시 평내동 604-10번지 부영프라자 502,503호","category":"학원 - 외국어학원"},{"name":"한삼인평내점","tel":"031-595-2133","addr":"경기도 남양주시 평내동 604-10번지 외2필지우영프라자 101호","category":"건강식품 - 홍삼제품"},{"name":"허브힐링점핑","tel":"031-595-7677","addr":"경기도 남양주시 평내동 604-10번지 우영프라자 1동 3층 301호","category":"건강식품 - 기타건강식품"}]},{"lat":"37.647422057","long":"127.23708455","items":[{"name":"김정민헤어","tel":"031-592-1716","addr":"경기도 남양주시 평내동 587-3번지","category":"보건위생 - 미용원"},{"name":"신나라기프트","tel":"031-511-5007","addr":"경기도 남양주시 평내동 587-3번지 1층","category":"유통업 영리 - 기타유통업"}]},{"lat":"37.650418808","long":"127.23882769","items":[{"name":"까끄애견샵","tel":"031-591-2199","addr":"경기도 남양주시 평내동 117-4번지 109호","category":"문화.취미 - 애완동물"},{"name":"대성 철물","tel":"031-591-6699","addr":"경기도 남양주시 평내동 117-4번지","category":"건축자재 - 목재·석재·철물"},{"name":"배달5삼겹","tel":"031-595-8539","addr":"경기도 남양주시 평내동 117-4번지 1층","category":"일반휴게음식 - 일반한식"},{"name":"뷰티화장품","tel":"","addr":"경기도 남양주시 평내동 117-4번지 103호","category":"보건위생 - 화장품"},{"name":"산동성","tel":"031-591-6677","addr":"경기도 남양주시 평내동 117-4번지","category":"일반휴게음식 - 중국식"},{"name":"솜리동태탕코다리찜","tel":"031-511-4440","addr":"경기도 남양주시 평내동 117-4번지 101호 102호","category":"일반휴게음식 - 일반한식"},{"name":"윤가네백반","tel":"031-552-9551","addr":"경기도 남양주시 평내동 117-4번지 1층 105호","category":"일반휴게음식 - 일반한식"},{"name":"전주집연탄불고기와할매보쌈족발","tel":"031-594-9053","addr":"경기도 남양주시 평내동 117-4번지 1층 일부","category":"일반휴게음식 - 일반한식"},{"name":"평내떡백화점","tel":"031-562-5959","addr":"경기도 남양주시 평내동 117-4번지","category":"음료식품 - 제과점"},{"name":"한솔씨앤씨","tel":"031-595-1333","addr":"경기도 남양주시 평내동 117-4번지 2층 1호","category":"자동차정비 유지 - 자동차부품"},{"name":"헤어스케치","tel":"031-592-3535","addr":"경기도 남양주시 평내동 117-4번지 107호","category":"보건위생 - 미용원"}]},{"lat":"37.646863347","long":"127.23713945","items":[{"name":"까페 싱글오리진","tel":"070-8835-5539","addr":"경기도 남양주시 평내동 586-7번지 1층","category":"일반휴게음식 - 서양음식"}]},{"lat":"37.653138623","long":"127.24383368","items":[{"name":"꼬르륵","tel":"070-4111-9580","addr":"경기도 남양주시 평내동 660번지 1층 평내호평역","category":"일반휴게음식 - 일반한식"},{"name":"평내호평어린이집[아이행복]","tel":"031-592-7979","addr":"경기도 남양주시 평내동 660번지","category":"학원 - 유아원"}]},{"lat":"37.650805042","long":"127.23941815","items":[{"name":"꽃찬찜닭","tel":"031-594-8222","addr":"경기도 남양주시 평내동 118-2번지 태복빌딩 1층 일부호","category":"일반휴게음식 - 일반한식"},{"name":"서울약국","tel":"031-591-9517","addr":"경기도 남양주시 평내동 118-2번지","category":"약국 - 약국"},{"name":"옛고을손찐방집","tel":"031-559-1457","addr":"경기도 남양주시 평내동 118-2번지 태복빌딩 102호","category":"음료식품 - 제과점"},{"name":"줌마렐라","tel":"031-591-3208","addr":"경기도 남양주시 평내동 118-2번지 태복빌딩 103호","category":"의류 - 정장"},{"name":"하나의원","tel":"031-592-7545","addr":"경기도 남양주시 평내동 118-2번지 태복빌딩 2층","category":"의원 - 의원"},{"name":"흥부네식당","tel":"031-591-7563","addr":"경기도 남양주시 평내동 118-2번지 태복빌딩","category":"일반휴게음식 - 일반한식"}]},{"lat":"37.643220328","long":"127.22950262","items":[{"name":"꿈에커튼","tel":"031-593-9616","addr":"경기도 남양주시 평내동 556-1번지 1층","category":"직물 - 카페트,커튼,천막,지물"},{"name":"두원공조시스템","tel":"031-575-3419","addr":"경기도 남양주시 평내동 556-1번지 1층","category":"전기제품 - 냉열기기"}]},{"lat":"37.643859534","long":"127.22975383","items":[{"name":"나르샤한복","tel":"031-511-3117","addr":"경기도 남양주시 평내동 558-1번지 101호","category":"의류 - 맞춤복점"},{"name":"매직터치","tel":"031-511-7471","addr":"경기도 남양주시 평내동 558-1번지","category":"자동차정비 유지 - 카인테리어"},{"name":"에버에이프릴","tel":"031-595-2558","addr":"경기도 남양주시 평내동 558-1번지 1층","category":"문화.취미 - 화원"},{"name":"중고나라","tel":"031-511-4914","addr":"경기도 남양주시 평내동 558-1번지 101호","category":"신변잡화 - 기타잡화"}]},{"lat":"37.652363161","long":"127.23969506","items":[{"name":"낙지자랑","tel":"031-593-5412","addr":"경기도 남양주시 평내동 123-22번지","category":"일반휴게음식 - 일반한식"}]},{"lat":"37.645003387","long":"127.2345842","items":[{"name":"남양사","tel":"031-559-9275","addr":"경기도 남양주시 평내동 577-9번지 SkyVill 102호","category":"신변잡화 - 제화"},{"name":"비비큐평내점","tel":"031-592-9205","addr":"경기도 남양주시 평내동 577-9번지 모던빌 101호","category":"일반휴게음식 - 스넥"}]},{"lat":"37.64533117","long":"127.23282895","items":[{"name":"남양주 지점 구내매점","tel":"031-591-0299","addr":"경기도 남양주시 평내동 573번지 3층","category":"음료식품 - 기타음료식품"}]},{"lat":"37.648804048","long":"127.23530988","items":[{"name":"남양주동물병원","tel":"031-592-8875","addr":"경기도 남양주시 평내동 249-2번지 화성빌딩 201호","category":"기타의료기관 - 동물병원"},{"name":"남양주애견샵","tel":"031-592-8577","addr":"경기도 남양주시 평내동 249-2번지 화성빌딩 103,104호","category":"문화.취미 - 애완동물"},{"name":"드림종합사무기","tel":"031-511-9717","addr":"경기도 남양주시 평내동 249-2번지 화성빌딩 101호","category":"사무통신 - 사무용 OA기기"}]},{"lat":"37.643665356","long":"127.24141235","items":[{"name":"남양주백봉초등학교병설유치원[아이행복]","tel":"031-595-1602","addr":"경기도 남양주시 평내동 607번지 백봉초등학교","category":"학원 - 유치원"}]},{"lat":"37.645308579","long":"127.23969532","items":[{"name":"남양주신촌초등학교병설유치원[아이행복]","tel":"031-511-6315","addr":"경기도 남양주시 평내동 600번지","category":"학원 - 유치원"}]},{"lat":"37.65022037","long":"127.23894037","items":[{"name":"남양주탁구클럽","tel":"031-595-9555","addr":"경기도 남양주시 평내동 117-5번지 2층","category":"레저업소 - 기타레져업소"},{"name":"대로식당","tel":"031-511-6878","addr":"경기도 남양주시 평내동 117-5번지 1층","category":"일반휴게음식 - 일반한식"},{"name":"스타힐골프","tel":"031-591-3696","addr":"경기도 남양주시 평내동 117-5번지 2층","category":"레저업소 - 스크린골프"},{"name":"주식회사 레드뱅크","tel":"0505-911-6600","addr":"경기도 남양주시 평내동 117-5번지 진주상가 1층 16호","category":"회원제형태 - 사무서비스"},{"name":"천사마용실","tel":"031-591-2533","addr":"경기도 남양주시 평내동 117-5번지 1층","category":"보건위생 - 미용원"}]},{"lat":"37.647864921","long":"127.23638341","items":[{"name":"남원오서방추어탕","tel":"031-559-7555","addr":"경기도 남양주시 평내동 588-7.102~103","category":"일반휴게음식 - 일반한식"},{"name":"멀티글로벌(Multi global)","tel":"070-7531-2300","addr":"경기도 남양주시 평내동 588-7번지 1층 101호","category":"신변잡화 - 시계"},{"name":"생약초수집소(전국)","tel":"031-000-0000","addr":"경기도 남양주시 평내동 588-7번지 302호","category":"음료식품 - 농·축·수산품"}]},{"lat":"37.647060951","long":"127.23744601","items":[{"name":"네네치킨 평내점","tel":"031-556-4479","addr":"경기도 남양주시 평내동 587-6번지 102호","category":"일반휴게음식 - 스넥"},{"name":"모닝글로리평내점","tel":"031-511-1995","addr":"경기도 남양주시 평내동 587-6번지","category":"서적문구 - 문구용품"}]},{"lat":"37.645030861","long":"127.23435767","items":[{"name":"노윤주에스테틱","tel":"031-559-1287","addr":"경기도 남양주시 평내동 577-7번지","category":"보건위생 - 피부미용실"},{"name":"혜랑네일샵","tel":"031-594-1964","addr":"경기도 남양주시 평내동 577-7번지 102호","category":"보건위생 - 피부미용실"}]},{"lat":"37.646333328","long":"127.23635595","items":[{"name":"늘푸른세상","tel":"031-529-4480","addr":"경기도 남양주시 평내동 586-1번지 래일스타 402호","category":"회원제형태 - 기타4"},{"name":"브리스가헤어","tel":"031-591-0515","addr":"경기도 남양주시 평내동 586-1번지 래일스타 102호","category":"보건위생 - 미용원"}]},{"lat":"37.647171605","long":"127.23616595","items":[{"name":"다도회집","tel":"031-591-6771","addr":"경기도 남양주시 평내동 584-4번지","category":"일반휴게음식 - 일반한식"}]},{"lat":"37.642467836","long":"127.23652514","items":[{"name":"다모아논술","tel":"031-592-4381","addr":"경기도 남양주시 평내동 564번지 평내마을화성파크힐즈 1702동 305호","category":"회원제형태 - 학원"},{"name":"에이알랩","tel":"070-8839-6487","addr":"경기도 남양주시 평내동 564번지 평내화성파크힐즈 1702동 601호","category":"서적문구 - 과학기자재"},{"name":"진컴퓨터교실","tel":"","addr":"경기도 남양주시 평내동 564번지 평내화성파크힐즈 1702동 1703호","category":"학원 - 기타 교육기관"}]},{"lat":"37.64450352","long":"127.23678079","items":[{"name":"다보아안경","tel":"031-595-1551","addr":"경기도 남양주시 평내동 565-2번지","category":"보건위생 - 안경"},{"name":"비제이(BJ)텔레콤","tel":"","addr":"경기도 남양주시 평내동 565-2번지","category":"사무통신 - 통신기기"},{"name":"석호네닭발 평내점","tel":"","addr":"경기도 남양주시 평내동 565-2번지 1층","category":"일반휴게음식 - 일반한식"},{"name":"이디야 남양주평내점","tel":"031-591-1101","addr":"경기도 남양주시 평내동 565-2번지 2층 202호 203호","category":"일반휴게음식 - 서양음식"},{"name":"짬봉에도족보가있다","tel":"031-592-5878","addr":"경기도 남양주시 평내동 565-2번지 2층","category":"일반휴게음식 - 중국식"},{"name":"크레이지키친","tel":"031-594-2737","addr":"경기도 남양주시 평내동 565-2번지 2층","category":"일반휴게음식 - 일반한식"},{"name":"하피스치킨","tel":"031-559-2600","addr":"경기도 남양주시 평내동 565-2번지","category":"일반휴게음식 - 스넥"}]},{"lat":"37.647332185","long":"127.23697096","items":[{"name":"다비다","tel":"031-510-4000","addr":"경기도 남양주시 평내동 587-12번지","category":"보건위생 - 화장품"},{"name":"이레광고","tel":"031-592-5888","addr":"경기도 남양주시 평내동 587-12번지","category":"회원제형태 - 기타4"},{"name":"이즈헤어","tel":"031-591-7533","addr":"경기도 남양주시 평내동 587-12번지","category":"보건위생 - 미용원"}]},{"lat":"37.642970893","long":"127.23727452","items":[{"name":"다빈치미술학원","tel":"031-511-3793","addr":"경기도 남양주시 평내동 604-2번지","category":"학원 - 예·체능계학원"},{"name":"수코타이","tel":"","addr":"경기도 남양주시 평내동 604-2번지 우리빌딩 501호","category":"보건위생 - 화장품"},{"name":"아이비스 PC","tel":"070-7997-4034","addr":"경기도 남양주시 평내동 604-2번지 우리빌딩 3층","category":"레저업소 - 기타레져업소"},{"name":"헬로","tel":"070-4150-1100","addr":"경기도 남양주시 평내동 604-2번지 우리빌딩","category":"일반휴게음식 - 서양음식"}]},{"lat":"37.649563168","long":"127.24315358","items":[{"name":"다온어린이집[아이행복]","tel":"031-511-5652","addr":"경기도 남양주시 평내동 87번지 효성아파트 105동 1층 102호","category":"학원 - 유아원"}]},{"lat":"37.643415001","long":"127.23133875","items":[{"name":"달인감자탕","tel":"031-592-8330","addr":"경기도 남양주시 평내동 572-5번지 1층","category":"일반휴게음식 - 일반한식"}]},{"lat":"37.651441653","long":"127.23643993","items":[{"name":"대명식당","tel":"031-111-1111","addr":"경기도 남양주시 평내동 191번지","category":"일반휴게음식 - 일반한식"}]},{"lat":"37.651282507","long":"127.23944233","items":[{"name":"대명인테리어","tel":"031-592-5491","addr":"경기도 남양주시 평내동 120-1","category":"건축자재 - 인테리어전문"},{"name":"보이스커트","tel":"031-592-2511","addr":"경기도 남양주시 평내동 120-1번지 1층","category":"보건위생 - 미용원"},{"name":"씨앤씨","tel":"031-511-7074","addr":"경기도 남양주시 평내동 120-1번지","category":"의류 - 정장"},{"name":"코렉스자전거","tel":"031-591-2063","addr":"경기도 남양주시 평내동 120-1번지","category":"레져용품 - 스포츠·레져용품"},{"name":"호평장갑","tel":"031-559-1810","addr":"경기도 남양주시 평내동 120-1","category":"의류 - 기타의류"}]},{"lat":"37.645554131","long":"127.23399671","items":[{"name":"대박촌","tel":"031-592-0059","addr":"경기도 남양주시 평내동 575-5번지","category":"일반휴게음식 - 일반한식"},{"name":"워시엔조이셀프빨래방남양주평내점","tel":"031-544-4188","addr":"경기도 남양주시 평내동 575-5번지 1층","category":"일반휴게음식 - 서양음식"}]},{"lat":"37.643768332","long":"127.23495427","items":[{"name":"대성냉난방","tel":"031-511-3509","addr":"경기도 남양주시 평내동 550번지 평내마을금호어울림 1408동 603호","category":"회원제형태 - 기타4"}]},{"lat":"37.64708265","long":"127.23558779","items":[{"name":"대성양꼬치","tel":"031-591-7353","addr":"경기도 남양주시 평내동 583-14번지","category":"일반휴게음식 - 일반한식"}]},{"lat":"37.6494184","long":"127.24783298","items":[{"name":"대승주방","tel":"031-593-9264","addr":"경기도 남양주시 평내동 41-5번지","category":"주방용구 - 주방용구"},{"name":"에띠임미라클","tel":"070-8445-0201","addr":"경기도 남양주시 평내동 41-5번지","category":"회원제형태 - 기타1"},{"name":"영광공조","tel":"031-624-0124","addr":"경기도 남양주시 평내동 41-5번지","category":"전기제품 - 냉열기기"}]},{"lat":"37.644558248","long":"127.24095064","items":[{"name":"대주","tel":"","addr":"경기도 남양주시 평내동 601번지 평내마을신명스카이뷰 1801호 1501호","category":"직물 - 침구·수예점"}]},{"lat":"37.647529157","long":"127.2420819","items":[{"name":"대창건기(경기크레인)","tel":"031-559-0441","addr":"경기도 남양주시 평내동 595-10번지 203호","category":"기타 - 기계공구"},{"name":"심심만물상","tel":"","addr":"경기도 남양주시 평내동 595-10번지","category":"가구 - 기타가구"}]},{"lat":"37.649891594","long":"127.23663905","items":[{"name":"대한노인복지센터","tel":"031-594-9090","addr":"경기도 남양주시 평내동 211-6번지 가남빌딩 301호","category":"기타의료기관 - 기타의료기관 및 기타"},{"name":"덕앤샵","tel":"","addr":"경기도 남양주시 평내동 211-6번지 가남빌딩 104호","category":"의류 - 기타의류"},{"name":"마모트(평내점)","tel":"031-529-8666","addr":"경기도 남양주시 평내동 211-6번지 211-6,193,194-5 1층 103호","category":"레져용품 - 스포츠·레져용품"},{"name":"슈퍼마린키즈 수영장","tel":"031-559-9556","addr":"경기도 남양주시 평내동 211-6번지 가남빌딩 지하1층 102호","category":"레저업소 - 수 영 장"},{"name":"아이비클럽","tel":"031-593-1314","addr":"경기도 남양주시 평내동 211-6번지 가람빌딩 201호","category":"의류 - 단체복"},{"name":"올포유 평내점","tel":"031-595-1517","addr":"경기도 남양주시 평내동 211-6번지 가남빌딩 102호","category":"의류 - 스포츠의류"},{"name":"용인대 유도 체육관","tel":"031-511-3248","addr":"경기도 남양주시 평내동 211-6번지 가남빌딩 지층 1호","category":"학원 - 예·체능계학원"},{"name":"케이투 남양주평내점","tel":"031-559-7700","addr":"경기도 남양주시 평내동 211-6번지 가남빌딩 1층 103호","category":"레져용품 - 스포츠·레져용품"},{"name":"평내창조의아침미술학원","tel":"031-592-6677","addr":"경기도 남양주시 평내동 211-6번지 가남빌딩 2층 202,204호","category":"학원 - 예·체능계학원"}]},{"lat":"37.645807154","long":"127.23361224","items":[{"name":"대현예정원어린이집[아이행복]","tel":"031-592-7892","addr":"경기도 남양주시 평내동 574-2번지 101호","category":"학원 - 유아원"}]},{"lat":"37.647414977","long":"127.23611006","items":[{"name":"대호생고기","tel":"031-511-5446","addr":"경기도 남양주시 평내동 583-10번지","category":"일반휴게음식 - 일반한식"}]},{"lat":"37.649280977","long":"127.23560598","items":[{"name":"도토리노래연습장","tel":"031-592-1417","addr":"경기도 남양주시 평내동 206-3번지","category":"레저업소 - 노 래 방"},{"name":"사조참치남양지점","tel":"031-591-1445","addr":"경기도 남양주시 평내동 206-3번지 우성빌딩 301호","category":"일반휴게음식 - 일식·회집"},{"name":"스카이","tel":"","addr":"경기도 남양주시 평내동 206-3번지 정우빌딩 401-17호","category":"전기제품 - 기타전기제품"},{"name":"시그니처 컴퍼니","tel":"02-549-0951","addr":"경기도 남양주시 평내동 206-3번지 정우빌딩 603호","category":"용역 서비스 - 종합용역"},{"name":"평내창조의아침미술학원","tel":"031-592-6677","addr":"경기도 남양주시 평내동 206-3번지 정우빌딩 4층 402호","category":"학원 - 예·체능계학원"},{"name":"항아리보쌈","tel":"031-595-0059","addr":"경기도 남양주시 평내동 206-3번지 2층","category":"일반휴게음식 - 일반한식"},{"name":"힐링타이","tel":"031-591-1577","addr":"경기도 남양주시 평내동 206-3번지 정우빌딩 502호","category":"보건위생 - 화장품"}]},{"lat":"37.647277782","long":"127.24163919","items":[{"name":"독스","tel":"031-511-7543","addr":"경기도 남양주시 평내동 594-2번지","category":"문화.취미 - 애완동물"},{"name":"에이프릴","tel":"","addr":"경기도 남양주시 평내동 594-2번지","category":"보건위생 - 미용원"},{"name":"위드미염색방","tel":"031-487-2800","addr":"경기도 남양주시 평내동 594-2번지 1층","category":"보건위생 - 미용원"}]},{"lat":"37.648581886","long":"127.23830064","items":[{"name":"돈가네곱창","tel":"031-591-0154","addr":"경기도 남양주시 평내동 271-4번지","category":"일반휴게음식 - 일반한식"},{"name":"여왕미용실","tel":"031-595-0518","addr":"경기도 남양주시 평내동 271-4번지 동성빌딩 102호","category":"보건위생 - 미용원"},{"name":"훈남스포츠","tel":"070-7543-8543","addr":"경기도 남양주시 평내동 271-4번지 동성빌딩 102호","category":"레져용품 - 스포츠·레져용품"}]},{"lat":"37.646386668","long":"127.23671871","items":[{"name":"돈니꾸","tel":"031-511-7478","addr":"경기도 남양주시 평내동 586-12번지 세원빌딩3 101호","category":"일반휴게음식 - 일반한식"}]},{"lat":"37.647305763","long":"127.23666494","items":[{"name":"돈먹소","tel":"031-592-6403","addr":"경기도 남양주시 평내동 584-8번지 1층","category":"일반휴게음식 - 일반한식"}]},{"lat":"37.64333386","long":"127.23597266","items":[{"name":"돈치킨","tel":"031-594-9290","addr":"경기도 남양주시 평내동 551번지 드림코아 101호","category":"일반휴게음식 - 스넥"}]},{"lat":"37.646504018","long":"127.23660577","items":[{"name":"돌판위에올라간돼지한마리집","tel":"031-511-7251","addr":"경기도 남양주시 평내동 586-3번지 1층","category":"일반휴게음식 - 일반한식"}]},{"lat":"37.641194158","long":"127.22897528","items":[{"name":"동서가구","tel":"","addr":"경기도 남양주시 평내동 366-1번지 1층","category":"가구 - 일반가구"}]},{"lat":"37.647973377","long":"127.24072359","items":[{"name":"두레상사","tel":"031-593-5126","addr":"경기도 남양주시 평내동 103-2번지 삼창아파트","category":"유통업 영리 - 기타유통업"}]},{"lat":"37.645473266","long":"127.23388315","items":[{"name":"두리비어","tel":"031-559-4422","addr":"경기도 남양주시 평내동 575-6번지 1층","category":"일반휴게음식 - 주점"},{"name":"백봉순대국황소곱창","tel":"031-511-9970","addr":"경기도 남양주시 평내동 575-6번지 102호","category":"일반휴게음식 - 일반한식"}]},{"lat":"37.643640899","long":"127.23099952","items":[{"name":"두부마을","tel":"031-559-2698","addr":"경기도 남양주시 평내동 572-8번지 1층","category":"일반휴게음식 - 일반한식"}]},{"lat":"37.64791572","long":"127.2425024","items":[{"name":"두커피(DO COFFEE)","tel":"031-592-1233","addr":"경기도 남양주시 평내동 89-2번지","category":"일반휴게음식 - 서양음식"},{"name":"로히커피","tel":"031-591-5999","addr":"경기도 남양주시 평내동 89-2번지 지층","category":"음료식품 - 기타음료식품"}]},{"lat":"37.645419895","long":"127.23353173","items":[{"name":"등대해물요리전문","tel":"031-593-3955","addr":"경기도 남양주시 평내동 575-1번지","category":"일반휴게음식 - 일반한식"}]},{"lat":"37.650581638","long":"127.23849959","items":[{"name":"떡보의 하루(남양주점)","tel":"031-592-4427","addr":"경기도 남양주시 평내동 121-2번지 제일빌딩 1층 1호","category":"음료식품 - 기타음료식품"},{"name":"전소아과의원","tel":"031-591-4758","addr":"경기도 남양주시 평내동 121-2번지 제일빌딩 2층 2","category":"의원 - 의원"},{"name":"퀸노래연습장","tel":"031-591-5093","addr":"경기도 남양주시 평내동 121-2번지 제일빌딩 지하1층","category":"레저업소 - 노 래 방"},{"name":"평내연약국","tel":"031-591-7890","addr":"경기도 남양주시 평내동 121-2번지 제일빌딩 1층","category":"약국 - 약국"},{"name":"한국인테리어 남양주점","tel":"031-595-1912","addr":"경기도 남양주시 평내동 121-2번지 제일빌딩 1층 4호","category":"주방용구 - 주방용구"},{"name":"행복한집자수,손뜨개","tel":"031-592-9791","addr":"경기도 남양주시 평내동 121-2번지 제일빌딩 1층 3호","category":"직물 - 침구·수예점"}]},{"lat":"37.646414191","long":"127.23646952","items":[{"name":"또바기","tel":"031-559-6601","addr":"경기도 남양주시 평내동 586-2번지","category":"일반휴게음식 - 일반한식"}]},{"lat":"37.646774913","long":"127.23630068","items":[{"name":"라라카롱","tel":"","addr":"경기도 남양주시 평내동 585-3번지 101호","category":"음료식품 - 기타음료식품"}]},{"lat":"37.641915639","long":"127.23783772","items":[{"name":"란사이공","tel":"070-8869-7708","addr":"경기도 남양주시 평내동 605-3번지 남양빌딩 1층","category":"일반휴게음식 - 서양음식"}]},{"lat":"37.647302328","long":"127.24286302","items":[{"name":"럭스킨","tel":"031-591-6934","addr":"경기도 남양주시 평내동 597번지 원프라자 201호","category":"보건위생 - 화장품"},{"name":"베델소방153","tel":"","addr":"경기도 남양주시 평내동 597번지 원프라자 302호","category":"기타 - 기계공구"},{"name":"엘림조명","tel":"031-511-6256","addr":"경기도 남양주시 평내동 597번지 원프라자 2층","category":"기타 - 기타 전문점"}]},{"lat":"37.644751762","long":"127.23425483","items":[{"name":"레노마키즈 평내점","tel":"070-8632-2620","addr":"경기도 남양주시 평내동 577-12번지","category":"의류 - 아동의류"},{"name":"어울림마트","tel":"031-559-6370","addr":"경기도 남양주시 평내동 577-12번지","category":"음료식품 - 기타음료식품"},{"name":"케이.MODE","tel":"","addr":"경기도 남양주시 평내동 577-12번지","category":"의류 - 정장"}]},{"lat":"37.646692659","long":"127.23688963","items":[{"name":"레몬하우스","tel":"031-593-4455","addr":"경기도 남양주시 평내동 586-5번지 지층","category":"음료식품 - 기타음료식품"}]},{"lat":"37.649639773","long":"127.23641163","items":[{"name":"로가디스 남양주평내점","tel":"031-559-8747","addr":"경기도 남양주시 평내동 205-1번지 1층101-A호","category":"레져용품 - 스포츠·레져용품"},{"name":"올리비아로렌평내점","tel":"031-559-8837","addr":"경기도 남양주시 평내동 205-1번지 1층 101-8호","category":"레져용품 - 스포츠·레져용품"},{"name":"코리아나노래연습장","tel":"031-592-8464","addr":"경기도 남양주시 평내동 205-1번지 지하1층","category":"레저업소 - 노 래 방"},{"name":"크로커다일 레이디 평내점","tel":"031-595-9801","addr":"경기도 남양주시 평내동 205-1번지 광명빌딩 1층","category":"레져용품 - 스포츠·레져용품"}]},{"lat":"37.643360789","long":"127.2314179","items":[{"name":"로스타","tel":"070-8864-7272","addr":"경기도 남양주시 평내동 572-4번지 신원빌딩 101호","category":"일반휴게음식 - 일반한식"}]},{"lat":"37.643199427","long":"127.23099817","items":[{"name":"루디헤어","tel":"031-529-6347","addr":"경기도 남양주시 평내동 559-2번지 101호","category":"보건위생 - 미용원"},{"name":"빠띠최","tel":"080-8888-8444","addr":"경기도 남양주시 평내동 559-2번지 1층","category":"음료식품 - 제과점"}]},{"lat":"37.649914047","long":"127.24777795","items":[{"name":"루미까사","tel":"031-000-0000","addr":"경기도 남양주시 평내동 산97-8번지","category":"가구 - 일반가구"},{"name":"신유시스템","tel":"031-1644-4806","addr":"경기도 남양주시 평내동 산97-8번지 협동산업내 대성에어컨","category":"수리서비스 - 가정용품수리"}]},{"lat":"37.64444404","long":"127.23949996","items":[{"name":"룩스뮤직드럼교습소","tel":"","addr":"경기도 남양주시 평내동 601번지 평내마을시니영스카이뷰 상가동 203호 일부 204호 일부","category":"학원 - 예·체능계학원"},{"name":"평내카이스트수학교습소","tel":"031-594-5385","addr":"경기도 남양주시 평내동 601번지 신명프라자 상가동 2층 203호","category":"학원 - 보습학원"},{"name":"허니펀잉글리쉬영어교습소","tel":"031-591-0730","addr":"경기도 남양주시 평내동 601번지 상가동 1층 108,109호","category":"학원 - 외국어학원"}]},{"lat":"37.648637546","long":"127.23749629","items":[{"name":"류디저트집","tel":"031-111-1111","addr":"경기도 남양주시 평내동 268-1번지 1층","category":"음료식품 - 기타음료식품"},{"name":"윤헤어갤러리","tel":"031-559-0811","addr":"경기도 남양주시 평내동 268-1번지","category":"보건위생 - 미용원"}]},{"lat":"37.644334265","long":"127.23580583","items":[{"name":"르와","tel":"031-511-0220","addr":"경기도 남양주시 평내동 550번지 제상가동1층 110호","category":"보건위생 - 화장품"},{"name":"봉구스밥버거","tel":"031-594-1542","addr":"경기도 남양주시 평내동 550번지 평내마을금호어울림 상가동 110호","category":"일반휴게음식 - 스넥"},{"name":"초가만두","tel":"031-1670-4075","addr":"경기도 남양주시 평내동 550번지 상가동 108호 외5필지평내마을금호어울림","category":"일반휴게음식 - 일반한식"},{"name":"플레르안","tel":"","addr":"경기도 남양주시 평내동 550번지 평내마을금호어울림 상가 106호","category":"문화.취미 - 화원"}]},{"lat":"37.649997165","long":"127.23791984","items":[{"name":"리샘헤어","tel":"031-790-9570","addr":"경기도 남양주시 평내동 200-4번지 1층","category":"보건위생 - 미용원"},{"name":"커피놀다","tel":"031-559-9653","addr":"경기도 남양주시 평내동 200-4번지 CM타워 1층","category":"일반휴게음식 - 서양음식"},{"name":"필립요양병원","tel":"031-1877-7504","addr":"경기도 남양주시 평내동 200-4번지 4-7층,8층 일부","category":"병원 - 병원"},{"name":"하늘의정원치과의원","tel":"031-593-2882","addr":"경기도 남양주시 평내동 200-4번지 8층","category":"의원 - 치과의원"}]},{"lat":"37.647779839","long":"127.24286456","items":[{"name":"린팩토리","tel":"031-511-1430","addr":"경기도 남양주시 평내동 596번지","category":"자동차정비 유지 - 자동차부품"},{"name":"태양모터스","tel":"031-595-5154","addr":"경기도 남양주시 평내동 596번지","category":"자동차정비 유지 - 자동차정비"}]},{"lat":"37.64736168","long":"127.23572463","items":[{"name":"마라톤상사","tel":"031-556-5211","addr":"경기도 남양주시 평내동 583-3번지 1층","category":"서적문구 - 문구용품"},{"name":"산야초랑","tel":"031-595-9953","addr":"경기도 남양주시 평내동 583-3번지","category":"일반휴게음식 - 일반한식"}]},{"lat":"37.642862485","long":"127.23742148","items":[{"name":"마루벌돌구이","tel":"031-595-9223","addr":"경기도 남양주시 평내동 604-3번지","category":"일반휴게음식 - 일반한식"}]},{"lat":"37.649668213","long":"127.23569784","items":[{"name":"마을카센타","tel":"031-592-7799","addr":"경기도 남양주시 평내동 206-4번지","category":"자동차정비 유지 - 자동차정비"},{"name":"천년의소리","tel":"031-562-8959","addr":"경기도 남양주시 평내동 206-4번지 하이카프라자평내아도공업사","category":"자동차정비 유지 - 자동차부품"},{"name":"평내세차장","tel":"031-559-4321","addr":"경기도 남양주시 평내동 206-4번지","category":"자동차정비 유지 - 세차장"}]},{"lat":"37.644922523","long":"127.23447064","items":[{"name":"마이 팜","tel":"","addr":"경기도 남양주시 평내동 577-10번지 101호","category":"음료식품 - 농·축·수산품"},{"name":"예쁜여우","tel":"02-1111-1111","addr":"경기도 남양주시 평내동 577-10번지 1층 103호","category":"의류 - 정장"},{"name":"코코헤어짱","tel":"031-511-9741","addr":"경기도 남양주시 평내동 577-10번지 1층 102호","category":"보건위생 - 미용원"}]},{"lat":"37.650862383","long":"127.23777525","items":[{"name":"마코 삼패점","tel":"031-577-8508","addr":"경기도 남양주시 평내동 198번지 1층","category":"의류 - 스포츠의류"}]},{"lat":"37.64579012","long":"127.23767996","items":[{"name":"마포석수","tel":"022-6455-4377","addr":"경기도 남양주시 평내동 581 평내1차대주파크빌 1505-101","category":"음료식품 - 기타음료식품"}]},{"lat":"37.646584318","long":"127.2370026","items":[{"name":"만이갈비 평내점","tel":"031-594-0006","addr":"경기도 남양주시 평내동 586-10번지 평화빌딩 1층","category":"일반휴게음식 - 일반한식"}]},{"lat":"37.644832649","long":"127.23435705","items":[{"name":"맘앤아이","tel":"070-8851-1712","addr":"경기도 남양주시 평내동 577-11번지 103호","category":"의류 - 정장"},{"name":"엔젤헤어샵","tel":"070-4225-1008","addr":"경기도 남양주시 평내동 577-11번지","category":"보건위생 - 미용원"},{"name":"윤피아노","tel":"","addr":"경기도 남양주시 평내동 577-11번지","category":"학원 - 예·체능계학원"},{"name":"크린토피아 코인워시 평내금호어울림점","tel":"031-559-5006","addr":"경기도 남양주시 평내동 577-11번지 102호","category":"수리서비스 - 세탁소"}]},{"lat":"37.648914563","long":"127.23864163","items":[{"name":"맛나방앗간","tel":"031-559-9993","addr":"경기도 남양주시 평내동 269-20번지 대양빌딩 104호","category":"음료식품 - 제과점"},{"name":"미시헤어","tel":"031-592-0854","addr":"경기도 남양주시 평내동 269-20번지 대양빌딩 102호","category":"보건위생 - 미용원"},{"name":"스타일","tel":"031-592-0340","addr":"경기도 남양주시 평내동 269-20번지 대양빌딩 1층","category":"의류 - 정장"},{"name":"용인대석사청룡태권도","tel":"031-591-4334","addr":"경기도 남양주시 평내동 269-20번지 대양빌딩 2층","category":"학원 - 기타 교육기관"},{"name":"치킨달인","tel":"031-592-8992","addr":"경기도 남양주시 평내동 269-20번지 대양빌딩 101호","category":"일반휴게음식 - 주점"},{"name":"해동방앗간","tel":"031-591-9950","addr":"경기도 남양주시 평내동 269-20번지","category":"음료식품 - 기타음료식품"}]},{"lat":"37.646252444","long":"127.23625372","items":[{"name":"매운등갈비찜 전문점","tel":"031-566-1533","addr":"경기도 남양주시 평내동 586번지 상가 1층","category":"일반휴게음식 - 일반한식"}]},{"lat":"37.64977798","long":"127.23485965","items":[{"name":"맹심커피","tel":"","addr":"경기도 남양주시 평내동 220번지 1층","category":"일반휴게음식 - 서양음식"}]},{"lat":"37.651749391","long":"127.24024836","items":[{"name":"멈스전자 남양주구리가평지점","tel":"02-1544-8630","addr":"경기도 남양주시 평내동 산87-25번지 대박곱창 104호","category":"주방용구 - 주방용구"},{"name":"배터리 총판","tel":"","addr":"경기도 남양주시 평내동 산87-25번지","category":"자동차정비 유지 - 자동차부품"},{"name":"썬버티컬","tel":"031-591-8262","addr":"경기도 남양주시 평내동 산87-25번지 대박곱창 102호","category":"직물 - 카페트,커튼,천막,지물"}]},{"lat":"37.648392684","long":"127.23830004","items":[{"name":"멍스터치","tel":"031-576-7841","addr":"경기도 남양주시 평내동 593번지 우향빌딩 103호","category":"문화.취미 - 애완동물"},{"name":"흠뻑쭈꾸미","tel":"031-591-7468","addr":"경기도 남양주시 평내동 593번지 우향빌딩 101호","category":"일반휴게음식 - 일반한식"}]},{"lat":"37.642752262","long":"127.22927459","items":[{"name":"메뉴박스","tel":"031-559-4364","addr":"경기도 남양주시 평내동 553-5번지 204호","category":"용역 서비스 - 종합용역"},{"name":"준미디어","tel":"070-7658-6967","addr":"경기도 남양주시 평내동 553-5,303 35/4","category":"전기제품 - 가전제품"}]},{"lat":"37.649976192","long":"127.23486027","items":[{"name":"메이플어린이집[아이행복]","tel":"031-593-8166","addr":"경기도 남양주시 평내동 214-3번지","category":"학원 - 유아원"}]},{"lat":"37.650752991","long":"127.24288546","items":[{"name":"모모네일","tel":"070-7365-0492","addr":"경기도 남양주시 평내동 142번지 리치힐하우스 105호","category":"보건위생 - 피부미용실"},{"name":"상진푸드","tel":"031-594-0620","addr":"경기도 남양주시 평내동 142번지 리치힐하우스 102호","category":"일반휴게음식 - 일반한식"},{"name":"이노헤어","tel":"031-559-4458","addr":"경기도 남양주시 평내동 142번지 리치힐하우스 104호","category":"보건위생 - 미용원"},{"name":"처갓집 양념통닭","tel":"031-591-0993","addr":"경기도 남양주시 평내동 142번지 1층 101호","category":"일반휴게음식 - 스넥"},{"name":"행운플라워","tel":"031-514-9292","addr":"경기도 남양주시 평내동 142번지 310호","category":"문화.취미 - 화원"},{"name":"헵시바","tel":"031-000-0000","addr":"경기도 남양주시 평내동 142번지 107호","category":"일반휴게음식 - 서양음식"}]},{"lat":"37.652030646","long":"127.23927473","items":[{"name":"목양교회","tel":"031-555-1622","addr":"경기도 남양주시 평내동 122-1 3층","category":"기타 - 비영리/대상"},{"name":"칠하는고양이","tel":"031-559-3000","addr":"경기도 남양주시 평내동 122-1번지 우측상가 1층","category":"건축자재 - 페인트"}]},{"lat":"37.642859137","long":"127.22992075","items":[{"name":"물이랑 쌀이랑","tel":"031-1855-1270","addr":"경기도 남양주시 평내동 556-5번지","category":"유통업 영리 - 기타유통업"}]},{"lat":"37.643560928","long":"127.23042142","items":[{"name":"미도인테리어","tel":"031-593-4226","addr":"경기도 남양주시 평내동 558-5번지 102호","category":"건축자재 - 인테리어전문"},{"name":"코코브라운(COCO BROWN)","tel":"031-591-5503","addr":"경기도 남양주시 평내동 558-5번지","category":"일반휴게음식 - 서양음식"}]},{"lat":"37.646946409","long":"127.23614258","items":[{"name":"미소인테리어","tel":"031-591-3131","addr":"경기도 남양주시 평내동 584-12번지 1층","category":"건축자재 - 인테리어전문"},{"name":"양화당","tel":"031-0000-0000","addr":"경기도 남양주시 평내동 584-12번지 1층","category":"음료식품 - 기타음료식품"}]},{"lat":"37.650138365","long":"127.23486077","items":[{"name":"민다교역","tel":"031-594-4376","addr":"경기도 남양주시 평내동 215","category":"건강식품 - 기타건강식품"},{"name":"잇츠비(It's be)","tel":"070-7607-6261","addr":"경기도 남양주시 평내동 215번지 회산빌딩 2층","category":"의류 - 기타의류"},{"name":"제이비","tel":"070-8796-4530","addr":"경기도 남양주시 평내동 215번지 103호","category":"자동차정비 유지 - 자동차부품"}]},{"lat":"37.647110126","long":"127.23536125","items":[{"name":"바다삼촌","tel":"031-511-9229","addr":"경기도 남양주시 평내동 583번지","category":"일반휴게음식 - 일반한식"},{"name":"인생은 솔로다","tel":"070-8987-6950","addr":"경기도 남양주시 평내동 583번지 1층 102호","category":"일반휴게음식 - 주점"},{"name":"짱닭치킨","tel":"031-595-7759","addr":"경기도 남양주시 평내동 583번지 1층 일부","category":"일반휴게음식 - 스넥"}]},{"lat":"37.644779302","long":"127.23399431","items":[{"name":"바이스콧","tel":"","addr":"경기도 남양주시 평내동 577-4번지 101호","category":"음료식품 - 기타음료식품"}]},{"lat":"37.651560645","long":"127.24002113","items":[{"name":"바이크시티","tel":"031-591-4109","addr":"경기도 남양주시 평내동 119-5번지","category":"자동차판매 - 이륜차판매"},{"name":"푸른시티","tel":"031-527-1077","addr":"경기도 남양주시 평내동 119-5번지 1층 30호,39호","category":"용역 서비스 - 종합용역"}]},{"lat":"37.647277507","long":"127.24177516","items":[{"name":"바지락칼국수보쌈","tel":"031-593-6525","addr":"경기도 남양주시 평내동 594-3번지","category":"일반휴게음식 - 일반한식"}]},{"lat":"37.652223584","long":"127.24189299","items":[{"name":"박광용자동차공업사","tel":"031-511-0348","addr":"경기도 남양주시 평내동 150-5번지 외2필지","category":"자동차정비 유지 - 자동차정비"}]},{"lat":"37.646830939","long":"127.23530373","items":[{"name":"배달삼겹 돼지되지","tel":"031-595-8592","addr":"경기도 남양주시 평내동 582-2번지 101호","category":"일반휴게음식 - 일반한식"},{"name":"한잔더","tel":"031-595-0655","addr":"경기도 남양주시 평내동 582-2번지","category":"일반휴게음식 - 일반한식"}]},{"lat":"37.645302504","long":"127.23366734","items":[{"name":"백봉산흑염소보신탕","tel":"031-594-5859","addr":"경기도 남양주시 평내동 575-8번지 1층","category":"일반휴게음식 - 일반한식"}]},{"lat":"37.642644651","long":"127.23822525","items":[{"name":"번창수산","tel":"031-592-0292","addr":"경기도 남양주시 평내동 603-6번지 케이마트","category":"음료식품 - 농·축·수산품"}]},{"lat":"37.649750312","long":"127.24416268","items":[{"name":"베어빈","tel":"031-591-3329","addr":"경기도 남양주시 평내동 152-34번지","category":"일반휴게음식 - 서양음식"}]},{"lat":"37.648671371","long":"127.23860687","items":[{"name":"별사랑어린이집[아이행복]","tel":"031-594-0203","addr":"경기도 남양주시 평내동 271-1번지","category":"학원 - 유아원"}]},{"lat":"37.644698415","long":"127.23389208","items":[{"name":"봄날","tel":"031-593-0986","addr":"경기도 남양주시 평내동 577-3번지 1층","category":"보건위생 - 미용원"}]},{"lat":"37.647277633","long":"127.23722007","items":[{"name":"봄앤헤어","tel":"031-592-3171","addr":"경기도 남양주시 평내동 587-4번지 기평빌 101호","category":"보건위생 - 미용원"},{"name":"청춘당꽈배기평내점","tel":"","addr":"경기도 남양주시 평내동 587-4번지 기평빌 1동","category":"일반휴게음식 - 일반한식"}]},{"lat":"37.647227809","long":"127.23507834","items":[{"name":"봉정가든","tel":"031-559-8787","addr":"경기도 남양주시 평내동 588-18번지","category":"일반휴게음식 - 일반한식"}]},{"lat":"37.651501642","long":"127.24246859","items":[{"name":"블랙스완","tel":"031-511-5191","addr":"경기도 남양주시 평내동 130-26번지","category":"신변잡화 - 기타잡화"}]},{"lat":"37.643471007","long":"127.23033051","items":[{"name":"블랙커피","tel":"","addr":"경기도 남양주시 평내동 558-6번지 1층 상가A","category":"일반휴게음식 - 서양음식"},{"name":"어메이준","tel":"","addr":"경기도 남양주시 평내동 558-6번지 상가B호","category":"신변잡화 - 기타잡화"},{"name":"지거스(ZIGUS)","tel":"070-4218-7600","addr":"경기도 남양주시 평내동 558-6번지 상가 B호","category":"기타 - 기계공구"}]},{"lat":"37.647638737","long":"127.23685861","items":[{"name":"블루라인","tel":"031-559-0108","addr":"경기도 남양주시 평내동 587-1번지 1층","category":"보건위생 - 미용원"},{"name":"우찬인테리어","tel":"031-563-0956","addr":"경기도 남양주시 평내동 587-1번지 103호","category":"직물 - 카페트,커튼,천막,지물"}]},{"lat":"37.652197472","long":"127.24143963","items":[{"name":"비봉인테리어","tel":"031-591-7893","addr":"경기도 남양주시 평내동 129-7번지 써니블라인드버티칼 104호","category":"건축자재 - 인테리어전문"},{"name":"써니블라인드버티칼","tel":"031-592-0362","addr":"경기도 남양주시 평내동 129-7번지 주까르시아 1동","category":"직물 - 카페트,커튼,천막,지물"},{"name":"홈인테리어","tel":"031-572-9916","addr":"경기도 남양주시 평내동 129-7번지","category":"건축자재 - 인테리어전문"}]},{"lat":"37.647608148","long":"127.24311329","items":[{"name":"비상교육학원","tel":"031-511-5831","addr":"경기도 남양주시 평내동 596-2 2,3층","category":"학원 - 보습학원"}]},{"lat":"37.647054749","long":"127.23602961","items":[{"name":"비에이치씨(BHC)평내점","tel":"031-595-8277","addr":"경기도 남양주시 평내동 584-3번지","category":"일반휴게음식 - 스넥"}]},{"lat":"37.645084696","long":"127.23447114","items":[{"name":"빨간지붕 평내","tel":"031-594-7556","addr":"경기도 남양주시 평내동 577-8번지 1층 위너스하우젤","category":"의류 - 정장"},{"name":"알파 인터내쇼날","tel":"070-7405-0533","addr":"경기도 남양주시 평내동 577-8번지 위너스하우젤B105","category":"레져용품 - 스포츠·레져용품"}]},{"lat":"37.646665203","long":"127.23710484","items":[{"name":"뽕차이","tel":"031-591-9457","addr":"경기도 남양주시 평내동 586-9번지 1층","category":"일반휴게음식 - 중국식"}]},{"lat":"37.645700317","long":"127.23753238","items":[{"name":"뿔난도깨비의상상미술교습소","tel":"031-594-7944","addr":"경기도 남양주시 평내동 581 평내마을평내1차대주파크빌상가동2층201호","category":"학원 - 예·체능계학원"},{"name":"유신태권도장","tel":"031-595-0880","addr":"경기도 남양주시 평내동 581번지 대주1차아파트 2층 205~207호","category":"학원 - 예·체능계학원"},{"name":"추닭집 평내점","tel":"031-511-9272","addr":"경기도 남양주시 평내동 581번지 평내마을평내1차대주파크빌 상가동 102호","category":"일반휴게음식 - 스넥"}]},{"lat":"37.647810302","long":"127.23666652","items":[{"name":"사진마당","tel":"031-592-3433","addr":"경기도 남양주시 평내동 588-5번지","category":"광학제품 - 사진관"},{"name":"티트리","tel":"","addr":"경기도 남양주시 평내동 588-5번지 104호","category":"의류 - 정장"},{"name":"힐바이크","tel":"031-528-6263","addr":"경기도 남양주시 평내동 588-5번지 101호","category":"레져용품 - 스포츠·레져용품"}]},{"lat":"37.64586099","long":"127.23372572","items":[{"name":"산과들","tel":"031-591-3136","addr":"경기도 남양주시 평내동 574-3번지 진승빌딩 1층","category":"의류 - 기타의류"},{"name":"세븐일레븐남양주장내마을점","tel":"","addr":"경기도 남양주시 평내동 574-3번지 진승빌딩 1층","category":"유통업 영리 - 편 의 점"}]},{"lat":"37.650616339","long":"127.23916826","items":[{"name":"삼성인테리어","tel":"031-511-8995","addr":"경기도 남양주시 평내동 118-4번지","category":"건축자재 - 인테리어전문"}]},{"lat":"37.639309342","long":"127.23908713","items":[{"name":"서경","tel":"031-594-6300","addr":"경기도 남양주시 평내동 651-1번지 서경청소년수련원3층","category":"일반휴게음식 - 위탁급식업"}]},{"lat":"37.647253341","long":"127.2358376","items":[{"name":"서문보신탕","tel":"031-592-2405","addr":"경기도 남양주시 평내동 583-12번지 1층","category":"일반휴게음식 - 일반한식"}]},{"lat":"37.642664835","long":"127.2371376","items":[{"name":"서울에듀학원","tel":"031-595-6161","addr":"경기도 남양주시 평내동 604-10번지 405,406호","category":"학원 - 보습학원"},{"name":"이지탁구클럽","tel":"031-595-1417","addr":"경기도 남양주시 평내동 604-10 외2필지 우영프라자3층303,304호","category":"레저업소 - 기타레져업소"},{"name":"투다리","tel":"031-559-1070","addr":"경기도 남양주시 평내동 604-10번지 택지개발지구우영프라자 105호","category":"일반휴게음식 - 주점"},{"name":"하기오스킨더가든","tel":"031-595-2535","addr":"경기도 남양주시 평내동 604-10번지 외2필지평내택지개발지구우영프라자5층 상가-502","category":"회원제형태 - 기타4"}]},{"lat":"37.649835443","long":"127.2376927","items":[{"name":"서울탑치과의원","tel":"031-591-7528","addr":"경기도 남양주시 평내동 202-5번지 중앙빌딩 2층 1호","category":"의원 - 치과의원"},{"name":"오돈우 대박집","tel":"031-594-1006","addr":"경기도 남양주시 평내동 202-5번지 중앙빌딩 1층 8호","category":"일반휴게음식 - 일반한식"},{"name":"원소머리곰탕","tel":"031-511-1578","addr":"경기도 남양주시 평내동 202-5번지 중앙빌딩 1층","category":"일반휴게음식 - 일반한식"},{"name":"좋은가게","tel":"","addr":"경기도 남양주시 평내동 202-5번지 중앙빌딩 1층 좌측코너","category":"음료식품 - 농·축·수산품"},{"name":"큐엔에이","tel":"070-4855-6912","addr":"경기도 남양주시 평내동 202-5번지 중앙빌딩 1층","category":"일반휴게음식 - 서양음식"},{"name":"티제이 빌리아드","tel":"031-593-1509","addr":"경기도 남양주시 평내동 202-5번지 중앙빌딩 301호","category":"레저업소 - 당 구 장"},{"name":"후만두","tel":"031-111-1111","addr":"경기도 남양주시 평내동 202-5번지 중앙빌딩 1층 7호","category":"일반휴게음식 - 일반한식"}]},{"lat":"37.648752616","long":"127.2385278","items":[{"name":"서일자동문","tel":"031-511-7371","addr":"경기도 남양주시 평내동 269-13번지 1층 2호","category":"용역 서비스 - 기타용역서비스"}]},{"lat":"37.647699443","long":"127.24252436","items":[{"name":"선우","tel":"02-426-7933","addr":"경기도 남양주시 평내동 595-6번지","category":"전기제품 - 가전제품"},{"name":"우리 인테리어","tel":"031-515-1884","addr":"경기도 남양주시 평내동 595-6번지 1층 1호","category":"건축자재 - 인테리어전문"}]},{"lat":"37.64664167","long":"127.23533713","items":[{"name":"선우인테리어","tel":"031-511-2405","addr":"경기도 남양주시 평내동 582-11번지 102호","category":"건축자재 - 인테리어전문"},{"name":"에클레시아","tel":"031-528-6263","addr":"경기도 남양주시 평내동 582-11번지 101호","category":"일반휴게음식 - 서양음식"}]},{"lat":"37.644418948","long":"127.24300104","items":[{"name":"선율피아노교습소","tel":"031-593-9533","addr":"경기도 남양주시 평내동 608 평내마을중흥에스클래스상가동108호","category":"학원 - 예·체능계학원"}]},{"lat":"37.644021269","long":"127.2391587","items":[{"name":"선인테리어","tel":"","addr":"경기도 남양주시 평내동 601번지 평내마을신명스카이뷰 1807동 1002호","category":"건축자재 - 인테리어전문"}]},{"lat":"37.648334199","long":"127.24493996","items":[{"name":"성덕문화사","tel":"031-591-7796","addr":"경기도 남양주시 평내동 59번지 세종아파트","category":"서적문구 - 출판 및 인쇄물"},{"name":"세종슈퍼","tel":"031-593-4327","addr":"경기도 남양주시 평내동 59번지 세종리젠시빌 상가 102호","category":"유통업 영리 - 슈퍼마켓"}]},{"lat":"37.645653485","long":"127.23842737","items":[{"name":"성우출장","tel":"031-592-4530","addr":"경기도 남양주시 평내동 581번지 평내마을대주파크빌 1503동 1102호","category":"자동차정비 유지 - 자동차정비"}]},{"lat":"37.649220823","long":"127.24752638","items":[{"name":"성음전자","tel":"031-000-0000","addr":"경기도 남양주시 평내동 41-2번지","category":"전기제품 - 기타전기제품"}]},{"lat":"37.647001787","long":"127.23547423","items":[{"name":"세븐일레븐평내으뜸점","tel":"","addr":"경기도 남양주시 평내동 583-15번지 1층","category":"유통업 영리 - 편 의 점"}]},{"lat":"37.646666506","long":"127.23644764","items":[{"name":"소담찬&착한마녀","tel":"","addr":"경기도 남양주시 평내동 585-5번지 1층","category":"음료식품 - 기타음료식품"}]},{"lat":"37.644914935","long":"127.23374545","items":[{"name":"소울가구갤러리","tel":"031-637-6560","addr":"경기도 남양주시 평내동 576-8번지 1층","category":"가구 - 일반가구"}]},{"lat":"37.648804451","long":"127.23963843","items":[{"name":"수랏간푸드","tel":"031-595-5462","addr":"경기도 남양주시 평내동 107-6번지 하나마트내 102호","category":"일반휴게음식 - 일반한식"}]},{"lat":"37.646224989","long":"127.23646892","items":[{"name":"수레로돈가스","tel":"031-591-7086","addr":"경기도 남양주시 평내동 586-14번지 1층 101호","category":"일반휴게음식 - 일반한식"}]},{"lat":"37.64641502","long":"127.23605027","items":[{"name":"수원왕갈비","tel":"031-511-2801","addr":"경기도 남양주시 평내동 585-8번지","category":"일반휴게음식 - 일반한식"}]},{"lat":"37.641585605","long":"127.23155975","items":[{"name":"수학상상수학교습소","tel":"","addr":"경기도 남양주시 평내동 561번지 평내마을우남퍼스트빌 상가동 203호","category":"학원 - 보습학원"},{"name":"우남마트","tel":"031-511-5325","addr":"경기도 남양주시 평내동 561우남상가103","category":"음료식품 - 기타음료식품"},{"name":"우남퍼스트해법영어교습소","tel":"031-591-6393","addr":"경기도 남양주시 평내동 561번지 평내마을우남퍼스트빌상가-204","category":"회원제형태 - 학원"}]},{"lat":"37.643751864","long":"127.23871596","items":[{"name":"수학의신수학학원","tel":"031-594-6554","addr":"경기도 남양주시 평내동 602번지 평내마을평내2차대주파크빌 상가 201호","category":"학원 - 보습학원"}]},{"lat":"37.643005827","long":"127.23782983","items":[{"name":"순수미술교습소","tel":"031-595-3224","addr":"경기도 남양주시 평내동 603-3번지 301호","category":"학원 - 예·체능계학원"},{"name":"오병이어","tel":"031-511-5022","addr":"경기도 남양주시 평내동 603-3번지 101호","category":"음료식품 - 농·축·수산품"},{"name":"제주오라방해장국","tel":"031-591-1234","addr":"경기도 남양주시 평내동 603-3번지 102,103호 일부","category":"일반휴게음식 - 일반한식"}]},{"lat":"37.64697108","long":"127.23733242","items":[{"name":"스마트공조","tel":"031-1588-3366","addr":"경기도 남양주시 평내동 587-9번지","category":"용역 서비스 - 기타용역서비스"},{"name":"아이가","tel":"031-591-0533","addr":"경기도 남양주시 평내동 587-9번지 1층 102호 상가","category":"보건위생 - 화장품"},{"name":"아이비공방","tel":"","addr":"경기도 남양주시 평내동 587-9번지 301호","category":"문화.취미 - 문화취미기타"}]},{"lat":"37.646532347","long":"127.23594866","items":[{"name":"스탠다드커피랩","tel":"031-591-5850","addr":"경기도 남양주시 평내동 585번지 1층","category":"일반휴게음식 - 서양음식"},{"name":"에어포스밴","tel":"031-591-4263","addr":"경기도 남양주시 평내동 585번지 203호","category":"사무통신 - 통신기기"}]},{"lat":"37.650026019","long":"127.23700208","items":[{"name":"시외버스매표소","tel":"031-592-5262","addr":"경기도 남양주시 평내동 202-1","category":"음료식품 - 기타음료식품"}]},{"lat":"37.647945716","long":"127.23653097","items":[{"name":"신의주찹쌀순대","tel":"031-591-7892","addr":"경기도 남양주시 평내동 588-4번지","category":"일반휴게음식 - 일반한식"},{"name":"크리스마스빈","tel":"070-8861-7000","addr":"경기도 남양주시 평내동 588-4번지","category":"일반휴게음식 - 일반한식"},{"name":"크리스마스빈 로스팅 랩","tel":"070-8861-7000","addr":"경기도 남양주시 평내동 588-4번지 상가동 1층 104호","category":"음료식품 - 기타음료식품"}]},{"lat":"37.649254328","long":"127.23541326","items":[{"name":"신촌","tel":"031-591-7363","addr":"경기도 남양주시 평내동 222-3번지","category":"음료식품 - 기타음료식품"},{"name":"이지에스테틱","tel":"031-592-3133","addr":"경기도 남양주시 평내동 222-3번지 가람빌딩 201호","category":"회원제형태 - 기타4"},{"name":"하나종합공구","tel":"031-592-0913","addr":"경기도 남양주시 평내동 222-3번지","category":"기타 - 기계공구"}]},{"lat":"37.643913918","long":"127.22958404","items":[{"name":"썬차일드 구리,남양주점","tel":"031-566-5425","addr":"경기도 남양주시 평내동 558번지 102호","category":"서적문구 - 기타서적문구"},{"name":"오일코리아","tel":"070-8804-0512","addr":"경기도 남양주시 평내동 558번지 301호","category":"신변잡화 - 기타잡화"}]},{"lat":"37.645973593","long":"127.23602623","items":[{"name":"씨유평내로점","tel":"031-595-4332","addr":"경기도 남양주시 평내동 582-8번지 1층","category":"유통업 영리 - 편 의 점"},{"name":"황기순칼국수(평내점)","tel":"031-595-9550","addr":"경기도 남양주시 평내동 582-8번지 1층 일부호","category":"일반휴게음식 - 일반한식"}]},{"lat":"37.641891758","long":"127.23625141","items":[{"name":"씨유평내화성스타점","tel":"031-559-7189","addr":"경기도 남양주시 평내동 564번지 평내화성파크힐즈 상가동 104, 105호","category":"유통업 영리 - 편 의 점"},{"name":"이레피아노학원","tel":"031-511-7557","addr":"경기도 남양주시 평내동 564번지 평내화성파크힐즈 상가 202호","category":"학원 - 예·체능계학원"},{"name":"짱구문방구","tel":"031-511-2783","addr":"경기도 남양주시 평내동 564번지 평내화성파크힐즈 상가동 103호","category":"서적문구 - 문구용품"},{"name":"화성잼터어린이집[아이행복]","tel":"031-595-7732","addr":"경기도 남양주시 평내동 564번지","category":"학원 - 유아원"}]},{"lat":"37.645671478","long":"127.23388376","items":[{"name":"아뜰리에 공방","tel":"070-4237-7425","addr":"경기도 남양주시 평내동 575-4번지 네스트빌 102호","category":"문화.취미 - 문화취미기타"}]},{"lat":"37.646109006","long":"127.23589069","items":[{"name":"아르떼헤어","tel":"031-594-7085","addr":"경기도 남양주시 평내동 582-9번지 102호","category":"보건위생 - 미용원"},{"name":"킹부대찌개 테이크아웃 평내점","tel":"031-511-1002","addr":"경기도 남양주시 평내동 582-9번지 1층 3호","category":"일반휴게음식 - 일반한식"},{"name":"타츠","tel":"031-591-0068","addr":"경기도 남양주시 평내동 582-9번지 1층","category":"일반휴게음식 - 일식·회집"},{"name":"토영건축철물","tel":"031-592-5920","addr":"경기도 남양주시 평내동 582-9번지","category":"건축자재 - 목재·석재·철물"}]},{"lat":"37.650610609","long":"127.23752516","items":[{"name":"아이더평내점","tel":"031-591-3501","addr":"경기도 남양주시 평내동 199번지","category":"레져용품 - 스포츠·레져용품"},{"name":"평내 타이어","tel":"031-572-4540","addr":"경기도 남양주시 평내동 199번지","category":"자동차정비 유지 - 자동차시트·타이어"}]},{"lat":"37.645167847","long":"127.23341764","items":[{"name":"아이린","tel":"031-528-6263","addr":"경기도 남양주시 평내동 575-10번지 1층","category":"보건위생 - 화장품"},{"name":"한별오에이(OA)","tel":"031-528-0067","addr":"경기도 남양주시 평내동 575-10번지 1층","category":"사무통신 - 사무용 OA기기"}]},{"lat":"37.651275595","long":"127.24286447","items":[{"name":"아이써밋어린이집[아이행복]","tel":"031-592-0252","addr":"경기도 남양주시 평내동 147번지","category":"학원 - 유아원"}]},{"lat":"37.643363415","long":"127.23005825","items":[{"name":"아이엘어린이집[아이행복]","tel":"031-511-0951","addr":"경기도 남양주시 평내동 557-4번지","category":"학원 - 유아원"},{"name":"아이엘어린이집[아이행복]","tel":"031-511-0951","addr":"경기도 남양주시 평내동 557-4번지 1호","category":"학원 - 유아원"}]},{"lat":"37.643499148","long":"127.22975274","items":[{"name":"아이엘키디어린이집[아이행복]","tel":"031-511-0951","addr":"경기도 남양주시 평내동 557-2번지","category":"학원 - 유아원"},{"name":"아이엘키디어린이집[아이행복]","tel":"031-511-0951","addr":"경기도 남양주시 평내동 557-2번지 아이엘어린이집","category":"학원 - 유아원"},{"name":"아이엘키즈어린이집[아이행복]","tel":"031-511-0951","addr":"경기도 남양주시 평내동 557-2번지 아이엘어린이집","category":"학원 - 유아원"},{"name":"아이엘키즈어린이집[아이행복]","tel":"031-511-0951","addr":"경기도 남양주시 평내동 557-2번지","category":"학원 - 유아원"},{"name":"아이엘키즈어린이집[아이행복]","tel":"031-511-0649","addr":"경기도 남양주시 평내동 557-2번지","category":"학원 - 유아원"}]},{"lat":"37.643553533","long":"127.22958294","items":[{"name":"아이엘키디어린이집[아이행복]","tel":"031-511-0951","addr":"경기도 남양주시 평내동 557-1번지","category":"학원 - 유아원"}]},{"lat":"37.650727283","long":"127.23775216","items":[{"name":"아이트리","tel":"031-592-4877","addr":"경기도 남양주시 평내동 121-14번지 외199-5번지","category":"자동차정비 유지 - 자동차부품"},{"name":"예원악기","tel":"031-591-8215","addr":"경기도 남양주시 평내동 121-14번지","category":"레져용품 - 악기점"}]},{"lat":"37.644527232","long":"127.23389155","items":[{"name":"아트플라워","tel":"031-977-7411","addr":"경기도 남양주시 평내동 577-15번지 별하람빌 102호","category":"문화.취미 - 화원"},{"name":"차오루","tel":"031-595-4092","addr":"경기도 남양주시 평내동 577-15번지 별하람빌 1층","category":"일반휴게음식 - 중국식"}]},{"lat":"37.643636488","long":"127.22860877","items":[{"name":"약대울민물장어","tel":"031-591-6881","addr":"경기도 남양주시 평내동 398-1번지","category":"일반휴게음식 - 일반한식"},{"name":"우리수산","tel":"031-591-6881","addr":"경기도 남양주시 평내동 398-1번지 한우촌 101호","category":"음료식품 - 농·축·수산품"}]},{"lat":"37.646334538","long":"127.23574409","items":[{"name":"양지신닭발","tel":"031-592-2476","addr":"경기도 남양주시 평내동 582-5번지 105호","category":"일반휴게음식 - 일반한식"},{"name":"원할머니보쌈(평내점)","tel":"031-528-5311","addr":"경기도 남양주시 평내동 582-5번지 101호","category":"일반휴게음식 - 일반한식"},{"name":"주식회사 딩딩","tel":"031-528-6263","addr":"경기도 남양주시 평내동 582-5번지 1층 103호,104호","category":"일반휴게음식 - 중국식"},{"name":"착한횟집","tel":"031-511-1184","addr":"경기도 남양주시 평내동 582-5번지 흥진프라자 102호","category":"일반휴게음식 - 일식·회집"},{"name":"착한횟집","tel":"070-8613-7003","addr":"경기도 남양주시 평내동 582-5번지 102-1호","category":"음료식품 - 농·축·수산품"},{"name":"형수곱창","tel":"031-593-3333","addr":"경기도 남양주시 평내동 582-5번지 1층 106호","category":"일반휴게음식 - 일반한식"}]},{"lat":"37.643049316","long":"127.23861176","items":[{"name":"어매이징뷰티","tel":"","addr":"경기도 남양주시 평내동 602번지 평내마을평내2차대주파크빌 1906동 1305호","category":"보건위생 - 화장품"}]},{"lat":"37.644567418","long":"127.23636176","items":[{"name":"어울림어린이집[아이행복]","tel":"031-594-5525","addr":"경기도 남양주시 평내동 550번지 평내마을금호어울림 1401동 102호","category":"학원 - 유아원"}]},{"lat":"37.648582654","long":"127.23791538","items":[{"name":"엄마애밥상","tel":"031-559-1510","addr":"경기도 남양주시 평내동 269-4번지 늘을빌딩 1층 105호","category":"일반휴게음식 - 일반한식"},{"name":"정담","tel":"","addr":"경기도 남양주시 평내동 269-4번지 늘을빌딩 2층 일부","category":"일반휴게음식 - 일반한식"},{"name":"케이크데이","tel":"","addr":"경기도 남양주시 평내동 269-4번지 늘을빌딩 102호","category":"음료식품 - 기타음료식품"},{"name":"해인스포츠","tel":"031-594-4867","addr":"경기도 남양주시 평내동 269-4번지 늘을빌딩 102호","category":"레져용품 - 스포츠·레져용품"},{"name":"흔치않은","tel":"031-511-8664","addr":"경기도 남양주시 평내동 269-4번지 늘을빌딩 1층 일부호","category":"일반휴게음식 - 서양음식"}]},{"lat":"37.647224946","long":"127.23652871","items":[{"name":"엄마의 부엌","tel":"031-594-6083","addr":"경기도 남양주시 평내동 584-9번지 1층","category":"음료식품 - 기타음료식품"},{"name":"족발삼촌","tel":"031-511-3382","addr":"경기도 남양주시 평내동 584-9번지 1층","category":"일반휴게음식 - 일반한식"}]},{"lat":"37.649616296","long":"127.23460986","items":[{"name":"업스포츠","tel":"031-591-2172","addr":"경기도 남양주시 평내동 219번지 201호","category":"학원 - 예·체능계학원"}]},{"lat":"37.643823547","long":"127.23436525","items":[{"name":"에코비어린이집[아이행복]","tel":"031-591-9790","addr":"경기도 남양주시 평내동 550번지 평내마을금호어울림 1410동 103호","category":"학원 - 유아원"}]},{"lat":"37.647276497","long":"127.24227372","items":[{"name":"엘르 평내점","tel":"031-592-5221","addr":"경기도 남양주시 평내동 594-7번지","category":"직물 - 침구·수예점"}]},{"lat":"37.643780791","long":"127.23776428","items":[{"name":"엘린퀼트","tel":"070-7762-8610","addr":"경기도 남양주시 평내동 602번지 평내마을대주파크빌 1909동 701호","category":"직물 - 침구·수예점"},{"name":"코디수학","tel":"02-562-8803","addr":"경기도 남양주시 평내동 602번지 평내마을대주파크빌 1909동 1201호","category":"학원 - 기타 교육기관"}]},{"lat":"37.651941434","long":"127.2388325","items":[{"name":"엘지전자(주) 남양주서비스센터","tel":"02-3777-1114","addr":"경기도 남양주시 평내동 121-4번지 LG BEST SHOP 2층","category":"수리서비스 - 가정용품수리"},{"name":"쿠가 주식회사","tel":"031-591-5058","addr":"경기도 남양주시 평내동 121-4번지","category":"레져용품 - 스포츠·레져용품"}]},{"lat":"37.651668646","long":"127.24007813","items":[{"name":"영선커텐","tel":"031-591-8262","addr":"경기도 남양주시 평내동 119-8번지","category":"직물 - 카페트,커튼,천막,지물"},{"name":"왕십리곱창평내호평점","tel":"031-594-2232","addr":"경기도 남양주시 평내동 119-8번지 명성스피드프라자 1층","category":"일반휴게음식 - 일반한식"}]},{"lat":"37.648808327","long":"127.24658453","items":[{"name":"영화침장","tel":"031-591-1856","addr":"경기도 남양주시 평내동 45-2번지 협동산업단지내3단지 49동 3층 301호","category":"직물 - 침구·수예점"}]},{"lat":"37.646503457","long":"127.23688904","items":[{"name":"옛날통닭","tel":"031-591-0816","addr":"경기도 남양주시 평내동 586-11번지 1층","category":"일반휴게음식 - 일반한식"}]},{"lat":"37.64369984","long":"127.23769604","items":[{"name":"오늘의찬","tel":"031-511-9133","addr":"경기도 남양주시 평내동 552외1필지대주파크빌상가-103","category":"음료식품 - 기타음료식품"},{"name":"한울태권도","tel":"031-595-4578","addr":"경기도 남양주시 평내동 552번지 평내마을평내2차대주파크빌 301호","category":"학원 - 예·체능계학원"}]},{"lat":"37.646504825","long":"127.23619786","items":[{"name":"오션스시","tel":"031-511-5188","addr":"경기도 남양주시 평내동 585-7번지","category":"일반휴게음식 - 일식·회집"}]},{"lat":"37.651719045","long":"127.24189137","items":[{"name":"오케이(OK)재활용센터","tel":"031-559-7065","addr":"경기도 남양주시 평내동 130번지","category":"전기제품 - 가전제품"},{"name":"호만골","tel":"031-555-5002","addr":"경기도 남양주시 평내동 130번지 태평양수산 106호","category":"일반휴게음식 - 일반한식"}]},{"lat":"37.647278126","long":"127.24146922","items":[{"name":"옴프인테리어","tel":"031-511-1631","addr":"경기도 남양주시 평내동 594-1번지","category":"건축자재 - 인테리어전문"}]},{"lat":"37.645248712","long":"127.2335312","items":[{"name":"요니와","tel":"031-111-1111","addr":"경기도 남양주시 평내동 575-9번지","category":"음료식품 - 제과점"}]},{"lat":"37.643723757","long":"127.230082","items":[{"name":"우리네마트","tel":"031-591-2494","addr":"경기도 남양주시 평내동 558-3,8","category":"유통업 영리 - 슈퍼마켓"}]},{"lat":"37.647276198","long":"127.24242103","items":[{"name":"우리홈할인마트(경기유통)","tel":"031-511-7050","addr":"경기도 남양주시 평내동 594-8번지","category":"유통업 영리 - 슈퍼마켓"}]},{"lat":"37.651414231","long":"127.2411425","items":[{"name":"우림산업","tel":"031-595-0942","addr":"경기도 남양주시 평내동 산87-1번지 진주종합상가 1층 30호","category":"용역 서비스 - 종합용역"},{"name":"진주수예","tel":"031-591-1949","addr":"경기도 남양주시 평내동 산87-1번지","category":"직물 - 침구·수예점"}]},{"lat":"37.647144083","long":"127.23641515","items":[{"name":"원더플라워","tel":"031-593-5737","addr":"경기도 남양주시 평내동 584-10번지 101호","category":"문화.취미 - 화원"},{"name":"클린즈","tel":"031-594-6488","addr":"경기도 남양주시 평내동 584-10번지 303호","category":"신변잡화 - 기타잡화"}]},{"lat":"37.647163469","long":"127.23572401","items":[{"name":"원조감자탕","tel":"031-511-0066","addr":"경기도 남양주시 평내동 583-13번지","category":"일반휴게음식 - 일반한식"}]},{"lat":"37.642803263","long":"127.24000462","items":[{"name":"웨인배움터영어교습소(Wayne's Class)","tel":"031-594-8704","addr":"경기도 남양주시 평내동 606번지 상가동 106호 평내마을중흥에스-클래스","category":"회원제형태 - 학원"},{"name":"퀼른음악학원","tel":"031-592-5574","addr":"경기도 남양주시 평내동 606번지 단지 상가 201호","category":"학원 - 예·체능계학원"}]},{"lat":"37.64658712","long":"127.23558624","items":[{"name":"육공판평내점","tel":"","addr":"경기도 남양주시 평내동 582-4번지 설악빌딩 1층","category":"일반휴게음식 - 일반한식"}]},{"lat":"37.645085563","long":"127.23402925","items":[{"name":"은진설비","tel":"031-527-1852","addr":"경기도 남양주시 평내동 576-6번지","category":"용역 서비스 - 기타용역서비스"}]},{"lat":"37.643805955","long":"127.2295044","items":[{"name":"은호교육상사","tel":"031-559-7926","addr":"경기도 남양주시 평내동 558-11번지 지층","category":"서적문구 - 기타서적문구"}]},{"lat":"37.646027427","long":"127.23613971","items":[{"name":"이가보석","tel":"031-591-5685","addr":"경기도 남양주시 평내동 582-7번지 금광빌 102호","category":"신변잡화 - 귀금속"},{"name":"자꾸헤어","tel":"031-592-5257","addr":"경기도 남양주시 평내동 582-7번지 금광빌 103호","category":"보건위생 - 미용원"},{"name":"진승건강원","tel":"031-593-3282","addr":"경기도 남양주시 평내동 582-7번지","category":"건강식품 - 기타건강식품"}]},{"lat":"37.64745455","long":"127.23886364","items":[{"name":"이노팜코리아","tel":"02-2271-0501","addr":"경기도 남양주시 평내동 592번지 평내마을상록데시앙 1608동 904호","category":"보건위생 - 화장품"}]},{"lat":"37.64306039","long":"127.2283351","items":[{"name":"이편한타이어 주식회사","tel":"031-511-8955","addr":"경기도 남양주시 평내동 394-5번지","category":"자동차정비 유지 - 자동차시트·타이어"}]},{"lat":"37.651443725","long":"127.23991877","items":[{"name":"인광오토카써비스","tel":"031-591-7239","addr":"경기도 남양주시 평내동 119-6번지","category":"자동차정비 유지 - 자동차정비"}]},{"lat":"37.647280862","long":"127.23558841","items":[{"name":"인리브","tel":"031-591-9794","addr":"경기도 남양주시 평내동 583-2번지 1층","category":"가구 - 일반가구"}]},{"lat":"37.644949997","long":"127.23424411","items":[{"name":"일미추어탕","tel":"031-593-1259","addr":"경기도 남양주시 평내동 577-6번지 일미추어탕","category":"일반휴게음식 - 일반한식"}]},{"lat":"37.643778142","long":"127.22991221","items":[{"name":"자연애","tel":"031-511-0818","addr":"경기도 남양주시 평내동 558-2번지","category":"음료식품 - 기타음료식품"},{"name":"핫도그앤커피 빨래방","tel":"031-594-1472","addr":"경기도 남양주시 평내동 558-2번지","category":"일반휴게음식 - 서양음식"}]},{"lat":"37.641002529","long":"127.23486636","items":[{"name":"장내초등학교병설유치원[아이행복]","tel":"031-559-4162","addr":"경기도 남양주시 평내동 563번지 장내초등학교","category":"학원 - 유치원"}]},{"lat":"37.639366674","long":"127.22819931","items":[{"name":"장작골","tel":"070-8867-7971","addr":"경기도 남양주시 평내동 358-1번지","category":"일반휴게음식 - 일반한식"}]},{"lat":"37.652032703","long":"127.2427196","items":[{"name":"정스포츠","tel":"031-566-0480","addr":"경기도 남양주시 평내동 151-4","category":"레져용품 - 스포츠·레져용품"},{"name":"평호타이어","tel":"031-542-5966","addr":"경기도 남양주시 평내동 151-4","category":"자동차정비 유지 - 자동차시트·타이어"}]},{"lat":"37.652137761","long":"127.23977367","items":[{"name":"제일공사","tel":"031-591-1001","addr":"경기도 남양주시 평내동 124-6번지 1층","category":"건축자재 - 기타건축자재"}]},{"lat":"37.643558957","long":"127.23144116","items":[{"name":"조은교육","tel":"031-591-5977","addr":"경기도 남양주시 평내동 572-2번지","category":"서적문구 - 기타서적문구"}]},{"lat":"37.647310946","long":"127.24305568","items":[{"name":"족발3시30분","tel":"031-595-4333","addr":"경기도 남양주시 평내동 597-1번지 1층","category":"일반휴게음식 - 일반한식"}]},{"lat":"37.650668783","long":"127.23997297","items":[{"name":"좋은음식들","tel":"031-591-7126","addr":"경기도 남양주시 평내동 산87-3번지 진주3차아파트","category":"일반휴게음식 - 일반한식"},{"name":"주식회사 제이피티에듀","tel":"031-577-9930","addr":"경기도 남양주시 평내동 산87-3번지 진주3차아파트 2층","category":"서적문구 - 기타서적문구"}]},{"lat":"37.647308717","long":"127.23516924","items":[{"name":"주식회사 바론푸드","tel":"031-592-8500","addr":"경기도 남양주시 평내동 588-17번지 101호","category":"음료식품 - 기타음료식품"}]},{"lat":"37.649142431","long":"127.24622302","items":[{"name":"주식회사 세븐스타","tel":"031-592-8168","addr":"경기도 남양주시 평내동 45-1번지 고려코팅 3호","category":"음료식품 - 기타음료식품"}]},{"lat":"37.647497317","long":"127.23547577","items":[{"name":"주식회사 올댓마라톤","tel":"031-527-9742","addr":"경기도 남양주시 평내동 588-14번지 1층","category":"서적문구 - 출판 및 인쇄물"}]},{"lat":"37.645113036","long":"127.23380272","items":[{"name":"주식회사 유랑 (YOURANG Co.,Ltd,)","tel":"031-595-6575","addr":"경기도 남양주시 평내동 576-3번지 102호","category":"용역 서비스 - 종합용역"}]},{"lat":"37.648610656","long":"127.2419154","items":[{"name":"주식회사 진주소방","tel":"031-592-0796","addr":"경기도 남양주시 평내동 87-2번지 1층","category":"용역 서비스 - 기타용역서비스"}]},{"lat":"37.651947329","long":"127.24038498","items":[{"name":"주연테크평내점","tel":"031-559-9112","addr":"경기도 남양주시 평내동 산87-24번지 광인빌딩 1층 103호","category":"사무통신 - 컴퓨터"}]},{"lat":"37.649113379","long":"127.23378111","items":[{"name":"중고국대주방","tel":"031-592-0845","addr":"경기도 남양주시 평내동 238번지","category":"주방용구 - 주방용구"}]},{"lat":"37.644446367","long":"127.23377799","items":[{"name":"중앙인테리어","tel":"031-566-9595","addr":"경기도 남양주시 평내동 577-16번지","category":"건축자재 - 인테리어전문"}]},{"lat":"37.645240487","long":"127.23770089","items":[{"name":"쥬비코스","tel":"031-594-6472","addr":"경기도 남양주시 평내동 581번지 평내마을대주파크질 1502동 1803호","category":"회원제형태 - 기타1"}]},{"lat":"37.648334228","long":"127.23597695","items":[{"name":"지니보드","tel":"","addr":"경기도 남양주시 평내동 588-2번지 평내동주민자치센터 1층 101호","category":"서적문구 - 완구점"},{"name":"평내동주민센터","tel":"031-590-2962","addr":"경기도 남양주시 평내동 588-2번지 평내동주민센터","category":"용역 서비스 - 사무서비스"},{"name":"평내동주민자치회","tel":"031-591-4600","addr":"경기도 남양주시 평내동 588-2번지 주민자치센터 2층 사무실","category":"학원 - 기타 교육기관"}]},{"lat":"37.647449535","long":"127.23685802","items":[{"name":"지성인터내셔널","tel":"031-559-9754","addr":"경기도 남양주시 평내동 587-13번지 301호","category":"자동차정비 유지 - 주차장"},{"name":"처갓집치킨(평내2호점)","tel":"031-595-8295","addr":"경기도 남양주시 평내동 587-13번지 101호","category":"일반휴게음식 - 스넥"}]},{"lat":"37.643769656","long":"127.23882932","items":[{"name":"지하철광고","tel":"031-538-7549","addr":"경기도 남양주시 평내동 602번지 평내마을대주파크빌 1904동 1202호","category":"용역 서비스 - 종합용역"}]},{"lat":"37.646889768","long":"127.23744547","items":[{"name":"진로마트","tel":"031-572-9559","addr":"경기도 남양주시 평내동 587-8번지 1층","category":"유통업 영리 - 슈퍼마켓"}]},{"lat":"37.642007402","long":"127.23699957","items":[{"name":"진성냉열","tel":"070-7761-1323","addr":"경기도 남양주시 평내동 564번지 평내마을화성파크힐즈 1705동 803호","category":"수리서비스 - 가정용품수리"}]},{"lat":"37.647333285","long":"127.23641574","items":[{"name":"참맛담은갈비","tel":"031-511-9253","addr":"경기도 남양주시 평내동 584-6번지","category":"일반휴게음식 - 일반한식"},{"name":"팩토사고수학교실","tel":"031-559-1397","addr":"경기도 남양주시 평내동 584-6번지 202호","category":"학원 - 기타 교육기관"}]},{"lat":"37.64617185","long":"127.23600419","items":[{"name":"춘천주닭갈비","tel":"031-591-0225","addr":"경기도 남양주시 평내동 582-6번지 블랙빌 101호","category":"일반휴게음식 - 일반한식"}]},{"lat":"37.646722555","long":"127.23543936","items":[{"name":"치킨의민족 남양주평내호평점","tel":"031-511-2227","addr":"경기도 남양주시 평내동 582-3번지 1층 일부","category":"일반휴게음식 - 스넥"}]},{"lat":"37.649778625","long":"127.23453104","items":[{"name":"카카오츄로평내점","tel":"","addr":"경기도 남양주시 평내동 218-3번지 1층 101호","category":"일반휴게음식 - 서양음식"}]},{"lat":"37.646721885","long":"127.23577929","items":[{"name":"카페일상","tel":"031-511-6979","addr":"경기도 남양주시 평내동 584-15번지 101호","category":"일반휴게음식 - 일반한식"}]},{"lat":"37.644365502","long":"127.23366444","items":[{"name":"커피빈우","tel":"031-595-5017","addr":"경기도 남양주시 평내동 577-17번지 1층","category":"일반휴게음식 - 서양음식"}]},{"lat":"37.643670179","long":"127.22983257","items":[{"name":"커피플로","tel":"031-565-7080","addr":"경기도 남양주시 평내동 558-9번지 202호","category":"문화.취미 - 화원"}]},{"lat":"37.645392379","long":"127.23378092","items":[{"name":"케니독","tel":"031-528-6263","addr":"경기도 남양주시 평내동 575-7번지 1층","category":"일반휴게음식 - 일반한식"}]},{"lat":"37.647199999","long":"127.23547484","items":[{"name":"케이엘(KL)여성의류","tel":"031-963-7725","addr":"경기도 남양주시 평내동 583-1번지 빌리브 204호","category":"의류 - 정장"}]},{"lat":"37.643136622","long":"127.23086202","items":[{"name":"코만도바베큐","tel":"031-592-9293","addr":"경기도 남양주시 평내동 559-3번지 1층","category":"일반휴게음식 - 주점"}]},{"lat":"37.64700096","long":"127.23589347","items":[{"name":"콩나물국밥","tel":"031-592-7744","addr":"경기도 남양주시 평내동 584-2번지","category":"일반휴게음식 - 일반한식"}]},{"lat":"37.644608607","long":"127.2337445","items":[{"name":"크리에딧(CREE8)","tel":"031-584-1335","addr":"경기도 남양주시 평내동 577-2번지 1층 102호","category":"문화.취미 - 문화취미기타"}]},{"lat":"37.644687204","long":"127.23501378","items":[{"name":"키즈맘 어린이집[아이행복]","tel":"031-511-9507","addr":"경기도 남양주시 평내동 550번지 평내마을금호어울림 1406동 105호","category":"학원 - 유아원"},{"name":"타입디자인(TYPE DESIGN)","tel":"031-595-7680","addr":"경기도 남양주시 평내동 550번지 평내마을금호어울림 1406동 503호","category":"용역 서비스 - 사무서비스"}]},{"lat":"37.651805405","long":"127.23927401","items":[{"name":"타이어 팩토리 평내호평점","tel":"","addr":"경기도 남양주시 평내동 121-1번지","category":"자동차정비 유지 - 자동차시트·타이어"}]},{"lat":"37.649113678","long":"127.24266488","items":[{"name":"타츠참치","tel":"031-594-0564","addr":"경기도 남양주시 평내동 87번지 효성타운상가 상가동 B-05호","category":"일반휴게음식 - 일식·회집"},{"name":"팔삼바베큐","tel":"031-559-5594","addr":"경기도 남양주시 평내동 87번지 효성 상가 101호","category":"일반휴게음식 - 일반한식"}]},{"lat":"37.647972045","long":"127.24579995","items":[{"name":"통큰통갈비평내점","tel":"031-559-1151","addr":"경기도 남양주시 평내동 48-2번지 2층 5호","category":"일반휴게음식 - 일반한식"}]},{"lat":"37.649914059","long":"127.23438416","items":[{"name":"트라바움 유치원[아이행복]","tel":"031-593-7069","addr":"경기도 남양주시 평내동 218번지","category":"학원 - 유치원"}]},{"lat":"37.642360763","long":"127.23139217","items":[{"name":"파리바게트","tel":"031-594-1230","addr":"경기도 남양주시 평내동 560에코타운307-2103.48/6","category":"음료식품 - 제과점"}]},{"lat":"37.648975142","long":"127.23535573","items":[{"name":"평내닭발","tel":"031-595-2028","addr":"경기도 남양주시 평내동 250-7번지","category":"일반휴게음식 - 일반한식"},{"name":"평내종합광고","tel":"031-559-4124","addr":"경기도 남양주시 평내동 250-7번지 구덕빌딩 103호","category":"용역 서비스 - 종합용역"},{"name":"호랑카롱","tel":"031-595-2028","addr":"경기도 남양주시 평내동 250-7번지 구덕빌딩 102호","category":"음료식품 - 제과점"}]},{"lat":"37.651218666","long":"127.2398274","items":[{"name":"평내모타","tel":"031-591-5994","addr":"경기도 남양주시 평내동 산87-30번지 호평부동산 103호","category":"수리서비스 - 기타수리서비스"}]},{"lat":"37.64678253","long":"127.23700323","items":[{"name":"평내모터스","tel":"031-594-4967","addr":"경기도 남양주시 평내동 586-6번지","category":"자동차정비 유지 - 자동차정비"}]},{"lat":"37.648413796","long":"127.24566541","items":[{"name":"평내문고","tel":"031-559-7090","addr":"경기도 남양주시 평내동 48-1평내프라자2-202","category":"서적문구 - 일반서적"}]},{"lat":"37.647169952","long":"127.23241537","items":[{"name":"평내예아랑어린이집[아이행복]","tel":"031-593-1814","addr":"경기도 남양주시 평내동 441-7번지","category":"학원 - 유아원"}]},{"lat":"37.649114786","long":"127.23763377","items":[{"name":"평내초등학교병설유치원[아이행복]","tel":"031-592-9585","addr":"경기도 남양주시 평내동 203-6번지 평내초등학교","category":"학원 - 유치원"}]},{"lat":"37.644178139","long":"127.23730098","items":[{"name":"평내키즈솔어린이집[아이행복]","tel":"031-521-5456","addr":"경기도 남양주시 평내동 602번지 평내마을평내2차대주파크빌 1902동 102호","category":"학원 - 유아원"}]},{"lat":"37.646802748","long":"127.23589285","items":[{"name":"평내한빛 어린이집[아이행복]","tel":"031-511-5543","addr":"경기도 남양주시 평내동 584-14번지 1층","category":"학원 - 유아원"}]},{"lat":"37.647276726","long":"127.24216041","items":[{"name":"평내현대기아카클리닉","tel":"031-594-0951","addr":"경기도 남양주시 평내동 594-6번지","category":"자동차정비 유지 - 자동차정비"}]},{"lat":"37.65144832","long":"127.24210581","items":[{"name":"평내호평역24시셀프세차","tel":"031-591-1460","addr":"경기도 남양주시 평내동 130-51번지","category":"자동차정비 유지 - 세차장"}]},{"lat":"37.647670431","long":"127.24349875","items":[{"name":"평창","tel":"031-594-7877","addr":"경기도 남양주시 평내동 597-3번지 1 ,2,3,4층","category":"일반휴게음식 - 일반한식"}]},{"lat":"37.647087539","long":"127.22366755","items":[{"name":"포커스라이팅","tel":"031-551-6471","addr":"경기도 남양주시 평내동 508-3번지","category":"건축자재 - 조명기구"}]},{"lat":"37.643824642","long":"127.23836494","items":[{"name":"프라임어린이집[아이행복]","tel":"031-593-3565","addr":"경기도 남양주시 평내동 602번지 평내마을평내2차대주파크빌 1908동 101호","category":"학원 - 유아원"}]},{"lat":"37.646865614","long":"127.23599503","items":[{"name":"하늘의연","tel":"031-594-1680","addr":"경기도 남양주시 평내동 584-13번지 101호","category":"일반휴게음식 - 일반한식"},{"name":"훈스팀세차 Detailing shop","tel":"031-559-5557","addr":"경기도 남양주시 평내동 584-13번지 101호","category":"자동차정비 유지 - 세차장"}]},{"lat":"37.651608051","long":"127.24330748","items":[{"name":"하루일식","tel":"031-594-7999","addr":"경기도 남양주시 평내동 152-19번지 2층","category":"일반휴게음식 - 일식·회집"}]},{"lat":"37.647503092","long":"127.24160591","items":[{"name":"하이잉크","tel":"031-593-7040","addr":"경기도 남양주시 평내동 595-13번지","category":"사무통신 - 기타 사무용품"}]},{"lat":"37.646830269","long":"127.23564366","items":[{"name":"한솔아트","tel":"031-594-3243","addr":"경기도 남양주시 평내동 584번지","category":"문화.취미 - 화방·표구점"}]},{"lat":"37.643442467","long":"127.23572373","items":[{"name":"한울에프에스","tel":"031-510-4449","addr":"경기도 남양주시 평내동 551번지 평내마을유진마젤란21 1306동 202호","category":"용역 서비스 - 가례서비스업"}]},{"lat":"37.650083598","long":"127.24419775","items":[{"name":"해피콜대리운전","tel":"031-574-4510","addr":"경기도 남양주시 평내동 152-16번지","category":"보건위생 - 기타대인서비스"}]},{"lat":"37.647054256","long":"127.23627889","items":[{"name":"행복한강아지","tel":"031-594-4977","addr":"경기도 남양주시 평내동 584-11번지 1층 상가","category":"문화.취미 - 애완동물"}]},{"lat":"37.649219004","long":"127.23505055","items":[{"name":"혁신","tel":"070-8241-7844","addr":"경기도 남양주시 평내동 250-5번지 201호","category":"용역 서비스 - 기타용역서비스"}]},{"lat":"37.643505316","long":"127.23122572","items":[{"name":"현대기아카클리닉","tel":"031-593-4572","addr":"경기도 남양주시 평내동 572-6번지","category":"자동차정비 유지 - 자동차정비"}]},{"lat":"37.64752826","long":"127.24252382","items":[{"name":"현대세탁","tel":"031-511-0834","addr":"경기도 남양주시 평내동 595-7번지","category":"수리서비스 - 세탁소"}]},{"lat":"37.651447124","long":"127.24269505","items":[{"name":"호만브레인어린이집[아이행복]","tel":"","addr":"경기도 남양주시 평내동 148번지 황토골","category":"학원 - 유아원"}]},{"lat":"37.647414148","long":"127.2365293","items":[{"name":"호병골닭발","tel":"031-591-5225","addr":"경기도 남양주시 평내동 584-7번지 1층","category":"일반휴게음식 - 일반한식"}]},{"lat":"37.64169303","long":"127.23651139","items":[{"name":"화성잼터어린이집[아이행복]","tel":"031-595-7732","addr":"경기도 남양주시 평내동 564번지 평내화성파크힐즈 1704동 102호","category":"학원 - 유아원"}]},{"lat":"37.649997863","long":"127.24205583","items":[{"name":"효성지물,장식","tel":"031-592-5834","addr":"경기도 남양주시 평내동 131-1","category":"직물 - 카페트,커튼,천막,지물"}]},{"lat":"37.646497315","long":"127.23543866","items":[{"name":"후다닭","tel":"031-591-6591","addr":"경기도 남양주시 평내동 582-10번지","category":"일반휴게음식 - 스넥"}]}]