[{"lat":"37.755117621","long":"126.75298709","items":[{"name":"(주) 신교하창호","tel":"031-943-1749","addr":"경기도 파주시 하지석동 152-4번지","category":"건축자재 - 인테리어전문"},{"name":"대원복층유리","tel":"","addr":"경기도 파주시 하지석동 152-4번지","category":"건축자재 - 유리"}]},{"lat":"37.760314891","long":"126.74407256","items":[{"name":"(주)삼원종합가스","tel":"02-794-0086","addr":"경기도 파주시 하지석동 405-2번지","category":"연료판매점 - LPG 취급점"}]},{"lat":"37.755927691","long":"126.7442694","items":[{"name":"(주)원방하이텍","tel":"031-944-8040","addr":"경기도 파주시 하지석동 437-7번지","category":"전기제품 - 냉열기기"}]},{"lat":"37.754730383","long":"126.75306783","items":[{"name":"금화왕돈까스","tel":"031-943-1661","addr":"경기도 파주시 하지석동 154-3번지","category":"일반휴게음식 - 일반한식"},{"name":"망향비빔국수 파주점","tel":"","addr":"경기도 파주시 하지석동 154-3번지","category":"일반휴게음식 - 일반한식"}]},{"lat":"37.761863093","long":"126.75173876","items":[{"name":"나무풍경","tel":"031-942-8723","addr":"경기도 파주시 하지석동 51-19번지","category":"문화.취미 - 문화취미기타"}]},{"lat":"37.759256813","long":"126.74637991","items":[{"name":"농업회사법인주식회사  터","tel":"031-4606-0090","addr":"경기도 파주시 하지석동 203-3번지","category":"음료식품 - 미곡상"}]},{"lat":"37.757177683","long":"126.74320971","items":[{"name":"메뉴얼(MANUAL)","tel":"031-111-1111","addr":"경기도 파주시 하지석동 432-5번지","category":"일반휴게음식 - 서양음식"}]},{"lat":"37.75495456","long":"126.75256779","items":[{"name":"몬스터볼링샵","tel":"","addr":"경기도 파주시 하지석동 154번지","category":"레져용품 - 스포츠·레져용품"},{"name":"몬스터카페","tel":"031-944-6661","addr":"경기도 파주시 하지석동 154번지","category":"일반휴게음식 - 서양음식"},{"name":"세인어린이집[아이행복]","tel":"031-945-9734","addr":"경기도 파주시 하지석동 154번지","category":"학원 - 유아원"},{"name":"운정 락 볼링장","tel":"031-944-6661","addr":"경기도 파주시 하지석동 154번지","category":"레저업소 - 볼 링 장"},{"name":"이플","tel":"070-7784-1494","addr":"경기도 파주시 하지석동 154번지","category":"학원 - 기타 교육기관"}]},{"lat":"37.754787625","long":"126.73802093","items":[{"name":"배드몬스터즈(Bad Monsters)","tel":"070-7562-1750","addr":"경기도 파주시 하지석동 454번지","category":"가구 - 기타가구"},{"name":"우주 가구","tel":"","addr":"경기도 파주시 하지석동 454번지","category":"가구 - 일반가구"}]},{"lat":"37.756256259","long":"126.7503733","items":[{"name":"섬김푸드시스템","tel":"","addr":"경기도 파주시 하지석동 160-8번지","category":"일반휴게음식 - 위탁급식업"}]},{"lat":"37.760918586","long":"126.74823531","items":[{"name":"오드아울(ODDOWL)","tel":"02-000-0000","addr":"경기도 파주시 하지석동 313-14번지","category":"신변잡화 - 가방"}]},{"lat":"37.75600922","long":"126.75282523","items":[{"name":"운정장례식장","tel":"031-957-4444","addr":"경기도 파주시 하지석동 148-2번지","category":"용역 서비스 - 가례서비스업"}]},{"lat":"37.760395665","long":"126.75226574","items":[{"name":"일품공조","tel":"031-943-3703","addr":"경기도 파주시 하지석동 75번지","category":"전기제품 - 냉열기기"}]},{"lat":"37.755449501","long":"126.75229378","items":[{"name":"정석가설산업","tel":"031-941-9305","addr":"경기도 파주시 하지석동 153-1","category":"건축자재 - 기타건축자재"}]},{"lat":"37.76047935","long":"126.74926951","items":[{"name":"제맥스코리아","tel":"031-943-0313","addr":"경기도 파주시 하지석동 산 3-3","category":"레져용품 - 스포츠·레져용품"}]},{"lat":"37.759197047","long":"126.74377005","items":[{"name":"창고87","tel":"031-945-7987","addr":"경기도 파주시 하지석동 398-2","category":"용역 서비스 - 보관및 창고업"}]},{"lat":"37.759728432","long":"126.7478195","items":[{"name":"한진상회","tel":"031-941-4285","addr":"경기도 파주시 하지석동 233-18번지","category":"주방용구 - 주방용식기"}]}]