[{"lat":"37.810083853","long":"126.69216152","items":[{"name":"(주)파주팜랜드","tel":"","addr":"경기도 파주시 탄현면 대동리 240-10번지","category":"일반휴게음식 - 일반한식"}]},{"lat":"37.815855583","long":"126.6909108","items":[{"name":"개성가는길","tel":"031-949-4737","addr":"경기도 파주시 탄현면 대동리 317-5번지","category":"일반휴게음식 - 일반한식"}]},{"lat":"37.809473974","long":"126.68980207","items":[{"name":"꼬마솜씨(어린이도예교육)","tel":"031-944-1880","addr":"경기도 파주시 탄현면 대동리 209-3번지","category":"문화.취미 - 민예·공예품"}]},{"lat":"37.811550032","long":"126.6912696","items":[{"name":"나비엔ENG","tel":"031-939-0414","addr":"경기도 파주시 탄현면 대동리 278-15번지","category":"수리서비스 - 기타수리서비스"}]},{"lat":"37.817638855","long":"126.69068751","items":[{"name":"농업회사법인 약식동원(주)","tel":"031-957-7976","addr":"경기도 파주시 탄현면 대동리 356-3번지","category":"음료식품 - 기타음료식품"}]},{"lat":"37.806308975","long":"126.69218869","items":[{"name":"농업회사법인주식회사해오름","tel":"031-949-4344","addr":"경기도 파주시 탄현면 대동리 646번지","category":"레저업소 - 기타레져업소"}]},{"lat":"37.806334565","long":"126.69507283","items":[{"name":"독신남","tel":"","addr":"경기도 파주시 탄현면 대동리 7번지","category":"일반휴게음식 - 일반한식"}]},{"lat":"37.800330274","long":"126.68341408","items":[{"name":"디엠지라운지(DMZ LOUNGE)","tel":"031-959-2353","addr":"경기도 파주시 탄현면 대동리 82-3번지","category":"일반휴게음식 - 서양음식"}]},{"lat":"37.813133265","long":"126.69035444","items":[{"name":"메주꽃공방(허브앤솝)","tel":"031-944-7822","addr":"경기도 파주시 탄현면 대동리 284-4번지","category":"신변잡화 - 기타잡화"}]},{"lat":"37.812889049","long":"126.68999206","items":[{"name":"메주꽃카페","tel":"031-952-0810","addr":"경기도 파주시 탄현면 대동리 284-7번지","category":"음료식품 - 농·축·수산품"}]},{"lat":"37.816748317","long":"126.69121368","items":[{"name":"모이리344","tel":"031-941-5509","addr":"경기도 파주시 탄현면 대동리 344번지","category":"숙박업 - 여관/기타숙박업"}]},{"lat":"37.800837378","long":"126.68771524","items":[{"name":"물빛하늘정원","tel":"031-948-8535","addr":"경기도 파주시 탄현면 대동리 93-1번지","category":"일반휴게음식 - 일반한식"}]},{"lat":"37.803749788","long":"126.68859991","items":[{"name":"성민코프레이션","tel":"031-4101-5875","addr":"경기도 파주시 탄현면 대동리 59번지","category":"자동차정비 유지 - 자동차부품"},{"name":"카페 도란","tel":"031-947-6494","addr":"경기도 파주시 탄현면 대동리 59번지","category":"일반휴게음식 - 서양음식"}]},{"lat":"37.800887781","long":"126.68635249","items":[{"name":"쇼콜라티에 지노","tel":"031-949-8365","addr":"경기도 파주시 탄현면 대동리 94-5번지","category":"음료식품 - 기타음료식품"}]},{"lat":"37.801000578","long":"126.6881006","items":[{"name":"아르티스타","tel":"","addr":"경기도 파주시 탄현면 대동리 산21-7번지","category":"문화.취미 - 티켓"}]},{"lat":"37.801000517","long":"126.68807789","items":[{"name":"아르티스타","tel":"031-000-0000","addr":"경기도 파주시 탄현면 대동리 70-6번지","category":"일반휴게음식 - 서양음식"}]},{"lat":"37.806613854","long":"126.69507167","items":[{"name":"아이엠아이","tel":"031-949-8031","addr":"경기도 파주시 탄현면 대동리 4","category":"자동차정비 유지 - 자동차부품"}]},{"lat":"37.81852755","long":"126.68946855","items":[{"name":"제이에스컴퍼니","tel":"070-4891-3402","addr":"경기도 파주시 탄현면 대동리 371-1번지","category":"가구 - 일반가구"}]},{"lat":"37.80314118","long":"126.68674029","items":[{"name":"주식회사 세종에브리푸드","tel":"031-941-1149","addr":"경기도 파주시 탄현면 대동리 107-13번지","category":"음료식품 - 기타음료식품"}]},{"lat":"37.799218276","long":"126.68868723","items":[{"name":"지렁이농장","tel":"031-944-6310","addr":"경기도 파주시 탄현면 대동리 72-2번지","category":"일반휴게음식 - 일반한식"}]},{"lat":"37.813190131","long":"126.68802614","items":[{"name":"차뜨락","tel":"031-949-0409","addr":"경기도 파주시 탄현면 대동리 413-1번지","category":"일반휴게음식 - 일반한식"}]},{"lat":"37.803190378","long":"126.68493467","items":[{"name":"카페 에스. 이. 오(SEO)","tel":"031-942-7474","addr":"경기도 파주시 탄현면 대동리 106-8번지","category":"일반휴게음식 - 서양음식"}]},{"lat":"37.803559046","long":"126.68802161","items":[{"name":"튜즐","tel":"070-8285-2223","addr":"경기도 파주시 탄현면 대동리 108-13번지","category":"가구 - 일반가구"}]},{"lat":"37.799752819","long":"126.68643681","items":[{"name":"팀블레이드","tel":"031-944-4566","addr":"경기도 파주시 탄현면 대동리 87-3","category":"자동차정비 유지 - 자동차정비"}]},{"lat":"37.804998931","long":"126.6907975","items":[{"name":"파인빌골프크럽","tel":"031-945-0782","addr":"경기도 파주시 탄현면 대동리 53-3번지","category":"레저업소 - 골프연습장"}]},{"lat":"37.812974788","long":"126.68835639","items":[{"name":"파주착한팬션","tel":"031-942-2525","addr":"경기도 파주시 탄현면 대동리 414-2번지 414","category":"숙박업 - 여관/기타숙박업"}]},{"lat":"37.800641902","long":"126.68873797","items":[{"name":"평양만두","tel":"031-945-9452","addr":"경기도 파주시 탄현면 대동리 70번지","category":"일반휴게음식 - 일반한식"}]},{"lat":"37.803115066","long":"126.68708105","items":[{"name":"플로렌스 너싱홈","tel":"031-946-5231","addr":"경기도 파주시 탄현면 대동리 107-14번지","category":"기타의료기관 - 기타의료기관 및 기타"}]},{"lat":"37.800836496","long":"126.68738597","items":[{"name":"해민도예","tel":"031-942-3221","addr":"경기도 파주시 탄현면 대동리 93-11번지","category":"문화.취미 - 골동품점"}]}]