[{"lat":"37.871141157","long":"127.2440986","items":[{"name":"(주)파워텍터(POWERTECTOR Co.Ltd)","tel":"070-7602-0389","addr":"경기도 포천시 군내면 직두리 248-1번지","category":"레져용품 - 스포츠·레져용품"}]},{"lat":"37.870335988","long":"127.23682229","items":[{"name":"Holla Ceramic Studio (홀라 세라믹 스튜디","tel":"","addr":"경기도 포천시 군내면 직두리 370-1번지","category":"문화.취미 - 민예·공예품"}]},{"lat":"37.883393261","long":"127.23082763","items":[{"name":"가보리농원","tel":"031-535-3687","addr":"경기도 포천시 군내면 직두리 664-7번지","category":"건강식품 - 기타건강식품"}]},{"lat":"37.866920638","long":"127.25043766","items":[{"name":"고갯마루","tel":"031-535-1237","addr":"경기도 포천시 군내면 직두리 154-7번지","category":"일반휴게음식 - 일식·회집"}]},{"lat":"37.871727487","long":"127.23476956","items":[{"name":"곰표종합상사","tel":"031-535-5773","addr":"경기도 포천시 군내면 직두리 359-2번지 나동","category":"음료식품 - 기타음료식품"}]},{"lat":"37.872890789","long":"127.22485109","items":[{"name":"공간건축","tel":"","addr":"경기도 포천시 군내면 직두리 769-4번지 나동","category":"용역 서비스 - 기타용역서비스"}]},{"lat":"37.879721682","long":"127.22863393","items":[{"name":"금강코팅","tel":"02-927-7363","addr":"경기도 포천시 군내면 직두리 604번지","category":"건축자재 - 유리"}]},{"lat":"37.867390199","long":"127.23668796","items":[{"name":"금강하우징","tel":"031-535-8945","addr":"경기도 포천시 군내면 직두리 426-2번지","category":"건축자재 - 기타건축자재"}]},{"lat":"37.865058428","long":"127.25340889","items":[{"name":"논배 송어","tel":"031-536-9659","addr":"경기도 포천시 군내면 직두리 154-2번지","category":"일반휴게음식 - 일반한식"}]},{"lat":"37.86533914","long":"127.25273934","items":[{"name":"논배동산","tel":"031-531-3555","addr":"경기도 포천시 군내면 직두리 154-1","category":"일반휴게음식 - 일반한식"}]},{"lat":"37.875165615","long":"127.22724475","items":[{"name":"농업회사법인 포천버섯개발㈜","tel":"031-535-8989","addr":"경기도 포천시 군내면 직두리 761번지","category":"소매업 - 농산물"}]},{"lat":"37.879292386","long":"127.22698447","items":[{"name":"니시하우징","tel":"031-531-8668","addr":"경기도 포천시 군내면 직두리 695-3번지 수원산초록맨숀 B동 402호","category":"건축자재 - 기타건축자재"}]},{"lat":"37.877362361","long":"127.22804705","items":[{"name":"대범상사","tel":"","addr":"경기도 포천시 군내면 직두리 575-3번지","category":"자동차정비 유지 - 윤활유 전문 판매"},{"name":"대범상사","tel":"031-1111-1111","addr":"경기도 포천시 군내면 직두리 575-3번지","category":"자동차정비 유지 - 윤활유 전문 판매"},{"name":"하나","tel":"031-544-7703","addr":"경기도 포천시 군내면 직두리 575-3번지","category":"일반휴게음식 - 스넥"}]},{"lat":"37.874226739","long":"127.22824209","items":[{"name":"대성퍼니처","tel":"031-532-1419","addr":"경기도 포천시 군내면 직두리 763-2번지","category":"가구 - 일반가구"}]},{"lat":"37.876804264","long":"127.2277953","items":[{"name":"도헌공업","tel":"031-536-2423","addr":"경기도 포천시 군내면 직두리 708","category":"기타 - 기계공구"}]},{"lat":"37.873501008","long":"127.23083124","items":[{"name":"모모슈퍼","tel":"031-531-1842","addr":"경기도 포천시 군내면 직두리 558-3번지","category":"유통업 영리 - 슈퍼마켓"}]},{"lat":"37.876581024","long":"127.22674894","items":[{"name":"성창ENG컨설팅","tel":"031-535-8587","addr":"경기도 포천시 군내면 직두리 712-6번지","category":"용역 서비스 - 기타용역서비스"}]},{"lat":"37.867720361","long":"127.2471332","items":[{"name":"세계산업 (주)","tel":"02-408-5868","addr":"경기도 포천시 군내면 직두리 165-1","category":"건축자재 - 기타건축자재"}]},{"lat":"37.878832566","long":"127.22716494","items":[{"name":"수원산뷔페","tel":"536-7346","addr":"경기도 포천시 군내면 직두리 695-7번지","category":"음식 - 한식"},{"name":"수원산뷔페","tel":"","addr":"경기도 포천시 군내면 직두리 695-7번지","category":"일반휴게음식 - 일반한식"}]},{"lat":"37.862700125","long":"127.23929822","items":[{"name":"수원산오토캠핑장","tel":"031-535-4308","addr":"경기도 포천시 군내면 직두리 450번지","category":"숙박업 - 여관/기타숙박업"}]},{"lat":"37.872749975","long":"127.25029805","items":[{"name":"아이지","tel":"031-534-3409","addr":"경기도 포천시 군내면 직두리 34-4번지","category":"자동차정비 유지 - 세차장"}]},{"lat":"37.865918515","long":"127.23827434","items":[{"name":"연리지","tel":"535-7030","addr":"경기도 포천시 군내면 직두리 399번지","category":"음식 - 한식"}]},{"lat":"37.875893232","long":"127.22360984","items":[{"name":"우진건설","tel":"031-535-5989","addr":"경기도 포천시 군내면 직두리 737번지","category":"용역 서비스 - 기타용역서비스"}]},{"lat":"37.869086326","long":"127.25307021","items":[{"name":"원골산장","tel":"536-6022","addr":"경기도 포천시 군내면 직두리 17번지","category":"음식 - 한식"}]},{"lat":"37.866111424","long":"127.24966217","items":[{"name":"웰케어노인요양원","tel":"031-531-6898","addr":"경기도 포천시 군내면 직두리 156-3번지","category":"기타의료기관 - 기타의료기관 및 기타"}]},{"lat":"37.865060286","long":"127.23944213","items":[{"name":"일조유통","tel":"031-571-0716","addr":"경기도 포천시 군내면 직두리 444-1번지","category":"음료식품 - 농·축·수산품"},{"name":"일조유통","tel":"","addr":"경기도 포천시 군내면 직두리 444-1번지","category":"소매업 - 농산물"}]},{"lat":"37.860310924","long":"127.24015423","items":[{"name":"잣나무솔향기","tel":"031-535-2730","addr":"경기도 포천시 군내면 직두리 212번지","category":"숙박업 - 여관/기타숙박업"}]},{"lat":"37.86802611","long":"127.24740696","items":[{"name":"주식회사아이비티","tel":"031-535-7777","addr":"경기도 포천시 군내면 직두리 165-2","category":"건축자재 - 기타건축자재"}]},{"lat":"37.874722238","long":"127.22349269","items":[{"name":"청성초등학교","tel":"031-535-6020","addr":"경기도 포천시 군내면 직두리 740번지 청성초등학교","category":"학원 - 초중고교육기관"},{"name":"청성초등학교병설유치원[아이행복]","tel":"031-535-5710","addr":"경기도 포천시 군내면 직두리 740번지 청성초등학교","category":"학원 - 유치원"}]},{"lat":"37.868775736","long":"127.25083028","items":[{"name":"캠프오후4시","tel":"031-531-3066","addr":"경기도 포천시 군내면 직두리 11-1번지","category":"숙박업 - 여관/기타숙박업"}]},{"lat":"37.874944272","long":"127.22991506","items":[{"name":"쿨아트","tel":"","addr":"경기도 포천시 군내면 직두리 561-5번지","category":"전기제품 - 가전제품"}]},{"lat":"37.867165986","long":"127.24943839","items":[{"name":"토일농원","tel":"031-535-0098","addr":"경기도 포천시 군내면 직두리 153-1","category":"일반휴게음식 - 일반한식"}]},{"lat":"37.878666448","long":"127.22449333","items":[{"name":"포천광고기획","tel":"031-536-4529","addr":"경기도 포천시 군내면 직두리 730-1 1/3","category":"용역 서비스 - 종합용역"}]},{"lat":"37.875250018","long":"127.23021151","items":[{"name":"홍&드림 (세정유통)","tel":"031-585-4157","addr":"경기도 포천시 군내면 직두리 564-2번지","category":"음료식품 - 기타음료식품"}]}]