[{"lat":"38.148381817","long":"127.24273844","items":[{"name":"감성마을(팜스테이)","tel":"031-000-0000","addr":"경기도 포천시 관인면 초과리 176-3번지","category":"레저업소 - 기타레져업소"}]},{"lat":"38.158273913","long":"127.2469582","items":[{"name":"건영건축","tel":"031-533-1570","addr":"경기도 포천시 관인면 초과리 2-12번지 1층","category":"용역 서비스 - 기타용역서비스"}]},{"lat":"38.152827907","long":"127.24484082","items":[{"name":"관인면주민자치센터","tel":"538-4698","addr":"경기도 포천시 관인면 초과리 127번지","category":"주민자치센터 - 주민자치센터"}]},{"lat":"38.149105684","long":"127.23670585","items":[{"name":"관인약수터막국수","tel":"531-7766","addr":"경기도 포천시 관인면 초과리 227-3번지","category":"음식 - 한식"},{"name":"관인약수터막국수,비빔국수","tel":"031-531-7766","addr":"경기도 포천시 관인면 초과리 227-3","category":"일반휴게음식 - 일반한식"}]},{"lat":"38.146581395","long":"127.24207089","items":[{"name":"관인정육점","tel":"031-533-1715","addr":"경기도 포천시 관인면 초과리 652번지","category":"음료식품 - 정육점"}]},{"lat":"38.152331176","long":"127.24104006","items":[{"name":"광진건업","tel":"031-455-1237","addr":"경기도 포천시 관인면 초과리 108-10번지","category":"건축자재 - 인테리어전문"}]},{"lat":"38.150910959","long":"127.23946107","items":[{"name":"대명타일","tel":"535-8540","addr":"경기도 포천시 관인면 초과리 87-2번지","category":"도소매 - 타일,위생기"},{"name":"중원","tel":"031-533-3359","addr":"경기도 포천시 관인면 초과리 87-2","category":"일반휴게음식 - 중국식"}]},{"lat":"38.154132754","long":"127.24554108","items":[{"name":"대원자동차","tel":"533-9190","addr":"경기도 포천시 관인면 초과리 15번지","category":"서비스 - 자동차 수리"},{"name":"대원자동차,셀프세차","tel":"031-533-9190","addr":"경기도 포천시 관인면 초과리 15번지","category":"자동차정비 유지 - 자동차정비"}]},{"lat":"38.153411764","long":"127.2456756","items":[{"name":"대진미용실","tel":"031-535-0233","addr":"경기도 포천시 관인면 초과리 15-2번지","category":"보건위생 - 미용원"}]},{"lat":"38.158776221","long":"127.24800957","items":[{"name":"몽마르지","tel":"534-7095","addr":"경기도 포천시 관인면 초과리 1-3번지","category":"음식 -"},{"name":"몽마르지","tel":"031-534-7095","addr":"경기도 포천시 관인면 초과리 1-3","category":"일반휴게음식 - 주점"},{"name":"진성정","tel":"531-9504","addr":"경기도 포천시 관인면 초과리 1-3번지","category":"음식 - 한식"}]},{"lat":"38.158074151","long":"127.24771057","items":[{"name":"빛나리","tel":"031-533-1148","addr":"경기도 포천시 관인면 초과리 1-24번지","category":"회원제형태 - 기타1"}]},{"lat":"38.146242438","long":"127.24040425","items":[{"name":"섭섭이네 식당","tel":"031-531-5629","addr":"경기도 포천시 관인면 초과리 237-1번지","category":"일반휴게음식 - 일반한식"},{"name":"섭섭이네식당","tel":"541-5639","addr":"경기도 포천시 관인면 초과리 237-1번지","category":"음식 - 한식"}]},{"lat":"38.146524358","long":"127.23909326","items":[{"name":"섭섭이농장","tel":"031-531-5639","addr":"경기도 포천시 관인면 초과리 235","category":"음료식품 - 농·축·수산품"}]},{"lat":"38.138744286","long":"127.2233156","items":[{"name":"소망쌈밥","tel":"031-531-7635","addr":"경기도 포천시 관인면 초과리 547번지","category":"일반휴게음식 - 일반한식"}]},{"lat":"38.159381193","long":"127.24734982","items":[{"name":"솔부엌가구","tel":"031-543-6926","addr":"경기도 포천시 관인면 초과리 4-2번지","category":"주방용구 - 주방용구"}]},{"lat":"38.145602763","long":"127.24042499","items":[{"name":"신우","tel":"031-533-4478","addr":"경기도 포천시 관인면 초과리 264-1번지","category":"음료식품 - 기타음료식품"},{"name":"신우","tel":"","addr":"경기도 포천시 관인면 초과리 264-1번지","category":"음료식품 - 기타음료식품"}]},{"lat":"38.152270698","long":"127.23976209","items":[{"name":"양지마을","tel":"031-532-7297","addr":"경기도 포천시 관인면 초과리 74번지","category":"일반휴게음식 - 일반한식"}]},{"lat":"38.151991584","long":"127.23968132","items":[{"name":"정성자동차공업사","tel":"031-533-3108","addr":"경기도 포천시 관인면 초과리 79번지","category":"자동차정비 유지 - 자동차정비"}]},{"lat":"38.154276259","long":"127.2458496","items":[{"name":"조흥철물 종합건자재","tel":"031-533-1035","addr":"경기도 포천시 관인면 초과리 14번지 1층","category":"건축자재 - 목재·석재·철물"},{"name":"조흥철물종합건자재","tel":"533-1035","addr":"경기도 포천시 관인면 초과리 14번지","category":"도소매 - 철물,건재"}]},{"lat":"38.142993308","long":"127.24331398","items":[{"name":"풍림농장","tel":"031-533-1477","addr":"경기도 포천시 관인면 초과리 348-1","category":"문화.취미 - 화원"}]},{"lat":"38.158163335","long":"127.24814443","items":[{"name":"한일노래연습장","tel":"031-533-5580","addr":"경기도 포천시 관인면 초과리 1-41번지","category":"레저업소 - 노 래 방"}]},{"lat":"38.157832029","long":"127.24717351","items":[{"name":"한일여관","tel":"031-533-5580","addr":"경기도 포천시 관인면 초과리 1-14번지","category":"숙박업 - 여관/기타숙박업"}]}]