[{"lat":"37.712660013","long":"127.48831098","imageIndex":5,"items":[{"name":"강이흐르는마을","tel":"031-585-8903","addr":"경기도 가평군 청평면 고성리 578-25","indutype":"숙박업 - 여관/기타숙박업","category":"hotel"}]},{"lat":"37.71194053","long":"127.48800008","imageIndex":5,"items":[{"name":"구름발치","tel":"031-585-8133","addr":"경기도 가평군 청평면 고성리 578-23","indutype":"숙박업 - 여관/기타숙박업","category":"hotel"}]},{"lat":"37.70410653","long":"127.51261271","imageIndex":5,"items":[{"name":"대덕펜션","tel":"031-585-9435","addr":"경기도 가평군 청평면 고성리 105번지","indutype":"숙박업 - 여관/기타숙박업","category":"hotel"}]},{"lat":"37.705690752","long":"127.51502761","imageIndex":5,"items":[{"name":"도치빌펜션","tel":"031-585-8913","addr":"경기도 가평군 청평면 고성리 80번지","indutype":"숙박업 - 여관/기타숙박업","category":"hotel"}]},{"lat":"37.702300906","long":"127.51138704","imageIndex":5,"items":[{"name":"뜨라레","tel":"031-584-3233","addr":"경기도 가평군 청평면 고성리 98-2번지","indutype":"숙박업 - 여관/기타숙박업","category":"hotel"},{"name":"뜨라제","tel":"031-584-3235","addr":"경기도 가평군 청평면 고성리 98-2번지","indutype":"숙박업 - 여관/기타숙박업","category":"hotel"}]},{"lat":"37.71252422","long":"127.48846887","imageIndex":5,"items":[{"name":"레이크빌","tel":"031-585-8903","addr":"경기도 가평군 청평면 고성리 578-1번지","indutype":"숙박업 - 여관/기타숙박업","category":"hotel"}]},{"lat":"37.710942878","long":"127.4874152","imageIndex":5,"items":[{"name":"레이크테라스","tel":"070-8841-7069","addr":"경기도 가평군 청평면 고성리 764-5번지","indutype":"숙박업 - 여관/기타숙박업","category":"hotel"}]},{"lat":"37.716496041","long":"127.48661209","imageIndex":5,"items":[{"name":"로뎀펜션","tel":"031-585-9986","addr":"경기도 가평군 청평면 고성리 720-2번지","indutype":"숙박업 - 여관/기타숙박업","category":"hotel"}]},{"lat":"37.712999749","long":"127.48894829","imageIndex":5,"items":[{"name":"리더스펜션","tel":"031-585-7176","addr":"경기도 가평군 청평면 고성리 578-7","indutype":"숙박업 - 여관/기타숙박업","category":"hotel"}]},{"lat":"37.708495998","long":"127.51218916","imageIndex":5,"items":[{"name":"버디버디","tel":"031-584-0832","addr":"경기도 가평군 청평면 고성리 164-3번지","indutype":"숙박업 - 여관/기타숙박업","category":"hotel"}]},{"lat":"37.708386809","long":"127.5124379","imageIndex":5,"items":[{"name":"버디하우스","tel":"031-584-0832","addr":"경기도 가평군 청평면 고성리 164-2","indutype":"숙박업 - 여관/기타숙박업","category":"hotel"}]},{"lat":"37.701940049","long":"127.50730243","imageIndex":5,"items":[{"name":"브이10(V10)","tel":"070-7825-5575","addr":"경기도 가평군 청평면 고성리 321-2번지","indutype":"숙박업 - 여관/기타숙박업","category":"hotel"}]},{"lat":"37.703000425","long":"127.50794462","imageIndex":5,"items":[{"name":"브이10-1 (V10-1)","tel":"070-7825-5575","addr":"경기도 가평군 청평면 고성리 278-4번지","indutype":"숙박업 - 여관/기타숙박업","category":"hotel"}]},{"lat":"37.703558562","long":"127.50805047","imageIndex":5,"items":[{"name":"브이10-2 (V10-2)","tel":"02-1111-1111","addr":"경기도 가평군 청평면 고성리 278-3번지","indutype":"숙박업 - 여관/기타숙박업","category":"hotel"}]},{"lat":"37.719937909","long":"127.48655508","imageIndex":5,"items":[{"name":"상수리나무","tel":"031-584-1147","addr":"경기도 가평군 청평면 고성리 689번지 외9필지","indutype":"숙박업 - 여관/기타숙박업","category":"hotel"}]},{"lat":"37.713355205","long":"127.49014142","imageIndex":5,"items":[{"name":"샤갈스파펜션","tel":"","addr":"경기도 가평군 청평면 고성리 584번지","indutype":"숙박업 - 여관/기타숙박업","category":"hotel"}]},{"lat":"37.705057203","long":"127.51153061","imageIndex":5,"items":[{"name":"샤갈의마을","tel":"031-585-9111","addr":"경기도 가평군 청평면 고성리 115번지","indutype":"숙박업 - 여관/기타숙박업","category":"hotel"}]},{"lat":"37.714473958","long":"127.50480159","imageIndex":5,"items":[{"name":"에스티엑스팬오션주식회사","tel":"031-316-5104","addr":"경기도 가평군 청평면 고성리 410-1번지 한바다연수원","indutype":"숙박업 - 여관/기타숙박업","category":"hotel"}]},{"lat":"37.704557259","long":"127.51463426","imageIndex":5,"items":[{"name":"오이코스팬션","tel":"031-584-1485","addr":"경기도 가평군 청평면 고성리 89번지","indutype":"숙박업 - 여관/기타숙박업","category":"hotel"}]},{"lat":"37.703528235","long":"127.51508077","imageIndex":5,"items":[{"name":"오페라레이크사이드펜션","tel":"031-585-8936","addr":"경기도 가평군 청평면 고성리 66-4번지","indutype":"숙박업 - 여관/기타숙박업","category":"hotel"},{"name":"오페라연수원","tel":"031-585-8936","addr":"경기도 가평군 청평면 고성리 66-4번지","indutype":"숙박업 - 여관/기타숙박업","category":"hotel"},{"name":"오페라하우스","tel":"031-585-8936","addr":"경기도 가평군 청평면 고성리 66-4번지","indutype":"숙박업 - 여관/기타숙박업","category":"hotel"}]},{"lat":"37.701943819","long":"127.51686148","imageIndex":5,"items":[{"name":"올덴","tel":"031-585-5558","addr":"경기도 가평군 청평면 고성리 23번지","indutype":"숙박업 - 여관/기타숙박업","category":"hotel"}]},{"lat":"37.710857562","long":"127.48183504","imageIndex":5,"items":[{"name":"인터라켄스테이","tel":"031-585-4789","addr":"경기도 가평군 청평면 고성리 786-3번지","indutype":"숙박업 - 여관/기타숙박업","category":"hotel"}]},{"lat":"37.710578136","long":"127.48186727","imageIndex":5,"items":[{"name":"인터라켄펜션","tel":"031-585-4789","addr":"경기도 가평군 청평면 고성리 786-20번지 외2필지","indutype":"숙박업 - 여관/기타숙박업","category":"hotel"}]},{"lat":"37.717022808","long":"127.48558343","imageIndex":5,"items":[{"name":"제니펜션","tel":"031-585-1066","addr":"경기도 가평군 청평면 고성리 718-20번지","indutype":"숙박업 - 여관/기타숙박업","category":"hotel"}]},{"lat":"37.715029852","long":"127.49041324","imageIndex":5,"items":[{"name":"주식회사쁘띠프랑스","tel":"031-584-8200","addr":"경기도 가평군 청평면 고성리 616-2","indutype":"숙박업 - 여관/기타숙박업","category":"hotel"}]},{"lat":"37.714607346","long":"127.48580593","imageIndex":5,"items":[{"name":"청호","tel":"031-584-4292","addr":"경기도 가평군 청평면 고성리 727번지","indutype":"숙박업 - 여관/기타숙박업","category":"hotel"}]},{"lat":"37.715303599","long":"127.49175331","imageIndex":5,"items":[{"name":"첼로","tel":"031-5855-6010","addr":"경기도 가평군 청평면 고성리 615-1번지","indutype":"숙박업 - 여관/기타숙박업","category":"hotel"}]},{"lat":"37.703362814","long":"127.51375291","imageIndex":5,"items":[{"name":"클럽블루(CLUB BLUE)","tel":"031-584-5080","addr":"경기도 가평군 청평면 고성리 103-1번지","indutype":"숙박업 - 여관/기타숙박업","category":"hotel"}]},{"lat":"37.704774318","long":"127.51444298","imageIndex":5,"items":[{"name":"프레이즈스위트(praise suite)","tel":"070-7631-1300","addr":"경기도 가평군 청평면 고성리 83번지","indutype":"숙박업 - 여관/기타숙박업","category":"hotel"}]},{"lat":"37.714776085","long":"127.5036695","imageIndex":5,"items":[{"name":"힐링마인드","tel":"031-585-7320","addr":"경기도 가평군 청평면 고성리 414-3번지","indutype":"숙박업 - 여관/기타숙박업","category":"hotel"}]}]