[{"lat":"37.137486647","long":"127.51087998","items":[{"name":"린헤어","tel":"031-641-5728","addr":"경기도 이천시 설성면 장천리 650번지 2동","category":"보건위생 - 미용원"},{"name":"명성가축병원","tel":"031-642-7582","addr":"경기도 이천시 설성면 장천리 650번지","category":"기타의료기관 - 동물병원"}]},{"lat":"37.138009042","long":"127.5109285","items":[{"name":"삼거리공업사","tel":"031-641-3815","addr":"경기도 이천시 설성면 장천리 649-1번지","category":"수리서비스 - 기타수리서비스"},{"name":"영진철물건재","tel":"","addr":"경기도 이천시 설성면 장천리 649-1번지","category":"건축자재 - 목재·석재·철물"}]},{"lat":"37.137703855","long":"127.51065635","items":[{"name":"삼농에이스","tel":"031-631-9138","addr":"경기도 이천시 설성면 장천리 649-17번지","category":"농업 - 기타농업관련"},{"name":"성보축산","tel":"031-641-2205","addr":"경기도 이천시 설성면 장천리 649-17번지","category":"유통업 영리 - 슈퍼마켓"},{"name":"주식회사 삼농","tel":"031-631-9183","addr":"경기도 이천시 설성면 장천리 649-17번지","category":"농업 - 비료,사료,종자"}]},{"lat":"37.137847535","long":"127.51076985","items":[{"name":"설성생선국수","tel":"031-642-0037","addr":"경기도 이천시 설성면 장천리 649-18","category":"일반휴게음식 - 일반한식"}]},{"lat":"37.138258913","long":"127.5114929","items":[{"name":"설성한식뷔페","tel":"031-642-7216","addr":"경기도 이천시 설성면 장천리 648-1번지","category":"일반휴게음식 - 일반한식"}]},{"lat":"37.145457531","long":"127.52817698","items":[{"name":"장천초등학교","tel":"031-642-7966","addr":"경기도 이천시 설성면 장천리 360-1번지 1층 장천초등학교","category":"학원 - 초중고교육기관"}]},{"lat":"37.137259995","long":"127.51120485","items":[{"name":"전주부대찌개","tel":"031-642-5778","addr":"경기도 이천시 설성면 장천리 650-7번지","category":"일반휴게음식 - 일반한식"}]},{"lat":"37.145757931","long":"127.52951849","items":[{"name":"주식회사 엠에스팜","tel":"031-641-2163","addr":"경기도 이천시 설성면 장천리 115-19번지","category":"약국 - 제약회사"}]},{"lat":"37.146571643","long":"127.53695298","items":[{"name":"현대방앗간","tel":"031-641-6600","addr":"경기도 이천시 설성면 장천리 136-6번지","category":"음료식품 - 제과점"}]}]