[{"lat":"37.675574418","long":"126.92144847","items":[{"name":"가꾸다","tel":"031-000-0000","addr":"경기도 양주시 장흥면 삼하리 146-1번지","category":"문화.취미 - 화원"},{"name":"플라워빌리지","tel":"031-876-7523","addr":"경기도 양주시 장흥면 삼하리 146-1","category":"문화.취미 - 화원"},{"name":"함안꽃농원","tel":"031-879-6980","addr":"경기도 양주시 장흥면 삼하리 146-1","category":"문화.취미 - 화원"}]},{"lat":"37.675022179","long":"126.91769709","items":[{"name":"경기농원","tel":"031-837-3472","addr":"경기도 양주시 장흥면 삼하리 262-2","category":"문화.취미 - 화원"},{"name":"송백조경농원","tel":"031-871-0666","addr":"경기도 양주시 장흥면 삼하리 262-2","category":"문화.취미 - 화원"},{"name":"지혜영농원","tel":"031-871-3601","addr":"경기도 양주시 장흥면 삼하리 262-2","category":"문화.취미 - 화원"},{"name":"한국리본","tel":"031-873-1522","addr":"경기도 양주시 장흥면 삼하리 262-2","category":"신변잡화 - 기타잡화"}]},{"lat":"37.675745311","long":"126.92102887","items":[{"name":"구파발농원","tel":"031-871-2021","addr":"경기도 양주시 장흥면 삼하리 290-2,3,5,9","category":"문화.취미 - 화원"},{"name":"삼화원예자재","tel":"031-872-6585","addr":"경기도 양주시 장흥면 삼하리 290-2 3,5,9","category":"문화.취미 - 화원"},{"name":"파랑새농원","tel":"031-874-3063","addr":"경기도 양주시 장흥면 삼하리 290-2 3,5,9 25","category":"문화.취미 - 화원"}]},{"lat":"37.677655726","long":"126.92155955","items":[{"name":"규식물원","tel":"031-876-8978","addr":"경기도 양주시 장흥면 삼하리 110-8번지 양주화훼단지","category":"문화.취미 - 화원"},{"name":"규식물원","tel":"02-381-8979","addr":"경기도 양주시 장흥면 삼하리 110-8번지 양주화훼단지","category":"문화.취미 - 화원"}]},{"lat":"37.67632302","long":"126.92261521","items":[{"name":"그린꽃농원","tel":"031-871-9897","addr":"경기도 양주시 장흥면 삼하리 141-21번지","category":"문화.취미 - 화원"}]},{"lat":"37.675350652","long":"126.92361377","items":[{"name":"그린조경","tel":"031-871-4387","addr":"경기도 양주시 장흥면 삼하리 150-1번지","category":"문화.취미 - 화원"},{"name":"일영허브랜드","tel":"031-871-4387","addr":"경기도 양주시 장흥면 삼하리 150-1,150-2,151-2,151-3","category":"문화.취미 - 화원"}]},{"lat":"37.675022302","long":"126.91786712","items":[{"name":"꽃사랑농원","tel":"031-278-4844","addr":"경기도 양주시 장흥면 삼하리 262-1번지","category":"문화.취미 - 화원"},{"name":"신진원예","tel":"031-826-2608","addr":"경기도 양주시 장흥면 삼하리 262-1 외2필지","category":"문화.취미 - 화원"},{"name":"자연농원","tel":"031-826-1470","addr":"경기도 양주시 장흥면 삼하리 262-1번지 1층","category":"문화.취미 - 화원"},{"name":"전국농원","tel":"031-877-5428","addr":"경기도 양주시 장흥면 삼하리 262-1번지 비닐하우스 2동","category":"문화.취미 - 화원"}]},{"lat":"37.677654229","long":"126.91941711","items":[{"name":"나무카메라","tel":"02-747-2428","addr":"경기도 양주시 장흥면 삼하리 306-21번지 1층","category":"서적문구 - 기타서적문구"}]},{"lat":"37.686266428","long":"126.91797899","items":[{"name":"남경농원","tel":"031-876-6227","addr":"경기도 양주시 장흥면 삼하리 379-4,외4필지","category":"음료식품 - 농·축·수산품"}]},{"lat":"37.686319961","long":"126.91725336","items":[{"name":"남경농원","tel":"070-8650-5500","addr":"경기도 양주시 장흥면 삼하리 377-3","category":"음료식품 - 농·축·수산품"}]},{"lat":"37.675746441","long":"126.92267251","items":[{"name":"다연꽃농원","tel":"031-877-3827","addr":"경기도 양주시 장흥면 삼하리 141-15번지","category":"문화.취미 - 화원"},{"name":"성원농원","tel":"031-875-0624","addr":"경기도 양주시 장흥면 삼하리 141-15번지","category":"문화.취미 - 화원"},{"name":"한라농원","tel":"031-876-7717","addr":"경기도 양주시 장흥면 삼하리 141-15","category":"문화.취미 - 화원"},{"name":"현대화분","tel":"031-837-8002","addr":"경기도 양주시 장흥면 삼하리 141-15","category":"문화.취미 - 화원"}]},{"lat":"37.674633096","long":"126.91541915","items":[{"name":"다육이 놀이터","tel":"031-1111-1111","addr":"경기도 양주시 장흥면 삼하리 236번지","category":"문화.취미 - 화원"},{"name":"수천목농원","tel":"070-8839-3866","addr":"경기도 양주시 장흥면 삼하리 236번지","category":"문화.취미 - 화원"},{"name":"신제주농원","tel":"031-871-8876","addr":"경기도 양주시 장흥면 삼하리 236번지","category":"문화.취미 - 화원"}]},{"lat":"37.677572033","long":"126.91786421","items":[{"name":"도예연구소 도도","tel":"070-8263-5316","addr":"경기도 양주시 장흥면 삼하리 275-9번지","category":"문화.취미 - 민예·공예품"}]},{"lat":"37.67332928","long":"126.90714609","items":[{"name":"동산","tel":"","addr":"경기도 양주시 장흥면 삼하리 194번지","category":"문화.취미 - 화원"}]},{"lat":"37.675103568","long":"126.9181164","items":[{"name":"두레농원","tel":"031-871-7123","addr":"경기도 양주시 장흥면 삼하리 284-4","category":"문화.취미 - 화원"},{"name":"수정농원","tel":"031-871-6282","addr":"경기도 양주시 장흥면 삼하리 284-4","category":"문화.취미 - 화원"},{"name":"충남농원","tel":"031-871-8437","addr":"경기도 양주시 장흥면 삼하리 284-4","category":"문화.취미 - 화원"}]},{"lat":"37.681826713","long":"126.92086348","items":[{"name":"들꽃","tel":"031-876-5825","addr":"경기도 양주시 장흥면 삼하리 360-2번지","category":"음료식품 - 농·축·수산품"}]},{"lat":"37.670883558","long":"126.91339464","items":[{"name":"리틀빅아이","tel":"070-8224-8382","addr":"경기도 양주시 장흥면 삼하리 185번지","category":"학원 - 기타 교육기관"}]},{"lat":"37.684046567","long":"126.92603056","items":[{"name":"마리조아","tel":"031-1600-7858","addr":"경기도 양주시 장흥면 삼하리 37-1번지 1층","category":"레저업소 - 기타레져업소"}]},{"lat":"37.677295892","long":"126.92236478","items":[{"name":"명가","tel":"031-871-9131","addr":"경기도 양주시 장흥면 삼하리 113","category":"일반휴게음식 - 일반한식"}]},{"lat":"37.674434699","long":"126.91517001","items":[{"name":"명랑화원","tel":"031-876-3985","addr":"경기도 양주시 장흥면 삼하리 235-1번지","category":"문화.취미 - 화원"},{"name":"송림농원","tel":"031-871-3947","addr":"경기도 양주시 장흥면 삼하리 235-1번지","category":"문화.취미 - 화원"},{"name":"학림농원","tel":"031-876-8692","addr":"경기도 양주시 장흥면 삼하리 235-1번지","category":"문화.취미 - 화원"}]},{"lat":"37.675851467","long":"126.91825158","items":[{"name":"무지개농원","tel":"031-873-1123","addr":"경기도 양주시 장흥면 삼하리 285-1번지","category":"문화.취미 - 화원"},{"name":"백두생화도매","tel":"031-874-8810","addr":"경기도 양주시 장흥면 삼하리 285-1번지","category":"문화.취미 - 화원"},{"name":"청자화분","tel":"031-871-4660","addr":"경기도 양주시 장흥면 삼하리 285-1번지","category":"문화.취미 - 화원"},{"name":"프라임","tel":"","addr":"경기도 양주시 장흥면 삼하리 285-1번지 양주꽃화훼단지 나열 13호","category":"문화.취미 - 화원"}]},{"lat":"37.67487916","long":"126.91928419","items":[{"name":"부광난원양주매장","tel":"031-871-8445","addr":"경기도 양주시 장흥면 삼하리 291-4","category":"문화.취미 - 화원"}]},{"lat":"37.675851247","long":"126.91794552","items":[{"name":"부부농원","tel":"031-871-9007","addr":"경기도 양주시 장흥면 삼하리 284-1","category":"문화.취미 - 화원"},{"name":"형제난원","tel":"031-871-8465","addr":"경기도 양주시 장흥면 삼하리 284-1","category":"문화.취미 - 화원"}]},{"lat":"37.675321668","long":"126.92075729","items":[{"name":"북한산식물원","tel":"","addr":"경기도 양주시 장흥면 삼하리 290-9번지 (3 ,5,9)","category":"문화.취미 - 화원"}]},{"lat":"37.678404679","long":"126.92324777","items":[{"name":"삼하골","tel":"031-871-5295","addr":"경기도 양주시 장흥면 삼하리 74-5번지","category":"일반휴게음식 - 일반한식"}]},{"lat":"37.67835023","long":"126.9226697","items":[{"name":"삼하조경자재","tel":"031-871-8071","addr":"경기도 양주시 장흥면 삼하리 106-2번지","category":"문화.취미 - 화원"}]},{"lat":"37.686628622","long":"126.92052942","items":[{"name":"삼훈행복농원","tel":"031-876-7764","addr":"경기도 양주시 장흥면 삼하리 384-12번지","category":"음료식품 - 농·축·수산품"}]},{"lat":"37.675022992","long":"126.91883062","items":[{"name":"샤론농원(송추꽃마트)","tel":"031-871-2354","addr":"경기도 양주시 장흥면 삼하리 286","category":"문화.취미 - 화원"}]},{"lat":"37.67555001","long":"126.92533654","items":[{"name":"서울농원","tel":"031-871-8920","addr":"경기도 양주시 장흥면 삼하리 138-1","category":"문화.취미 - 화원"}]},{"lat":"37.675351115","long":"126.92430523","items":[{"name":"솔베이지","tel":"031-871-5042","addr":"경기도 양주시 장흥면 삼하리 153-1번지","category":"일반휴게음식 - 서양음식"}]},{"lat":"37.686905604","long":"126.91727536","items":[{"name":"스카렛에듀파크","tel":"031-876-6227","addr":"경기도 양주시 장흥면 삼하리 379-1번지","category":"학원 - 기타 교육기관"}]},{"lat":"37.678438012","long":"126.91933688","items":[{"name":"승전방앗간","tel":"031-871-3412","addr":"경기도 양주시 장흥면 삼하리 332번지","category":"음료식품 - 기타음료식품"}]},{"lat":"37.679048009","long":"126.91566336","items":[{"name":"쌈지","tel":"031-871-2994","addr":"경기도 양주시 장흥면 삼하리 250-16번지","category":"신변잡화 - 기타잡화"},{"name":"양주호두과자","tel":"031-871-2994","addr":"경기도 양주시 장흥면 삼하리 250-16번지 양주간이휴게소 1층 일부","category":"일반휴게음식 - 일반한식"},{"name":"카앤샵 양주점","tel":"031-871-2996","addr":"경기도 양주시 장흥면 삼하리 250-16번지","category":"자동차정비 유지 - 자동차부품"},{"name":"케이유산업","tel":"031-871-6516","addr":"경기도 양주시 장흥면 삼하리 250-16번지 드롭탑 양주휴게소점 2층","category":"일반휴게음식 - 서양음식"}]},{"lat":"37.683602497","long":"126.92214257","items":[{"name":"약수산장","tel":"","addr":"경기도 양주시 장흥면 삼하리 45-13번지","category":"음료식품 - 기타음료식품"}]},{"lat":"37.679240787","long":"126.92063961","items":[{"name":"우리농원","tel":"070-4401-7756","addr":"경기도 양주시 장흥면 삼하리 323","category":"음료식품 - 농·축·수산품"}]},{"lat":"37.675437039","long":"126.91827472","items":[{"name":"우리다육","tel":"031-871-0144","addr":"경기도 양주시 장흥면 삼하리 284-3","category":"문화.취미 - 화원"},{"name":"우림농원","tel":"031-871-1733","addr":"경기도 양주시 장흥면 삼하리 284-3","category":"문화.취미 - 화원"},{"name":"화란농원","tel":"031-871-1385","addr":"경기도 양주시 장흥면 삼하리 284-3","category":"문화.취미 - 화원"}]},{"lat":"37.678211897","long":"126.91811287","items":[{"name":"일영농장","tel":"002-755-0145","addr":"경기도 양주시 장흥면 삼하리 312-1번지","category":"음료식품 - 농·축·수산품"}]},{"lat":"37.677829325","long":"126.92514146","items":[{"name":"전원일기마을영농조합법인","tel":"031-875-2349","addr":"경기도 양주시 장흥면 삼하리 130-4번지","category":"학원 - 기타 교육기관"}]},{"lat":"37.672412579","long":"126.91000367","items":[{"name":"전원일기마을오토캠핑장","tel":"031-875-2349","addr":"경기도 양주시 장흥면 삼하리 210-1번지","category":"숙박업 - 여관/기타숙박업"}]},{"lat":"37.678070985","long":"126.92274936","items":[{"name":"전원일기마트","tel":"070-0000-0000","addr":"경기도 양주시 장흥면 삼하리 107-1번지","category":"유통업 영리 - 슈퍼마켓"}]},{"lat":"37.681905098","long":"126.9304993","items":[{"name":"지선바위","tel":"031-876-9621","addr":"경기도 양주시 장흥면 삼하리 산59-4번지","category":"유통업 영리 - 슈퍼마켓"}]},{"lat":"37.676160405","long":"126.92196926","items":[{"name":"청도 식물원","tel":"031-826-8101","addr":"경기도 양주시 장흥면 삼하리 142-5번지","category":"문화.취미 - 화원"}]},{"lat":"37.67382327","long":"126.91683699","items":[{"name":"청해농원","tel":"031-826-5558","addr":"경기도 양주시 장흥면 삼하리 176번지","category":"문화.취미 - 화원"}]},{"lat":"37.67990886","long":"126.92261135","items":[{"name":"카루소","tel":"031-876-9546","addr":"경기도 양주시 장흥면 삼하리 99-1번지 1층","category":"일반휴게음식 - 일반한식"}]},{"lat":"37.680133854","long":"126.92224835","items":[{"name":"카루소","tel":"031-876-9546","addr":"경기도 양주시 장흥면 삼하리 산 50-1","category":"문화.취미 - 화원"}]},{"lat":"37.678629921","long":"126.92324753","items":[{"name":"토속집","tel":"031-871-8298","addr":"경기도 양주시 장흥면 삼하리 106-5","category":"일반휴게음식 - 일반한식"}]},{"lat":"37.684408427","long":"126.91522628","items":[{"name":"한옥촌 신선마을","tel":"031-871-2577","addr":"경기도 양주시 장흥면 삼하리 389-10번지","category":"일반휴게음식 - 일반한식"}]},{"lat":"37.677656917","long":"126.92330525","items":[{"name":"해오름다육농원","tel":"031-871-4420","addr":"경기도 양주시 장흥면 삼하리 115-2번지","category":"문화.취미 - 화원"}]},{"lat":"37.67327012","long":"126.91208825","items":[{"name":"햇빛농원","tel":"031-876-6272","addr":"경기도 양주시 장흥면 삼하리 203-1번지","category":"문화.취미 - 화원"}]},{"lat":"37.676710149","long":"126.92219538","items":[{"name":"홍연화분","tel":"031-871-6919","addr":"경기도 양주시 장흥면 삼하리 142-6","category":"문화.취미 - 화원"}]}]