[{"lat":"37.847252443","long":"127.13287018","imageIndex":0,"items":[{"name":"가진모터스","tel":"031-542-7830","addr":"경기도 포천시 동교동 396-2번지","indutype":"자동차정비 유지 - 자동차정비","category":"car"}]},{"lat":"37.842999552","long":"127.13328308","imageIndex":0,"items":[{"name":"다인상사","tel":"031-403-8654","addr":"경기도 포천시 동교동 409-1번지","indutype":"자동차정비 유지 - 윤활유 전문 판매","category":"car"}]},{"lat":"37.845002846","long":"127.1384219","imageIndex":0,"items":[{"name":"송우현대자동차공업사","tel":"031-541-3189","addr":"경기도 포천시 동교동 159-7번지","indutype":"자동차정비 유지 - 자동차정비","category":"car"}]},{"lat":"37.84045046","long":"127.14069704","imageIndex":0,"items":[{"name":"천보자동차공업사","tel":"031-541-3228","addr":"경기도 포천시 동교동 500번지","indutype":"자동차정비 유지 - 자동차정비","category":"car"}]},{"lat":"37.839366513","long":"127.12702846","imageIndex":0,"items":[{"name":"투바위카센타","tel":"031-542-2861","addr":"경기도 포천시 동교동 542-7번지","indutype":"자동차정비 유지 - 자동차정비","category":"car"}]}]