[{"lat":"37.064513766","long":"126.85374386","imageIndex":17,"items":[{"name":"(주)대성버켓","tel":"031-358-4894","addr":"경기도 화성시 장안면 독정리 364-7번지","indutype":"기타 - 기계공구","category":"other"}]},{"lat":"37.085566963","long":"126.85019358","imageIndex":17,"items":[{"name":"(주)서울렌탈","tel":"031-292-1007","addr":"경기도 화성시 장안면 독정리 737-22번지","indutype":"용역 서비스 - 종합용역","category":"other"}]},{"lat":"37.082590307","long":"126.85479936","imageIndex":17,"items":[{"name":"(주)엘스","tel":"031-8059-8900","addr":"경기도 화성시 장안면 독정리 698-32번지","indutype":"전기제품 - 냉열기기","category":"other"}]},{"lat":"37.07987246","long":"126.86504984","imageIndex":17,"items":[{"name":"(주)제이앤씨미디어센터","tel":"031-358-8600","addr":"경기도 화성시 장안면 독정리 76-3번지 3층","indutype":"용역 서비스 - 종합용역","category":"other"},{"name":"제이앤씨드라마캠프(주)","tel":"031-358-8600","addr":"경기도 화성시 장안면 독정리 76-3번지","indutype":"용역 서비스 - 종합용역","category":"other"}]},{"lat":"37.072174027","long":"126.85475215","imageIndex":17,"items":[{"name":"GS25화성독정점","tel":"","addr":"경기도 화성시 장안면 독정리 547-3번지","indutype":"유통업 영리 - 편 의 점","category":"other"}]},{"lat":"37.080066524","long":"126.85414075","imageIndex":17,"items":[{"name":"GS25화성장안로점","tel":"","addr":"경기도 화성시 장안면 독정리 708-6번지","indutype":"유통업 영리 - 편 의 점","category":"other"}]},{"lat":"37.083975361","long":"126.86004888","imageIndex":17,"items":[{"name":"더킷캠핑","tel":"","addr":"경기도 화성시 장안면 독정리 115-4번지","indutype":"레져용품 - 스포츠·레져용품","category":"other"}]},{"lat":"37.077036381","long":"126.86700047","imageIndex":17,"items":[{"name":"매크로드","tel":"","addr":"경기도 화성시 장안면 독정리 227-6번지","indutype":"건축자재 - 기타건축자재","category":"other"},{"name":"바두자동차정비기기","tel":"031-529-5247","addr":"경기도 화성시 장안면 독정리 227-6번지","indutype":"기타 - 기계공구","category":"other"}]},{"lat":"37.073871562","long":"126.84358236","imageIndex":17,"items":[{"name":"모던","tel":"031-358-1468","addr":"경기도 화성시 장안면 독정리 795-4번지 A동,B동","indutype":"수리서비스 - 세탁소","category":"other"}]},{"lat":"37.079703616","long":"126.85943836","imageIndex":17,"items":[{"name":"삼영볼트공업사","tel":"031-358-7285","addr":"경기도 화성시 장안면 독정리 120-3번지 1층","indutype":"기타 - 기계공구","category":"other"}]},{"lat":"37.077006652","long":"126.85713808","imageIndex":17,"items":[{"name":"세븐일레븐독정수정로점","tel":"031-1577-0711","addr":"경기도 화성시 장안면 독정리 628-24번지","indutype":"유통업 영리 - 편 의 점","category":"other"}]},{"lat":"37.070346594","long":"126.84902092","imageIndex":17,"items":[{"name":"세븐일레븐화성독정대로점","tel":"031-1577-0711","addr":"경기도 화성시 장안면 독정리 803-36번지","indutype":"유통업 영리 - 편 의 점","category":"other"}]},{"lat":"37.078033951","long":"126.85721483","imageIndex":17,"items":[{"name":"씨유화성에이스점","tel":"031-351-4531","addr":"경기도 화성시 장안면 독정리 628-18번지 1층","indutype":"유통업 영리 - 편 의 점","category":"other"}]},{"lat":"37.070982286","long":"126.86788837","imageIndex":17,"items":[{"name":"에스제이이엔지","tel":"031-351-5878","addr":"경기도 화성시 장안면 독정리 276-85","indutype":"기타 - 기계공구","category":"other"}]},{"lat":"37.075842401","long":"126.85561092","imageIndex":17,"items":[{"name":"엑스오자원","tel":"031-351-6311","addr":"경기도 화성시 장안면 독정리 599-14번지","indutype":"건축자재 - 목재·석재·철물","category":"other"}]},{"lat":"37.066068868","long":"126.85080612","imageIndex":17,"items":[{"name":"우진산업주식회사","tel":"031-658-2053","addr":"경기도 화성시 장안면 독정리 952-9번지","indutype":"전기제품 - 가전제품","category":"other"}]},{"lat":"37.070092643","long":"126.84775078","imageIndex":17,"items":[{"name":"원창버켓","tel":"031-378-5486","addr":"경기도 화성시 장안면 독정리 803-6번지","indutype":"수리서비스 - 기타수리서비스","category":"other"}]},{"lat":"37.083896758","long":"126.84768892","imageIndex":17,"items":[{"name":"주식회사 코리아바이트공구","tel":"031-239-1179","addr":"경기도 화성시 장안면 독정리 763-17번지","indutype":"기타 - 기계공구","category":"other"}]},{"lat":"37.073120346","long":"126.85491899","imageIndex":17,"items":[{"name":"창무금속","tel":"031-351-5862","addr":"경기도 화성시 장안면 독정리 471-4","indutype":"기타 - 기계공구","category":"other"}]},{"lat":"37.08328437","long":"126.86241196","imageIndex":17,"items":[{"name":"천광금속","tel":"070-7584-8953","addr":"경기도 화성시 장안면 독정리 112-1","indutype":"기타 - 기계공구","category":"other"}]},{"lat":"37.075424797","long":"126.86043602","imageIndex":17,"items":[{"name":"현대산업","tel":"031-8050-7310","addr":"경기도 화성시 장안면 독정리 461-27번지","indutype":"유통업 영리 - 기타유통업","category":"other"}]},{"lat":"37.07553628","long":"126.85580268","imageIndex":17,"items":[{"name":"화성목재","tel":"031-358-5671","addr":"경기도 화성시 장안면 독정리 599-26번지","indutype":"건축자재 - 목재·석재·철물","category":"other"}]}]