[{"lat":"38.18410251","long":"127.1071578","items":[{"name":"BBQ대광점","tel":"031-834-4282","addr":"경기도 연천군 신서면 도신리 285-28번지","category":"일반휴게음식 - 스넥"}]},{"lat":"38.18567957","long":"127.1065779","items":[{"name":"K2노래연습장","tel":"03-200-0000","addr":"경기도 연천군 신서면 도신리 283-19번지","category":"레저업소 - 노 래 방"}]},{"lat":"38.18538156","long":"127.1073879","items":[{"name":"ok팜농장","tel":"031-000-0000","addr":"경기도 연천군 신서면 도신리 273-58번지","category":"음료식품 - 농·축·수산품"}]},{"lat":"38.18379612","long":"127.1072486","items":[{"name":"고대산 숯불갈비","tel":"031-834-8555","addr":"경기도 연천군 신서면 도신리 285-45번지","category":"일반휴게음식 - 일반한식"}]},{"lat":"38.18377006","long":"127.1061643","items":[{"name":"고향집","tel":"031-834-0370","addr":"경기도 연천군 신서면 도신리 288-4번지","category":"일반휴게음식 - 일반한식"}]},{"lat":"38.16027203","long":"127.1188533","items":[{"name":"광대울골","tel":"031-834-5507","addr":"경기도 연천군 신서면 도신리 770-34번지","category":"일반휴게음식 - 일반한식"}]},{"lat":"38.18557109","long":"127.107","items":[{"name":"깍고볶고헤어","tel":"070-8882-9970","addr":"경기도 연천군 신서면 도신리 283-14번지","category":"보건위생 - 미용원"}]},{"lat":"38.18406764","long":"127.1058337","items":[{"name":"농업회사법인 주식회사 오고농원","tel":"","addr":"경기도 연천군 신서면 도신리 290-56번지","category":"음료식품 - 기타음료식품"}]},{"lat":"38.18498529","long":"127.1072503","items":[{"name":"뉴웨스트커피","tel":"031-834-8613","addr":"경기도 연천군 신서면 도신리 273-65번지","category":"일반휴게음식 - 서양음식"},{"name":"엘카페","tel":"031-834-8613","addr":"경기도 연천군 신서면 도신리 273-65번지","category":"일반휴게음식 - 서양음식"}]},{"lat":"38.18574219","long":"127.1070802","items":[{"name":"다빈까페","tel":"031-834-1388","addr":"경기도 연천군 신서면 도신리 283-35번지","category":"일반휴게음식 - 서양음식"}]},{"lat":"38.1848777","long":"127.1066681","items":[{"name":"다온기획","tel":"031-834-8141","addr":"경기도 연천군 신서면 도신리 290-21번지","category":"용역 서비스 - 종합용역"},{"name":"대광유통","tel":"031-834-8140","addr":"경기도 연천군 신서면 도신리 290-21번지","category":"음료식품 - 기타음료식품"}]},{"lat":"38.17562726","long":"127.1047491","items":[{"name":"대광공업사","tel":"031-834-8274","addr":"경기도 연천군 신서면 도신리 62-4번지","category":"수리서비스 - 기타수리서비스"}]},{"lat":"38.1843198","long":"127.1059368","items":[{"name":"대광모타","tel":"031-834-7484","addr":"경기도 연천군 신서면 도신리 290-49","category":"회원제형태 - 기타4"}]},{"lat":"38.18593187","long":"127.1065212","items":[{"name":"대광사철탕","tel":"031-834-9097","addr":"경기도 연천군 신서면 도신리 283-43번지","category":"일반휴게음식 - 일반한식"}]},{"lat":"38.18470662","long":"127.1065765","items":[{"name":"대광점굽네치킨","tel":"031-834-9554","addr":"경기도 연천군 신서면 도신리 290-20 2/8","category":"일반휴게음식 - 스넥"},{"name":"정김밥","tel":"031-834-9299","addr":"경기도 연천군 신서면 도신리 290-20","category":"일반휴게음식 - 일반한식"}]},{"lat":"38.18512986","long":"127.1067711","items":[{"name":"대산철물","tel":"031-834-1019","addr":"경기도 연천군 신서면 도신리 283-12번지","category":"건축자재 - 목재·석재·철물"}]},{"lat":"38.18698546","long":"127.1070249","items":[{"name":"대흥원","tel":"031-834-8191","addr":"경기도 연천군 신서면 도신리 280-3번지 대흥원","category":"일반휴게음식 - 일반한식"}]},{"lat":"38.18551798","long":"127.1059385","items":[{"name":"도신건재","tel":"031-834-8186","addr":"경기도 연천군 신서면 도신리 293-2","category":"건축자재 - 기타건축자재"}]},{"lat":"38.18543618","long":"127.1067487","items":[{"name":"돌장여관","tel":"031-834-9150","addr":"경기도 연천군 신서면 도신리 283-7번지","category":"숙박업 - 여관/기타숙박업"}]},{"lat":"38.18457077","long":"127.1073867","items":[{"name":"드림디포 대광리점(선경사)","tel":"031-834-3385","addr":"경기도 연천군 신서면 도신리 285-26번지","category":"서적문구 - 문구용품"}]},{"lat":"38.18470742","long":"127.1056634","items":[{"name":"렉스텔","tel":"031-834-8042","addr":"경기도 연천군 신서면 도신리 298-10번지","category":"숙박업 - 여관/기타숙박업"},{"name":"에코 LED","tel":"","addr":"경기도 연천군 신서면 도신리 298-10번지","category":"건축자재 - 기타건축자재"}]},{"lat":"38.18512909","long":"127.1076386","items":[{"name":"마리푸드","tel":"031-834-0893","addr":"경기도 연천군 신서면 도신리 285-23번지","category":"음료식품 - 농·축·수산품"}]},{"lat":"38.18549046","long":"127.1064977","items":[{"name":"머리하는날","tel":"031-834-9654","addr":"경기도 연천군 신서면 도신리 283-23번지","category":"보건위생 - 미용원"}]},{"lat":"38.184958","long":"127.107547","items":[{"name":"메가커피 대광리점","tel":"031-834-9559","addr":"경기도 연천군 신서면 도신리 285-24번지 1층","category":"일반휴게음식 - 서양음식"}]},{"lat":"38.18487864","long":"127.1056066","items":[{"name":"미라클모텔","tel":"031-834-7775","addr":"경기도 연천군 신서면 도신리 298-5번지","category":"숙박업 - 여관/기타숙박업"}]},{"lat":"38.18540943","long":"127.1064405","items":[{"name":"병천아우네순대","tel":"02-745-6878","addr":"경기도 연천군 신서면 도신리 283-25","category":"일반휴게음식 - 일반한식"}]},{"lat":"38.17649183","long":"127.1050812","items":[{"name":"부산돼지국밥","tel":"031-834-2020","addr":"경기도 연천군 신서면 도신리 209번지 1층","category":"일반휴게음식 - 일반한식"}]},{"lat":"38.18521089","long":"127.1068283","items":[{"name":"부산식당","tel":"031-834-8150","addr":"경기도 연천군 신서면 도신리 283-10번지","category":"일반휴게음식 - 일반한식"}]},{"lat":"38.18234673","long":"127.1060824","items":[{"name":"새론정보통신","tel":"031-832-7577","addr":"경기도 연천군 신서면 도신리 247-3번지","category":"사무통신 - 통신기기"}]},{"lat":"38.18565304","long":"127.1060186","items":[{"name":"서울사철탕","tel":"031-834-2346","addr":"경기도 연천군 신서면 도신리 294-23","category":"일반휴게음식 - 일반한식"}]},{"lat":"38.18498618","long":"127.1062459","items":[{"name":"서울수산","tel":"031-834-3212","addr":"경기도 연천군 신서면 도신리 291-1번지","category":"음료식품 - 기타음료식품"}]},{"lat":"38.18440917","long":"127.1067473","items":[{"name":"신서농약사","tel":"031-834-3831","addr":"경기도 연천군 신서면 도신리 290-12","category":"농업 - 비료,사료,종자"}]},{"lat":"38.18274243","long":"127.1068591","items":[{"name":"신서면사무소","tel":"031-839-2748","addr":"경기도 연천군 신서면 도신리 285-2번지","category":"용역 서비스 - 사무서비스"}]},{"lat":"38.18432023","long":"127.105446","items":[{"name":"신평가구","tel":"031-834-9180","addr":"경기도 연천군 신서면 도신리 298-17번지","category":"가구 - 일반가구"}]},{"lat":"38.18407626","long":"127.1062789","items":[{"name":"아름다운#","tel":"070-7779-3704","addr":"경기도 연천군 신서면 도신리 290-41번지","category":"보건위생 - 피부미용실"}]},{"lat":"38.16007662","long":"127.1062221","items":[{"name":"어디선가누구에게박반장","tel":"","addr":"경기도 연천군 신서면 도신리 775-1번지","category":"용역 서비스 - 종합용역"}]},{"lat":"38.18615618","long":"127.1075488","items":[{"name":"어울림 인테리어","tel":"031-834-9263","addr":"경기도 연천군 신서면 도신리 273-31번지","category":"건축자재 - 인테리어전문"}]},{"lat":"38.15834851","long":"127.1043827","items":[{"name":"에브라임캠핑장","tel":"031-1111-1111","addr":"경기도 연천군 신서면 도신리 787번지","category":"음료식품 - 기타음료식품"}]},{"lat":"38.18710221","long":"127.107436","items":[{"name":"연천벌꿀","tel":"031-834-8058","addr":"경기도 연천군 신서면 도신리 274-4번지","category":"건강식품 - 기타건강식품"}]},{"lat":"38.18626406","long":"127.1078","items":[{"name":"연천종합수리설비","tel":"","addr":"경기도 연천군 신서면 도신리 273-26번지","category":"용역 서비스 - 기타용역서비스"}]},{"lat":"38.16387938","long":"127.105075","items":[{"name":"연합농자재","tel":"031-834-7917","addr":"경기도 연천군 신서면 도신리 742-7번지","category":"용역 서비스 - 기타용역서비스"}]},{"lat":"38.18546259","long":"127.107445","items":[{"name":"왕돈까스","tel":"031-834-9448","addr":"경기도 연천군 신서면 도신리 273-56번지","category":"일반휴게음식 - 일반한식"}]},{"lat":"38.18723754","long":"127.1072193","items":[{"name":"우리식당","tel":"031-834-1890","addr":"경기도 연천군 신서면 도신리 275-4번지","category":"일반휴게음식 - 일반한식"}]},{"lat":"38.15210135","long":"127.0983845","items":[{"name":"원압산토종","tel":"031-834-8826","addr":"경기도 연천군 신서면 도신리 839-2 3/1","category":"일반휴게음식 - 일반한식"}]},{"lat":"38.18512959","long":"127.1070793","items":[{"name":"이담왕돈까스","tel":"031-834-7222","addr":"경기도 연천군 신서면 도신리 273-64번지","category":"일반휴게음식 - 중국식"}]},{"lat":"38.15412963","long":"127.0968013","items":[{"name":"이천푸드","tel":"","addr":"경기도 연천군 신서면 도신리 827-2번지","category":"일반휴게음식 - 일반한식"}]},{"lat":"38.18504856","long":"127.1070221","items":[{"name":"장군순대국","tel":"031-834-8286","addr":"경기도 연천군 신서면 도신리 273-67번지 1층","category":"일반휴게음식 - 일반한식"}]},{"lat":"38.18549004","long":"127.1069657","items":[{"name":"정든커피숍","tel":"031-834-7771","addr":"경기도 연천군 신서면 도신리 283-17번지","category":"일반휴게음식 - 서양음식"}]},{"lat":"38.18515701","long":"127.1066342","items":[{"name":"제이 (J)헤어컷","tel":"","addr":"경기도 연천군 신서면 도신리 283-13번지","category":"보건위생 - 미용원"}]},{"lat":"38.16102202","long":"127.1068282","items":[{"name":"제일가든","tel":"031-834-2939","addr":"경기도 연천군 신서면 도신리 778번지","category":"일반휴게음식 - 일반한식"}]},{"lat":"38.18454492","long":"127.1060512","items":[{"name":"좋은친구들","tel":"031-834-8318","addr":"경기도 연천군 신서면 도신리 290-31번지","category":"일반휴게음식 - 주점"},{"name":"좋은친구들","tel":"031-834-8318","addr":"경기도 연천군 신서면 도신리 290-31번지","category":"일반휴게음식 - 주점"},{"name":"좋은친구들","tel":"031-834-8318","addr":"경기도 연천군 신서면 도신리 290-31번지 좋은친구들","category":"일반휴게음식 - 주점"}]},{"lat":"38.18487751","long":"127.1068849","items":[{"name":"준이네 떡볶이&돈까스","tel":"031-834-8404","addr":"경기도 연천군 신서면 도신리 273-73번지","category":"일반휴게음식 - 일반한식"}]},{"lat":"38.18523747","long":"127.1073306","items":[{"name":"중국성","tel":"031-834-6001","addr":"경기도 연천군 신서면 도신리 273-60번지","category":"일반휴게음식 - 중국식"}]},{"lat":"38.1860754","long":"127.1072176","items":[{"name":"진주목욕탕","tel":"031-834-8182","addr":"경기도 연천군 신서면 도신리 273-40","category":"보건위생 - 사우나"}]},{"lat":"38.1855168","long":"127.1072739","items":[{"name":"청솔방앗간","tel":"031-834-1288","addr":"경기도 연천군 신서면 도신리 273-55번지","category":"음료식품 - 기타음료식품"}]},{"lat":"38.16315626","long":"127.0971894","items":[{"name":"털보네촌닭","tel":"031-834-6308","addr":"경기도 연천군 신서면 도신리 620-8번지","category":"일반휴게음식 - 일반한식"}]},{"lat":"38.18679538","long":"127.1080291","items":[{"name":"홍이뜰","tel":"070-8763-7552","addr":"경기도 연천군 신서면 도신리 273-7번지","category":"음료식품 - 농·축·수산품"}]},{"lat":"38.18398543","long":"127.1071119","items":[{"name":"황금반점","tel":"031-834-1813","addr":"경기도 연천군 신서면 도신리 285-29번지","category":"일반휴게음식 - 중국식"}]}]