[{"lat":"37.281902288","long":"126.98878686","imageIndex":17,"items":[{"name":"(사)한국농자재시험연구기관협회","tel":"031-296-6615","addr":"경기도 수원시 팔달구 화서동 436-3번지","indutype":"용역 서비스 - 사무서비스","category":"other"},{"name":"(주)농업로봇연구소","tel":"031-8067-7414","addr":"경기도 수원시 팔달구 화서동 436-3번지","indutype":"기타 - 기계공구","category":"other"},{"name":"(주)디에스컨벤션","tel":"","addr":"경기도 수원시 팔달구 화서동 436-3번지","indutype":"여행 - 관광여행","category":"other"},{"name":"(주)유샘인스트루먼트","tel":"031-292-4222","addr":"경기도 수원시 팔달구 화서동 436-3번지 농민회관","indutype":"기타 - 기계공구","category":"other"},{"name":"(주)주앙디앤씨","tel":"031-254-8881","addr":"경기도 수원시 팔달구 화서동 436-3번지","indutype":"용역 서비스 - 기타용역서비스","category":"other"},{"name":"대표공사","tel":"031-1544-1337","addr":"경기도 수원시 팔달구 화서동 436-3번지 농민회관 제2별관 3층","indutype":"용역 서비스 - 기타용역서비스","category":"other"},{"name":"비스타컨투어","tel":"031-278-5520","addr":"경기도 수원시 팔달구 화서동 436-3번지","indutype":"신변잡화 - 기타잡화","category":"other"},{"name":"사단법인 한국식품냉동기술협의회","tel":"02-450-3048","addr":"경기도 수원시 팔달구 화서동 436-3번지 4층","indutype":"문화.취미 - 티켓","category":"other"},{"name":"사단법인한국사이버농업인연합회","tel":"055-746-2121","addr":"경기도 수원시 팔달구 화서동 436-3번지 농민회관 별관 204호","indutype":"기타 - 비영리/대상","category":"other"},{"name":"사단법인한국응용곤충학회","tel":"031-291-3681","addr":"경기도 수원시 팔달구 화서동 436-3번지 농민회관 제1별관 2층 209호","indutype":"기타 - 비영리/대상","category":"other"},{"name":"사단법인한국환경농학회","tel":"031-295-7779","addr":"경기도 수원시 팔달구 화서동 436-3번지 농민회관 제1별관 210호","indutype":"용역 서비스 - 사무서비스","category":"other"},{"name":"수원 웨딩 센터","tel":"031-238-7587","addr":"경기도 수원시 팔달구 화서동 436-3번지 농민회관본관6층 1/2좌측","indutype":"용역 서비스 - 혼례서비스","category":"other"},{"name":"신성산업","tel":"031-278-9510","addr":"경기도 수원시 팔달구 화서동 436-3 농민회관 1별관 1층","indutype":"용역 서비스 - 기타용역서비스","category":"other"},{"name":"아이엠에스","tel":"031-296-5474","addr":"경기도 수원시 팔달구 화서동 436-3번지 농민회관 제1별관","indutype":"건축자재 - 인테리어전문","category":"other"},{"name":"주식회사 세창건설중기","tel":"031-292-8005","addr":"경기도 수원시 팔달구 화서동 436-3번지 3층 308호 농민회관 제1별관","indutype":"기타 - 기계공구","category":"other"},{"name":"주식회사 에스코시스템","tel":"031-296-7445","addr":"경기도 수원시 팔달구 화서동 436-3번지 6층","indutype":"용역 서비스 - 기타용역서비스","category":"other"},{"name":"크레비즈주식회사","tel":"031-239-8541","addr":"경기도 수원시 팔달구 화서동 436-3번지 농민회관 6층","indutype":"용역 서비스 - 사무서비스","category":"other"},{"name":"한국석면안전관리원 주식회사","tel":"031-278-5480","addr":"경기도 수원시 팔달구 화서동 436-3번지 농민회관 제1별관 3층 310호","indutype":"용역 서비스 - 종합용역","category":"other"}]},{"lat":"37.284731706","long":"126.99053419","imageIndex":17,"items":[{"name":"(주) 한빛","tel":"031-242-3398","addr":"경기도 수원시 팔달구 화서동 644-7번지 아트프라자 119호,120호","indutype":"용역 서비스 - 종합용역","category":"other"},{"name":"KPGA골프","tel":"031-244-8242","addr":"경기도 수원시 팔달구 화서동 644-7번지 아트프라자 6층 4호~5호","indutype":"회원제형태 - 레져업소","category":"other"},{"name":"그루스터디수원화서센터","tel":"","addr":"경기도 수원시 팔달구 화서동 644-7번지 아트프라자 7층 702호","indutype":"용역 서비스 - 사무서비스","category":"other"},{"name":"까만너구리 화서점","tel":"070-7543-4888","addr":"경기도 수원시 팔달구 화서동 644-7번지 아트프라자 2층 5호","indutype":"서적문구 - 문구용품","category":"other"},{"name":"맑은샘명상센터","tel":"031-241-8798","addr":"경기도 수원시 팔달구 화서동 644-7번지 아트프라자 4층 6호","indutype":"회원제형태 - 레져업소","category":"other"},{"name":"아다모아파트인테리어 수원점","tel":"031-244-7997","addr":"경기도 수원시 팔달구 화서동 644-7번지 아트프라자 113호","indutype":"용역 서비스 - 사무서비스","category":"other"},{"name":"아띠플라워","tel":"031-241-8581","addr":"경기도 수원시 팔달구 화서동 644-7번지 아트프라자","indutype":"문화.취미 - 화원","category":"other"},{"name":"영롱화원","tel":"02-533-2387","addr":"경기도 수원시 팔달구 화서동 644-7번지 아트프라자 120호","indutype":"문화.취미 - 화원","category":"other"},{"name":"코드 로지(Code Rosy)","tel":"","addr":"경기도 수원시 팔달구 화서동 644-7번지 아트프라자 18호","indutype":"문화.취미 - 화원","category":"other"},{"name":"클로이스튜디오-화서사진관","tel":"031-111-1111","addr":"경기도 수원시 팔달구 화서동 644-7번지 아트프라자 1층 12호","indutype":"광학제품 - 사진관","category":"other"}]},{"lat":"37.282371661","long":"127.00250986","imageIndex":17,"items":[{"name":"(주)삼성이에이치피","tel":"031-225-1154","addr":"경기도 수원시 팔달구 화서동 758번지 화서동근생주택 204호","indutype":"용역 서비스 - 기타용역서비스","category":"other"}]},{"lat":"37.283624034","long":"127.00650168","imageIndex":17,"items":[{"name":"(주)선우기전","tel":"031-898-7933","addr":"경기도 수원시 팔달구 화서동 31-12번지","indutype":"전기제품 - 기타전기제품","category":"other"},{"name":"전기쟁이","tel":"031-258-0088","addr":"경기도 수원시 팔달구 화서동 31-12번지","indutype":"전기제품 - 기타전기제품","category":"other"}]},{"lat":"37.283290659","long":"127.00633252","imageIndex":17,"items":[{"name":"(주)세한이노테크","tel":"031-245-2415","addr":"경기도 수원시 팔달구 화서동 31-14번지 덕구빌딩 301호","indutype":"건축자재 - 조명기구","category":"other"},{"name":"광고나라기획","tel":"031-251-4100","addr":"경기도 수원시 팔달구 화서동 31-14번지","indutype":"용역 서비스 - 종합용역","category":"other"}]},{"lat":"37.278875663","long":"127.00475373","imageIndex":17,"items":[{"name":"(주)오리엔탈여행사","tel":"031-241-0600","addr":"경기도 수원시 팔달구 화서동 62-7번지 수원빌딩 6층","indutype":"여행 - 관광여행","category":"other"},{"name":"미성서적","tel":"031-241-0413","addr":"경기도 수원시 팔달구 화서동 62-7번지 수원빌딩 2층","indutype":"회원제형태 - 서적","category":"other"},{"name":"커피랑도서관화서사거리점","tel":"031-253-1140","addr":"경기도 수원시 팔달구 화서동 62-7번지 5층","indutype":"서적문구 - 일반서적","category":"other"}]},{"lat":"37.277596127","long":"126.99822521","imageIndex":17,"items":[{"name":"(주)웨스트에듀케이션","tel":"070-8246-9378","addr":"경기도 수원시 팔달구 화서동 184-25번지","indutype":"회원제형태 - 기타4","category":"other"}]},{"lat":"37.282732034","long":"127.00592655","imageIndex":17,"items":[{"name":"(주)윈윈모터스","tel":"031-256-1212","addr":"경기도 수원시 팔달구 화서동 68-2번지","indutype":"회원제형태 - 레져업소","category":"other"},{"name":"화서종합알뜰매장","tel":"031-254-5114","addr":"경기도 수원시 팔달구 화서동 68-2번지 1,2층","indutype":"전기제품 - 가전제품","category":"other"}]},{"lat":"37.279010825","long":"127.0016191","imageIndex":17,"items":[{"name":"(주)제일패션","tel":"070-8638-4880","addr":"경기도 수원시 팔달구 화서동 98-10번지","indutype":"의류 - 단체복","category":"other"}]},{"lat":"37.279073902","long":"127.00353596","imageIndex":17,"items":[{"name":"(주)지니모바일","tel":"02-474-5010","addr":"경기도 수원시 팔달구 화서동 71-52번지 명성빌딩 1층 102호","indutype":"사무통신 - 통신기기","category":"other"}]},{"lat":"37.276622951","long":"126.99675948","imageIndex":17,"items":[{"name":"(주)케이그린","tel":"031-255-3991","addr":"경기도 수원시 팔달구 화서동 184-276번지 1층","indutype":"가구 - 일반가구","category":"other"}]},{"lat":"37.280902964","long":"127.0053063","imageIndex":17,"items":[{"name":"(주)한국전기안전관리","tel":"031-256-1722","addr":"경기도 수원시 팔달구 화서동 67-4번지 202호","indutype":"용역 서비스 - 종합용역","category":"other"},{"name":"수원타일상사","tel":"031-245-4995","addr":"경기도 수원시 팔달구 화서동 67-4번지 영원빌딩 101호","indutype":"건축자재 - 건축용 요업제품","category":"other"}]},{"lat":"37.2784071","long":"126.99966844","imageIndex":17,"items":[{"name":"B.Y.C 화서점","tel":"031-1111-1111","addr":"경기도 수원시 팔달구 화서동 114-15번지","indutype":"의류 - 내의판매","category":"other"},{"name":"W모바일","tel":"031-253-4949","addr":"경기도 수원시 팔달구 화서동 114-15번지","indutype":"사무통신 - 통신기기","category":"other"}]},{"lat":"37.285730533","long":"126.98136611","imageIndex":17,"items":[{"name":"BYC","tel":"031-294-3305","addr":"경기도 수원시 팔달구 화서동 727번지 서수원프라자 104호","indutype":"의류 - 내의판매","category":"other"},{"name":"블럭앤키즈 화서점","tel":"031-292-9265","addr":"경기도 수원시 팔달구 화서동 727번지 서수원프라자 301호","indutype":"서적문구 - 완구점","category":"other"},{"name":"새싹","tel":"02-578-9985","addr":"경기도 수원시 팔달구 화서동 727번지 서수원플자 1층 109호","indutype":"회원제형태 - 기타1","category":"other"},{"name":"앤스타일","tel":"031-298-5155","addr":"경기도 수원시 팔달구 화서동 727번지 서수원프라자 1층 108호","indutype":"의류 - 정장","category":"other"},{"name":"크린토피아","tel":"031-296-9088","addr":"경기도 수원시 팔달구 화서동 727번지 서수원프라자 102호","indutype":"수리서비스 - 세탁소","category":"other"},{"name":"통큰딱다구리","tel":"031-298-7468","addr":"경기도 수원시 팔달구 화서동 727번지 서수원프라자 103호","indutype":"서적문구 - 문구용품","category":"other"}]},{"lat":"37.286315988","long":"126.98022699","imageIndex":17,"items":[{"name":"GOLD SHOP","tel":"031-293-8095","addr":"경기도 수원시 팔달구 화서동 723-5번지 성보빌딩 104호","indutype":"신변잡화 - 시계","category":"other"}]},{"lat":"37.285342959","long":"126.98064451","imageIndex":17,"items":[{"name":"GS25수원율현점","tel":"","addr":"경기도 수원시 팔달구 화서동 725-3번지 리더스빌딩 102호","indutype":"유통업 영리 - 편 의 점","category":"other"}]},{"lat":"37.287822017","long":"126.98867299","imageIndex":17,"items":[{"name":"GS25수원화서점","tel":"031-287-7726","addr":"경기도 수원시 팔달구 화서동 677-5번지 1층","indutype":"유통업 영리 - 편 의 점","category":"other"}]},{"lat":"37.283903215","long":"126.99613869","imageIndex":17,"items":[{"name":"GS25숙지공원점","tel":"","addr":"경기도 수원시 팔달구 화서동 270-9 공동주택 101호","indutype":"유통업 영리 - 편 의 점","category":"other"}]},{"lat":"37.279767683","long":"127.00456206","imageIndex":17,"items":[{"name":"GS25팔달대우점","tel":"011-***-****","addr":"경기도 수원시 팔달구 화서동 71-4번지","indutype":"유통업 영리 - 편 의 점","category":"other"}]},{"lat":"37.28073164","long":"126.99687191","imageIndex":17,"items":[{"name":"GS25팔달신우점","tel":"","addr":"경기도 수원시 팔달구 화서동 206-4번지 1층","indutype":"유통업 영리 - 편 의 점","category":"other"},{"name":"용금당","tel":"031-252-6390","addr":"경기도 수원시 팔달구 화서동 206-4번지","indutype":"신변잡화 - 시계","category":"other"}]},{"lat":"37.278515211","long":"126.99925124","imageIndex":17,"items":[{"name":"GS25화서오거리점","tel":"02-2006-2485","addr":"경기도 수원시 팔달구 화서동 175-1번지","indutype":"유통업 영리 - 편 의 점","category":"other"}]},{"lat":"37.279263109","long":"127.00444929","imageIndex":17,"items":[{"name":"가교공구철물","tel":"031-245-4489","addr":"경기도 수원시 팔달구 화서동 71-138번지","indutype":"기타 - 기계공구","category":"other"}]},{"lat":"37.283624088","long":"127.00344579","imageIndex":17,"items":[{"name":"가나기념패","tel":"031-258-2050","addr":"경기도 수원시 팔달구 화서동 11-41번지 화서벽산 상가 104호","indutype":"신변잡화 - 기념품점","category":"other"},{"name":"미니스톱 화서벽산점","tel":"031-1577-9621","addr":"경기도 수원시 팔달구 화서동 11-41번지 상가동 B01호","indutype":"유통업 영리 - 편 의 점","category":"other"},{"name":"워터짐","tel":"070-7561-6176","addr":"경기도 수원시 팔달구 화서동 11-41번지 벽산아파트 108호","indutype":"신변잡화 - 기타잡화","category":"other"}]},{"lat":"37.278875654","long":"127.00053664","imageIndex":17,"items":[{"name":"가나안텔레콤","tel":"031-248-2011","addr":"경기도 수원시 팔달구 화서동 107-5번지","indutype":"사무통신 - 통신기기","category":"other"},{"name":"로얄스튜디오","tel":"031-247-0148","addr":"경기도 수원시 팔달구 화서동 107-5번지","indutype":"광학제품 - 사진관","category":"other"},{"name":"샤트렌화서점","tel":"031-256-8864","addr":"경기도 수원시 팔달구 화서동 107-5번지 1층","indutype":"의류 - 정장","category":"other"},{"name":"유진플라워","tel":"031-244-8881","addr":"경기도 수원시 팔달구 화서동 107-5번지 청송빌딩 1층","indutype":"문화.취미 - 화원","category":"other"},{"name":"이지바이크","tel":"031-258-1179","addr":"경기도 수원시 팔달구 화서동 107-5번지 1층","indutype":"레져용품 - 스포츠·레져용품","category":"other"}]},{"lat":"37.280101068","long":"127.00414486","imageIndex":17,"items":[{"name":"경기냉난방","tel":"031-267-2333","addr":"경기도 수원시 팔달구 화서동 71-13번지","indutype":"전기제품 - 냉열기기","category":"other"}]},{"lat":"37.280875945","long":"127.00464102","imageIndex":17,"items":[{"name":"경기도사회복지사협회","tel":"031-252-7556","addr":"경기도 수원시 팔달구 화서동 75-1번지 호산나빌딩","indutype":"기타 - 비영리/비대상","category":"other"}]},{"lat":"37.285705113","long":"126.99383809","imageIndex":17,"items":[{"name":"경기센타","tel":"031-246-1991","addr":"경기도 수원시 팔달구 화서동 648번지 주공프라자 108호","indutype":"사무통신 - 컴퓨터","category":"other"},{"name":"손노리공방","tel":"031-1111-1111","addr":"경기도 수원시 팔달구 화서동 648번지 주공프라자 203호","indutype":"문화.취미 - 문화취미기타","category":"other"},{"name":"숙지스포츠","tel":"031-253-0059","addr":"경기도 수원시 팔달구 화서동 648번지 주공프라자 109호","indutype":"레져용품 - 스포츠·레져용품","category":"other"},{"name":"주식회사 안심종합관리","tel":"031-546-1627","addr":"경기도 수원시 팔달구 화서동 648번지 주공프라자 306호","indutype":"용역 서비스 - 종합용역","category":"other"},{"name":"참교육","tel":"031-269-2857","addr":"경기도 수원시 팔달구 화서동 648번지 화서주공프라자 102호","indutype":"회원제형태 - 서적","category":"other"},{"name":"해피하우스","tel":"031-252-3331","addr":"경기도 수원시 팔달구 화서동 648번지 주공프라자 110호","indutype":"건축자재 - 인테리어전문","category":"other"}]},{"lat":"37.278010689","long":"127.00203631","imageIndex":17,"items":[{"name":"경동가구","tel":"031-6-2273","addr":"경기도 수원시 팔달구 화서동 97-2번지 수정아파트","indutype":"가구 - 일반가구","category":"other"},{"name":"삼삼몰","tel":"031-257-5545","addr":"경기도 수원시 팔달구 화서동 97-2번지 가동호","indutype":"신변잡화 - 가방","category":"other"},{"name":"우일상회","tel":"031-241-0662","addr":"경기도 수원시 팔달구 화서동 97-2번지 수정아파트","indutype":"의류 - 정장","category":"other"}]},{"lat":"37.28048837","long":"126.99700724","imageIndex":17,"items":[{"name":"경수전기","tel":"031-257-0391","addr":"경기도 수원시 팔달구 화서동 205-4번지","indutype":"전기제품 - 기타전기제품","category":"other"},{"name":"대동인테리어","tel":"031-251-8254","addr":"경기도 수원시 팔달구 화서동 205-4번지","indutype":"직물 - 카페트,커튼,천막,지물","category":"other"}]},{"lat":"37.276073264","long":"126.99569966","imageIndex":17,"items":[{"name":"고려창호","tel":"031-243-4658","addr":"경기도 수원시 팔달구 화서동 184-78번지","indutype":"건축자재 - 보일러·펌프·샷시","category":"other"}]},{"lat":"37.279623501","long":"127.00550922","imageIndex":17,"items":[{"name":"고은유통생수","tel":"031-248-3010","addr":"경기도 수원시 팔달구 화서동 64-23번지 화성동","indutype":"유통업 영리 - 기타유통업","category":"other"}]},{"lat":"37.27929015","long":"127.00281432","imageIndex":17,"items":[{"name":"공간BOQ감정사무소","tel":"031-248-7274","addr":"경기도 수원시 팔달구 화서동 71-93번지","indutype":"용역 서비스 - 사무서비스","category":"other"},{"name":"씨유수원화서점","tel":"031-255-1768","addr":"경기도 수원시 팔달구 화서동 71-93번지","indutype":"유통업 영리 - 편 의 점","category":"other"}]},{"lat":"37.279100928","long":"127.0016191","imageIndex":17,"items":[{"name":"공간기획","tel":"031-244-0203","addr":"경기도 수원시 팔달구 화서동 98-9번지","indutype":"건축자재 - 인테리어전문","category":"other"},{"name":"비타민피부관리","tel":"031-241-3983","addr":"경기도 수원시 팔달구 화서동 98-9번지 1층","indutype":"회원제형태 - 기타4","category":"other"}]},{"lat":"37.285793451","long":"126.98053162","imageIndex":17,"items":[{"name":"공간샘스터디카페 화서점","tel":"031-0000-0000","addr":"경기도 수원시 팔달구 화서동 724-4번지 5층","indutype":"용역 서비스 - 사무서비스","category":"other"}]},{"lat":"37.281515536","long":"126.99691695","imageIndex":17,"items":[{"name":"공간채색인테리어","tel":"031-241-6371","addr":"경기도 수원시 팔달구 화서동 211-4번지 2호","indutype":"건축자재 - 인테리어전문","category":"other"},{"name":"토마토","tel":"031-000-0000","addr":"경기도 수원시 팔달구 화서동 211-4번지","indutype":"의류 - 정장","category":"other"}]},{"lat":"37.278181824","long":"126.99903702","imageIndex":17,"items":[{"name":"굿사마리안","tel":"031-295-6222","addr":"경기도 수원시 팔달구 화서동 175-8번지 3층","indutype":"기타 - 비영리/대상","category":"other"},{"name":"생명에너지","tel":"032-428-8733","addr":"경기도 수원시 팔달구 화서동 175-8번지 3층","indutype":"전기제품 - 냉열기기","category":"other"}]},{"lat":"37.27770426","long":"126.99847327","imageIndex":17,"items":[{"name":"귀뚜라미훈종합보일러","tel":"031-256-1696","addr":"경기도 수원시 팔달구 화서동 184-222번지","indutype":"건축자재 - 보일러·펌프·샷시","category":"other"}]},{"lat":"37.280065019","long":"127.00473121","imageIndex":17,"items":[{"name":"규수방(우리산업)","tel":"031-256-8724","addr":"경기도 수원시 팔달구 화서동 71-144번지","indutype":"가구 - 일반가구","category":"other"}]},{"lat":"37.284848798","long":"126.9901395","imageIndex":17,"items":[{"name":"기본스터디카페 화서역점","tel":"070-8546-1096","addr":"경기도 수원시 팔달구 화서동 644-1번지 풍성프라자 4층 401호","indutype":"용역 서비스 - 사무서비스","category":"other"},{"name":"사진속아이들","tel":"031-269-2760","addr":"경기도 수원시 팔달구 화서동 644-1번지 풍성프라자 302호","indutype":"광학제품 - 사진관","category":"other"},{"name":"스튜디오 네모","tel":"031-256-1647","addr":"경기도 수원시 팔달구 화서동 644-1번지 풍성프라자 302호","indutype":"광학제품 - 사진관","category":"other"},{"name":"제이에스","tel":"03-222-5206","addr":"경기도 수원시 팔달구 화서동 644-1번지 풍성프라자 903호","indutype":"사무통신 - 사무용 OA기기","category":"other"},{"name":"티아라스튜디오","tel":"031-256-1647","addr":"경기도 수원시 팔달구 화서동 644-1번지 풍성프라자 303호","indutype":"광학제품 - 사진관","category":"other"}]},{"lat":"37.278371081","long":"127.00061559","imageIndex":17,"items":[{"name":"기쁨상회","tel":"031-473-9107","addr":"경기도 수원시 팔달구 화서동 108-3번지 동우빌딩 1층","indutype":"의류 - 기타의류","category":"other"},{"name":"리빙복싱클럽","tel":"031-242-5896","addr":"경기도 수원시 팔달구 화서동 108-3번지 동우빌딩 3층","indutype":"회원제형태 - 레져업소","category":"other"},{"name":"센텍스 주식회사","tel":"031-258-1339","addr":"경기도 수원시 팔달구 화서동 108-3번지 동우빌딩 2층","indutype":"전기제품 - 기타전기제품","category":"other"},{"name":"오렌지","tel":"031-246-2470","addr":"경기도 수원시 팔달구 화서동 108-3번지 동우빌딩 1층","indutype":"의류 - 정장","category":"other"}]},{"lat":"37.281398532","long":"127.00511462","imageIndex":17,"items":[{"name":"기산천막사","tel":"031-253-0144","addr":"경기도 수원시 팔달구 화서동 70-26번지","indutype":"직물 - 카페트,커튼,천막,지물","category":"other"}]},{"lat":"37.28831841","long":"127.00050252","imageIndex":17,"items":[{"name":"김포토스튜디오","tel":"031-258-4294","addr":"경기도 수원시 팔달구 화서동 743번지 화서위브하늘채 201동 103호 지층 2층","indutype":"광학제품 - 사진관","category":"other"},{"name":"니트(neat)","tel":"031-241-6553","addr":"경기도 수원시 팔달구 화서동 743번지 화서위브하늘채제지1층 204동 104호","indutype":"의류 - 정장","category":"other"},{"name":"비비도리스","tel":"031-258-4860","addr":"경기도 수원시 팔달구 화서동 743번지 화서위브하늘채 201동지2층102호","indutype":"문화.취미 - 애완동물","category":"other"},{"name":"비비도리스애견샵","tel":"031-258-4860","addr":"경기도 수원시 팔달구 화서동 743번지 화서위브하늘채 201동 지2층 102호","indutype":"문화.취미 - 애완동물","category":"other"},{"name":"수원전자담배아메리퀴드장안점","tel":"031-243-7980","addr":"경기도 수원시 팔달구 화서동 743번지 화서위브하늘채 상가 202동 104호","indutype":"기타 - 기타 전문점","category":"other"},{"name":"좋은이불(정자점)","tel":"070-3721-5157","addr":"경기도 수원시 팔달구 화서동 743번지 화서위브하늘채 204동 105호","indutype":"직물 - 침구·수예점","category":"other"},{"name":"크린토피아수원화서위브하늘채점","tel":"031-207-8442","addr":"경기도 수원시 팔달구 화서동 743번지 화서위브하늘채 지하층 103호 204동","indutype":"수리서비스 - 세탁소","category":"other"},{"name":"하늘채세탁","tel":"031-241-7040","addr":"경기도 수원시 팔달구 화서동 743번지 화서위브하늘채 상가 203동 107호","indutype":"수리서비스 - 세탁소","category":"other"},{"name":"하우스","tel":"031-246-0048","addr":"경기도 수원시 팔달구 화서동 743번지 화서위브하늘채 203동 104호","indutype":"건축자재 - 인테리어전문","category":"other"}]},{"lat":"37.278461202","long":"127.0020363","imageIndex":17,"items":[{"name":"꼼빠니아","tel":"","addr":"경기도 수원시 팔달구 화서동 97-1번지 화서상가 제나동호","indutype":"의류 - 정장","category":"other"},{"name":"꼼지락퀼트","tel":"031-241-7117","addr":"경기도 수원시 팔달구 화서동 97-1번지","indutype":"직물 - 침구·수예점","category":"other"},{"name":"디알로드(DRROAD)","tel":"070-5104-8121","addr":"경기도 수원시 팔달구 화서동 97-1번지 화서시장 62호 상가","indutype":"유통업 영리 - 기타유통업","category":"other"},{"name":"마녀의 다락방","tel":"031-111-1111","addr":"경기도 수원시 팔달구 화서동 97-1번지 화서상가 나동 1층 71호","indutype":"문화.취미 - 문화취미기타","category":"other"},{"name":"맹그는 공예공방","tel":"","addr":"경기도 수원시 팔달구 화서동 97-1번지 화서상가","indutype":"문화.취미 - 문화취미기타","category":"other"},{"name":"명진조명","tel":"031-256-1942","addr":"경기도 수원시 팔달구 화서동 97-1번지 화서 25호","indutype":"건축자재 - 조명기구","category":"other"},{"name":"명진조명","tel":"031-5-3969","addr":"경기도 수원시 팔달구 화서동 97-1번지","indutype":"건축자재 - 조명기구","category":"other"},{"name":"삼보종합인테리어","tel":"031-255-8032","addr":"경기도 수원시 팔달구 화서동 97-1번지 화서시장 나동 36호","indutype":"건축자재 - 인테리어전문","category":"other"},{"name":"스튜디오온","tel":"031-269-1090","addr":"경기도 수원시 팔달구 화서동 97-1번지 나동 2층","indutype":"광학제품 - 사진관","category":"other"},{"name":"씨드 스토어","tel":"070-4238-9600","addr":"경기도 수원시 팔달구 화서동 97-1번지 1층","indutype":"농업 - 비료,사료,종자","category":"other"},{"name":"아랑주","tel":"031-254-1239","addr":"경기도 수원시 팔달구 화서동 97-1번지 화서시장 나동 1층 189,190. 2칸, 건물번호72.1번1칸","indutype":"직물 - 침구·수예점","category":"other"},{"name":"여성크로커다일 화서점","tel":"031-241-8938","addr":"경기도 수원시 팔달구 화서동 97-1번지 화서시장 나동 1층 26호 ,30호","indutype":"레져용품 - 스포츠·레져용품","category":"other"},{"name":"오뚜기의류","tel":"031-247-5229","addr":"경기도 수원시 팔달구 화서동 97-1번지 화서상가 나동 58호","indutype":"의류 - 정장","category":"other"},{"name":"올리비아로렌수원화서점","tel":"031-257-5023","addr":"경기도 수원시 팔달구 화서동 97-1번지 화서상가나동42호~43호 나-42","indutype":"레져용품 - 스포츠·레져용품","category":"other"},{"name":"은성지업사","tel":"031-248-2477","addr":"경기도 수원시 팔달구 화서동 97-1번지 화서시장 내","indutype":"직물 - 카페트,커튼,천막,지물","category":"other"},{"name":"자미온","tel":"031-245-8895","addr":"경기도 수원시 팔달구 화서동 97-1번지","indutype":"직물 - 혼수전문점","category":"other"},{"name":"전태순주단","tel":"031-245-5325","addr":"경기도 수원시 팔달구 화서동 97-1번지","indutype":"의류 - 맞춤복점","category":"other"},{"name":"제이디엑스 멀티스포츠 수원화서점","tel":"","addr":"경기도 수원시 팔달구 화서동 97-1번지 1층","indutype":"레져용품 - 스포츠·레져용품","category":"other"},{"name":"지후갤러리","tel":"","addr":"경기도 수원시 팔달구 화서동 97-1번지 화서상가 나동 76호","indutype":"문화.취미 - 문화취미기타","category":"other"},{"name":"카이젤수원영업소","tel":"031-244-4489","addr":"경기도 수원시 팔달구 화서동 97-1번지","indutype":"전기제품 - 가전제품","category":"other"},{"name":"태양유리","tel":"031-243-6691","addr":"경기도 수원시 팔달구 화서동 97-1번지 화서상가 나동 60호","indutype":"건축자재 - 기타건축자재","category":"other"},{"name":"틴","tel":"070-8181-9316","addr":"경기도 수원시 팔달구 화서동 97-1번지 화서상가","indutype":"의류 - 정장","category":"other"},{"name":"화서뜨개방","tel":"031-258-2130","addr":"경기도 수원시 팔달구 화서동 97-1번지","indutype":"직물 - 침구·수예점","category":"other"}]},{"lat":"37.278542298","long":"127.00270156","imageIndex":17,"items":[{"name":"꽃가마","tel":"031-244-6171","addr":"경기도 수원시 팔달구 화서동 86-1번지","indutype":"유통업 영리 - 기타유통업","category":"other"}]},{"lat":"37.28598256","long":"126.979979","imageIndex":17,"items":[{"name":"꽃단지","tel":"031-252-3303","addr":"경기도 수원시 팔달구 화서동 722-11번지","indutype":"주방용구 - 주방용식기","category":"other"},{"name":"손누비퀼트","tel":"031-227-7982","addr":"경기도 수원시 팔달구 화서동 722-11번지","indutype":"문화.취미 - 문화취미기타","category":"other"}]},{"lat":"37.279983934","long":"127.00158526","imageIndex":17,"items":[{"name":"꽃집 Le fleur","tel":"0131-247-9246","addr":"경기도 수원시 팔달구 화서동 100-12번지","indutype":"문화.취미 - 화원","category":"other"}]},{"lat":"37.278596323","long":"126.99997287","imageIndex":17,"items":[{"name":"꿈자리 이불","tel":"031-253-3365","addr":"경기도 수원시 팔달구 화서동 114-9번지","indutype":"직물 - 침구·수예점","category":"other"},{"name":"노블젠서수원점","tel":"031-252-0412","addr":"경기도 수원시 팔달구 화서동 114-9번지","indutype":"의류 - 기타의류","category":"other"}]},{"lat":"37.285316818","long":"126.98603474","imageIndex":17,"items":[{"name":"나래종합장식","tel":"031-295-9808","addr":"경기도 수원시 팔달구 화서동 685-8번지","indutype":"직물 - 카페트,커튼,천막,지물","category":"other"}]},{"lat":"37.279704522","long":"126.99801084","imageIndex":17,"items":[{"name":"나무공작소초록","tel":"031-293-8422","addr":"경기도 수원시 팔달구 화서동 135-20번지 지하","indutype":"문화.취미 - 문화취미기타","category":"other"}]},{"lat":"37.282542677","long":"126.99636434","imageIndex":17,"items":[{"name":"나무와목수들","tel":"031-244-1122","addr":"경기도 수원시 팔달구 화서동 249-32번지","indutype":"건축자재 - 인테리어전문","category":"other"}]},{"lat":"37.27937119","long":"127.00642255","imageIndex":17,"items":[{"name":"노무법인한샘","tel":"031-248-0365","addr":"경기도 수원시 팔달구 화서동 61-2번지","indutype":"용역 서비스 - 법률회계서비스(법인)","category":"other"}]},{"lat":"37.28176784","long":"126.99725521","imageIndex":17,"items":[{"name":"늘하얀세탁소","tel":"031-242-5554","addr":"경기도 수원시 팔달구 화서동 211-1번지","indutype":"수리서비스 - 세탁소","category":"other"}]},{"lat":"37.285065659","long":"127.00700919","imageIndex":17,"items":[{"name":"다미","tel":"","addr":"경기도 수원시 팔달구 화서동 33-6번지","indutype":"의류 - 정장","category":"other"},{"name":"이현통신","tel":"031-305-9983","addr":"경기도 수원시 팔달구 화서동 33-6번지 1층","indutype":"사무통신 - 통신기기","category":"other"}]},{"lat":"37.280010966","long":"127.00408848","imageIndex":17,"items":[{"name":"다보석","tel":"031-243-9261","addr":"경기도 수원시 팔달구 화서동 71-14번지","indutype":"신변잡화 - 시계","category":"other"}]},{"lat":"37.284623557","long":"126.99028613","imageIndex":17,"items":[{"name":"다온정보통신","tel":"031-253-4665","addr":"경기도 수원시 팔달구 화서동 644-8번지 화서프라자 1층 107호.108호","indutype":"사무통신 - 통신기기","category":"other"},{"name":"클라라피부앤네일","tel":"031-257-5820","addr":"경기도 수원시 팔달구 화서동 644-8번지 화서프라자 601호","indutype":"회원제형태 - 기타4","category":"other"}]},{"lat":"37.278875673","long":"127.00400954","imageIndex":17,"items":[{"name":"다이소 화서사거리점","tel":"031-242-4343","addr":"경기도 수원시 팔달구 화서동 71-117번지 1층, 2층","indutype":"신변잡화 - 기타잡화","category":"other"}]},{"lat":"37.277127419","long":"126.99495538","imageIndex":17,"items":[{"name":"대선철물건재","tel":"031-251-8611","addr":"경기도 수원시 팔달구 화서동 137-4번지","indutype":"건축자재 - 기타건축자재","category":"other"},{"name":"진성씽크","tel":"031-254-5622","addr":"경기도 수원시 팔달구 화서동 137-4번지","indutype":"주방용구 - 주방용구","category":"other"}]},{"lat":"37.284011472","long":"127.00661446","imageIndex":17,"items":[{"name":"대성농원","tel":"031-254-9665","addr":"경기도 수원시 팔달구 화서동 32-17번지","indutype":"문화.취미 - 화원","category":"other"},{"name":"한국타일","tel":"031-257-4544","addr":"경기도 수원시 팔달구 화서동 32-17번지","indutype":"건축자재 - 건축용 요업제품","category":"other"}]},{"lat":"37.284614965","long":"126.99515757","imageIndex":17,"items":[{"name":"대성의류","tel":"","addr":"경기도 수원시 팔달구 화서동 761번지 동문굿모닝힐 102동 403호","indutype":"회원제형태 - 기타4","category":"other"}]},{"lat":"37.279983844","long":"126.99808976","imageIndex":17,"items":[{"name":"대성컴퓨터","tel":"031-251-9119","addr":"경기도 수원시 팔달구 화서동 126-30번지","indutype":"사무통신 - 컴퓨터","category":"other"}]},{"lat":"37.282371392","long":"126.99489845","imageIndex":17,"items":[{"name":"대신만물열쇠","tel":"031-256-4203","addr":"경기도 수원시 팔달구 화서동 245-9번지","indutype":"기타 - 기계공구","category":"other"}]},{"lat":"37.283065121","long":"126.99403011","imageIndex":17,"items":[{"name":"대원인테리어","tel":"031-258-7765","addr":"경기도 수원시 팔달구 화서동 275-1번지","indutype":"건축자재 - 인테리어전문","category":"other"}]},{"lat":"37.285543214","long":"127.00667092","imageIndex":17,"items":[{"name":"대진상사","tel":"031-245-2903","addr":"경기도 수원시 팔달구 화서동 20-7번지","indutype":"전기제품 - 가전제품","category":"other"},{"name":"아키프레임","tel":"070-7136-9500","addr":"경기도 수원시 팔달구 화서동 20-7번지","indutype":"용역 서비스 - 사무서비스","category":"other"}]},{"lat":"37.284902952","long":"126.99103033","imageIndex":17,"items":[{"name":"대한예수교장로회우리총회","tel":"031-241-1845","addr":"경기도 수원시 팔달구 화서동 644-5 그린프라자 506호~509호","indutype":"기타 - 비영리/대상","category":"other"},{"name":"보아화장품","tel":"031-244-2369","addr":"경기도 수원시 팔달구 화서동 644-5번지 그린프라자 113호","indutype":"회원제형태 - 기타4","category":"other"},{"name":"블럭아카데미화서교육원","tel":"031-241-2300","addr":"경기도 수원시 팔달구 화서동 644-5번지 그린프라자 401호","indutype":"서적문구 - 완구점","category":"other"},{"name":"사임당요양원","tel":"031-248-2163","addr":"경기도 수원시 팔달구 화서동 644-5번지 그린프라자 6층 601호","indutype":"기타의료기관 - 기타의료기관 및 기타","category":"other"},{"name":"위드종합행정사무소","tel":"031-243-8832","addr":"경기도 수원시 팔달구 화서동 644-5번지 그린프라자 3층 304-1호","indutype":"용역 서비스 - 법률회계서비스(개인)","category":"other"},{"name":"차이나트레블","tel":"031-222-6221","addr":"경기도 수원시 팔달구 화서동 644-5번지 그린프라자 402-1호","indutype":"여행 - 관광여행","category":"other"},{"name":"청소용품나라","tel":"031-215-3789","addr":"경기도 수원시 팔달구 화서동 644-5번지 그린프라자 3층 305호","indutype":"용역 서비스 - 종합용역","category":"other"},{"name":"크린토피아","tel":"031-245-3926","addr":"경기도 수원시 팔달구 화서동 644-5번지 그린프라자 1층 114호","indutype":"수리서비스 - 세탁소","category":"other"}]},{"lat":"37.282182416","long":"127.00556569","imageIndex":17,"items":[{"name":"더원공조시스템","tel":"031-207-4989","addr":"경기도 수원시 팔달구 화서동 68-19번지 1층","indutype":"전기제품 - 가전제품","category":"other"},{"name":"화서문구","tel":"031-251-6880","addr":"경기도 수원시 팔달구 화서동 68-19번지","indutype":"서적문구 - 문구용품","category":"other"}]},{"lat":"37.286730401","long":"126.97992239","imageIndex":17,"items":[{"name":"도로시","tel":"031-227-3037","addr":"경기도 수원시 팔달구 화서동 723-4번지 103호","indutype":"의류 - 아동의류","category":"other"}]},{"lat":"37.28251558","long":"126.99525928","imageIndex":17,"items":[{"name":"도르르 도자 공방","tel":"031-333-4284","addr":"경기도 수원시 팔달구 화서동 246-2번지 1층 일부","indutype":"문화.취미 - 문화취미기타","category":"other"}]},{"lat":"37.279371232","long":"127.0013372","imageIndex":17,"items":[{"name":"도쿄하우스","tel":"031-248-4420","addr":"경기도 수원시 팔달구 화서동 106-7번지","indutype":"의류 - 정장","category":"other"},{"name":"도쿄하우스","tel":"","addr":"경기도 수원시 팔달구 화서동 106-7번지 1층","indutype":"의류 - 정장","category":"other"}]},{"lat":"37.279263116","long":"127.00200247","imageIndex":17,"items":[{"name":"독도열쇠","tel":"031-256-1991","addr":"경기도 수원시 팔달구 화서동 99-19번지","indutype":"건축자재 - 목재·석재·철물","category":"other"}]},{"lat":"37.284651194","long":"127.00680619","imageIndex":17,"items":[{"name":"동서공업사","tel":"031-246-2214","addr":"경기도 수원시 팔달구 화서동 32-11번지 1층","indutype":"건축자재 - 기타건축자재","category":"other"},{"name":"옷 zip","tel":"031-305-9965","addr":"경기도 수원시 팔달구 화서동 32-11번지 1층","indutype":"의류 - 정장","category":"other"}]},{"lat":"37.280875866","long":"126.99822501","imageIndex":17,"items":[{"name":"동아목재","tel":"031-241-5003","addr":"경기도 수원시 팔달구 화서동 123-7번지","indutype":"건축자재 - 목재·석재·철물","category":"other"},{"name":"영광설비","tel":"031-245-6634","addr":"경기도 수원시 팔달구 화서동 123-7번지","indutype":"수리서비스 - 기타수리서비스","category":"other"}]},{"lat":"37.27995678","long":"126.99733428","imageIndex":17,"items":[{"name":"두리유통","tel":"02-572-6667","addr":"경기도 수원시 팔달구 화서동 209-31번지 전체 1층","indutype":"의류 - 정장","category":"other"}]},{"lat":"37.286543397","long":"127.00488924","imageIndex":17,"items":[{"name":"드림플라워","tel":"031-257-3988","addr":"경기도 수원시 팔달구 화서동 7-11번지 109호","indutype":"문화.취미 - 화원","category":"other"}]},{"lat":"37.279569461","long":"127.00156271","imageIndex":17,"items":[{"name":"디자인블루","tel":"031-245-5365","addr":"경기도 수원시 팔달구 화서동 99-6번지","indutype":"건축자재 - 인테리어전문","category":"other"},{"name":"제일공조","tel":"","addr":"경기도 수원시 팔달구 화서동 99-6번지 1층","indutype":"용역 서비스 - 기타용역서비스","category":"other"}]},{"lat":"37.282317405","long":"126.99609373","imageIndex":17,"items":[{"name":"디자인코우","tel":"031-292-1246","addr":"경기도 수원시 팔달구 화서동 249-16번지 1층","indutype":"서적문구 - 출판 및 인쇄물","category":"other"}]},{"lat":"37.28248849","long":"126.99439101","imageIndex":17,"items":[{"name":"딱다구리","tel":"031-247-0686","addr":"경기도 수원시 팔달구 화서동 244-2번지","indutype":"서적문구 - 문구용품","category":"other"},{"name":"숙지서점","tel":"031-257-1123","addr":"경기도 수원시 팔달구 화서동 244-2번지","indutype":"서적문구 - 일반서적","category":"other"}]},{"lat":"37.280515493","long":"126.99930752","imageIndex":17,"items":[{"name":"라니아기프트","tel":"031-242-9209","addr":"경기도 수원시 팔달구 화서동 118-3번지 중원주택 B동 401호","indutype":"유통업 영리 - 기타유통업","category":"other"}]},{"lat":"37.279100909","long":"127.00044643","imageIndex":17,"items":[{"name":"라벤더 민트","tel":"031-8482-5189","addr":"경기도 수원시 팔달구 화서동 107-4번지 101호","indutype":"신변잡화 - 기타잡화","category":"other"},{"name":"아뜨아","tel":"031-227-9975","addr":"경기도 수원시 팔달구 화서동 107-4번지 1층","indutype":"의류 - 정장","category":"other"}]},{"lat":"37.285875462","long":"126.98609099","imageIndex":17,"items":[{"name":"라임펫아쿠아","tel":"070-7722-7733","addr":"경기도 수원시 팔달구 화서동 685-13번지","indutype":"문화.취미 - 수족관","category":"other"}]},{"lat":"37.288596852","long":"126.98828942","imageIndex":17,"items":[{"name":"랩시스텍","tel":"031-278-5398","addr":"경기도 수원시 팔달구 화서동 675-2번지 102호","indutype":"서적문구 - 과학기자재","category":"other"}]},{"lat":"37.280515034","long":"126.99186544","imageIndex":17,"items":[{"name":"레저컴퍼니","tel":"031-271-2800","addr":"경기도 수원시 팔달구 화서동 223-18번지 B동 1층","indutype":"레져용품 - 스포츠·레져용품","category":"other"}]},{"lat":"37.278875677","long":"127.00250988","imageIndex":17,"items":[{"name":"로그인 수원화서점","tel":"031-225-9956","addr":"경기도 수원시 팔달구 화서동 92-4번지 102호","indutype":"유통업 영리 - 편 의 점","category":"other"}]},{"lat":"37.283822258","long":"127.00655807","imageIndex":17,"items":[{"name":"로페로","tel":"031-242-4752","addr":"경기도 수원시 팔달구 화서동 32-14번지 2층","indutype":"의류 - 정장","category":"other"},{"name":"쿤펫","tel":"","addr":"경기도 수원시 팔달구 화서동 32-14번지 1층","indutype":"문화.취미 - 애완동물","category":"other"}]},{"lat":"37.286315914","long":"126.97984358","imageIndex":17,"items":[{"name":"리틀리더","tel":"070-4117-5077","addr":"경기도 수원시 팔달구 화서동 722-6번지","indutype":"회원제형태 - 서적","category":"other"}]},{"lat":"37.287291205","long":"126.99911549","imageIndex":17,"items":[{"name":"리폼하우스","tel":"031-257-7798","addr":"경기도 수원시 팔달구 화서동 339-4번지 1층 호","indutype":"수리서비스 - 세탁소","category":"other"}]},{"lat":"37.285595163","long":"126.98020465","imageIndex":17,"items":[{"name":"마리나","tel":"070-4922-1261","addr":"경기도 수원시 팔달구 화서동 724-2번지 102호","indutype":"의류 - 정장","category":"other"}]},{"lat":"37.28092985","long":"126.99655617","imageIndex":17,"items":[{"name":"마시멜로","tel":"070-4126-8297","addr":"경기도 수원시 팔달구 화서동 206번지","indutype":"의류 - 정장","category":"other"},{"name":"영광철물건재","tel":"031-242-8310","addr":"경기도 수원시 팔달구 화서동 206번지","indutype":"건축자재 - 기타건축자재","category":"other"}]},{"lat":"37.286126698","long":"126.97984364","imageIndex":17,"items":[{"name":"마욜세라믹","tel":"031-278-3327","addr":"경기도 수원시 팔달구 화서동 722-12번지","indutype":"문화.취미 - 문화취미기타","category":"other"}]},{"lat":"37.278569307","long":"127.00061558","imageIndex":17,"items":[{"name":"마운티아","tel":"031-256-6331","addr":"경기도 수원시 팔달구 화서동 108-2번지 1층","indutype":"레져용품 - 스포츠·레져용품","category":"other"},{"name":"현대전기철물","tel":"031-245-2683","addr":"경기도 수원시 팔달구 화서동 108-2","indutype":"건축자재 - 목재·석재·철물","category":"other"}]},{"lat":"37.278875678","long":"127.00281432","imageIndex":17,"items":[{"name":"마이베이비(my baby)","tel":"031-111-1111","addr":"경기도 수원시 팔달구 화서동 71-101번지 1층","indutype":"문화.취미 - 애완동물","category":"other"},{"name":"쌈지","tel":"070-4103-8898","addr":"경기도 수원시 팔달구 화서동 71-101번지","indutype":"신변잡화 - 신발","category":"other"},{"name":"올리비아하슬러수원화서","tel":"031-248-6766","addr":"경기도 수원시 팔달구 화서동 71-101번지","indutype":"의류 - 스포츠의류","category":"other"}]},{"lat":"37.286369931","long":"126.97961803","imageIndex":17,"items":[{"name":"말라가(Malaga)","tel":"070-7719-7009","addr":"경기도 수원시 팔달구 화서동 722-14번지 15, 화서동 202호","indutype":"의류 - 정장","category":"other"}]},{"lat":"37.282182159","long":"126.99463912","imageIndex":17,"items":[{"name":"맵시","tel":"031-252-5402","addr":"경기도 수원시 팔달구 화서동 244-16번지 현대프라자 102호","indutype":"의류 - 정장","category":"other"}]},{"lat":"37.280434455","long":"127.00281432","imageIndex":17,"items":[{"name":"메이저크린세탁소","tel":"031-241-9925","addr":"경기도 수원시 팔달구 화서동 71-32번지 진흥빌딩 101호","indutype":"수리서비스 - 세탁소","category":"other"}]},{"lat":"37.28201097","long":"126.99472935","imageIndex":17,"items":[{"name":"메이저타운","tel":"031-253-0622","addr":"경기도 수원시 팔달구 화서동 244-3번지","indutype":"수리서비스 - 세탁소","category":"other"}]},{"lat":"37.278821596","long":"127.005092","imageIndex":17,"items":[{"name":"메이플 뮤직","tel":"031-257-2805","addr":"경기도 수원시 팔달구 화서동 62-17번지","indutype":"기타 - 기타 전문점","category":"other"}]},{"lat":"37.277767247","long":"126.99659026","imageIndex":17,"items":[{"name":"명 인테리어","tel":"031-243-3755","addr":"경기도 수원시 팔달구 화서동 121-5번지","indutype":"직물 - 카페트,커튼,천막,지물","category":"other"},{"name":"신세계광고","tel":"031-241-0272","addr":"경기도 수원시 팔달구 화서동 121-5번지","indutype":"용역 서비스 - 종합용역","category":"other"},{"name":"아크토피아","tel":"031-244-5631","addr":"경기도 수원시 팔달구 화서동 121-5번지","indutype":"기타 - 기타 전문점","category":"other"},{"name":"청인나라","tel":"031-246-1161","addr":"경기도 수원시 팔달구 화서동 121-5번지","indutype":"농업 - 비료,사료,종자","category":"other"}]},{"lat":"37.283209426","long":"126.99617258","imageIndex":17,"items":[{"name":"명수선맞춤","tel":"031-248-3326","addr":"경기도 수원시 팔달구 화서동 272-7번지","indutype":"수리서비스 - 세탁소","category":"other"}]},{"lat":"37.27795662","long":"127.00133723","imageIndex":17,"items":[{"name":"명품구제갤러리","tel":"","addr":"경기도 수원시 팔달구 화서동 109-4번지 1층","indutype":"의류 - 기타의류","category":"other"},{"name":"에스룸 (S-ROOM)","tel":"031-244-9895","addr":"경기도 수원시 팔달구 화서동 109-4번지","indutype":"의류 - 정장","category":"other"}]},{"lat":"37.284155633","long":"127.0066934","imageIndex":17,"items":[{"name":"명품악기사","tel":"031-244-8334","addr":"경기도 수원시 팔달구 화서동 32-6번지","indutype":"레져용품 - 악기점","category":"other"},{"name":"수원상사","tel":"031-247-8180","addr":"경기도 수원시 팔달구 화서동 32-6번지","indutype":"가구 - 기타가구","category":"other"},{"name":"태경시스템","tel":"031-223-1982","addr":"경기도 수원시 팔달구 화서동 32-6번지 1층","indutype":"가구 - 일반가구","category":"other"}]},{"lat":"37.278434174","long":"127.00272411","imageIndex":17,"items":[{"name":"미건의료기 화서지점","tel":"031-245-7100","addr":"경기도 수원시 팔달구 화서동 86-4번지 2층","indutype":"기타의료기관 - 기타의료기관 및 기타","category":"other"},{"name":"퍼스트올로 수원화서점","tel":"031-242-9055","addr":"경기도 수원시 팔달구 화서동 86-4번지","indutype":"의류 - 내의판매","category":"other"}]},{"lat":"37.280902938","long":"127.00633241","imageIndex":17,"items":[{"name":"미니스톱 수원병무청점","tel":"031-1577-9621","addr":"경기도 수원시 팔달구 화서동 58-3번지 동원블루밍 101동 201호","indutype":"유통업 영리 - 편 의 점","category":"other"},{"name":"애드플러스","tel":"031-222-1973","addr":"경기도 수원시 팔달구 화서동 58-3번지 동원블루밍 102동 201호","indutype":"신변잡화 - 기타잡화","category":"other"}]},{"lat":"37.281650697","long":"126.99706353","imageIndex":17,"items":[{"name":"미니스톱화서골드점","tel":"031-1577-9621","addr":"경기도 수원시 팔달구 화서동 211-7번지 1층","indutype":"유통업 영리 - 편 의 점","category":"other"}]},{"lat":"37.281065169","long":"127.00183331","imageIndex":17,"items":[{"name":"미르중문","tel":"","addr":"경기도 수원시 팔달구 화서동 103-5번지 진주택 305호","indutype":"용역 서비스 - 기타용역서비스","category":"other"}]},{"lat":"37.27634355","long":"126.99533883","imageIndex":17,"items":[{"name":"미문데코시트","tel":"031-245-1325","addr":"경기도 수원시 팔달구 화서동 184-302번지","indutype":"용역 서비스 - 종합용역","category":"other"}]},{"lat":"37.285488091","long":"126.98658725","imageIndex":17,"items":[{"name":"미소마트","tel":"031-296-8824","addr":"경기도 수원시 팔달구 화서동 686-8번지","indutype":"유통업 영리 - 편 의 점","category":"other"}]},{"lat":"37.287092251","long":"126.98922569","imageIndex":17,"items":[{"name":"민낯","tel":"031-241-2783","addr":"경기도 수원시 팔달구 화서동 679-16번지","indutype":"신변잡화 - 기타잡화","category":"other"}]},{"lat":"37.278848579","long":"126.9988904","imageIndex":17,"items":[{"name":"믿음열쇠","tel":"031-247-1088","addr":"경기도 수원시 팔달구 화서동 174-5번지 1층","indutype":"수리서비스 - 기타수리서비스","category":"other"},{"name":"온누리컴퓨터","tel":"031-252-3119","addr":"경기도 수원시 팔달구 화서동 174-5번지","indutype":"사무통신 - 컴퓨터","category":"other"}]},{"lat":"37.279623478","long":"127.00642256","imageIndex":17,"items":[{"name":"밀알기획","tel":"031-246-9585","addr":"경기도 수원시 팔달구 화서동 61-1번지","indutype":"용역 서비스 - 종합용역","category":"other"}]},{"lat":"37.282155371","long":"127.00614077","imageIndex":17,"items":[{"name":"바오로성물","tel":"031-225-9775","addr":"경기도 수원시 팔달구 화서동 57-4번지","indutype":"문화.취미 - 문화취미기타","category":"other"},{"name":"아내사랑","tel":"031-246-2877","addr":"경기도 수원시 팔달구 화서동 57-4번지 1층","indutype":"주방용구 - 주방용구","category":"other"}]},{"lat":"37.285344982","long":"127.00686261","imageIndex":17,"items":[{"name":"박종화애견","tel":"031-242-7970","addr":"경기도 수원시 팔달구 화서동 20-2번지","indutype":"문화.취미 - 애완동물","category":"other"},{"name":"수원은빛요양원","tel":"031-253-2880","addr":"경기도 수원시 팔달구 화서동 20-2번지","indutype":"기타의료기관 - 기타의료기관 및 기타","category":"other"}]},{"lat":"37.286036547","long":"126.97959558","imageIndex":17,"items":[{"name":"반쪽이공방","tel":"031-278-3357","addr":"경기도 수원시 팔달구 화서동 721-7번지 1층","indutype":"가구 - 일반가구","category":"other"}]},{"lat":"37.278127801","long":"127.00050284","imageIndex":17,"items":[{"name":"밤비노아동복","tel":"031-246-1265","addr":"경기도 수원시 팔달구 화서동 109-3번지","indutype":"의류 - 아동의류","category":"other"},{"name":"빤쮸속옷멀티샵","tel":"","addr":"경기도 수원시 팔달구 화서동 109-3번지","indutype":"의류 - 내의판매","category":"other"}]},{"lat":"37.281064924","long":"126.99520304","imageIndex":17,"items":[{"name":"백마크리닝 화서점","tel":"031-243-2872","addr":"경기도 수원시 팔달구 화서동 219-1번지","indutype":"수리서비스 - 세탁소","category":"other"}]},{"lat":"37.279569443","long":"127.00534008","imageIndex":17,"items":[{"name":"백전기조명","tel":"032-421-2994","addr":"경기도 수원시 팔달구 화서동 64-22번지 1층 101호","indutype":"건축자재 - 조명기구","category":"other"}]},{"lat":"37.278875658","long":"127.00075088","imageIndex":17,"items":[{"name":"백조씽크","tel":"031-242-2820","addr":"경기도 수원시 팔달구 화서동 107-6번지","indutype":"주방용구 - 주방용구","category":"other"},{"name":"아날도 바시니(화서점)","tel":"031-278-2227","addr":"경기도 수원시 팔달구 화서동 107-6번지","indutype":"의류 - 정장","category":"other"}]},{"lat":"37.280767618","long":"126.99573304","imageIndex":17,"items":[{"name":"버블세탁체인","tel":"031-252-2260","addr":"경기도 수원시 팔달구 화서동 202-11번지 1층","indutype":"수리서비스 - 세탁소","category":"other"}]},{"lat":"37.287858887","long":"127.0004687","imageIndex":17,"items":[{"name":"복주머니","tel":"","addr":"경기도 수원시 팔달구 화서동 743번지 화서위브하늘채 102동 101호","indutype":"회원제형태 - 기타4","category":"other"}]},{"lat":"37.279235885","long":"126.99594742","imageIndex":17,"items":[{"name":"봄상회","tel":"","addr":"경기도 수원시 팔달구 화서동 188번지","indutype":"신변잡화 - 기타잡화","category":"other"},{"name":"사과","tel":"","addr":"경기도 수원시 팔달구 화서동 188번지 1층","indutype":"직물 - 침구·수예점","category":"other"}]},{"lat":"37.280398404","long":"127.00437039","imageIndex":17,"items":[{"name":"봄의정원","tel":"031-241-1665","addr":"경기도 수원시 팔달구 화서동 71-62번지","indutype":"문화.취미 - 화원","category":"other"},{"name":"아이앤티","tel":"031-241-1688","addr":"경기도 수원시 팔달구 화서동 71-62번지","indutype":"사무통신 - 통신기기","category":"other"}]},{"lat":"37.280569557","long":"127.00638877","imageIndex":17,"items":[{"name":"붐탁구용품","tel":"031-248-6825","addr":"경기도 수원시 팔달구 화서동 60-16번지","indutype":"레져용품 - 스포츠·레져용품","category":"other"}]},{"lat":"37.279407135","long":"126.99695095","imageIndex":17,"items":[{"name":"비앤비스타","tel":"041-578-2811","addr":"경기도 수원시 팔달구 화서동 186-11번지 501호","indutype":"의류 - 정장","category":"other"}]},{"lat":"37.283705174","long":"127.00420131","imageIndex":17,"items":[{"name":"비엔씨정보","tel":"031-207-4336","addr":"경기도 수원시 팔달구 화서동 40-2번지 2층","indutype":"수리서비스 - 사무·통신기기수리","category":"other"}]},{"lat":"37.288038296","long":"126.98895487","imageIndex":17,"items":[{"name":"비엠에스테크","tel":"031-268-6801","addr":"경기도 수원시 팔달구 화서동 677-3번지","indutype":"기타 - 기타 전문점","category":"other"}]},{"lat":"37.278317041","long":"127.00311876","imageIndex":17,"items":[{"name":"비와이씨(BYC)","tel":"031-242-8909","addr":"경기도 수원시 팔달구 화서동 86-2번지","indutype":"의류 - 내의판매","category":"other"}]},{"lat":"37.281461468","long":"126.99678164","imageIndex":17,"items":[{"name":"비와이씨화서블루밍점","tel":"031-253-6200","addr":"경기도 수원시 팔달구 화서동 211-5번지","indutype":"의류 - 내의판매","category":"other"}]},{"lat":"37.279875818","long":"127.00281432","imageIndex":17,"items":[{"name":"비쥬피부관리실","tel":"031-252-8996","addr":"경기도 수원시 팔달구 화서동 71-161번지 1층","indutype":"회원제형태 - 기타4","category":"other"}]},{"lat":"37.286758893","long":"126.98941746","imageIndex":17,"items":[{"name":"비즈노블 에어팡","tel":"070-8200-3524","addr":"경기도 수원시 팔달구 화서동 679-13번지 202호","indutype":"용역 서비스 - 기타용역서비스","category":"other"}]},{"lat":"37.280650658","long":"126.99970217","imageIndex":17,"items":[{"name":"빗물엔지니어링","tel":"031-000-0000","addr":"경기도 수원시 팔달구 화서동 119-21번지 4층","indutype":"기타 - 기계공구","category":"other"}]},{"lat":"37.280344111","long":"126.99533843","imageIndex":17,"items":[{"name":"사계절영상스튜디오","tel":"070-4225-1733","addr":"경기도 수원시 팔달구 화서동 202-15번지","indutype":"광학제품 - 사진관","category":"other"}]},{"lat":"37.28265067","long":"126.99431206","imageIndex":17,"items":[{"name":"사진마을","tel":"031-251-6911","addr":"경기도 수원시 팔달구 화서동 275-20번지","indutype":"광학제품 - 사진관","category":"other"}]},{"lat":"37.278073683","long":"126.99852962","imageIndex":17,"items":[{"name":"상아팩토리","tel":"031-245-8778","addr":"경기도 수원시 팔달구 화서동 175-16번지","indutype":"사무통신 - 기타 사무용품","category":"other"}]},{"lat":"37.279623526","long":"127.00389679","imageIndex":17,"items":[{"name":"상전사","tel":"031-244-9505","addr":"경기도 수원시 팔달구 화서동 71-89번지","indutype":"회원제형태 - 기타1","category":"other"}]},{"lat":"37.283011345","long":"127.00617464","imageIndex":17,"items":[{"name":"서문타이루","tel":"031-257-9886","addr":"경기도 수원시 팔달구 화서동 69-1번지","indutype":"건축자재 - 건축용 요업제품","category":"other"}]},{"lat":"37.2812904","long":"127.00556566","imageIndex":17,"items":[{"name":"서문피아노","tel":"031-255-6654","addr":"경기도 수원시 팔달구 화서동 67-14번지 연준빌","indutype":"레져용품 - 피아노대리점","category":"other"}]},{"lat":"37.277983583","long":"126.99858601","imageIndex":17,"items":[{"name":"서울수입코너","tel":"031-256-5874","addr":"경기도 수원시 팔달구 화서동 175-17번지 1층","indutype":"의류 - 정장","category":"other"}]},{"lat":"37.280010962","long":"127.00139357","imageIndex":17,"items":[{"name":"선물(도로시)","tel":"031-244-8011","addr":"경기도 수원시 팔달구 화서동 105-18번지","indutype":"유통업 영리 - 기타유통업","category":"other"}]},{"lat":"37.279488338","long":"126.99987135","imageIndex":17,"items":[{"name":"선우과학상사","tel":"031-247-5511","addr":"경기도 수원시 팔달구 화서동 116-15번지","indutype":"서적문구 - 과학기자재","category":"other"}]},{"lat":"37.284822445","long":"127.00433664","imageIndex":17,"items":[{"name":"성민유통","tel":"031-256-1557","addr":"경기도 수원시 팔달구 화서동 11-11번지 화서성원상떼빌 상가동 103호","indutype":"문화.취미 - 민예·공예품","category":"other"}]},{"lat":"37.277767414","long":"127.00245351","imageIndex":17,"items":[{"name":"성화침구","tel":"031-244-7327","addr":"경기도 수원시 팔달구 화서동 96-1번지","indutype":"직물 - 침구·수예점","category":"other"}]},{"lat":"37.277488096","long":"127.00308493","imageIndex":17,"items":[{"name":"세광사","tel":"031-242-8689","addr":"경기도 수원시 팔달구 화서동 93-11번지","indutype":"서적문구 - 출판 및 인쇄물","category":"other"}]},{"lat":"37.282263491","long":"127.00625354","imageIndex":17,"items":[{"name":"세림목재","tel":"031-247-5392","addr":"경기도 수원시 팔달구 화서동 57-9번지","indutype":"건축자재 - 기타건축자재","category":"other"}]},{"lat":"37.278875675","long":"127.00209268","imageIndex":17,"items":[{"name":"세사리빙화서점","tel":"031-255-5006","addr":"경기도 수원시 팔달구 화서동 98-14번지","indutype":"직물 - 침구·수예점","category":"other"}]},{"lat":"37.277370782","long":"126.99636478","imageIndex":17,"items":[{"name":"세종건설","tel":"031-245-8785","addr":"경기도 수원시 팔달구 화서동 184-265번지 2층","indutype":"용역 서비스 - 기타용역서비스","category":"other"}]},{"lat":"37.278181844","long":"126.99972482","imageIndex":17,"items":[{"name":"소풍","tel":"070-4922-1261","addr":"경기도 수원시 팔달구 화서동 113-10번지 1층","indutype":"의류 - 정장","category":"other"}]},{"lat":"37.277127554","long":"126.99733449","imageIndex":17,"items":[{"name":"수도설비건재","tel":"031-255-7778","addr":"경기도 수원시 팔달구 화서동 184-313번지","indutype":"건축자재 - 기타건축자재","category":"other"}]},{"lat":"37.285038067","long":"126.99064691","imageIndex":17,"items":[{"name":"수원 제일리젠","tel":"031-241-9200","addr":"경기도 수원시 팔달구 화서동 644-3번지 6층","indutype":"기타의료기관 - 산후조리원","category":"other"},{"name":"수원제일우먼스","tel":"031-253-3011","addr":"경기도 수원시 팔달구 화서동 644-3번지","indutype":"기타의료기관 - 산후조리원","category":"other"}]},{"lat":"37.278848641","long":"127.00411102","imageIndex":17,"items":[{"name":"수원쇼파","tel":"031-251-2234","addr":"경기도 수원시 팔달구 화서동 71-147번지","indutype":"가구 - 일반가구","category":"other"}]},{"lat":"37.283290393","long":"126.99423305","imageIndex":17,"items":[{"name":"수원시니어클럽","tel":"031-202-1435","addr":"경기도 수원시 팔달구 화서동 277-2번지","indutype":"신변잡화 - 기타잡화","category":"other"}]},{"lat":"37.282290538","long":"127.0056108","imageIndex":17,"items":[{"name":"수원정보통신","tel":"031-223-8811","addr":"경기도 수원시 팔달구 화서동 68-18번지 301호","indutype":"수리서비스 - 사무·통신기기수리","category":"other"},{"name":"수인선원","tel":"031-890-1353","addr":"경기도 수원시 팔달구 화서동 68-18번지","indutype":"회원제형태 - 레져업소","category":"other"},{"name":"윤슬청소년지역아동센터","tel":"031-252-7982","addr":"경기도 수원시 팔달구 화서동 68-18번지","indutype":"기타 - 비영리/대상","category":"other"}]},{"lat":"37.277262597","long":"126.99531618","imageIndex":17,"items":[{"name":"수원청보","tel":"","addr":"경기도 수원시 팔달구 화서동 150-3번지 1층","indutype":"신변잡화 - 기타잡화","category":"other"},{"name":"해피투포인트","tel":"031-479-4744","addr":"경기도 수원시 팔달구 화서동 150-3번지 3층","indutype":"사무통신 - 컴퓨터","category":"other"}]},{"lat":"37.280101071","long":"127.00386297","imageIndex":17,"items":[{"name":"수정보통신","tel":"031-893-0807","addr":"경기도 수원시 팔달구 화서동 71-19번지 1층 101호","indutype":"사무통신 - 통신기기","category":"other"}]},{"lat":"37.278262819","long":"126.99672553","imageIndex":17,"items":[{"name":"수컴퍼니","tel":"","addr":"경기도 수원시 팔달구 화서동 170-32번지","indutype":"신변잡화 - 기타잡화","category":"other"}]},{"lat":"37.278542298","long":"127.00281432","imageIndex":17,"items":[{"name":"스테파니","tel":"031-247-8826","addr":"경기도 수원시 팔달구 화서동 71-132번지 165","indutype":"레져용품 - 스포츠·레져용품","category":"other"},{"name":"신진천막공업사","tel":"031-254-1390","addr":"경기도 수원시 팔달구 화서동 71-132번지","indutype":"직물 - 카페트,커튼,천막,지물","category":"other"}]},{"lat":"37.285703316","long":"126.98036249","imageIndex":17,"items":[{"name":"스튜디오4CATS","tel":"070-4177-2067","addr":"경기도 수원시 팔달구 화서동 724-3번지 한영빌딩 302호","indutype":"광학제품 - 사진관","category":"other"},{"name":"정광당","tel":"031-291-2800","addr":"경기도 수원시 팔달구 화서동 724-3번지 한영빌딩 1층 103호","indutype":"신변잡화 - 시계","category":"other"}]},{"lat":"37.276433699","long":"126.99609426","imageIndex":17,"items":[{"name":"승일","tel":"031-257-4021","addr":"경기도 수원시 팔달구 화서동 184-252번지","indutype":"서적문구 - 과학기자재","category":"other"}]},{"lat":"37.283155548","long":"127.0042013","imageIndex":17,"items":[{"name":"신광세탁소","tel":"031-269-1753","addr":"경기도 수원시 팔달구 화서동 79-22번지 지하1층","indutype":"수리서비스 - 세탁소","category":"other"}]},{"lat":"37.281101071","long":"126.99706357","imageIndex":17,"items":[{"name":"신데렐라","tel":"031-257-1015","addr":"경기도 수원시 팔달구 화서동 206-8번지 신우 상가 112호","indutype":"의류 - 정장","category":"other"}]},{"lat":"37.280596604","long":"127.00577988","imageIndex":17,"items":[{"name":"씨에이치 에어테크(CH 에어테크)","tel":"031-248-7621","addr":"경기도 수원시 팔달구 화서동 65-1번지 1층","indutype":"전기제품 - 냉열기기","category":"other"}]},{"lat":"37.282038253","long":"127.00553186","imageIndex":17,"items":[{"name":"씨유수원팔달로점","tel":"031-252-0514","addr":"경기도 수원시 팔달구 화서동 68-17번지 1층","indutype":"유통업 영리 - 편 의 점","category":"other"}]},{"lat":"37.280569357","long":"126.99516926","imageIndex":17,"items":[{"name":"씨유수원화서영광점","tel":"031-251-4180","addr":"경기도 수원시 팔달구 화서동 219-20번지","indutype":"유통업 영리 - 편 의 점","category":"other"},{"name":"에스피노","tel":"031-243-5253","addr":"경기도 수원시 팔달구 화서동 219-20번지 1층","indutype":"문화.취미 - 화원","category":"other"}]},{"lat":"37.28239869","long":"127.00203626","imageIndex":17,"items":[{"name":"씨유화서블루밍점","tel":"080-080-3663","addr":"경기도 수원시 팔달구 화서동 81-48번지 1층","indutype":"유통업 영리 - 편 의 점","category":"other"}]},{"lat":"37.278010551","long":"126.99712019","imageIndex":17,"items":[{"name":"씨유화서스카이점","tel":"031-241-1912","addr":"경기도 수원시 팔달구 화서동 184-223번지 1층","indutype":"유통업 영리 - 편 의 점","category":"other"}]},{"lat":"37.28809312","long":"126.99919439","imageIndex":17,"items":[{"name":"씨유화서위브점","tel":"080-080-3663","addr":"경기도 수원시 팔달구 화서동 346-5번지","indutype":"유통업 영리 - 편 의 점","category":"other"}]},{"lat":"37.281263382","long":"127.00492293","imageIndex":17,"items":[{"name":"아랑주","tel":"031-253-9612","addr":"경기도 수원시 팔달구 화서동 70-7번지 부성빌딩 101호","indutype":"직물 - 침구·수예점","category":"other"},{"name":"제이디스포츠","tel":"031-111-1111","addr":"경기도 수원시 팔달구 화서동 70-7번지 부성빌딩 2층 202호","indutype":"레져용품 - 스포츠·레져용품","category":"other"}]},{"lat":"37.279515354","long":"127.00642255","imageIndex":17,"items":[{"name":"아이컴","tel":"031-254-8842","addr":"경기도 수원시 팔달구 화서동 61-31번지","indutype":"사무통신 - 컴퓨터","category":"other"}]},{"lat":"37.278488226","long":"127.00133722","imageIndex":17,"items":[{"name":"아일랜드아동복","tel":"031-233-0933","addr":"경기도 수원시 팔달구 화서동 108-4번지 1층","indutype":"의류 - 아동의류","category":"other"},{"name":"트래디","tel":"031-243-6193","addr":"경기도 수원시 팔달구 화서동 108-4번지 1층 102호","indutype":"의류 - 정장","category":"other"}]},{"lat":"37.278235863","long":"126.99839431","imageIndex":17,"items":[{"name":"아트종합장식","tel":"031-256-3942","addr":"경기도 수원시 팔달구 화서동 175-14번지","indutype":"직물 - 카페트,커튼,천막,지물","category":"other"}]},{"lat":"37.277902505","long":"126.9990032","imageIndex":17,"items":[{"name":"앰브이피구제","tel":"031-257-5375","addr":"경기도 수원시 팔달구 화서동 180-5번지","indutype":"의류 - 기타의류","category":"other"}]},{"lat":"37.285460124","long":"126.98081363","imageIndex":17,"items":[{"name":"어라운드스터디룸 수원점","tel":"031-1111-1111","addr":"경기도 수원시 팔달구 화서동 725-4번지 한샘빌딩 2층","indutype":"용역 서비스 - 사무서비스","category":"other"}]},{"lat":"37.277767339","long":"126.99867622","imageIndex":17,"items":[{"name":"언니요기(UNNIYOGI)","tel":"","addr":"경기도 수원시 팔달구 화서동 180-13번지 1층","indutype":"의류 - 정장","category":"other"}]},{"lat":"37.279127935","long":"127.00019836","imageIndex":17,"items":[{"name":"에이비씨수입마을(ABC수입마을)","tel":"031-243-4984","addr":"경기도 수원시 팔달구 화서동 115-1번지 1층","indutype":"의류 - 정장","category":"other"}]},{"lat":"37.281101189","long":"127.00536269","imageIndex":17,"items":[{"name":"에이스유통","tel":"031-244-1177","addr":"경기도 수원시 팔달구 화서동 67-17번지","indutype":"의류 - 정장","category":"other"},{"name":"우리시대","tel":"031-214-0668","addr":"경기도 수원시 팔달구 화서동 67-17번지 외1필지","indutype":"의류 - 정장","category":"other"}]},{"lat":"37.283497557","long":"126.9932971","imageIndex":17,"items":[{"name":"엘지설치센터군포점","tel":"02-495-3061","addr":"경기도 수원시 팔달구 화서동 650번지 화서주공아파트 412동 1201호","indutype":"용역 서비스 - 기타용역서비스","category":"other"}]},{"lat":"37.286234799","long":"126.97973084","imageIndex":17,"items":[{"name":"엠앤에치의료기","tel":"031-252-7577","addr":"경기도 수원시 팔달구 화서동 722-13번지 1층","indutype":"기타의료기관 - 기타의료기관 및 기타","category":"other"}]},{"lat":"37.278569314","long":"127.00105533","imageIndex":17,"items":[{"name":"엠지(MG)핸드폰아울렛","tel":"031-248-3334","addr":"경기도 수원시 팔달구 화서동 108-8,9","indutype":"사무통신 - 통신기기","category":"other"}]},{"lat":"37.280154902","long":"126.9954512","imageIndex":17,"items":[{"name":"여행길","tel":"031-244-6003","addr":"경기도 수원시 팔달구 화서동 201-1번지","indutype":"여행 - 관광여행","category":"other"}]},{"lat":"37.285487","long":"126.9800017","imageIndex":17,"items":[{"name":"연수텔레콤","tel":"031-296-6010","addr":"경기도 수원시 팔달구 화서동 724-1번지 현승빌딩 101호","indutype":"사무통신 - 통신기기","category":"other"}]},{"lat":"37.2861818","long":"126.98601199","imageIndex":17,"items":[{"name":"연합꾼","tel":"031-291-2816","addr":"경기도 수원시 팔달구 화서동 685-1번지","indutype":"건축자재 - 건축용 요업제품","category":"other"}]},{"lat":"37.285288975","long":"126.98106176","imageIndex":17,"items":[{"name":"예삐꽃방/수원2호화서점","tel":"031-298-1083","addr":"경기도 수원시 팔달구 화서동 726-4번지 오른쪽상가 1층","indutype":"문화.취미 - 화원","category":"other"}]},{"lat":"37.282371491","long":"126.9965335","imageIndex":17,"items":[{"name":"예스타일","tel":"031-253-8997","addr":"경기도 수원시 팔달구 화서동 249-4번지 1층","indutype":"건축자재 - 건축용 요업제품","category":"other"}]},{"lat":"37.278461115","long":"126.99825899","imageIndex":17,"items":[{"name":"오거리오토바이","tel":"031-247-9334","addr":"경기도 수원시 팔달구 화서동 174-6번지","indutype":"수리서비스 - 레져용품수리","category":"other"}]},{"lat":"37.278371003","long":"126.99803348","imageIndex":17,"items":[{"name":"오거리지업사","tel":"031-243-8180","addr":"경기도 수원시 팔달구 화서동 184-185번지","indutype":"직물 - 카페트,커튼,천막,지물","category":"other"}]},{"lat":"37.278569282","long":"126.99955567","imageIndex":17,"items":[{"name":"오거리통신","tel":"031-241-2788","addr":"경기도 수원시 팔달구 화서동 114-2번지","indutype":"사무통신 - 통신기기","category":"other"}]},{"lat":"37.281596633","long":"126.99700715","imageIndex":17,"items":[{"name":"오리네옷방","tel":"031-893-5849","addr":"경기도 수원시 팔달구 화서동 211-3번지 1층","indutype":"의류 - 정장","category":"other"}]},{"lat":"37.279344142","long":"126.99883399","imageIndex":17,"items":[{"name":"오복문화사","tel":"031-242-3548","addr":"경기도 수원시 팔달구 화서동 134-15번지 1층","indutype":"서적문구 - 출판 및 인쇄물","category":"other"}]},{"lat":"37.281930117","long":"127.006028","imageIndex":17,"items":[{"name":"오성상사","tel":"031-241-9575","addr":"경기도 수원시 팔달구 화서동 57-11번지","indutype":"직물 - 카페트,커튼,천막,지물","category":"other"}]},{"lat":"37.277433812","long":"126.99564315","imageIndex":17,"items":[{"name":"오성종합광고사","tel":"031-253-8589","addr":"경기도 수원시 팔달구 화서동 166-18번지","indutype":"용역 서비스 - 종합용역","category":"other"}]},{"lat":"37.283263503","long":"126.99645449","imageIndex":17,"items":[{"name":"옥산종합설비공사","tel":"","addr":"경기도 수원시 팔달구 화서동 272-13번지 건우빌라 402호","indutype":"용역 서비스 - 기타용역서비스","category":"other"}]},{"lat":"37.287209844","long":"126.99406345","imageIndex":17,"items":[{"name":"온누리플라워","tel":"031-256-5992","addr":"경기도 수원시 팔달구 화서동 357-5번지","indutype":"문화.취미 - 화원","category":"other"}]},{"lat":"37.278371092","long":"127.00128084","imageIndex":17,"items":[{"name":"올리비아서수원점","tel":"031-252-1549","addr":"경기도 수원시 팔달구 화서동 108-6번지","indutype":"직물 - 침구·수예점","category":"other"}]},{"lat":"37.281209338","long":"127.00297218","imageIndex":17,"items":[{"name":"우리렌탈","tel":"031-221-6404","addr":"경기도 수원시 팔달구 화서동 84-24번지","indutype":"용역 서비스 - 종합용역","category":"other"}]},{"lat":"37.287371575","long":"126.98928203","imageIndex":17,"items":[{"name":"우리마트","tel":"031-271-3523","addr":"경기도 수원시 팔달구 화서동 678-2번지 우영프라자 104호","indutype":"유통업 영리 - 편 의 점","category":"other"}]},{"lat":"37.282344389","long":"126.99531567","imageIndex":17,"items":[{"name":"우성ENG","tel":"","addr":"경기도 수원시 팔달구 화서동 245-18번지 1층","indutype":"용역 서비스 - 기타용역서비스","category":"other"}]},{"lat":"37.278929739","long":"127.00308493","imageIndex":17,"items":[{"name":"울포유화서점","tel":"031-256-2995","addr":"경기도 수원시 팔달구 화서동 71-51번지","indutype":"레져용품 - 스포츠·레져용품","category":"other"}]},{"lat":"37.280263187","long":"126.99875501","imageIndex":17,"items":[{"name":"월드꽃도매","tel":"031-237-6331","addr":"경기도 수원시 팔달구 화서동 118-7번지 1층","indutype":"문화.취미 - 화원","category":"other"}]},{"lat":"37.284876012","long":"126.99197757","imageIndex":17,"items":[{"name":"월드제이앤케이(World JnK)","tel":"031-242-0222","addr":"경기도 수원시 팔달구 화서동 649-2번지 지하","indutype":"회원제형태 - 레져업소","category":"other"}]},{"lat":"37.286037628","long":"126.98595564","imageIndex":17,"items":[{"name":"월드크리닝 화서꽃뫼점","tel":"031-293-0211","addr":"경기도 수원시 팔달구 화서동 685-2번지 102호","indutype":"수리서비스 - 세탁소","category":"other"}]},{"lat":"37.278344071","long":"127.00331044","imageIndex":17,"items":[{"name":"웨스트우드 화서점","tel":"031-252-3865","addr":"경기도 수원시 팔달구 화서동 86-5번지 1층","indutype":"레져용품 - 스포츠·레져용품","category":"other"}]},{"lat":"37.276541852","long":"126.99664674","imageIndex":17,"items":[{"name":"육일환경","tel":"031-611-9139","addr":"경기도 수원시 팔달구 화서동 184-275번지 지층","indutype":"용역 서비스 - 종합용역","category":"other"}]},{"lat":"37.283083338","long":"126.99724384","imageIndex":17,"items":[{"name":"음성공조","tel":"031-222-3898","addr":"경기도 수원시 팔달구 화서동 250-40번지 화서빌라 나동 201호","indutype":"용역 서비스 - 기타용역서비스","category":"other"}]},{"lat":"37.281677836","long":"127.00577992","imageIndex":17,"items":[{"name":"이든조명전기","tel":"031-243-1253","addr":"경기도 수원시 팔달구 화서동 67-24번지 1층","indutype":"건축자재 - 조명기구","category":"other"}]},{"lat":"37.28523481","long":"126.98050923","imageIndex":17,"items":[{"name":"이레문고","tel":"031-291-7761","addr":"경기도 수원시 팔달구 화서동 725-2번지 우성빌딩 201호","indutype":"서적문구 - 일반서적","category":"other"},{"name":"이레문고 (알파율현점)","tel":"031-291-7761","addr":"경기도 수원시 팔달구 화서동 725-2번지 우성빌딩 2층","indutype":"서적문구 - 일반서적","category":"other"}]},{"lat":"37.278154821","long":"127.00000671","imageIndex":17,"items":[{"name":"이브자리 화서점","tel":"031-244-4362","addr":"경기도 수원시 팔달구 화서동 113-26번지","indutype":"직물 - 침구·수예점","category":"other"}]},{"lat":"37.278100727","long":"126.99889044","imageIndex":17,"items":[{"name":"이삭","tel":"031-252-8861","addr":"경기도 수원시 팔달구 화서동 175-10번지 1층 가운데","indutype":"의류 - 정장","category":"other"}]},{"lat":"37.281011027","long":"126.99841669","imageIndex":17,"items":[{"name":"이정원","tel":"","addr":"경기도 수원시 팔달구 화서동 123-3번지","indutype":"문화.취미 - 화원","category":"other"},{"name":"조은여행사","tel":"031-256-2588","addr":"경기도 수원시 팔달구 화서동 123-3번지 2층","indutype":"여행 - 관광여행","category":"other"}]},{"lat":"37.277821405","long":"126.9987777","imageIndex":17,"items":[{"name":"일렉트로룩스 인덕션 전국총판","tel":"031-251-9570","addr":"경기도 수원시 팔달구 화서동 180-12번지 일렉트로룩스 101호","indutype":"주방용구 - 주방용구","category":"other"}]},{"lat":"37.284732287","long":"127.00678364","imageIndex":17,"items":[{"name":"일신필방","tel":"031-243-5213","addr":"경기도 수원시 팔달구 화서동 32-7","indutype":"문화.취미 - 화방·표구점","category":"other"}]},{"lat":"37.288606739","long":"127.00049123","imageIndex":17,"items":[{"name":"잠자는소잉율","tel":"031-302-1117","addr":"경기도 수원시 팔달구 화서동 743번지 화서위브하늘채 107동 404호 화서위브하늘채","indutype":"의류 - 아동의류","category":"other"}]},{"lat":"37.280038","long":"127.00203629","imageIndex":17,"items":[{"name":"재형컴서비스","tel":"031-252-5119","addr":"경기도 수원시 팔달구 화서동 71-129번지 1층","indutype":"사무통신 - 컴퓨터","category":"other"}]},{"lat":"37.280398378","long":"127.00577987","imageIndex":17,"items":[{"name":"쟈스민","tel":"","addr":"경기도 수원시 팔달구 화서동 65-3번지 1층 101호","indutype":"의류 - 정장","category":"other"}]},{"lat":"37.280064866","long":"126.99659007","imageIndex":17,"items":[{"name":"전국꽃식물원","tel":"031-255-1172","addr":"경기도 수원시 팔달구 화서동 204-3번지","indutype":"문화.취미 - 화원","category":"other"}]},{"lat":"37.28520942","long":"126.99228199","imageIndex":17,"items":[{"name":"전매청매표소","tel":"031-257-7314","addr":"경기도 수원시 팔달구 화서동 666","indutype":"기타 - 기타 전문점","category":"other"}]},{"lat":"37.285099759","long":"126.98106182","imageIndex":17,"items":[{"name":"제로원택","tel":"031-892-2874","addr":"경기도 수원시 팔달구 화서동 726-8번지 1층 102호","indutype":"사무통신 - 컴퓨터","category":"other"}]},{"lat":"37.278569312","long":"127.00092002","imageIndex":17,"items":[{"name":"제로펫","tel":"031-247-9997","addr":"경기도 수원시 팔달구 화서동 108-10번지 1층 2호","indutype":"문화.취미 - 애완동물","category":"other"}]},{"lat":"37.280650499","long":"126.99598112","imageIndex":17,"items":[{"name":"제이제이냉난방","tel":"031-258-4928","addr":"경기도 수원시 팔달구 화서동 202-30번지 201호","indutype":"용역 서비스 - 기타용역서비스","category":"other"}]},{"lat":"37.277542157","long":"127.00250988","imageIndex":17,"items":[{"name":"제이제이테크","tel":"070-4413-0777","addr":"경기도 수원시 팔달구 화서동 96-23번지 1층","indutype":"기타 - 기계공구","category":"other"}]},{"lat":"37.281371257","long":"126.99495494","imageIndex":17,"items":[{"name":"제일열쇠","tel":"031-246-1382","addr":"경기도 수원시 팔달구 화서동 214-1번지 1층","indutype":"건축자재 - 목재·석재·철물","category":"other"}]},{"lat":"37.280902755","long":"126.99545113","imageIndex":17,"items":[{"name":"젠틀맨클리닝","tel":"","addr":"경기도 수원시 팔달구 화서동 219-12번지 2층","indutype":"용역 서비스 - 종합용역","category":"other"}]},{"lat":"37.279515404","long":"127.00380658","imageIndex":17,"items":[{"name":"조우니","tel":"031-248-2886","addr":"경기도 수원시 팔달구 화서동 71-108번지","indutype":"의류 - 정장","category":"other"}]},{"lat":"37.278542268","long":"127.00023221","imageIndex":17,"items":[{"name":"주식회사 골드문씨앤씨","tel":"031-247-8858","addr":"경기도 수원시 팔달구 화서동 114-1번지 1층","indutype":"사무통신 - 통신기기","category":"other"}]},{"lat":"37.279821351","long":"126.9930946","imageIndex":17,"items":[{"name":"주식회사 제이앤씨 비투비솔루션","tel":"031-898-9063","addr":"경기도 수원시 팔달구 화서동 220-5번지","indutype":"전기제품 - 가전제품","category":"other"}]},{"lat":"37.285128195","long":"126.99089498","imageIndex":17,"items":[{"name":"주식회사 축제","tel":"031-252-8600","addr":"경기도 수원시 팔달구 화서동 644-4번지 정자프라자 108호","indutype":"용역 서비스 - 종합용역","category":"other"},{"name":"하늘꽃방","tel":"031-258-7390","addr":"경기도 수원시 팔달구 화서동 644-4번지","indutype":"문화.취미 - 화원","category":"other"}]},{"lat":"37.278902707","long":"127.00347958","imageIndex":17,"items":[{"name":"주식회사유진텔레콤","tel":"031-273-8538","addr":"경기도 수원시 팔달구 화서동 71-96번지 1층","indutype":"사무통신 - 통신기기","category":"other"}]},{"lat":"37.279127914","long":"127.00636616","imageIndex":17,"items":[{"name":"준프린팅","tel":"031-255-0268","addr":"경기도 수원시 팔달구 화서동 61-4번지","indutype":"서적문구 - 출판 및 인쇄물","category":"other"}]},{"lat":"37.282398659","long":"127.00570101","imageIndex":17,"items":[{"name":"중고가전마트","tel":"031-242-9117","addr":"경기도 수원시 팔달구 화서동 68-21번지 서울빌라 1층 101호","indutype":"전기제품 - 가전제품","category":"other"}]},{"lat":"37.278875667","long":"127.00128083","imageIndex":17,"items":[{"name":"중앙통신","tel":"031-256-8011","addr":"경기도 수원시 팔달구 화서동 107-9번지","indutype":"사무통신 - 통신기기","category":"other"},{"name":"진명건강","tel":"031-251-1615","addr":"경기도 수원시 팔달구 화서동 107-9번지","indutype":"의류 - 정장","category":"other"}]},{"lat":"37.279902844","long":"127.00389679","imageIndex":17,"items":[{"name":"지온네트웍","tel":"031-255-1580","addr":"경기도 수원시 팔달구 화서동 71-81번지","indutype":"사무통신 - 컴퓨터","category":"other"}]},{"lat":"37.276902167","long":"126.99503433","imageIndex":17,"items":[{"name":"진 (ZIN)테크","tel":"","addr":"경기도 수원시 팔달구 화서동 184-104번지 2층","indutype":"용역 서비스 - 기타용역서비스","category":"other"},{"name":"필그림기획","tel":"031-243-8133","addr":"경기도 수원시 팔달구 화서동 184-104번지","indutype":"용역 서비스 - 종합용역","category":"other"}]},{"lat":"37.276523825","long":"126.99652271","imageIndex":17,"items":[{"name":"진광사","tel":"031-242-4493","addr":"경기도 수원시 팔달구 화서동 184-330번지 황제연립나-105","indutype":"용역 서비스 - 종합용역","category":"other"}]},{"lat":"37.277596219","long":"127.00302855","imageIndex":17,"items":[{"name":"진성우드","tel":"031-244-1515","addr":"경기도 수원시 팔달구 화서동 93-3번지","indutype":"건축자재 - 목재·석재·철물","category":"other"}]},{"lat":"37.280767648","long":"126.99625173","imageIndex":17,"items":[{"name":"집인테리어","tel":"031-256-7649","addr":"경기도 수원시 팔달구 화서동 203-9번지 3동","indutype":"의류 - 아동의류","category":"other"}]},{"lat":"37.276154362","long":"126.99577858","imageIndex":17,"items":[{"name":"창조건축설비","tel":"031-237-8467","addr":"경기도 수원시 팔달구 화서동 184-218번지","indutype":"건축자재 - 인테리어전문","category":"other"}]},{"lat":"37.282290567","long":"127.00203626","imageIndex":17,"items":[{"name":"채원전기","tel":"031-257-3301","addr":"경기도 수원시 팔달구 화서동 81-47번지","indutype":"건축자재 - 조명기구","category":"other"}]},{"lat":"37.27692933","long":"126.99736833","imageIndex":17,"items":[{"name":"천신암","tel":"031-296-4715","addr":"경기도 수원시 팔달구 화서동 184-280번지","indutype":"기타 - 비영리/대상","category":"other"}]},{"lat":"37.278704298","long":"126.99628574","imageIndex":17,"items":[{"name":"청운","tel":"031-1833-6162","addr":"경기도 수원시 팔달구 화서동 172-7번지 네오빌 201호","indutype":"용역 서비스 - 종합용역","category":"other"}]},{"lat":"37.27929015","long":"127.00255498","imageIndex":17,"items":[{"name":"코코","tel":"031-252-3317","addr":"경기도 수원시 팔달구 화서동 71-79번지 1층","indutype":"의류 - 정장","category":"other"},{"name":"훈중개인사무소","tel":"031-244-8833","addr":"경기도 수원시 팔달구 화서동 71-79번지","indutype":"용역 서비스 - 부동산 중개·임대","category":"other"}]},{"lat":"37.279010831","long":"127.00255498","imageIndex":17,"items":[{"name":"코코","tel":"031-243-3317","addr":"경기도 수원시 팔달구 화서동 92-3번지 1층","indutype":"의류 - 정장","category":"other"},{"name":"현정토탈패션","tel":"031-223-5214","addr":"경기도 수원시 팔달구 화서동 92-3번지","indutype":"의류 - 정장","category":"other"}]},{"lat":"37.277794316","long":"126.99736827","imageIndex":17,"items":[{"name":"탑알뜰매장","tel":"031-248-8989","addr":"경기도 수원시 팔달구 화서동 184-20","indutype":"전기제품 - 가전제품","category":"other"}]},{"lat":"37.278929687","long":"126.99936397","imageIndex":17,"items":[{"name":"탑애견하우스","tel":"031-253-5055","addr":"경기도 수원시 팔달구 화서동 134-10번지","indutype":"문화.취미 - 애완동물","category":"other"}]},{"lat":"37.284209303","long":"126.99253021","imageIndex":17,"items":[{"name":"태후사랑화서점","tel":"031-248-6050","addr":"경기도 수원시 팔달구 화서동 650번지 주공4단지 나상가 105호","indutype":"회원제형태 - 기타4","category":"other"}]},{"lat":"37.280848749","long":"126.99639831","imageIndex":17,"items":[{"name":"투(tow)플러스7","tel":"031-252-5811","addr":"경기도 수원시 팔달구 화서동 203번지","indutype":"의류 - 정장","category":"other"},{"name":"휴라이프","tel":"031-244-7900","addr":"경기도 수원시 팔달구 화서동 203번지","indutype":"회원제형태 - 레져업소","category":"other"}]},{"lat":"37.278515267","long":"127.00317514","imageIndex":17,"items":[{"name":"투우사","tel":"031-244-9965","addr":"경기도 수원시 팔달구 화서동 71-53번지","indutype":"신변잡화 - 신발","category":"other"}]},{"lat":"37.278740459","long":"126.99898061","imageIndex":17,"items":[{"name":"파랑소홈클린","tel":"","addr":"경기도 수원시 팔달구 화서동 174-9번지","indutype":"용역 서비스 - 종합용역","category":"other"}]},{"lat":"37.285847374","long":"126.97980989","imageIndex":17,"items":[{"name":"페카이","tel":"070-8812-8778","addr":"경기도 수원시 팔달구 화서동 721-9번지 101호","indutype":"건축자재 - 인테리어전문","category":"other"}]},{"lat":"37.277848345","long":"126.99670301","imageIndex":17,"items":[{"name":"프라임닥트자재판매전문","tel":"0507-1483-9992","addr":"경기도 수원시 팔달구 화서동 121-4번지 1층","indutype":"건축자재 - 보일러·펌프·샷시","category":"other"}]},{"lat":"37.280335279","long":"126.99904818","imageIndex":17,"items":[{"name":"프렌드에어컨","tel":"031-111-1111","addr":"경기도 수원시 팔달구 화서동 118-8번지 디자인하우스 A동 302호","indutype":"용역 서비스 - 기타용역서비스","category":"other"}]},{"lat":"37.278875676","long":"127.00219416","imageIndex":17,"items":[{"name":"프로월드컵","tel":"031-242-7322","addr":"경기도 수원시 팔달구 화서동 98-15번지","indutype":"레져용품 - 스포츠·레져용품","category":"other"}]},{"lat":"37.279596469","long":"127.00019835","imageIndex":17,"items":[{"name":"피네패션","tel":"02-488-5935","addr":"경기도 수원시 팔달구 화서동 116-11번지 1층","indutype":"의류 - 정장","category":"other"}]},{"lat":"37.278902707","long":"127.00236329","imageIndex":17,"items":[{"name":"피에이티수원화서","tel":"031-247-3133","addr":"경기도 수원시 팔달구 화서동 98-16번지","indutype":"의류 - 정장","category":"other"}]},{"lat":"37.277704337","long":"127.00175443","imageIndex":17,"items":[{"name":"하나유통","tel":"031-309-0334","addr":"경기도 수원시 팔달구 화서동 96-17번지 영빌라-3 403호","indutype":"의류 - 정장","category":"other"}]},{"lat":"37.288579693","long":"126.99983716","imageIndex":17,"items":[{"name":"하늘채수선","tel":"031-241-7040","addr":"경기도 수원시 팔달구 화서동 743번지 화서위브하늘채 108동 1901호","indutype":"수리서비스 - 세탁소","category":"other"}]},{"lat":"37.281263126","long":"126.99484219","imageIndex":17,"items":[{"name":"하이컴","tel":"031-241-1799","addr":"경기도 수원시 팔달구 화서동 214-5번지 1층","indutype":"사무통신 - 컴퓨터","category":"other"}]},{"lat":"37.286236298","long":"126.98941755","imageIndex":17,"items":[{"name":"한국엠이피","tel":"070-4809-9049","addr":"경기도 수원시 팔달구 화서동 681-8번지 301호","indutype":"용역 서비스 - 사무서비스","category":"other"}]},{"lat":"37.286874543","long":"126.97980958","imageIndex":17,"items":[{"name":"한낮의 꽃집","tel":"031-278-3006","addr":"경기도 수원시 팔달구 화서동 723-3번지 1층 103호","indutype":"문화.취미 - 화원","category":"other"}]},{"lat":"37.280434436","long":"127.00497928","imageIndex":17,"items":[{"name":"한땀바늘공작소","tel":"031-257-4460","addr":"경기도 수원시 팔달구 화서동 71-169번지 1층","indutype":"직물 - 침구·수예점","category":"other"}]},{"lat":"37.2780106","long":"126.99822519","imageIndex":17,"items":[{"name":"한성대중사우나","tel":"031-246-5226","addr":"경기도 수원시 팔달구 화서동 184-18번지 외2필지","indutype":"회원제형태 - 레져업소","category":"other"}]},{"lat":"37.277848266","long":"126.99533867","imageIndex":17,"items":[{"name":"한아름공조","tel":"031-255-8656","addr":"경기도 수원시 팔달구 화서동 164-16번지 미도아트맨션 302호","indutype":"용역 서비스 - 기타용역서비스","category":"other"}]},{"lat":"37.278127809","long":"127.00095386","imageIndex":17,"items":[{"name":"해피모아신발(화서점)","tel":"031-243-0479","addr":"경기도 수원시 팔달구 화서동 109-2번지","indutype":"신변잡화 - 신발","category":"other"}]},{"lat":"37.282984194","long":"126.99661238","imageIndex":17,"items":[{"name":"행궁 사랑채","tel":"070-4517-5171","addr":"경기도 수원시 팔달구 화서동 249-22번지 1층","indutype":"문화.취미 - 민예·공예품","category":"other"}]},{"lat":"37.285343061","long":"126.98119707","imageIndex":17,"items":[{"name":"호연스튜디오","tel":"031-226-9428","addr":"경기도 수원시 팔달구 화서동 726-5번지","indutype":"광학제품 - 사진관","category":"other"}]},{"lat":"37.281731883","long":"127.00633245","imageIndex":17,"items":[{"name":"홈씨큐(HOME SEQ)","tel":"031-223-8811","addr":"경기도 수원시 팔달구 화서동 57-20번지 모던하우스2차 502호","indutype":"수리서비스 - 사무·통신기기수리","category":"other"}]},{"lat":"37.276487686","long":"126.99489907","imageIndex":17,"items":[{"name":"화서1동주민자치위원회","tel":"031-228-7977","addr":"경기도 수원시 팔달구 화서동 184-357번지","indutype":"문화.취미 - 문화취미기타","category":"other"}]},{"lat":"37.285037535","long":"126.98628288","imageIndex":17,"items":[{"name":"화서2동주민자치위원회","tel":"031-228-7978","addr":"경기도 수원시 팔달구 화서동 689-1번지","indutype":"문화.취미 - 문화취미기타","category":"other"}]},{"lat":"37.282010987","long":"126.99497742","imageIndex":17,"items":[{"name":"화서인테리어","tel":"031-000-0000","addr":"경기도 수원시 팔달구 화서동 244-26번지","indutype":"건축자재 - 인테리어전문","category":"other"}]},{"lat":"37.281488652","long":"127.00386299","imageIndex":17,"items":[{"name":"화서종합메리야스(잡곡)","tel":"031-255-2387","addr":"경기도 수원시 팔달구 화서동 83-1번지 화서시장","indutype":"의류 - 내의판매","category":"other"}]},{"lat":"37.279677374","long":"126.99569932","imageIndex":17,"items":[{"name":"화서종합상사","tel":"031-244-2893","addr":"경기도 수원시 팔달구 화서동 190-13번지 인정주택 103호","indutype":"건축자재 - 목재·석재·철물","category":"other"}]},{"lat":"37.281182278","long":"127.00550928","imageIndex":17,"items":[{"name":"화서종합상사","tel":"031-248-3777","addr":"경기도 수원시 팔달구 화서동 67-10번지","indutype":"기타 - 기계공구","category":"other"}]},{"lat":"37.280290282","long":"127.00428018","imageIndex":17,"items":[{"name":"화성공예사","tel":"031-241-5576","addr":"경기도 수원시 팔달구 화서동 71-11번지","indutype":"문화.취미 - 문화취미기타","category":"other"}]},{"lat":"37.287930985","long":"127.00146107","imageIndex":17,"items":[{"name":"환경보건뉴스사","tel":"","addr":"경기도 수원시 팔달구 화서동 743번지 화서위브하늘채 104동 1304호","indutype":"서적문구 - 정기간행물","category":"other"}]},{"lat":"37.279037853","long":"127.00439291","imageIndex":17,"items":[{"name":"휘트니스클럽S화서점","tel":"031-257-8009","addr":"경기도 수원시 팔달구 화서동 71-7번지 성지빌딩 3층","indutype":"회원제형태 - 레져업소","category":"other"}]},{"lat":"37.284371879","long":"127.00672724","imageIndex":17,"items":[{"name":"휴대폰가게(서문점)","tel":"02-1111-1111","addr":"경기도 수원시 팔달구 화서동 32-9번지 101호","indutype":"사무통신 - 통신기기","category":"other"}]},{"lat":"37.280848769","long":"126.99678169","imageIndex":17,"items":[{"name":"휴대폰수원총판","tel":"031-248-5663","addr":"경기도 수원시 팔달구 화서동 206-5번지 1층","indutype":"사무통신 - 통신기기","category":"other"}]}]