[{"lat":"37.710400558","long":"126.82031949","items":[{"name":"(주)디텍앤세움","tel":"031-977-3125","addr":"경기도 고양시 일산동구 지영동 399-5번지","category":"기타 - 기계공구"},{"name":"(주)디텍앤세움","tel":"031-977-3125","addr":"경기도 고양시 일산동구 지영동 399-5번지","category":""}]},{"lat":"37.711816136","long":"126.82695044","items":[{"name":"(주)로페코","tel":"031-975-1145","addr":"경기도 고양시 일산동구 지영동 339-3번지","category":""},{"name":"(주)로페코","tel":"031-975-1145","addr":"경기도 고양시 일산동구 지영동 339-3번지","category":"건축자재 - 기타건축자재"},{"name":"(주)로페코","tel":"031-975-1145","addr":"경기도 고양시 일산동구 지영동 339-3번지","category":"건축자재 - 기타건축자재"}]},{"lat":"37.720099082","long":"126.82906318","items":[{"name":"(주)엘앤와이코퍼레이션","tel":"031-968-1553","addr":"경기도 고양시 일산동구 지영동 223-4번지","category":""}]},{"lat":"37.711319147","long":"126.82006773","items":[{"name":"(주)예님누리그룹","tel":"02-1588-8798","addr":"경기도 고양시 일산동구 지영동 399-41번지 3동","category":""}]},{"lat":"37.722541004","long":"126.82928432","items":[{"name":"(주)우리동네여행사","tel":"031-977-0961","addr":"경기도 고양시 일산동구 지영동 215-6번지","category":"여행 - 관광여행"},{"name":"(주)우리동네여행사","tel":"031-977-0961","addr":"경기도 고양시 일산동구 지영동 215-6번지","category":""},{"name":"영진슈퍼","tel":"031-977-0961","addr":"경기도 고양시 일산동구 지영동 215-6번지","category":""},{"name":"우리동네마트","tel":"031-977-0961","addr":"경기도 고양시 일산동구 지영동 215-6번지","category":"유통업 영리 - 슈퍼마켓"},{"name":"우리동네마트","tel":"031-977-0961","addr":"경기도 고양시 일산동구 지영동 215-6번지","category":""}]},{"lat":"37.709377512","long":"126.822953","items":[{"name":"(주)종합카타기","tel":"031-963-0010","addr":"경기도 고양시 일산동구 지영동 385-5번지","category":""},{"name":"(주)종합카타기","tel":"031-963-0010","addr":"경기도 고양시 일산동구 지영동 385-5번지","category":"기타 - 기계공구"}]},{"lat":"37.715009084","long":"126.82934726","items":[{"name":"(주)트럼프우드","tel":"031-975-9339","addr":"경기도 고양시 일산동구 지영동 281-5번지","category":"건축자재 - 기타건축자재"},{"name":"(주)트럼프우드","tel":"031-975-9339","addr":"경기도 고양시 일산동구 지영동 281-5번지","category":""}]},{"lat":"37.719984791","long":"126.82492356","items":[{"name":"ACT","tel":"031-969-1600","addr":"경기도 고양시 일산동구 지영동 235-23번지","category":"유통업 영리 - 기타유통업"},{"name":"ACT","tel":"031-969-1600","addr":"경기도 고양시 일산동구 지영동 235-23번지","category":""}]},{"lat":"37.706567495","long":"126.82359484","items":[{"name":"GS25지영로점","tel":"","addr":"경기도 고양시 일산동구 지영동 375-16번지","category":""},{"name":"GS25지영로점","tel":"","addr":"경기도 고양시 일산동구 지영동 375-16번지","category":""}]},{"lat":"37.708791883","long":"126.8289535","items":[{"name":"MS윤활유","tel":"031-975-0258","addr":"경기도 고양시 일산동구 지영동 358-1번지","category":""},{"name":"더조은오토","tel":"031-975-0258","addr":"경기도 고양시 일산동구 지영동 358-1번지","category":""}]},{"lat":"37.720067311","long":"126.82587611","items":[{"name":"Paige Flynn/주식회사 이래플린컴퍼니","tel":"","addr":"경기도 고양시 일산동구 지영동 234-4번지","category":""},{"name":"Paige Flynn/주식회사 이래플린컴퍼니","tel":"","addr":"경기도 고양시 일산동구 지영동 234-4번지","category":"의류 - 정장"}]},{"lat":"37.721400492","long":"126.83814537","items":[{"name":"SK유통","tel":"032-232-0160","addr":"경기도 고양시 일산동구 지영동 1050-2번지","category":""},{"name":"SK유통","tel":"032-232-0160","addr":"경기도 고양시 일산동구 지영동 1050-2번지","category":"문화.취미 - 애완동물"}]},{"lat":"37.715065146","long":"126.82465179","items":[{"name":"STAGE.ONE","tel":"031-977-6119","addr":"경기도 고양시 일산동구 지영동 422-5번지","category":""},{"name":"STAGE.ONE","tel":"031-977-6119","addr":"경기도 고양시 일산동구 지영동 422-5번지","category":"건축자재 - 인테리어전문"}]},{"lat":"37.721985256","long":"126.83753158","items":[{"name":"TSA","tel":"031-964-0348","addr":"경기도 고양시 일산동구 지영동 1023번지","category":"건축자재 - 인테리어전문"},{"name":"TSA","tel":"031-964-0348","addr":"경기도 고양시 일산동구 지영동 1023번지","category":""},{"name":"코드(CODE)","tel":"031-469-0938","addr":"경기도 고양시 일산동구 지영동 1023번지","category":""}]},{"lat":"37.713041243","long":"126.83295832","items":[{"name":"TYPE","tel":"031-971-5736","addr":"경기도 고양시 일산동구 지영동","category":"가구 - 기타가구"}]},{"lat":"37.723516465","long":"126.82486974","items":[{"name":"WJ시스템","tel":"031-905-2848","addr":"경기도 고양시 일산동구 지영동 208번지","category":""},{"name":"WJ시스템","tel":"031-905-2848","addr":"경기도 고양시 일산동구 지영동 208번지","category":"전기제품 - 냉열기기"},{"name":"삼시세끼","tel":"031-976-6403","addr":"경기도 고양시 일산동구 지영동 208번지","category":""},{"name":"삼시세끼","tel":"031-976-6403","addr":"경기도 고양시 일산동구 지영동 208번지","category":"일반휴게음식 - 일반한식"},{"name":"수능이 버섯백숙","tel":"031-977-9984","addr":"경기도 고양시 일산동구 지영동 208번지","category":""},{"name":"수능이 버섯백숙","tel":"031-977-9984","addr":"경기도 고양시 일산동구 지영동 208번지","category":"일반휴게음식 - 일반한식"},{"name":"예뜰","tel":"031-257-3312","addr":"경기도 고양시 일산동구 지영동 208번지","category":""},{"name":"예뜰","tel":"031-257-3312","addr":"경기도 고양시 일산동구 지영동 208번지","category":"일반휴게음식 - 서양음식"},{"name":"위드미 지영로드점","tel":"02-6916-1500","addr":"경기도 고양시 일산동구 지영동 208번지","category":""},{"name":"위드미 지영로드점","tel":"02-6916-1500","addr":"경기도 고양시 일산동구 지영동 208번지","category":"유통업 영리 - 편 의 점"}]},{"lat":"37.718928975","long":"126.82983717","items":[{"name":"ZIO 디자인쇼파","tel":"031-976-4098","addr":"경기도 고양시 일산동구 지영동 248-5번지","category":""},{"name":"주식회사 지오디자인소파","tel":"031-977-4098","addr":"경기도 고양시 일산동구 지영동 248-5번지","category":"가구 - 일반가구"}]},{"lat":"37.716348193","long":"126.83325699","items":[{"name":"[지로](주)동양전기관리","tel":"031-946-6257","addr":"경기도 고양시 일산동구 지영동 87번지","category":""}]},{"lat":"37.709125123","long":"126.82287422","items":[{"name":"design foret","tel":"031-942-8794","addr":"경기도 고양시 일산동구 지영동 382-6번지","category":""},{"name":"design foret","tel":"031-942-8794","addr":"경기도 고양시 일산동구 지영동 382-6번지","category":"가구 - 일반가구"}]},{"lat":"37.709593153","long":"126.8225669","items":[{"name":"거창식당","tel":"031-977-9945","addr":"경기도 고양시 일산동구 지영동 385-2번지","category":""}]},{"lat":"37.719987073","long":"126.83256816","items":[{"name":"겅호테크니크","tel":"031-954-2465","addr":"경기도 고양시 일산동구 지영동 640번지","category":""},{"name":"버드애드","tel":"070-4633-5400","addr":"경기도 고양시 일산동구 지영동 640번지","category":""},{"name":"주식회사 보하","tel":"031-976-9363","addr":"경기도 고양시 일산동구 지영동 640번지","category":"건축자재 - 인테리어전문"}]},{"lat":"37.721346629","long":"126.83195256","items":[{"name":"고견출판유통","tel":"031-907-4155","addr":"경기도 고양시 일산동구 지영동 128번지","category":""},{"name":"토탈북","tel":"031-977-4072","addr":"경기도 고양시 일산동구 지영동 128번지","category":""}]},{"lat":"37.711846594","long":"126.82926391","items":[{"name":"고려식당","tel":"031-966-0963","addr":"경기도 고양시 일산동구 지영동 326번지","category":""}]},{"lat":"37.70618072","long":"126.82401535","items":[{"name":"고봉현대자동차공업사","tel":"031-975-0020","addr":"경기도 고양시 일산동구 지영동 374-9번지","category":""},{"name":"상일공업사","tel":"031-967-0046","addr":"경기도 고양시 일산동구 지영동 374-9번지","category":""},{"name":"엠티에스 KOREA","tel":"031-975-0020","addr":"경기도 고양시 일산동구 지영동 374-9번지","category":"자동차정비 유지 - 자동차정비"},{"name":"엠티에스 KOREA","tel":"031-975-0020","addr":"경기도 고양시 일산동구 지영동 374-9번지","category":""},{"name":"하나자동차공업사","tel":"031-977-7754","addr":"경기도 고양시 일산동구 지영동 374-9번지","category":""},{"name":"한솔자동차공업사","tel":"031-977-5356","addr":"경기도 고양시 일산동구 지영동 374-9번지","category":"자동차정비 유지 - 자동차정비"},{"name":"한솔자동차공업사","tel":"031-977-5356","addr":"경기도 고양시 일산동구 지영동 374-9번지","category":""}]},{"lat":"37.720425279","long":"126.83659364","items":[{"name":"고양자동차공업사","tel":"031-969-1414","addr":"경기도 고양시 일산동구 지영동 1-36번지","category":""},{"name":"고양자동차공업사","tel":"031-969-1414","addr":"경기도 고양시 일산동구 지영동 1-36번지","category":""},{"name":"고양자동차공업사","tel":"031-969-1414","addr":"경기도 고양시 일산동구 지영동 1-36번지","category":"자동차정비 유지 - 자동차정비"},{"name":"고양자동차공업사","tel":"031-969-1414","addr":"경기도 고양시 일산동구 지영동 1-36번지","category":"자동차정비 유지 - 자동차정비"}]},{"lat":"37.716619868","long":"126.82803922","items":[{"name":"공감조형연구소","tel":"070-8842-6467","addr":"경기도 고양시 일산동구 지영동 275번지","category":""},{"name":"공감조형연구소","tel":"070-8842-6467","addr":"경기도 고양시 일산동구 지영동 275번지","category":"문화.취미 - 화랑"}]},{"lat":"37.705739784","long":"126.82436795","items":[{"name":"굿모닝마트","tel":"031-962-2230","addr":"경기도 고양시 일산동구 지영동 374-2번지","category":"유통업 영리 - 슈퍼마켓"},{"name":"굿모닝마트","tel":"031-962-2230","addr":"경기도 고양시 일산동구 지영동 374-2번지","category":""},{"name":"대박","tel":"031-975-2442","addr":"경기도 고양시 일산동구 지영동 374-2번지","category":"일반휴게음식 - 일반한식"},{"name":"대박","tel":"031-975-2442","addr":"경기도 고양시 일산동구 지영동 374-2번지","category":""},{"name":"신일종합상사","tel":"031-975-7770","addr":"경기도 고양시 일산동구 지영동 374-2번지","category":""},{"name":"신일종합상사","tel":"031-975-7770","addr":"경기도 고양시 일산동구 지영동","category":"건축자재 - 목재·석재·철물"},{"name":"올레길웰빙한식부페","tel":"031-975-2442","addr":"경기도 고양시 일산동구 지영동 374-2번지","category":""},{"name":"올레길웰빙한식부페","tel":"031-975-2442","addr":"경기도 고양시 일산동구 지영동 374-2번지","category":""}]},{"lat":"37.71523969","long":"126.82095407","items":[{"name":"극동문화사","tel":"02-2278-2032","addr":"경기도 고양시 일산동구 지영동 413-11번지","category":""},{"name":"극동문화사","tel":"02-2278-2032","addr":"경기도 고양시 일산동구 지영동 413-11번지","category":"서적문구 - 출판 및 인쇄물"}]},{"lat":"37.7144035","long":"126.82803308","items":[{"name":"글로벌 휘트니스","tel":"031-975-1470","addr":"경기도 고양시 일산동구 지영동 301-13번지","category":"레져용품 - 스포츠·레져용품"},{"name":"글로벌 휘트니스","tel":"031-975-1470","addr":"경기도 고양시 일산동구 지영동 301-13번지","category":""},{"name":"제일카센타","tel":"031-921-9991","addr":"경기도 고양시 일산동구 지영동 301-13번지","category":""},{"name":"제일카센타","tel":"031-921-9991","addr":"경기도 고양시 일산동구 지영동 301-13번지","category":"자동차정비 유지 - 자동차정비"}]},{"lat":"37.717096262","long":"126.82728955","items":[{"name":"금동전기조명","tel":"031-977-8033","addr":"경기도 고양시 일산동구 지영동 260번지","category":""},{"name":"화니비니","tel":"031-977-1650","addr":"경기도 고양시 일산동구 지영동 260번지","category":""}]},{"lat":"37.713873266","long":"126.82293079","items":[{"name":"기황산업","tel":"031-903-7525","addr":"경기도 고양시 일산동구 지영동 404-3번지","category":"보건위생 - 의료용품"},{"name":"기황산업","tel":"031-903-7525","addr":"경기도 고양시 일산동구 지영동 404-3번지","category":""}]},{"lat":"37.723372886","long":"126.83764192","items":[{"name":"김상고낚시","tel":"031-969-1308","addr":"경기도 고양시 일산동구 지영동 954번지","category":""},{"name":"김상고낚시","tel":"031-969-1308","addr":"경기도 고양시 일산동구 지영동 954번지","category":"회원제형태 - 기타4"}]},{"lat":"37.718649162","long":"126.82948622","items":[{"name":"나누리 중고","tel":"031-975-5950","addr":"경기도 고양시 일산동구 지영동 248-12번지","category":"신변잡화 - 기타잡화"}]},{"lat":"37.711538923","long":"126.82236939","items":[{"name":"나무사랑","tel":"031-977-1702","addr":"경기도 고양시 일산동구 지영동 397-1번지","category":"가구 - 일반가구"},{"name":"나무사랑","tel":"031-977-1702","addr":"경기도 고양시 일산동구 지영동 397-1번지","category":""}]},{"lat":"37.714072617","long":"126.82367883","items":[{"name":"농업회사법인 주식회사 꿀팜","tel":"031-976-9818","addr":"경기도 고양시 일산동구 지영동 725-1번지","category":"건강식품 - 기타건강식품"},{"name":"농업회사법인 주식회사 꿀팜","tel":"031-976-9818","addr":"경기도 고양시 일산동구 지영동 725-1번지","category":""},{"name":"허니유통","tel":"031-976-9818","addr":"경기도 고양시 일산동구 지영동 725-1번지","category":""},{"name":"허니유통","tel":"031-976-9818","addr":"경기도 고양시 일산동구 지영동 725-1번지","category":"음료식품 - 기타음료식품"}]},{"lat":"37.712598676","long":"126.83219948","items":[{"name":"다다팩토리","tel":"031-938-3193","addr":"경기도 고양시 일산동구 지영동 49-2번지","category":""},{"name":"다다팩토리","tel":"031-938-3193","addr":"경기도 고양시 일산동구 지영동 49-2번지","category":"건축자재 - 인테리어전문"}]},{"lat":"37.72176165","long":"126.83870035","items":[{"name":"대림공예","tel":"031-969-2031","addr":"경기도 고양시 일산동구 지영동","category":"문화.취미 - 민예·공예품"},{"name":"대림공예","tel":"031-969-2031","addr":"경기도 고양시 일산동구 지영동 1020-9번지","category":""}]},{"lat":"37.715680651","long":"126.82062409","items":[{"name":"대성액자","tel":"031-916-3206","addr":"경기도 고양시 일산동구 지영동 413-7번지","category":"문화.취미 - 화방·표구점"},{"name":"대성액자","tel":"031-916-3206","addr":"경기도 고양시 일산동구 지영동 413-7번지","category":""}]},{"lat":"37.714457893","long":"126.82825978","items":[{"name":"대성철물","tel":"031-977-9561","addr":"경기도 고양시 일산동구 지영동 301-5번지","category":""},{"name":"두원냉동","tel":"031-941-7762","addr":"경기도 고양시 일산동구 지영동 301-5번지","category":"주방용구 - 주방용구"},{"name":"두원냉동","tel":"031-941-7762","addr":"경기도 고양시 일산동구 지영동 301-5번지","category":""},{"name":"우리전국화물","tel":"031-977-3244","addr":"경기도 고양시 일산동구 지영동 301-5번지","category":""}]},{"lat":"37.719401648","long":"126.83270561","items":[{"name":"대신무역도매상닷컴","tel":"031-976-5097","addr":"경기도 고양시 일산동구 지영동 642번지","category":"신변잡화 - 기타잡화"},{"name":"대신무역도매상닷컴","tel":"031-976-5097","addr":"경기도 고양시 일산동구 지영동 642번지","category":""}]},{"lat":"37.708988783","long":"126.82209206","items":[{"name":"대신택배고양설문영업소","tel":"031-977-7733","addr":"경기도 고양시 일산동구 지영동 382-13번지","category":""}]},{"lat":"37.708268104","long":"126.82215051","items":[{"name":"대한슈퍼","tel":"031-977-6164","addr":"경기도 고양시 일산동구 지영동 382-15번지","category":""},{"name":"옛골","tel":"031-975-8820","addr":"경기도 고양시 일산동구 지영동 382-15번지","category":""},{"name":"옛골","tel":"031-975-8820","addr":"경기도 고양시 일산동구 지영동 382-15번지","category":"일반휴게음식 - 일반한식"}]},{"lat":"37.713543744","long":"126.83786789","items":[{"name":"대한식당","tel":"031-977-6163","addr":"경기도 고양시 일산동구 지영동 10-2번지","category":""},{"name":"대한식당","tel":"031-977-6163","addr":"경기도 고양시 일산동구 지영동 10-2번지","category":"일반휴게음식 - 일반한식"}]},{"lat":"37.714458454","long":"126.82264584","items":[{"name":"더블베이스","tel":"031-901-2270","addr":"경기도 고양시 일산동구 지영동 404-1번지","category":""},{"name":"더블베이스","tel":"031-901-2270","addr":"경기도 고양시 일산동구 지영동 404-1번지","category":"전기제품 - 기타전기제품"}]},{"lat":"37.718293586","long":"126.83915033","items":[{"name":"더조은 요양원","tel":"031-963-2201","addr":"경기도 고양시 일산동구 지영동 1078번지","category":""},{"name":"더조은 요양원","tel":"031-963-2201","addr":"경기도 고양시 일산동구 지영동 1078번지","category":"기타의료기관 - 기타의료기관 및 기타"}]},{"lat":"37.712458291","long":"126.82861605","items":[{"name":"두인앨범","tel":"031-921-4922","addr":"경기도 고양시 일산동구 지영동 313-9번지","category":"서적문구 - 문구용품"},{"name":"두인앨범","tel":"031-921-4922","addr":"경기도 고양시 일산동구 지영동 313-9번지","category":""}]},{"lat":"37.722119934","long":"126.82483906","items":[{"name":"로코 피앤티 (LOKO P&T)","tel":"070-8260-3322","addr":"경기도 고양시 일산동구 지영동 441-2번지","category":"의류 - 정장"},{"name":"바바앤클릭 주식회사","tel":"031-968-7515","addr":"경기도 고양시 일산동구 지영동 441-2번지","category":"의류 - 정장"}]},{"lat":"37.711398988","long":"126.83122692","items":[{"name":"리담","tel":"031-000-0000","addr":"경기도 고양시 일산동구 지영동 49-9번지","category":"전기제품 - 기타전기제품"},{"name":"리담","tel":"031-0-0000","addr":"경기도 고양시 일산동구 지영동 49-9번지","category":""},{"name":"푸른잔디","tel":"031-976-3738","addr":"경기도 고양시 일산동구 지영동 49-9번지","category":""},{"name":"한솔냉동, 황금맷돌","tel":"031-975-9345","addr":"경기도 고양시 일산동구 지영동 49-9번지","category":""},{"name":"한솔자원,황금맷돌","tel":"070-8702-1564","addr":"경기도 고양시 일산동구 지영동 49-9번지","category":""}]},{"lat":"37.713957382","long":"126.82492664","items":[{"name":"마루커뮤니케이션","tel":"031-947-0072","addr":"경기도 고양시 일산동구 지영동 342-8번지","category":""},{"name":"마루커뮤니케이션","tel":"031-947-0072","addr":"경기도 고양시 일산동구 지영동 342-8번지","category":"건축자재 - 인테리어전문"},{"name":"지영영양탕","tel":"","addr":"경기도 고양시 일산동구 지영동 342-8번지","category":"일반휴게음식 - 일반한식"},{"name":"지영영양탕","tel":"031-977-2155","addr":"경기도 고양시 일산동구 지영동 342-8번지","category":"일반휴게음식 - 일반한식"},{"name":"지영영양탕","tel":"031-977-2155","addr":"경기도 고양시 일산동구 지영동 342-8번지","category":""},{"name":"지영영양탕","tel":"","addr":"경기도 고양시 일산동구 지영동 342-8번지","category":""},{"name":"지영영양탕","tel":"031-977-2155","addr":"경기도 고양시 일산동구 지영동 342-8번지","category":""},{"name":"지영영양탕","tel":"031-977-2155","addr":"경기도 고양시 일산동구 지영동 342-8번지","category":""}]},{"lat":"37.717870449","long":"126.833004","items":[{"name":"마마님청국장","tel":"031-914-5344","addr":"경기도 고양시 일산동구 지영동 98-3번지","category":""},{"name":"마마님청국장","tel":"031-914-5344","addr":"경기도 고양시 일산동구 지영동 98-3번지","category":"음료식품 - 기타음료식품"}]},{"lat":"37.71434784","long":"126.82695579","items":[{"name":"맛있는밥상","tel":"031-975-9579","addr":"경기도 고양시 일산동구 지영동 300-1번지","category":"일반휴게음식 - 일반한식"},{"name":"맛있는밥상","tel":"031-975-9579","addr":"경기도 고양시 일산동구 지영동 300-1번지","category":""},{"name":"주식회사 리틀마루","tel":"031-926-2040","addr":"경기도 고양시 일산동구 지영동 300-1번지","category":""},{"name":"주식회사 리틀마루","tel":"031-926-2040","addr":"경기도 고양시 일산동구 지영동 300-1번지","category":"서적문구 - 기타서적문구"},{"name":"현대25시","tel":"031-977-3655","addr":"경기도 고양시 일산동구 지영동 300-1번지","category":""}]},{"lat":"37.717347616","long":"126.8266765","items":[{"name":"멍수푼","tel":"","addr":"경기도 고양시 일산동구 지영동 261-3번지","category":"일반휴게음식 - 서양음식"},{"name":"멍수푼","tel":"","addr":"경기도 고양시 일산동구 지영동 261-3번지","category":""}]},{"lat":"37.709905664","long":"126.82072896","items":[{"name":"명가슈퍼","tel":"031-977-9986","addr":"경기도 고양시 일산동구 지영동 399-7번지","category":""},{"name":"명가식당","tel":"031-977-9986","addr":"경기도 고양시 일산동구 지영동 399-7번지","category":""},{"name":"밥이 보약 한식부페","tel":"031-977-9956","addr":"경기도 고양시 일산동구 지영동 399-7번지","category":""},{"name":"밥이 보약 한식부페","tel":"031-977-9986","addr":"경기도 고양시 일산동구 지영동 399-7번지","category":"일반휴게음식 - 일반한식"}]},{"lat":"37.715067105","long":"126.83839756","items":[{"name":"명디자인","tel":"031-977-5956","addr":"경기도 고양시 일산동구 지영동 9-3번지","category":""},{"name":"명디자인","tel":"031-977-5956","addr":"경기도 고양시 일산동구 지영동 9-3번지","category":"건축자재 - 인테리어전문"}]},{"lat":"37.711739446","long":"126.82992193","items":[{"name":"명진유리","tel":"031-976-8768","addr":"경기도 고양시 일산동구 지영동 329번지","category":"건축자재 - 유리"},{"name":"명진유리","tel":"031-976-8768","addr":"경기도 고양시 일산동구 지영동 329번지","category":""}]},{"lat":"37.712845018","long":"126.83434237","items":[{"name":"명품도어","tel":"031-975-8795","addr":"경기도 고양시 일산동구 지영동 42번지","category":""},{"name":"명품도어","tel":"031-975-8795","addr":"경기도 고양시 일산동구 지영동 42번지","category":"건축자재 - 기타건축자재"}]},{"lat":"37.710628106","long":"126.8218159","items":[{"name":"미르덴텍","tel":"070-4402-1898","addr":"경기도 고양시 일산동구 지영동 399-13번지","category":""},{"name":"주식회사 손맛커피","tel":"031-1670-7346","addr":"경기도 고양시 일산동구 지영동 399-13번지","category":"음료식품 - 기타음료식품"},{"name":"주식회사 손맛커피","tel":"031-1670-7346","addr":"경기도 고양시 일산동구 지영동 399-13번지","category":""}]},{"lat":"37.719766463","long":"126.82956301","items":[{"name":"반려견교육기관위드","tel":"","addr":"경기도 고양시 일산동구 지영동 246-2번지","category":""},{"name":"주식회사 반려견교육기관위드","tel":"","addr":"경기도 고양시 일산동구 지영동 246-2번지","category":"문화.취미 - 애완동물"},{"name":"한국반려동물직업평생교육학원","tel":"","addr":"경기도 고양시 일산동구 지영동 246-2번지","category":"학원 - 기능학원"},{"name":"한국반려동물직업평생교육학원","tel":"","addr":"경기도 고양시 일산동구 지영동 246-2번지","category":""}]},{"lat":"37.713072003","long":"126.82331832","items":[{"name":"백륜전자엔지니어링","tel":"02-535-2806","addr":"경기도 고양시 일산동구 지영동 763번지","category":""}]},{"lat":"37.717898686","long":"126.82767327","items":[{"name":"베르사체","tel":"031-9751-9498","addr":"경기도 고양시 일산동구 지영동 260-11번지","category":""},{"name":"베르사체","tel":"031-9751-9498","addr":"경기도 고양시 일산동구 지영동 260-11번지","category":"가구 - 일반가구"}]},{"lat":"37.71159514","long":"126.83606902","items":[{"name":"벤토코리아","tel":"031-976-9172","addr":"경기도 고양시 일산동구 지영동 36번지","category":"기타 - 기계공구"}]},{"lat":"37.712595587","long":"126.83633896","items":[{"name":"삼성분체","tel":"031-976-3017","addr":"경기도 고양시 일산동구 지영동 46-3번지","category":""},{"name":"삼성분체","tel":"031-976-3017","addr":"경기도 고양시 일산동구 지영동 46-3번지","category":"건축자재 - 페인트"}]},{"lat":"37.713818835","long":"126.82868091","items":[{"name":"삼형제","tel":"031-977-8165","addr":"경기도 고양시 일산동구 지영동 304-6번지","category":""},{"name":"삼형제","tel":"031-977-8165","addr":"경기도 고양시 일산동구 지영동 304-6번지","category":"일반휴게음식 - 일반한식"}]},{"lat":"37.721430006","long":"126.8335403","items":[{"name":"상록수 차광 보온전문회사","tel":"031-969-1200","addr":"경기도 고양시 일산동구 지영동 631번지","category":"농업 - 기타농업관련"},{"name":"상록수 차광 보온전문회사","tel":"031-969-1200","addr":"경기도 고양시 일산동구 지영동 631번지","category":""},{"name":"상록수농자재","tel":"031-969-1200","addr":"경기도 고양시 일산동구 지영동 631번지","category":""}]},{"lat":"37.714872383","long":"126.82829283","items":[{"name":"서라벌무역","tel":"031-963-0307","addr":"경기도 고양시 일산동구 지영동 302-2번지","category":""},{"name":"서라벌무역","tel":"031-963-0307","addr":"경기도 고양시 일산동구 지영동 302-2번지","category":"신변잡화 - 기타잡화"}]},{"lat":"37.72128772","long":"126.83484499","items":[{"name":"성현모터스","tel":"070-8887-3022","addr":"경기도 고양시 일산동구 지영동 1-38번지","category":""},{"name":"성현모터스","tel":"070-8887-3022","addr":"경기도 고양시 일산동구 지영동 1-38번지","category":"자동차정비 유지 - 자동차정비"}]},{"lat":"37.714182988","long":"126.81928949","items":[{"name":"세븐일레븐문원로드점","tel":"031-1577-0711","addr":"경기도 고양시 일산동구 지영동 413-1번지","category":"유통업 영리 - 편 의 점"},{"name":"세븐일레븐문원로드점","tel":"031-1577-0711","addr":"경기도 고양시 일산동구 지영동 413-1번지","category":""}]},{"lat":"37.721232593","long":"126.83409653","items":[{"name":"세븐일레븐일산지영점","tel":"031-1577-0711","addr":"경기도 고양시 일산동구 지영동 104번지","category":""},{"name":"세븐일레븐일산지영점","tel":"031-1577-0711","addr":"경기도 고양시 일산동구 지영동 104번지","category":"유통업 영리 - 편 의 점"}]},{"lat":"37.72120367","long":"126.82664468","items":[{"name":"소나무향기","tel":"031-919-1542","addr":"경기도 고양시 일산동구 지영동 232-1번지","category":"건축자재 - 인테리어전문"},{"name":"소나무향기","tel":"031-919-1542","addr":"경기도 고양시 일산동구 지영동 232-1번지","category":""},{"name":"우목(友木)","tel":"031-976-3028","addr":"경기도 고양시 일산동구 지영동 232-1번지","category":""},{"name":"태경모터스","tel":"031-975-1750","addr":"경기도 고양시 일산동구 지영동 232-1번지","category":""}]},{"lat":"37.717120736","long":"126.83167873","items":[{"name":"송산기획","tel":"02-782-0064","addr":"경기도 고양시 일산동구 지영동 654번지","category":""},{"name":"오성유통","tel":"031-964-4333","addr":"경기도 고양시 일산동구 지영동 654번지","category":""}]},{"lat":"37.712843506","long":"126.83328766","items":[{"name":"쇼빅(Showbig)","tel":"031-965-7232","addr":"경기도 고양시 일산동구 지영동 48-6번지","category":""}]},{"lat":"37.722652011","long":"126.82517806","items":[{"name":"수성산업장비","tel":"031-977-1337","addr":"경기도 고양시 일산동구 지영동 208번지","category":"수리서비스 - 기타수리서비스"},{"name":"수성산업장비","tel":"031-977-1337","addr":"경기도 고양시 일산동구 지영동 208번지","category":""}]},{"lat":"37.717841814","long":"126.83189256","items":[{"name":"스마트자원개발","tel":"031-903-4135","addr":"경기도 고양시 일산동구 지영동 649번지","category":"유통업 영리 - 기타유통업"},{"name":"스마트자원개발","tel":"031-903-4135","addr":"경기도 고양시 일산동구 지영동 649번지","category":""}]},{"lat":"37.720120738","long":"126.82545632","items":[{"name":"엠지농원","tel":"031-976-0209","addr":"경기도 고양시 일산동구 지영동 235-5번지","category":""}]},{"lat":"37.725987399","long":"126.83253174","items":[{"name":"엠케이시스템","tel":"031-977-6891","addr":"경기도 고양시 일산동구 지영동 594번지","category":""}]},{"lat":"37.717537764","long":"126.82731119","items":[{"name":"엠티에스(M.T.S)","tel":"031-923-1989","addr":"경기도 고양시 일산동구 지영동 260-3번지","category":""},{"name":"엠티에스(M.T.S)","tel":"031-923-1989","addr":"경기도 고양시 일산동구 지영동 260-3번지","category":"자동차정비 유지 - 자동차부품"}]},{"lat":"37.722263024","long":"126.83018103","items":[{"name":"연합타일도기","tel":"","addr":"경기도 고양시 일산동구 지영동 129-15번지","category":"건축자재 - 건축용 요업제품"}]},{"lat":"37.712483891","long":"126.827652","items":[{"name":"열림ENG","tel":"031-977-3684","addr":"경기도 고양시 일산동구 지영동 313-36번지","category":"건축자재 - 기타건축자재"},{"name":"열림ENG","tel":"031-977-3684","addr":"경기도 고양시 일산동구 지영동 313-36번지","category":""}]},{"lat":"37.706793612","long":"126.82417264","items":[{"name":"영농조합선인장연구회지점","tel":"031-975-8366","addr":"경기도 고양시 일산동구 지영동 375-1번지","category":""},{"name":"영농조합선인장연구회지점","tel":"031-975-8366","addr":"경기도 고양시 일산동구 지영동","category":"회원제형태 - 건강식품"}]},{"lat":"37.717929529","long":"126.83025914","items":[{"name":"영사운드","tel":"02-3667-7534","addr":"경기도 고양시 일산동구 지영동 70-7번지","category":""}]},{"lat":"37.722373255","long":"126.83795039","items":[{"name":"영진무늬목","tel":"031-963-9100","addr":"경기도 고양시 일산동구 지영동 1020-15번지","category":"건축자재 - 목재·석재·철물"},{"name":"영진무늬목상사","tel":"031-963-9100","addr":"경기도 고양시 일산동구 지영동 1020-15번지","category":""}]},{"lat":"37.719238623","long":"126.83211619","items":[{"name":"오렌지애견클럽","tel":"031-977-6920","addr":"경기도 고양시 일산동구 지영동 643번지","category":"문화.취미 - 애완동물"},{"name":"오렌지애견클럽","tel":"031-977-6920","addr":"경기도 고양시 일산동구 지영동 643번지","category":""}]},{"lat":"37.71704496","long":"126.8291497","items":[{"name":"오복식당","tel":"031-977-9725","addr":"경기도 고양시 일산동구 지영동 255-8번지","category":""},{"name":"제이엔씨","tel":"031-976-1720","addr":"경기도 고양시 일산동구 지영동 255-8번지","category":"자동차정비 유지 - 자동차부품"},{"name":"태조","tel":"070-8183-1800","addr":"경기도 고양시 일산동구 지영동 255-8번지","category":""}]},{"lat":"37.726452961","long":"126.83051159","items":[{"name":"오희샵","tel":"031-977-7829","addr":"경기도 고양시 일산동구 지영동 540번지","category":"회원제형태 - 기타4"},{"name":"오희샵","tel":"031-977-7829","addr":"경기도 고양시 일산동구 지영동 540번지","category":""}]},{"lat":"37.714679694","long":"126.83839842","items":[{"name":"유림건구","tel":"031-977-0850","addr":"경기도 고양시 일산동구 지영동 9-1번지","category":"건축자재 - 인테리어전문"},{"name":"유림건구","tel":"031-977-0850","addr":"경기도 고양시 일산동구 지영동 9-1번지","category":""}]},{"lat":"37.723263648","long":"126.83056435","items":[{"name":"이기유통","tel":"","addr":"경기도 고양시 일산동구 지영동 605-1번지","category":"전기제품 - 냉열기기"}]},{"lat":"37.712655814","long":"126.82217388","items":[{"name":"이지스쏠라주식회사","tel":"031-977-7014","addr":"경기도 고양시 일산동구 지영동 401-16번지","category":""}]},{"lat":"37.717488708","long":"126.83070249","items":[{"name":"정골슈퍼","tel":"031-977-8978","addr":"경기도 고양시 일산동구 지영동 71-1번지","category":"유통업 영리 - 슈퍼마켓"},{"name":"정골슈퍼","tel":"031-977-8978","addr":"경기도 고양시 일산동구 지영동 71-1번지","category":""}]},{"lat":"37.721928772","long":"126.82956931","items":[{"name":"정연보링","tel":"031-975-2281","addr":"경기도 고양시 일산동구 지영동 216-18번지","category":"자동차정비 유지 - 자동차정비"},{"name":"정연보링","tel":"031-975-2281","addr":"경기도 고양시 일산동구 지영동 216-18번지","category":""}]},{"lat":"37.714680855","long":"126.82672818","items":[{"name":"제일제당사료일산특약점","tel":"031-977-2889","addr":"경기도 고양시 일산동구 지영동 293번지","category":""}]},{"lat":"37.713925673","long":"126.82781872","items":[{"name":"조은중고","tel":"02-332-8245","addr":"경기도 고양시 일산동구 지영동 304-2번지","category":"전기제품 - 가전제품"},{"name":"조은중고","tel":"02-332-8245","addr":"경기도 고양시 일산동구 지영동 304-2번지","category":""},{"name":"조은중고","tel":"02-332-8245","addr":"경기도 고양시 일산동구 지영동 304-2번지","category":""}]},{"lat":"37.716128445","long":"126.82476266","items":[{"name":"종합기계","tel":"031-967-5455","addr":"경기도 고양시 일산동구 지영동 426-4번지","category":""},{"name":"종합기계","tel":"031-967-5455","addr":"경기도 고양시 일산동구 지영동 426-4번지","category":"기타 - 기계공구"}]},{"lat":"37.719874411","long":"126.82944933","items":[{"name":"주식회사 대창","tel":"031-977-3258","addr":"경기도 고양시 일산동구 지영동 245번지","category":""},{"name":"주식회사 대창","tel":"031-977-3258","addr":"경기도 고양시 일산동구 지영동 245번지","category":"건축자재 - 인테리어전문"},{"name":"주식회사대창","tel":"031-977-3258","addr":"경기도 고양시 일산동구 지영동 245번지","category":""},{"name":"주식회사대창","tel":"031-977-3258","addr":"경기도 고양시 일산동구 지영동 245번지","category":"건축자재 - 기타건축자재"}]},{"lat":"37.719428822","long":"126.83917052","items":[{"name":"주식회사 라파생명공학","tel":"032-322-0191","addr":"경기도 고양시 일산동구 지영동 1069번지","category":""}]},{"lat":"37.720119763","long":"126.82480982","items":[{"name":"주식회사 리암 종합물류","tel":"031-908-0512","addr":"경기도 고양시 일산동구 지영동 235-6번지","category":""}]},{"lat":"37.715898628","long":"126.82175771","items":[{"name":"주식회사 목련","tel":"063-0-0000","addr":"경기도 고양시 일산동구 지영동 413-15번지","category":""},{"name":"주식회사 목련","tel":"063-000-0000","addr":"경기도 고양시 일산동구 지영동 413-15번지","category":"신변잡화 - 기타잡화"}]},{"lat":"37.718842925","long":"126.83261615","items":[{"name":"주식회사 신우정보기술","tel":"070-8867-9149","addr":"경기도 고양시 일산동구 지영동 644번지","category":"사무통신 - 기타 사무용품"}]},{"lat":"37.720820448","long":"126.83570806","items":[{"name":"주식회사 에프원씨엔씨","tel":"031-0-0000","addr":"경기도 고양시 일산동구 지영동 1-61번지","category":""},{"name":"주식회사 에프원씨엔씨","tel":"031-000-0000","addr":"경기도 고양시 일산동구 지영동 1-61번지","category":"용역 서비스 - 사무서비스"}]},{"lat":"37.726624258","long":"126.8305906","items":[{"name":"주식회사 엘스타일","tel":"","addr":"경기도 고양시 일산동구 지영동 540-1번지","category":""}]},{"lat":"37.708594527","long":"126.82351057","items":[{"name":"주식회사메이드유룩코리아","tel":"031-921-1073","addr":"경기도 고양시 일산동구 지영동 382-37번지","category":""},{"name":"주식회사메이드유룩코리아","tel":"031-921-1073","addr":"경기도 고양시 일산동구 지영동 382-37번지","category":"신변잡화 - 신발"}]},{"lat":"37.713710217","long":"126.82834093","items":[{"name":"주식회사세형공업사","tel":"031-977-0080","addr":"경기도 고양시 일산동구 지영동 304-10번지","category":""},{"name":"한울","tel":"031-977-8165","addr":"경기도 고양시 일산동구 지영동 304-10번지","category":""},{"name":"한울","tel":"031-977-8165","addr":"경기도 고양시 일산동구 지영동 304-10번지","category":""}]},{"lat":"37.711571836","long":"126.82033929","items":[{"name":"주식회사신화폴딩","tel":"031-906-6824","addr":"경기도 고양시 일산동구 지영동 399-53번지","category":"건축자재 - 기타건축자재"},{"name":"주식회사신화폴딩","tel":"031-906-6824","addr":"경기도 고양시 일산동구 지영동 399-53번지","category":""}]},{"lat":"37.708096922","long":"126.82215093","items":[{"name":"주영기획","tel":"031-976-3929","addr":"경기도 고양시 일산동구 지영동","category":"건축자재 - 인테리어전문"}]},{"lat":"37.72304095","long":"126.83231163","items":[{"name":"지영토끼방앗간","tel":"031-975-1953","addr":"경기도 고양시 일산동구 지영동 622-3번지","category":"음료식품 - 제과점"},{"name":"지영토끼방앗간","tel":"031-975-1953","addr":"경기도 고양시 일산동구 지영동 622-3번지","category":""}]},{"lat":"37.713206247","long":"126.82272826","items":[{"name":"차세대산업/원격지","tel":"031-977-0283","addr":"경기도 고양시 일산동구 지영동 402번지","category":"기타 - 기타 전문점"},{"name":"차세대산업/원격지","tel":"031-977-0283","addr":"경기도 고양시 일산동구 지영동 402번지","category":""}]},{"lat":"37.71981648","long":"126.83297687","items":[{"name":"참나무오리","tel":"031-977-9403","addr":"경기도 고양시 일산동구 지영동 640-1번지","category":"일반휴게음식 - 일반한식"},{"name":"참나무오리","tel":"031-977-9403","addr":"경기도 고양시 일산동구 지영동 640-1번지","category":""}]},{"lat":"37.712958764","long":"126.81998432","items":[{"name":"천광","tel":"031-111-1111","addr":"경기도 고양시 일산동구 지영동 400-9번지","category":""},{"name":"천광","tel":"031-111-1111","addr":"경기도 고양시 일산동구 지영동 400-9번지","category":"신변잡화 - 기념품점"}]},{"lat":"37.720626144","long":"126.83214704","items":[{"name":"컴바이컴금촌점","tel":"031-976-6914","addr":"경기도 고양시 일산동구 지영동 638-2번지","category":""},{"name":"컴바이컴금촌점","tel":"031-976-6914","addr":"경기도 고양시 일산동구 지영동","category":"레져용품 - 스포츠·레져용품"}]},{"lat":"37.723321849","long":"126.83342257","items":[{"name":"코사마트지영점","tel":"070-8153-8943","addr":"경기도 고양시 일산동구 지영동 860번지","category":""},{"name":"코사마트지영점","tel":"070-8153-8943","addr":"경기도 고양시 일산동구 지영동 860번지","category":"유통업 영리 - 슈퍼마켓"}]},{"lat":"37.71004351","long":"126.82248642","items":[{"name":"키즈월드","tel":"","addr":"경기도 고양시 일산동구 지영동 산123번지","category":""},{"name":"키즈월드","tel":"","addr":"경기도 고양시 일산동구 지영동 산123번지","category":"건축자재 - 인테리어전문"}]},{"lat":"37.704848505","long":"126.82481234","items":[{"name":"타이어TC","tel":"031-965-9515","addr":"경기도 고양시 일산동구 지영동 374-20번지","category":""},{"name":"타이어TC","tel":"031-965-9515","addr":"경기도 고양시 일산동구 지영동 374-20번지","category":"자동차정비 유지 - 자동차시트·타이어"}]},{"lat":"37.712205872","long":"126.82851457","items":[{"name":"태영복층유리","tel":"031-977-8507","addr":"경기도 고양시 일산동구 지영동 313-11번지","category":""},{"name":"태영복층유리","tel":"031-977-8507","addr":"경기도 고양시 일산동구 지영동 313-11번지","category":"건축자재 - 유리"}]},{"lat":"37.711709514","long":"126.82198338","items":[{"name":"태영인테리어","tel":"031-977-1194","addr":"경기도 고양시 일산동구 지영동 398-3번지","category":""},{"name":"태영인테리어","tel":"031-977-1194","addr":"경기도 고양시 일산동구 지영동 398-3번지","category":"건축자재 - 목재·석재·철물"}]},{"lat":"37.710706409","long":"126.82001254","items":[{"name":"퍼시픽 하우스","tel":"031-938-2991","addr":"경기도 고양시 일산동구 지영동 399-40번지","category":"가구 - 일반가구"},{"name":"퍼시픽 하우스","tel":"031-938-2991","addr":"경기도 고양시 일산동구 지영동 399-40번지","category":""}]},{"lat":"37.723012016","long":"126.82492766","items":[{"name":"푸드114스쿨(school)","tel":"031-1899-5953","addr":"경기도 고양시 일산동구 지영동 441-1번지","category":""},{"name":"푸드114스쿨(school)","tel":"031-1899-5953","addr":"경기도 고양시 일산동구 지영동 441-1번지","category":"음료식품 - 기타음료식품"}]},{"lat":"37.70860111","long":"126.8219229","items":[{"name":"하나유통","tel":"031-962-0415","addr":"경기도 고양시 일산동구 지영동 382-11번지","category":""}]},{"lat":"37.720572562","long":"126.83247608","items":[{"name":"하니캠핑","tel":"","addr":"경기도 고양시 일산동구 지영동 638-1번지","category":"레져용품 - 스포츠·레져용품"}]},{"lat":"37.722513608","long":"126.82903485","items":[{"name":"한가람","tel":"031-976-5020","addr":"경기도 고양시 일산동구 지영동 215-5번지","category":"건축자재 - 인테리어전문"},{"name":"한가람","tel":"031-976-5020","addr":"경기도 고양시 일산동구 지영동 215-5번지","category":""},{"name":"한가람테크","tel":"031-976-5020","addr":"경기도 고양시 일산동구 지영동 215-5번지","category":""}]},{"lat":"37.712958993","long":"126.83215329","items":[{"name":"해인슈퍼","tel":"031-962-5508","addr":"경기도 고양시 일산동구 지영동 48번지","category":""}]},{"lat":"37.712070574","long":"126.8224248","items":[{"name":"행복한 중고가전","tel":"070-8238-4478","addr":"경기도 고양시 일산동구 지영동 401-4번지","category":"전기제품 - 가전제품"}]},{"lat":"37.718735086","long":"126.83917204","items":[{"name":"행복한요양원 3관","tel":"031-965-2203","addr":"경기도 고양시 일산동구 지영동 1077번지","category":""},{"name":"행복한요양원 3관","tel":"031-965-2203","addr":"경기도 고양시 일산동구 지영동 1077번지","category":"기타의료기관 - 기타의료기관 및 기타"}]},{"lat":"37.705407646","long":"126.82517388","items":[{"name":"현대상사","tel":"","addr":"경기도 고양시 일산동구 지영동 371번지","category":"기타 - 기계공구"}]},{"lat":"37.710762132","long":"126.82108977","items":[{"name":"홍성기업","tel":"031-976-2310","addr":"경기도 고양시 일산동구 지영동 399-9번지","category":"건축자재 - 인테리어전문"},{"name":"홍성기업","tel":"031-976-2310","addr":"경기도 고양시 일산동구 지영동 399-9번지","category":""}]}]