[{"lat":"37.293902569","long":"127.11832232","items":[{"name":"(주)오운","tel":"070-8802-3690","addr":"경기도 용인시 기흥구 언남동 408번지 삼성리지프라자 2층 205호","category":"전기제품 - 기타전기제품"},{"name":"A10헤어살롱","tel":"031-274-1178","addr":"경기도 용인시 기흥구 언남동 408번지 삼성빌딩 1층 104호","category":"보건위생 - 미용원"},{"name":"GS25기흥더시티점","tel":"","addr":"경기도 용인시 기흥구 언남동 408번지 1층 105~106호","category":"유통업 영리 - 편 의 점"},{"name":"가나전기조명","tel":"031-274-1143","addr":"경기도 용인시 기흥구 언남동 408번지 삼성리지프라자 110호","category":"건축자재 - 조명기구"},{"name":"경희무용학원","tel":"031-283-1369","addr":"경기도 용인시 기흥구 언남동 408외3필지삼성리지프라자306","category":"학원 - 예·체능계학원"},{"name":"구성푸른산아이랜드학원","tel":"031-283-7905","addr":"경기도 용인시 기흥구 언남동 408번지 삼성리지프라자 504동 505호","category":"회원제형태 - 학원"},{"name":"구성한솔플러스수학학원","tel":"031-284-7441","addr":"경기도 용인시 기흥구 언남동 408번지 삼성리지프라자 111호","category":"학원 - 보습학원"},{"name":"네트워크관리하는사람","tel":"031-287-8047","addr":"경기도 용인시 기흥구 언남동 408번지 삼성리지프라라제1층 112호","category":"사무통신 - 컴퓨터"},{"name":"뉴존노래연습장","tel":"031-287-8296","addr":"경기도 용인시 기흥구 언남동 408외3필지삼성리지프라자201,202호","category":"레저업소 - 노 래 방"},{"name":"다담교육","tel":"031-287-0939","addr":"경기도 용인시 기흥구 언남동 408번지 삼성리지프라자 112-1호","category":"회원제형태 - 서적"},{"name":"삼성영어구성영어교습소","tel":"031-287-0579","addr":"경기도 용인시 기흥구 언남동 408번지 삼성리지프라자 508호","category":"회원제형태 - 학원"},{"name":"상상숲미술학원","tel":"031-274-5737","addr":"경기도 용인시 기흥구 언남동 408번지 삼성리지프라자 506호","category":"학원 - 예·체능계학원"},{"name":"실내포장마차","tel":"031-284-3303","addr":"경기도 용인시 기흥구 언남동 408번지 삼성리지프라자 101호","category":"일반휴게음식 - 일반한식"},{"name":"언남러닝학원","tel":"031-292-3888","addr":"경기도 용인시 기흥구 언남동 408번지 삼성빌딩 504호","category":"학원 - 보습학원"},{"name":"이지블라인드(벽창호)","tel":"031-284-7844","addr":"경기도 용인시 기흥구 언남동 408번지 삼성리지프라자 102,103호","category":"직물 - 카페트,커튼,천막,지물"},{"name":"전형재수학교습소","tel":"","addr":"경기도 용인시 기흥구 언남동 408번지 삼성리지프라자 404호","category":"학원 - 보습학원"},{"name":"조이인테리어","tel":"070-8132-4656","addr":"경기도 용인시 기흥구 언남동 408번지 삼성리지프라자 401호","category":"건축자재 - 인테리어전문"},{"name":"참빛음악전문학원","tel":"031-283-6124","addr":"경기도 용인시 기흥구 언남동 408번지 삼성리지프라자 507호","category":"학원 - 예·체능계학원"},{"name":"프린스턴영어학원","tel":"031-281-0585","addr":"경기도 용인시 기흥구 언남동 408번지 삼성리지프라자 407호","category":"학원 - 보습학원"},{"name":"하울의식탁","tel":"031-287-1206","addr":"경기도 용인시 기흥구 언남동 408번지 삼성리지프라자 403호","category":"일반휴게음식 - 스넥"},{"name":"한곱창","tel":"","addr":"경기도 용인시 기흥구 언남동 408번지 삼성리지프라자 1층 109호","category":"일반휴게음식 - 일반한식"},{"name":"힐링키즈에듀(Healing Kids Edu)","tel":"031-734-9006","addr":"경기도 용인시 기흥구 언남동 408번지 삼성빌딩","category":"회원제형태 - 서적"}]},{"lat":"37.297176968","long":"127.12366198","items":[{"name":"(주)원렌트카(용인지점)","tel":"031-265-1400","addr":"경기도 용인시 기흥구 언남동 299-1번지","category":"여행 - 렌터카"}]},{"lat":"37.294513681","long":"127.119936","items":[{"name":"(주)케이에스북","tel":"031-284-6606","addr":"경기도 용인시 기흥구 언남동 336-3번지 언남프라자 208호","category":"서적문구 - 일반서적"},{"name":"김람훈내과의원","tel":"031-286-8334","addr":"경기도 용인시 기흥구 언남동 336-3번지 언남프라자 202호","category":"의원 - 의원"},{"name":"나노갈매기","tel":"031-275-4482","addr":"경기도 용인시 기흥구 언남동 336-3번지 외1필지언남프라자 105호","category":"일반휴게음식 - 일반한식"},{"name":"난타5000피자","tel":"031-285-2999","addr":"경기도 용인시 기흥구 언남동 336-3번지 언남프라자 118호","category":"일반휴게음식 - 서양음식"},{"name":"다바르학원","tel":"","addr":"경기도 용인시 기흥구 언남동 336-3번지 언남프라자 2층 206동","category":"학원 - 보습학원"},{"name":"닭갈비마을","tel":"031-274-5008","addr":"경기도 용인시 기흥구 언남동 336-3번지 언남프라자 106호","category":"일반휴게음식 - 일반한식"},{"name":"대박통신 언남점","tel":"031-285-1933","addr":"경기도 용인시 기흥구 언남동 336-3번지 외1필지(336-14)언남프라자 101호","category":"사무통신 - 통신기기"},{"name":"디베라 테이블(Tiberia table)","tel":"02-1577-0000","addr":"경기도 용인시 기흥구 언남동 336-3번지 언남프라자 204-1호","category":"일반휴게음식 - 일반한식"},{"name":"뚱바이춘천집","tel":"031-283-6313","addr":"경기도 용인시 기흥구 언남동 336-3번지 언남프라자 111,112호","category":"일반휴게음식 - 일반한식"},{"name":"로얄당구장","tel":"02-000-0000","addr":"경기도 용인시 기흥구 언남동 336-3번지 언남프라자 307호,308호","category":"레저업소 - 당 구 장"},{"name":"루나헤어","tel":"031-285-0760","addr":"경기도 용인시 기흥구 언남동 336-3번지 언남프라자 102호","category":"보건위생 - 미용원"},{"name":"마임구성비젼지사","tel":"031-285-3141","addr":"경기도 용인시 기흥구 언남동 336-3번지 언남프라자 304호","category":"건강식품 - 기타건강식품"},{"name":"마임구성화평지사","tel":"031-285-3142","addr":"경기도 용인시 기흥구 언남동 336-3번지 언남프라자 304호","category":"보건위생 - 화장품"},{"name":"마임용인구성지사","tel":"031-285-3141","addr":"경기도 용인시 기흥구 언남동 336-3번지 언남프라자 304호","category":"보건위생 - 화장품"},{"name":"막상막회","tel":"031-274-6133","addr":"경기도 용인시 기흥구 언남동 336-3번지 언남프라자 116호","category":"일반휴게음식 - 일식·회집"},{"name":"명가포차","tel":"031-281-2708","addr":"경기도 용인시 기흥구 언남동 336-3번지 외1필지 언남프라자 109호","category":"일반휴게음식 - 일반한식"},{"name":"본죽","tel":"031-275-3303","addr":"경기도 용인시 기흥구 언남동 336-3번지 언남프라자 121호","category":"일반휴게음식 - 일반한식"},{"name":"비비큐언남점","tel":"031-286-4666","addr":"경기도 용인시 기흥구 언남동 336-3번지 언남프라자 1층 114호","category":"일반휴게음식 - 스넥"},{"name":"서현법무사사무소","tel":"031-285-6033","addr":"경기도 용인시 기흥구 언남동 336-3번지 언남프라자 2층 207호","category":"용역 서비스 - 법률회계서비스(개인)"},{"name":"선미네양꼬치","tel":"","addr":"경기도 용인시 기흥구 언남동 336-3번지 언남프라자 107호","category":"일반휴게음식 - 일반한식"},{"name":"신전떡볶이 구성점","tel":"031-281-3233","addr":"경기도 용인시 기흥구 언남동 336-3번지 언남프라자 119호","category":"일반휴게음식 - 스넥"},{"name":"언남이화약국","tel":"031-893-7049","addr":"경기도 용인시 기흥구 언남동 336-3번지 언남프라자 203호","category":"약국 - 약국"},{"name":"언남프라자약국","tel":"031-275-7773","addr":"경기도 용인시 기흥구 언남동 336-3번지 언남프라자 103호","category":"약국 - 약국"},{"name":"엔큐브 PC","tel":"070-7299-1098","addr":"경기도 용인시 기흥구 언남동 336-3번지 언남프라자 305,306호","category":"레저업소 - 기타레져업소"},{"name":"연세림치과","tel":"031-275-0275","addr":"경기도 용인시 기흥구 언남동 336-3번지","category":"의원 - 치과의원"},{"name":"오땅비어(용인언남점)","tel":"031-274-5088","addr":"경기도 용인시 기흥구 언남동 336-3번지 언남프라자 120호","category":"일반휴게음식 - 일반한식"},{"name":"이현헤어샵","tel":"","addr":"경기도 용인시 기흥구 언남동 336-3번지 언남프라자 2층 209호","category":"보건위생 - 미용원"},{"name":"인사동주점","tel":"031-284-3337","addr":"경기도 용인시 기흥구 언남동 336-3번지 언남프라자 110호","category":"일반휴게음식 - 주점"},{"name":"장수꺼먹돼지","tel":"031-8005-8248","addr":"경기도 용인시 기흥구 언남동 336-3번지 언남프라자 1층 105호","category":"일반휴게음식 - 일반한식"},{"name":"채플린 노래연습장","tel":"031-284-9905","addr":"경기도 용인시 기흥구 언남동 336-3번지 언남프라자 302,303호","category":"레저업소 - 노 래 방"},{"name":"추억의종로빈대떡","tel":"031-286-0062","addr":"경기도 용인시 기흥구 언남동 336-3번지 언남프라자 1층 108호","category":"일반휴게음식 - 일반한식"},{"name":"케이앤케이(K&K)컴퍼니","tel":"031-281-9201","addr":"경기도 용인시 기흥구 언남동 336-3번지 언남프라자 1층 102호","category":"사무통신 - 통신기기"},{"name":"클럽밸런스5","tel":"031-274-3855","addr":"경기도 용인시 기흥구 언남동 336-3번지 언남프라자 205호","category":"건강식품 - 기타건강식품"},{"name":"토속마을","tel":"031-282-4280","addr":"경기도 용인시 기흥구 언남동 336-3번지 언남프라자 117호","category":"일반휴게음식 - 일반한식"},{"name":"홀리데이","tel":"031-111-1111","addr":"경기도 용인시 기흥구 언남동 336-3번지 언남프라자 115호","category":"일반휴게음식 - 서양음식"},{"name":"황소곱창이야기","tel":"050-7801-2453","addr":"경기도 용인시 기흥구 언남동 336-3번지 언남프라자 1층 104호","category":"일반휴게음식 - 일반한식"}]},{"lat":"37.293539331","long":"127.12118633","items":[{"name":"BEAUTY HOTEL","tel":"031-282-4126","addr":"경기도 용인시 기흥구 언남동 242-3번지 로얄프라자 1층 107호","category":"보건위생 - 화장품"},{"name":"동일이발","tel":"031-000-0000","addr":"경기도 용인시 기흥구 언남동 242-3번지 로얄프라자 106호","category":"보건위생 - 이용원"},{"name":"드림뮤직실용음악센터","tel":"070-8173-2453","addr":"경기도 용인시 기흥구 언남동 242-3번지 로얄프라자 2층 201호","category":"용역 서비스 - 사무서비스"},{"name":"몸이편한세상","tel":"","addr":"경기도 용인시 기흥구 언남동 242-3번지 로얄프라자 지하1층 101호","category":"신변잡화 - 신발"},{"name":"설빙 용인구성점","tel":"031-275-9996","addr":"경기도 용인시 기흥구 언남동 242-3번지 로얄프라자 203호","category":"일반휴게음식 - 서양음식"},{"name":"스타네일","tel":"031-283-8341","addr":"경기도 용인시 기흥구 언남동 242-3번지 로얄프라자 104호","category":"보건위생 - 화장품"},{"name":"아르웬부띠끄","tel":"031-205-9770","addr":"경기도 용인시 기흥구 언남동 242-3번지 로얄프라자 1층 105호","category":"의류 - 정장"},{"name":"아이마트안경원","tel":"031-284-0046","addr":"경기도 용인시 기흥구 언남동 242-3번지 로얄프라자 101호~102호","category":"보건위생 - 안경"},{"name":"용인대 가온 합기도","tel":"031-281-0065","addr":"경기도 용인시 기흥구 언남동 242-3번지 로얄프라자 301호","category":"학원 - 예·체능계학원"},{"name":"제이비헤어스토리(JBhairstory)","tel":"031-283-6707","addr":"경기도 용인시 기흥구 언남동 242-3번지 로얄프라자 202호","category":"보건위생 - 미용원"},{"name":"태후사랑 구성점","tel":"031-286-5545","addr":"경기도 용인시 기흥구 언남동 242-3번지 구성로얄프라자 1층 108호","category":"보건위생 - 화장품"}]},{"lat":"37.292538947","long":"127.12143287","items":[{"name":"CAFFE D'ATE","tel":"031-8005-6556","addr":"경기도 용인시 기흥구 언남동 419-1번지","category":"일반휴게음식 - 서양음식"},{"name":"Joyful (조이풀)","tel":"031-283-5666","addr":"경기도 용인시 기흥구 언남동 419-1번지 102-1호","category":"사무통신 - 통신기기"},{"name":"하얀크리닝 용인언남점","tel":"031-261-9090","addr":"경기도 용인시 기흥구 언남동 419-1번지","category":"수리서비스 - 세탁소"},{"name":"현대옥(용인언남정)","tel":"031-284-0147","addr":"경기도 용인시 기흥구 언남동 419-1번지 102호","category":"일반휴게음식 - 일반한식"}]},{"lat":"37.29410022","long":"127.11890907","items":[{"name":"GS25구성래미안점","tel":"","addr":"경기도 용인시 기흥구 언남동 412-2번지 102~103호","category":"유통업 영리 - 편 의 점"},{"name":"다봄안과의원","tel":"031-308-1100","addr":"경기도 용인시 기흥구 언남동 412-2번지 국민은행 2층 204호","category":"의원 - 의원"},{"name":"데일리토브","tel":"031-275-0055","addr":"경기도 용인시 기흥구 언남동 412-2번지 시간과공간빌딩 1층 106호","category":"의류 - 정장"},{"name":"리가헤어살롱(RIGA HAIR SALON)","tel":"031-282-3677","addr":"경기도 용인시 기흥구 언남동 412-2번지 국민은행 104호","category":"보건위생 - 미용원"},{"name":"박진녕소아청소년과의원","tel":"031-283-9195","addr":"경기도 용인시 기흥구 언남동 412-2번지 국민은행 302호","category":"의원 - 의원"},{"name":"수학생각학원","tel":"070-4327-1499","addr":"경기도 용인시 기흥구 언남동 412-2번지 국민은행 504호","category":"학원 - 보습학원"},{"name":"씨이(CE)영어학원","tel":"031-284-0579","addr":"경기도 용인시 기흥구 언남동 412-2번지 시간과공간빌딩 402호","category":"회원제형태 - 학원"},{"name":"아이디스튜디오","tel":"","addr":"경기도 용인시 기흥구 언남동 412-2번지 B101-2호","category":"레저업소 - 헬스클럽"},{"name":"언남현대사약국","tel":"031-284-7977","addr":"경기도 용인시 기흥구 언남동 412-2번지","category":"약국 - 약국"},{"name":"에코 라이프","tel":"031-693-6087","addr":"경기도 용인시 기흥구 언남동 412-2번지 국민은행 203호","category":"주방용구 - 주방용구"},{"name":"연세플러스치과의원","tel":"031-283-2863","addr":"경기도 용인시 기흥구 언남동 412-2번지 국민은행 4층 401호","category":"의원 - 치과의원"},{"name":"용인대 YP 복싱짐","tel":"","addr":"경기도 용인시 기흥구 언남동 412-2번지 4층 403-1호","category":"레저업소 - 헬스클럽"},{"name":"참사랑한의원","tel":"031-283-7512","addr":"경기도 용인시 기흥구 언남동 412-2번지 국민은행 301호","category":"의원 - 한의원"},{"name":"치어스 구성점","tel":"031-284-9993","addr":"경기도 용인시 기흥구 언남동 412-2번지 1층","category":"일반휴게음식 - 주점"},{"name":"키득키득만화카페","tel":"031-282-7989","addr":"경기도 용인시 기흥구 언남동 412-2번지 시간과공간 501호 일부","category":"레저업소 - 기타레져업소"},{"name":"킹콩점프 구성점","tel":"031-283-1579","addr":"경기도 용인시 기흥구 언남동 412-2번지 국민은행 303호","category":"레저업소 - 기타레져업소"}]},{"lat":"37.295371992","long":"127.11754637","items":[{"name":"GS25기흥구성점","tel":"","addr":"경기도 용인시 기흥구 언남동 371-6번지 1층","category":"유통업 영리 - 편 의 점"},{"name":"만능열쇠","tel":"031-283-1133","addr":"경기도 용인시 기흥구 언남동 371-6번지","category":"건축자재 - 목재·석재·철물"},{"name":"켄쿤푸드","tel":"031-284-9255","addr":"경기도 용인시 기흥구 언남동 371-6번지","category":"음료식품 - 정육점"}]},{"lat":"37.289239816","long":"127.12280351","items":[{"name":"GS25기흥성원점","tel":"","addr":"경기도 용인시 기흥구 언남동 500번지 성원상떼빌 단지내상가 101~103호","category":"유통업 영리 - 편 의 점"},{"name":"김희선헤어살롱","tel":"031-275-3834","addr":"경기도 용인시 기흥구 언남동 500번지 초원마을성원상떼빌 상가동 108호","category":"보건위생 - 미용원"},{"name":"딩동댕음악전문학원","tel":"031-275-0533","addr":"경기도 용인시 기흥구 언남동 500번지 초원마을성원상떼빌 상가동 4층 404,405호","category":"학원 - 예·체능계학원"},{"name":"미모미용실","tel":"031-285-7747","addr":"경기도 용인시 기흥구 언남동 500번지 초원마을성원상떼빌 상가동 301호","category":"보건위생 - 미용원"},{"name":"성원음악전문학원","tel":"031-275-0533","addr":"경기도 용인시 기흥구 언남동 500번지 초원마을성원상떼빌 상가동 404,405호","category":"학원 - 예·체능계학원"},{"name":"성원해법수학교습소","tel":"031-287-7547","addr":"경기도 용인시 기흥구 언남동 500번지 초원마을성원상떼빌 상가동 113호","category":"회원제형태 - 학원"},{"name":"아이맥스잉글리쉬영어교습소","tel":"031-274-2411","addr":"경기도 용인시 기흥구 언남동 500번지 초원마을성원상떼빌 108호","category":"학원 - 외국어학원"},{"name":"엘엔","tel":"","addr":"경기도 용인시 기흥구 언남동 500번지 초원마을성원상떼빌 상가동 2층 201호","category":"용역 서비스 - 사무서비스"},{"name":"용인대 아이사랑태권도장","tel":"031-275-7770","addr":"경기도 용인시 기흥구 언남동 500번지 401호~403호","category":"학원 - 예·체능계학원"},{"name":"좋은생각 논술학원","tel":"031-286-5570","addr":"경기도 용인시 기흥구 언남동 500번지 초원마을성원상떼빌 상가동 204,205호","category":"학원 - 보습학원"},{"name":"창대미술학원","tel":"031-287-4394","addr":"경기도 용인시 기흥구 언남동 500번지 초원마을성원상떼빌 상가동 406호,407호","category":"학원 - 예·체능계학원"},{"name":"초원마을성원상떼빌입주자대표회의","tel":"031-275-5656","addr":"경기도 용인시 기흥구 언남동 500번지 초원마을성원상떼빌","category":"레저업소 - 헬스클럽"},{"name":"최윤경음악교습소","tel":"031-283-5055","addr":"경기도 용인시 기흥구 언남동 500번지 초원마을성원상떼빌아파트 상가동 207호","category":"학원 - 예·체능계학원"},{"name":"테솔영어교습소","tel":"031-274-0005","addr":"경기도 용인시 기흥구 언남동 500번지 초원마을성원상떼빌 상가동 3층 303호","category":"학원 - 외국어학원"},{"name":"한솔플러스언남직영학원","tel":"031-281-8077","addr":"경기도 용인시 기흥구 언남동 500번지 초원마을성원상떼빌 상가동 304,305호","category":"학원 - 보습학원"}]},{"lat":"37.293378001","long":"127.12032896","items":[{"name":"GS25언남중앙점","tel":"","addr":"경기도 용인시 기흥구 언남동 416-7번지 1층 113호","category":"유통업 영리 - 편 의 점"},{"name":"가람그룹세무법인 구성점","tel":"031-526-9222","addr":"경기도 용인시 기흥구 언남동 416-7번지 푸른 종합상가 308호","category":"용역 서비스 - 법률회계서비스(법인)"},{"name":"구성수치과의원","tel":"031-283-2874","addr":"경기도 용인시 기흥구 언남동 416-7번지 푸른종합 상가 206호","category":"의원 - 치과의원"},{"name":"기흥다축산","tel":"031-284-9482","addr":"경기도 용인시 기흥구 언남동 416-7번지 112호 외2필지 푸른종합 상가 1층 제112호","category":"음료식품 - 정육점"},{"name":"네일","tel":"070-8812-2272","addr":"경기도 용인시 기흥구 언남동 416-7번지 108호","category":"보건위생 - 피부미용실"},{"name":"드림디포 용인구성점","tel":"031-284-2260","addr":"경기도 용인시 기흥구 언남동 416-7번지 푸른종합상가 2층 205호","category":"서적문구 - 문구용품"},{"name":"라임음악학원","tel":"031-223-5214","addr":"경기도 용인시 기흥구 언남동 416-7번지 푸른 종합상가 307호","category":"학원 - 예·체능계학원"},{"name":"명랑시대쌀핫도그","tel":"031-274-0077","addr":"경기도 용인시 기흥구 언남동 416-7번지","category":"일반휴게음식 - 일반한식"},{"name":"명인에듀스카이학원","tel":"031-284-1080","addr":"경기도 용인시 기흥구 언남동 416-7번지 푸른 종합상가 309,310호","category":"학원 - 보습학원"},{"name":"미소야","tel":"031-283-0260","addr":"경기도 용인시 기흥구 언남동 416-7번지 외2필지 푸른 종합상가 104호","category":"일반휴게음식 - 스넥"},{"name":"버무리떡볶이 언남점","tel":"031-283-0488","addr":"경기도 용인시 기흥구 언남동 416-7번지 푸른종합 상가 110호","category":"일반휴게음식 - 스넥"},{"name":"브레드스토리","tel":"031-285-5889","addr":"경기도 용인시 기흥구 언남동 416-7번지 푸른 종합상가 105호","category":"음료식품 - 제과점"},{"name":"브릭스페셜(Brick Special)","tel":"070-8758-4992","addr":"경기도 용인시 기흥구 언남동 416-5번지 푸른종합상가 303호","category":"학원 - 기타 교육기관"},{"name":"소담샤브샤브칼국수","tel":"031-274-6799","addr":"경기도 용인시 기흥구 언남동 416-7번지 푸른종합상가 1동 115호 114,115호","category":"일반휴게음식 - 일반한식"},{"name":"스파렉스사우나","tel":"031-284-0284","addr":"경기도 용인시 기흥구 언남동 416-7번지","category":"보건위생 - 사우나"},{"name":"아리따움구성점","tel":"031-282-2349","addr":"경기도 용인시 기흥구 언남동 416-7번지 푸른 종합상가 108호","category":"보건위생 - 화장품"},{"name":"약손힐링상사","tel":"031-274-1289","addr":"경기도 용인시 기흥구 언남동 416-7번지 304호","category":"보건위생 - 화장품"},{"name":"에비뉴삼사(3.4)","tel":"031-000-0000","addr":"경기도 용인시 기흥구 언남동 416-7번지 117호","category":"보건위생 - 미용원"},{"name":"월드텔레콤","tel":"031-284-0999","addr":"경기도 용인시 기흥구 언남동 416-7번지 외2필지푸른종합상가 1층 112호","category":"사무통신 - 통신기기"},{"name":"이슬애과일 주식회사","tel":"031-285-2282","addr":"경기도 용인시 기흥구 언남동 416-7번지 102호","category":"음료식품 - 농·축·수산품"},{"name":"일이","tel":"","addr":"경기도 용인시 기흥구 언남동 416-7번지 푸른 종합상가 1층 117호","category":"의류 - 정장"},{"name":"장독대 구성점","tel":"031-286-5289","addr":"경기도 용인시 기흥구 언남동 416-7번지 푸른 종합상가 116호","category":"음료식품 - 기타음료식품"},{"name":"정도태권도장","tel":"031-285-6688","addr":"경기도 용인시 기흥구 언남동 416-7번지 푸른 종합상가 209호","category":"학원 - 예·체능계학원"},{"name":"조성각한의원","tel":"031-283-5888","addr":"경기도 용인시 기흥구 언남동 416-7번지 푸른 종합상가 305호","category":"의원 - 한의원"},{"name":"주식회사올맘","tel":"031-283-3338","addr":"경기도 용인시 기흥구 언남동 416-7번지 1층 111호","category":"유통업 영리 - 슈퍼마켓"},{"name":"케어클럽화장품","tel":"031-283-9870","addr":"경기도 용인시 기흥구 언남동 416-7번지 푸른 종합상가 304호","category":"보건위생 - 화장품"},{"name":"킹스타피자","tel":"031-284-2898","addr":"경기도 용인시 기흥구 언남동 416-7번지 푸른 종합상가 106호","category":"일반휴게음식 - 서양음식"},{"name":"탑플레이스 용인언남점","tel":"070-5399-3244","addr":"경기도 용인시 기흥구 언남동 416-7번지 푸른 종합상가 301호,302호","category":"레저업소 - 기타레져업소"},{"name":"페르마학원","tel":"031-284-1080","addr":"경기도 용인시 기흥구 언남동 416-7번지 푸른 종합상가 309,310호","category":"학원 - 보습학원"},{"name":"프라임약국","tel":"031-282-4747","addr":"경기도 용인시 기흥구 언남동 416-7번지 외2필지 푸른 종합상가 205호","category":"약국 - 약국"},{"name":"프라임약국","tel":"031-282-4747","addr":"경기도 용인시 기흥구 언남동 416-7번지 푸른종합상가 205호","category":"약국 - 약국"},{"name":"헤어미라클","tel":"031-9999-9999","addr":"경기도 용인시 기흥구 언남동 416-7번지 푸른종합 상가 2층 204호","category":"보건위생 - 미용원"},{"name":"홍이비인후과의원","tel":"031-287-0028","addr":"경기도 용인시 기흥구 언남동 416-7번지","category":"의원 - 의원"},{"name":"황금시루","tel":"031-284-8233","addr":"경기도 용인시 기흥구 언남동 416-7번지 푸른 상가 101호","category":"음료식품 - 제과점"}]},{"lat":"37.293900213","long":"127.12071322","items":[{"name":"JL골프아카데미","tel":"031-275-3107","addr":"경기도 용인시 기흥구 언남동 336-7번지 멀티프라자 310호","category":"레저업소 - 골프연습장"},{"name":"가시버시헤어","tel":"031-274-3908","addr":"경기도 용인시 기흥구 언남동 336-7번지 멀티프라자","category":"보건위생 - 미용원"},{"name":"경동한의원","tel":"031-285-9075","addr":"경기도 용인시 기흥구 언남동 336-7번지 멀티프라자 207호","category":"의원 - 한의원"},{"name":"고봉민김밥인 언남점","tel":"031-284-8400","addr":"경기도 용인시 기흥구 언남동 336-7번지 멀티프라자 105호","category":"일반휴게음식 - 일반한식"},{"name":"구성골프","tel":"031-275-3107","addr":"경기도 용인시 기흥구 언남동 336-7번지 멀티프라자 310호","category":"회원제형태 - 레져업소"},{"name":"구성이보영의토킹클럽어학원","tel":"031-283-0594","addr":"경기도 용인시 기흥구 언남동 336-7번지 멀티프라자","category":"학원 - 외국어학원"},{"name":"국수나무 언남점","tel":"031-285-0994","addr":"경기도 용인시 기흥구 언남동 336-7번지 멀티프라자 103호","category":"일반휴게음식 - 일반한식"},{"name":"굿멘토스터디학원","tel":"031-274-5259","addr":"경기도 용인시 기흥구 언남동 336-7번지 멀티프라자 309호","category":"학원 - 보습학원"},{"name":"그레이스","tel":"031-275-3614","addr":"경기도 용인시 기흥구 언남동 336-7번지 멀티프라자 1동 109호","category":"신변잡화 - 신발"},{"name":"단호박","tel":"031-693-7862","addr":"경기도 용인시 기흥구 언남동 336-7번지 멀티프라자 1층 118-119호","category":"일반휴게음식 - 일반한식"},{"name":"더헤어","tel":"031-286-8893","addr":"경기도 용인시 기흥구 언남동 336-7번지 멀티프라자 1층 122호","category":"보건위생 - 미용원"},{"name":"림차이나","tel":"031-282-3177","addr":"경기도 용인시 기흥구 언남동 336-7번지 멀티프라자 101호","category":"일반휴게음식 - 중국식"},{"name":"멀티프라자 상가번영회","tel":"031-275-3040","addr":"경기도 용인시 기흥구 언남동 336-7번지 멀티프라자","category":"자동차정비 유지 - 주차장"},{"name":"메가MGC커피 용인언남점","tel":"","addr":"경기도 용인시 기흥구 언남동 336-7번지 멀티프라자 1층 113호","category":"일반휴게음식 - 서양음식"},{"name":"뷰티플랜","tel":"070-8828-6344","addr":"경기도 용인시 기흥구 언남동 336-7번지 멀티프라자 102호","category":"보건위생 - 미용재료"},{"name":"신통치킨","tel":"031-275-9288","addr":"경기도 용인시 기흥구 언남동 336-7번지 멀티프라자 110호","category":"일반휴게음식 - 일반한식"},{"name":"씨유구성멀티점","tel":"031-275-4014","addr":"경기도 용인시 기흥구 언남동 336-7번지 멀티프라자 104호","category":"유통업 영리 - 편 의 점"},{"name":"아모레 카운셀러","tel":"031-281-8140","addr":"경기도 용인시 기흥구 언남동 336-7번지 멀티프라자 204,205호","category":"보건위생 - 화장품"},{"name":"아모레 카운셀러","tel":"031-281-8140","addr":"경기도 용인시 기흥구 언남동 336-7번지 멀티프라자 204,205호","category":"보건위생 - 화장품"},{"name":"아모레 카운셀러","tel":"031-281-8140","addr":"경기도 용인시 기흥구 언남동 336-7번지 멀티프라자 204,205호","category":"보건위생 - 화장품"},{"name":"아모레 카운셀러","tel":"031-281-8140","addr":"경기도 용인시 기흥구 언남동 336-7번지 멀티프라자 204,205호","category":"보건위생 - 화장품"},{"name":"아모레외판","tel":"031-213-4784","addr":"경기도 용인시 기흥구 언남동 336-7번지 멀티프라자 204호 205호","category":"보건위생 - 화장품"},{"name":"아모레카운셀러","tel":"031-281-8140","addr":"경기도 용인시 기흥구 언남동 336-7번지 멀티프라자 204,205호","category":"보건위생 - 화장품"},{"name":"아모레카운셀러","tel":"031-281-8140","addr":"경기도 용인시 기흥구 언남동 336-7번지 204,205호","category":"보건위생 - 화장품"},{"name":"아모레카운셀러","tel":"031-281-8140","addr":"경기도 용인시 기흥구 언남동 336-7번지 멀티프라자 204,205호","category":"보건위생 - 화장품"},{"name":"아모레카운셀러","tel":"031-281-8140","addr":"경기도 용인시 기흥구 언남동 336-7번지 멀티프라자 204호","category":"보건위생 - 화장품"},{"name":"아모레카운셀러","tel":"031-281-8140","addr":"경기도 용인시 기흥구 언남동 336-7번지 멀티프라자 204,205호","category":"보건위생 - 화장품"},{"name":"아모레카운셀러","tel":"031-281-8140","addr":"경기도 용인시 기흥구 언남동 336-7번지 멀티프라자 204,205호","category":"보건위생 - 화장품"},{"name":"아모레카운셀러","tel":"031-281-8140","addr":"경기도 용인시 기흥구 언남동 336-7번지 멀티프라자 204호","category":"보건위생 - 화장품"},{"name":"아모레카운셀러","tel":"031-281-8140","addr":"경기도 용인시 기흥구 언남동 336-7번지 멀티프라자 204,205호","category":"보건위생 - 화장품"},{"name":"아모레카운셀러","tel":"031-281-8140","addr":"경기도 용인시 기흥구 언남동 336-7번지 멀티프라자 204,205호","category":"보건위생 - 화장품"},{"name":"아모레카운셀러","tel":"031-281-8140","addr":"경기도 용인시 기흥구 언남동 336-7번지 멀티프라자 204,205호","category":"보건위생 - 화장품"},{"name":"아모레카운셀러","tel":"031-281-8140","addr":"경기도 용인시 기흥구 언남동 336-7번지 멀티프라자 204,205호","category":"보건위생 - 화장품"},{"name":"용인대부부해람태권도장","tel":"031-275-8882","addr":"경기도 용인시 기흥구 언남동 336-7번지 멀티프라자 301호","category":"학원 - 예·체능계학원"},{"name":"우리농산물","tel":"031-284-8286","addr":"경기도 용인시 기흥구 언남동 336-7번지 멀티프라자 1층 115호","category":"음료식품 - 농·축·수산품"},{"name":"이삭토스트","tel":"031-8005-8228","addr":"경기도 용인시 기흥구 언남동 336-7번지 멀티프라자 111호","category":"일반휴게음식 - 스넥"},{"name":"이윤희음악학원","tel":"031-286-8005","addr":"경기도 용인시 기흥구 언남동 336-7번지 멀티프라자 307호","category":"학원 - 예·체능계학원"},{"name":"점프북","tel":"","addr":"경기도 용인시 기흥구 언남동 336-7번지 멀티프라자 209,210호","category":"레저업소 - 기타레져업소"},{"name":"점프스쿨","tel":"031-285-8883","addr":"경기도 용인시 기흥구 언남동 336-7번지 멀티프라자 2층 211호","category":"레저업소 - 기타레져업소"},{"name":"젤리죔죔","tel":"","addr":"경기도 용인시 기흥구 언남동 336-7번지 멀티프라자 208호","category":"일반휴게음식 - 서양음식"},{"name":"치킨마루언남점","tel":"031-282-2013","addr":"경기도 용인시 기흥구 언남동 336-7번지 멀티프라자 108호","category":"일반휴게음식 - 스넥"},{"name":"커피에반하다","tel":"031-284-8685","addr":"경기도 용인시 기흥구 언남동 336-7번지 멀티프라자 117호","category":"일반휴게음식 - 서양음식"},{"name":"크라운통신","tel":"031-8005-6507","addr":"경기도 용인시 기흥구 언남동 336-7번지 멀티프라자 108호","category":"사무통신 - 통신기기"},{"name":"크린토피아구성동일하이빌","tel":"031-286-0080","addr":"경기도 용인시 기흥구 언남동 336-7번지 멀티프라자 120호","category":"수리서비스 - 세탁소"},{"name":"파스타마마","tel":"031-282-3509","addr":"경기도 용인시 기흥구 언남동 336-7번지 멀티프라자 1층 112호","category":"일반휴게음식 - 서양음식"},{"name":"피디에스(PDS)PC CAFE","tel":"","addr":"경기도 용인시 기흥구 언남동 336-7번지 201,202호","category":"레저업소 - 기타레져업소"},{"name":"피자스쿨 언남점","tel":"031-274-3323","addr":"경기도 용인시 기흥구 언남동 336-7번지 멀티프라자 114호","category":"일반휴게음식 - 서양음식"},{"name":"필수학교습소","tel":"","addr":"경기도 용인시 기흥구 언남동 336-7번지 멀티프라자 121호","category":"학원 - 보습학원"},{"name":"해바라기치과의원","tel":"031-283-8276","addr":"경기도 용인시 기흥구 언남동 336-7번지 멀티프라자 3층","category":"의원 - 치과의원"},{"name":"해피전통24시 북 사우나","tel":"031-548-1815","addr":"경기도 용인시 기흥구 언남동 336-7번지 멀티프라자 지하1층","category":"보건위생 - 사우나"}]},{"lat":"37.29409902","long":"127.12012708","items":[{"name":"MY운동본부","tel":"031-283-1753","addr":"경기도 용인시 기흥구 언남동 336-5번지 타임빌딩 4층","category":"레저업소 - 헬스클럽"},{"name":"구성치과","tel":"031-283-2752","addr":"경기도 용인시 기흥구 언남동 336-5번지 타임빌딩 401호","category":"의원 - 치과의원"},{"name":"누리유통","tel":"031-235-4411","addr":"경기도 용인시 기흥구 언남동 336-5번지 타임빌딩 104호","category":"음료식품 - 농·축·수산품"},{"name":"백세한의원","tel":"031-271-1075","addr":"경기도 용인시 기흥구 언남동 336-5번지 타임빌딩 2동 201호","category":"의원 - 한의원"},{"name":"백세한의원","tel":"031-274-1075","addr":"경기도 용인시 기흥구 언남동 336-5번지 타임빌딩 2층 1호","category":"의원 - 한의원"},{"name":"새봄산부인과의원","tel":"031-283-3350","addr":"경기도 용인시 기흥구 언남동 336-5번지 타임빌딩","category":"의원 - 의원"},{"name":"싱그런청과","tel":"031-282-5513","addr":"경기도 용인시 기흥구 언남동 336-5번지 타임빌딩 104호","category":"음료식품 - 농·축·수산품"},{"name":"에이엔씨어학원","tel":"031-285-0801","addr":"경기도 용인시 기흥구 언남동 336-5번지 타임빌딩 303호","category":"회원제형태 - 학원"},{"name":"연세준통증의학과의원","tel":"031-281-4002","addr":"경기도 용인시 기흥구 언남동 336-5번지 타임빌딩 4층","category":"의원 - 의원"},{"name":"타임약국","tel":"031-283-5233","addr":"경기도 용인시 기흥구 언남동 336-5번지 1층 타임빌딩 일부","category":"약국 - 약국"}]},{"lat":"37.2913788","long":"127.12807349","items":[{"name":"O.K당구장","tel":"031-284-1120","addr":"경기도 용인시 기흥구 언남동 166-1번지","category":"레저업소 - 당 구 장"},{"name":"용인대 검도교실 (구성관)","tel":"031-274-2060","addr":"경기도 용인시 기흥구 언남동 166-1번지 2층","category":"학원 - 예·체능계학원"},{"name":"우리환경개발주식회사","tel":"031-283-3734","addr":"경기도 용인시 기흥구 언남동 166-1번지 2층","category":"용역 서비스 - 기타용역서비스"},{"name":"페리카나구성1호점","tel":"031-284-0848","addr":"경기도 용인시 기흥구 언남동 166-1번지","category":"일반휴게음식 - 스넥"}]},{"lat":"37.294622076","long":"127.12846232","items":[{"name":"SE클리닝","tel":"031-000-0000","addr":"경기도 용인시 기흥구 언남동 112-2번지 파인그로브1차 101동 102호","category":"용역 서비스 - 종합용역"}]},{"lat":"37.294930677","long":"127.11735398","items":[{"name":"가장맛있는족발(구성점)","tel":"031-281-5849","addr":"경기도 용인시 기흥구 언남동 372-3번지","category":"일반휴게음식 - 일반한식"},{"name":"북해참치","tel":"031-282-6226","addr":"경기도 용인시 기흥구 언남동 372-3번지 1층","category":"일반휴게음식 - 일식·회집"}]},{"lat":"37.291851174","long":"127.12438651","items":[{"name":"갈비명가 서서갈비(구성점)","tel":"031-283-8848","addr":"경기도 용인시 기흥구 언남동 236-2번지 A동 1층","category":"일반휴게음식 - 일반한식"},{"name":"귀품찬용인기흥점","tel":"031-287-1400","addr":"경기도 용인시 기흥구 언남동 236-2번지 B동 1층","category":"일반휴게음식 - 일반한식"}]},{"lat":"37.293594046","long":"127.12927261","items":[{"name":"감각이자라는미술교습소","tel":"031-284-7779","addr":"경기도 용인시 기흥구 언남동 132-2번지 인하스빌 B동 1층 101호","category":"학원 - 예·체능계학원"},{"name":"바이올린에 퐁당","tel":"031-282-2938","addr":"경기도 용인시 기흥구 언남동 132-2번지 인하스빌 B동 1층일부","category":"학원 - 예·체능계학원"}]},{"lat":"37.295568293","long":"127.12832855","items":[{"name":"감나무골","tel":"031-283-3982","addr":"경기도 용인시 기흥구 언남동 115-2번지","category":"일반휴게음식 - 일반한식"}]},{"lat":"37.293367391","long":"127.12193039","items":[{"name":"경기문화 강사모임","tel":"031-215-9042","addr":"경기도 용인시 기흥구 언남동 240-1번지 하마비마을동부아파트","category":"학원 - 기타 교육기관"},{"name":"스마트보드","tel":"031-701-5222","addr":"경기도 용인시 기흥구 언남동 240-1번지 하마비마을동부아파트","category":"사무통신 - 기타 사무용품"},{"name":"에스에이치(SH)","tel":"070-4115-4159","addr":"경기도 용인시 기흥구 언남동 240-1번지 하마비마을동부아파트","category":"회원제형태 - 기타4"}]},{"lat":"37.29459807","long":"127.11655274","items":[{"name":"계림원누룽지통닭","tel":"031-893-9582","addr":"경기도 용인시 기흥구 언남동 374번지","category":"일반휴게음식 - 일반한식"},{"name":"유니베라","tel":"031-8005-7071","addr":"경기도 용인시 기흥구 언남동 374번지 2층","category":"건강식품 - 기타건강식품"}]},{"lat":"37.292820758","long":"127.12777139","items":[{"name":"곤드레와가마솥밥","tel":"031-284-1246","addr":"경기도 용인시 기흥구 언남동 159-12번지","category":"일반휴게음식 - 일반한식"},{"name":"에스더헤어","tel":"031-262-8859","addr":"경기도 용인시 기흥구 언남동 159-12번지 110호 하비마을동일하이빌2차상가","category":"보건위생 - 미용원"}]},{"lat":"37.295316579","long":"127.11893349","items":[{"name":"공주식당","tel":"031-283-3056","addr":"경기도 용인시 기흥구 언남동 349-1번지","category":"일반휴게음식 - 일반한식"}]},{"lat":"37.296245393","long":"127.11815672","items":[{"name":"구성 24시 편의점","tel":"031-284-6090","addr":"경기도 용인시 기흥구 언남동 344-1번지 성지빌라 7동 101호","category":"유통업 영리 - 슈퍼마켓"},{"name":"성지의류","tel":"031-283-6334","addr":"경기도 용인시 기흥구 언남동 344-1번지 성지빌라 7동 102호","category":"회원제형태 - 기타4"}]},{"lat":"37.294435038","long":"127.11743217","items":[{"name":"구성꽃백화점","tel":"031-284-8959","addr":"경기도 용인시 기흥구 언남동 380-3번지","category":"문화.취미 - 화원"}]},{"lat":"37.296434608","long":"127.11815701","items":[{"name":"구성라이온스클럽","tel":"031-283-1018","addr":"경기도 용인시 기흥구 언남동 343번지 3층","category":"기타 - 비영리/비대상"},{"name":"삼성공간열쇠","tel":"031-206-1304","addr":"경기도 용인시 기흥구 언남동 343번지 1층","category":"기타 - 기계공구"},{"name":"올가스킨","tel":"031-000-0000","addr":"경기도 용인시 기흥구 언남동 343번지 1층","category":"보건위생 - 화장품"}]},{"lat":"37.293376955","long":"127.1213778","items":[{"name":"구성삼성병원","tel":"031-270-7700","addr":"경기도 용인시 기흥구 언남동 242-4번지","category":"의원 - 의원"},{"name":"기흥동물병원","tel":"031-287-9900","addr":"경기도 용인시 기흥구 언남동 242-4번지 채러티디벨로퍼(주) 1층 102호","category":"기타의료기관 - 동물병원"},{"name":"기흥서울약국","tel":"","addr":"경기도 용인시 기흥구 언남동 242-4번지","category":"약국 - 약국"},{"name":"김상수 병원","tel":"","addr":"경기도 용인시 기흥구 언남동 242-4번지 201호,301호,401호","category":"병원 - 병원"},{"name":"블럭제빵소 언남점","tel":"031-286-1064","addr":"경기도 용인시 기흥구 언남동 242-4번지 채러티디벨로퍼(주) 1층 103호","category":"음료식품 - 제과점"},{"name":"오와스시구성점","tel":"031-286-5255","addr":"경기도 용인시 기흥구 언남동 242-4번지 채러티디벨로퍼(주) 101호","category":"일반휴게음식 - 일반한식"},{"name":"제이엠푸드(맛사랑전주황태콩나물국밥)","tel":"031-284-2700","addr":"경기도 용인시 기흥구 언남동 242-4번지 채러티디벨로퍼(주) 1층 104호","category":"일반휴게음식 - 일반한식"},{"name":"제이엠푸드(맛사랑전주황태콩나물국밥)","tel":"031-284-2700","addr":"경기도 용인시 기흥구 언남동 242-4번지 채러티디벨로퍼(주) 1층 104호","category":"일반휴게음식 - 일반한식"},{"name":"하우양꼬치","tel":"031-287-0092","addr":"경기도 용인시 기흥구 언남동 242-4번지 채러티빌딩 104호","category":"일반휴게음식 - 중국식"}]},{"lat":"37.294343574","long":"127.1188305","items":[{"name":"구성어썸커뮤니티","tel":"031-284-0770","addr":"경기도 용인시 기흥구 언남동 412-4번지 상신빌딩 301호","category":"용역 서비스 - 사무서비스"},{"name":"구성어썸팩토리독서실","tel":"031-284-0770","addr":"경기도 용인시 기흥구 언남동 412-4번지 상신빌딩3층,3층일부","category":"학원 - 독서실"},{"name":"탐앤탐스 용인구성점","tel":"031-282-8676","addr":"경기도 용인시 기흥구 언남동 412-4번지 상신빌딩 1층","category":"일반휴게음식 - 서양음식"}]},{"lat":"37.294569995","long":"127.11763538","items":[{"name":"구성연세의원","tel":"031-283-9890","addr":"경기도 용인시 기흥구 언남동 376-6번지","category":"의원 - 의원"},{"name":"조은약국","tel":"031-283-1291","addr":"경기도 용인시 기흥구 언남동 376-6번지","category":"약국 - 약국"},{"name":"하움","tel":"031-703-1689","addr":"경기도 용인시 기흥구 언남동 376-6번지 1층 3,4호","category":"건축자재 - 인테리어전문"}]},{"lat":"37.293765965","long":"127.11979951","items":[{"name":"구성이비인후과의원","tel":"031-285-2275","addr":"경기도 용인시 기흥구 언남동 414-5번지 보문빌딩 4층","category":"의원 - 의원"},{"name":"미래마취통증의학과의원","tel":"031-275-7271","addr":"경기도 용인시 기흥구 언남동 414-5번지","category":"의원 - 의원"},{"name":"서울이비인후과의원","tel":"031-274-7583","addr":"경기도 용인시 기흥구 언남동 414-5번지 우민구성빌딩 4층","category":"의원 - 의원"},{"name":"에너스주오약국","tel":"031-283-1171","addr":"경기도 용인시 기흥구 언남동 414-5번지 구성빌딩 102호","category":"약국 - 약국"},{"name":"에너스주오약국","tel":"031-283-1171","addr":"경기도 용인시 기흥구 언남동 414-5번지 구성빌딩 102호","category":"약국 - 약국"},{"name":"연세미의원","tel":"031-285-9067","addr":"경기도 용인시 기흥구 언남동 414-5번지 토이빌딩 3층","category":"의원 - 의원"},{"name":"연세미의원","tel":"031-285-9067","addr":"경기도 용인시 기흥구 언남동 414-5번지 3층","category":"의원 - 의원"},{"name":"열린치과의원","tel":"031-284-2882","addr":"경기도 용인시 기흥구 언남동 414-5번지 구성빌딩 401호","category":"의원 - 치과의원"},{"name":"우리들소아과의원","tel":"031-287-3904","addr":"경기도 용인시 기흥구 언남동 414-5번지 구성빌딩 4층","category":"의원 - 의원"}]},{"lat":"37.292546274","long":"127.12310198","items":[{"name":"구성조명전기","tel":"031-282-9994","addr":"경기도 용인시 기흥구 언남동 255-22번지 2층","category":"건축자재 - 조명기구"},{"name":"스피드메이트 용인언남점","tel":"031-285-5503","addr":"경기도 용인시 기흥구 언남동 255-22번지","category":"자동차정비 유지 - 자동차정비"}]},{"lat":"37.294740432","long":"127.11841382","items":[{"name":"굴사냥","tel":"031-283-9433","addr":"경기도 용인시 기흥구 언남동 360번지 외1필지","category":"일반휴게음식 - 일반한식"},{"name":"똘이네옷가게","tel":"031-285-0173","addr":"경기도 용인시 기흥구 언남동 360번지","category":"의류 - 정장"},{"name":"솥뚜껑삼겹살","tel":"031-286-6662","addr":"경기도 용인시 기흥구 언남동 360번지","category":"일반휴게음식 - 일반한식"}]},{"lat":"37.292679093","long":"127.12538028","items":[{"name":"굿피씨앤텔레콤(좋은PC만들기)","tel":"031-281-5151","addr":"경기도 용인시 기흥구 언남동 503번지 스파팰리스리가 블록 101-1호","category":"사무통신 - 컴퓨터"},{"name":"수비토음악학원","tel":"031-284-0103","addr":"경기도 용인시 기흥구 언남동 503번지 스파밸리스리가 701동 상가동 B102-3호","category":"학원 - 예·체능계학원"},{"name":"우드커피","tel":"031-1111-1111","addr":"경기도 용인시 기흥구 언남동 503번지 701(상가)동 B101 일부호","category":"일반휴게음식 - 서양음식"},{"name":"위드치킨","tel":"031-286-1001","addr":"경기도 용인시 기흥구 언남동 503번지 스파팰리스리가상가 B1층 B102-1호","category":"일반휴게음식 - 스넥"},{"name":"음식남자에이제이 (AJ)","tel":"031-274-8082","addr":"경기도 용인시 기흥구 언남동 503번지 스파팰리스리가 701동 비101-2호","category":"일반휴게음식 - 서양음식"},{"name":"조이풀트리미술교습소","tel":"070-7612-5351","addr":"경기도 용인시 기흥구 언남동 503번지 스파팰리스리가 B동 109호","category":"학원 - 예·체능계학원"},{"name":"조이풀트리영어교습소","tel":"070-7612-5351","addr":"경기도 용인시 기흥구 언남동 503번지 스파팰리스리가 701동 109호","category":"학원 - 외국어학원"},{"name":"창성R&D LINE","tel":"02-495-4957","addr":"경기도 용인시 기흥구 언남동 503번지 스파팰리스리가 106동 804호","category":"보건위생 - 미용재료"},{"name":"크린토피아 구성리가점","tel":"031-275-2900","addr":"경기도 용인시 기흥구 언남동 503번지 상가 701동 B106호","category":"수리서비스 - 세탁소"},{"name":"포맨","tel":"031-0000-0000","addr":"경기도 용인시 기흥구 언남동 503번지 스파팰리스리가 상가동B층 B102-2호","category":"보건위생 - 미용원"},{"name":"헤어팰리스","tel":"031-283-4260","addr":"경기도 용인시 기흥구 언남동 503번지 스파팰리스리가 701상가동 8108호","category":"보건위생 - 미용원"}]},{"lat":"37.293875185","long":"127.11868317","items":[{"name":"궁","tel":"031-282-9441","addr":"경기도 용인시 기흥구 언남동 412-10번지 1층 103호","category":"일반휴게음식 - 중국식"},{"name":"만두익스프레스 구성점","tel":"031-204-0171","addr":"경기도 용인시 기흥구 언남동 412-10번지 1층","category":"일반휴게음식 - 일반한식"},{"name":"제주우다","tel":"031-274-1552","addr":"경기도 용인시 기흥구 언남동 412-10번지 1층","category":"일반휴게음식 - 일반한식"}]},{"lat":"37.294849202","long":"127.11774858","items":[{"name":"귀빈헤어샵","tel":"031-283-8607","addr":"경기도 용인시 기흥구 언남동 371-8번지 1층","category":"보건위생 - 미용원"},{"name":"약손몸사랑발사랑","tel":"070-4406-6688","addr":"경기도 용인시 기흥구 언남동 371-8번지 2층","category":"보건위생 - 피부미용실"}]},{"lat":"37.298348731","long":"127.13179568","items":[{"name":"그늘집","tel":"031-888-3828","addr":"경기도 용인시 기흥구 언남동 88번지 경찰대학교 54동 체력단련장 1층","category":"일반휴게음식 - 스넥"},{"name":"문화협회 푸드뱅크","tel":"031-322-1377","addr":"경기도 용인시 기흥구 언남동 88번지 경찰대학","category":"일반휴게음식 - 스넥"},{"name":"츄츄푸드트럭","tel":"031-214-7876","addr":"경기도 용인시 기흥구 언남동 88번지 경찰대학","category":"일반휴게음식 - 일반한식"}]},{"lat":"37.293649055","long":"127.11957377","items":[{"name":"기쁨의교회","tel":"031-713-0691","addr":"경기도 용인시 기흥구 언남동 414-6","category":"기타 - 비영리/대상"}]},{"lat":"37.29501566","long":"127.12253073","items":[{"name":"김병호프로아카데미","tel":"031-259-2171","addr":"경기도 용인시 기흥구 언남동 493번지 하마비마을동부센트레빌 107동 1301호","category":"레저업소 - 골프연습장"}]},{"lat":"37.294903428","long":"127.1175795","items":[{"name":"김선영헤어갤러리","tel":"031-693-6046","addr":"경기도 용인시 기흥구 언남동 371-9 101","category":"보건위생 - 미용원"},{"name":"조은네일","tel":"070-7405-0533","addr":"경기도 용인시 기흥구 언남동 371-9번지 102호","category":"보건위생 - 피부미용실"}]},{"lat":"37.293567819","long":"127.12851696","items":[{"name":"꿈꾸는마술피리음악학원","tel":"031-622-1699","addr":"경기도 용인시 기흥구 언남동 155-9번지","category":"학원 - 예·체능계학원"}]},{"lat":"37.293513378","long":"127.12010362","items":[{"name":"나이스가이","tel":"031-283-0100","addr":"경기도 용인시 기흥구 언남동 416-5 푸른종합상가1층 109-2호","category":"보건위생 - 미용원"}]},{"lat":"37.295821912","long":"127.11815608","items":[{"name":"남양유업(구성동백)대리점","tel":"031-283-6677","addr":"경기도 용인시 기흥구 언남동 344-4번지 성지빌라","category":"음료식품 - 기타음료식품"}]},{"lat":"37.291711856","long":"127.12837854","items":[{"name":"다릿목","tel":"031-283-2324","addr":"경기도 용인시 기흥구 언남동 147-4번지 1층","category":"일반휴게음식 - 일반한식"}]},{"lat":"37.28962597","long":"127.12406717","items":[{"name":"대동건설","tel":"","addr":"경기도 용인시 기흥구 언남동 500번지 초원마을성원상떼빌 208동 1402호","category":"용역 서비스 - 기타용역서비스"}]},{"lat":"37.291875443","long":"127.12704806","items":[{"name":"대명카공업사","tel":"031-285-5910","addr":"경기도 용인시 기흥구 언남동 164-3번지","category":"자동차정비 유지 - 자동차정비"}]},{"lat":"37.29520829","long":"127.1191025","items":[{"name":"대성철물종합건재","tel":"031-283-1068","addr":"경기도 용인시 기흥구 언남동 350-1번지","category":"기타 - 기계공구"}]},{"lat":"37.29495465","long":"127.1292185","items":[{"name":"더아란인레드인스터튜트오브레지오에밀리아","tel":"02-0000-0000","addr":"경기도 용인시 기흥구 언남동 130-33번지","category":"학원 - 보습학원"},{"name":"미래교육","tel":"","addr":"경기도 용인시 기흥구 언남동 130-33번지 지하1층","category":"서적문구 - 일반서적"},{"name":"아란유치원","tel":"031-283-3993","addr":"경기도 용인시 기흥구 언남동 130-33번지","category":"학원 - 유치원"}]},{"lat":"37.296101042","long":"127.11834823","items":[{"name":"도서관옆카페","tel":"","addr":"경기도 용인시 기흥구 언남동 344-3번지 성지빌라 3동 103호","category":"일반휴게음식 - 일반한식"}]},{"lat":"37.294258207","long":"127.12311598","items":[{"name":"도예랑","tel":"","addr":"경기도 용인시 기흥구 언남동 486번지 하마비마을동일하이빌1차아파트","category":"문화.취미 - 문화취미기타"},{"name":"미라클","tel":"","addr":"경기도 용인시 기흥구 언남동 486번지 하마비마을동일하이빌1차아파트","category":"신변잡화 - 신발"}]},{"lat":"37.291433147","long":"127.12780292","items":[{"name":"동부철물","tel":"031-284-2293","addr":"경기도 용인시 기흥구 언남동 166-2번지 1층","category":"건축자재 - 목재·석재·철물"}]},{"lat":"37.293017064","long":"127.12085846","items":[{"name":"동일당구장","tel":"031-285-9909","addr":"경기도 용인시 기흥구 언남동 416-1번지 용구프라자 3층 301호","category":"레저업소 - 당 구 장"},{"name":"명문독서실","tel":"031-284-2734","addr":"경기도 용인시 기흥구 언남동 416-1번지 용구프라자 401호","category":"학원 - 독서실"},{"name":"미유필라테스","tel":"","addr":"경기도 용인시 기흥구 언남동 416-1번지 용구프라자 2층 201호","category":"레저업소 - 헬스클럽"},{"name":"벨리시모","tel":"031-285-7463","addr":"경기도 용인시 기흥구 언남동 416-1번지 102호","category":"의류 - 정장"},{"name":"연세손내과의원","tel":"031-284-3053","addr":"경기도 용인시 기흥구 언남동 416-1번지 용구프라자 2층 204호","category":"의원 - 의원"},{"name":"정관장홍삼구성점","tel":"031-283-2304","addr":"경기도 용인시 기흥구 언남동 416-1번지 용구프라자 105호","category":"건강식품 - 홍삼제품"},{"name":"정관장홍삼구성점","tel":"031-283-2304","addr":"경기도 용인시 기흥구 언남동 416-1번지 용구프라자 105호","category":"건강식품 - 홍삼제품"},{"name":"제생숲한의원","tel":"031-287-7377","addr":"경기도 용인시 기흥구 언남동 416-1번지 용구프라자 202호","category":"의원 - 한의원"},{"name":"중앙수선","tel":"031-744-6435","addr":"경기도 용인시 기흥구 언남동 416-1번지 1층 103호","category":"수리서비스 - 세탁소"},{"name":"체리","tel":"031-283-0223","addr":"경기도 용인시 기흥구 언남동 416-1번지 103호","category":"음료식품 - 기타음료식품"},{"name":"초우축산","tel":"031-274-3455","addr":"경기도 용인시 기흥구 언남동 416-1번지 용구프라자 104호","category":"음료식품 - 정육점"},{"name":"커피콩가","tel":"031-281-0803","addr":"경기도 용인시 기흥구 언남동 416-1번지 용구프라자 105-1호","category":"일반휴게음식 - 서양음식"},{"name":"태림","tel":"031-283-5025","addr":"경기도 용인시 기흥구 언남동 416-1번지 지하1층","category":"용역 서비스 - 종합용역"},{"name":"투썸플레이스 용인구성점","tel":"031-283-3830","addr":"경기도 용인시 기흥구 언남동 416-1번지 101호","category":"일반휴게음식 - 서양음식"},{"name":"효성온누리약국","tel":"031-285-1053","addr":"경기도 용인시 기흥구 언남동 416-1번지 용구프라자 104호","category":"약국 - 약국"},{"name":"훼밀리스크린골프","tel":"031-283-0759","addr":"경기도 용인시 기흥구 언남동 416-1번지 용구프라자 302호","category":"레저업소 - 스크린골프"}]},{"lat":"37.289515517","long":"127.12632244","items":[{"name":"드림우드","tel":"","addr":"경기도 용인시 기흥구 언남동 202-1번지","category":"건축자재 - 기타건축자재"}]},{"lat":"37.294515802","long":"127.11777063","items":[{"name":"디비통신","tel":"031-693-7727","addr":"경기도 용인시 기흥구 언남동 376-2번지","category":"사무통신 - 통신기기"}]},{"lat":"37.294405881","long":"127.11960877","items":[{"name":"뚜레쥬르 용인구성점","tel":"031-284-8008","addr":"경기도 용인시 기흥구 언남동 338-10번지","category":"음료식품 - 제과점"},{"name":"임박사공인중개사사무소","tel":"031-286-7979","addr":"경기도 용인시 기흥구 언남동 338-10번지","category":"용역 서비스 - 부동산 중개·임대"}]},{"lat":"37.29510367","long":"127.12458347","items":[{"name":"라나펠리스","tel":"070-8616-2223","addr":"경기도 용인시 기흥구 언남동 486번지 하마비마을동일하이빌1차아파트 106동 403호","category":"직물 - 침구·수예점"}]},{"lat":"37.293261208","long":"127.12876456","items":[{"name":"라온헤어","tel":"031-285-4565","addr":"경기도 용인시 기흥구 언남동 155-7번지 103호","category":"보건위생 - 미용원"},{"name":"오닭꼬치","tel":"031-283-5497","addr":"경기도 용인시 기흥구 언남동 155-7번지 104호","category":"일반휴게음식 - 일반한식"},{"name":"티나앤쿡 두번째부엌","tel":"031-282-3828","addr":"경기도 용인시 기흥구 언남동 155-7번지 105호","category":"일반휴게음식 - 일반한식"},{"name":"허니도넛","tel":"031-282-2131","addr":"경기도 용인시 기흥구 언남동 155-7번지 1층","category":"일반휴게음식 - 서양음식"}]},{"lat":"37.286624085","long":"127.13390699","items":[{"name":"랩튠","tel":"031-285-2856","addr":"경기도 용인시 기흥구 언남동 11번지","category":"자동차정비 유지 - 자동차부품"}]},{"lat":"37.291461114","long":"127.12691205","items":[{"name":"로미젤네일&속눈썹","tel":"070-8031-4038","addr":"경기도 용인시 기흥구 언남동 234-20번지 1층","category":"보건위생 - 피부미용실"},{"name":"본무태권도장","tel":"031-283-5161","addr":"경기도 용인시 기흥구 언남동 234-20번지","category":"학원 - 예·체능계학원"},{"name":"한우도축 직판장","tel":"","addr":"경기도 용인시 기흥구 언남동 234-20번지","category":"음료식품 - 정육점"}]},{"lat":"37.29397434","long":"127.1275139","items":[{"name":"리(Lee)하우징","tel":"031-272-1155","addr":"경기도 용인시 기흥구 언남동 496번지 하마비마을동일하이빌2차아파트","category":"건축자재 - 인테리어전문"}]},{"lat":"37.29328973","long":"127.11846799","items":[{"name":"리폼3.3.3언남동점","tel":"031-261-7344","addr":"경기도 용인시 기흥구 언남동 495번지 삼성래미안2차아파트","category":"보건위생 - 의료용품"}]},{"lat":"37.29526589","long":"127.13301973","items":[{"name":"리헤어","tel":"031-285-6979","addr":"경기도 용인시 기흥구 언남동 132-18번지 1층 일부","category":"보건위생 - 미용원"}]},{"lat":"37.294632087","long":"127.12751499","items":[{"name":"마인디자인","tel":"031-719-1078","addr":"경기도 용인시 기흥구 언남동 496번지 하마비마을동일하이빌2차 210동 1201호","category":"회원제형태 - 기타4"}]},{"lat":"37.293099287","long":"127.12851618","items":[{"name":"만남치킨호프","tel":"031-283-4308","addr":"경기도 용인시 기흥구 언남동 159-7번지","category":"일반휴게음식 - 주점"}]},{"lat":"37.293874277","long":"127.11960795","items":[{"name":"머리좋은사람들","tel":"031-284-3828","addr":"경기도 용인시 기흥구 언남동 414-7번지 언남빌딩 202호","category":"보건위생 - 미용원"},{"name":"베스킨라빈스","tel":"031-283-8609","addr":"경기도 용인시 기흥구 언남동 414-7번지 언남빌딩 1층 7호","category":"음료식품 - 제과점"},{"name":"블루클럽(경찰대점)","tel":"031-283-8999","addr":"경기도 용인시 기흥구 언남동 414-7번지 타운힐빌딩 106호","category":"보건위생 - 미용원"},{"name":"언남학원","tel":"031-284-7799","addr":"경기도 용인시 기흥구 언남동 414-7번지 3층 일부","category":"회원제형태 - 학원"},{"name":"이디야커피","tel":"070-7723-1025","addr":"경기도 용인시 기흥구 언남동 414-7번지 언남빌딩 1층 4호","category":"일반휴게음식 - 서양음식"},{"name":"파리바게뜨 (용인경찰대점)","tel":"031-283-1143","addr":"경기도 용인시 기흥구 언남동 414-7번지","category":"음료식품 - 제과점"},{"name":"하트츄언남점","tel":"031-275-3338","addr":"경기도 용인시 기흥구 언남동 414-7번지 9호 언남빌딩 제1층","category":"일반휴게음식 - 스넥"}]},{"lat":"37.293623866","long":"127.11769033","items":[{"name":"모아사운드","tel":"","addr":"경기도 용인시 기흥구 언남동 382-6번지 더.시티 6층 602호","category":"전기제품 - 가전제품"},{"name":"연통보안","tel":"031-000-0000","addr":"경기도 용인시 기흥구 언남동 382-6번지 더시티 1001호","category":"용역 서비스 - 종합용역"}]},{"lat":"37.292705986","long":"127.11648222","items":[{"name":"무지개","tel":"031-893-9442","addr":"경기도 용인시 기흥구 언남동 495번지 삼성래미안2차아파트","category":"회원제형태 - 기타4"}]},{"lat":"37.290097614","long":"127.12098922","items":[{"name":"무지개주간보호센터","tel":"031-8005-9950","addr":"경기도 용인시 기흥구 언남동 215-8번지","category":"기타의료기관 - 기타의료기관 및 기타"}]},{"lat":"37.292428487","long":"127.12374462","items":[{"name":"박은자맛사랑","tel":"031-283-0800","addr":"경기도 용인시 기흥구 언남동 255-1번지 102호","category":"일반휴게음식 - 일반한식"},{"name":"용인대TOP태권도장","tel":"031-283-5161","addr":"경기도 용인시 기흥구 언남동 255-1번지 201호","category":"학원 - 예·체능계학원"},{"name":"일인자감자탕뼈해장국","tel":"031-284-3707","addr":"경기도 용인시 기흥구 언남동 255-1번지","category":"일반휴게음식 - 일반한식"},{"name":"홀인원스크린골프장","tel":"031-283-9997","addr":"경기도 용인시 기흥구 언남동 255-1번지 202호","category":"레저업소 - 스크린골프"}]},{"lat":"37.295597029","long":"127.11777228","items":[{"name":"밥앤청국장","tel":"031-274-7498","addr":"경기도 용인시 기흥구 언남동 369-2번지 1층","category":"일반휴게음식 - 일반한식"},{"name":"풍물쇼핑몰","tel":"031-898-1813","addr":"경기도 용인시 기흥구 언남동 369-2 삼산빌딩3층","category":"기타 - 기계공구"},{"name":"희스크린골프","tel":"031-281-5567","addr":"경기도 용인시 기흥구 언남동 369-2번지 2층","category":"회원제형태 - 레져업소"}]},{"lat":"37.295540925","long":"127.11985864","items":[{"name":"병용골","tel":"031-287-3776","addr":"경기도 용인시 기흥구 언남동 333-7번지 1층 일부","category":"일반휴게음식 - 일반한식"},{"name":"최가네칼국수샤브샤브","tel":"031-893-7771","addr":"경기도 용인시 기흥구 언남동 333-7번지 번지외3필지","category":"일반휴게음식 - 일반한식"}]},{"lat":"37.295250789","long":"127.12167396","items":[{"name":"블라인드아이즈","tel":"031-1599-6008","addr":"경기도 용인시 기흥구 언남동 493번지 하마비마을동부센트레빌 102동 604호","category":"직물 - 카페트,커튼,천막,지물"}]},{"lat":"37.294794658","long":"127.11824473","items":[{"name":"비비큐","tel":"031-286-4666","addr":"경기도 용인시 기흥구 언남동 361번지","category":"일반휴게음식 - 주점"},{"name":"와와노래방","tel":"031-283-7080","addr":"경기도 용인시 기흥구 언남동 361번지 지하1층","category":"레저업소 - 노 래 방"},{"name":"와와노래연습장","tel":"031-283-7080","addr":"경기도 용인시 기흥구 언남동 361번지","category":"레저업소 - 노 래 방"},{"name":"탑동물병원","tel":"031-285-7504","addr":"경기도 용인시 기흥구 언남동 361번지","category":"기타의료기관 - 동물병원"}]},{"lat":"37.293546559","long":"127.12295696","items":[{"name":"비상 잉글리쉬아이 언남동부캠퍼스","tel":"","addr":"경기도 용인시 기흥구 언남동 240-1번지 하마비마을동부아파트","category":"학원 - 기타 교육기관"},{"name":"푸른건설","tel":"070-5121-4552","addr":"경기도 용인시 기흥구 언남동 240-1번지 하마비마을동부아파트","category":"용역 서비스 - 기타용역서비스"}]},{"lat":"37.29420907","long":"127.11816489","items":[{"name":"비안화장품","tel":"031-286-2054","addr":"경기도 용인시 기흥구 언남동 356번지","category":"보건위생 - 화장품"},{"name":"종규족발.굴보쌈","tel":"031-282-7748","addr":"경기도 용인시 기흥구 언남동 356번지","category":"일반휴게음식 - 일반한식"}]},{"lat":"37.28938102","long":"127.1256907","items":[{"name":"빈스의나무향기","tel":"","addr":"경기도 용인시 기흥구 언남동 500번지 초원마을성원상떼빌 210동 204호","category":"보건위생 - 화장품"},{"name":"예쁜방","tel":"031-275-7999","addr":"경기도 용인시 기흥구 언남동 500번지 초원마을성원상떼빌 210동 1904호","category":"신변잡화 - 액세서리"}]},{"lat":"37.295876237","long":"127.11788548","items":[{"name":"빚뜰수제떡케이크","tel":"070-8899-3032","addr":"경기도 용인시 기흥구 언남동 344-2번지","category":"음료식품 - 제과점"},{"name":"조춘식동태탕 구성점","tel":"031-287-4910","addr":"경기도 용인시 기흥구 언남동 344-2번지 1층","category":"일반휴게음식 - 일반한식"},{"name":"참마루식당","tel":"031-286-0999","addr":"경기도 용인시 기흥구 언남동 344-2번지","category":"일반휴게음식 - 일반한식"},{"name":"컴앤씨","tel":"070-8849-1114","addr":"경기도 용인시 기흥구 언남동 344-2번지 203호","category":"수리서비스 - 사무·통신기기수리"},{"name":"하나식당","tel":"031-283-7655","addr":"경기도 용인시 기흥구 언남동 344-2번지 나동 1호","category":"일반휴게음식 - 일반한식"}]},{"lat":"37.289652171","long":"127.13332583","items":[{"name":"사대문가마솥해장국","tel":"031-284-8805","addr":"경기도 용인시 기흥구 언남동 28번지 은동빌딩 1층","category":"일반휴게음식 - 일반한식"},{"name":"행복한맛집","tel":"031-286-0023","addr":"경기도 용인시 기흥구 언남동 28번지 은동빌딩 2층","category":"일반휴게음식 - 일반한식"}]},{"lat":"37.297155353","long":"127.12713568","items":[{"name":"사운드큐어","tel":"031-274-0155","addr":"경기도 용인시 기흥구 언남동 107-2번지 코팩테크노타운 103-2","category":"용역 서비스 - 사무서비스"}]},{"lat":"37.290317881","long":"127.13427427","items":[{"name":"산동성","tel":"031-283-3989","addr":"경기도 용인시 기흥구 언남동 33-4번지","category":"일반휴게음식 - 중국식"},{"name":"창덕자동차정비","tel":"031-283-8288","addr":"경기도 용인시 기흥구 언남동 33-4번지","category":"자동차정비 유지 - 자동차정비"}]},{"lat":"37.291434638","long":"127.12638196","items":[{"name":"삼대째손두부","tel":"031-283-3683","addr":"경기도 용인시 기흥구 언남동 231번지 외 2필지","category":"일반휴게음식 - 일반한식"}]},{"lat":"37.292848229","long":"127.11846732","items":[{"name":"삼성마트","tel":"031-285-0966","addr":"경기도 용인시 기흥구 언남동 495번지 장미마을삼성레미안2차상가동 102,104","category":"유통업 영리 - 슈퍼마켓"},{"name":"삼성세탁","tel":"031-613-1292","addr":"경기도 용인시 기흥구 언남동 495번지 삼성래미안2차 상가동 105호","category":"수리서비스 - 세탁소"},{"name":"이현과학교습소","tel":"031-603-6392","addr":"경기도 용인시 기흥구 언남동 495번지 삼성래미안2차아파트","category":"학원 - 보습학원"},{"name":"조이분식","tel":"031-286-2014","addr":"경기도 용인시 기흥구 언남동 495번지 삼성래미안2차단지 상가 106호","category":"일반휴게음식 - 스넥"}]},{"lat":"37.294930086","long":"127.11796299","items":[{"name":"성소 (구제옷)","tel":"02-1111-1111","addr":"경기도 용인시 기흥구 언남동 371-7번지","category":"의류 - 정장"},{"name":"치우렌탈사무기","tel":"031-283-8286","addr":"경기도 용인시 기흥구 언남동 371-7번지 지상콘테이너 A","category":"사무통신 - 사무용 OA기기"}]},{"lat":"37.29398547","long":"127.1254839","items":[{"name":"소전솔루션/원격지","tel":"070-8270-1600","addr":"경기도 용인시 기흥구 언남동 496번지 동일하이빌2차 204동 106호","category":"기타 - 기타 전문점"}]},{"lat":"37.291846146","long":"127.12919075","items":[{"name":"송학","tel":"031-284-3359","addr":"경기도 용인시 기흥구 언남동 146-1번지","category":"일반휴게음식 - 일반한식"},{"name":"주식회사 푸름씨앤디","tel":"02-302-3733","addr":"경기도 용인시 기흥구 언남동 146-1번지","category":"건축자재 - 인테리어전문"}]},{"lat":"37.293060109","long":"127.12285468","items":[{"name":"수지(수G)","tel":"070-5028-3474","addr":"경기도 용인시 기흥구 언남동 240-1번지 하마비마을동부아파트","category":"음료식품 - 농·축·수산품"},{"name":"에이레네(EIRENE)","tel":"070-4007-2739","addr":"경기도 용인시 기흥구 언남동 240-1번지 하마비마을동부아파트","category":"의류 - 정장"},{"name":"우리콜밴","tel":"","addr":"경기도 용인시 기흥구 언남동 240-1번지 하마비마을동부아파트","category":"여행 - 기타교통수단"}]},{"lat":"37.295793285","long":"127.12857705","items":[{"name":"스카이크린","tel":"","addr":"경기도 용인시 기흥구 언남동 501번지 캐슬타운 103동 301호","category":"용역 서비스 - 종합용역"}]},{"lat":"37.293702541","long":"127.12892318","items":[{"name":"스쿨갤러리","tel":"031-283-9850","addr":"경기도 용인시 기흥구 언남동 130-17번지 뉴현대빌라 G동 203호","category":"회원제형태 - 기타4"}]},{"lat":"37.291848649","long":"127.12682246","items":[{"name":"스타즈학원","tel":"031-282-0577","addr":"경기도 용인시 기흥구 언남동 263-1번지 2층","category":"학원 - 보습학원"}]},{"lat":"37.290094527","long":"127.13254846","items":[{"name":"신도수지OA","tel":"031-284-7696","addr":"경기도 용인시 기흥구 언남동 179번지 2동 1층","category":"사무통신 - 사무용 OA기기"},{"name":"에이스","tel":"031-693-5874","addr":"경기도 용인시 기흥구 언남동 179번지","category":"직물 - 옷감·직물"},{"name":"차사랑 손세차 및 셀프세차","tel":"","addr":"경기도 용인시 기흥구 언남동 179번지","category":"자동차정비 유지 - 세차장"},{"name":"카시스템","tel":"031-283-3175","addr":"경기도 용인시 기흥구 언남동 179번지","category":"자동차정비 유지 - 카인테리어"}]},{"lat":"37.295689473","long":"127.12444908","items":[{"name":"실향기 (매듭공예)","tel":"031-000-0000","addr":"경기도 용인시 기흥구 언남동 486번지 하마비마을동일하이빌1차아파트","category":"문화.취미 - 민예·공예품"}]},{"lat":"37.293234762","long":"127.11939268","items":[{"name":"심리상담연구원 밝음마음","tel":"031-282-7992","addr":"경기도 용인시 기흥구 언남동 495번지 삼성래미안2차아파트","category":"보건위생 - 기타대인서비스"}]},{"lat":"37.296459342","long":"127.12049165","items":[{"name":"씨씨에스어학원","tel":"031-274-5528","addr":"경기도 용인시 기흥구 언남동 329-1번지 푸른빌라 1층","category":"학원 - 외국어학원"},{"name":"이에스엘어학원","tel":"031-274-5528","addr":"경기도 용인시 기흥구 언남동 329-1번지 푸른빌라 1층","category":"학원 - 외국어학원"},{"name":"푸른유치원","tel":"031-274-5538","addr":"경기도 용인시 기흥구 언남동 329-1번지","category":"학원 - 유치원"}]},{"lat":"37.291296377","long":"127.12932516","items":[{"name":"씨유기흥신일점","tel":"080-080-3663","addr":"경기도 용인시 기흥구 언남동 491번지 구성신일해피트리 상가동 107호","category":"유통업 영리 - 편 의 점"}]},{"lat":"37.295354592","long":"127.12590341","items":[{"name":"씨케이아트스페이스","tel":"02-722-9447","addr":"경기도 용인시 기흥구 언남동 486번지 하마비마을동일하이빌1차아파트","category":"문화.취미 - 화랑"}]},{"lat":"37.295290758","long":"127.11769287","items":[{"name":"아리랑노래연습장","tel":"031-285-8971","addr":"경기도 용인시 기흥구 언남동 371-10번지","category":"레저업소 - 노 래 방"}]},{"lat":"37.296011017","long":"127.11826915","items":[{"name":"아무르","tel":"031-111-1111","addr":"경기도 용인시 기흥구 언남동 344-3번지 성지빌라 1층","category":"의류 - 정장"}]},{"lat":"37.288988202","long":"127.12213776","items":[{"name":"아이디에스(IDS)","tel":"031-8004-1738","addr":"경기도 용인시 기흥구 언남동 500번지 초원마을성원상떼빌 205동 902호","category":"회원제형태 - 기타3"},{"name":"오케이건설","tel":"031-286-0006","addr":"경기도 용인시 기흥구 언남동 500번지 초원마을성원상떼빌 205동 1701호","category":"용역 서비스 - 기타용역서비스"}]},{"lat":"37.294011152","long":"127.11784881","items":[{"name":"아트방","tel":"031-285-7603","addr":"경기도 용인시 기흥구 언남동 380-7번지 시온하이츠빌라 5호","category":"직물 - 카페트,커튼,천막,지물"}]},{"lat":"37.294516424","long":"127.11712779","items":[{"name":"안경매니져(용인구성점)","tel":"031-275-2752","addr":"경기도 용인시 기흥구 언남동 375-4번지 1층","category":"보건위생 - 안경"},{"name":"이알커피앤로스티드(ER Coffee and Roasted","tel":"","addr":"경기도 용인시 기흥구 언남동 375-4번지 2층","category":"일반휴게음식 - 서양음식"}]},{"lat":"37.292901552","long":"127.12805346","items":[{"name":"안주선생","tel":"","addr":"경기도 용인시 기흥구 언남동 160번지","category":"일반휴게음식 - 일반한식"}]},{"lat":"37.294958001","long":"127.11704951","items":[{"name":"알파문구","tel":"031-287-3579","addr":"경기도 용인시 기흥구 언남동 373-2번지","category":"서적문구 - 문구용품"}]},{"lat":"37.29506583","long":"127.11735418","items":[{"name":"액션프렌즈","tel":"","addr":"경기도 용인시 기흥구 언남동 371-2번지 402호","category":"용역 서비스 - 소프트웨어"}]},{"lat":"37.29182042","long":"127.12796145","items":[{"name":"야옹아 멍멍해봐(용인점)","tel":"031-283-0049","addr":"경기도 용인시 기흥구 언남동 147-8번지","category":"문화.취미 - 애완동물"},{"name":"언남짐머퍼스널트레이닝헬스피티","tel":"031-286-2994","addr":"경기도 용인시 기흥구 언남동 147-8번지","category":"레저업소 - 헬스클럽"}]},{"lat":"37.294449229","long":"127.12132309","items":[{"name":"에듀바비용인수지지사","tel":"02-1522-0701","addr":"경기도 용인시 기흥구 언남동 493번지 하마비마을동부센트레빌 105동 903호","category":"용역 서비스 - 사무서비스"}]},{"lat":"37.290945014","long":"127.12929074","items":[{"name":"에스더하우스","tel":"031-287-6397","addr":"경기도 용인시 기흥구 언남동 490번지 언동마을아파트","category":"신변잡화 - 가방"}]},{"lat":"37.291766941","long":"127.12740876","items":[{"name":"엔오엔짐","tel":"031-287-5559","addr":"경기도 용인시 기흥구 언남동 163-7번지 2,3층","category":"레저업소 - 헬스클럽"}]},{"lat":"37.294930862","long":"127.11716225","items":[{"name":"영동철물점","tel":"031-283-8555","addr":"경기도 용인시 기흥구 언남동 373-1번지","category":"건축자재 - 목재·석재·철물"}]},{"lat":"37.294793897","long":"127.11902291","items":[{"name":"영해반점","tel":"031-283-0565","addr":"경기도 용인시 기흥구 언남동 338-1번지","category":"일반휴게음식 - 중국식"},{"name":"토프레소(용인구성점)","tel":"031-284-1311","addr":"경기도 용인시 기흥구 언남동 338-1번지 외2필지 1층","category":"일반휴게음식 - 서양음식"},{"name":"포인트 외형복원","tel":"031-286-4972","addr":"경기도 용인시 기흥구 언남동 338-1번지","category":"자동차정비 유지 - 카인테리어"}]},{"lat":"37.292070416","long":"127.12143213","items":[{"name":"오토오아시스 언남신도시점","tel":"031-284-0330","addr":"경기도 용인시 기흥구 언남동 221-1번지","category":"자동차정비 유지 - 자동차정비"}]},{"lat":"37.294398592","long":"127.1178494","items":[{"name":"오토하우스","tel":"031-283-8945","addr":"경기도 용인시 기흥구 언남동 379번지","category":"자동차정비 유지 - 자동차정비"}]},{"lat":"37.294317428","long":"127.12684907","items":[{"name":"외풍차단찬바람119미세방충망","tel":"031-286-3831","addr":"경기도 용인시 기흥구 언남동 496번지 하마비마을동일하이빌2차아파트","category":"용역 서비스 - 기타용역서비스"},{"name":"용인대석사타이거즈태권도","tel":"031-274-7959","addr":"경기도 용인시 기흥구 언남동 496","category":"학원 - 예·체능계학원"},{"name":"주식회사 쿨화이트","tel":"031-1899-3971","addr":"경기도 용인시 기흥구 언남동 496번지 상가동 비102,비103,비104호","category":"수리서비스 - 세탁소"},{"name":"코지영어교습소","tel":"070-8872-8122","addr":"경기도 용인시 기흥구 언남동 496번지 동일하이빌2차아파트 201호","category":"회원제형태 - 학원"}]},{"lat":"37.291040639","long":"127.13251625","items":[{"name":"용인전통순대국","tel":"031-283-1243","addr":"경기도 용인시 기흥구 언남동 174-6번지 1층","category":"일반휴게음식 - 일반한식"}]},{"lat":"37.290237288","long":"127.13382304","items":[{"name":"원조소금구이 구성점","tel":"031-278-8592","addr":"경기도 용인시 기흥구 언남동 31-1번지","category":"일반휴게음식 - 일반한식"},{"name":"이화수전통육개장 용인구성점","tel":"031-286-4568","addr":"경기도 용인시 기흥구 언남동 31-1번지 A동 2호","category":"일반휴게음식 - 일반한식"},{"name":"전진카공업사","tel":"031-283-2292","addr":"경기도 용인시 기흥구 언남동 31-1번지 전진카공업사","category":"자동차정비 유지 - 자동차정비"}]},{"lat":"37.293792391","long":"127.12916017","items":[{"name":"원진트럭텍","tel":"031-261-5977","addr":"경기도 용인시 기흥구 언남동 153-4번지 E동 402호","category":"자동차정비 유지 - 자동차부품"}]},{"lat":"37.294210922","long":"127.11624765","items":[{"name":"유성손칼국수","tel":"031-285-8180","addr":"경기도 용인시 기흥구 언남동 456-19번지","category":"일반휴게음식 - 일반한식"}]},{"lat":"37.293657538","long":"127.128878","items":[{"name":"이지마트","tel":"031-284-9575","addr":"경기도 용인시 기흥구 언남동 130-17번지 뉴현대맨션","category":"유통업 영리 - 슈퍼마켓"}]},{"lat":"37.292348894","long":"127.12226712","items":[{"name":"장가계","tel":"031-284-4288","addr":"경기도 용인시 기흥구 언남동 239-4번지 1층","category":"일반휴게음식 - 중국식"}]},{"lat":"37.297207246","long":"127.12043642","items":[{"name":"정디자인","tel":"031-8025-2202","addr":"경기도 용인시 기흥구 언남동 321-1번지","category":"직물 - 카페트,커튼,천막,지물"}]},{"lat":"37.296128315","long":"127.11810015","items":[{"name":"정헤어샵","tel":"031-285-5457","addr":"경기도 용인시 기흥구 언남동 344-1번지 성지빌라 102호","category":"보건위생 - 미용원"}]},{"lat":"37.294799904","long":"127.12204543","items":[{"name":"제이","tel":"050-7724-7340","addr":"경기도 용인시 기흥구 언남동 493번지 하마비마을동부센트레빌 106동 603호","category":"의류 - 정장"}]},{"lat":"37.293282197","long":"127.11694548","items":[{"name":"제이스타","tel":"031-283-2888","addr":"경기도 용인시 기흥구 언남동 495번지 삼성래미안2차아파트","category":"회원제형태 - 기타4"}]},{"lat":"37.293321463","long":"127.12279871","items":[{"name":"제일종합인테리어","tel":"031-286-2369","addr":"경기도 용인시 기흥구 언남동 240-1동부상가1층105","category":"건축자재 - 인테리어전문"}]},{"lat":"37.296151244","long":"127.12223929","items":[{"name":"주식회사비에스푸드","tel":"031-1644-3137","addr":"경기도 용인시 기흥구 언남동 293번지 석곡빌딩 1층","category":"음료식품 - 기타음료식품"}]},{"lat":"37.296155378","long":"127.11806636","items":[{"name":"준종합오토바이","tel":"031-284-5597","addr":"경기도 용인시 기흥구 언남동 344-5번지 성지빌라 6동 101호","category":"자동차판매 - 이륜차판매"},{"name":"한일철물공구","tel":"031-285-1339","addr":"경기도 용인시 기흥구 언남동 344-5번지 성지6동 101호","category":"기타 - 기계공구"}]},{"lat":"37.294649468","long":"127.11929336","items":[{"name":"지영네화원","tel":"031-283-7867","addr":"경기도 용인시 기흥구 언남동 338-23번지","category":"문화.취미 - 화원"}]},{"lat":"37.291013336","long":"127.1327643","items":[{"name":"진성인테리어","tel":"031-287-0076","addr":"경기도 용인시 기흥구 언남동 174-3번지","category":"건축자재 - 인테리어전문"},{"name":"풍미정남원추어탕","tel":"031-285-0777","addr":"경기도 용인시 기흥구 언남동 174-3번지","category":"일반휴게음식 - 일반한식"}]},{"lat":"37.29134497","long":"127.12596455","items":[{"name":"착한한우설렁탕","tel":"031-287-6988","addr":"경기도 용인시 기흥구 언남동 231-1번지","category":"일반휴게음식 - 일반한식"}]},{"lat":"37.296405661","long":"127.1201081","items":[{"name":"천하장사","tel":"031-283-8590","addr":"경기도 용인시 기흥구 언남동 330번지","category":"일반휴게음식 - 일반한식"}]},{"lat":"37.29443393","long":"127.11857124","items":[{"name":"춘향골할매추어탕","tel":"031-284-0228","addr":"경기도 용인시 기흥구 언남동 354-2번지 1층","category":"일반휴게음식 - 일반한식"}]},{"lat":"37.289959497","long":"127.13243545","items":[{"name":"카 라이프","tel":"","addr":"경기도 용인시 기흥구 언남동 180번지 한국야쿠르트 6호","category":"자동차정비 유지 - 자동차정비"}]},{"lat":"37.291487707","long":"127.12732936","items":[{"name":"카스타일","tel":"031-285-1667","addr":"경기도 용인시 기흥구 언남동 165번지","category":"자동차정비 유지 - 자동차정비"}]},{"lat":"37.289571063","long":"127.12489032","items":[{"name":"카카오플라워","tel":"031-308-4008","addr":"경기도 용인시 기흥구 언남동 500번지 초원마을성원상떼빌 209동 301호","category":"회원제형태 - 기타4"}]},{"lat":"37.291241603","long":"127.12999044","items":[{"name":"컷팩토리","tel":"02-514-2015","addr":"경기도 용인시 기흥구 언남동 490번지 언동마을아파트","category":"의류 - 정장"}]},{"lat":"37.294872484","long":"127.12154931","items":[{"name":"코이디자인","tel":"031-274-3356","addr":"경기도 용인시 기흥구 언남동 493번지 하마비마을동부센트레빌 상가동 1층 104호","category":"건축자재 - 인테리어전문"}]},{"lat":"37.292208169","long":"127.12766887","items":[{"name":"태양처럼","tel":"","addr":"경기도 용인시 기흥구 언남동 163-17번지 오성주택 B동 101호","category":"의류 - 정장"}]},{"lat":"37.295182799","long":"127.11752353","items":[{"name":"터틀랩 (TURTLE LAB)","tel":"031-123-4567","addr":"경기도 용인시 기흥구 언남동 371-5번지 한빛센트라움 A동 8층 1호","category":"용역 서비스 - 소프트웨어"}]},{"lat":"37.294931101","long":"127.11691413","items":[{"name":"토마토","tel":"031-286-1492","addr":"경기도 용인시 기흥구 언남동 373-3번지 대경프라자 1층 102호","category":"의류 - 정장"},{"name":"필립라이팅","tel":"031-283-4804","addr":"경기도 용인시 기흥구 언남동 373-3번지","category":"건축자재 - 조명기구"}]},{"lat":"37.29098369","long":"127.12679849","items":[{"name":"티펠로코리아","tel":"031-286-0880","addr":"경기도 용인시 기흥구 언남동 232-6번지","category":"회원제형태 - 기타4"}]},{"lat":"37.288873197","long":"127.1200062","items":[{"name":"퍼니고사리","tel":"031-215-9042","addr":"경기도 용인시 기흥구 언남동 500번지 초원마을성원상떼빌 202동 1801호","category":"서적문구 - 기타서적문구"},{"name":"헤이시아(HEY!SIA)","tel":"031-000-0000","addr":"경기도 용인시 기흥구 언남동 500번지 초원마을성원상떼빌 202동 1504호","category":"의류 - 아동의류"}]},{"lat":"37.294541179","long":"127.11946237","items":[{"name":"포메인 구성언남점","tel":"031-283-0344","addr":"경기도 용인시 기흥구 언남동 338-26번지 1층,2층","category":"일반휴게음식 - 서양음식"}]},{"lat":"37.296736202","long":"127.12293947","items":[{"name":"푸드킹(FoodKing)","tel":"031-285-8808","addr":"경기도 용인시 기흥구 언남동 290-5번지","category":"음료식품 - 기타음료식품"}]},{"lat":"37.291733391","long":"127.12501787","items":[{"name":"한일자동차공업사","tel":"031-283-9914","addr":"경기도 용인시 기흥구 언남동 234-18번지","category":"자동차정비 유지 - 자동차정비"}]},{"lat":"37.292514971","long":"127.11834275","items":[{"name":"해법영어교실","tel":"070-7535-2242","addr":"경기도 용인시 기흥구 언남동 495번지 삼성래미안2차아파트","category":"학원 - 보습학원"}]},{"lat":"37.293461833","long":"127.12648677","items":[{"name":"해피로와","tel":"","addr":"경기도 용인시 기흥구 언남동 496번지 하마비마을동일하이빌2차아파트 202동 702호","category":"음료식품 - 농·축·수산품"}]},{"lat":"37.294489546","long":"127.11696986","items":[{"name":"행복주얼리","tel":"031-284-7822","addr":"경기도 용인시 기흥구 언남동 375-5번지 1층","category":"신변잡화 - 귀금속"}]},{"lat":"37.295074216","long":"127.12691798","items":[{"name":"헤븐리커피","tel":"031-745-4790","addr":"경기도 용인시 기흥구 언남동 496번지 하마비마을동일하이빌2차아파트","category":"회원제형태 - 기타4"}]},{"lat":"37.295290364","long":"127.11809888","items":[{"name":"헤어파트너미용실","tel":"031-285-7505","addr":"경기도 용인시 기흥구 언남동 367-1번지","category":"보건위생 - 미용원"}]},{"lat":"37.2912095","long":"127.12626882","items":[{"name":"현대건재철물","tel":"031-283-4121","addr":"경기도 용인시 기흥구 언남동 231-13번지","category":"건축자재 - 목재·석재·철물"}]},{"lat":"37.294630486","long":"127.12902623","items":[{"name":"힐링원예치료센터","tel":"031-213-7550","addr":"경기도 용인시 기흥구 언남동 130-15번지 뉴현대맨션 H동 202호","category":"문화.취미 - 화원"}]}]