[{"lat":"37.296013822","long":"127.10543457","items":[{"name":"(자)경인렌트카","tel":"032-342-4000","addr":"경기도 용인시 기흥구 마북동 502-233번지 102호","category":"여행 - 렌터카"},{"name":"브로스컨테이너","tel":"","addr":"경기도 용인시 기흥구 마북동 502-233번지 105호","category":"자동차정비 유지 - 카인테리어"},{"name":"에스엠모터스","tel":"031-8005-6147","addr":"경기도 용인시 기흥구 마북동 502-233번지","category":"자동차정비 유지 - 자동차부품"},{"name":"태성포스시스템","tel":"031-282-5512","addr":"경기도 용인시 기흥구 마북동 502-233번지","category":"사무통신 - 통신기기"}]},{"lat":"37.300432581","long":"127.12076853","items":[{"name":"(주) 지에스비에듀","tel":"031-283-9110","addr":"경기도 용인시 기흥구 마북동 232번지","category":"학원 - 보습학원"}]},{"lat":"37.292623307","long":"127.10846367","items":[{"name":"(주)가온나노테크","tel":"031-283-0002","addr":"경기도 용인시 기흥구 마북동 431번지 비즈13팀","category":"신변잡화 - 기타잡화"},{"name":"(주)스타일언리미티드","tel":"031-287-4659","addr":"경기도 용인시 기흥구 마북동 431","category":"의류 - 정장"},{"name":"(주)인터넷연구소","tel":"070-4799-9161","addr":"경기도 용인시 기흥구 마북동 431번지 경기도여성능력개발센타 B20호","category":"직물 - 침구·수예점"},{"name":"(주)하랑","tel":"050-5510-4545","addr":"경기도 용인시 기흥구 마북동 431번지 경기도여성능력개발센타","category":"보건위생 - 화장품"},{"name":"경기캘리그라피디자인센터 (gcdc)","tel":"","addr":"경기도 용인시 기흥구 마북동 431번지 경기도여성능력개발센타 1호","category":"용역 서비스 - 사무서비스"},{"name":"고니네미","tel":"","addr":"경기도 용인시 기흥구 마북동 431번지 경기도여성능력개발센터 꿈마루동 24호","category":"문화.취미 - 화원"},{"name":"괜찮은곳","tel":"","addr":"경기도 용인시 기흥구 마북동 431번지 경기도여성능력개발센타 1층 Biz 16팀호","category":"주방용구 - 주방용구"},{"name":"글공장(황금선Design gallery)","tel":"","addr":"경기도 용인시 기흥구 마북동 431번지 경기도여성능력개발센터 꿈마루 11호","category":"용역 서비스 - 사무서비스"},{"name":"길가온","tel":"","addr":"경기도 용인시 기흥구 마북동 431번지 경기도일자리재단 1인창조기업지원센터","category":"음료식품 - 농·축·수산품"},{"name":"다섯시","tel":"070-8222-9219","addr":"경기도 용인시 기흥구 마북동 431번지 경기도여성능력개발센터","category":"음료식품 - 기타음료식품"},{"name":"달나라","tel":"031-304-3377","addr":"경기도 용인시 기흥구 마북동 431번지 경기도여성능력개발센터","category":"건강식품 - 기타건강식품"},{"name":"디자인포유","tel":"031-274-5505","addr":"경기도 용인시 기흥구 마북동 431번지 경기도여성능력개발센터비즈7팀","category":"신변잡화 - 기타잡화"},{"name":"라훔","tel":"031-731-9709","addr":"경기도 용인시 기흥구 마북동 431번지 경기동여성능력개발센터 Post-B1 107호","category":"서적문구 - 출판 및 인쇄물"},{"name":"리나팰리스","tel":"","addr":"경기도 용인시 기흥구 마북동 431번지 경기도여성인력개발센터 비즈니스동17","category":"신변잡화 - 가방"},{"name":"리네옷장","tel":"031-000-0000","addr":"경기도 용인시 기흥구 마북동 431번지 경기도일자리재단 여성능력개발본부 꿈마루 08호","category":"의류 - 맞춤복점"},{"name":"버블바바라(bublebabara)","tel":"","addr":"경기도 용인시 기흥구 마북동 431번지 경기도여성능력개발센터 끔마루","category":"신변잡화 - 액세서리"},{"name":"베베마더(BEBEMOTHER)","tel":"","addr":"경기도 용인시 기흥구 마북동 431번지 꿈마루 30호","category":"의류 - 아동의류"},{"name":"벨피움","tel":"031-000-0000","addr":"경기도 용인시 기흥구 마북동 431번지 꿈마루 18호","category":"문화.취미 - 화원"},{"name":"블루밍북(Blooming Book)교육연구소","tel":"031-212-1343","addr":"경기도 용인시 기흥구 마북동 431번지 꿈마루호","category":"학원 - 기능학원"},{"name":"선아트앤일러스트","tel":"031-111-1111","addr":"경기도 용인시 기흥구 마북동 431번지 경기도여성능력개발센터 꿈마루 24호","category":"학원 - 기타 교육기관"},{"name":"슈즘","tel":"031-551-9294","addr":"경기도 용인시 기흥구 마북동 431번지 경기도여성능력개발센타비즈19호","category":"신변잡화 - 신발"},{"name":"스토리키즈 (Story Kids)","tel":"","addr":"경기도 용인시 기흥구 마북동 431번지 경기도여성능력개발센타 B15호","category":"문화.취미 - 티켓"},{"name":"아퀼라","tel":"070-8650-5500","addr":"경기도 용인시 기흥구 마북동 431번지 경기도여성능력개발센타 우리동 꿈마을 11호","category":"학원 - 기능학원"},{"name":"알앤텍솔루션","tel":"","addr":"경기도 용인시 기흥구 마북동 431번지 경기도여성능력개발센타","category":"신변잡화 - 기타잡화"},{"name":"에스제이 네츄럴(SJ Natural)","tel":"02-1111-1111","addr":"경기도 용인시 기흥구 마북동 431번지 꿈마루 02호","category":"신변잡화 - 기타잡화"},{"name":"에스투메이드(S2메이드)","tel":"050-4401-2443","addr":"경기도 용인시 기흥구 마북동 431번지 경기도여성능력개방센터 꿈마루 5호","category":"신변잡화 - 기타잡화"},{"name":"에이치제이 클래식(HJ. C.)","tel":"031-1111-1111","addr":"경기도 용인시 기흥구 마북동 431번지 경기도일자리재단 15호","category":"신변잡화 - 가방"},{"name":"옥림코리아(Wallen KOREA)","tel":"031-000-0000","addr":"경기도 용인시 기흥구 마북동 431번지 재단법인 일자리재단 고용성장본부 B15호","category":"신변잡화 - 기타잡화"},{"name":"와이에스(YS)","tel":"031-287-6007","addr":"경기도 용인시 기흥구 마북동 431번지 여성능력개발센터 B16호","category":"전기제품 - 가전제품"},{"name":"원헌드레드(Won Hundred)","tel":"031-000-0000","addr":"경기도 용인시 기흥구 마북동 431번지 경기도영성능력개발센터","category":"보건위생 - 화장품"},{"name":"자리(ZARI)","tel":"031-287-0754","addr":"경기도 용인시 기흥구 마북동 431번지 여성능력개발센타","category":"서적문구 - 문구용품"},{"name":"제이드핸즈","tel":"","addr":"경기도 용인시 기흥구 마북동 431번지 경기도여성능력개발센타 1층 32호","category":"직물 - 침구·수예점"},{"name":"주식회사 아이유디자인","tel":"031-285-0919","addr":"경기도 용인시 기흥구 마북동 431번지 비즈니스동 2층 1호 비즈","category":"서적문구 - 완구점"},{"name":"주식회사 힐패스인터내셔널","tel":"070-8249-6072","addr":"경기도 용인시 기흥구 마북동 431번지 1층","category":"건강식품 - 기타건강식품"},{"name":"주오디자인(Jewoh Design)","tel":"031-703-3161","addr":"경기도 용인시 기흥구 마북동 431번지 여성능력개발센터비즈 16팀","category":"용역 서비스 - 사무서비스"},{"name":"지투지(G2G)","tel":"031-275-1599","addr":"경기도 용인시 기흥구 마북동 431번지 경기도여성능력개발센터 BIZ동 17호","category":"신변잡화 - 기타잡화"},{"name":"트루펑션","tel":"031-281-6313","addr":"경기도 용인시 기흥구 마북동 431번지 경기도여성능력개발센타 6호","category":"보건위생 - 화장품"},{"name":"페이퍼서울","tel":"031-891-1188","addr":"경기도 용인시 기흥구 마북동 431번지 1층 꿈마루 22호","category":"서적문구 - 문구용품"},{"name":"하루에코","tel":"031-000-0000","addr":"경기도 용인시 기흥구 마북동 431번지","category":"용역 서비스 - 사무서비스"},{"name":"하우컴퍼니","tel":"070-8627-9983","addr":"경기도 용인시 기흥구 마북동 431번지 비즈 2호","category":"신변잡화 - 가방"},{"name":"하이호이(hihoi)","tel":"031-423-8455","addr":"경기도 용인시 기흥구 마북동 431번지 경기도여성능력개발센타 31호","category":"서적문구 - 문구용품"},{"name":"한국플라워공예센터","tel":"031-757-1107","addr":"경기도 용인시 기흥구 마북동 431번지 경기도여성능력개발센터 꿈마루23호","category":"문화.취미 - 민예·공예품"},{"name":"허밍(HUMMING)","tel":"","addr":"경기도 용인시 기흥구 마북동 431번지 경기도여성능력개발센터 내 꿈마루","category":"용역 서비스 - 사무서비스"},{"name":"현디자인","tel":"031-000-0000","addr":"경기도 용인시 기흥구 마북동 431번지 경기도여성능력개발센타","category":"용역 서비스 - 사무서비스"}]},{"lat":"37.304097023","long":"127.12347002","items":[{"name":"(주)조은랜드 /제이스파","tel":"031-283-0566","addr":"경기도 용인시 기흥구 마북동 181-2번지 한성프라자 지층 101호","category":"보건위생 - 사우나"},{"name":"1001안경원","tel":"031-281-9191","addr":"경기도 용인시 기흥구 마북동 181-2번지 한성프라자 104호","category":"보건위생 - 안경"},{"name":"GS25기흥한성점","tel":"","addr":"경기도 용인시 기흥구 마북동 181-2번지 한성프라자 103호","category":"유통업 영리 - 편 의 점"},{"name":"거성당구장","tel":"031-274-0477","addr":"경기도 용인시 기흥구 마북동 181-2번지 한성프라자 407호","category":"레저업소 - 당 구 장"},{"name":"거성당구장","tel":"031-274-0477","addr":"경기도 용인시 기흥구 마북동 181-2번지 한성프라자 407호","category":"레저업소 - 당 구 장"},{"name":"교동독서실","tel":"031-282-6660","addr":"경기도 용인시 기흥구 마북동 181-2번지 한성프라자 308,309","category":"학원 - 독서실"},{"name":"나나네일","tel":"031-281-8885","addr":"경기도 용인시 기흥구 마북동 181-2번지 한성프라자 117호 일부","category":"보건위생 - 피부미용실"},{"name":"노가리","tel":"","addr":"경기도 용인시 기흥구 마북동 181-2번지 한성프라자 1층 116호","category":"일반휴게음식 - 주점"},{"name":"뚝딱김치","tel":"031-284-8766","addr":"경기도 용인시 기흥구 마북동 181-2번지 한성프라자 114호","category":"일반휴게음식 - 일반한식"},{"name":"라인엑스짐","tel":"","addr":"경기도 용인시 기흥구 마북동 181-2번지 한성프라자 201,202,203호","category":"레저업소 - 헬스클럽"},{"name":"르네셀","tel":"031-274-4459","addr":"경기도 용인시 기흥구 마북동 181-2번지 한성프라자 108호","category":"회원제형태 - 기타1"},{"name":"리틀 엔 팬트리","tel":"070-8285-6621","addr":"경기도 용인시 기흥구 마북동 181-2번지 한성프라자 208호","category":"음료식품 - 기타음료식품"},{"name":"리틀N팬트리","tel":"070-8285-6621","addr":"경기도 용인시 기흥구 마북동 181-2번지 한성프라자 208호","category":"건강식품 - 기타건강식품"},{"name":"마북서울약국","tel":"031-283-5940","addr":"경기도 용인시 기흥구 마북동 181-2번지 한성프라자 110호","category":"약국 - 약국"},{"name":"맑은몸한의원","tel":"031-283-2040","addr":"경기도 용인시 기흥구 마북동 181-2번지 한성프라자 3층 303호","category":"의원 - 한의원"},{"name":"모든치과","tel":"031-284-2859","addr":"경기도 용인시 기흥구 마북동 181-2,3한성프라자305","category":"의원 - 치과의원"},{"name":"바로김밥","tel":"031-275-9895","addr":"경기도 용인시 기흥구 마북동 181-2번지 한성프라자 107호","category":"일반휴게음식 - 일반한식"},{"name":"박상현내과의원","tel":"031-283-7706","addr":"경기도 용인시 기흥구 마북동 181-2번지 한성프라자 307호","category":"의원 - 의원"},{"name":"버무리떡볶이","tel":"031-000-0000","addr":"경기도 용인시 기흥구 마북동 181-2번지 한성프라자 108호","category":"일반휴게음식 - 일반한식"},{"name":"버무리떡볶이","tel":"031-000-0000","addr":"경기도 용인시 기흥구 마북동 181-2번지 한성프라자 108호","category":"일반휴게음식 - 일반한식"},{"name":"벨류필라테스 마북","tel":"031-282-2031","addr":"경기도 용인시 기흥구 마북동 181-2번지 한성프라자 306호","category":"레저업소 - 헬스클럽"},{"name":"비비큐 마북점","tel":"031-287-4005","addr":"경기도 용인시 기흥구 마북동 181-2번지 한성프라자 111호","category":"일반휴게음식 - 스넥"},{"name":"선찬방","tel":"031-283-7735","addr":"경기도 용인시 기흥구 마북동 181-2번지 한성프라자 116호","category":"음료식품 - 기타음료식품"},{"name":"스튜디오 나다르","tel":"031-284-3778","addr":"경기도 용인시 기흥구 마북동 181-2번지 한성프라자 401호","category":"광학제품 - 사진관"},{"name":"신나는점핑다이어트","tel":"031-285-3635","addr":"경기도 용인시 기흥구 마북동 181-2번지 한성프라자 4층 402호","category":"건강식품 - 기타건강식품"},{"name":"아텍사진학원","tel":"031-284-4613","addr":"경기도 용인시 기흥구 마북동 181-2번지 한성프라자 304호","category":"회원제형태 - 학원"},{"name":"오사카야시장","tel":"02-422-0010","addr":"경기도 용인시 기흥구 마북동 181-2번지 한성프라자 105호","category":"일반휴게음식 - 일반한식"},{"name":"올가내츄럴스킨(Natural skin)","tel":"031-257-5178","addr":"경기도 용인시 기흥구 마북동 181-2번지 한성프라자 117호","category":"보건위생 - 화장품"},{"name":"용인신중년영농협동조합","tel":"031-334-3019","addr":"경기도 용인시 기흥구 마북동 181-2번지 한성프라자 115호","category":"음료식품 - 농·축·수산품"},{"name":"원조할매순대국 마북점","tel":"031-287-5522","addr":"경기도 용인시 기흥구 마북동 181-2번지 한성프라자 102호","category":"일반휴게음식 - 일반한식"},{"name":"육회한쭈꾸미","tel":"031-693-8806","addr":"경기도 용인시 기흥구 마북동 181-2번지 한성프라자 115호","category":"일반휴게음식 - 일반한식"},{"name":"이롬 칼빈대지점","tel":"031-284-9692","addr":"경기도 용인시 기흥구 마북동 181-2번지 한성프라자 208호","category":"회원제형태 - 건강식품"},{"name":"이와이이쁘다(EYE쁘다)","tel":"","addr":"경기도 용인시 기흥구 마북동 181-2번지 한성프라자 1층 112호","category":"보건위생 - 미용원"},{"name":"조선갈매기","tel":"031-283-5711","addr":"경기도 용인시 기흥구 마북동 181-2번지 한성프라자 101호","category":"일반휴게음식 - 일반한식"},{"name":"족선생","tel":"031-282-8880","addr":"경기도 용인시 기흥구 마북동 181-2번지 한성프라자 1층 119호","category":"일반휴게음식 - 일반한식"},{"name":"집닭","tel":"031-286-3737","addr":"경기도 용인시 기흥구 마북동 181-2번지 한성프라자 109호","category":"일반휴게음식 - 일반한식"},{"name":"퀸헤어클리닉","tel":"031-284-0599","addr":"경기도 용인시 기흥구 마북동 181-2 한성프라자 205","category":"보건위생 - 미용원"},{"name":"파리바게트용인마북점","tel":"031-243-8204","addr":"경기도 용인시 기흥구 마북동 181-2번지 한성프라자 113호","category":"음료식품 - 제과점"},{"name":"필골프아카데미","tel":"031-284-0510","addr":"경기도 용인시 기흥구 마북동 181-2번지 한성프라자 406호","category":"레저업소 - 골프연습장"},{"name":"한성반찬","tel":"031-283-8080","addr":"경기도 용인시 기흥구 마북동 181-2번지 한성프라자 205호","category":"음료식품 - 기타음료식품"},{"name":"홍춘천닭갈비","tel":"070-8113-0027","addr":"경기도 용인시 기흥구 마북동 181-2번지 한성프라자 106호","category":"일반휴게음식 - 일반한식"},{"name":"휴노래연습장","tel":"031-284-3177","addr":"경기도 용인시 기흥구 마북동 181-2번지 한성프라자 206호","category":"레저업소 - 노 래 방"}]},{"lat":"37.296984138","long":"127.1086051","items":[{"name":"(주)천지인산업개발 마북지점","tel":"031-287-6200","addr":"경기도 용인시 기흥구 마북동 476-5번지","category":"용역 서비스 - 부동산 중개·임대"},{"name":"벨리노에스호텔","tel":"031-287-6200","addr":"경기도 용인시 기흥구 마북동 476-5번지","category":"숙박업 - 여관/기타숙박업"}]},{"lat":"37.31242676","long":"127.13626428","items":[{"name":"(주)케이씨씨 중앙연구소","tel":"031-288-3227","addr":"경기도 용인시 기흥구 마북동 83번지","category":"자동차정비 유지 - 주차장"}]},{"lat":"37.298092426","long":"127.10857282","items":[{"name":"(주)타이어트리","tel":"031-284-0648","addr":"경기도 용인시 기흥구 마북동 475-10번지 3층","category":"자동차정비 유지 - 자동차시트·타이어"},{"name":"주식회사 용인레이번스축구단","tel":"031-284-2890","addr":"경기도 용인시 기흥구 마북동 475-10번지 2층","category":"학원 - 예·체능계학원"}]},{"lat":"37.301706807","long":"127.10713416","items":[{"name":"(주)투리치","tel":"070-4126-0001","addr":"경기도 용인시 기흥구 마북동 526-3번지 연원마을엘지자이아파트","category":"용역 서비스 - 사무서비스"}]},{"lat":"37.305233149","long":"127.13929706","items":[{"name":"(주)현대그린푸드 달마이어카페(교육동)","tel":"031-525-2181","addr":"경기도 용인시 기흥구 마북동 102-18번지 1층","category":"일반휴게음식 - 서양음식"}]},{"lat":"37.300756477","long":"127.1118587","items":[{"name":"101플라워","tel":"02-1644-3101","addr":"경기도 용인시 기흥구 마북동 524-8번지 연원마을삼호.벽산아파트","category":"문화.취미 - 화원"}]},{"lat":"37.317039952","long":"127.12804835","items":[{"name":"119에스프레소","tel":"031-683-5136","addr":"경기도 용인시 기흥구 마북동 9-9번지","category":"수리서비스 - 가정용품수리"}]},{"lat":"37.294989599","long":"127.11221128","items":[{"name":"1호카센타","tel":"031-286-9987","addr":"경기도 용인시 기흥구 마북동 370-6번지 1층","category":"자동차정비 유지 - 자동차정비"}]},{"lat":"37.294790988","long":"127.11262828","items":[{"name":"3+(3플러스)","tel":"","addr":"경기도 용인시 기흥구 마북동 369-4번지 1층","category":"일반휴게음식 - 스넥"}]},{"lat":"37.301485863","long":"127.12168377","items":[{"name":"365일이가편한연세치과의원","tel":"031-283-3651","addr":"경기도 용인시 기흥구 마북동 168-6번지 현대타운 2층 204호","category":"의원 - 치과의원"},{"name":"강철수영수학원","tel":"031-287-8586","addr":"경기도 용인시 기흥구 마북동 168-6번지 현대타운 2층 201호","category":"학원 - 보습학원"},{"name":"굿아이안경콘택트","tel":"031-283-2974","addr":"경기도 용인시 기흥구 마북동 168-6번지 현대타운 107호","category":"보건위생 - 안경"},{"name":"노블레스헤어","tel":"031-285-4809","addr":"경기도 용인시 기흥구 마북동 168-6번지 현대타운 1층 101호","category":"보건위생 - 미용원"},{"name":"본죽마북점","tel":"031-284-6282","addr":"경기도 용인시 기흥구 마북동 168-6번지 현대타운 104호","category":"일반휴게음식 - 일반한식"},{"name":"비바체음악학원","tel":"031-274-2707","addr":"경기도 용인시 기흥구 마북동 168-6번지","category":"학원 - 예·체능계학원"},{"name":"비에이치씨(BHC) 구성마북점","tel":"031-282-8782","addr":"경기도 용인시 기흥구 마북동 168-6번지 현대타운 106호","category":"일반휴게음식 - 스넥"},{"name":"비에이치씨(bhc)구성마북점","tel":"031-282-8782","addr":"경기도 용인시 기흥구 마북동 168-6번지 현대타운 106호","category":"일반휴게음식 - 스넥"},{"name":"빵이좋아호텔","tel":"031-283-7038","addr":"경기도 용인시 기흥구 마북동 168-6번지 현대타운 103호","category":"음료식품 - 제과점"},{"name":"생명공동체소비조합","tel":"031-283-2532","addr":"경기도 용인시 기흥구 마북동 168-6번지 현대타운 1층 102호","category":"유통업 영리 - 슈퍼마켓"},{"name":"용인왕족발","tel":"031-287-5588","addr":"경기도 용인시 기흥구 마북동 168-6번지 현대타운 1층 102호","category":"일반휴게음식 - 일반한식"},{"name":"윤선생 우리집앞영어 교동영어교습소","tel":"031-287-8027","addr":"경기도 용인시 기흥구 마북동 168-6번지 현대타운 302호","category":"학원 - 외국어학원"},{"name":"카페만","tel":"031-281-4722","addr":"경기도 용인시 기흥구 마북동 168-6번지 현대타운 109호","category":"일반휴게음식 - 서양음식"},{"name":"코코베리","tel":"070-7018-5367","addr":"경기도 용인시 기흥구 마북동 168-6번지 현대타운 105호","category":"의류 - 정장"}]},{"lat":"37.29356913","long":"127.10874694","items":[{"name":"929숯불닭갈비","tel":"031-281-0929","addr":"경기도 용인시 기흥구 마북동 425-25번지 올리브스퀘어 1층","category":"일반휴게음식 - 일반한식"},{"name":"올리브스크린 골프장","tel":"031-286-7244","addr":"경기도 용인시 기흥구 마북동 425-25번지 B동 2층","category":"레저업소 - 스크린골프"},{"name":"주식회사 디프라토","tel":"031-768-8410","addr":"경기도 용인시 기흥구 마북동 425-25번지 올리브스퀘어 1층","category":"의류 - 정장"},{"name":"카페어썸","tel":"031-287-5659","addr":"경기도 용인시 기흥구 마북동 425-25번지 B동 1층","category":"일반휴게음식 - 서양음식"}]},{"lat":"37.300568339","long":"127.12015968","items":[{"name":"9Cafe","tel":"031-283-5005","addr":"경기도 용인시 기흥구 마북동 240-6번지","category":"일반휴게음식 - 서양음식"},{"name":"구하리수학교습소","tel":"","addr":"경기도 용인시 기흥구 마북동 240-6번지 1층","category":"학원 - 보습학원"}]},{"lat":"37.298399736","long":"127.10749051","items":[{"name":"A.GPOWER","tel":"031-283-2950","addr":"경기도 용인시 기흥구 마북동 508번지","category":"자동차정비 유지 - 자동차부품"}]},{"lat":"37.303627962","long":"127.12398812","items":[{"name":"A10헤어샬롱","tel":"031-282-3236","addr":"경기도 용인시 기흥구 마북동 182-15번지","category":"보건위생 - 미용원"},{"name":"딸부자통신","tel":"031-284-2226","addr":"경기도 용인시 기흥구 마북동 182-15번지 테라스가든B빌딩 B동 109호","category":"사무통신 - 통신기기"},{"name":"미니살롱","tel":"070-7078-5588","addr":"경기도 용인시 기흥구 마북동 182-15번지 테라스가든B빌딩 106호","category":"의류 - 정장"},{"name":"미니살롱","tel":"031-000-0000","addr":"경기도 용인시 기흥구 마북동 182-15번지 테라스가든B빌딩 106호","category":"의류 - 정장"},{"name":"삼성드림아이소아청소년과","tel":"031-283-1088","addr":"경기도 용인시 기흥구 마북동 182-15번지 테라스가든 B동 203호","category":"의원 - 의원"},{"name":"스마일약국","tel":"031-284-4962","addr":"경기도 용인시 기흥구 마북동 182-15번지 테라스가든B빌딩 202-2호","category":"약국 - 약국"},{"name":"스마일약국","tel":"031-284-4962","addr":"경기도 용인시 기흥구 마북동 182-15번지 B동 202-2호","category":"약국 - 약국"},{"name":"신통치킨(마북점)","tel":"031-287-7120","addr":"경기도 용인시 기흥구 마북동 182-15번지 테라스가든B빌딩 B동 107호","category":"일반휴게음식 - 스넥"},{"name":"심플","tel":"031-287-8852","addr":"경기도 용인시 기흥구 마북동 182-15번지 테라스가든 116호","category":"의류 - 정장"},{"name":"씨유마북가든점","tel":"031-88-6693","addr":"경기도 용인시 기흥구 마북동 182-15번지 테라스가든빌딩 B동 104호","category":"유통업 영리 - 편 의 점"},{"name":"우리동네국수집","tel":"031-283-3788","addr":"경기도 용인시 기흥구 마북동 182-15번지 테라스가든 상가 B동 103호","category":"일반휴게음식 - 스넥"},{"name":"이디야커피 마북점","tel":"031-282-4865","addr":"경기도 용인시 기흥구 마북동 182-15번지 테라스가든B빌딩 113,114,115","category":"일반휴게음식 - 서양음식"},{"name":"이베리코 흑돼지집","tel":"031-283-8292","addr":"경기도 용인시 기흥구 마북동 182-15번지 테라스가든B빌딩 B동101,102호","category":"일반휴게음식 - 일반한식"},{"name":"주식회사메이트라인","tel":"02-532-0888","addr":"경기도 용인시 기흥구 마북동 182-15번지 테라스가든B빌딩","category":"용역 서비스 - 사무서비스"},{"name":"지인","tel":"031-284-4656","addr":"경기도 용인시 기흥구 마북동 182-15번지 테라스가든B빌딩 110호","category":"건축자재 - 인테리어전문"},{"name":"협우물산주식회사","tel":"031-284-9797","addr":"경기도 용인시 기흥구 마북동 182-15번지","category":"기타 - 기타 전문점"}]},{"lat":"37.29787603","long":"127.10874169","items":[{"name":"BBQ(구성점)","tel":"031-284-9508","addr":"경기도 용인시 기흥구 마북동 475-1번지","category":"일반휴게음식 - 스넥"},{"name":"GS25마북누리점","tel":"","addr":"경기도 용인시 기흥구 마북동 475-1번지 102호","category":"유통업 영리 - 편 의 점"},{"name":"OK당구클럽","tel":"","addr":"경기도 용인시 기흥구 마북동 475-1번지 2층","category":"레저업소 - 당 구 장"},{"name":"구성감자탕","tel":"031-284-5820","addr":"경기도 용인시 기흥구 마북동 475-1번지","category":"일반휴게음식 - 일반한식"},{"name":"미성양꼬치","tel":"031-275-9792","addr":"경기도 용인시 기흥구 마북동 475-1번지 1층","category":"일반휴게음식 - 일반한식"},{"name":"아리따운뷰티샵","tel":"031-285-7220","addr":"경기도 용인시 기흥구 마북동 475-1번지","category":"회원제형태 - 기타4"},{"name":"파로스현악기사","tel":"031-283-5388","addr":"경기도 용인시 기흥구 마북동 475-1번지","category":"레져용품 - 악기점"}]},{"lat":"37.294988563","long":"127.11332781","items":[{"name":"E세탁할인점","tel":"031-274-2217","addr":"경기도 용인시 기흥구 마북동 331-1번지 리딩프라자 109호","category":"수리서비스 - 세탁소"},{"name":"가이오DC","tel":"031-275-8336","addr":"경기도 용인시 기흥구 마북동 331-1번지 리딩프라자 106호","category":"서적문구 - 기타서적문구"},{"name":"구성용인대아이캔태권도장","tel":"031-283-7779","addr":"경기도 용인시 기흥구 마북동 331-1번지 외1필지리딩프라자 3층 304호","category":"학원 - 예·체능계학원"},{"name":"구성점셀파우등생학원","tel":"031-284-0886","addr":"경기도 용인시 기흥구 마북동 331-1번지 리딩프라자 201호","category":"학원 - 보습학원"},{"name":"구성화로닭발","tel":"031-285-6200","addr":"경기도 용인시 기흥구 마북동 331-1번지 외1필지114호전체","category":"일반휴게음식 - 일반한식"},{"name":"그레이스헤어","tel":"031-274-4776","addr":"경기도 용인시 기흥구 마북동 331-1번지 리딩프라자 1층 108호","category":"보건위생 - 미용원"},{"name":"그레이스헤어","tel":"031-274-4776","addr":"경기도 용인시 기흥구 마북동 331-1번지 리딩프라자 1층 108호","category":"보건위생 - 미용원"},{"name":"또래오래구성점","tel":"","addr":"경기도 용인시 기흥구 마북동 331-1번지 리딩프라자 115호","category":"일반휴게음식 - 스넥"},{"name":"로열짐","tel":"031-769-3253","addr":"경기도 용인시 기흥구 마북동 331-1번지 리딩프라자 110호","category":"회원제형태 - 레져업소"},{"name":"모내는날","tel":"031-274-6366","addr":"경기도 용인시 기흥구 마북동 331-1번지 리딩프라자 117호","category":"일반휴게음식 - 일반한식"},{"name":"샤인헤나","tel":"031-286-3006","addr":"경기도 용인시 기흥구 마북동 331-1번지 리딩프라자 110호","category":"문화.취미 - 문화취미기타"},{"name":"소나타피아노교습소","tel":"031-281-2332","addr":"경기도 용인시 기흥구 마북동 331-1번지 리딩프라자 104호","category":"학원 - 예·체능계학원"},{"name":"아이블레스안경","tel":"031-281-0982","addr":"경기도 용인시 기흥구 마북동 331-1번지 리딩프라자 1층 110호","category":"보건위생 - 안경"},{"name":"예임정형외과의원","tel":"031-283-5535","addr":"경기도 용인시 기흥구 마북동 331-1번지 리딩프라자 3층 301~303호","category":"의원 - 의원"},{"name":"의정부부대찌개","tel":"031-282-7701","addr":"경기도 용인시 기흥구 마북동 331-1번지 리딩프라자 111호~112호","category":"일반휴게음식 - 일반한식"},{"name":"참조은스크린골프","tel":"031-285-7748","addr":"경기도 용인시 기흥구 마북동 331-1번지 리딩프라자,401호~402호 401호","category":"회원제형태 - 레져업소"},{"name":"청치과의원","tel":"031-274-2828","addr":"경기도 용인시 기흥구 마북동 331-1번지 리딩프라자 3층 306호","category":"의원 - 치과의원"},{"name":"카페주","tel":"031-892-3258","addr":"경기도 용인시 기흥구 마북동 331-1번지 리딩프라자 106호","category":"일반휴게음식 - 서양음식"},{"name":"프렌즈슬라임","tel":"","addr":"경기도 용인시 기흥구 마북동 331-1번지 리딩프라자 305호","category":"서적문구 - 완구점"},{"name":"피자알볼로(보정.구성점)","tel":"031-693-8495","addr":"경기도 용인시 기흥구 마북동 331-1번지 리딩프라자","category":"일반휴게음식 - 서양음식"},{"name":"한사량약국","tel":"031-283-5505","addr":"경기도 용인시 기흥구 마북동 331-1번지 리딩프라자 107호","category":"약국 - 약국"},{"name":"한솔플러스영어오즈학원","tel":"031-285-1505","addr":"경기도 용인시 기흥구 마북동 331-1번지 리딩프라자 1층 105호","category":"학원 - 보습학원"},{"name":"함께하는 구성심리상담센터","tel":"031-276-0119","addr":"경기도 용인시 기흥구 마북동 331-1번지 리딩프라자 202호","category":"학원 - 기타 교육기관"},{"name":"효미인실버케어","tel":"031-287-7577","addr":"경기도 용인시 기흥구 마북동 331-1번지 리딩프라자 204호","category":"기타의료기관 - 기타의료기관 및 기타"}]},{"lat":"37.295959467","long":"127.11566381","items":[{"name":"GS25구성효성점","tel":"","addr":"경기도 용인시 기흥구 마북동 342-3번지","category":"유통업 영리 - 편 의 점"},{"name":"기분존","tel":"031-274-9411","addr":"경기도 용인시 기흥구 마북동 342-3번지 103호","category":"사무통신 - 컴퓨터"}]},{"lat":"37.299677284","long":"127.11918832","items":[{"name":"GS25기흥교동점","tel":"","addr":"경기도 용인시 기흥구 마북동 251-33번지","category":"유통업 영리 - 편 의 점"}]},{"lat":"37.309377976","long":"127.13112642","items":[{"name":"GS25기흥마북점","tel":"","addr":"경기도 용인시 기흥구 마북동 66번지 101호","category":"유통업 영리 - 편 의 점"},{"name":"카페(cafe)원","tel":"031-283-3644","addr":"경기도 용인시 기흥구 마북동 66번지 103호","category":"일반휴게음식 - 서양음식"}]},{"lat":"37.303509681","long":"127.10618918","items":[{"name":"GS25용인마북점","tel":"","addr":"경기도 용인시 기흥구 마북동 554-1번지","category":"유통업 영리 - 편 의 점"},{"name":"도미노피자구성점","tel":"031-284-3032","addr":"경기도 용인시 기흥구 마북동 554-1번지 1층","category":"일반휴게음식 - 서양음식"},{"name":"마북점기아오토큐","tel":"031-284-0004","addr":"경기도 용인시 기흥구 마북동 554-1번지","category":"자동차정비 유지 - 자동차정비"},{"name":"이층갈비","tel":"031-223-5214","addr":"경기도 용인시 기흥구 마북동 554-1번지 두부요일 2층 201호","category":"일반휴게음식 - 일반한식"}]},{"lat":"37.301848514","long":"127.10988644","items":[{"name":"H2휘트니스","tel":"031-284-8088","addr":"경기도 용인시 기흥구 마북동 524-26번지 마북프라자 4층","category":"회원제형태 - 레져업소"},{"name":"e해법 셀파마북벽산점수학교습소","tel":"031-283-3912","addr":"경기도 용인시 기흥구 마북동 524-26번지 마북중앙프라자 501호 일부","category":"학원 - 보습학원"},{"name":"다인헤어","tel":"031-287-9533","addr":"경기도 용인시 기흥구 마북동 524-26번지 마북프라자 1층 103호","category":"보건위생 - 미용원"},{"name":"문법의신 영어학원","tel":"070-4789-2381","addr":"경기도 용인시 기흥구 마북동 524-26번지 마북프라자 501호","category":"학원 - 외국어학원"},{"name":"미솜디자인","tel":"031-283-5283","addr":"경기도 용인시 기흥구 마북동 524-26번지 마북프라자 102호","category":"건축자재 - 인테리어전문"},{"name":"연원해법영어학원","tel":"031-281-1504","addr":"경기도 용인시 기흥구 마북동 524-26번지 마북프라자 302-2호 , 303","category":"학원 - 보습학원"},{"name":"이엔와이 디지털(E&Y Digital)","tel":"031-286-3386","addr":"경기도 용인시 기흥구 마북동 524-26번지 마북프라자 104호","category":"수리서비스 - 사무·통신기기수리"},{"name":"이엘(EL)디자인","tel":"031-784-9314","addr":"경기도 용인시 기흥구 마북동 524-26번지 마북프라자 101호","category":"건축자재 - 인테리어전문"},{"name":"치칵치칵(마북점)","tel":"031-111-1111","addr":"경기도 용인시 기흥구 마북동 524-26번지 마북프라자 1층 104호","category":"일반휴게음식 - 스넥"},{"name":"카페리","tel":"031-274-5949","addr":"경기도 용인시 기흥구 마북동 524-26번지 마북프라자 106호","category":"일반휴게음식 - 서양음식"}]},{"lat":"37.299516193","long":"127.10840563","items":[{"name":"HAAS영어학원","tel":"031-304-4152","addr":"경기도 용인시 기흥구 마북동 520-7번지 연원프라자 3층 302호","category":"학원 - 보습학원"},{"name":"김재관기타학원","tel":"031-284-2654","addr":"경기도 용인시 기흥구 마북동 520-7번지 연원프라자 303호","category":"회원제형태 - 학원"},{"name":"다솔한의원","tel":"031-285-7582","addr":"경기도 용인시 기흥구 마북동 520-7번지 연원프라자 203호","category":"의원 - 한의원"},{"name":"비비드","tel":"031-8005-8210","addr":"경기도 용인시 기흥구 마북동 520-7번지 연원프라자 106호","category":"의류 - 정장"},{"name":"빌보드노래연습장","tel":"031-284-7373","addr":"경기도 용인시 기흥구 마북동 520-7번지 연원프라자 B층 3호","category":"레저업소 - 노 래 방"},{"name":"삼월의 토끼","tel":"031-283-3688","addr":"경기도 용인시 기흥구 마북동 520-7번지 연원프라자 105호","category":"일반휴게음식 - 일반한식"},{"name":"스타일러두(STYLER Doo)","tel":"070-7672-1211","addr":"경기도 용인시 기흥구 마북동 520-7번지 연원프라자 104호","category":"보건위생 - 미용원"},{"name":"연원골프스쿨","tel":"031-274-7707","addr":"경기도 용인시 기흥구 마북동 520-7연원프라자지하1층4","category":"회원제형태 - 레져업소"},{"name":"연원독서실","tel":"031-284-3222","addr":"경기도 용인시 기흥구 마북동 520-7번지 연원프라자 4층","category":"학원 - 독서실"},{"name":"오정형외과의원","tel":"031-284-8228","addr":"경기도 용인시 기흥구 마북동 520-7번지","category":"의원 - 의원"},{"name":"온열면역센터","tel":"031-284-5075","addr":"경기도 용인시 기흥구 마북동 520-7번지 연원프라자 103호","category":"신변잡화 - 기타잡화"},{"name":"위너3D 골프연습장","tel":"","addr":"경기도 용인시 기흥구 마북동 520-7번지 연원프라자 B04호","category":"레저업소 - 골프연습장"},{"name":"일등급수학전문학원","tel":"02-286-1411","addr":"경기도 용인시 기흥구 마북동 520-7번지 연원프라자 304호","category":"학원 - 보습학원"},{"name":"퀸에스테틱","tel":"031-889-5153","addr":"경기도 용인시 기흥구 마북동 520-7번지 연원프라자 401호","category":"회원제형태 - 기타4"}]},{"lat":"37.302371594","long":"127.11893305","items":[{"name":"JOY헤어","tel":"031-282-7622","addr":"경기도 용인시 기흥구 마북동 638번지 교동마을구성자이3차 상가동 102호","category":"보건위생 - 미용원"},{"name":"엘피스토리(LP STORY)","tel":"031-285-2298","addr":"경기도 용인시 기흥구 마북동 638번지 교동마을구성자이3차","category":"회원제형태 - 사무서비스"},{"name":"자이할인마트","tel":"031-283-5254","addr":"경기도 용인시 기흥구 마북동 638번지 교동마을구성자이3차 상가동 1층 101호","category":"유통업 영리 - 슈퍼마켓"}]},{"lat":"37.293794808","long":"127.10827358","items":[{"name":"OVERFLOWERING","tel":"031-8955-757","addr":"경기도 용인시 기흥구 마북동 425-24번지 1층 7호","category":"문화.취미 - 화원"},{"name":"수지낚시","tel":"","addr":"경기도 용인시 기흥구 마북동 425-24번지 올리브스퀘어 C동 1층 5호","category":"레져용품 - 스포츠·레져용품"},{"name":"오대오","tel":"031-283-8100","addr":"경기도 용인시 기흥구 마북동 425-24번지 02호","category":"일반휴게음식 - 일반한식"}]},{"lat":"37.302099695","long":"127.12054555","items":[{"name":"PEC스포츠아카데미","tel":"031-286-6335","addr":"경기도 용인시 기흥구 마북동 165번지 3층","category":"학원 - 예·체능계학원"},{"name":"아이원유치원","tel":"031-283-6535","addr":"경기도 용인시 기흥구 마북동 165번지 외4필지","category":"학원 - 유치원"},{"name":"주식회사 지아이에스강남인터내셔널스쿨","tel":"031-000-0000","addr":"경기도 용인시 기흥구 마북동 165번지 3층","category":"학원 - 외국어학원"},{"name":"지아이에스어학원","tel":"","addr":"경기도 용인시 기흥구 마북동 165번지 3층 아이원유치원 GIS 어학원","category":"학원 - 외국어학원"}]},{"lat":"37.301848187","long":"127.11024737","items":[{"name":"S2G영어전문학원","tel":"","addr":"경기도 용인시 기흥구 마북동 548-1번지 중앙프라자 403,404호","category":"학원 - 외국어학원"},{"name":"경희대푸른하늘태권도","tel":"031-274-8882","addr":"경기도 용인시 기흥구 마북동 548-1번지 중앙프라자 601호","category":"학원 - 예·체능계학원"},{"name":"더(The)영어교습소","tel":"031-274-9900","addr":"경기도 용인시 기흥구 마북동 548-1번지 중앙프라자 202호","category":"학원 - 외국어학원"},{"name":"떡보주니","tel":"031-282-1800","addr":"경기도 용인시 기흥구 마북동 548-1번지 중앙프라자 106호","category":"음료식품 - 제과점"},{"name":"레꼴드뮤지끄음악학원","tel":"070-4119-9449","addr":"경기도 용인시 기흥구 마북동 548-1번지 중앙프라자 3층 1호","category":"학원 - 예·체능계학원"},{"name":"뮤엠영어학원","tel":"031-274-9900","addr":"경기도 용인시 기흥구 마북동 548-1번지 중앙프라자 204호","category":"회원제형태 - 학원"},{"name":"서쌤의매쓰홀릭수학교습소","tel":"031-276-0369","addr":"경기도 용인시 기흥구 마북동 548-1번지 중앙프라자 2층 203호","category":"학원 - 보습학원"},{"name":"아이커바운스","tel":"","addr":"경기도 용인시 기흥구 마북동 548-1번지 중앙프라자 5층","category":"레저업소 - 기타레져업소"},{"name":"엔크리스토","tel":"031-274-6011","addr":"경기도 용인시 기흥구 마북동 548-1번지 중앙프라자 4층 402호","category":"신변잡화 - 기타잡화"},{"name":"연원즐거운피아노학원","tel":"031-274-1377","addr":"경기도 용인시 기흥구 마북동 548-1번지 중앙프라자 6층 601호","category":"학원 - 예·체능계학원"},{"name":"옛날통닭 닭강정","tel":"031-285-5558","addr":"경기도 용인시 기흥구 마북동 548-1번지 중앙프라자 105호","category":"일반휴게음식 - 일반한식"},{"name":"우리한의원","tel":"031-284-1075","addr":"경기도 용인시 기흥구 마북동 548-1번지 중앙프라자 3층 303호","category":"의원 - 한의원"},{"name":"잉글리쉬무무연원마을학원","tel":"031-8005-8003","addr":"경기도 용인시 기흥구 마북동 548-1번지 중앙프라자 201호","category":"학원 - 보습학원"},{"name":"자인인테리어","tel":"031-286-8104","addr":"경기도 용인시 기흥구 마북동 548-1 연원마을증앙프라자101호","category":"건축자재 - 인테리어전문"},{"name":"칼라앤아이","tel":"031-285-0653","addr":"경기도 용인시 기흥구 마북동 548-1번지 중앙프라자","category":"학원 - 예·체능계학원"},{"name":"켈리와하늘빛나무","tel":"031-275-7761","addr":"경기도 용인시 기흥구 마북동 548-1번지 중앙프라자 204호","category":"학원 - 기타 교육기관"},{"name":"태후사랑 연원점","tel":"031-274-2557","addr":"경기도 용인시 기흥구 마북동 548-1","category":"보건위생 - 이용원"},{"name":"파란명함","tel":"031-287-1874","addr":"경기도 용인시 기흥구 마북동 548-1번지 중앙프라자 402호","category":"서적문구 - 출판 및 인쇄물"}]},{"lat":"37.294959116","long":"127.11588788","items":[{"name":"Sports Wear","tel":"031-111-1111","addr":"경기도 용인시 기흥구 마북동 316-1번지 강산빌딩 3층 302호","category":"의류 - 스포츠의류"},{"name":"소루(SORU)","tel":"070-8265-8250","addr":"경기도 용인시 기흥구 마북동 316-1번지","category":"문화.취미 - 화원"},{"name":"원칼국수","tel":"031-283-3039","addr":"경기도 용인시 기흥구 마북동 316-1번지","category":"일반휴게음식 - 일반한식"},{"name":"현민코퍼레이션","tel":"","addr":"경기도 용인시 기흥구 마북동 316-1번지 강산빌딩 1층","category":"음료식품 - 기타음료식품"}]},{"lat":"37.295016776","long":"127.11205343","items":[{"name":"가나안동물병원","tel":"031-283-8556","addr":"경기도 용인시 기흥구 마북동 370-5번지","category":"기타의료기관 - 동물병원"},{"name":"이브자리","tel":"031-284-7949","addr":"경기도 용인시 기흥구 마북동 370-5번지 1층","category":"직물 - 침구·수예점"}]},{"lat":"37.295040133","long":"127.11596694","items":[{"name":"강산당구장","tel":"031-283-1616","addr":"경기도 용인시 기흥구 마북동 316번지 외3필지 5층","category":"레저업소 - 당 구 장"},{"name":"강산세차장","tel":"031-283-0578","addr":"경기도 용인시 기흥구 마북동 316번지","category":"자동차정비 유지 - 세차장"},{"name":"또봉이통닭","tel":"031-285-8956","addr":"경기도 용인시 기흥구 마북동 316번지","category":"일반휴게음식 - 스넥"},{"name":"못난이꽈배기(마북점)","tel":"031-274-2201","addr":"경기도 용인시 기흥구 마북동 316번지 강산빌딩 1층 일부","category":"일반휴게음식 - 일반한식"},{"name":"에스케이렌트카주식회사","tel":"031-286-4280","addr":"경기도 용인시 기흥구 마북동 316번지 강산빌딩 4층","category":"여행 - 렌터카"}]},{"lat":"37.298346498","long":"127.10655431","items":[{"name":"개때놀이터","tel":"031-282-2355","addr":"경기도 용인시 기흥구 마북동 494-1번지","category":"일반휴게음식 - 서양음식"}]},{"lat":"37.297371134","long":"127.10910189","items":[{"name":"갤러리 하우스","tel":"031-285-3890","addr":"경기도 용인시 기흥구 마북동 475-3번지 상록마북프라자 1층","category":"건축자재 - 조명기구"},{"name":"남부효요양원(화평)","tel":"031-284-9491","addr":"경기도 용인시 기흥구 마북동 475-3번지","category":"기타의료기관 - 기타의료기관 및 기타"},{"name":"남부효요양원(희락)","tel":"031-284-9491","addr":"경기도 용인시 기흥구 마북동 475-3번지 마북프라자 3층","category":"기타의료기관 - 기타의료기관 및 기타"},{"name":"리프래쉬","tel":"031-283-2311","addr":"경기도 용인시 기흥구 마북동 475-3번지 상록마북프라자 3층 301호","category":"보건위생 - 화장품"},{"name":"반석서점","tel":"031-284-4700","addr":"경기도 용인시 기흥구 마북동 475-3번지 마북프라자 지하1층","category":"서적문구 - 일반서적"},{"name":"베르디","tel":"070-7799-2327","addr":"경기도 용인시 기흥구 마북동 475-3번지 상록마북프라자 109호","category":"의류 - 정장"},{"name":"스마트폰 아이(기흥점)","tel":"031-204-6680","addr":"경기도 용인시 기흥구 마북동 475-3번지 상록마북프라자 111호","category":"수리서비스 - 사무·통신기기수리"},{"name":"용두동나정순할매쭈꾸미","tel":"070-8945-4959","addr":"경기도 용인시 기흥구 마북동 475-3번지 마북프라자 105호","category":"일반휴게음식 - 일반한식"},{"name":"정식당","tel":"031-282-0093","addr":"경기도 용인시 기흥구 마북동 475-3번지 상록마북프라자 106호","category":"일반휴게음식 - 일반한식"},{"name":"태양조명프라자","tel":"031-285-5722","addr":"경기도 용인시 기흥구 마북동 475-3번지 상록마북프라자 201호","category":"건축자재 - 조명기구"},{"name":"태양조명프라자","tel":"031-285-5722","addr":"경기도 용인시 기흥구 마북동 475-3번지 상록마북프라자 201호","category":"건축자재 - 조명기구"},{"name":"플로라엠","tel":"031-281-2002","addr":"경기도 용인시 기흥구 마북동 475-3번지 마북프라자 203호","category":"일반휴게음식 - 서양음식"},{"name":"해와달 그리고 사람들","tel":"031-286-0930","addr":"경기도 용인시 기흥구 마북동 475-3번지 상록마북프라자 204호","category":"레저업소 - 헬스클럽"}]},{"lat":"37.295237796","long":"127.1165537","items":[{"name":"경기구성우체국","tel":"031-283-2105","addr":"경기도 용인시 기흥구 마북동 317-4번지","category":"용역 서비스 - 공공요금대행서비스/소"}]},{"lat":"37.300238091","long":"127.10718852","items":[{"name":"경동책문구","tel":"031-287-7713","addr":"경기도 용인시 기흥구 마북동 524-13번지 벽산 분산상가 202동 105호","category":"서적문구 - 문구용품"},{"name":"국수나무(마북점)","tel":"031-285-7496","addr":"경기도 용인시 기흥구 마북동 524-13번지 연원마을벽산 주상가 207호","category":"일반휴게음식 - 일반한식"},{"name":"굿모닝약국","tel":"031-286-6756","addr":"경기도 용인시 기흥구 마북동 524-13번지 연원마을벽산 주상가 201동 209호","category":"약국 - 약국"},{"name":"김학선내과의원","tel":"031-287-7511","addr":"경기도 용인시 기흥구 마북동 524-13번지 연원마을벽산 상가 201동 302호","category":"의원 - 의원"},{"name":"밝은세상안경","tel":"031-302-1002","addr":"경기도 용인시 기흥구 마북동 524-13번지 벽산 주상가 211호","category":"보건위생 - 안경"},{"name":"본죽(연원마을점)","tel":"031-286-1111","addr":"경기도 용인시 기흥구 마북동 524-13번지 연원마을삼호벽산아주 상가동 105-2호","category":"일반휴게음식 - 일반한식"},{"name":"아산신경외과의원","tel":"031-274-3711","addr":"경기도 용인시 기흥구 마북동 524-13번지 벽산 주상가 401호","category":"의원 - 의원"},{"name":"온누리우리약국","tel":"031-286-1518","addr":"경기도 용인시 기흥구 마북동 524-13번지 연원마을벽산아파트 상가 403호","category":"약국 - 약국"},{"name":"윤헤어샵","tel":"031-285-9220","addr":"경기도 용인시 기흥구 마북동 524-13번지 연원마을벽산 주상가 205호","category":"보건위생 - 미용원"},{"name":"이우문구","tel":"031-287-6126","addr":"경기도 용인시 기흥구 마북동 524-13번지 벽산 주상가 107호","category":"서적문구 - 문구용품"},{"name":"주신환안과의원","tel":"031-285-0008","addr":"경기도 용인시 기흥구 마북동 524-13번지 연원마을벽산 주상가 404호","category":"의원 - 의원"},{"name":"참조은약국","tel":"031-282-7582","addr":"경기도 용인시 기흥구 마북동 524-13번지 연원마을벽산 주상가 406호","category":"약국 - 약국"},{"name":"크린토피아 용인연원마을점","tel":"031-275-7878","addr":"경기도 용인시 기흥구 마북동 524-13번지 벽산주상가 109-1, 109-2호","category":"수리서비스 - 세탁소"},{"name":"한국가족상담연구협회","tel":"031-284-3683","addr":"경기도 용인시 기흥구 마북동 524-13번지 벽산주상가 3층 301-2호","category":"학원 - 기타 교육기관"}]},{"lat":"37.29973313","long":"127.1076277","items":[{"name":"경희수한의원","tel":"031-274-3214","addr":"경기도 용인시 기흥구 마북동 524-1번지 팬아시아빌딩 303호","category":"의원 - 한의원"},{"name":"고봉민김밥","tel":"031-281-3677","addr":"경기도 용인시 기흥구 마북동 524-1번지 팬아시아빌딩","category":"일반휴게음식 - 일반한식"},{"name":"더고운피부관리","tel":"031-283-1259","addr":"경기도 용인시 기흥구 마북동 524-1번지 팬아시아빌딩 207호","category":"보건위생 - 피부미용실"},{"name":"더몽크실용음악학원","tel":"031-285-0809","addr":"경기도 용인시 기흥구 마북동 524-1번지 팬아시아빌딩 5층 502호","category":"회원제형태 - 학원"},{"name":"라온플러스독서실","tel":"031-285-7001","addr":"경기도 용인시 기흥구 마북동 524-1번지 팬아시아빌딩 301동 302호","category":"학원 - 독서실"},{"name":"미앤지의원","tel":"031-284-7734","addr":"경기도 용인시 기흥구 마북동 524-1번지 401호","category":"의원 - 의원"},{"name":"미앤지의원","tel":"031-284-7734","addr":"경기도 용인시 기흥구 마북동 524-1번지 401,402호","category":"의원 - 의원"},{"name":"박영신영어학원","tel":"031-282-3444","addr":"경기도 용인시 기흥구 마북동 524-1번지 팬아시아빌딩 304-1호","category":"회원제형태 - 학원"},{"name":"브레들리","tel":"031-286-2221","addr":"경기도 용인시 기흥구 마북동 524-1번지 팬아시아빌딩 1층 118호","category":"음료식품 - 제과점"},{"name":"서울새로운내과","tel":"031-275-2255","addr":"경기도 용인시 기흥구 마북동 524-1번지 팬사이아빌딩 3층 304호","category":"의원 - 의원"},{"name":"서울샤약국","tel":"031-283-2841","addr":"경기도 용인시 기흥구 마북동 524-1번지 팬아시아빌딩 105호","category":"약국 - 약국"},{"name":"스타키보청기용인난청센타","tel":"031-275-0099","addr":"경기도 용인시 기흥구 마북동 524-1번지 팬아시아빌딩 501호","category":"기타의료기관 - 기타의료기관 및 기타"},{"name":"연세허브치과의원","tel":"031-283-7522","addr":"경기도 용인시 기흥구 마북동 524-1번지 3층","category":"의원 - 치과의원"},{"name":"올리비아하슬러직영마북점","tel":"031-693-7783","addr":"경기도 용인시 기흥구 마북동 524-1번지 1층 101호,102호,103호","category":"레져용품 - 스포츠·레져용품"},{"name":"카리스수학교습소","tel":"031-287-1988","addr":"경기도 용인시 기흥구 마북동 524-1번지 3층","category":"회원제형태 - 학원"},{"name":"행복한경희한의원","tel":"031-000-0000","addr":"경기도 용인시 기흥구 마북동 524-1번지 팬아시아빌딩 3층 303호","category":"의원 - 한의원"}]},{"lat":"37.298678091","long":"127.10857364","items":[{"name":"고가","tel":"031-285-8587","addr":"경기도 용인시 기흥구 마북동 515-1번지 1층","category":"일반휴게음식 - 일반한식"}]},{"lat":"37.294653412","long":"127.11521074","items":[{"name":"고구마텔레콤","tel":"070-4202-0883","addr":"경기도 용인시 기흥구 마북동 324-1번지","category":"사무통신 - 통신기기"},{"name":"미라클","tel":"031-283-2835","addr":"경기도 용인시 기흥구 마북동 324-1번지 1층","category":"의류 - 정장"}]},{"lat":"37.300212802","long":"127.12426462","items":[{"name":"고려","tel":"031-796-2554","addr":"경기도 용인시 기흥구 마북동 630번지 교동마을현대홈타운 104동 1203호","category":"음료식품 - 기타음료식품"}]},{"lat":"37.304925433","long":"127.1239902","items":[{"name":"고모네칼국수","tel":"031-284-5788","addr":"경기도 용인시 기흥구 마북동 180-10번지","category":"일반휴게음식 - 일반한식"},{"name":"달콩카페","tel":"031-274-8204","addr":"경기도 용인시 기흥구 마북동 180-10번지","category":"일반휴게음식 - 서양음식"},{"name":"돼지불백","tel":"031-283-3385","addr":"경기도 용인시 기흥구 마북동 180-10번지 1층 4호","category":"일반휴게음식 - 일반한식"},{"name":"시골집","tel":"031-284-3331","addr":"경기도 용인시 기흥구 마북동 180-10번지 외2필지","category":"일반휴게음식 - 일반한식"},{"name":"의정부장박사부대찌게","tel":"031-286-7064","addr":"경기도 용인시 기흥구 마북동 180-10","category":"일반휴게음식 - 일반한식"}]},{"lat":"37.304205627","long":"127.12299646","items":[{"name":"골드오토자동차공업사","tel":"031-286-0881","addr":"경기도 용인시 기흥구 마북동 180-3번지","category":"자동차정비 유지 - 자동차정비"}]},{"lat":"37.307020348","long":"127.1282799","items":[{"name":"골프아카데미","tel":"02-2633-1872","addr":"경기도 용인시 기흥구 마북동 636번지 교동마을마북e편한세상","category":"레저업소 - 골프연습장"},{"name":"라플뢰르디유","tel":"02-0000-0000","addr":"경기도 용인시 기흥구 마북동 636번지 교동마을마북e편한세상","category":"문화.취미 - 화원"}]},{"lat":"37.301154749","long":"127.1194049","items":[{"name":"공예사랑방","tel":"070-7803-2509","addr":"경기도 용인시 기흥구 마북동 244-3번지","category":"직물 - 침구·수예점"}]},{"lat":"37.302152142","long":"127.12215854","items":[{"name":"교동 조명전기","tel":"031-284-5804","addr":"경기도 용인시 기흥구 마북동 170-2번지 중앙프라자 2층","category":"전기제품 - 기타전기제품"},{"name":"마북유노점프","tel":"031-281-1104","addr":"경기도 용인시 기흥구 마북동 170-2번지 중앙프라자 2층","category":"레저업소 - 헬스클럽"},{"name":"최상위학원","tel":"031-283-0018","addr":"경기도 용인시 기흥구 마북동 170-2번지","category":"학원 - 기타 교육기관"}]},{"lat":"37.303095932","long":"127.1244046","items":[{"name":"교동경희대석사태권도","tel":"031-284-3936","addr":"경기도 용인시 기흥구 마북동 194-1번지 마북프라자 4층 2호","category":"학원 - 예·체능계학원"},{"name":"교동해법영어학원","tel":"031-285-2221","addr":"경기도 용인시 기흥구 마북동 194-1번지 3층","category":"학원 - 보습학원"},{"name":"다이나믹어학원","tel":"031-693-7988","addr":"경기도 용인시 기흥구 마북동 194-1번지 마북프라자 4층 일부","category":"학원 - 외국어학원"},{"name":"비발디음악학원","tel":"031-283-3400","addr":"경기도 용인시 기흥구 마북동 194-1번지 마북프라자 2층","category":"학원 - 예·체능계학원"},{"name":"양가정의학과의원","tel":"031-287-8075","addr":"경기도 용인시 기흥구 마북동 194-1번지 마북프라자 2층","category":"의원 - 의원"},{"name":"오리진발레","tel":"031-8002-0044","addr":"경기도 용인시 기흥구 마북동 194-1번지 마북프라자 3층 303호","category":"학원 - 예·체능계학원"},{"name":"위드미용인마북점","tel":"02-6916-1500","addr":"경기도 용인시 기흥구 마북동 194-1번지 마북프라자 205호","category":"유통업 영리 - 편 의 점"},{"name":"크린토피아 용인마북점","tel":"031-283-5211","addr":"경기도 용인시 기흥구 마북동 194-1번지 마북프라자 2호","category":"수리서비스 - 세탁소"},{"name":"헤어스토리","tel":"070-8849-5959","addr":"경기도 용인시 기흥구 마북동 194-1번지 마북프라자 203호","category":"보건위생 - 미용원"},{"name":"헬퍼스수학전문학원","tel":"031-287-7378","addr":"경기도 용인시 기흥구 마북동 550-19 마북프라자 202","category":"학원 - 보습학원"}]},{"lat":"37.302404655","long":"127.12193336","items":[{"name":"교동면옥","tel":"","addr":"경기도 용인시 기흥구 마북동 171-2번지 가동 105호","category":"일반휴게음식 - 일반한식"},{"name":"교동손칼국수","tel":"031-283-8809","addr":"경기도 용인시 기흥구 마북동 171-2번지 나동 103호","category":"일반휴게음식 - 일반한식"},{"name":"대인설렁탕","tel":"031-282-6289","addr":"경기도 용인시 기흥구 마북동 171-2번지 나동 104호","category":"일반휴게음식 - 일반한식"},{"name":"민속떡방아간","tel":"031-274-8183","addr":"경기도 용인시 기흥구 마북동 171-2번지 가동 5호","category":"음료식품 - 제과점"},{"name":"연헤어","tel":"031-284-8688","addr":"경기도 용인시 기흥구 마북동 171-2번지 가동 104호","category":"보건위생 - 미용원"},{"name":"용인마북점 피자스쿨","tel":"031-282-7170","addr":"경기도 용인시 기흥구 마북동 171-2번지 가동 1층","category":"일반휴게음식 - 서양음식"},{"name":"전설의짬뽕","tel":"031-274-8249","addr":"경기도 용인시 기흥구 마북동 171-2번지 나동1,2호","category":"일반휴게음식 - 중국식"},{"name":"지지미","tel":"031-284-8830","addr":"경기도 용인시 기흥구 마북동 171-2번지 가동 101호","category":"일반휴게음식 - 일반한식"},{"name":"한겨레 특공무술 체육관","tel":"031-284-2189","addr":"경기도 용인시 기흥구 마북동 171-2번지 가동 3층","category":"회원제형태 - 레져업소"}]},{"lat":"37.301152756","long":"127.12141255","items":[{"name":"교동할인마트","tel":"031-275-5400","addr":"경기도 용인시 기흥구 마북동 236-3번지","category":"유통업 영리 - 슈퍼마켓"}]},{"lat":"37.301850025","long":"127.1178833","items":[{"name":"구구오","tel":"031-287-9222","addr":"경기도 용인시 기흥구 마북동 162-47번지","category":"일반휴게음식 - 일반한식"},{"name":"도경","tel":"031-285-3552","addr":"경기도 용인시 기흥구 마북동 162-47번지","category":"용역 서비스 - 부동산 중개·임대"}]},{"lat":"37.298878683","long":"127.11576967","items":[{"name":"구성고등학교매점","tel":"031-284-1380","addr":"경기도 용인시 기흥구 마북동 545-8번지 구성고등학교","category":"음료식품 - 기타음료식품"}]},{"lat":"37.296516127","long":"127.11771728","items":[{"name":"구성기업","tel":"031-283-5061","addr":"경기도 용인시 기흥구 마북동 298-1번지","category":"건축자재 - 기타건축자재"}]},{"lat":"37.294653776","long":"127.11482729","items":[{"name":"구성만물상","tel":"031-282-2253","addr":"경기도 용인시 기흥구 마북동 324-6번지","category":"전기제품 - 기타전기제품"}]},{"lat":"37.295066764","long":"127.11638427","items":[{"name":"구성법무사사무소","tel":"031-284-1990","addr":"경기도 용인시 기흥구 마북동 317-18번지 2층","category":"용역 서비스 - 법률회계서비스(개인)"},{"name":"구성잉크","tel":"031-283-3223","addr":"경기도 용인시 기흥구 마북동 317-18번지 1층","category":"사무통신 - 기타 사무용품"},{"name":"구성지물","tel":"031-283-5791","addr":"경기도 용인시 기흥구 마북동 317-18번지","category":"직물 - 카페트,커튼,천막,지물"}]},{"lat":"37.294572235","long":"127.11530084","items":[{"name":"구성보습학원","tel":"031-284-8777","addr":"경기도 용인시 기흥구 마북동 324-7번지 2층","category":"학원 - 보습학원"},{"name":"구성축산물센타","tel":"031-285-5666","addr":"경기도 용인시 기흥구 마북동 324-7번지 101호","category":"음료식품 - 정육점"},{"name":"서림한약국","tel":"031-902-1747","addr":"경기도 용인시 기흥구 마북동 324-7번지 1층","category":"약국 - 한약방"},{"name":"팔레트(Palette)","tel":"031-287-4771","addr":"경기도 용인시 기흥구 마북동 324-7번지 1층 103호","category":"일반휴게음식 - 서양음식"},{"name":"팔렛미술교습소","tel":"","addr":"경기도 용인시 기흥구 마북동 324-7번지 104호","category":"학원 - 예·체능계학원"},{"name":"홍익아틀리에 미술학원","tel":"070-8834-1211","addr":"경기도 용인시 기흥구 마북동 324-7번지 2층","category":"학원 - 예·체능계학원"}]},{"lat":"37.299156175","long":"127.10796526","items":[{"name":"구성역 공인중개사사무소","tel":"031-284-2770","addr":"경기도 용인시 기흥구 마북동 521번지","category":"용역 서비스 - 부동산 중개·임대"},{"name":"아카데미라운지용인구성독서실","tel":"031-305-0914","addr":"경기도 용인시 기흥구 마북동 521번지 외1필지 신한빌딩 3층 일부","category":"학원 - 독서실"},{"name":"애터미","tel":"070-4112-1154","addr":"경기도 용인시 기흥구 마북동 521번지 신한빌딩 1층","category":"의류 - 정장"},{"name":"용인구성모임센터","tel":"031-305-0914","addr":"경기도 용인시 기흥구 마북동 521번지 3층 일부","category":"용역 서비스 - 사무서비스"},{"name":"카페보나9(CAFEBONA9)","tel":"031-284-2770","addr":"경기도 용인시 기흥구 마북동 521번지 신한빌딩 1층 101호","category":"일반휴게음식 - 서양음식"},{"name":"황후에스테틱","tel":"031-286-3717","addr":"경기도 용인시 기흥구 마북동 521번지 4층 일부","category":"보건위생 - 피부미용실"}]},{"lat":"37.295759694","long":"127.11727629","items":[{"name":"구성제분소","tel":"031-283-1693","addr":"경기도 용인시 기흥구 마북동 301-5","category":"유통업 영리 - 기타유통업"},{"name":"아모르","tel":"070-8612-5206","addr":"경기도 용인시 기흥구 마북동 301-5번지","category":"의류 - 기타의류"}]},{"lat":"37.29459343","long":"127.1119062","items":[{"name":"구성활어회","tel":"","addr":"경기도 용인시 기흥구 마북동 374-9번지","category":"음료식품 - 농·축·수산품"}]},{"lat":"37.295760129","long":"127.11682516","items":[{"name":"국제로타리3600지구구성로타리클럽","tel":"031-284-4553","addr":"경기도 용인시 기흥구 마북동 317-1번지","category":"기타 - 비영리/대상"}]},{"lat":"37.297822662","long":"127.1079634","items":[{"name":"군산집","tel":"031-283-0036","addr":"경기도 용인시 기흥구 마북동 510-3번지 101호 102호","category":"일반휴게음식 - 일반한식"}]},{"lat":"37.299595893","long":"127.11949272","items":[{"name":"굽네치킨","tel":"031-275-9299","addr":"경기도 용인시 기흥구 마북동 254-2번지","category":"일반휴게음식 - 스넥"},{"name":"네네치킨구성점","tel":"031-283-8114","addr":"경기도 용인시 기흥구 마북동 254-2번지 1층","category":"일반휴게음식 - 스넥"},{"name":"어울림인테리어","tel":"031-274-3232","addr":"경기도 용인시 기흥구 마북동 254-2번지 대왕빌딩 108호","category":"건축자재 - 인테리어전문"},{"name":"좋아자동차","tel":"031-285-5541","addr":"경기도 용인시 기흥구 마북동 254-2번지 대왕빌딩 109호","category":"자동차정비 유지 - 자동차정비"},{"name":"직거래수산","tel":"031-284-9901","addr":"경기도 용인시 기흥구 마북동 254-2번지 대왕빌딩 1층","category":"일반휴게음식 - 일반한식"}]},{"lat":"37.303630351","long":"127.12163075","items":[{"name":"그라피즘(GRAPHISM)","tel":"031-275-6780","addr":"경기도 용인시 기흥구 마북동 625번지 교동마을현대필그린아파트","category":"의류 - 정장"}]},{"lat":"37.300896112","long":"127.12568686","items":[{"name":"그래핀 힐링","tel":"","addr":"경기도 용인시 기흥구 마북동 630번지 교동마을현대홈타운 114동 602호","category":"신변잡화 - 기타잡화"},{"name":"엠지케이(M.G.K)","tel":"070-4122-9148","addr":"경기도 용인시 기흥구 마북동 630번지 교동마을현대홈타운 114동 1702호","category":"회원제형태 - 기타4"}]},{"lat":"37.301762111","long":"127.10571307","items":[{"name":"그린카서비스","tel":"031-285-8999","addr":"경기도 용인시 기흥구 마북동 502-140번지","category":"자동차정비 유지 - 자동차정비"}]},{"lat":"37.299822339","long":"127.10863163","items":[{"name":"그린텔레콤","tel":"031-286-0203","addr":"경기도 용인시 기흥구 마북동 519-19번지 즐거운교회 104호","category":"사무통신 - 통신기기"},{"name":"꼬맹이의하루","tel":"031-284-1108","addr":"경기도 용인시 기흥구 마북동 519-19번지 즐거운교회 101호","category":"의류 - 정장"},{"name":"엠베스트SE 연원점 학원","tel":"031-282-8424","addr":"경기도 용인시 기흥구 마북동 519-19번지 즐거운교회 302호","category":"학원 - 보습학원"},{"name":"연원보수&인테리어","tel":"031-693-7077","addr":"경기도 용인시 기흥구 마북동 519-19번지 즐거운교회 203호","category":"용역 서비스 - 기타용역서비스"},{"name":"카이스트영어학원","tel":"031-693-5132","addr":"경기도 용인시 기흥구 마북동 519-19번지 일부 3층","category":"학원 - 보습학원"},{"name":"킹스힐영어학원","tel":"031-546-8709","addr":"경기도 용인시 기흥구 마북동 519-19번지 즐거운교회 2층 205호","category":"학원 - 외국어학원"},{"name":"킹스힐영어학원","tel":"031-546-8709","addr":"경기도 용인시 기흥구 마북동 519-19번지 즐거운교회 2층 205호","category":"학원 - 외국어학원"},{"name":"한올","tel":"031-274-4050","addr":"경기도 용인시 기흥구 마북동 519-19번지 201,202호","category":"보건위생 - 미용원"},{"name":"헤어홀릭","tel":"031-282-2757","addr":"경기도 용인시 기흥구 마북동 519-19번지 즐거운교회 상가동 102호","category":"보건위생 - 미용원"}]},{"lat":"37.295012811","long":"127.11627141","items":[{"name":"김밥명가","tel":"031-285-7767","addr":"경기도 용인시 기흥구 마북동 317-5번지 1층 일부호 길상빌딩","category":"일반휴게음식 - 일반한식"},{"name":"리안헤어 (구성점)","tel":"031-274-2007","addr":"경기도 용인시 기흥구 마북동 317-5번지 길상빌딩 2층","category":"보건위생 - 미용원"},{"name":"주식회사글컴정보통신","tel":"031-285-2016","addr":"경기도 용인시 기흥구 마북동 317-5번지 1층","category":"사무통신 - 통신기기"}]},{"lat":"37.30087416","long":"127.12069026","items":[{"name":"김성미뷰티살롱","tel":"031-274-2719","addr":"경기도 용인시 기흥구 마북동 239-6번지 나동 1층 102호","category":"보건위생 - 미용원"},{"name":"치킨플러스 (마북점)","tel":"031-283-9282","addr":"경기도 용인시 기흥구 마북동 239-6번지","category":"일반휴게음식 - 일반한식"}]},{"lat":"37.303404027","long":"127.12269064","items":[{"name":"까로치아 마북점","tel":"031-282-5897","addr":"경기도 용인시 기흥구 마북동 175-22번지 1층","category":"일반휴게음식 - 서양음식"},{"name":"스타덤PC 용인마북점","tel":"070-4933-8960","addr":"경기도 용인시 기흥구 마북동 175-22번지 2층","category":"레저업소 - 기타레져업소"},{"name":"태인모터스","tel":"031-285-0951","addr":"경기도 용인시 기흥구 마북동 175-22번지 1층 1호","category":"자동차정비 유지 - 자동차정비"}]},{"lat":"37.299732529","long":"127.10830442","items":[{"name":"깐부치킨(구성점)","tel":"031-284-8535","addr":"경기도 용인시 기흥구 마북동 520-9번지 구성농협 101호","category":"일반휴게음식 - 스넥"},{"name":"꾀꼬리 노래연습장","tel":"031-283-0332","addr":"경기도 용인시 기흥구 마북동 520-9번지 구성농협 G동 1층","category":"레저업소 - 노 래 방"},{"name":"수숯불직화꼬치구이","tel":"031-283-1123","addr":"경기도 용인시 기흥구 마북동 520-9번지 구성농협 102호","category":"일반휴게음식 - 일반한식"},{"name":"챌린저PC방","tel":"","addr":"경기도 용인시 기흥구 마북동 520-9번지 3층","category":"레저업소 - 기타레져업소"},{"name":"필라테스피플","tel":"031-281-8296","addr":"경기도 용인시 기흥구 마북동 520-9번지 2층","category":"레저업소 - 헬스클럽"}]},{"lat":"37.303870949","long":"127.12427049","items":[{"name":"깐부치킨(마북점)","tel":"031-285-9282","addr":"경기도 용인시 기흥구 마북동 182번지 A동108,109호","category":"일반휴게음식 - 스넥"},{"name":"달콤과일&상싱야채","tel":"031-285-0100","addr":"경기도 용인시 기흥구 마북동 182번지 테라스가든A빌딩 103호","category":"음료식품 - 농·축·수산품"},{"name":"랭커PC방 마북점","tel":"","addr":"경기도 용인시 기흥구 마북동 182번지 테라스가든A빌딩 201,202호","category":"레저업소 - 기타레져업소"},{"name":"신천할매떡볶이","tel":"031-284-8844","addr":"경기도 용인시 기흥구 마북동 182번지 테라스가든A빌딩 106호","category":"일반휴게음식 - 일반한식"},{"name":"우리엄마수제과자","tel":"","addr":"경기도 용인시 기흥구 마북동 182번지 테라스가든A빌딩 1층 107호","category":"음료식품 - 제과점"},{"name":"펀비어킹","tel":"031-283-2933","addr":"경기도 용인시 기흥구 마북동 182번지 테라스가든A빌딩 112동 114호","category":"일반휴게음식 - 일반한식"},{"name":"한성양꼬치","tel":"031-693-5286","addr":"경기도 용인시 기흥구 마북동 182번지 테라스가든A빌딩 111호","category":"일반휴게음식 - 일반한식"},{"name":"함깨하는 동물병원","tel":"031-275-6549","addr":"경기도 용인시 기흥구 마북동 182번지 테라스가든 A빌딩 1층 101,102호","category":"기타의료기관 - 동물병원"}]},{"lat":"37.307316267","long":"127.12961141","items":[{"name":"나나꾸에","tel":"","addr":"경기도 용인시 기흥구 마북동 649번지 마북2차e편한세상 203동 302호","category":"직물 - 침구·수예점"}]},{"lat":"37.297455143","long":"127.1156886","items":[{"name":"나미스타일&카페","tel":"031-111-1111","addr":"경기도 용인시 기흥구 마북동 345-4번지","category":"의류 - 정장"},{"name":"다육플라워","tel":"070-7864-6628","addr":"경기도 용인시 기흥구 마북동 345-4번지","category":"문화.취미 - 화원"},{"name":"리조이스커피","tel":"","addr":"경기도 용인시 기흥구 마북동 345-4번지 지하1층","category":"일반휴게음식 - 서양음식"}]},{"lat":"37.298010536","long":"127.1094637","items":[{"name":"난이다육","tel":"031-211-0847","addr":"경기도 용인시 기흥구 마북동 517-9","category":"문화.취미 - 화원"}]},{"lat":"37.297156564","long":"127.1072181","items":[{"name":"남가네설악추어탕","tel":"031-284-7586","addr":"경기도 용인시 기흥구 마북동 502-7번지 1층","category":"일반휴게음식 - 일반한식"}]},{"lat":"37.301874972","long":"127.11051811","items":[{"name":"남자의부엌","tel":"031-274-4845","addr":"경기도 용인시 기흥구 마북동 548-4번지 대현빌딩 1층 102호","category":"음료식품 - 기타음료식품"},{"name":"미니마리 꼬마깁밥","tel":"","addr":"경기도 용인시 기흥구 마북동 548-4번지 대현빌딩 1층 103호","category":"일반휴게음식 - 스넥"},{"name":"미용실","tel":"031-283-1238","addr":"경기도 용인시 기흥구 마북동 548-4번지","category":"보건위생 - 미용원"},{"name":"연원푸른의원","tel":"031-284-3456","addr":"경기도 용인시 기흥구 마북동 548-4번지 대현 상가 2층","category":"의원 - 의원"},{"name":"온누리파랑새약국","tel":"031-284-3827","addr":"경기도 용인시 기흥구 마북동 548-4번지 대현 상가 101호","category":"약국 - 약국"},{"name":"용인대석사태권도","tel":"031-287-1101","addr":"경기도 용인시 기흥구 마북동 548-4번지 대현 상가 3층","category":"학원 - 예·체능계학원"},{"name":"용인마북리드인독서논술교습소","tel":"031-283-2859","addr":"경기도 용인시 기흥구 마북동 548-4번지 대현빌딩 2층 202호","category":"학원 - 보습학원"},{"name":"윤선생우리집앞영어교습소","tel":"031-287-7070","addr":"경기도 용인시 기흥구 마북동 548-4번지 대현빌딩 201호","category":"학원 - 보습학원"},{"name":"중앙바둑","tel":"031-286-7222","addr":"경기도 용인시 기흥구 마북동 548-4번지 대현빌딩 401호","category":"학원 - 기타 교육기관"},{"name":"해피브레드","tel":"031-285-7075","addr":"경기도 용인시 기흥구 마북동 548-4번지 대현빌딩 1층 104호","category":"음료식품 - 제과점"}]},{"lat":"37.304960953","long":"127.12449784","items":[{"name":"너랑나랑","tel":"031-287-9393","addr":"경기도 용인시 기흥구 마북동 184-4번지 1층","category":"일반휴게음식 - 일반한식"},{"name":"용인곰탕.갈비탕","tel":"","addr":"경기도 용인시 기흥구 마북동 184-4번지 1층","category":"일반휴게음식 - 일반한식"},{"name":"종로빈대떡","tel":"031-274-9910","addr":"경기도 용인시 기흥구 마북동 184-4번지","category":"일반휴게음식 - 일반한식"}]},{"lat":"37.291901569","long":"127.10948892","items":[{"name":"넥센타이어 (주)타이어테크 마북점","tel":"031-281-5989","addr":"경기도 용인시 기흥구 마북동 426-8번지 1층","category":"자동차정비 유지 - 자동차시트·타이어"}]},{"lat":"37.303376206","long":"127.12346887","items":[{"name":"누리한의원","tel":"031-274-7579","addr":"경기도 용인시 기흥구 마북동 174-3번지 가동","category":"의원 - 한의원"},{"name":"던킨도너츠마북점","tel":"031-281-2220","addr":"경기도 용인시 기흥구 마북동 174-3번지 포대빌딩 101호","category":"음료식품 - 제과점"},{"name":"디자인유시치과","tel":"031-275-2872","addr":"경기도 용인시 기흥구 마북동 174-3번지","category":"의원 - 치과의원"},{"name":"디자인유시치과의원","tel":"031-275-2872","addr":"경기도 용인시 기흥구 마북동 174-3번지 4층","category":"병원 - 치과병원"},{"name":"라헬헤어","tel":"031-284-3770","addr":"경기도 용인시 기흥구 마북동 174-3번지 1층","category":"보건위생 - 미용원"},{"name":"수 샵(   Shop)","tel":"031-281-0888","addr":"경기도 용인시 기흥구 마북동 174-3번지 포대빌딩","category":"보건위생 - 화장품"},{"name":"엔씨통신 마북점","tel":"070-4202-4001","addr":"경기도 용인시 기흥구 마북동 174-3번지 가동 103호","category":"사무통신 - 통신기기"},{"name":"훼미리약국","tel":"031-286-2824","addr":"경기도 용인시 기흥구 마북동 174-3번지 1층 102호","category":"약국 - 약국"}]},{"lat":"37.295097022","long":"127.11296707","items":[{"name":"느티나무정원","tel":"070-4102-8218","addr":"경기도 용인시 기흥구 마북동 330-5번지 1층","category":"일반휴게음식 - 일반한식"}]},{"lat":"37.301153454","long":"127.12071326","items":[{"name":"다원","tel":"031-284-2276","addr":"경기도 용인시 기흥구 마북동 237-2번지","category":"일반휴게음식 - 일반한식"}]},{"lat":"37.296013237","long":"127.1159684","items":[{"name":"다원인지건강협회","tel":"","addr":"경기도 용인시 기흥구 마북동 309-3번지 2층","category":"학원 - 기타 교육기관"}]},{"lat":"37.29465293","long":"127.11571825","items":[{"name":"대성기획","tel":"031-283-1304","addr":"경기도 용인시 기흥구 마북동 321번지","category":"기타 - 기계공구"},{"name":"용인레이번스축구단","tel":"031-284-2890","addr":"경기도 용인시 기흥구 마북동 321번지 2층","category":"레저업소 - 기타레져업소"},{"name":"지영스튜디오","tel":"031-283-1049","addr":"경기도 용인시 기흥구 마북동 321번지","category":"광학제품 - 사진관"},{"name":"함께하는학원","tel":"031-287-3112","addr":"경기도 용인시 기흥구 마북동 321번지 상가 A동 2층","category":"학원 - 보습학원"}]},{"lat":"37.297624287","long":"127.1081323","items":[{"name":"대영모터스","tel":"031-284-1924","addr":"경기도 용인시 기흥구 마북동 477-2번지 대영모터스","category":"자동차정비 유지 - 자동차정비"}]},{"lat":"37.299241474","long":"127.11324379","items":[{"name":"대용","tel":"02-2202-3114","addr":"경기도 용인시 기흥구 마북동 629번지 삼성래미안1차아파트","category":"자동차정비 유지 - 주차장"}]},{"lat":"37.298487773","long":"127.10980273","items":[{"name":"더콥(The kop)","tel":"070-4793-7460","addr":"경기도 용인시 기흥구 마북동 518-1번지 1층","category":"보건위생 - 미용원"}]},{"lat":"37.295372602","long":"127.1169148","items":[{"name":"동그라미","tel":"031-285-1747","addr":"경기도 용인시 기흥구 마북동 317-15번지","category":"일반휴게음식 - 일반한식"},{"name":"중앙정육점","tel":"031-283-8568","addr":"경기도 용인시 기흥구 마북동 317-15번지","category":"음료식품 - 정육점"}]},{"lat":"37.294317922","long":"127.10768786","items":[{"name":"동탄곤드레(용인점)","tel":"031-285-3563","addr":"경기도 용인시 기흥구 마북동 502-115번지 올리브스퀘어 E동 1층","category":"일반휴게음식 - 일반한식"},{"name":"한성에프앤시주식회사","tel":"031-286-3670","addr":"경기도 용인시 기흥구 마북동 502-115번지","category":"의류 - 정장"},{"name":"한성에프앤시주식회사","tel":"031-238-5652","addr":"경기도 용인시 기흥구 마북동 502-115번지","category":"유통업 영리 - 편 의 점"},{"name":"한성에프앤시주식회사","tel":"031-283-3652","addr":"경기도 용인시 기흥구 마북동 502-115번지","category":"의류 - 스포츠의류"}]},{"lat":"37.29879475","long":"127.10910389","items":[{"name":"드림 노래연습장","tel":"070-2442-8873","addr":"경기도 용인시 기흥구 마북동 516-32번지 진영빌딩 지하1층","category":"레저업소 - 노 래 방"},{"name":"바른골프클럽","tel":"031-284-7677","addr":"경기도 용인시 기흥구 마북동 516-32번지 3층","category":"회원제형태 - 레져업소"},{"name":"세븐일레븐용인마북래미안점","tel":"","addr":"경기도 용인시 기흥구 마북동 516-32번지 진영빌딩 104호","category":"유통업 영리 - 편 의 점"},{"name":"씨드커피/예드림마을공동체협동조합","tel":"031-306-7833","addr":"경기도 용인시 기흥구 마북동 516-32번지 진영빌딩 105호","category":"일반휴게음식 - 서양음식"},{"name":"아틀란타헤어","tel":"031-285-6722","addr":"경기도 용인시 기흥구 마북동 516-32번지 진영빌딩 103호","category":"보건위생 - 미용원"},{"name":"우리동네평생교육학교","tel":"031-283-8383","addr":"경기도 용인시 기흥구 마북동 516-32번지 진영빌딩 101,102,107호","category":"학원 - 기타 교육기관"},{"name":"잉크클럽","tel":"031-283-4343","addr":"경기도 용인시 기흥구 마북동 516-32번지 외1필지 진영빌딩 1층 105호","category":"사무통신 - 기타 사무용품"},{"name":"제이&컴퍼니로보틱스인베트먼트","tel":"070-8876-3549","addr":"경기도 용인시 기흥구 마북동 516-32번지 진영비링201호","category":"서적문구 - 과학기자재"},{"name":"카페모아","tel":"031-287-7835","addr":"경기도 용인시 기흥구 마북동 516-32번지 진영빌딩 1층","category":"일반휴게음식 - 서양음식"}]},{"lat":"37.304628579","long":"127.12351599","items":[{"name":"드림닭발집","tel":"031-8006-8688","addr":"경기도 용인시 기흥구 마북동 180-6번지","category":"일반휴게음식 - 일반한식"}]},{"lat":"37.295210374","long":"127.10719286","items":[{"name":"드림텍","tel":"031-283-4626","addr":"경기도 용인시 기흥구 마북동 502-32번지","category":"자동차정비 유지 - 자동차부품"}]},{"lat":"37.298602063","long":"127.1129045","items":[{"name":"디룸","tel":"","addr":"경기도 용인시 기흥구 마북동 629번지 삼성래미안1차아파트","category":"신변잡화 - 신발"},{"name":"젬아띠","tel":"070-8773-5972","addr":"경기도 용인시 기흥구 마북동 629번지 삼성래미안1차아파트","category":"신변잡화 - 액세서리"}]},{"lat":"37.297902606","long":"127.10924926","items":[{"name":"디스워시","tel":"031-284-6950","addr":"경기도 용인시 기흥구 마북동 517번지","category":"자동차정비 유지 - 카인테리어"}]},{"lat":"37.296597511","long":"127.10769102","items":[{"name":"뜰안채채식뷔페","tel":"031-281-5879","addr":"경기도 용인시 기흥구 마북동 502-13번지","category":"일반휴게음식 - 일반한식"}]},{"lat":"37.299748437","long":"127.11065042","items":[{"name":"라 오브 스튜디오","tel":"031-000-0000","addr":"경기도 용인시 기흥구 마북동 629번지 삼성래미안1차아파트","category":"신변잡화 - 액세서리"}]},{"lat":"37.299597355","long":"127.10832679","items":[{"name":"라라식당","tel":"031-282-1008","addr":"경기도 용인시 기흥구 마북동 520-8번지 B02호","category":"일반휴게음식 - 일반한식"},{"name":"숯불집","tel":"031-287-1454","addr":"경기도 용인시 기흥구 마북동 520-8번지 연원프라자 B01호","category":"일반휴게음식 - 일반한식"},{"name":"연원보습학원","tel":"031-287-4180","addr":"경기도 용인시 기흥구 마북동 520-8번지 402호","category":"학원 - 보습학원"}]},{"lat":"37.300709105","long":"127.11435127","items":[{"name":"라온플러스연원독서실","tel":"031-285-0071","addr":"경기도 용인시 기흥구 마북동 624-1번지 연원마을삼성쉐르빌아파트 상가동2층 201호,202호","category":"학원 - 독서실"},{"name":"리프러츠(lifepilots)","tel":"","addr":"경기도 용인시 기흥구 마북동 624-1번지 연원마을삼성쉐르빌아파트","category":"용역 서비스 - 사무서비스"},{"name":"블루진 사이언스","tel":"031-307-5205","addr":"경기도 용인시 기흥구 마북동 624-1번지 연원마을삼성쉐르빌아파트","category":"서적문구 - 과학기자재"},{"name":"엔젤","tel":"031-282-7155","addr":"경기도 용인시 기흥구 마북동 624-1번지 연원마을삼성쉐르빌아파트","category":"용역 서비스 - 소프트웨어"},{"name":"클릭윙","tel":"031-287-2968","addr":"경기도 용인시 기흥구 마북동 624-1번지 연원마을삼성쉐르빌아파트","category":"회원제형태 - 기타4"}]},{"lat":"37.300749073","long":"127.11009919","items":[{"name":"라하잉글리시마북초점","tel":"","addr":"경기도 용인시 기흥구 마북동 524-8번지 연원마을삼호.벽산아파트","category":"학원 - 기타 교육기관"},{"name":"엠코퍼레이션","tel":"02-557-3930","addr":"경기도 용인시 기흥구 마북동 524-8번지 연원마을삼호.벽산아파트","category":"회원제형태 - 기타4"}]},{"lat":"37.293984514","long":"127.10772123","items":[{"name":"락앤웍올리브점","tel":"031-283-0082","addr":"경기도 용인시 기흥구 마북동 425-29번지","category":"일반휴게음식 - 중국식"},{"name":"바다에 왕코다리","tel":"031-275-7007","addr":"경기도 용인시 기흥구 마북동 425-29번지 1층 101호","category":"일반휴게음식 - 일반한식"}]},{"lat":"37.3026668","long":"127.12108783","items":[{"name":"러닝팩토리","tel":"031-287-9674","addr":"경기도 용인시 기흥구 마북동 625번지 교동마을현대필그린아파트","category":"용역 서비스 - 사무서비스"}]},{"lat":"37.298101521","long":"127.118137","items":[{"name":"레이지카","tel":"031-283-2645","addr":"경기도 용인시 기흥구 마북동 264-5,264-9","category":"일반휴게음식 - 서양음식"}]},{"lat":"37.294157732","long":"127.11533406","items":[{"name":"로뎀","tel":"031-8003-5065","addr":"경기도 용인시 기흥구 마북동 620번지 용화마을태영데시앙아파트","category":"음료식품 - 기타음료식품"},{"name":"해가떴다","tel":"031-274-3857","addr":"경기도 용인시 기흥구 마북동 620번지 용화마을태영데시앙아파트","category":"서적문구 - 출판 및 인쇄물"}]},{"lat":"37.295570697","long":"127.11705044","items":[{"name":"로뎀트리 국수카페","tel":"031-221-5378","addr":"경기도 용인시 기흥구 마북동 317-21번지 1층","category":"일반휴게음식 - 일반한식"},{"name":"빈티지","tel":"031-4221-2889","addr":"경기도 용인시 기흥구 마북동 317-21번지 1층","category":"의류 - 정장"},{"name":"크린라이프","tel":"031-283-9935","addr":"경기도 용인시 기흥구 마북동 317-21번지","category":"수리서비스 - 세탁소"}]},{"lat":"37.295098252","long":"127.11163626","items":[{"name":"로제타안경","tel":"031-284-2840","addr":"경기도 용인시 기흥구 마북동 370-8번지 본토빌딩 1층","category":"보건위생 - 안경"}]},{"lat":"37.29801688","long":"127.11238484","items":[{"name":"롤코","tel":"031-259-2131","addr":"경기도 용인시 기흥구 마북동 629번지 삼성래미안1차아파트","category":"의류 - 정장"}]},{"lat":"37.294652693","long":"127.11596636","items":[{"name":"롯데리아구성점","tel":"031-283-9223","addr":"경기도 용인시 기흥구 마북동 320-2번지","category":"일반휴게음식 - 서양음식"},{"name":"안경박사","tel":"031-284-3333","addr":"경기도 용인시 기흥구 마북동 320-2번지","category":"보건위생 - 안경"},{"name":"에스매쓰학원","tel":"031-282-2817","addr":"경기도 용인시 기흥구 마북동 320-2번지 3층","category":"학원 - 보습학원"}]},{"lat":"37.300309173","long":"127.10831651","items":[{"name":"루즈홍","tel":"","addr":"경기도 용인시 기흥구 마북동 524-8번지 연원마을삼호.벽산아파트","category":"신변잡화 - 액세서리"},{"name":"훈민정음","tel":"","addr":"경기도 용인시 기흥구 마북동 524-8번지 연원마을삼호.벽산아파트","category":"문화.취미 - 문화취미기타"}]},{"lat":"37.3010663","long":"127.11771292","items":[{"name":"루프포레스트","tel":"","addr":"경기도 용인시 기흥구 마북동 246-3번지 1층","category":"일반휴게음식 - 서양음식"}]},{"lat":"37.298903468","long":"127.10843861","items":[{"name":"리강","tel":"031-283-8857","addr":"경기도 용인시 기흥구 마북동 520-5번지 1층","category":"일반휴게음식 - 중국식"}]},{"lat":"37.300981709","long":"127.12126566","items":[{"name":"리알씨","tel":"031-890-4961","addr":"경기도 용인시 기흥구 마북동 236번지 한성그린빌라 상가동 108호","category":"사무통신 - 컴퓨터"},{"name":"현대참기름집","tel":"031-284-9970","addr":"경기도 용인시 기흥구 마북동 236번지 한성그린빌라 103호","category":"음료식품 - 기타음료식품"}]},{"lat":"37.304149604","long":"127.12491387","items":[{"name":"리포머스튜디오","tel":"070-9444-7697","addr":"경기도 용인시 기흥구 마북동 187-6번지 2층","category":"레저업소 - 헬스클럽"},{"name":"카페테이너","tel":"031-284-7231","addr":"경기도 용인시 기흥구 마북동 187-6번지 카페테이너","category":"일반휴게음식 - 서양음식"}]},{"lat":"37.303044233","long":"127.12208099","items":[{"name":"마북 상상숲 미술학원","tel":"02-0000-0000","addr":"경기도 용인시 기흥구 마북동 173번지 2층 204호","category":"학원 - 예·체능계학원"},{"name":"블룸 (BLOOM)","tel":"","addr":"경기도 용인시 기흥구 마북동 173번지 103-1호","category":"의류 - 정장"},{"name":"오늘도예쁘게","tel":"","addr":"경기도 용인시 기흥구 마북동 173번지 1층 103호 일부","category":"보건위생 - 화장품"},{"name":"전라북도우수상품관 용인점","tel":"","addr":"경기도 용인시 기흥구 마북동 173번지 108호","category":"신변잡화 - 기념품점"}]},{"lat":"37.302567229","long":"127.11218841","items":[{"name":"마북해법영어교습소","tel":"031-287-2606","addr":"경기도 용인시 기흥구 마북동 550-4번지 연원마을현대아이파크","category":"학원 - 기타 교육기관"},{"name":"바디컨피던스","tel":"031-274-5565","addr":"경기도 용인시 기흥구 마북동 550-4번지","category":"회원제형태 - 레져업소"},{"name":"이삭인테리어","tel":"031-274-8225","addr":"경기도 용인시 기흥구 마북동 550-4연원마을현대상가305","category":"건축자재 - 인테리어전문"},{"name":"창성산업","tel":"031-716-5807","addr":"경기도 용인시 기흥구 마북동 550-4","category":"자동차정비 유지 - 자동차부품"},{"name":"해법수학","tel":"070-7798-1030","addr":"경기도 용인시 기흥구 마북동 550-4번지","category":"회원제형태 - 학원"}]},{"lat":"37.303484844","long":"127.12296147","items":[{"name":"마약생고기","tel":"031-285-9291","addr":"경기도 용인시 기흥구 마북동 175-3번지","category":"일반휴게음식 - 일반한식"}]},{"lat":"37.300712167","long":"127.12049827","items":[{"name":"마포왕초닭발앤족발","tel":"031-287-1357","addr":"경기도 용인시 기흥구 마북동 239-5번지 1층","category":"일반휴게음식 - 일반한식"},{"name":"유명의류할인매장","tel":"031-284-7870","addr":"경기도 용인시 기흥구 마북동 239-5번지","category":"의류 - 정장"}]},{"lat":"37.292179577","long":"127.11093285","items":[{"name":"매직핑거","tel":"031-282-5005","addr":"경기도 용인시 기흥구 마북동 415-8번지 모빌월드 세차동 네비게이션","category":"자동차정비 유지 - 자동차부품"},{"name":"명운레지던스(MW모빌월드)","tel":"070-8224-7111","addr":"경기도 용인시 기흥구 마북동 415-8번지","category":"유통업 영리 - 편 의 점"},{"name":"주식회사 모빌월드모터스","tel":"031-284-5300","addr":"경기도 용인시 기흥구 마북동 415-8번지","category":"자동차정비 유지 - 자동차정비"}]},{"lat":"37.316182797","long":"127.12916376","items":[{"name":"멀티(MT) 이벤트","tel":"031-284-3304","addr":"경기도 용인시 기흥구 마북동 21-36번지","category":"용역 서비스 - 종합용역"}]},{"lat":"37.300643287","long":"127.12620527","items":[{"name":"메이킹수아","tel":"","addr":"경기도 용인시 기흥구 마북동 630번지 교동마을현대홈타운 113동 1301호","category":"의류 - 내의판매"}]},{"lat":"37.296763294","long":"127.11363491","items":[{"name":"명성숫돌연마","tel":"031-283-7793","addr":"경기도 용인시 기흥구 마북동 352번지 우림필유아파트","category":"수리서비스 - 가정용품수리"}]},{"lat":"37.296623558","long":"127.10879633","items":[{"name":"명진자동차공업사","tel":"031-275-0700","addr":"경기도 용인시 기흥구 마북동 482-10번지 외2필지","category":"자동차정비 유지 - 자동차정비"},{"name":"아마떼","tel":"031-282-8067","addr":"경기도 용인시 기흥구 마북동 482-10번지 용인프라임병원 1층","category":"일반휴게음식 - 서양음식"}]},{"lat":"37.296322109","long":"127.11329592","items":[{"name":"모델헤어아트","tel":"031-283-6267","addr":"경기도 용인시 기흥구 마북동 352우림상가203","category":"보건위생 - 미용원"}]},{"lat":"37.3021478","long":"127.11743259","items":[{"name":"모빈 구성점","tel":"031-274-3566","addr":"경기도 용인시 기흥구 마북동 162-50번지 1층 101호","category":"일반휴게음식 - 일반한식"}]},{"lat":"37.3025645","long":"127.10516149","items":[{"name":"목조건축학교","tel":"031-284-5885","addr":"경기도 용인시 기흥구 마북동 502-144번지 일부","category":"용역 서비스 - 사무서비스"}]},{"lat":"37.305706591","long":"127.12663089","items":[{"name":"무궁화세탁","tel":"031-283-8937","addr":"경기도 용인시 기흥구 마북동 143번지 교동마을신창아파트","category":"수리서비스 - 세탁소"},{"name":"신창슈퍼","tel":"031-283-2444","addr":"경기도 용인시 기흥구 마북동 143번지 신창 상가 105호","category":"유통업 영리 - 슈퍼마켓"},{"name":"헤어스케치","tel":"031-284-9014","addr":"경기도 용인시 기흥구 마북동 143번지 신창무궁화 2층 201호","category":"보건위생 - 미용원"}]},{"lat":"37.298093119","long":"127.1077946","items":[{"name":"무한리필테능참숯화로구이구성본점","tel":"031-284-7377","addr":"경기도 용인시 기흥구 마북동 510-4번지 2층","category":"일반휴게음식 - 일반한식"},{"name":"피자헛용인구성2호점","tel":"031-283-0441","addr":"경기도 용인시 기흥구 마북동 510-4번지","category":"일반휴게음식 - 서양음식"},{"name":"하누상회","tel":"031-281-7949","addr":"경기도 용인시 기흥구 마북동 510-4번지","category":"음료식품 - 정육점"}]},{"lat":"37.295453849","long":"127.10696764","items":[{"name":"문화건설(주)","tel":"031-286-8484","addr":"경기도 용인시 기흥구 마북동 502-99","category":"용역 서비스 - 기타용역서비스"},{"name":"용인시앤에이","tel":"031-286-2230","addr":"경기도 용인시 기흥구 마북동 502-99","category":"건축자재 - 기타건축자재"}]},{"lat":"37.30037458","long":"127.12465963","items":[{"name":"뮤엠영어교동영어교습소","tel":"031-274-0579","addr":"경기도 용인시 기흥구 마북동 630번지 교동마을현대홈타운 상가동 106호","category":"학원 - 외국어학원"},{"name":"미래학원","tel":"031-274-7471","addr":"경기도 용인시 기흥구 마북동 630번지 교동마을현대홈타운","category":"학원 - 보습학원"},{"name":"빌리브피아노교습소","tel":"031-274-8768","addr":"경기도 용인시 기흥구 마북동 630번지 교동마을현대홈타운 상가동 104호","category":"학원 - 예·체능계학원"},{"name":"솔내문구","tel":"031-285-7585","addr":"경기도 용인시 기흥구 마북동 630번지 교동마을현대홈타운 상가 108호","category":"서적문구 - 문구용품"},{"name":"씨유기흥현대점","tel":"080-080-3663","addr":"경기도 용인시 기흥구 마북동 630번지 교동마을현대홈타운 상가동 103호","category":"유통업 영리 - 편 의 점"},{"name":"용인대 교동 태권도장","tel":"031-287-8279","addr":"경기도 용인시 기흥구 마북동 630번지 교동마을현대홈타운 201호,208호, 209호","category":"학원 - 예·체능계학원"},{"name":"현대명품세탁","tel":"031-275-0949","addr":"경기도 용인시 기흥구 마북동 630번지 현대홈타운 상가 109호","category":"수리서비스 - 세탁소"},{"name":"현대세탁소","tel":"031-585-5747","addr":"경기도 용인시 기흥구 마북동 630번지 현대홈타운 상가 204호","category":"수리서비스 - 세탁소"}]},{"lat":"37.29543019","long":"127.11319311","items":[{"name":"뮤엠영어구성우림영어교습소","tel":"031-284-3322","addr":"경기도 용인시 기흥구 마북동 352-6번지 1층 103호","category":"학원 - 외국어학원"},{"name":"뮤엠영어구성우림영어교습소","tel":"031-284-3322","addr":"경기도 용인시 기흥구 마북동 352-6번지 103호","category":"학원 - 외국어학원"},{"name":"주니어리더십센타예스아이엠","tel":"031-693-6911","addr":"경기도 용인시 기흥구 마북동 352-6번지 2층","category":"회원제형태 - 기타4"}]},{"lat":"37.305315011","long":"127.12188154","items":[{"name":"미리온교육","tel":"031-722-2222","addr":"경기도 용인시 기흥구 마북동 155-2 302호","category":"서적문구 - 일반서적"}]},{"lat":"37.299822862","long":"127.10804514","items":[{"name":"미소가있는치과의원","tel":"031-285-1242","addr":"경기도 용인시 기흥구 마북동 524-17번지 삼호 상가 3층","category":"의원 - 치과의원"},{"name":"샹떼PC방","tel":"031-265-4354","addr":"경기도 용인시 기흥구 마북동 524-17번지 삼호빌딩 402호","category":"레저업소 - 기타레져업소"},{"name":"수헤어샵","tel":"031-285-8577","addr":"경기도 용인시 기흥구 마북동 524-7 삼호빌딩1층 103호","category":"보건위생 - 미용원"},{"name":"씨유용인마북점","tel":"031-287-4111","addr":"경기도 용인시 기흥구 마북동 524-17번지 삼호빌딩 101호","category":"유통업 영리 - 편 의 점"},{"name":"용인대마북태권동","tel":"031-283-4774","addr":"경기도 용인시 기흥구 마북동 524-17번지 삼호빌딩 401호","category":"학원 - 예·체능계학원"},{"name":"임채헤어","tel":"070-7539-5844","addr":"경기도 용인시 기흥구 마북동 524-17번지 삼호빌딩 104호","category":"보건위생 - 미용원"},{"name":"포인트 인테리어","tel":"031-693-7772","addr":"경기도 용인시 기흥구 마북동 524-17번지 미소가있는치과 1층 102호","category":"건축자재 - 인테리어전문"}]},{"lat":"37.299516735","long":"127.10779658","items":[{"name":"바르고네일","tel":"","addr":"경기도 용인시 기흥구 마북동 520-11번지 1층","category":"보건위생 - 피부미용실"}]},{"lat":"37.299044763","long":"127.1116081","items":[{"name":"바른손","tel":"031-305-2087","addr":"경기도 용인시 기흥구 마북동 629번지 삼성래미안1차아파트 분산상가 1층 104호","category":"서적문구 - 문구용품"},{"name":"빅드림에듀","tel":"031-282-7611","addr":"경기도 용인시 기흥구 마북동 629번지 삼성래미안1차아파트","category":"학원 - 기타 교육기관"},{"name":"삼성래미안1차아파트입주자대표회의","tel":"031-286-8844","addr":"경기도 용인시 기흥구 마북동 629번지 삼성래미안1차아파트","category":"레저업소 - 헬스클럽"},{"name":"삼성레미안세탁","tel":"031-285-0818","addr":"경기도 용인시 기흥구 마북동 629번지 삼성레미안1차A주상가동109호 1층","category":"수리서비스 - 세탁소"},{"name":"열매학원","tel":"0131-309-6330","addr":"경기도 용인시 기흥구 마북동 629번지 삼성래미안1차 주상가 203호","category":"학원 - 기타 교육기관"},{"name":"커피자루","tel":"031-281-2540","addr":"경기도 용인시 기흥구 마북동 629번지 제분산상가101,102호","category":"일반휴게음식 - 서양음식"}]},{"lat":"37.296985683","long":"127.11665783","items":[{"name":"바이민 (By Min)","tel":"031-691-8223","addr":"경기도 용인시 기흥구 마북동 651번지 효성해링턴플레이스 103동 501호","category":"보건위생 - 화장품"},{"name":"주성어패럴","tel":"070-7420-0993","addr":"경기도 용인시 기흥구 마북동 651번지 효성해링턴플레이스 101동 10층 1001호","category":"의류 - 정장"}]},{"lat":"37.311179739","long":"127.13943189","items":[{"name":"바인밴딩","tel":"070-4412-1948","addr":"경기도 용인시 기흥구 마북동 80-11번지 현대인재개발원","category":"음료식품 - 기타음료식품"}]},{"lat":"37.305454152","long":"127.12677711","items":[{"name":"밸류다임","tel":"070-8972-1974","addr":"경기도 용인시 기흥구 마북동 143번지 교동마을신창아파트","category":"용역 서비스 - 사무서비스"},{"name":"샤인","tel":"","addr":"경기도 용인시 기흥구 마북동 143번지 교동마을신창아파트","category":"자동차정비 유지 - 세차장"},{"name":"프린터 컴 솔루션","tel":"031-274-2111","addr":"경기도 용인시 기흥구 마북동 143번지 교동마을신창아파트","category":"회원제형태 - 기타3"}]},{"lat":"37.30598065","long":"127.122988","items":[{"name":"보라꽃농원","tel":"031-263-9405","addr":"경기도 용인시 기흥구 마북동 153-1번지","category":"문화.취미 - 화원"},{"name":"제이와이푸드(JY FOOD)","tel":"031-285-6700","addr":"경기도 용인시 기흥구 마북동 153-1번지 한성컨트리클럽","category":"일반휴게음식 - 일반한식"}]},{"lat":"37.302224486","long":"127.11257141","items":[{"name":"보정카리스","tel":"031-275-5171","addr":"경기도 용인시 기흥구 마북동 550-4번지 연원마을현대아이파크","category":"회원제형태 - 기타1"}]},{"lat":"37.304211649","long":"127.12590656","items":[{"name":"봉봉","tel":"031-284-0053","addr":"경기도 용인시 기흥구 마북동 617번지 교동마을엘지자이 101호","category":"일반휴게음식 - 일반한식"},{"name":"육구육사 (6964)와인포차","tel":"031-283-5956","addr":"경기도 용인시 기흥구 마북동 617번지 교동마을엘지자이","category":"일반휴게음식 - 일반한식"},{"name":"포그네이불","tel":"031-275-2009","addr":"경기도 용인시 기흥구 마북동 617번지 교동마을엘지자이상가 1층 103호 상가","category":"직물 - 침구·수예점"}]},{"lat":"37.316733307","long":"127.12832987","items":[{"name":"브라운스토리","tel":"031-283-8731","addr":"경기도 용인시 기흥구 마북동 9-5번지 2층","category":"서적문구 - 완구점"},{"name":"사단법인 여럿이함께","tel":"031-283-0870","addr":"경기도 용인시 기흥구 마북동 9-5번지 대남빌딩 1층","category":"음료식품 - 제과점"}]},{"lat":"37.292153855","long":"127.10948927","items":[{"name":"브이쿨기흥점","tel":"031-8811-6921","addr":"경기도 용인시 기흥구 마북동 502-129번지 7호","category":"자동차정비 유지 - 자동차부품"},{"name":"에이치케이멀티샵","tel":"","addr":"경기도 용인시 기흥구 마북동 502-129번지","category":"자동차정비 유지 - 카인테리어"},{"name":"오일메카","tel":"031-284-1710","addr":"경기도 용인시 기흥구 마북동 502-129번지 일부","category":"자동차정비 유지 - 자동차부품"},{"name":"오토엔젤 용인점","tel":"031-000-0000","addr":"경기도 용인시 기흥구 마북동 502-129번지 1층","category":"자동차정비 유지 - 카인테리어"},{"name":"워시메카","tel":"031-286-3111","addr":"경기도 용인시 기흥구 마북동 502-129번지","category":"자동차정비 유지 - 세차장"},{"name":"워시메카플러스","tel":"031-286-3111","addr":"경기도 용인시 기흥구 마북동 502-129번지","category":"자동차정비 유지 - 세차장"}]},{"lat":"37.30303623","long":"127.12107713","items":[{"name":"블루보트","tel":"031-281-4789","addr":"경기도 용인시 기흥구 마북동 625번지 교동마을현대필그린아파트","category":"음료식품 - 기타음료식품"},{"name":"엠제이컴(MJ COMMUNICATIONS)","tel":"","addr":"경기도 용인시 기흥구 마북동 625번지 교동마을현대필그린아파트","category":"용역 서비스 - 종합용역"}]},{"lat":"37.297653801","long":"127.10530146","items":[{"name":"뼈대있는돼지갈비","tel":"031-285-3370","addr":"경기도 용인시 기흥구 마북동 502-76번지","category":"일반휴게음식 - 일반한식"},{"name":"주식회사 올텍","tel":"031-684-9815","addr":"경기도 용인시 기흥구 마북동 502-76번지 2층","category":"건축자재 - 조명기구"},{"name":"커피베이 용인구성역점","tel":"031-287-2206","addr":"경기도 용인시 기흥구 마북동 502-76번지 1층","category":"일반휴게음식 - 서양음식"}]},{"lat":"37.298236711","long":"127.10843768","items":[{"name":"뽕사부","tel":"031-275-5009","addr":"경기도 용인시 기흥구 마북동 513-7번지","category":"일반휴게음식 - 중국식"}]},{"lat":"37.299947668","long":"127.11910979","items":[{"name":"사단법인아리사회복지원","tel":"031-889-6683","addr":"경기도 용인시 기흥구 마북동 251-4번지 시온빌라 1동 102호","category":"기타 - 비영리/대상"}]},{"lat":"37.294572555","long":"127.1149625","items":[{"name":"사차원카페","tel":"031-000-0000","addr":"경기도 용인시 기흥구 마북동 323-4번지","category":"일반휴게음식 - 서양음식"}]},{"lat":"37.301235563","long":"127.119687","items":[{"name":"산고을오리","tel":"031-287-9252","addr":"경기도 용인시 기흥구 마북동 244-1번지","category":"일반휴게음식 - 일반한식"}]},{"lat":"37.296930389","long":"127.1179322","items":[{"name":"산까치장여관","tel":"031-283-6095","addr":"경기도 용인시 기흥구 마북동 280번지","category":"숙박업 - 여관/기타숙박업"}]},{"lat":"37.299155452","long":"127.10877732","items":[{"name":"새롬디자인","tel":"031-283-9872","addr":"경기도 용인시 기흥구 마북동 520-26번지 102호","category":"건축자재 - 인테리어전문"},{"name":"예스스크린골프","tel":"031-286-7676","addr":"경기도 용인시 기흥구 마북동 520-26번지 고산빌딩 3층","category":"회원제형태 - 레져업소"},{"name":"우노펍","tel":"031-287-5252","addr":"경기도 용인시 기흥구 마북동 520-26번지 고산빌딩","category":"일반휴게음식 - 일반한식"},{"name":"웰리치카페","tel":"031-282-4243","addr":"경기도 용인시 기흥구 마북동 520-26번지 2층","category":"일반휴게음식 - 서양음식"}]},{"lat":"37.304374813","long":"127.12495935","items":[{"name":"새차만들기","tel":"070-7746-3700","addr":"경기도 용인시 기흥구 마북동 187-4번지","category":"자동차정비 유지 - 세차장"}]},{"lat":"37.301841202","long":"127.10799155","items":[{"name":"샤이니 쥬얼리","tel":"070-2781-0901","addr":"경기도 용인시 기흥구 마북동 526-3번지 연원마을엘지자이아파트","category":"회원제형태 - 기타4"}]},{"lat":"37.294818113","long":"127.11252682","items":[{"name":"성빈한의원","tel":"031-285-4018","addr":"경기도 용인시 기흥구 마북동 369-3번지","category":"의원 - 한의원"}]},{"lat":"37.308485843","long":"127.1312377","items":[{"name":"세븐일레븐용인마북연수원점","tel":"","addr":"경기도 용인시 기흥구 마북동 115-2번지 화곡빌딩 1층 103호","category":"유통업 영리 - 편 의 점"},{"name":"옛날김치돼지찌개","tel":"031-222-1111","addr":"경기도 용인시 기흥구 마북동 115-2번지 101호, 102호","category":"일반휴게음식 - 일반한식"},{"name":"유한카써비스","tel":"031-283-0656","addr":"경기도 용인시 기흥구 마북동 115-2번지","category":"자동차정비 유지 - 자동차정비"}]},{"lat":"37.297820618","long":"127.11024165","items":[{"name":"세신철물,조명,전기","tel":"031-274-2663","addr":"경기도 용인시 기흥구 마북동 474-4번지","category":"전기제품 - 기타전기제품"}]},{"lat":"37.300767816","long":"127.10929841","items":[{"name":"소소한정원(Petite Jardin)","tel":"031-745-1111","addr":"경기도 용인시 기흥구 마북동 524-8번지 연원마을삼호.벽산아파트","category":"회원제형태 - 기타4"},{"name":"숲이있는도시농부","tel":"031-338-8989","addr":"경기도 용인시 기흥구 마북동 524-8번지","category":"학원 - 기타 교육기관"},{"name":"엠디에이 테크놀로지 (MDA Technology)","tel":"070-8289-8360","addr":"경기도 용인시 기흥구 마북동 524-8번지","category":"사무통신 - 컴퓨터"}]},{"lat":"37.309428159","long":"127.1346572","items":[{"name":"솔(SOL)카페","tel":"031-0000-0000","addr":"경기도 용인시 기흥구 마북동 80-5번지 KB증권연수원 기숙사동 1층 일부호","category":"일반휴게음식 - 서양음식"},{"name":"케이비(KB)증권연수원매점","tel":"","addr":"경기도 용인시 기흥구 마북동 80-5번지 KB증권연수원생활관 1층","category":"유통업 영리 - 슈퍼마켓"}]},{"lat":"37.302757743","long":"127.12024203","items":[{"name":"솔로몬서적","tel":"","addr":"경기도 용인시 기흥구 마북동 625번지 교동마을현대필그린아파트","category":"서적문구 - 일반서적"},{"name":"에코 에듀케이션","tel":"","addr":"경기도 용인시 기흥구 마북동 625번지 교동마을현대필그린아파트","category":"서적문구 - 일반서적"},{"name":"에코에듀케이션","tel":"070-7560-4922","addr":"경기도 용인시 기흥구 마북동 625번지 교동마을현대필그린109동903호~903호 109동 903호","category":"회원제형태 - 서적"},{"name":"예인디자인","tel":"031-285-7175","addr":"경기도 용인시 기흥구 마북동 625번지 교동마을현대필그린아파트","category":"건축자재 - 인테리어전문"}]},{"lat":"37.304456786","long":"127.12410224","items":[{"name":"스마일디자인","tel":"031-284-6660","addr":"경기도 용인시 기흥구 마북동 184-11번지","category":"건축자재 - 인테리어전문"},{"name":"스마일디자인","tel":"031-275-5775","addr":"경기도 용인시 기흥구 마북동 184-11번지 1층","category":"일반휴게음식 - 서양음식"}]},{"lat":"37.299597476","long":"127.10819145","items":[{"name":"스시하이","tel":"031-274-2630","addr":"경기도 용인시 기흥구 마북동 520-3번지 삼송빌딩 1층","category":"일반휴게음식 - 일식·회집"},{"name":"토모","tel":"031-274-9663","addr":"경기도 용인시 기흥구 마북동 520-3번지 삼송빌딩","category":"일반휴게음식 - 일반한식"}]},{"lat":"37.317509279","long":"127.12729327","items":[{"name":"스튜디오8","tel":"","addr":"경기도 용인시 기흥구 마북동 9-6번지","category":"일반휴게음식 - 일반한식"}]},{"lat":"37.298652042","long":"127.1074683","items":[{"name":"스피드메이트 구성신도시점","tel":"031-287-0154","addr":"경기도 용인시 기흥구 마북동 507번지","category":"자동차정비 유지 - 자동차정비"}]},{"lat":"37.303375808","long":"127.10471141","items":[{"name":"스피드메이트 구성주유소점","tel":"031-286-5999","addr":"경기도 용인시 기흥구 마북동 502-142번지 1층","category":"자동차정비 유지 - 자동차정비"}]},{"lat":"37.294621853","long":"127.11038372","items":[{"name":"스피드메이트에스케이구성점","tel":"031-285-7022","addr":"경기도 용인시 기흥구 마북동 502-152번지","category":"자동차정비 유지 - 자동차정비"}]},{"lat":"37.300556089","long":"127.12338542","items":[{"name":"시즈(ciiz)","tel":"070-7623-7290","addr":"경기도 용인시 기흥구 마북동 630번지 교동마을현대홈타운 102동 504호","category":"의류 - 정장"}]},{"lat":"37.293373068","long":"127.10629938","items":[{"name":"썬라이즈스마트스쿨주식회사","tel":"031-285-5142","addr":"경기도 용인시 기흥구 마북동 442번지","category":"보건위생 - 기타대인서비스"}]},{"lat":"37.30862069","long":"127.13151993","items":[{"name":"씨엔비(c&b)","tel":"070-997-9970","addr":"경기도 용인시 기흥구 마북동 73-3번지 1층","category":"일반휴게음식 - 일반한식"}]},{"lat":"37.300315695","long":"127.12052021","items":[{"name":"씨엔지골프클럽","tel":"031-284-9541","addr":"경기도 용인시 기흥구 마북동 232-1번지 마이다스프라자 3층","category":"레저업소 - 골프연습장"}]},{"lat":"37.300009839","long":"127.12002347","items":[{"name":"씨유기흥교동점","tel":"031-238-9959","addr":"경기도 용인시 기흥구 마북동 232-2번지","category":"유통업 영리 - 편 의 점"},{"name":"형제종합설비철물","tel":"031-287-4222","addr":"경기도 용인시 기흥구 마북동 232-2번지 1층","category":"용역 서비스 - 기타용역서비스"}]},{"lat":"37.317653643","long":"127.12710173","items":[{"name":"씨유단대기숙사점","tel":"031-275-7262","addr":"경기도 용인시 기흥구 마북동 9-3번지","category":"유통업 영리 - 편 의 점"}]},{"lat":"37.2948461","long":"127.11148928","items":[{"name":"아라(ARA)스튜디오","tel":"031-283-4111","addr":"경기도 용인시 기흥구 마북동 373-9번지","category":"광학제품 - 사진관"}]},{"lat":"37.303424186","long":"127.12055889","items":[{"name":"아리스트링","tel":"031-287-2238","addr":"경기도 용인시 기흥구 마북동 625번지 교동마을현대필그린아파트","category":"레져용품 - 악기점"}]},{"lat":"37.300042288","long":"127.12359889","items":[{"name":"아이디자인","tel":"031-206-5110","addr":"경기도 용인시 기흥구 마북동 630번지 교동마을 현대홈타운105동2층2호","category":"서적문구 - 출판 및 인쇄물"}]},{"lat":"37.293845882","long":"127.11157807","items":[{"name":"암소제비추리","tel":"031-287-3294","addr":"경기도 용인시 기흥구 마북동 380-3번지","category":"일반휴게음식 - 일반한식"}]},{"lat":"37.293739778","long":"127.10935618","items":[{"name":"앨리스","tel":"031-286-6122","addr":"경기도 용인시 기흥구 마북동 502-385번지 올리브스퀘어 C동 1층","category":"신변잡화 - 액세서리"}]},{"lat":"37.294653166","long":"127.11547013","items":[{"name":"언남중국어교습소","tel":"031-000-0000","addr":"경기도 용인시 기흥구 마북동 322번지 2층","category":"학원 - 외국어학원"},{"name":"유니팝마북센터미술교습소","tel":"","addr":"경기도 용인시 기흥구 마북동 322번지 2층","category":"학원 - 예·체능계학원"}]},{"lat":"37.297514014","long":"127.11052317","items":[{"name":"업스포츠 구성점","tel":"031-266-9953","addr":"경기도 용인시 기흥구 마북동 474-34번지","category":"학원 - 기타 교육기관"}]},{"lat":"37.299676439","long":"127.12004551","items":[{"name":"에듀바비 경기용인기흥지사","tel":"02-1522-0701","addr":"경기도 용인시 기흥구 마북동 255-4번지 4B동 602호","category":"용역 서비스 - 사무서비스"}]},{"lat":"37.301259141","long":"127.1139122","items":[{"name":"에스라티","tel":"031-707-0312","addr":"경기도 용인시 기흥구 마북동 624","category":"회원제형태 - 기타4"}]},{"lat":"37.302906095","long":"127.10607557","items":[{"name":"에이스컴퓨터","tel":"031-283-5133","addr":"경기도 용인시 기흥구 마북동 554-10,1칸","category":"사무통신 - 통신기기"},{"name":"황제윤활유","tel":"031-287-1313","addr":"경기도 용인시 기흥구 마북동 554-10","category":"자동차정비 유지 - 윤활유 전문 판매"}]},{"lat":"37.303736142","long":"127.1239319","items":[{"name":"에이씨티더블2","tel":"031-284-2226","addr":"경기도 용인시 기흥구 마북동 182-3번지 테라스가든 B동 109호","category":"사무통신 - 통신기기"}]},{"lat":"37.30118026","long":"127.12093888","items":[{"name":"에코스존","tel":"070-4829-7122","addr":"경기도 용인시 기흥구 마북동 237-3번지 2층","category":"용역 서비스 - 종합용역"}]},{"lat":"37.294652037","long":"127.10685375","items":[{"name":"엘모터스(L MOTORS)","tel":"02-1111-1111","addr":"경기도 용인시 기흥구 마북동 502-412번지","category":"자동차정비 유지 - 자동차정비"}]},{"lat":"37.301460952","long":"127.119552","items":[{"name":"엘제이(LJ)엔터프라이즈","tel":"031-275-9713","addr":"경기도 용인시 기흥구 마북동 245-1번지 산에들에 2층 201호","category":"용역 서비스 - 사무서비스"}]},{"lat":"37.297821746","long":"127.10898974","items":[{"name":"엠씨모터스(MC.motors)","tel":"031-282-6147","addr":"경기도 용인시 기흥구 마북동 517-8번지","category":"자동차정비 유지 - 카인테리어"},{"name":"탑모터스(TOP MOTORS)","tel":"031-285-5881","addr":"경기도 용인시 기흥구 마북동 517-8번지 외1필지","category":"자동차정비 유지 - 자동차부품"}]},{"lat":"37.295434208","long":"127.10879466","items":[{"name":"엠앤제이","tel":"031-283-1012","addr":"경기도 용인시 기흥구 마북동 502-29번지","category":"의류 - 정장"}]},{"lat":"37.295071024","long":"127.1118505","items":[{"name":"엠피쓰리 노래연습장","tel":"031-274-6525","addr":"경기도 용인시 기흥구 마북동 370-9번지 성지빌딩 2층","category":"레저업소 - 노 래 방"}]},{"lat":"37.301288248","long":"127.12107439","items":[{"name":"여우야","tel":"070-4655-9025","addr":"경기도 용인시 기흥구 마북동 237-5번지","category":"의류 - 정장"}]},{"lat":"37.300820622","long":"127.11068579","items":[{"name":"연세음악학원","tel":"031-286-6123","addr":"경기도 용인시 기흥구 마북동 524-8대현상가4층402","category":"학원 - 예·체능계학원"},{"name":"연승환치과의원","tel":"031-286-2875","addr":"경기도 용인시 기흥구 마북동 524-8번지 2층","category":"의원 - 치과의원"},{"name":"요술가위","tel":"031-285-7578","addr":"경기도 용인시 기흥구 마북동 524-8연원마을삼호벽산@분산상가107","category":"보건위생 - 미용원"},{"name":"우리돈 축산","tel":"031-282-5425","addr":"경기도 용인시 기흥구 마북동 524-8번지","category":"음료식품 - 정육점"},{"name":"위드미용인한아름점","tel":"031-285-0282","addr":"경기도 용인시 기흥구 마북동 524-8번지 벽산분산상가 202동 101호","category":"유통업 영리 - 편 의 점"},{"name":"크린에이드(구성점)","tel":"031-285-7131","addr":"경기도 용인시 기흥구 마북동 524-8벽산분산상가104","category":"수리서비스 - 세탁소"}]},{"lat":"37.296488152","long":"127.10907809","items":[{"name":"연세프라임병원","tel":"031-1588-7542","addr":"경기도 용인시 기흥구 마북동 470-22번지","category":"병원 - 병원"},{"name":"이태리조명","tel":"031-285-5722","addr":"경기도 용인시 기흥구 마북동 470-22번지","category":"건축자재 - 조명기구"},{"name":"청춘약국","tel":"031-282-5834","addr":"경기도 용인시 기흥구 마북동 470-22번지 1층","category":"약국 - 약국"},{"name":"한반도영어조합법인","tel":"031-284-9984","addr":"경기도 용인시 기흥구 마북동 470-22번지","category":"음료식품 - 농·축·수산품"}]},{"lat":"37.302481863","long":"127.12573455","items":[{"name":"연은정보기술","tel":"02-445-5411","addr":"경기도 용인시 기흥구 마북동 204-5번지 교동마을정광아파트","category":"사무통신 - 컴퓨터"},{"name":"카앤피플 용인 수지점","tel":"070-4117-1114","addr":"경기도 용인시 기흥구 마북동 204-5번지 교동마을정광아파트","category":"자동차정비 유지 - 세차장"}]},{"lat":"37.294517647","long":"127.11585338","items":[{"name":"예뷰코스메틱","tel":"031-283-3518","addr":"경기도 용인시 기흥구 마북동 392-1번지 406호","category":"보건위생 - 화장품"}]},{"lat":"37.29748781","long":"127.10960959","items":[{"name":"오롯사무기기","tel":"02-1644-5956","addr":"경기도 용인시 기흥구 마북동 474-5번지","category":"사무통신 - 사무용 OA기기"}]},{"lat":"37.294490778","long":"127.11568417","items":[{"name":"오예숙헤어","tel":"031-284-2214","addr":"경기도 용인시 기흥구 마북동 321-1번지","category":"보건위생 - 미용원"}]},{"lat":"37.302204763","long":"127.12357979","items":[{"name":"오후세시","tel":"070-8031-4038","addr":"경기도 용인시 기흥구 마북동 641번지 동양파라곤아파트","category":"음료식품 - 기타음료식품"},{"name":"코리아아트","tel":"031-707-6228","addr":"경기도 용인시 기흥구 마북동 641번지 동양파라곤아파트","category":"회원제형태 - 기타4"}]},{"lat":"37.308540112","long":"127.13104603","items":[{"name":"옥룡불백","tel":"031-286-7337","addr":"경기도 용인시 기흥구 마북동 115-13번지","category":"일반휴게음식 - 일반한식"}]},{"lat":"37.294043442","long":"127.11230014","items":[{"name":"용인 효 요양병원","tel":"031-282-9114","addr":"경기도 용인시 기흥구 마북동 382-3번지 1층","category":"병원 - 병원"}]},{"lat":"37.300792573","long":"127.12118641","items":[{"name":"울림","tel":"031-284-9189","addr":"경기도 용인시 기흥구 마북동 235-1번지","category":"일반휴게음식 - 일반한식"},{"name":"울림","tel":"031-284-9189","addr":"경기도 용인시 기흥구 마북동 235-1번지","category":"사무통신 - 컴퓨터"}]},{"lat":"37.294932225","long":"127.11574122","items":[{"name":"월드플러스","tel":"031-284-0865","addr":"경기도 용인시 기흥구 마북동 339-1번지","category":"전기제품 - 기타전기제품"}]},{"lat":"37.294736665","long":"127.11291015","items":[{"name":"웰빙헤어","tel":"031-285-2177","addr":"경기도 용인시 기흥구 마북동 329-1번지 일부 1층","category":"보건위생 - 미용원"},{"name":"티파니","tel":"031-285-7077","addr":"경기도 용인시 기흥구 마북동 329-1번지","category":"신변잡화 - 귀금속"},{"name":"효성디자인","tel":"031-283-1215","addr":"경기도 용인시 기흥구 마북동 329-1번지","category":"건축자재 - 인테리어전문"}]},{"lat":"37.297320451","long":"127.10526717","items":[{"name":"유에스레이지매트리스(USLAZYMATTRESS)","tel":"","addr":"경기도 용인시 기흥구 마북동 502-80번지 3층","category":"가구 - 일반가구"},{"name":"육월염소구이.생선구이","tel":"031-284-0977","addr":"경기도 용인시 기흥구 마북동 502-80번지","category":"일반휴게음식 - 일반한식"},{"name":"참조은테라피","tel":"","addr":"경기도 용인시 기흥구 마북동 502-80번지 2층","category":"보건위생 - 화장품"}]},{"lat":"37.306722927","long":"127.12835836","items":[{"name":"은정민 헤어","tel":"031-283-3251","addr":"경기도 용인시 기흥구 마북동 636번지 e편한세상 상가동 203호","category":"보건위생 - 미용원"}]},{"lat":"37.300994581","long":"127.10760689","items":[{"name":"이루미독서스쿨","tel":"031-275-3025","addr":"경기도 용인시 기흥구 마북동 526-3번지 연원마을엘지자이아파트","category":"학원 - 독서실"}]},{"lat":"37.296439452","long":"127.11307053","items":[{"name":"이슬대리","tel":"031-376-4284","addr":"경기도 용인시 기흥구 마북동 352번지 우림필유아파트","category":"보건위생 - 기타대인서비스"}]},{"lat":"37.302722741","long":"127.12802462","items":[{"name":"일광세차","tel":"031-287-1440","addr":"경기도 용인시 기흥구 마북동 621번지 교동마을쌍용아파트","category":"자동차정비 유지 - 세차장"}]},{"lat":"37.301934069","long":"127.11480424","items":[{"name":"자연건강","tel":"031-226-4880","addr":"경기도 용인시 기흥구 마북동 624","category":"건강식품 - 기타건강식품"}]},{"lat":"37.300982125","long":"127.12084834","items":[{"name":"자연수떡방","tel":"031-283-3040","addr":"경기도 용인시 기흥구 마북동 239-4번지 1층","category":"음료식품 - 제과점"}]},{"lat":"37.314515947","long":"127.12912713","items":[{"name":"장수농원","tel":"031-283-1533","addr":"경기도 용인시 기흥구 마북동 23-16번지","category":"일반휴게음식 - 일반한식"}]},{"lat":"37.296678366","long":"127.11766114","items":[{"name":"장어가족","tel":"031-284-1511","addr":"경기도 용인시 기흥구 마북동 297번지","category":"일반휴게음식 - 일반한식"}]},{"lat":"37.294926371","long":"127.11238036","items":[{"name":"장원교육구성지점","tel":"031-284-0979","addr":"경기도 용인시 기흥구 마북동 370-7번지 2층","category":"학원 - 학습지 교육"}]},{"lat":"37.296128873","long":"127.11752497","items":[{"name":"장흥전파사","tel":"031-283-0307","addr":"경기도 용인시 기흥구 마북동 301-7","category":"전기제품 - 기타전기제품"}]},{"lat":"37.304627842","long":"127.12423787","items":[{"name":"전주콩나물해장국","tel":"031-285-0176","addr":"경기도 용인시 기흥구 마북동 184-3번지","category":"일반휴게음식 - 일반한식"},{"name":"캠퍼스당구장","tel":"031-283-9898","addr":"경기도 용인시 기흥구 마북동 184-3번지","category":"레저업소 - 당 구 장"}]},{"lat":"37.294598976","long":"127.11560539","items":[{"name":"제일덴트칼라","tel":"031-283-1268","addr":"경기도 용인시 기흥구 마북동 321-4번지","category":"자동차정비 유지 - 카인테리어"},{"name":"한일장식인테리어","tel":"031-283-8488","addr":"경기도 용인시 기흥구 마북동 321-4번지","category":"직물 - 카페트,커튼,천막,지물"}]},{"lat":"37.314318048","long":"127.12882222","items":[{"name":"주식회사 고도전기공업","tel":"031-281-7228","addr":"경기도 용인시 기흥구 마북동 23-25번지","category":"전기제품 - 기타전기제품"}]},{"lat":"37.308846031","long":"127.13144136","items":[{"name":"주식회사 예다움","tel":"031-283-5522","addr":"경기도 용인시 기흥구 마북동 72번지","category":"건축자재 - 기타건축자재"}]},{"lat":"37.29498634","long":"127.11568491","items":[{"name":"주식회사 카프로","tel":"031-284-8297","addr":"경기도 용인시 기흥구 마북동 339번지","category":"자동차정비 유지 - 자동차정비"}]},{"lat":"37.312539857","long":"127.13177478","items":[{"name":"주식회사여시관(yeosigwan)","tel":"031-286-2288","addr":"경기도 용인시 기흥구 마북동 37번지 (마북36-24,38-3)","category":"일반휴게음식 - 서양음식"}]},{"lat":"37.293211659","long":"127.10540821","items":[{"name":"주식회사오르자","tel":"031-000-0000","addr":"경기도 용인시 기흥구 마북동 444번지","category":"레져용품 - 스포츠·레져용품"}]},{"lat":"37.299626034","long":"127.12533515","items":[{"name":"주식회사유엔아이시스템","tel":"031-287-1861","addr":"경기도 용인시 기흥구 마북동 630번지 교동마을현대홈타운 110동 601호","category":"자동차정비 유지 - 자동차부품"}]},{"lat":"37.294704025","long":"127.10918837","items":[{"name":"주식회사한독서비스","tel":"031-275-3786","addr":"경기도 용인시 기흥구 마북동 502-108번지","category":"자동차정비 유지 - 자동차정비"},{"name":"한독서비스","tel":"031-275-3786","addr":"경기도 용인시 기흥구 마북동 502-108번지","category":"자동차정비 유지 - 자동차정비"}]},{"lat":"37.293934419","long":"127.11326988","items":[{"name":"중앙쉼터약국","tel":"031-693-8878","addr":"경기도 용인시 기흥구 마북동 619번지 용화마을태영데시앙 상가 101호","category":"약국 - 약국"}]},{"lat":"37.304338143","long":"127.12556838","items":[{"name":"지비티(GBT)","tel":"031-305-0819","addr":"경기도 용인시 기흥구 마북동 617번지 교동마을엘지자이","category":"회원제형태 - 기타1"}]},{"lat":"37.29615586","long":"127.10785958","items":[{"name":"지지모터스","tel":"031-274-3344","addr":"경기도 용인시 기흥구 마북동 502-14번지","category":"자동차정비 유지 - 자동차부품"}]},{"lat":"37.296849484","long":"127.11774035","items":[{"name":"진원조닭한마리","tel":"031-275-6316","addr":"경기도 용인시 기흥구 마북동 282번지","category":"일반휴게음식 - 일반한식"}]},{"lat":"37.301234983","long":"127.1202735","items":[{"name":"집운헌","tel":"031-283-1911","addr":"경기도 용인시 기흥구 마북동 238번지","category":"신변잡화 - 기념품점"}]},{"lat":"37.314786097","long":"127.12927424","items":[{"name":"짜임","tel":"031-8001-5151","addr":"경기도 용인시 기흥구 마북동 22-2번지","category":"가구 - 일반가구"}]},{"lat":"37.291316177","long":"127.1091836","items":[{"name":"착한낙지","tel":"031-285-0078","addr":"경기도 용인시 기흥구 마북동 426-9번지 외1필지","category":"일반휴게음식 - 일반한식"}]},{"lat":"37.297653203","long":"127.10598944","items":[{"name":"최씨네낙지","tel":"031-274-1817","addr":"경기도 용인시 기흥구 마북동 502-337번지","category":"일반휴게음식 - 일반한식"}]},{"lat":"37.30037017","long":"127.12010298","items":[{"name":"카라헤어","tel":"031-287-6494","addr":"경기도 용인시 기흥구 마북동 240-1번지 삼보빌라제1층 102호","category":"보건위생 - 미용원"},{"name":"한화인테리어","tel":"031-8001-1593","addr":"경기도 용인시 기흥구 마북동 240-1번지 외2필지삼보빌라제1층 101호","category":"건축자재 - 인테리어전문"}]},{"lat":"37.296734668","long":"127.11532662","items":[{"name":"카페사랑씨앗","tel":"070-0000-0000","addr":"경기도 용인시 기흥구 마북동 345번지 1층","category":"일반휴게음식 - 서양음식"}]},{"lat":"37.305064965","long":"127.12843456","items":[{"name":"칼빈대학교","tel":"031-270-8807","addr":"경기도 용인시 기흥구 마북동 142-12번지 칼빈대학교","category":"학원 - 대학등록금"}]},{"lat":"37.303402431","long":"127.10518518","items":[{"name":"커피스톱","tel":"031-284-4001","addr":"경기도 용인시 기흥구 마북동 502-75번지","category":"일반휴게음식 - 서양음식"}]},{"lat":"37.300728696","long":"127.11267074","items":[{"name":"크레도컴퍼니","tel":"070-5057-0460","addr":"경기도 용인시 기흥구 마북동 524-8번지 연원마을삼호.벽산아파트","category":"서적문구 - 출판 및 인쇄물"}]},{"lat":"37.297650623","long":"127.10891055","items":[{"name":"타이어싼집","tel":"000-1899-9996","addr":"경기도 용인시 기흥구 마북동 475-4번지","category":"자동차정비 유지 - 자동차시트·타이어"}]},{"lat":"37.293593471","long":"127.11171304","items":[{"name":"토마토수산시장","tel":"031-283-7040","addr":"경기도 용인시 기흥구 마북동 409-1번지 1층","category":"일반휴게음식 - 일식·회집"}]},{"lat":"37.297877828","long":"127.10671157","items":[{"name":"팀스타주니어","tel":"031-283-3609","addr":"경기도 용인시 기흥구 마북동 502번지 1층","category":"학원 - 예·체능계학원"}]},{"lat":"37.299346227","long":"127.10701811","items":[{"name":"팔당냉면 구성 (주)","tel":"031-693-7257","addr":"경기도 용인시 기흥구 마북동 506-5번지","category":"일반휴게음식 - 일반한식"}]},{"lat":"37.301517024","long":"127.1077768","items":[{"name":"페리카나","tel":"031-286-3854","addr":"경기도 용인시 기흥구 마북동 526-3연원엘지상가108","category":"일반휴게음식 - 스넥"}]},{"lat":"37.302724069","long":"127.12676135","items":[{"name":"페이스 트레이닝센터","tel":"","addr":"경기도 용인시 기흥구 마북동 621번지 교동마을쌍용아파트","category":"학원 - 예·체능계학원"}]},{"lat":"37.2952088","long":"127.10896352","items":[{"name":"풍천숯불갈비","tel":"031-282-7792","addr":"경기도 용인시 기흥구 마북동 502-30번지","category":"일반휴게음식 - 일반한식"}]},{"lat":"37.301398593","long":"127.10923162","items":[{"name":"플로피아","tel":"031-287-7055","addr":"경기도 용인시 기흥구 마북동 524-8번지 연원마을삼호.벽산아파트","category":"문화.취미 - 화원"}]},{"lat":"37.295598292","long":"127.11646402","items":[{"name":"피카스튜디오 (Fika studio)","tel":"070-4225-3170","addr":"경기도 용인시 기흥구 마북동 314-3번지","category":"광학제품 - 사진관"}]},{"lat":"37.300207796","long":"127.12029446","items":[{"name":"하나유리","tel":"031-275-2172","addr":"경기도 용인시 기흥구 마북동 232-3번지 101호","category":"건축자재 - 유리"}]},{"lat":"37.316399282","long":"127.1289385","items":[{"name":"하늘마을식당","tel":"031-283-0876","addr":"경기도 용인시 기흥구 마북동 21-24","category":"일반휴게음식 - 일반한식"}]},{"lat":"37.298264403","long":"127.10769333","items":[{"name":"하이난","tel":"031-285-2266","addr":"경기도 용인시 기흥구 마북동 510-1번지 2층","category":"일반휴게음식 - 일반한식"}]},{"lat":"37.300757314","long":"127.11094511","items":[{"name":"한국공기질정화협회","tel":"","addr":"경기도 용인시 기흥구 마북동 524-8번지 연원마을삼호.벽산아파트","category":"전기제품 - 기타전기제품"}]},{"lat":"37.308872558","long":"127.13190389","items":[{"name":"한국미술관","tel":"031-283-6418","addr":"경기도 용인시 기흥구 마북동 73-1번지","category":"문화.취미 - 화랑"},{"name":"한국미술관 문화비","tel":"031-283-6418","addr":"경기도 용인시 기흥구 마북동 73-1번지","category":"문화.취미 - 티켓"}]},{"lat":"37.299317918","long":"127.10846174","items":[{"name":"한국지엠기흥바로서비스","tel":"031-283-5244","addr":"경기도 용인시 기흥구 마북동 520-17번지 외1필지","category":"자동차정비 유지 - 자동차정비"}]},{"lat":"37.304125413","long":"127.12212782","items":[{"name":"한성가든","tel":"031-284-4664","addr":"경기도 용인시 기흥구 마북동 176-1번지 청송가든","category":"일반휴게음식 - 일반한식"}]},{"lat":"37.304537959","long":"127.12402342","items":[{"name":"할머니","tel":"031-286-4635","addr":"경기도 용인시 기흥구 마북동 184-8번지","category":"일반휴게음식 - 일반한식"}]},{"lat":"37.299917797","long":"127.11264701","items":[{"name":"해별청소년통합지원센터","tel":"","addr":"경기도 용인시 기흥구 마북동 629번지 삼성래미안1차아파트","category":"보건위생 - 기타대인서비스"}]},{"lat":"37.306047984","long":"127.12757894","items":[{"name":"해피룩(Happy Look)","tel":"031-717-7533","addr":"경기도 용인시 기흥구 마북동 636번지 교동마을마북e편한세상","category":"의류 - 내의판매"}]},{"lat":"37.298461118","long":"127.10938539","items":[{"name":"행복공작소","tel":"031-000-0000","addr":"경기도 용인시 기흥구 마북동 516-34번지 아남빌라 402호","category":"문화.취미 - 문화취미기타"}]},{"lat":"37.294457913","long":"127.11230074","items":[{"name":"행복한밥상","tel":"070-7759-3959","addr":"경기도 용인시 기흥구 마북동 382-8 1층","category":"음료식품 - 기타음료식품"}]},{"lat":"37.299537289","long":"127.1240154","items":[{"name":"헤븐스톤인테리어","tel":"031-283-8404","addr":"경기도 용인시 기흥구 마북동 630번지 교동마을현대홈타운 106동 1202호","category":"건축자재 - 인테리어전문"}]},{"lat":"37.300656526","long":"127.12207723","items":[{"name":"헤어카페","tel":"031-274-3009","addr":"경기도 용인시 기흥구 마북동 226-1번지","category":"보건위생 - 미용원"}]},{"lat":"37.308287227","long":"127.13159832","items":[{"name":"현대카프라자","tel":"031-284-7244","addr":"경기도 용인시 기흥구 마북동 113-4번지","category":"자동차정비 유지 - 자동차정비"}]},{"lat":"37.30787756","long":"127.13541025","items":[{"name":"현대환경연구소매점","tel":"031-899-3035","addr":"경기도 용인시 기흥구 마북동 80-16번지 현대환경연구소","category":"유통업 영리 - 슈퍼마켓"}]},{"lat":"37.297182514","long":"127.1084362","items":[{"name":"호델탑","tel":"031-223-5214","addr":"경기도 용인시 기흥구 마북동 479-1번지","category":"숙박업 - 여관/기타숙박업"}]},{"lat":"37.317237614","long":"127.1285789","items":[{"name":"힐스템구성","tel":"031-284-4702","addr":"경기도 용인시 기흥구 마북동 9-17번지","category":"보건위생 - 화장품"}]}]