[{"lat":"37.43185309","long":"126.8521595","imageIndex":7,"items":[{"name":"4월17일/주식회사 4월 17일","tel":"070-4114-3235","addr":"경기도 광명시 노온사동 780-1번지","indutype":"음료식품 - 기타음료식품","category":"food"}]},{"lat":"37.43135739","long":"126.8520475","imageIndex":7,"items":[{"name":"광명미트","tel":"","addr":"경기도 광명시 노온사동 778-10번지","indutype":"음료식품 - 정육점","category":"food"},{"name":"주식회사 광명미트","tel":"031-1899-2319","addr":"경기도 광명시 노온사동 778-10번지 1층","indutype":"음료식품 - 정육점","category":"food"}]},{"lat":"37.43135696","long":"126.8517085","imageIndex":7,"items":[{"name":"그린푸드D&S","tel":"","addr":"경기도 광명시 노온사동 778-3번지 2층","indutype":"음료식품 - 기타음료식품","category":"food"}]},{"lat":"37.43493442","long":"126.8451818","imageIndex":7,"items":[{"name":"까치마을","tel":"02-2614-9600","addr":"경기도 광명시 노온사동 577-5번지","indutype":"음료식품 - 정육점","category":"food"}]},{"lat":"37.44743316","long":"126.8399007","imageIndex":7,"items":[{"name":"나들목","tel":"02-2060-3397","addr":"경기도 광명시 노온사동 291번지","indutype":"음료식품 - 기타음료식품","category":"food"}]},{"lat":"37.44137968","long":"126.8475187","imageIndex":7,"items":[{"name":"논현","tel":"02-2683-3091","addr":"경기도 광명시 노온사동 404-8","indutype":"음료식품 - 농·축·수산품","category":"food"}]},{"lat":"37.43018573","long":"126.8517674","imageIndex":7,"items":[{"name":"달구식자재","tel":"02-2685-1903","addr":"경기도 광명시 노온사동 794-1번지 A동","indutype":"음료식품 - 기타음료식품","category":"food"}]},{"lat":"37.43862649","long":"126.8436599","imageIndex":7,"items":[{"name":"더스타일","tel":"02-2612-0394","addr":"경기도 광명시 노온사동 521-5번지 2층","indutype":"음료식품 - 기타음료식품","category":"food"}]},{"lat":"37.43340683","long":"126.8482922","imageIndex":7,"items":[{"name":"미가푸드","tel":"02-2686-3374","addr":"경기도 광명시 노온사동 646-1번지","indutype":"음료식품 - 미곡상","category":"food"}]},{"lat":"37.43546397","long":"126.8436553","imageIndex":7,"items":[{"name":"부녀상회","tel":"","addr":"경기도 광명시 노온사동 577-1번지","indutype":"음료식품 - 기타음료식품","category":"food"}]},{"lat":"37.45021444","long":"126.8444604","imageIndex":7,"items":[{"name":"야우리 주식회사","tel":"070-4250-7376","addr":"경기도 광명시 노온사동 197-4번지 1층","indutype":"음료식품 - 기타음료식품","category":"food"}]},{"lat":"37.43396494","long":"126.8479069","imageIndex":7,"items":[{"name":"유일푸드","tel":"02-2688-6466","addr":"경기도 광명시 노온사동 640번지","indutype":"음료식품 - 정육점","category":"food"}]},{"lat":"37.43118499","long":"126.8442406","imageIndex":7,"items":[{"name":"이루다식품","tel":"02-2611-8480","addr":"경기도 광명시 노온사동 623-2번지 1층","indutype":"음료식품 - 기타음료식품","category":"food"}]},{"lat":"37.45054918","long":"126.8454881","imageIndex":7,"items":[{"name":"정오농산","tel":"02-2682-5151","addr":"경기도 광명시 노온사동 196-6번지","indutype":"음료식품 - 미곡상","category":"food"}]},{"lat":"37.43088088","long":"126.8601268","imageIndex":7,"items":[{"name":"제일 밤농원","tel":"","addr":"경기도 광명시 노온사동 산 217번지","indutype":"음료식품 - 농·축·수산품","category":"food"}]},{"lat":"37.43243512","long":"126.8493449","imageIndex":7,"items":[{"name":"제주농산f&s","tel":"02-2619-4979","addr":"경기도 광명시 노온사동 660-3번지","indutype":"음료식품 - 농·축·수산품","category":"food"}]},{"lat":"37.44241012","long":"126.8500478","imageIndex":7,"items":[{"name":"제주삼다수더블유통","tel":"02-2686-6107","addr":"경기도 광명시 노온사동 433-4번지","indutype":"음료식품 - 기타음료식품","category":"food"}]},{"lat":"37.42977301","long":"126.8461869","imageIndex":7,"items":[{"name":"주식회사 일월코퍼레이션","tel":"02-2066-7745","addr":"경기도 광명시 노온사동 726-8번지","indutype":"음료식품 - 기타음료식품","category":"food"}]},{"lat":"37.45182489","long":"126.84952","imageIndex":7,"items":[{"name":"주식회사초록물산","tel":"02-831-9444","addr":"경기도 광명시 노온사동 155-10번지","indutype":"음료식품 - 농·축·수산품","category":"food"},{"name":"주식회사초록물산","tel":"02-831-9444","addr":"경기도 광명시 노온사동 155-10번지","indutype":"음료식품 - 농·축·수산품","category":"food"}]},{"lat":"37.44232809","long":"126.8493247","imageIndex":7,"items":[{"name":"태인유통 (주)","tel":"02-2682-8289","addr":"경기도 광명시 노온사동 432번지","indutype":"음료식품 - 농·축·수산품","category":"food"}]},{"lat":"37.44285149","long":"126.8499565","imageIndex":7,"items":[{"name":"피카보","tel":"02-2682-3276","addr":"경기도 광명시 노온사동 433번지 2층","indutype":"음료식품 - 기타음료식품","category":"food"}]},{"lat":"37.45565457","long":"126.8498513","imageIndex":7,"items":[{"name":"하안농원","tel":"02-2618-1208","addr":"경기도 광명시 노온사동 36-1번지","indutype":"음료식품 - 농·축·수산품","category":"food"},{"name":"하안농장","tel":"02-2618-1208","addr":"경기도 광명시 노온사동 36-1번지","indutype":"음료식품 - 농·축·수산품","category":"food"}]},{"lat":"37.44948659","long":"126.845931","imageIndex":7,"items":[{"name":"해원","tel":"02-2611-9456","addr":"경기도 광명시 노온사동 216-22번지","indutype":"음료식품 - 기타음료식품","category":"food"}]},{"lat":"37.42890556","long":"126.8511824","imageIndex":7,"items":[{"name":"행복농원","tel":"02-2614-2705","addr":"경기도 광명시 노온사동 763-2번지","indutype":"음료식품 - 농·축·수산품","category":"food"}]},{"lat":"37.43582679","long":"126.8454624","imageIndex":7,"items":[{"name":"헤일빈스","tel":"02-882-9057","addr":"경기도 광명시 노온사동 572-108번지 1층","indutype":"음료식품 - 기타음료식품","category":"food"}]},{"lat":"37.44199279","long":"126.8478451","imageIndex":7,"items":[{"name":"협동상회","tel":"02-2682-8773","addr":"경기도 광명시 노온사동 425번지","indutype":"음료식품 - 기타음료식품","category":"food"}]},{"lat":"37.43921548","long":"126.8461559","imageIndex":7,"items":[{"name":"힐링라이프 솔트","tel":"","addr":"경기도 광명시 노온사동 518-2번지","indutype":"음료식품 - 기타음료식품","category":"food"}]}]