[{"lat":"37.324368921","long":"126.75880936","imageIndex":4,"items":[{"name":"(주) 아워홈뉴프렉스안산점","tel":"02-6966-9049","addr":"경기도 안산시 단원구 신길동 1055번지","indutype":"일반휴게음식 - 위탁급식업","category":"restaurant"}]},{"lat":"37.326339839","long":"126.7757496","imageIndex":4,"items":[{"name":"(주)신세계푸드동서반월공장","tel":"02-3397-6176","addr":"경기도 안산시 단원구 신길동 1114번지","indutype":"일반휴게음식 - 위탁급식업","category":"restaurant"}]},{"lat":"37.320418704","long":"126.75269611","imageIndex":4,"items":[{"name":"(주)신세계푸드코리아서키트2공장","tel":"02-3397-6176","addr":"경기도 안산시 단원구 신길동 1061-6번지","indutype":"일반휴게음식 - 위탁급식업","category":"restaurant"}]},{"lat":"37.33325515","long":"126.77810965","imageIndex":4,"items":[{"name":"(주)진삼누룽닭","tel":"031-492-9424","addr":"경기도 안산시 단원구 신길동 778번지","indutype":"일반휴게음식 - 일반한식","category":"restaurant"},{"name":"초가원","tel":"031-494-5567","addr":"경기도 안산시 단원구 신길동 778번지","indutype":"일반휴게음식 - 일반한식","category":"restaurant"}]},{"lat":"37.332613947","long":"126.78699179","imageIndex":4,"items":[{"name":"60계 안산신길점","tel":"031-494-9293","addr":"경기도 안산시 단원구 신길동 1656번지 1층","indutype":"일반휴게음식 - 일반한식","category":"restaurant"}]},{"lat":"37.329865138","long":"126.78660474","imageIndex":4,"items":[{"name":"Avec cafe(아베크카페)","tel":"031-495-7787","addr":"경기도 안산시 단원구 신길동 1623번지 모리아오피스텔 111호","indutype":"일반휴게음식 - 일반한식","category":"restaurant"},{"name":"강남포차","tel":"031-1111-1111","addr":"경기도 안산시 단원구 신길동 1623번지 모리아오피스텔 119호","indutype":"일반휴게음식 - 일반한식","category":"restaurant"},{"name":"밥포유","tel":"031-433-1119","addr":"경기도 안산시 단원구 신길동 1623번지 모리아오피스텔 115호","indutype":"일반휴게음식 - 일반한식","category":"restaurant"},{"name":"아베크카페","tel":"031-495-7787","addr":"경기도 안산시 단원구 신길동 1623번지 모리아오피스텔 111호","indutype":"일반휴게음식 - 서양음식","category":"restaurant"},{"name":"온새미로","tel":"031-493-3141","addr":"경기도 안산시 단원구 신길동 1623번지 모리아오피스텔 1층 118호","indutype":"일반휴게음식 - 일반한식","category":"restaurant"},{"name":"치킨마루(안산신길점)","tel":"031-492-6667","addr":"경기도 안산시 단원구 신길동 1623번지 모리아오피스텔 114호","indutype":"일반휴게음식 - 스넥","category":"restaurant"},{"name":"치킨마루(안산신길점)","tel":"031-492-6667","addr":"경기도 안산시 단원구 신길동 1623번지 모리아오피스텔 114호","indutype":"일반휴게음식 - 스넥","category":"restaurant"},{"name":"쿠(COO)안산점","tel":"031-493-3010","addr":"경기도 안산시 단원구 신길동 1623번지 모리아오피스텔 113호","indutype":"일반휴게음식 - 서양음식","category":"restaurant"},{"name":"홍두깨손칼국수","tel":"031-493-7978","addr":"경기도 안산시 단원구 신길동 1623번지 모리아오피스텔 113호","indutype":"일반휴게음식 - 일반한식","category":"restaurant"}]},{"lat":"37.33705432","long":"126.77647339","imageIndex":4,"items":[{"name":"BHC(신길점)","tel":"031-414-0002","addr":"경기도 안산시 단원구 신길동 710번지","indutype":"일반휴게음식 - 서양음식","category":"restaurant"}]},{"lat":"37.336999871","long":"126.77627044","imageIndex":4,"items":[{"name":"NEW삼익반점","tel":"031-494-9300","addr":"경기도 안산시 단원구 신길동 709-2번지 삼창A상가 201호","indutype":"일반휴게음식 - 중국식","category":"restaurant"},{"name":"반월반점","tel":"031-493-4494","addr":"경기도 안산시 단원구 신길동 709-2번지 삼창A상가 2층 201호","indutype":"일반휴게음식 - 중국식","category":"restaurant"}]},{"lat":"37.336534907","long":"126.76433312","imageIndex":4,"items":[{"name":"가마솥한식뷔페","tel":"031-433-7891","addr":"경기도 안산시 단원구 신길동 1417-24번지 101호,102호","indutype":"일반휴게음식 - 일반한식","category":"restaurant"},{"name":"투썸플레이스(신길온천역점)","tel":"031-491-0221","addr":"경기도 안산시 단원구 신길동 1417-24번지 103,104,105호","indutype":"일반휴게음식 - 서양음식","category":"restaurant"},{"name":"홍익돈까스 (신길온천역점)","tel":"031-494-0221","addr":"경기도 안산시 단원구 신길동 1417-24번지 신길프라자 1층 106-108호","indutype":"일반휴게음식 - 일반한식","category":"restaurant"},{"name":"홍익돈까스(신길온천역점)","tel":"031-494-0221","addr":"경기도 안산시 단원구 신길동 1417-24번지 1층 106,107,108호","indutype":"일반휴게음식 - 일반한식","category":"restaurant"},{"name":"홍익돈까스(신길온천역점)/(주)시흥관광호","tel":"031-494-0221","addr":"경기도 안산시 단원구 신길동 1417-24번지 신길프라자 103,104,105호","indutype":"일반휴게음식 - 서양음식","category":"restaurant"}]},{"lat":"37.337110538","long":"126.7823862","imageIndex":4,"items":[{"name":"가야가든","tel":"031-493-6006","addr":"경기도 안산시 단원구 신길동 35-1번지 1,2층","indutype":"일반휴게음식 - 일반한식","category":"restaurant"},{"name":"늘푸른정육식당","tel":"031-494-5052","addr":"경기도 안산시 단원구 신길동 35-1번지 1,2층","indutype":"일반휴게음식 - 일반한식","category":"restaurant"}]},{"lat":"37.331866416","long":"126.78716318","imageIndex":4,"items":[{"name":"가장맛있는족발 신길점","tel":"031-494-5849","addr":"경기도 안산시 단원구 신길동 1647번지 1층","indutype":"일반휴게음식 - 일반한식","category":"restaurant"},{"name":"명동칼국수보쌈샤브샤브","tel":"031-494-5954","addr":"경기도 안산시 단원구 신길동 1647번지 1층","indutype":"일반휴게음식 - 일반한식","category":"restaurant"}]},{"lat":"37.330702026","long":"126.78602689","imageIndex":4,"items":[{"name":"갈비야","tel":"031-493-0990","addr":"경기도 안산시 단원구 신길동 1631번지 201,202,203호","indutype":"일반휴게음식 - 일반한식","category":"restaurant"},{"name":"벨라플레이스","tel":"031-493-3303","addr":"경기도 안산시 단원구 신길동 1631번지 103,104호","indutype":"일반휴게음식 - 서양음식","category":"restaurant"},{"name":"본죽(안산신길지구점)","tel":"031-480-6233","addr":"경기도 안산시 단원구 신길동 1631번지 월드타워 116호","indutype":"일반휴게음식 - 일반한식","category":"restaurant"},{"name":"한뚝수육국밥","tel":"02-1111-1111","addr":"경기도 안산시 단원구 신길동 1631번지 월드타워 109,110,111호","indutype":"일반휴게음식 - 일반한식","category":"restaurant"},{"name":"홍대 양푼 김치찌개 신길점","tel":"031-493-7942","addr":"경기도 안산시 단원구 신길동 1631번지 월드타워 101호","indutype":"일반휴게음식 - 일반한식","category":"restaurant"}]},{"lat":"37.337034234","long":"126.76174744","imageIndex":4,"items":[{"name":"경성술집(신길점)","tel":"031-495-8238","addr":"경기도 안산시 단원구 신길동 1403-8번지 101,102호","indutype":"일반휴게음식 - 주점","category":"restaurant"}]},{"lat":"37.331889537","long":"126.78018989","imageIndex":4,"items":[{"name":"고창복의착한갈비","tel":"031-494-5292","addr":"경기도 안산시 단원구 신길동 932번지","indutype":"일반휴게음식 - 일반한식","category":"restaurant"}]},{"lat":"37.332083665","long":"126.78771545","imageIndex":4,"items":[{"name":"곱창고","tel":"031-494-8892","addr":"경기도 안산시 단원구 신길동 1582번지 1층","indutype":"일반휴게음식 - 일반한식","category":"restaurant"},{"name":"천사곱창","tel":"02-1111-1111","addr":"경기도 안산시 단원구 신길동 1582번지 1층","indutype":"일반휴게음식 - 일반한식","category":"restaurant"}]},{"lat":"37.336422885","long":"126.77144253","imageIndex":4,"items":[{"name":"굿부대찌개","tel":"031-508-1100","addr":"경기도 안산시 단원구 신길동 582-8번지 1층","indutype":"일반휴게음식 - 일반한식","category":"restaurant"}]},{"lat":"37.329361356","long":"126.76361112","imageIndex":4,"items":[{"name":"그날밥집","tel":"031-491-4845","addr":"경기도 안산시 단원구 신길동 338-2번지 글로리가든 A동 1층","indutype":"일반휴게음식 - 일반한식","category":"restaurant"},{"name":"이화칼국수","tel":"031-495-3788","addr":"경기도 안산시 단원구 신길동 338-2번지 글로리가든 A동 1층","indutype":"일반휴게음식 - 일반한식","category":"restaurant"}]},{"lat":"37.325895135","long":"126.75186561","imageIndex":4,"items":[{"name":"기러기산장","tel":"031-453-0153","addr":"경기도 안산시 단원구 신길동 292번지 1층 동","indutype":"일반휴게음식 - 일반한식","category":"restaurant"}]},{"lat":"37.331838417","long":"126.78663293","imageIndex":4,"items":[{"name":"김명자낙지마당","tel":"031-508-1141","addr":"경기도 안산시 단원구 신길동 1644번지 1층","indutype":"일반휴게음식 - 일반한식","category":"restaurant"}]},{"lat":"37.33694312","long":"126.76125122","imageIndex":4,"items":[{"name":"김치솥뚜껑삼겹살","tel":"031-491-7737","addr":"경기도 안산시 단원구 신길동 1385-7번지 101호","indutype":"일반휴게음식 - 일반한식","category":"restaurant"},{"name":"누나네춘천닭갈비","tel":"031-491-7737","addr":"경기도 안산시 단원구 신길동 1385-7번지 101호","indutype":"일반휴게음식 - 일반한식","category":"restaurant"}]},{"lat":"37.33027981","long":"126.78671638","imageIndex":4,"items":[{"name":"까페모두","tel":"031-492-7508","addr":"경기도 안산시 단원구 신길동 1615번지 104호","indutype":"일반휴게음식 - 서양음식","category":"restaurant"},{"name":"명태   명태간장조림","tel":"031-495-8292","addr":"경기도 안산시 단원구 신길동 1615번지 (101호 102호)","indutype":"일반휴게음식 - 일반한식","category":"restaurant"},{"name":"응급실 국물떡볶이 안산신길점","tel":"031-494-1191","addr":"경기도 안산시 단원구 신길동 1615번지 1층 103호","indutype":"일반휴게음식 - 일반한식","category":"restaurant"},{"name":"카페꽃피오","tel":"070-4200-3222","addr":"경기도 안산시 단원구 신길동 1615번지 203호","indutype":"일반휴게음식 - 서양음식","category":"restaurant"},{"name":"힐링","tel":"031-495-1525","addr":"경기도 안산시 단원구 신길동 1615번지 그린프라자 8층 801호","indutype":"일반휴게음식 - 일반한식","category":"restaurant"}]},{"lat":"37.331894206","long":"126.78758059","imageIndex":4,"items":[{"name":"깐부치킨","tel":"031-493-1213","addr":"경기도 안산시 단원구 신길동 1593번지","indutype":"일반휴게음식 - 스넥","category":"restaurant"}]},{"lat":"37.335755236","long":"126.76196593","imageIndex":4,"items":[{"name":"꼬꼬C","tel":"031-495-6322","addr":"경기도 안산시 단원구 신길동 1422번지 101호","indutype":"일반휴게음식 - 일반한식","category":"restaurant"}]},{"lat":"37.33158741","long":"126.78733323","imageIndex":4,"items":[{"name":"꼬지사께 (안산신길점)","tel":"","addr":"경기도 안산시 단원구 신길동 1595번지 102호","indutype":"일반휴게음식 - 주점","category":"restaurant"},{"name":"달에서온산오징어(신길본점)","tel":"031-493-7284","addr":"경기도 안산시 단원구 신길동 1595번지 1층 102호","indutype":"일반휴게음식 - 일반한식","category":"restaurant"}]},{"lat":"37.33855555","long":"126.78914141","imageIndex":4,"items":[{"name":"꾼떡신길1호점","tel":"031-493-9204","addr":"경기도 안산시 단원구 신길동 1561 휴먼시아5단지 104","indutype":"일반휴게음식 - 주점","category":"restaurant"},{"name":"맛짱","tel":"031-491-5855","addr":"경기도 안산시 단원구 신길동 1561번지 휴먼시아 상가 103호","indutype":"일반휴게음식 - 스넥","category":"restaurant"},{"name":"이탈리안피자","tel":"031-491-8933","addr":"경기도 안산시 단원구 신길동 1561번지 휴먼시아 상가동 101호","indutype":"일반휴게음식 - 서양음식","category":"restaurant"}]},{"lat":"37.332506237","long":"126.78721777","imageIndex":4,"items":[{"name":"낭만닭발 신길점","tel":"031-493-2886","addr":"경기도 안산시 단원구 신길동 1662번지 102호","indutype":"일반휴게음식 - 일반한식","category":"restaurant"},{"name":"돈대박집","tel":"070-7862-1697","addr":"경기도 안산시 단원구 신길동 1662번지 1층","indutype":"일반휴게음식 - 일반한식","category":"restaurant"},{"name":"알마루","tel":"031-493-2886","addr":"경기도 안산시 단원구 신길동 1662번지 102호","indutype":"일반휴게음식 - 일반한식","category":"restaurant"},{"name":"전라양푼찌개","tel":"031-495-6388","addr":"경기도 안산시 단원구 신길동 1662번지 101호","indutype":"일반휴게음식 - 일반한식","category":"restaurant"}]},{"lat":"37.336834377","long":"126.7609469","imageIndex":4,"items":[{"name":"낮에밥밤술포차","tel":"","addr":"경기도 안산시 단원구 신길동 1395-5번지 1층 일부","indutype":"일반휴게음식 - 일반한식","category":"restaurant"}]},{"lat":"37.332683902","long":"126.78582937","imageIndex":4,"items":[{"name":"네네치킨","tel":"031-508-0202","addr":"경기도 안산시 단원구 신길동 1684번지 휴먼시아 102호","indutype":"일반휴게음식 - 스넥","category":"restaurant"}]},{"lat":"37.332480008","long":"126.7876579","imageIndex":4,"items":[{"name":"노가리앤비어","tel":"070-4649-1101","addr":"경기도 안산시 단원구 신길동 1666번지 1층","indutype":"일반휴게음식 - 주점","category":"restaurant"}]},{"lat":"37.330423518","long":"126.78646774","imageIndex":4,"items":[{"name":"노랑통닭","tel":"031-0000-0000","addr":"경기도 안산시 단원구 신길동 1616번지 108,109호","indutype":"일반휴게음식 - 스넥","category":"restaurant"},{"name":"맘스터치 안산신길점","tel":"031-494-9295","addr":"경기도 안산시 단원구 신길동 1616번지 삼익리베리움 1층 102,103호","indutype":"일반휴게음식 - 서양음식","category":"restaurant"}]},{"lat":"37.330143502","long":"126.78608491","imageIndex":4,"items":[{"name":"놀부골 게르마늄돌판구이","tel":"031-505-7007","addr":"경기도 안산시 단원구 신길동 1625번지 위너스타워 103호","indutype":"일반휴게음식 - 일반한식","category":"restaurant"},{"name":"닭사부(신길점)","tel":"031-494-9233","addr":"경기도 안산시 단원구 신길동 1625번지 위너스타워 112호","indutype":"일반휴게음식 - 스넥","category":"restaurant"},{"name":"닭사부(신길점)","tel":"031-494-9233","addr":"경기도 안산시 단원구 신길동 1625번지 위너스타워 112호","indutype":"일반휴게음식 - 스넥","category":"restaurant"},{"name":"동경야시장","tel":"031-493-4680","addr":"경기도 안산시 단원구 신길동 1625번지 위너스타워 1층 104호","indutype":"일반휴게음식 - 주점","category":"restaurant"},{"name":"만취","tel":"031-111-1111","addr":"경기도 안산시 단원구 신길동 1625번지 102호","indutype":"일반휴게음식 - 일반한식","category":"restaurant"},{"name":"베트남쌀국수","tel":"","addr":"경기도 안산시 단원구 신길동 1625번지 위너스타워 1층 117호","indutype":"일반휴게음식 - 서양음식","category":"restaurant"},{"name":"비비큐(신길거모점)","tel":"031-494-9285","addr":"경기도 안산시 단원구 신길동 1625번지 105호","indutype":"일반휴게음식 - 스넥","category":"restaurant"},{"name":"오븐마루 치킨호프 안산신길점","tel":"031-495-3337","addr":"경기도 안산시 단원구 신길동 1625번지 위너스타워 101호","indutype":"일반휴게음식 - 일반한식","category":"restaurant"},{"name":"큰맘할매순대(안산역점)","tel":"031-495-0275","addr":"경기도 안산시 단원구 신길동 1625번지 위너스타워 1층 118호","indutype":"일반휴게음식 - 일반한식","category":"restaurant"},{"name":"테스트인디아","tel":"031-494-4292","addr":"경기도 안산시 단원구 신길동 1625번지 위너스타워 113호","indutype":"일반휴게음식 - 일반한식","category":"restaurant"}]},{"lat":"37.323200941","long":"126.77871499","imageIndex":4,"items":[{"name":"늘한식부페","tel":"031-301-8399","addr":"경기도 안산시 단원구 신길동 1123번지 1층 1028,1929,1030호","indutype":"일반휴게음식 - 일반한식","category":"restaurant"},{"name":"디지털파크식당","tel":"031-310-8565","addr":"경기도 안산시 단원구 신길동 1123번지 안산디지털파크 1층 1041호","indutype":"일반휴게음식 - 일반한식","category":"restaurant"},{"name":"선경반점","tel":"031-310-1995","addr":"경기도 안산시 단원구 신길동 1123번지 안산디지털파크 1001호","indutype":"일반휴게음식 - 중국식","category":"restaurant"},{"name":"아름푸드","tel":"031-310-8989","addr":"경기도 안산시 단원구 신길동 1123번지 지하 101-2호","indutype":"일반휴게음식 - 일반한식","category":"restaurant"},{"name":"용암골순대국","tel":"031-310-8399","addr":"경기도 안산시 단원구 신길동 1123번지 안산디지털파크 1028,1029,1030호","indutype":"일반휴게음식 - 일반한식","category":"restaurant"},{"name":"커피노커스(안산디지털파크점)","tel":"031-310-8963","addr":"경기도 안산시 단원구 신길동 1123번지 안산디지털파크 1007호","indutype":"일반휴게음식 - 서양음식","category":"restaurant"},{"name":"커피앤","tel":"031-310-8783","addr":"경기도 안산시 단원구 신길동 1123번지 B112호","indutype":"일반휴게음식 - 일반한식","category":"restaurant"},{"name":"포크돈까스","tel":"031-310-8579","addr":"경기도 안산시 단원구 신길동 1123번지 안산디지털파크 1011호","indutype":"일반휴게음식 - 일반한식","category":"restaurant"},{"name":"한정식부페","tel":"031-310-1828","addr":"경기도 안산시 단원구 신길동 1123번지 안산디지털파크 공장동 1010호","indutype":"일반휴게음식 - 일반한식","category":"restaurant"}]},{"lat":"37.332391034","long":"126.78827875","imageIndex":4,"items":[{"name":"달동네","tel":"031-493-5810","addr":"경기도 안산시 단원구 신길동 1590번지 1층","indutype":"일반휴게음식 - 주점","category":"restaurant"}]},{"lat":"37.337142585","long":"126.76185994","imageIndex":4,"items":[{"name":"대박삼겹살앤두루치기","tel":"031-493-3395","addr":"경기도 안산시 단원구 신길동 1403-9번지 1층","indutype":"일반휴게음식 - 일반한식","category":"restaurant"}]},{"lat":"37.336636355","long":"126.78912428","imageIndex":4,"items":[{"name":"대월떡볶이","tel":"031-493-3688","addr":"경기도 안산시 단원구 신길동 1563번지 휴먼시아 상가 101호","indutype":"일반휴게음식 - 스넥","category":"restaurant"},{"name":"대월떡볶이","tel":"031-493-3688","addr":"경기도 안산시 단원구 신길동 1563번지 휴먼시아 101호","indutype":"일반휴게음식 - 일반한식","category":"restaurant"}]},{"lat":"37.330478341","long":"126.78688506","imageIndex":4,"items":[{"name":"동네전집","tel":"031-494-7679","addr":"경기도 안산시 단원구 신길동 1614번지 1동 105호","indutype":"일반휴게음식 - 일반한식","category":"restaurant"},{"name":"또봉이치킨 (신길휴먼시아점)","tel":"031-492-7005","addr":"경기도 안산시 단원구 신길동 1614번지 신우프라자 101호","indutype":"일반휴게음식 - 일반한식","category":"restaurant"},{"name":"카페리빈","tel":"031-492-9977","addr":"경기도 안산시 단원구 신길동 1614번지 104호","indutype":"일반휴게음식 - 서양음식","category":"restaurant"},{"name":"행복한밥상","tel":"070-6524-6868","addr":"경기도 안산시 단원구 신길동 1614번지 103호","indutype":"일반휴게음식 - 일반한식","category":"restaurant"},{"name":"홍춘천","tel":"031-491-9293","addr":"경기도 안산시 단원구 신길동 1614번지 102호","indutype":"일반휴게음식 - 일반한식","category":"restaurant"}]},{"lat":"37.328646122","long":"126.76192093","imageIndex":4,"items":[{"name":"동해복집","tel":"031-492-0011","addr":"경기도 안산시 단원구 신길동 332-9,332-201,2층","indutype":"일반휴게음식 - 일반한식","category":"restaurant"}]},{"lat":"37.332722131","long":"126.78702533","imageIndex":4,"items":[{"name":"두리아","tel":"031-491-9282","addr":"경기도 안산시 단원구 신길동 1655번지 1층","indutype":"일반휴게음식 - 일반한식","category":"restaurant"},{"name":"부산뒷고기","tel":"031-498-5025","addr":"경기도 안산시 단원구 신길동 1655번지 1층 102호","indutype":"일반휴게음식 - 일반한식","category":"restaurant"},{"name":"웅자네오돌뼈","tel":"031-491-9282","addr":"경기도 안산시 단원구 신길동 1655번지 1층","indutype":"일반휴게음식 - 일반한식","category":"restaurant"},{"name":"한우곱창","tel":"031-493-8767","addr":"경기도 안산시 단원구 신길동 1655번지 1층 102호","indutype":"일반휴게음식 - 일반한식","category":"restaurant"}]},{"lat":"37.332588294","long":"126.78774786","imageIndex":4,"items":[{"name":"두리유통","tel":"031-313-5900","addr":"경기도 안산시 단원구 신길동 1665번지 101호","indutype":"일반휴게음식 - 서양음식","category":"restaurant"},{"name":"피자파는집 안산신길점","tel":"031-313-5900","addr":"경기도 안산시 단원구 신길동 1665번지 101호","indutype":"일반휴게음식 - 서양음식","category":"restaurant"}]},{"lat":"37.339167694","long":"126.7839149","imageIndex":4,"items":[{"name":"또봉이통닭(안산신길점)","tel":"031-493-1630","addr":"경기도 안산시 단원구 신길동 3-7번지 1층","indutype":"일반휴게음식 - 스넥","category":"restaurant"},{"name":"시골식당","tel":"031-493-5743","addr":"경기도 안산시 단원구 신길동 3-7번지","indutype":"일반휴게음식 - 일반한식","category":"restaurant"}]},{"lat":"37.335005326","long":"126.75658586","imageIndex":4,"items":[{"name":"띵호아청춘부대찌개","tel":"031-495-7080","addr":"경기도 안산시 단원구 신길동 249-4번지","indutype":"일반휴게음식 - 일반한식","category":"restaurant"}]},{"lat":"37.331423394","long":"126.78632947","imageIndex":4,"items":[{"name":"라라감자탕","tel":"031-494-0926","addr":"경기도 안산시 단원구 신길동 1633번지 1층 101호","indutype":"일반휴게음식 - 일반한식","category":"restaurant"},{"name":"이디야안산신길점","tel":"031-491-4343","addr":"경기도 안산시 단원구 신길동 1633번지 메디프라자 103호","indutype":"일반휴게음식 - 서양음식","category":"restaurant"}]},{"lat":"37.336609908","long":"126.76133128","imageIndex":4,"items":[{"name":"만두박사","tel":"031-491-8595","addr":"경기도 안산시 단원구 신길동 1396번지 102호","indutype":"일반휴게음식 - 스넥","category":"restaurant"},{"name":"신길회실내포장마차","tel":"031-491-1006","addr":"경기도 안산시 단원구 신길동 1396번지 1층","indutype":"일반휴게음식 - 일반한식","category":"restaurant"}]},{"lat":"37.326979689","long":"126.75344159","imageIndex":4,"items":[{"name":"만해가든","tel":"031-495-7070","addr":"경기도 안산시 단원구 신길동 297-6번지 에이,시동 1층","indutype":"일반휴게음식 - 일반한식","category":"restaurant"}]},{"lat":"37.327475198","long":"126.75341739","imageIndex":4,"items":[{"name":"만해부대찌개","tel":"031-493-2265","addr":"경기도 안산시 단원구 신길동 295-1번지 1,2층","indutype":"일반휴게음식 - 일반한식","category":"restaurant"}]},{"lat":"37.32830535","long":"126.74974767","imageIndex":4,"items":[{"name":"만해식당","tel":"031-494-3338","addr":"경기도 안산시 단원구 신길동 283-2번지","indutype":"일반휴게음식 - 위탁급식업","category":"restaurant"}]},{"lat":"37.326834122","long":"126.75277639","imageIndex":4,"items":[{"name":"만해추어탕","tel":"031-492-7070","addr":"경기도 안산시 단원구 신길동 294-2번지 1층","indutype":"일반휴게음식 - 일반한식","category":"restaurant"}]},{"lat":"37.326474528","long":"126.75316119","imageIndex":4,"items":[{"name":"만해통통이두루치기","tel":"031-493-3660","addr":"경기도 안산시 단원구 신길동 291-3번지","indutype":"일반휴게음식 - 일반한식","category":"restaurant"}]},{"lat":"37.331168199","long":"126.75286357","imageIndex":4,"items":[{"name":"메이챤","tel":"031-495-9970","addr":"경기도 안산시 단원구 신길동 271번지 1층","indutype":"일반휴게음식 - 중국식","category":"restaurant"}]},{"lat":"37.33256237","long":"126.78835725","imageIndex":4,"items":[{"name":"명문닭발","tel":"031-111-1111","addr":"경기도 안산시 단원구 신길동 1591번지 1층","indutype":"일반휴게음식 - 일반한식","category":"restaurant"}]},{"lat":"37.337612029","long":"126.76230981","imageIndex":4,"items":[{"name":"명인","tel":"031-494-8281","addr":"경기도 안산시 단원구 신길동 1403번지","indutype":"일반휴게음식 - 중국식","category":"restaurant"}]},{"lat":"37.336615023","long":"126.77294274","imageIndex":4,"items":[{"name":"무수골토종순대국","tel":"031-491-0234","addr":"경기도 안산시 단원구 신길동 643번지 1층","indutype":"일반휴게음식 - 일식·회집","category":"restaurant"},{"name":"유가네한우곰탕","tel":"031-491-0234","addr":"경기도 안산시 단원구 신길동 643번지 201호","indutype":"일반휴게음식 - 일반한식","category":"restaurant"}]},{"lat":"37.33081151","long":"126.78677128","imageIndex":4,"items":[{"name":"무한리필생고기 더떠블","tel":"031-495-7728","addr":"경기도 안산시 단원구 신길동 1612번지 한중빌딩 107호","indutype":"일반휴게음식 - 일반한식","category":"restaurant"},{"name":"본스치킨 신길거모점/(주)비디씨푸드 (BDC)","tel":"031-494-7898","addr":"경기도 안산시 단원구 신길동 1612번지 103호","indutype":"일반휴게음식 - 스넥","category":"restaurant"},{"name":"스테이","tel":"031-491-1388","addr":"경기도 안산시 단원구 신길동 1612번지 한중빌딩 201호","indutype":"일반휴게음식 - 일반한식","category":"restaurant"},{"name":"토마토김밥","tel":"031-491-8383","addr":"경기도 안산시 단원구 신길동 1612번지 한중빌딩 105호","indutype":"일반휴게음식 - 일반한식","category":"restaurant"},{"name":"펀비어킹 안산신길점","tel":"031-495-8864","addr":"경기도 안산시 단원구 신길동 1612번지 101-102호","indutype":"일반휴게음식 - 일반한식","category":"restaurant"}]},{"lat":"37.33172145","long":"126.78672354","imageIndex":4,"items":[{"name":"문숙이네연탄구이","tel":"031-493-6514","addr":"경기도 안산시 단원구 신길동 1641번지 101호","indutype":"일반휴게음식 - 일반한식","category":"restaurant"},{"name":"최가네 춘천 닭갈비","tel":"","addr":"경기도 안산시 단원구 신길동 1641번지 101호","indutype":"일반휴게음식 - 일반한식","category":"restaurant"}]},{"lat":"37.337338319","long":"126.7606406","imageIndex":4,"items":[{"name":"미가구이","tel":"031-508-5832","addr":"경기도 안산시 단원구 신길동 1387-7번지","indutype":"일반휴게음식 - 일반한식","category":"restaurant"}]},{"lat":"37.336391871","long":"126.77402671","imageIndex":4,"items":[{"name":"미가밥상","tel":"031-493-5377","addr":"경기도 안산시 단원구 신길동 658-9번지","indutype":"일반휴게음식 - 일반한식","category":"restaurant"},{"name":"요거프레소안산신길점","tel":"031-494-7161","addr":"경기도 안산시 단원구 신길동 658-9번지 101호","indutype":"일반휴게음식 - 서양음식","category":"restaurant"}]},{"lat":"37.330920661","long":"126.78733513","imageIndex":4,"items":[{"name":"바나나리프(BANANA LEAF)","tel":"070-8112-1128","addr":"경기도 안산시 단원구 신길동 1611번지 1층 101호","indutype":"일반휴게음식 - 서양음식","category":"restaurant"}]},{"lat":"37.332307974","long":"126.78719577","imageIndex":4,"items":[{"name":"바다포차","tel":"070-7614-3579","addr":"경기도 안산시 단원구 신길동 1661번지","indutype":"일반휴게음식 - 일식·회집","category":"restaurant"}]},{"lat":"37.336581781","long":"126.77438723","imageIndex":4,"items":[{"name":"바보스","tel":"031-414-5560","addr":"경기도 안산시 단원구 신길동 658-1번지 101호","indutype":"일반휴게음식 - 주점","category":"restaurant"},{"name":"신겁없는닭발(신길점)","tel":"031-508-0092","addr":"경기도 안산시 단원구 신길동 658-1번지 1층","indutype":"일반휴게음식 - 일반한식","category":"restaurant"}]},{"lat":"37.337418161","long":"126.76003099","imageIndex":4,"items":[{"name":"백년교동짬뽕","tel":"031-493-0022","addr":"경기도 안산시 단원구 신길동 1394-2번지 1층","indutype":"일반휴게음식 - 중국식","category":"restaurant"},{"name":"백년교동짬뽕","tel":"031-493-0022","addr":"경기도 안산시 단원구 신길동 1394-2번지 1층","indutype":"일반휴게음식 - 중국식","category":"restaurant"},{"name":"수산시장","tel":"031-494-4440","addr":"경기도 안산시 단원구 신길동 1394-2번지 1층","indutype":"일반휴게음식 - 일반한식","category":"restaurant"}]},{"lat":"37.332228647","long":"126.78816638","imageIndex":4,"items":[{"name":"백마강꼬치(2호점)","tel":"031-494-9868","addr":"경기도 안산시 단원구 신길동 1589번지 1층","indutype":"일반휴게음식 - 중국식","category":"restaurant"},{"name":"백마강꼬치(2호점)","tel":"031-494-9868","addr":"경기도 안산시 단원구 신길동 1589번지","indutype":"일반휴게음식 - 중국식","category":"restaurant"}]},{"lat":"37.335891421","long":"126.76247328","imageIndex":4,"items":[{"name":"별미식당","tel":"031-494-9609","addr":"경기도 안산시 단원구 신길동 1397-2번지","indutype":"일반휴게음식 - 일반한식","category":"restaurant"}]},{"lat":"37.337277967","long":"126.76197235","imageIndex":4,"items":[{"name":"봄비식당","tel":"031-495-0676","addr":"경기도 안산시 단원구 신길동 1403-10번지 1층","indutype":"일반휴게음식 - 일반한식","category":"restaurant"},{"name":"봄비식당","tel":"031-495-0676","addr":"경기도 안산시 단원구 신길동 1403-10번지","indutype":"일반휴게음식 - 일반한식","category":"restaurant"}]},{"lat":"37.33680428","long":"126.77296473","imageIndex":4,"items":[{"name":"봉 교동반점","tel":"031-495-2582","addr":"경기도 안산시 단원구 신길동 640-2번지 1층 101호","indutype":"일반휴게음식 - 중국식","category":"restaurant"}]},{"lat":"37.336026114","long":"126.76224717","imageIndex":4,"items":[{"name":"블루","tel":"031-493-6670","addr":"경기도 안산시 단원구 신길동 1397번지 1층","indutype":"일반휴게음식 - 주점","category":"restaurant"},{"name":"블루","tel":"031-493-6770","addr":"경기도 안산시 단원구 신길동 1397번지","indutype":"일반휴게음식 - 주점","category":"restaurant"},{"name":"양지촌양꼬치","tel":"031-318-4252","addr":"경기도 안산시 단원구 신길동 1397번지 1층","indutype":"일반휴게음식 - 일반한식","category":"restaurant"}]},{"lat":"37.336888514","long":"126.77930624","imageIndex":4,"items":[{"name":"비바식당","tel":"031-495-0980","addr":"경기도 안산시 단원구 신길동 1483번지 3층 일부","indutype":"일반휴게음식 - 일반한식","category":"restaurant"}]},{"lat":"37.337895993","long":"126.78813897","imageIndex":4,"items":[{"name":"비비큐(BBQ)올리브떡볶이","tel":"031-494-6777","addr":"경기도 안산시 단원구 신길동 1545번지 103호","indutype":"일반휴게음식 - 스넥","category":"restaurant"},{"name":"오케이떡볶이","tel":"031-493-4456","addr":"경기도 안산시 단원구 신길동 1545번지 101호","indutype":"일반휴게음식 - 일반한식","category":"restaurant"},{"name":"치킨매니아 신길1호점","tel":"031-495-9242","addr":"경기도 안산시 단원구 신길동 1545번지 107호","indutype":"일반휴게음식 - 스넥","category":"restaurant"},{"name":"치킨매니아신길1호점","tel":"031-495-9242","addr":"경기도 안산시 단원구 신길동 1545번지 107호","indutype":"일반휴게음식 - 주점","category":"restaurant"}]},{"lat":"37.336033607","long":"126.76150239","imageIndex":4,"items":[{"name":"비어사랑","tel":"031-495-7042","addr":"경기도 안산시 단원구 신길동 1423-4번지 1층","indutype":"일반휴게음식 - 주점","category":"restaurant"}]},{"lat":"37.334278238","long":"126.78557654","imageIndex":4,"items":[{"name":"삼겹본능 신길점","tel":"031-495-3889","addr":"경기도 안산시 단원구 신길동 1679번지 안산아이파크 104호","indutype":"일반휴게음식 - 일반한식","category":"restaurant"}]},{"lat":"37.331118225","long":"126.7869735","imageIndex":4,"items":[{"name":"삼곱식당","tel":"031-493-3292","addr":"경기도 안산시 단원구 신길동 1609번지 1층 102호","indutype":"일반휴게음식 - 일반한식","category":"restaurant"},{"name":"삼곱식당","tel":"031-493-3292","addr":"경기도 안산시 단원구 신길동 1609번지 102호","indutype":"일반휴게음식 - 일반한식","category":"restaurant"}]},{"lat":"37.336562408","long":"126.77368766","imageIndex":4,"items":[{"name":"새뿔제주조릿대감자탕","tel":"031-494-7004","addr":"경기도 안산시 단원구 신길동 656-1번지 새뿔프라자 201,202,203호","indutype":"일반휴게음식 - 일반한식","category":"restaurant"}]},{"lat":"37.331586092","long":"126.78661109","imageIndex":4,"items":[{"name":"새장터순대국소머리곰탕","tel":"031-495-8728","addr":"경기도 안산시 단원구 신길동 1642번지 101호","indutype":"일반휴게음식 - 일반한식","category":"restaurant"}]},{"lat":"37.339113069","long":"126.78361037","imageIndex":4,"items":[{"name":"새집왕생고기","tel":"031-492-0052","addr":"경기도 안산시 단원구 신길동 3-14번지 1층","indutype":"일반휴게음식 - 일반한식","category":"restaurant"}]},{"lat":"37.337723333","long":"126.77297322","imageIndex":4,"items":[{"name":"샛뿔추어탕","tel":"031-494-1341","addr":"경기도 안산시 단원구 신길동 627-9번지 1층","indutype":"일반휴게음식 - 일반한식","category":"restaurant"}]},{"lat":"37.337777985","long":"126.77327773","imageIndex":4,"items":[{"name":"샛뿔추어탕","tel":"031-494-1341","addr":"경기도 안산시 단원구 신길동 159-2번지","indutype":"일반휴게음식 - 일반한식","category":"restaurant"}]},{"lat":"37.331119171","long":"126.78749253","imageIndex":4,"items":[{"name":"서봉삼계탕","tel":"031-491-7077","addr":"경기도 안산시 단원구 신길동 1603번지 1층","indutype":"일반휴게음식 - 일반한식","category":"restaurant"},{"name":"원조국수앤동동주","tel":"031-491-7077","addr":"경기도 안산시 단원구 신길동 1603번지 1층","indutype":"일반휴게음식 - 일반한식","category":"restaurant"}]},{"lat":"37.32280754","long":"126.78032951","imageIndex":4,"items":[{"name":"성원","tel":"031-495-5334","addr":"경기도 안산시 단원구 신길동 1125-4번지 구내식당","indutype":"일반휴게음식 - 위탁급식업","category":"restaurant"}]},{"lat":"37.339527535","long":"126.78360917","imageIndex":4,"items":[{"name":"수다방","tel":"031-494-4741","addr":"경기도 안산시 단원구 신길동 2-7번지","indutype":"일반휴게음식 - 서양음식","category":"restaurant"}]},{"lat":"37.33158669","long":"126.78693831","imageIndex":4,"items":[{"name":"신길두루치기","tel":"031-493-3233","addr":"경기도 안산시 단원구 신길동 1649번지 1층","indutype":"일반휴게음식 - 일반한식","category":"restaurant"}]},{"lat":"37.335889951","long":"126.7617511","imageIndex":4,"items":[{"name":"신길반점","tel":"031-495-0850","addr":"경기도 안산시 단원구 신길동 1423-6번지 1층","indutype":"일반휴게음식 - 중국식","category":"restaurant"},{"name":"신통치킨","tel":"031-494-0997","addr":"경기도 안산시 단원구 신길동 1423-6번지","indutype":"일반휴게음식 - 스넥","category":"restaurant"},{"name":"일품향","tel":"031-495-0851","addr":"경기도 안산시 단원구 신길동 1423-6번지","indutype":"일반휴게음식 - 중국식","category":"restaurant"},{"name":"일품향","tel":"031-495-0851","addr":"경기도 안산시 단원구 신길동 1423-6번지","indutype":"일반휴게음식 - 중국식","category":"restaurant"}]},{"lat":"37.329087388","long":"126.76180669","imageIndex":4,"items":[{"name":"신길복집","tel":"031-492-6995","addr":"경기도 안산시 단원구 신길동 332-2번지","indutype":"일반휴게음식 - 일반한식","category":"restaurant"}]},{"lat":"37.332279498","long":"126.75863709","imageIndex":4,"items":[{"name":"신길장어","tel":"031-492-0275","addr":"경기도 안산시 단원구 신길동 236 1,2층","indutype":"일반휴게음식 - 일반한식","category":"restaurant"}]},{"lat":"37.332867813","long":"126.7878599","imageIndex":4,"items":[{"name":"신마약포차","tel":"031-111-1111","addr":"경기도 안산시 단원구 신길동 1663번지 101호","indutype":"일반휴게음식 - 일반한식","category":"restaurant"}]},{"lat":"37.339392383","long":"126.78360956","imageIndex":4,"items":[{"name":"신촌정육식당","tel":"031-495-3989","addr":"경기도 안산시 단원구 신길동 3-3번지 1층 일부","indutype":"일반휴게음식 - 일반한식","category":"restaurant"},{"name":"한방족발","tel":"031-508-4497","addr":"경기도 안산시 단원구 신길동 3-3번지","indutype":"일반휴게음식 - 일반한식","category":"restaurant"}]},{"lat":"37.337471269","long":"126.77308683","imageIndex":4,"items":[{"name":"아구가 좋아","tel":"031-493-1149","addr":"경기도 안산시 단원구 신길동 630-2번지 1층 101호","indutype":"일반휴게음식 - 일반한식","category":"restaurant"}]},{"lat":"37.331865798","long":"126.78682467","imageIndex":4,"items":[{"name":"아구랑뼈다귀랑","tel":"031-493-1191","addr":"경기도 안산시 단원구 신길동 1640번지 1층","indutype":"일반휴게음식 - 일반한식","category":"restaurant"}]},{"lat":"37.325005446","long":"126.7848586","imageIndex":4,"items":[{"name":"아띠식당","tel":"031-507-3830","addr":"경기도 안산시 단원구 신길동 1228-1번지 130동 1호 정우벤처타운2","indutype":"일반휴게음식 - 일반한식","category":"restaurant"},{"name":"아띠식당","tel":"031-507-3830","addr":"경기도 안산시 단원구 신길동 1228-1번지 103-1호","indutype":"일반휴게음식 - 일반한식","category":"restaurant"},{"name":"정우벤처ll구내식당매점","tel":"031-495-7880","addr":"경기도 안산시 단원구 신길동 1228-1정우벤처타운ll801-801-1","indutype":"일반휴게음식 - 일반한식","category":"restaurant"},{"name":"정우부페식당","tel":"031-431-0681","addr":"경기도 안산시 단원구 신길동 1228-1번지 정우벤처타운2제1층117호~118호","indutype":"일반휴게음식 - 위탁급식업","category":"restaurant"}]},{"lat":"37.331200016","long":"126.7873569","imageIndex":4,"items":[{"name":"야들야들한족발","tel":"031-493-4936","addr":"경기도 안산시 단원구 신길동 1604번지 101호","indutype":"일반휴게음식 - 일반한식","category":"restaurant"}]},{"lat":"37.331035608","long":"126.78613876","imageIndex":4,"items":[{"name":"얌샘김밥 안산 e-트레이더스점","tel":"031-503-1612","addr":"경기도 안산시 단원구 신길동 1629번지 110호","indutype":"일반휴게음식 - 일반한식","category":"restaurant"},{"name":"옥이네양평해장국","tel":"031-503-1612","addr":"경기도 안산시 단원구 신길동 1629번지 109호","indutype":"일반휴게음식 - 일반한식","category":"restaurant"},{"name":"을지로 빈대떡","tel":"031-508-1211","addr":"경기도 안산시 단원구 신길동 1629번지 태인오피스텔 1층 106호","indutype":"일반휴게음식 - 일반한식","category":"restaurant"},{"name":"이솝가드닝","tel":"031-494-9692","addr":"경기도 안산시 단원구 신길동 1629번지 태인오피스텔 112,113호","indutype":"일반휴게음식 - 일반한식","category":"restaurant"},{"name":"일품양평해장국","tel":"031-508-5967","addr":"경기도 안산시 단원구 신길동 1629번지 태인오피스텔 102호","indutype":"일반휴게음식 - 일반한식","category":"restaurant"},{"name":"치칵치칵","tel":"031-493-7978","addr":"경기도 안산시 단원구 신길동 1629번지 104,105호","indutype":"일반휴게음식 - 일반한식","category":"restaurant"},{"name":"풍광양고기참숯화로구이전문점","tel":"070-8181-5948","addr":"경기도 안산시 단원구 신길동 1629번지 101호","indutype":"일반휴게음식 - 중국식","category":"restaurant"},{"name":"풍광쟈창차이","tel":"070-8116-5948","addr":"경기도 안산시 단원구 신길동 1629번지 태인오피스텔 115호","indutype":"일반휴게음식 - 중국식","category":"restaurant"}]},{"lat":"37.335810559","long":"126.76258638","imageIndex":4,"items":[{"name":"엄마손밥상","tel":"031-495-5988","addr":"경기도 안산시 단원구 신길동 1397-3번지 103호","indutype":"일반휴게음식 - 일반한식","category":"restaurant"}]},{"lat":"37.324118297","long":"126.75100278","imageIndex":4,"items":[{"name":"엄마손식당","tel":"031-491-4975","addr":"경기도 안산시 단원구 신길동 1070-6번지","indutype":"일반휴게음식 - 일반한식","category":"restaurant"}]},{"lat":"37.331479679","long":"126.78754792","imageIndex":4,"items":[{"name":"엄청난속초생선찜","tel":"031-413-2348","addr":"경기도 안산시 단원구 신길동 1606번지 101호","indutype":"일반휴게음식 - 일반한식","category":"restaurant"}]},{"lat":"37.332723548","long":"126.7878039","imageIndex":4,"items":[{"name":"역전할머니맥주","tel":"031-111-1111","addr":"경기도 안산시 단원구 신길동 1664번지","indutype":"일반휴게음식 - 일반한식","category":"restaurant"}]},{"lat":"37.336029786","long":"126.78263761","imageIndex":4,"items":[{"name":"연이네포차","tel":"031-000-0000","addr":"경기도 안산시 단원구 신길동 1518번지 상가동 103,104호","indutype":"일반휴게음식 - 일반한식","category":"restaurant"}]},{"lat":"37.336978192","long":"126.76077717","imageIndex":4,"items":[{"name":"옛날통닭","tel":"031-1111-1111","addr":"경기도 안산시 단원구 신길동 1395-3번지 102호","indutype":"일반휴게음식 - 스넥","category":"restaurant"}]},{"lat":"37.336780547","long":"126.76105991","imageIndex":4,"items":[{"name":"옛이야기","tel":"031-491-4513","addr":"경기도 안산시 단원구 신길동 1395-6번지 3층","indutype":"일반휴게음식 - 주점","category":"restaurant"}]},{"lat":"37.336696706","long":"126.77324717","imageIndex":4,"items":[{"name":"오뎅사께","tel":"031-494-2080","addr":"경기도 안산시 단원구 신길동 655-1번지 1층 101호","indutype":"일반휴게음식 - 주점","category":"restaurant"},{"name":"퇘랑숯돌생고기","tel":"031-508-3395","addr":"경기도 안산시 단원구 신길동 655-1번지 1층 102호","indutype":"일반휴게음식 - 일반한식","category":"restaurant"}]},{"lat":"37.331478363","long":"126.78682578","imageIndex":4,"items":[{"name":"오땅비어(신길점)","tel":"031-714-4686","addr":"경기도 안산시 단원구 신길동 1650번지 102호","indutype":"일반휴게음식 - 주점","category":"restaurant"},{"name":"요거프레소 (신길지구점)","tel":"031-495-5515","addr":"경기도 안산시 단원구 신길동 1650번지","indutype":"일반휴게음식 - 일반한식","category":"restaurant"}]},{"lat":"37.337395328","long":"126.76208482","imageIndex":4,"items":[{"name":"오리맘","tel":"031-494-9855","addr":"경기도 안산시 단원구 신길동 1403-11번지 1층","indutype":"일반휴게음식 - 일반한식","category":"restaurant"}]},{"lat":"37.332336359","long":"126.7879404","imageIndex":4,"items":[{"name":"용팔이네","tel":"031-495-9822","addr":"경기도 안산시 단원구 신길동 1580번지","indutype":"일반휴게음식 - 일반한식","category":"restaurant"}]},{"lat":"37.331389845","long":"126.78769486","imageIndex":4,"items":[{"name":"원두막","tel":"031-434-4887","addr":"경기도 안산시 단원구 신길동 1601번지 1층","indutype":"일반휴게음식 - 일반한식","category":"restaurant"}]},{"lat":"37.339644519","long":"126.78352983","imageIndex":4,"items":[{"name":"유림호프커피","tel":"031-494-5009","addr":"경기도 안산시 단원구 신길동 2-6번지 황토참숯개발 G동 1층","indutype":"일반휴게음식 - 주점","category":"restaurant"}]},{"lat":"37.336582438","long":"126.78427221","imageIndex":4,"items":[{"name":"육해공포차앤(&)치킨","tel":"031-000-0000","addr":"경기도 안산시 단원구 신길동 1529번지 101, 102","indutype":"일반휴게음식 - 일반한식","category":"restaurant"}]},{"lat":"37.331669548","long":"126.78790845","imageIndex":4,"items":[{"name":"육회지존신길점","tel":"031-493-9040","addr":"경기도 안산시 단원구 신길동 1599번지 102호","indutype":"일반휴게음식 - 일반한식","category":"restaurant"},{"name":"태실내포차","tel":"031-494-9040","addr":"경기도 안산시 단원구 신길동 1599번지 1층","indutype":"일반휴게음식 - 주점","category":"restaurant"}]},{"lat":"37.336923658","long":"126.7788322","imageIndex":4,"items":[{"name":"이모네컵밥","tel":"031-495-6311","addr":"경기도 안산시 단원구 신길동 727번지 삼익빌딩 103호","indutype":"일반휴게음식 - 일반한식","category":"restaurant"},{"name":"쨍하고회뜰날","tel":"031-508-0778","addr":"경기도 안산시 단원구 신길동 727번지 삼익빌딩, 101,102호","indutype":"일반휴게음식 - 일반한식","category":"restaurant"},{"name":"털보 전풍경 빈대떡 신길점","tel":"031-406-7175","addr":"경기도 안산시 단원구 신길동 727번지 삼익빌딩 106호","indutype":"일반휴게음식 - 일반한식","category":"restaurant"}]},{"lat":"37.336359442","long":"126.76222353","imageIndex":4,"items":[{"name":"이향훈제주점","tel":"","addr":"경기도 안산시 단원구 신길동 1401-8번지 1층","indutype":"일반휴게음식 - 중국식","category":"restaurant"}]},{"lat":"37.332643052","long":"126.78813135","imageIndex":4,"items":[{"name":"인생극장","tel":"031-492-7080","addr":"경기도 안산시 단원구 신길동 1578번지 1층","indutype":"일반휴게음식 - 일반한식","category":"restaurant"}]},{"lat":"37.336422283","long":"126.76211049","imageIndex":4,"items":[{"name":"일미얼큰탕","tel":"031-494-9363","addr":"경기도 안산시 단원구 신길동 1401-9번지 1층 102호","indutype":"일반휴게음식 - 일반한식","category":"restaurant"}]},{"lat":"37.331722048","long":"126.78705076","imageIndex":4,"items":[{"name":"장군집","tel":"","addr":"경기도 안산시 단원구 신길동 1648번지 1층 일부(102호)","indutype":"일반휴게음식 - 일반한식","category":"restaurant"},{"name":"진화쿵부마라탕&마라샹궈안산신길점","tel":"","addr":"경기도 안산시 단원구 신길동 1648번지 1층 101호","indutype":"일반휴게음식 - 중국식","category":"restaurant"}]},{"lat":"37.332779026","long":"126.77885579","imageIndex":4,"items":[{"name":"장수촌","tel":"031-495-8666","addr":"경기도 안산시 단원구 신길동 783번지","indutype":"일반휴게음식 - 갈비전문점","category":"restaurant"}]},{"lat":"37.338861455","long":"126.78397221","imageIndex":4,"items":[{"name":"장터소머리순대국밥","tel":"031-495-2027","addr":"경기도 안산시 단원구 신길동 3-9 1층","indutype":"일반휴게음식 - 일반한식","category":"restaurant"},{"name":"카페나루","tel":"070-7405-0531","addr":"경기도 안산시 단원구 신길동 3-9번지 102호","indutype":"일반휴게음식 - 서양음식","category":"restaurant"}]},{"lat":"37.33261477","long":"126.78744313","imageIndex":4,"items":[{"name":"전라도회집","tel":"031-495-9294","addr":"경기도 안산시 단원구 신길동 1659번지 101호","indutype":"일반휴게음식 - 일식·회집","category":"restaurant"}]},{"lat":"37.324751516","long":"126.75647265","imageIndex":4,"items":[{"name":"전주식당","tel":"031-491-9727","addr":"경기도 안산시 단원구 신길동 1056-3번지","indutype":"일반휴게음식 - 위탁급식업","category":"restaurant"}]},{"lat":"37.323424933","long":"126.75547286","imageIndex":4,"items":[{"name":"정광식당","tel":"","addr":"경기도 안산시 단원구 신길동 1058-2번지","indutype":"일반휴게음식 - 위탁급식업","category":"restaurant"}]},{"lat":"37.329614027","long":"126.76380213","imageIndex":4,"items":[{"name":"제이제이부대찌개","tel":"031-508-5556","addr":"경기도 안산시 단원구 신길동 338-7번지 1층","indutype":"일반휴게음식 - 일반한식","category":"restaurant"}]},{"lat":"37.332118452","long":"126.78702705","imageIndex":4,"items":[{"name":"조박사옥돌부대찌개","tel":"031-494-0041","addr":"경기도 안산시 단원구 신길동 1638번지 1층","indutype":"일반휴게음식 - 일반한식","category":"restaurant"}]},{"lat":"37.336447286","long":"126.7842726","imageIndex":4,"items":[{"name":"존슨부대찌개","tel":"031-491-7617","addr":"경기도 안산시 단원구 신길동 1530번지 102호,103호","indutype":"일반휴게음식 - 일반한식","category":"restaurant"}]},{"lat":"37.332976157","long":"126.77827974","imageIndex":4,"items":[{"name":"주식회사 야구장농원","tel":"031-493-5293","addr":"경기도 안산시 단원구 신길동 776-3번지","indutype":"일반휴게음식 - 일반한식","category":"restaurant"}]},{"lat":"37.337367447","long":"126.76166739","imageIndex":4,"items":[{"name":"주전자속의얼음막걸리","tel":"031-508-0116","addr":"경기도 안산시 단원구 신길동 1385-3번지 1층","indutype":"일반휴게음식 - 서양음식","category":"restaurant"}]},{"lat":"37.332478692","long":"126.78693575","imageIndex":4,"items":[{"name":"지브릭","tel":"031-492-0486","addr":"경기도 안산시 단원구 신길동 1657번지 101호","indutype":"일반휴게음식 - 서양음식","category":"restaurant"}]},{"lat":"37.331722768","long":"126.78744568","imageIndex":4,"items":[{"name":"짱 실내포차","tel":"031-492-9869","addr":"경기도 안산시 단원구 신길동 1594번지 101호","indutype":"일반휴게음식 - 일반한식","category":"restaurant"}]},{"lat":"37.331001444","long":"126.78716565","imageIndex":4,"items":[{"name":"짱스넥","tel":"031-493-3943","addr":"경기도 안산시 단원구 신길동 1610번지 103호","indutype":"일반휴게음식 - 스넥","category":"restaurant"},{"name":"하남돼지집 안산신길점","tel":"031-493-3992","addr":"경기도 안산시 단원구 신길동 1610번지 1층","indutype":"일반휴게음식 - 일반한식","category":"restaurant"}]},{"lat":"37.337805339","long":"126.78783454","imageIndex":4,"items":[{"name":"찐하우스(JJIN HOUSE)","tel":"031-492-2231","addr":"경기도 안산시 단원구 신길동 1546번지 주공프라자 102호","indutype":"일반휴게음식 - 일반한식","category":"restaurant"},{"name":"훌랄라숯불바베큐신길2호점","tel":"031-493-9005","addr":"경기도 안산시 단원구 신길동 1546번지 주공프라자 101호","indutype":"일반휴게음식 - 일반한식","category":"restaurant"}]},{"lat":"37.331588006","long":"126.78766045","imageIndex":4,"items":[{"name":"착한남자한우곱창","tel":"031-494-7292","addr":"경기도 안산시 단원구 신길동 1607번지 1층 101호","indutype":"일반휴게음식 - 일반한식","category":"restaurant"}]},{"lat":"37.332001156","long":"126.78693712","imageIndex":4,"items":[{"name":"참치앤사케","tel":"031-494-0413","addr":"경기도 안산시 단원구 신길동 1639번지 1층","indutype":"일반휴게음식 - 일식·회집","category":"restaurant"}]},{"lat":"37.332668625","long":"126.78733014","imageIndex":4,"items":[{"name":"청년장어","tel":"031-498-4407","addr":"경기도 안산시 단원구 신길동 1658번지 101호","indutype":"일반휴게음식 - 일반한식","category":"restaurant"}]},{"lat":"37.330421843","long":"126.78555379","imageIndex":4,"items":[{"name":"촉천하마라샹궈","tel":"031-494-8818","addr":"경기도 안산시 단원구 신길동 1627번지 102호","indutype":"일반휴게음식 - 중국식","category":"restaurant"}]},{"lat":"37.336251803","long":"126.77149947","imageIndex":4,"items":[{"name":"최애곱창","tel":"031-493-2231","addr":"경기도 안산시 단원구 신길동 582-9번지 101호","indutype":"일반휴게음식 - 일반한식","category":"restaurant"},{"name":"홍희통닭","tel":"031-495-9393","addr":"경기도 안산시 단원구 신길동 582-9번지 101호","indutype":"일반휴게음식 - 스넥","category":"restaurant"}]},{"lat":"37.335337594","long":"126.75605442","imageIndex":4,"items":[{"name":"추오정남원추어탕","tel":"031-491-0775","addr":"경기도 안산시 단원구 신길동 253-19번지 1층","indutype":"일반휴게음식 - 일반한식","category":"restaurant"}]},{"lat":"37.331452053","long":"126.78722078","imageIndex":4,"items":[{"name":"치어스(신길점)","tel":"031-494-7759","addr":"경기도 안산시 단원구 신길동 1596번지 101호","indutype":"일반휴게음식 - 서양음식","category":"restaurant"}]},{"lat":"37.332000868","long":"126.78677915","imageIndex":4,"items":[{"name":"칭다오마라탕양꼬치","tel":"031-493-9671","addr":"경기도 안산시 단원구 신길동 1645번지","indutype":"일반휴게음식 - 중국식","category":"restaurant"}]},{"lat":"37.332001773","long":"126.78727563","imageIndex":4,"items":[{"name":"칭다오양꼬치","tel":"031-493-9670","addr":"경기도 안산시 단원구 신길동 1646번지 103호","indutype":"일반휴게음식 - 중국식","category":"restaurant"},{"name":"콩불 (안산신길점)","tel":"031-494-4136","addr":"경기도 안산시 단원구 신길동 1646번지 101호","indutype":"일반휴게음식 - 일반한식","category":"restaurant"}]},{"lat":"37.336529047","long":"126.76144438","imageIndex":4,"items":[{"name":"카스광장","tel":"070-7848-4869","addr":"경기도 안산시 단원구 신길동 1396-1번지 홍원빌딩 1층","indutype":"일반휴게음식 - 주점","category":"restaurant"}]},{"lat":"37.33697902","long":"126.77952038","imageIndex":4,"items":[{"name":"커피마마 안산나무","tel":"031-499-2353","addr":"경기도 안산시 단원구 신길동 1484번지 1층","indutype":"일반휴게음식 - 서양음식","category":"restaurant"},{"name":"커피마마 안산나무","tel":"031-499-2353","addr":"경기도 안산시 단원구 신길동 1484번지 1층","indutype":"일반휴게음식 - 서양음식","category":"restaurant"}]},{"lat":"37.331666977","long":"126.78649802","imageIndex":4,"items":[{"name":"탐나석기","tel":"031-495-8892","addr":"경기도 안산시 단원구 신길동 1643번지 1층","indutype":"일반휴게음식 - 일반한식","category":"restaurant"}]},{"lat":"37.337060482","long":"126.76136369","imageIndex":4,"items":[{"name":"통큰푸드(신길정왕점)","tel":"031-495-0739","addr":"경기도 안산시 단원구 신길동 1385-6번지 1층","indutype":"일반휴게음식 - 일반한식","category":"restaurant"}]},{"lat":"37.336590246","long":"126.77410509","imageIndex":4,"items":[{"name":"피자마루(신길온천점)","tel":"031-492-1088","addr":"경기도 안산시 단원구 신길동 657번지 1층","indutype":"일반휴게음식 - 서양음식","category":"restaurant"}]},{"lat":"37.324336025","long":"126.77861008","imageIndex":4,"items":[{"name":"하주구내식당","tel":"031-493-0405","addr":"경기도 안산시 단원구 신길동 1122-5번지","indutype":"일반휴게음식 - 위탁급식업","category":"restaurant"}]},{"lat":"37.336610875","long":"126.76180522","imageIndex":4,"items":[{"name":"한돈모듬구이","tel":"031-493-5333","addr":"경기도 안산시 단원구 신길동 1402-9번지 1층","indutype":"일반휴게음식 - 일반한식","category":"restaurant"}]},{"lat":"37.339503765","long":"126.78052852","imageIndex":4,"items":[{"name":"한맛가든","tel":"","addr":"경기도 안산시 단원구 신길동 55-1번지 1층","indutype":"일반휴게음식 - 일반한식","category":"restaurant"}]},{"lat":"37.3353062","long":"126.76268954","imageIndex":4,"items":[{"name":"한방족발","tel":"031-494-4497","addr":"경기도 안산시 단원구 신길동 1422-6번지 1층","indutype":"일반휴게음식 - 일반한식","category":"restaurant"}]},{"lat":"37.337974793","long":"126.782","imageIndex":4,"items":[{"name":"한우리","tel":"031-492-4689","addr":"경기도 안산시 단원구 신길동 37-2번지 1층","indutype":"일반휴게음식 - 일반한식","category":"restaurant"},{"name":"한우리농장","tel":"031-492-4689","addr":"경기도 안산시 단원구 신길동 37-2번지 1층","indutype":"일반휴게음식 - 일반한식","category":"restaurant"}]},{"lat":"37.336359593","long":"126.77132988","imageIndex":4,"items":[{"name":"한우신꽃소","tel":"031-495-6255","addr":"경기도 안산시 단원구 신길동 582-7번지 1층","indutype":"일반휴게음식 - 일반한식","category":"restaurant"}]},{"lat":"37.336391565","long":"126.76030512","imageIndex":4,"items":[{"name":"한짬뽕","tel":"031-495-0609","addr":"경기도 안산시 단원구 신길동 217-4번지 1층","indutype":"일반휴게음식 - 중국식","category":"restaurant"}]},{"lat":"37.331254528","long":"126.78760498","imageIndex":4,"items":[{"name":"행복한유황오리쌈밥","tel":"031-495-5292","addr":"경기도 안산시 단원구 신길동 1602번지 1층","indutype":"일반휴게음식 - 일반한식","category":"restaurant"}]},{"lat":"37.338887858","long":"126.78363359","imageIndex":4,"items":[{"name":"행운식당","tel":"031-508-3989","addr":"경기도 안산시 단원구 신길동 3-5번지 1층","indutype":"일반휴게음식 - 일반한식","category":"restaurant"}]},{"lat":"37.331723363","long":"126.7877729","imageIndex":4,"items":[{"name":"화로싸나이(안산신길점)","tel":"031-508-5592","addr":"경기도 안산시 단원구 신길동 1598번지 101호","indutype":"일반휴게음식 - 일반한식","category":"restaurant"}]},{"lat":"37.332227335","long":"126.78744424","imageIndex":4,"items":[{"name":"화통삼(신길점)","tel":"031-494-7720","addr":"경기도 안산시 단원구 신길동 1668번지 1층","indutype":"일반휴게음식 - 일반한식","category":"restaurant"}]},{"lat":"37.332507756","long":"126.78805275","imageIndex":4,"items":[{"name":"황가네김밥","tel":"031-495-5353","addr":"경기도 안산시 단원구 신길동 1579번지 102호","indutype":"일반휴게음식 - 일반한식","category":"restaurant"}]},{"lat":"37.339284199","long":"126.78357602","imageIndex":4,"items":[{"name":"황궁","tel":"031-435-0639","addr":"경기도 안산시 단원구 신길동 3-13번지 1층","indutype":"일반휴게음식 - 중국식","category":"restaurant"}]},{"lat":"37.332335661","long":"126.78755676","imageIndex":4,"items":[{"name":"횡성생고기","tel":"031-492-9289","addr":"경기도 안산시 단원구 신길동 1667번지 1층 101호","indutype":"일반휴게음식 - 일반한식","category":"restaurant"}]},{"lat":"37.332452382","long":"126.78733076","imageIndex":4,"items":[{"name":"횡성생고기","tel":"031-492-9289","addr":"경기도 안산시 단원구 신길동 1660번지 1층","indutype":"일반휴게음식 - 일반한식","category":"restaurant"}]},{"lat":"37.332894187","long":"126.78749875","imageIndex":4,"items":[{"name":"훈장골","tel":"031-493-2577","addr":"경기도 안산시 단원구 신길동 1654번지","indutype":"일반휴게음식 - 일반한식","category":"restaurant"}]}]