[{"lat":"37.273932728","long":"127.06113938","imageIndex":4,"items":[{"name":"(주)더스카이팜 세상의모든아침 광교점","tel":"031-547-9870","addr":"경기도 수원시 영통구 원천동 593번지 광교아이파크 판매H동 3층 321~328호","indutype":"일반휴게음식 - 서양음식","category":"restaurant"},{"name":"(주)빗소리","tel":"031-548-2219","addr":"경기도 수원시 영통구 원천동 593번지 광교아이파크 E동 B115호","indutype":"일반휴게음식 - 일반한식","category":"restaurant"},{"name":"60계 수원광교호수공원점","tel":"031-111-1111","addr":"경기도 수원시 영통구 원천동 593번지 광교아이파크 판매케이동 1층 176,177호","indutype":"일반휴게음식 - 스넥","category":"restaurant"},{"name":"가메골 손만두","tel":"031-8007-3236","addr":"경기도 수원시 영통구 원천동 593번지 판매케이동 2층 260일부,261일부호","indutype":"일반휴게음식 - 일반한식","category":"restaurant"},{"name":"감성고기 광교","tel":"070-4858-4167","addr":"경기도 수원시 영통구 원천동 593번지 광교아이파크 B120호","indutype":"일반휴게음식 - 서양음식","category":"restaurant"},{"name":"겐짱타코야키","tel":"031-731-7366","addr":"경기도 수원시 영통구 원천동 593번지 광교아이파크 판매제이동 1층 159호","indutype":"일반휴게음식 - 서양음식","category":"restaurant"},{"name":"겟올라잇","tel":"031-217-1019","addr":"경기도 수원시 영통구 원천동 593번지 광교아이파크 판매에프동 2층 237,238호","indutype":"일반휴게음식 - 서양음식","category":"restaurant"},{"name":"광교 엘리웨이 밀도","tel":"031-306-5051","addr":"경기도 수원시 영통구 원천동 593번지 광교아이파크 141,142,143호","indutype":"일반휴게음식 - 서양음식","category":"restaurant"},{"name":"낙찌하다","tel":"02-3463-7105","addr":"경기도 수원시 영통구 원천동 593번지 광교아이파크 제판매 C동 226호","indutype":"일반휴게음식 - 일반한식","category":"restaurant"},{"name":"더부쓰 광교앨리웨이점","tel":"02-711-4723","addr":"경기도 수원시 영통구 원천동 593번지 광교아이파크 판매에이치동 1층 147~149호","indutype":"일반휴게음식 - 서양음식","category":"restaurant"},{"name":"더한(THE HAN)","tel":"031-111-1111","addr":"경기도 수원시 영통구 원천동 593번지 광교아이파크 판매시설동 3층 301호","indutype":"일반휴게음식 - 일반한식","category":"restaurant"},{"name":"도쿄등심 광교점","tel":"031-214-8324","addr":"경기도 수원시 영통구 원천동 593번지 광교아이파크 판매 C동 308,309,310호","indutype":"일반휴게음식 - 일식·회집","category":"restaurant"},{"name":"동트는농가","tel":"031-8007-3350","addr":"경기도 수원시 영통구 원천동 593번지 광교아이파크 판매시설비동 2층 219호,220,221 일부호","indutype":"일반휴게음식 - 일반한식","category":"restaurant"},{"name":"두수고방","tel":"02-6959-0761","addr":"경기도 수원시 영통구 원천동 593번지 광교아이파크 303~305호","indutype":"일반휴게음식 - 일반한식","category":"restaurant"},{"name":"바르다김선생 앨리웨이 광교점","tel":"","addr":"경기도 수원시 영통구 원천동 593번지 광교아이파크 K동 1층 169호일부,174호","indutype":"일반휴게음식 - 스넥","category":"restaurant"},{"name":"범산목장 엘리웨이광교점","tel":"031-111-1111","addr":"경기도 수원시 영통구 원천동 593번지 광교아이파크 판매A동 2층 208호","indutype":"일반휴게음식 - 서양음식","category":"restaurant"},{"name":"베를린 팥문점","tel":"02-6959-0753","addr":"경기도 수원시 영통구 원천동 593번지 광교아이파크 판매이동 지하1층 111호","indutype":"일반휴게음식 - 서양음식","category":"restaurant"},{"name":"보이동/(주)빗소리","tel":"031-548-2219","addr":"경기도 수원시 영통구 원천동 593번지 169호 168호,169호","indutype":"일반휴게음식 - 일식·회집","category":"restaurant"},{"name":"삐삐네","tel":"02-6959-0751","addr":"경기도 수원시 영통구 원천동 593번지 광교아이파크 175호","indutype":"일반휴게음식 - 서양음식","category":"restaurant"},{"name":"씽크 주","tel":"070-4858-4164","addr":"경기도 수원시 영통구 원천동 593번지 광교아이파크 H동 144,150,151,152,153호","indutype":"일반휴게음식 - 서양음식","category":"restaurant"},{"name":"아우어베이커리 광교앨리웨이점","tel":"02-1111-1111","addr":"경기도 수원시 영통구 원천동 593번지 광교아이파크 F동 139,140호","indutype":"일반휴게음식 - 서양음식","category":"restaurant"},{"name":"연남방앗간 광교점","tel":"031-111-1111","addr":"경기도 수원시 영통구 원천동 593번지 광교아이파크 H동 145,146호","indutype":"일반휴게음식 - 일반한식","category":"restaurant"},{"name":"완벽한인생 광교앨리웨이","tel":"","addr":"경기도 수원시 영통구 원천동 593번지 광교아이파크 판매K동 2층 264,265,266호","indutype":"일반휴게음식 - 일반한식","category":"restaurant"},{"name":"우마이야/(주)에프앤씨엘","tel":"031-731-7366","addr":"경기도 수원시 영통구 원천동 593번지 광교아이파크 판매 C동 227호","indutype":"일반휴게음식 - 일식·회집","category":"restaurant"},{"name":"책발전소 광교","tel":"031-548-4522","addr":"경기도 수원시 영통구 원천동 593번지 광교아이파크 B동 1층 117,118호","indutype":"일반휴게음식 - 서양음식","category":"restaurant"},{"name":"카트리지프로젝트 더 네이버후드 광교점/베","tel":"02-545-0901","addr":"경기도 수원시 영통구 원천동 593번지 광교아이파크 1층 107호","indutype":"일반휴게음식 - 서양음식","category":"restaurant"},{"name":"커피반점","tel":"","addr":"경기도 수원시 영통구 원천동 593번지 광교아이파크 K동 1층 168,171호","indutype":"일반휴게음식 - 서양음식","category":"restaurant"},{"name":"핌 언더그라운드","tel":"070-4280-8062","addr":"경기도 수원시 영통구 원천동 593번지 광교아이파크 A동 지하1층 B101-110호","indutype":"일반휴게음식 - 서양음식","category":"restaurant"},{"name":"핑거스시/주식회사 이김에프엔비","tel":"031-111-1111","addr":"경기도 수원시 영통구 원천동 593번지 광교아이파크 E동 B117호","indutype":"일반휴게음식 - 일반한식","category":"restaurant"},{"name":"한옥집김치찜한국의맛앨리웨이광교점","tel":"031-8007-3235","addr":"경기도 수원시 영통구 원천동 593번지 광교아이파크 판매케이동 2층 257일부, 258일부, 259호","indutype":"일반휴게음식 - 일반한식","category":"restaurant"},{"name":"해삐바이브","tel":"","addr":"경기도 수원시 영통구 원천동 593번지 광교아이파크 1층 180호","indutype":"일반휴게음식 - 서양음식","category":"restaurant"},{"name":"형훈텐동 광교엘리웨이점","tel":"02-000-0000","addr":"경기도 수원시 영통구 원천동 593번지 광교아이파크 E동 B114호","indutype":"일반휴게음식 - 일식·회집","category":"restaurant"}]},{"lat":"37.278760368","long":"127.04413946","imageIndex":4,"items":[{"name":"(주)상리라","tel":"031-216-9771","addr":"경기도 수원시 영통구 원천동 18-1번지","indutype":"일반휴게음식 - 서양음식","category":"restaurant"},{"name":"탐앤탐스아주대점","tel":"031-211-3565","addr":"경기도 수원시 영통구 원천동 18-1번지 아록빌딩 1층","indutype":"일반휴게음식 - 서양음식","category":"restaurant"}]},{"lat":"37.27420858","long":"127.04850038","imageIndex":4,"items":[{"name":"(주)수원삼계탕","tel":"031-212-8095","addr":"경기도 수원시 영통구 원천동 85-18번지 1층","indutype":"일반휴게음식 - 일반한식","category":"restaurant"}]},{"lat":"37.267040722","long":"127.05936407","imageIndex":4,"items":[{"name":"59쌀피자","tel":"031-215-5656","addr":"경기도 수원시 영통구 원천동 549-2번지","indutype":"일반휴게음식 - 서양음식","category":"restaurant"},{"name":"본죽(원천점)","tel":"031-211-6233","addr":"경기도 수원시 영통구 원천동 549-2번지 교원유치원 108호","indutype":"일반휴게음식 - 일반한식","category":"restaurant"},{"name":"석촌","tel":"031-215-9232","addr":"경기도 수원시 영통구 원천동 549-2번지","indutype":"일반휴게음식 - 일반한식","category":"restaurant"}]},{"lat":"37.261299076","long":"127.06358716","imageIndex":4,"items":[{"name":"79짬뽕","tel":"031-211-7987","addr":"경기도 수원시 영통구 원천동 362-1번지 2층","indutype":"일반휴게음식 - 중국식","category":"restaurant"},{"name":"박용정''S 커피","tel":"031-226-0766","addr":"경기도 수원시 영통구 원천동 362-1번지 2층","indutype":"일반휴게음식 - 서양음식","category":"restaurant"}]},{"lat":"37.275209175","long":"127.04730583","imageIndex":4,"items":[{"name":"7번가피자","tel":"031-304-7717","addr":"경기도 수원시 영통구 원천동 72-78번지 103호","indutype":"일반휴게음식 - 스넥","category":"restaurant"}]},{"lat":"37.284013602","long":"127.04342064","imageIndex":4,"items":[{"name":"ㅇㅈ밥빵","tel":"031-111-1111","addr":"경기도 수원시 영통구 원천동 산5-1번지 아주대학교 원천정보관 비상계단앞공지","indutype":"일반휴게음식 - 일반한식","category":"restaurant"},{"name":"만랩 (MAN LAB)","tel":"","addr":"경기도 수원시 영통구 원천동 산5-1번지 아주대학교 원천정보관 비상계단앞공지","indutype":"일반휴게음식 - 일반한식","category":"restaurant"},{"name":"명인만두아주대병원점","tel":"031-214-9055","addr":"경기도 수원시 영통구 원천동 산5-1번지 아주대학교 병원본관지하1층일부","indutype":"일반휴게음식 - 스넥","category":"restaurant"},{"name":"비틀주스아주대병원점","tel":"031-215-2158","addr":"경기도 수원시 영통구 원천동 산5-1번지 아주대학교 지하1층 아주대학교병원웰빙센터","indutype":"일반휴게음식 - 서양음식","category":"restaurant"},{"name":"아낌없이주는식당","tel":"031-111-1111","addr":"경기도 수원시 영통구 원천동 산5-1번지 아주대학교","indutype":"일반휴게음식 - 일반한식","category":"restaurant"},{"name":"에스앤에스(주) 아주대학교 학생식당 수원","tel":"02-1544-5486","addr":"경기도 수원시 영통구 원천동 산5-1번지 아주대학교","indutype":"일반휴게음식 - 위탁급식업","category":"restaurant"},{"name":"에치앤에스푸드(아주대기숙사식당)","tel":"031-219-2149","addr":"경기도 수원시 영통구 원천동 산5-1번지 아주대학교 기숙사식당 1층","indutype":"일반휴게음식 - 위탁급식업","category":"restaurant"},{"name":"주식회사 코너스톤","tel":"031-254-8855","addr":"경기도 수원시 영통구 원천동 산5-1번지 아주대학교 12층 종합관","indutype":"일반휴게음식 - 위탁급식업","category":"restaurant"},{"name":"진야식당","tel":"031-000-0000","addr":"경기도 수원시 영통구 원천동 산5-1번지","indutype":"일반휴게음식 - 일반한식","category":"restaurant"},{"name":"커피감아주대점","tel":"031-219-2149","addr":"경기도 수원시 영통구 원천동 산5-1번지 아주대학교 기숙사 식당 1층","indutype":"일반휴게음식 - 서양음식","category":"restaurant"},{"name":"팔달관스넥(아주대)","tel":"031-219-2272","addr":"경기도 수원시 영통구 원천동 산5-1번지 아주대학교 팔달관 1층","indutype":"일반휴게음식 - 일반한식","category":"restaurant"},{"name":"하겐다즈 아주대병원점/(주)대아","tel":"031-212-8211","addr":"경기도 수원시 영통구 원천동 산5-1번지 아주대학교 아주대병원 본관 지하","indutype":"일반휴게음식 - 일반한식","category":"restaurant"}]},{"lat":"37.278210781","long":"127.04402641","imageIndex":4,"items":[{"name":"ㅋㅋㅋ","tel":"031-216-5604","addr":"경기도 수원시 영통구 원천동 18-6번지","indutype":"일반휴게음식 - 일반한식","category":"restaurant"},{"name":"생고기대학교아주대점","tel":"031-211-1112","addr":"경기도 수원시 영통구 원천동 18-6번지 무영빌딩 2층","indutype":"일반휴게음식 - 일반한식","category":"restaurant"},{"name":"설빙 수원아주대점","tel":"031-213-9055","addr":"경기도 수원시 영통구 원천동 18-6번지 아카데미빌딩","indutype":"일반휴게음식 - 일반한식","category":"restaurant"}]},{"lat":"37.2688523","long":"127.0582831","imageIndex":4,"items":[{"name":"가마솥토종순대국","tel":"031-216-9042","addr":"경기도 수원시 영통구 원천동 209-42번지","indutype":"일반휴게음식 - 일반한식","category":"restaurant"}]},{"lat":"37.276821655","long":"127.0482539","imageIndex":4,"items":[{"name":"가비사랑","tel":"031-111-1111","addr":"경기도 수원시 영통구 원천동 67-14번지 1층","indutype":"일반휴게음식 - 서양음식","category":"restaurant"},{"name":"봉평우리막국수","tel":"031-216-3399","addr":"경기도 수원시 영통구 원천동 67-14번지","indutype":"일반휴게음식 - 일반한식","category":"restaurant"}]},{"lat":"37.277627856","long":"127.05924795","imageIndex":4,"items":[{"name":"가빈스","tel":"031-212-0886","addr":"경기도 수원시 영통구 원천동 590번지 수원광교에밀린의뜰 1204동 B117호","indutype":"일반휴게음식 - 일반한식","category":"restaurant"},{"name":"교토미","tel":"070-4237-5989","addr":"경기도 수원시 영통구 원천동 590번지 수원광교에일린의뜰 1204동B105,106호","indutype":"일반휴게음식 - 일반한식","category":"restaurant"},{"name":"까사프레도","tel":"031-215-5120","addr":"경기도 수원시 영통구 원천동 590번지 수원광교에일린의뜰 상가 1204동 B109,110호","indutype":"일반휴게음식 - 일반한식","category":"restaurant"},{"name":"깐부치킨 광교호수공원점","tel":"031-214-2677","addr":"경기도 수원시 영통구 원천동 590번지 에이린의뜰 1204동 111호 111,112호","indutype":"일반휴게음식 - 일반한식","category":"restaurant"},{"name":"닐리쿠치나원천호수점","tel":"070-4158-5959","addr":"경기도 수원시 영통구 원천동 590번지 (1204동 B107,108호)","indutype":"일반휴게음식 - 서양음식","category":"restaurant"},{"name":"더가든","tel":"031-273-1212","addr":"경기도 수원시 영통구 원천동 590번지 1204동 B101호 수원광교B78BL에일린의뜰","indutype":"일반휴게음식 - 서양음식","category":"restaurant"},{"name":"빠담빠담(치어스)","tel":"031-573-0278","addr":"경기도 수원시 영통구 원천동 590번지 광교에일린의뜰 1204동 B103~104호","indutype":"일반휴게음식 - 일반한식","category":"restaurant"},{"name":"츄츄","tel":"031-215-7793","addr":"경기도 수원시 영통구 원천동 590번지 수원광교에일린의뜰 116호","indutype":"일반휴게음식 - 서양음식","category":"restaurant"}]},{"lat":"37.278156278","long":"127.04527796","imageIndex":4,"items":[{"name":"가치있는밥상","tel":"031-221-5581","addr":"경기도 수원시 영통구 원천동 30-69번지 1층","indutype":"일반휴게음식 - 일반한식","category":"restaurant"}]},{"lat":"37.273567997","long":"127.05066476","imageIndex":4,"items":[{"name":"가향","tel":"031-211-6660","addr":"경기도 수원시 영통구 원천동 90-10번지","indutype":"일반휴게음식 - 중국식","category":"restaurant"}]},{"lat":"37.262228431","long":"127.06100636","imageIndex":4,"items":[{"name":"강릉골목집","tel":"031-223-5214","addr":"경기도 수원시 영통구 원천동 554번지 영통이노플렉스-2단지 3동 103호","indutype":"일반휴게음식 - 일반한식","category":"restaurant"},{"name":"번라이스영계","tel":"031-8002-2090","addr":"경기도 수원시 영통구 원천동 554번지 영통이노플렉스-2단지 3동 111호","indutype":"일반휴게음식 - 일반한식","category":"restaurant"},{"name":"엄마손","tel":"031-8002-3004","addr":"경기도 수원시 영통구 원천동 554번지 영통이노플렉스-2단지 3동 110호","indutype":"일반휴게음식 - 일반한식","category":"restaurant"},{"name":"임실엔치즈피자 매탄영통점","tel":"031-215-5588","addr":"경기도 수원시 영통구 원천동 554번지 영통이노플렉스2단지 3동 104호","indutype":"일반휴게음식 - 서양음식","category":"restaurant"}]},{"lat":"37.277623029","long":"127.04964126","imageIndex":4,"items":[{"name":"개성명가","tel":"031-216-5800","addr":"경기도 수원시 영통구 원천동 576-1번지 1층","indutype":"일반휴게음식 - 일반한식","category":"restaurant"},{"name":"동해인","tel":"","addr":"경기도 수원시 영통구 원천동 576-1번지 광교프라임 2층","indutype":"일반휴게음식 - 일반한식","category":"restaurant"},{"name":"맛있다순대국/주식회사 정","tel":"031-211-4503","addr":"경기도 수원시 영통구 원천동 576-1번지 1층 101,102호","indutype":"일반휴게음식 - 일반한식","category":"restaurant"},{"name":"오띠모320벤티","tel":"02-000-0000","addr":"경기도 수원시 영통구 원천동 576-1번지 1층 102호","indutype":"일반휴게음식 - 서양음식","category":"restaurant"},{"name":"장어명가","tel":"070-4038-0592","addr":"경기도 수원시 영통구 원천동 576-1번지 1동 103-106호","indutype":"일반휴게음식 - 일반한식","category":"restaurant"}]},{"lat":"37.277874975","long":"127.05049835","imageIndex":4,"items":[{"name":"개성찜갈비","tel":"031-214-5620","addr":"경기도 수원시 영통구 원천동 575-8번지","indutype":"일반휴게음식 - 일반한식","category":"restaurant"}]},{"lat":"37.270401519","long":"127.0594455","imageIndex":4,"items":[{"name":"경상도식당","tel":"031-213-5273","addr":"경기도 수원시 영통구 원천동 196-2번지","indutype":"일반휴게음식 - 일반한식","category":"restaurant"},{"name":"함바라지 더샵","tel":"031-214-6364","addr":"경기도 수원시 영통구 원천동 196-2번지","indutype":"일반휴게음식 - 일반한식","category":"restaurant"}]},{"lat":"37.275318159","long":"127.04494939","imageIndex":4,"items":[{"name":"경아네왕십리곱창","tel":"031-214-7271","addr":"경기도 수원시 영통구 원천동 28-18번지 101호","indutype":"일반휴게음식 - 일반한식","category":"restaurant"},{"name":"동막골","tel":"031-111-1111","addr":"경기도 수원시 영통구 원천동 28-18번지 1층 102호","indutype":"일반휴게음식 - 서양음식","category":"restaurant"},{"name":"원천주먹구이","tel":"031-892-5379","addr":"경기도 수원시 영통구 원천동 28-18번지","indutype":"일반휴게음식 - 일반한식","category":"restaurant"}]},{"lat":"37.276658342","long":"127.05110645","imageIndex":4,"items":[{"name":"계동원찜닭","tel":"031-211-3618","addr":"경기도 수원시 영통구 원천동 579번지","indutype":"일반휴게음식 - 일반한식","category":"restaurant"}]},{"lat":"37.266489541","long":"127.06253159","imageIndex":4,"items":[{"name":"고봉감자탕","tel":"031-213-2819","addr":"경기도 수원시 영통구 원천동 253-6번지","indutype":"일반휴게음식 - 일반한식","category":"restaurant"}]},{"lat":"37.277460911","long":"127.04947203","imageIndex":4,"items":[{"name":"고향밥상","tel":"031-214-0281","addr":"경기도 수원시 영통구 원천동 576-2번지 1층","indutype":"일반휴게음식 - 일반한식","category":"restaurant"},{"name":"명동만두전골샤브","tel":"031-211-5030","addr":"경기도 수원시 영통구 원천동 576-2번지 102호","indutype":"일반휴게음식 - 일반한식","category":"restaurant"}]},{"lat":"37.267076159","long":"127.0606155","imageIndex":4,"items":[{"name":"고향순대","tel":"031-215-7005","addr":"경기도 수원시 영통구 원천동 227번지","indutype":"일반휴게음식 - 일반한식","category":"restaurant"},{"name":"미백식당","tel":"031-217-9985","addr":"경기도 수원시 영통구 원천동 227번지","indutype":"일반휴게음식 - 일반한식","category":"restaurant"},{"name":"조춘식동태전골찜감자탕","tel":"031-212-7988","addr":"경기도 수원시 영통구 원천동 227번지","indutype":"일반휴게음식 - 일반한식","category":"restaurant"}]},{"lat":"37.277379342","long":"127.05066717","imageIndex":4,"items":[{"name":"고향한정식","tel":"031-217-8835","addr":"경기도 수원시 영통구 원천동 51-9번지","indutype":"일반휴게음식 - 일반한식","category":"restaurant"}]},{"lat":"37.266373934","long":"127.05941994","imageIndex":4,"items":[{"name":"곤지암할매소머리국밥","tel":"031-213-5427","addr":"경기도 수원시 영통구 원천동 471번지","indutype":"일반휴게음식 - 일반한식","category":"restaurant"},{"name":"먹자고(G)","tel":"031-222-0010","addr":"경기도 수원시 영통구 원천동 471번지 113,114호","indutype":"일반휴게음식 - 일반한식","category":"restaurant"},{"name":"버클리","tel":"031-211-0522","addr":"경기도 수원시 영통구 원천동 471번지 삼성테크노파크 205호","indutype":"일반휴게음식 - 주점","category":"restaurant"},{"name":"이디야","tel":"031-217-2008","addr":"경기도 수원시 영통구 원천동 471번지 삼성테크노파크 104,105호","indutype":"일반휴게음식 - 서양음식","category":"restaurant"},{"name":"팔미 낙지한덮밥&왕아구찜","tel":"031-000-0000","addr":"경기도 수원시 영통구 원천동 471번지 삼성테크노파크 201호","indutype":"일반휴게음식 - 일반한식","category":"restaurant"},{"name":"한가네셀프뷔페","tel":"031-217-8503","addr":"경기도 수원시 영통구 원천동 471번지 삼성테크노파크 210호","indutype":"일반휴게음식 - 일반한식","category":"restaurant"}]},{"lat":"37.274983206","long":"127.04916608","imageIndex":4,"items":[{"name":"공유카페놀자","tel":"","addr":"경기도 수원시 영통구 원천동 78-83번지 1층","indutype":"일반휴게음식 - 서양음식","category":"restaurant"}]},{"lat":"37.274930884","long":"127.04447562","imageIndex":4,"items":[{"name":"공차수원아주대점","tel":"031-213-3611","addr":"경기도 수원시 영통구 원천동 79-10번지 101호","indutype":"일반휴게음식 - 스넥","category":"restaurant"},{"name":"보영만두 아주대점","tel":"031-211-8789","addr":"경기도 수원시 영통구 원천동 79-10번지 예스크리닉동수원점 102호","indutype":"일반휴게음식 - 스넥","category":"restaurant"},{"name":"빨간석쇠구이","tel":"031-211-2238","addr":"경기도 수원시 영통구 원천동 79-10번지 예스프라자 111호","indutype":"일반휴게음식 - 주점","category":"restaurant"},{"name":"삼구포차 아주대점","tel":"031-306-9142","addr":"경기도 수원시 영통구 원천동 79-10번지 예스크리닉 209호","indutype":"일반휴게음식 - 일반한식","category":"restaurant"},{"name":"손큰할매순대국","tel":"031-215-5900","addr":"경기도 수원시 영통구 원천동 79-10번지 106호","indutype":"일반휴게음식 - 일반한식","category":"restaurant"},{"name":"스시1290","tel":"031-216-1290","addr":"경기도 수원시 영통구 원천동 79-10번지 예스프라자 206호","indutype":"일반휴게음식 - 일반한식","category":"restaurant"},{"name":"아대닭발","tel":"031-214-4720","addr":"경기도 수원시 영통구 원천동 79-10번지 110호","indutype":"일반휴게음식 - 일반한식","category":"restaurant"},{"name":"아빠닭강정","tel":"031-216-2223","addr":"경기도 수원시 영통구 원천동 79-10번지 104호","indutype":"일반휴게음식 - 일반한식","category":"restaurant"},{"name":"어쭈꾸미","tel":"031-211-4722","addr":"경기도 수원시 영통구 원천동 79-10번지 예스프라자 112호","indutype":"일반휴게음식 - 일반한식","category":"restaurant"},{"name":"역전우동0410아주대점","tel":"031-217-0411","addr":"경기도 수원시 영통구 원천동 79-10번지 예스프라자 107호","indutype":"일반휴게음식 - 일반한식","category":"restaurant"},{"name":"예스스넥","tel":"031-000-0000","addr":"경기도 수원시 영통구 원천동 79-10번지 901호","indutype":"일반휴게음식 - 스넥","category":"restaurant"},{"name":"올리바바 양꼬치","tel":"031-216-6699","addr":"경기도 수원시 영통구 원천동 79-10번지 204호","indutype":"일반휴게음식 - 중국식","category":"restaurant"},{"name":"프레즐","tel":"031-275-7942","addr":"경기도 수원시 영통구 원천동 79-10번지 예스크리닉동수원점 105호","indutype":"일반휴게음식 - 스넥","category":"restaurant"},{"name":"할리갈리","tel":"031-212-0556","addr":"경기도 수원시 영통구 원천동 79-10번지 예스프라자 204호","indutype":"일반휴게음식 - 일반한식","category":"restaurant"}]},{"lat":"37.268687215","long":"127.06416807","imageIndex":4,"items":[{"name":"광어9900","tel":"031-214-4001","addr":"경기도 수원시 영통구 원천동 271-1번지","indutype":"일반휴게음식 - 일식·회집","category":"restaurant"}]},{"lat":"37.277291722","long":"127.04405973","imageIndex":4,"items":[{"name":"국민우유","tel":"070-1417-1424","addr":"경기도 수원시 영통구 원천동 25-3번지 1층","indutype":"일반휴게음식 - 서양음식","category":"restaurant"},{"name":"명랑쌀 핫도그 아주대점","tel":"031-216-3886","addr":"경기도 수원시 영통구 원천동 25-3번지 1층","indutype":"일반휴게음식 - 서양음식","category":"restaurant"},{"name":"우리지금만나","tel":"031-216-5543","addr":"경기도 수원시 영통구 원천동 25-3번지 1층","indutype":"일반휴게음식 - 일반한식","category":"restaurant"}]},{"lat":"37.276570892","long":"127.04408189","imageIndex":4,"items":[{"name":"국수나무아주대점","tel":"031-217-7061","addr":"경기도 수원시 영통구 원천동 25-15번지 1층","indutype":"일반휴게음식 - 일반한식","category":"restaurant"}]},{"lat":"37.265461475","long":"127.06427819","imageIndex":4,"items":[{"name":"궁전식당","tel":"031-216-0688","addr":"경기도 수원시 영통구 원천동 332-2 천지빌딩지하 25","indutype":"일반휴게음식 - 일반한식","category":"restaurant"},{"name":"더후레쉬푸드","tel":"070-7862-1697","addr":"경기도 수원시 영통구 원천동 332-2번지 수원팩토리월드 150호","indutype":"일반휴게음식 - 일반한식","category":"restaurant"},{"name":"뚝배기식당","tel":"031-216-6806","addr":"경기도 수원시 영통구 원천동 332-2번지 수원팩토리월드","indutype":"일반휴게음식 - 일반한식","category":"restaurant"},{"name":"사천셰셰","tel":"031-214-4088","addr":"경기도 수원시 영통구 원천동 332-2번지 수원팩토리월드","indutype":"일반휴게음식 - 중국식","category":"restaurant"},{"name":"언니네식탁","tel":"031-217-1253","addr":"경기도 수원시 영통구 원천동 332-2번지 수원팩토리월드 지하1층 SB 28,29호","indutype":"일반휴게음식 - 일반한식","category":"restaurant"},{"name":"온누리식당","tel":"031-216-3100","addr":"경기도 수원시 영통구 원천동 332-2 수원팩토리월드 SB15","indutype":"일반휴게음식 - 일반한식","category":"restaurant"},{"name":"월드식당","tel":"031-213-7849","addr":"경기도 수원시 영통구 원천동 332-2번지","indutype":"일반휴게음식 - 일반한식","category":"restaurant"},{"name":"자빈꼬치","tel":"031-214-4820","addr":"경기도 수원시 영통구 원천동 332-2번지 수원팩토리월드 지하1층 상가 46호","indutype":"일반휴게음식 - 주점","category":"restaurant"},{"name":"천지회관","tel":"031-216-7196","addr":"경기도 수원시 영통구 원천동 332-2번지 팩프리월드빌딩 320호","indutype":"일반휴게음식 - 일반한식","category":"restaurant"},{"name":"커피야","tel":"","addr":"경기도 수원시 영통구 원천동 332-2번지 수원팩토리월드 1층 S122호","indutype":"일반휴게음식 - 서양음식","category":"restaurant"},{"name":"팩토리한식뷔페","tel":"031-214-2122","addr":"경기도 수원시 영통구 원천동 332-2번지 수원팩토리월드 311~312호","indutype":"일반휴게음식 - 일반한식","category":"restaurant"},{"name":"호로록","tel":"031-216-2216","addr":"경기도 수원시 영통구 원천동 332-2번지 수원팩토리월드 상가 147호","indutype":"일반휴게음식 - 스넥","category":"restaurant"}]},{"lat":"37.277769025","long":"127.0447478","imageIndex":4,"items":[{"name":"권육회","tel":"031-111-1111","addr":"경기도 수원시 영통구 원천동 29-58번지","indutype":"일반휴게음식 - 주점","category":"restaurant"},{"name":"우리동네주식회사","tel":"031-212-0220","addr":"경기도 수원시 영통구 원천동 29-58번지 1층","indutype":"일반휴게음식 - 서양음식","category":"restaurant"}]},{"lat":"37.278372673","long":"127.04486089","imageIndex":4,"items":[{"name":"그레이트 이스트","tel":"","addr":"경기도 수원시 영통구 원천동 29-35번지 2층","indutype":"일반휴게음식 - 주점","category":"restaurant"},{"name":"용범이네인계동껍데기아주대점","tel":"031-000-0000","addr":"경기도 수원시 영통구 원천동 29-35번지 1층","indutype":"일반휴게음식 - 일반한식","category":"restaurant"}]},{"lat":"37.276958069","long":"127.04483755","imageIndex":4,"items":[{"name":"기분좋은날","tel":"031-217-0470","addr":"경기도 수원시 영통구 원천동 29-3번지 다온 101호","indutype":"일반휴게음식 - 서양음식","category":"restaurant"},{"name":"더치킨","tel":"031-211-3493","addr":"경기도 수원시 영통구 원천동 29-3번지 다온 1층 101호","indutype":"일반휴게음식 - 일반한식","category":"restaurant"}]},{"lat":"37.274516087","long":"127.04538867","imageIndex":4,"items":[{"name":"김밥천국","tel":"031-211-2769","addr":"경기도 수원시 영통구 원천동 79-4번지 106호","indutype":"일반휴게음식 - 일반한식","category":"restaurant"}]},{"lat":"37.267074861","long":"127.06321976","imageIndex":4,"items":[{"name":"김밥천국(원천점)","tel":"031-211-8881","addr":"경기도 수원시 영통구 원천동 259-7번지","indutype":"일반휴게음식 - 일반한식","category":"restaurant"}]},{"lat":"37.26674219","long":"127.06181027","imageIndex":4,"items":[{"name":"김영숙칼국수","tel":"031-225-2300","addr":"경기도 수원시 영통구 원천동 237-2번지 105호 106호","indutype":"일반휴게음식 - 일반한식","category":"restaurant"},{"name":"수원족포차","tel":"031-215-9272","addr":"경기도 수원시 영통구 원천동 237-2번지 102,103호","indutype":"일반휴게음식 - 일반한식","category":"restaurant"},{"name":"주막거리전집","tel":"031-214-3536","addr":"경기도 수원시 영통구 원천동 237-2번지 동아교통(주식회사) 104호","indutype":"일반휴게음식 - 일반한식","category":"restaurant"}]},{"lat":"37.27810252","long":"127.04442099","imageIndex":4,"items":[{"name":"김종근의달구마실","tel":"031-216-4881","addr":"경기도 수원시 영통구 원천동 29-5번지 1층","indutype":"일반휴게음식 - 일반한식","category":"restaurant"},{"name":"레드나인","tel":"031-211-5857","addr":"경기도 수원시 영통구 원천동 29-5번지 2층","indutype":"일반휴게음식 - 주점","category":"restaurant"}]},{"lat":"37.274984739","long":"127.04506196","imageIndex":4,"items":[{"name":"김형건술집","tel":"031-231-4930","addr":"경기도 수원시 영통구 원천동 79-20번지","indutype":"일반휴게음식 - 일반한식","category":"restaurant"},{"name":"불난 술집 아주대점","tel":"031-893-7589","addr":"경기도 수원시 영통구 원천동 79-20번지 새한빌딩 2층","indutype":"일반휴게음식 - 일반한식","category":"restaurant"},{"name":"블루레우커피바/주식회사 선우","tel":"031-215-9146","addr":"경기도 수원시 영통구 원천동 79-20번지 2층","indutype":"일반휴게음식 - 서양음식","category":"restaurant"}]},{"lat":"37.277570946","long":"127.0443305","imageIndex":4,"items":[{"name":"까페안녕","tel":"070-4234-3921","addr":"경기도 수원시 영통구 원천동 29-67번지 1층","indutype":"일반휴게음식 - 서양음식","category":"restaurant"}]},{"lat":"37.275210282","long":"127.04425028","imageIndex":4,"items":[{"name":"꼬꼬아찌숯불치킨","tel":"031-890-2118","addr":"경기도 수원시 영통구 원천동 27-14번지","indutype":"일반휴게음식 - 주점","category":"restaurant"},{"name":"델리쉬(Delish)","tel":"","addr":"경기도 수원시 영통구 원천동 27-14번지 1층","indutype":"일반휴게음식 - 서양음식","category":"restaurant"},{"name":"모멘토/온누리인쇄복사","tel":"031-216-8160","addr":"경기도 수원시 영통구 원천동 27-14번지","indutype":"일반휴게음식 - 서양음식","category":"restaurant"},{"name":"왈라키아 호텔","tel":"031-212-6261","addr":"경기도 수원시 영통구 원천동 27-14번지 2층","indutype":"일반휴게음식 - 일반한식","category":"restaurant"},{"name":"짬뽕타임 아주대점","tel":"031-213-8769","addr":"경기도 수원시 영통구 원천동 27-14번지 2층, 3층","indutype":"일반휴게음식 - 중국식","category":"restaurant"}]},{"lat":"37.27734553","long":"127.04478139","imageIndex":4,"items":[{"name":"꼬치핀다","tel":"031-282-9465","addr":"경기도 수원시 영통구 원천동 29-45번지 1층 일부","indutype":"일반휴게음식 - 일반한식","category":"restaurant"}]},{"lat":"37.276460249","long":"127.05077934","imageIndex":4,"items":[{"name":"꿍냐우","tel":"","addr":"경기도 수원시 영통구 원천동 580-5번지 1층","indutype":"일반휴게음식 - 서양음식","category":"restaurant"}]},{"lat":"37.277237407","long":"127.04478133","imageIndex":4,"items":[{"name":"날로먹자","tel":"070-4649-1101","addr":"경기도 수원시 영통구 원천동 29-34번지 1층","indutype":"일반휴게음식 - 일반한식","category":"restaurant"}]},{"lat":"37.274019334","long":"127.04857919","imageIndex":4,"items":[{"name":"남해생선구이","tel":"031-213-4962","addr":"경기도 수원시 영통구 원천동 85-24번지","indutype":"일반휴게음식 - 일반한식","category":"restaurant"},{"name":"로즈","tel":"031-215-3977","addr":"경기도 수원시 영통구 원천동 85-24번지","indutype":"일반휴게음식 - 일반한식","category":"restaurant"}]},{"lat":"37.274460535","long":"127.04935743","imageIndex":4,"items":[{"name":"내고향집","tel":"031-211-5620","addr":"경기도 수원시 영통구 원천동 85-33번지","indutype":"일반휴게음식 - 일반한식","category":"restaurant"}]},{"lat":"37.25812715","long":"127.06417079","imageIndex":4,"items":[{"name":"내집처럼","tel":"031-213-3336","addr":"경기도 수원시 영통구 원천동 410-19번지 101호","indutype":"일반휴게음식 - 일반한식","category":"restaurant"},{"name":"찜생찜사 묵은지김치찜 수원영통점","tel":"031-212-8383","addr":"경기도 수원시 영통구 원천동 410-19번지 102호","indutype":"일반휴게음식 - 일반한식","category":"restaurant"}]},{"lat":"37.257542218","long":"127.06272744","imageIndex":4,"items":[{"name":"네꼬야커피숍","tel":"031-214-1177","addr":"경기도 수원시 영통구 원천동 399-1번지 1층","indutype":"일반휴게음식 - 서양음식","category":"restaurant"}]},{"lat":"37.276904292","long":"127.0440257","imageIndex":4,"items":[{"name":"노랑통닭","tel":"031-215-2029","addr":"경기도 수원시 영통구 원천동 25-10번지 2층","indutype":"일반휴게음식 - 일반한식","category":"restaurant"},{"name":"와플칸","tel":"031-206-5915","addr":"경기도 수원시 영통구 원천동 25-10번지 2층","indutype":"일반휴게음식 - 서양음식","category":"restaurant"},{"name":"플랜트","tel":"031-212-8938","addr":"경기도 수원시 영통구 원천동 25-10번지 4층 전체","indutype":"일반휴게음식 - 일반한식","category":"restaurant"}]},{"lat":"37.277514373","long":"127.0509717","imageIndex":4,"items":[{"name":"다겸","tel":"031-216-0927","addr":"경기도 수원시 영통구 원천동 577-4번지 1층","indutype":"일반휴게음식 - 일반한식","category":"restaurant"}]},{"lat":"37.266651234","long":"127.06350127","imageIndex":4,"items":[{"name":"달인의족발","tel":"031-215-0988","addr":"경기도 수원시 영통구 원천동 258-19번지","indutype":"일반휴게음식 - 일반한식","category":"restaurant"}]},{"lat":"37.266797615","long":"127.05900312","imageIndex":4,"items":[{"name":"대명각","tel":"031-216-3639","addr":"경기도 수원시 영통구 원천동 550-4번지 원천주공종합상가 207호","indutype":"일반휴게음식 - 중국식","category":"restaurant"},{"name":"명인만두(수원원천점)","tel":"031-224-8931","addr":"경기도 수원시 영통구 원천동 550-4번지 주공 상가 101호","indutype":"일반휴게음식 - 스넥","category":"restaurant"},{"name":"신전떡볶이(원천점)","tel":"070-7012-4552","addr":"경기도 수원시 영통구 원천동 550-4번지 원천주공 종합상가 103호","indutype":"일반휴게음식 - 스넥","category":"restaurant"},{"name":"자매토스트 김밥","tel":"","addr":"경기도 수원시 영통구 원천동 550-4번지 원천주공종합상가 102호","indutype":"일반휴게음식 - 스넥","category":"restaurant"}]},{"lat":"37.266407973","long":"127.06346725","imageIndex":4,"items":[{"name":"대박삼겹살","tel":"031-215-5513","addr":"경기도 수원시 영통구 원천동 258-3번지","indutype":"일반휴게음식 - 일반한식","category":"restaurant"}]},{"lat":"37.275434275","long":"127.04772314","imageIndex":4,"items":[{"name":"댄","tel":"031-216-0806","addr":"경기도 수원시 영통구 원천동 77-11번지 지하1층","indutype":"일반휴게음식 - 일반한식","category":"restaurant"},{"name":"아지트분식","tel":"","addr":"경기도 수원시 영통구 원천동 77-11번지 1층","indutype":"일반휴게음식 - 일반한식","category":"restaurant"}]},{"lat":"37.275958213","long":"127.04402518","imageIndex":4,"items":[{"name":"더가맥","tel":"031-305-0442","addr":"경기도 수원시 영통구 원천동 27-1번지 2층","indutype":"일반휴게음식 - 일반한식","category":"restaurant"},{"name":"쥬씨","tel":"070-4530-2540","addr":"경기도 수원시 영통구 원천동 27-1번지","indutype":"일반휴게음식 - 서양음식","category":"restaurant"}]},{"lat":"37.275011842","long":"127.04485902","imageIndex":4,"items":[{"name":"더구너스펍(THE GOONERS PUB)","tel":"","addr":"경기도 수원시 영통구 원천동 79-1번지 2층","indutype":"일반휴게음식 - 주점","category":"restaurant"},{"name":"도야족발","tel":"031-214-9600","addr":"경기도 수원시 영통구 원천동 79-1번지","indutype":"일반휴게음식 - 일반한식","category":"restaurant"}]},{"lat":"37.278624852","long":"127.04516547","imageIndex":4,"items":[{"name":"더쉐어32","tel":"031-215-3279","addr":"경기도 수원시 영통구 원천동 38-26번지 캠퍼스빌 206,306호","indutype":"일반휴게음식 - 서양음식","category":"restaurant"},{"name":"본도시락 아주대점","tel":"031-214-4283","addr":"경기도 수원시 영통구 원천동 38-26번지 캠퍼스빌 204호","indutype":"일반휴게음식 - 일반한식","category":"restaurant"}]},{"lat":"37.262723864","long":"127.06127729","imageIndex":4,"items":[{"name":"더카페","tel":"031-8002-3399","addr":"경기도 수원시 영통구 원천동 552번지 영통이노플렉스1단지 2동 109호","indutype":"일반휴게음식 - 서양음식","category":"restaurant"}]},{"lat":"37.274461694","long":"127.04630191","imageIndex":4,"items":[{"name":"덕","tel":"031-215-3977","addr":"경기도 수원시 영통구 원천동 72-118번지","indutype":"일반휴게음식 - 일반한식","category":"restaurant"}]},{"lat":"37.275209927","long":"127.04525376","imageIndex":4,"items":[{"name":"독도회","tel":"031-217-5929","addr":"경기도 수원시 영통구 원천동 28-27번지 외1필지 103호","indutype":"일반휴게음식 - 일반한식","category":"restaurant"},{"name":"동경야시장","tel":"031-306-2846","addr":"경기도 수원시 영통구 원천동 28-27번지 202호","indutype":"일반휴게음식 - 주점","category":"restaurant"},{"name":"생활맥주 아주대점","tel":"031-217-7539","addr":"경기도 수원시 영통구 원천동 28-27번지 104호","indutype":"일반휴게음식 - 주점","category":"restaurant"},{"name":"셰프의 포차","tel":"031-212-9559","addr":"경기도 수원시 영통구 원천동 28-27번지 201호","indutype":"일반휴게음식 - 일반한식","category":"restaurant"},{"name":"옥집","tel":"031-214-8592","addr":"경기도 수원시 영통구 원천동 28-27번지 1층","indutype":"일반휴게음식 - 주점","category":"restaurant"},{"name":"이밤","tel":"031-212-0189","addr":"경기도 수원시 영통구 원천동 28-27번지 102호","indutype":"일반휴게음식 - 일반한식","category":"restaurant"},{"name":"줄리앙와플","tel":"031-216-0191","addr":"경기도 수원시 영통구 원천동 28-27번지 106호","indutype":"일반휴게음식 - 서양음식","category":"restaurant"}]},{"lat":"37.274929907","long":"127.04717036","imageIndex":4,"items":[{"name":"돈앤떡","tel":"031-212-2636","addr":"경기도 수원시 영통구 원천동 72-119번지 101호","indutype":"일반휴게음식 - 일반한식","category":"restaurant"},{"name":"물만두집","tel":"031-216-5878","addr":"경기도 수원시 영통구 원천동 72-119번지 102호","indutype":"일반휴게음식 - 스넥","category":"restaurant"},{"name":"피자 어셈블","tel":"031-212-3877","addr":"경기도 수원시 영통구 원천동 72-119번지 1층 103호","indutype":"일반휴게음식 - 서양음식","category":"restaurant"}]},{"lat":"37.274182189","long":"127.04680912","imageIndex":4,"items":[{"name":"돌돌말이국수","tel":"031-212-8088","addr":"경기도 수원시 영통구 원천동 75-3번지 101호","indutype":"일반휴게음식 - 스넥","category":"restaurant"}]},{"lat":"37.274263083","long":"127.04733909","imageIndex":4,"items":[{"name":"돌샘해신탕","tel":"031-211-7907","addr":"경기도 수원시 영통구 원천동 77-23번지 1층","indutype":"일반휴게음식 - 일반한식","category":"restaurant"},{"name":"시골밥상","tel":"031-212-6617","addr":"경기도 수원시 영통구 원천동 77-23번지","indutype":"일반휴게음식 - 일반한식","category":"restaurant"}]},{"lat":"37.282431188","long":"127.05741351","imageIndex":4,"items":[{"name":"동그란밥","tel":"031-306-0906","addr":"경기도 수원시 영통구 원천동 589번지 중흥S-클래스 B1층 140호","indutype":"일반휴게음식 - 일반한식","category":"restaurant"},{"name":"뜰","tel":"031-231-4520","addr":"경기도 수원시 영통구 원천동 589번지 중흥S-클래스 지하2층 002호","indutype":"일반휴게음식 - 서양음식","category":"restaurant"},{"name":"밥앤스낵","tel":"031-8001-5858","addr":"경기도 수원시 영통구 원천동 589번지 중흥S-클래스 판매시설동 지2층 B2-010호","indutype":"일반휴게음식 - 스넥","category":"restaurant"},{"name":"살롱드가배","tel":"","addr":"경기도 수원시 영통구 원천동 589번지 중흥S-클래스 B1층 042호","indutype":"일반휴게음식 - 서양음식","category":"restaurant"},{"name":"스윗 블리스","tel":"031-000-0000","addr":"경기도 수원시 영통구 원천동 589번지 중흥S-클래스 B1층 034호","indutype":"일반휴게음식 - 서양음식","category":"restaurant"},{"name":"우일티에스 중흥어뮤즈스파점","tel":"031-8009-0600","addr":"경기도 수원시 영통구 원천동 589번지 중흥S-클래스 B층 1호","indutype":"일반휴게음식 - 일반한식","category":"restaurant"}]},{"lat":"37.277039446","long":"127.04402577","imageIndex":4,"items":[{"name":"동대문엽기떡볶이 아주대점","tel":"031-212-4858","addr":"경기도 수원시 영통구 원천동 25-18번지","indutype":"일반휴게음식 - 일반한식","category":"restaurant"},{"name":"맥학분식포차","tel":"031-797-9846","addr":"경기도 수원시 영통구 원천동 25-18번지","indutype":"일반휴게음식 - 주점","category":"restaurant"},{"name":"우드스탁","tel":"031-893-0062","addr":"경기도 수원시 영통구 원천동 25-18번지 3층","indutype":"일반휴게음식 - 주점","category":"restaurant"}]},{"lat":"37.276733085","long":"127.04405943","imageIndex":4,"items":[{"name":"동떡이즉석떡볶이","tel":"031-215-0208","addr":"경기도 수원시 영통구 원천동 25-12번지 2층","indutype":"일반휴게음식 - 스넥","category":"restaurant"}]},{"lat":"37.278291815","long":"127.04419558","imageIndex":4,"items":[{"name":"두꺼비부대찌개 볶음","tel":"031-212-1813","addr":"경기도 수원시 영통구 원천동 18-12번지 2층","indutype":"일반휴게음식 - 일반한식","category":"restaurant"},{"name":"화산","tel":"031-304-1502","addr":"경기도 수원시 영통구 원천동 18-12번지 2층전체","indutype":"일반휴게음식 - 일반한식","category":"restaurant"}]},{"lat":"37.266291263","long":"127.0626329","imageIndex":4,"items":[{"name":"드링크펍","tel":"031-217-4455","addr":"경기도 수원시 영통구 원천동 253-4번지 1층 101호","indutype":"일반휴게음식 - 서양음식","category":"restaurant"}]},{"lat":"37.276955851","long":"127.05068946","imageIndex":4,"items":[{"name":"디아너스커피","tel":"031-216-1672","addr":"경기도 수원시 영통구 원천동 580-8번지","indutype":"일반휴게음식 - 서양음식","category":"restaurant"}]},{"lat":"37.275462617","long":"127.04411511","imageIndex":4,"items":[{"name":"따숩","tel":"","addr":"경기도 수원시 영통구 원천동 27-10번지 1층","indutype":"일반휴게음식 - 일반한식","category":"restaurant"},{"name":"따숩","tel":"","addr":"경기도 수원시 영통구 원천동 27-10번지 1층","indutype":"일반휴게음식 - 일반한식","category":"restaurant"}]},{"lat":"37.274714151","long":"127.04583978","imageIndex":4,"items":[{"name":"땅땅치킨아주대점","tel":"031-211-4944","addr":"경기도 수원시 영통구 원천동 28-25번지 1층 108호","indutype":"일반휴게음식 - 스넥","category":"restaurant"},{"name":"앤도로시 샌드위치 아주대점","tel":"031-000-0000","addr":"경기도 수원시 영통구 원천동 28-25번지 105호","indutype":"일반휴게음식 - 서양음식","category":"restaurant"},{"name":"팔달수제맥주","tel":"031-1111-0000","addr":"경기도 수원시 영통구 원천동 28-25번지 102호","indutype":"일반휴게음식 - 주점","category":"restaurant"}]},{"lat":"37.266741365","long":"127.06344497","imageIndex":4,"items":[{"name":"떡볶이박사","tel":"031-217-0119","addr":"경기도 수원시 영통구 원천동 258-18번지","indutype":"일반휴게음식 - 스넥","category":"restaurant"},{"name":"송학냉면&제이엠티푸드","tel":"","addr":"경기도 수원시 영통구 원천동 258-18번지 1,2층","indutype":"일반휴게음식 - 일반한식","category":"restaurant"}]},{"lat":"37.277794157","long":"127.0498105","imageIndex":4,"items":[{"name":"뜰커피34 원천점","tel":"031-215-4520","addr":"경기도 수원시 영통구 원천동 576번지 아주프라자 1층 101호,102호","indutype":"일반휴게음식 - 서양음식","category":"restaurant"},{"name":"청나래한식뷔페","tel":"031-214-0162","addr":"경기도 수원시 영통구 원천동 576번지 아주프라자 202호 201","indutype":"일반휴게음식 - 일반한식","category":"restaurant"}]},{"lat":"37.262102304","long":"127.06097244","imageIndex":4,"items":[{"name":"라떼요","tel":"031-8002-2799","addr":"경기도 수원시 영통구 원천동 554번지 영통이노플렉스2단지 108호","indutype":"일반휴게음식 - 서양음식","category":"restaurant"},{"name":"조이푸드","tel":"031-8002-3199","addr":"경기도 수원시 영통구 원천동 554번지 영통 이노플렉스-2단지 3동 3-201호","indutype":"일반휴게음식 - 일반한식","category":"restaurant"},{"name":"홀릭맥","tel":"031-8002-2266","addr":"경기도 수원시 영통구 원천동 554번지 3동 107호 영통이노플렉스-2단지","indutype":"일반휴게음식 - 주점","category":"restaurant"}]},{"lat":"37.274623053","long":"127.04850063","imageIndex":4,"items":[{"name":"라이프스토리","tel":"031-234-6126","addr":"경기도 수원시 영통구 원천동 78-53번지 101호","indutype":"일반휴게음식 - 서양음식","category":"restaurant"}]},{"lat":"37.275732917","long":"127.04413781","imageIndex":4,"items":[{"name":"라화쿵푸 아주대점","tel":"","addr":"경기도 수원시 영통구 원천동 28-2번지 2층","indutype":"일반휴게음식 - 중국식","category":"restaurant"}]},{"lat":"37.277102253","long":"127.04478125","imageIndex":4,"items":[{"name":"레알공신","tel":"","addr":"경기도 수원시 영통구 원천동 29-32번지 1층","indutype":"일반휴게음식 - 스넥","category":"restaurant"}]},{"lat":"37.266460638","long":"127.06613918","imageIndex":4,"items":[{"name":"르노삼성엔제리너스수원점","tel":"031-211-1600","addr":"경기도 수원시 영통구 원천동 320-1번지 나동 1층 주삼성물산","indutype":"일반휴게음식 - 서양음식","category":"restaurant"}]},{"lat":"37.276487425","long":"127.05041855","imageIndex":4,"items":[{"name":"리아쿠킹","tel":"","addr":"경기도 수원시 영통구 원천동 582-6번지 뉴에보 101호","indutype":"일반휴게음식 - 서양음식","category":"restaurant"}]},{"lat":"37.277100402","long":"127.04971987","imageIndex":4,"items":[{"name":"마라나타","tel":"031-215-4388","addr":"경기도 수원시 영통구 원천동 582-1번지 1층","indutype":"일반휴게음식 - 서양음식","category":"restaurant"}]},{"lat":"37.27393575","long":"127.05463376","imageIndex":4,"items":[{"name":"마루수산&치킨.피자.분식.호프","tel":"031-215-0600","addr":"경기도 수원시 영통구 원천동 607번지 인터프라자 202호","indutype":"일반휴게음식 - 일식·회집","category":"restaurant"},{"name":"만두언니네 부엌","tel":"","addr":"경기도 수원시 영통구 원천동 607번지 1층 104호","indutype":"일반휴게음식 - 일반한식","category":"restaurant"},{"name":"치킨마루(수원법원사거리)","tel":"031-214-0600","addr":"경기도 수원시 영통구 원천동 607번지 1층 103호","indutype":"일반휴게음식 - 스넥","category":"restaurant"}]},{"lat":"37.277624861","long":"127.04474772","imageIndex":4,"items":[{"name":"막창꾼","tel":"031-217-1979","addr":"경기도 수원시 영통구 원천동 29-53번지 1층","indutype":"일반휴게음식 - 일반한식","category":"restaurant"}]},{"lat":"37.274930401","long":"127.04582863","imageIndex":4,"items":[{"name":"만개호떡","tel":"031-214-5355","addr":"경기도 수원시 영통구 원천동 72-82번지 1층 101호","indutype":"일반휴게음식 - 일반한식","category":"restaurant"},{"name":"코랜드치킨","tel":"031-216-8965","addr":"경기도 수원시 영통구 원천동 72-82번지","indutype":"일반휴게음식 - 주점","category":"restaurant"}]},{"lat":"37.261406598","long":"127.06474837","imageIndex":4,"items":[{"name":"만남의광장","tel":"031-215-5077","addr":"경기도 수원시 영통구 원천동 362-32번지 B동","indutype":"일반휴게음식 - 일반한식","category":"restaurant"},{"name":"미향","tel":"031-235-7752","addr":"경기도 수원시 영통구 원천동 362-32번지","indutype":"일반휴게음식 - 일반한식","category":"restaurant"},{"name":"이모네조개구이","tel":"031-213-7095","addr":"경기도 수원시 영통구 원천동 362-32번지","indutype":"일반휴게음식 - 일반한식","category":"restaurant"},{"name":"장어대가","tel":"031-213-6678","addr":"경기도 수원시 영통구 원천동 362-32번지","indutype":"일반휴게음식 - 일반한식","category":"restaurant"}]},{"lat":"37.278318564","long":"127.04499616","imageIndex":4,"items":[{"name":"맥주밤","tel":"031-211-3339","addr":"경기도 수원시 영통구 원천동 30-61번지","indutype":"일반휴게음식 - 주점","category":"restaurant"}]},{"lat":"37.278517138","long":"127.04400402","imageIndex":4,"items":[{"name":"메가커피 수원아주대점","tel":"031-215-6762","addr":"경기도 수원시 영통구 원천동 18-2번지 아카데미빌딩 1층","indutype":"일반휴게음식 - 서양음식","category":"restaurant"},{"name":"별미스넥","tel":"031-231-9990","addr":"경기도 수원시 영통구 원천동 18-2번지","indutype":"일반휴게음식 - 스넥","category":"restaurant"},{"name":"카페커스","tel":"031-242-5566","addr":"경기도 수원시 영통구 원천동 18-2번지 3층전체","indutype":"일반휴게음식 - 서양음식","category":"restaurant"}]},{"lat":"37.274848375","long":"127.04833164","imageIndex":4,"items":[{"name":"메롱 마카롱하우스","tel":"031-111-1111","addr":"경기도 수원시 영통구 원천동 78-44번지 1층","indutype":"일반휴게음식 - 일반한식","category":"restaurant"}]},{"lat":"37.277181548","long":"127.04958461","imageIndex":4,"items":[{"name":"메종","tel":"031-216-8227","addr":"경기도 수원시 영통구 원천동 582번지 1층","indutype":"일반휴게음식 - 일반한식","category":"restaurant"}]},{"lat":"37.277931021","long":"127.04527784","imageIndex":4,"items":[{"name":"멘야고코로","tel":"031-215-1259","addr":"경기도 수원시 영통구 원천동 30-66번지 1층","indutype":"일반휴게음식 - 일식·회집","category":"restaurant"},{"name":"숯불소갈비전문점소간지","tel":"031-214-3066","addr":"경기도 수원시 영통구 원천동 30-66번지 지하1층","indutype":"일반휴게음식 - 일반한식","category":"restaurant"}]},{"lat":"37.261291526","long":"127.06066745","imageIndex":4,"items":[{"name":"몬테로사","tel":"031-214-4014","addr":"경기도 수원시 영통구 원천동 352-9번지 1층","indutype":"일반휴게음식 - 서양음식","category":"restaurant"}]},{"lat":"37.273956632","long":"127.04760951","imageIndex":4,"items":[{"name":"몽짬뽕 본메디타워점","tel":"","addr":"경기도 수원시 영통구 원천동 78-3번지 본메디타워 1층 105동","indutype":"일반휴게음식 - 중국식","category":"restaurant"},{"name":"죽이야기 수원본메디타워점","tel":"031-213-6233","addr":"경기도 수원시 영통구 원천동 78-3번지 102호","indutype":"일반휴게음식 - 일반한식","category":"restaurant"}]},{"lat":"37.278796176","long":"127.04480474","imageIndex":4,"items":[{"name":"무교동일품낙지","tel":"031-216-0552","addr":"경기도 수원시 영통구 원천동 29-47 1층,2층","indutype":"일반휴게음식 - 일반한식","category":"restaurant"}]},{"lat":"37.258820437","long":"127.0651408","imageIndex":4,"items":[{"name":"무봉리토종순대","tel":"031-215-8678","addr":"경기도 수원시 영통구 원천동 416-1번지","indutype":"일반휴게음식 - 일반한식","category":"restaurant"}]},{"lat":"37.275372104","long":"127.0452764","imageIndex":4,"items":[{"name":"무제","tel":"","addr":"경기도 수원시 영통구 원천동 32-18번지","indutype":"일반휴게음식 - 주점","category":"restaurant"},{"name":"일호선","tel":"","addr":"경기도 수원시 영통구 원천동 32-18번지 1층 101호","indutype":"일반휴게음식 - 일반한식","category":"restaurant"},{"name":"작은술집","tel":"070-8867-2937","addr":"경기도 수원시 영통구 원천동 32-18번지 103호","indutype":"일반휴게음식 - 일반한식","category":"restaurant"}]},{"lat":"37.278544063","long":"127.04430848","imageIndex":4,"items":[{"name":"무한통삼 아주대점","tel":"031-211-9293","addr":"경기도 수원시 영통구 원천동 18-16번지 1층","indutype":"일반휴게음식 - 일반한식","category":"restaurant"},{"name":"쿠이시","tel":"031-271-4653","addr":"경기도 수원시 영통구 원천동 18-16번지 2층","indutype":"일반휴게음식 - 주점","category":"restaurant"}]},{"lat":"37.277289782","long":"127.04930279","imageIndex":4,"items":[{"name":"물고기자리","tel":"031-214-0087","addr":"경기도 수원시 영통구 원천동 576-3번지 101호","indutype":"일반휴게음식 - 일반한식","category":"restaurant"},{"name":"양평해장국","tel":"031-213-6100","addr":"경기도 수원시 영통구 원천동 576-3번지 105호 103 104","indutype":"일반휴게음식 - 일반한식","category":"restaurant"}]},{"lat":"37.276516525","long":"127.04495006","imageIndex":4,"items":[{"name":"미강","tel":"031-212-5603","addr":"경기도 수원시 영통구 원천동 29-38번지 1층","indutype":"일반휴게음식 - 일반한식","category":"restaurant"}]},{"lat":"37.277183599","long":"127.04405967","imageIndex":4,"items":[{"name":"미쳐버린파닭(아주대점)","tel":"031-216-9245","addr":"경기도 수원시 영통구 원천동 25-13번지","indutype":"일반휴게음식 - 스넥","category":"restaurant"}]},{"lat":"37.275876904","long":"127.04464527","imageIndex":4,"items":[{"name":"미테","tel":"031-217-1979","addr":"경기도 수원시 영통구 원천동 28-1번지 지하1층","indutype":"일반휴게음식 - 일반한식","category":"restaurant"}]},{"lat":"37.266572624","long":"127.05843927","imageIndex":4,"items":[{"name":"바이엘(Bar EL)","tel":"031-201-4709","addr":"경기도 수원시 영통구 원천동 550-2번지 원천원흥프라자 4층 402호","indutype":"일반휴게음식 - 주점","category":"restaurant"},{"name":"삼성대반점","tel":"031-217-8287","addr":"경기도 수원시 영통구 원천동 550-2번지 원천원흥프라자 202호","indutype":"일반휴게음식 - 중국식","category":"restaurant"},{"name":"요거프레소 (원천점)","tel":"070-7404-1468","addr":"경기도 수원시 영통구 원천동 550-2번지 원천원흥프라자 106호","indutype":"일반휴게음식 - 서양음식","category":"restaurant"},{"name":"장원순대국","tel":"031-211-0667","addr":"경기도 수원시 영통구 원천동 550-2번지 원천원흥프라자 101호","indutype":"일반휴게음식 - 일반한식","category":"restaurant"},{"name":"토크","tel":"031-111-1111","addr":"경기도 수원시 영통구 원천동 550-2번지 원천원흥프라자 4층 402호","indutype":"일반휴게음식 - 일반한식","category":"restaurant"},{"name":"한돈미가","tel":"070-4042-9282","addr":"경기도 수원시 영통구 원천동 550-2번지 원천원흥프라자 2층 201호","indutype":"일반휴게음식 - 일반한식","category":"restaurant"},{"name":"훌랄라숯불바베큐치킨","tel":"031-213-2939","addr":"경기도 수원시 영통구 원천동 550-2번지 원천원흥프라자 103호","indutype":"일반휴게음식 - 스넥","category":"restaurant"}]},{"lat":"37.26640842","long":"127.0625879","imageIndex":4,"items":[{"name":"박군치킨","tel":"031-213-8830","addr":"경기도 수원시 영통구 원천동 253-14번지 1층","indutype":"일반휴게음식 - 스넥","category":"restaurant"},{"name":"홍구등갈비","tel":"031-215-7153","addr":"경기도 수원시 영통구 원천동 253-14번지","indutype":"일반휴게음식 - 일반한식","category":"restaurant"}]},{"lat":"37.266957699","long":"127.06327604","imageIndex":4,"items":[{"name":"발리(VALI)","tel":"031-214-9567","addr":"경기도 수원시 영통구 원천동 258-26번지 1층","indutype":"일반휴게음식 - 주점","category":"restaurant"}]},{"lat":"37.274767756","long":"127.04708007","imageIndex":4,"items":[{"name":"배달5삼겹아주대점","tel":"031-211-8592","addr":"경기도 수원시 영통구 원천동 72-11번지 1층","indutype":"일반휴게음식 - 일반한식","category":"restaurant"}]},{"lat":"37.277877136","long":"127.04478168","imageIndex":4,"items":[{"name":"베트남노상식당 아주대점","tel":"031-215-5322","addr":"경기도 수원시 영통구 원천동 29-52번지 1층","indutype":"일반휴게음식 - 서양음식","category":"restaurant"}]},{"lat":"37.266740548","long":"127.06502331","imageIndex":4,"items":[{"name":"보가","tel":"031-211-9292","addr":"경기도 수원시 영통구 원천동 326-4번지","indutype":"일반휴게음식 - 일반한식","category":"restaurant"}]},{"lat":"37.276153799","long":"127.05102721","imageIndex":4,"items":[{"name":"보헤미안사람들","tel":"070-4799-7004","addr":"경기도 수원시 영통구 원천동 579-3번지 101호","indutype":"일반휴게음식 - 서양음식","category":"restaurant"}]},{"lat":"37.277073942","long":"127.04825405","imageIndex":4,"items":[{"name":"본가영양탕","tel":"031-213-2500","addr":"경기도 수원시 영통구 원천동 66-7번지","indutype":"일반휴게음식 - 일반한식","category":"restaurant"}]},{"lat":"37.27901249","long":"127.04461318","imageIndex":4,"items":[{"name":"봉추찜닭","tel":"031-211-6981","addr":"경기도 수원시 영통구 원천동 16-2번지 3층 외2필지동문빌딩","indutype":"일반휴게음식 - 일반한식","category":"restaurant"}]},{"lat":"37.266957299","long":"127.06405393","imageIndex":4,"items":[{"name":"봉치킨","tel":"031-214-8092","addr":"경기도 수원시 영통구 원천동 263-25번지","indutype":"일반휴게음식 - 스넥","category":"restaurant"}]},{"lat":"37.266461902","long":"127.06372659","imageIndex":4,"items":[{"name":"부영집","tel":"031-211-4384","addr":"경기도 수원시 영통구 원천동 257-15번지","indutype":"일반휴게음식 - 일반한식","category":"restaurant"}]},{"lat":"37.277985524","long":"127.04402628","imageIndex":4,"items":[{"name":"불로만숯불바베큐","tel":"031-217-9292","addr":"경기도 수원시 영통구 원천동 18-13번지","indutype":"일반휴게음식 - 주점","category":"restaurant"},{"name":"스플래쉬","tel":"031-216-4880","addr":"경기도 수원시 영통구 원천동 18-13번지 2층","indutype":"일반휴게음식 - 일반한식","category":"restaurant"},{"name":"아주캠프","tel":"031-225-2300","addr":"경기도 수원시 영통구 원천동 18-13번지 2층","indutype":"일반휴게음식 - 일반한식","category":"restaurant"},{"name":"오뚜기","tel":"031-215-6428","addr":"경기도 수원시 영통구 원천동 18-13번지 지하층","indutype":"일반휴게음식 - 일반한식","category":"restaurant"}]},{"lat":"37.278489569","long":"127.04552621","imageIndex":4,"items":[{"name":"비담비 아주대점","tel":"031-216-3450","addr":"경기도 수원시 영통구 원천동 37-7번지 삼아빌딩 303호","indutype":"일반휴게음식 - 일반한식","category":"restaurant"},{"name":"손두부가","tel":"031-215-2089","addr":"경기도 수원시 영통구 원천동 37-7번지 삼아빌딩 1층","indutype":"일반휴게음식 - 일반한식","category":"restaurant"},{"name":"탕화쿵푸마라탕","tel":"031-747-8874","addr":"경기도 수원시 영통구 원천동 37-7번지 삼아빌딩 301호","indutype":"일반휴게음식 - 중국식","category":"restaurant"},{"name":"하이장","tel":"031-216-5239","addr":"경기도 수원시 영통구 원천동 37-7번지 삼아빌딩 2층","indutype":"일반휴게음식 - 일반한식","category":"restaurant"}]},{"lat":"37.275597577","long":"127.04466767","imageIndex":4,"items":[{"name":"비어스토리","tel":"070-2785-8444","addr":"경기도 수원시 영통구 원천동 28-13번지 1층","indutype":"일반휴게음식 - 일반한식","category":"restaurant"},{"name":"술합니다","tel":"070-7500-1618","addr":"경기도 수원시 영통구 원천동 28-13번지 1층","indutype":"일반휴게음식 - 일반한식","category":"restaurant"}]},{"lat":"37.276705773","long":"127.04485996","imageIndex":4,"items":[{"name":"비어첸아주대점","tel":"031-213-2006","addr":"경기도 수원시 영통구 원천동 29-25번지","indutype":"일반휴게음식 - 주점","category":"restaurant"},{"name":"인근주민 아주대점","tel":"070-4064-2925","addr":"경기도 수원시 영통구 원천동 29-25번지 2층","indutype":"일반휴게음식 - 스넥","category":"restaurant"}]},{"lat":"37.261938294","long":"127.06457971","imageIndex":4,"items":[{"name":"비전카페","tel":"031-204-9688","addr":"경기도 수원시 영통구 원천동 337-55번지","indutype":"일반휴게음식 - 서양음식","category":"restaurant"}]},{"lat":"37.276318612","long":"127.0440592","imageIndex":4,"items":[{"name":"빽다방 아주대점","tel":"070-7543-3601","addr":"경기도 수원시 영통구 원천동 25-2번지","indutype":"일반휴게음식 - 서양음식","category":"restaurant"}]},{"lat":"37.267354277","long":"127.06302833","imageIndex":4,"items":[{"name":"삼국지","tel":"31-216-5552","addr":"경기도 수원시 영통구 원천동 259-5번지","indutype":"일반휴게음식 - 일반한식","category":"restaurant"}]},{"lat":"37.259937844","long":"127.06489372","imageIndex":4,"items":[{"name":"삼대째손두부","tel":"031-211-9033","addr":"경기도 수원시 영통구 원천동 417-2번지","indutype":"일반휴게음식 - 일반한식","category":"restaurant"},{"name":"이화수전통육개장 수원영통원천점","tel":"031-212-8081","addr":"경기도 수원시 영통구 원천동 417-2번지","indutype":"일반휴게음식 - 일반한식","category":"restaurant"},{"name":"초가지붕남원추어탕","tel":"031-211-5300","addr":"경기도 수원시 영통구 원천동 417-2번지","indutype":"일반휴게음식 - 일반한식","category":"restaurant"}]},{"lat":"37.274155066","long":"127.04705716","imageIndex":4,"items":[{"name":"삼미식당","tel":"031-211-2665","addr":"경기도 수원시 영통구 원천동 77-6번지","indutype":"일반휴게음식 - 일반한식","category":"restaurant"}]},{"lat":"37.273567208","long":"127.05258149","imageIndex":4,"items":[{"name":"삼부자갈비","tel":"031-212-3805","addr":"경기도 수원시 영통구 원천동 96-1번지","indutype":"일반휴게음식 - 일반한식","category":"restaurant"}]},{"lat":"37.266740459","long":"127.06519241","imageIndex":4,"items":[{"name":"삼성돌솥부대찌개","tel":"031-212-0848","addr":"경기도 수원시 영통구 원천동 326-9번지 2층","indutype":"일반휴게음식 - 일반한식","category":"restaurant"}]},{"lat":"37.279984281","long":"127.04819942","imageIndex":4,"items":[{"name":"삼성웰스토리(주) 아주대학교의료원교직원","tel":"031-5171-1167","addr":"경기도 수원시 영통구 원천동 산26-6번지 아주대학병원","indutype":"일반휴게음식 - 위탁급식업","category":"restaurant"},{"name":"삼성웰스토리(주) 아주대학교의료원선인재","tel":"031-5171-1167","addr":"경기도 수원시 영통구 원천동 산26-6번지 아주대학병원","indutype":"일반휴게음식 - 위탁급식업","category":"restaurant"},{"name":"삼성웰스토리(주)아주대학교의료원선인재","tel":"031-219-4805","addr":"경기도 수원시 영통구 원천동 산26-6번지 아주대학병원","indutype":"일반휴게음식 - 위탁급식업","category":"restaurant"}]},{"lat":"37.274406945","long":"127.0481397","imageIndex":4,"items":[{"name":"삼정","tel":"031-214-0975","addr":"경기도 수원시 영통구 원천동 78-40번지 1층","indutype":"일반휴게음식 - 일반한식","category":"restaurant"},{"name":"수원통보쌈","tel":"031-215-3023","addr":"경기도 수원시 영통구 원천동 78-40번지 1층 102호","indutype":"일반휴게음식 - 일반한식","category":"restaurant"}]},{"lat":"37.278544023","long":"127.04442123","imageIndex":4,"items":[{"name":"삼촌네가게","tel":"031-216-2372","addr":"경기도 수원시 영통구 원천동 18-15번지","indutype":"일반휴게음식 - 주점","category":"restaurant"},{"name":"솥뚜껑삼겹살","tel":"031-211-2747","addr":"경기도 수원시 영통구 원천동 18-15번지 1층","indutype":"일반휴게음식 - 일반한식","category":"restaurant"}]},{"lat":"37.278462844","long":"127.04466925","imageIndex":4,"items":[{"name":"샤브샤브","tel":"031-214-4846","addr":"경기도 수원시 영통구 원천동 29-2번지 2층","indutype":"일반휴게음식 - 일반한식","category":"restaurant"},{"name":"수철이네왕새우튀김아주대점","tel":"031-215-3393","addr":"경기도 수원시 영통구 원천동 29-2번지 1층","indutype":"일반휴게음식 - 일반한식","category":"restaurant"}]},{"lat":"37.274406667","long":"127.0488613","imageIndex":4,"items":[{"name":"서리담","tel":"031-214-1414","addr":"경기도 수원시 영통구 원천동 85-11번지 1층","indutype":"일반휴게음식 - 일반한식","category":"restaurant"},{"name":"테라스","tel":"070-8746-9394","addr":"경기도 수원시 영통구 원천동 85-11번지 1층 3호","indutype":"일반휴게음식 - 서양음식","category":"restaurant"}]},{"lat":"37.276408434","long":"127.0448598","imageIndex":4,"items":[{"name":"선술집모로미식당 아주대점","tel":"031-225-0770","addr":"경기도 수원시 영통구 원천동 29-23번지","indutype":"일반휴게음식 - 주점","category":"restaurant"}]},{"lat":"37.270627002","long":"127.05897214","imageIndex":4,"items":[{"name":"선한밥상","tel":"031-216-7859","addr":"경기도 수원시 영통구 원천동 198-3번지 1층","indutype":"일반휴게음식 - 일반한식","category":"restaurant"}]},{"lat":"37.277433495","long":"127.0504417","imageIndex":4,"items":[{"name":"설원칡냉면 수원광교아주대병원점","tel":"031-213-8822","addr":"경기도 수원시 영통구 원천동 577-8번지 1층","indutype":"일반휴게음식 - 일반한식","category":"restaurant"}]},{"lat":"37.275624488","long":"127.04500594","imageIndex":4,"items":[{"name":"셰프의고깃집","tel":"031-213-9038","addr":"경기도 수원시 영통구 원천동 31-1번지 1층","indutype":"일반휴게음식 - 일반한식","category":"restaurant"}]},{"lat":"37.278769193","long":"127.04466942","imageIndex":4,"items":[{"name":"소고","tel":"031-213-1630","addr":"경기도 수원시 영통구 원천동 29-1번지 1층","indutype":"일반휴게음식 - 일식·회집","category":"restaurant"},{"name":"이번지깡통집아주대점","tel":"031-213-1116","addr":"경기도 수원시 영통구 원천동 29-1번지 지하1층","indutype":"일반휴게음식 - 일반한식","category":"restaurant"},{"name":"제이투(J2)","tel":"031-212-2848","addr":"경기도 수원시 영통구 원천동 29-1번지 2층","indutype":"일반휴게음식 - 주점","category":"restaurant"}]},{"lat":"37.276622425","long":"127.050802","imageIndex":4,"items":[{"name":"소공동 뚝배기집","tel":"031-211-1936","addr":"경기도 수원시 영통구 원천동 580-4번지 1층","indutype":"일반휴게음식 - 일반한식","category":"restaurant"}]},{"lat":"37.276902056","long":"127.05002418","imageIndex":4,"items":[{"name":"소담","tel":"031-224-6090","addr":"경기도 수원시 영통구 원천동 582-3번지","indutype":"일반휴게음식 - 일반한식","category":"restaurant"}]},{"lat":"37.269516307","long":"127.06388689","imageIndex":4,"items":[{"name":"소담한상","tel":"031-212-6531","addr":"경기도 수원시 영통구 원천동 600-5번지 101호","indutype":"일반휴게음식 - 일반한식","category":"restaurant"}]},{"lat":"37.275651559","long":"127.0448932","imageIndex":4,"items":[{"name":"소문난대구막창","tel":"031-212-2213","addr":"경기도 수원시 영통구 원천동 31-3번지","indutype":"일반휴게음식 - 일반한식","category":"restaurant"}]},{"lat":"37.2670402","long":"127.06044636","imageIndex":4,"items":[{"name":"소문난뒷고기","tel":"031-548-2928","addr":"경기도 수원시 영통구 원천동 233번지 1층 102호","indutype":"일반휴게음식 - 일반한식","category":"restaurant"}]},{"lat":"37.259018681","long":"127.06510714","imageIndex":4,"items":[{"name":"소문난솥뚜껑 삼겹살","tel":"031-212-1066","addr":"경기도 수원시 영통구 원천동 417-6번지 1층","indutype":"일반휴게음식 - 일반한식","category":"restaurant"}]},{"lat":"37.26659771","long":"127.06244149","imageIndex":4,"items":[{"name":"소소일상","tel":"031-214-2231","addr":"경기도 수원시 영통구 원천동 253-15번지 1층 101호","indutype":"일반휴게음식 - 일반한식","category":"restaurant"}]},{"lat":"37.273983227","long":"127.04874829","imageIndex":4,"items":[{"name":"손님오시는날엔(한식식당)","tel":"031-217-9008","addr":"경기도 수원시 영통구 원천동 87번지 대원빌딩 103,104호","indutype":"일반휴게음식 - 스넥","category":"restaurant"}]},{"lat":"37.278237579","long":"127.04469168","imageIndex":4,"items":[{"name":"송림식당","tel":"031-213-6116","addr":"경기도 수원시 영통구 원천동 29-56번지 1층 2호","indutype":"일반휴게음식 - 일반한식","category":"restaurant"},{"name":"시골집","tel":"031-211-4799","addr":"경기도 수원시 영통구 원천동 29-56번지","indutype":"일반휴게음식 - 일반한식","category":"restaurant"}]},{"lat":"37.276487156","long":"127.05108379","imageIndex":4,"items":[{"name":"수제샌드위치","tel":"031-239-0897","addr":"경기도 수원시 영통구 원천동 579-1번지","indutype":"일반휴게음식 - 스넥","category":"restaurant"},{"name":"우도갈비앤 막국수","tel":"","addr":"경기도 수원시 영통구 원천동 579-1번지 1층 101호","indutype":"일반휴게음식 - 일반한식","category":"restaurant"}]},{"lat":"37.278517079","long":"127.04417316","imageIndex":4,"items":[{"name":"수해복마라탕","tel":"031-211-9731","addr":"경기도 수원시 영통구 원천동 18-14번지 2층","indutype":"일반휴게음식 - 중국식","category":"restaurant"}]},{"lat":"37.267715222","long":"127.06196886","imageIndex":4,"items":[{"name":"순이네 양꼬치 양다리구이","tel":"031-213-5292","addr":"경기도 수원시 영통구 원천동 235-5번지","indutype":"일반휴게음식 - 일반한식","category":"restaurant"},{"name":"참살이생고깃간정육식당","tel":"031-216-0075","addr":"경기도 수원시 영통구 원천동 235-5번지","indutype":"일반휴게음식 - 일반한식","category":"restaurant"}]},{"lat":"37.274930568","long":"127.04536635","imageIndex":4,"items":[{"name":"숯불직화꼬치구이(아주대점)","tel":"031-217-5792","addr":"경기도 수원시 영통구 원천동 79-19번지 1층","indutype":"일반휴게음식 - 일반한식","category":"restaurant"}]},{"lat":"37.278291404","long":"127.04535697","imageIndex":4,"items":[{"name":"쉼1","tel":"070-4158-2155","addr":"경기도 수원시 영통구 원천동 37-15번지 7번가1층","indutype":"일반휴게음식 - 일반한식","category":"restaurant"}]},{"lat":"37.274099734","long":"127.05033813","imageIndex":4,"items":[{"name":"신씨네 육곳간","tel":"031-212-7971","addr":"경기도 수원시 영통구 원천동 615번지 1층","indutype":"일반휴게음식 - 일반한식","category":"restaurant"}]},{"lat":"37.278345282","long":"127.0458644","imageIndex":4,"items":[{"name":"신토리할매국밥,탄불","tel":"031-216-8592","addr":"경기도 수원시 영통구 원천동 35-1번지 2층","indutype":"일반휴게음식 - 일반한식","category":"restaurant"},{"name":"와우커피","tel":"031-216-0614","addr":"경기도 수원시 영통구 원천동 35-1번지 3층 301호","indutype":"일반휴게음식 - 서양음식","category":"restaurant"}]},{"lat":"37.275984951","long":"127.04485956","imageIndex":4,"items":[{"name":"싱싱회포차","tel":"031-215-7061","addr":"경기도 수원시 영통구 원천동 30-22번지 1층","indutype":"일반휴게음식 - 일반한식","category":"restaurant"}]},{"lat":"37.274044099","long":"127.05411519","imageIndex":4,"items":[{"name":"씨푸드락","tel":"031-212-9357","addr":"경기도 수원시 영통구 원천동 608번지","indutype":"일반휴게음식 - 일반한식","category":"restaurant"}]},{"lat":"37.276012236","long":"127.04413796","imageIndex":4,"items":[{"name":"아웃닭 아주대점","tel":"031-214-0137","addr":"경기도 수원시 영통구 원천동 28-8번지 1층","indutype":"일반휴게음식 - 주점","category":"restaurant"}]},{"lat":"37.274290333","long":"127.04675281","imageIndex":4,"items":[{"name":"아주대 장군집","tel":"","addr":"경기도 수원시 영통구 원천동 72-33번지","indutype":"일반휴게음식 - 일반한식","category":"restaurant"}]},{"lat":"37.274569714","long":"127.04658385","imageIndex":4,"items":[{"name":"아주손칼국수","tel":"031-213-0068","addr":"경기도 수원시 영통구 원천동 71-11번지 1층","indutype":"일반휴게음식 - 일반한식","category":"restaurant"}]},{"lat":"37.274795414","long":"127.04536628","imageIndex":4,"items":[{"name":"앨리피플","tel":"031-0000-0000","addr":"경기도 수원시 영통구 원천동 79-3번지 107호","indutype":"일반휴게음식 - 일반한식","category":"restaurant"},{"name":"주막거리 전","tel":"","addr":"경기도 수원시 영통구 원천동 79-3번지 105호","indutype":"일반휴게음식 - 일반한식","category":"restaurant"}]},{"lat":"37.275408468","long":"127.04436314","imageIndex":4,"items":[{"name":"어풍당당","tel":"031-211-7289","addr":"경기도 수원시 영통구 원천동 27-8번지 1층","indutype":"일반휴게음식 - 일식·회집","category":"restaurant"}]},{"lat":"37.274044866","long":"127.0523112","imageIndex":4,"items":[{"name":"언니네","tel":"031-215-7271","addr":"경기도 수원시 영통구 원천동 614-2번지 1층","indutype":"일반휴게음식 - 서양음식","category":"restaurant"}]},{"lat":"37.274740165","long":"127.04855708","imageIndex":4,"items":[{"name":"엄마손맛","tel":"031-216-3785","addr":"경기도 수원시 영통구 원천동 78-52번지","indutype":"일반휴게음식 - 일반한식","category":"restaurant"},{"name":"직구삼","tel":"031-217-9255","addr":"경기도 수원시 영통구 원천동 78-52번지 1층","indutype":"일반휴게음식 - 일반한식","category":"restaurant"}]},{"lat":"37.276156242","long":"127.04458905","imageIndex":4,"items":[{"name":"엉클키친","tel":"","addr":"경기도 수원시 영통구 원천동 29-15번지 1층 103호","indutype":"일반휴게음식 - 서양음식","category":"restaurant"},{"name":"유메야 아주대점","tel":"070-4649-1101","addr":"경기도 수원시 영통구 원천동 29-15번지 2층","indutype":"일반휴게음식 - 서양음식","category":"restaurant"},{"name":"육회한 언니","tel":"031-211-2228","addr":"경기도 수원시 영통구 원천동 29-15번지 1층 101호","indutype":"일반휴게음식 - 일반한식","category":"restaurant"}]},{"lat":"37.278597998","long":"127.04466933","imageIndex":4,"items":[{"name":"엉터리생고기아주대점","tel":"031-215-1153","addr":"경기도 수원시 영통구 원천동 29-90번지 1층","indutype":"일반휴게음식 - 일반한식","category":"restaurant"}]},{"lat":"37.277769286","long":"127.04400362","imageIndex":4,"items":[{"name":"에그드랍","tel":"","addr":"경기도 수원시 영통구 원천동 22-1번지","indutype":"일반휴게음식 - 서양음식","category":"restaurant"},{"name":"콩나물떡복이","tel":"031-215-1834","addr":"경기도 수원시 영통구 원천동 22-1번지","indutype":"일반휴게음식 - 스넥","category":"restaurant"},{"name":"피자스쿨 아주대점","tel":"031-212-0019","addr":"경기도 수원시 영통구 원천동 22-1번지 1층","indutype":"일반휴게음식 - 서양음식","category":"restaurant"}]},{"lat":"37.277180901","long":"127.05119699","imageIndex":4,"items":[{"name":"엘까미노","tel":"031-217-8688","addr":"경기도 수원시 영통구 원천동 578-2번지 1층","indutype":"일반휴게음식 - 서양음식","category":"restaurant"}]},{"lat":"37.275289027","long":"127.05049673","imageIndex":4,"items":[{"name":"예스김밥","tel":"070-5025-4135","addr":"경기도 수원시 영통구 원천동 83-23번지 승전빌딩 102호","indutype":"일반휴게음식 - 스넥","category":"restaurant"},{"name":"화성상사(커피스토리)","tel":"031-212-4188","addr":"경기도 수원시 영통구 원천동 83-23번지 승전빌딩 206호","indutype":"일반휴게음식 - 서양음식","category":"restaurant"},{"name":"희래원","tel":"031-216-1566","addr":"경기도 수원시 영통구 원천동 83-23번지 승전빌딩 110호","indutype":"일반휴게음식 - 중국식","category":"restaurant"}]},{"lat":"37.260434329","long":"127.06311301","imageIndex":4,"items":[{"name":"옛날통닭도야지한마리","tel":"031-9752-8245","addr":"경기도 수원시 영통구 원천동 364-1번지 102호","indutype":"일반휴게음식 - 일반한식","category":"restaurant"}]},{"lat":"37.260993093","long":"127.06286545","imageIndex":4,"items":[{"name":"오르스커피/주식회사 오르스","tel":"031-215-7713","addr":"경기도 수원시 영통구 원천동 360-5번지","indutype":"일반휴게음식 - 서양음식","category":"restaurant"}]},{"lat":"37.274126932","long":"127.04992097","imageIndex":4,"items":[{"name":"오퍼스","tel":"031-213-3513","addr":"경기도 수원시 영통구 원천동 619-3번지 지하1층 101호","indutype":"일반휴게음식 - 서양음식","category":"restaurant"}]},{"lat":"37.268960476","long":"127.05817044","imageIndex":4,"items":[{"name":"온새미로","tel":"031-216-4928","addr":"경기도 수원시 영통구 원천동 209-37번지","indutype":"일반휴게음식 - 일반한식","category":"restaurant"}]},{"lat":"37.265903621","long":"127.06302717","imageIndex":4,"items":[{"name":"와이","tel":"031-213-9090","addr":"경기도 수원시 영통구 원천동 250-10 1층","indutype":"일반휴게음식 - 서양음식","category":"restaurant"}]},{"lat":"37.273710528","long":"127.05455468","imageIndex":4,"items":[{"name":"왕순이주먹밥김밥","tel":"031-213-3434","addr":"경기도 수원시 영통구 원천동 607-1번지 호빈프라자 101호","indutype":"일반휴게음식 - 스넥","category":"restaurant"},{"name":"카페알림","tel":"070-7795-7943","addr":"경기도 수원시 영통구 원천동 607-1번지 1층 106호","indutype":"일반휴게음식 - 서양음식","category":"restaurant"}]},{"lat":"37.268183155","long":"127.06316427","imageIndex":4,"items":[{"name":"요리와중식","tel":"031-211-1020","addr":"경기도 수원시 영통구 원천동 223번지 1층","indutype":"일반휴게음식 - 중국식","category":"restaurant"},{"name":"코리안숯불닭바베큐원천점","tel":"031-215-9295","addr":"경기도 수원시 영통구 원천동 223번지","indutype":"일반휴게음식 - 스넥","category":"restaurant"}]},{"lat":"37.274071631","long":"127.05294262","imageIndex":4,"items":[{"name":"우리엥","tel":"031-213-3052","addr":"경기도 수원시 영통구 원천동 614-6번지 1층 일부호","indutype":"일반휴게음식 - 일반한식","category":"restaurant"}]},{"lat":"37.272266141","long":"127.06049544","imageIndex":4,"items":[{"name":"우리원갈비","tel":"031-211-5647","addr":"경기도 수원시 영통구 원천동 163-8번지 2통1반","indutype":"일반휴게음식 - 일반한식","category":"restaurant"}]},{"lat":"37.276516376","long":"127.04536724","imageIndex":4,"items":[{"name":"우리집","tel":"031-214-3050","addr":"경기도 수원시 영통구 원천동 30-50번지","indutype":"일반휴게음식 - 일반한식","category":"restaurant"}]},{"lat":"37.261352882","long":"127.06408322","imageIndex":4,"items":[{"name":"원천갈비설렁탕","tel":"031-212-8188","addr":"경기도 수원시 영통구 원천동 362-10번지 1층","indutype":"일반휴게음식 - 일반한식","category":"restaurant"}]},{"lat":"37.266678842","long":"127.06236263","imageIndex":4,"items":[{"name":"원천상구비어","tel":"031-215-3955","addr":"경기도 수원시 영통구 원천동 253-5번지 102호","indutype":"일반휴게음식 - 주점","category":"restaurant"}]},{"lat":"37.259768665","long":"127.06091428","imageIndex":4,"items":[{"name":"원천주먹구이","tel":"031-213-8782","addr":"경기도 수원시 영통구 원천동 378-2번지 1층","indutype":"일반휴게음식 - 일반한식","category":"restaurant"}]},{"lat":"37.257514878","long":"127.06333613","imageIndex":4,"items":[{"name":"유경식당","tel":"031-211-0366","addr":"경기도 수원시 영통구 원천동 400-1번지","indutype":"일반휴게음식 - 일반한식","category":"restaurant"}]},{"lat":"37.259045605","long":"127.06531007","imageIndex":4,"items":[{"name":"유나인원천점","tel":"031-213-5256","addr":"경기도 수원시 영통구 원천동 417번지 삼성테크노파크 106호","indutype":"일반휴게음식 - 일반한식","category":"restaurant"}]},{"lat":"37.273845912","long":"127.05402486","imageIndex":4,"items":[{"name":"유유식당","tel":"031-202-6050","addr":"경기도 수원시 영통구 원천동 608-1번지 대산프라자 1층 106호","indutype":"일반휴게음식 - 일반한식","category":"restaurant"},{"name":"테리하우스/(주)케이씨엠코퍼레이션","tel":"031-214-0660","addr":"경기도 수원시 영통구 원천동 608-1번지 대산프라자 103~105호","indutype":"일반휴게음식 - 일반한식","category":"restaurant"}]},{"lat":"37.27712793","long":"127.04844577","imageIndex":4,"items":[{"name":"의정부부대스테이크","tel":"031-214-6718","addr":"경기도 수원시 영통구 원천동 66-5번지","indutype":"일반휴게음식 - 일반한식","category":"restaurant"}]},{"lat":"37.267462446","long":"127.06293822","imageIndex":4,"items":[{"name":"이군포차","tel":"031-214-2678","addr":"경기도 수원시 영통구 원천동 259번지 외1필지1층상가","indutype":"일반휴게음식 - 일반한식","category":"restaurant"}]},{"lat":"37.267125575","long":"127.06946553","imageIndex":4,"items":[{"name":"이레식당","tel":"070-4922-1261","addr":"경기도 수원시 영통구 원천동 296-6번지 수원영통아크로파크 1층 101호","indutype":"일반휴게음식 - 일반한식","category":"restaurant"},{"name":"처갓집양념통닭 원천흥덕점","tel":"031-217-9283","addr":"경기도 수원시 영통구 원천동 296-6번지 수원영통아크로파크 1층","indutype":"일반휴게음식 - 스넥","category":"restaurant"}]},{"lat":"37.266851176","long":"127.06005163","imageIndex":4,"items":[{"name":"이모네 갈치조림","tel":"031-271-4119","addr":"경기도 수원시 영통구 원천동 468번지 이레빌딩 101호","indutype":"일반휴게음식 - 주점","category":"restaurant"},{"name":"축산이야기","tel":"031-217-7747","addr":"경기도 수원시 영통구 원천동 468번지 1층","indutype":"일반휴게음식 - 일반한식","category":"restaurant"}]},{"lat":"37.278100408","long":"127.05005875","imageIndex":4,"items":[{"name":"이화수전통육개장 수원아주대점","tel":"031-213-6746","addr":"경기도 수원시 영통구 원천동 572-3번지 1층 102,103호","indutype":"일반휴게음식 - 일반한식","category":"restaurant"},{"name":"커피스톡","tel":"031-215-1333","addr":"경기도 수원시 영통구 원천동 572-3번지 링크프라자 101호","indutype":"일반휴게음식 - 일반한식","category":"restaurant"},{"name":"티철판요리","tel":"031-233-0044","addr":"경기도 수원시 영통구 원천동 572-3번지 2층","indutype":"일반휴게음식 - 일식·회집","category":"restaurant"}]},{"lat":"37.265624497","long":"127.06264365","imageIndex":4,"items":[{"name":"일오삼분식","tel":"031-211-8543","addr":"경기도 수원시 영통구 원천동 250-3번지 1층 102호","indutype":"일반휴게음식 - 일반한식","category":"restaurant"}]},{"lat":"37.262408309","long":"127.06167161","imageIndex":4,"items":[{"name":"장지리 사골 순대국","tel":"031-8002-3300","addr":"경기도 수원시 영통구 원천동 552번지 영통이노플렉스-1단지 2동 2-110호","indutype":"일반휴게음식 - 일반한식","category":"restaurant"}]},{"lat":"37.267477166","long":"127.06912762","imageIndex":4,"items":[{"name":"전주식당","tel":"031-211-6706","addr":"경기도 수원시 영통구 원천동 296-6번지 아크로파크 101동 108호","indutype":"일반휴게음식 - 일반한식","category":"restaurant"}]},{"lat":"37.261543759","long":"127.06078037","imageIndex":4,"items":[{"name":"전주한식부페","tel":"031-213-7756","addr":"경기도 수원시 영통구 원천동 348-2번지","indutype":"일반휴게음식 - 일반한식","category":"restaurant"}]},{"lat":"37.274929337","long":"127.04866994","imageIndex":4,"items":[{"name":"족보당","tel":"031-213-7878","addr":"경기도 수원시 영통구 원천동 78-20번지 1층 101호","indutype":"일반휴게음식 - 일반한식","category":"restaurant"}]},{"lat":"37.280767148","long":"127.05080463","imageIndex":4,"items":[{"name":"주식회사 랩미","tel":"031-8002-0422","addr":"경기도 수원시 영통구 원천동 556번지 광교두산위브 상가동 108호","indutype":"일반휴게음식 - 서양음식","category":"restaurant"}]},{"lat":"37.260155084","long":"127.06296624","imageIndex":4,"items":[{"name":"주식회사아이씨엠티/카페마르코","tel":"031-214-8107","addr":"경기도 수원시 영통구 원천동 368번지 101호","indutype":"일반휴게음식 - 서양음식","category":"restaurant"}]},{"lat":"37.274352956","long":"127.04794799","imageIndex":4,"items":[{"name":"주하카페","tel":"031-8015-1691","addr":"경기도 수원시 영통구 원천동 78-38번지 1층","indutype":"일반휴게음식 - 서양음식","category":"restaurant"}]},{"lat":"37.258541236","long":"127.06491512","imageIndex":4,"items":[{"name":"지음","tel":"031-308-0884","addr":"경기도 수원시 영통구 원천동 411번지","indutype":"일반휴게음식 - 서양음식","category":"restaurant"}]},{"lat":"37.276210462","long":"127.04413807","imageIndex":4,"items":[{"name":"짚신매운갈비찜","tel":"031-216-0855","addr":"경기도 수원시 영통구 원천동 29-12번지","indutype":"일반휴게음식 - 일반한식","category":"restaurant"},{"name":"캠비","tel":"031-214-5330","addr":"경기도 수원시 영통구 원천동 29-12번지 2층","indutype":"일반휴게음식 - 서양음식","category":"restaurant"}]},{"lat":"37.274044738","long":"127.05261563","imageIndex":4,"items":[{"name":"쭈비쭈밥","tel":"031-217-3400","addr":"경기도 수원시 영통구 원천동 614-4번지 1층","indutype":"일반휴게음식 - 일반한식","category":"restaurant"}]},{"lat":"37.27557037","long":"127.04516376","imageIndex":4,"items":[{"name":"찌개지존","tel":"031-216-1046","addr":"경기도 수원시 영통구 원천동 32-11번지","indutype":"일반휴게음식 - 일반한식","category":"restaurant"},{"name":"찌개지존","tel":"031-216-1046","addr":"경기도 수원시 영통구 원천동 32-11번지","indutype":"일반휴게음식 - 일반한식","category":"restaurant"}]},{"lat":"37.274928716","long":"127.05024845","imageIndex":4,"items":[{"name":"참새와꿀배","tel":"031-212-7676","addr":"경기도 수원시 영통구 원천동 84-3번지 지하1층","indutype":"일반휴게음식 - 일반한식","category":"restaurant"}]},{"lat":"37.279569163","long":"127.0498567","imageIndex":4,"items":[{"name":"초록쉼표 광교점","tel":"031-251-9991","addr":"경기도 수원시 영통구 원천동 565번지 수원광교공공실버주택 1층 104호","indutype":"일반휴게음식 - 서양음식","category":"restaurant"}]},{"lat":"37.26665387","long":"127.05811239","imageIndex":4,"items":[{"name":"촌장골생고기","tel":"031-213-5661","addr":"경기도 수원시 영통구 원천동 550-1번지 원천훼밀리타운 108호","indutype":"일반휴게음식 - 일반한식","category":"restaurant"},{"name":"핑크분식","tel":"031-215-9388","addr":"경기도 수원시 영통구 원천동 550-1번지 원천훼밀리타운 102호","indutype":"일반휴게음식 - 스넥","category":"restaurant"}]},{"lat":"37.278460742","long":"127.05025066","imageIndex":4,"items":[{"name":"추오정남원추어탕광교점","tel":"031-213-1777","addr":"경기도 수원시 영통구 원천동 572-1번지 1층","indutype":"일반휴게음식 - 일반한식","category":"restaurant"}]},{"lat":"37.275876631","long":"127.04541199","imageIndex":4,"items":[{"name":"카우보이 버거","tel":"031-212-2589","addr":"경기도 수원시 영통구 원천동 30-110번지 1층 102호","indutype":"일반휴게음식 - 서양음식","category":"restaurant"}]},{"lat":"37.274630985","long":"127.05121791","imageIndex":4,"items":[{"name":"카페 미야","tel":"031-213-0378","addr":"경기도 수원시 영통구 원천동 617번지 1층 102호","indutype":"일반휴게음식 - 서양음식","category":"restaurant"}]},{"lat":"37.27801231","long":"127.04472538","imageIndex":4,"items":[{"name":"카페 쿠츠","tel":"","addr":"경기도 수원시 영통구 원천동 29-57번지 행운빌 1층","indutype":"일반휴게음식 - 서양음식","category":"restaurant"}]},{"lat":"37.273875178","long":"127.04855655","imageIndex":4,"items":[{"name":"카페410앤독","tel":"031-211-8232","addr":"경기도 수원시 영통구 원천동 85-23번지 서광빌딩 지하1층","indutype":"일반휴게음식 - 서양음식","category":"restaurant"}]},{"lat":"37.274739232","long":"127.05091355","imageIndex":4,"items":[{"name":"카페423","tel":"031-216-0423","addr":"경기도 수원시 영통구 원천동 618-1번지","indutype":"일반휴게음식 - 서양음식","category":"restaurant"}]},{"lat":"37.276379257","long":"127.05053124","imageIndex":4,"items":[{"name":"카페루언","tel":"","addr":"경기도 수원시 영통구 원천동 582-7번지 1층 101호","indutype":"일반휴게음식 - 서양음식","category":"restaurant"}]},{"lat":"37.277406396","long":"127.05061081","imageIndex":4,"items":[{"name":"카페리라","tel":"02-4508-8906","addr":"경기도 수원시 영통구 원천동 577-7번지 1층","indutype":"일반휴게음식 - 서양음식","category":"restaurant"}]},{"lat":"37.274595644","long":"127.04947026","imageIndex":4,"items":[{"name":"카페마들렌","tel":"031-214-7002","addr":"경기도 수원시 영통구 원천동 83-12번지 화산빌딩 101호","indutype":"일반휴게음식 - 서양음식","category":"restaurant"}]},{"lat":"37.277766523","long":"127.05131012","imageIndex":4,"items":[{"name":"카페벨라","tel":"031-212-3539","addr":"경기도 수원시 영통구 원천동 574-4번지 1층","indutype":"일반휴게음식 - 서양음식","category":"restaurant"}]},{"lat":"37.278595412","long":"127.05144596","imageIndex":4,"items":[{"name":"카페유하","tel":"070-4606-1952","addr":"경기도 수원시 영통구 원천동 571-5번지 1층 103호","indutype":"일반휴게음식 - 서양음식","category":"restaurant"}]},{"lat":"37.264379982","long":"127.06477335","imageIndex":4,"items":[{"name":"카페진","tel":"031-233-2241","addr":"경기도 수원시 영통구 원천동 337-3번지 1층","indutype":"일반휴게음식 - 서양음식","category":"restaurant"}]},{"lat":"37.277820777","long":"127.05083658","imageIndex":4,"items":[{"name":"커피 바 나인","tel":"070-7630-0745","addr":"경기도 수원시 영통구 원천동 575-6번지 1층","indutype":"일반휴게음식 - 서양음식","category":"restaurant"}]},{"lat":"37.277705764","long":"127.04527771","imageIndex":4,"items":[{"name":"커피다움","tel":"031-212-4550","addr":"경기도 수원시 영통구 원천동 30-7번지","indutype":"일반휴게음식 - 서양음식","category":"restaurant"}]},{"lat":"37.275849745","long":"127.04500606","imageIndex":4,"items":[{"name":"큰바위생삼겹살","tel":"031-211-8842","addr":"경기도 수원시 영통구 원천동 30-26번지","indutype":"일반휴게음식 - 일반한식","category":"restaurant"}]},{"lat":"37.275318002","long":"127.04538912","imageIndex":4,"items":[{"name":"태영막창","tel":"031-214-8153","addr":"경기도 수원시 영통구 원천동 32-19번지","indutype":"일반휴게음식 - 일반한식","category":"restaurant"}]},{"lat":"37.25990383","long":"127.06089184","imageIndex":4,"items":[{"name":"태영생막창","tel":"031-212-9096","addr":"경기도 수원시 영통구 원천동 378-9번지 1층","indutype":"일반휴게음식 - 일반한식","category":"restaurant"}]},{"lat":"37.274406061","long":"127.05039469","imageIndex":4,"items":[{"name":"토모카","tel":"031-211-3578","addr":"경기도 수원시 영통구 원천동 619번지 1층 101호","indutype":"일반휴게음식 - 서양음식","category":"restaurant"}]},{"lat":"37.279183879","long":"127.04406076","imageIndex":4,"items":[{"name":"투썸플레이스아주대점","tel":"031-215-2785","addr":"경기도 수원시 영통구 원천동 13-4번지 캠퍼스프라자1층일부,2층일부","indutype":"일반휴게음식 - 서양음식","category":"restaurant"}]},{"lat":"37.259432965","long":"127.06546821","imageIndex":4,"items":[{"name":"파즈커피 (paz coffee)/주식회사 클라우스","tel":"031-1111-1111","addr":"경기도 수원시 영통구 원천동 419-14번지 호산빌리지 118동 102호","indutype":"일반휴게음식 - 서양음식","category":"restaurant"}]},{"lat":"37.260152625","long":"127.06763319","imageIndex":4,"items":[{"name":"펀더멘탈브루잉 주식회사","tel":"031-111-1111","addr":"경기도 수원시 영통구 원천동 421번지","indutype":"일반휴게음식 - 일반한식","category":"restaurant"}]},{"lat":"37.274622163","long":"127.05075563","imageIndex":4,"items":[{"name":"하루","tel":"031-214-1093","addr":"경기도 수원시 영통구 원천동 618-2번지 1층","indutype":"일반휴게음식 - 일반한식","category":"restaurant"}]},{"lat":"37.275462443","long":"127.04461122","imageIndex":4,"items":[{"name":"하이미나(MINA)","tel":"070-4567-4444","addr":"경기도 수원시 영통구 원천동 28-37번지 1층","indutype":"일반휴게음식 - 서양음식","category":"restaurant"}]},{"lat":"37.266353796","long":"127.06369268","imageIndex":4,"items":[{"name":"한나식당","tel":"031-213-5074","addr":"경기도 수원시 영통구 원천동 257-9번지","indutype":"일반휴게음식 - 일반한식","category":"restaurant"}]},{"lat":"37.275435236","long":"127.04510731","imageIndex":4,"items":[{"name":"한마리정육식당","tel":"031-216-8682","addr":"경기도 수원시 영통구 원천동 32-13번지 1층","indutype":"일반휴게음식 - 일반한식","category":"restaurant"}]},{"lat":"37.27546257","long":"127.04425041","imageIndex":4,"items":[{"name":"한마음정육식당","tel":"031-217-4116","addr":"경기도 수원시 영통구 원천동 27-7번지","indutype":"일반휴게음식 - 일반한식","category":"restaurant"}]},{"lat":"37.273767107","long":"127.04842119","imageIndex":4,"items":[{"name":"한솥식당","tel":"031-212-3412","addr":"경기도 수원시 영통구 원천동 85-22번지","indutype":"일반휴게음식 - 일반한식","category":"restaurant"}]},{"lat":"37.277379228","long":"127.05094906","imageIndex":4,"items":[{"name":"한우명가","tel":"031-214-9255","addr":"경기도 수원시 영통구 원천동 577-5번지 1층","indutype":"일반휴게음식 - 일반한식","category":"restaurant"}]},{"lat":"37.27659767","long":"127.04480353","imageIndex":4,"items":[{"name":"할머니부대찌개","tel":"031-211-7760","addr":"경기도 수원시 영통구 원천동 29-41번지 1층","indutype":"일반휴게음식 - 일반한식","category":"restaurant"}]},{"lat":"37.273631","long":"127.05083393","imageIndex":4,"items":[{"name":"해와담/(주)용남이야기","tel":"031-212-6524","addr":"경기도 수원시 영통구 원천동 93-2번지 ,1,2층","indutype":"일반휴게음식 - 일반한식","category":"restaurant"}]},{"lat":"37.259569255","long":"127.06328141","imageIndex":4,"items":[{"name":"행복한식뷔페","tel":"031-214-0287","addr":"경기도 수원시 영통구 원천동 407-5번지","indutype":"일반휴게음식 - 일반한식","category":"restaurant"}]},{"lat":"37.259848996","long":"127.06244745","imageIndex":4,"items":[{"name":"호남식당","tel":"031-211-4993","addr":"경기도 수원시 영통구 원천동 373번지 1층 전체","indutype":"일반휴게음식 - 일반한식","category":"restaurant"}]},{"lat":"37.267155297","long":"127.06449377","imageIndex":4,"items":[{"name":"황금정","tel":"031-211-4833","addr":"경기도 수원시 영통구 원천동 263-1","indutype":"일반휴게음식 - 일반한식","category":"restaurant"}]},{"lat":"37.274461478","long":"127.04688821","imageIndex":4,"items":[{"name":"황금치킨","tel":"031-309-9449","addr":"경기도 수원시 영통구 원천동 71-12번지","indutype":"일반휴게음식 - 일반한식","category":"restaurant"}]},{"lat":"37.266741111","long":"127.06394102","imageIndex":4,"items":[{"name":"황소곱창","tel":"031-215-5599","addr":"경기도 수원시 영통구 원천동 329-1번지","indutype":"일반휴게음식 - 일반한식","category":"restaurant"}]},{"lat":"37.25929803","long":"127.06505101","imageIndex":4,"items":[{"name":"회랑소랑","tel":"031-215-7576","addr":"경기도 수원시 영통구 원천동 417-5번지 1층","indutype":"일반휴게음식 - 일반한식","category":"restaurant"}]}]