[{"lat":"37.3398446","long":"127.109771","items":[{"name":"179실비","tel":"031-715-1790","addr":"경기도 성남시 분당구 구미동 179번지","category":""},{"name":"복뚱이네간장게장","tel":"031-719-1666","addr":"경기도 성남시 분당구 구미동 179번지","category":""}]},{"lat":"37.3496204","long":"127.1100219","items":[{"name":"Dono(도노)","tel":"031-715-3383","addr":"경기도 성남시 분당구 구미동 24-1번지","category":""},{"name":"강팀장PI운동센터","tel":"","addr":"경기도 성남시 분당구 구미동 24-1번지","category":""},{"name":"국제의료기","tel":"031-713-4343","addr":"경기도 성남시 분당구 구미동 24-1번지","category":""},{"name":"끌레오","tel":"031-728-2204","addr":"경기도 성남시 분당구 구미동 24-1번지","category":""},{"name":"니뜨아뜰리에","tel":"031-716-2650","addr":"경기도 성남시 분당구 구미동 24-1번지","category":""},{"name":"데오스타일","tel":"031-712-5599","addr":"경기도 성남시 분당구 구미동 24-1번지","category":""},{"name":"두레악세사리","tel":"031-728-2289","addr":"경기도 성남시 분당구 구미동 24-1번지","category":""},{"name":"디즈니몰","tel":"031-728-2537","addr":"경기도 성남시 분당구 구미동 24-1번지","category":""},{"name":"로사퀼트","tel":"031-718-9907","addr":"경기도 성남시 분당구 구미동 24-1번지","category":""},{"name":"미금사","tel":"031-712-1929","addr":"경기도 성남시 분당구 구미동 24-1번지","category":""},{"name":"미금의료기","tel":"031-728-2500","addr":"경기도 성남시 분당구 구미동 24-1번지","category":""},{"name":"미소","tel":"031-728-2839","addr":"경기도 성남시 분당구 구미동 24-1번지","category":""},{"name":"미아미용실","tel":"031-715-0521","addr":"경기도 성남시 분당구 구미동 24-1번지","category":""},{"name":"바로선 슈즈","tel":"031-719-5999","addr":"경기도 성남시 분당구 구미동 24-1번지","category":""},{"name":"벤처빌 속옷집","tel":"031-728-2009","addr":"경기도 성남시 분당구 구미동 24-1번지","category":""},{"name":"비비","tel":"031-728-2939","addr":"경기도 성남시 분당구 구미동 24-1번지","category":""},{"name":"비젼소프트","tel":"031-728-2720","addr":"경기도 성남시 분당구 구미동 24-1번지","category":""},{"name":"빅토리","tel":"031-712-7061","addr":"경기도 성남시 분당구 구미동 24-1번지","category":""},{"name":"뿌치","tel":"031-728-2589","addr":"경기도 성남시 분당구 구미동 24-1번지","category":""},{"name":"새롬약국","tel":"031-728-2820","addr":"경기도 성남시 분당구 구미동 24-1번지","category":""},{"name":"샤론","tel":"031-728-2330","addr":"경기도 성남시 분당구 구미동 24-1번지","category":""},{"name":"센스홈패션","tel":"031-728-2188","addr":"경기도 성남시 분당구 구미동 24-1번지","category":""},{"name":"수리울풍경","tel":"031-714-0929","addr":"경기도 성남시 분당구 구미동 24-1번지","category":""},{"name":"십자수사랑","tel":"031-711-4084","addr":"경기도 성남시 분당구 구미동 24-1번지","category":""},{"name":"아뜰리에소빈헤어","tel":"031-716-5454","addr":"경기도 성남시 분당구 구미동 24-1번지","category":""},{"name":"아람이네식당","tel":"031-728-2345","addr":"경기도 성남시 분당구 구미동 24-1번지","category":""},{"name":"아트우먼","tel":"031-712-7906","addr":"경기도 성남시 분당구 구미동 24-1번지","category":""},{"name":"연두","tel":"031-786-1905","addr":"경기도 성남시 분당구 구미동 24-1번지","category":""},{"name":"예원","tel":"031-728-2070","addr":"경기도 성남시 분당구 구미동 24-1번지","category":""},{"name":"오렌지","tel":"031-728-2807","addr":"경기도 성남시 분당구 구미동 24-1번지","category":""},{"name":"오앤오","tel":"","addr":"경기도 성남시 분당구 구미동 24-1번지","category":""},{"name":"오앤오데코","tel":"031-712-0440","addr":"경기도 성남시 분당구 구미동 24-1번지","category":""},{"name":"올리브 구미","tel":"031-716-0355","addr":"경기도 성남시 분당구 구미동 24-1번지","category":""},{"name":"올리브 구미점","tel":"","addr":"경기도 성남시 분당구 구미동 24-1번지","category":""},{"name":"우먼센스","tel":"031-728-2027","addr":"경기도 성남시 분당구 구미동 24-1번지","category":""},{"name":"은주당","tel":"","addr":"경기도 성남시 분당구 구미동 24-1번지","category":""},{"name":"은주주얼리","tel":"031-742-8176","addr":"경기도 성남시 분당구 구미동 24-1번지","category":""},{"name":"이롬분당구미지국","tel":"031-716-7265","addr":"경기도 성남시 분당구 구미동 24-1번지","category":""},{"name":"이쁘다꼬","tel":"","addr":"경기도 성남시 분당구 구미동 24-1번지","category":""},{"name":"인써니(INSSONI)","tel":"031-717-4774","addr":"경기도 성남시 분당구 구미동 24-1번지","category":""},{"name":"자기야공방","tel":"","addr":"경기도 성남시 분당구 구미동 24-1번지","category":""},{"name":"조앤","tel":"","addr":"경기도 성남시 분당구 구미동 24-1번지","category":""},{"name":"조은맘산후도우미 성남점","tel":"070-4095-3554","addr":"경기도 성남시 분당구 구미동 24-1번지","category":""},{"name":"지아니","tel":"031-715-2194","addr":"경기도 성남시 분당구 구미동 24-1번지","category":""},{"name":"짱","tel":"031-728-2218","addr":"경기도 성남시 분당구 구미동 24-1번지","category":""},{"name":"체리핑크","tel":"031-728-2664","addr":"경기도 성남시 분당구 구미동 24-1번지","category":""},{"name":"카라","tel":"031-728-2325","addr":"경기도 성남시 분당구 구미동 24-1번지","category":""},{"name":"카라네일","tel":"031-711-1360","addr":"경기도 성남시 분당구 구미동 24-1번지","category":""},{"name":"팝","tel":"","addr":"경기도 성남시 분당구 구미동 24-1번지","category":""},{"name":"프로시스템","tel":"031-718-1180","addr":"경기도 성남시 분당구 구미동 24-1번지","category":""},{"name":"플러스샵","tel":"031-718-2690","addr":"경기도 성남시 분당구 구미동 24-1번지","category":""},{"name":"해피랄라 분당점","tel":"","addr":"경기도 성남시 분당구 구미동 24-1번지","category":""},{"name":"해피하우스","tel":"031-719-7233","addr":"경기도 성남시 분당구 구미동 24-1번지","category":""},{"name":"현","tel":"","addr":"경기도 성남시 분당구 구미동 24-1번지","category":""},{"name":"현대수입상품","tel":"031-716-8887","addr":"경기도 성남시 분당구 구미동 24-1번지","category":""},{"name":"현대옷수선","tel":"031-728-2604","addr":"경기도 성남시 분당구 구미동 24-1번지","category":""},{"name":"호야맘","tel":"031-728-2678","addr":"경기도 성남시 분당구 구미동 24-1번지","category":""},{"name":"희성이동통신","tel":"070-8252-0880","addr":"경기도 성남시 분당구 구미동 24-1번지","category":""}]},{"lat":"37.3496459","long":"127.1116584","items":[{"name":"G1로드원 미술학원","tel":"031-715-1468","addr":"경기도 성남시 분당구 구미동 25-2번지","category":""},{"name":"감탄 미금역점","tel":"031-714-1717","addr":"경기도 성남시 분당구 구미동 25-2번지","category":""},{"name":"과일킹","tel":"031-719-8899","addr":"경기도 성남시 분당구 구미동 25-2번지","category":""},{"name":"국제어학원","tel":"031-711-3570","addr":"경기도 성남시 분당구 구미동 25-2번지","category":""},{"name":"모닝글로리 미금점","tel":"031-712-0983","addr":"경기도 성남시 분당구 구미동 25-2번지","category":""},{"name":"분당미금약국","tel":"031-713-1617","addr":"경기도 성남시 분당구 구미동 25-2번지","category":""},{"name":"쎈수학러닝센터분당구미","tel":"031-711-0777","addr":"경기도 성남시 분당구 구미동 25-2번지","category":""},{"name":"엘레강스사진실","tel":"031-717-8281","addr":"경기도 성남시 분당구 구미동 25-2번지","category":""},{"name":"이철헤어커커미용실","tel":"031-712-8546","addr":"경기도 성남시 분당구 구미동 25-2번지","category":""},{"name":"장영실서점","tel":"031-716-2030","addr":"경기도 성남시 분당구 구미동 25-2번지","category":""},{"name":"큰입이 축산마을","tel":"031-715-6789","addr":"경기도 성남시 분당구 구미동 25-2번지","category":""},{"name":"필라테스포유","tel":"031-717-5337","addr":"경기도 성남시 분당구 구미동 25-2번지","category":""}]},{"lat":"37.3453967","long":"127.1076572","items":[{"name":"㈜두리반푸드","tel":"031-711-0969","addr":"경기도 성남시 분당구 구미동 16번지","category":""}]},{"lat":"37.3482595","long":"127.1104037","items":[{"name":"味 황제참치","tel":"031-713-8366","addr":"경기도 성남시 분당구 구미동 36-1번지","category":""}]},{"lat":"37.348476","long":"127.1101557","items":[{"name":"강릉교동짬뽕","tel":"031-713-2859","addr":"경기도 성남시 분당구 구미동 35-6번지","category":""}]},{"lat":"37.3455387","long":"127.1100725","items":[{"name":"경기축산유통","tel":"031-716-6233","addr":"경기도 성남시 분당구 구미동 145-1번지","category":""},{"name":"황대전문점","tel":"031-716-8446","addr":"경기도 성남시 분당구 구미동 145-1번지","category":""}]},{"lat":"37.3474834","long":"127.1117117","items":[{"name":"교촌치킨 구미점","tel":"031-717-8884","addr":"경기도 성남시 분당구 구미동 47-1번지","category":""}]},{"lat":"37.33598","long":"127.1184882","items":[{"name":"교촌치킨(무지개점)","tel":"031-713-9971","addr":"경기도 성남시 분당구 구미동 212-2번지","category":""},{"name":"한우돈가","tel":"031-711-9242","addr":"경기도 성남시 분당구 구미동 212-2번지","category":""},{"name":"한우돈가 정육점","tel":"031-711-9242","addr":"경기도 성남시 분당구 구미동 212-2번지","category":""}]},{"lat":"37.3374784","long":"127.1157709","items":[{"name":"구미동 반찬가게","tel":"031-717-2606","addr":"경기도 성남시 분당구 구미동 203-2번지","category":""},{"name":"무지개떡방","tel":"031-714-4346","addr":"경기도 성남시 분당구 구미동 203-2번지","category":""},{"name":"진도한우마을","tel":"031-713-5009","addr":"경기도 성남시 분당구 구미동 203-2번지","category":""},{"name":"참솔불한증막","tel":"031-713-1762","addr":"경기도 성남시 분당구 구미동 203-2번지","category":""},{"name":"한마음약국","tel":"031-711-8235","addr":"경기도 성남시 분당구 구미동 203-2번지","category":""},{"name":"훼미리인테리어철물","tel":"031-716-8222","addr":"경기도 성남시 분당구 구미동 203-2번지","category":""}]},{"lat":"37.3467546","long":"127.1106047","items":[{"name":"구이마당","tel":"031-715-3392","addr":"경기도 성남시 분당구 구미동 55-2번지","category":""}]},{"lat":"37.3386995","long":"127.110627","items":[{"name":"그때그집","tel":"031-716-0668","addr":"경기도 성남시 분당구 구미동 187-3번지 세종그랑시아","category":""}]},{"lat":"37.3437817","long":"127.1101828","items":[{"name":"금향","tel":"031-716-9990","addr":"경기도 성남시 분당구 구미동 126-4번지","category":""}]},{"lat":"37.337757","long":"127.1164936","items":[{"name":"기린약국","tel":"031-711-4771","addr":"경기도 성남시 분당구 구미동 205-1번지","category":""},{"name":"나라동물병원","tel":"031-712-0707","addr":"경기도 성남시 분당구 구미동 205-1번지","category":""},{"name":"레인보우빌리지 안경원","tel":"031-719-1080","addr":"경기도 성남시 분당구 구미동 205-1번지","category":""},{"name":"성빈약국","tel":"031-719-0936","addr":"경기도 성남시 분당구 구미동 205-1번지","category":""},{"name":"하모니마트(무지개마을점)","tel":"031-715-6661","addr":"경기도 성남시 분당구 구미동 205-1번지","category":""}]},{"lat":"37.336982","long":"127.1165714","items":[{"name":"김밥나라(구미점)","tel":"031-711-3004","addr":"경기도 성남시 분당구 구미동 205-4번지","category":""}]},{"lat":"37.3481147","long":"127.1110806","items":[{"name":"까치화로구이","tel":"031-718-0667","addr":"경기도 성남시 분당구 구미동 37-6번지","category":""}]},{"lat":"37.3456706","long":"127.1136276","items":[{"name":"낙원떡집 구미점","tel":"031-713-3455","addr":"경기도 성남시 분당구 구미동 112-2번지","category":""}]},{"lat":"37.3372883","long":"127.1166847","items":[{"name":"낙지한마리수제비","tel":"031-717-3400","addr":"경기도 성남시 분당구 구미동 205-8번지","category":""}]},{"lat":"37.339373","long":"127.1224092","items":[{"name":"대가옥","tel":"031-715-1833","addr":"경기도 성남시 분당구 구미동 226-5번지","category":""}]},{"lat":"37.3484753","long":"127.1108554","items":[{"name":"덕산동부추곱창","tel":"031-717-4086","addr":"경기도 성남시 분당구 구미동 35-11번지","category":""},{"name":"독산동부추곱창","tel":"031-717-4086","addr":"경기도 성남시 분당구 구미동 35-11번지","category":""}]},{"lat":"37.3441159","long":"127.1277095","items":[{"name":"데시미늄BM(산후조리원)","tel":"031-717-8811","addr":"경기도 성남시 분당구 구미동 289-3번지","category":""}]},{"lat":"37.3403958","long":"127.1080452","items":[{"name":"도란","tel":"070-4111-3754","addr":"경기도 성남시 분당구 구미동 156번지","category":""},{"name":"에스엠천사","tel":"031-719-3514","addr":"경기도 성남시 분당구 구미동 156번지","category":""},{"name":"올라회덮밥","tel":"031-726-8881","addr":"경기도 성남시 분당구 구미동 156번지","category":""},{"name":"이키플레이스","tel":"031-604-0317","addr":"경기도 성남시 분당구 구미동 156번지","category":""},{"name":"한식이야기","tel":"031-713-7476","addr":"경기도 성남시 분당구 구미동 156번지","category":""}]},{"lat":"37.3478444","long":"127.1111028","items":[{"name":"땅끝마을","tel":"031-714-2023","addr":"경기도 성남시 분당구 구미동 43-1번지","category":""}]},{"lat":"37.3488452","long":"127.1104045","items":[{"name":"라떼떼베이글&커피","tel":"031-714-5545","addr":"경기도 성남시 분당구 구미동 30번지","category":""},{"name":"분당할인마트","tel":"031-712-6945","addr":"경기도 성남시 분당구 구미동 30번지","category":""}]},{"lat":"37.3383153","long":"127.1070154","items":[{"name":"리안헤어 농협하나로클럽 성남유통센터 오리역점","tel":"031-716-5006","addr":"경기도 성남시 분당구 구미동 174번지","category":""}]},{"lat":"37.3492326","long":"127.110405","items":[{"name":"메이찬","tel":"031-716-9090","addr":"경기도 성남시 분당구 구미동 29-1번지","category":""},{"name":"뽀빠이","tel":"031-719-7909","addr":"경기도 성남시 분당구 구미동 29-1번지","category":""},{"name":"오끼참치","tel":"031-711-3759","addr":"경기도 성남시 분당구 구미동 29-1번지","category":""}]},{"lat":"37.3392888","long":"127.1164056","items":[{"name":"무지개 식품","tel":"031-715-1643","addr":"경기도 성남시 분당구 구미동 220-1번지","category":""}]},{"lat":"37.3377308","long":"127.1156359","items":[{"name":"무지개마을 육고간","tel":"031-712-7658","addr":"경기도 성남시 분당구 구미동 203-1번지","category":""},{"name":"보노과자점","tel":"031-717-8244","addr":"경기도 성남시 분당구 구미동 203-1번지","category":""},{"name":"이투스분당구미수학학원","tel":"031-605-8594","addr":"경기도 성남시 분당구 구미동 203-1번지","category":""},{"name":"정관장 경기구미점","tel":"031-712-3851","addr":"경기도 성남시 분당구 구미동 203-1번지","category":""},{"name":"정관장 구미점","tel":"031-712-3851","addr":"경기도 성남시 분당구 구미동 203-1번지","category":""},{"name":"주영광안경원","tel":"031-715-7006","addr":"경기도 성남시 분당구 구미동 203-1번지","category":""},{"name":"페이펄문구센터(구미점)","tel":"031-716-8125","addr":"경기도 성남시 분당구 구미동 203-1번지","category":""}]},{"lat":"37.3496463","long":"127.1112408","items":[{"name":"미금 컴퓨터 보습학원","tel":"031-715-8354","addr":"경기도 성남시 분당구 구미동 25-1번지","category":""}]},{"lat":"37.3496225","long":"127.1076856","items":[{"name":"미금메이퓨어의원","tel":"031-715-9960","addr":"경기도 성남시 분당구 구미동 8-2번지","category":""},{"name":"포메인 미금역점","tel":"031-713-3129","addr":"경기도 성남시 분당구 구미동 8-2번지","category":""}]},{"lat":"37.3478719","long":"127.1105498","items":[{"name":"미음면옥","tel":"031-718-3048","addr":"경기도 성남시 분당구 구미동 41-6번지","category":""}]},{"lat":"37.3495668","long":"127.1094913","items":[{"name":"발란스한의원","tel":"031-719-3575","addr":"경기도 성남시 분당구 구미동 23-1번지","category":""},{"name":"봄길한의원","tel":"","addr":"경기도 성남시 분당구 구미동 23-1번지","category":""},{"name":"분당아름다운사람들 미용학원","tel":"031-714-5866","addr":"경기도 성남시 분당구 구미동 23-1번지","category":""},{"name":"비빔밥과 잔치국수","tel":"031-713-6730","addr":"경기도 성남시 분당구 구미동 23-1번지","category":""},{"name":"어굼터","tel":"031-715-9285","addr":"경기도 성남시 분당구 구미동 23-1번지","category":""}]},{"lat":"37.3367574","long":"127.1159053","items":[{"name":"벨스킨케어","tel":"031-717-6061","addr":"경기도 성남시 분당구 구미동 204-2번지","category":""},{"name":"훼밀리약국","tel":"031-717-4906","addr":"경기도 성남시 분당구 구미동 204-2번지","category":""}]},{"lat":"37.3467812","long":"127.1111577","items":[{"name":"본가숯불돼지갈비","tel":"031-719-0824","addr":"경기도 성남시 분당구 구미동 56-2번지","category":""}]},{"lat":"37.3464205","long":"127.1114619","items":[{"name":"북경","tel":"031-718-8200","addr":"경기도 성남시 분당구 구미동 57-4번지","category":""}]},{"lat":"37.3435123","long":"127.1276069","items":[{"name":"분당엘림산후조리원","tel":"031-717-8686","addr":"경기도 성남시 분당구 구미동 274-2번지","category":""}]},{"lat":"37.3388985","long":"127.1097471","items":[{"name":"불불이족발","tel":"031-717-9892","addr":"경기도 성남시 분당구 구미동 186-5번지","category":""}]},{"lat":"37.340313","long":"127.1098845","items":[{"name":"산골짜기","tel":"031-716-2689","addr":"경기도 성남시 분당구 구미동 182번지","category":""},{"name":"술방","tel":"031-717-9944","addr":"경기도 성남시 분당구 구미동 182번지","category":""},{"name":"제주올레도새기","tel":"","addr":"경기도 성남시 분당구 구미동 182번지","category":""}]},{"lat":"37.337645","long":"127.1109415","items":[{"name":"삼천리자전거(오리점)","tel":"031-718-3332","addr":"경기도 성남시 분당구 구미동 189-1번지","category":""}]},{"lat":"37.3420354","long":"127.1082393","items":[{"name":"서연일식","tel":"031-711-7976","addr":"경기도 성남시 분당구 구미동 153번지","category":""},{"name":"주식회사 에스아이에스","tel":"031-711-1773","addr":"경기도 성남시 분당구 구미동 153번지","category":""}]},{"lat":"37.3445377","long":"127.111098","items":[{"name":"성남시분당시니어클럽 공감&펫","tel":"031-712-4281","addr":"경기도 성남시 분당구 구미동 132-1번지","category":""}]},{"lat":"37.3396797","long":"127.1220711","items":[{"name":"소담","tel":"031-717-5912","addr":"경기도 성남시 분당구 구미동 226-1번지","category":""},{"name":"소풍","tel":"031-716-1007","addr":"경기도 성남시 분당구 구미동 226-1번지","category":""}]},{"lat":"37.3398957","long":"127.1222971","items":[{"name":"신희설렁탕","tel":"031-713-5202","addr":"경기도 성남시 분당구 구미동 226-7번지","category":""}]},{"lat":"37.3391236","long":"127.1100182","items":[{"name":"아찌구미동점","tel":"031-713-1023","addr":"경기도 성남시 분당구 구미동 186-1번지","category":""}]},{"lat":"37.3475389","long":"127.1101543","items":[{"name":"안동황우촌(2호점)","tel":"031-717-3392","addr":"경기도 성남시 분당구 구미동 40-4번지","category":""}]},{"lat":"37.3399823","long":"127.1069049","items":[{"name":"애플프리미엄","tel":"031-728-5789","addr":"경기도 성남시 분당구 구미동 159번지","category":""},{"name":"쿨펫동물병원","tel":"031-711-7509","addr":"경기도 성남시 분당구 구미동 159번지","category":""}]},{"lat":"37.3455374","long":"127.111517","items":[{"name":"어썸팩토리미금독서실","tel":"","addr":"경기도 성남시 분당구 구미동 144-3번지","category":""}]},{"lat":"37.3467813","long":"127.1109884","items":[{"name":"엉터리숯불갈비","tel":"031-717-7792","addr":"경기도 성남시 분당구 구미동 56-1번지","category":""}]},{"lat":"37.3484756","long":"127.1105507","items":[{"name":"연남수제비","tel":"031-716-2335","addr":"경기도 성남시 분당구 구미동 35-9번지","category":""}]},{"lat":"37.3383392","long":"127.1105249","items":[{"name":"왕두꺼비부대지개","tel":"031-717-8707","addr":"경기도 성남시 분당구 구미동 187-4번지","category":""}]},{"lat":"37.3440382","long":"127.1053869","items":[{"name":"욜로","tel":"031-621-6666","addr":"경기도 성남시 분당구 구미동 18번지","category":""},{"name":"욜로","tel":"031-621-6666","addr":"경기도 성남시 분당구 구미동 18번지","category":""}]},{"lat":"37.3385926","long":"127.1093291","items":[{"name":"워너비옵틱","tel":"031-715-5599","addr":"경기도 성남시 분당구 구미동 185-4번지","category":""}]},{"lat":"37.3452579","long":"127.1117198","items":[{"name":"육공이숯불돼지왕갈비","tel":"031-714-3602","addr":"경기도 성남시 분당구 구미동 141-1번지","category":""}]},{"lat":"37.3491985","long":"127.1082719","items":[{"name":"일진닭갈비","tel":"031-724-1465","addr":"경기도 성남시 분당구 구미동 9-1번지","category":""},{"name":"헤어밸리","tel":"031-724-1446","addr":"경기도 성남시 분당구 구미동 9-1번지","category":""}]},{"lat":"37.3496141","long":"127.1069407","items":[{"name":"정관장 미금역점","tel":"031-717-0349","addr":"경기도 성남시 분당구 구미동 7-2번지","category":""}]},{"lat":"37.3386463","long":"127.1097467","items":[{"name":"조광생바른생갈비","tel":"031-759-5579","addr":"경기도 성남시 분당구 구미동 186-4번지","category":""}]},{"lat":"37.3466187","long":"127.1114622","items":[{"name":"찌마기 구미점","tel":"031-716-0663","addr":"경기도 성남시 분당구 구미동 56-5번지","category":""}]},{"lat":"37.3470335","long":"127.1111016","items":[{"name":"차가네 청한우","tel":"031-716-1134","addr":"경기도 성남시 분당구 구미동 50-4번지","category":""}]},{"lat":"37.3393733","long":"127.1221045","items":[{"name":"초록애","tel":"031-718-4817","addr":"경기도 성남시 분당구 구미동 226-3번지","category":""},{"name":"한살림성남용인소비자 생협 구미매장","tel":"031-786-0610","addr":"경기도 성남시 분당구 구미동 226-3번지","category":""}]},{"lat":"37.3484836","long":"127.1116906","items":[{"name":"추억의연탄집","tel":"031-719-9133","addr":"경기도 성남시 분당구 구미동 34-5번지","category":""}]},{"lat":"37.3470075","long":"127.1100182","items":[{"name":"취옹","tel":"031-715-6185","addr":"경기도 성남시 분당구 구미동 53-3번지","category":""}]},{"lat":"37.3455372","long":"127.1117653","items":[{"name":"파리바게뜨 하얀마을점","tel":"031-713-8206","addr":"경기도 성남시 분당구 구미동 144-4번지","category":""}]},{"lat":"37.3484842","long":"127.1110811","items":[{"name":"피자알볼로 미금오리점","tel":"031-713-3311","addr":"경기도 성남시 분당구 구미동 34-1번지","category":""}]},{"lat":"37.3390329","long":"127.1106275","items":[{"name":"하루에한번은","tel":"031-782-2004","addr":"경기도 성남시 분당구 구미동 187-2번지 세종그랑시아II","category":""}]},{"lat":"37.3387908","long":"127.1093294","items":[{"name":"하트맘케어","tel":"031-1522-1737","addr":"경기도 성남시 분당구 구미동 185-3번지","category":""}]},{"lat":"37.3374516","long":"127.1154888","items":[{"name":"한울빈야드","tel":"","addr":"경기도 성남시 분당구 구미동 203-5번지","category":""}]},{"lat":"37.3352855","long":"127.1097194","items":[{"name":"홍보성","tel":"070-8972-1233","addr":"경기도 성남시 분당구 구미동 192번지","category":""}]},{"lat":"37.3455382","long":"127.1106593","items":[{"name":"황후에스테틱","tel":"031-715-7774","addr":"경기도 성남시 분당구 구미동 145-4번지","category":""}]}]