[{"lat":"37.3066475177","long":"126.9417906750","items":[{"name":"cafe182/주식회사 키나","tel":"031-461-9777","addr":"경기도 의왕시 초평동 319-1번지 왕송플라자 1동 1,2,3층,2동 1,2,3층","category":"일반휴게음식 - 서양음식"},{"name":"꽃새바람","tel":"031-461-4477","addr":"경기도 의왕시 초평동 319-1번지 왕송플라자 1동 1,2,3층 2동 1,2,3층","category":"신변잡화 - 기타잡화"},{"name":"왕송정","tel":"031-461-7774","addr":"경기도 의왕시 초평동 319-1번지 왕송플라자 1동 1,2,3층 2동 1,2,3층","category":"일반휴게음식 - 일반한식"},{"name":"토리공방","tel":"031-426-6900","addr":"경기도 의왕시 초평동 319-1번지","category":"문화.취미 - 문화취미기타"}]},{"lat":"37.3047013789","long":"126.9419276034","items":[{"name":"가온길","tel":"031-461-3311","addr":"경기도 의왕시 초평동 541-9번지 202호","category":"일반휴게음식 - 일반한식"}]},{"lat":"37.3198166959","long":"126.9348981509","items":[{"name":"감나무집","tel":"031-462-7752","addr":"경기도 의왕시 초평동 87-1번지 1층","category":"일반휴게음식 - 일반한식"}]},{"lat":"37.3164486581","long":"126.9380712140","items":[{"name":"공간AD","tel":"031-421-4466","addr":"경기도 의왕시 초평동 212번지","category":"건축자재 - 인테리어전문"}]},{"lat":"37.3042031812","long":"126.9370101807","items":[{"name":"글로비","tel":"02-000-0000","addr":"경기도 의왕시 초평동 474-5번지","category":"문화.취미 - 화원"}]},{"lat":"37.3173170577","long":"126.9446475094","items":[{"name":"놋그릇멋스러움","tel":"031-461-6111","addr":"경기도 의왕시 초평동 7-15번지 1층","category":"일반휴게음식 - 일반한식"},{"name":"카페 호수의 아침","tel":"031-462-9156","addr":"경기도 의왕시 초평동 7-15번지 2층","category":"일반휴게음식 - 서양음식"}]},{"lat":"37.3092857171","long":"126.9384044882","items":[{"name":"농업회사법인 주식회사 왕송농원","tel":"031-427-0300","addr":"경기도 의왕시 초평동 342-4번지","category":"음료식품 - 농·축·수산품"}]},{"lat":"37.3052881505","long":"126.9441153677","items":[{"name":"농촌사랑","tel":"031-226-4025","addr":"경기도 의왕시 초평동 315-19번지","category":"음료식품 - 농·축·수산품"}]},{"lat":"37.3165595205","long":"126.9432830613","items":[{"name":"능이야","tel":"031-462-3625","addr":"경기도 의왕시 초평동 253-4번지 1층","category":"일반휴게음식 - 일반한식"}]},{"lat":"37.3081231521","long":"126.9379542810","items":[{"name":"다물켐","tel":"031-391-8394","addr":"경기도 의왕시 초평동 426-6번지","category":"서적문구 - 과학기자재"}]},{"lat":"37.3168394054","long":"126.9444222519","items":[{"name":"다봉스 다육","tel":"031-452-9191","addr":"경기도 의왕시 초평동 7-5번지","category":"문화.취미 - 화원"}]},{"lat":"37.3073965766","long":"126.9441814061","items":[{"name":"달다란카페","tel":"031-462-5353","addr":"경기도 의왕시 초평동 313-5번지 예향빌딩 3층","category":"일반휴게음식 - 서양음식"},{"name":"조가네갑오징어(왕송호수점)","tel":"031-462-5353","addr":"경기도 의왕시 초평동 313-5번지 예향빌딩 2층","category":"일반휴게음식 - 일반한식"}]},{"lat":"37.3175331244","long":"126.9442863377","items":[{"name":"로그인의왕초평점","tel":"","addr":"경기도 의왕시 초평동 19-4번지","category":"유통업 영리 - 슈퍼마켓"},{"name":"커피트레인(COFFEE TRAIN)","tel":"031-461-1511","addr":"경기도 의왕시 초평동 19-4번지 1층","category":"일반휴게음식 - 서양음식"},{"name":"태광전기","tel":"","addr":"경기도 의왕시 초평동 19-4번지 2층","category":"건축자재 - 인테리어전문"}]},{"lat":"37.3097027477","long":"126.9432884744","items":[{"name":"로터스 (Caffe Lotus)","tel":"031-462-3604","addr":"경기도 의왕시 초평동 370-2, 2층","category":"일반휴게음식 - 서양음식"},{"name":"머쉴랭 버거앤스테이크","tel":"031-461-7077","addr":"경기도 의왕시 초평동 370-2번지","category":"일반휴게음식 - 서양음식"},{"name":"머쉴랭 버섯코스요리","tel":"031-461-7077","addr":"경기도 의왕시 초평동 370-2번지 3층","category":"일반휴게음식 - 일반한식"}]},{"lat":"37.3161991576","long":"126.9433735955","items":[{"name":"목포낙지촌","tel":"031-461-0035","addr":"경기도 의왕시 초평동 253-1번지","category":"일반휴게음식 - 일반한식"}]},{"lat":"37.3102851437","long":"126.9371176779","items":[{"name":"미래원 주식회사","tel":"031-461-0988","addr":"경기도 의왕시 초평동 410-7번지","category":"신변잡화 - 기타잡화"}]},{"lat":"37.3140874416","long":"126.9370918037","items":[{"name":"박달재식당","tel":"031-252-3474","addr":"경기도 의왕시 초평동 144-1번지 2층","category":"일반휴게음식 - 일반한식"}]},{"lat":"37.3186509872","long":"126.9455038798","items":[{"name":"삼형제","tel":"031-455-9292","addr":"경기도 의왕시 초평동 12-1번지 2층","category":"일반휴게음식 - 일반한식"}]},{"lat":"37.3050351383","long":"126.9426717836","items":[{"name":"새우대농장","tel":"031-461-5392","addr":"경기도 의왕시 초평동 545-2번지","category":"일반휴게음식 - 일반한식"}]},{"lat":"37.3163947448","long":"126.9383420100","items":[{"name":"성창산업","tel":"031-461-2236","addr":"경기도 의왕시 초평동 213번지","category":"용역 서비스 - 기타용역서비스"}]},{"lat":"37.3087003954","long":"126.9390366729","items":[{"name":"소풍","tel":"031-385-6114","addr":"경기도 의왕시 초평동 332번지","category":"일반휴게음식 - 서양음식"},{"name":"소풍","tel":"031-385-6114","addr":"경기도 의왕시 초평동 332번지","category":"일반휴게음식 - 서양음식"}]},{"lat":"37.3136743196","long":"126.9395626655","items":[{"name":"신아다이아몬드","tel":"031-453-0048","addr":"경기도 의왕시 초평동 233-9번지","category":"기타 - 기계공구"}]},{"lat":"37.3175333969","long":"126.9448391264","items":[{"name":"알에스코리아(한국수)","tel":"031-462-3379","addr":"경기도 의왕시 초평동 8-3번지 1층","category":"일반휴게음식 - 일반한식"}]},{"lat":"37.3055399795","long":"126.9432015229","items":[{"name":"엠130","tel":"031-0000-0000","addr":"경기도 의왕시 초평동 315-15번지","category":"일반휴게음식 - 서양음식"}]},{"lat":"37.3075940879","long":"126.9427599824","items":[{"name":"우성","tel":"031-461-8988","addr":"경기도 의왕시 초평동 348-1번지","category":"일반휴게음식 - 일반한식"}]},{"lat":"37.3158117583","long":"126.9434528690","items":[{"name":"육전국밥","tel":"031-462-4628","addr":"경기도 의왕시 초평동 253-2번지 1층","category":"일반휴게음식 - 일반한식"},{"name":"칠갑정","tel":"031-393-9973","addr":"경기도 의왕시 초평동 253-2번지 1층","category":"일반휴게음식 - 일반한식"}]},{"lat":"37.3089008382","long":"126.9432891074","items":[{"name":"의왕푸드","tel":"02-1111-1111","addr":"경기도 의왕시 초평동 350-11번지 왕송호수공원 내","category":"일반휴게음식 - 일반한식"}]},{"lat":"37.3022048348","long":"126.9405648454","items":[{"name":"이대가 장수촌","tel":"031-462-6807","addr":"경기도 의왕시 초평동 산61-4번지","category":"일반휴게음식 - 일반한식"}]},{"lat":"37.3025935097","long":"126.9429557096","items":[{"name":"일석오조양봉원","tel":"031-462-3709","addr":"경기도 의왕시 초평동 산61-23번지","category":"건강식품 - 기타건강식품"}]},{"lat":"37.3156216119","long":"126.9416254771","items":[{"name":"일품명가","tel":"031-461-3042","addr":"경기도 의왕시 초평동 243번지 1층","category":"일반휴게음식 - 일반한식"}]},{"lat":"37.3112591326","long":"126.9387299365","items":[{"name":"주식회사 아썸에어로","tel":"031-462-4468","addr":"경기도 의왕시 초평동 402-8번지","category":"레져용품 - 스포츠·레져용품"},{"name":"주식회사 판데라","tel":"02-2157-7767","addr":"경기도 의왕시 초평동 402-8번지 1층","category":"학원 - 기타 교육기관"}]},{"lat":"37.3159535631","long":"126.9389290080","items":[{"name":"주식회사 지제이글로벌","tel":"031-462-4647","addr":"경기도 의왕시 초평동 223-6번지 C동","category":"자동차정비 유지 - 자동차부품"}]},{"lat":"37.3080068449","long":"126.9394771787","items":[{"name":"주식회사 화정하우징","tel":"031-467-6700","addr":"경기도 의왕시 초평동 324-8번지 화정빌딩","category":"직물 - 카페트,커튼,천막,지물"}]},{"lat":"37.3059269953","long":"126.9423665213","items":[{"name":"주식회사햄바라기지점(에스타시온)","tel":"031-461-2525","addr":"경기도 의왕시 초평동 318-1번지 1-3층","category":"일반휴게음식 - 서양음식"}]},{"lat":"37.3144292862","long":"126.9361213448","items":[{"name":"초평골","tel":"031-461-0702","addr":"경기도 의왕시 초평동 142-3번지 1층","category":"일반휴게음식 - 일반한식"}]},{"lat":"37.3144832200","long":"126.9358956781","items":[{"name":"초평골 한우마을","tel":"031-399-4811","addr":"경기도 의왕시 초평동 142번지","category":"일반휴게음식 - 일반한식"}]},{"lat":"37.3040962744","long":"126.9392323155","items":[{"name":"초평낚시터","tel":"031-462-2788","addr":"경기도 의왕시 초평동 481-1","category":"레저업소 - 기타레져업소"}]},{"lat":"37.3177043742","long":"126.9443990191","items":[{"name":"치유공간 느낌","tel":"031-462-2521","addr":"경기도 의왕시 초평동 19-3번지","category":"보건위생 - 기타대인서비스"}]},{"lat":"37.3097031091","long":"126.9440104093","items":[{"name":"카페 폴 (Cafe Paul)","tel":"031-000-0000","addr":"경기도 의왕시 초평동 278-9 왕송호수공원 내","category":"일반휴게음식 - 서양음식"}]},{"lat":"37.3160891946","long":"126.9398201072","items":[{"name":"카페맵 (CAFE MAB)","tel":"070-7797-8886","addr":"경기도 의왕시 초평동 220-1번지 1층","category":"일반휴게음식 - 서양음식"}]},{"lat":"37.3134506031","long":"126.9425071409","items":[{"name":"파라디조","tel":"031-462-6070","addr":"경기도 의왕시 초평동 379-4번지","category":"일반휴게음식 - 서양음식"}]}]