[{"lat":"37.674764855","long":"126.77715151","items":[{"name":"가위소리","tel":"031-913-1918","addr":"경기도 고양시 일산동구 산두로","category":"보건위생 - 미용원"}]},{"lat":"37.668545944","long":"126.7855464","items":[{"name":"광고나라","tel":"031-908-2415","addr":"경기도 고양시 일산동구 산두로","category":"용역 서비스 - 종합용역"}]},{"lat":"37.660019478","long":"126.78865383","items":[{"name":"김현승헤어모드","tel":"031-904-3538","addr":"경기도 고양시 일산동구 산두로","category":"보건위생 - 미용원"}]},{"lat":"37.676512998","long":"126.77729358","items":[{"name":"대봉축산","tel":"070-7745-4336","addr":"경기도 고양시 일산동구 산두로","category":"음료식품 - 정육점"}]},{"lat":"37.665125889","long":"126.78751711","items":[{"name":"레드헤어","tel":"031-932-3272","addr":"경기도 고양시 일산동구 산두로","category":"보건위생 - 미용원"}]},{"lat":"37.662632947","long":"126.78902033","items":[{"name":"뷰티초이스","tel":"031-902-8034","addr":"경기도 고양시 일산동구 산두로","category":"보건위생 - 미용원"}]},{"lat":"37.662209885","long":"126.78923687","items":[{"name":"워시테리아","tel":"031-964-4997","addr":"경기도 고양시 일산동구 산두로","category":"수리서비스 - 세탁소"}]},{"lat":"37.65999022","long":"126.78742995","items":[{"name":"참기획","tel":"031-904-1313","addr":"경기도 고양시 일산동구 산두로","category":"용역 서비스 - 종합용역"}]},{"lat":"37.675965899","long":"126.77859881","items":[{"name":"카멜레온","tel":"031-912-6150","addr":"경기도 고양시 일산동구 산두로","category":"보건위생 - 이용원"}]},{"lat":"37.667879421","long":"126.78565035","items":[{"name":"컴닥터119","tel":"031-908-1295","addr":"경기도 고양시 일산동구 산두로","category":"사무통신 - 컴퓨터"}]},{"lat":"37.661183629","long":"126.78970447","items":[{"name":"테루테루사시미초밥사케","tel":"031-901-8410","addr":"경기도 고양시 일산동구 산두로","category":"일반휴게음식 - 일식·회집"}]},{"lat":"37.660656538","long":"126.7872127","items":[{"name":"팔복건강원","tel":"031-905-9697","addr":"경기도 고양시 일산동구 산두로","category":"건강식품 - 기타건강식품"}]},{"lat":"37.674216294","long":"126.78245803","items":[{"name":"프리컴퓨터서비스","tel":"031-977-4119","addr":"경기도 고양시 일산동구 산두로","category":"문화.취미 - 애완동물"}]},{"lat":"37.660189403","long":"126.78796203","items":[{"name":"하늘시스템","tel":"031-901-8979","addr":"경기도 고양시 일산동구 산두로","category":"수리서비스 - 사무·통신기기수리"}]},{"lat":"37.659829307","long":"126.78812173","items":[{"name":"한세아이엔티","tel":"070-4149-3117","addr":"경기도 고양시 일산동구 산두로","category":"레져용품 - 스포츠·레져용품"}]}]