[{"lat":"37.691508621","long":"126.59956257","imageIndex":7,"items":[{"name":"부흥슈퍼","tel":"031-987-1031","addr":"경기도 김포시 통진읍 서암리 723-1번지 부흥슈퍼","indutype":"슈퍼/마트","category":"mart"}]},{"lat":"37.692396864","long":"126.59848066","imageIndex":7,"items":[{"name":"신김포농협하나로마트","tel":"031-981-4733","addr":"경기도 김포시 통진읍 서암리 759-17번지 외필지","indutype":"슈퍼/마트","category":"mart"}]},{"lat":"37.693348672","long":"126.6001762","imageIndex":7,"items":[{"name":"써니축산물도매센타","tel":"","addr":"경기도 김포시 통진읍 서암리 758-126번지 마송공영주차장 앞","indutype":"슈퍼/마트","category":"mart"}]},{"lat":"37.694508554","long":"126.61561256","imageIndex":7,"items":[{"name":"연보람우유","tel":"031-988-5681","addr":"경기도 김포시 통진읍 서암리 629-1번지 연보람우유","indutype":"슈퍼/마트","category":"mart"}]},{"lat":"37.690258753","long":"126.60028361","imageIndex":7,"items":[{"name":"차부상회","tel":"","addr":"경기도 김포시 통진읍 서암리 717-6번지 1층 차부상회","indutype":"슈퍼/마트","category":"mart"}]},{"lat":"37.694013199","long":"126.59953767","imageIndex":7,"items":[{"name":"하나유통","tel":"031-981-2521","addr":"경기도 김포시 통진읍 서암리 756-1번지 하나유통","indutype":"슈퍼/마트","category":"mart"}]}]