[{"lat":"37.074770121","long":"127.26504449","items":[{"name":"(주)에이치에스시스템즈","tel":"02-1833-7571","addr":"경기도 안성시 고삼면 봉산리 산84번지","category":"서적문구 - 출판 및 인쇄물"}]},{"lat":"37.079596447","long":"127.28609117","items":[{"name":"고삼재 연수원 신화푸드 (주)","tel":"031-677-8000","addr":"경기도 안성시 고삼면 봉산리 77-2번지","category":"용역 서비스 - 사무서비스"}]},{"lat":"37.073853061","long":"127.28384327","items":[{"name":"꼴미가든","tel":"031-672-0085","addr":"경기도 안성시 고삼면 봉산리 370-7번지","category":"일반휴게음식 - 일반한식"}]},{"lat":"37.077433101","long":"127.29017656","items":[{"name":"꽃뫼다원 바베큐식당","tel":"031-672-1735","addr":"경기도 안성시 고삼면 봉산리 173-5번지 1층","category":"일반휴게음식 - 일반한식"}]},{"lat":"37.075682674","long":"127.28742607","items":[{"name":"꽃뫼카페휴게소","tel":"031-673-2553","addr":"경기도 안성시 고삼면 봉산리 233-8번지","category":"유통업 영리 - 슈퍼마켓"}]},{"lat":"37.076264289","long":"127.26979525","items":[{"name":"발리모텔","tel":"031-674-1881","addr":"경기도 안성시 고삼면 봉산리 612-11번지 나동","category":"숙박업 - 여관/기타숙박업"},{"name":"발리모텔","tel":"031-674-1882","addr":"경기도 안성시 고삼면 봉산리 612-11번지 나동","category":"숙박업 - 여관/기타숙박업"}]},{"lat":"37.075793234","long":"127.2709069","items":[{"name":"별빛고운펜션","tel":"031-674-4747","addr":"경기도 안성시 고삼면 봉산리 605-5","category":"숙박업 - 여관/기타숙박업"}]},{"lat":"37.074710088","long":"127.26773191","items":[{"name":"에스제이상사","tel":"070-8711-5903","addr":"경기도 안성시 고삼면 봉산리 659-37번지","category":"농업 - 비료,사료,종자"}]}]