[{"lat":"37.730963848","long":"127.05565342","imageIndex":4,"items":[{"name":"(동쭈)동두천쭈꾸미","tel":"031-873-3131","addr":"경기도 의정부시 신곡동 719-2번지 백상프라자빌딩 2층 208,209호","indutype":"일반휴게음식 - 일반한식","category":"restaurant"},{"name":"감탄떡볶이","tel":"031-837-7778","addr":"경기도 의정부시 신곡동 719-2번지 백상프라자빌딩 107호","indutype":"일반휴게음식 - 스넥","category":"restaurant"},{"name":"김밥천국","tel":"031-855-7770","addr":"경기도 의정부시 신곡동 719-2번지 백상프라자 1층 104호","indutype":"일반휴게음식 - 일반한식","category":"restaurant"},{"name":"바리소리","tel":"031-871-9393","addr":"경기도 의정부시 신곡동 719-2번지 백상프라자빌딩 117호","indutype":"일반휴게음식 - 일반한식","category":"restaurant"},{"name":"셀렉토커피 의정부신곡점","tel":"031-874-2172","addr":"경기도 의정부시 신곡동 719-2번지 백상프라자빌딩 1층 113호","indutype":"일반휴게음식 - 서양음식","category":"restaurant"},{"name":"수유리우동집 (신곡점)","tel":"","addr":"경기도 의정부시 신곡동 719-2번지 백상프라자빌딩 103호","indutype":"일반휴게음식 - 일식·회집","category":"restaurant"},{"name":"중화객잔김사부","tel":"031-855-6788","addr":"경기도 의정부시 신곡동 719-2번지 백상프라자빌딩 1층 110호","indutype":"일반휴게음식 - 중국식","category":"restaurant"},{"name":"쫑구비어","tel":"031-876-8595","addr":"경기도 의정부시 신곡동 719-2번지 백상프라자빌딩 1층","indutype":"일반휴게음식 - 일반한식","category":"restaurant"},{"name":"치킨홀릭","tel":"031-826-5517","addr":"경기도 의정부시 신곡동 719-2번지 백상프라자빌딩 108호","indutype":"일반휴게음식 - 스넥","category":"restaurant"}]},{"lat":"37.747262811","long":"127.07182214","imageIndex":4,"items":[{"name":"(주)수아래","tel":"031-8030-5243","addr":"경기도 의정부시 신곡동 800번지 경기도청북부청사본관 지하1층","indutype":"일반휴게음식 - 서양음식","category":"restaurant"}]},{"lat":"37.743432199","long":"127.05760239","imageIndex":4,"items":[{"name":"5.5 닭갈비","tel":"","addr":"경기도 의정부시 신곡동 673-3번지 영화빌딩 2층","indutype":"일반휴게음식 - 일반한식","category":"restaurant"},{"name":"메가엠지씨커피 의정부동오마을점","tel":"031-846-2790","addr":"경기도 의정부시 신곡동 673-3번지 1층","indutype":"일반휴게음식 - 서양음식","category":"restaurant"},{"name":"스카이라운지","tel":"031-848-3578","addr":"경기도 의정부시 신곡동 673-3번지","indutype":"일반휴게음식 - 일반한식","category":"restaurant"}]},{"lat":"37.729736686","long":"127.05965686","imageIndex":4,"items":[{"name":"59쌀피자","tel":"031-841-5974","addr":"경기도 의정부시 신곡동 334-2번지 가동 104호","indutype":"일반휴게음식 - 서양음식","category":"restaurant"},{"name":"돼지발자국 허브한방족발","tel":"031-877-6411","addr":"경기도 의정부시 신곡동 334-2번지 장곡빌딩 가동 110호","indutype":"일반휴게음식 - 일반한식","category":"restaurant"},{"name":"쥬스다","tel":"031-843-5655","addr":"경기도 의정부시 신곡동 334-2번지 장곡빌딩 가동 1층","indutype":"일반휴게음식 - 서양음식","category":"restaurant"}]},{"lat":"37.730963985","long":"127.05534714","imageIndex":4,"items":[{"name":"60계 신곡장암점","tel":"031-877-8686","addr":"경기도 의정부시 신곡동 719-1번지 해송빌딩 1층 105호","indutype":"일반휴게음식 - 스넥","category":"restaurant"},{"name":"로맨티","tel":"031-837-0060","addr":"경기도 의정부시 신곡동 719-1번지 102호","indutype":"일반휴게음식 - 스넥","category":"restaurant"},{"name":"오투스낵","tel":"031-842-0072","addr":"경기도 의정부시 신곡동 719-1번지 해송빌딩 3층","indutype":"일반휴게음식 - 일반한식","category":"restaurant"},{"name":"짝태앤노가리","tel":"","addr":"경기도 의정부시 신곡동 719-1번지 해송빌딩 103호","indutype":"일반휴게음식 - 일반한식","category":"restaurant"},{"name":"최대포","tel":"031-877-0256","addr":"경기도 의정부시 신곡동 719-1번지 최대포","indutype":"일반휴게음식 - 일반한식","category":"restaurant"},{"name":"추억속의5080라이브","tel":"","addr":"경기도 의정부시 신곡동 719-1번지 해송빌딩 2층","indutype":"일반휴게음식 - 서양음식","category":"restaurant"}]},{"lat":"37.74943369","long":"127.072539","imageIndex":4,"items":[{"name":"60계치킨 신곡금오점","tel":"031-851-7789","addr":"경기도 의정부시 신곡동 765-5번지 금오프라자 1층 106호","indutype":"일반휴게음식 - 일반한식","category":"restaurant"},{"name":"교촌치킨","tel":"031-853-3592","addr":"경기도 의정부시 신곡동 765-5 금오프라자1층106","indutype":"일반휴게음식 - 스넥","category":"restaurant"},{"name":"더리즈스푼(THE LEE'S SPOON)","tel":"031-852-8456","addr":"경기도 의정부시 신곡동 765-5번지 금오프라자 112호","indutype":"일반휴게음식 - 일반한식","category":"restaurant"},{"name":"삐갈(pigalle)","tel":"","addr":"경기도 의정부시 신곡동 765-5번지 금오프라자 1층 107호","indutype":"일반휴게음식 - 서양음식","category":"restaurant"},{"name":"조개구이베니스","tel":"031-823-9089","addr":"경기도 의정부시 신곡동 765-5번지 금오프라자 113호","indutype":"일반휴게음식 - 일반한식","category":"restaurant"},{"name":"카페 모넬로","tel":"031-852-9731","addr":"경기도 의정부시 신곡동 765-5번지 금오프라자 105호","indutype":"일반휴게음식 - 서양음식","category":"restaurant"}]},{"lat":"37.742927936","long":"127.05701205","imageIndex":4,"items":[{"name":"BBQ참숯바베큐치킨","tel":"031-856-9288","addr":"경기도 의정부시 신곡동 673 휴먼시티3층308.309호","indutype":"일반휴게음식 - 주점","category":"restaurant"},{"name":"돌다리우동집","tel":"031-848-9112","addr":"경기도 의정부시 신곡동 673번지 휴먼시티 1층 110호","indutype":"일반휴게음식 - 일반한식","category":"restaurant"},{"name":"동오명가뼈다귀감자탕","tel":"031-821-5533","addr":"경기도 의정부시 신곡동 673번지 흄ㄴ시티 115호","indutype":"일반휴게음식 - 일반한식","category":"restaurant"},{"name":"명랑시대 쌀핫도그","tel":"","addr":"경기도 의정부시 신곡동 673번지 휴먼시티 1층 111호","indutype":"일반휴게음식 - 서양음식","category":"restaurant"},{"name":"미인닭발 의정부동오점","tel":"031-846-5479","addr":"경기도 의정부시 신곡동 673번지 휴먼시티 1층 117호","indutype":"일반휴게음식 - 일반한식","category":"restaurant"},{"name":"박경자김밥","tel":"031-847-5514","addr":"경기도 의정부시 신곡동 673번지 휴먼시티 107호","indutype":"일반휴게음식 - 스넥","category":"restaurant"},{"name":"오븐에빠진닭","tel":"031-841-5892","addr":"경기도 의정부시 신곡동 673번지 휴먼시티 119,120호","indutype":"일반휴게음식 - 스넥","category":"restaurant"},{"name":"짝태&노가리","tel":"031-847-4407","addr":"경기도 의정부시 신곡동 673번지 휴먼시티 118호","indutype":"일반휴게음식 - 주점","category":"restaurant"},{"name":"참주가","tel":"031-842-7408","addr":"경기도 의정부시 신곡동 673번지 휴먼시티빌딩 114호","indutype":"일반휴게음식 - 주점","category":"restaurant"},{"name":"커피마마 동오점","tel":"031-840-8013","addr":"경기도 의정부시 신곡동 673번지 휴먼시티 1층 116호","indutype":"일반휴게음식 - 서양음식","category":"restaurant"},{"name":"한우양곱창","tel":"031-843-8292","addr":"경기도 의정부시 신곡동 673번지 휴먼시티빌딩 113호","indutype":"일반휴게음식 - 일반한식","category":"restaurant"}]},{"lat":"37.74145732","long":"127.06132224","imageIndex":4,"items":[{"name":"BLess.u (블레쓰.유)","tel":"070-8869-9359","addr":"경기도 의정부시 신곡동 493-1번지 1층","indutype":"일반휴게음식 - 서양음식","category":"restaurant"},{"name":"돼지야놀자","tel":"031-844-6800","addr":"경기도 의정부시 신곡동 493-1번지","indutype":"일반휴게음식 - 일반한식","category":"restaurant"},{"name":"보리떡과물고기","tel":"031-841-7888","addr":"경기도 의정부시 신곡동 493-1번지 1층","indutype":"일반휴게음식 - 일반한식","category":"restaurant"},{"name":"오렌지피자","tel":"031-856-9990","addr":"경기도 의정부시 신곡동 493-1번지 1층","indutype":"일반휴게음식 - 서양음식","category":"restaurant"}]},{"lat":"37.744766025","long":"127.05670704","imageIndex":4,"items":[{"name":"CSH커피","tel":"001-0000-0000","addr":"경기도 의정부시 신곡동 670-3번지 1층","indutype":"일반휴게음식 - 서양음식","category":"restaurant"}]},{"lat":"37.731818704","long":"127.05795685","imageIndex":4,"items":[{"name":"Love each other(러브이치아더)","tel":"031-111-1111","addr":"경기도 의정부시 신곡동 714-4번지 1층","indutype":"일반휴게음식 - 일식·회집","category":"restaurant"}]},{"lat":"37.72918641","long":"127.06107438","imageIndex":4,"items":[{"name":"S.차이나","tel":"031-842-8111","addr":"경기도 의정부시 신곡동 355-2번지","indutype":"일반휴게음식 - 중국식","category":"restaurant"},{"name":"빈","tel":"031-840-9288","addr":"경기도 의정부시 신곡동 355-2번지","indutype":"일반휴게음식 - 일반한식","category":"restaurant"},{"name":"이자까야 나무","tel":"031-840-1588","addr":"경기도 의정부시 신곡동 355-2번지 1층","indutype":"일반휴게음식 - 일반한식","category":"restaurant"},{"name":"좋은친구들","tel":"031-871-5944","addr":"경기도 의정부시 신곡동 355-2번지","indutype":"일반휴게음식 - 스넥","category":"restaurant"}]},{"lat":"37.744153741","long":"127.05590105","imageIndex":4,"items":[{"name":"THE HONG (더홍)","tel":"031-848-8113","addr":"경기도 의정부시 신곡동 677-2번지 1층","indutype":"일반휴게음식 - 서양음식","category":"restaurant"}]},{"lat":"37.750095652","long":"127.08015329","imageIndex":4,"items":[{"name":"ssack쓰리솥뚜껑김치삼겹살","tel":"031-851-3828","addr":"경기도 의정부시 신곡동 779-6번지 1층","indutype":"일반휴게음식 - 일반한식","category":"restaurant"},{"name":"김밥파티","tel":"031-852-0881","addr":"경기도 의정부시 신곡동 779-6번지 1층","indutype":"일반휴게음식 - 스넥","category":"restaurant"}]},{"lat":"37.750762268","long":"127.08029014","imageIndex":4,"items":[{"name":"the 부ㅋ","tel":"031-851-7542","addr":"경기도 의정부시 신곡동 777-8번지 1층","indutype":"일반휴게음식 - 스넥","category":"restaurant"}]},{"lat":"37.730963205","long":"127.0570714","imageIndex":4,"items":[{"name":"가마치 치킨","tel":"031-855-9298","addr":"경기도 의정부시 신곡동 720-2번지 신풍프라자 104호","indutype":"일반휴게음식 - 스넥","category":"restaurant"},{"name":"동글이 돈까스","tel":"031-872-5295","addr":"경기도 의정부시 신곡동 720-2번지 신풍프라자 1층 103호","indutype":"일반휴게음식 - 서양음식","category":"restaurant"},{"name":"맥","tel":"031-879-9591","addr":"경기도 의정부시 신곡동 720-2번지","indutype":"일반휴게음식 - 일반한식","category":"restaurant"},{"name":"쏘울","tel":"070-7529-8843","addr":"경기도 의정부시 신곡동 720-2번지 신풍프라자 201호","indutype":"일반휴게음식 - 주점","category":"restaurant"}]},{"lat":"37.728789826","long":"127.06140303","imageIndex":4,"items":[{"name":"가비감자탕","tel":"031-821-1788","addr":"경기도 의정부시 신곡동 314-2번지 1층","indutype":"일반휴게음식 - 일반한식","category":"restaurant"},{"name":"함평나비골","tel":"031-847-9282","addr":"경기도 의정부시 신곡동 314-2번지 1층","indutype":"일반휴게음식 - 일반한식","category":"restaurant"}]},{"lat":"37.744906106","long":"127.06498969","imageIndex":4,"items":[{"name":"가윤식당","tel":"031-844-1142","addr":"경기도 의정부시 신곡동 107-6번지 104호","indutype":"일반휴게음식 - 일반한식","category":"restaurant"}]},{"lat":"37.730241238","long":"127.05962321","imageIndex":4,"items":[{"name":"간이역","tel":"031-821-4029","addr":"경기도 의정부시 신곡동 352-77번지 1층","indutype":"일반휴게음식 - 일반한식","category":"restaurant"},{"name":"우리밀 칼국수","tel":"031-845-0888","addr":"경기도 의정부시 신곡동 352-77번지","indutype":"일반휴게음식 - 일반한식","category":"restaurant"}]},{"lat":"37.749676995","long":"127.0724598","imageIndex":4,"items":[{"name":"간재미비빔국수","tel":"031-852-0629","addr":"경기도 의정부시 신곡동 765-4번지 삼성플러스 1층 106호","indutype":"일반휴게음식 - 일반한식","category":"restaurant"},{"name":"채움식당","tel":"031-841-5837","addr":"경기도 의정부시 신곡동 765-4번지 삼성플러스 1층 107호","indutype":"일반휴게음식 - 일반한식","category":"restaurant"}]},{"lat":"37.749348547","long":"127.07909727","imageIndex":4,"items":[{"name":"간판없는삼결살","tel":"070-8161-5541","addr":"경기도 의정부시 신곡동 788-8번지 1층","indutype":"일반휴게음식 - 주점","category":"restaurant"}]},{"lat":"37.733512955","long":"127.0569825","imageIndex":4,"items":[{"name":"갈비왕김밥","tel":"031-826-5988","addr":"경기도 의정부시 신곡동 603-50번지 1층","indutype":"일반휴게음식 - 일반한식","category":"restaurant"}]},{"lat":"37.744763815","long":"127.06134753","imageIndex":4,"items":[{"name":"감성커피(신곡동백병원점)","tel":"070-8829-4862","addr":"경기도 의정부시 신곡동 522-1번지 대영프라자빌딩 103호","indutype":"일반휴게음식 - 서양음식","category":"restaurant"},{"name":"본죽","tel":"031-845-0605","addr":"경기도 의정부시 신곡동 522-1번지 대영프라자 1층 110호","indutype":"일반휴게음식 - 일반한식","category":"restaurant"},{"name":"비비큐신곡점","tel":"031-843-9767","addr":"경기도 의정부시 신곡동 522-1번지 대영프라자빌딩 108호","indutype":"일반휴게음식 - 일반한식","category":"restaurant"},{"name":"윤가네 뽕잎 칼국수","tel":"031-846-3911","addr":"경기도 의정부시 신곡동 522-1번지 대영프라자빌딩 104호","indutype":"일반휴게음식 - 일반한식","category":"restaurant"},{"name":"현빈이네포차","tel":"","addr":"경기도 의정부시 신곡동 522-1번지 대영프라자빌딩 1층 101호 102호","indutype":"일반휴게음식 - 일반한식","category":"restaurant"},{"name":"홍가네김밥","tel":"031-821-3077","addr":"경기도 의정부시 신곡동 522-1번지 대영프라자빌딩 107호","indutype":"일반휴게음식 - 스넥","category":"restaurant"}]},{"lat":"37.742484286","long":"127.06157265","imageIndex":4,"items":[{"name":"강천칡냉면","tel":"031-821-5420","addr":"경기도 의정부시 신곡동 489-5번지 1층","indutype":"일반휴게음식 - 일반한식","category":"restaurant"},{"name":"교촌치킨","tel":"031-847-8953","addr":"경기도 의정부시 신곡동 489-5번지 1층","indutype":"일반휴게음식 - 스넥","category":"restaurant"}]},{"lat":"37.750370877","long":"127.07221082","imageIndex":4,"items":[{"name":"건물주","tel":"031-851-2767","addr":"경기도 의정부시 신곡동 765-1번지 금오종합상가 A동 116호","indutype":"일반휴게음식 - 일반한식","category":"restaurant"},{"name":"공릉동멸치국수","tel":"031-853-5700","addr":"경기도 의정부시 신곡동 765-1번지 금오종합상가 B동 113호","indutype":"일반휴게음식 - 일반한식","category":"restaurant"},{"name":"꾼 의정부점","tel":"031-853-9959","addr":"경기도 의정부시 신곡동 765-1번지 금오종합상가 1층 A-107호","indutype":"일반휴게음식 - 서양음식","category":"restaurant"},{"name":"땡큐","tel":"","addr":"경기도 의정부시 신곡동 765-1번지 금오종합상가 B동 1층 105호","indutype":"일반휴게음식 - 스넥","category":"restaurant"},{"name":"또래오래(신곡점)","tel":"031-851-3311","addr":"경기도 의정부시 신곡동 765-1번지 금오종합상가 A동 1층 111호 ,112,113호","indutype":"일반휴게음식 - 스넥","category":"restaurant"},{"name":"무아마카롱","tel":"070-7435-3993","addr":"경기도 의정부시 신곡동 765-1번지 금오종합상가 1층 B-108호","indutype":"일반휴게음식 - 서양음식","category":"restaurant"},{"name":"신가네부대찌개","tel":"031-851-5282","addr":"경기도 의정부시 신곡동 765-1번지 금오종합상가 B동 116호","indutype":"일반휴게음식 - 일반한식","category":"restaurant"},{"name":"카페 파르몽","tel":"031-853-3172","addr":"경기도 의정부시 신곡동 765-1번지 금오종합상가 지상 1층 B-116호","indutype":"일반휴게음식 - 서양음식","category":"restaurant"},{"name":"커피와공작소","tel":"031-853-5574","addr":"경기도 의정부시 신곡동 765-1번지 금오종합상가 B동 111호","indutype":"일반휴게음식 - 서양음식","category":"restaurant"},{"name":"하림맥시칸치킨","tel":"031-853-7447","addr":"경기도 의정부시 신곡동 765-1번지 외2필지금오종합상가제 B동 115호","indutype":"일반휴게음식 - 주점","category":"restaurant"}]},{"lat":"37.748068984","long":"127.0639825","imageIndex":4,"items":[{"name":"걸작떡볶이(금오점)","tel":"031-852-2821","addr":"경기도 의정부시 신곡동 756-2번지 한울빌딩 1층","indutype":"일반휴게음식 - 스넥","category":"restaurant"},{"name":"테라스","tel":"070-4184-0922","addr":"경기도 의정부시 신곡동 756-2번지 한울빌딩 1층","indutype":"일반휴게음식 - 서양음식","category":"restaurant"}]},{"lat":"37.749290941","long":"127.07012203","imageIndex":4,"items":[{"name":"겁떡볶이","tel":"070-8801-7882","addr":"경기도 의정부시 신곡동 761-7번지 골드프라자 103호","indutype":"일반휴게음식 - 일반한식","category":"restaurant"},{"name":"바리스타비","tel":"031-852-8208","addr":"경기도 의정부시 신곡동 761-7번지 골드프라자 101,102호","indutype":"일반휴게음식 - 서양음식","category":"restaurant"}]},{"lat":"37.728816979","long":"127.0611535","imageIndex":4,"items":[{"name":"고려돼지갈비","tel":"031-877-8534","addr":"경기도 의정부시 신곡동 314-1번지 성진빌딩 1층","indutype":"일반휴게음식 - 일반한식","category":"restaurant"},{"name":"장터치킨","tel":"031-847-1655","addr":"경기도 의정부시 신곡동 314-1번지 성진빌딩 1동 101호","indutype":"일반휴게음식 - 일반한식","category":"restaurant"},{"name":"키크는방방","tel":"031-846-7070","addr":"경기도 의정부시 신곡동 314-1번지 2층","indutype":"일반휴게음식 - 스넥","category":"restaurant"}]},{"lat":"37.749651824","long":"127.06923732","imageIndex":4,"items":[{"name":"고메이커피","tel":"031-853-0508","addr":"경기도 의정부시 신곡동 760-1번지 월드프라자빌딩 107호","indutype":"일반휴게음식 - 서양음식","category":"restaurant"},{"name":"레드블랙 (신곡점)","tel":"031-853-2703","addr":"경기도 의정부시 신곡동 760-1번지 월드프라자빌딩 1층 108호","indutype":"일반휴게음식 - 일반한식","category":"restaurant"},{"name":"착한커피집","tel":"031-851-2325","addr":"경기도 의정부시 신곡동 760-1번지 월드프라자 1층 102호","indutype":"일반휴게음식 - 서양음식","category":"restaurant"}]},{"lat":"37.750263121","long":"127.07159799","imageIndex":4,"items":[{"name":"고산떡갈비","tel":"031-842-3553","addr":"경기도 의정부시 신곡동 763-1번지 드림타워 203동 205호","indutype":"일반휴게음식 - 일반한식","category":"restaurant"},{"name":"광남","tel":"031-852-9686","addr":"경기도 의정부시 신곡동 763-1번지 1층 104호","indutype":"일반휴게음식 - 일식·회집","category":"restaurant"},{"name":"금오아쿠아월드사우나구내식당","tel":"031-851-1600","addr":"경기도 의정부시 신곡동 763-1번지 지하1층","indutype":"일반휴게음식 - 일반한식","category":"restaurant"},{"name":"남도고기촌","tel":"031-853-9285","addr":"경기도 의정부시 신곡동 763-1번지 드림타워","indutype":"일반휴게음식 - 일반한식","category":"restaurant"},{"name":"룸비쥬스","tel":"031-111-1111","addr":"경기도 의정부시 신곡동 763-1번지 드림타워 107호","indutype":"일반휴게음식 - 일반한식","category":"restaurant"},{"name":"마비노스 경기도제2청사점","tel":"031-844-1234","addr":"경기도 의정부시 신곡동 763-1번지 2층 201호","indutype":"일반휴게음식 - 서양음식","category":"restaurant"},{"name":"미사리 밀밭 초계국수&닭칼국수","tel":"031-853-0855","addr":"경기도 의정부시 신곡동 763-1번지 208,209호","indutype":"일반휴게음식 - 일반한식","category":"restaurant"},{"name":"백궁","tel":"031-853-6062","addr":"경기도 의정부시 신곡동 763-1번지 2층 213호","indutype":"일반휴게음식 - 일반한식","category":"restaurant"},{"name":"베트남생쌀국수","tel":"031-852-7897","addr":"경기도 의정부시 신곡동 763-1번지 1층 111호","indutype":"일반휴게음식 - 일반한식","category":"restaurant"},{"name":"산채별미","tel":"031-851-6111","addr":"경기도 의정부시 신곡동 763-1번지 드림타워 211호","indutype":"일반휴게음식 - 일식·회집","category":"restaurant"},{"name":"소양강춘천닭갈비","tel":"031-852-5858","addr":"경기도 의정부시 신곡동 763-1번지 드림타워 2층 211호","indutype":"일반휴게음식 - 일반한식","category":"restaurant"},{"name":"오륙도참치","tel":"031-852-3747","addr":"경기도 의정부시 신곡동 763-1번지 드림타워 210호","indutype":"일반휴게음식 - 일식·회집","category":"restaurant"},{"name":"잭아저씨 족발,보쌈","tel":"031-853-0023","addr":"경기도 의정부시 신곡동 763-1번지 드림타워 108호","indutype":"일반휴게음식 - 일반한식","category":"restaurant"},{"name":"제주화산석","tel":"031-852-8999","addr":"경기도 의정부시 신곡동 763-1 드림타워 206호~207호","indutype":"일반휴게음식 - 일반한식","category":"restaurant"},{"name":"커피 점방 추억82","tel":"031-000-0000","addr":"경기도 의정부시 신곡동 763-1번지 102, 103호","indutype":"일반휴게음식 - 서양음식","category":"restaurant"}]},{"lat":"37.731683481","long":"127.05812691","imageIndex":4,"items":[{"name":"고전한방삼계탕","tel":"031-878-7807","addr":"경기도 의정부시 신곡동 714-6번지 1층","indutype":"일반휴게음식 - 일반한식","category":"restaurant"}]},{"lat":"37.73040353","long":"127.05937377","imageIndex":4,"items":[{"name":"곱창마을","tel":"031-821-9295","addr":"경기도 의정부시 신곡동 352-80번지 1층","indutype":"일반휴게음식 - 일반한식","category":"restaurant"}]},{"lat":"37.732710752","long":"127.05774197","imageIndex":4,"items":[{"name":"공룡","tel":"031-853-9090","addr":"경기도 의정부시 신곡동 710-6번지 1층","indutype":"일반휴게음식 - 스넥","category":"restaurant"}]},{"lat":"37.750816563","long":"127.0799271","imageIndex":4,"items":[{"name":"광릉불고기","tel":"031-853-3933","addr":"경기도 의정부시 신곡동 777-4번지 1층일부","indutype":"일반휴게음식 - 일반한식","category":"restaurant"}]},{"lat":"37.74570774","long":"127.06539882","imageIndex":4,"items":[{"name":"광호네소머리국밥","tel":"031-848-8034","addr":"경기도 의정부시 신곡동 89-5번지 104, 105호","indutype":"일반휴게음식 - 일반한식","category":"restaurant"},{"name":"한수족발","tel":"031-853-6758","addr":"경기도 의정부시 신곡동 89-5번지","indutype":"일반휴게음식 - 일반한식","category":"restaurant"}]},{"lat":"37.730097205","long":"127.05937354","imageIndex":4,"items":[{"name":"교촌치킨","tel":"031-840-9290","addr":"경기도 의정부시 신곡동 336-1번지 1층 일부","indutype":"일반휴게음식 - 스넥","category":"restaurant"}]},{"lat":"37.731963624","long":"127.05628939","imageIndex":4,"items":[{"name":"교촌치킨신곡2호점","tel":"031-855-9992","addr":"경기도 의정부시 신곡동 707-2번지 1층","indutype":"일반휴게음식 - 스넥","category":"restaurant"}]},{"lat":"37.729095914","long":"127.0618797","imageIndex":4,"items":[{"name":"구우면돼지","tel":"070-8621-1707","addr":"경기도 의정부시 신곡동 362-4번지 1층","indutype":"일반휴게음식 - 일반한식","category":"restaurant"},{"name":"추어랑","tel":"031-847-3211","addr":"경기도 의정부시 신곡동 362-4번지 1층","indutype":"일반휴게음식 - 일반한식","category":"restaurant"}]},{"lat":"37.742793083","long":"127.05637659","imageIndex":4,"items":[{"name":"구이마당","tel":"031-846-6871","addr":"경기도 의정부시 신곡동 680-5번지","indutype":"일반휴게음식 - 일반한식","category":"restaurant"},{"name":"왕십리불곱창","tel":"031-856-0004","addr":"경기도 의정부시 신곡동 680-5번지","indutype":"일반휴게음식 - 일반한식","category":"restaurant"}]},{"lat":"37.730845591","long":"127.05812629","imageIndex":4,"items":[{"name":"국시락","tel":"031-826-9490","addr":"경기도 의정부시 신곡동 720-5번지","indutype":"일반휴게음식 - 일반한식","category":"restaurant"},{"name":"포크랜드","tel":"031-826-0692","addr":"경기도 의정부시 신곡동 720-5번지 지상1층","indutype":"일반휴게음식 - 일반한식","category":"restaurant"},{"name":"황제해물선","tel":"031-826-1232","addr":"경기도 의정부시 신곡동 720-5번지 1층","indutype":"일반휴게음식 - 일반한식","category":"restaurant"}]},{"lat":"37.749267768","long":"127.07862063","imageIndex":4,"items":[{"name":"굽네치킨","tel":"031-851-9294","addr":"경기도 의정부시 신곡동 785-10번지 101호","indutype":"일반휴게음식 - 스넥","category":"restaurant"}]},{"lat":"37.73470899","long":"127.06165727","imageIndex":4,"items":[{"name":"굿차돌","tel":"031-841-6923","addr":"경기도 의정부시 신곡동 418-3번지 1층","indutype":"일반휴게음식 - 일반한식","category":"restaurant"},{"name":"예지원","tel":"031-847-4447","addr":"경기도 의정부시 신곡동 418-3번지","indutype":"일반휴게음식 - 일반한식","category":"restaurant"}]},{"lat":"37.746184139","long":"127.06745288","imageIndex":4,"items":[{"name":"그래커피","tel":"031-111-1111","addr":"경기도 의정부시 신곡동 121-4번지","indutype":"일반휴게음식 - 서양음식","category":"restaurant"},{"name":"에이푸드(A푸드)","tel":"031-837-0247","addr":"경기도 의정부시 신곡동 121-4번지 1층","indutype":"일반휴게음식 - 일반한식","category":"restaurant"}]},{"lat":"37.750014892","long":"127.07965394","imageIndex":4,"items":[{"name":"그린파스타 앤 화덕피자","tel":"031-851-4378","addr":"경기도 의정부시 신곡동 780-5번지 1층","indutype":"일반휴게음식 - 서양음식","category":"restaurant"}]},{"lat":"37.743540736","long":"127.05668346","imageIndex":4,"items":[{"name":"그집생고기","tel":"031-848-8592","addr":"경기도 의정부시 신곡동 675-10번지 지하1층","indutype":"일반휴게음식 - 일반한식","category":"restaurant"},{"name":"먹고싶은그집생고기","tel":"031-848-8592","addr":"경기도 의정부시 신곡동 675-10번지","indutype":"일반휴게음식 - 일반한식","category":"restaurant"}]},{"lat":"37.735015276","long":"127.06173692","imageIndex":4,"items":[{"name":"김가네왕족발","tel":"031-821-8787","addr":"경기도 의정부시 신곡동 447-30번지","indutype":"일반휴게음식 - 일반한식","category":"restaurant"}]},{"lat":"37.729178037","long":"127.05976987","imageIndex":4,"items":[{"name":"김가한우양곱창구이","tel":"031-848-8292","addr":"경기도 의정부시 신곡동 331-1번지 미림빌딩 107호","indutype":"일반휴게음식 - 일반한식","category":"restaurant"},{"name":"돈아띠","tel":"031-821-7941","addr":"경기도 의정부시 신곡동 331-1번지 미림빌딩 1층","indutype":"일반휴게음식 - 일반한식","category":"restaurant"},{"name":"봉구스밥버거 (신곡점)","tel":"031-841-5188","addr":"경기도 의정부시 신곡동 331-1번지 미림빌딩 102호","indutype":"일반휴게음식 - 일반한식","category":"restaurant"},{"name":"피자스쿨 장암점","tel":"02-933-5356","addr":"경기도 의정부시 신곡동 331-1번지 미림빌딩 1층","indutype":"일반휴게음식 - 서양음식","category":"restaurant"}]},{"lat":"37.740268238","long":"127.06095826","imageIndex":4,"items":[{"name":"김경자소문난대구왕뽈찜","tel":"031-821-8300","addr":"경기도 의정부시 신곡동 483번지 1층 A호","indutype":"일반휴게음식 - 일반한식","category":"restaurant"}]},{"lat":"37.747628255","long":"127.06254115","imageIndex":4,"items":[{"name":"김밥천국","tel":"031-852-9642","addr":"경기도 의정부시 신곡동 755-2번지 풍림아이원아파트 상가 109호","indutype":"일반휴게음식 - 스넥","category":"restaurant"}]},{"lat":"37.736401257","long":"127.06465359","imageIndex":4,"items":[{"name":"김보석 스시앤참치","tel":"031-856-3705","addr":"경기도 의정부시 신곡동 143-6번지 장령상가 1동 1층","indutype":"일반휴게음식 - 일식·회집","category":"restaurant"}]},{"lat":"37.73224201","long":"127.05826345","imageIndex":4,"items":[{"name":"김부자능이버섯백숙","tel":"031-871-3382","addr":"경기도 의정부시 신곡동 715-4번지 1층","indutype":"일반휴게음식 - 일반한식","category":"restaurant"}]},{"lat":"37.736765698","long":"127.05634957","imageIndex":4,"items":[{"name":"김여주피자","tel":"031-851-1148","addr":"경기도 의정부시 신곡동 598-26번지 2층","indutype":"일반휴게음식 - 서양음식","category":"restaurant"},{"name":"동우오리","tel":"031-841-9954","addr":"경기도 의정부시 신곡동 598-26번지","indutype":"일반휴게음식 - 일반한식","category":"restaurant"}]},{"lat":"37.732566678","long":"127.05757171","imageIndex":4,"items":[{"name":"김치돌 생 삼겹살","tel":"031-877-4570","addr":"경기도 의정부시 신곡동 710-10번지 1층","indutype":"일반휴게음식 - 일반한식","category":"restaurant"}]},{"lat":"37.744017914","long":"127.0573986","imageIndex":4,"items":[{"name":"깐부치킨","tel":"031-844-5085","addr":"경기도 의정부시 신곡동 671-5번지 1층","indutype":"일반휴게음식 - 일반한식","category":"restaurant"}]},{"lat":"37.737459847","long":"127.05543113","imageIndex":4,"items":[{"name":"꺼멍탄우에수랏상","tel":"031-848-9266","addr":"경기도 의정부시 신곡동 571-1번지 1층","indutype":"일반휴게음식 - 일반한식","category":"restaurant"}]},{"lat":"37.744234663","long":"127.05626417","imageIndex":4,"items":[{"name":"꼬꼬발생각","tel":"031-844-5592","addr":"경기도 의정부시 신곡동 677-5번지","indutype":"일반휴게음식 - 일반한식","category":"restaurant"}]},{"lat":"37.734573864","long":"127.06162313","imageIndex":4,"items":[{"name":"꼬꼬울타리","tel":"031-821-6476","addr":"경기도 의정부시 신곡동 417-3번지 1층","indutype":"일반휴게음식 - 일반한식","category":"restaurant"}]},{"lat":"37.74320761","long":"127.05618401","imageIndex":4,"items":[{"name":"꼬바 동오점/(주) 신영","tel":"031-842-9922","addr":"경기도 의정부시 신곡동 680-1번지 1층","indutype":"일반휴게음식 - 일반한식","category":"restaurant"},{"name":"리젠시","tel":"02-1111-1111","addr":"경기도 의정부시 신곡동 680-1번지 1층","indutype":"일반휴게음식 - 서양음식","category":"restaurant"}]},{"lat":"37.743765949","long":"127.05674036","imageIndex":4,"items":[{"name":"꼬지사께(의정부신곡점)","tel":"031-842-2240","addr":"경기도 의정부시 신곡동 675-2번지","indutype":"일반휴게음식 - 주점","category":"restaurant"}]},{"lat":"37.73168356","long":"127.05795675","imageIndex":4,"items":[{"name":"꼴통포차","tel":"031-875-0674","addr":"경기도 의정부시 신곡동 714-5번지 1층","indutype":"일반휴게음식 - 일반한식","category":"restaurant"},{"name":"박실장춘천닭갈비막국수","tel":"031-855-9288","addr":"경기도 의정부시 신곡동 714-5번지 1층","indutype":"일반휴게음식 - 일반한식","category":"restaurant"}]},{"lat":"37.744815674","long":"127.06562499","imageIndex":4,"items":[{"name":"꽉찬 김밥","tel":"031-821-0343","addr":"경기도 의정부시 신곡동 108-14번지 신명스카이뷰","indutype":"일반휴게음식 - 스넥","category":"restaurant"}]},{"lat":"37.729511463","long":"127.05962265","imageIndex":4,"items":[{"name":"꿈의김밥","tel":"031-821-8833","addr":"경기도 의정부시 신곡동 334-2번지 장곡빌딩","indutype":"일반휴게음식 - 일반한식","category":"restaurant"},{"name":"이디야(발곡점)","tel":"031-841-5033","addr":"경기도 의정부시 신곡동 334-2번지 장곡빌딩 나동 지상 1호","indutype":"일반휴게음식 - 서양음식","category":"restaurant"},{"name":"키즈카페 노아","tel":"031-843-6203","addr":"경기도 의정부시 신곡동 334-2번지 장곡빌딩 5층","indutype":"일반휴게음식 - 서양음식","category":"restaurant"}]},{"lat":"37.74454061","long":"127.05709264","imageIndex":4,"items":[{"name":"낙지왕궁","tel":"031-841-0058","addr":"경기도 의정부시 신곡동 671-16번지","indutype":"일반휴게음식 - 일반한식","category":"restaurant"}]},{"lat":"37.731323071","long":"127.05818336","imageIndex":4,"items":[{"name":"남원추어탕","tel":"031-855-9747","addr":"경기도 의정부시 신곡동 717-6번지","indutype":"일반휴게음식 - 일반한식","category":"restaurant"},{"name":"더 기발한 치킨","tel":"031-872-7199","addr":"경기도 의정부시 신곡동 717-6번지","indutype":"일반휴게음식 - 스넥","category":"restaurant"}]},{"lat":"37.751205153","long":"127.07810065","imageIndex":4,"items":[{"name":"남원추어탕","tel":"031-852-4426","addr":"경기도 의정부시 신곡동 772-4번지 대원쉐르빌 1층","indutype":"일반휴게음식 - 일반한식","category":"restaurant"}]},{"lat":"37.750509785","long":"127.08061894","imageIndex":4,"items":[{"name":"낭만아빠","tel":"031-853-9766","addr":"경기도 의정부시 신곡동 779-1번지 1층","indutype":"일반휴게음식 - 일반한식","category":"restaurant"}]},{"lat":"37.742901223","long":"127.05631994","imageIndex":4,"items":[{"name":"내담","tel":"031-841-5892","addr":"경기도 의정부시 신곡동 680-4번지 1층","indutype":"일반휴게음식 - 일반한식","category":"restaurant"}]},{"lat":"37.749426271","long":"127.0697931","imageIndex":4,"items":[{"name":"너는 꽃 케이크","tel":"031-000-0000","addr":"경기도 의정부시 신곡동 761-1번지 센타프라자 116호","indutype":"일반휴게음식 - 서양음식","category":"restaurant"},{"name":"네네치킨","tel":"031-853-9989","addr":"경기도 의정부시 신곡동 761-1번지 센터프라자 112호","indutype":"일반휴게음식 - 일반한식","category":"restaurant"},{"name":"뜰래 구울래","tel":"031-853-2224","addr":"경기도 의정부시 신곡동 761-1번지 센타프라자 102호","indutype":"일반휴게음식 - 일반한식","category":"restaurant"},{"name":"모든국수","tel":"031-851-2203","addr":"경기도 의정부시 신곡동 761-1번지 센타프라자 103호","indutype":"일반휴게음식 - 일반한식","category":"restaurant"},{"name":"수유리 찌개백반","tel":"031-852-6074","addr":"경기도 의정부시 신곡동 761-1번지 센타프라자 113호","indutype":"일반휴게음식 - 일반한식","category":"restaurant"},{"name":"엄마    식당","tel":"031-852-6577","addr":"경기도 의정부시 신곡동 761-1번지 센터프라자 109,110호","indutype":"일반휴게음식 - 일반한식","category":"restaurant"},{"name":"커피마마","tel":"031-851-9791","addr":"경기도 의정부시 신곡동 761-1번지 센터프라자 107호","indutype":"일반휴게음식 - 서양음식","category":"restaurant"},{"name":"커피에 반하다 (의정부북부청사점)","tel":"02-900-8553","addr":"경기도 의정부시 신곡동 761-1번지 센타프라자 108호","indutype":"일반휴게음식 - 서양음식","category":"restaurant"},{"name":"한솥도시락","tel":"031-864-1005","addr":"경기도 의정부시 신곡동 761-1번지 센타프라자 105호","indutype":"일반휴게음식 - 일반한식","category":"restaurant"}]},{"lat":"37.731819818","long":"127.0555179","imageIndex":4,"items":[{"name":"네네치킨","tel":"031-855-9889","addr":"경기도 의정부시 신곡동 705-3번지 1층","indutype":"일반휴게음식 - 스넥","category":"restaurant"}]},{"lat":"37.737234965","long":"127.0546255","imageIndex":4,"items":[{"name":"네네치킨신곡점","tel":"031-842-9995","addr":"경기도 의정부시 신곡동 566-15번지 1층","indutype":"일반휴게음식 - 스넥","category":"restaurant"}]},{"lat":"37.735934212","long":"127.06181706","imageIndex":4,"items":[{"name":"네이처푸드","tel":"031-841-0117","addr":"경기도 의정부시 신곡동 445-1번지 지상 1층","indutype":"일반휴게음식 - 일반한식","category":"restaurant"},{"name":"대림한식뷔페","tel":"","addr":"경기도 의정부시 신곡동 445-1번지 1층","indutype":"일반휴게음식 - 일반한식","category":"restaurant"}]},{"lat":"37.743874017","long":"127.05684255","imageIndex":4,"items":[{"name":"논도랑","tel":"031-821-5331","addr":"경기도 의정부시 신곡동 675-3번지","indutype":"일반휴게음식 - 일반한식","category":"restaurant"}]},{"lat":"37.732377297","long":"127.05795727","imageIndex":4,"items":[{"name":"뉴욕바닷가재","tel":"031-873-7778","addr":"경기도 의정부시 신곡동 713-13번지 1층 지상 1층","indutype":"일반휴게음식 - 일반한식","category":"restaurant"}]},{"lat":"37.740538001","long":"127.06201358","imageIndex":4,"items":[{"name":"능곡로26번길","tel":"031-1111-1111","addr":"경기도 의정부시 신곡동 485-1번지 1층","indutype":"일반휴게음식 - 일반한식","category":"restaurant"},{"name":"신곡치킨호프","tel":"031-846-3847","addr":"경기도 의정부시 신곡동 485-1번지 1층","indutype":"일반휴게음식 - 일반한식","category":"restaurant"}]},{"lat":"37.751014736","long":"127.07998404","imageIndex":4,"items":[{"name":"다래압구정 찌개마을","tel":"031-852-9997","addr":"경기도 의정부시 신곡동 777-5번지","indutype":"일반휴게음식 - 일반한식","category":"restaurant"}]},{"lat":"37.745707577","long":"127.06570517","imageIndex":4,"items":[{"name":"다온","tel":"031-000-0000","addr":"경기도 의정부시 신곡동 112-38번지 지하1층","indutype":"일반휴게음식 - 서양음식","category":"restaurant"}]},{"lat":"37.731594232","long":"127.05628913","imageIndex":4,"items":[{"name":"다찜 신곡점","tel":"031-874-8940","addr":"경기도 의정부시 신곡동 707-5번지","indutype":"일반휴게음식 - 일반한식","category":"restaurant"}]},{"lat":"37.74729339","long":"127.06545689","imageIndex":4,"items":[{"name":"달달(Dal Dal)","tel":"","addr":"경기도 의정부시 신곡동 807-2번지 1층","indutype":"일반휴게음식 - 서양음식","category":"restaurant"}]},{"lat":"37.737181051","long":"127.05429646","imageIndex":4,"items":[{"name":"달빛카페&포차","tel":"031-821-4578","addr":"경기도 의정부시 신곡동 567-7번지 1층","indutype":"일반휴게음식 - 주점","category":"restaurant"}]},{"lat":"37.744567929","long":"127.05645729","imageIndex":4,"items":[{"name":"달인보쌈","tel":"031-821-5253","addr":"경기도 의정부시 신곡동 670-1번지 1층","indutype":"일반휴게음식 - 일반한식","category":"restaurant"}]},{"lat":"37.750042355","long":"127.07898452","imageIndex":4,"items":[{"name":"달콤스토리","tel":"02-0649-7676","addr":"경기도 의정부시 신곡동 787-1번지 1층","indutype":"일반휴게음식 - 서양음식","category":"restaurant"}]},{"lat":"37.744459762","long":"127.05657067","imageIndex":4,"items":[{"name":"닭갈비집","tel":"031-877-5340","addr":"경기도 의정부시 신곡동 670-8번지 1층","indutype":"일반휴게음식 - 일반한식","category":"restaurant"}]},{"lat":"37.743684915","long":"127.05662684","imageIndex":4,"items":[{"name":"닭발귀신","tel":"031-845-8881","addr":"경기도 의정부시 신곡동 675-1번지 1층","indutype":"일반휴게음식 - 일반한식","category":"restaurant"},{"name":"신마차포차","tel":"031-821-0606","addr":"경기도 의정부시 신곡동 675-1번지 지하1층","indutype":"일반휴게음식 - 일반한식","category":"restaurant"},{"name":"우거지를 품은 순대국","tel":"031-821-8807","addr":"경기도 의정부시 신곡동 675-1번지 1층","indutype":"일반휴게음식 - 일반한식","category":"restaurant"}]},{"lat":"37.734735332","long":"127.06301862","imageIndex":4,"items":[{"name":"닭한마리","tel":"031-847-5858","addr":"경기도 의정부시 신곡동 416-18번지","indutype":"일반휴게음식 - 일반한식","category":"restaurant"}]},{"lat":"37.744288782","long":"127.05612806","imageIndex":4,"items":[{"name":"당신의무늬","tel":"031-871-0980","addr":"경기도 의정부시 신곡동 677-4번지","indutype":"일반휴게음식 - 일반한식","category":"restaurant"},{"name":"잔비어","tel":"031-696-5047","addr":"경기도 의정부시 신곡동 677-4번지","indutype":"일반휴게음식 - 일반한식","category":"restaurant"}]},{"lat":"37.732044556","long":"127.05662977","imageIndex":4,"items":[{"name":"대구반야월막창","tel":"031-821-0119","addr":"경기도 의정부시 신곡동 709-6번지","indutype":"일반휴게음식 - 일반한식","category":"restaurant"}]},{"lat":"37.728573137","long":"127.06232168","imageIndex":4,"items":[{"name":"대도온천유통(츄츄바,츄밥)","tel":"031-841-7910","addr":"경기도 의정부시 신곡동 313-2번지","indutype":"일반휴게음식 - 스넥","category":"restaurant"},{"name":"맛떡 맛조은떡볶이","tel":"031-846-7982","addr":"경기도 의정부시 신곡동 313-2번지 1층","indutype":"일반휴게음식 - 스넥","category":"restaurant"},{"name":"피자쉐프&피자와치킨","tel":"031-843-7654","addr":"경기도 의정부시 신곡동 313-2번지","indutype":"일반휴게음식 - 서양음식","category":"restaurant"}]},{"lat":"37.744653928","long":"127.06481929","imageIndex":4,"items":[{"name":"대림 한식뷔페2호점","tel":"070-7529-8843","addr":"경기도 의정부시 신곡동 107-22번지","indutype":"일반휴게음식 - 일반한식","category":"restaurant"}]},{"lat":"37.735519435","long":"127.06248606","imageIndex":4,"items":[{"name":"대박곱창","tel":"031-696-5047","addr":"경기도 의정부시 신곡동 448-38번지 1층","indutype":"일반휴게음식 - 일반한식","category":"restaurant"}]},{"lat":"37.74681641","long":"127.06445802","imageIndex":4,"items":[{"name":"대박차식당","tel":"031-844-0804","addr":"경기도 의정부시 신곡동 87-11번지 101호","indutype":"일반휴게음식 - 일반한식","category":"restaurant"}]},{"lat":"37.736824837","long":"127.06440436","imageIndex":4,"items":[{"name":"대파전","tel":"031-821-1676","addr":"경기도 의정부시 신곡동 143-1번지","indutype":"일반휴게음식 - 일반한식","category":"restaurant"}]},{"lat":"37.729628373","long":"127.06006514","imageIndex":4,"items":[{"name":"더 고집 신곡점","tel":"031-846-5909","addr":"경기도 의정부시 신곡동 356-2번지 1층","indutype":"일반휴게음식 - 일반한식","category":"restaurant"},{"name":"스시도라","tel":"031-848-0882","addr":"경기도 의정부시 신곡동 356-2번지","indutype":"일반휴게음식 - 일반한식","category":"restaurant"}]},{"lat":"37.749289785","long":"127.07211904","imageIndex":4,"items":[{"name":"더 커피 노리터","tel":"031-979-3434","addr":"경기도 의정부시 신곡동 764-5번지 1층","indutype":"일반휴게음식 - 서양음식","category":"restaurant"}]},{"lat":"37.743819866","long":"127.05704673","imageIndex":4,"items":[{"name":"더(The)맛있는족발보쌈 신곡점","tel":"031-846-6633","addr":"경기도 의정부시 신곡동 675-7번지 1층","indutype":"일반휴게음식 - 일반한식","category":"restaurant"}]},{"lat":"37.74781654","long":"127.06432269","imageIndex":4,"items":[{"name":"더월스튜디오","tel":"031-853-7909","addr":"경기도 의정부시 신곡동 756-5번지 세원빌딩 5층","indutype":"일반휴게음식 - 일반한식","category":"restaurant"},{"name":"아이원호프","tel":"031-851-8187","addr":"경기도 의정부시 신곡동 756-5번지 세원빌딩 1층 일부","indutype":"일반휴게음식 - 주점","category":"restaurant"},{"name":"카페새말","tel":"031-853-9588","addr":"경기도 의정부시 신곡동 756-5번지 세원빌딩 1층 102호","indutype":"일반휴게음식 - 서양음식","category":"restaurant"}]},{"lat":"37.731540287","long":"127.05603952","imageIndex":4,"items":[{"name":"더진동해동태탕","tel":"031-855-9988","addr":"경기도 의정부시 신곡동 706-6번지 1층","indutype":"일반휴게음식 - 일반한식","category":"restaurant"}]},{"lat":"37.735213321","long":"127.06206607","imageIndex":4,"items":[{"name":"더통큰대학족발","tel":"031-821-1950","addr":"경기도 의정부시 신곡동 448-14번지 1층","indutype":"일반휴게음식 - 일반한식","category":"restaurant"},{"name":"사계절","tel":"031-848-0021","addr":"경기도 의정부시 신곡동 448-14번지 1층","indutype":"일반휴게음식 - 일반한식","category":"restaurant"}]},{"lat":"37.744044848","long":"127.05760284","imageIndex":4,"items":[{"name":"덩이와둥이","tel":"031-848-6065","addr":"경기도 의정부시 신곡동 671-11번지","indutype":"일반휴게음식 - 일반한식","category":"restaurant"}]},{"lat":"37.731936441","long":"127.05662969","imageIndex":4,"items":[{"name":"델리랩","tel":"031-855-2953","addr":"경기도 의정부시 신곡동 709-7번지","indutype":"일반휴게음식 - 일반한식","category":"restaurant"},{"name":"마당만두","tel":"031-826-2628","addr":"경기도 의정부시 신곡동 709-7번지","indutype":"일반휴게음식 - 일반한식","category":"restaurant"}]},{"lat":"37.744153628","long":"127.05615065","imageIndex":4,"items":[{"name":"도담횟집","tel":"031-848-4102","addr":"경기도 의정부시 신곡동 677-6번지","indutype":"일반휴게음식 - 일반한식","category":"restaurant"}]},{"lat":"37.728987691","long":"127.06209514","imageIndex":4,"items":[{"name":"도새기 짱","tel":"031-847-2528","addr":"경기도 의정부시 신곡동 362-7번지 1층","indutype":"일반휴게음식 - 일반한식","category":"restaurant"}]},{"lat":"37.747093716","long":"127.06815714","imageIndex":4,"items":[{"name":"도서관 가는길 카페","tel":"031-851-8226","addr":"경기도 의정부시 신곡동 803-1번지","indutype":"일반휴게음식 - 서양음식","category":"restaurant"}]},{"lat":"37.746931069","long":"127.06900796","imageIndex":4,"items":[{"name":"독천낙지골","tel":"031-853-6841","addr":"경기도 의정부시 신곡동 803-7번지","indutype":"일반휴게음식 - 일반한식","category":"restaurant"}]},{"lat":"37.749876639","long":"127.0699864","imageIndex":4,"items":[{"name":"돈 치킨","tel":"031-654-8779","addr":"경기도 의정부시 신곡동 762-2번지 엘리트타운 109호","indutype":"일반휴게음식 - 스넥","category":"restaurant"},{"name":"신전떡볶이 경기북부청사역점","tel":"031-853-6888","addr":"경기도 의정부시 신곡동 762-2번지","indutype":"일반휴게음식 - 일반한식","category":"restaurant"},{"name":"피자알볼로 금오신곡점","tel":"031-852-8496","addr":"경기도 의정부시 신곡동 762-2번지 엘리트타운 1층 105호","indutype":"일반휴게음식 - 일반한식","category":"restaurant"}]},{"lat":"37.750014625","long":"127.08006243","imageIndex":4,"items":[{"name":"돈돼지 참나무 숯불갈비","tel":"031-853-0799","addr":"경기도 의정부시 신곡동 779-7번지","indutype":"일반휴게음식 - 일반한식","category":"restaurant"}]},{"lat":"37.72921401","long":"127.05990602","imageIndex":4,"items":[{"name":"돈스2호점","tel":"031-847-9255","addr":"경기도 의정부시 신곡동 331-23번지","indutype":"일반휴게음식 - 일반한식","category":"restaurant"},{"name":"청춘뼈다귀감자탕","tel":"","addr":"경기도 의정부시 신곡동 331-23번지 1층","indutype":"일반휴게음식 - 일반한식","category":"restaurant"}]},{"lat":"37.731513619","long":"127.05523409","imageIndex":4,"items":[{"name":"돈이 우르르","tel":"031-876-5478","addr":"경기도 의정부시 신곡동 704-5번지","indutype":"일반휴게음식 - 일반한식","category":"restaurant"}]},{"lat":"37.749183232","long":"127.0694071","imageIndex":4,"items":[{"name":"돈잡는포차","tel":"031-853-2475","addr":"경기도 의정부시 신곡동 760-3번지 우정프라자 108호","indutype":"일반휴게음식 - 일반한식","category":"restaurant"},{"name":"멜팅제과 (melting)","tel":"","addr":"경기도 의정부시 신곡동 760-3번지 우정프라자 1층 109호","indutype":"일반휴게음식 - 서양음식","category":"restaurant"},{"name":"본도시락의정부금오점","tel":"031-853-4282","addr":"경기도 의정부시 신곡동 760-3번지 우정프라자 107호","indutype":"일반휴게음식 - 일반한식","category":"restaurant"},{"name":"선 죽","tel":"031-851-7400","addr":"경기도 의정부시 신곡동 760-3번지 우정프라자 104호","indutype":"일반휴게음식 - 일반한식","category":"restaurant"},{"name":"우리가","tel":"031-851-8276","addr":"경기도 의정부시 신곡동 760-3번지 우정프라자 110호","indutype":"일반휴게음식 - 일반한식","category":"restaurant"},{"name":"한밭식당","tel":"031-851-0360","addr":"경기도 의정부시 신곡동 760-3번지 우정프라자 1층 111호","indutype":"일반휴게음식 - 일반한식","category":"restaurant"}]},{"lat":"37.737099935","long":"127.07198289","imageIndex":4,"items":[{"name":"돌판삼겹살.곱창","tel":"031-844-7242","addr":"경기도 의정부시 신곡동 169-34번지","indutype":"일반휴게음식 - 일반한식","category":"restaurant"}]},{"lat":"37.744018258","long":"127.05664977","imageIndex":4,"items":[{"name":"동궁찜닭 신곡점","tel":"031-841-7882","addr":"경기도 의정부시 신곡동 676-10번지 1층","indutype":"일반휴게음식 - 일반한식","category":"restaurant"}]},{"lat":"37.743207522","long":"127.05637689","imageIndex":4,"items":[{"name":"동막골전집","tel":"031-856-1123","addr":"경기도 의정부시 신곡동 680-11번지 1층","indutype":"일반휴게음식 - 일반한식","category":"restaurant"}]},{"lat":"37.742982247","long":"127.05645615","imageIndex":4,"items":[{"name":"동오숯불갈비","tel":"031-843-9566","addr":"경기도 의정부시 신곡동 680-9번지","indutype":"일반휴게음식 - 일반한식","category":"restaurant"}]},{"lat":"37.744126409","long":"127.05657043","imageIndex":4,"items":[{"name":"동오아구마을","tel":"031-821-9956","addr":"경기도 의정부시 신곡동 676-5번지","indutype":"일반휴게음식 - 일반한식","category":"restaurant"}]},{"lat":"37.74690413","long":"127.06884909","imageIndex":4,"items":[{"name":"동천면옥","tel":"031-851-1410","addr":"경기도 의정부시 신곡동 803-6번지 굿모닝빌 1층","indutype":"일반휴게음식 - 일반한식","category":"restaurant"}]},{"lat":"37.749204555","long":"127.0788475","imageIndex":4,"items":[{"name":"두리두리","tel":"031-852-4260","addr":"경기도 의정부시 신곡동 785-8번지 효자프린스빌 1층","indutype":"일반휴게음식 - 스넥","category":"restaurant"}]},{"lat":"37.732098881","long":"127.05603992","imageIndex":4,"items":[{"name":"드루와생선요리전문점","tel":"031-873-8839","addr":"경기도 의정부시 신곡동 706-10번지","indutype":"일반휴게음식 - 일반한식","category":"restaurant"}]},{"lat":"37.731485126","long":"127.05843305","imageIndex":4,"items":[{"name":"등촌칼국수","tel":"031-879-5954","addr":"경기도 의정부시 신곡동 715-9번지","indutype":"일반휴게음식 - 일반한식","category":"restaurant"}]},{"lat":"37.746374722","long":"127.06487746","imageIndex":4,"items":[{"name":"디에이치원 푸드시스템","tel":"031-847-1530","addr":"경기도 의정부시 신곡동 88-15번지 가동 1층 105호","indutype":"일반휴게음식 - 일반한식","category":"restaurant"},{"name":"멕시카나 신곡점","tel":"031-848-4666","addr":"경기도 의정부시 신곡동 88-15번지","indutype":"일반휴게음식 - 스넥","category":"restaurant"}]},{"lat":"37.75126063","long":"127.07584266","imageIndex":4,"items":[{"name":"디저트카페플랫","tel":"031-851-0872","addr":"경기도 의정부시 신곡동 767-2번지 상록아이파크 상가 1층 101호","indutype":"일반휴게음식 - 서양음식","category":"restaurant"},{"name":"청년프라이","tel":"070-7420-2060","addr":"경기도 의정부시 신곡동 767-2번지 상록아이파크 상가동 103호","indutype":"일반휴게음식 - 서양음식","category":"restaurant"},{"name":"츄츄바&츄밥","tel":"031-851-0505","addr":"경기도 의정부시 신곡동 767-2번지 상록아이파크 상가동 101호","indutype":"일반휴게음식 - 일반한식","category":"restaurant"}]},{"lat":"37.750510836","long":"127.07900769","imageIndex":4,"items":[{"name":"땅집고바다먹기","tel":"031-111-1111","addr":"경기도 의정부시 신곡동 782-2번지 센스빌 102호","indutype":"일반휴게음식 - 일반한식","category":"restaurant"}]},{"lat":"37.747510275","long":"127.06420897","imageIndex":4,"items":[{"name":"땡초","tel":"031-841-2102","addr":"경기도 의정부시 신곡동 757-9번지 대성빌딩 1층 107호","indutype":"일반휴게음식 - 일반한식","category":"restaurant"}]},{"lat":"37.731016274","long":"127.05918139","imageIndex":4,"items":[{"name":"떡볶이상회","tel":"031-846-9390","addr":"경기도 의정부시 신곡동 352-35번지 1층","indutype":"일반휴게음식 - 일반한식","category":"restaurant"},{"name":"별,그림","tel":"031-000-0000","addr":"경기도 의정부시 신곡동 352-35번지 103호","indutype":"일반휴게음식 - 서양음식","category":"restaurant"}]},{"lat":"37.730963037","long":"127.0574344","imageIndex":4,"items":[{"name":"또또치킨","tel":"02-877-2829","addr":"경기도 의정부시 신곡동 720-3번지 1층 102호","indutype":"일반휴게음식 - 스넥","category":"restaurant"},{"name":"본죽신곡점","tel":"031-878-6233","addr":"경기도 의정부시 신곡동 720-3번지 서울프라자 1층 104호","indutype":"일반휴게음식 - 일반한식","category":"restaurant"},{"name":"빽다방 의정부신곡점","tel":"031-826-5657","addr":"경기도 의정부시 신곡동 720-3번지 1층 105호","indutype":"일반휴게음식 - 서양음식","category":"restaurant"},{"name":"생활커피","tel":"031-877-5510","addr":"경기도 의정부시 신곡동 720-3번지 서울프라자 1층 103호","indutype":"일반휴게음식 - 서양음식","category":"restaurant"},{"name":"플레이펍(신곡점)","tel":"031-855-2332","addr":"경기도 의정부시 신곡동 720-3번지 5층 503호, 504호","indutype":"일반휴게음식 - 서양음식","category":"restaurant"},{"name":"훌랄라바베큐치킨","tel":"031-873-2192","addr":"경기도 의정부시 신곡동 720-3번지 서울프라자 106호","indutype":"일반휴게음식 - 주점","category":"restaurant"}]},{"lat":"37.731684826","long":"127.05517749","imageIndex":4,"items":[{"name":"또또포차","tel":"031-829-5188","addr":"경기도 의정부시 신곡동 704-4번지","indutype":"일반휴게음식 - 일반한식","category":"restaurant"}]},{"lat":"37.743847467","long":"127.05578737","imageIndex":4,"items":[{"name":"뚝탁","tel":"031-843-9833","addr":"경기도 의정부시 신곡동 677-10번지 1층","indutype":"일반휴게음식 - 일반한식","category":"restaurant"}]},{"lat":"37.734708882","long":"127.06187281","imageIndex":4,"items":[{"name":"뚱이네 곱창 포차","tel":"031-821-7004","addr":"경기도 의정부시 신곡동 397-4번지 1층","indutype":"일반휴게음식 - 일반한식","category":"restaurant"}]},{"lat":"37.749898077","long":"127.07917726","imageIndex":4,"items":[{"name":"락궁","tel":"031-853-8688","addr":"경기도 의정부시 신곡동 787-3번지 1층","indutype":"일반휴게음식 - 일반한식","category":"restaurant"}]},{"lat":"37.731178457","long":"127.05915883","imageIndex":4,"items":[{"name":"락궁","tel":"070-8945-3313","addr":"경기도 의정부시 신곡동 352-32번지 1층","indutype":"일반휴게음식 - 중국식","category":"restaurant"}]},{"lat":"37.740349049","long":"127.06151424","imageIndex":4,"items":[{"name":"럭키먼데이(LUCKY MONDAY)","tel":"","addr":"경기도 의정부시 신곡동 485-5번지 1층","indutype":"일반휴게음식 - 서양음식","category":"restaurant"}]},{"lat":"37.750294424","long":"127.07929114","imageIndex":4,"items":[{"name":"레알치킨","tel":"031-851-5660","addr":"경기도 의정부시 신곡동 780-1번지 101호","indutype":"일반휴게음식 - 스넥","category":"restaurant"}]},{"lat":"37.731324057","long":"127.05603937","imageIndex":4,"items":[{"name":"로미오","tel":"031-836-6092","addr":"경기도 의정부시 신곡동 707-8번지 1층","indutype":"일반휴게음식 - 일반한식","category":"restaurant"}]},{"lat":"37.745239183","long":"127.06551189","imageIndex":4,"items":[{"name":"마녀포차","tel":"031-844-6694","addr":"경기도 의정부시 신곡동 110-2번지 1층 2호","indutype":"일반휴게음식 - 주점","category":"restaurant"},{"name":"영주회식","tel":"031-840-2155","addr":"경기도 의정부시 신곡동 110-2번지 1층","indutype":"일반휴게음식 - 일반한식","category":"restaurant"}]},{"lat":"37.744045385","long":"127.05643422","imageIndex":4,"items":[{"name":"마산아구찜","tel":"031-847-1752","addr":"경기도 의정부시 신곡동 676-4번지","indutype":"일반휴게음식 - 일반한식","category":"restaurant"},{"name":"여걸곱창 1978","tel":"031-847-3015","addr":"경기도 의정부시 신곡동 676-4번지","indutype":"일반휴게음식 - 일반한식","category":"restaurant"},{"name":"원조강변닭발전문점","tel":"031-847-6636","addr":"경기도 의정부시 신곡동 676-4번지 1층","indutype":"일반휴게음식 - 일반한식","category":"restaurant"}]},{"lat":"37.74096141","long":"127.06209333","imageIndex":4,"items":[{"name":"마스터삼겹살 신곡점","tel":"","addr":"경기도 의정부시 신곡동 486-13번지 신곡지역주택조합 상가동 1층 4호","indutype":"일반휴게음식 - 일반한식","category":"restaurant"},{"name":"인생 술집","tel":"070-4064-5830","addr":"경기도 의정부시 신곡동 486-13번지 신곡지역주택조합아파트 104호","indutype":"일반휴게음식 - 주점","category":"restaurant"}]},{"lat":"37.748600371","long":"127.06432334","imageIndex":4,"items":[{"name":"마을식당 품/동네품 협동조합","tel":"","addr":"경기도 의정부시 신곡동 757-2번지 202,203호 광장골드 상가","indutype":"일반휴게음식 - 일반한식","category":"restaurant"},{"name":"부어치킨금오점","tel":"031-853-9585","addr":"경기도 의정부시 신곡동 757-2번지 광장골드 상가 1층 106호","indutype":"일반휴게음식 - 주점","category":"restaurant"}]},{"lat":"37.731791612","long":"127.05809296","imageIndex":4,"items":[{"name":"마음꽃(우리마음에 핀 꽃)","tel":"031-855-0002","addr":"경기도 의정부시 신곡동 714-7번지 102호","indutype":"일반휴게음식 - 서양음식","category":"restaurant"}]},{"lat":"37.731323241","long":"127.05782036","imageIndex":4,"items":[{"name":"맘스터치 의정부신곡점","tel":"031-878-3309","addr":"경기도 의정부시 신곡동 717-8번지 1층 우측","indutype":"일반휴게음식 - 서양음식","category":"restaurant"}]},{"lat":"37.737153669","long":"127.05510192","imageIndex":4,"items":[{"name":"맛깔촌","tel":"031-842-1144","addr":"경기도 의정부시 신곡동 571-11번지","indutype":"일반휴게음식 - 일반한식","category":"restaurant"}]},{"lat":"37.744099292","long":"127.05676329","imageIndex":4,"items":[{"name":"맛닭꼬 신곡점","tel":"031-846-5592","addr":"경기도 의정부시 신곡동 676-9번지 1층","indutype":"일반휴게음식 - 일반한식","category":"restaurant"}]},{"lat":"37.740844822","long":"127.06101543","imageIndex":4,"items":[{"name":"먹고집","tel":"031-844-9535","addr":"경기도 의정부시 신곡동 487번지","indutype":"일반휴게음식 - 일반한식","category":"restaurant"},{"name":"패밀리분식","tel":"031-840-2259","addr":"경기도 의정부시 신곡동 487번지 지상 1층","indutype":"일반휴게음식 - 스넥","category":"restaurant"}]},{"lat":"37.737100015","long":"127.05418296","imageIndex":4,"items":[{"name":"먹보곱창","tel":"031-848-1237","addr":"경기도 의정부시 신곡동 567-5","indutype":"일반휴게음식 - 일반한식","category":"restaurant"}]},{"lat":"37.738379273","long":"127.07201812","imageIndex":4,"items":[{"name":"먼둘레분식","tel":"031-842-0473","addr":"경기도 의정부시 신곡동 167-1번지 신곡대우아파트 102호","indutype":"일반휴게음식 - 스넥","category":"restaurant"}]},{"lat":"37.740268715","long":"127.05998256","imageIndex":4,"items":[{"name":"메종키친","tel":"031-846-9147","addr":"경기도 의정부시 신곡동 480번지 2층","indutype":"일반휴게음식 - 일반한식","category":"restaurant"}]},{"lat":"37.730962885","long":"127.05776337","imageIndex":4,"items":[{"name":"면사무소","tel":"031-836-7080","addr":"경기도 의정부시 신곡동 720-4번지 미리타운 106호","indutype":"일반휴게음식 - 중국식","category":"restaurant"},{"name":"몽키비어","tel":"031-871-8848","addr":"경기도 의정부시 신곡동 720-4번지 미리타운 102호","indutype":"일반휴게음식 - 일반한식","category":"restaurant"},{"name":"인생술집","tel":"031-876-7850","addr":"경기도 의정부시 신곡동 720-4번지 미리타운 2층 201, 202호 1/2","indutype":"일반휴게음식 - 일반한식","category":"restaurant"},{"name":"항도스시","tel":"031-855-1558","addr":"경기도 의정부시 신곡동 720-4번지 지상 1층 105호 104","indutype":"일반휴게음식 - 일반한식","category":"restaurant"}]},{"lat":"37.731324317","long":"127.05546083","imageIndex":4,"items":[{"name":"명가설렁탕","tel":"031-878-8884","addr":"경기도 의정부시 신곡동 707-11번지 1층","indutype":"일반휴게음식 - 일반한식","category":"restaurant"}]},{"lat":"37.731324403","long":"127.05526798","imageIndex":4,"items":[{"name":"명동곱창","tel":"031-826-9746","addr":"경기도 의정부시 신곡동 707-12 1층","indutype":"일반휴게음식 - 일반한식","category":"restaurant"}]},{"lat":"37.729493383","long":"127.05974742","imageIndex":4,"items":[{"name":"명랑핫도그 장암점","tel":"","addr":"경기도 의정부시 신곡동 334-2번지 장곡빌딩 나동 1층 104호","indutype":"일반휴게음식 - 스넥","category":"restaurant"},{"name":"명륜진사갈비(신곡점)","tel":"031-848-0092","addr":"경기도 의정부시 신곡동 334-2번지 장곡빌딩 나동 2층","indutype":"일반휴게음식 - 일반한식","category":"restaurant"}]},{"lat":"37.7319639","long":"127.05567682","imageIndex":4,"items":[{"name":"모자족발","tel":"031-826-2004","addr":"경기도 의정부시 신곡동 705-9번지 1층","indutype":"일반휴게음식 - 일반한식","category":"restaurant"}]},{"lat":"37.742738938","long":"127.05656943","imageIndex":4,"items":[{"name":"문영부스시","tel":"031-848-4404","addr":"경기도 의정부시 신곡동 680-7번지","indutype":"일반휴게음식 - 일식·회집","category":"restaurant"}]},{"lat":"37.732962813","long":"127.05818458","imageIndex":4,"items":[{"name":"미담참숯불구이","tel":"031-855-5551","addr":"경기도 의정부시 신곡동 708-7번지","indutype":"일반휴게음식 - 일반한식","category":"restaurant"}]},{"lat":"37.750204255","long":"127.07940451","imageIndex":4,"items":[{"name":"미스터 떡볶이","tel":"031-853-8420","addr":"경기도 의정부시 신곡동 780-2번지 1층","indutype":"일반휴게음식 - 일반한식","category":"restaurant"},{"name":"아라회수산","tel":"031-853-1511","addr":"경기도 의정부시 신곡동 780-2번지 1층","indutype":"일반휴게음식 - 일반한식","category":"restaurant"},{"name":"주당들","tel":"031-852-1876","addr":"경기도 의정부시 신곡동 780-2번지 102호","indutype":"일반휴게음식 - 일반한식","category":"restaurant"}]},{"lat":"37.737461491","long":"127.06995251","imageIndex":4,"items":[{"name":"미스터 브리즈커피(의정부점)","tel":"031-827-4707","addr":"경기도 의정부시 신곡동 164-4번지 1층","indutype":"일반휴게음식 - 서양음식","category":"restaurant"}]},{"lat":"37.748732665","long":"127.06956555","imageIndex":4,"items":[{"name":"미스터피자(의정부금오점)","tel":"031-852-9152","addr":"경기도 의정부시 신곡동 760-5번지 경남프라자 201호","indutype":"일반휴게음식 - 서양음식","category":"restaurant"},{"name":"분식story","tel":"031-853-0936","addr":"경기도 의정부시 신곡동 760-5번지 경남빌딩 107호","indutype":"일반휴게음식 - 스넥","category":"restaurant"},{"name":"소담치킨","tel":"031-852-6266","addr":"경기도 의정부시 신곡동 760-5번지 경남프라자 11호,112호","indutype":"일반휴게음식 - 스넥","category":"restaurant"},{"name":"제일왕 짬뽕","tel":"031-853-6922","addr":"경기도 의정부시 신곡동 760-5번지 경남프라자지상1층116호","indutype":"일반휴게음식 - 중국식","category":"restaurant"}]},{"lat":"37.732431967","long":"127.05663005","imageIndex":4,"items":[{"name":"미야네 미나리 감자탕","tel":"031-877-8988","addr":"경기도 의정부시 신곡동 709-3번지 1층","indutype":"일반휴게음식 - 일반한식","category":"restaurant"}]},{"lat":"37.734762843","long":"127.06206571","imageIndex":4,"items":[{"name":"바로마주","tel":"031-846-4865","addr":"경기도 의정부시 신곡동 397-12번지","indutype":"일반휴게음식 - 일반한식","category":"restaurant"}]},{"lat":"37.743099397","long":"127.0563995","imageIndex":4,"items":[{"name":"바베큐보스","tel":"031-847-9393","addr":"경기도 의정부시 신곡동 680-10번지 1층","indutype":"일반휴게음식 - 주점","category":"restaurant"}]},{"lat":"37.745293342","long":"127.06531905","imageIndex":4,"items":[{"name":"반찬식당","tel":"031-000-0000","addr":"경기도 의정부시 신곡동 90-8번지 신명크리닝 상가 101호","indutype":"일반휴게음식 - 일반한식","category":"restaurant"}]},{"lat":"37.747454454","long":"127.06751071","imageIndex":4,"items":[{"name":"발리","tel":"031-821-3397","addr":"경기도 의정부시 신곡동 68-3번지 1층","indutype":"일반휴게음식 - 일반한식","category":"restaurant"}]},{"lat":"37.750266706","long":"127.08034636","imageIndex":4,"items":[{"name":"밥도둑","tel":"031-852-7734","addr":"경기도 의정부시 신곡동 779-4번지 1층","indutype":"일반휴게음식 - 일반한식","category":"restaurant"},{"name":"전설의치킨 신곡점","tel":"031-852-1659","addr":"경기도 의정부시 신곡동 779-4번지 1층","indutype":"일반휴게음식 - 스넥","category":"restaurant"}]},{"lat":"37.732566599","long":"127.05774187","imageIndex":4,"items":[{"name":"배삼요","tel":"031-826-5592","addr":"경기도 의정부시 신곡동 710-9번지 1층","indutype":"일반휴게음식 - 일반한식","category":"restaurant"}]},{"lat":"37.731818873","long":"127.05759385","imageIndex":4,"items":[{"name":"버드나무","tel":"031-873-6377","addr":"경기도 의정부시 신곡동 713-5번지","indutype":"일반휴게음식 - 일반한식","category":"restaurant"},{"name":"선우","tel":"031-855-5385","addr":"경기도 의정부시 신곡동 713-5번지 102호","indutype":"일반휴게음식 - 일반한식","category":"restaurant"},{"name":"촌놈","tel":"031-855-5385","addr":"경기도 의정부시 신곡동 713-5번지 1층","indutype":"일반휴게음식 - 일반한식","category":"restaurant"},{"name":"홍주 한우곱창","tel":"070-7502-0458","addr":"경기도 의정부시 신곡동 713-5번지 1층","indutype":"일반휴게음식 - 일반한식","category":"restaurant"}]},{"lat":"37.731818973","long":"127.05737831","imageIndex":4,"items":[{"name":"별미식당","tel":"031-876-8913","addr":"경기도 의정부시 신곡동 712-8번지 1층","indutype":"일반휴게음식 - 일반한식","category":"restaurant"}]},{"lat":"37.749816519","long":"127.07990337","imageIndex":4,"items":[{"name":"보스치킨(본점)","tel":"031-853-9298","addr":"경기도 의정부시 신곡동 780-8번지 101호","indutype":"일반휴게음식 - 스넥","category":"restaurant"}]},{"lat":"37.74548578","long":"127.05887466","imageIndex":4,"items":[{"name":"본스","tel":"031-821-2953","addr":"경기도 의정부시 신곡동 669번지 극동,동성아파트 117호","indutype":"일반휴게음식 - 스넥","category":"restaurant"}]},{"lat":"37.743982646","long":"127.05570804","imageIndex":4,"items":[{"name":"부흥국수 해방촌국수","tel":"","addr":"경기도 의정부시 신곡동 677번지","indutype":"일반휴게음식 - 일반한식","category":"restaurant"}]},{"lat":"37.731935765","long":"127.05809307","imageIndex":4,"items":[{"name":"불독떡볶이&치킨","tel":"031-827-7555","addr":"경기도 의정부시 신곡동 714-8번지","indutype":"일반휴게음식 - 일반한식","category":"restaurant"},{"name":"신곡1동점 굽네치킨","tel":"031-821-9294","addr":"경기도 의정부시 신곡동 714-8번지 1층","indutype":"일반휴게음식 - 스넥","category":"restaurant"}]},{"lat":"37.751149424","long":"127.08067634","imageIndex":4,"items":[{"name":"불타는불막창","tel":"031-853-8895","addr":"경기도 의정부시 신곡동 776-9번지 37-21","indutype":"일반휴게음식 - 일반한식","category":"restaurant"}]},{"lat":"37.74951052","long":"127.0794038","imageIndex":4,"items":[{"name":"붉은돼지","tel":"031-853-5389","addr":"경기도 의정부시 신곡동 788-6번지 1층","indutype":"일반휴게음식 - 일반한식","category":"restaurant"},{"name":"죽전문점특미참죽","tel":"031-851-6686","addr":"경기도 의정부시 신곡동 788-6번지 103호","indutype":"일반휴게음식 - 일반한식","category":"restaurant"}]},{"lat":"37.749399512","long":"127.06931652","imageIndex":4,"items":[{"name":"블루밍","tel":"031-846-3618","addr":"경기도 의정부시 신곡동 760-2번지 세명프라자 106호","indutype":"일반휴게음식 - 주점","category":"restaurant"},{"name":"이디야 경기도청북부청사점","tel":"031-852-7799","addr":"경기도 의정부시 신곡동 760-2번지 세명프라자 1층 106호","indutype":"일반휴게음식 - 서양음식","category":"restaurant"},{"name":"짝","tel":"031-853-9888","addr":"경기도 의정부시 신곡동 760-2번지 세명프라자 108호","indutype":"일반휴게음식 - 일반한식","category":"restaurant"}]},{"lat":"37.730963587","long":"127.05623196","imageIndex":4,"items":[{"name":"비비스 뚱카롱&버블티(장암점)","tel":"031-0000-0000","addr":"경기도 의정부시 신곡동 719-4번지 우신프라자 1층 102호","indutype":"일반휴게음식 - 서양음식","category":"restaurant"},{"name":"와플대학 신곡캠퍼스","tel":"031-872-3344","addr":"경기도 의정부시 신곡동 719-4번지 우신프라자 1층 103호","indutype":"일반휴게음식 - 서양음식","category":"restaurant"},{"name":"커피에반하다 의정부장암점","tel":"031-871-4980","addr":"경기도 의정부시 신곡동 719-4번지 우신프라자 113호","indutype":"일반휴게음식 - 서양음식","category":"restaurant"},{"name":"킹스타피자","tel":"031-826-7055","addr":"경기도 의정부시 신곡동 719-4번지 우신프라자 110호","indutype":"일반휴게음식 - 서양음식","category":"restaurant"},{"name":"타코와 떡볶이","tel":"","addr":"경기도 의정부시 신곡동 719-4번지 우신프라자 1층 116호","indutype":"일반휴게음식 - 스넥","category":"restaurant"}]},{"lat":"37.728988694","long":"127.06006465","imageIndex":4,"items":[{"name":"비비큐(bbq)","tel":"031-848-7007","addr":"경기도 의정부시 신곡동 330-1번지","indutype":"일반휴게음식 - 서양음식","category":"restaurant"},{"name":"킹콩떡볶이 신곡점","tel":"031-846-5400","addr":"경기도 의정부시 신곡동 330-1번지 경동빌딩 1층 102호","indutype":"일반휴게음식 - 일반한식","category":"restaurant"}]},{"lat":"37.747095634","long":"127.0645944","imageIndex":4,"items":[{"name":"비어붐","tel":"","addr":"경기도 의정부시 신곡동 87-3번지 103호","indutype":"일반휴게음식 - 일반한식","category":"restaurant"},{"name":"소가네닭갈비","tel":"031-843-7739","addr":"경기도 의정부시 신곡동 87-3번지 일층101,102호","indutype":"일반휴게음식 - 일반한식","category":"restaurant"},{"name":"옛날포차","tel":"031-847-9996","addr":"경기도 의정부시 신곡동 87-3번지","indutype":"일반휴게음식 - 주점","category":"restaurant"},{"name":"처갓집양념치킨","tel":"031-847-9992","addr":"경기도 의정부시 신곡동 87-3번지 1층","indutype":"일반휴게음식 - 스넥","category":"restaurant"}]},{"lat":"37.731178326","long":"127.05943108","imageIndex":4,"items":[{"name":"빅코스","tel":"031-382-6731","addr":"경기도 의정부시 신곡동 352-30번지","indutype":"일반휴게음식 - 일반한식","category":"restaurant"}]},{"lat":"37.735321448","long":"127.06204346","imageIndex":4,"items":[{"name":"빈대떡신사","tel":"031-851-8185","addr":"경기도 의정부시 신곡동 448-13번지","indutype":"일반휴게음식 - 스넥","category":"restaurant"},{"name":"원조막국수","tel":"031-855-1795","addr":"경기도 의정부시 신곡동 448-13번지","indutype":"일반휴게음식 - 일반한식","category":"restaurant"}]},{"lat":"37.728762588","long":"127.06182272","imageIndex":4,"items":[{"name":"빈이네분식","tel":"031-847-9969","addr":"경기도 의정부시 신곡동 314-5번지 1층","indutype":"일반휴게음식 - 일반한식","category":"restaurant"}]},{"lat":"37.744378728","long":"127.05645715","imageIndex":4,"items":[{"name":"산전수전","tel":"031-821-8939","addr":"경기도 의정부시 신곡동 670-9번지","indutype":"일반휴게음식 - 일반한식","category":"restaurant"},{"name":"치킨홀릭","tel":"031-821-9289","addr":"경기도 의정부시 신곡동 670-9번지 1층","indutype":"일반휴게음식 - 스넥","category":"restaurant"},{"name":"화택삼겹","tel":"031-842-3393","addr":"경기도 의정부시 신곡동 670-9번지 1층","indutype":"일반휴게음식 - 일반한식","category":"restaurant"}]},{"lat":"37.740457136","long":"127.06157105","imageIndex":4,"items":[{"name":"산전수전공중전","tel":"031-842-8885","addr":"경기도 의정부시 신곡동 485-4번지 가동 1층","indutype":"일반휴게음식 - 일반한식","category":"restaurant"}]},{"lat":"37.7318465","long":"127.05628931","imageIndex":4,"items":[{"name":"삼다도","tel":"031-853-0263","addr":"경기도 의정부시 신곡동 707-3번지 1층","indutype":"일반휴게음식 - 일식·회집","category":"restaurant"}]},{"lat":"37.737207826","long":"127.05487506","imageIndex":4,"items":[{"name":"상일이네닭발","tel":"031-871-8687","addr":"경기도 의정부시 신곡동 570-19번지 1층","indutype":"일반휴게음식 - 일반한식","category":"restaurant"}]},{"lat":"37.746427059","long":"127.06806578","imageIndex":4,"items":[{"name":"새말지엔","tel":"031-000-0000","addr":"경기도 의정부시 신곡동 73-1번지 104호","indutype":"일반휴게음식 - 일반한식","category":"restaurant"}]},{"lat":"37.749844255","long":"127.07881411","imageIndex":4,"items":[{"name":"생선찜전문가야","tel":"031-853-3911","addr":"경기도 의정부시 신곡동 786-5번지 1층 101호","indutype":"일반휴게음식 - 일반한식","category":"restaurant"}]},{"lat":"37.743207117","long":"127.05726185","imageIndex":4,"items":[{"name":"샤브한날","tel":"031-847-4888","addr":"경기도 의정부시 신곡동 673-1번지 2층","indutype":"일반휴게음식 - 일반한식","category":"restaurant"}]},{"lat":"37.732099291","long":"127.05512106","imageIndex":4,"items":[{"name":"서녹누룽지삼계탕","tel":"031-877-6286","addr":"경기도 의정부시 신곡동 704-1번지 지상1층","indutype":"일반휴게음식 - 일반한식","category":"restaurant"}]},{"lat":"37.74981694","long":"127.07925661","imageIndex":4,"items":[{"name":"서서갈비","tel":"031-848-4050","addr":"경기도 의정부시 신곡동 787-4번지 상가 101호","indutype":"일반휴게음식 - 일반한식","category":"restaurant"}]},{"lat":"37.747092928","long":"127.06956408","imageIndex":4,"items":[{"name":"서울식당","tel":"031-572-4242","addr":"경기도 의정부시 신곡동 801-1번지","indutype":"일반휴게음식 - 일반한식","category":"restaurant"}]},{"lat":"37.737622668","long":"127.05395642","imageIndex":4,"items":[{"name":"선지해장국","tel":"031-856-1040","addr":"경기도 의정부시 신곡동 567-24번지","indutype":"일반휴게음식 - 일반한식","category":"restaurant"},{"name":"춘성식당","tel":"031-821-8699","addr":"경기도 의정부시 신곡동 567-24번지","indutype":"일반휴게음식 - 일반한식","category":"restaurant"}]},{"lat":"37.74418016","long":"127.05723987","imageIndex":4,"items":[{"name":"성수족발","tel":"031-841-4333","addr":"경기도 의정부시 신곡동 671-3번지 1층","indutype":"일반휴게음식 - 일반한식","category":"restaurant"}]},{"lat":"37.743874306","long":"127.05620718","imageIndex":4,"items":[{"name":"소담원 의정부1호점","tel":"031-856-5252","addr":"경기도 의정부시 신곡동 676-2번지 1층","indutype":"일반휴게음식 - 일반한식","category":"restaurant"}]},{"lat":"37.750592381","long":"127.07829292","imageIndex":4,"items":[{"name":"소띠돈띠횡성생고기","tel":"031-853-3538","addr":"경기도 의정부시 신곡동 783-6번지","indutype":"일반휴게음식 - 일반한식","category":"restaurant"}]},{"lat":"37.743315153","long":"127.05743212","imageIndex":4,"items":[{"name":"소블리애 신곡점","tel":"031-821-3757","addr":"경기도 의정부시 신곡동 673-2번지","indutype":"일반휴게음식 - 일반한식","category":"restaurant"}]},{"lat":"37.731683661","long":"127.05774122","imageIndex":4,"items":[{"name":"소앤주","tel":"","addr":"경기도 의정부시 신곡동 713-7번지 1층","indutype":"일반휴게음식 - 일반한식","category":"restaurant"}]},{"lat":"37.735484511","long":"127.06023981","imageIndex":4,"items":[{"name":"속초수산","tel":"031-1111-1111","addr":"경기도 의정부시 신곡동 447-35번지","indutype":"일반휴게음식 - 일반한식","category":"restaurant"}]},{"lat":"37.735514073","long":"127.07228772","imageIndex":4,"items":[{"name":"손짜장마을","tel":"031-848-3303","addr":"경기도 의정부시 신곡동 180-3번지","indutype":"일반휴게음식 - 중국식","category":"restaurant"}]},{"lat":"37.744540797","long":"127.05668419","imageIndex":4,"items":[{"name":"송박사","tel":"031-846-1171","addr":"경기도 의정부시 신곡동 670-7번지 1층","indutype":"일반휴게음식 - 일반한식","category":"restaurant"}]},{"lat":"37.749650406","long":"127.07171089","imageIndex":4,"items":[{"name":"송산주막한우생고기전문점","tel":"031-851-5846","addr":"경기도 의정부시 신곡동 764-2번지","indutype":"일반휴게음식 - 일반한식","category":"restaurant"}]},{"lat":"37.734123107","long":"127.06217864","imageIndex":4,"items":[{"name":"순수치킨신곡점","tel":"031-821-3479","addr":"경기도 의정부시 신곡동 412-2번지 1층","indutype":"일반휴게음식 - 스넥","category":"restaurant"}]},{"lat":"37.744820031","long":"127.05682054","imageIndex":4,"items":[{"name":"술고래한방족발","tel":"031-826-7339","addr":"경기도 의정부시 신곡동 670-4번지","indutype":"일반휴게음식 - 일반한식","category":"restaurant"}]},{"lat":"37.731486711","long":"127.05496181","imageIndex":4,"items":[{"name":"숯겹살집 의정부신곡점","tel":"031-878-9094","addr":"경기도 의정부시 신곡동 703-9번지","indutype":"일반휴게음식 - 일반한식","category":"restaurant"}]},{"lat":"37.734934303","long":"127.06150997","imageIndex":4,"items":[{"name":"숯불생고기","tel":"031-843-1405","addr":"경기도 의정부시 신곡동 419-23번지","indutype":"일반휴게음식 - 일반한식","category":"restaurant"}]},{"lat":"37.731486117","long":"127.05628905","imageIndex":4,"items":[{"name":"쉐프김밥","tel":"031-826-8388","addr":"경기도 의정부시 신곡동 707-6번지","indutype":"일반휴게음식 - 스넥","category":"restaurant"}]},{"lat":"37.735456534","long":"127.06215702","imageIndex":4,"items":[{"name":"시골국수","tel":"031-847-8749","addr":"경기도 의정부시 신곡동 448-1번지","indutype":"일반휴게음식 - 일반한식","category":"restaurant"}]},{"lat":"37.747237534","long":"127.06875862","imageIndex":4,"items":[{"name":"시온한식뷔페","tel":"02-1833-3645","addr":"경기도 의정부시 신곡동 802-3번지","indutype":"일반휴게음식 - 일반한식","category":"restaurant"}]},{"lat":"37.735455454","long":"127.06426709","imageIndex":4,"items":[{"name":"신가네불닭발","tel":"031-847-4848","addr":"경기도 의정부시 신곡동 393-11 한일유엔아이상가102","indutype":"일반휴게음식 - 일반한식","category":"restaurant"}]},{"lat":"37.731684059","long":"127.05687908","imageIndex":4,"items":[{"name":"신곡왕부대찌개","tel":"031-871-2335","addr":"경기도 의정부시 신곡동 711-6번지 1층","indutype":"일반휴게음식 - 일반한식","category":"restaurant"}]},{"lat":"37.731458215","long":"127.05818346","imageIndex":4,"items":[{"name":"신곡일동 사계절흑염소","tel":"031-829-0271","addr":"경기도 의정부시 신곡동 717-5번지 1층","indutype":"일반휴게음식 - 일반한식","category":"restaurant"}]},{"lat":"37.743432673","long":"127.05656993","imageIndex":4,"items":[{"name":"신의주찹쌀순대국","tel":"031-844-1808","addr":"경기도 의정부시 신곡동 675-11번지","indutype":"일반휴게음식 - 일반한식","category":"restaurant"}]},{"lat":"37.743567853","long":"127.05649061","imageIndex":4,"items":[{"name":"신천 양꼬치","tel":"031-848-0588","addr":"경기도 의정부시 신곡동 675번지 1층","indutype":"일반휴게음식 - 중국식","category":"restaurant"},{"name":"쭈꾸미아저씨","tel":"031-852-4050","addr":"경기도 의정부시 신곡동 675번지 1층","indutype":"일반휴게음식 - 일반한식","category":"restaurant"}]},{"lat":"37.731656324","long":"127.05839914","imageIndex":4,"items":[{"name":"신천양꼬치","tel":"031-837-8868","addr":"경기도 의정부시 신곡동 715-8번지 1층","indutype":"일반휴게음식 - 일반한식","category":"restaurant"}]},{"lat":"37.750709243","long":"127.07870153","imageIndex":4,"items":[{"name":"신통치킨","tel":"031-852-9952","addr":"경기도 의정부시 신곡동 782-5번지 1층 101호","indutype":"일반휴게음식 - 스넥","category":"restaurant"}]},{"lat":"37.740205059","long":"127.06118511","imageIndex":4,"items":[{"name":"신화짬뽕","tel":"031-821-5882","addr":"경기도 의정부시 신곡동 484번지","indutype":"일반휴게음식 - 중국식","category":"restaurant"}]},{"lat":"37.748984977","long":"127.06948635","imageIndex":4,"items":[{"name":"쌈돈","tel":"031-852-3320","addr":"경기도 의정부시 신곡동 760-4번지 골든타워 1층101호,102호","indutype":"일반휴게음식 - 일반한식","category":"restaurant"},{"name":"치킨마루 금오점","tel":"031-853-5757","addr":"경기도 의정부시 신곡동 760-4번지 골드타워 1층 109호","indutype":"일반휴게음식 - 일반한식","category":"restaurant"}]},{"lat":"37.749708678","long":"127.07948343","imageIndex":4,"items":[{"name":"쌍둥이네 참 족발보쌈","tel":"031-836-6469","addr":"경기도 의정부시 신곡동 788-4번지 1층","indutype":"일반휴게음식 - 일반한식","category":"restaurant"}]},{"lat":"37.731847134","long":"127.05487131","imageIndex":4,"items":[{"name":"쌍팔멘","tel":"","addr":"경기도 의정부시 신곡동 703-12번지 1층","indutype":"일반휴게음식 - 일식·회집","category":"restaurant"}]},{"lat":"37.74942953","long":"127.07925621","imageIndex":4,"items":[{"name":"아주거리","tel":"031-853-0993","addr":"경기도 의정부시 신곡동 788-7번지 1층","indutype":"일반휴게음식 - 일반한식","category":"restaurant"},{"name":"의정부 김삼식","tel":"031-851-9291","addr":"경기도 의정부시 신곡동 788-7번지 1층","indutype":"일반휴게음식 - 일반한식","category":"restaurant"}]},{"lat":"37.750347718","long":"127.08045991","imageIndex":4,"items":[{"name":"아크빙","tel":"031-853-1611","addr":"경기도 의정부시 신곡동 779-3번지 1층 102호","indutype":"일반휴게음식 - 서양음식","category":"restaurant"}]},{"lat":"37.748429136","long":"127.06442531","imageIndex":4,"items":[{"name":"알엔비스","tel":"","addr":"경기도 의정부시 신곡동 757-3번지 트윈프라자1 1층 101호","indutype":"일반휴게음식 - 서양음식","category":"restaurant"},{"name":"에이커피(a coffee)","tel":"031-406-6763","addr":"경기도 의정부시 신곡동 757-3번지 트윈프라자1 103호","indutype":"일반휴게음식 - 서양음식","category":"restaurant"}]},{"lat":"37.729096632","long":"127.06042773","imageIndex":4,"items":[{"name":"앗싸곱창","tel":"031-821-9233","addr":"경기도 의정부시 신곡동 360-2번지 초원빌라 1층 102호","indutype":"일반휴게음식 - 일반한식","category":"restaurant"},{"name":"치킨밸리","tel":"031-841-3361","addr":"경기도 의정부시 신곡동 360-2번지 초원빌라 101호","indutype":"일반휴게음식 - 일반한식","category":"restaurant"}]},{"lat":"37.731819202","long":"127.05687918","imageIndex":4,"items":[{"name":"약초밥상","tel":"031-877-8997","addr":"경기도 의정부시 신곡동 711-5번지 1층","indutype":"일반휴게음식 - 일반한식","category":"restaurant"}]},{"lat":"37.726847358","long":"127.05363141","imageIndex":4,"items":[{"name":"어필링 (Appealing)","tel":"031-3188-0324","addr":"경기도 의정부시 신곡동 664-22번지 유경빌딩2 109호","indutype":"일반휴게음식 - 서양음식","category":"restaurant"}]},{"lat":"37.73509618","long":"127.06210001","imageIndex":4,"items":[{"name":"엄마김밥","tel":"031-845-2526","addr":"경기도 의정부시 신곡동 448-15번지 1층","indutype":"일반휴게음식 - 스넥","category":"restaurant"}]},{"lat":"37.750320964","long":"127.08004005","imageIndex":4,"items":[{"name":"엄마등골","tel":"031-852-9992","addr":"경기도 의정부시 신곡동 778-6번지 1층 103호","indutype":"일반휴게음식 - 일반한식","category":"restaurant"}]},{"lat":"37.730737798","long":"127.05743424","imageIndex":4,"items":[{"name":"에나꼬레(성만교회)","tel":"031-873-2691","addr":"경기도 의정부시 신곡동 720-8번지","indutype":"일반휴게음식 - 서양음식","category":"restaurant"}]},{"lat":"37.749960783","long":"127.07973332","imageIndex":4,"items":[{"name":"에인","tel":"03-111-1111","addr":"경기도 의정부시 신곡동 780-6번지 101호","indutype":"일반휴게음식 - 서양음식","category":"restaurant"}]},{"lat":"37.742847078","long":"127.05651278","imageIndex":4,"items":[{"name":"엔제리너스(신곡2동점)","tel":"031-841-5004","addr":"경기도 의정부시 신곡동 680-8번지 1층","indutype":"일반휴게음식 - 서양음식","category":"restaurant"}]},{"lat":"37.747573211","long":"127.06445864","imageIndex":4,"items":[{"name":"여기롱","tel":"","addr":"경기도 의정부시 신곡동 757-8번지 승원빌딩 1층","indutype":"일반휴게음식 - 서양음식","category":"restaurant"}]},{"lat":"37.744849921","long":"127.068904","imageIndex":4,"items":[{"name":"열공커피","tel":"031-222-2222","addr":"경기도 의정부시 신곡동 124-1번지 지하1층","indutype":"일반휴게음식 - 서양음식","category":"restaurant"}]},{"lat":"37.735069977","long":"127.06043235","imageIndex":4,"items":[{"name":"영투솥뚜껑김치삼겹살","tel":"031-846-1114","addr":"경기도 의정부시 신곡동 435-1번지 1층 지상 1층","indutype":"일반휴게음식 - 일반한식","category":"restaurant"}]},{"lat":"37.727206404","long":"127.05664896","imageIndex":4,"items":[{"name":"영팝","tel":"031-877-0673","addr":"경기도 의정부시 신곡동 725-5번지","indutype":"일반휴게음식 - 일반한식","category":"restaurant"}]},{"lat":"37.750204651","long":"127.07879179","imageIndex":4,"items":[{"name":"옛날칡냉면","tel":"031-111-1111","addr":"경기도 의정부시 신곡동 783-1번지 1층 103호","indutype":"일반휴게음식 - 일반한식","category":"restaurant"}]},{"lat":"37.744261287","long":"127.05714917","imageIndex":4,"items":[{"name":"오가리왕순대","tel":"031-877-7301","addr":"경기도 의정부시 신곡동 671-2번지","indutype":"일반휴게음식 - 일반한식","category":"restaurant"}]},{"lat":"37.728681958","long":"127.06090383","imageIndex":4,"items":[{"name":"오븐마루 신곡점","tel":"031-848-6697","addr":"경기도 의정부시 신곡동 317-1번지 1층","indutype":"일반휴게음식 - 일반한식","category":"restaurant"},{"name":"우리동네국수집 장암점","tel":"031-840-8409","addr":"경기도 의정부시 신곡동 317-1번지","indutype":"일반휴게음식 - 일반한식","category":"restaurant"},{"name":"카페100%","tel":"031-841-2402","addr":"경기도 의정부시 신곡동 317-1번지 1층","indutype":"일반휴게음식 - 서양음식","category":"restaurant"}]},{"lat":"37.735649555","long":"127.07170928","imageIndex":4,"items":[{"name":"오형제 수락산양갈비","tel":"031-821-8852","addr":"경기도 의정부시 신곡동 179-3번지 1층","indutype":"일반휴게음식 - 일반한식","category":"restaurant"}]},{"lat":"37.734321357","long":"127.06209939","imageIndex":4,"items":[{"name":"와보세식당","tel":"031-848-7404","addr":"경기도 의정부시 신곡동 416-30번지 1층","indutype":"일반휴게음식 - 일반한식","category":"restaurant"}]},{"lat":"37.73815383","long":"127.05487572","imageIndex":4,"items":[{"name":"와우생생고기","tel":"031-821-1243","addr":"경기도 의정부시 신곡동 566-8번지 1층","indutype":"일반휴게음식 - 일반한식","category":"restaurant"}]},{"lat":"37.728573251","long":"127.06209481","imageIndex":4,"items":[{"name":"와플킹(의정부발곡점)","tel":"031-821-6800","addr":"경기도 의정부시 신곡동 313-8번지 101호","indutype":"일반휴게음식 - 서양음식","category":"restaurant"}]},{"lat":"37.744459866","long":"127.05634375","imageIndex":4,"items":[{"name":"완타이 (넘버원 태국음식 전문점)","tel":"031-840-1146","addr":"경기도 의정부시 신곡동 670번지 1층","indutype":"일반휴게음식 - 서양음식","category":"restaurant"}]},{"lat":"37.737045306","long":"127.05565774","imageIndex":4,"items":[{"name":"왕대포집","tel":"031-111-1111","addr":"경기도 의정부시 신곡동 571-59번지 1층","indutype":"일반휴게음식 - 일반한식","category":"restaurant"}]},{"lat":"37.743847175","long":"127.05643408","imageIndex":4,"items":[{"name":"왕솥뚜껑빈대떡","tel":"031-842-2423","addr":"경기도 의정부시 신곡동 676-12번지","indutype":"일반휴게음식 - 일반한식","category":"restaurant"}]},{"lat":"37.731594841","long":"127.05492786","imageIndex":4,"items":[{"name":"외가집","tel":"","addr":"경기도 의정부시 신곡동 703-10번지 1층","indutype":"일반휴게음식 - 일반한식","category":"restaurant"}]},{"lat":"37.732099044","long":"127.05567691","imageIndex":4,"items":[{"name":"요기","tel":"070-8973-2030","addr":"경기도 의정부시 신곡동 705-10번지 1층","indutype":"일반휴게음식 - 스넥","category":"restaurant"}]},{"lat":"37.735483466","long":"127.06234989","imageIndex":4,"items":[{"name":"요기요 치킨&비어","tel":"031-847-8999","addr":"경기도 의정부시 신곡동 448-41번지 1층","indutype":"일반휴게음식 - 일반한식","category":"restaurant"}]},{"lat":"37.750150146","long":"127.07948388","imageIndex":4,"items":[{"name":"용가네왕족발보쌈","tel":"031-853-8820","addr":"경기도 의정부시 신곡동 780-3번지 1층","indutype":"일반휴게음식 - 일반한식","category":"restaurant"}]},{"lat":"37.743846664","long":"127.05754597","imageIndex":4,"items":[{"name":"용우동","tel":"031-845-9882","addr":"경기도 의정부시 신곡동 671-7번지","indutype":"일반휴게음식 - 스넥","category":"restaurant"},{"name":"장비하우스","tel":"031-842-0161","addr":"경기도 의정부시 신곡동 671-7번지","indutype":"일반휴게음식 - 일반한식","category":"restaurant"}]},{"lat":"37.731349972","long":"127.05845564","imageIndex":4,"items":[{"name":"우거지품은순대국 본점","tel":"031-877-6744","addr":"경기도 의정부시 신곡동 715-10번지 1층","indutype":"일반휴게음식 - 일반한식","category":"restaurant"}]},{"lat":"37.729096112","long":"127.06148268","imageIndex":4,"items":[{"name":"우돈가","tel":"031-848-6692","addr":"경기도 의정부시 신곡동 355-4번지 광조빌딩 1층","indutype":"일반휴게음식 - 일반한식","category":"restaurant"}]},{"lat":"37.750789875","long":"127.07940511","imageIndex":4,"items":[{"name":"우미각","tel":"031-853-7866","addr":"경기도 의정부시 신곡동 781번지","indutype":"일반휴게음식 - 일반한식","category":"restaurant"}]},{"lat":"37.731323162","long":"127.05799052","imageIndex":4,"items":[{"name":"우스","tel":"031-826-8373","addr":"경기도 의정부시 신곡동 717-7번지","indutype":"일반휴게음식 - 일반한식","category":"restaurant"}]},{"lat":"37.747239423","long":"127.06528665","imageIndex":4,"items":[{"name":"원조불닭","tel":"031-851-9339","addr":"경기도 의정부시 신곡동 807-3번지","indutype":"일반휴게음식 - 일반한식","category":"restaurant"}]},{"lat":"37.744459586","long":"127.05695643","imageIndex":4,"items":[{"name":"원투쓰리","tel":"031-821-5858","addr":"경기도 의정부시 신곡동 671번지","indutype":"일반휴게음식 - 일반한식","category":"restaurant"}]},{"lat":"37.731963026","long":"127.05759395","imageIndex":4,"items":[{"name":"월남쌈구이랑샤브랑(쌈채랑)","tel":"031-862-1222","addr":"경기도 의정부시 신곡동 713-4번지","indutype":"일반휴게음식 - 일반한식","category":"restaurant"}]},{"lat":"37.737432621","long":"127.05587356","imageIndex":4,"items":[{"name":"유양리전통순대국","tel":"031-847-1877","addr":"경기도 의정부시 신곡동 571-85번지","indutype":"일반휴게음식 - 일반한식","category":"restaurant"}]},{"lat":"37.744125987","long":"127.05748944","imageIndex":4,"items":[{"name":"유참치","tel":"031-821-3144","addr":"경기도 의정부시 신곡동 671-12번지 1층","indutype":"일반휴게음식 - 일반한식","category":"restaurant"},{"name":"쵸코파이","tel":"031-843-9592","addr":"경기도 의정부시 신곡동 671-12번지 1층","indutype":"일반휴게음식 - 주점","category":"restaurant"}]},{"lat":"37.743432812","long":"127.05626359","imageIndex":4,"items":[{"name":"육회랑","tel":"031-846-2017","addr":"경기도 의정부시 신곡동 680-13번지","indutype":"일반휴게음식 - 서양음식","category":"restaurant"},{"name":"퀸","tel":"031-821-5255","addr":"경기도 의정부시 신곡동 680-13번지 지하1층","indutype":"일반휴게음식 - 일반한식","category":"restaurant"},{"name":"항아리보쌈","tel":"031-842-1998","addr":"경기도 의정부시 신곡동 680-13번지 1층","indutype":"일반휴게음식 - 일반한식","category":"restaurant"}]},{"lat":"37.735511022","long":"127.06129488","imageIndex":4,"items":[{"name":"윤정식당","tel":"031-842-2228","addr":"경기도 의정부시 신곡동 447-39번지 1층","indutype":"일반휴게음식 - 일반한식","category":"restaurant"},{"name":"페리카나","tel":"031-846-9807","addr":"경기도 의정부시 신곡동 447-39번지","indutype":"일반휴게음식 - 주점","category":"restaurant"}]},{"lat":"37.727434053","long":"127.06956913","imageIndex":4,"items":[{"name":"은행나무집","tel":"031-842-3218","addr":"경기도 의정부시 신곡동 240번지","indutype":"일반휴게음식 - 일반한식","category":"restaurant"}]},{"lat":"37.747762601","long":"127.06409571","imageIndex":4,"items":[{"name":"은희네","tel":"031-842-0292","addr":"경기도 의정부시 신곡동 756-4번지 성광빌딩 1층","indutype":"일반휴게음식 - 일반한식","category":"restaurant"},{"name":"일번지 옛날통닭","tel":"","addr":"경기도 의정부시 신곡동 756-4번지 성광빌딩 1층","indutype":"일반휴게음식 - 스넥","category":"restaurant"}]},{"lat":"37.744648849","long":"127.05682042","imageIndex":4,"items":[{"name":"의정부동오부대찌개","tel":"031-841-8700","addr":"경기도 의정부시 신곡동 670-6번지","indutype":"일반휴게음식 - 일반한식","category":"restaurant"}]},{"lat":"37.748266935","long":"127.06448191","imageIndex":4,"items":[{"name":"이가뼈다귀","tel":"031-851-3422","addr":"경기도 의정부시 신곡동 757-4번지 트윈프라자2차 1층 전체","indutype":"일반휴게음식 - 일반한식","category":"restaurant"}]},{"lat":"37.749870636","long":"127.07981265","imageIndex":4,"items":[{"name":"이디야 신곡중앙점","tel":"031-852-8958","addr":"경기도 의정부시 신곡동 780-7번지 1층","indutype":"일반휴게음식 - 서양음식","category":"restaurant"}]},{"lat":"37.731323331","long":"127.05762751","imageIndex":4,"items":[{"name":"이디야 의정부신곡1동점","tel":"031-855-4536","addr":"경기도 의정부시 신곡동 717-9번지 1층","indutype":"일반휴게음식 - 서양음식","category":"restaurant"}]},{"lat":"37.743900905","long":"127.0571489","imageIndex":4,"items":[{"name":"이디야의정부신곡점","tel":"031-844-9583","addr":"경기도 의정부시 신곡동 675-6번지 지상1층","indutype":"일반휴게음식 - 서양음식","category":"restaurant"}]},{"lat":"37.749736045","long":"127.07896151","imageIndex":4,"items":[{"name":"이모네맛집","tel":"031-852-7150","addr":"경기도 의정부시 신곡동 786-6 101호~102호","indutype":"일반휴게음식 - 일반한식","category":"restaurant"}]},{"lat":"37.731657747","long":"127.05529091","imageIndex":4,"items":[{"name":"인생닭발","tel":"031-877-4122","addr":"경기도 의정부시 신곡동 704-6번지","indutype":"일반휴게음식 - 일반한식","category":"restaurant"}]},{"lat":"37.750428751","long":"127.08053942","imageIndex":4,"items":[{"name":"인생해장국 효자점","tel":"031-825-7982","addr":"경기도 의정부시 신곡동 779-2번지","indutype":"일반휴게음식 - 일반한식","category":"restaurant"}]},{"lat":"37.747816327","long":"127.08001476","imageIndex":4,"items":[{"name":"일번지 옛날통닭","tel":"031-853-7277","addr":"경기도 의정부시 신곡동 790번지 주공아파트 상가동 1층 104호","indutype":"일반휴게음식 - 일반한식","category":"restaurant"}]},{"lat":"37.743928209","long":"127.0565476","imageIndex":4,"items":[{"name":"일신 참칼국수","tel":"031-844-0290","addr":"경기도 의정부시 신곡동 676-11번지","indutype":"일반휴게음식 - 일반한식","category":"restaurant"}]},{"lat":"37.731351557","long":"127.05498441","imageIndex":4,"items":[{"name":"자연갈비","tel":"031-836-9233","addr":"경기도 의정부시 신곡동 703-8번지 1층","indutype":"일반휴게음식 - 일반한식","category":"restaurant"}]},{"lat":"37.724130948","long":"127.0632369","imageIndex":4,"items":[{"name":"자연산민물장어/주식회사 행복한 마음","tel":"031-877-1292","addr":"경기도 의정부시 신곡동 266-38번지 1층","indutype":"일반휴게음식 - 일반한식","category":"restaurant"}]},{"lat":"37.743342768","long":"127.05615007","imageIndex":4,"items":[{"name":"작은공간","tel":"031-840-6871","addr":"경기도 의정부시 신곡동 680번지","indutype":"일반휴게음식 - 일반한식","category":"restaurant"},{"name":"한마리 정육식당","tel":"031-821-1588","addr":"경기도 의정부시 신곡동 680번지 1층","indutype":"일반휴게음식 - 일반한식","category":"restaurant"}]},{"lat":"37.73571071","long":"127.058232","imageIndex":4,"items":[{"name":"장충왕족발","tel":"031-840-4560","addr":"경기도 의정부시 신곡동 441-2번지","indutype":"일반휴게음식 - 일반한식","category":"restaurant"},{"name":"장충왕족발","tel":"031-840-4560","addr":"경기도 의정부시 신곡동 441-2번지","indutype":"일반휴게음식 - 일반한식","category":"restaurant"}]},{"lat":"37.744738893","long":"127.05693394","imageIndex":4,"items":[{"name":"재복이네 삼겹살","tel":"031-851-2911","addr":"경기도 의정부시 신곡동 670-5번지 1층","indutype":"일반휴게음식 - 일반한식","category":"restaurant"}]},{"lat":"37.73542958","long":"127.06200952","imageIndex":4,"items":[{"name":"전설의 치킨","tel":"","addr":"경기도 의정부시 신곡동 448-35번지 1층","indutype":"일반휴게음식 - 스넥","category":"restaurant"}]},{"lat":"37.731351617","long":"127.05484828","imageIndex":4,"items":[{"name":"전주명가 콩나물국밥","tel":"","addr":"경기도 의정부시 신곡동 703-7번지 1층","indutype":"일반휴게음식 - 일반한식","category":"restaurant"}]},{"lat":"37.729376061","long":"127.0601557","imageIndex":4,"items":[{"name":"전주빈대떡","tel":"031-848-8786","addr":"경기도 의정부시 신곡동 358-2번지 개성빌딩 A동 1층","indutype":"일반휴게음식 - 일반한식","category":"restaurant"}]},{"lat":"37.733378127","long":"127.05629041","imageIndex":4,"items":[{"name":"정원","tel":"031-848-7745","addr":"경기도 의정부시 신곡동 605-11번지 1층","indutype":"일반휴게음식 - 일반한식","category":"restaurant"}]},{"lat":"37.73496115","long":"127.06187301","imageIndex":4,"items":[{"name":"정통중화요리하오","tel":"031-878-1441","addr":"경기도 의정부시 신곡동 447-32번지 1층","indutype":"일반휴게음식 - 중국식","category":"restaurant"}]},{"lat":"37.731324144","long":"127.05584652","imageIndex":4,"items":[{"name":"족발야시장","tel":"031-872-5353","addr":"경기도 의정부시 신곡동 707-9번지 1층","indutype":"일반휴게음식 - 일반한식","category":"restaurant"}]},{"lat":"37.731594911","long":"127.05476904","imageIndex":4,"items":[{"name":"종소리족발","tel":"031-876-5258","addr":"경기도 의정부시 신곡동 703-5번지 1층","indutype":"일반휴게음식 - 일반한식","category":"restaurant"}]},{"lat":"37.743622075","long":"127.05612758","imageIndex":4,"items":[{"name":"주주퓨전요리","tel":"031-821-4241","addr":"경기도 의정부시 신곡동 676-15번지 1층","indutype":"일반휴게음식 - 일반한식","category":"restaurant"}]},{"lat":"37.73145849","long":"127.05759358","imageIndex":4,"items":[{"name":"지금여기","tel":"031-855-7378","addr":"경기도 의정부시 신곡동 717-1번지 1층","indutype":"일반휴게음식 - 서양음식","category":"restaurant"}]},{"lat":"37.735511162","long":"127.06101126","imageIndex":4,"items":[{"name":"진부대찌개","tel":"031-821-7108","addr":"경기도 의정부시 신곡동 447-37번지 1층","indutype":"일반휴게음식 - 일반한식","category":"restaurant"}]},{"lat":"37.728853346","long":"127.06048426","imageIndex":4,"items":[{"name":"진주품은활어","tel":"031-840-5795","addr":"경기도 의정부시 신곡동 317-4번지 1층","indutype":"일반휴게음식 - 일식·회집","category":"restaurant"}]},{"lat":"37.75132235","long":"127.0779873","imageIndex":4,"items":[{"name":"집밥도시락","tel":"031-852-2206","addr":"경기도 의정부시 신곡동 772-3번지 103호","indutype":"일반휴게음식 - 일반한식","category":"restaurant"}]},{"lat":"37.747291496","long":"127.06892886","imageIndex":4,"items":[{"name":"짜장마을비상","tel":"031-824-7766","addr":"경기도 의정부시 신곡동 802-4번지 1층","indutype":"일반휴게음식 - 중국식","category":"restaurant"}]},{"lat":"37.728349992","long":"127.058011","imageIndex":4,"items":[{"name":"짱닭치킨","tel":"031-877-9291","addr":"경기도 의정부시 신곡동 725-2번지 장암1차현대아파트 상가동 105호","indutype":"일반휴게음식 - 스넥","category":"restaurant"}]},{"lat":"37.731683829","long":"127.05737821","imageIndex":4,"items":[{"name":"쭈꾸미아저씨 (신곡점)","tel":"031-876-1442","addr":"경기도 의정부시 신곡동 712-7번지 1층","indutype":"일반휴게음식 - 일반한식","category":"restaurant"}]},{"lat":"37.747427729","long":"127.06695472","imageIndex":4,"items":[{"name":"차이나타운","tel":"031-853-9913","addr":"경기도 의정부시 신곡동 804-5번지 1층","indutype":"일반휴게음식 - 중국식","category":"restaurant"}]},{"lat":"37.730737645","long":"127.05776321","imageIndex":4,"items":[{"name":"착한 아구찜","tel":"070-7614-3579","addr":"경기도 의정부시 신곡동 720-7번지 1층","indutype":"일반휴게음식 - 일반한식","category":"restaurant"}]},{"lat":"37.727157799","long":"127.06395398","imageIndex":4,"items":[{"name":"착한낙지 (신곡점)","tel":"031-879-9920","addr":"경기도 의정부시 신곡동 263-13번지","indutype":"일반휴게음식 - 일반한식","category":"restaurant"}]},{"lat":"37.743288634","long":"127.05632022","imageIndex":4,"items":[{"name":"찰스 셰프","tel":"031-841-4116","addr":"경기도 의정부시 신곡동 680-12번지 1층","indutype":"일반휴게음식 - 일반한식","category":"restaurant"}]},{"lat":"37.750430086","long":"127.07848565","imageIndex":4,"items":[{"name":"참숯 애 민물장어","tel":"031-853-3210","addr":"경기도 의정부시 신곡동 783-4번지 1층","indutype":"일반휴게음식 - 일반한식","category":"restaurant"},{"name":"피자나라치킨공주(금오민락점)","tel":"031-852-8627","addr":"경기도 의정부시 신곡동 783-4번지 1층 101호","indutype":"일반휴게음식 - 서양음식","category":"restaurant"}]},{"lat":"37.730846231","long":"127.05674234","imageIndex":4,"items":[{"name":"채선당 신곡점","tel":"031-855-0674","addr":"경기도 의정부시 신곡동 720-1번지 한덕프라자 1층","indutype":"일반휴게음식 - 일반한식","category":"restaurant"}]},{"lat":"37.729239748","long":"127.06251506","imageIndex":4,"items":[{"name":"처갓집양념치킨 (장암점)","tel":"031-848-5592","addr":"경기도 의정부시 신곡동 331-14번지 1층 106호","indutype":"일반휴게음식 - 일반한식","category":"restaurant"}]},{"lat":"37.740511401","long":"127.06115132","imageIndex":4,"items":[{"name":"처갓집양념치킨 신곡점","tel":"031-856-8286","addr":"경기도 의정부시 신곡동 483-1번지","indutype":"일반휴게음식 - 일반한식","category":"restaurant"}]},{"lat":"37.750069008","long":"127.07956323","imageIndex":4,"items":[{"name":"천티엔","tel":"031-851-0773","addr":"경기도 의정부시 신곡동 780-4번지 1층","indutype":"일반휴게음식 - 중국식","category":"restaurant"}]},{"lat":"37.733378821","long":"127.05473625","imageIndex":4,"items":[{"name":"청강","tel":"031-848-5315","addr":"경기도 의정부시 신곡동 615-2번지 1,2층","indutype":"일반휴게음식 - 일반한식","category":"restaurant"}]},{"lat":"37.747544717","long":"127.06720444","imageIndex":4,"items":[{"name":"청사골","tel":"031-855-5063","addr":"경기도 의정부시 신곡동 804-7번지 상가 1층","indutype":"일반휴게음식 - 일반한식","category":"restaurant"}]},{"lat":"37.749875697","long":"127.07162033","imageIndex":4,"items":[{"name":"청사초롱","tel":"031-840-2300","addr":"경기도 의정부시 신곡동 764-1번지 2층","indutype":"일반휴게음식 - 일식·회집","category":"restaurant"}]},{"lat":"37.732099216","long":"127.05529122","imageIndex":4,"items":[{"name":"청솔장어","tel":"031-837-6092","addr":"경기도 의정부시 신곡동 704-9번지 1층 상가","indutype":"일반휴게음식 - 일반한식","category":"restaurant"}]},{"lat":"37.731403723","long":"127.05910228","imageIndex":4,"items":[{"name":"청수식당","tel":"031-843-4111","addr":"경기도 의정부시 신곡동 352-21번지","indutype":"일반휴게음식 - 일반한식","category":"restaurant"}]},{"lat":"37.733044238","long":"127.05745862","imageIndex":4,"items":[{"name":"청운식당","tel":"031-826-5970","addr":"경기도 의정부시 신곡동 708-3번지","indutype":"일반휴게음식 - 일반한식","category":"restaurant"}]},{"lat":"37.730738745","long":"127.05534698","imageIndex":4,"items":[{"name":"청정수산","tel":"031-874-7775","addr":"경기도 의정부시 신곡동 719-8번지 백상프라자","indutype":"일반휴게음식 - 일반한식","category":"restaurant"},{"name":"홍익돈까스","tel":"031-829-5000","addr":"경기도 의정부시 신곡동 719-8번지 1층","indutype":"일반휴게음식 - 일반한식","category":"restaurant"}]},{"lat":"37.747041719","long":"127.06432205","imageIndex":4,"items":[{"name":"청해탕","tel":"031-848-5500","addr":"경기도 의정부시 신곡동 87-5번지 1층","indutype":"일반휴게음식 - 일반한식","category":"restaurant"}]},{"lat":"37.731458422","long":"127.05774105","imageIndex":4,"items":[{"name":"최고집칼국수","tel":"031-826-2514","addr":"경기도 의정부시 신곡동 717-2번지 1층","indutype":"일반휴게음식 - 일반한식","category":"restaurant"}]},{"lat":"37.750176663","long":"127.08026684","imageIndex":4,"items":[{"name":"최박사수원왕갈비","tel":"031-853-8870","addr":"경기도 의정부시 신곡동 779-5번지 1층","indutype":"일반휴게음식 - 일반한식","category":"restaurant"}]},{"lat":"37.743927793","long":"127.05745526","imageIndex":4,"items":[{"name":"최준혁의만원집","tel":"031-847-1515","addr":"경기도 의정부시 신곡동 671-6번지 1층","indutype":"일반휴게음식 - 일반한식","category":"restaurant"}]},{"lat":"37.731963356","long":"127.05687928","imageIndex":4,"items":[{"name":"춘하추동 장충 깊은맛","tel":"070-4388-5084","addr":"경기도 의정부시 신곡동 711-4번지","indutype":"일반휴게음식 - 일반한식","category":"restaurant"}]},{"lat":"37.731458606","long":"127.05734401","imageIndex":4,"items":[{"name":"치어스","tel":"031-877-1444","addr":"경기도 의정부시 신곡동 716-4번지 1층","indutype":"일반휴게음식 - 서양음식","category":"restaurant"}]},{"lat":"37.743738832","long":"127.05693322","imageIndex":4,"items":[{"name":"치어스의정부동오역점","tel":"031-821-2532","addr":"경기도 의정부시 신곡동 675-8번지 1층","indutype":"일반휴게음식 - 주점","category":"restaurant"}]},{"lat":"37.750348927","long":"127.07859904","imageIndex":4,"items":[{"name":"치킨명작","tel":"031-851-9209","addr":"경기도 의정부시 신곡동 783-3번지 1층","indutype":"일반휴게음식 - 일반한식","category":"restaurant"}]},{"lat":"37.747816368","long":"127.06465173","imageIndex":4,"items":[{"name":"치킨홀릭","tel":"031-852-9288","addr":"경기도 의정부시 신곡동 757-6번지 풍림프라자 103호","indutype":"일반휴게음식 - 일반한식","category":"restaurant"},{"name":"피자헤븐 의정부점","tel":"031-853-7571","addr":"경기도 의정부시 신곡동 757-6번지 풍림프라자 105호","indutype":"일반휴게음식 - 서양음식","category":"restaurant"},{"name":"흥부네 한방족발","tel":"031-853-9086","addr":"경기도 의정부시 신곡동 757-6번지 풍림프라자 101호","indutype":"일반휴게음식 - 일반한식","category":"restaurant"}]},{"lat":"37.748041648","long":"127.06457249","imageIndex":4,"items":[{"name":"카페 스튜디오제이슨","tel":"","addr":"경기도 의정부시 신곡동 757-5번지 5층","indutype":"일반휴게음식 - 서양음식","category":"restaurant"},{"name":"카페스튜디오제이슨","tel":"031-853-5655","addr":"경기도 의정부시 신곡동 757-5번지 5층","indutype":"일반휴게음식 - 서양음식","category":"restaurant"}]},{"lat":"37.744844235","long":"127.06267507","imageIndex":4,"items":[{"name":"카페 허니플로우","tel":"070-4942-9463","addr":"경기도 의정부시 신곡동 519-22번지 1층 지상","indutype":"일반휴게음식 - 서양음식","category":"restaurant"}]},{"lat":"37.748795481","long":"127.07000812","imageIndex":4,"items":[{"name":"카페SOME","tel":"","addr":"경기도 의정부시 신곡동 761-4번지 우먼피아여성병원 1층","indutype":"일반휴게음식 - 서양음식","category":"restaurant"}]},{"lat":"37.728824927","long":"127.06326339","imageIndex":4,"items":[{"name":"카페그라시아","tel":"031-871-9728","addr":"경기도 의정부시 신곡동 254-2번지 1층 넘치는교회","indutype":"일반휴게음식 - 서양음식","category":"restaurant"}]},{"lat":"37.732098768","long":"127.05628949","imageIndex":4,"items":[{"name":"카페느루","tel":"031-855-0624","addr":"경기도 의정부시 신곡동 707-1번지 1층","indutype":"일반휴게음식 - 서양음식","category":"restaurant"}]},{"lat":"37.751708507","long":"127.07992802","imageIndex":4,"items":[{"name":"카페드림(cafe dream)","tel":"031-853-6235","addr":"경기도 의정부시 신곡동 772-15번지 101호","indutype":"일반휴게음식 - 서양음식","category":"restaurant"}]},{"lat":"37.747318429","long":"127.06909908","imageIndex":4,"items":[{"name":"카페로지","tel":"031-851-9172","addr":"경기도 의정부시 신곡동 802-5번지 1층","indutype":"일반휴게음식 - 서양음식","category":"restaurant"}]},{"lat":"37.74548235","long":"127.06568228","imageIndex":4,"items":[{"name":"카페비에르떼","tel":"","addr":"경기도 의정부시 신곡동 111-2번지 2층 205호","indutype":"일반휴게음식 - 서양음식","category":"restaurant"}]},{"lat":"37.735267504","long":"127.06181653","imageIndex":4,"items":[{"name":"카페알토(cafe ALTO)","tel":"031-842-9873","addr":"경기도 의정부시 신곡동 447-27번지 1층","indutype":"일반휴게음식 - 서양음식","category":"restaurant"}]},{"lat":"37.747319205","long":"127.06770348","imageIndex":4,"items":[{"name":"카페일리터 의정부점","tel":"031-824-6431","addr":"경기도 의정부시 신곡동 69-5번지 104호","indutype":"일반휴게음식 - 서양음식","category":"restaurant"},{"name":"홍콩반점","tel":"031-846-5454","addr":"경기도 의정부시 신곡동 69-5번지","indutype":"일반휴게음식 - 일반한식","category":"restaurant"}]},{"lat":"37.73545798","long":"127.05920744","imageIndex":4,"items":[{"name":"코리엔탈깻잎칩킨","tel":"031-821-8333","addr":"경기도 의정부시 신곡동 441-16번지 1층","indutype":"일반휴게음식 - 일반한식","category":"restaurant"}]},{"lat":"37.732377566","long":"127.05737872","imageIndex":4,"items":[{"name":"코바코(신곡점)","tel":"031-872-2220","addr":"경기도 의정부시 신곡동 712-12번지","indutype":"일반휴게음식 - 일반한식","category":"restaurant"}]},{"lat":"37.747122484","long":"127.06493481","imageIndex":4,"items":[{"name":"콤마","tel":"031-111-1111","addr":"경기도 의정부시 신곡동 78-13번지","indutype":"일반휴게음식 - 서양음식","category":"restaurant"}]},{"lat":"37.743676096","long":"127.05620704","imageIndex":4,"items":[{"name":"탐라할망","tel":"031-838-9971","addr":"경기도 의정부시 신곡동 676-14번지 1층","indutype":"일반휴게음식 - 일반한식","category":"restaurant"}]},{"lat":"37.744288493","long":"127.05676343","imageIndex":4,"items":[{"name":"탐술비어","tel":"031-8466-6582","addr":"경기도 의정부시 신곡동 676-7번지 1층","indutype":"일반휴게음식 - 일반한식","category":"restaurant"}]},{"lat":"37.742150603","long":"127.06223043","imageIndex":4,"items":[{"name":"토담","tel":"031-848-9921","addr":"경기도 의정부시 신곡동 489-39번지 1층","indutype":"일반휴게음식 - 일반한식","category":"restaurant"}]},{"lat":"37.73754585","long":"127.06392848","imageIndex":4,"items":[{"name":"통나무집","tel":"031-821-1431","addr":"경기도 의정부시 신곡동 산33-1번지","indutype":"일반휴게음식 - 일반한식","category":"restaurant"}]},{"lat":"37.743927687","long":"127.05768218","imageIndex":4,"items":[{"name":"투데이","tel":"031-844-2220","addr":"경기도 의정부시 신곡동 671-10번지 1층","indutype":"일반휴게음식 - 일반한식","category":"restaurant"},{"name":"호서쪽갈비","tel":"031-844-7999","addr":"경기도 의정부시 신곡동 671-10번지 1층 일부","indutype":"일반휴게음식 - 일반한식","category":"restaurant"}]},{"lat":"37.734573148","long":"127.06304117","imageIndex":4,"items":[{"name":"투존치킨","tel":"031-841-9975","addr":"경기도 의정부시 신곡동 416-19번지 1층","indutype":"일반휴게음식 - 스넥","category":"restaurant"}]},{"lat":"37.726764029","long":"127.05859967","imageIndex":4,"items":[{"name":"페리카나치킨","tel":"031-873-8181","addr":"경기도 의정부시 신곡동 725-6번지 장암주공5단지 상가 103호","indutype":"일반휴게음식 - 주점","category":"restaurant"}]},{"lat":"37.731324231","long":"127.05565368","imageIndex":4,"items":[{"name":"포차 뚱뚱이 이모네","tel":"031-855-0942","addr":"경기도 의정부시 신곡동 707-10번지 1층","indutype":"일반휴게음식 - 주점","category":"restaurant"}]},{"lat":"37.73551087","long":"127.06160118","imageIndex":4,"items":[{"name":"푸른물고기 신곡점","tel":"","addr":"경기도 의정부시 신곡동 447-41번지 1층 104호","indutype":"일반휴게음식 - 일반한식","category":"restaurant"},{"name":"해피데이","tel":"031-848-0231","addr":"경기도 의정부시 신곡동 447-41번지 2층","indutype":"일반휴게음식 - 주점","category":"restaurant"}]},{"lat":"37.738074564","long":"127.06920429","imageIndex":4,"items":[{"name":"푸른물고기 의정부점","tel":"","addr":"경기도 의정부시 신곡동 156-26번지 1층","indutype":"일반휴게음식 - 일반한식","category":"restaurant"}]},{"lat":"37.735511095","long":"127.0611474","imageIndex":4,"items":[{"name":"푸짐이감자탕","tel":"031-848-9090","addr":"경기도 의정부시 신곡동 447-38번지","indutype":"일반휴게음식 - 일반한식","category":"restaurant"}]},{"lat":"37.744099037","long":"127.05731924","imageIndex":4,"items":[{"name":"풍천식당","tel":"031-847-6262","addr":"경기도 의정부시 신곡동 671-4번지 1층","indutype":"일반휴게음식 - 일반한식","category":"restaurant"}]},{"lat":"37.731683729","long":"127.05759375","imageIndex":4,"items":[{"name":"프라닭 의정부신곡1동점","tel":"031-829-3388","addr":"경기도 의정부시 신곡동 713-6번지 1층","indutype":"일반휴게음식 - 스넥","category":"restaurant"}]},{"lat":"37.731684012","long":"127.05698117","imageIndex":4,"items":[{"name":"프렌즈","tel":"031-855-3048","addr":"경기도 의정부시 신곡동 711-7번지 1층","indutype":"일반휴게음식 - 주점","category":"restaurant"}]},{"lat":"37.749011755","long":"127.06992889","imageIndex":4,"items":[{"name":"프로코프 하우스(procope house)","tel":"070-4084-6369","addr":"경기도 의정부시 신곡동 761-3번지 아띠랑스에이 101호","indutype":"일반휴게음식 - 일반한식","category":"restaurant"}]},{"lat":"37.743260954","long":"127.05773841","imageIndex":4,"items":[{"name":"피자마루(신곡2동동오마을점)","tel":"031-856-1082","addr":"경기도 의정부시 신곡동 673-4번지 1층 101호","indutype":"일반휴게음식 - 서양음식","category":"restaurant"}]},{"lat":"37.735511285","long":"127.06076168","imageIndex":4,"items":[{"name":"피자캣","tel":"031-843-8321","addr":"경기도 의정부시 신곡동 447-14번지 1층","indutype":"일반휴게음식 - 서양음식","category":"restaurant"}]},{"lat":"37.739484894","long":"127.05995927","imageIndex":4,"items":[{"name":"피자클럽","tel":"031-843-4451","addr":"경기도 의정부시 신곡동 473-2 성원상가 102","indutype":"일반휴게음식 - 일반한식","category":"restaurant"}]},{"lat":"37.729400542","long":"127.06518093","imageIndex":4,"items":[{"name":"하가","tel":"031-844-1114","addr":"경기도 의정부시 신곡동 369-1번지 1층","indutype":"일반휴게음식 - 일반한식","category":"restaurant"}]},{"lat":"37.750655113","long":"127.07881494","imageIndex":4,"items":[{"name":"한국피자헛금오2호점","tel":"031-851-9994","addr":"경기도 의정부시 신곡동 782-4번지 1층","indutype":"일반휴게음식 - 서양음식","category":"restaurant"}]},{"lat":"37.736793869","long":"127.07154016","imageIndex":4,"items":[{"name":"한아름.닭강정.돈까스","tel":"031-821-7898","addr":"경기도 의정부시 신곡동 169-25번지 1층","indutype":"일반휴게음식 - 일반한식","category":"restaurant"}]},{"lat":"37.750348208","long":"127.07971102","imageIndex":4,"items":[{"name":"한잔더비어","tel":"","addr":"경기도 의정부시 신곡동 778-3번지 1층","indutype":"일반휴게음식 - 스넥","category":"restaurant"}]},{"lat":"37.735510965","long":"127.06140832","imageIndex":4,"items":[{"name":"할매순대국&양선지해장국","tel":"031-842-7203","addr":"경기도 의정부시 신곡동 447-40번지 1층","indutype":"일반휴게음식 - 일반한식","category":"restaurant"}]},{"lat":"37.746985012","long":"127.06921224","imageIndex":4,"items":[{"name":"해랑","tel":"031-856-6900","addr":"경기도 의정부시 신곡동 803-8번지 모던빌 1층","indutype":"일반휴게음식 - 일반한식","category":"restaurant"}]},{"lat":"37.734878581","long":"127.06476577","imageIndex":4,"items":[{"name":"해물나무홈서비스","tel":"031-872-8880","addr":"경기도 의정부시 신곡동 400-5번지 1층 지상 1층","indutype":"일반휴게음식 - 일반한식","category":"restaurant"}]},{"lat":"37.74354103","long":"127.05603676","imageIndex":4,"items":[{"name":"해물천하 조개구이","tel":"031-821-6585","addr":"경기도 의정부시 신곡동 676-16번지 1층","indutype":"일반휴게음식 - 일반한식","category":"restaurant"}]},{"lat":"37.731792288","long":"127.05662959","imageIndex":4,"items":[{"name":"해프닝","tel":"031-874-1462","addr":"경기도 의정부시 신곡동 709-8번지","indutype":"일반휴게음식 - 주점","category":"restaurant"}]},{"lat":"37.746237796","long":"127.06817908","imageIndex":4,"items":[{"name":"핸즈 (HANDS)","tel":"031-000-0000","addr":"경기도 의정부시 신곡동 73-32번지 상현빌딩 101호","indutype":"일반휴게음식 - 서양음식","category":"restaurant"}]},{"lat":"37.743681997","long":"127.06268548","imageIndex":4,"items":[{"name":"허닭","tel":"031-856-9700","addr":"경기도 의정부시 신곡동 98번지 으뜸마을신명상가 1층 107호","indutype":"일반휴게음식 - 일반한식","category":"restaurant"}]},{"lat":"37.732684235","long":"127.05663023","imageIndex":4,"items":[{"name":"호남꽃게아구두부촌","tel":"031-874-6770","addr":"경기도 의정부시 신곡동 709-1번지","indutype":"일반휴게음식 - 일반한식","category":"restaurant"}]},{"lat":"37.73551932","long":"127.06271295","imageIndex":4,"items":[{"name":"호남아구찜","tel":"031-841-3470","addr":"경기도 의정부시 신곡동 450-1번지","indutype":"일반휴게음식 - 일반한식","category":"restaurant"}]},{"lat":"37.73496159","long":"127.06098814","imageIndex":4,"items":[{"name":"호식이두마리치킨","tel":"031-841-0651","addr":"경기도 의정부시 신곡동 419-17번지","indutype":"일반휴게음식 - 일반한식","category":"restaurant"}]},{"lat":"37.744234144","long":"127.05739876","imageIndex":4,"items":[{"name":"황금곱창","tel":"031-000-0000","addr":"경기도 의정부시 신곡동 671-13번지 1층","indutype":"일반휴게음식 - 일반한식","category":"restaurant"}]},{"lat":"37.746211055","long":"127.06765713","imageIndex":4,"items":[{"name":"황우흑돈","tel":"031-848-3555","addr":"경기도 의정부시 신곡동 121-14번지","indutype":"일반휴게음식 - 일반한식","category":"restaurant"}]},{"lat":"37.750429692","long":"127.07909838","imageIndex":4,"items":[{"name":"황토막장","tel":"031-852-7570","addr":"경기도 의정부시 신곡동 782-1번지 1층","indutype":"일반휴게음식 - 일반한식","category":"restaurant"}]},{"lat":"37.732099472","long":"127.05471267","imageIndex":4,"items":[{"name":"회랑조개랑","tel":"031-855-5758","addr":"경기도 의정부시 신곡동 703-1번지 1층","indutype":"일반휴게음식 - 일반한식","category":"restaurant"}]},{"lat":"37.735177886","long":"127.06085218","imageIndex":4,"items":[{"name":"효은각","tel":"031-8446-129","addr":"경기도 의정부시 신곡동 419-16번지","indutype":"일반휴게음식 - 일반한식","category":"restaurant"}]},{"lat":"37.732296824","long":"127.05662995","imageIndex":4,"items":[{"name":"효자관","tel":"031-829-8888","addr":"경기도 의정부시 신곡동 709-4번지 1층","indutype":"일반휴게음식 - 중국식","category":"restaurant"}]},{"lat":"37.749988224","long":"127.07909793","imageIndex":4,"items":[{"name":"훌랄라 참숯바베큐","tel":"031-853-7373","addr":"경기도 의정부시 신곡동 787-2번지","indutype":"일반휴게음식 - 일반한식","category":"restaurant"}]},{"lat":"37.73554621","long":"127.06298524","imageIndex":4,"items":[{"name":"훌랄라숯불바베큐","tel":"031-838-7557","addr":"경기도 의정부시 신곡동 450-6번지 1층","indutype":"일반휴게음식 - 일반한식","category":"restaurant"}]}]