[{"lat":"37.725237032","long":"126.81314837","imageIndex":0,"items":[{"name":"(주)라이드온에이피에스","tel":"00-1688-5697","addr":"경기도 파주시 조리읍 대원리 268-5번지","indutype":"자동차정비 유지 - 자동차부품","category":"car"}]},{"lat":"37.728207223","long":"126.80584699","imageIndex":0,"items":[{"name":"고양특장","tel":"031-943-2957","addr":"경기도 파주시 조리읍 대원리 829-3번지","indutype":"자동차정비 유지 - 자동차부품","category":"car"}]},{"lat":"37.732229859","long":"126.80847948","imageIndex":0,"items":[{"name":"대원공업사","tel":"031-948-9475","addr":"경기도 파주시 조리읍 대원리 578-1번지","indutype":"자동차정비 유지 - 자동차정비","category":"car"}]},{"lat":"37.729818267","long":"126.81028942","imageIndex":0,"items":[{"name":"드림카서비스","tel":"031-945-9789","addr":"경기도 파주시 조리읍 대원리 325-6번지","indutype":"자동차정비 유지 - 자동차정비","category":"car"}]},{"lat":"37.740508697","long":"126.8025356","imageIndex":0,"items":[{"name":"에스엔에스컴퍼니","tel":"031-949-1487","addr":"경기도 파주시 조리읍 대원리 987-1번지","indutype":"자동차정비 유지 - 자동차정비","category":"car"}]},{"lat":"37.728542836","long":"126.81270888","imageIndex":0,"items":[{"name":"자동차정비마을","tel":"031-945-8975","addr":"경기도 파주시 조리읍 대원리 294번지 (제1동호)","indutype":"자동차정비 유지 - 자동차정비","category":"car"}]},{"lat":"37.735041463","long":"126.80345789","imageIndex":0,"items":[{"name":"조리점 현대자동차","tel":"031-957-8608","addr":"경기도 파주시 조리읍 대원리 637-32번지","indutype":"자동차정비 유지 - 자동차정비","category":"car"}]}]