[{"lat":"37.294514202","long":"127.03078367","items":[{"name":"(주)그린죤","tel":"031-255-2171","addr":"경기도 수원시 장안구 연무동 226-6번지 남창아파트","category":"유통업 영리 - 기타유통업"}]},{"lat":"37.294983671","long":"127.02647563","items":[{"name":"(주)디데이컴퍼니 바른청년 통신지점","tel":"070-4640-3036","addr":"경기도 수원시 장안구 연무동 234-4번지","category":"사무통신 - 통신기기"},{"name":"낙원떡집","tel":"031-244-4747","addr":"경기도 수원시 장안구 연무동 234-4번지","category":"음료식품 - 제과점"},{"name":"다인치과","tel":"031-243-1206","addr":"경기도 수원시 장안구 연무동 234-4번지 2층","category":"의원 - 치과의원"},{"name":"부자집","tel":"","addr":"경기도 수원시 장안구 연무동 234-4번지","category":"음료식품 - 농·축·수산품"},{"name":"오케이(OK)당구장","tel":"031-277-8855","addr":"경기도 수원시 장안구 연무동 234-4번지 3층","category":"레저업소 - 당 구 장"},{"name":"인제약국","tel":"031-243-7158","addr":"경기도 수원시 장안구 연무동 234-4번지","category":"약국 - 약국"}]},{"lat":"37.288623617","long":"127.0195044","items":[{"name":"(주)디자인블럭","tel":"031-255-1280","addr":"경기도 수원시 장안구 연무동 202-10번지","category":"용역 서비스 - 기타용역서비스"}]},{"lat":"37.295398327","long":"127.0255284","items":[{"name":"(주)석프로제","tel":"031-243-7663","addr":"경기도 수원시 장안구 연무동 234번지 한동빌딩 302호","category":"회원제형태 - 기타4"},{"name":"(주)씨티아이월드","tel":"031-241-7755","addr":"경기도 수원시 장안구 연무동 234번지 한동빌딩 202호","category":"사무통신 - 통신기기"},{"name":"꽃마차","tel":"031-255-3858","addr":"경기도 수원시 장안구 연무동 234번지 한동빌딩 1층 102호","category":"문화.취미 - 화원"},{"name":"머리이야기","tel":"031-253-3285","addr":"경기도 수원시 장안구 연무동 234번지 한동빌딩 1층 101-2호","category":"보건위생 - 미용원"},{"name":"방초종합상사","tel":"031-671-0445","addr":"경기도 수원시 장안구 연무동 234번지 한동빌딩 2층 1호","category":"건축자재 - 목재·석재·철물"},{"name":"연무야채","tel":"","addr":"경기도 수원시 장안구 연무동 234번지 한동빌딩 1층 101-1호","category":"음료식품 - 농·축·수산품"},{"name":"영양산부인과","tel":"031-253-6602","addr":"경기도 수원시 장안구 연무동 234번지 한동빌딩 202호","category":"건강식품 - 기타건강식품"},{"name":"영양산부인과의원","tel":"031-253-6602","addr":"경기도 수원시 장안구 연무동 234번지","category":"의원 - 의원"},{"name":"주식회사 지아이에스","tel":"031-250-3313","addr":"경기도 수원시 장안구 연무동 234번지 한동빌딩","category":"용역 서비스 - 종합용역"},{"name":"효도자기아트","tel":"070-5394-0994","addr":"경기도 수원시 장안구 연무동 234번지 한동빌딩 1층 104호","category":"문화.취미 - 민예·공예품"}]},{"lat":"37.295316904","long":"127.02719753","items":[{"name":"(주)성우유통","tel":"031-252-1322","addr":"경기도 수원시 장안구 연무동 230번지","category":"음료식품 - 기타음료식품"}]},{"lat":"37.295317","long":"127.02672385","items":[{"name":"21세기노래","tel":"031-244-4571","addr":"경기도 수원시 장안구 연무동 233-6번지 지하1층","category":"용역 서비스 - 종합용역"},{"name":"레인보우텔레콤","tel":"031-248-8777","addr":"경기도 수원시 장안구 연무동 233-6번지 1층","category":"사무통신 - 통신기기"},{"name":"태성축산연무점","tel":"031-255-5126","addr":"경기도 수원시 장안구 연무동 233-6번지","category":"음료식품 - 정육점"}]},{"lat":"37.295650418","long":"127.02653223","items":[{"name":"21세기플라워","tel":"031-257-3053","addr":"경기도 수원시 장안구 연무동 233-24번지 천우하이츠빌라 302호","category":"보건위생 - 기타대인서비스"}]},{"lat":"37.29865031","long":"127.02900318","items":[{"name":"237 발가락","tel":"02-1544-2549","addr":"경기도 수원시 장안구 연무동 11-31번지 1층","category":"레져용품 - 스포츠·레져용품"}]},{"lat":"37.295731652","long":"127.02581045","items":[{"name":"33플라워","tel":"02-1544-4463","addr":"경기도 수원시 장안구 연무동 233-21번지 3층","category":"회원제형태 - 기타4"},{"name":"다모아","tel":"031-245-2371","addr":"경기도 수원시 장안구 연무동 233-21번지 1층","category":"일반휴게음식 - 일반한식"},{"name":"미니스톱수원연무점","tel":"031-1577-9621","addr":"경기도 수원시 장안구 연무동 233-21번지 1층","category":"유통업 영리 - 편 의 점"},{"name":"반도당구장","tel":"031-890-1162","addr":"경기도 수원시 장안구 연무동 233-21번지 2층","category":"레저업소 - 당 구 장"},{"name":"방내과","tel":"031-241-6362","addr":"경기도 수원시 장안구 연무동 233-21번지","category":"의원 - 의원"},{"name":"성신약국","tel":"031-255-1531","addr":"경기도 수원시 장안구 연무동 233-21","category":"약국 - 약국"},{"name":"아트랜드","tel":"031-247-6430","addr":"경기도 수원시 장안구 연무동 233-21","category":"신변잡화 - 신발"},{"name":"제이비복싱짐","tel":"031-243-6952","addr":"경기도 수원시 장안구 연무동 233-21번지 방내과소아과 3층 302호","category":"레저업소 - 헬스클럽"},{"name":"천우한의원","tel":"031-242-8862","addr":"경기도 수원시 장안구 연무동 233-21","category":"의원 - 한의원"},{"name":"추억의라이브","tel":"","addr":"경기도 수원시 장안구 연무동 233-21번지 지하1층","category":"일반휴게음식 - 일반한식"}]},{"lat":"37.297397849","long":"127.02917192","items":[{"name":"3GO훠궈샤브샤브","tel":"031-258-7774","addr":"경기도 수원시 장안구 연무동 26번지 1층 1호","category":"일반휴게음식 - 중국식"},{"name":"다바치당구클럽","tel":"031-244-6925","addr":"경기도 수원시 장안구 연무동 26번지 4층","category":"레저업소 - 당 구 장"},{"name":"또띠앙과자점","tel":"031-257-5989","addr":"경기도 수원시 장안구 연무동 26번지 1층","category":"음료식품 - 제과점"},{"name":"월드","tel":"031-304-3880","addr":"경기도 수원시 장안구 연무동 26번지 2층","category":"보건위생 - 미용재료"},{"name":"유림 노래연습장","tel":"","addr":"경기도 수원시 장안구 연무동 26번지 지층","category":"레저업소 - 노 래 방"},{"name":"잼(ZAM) PC","tel":"070-5020-5336","addr":"경기도 수원시 장안구 연무동 26번지","category":"레저업소 - 기타레져업소"}]},{"lat":"37.298596043","long":"127.02991673","items":[{"name":"59쌀피자","tel":"031-241-9959","addr":"경기도 수원시 장안구 연무동 8-6번지 1층","category":"일반휴게음식 - 서양음식"},{"name":"레인보우","tel":"031-255-1233","addr":"경기도 수원시 장안구 연무동 8-6번지 1층","category":"일반휴게음식 - 일식·회집"},{"name":"우리동네주식회사/우리동네작은커피집","tel":"031-212-0220","addr":"경기도 수원시 장안구 연무동 8-6번지","category":"일반휴게음식 - 서양음식"},{"name":"학사식당","tel":"031-0000-0000","addr":"경기도 수원시 장안구 연무동 8-6번지","category":"일반휴게음식 - 일반한식"},{"name":"헤어로로","tel":"031-000-0000","addr":"경기도 수원시 장안구 연무동 8-6번지","category":"보건위생 - 미용원"}]},{"lat":"37.292315951","long":"127.0297002","items":[{"name":"D.C 땡백화점","tel":"031-252-7227","addr":"경기도 수원시 장안구 연무동 246-34번지","category":"유통업 영리 - 기타유통업"},{"name":"도매당","tel":"031-248-2572","addr":"경기도 수원시 장안구 연무동 246-34번지","category":"보건위생 - 안경"},{"name":"루체른플라워","tel":"031-257-2668","addr":"경기도 수원시 장안구 연무동 246-34번지","category":"문화.취미 - 화원"},{"name":"미래정보통신","tel":"031-247-5423","addr":"경기도 수원시 장안구 연무동 246-34번지","category":"사무통신 - 통신기기"},{"name":"조은이비인후과의원","tel":"031-241-9006","addr":"경기도 수원시 장안구 연무동 246-34번지 2층","category":"의원 - 의원"},{"name":"학림영수학원","tel":"031-247-5723","addr":"경기도 수원시 장안구 연무동 246-34번지","category":"학원 - 보습학원"}]},{"lat":"37.29987537","long":"127.03046984","items":[{"name":"GS25경기대점","tel":"031-245-1375","addr":"경기도 수원시 장안구 연무동 6-4번지","category":"유통업 영리 - 편 의 점"},{"name":"감동튀김","tel":"031-548-2622","addr":"경기도 수원시 장안구 연무동 6-4번지 1층","category":"일반휴게음식 - 일반한식"},{"name":"광교산악","tel":"031-248-5006","addr":"경기도 수원시 장안구 연무동 6-4번지 1층","category":"레져용품 - 스포츠·레져용품"},{"name":"스타당구장","tel":"031-3939-3239","addr":"경기도 수원시 장안구 연무동 6-4번지 2층","category":"레저업소 - 당 구 장"},{"name":"에코파킹","tel":"","addr":"경기도 수원시 장안구 연무동 6-4번지","category":"자동차정비 유지 - 주차장"},{"name":"에코파킹","tel":"031-0000-0000","addr":"경기도 수원시 장안구 연무동 6-4번지","category":"자동차정비 유지 - 주차장"},{"name":"에코파킹","tel":"02-0000-0000","addr":"경기도 수원시 장안구 연무동 6-4번지","category":"자동차정비 유지 - 주차장"}]},{"lat":"37.298208795","long":"127.02905942","items":[{"name":"GS25장안한길점","tel":"","addr":"경기도 수원시 장안구 연무동 11-36번지","category":"유통업 영리 - 편 의 점"}]},{"lat":"37.28820918","long":"127.01925622","items":[{"name":"K3마트","tel":"031-241-7776","addr":"경기도 수원시 장안구 연무동 192-5번지","category":"유통업 영리 - 슈퍼마켓"}]},{"lat":"37.292676827","long":"127.02755757","items":[{"name":"KS","tel":"031-244-8963","addr":"경기도 수원시 장안구 연무동 248-17번지 익주상가 118호","category":"기타의료기관 - 기타의료기관 및 기타"},{"name":"다미애 (봉주르ll)","tel":"031-242-6372","addr":"경기도 수원시 장안구 연무동 248-17번지 익주상가 106호 105호,106호","category":"의류 - 정장"},{"name":"성훈정보통신","tel":"031-258-0080","addr":"경기도 수원시 장안구 연무동 248-17번지 익주아파트","category":"사무통신 - 통신기기"},{"name":"칼라샵","tel":"031-246-7790","addr":"경기도 수원시 장안구 연무동 248-17번지 익주아파트 1층 112호","category":"보건위생 - 미용원"},{"name":"화성린넨","tel":"031-254-1366","addr":"경기도 수원시 장안구 연무동 248-17번지 103호 104호","category":"직물 - 옷감·직물"}]},{"lat":"37.296262818","long":"127.02797603","items":[{"name":"OK노래연습장","tel":"031-242-3351","addr":"경기도 수원시 장안구 연무동 218번지 2층","category":"레저업소 - 노 래 방"},{"name":"모이자맥주창고","tel":"031-254-9939","addr":"경기도 수원시 장안구 연무동 218번지 2층","category":"일반휴게음식 - 주점"},{"name":"연무회수산시장","tel":"031-243-9799","addr":"경기도 수원시 장안구 연무동 218번지 1층","category":"일반휴게음식 - 일식·회집"}]},{"lat":"37.292875311","long":"127.02628325","items":[{"name":"OK마트","tel":"031-243-0894","addr":"경기도 수원시 장안구 연무동 258-45번지 상가 1층","category":"유통업 영리 - 슈퍼마켓"}]},{"lat":"37.299596128","long":"127.03014266","items":[{"name":"Poney(포니)","tel":"031-258-2470","addr":"경기도 수원시 장안구 연무동 7-3번지","category":"일반휴게음식 - 일반한식"},{"name":"상전","tel":"031-251-7942","addr":"경기도 수원시 장안구 연무동 7-3번지 2층","category":"일반휴게음식 - 일반한식"},{"name":"인삼골","tel":"031-211-5272","addr":"경기도 수원시 장안구 연무동 7-3번지","category":"일반휴게음식 - 일반한식"},{"name":"피쉬앤그릴","tel":"031-251-8255","addr":"경기도 수원시 장안구 연무동 7-3번지 2층","category":"일반휴게음식 - 일반한식"}]},{"lat":"37.298956514","long":"127.02964617","items":[{"name":"TG메디칼(호랑이메디칼)","tel":"031-253-3445","addr":"경기도 수원시 장안구 연무동 11-60번지","category":"보건위생 - 의료용품"}]},{"lat":"37.298424961","long":"127.02942041","items":[{"name":"bhc(경기대점)","tel":"031-241-5892","addr":"경기도 수원시 장안구 연무동 10번지","category":"일반휴게음식 - 스넥"}]},{"lat":"37.294541995","long":"127.02733262","items":[{"name":"가나열쇠","tel":"031-255-1304","addr":"경기도 수원시 장안구 연무동 237-12번지","category":"건축자재 - 목재·석재·철물"},{"name":"경성중화주점","tel":"031-246-1868","addr":"경기도 수원시 장안구 연무동 237-12번지","category":"일반휴게음식 - 중국식"},{"name":"시장회초밥","tel":"070-9227-0116","addr":"경기도 수원시 장안구 연무동 237-12번지","category":"일반휴게음식 - 일식·회집"}]},{"lat":"37.292739183","long":"127.03078301","items":[{"name":"가랑비와파전","tel":"031-548-1666","addr":"경기도 수원시 장안구 연무동 246-17번지","category":"일반휴게음식 - 일반한식"},{"name":"수원성숯불닭바베큐","tel":"","addr":"경기도 수원시 장안구 연무동 246-17번지 1층","category":"일반휴게음식 - 주점"},{"name":"피자스쿨","tel":"031-255-5082","addr":"경기도 수원시 장안구 연무동 246-17번지","category":"일반휴게음식 - 서양음식"}]},{"lat":"37.293180648","long":"127.03094106","items":[{"name":"가마솥통닭","tel":"031-245-1372","addr":"경기도 수원시 장안구 연무동 242-8번지 1층","category":"일반휴게음식 - 주점"},{"name":"포차IN스토리","tel":"031-255-9871","addr":"경기도 수원시 장안구 연무동 242-8번지","category":"일반휴게음식 - 일반한식"}]},{"lat":"37.294542169","long":"127.02647549","items":[{"name":"가위전설","tel":"031-256-2040","addr":"경기도 수원시 장안구 연무동 237-25번지","category":"보건위생 - 미용원"},{"name":"아리따움연무점","tel":"031-248-4813","addr":"경기도 수원시 장안구 연무동 237-25번지 1층","category":"보건위생 - 화장품"}]},{"lat":"37.289515348","long":"127.02142173","items":[{"name":"갑성마트","tel":"031-255-0002","addr":"경기도 수원시 장안구 연무동 178-27번지 1층","category":"유통업 영리 - 슈퍼마켓"},{"name":"갑성정육점","tel":"031-255-0002","addr":"경기도 수원시 장안구 연무동 178-27번지","category":"음료식품 - 정육점"}]},{"lat":"37.293704347","long":"127.02580984","items":[{"name":"강나루민물매운탕","tel":"031-247-1464","addr":"경기도 수원시 장안구 연무동 249-34번지","category":"일반휴게음식 - 일반한식"},{"name":"금터민물매운탕","tel":"031-244-6711","addr":"경기도 수원시 장안구 연무동 249-34번지","category":"일반휴게음식 - 일반한식"},{"name":"장안정육점","tel":"031-248-0990","addr":"경기도 수원시 장안구 연무동 249-34번지","category":"음료식품 - 정육점"}]},{"lat":"37.29251405","long":"127.03025288","items":[{"name":"강영찬 가정의학과 의원","tel":"031-254-2722","addr":"경기도 수원시 장안구 연무동 246-24번지 2층","category":"의원 - 의원"},{"name":"강영찬가정의학과의원","tel":"031-254-2722","addr":"경기도 수원시 장안구 연무동 246-24번지 2층","category":"건강식품 - 기타건강식품"},{"name":"띠아모 연무점","tel":"031-241-0025","addr":"경기도 수원시 장안구 연무동 246-24번지","category":"일반휴게음식 - 서양음식"},{"name":"우리치과의원","tel":"031-248-2840","addr":"경기도 수원시 장안구 연무동 246-24번지 3층","category":"의원 - 치과의원"},{"name":"은혜온누리약국","tel":"031-241-6233","addr":"경기도 수원시 장안구 연무동 246-24번지 1층","category":"약국 - 약국"},{"name":"파리바게뜨연무점","tel":"031-247-4116","addr":"경기도 수원시 장안구 연무동 246-24번지","category":"음료식품 - 제과점"}]},{"lat":"37.290902803","long":"127.02220021","items":[{"name":"강전문건설","tel":"031-256-4614","addr":"경기도 수원시 장안구 연무동 254-5번지 신안빌라트 1층 상가 105호","category":"건축자재 - 보일러·펌프·샷시"},{"name":"굿윌메디케어(Goodwillmedicare)","tel":"031-258-4108","addr":"경기도 수원시 장안구 연무동 254-5번지 신안빌라트 1층","category":"보건위생 - 의료용품"},{"name":"한일자동펌프","tel":"031-253-3721","addr":"경기도 수원시 장안구 연무동 254-5번지 신안빌라트 102호","category":"건축자재 - 보일러·펌프·샷시"}]},{"lat":"37.296794115","long":"127.029386","items":[{"name":"개랑나들이","tel":"070-9886-2253","addr":"경기도 수원시 장안구 연무동 213-18번지 1층","category":"문화.취미 - 애완동물"}]},{"lat":"37.294425145","long":"127.02592284","items":[{"name":"거북야채","tel":"031-246-7550","addr":"경기도 수원시 장안구 연무동 235-14번지 연무시장","category":"음료식품 - 농·축·수산품"},{"name":"김삿갓노래연습장","tel":"031-247-0355","addr":"경기도 수원시 장안구 연무동 235-14번지 연무시장 205호","category":"레저업소 - 노 래 방"},{"name":"김필규 한의원","tel":"031-245-2975","addr":"경기도 수원시 장안구 연무동 235-14번지 연무시장 2층","category":"의원 - 한의원"},{"name":"다희청과","tel":"031-244-9593","addr":"경기도 수원시 장안구 연무동 235-14번지 연무시장종합상가","category":"음료식품 - 농·축·수산품"},{"name":"빵굽는마을","tel":"031-245-9515","addr":"경기도 수원시 장안구 연무동 235-14연무시장내1층2,3호","category":"음료식품 - 제과점"},{"name":"시장닭집","tel":"031-253-0079","addr":"경기도 수원시 장안구 연무동 235-14번지 연무시장 내","category":"음료식품 - 정육점"},{"name":"연무동 중고나라","tel":"031-241-8911","addr":"경기도 수원시 장안구 연무동 235-14번지","category":"전기제품 - 가전제품"},{"name":"연무반찬","tel":"031-252-9128","addr":"경기도 수원시 장안구 연무동 235-14번지","category":"음료식품 - 기타음료식품"},{"name":"연상한의원","tel":"031-258-5663","addr":"경기도 수원시 장안구 연무동 235-14번지 연무상가 2층","category":"의원 - 한의원"},{"name":"이츠PC(IT''S PC)(연무점)","tel":"070-5337-2445","addr":"경기도 수원시 장안구 연무동 235-14번지 연무시장 2층 201,202호","category":"레저업소 - 기타레져업소"},{"name":"제일의원","tel":"031-256-2273","addr":"경기도 수원시 장안구 연무동 235-14번지","category":"의원 - 의원"},{"name":"즉석두부마을","tel":"031-247-6400","addr":"경기도 수원시 장안구 연무동 235-14번지","category":"음료식품 - 기타음료식품"},{"name":"태양수산","tel":"031-247-3309","addr":"경기도 수원시 장안구 연무동 235-14번지 1층","category":"음료식품 - 농·축·수산품"},{"name":"포자우베트남쌀국수","tel":"031-252-1104","addr":"경기도 수원시 장안구 연무동 235-14번지","category":"일반휴게음식 - 일반한식"},{"name":"현대마트","tel":"031-242-9600","addr":"경기도 수원시 장안구 연무동 235-14번지 연무시장 내","category":"유통업 영리 - 슈퍼마켓"}]},{"lat":"37.292594847","long":"127.03150473","items":[{"name":"건강한김치과의원","tel":"031-890-7522","addr":"경기도 수원시 장안구 연무동 245-30번지 2층","category":"의원 - 치과의원"},{"name":"대학약국","tel":"031-241-9885","addr":"경기도 수원시 장안구 연무동 245-30번지 1층","category":"약국 - 약국"},{"name":"왕김밥천국","tel":"031-254-5237","addr":"경기도 수원시 장안구 연무동 245-30번지 1층","category":"일반휴게음식 - 일반한식"}]},{"lat":"37.293236014","long":"127.02474958","items":[{"name":"건국우유수원대리점","tel":"031-244-9500","addr":"경기도 수원시 장안구 연무동 251-22번지 1층","category":"음료식품 - 기타음료식품"},{"name":"수원마을협동조합","tel":"031-258-5800","addr":"경기도 수원시 장안구 연무동 251-22번지 1층","category":"음료식품 - 정육점"}]},{"lat":"37.295623218","long":"127.0273668","items":[{"name":"건설광고","tel":"031-244-7692","addr":"경기도 수원시 장안구 연무동 231-39번지","category":"용역 서비스 - 종합용역"},{"name":"광미종합광고","tel":"031-255-0134","addr":"경기도 수원시 장안구 연무동 231-39번지","category":"용역 서비스 - 종합용역"},{"name":"금산인삼직매장","tel":"031-247-3630","addr":"경기도 수원시 장안구 연무동 231-39번지","category":"건강식품 - 기타건강식품"}]},{"lat":"37.292621972","long":"127.03111002","items":[{"name":"게스트원룸텔","tel":"031-254-6004","addr":"경기도 수원시 장안구 연무동 245-32번지 ,4,5층","category":"학원 - 독서실"},{"name":"라이장강","tel":"031-256-6610","addr":"경기도 수원시 장안구 연무동 245-32번지 호영빌딩 지층","category":"일반휴게음식 - 중국식"},{"name":"메카헬스클럽","tel":"031-258-0820","addr":"경기도 수원시 장안구 연무동 245-32번지 호영빌딩","category":"레저업소 - 헬스클럽"},{"name":"케이원당구장","tel":"031-232-1368","addr":"경기도 수원시 장안구 연무동 245-32번지 호영빌딩","category":"레저업소 - 당 구 장"},{"name":"테마노래연습장","tel":"031-251-4006","addr":"경기도 수원시 장안구 연무동 245-32번지","category":"레저업소 - 노 래 방"},{"name":"플자인","tel":"031-242-8602","addr":"경기도 수원시 장안구 연무동 245-32번지","category":"문화.취미 - 문화취미기타"}]},{"lat":"37.295901916","long":"127.03019772","items":[{"name":"겟백(get back)","tel":"031-892-5060","addr":"경기도 수원시 장안구 연무동 220-3번지 1층","category":"일반휴게음식 - 서양음식"}]},{"lat":"37.29826262","long":"127.03010834","items":[{"name":"경기대한의원","tel":"031-257-8575","addr":"경기도 수원시 장안구 연무동 59-1번지 동문프라자 2층 201-B호","category":"의원 - 한의원"},{"name":"고운피부관리실,수빈건강식품점","tel":"031-257-8533","addr":"경기도 수원시 장안구 연무동 59-1번지 동문프라자 2층","category":"회원제형태 - 기타4"},{"name":"나스타주식회사","tel":"031-253-6662","addr":"경기도 수원시 장안구 연무동 59-1번지 동문프라자","category":"보건위생 - 화장품"},{"name":"노리터당구장","tel":"031-242-5067","addr":"경기도 수원시 장안구 연무동 59-1번지 동문프라자 3층","category":"레저업소 - 당 구 장"},{"name":"동문Q노래연습장","tel":"031-207-3277","addr":"경기도 수원시 장안구 연무동 59-1번지 동문프라자 4층","category":"레저업소 - 노 래 방"},{"name":"밀크텔레콤","tel":"031-255-3363","addr":"경기도 수원시 장안구 연무동 59-1번지 동문프라자 102호","category":"사무통신 - 통신기기"},{"name":"스타돔쇼핑","tel":"031-245-6756","addr":"경기도 수원시 장안구 연무동 59-1번지 동문프라자 4층","category":"건강식품 - 기타건강식품"},{"name":"일춘반점","tel":"031-241-9889","addr":"경기도 수원시 장안구 연무동 59-1번지 동문프라자 103호","category":"일반휴게음식 - 중국식"},{"name":"정담순대국","tel":"031-255-9277","addr":"경기도 수원시 장안구 연무동 59-1번지 동문프라자 101호","category":"일반휴게음식 - 일반한식"},{"name":"힐링헤어스토리","tel":"031-241-6455","addr":"경기도 수원시 장안구 연무동 59-1번지 동문프라자 104호","category":"보건위생 - 미용원"}]},{"lat":"37.294398396","long":"127.02442286","items":[{"name":"경기도콘크리트공업협동조합","tel":"031-251-0547","addr":"경기도 수원시 장안구 연무동 250-26번지","category":"용역 서비스 - 사무서비스"}]},{"lat":"37.293515028","long":"127.02633984","items":[{"name":"경기안경콘텍트","tel":"031-234-4766","addr":"경기도 수원시 장안구 연무동 249-4번지","category":"보건위생 - 안경"}]},{"lat":"37.293596368","long":"127.02505419","items":[{"name":"경기철물","tel":"031-243-8126","addr":"경기도 수원시 장안구 연무동 251-26번지","category":"건축자재 - 목재·석재·철물"}]},{"lat":"37.297091198","long":"127.03050266","items":[{"name":"경미용실","tel":"031-245-7726","addr":"경기도 수원시 장안구 연무동 56-98번지","category":"보건위생 - 미용원"}]},{"lat":"37.296127133","long":"127.03036697","items":[{"name":"경미용실","tel":"031-245-5450","addr":"경기도 수원시 장안구 연무동 74-17번지 1층 왼쪽상가","category":"보건위생 - 미용원"},{"name":"광교인테리어","tel":"031-898-7508","addr":"경기도 수원시 장안구 연무동 74-17번지 1층 가운데","category":"건축자재 - 인테리어전문"},{"name":"하예축산물도소매점","tel":"031-215-9222","addr":"경기도 수원시 장안구 연무동 74-17번지 1층","category":"음료식품 - 정육점"}]},{"lat":"37.298262708","long":"127.02972487","items":[{"name":"경희대국제체육관","tel":"031-252-7605","addr":"경기도 수원시 장안구 연무동 11-15번지 3층","category":"학원 - 예·체능계학원"},{"name":"오늘은생고기먹는날","tel":"031-244-9905","addr":"경기도 수원시 장안구 연무동 11-15번지","category":"일반휴게음식 - 일반한식"}]},{"lat":"37.299118941","long":"127.02855219","items":[{"name":"고려대강찬태권도장","tel":"031-244-7677","addr":"경기도 수원시 장안구 연무동 11-38번지 4층","category":"학원 - 예·체능계학원"},{"name":"고향떡집","tel":"031-242-7320","addr":"경기도 수원시 장안구 연무동 11-38번지 1층","category":"음료식품 - 제과점"},{"name":"서광P&A스튜디오","tel":"031-252-7100","addr":"경기도 수원시 장안구 연무동 11-38번지 2층","category":"광학제품 - 사진관"},{"name":"서광P&A스튜디오","tel":"031-252-7100","addr":"경기도 수원시 장안구 연무동 11-38번지 2층","category":"광학제품 - 사진관"},{"name":"은빛어린이집[아이행복]","tel":"031-244-7944","addr":"경기도 수원시 장안구 연무동 11-38번지 1층","category":"학원 - 유아원"}]},{"lat":"37.294100179","long":"127.02880988","items":[{"name":"곰수산회포차","tel":"031-243-8112","addr":"경기도 수원시 장안구 연무동 229-24번지 105호","category":"일반휴게음식 - 일반한식"},{"name":"또봉이통닭","tel":"031-246-0906","addr":"경기도 수원시 장안구 연무동 229-24번지 창룡빌 A동 104호","category":"일반휴게음식 - 스넥"},{"name":"태후사랑 연무동 1호점","tel":"","addr":"경기도 수원시 장안구 연무동 229-24번지 103호","category":"보건위생 - 미용원"},{"name":"핑크베리네일","tel":"070-4235-1220","addr":"경기도 수원시 장안구 연무동 229-24번지 105호","category":"보건위생 - 미용원"}]},{"lat":"37.299623343","long":"127.0293306","items":[{"name":"공터독서실","tel":"031-255-6606","addr":"경기도 수원시 장안구 연무동 9-10번지 4층","category":"학원 - 독서실"},{"name":"뉴브레인학원","tel":"031-255-0502","addr":"경기도 수원시 장안구 연무동 9-10번지 2층","category":"학원 - 기타 교육기관"},{"name":"브래인영어학원","tel":"031-255-0502","addr":"경기도 수원시 장안구 연무동 9-10번지 3층","category":"학원 - 외국어학원"},{"name":"신문사","tel":"031-255-2157","addr":"경기도 수원시 장안구 연무동 9-10번지 1층","category":"서적문구 - 출판 및 인쇄물"},{"name":"에코로바 광교산점","tel":"031-255-8345","addr":"경기도 수원시 장안구 연무동 9-10번지 1층","category":"레져용품 - 스포츠·레져용품"}]},{"lat":"37.296731362","long":"127.0279198","items":[{"name":"관우성","tel":"031-244-7893","addr":"경기도 수원시 장안구 연무동 216-20번지","category":"일반휴게음식 - 중국식"},{"name":"쎄븐노래연습장","tel":"031-241-2485","addr":"경기도 수원시 장안구 연무동 216-20번지","category":"레저업소 - 노 래 방"},{"name":"왕십리곱창막창","tel":"031-244-8887","addr":"경기도 수원시 장안구 연무동 216-20번지 1층","category":"일반휴게음식 - 일반한식"},{"name":"짱구당구장","tel":"031-245-7888","addr":"경기도 수원시 장안구 연무동 216-20번지 3층","category":"레저업소 - 당 구 장"}]},{"lat":"37.295036817","long":"127.03069364","items":[{"name":"관인예솔음악학원","tel":"031-245-8066","addr":"경기도 수원시 장안구 연무동 226번지","category":"학원 - 예·체능계학원"},{"name":"김화자미용실","tel":"031-245-1595","addr":"경기도 수원시 장안구 연무동 226번지 1층","category":"보건위생 - 미용원"}]},{"lat":"37.293983976","long":"127.0241408","items":[{"name":"광교","tel":"031-258-5256","addr":"경기도 수원시 장안구 연무동 251번지 광교프라자 지하1층","category":"신변잡화 - 기타잡화"},{"name":"광교볼링장","tel":"031-258-5256","addr":"경기도 수원시 장안구 연무동 251번지 광교프라자 지하층","category":"레저업소 - 볼 링 장"},{"name":"구워본닭","tel":"031-246-2464","addr":"경기도 수원시 장안구 연무동 251번지 광교프라자 103호","category":"일반휴게음식 - 스넥"},{"name":"방방스타","tel":"031-257-8799","addr":"경기도 수원시 장안구 연무동 251번지 광교프라자 402호","category":"레저업소 - 기타레져업소"},{"name":"보쉬대리점신바람공구","tel":"031-246-0919","addr":"경기도 수원시 장안구 연무동 251번지 광교프라자 1층 101-1호","category":"기타 - 기계공구"},{"name":"아뜰리네뜨","tel":"031-207-2242","addr":"경기도 수원시 장안구 연무동 251번지 광교프라자 402호","category":"음료식품 - 제과점"},{"name":"정현종합학원","tel":"031-253-0645","addr":"경기도 수원시 장안구 연무동 251 광교프라자 401호 404호","category":"학원 - 예·체능계학원"},{"name":"진성아구찜","tel":"031-253-3705","addr":"경기도 수원시 장안구 연무동 251번지 광교프라자 101호","category":"일반휴게음식 - 일반한식"},{"name":"포토스튜디오효원","tel":"031-255-9504","addr":"경기도 수원시 장안구 연무동 251번지 광교프라자 301호","category":"광학제품 - 사진관"}]},{"lat":"37.293875647","long":"127.02525727","items":[{"name":"광교가마솥감자탕뼈해장국","tel":"031-255-8259","addr":"경기도 수원시 장안구 연무동 250-20번지 1층","category":"일반휴게음식 - 일반한식"},{"name":"헤어센스","tel":"031-243-8949","addr":"경기도 수원시 장안구 연무동 250-20번지","category":"보건위생 - 미용원"}]},{"lat":"37.297208787","long":"127.0284726","items":[{"name":"광교동태탕찜","tel":"070-4076-1253","addr":"경기도 수원시 장안구 연무동 213-11번지 1층","category":"일반휴게음식 - 일반한식"},{"name":"진클론 주식회사","tel":"031-254-5020","addr":"경기도 수원시 장안구 연무동 213-11번지 302호","category":"보건위생 - 의료용품"}]},{"lat":"37.299488095","long":"127.02974786","items":[{"name":"광교산노래연습장","tel":"031-251-3777","addr":"경기도 수원시 장안구 연무동 8-10번지 지층","category":"레저업소 - 노 래 방"},{"name":"이디야 경기대점","tel":"031-252-7772","addr":"경기도 수원시 장안구 연무동 8-10번지","category":"일반휴게음식 - 서양음식"},{"name":"치킨플러스 경기대점","tel":"031-251-0077","addr":"경기도 수원시 장안구 연무동 8-10번지 1층","category":"일반휴게음식 - 일반한식"},{"name":"행복한밥상","tel":"031-2517-3333","addr":"경기도 수원시 장안구 연무동 8-10번지","category":"일반휴게음식 - 일반한식"}]},{"lat":"37.297235702","long":"127.02900269","items":[{"name":"광교식당","tel":"031-244-9990","addr":"경기도 수원시 장안구 연무동 213-4번지","category":"일반휴게음식 - 일반한식"},{"name":"선우통닭","tel":"031-246-4409","addr":"경기도 수원시 장안구 연무동 213-4번지","category":"일반휴게음식 - 주점"}]},{"lat":"37.295064675","long":"127.0269155","items":[{"name":"광교약국","tel":"031-244-4124","addr":"경기도 수원시 장안구 연무동 230-32번지","category":"약국 - 약국"},{"name":"쉘브르숙녀복토탈패션","tel":"031-252-1237","addr":"경기도 수원시 장안구 연무동 230-32번지 1층","category":"의류 - 정장"},{"name":"지씨네만두","tel":"031-207-0109","addr":"경기도 수원시 장안구 연무동 230-32번지 1층","category":"일반휴게음식 - 일반한식"},{"name":"참조은의원","tel":"031-251-9377","addr":"경기도 수원시 장안구 연무동 230-32번지 2층 지상","category":"의원 - 의원"}]},{"lat":"37.29303754","long":"127.02605775","items":[{"name":"광교지사","tel":"031-253-9723","addr":"경기도 수원시 장안구 연무동 258-37번지 1층","category":"신변잡화 - 가방"}]},{"lat":"37.29965015","long":"127.03031186","items":[{"name":"광교진고집칼국수","tel":"031-257-1488","addr":"경기도 수원시 장안구 연무동 7-7번지 1층","category":"일반휴게음식 - 일반한식"},{"name":"커피니수원경기대점","tel":"031-251-1777","addr":"경기도 수원시 장안구 연무동 7-7번지 1층","category":"일반휴게음식 - 서양음식"},{"name":"해돈","tel":"031-242-0559","addr":"경기도 수원시 장안구 연무동 7-7번지 2층","category":"일반휴게음식 - 일반한식"}]},{"lat":"37.299569141","long":"127.02995091","items":[{"name":"광교치킨","tel":"031-256-9690","addr":"경기도 수원시 장안구 연무동 8-2번지","category":"일반휴게음식 - 스넥"},{"name":"꽃방카라","tel":"031-254-1252","addr":"경기도 수원시 장안구 연무동 8-2번지 1층","category":"문화.취미 - 화원"},{"name":"더리터 수원경기대점","tel":"031-242-4377","addr":"경기도 수원시 장안구 연무동 8-2번지 1층","category":"일반휴게음식 - 서양음식"},{"name":"봄햇살손두부","tel":"031-251-0119","addr":"경기도 수원시 장안구 연무동 8-2번지 1층","category":"일반휴게음식 - 일반한식"},{"name":"세븐호프","tel":"031-247-1336","addr":"경기도 수원시 장안구 연무동 8-2번지 전체 2층","category":"일반휴게음식 - 주점"},{"name":"잉글리쉬무무창용보습학원","tel":"031-258-8805","addr":"경기도 수원시 장안구 연무동 8-2번지","category":"학원 - 보습학원"},{"name":"챌린저 코어 필라테스","tel":"","addr":"경기도 수원시 장안구 연무동 8-2번지 4층","category":"레저업소 - 헬스클럽"},{"name":"챌린지유도","tel":"031-245-3321","addr":"경기도 수원시 장안구 연무동 8-2번지 4층","category":"학원 - 예·체능계학원"}]},{"lat":"37.294037759","long":"127.02564077","items":[{"name":"광교황금족발","tel":"031-252-9288","addr":"경기도 수원시 장안구 연무동 250-18번지","category":"일반휴게음식 - 일반한식"},{"name":"연무약국","tel":"031-254-1696","addr":"경기도 수원시 장안구 연무동 250-18번지","category":"약국 - 약국"},{"name":"연무주차장","tel":"031-247-8269","addr":"경기도 수원시 장안구 연무동 250-18,19","category":"자동차정비 유지 - 주차장"},{"name":"유정","tel":"031-223-1033","addr":"경기도 수원시 장안구 연무동 250-18번지","category":"건축자재 - 인테리어전문"},{"name":"착한김밥","tel":"031-297-6535","addr":"경기도 수원시 장안구 연무동 250-18번지 1층","category":"일반휴게음식 - 일반한식"},{"name":"치킨달인","tel":"031-245-2225","addr":"경기도 수원시 장안구 연무동 250-18번지","category":"일반휴게음식 - 일반한식"}]},{"lat":"37.297785537","long":"127.02803293","items":[{"name":"광교회집","tel":"031-247-6425","addr":"경기도 수원시 장안구 연무동 19-2번지 1층","category":"일반휴게음식 - 일반한식"},{"name":"맛터","tel":"031-245-9292","addr":"경기도 수원시 장안구 연무동 19-2번지","category":"일반휴게음식 - 일반한식"}]},{"lat":"37.295010167","long":"127.02902448","items":[{"name":"광명계란직판장","tel":"031-248-1493","addr":"경기도 수원시 장안구 연무동 229-7번지","category":"음료식품 - 농·축·수산품"}]},{"lat":"37.293208679","long":"127.02633974","items":[{"name":"교촌치킨 연무1호점","tel":"031-253-9244","addr":"경기도 수원시 장안구 연무동 249-13번지 1층","category":"일반휴게음식 - 일반한식"}]},{"lat":"37.296596168","long":"127.02811148","items":[{"name":"국민삼겹살","tel":"031-268-6654","addr":"경기도 수원시 장안구 연무동 215-11번지","category":"일반휴게음식 - 일반한식"},{"name":"솥뚜껑생삼겹살","tel":"031-252-2006","addr":"경기도 수원시 장안구 연무동 215-11번지 1층","category":"일반휴게음식 - 일반한식"}]},{"lat":"37.298010439","long":"127.02964583","items":[{"name":"국수집","tel":"031-258-1635","addr":"경기도 수원시 장안구 연무동 24-1번지","category":"일반휴게음식 - 일반한식"},{"name":"맛나분식","tel":"031-255-0407","addr":"경기도 수원시 장안구 연무동 24-1번지","category":"일반휴게음식 - 스넥"},{"name":"정주집","tel":"031-245-8268","addr":"경기도 수원시 장안구 연무동 24-1번지 1층","category":"일반휴게음식 - 일반한식"}]},{"lat":"37.292099879","long":"127.02892197","items":[{"name":"국제상사","tel":"031-257-2451","addr":"경기도 수원시 장안구 연무동 247-38번지","category":"건축자재 - 페인트"},{"name":"펫콤동물병원","tel":"031-252-2501","addr":"경기도 수원시 장안구 연무동 247-38번지 1층 2호","category":"기타의료기관 - 동물병원"}]},{"lat":"37.295569442","long":"127.02594574","items":[{"name":"굿모닝빵","tel":"031-244-7724","addr":"경기도 수원시 장안구 연무동 233-20번지 1층","category":"음료식품 - 제과점"},{"name":"스테아메이드","tel":"031-242-7215","addr":"경기도 수원시 장안구 연무동 233-20번지","category":"일반휴게음식 - 일반한식"},{"name":"스테아메이드","tel":"031-242-7215","addr":"경기도 수원시 장안구 연무동 233-20번지","category":"일반휴게음식 - 일반한식"}]},{"lat":"37.289236231","long":"127.02009095","items":[{"name":"권선동 멍가네 통닭","tel":"031-245-4948","addr":"경기도 수원시 장안구 연무동 187-45번지","category":"일반휴게음식 - 스넥"}]},{"lat":"37.294929042","long":"127.02917106","items":[{"name":"권선종합공사","tel":"031-236-0118","addr":"경기도 수원시 장안구 연무동 229-8번지","category":"용역 서비스 - 종합용역"}]},{"lat":"37.293821549","long":"127.02544898","items":[{"name":"귀여운여시","tel":"031-257-5825","addr":"경기도 수원시 장안구 연무동 250-19번지","category":"의류 - 정장"},{"name":"성호이동통신","tel":"031-243-7010","addr":"경기도 수원시 장안구 연무동 250-19번지","category":"사무통신 - 통신기기"},{"name":"연무벼룩시장","tel":"","addr":"경기도 수원시 장안구 연무동 250-19번지","category":"의류 - 기타의류"}]},{"lat":"37.297235876","long":"127.02820193","items":[{"name":"그린종합만물사","tel":"031-246-8710","addr":"경기도 수원시 장안구 연무동 212-38번지 1층","category":"기타 - 기계공구"},{"name":"꽃따라기","tel":"031-248-3397","addr":"경기도 수원시 장안구 연무동 212-38번지 1층","category":"문화.취미 - 화원"},{"name":"우마이","tel":"031-256-0324","addr":"경기도 수원시 장안구 연무동 212-38번지 1층","category":"일반휴게음식 - 일반한식"}]},{"lat":"37.293398074","long":"127.02541502","items":[{"name":"그린피아미용실","tel":"031-244-8773","addr":"경기도 수원시 장안구 연무동 258-6번지 1층","category":"보건위생 - 미용원"},{"name":"명성보석","tel":"031-254-0856","addr":"경기도 수원시 장안구 연무동 258-6번지","category":"신변잡화 - 시계"}]},{"lat":"37.292820302","long":"127.03067027","items":[{"name":"금밭미용실","tel":"031-256-2738","addr":"경기도 수원시 장안구 연무동 246-13번지","category":"보건위생 - 미용원"},{"name":"먹고반해","tel":"031-242-2520","addr":"경기도 수원시 장안구 연무동 246-13번지 1층","category":"일반휴게음식 - 일반한식"},{"name":"투다리(연무2점)","tel":"031-215-0954","addr":"경기도 수원시 장안구 연무동 246-13","category":"일반휴게음식 - 주점"}]},{"lat":"37.294568944","long":"127.02772736","items":[{"name":"금보석","tel":"031-243-4202","addr":"경기도 수원시 장안구 연무동 230-19번지","category":"신변잡화 - 시계"}]},{"lat":"37.293235846","long":"127.02564053","items":[{"name":"금탑오토바이","tel":"031-253-0417","addr":"경기도 수원시 장안구 연무동 258-13번지","category":"자동차판매 - 이륜차판매"}]},{"lat":"37.288929834","long":"127.02041792","items":[{"name":"금호공조","tel":"031-242-6064","addr":"경기도 수원시 장안구 연무동 193-1 상가동","category":"용역 서비스 - 기타용역서비스"}]},{"lat":"37.295398065","long":"127.02685922","items":[{"name":"김가네 반찬나라","tel":"031-255-5079","addr":"경기도 수원시 장안구 연무동 233-4번지","category":"음료식품 - 농·축·수산품"}]},{"lat":"37.299623088","long":"127.03044719","items":[{"name":"김민재Coffee","tel":"070-8672-1056","addr":"경기도 수원시 장안구 연무동 5-3번지 1층","category":"일반휴게음식 - 일반한식"},{"name":"미쳐버린파닭","tel":"031-258-9247","addr":"경기도 수원시 장안구 연무동 5-3번지","category":"일반휴게음식 - 일반한식"}]},{"lat":"37.295064786","long":"127.02636288","items":[{"name":"김밥천국","tel":"031-247-1008","addr":"경기도 수원시 장안구 연무동 234-3번지","category":"일반휴게음식 - 스넥"},{"name":"오땡큐천연머리염색전문점","tel":"031-221-8600","addr":"경기도 수원시 장안구 연무동 234-3번지 1층","category":"보건위생 - 미용원"},{"name":"오땡큐천연머리염색전문점","tel":"031-000-0000","addr":"경기도 수원시 장안구 연무동 234-3번지 1층","category":"보건위생 - 미용원"}]},{"lat":"37.295263104","long":"127.02588926","items":[{"name":"김밥타운","tel":"031-245-5909","addr":"경기도 수원시 장안구 연무동 234-1번지","category":"일반휴게음식 - 일반한식"},{"name":"나주홍어","tel":"031-204-1777","addr":"경기도 수원시 장안구 연무동 234-1번지 1층","category":"일반휴게음식 - 일반한식"},{"name":"백년황소곱창","tel":"031-245-9282","addr":"경기도 수원시 장안구 연무동 234-1번지","category":"일반휴게음식 - 일반한식"},{"name":"비틀즈","tel":"031-207-9665","addr":"경기도 수원시 장안구 연무동 234-1번지 2층","category":"일반휴게음식 - 주점"},{"name":"사단법인 자연생태교육연구소","tel":"031-222-3063","addr":"경기도 수원시 장안구 연무동 234-1번지 3층","category":"학원 - 기타 교육기관"},{"name":"올포유 수원연무점","tel":"031-223-9159","addr":"경기도 수원시 장안구 연무동 234-1번지","category":"의류 - 스포츠의류"},{"name":"톰과제리","tel":"031-246-4508","addr":"경기도 수원시 장안구 연무동 234-1번지","category":"문화.취미 - 애완동물"},{"name":"한동태권도체육관","tel":"031-255-9364","addr":"경기도 수원시 장안구 연무동 234-1번지","category":"학원 - 예·체능계학원"},{"name":"해동검도","tel":"031-247-1512","addr":"경기도 수원시 장안구 연무동 234-1번지 3층 우측","category":"학원 - 예·체능계학원"}]},{"lat":"37.294235876","long":"127.02619345","items":[{"name":"꺼병이떡볶이","tel":"","addr":"경기도 수원시 장안구 연무동 236-20번지","category":"일반휴게음식 - 스넥"},{"name":"중앙한의원","tel":"031-253-5575","addr":"경기도 수원시 장안구 연무동 236-20번지 1층","category":"의원 - 한의원"}]},{"lat":"37.297091724","long":"127.02814549","items":[{"name":"꼬맥","tel":"031-242-9282","addr":"경기도 수원시 장안구 연무동 212-16번지 1층","category":"일반휴게음식 - 일반한식"},{"name":"딩동댕헤어","tel":"031-253-5312","addr":"경기도 수원시 장안구 연무동 212-16번지 1층","category":"보건위생 - 미용원"},{"name":"먹세","tel":"031-207-6260","addr":"경기도 수원시 장안구 연무동 212-16번지 1층","category":"일반휴게음식 - 일반한식"}]},{"lat":"37.297623221","long":"127.02864191","items":[{"name":"꼬맹이","tel":"","addr":"경기도 수원시 장안구 연무동 27-3번지 1층","category":"일반휴게음식 - 주점"},{"name":"유천떡방앗간","tel":"031-244-3368","addr":"경기도 수원시 장안구 연무동 27-3.3","category":"음료식품 - 제과점"}]},{"lat":"37.297515369","long":"127.02736742","items":[{"name":"꿈마루어린이집[아이행복]","tel":"031-255-6676","addr":"경기도 수원시 장안구 연무동 212-32번지 1층","category":"학원 - 유아원"}]},{"lat":"37.296208679","long":"127.02833692","items":[{"name":"나라비데노비타","tel":"00-1577-1159","addr":"경기도 수원시 장안구 연무동 218-2번지 화목빌라 402호","category":"주방용구 - 정수기"}]},{"lat":"37.298569463","long":"127.02786401","items":[{"name":"나무","tel":"031-258-8118","addr":"경기도 수원시 장안구 연무동 12-12번지","category":"숙박업 - 여관/기타숙박업"}]},{"lat":"37.29748759","long":"127.03075093","items":[{"name":"나무집반지하","tel":"","addr":"경기도 수원시 장안구 연무동 61-63번지 102호","category":"문화.취미 - 민예·공예품"}]},{"lat":"37.29331696","long":"127.02552778","items":[{"name":"나은강아지나라","tel":"031-241-8575","addr":"경기도 수원시 장안구 연무동 258-7번지 1층","category":"문화.취미 - 애완동물"},{"name":"나은동물병원","tel":"031-425-7506","addr":"경기도 수원시 장안구 연무동 258-7번지","category":"기타의료기관 - 동물병원"},{"name":"맛디아헤어","tel":"","addr":"경기도 수원시 장안구 연무동 258-7번지 1층","category":"보건위생 - 미용원"}]},{"lat":"37.29420851","long":"127.02784002","items":[{"name":"나일구포차","tel":"031-248-3732","addr":"경기도 수원시 장안구 연무동 238-1번지 1층","category":"일반휴게음식 - 주점"},{"name":"나짬뽕이야","tel":"031-246-6433","addr":"경기도 수원시 장안구 연무동 238-1번지 충남종합집수리 1층 1호","category":"일반휴게음식 - 중국식"},{"name":"이케이엠케이(EKMK)","tel":"","addr":"경기도 수원시 장안구 연무동 238-1번지 EKMK","category":"의류 - 정장"},{"name":"큰집삼겹살","tel":"031-252-3474","addr":"경기도 수원시 장안구 연무동 238-1번지","category":"일반휴게음식 - 일반한식"}]},{"lat":"37.294704403","long":"127.02622743","items":[{"name":"남자여자옷파는집","tel":"031-246-8456","addr":"경기도 수원시 장안구 연무동 234-9번지","category":"의류 - 정장"},{"name":"실로암안경","tel":"031-255-0894","addr":"경기도 수원시 장안구 연무동 234-9번지","category":"보건위생 - 안경"}]},{"lat":"37.294982827","long":"127.03038911","items":[{"name":"남창슈퍼","tel":"031-241-3634","addr":"경기도 수원시 장안구 연무동 227-3번지","category":"유통업 영리 - 슈퍼마켓"}]},{"lat":"37.301397589","long":"127.03257957","items":[{"name":"내마음이머무르는곳","tel":"043-742-9268","addr":"경기도 수원시 장안구 연무동 4-23번지 2층","category":"일반휴게음식 - 서양음식"},{"name":"다모아식당","tel":"031-256-1013","addr":"경기도 수원시 장안구 연무동 4-23,반지하1층","category":"일반휴게음식 - 일반한식"},{"name":"숲속의집","tel":"031-246-3546","addr":"경기도 수원시 장안구 연무동 4-23번지 1층 지상 1층","category":"일반휴게음식 - 일반한식"}]},{"lat":"37.29446088","long":"127.02744537","items":[{"name":"네네치킨 연무점","tel":"031-257-0292","addr":"경기도 수원시 장안구 연무동 237-13번지 1층","category":"일반휴게음식 - 스넥"},{"name":"당돌한포차","tel":"031-257-0511","addr":"경기도 수원시 장안구 연무동 237-13번지 1층","category":"일반휴게음식 - 일반한식"}]},{"lat":"37.297983901","long":"127.02736757","items":[{"name":"노블레스","tel":"031-241-5111","addr":"경기도 수원시 장안구 연무동 14-12번지","category":"숙박업 - 여관/기타숙박업"}]},{"lat":"37.292397446","long":"127.02786197","items":[{"name":"뉴팡팡 노래연습장","tel":"031-1111-1111","addr":"경기도 수원시 장안구 연무동 247-47번지","category":"레저업소 - 노 래 방"},{"name":"언니쓰(언니''S)","tel":"031-234-0150","addr":"경기도 수원시 장안구 연무동 247-47번지 1층","category":"보건위생 - 피부미용실"},{"name":"한숟갈행복","tel":"031-243-8102","addr":"경기도 수원시 장안구 연무동 247-47번지","category":"일반휴게음식 - 일반한식"}]},{"lat":"37.294704081","long":"127.02780635","items":[{"name":"다음커피","tel":"031-215-6645","addr":"경기도 수원시 장안구 연무동 230-17번지 아래향 103호","category":"주방용구 - 주방용구"}]},{"lat":"37.292567983","long":"127.03080551","items":[{"name":"다정약국","tel":"031-256-3811","addr":"경기도 수원시 장안구 연무동 246-22번지","category":"약국 - 약국"},{"name":"수경수제만두","tel":"031-111-1111","addr":"경기도 수원시 장안구 연무동 246-22번지 1층","category":"일반휴게음식 - 일반한식"},{"name":"양희반찬가게","tel":"031-893-4425","addr":"경기도 수원시 장안구 연무동 246-22번지","category":"음료식품 - 기타음료식품"},{"name":"에스헤어","tel":"031-258-5550","addr":"경기도 수원시 장안구 연무동 246-22번지","category":"보건위생 - 미용원"},{"name":"연희떡방","tel":"031-251-5755","addr":"경기도 수원시 장안구 연무동 246-22번지","category":"음료식품 - 제과점"},{"name":"오케이모바일","tel":"031-292-5010","addr":"경기도 수원시 장안구 연무동 246-22번지 1층","category":"사무통신 - 통신기기"},{"name":"콘서트7080","tel":"031-254-1526","addr":"경기도 수원시 장안구 연무동 246-22번지 지하층","category":"일반휴게음식 - 주점"},{"name":"한빛한의원","tel":"031-241-1075","addr":"경기도 수원시 장안구 연무동 246-22번지 2층","category":"의원 - 한의원"}]},{"lat":"37.296731297","long":"127.02822431","items":[{"name":"단호박포차","tel":"031-242-9519","addr":"경기도 수원시 장안구 연무동 215-9번지 1층","category":"일반휴게음식 - 주점"},{"name":"투다리","tel":"031-213-6957","addr":"경기도 수원시 장안구 연무동 215-9번지 1층","category":"일반휴게음식 - 일반한식"},{"name":"팡팡 노래연습장","tel":"031-241-0983","addr":"경기도 수원시 장안구 연무동 215-9번지 지하층","category":"레저업소 - 노 래 방"}]},{"lat":"37.30128959","long":"127.03208325","items":[{"name":"담음인컵(IN CUP)","tel":"031-242-1113","addr":"경기도 수원시 장안구 연무동 4-24번지","category":"일반휴게음식 - 일반한식"},{"name":"토끼마을","tel":"031-245-0001","addr":"경기도 수원시 장안구 연무동 4-24번지","category":"일반휴게음식 - 일반한식"}]},{"lat":"37.290398076","long":"127.02311355","items":[{"name":"대광유통","tel":"031-246-2314","addr":"경기도 수원시 장안구 연무동 255-11번지","category":"주방용구 - 주방용구"}]},{"lat":"37.297875562","long":"127.02839387","items":[{"name":"대박포차","tel":"031-257-2324","addr":"경기도 수원시 장안구 연무동 21번지 유천프라자 115(나),115(다)호","category":"일반휴게음식 - 일반한식"},{"name":"돌쇠꽃삼겹살","tel":"031-256-4008","addr":"경기도 수원시 장안구 연무동 21번지 유천프라자 129호","category":"일반휴게음식 - 일반한식"},{"name":"로웰pc(경기대점-BHC)","tel":"031-304-0910","addr":"경기도 수원시 장안구 연무동 21번지 유천프라자상가 115가,115라","category":"레저업소 - 기타레져업소"},{"name":"바로그집","tel":"","addr":"경기도 수원시 장안구 연무동 21번지 유천프라자 1층115마호,115바호","category":"음료식품 - 정육점"},{"name":"바로그집","tel":"031-243-2277","addr":"경기도 수원시 장안구 연무동 21번지 유천프라자 1층 115(마,바)호","category":"일반휴게음식 - 일반한식"},{"name":"빅뱅도서대여점(연무점)","tel":"031-256-6017","addr":"경기도 수원시 장안구 연무동 21번지 유천프라자","category":"회원제형태 - 기타1"},{"name":"수아헤어","tel":"031-241-3285","addr":"경기도 수원시 장안구 연무동 21번지 유천프라자 124호","category":"보건위생 - 미용원"},{"name":"시골밥상","tel":"031-207-2505","addr":"경기도 수원시 장안구 연무동 21번지 유천 상가 127호 시골밥상","category":"일반휴게음식 - 일반한식"},{"name":"심청이네야식","tel":"031-246-0978","addr":"경기도 수원시 장안구 연무동 21번지 유천프라자 116호","category":"일반휴게음식 - 일반한식"},{"name":"정보문화사","tel":"031-206-9407","addr":"경기도 수원시 장안구 연무동 21번지 유천프라자 101호","category":"서적문구 - 출판 및 인쇄물"},{"name":"제부도식당","tel":"031-243-8319","addr":"경기도 수원시 장안구 연무동 21번지 유천프라자 123호","category":"일반휴게음식 - 일반한식"},{"name":"청아식당","tel":"031-246-0978","addr":"경기도 수원시 장안구 연무동 21번지 유천프라자 128호","category":"일반휴게음식 - 일반한식"},{"name":"한국보건복지평생교육원부설평강요양보호사","tel":"031-243-0242","addr":"경기도 수원시 장안구 연무동 21번지 유천프라자 214호","category":"회원제형태 - 학원"}]},{"lat":"37.29690254","long":"127.0279988","items":[{"name":"대신떡방앗간","tel":"031-248-6584","addr":"경기도 수원시 장안구 연무동 216-19번지","category":"음료식품 - 제과점"},{"name":"제주뒷고기집","tel":"031-247-0092","addr":"경기도 수원시 장안구 연무동 216-19번지","category":"일반휴게음식 - 일반한식"},{"name":"투데이","tel":"031-243-4000","addr":"경기도 수원시 장안구 연무동 216-19번지","category":"일반휴게음식 - 주점"}]},{"lat":"37.294460769","long":"127.02797544","items":[{"name":"대연떡방앗간","tel":"031-255-0240","addr":"경기도 수원시 장안구 연무동 229-32번지 1층","category":"음료식품 - 제과점"}]},{"lat":"37.292703273","long":"127.03021911","items":[{"name":"대영열쇠","tel":"031-255-1455","addr":"경기도 수원시 장안구 연무동 246-7번지","category":"수리서비스 - 가정용품수리"}]},{"lat":"37.295371139","long":"127.02634041","items":[{"name":"대왕만두","tel":"031-242-5315","addr":"경기도 수원시 장안구 연무동 233-14번지","category":"일반휴게음식 - 스넥"},{"name":"우리농산물","tel":"031-251-1811","addr":"경기도 수원시 장안구 연무동 233-14번지 1층","category":"음료식품 - 미곡상"}]},{"lat":"37.29220922","long":"127.02261782","items":[{"name":"대일상사","tel":"031-245-8360","addr":"경기도 수원시 장안구 연무동 253-17번지","category":"신변잡화 - 기타잡화"}]},{"lat":"37.29462325","long":"127.02653191","items":[{"name":"대포햇도그연무점","tel":"031-242-6307","addr":"경기도 수원시 장안구 연무동 237-24번지 1층","category":"일반휴게음식 - 일반한식"},{"name":"명지보석","tel":"031-257-3628","addr":"경기도 수원시 장안구 연무동 237-24번지","category":"신변잡화 - 시계"}]},{"lat":"37.293794706","long":"127.02444524","items":[{"name":"더 푸짐한 해장국","tel":"031-245-8853","addr":"경기도 수원시 장안구 연무동 251-10번지","category":"일반휴게음식 - 일반한식"},{"name":"오토카서비스","tel":"031-245-5782","addr":"경기도 수원시 장안구 연무동 251-10번지","category":"자동차정비 유지 - 자동차정비"}]},{"lat":"37.294405947","long":"127.03133625","items":[{"name":"더원냉난방","tel":"031-244-5140","addr":"경기도 수원시 장안구 연무동 225-10번지","category":"용역 서비스 - 기타용역서비스"}]},{"lat":"37.29637057","long":"127.02966781","items":[{"name":"더인","tel":"031-8025-2616","addr":"경기도 수원시 장안구 연무동 214-3번지 1층","category":"일반휴게음식 - 일반한식"},{"name":"이지수헤어시티","tel":"031-235-4694","addr":"경기도 수원시 장안구 연무동 214-3번지 이지수헤어시티","category":"보건위생 - 미용원"}]},{"lat":"37.297902758","long":"127.02761567","items":[{"name":"더커피비움","tel":"031-243-0888","addr":"경기도 수원시 장안구 연무동 18-5번지 1층","category":"일반휴게음식 - 서양음식"}]},{"lat":"37.296956075","long":"127.03036727","items":[{"name":"덕천전기","tel":"031-252-6302","addr":"경기도 수원시 장안구 연무동 56-109","category":"수리서비스 - 가정용품수리"}]},{"lat":"37.289930001","long":"127.02022644","items":[{"name":"도담","tel":"","addr":"경기도 수원시 장안구 연무동 187-29번지","category":"보건위생 - 기타대인서비스"}]},{"lat":"37.292181259","long":"127.02757996","items":[{"name":"도미노연예기획","tel":"031-258-6322","addr":"경기도 수원시 장안구 연무동 260-17번지 1층","category":"회원제형태 - 기타1"}]},{"lat":"37.297208646","long":"127.02911546","items":[{"name":"돈야곱","tel":"031-252-2250","addr":"경기도 수원시 장안구 연무동 213-5번지 1층","category":"일반휴게음식 - 일반한식"}]},{"lat":"37.296289516","long":"127.02949861","items":[{"name":"동네마트","tel":"031-246-7078","addr":"경기도 수원시 장안구 연무동 215-24번지 1층","category":"유통업 영리 - 슈퍼마켓"}]},{"lat":"37.293235962","long":"127.02503153","items":[{"name":"동명종합인테리어","tel":"070-7536-0041","addr":"경기도 수원시 장안구 연무동 258-1번지 1층","category":"건축자재 - 인테리어전문"}]},{"lat":"37.293370737","long":"127.02697135","items":[{"name":"동보건강원","tel":"031-207-2118","addr":"경기도 수원시 장안구 연무동 248번지 1층","category":"건강식품 - 기타건강식품"}]},{"lat":"37.296928531","long":"127.03249887","items":[{"name":"동서TNC","tel":"","addr":"경기도 수원시 장안구 연무동 61-116번지","category":"음료식품 - 기타음료식품"}]},{"lat":"37.294514847","long":"127.02789651","items":[{"name":"동시대화실","tel":"031-246-9766","addr":"경기도 수원시 장안구 연무동 229-33번지 2층","category":"학원 - 예·체능계학원"},{"name":"엠케이","tel":"031-258-6668","addr":"경기도 수원시 장안구 연무동 229-33번지","category":"사무통신 - 통신기기"}]},{"lat":"37.292675784","long":"127.03213631","items":[{"name":"동신식당","tel":"031-244-9626","addr":"경기도 수원시 장안구 연무동 245-39번지","category":"일반휴게음식 - 일반한식"},{"name":"아토시스템","tel":"","addr":"경기도 수원시 장안구 연무동 245-39번지 지층","category":"신변잡화 - 기타잡화"},{"name":"연무청운독서실","tel":"031-248-3776","addr":"경기도 수원시 장안구 연무동 245-39번지 2층,3층","category":"학원 - 독서실"}]},{"lat":"37.292711707","long":"127.03260999","items":[{"name":"동신카센타","tel":"031-251-5800","addr":"경기도 수원시 장안구 연무동 245-17번지","category":"자동차정비 유지 - 자동차정비"},{"name":"뜰9","tel":"031-308-4521","addr":"경기도 수원시 장안구 연무동 245-17번지 A동 1층","category":"일반휴게음식 - 일반한식"},{"name":"주식회사 하이온코리아","tel":"031-216-2268","addr":"경기도 수원시 장안구 연무동 245-17번지","category":"건축자재 - 페인트"}]},{"lat":"37.297235199","long":"127.03119069","items":[{"name":"동일플라트","tel":"031-296-9564","addr":"경기도 수원시 장안구 연무동 56-43번지","category":"건축자재 - 인테리어전문"}]},{"lat":"37.292873892","long":"127.03261005","items":[{"name":"동태찌게유명한집","tel":"031-253-6265","addr":"경기도 수원시 장안구 연무동 245-15번지 1층","category":"일반휴게음식 - 일반한식"}]},{"lat":"37.292704368","long":"127.02497499","items":[{"name":"돼지유통","tel":"","addr":"경기도 수원시 장안구 연무동 258-26번지 지층","category":"음료식품 - 농·축·수산품"}]},{"lat":"37.293677496","long":"127.02486249","items":[{"name":"두루(DuRu)","tel":"031-309-8122","addr":"경기도 수원시 장안구 연무동 251-15번지 1층","category":"의류 - 정장"},{"name":"멋진연희네전집","tel":"031-243-0348","addr":"경기도 수원시 장안구 연무동 251-15번지","category":"일반휴게음식 - 일반한식"},{"name":"팍스에듀케이션","tel":"070-8946-8125","addr":"경기도 수원시 장안구 연무동 251-15번지 외2필지 2층","category":"회원제형태 - 학원"},{"name":"현대오토바이","tel":"031-254-5911","addr":"경기도 수원시 장안구 연무동 251-15번지","category":"자동차판매 - 이륜차판매"}]},{"lat":"37.292648684","long":"127.03241825","items":[{"name":"두손광고기획","tel":"031-241-3366","addr":"경기도 수원시 장안구 연무동 245-20번지 1층","category":"건축자재 - 인테리어전문"},{"name":"효림치과기공소","tel":"031-252-9486","addr":"경기도 수원시 장안구 연무동 245-20번지","category":"기타의료기관 - 기타의료기관 및 기타"}]},{"lat":"37.297316836","long":"127.02881099","items":[{"name":"디디치킨경기대점","tel":"031-257-4908","addr":"경기도 수원시 장안구 연무동 213-2번지 1층","category":"일반휴게음식 - 스넥"},{"name":"딸기스낵","tel":"02-000-0000","addr":"경기도 수원시 장안구 연무동 213-2번지 1층","category":"일반휴게음식 - 일반한식"},{"name":"타코랜드타코야끼","tel":"031-895-5523","addr":"경기도 수원시 장안구 연무동 213-2번지 1층","category":"일반휴게음식 - 일반한식"},{"name":"토토노래연습장","tel":"031-242-5308","addr":"경기도 수원시 장안구 연무동 213-2번지","category":"레저업소 - 노 래 방"}]},{"lat":"37.297154966","long":"127.02733346","items":[{"name":"디엠코리아","tel":"070-8861-0575","addr":"경기도 수원시 장안구 연무동 216-6번지","category":"레져용품 - 스포츠·레져용품"}]},{"lat":"37.294623115","long":"127.02719731","items":[{"name":"디지탈사진실","tel":"031-241-4774","addr":"경기도 수원시 장안구 연무동 237-10번지","category":"광학제품 - 사진관"}]},{"lat":"37.299208675","long":"127.03019891","items":[{"name":"디테일","tel":"02-2207-2787","addr":"경기도 수원시 장안구 연무동 7-18번지 102(102호~102호)","category":"용역 서비스 - 사무서비스"}]},{"lat":"37.297425081","long":"127.0282471","items":[{"name":"땅땅치킨(수원경기대점)","tel":"031-242-9235","addr":"경기도 수원시 장안구 연무동 212-14번지","category":"일반휴게음식 - 스넥"},{"name":"세븐당구클럽","tel":"031-252-9880","addr":"경기도 수원시 장안구 연무동 212-14번지 2층","category":"레저업소 - 당 구 장"},{"name":"순우리축산물정육점","tel":"031-246-3399","addr":"경기도 수원시 장안구 연무동 212-14번지","category":"음료식품 - 정육점"},{"name":"순우리한우마을","tel":"031-246-3399","addr":"경기도 수원시 장안구 연무동 212-14번지 1층","category":"일반휴게음식 - 일반한식"},{"name":"쓰리팝피시(3 POP PC)","tel":"070-8768-7317","addr":"경기도 수원시 장안구 연무동 212-14번지 3층","category":"레저업소 - 기타레져업소"}]},{"lat":"37.292648949","long":"127.03133559","items":[{"name":"떳다노래연습장","tel":"031-256-2991","addr":"경기도 수원시 장안구 연무동 245-31번지","category":"레저업소 - 노 래 방"},{"name":"미르통신","tel":"070-4384-4442","addr":"경기도 수원시 장안구 연무동 245-31번지","category":"사무통신 - 통신기기"},{"name":"삼부자순대국감자탕","tel":"031-243-8088","addr":"경기도 수원시 장안구 연무동 245-31번지","category":"일반휴게음식 - 일반한식"}]},{"lat":"37.29348826","long":"127.02497521","items":[{"name":"또래마을","tel":"031-253-9773","addr":"경기도 수원시 장안구 연무동 251-25번지","category":"일반휴게음식 - 일반한식"},{"name":"멀티크리닝","tel":"031-254-6445","addr":"경기도 수원시 장안구 연무동 251-25번지","category":"수리서비스 - 세탁소"}]},{"lat":"37.295235942","long":"127.02655466","items":[{"name":"또와","tel":"031-252-7717","addr":"경기도 수원시 장안구 연무동 233-9번지","category":"보건위생 - 미용원"},{"name":"러이버빈티지","tel":"031-253-5521","addr":"경기도 수원시 장안구 연무동 233-9번지 1층","category":"의류 - 정장"},{"name":"무아건업","tel":"031-241-7239","addr":"경기도 수원시 장안구 연무동 233-9번지 연무상가 24/1호","category":"용역 서비스 - 기타용역서비스"},{"name":"수원액자","tel":"031-245-4860","addr":"경기도 수원시 장안구 연무동 233-9번지","category":"문화.취미 - 화방·표구점"}]},{"lat":"37.292594794","long":"127.03171901","items":[{"name":"롯데리아 수원연무점","tel":"031-253-3389","addr":"경기도 수원시 장안구 연무동 245-33번지","category":"일반휴게음식 - 서양음식"},{"name":"조은의료기","tel":"031-241-9006","addr":"경기도 수원시 장안구 연무동 245-33번지 3동","category":"보건위생 - 의료용품"}]},{"lat":"37.296848418","long":"127.02828074","items":[{"name":"루디아의상실","tel":"031-245-2682","addr":"경기도 수원시 장안구 연무동 215번지","category":"수리서비스 - 세탁소"},{"name":"명품뼈다귀감자탕","tel":"031-217-9823","addr":"경기도 수원시 장안구 연무동 215번지 1층","category":"일반휴게음식 - 일반한식"}]},{"lat":"37.292820903","long":"127.02797489","items":[{"name":"리디자인골프","tel":"","addr":"경기도 수원시 장안구 연무동 248-15번지 3동 302호","category":"레저업소 - 골프연습장"}]},{"lat":"37.296181836","long":"127.02744593","items":[{"name":"리라어린이집[아이행복]","tel":"031-242-7411","addr":"경기도 수원시 장안구 연무동 217-21번지","category":"학원 - 유아원"}]},{"lat":"37.288281039","long":"127.02080119","items":[{"name":"릿츄 플라워(ritchu flower)","tel":"031-000-0000","addr":"경기도 수원시 장안구 연무동 193-200번지 화홍연립 마동 105호","category":"문화.취미 - 화원"}]},{"lat":"37.294091728","long":"127.02611446","items":[{"name":"마당발","tel":"031-243-0338","addr":"경기도 수원시 장안구 연무동 236-37번지 대우전자대리점 1층 5호","category":"신변잡화 - 신발"},{"name":"아울렛D.C백화점","tel":"031-257-0900","addr":"경기도 수원시 장안구 연무동 236-37번지","category":"유통업 영리 - 슈퍼마켓"},{"name":"중앙순대국","tel":"","addr":"경기도 수원시 장안구 연무동 236-37번지 대우전자대리점 1층 3호","category":"일반휴게음식 - 일반한식"},{"name":"홍두깨칼국수","tel":"031-548-2265","addr":"경기도 수원시 장안구 연무동 236-37번지 대우전자대리점 1층 2호","category":"일반휴게음식 - 일반한식"}]},{"lat":"37.298929427","long":"127.02989429","items":[{"name":"만다린","tel":"031-241-6312","addr":"경기도 수원시 장안구 연무동 8-9번지 팔복빌딩 1층 2호","category":"일반휴게음식 - 중국식"},{"name":"질러넷노래연습장","tel":"031-254-3937","addr":"경기도 수원시 장안구 연무동 8-9번지 팔복빌딩 지층","category":"레저업소 - 노 래 방"},{"name":"포커스당구장","tel":"031-244-3979","addr":"경기도 수원시 장안구 연무동 8-9","category":"레저업소 - 당 구 장"}]},{"lat":"37.298262529","long":"127.03050309","items":[{"name":"만호종합상사","tel":"031-242-6696","addr":"경기도 수원시 장안구 연무동 60-5번지 동문맨션 301호","category":"용역 서비스 - 기타용역서비스"}]},{"lat":"37.293317039","long":"127.0251105","items":[{"name":"매일광고사","tel":"031-254-9751","addr":"경기도 수원시 장안구 연무동 258-2번지","category":"용역 서비스 - 종합용역"}]},{"lat":"37.293955948","long":"127.02911434","items":[{"name":"머리이야기 미니(mini)","tel":"031-326-3285","addr":"경기도 수원시 장안구 연무동 228-13번지","category":"보건위생 - 미용원"},{"name":"오묘","tel":"070-8883-7111","addr":"경기도 수원시 장안구 연무동 228-13번지 1층 104호","category":"일반휴게음식 - 일반한식"},{"name":"촌딱","tel":"031-244-7937","addr":"경기도 수원시 장안구 연무동 228-13번지 104호","category":"일반휴게음식 - 일반한식"},{"name":"크린토피아 수원창용중학교점","tel":"031-252-0787","addr":"경기도 수원시 장안구 연무동 228-13번지 103호","category":"수리서비스 - 세탁소"}]},{"lat":"37.297235343","long":"127.03058166","items":[{"name":"메리케이화장품","tel":"031-254-2446","addr":"경기도 수원시 장안구 연무동 56-86번지","category":"보건위생 - 화장품"}]},{"lat":"37.292181116","long":"127.02825662","items":[{"name":"메타영수학원","tel":"031-252-0560","addr":"경기도 수원시 장안구 연무동 247-27번지 2층","category":"학원 - 보습학원"}]},{"lat":"37.294794275","long":"127.02736653","items":[{"name":"멸치국수","tel":"031-245-3032","addr":"경기도 수원시 장안구 연무동 230-26번지 1층","category":"일반휴게음식 - 일반한식"}]},{"lat":"37.294875564","long":"127.02639665","items":[{"name":"명가족발","tel":"031-890-9191","addr":"경기도 수원시 장안구 연무동 234-7번지 1층","category":"일반휴게음식 - 일반한식"}]},{"lat":"37.298731088","long":"127.03039047","items":[{"name":"명동빈대떡","tel":"031-243-3790","addr":"경기도 수원시 장안구 연무동 7-16번지","category":"일반휴게음식 - 일반한식"}]},{"lat":"37.294459921","long":"127.03169716","items":[{"name":"명랑서비스","tel":"031-256-3877","addr":"경기도 수원시 장안구 연무동 225-7번지 1층","category":"용역 서비스 - 종합용역"}]},{"lat":"37.297064237","long":"127.03019814","items":[{"name":"명성약국","tel":"031-268-5875","addr":"경기도 수원시 장안구 연무동 56-118번지","category":"약국 - 약국"}]},{"lat":"37.295875535","long":"127.02722027","items":[{"name":"명열쇠금고","tel":"031-269-1959","addr":"경기도 수원시 장안구 연무동 232-15번지 1층","category":"수리서비스 - 기타수리서비스"},{"name":"카페도피오","tel":"070-8818-3781","addr":"경기도 수원시 장안구 연무동 232-15번지","category":"일반휴게음식 - 서양음식"},{"name":"해맑은세종스튜디오","tel":"031-252-2083","addr":"경기도 수원시 장안구 연무동 232-15번지","category":"광학제품 - 사진관"},{"name":"형제닭집","tel":"031-255-3533","addr":"경기도 수원시 장안구 연무동 232-15번지","category":"음료식품 - 정육점"}]},{"lat":"37.294677114","long":"127.02750183","items":[{"name":"명지주물럭","tel":"031-251-6777","addr":"경기도 수원시 장안구 연무동 230-22번지","category":"일반휴게음식 - 일반한식"},{"name":"인블룸","tel":"031-308-3377","addr":"경기도 수원시 장안구 연무동 230-22번지 1층","category":"문화.취미 - 문화취미기타"}]},{"lat":"37.295100118","long":"127.02970119","items":[{"name":"모아공인중개사사무소","tel":"031-241-3003","addr":"경기도 수원시 장안구 연무동 219-19번지 1층 3호","category":"용역 서비스 - 부동산 중개·임대"}]},{"lat":"37.298785657","long":"127.02811222","items":[{"name":"모텔코지","tel":"031-244-0018","addr":"경기도 수원시 장안구 연무동 12-4번지","category":"숙박업 - 여관/기타숙박업"}]},{"lat":"37.293956541","long":"127.02628359","items":[{"name":"목포생선","tel":"031-256-6856","addr":"경기도 수원시 장안구 연무동 236-35번지","category":"일반휴게음식 - 일반한식"},{"name":"빛나미용실","tel":"031-247-5098","addr":"경기도 수원시 장안구 연무동 236-35번지","category":"보건위생 - 미용원"}]},{"lat":"37.29379466","long":"127.02469336","items":[{"name":"무지개종합상사","tel":"031-246-8090","addr":"경기도 수원시 장안구 연무동 251-13번지","category":"건축자재 - 건축용 요업제품"},{"name":"세움학원","tel":"031-253-0979","addr":"경기도 수원시 장안구 연무동 251-13번지 2층","category":"학원 - 보습학원"},{"name":"장진배기","tel":"031-246-5798","addr":"경기도 수원시 장안구 연무동 251-13번지","category":"일반휴게음식 - 일반한식"}]},{"lat":"37.298154585","long":"127.02972483","items":[{"name":"미니스톱수원연무２점","tel":"031-255-6019","addr":"경기도 수원시 장안구 연무동 11-16번지","category":"유통업 영리 - 편 의 점"},{"name":"서경디자인","tel":"031-247-8879","addr":"경기도 수원시 장안구 연무동 11-16번지","category":"건축자재 - 인테리어전문"}]},{"lat":"37.292820203","long":"127.03108754","items":[{"name":"미래","tel":"","addr":"경기도 수원시 장안구 연무동 245-1번지 202호","category":"용역 서비스 - 종합용역"},{"name":"옛날통닭","tel":"031-235-3225","addr":"경기도 수원시 장안구 연무동 245-1번지","category":"일반휴게음식 - 스넥"},{"name":"짱노래연습장","tel":"031-253-0260","addr":"경기도 수원시 장안구 연무동 245-1번지 지하","category":"레저업소 - 노 래 방"}]},{"lat":"37.294740558","long":"127.02564098","items":[{"name":"미래공조","tel":"02-1111-1111","addr":"경기도 수원시 장안구 연무동 235-11번지 연무빌라 라동 301호","category":"용역 서비스 - 기타용역서비스"}]},{"lat":"37.290704546","long":"127.02239188","items":[{"name":"미래학원","tel":"031-248-1332","addr":"경기도 수원시 장안구 연무동 255-15번지","category":"학원 - 예·체능계학원"}]},{"lat":"37.291317211","long":"127.02258375","items":[{"name":"미리내마트","tel":"","addr":"경기도 수원시 장안구 연무동 253-35번지 1층","category":"유통업 영리 - 슈퍼마켓"}]},{"lat":"37.29753296","long":"127.0293637","items":[{"name":"미스터","tel":"031-247-1994","addr":"경기도 수원시 장안구 연무동 25번지 황토분식 B동 102호","category":"일반휴게음식 - 스넥"},{"name":"신세계축산","tel":"031-246-6689","addr":"경기도 수원시 장안구 연무동 25번지 황토분식 B동 101호","category":"음료식품 - 정육점"}]},{"lat":"37.294794372","long":"127.02689286","items":[{"name":"미트뱅크","tel":"031-244-7090","addr":"경기도 수원시 장안구 연무동 237-1번지","category":"음료식품 - 정육점"}]},{"lat":"37.296649748","long":"127.03027693","items":[{"name":"미화커텐이불","tel":"031-242-7445","addr":"경기도 수원시 장안구 연무동 56-123번지","category":"직물 - 침구·수예점"}]},{"lat":"37.294398039","long":"127.02630628","items":[{"name":"밀각시베이커리","tel":"031-253-4908","addr":"경기도 수원시 장안구 연무동 236번지","category":"음료식품 - 제과점"},{"name":"시장포차","tel":"031-223-9159","addr":"경기도 수원시 장안구 연무동 236번지 1층","category":"일반휴게음식 - 일반한식"},{"name":"쎄이노래연습장","tel":"031-256-0711","addr":"경기도 수원시 장안구 연무동 236번지 지하","category":"레저업소 - 노 래 방"},{"name":"연무상회","tel":"031-242-5178","addr":"경기도 수원시 장안구 연무동 236번지","category":"음료식품 - 미곡상"}]},{"lat":"37.295181858","long":"127.02666742","items":[{"name":"밀라노","tel":"031-257-7848","addr":"경기도 수원시 장안구 연무동 233-8번지","category":"의류 - 기타의류"},{"name":"언더웨어","tel":"031-256-5513","addr":"경기도 수원시 장안구 연무동 233-8번지","category":"의류 - 내의판매"},{"name":"연무모아방","tel":"031-251-0377","addr":"경기도 수원시 장안구 연무동 233-8번지","category":"의류 - 아동의류"},{"name":"제일사","tel":"031-252-2110","addr":"경기도 수원시 장안구 연무동 233-8번지","category":"의류 - 정장"},{"name":"행운보석","tel":"031-258-4944","addr":"경기도 수원시 장안구 연무동 233-8번지","category":"신변잡화 - 액세서리"},{"name":"화동꽃집","tel":"031-254-9548","addr":"경기도 수원시 장안구 연무동 233-8번지","category":"문화.취미 - 화원"}]},{"lat":"37.296433494","long":"127.03031069","items":[{"name":"바다양푼이동태탕","tel":"031-258-9943","addr":"경기도 수원시 장안구 연무동 73-6번지","category":"일반휴게음식 - 일반한식"}]},{"lat":"37.297740623","long":"127.02737877","items":[{"name":"바다횟집","tel":"031-256-8836","addr":"경기도 수원시 장안구 연무동 212-2번지 동산연립 1동 131호","category":"일반휴게음식 - 일반한식"}]},{"lat":"37.297731185","long":"127.02936377","items":[{"name":"바로이족발","tel":"031-253-8933","addr":"경기도 수원시 장안구 연무동 23-4번지 연무연립 104호","category":"일반휴게음식 - 일반한식"},{"name":"탕이랑구이랑","tel":"031-255-8892","addr":"경기도 수원시 장안구 연무동 23-4번지 3 (24-31층)","category":"일반휴게음식 - 일반한식"},{"name":"해송","tel":"031-245-9192","addr":"경기도 수원시 장안구 연무동 23-4번지 외1필지 1층 3호","category":"일반휴게음식 - 일반한식"}]},{"lat":"37.29018208","long":"127.02159105","items":[{"name":"바른상사","tel":"031-111-1111","addr":"경기도 수원시 장안구 연무동 173-35번지 201호","category":"유통업 영리 - 기타유통업"}]},{"lat":"37.293415353","long":"127.02902393","items":[{"name":"박사","tel":"031-257-5883","addr":"경기도 수원시 장안구 연무동 238-19번지 한라연립 다동 105호","category":"일반휴게음식 - 중국식"}]},{"lat":"37.292513979","long":"127.03055738","items":[{"name":"밥맛나는세상","tel":"031-241-1038","addr":"경기도 수원시 장안구 연무동 246-23번지","category":"일반휴게음식 - 스넥"},{"name":"아모레 광교특약점","tel":"031-248-7657","addr":"경기도 수원시 장안구 연무동 246-23번지 4층","category":"보건위생 - 화장품"},{"name":"아모레 카운셀러","tel":"031-248-7657","addr":"경기도 수원시 장안구 연무동 246-23번지 평해빌딩 4층","category":"보건위생 - 화장품"},{"name":"아모레 카운셀러","tel":"031-248-7657","addr":"경기도 수원시 장안구 연무동 246-23번지 4층","category":"보건위생 - 화장품"},{"name":"아모레 카운셀러","tel":"031-248-7657","addr":"경기도 수원시 장안구 연무동 246-23번지 4층","category":"보건위생 - 화장품"},{"name":"아모레 카운셀러","tel":"031-248-7657","addr":"경기도 수원시 장안구 연무동 246-23번지 4층","category":"보건위생 - 화장품"},{"name":"아모레 카운셀러","tel":"031-248-7657","addr":"경기도 수원시 장안구 연무동 246-23번지 4층","category":"보건위생 - 화장품"},{"name":"아모레외판원","tel":"031-248-7657","addr":"경기도 수원시 장안구 연무동 246-23번지","category":"보건위생 - 화장품"},{"name":"아모레외판원","tel":"031-248-7657","addr":"경기도 수원시 장안구 연무동 246-23번지 평해빌딩 4층","category":"보건위생 - 화장품"},{"name":"아모레외판원","tel":"031-248-7657","addr":"경기도 수원시 장안구 연무동 246-23번지 평해빌딩 4층","category":"보건위생 - 화장품"},{"name":"아모레외판원","tel":"031-248-7657","addr":"경기도 수원시 장안구 연무동 246-23번지 평해빌딩 4층","category":"보건위생 - 화장품"},{"name":"아모레카운셀러","tel":"031-248-7657","addr":"경기도 수원시 장안구 연무동 246-23번지 평해빌딩 4층","category":"보건위생 - 화장품"},{"name":"아모레카운셀러","tel":"031-248-7657","addr":"경기도 수원시 장안구 연무동 246-23번지 4층","category":"보건위생 - 화장품"},{"name":"아모레카운셀러","tel":"031-248-7657","addr":"경기도 수원시 장안구 연무동 246-23번지 평해빌딩 4층","category":"보건위생 - 화장품"},{"name":"아모레카운셀러","tel":"031-248-7657","addr":"경기도 수원시 장안구 연무동 246-23번지 평해빌딩 4층","category":"보건위생 - 화장품"},{"name":"아모레카운셀러","tel":"031-248-7657","addr":"경기도 수원시 장안구 연무동 246-23번지 4층","category":"보건위생 - 화장품"},{"name":"아모레카운셀러","tel":"031-248-7657","addr":"경기도 수원시 장안구 연무동 246-23번지 4층","category":"보건위생 - 화장품"},{"name":"아모레카운셀러","tel":"031-248-7657","addr":"경기도 수원시 장안구 연무동 246-23번지 4층","category":"보건위생 - 화장품"},{"name":"아모레카운셀러","tel":"031-248-7657","addr":"경기도 수원시 장안구 연무동 246-23번지 4층","category":"보건위생 - 화장품"},{"name":"아모레카운셀러","tel":"031-248-7657","addr":"경기도 수원시 장안구 연무동 246-23번지 4층","category":"보건위생 - 화장품"},{"name":"아모레카운셀러","tel":"031-248-7657","addr":"경기도 수원시 장안구 연무동 246-23번지 4층","category":"보건위생 - 화장품"},{"name":"아모레카운셀러","tel":"031-248-7657","addr":"경기도 수원시 장안구 연무동 246-23번지 평해빌딩 4층","category":"보건위생 - 화장품"},{"name":"아모레카운셀러","tel":"031-248-7657","addr":"경기도 수원시 장안구 연무동 246-23번지 평해빌딩 4층","category":"보건위생 - 화장품"},{"name":"아모레카운셀러","tel":"031-248-7657","addr":"경기도 수원시 장안구 연무동 246-23번지 4층","category":"보건위생 - 화장품"},{"name":"아모레카운셀러","tel":"031-248-7657","addr":"경기도 수원시 장안구 연무동 246-23번지 평해빌딩 4층","category":"보건위생 - 화장품"},{"name":"아모레카운셀러","tel":"031-248-7657","addr":"경기도 수원시 장안구 연무동 246-23번지 4층","category":"보건위생 - 화장품"},{"name":"아모레카운셀러","tel":"031-248-7657","addr":"경기도 수원시 장안구 연무동 246-23번지 평해빌딩 4층","category":"보건위생 - 화장품"},{"name":"아모레카운셀러","tel":"031-248-7657","addr":"경기도 수원시 장안구 연무동 246-23번지 4층","category":"보건위생 - 화장품"},{"name":"아모레카운셀러","tel":"031-248-7657","addr":"경기도 수원시 장안구 연무동 246-23번지 4층","category":"보건위생 - 화장품"},{"name":"아모레카운셀러","tel":"031-248-7657","addr":"경기도 수원시 장안구 연무동 246-23번지 4층","category":"보건위생 - 화장품"},{"name":"아모레카운셀러","tel":"031-248-7657","addr":"경기도 수원시 장안구 연무동 246-23번지 4층","category":"보건위생 - 화장품"},{"name":"아모레카운셀러","tel":"031-248-7657","addr":"경기도 수원시 장안구 연무동 246-23번지 평해빌딩 4층","category":"보건위생 - 화장품"},{"name":"아모레카운셀러","tel":"031-248-7657","addr":"경기도 수원시 장안구 연무동 246-23번지 4층","category":"보건위생 - 화장품"},{"name":"아모레카운셀러","tel":"031-248-7657","addr":"경기도 수원시 장안구 연무동 246-23번지 평해빌딩 4층","category":"보건위생 - 화장품"},{"name":"아모레카운셀러","tel":"031-248-7657","addr":"경기도 수원시 장안구 연무동 246-23번지 평해빌딩 4층","category":"보건위생 - 화장품"},{"name":"아모레카운셀러","tel":"031-248-7657","addr":"경기도 수원시 장안구 연무동 246-23번지 평해빌딩 4층","category":"보건위생 - 화장품"},{"name":"아모레카운셀러","tel":"031-248-7657","addr":"경기도 수원시 장안구 연무동 246-23번지 4층","category":"보건위생 - 화장품"},{"name":"아모레카운셀러","tel":"031-248-7657","addr":"경기도 수원시 장안구 연무동 246-23번지 4층","category":"보건위생 - 화장품"},{"name":"아모레카운셀러","tel":"031-248-7657","addr":"경기도 수원시 장안구 연무동 246-23번지 평해빌딩 4층","category":"보건위생 - 화장품"},{"name":"아모레카운셀러","tel":"031-248-7658","addr":"경기도 수원시 장안구 연무동 246-23번지 4층","category":"보건위생 - 화장품"},{"name":"아모레카운셀러","tel":"031-248-7657","addr":"경기도 수원시 장안구 연무동 246-23번지 평해빌딩 4층","category":"보건위생 - 화장품"},{"name":"아모레카운셀러","tel":"031-248-7657","addr":"경기도 수원시 장안구 연무동 246-23번지 4층","category":"보건위생 - 화장품"},{"name":"아모레카운셀러","tel":"031-248-7657","addr":"경기도 수원시 장안구 연무동 246-23번지 4층","category":"보건위생 - 화장품"},{"name":"아모레카운셀러","tel":"031-248-7657","addr":"경기도 수원시 장안구 연무동 246-23번지 4층","category":"보건위생 - 화장품"},{"name":"아모레카운셀러","tel":"031-248-7657","addr":"경기도 수원시 장안구 연무동 246-23번지 4층","category":"보건위생 - 화장품"},{"name":"아모레카운셀러","tel":"031-248-7657","addr":"경기도 수원시 장안구 연무동 246-23번지 4층","category":"보건위생 - 화장품"},{"name":"아모레퍼시픽","tel":"031-248-7654","addr":"경기도 수원시 장안구 연무동 246-23번지 4층","category":"보건위생 - 화장품"},{"name":"아모레퍼시픽","tel":"031-248-7657","addr":"경기도 수원시 장안구 연무동 246-23번지 4층","category":"보건위생 - 화장품"},{"name":"아모레퍼시픽 방문판매","tel":"031-248-7657","addr":"경기도 수원시 장안구 연무동 246-23번지 4층","category":"보건위생 - 화장품"},{"name":"아모레퍼시픽 방판","tel":"031-248-7657","addr":"경기도 수원시 장안구 연무동 246-23번지 4층","category":"보건위생 - 화장품"},{"name":"아모레퍼시픽 카운셀러","tel":"031-248-7657","addr":"경기도 수원시 장안구 연무동 246-23번지 4층","category":"보건위생 - 화장품"},{"name":"아모레퍼시픽광교영업소","tel":"031-248-7657","addr":"경기도 수원시 장안구 연무동 246-23번지 평해빌딩 4층","category":"보건위생 - 화장품"},{"name":"한마음내과","tel":"031-251-5375","addr":"경기도 수원시 장안구 연무동 246-23번지 세브란스의원 2층 1호","category":"의원 - 의원"}]},{"lat":"37.293983136","long":"127.02839256","items":[{"name":"백현숙의어성초사랑","tel":"031-243-5432","addr":"경기도 수원시 장안구 연무동 238-8번지","category":"음료식품 - 농·축·수산품"}]},{"lat":"37.288100911","long":"127.0202824","items":[{"name":"버드커피브루어스 (birdcoffeebrewers)","tel":"031-242-1015","addr":"경기도 수원시 장안구 연무동 193-234번지 1층","category":"일반휴게음식 - 서양음식"}]},{"lat":"37.293398089","long":"127.02533608","items":[{"name":"베스트통신","tel":"031-255-9990","addr":"경기도 수원시 장안구 연무동 258-5번지 1층","category":"사무통신 - 통신기기"}]},{"lat":"37.295010584","long":"127.0270621","items":[{"name":"벨리타헤어","tel":"031-224-5575","addr":"경기도 수원시 장안구 연무동 230-31번지","category":"보건위생 - 미용원"},{"name":"부연상회","tel":"031-257-2367","addr":"경기도 수원시 장안구 연무동 230-31번지","category":"의류 - 정장"}]},{"lat":"37.297343928","long":"127.02852903","items":[{"name":"보거스치킨","tel":"031-243-3392","addr":"경기도 수원시 장안구 연무동 213번지","category":"일반휴게음식 - 일반한식"},{"name":"불로청송얼음골막걸리","tel":"031-223-5214","addr":"경기도 수원시 장안구 연무동 213번지","category":"일반휴게음식 - 주점"},{"name":"킹PC","tel":"070-8816-1183","addr":"경기도 수원시 장안구 연무동 213번지","category":"레저업소 - 기타레져업소"}]},{"lat":"37.293208404","long":"127.02769308","items":[{"name":"보마드","tel":"031-246-8886","addr":"경기도 수원시 장안구 연무동 239-33","category":"용역 서비스 - 종합용역"}]},{"lat":"37.292982409","long":"127.03099738","items":[{"name":"보보스분식","tel":"031-257-8805","addr":"경기도 수원시 장안구 연무동 245-49번지 송원빌딩 1층","category":"일반휴게음식 - 스넥"},{"name":"불나비 노래연습장","tel":"031-251-3255","addr":"경기도 수원시 장안구 연무동 245-49번지 송원빌딩 지하1층","category":"레저업소 - 노 래 방"},{"name":"함지박부페","tel":"031-256-2323","addr":"경기도 수원시 장안구 연무동 245-49번지 송원빌딩 2층","category":"일반휴게음식 - 일반한식"}]},{"lat":"37.292956608","long":"127.02522317","items":[{"name":"복희네생선","tel":"031-238-6117","addr":"경기도 수원시 장안구 연무동 258-21번지 경성연립 302호","category":"음료식품 - 농·축·수산품"}]},{"lat":"37.296595653","long":"127.03042353","items":[{"name":"본보야지","tel":"031-426-3883","addr":"경기도 수원시 장안구 연무동 73-2번지","category":"일반휴게음식 - 일반한식"}]},{"lat":"37.295290026","long":"127.02644189","items":[{"name":"본죽연무점","tel":"031-258-8959","addr":"경기도 수원시 장안구 연무동 233-10번지","category":"일반휴게음식 - 일반한식"}]},{"lat":"37.294432918","long":"127.03158437","items":[{"name":"부르미","tel":"031-269-3609","addr":"경기도 수원시 장안구 연무동 225-8번지","category":"보건위생 - 의료용품"},{"name":"제이티에스엠","tel":"070-5022-4846","addr":"경기도 수원시 장안구 연무동 225-8번지 1층","category":"자동차정비 유지 - 자동차부품"}]},{"lat":"37.289650314","long":"127.02258332","items":[{"name":"부부(BUBU)","tel":"","addr":"경기도 수원시 장안구 연무동 174-9번지 ,1,2층","category":"일반휴게음식 - 서양음식"}]},{"lat":"37.294794483","long":"127.02634024","items":[{"name":"불로건강원","tel":"031-258-5547","addr":"경기도 수원시 장안구 연무동 234-8번지","category":"건강식품 - 기타건강식품"},{"name":"이브자리 연무점","tel":"031-244-8552","addr":"경기도 수원시 장안구 연무동 234-8번지","category":"직물 - 침구·수예점"},{"name":"큰입이 축산마을","tel":"031-242-0503","addr":"경기도 수원시 장안구 연무동 234-8번지 1층","category":"음료식품 - 정육점"}]},{"lat":"37.29548815","long":"127.02694947","items":[{"name":"불로장수건강원","tel":"031-254-3296","addr":"경기도 수원시 장안구 연무동 233-3번지 1층","category":"건강식품 - 기타건강식품"},{"name":"세븐모디컬미용실","tel":"031-244-8463","addr":"경기도 수원시 장안구 연무동 233-3번지 1층","category":"보건위생 - 미용원"},{"name":"장수한방왕족발","tel":"031-256-8200","addr":"경기도 수원시 장안구 연무동 233-3번지 1층","category":"일반휴게음식 - 일반한식"}]},{"lat":"37.29484836","long":"127.02725377","items":[{"name":"불타는 삼겹살","tel":"","addr":"경기도 수원시 장안구 연무동 230-28번지 1층","category":"일반휴게음식 - 일반한식"},{"name":"쉬크헤어","tel":"031-243-9384","addr":"경기도 수원시 장안구 연무동 230-28번지","category":"보건위생 - 미용원"}]},{"lat":"37.297569088","long":"127.02896897","items":[{"name":"불타는 청춘","tel":"","addr":"경기도 수원시 장안구 연무동 27-1번지 1층","category":"일반휴게음식 - 일반한식"},{"name":"비비헤어(BB헤어)","tel":"","addr":"경기도 수원시 장안구 연무동 27-1번지 1층","category":"보건위생 - 미용원"},{"name":"콜노래연습장","tel":"031-246-7698","addr":"경기도 수원시 장안구 연무동 27-1번지 2층","category":"레저업소 - 노 래 방"},{"name":"탁사발 신경기대점","tel":"031-245-0247","addr":"경기도 수원시 장안구 연무동 27-1번지","category":"일반휴게음식 - 일반한식"},{"name":"해나온식자재마트","tel":"031-252-1335","addr":"경기도 수원시 장안구 연무동 27-1번지","category":"유통업 영리 - 슈퍼마켓"}]},{"lat":"37.298488331","long":"127.02805572","items":[{"name":"브로삭스","tel":"031-241-1680","addr":"경기도 수원시 장안구 연무동 12-13번지","category":"회원제형태 - 기타4"}]},{"lat":"37.295542234","long":"127.0268367","items":[{"name":"블랙켓","tel":"031-253-5907","addr":"경기도 수원시 장안구 연무동 233-2번지 일부 1층","category":"일반휴게음식 - 스넥"},{"name":"씨에프치킨","tel":"031-247-9592","addr":"경기도 수원시 장안구 연무동 233-2번지","category":"일반휴게음식 - 일반한식"}]},{"lat":"37.288127958","long":"127.02016964","items":[{"name":"비브르사비(vivre savie)","tel":"02-1111-1111","addr":"경기도 수원시 장안구 연무동 193-231번지","category":"일반휴게음식 - 서양음식"}]},{"lat":"37.294100221","long":"127.02861816","items":[{"name":"비타민","tel":"031-258-9933","addr":"경기도 수원시 장안구 연무동 229-25번지","category":"일반휴게음식 - 스넥"},{"name":"연무순대","tel":"070-7529-8843","addr":"경기도 수원시 장안구 연무동 229-25번지 1층","category":"일반휴게음식 - 일반한식"},{"name":"오케포차","tel":"070-8173-4073","addr":"경기도 수원시 장안구 연무동 229-25번지 1층","category":"일반휴게음식 - 주점"},{"name":"카페오랑쥬","tel":"031-251-4682","addr":"경기도 수원시 장안구 연무동 229-25번지 1층","category":"일반휴게음식 - 서양음식"}]},{"lat":"37.293703728","long":"127.02880975","items":[{"name":"빛나는아이들미술학원","tel":"031-242-9396","addr":"경기도 수원시 장안구 연무동 238-16번지","category":"학원 - 예·체능계학원"},{"name":"새성광정육점","tel":"031-245-8303","addr":"경기도 수원시 장안구 연무동 238-16번지","category":"음료식품 - 정육점"},{"name":"제일숯불갈비","tel":"031-248-3392","addr":"경기도 수원시 장안구 연무동 238-16번지","category":"일반휴게음식 - 일반한식"}]},{"lat":"37.294928913","long":"127.02974624","items":[{"name":"사거리슈퍼","tel":"031-251-5130","addr":"경기도 수원시 장안구 연무동 228-29번지","category":"유통업 영리 - 슈퍼마켓"}]},{"lat":"37.293874989","long":"127.0285053","items":[{"name":"사계절 영양탕","tel":"031-257-4588","addr":"경기도 수원시 장안구 연무동 238-11번지 1층","category":"일반휴게음식 - 일반한식"}]},{"lat":"37.290263355","long":"127.02039567","items":[{"name":"사과나무","tel":"031-236-7318","addr":"경기도 수원시 장안구 연무동 198-13번지 1층","category":"일반휴게음식 - 서양음식"}]},{"lat":"37.294731277","long":"127.02700562","items":[{"name":"사또통족발","tel":"031-245-3853","addr":"경기도 수원시 장안구 연무동 237-7번지","category":"일반휴게음식 - 일반한식"},{"name":"연무사","tel":"031-243-9063","addr":"경기도 수원시 장안구 연무동 237-7번지","category":"건축자재 - 목재·석재·철물"}]},{"lat":"37.29020901","long":"127.02222259","items":[{"name":"사랑으로 만드는 사람들 봉사회","tel":"031-273-9044","addr":"경기도 수원시 장안구 연무동 173-17번지","category":"기타 - 비영리/대상"},{"name":"크린셀정수시스템","tel":"02-1588-6423","addr":"경기도 수원시 장안구 연무동 173-17번지","category":"주방용구 - 정수기"}]},{"lat":"37.294370981","long":"127.02644161","items":[{"name":"사랑의재가복지센터","tel":"031-245-9783","addr":"경기도 수원시 장안구 연무동 236-2번지","category":"기타의료기관 - 기타의료기관 및 기타"}]},{"lat":"37.288209169","long":"127.01933516","items":[{"name":"사맛디커피실록","tel":"031-1111-1111","addr":"경기도 수원시 장안구 연무동 193-398번지","category":"일반휴게음식 - 서양음식"}]},{"lat":"37.297596333","long":"127.02797648","items":[{"name":"삼겹살앤닭갈비","tel":"031-241-8383","addr":"경기도 수원시 장안구 연무동 212-9번지 1층","category":"일반휴게음식 - 일반한식"}]},{"lat":"37.293154591","long":"127.02647506","items":[{"name":"삼성종합건축(타일뱅크)","tel":"031-246-1117","addr":"경기도 수원시 장안구 연무동 249-12번지","category":"건축자재 - 건축용 요업제품"}]},{"lat":"37.29262235","long":"127.02947476","items":[{"name":"삼성종합인테리어","tel":"031-243-3509","addr":"경기도 수원시 장안구 연무동 246번지 한가람주택","category":"건축자재 - 인테리어전문"}]},{"lat":"37.293091628","long":"127.02592243","items":[{"name":"삼인원","tel":"02-0000-0000","addr":"경기도 수원시 장안구 연무동 258-15번지","category":"서적문구 - 완구점"}]},{"lat":"37.298983413","long":"127.03022139","items":[{"name":"새동산정육점","tel":"031-255-7674","addr":"경기도 수원시 장안구 연무동 7-4번지","category":"음료식품 - 정육점"},{"name":"우주공판장","tel":"031-253-5583","addr":"경기도 수원시 장안구 연무동 7-4번지","category":"유통업 영리 - 슈퍼마켓"}]},{"lat":"37.295515083","long":"127.02742316","items":[{"name":"서원시스템","tel":"02-1899-6580","addr":"경기도 수원시 장안구 연무동 231-35번지 1층","category":"사무통신 - 통신기기"}]},{"lat":"37.294235303","long":"127.02894526","items":[{"name":"서정길커피하우스","tel":"070-4685-9280","addr":"경기도 수원시 장안구 연무동 229-23번지 2층","category":"일반휴게음식 - 일반한식"}]},{"lat":"37.293316508","long":"127.02778333","items":[{"name":"선한사마리아인","tel":"031-710-3849","addr":"경기도 수원시 장안구 연무동 239-32번지 지하 101호","category":"의류 - 정장"}]},{"lat":"37.295704356","long":"127.02714127","items":[{"name":"성희미용실","tel":"031-248-6105","addr":"경기도 수원시 장안구 연무동 232-16번지","category":"보건위생 - 미용원"}]},{"lat":"37.295983564","long":"127.02767143","items":[{"name":"세븐일레븐수원연무중앙점","tel":"","addr":"경기도 수원시 장안구 연무동 218-42","category":"유통업 영리 - 편 의 점"}]},{"lat":"37.288515374","long":"127.02033888","items":[{"name":"세일마트","tel":"031-242-3702","addr":"경기도 수원시 장안구 연무동 193-67번지","category":"유통업 영리 - 슈퍼마켓"}]},{"lat":"37.294289633","long":"127.02769343","items":[{"name":"세종음악제이학원","tel":"02-502-7458","addr":"경기도 수원시 장안구 연무동 238번지 2층","category":"학원 - 예·체능계학원"},{"name":"코사마트평화점","tel":"031-242-3171","addr":"경기도 수원시 장안구 연무동 238번지","category":"유통업 영리 - 슈퍼마켓"}]},{"lat":"37.298289925","long":"127.02889027","items":[{"name":"소담한고깃집","tel":"031-245-8935","addr":"경기도 수원시 장안구 연무동 11-25번지","category":"일반휴게음식 - 일반한식"}]},{"lat":"37.293154733","long":"127.02575328","items":[{"name":"소문난막창구이집","tel":"031-257-5443","addr":"경기도 수원시 장안구 연무동 258-14번지","category":"일반휴게음식 - 일반한식"}]},{"lat":"37.295569168","long":"127.02731039","items":[{"name":"송주불냉면","tel":"031-207-6310","addr":"경기도 수원시 장안구 연무동 231-38번지","category":"일반휴게음식 - 일반한식"}]},{"lat":"37.298092008","long":"127.02744655","items":[{"name":"수모텔","tel":"031-245-6136","addr":"경기도 수원시 장안구 연무동 14-2번지","category":"숙박업 - 여관/기타숙박업"}]},{"lat":"37.296208233","long":"127.03033317","items":[{"name":"수뷰티헤어샵","tel":"070-8115-4231","addr":"경기도 수원시 장안구 연무동 74-16번지 1층","category":"보건위생 - 미용원"}]},{"lat":"37.294758486","long":"127.02611466","items":[{"name":"수원성대박집","tel":"031-244-5525","addr":"경기도 수원시 장안구 연무동 234-10번지","category":"일반휴게음식 - 일반한식"}]},{"lat":"37.294154713","long":"127.02655432","items":[{"name":"수원애틀리틱아카데미","tel":"070-4129-5971","addr":"경기도 수원시 장안구 연무동 236-18번지","category":"학원 - 기타 교육기관"}]},{"lat":"37.296091958","long":"127.02634064","items":[{"name":"수원에어컨","tel":"070-4062-4410","addr":"경기도 수원시 장안구 연무동 232-27번지","category":"용역 서비스 - 기타용역서비스"}]},{"lat":"37.295983731","long":"127.0268594","items":[{"name":"수원인지개발교육원","tel":"031-111-1111","addr":"경기도 수원시 장안구 연무동 232-10번지 4층","category":"학원 - 기타 교육기관"}]},{"lat":"37.294010196","long":"127.02825723","items":[{"name":"숙녀복할인매장","tel":"031-243-7924","addr":"경기도 수원시 장안구 연무동 238-7번지 102호","category":"의류 - 정장"}]},{"lat":"37.292739433","long":"127.02970035","items":[{"name":"숙영무역","tel":"031-255-8809","addr":"경기도 수원시 장안구 연무동 246-2번지 1층 101호","category":"보건위생 - 화장품"},{"name":"헤어블러썸","tel":"031-278-7898","addr":"경기도 수원시 장안구 연무동 246-2번지 101호","category":"보건위생 - 미용원"}]},{"lat":"37.292901749","long":"127.02911397","items":[{"name":"순수 담배잎","tel":"","addr":"경기도 수원시 장안구 연무동 240-4번지","category":"음료식품 - 기타음료식품"}]},{"lat":"37.293875489","long":"127.02608056","items":[{"name":"순자네밥집","tel":"031-247-3135","addr":"경기도 수원시 장안구 연무동 249-1번지 1층","category":"일반휴게음식 - 일반한식"}]},{"lat":"37.295515118","long":"127.02725399","items":[{"name":"술맛좋은날","tel":"","addr":"경기도 수원시 장안구 연무동 231-37번지 1층","category":"일반휴게음식 - 주점"},{"name":"청청해역","tel":"031-241-8860","addr":"경기도 수원시 장안구 연무동 231-37번지","category":"음료식품 - 농·축·수산품"}]},{"lat":"37.293569215","long":"127.02569702","items":[{"name":"쉬즈(she''s)","tel":"031-256-5424","addr":"경기도 수원시 장안구 연무동 249-32번지 1층","category":"의류 - 정장"}]},{"lat":"37.295677256","long":"127.0274796","items":[{"name":"스킨과로션","tel":"031-252-7873","addr":"경기도 수원시 장안구 연무동 231-40번지","category":"보건위생 - 화장품"},{"name":"첸시","tel":"031-246-6640","addr":"경기도 수원시 장안구 연무동 231-40번지","category":"의류 - 정장"}]},{"lat":"37.29548829","long":"127.02625023","items":[{"name":"스타노래","tel":"031-244-2758","addr":"경기도 수원시 장안구 연무동 233-15번지 2층","category":"용역 서비스 - 종합용역"},{"name":"쭌이네짬뽕","tel":"031-248-3073","addr":"경기도 수원시 장안구 연무동 233-15번지 1층","category":"일반휴게음식 - 중국식"},{"name":"챌린지복싱","tel":"031-245-3321","addr":"경기도 수원시 장안구 연무동 233-15번지 3층","category":"레저업소 - 헬스클럽"}]},{"lat":"37.294731362","long":"127.02658833","items":[{"name":"스타일헤어","tel":"031-661-4501","addr":"경기도 수원시 장안구 연무동 237-3번지 1층","category":"보건위생 - 미용원"},{"name":"연지곤지","tel":"031-243-4614","addr":"경기도 수원시 장안구 연무동 237-3번지","category":"보건위생 - 화장품"}]},{"lat":"37.299424928","long":"127.03016515","items":[{"name":"스테이스토어","tel":"","addr":"경기도 수원시 장안구 연무동 7-8번지 1층","category":"일반휴게음식 - 주점"}]},{"lat":"37.288875837","long":"127.0199781","items":[{"name":"승지상사","tel":"","addr":"경기도 수원시 장안구 연무동 202-3번지 1층","category":"의류 - 정장"}]},{"lat":"37.297596364","long":"127.02782986","items":[{"name":"시골밥상","tel":"031-248-1377","addr":"경기도 수원시 장안구 연무동 212-6번지","category":"일반휴게음식 - 일반한식"},{"name":"최강숯불돼지갈비","tel":"031-223-2167","addr":"경기도 수원시 장안구 연무동 212-6번지 1층","category":"일반휴게음식 - 일반한식"}]},{"lat":"37.292344141","long":"127.02397117","items":[{"name":"시립수원어린이집[아이행복]","tel":"031-256-5795","addr":"경기도 수원시 장안구 연무동 257-26번지","category":"학원 - 유아원"}]},{"lat":"37.293820903","long":"127.02861806","items":[{"name":"시선헤어컬렉션","tel":"031-244-3935","addr":"경기도 수원시 장안구 연무동 238-12번지","category":"보건위생 - 미용원"}]},{"lat":"37.298154178","long":"127.03146172","items":[{"name":"쓰리제이인테리어","tel":"031-252-3474","addr":"경기도 수원시 장안구 연무동 61-261번지 진주하이츠빌라 B동 301호","category":"건축자재 - 인테리어전문"}]},{"lat":"37.289398326","long":"127.02069996","items":[{"name":"씨엘","tel":"031-111-1111","addr":"경기도 수원시 장안구 연무동 185-6번지","category":"용역 서비스 - 기타용역서비스"}]},{"lat":"37.296569474","long":"127.02647613","items":[{"name":"씨엠솔루션","tel":"031-222-2363","addr":"경기도 수원시 장안구 연무동 217-2번지","category":"사무통신 - 사무용 OA기기"}]},{"lat":"37.299515182","long":"127.02949974","items":[{"name":"씨유수원광교산점","tel":"02-1577-8007","addr":"경기도 수원시 장안구 연무동 9-14번지 1층","category":"유통업 영리 - 편 의 점"},{"name":"씨유수원광교산점","tel":"080-080-3663","addr":"경기도 수원시 장안구 연무동 9-14번지 1층","category":"유통업 영리 - 편 의 점"}]},{"lat":"37.296596225","long":"127.02784081","items":[{"name":"씨유연무스타점","tel":"080-080-3663","addr":"경기도 수원시 장안구 연무동 216-22번지 1층","category":"유통업 영리 - 편 의 점"},{"name":"아이비스PC","tel":"031-8003-4653","addr":"경기도 수원시 장안구 연무동 216-22번지 2층","category":"레저업소 - 기타레져업소"},{"name":"참큰곤드레시래기해장국경기대점","tel":"031-245-9298","addr":"경기도 수원시 장안구 연무동 216-22번지 1층","category":"일반휴게음식 - 일반한식"}]},{"lat":"37.291487672","long":"127.02658731","items":[{"name":"씨유장안연무점","tel":"031-898-6567","addr":"경기도 수원시 장안구 연무동 260-33번지 1층","category":"유통업 영리 - 편 의 점"}]},{"lat":"37.292370101","long":"127.0293055","items":[{"name":"아라애견샵","tel":"031-243-9692","addr":"경기도 수원시 장안구 연무동 247-14번지 중앙일보사 2호","category":"문화.취미 - 애완동물"},{"name":"은정헤어","tel":"031-207-8351","addr":"경기도 수원시 장안구 연무동 247-14번지","category":"보건위생 - 미용원"}]},{"lat":"37.294487107","long":"127.03105433","items":[{"name":"아우라","tel":"031-214-2358","addr":"경기도 수원시 장안구 연무동 226-2번지 1층","category":"가구 - 일반가구"}]},{"lat":"37.2923433","long":"127.02825667","items":[{"name":"아쿠아정수기","tel":"031-255-3066","addr":"경기도 수원시 장안구 연무동 247-29","category":"주방용구 - 정수기"}]},{"lat":"37.288650744","long":"127.01880523","items":[{"name":"애브리 24","tel":"031-251-1902","addr":"경기도 수원시 장안구 연무동 187-25번지 1층 101호","category":"유통업 영리 - 편 의 점"}]},{"lat":"37.297064465","long":"127.02919436","items":[{"name":"애플노래연습장","tel":"031-248-9939","addr":"경기도 수원시 장안구 연무동 213-16 에이동지층","category":"레저업소 - 노 래 방"}]},{"lat":"37.296398023","long":"127.02772796","items":[{"name":"양푼신쪽갈비찜","tel":"031-256-3376","addr":"경기도 수원시 장안구 연무동 217-19번지","category":"일반휴게음식 - 일반한식"},{"name":"헤어토크","tel":"031-254-4311","addr":"경기도 수원시 장안구 연무동 217-19번지","category":"보건위생 - 미용원"}]},{"lat":"37.292675845","long":"127.0318882","items":[{"name":"엄마손맛","tel":"031-241-1385","addr":"경기도 수원시 장안구 연무동 245-36번지","category":"일반휴게음식 - 일반한식"},{"name":"이편한","tel":"031-253-6611","addr":"경기도 수원시 장안구 연무동 245-36번지 2층","category":"회원제형태 - 건강식품"},{"name":"준기획","tel":"031-222-7956","addr":"경기도 수원시 장안구 연무동 245-36번지","category":"서적문구 - 출판 및 인쇄물"}]},{"lat":"37.295038022","long":"127.02497567","items":[{"name":"에디션디자인","tel":"031-1111-1111","addr":"경기도 수원시 장안구 연무동 235-31번지 201호","category":"신변잡화 - 기념품점"}]},{"lat":"37.294983903","long":"127.02528016","items":[{"name":"에프아이비코리아","tel":"","addr":"경기도 수원시 장안구 연무동 235-5번지 1층 101호","category":"건축자재 - 기타건축자재"}]},{"lat":"37.294127353","long":"127.02814449","items":[{"name":"엔5스타일헤어 (N5스타일헤어)","tel":"031-000-0000","addr":"경기도 수원시 장안구 연무동 238-3번지","category":"보건위생 - 미용원"}]},{"lat":"37.292956565","long":"127.02544872","items":[{"name":"엠제이(MJ)산업","tel":"031-258-9609","addr":"경기도 수원시 장안구 연무동 258-20번지","category":"신변잡화 - 기타잡화"}]},{"lat":"37.294397673","long":"127.02808819","items":[{"name":"연곡가구알뜰매장","tel":"031-251-6947","addr":"경기도 수원시 장안구 연무동 229-31번지","category":"가구 - 일반가구"},{"name":"충남철물","tel":"031-252-8258","addr":"경기도 수원시 장안구 연무동 229-31번지","category":"기타 - 기계공구"}]},{"lat":"37.291649745","long":"127.02713997","items":[{"name":"연무그린약국","tel":"031-252-8280","addr":"경기도 수원시 장안구 연무동 260-22번지 1층","category":"약국 - 약국"}]},{"lat":"37.297262745","long":"127.02894631","items":[{"name":"연무동연어집","tel":"032-471-6003","addr":"경기도 수원시 장안구 연무동 213-3번지","category":"일반휴게음식 - 일식·회집"}]},{"lat":"37.290425384","long":"127.02142195","items":[{"name":"연무동주민자치위원회","tel":"031-228-5843","addr":"경기도 수원시 장안구 연무동 181-1","category":"문화.취미 - 문화취미기타"}]},{"lat":"37.294036942","long":"127.0295542","items":[{"name":"연무만물사","tel":"031-252-0479","addr":"경기도 수원시 장안구 연무동 228-16번지","category":"기타 - 기계공구"}]},{"lat":"37.296676987","long":"127.0293634","items":[{"name":"연무보습학원","tel":"031-252-5846","addr":"경기도 수원시 장안구 연무동 213-19","category":"학원 - 보습학원"}]},{"lat":"37.29562328","long":"127.02706229","items":[{"name":"연무인테리어","tel":"031-248-1289","addr":"경기도 수원시 장안구 연무동 232-17번지","category":"직물 - 카페트,커튼,천막,지물"},{"name":"주식회사 명윤건설","tel":"031-247-1615","addr":"경기도 수원시 장안구 연무동 232-17번지","category":"건축자재 - 인테리어전문"}]},{"lat":"37.294208733","long":"127.02675734","items":[{"name":"연무포차","tel":"031-256-1729","addr":"경기도 수원시 장안구 연무동 236-6번지 1층","category":"일반휴게음식 - 주점"}]},{"lat":"37.29276659","long":"127.02913648","items":[{"name":"연무해법셀파영수학원","tel":"031-241-6070","addr":"경기도 수원시 장안구 연무동 240-5번지 대영빌라 3층","category":"학원 - 보습학원"},{"name":"옛골칼국수","tel":"031-246-2959","addr":"경기도 수원시 장안구 연무동 240-5번지 1층","category":"일반휴게음식 - 일반한식"}]},{"lat":"37.296929079","long":"127.03022064","items":[{"name":"연세세브란스의원","tel":"031-242-5440","addr":"경기도 수원시 장안구 연무동 56-119번지 2층","category":"의원 - 의원"}]},{"lat":"37.298848399","long":"127.02961229","items":[{"name":"영 노래연습장","tel":"031-258-0078","addr":"경기도 수원시 장안구 연무동 11-45번지 지하1층","category":"레저업소 - 노 래 방"},{"name":"컷트군빠마양","tel":"031-251-2700","addr":"경기도 수원시 장안구 연무동 11-45번지","category":"보건위생 - 미용원"}]},{"lat":"37.299208809","long":"127.02961242","items":[{"name":"영텔레콤","tel":"031-253-7789","addr":"경기도 수원시 장안구 연무동 9-17번지 1층","category":"사무통신 - 통신기기"},{"name":"작은방","tel":"070-4230-7770","addr":"경기도 수원시 장안구 연무동 9-17번지 2층,3층","category":"일반휴게음식 - 서양음식"}]},{"lat":"37.297343899","long":"127.02866438","items":[{"name":"영통찌개지존","tel":"031-111-1111","addr":"경기도 수원시 장안구 연무동 213-1번지","category":"일반휴게음식 - 일반한식"}]},{"lat":"37.294955859","long":"127.03011843","items":[{"name":"예쁜머리","tel":"031-245-8897","addr":"경기도 수원시 장안구 연무동 227-19번지","category":"보건위생 - 미용원"}]},{"lat":"37.298506188","long":"127.02881139","items":[{"name":"예예과일","tel":"031-255-4655","addr":"경기도 수원시 장안구 연무동 11-30번지 극동타운 A동 202호","category":"음료식품 - 농·축·수산품"}]},{"lat":"37.296956039","long":"127.03052517","items":[{"name":"예원","tel":"031-252-7288","addr":"경기도 수원시 장안구 연무동 56-99번지","category":"일반휴게음식 - 중국식"},{"name":"팔레트마카롱","tel":"031-243-9747","addr":"경기도 수원시 장안구 연무동 56-99번지 1층","category":"음료식품 - 기타음료식품"},{"name":"팔레트마카롱","tel":"031-243-9747","addr":"경기도 수원시 장안구 연무동 56-99번지 1층","category":"음료식품 - 기타음료식품"}]},{"lat":"37.296091659","long":"127.0278068","items":[{"name":"오적어","tel":"031-252-4007","addr":"경기도 수원시 장안구 연무동 218-22","category":"일반휴게음식 - 일반한식"}]},{"lat":"37.295488323","long":"127.02608105","items":[{"name":"올래포차","tel":"031-245-1080","addr":"경기도 수원시 장안구 연무동 233-16번지 1층","category":"일반휴게음식 - 일반한식"},{"name":"제시카","tel":"031-000-0000","addr":"경기도 수원시 장안구 연무동 233-16번지","category":"의류 - 기타의류"}]},{"lat":"37.294794411","long":"127.02670113","items":[{"name":"우래기물상사","tel":"031-246-5036","addr":"경기도 수원시 장안구 연무동 237-2번지","category":"주방용구 - 주방용식기"}]},{"lat":"37.296127324","long":"127.02953238","items":[{"name":"우리미용실","tel":"031-242-8339","addr":"경기도 수원시 장안구 연무동 215-30","category":"보건위생 - 미용원"}]},{"lat":"37.29303781","long":"127.02463675","items":[{"name":"월드할인마트연무점","tel":"031-254-6688","addr":"경기도 수원시 장안구 연무동 257-1번지","category":"유통업 영리 - 슈퍼마켓"}]},{"lat":"37.293127235","long":"127.02805394","items":[{"name":"유니크인(UNIQIN)","tel":"","addr":"경기도 수원시 장안구 연무동 239-26번지 2층","category":"건축자재 - 인테리어전문"}]},{"lat":"37.29226267","long":"127.02600112","items":[{"name":"유림인테리어","tel":"031-893-9383","addr":"경기도 수원시 장안구 연무동 259-22번지","category":"건축자재 - 인테리어전문"}]},{"lat":"37.297569013","long":"127.02930732","items":[{"name":"은주헤어","tel":"031-305-3858","addr":"경기도 수원시 장안구 연무동 25번지","category":"보건위생 - 미용원"},{"name":"항아리","tel":"031-248-3638","addr":"경기도 수원시 장안구 연무동 25번지 1층","category":"일반휴게음식 - 일반한식"},{"name":"향기가득한세상","tel":"031-1833-6255","addr":"경기도 수원시 장안구 연무동 25번지 B동, 3층 , 전체","category":"문화.취미 - 화원"}]},{"lat":"37.294316569","long":"127.02814456","items":[{"name":"이엘전기","tel":"","addr":"경기도 수원시 장안구 연무동 229-30번지 1층","category":"전기제품 - 기타전기제품"}]},{"lat":"37.294875492","long":"127.02675755","items":[{"name":"이태원꽈배기 연무점","tel":"","addr":"경기도 수원시 장안구 연무동 237번지 1층","category":"일반휴게음식 - 일반한식"},{"name":"인테리안경원","tel":"031-251-1928","addr":"경기도 수원시 장안구 연무동 237번지","category":"보건위생 - 안경"},{"name":"재미나화장품","tel":"031-242-5614","addr":"경기도 수원시 장안구 연무동 237번지","category":"보건위생 - 화장품"}]},{"lat":"37.295126712","long":"127.03156208","items":[{"name":"잉크박사","tel":"070-4151-1646","addr":"경기도 수원시 장안구 연무동 225-2번지 호산나미용실 상가 1층 3호","category":"사무통신 - 사무용 OA기기"}]},{"lat":"37.298181844","long":"127.0286985","items":[{"name":"자매전집","tel":"031-255-9585","addr":"경기도 수원시 장안구 연무동 11-14번지 1층","category":"일반휴게음식 - 일반한식"}]},{"lat":"37.299226928","long":"127.02917256","items":[{"name":"자연누리텃밭정원협동조합","tel":"031-223-9159","addr":"경기도 수원시 장안구 연무동 11-57번지 성남타운 가동 202호","category":"문화.취미 - 화원"}]},{"lat":"37.297208092","long":"127.03150648","items":[{"name":"장미슈퍼","tel":"031-242-9943","addr":"경기도 수원시 장안구 연무동 56-24번지","category":"유통업 영리 - 슈퍼마켓"}]},{"lat":"37.297010586","long":"127.02835975","items":[{"name":"장백산양꼬치","tel":"031-242-3411","addr":"경기도 수원시 장안구 연무동 213-26번지 1층","category":"일반휴게음식 - 중국식"}]},{"lat":"37.29401036","long":"127.02747906","items":[{"name":"정수학교습소","tel":"031-256-4133","addr":"경기도 수원시 장안구 연무동 238-38번지 일부 1층","category":"회원제형태 - 학원"}]},{"lat":"37.295956247","long":"127.02900225","items":[{"name":"정헤어샵","tel":"031-254-0181","addr":"경기도 수원시 장안구 연무동 218-11번지 부성맨션 101호","category":"보건위생 - 미용원"}]},{"lat":"37.29892959","long":"127.02917245","items":[{"name":"제이앤케이(J&K)어린이집[아이행복]","tel":"031-252-9004","addr":"경기도 수원시 장안구 연무동 11-9번지","category":"학원 - 유아원"}]},{"lat":"37.297262926","long":"127.02811171","items":[{"name":"종합화장품","tel":"031-255-8270","addr":"경기도 수원시 장안구 연무동 212-15번지 B02호","category":"보건위생 - 화장품"}]},{"lat":"37.288857515","long":"127.02195159","items":[{"name":"종호대리점","tel":"031-254-8729","addr":"경기도 수원시 장안구 연무동 176-31번지 일양주택 8동 B01호","category":"유통업 영리 - 기타유통업"}]},{"lat":"37.29284797","long":"127.02780574","items":[{"name":"주식회사 골리앗","tel":"031-366-2893","addr":"경기도 수원시 장안구 연무동 248-13번지 미성주택 501호","category":"용역 서비스 - 종합용역"}]},{"lat":"37.296676153","long":"127.03285967","items":[{"name":"주식회사 한국심리과학센터","tel":"031-253-7776","addr":"경기도 수원시 장안구 연무동 61-104번지 1층","category":"학원 - 기타 교육기관"}]},{"lat":"37.299289944","long":"127.02942071","items":[{"name":"죽여주는동태찌개함흥냉면","tel":"031-241-2008","addr":"경기도 수원시 장안구 연무동 9-12번지 ,1,2층","category":"일반휴게음식 - 일반한식"}]},{"lat":"37.291731482","long":"127.02375672","items":[{"name":"중앙어린이집[아이행복]","tel":"031-255-0908","addr":"경기도 수원시 장안구 연무동 256-2번지","category":"학원 - 유아원"}]},{"lat":"37.291595745","long":"127.02683545","items":[{"name":"지오상사","tel":"031-236-1538","addr":"경기도 수원시 장안구 연무동 260-31번지 1층","category":"레져용품 - 스포츠·레져용품"}]},{"lat":"37.295091957","long":"127.02564109","items":[{"name":"지혜숲어린이집[아이행복]","tel":"031-244-7949","addr":"경기도 수원시 장안구 연무동 234-18","category":"학원 - 유아원"}]},{"lat":"37.297452146","long":"127.02808921","items":[{"name":"진달래식당","tel":"031-245-1068","addr":"경기도 수원시 장안구 연무동 212-13번지 대일빌라","category":"일반휴게음식 - 일반한식"}]},{"lat":"37.297821375","long":"127.02896906","items":[{"name":"진미소곱창구이","tel":"031-244-4609","addr":"경기도 수원시 장안구 연무동 21-5번지 유천프라자 2동 1층","category":"일반휴게음식 - 일반한식"},{"name":"현대헤어샵","tel":"031-244-0067","addr":"경기도 수원시 장안구 연무동 21-5번지 유천프라자상가 106호","category":"보건위생 - 미용원"}]},{"lat":"37.296289924","long":"127.02761514","items":[{"name":"쩐집","tel":"031-000-0000","addr":"경기도 수원시 장안구 연무동 217-20번지 1층","category":"일반휴게음식 - 일반한식"}]},{"lat":"37.29248724","long":"127.02928299","items":[{"name":"차사랑카센타","tel":"031-257-2131","addr":"경기도 수원시 장안구 연무동 247-13번지","category":"자동차정비 유지 - 자동차정비"}]},{"lat":"37.293261659","long":"127.03127943","items":[{"name":"창대과학","tel":"031-254-6643","addr":"경기도 수원시 장안구 연무동 242-3번지 대우빌라","category":"서적문구 - 과학기자재"},{"name":"창대과학/원격지","tel":"031-254-6643","addr":"경기도 수원시 장안구 연무동 242-3번지 대우빌라","category":"기타 - 기타 전문점"}]},{"lat":"37.293460196","long":"127.02994872","items":[{"name":"창용중학교","tel":"031-8012-1505","addr":"경기도 수원시 장안구 연무동 241번지 창용중학교","category":"학원 - 초중고교육기관"}]},{"lat":"37.299154353","long":"127.0313042","items":[{"name":"창용초등학교","tel":"031-243-3926","addr":"경기도 수원시 장안구 연무동 5-2번지 창용초등학교","category":"학원 - 초중고교육기관"}]},{"lat":"37.29426249","long":"127.02822349","items":[{"name":"창훈대분식","tel":"031-244-6993","addr":"경기도 수원시 장안구 연무동 229-28번지","category":"일반휴게음식 - 스넥"}]},{"lat":"37.29454173","long":"127.02858447","items":[{"name":"창훈대어린이집[아이행복]","tel":"031-257-5325","addr":"경기도 수원시 장안구 연무동 229-27번지","category":"학원 - 유아원"}]},{"lat":"37.299425198","long":"127.02896961","items":[{"name":"천년카페","tel":"031-257-9993","addr":"경기도 수원시 장안구 연무동 11-87번지","category":"일반휴게음식 - 서양음식"}]},{"lat":"37.29712714","long":"127.03091997","items":[{"name":"청양공방","tel":"031-000-0000","addr":"경기도 수원시 장안구 연무동 56-66번지 1층","category":"직물 - 침구·수예점"}]},{"lat":"37.292289107","long":"127.02886565","items":[{"name":"청정종합시스템","tel":"031-291-5777","addr":"경기도 수원시 장안구 연무동 247-40번지","category":"용역 서비스 - 기타용역서비스"}]},{"lat":"37.293037419","long":"127.02666674","items":[{"name":"최미용실","tel":"070-8659-7551","addr":"경기도 수원시 장안구 연무동 248-26번지","category":"보건위생 - 미용원"}]},{"lat":"37.294595986","long":"127.02767098","items":[{"name":"춘천닭갈비","tel":"031-252-7526","addr":"경기도 수원시 장안구 연무동 230-20번지 1층","category":"일반휴게음식 - 일반한식"}]},{"lat":"37.299019576","long":"127.0296913","items":[{"name":"카멜레온","tel":"031-241-1015","addr":"경기도 수원시 장안구 연무동 11-60번지 성남타운 A동 101호","category":"일반휴게음식 - 서양음식"}]},{"lat":"37.294397784","long":"127.02755813","items":[{"name":"카스광장","tel":"031-244-9178","addr":"경기도 수원시 장안구 연무동 237-14번지 1층","category":"일반휴게음식 - 주점"},{"name":"한나도시락","tel":"031-246-5511","addr":"경기도 수원시 장안구 연무동 237-14번지 2층","category":"유통업 영리 - 기타유통업"}]},{"lat":"37.29243311","long":"127.02958747","items":[{"name":"컴사랑","tel":"031-258-5834","addr":"경기도 수원시 장안구 연무동 246-32번지","category":"사무통신 - 컴퓨터"}]},{"lat":"37.290290124","long":"127.02208728","items":[{"name":"코너(CORNER)","tel":"031-000-0000","addr":"경기도 수원시 장안구 연무동 173-46번지 101호","category":"일반휴게음식 - 서양음식"}]},{"lat":"37.293009051","long":"127.03258755","items":[{"name":"콩이네식당","tel":"031-243-3939","addr":"경기도 수원시 장안구 연무동 245-14번지","category":"일반휴게음식 - 일반한식"}]},{"lat":"37.292236095","long":"127.02353131","items":[{"name":"크로바마트","tel":"031-255-9835","addr":"경기도 수원시 장안구 연무동 256번지 크로바마트","category":"유통업 영리 - 슈퍼마켓"}]},{"lat":"37.292956421","long":"127.02619305","items":[{"name":"크린케어세탁소","tel":"031-257-8833","addr":"경기도 수원시 장안구 연무동 258-39번지 1층","category":"수리서비스 - 세탁소"}]},{"lat":"37.298704227","long":"127.02964608","items":[{"name":"큰맘할매순대국","tel":"031-246-3337","addr":"경기도 수원시 장안구 연무동 11-48번지","category":"일반휴게음식 - 일반한식"}]},{"lat":"37.29490244","long":"127.02716357","items":[{"name":"테리우스","tel":"031-258-4616","addr":"경기도 수원시 장안구 연무동 230-29번지 테리우스 1층","category":"일반휴게음식 - 주점"}]},{"lat":"37.297983814","long":"127.02778487","items":[{"name":"테마모텔","tel":"031-258-5995","addr":"경기도 수원시 장안구 연무동 18-2번지","category":"숙박업 - 여관/기타숙박업"}]},{"lat":"37.294128002","long":"127.02489646","items":[{"name":"팀75","tel":"","addr":"경기도 수원시 장안구 연무동 250-25번지 1층","category":"자동차정비 유지 - 카인테리어"}]},{"lat":"37.298875718","long":"127.02830398","items":[{"name":"파랑새모텔","tel":"031-252-9231","addr":"경기도 수원시 장안구 연무동 12-3번지","category":"숙박업 - 여관/기타숙박업"}]},{"lat":"37.294010828","long":"127.0251107","items":[{"name":"퍼펙트오토클럽","tel":"031-242-4972","addr":"경기도 수원시 장안구 연무동 250-23번지","category":"자동차정비 유지 - 자동차정비"}]},{"lat":"37.294369952","long":"127.03114451","items":[{"name":"포천정육점","tel":"031-244-6196","addr":"경기도 수원시 장안구 연무동 226-4번지","category":"음료식품 - 정육점"}]},{"lat":"37.29390255","long":"127.02592268","items":[{"name":"풀타임PC방","tel":"070-9747-8318","addr":"경기도 수원시 장안구 연무동 249번지 3층","category":"레저업소 - 기타레져업소"}]},{"lat":"37.295821415","long":"127.02750221","items":[{"name":"프로필드","tel":"031-256-5174","addr":"경기도 수원시 장안구 연무동 231번지","category":"의류 - 정장"}]},{"lat":"37.292371225","long":"127.02366668","items":[{"name":"하늘소망어린이집[아이행복]","tel":"031-247-7968","addr":"경기도 수원시 장안구 연무동 257-27번지 ,1,2층","category":"학원 - 유아원"}]},{"lat":"37.298316926","long":"127.02902562","items":[{"name":"하얀카페","tel":"","addr":"경기도 수원시 장안구 연무동 11-81번지 1층","category":"일반휴게음식 - 일반한식"}]},{"lat":"37.300622888","long":"127.03185742","items":[{"name":"학사기획","tel":"031-244-7537","addr":"경기도 수원시 장안구 연무동 4-35번지 2층","category":"서적문구 - 출판 및 인쇄물"}]},{"lat":"37.29023623","long":"127.0210272","items":[{"name":"한결솔라시스템","tel":"070-4045-8341","addr":"경기도 수원시 장안구 연무동 183-16번지 1층","category":"전기제품 - 기타전기제품"}]},{"lat":"37.28939804","long":"127.02250431","items":[{"name":"한농스틸(경기남부지사)","tel":"031-308-7718","addr":"경기도 수원시 장안구 연무동 174-41번지","category":"용역 서비스 - 기타용역서비스"}]},{"lat":"37.300262631","long":"127.03122567","items":[{"name":"한솥","tel":"031-245-8249","addr":"경기도 수원시 장안구 연무동 4-20 102호","category":"일반휴게음식 - 일반한식"}]},{"lat":"37.294127137","long":"127.02913695","items":[{"name":"해밀","tel":"","addr":"경기도 수원시 장안구 연무동 228-11번지 1층","category":"의류 - 정장"},{"name":"황금떡방앗간","tel":"031-243-0677","addr":"경기도 수원시 장안구 연무동 228-11번지 창용빌5차 1층 101호","category":"음료식품 - 기타음료식품"}]},{"lat":"37.298785488","long":"127.02889044","items":[{"name":"해법수학창용점교습소","tel":"031-241-2098","addr":"경기도 수원시 장안구 연무동 11-54번지 102호","category":"회원제형태 - 학원"}]},{"lat":"37.293541068","long":"127.03089609","items":[{"name":"해피투게더(Happy together)","tel":"","addr":"경기도 수원시 장안구 연무동 242-12번지","category":"보건위생 - 피부미용실"}]},{"lat":"37.296703815","long":"127.0302544","items":[{"name":"허브가뱃살을만났을때","tel":"031-303-0237","addr":"경기도 수원시 장안구 연무동 56-122번지 1층","category":"건강식품 - 기타건강식품"}]},{"lat":"37.292317221","long":"127.02333961","items":[{"name":"헤어칼라매직","tel":"","addr":"경기도 수원시 장안구 연무동 253-43번지","category":"보건위생 - 미용원"}]},{"lat":"37.288182044","long":"127.0200005","items":[{"name":"현미용실","tel":"031-242-8098","addr":"경기도 수원시 장안구 연무동 193-226번지 1층","category":"보건위생 - 미용원"}]},{"lat":"37.295235773","long":"127.02738923","items":[{"name":"현식철물건설","tel":"031-244-2101","addr":"경기도 수원시 장안구 연무동 230-2번지","category":"건축자재 - 목재·석재·철물"}]},{"lat":"37.294154415","long":"127.02799789","items":[{"name":"혜인홈패션","tel":"031-253-4926","addr":"경기도 수원시 장안구 연무동 238-2번지","category":"직물 - 침구·수예점"}]},{"lat":"37.292703425","long":"127.02955373","items":[{"name":"홈 (home)","tel":"","addr":"경기도 수원시 장안구 연무동 246-1번지","category":"일반휴게음식 - 서양음식"}]},{"lat":"37.296488045","long":"127.02811145","items":[{"name":"홍성한우전문점","tel":"031-245-0560","addr":"경기도 수원시 장안구 연무동 215-41 1층","category":"음료식품 - 정육점"}]},{"lat":"37.295343691","long":"127.02835918","items":[{"name":"화이트세탁소","tel":"031-245-9212","addr":"경기도 수원시 장안구 연무동 231-17번지","category":"수리서비스 - 세탁소"}]},{"lat":"37.29542471","long":"127.02869756","items":[{"name":"화홍농산물","tel":"031-251-1811","addr":"경기도 수원시 장안구 연무동 219-7번지","category":"음료식품 - 농·축·수산품"}]},{"lat":"37.29270404","long":"127.02666664","items":[{"name":"황보석","tel":"031-241-6074","addr":"경기도 수원시 장안구 연무동 259-1번지","category":"신변잡화 - 시계"}]},{"lat":"37.291470432","long":"127.02230185","items":[{"name":"효진유통","tel":"031-267-2347","addr":"경기도 수원시 장안구 연무동 253-33번지 보성연립 2동 101호","category":"유통업 영리 - 기타유통업"}]},{"lat":"37.291154966","long":"127.02294459","items":[{"name":"훼밀타운","tel":"031-244-7709","addr":"경기도 수원시 장안구 연무동 256-23번지 성암빌라","category":"일반휴게음식 - 일반한식"}]}]