[{"lat":"36.994352728","long":"127.14055968","items":[{"name":"(주)대민롯데리아공도드라이브점","tel":"031-692-3389","addr":"경기도 안성시 공도읍 진사리 22-11","category":"일반휴게음식 - 서양음식"}]},{"lat":"36.98857847","long":"127.14680586","items":[{"name":"(주)샬롬환경","tel":"031-405-8381","addr":"경기도 안성시 공도읍 진사리 288-10번지","category":"용역 서비스 - 종합용역"}]},{"lat":"36.995304942","long":"127.14305527","items":[{"name":"(주)코티지","tel":"031-618-7121","addr":"경기도 안성시 공도읍 진사리 10-3번지 102호","category":"가구 - 일반가구"}]},{"lat":"36.993939857","long":"127.13915476","items":[{"name":"24시가마솥국밥","tel":"","addr":"경기도 안성시 공도읍 진사리 22-14번지 가동 1층","category":"일반휴게음식 - 일반한식"}]},{"lat":"36.993553528","long":"127.13816554","items":[{"name":"24시전주명품콩나물국밥","tel":"031-657-0695","addr":"경기도 안성시 공도읍 진사리 22-45번지 1층 101호","category":"일반휴게음식 - 일반한식"},{"name":"대포햇도그","tel":"0000-1899-6821","addr":"경기도 안성시 공도읍 진사리 22-45번지","category":"일반휴게음식 - 서양음식"}]},{"lat":"36.993409957","long":"127.13763731","items":[{"name":"2U(유)","tel":"","addr":"경기도 안성시 공도읍 진사리 22-8번지 2층","category":"일반휴게음식 - 주점"},{"name":"고봉민김밥인","tel":"031-657-3833","addr":"경기도 안성시 공도읍 진사리 22-8번지 1층 102호","category":"일반휴게음식 - 일반한식"},{"name":"미인화장품","tel":"031-618-6444","addr":"경기도 안성시 공도읍 진사리 22-8번지 태지빌딩","category":"보건위생 - 화장품"},{"name":"비원","tel":"031-328-7556","addr":"경기도 안성시 공도읍 진사리 22-8번지 2층","category":"일반휴게음식 - 일반한식"},{"name":"아가월드디지털스튜디오","tel":"031-655-4711","addr":"경기도 안성시 공도읍 진사리 22-8번지 외2필지 106호","category":"광학제품 - 사진관"},{"name":"유성","tel":"031-655-1287","addr":"경기도 안성시 공도읍 진사리 22-8번지 2층","category":"일반휴게음식 - 일반한식"},{"name":"은혜텔레콤","tel":"031-692-4504","addr":"경기도 안성시 공도읍 진사리 22-8번지 103호","category":"사무통신 - 통신기기"},{"name":"이오헤어 진사리점","tel":"031-652-2520","addr":"경기도 안성시 공도읍 진사리 22-8번지 2층","category":"보건위생 - 미용원"},{"name":"정다운치과의원","tel":"031-655-2758","addr":"경기도 안성시 공도읍 진사리 22-8번지 태지빌딩 3층 302호","category":"의원 - 치과의원"},{"name":"제이(J)줌바","tel":"","addr":"경기도 안성시 공도읍 진사리 22-8번지 301호","category":"학원 - 예·체능계학원"},{"name":"코아이비인후과","tel":"031-692-8276","addr":"경기도 안성시 공도읍 진사리 22-8번지 태지빌딩 2층","category":"의원 - 의원"},{"name":"파란약국","tel":"031-657-4670","addr":"경기도 안성시 공도읍 진사리 22-8번지","category":"약국 - 약국"}]},{"lat":"36.993192909","long":"127.1383334","items":[{"name":"BYC","tel":"031-653-2649","addr":"경기도 안성시 공도읍 진사리 22-33","category":"의류 - 내의판매"},{"name":"글라스톡","tel":"031-655-0811","addr":"경기도 안성시 공도읍 진사리 22-33번지 104호","category":"보건위생 - 안경"},{"name":"때깔","tel":"031-692-6207","addr":"경기도 안성시 공도읍 진사리 22-33번지","category":"의류 - 아동의류"},{"name":"루어낚시닷컴","tel":"031-652-5933","addr":"경기도 안성시 공도읍 진사리 22-33번지","category":"레져용품 - 스포츠·레져용품"},{"name":"상상머리","tel":"031-651-3303","addr":"경기도 안성시 공도읍 진사리 22-33번지 5호","category":"보건위생 - 미용원"},{"name":"쏘자덕앤벅","tel":"031-618-1291","addr":"경기도 안성시 공도읍 진사리 22-33 (1층1호)","category":"일반휴게음식 - 스넥"},{"name":"와우~소문난감자탕","tel":"031-675-9690","addr":"경기도 안성시 공도읍 진사리 22-33번지 1층 7호","category":"일반휴게음식 - 일반한식"},{"name":"원조불타는닭갈비","tel":"031-618-0122","addr":"경기도 안성시 공도읍 진사리 22-33번지 8호","category":"일반휴게음식 - 일반한식"},{"name":"피자알볼로 공도점","tel":"031-656-8495","addr":"경기도 안성시 공도읍 진사리 22-33번지 110호","category":"일반휴게음식 - 서양음식"}]},{"lat":"36.99021672","long":"127.14064209","items":[{"name":"GS25공도양진점","tel":"","addr":"경기도 안성시 공도읍 진사리 산50-10번지 1-2호","category":"유통업 영리 - 편 의 점"},{"name":"파루시아피아노교습소","tel":"031-658-4865","addr":"경기도 안성시 공도읍 진사리 산50-10번지 상가 2층","category":"학원 - 예·체능계학원"}]},{"lat":"36.984714845","long":"127.13744227","items":[{"name":"HaoMa","tel":"031-658-1399","addr":"경기도 안성시 공도읍 진사리 103-11번지","category":"음료식품 - 기타음료식품"}]},{"lat":"36.992887108","long":"127.13783859","items":[{"name":"LG오휘진사점","tel":"031-656-8855","addr":"경기도 안성시 공도읍 진사리 22-62번지 2층","category":"보건위생 - 화장품"},{"name":"귀족","tel":"031-000-0000","addr":"경기도 안성시 공도읍 진사리 22-62번지","category":"보건위생 - 화장품"},{"name":"김밥사랑","tel":"031-651-0997","addr":"경기도 안성시 공도읍 진사리 22-62번지 1층 5호","category":"일반휴게음식 - 일반한식"},{"name":"부어치킨","tel":"031-618-2340","addr":"경기도 안성시 공도읍 진사리 22-62번지 (1층중호)","category":"일반휴게음식 - 스넥"},{"name":"용노래연습장","tel":"031-653-0305","addr":"경기도 안성시 공도읍 진사리 22-62","category":"레저업소 - 노 래 방"},{"name":"용노래연습장","tel":"031-653-0305","addr":"경기도 안성시 공도읍 진사리 22-62번지","category":"레저업소 - 노 래 방"},{"name":"파리바게트","tel":"031-655-0149","addr":"경기도 안성시 공도읍 진사리 22-62","category":"음료식품 - 제과점"}]},{"lat":"36.993130499","long":"127.13774915","items":[{"name":"M노래연습장","tel":"031-657-7168","addr":"경기도 안성시 공도읍 진사리 22-61번지","category":"레저업소 - 노 래 방"},{"name":"미다스 짐","tel":"031-618-4600","addr":"경기도 안성시 공도읍 진사리 22-61번지 서안성농업협동조합서부지점 202호","category":"레저업소 - 헬스클럽"},{"name":"씨유공도우림점","tel":"031-656-3542","addr":"경기도 안성시 공도읍 진사리 22-61번지","category":"유통업 영리 - 편 의 점"},{"name":"허슬러 당구클럽","tel":"031-654-8004","addr":"경기도 안성시 공도읍 진사리 22-61번지","category":"레저업소 - 당 구 장"}]},{"lat":"36.997298008","long":"127.14911401","items":[{"name":"SK네트웍스(주)안평주유소","tel":"031-655-2603","addr":"경기도 안성시 공도읍 진사리 2-6번지","category":"연료판매점 - SK주유소"},{"name":"씨유SK안평주유소점","tel":"031-655-2603","addr":"경기도 안성시 공도읍 진사리 2-6","category":"유통업 영리 - 편 의 점"},{"name":"토프레소","tel":"031-618-2301","addr":"경기도 안성시 공도읍 진사리 2-6번지","category":"일반휴게음식 - 서양음식"}]},{"lat":"36.99144072","long":"127.14189117","items":[{"name":"가온누리","tel":"070-4153-8400","addr":"경기도 안성시 공도읍 진사리 348 외3필지 110호","category":"보건위생 - 화장품"},{"name":"감미당","tel":"031-1111-1111","addr":"경기도 안성시 공도읍 진사리 348번지 1동 117호","category":"음료식품 - 기타음료식품"},{"name":"교촌치킨(진사리점)","tel":"031-653-8882","addr":"경기도 안성시 공도읍 진사리 348번지 서지프라자 106호","category":"일반휴게음식 - 스넥"},{"name":"그린그림미술교습소","tel":"031-654-7358","addr":"경기도 안성시 공도읍 진사리 348 서지프라자208호","category":"학원 - 예·체능계학원"},{"name":"금룡대반점","tel":"031-652-0102","addr":"경기도 안성시 공도읍 진사리 348 118","category":"일반휴게음식 - 중국식"},{"name":"달보드레","tel":"031-655-0540","addr":"경기도 안성시 공도읍 진사리 348번지 1층 105호","category":"음료식품 - 기타음료식품"},{"name":"머리를부탁해","tel":"031-654-3445","addr":"경기도 안성시 공도읍 진사리 348번지 1층 115호","category":"보건위생 - 미용원"},{"name":"메가엠지씨커피 진사리점","tel":"031-658-8536","addr":"경기도 안성시 공도읍 진사리 348번지 107호","category":"일반휴게음식 - 서양음식"},{"name":"반가와요","tel":"031-9214-3172","addr":"경기도 안성시 공도읍 진사리 348번지","category":"일반휴게음식 - 일반한식"},{"name":"에이프릴 잉글리시학원","tel":"070-4922-1261","addr":"경기도 안성시 공도읍 진사리 348번지 서지프라자 1층 112호","category":"학원 - 보습학원"},{"name":"옥쌤보습학원","tel":"031-691-2919","addr":"경기도 안성시 공도읍 진사리 348번지 202호","category":"학원 - 보습학원"},{"name":"우리동네 삼겹살","tel":"031-656-7355","addr":"경기도 안성시 공도읍 진사리 348번지 1층 111호","category":"일반휴게음식 - 일반한식"},{"name":"지엔비영어학원","tel":"031-655-0595","addr":"경기도 안성시 공도읍 진사리 348번지 202호","category":"학원 - 보습학원"},{"name":"창성곱창","tel":"","addr":"경기도 안성시 공도읍 진사리 348번지 서지프라자 113호","category":"일반휴게음식 - 일반한식"},{"name":"치킨플러스","tel":"031-654-0050","addr":"경기도 안성시 공도읍 진사리 348번지 1층 103호","category":"일반휴게음식 - 스넥"},{"name":"카르페디엠","tel":"070-8114-1004","addr":"경기도 안성시 공도읍 진사리 348번지 1층 101호","category":"일반휴게음식 - 주점"},{"name":"크린토피아 진사리점","tel":"031-618-2055","addr":"경기도 안성시 공도읍 진사리 348번지 서지프라자 1층 116호","category":"수리서비스 - 세탁소"},{"name":"클랑음악학원","tel":"031-691-0804","addr":"경기도 안성시 공도읍 진사리 348번지 303호","category":"학원 - 예·체능계학원"},{"name":"파머스 정육코너","tel":"","addr":"경기도 안성시 공도읍 진사리 348번지","category":"음료식품 - 정육점"},{"name":"파머스마켓","tel":"031-658-3345","addr":"경기도 안성시 공도읍 진사리 348번지 B1층 B -101 102호","category":"유통업 영리 - 슈퍼마켓"},{"name":"파머스분식","tel":"","addr":"경기도 안성시 공도읍 진사리 348번지 B동 102호","category":"음료식품 - 기타음료식품"},{"name":"헤어디데이","tel":"031-618-6668","addr":"경기도 안성시 공도읍 진사리 348번지 1층 114호","category":"보건위생 - 미용원"}]},{"lat":"36.988365036","long":"127.14445784","items":[{"name":"거빈(    ) 엔케이","tel":"031-652-1599","addr":"경기도 안성시 공도읍 진사리 322번지 B동 2층 전부","category":"자동차정비 유지 - 자동차부품"}]},{"lat":"36.994387673","long":"127.14150336","items":[{"name":"고기백화점","tel":"031-653-7787","addr":"경기도 안성시 공도읍 진사리 16-24번지 1층 101호","category":"음료식품 - 정육점"},{"name":"꿈을 이루는 이루다 독서실","tel":"031-654-7703","addr":"경기도 안성시 공도읍 진사리 16-24번지 2층","category":"학원 - 독서실"},{"name":"브레덴코","tel":"031-657-7252","addr":"경기도 안성시 공도읍 진사리 16-24번지 102호","category":"음료식품 - 제과점"},{"name":"스타일리시 하루","tel":"031-658-7242","addr":"경기도 안성시 공도읍 진사리 16-24번지 102호","category":"보건위생 - 미용원"}]},{"lat":"36.992023762","long":"127.14413886","items":[{"name":"고기와국수","tel":"031-618-9698","addr":"경기도 안성시 공도읍 진사리 644번지 쌍용스윗닷홈 상가동 102호","category":"일반휴게음식 - 일반한식"},{"name":"꿈나래어린이집[아이행복]","tel":"031-658-0305","addr":"경기도 안성시 공도읍 진사리 644번지 쌍용스윗닷홈 관리동","category":"학원 - 유아원"},{"name":"러블리핸드메이드 '수작'","tel":"031-000-0000","addr":"경기도 안성시 공도읍 진사리 644번지 쌍용스윗닷홈 상가동 107호","category":"문화.취미 - 민예·공예품"},{"name":"블링블링프로헤어","tel":"031-618-9698","addr":"경기도 안성시 공도읍 진사리 644번지 쌍용스윗닷홈 상가 102호","category":"보건위생 - 미용원"},{"name":"샤르망헤어","tel":"031-651-7858","addr":"경기도 안성시 공도읍 진사리 644번지 쌍용스윗닷홈 1층 104호","category":"보건위생 - 미용원"},{"name":"스마일 분식","tel":"031-618-9698","addr":"경기도 안성시 공도읍 진사리 644번지 쌍용스윗닷홈 상가동","category":"일반휴게음식 - 스넥"},{"name":"쌍용세탁소","tel":"031-692-0440","addr":"경기도 안성시 공도읍 진사리 644번지 쌍용스윗닷홈 상가 105호","category":"수리서비스 - 세탁소"},{"name":"엠에스티","tel":"031-654-2895","addr":"경기도 안성시 공도읍 진사리 644번지 쌍용스윗닷홈 상가동 1층 108호","category":"신변잡화 - 액세서리"},{"name":"이마트24 안성쌍용점","tel":"","addr":"경기도 안성시 공도읍 진사리 644번지 쌍용스윗닷홈 상가동 102호","category":"유통업 영리 - 편 의 점"},{"name":"짱구머리","tel":"070-4132-2656","addr":"경기도 안성시 공도읍 진사리 644번지 쌍용스윗닷홈 상가동 201호","category":"보건위생 - 미용원"},{"name":"황제인테리어","tel":"031-618-8277","addr":"경기도 안성시 공도읍 진사리 644번지 쌍용스윗닷홈 상가동 107호","category":"건축자재 - 인테리어전문"}]},{"lat":"36.985778197","long":"127.13736551","items":[{"name":"고릴라캠핑평택점","tel":"031-656-6623","addr":"경기도 안성시 공도읍 진사리 86-2번지","category":"레져용품 - 스포츠·레져용품"},{"name":"위드 체대입시","tel":"031-656-3884","addr":"경기도 안성시 공도읍 진사리 86-2번지 2층","category":"학원 - 예·체능계학원"},{"name":"주식회사 스마트황토가마","tel":"031-655-6321","addr":"경기도 안성시 공도읍 진사리 86-2번지 1층","category":"주방용구 - 주방용구"},{"name":"주식회사똘래/똘래샤브맛","tel":"031-656-7277","addr":"경기도 안성시 공도읍 진사리 86-2번지","category":"일반휴게음식 - 일반한식"},{"name":"참맛밥상/(주)스마트콤보테크","tel":"","addr":"경기도 안성시 공도읍 진사리 86-2번지","category":"일반휴게음식 - 일반한식"},{"name":"풋살매니아 평택점","tel":"031-000-0000","addr":"경기도 안성시 공도읍 진사리 86-2번지 옥상층","category":"레저업소 - 기타레져업소"},{"name":"황토네","tel":"031-658-6447","addr":"경기도 안성시 공도읍 진사리 86-2번지","category":"일반휴게음식 - 일반한식"}]},{"lat":"36.994272662","long":"127.14727716","items":[{"name":"고센푸드","tel":"070-4402-2747","addr":"경기도 안성시 공도읍 진사리 354번지","category":"일반휴게음식 - 일반한식"},{"name":"사랑스포츠","tel":"","addr":"경기도 안성시 공도읍 진사리 354번지 3동","category":"학원 - 기타 교육기관"}]},{"lat":"36.9910541","long":"127.14117155","items":[{"name":"관인 경희 석사음악학원","tel":"031-657-2113","addr":"경기도 안성시 공도읍 진사리 348-9번지 2층 208호,209호","category":"학원 - 예·체능계학원"},{"name":"대장간","tel":"031-651-6223","addr":"경기도 안성시 공도읍 진사리 348-9","category":"일반휴게음식 - 일반한식"},{"name":"더(The)장뜰","tel":"031-692-1705","addr":"경기도 안성시 공도읍 진사리 348-9번지 112호","category":"음료식품 - 기타음료식품"},{"name":"더클래식음악학원","tel":"031-657-2113","addr":"경기도 안성시 공도읍 진사리 348-9번지 외2필지 2층","category":"학원 - 예·체능계학원"},{"name":"딜리버리킹","tel":"031-658-0937","addr":"경기도 안성시 공도읍 진사리 348-9번지 1층","category":"일반휴게음식 - 일반한식"},{"name":"먹방김밥","tel":"031-656-5929","addr":"경기도 안성시 공도읍 진사리 348-9번지 107호","category":"일반휴게음식 - 일반한식"},{"name":"베로키오미술학원","tel":"031-651-2356","addr":"경기도 안성시 공도읍 진사리 348-9번지 210,211호","category":"학원 - 예·체능계학원"},{"name":"뷔크 에스떼","tel":"","addr":"경기도 안성시 공도읍 진사리 348-9번지 1(X12~X13)층","category":"보건위생 - 피부미용실"},{"name":"비비큐(BBQ)청설점","tel":"031-658-3310","addr":"경기도 안성시 공도읍 진사리 348-9번지 110호","category":"일반휴게음식 - 스넥"},{"name":"색연필","tel":"031-658-5608","addr":"경기도 안성시 공도읍 진사리 348-9번지 청용프라자 105호","category":"서적문구 - 문구용품"},{"name":"소풍","tel":"031-655-8339","addr":"경기도 안성시 공도읍 진사리 348-9번지 103호","category":"일반휴게음식 - 서양음식"},{"name":"아로마 앤 플라워","tel":"031-655-2016","addr":"경기도 안성시 공도읍 진사리 348-9번지 110호","category":"문화.취미 - 문화취미기타"},{"name":"아름다울련(공도점)","tel":"031-618-4810","addr":"경기도 안성시 공도읍 진사리 348-9번지 104호","category":"보건위생 - 미용원"},{"name":"양진독서실","tel":"","addr":"경기도 안성시 공도읍 진사리 348-9번지 청룡프라자 105호~109호","category":"학원 - 독서실"},{"name":"양진독서실","tel":"031-618-5689","addr":"경기도 안성시 공도읍 진사리 348-9번지 청룡프라자 B105-B109호","category":"학원 - 독서실"},{"name":"양진학원","tel":"031-658-0910","addr":"경기도 안성시 공도읍 진사리 348-9번지 2층 205~207호","category":"학원 - 보습학원"},{"name":"영심이백반정식","tel":"031-692-3399","addr":"경기도 안성시 공도읍 진사리 348-9번지","category":"일반휴게음식 - 일반한식"},{"name":"진사리감자탕","tel":"031-691-1110","addr":"경기도 안성시 공도읍 진사리 348-9번지","category":"일반휴게음식 - 일반한식"},{"name":"진사리왕족발","tel":"031-651-6412","addr":"경기도 안성시 공도읍 진사리 348-9번지 1층 114호","category":"일반휴게음식 - 일반한식"},{"name":"참 좋은 학원","tel":"031-651-6162","addr":"경기도 안성시 공도읍 진사리 348-9번지 2층","category":"학원 - 보습학원"},{"name":"평택불닭발","tel":"031-655-2311","addr":"경기도 안성시 공도읍 진사리 348-9번지 108호","category":"일반휴게음식 - 일반한식"},{"name":"함지","tel":"031-618-1574","addr":"경기도 안성시 공도읍 진사리 348-9번지 1층 113호","category":"의류 - 정장"},{"name":"행복한 전주콩나물","tel":"031-651-0888","addr":"경기도 안성시 공도읍 진사리 348-9번지 1층 1,2호","category":"일반휴게음식 - 일반한식"},{"name":"흙과사람들","tel":"031-651-4964","addr":"경기도 안성시 공도읍 진사리 348-9번지 외2필지","category":"일반휴게음식 - 일반한식"}]},{"lat":"36.992165023","long":"127.1389157","items":[{"name":"광동약국","tel":"070-7782-7575","addr":"경기도 안성시 공도읍 진사리 20-29번지 광동아이비타운 B동 103호","category":"약국 - 약국"},{"name":"광동한방보쌈","tel":"031-657-8181","addr":"경기도 안성시 공도읍 진사리 20-29번지 101호","category":"일반휴게음식 - 일반한식"},{"name":"김고집","tel":"031-655-0487","addr":"경기도 안성시 공도읍 진사리 20-29번지","category":"일반휴게음식 - 일반한식"},{"name":"멕시카나","tel":"031-652-9248","addr":"경기도 안성시 공도읍 진사리 20-29번지 아이비타운 B동 102호","category":"일반휴게음식 - 스넥"},{"name":"못된송아지공도진사점","tel":"031-656-1309","addr":"경기도 안성시 공도읍 진사리 20-29번지","category":"일반휴게음식 - 일반한식"},{"name":"아모레카운셀러","tel":"031-651-0785","addr":"경기도 안성시 공도읍 진사리 20-29번지 광동아이비타운 B동 3층","category":"보건위생 - 화장품"},{"name":"아모레카운셀러","tel":"031-651-0785","addr":"경기도 안성시 공도읍 진사리 20-29번지 광동아이비타운 B동 301호","category":"보건위생 - 화장품"},{"name":"아모레카운셀러","tel":"031-651-0785","addr":"경기도 안성시 공도읍 진사리 20-29번지 광동아이비타운 B동 3층","category":"보건위생 - 화장품"},{"name":"아모레카운셀러","tel":"031-651-0785","addr":"경기도 안성시 공도읍 진사리 20-29번지 광동아이비타운 B동 301호","category":"보건위생 - 화장품"},{"name":"아모레카운셀러","tel":"031-651-0785","addr":"경기도 안성시 공도읍 진사리 20-29번지 광동아이비타운 B동 301호","category":"보건위생 - 화장품"},{"name":"아모레카운셀러","tel":"031-651-0785","addr":"경기도 안성시 공도읍 진사리 20-29번지 광동아이비타운 B동 301호","category":"보건위생 - 화장품"},{"name":"아모레카운셀러","tel":"031-651-0785","addr":"경기도 안성시 공도읍 진사리 20-29번지 광동아이비타운 B동 301호","category":"보건위생 - 화장품"},{"name":"아모레카운셀러","tel":"031-651-0785","addr":"경기도 안성시 공도읍 진사리 20-29번지 광동아이비타운 B동 301호","category":"보건위생 - 화장품"},{"name":"아모레카운셀러","tel":"031-651-0785","addr":"경기도 안성시 공도읍 진사리 20-29번지 광동아이비타운 B동 301호","category":"보건위생 - 화장품"},{"name":"아모레카운셀러","tel":"031-651-0785","addr":"경기도 안성시 공도읍 진사리 20-29번지 광동아이비타운 B동 301호","category":"보건위생 - 화장품"},{"name":"아모레카운셀러","tel":"031-651-0785","addr":"경기도 안성시 공도읍 진사리 20-29번지 광동아이비타운 B동 301호","category":"보건위생 - 화장품"},{"name":"아모레카운셀러","tel":"031-651-0785","addr":"경기도 안성시 공도읍 진사리 20-29번지 광동아이비타운 B동 301호","category":"보건위생 - 화장품"},{"name":"아모레카운셀러","tel":"031-651-0785","addr":"경기도 안성시 공도읍 진사리 20-29번지 광동아이비타운 B동 301호","category":"보건위생 - 화장품"},{"name":"아모레카운셀러","tel":"031-651-0785","addr":"경기도 안성시 공도읍 진사리 20-29번지 광동아이비타운 B동 3층","category":"보건위생 - 화장품"},{"name":"아모레카운셀러","tel":"031-651-0785","addr":"경기도 안성시 공도읍 진사리 20-29번지 광동아이비타운 B동 3층","category":"보건위생 - 화장품"},{"name":"아모레카운셀러","tel":"031-651-0785","addr":"경기도 안성시 공도읍 진사리 20-29번지 광동아이비타운 B동 301호","category":"보건위생 - 화장품"},{"name":"아모레카운셀러","tel":"031-651-0785","addr":"경기도 안성시 공도읍 진사리 20-29번지 B동 301호","category":"보건위생 - 화장품"},{"name":"아모레카운셀러","tel":"031-651-0785","addr":"경기도 안성시 공도읍 진사리 20-29번지 B동 301호","category":"보건위생 - 화장품"},{"name":"아모레카운셀러","tel":"031-651-0785","addr":"경기도 안성시 공도읍 진사리 20-29번지 광동아이비타운 B동 301호","category":"보건위생 - 화장품"},{"name":"아모레카운셀러","tel":"031-651-0785","addr":"경기도 안성시 공도읍 진사리 20-29번지 B동 301호","category":"보건위생 - 화장품"},{"name":"아모레카운셀러","tel":"031-651-0785","addr":"경기도 안성시 공도읍 진사리 20-29번지 광동아이비타운 B동 301호","category":"보건위생 - 화장품"},{"name":"아모레카운셀러","tel":"031-651-0785","addr":"경기도 안성시 공도읍 진사리 20-29번지 B동 301호","category":"보건위생 - 화장품"},{"name":"아모레카운셀러","tel":"031-651-0785","addr":"경기도 안성시 공도읍 진사리 20-29번지 B동 301호","category":"보건위생 - 화장품"},{"name":"아모레카운셀러","tel":"031-651-0785","addr":"경기도 안성시 공도읍 진사리 20-29번지 광동아이비타운 B동 301호","category":"보건위생 - 화장품"},{"name":"아모레카운셀러","tel":"031-651-0785","addr":"경기도 안성시 공도읍 진사리 20-29번지 광동아이비타운 B동 301호","category":"보건위생 - 화장품"},{"name":"아모레카운셀러","tel":"031-651-0785","addr":"경기도 안성시 공도읍 진사리 20-29번지 광동아이비타운 B동 301호","category":"보건위생 - 화장품"},{"name":"아모레카운셀러","tel":"031-651-0785","addr":"경기도 안성시 공도읍 진사리 20-29번지 B동 301호","category":"보건위생 - 화장품"},{"name":"아모레카운셀러","tel":"031-651-0785","addr":"경기도 안성시 공도읍 진사리 20-29번지 B동 301호","category":"보건위생 - 화장품"},{"name":"아모레카운셀러","tel":"031-651-0785","addr":"경기도 안성시 공도읍 진사리 20-29번지 광동아이비타운 B동 301호","category":"보건위생 - 화장품"},{"name":"아모레카운셀러","tel":"031-651-0785","addr":"경기도 안성시 공도읍 진사리 20-29번지 광동아이비타운 B동 3층","category":"보건위생 - 화장품"},{"name":"화려한 가위질","tel":"070-8841-5073","addr":"경기도 안성시 공도읍 진사리 20-29번지 1층","category":"보건위생 - 미용원"}]},{"lat":"36.992191999","long":"127.14661047","items":[{"name":"국공립 진사어린이집[아이행복]","tel":"031-671-1238","addr":"경기도 안성시 공도읍 진사리 353-4번지","category":"학원 - 유아원"}]},{"lat":"36.992633514","long":"127.1389727","items":[{"name":"굿샵평택대점","tel":"070-7817-9009","addr":"경기도 안성시 공도읍 진사리 20-40번지 103호","category":"유통업 영리 - 편 의 점"},{"name":"라하 헤어","tel":"031-652-8288","addr":"경기도 안성시 공도읍 진사리 20-40번지 102호","category":"보건위생 - 미용원"},{"name":"밀향기칼국수보쌈","tel":"031-653-8201","addr":"경기도 안성시 공도읍 진사리 20-40번지 2(1층)","category":"일반휴게음식 - 일반한식"},{"name":"안성깍뚜기","tel":"031-691-3775","addr":"경기도 안성시 공도읍 진사리 20-40번지 1층","category":"일반휴게음식 - 일반한식"},{"name":"자연한의원","tel":"031-655-3657","addr":"경기도 안성시 공도읍 진사리 20-40번지 201호","category":"의원 - 한의원"}]},{"lat":"36.993884472","long":"127.14030047","items":[{"name":"그랜드마트","tel":"031-651-6089","addr":"경기도 안성시 공도읍 진사리 22-47번지","category":"유통업 영리 - 슈퍼마켓"},{"name":"작은빵마을","tel":"031-654-3902","addr":"경기도 안성시 공도읍 진사리 22-47","category":"음료식품 - 제과점"}]},{"lat":"36.988775945","long":"127.13983074","items":[{"name":"그린랜드 키즈카페","tel":"031-653-8279","addr":"경기도 안성시 공도읍 진사리 123-4번지","category":"일반휴게음식 - 일반한식"},{"name":"그린랜드/(주)소보바스코리아(안성지점 그","tel":"031-653-8279","addr":"경기도 안성시 공도읍 진사리 123-4번지 1층","category":"일반휴게음식 - 일반한식"},{"name":"박윤혜무용학원","tel":"031-652-6992","addr":"경기도 안성시 공도읍 진사리 123-4번지","category":"학원 - 예·체능계학원"}]},{"lat":"36.99074513","long":"127.15080887","items":[{"name":"그린벅스인터내셔날","tel":"070-8991-9979","addr":"경기도 안성시 공도읍 진사리 394-4번지","category":"회원제형태 - 건강식품"},{"name":"솔밭가든","tel":"031-652-4623","addr":"경기도 안성시 공도읍 진사리 394-4번지","category":"일반휴게음식 - 일반한식"}]},{"lat":"36.989491947","long":"127.14397692","items":[{"name":"그림나라어린이집","tel":"031-657-6977","addr":"경기도 안성시 공도읍 진사리 318-3","category":"학원 - 유아원"}]},{"lat":"36.990414341","long":"127.1411704","items":[{"name":"나엘텔레콤","tel":"031-651-7729","addr":"경기도 안성시 공도읍 진사리 338-1번지","category":"사무통신 - 통신기기"},{"name":"맑은샘 세신","tel":"031-658-8057","addr":"경기도 안성시 공도읍 진사리 338-1번지","category":"보건위생 - 기타대인서비스"},{"name":"맑은샘 스낵","tel":"031-618-7288","addr":"경기도 안성시 공도읍 진사리 338-1번지 2층","category":"일반휴게음식 - 일반한식"},{"name":"맑은샘대중사우나","tel":"031-658-8058","addr":"경기도 안성시 공도읍 진사리 338-1번지","category":"보건위생 - 사우나"},{"name":"맑은샘식당","tel":"031-668-1118","addr":"경기도 안성시 공도읍 진사리 338-1번지 3층","category":"일반휴게음식 - 일반한식"},{"name":"맑은샘피부관리실","tel":"031-654-2532","addr":"경기도 안성시 공도읍 진사리 338-1번지 3층","category":"보건위생 - 피부미용실"},{"name":"여탕매점","tel":"070-7435-3632","addr":"경기도 안성시 공도읍 진사리 338-1","category":"음료식품 - 기타음료식품"}]},{"lat":"36.992832353","long":"127.13844509","items":[{"name":"노리터PC카페","tel":"","addr":"경기도 안성시 공도읍 진사리 20-28번지 A동 4층","category":"레저업소 - 기타레져업소"},{"name":"다함께 폰폰폰","tel":"031-6555-1887","addr":"경기도 안성시 공도읍 진사리 20-28번지 광동아이비타운 A동 104호","category":"사무통신 - 통신기기"},{"name":"드림점핑요가","tel":"031-656-7644","addr":"경기도 안성시 공도읍 진사리 20-28번지 301호","category":"레저업소 - 헬스클럽"},{"name":"베니베베 안성공도점","tel":"031-000-0000","addr":"경기도 안성시 공도읍 진사리 20-28번지 202-2호","category":"의류 - 아동의류"},{"name":"삼성키즈소아청소년과의원","tel":"031-692-7500","addr":"경기도 안성시 공도읍 진사리 20-28번지 광동아이비타운 A동 203호","category":"의원 - 의원"},{"name":"솔한의원","tel":"031-937-8575","addr":"경기도 안성시 공도읍 진사리 20-28번지 302호","category":"의원 - 한의원"},{"name":"숲 감각통합 연구소","tel":"031-653-5375","addr":"경기도 안성시 공도읍 진사리 20-28번지 303호","category":"보건위생 - 기타대인서비스"},{"name":"아이비(ivy)노래연습장","tel":"031-656-7139","addr":"경기도 안성시 공도읍 진사리 20-28번지 B02호","category":"레저업소 - 노 래 방"},{"name":"아이비노래연습장","tel":"031-656-7139","addr":"경기도 안성시 공도읍 진사리 20-28번지","category":"레저업소 - 노 래 방"},{"name":"에스에스마켓","tel":"070-7538-4475","addr":"경기도 안성시 공도읍 진사리 20-28번지 1층 101호","category":"의류 - 정장"},{"name":"옷장","tel":"070-8242-3453","addr":"경기도 안성시 공도읍 진사리 20-28번지 103호","category":"의류 - 정장"},{"name":"케이디산업개발(주)","tel":"031-653-7137","addr":"경기도 안성시 공도읍 진사리 20-28번지 4층","category":"일반휴게음식 - 일반한식"},{"name":"케이디산업개발(주)탐앤탐스","tel":"031-655-4565","addr":"경기도 안성시 공도읍 진사리 20-28번지 4층","category":"일반휴게음식 - 스넥"},{"name":"케이디한방사료(주)/IVY노래연습장","tel":"031-656-7139","addr":"경기도 안성시 공도읍 진사리 20-28번지 402호","category":"레저업소 - 노 래 방"},{"name":"케이디한방사료(주)피쉬앤그릴","tel":"031-654-7137","addr":"경기도 안성시 공도읍 진사리 20-28번지 402호","category":"일반휴게음식 - 일반한식"},{"name":"튼튼약국","tel":"070-4129-5081","addr":"경기도 안성시 공도읍 진사리 20-28번지 광동아이비 상가 A동 2층","category":"약국 - 약국"},{"name":"하루애커피","tel":"","addr":"경기도 안성시 공도읍 진사리 20-28번지 201호","category":"일반휴게음식 - 서양음식"}]},{"lat":"36.984496203","long":"127.13953104","items":[{"name":"농사이야기 농담","tel":"031-655-9718","addr":"경기도 안성시 공도읍 진사리 157-2번지","category":"음료식품 - 미곡상"}]},{"lat":"36.98710287","long":"127.13727798","items":[{"name":"다루","tel":"031-651-5562","addr":"경기도 안성시 공도읍 진사리 111-14번지 1층","category":"일반휴게음식 - 일반한식"}]},{"lat":"36.992498225","long":"127.13908479","items":[{"name":"다올헤어","tel":"031-675-2931","addr":"경기도 안성시 공도읍 진사리 20-43번지 하모니3차 1층","category":"보건위생 - 미용원"},{"name":"칭구야","tel":"031-675-8905","addr":"경기도 안성시 공도읍 진사리 20-43번지 하모니3차 1층 좌측호","category":"일반휴게음식 - 일반한식"}]},{"lat":"36.992526438","long":"127.13805138","items":[{"name":"대성킴복싱클럽","tel":"031-655-1272","addr":"경기도 안성시 공도읍 진사리 20-23번지","category":"회원제형태 - 레져업소"},{"name":"바닷가사람들","tel":"02-111-1111","addr":"경기도 안성시 공도읍 진사리 20-23번지 1층 104호","category":"음료식품 - 농·축·수산품"},{"name":"짱깨루","tel":"031-618-8810","addr":"경기도 안성시 공도읍 진사리 20-23번지 지하1층","category":"일반휴게음식 - 중국식"},{"name":"헤어코코","tel":"031-652-1213","addr":"경기도 안성시 공도읍 진사리 20-23번지","category":"보건위생 - 미용원"},{"name":"홍희통닭","tel":"031-651-6673","addr":"경기도 안성시 공도읍 진사리 20-23번지 1층 102호","category":"일반휴게음식 - 일반한식"}]},{"lat":"36.994576161","long":"127.14213278","items":[{"name":"대현인테리어","tel":"031-657-4812","addr":"경기도 안성시 공도읍 진사리 16-44번지 위더스빌딩 101동 102호","category":"건축자재 - 인테리어전문"}]},{"lat":"36.985914055","long":"127.13674798","items":[{"name":"도서총판 서가","tel":"031-671-7447","addr":"경기도 안성시 공도읍 진사리 86-5번지","category":"서적문구 - 일반서적"},{"name":"도서총판 서가","tel":"031-652-3002","addr":"경기도 안성시 공도읍 진사리 86-5번지","category":"회원제형태 - 서적"},{"name":"주식회사 현하이테크","tel":"070-4126-7444","addr":"경기도 안성시 공도읍 진사리 86-5번지 B","category":"전기제품 - 기타전기제품"}]},{"lat":"36.987361771","long":"127.13939014","items":[{"name":"도서총판정남","tel":"031-656-3880","addr":"경기도 안성시 공도읍 진사리 121-9번지 1층","category":"서적문구 - 일반서적"}]},{"lat":"36.99299416","long":"127.13878238","items":[{"name":"돈가네옛날김치돼지찌개","tel":"031-664-5822","addr":"경기도 안성시 공도읍 진사리 20-32번지","category":"일반휴게음식 - 일반한식"}]},{"lat":"36.991913481","long":"127.1382525","items":[{"name":"두리사랑","tel":"031-654-1245","addr":"경기도 안성시 공도읍 진사리 37-2번지 102호","category":"음료식품 - 기타음료식품"}]},{"lat":"36.992355197","long":"127.13808478","items":[{"name":"땅땅치킨","tel":"031-653-4888","addr":"경기도 안성시 공도읍 진사리 20-19번지","category":"일반휴게음식 - 스넥"},{"name":"맘스터치 진사점","tel":"031-618-9991","addr":"경기도 안성시 공도읍 진사리 20-19번지 1층 101호","category":"일반휴게음식 - 서양음식"},{"name":"코코만의피부이야기","tel":"031-616-5455","addr":"경기도 안성시 공도읍 진사리 20-19번지","category":"회원제형태 - 기타4"},{"name":"한국한의원","tel":"031-653-1075","addr":"경기도 안성시 공도읍 진사리 20-19번지 3층","category":"의원 - 한의원"},{"name":"현세당구클럽","tel":"031-656-7977","addr":"경기도 안성시 공도읍 진사리 20-19번지 2층","category":"레저업소 - 당 구 장"}]},{"lat":"36.992715752","long":"127.13797309","items":[{"name":"랑데뷰화장품","tel":"031-655-9496","addr":"경기도 안성시 공도읍 진사리 20-12번지 103호","category":"보건위생 - 화장품"},{"name":"정하당","tel":"031-691-9777","addr":"경기도 안성시 공도읍 진사리 20-12번지 102호","category":"신변잡화 - 귀금속"},{"name":"채플린노래연습장","tel":"031-653-4215","addr":"경기도 안성시 공도읍 진사리 20-12번지 지하1층","category":"레저업소 - 노 래 방"},{"name":"카리스마당구장","tel":"031-656-9316","addr":"경기도 안성시 공도읍 진사리 20-12","category":"레저업소 - 당 구 장"},{"name":"커피에반하다","tel":"","addr":"경기도 안성시 공도읍 진사리 20-12번지 A동","category":"일반휴게음식 - 서양음식"}]},{"lat":"36.993717115","long":"127.14469243","items":[{"name":"리시오카페","tel":"031-657-0061","addr":"경기도 안성시 공도읍 진사리 354-16 진사도서관","category":"일반휴게음식 - 스넥"}]},{"lat":"36.989858531","long":"127.13869817","items":[{"name":"머리쉼터","tel":"031-655-9060","addr":"경기도 안성시 공도읍 진사리 36-1번지 주은청설 상가 A동 201,202호","category":"보건위생 - 미용원"},{"name":"박가네","tel":"031-655-0779","addr":"경기도 안성시 공도읍 진사리 36-1 주은청설상가지하106호","category":"일반휴게음식 - 일반한식"},{"name":"센스쟁이","tel":"031-652-0374","addr":"경기도 안성시 공도읍 진사리 36-1","category":"보건위생 - 미용원"},{"name":"소락","tel":"031-000-0000","addr":"경기도 안성시 공도읍 진사리 36-1번지 A동 117호","category":"음료식품 - 기타음료식품"},{"name":"제주 삼다수 (평택)","tel":"031-691-8223","addr":"경기도 안성시 공도읍 진사리 36-1번지 주은청설아파트","category":"유통업 영리 - 기타유통업"},{"name":"춘천닭갈비","tel":"031-618-0556","addr":"경기도 안성시 공도읍 진사리 36-1 주은청설상가A동213호~216호","category":"일반휴게음식 - 일반한식"},{"name":"커피집","tel":"031-658-6056","addr":"경기도 안성시 공도읍 진사리 36-1번지 A동 113호","category":"일반휴게음식 - 서양음식"}]},{"lat":"36.992165883","long":"127.13816308","items":[{"name":"머리여행","tel":"031-658-0501","addr":"경기도 안성시 공도읍 진사리 20-20번지 1층","category":"보건위생 - 미용원"},{"name":"샹떼PC방 안성공도점","tel":"070-9433-3295","addr":"경기도 안성시 공도읍 진사리 20-20번지 201호,301호","category":"레저업소 - 기타레져업소"},{"name":"어우동","tel":"031-657-2837","addr":"경기도 안성시 공도읍 진사리 20-20번지","category":"일반휴게음식 - 일반한식"},{"name":"여우야","tel":"031-653-7476","addr":"경기도 안성시 공도읍 진사리 20-20 상가1층1호","category":"의류 - 정장"}]},{"lat":"36.991522236","long":"127.14153186","items":[{"name":"머리하는날","tel":"031-657-7157","addr":"경기도 안성시 공도읍 진사리 348-8번지 상가 1층 101호","category":"보건위생 - 미용원"},{"name":"빼박캔트버거","tel":"031-658-8553","addr":"경기도 안성시 공도읍 진사리 348-8번지 2층 101호","category":"일반휴게음식 - 서양음식"},{"name":"진사탁구클럽","tel":"031-618-3799","addr":"경기도 안성시 공도읍 진사리 348-8번지","category":"레저업소 - 기타레져업소"},{"name":"코너스톤영어학원(제1학습관)","tel":"031-658-2443","addr":"경기도 안성시 공도읍 진사리 348-8번지 2층","category":"회원제형태 - 학원"},{"name":"코바코","tel":"031-653-3434","addr":"경기도 안성시 공도읍 진사리 348-8","category":"일반휴게음식 - 서양음식"},{"name":"프라임학원","tel":"031-656-1919","addr":"경기도 안성시 공도읍 진사리 348-8번지 2층 206호","category":"학원 - 보습학원"},{"name":"해맑은치과","tel":"031-652-7522","addr":"경기도 안성시 공도읍 진사리 348-8번지 207호","category":"의원 - 치과의원"}]},{"lat":"36.991577659","long":"127.14036372","items":[{"name":"명가반찬 가정식 뷔페","tel":"031-653-1915","addr":"경기도 안성시 공도읍 진사리 20-14번지 상가동 B09호","category":"일반휴게음식 - 일반한식"},{"name":"삼성양진학원","tel":"031-656-1705","addr":"경기도 안성시 공도읍 진사리 20-14 우림상가2층207","category":"학원 - 보습학원"},{"name":"양진히어로즈태권도장","tel":"031-655-7123","addr":"경기도 안성시 공도읍 진사리 20-14번지 2층 205,206호","category":"학원 - 예·체능계학원"}]},{"lat":"36.987632002","long":"127.13946925","items":[{"name":"무지개가든","tel":"031-658-5550","addr":"경기도 안성시 공도읍 진사리 121-1번지","category":"일반휴게음식 - 일반한식"}]},{"lat":"36.992831878","long":"127.13886072","items":[{"name":"미향","tel":"031-655-5992","addr":"경기도 안성시 공도읍 진사리 20-33번지 1동 1층","category":"일반휴게음식 - 중국식"},{"name":"백봉연탄불생고기","tel":"031-653-2301","addr":"경기도 안성시 공도읍 진사리 20-33번지 1동","category":"일반휴게음식 - 일반한식"},{"name":"소문난아구찜","tel":"031-656-5860","addr":"경기도 안성시 공도읍 진사리 20-33번지 1층","category":"일반휴게음식 - 일반한식"},{"name":"신사동포차","tel":"031-655-8374","addr":"경기도 안성시 공도읍 진사리 20-33번지 1동 1층","category":"일반휴게음식 - 일반한식"},{"name":"쪽갈비친구뒷고기","tel":"031-618-8115","addr":"경기도 안성시 공도읍 진사리 20-33번지 101호","category":"일반휴게음식 - 일반한식"},{"name":"홍어전술(포장마차)","tel":"031-692-5292","addr":"경기도 안성시 공도읍 진사리 20-33번지 1동","category":"일반휴게음식 - 일반한식"}]},{"lat":"36.988164264","long":"127.13891981","items":[{"name":"민이네추어탕","tel":"031-651-5073","addr":"경기도 안성시 공도읍 진사리 117번지 가동 1층","category":"일반휴게음식 - 일반한식"},{"name":"웰빙인테리어","tel":"031-656-5794","addr":"경기도 안성시 공도읍 진사리 117번지 가동 9호","category":"건축자재 - 인테리어전문"},{"name":"유진네트웍스","tel":"031-618-5277","addr":"경기도 안성시 공도읍 진사리 117번지","category":"전기제품 - 기타전기제품"}]},{"lat":"36.985854762","long":"127.14130816","items":[{"name":"바나나어린이집[아이행복]","tel":"031-657-2335","addr":"경기도 안성시 공도읍 진사리 133-7번지","category":"학원 - 유아원"},{"name":"해돋이어린이집[아이행복]","tel":"031-656-3052","addr":"경기도 안성시 공도읍 진사리 133-7번지","category":"학원 - 유아원"}]},{"lat":"36.993547168","long":"127.14363617","items":[{"name":"박S'헤어샵","tel":"031-656-1732","addr":"경기도 안성시 공도읍 진사리 643-1번지 우림루미아트 상가 206호","category":"보건위생 - 미용원"},{"name":"용인대 건영 태권도장","tel":"031-692-1317","addr":"경기도 안성시 공도읍 진사리 643-1번지 3층","category":"학원 - 예·체능계학원"},{"name":"우등생학원","tel":"031-657-0079","addr":"경기도 안성시 공도읍 진사리 643-1번지 상가동 202,203호","category":"학원 - 보습학원"}]},{"lat":"36.985166446","long":"127.13649956","items":[{"name":"번창","tel":"031-111-1111","addr":"경기도 안성시 공도읍 진사리 87-1번지 1층","category":"용역 서비스 - 기타용역서비스"}]},{"lat":"36.989666519","long":"127.14111288","items":[{"name":"사강학원","tel":"031-647-4410","addr":"경기도 안성시 공도읍 진사리 340-9번지 2층","category":"학원 - 보습학원"}]},{"lat":"36.988995116","long":"127.13728131","items":[{"name":"성모어린이집[아이행복]","tel":"031-653-0312","addr":"경기도 안성시 공도읍 진사리 51-1번지","category":"학원 - 유아원"}]},{"lat":"36.991966401","long":"127.13925234","items":[{"name":"세븐일레븐안성공도우림점","tel":"031-1577-0711","addr":"경기도 안성시 공도읍 진사리 20-30번지 102호 101호, 102호","category":"유통업 영리 - 편 의 점"},{"name":"줌바피트니스","tel":"","addr":"경기도 안성시 공도읍 진사리 20-30번지 아이비타운 C동 2층 201호","category":"레저업소 - 헬스클럽"},{"name":"탑당구클럽","tel":"031-657-0877","addr":"경기도 안성시 공도읍 진사리 20-30번지 3층 C-301호","category":"레저업소 - 당 구 장"}]},{"lat":"36.993912876","long":"127.13910978","items":[{"name":"세사리빙 공도진사점","tel":"031-673-9276","addr":"경기도 안성시 공도읍 진사리 22-14번지","category":"직물 - 카페트,커튼,천막,지물"},{"name":"월드타바코전자담배안성점","tel":"031-651-0800","addr":"경기도 안성시 공도읍 진사리 22-14번지 나동 1층","category":"기타 - 기타 전문점"}]},{"lat":"36.994020527","long":"127.13952561","items":[{"name":"솥뚜껑삼겹살","tel":"031-656-5865","addr":"경기도 안성시 공도읍 진사리 22-13번지","category":"일반휴게음식 - 일반한식"},{"name":"신진성 아구찜","tel":"031-657-5074","addr":"경기도 안성시 공도읍 진사리 22-13번지 1층 우측 AD1-2호","category":"일반휴게음식 - 일반한식"}]},{"lat":"36.985076617","long":"127.1362523","items":[{"name":"숟가락푸드","tel":"031-684-8798","addr":"경기도 안성시 공도읍 진사리 85번지","category":"음료식품 - 기타음료식품"},{"name":"태경식품","tel":"031-674-0789","addr":"경기도 안성시 공도읍 진사리 85번지 1층","category":"음료식품 - 농·축·수산품"}]},{"lat":"36.992717384","long":"127.14430864","items":[{"name":"시간 아끼는 방문 세차","tel":"","addr":"경기도 안성시 공도읍 진사리 644번지 쌍용스윗닷홈 103동 1701호","category":"자동차정비 유지 - 세차장"}]},{"lat":"36.986218019","long":"127.13886018","items":[{"name":"썸머힐어린이집[아이행복]","tel":"031-618-2611","addr":"경기도 안성시 공도읍 진사리 109-2번지","category":"학원 - 유아원"}]},{"lat":"36.991132252","long":"127.14367666","items":[{"name":"아신매직","tel":"031-651-6039","addr":"경기도 안성시 공도읍 진사리 644번지 쌍용스윗닷홈 112동 202호","category":"문화.취미 - 티켓"},{"name":"태흥인테리어","tel":"031-616-3232","addr":"경기도 안성시 공도읍 진사리 644번지 쌍용스윗닷홈 112동 104호","category":"건축자재 - 인테리어전문"}]},{"lat":"36.990108279","long":"127.14091149","items":[{"name":"양진문구","tel":"031-655-7979","addr":"경기도 안성시 공도읍 진사리 335-11","category":"서적문구 - 문구용품"},{"name":"피아노치는아이들피아노교습소","tel":"031-691-4560","addr":"경기도 안성시 공도읍 진사리 335-11번지","category":"학원 - 예·체능계학원"},{"name":"한결에듀학원","tel":"031-618-0647","addr":"경기도 안성시 공도읍 진사리 335-11번지 지하1층","category":"학원 - 보습학원"}]},{"lat":"36.989774687","long":"127.14107938","items":[{"name":"양진우리태권스쿨","tel":"031-657-2466","addr":"경기도 안성시 공도읍 진사리 336-5","category":"학원 - 예·체능계학원"}]},{"lat":"36.986023231","long":"127.14363355","items":[{"name":"양진중학교","tel":"","addr":"경기도 안성시 공도읍 진사리 135-8번지 양진중학교","category":"학원 - 초중고교육기관"}]},{"lat":"36.988747952","long":"127.14066191","items":[{"name":"양진초등학교","tel":"031-8046-1300","addr":"경기도 안성시 공도읍 진사리 124-1번지 양진초등학교 1층","category":"학원 - 초중고교육기관"},{"name":"양진초등학교_수업료","tel":"031-8046-1300","addr":"경기도 안성시 공도읍 진사리 124-1번지 양진초등학교","category":"학원 - 초중고교육기관"}]},{"lat":"36.990080658","long":"127.14141691","items":[{"name":"예그린어린이집[아이행복]","tel":"031-658-5599","addr":"경기도 안성시 공도읍 진사리 338-3","category":"학원 - 유아원"}]},{"lat":"36.989693067","long":"127.14152854","items":[{"name":"예그린학원","tel":"031-653-5522","addr":"경기도 안성시 공도읍 진사리 340-6번지","category":"학원 - 예·체능계학원"},{"name":"예그린학원","tel":"031-655-6307","addr":"경기도 안성시 공도읍 진사리 340-6번지 1층","category":"학원 - 예·체능계학원"}]},{"lat":"36.990799495","long":"127.14313686","items":[{"name":"예랑피아노교습소","tel":"031-654-7355","addr":"경기도 안성시 공도읍 진사리 346-6번지 1층 2호","category":"학원 - 예·체능계학원"}]},{"lat":"36.989247732","long":"127.13700094","items":[{"name":"예자람어린이집[아이행복]","tel":"031-654-5404","addr":"경기도 안성시 공도읍 진사리 39-6번지","category":"학원 - 유아원"},{"name":"자연어린이집","tel":"031-618-2228","addr":"경기도 안성시 공도읍 진사리 39-6번지","category":"기타 - 비영리/비대상"}]},{"lat":"36.987329542","long":"127.14383814","items":[{"name":"예향건어물 오캉문캉","tel":"070-4634-3583","addr":"경기도 안성시 공도읍 진사리 280-10번지","category":"음료식품 - 농·축·수산품"}]},{"lat":"36.994720976","long":"127.1415826","items":[{"name":"오피스디포안성점","tel":"031-652-5949","addr":"경기도 안성시 공도읍 진사리 16-5번지","category":"서적문구 - 문구용품"}]},{"lat":"36.98666062","long":"127.13791745","items":[{"name":"우일개발","tel":"031-656-2242","addr":"경기도 안성시 공도읍 진사리 111-9번지 나동","category":"용역 서비스 - 기타용역서비스"}]},{"lat":"36.993354652","long":"127.13872685","items":[{"name":"유박사소머리곰탕","tel":"031-618-8801","addr":"경기도 안성시 공도읍 진사리 22-42","category":"일반휴게음식 - 일반한식"}]},{"lat":"36.993661502","long":"127.13830053","items":[{"name":"이브자리코디센 평택대점","tel":"0507-1307-2089","addr":"경기도 안성시 공도읍 진사리 22-40번지","category":"직물 - 침구·수예점"},{"name":"주은하우스","tel":"031-657-2796","addr":"경기도 안성시 공도읍 진사리 22-40번지","category":"의류 - 정장"}]},{"lat":"36.988604962","long":"127.13963948","items":[{"name":"이상훈영어수학보습학원","tel":"031-651-7887","addr":"경기도 안성시 공도읍 진사리 123-3번지 3층","category":"학원 - 기타 교육기관"}]},{"lat":"36.987523744","long":"127.13958138","items":[{"name":"이숙이네","tel":"031-651-6009","addr":"경기도 안성시 공도읍 진사리 121-5번지","category":"일반휴게음식 - 일반한식"}]},{"lat":"36.991412828","long":"127.15008001","items":[{"name":"일품김치","tel":"031-655-4567","addr":"경기도 안성시 공도읍 진사리 371-6번지","category":"음료식품 - 기타음료식품"}]},{"lat":"36.994188372","long":"127.14241291","items":[{"name":"자작나무카페","tel":"031-658-8003","addr":"경기도 안성시 공도읍 진사리 13-9번지 가동 1층","category":"일반휴게음식 - 서양음식"},{"name":"자작나무카페","tel":"031-658-8003","addr":"경기도 안성시 공도읍 진사리 13-9번지 가동 1층","category":"일반휴게음식 - 서양음식"},{"name":"좋은집만들기","tel":"031-657-0123","addr":"경기도 안성시 공도읍 진사리 13-9번지 가동 5호","category":"건축자재 - 인테리어전문"},{"name":"주하약국","tel":"031-658-2839","addr":"경기도 안성시 공도읍 진사리 13-9번지 101호","category":"약국 - 약국"}]},{"lat":"36.992912755","long":"127.13905183","items":[{"name":"정춘자왕코다리찜능이오리백숙","tel":"031-652-8930","addr":"경기도 안성시 공도읍 진사리 20-38번지 1층 101호","category":"일반휴게음식 - 일반한식"}]},{"lat":"36.9893585","long":"127.14252765","items":[{"name":"제이티 인터네셔널","tel":"070-4065-0406","addr":"경기도 안성시 공도읍 진사리 331-20번지","category":"자동차정비 유지 - 자동차부품"}]},{"lat":"36.984442552","long":"127.13917152","items":[{"name":"제일모터스","tel":"031-658-5554","addr":"경기도 안성시 공도읍 진사리 157-7","category":"자동차정비 유지 - 자동차정비"}]},{"lat":"36.991583026","long":"127.14347529","items":[{"name":"좋은사람들(미용재료)","tel":"031-658-2486","addr":"경기도 안성시 공도읍 진사리 644번지 쌍용스윗닷홈 110동 802호","category":"보건위생 - 미용재료"}]},{"lat":"36.992327498","long":"127.13866886","items":[{"name":"주식회사 쏘리마트","tel":"","addr":"경기도 안성시 공도읍 진사리 20-47번지","category":"유통업 영리 - 슈퍼마켓"}]},{"lat":"36.992714352","long":"127.13919751","items":[{"name":"지코바 진사점","tel":"031-656-9297","addr":"경기도 안성시 공도읍 진사리 20-41번지","category":"일반휴게음식 - 스넥"}]},{"lat":"36.994110349","long":"127.13977291","items":[{"name":"진성곱창","tel":"031-655-2800","addr":"경기도 안성시 공도읍 진사리 22-12번지","category":"일반휴게음식 - 일반한식"},{"name":"현진식품","tel":"070-7649-6848","addr":"경기도 안성시 공도읍 진사리 22-12","category":"음료식품 - 농·축·수산품"}]},{"lat":"36.992686881","long":"127.13957939","items":[{"name":"출장스팀세차 스팀닥터 안성점","tel":"031-000-0000","addr":"경기도 안성시 공도읍 진사리 20-53번지 O단지 104호","category":"자동차정비 유지 - 세차장"}]},{"lat":"36.997075229","long":"127.14708025","items":[{"name":"토이뱅크 (TOY BANK)","tel":"031-651-0204","addr":"경기도 안성시 공도읍 진사리 6번지 2층 1","category":"서적문구 - 완구점"}]},{"lat":"36.992239524","long":"127.14455489","items":[{"name":"토탈클린","tel":"031-652-8288","addr":"경기도 안성시 공도읍 진사리 644번지 쌍용스윗닷홈 105동 803호","category":"신변잡화 - 기타잡화"}]},{"lat":"36.990828545","long":"127.14141827","items":[{"name":"통문장영어교습소","tel":"031-618-7004","addr":"경기도 안성시 공도읍 진사리 348-3외2필지10호","category":"회원제형태 - 학원"}]},{"lat":"36.98930583","long":"127.14133688","items":[{"name":"파랑새유치원[아이행복]","tel":"031-652-0932","addr":"경기도 안성시 공도읍 진사리 332-1,3,4,5","category":"학원 - 유치원"}]},{"lat":"36.997137551","long":"127.14769823","items":[{"name":"한성자동차(주)안성지점","tel":"02-3479-8713","addr":"경기도 안성시 공도읍 진사리 6-13번지","category":"자동차정비 유지 - 자동차부품"}]},{"lat":"36.988635031","long":"127.1369774","items":[{"name":"해돋이 어린이집[아이행복]","tel":"031-656-3050","addr":"경기도 안성시 공도읍 진사리 51-2번지","category":"학원 - 유아원"}]},{"lat":"36.993020973","long":"127.13897339","items":[{"name":"해충폴리스 중부지사","tel":"031-657-9112","addr":"경기도 안성시 공도읍 진사리 20-34번지 101호","category":"용역 서비스 - 종합용역"}]},{"lat":"36.994386699","long":"127.14233464","items":[{"name":"허리편한병원","tel":"031-656-2110","addr":"경기도 안성시 공도읍 진사리 13번지","category":"의원 - 의원"}]},{"lat":"36.993276154","long":"127.14421981","items":[{"name":"현진데코상사","tel":"031-663-0441","addr":"경기도 안성시 공도읍 진사리 644번지 쌍용스윗닷홈 101동 401호","category":"회원제형태 - 기타4"}]}]