[{"lat":"37.077186943","long":"127.42896934","items":[{"name":"(주)홈툴스","tel":"031-676-4466","addr":"경기도 안성시 죽산면 죽산리 141-4번지","category":"건축자재 - 기타건축자재"}]},{"lat":"37.075880777","long":"127.42635309","items":[{"name":"25시실내야식식당","tel":"031-676-0879","addr":"경기도 안성시 죽산면 죽산리 120-1번지","category":"일반휴게음식 - 일반한식"}]},{"lat":"37.074685985","long":"127.4228042","items":[{"name":"79대포 안성죽산점","tel":"070-7793-4545","addr":"경기도 안성시 죽산면 죽산리 434번지 1층","category":"일반휴게음식 - 일반한식"},{"name":"부산세탁소","tel":"031-676-6137","addr":"경기도 안성시 죽산면 죽산리 434번지","category":"수리서비스 - 세탁소"},{"name":"왕빠른세탁","tel":"031-676-6108","addr":"경기도 안성시 죽산면 죽산리 434번지","category":"수리서비스 - 세탁소"}]},{"lat":"37.074908294","long":"127.42363757","items":[{"name":"J&B당구글럽","tel":"031-676-7272","addr":"경기도 안성시 죽산면 죽산리 435-2번지","category":"레저업소 - 당 구 장"},{"name":"구어조은닭","tel":"031-677-9258","addr":"경기도 안성시 죽산면 죽산리 435-2번지","category":"일반휴게음식 - 일반한식"},{"name":"그라노드카페","tel":"031-675-6308","addr":"경기도 안성시 죽산면 죽산리 435-2번지 용강프라자 105호","category":"일반휴게음식 - 서양음식"},{"name":"서울왕만두","tel":"031-675-9694","addr":"경기도 안성시 죽산면 죽산리 435-2","category":"일반휴게음식 - 스넥"},{"name":"성모의원","tel":"031-675-0644","addr":"경기도 안성시 죽산면 죽산리 435-2번지","category":"의원 - 의원"},{"name":"쑤와리질러 죽산점","tel":"031-675-5356","addr":"경기도 안성시 죽산면 죽산리 435-2번지","category":"일반휴게음식 - 서양음식"},{"name":"아름다운세상","tel":"031-675-7296","addr":"경기도 안성시 죽산면 죽산리 435-2번지 용강프라자 2층 203호","category":"신변잡화 - 기타잡화"},{"name":"압구정 김밥","tel":"070-4319-1500","addr":"경기도 안성시 죽산면 죽산리 435-2번지 용강프라자 1층","category":"일반휴게음식 - 일반한식"},{"name":"엘마트","tel":"031-675-9426","addr":"경기도 안성시 죽산면 죽산리 435-2번지 용강프라자 1층 101호","category":"유통업 영리 - 슈퍼마켓"},{"name":"용강볼링쎈타","tel":"031-675-2406","addr":"경기도 안성시 죽산면 죽산리 435-2번지 용강프라자 301호","category":"레저업소 - 볼 링 장"},{"name":"유희돈치과의원","tel":"031-675-9475","addr":"경기도 안성시 죽산면 죽산리 435-2번지","category":"의원 - 치과의원"},{"name":"인생약국","tel":"031-676-6053","addr":"경기도 안성시 죽산면 죽산리 435-2번지","category":"약국 - 약국"},{"name":"죽산분식","tel":"031-676-6481","addr":"경기도 안성시 죽산면 죽산리 435-2번지 용강프라자 108호","category":"일반휴게음식 - 중국식"},{"name":"지우헤어샵","tel":"031-672-5340","addr":"경기도 안성시 죽산면 죽산리 435-2번지","category":"보건위생 - 미용원"},{"name":"초원양꼬치","tel":"031-676-9792","addr":"경기도 안성시 죽산면 죽산리 435-2번지","category":"일반휴게음식 - 일반한식"},{"name":"하나락스넥","tel":"031-675-2406","addr":"경기도 안성시 죽산면 죽산리 435-2번지 용강프라자 주건축물제 1동 301호","category":"일반휴게음식 - 일반한식"}]},{"lat":"37.075576056","long":"127.42336013","items":[{"name":"가온유통","tel":"031-675-8905","addr":"경기도 안성시 죽산면 죽산리 437-2번지 나동 110호","category":"유통업 영리 - 기타유통업"},{"name":"고은헤어","tel":"031-675-2224","addr":"경기도 안성시 죽산면 죽산리 437-2번지 나동 1층 107호","category":"보건위생 - 미용원"},{"name":"다올","tel":"031-674-0815","addr":"경기도 안성시 죽산면 죽산리 437-2번지","category":"일반휴게음식 - 일반한식"},{"name":"뮤직뱅크","tel":"031-675-6780","addr":"경기도 안성시 죽산면 죽산리 437-2번지","category":"광학제품 - 사진관"},{"name":"뮤직뱅크","tel":"031-675-6780","addr":"경기도 안성시 죽산면 죽산리 437-2번지","category":"레저업소 - 노 래 방"},{"name":"삼거리닭집","tel":"031-676-6641","addr":"경기도 안성시 죽산면 죽산리 437-2번지 109호","category":"음료식품 - 기타음료식품"},{"name":"제이(J)콜 대리운전","tel":"031-675-8905","addr":"경기도 안성시 죽산면 죽산리 437-2번지 나동 101호","category":"보건위생 - 기타대인서비스"},{"name":"통큰버거","tel":"","addr":"경기도 안성시 죽산면 죽산리 437-2번지 1층 110호","category":"일반휴게음식 - 일반한식"},{"name":"퓨전컴퓨터","tel":"031-675-8987","addr":"경기도 안성시 죽산면 죽산리 437-2번지 나동 1층 105호","category":"사무통신 - 컴퓨터"}]},{"lat":"37.073855171","long":"127.42077549","items":[{"name":"건우네대패&차돌","tel":"031-674-1616","addr":"경기도 안성시 죽산면 죽산리 514-15번지 가동 1층","category":"일반휴게음식 - 일반한식"},{"name":"새열린목장 수제요거트 치즈","tel":"031-676-2082","addr":"경기도 안성시 죽산면 죽산리 514-15번지 1층 103호","category":"음료식품 - 기타음료식품"}]},{"lat":"37.081545396","long":"127.42466392","items":[{"name":"경기마을교육공동체 사회적협동조합 죽산중","tel":"070-4141-1001","addr":"경기도 안성시 죽산면 죽산리 318번지 1층 죽산중학교","category":"음료식품 - 기타음료식품"},{"name":"죽산중학교","tel":"031-676-6321","addr":"경기도 안성시 죽산면 죽산리 318번지 죽산중학교","category":"학원 - 초중고교육기관"}]},{"lat":"37.076272123","long":"127.42272298","items":[{"name":"고소한하루","tel":"","addr":"경기도 안성시 죽산면 죽산리 441-8번지 2동 1층","category":"음료식품 - 제과점"}]},{"lat":"37.073964958","long":"127.4203038","items":[{"name":"고은미피부미용","tel":"031-675-4964","addr":"경기도 안성시 죽산면 죽산리 517-4번지","category":"회원제형태 - 기타4"}]},{"lat":"37.07426572","long":"127.42189102","items":[{"name":"고향골 토종순대국","tel":"031-677-0399","addr":"경기도 안성시 죽산면 죽산리 514-6번지","category":"일반휴게음식 - 일반한식"}]},{"lat":"37.072686101","long":"127.41755302","items":[{"name":"고향식당","tel":"031-676-7221","addr":"경기도 안성시 죽산면 죽산리 542-2번지","category":"일반휴게음식 - 일반한식"}]},{"lat":"37.076491271","long":"127.42697499","items":[{"name":"광명공인중개사사무소","tel":"031-677-7894","addr":"경기도 안성시 죽산면 죽산리 117-6번지","category":"용역 서비스 - 부동산 중개·임대"}]},{"lat":"37.07674368","long":"127.42694266","items":[{"name":"굿데이스토어","tel":"","addr":"경기도 안성시 죽산면 죽산리 117-4번지 골목안 왼쪽벽돌집 3층","category":"가구 - 기타가구"}]},{"lat":"37.07652256","long":"127.42830214","items":[{"name":"그램그램 동안성점","tel":"031-671-6692","addr":"경기도 안성시 죽산면 죽산리 131-4번지","category":"일반휴게음식 - 일반한식"}]},{"lat":"37.075466457","long":"127.4237756","items":[{"name":"그린커피숍","tel":"031-676-6055","addr":"경기도 안성시 죽산면 죽산리 438-2번지","category":"일반휴게음식 - 서양음식"},{"name":"부흥상회","tel":"031-676-8228","addr":"경기도 안성시 죽산면 죽산리 438-2","category":"주방용구 - 주방용식기"}]},{"lat":"37.076020862","long":"127.42497068","items":[{"name":"기아오토바이","tel":"031-676-6282","addr":"경기도 안성시 죽산면 죽산리 490-3번지","category":"자동차판매 - 이륜차판매"}]},{"lat":"37.075292385","long":"127.4245843","items":[{"name":"껄떡돼지","tel":"031-676-3203","addr":"경기도 안성시 죽산면 죽산리 497-2번지 1층","category":"일반휴게음식 - 일반한식"},{"name":"비첸지오쥬얼리","tel":"031-676-5893","addr":"경기도 안성시 죽산면 죽산리 497-2번지","category":"신변잡화 - 귀금속"},{"name":"빵가네옥돌구이","tel":"031-677-9380","addr":"경기도 안성시 죽산면 죽산리 497-2","category":"일반휴게음식 - 일반한식"},{"name":"자이언트바바 죽산점","tel":"031-676-3203","addr":"경기도 안성시 죽산면 죽산리 497-2번지","category":"음료식품 - 기타음료식품"}]},{"lat":"37.074105002","long":"127.42147406","items":[{"name":"꿀꿀부속고기","tel":"031-675-5567","addr":"경기도 안성시 죽산면 죽산리 514-10번지","category":"일반휴게음식 - 일반한식"}]},{"lat":"37.075877339","long":"127.42224849","items":[{"name":"꿈나무음악학원","tel":"031-676-6044","addr":"경기도 안성시 죽산면 죽산리 442-9번지 2층","category":"학원 - 예·체능계학원"},{"name":"용분식","tel":"","addr":"경기도 안성시 죽산면 죽산리 442-9번지 1층 우측 1호","category":"일반휴게음식 - 스넥"},{"name":"죽마을","tel":"031-675-3188","addr":"경기도 안성시 죽산면 죽산리 442-9번지","category":"일반휴게음식 - 일반한식"}]},{"lat":"37.076042161","long":"127.42404867","items":[{"name":"낙원장 여관","tel":"031-675-0373","addr":"경기도 안성시 죽산면 죽산리 479-5번지","category":"숙박업 - 여관/기타숙박업"},{"name":"낙원장여관","tel":"031-675-0373","addr":"경기도 안성시 죽산면 죽산리 479-5","category":"숙박업 - 여관/기타숙박업"}]},{"lat":"37.0820697","long":"127.43421496","items":[{"name":"남동사","tel":"031-676-8717","addr":"경기도 안성시 죽산면 죽산리 20-4번지","category":"자동차정비 유지 - 자동차정비"},{"name":"드라미블랙누들","tel":"031-677-7435","addr":"경기도 안성시 죽산면 죽산리 20-4번지 1층 좌측","category":"일반휴게음식 - 중국식"}]},{"lat":"37.076709804","long":"127.42380496","items":[{"name":"네네치킨 죽산점","tel":"031-676-8929","addr":"경기도 안성시 죽산면 죽산리 472-7번지","category":"일반휴게음식 - 스넥"}]},{"lat":"37.076910206","long":"127.42824808","items":[{"name":"노루표페인트","tel":"031-676-4571","addr":"경기도 안성시 죽산면 죽산리 134-1번지 외2필지","category":"건축자재 - 페인트"}]},{"lat":"37.073986773","long":"127.41922438","items":[{"name":"농산물직거래장터","tel":"031-691-1316","addr":"경기도 안성시 죽산면 죽산리 556번지","category":"음료식품 - 농·축·수산품"}]},{"lat":"37.075544433","long":"127.42211172","items":[{"name":"늘 우리","tel":"031-675-5400","addr":"경기도 안성시 죽산면 죽산리 427-5번지","category":"일반휴게음식 - 서양음식"}]},{"lat":"37.074849046","long":"127.4225577","items":[{"name":"늘봄호프","tel":"031-676-6059","addr":"경기도 안성시 죽산면 죽산리 433-10번지","category":"일반휴게음식 - 주점"}]},{"lat":"37.076245134","long":"127.42777205","items":[{"name":"달인자동차정비","tel":"031-641-7717","addr":"경기도 안성시 죽산면 죽산리 131-2번지","category":"자동차정비 유지 - 자동차정비"}]},{"lat":"37.075574701","long":"127.42374246","items":[{"name":"대광천막지물","tel":"031-676-6400","addr":"경기도 안성시 죽산면 죽산리 438-6","category":"회원제형태 - 기타4"}]},{"lat":"37.076215432","long":"127.42346487","items":[{"name":"대동식당","tel":"031-676-6952","addr":"경기도 안성시 죽산면 죽산리 440-5번지","category":"일반휴게음식 - 일반한식"}]},{"lat":"37.078456891","long":"127.42407328","items":[{"name":"대산공업","tel":"031-676-7169","addr":"경기도 안성시 죽산면 죽산리 341-1 매곡연립 다-203","category":"자동차정비 유지 - 중장비수리"}]},{"lat":"37.075848986","long":"127.4251609","items":[{"name":"대성스넥","tel":"031-675-8958","addr":"경기도 안성시 죽산면 죽산리 492번지","category":"일반휴게음식 - 일반한식"},{"name":"미소약국","tel":"031-676-0711","addr":"경기도 안성시 죽산면 죽산리 492번지 1동","category":"약국 - 약국"},{"name":"우리들의원","tel":"031-671-0098","addr":"경기도 안성시 죽산면 죽산리 492번지 1동","category":"의원 - 의원"}]},{"lat":"37.075575509","long":"127.42604777","items":[{"name":"대송축산","tel":"031-676-0338","addr":"경기도 안성시 죽산면 죽산리 105-9번지","category":"음료식품 - 정육점"},{"name":"아방스이불.커텐","tel":"031-677-2813","addr":"경기도 안성시 죽산면 죽산리 105-9번지","category":"직물 - 침구·수예점"},{"name":"하나프라자","tel":"031-691-1316","addr":"경기도 안성시 죽산면 죽산리 105-9번지","category":"전기제품 - 가전제품"},{"name":"한나미용실","tel":"031-676-8808","addr":"경기도 안성시 죽산면 죽산리 105-9번지","category":"보건위생 - 미용원"}]},{"lat":"37.07607007","long":"127.42380143","items":[{"name":"대왕정육식당","tel":"031-676-6272","addr":"경기도 안성시 죽산면 죽산리 474-1번지","category":"음료식품 - 정육점"},{"name":"대왕정육식당","tel":"031-676-6272","addr":"경기도 안성시 죽산면 죽산리 474-1번지","category":"일반휴게음식 - 일반한식"},{"name":"민트POP","tel":"070-9144-0394","addr":"경기도 안성시 죽산면 죽산리 474-1번지 301호","category":"문화.취미 - 문화취미기타"},{"name":"세븐일레븐안성죽산중앙점","tel":"031-1577-0711","addr":"경기도 안성시 죽산면 죽산리 474-1번지","category":"유통업 영리 - 편 의 점"},{"name":"참왕족발보쌈","tel":"031-676-8080","addr":"경기도 안성시 죽산면 죽산리 474-1번지","category":"일반휴게음식 - 일반한식"}]},{"lat":"37.072605598","long":"127.41738391","items":[{"name":"대한상사","tel":"031-676-6531","addr":"경기도 안성시 죽산면 죽산리 543-4번지 1층","category":"자동차정비 유지 - 자동차부품"}]},{"lat":"37.076960796","long":"127.42921548","items":[{"name":"대한철강","tel":"031-676-7222","addr":"경기도 안성시 죽산면 죽산리 88-2번지","category":"건축자재 - 기타건축자재"}]},{"lat":"37.07648634","long":"127.42329768","items":[{"name":"도드람포크전문점","tel":"031-676-6245","addr":"경기도 안성시 죽산면 죽산리 440-3번지","category":"일반휴게음식 - 일반한식"}]},{"lat":"37.076741186","long":"127.42763987","items":[{"name":"돈꾸러미","tel":"031-677-9289","addr":"경기도 안성시 죽산면 죽산리 115-9번지","category":"일반휴게음식 - 일반한식"}]},{"lat":"37.074296282","long":"127.42089037","items":[{"name":"동락원","tel":"031-676-6047","addr":"경기도 안성시 죽산면 죽산리 515-1번지","category":"일반휴게음식 - 중국식"}]},{"lat":"37.075744779","long":"127.42405828","items":[{"name":"동진한의원","tel":"031-676-7300","addr":"경기도 안성시 죽산면 죽산리 475-1번지","category":"의원 - 한의원"},{"name":"쌍방울","tel":"031-676-9262","addr":"경기도 안성시 죽산면 죽산리 475-1번지","category":"의류 - 내의판매"},{"name":"큐 당구장","tel":"","addr":"경기도 안성시 죽산면 죽산리 475-1번지 2층","category":"레저업소 - 당 구 장"}]},{"lat":"37.073439689","long":"127.42360697","items":[{"name":"두원광고","tel":"031-675-2349","addr":"경기도 안성시 죽산면 죽산리 793-5번지","category":"건축자재 - 인테리어전문"}]},{"lat":"37.076348431","long":"127.4266031","items":[{"name":"드림디포","tel":"031-675-0448","addr":"경기도 안성시 죽산면 죽산리 119-6","category":"서적문구 - 문구용품"}]},{"lat":"37.075300795","long":"127.42475303","items":[{"name":"떳다야식","tel":"031-675-3666","addr":"경기도 안성시 죽산면 죽산리 496-1번지","category":"일반휴게음식 - 일반한식"}]},{"lat":"37.076322484","long":"127.42629932","items":[{"name":"라인짐(LINE GYM)","tel":"031-676-5522","addr":"경기도 안성시 죽산면 죽산리 119-1번지 죽산훼미리타운 205,206,207호","category":"레저업소 - 헬스클럽"},{"name":"로빈'스커피","tel":"","addr":"경기도 안성시 죽산면 죽산리 119-1번지 105,116호","category":"일반휴게음식 - 서양음식"},{"name":"마노치킨","tel":"031-675-9595","addr":"경기도 안성시 죽산면 죽산리 119-1번지 110호","category":"일반휴게음식 - 스넥"},{"name":"마시델식당","tel":"031-676-8959","addr":"경기도 안성시 죽산면 죽산리 119-1번지","category":"일반휴게음식 - 일반한식"},{"name":"세계로약국","tel":"031-676-9688","addr":"경기도 안성시 죽산면 죽산리 119-1번지 죽산훼미리타운 106호","category":"약국 - 약국"},{"name":"수산해물","tel":"031-675-1093","addr":"경기도 안성시 죽산면 죽산리 119-1번지","category":"일반휴게음식 - 일반한식"},{"name":"수상한닭발","tel":"031-675-8878","addr":"경기도 안성시 죽산면 죽산리 119-1번지","category":"일반휴게음식 - 일반한식"},{"name":"수상한닭발","tel":"031-675-8878","addr":"경기도 안성시 죽산면 죽산리 119-1번지 108,109,111호","category":"일반휴게음식 - 일반한식"},{"name":"아싸 노래연습장","tel":"031-676-8610","addr":"경기도 안성시 죽산면 죽산리 119-1번지 202호 201호, 202호","category":"레저업소 - 노 래 방"},{"name":"아싸노래연습장","tel":"","addr":"경기도 안성시 죽산면 죽산리 119-1번지","category":"레저업소 - 노 래 방"},{"name":"죽산중앙의원","tel":"031-675-8278","addr":"경기도 안성시 죽산면 죽산리 119-1번지 훼미리타운 207호","category":"의원 - 의원"},{"name":"화장품","tel":"031-8059-4625","addr":"경기도 안성시 죽산면 죽산리 119-1번지 훼미리상가 305호,306호","category":"보건위생 - 화장품"}]},{"lat":"37.075909559","long":"127.42332823","items":[{"name":"만호헬스","tel":"031-672-9988","addr":"경기도 안성시 죽산면 죽산리 439-3번지 2층 201호","category":"레저업소 - 헬스클럽"},{"name":"삼흥지업사","tel":"031-676-5357","addr":"경기도 안성시 죽산면 죽산리 439-3번지 가동 106호","category":"건축자재 - 인테리어전문"},{"name":"챔프광장호프","tel":"031-676-6055","addr":"경기도 안성시 죽산면 죽산리 439-3번지","category":"일반휴게음식 - 주점"},{"name":"탱이떡볶이","tel":"031-677-6872","addr":"경기도 안성시 죽산면 죽산리 439-3번지","category":"일반휴게음식 - 일반한식"}]},{"lat":"37.075571905","long":"127.42452963","items":[{"name":"멕시카나치킨","tel":"031-676-9955","addr":"경기도 안성시 죽산면 죽산리 476-2번지","category":"일반휴게음식 - 스넥"},{"name":"명품왕족발","tel":"031-676-6921","addr":"경기도 안성시 죽산면 죽산리 476-2번지 1층","category":"일반휴게음식 - 일반한식"},{"name":"코바코 안성죽산점","tel":"031-676-5842","addr":"경기도 안성시 죽산면 죽산리 476-2번지 1층","category":"일반휴게음식 - 일반한식"},{"name":"플러스서울치과의원","tel":"031-671-2875","addr":"경기도 안성시 죽산면 죽산리 476-2번지","category":"의원 - 치과의원"},{"name":"하나동물병원","tel":"031-677-5396","addr":"경기도 안성시 죽산면 죽산리 476-2번지","category":"기타의료기관 - 동물병원"}]},{"lat":"37.07518498","long":"127.42438129","items":[{"name":"명성한의원","tel":"031-675-7588","addr":"경기도 안성시 죽산면 죽산리 498-1번지 1층","category":"의원 - 한의원"}]},{"lat":"37.07421705","long":"127.42036141","items":[{"name":"명진밧데리","tel":"031-676-6474","addr":"경기도 안성시 죽산면 죽산리 515-12번지","category":"자동차정비 유지 - 자동차부품"}]},{"lat":"37.075711226","long":"127.42589109","items":[{"name":"민속떡방아간","tel":"031-675-7096","addr":"경기도 안성시 죽산면 죽산리 105-5번지","category":"음료식품 - 제과점"},{"name":"빨간손톱","tel":"031-000-0000","addr":"경기도 안성시 죽산면 죽산리 105-5번지","category":"보건위생 - 피부미용실"}]},{"lat":"37.075214846","long":"127.42358304","items":[{"name":"빤짝텔레콤","tel":"070-8885-8878","addr":"경기도 안성시 죽산면 죽산리 437-19번지 1층","category":"사무통신 - 통신기기"},{"name":"씨유안성죽산점","tel":"031-676-8609","addr":"경기도 안성시 죽산면 죽산리 437-19번지","category":"유통업 영리 - 편 의 점"}]},{"lat":"37.079431025","long":"127.4338289","items":[{"name":"삼성클라크물류기계판매","tel":"031-671-9032","addr":"경기도 안성시 죽산면 죽산리 34-2번지 (주)클라크지게차","category":"기타 - 기계공구"}]},{"lat":"37.072134322","long":"127.41558216","items":[{"name":"삼양사세차장","tel":"031-676-6419","addr":"경기도 안성시 죽산면 죽산리 537-9번지","category":"자동차정비 유지 - 세차장"}]},{"lat":"37.081326458","long":"127.43293993","items":[{"name":"삼양사세차장","tel":"031-676-6419","addr":"경기도 안성시 죽산면 죽산리 50-3","category":"자동차정비 유지 - 세차장"}]},{"lat":"37.077409614","long":"127.42969031","items":[{"name":"서울우유죽산대리점","tel":"070-3658-1158","addr":"경기도 안성시 죽산면 죽산리 141-7","category":"음료식품 - 기타음료식품"}]},{"lat":"37.07537743","long":"127.42347149","items":[{"name":"석화식당","tel":"031-676-8814","addr":"경기도 안성시 죽산면 죽산리 437-7번지 1층","category":"일반휴게음식 - 스넥"}]},{"lat":"37.076270188","long":"127.42580423","items":[{"name":"세븐일레븐안성죽산제일점","tel":"031-1577-0711","addr":"경기도 안성시 죽산면 죽산리 107-11번지 1층","category":"유통업 영리 - 편 의 점"}]},{"lat":"37.071494099","long":"127.41829993","items":[{"name":"소들목장정육점","tel":"031-671-4117","addr":"경기도 안성시 죽산면 죽산리 528-1번지 1층","category":"음료식품 - 정육점"}]},{"lat":"37.073741107","long":"127.42752193","items":[{"name":"손짜장일번지","tel":"031-676-5885","addr":"경기도 안성시 죽산면 죽산리 824번지","category":"일반휴게음식 - 중국식"}]},{"lat":"37.076384071","long":"127.42671575","items":[{"name":"송가네푸줏간","tel":"031-675-1878","addr":"경기도 안성시 죽산면 죽산리 119-5번지","category":"음료식품 - 정육점"}]},{"lat":"37.07210503","long":"127.41880928","items":[{"name":"수안이네식당","tel":"031-676-9909","addr":"경기도 안성시 죽산면 죽산리 529-2번지","category":"일반휴게음식 - 일반한식"}]},{"lat":"37.075907564","long":"127.42389049","items":[{"name":"순간포차","tel":"031-676-9561","addr":"경기도 안성시 죽산면 죽산리 474-2번지","category":"일반휴게음식 - 일반한식"}]},{"lat":"37.076049362","long":"127.42708499","items":[{"name":"신전떡볶이 죽산점","tel":"031-675-8144","addr":"경기도 안성시 죽산면 죽산리 123-4번지 나동","category":"일반휴게음식 - 스넥"},{"name":"씨유안성죽산터미널점","tel":"031-239-6693","addr":"경기도 안성시 죽산면 죽산리 123-4번지 죽산터미널","category":"유통업 영리 - 편 의 점"},{"name":"아시아마트","tel":"031-676-8000","addr":"경기도 안성시 죽산면 죽산리 123-4번지 나동 1층 5호","category":"유통업 영리 - 슈퍼마켓"},{"name":"요거프레소 죽산터미널점","tel":"","addr":"경기도 안성시 죽산면 죽산리 123-4번지 죽산터미널","category":"일반휴게음식 - 서양음식"},{"name":"죽산버스정류소","tel":"031-676-6051","addr":"경기도 안성시 죽산면 죽산리 123-4번지","category":"여행 - 고속버스"},{"name":"죽산버스정류소","tel":"031-675-6136","addr":"경기도 안성시 죽산면 죽산리 123-4번지","category":"여행 - 고속버스"}]},{"lat":"37.074515465","long":"127.42261209","items":[{"name":"신진종합건재","tel":"031-676-6613","addr":"경기도 안성시 죽산면 죽산리 508-10번지","category":"건축자재 - 목재·석재·철물"}]},{"lat":"37.075710614","long":"127.42352955","items":[{"name":"신흥상회","tel":"031-676-6264","addr":"경기도 안성시 죽산면 죽산리 437-9","category":"신변잡화 - 제화"}]},{"lat":"37.075994871","long":"127.42213669","items":[{"name":"신흥축산기구","tel":"031-676-4200","addr":"경기도 안성시 죽산면 죽산리 442-22번지","category":"농업 - 농기계"}]},{"lat":"37.076436937","long":"127.42452317","items":[{"name":"씨엔씨 헤어클럽","tel":"031-676-6176","addr":"경기도 안성시 죽산면 죽산리 481-1","category":"보건위생 - 미용원"}]},{"lat":"37.07698847","long":"127.42144493","items":[{"name":"아이비학원","tel":"031-676-0208","addr":"경기도 안성시 죽산면 죽산리 448-10번지","category":"학원 - 보습학원"}]},{"lat":"37.075657565","long":"127.42577834","items":[{"name":"안광반점","tel":"031-676-7719","addr":"경기도 안성시 죽산면 죽산리 105-6번지","category":"일반휴게음식 - 중국식"}]},{"lat":"37.076910702","long":"127.42305262","items":[{"name":"안성맞춤가구","tel":"031-637-4863","addr":"경기도 안성시 죽산면 죽산리 440-1번지","category":"가구 - 일반가구"},{"name":"장터식당","tel":"031-675-8905","addr":"경기도 안성시 죽산면 죽산리 440-1번지 1층","category":"일반휴게음식 - 일반한식"}]},{"lat":"37.076712083","long":"127.42061124","items":[{"name":"연세에듀학원","tel":"031-676-7789","addr":"경기도 안성시 죽산면 죽산리 413번지 2층 202호","category":"학원 - 보습학원"},{"name":"연세에듀학원","tel":"031-676-7789","addr":"경기도 안성시 죽산면 죽산리 413번지","category":"학원 - 보습학원"}]},{"lat":"37.074298934","long":"127.42013695","items":[{"name":"연세의원","tel":"031-676-6875","addr":"경기도 안성시 죽산면 죽산리 516-4번지","category":"의원 - 의원"}]},{"lat":"37.075827879","long":"127.42602668","items":[{"name":"영심이해물칼국수","tel":"031-675-1677","addr":"경기도 안성시 죽산면 죽산리 105-1번지","category":"일반휴게음식 - 일반한식"},{"name":"옥돌통닭 바베큐","tel":"02-1661-2442","addr":"경기도 안성시 죽산면 죽산리 105-1번지","category":"일반휴게음식 - 일반한식"}]},{"lat":"37.07223798","long":"127.41686464","items":[{"name":"영암골","tel":"031-676-2502","addr":"경기도 안성시 죽산면 죽산리 535-7","category":"일반휴게음식 - 일반한식"}]},{"lat":"37.078435204","long":"127.43263121","items":[{"name":"오복자동차공업사","tel":"031-676-0602","addr":"경기도 안성시 죽산면 죽산리 74-4","category":"자동차정비 유지 - 자동차정비"},{"name":"진영카공업사","tel":"031-672-0020","addr":"경기도 안성시 죽산면 죽산리 74-4번지","category":"자동차정비 유지 - 자동차정비"}]},{"lat":"37.075077286","long":"127.42171556","items":[{"name":"용규네","tel":"031-676-6256","addr":"경기도 안성시 죽산면 죽산리 432-4번지","category":"일반휴게음식 - 일반한식"}]},{"lat":"37.075661766","long":"127.42205614","items":[{"name":"용진제분소","tel":"031-675-2494","addr":"경기도 안성시 죽산면 죽산리 427-4","category":"음료식품 - 제과점"}]},{"lat":"37.07315861","long":"127.41899496","items":[{"name":"우성자동차공업사","tel":"031-675-9083","addr":"경기도 안성시 죽산면 죽산리 547-3번지","category":"자동차정비 유지 - 자동차정비"},{"name":"죽산손세차장","tel":"031-675-9084","addr":"경기도 안성시 죽산면 죽산리 547-3번지","category":"자동차정비 유지 - 세차장"}]},{"lat":"37.076377897","long":"127.42338705","items":[{"name":"원샷","tel":"031-677-5253","addr":"경기도 안성시 죽산면 죽산리 440-4번지","category":"일반휴게음식 - 주점"}]},{"lat":"37.075236809","long":"127.42246987","items":[{"name":"이름없는호프","tel":"031-674-7142","addr":"경기도 안성시 죽산면 죽산리 433-4번지","category":"일반휴게음식 - 주점"},{"name":"현대오토바이수리센타","tel":"031-676-7969","addr":"경기도 안성시 죽산면 죽산리 433-4번지","category":"자동차판매 - 이륜차판매"}]},{"lat":"37.074604215","long":"127.42299492","items":[{"name":"이모네식당","tel":"031-676-1355","addr":"경기도 안성시 죽산면 죽산리 507-4번지","category":"일반휴게음식 - 일반한식"}]},{"lat":"37.075964518","long":"127.42561136","items":[{"name":"이불랜드","tel":"031-675-0776","addr":"경기도 안성시 죽산면 죽산리 106-4번지 이불랜드","category":"직물 - 침구·수예점"}]},{"lat":"37.073711679","long":"127.42058354","items":[{"name":"이화약국","tel":"031-676-6031","addr":"경기도 안성시 죽산면 죽산리 514-17번지","category":"약국 - 약국"}]},{"lat":"37.075710544","long":"127.42608226","items":[{"name":"장터순대","tel":"031-675-9666","addr":"경기도 안성시 죽산면 죽산리 105-13번지 (1층우측1호)","category":"일반휴게음식 - 일반한식"}]},{"lat":"37.0764107","long":"127.42682835","items":[{"name":"정성부동산컨설팅","tel":"031-676-8860","addr":"경기도 안성시 죽산면 죽산리 118-3번지 1층","category":"용역 서비스 - 사무서비스"}]},{"lat":"37.072157593","long":"127.4166618","items":[{"name":"조카네","tel":"070-8182-0882","addr":"경기도 안성시 죽산면 죽산리 535-6번지 트레비앙 1층","category":"일반휴게음식 - 일반한식"}]},{"lat":"37.075578155","long":"127.42530559","items":[{"name":"주리미용실","tel":"031-676-5129","addr":"경기도 안성시 죽산면 죽산리 493-5번지","category":"보건위생 - 미용원"}]},{"lat":"37.073405081","long":"127.41808545","items":[{"name":"주식회사 바로이마트","tel":"031-675-9865","addr":"경기도 안성시 죽산면 죽산리 560-5번지","category":"유통업 영리 - 슈퍼마켓"}]},{"lat":"37.075188546","long":"127.42591068","items":[{"name":"죽산BYC","tel":"031-677-5352","addr":"경기도 안성시 죽산면 죽산리 104-5번지 1층","category":"의류 - 내의판매"},{"name":"커피 안(   )","tel":"031-677-2050","addr":"경기도 안성시 죽산면 죽산리 104-5번지 2층","category":"일반휴게음식 - 서양음식"},{"name":"하모니크린세탁","tel":"031-676-5116","addr":"경기도 안성시 죽산면 죽산리 104-5번지 1층 102호","category":"수리서비스 - 세탁소"}]},{"lat":"37.082627156","long":"127.42452371","items":[{"name":"죽산고등학교","tel":"031-8056-6600","addr":"경기도 안성시 죽산면 죽산리 321번지 죽산종합고등학교","category":"학원 - 초중고교육기관"},{"name":"죽산고등학교_수업료","tel":"031-8056-6600","addr":"경기도 안성시 죽산면 죽산리 321번지 죽산종합고등학교","category":"학원 - 초중고교육기관"}]},{"lat":"37.075327731","long":"127.42730587","items":[{"name":"죽산농업협동조합","tel":"031-676-6771","addr":"경기도 안성시 죽산면 죽산리 101-1번지","category":"유통업 비영리 - 농,축협 직영매장"}]},{"lat":"37.076903538","long":"127.43010356","items":[{"name":"죽산대리점","tel":"031-676-7615","addr":"경기도 안성시 죽산면 죽산리 91-1","category":"자동차정비 유지 - 자동차시트·타이어"}]},{"lat":"37.07687987","long":"127.42157928","items":[{"name":"죽산모차르트음악학원","tel":"031-675-8898","addr":"경기도 안성시 죽산면 죽산리 448-8번지","category":"학원 - 예·체능계학원"}]},{"lat":"37.075408881","long":"127.42222342","items":[{"name":"죽산우체국","tel":"031-676-6000","addr":"경기도 안성시 죽산면 죽산리 428-7번지","category":"용역 서비스 - 공공요금대행서비스/소"}]},{"lat":"37.075549703","long":"127.42316881","items":[{"name":"죽산이불집","tel":"031-675-5272","addr":"경기도 안성시 죽산면 죽산리 437-5","category":"직물 - 침구·수예점"}]},{"lat":"37.07676475","long":"127.42860712","items":[{"name":"죽산주유소","tel":"031-676-6056","addr":"경기도 안성시 죽산면 죽산리 132-2번지","category":"연료판매점 - 주유소"}]},{"lat":"37.077350256","long":"127.42360608","items":[{"name":"죽산체육관","tel":"031-677-8203","addr":"경기도 안성시 죽산면 죽산리 471-10번지","category":"학원 - 예·체능계학원"}]},{"lat":"37.077793839","long":"127.42047098","items":[{"name":"죽산초등학교","tel":"031-675-1127","addr":"경기도 안성시 죽산면 죽산리 405-2번지 죽산초등학교","category":"학원 - 초중고교육기관"}]},{"lat":"37.077597617","long":"127.43002873","items":[{"name":"죽주공인계량소","tel":"031-676-5006","addr":"경기도 안성시 죽산면 죽산리 145-8번지","category":"용역 서비스 - 사무서비스"}]},{"lat":"37.079071715","long":"127.43352323","items":[{"name":"집밥백반식당","tel":"031-675-9908","addr":"경기도 안성시 죽산면 죽산리 34번지","category":"일반휴게음식 - 일반한식"},{"name":"크로바대리운전","tel":"031-676-5665","addr":"경기도 안성시 죽산면 죽산리 34","category":"보건위생 - 기타대인서비스"},{"name":"한식뷔페궁","tel":"031-677-6228","addr":"경기도 안성시 죽산면 죽산리 34번지","category":"일반휴게음식 - 일반한식"}]},{"lat":"37.07537853","long":"127.42821703","items":[{"name":"청담","tel":"031-676-0125","addr":"경기도 안성시 죽산면 죽산리 125번지","category":"일반휴게음식 - 일반한식"}]},{"lat":"37.074157071","long":"127.42710818","items":[{"name":"친절현대써비스","tel":"031-676-7778","addr":"경기도 안성시 죽산면 죽산리 821-1번지","category":"자동차정비 유지 - 자동차정비"}]},{"lat":"37.077215858","long":"127.42339167","items":[{"name":"캣타바코 죽산점","tel":"031-672-7644","addr":"경기도 안성시 죽산면 죽산리 466-3번지","category":"음료식품 - 농·축·수산품"},{"name":"하람","tel":"031-675-3004","addr":"경기도 안성시 죽산면 죽산리 466-3번지","category":"보건위생 - 화장품"}]},{"lat":"37.074766481","long":"127.42297332","items":[{"name":"케이-아시아푸드","tel":"","addr":"경기도 안성시 죽산면 죽산리 434-1번지","category":"음료식품 - 기타음료식품"}]},{"lat":"37.07476847","long":"127.42241107","items":[{"name":"통달배족발보쌈삼겹(안성죽산)점","tel":"031-676-0521","addr":"경기도 안성시 죽산면 죽산리 433-12번지 1층","category":"일반휴게음식 - 일반한식"}]},{"lat":"37.075799361","long":"127.42391239","items":[{"name":"투투헤어라인","tel":"031-676-5856","addr":"경기도 안성시 죽산면 죽산리 474-4번지","category":"보건위생 - 미용원"}]},{"lat":"37.075910638","long":"127.4204719","items":[{"name":"평창송어회","tel":"031-675-1739","addr":"경기도 안성시 죽산면 죽산리 417","category":"일반휴게음식 - 일식·회집"}]},{"lat":"37.075576793","long":"127.42568793","items":[{"name":"피자스쿨","tel":"031-677-0266","addr":"경기도 안성시 죽산면 죽산리 105-8 나호","category":"일반휴게음식 - 스넥"}]},{"lat":"37.074936538","long":"127.42583056","items":[{"name":"하모니마트(죽산점)","tel":"031-676-4546","addr":"경기도 안성시 죽산면 죽산리 104-2번지","category":"유통업 영리 - 슈퍼마켓"}]},{"lat":"37.074210449","long":"127.42729965","items":[{"name":"한남동그집 안성죽산점","tel":"031-676-7428","addr":"경기도 안성시 죽산면 죽산리 821번지","category":"일반휴게음식 - 일반한식"}]},{"lat":"37.074158588","long":"127.4216093","items":[{"name":"행복건강원","tel":"031-676-7782","addr":"경기도 안성시 죽산면 죽산리 514-8번지 1층","category":"건강식품 - 기타건강식품"}]},{"lat":"37.075600414","long":"127.4241137","items":[{"name":"허참마루감자탕","tel":"031-676-3846","addr":"경기도 안성시 죽산면 죽산리 475-3","category":"일반휴게음식 - 일반한식"}]},{"lat":"37.075515683","long":"127.42513656","items":[{"name":"헤어살롱 비비드","tel":"","addr":"경기도 안성시 죽산면 죽산리 493-3번지","category":"보건위생 - 미용원"}]},{"lat":"37.077549839","long":"127.42322483","items":[{"name":"황철수피자","tel":"031-675-3773","addr":"경기도 안성시 죽산면 죽산리 456-7번지","category":"일반휴게음식 - 서양음식"}]},{"lat":"37.083351442","long":"127.43110694","items":[{"name":"휘모리야생화","tel":"031-426-2653","addr":"경기도 안성시 죽산면 죽산리 241번지","category":"문화.취미 - 화원"}]}]