[{"lat":"37.74198686","long":"127.08045119","items":[{"name":"(주) 쎈웨이","tel":"031-853-3500","addr":"경기도 의정부시 용현동 529-11번지","category":"신변잡화 - 신발"}]},{"lat":"37.737513218","long":"127.08757107","items":[{"name":"(주)경기전력안전기술단","tel":"031-852-0986","addr":"경기도 의정부시 용현동 554-6번지 팬트와이어리스사옥 302호","category":"용역 서비스 - 종합용역"},{"name":"국민저울","tel":"031-852-3781","addr":"경기도 의정부시 용현동 554-6번지 송현빌딩 2층 201호","category":"주방용구 - 주방용구"},{"name":"김주연에스에틱","tel":"031-851-3501","addr":"경기도 의정부시 용현동 554-6번지 팬트와이어리스사옥 1층","category":"보건위생 - 피부미용실"},{"name":"의정부 남부지사","tel":"031-852-4560","addr":"경기도 의정부시 용현동 554-6번지 3층 일부(304호)","category":"보건위생 - 화장품"},{"name":"이본홀딩스","tel":"","addr":"경기도 의정부시 용현동 554-6번지 팬트와이어리스사옥 5층 2호","category":"용역 서비스 - 종합용역"},{"name":"주식회사 사람과환경","tel":"031-853-9609","addr":"경기도 의정부시 용현동 554-6번지 팬트와이어리스사옥 404호","category":"용역 서비스 - 종합용역"},{"name":"클라라헤어","tel":"031-852-5506","addr":"경기도 의정부시 용현동 554-6번지 송현빌딩 1층 102호","category":"보건위생 - 미용원"},{"name":"파카코리아 (paca-korea)","tel":"070-8683-2266","addr":"경기도 의정부시 용현동 554-6번지 일부분 202호","category":"서적문구 - 과학기자재"}]},{"lat":"37.735903199","long":"127.08373477","items":[{"name":"(주)국민모터스","tel":"031-852-5556","addr":"경기도 의정부시 용현동 270-60번지","category":"자동차판매 - 이륜차판매"},{"name":"다원건강원","tel":"031-852-2552","addr":"경기도 의정부시 용현동 270-60번지 외1필지","category":"건강식품 - 기타건강식품"},{"name":"더(The)그리고 cafe","tel":"031-853-1277","addr":"경기도 의정부시 용현동 270-60번지 1층","category":"일반휴게음식 - 서양음식"},{"name":"소담식당","tel":"031-853-6357","addr":"경기도 의정부시 용현동 270-60번지 1층","category":"일반휴게음식 - 일반한식"},{"name":"왔구나포차","tel":"031-848-6951","addr":"경기도 의정부시 용현동 270-60번지 1층","category":"일반휴게음식 - 일반한식"},{"name":"주민모터스","tel":"031-852-5556","addr":"경기도 의정부시 용현동 270-60번지 조립식상가 1층 101호","category":"수리서비스 - 기타수리서비스"},{"name":"헤어랑플러스","tel":"031-851-4118","addr":"경기도 의정부시 용현동 270-60번지 지상 1층 외1필지 270-70","category":"보건위생 - 미용원"}]},{"lat":"37.735069467","long":"127.07742634","items":[{"name":"(주)대한모터스","tel":"031-852-5556","addr":"경기도 의정부시 용현동 402-8번지","category":"자동차판매 - 이륜차판매"},{"name":"토마토미니슈퍼","tel":"031-846-9200","addr":"경기도 의정부시 용현동 402-8번지 보광 상가 1층 6호","category":"유통업 영리 - 슈퍼마켓"}]},{"lat":"37.750293331","long":"127.08095911","items":[{"name":"(주)듀라핌","tel":"070-7769-8999","addr":"경기도 의정부시 용현동 545-5번지 5층","category":"사무통신 - 사무용 OA기기"},{"name":"임진강장어구이","tel":"031-852-7760","addr":"경기도 의정부시 용현동 545-5번지","category":"일반휴게음식 - 일반한식"}]},{"lat":"37.72618158","long":"127.08415524","items":[{"name":"(주)메디코어","tel":"031-851-8161","addr":"경기도 의정부시 용현동 156-1번지","category":"보건위생 - 의료용품"}]},{"lat":"37.745599562","long":"127.08064784","items":[{"name":"(주)바이오클","tel":"00-1661-0944","addr":"경기도 의정부시 용현동 520-1 에이-202","category":"보건위생 - 의료용품"},{"name":"명성","tel":"031-851-7013","addr":"경기도 의정부시 용현동 520-1번지","category":"가구 - 기타가구"}]},{"lat":"37.736044823","long":"127.0873425","items":[{"name":"(주)베스트원전기통신","tel":"031-894-7370","addr":"경기도 의정부시 용현동 14-3번지 용운빌딩 202호","category":"전기제품 - 기타전기제품"},{"name":"현대동물병원","tel":"031-852-3119","addr":"경기도 의정부시 용현동 14-3번지 용운빌딩 1층 101호","category":"기타의료기관 - 동물병원"},{"name":"형제숯불갈비","tel":"031-852-0987","addr":"경기도 의정부시 용현동 14-3번지 용운빌딩 103호","category":"일반휴게음식 - 일반한식"}]},{"lat":"37.731958974","long":"127.08081508","items":[{"name":"(주)쓰리에이모터스","tel":"","addr":"경기도 의정부시 용현동 212-5번지","category":"자동차정비 유지 - 자동차정비"}]},{"lat":"37.744759939","long":"127.08323383","items":[{"name":"(주)씨이엠","tel":"031-853-9485","addr":"경기도 의정부시 용현동 519-6번지","category":"주방용구 - 주방용구"},{"name":"주식회사동신수지","tel":"02-497-8348","addr":"경기도 의정부시 용현동 519-6번지","category":"기타 - 기타 전문점"}]},{"lat":"37.743651018","long":"127.08432183","items":[{"name":"(주)원크린","tel":"","addr":"경기도 의정부시 용현동 526-3번지 201-1호","category":"주방용구 - 주방용구"},{"name":"일오삼 (153)","tel":"031-851-1226","addr":"경기도 의정부시 용현동 526-3번지 2층 201-2호","category":"보건위생 - 피부미용실"},{"name":"정관장용현점","tel":"031-852-2304","addr":"경기도 의정부시 용현동 526-3번지 102호","category":"건강식품 - 홍삼제품"},{"name":"정관장용현점","tel":"031-852-2304","addr":"경기도 의정부시 용현동 526-3번지 102호","category":"건강식품 - 홍삼제품"},{"name":"주식회사플랜디자인","tel":"031-853-8815","addr":"경기도 의정부시 용현동 526-3번지 101호","category":"건축자재 - 인테리어전문"},{"name":"한솔노무사사무소","tel":"031-877-7582","addr":"경기도 의정부시 용현동 526-3번지","category":"용역 서비스 - 법률회계서비스(개인)"},{"name":"황제뚝배기짬뽕","tel":"031-852-0070","addr":"경기도 의정부시 용현동 526-3번지","category":"일반휴게음식 - 일반한식"}]},{"lat":"37.736735133","long":"127.07915241","items":[{"name":"(주)이지케어","tel":"070-7776-3613","addr":"경기도 의정부시 용현동 391-19번지 건영 상가 301호","category":"용역 서비스 - 종합용역"},{"name":"FeelLife(필라이프)","tel":"031-861-4158","addr":"경기도 의정부시 용현동 391-19외1필지건영상가101","category":"건축자재 - 인테리어전문"},{"name":"가서 꾸며 주는 정원","tel":"031-852-3217","addr":"경기도 의정부시 용현동 391-19번지 건영아파트 상가동 303호","category":"문화.취미 - 화원"}]},{"lat":"37.74298662","long":"127.08090605","items":[{"name":"(주)인스킨","tel":"031-852-5398","addr":"경기도 의정부시 용현동 522-5번지 3층","category":"보건위생 - 의료용품"},{"name":"주식회사토펙스","tel":"031-852-1991","addr":"경기도 의정부시 용현동 522-5번지","category":"광학제품 - 기타광학제품"},{"name":"태원교육기자재","tel":"031-852-5381","addr":"경기도 의정부시 용현동 522-5번지 토팩스AS실","category":"서적문구 - 과학기자재"}]},{"lat":"37.73615037","long":"127.07781314","items":[{"name":"(주)주민모터스","tel":"031-852-5556","addr":"경기도 의정부시 용현동 393-16번지","category":"자동차판매 - 이륜차판매"},{"name":"머리하는 집","tel":"031-8083-4020","addr":"경기도 의정부시 용현동 393-16번지 1층","category":"보건위생 - 미용원"},{"name":"세아그린세탁","tel":"031-846-5025","addr":"경기도 의정부시 용현동 393-16번지","category":"수리서비스 - 세탁소"}]},{"lat":"37.742182445","long":"127.08434291","items":[{"name":"(주)지티에프엔비","tel":"031-853-3357","addr":"경기도 의정부시 용현동 527-2번지","category":"음료식품 - 기타음료식품"},{"name":"(주)지티테크","tel":"070-4300-7914","addr":"경기도 의정부시 용현동 527-2번지","category":"수리서비스 - 가정용품수리"},{"name":"지티카페(GTcafe)","tel":"031-852-5568","addr":"경기도 의정부시 용현동 527-2번지","category":"음료식품 - 기타음료식품"}]},{"lat":"37.734823646","long":"127.08137395","items":[{"name":"(주)진성메리트엘리베이터","tel":"031-823-1119","addr":"경기도 의정부시 용현동 264-11번지 4층","category":"용역 서비스 - 기타용역서비스"},{"name":"킹 노래연습장","tel":"031-000-0000","addr":"경기도 의정부시 용현동 264-11번지 2층","category":"레저업소 - 노 래 방"},{"name":"킹당구장","tel":"031-851-7977","addr":"경기도 의정부시 용현동 264-11번지 3층","category":"레저업소 - 당 구 장"}]},{"lat":"37.743461786","long":"127.084367","items":[{"name":"(주)천우","tel":"031-851-0040","addr":"경기도 의정부시 용현동 526-4번지 플러스빌딩 107-1호","category":"사무통신 - 통신기기"},{"name":"GS25의정산단점","tel":"031-852-8452","addr":"경기도 의정부시 용현동 526-4번지 플러스빌딩 101호","category":"유통업 영리 - 편 의 점"},{"name":"Y. LEE헤어","tel":"031-851-0312","addr":"경기도 의정부시 용현동 526-4번지 플러스빌딩 201호","category":"보건위생 - 미용원"},{"name":"가가스튜디오","tel":"031-852-3571","addr":"경기도 의정부시 용현동 526-4,플러스빌딩203-1호","category":"광학제품 - 사진관"},{"name":"거북이한의원","tel":"031-852-1020","addr":"경기도 의정부시 용현동 526-4번지 프러스 304호","category":"의원 - 한의원"},{"name":"무한리필 마포서서갈비(용현점)","tel":"031-853-9208","addr":"경기도 의정부시 용현동 526-4번지 지상1층 107 (일부) 108. 109호","category":"일반휴게음식 - 일반한식"},{"name":"블루클럽","tel":"031-852-5331","addr":"경기도 의정부시 용현동 526-4번지 플러스빌딩 104호","category":"보건위생 - 미용원"},{"name":"샌드프레소","tel":"031-852-7008","addr":"경기도 의정부시 용현동 526-4번지 PLUS빌딩 106호","category":"일반휴게음식 - 서양음식"},{"name":"시장약국","tel":"031-852-3424","addr":"경기도 의정부시 용현동 526-4번지 플러스빌딩 105호","category":"약국 - 약국"},{"name":"위 키즈 아동발달센터","tel":"031-851-3164","addr":"경기도 의정부시 용현동 526-4번지 플러스빌딩 403호","category":"보건위생 - 기타대인서비스"},{"name":"토프레소","tel":"031-852-7008","addr":"경기도 의정부시 용현동 526-4번지 플러스빌딩 106호","category":"일반휴게음식 - 서양음식"},{"name":"햇살래","tel":"031-852-0606","addr":"경기도 의정부시 용현동 526-4번지 플러스빌딩 1층 102호","category":"일반휴게음식 - 일반한식"},{"name":"헤어살롱훼이스","tel":"031-821-0222","addr":"경기도 의정부시 용현동 526-4 플러스빌딩 203-2","category":"보건위생 - 미용원"}]},{"lat":"37.737875351","long":"127.0850983","items":[{"name":"(주)태성애드","tel":"031-852-6515","addr":"경기도 의정부시 용현동 278-2번지","category":"용역 서비스 - 종합용역"}]},{"lat":"37.741157244","long":"127.08156217","items":[{"name":"(주)피투에스원","tel":"031-1800-9382","addr":"경기도 의정부시 용현동 530-2번지 1층","category":"전기제품 - 기타전기제품"},{"name":"글로컬교육","tel":"","addr":"경기도 의정부시 용현동 530-2번지 2동 2층","category":"서적문구 - 기타서적문구"}]},{"lat":"37.734545248","long":"127.08001234","items":[{"name":"(주)해원산업개발","tel":"031-848-3931","addr":"경기도 의정부시 용현동 266-10번지","category":"용역 서비스 - 기타용역서비스"},{"name":"마녀헤어","tel":"031-852-5473","addr":"경기도 의정부시 용현동 266-10번지 2층","category":"보건위생 - 미용원"}]},{"lat":"37.732046299","long":"127.08489901","items":[{"name":"120프로쿨","tel":"031-847-8686","addr":"경기도 의정부시 용현동 230-15번지","category":"보건위생 - 미용원"},{"name":"김동윤안경원","tel":"031-821-1256","addr":"경기도 의정부시 용현동 230-15번지 1층","category":"보건위생 - 안경"},{"name":"뚜레쥬르 의정부용현(3)","tel":"031-847-8585","addr":"경기도 의정부시 용현동 230-15번지 1층","category":"음료식품 - 제과점"},{"name":"밤 노래연습장","tel":"031-821-0048","addr":"경기도 의정부시 용현동 230-15번지 아산빌딩 5층","category":"레저업소 - 노 래 방"},{"name":"보그너커피","tel":"","addr":"경기도 의정부시 용현동 230-15번지 아산빌딩 1층","category":"일반휴게음식 - 서양음식"},{"name":"열린음악회","tel":"031-825-6902","addr":"경기도 의정부시 용현동 230-15번지 지층","category":"일반휴게음식 - 일반한식"},{"name":"용현청과","tel":"","addr":"경기도 의정부시 용현동 230-15번지 아산빌딩","category":"음료식품 - 농·축·수산품"}]},{"lat":"37.739238444","long":"127.08120844","items":[{"name":"1층미용실","tel":"031-858-6965","addr":"경기도 의정부시 용현동 290-1번지 신도10차파크힐타운 상가 102호","category":"보건위생 - 미용원"},{"name":"신도마트","tel":"070-4183-0080","addr":"경기도 의정부시 용현동 290-1번지 신도10차파크힐타운 101호","category":"유통업 영리 - 슈퍼마켓"}]},{"lat":"37.734347614","long":"127.07912727","items":[{"name":"2.9요가 필라테스","tel":"031-853-7286","addr":"경기도 의정부시 용현동 407-9번지 DU빌딩 2층 2호","category":"레저업소 - 헬스클럽"},{"name":"김밥천국","tel":"031-852-0673","addr":"경기도 의정부시 용현동 407-9번지 DU빌딩 형제상가 1층","category":"일반휴게음식 - 스넥"},{"name":"녹십자약국","tel":"031-851-8881","addr":"경기도 의정부시 용현동 407-9번지","category":"약국 - 약국"},{"name":"더 바디핏 휘트니스","tel":"031-853-7286","addr":"경기도 의정부시 용현동 407-9번지 DU빌딩 2층","category":"레저업소 - 헬스클럽"},{"name":"샤인모피","tel":"031-851-6644","addr":"경기도 의정부시 용현동 407-9번지 DU빌딩 1층","category":"의류 - 기타의류"},{"name":"에스엠 (SM)스크린골프연습장","tel":"031-851-9569","addr":"경기도 의정부시 용현동 407-9번지 DU빌딩 4층","category":"레저업소 - 스크린골프"},{"name":"연지곤지요양원","tel":"031-852-4478","addr":"경기도 의정부시 용현동 407-9번지 디유빌딩 나동 3층","category":"기타의료기관 - 기타의료기관 및 기타"},{"name":"연지곤지주야간보호센터","tel":"031-853-9031","addr":"경기도 의정부시 용현동 407-9번지 DU빌딩 디유빌딩 4층 2호","category":"기타의료기관 - 기타의료기관 및 기타"},{"name":"이마트24 의정부용현점","tel":"031-111-1111","addr":"경기도 의정부시 용현동 407-9번지 DU빌딩 101호","category":"유통업 영리 - 편 의 점"},{"name":"이마트24 의정부용현점","tel":"","addr":"경기도 의정부시 용현동 407-9번지 디유빌딩 101호","category":"유통업 영리 - 편 의 점"},{"name":"주식회사쉐보레용현대리점","tel":"031-851-7979","addr":"경기도 의정부시 용현동 407-9번지","category":"자동차판매 - 국산신차판매"},{"name":"파리바게트 (용현동306보충대점)","tel":"031-846-6976","addr":"경기도 의정부시 용현동 407-9번지 DU빌딩 나동지상 1층","category":"음료식품 - 제과점"},{"name":"화이트","tel":"031-851-0075","addr":"경기도 의정부시 용현동 407-9번지 디유빌딩 1층 8호","category":"문화.취미 - 애완동물"}]},{"lat":"37.736621953","long":"127.0866171","items":[{"name":"216홍삼나라","tel":"031-851-2410","addr":"경기도 의정부시 용현동 30-13번지","category":"음료식품 - 기타음료식품"},{"name":"붐","tel":"031-877-8008","addr":"경기도 의정부시 용현동 30-13번지 1층 102호","category":"일반휴게음식 - 일반한식"}]},{"lat":"37.732596954","long":"127.08334547","items":[{"name":"21세기 분식","tel":"031-111-1111","addr":"경기도 의정부시 용현동 237-1번지","category":"일반휴게음식 - 일반한식"}]},{"lat":"37.737541281","long":"127.08611896","items":[{"name":"24시누름돌생고기김치찌개","tel":"031-852-1424","addr":"경기도 의정부시 용현동 9번지 1층","category":"일반휴게음식 - 일반한식"},{"name":"갈비공판장","tel":"02-3666-8100","addr":"경기도 의정부시 용현동 9번지 외 1필지","category":"음료식품 - 정육점"},{"name":"뱃놈과백정","tel":"031-851-0805","addr":"경기도 의정부시 용현동 9번지","category":"일반휴게음식 - 일반한식"}]},{"lat":"37.736657652","long":"127.08709362","items":[{"name":"24시전주콩나물국밥","tel":"031-853-8889","addr":"경기도 의정부시 용현동 14번지 1층","category":"일반휴게음식 - 일반한식"},{"name":"경희예한의원","tel":"031-852-6020","addr":"경기도 의정부시 용현동 14번지 1층 106,107호","category":"의원 - 한의원"},{"name":"김미숙의조은집꾸미기","tel":"031-851-0486","addr":"경기도 의정부시 용현동 14번지 104호","category":"건축자재 - 인테리어전문"},{"name":"솜스킨앤바디","tel":"031-852-7530","addr":"경기도 의정부시 용현동 14번지 2층 201호","category":"보건위생 - 피부미용실"},{"name":"솜헤어앤뷰티","tel":"031-852-7530","addr":"경기도 의정부시 용현동 14번지 2층 201호","category":"보건위생 - 미용원"},{"name":"에스엠샵(SM Shop)","tel":"02-3666-8100","addr":"경기도 의정부시 용현동 14번지 2층","category":"보건위생 - 피부미용실"},{"name":"큰맘할매순대국의정부용현점","tel":"031-853-8889","addr":"경기도 의정부시 용현동 14번지 1층 101,102호","category":"일반휴게음식 - 일반한식"},{"name":"하늘약국","tel":"031-852-3369","addr":"경기도 의정부시 용현동 14번지 송남빌딩","category":"약국 - 약국"}]},{"lat":"37.734626156","long":"127.08028469","items":[{"name":"306안경원","tel":"031-851-3060","addr":"경기도 의정부시 용현동 266-8번지 4호 상가","category":"보건위생 - 안경"},{"name":"민텔레콤","tel":"031-853-2803","addr":"경기도 의정부시 용현동 266-8번지","category":"사무통신 - 통신기기"},{"name":"서원홍삼","tel":"031-851-8940","addr":"경기도 의정부시 용현동 266-8번지","category":"건강식품 - 기타건강식품"},{"name":"우리집강아지","tel":"031-852-6788","addr":"경기도 의정부시 용현동 266-8번지 3호","category":"문화.취미 - 애완동물"},{"name":"카페보그너","tel":"031-851-6840","addr":"경기도 의정부시 용현동 266-8번지 6호 상가","category":"일반휴게음식 - 서양음식"}]},{"lat":"37.735546156","long":"127.07870875","items":[{"name":"GS25 용현건영점","tel":"","addr":"경기도 의정부시 용현동 404-48번지 1층","category":"유통업 영리 - 편 의 점"},{"name":"팡팡노래연습장","tel":"031-847-0902","addr":"경기도 의정부시 용현동 404-48번지","category":"레저업소 - 노 래 방"}]},{"lat":"37.750238722","long":"127.08178737","items":[{"name":"GS25송산1단지점","tel":"","addr":"경기도 의정부시 용현동 547-11번지 송산주공아파트 상가동 102호","category":"유통업 영리 - 편 의 점"}]},{"lat":"37.737045579","long":"127.08636799","items":[{"name":"GS25용현베르우스점","tel":"","addr":"경기도 의정부시 용현동 10-6번지 베르우스엠 1층 106호","category":"유통업 영리 - 편 의 점"},{"name":"메리골드","tel":"","addr":"경기도 의정부시 용현동 10-6번지 베르우스엠 208호","category":"보건위생 - 화장품"},{"name":"별별반찬","tel":"031-851-7336","addr":"경기도 의정부시 용현동 10-6번지 102호","category":"음료식품 - 기타음료식품"}]},{"lat":"37.736344481","long":"127.08400752","items":[{"name":"GS25용현브래뉴점","tel":"","addr":"경기도 의정부시 용현동 272-2번지","category":"유통업 영리 - 편 의 점"},{"name":"헤어톡톡","tel":"031-851-6272","addr":"경기도 의정부시 용현동 272-2번지 1층","category":"보건위생 - 미용원"}]},{"lat":"37.733405314","long":"127.08693112","items":[{"name":"GS25의정부용현점","tel":"","addr":"경기도 의정부시 용현동 24-6번지 외 2필지 제1호","category":"유통업 영리 - 편 의 점"},{"name":"e-미소치과의원","tel":"031-848-7528","addr":"경기도 의정부시 용현동 24-6번지 외2필지청룡빌딩 3층","category":"의원 - 치과의원"},{"name":"개념원리수학학원","tel":"031-856-4477","addr":"경기도 의정부시 용현동 24-6번지 청룡빌딩 4층","category":"회원제형태 - 학원"},{"name":"비엠(BM)당구장","tel":"031-827-9288","addr":"경기도 의정부시 용현동 24-6번지 청룡빌딩 5층","category":"레저업소 - 당 구 장"},{"name":"피자마루","tel":"031-821-9483","addr":"경기도 의정부시 용현동 24-6번지 외2필지 1호","category":"일반휴게음식 - 서양음식"}]},{"lat":"37.737874354","long":"127.08651641","items":[{"name":"GS스크린골프","tel":"031-853-7962","addr":"경기도 의정부시 용현동 7-20번지 2층","category":"회원제형태 - 레져업소"},{"name":"반품마트","tel":"070-8224-7014","addr":"경기도 의정부시 용현동 7-20번지 1층","category":"신변잡화 - 기타잡화"}]},{"lat":"37.735964069","long":"127.08687729","items":[{"name":"HS코퍼레이션","tel":"031-824-0650","addr":"경기도 의정부시 용현동 13-30번지","category":"보건위생 - 의료용품"}]},{"lat":"37.737486352","long":"127.08734414","items":[{"name":"ING핫요가","tel":"031-851-5922","addr":"경기도 의정부시 용현동 554-7번지 5층","category":"회원제형태 - 레져업소"},{"name":"다솔메디칼","tel":"031-852-8052","addr":"경기도 의정부시 용현동 554-7번지","category":"약국 - 제약회사"},{"name":"성모이비인후과의원","tel":"02-2282-4266","addr":"경기도 의정부시 용현동 554-7번지 외1필지 4층 401호","category":"의원 - 의원"},{"name":"아름다운두손한의원","tel":"031-856-8686","addr":"경기도 의정부시 용현동 554-7번지 경은빌딩 3층","category":"의원 - 한의원"},{"name":"임혜영산부인과","tel":"031-852-5335","addr":"경기도 의정부시 용현동 554-7번지 3층","category":"의원 - 의원"},{"name":"제이리치학원","tel":"070-4212-7217","addr":"경기도 의정부시 용현동 554-7번지 3층","category":"학원 - 보습학원"},{"name":"행복한2층약국","tel":"031-851-0813","addr":"경기도 의정부시 용현동 554-7번지 외1필지 2층","category":"약국 - 약국"}]},{"lat":"37.736127172","long":"127.08556149","items":[{"name":"IOT세상","tel":"","addr":"경기도 의정부시 용현동 33-6번지 동남상가 A동 2층 203-13호","category":"용역 서비스 - 사무서비스"},{"name":"가온누리","tel":"02-990-1753","addr":"경기도 의정부시 용현동 33-6번지 동남상가 A동 2층 202-56호","category":"자동차정비 유지 - 자동차부품"},{"name":"기막혀곱창","tel":"031-853-8252","addr":"경기도 의정부시 용현동 33-6번지 1층","category":"일반휴게음식 - 일반한식"},{"name":"나눔교육","tel":"02-2244-9596","addr":"경기도 의정부시 용현동 33-6번지 동남상가 에이동 2층 202-46호","category":"서적문구 - 일반서적"},{"name":"라인메디케어","tel":"031-847-2401","addr":"경기도 의정부시 용현동 33-6번지 동남상가 A동 202-54호","category":"보건위생 - 의료용품"},{"name":"리오시스템","tel":"02-6397-2554","addr":"경기도 의정부시 용현동 33-6번지 2층 201,202호","category":"용역 서비스 - 소프트웨어"},{"name":"비에프종합공사","tel":"031-527-2480","addr":"경기도 의정부시 용현동 33-6번지 2층 202-59호 동남상가 A동","category":"수리서비스 - 기타수리서비스"},{"name":"비즈클레버","tel":"070-5055-0526","addr":"경기도 의정부시 용현동 33-6번지 동남 상가 A동 201,202호","category":"용역 서비스 - 부동산 중개·임대"},{"name":"숙이네분식","tel":"070-7313-7783","addr":"경기도 의정부시 용현동 33-6번지 105호","category":"일반휴게음식 - 스넥"},{"name":"에프엔(F&)","tel":"","addr":"경기도 의정부시 용현동 33-6번지 A동 202-A83호","category":"신변잡화 - 기타잡화"},{"name":"옷가게","tel":"031-853-3490","addr":"경기도 의정부시 용현동 33-6번지 동남상가 A동 2층 202-135호","category":"의류 - 정장"},{"name":"윈 시스템","tel":"070-8688-0871","addr":"경기도 의정부시 용현동 33-6번지 2층 202-203호","category":"전기제품 - 가전제품"},{"name":"정드린치킨","tel":"070-7522-8156","addr":"경기도 의정부시 용현동 33-6번지 동남상가 1층","category":"일반휴게음식 - 스넥"},{"name":"책임종합광고","tel":"070-8031-4038","addr":"경기도 의정부시 용현동 33-6번지 A동 201,202호","category":"용역 서비스 - 종합용역"},{"name":"청포실업","tel":"031-853-7212","addr":"경기도 의정부시 용현동 33-6번지 202호","category":"용역 서비스 - 종합용역"},{"name":"툴스테이션","tel":"070-7500-0225","addr":"경기도 의정부시 용현동 33-6번지 201-205호, 201호중일부","category":"사무통신 - 컴퓨터"},{"name":"페라도트","tel":"031-852-6962","addr":"경기도 의정부시 용현동 33-6번지 동남상가 A동 102호","category":"의류 - 정장"}]},{"lat":"37.73717957","long":"127.0879791","items":[{"name":"J2 Corp","tel":"031-851-2881","addr":"경기도 의정부시 용현동 555-5번지 태일빌딩 3층","category":"의류 - 기타의류"},{"name":"마이꿈 가구공방","tel":"031-853-7926","addr":"경기도 의정부시 용현동 555-5번지 태일빌딩 102호","category":"가구 - 일반가구"}]},{"lat":"37.728902228","long":"127.08450986","items":[{"name":"JJun Lighting/LEDS","tel":"031-848-1879","addr":"경기도 의정부시 용현동 178-1번지 선진판넬 21호","category":"건축자재 - 조명기구"}]},{"lat":"37.730407326","long":"127.08378551","items":[{"name":"JS전기조명","tel":"031-000-0001","addr":"경기도 의정부시 용현동 190-15번지 용진빌딩 102호","category":"건축자재 - 조명기구"},{"name":"샛별건축","tel":"031-848-0431","addr":"경기도 의정부시 용현동 190-15번지","category":"용역 서비스 - 기타용역서비스"},{"name":"슈퍼온도리수도권총판","tel":"031-871-9199","addr":"경기도 의정부시 용현동 190-15번지 용진빌딩 203호","category":"건축자재 - 기타건축자재"},{"name":"조은날한복","tel":"031-852-2217","addr":"경기도 의정부시 용현동 190-15번지 용진빌딩 204~206호","category":"의류 - 맞춤복점"}]},{"lat":"37.735429192","long":"127.07845906","items":[{"name":"JS헤어스케치","tel":"031-845-0372","addr":"경기도 의정부시 용현동 404-51번지","category":"보건위생 - 미용원"},{"name":"드레이티스트 컴퍼니(DRartist Company)","tel":"031-827-5505","addr":"경기도 의정부시 용현동 404-51번지","category":"음료식품 - 기타음료식품"}]},{"lat":"37.749905921","long":"127.08095871","items":[{"name":"K-3 당구장","tel":"031-852-7619","addr":"경기도 의정부시 용현동 545-10 4층","category":"레저업소 - 당 구 장"},{"name":"금영노래연습장","tel":"031-853-3060","addr":"경기도 의정부시 용현동 545-10번지","category":"레저업소 - 노 래 방"},{"name":"라라 스쿨푸드","tel":"031-853-4281","addr":"경기도 의정부시 용현동 545-10번지 송산주공프라자 1층","category":"일반휴게음식 - 스넥"},{"name":"성실통신","tel":"031-871-0660","addr":"경기도 의정부시 용현동 545-10번지 송산주공프라자 202호 외1필지","category":"사무통신 - 통신기기"},{"name":"세탁소아저씨","tel":"031-851-8529","addr":"경기도 의정부시 용현동 545-10번지 송산주공프라자 101호","category":"수리서비스 - 세탁소"},{"name":"연은메디칼","tel":"031-846-4009","addr":"경기도 의정부시 용현동 545-10번지 송산주공프라자 108호","category":"보건위생 - 의료용품"},{"name":"윌헤어","tel":"031-853-1855","addr":"경기도 의정부시 용현동 545-10번지 송산주공프라자 102호","category":"보건위생 - 미용원"},{"name":"주식회사 시선테크인","tel":"031-851-7510","addr":"경기도 의정부시 용현동 545-10번지 송산주공프라자 205호","category":"사무통신 - 컴퓨터"},{"name":"헤어팡","tel":"","addr":"경기도 의정부시 용현동 545-10번지 송산주공프라자 1층 106호","category":"보건위생 - 미용원"}]},{"lat":"37.732017744","long":"127.08706568","items":[{"name":"LG전자시스템설치센터","tel":"031-852-5526","addr":"경기도 의정부시 용현동 46번지 현대상가 208호","category":"전기제품 - 냉열기기"},{"name":"씨유의정부현대점","tel":"031-821-2304","addr":"경기도 의정부시 용현동 46번지 현대상가 1층 108호","category":"유통업 영리 - 편 의 점"}]},{"lat":"37.745931273","long":"127.08309895","items":[{"name":"MJ상사","tel":"031-851-0102","addr":"경기도 의정부시 용현동 519-3번지","category":"음료식품 - 기타음료식품"}]},{"lat":"37.742345942","long":"127.082403","items":[{"name":"Moden&Unique","tel":"02-742-8736","addr":"경기도 의정부시 용현동 528-3번지 해동무역빌딩 3층","category":"용역 서비스 - 사무서비스"},{"name":"팩토리 진","tel":"","addr":"경기도 의정부시 용현동 528-3번지 203호","category":"의류 - 정장"}]},{"lat":"37.725992589","long":"127.08384877","items":[{"name":"O.K리스","tel":"031-848-3377","addr":"경기도 의정부시 용현동 157-9번지","category":"기타 - 기타 전문점"}]},{"lat":"37.730263344","long":"127.08353579","items":[{"name":"OK모터스","tel":"031-847-5683","addr":"경기도 의정부시 용현동 190-2번지","category":"자동차정비 유지 - 자동차부품"},{"name":"디엠텍","tel":"031-846-3692","addr":"경기도 의정부시 용현동 190-2번지 미래빌딩 103호","category":"자동차정비 유지 - 자동차부품"},{"name":"백두앵글진열장","tel":"031-841-5598","addr":"경기도 의정부시 용현동 190-2번지 1층","category":"건축자재 - 목재·석재·철물"},{"name":"토탈발란스","tel":"031-846-3363","addr":"경기도 의정부시 용현동 190-2번지 미래빌딩 101호","category":"기타 - 기계공구"},{"name":"팜스 커피전문점 프랜차이 사업 본부","tel":"031-821-8828","addr":"경기도 의정부시 용현동 190-2번지 204호","category":"주방용구 - 주방용구"}]},{"lat":"37.734708854","long":"127.077789","items":[{"name":"OrangeDECO(오렌지데코)","tel":"031-821-7644","addr":"경기도 의정부시 용현동 405-12번지","category":"직물 - 카페트,커튼,천막,지물"},{"name":"삼성종합상사","tel":"031-841-7262","addr":"경기도 의정부시 용현동 405-12번지","category":"건축자재 - 기타건축자재"}]},{"lat":"37.732685216","long":"127.08598874","items":[{"name":"P.P 노래연습장","tel":"031-846-0730","addr":"경기도 의정부시 용현동 41-2번지 지층","category":"레저업소 - 노 래 방"},{"name":"네일모해","tel":"","addr":"경기도 의정부시 용현동 41-2번지","category":"보건위생 - 피부미용실"},{"name":"엄마 올때아이스크림할인매점","tel":"","addr":"경기도 의정부시 용현동 41-2번지 1층","category":"음료식품 - 기타음료식품"}]},{"lat":"37.734153582","long":"127.08626265","items":[{"name":"PENIEL","tel":"031-848-4073","addr":"경기도 의정부시 용현동 39-2번지 킴스할인마트내","category":"신변잡화 - 귀금속"}]},{"lat":"37.731406525","long":"127.08503443","items":[{"name":"RICO가츠","tel":"031-847-4060","addr":"경기도 의정부시 용현동 60-2번지","category":"일반휴게음식 - 일반한식"},{"name":"S-마트","tel":"031-846-4843","addr":"경기도 의정부시 용현동 60-2번지","category":"유통업 영리 - 슈퍼마켓"},{"name":"대양수산(장어와회)","tel":"","addr":"경기도 의정부시 용현동 60-2번지 용현빌딩 1층","category":"일반휴게음식 - 일반한식"},{"name":"무봉리토종순대국(용현점)","tel":"031-841-3437","addr":"경기도 의정부시 용현동 60-2번지 용현빌딩 1층","category":"일반휴게음식 - 일반한식"},{"name":"시골빈대떡","tel":"031-821-4437","addr":"경기도 의정부시 용현동 60-2번지 외2필지","category":"일반휴게음식 - 일반한식"},{"name":"화랑태권도장","tel":"031-844-9222","addr":"경기도 의정부시 용현동 60-2번지 용현빌딩 2층","category":"학원 - 예·체능계학원"}]},{"lat":"37.735930623","long":"127.08315622","items":[{"name":"SK에너지","tel":"031-851-1730","addr":"경기도 의정부시 용현동 270-55번지","category":"연료판매점 - 유류판매"},{"name":"커피볶는집 융","tel":"031-851-9090","addr":"경기도 의정부시 용현동 270-55번지","category":"음료식품 - 기타음료식품"}]},{"lat":"37.73110035","long":"127.08481856","items":[{"name":"Sun","tel":"031-846-7424","addr":"경기도 의정부시 용현동 223-2번지 연세상무태권도장 101호","category":"신변잡화 - 기타잡화"},{"name":"능이마을","tel":"031-848-2753","addr":"경기도 의정부시 용현동 223-2번지 2층","category":"일반휴게음식 - 일반한식"},{"name":"쎄미곱창","tel":"031-841-0242","addr":"경기도 의정부시 용현동 223-2번지 1층","category":"일반휴게음식 - 일반한식"},{"name":"암돌 속풀이 칼국수","tel":"031-841-6289","addr":"경기도 의정부시 용현동 223-2번지","category":"일반휴게음식 - 일반한식"},{"name":"커피에반하다(용현점)","tel":"031-000-0000","addr":"경기도 의정부시 용현동 223-2번지 연세상무태권도장 1층 103호","category":"일반휴게음식 - 서양음식"},{"name":"퀸메이크헤어","tel":"031-848-5454","addr":"경기도 의정부시 용현동 223-2번지 1층 104호 연세상무태권도장","category":"보건위생 - 미용원"},{"name":"황제노래연습장","tel":"031-111-1111","addr":"경기도 의정부시 용현동 223-2번지 3층","category":"레저업소 - 노 래 방"}]},{"lat":"37.729350668","long":"127.08740296","items":[{"name":"TIREPIA(타이어피아)","tel":"031-841-6165","addr":"경기도 의정부시 용현동 79-1번지","category":"자동차정비 유지 - 자동차시트·타이어"}]},{"lat":"37.741879036","long":"127.0800086","items":[{"name":"가나실크인쇄","tel":"031-851-7756","addr":"경기도 의정부시 용현동 529-4번지","category":"서적문구 - 출판 및 인쇄물"}]},{"lat":"37.74190399","long":"127.08311729","items":[{"name":"가디안","tel":"031-894-7630","addr":"경기도 의정부시 용현동 528-7번지","category":"자동차정비 유지 - 윤활유 전문 판매"}]},{"lat":"37.736713505","long":"127.08454112","items":[{"name":"가마치통닭 용현점","tel":"031-852-3942","addr":"경기도 의정부시 용현동 275-2번지 애디안주상복합 105호","category":"일반휴게음식 - 스넥"},{"name":"아셀","tel":"","addr":"경기도 의정부시 용현동 275-2번지 애디안주상복합 101호","category":"의류 - 정장"},{"name":"옷걸이","tel":"","addr":"경기도 의정부시 용현동 275-2번지 애디안주상복합 103호","category":"의류 - 정장"},{"name":"채움","tel":"","addr":"경기도 의정부시 용현동 275-2번지 애디안주상복합 106호","category":"일반휴게음식 - 일반한식"},{"name":"힐스템 주열 테라피","tel":"031-852-9965","addr":"경기도 의정부시 용현동 275-2번지 애디안주상복합 204호","category":"보건위생 - 피부미용실"}]},{"lat":"37.749788872","long":"127.08084512","items":[{"name":"가위소리","tel":"031-853-0006","addr":"경기도 의정부시 용현동 545-9번지 경남프라자2 1층 102호","category":"보건위생 - 미용원"},{"name":"까까줄개","tel":"031-851-0067","addr":"경기도 의정부시 용현동 545-9번지 경남프라자2 106호","category":"문화.취미 - 애완동물"},{"name":"미가미장","tel":"031-852-3050","addr":"경기도 의정부시 용현동 545-9번지 경남프라자 1층 108호","category":"보건위생 - 미용원"},{"name":"손톱발톱","tel":"031-7378-3012","addr":"경기도 의정부시 용현동 545-9번지 경남프라자2 1층 107호","category":"보건위생 - 피부미용실"},{"name":"수학의달인 수학교습소","tel":"031-876-5934","addr":"경기도 의정부시 용현동 545-9번지 경남프라자2 2층 202호","category":"학원 - 보습학원"},{"name":"승구포차","tel":"031-843-2242","addr":"경기도 의정부시 용현동 545-9번지","category":"일반휴게음식 - 주점"},{"name":"한마루음악학원","tel":"031-853-0288","addr":"경기도 의정부시 용현동 545-9번지 경남프라자2 4층 2호","category":"학원 - 예·체능계학원"},{"name":"해법영어학원","tel":"070-7884-7235","addr":"경기도 의정부시 용현동 545-9번지 3층 301,302호","category":"학원 - 외국어학원"}]},{"lat":"37.732406855","long":"127.08464983","items":[{"name":"가즈아헤어","tel":"031-848-3530","addr":"경기도 의정부시 용현동 234번지","category":"보건위생 - 미용원"},{"name":"금사랑","tel":"031-845-5323","addr":"경기도 의정부시 용현동 234번지","category":"신변잡화 - 시계"},{"name":"마일즈실용음악학원","tel":"031-847-9088","addr":"경기도 의정부시 용현동 234번지 2층","category":"학원 - 예·체능계학원"},{"name":"싹쓰리","tel":"031-821-1002","addr":"경기도 의정부시 용현동 234번지 1층","category":"일반휴게음식 - 일반한식"}]},{"lat":"37.731567701","long":"127.08645259","items":[{"name":"가호건축","tel":"031-841-9938","addr":"경기도 의정부시 용현동 56-51번지","category":"건축자재 - 인테리어전문"}]},{"lat":"37.732712092","long":"127.08620431","items":[{"name":"감수","tel":"031-840-0312","addr":"경기도 의정부시 용현동 42-6번지 1층 102호","category":"의류 - 정장"},{"name":"대왕생선구이","tel":"031-846-8725","addr":"경기도 의정부시 용현동 42-6번지","category":"일반휴게음식 - 일반한식"},{"name":"휴대폰마트","tel":"070-4100-5199","addr":"경기도 의정부시 용현동 42-6번지 1층 101호","category":"사무통신 - 통신기기"}]},{"lat":"37.737045337","long":"127.08670834","items":[{"name":"갓진짬뽕","tel":"031-852-7553","addr":"경기도 의정부시 용현동 9-1번지 1층","category":"일반휴게음식 - 중국식"},{"name":"다모임","tel":"031-853-9213","addr":"경기도 의정부시 용현동 9-1번지 1층","category":"일반휴게음식 - 일반한식"},{"name":"라이브","tel":"031-851-9553","addr":"경기도 의정부시 용현동 9-1번지 3층","category":"일반휴게음식 - 서양음식"},{"name":"쎄이당구클럽","tel":"","addr":"경기도 의정부시 용현동 9-1번지 2층","category":"레저업소 - 당 구 장"},{"name":"연화숯불양꼬치 아지치킨앤호프","tel":"031-851-1501","addr":"경기도 의정부시 용현동 9-1번지 2층","category":"일반휴게음식 - 일반한식"}]},{"lat":"37.732964536","long":"127.08595502","items":[{"name":"강경젓갈","tel":"031-841-4339","addr":"경기도 의정부시 용현동 40번지 1층","category":"음료식품 - 농·축·수산품"},{"name":"명동","tel":"031-848-1066","addr":"경기도 의정부시 용현동 40번지 2층","category":"보건위생 - 화장품"},{"name":"송산1동주민자치위원회","tel":"031-828-2496","addr":"경기도 의정부시 용현동 40번지","category":"회원제형태 - 학원"},{"name":"재현네 과일청과","tel":"070-8551-4584","addr":"경기도 의정부시 용현동 40번지","category":"음료식품 - 농·축·수산품"}]},{"lat":"37.732847643","long":"127.08562591","items":[{"name":"강남인테리어","tel":"031-848-2182","addr":"경기도 의정부시 용현동 39-19번지 102호","category":"건축자재 - 인테리어전문"},{"name":"공감다이뽀","tel":"02-846-4399","addr":"경기도 의정부시 용현동 39-19번지 1층 105호","category":"신변잡화 - 기타잡화"},{"name":"다머스마","tel":"031-821-1139","addr":"경기도 의정부시 용현동 39-19번지 103호","category":"보건위생 - 미용원"},{"name":"산야초원","tel":"031-856-7869","addr":"경기도 의정부시 용현동 39-19번지 2층","category":"일반휴게음식 - 일반한식"},{"name":"아이센스PC방 용현점","tel":"070-3455-7810","addr":"경기도 의정부시 용현동 39-19번지 2층","category":"레저업소 - 기타레져업소"},{"name":"정원공사","tel":"031-846-8864","addr":"경기도 의정부시 용현동 39-19번지 106호","category":"용역 서비스 - 기타용역서비스"},{"name":"주원왕족발","tel":"031-848-8985","addr":"경기도 의정부시 용현동 39-19번지 104호","category":"일반휴게음식 - 일반한식"},{"name":"코코옛날통닭","tel":"031-841-9953","addr":"경기도 의정부시 용현동 39-19번지 1층","category":"일반휴게음식 - 일반한식"}]},{"lat":"37.731127818","long":"127.08418333","items":[{"name":"강동석정형외과","tel":"031-821-2597","addr":"경기도 의정부시 용현동 222-7번지","category":"의원 - 의원"},{"name":"명동","tel":"","addr":"경기도 의정부시 용현동 222-7번지 5층","category":"레저업소 - 헬스클럽"},{"name":"우리골프존스크린","tel":"031-821-5353","addr":"경기도 의정부시 용현동 222-7번지 덕성빌딩 3,4층","category":"회원제형태 - 레져업소"}]},{"lat":"37.729433311","long":"127.0852024","items":[{"name":"개똥이네 의정부점","tel":"031-843-2111","addr":"경기도 의정부시 용현동 181-4번지 1층","category":"서적문구 - 일반서적"}]},{"lat":"37.736321724","long":"127.07754105","items":[{"name":"경동보일러","tel":"031-847-5114","addr":"경기도 의정부시 용현동 392-17번지 1층","category":"수리서비스 - 기타수리서비스"}]},{"lat":"37.731959265","long":"127.08037266","items":[{"name":"경서약품 주식회사","tel":"031-848-1626","addr":"경기도 의정부시 용현동 209-17번지 312호","category":"약국 - 제약회사"},{"name":"다온바이오","tel":"031-848-7625","addr":"경기도 의정부시 용현동 209-17번지 3층 운트바이오 308호","category":"보건위생 - 의료용품"},{"name":"투웰브바스켓","tel":"031-202-8941","addr":"경기도 의정부시 용현동 209-17번지 1층 1호","category":"음료식품 - 제과점"}]},{"lat":"37.749960218","long":"127.08059567","items":[{"name":"경희대비룡태권도","tel":"031-852-6644","addr":"경기도 의정부시 용현동 545-8번지 성지빌딩 401호","category":"학원 - 예·체능계학원"},{"name":"김나연소아과","tel":"031-852-4211","addr":"경기도 의정부시 용현동 545-8번지","category":"회원제형태 - 건강식품"},{"name":"김나연소아과의원","tel":"031-852-4211","addr":"경기도 의정부시 용현동 545-8번지 성지빌딩 201호","category":"의원 - 의원"},{"name":"백세온누리약국","tel":"031-851-1720","addr":"경기도 의정부시 용현동 545-8번지 성지빌딩","category":"약국 - 약국"},{"name":"원우카정비","tel":"031-853-7273","addr":"경기도 의정부시 용현동 545-8번지","category":"자동차정비 유지 - 자동차정비"},{"name":"최강뮤엠영어학원","tel":"031-852-0515","addr":"경기도 의정부시 용현동 545-8번지 성지빌딩 3층","category":"학원 - 보습학원"}]},{"lat":"37.732154705","long":"127.0844794","items":[{"name":"경희부부한의원","tel":"031-856-6030","addr":"경기도 의정부시 용현동 221-1번지","category":"의원 - 한의원"},{"name":"다본다화장품","tel":"031-847-7460","addr":"경기도 의정부시 용현동 221-1번지 하진빌딩 1층","category":"보건위생 - 화장품"},{"name":"삼성영어용현학원","tel":"031-841-6868","addr":"경기도 의정부시 용현동 221-1번지 하진빌딩 3층","category":"학원 - 보습학원"},{"name":"송내과의원","tel":"031-843-8575","addr":"경기도 의정부시 용현동 221-1번지 하진빌딩 2층","category":"의원 - 의원"},{"name":"토이샵","tel":"031-848-8624","addr":"경기도 의정부시 용현동 221-1번지","category":"서적문구 - 문구용품"},{"name":"푸른치과의원","tel":"031-848-3568","addr":"경기도 의정부시 용현동 221-1번지 하진빌딩 4층","category":"의원 - 치과의원"},{"name":"한울태권도아카데미","tel":"031-845-5514","addr":"경기도 의정부시 용현동 221-1번지 하진빌딩 5층일부","category":"학원 - 예·체능계학원"},{"name":"해법영어한솔플러스수학학원","tel":"031-825-6029","addr":"경기도 의정부시 용현동 221-1번지 하진빌딩 4층","category":"학원 - 보습학원"}]},{"lat":"37.734844192","long":"127.07748284","items":[{"name":"고기배달닷컴","tel":"031-843-5900","addr":"경기도 의정부시 용현동 405-9번지 1층","category":"음료식품 - 정육점"},{"name":"떡뽀끼뽀끼","tel":"031-840-2344","addr":"경기도 의정부시 용현동 405-9번지","category":"일반휴게음식 - 일반한식"},{"name":"떡뽀끼뽀끼","tel":"031-840-2344","addr":"경기도 의정부시 용현동 405-9번지","category":"일반휴게음식 - 일반한식"}]},{"lat":"37.739154088","long":"127.08598463","items":[{"name":"고전한방삼계탕 치킨매니아","tel":"031-853-3383","addr":"경기도 의정부시 용현동 2-2번지","category":"일반휴게음식 - 일반한식"},{"name":"곽만근갈비탕(용현점)","tel":"031-853-5253","addr":"경기도 의정부시 용현동 2-2번지 1층","category":"일반휴게음식 - 일반한식"},{"name":"예닮채","tel":"031-853-0153","addr":"경기도 의정부시 용현동 2-2번지","category":"일반휴게음식 - 일반한식"}]},{"lat":"37.743345556","long":"127.08306212","items":[{"name":"고향집","tel":"031-851-3886","addr":"경기도 의정부시 용현동 524-4번지 (주)뉴빛 지하1층 104호","category":"일반휴게음식 - 일반한식"},{"name":"스펀지학원","tel":"031-853-0683","addr":"경기도 의정부시 용현동 524-4번지 용현플러스빌딩 204호","category":"회원제형태 - 학원"},{"name":"장수한방삼계탕","tel":"031-852-3389","addr":"경기도 의정부시 용현동 524-4번지 (주)뉴빛 지하1층 103호","category":"일반휴게음식 - 일반한식"}]},{"lat":"37.731487493","long":"127.08520467","items":[{"name":"골든양복점","tel":"031-843-2925","addr":"경기도 의정부시 용현동 228-3번지 1층","category":"의류 - 맞춤복점"}]},{"lat":"37.735984129","long":"127.08396175","items":[{"name":"광고전략","tel":"031-851-1144","addr":"경기도 의정부시 용현동 270-52번지","category":"용역 서비스 - 종합용역"},{"name":"대신철물설비","tel":"031-852-2811","addr":"경기도 의정부시 용현동 270-52번지","category":"건축자재 - 기타건축자재"}]},{"lat":"37.73529149","long":"127.08235007","items":[{"name":"광나라","tel":"","addr":"경기도 의정부시 용현동 268-32번지","category":"자동차정비 유지 - 카인테리어"},{"name":"금자네식당","tel":"031-853-9677","addr":"경기도 의정부시 용현동 268-32번지","category":"일반휴게음식 - 일반한식"},{"name":"속옷할인매장","tel":"031-852-1907","addr":"경기도 의정부시 용현동 268-32번지 103호","category":"의류 - 내의판매"},{"name":"스나이퍼","tel":"031-852-7900","addr":"경기도 의정부시 용현동 268-32번지 1층 104호","category":"음료식품 - 기타음료식품"},{"name":"조명과예술","tel":"031-874-8723","addr":"경기도 의정부시 용현동 268-32번지 105호","category":"건축자재 - 조명기구"}]},{"lat":"37.726651108","long":"127.08264711","items":[{"name":"광림요양원","tel":"031-846-7733","addr":"경기도 의정부시 용현동 129번지","category":"기타의료기관 - 기타의료기관 및 기타"}]},{"lat":"37.735125587","long":"127.08770448","items":[{"name":"교촌치킨용현점","tel":"031-853-9981","addr":"경기도 의정부시 용현동 18-15번지 유경빌딩 103호","category":"일반휴게음식 - 스넥"},{"name":"네비크로스","tel":"031-853-6263","addr":"경기도 의정부시 용현동 18-15번지 유경빌딩 1층 101호","category":"사무통신 - 통신기기"},{"name":"인테리어 클럽","tel":"031-853-0482","addr":"경기도 의정부시 용현동 18-15번지 유경빌딩 102호","category":"건축자재 - 인테리어전문"}]},{"lat":"37.734765482","long":"127.08731836","items":[{"name":"굳기획","tel":"031-851-9007","addr":"경기도 의정부시 용현동 30-12번지 1,2층","category":"서적문구 - 일반서적"},{"name":"다함께차차차","tel":"031-851-4771","addr":"경기도 의정부시 용현동 30-12번지 1층","category":"일반휴게음식 - 일반한식"},{"name":"럭셔리","tel":"","addr":"경기도 의정부시 용현동 30-12번지","category":"의류 - 정장"},{"name":"천연머리 염색방","tel":"031-852-1693","addr":"경기도 의정부시 용현동 30-12번지","category":"보건위생 - 이용원"}]},{"lat":"37.738541518","long":"127.08587049","items":[{"name":"굽네치킨 의정부용현점","tel":"031-051-8694","addr":"경기도 의정부시 용현동 311-1번지","category":"일반휴게음식 - 스넥"},{"name":"비피엘유통","tel":"","addr":"경기도 의정부시 용현동 311-1번지 2층","category":"레저업소 - 기타레져업소"}]},{"lat":"37.735323855","long":"127.0876253","items":[{"name":"굿모닝유통","tel":"031-851-8870","addr":"경기도 의정부시 용현동 18번지 벧엘순복음교회 101호","category":"문화.취미 - 애완동물"},{"name":"귀뚜라미홈시스의정부점","tel":"031-853-6800","addr":"경기도 의정부시 용현동 18번지 벧엘순복음교회 101호","category":"건축자재 - 보일러·펌프·샷시"},{"name":"대호종합주방","tel":"070-4408-4998","addr":"경기도 의정부시 용현동 18번지","category":"주방용구 - 주방용식기"},{"name":"마임금오","tel":"031-853-2664","addr":"경기도 의정부시 용현동 18번지 벧엘순복음교회 201호","category":"보건위생 - 화장품"},{"name":"마임용현동부지사","tel":"031-852-2323","addr":"경기도 의정부시 용현동 18.201","category":"보건위생 - 화장품"},{"name":"영창스포츠","tel":"031-853-3354","addr":"경기도 의정부시 용현동 18번지 벧엘순복음교회 1층 102호","category":"레져용품 - 스포츠·레져용품"}]},{"lat":"37.733713281","long":"127.08459455","items":[{"name":"궁전노인전문요양원","tel":"031-845-9600","addr":"경기도 의정부시 용현동 235-69번지","category":"기타의료기관 - 기타의료기관 및 기타"}]},{"lat":"37.736289105","long":"127.08590201","items":[{"name":"권영주미용실","tel":"031-878-0941","addr":"경기도 의정부시 용현동 33-9번지 동남상가 B-8호","category":"보건위생 - 미용원"},{"name":"꽃머리","tel":"031-853-0480","addr":"경기도 의정부시 용현동 33-9번지 1층","category":"보건위생 - 미용원"},{"name":"씨켄CCTV이홈케어","tel":"031-827-1177","addr":"경기도 의정부시 용현동 33-9 동남상가 에이-106","category":"전기제품 - 기타전기제품"},{"name":"아하노래연습장","tel":"031-852-8667","addr":"경기도 의정부시 용현동 33-9번지","category":"레저업소 - 노 래 방"},{"name":"어군참치","tel":"031-852-3733","addr":"경기도 의정부시 용현동 33-9번지 B동 1층 101호","category":"일반휴게음식 - 일반한식"},{"name":"윤정보통신","tel":"031-852-1577","addr":"경기도 의정부시 용현동 33-9번지 동남상가 B-6호","category":"사무통신 - 통신기기"},{"name":"중앙유통","tel":"031-851-3390","addr":"경기도 의정부시 용현동 33-9번지","category":"음료식품 - 기타음료식품"},{"name":"커피 스트리트(STREET) 25","tel":"031-853-1992","addr":"경기도 의정부시 용현동 33-9번지","category":"일반휴게음식 - 서양음식"}]},{"lat":"37.731874959","long":"127.0851257","items":[{"name":"귀빈헤어","tel":"","addr":"경기도 의정부시 용현동 230-5번지 1층 102호","category":"보건위생 - 미용원"},{"name":"다온스킨","tel":"","addr":"경기도 의정부시 용현동 230-5번지 1층 101호","category":"보건위생 - 피부미용실"},{"name":"핫플레이스(hot place)","tel":"031-848-3089","addr":"경기도 의정부시 용현동 230-5번지 1층 3호","category":"보건위생 - 피부미용실"}]},{"lat":"37.732487181","long":"127.08573895","items":[{"name":"그린피스","tel":"031-840-8614","addr":"경기도 의정부시 용현동 231-5번지","category":"일반휴게음식 - 서양음식"},{"name":"미니스톱 의정부용현점","tel":"031-1577-9621","addr":"경기도 의정부시 용현동 231-5번지","category":"유통업 영리 - 편 의 점"},{"name":"비어스타운","tel":"031-847-9496","addr":"경기도 의정부시 용현동 231-5번지 1층","category":"일반휴게음식 - 일반한식"},{"name":"수경미용실","tel":"031-845-0969","addr":"경기도 의정부시 용현동 231-5번지 지상1층","category":"보건위생 - 미용원"},{"name":"아딸 용현2호점","tel":"031-847-5889","addr":"경기도 의정부시 용현동 231-5번지","category":"일반휴게음식 - 스넥"},{"name":"용현철물","tel":"031-845-6685","addr":"경기도 의정부시 용현동 231-5번지","category":"기타 - 기계공구"},{"name":"우리식당","tel":"031-847-7344","addr":"경기도 의정부시 용현동 231-5번지 외2필지","category":"일반휴게음식 - 일반한식"},{"name":"잘빠진쭈꾸미","tel":"031-844-3392","addr":"경기도 의정부시 용현동 231-5번지 외1필지","category":"일반휴게음식 - 일반한식"},{"name":"좋은옷","tel":"","addr":"경기도 의정부시 용현동 231-5번지 외2필지 1동","category":"의류 - 정장"},{"name":"탑(TOP)","tel":"070-8271-7665","addr":"경기도 의정부시 용현동 231-5번지 외2필지 1층 8호","category":"의류 - 정장"}]},{"lat":"37.735345982","long":"127.0817035","items":[{"name":"금강산감자탕","tel":"031-853-7770","addr":"경기도 의정부시 용현동 268-35번지","category":"일반휴게음식 - 일반한식"},{"name":"스마일당구장","tel":"","addr":"경기도 의정부시 용현동 268-35번지 2층","category":"레저업소 - 당 구 장"}]},{"lat":"37.735294208","long":"127.07820934","items":[{"name":"기성기와","tel":"070-7420-1432","addr":"경기도 의정부시 용현동 404-29번지","category":"용역 서비스 - 기타용역서비스"}]},{"lat":"37.73982342","long":"127.0821734","items":[{"name":"길유통","tel":"031-852-0903","addr":"경기도 의정부시 용현동 290-1번지 신도10차파크힐타운 106동 1702호","category":"음료식품 - 미곡상"}]},{"lat":"37.733739319","long":"127.08601261","items":[{"name":"김만길food","tel":"031-852-0202","addr":"경기도 의정부시 용현동 39-8번지 지원파크빌4동AB01호","category":"음료식품 - 기타음료식품"},{"name":"허가네생고기","tel":"031-848-0776","addr":"경기도 의정부시 용현동 39-8번지 지원파크빌 4동 AB01호","category":"일반휴게음식 - 일반한식"}]},{"lat":"37.737288555","long":"127.08676533","items":[{"name":"김밥나라(용현2호점)","tel":"031-853-7737","addr":"경기도 의정부시 용현동 8-1번지 외1필지송산빌딩 106호","category":"일반휴게음식 - 일반한식"},{"name":"꿀먹은닭강정 용현점","tel":"031-852-8880","addr":"경기도 의정부시 용현동 8-1번지 송산빌딩 103호","category":"일반휴게음식 - 일반한식"},{"name":"떡깨비 용현점","tel":"031-852-1939","addr":"경기도 의정부시 용현동 8-1번지 송산빌딩 1층 108호","category":"일반휴게음식 - 스넥"},{"name":"베테랑 남성컷트전문점","tel":"070-8124-4544","addr":"경기도 의정부시 용현동 8-1번지 송산빌딩 1층 104호","category":"보건위생 - 미용원"},{"name":"본죽용현점","tel":"031-851-1788","addr":"경기도 의정부시 용현동 8-1번지 송산빌딩 102호","category":"일반휴게음식 - 일반한식"},{"name":"송산치과의원","tel":"031-853-8034","addr":"경기도 의정부시 용현동 8-1번지 송산빌딩 4층","category":"의원 - 치과의원"},{"name":"잉글리쉬프렌즈동부학원","tel":"031-852-1616","addr":"경기도 의정부시 용현동 8-1번지 외1필지송산빌딩 4층","category":"학원 - 외국어학원"},{"name":"지멘토학원","tel":"031-853-0553","addr":"경기도 의정부시 용현동 8-1번지 송산빌딩 5층","category":"회원제형태 - 학원"},{"name":"커피데이","tel":"031-853-5133","addr":"경기도 의정부시 용현동 8-1번지 송산빌딩 1층 101호","category":"일반휴게음식 - 서양음식"},{"name":"토즈멤버십라운지 의정부3센터","tel":"031-853-7425","addr":"경기도 의정부시 용현동 8-1번지 송산빌딩 2층","category":"용역 서비스 - 사무서비스"},{"name":"토즈스터디센터 의정부3독서실","tel":"031-853-7425","addr":"경기도 의정부시 용현동 8-1번지 송산빌딩 2층","category":"학원 - 독서실"},{"name":"황금시루","tel":"031-853-9688","addr":"경기도 의정부시 용현동 8-1번지 외1필지송산빌딩 107호","category":"음료식품 - 제과점"}]},{"lat":"37.732181245","long":"127.08518275","items":[{"name":"김성수치과의원","tel":"031-856-2125","addr":"경기도 의정부시 용현동 230-17번지 4층","category":"의원 - 치과의원"},{"name":"나그네","tel":"031-821-3960","addr":"경기도 의정부시 용현동 230-17번지 지하1층","category":"일반휴게음식 - 주점"},{"name":"시대 당구클럽","tel":"031-841-3949","addr":"경기도 의정부시 용현동 230-17번지 5층","category":"레저업소 - 당 구 장"},{"name":"크린토피아(용현 현대점)","tel":"031-838-1199","addr":"경기도 의정부시 용현동 230-17번지 현대빌딩 1층","category":"수리서비스 - 세탁소"}]},{"lat":"37.734907345","long":"127.07734677","items":[{"name":"김연종내과","tel":"031-851-9860","addr":"경기도 의정부시 용현동 402-9번지","category":"의원 - 의원"}]},{"lat":"37.727155996","long":"127.08212586","items":[{"name":"김재규우리떡연구소","tel":"031-842-8008","addr":"경기도 의정부시 용현동 130-1번지","category":"음료식품 - 제과점"}]},{"lat":"37.73256977","long":"127.08357233","items":[{"name":"김희영의 영등포우동 용현점","tel":"031-821-0800","addr":"경기도 의정부시 용현동 236-8번지 1층 10호","category":"일반휴게음식 - 일반한식"},{"name":"비비큐","tel":"031-844-9282","addr":"경기도 의정부시 용현동 236-8번지 1층 일부","category":"일반휴게음식 - 스넥"},{"name":"에스케이와이독서실","tel":"031-845-6089","addr":"경기도 의정부시 용현동 236-8번지 4층","category":"학원 - 독서실"},{"name":"에스크스킨앤스파","tel":"031-844-4120","addr":"경기도 의정부시 용현동 236-8번지 2층 지상","category":"보건위생 - 피부미용실"},{"name":"용현골생삼겹살","tel":"031-824-9106","addr":"경기도 의정부시 용현동 236-8번지","category":"일반휴게음식 - 일반한식"},{"name":"홍쌤학원","tel":"031-847-3150","addr":"경기도 의정부시 용현동 236-8번지 3층","category":"학원 - 보습학원"}]},{"lat":"37.75078819","long":"127.08195816","items":[{"name":"깨사랑","tel":"...-1588-8678","addr":"경기도 의정부시 용현동 544-4번지 용현빌딩 107호","category":"음료식품 - 기타음료식품"},{"name":"다니엘캠퍼스학원","tel":"031-877-6789","addr":"경기도 의정부시 용현동 544-4번지 용현빌딩 3층","category":"학원 - 보습학원"},{"name":"둥이포차","tel":"031-852-7098","addr":"경기도 의정부시 용현동 544-4번지 용현빌딩 1층 101,102호","category":"일반휴게음식 - 주점"},{"name":"드림유아스포츠","tel":"031-827-7227","addr":"경기도 의정부시 용현동 544-4번지 용현빌딩 207호","category":"학원 - 기타 교육기관"},{"name":"베스트광고기획","tel":"031-853-1935","addr":"경기도 의정부시 용현동 544-4번지 용현빌딩 104호","category":"용역 서비스 - 종합용역"},{"name":"엠에스 노래연습장","tel":"031-853-4771","addr":"경기도 의정부시 용현동 544-4번지 용현빌딩 201동 204호","category":"레저업소 - 노 래 방"},{"name":"제이에스팜(JS Pharm)","tel":"031-823-8806","addr":"경기도 의정부시 용현동 544-4번지 용현빌딩 205호","category":"보건위생 - 의료용품"},{"name":"춘자PC방","tel":"070-8816-1183","addr":"경기도 의정부시 용현동 544-4번지 용현빌딩 208,209호","category":"레저업소 - 기타레져업소"},{"name":"카페콤마","tel":"031-852-8961","addr":"경기도 의정부시 용현동 544-4번지 용현빌딩 106호","category":"일반휴게음식 - 서양음식"}]},{"lat":"37.733873714","long":"127.08706778","items":[{"name":"꿀송이 닭강정","tel":"","addr":"경기도 의정부시 용현동 38번지 용현동상가 2동 104호","category":"일반휴게음식 - 스넥"}]},{"lat":"37.734874779","long":"127.08565086","items":[{"name":"꿀잼과일","tel":"031-852-5070","addr":"경기도 의정부시 용현동 253-3번지 102호","category":"음료식품 - 농·축·수산품"},{"name":"냠냠키친","tel":"031-894-7553","addr":"경기도 의정부시 용현동 253-3번지 1층 103호","category":"일반휴게음식 - 일반한식"},{"name":"대치동 아이들","tel":"031-851-9141","addr":"경기도 의정부시 용현동 253-3번지 2층","category":"학원 - 보습학원"},{"name":"리앤주","tel":"","addr":"경기도 의정부시 용현동 253-3번지 1층 1호","category":"신변잡화 - 액세서리"}]},{"lat":"37.737319589","long":"127.08093414","items":[{"name":"나는 카페 의정부","tel":"031-852-9203","addr":"경기도 의정부시 용현동 267-8번지 1층","category":"일반휴게음식 - 서양음식"}]},{"lat":"37.735374902","long":"127.07882202","items":[{"name":"나는개집사다.","tel":"070-7452-4956","addr":"경기도 의정부시 용현동 404-40번지","category":"문화.취미 - 애완동물"},{"name":"블랙가이","tel":"031-841-3552","addr":"경기도 의정부시 용현동 404-40번지 지하1층","category":"보건위생 - 미용원"},{"name":"빨강망토 하하","tel":"070-8666-4178","addr":"경기도 의정부시 용현동 404-40번지","category":"의류 - 정장"},{"name":"운동화손세탁이불","tel":"031-841-8274","addr":"경기도 의정부시 용현동 404-40번지 지층 101호","category":"수리서비스 - 세탁소"},{"name":"지지미술술","tel":"","addr":"경기도 의정부시 용현동 404-40번지 지하1층","category":"일반휴게음식 - 일반한식"}]},{"lat":"37.738685687","long":"127.08584796","items":[{"name":"나라네일(Nara Nail)","tel":"031-1111-1111","addr":"경기도 의정부시 용현동 311-9번지 1,2층","category":"보건위생 - 피부미용실"}]},{"lat":"37.731847094","long":"127.08631678","items":[{"name":"나루터","tel":"031-844-4163","addr":"경기도 의정부시 용현동 56-57번지","category":"일반휴게음식 - 일반한식"},{"name":"바다향기","tel":"031-848-4188","addr":"경기도 의정부시 용현동 56-57번지","category":"일반휴게음식 - 일식·회집"}]},{"lat":"37.730902391","long":"127.08445533","items":[{"name":"나르빅코리아","tel":"070-4229-8899","addr":"경기도 의정부시 용현동 189-1번지 3층","category":"음료식품 - 기타음료식품"},{"name":"온유드림","tel":"","addr":"경기도 의정부시 용현동 189-1번지 2층","category":"의류 - 정장"}]},{"lat":"37.74010033","long":"127.08564533","items":[{"name":"나리따","tel":"031-853-4693","addr":"경기도 의정부시 용현동 313-3번지","category":"일반휴게음식 - 일식·회집"}]},{"lat":"37.731567814","long":"127.08629378","items":[{"name":"나이스","tel":"031-571-7819","addr":"경기도 의정부시 용현동 56-48번지 1층","category":"주방용구 - 정수기"}]},{"lat":"37.734626859","long":"127.07920697","items":[{"name":"나이스당구장","tel":"03-111-1111","addr":"경기도 의정부시 용현동 407-4번지 2층","category":"레저업소 - 당 구 장"},{"name":"버블캐슬","tel":"031-852-5800","addr":"경기도 의정부시 용현동 407-4번지","category":"일반휴게음식 - 주점"},{"name":"쎄쎄","tel":"031-853-1128","addr":"경기도 의정부시 용현동 407-4번지 1층","category":"일반휴게음식 - 일반한식"},{"name":"장수식당","tel":"032-851-4527","addr":"경기도 의정부시 용현동 407-4번지","category":"일반휴게음식 - 일반한식"}]},{"lat":"37.732460684","long":"127.08497887","items":[{"name":"낙원떡집","tel":"031-848-9510","addr":"경기도 의정부시 용현동 231번지 1층","category":"음료식품 - 제과점"},{"name":"농가축산물도매센타","tel":"031-847-6987","addr":"경기도 의정부시 용현동 231번지","category":"음료식품 - 정육점"},{"name":"밥맛나는세상(용현점)","tel":"031-846-9777","addr":"경기도 의정부시 용현동 231번지 1층","category":"일반휴게음식 - 스넥"},{"name":"오꾸꼬 용현점","tel":"031-841-9495","addr":"경기도 의정부시 용현동 231번지 1층","category":"일반휴게음식 - 스넥"},{"name":"우리옷방","tel":"031-843-7686","addr":"경기도 의정부시 용현동 231번지","category":"의류 - 정장"},{"name":"정(  )스시","tel":"031-848-2004","addr":"경기도 의정부시 용현동 231번지","category":"일반휴게음식 - 일식·회집"}]},{"lat":"37.731848026","long":"127.08498954","items":[{"name":"남자만들기","tel":"031-842-1090","addr":"경기도 의정부시 용현동 230-2번지 호정빌딩 1층","category":"보건위생 - 미용원"},{"name":"샤슬릭","tel":"031-841-4485","addr":"경기도 의정부시 용현동 230-2번지","category":"일반휴게음식 - 주점"},{"name":"샤슬릭아지트","tel":"031-841-4454","addr":"경기도 의정부시 용현동 230-2번지 2층 지상","category":"일반휴게음식 - 스넥"},{"name":"참조은크린","tel":"","addr":"경기도 의정부시 용현동 230-2번지 3층 일부","category":"용역 서비스 - 종합용역"}]},{"lat":"37.737045184","long":"127.08692389","items":[{"name":"네박자","tel":"031-852-6669","addr":"경기도 의정부시 용현동 6번지 창마빌딩 1층","category":"일반휴게음식 - 일반한식"},{"name":"의정부발달지원센터","tel":"070-8952-4090","addr":"경기도 의정부시 용현동 6번지 401호","category":"보건위생 - 기타대인서비스"},{"name":"참우리한의원","tel":"031-852-8272","addr":"경기도 의정부시 용현동 6번지 2층 201호","category":"의원 - 한의원"},{"name":"커피마마 의정부송산역점","tel":"031-851-9329","addr":"경기도 의정부시 용현동 6번지 102호","category":"일반휴게음식 - 서양음식"}]},{"lat":"37.730875245","long":"127.08462546","items":[{"name":"네파의정부용현상설점","tel":"031-821-2882","addr":"경기도 의정부시 용현동 223-7번지","category":"레져용품 - 스포츠·레져용품"},{"name":"윤대감네갈비살전문점","tel":"031-821-8787","addr":"경기도 의정부시 용현동 223-7번지","category":"일반휴게음식 - 일반한식"}]},{"lat":"37.726849487","long":"127.08239777","items":[{"name":"노블레스 요양원","tel":"031-878-9988","addr":"경기도 의정부시 용현동 130-2번지 의정부우편집중국","category":"기타의료기관 - 기타의료기관 및 기타"}]},{"lat":"37.734568977","long":"127.08490179","items":[{"name":"늘푸른요양원","tel":"031-836-7000","addr":"경기도 의정부시 용현동 252-1번지","category":"기타의료기관 - 기타의료기관 및 기타"}]},{"lat":"37.735123186","long":"127.07795959","items":[{"name":"다마시떼","tel":"031-847-4275","addr":"경기도 의정부시 용현동 404-34번지","category":"일반휴게음식 - 일반한식"},{"name":"한국일보의정부용현지국","tel":"031-846-1641","addr":"경기도 의정부시 용현동 404-34번지","category":"서적문구 - 정기간행물"}]},{"lat":"37.732740225","long":"127.08462751","items":[{"name":"다마요","tel":"031-846-7666","addr":"경기도 의정부시 용현동 235-8번지 용현프라자 지하2층","category":"유통업 영리 - 슈퍼마켓"},{"name":"두손전기통신공사","tel":"031-844-5504","addr":"경기도 의정부시 용현동 235-8번지 용현프라자 1층 104호","category":"용역 서비스 - 기타용역서비스"},{"name":"용현사우나","tel":"031-856-1900","addr":"경기도 의정부시 용현동 235-8번지 5,6층","category":"보건위생 - 사우나"}]},{"lat":"37.743849267","long":"127.08426532","items":[{"name":"다빈 치유상담센터","tel":"","addr":"경기도 의정부시 용현동 526-2번지 대기빌딩 3층","category":"보건위생 - 기타대인서비스"},{"name":"대기문고","tel":"031-853-2500","addr":"경기도 의정부시 용현동 526-2번지 대기빌딩 2층","category":"서적문구 - 일반서적"},{"name":"대기문고","tel":"031-853-2500","addr":"경기도 의정부시 용현동 526-2번지 대기빌딩 2층","category":"서적문구 - 일반서적"}]},{"lat":"37.736126104","long":"127.08707033","items":[{"name":"다사랑","tel":"031-852-3350","addr":"경기도 의정부시 용현동 30-6번지 1층 지상 1층","category":"일반휴게음식 - 일반한식"}]},{"lat":"37.734790012","long":"127.07767564","items":[{"name":"다온음악학원","tel":"","addr":"경기도 의정부시 용현동 405-11번지 3층","category":"학원 - 예·체능계학원"},{"name":"하이라이트","tel":"031-856-7273","addr":"경기도 의정부시 용현동 405-11번지 1층","category":"건축자재 - 조명기구"}]},{"lat":"37.727236499","long":"127.08298803","items":[{"name":"다우리실버케어","tel":"031-826-0048","addr":"경기도 의정부시 용현동 145-13번지 1층","category":"보건위생 - 의료용품"},{"name":"다우리실버케어1호점","tel":"031-826-0048","addr":"경기도 의정부시 용현동 145-13번지 1층","category":"보건위생 - 의료용품"}]},{"lat":"37.727380676","long":"127.08295416","items":[{"name":"다우리실버케어 양주지점","tel":"031-826-0048","addr":"경기도 의정부시 용현동 145-19번지","category":"신변잡화 - 기타잡화"}]},{"lat":"37.750680538","long":"127.08126588","items":[{"name":"단비교육","tel":"031-851-9042","addr":"경기도 의정부시 용현동 545-1번지 한성빌딩 401호","category":"회원제형태 - 서적"},{"name":"미애부 의정부 신곡점","tel":"","addr":"경기도 의정부시 용현동 545-1번지 1층 104호","category":"보건위생 - 화장품"},{"name":"정주식당","tel":"031-853-7266","addr":"경기도 의정부시 용현동 545-1","category":"일반휴게음식 - 일반한식"},{"name":"조작가의 디자인 은공방516","tel":"031-0000-0000","addr":"경기도 의정부시 용현동 545-1번지 1층 104호","category":"신변잡화 - 액세서리"}]},{"lat":"37.737073175","long":"127.08556255","items":[{"name":"달구지막창","tel":"031-846-9245","addr":"경기도 의정부시 용현동 277-7번지 1층 지상","category":"일반휴게음식 - 일반한식"},{"name":"마고","tel":"031-851-4813","addr":"경기도 의정부시 용현동 277-7번지","category":"일반휴게음식 - 일반한식"}]},{"lat":"37.732208028","long":"127.08553445","items":[{"name":"당구의신","tel":"031-874-3949","addr":"경기도 의정부시 용현동 56-5번지 4층","category":"레저업소 - 당 구 장"},{"name":"왕호프","tel":"031-838-5981","addr":"경기도 의정부시 용현동 56-5번지 1층 일부","category":"일반휴게음식 - 주점"},{"name":"제이에스 (JS)노래연습장","tel":"031-841-5473","addr":"경기도 의정부시 용현동 56-5번지 지층","category":"레저업소 - 노 래 방"},{"name":"종합화장품","tel":"031-845-6686","addr":"경기도 의정부시 용현동 56-5번지 평원빌딩 1층 우측 일부","category":"보건위생 - 화장품"},{"name":"투데이","tel":"031-844-4962","addr":"경기도 의정부시 용현동 56-5번지","category":"일반휴게음식 - 서양음식"},{"name":"피자스쿨 용현점","tel":"031-841-5488","addr":"경기도 의정부시 용현동 56-5번지 1층","category":"일반휴게음식 - 일반한식"}]},{"lat":"37.73507146","long":"127.07420452","items":[{"name":"대가수산","tel":"031-848-9192","addr":"경기도 의정부시 용현동 399-34번지","category":"음료식품 - 농·축·수산품"},{"name":"만가대 힘쎈장어","tel":"031-747-8874","addr":"경기도 의정부시 용현동 399-34번지 1층","category":"일반휴게음식 - 일반한식"}]},{"lat":"37.73656706","long":"127.08778554","items":[{"name":"대광약국","tel":"031-877-7461","addr":"경기도 의정부시 용현동 556-1번지","category":"약국 - 약국"},{"name":"영심이살롱곰곰이호텔","tel":"031-852-0401","addr":"경기도 의정부시 용현동 556-1번지","category":"문화.취미 - 애완동물"},{"name":"주주(플라워카페)flower cafe","tel":"031-853-9258","addr":"경기도 의정부시 용현동 556-1번지 1층","category":"문화.취미 - 화원"},{"name":"카페캐슬","tel":"031-875-2666","addr":"경기도 의정부시 용현동 556-1번지 1층","category":"일반휴게음식 - 서양음식"},{"name":"파세코씽크","tel":"031-851-2589","addr":"경기도 의정부시 용현동 556-1번지","category":"주방용구 - 주방용구"},{"name":"현대전기공구철물(블랙볼코리아)","tel":"031-852-6626","addr":"경기도 의정부시 용현동 556-1번지","category":"기타 - 기계공구"}]},{"lat":"37.735323776","long":"127.07412535","items":[{"name":"대동종합목재","tel":"031-844-0927","addr":"경기도 의정부시 용현동 399-3번지","category":"건축자재 - 기타건축자재"},{"name":"타이어존","tel":"031-826-3057","addr":"경기도 의정부시 용현동 399-3번지","category":"자동차정비 유지 - 자동차시트·타이어"}]},{"lat":"37.737630383","long":"127.08751448","items":[{"name":"대륜이엔에스의정부2고객센터","tel":"031-851-6242","addr":"경기도 의정부시 용현동 554-5번지","category":"용역 서비스 - 종합용역"},{"name":"이디야 의정부용현점","tel":"031-856-2224","addr":"경기도 의정부시 용현동 554-5번지 미림빌딩 1층","category":"일반휴게음식 - 서양음식"},{"name":"캠퍼스안경","tel":"031-852-6260","addr":"경기도 의정부시 용현동 554-5번지","category":"보건위생 - 안경"},{"name":"클라비어음악학원","tel":"031-852-8852","addr":"경기도 의정부시 용현동 554-5번지 미림빌딩 3층","category":"학원 - 예·체능계학원"},{"name":"킹스포인트학원","tel":"031-852-7979","addr":"경기도 의정부시 용현동 554-5번지","category":"회원제형태 - 학원"},{"name":"희예해동검도","tel":"031-852-1788","addr":"경기도 의정부시 용현동 554-5번지 미림빌딩 4층","category":"학원 - 예·체능계학원"}]},{"lat":"37.737700345","long":"127.07729284","items":[{"name":"대림산지유통","tel":"031-846-4058","addr":"경기도 의정부시 용현동 390번지 세아용현아파트 101동 1305호","category":"음료식품 - 농·축·수산품"}]},{"lat":"37.736289669","long":"127.08509654","items":[{"name":"대성건재","tel":"031-851-2032","addr":"경기도 의정부시 용현동 275-8번지","category":"건축자재 - 건축용 요업제품"}]},{"lat":"37.736183007","long":"127.08298633","items":[{"name":"대성광고기획","tel":"031-826-1032","addr":"경기도 의정부시 용현동 270-34번지","category":"건축자재 - 인테리어전문"}]},{"lat":"37.735791442","long":"127.07548715","items":[{"name":"대영산업","tel":"031-847-7800","addr":"경기도 의정부시 용현동 399-20번지","category":"건축자재 - 보일러·펌프·샷시"}]},{"lat":"37.735651327","long":"127.08315592","items":[{"name":"대호상사","tel":"031-851-1146","addr":"경기도 의정부시 용현동 270-20번지","category":"건축자재 - 페인트"},{"name":"모던AV","tel":"070-7522-2106","addr":"경기도 의정부시 용현동 270-20번지","category":"전기제품 - 가전제품"},{"name":"미스터정(Mr.Choung)","tel":"","addr":"경기도 의정부시 용현동 270-20번지","category":"음료식품 - 기타음료식품"},{"name":"용현카피","tel":"031-851-4858","addr":"경기도 의정부시 용현동 270-20번지","category":"서적문구 - 문구용품"}]},{"lat":"37.73938218","long":"127.08183257","items":[{"name":"대흥(DH)농산","tel":"031-1111-1111","addr":"경기도 의정부시 용현동 290-1번지 신도10차파크힐타운 105동 1805호","category":"음료식품 - 농·축·수산품"},{"name":"신우 워터피아","tel":"","addr":"경기도 의정부시 용현동 290-1번지 신도10차파크힐타운 105동 1705호","category":"수리서비스 - 가정용품수리"},{"name":"플러스냉난방","tel":"031-823-1921","addr":"경기도 의정부시 용현동 290-1번지 신도10차파크힐타운 105동 705호","category":"용역 서비스 - 기타용역서비스"}]},{"lat":"37.732016665","long":"127.08856308","items":[{"name":"더스토리","tel":"031-853-5350","addr":"경기도 의정부시 용현동 46-3번지 외3필지","category":"일반휴게음식 - 서양음식"}]},{"lat":"37.725013079","long":"127.08007051","items":[{"name":"덕송농원","tel":"031-847-9280","addr":"경기도 의정부시 용현동 126-18번지,외3필지","category":"음료식품 - 농·축·수산품"}]},{"lat":"37.734598596","long":"127.08109011","items":[{"name":"델리통신","tel":"031-842-7916","addr":"경기도 의정부시 용현동 264-10번지 주공 상가 106호","category":"사무통신 - 통신기기"},{"name":"용현식당","tel":"031-853-2357","addr":"경기도 의정부시 용현동 264-10번지","category":"일반휴게음식 - 일반한식"},{"name":"컴OK","tel":"031-851-5533","addr":"경기도 의정부시 용현동 264-10번지 용현주공 상가","category":"사무통신 - 컴퓨터"}]},{"lat":"37.736321566","long":"127.07779063","items":[{"name":"도니돼지","tel":"","addr":"경기도 의정부시 용현동 393-6번지 1층","category":"음료식품 - 정육점"}]},{"lat":"37.736150564","long":"127.07750684","items":[{"name":"도야팡","tel":"","addr":"경기도 의정부시 용현동 393-14번지 1층","category":"음료식품 - 제과점"},{"name":"잘생긴 정육점","tel":"031-823-5852","addr":"경기도 의정부시 용현동 393-14번지","category":"음료식품 - 정육점"}]},{"lat":"37.747851451","long":"127.08139906","items":[{"name":"독수리체육관","tel":"031-851-6565","addr":"경기도 의정부시 용현동 547-13번지 3층","category":"회원제형태 - 학원"},{"name":"서민성치과","tel":"031-853-0028","addr":"경기도 의정부시 용현동 547-13번지","category":"의원 - 치과의원"},{"name":"송산떡집","tel":"031-852-3506","addr":"경기도 의정부시 용현동 547-13번지","category":"음료식품 - 제과점"},{"name":"신화휘트니스","tel":"031-851-2113","addr":"경기도 의정부시 용현동 547-13번지","category":"회원제형태 - 레져업소"}]},{"lat":"37.73784863","long":"127.08465582","items":[{"name":"동일종합가구","tel":"031-852-3007","addr":"경기도 의정부시 용현동 278-5번지","category":"가구 - 일반가구"}]},{"lat":"37.736847601","long":"127.08603877","items":[{"name":"드림당구장","tel":"070-4530-2324","addr":"경기도 의정부시 용현동 10-3번지 비콘드림시티오피스텔 204,205,206호","category":"레저업소 - 당 구 장"},{"name":"드림당구장","tel":"","addr":"경기도 의정부시 용현동 10-3번지 203,204,205,206호","category":"레저업소 - 당 구 장"},{"name":"란뷰티","tel":"031-848-9018","addr":"경기도 의정부시 용현동 10-3번지 비콘드림시티오피스텔 419호","category":"보건위생 - 화장품"},{"name":"뮤앤무우쿨렐레","tel":"031-931-2025","addr":"경기도 의정부시 용현동 10-3번지 비큰시티 1315호","category":"레져용품 - 악기점"},{"name":"미래에어컨","tel":"","addr":"경기도 의정부시 용현동 10-3번지 비콘드림시티오피스텔 1311호","category":"용역 서비스 - 기타용역서비스"},{"name":"반쪽","tel":"031-851-9422","addr":"경기도 의정부시 용현동 10-3번지 비콘드림시티오피스텔 1층 110호,111호","category":"일반휴게음식 - 일반한식"},{"name":"비콘호프","tel":"","addr":"경기도 의정부시 용현동 10-3번지 비콘드림시티오피스텔 1층 102호","category":"일반휴게음식 - 주점"},{"name":"술친구포차","tel":"031-572-9833","addr":"경기도 의정부시 용현동 10-3번지 비콘드림시티오피스텔 116호","category":"일반휴게음식 - 주점"},{"name":"쉬즈(she's)뷰티","tel":"031-853-7520","addr":"경기도 의정부시 용현동 10-3번지 비콘드림시티오피스텔 1층 104호","category":"보건위생 - 미용원"},{"name":"승우시스템","tel":"031-851-3316","addr":"경기도 의정부시 용현동 10-3번지 비콘드림시티오피스텔 1109호","category":"수리서비스 - 사무·통신기기수리"},{"name":"양꼬치굽는날","tel":"031-853-4916","addr":"경기도 의정부시 용현동 10-3번지 비콘드림시티오피스텔 1층 113,114,115호","category":"일반휴게음식 - 중국식"},{"name":"엑스오엑스오하우스","tel":"031-8033-1280","addr":"경기도 의정부시 용현동 10-3번지 비콘드림시티오피스텔 203호","category":"신변잡화 - 제화"},{"name":"여행자의집밥","tel":"","addr":"경기도 의정부시 용현동 10-3번지 비콘드림시티오피스텔 103호","category":"일반휴게음식 - 일반한식"},{"name":"오늘을즐겨라","tel":"031-889-2183","addr":"경기도 의정부시 용현동 10-3번지 드림오피스텔 110동 111호","category":"일반휴게음식 - 서양음식"},{"name":"와니 펫 싸롱","tel":"070-8200-9567","addr":"경기도 의정부시 용현동 10-3번지 비콘드림시티오피스텔 112호","category":"문화.취미 - 애완동물"},{"name":"월영솔루션","tel":"031-840-4000","addr":"경기도 의정부시 용현동 10-3번지 비콘드림시티 308호","category":"사무통신 - 사무용 OA기기"},{"name":"유진공조","tel":"","addr":"경기도 의정부시 용현동 10-3번지 비콘드림시티오피스텔 1313호","category":"전기제품 - 냉열기기"},{"name":"이진희 피부샵","tel":"031-875-5158","addr":"경기도 의정부시 용현동 10-3번지 비콘드림시티오피스텔 11층 1109호","category":"보건위생 - 피부미용실"},{"name":"주식회사 북앤리브","tel":"031-827-3375","addr":"경기도 의정부시 용현동 10-3번지 비콘드림시티오피스텔 112호","category":"회원제형태 - 서적"},{"name":"주식회사 윈테크산업","tel":"043-294-2220","addr":"경기도 의정부시 용현동 10-3번지 비콘드림시티오피스텔 9층 901호","category":"용역 서비스 - 기타용역서비스"},{"name":"코리안바베큐","tel":"031-851-9192","addr":"경기도 의정부시 용현동 10-3번지 비콘드림시티오피스텔 101호","category":"일반휴게음식 - 스넥"},{"name":"하나웹","tel":"","addr":"경기도 의정부시 용현동 10-3번지 비콘드림시티오피스텔 6층 606호","category":"용역 서비스 - 종합용역"},{"name":"홀스타인코리아","tel":"070-7795-1612","addr":"경기도 의정부시 용현동 10-3번지 비콘드림시티 1304호","category":"문화.취미 - 애완동물"}]},{"lat":"37.750176282","long":"127.08084552","items":[{"name":"드림독서실","tel":"031-852-3555","addr":"경기도 의정부시 용현동 545-6번지 송현제일빌딩 4층","category":"학원 - 독서실"},{"name":"아름요양보호사교육원","tel":"031-851-4132","addr":"경기도 의정부시 용현동 545-6번지 송현제일빌딩 3층","category":"학원 - 기능학원"}]},{"lat":"37.74029275","long":"127.08092592","items":[{"name":"드림스포츠","tel":"031-873-6644","addr":"경기도 의정부시 용현동 530-6번지 1층","category":"레져용품 - 스포츠·레져용품"}]},{"lat":"37.732597216","long":"127.08295978","items":[{"name":"드림이엔지(ENG)","tel":"031-848-4567","addr":"경기도 의정부시 용현동 237-5번지 1층","category":"건축자재 - 인테리어전문"},{"name":"오렌지","tel":"070-8958-7129","addr":"경기도 의정부시 용현동 237-5","category":"의류 - 정장"},{"name":"프리티헤어샵","tel":"031-841-2078","addr":"경기도 의정부시 용현동 237-5","category":"보건위생 - 미용원"},{"name":"한구루CNC","tel":"","addr":"경기도 의정부시 용현동 237-5번지","category":"용역 서비스 - 종합용역"}]},{"lat":"37.739329079","long":"127.08039169","items":[{"name":"드림정보통신","tel":"031-851-8666","addr":"경기도 의정부시 용현동 290-1번지 신도10차파크힐타운 102동 1301호","category":"회원제형태 - 기타1"}]},{"lat":"37.742741131","long":"127.08420737","items":[{"name":"디씨 90","tel":"031-851-9002","addr":"경기도 의정부시 용현동 527-1번지 롯데마트의정부점 1층","category":"보건위생 - 안경"},{"name":"무지개온누리약국","tel":"070-4158-1273","addr":"경기도 의정부시 용현동 527-1번지 롯데마트 3층","category":"약국 - 약국"},{"name":"범우플라워","tel":"031-851-5887","addr":"경기도 의정부시 용현동 527-1번지 롯데마트 3층","category":"문화.취미 - 화원"},{"name":"베누스","tel":"031-852-9009","addr":"경기도 의정부시 용현동 527-1번지 3층 롯데마트의정부점","category":"보건위생 - 피부미용실"},{"name":"스마일100치과","tel":"031-829-7575","addr":"경기도 의정부시 용현동 527-1번지 3층","category":"의원 - 치과의원"},{"name":"스팀카워시","tel":"031-852-9002","addr":"경기도 의정부시 용현동 527-1번지 롯데마트의정부점지상 3층 스팀세차코너","category":"자동차정비 유지 - 세차장"},{"name":"연 헤어월드","tel":"031-853-2344","addr":"경기도 의정부시 용현동 527-1번지 롯데마트 3층","category":"보건위생 - 미용원"},{"name":"오토오아시스 롯데마트의정부점","tel":"02-2209-7228","addr":"경기도 의정부시 용현동 527-1번지 롯데마트의정부점지상3층경정비코너","category":"자동차정비 유지 - 자동차정비"}]},{"lat":"37.745040843","long":"127.08084014","items":[{"name":"디알에스테크 (주)","tel":"","addr":"경기도 의정부시 용현동 520-3번지","category":"용역 서비스 - 기타용역서비스"},{"name":"오토앤아트","tel":"031-853-9532","addr":"경기도 의정부시 용현동 520-3번지","category":"자동차정비 유지 - 자동차부품"},{"name":"원아크릴","tel":"031-855-8780","addr":"경기도 의정부시 용현동 520-3번지","category":"건축자재 - 기타건축자재"}]},{"lat":"37.736630777","long":"127.08687804","items":[{"name":"딸부자빈대떡","tel":"031-852-7704","addr":"경기도 의정부시 용현동 30-25번지 1층","category":"일반휴게음식 - 일반한식"},{"name":"페리카나 용현점","tel":"031-851-6464","addr":"경기도 의정부시 용현동 30-25번지 1층","category":"일반휴게음식 - 스넥"}]},{"lat":"37.750905542","long":"127.08161787","items":[{"name":"땡큐2노래연습장","tel":"031-853-2462","addr":"경기도 의정부시 용현동 544-3번지 계림프라자 502호","category":"레저업소 - 노 래 방"},{"name":"림골프","tel":"031-851-2833","addr":"경기도 의정부시 용현동 544-3번지 계림프라자 4층","category":"레저업소 - 골프연습장"},{"name":"믿음상조장례토탈서비스","tel":"031-852-1668","addr":"경기도 의정부시 용현동 544-3번지","category":"용역 서비스 - 가례서비스업"},{"name":"뷰티멤버스","tel":"","addr":"경기도 의정부시 용현동 544-3번지 계림프라자 1층 104호","category":"보건위생 - 미용재료"},{"name":"홀리스윗","tel":"","addr":"경기도 의정부시 용현동 544-3번지 계림프라자 1층","category":"음료식품 - 제과점"}]},{"lat":"37.736263105","long":"127.08442718","items":[{"name":"라구나","tel":"031-846-9242","addr":"경기도 의정부시 용현동 275-16번지 지상2층","category":"일반휴게음식 - 주점"},{"name":"써니2","tel":"031-853-3419","addr":"경기도 의정부시 용현동 275-16번지","category":"의류 - 정장"}]},{"lat":"37.736430118","long":"127.07709871","items":[{"name":"라씨네 불곱창","tel":"031-846-9959","addr":"경기도 의정부시 용현동 391-11번지","category":"일반휴게음식 - 일반한식"}]},{"lat":"37.734961122","long":"127.07778926","items":[{"name":"라온 핫도그앤커피","tel":"","addr":"경기도 의정부시 용현동 404-36번지 용현교회 1층 2호","category":"일반휴게음식 - 서양음식"},{"name":"비손헤어&네일","tel":"031-000-0000","addr":"경기도 의정부시 용현동 404-36번지 1층","category":"보건위생 - 미용원"}]},{"lat":"37.73637863","long":"127.08670758","items":[{"name":"라푼젤헤어","tel":"070-4076-1231","addr":"경기도 의정부시 용현동 13-22번지 1층","category":"보건위생 - 미용원"},{"name":"맨날 술이야","tel":"031-843-3040","addr":"경기도 의정부시 용현동 13-22번지 1층","category":"일반휴게음식 - 일반한식"}]},{"lat":"37.741101048","long":"127.08470478","items":[{"name":"레저맨","tel":"02-1588-6797","addr":"경기도 의정부시 용현동 527-5번지","category":"레져용품 - 스포츠·레져용품"}]},{"lat":"37.738180759","long":"127.0864033","items":[{"name":"레푸스 앤 두두네일","tel":"","addr":"경기도 의정부시 용현동 7번지 밀레니엄프라자 103호","category":"보건위생 - 피부미용실"},{"name":"사단법인 장애청년꿈을잡고","tel":"031-852-9203","addr":"경기도 의정부시 용현동 7번지 밀레니엄프라자 502-2호","category":"음료식품 - 기타음료식품"},{"name":"아이데코 안경(민락점)","tel":"031-852-4224","addr":"경기도 의정부시 용현동 7번지 밀레니엄프라자 101호","category":"보건위생 - 안경"},{"name":"에스시 모바일","tel":"031-851-1142","addr":"경기도 의정부시 용현동 7번지 밀레니엄프라자 1층 102호","category":"사무통신 - 통신기기"},{"name":"예쁜소리음악학원","tel":"031-852-0623","addr":"경기도 의정부시 용현동 7번지 밀레니엄프라자 303호","category":"학원 - 예·체능계학원"}]},{"lat":"37.732234913","long":"127.08573867","items":[{"name":"로웰스킨케어","tel":"031-821-5709","addr":"경기도 의정부시 용현동 56-9번지 2층","category":"회원제형태 - 기타4"},{"name":"성림상사","tel":"031-853-6282","addr":"경기도 의정부시 용현동 56-9번지 지하층","category":"보건위생 - 화장품"},{"name":"앗싸곱창 용현점","tel":"031-848-8959","addr":"경기도 의정부시 용현동 56-9번지 지상 1층","category":"일반휴게음식 - 일반한식"},{"name":"월드푸드/밀레오레","tel":"031-856-9874","addr":"경기도 의정부시 용현동 56-9번지 밀레오레 1층","category":"의류 - 정장"}]},{"lat":"37.728929733","long":"127.08381793","items":[{"name":"리모컨","tel":"031-846-2585","addr":"경기도 의정부시 용현동 178-6번지","category":"전기제품 - 가전제품"}]},{"lat":"37.732126511","long":"127.08614693","items":[{"name":"리얼바베큐","tel":"031-847-7701","addr":"경기도 의정부시 용현동 56-1번지 1층 102호","category":"일반휴게음식 - 일반한식"}]},{"lat":"37.7511756","long":"127.08195857","items":[{"name":"리얼크랩","tel":"031-852-0853","addr":"경기도 의정부시 용현동 544-1번지 1층","category":"일반휴게음식 - 일반한식"},{"name":"민수산","tel":"031-852-0853","addr":"경기도 의정부시 용현동 544-1번지 102호","category":"음료식품 - 농·축·수산품"}]},{"lat":"37.742851814","long":"127.08039536","items":[{"name":"마술연구소헬로우매직","tel":"02-2264-5854","addr":"경기도 의정부시 용현동 522-6번지","category":"기타 - 기타 전문점"},{"name":"서영테크","tel":"070-8262-0193","addr":"경기도 의정부시 용현동 522-6번지","category":"사무통신 - 기타 사무용품"},{"name":"성신푸드","tel":"031-851-2945","addr":"경기도 의정부시 용현동 522-6번지 2층","category":"음료식품 - 농·축·수산품"},{"name":"에스트로 시계","tel":"031-852-2547","addr":"경기도 의정부시 용현동 522-6번지","category":"신변잡화 - 시계"},{"name":"주식회사이진아쿠아","tel":"031-841-7313","addr":"경기도 의정부시 용현동 522-6번지","category":"문화.취미 - 수족관"},{"name":"중봉구내식당","tel":"031-851-8515","addr":"경기도 의정부시 용현동 522-6번지","category":"일반휴게음식 - 일반한식"},{"name":"태림유통","tel":"031-852-0500","addr":"경기도 의정부시 용현동 522-6번지 용현산업단지","category":"음료식품 - 기타음료식품"}]},{"lat":"37.7342393","long":"127.07943346","items":[{"name":"마일드사운드실용음악학원","tel":"031-853-8339","addr":"경기도 의정부시 용현동 408-5번지 5층","category":"학원 - 예·체능계학원"},{"name":"명의원","tel":"031-852-4118","addr":"경기도 의정부시 용현동 408-5번지","category":"의원 - 의원"},{"name":"문화공감카페조연","tel":"031-111-1111","addr":"경기도 의정부시 용현동 408-5번지 지하1층","category":"일반휴게음식 - 서양음식"},{"name":"상쾌한치과","tel":"031-841-7528","addr":"경기도 의정부시 용현동 408-5번지 4층","category":"의원 - 치과의원"},{"name":"세계자동차칼라광택","tel":"031-847-9543","addr":"경기도 의정부시 용현동 408-5번지","category":"자동차정비 유지 - 카인테리어"},{"name":"세이클럽","tel":"031-851-6005","addr":"경기도 의정부시 용현동 408-5","category":"보건위생 - 미용원"},{"name":"옛날통닭","tel":"","addr":"경기도 의정부시 용현동 408-5번지 1층","category":"일반휴게음식 - 스넥"},{"name":"용현 비타민약국","tel":"031-853-9571","addr":"경기도 의정부시 용현동 408-5번지 1층 103호","category":"약국 - 약국"},{"name":"조은이불","tel":"070-8995-0809","addr":"경기도 의정부시 용현동 408-5번지 1층 4호","category":"직물 - 침구·수예점"},{"name":"피자투어","tel":"031-852-8489","addr":"경기도 의정부시 용현동 408-5","category":"일반휴게음식 - 스넥"},{"name":"현이동통신","tel":"031-822-7887","addr":"경기도 의정부시 용현동 408-5번지 1호","category":"사무통신 - 통신기기"}]},{"lat":"37.732434002","long":"127.0844797","items":[{"name":"만리향","tel":"031-845-2062","addr":"경기도 의정부시 용현동 235-12번지","category":"일반휴게음식 - 중국식"},{"name":"진천토속순대국","tel":"031-848-7008","addr":"경기도 의정부시 용현동 235-12번지 1층","category":"일반휴게음식 - 일반한식"},{"name":"홍죽리식당","tel":"031-821-8219","addr":"경기도 의정부시 용현동 235-12번지","category":"일반휴게음식 - 일반한식"},{"name":"홍죽리한우직판장","tel":"031-821-8219","addr":"경기도 의정부시 용현동 235-12번지","category":"음료식품 - 정육점"}]},{"lat":"37.737290006","long":"127.08470058","items":[{"name":"만희해장국","tel":"031-853-6986","addr":"경기도 의정부시 용현동 278-21번지 1층","category":"일반휴게음식 - 일반한식"}]},{"lat":"37.740180808","long":"127.08650766","items":[{"name":"매직터치","tel":"031-852-7675","addr":"경기도 의정부시 용현동 550-4번지 ,1,2층","category":"자동차정비 유지 - 카인테리어"},{"name":"오토오아시스 송산점","tel":"031-852-5114","addr":"경기도 의정부시 용현동 550-4번지 송산주유소내","category":"자동차정비 유지 - 자동차부품"},{"name":"지에스칼텍스 (주)송산주유소","tel":"031-852-5189","addr":"경기도 의정부시 용현동 550-4번지","category":"연료판매점 - GS주유소"}]},{"lat":"37.730377962","long":"127.08712054","items":[{"name":"매헌의 뜰","tel":"031-847-5120","addr":"경기도 의정부시 용현동 66 6호","category":"문화.취미 - 화원"}]},{"lat":"37.734797501","long":"127.08003529","items":[{"name":"머리해줘","tel":"031-000-0000","addr":"경기도 의정부시 용현동 267-6번지 1층 105호","category":"보건위생 - 미용원"},{"name":"못난이 꽈배기 (용현점)","tel":"031-853-0503","addr":"경기도 의정부시 용현동 267-6번지","category":"일반휴게음식 - 일반한식"},{"name":"플라워스테이션","tel":"031-841-2952","addr":"경기도 의정부시 용현동 267-6번지 1층 103호","category":"문화.취미 - 화원"}]},{"lat":"37.73218115","long":"127.08531888","items":[{"name":"메디팜한진약국","tel":"031-847-4801","addr":"경기도 의정부시 용현동 230-18번지 1층","category":"약국 - 약국"},{"name":"승소아과의원","tel":"031-846-7166","addr":"경기도 의정부시 용현동 230-18번지","category":"의원 - 의원"},{"name":"아파트노래연습장","tel":"031-841-1053","addr":"경기도 의정부시 용현동 230-18번지 지층","category":"레저업소 - 노 래 방"}]},{"lat":"37.733442059","long":"127.08593287","items":[{"name":"메인텔레콤","tel":"","addr":"경기도 의정부시 용현동 39-123번지 수정드림힐 D동 202호","category":"사무통신 - 통신기기"}]},{"lat":"37.735657314","long":"127.0874782","items":[{"name":"명가해물찜.칼국수","tel":"031-852-0540","addr":"경기도 의정부시 용현동 17번지","category":"일반휴게음식 - 일반한식"},{"name":"비발디당구장","tel":"031-853-3264","addr":"경기도 의정부시 용현동 17번지 태원빌딩 302호","category":"레저업소 - 당 구 장"},{"name":"세븐일레븐의정부용현점","tel":"031-1577-0711","addr":"경기도 의정부시 용현동 17번지 태원빌딩 1층 1호","category":"유통업 영리 - 편 의 점"},{"name":"스토리","tel":"031-853-6694","addr":"경기도 의정부시 용현동 17번지 태원프라자 102호","category":"일반휴게음식 - 일반한식"},{"name":"언니네 옷가게","tel":"031-853-6771","addr":"경기도 의정부시 용현동 17번지 태원빌딩 1층","category":"의류 - 정장"},{"name":"엠(M)2노래연습장","tel":"031-841-0652","addr":"경기도 의정부시 용현동 17번지 태원빌딩 2층 1호","category":"레저업소 - 노 래 방"},{"name":"의정부아가페요양보호사교육원","tel":"031-851-8156","addr":"경기도 의정부시 용현동 17번지 3층 302-1호","category":"회원제형태 - 학원"},{"name":"타임","tel":"031-852-4166","addr":"경기도 의정부시 용현동 17번지 태원빌딩 2층 201호","category":"일반휴게음식 - 주점"}]},{"lat":"37.734963749","long":"127.08723918","items":[{"name":"명동닭한마리","tel":"031-853-0043","addr":"경기도 의정부시 용현동 31-55번지 1층","category":"일반휴게음식 - 일반한식"}]},{"lat":"37.736956534","long":"127.08487039","items":[{"name":"명태본가","tel":"031-851-1590","addr":"경기도 의정부시 용현동 278-7번지 1층","category":"일반휴게음식 - 일반한식"}]},{"lat":"37.734513173","long":"127.0873748","items":[{"name":"명품보세","tel":"031-871-6363","addr":"경기도 의정부시 용현동 30-50번지 1층","category":"의류 - 기타의류"}]},{"lat":"37.727263211","long":"127.08345314","items":[{"name":"명품요양원","tel":"031-843-9600","addr":"경기도 의정부시 용현동 170-2번지","category":"기타의료기관 - 기타의료기관 및 기타"}]},{"lat":"37.737128562","long":"127.08364534","items":[{"name":"모모헤어","tel":"031-853-8144","addr":"경기도 의정부시 용현동 271-4번지","category":"보건위생 - 미용원"},{"name":"참바오븐바베큐","tel":"031-851-5892","addr":"경기도 의정부시 용현동 271-4번지 용현동신도브래뉴PLUS 상가동 101호","category":"일반휴게음식 - 스넥"}]},{"lat":"37.750428066","long":"127.08157198","items":[{"name":"모터랜드세차장","tel":"031-852-5599","addr":"경기도 의정부시 용현동 545-13번지","category":"자동차정비 유지 - 세차장"},{"name":"좋은차만들기카센타","tel":"031-852-9870","addr":"경기도 의정부시 용현동 545-13번지","category":"자동차정비 유지 - 자동차정비"}]},{"lat":"37.736461699","long":"127.08387151","items":[{"name":"미락","tel":"031-851-2858","addr":"경기도 의정부시 용현동 272-5번지 1층","category":"일반휴게음식 - 일반한식"}]},{"lat":"37.734351382","long":"127.08684143","items":[{"name":"미세스헤어박","tel":"031-826-6981","addr":"경기도 의정부시 용현동 35번지","category":"보건위생 - 미용원"},{"name":"밤새 우리","tel":"031-853-9245","addr":"경기도 의정부시 용현동 35번지 1층","category":"일반휴게음식 - 일반한식"},{"name":"역마차","tel":"031-851-9511","addr":"경기도 의정부시 용현동 35 102호~103호","category":"일반휴게음식 - 일반한식"},{"name":"우리돼지 홍삼탕수육 홍탕","tel":"031-852-2831","addr":"경기도 의정부시 용현동 35번지 1층","category":"일반휴게음식 - 중국식"}]},{"lat":"37.741762288","long":"127.07942986","items":[{"name":"미조산업","tel":"031-852-1662","addr":"경기도 의정부시 용현동 529-3번지","category":"용역 서비스 - 종합용역"},{"name":"우애공사","tel":"031-852-2780","addr":"경기도 의정부시 용현동 529-3번지 A-4호","category":"기타 - 기계공구"}]},{"lat":"37.734152375","long":"127.08795295","items":[{"name":"민락비원pc방","tel":"","addr":"경기도 의정부시 용현동 24번지 4층","category":"레저업소 - 기타레져업소"},{"name":"에센브로트","tel":"070-8666-4178","addr":"경기도 의정부시 용현동 24번지 2층","category":"음료식품 - 제과점"},{"name":"천지연 화장품","tel":"031-851-3225","addr":"경기도 의정부시 용현동 24번지 천지연사우나 내","category":"보건위생 - 화장품"},{"name":"천지연4F구내식당","tel":"031-852-8000","addr":"경기도 의정부시 용현동 24번지 4층 천지연목욕탕","category":"일반휴게음식 - 일반한식"},{"name":"천지연골프스쿨","tel":"031-845-7700","addr":"경기도 의정부시 용현동 24번지","category":"레저업소 - 스크린골프"},{"name":"천지연매점","tel":"","addr":"경기도 의정부시 용현동 24번지","category":"음료식품 - 기타음료식품"},{"name":"천지연매점(여)","tel":"031-852-8882","addr":"경기도 의정부시 용현동 24번지","category":"음료식품 - 기타음료식품"},{"name":"천지연사우나이용원","tel":"031-852-8090","addr":"경기도 의정부시 용현동 24번지 두호빌딩 3층","category":"보건위생 - 이용원"},{"name":"천지연스넥코너","tel":"031-852-8000","addr":"경기도 의정부시 용현동 24번지","category":"일반휴게음식 - 일반한식"},{"name":"퍼스트독서실","tel":"031-853-3200","addr":"경기도 의정부시 용현동 24번지 두호빌딩 2층","category":"학원 - 독서실"}]},{"lat":"37.736540665","long":"127.08690063","items":[{"name":"민락송산악기","tel":"031-852-4007","addr":"경기도 의정부시 용현동 30-26번지 1층","category":"레져용품 - 악기점"}]},{"lat":"37.737738138","long":"127.08801378","items":[{"name":"민락점기아오토큐","tel":"031-851-2290","addr":"경기도 의정부시 용현동 554-2번지","category":"자동차정비 유지 - 자동차정비"}]},{"lat":"37.735988089","long":"127.07798315","items":[{"name":"민아헤어","tel":"070-8031-4038","addr":"경기도 의정부시 용현동 395-16번지","category":"보건위생 - 미용원"},{"name":"정인상회","tel":"02-1544-2549","addr":"경기도 의정부시 용현동 395-16번지","category":"레져용품 - 스포츠·레져용품"}]},{"lat":"37.736208678","long":"127.08496032","items":[{"name":"믿음주방중고백화점","tel":"070-8830-2300","addr":"경기도 의정부시 용현동 276-13번지","category":"주방용구 - 주방용구"}]},{"lat":"37.736405303","long":"127.08720678","items":[{"name":"바른정형외과내매점","tel":"","addr":"경기도 의정부시 용현동 14-4번지 1층","category":"음료식품 - 기타음료식품"},{"name":"신승용내과의원","tel":"031-853-0075","addr":"경기도 의정부시 용현동 14-4번지","category":"의원 - 의원"}]},{"lat":"37.739046522","long":"127.0852017","items":[{"name":"바우테크","tel":"031-851-7891","addr":"경기도 의정부시 용현동 309-3번지","category":"기타 - 기타 전문점"}]},{"lat":"37.726992465","long":"127.08412209","items":[{"name":"밥이랑","tel":"031-872-5572","addr":"경기도 의정부시 용현동 168-3번지 나동 1층","category":"일반휴게음식 - 일반한식"}]},{"lat":"37.729567472","long":"127.08659781","items":[{"name":"밥집","tel":"031-841-8419","addr":"경기도 의정부시 용현동 81-3번지","category":"일반휴게음식 - 일반한식"}]},{"lat":"37.736514868","long":"127.08515352","items":[{"name":"방아다리","tel":"031-851-5519","addr":"경기도 의정부시 용현동 276번지","category":"일반휴게음식 - 일반한식"}]},{"lat":"37.735515866","long":"127.0836209","items":[{"name":"버들식당","tel":"031-851-9310","addr":"경기도 의정부시 용현동 256-9번지","category":"일반휴게음식 - 일반한식"}]},{"lat":"37.73762207","long":"127.08653881","items":[{"name":"베토벤안경","tel":"031-853-9009","addr":"경기도 의정부시 용현동 8-8 미주빌딩 103호~104호","category":"보건위생 - 안경"},{"name":"쉬크헤어","tel":"031-853-9303","addr":"경기도 의정부시 용현동 8-8번지 1층","category":"보건위생 - 미용원"},{"name":"한마음서울안과의원","tel":"031-853-9400","addr":"경기도 의정부시 용현동 8-8번지 한마음미주빌딩 302호","category":"의원 - 의원"},{"name":"한마음연세이비인후과의원","tel":"031-853-9300","addr":"경기도 의정부시 용현동 8-8번지 미주크리닉빌딩 301호","category":"의원 - 의원"},{"name":"한마음외과의원","tel":"031-853-9600","addr":"경기도 의정부시 용현동 8-8번지 한마음미주크리닉빌딩 201호","category":"의원 - 의원"},{"name":"한마음한의원","tel":"031-853-9500","addr":"경기도 의정부시 용현동 8-8번지 한마음미주빌딩 3층 303호","category":"의원 - 한의원"}]},{"lat":"37.729513197","long":"127.08690403","items":[{"name":"벧엘전자테크","tel":"031-841-0480","addr":"경기도 의정부시 용현동 86-11번지","category":"수리서비스 - 기타수리서비스"}]},{"lat":"37.732658578","long":"127.08543285","items":[{"name":"보라네잉 (Bora Nail)","tel":"031-821-1332","addr":"경기도 의정부시 용현동 233-2번지 1층","category":"보건위생 - 피부미용실"},{"name":"용현이동통신","tel":"031-842-9010","addr":"경기도 의정부시 용현동 233-2번지 축산물직판장 1층 3호","category":"사무통신 - 통신기기"},{"name":"테마","tel":"031-841-9107","addr":"경기도 의정부시 용현동 233-2번지 2층","category":"일반휴게음식 - 주점"},{"name":"한우리축산물직판장","tel":"031-848-8448","addr":"경기도 의정부시 용현동 233-2번지 축산물직판장 상가 1층 1호","category":"음료식품 - 정육점"},{"name":"현지네반찬","tel":"031-821-3778","addr":"경기도 의정부시 용현동 233-2번지 축산물직판장 1층 4호","category":"음료식품 - 기타음료식품"}]},{"lat":"37.731325336","long":"127.08518181","items":[{"name":"보브의정부남부대리점","tel":"031-842-8382","addr":"경기도 의정부시 용현동 60-5지하1층","category":"보건위생 - 화장품"}]},{"lat":"37.733428403","long":"127.07948934","items":[{"name":"보충대편의점","tel":"031-843-0700","addr":"경기도 의정부시 용현동 410번지","category":"음료식품 - 기타음료식품"}]},{"lat":"37.735846929","long":"127.08689984","items":[{"name":"봄날애케이크","tel":"02-000-0000","addr":"경기도 의정부시 용현동 30-20번지 1층","category":"음료식품 - 제과점"},{"name":"온누리 종합공사","tel":"031-848-7401","addr":"경기도 의정부시 용현동 30-20번지","category":"용역 서비스 - 종합용역"},{"name":"워크룸에이치","tel":"","addr":"경기도 의정부시 용현동 30-20번지 1층 가죽공방","category":"문화.취미 - 문화취미기타"},{"name":"하이웰코리아","tel":"031-853-4351","addr":"경기도 의정부시 용현동 30-20번지","category":"전기제품 - 가전제품"}]},{"lat":"37.738650252","long":"127.0849857","items":[{"name":"북부타일기술학원","tel":"031-838-5325","addr":"경기도 의정부시 용현동 309-5번지 2층","category":"학원 - 기능학원"}]},{"lat":"37.732622856","long":"127.08497905","items":[{"name":"블루베리","tel":"031-841-1141","addr":"경기도 의정부시 용현동 39-27번지 해들녘애","category":"의류 - 정장"},{"name":"수 건어물","tel":"","addr":"경기도 의정부시 용현동 39-27번지 해들녘애 501호","category":"음료식품 - 농·축·수산품"}]},{"lat":"37.725434167","long":"127.08359861","items":[{"name":"비비팩토리","tel":"031-841-8052","addr":"경기도 의정부시 용현동 162-1번지","category":"자동차정비 유지 - 자동차부품"}]},{"lat":"37.741821969","long":"127.08447866","items":[{"name":"비앤씨Bible&Cover","tel":"031-853-6420","addr":"경기도 의정부시 용현동 527-3","category":"서적문구 - 출판 및 인쇄물"}]},{"lat":"37.734739516","long":"127.08582087","items":[{"name":"비에이치씨 (용현점)","tel":"031-853-9953","addr":"경기도 의정부시 용현동 39-79번지","category":"일반휴게음식 - 스넥"}]},{"lat":"37.730235628","long":"127.08453401","items":[{"name":"빅사이즈할인매장","tel":"031-853-0101","addr":"경기도 의정부시 용현동 187-3번지 진충빌딩","category":"의류 - 정장"}]},{"lat":"37.734487368","long":"127.08565043","items":[{"name":"뽕스토리","tel":"031-853-3443","addr":"경기도 의정부시 용현동 39-96번지 용현동다세대6호 101호","category":"일반휴게음식 - 일반한식"}]},{"lat":"37.736433917","long":"127.08496057","items":[{"name":"사계절칡냉면 돼지갈비","tel":"031-851-7745","addr":"경기도 의정부시 용현동 275-13번지 1층","category":"일반휴게음식 - 일반한식"},{"name":"우리마트","tel":"031-851-4232","addr":"경기도 의정부시 용현동 275-13번지","category":"음료식품 - 기타음료식품"},{"name":"풍물식당","tel":"031-853-1749","addr":"경기도 의정부시 용현동 275-13번지 1층","category":"일반휴게음식 - 일반한식"}]},{"lat":"37.735849884","long":"127.08264563","items":[{"name":"사돈네","tel":"031-851-6448","addr":"경기도 의정부시 용현동 270-26번지 1층","category":"일반휴게음식 - 일반한식"}]},{"lat":"37.741381079","long":"127.08363862","items":[{"name":"삭스피아","tel":"031-852-1986","addr":"경기도 의정부시 용현동 528-9번지 C동 2층","category":"의류 - 기타의류"}]},{"lat":"37.731739705","long":"127.08528436","items":[{"name":"산마니 농산물","tel":"031-846-8954","addr":"경기도 의정부시 용현동 230-9번지 1층","category":"약국 - 한약방"},{"name":"옛날능이백숙","tel":"031-846-8954","addr":"경기도 의정부시 용현동 230-9번지","category":"일반휴게음식 - 일반한식"}]},{"lat":"37.733018474","long":"127.08612524","items":[{"name":"삼둥이3마리치킨 의정부점","tel":"","addr":"경기도 의정부시 용현동 40-4번지 정은스카이 1층","category":"일반휴게음식 - 스넥"}]},{"lat":"37.735714131","long":"127.0835417","items":[{"name":"삼오양주오리","tel":"031-852-9629","addr":"경기도 의정부시 용현동 270-40번지","category":"음료식품 - 정육점"}]},{"lat":"37.735738976","long":"127.08667283","items":[{"name":"삼일곡산","tel":"031-852-6326","addr":"경기도 의정부시 용현동 13-15번지 1층 지상 1층","category":"음료식품 - 미곡상"}]},{"lat":"37.73574133","long":"127.08329215","items":[{"name":"삼일식자재","tel":"031-852-5521","addr":"경기도 의정부시 용현동 270-41번지","category":"음료식품 - 기타음료식품"}]},{"lat":"37.735624151","long":"127.08337144","items":[{"name":"샘솟는 공동체","tel":"031-829-0973","addr":"경기도 의정부시 용현동 270-42번지 101호","category":"신변잡화 - 기타잡화"},{"name":"아이파워유아체능교실","tel":"031-838-7896","addr":"경기도 의정부시 용현동 270-42번지 3층","category":"학원 - 기타 교육기관"}]},{"lat":"37.745570822","long":"127.08320067","items":[{"name":"샤랄라공주","tel":"031-851-5256","addr":"경기도 의정부시 용현동 519-4번지","category":"의류 - 정장"},{"name":"장애인보호작업장솔빛터","tel":"031-821-6920","addr":"경기도 의정부시 용현동 519-4번지 2층","category":"음료식품 - 기타음료식품"}]},{"lat":"37.735459736","long":"127.0865931","items":[{"name":"서비스테크","tel":"031-829-7792","addr":"경기도 의정부시 용현동 32-3번지","category":"사무통신 - 사무용 OA기기"},{"name":"주식회사 서비스테크","tel":"031-829-7792","addr":"경기도 의정부시 용현동 32-3번지","category":"사무통신 - 컴퓨터"}]},{"lat":"37.737873347","long":"127.08792317","items":[{"name":"서울연세학원","tel":"031-852-1470","addr":"경기도 의정부시 용현동 554-1번지 삼정빌딩 3층","category":"학원 - 보습학원"}]},{"lat":"37.740903697","long":"127.08345657","items":[{"name":"서한섬유","tel":"031-879-0773","addr":"경기도 의정부시 용현동 528-11번지","category":"의류 - 기타의류"}]},{"lat":"37.745428746","long":"127.0800917","items":[{"name":"선민일렉트로닉스","tel":"070-8816-9651","addr":"경기도 의정부시 용현동 521-3번지 신우 가동 2층","category":"전기제품 - 기타전기제품"}]},{"lat":"37.735961392","long":"127.07746127","items":[{"name":"선아교육사","tel":"031-848-0834","addr":"경기도 의정부시 용현동 395-9","category":"회원제형태 - 서적"}]},{"lat":"37.731658595","long":"127.0853183","items":[{"name":"선주이불만물사","tel":"031-843-3698","addr":"경기도 의정부시 용현동 228-1번지","category":"직물 - 혼수전문점"}]},{"lat":"37.733875241","long":"127.08490102","items":[{"name":"성심제일요양원","tel":"031-843-2100","addr":"경기도 의정부시 용현동 235-70번지","category":"기타의료기관 - 기타의료기관 및 기타"}]},{"lat":"37.735960814","long":"127.07836884","items":[{"name":"성온아동발달센터","tel":"031-821-0275","addr":"경기도 의정부시 용현동 395-24번지","category":"보건위생 - 기타대인서비스"},{"name":"점핑홀릭","tel":"031-827-1377","addr":"경기도 의정부시 용현동 395-24번지 2층","category":"레저업소 - 헬스클럽"},{"name":"착한생고기","tel":"031-840-5020","addr":"경기도 의정부시 용현동 395-24번지 지하1층","category":"일반휴게음식 - 일반한식"}]},{"lat":"37.738047092","long":"127.084293","items":[{"name":"성진유리건업","tel":"031-851-8635","addr":"경기도 의정부시 용현동 284-1번지","category":"건축자재 - 유리"}]},{"lat":"37.735934542","long":"127.07717763","items":[{"name":"세광음악문화사","tel":"031-844-4461","addr":"경기도 의정부시 용현동 395-2번지 2번가게","category":"회원제형태 - 서적"},{"name":"하얀유통","tel":"031-559-8394","addr":"경기도 의정부시 용현동 395-2번지","category":"음료식품 - 기타음료식품"}]},{"lat":"37.737241157","long":"127.0768159","items":[{"name":"세명산업","tel":"02-2115-5991","addr":"경기도 의정부시 용현동 389-26번지 1층","category":"주방용구 - 정수기"}]},{"lat":"37.739985101","long":"127.08289966","items":[{"name":"세븐일레븐용현신도점","tel":"","addr":"경기도 의정부시 용현동 290-8번지 1층","category":"유통업 영리 - 편 의 점"},{"name":"태산태권도장","tel":"031-851-1981","addr":"경기도 의정부시 용현동 290-8번지 브레뉴상가 5,6층","category":"학원 - 예·체능계학원"}]},{"lat":"37.737738343","long":"127.08773015","items":[{"name":"소리웅변학원","tel":"031-851-4230","addr":"경기도 의정부시 용현동 554-3번지 화신빌딩 2층","category":"회원제형태 - 학원"},{"name":"아빠가 굽는 빵","tel":"031-1111-1111","addr":"경기도 의정부시 용현동 554-3번지 1층","category":"일반휴게음식 - 서양음식"},{"name":"아이니학생복","tel":"031-852-7770","addr":"경기도 의정부시 용현동 554-3번지 103호","category":"의류 - 단체복"},{"name":"용인대 거호합기도","tel":"031-852-1788","addr":"경기도 의정부시 용현동 554-3번지 화신빌딩 4층","category":"학원 - 예·체능계학원"},{"name":"이지컴서비스","tel":"031-852-2292","addr":"경기도 의정부시 용현동 554-3번지 화신빌딩 102호","category":"사무통신 - 컴퓨터"}]},{"lat":"37.736567968","long":"127.08651494","items":[{"name":"소릿골","tel":"031-853-0940","addr":"경기도 의정부시 용현동 13-17번지 지하1층","category":"일반휴게음식 - 일반한식"},{"name":"통큰부대찌개&김치찜","tel":"031-853-9909","addr":"경기도 의정부시 용현동 13-17번지","category":"일반휴게음식 - 일반한식"},{"name":"팝스라이브","tel":"031-853-0940","addr":"경기도 의정부시 용현동 13-17번지","category":"일반휴게음식 - 일반한식"}]},{"lat":"37.738460703","long":"127.08548467","items":[{"name":"소망3","tel":"031-851-9999","addr":"경기도 의정부시 용현동 310-8번지 정은펠리체 202호","category":"의류 - 정장"}]},{"lat":"37.731599718","long":"127.07909042","items":[{"name":"솔궁가든","tel":"031-844-9696","addr":"경기도 의정부시 용현동 458-3번지","category":"일반휴게음식 - 일반한식"}]},{"lat":"37.732901605","long":"127.0857621","items":[{"name":"솔뫼밥상마을","tel":"031-8846-6987","addr":"경기도 의정부시 용현동 39-17번지","category":"일반휴게음식 - 일반한식"}]},{"lat":"37.732789404","long":"127.07843368","items":[{"name":"솔뫼집","tel":"031-848-2087","addr":"경기도 의정부시 용현동 418-2번지","category":"일반휴게음식 - 일반한식"}]},{"lat":"37.729658177","long":"127.0857358","items":[{"name":"솔뫼타이어","tel":"031-841-8808","addr":"경기도 의정부시 용현동 83-3번지","category":"자동차정비 유지 - 자동차시트·타이어"},{"name":"의정부자동차","tel":"031-111-1111","addr":"경기도 의정부시 용현동 83-3번지 ,1,2층","category":"자동차정비 유지 - 자동차부품"}]},{"lat":"37.732597046","long":"127.08320935","items":[{"name":"송산건강원","tel":"031-841-2377","addr":"경기도 의정부시 용현동 237-4번지","category":"건강식품 - 기타건강식품"},{"name":"진주유통(천호점)","tel":"031-841-2377","addr":"경기도 의정부시 용현동 237-4번지","category":"음료식품 - 미곡상"}]},{"lat":"37.73012432","long":"127.07565177","items":[{"name":"송산레포츠","tel":"031-821-8091","addr":"경기도 의정부시 용현동 443-1","category":"레저업소 - 수 영 장"}]},{"lat":"37.748184918","long":"127.08122921","items":[{"name":"송산약국","tel":"031-852-6216","addr":"경기도 의정부시 용현동 547-12번지 송산주공 상가 101호","category":"약국 - 약국"},{"name":"송산우리의원","tel":"031-852-6220","addr":"경기도 의정부시 용현동 547-12번지 송산주공1단지상가 20","category":"의원 - 의원"},{"name":"스피드크리닝","tel":"031-852-3022","addr":"경기도 의정부시 용현동 547-12번지 송산주공1단지 상가 103호","category":"수리서비스 - 세탁소"}]},{"lat":"37.73603863","long":"127.08331516","items":[{"name":"송산전파사","tel":"031-853-9422","addr":"경기도 의정부시 용현동 270-18번지","category":"수리서비스 - 가정용품수리"}]},{"lat":"37.732793082","long":"127.08634053","items":[{"name":"송산카서비스","tel":"031-848-4238","addr":"경기도 의정부시 용현동 42-4번지","category":"자동차정비 유지 - 자동차정비"},{"name":"장화선헤어","tel":"031-000-0000","addr":"경기도 의정부시 용현동 42-4번지","category":"보건위생 - 미용원"}]},{"lat":"37.736514031","long":"127.08634471","items":[{"name":"송산컴퓨터","tel":"070-7013-8874","addr":"경기도 의정부시 용현동 13번지 비숑 1층 104호","category":"수리서비스 - 사무·통신기기수리"},{"name":"수헤어터치","tel":"031-824-4133","addr":"경기도 의정부시 용현동 13번지 비숑 101호","category":"보건위생 - 미용원"},{"name":"쌤닭 의정부용현점","tel":"031-851-3310","addr":"경기도 의정부시 용현동 13번지 비숑 1층 102호","category":"일반휴게음식 - 일반한식"}]},{"lat":"37.736983254","long":"127.08531286","items":[{"name":"송산파크","tel":"031-851-8445","addr":"경기도 의정부시 용현동 277-8번지 송산파크","category":"숙박업 - 여관/기타숙박업"}]},{"lat":"37.736353067","long":"127.08462014","items":[{"name":"송산한의원","tel":"031-853-7525","addr":"경기도 의정부시 용현동 275-12번지 1층","category":"의원 - 한의원"}]},{"lat":"37.732428275","long":"127.07959041","items":[{"name":"송죽집","tel":"031-848-1009","addr":"경기도 의정부시 용현동 415-11번지","category":"일반휴게음식 - 일반한식"}]},{"lat":"37.736128095","long":"127.08423417","items":[{"name":"수노래연습장","tel":"031-852-9990","addr":"경기도 의정부시 용현동 270-10번지 3층","category":"레저업소 - 노 래 방"},{"name":"우리동네당구장","tel":"031-825-7446","addr":"경기도 의정부시 용현동 270-10번지 2층","category":"레저업소 - 당 구 장"}]},{"lat":"37.73574084","long":"127.08400686","items":[{"name":"수성카센타","tel":"031-851-5076","addr":"경기도 의정부시 용현동 256번지","category":"자동차정비 유지 - 자동차정비"}]},{"lat":"37.736378452","long":"127.08695717","items":[{"name":"숙이네 소머리국밥","tel":"031-852-2589","addr":"경기도 의정부시 용현동 30-28번지 1층","category":"일반휴게음식 - 일반한식"}]},{"lat":"37.735429388","long":"127.07815275","items":[{"name":"숙이네간장게장","tel":"031-846-9460","addr":"경기도 의정부시 용현동 404-26번지","category":"일반휴게음식 - 일반한식"}]},{"lat":"37.735040042","long":"127.08112461","items":[{"name":"스마일상사","tel":"070-8587-9684","addr":"경기도 의정부시 용현동 268-2번지","category":"의류 - 내의판매"},{"name":"종로떡집","tel":"031-851-6883","addr":"경기도 의정부시 용현동 268-2번지 1층 전부","category":"음료식품 - 제과점"},{"name":"협회열쇠","tel":"031-856-1297","addr":"경기도 의정부시 용현동 268-2번지","category":"기타 - 기계공구"}]},{"lat":"37.726460861","long":"127.08417823","items":[{"name":"스마일상사","tel":"031-877-7787","addr":"경기도 의정부시 용현동 166-3번지 나동","category":"유통업 영리 - 기타유통업"},{"name":"키움교육주식회사","tel":"031-874-2848","addr":"경기도 의정부시 용현동 166-3번지 가동","category":"서적문구 - 출판 및 인쇄물"}]},{"lat":"37.736990427","long":"127.08789947","items":[{"name":"스터디카페 독서실","tel":"031-852-0277","addr":"경기도 의정부시 용현동 555-6번지 동현빌딩 3층","category":"학원 - 독서실"},{"name":"신의수학학원","tel":"031-852-1508","addr":"경기도 의정부시 용현동 555-6번지 2층","category":"학원 - 보습학원"},{"name":"하나기획","tel":"031-853-8858","addr":"경기도 의정부시 용현동 555-6번지 동현빌딩 4층","category":"용역 서비스 - 종합용역"}]},{"lat":"37.750068257","long":"127.08070925","items":[{"name":"스펀지교육","tel":"031-852-8825","addr":"경기도 의정부시 용현동 545-7번지 2층","category":"서적문구 - 일반서적"},{"name":"영월시골밥상","tel":"031-852-9866","addr":"경기도 의정부시 용현동 545-7번지 1층","category":"일반휴게음식 - 일반한식"},{"name":"위더스교육아이스타","tel":"031-852-8825","addr":"경기도 의정부시 용현동 545-7번지 대성빌딩 2층","category":"서적문구 - 일반서적"},{"name":"훼이머스잉크","tel":"031-851-0061","addr":"경기도 의정부시 용현동 545-7번지 103호","category":"사무통신 - 기타 사무용품"}]},{"lat":"37.739739789","long":"127.08587183","items":[{"name":"스피드메이트 민락점","tel":"031-851-3840","addr":"경기도 의정부시 용현동 2-1번지","category":"자동차정비 유지 - 자동차정비"}]},{"lat":"37.733525101","long":"127.08310825","items":[{"name":"신원계분","tel":"031-851-9590","addr":"경기도 의정부시 용현동 241(주공211-107)","category":"농업 - 비료,사료,종자"}]},{"lat":"37.735822717","long":"127.0828498","items":[{"name":"신일오토바이","tel":"031-847-3136","addr":"경기도 의정부시 용현동 270-28번지 1층 2호,3호","category":"자동차정비 유지 - 가타자동차서비스"},{"name":"혜자살롱","tel":"","addr":"경기도 의정부시 용현동 270-28번지 1층 우측","category":"보건위생 - 미용원"}]},{"lat":"37.743987055","long":"127.08033981","items":[{"name":"신장식당","tel":"031-851-0896","addr":"경기도 의정부시 용현동 522-3번지","category":"일반휴게음식 - 일반한식"}]},{"lat":"37.735929634","long":"127.08459698","items":[{"name":"실내포장마차","tel":"031-851-9473","addr":"경기도 의정부시 용현동 256-10번지 1층","category":"일반휴게음식 - 주점"},{"name":"아리랑노래방","tel":"031-851-0783","addr":"경기도 의정부시 용현동 256-10번지","category":"레저업소 - 노 래 방"}]},{"lat":"37.732012602","long":"127.08146174","items":[{"name":"싱싱식당","tel":"031-847-9996","addr":"경기도 의정부시 용현동 211번지 1층","category":"일반휴게음식 - 일반한식"},{"name":"우리족발","tel":"031-821-9993","addr":"경기도 의정부시 용현동 211번지","category":"일반휴게음식 - 일반한식"},{"name":"이비가짬뽕","tel":"031-1111-1111","addr":"경기도 의정부시 용현동 211 1층","category":"일반휴게음식 - 중국식"}]},{"lat":"37.738262651","long":"127.08525756","items":[{"name":"싱크나라","tel":"031-851-2044","addr":"경기도 의정부시 용현동 309-4번지","category":"회원제형태 - 기타4"}]},{"lat":"37.729154551","long":"127.08443073","items":[{"name":"싼타모니카","tel":"031-841-1773","addr":"경기도 의정부시 용현동 187-5번지","category":"음료식품 - 기타음료식품"}]},{"lat":"37.735348641","long":"127.07761948","items":[{"name":"쎄레브헤어","tel":"031-841-4615","addr":"경기도 의정부시 용현동 404-8번지","category":"보건위생 - 미용원"},{"name":"에코팜유기농","tel":"031-848-3111","addr":"경기도 의정부시 용현동 404-8번지 1층","category":"회원제형태 - 기타4"},{"name":"용현설비","tel":"031-851-7604","addr":"경기도 의정부시 용현동 404-8번지 1층","category":"용역 서비스 - 기타용역서비스"},{"name":"탑노래연습장","tel":"031-847-2173","addr":"경기도 의정부시 용현동 404-8번지 지하1층","category":"레저업소 - 노 래 방"},{"name":"탑노래연습장","tel":"031-847-2173","addr":"경기도 의정부시 용현동 404-8번지 지하1층","category":"레저업소 - 노 래 방"}]},{"lat":"37.734874954","long":"127.08540128","items":[{"name":"씨유용현하나로점","tel":"031-853-6160","addr":"경기도 의정부시 용현동 253-1번지 1층","category":"유통업 영리 - 편 의 점"},{"name":"에스씨(SC)에셋부동산중개종합E&C","tel":"031-852-8118","addr":"경기도 의정부시 용현동 253-1번지 3층","category":"용역 서비스 - 부동산 중개·임대"},{"name":"장미미용실","tel":"031-851-9320","addr":"경기도 의정부시 용현동 253-1번지 1층","category":"보건위생 - 미용원"}]},{"lat":"37.732434174","long":"127.08423013","items":[{"name":"씨유의정부용현현대점","tel":"031-840-7404","addr":"경기도 의정부시 용현동 236-5번지 1층","category":"유통업 영리 - 편 의 점"}]},{"lat":"37.731685798","long":"127.08506877","items":[{"name":"아띠에스테틱","tel":"02-1111-1111","addr":"경기도 의정부시 용현동 230-4번지 2층","category":"보건위생 - 피부미용실"},{"name":"아프리카바베큐","tel":"031-847-4545","addr":"경기도 의정부시 용현동 230-4번지","category":"일반휴게음식 - 주점"},{"name":"음악보충대","tel":"031-8083-8860","addr":"경기도 의정부시 용현동 230-4번지 지하1층","category":"용역 서비스 - 사무서비스"},{"name":"장터삼겹살","tel":"031-841-3095","addr":"경기도 의정부시 용현동 230-4번지","category":"보건위생 - 이용원"},{"name":"하영음악학원","tel":"031-856-1230","addr":"경기도 의정부시 용현동 230-4번지 2,3층","category":"학원 - 예·체능계학원"}]},{"lat":"37.735435925","long":"127.08193048","items":[{"name":"아론 PC방 (용현점)","tel":"","addr":"경기도 의정부시 용현동 268-37번지 2층","category":"레저업소 - 기타레져업소"},{"name":"참좋은경희한의원","tel":"031-852-8275","addr":"경기도 의정부시 용현동 268-37번지","category":"의원 - 한의원"}]},{"lat":"37.741236973","long":"127.08357039","items":[{"name":"아셀","tel":"031-871-8751","addr":"경기도 의정부시 용현동 528-9번지 A동","category":"직물 - 침구·수예점"}]},{"lat":"37.737574268","long":"127.07720196","items":[{"name":"아이OK","tel":"031-848-0384","addr":"경기도 의정부시 용현동 390 세아상가1-3호","category":"용역 서비스 - 종합용역"},{"name":"아쿠아","tel":"031-843-7998","addr":"경기도 의정부시 용현동 390번지 세아용현아파트 1층 1호","category":"용역 서비스 - 종합용역"}]},{"lat":"37.731739602","long":"127.08543183","items":[{"name":"아이씨티로","tel":"","addr":"경기도 의정부시 용현동 56-15번지","category":"용역 서비스 - 소프트웨어"}]},{"lat":"37.736486769","long":"127.08667367","items":[{"name":"아임컴퍼니","tel":"031-852-2123","addr":"경기도 의정부시 용현동 13-19번지 101호","category":"일반휴게음식 - 일반한식"},{"name":"재봉프로방스","tel":"031-852-3936","addr":"경기도 의정부시 용현동 13-19번지","category":"문화.취미 - 문화취미기타"}]},{"lat":"37.736154486","long":"127.08515312","items":[{"name":"아진홈패션","tel":"031-851-2900","addr":"경기도 의정부시 용현동 255-9번지","category":"직물 - 침구·수예점"}]},{"lat":"37.735044656","long":"127.08748885","items":[{"name":"애니텍사이언스","tel":"031-840-6213","addr":"경기도 의정부시 용현동 30-48번지","category":"서적문구 - 과학기자재"},{"name":"옛터비빔국수","tel":"031-852-0708","addr":"경기도 의정부시 용현동 30-48번지 1층","category":"일반휴게음식 - 일반한식"},{"name":"유승정보(이송)","tel":"031-868-6119","addr":"경기도 의정부시 용현동 30-48번지 1층 2호","category":"사무통신 - 통신기기"}]},{"lat":"37.732154296","long":"127.08506928","items":[{"name":"앵콜노래연습장","tel":"031-841-0523","addr":"경기도 의정부시 용현동 230번지","category":"레저업소 - 노 래 방"},{"name":"용현아이파크 파리바게뜨","tel":"031-827-4848","addr":"경기도 의정부시 용현동 230번지 1층","category":"음료식품 - 제과점"},{"name":"점핑머신 의정부점","tel":"070-8285-7447","addr":"경기도 의정부시 용현동 230번지 2층","category":"레저업소 - 헬스클럽"},{"name":"힐링아로마/비트","tel":"","addr":"경기도 의정부시 용현동 230번지 4층","category":"보건위생 - 안마시술소"}]},{"lat":"37.732821945","long":"127.08370873","items":[{"name":"야구챔프","tel":"","addr":"경기도 의정부시 용현동 235-24번지 202호","category":"레져용품 - 스포츠·레져용품"}]},{"lat":"37.732517454","long":"127.08098582","items":[{"name":"양심가스","tel":"031-8921-6632","addr":"경기도 의정부시 용현동 240-30번지","category":"연료판매점 - LPG 취급점"}]},{"lat":"37.734595538","long":"127.08557114","items":[{"name":"어스모바일","tel":"070-4065-2555","addr":"경기도 의정부시 용현동 39-85번지 허브빌 2층 2호","category":"사무통신 - 통신기기"}]},{"lat":"37.735983596","long":"127.08473318","items":[{"name":"언니네밥집","tel":"031-111-1111","addr":"경기도 의정부시 용현동 256-11번지 1층","category":"일반휴게음식 - 일반한식"}]},{"lat":"37.731992108","long":"127.08509179","items":[{"name":"얼짱몸짱","tel":"02-435-0237","addr":"경기도 의정부시 용현동 230-13번지","category":"보건위생 - 화장품"}]},{"lat":"37.734820602","long":"127.08582096","items":[{"name":"에녹 수제청","tel":"070-8064-4514","addr":"경기도 의정부시 용현동 253-4번지 1층","category":"음료식품 - 기타음료식품"}]},{"lat":"37.736073574","long":"127.08490345","items":[{"name":"에이스노래연습장","tel":"031-851-5911","addr":"경기도 의정부시 용현동 256-7번지","category":"레저업소 - 노 래 방"},{"name":"용현광고","tel":"031-851-8490","addr":"경기도 의정부시 용현동 256-7번지","category":"용역 서비스 - 종합용역"}]},{"lat":"37.736379399","long":"127.0856185","items":[{"name":"엠에스 노래연습장","tel":"031-851-3364","addr":"경기도 의정부시 용현동 33번지 2층","category":"레저업소 - 노 래 방"},{"name":"천사열쇠","tel":"031-842-1004","addr":"경기도 의정부시 용현동 33번지 105호","category":"기타 - 기타 전문점"}]},{"lat":"37.734738931","long":"127.08664901","items":[{"name":"연이은","tel":"","addr":"경기도 의정부시 용현동 31-34번지 1층 104호","category":"일반휴게음식 - 서양음식"},{"name":"조은헤어","tel":"070-8118-1142","addr":"경기도 의정부시 용현동 31-34번지 101호","category":"보건위생 - 미용원"}]},{"lat":"37.735233922","long":"127.08739831","items":[{"name":"영일종합상사","tel":"031-840-0908","addr":"경기도 의정부시 용현동 30-38번지 1층","category":"음료식품 - 기타음료식품"},{"name":"의정부아모스학원","tel":"031-842-2393","addr":"경기도 의정부시 용현동 30-38번지 3층","category":"학원 - 기능학원"},{"name":"횡성서원양곡","tel":"070-8777-9089","addr":"경기도 의정부시 용현동 30-38번지","category":"음료식품 - 미곡상"}]},{"lat":"37.73787591","long":"127.08429281","items":[{"name":"영진골프연습장","tel":"031-851-2922","addr":"경기도 의정부시 용현동 279번지","category":"회원제형태 - 레져업소"}]},{"lat":"37.744349609","long":"127.07695912","items":[{"name":"오션골프랜드","tel":"031-851-9797","addr":"경기도 의정부시 용현동 379번지","category":"레저업소 - 골프연습장"},{"name":"오션스크린골프","tel":"031-852-2343","addr":"경기도 의정부시 용현동 379번지 2층","category":"레저업소 - 스크린골프"}]},{"lat":"37.739261753","long":"127.08662007","items":[{"name":"오슬로피싱","tel":"031-853-0125","addr":"경기도 의정부시 용현동 551-2번지 1층","category":"레져용품 - 스포츠·레져용품"},{"name":"풍천장어마을","tel":"031-851-8851","addr":"경기도 의정부시 용현동 551-2번지","category":"일반휴게음식 - 일반한식"}]},{"lat":"37.735880413","long":"127.07729102","items":[{"name":"오케이사인 (OK SIGN)","tel":"031-1833-5729","addr":"경기도 의정부시 용현동 395-3번지 1층","category":"용역 서비스 - 사무서비스"},{"name":"키즈아뜰리에","tel":"","addr":"경기도 의정부시 용현동 395-3번지","category":"학원 - 기타 교육기관"}]},{"lat":"37.739598765","long":"127.08129958","items":[{"name":"와바","tel":"031-852-7776","addr":"경기도 의정부시 용현동 290-1번지 신도10차파크힐타운 104동 704호","category":"음료식품 - 기타음료식품"}]},{"lat":"37.744545877","long":"127.07998867","items":[{"name":"외삼촌네 지역장 07","tel":"031-8083-0466","addr":"경기도 의정부시 용현동 521-11번지","category":"음료식품 - 기타음료식품"},{"name":"주식회사그린비","tel":"031-851-0878","addr":"경기도 의정부시 용현동 521-11번지","category":"주방용구 - 정수기"}]},{"lat":"37.73134603","long":"127.08125685","items":[{"name":"요거프레소 용현점","tel":"","addr":"경기도 의정부시 용현동 211-4번지","category":"일반휴게음식 - 서양음식"}]},{"lat":"37.734791604","long":"127.07512315","items":[{"name":"용현가든","tel":"031-848-9129","addr":"경기도 의정부시 용현동 산34-12번지","category":"일반휴게음식 - 일반한식"}]},{"lat":"37.735570771","long":"127.08237306","items":[{"name":"용현떡방앗간","tel":"031-851-5623","addr":"경기도 의정부시 용현동 268-40번지 102호","category":"음료식품 - 제과점"}]},{"lat":"37.733599805","long":"127.07914919","items":[{"name":"용현장어","tel":"031-852-1193","addr":"경기도 의정부시 용현동 406-7","category":"음료식품 - 농·축·수산품"},{"name":"용현장어","tel":"031-852-1193","addr":"경기도 의정부시 용현동 406-7번지","category":"유통업 영리 - 슈퍼마켓"}]},{"lat":"37.73529136","long":"127.08254293","items":[{"name":"용현점현대자동차","tel":"031-851-5182","addr":"경기도 의정부시 용현동 270-46번지","category":"자동차정비 유지 - 자동차부품"}]},{"lat":"37.734788744","long":"127.07964957","items":[{"name":"용현축산물직판장","tel":"031-853-1341","addr":"경기도 의정부시 용현동 267-2번지 1층","category":"음료식품 - 정육점"}]},{"lat":"37.73123609","long":"127.08395657","items":[{"name":"용현카트라자","tel":"031-840-8222","addr":"경기도 의정부시 용현동 222-6","category":"자동차정비 유지 - 자동차정비"}]},{"lat":"37.73431902","long":"127.08150955","items":[{"name":"우리독서실","tel":"031-852-7998","addr":"경기도 의정부시 용현동 264-12번지 용현주공아파트 201호","category":"학원 - 독서실"}]},{"lat":"37.735617712","long":"127.07951429","items":[{"name":"우리마트","tel":"031-853-0724","addr":"경기도 의정부시 용현동 391-19번지 101,102호","category":"유통업 영리 - 슈퍼마켓"}]},{"lat":"37.737630187","long":"127.08778675","items":[{"name":"우묵배미","tel":"031-852-0609","addr":"경기도 의정부시 용현동 554-4번지 1층","category":"일반휴게음식 - 일반한식"}]},{"lat":"37.725880874","long":"127.07554553","items":[{"name":"우물가","tel":"031-841-5295","addr":"경기도 의정부시 용현동 505-3번지","category":"일반휴게음식 - 일반한식"}]},{"lat":"37.735571553","long":"127.08120458","items":[{"name":"우승창호","tel":"031-853-9411","addr":"경기도 의정부시 용현동 268-10번지","category":"건축자재 - 보일러·펌프·샷시"},{"name":"제이미(Jamie)에스테틱","tel":"031-853-0132","addr":"경기도 의정부시 용현동 268-10번지","category":"회원제형태 - 기타4"},{"name":"파파독","tel":"031-853-8859","addr":"경기도 의정부시 용현동 268-10번지","category":"문화.취미 - 애완동물"}]},{"lat":"37.729568217","long":"127.08554286","items":[{"name":"월드홈넷","tel":"031-853-7890","addr":"경기도 의정부시 용현동 83-2번지","category":"전기제품 - 기타전기제품"}]},{"lat":"37.735130527","long":"127.08053479","items":[{"name":"윙스 푸드","tel":"","addr":"경기도 의정부시 용현동 268-3번지 지하1층","category":"일반휴게음식 - 일반한식"}]},{"lat":"37.739795086","long":"127.0840907","items":[{"name":"유&   Hair","tel":"031-852-1116","addr":"경기도 의정부시 용현동 291-1 신도브래뉴10차 상가 203호","category":"보건위생 - 미용원"}]},{"lat":"37.732018628","long":"127.08581784","items":[{"name":"유가네","tel":"031-841-2082","addr":"경기도 의정부시 용현동 56-11번지","category":"일반휴게음식 - 일반한식"}]},{"lat":"37.731074653","long":"127.08287873","items":[{"name":"육대장","tel":"031-840-6678","addr":"경기도 의정부시 용현동 191-2번지 1층","category":"일반휴게음식 - 일반한식"}]},{"lat":"37.731984226","long":"127.08345825","items":[{"name":"으뜸","tel":"031-853-8700","addr":"경기도 의정부시 용현동 221-3번지 현대2차아파트","category":"일반휴게음식 - 일반한식"}]},{"lat":"37.732739783","long":"127.08526278","items":[{"name":"응급실떡볶이 의정부용현점","tel":"","addr":"경기도 의정부시 용현동 39-26번지","category":"일반휴게음식 - 스넥"},{"name":"코이야","tel":"","addr":"경기도 의정부시 용현동 39-26번지 1층","category":"일반휴게음식 - 일식·회집"},{"name":"큐사랑","tel":"070-7420-2010","addr":"경기도 의정부시 용현동 39-26번지 1층 2호","category":"보건위생 - 미용재료"},{"name":"통달배 족발보쌈삼겹(의정부용현점)","tel":"031-841-9047","addr":"경기도 의정부시 용현동 39-26번지 1층","category":"일반휴게음식 - 일반한식"}]},{"lat":"37.735650838","long":"127.08387063","items":[{"name":"의정부송림라이온스클럽","tel":"031-852-4075","addr":"경기도 의정부시 용현동 256-3번지 3층","category":"기타 - 기타 전문점"},{"name":"장모님한식뷔페","tel":"031-851-7172","addr":"경기도 의정부시 용현동 256-3번지","category":"일반휴게음식 - 일반한식"}]},{"lat":"37.736345348","long":"127.08273692","items":[{"name":"의정부시니어클럽 어르신건강밥상","tel":"031-826-0760","addr":"경기도 의정부시 용현동 270-78번지 2층","category":"음료식품 - 기타음료식품"}]},{"lat":"37.728048301","long":"127.08159367","items":[{"name":"의정부행복한요앙원","tel":"031-841-6227","addr":"경기도 의정부시 용현동 141번지","category":"기타의료기관 - 기타의료기관 및 기타"}]},{"lat":"37.731408353","long":"127.08236861","items":[{"name":"이디야커피 솔뫼점","tel":"031-841-3700","addr":"경기도 의정부시 용현동 211-8번지 1층 지상","category":"일반휴게음식 - 서양음식"},{"name":"자성화맛집코다리네 용현점","tel":"031-846-4022","addr":"경기도 의정부시 용현동 211-8번지 가동 1층","category":"일반휴게음식 - 일반한식"}]},{"lat":"37.734873197","long":"127.08787436","items":[{"name":"이륙건재","tel":"031-851-2604","addr":"경기도 의정부시 용현동 16-7번지","category":"건축자재 - 기타건축자재"}]},{"lat":"37.727569249","long":"127.08387317","items":[{"name":"이불팜(FARM)","tel":"031-848-4849","addr":"경기도 의정부시 용현동 171-2번지 측면 유리문","category":"직물 - 침구·수예점"}]},{"lat":"37.734738534","long":"127.08720489","items":[{"name":"이진인테리어","tel":"031-856-9442","addr":"경기도 의정부시 용현동 31-31번지 1층","category":"건축자재 - 인테리어전문"}]},{"lat":"37.732461313","long":"127.08407135","items":[{"name":"임영옥바지락칼국수","tel":"031-874-0265","addr":"경기도 의정부시 용현동 236-4번지","category":"일반휴게음식 - 일반한식"}]},{"lat":"37.731185417","long":"127.07887447","items":[{"name":"임진강민물매운탕","tel":"031-844-5018","addr":"경기도 의정부시 용현동 462번지 1층","category":"일반휴게음식 - 일반한식"},{"name":"한국시니어케어연구회부설마음의숲시니어센","tel":"031-846-0300","addr":"경기도 의정부시 용현동 462번지","category":"기타의료기관 - 기타의료기관 및 기타"}]},{"lat":"37.734766839","long":"127.08540116","items":[{"name":"잉글리더어학원","tel":"","addr":"경기도 의정부시 용현동 39-74번지 2층","category":"학원 - 외국어학원"},{"name":"크린토피아 의정부 용현점","tel":"031-851-0903","addr":"경기도 의정부시 용현동 39-74번지","category":"수리서비스 - 세탁소"}]},{"lat":"37.735874473","long":"127.08617382","items":[{"name":"잉카 오토","tel":"","addr":"경기도 의정부시 용현동 12번지 정은파크빌 A동 301호","category":"자동차정비 유지 - 자동차정비"}]},{"lat":"37.750599361","long":"127.08140196","items":[{"name":"정선생수학교습소","tel":"070-4007-8219","addr":"경기도 의정부시 용현동 545-2번지 2층","category":"회원제형태 - 학원"}]},{"lat":"37.736297326","long":"127.0870138","items":[{"name":"정임","tel":"031-747-8874","addr":"경기도 의정부시 용현동 30-29번지 1층","category":"음료식품 - 기타음료식품"}]},{"lat":"37.73546284","long":"127.08210068","items":[{"name":"젤리젤리노래연습장","tel":"031-853-0710","addr":"경기도 의정부시 용현동 268-38번지 2층","category":"레저업소 - 노 래 방"},{"name":"투다리 (송산점)","tel":"031-852-5915","addr":"경기도 의정부시 용현동 268-38번지","category":"일반휴게음식 - 주점"},{"name":"한가족장충족발보쌈","tel":"031-851-9669","addr":"경기도 의정부시 용현동 268-38번지 1층","category":"일반휴게음식 - 일반한식"}]},{"lat":"37.734630557","long":"127.08701191","items":[{"name":"조흥장식","tel":"031-875-7258","addr":"경기도 의정부시 용현동 31-46번지 1층","category":"직물 - 카페트,커튼,천막,지물"}]},{"lat":"37.74031959","long":"127.08120958","items":[{"name":"주)새앙","tel":"02-3296-1819","addr":"경기도 의정부시 용현동 530-5번지 2층","category":"보건위생 - 화장품"},{"name":"주식회사 에듀아이","tel":"02-904-0836","addr":"경기도 의정부시 용현동 530-5번지 지층","category":"서적문구 - 기타서적문구"}]},{"lat":"37.734654746","long":"127.07786836","items":[{"name":"주문진동태찜","tel":"031-846-0078","addr":"경기도 의정부시 용현동 405-13번지","category":"일반휴게음식 - 일반한식"}]},{"lat":"37.742732752","long":"127.08328837","items":[{"name":"주식회사 리에티","tel":"070-4048-5907","addr":"경기도 의정부시 용현동 528-5번지 401호","category":"보건위생 - 안경"}]},{"lat":"37.740571956","long":"127.08106235","items":[{"name":"주식회사넥스켐","tel":"031-851-3188","addr":"경기도 의정부시 용현동 530-8번지","category":"건축자재 - 기타건축자재"}]},{"lat":"37.726713246","long":"127.08400836","items":[{"name":"주식회사어울림에프앤비","tel":"02-2604-0823","addr":"경기도 의정부시 용현동 168-2번지 1층","category":"일반휴게음식 - 일반한식"}]},{"lat":"37.741371389","long":"127.08462566","items":[{"name":"진명스텐","tel":"031-852-6011","addr":"경기도 의정부시 용현동 527-11번지","category":"건축자재 - 기타건축자재"}]},{"lat":"37.730182157","long":"127.08368317","items":[{"name":"진승우드","tel":"031-845-2008","addr":"경기도 의정부시 용현동 198-8","category":"건축자재 - 목재·석재·철물"}]},{"lat":"37.733658512","long":"127.08561547","items":[{"name":"짐스포츠","tel":"070-5022-4846","addr":"경기도 의정부시 용현동 39-10번지 B동 501호","category":"레저업소 - 헬스클럽"}]},{"lat":"37.735654395","long":"127.07851601","items":[{"name":"짱닭치킨","tel":"031-847-9596","addr":"경기도 의정부시 용현동 404-46번지 1층","category":"일반휴게음식 - 스넥"}]},{"lat":"37.734846413","long":"127.087534","items":[{"name":"차돌집","tel":"031-853-4554","addr":"경기도 의정부시 용현동 29번지","category":"음료식품 - 정육점"},{"name":"차돌집","tel":"031-853-4554","addr":"경기도 의정부시 용현동 29번지","category":"일반휴게음식 - 일반한식"}]},{"lat":"37.735183582","long":"127.08204366","items":[{"name":"찰가마순대족발","tel":"031-851-2898","addr":"경기도 의정부시 용현동 268-42번지","category":"일반휴게음식 - 일반한식"},{"name":"충무김밥","tel":"031-852-5255","addr":"경기도 의정부시 용현동 268-42번지","category":"일반휴게음식 - 스넥"}]},{"lat":"37.732707836","long":"127.07918231","items":[{"name":"참마당","tel":"031-848-4636","addr":"경기도 의정부시 용현동 412-5번지","category":"일반휴게음식 - 일반한식"}]},{"lat":"37.736263636","long":"127.08365575","items":[{"name":"참사랑세차장","tel":"031-000-0000","addr":"경기도 의정부시 용현동 271번지","category":"자동차정비 유지 - 세차장"}]},{"lat":"37.733875955","long":"127.08386869","items":[{"name":"천광냉동","tel":"031-000-0000","addr":"경기도 의정부시 용현동 235-15번지 월드빌 C동 202호","category":"수리서비스 - 가정용품수리"}]},{"lat":"37.736429861","long":"127.07750712","items":[{"name":"천연머리염색방","tel":"031-853-5606","addr":"경기도 의정부시 용현동 392-2번지 1층","category":"보건위생 - 화장품"}]},{"lat":"37.734987527","long":"127.07876491","items":[{"name":"철원생고기","tel":"031-851-5677","addr":"경기도 의정부시 용현동 404-2 상가동102호~103호","category":"일반휴게음식 - 일반한식"}]},{"lat":"37.741011509","long":"127.08389916","items":[{"name":"청춘D","tel":"031-1111-1111","addr":"경기도 의정부시 용현동 528-10번지 1층","category":"서적문구 - 출판 및 인쇄물"}]},{"lat":"37.735657672","long":"127.08697904","items":[{"name":"초대받은날","tel":"031-852-8510","addr":"경기도 의정부시 용현동 30-42번지","category":"보건위생 - 미용원"}]},{"lat":"37.735600272","long":"127.07861805","items":[{"name":"최현숙헤어갤러리","tel":"031-848-4818","addr":"경기도 의정부시 용현동 404-47번지","category":"보건위생 - 미용원"}]},{"lat":"37.736738932","long":"127.08682144","items":[{"name":"추억82","tel":"031-853-8913","addr":"경기도 의정부시 용현동 30-4번지 1층","category":"일반휴게음식 - 일반한식"}]},{"lat":"37.73606898","long":"127.07828954","items":[{"name":"카우보이","tel":"031-111-1111","addr":"경기도 의정부시 용현동 395-22번지 1층","category":"일반휴게음식 - 일반한식"}]},{"lat":"37.73737792","long":"127.08778647","items":[{"name":"커피와나무꾼/(주)피알디앤씨","tel":"031-853-0455","addr":"경기도 의정부시 용현동 555-1번지 1층","category":"일반휴게음식 - 일반한식"}]},{"lat":"37.736459563","long":"127.08692322","items":[{"name":"케어플러스","tel":"031-824-5222","addr":"경기도 의정부시 용현동 30-27번지 1층 101호","category":"보건위생 - 의료용품"}]},{"lat":"37.735319157","long":"127.08139717","items":[{"name":"코다리밥도둑","tel":"031-0000-0000","addr":"경기도 의정부시 용현동 268-27번지 1층","category":"일반휴게음식 - 일반한식"},{"name":"한국타이어","tel":"031-852-8890","addr":"경기도 의정부시 용현동 268-27번지","category":"자동차정비 유지 - 자동차시트·타이어"}]},{"lat":"37.727100697","long":"127.08395206","items":[{"name":"큰꿈교육","tel":"","addr":"경기도 의정부시 용현동 168-11번지 가동 101호","category":"학원 - 기타 교육기관"}]},{"lat":"37.734712055","long":"127.08643344","items":[{"name":"킹오토바이","tel":"","addr":"경기도 의정부시 용현동 35-2번지","category":"수리서비스 - 레져용품수리"}]},{"lat":"37.735768759","long":"127.08270227","items":[{"name":"타투","tel":"031-852-1408","addr":"경기도 의정부시 용현동 270-15번지","category":"의류 - 정장"}]},{"lat":"37.737659845","long":"127.08405433","items":[{"name":"태하바스","tel":"","addr":"경기도 의정부시 용현동 271-4번지 용현동신도브래뉴PLUS 303동 403호","category":"용역 서비스 - 기타용역서비스"}]},{"lat":"37.735435421","long":"127.08267922","items":[{"name":"토탈카센타","tel":"031-851-2707","addr":"경기도 의정부시 용현동 270-22번지","category":"자동차정비 유지 - 자동차정비"}]},{"lat":"37.74045701","long":"127.07770403","items":[{"name":"파인자동차공업사","tel":"031-851-0071","addr":"경기도 의정부시 용현동 386-5번지","category":"자동차정비 유지 - 자동차정비"}]},{"lat":"37.734683939","long":"127.08795356","items":[{"name":"풍기철물건재","tel":"031-852-0788","addr":"경기도 의정부시 용현동 22-1번지","category":"기타 - 기계공구"}]},{"lat":"37.730181374","long":"127.08481754","items":[{"name":"풍기철물종합상사","tel":"031-841-0975","addr":"경기도 의정부시 용현동 186-2번지","category":"건축자재 - 목재·석재·철물"}]},{"lat":"37.736209773","long":"127.08337207","items":[{"name":"프로모터스","tel":"031-853-5412","addr":"경기도 의정부시 용현동 270-12번지 1층","category":"자동차판매 - 이륜차판매"}]},{"lat":"37.73523346","long":"127.07448829","items":[{"name":"프로미카월드 용현점","tel":"031-848-3435","addr":"경기도 의정부시 용현동 399-2번지 1층","category":"자동차정비 유지 - 자동차정비"}]},{"lat":"37.733846311","long":"127.08758958","items":[{"name":"한국의료","tel":"031-841-2879","addr":"경기도 의정부시 용현동 24-15번지 용현그랜드아파트 1동 104호","category":"용역 서비스 - 사무서비스"}]},{"lat":"37.735516392","long":"127.08284947","items":[{"name":"한마당인테리어","tel":"031-851-8633","addr":"경기도 의정부시 용현동 270-43번지","category":"건축자재 - 인테리어전문"},{"name":"헤어브리치","tel":"031-852-4772","addr":"경기도 의정부시 용현동 270-43번지 1층","category":"보건위생 - 미용원"}]},{"lat":"37.726795932","long":"127.08164906","items":[{"name":"한빛미디어","tel":"031-853-0033","addr":"경기도 의정부시 용현동 126-7번지 주건축물","category":"용역 서비스 - 종합용역"}]},{"lat":"37.736150066","long":"127.07828962","items":[{"name":"한빛헤어센스","tel":"031-842-1488","addr":"경기도 의정부시 용현동 393-19번지","category":"보건위생 - 미용원"}]},{"lat":"37.735266947","long":"127.07857234","items":[{"name":"한샘기전","tel":"031-841-7279","addr":"경기도 의정부시 용현동 404-37번지","category":"용역 서비스 - 기타용역서비스"}]},{"lat":"37.735600787","long":"127.07781259","items":[{"name":"한아름생활용품","tel":"031-840-6214","addr":"경기도 의정부시 용현동 404-57번지 1층","category":"음료식품 - 기타음료식품"}]},{"lat":"37.731630808","long":"127.08639595","items":[{"name":"한우곱창","tel":"031-841-3006","addr":"경기도 의정부시 용현동 56-50번지","category":"일반휴게음식 - 일반한식"},{"name":"한우곱창","tel":"031-841-3006","addr":"경기도 의정부시 용현동 56-50번지","category":"일반휴게음식 - 일반한식"}]},{"lat":"37.739156161","long":"127.08298953","items":[{"name":"한울","tel":"031-851-4123","addr":"경기도 의정부시 용현동 291번지","category":"기타 - 기타 전문점"}]},{"lat":"37.735792928","long":"127.08682037","items":[{"name":"한울푸드","tel":"031-851-0027","addr":"경기도 의정부시 용현동 30-21번지","category":"음료식품 - 농·축·수산품"}]},{"lat":"37.720102124","long":"127.08117695","items":[{"name":"할매상회","tel":"031-847-0331","addr":"경기도 의정부시 용현동 산 62-1","category":"음료식품 - 미곡상"}]},{"lat":"37.73846113","long":"127.08487205","items":[{"name":"해가머무는 뜰","tel":"031-851-9298","addr":"경기도 의정부시 용현동 309-23번지","category":"문화.취미 - 화원"}]},{"lat":"37.738460996","long":"127.08506491","items":[{"name":"해뜨루","tel":"031-851-9298","addr":"경기도 의정부시 용현동 309-22번지 외1필지 1층","category":"일반휴게음식 - 일반한식"}]},{"lat":"37.73159776","long":"127.08206253","items":[{"name":"해소반(용현점)","tel":"031-843-0000","addr":"경기도 의정부시 용현동 211-6번지 1층","category":"일반휴게음식 - 일반한식"}]},{"lat":"37.736100839","long":"127.08456314","items":[{"name":"해죽순 설렁탕","tel":"031-853-3309","addr":"경기도 의정부시 용현동 276-16번지 1층","category":"일반휴게음식 - 일반한식"}]},{"lat":"37.730541155","long":"127.08568007","items":[{"name":"행운꽃집","tel":"031-841-4700","addr":"경기도 의정부시 용현동 226","category":"문화.취미 - 화원"}]},{"lat":"37.732680246","long":"127.08004443","items":[{"name":"현대공업사","tel":"031-844-5182","addr":"경기도 의정부시 용현동 416번지","category":"자동차정비 유지 - 자동차정비"}]},{"lat":"37.732541342","long":"127.08559154","items":[{"name":"현대떡방아기름집","tel":"031-847-1309","addr":"경기도 의정부시 용현동 232-2석천종합상가103호","category":"음료식품 - 제과점"}]},{"lat":"37.732400367","long":"127.08092898","items":[{"name":"현대카프라자","tel":"031-848-4238","addr":"경기도 의정부시 용현동 240-33번지","category":"자동차정비 유지 - 자동차정비"}]},{"lat":"37.744518581","long":"127.0803971","items":[{"name":"호선Factory","tel":"031-821-6418","addr":"경기도 의정부시 용현동 521-6번지","category":"유통업 영리 - 기타유통업"}]},{"lat":"37.73226183","long":"127.08589752","items":[{"name":"횡성생고기","tel":"031-841-4895","addr":"경기도 의정부시 용현동 56-2번지","category":"일반휴게음식 - 일반한식"}]},{"lat":"37.735291214","long":"127.08275848","items":[{"name":"효원푸드","tel":"","addr":"경기도 의정부시 용현동 270-23번지 1층","category":"일반휴게음식 - 일반한식"}]},{"lat":"37.733623052","long":"127.0847873","items":[{"name":"휴마루 시니어타운","tel":"031-872-2525","addr":"경기도 의정부시 용현동 39-132번지","category":"기타의료기관 - 기타의료기관 및 기타"}]}]