[{"lat":"37.721884365","long":"127.20416487","items":[{"name":"(본)동태마을","tel":"031-568-1114","addr":"경기도 남양주시 진접읍 금곡리 1014-5번지 1층","category":"일반휴게음식 - 일반한식"}]},{"lat":"37.715715925","long":"127.20758465","items":[{"name":"(시립)준비된어린이집[아이행복]","tel":"031-529-0271","addr":"경기도 남양주시 진접읍 금곡리 778-4번지","category":"학원 - 유아원"}]},{"lat":"37.712769659","long":"127.1970067","items":[{"name":"(시립)풍양어린이집[아이행복]","tel":"031-574-5901","addr":"경기도 남양주시 진접읍 금곡리 1098번지 휴먼시아17단지","category":"학원 - 유아원"}]},{"lat":"37.719995428","long":"127.20235635","items":[{"name":"(주)신흥이앤씨","tel":"031-574-4267","addr":"경기도 남양주시 진접읍 금곡리 1042번지 708 (M-타워)","category":"의류 - 내의판매"},{"name":"(주)신흥이앤씨","tel":"031-574-0890","addr":"경기도 남양주시 진접읍 금곡리 1042번지 708M타워 (M-타워)","category":"의류 - 내의판매"},{"name":"24시전주명가콩나물국밥","tel":"031-574-1442","addr":"경기도 남양주시 진접읍 금곡리 1042번지 엠타워 108동 110호","category":"일반휴게음식 - 일반한식"},{"name":"대박전","tel":"031-528-2001","addr":"경기도 남양주시 진접읍 금곡리 1042번지 엠타워 115호","category":"일반휴게음식 - 일반한식"},{"name":"더 원 필라테스","tel":"031-527-0966","addr":"경기도 남양주시 진접읍 금곡리 1042번지 엠타워 4층 401호","category":"레저업소 - 헬스클럽"},{"name":"덤","tel":"031-257-2560","addr":"경기도 남양주시 진접읍 금곡리 1042번지 111호 M타워 (M-타워)","category":"일반휴게음식 - 일반한식"},{"name":"도깨비","tel":"031-111-1111","addr":"경기도 남양주시 진접읍 금곡리 1042번지 엠타워 114호","category":"일반휴게음식 - 주점"},{"name":"마이폰","tel":"070-8804-1235","addr":"경기도 남양주시 진접읍 금곡리 1042번지 엠타워 113호","category":"사무통신 - 통신기기"},{"name":"몸편한세상","tel":"070-8867-7901","addr":"경기도 남양주시 진접읍 금곡리 1042번지 (M-타워)","category":"회원제형태 - 기타4"},{"name":"베도베네안경원 진접점","tel":"031-529-0090","addr":"경기도 남양주시 진접읍 금곡리 1042번지 엠타워 107호","category":"보건위생 - 안경"},{"name":"수정방","tel":"031-527-9000","addr":"경기도 남양주시 진접읍 금곡리 1042번지 M타워 3층 308호","category":"음료식품 - 기타음료식품"},{"name":"아디오스 남양주 진접점","tel":"031-575-1080","addr":"경기도 남양주시 진접읍 금곡리 1042번지 엠타워 707호","category":"보건위생 - 피부미용실"},{"name":"엑스필코리아","tel":"031-595-0015","addr":"경기도 남양주시 진접읍 금곡리 1042번지 102(M-타워)","category":"사무통신 - 기타 사무용품"},{"name":"엔투PC(N2PC)","tel":"070-8993-1600","addr":"경기도 남양주시 진접읍 금곡리 1042번지 엠타워 204동 206호","category":"수리서비스 - 사무·통신기기수리"},{"name":"엠당구클럽","tel":"031-0000-0000","addr":"경기도 남양주시 진접읍 금곡리 1042번지 603호~605호","category":"레저업소 - 당 구 장"},{"name":"올웨이즈24(Always24)","tel":"070-7563-7525","addr":"경기도 남양주시 진접읍 금곡리 1042번지 101호(M-타워)","category":"유통업 영리 - 편 의 점"},{"name":"옵티마나나약국","tel":"031-528-8840","addr":"경기도 남양주시 진접읍 금곡리 1042번지 M타워 105호","category":"약국 - 약국"},{"name":"진미한우곱창","tel":"031-555-9233","addr":"경기도 남양주시 진접읍 금곡리 1042번지 103호 (M-타워)","category":"일반휴게음식 - 일반한식"},{"name":"진접아산내과","tel":"031-573-5008","addr":"경기도 남양주시 진접읍 금곡리 1042번지 엠타워 5층","category":"의원 - 의원"},{"name":"진접아산웰빙","tel":"031-000-0000","addr":"경기도 남양주시 진접읍 금곡리 1042번지 엠타워 505호 일부","category":"건강식품 - 기타건강식품"},{"name":"클럽밸런스5진접점","tel":"031-529-0555","addr":"경기도 남양주시 진접읍 금곡리 1042번지 엠타워 501호","category":"보건위생 - 의료용품"},{"name":"태풍 컴퓨터","tel":"031-571-3114","addr":"경기도 남양주시 진접읍 금곡리 1042번지 M타워 1층112호","category":"사무통신 - 컴퓨터"},{"name":"평유재한의원","tel":"031-575-8287","addr":"경기도 남양주시 진접읍 금곡리 1042번지 M타워402호,403호 (M-타워)","category":"의원 - 한의원"},{"name":"포메인진접점","tel":"031-529-3815","addr":"경기도 남양주시 진접읍 금곡리 1042번지 엠타워 2층 207호","category":"일반휴게음식 - 일반한식"},{"name":"헤어 1380","tel":"031-529-7856","addr":"경기도 남양주시 진접읍 금곡리 1042번지 엠타워 2층 208,209호","category":"보건위생 - 미용원"},{"name":"휘트니스 풀바디","tel":"","addr":"경기도 남양주시 진접읍 금곡리 1042번지 엠타워 8층 802-809호","category":"레저업소 - 헬스클럽"}]},{"lat":"37.707520886","long":"127.22061472","items":[{"name":"(주)엠제이산업","tel":"031-1111-1111","addr":"경기도 남양주시 진접읍 금곡리 79-2번지","category":"유통업 영리 - 기타유통업"},{"name":"주식회사 쎈토이라이프","tel":"02-547-7735","addr":"경기도 남양주시 진접읍 금곡리 79-2번지","category":"용역 서비스 - 종합용역"}]},{"lat":"37.711551817","long":"127.1867287","items":[{"name":"(주)이앤티코리아","tel":"031-574-1704","addr":"경기도 남양주시 진접읍 금곡리 1081-4번지 301호","category":"여행 - 관광여행"},{"name":"건강플러스약국","tel":"031-574-8796","addr":"경기도 남양주시 진접읍 금곡리 1081-4번지 폴리프라자 110호","category":"약국 - 약국"},{"name":"경쌤영어교습소","tel":"070-7536-6209","addr":"경기도 남양주시 진접읍 금곡리 1081-4번지 803-2호","category":"학원 - 외국어학원"},{"name":"라면데스요 (진접롯데시네마)","tel":"031-575-2483","addr":"경기도 남양주시 진접읍 금곡리 1081-4번지 폴리프라자 1층 104호","category":"일반휴게음식 - 일반한식"},{"name":"리즈헤어","tel":"031-527-9717","addr":"경기도 남양주시 진접읍 금곡리 1081-4번지 폴리프라자 1층 111호","category":"보건위생 - 미용원"},{"name":"물감놀이터미술학원","tel":"070-8811-6546","addr":"경기도 남양주시 진접읍 금곡리 1081-4번지 폴리프라자 1층 703호","category":"학원 - 예·체능계학원"},{"name":"박상준소아청소년과의원","tel":"031-573-8275","addr":"경기도 남양주시 진접읍 금곡리 1081-4번지 플리프라자 305호,306호","category":"의원 - 의원"},{"name":"본죽 진접롯데시네마점","tel":"031-575-4288","addr":"경기도 남양주시 진접읍 금곡리 1081-4번지 폴리프라자 109호","category":"일반휴게음식 - 일반한식"},{"name":"블랙컷트(Black cut)","tel":"","addr":"경기도 남양주시 진접읍 금곡리 1081-4번지 101호","category":"보건위생 - 미용원"},{"name":"소담 카페","tel":"","addr":"경기도 남양주시 진접읍 금곡리 1081-4번지 1층 107호","category":"일반휴게음식 - 서양음식"},{"name":"손님구함","tel":"031-1111-1111","addr":"경기도 남양주시 진접읍 금곡리 1081-4번지 102호","category":"일반휴게음식 - 일반한식"},{"name":"숙명심리발달센터","tel":"031-572-7567","addr":"경기도 남양주시 진접읍 금곡리 1081-4번지 폴리프라자 704,705호","category":"보건위생 - 기타대인서비스"},{"name":"아이들약국","tel":"031-575-8211","addr":"경기도 남양주시 진접읍 금곡리 1081-4번지 3층 307호","category":"약국 - 약국"},{"name":"아이비스PC방","tel":"031-592-4317","addr":"경기도 남양주시 진접읍 금곡리 1081-4번지 폴리프라자 4층 1","category":"레저업소 - 기타레져업소"},{"name":"올바른뷰티","tel":"031-573-1529","addr":"경기도 남양주시 진접읍 금곡리 1081-4번지 폴리프라자 4층 407호 1","category":"보건위생 - 피부미용실"},{"name":"잼잼(jamjam)","tel":"","addr":"경기도 남양주시 진접읍 금곡리 1081-4번지 폴리프라자 504호, 505호","category":"레저업소 - 헬스클럽"},{"name":"제이골프","tel":"031-575-1865","addr":"경기도 남양주시 진접읍 금곡리 1081-4번지 폴리프라자 901호","category":"회원제형태 - 레져업소"},{"name":"조마루감자탕(진접점)","tel":"031-572-8211","addr":"경기도 남양주시 진접읍 금곡리 1081-4번지 폴리프라자 202호 201","category":"일반휴게음식 - 일반한식"},{"name":"주식회사엔진큐어","tel":"031-1577-8973","addr":"경기도 남양주시 진접읍 금곡리 1081-4번지 폴리프라자 806호","category":"자동차정비 유지 - 자동차부품"},{"name":"진접 명르양꼬치","tel":"031-528-9282","addr":"경기도 남양주시 진접읍 금곡리 1081-4번지 108호","category":"일반휴게음식 - 일반한식"},{"name":"코끼리체형관리","tel":"031-572-0889","addr":"경기도 남양주시 진접읍 금곡리 1081-4번지 4층 404호 ,405,406호","category":"보건위생 - 피부미용실"},{"name":"페이스오프","tel":"031-527-3522","addr":"경기도 남양주시 진접읍 금곡리 1081-4번지 폴리프라자 302,303호","category":"보건위생 - 피부미용실"},{"name":"프라모델공작소","tel":"070-8703-0798","addr":"경기도 남양주시 진접읍 금곡리 1081-4번지 폴리프라자 506호 1","category":"서적문구 - 완구점"},{"name":"헤어살롱 아르떼","tel":"031-575-8050","addr":"경기도 남양주시 진접읍 금곡리 1081-4번지 폴리프라자 501호,502호","category":"보건위생 - 미용원"},{"name":"후르츠365","tel":"031-521-6080","addr":"경기도 남양주시 진접읍 금곡리 1081-4번지 폴리프라자Ⅰ 1층 105호","category":"일반휴게음식 - 서양음식"}]},{"lat":"37.730820128","long":"127.21036007","items":[{"name":"(주)한빛","tel":"02-555-9600","addr":"경기도 남양주시 진접읍 금곡리 445-1번지","category":"기타 - 기계공구"}]},{"lat":"37.717688854","long":"127.19703087","items":[{"name":"1.618학원","tel":"031-575-1681","addr":"경기도 남양주시 진접읍 금곡리 1076-3번지 아트프라자 301호","category":"학원 - 보습학원"},{"name":"도그앤시저스(Dog&Scissors)","tel":"070-8832-5678","addr":"경기도 남양주시 진접읍 금곡리 1076-3번지 아트프라자 104호","category":"문화.취미 - 애완동물"},{"name":"맘스키즈카페","tel":"031-571-0523","addr":"경기도 남양주시 진접읍 금곡리 1076-3번지 아트프라자 2층 202호","category":"일반휴게음식 - 서양음식"},{"name":"뮤엠영어해밀초영어교습소","tel":"031-571-0508","addr":"경기도 남양주시 진접읍 금곡리 1076-3번지 아트프라자 3층 303호","category":"학원 - 외국어학원"},{"name":"바람난머리","tel":"031-573-8978","addr":"경기도 남양주시 진접읍 금곡리 1076-3번지 아트프라자 106호","category":"보건위생 - 미용원"},{"name":"삼오육도(356℉)","tel":"070-8818-3560","addr":"경기도 남양주시 진접읍 금곡리 1076-3번지 아트프라자 1동 2층 203호","category":"일반휴게음식 - 서양음식"},{"name":"스위트어학원","tel":"031-572-0579","addr":"경기도 남양주시 진접읍 금곡리 1076-3번지 아트프라자 201호","category":"학원 - 외국어학원"},{"name":"아이스크림하우스","tel":"02-1111-1111","addr":"경기도 남양주시 진접읍 금곡리 1076-3번지 아트프라자 1동 103층","category":"음료식품 - 제과점"},{"name":"콩샌진접점","tel":"031-572-7534","addr":"경기도 남양주시 진접읍 금곡리 1076-3번지 아트프라자 제1동 1층 101호","category":"일반휴게음식 - 일반한식"}]},{"lat":"37.719241149","long":"127.20085719","items":[{"name":"190네일","tel":"","addr":"경기도 남양주시 진접읍 금곡리 1036-2번지 1층 102호","category":"보건위생 - 피부미용실"},{"name":"190피부#","tel":"070-7848-9306","addr":"경기도 남양주시 진접읍 금곡리 1036-2번지 1층 102호","category":"보건위생 - 피부미용실"},{"name":"천상천하유아독족","tel":"031-574-3939","addr":"경기도 남양주시 진접읍 금곡리 1036-2번지 1층 일부","category":"일반휴게음식 - 일반한식"}]},{"lat":"37.712019411","long":"127.18730825","items":[{"name":"4M필라테스","tel":"031-575-5411","addr":"경기도 남양주시 진접읍 금곡리 1082-2번지 3층 301호","category":"레저업소 - 헬스클럽"},{"name":"뉴발레학원","tel":"031-529-9888","addr":"경기도 남양주시 진접읍 금곡리 1082-2번지 3층 302호","category":"학원 - 예·체능계학원"},{"name":"대득F&B","tel":"031-565-5800","addr":"경기도 남양주시 진접읍 금곡리 1082-2번지","category":"일반휴게음식 - 일반한식"},{"name":"비에이치시 진접중앙점","tel":"031-529-8863","addr":"경기도 남양주시 진접읍 금곡리 1082-2번지 2층 201호","category":"일반휴게음식 - 일반한식"},{"name":"이차돌(남양주진접점)","tel":"031-574-1007","addr":"경기도 남양주시 진접읍 금곡리 1082-2번지 1층(우측101호)","category":"일반휴게음식 - 일반한식"},{"name":"진접스쿼시클럽","tel":"031-572-8872","addr":"경기도 남양주시 진접읍 금곡리 1082-2번지 라온 상가 5동 전층","category":"레저업소 - 헬스클럽"},{"name":"쿡1082","tel":"031-528-9020","addr":"경기도 남양주시 진접읍 금곡리 1082-2번지 1층 102호","category":"일반휴게음식 - 일반한식"},{"name":"툰","tel":"070-8780-2150","addr":"경기도 남양주시 진접읍 금곡리 1082-2번지 4층 401호","category":"레저업소 - 기타레져업소"},{"name":"트윙클","tel":"031-528-8829","addr":"경기도 남양주시 진접읍 금곡리 1082-2번지 4층","category":"일반휴게음식 - 서양음식"}]},{"lat":"37.721767764","long":"127.20385831","items":[{"name":"60계치킨남양주진접점","tel":"031-571-6082","addr":"경기도 남양주시 진접읍 금곡리 1015-2번지 1층 103호","category":"일반휴게음식 - 스넥"},{"name":"나눔식당","tel":"031-572-1912","addr":"경기도 남양주시 진접읍 금곡리 1015-2번지 1층 101호 102호","category":"일반휴게음식 - 일반한식"}]},{"lat":"37.718571536","long":"127.20257938","items":[{"name":"88금성반점","tel":"031-572-9353","addr":"경기도 남양주시 진접읍 금곡리 1045-4번지 1층","category":"일반휴게음식 - 중국식"}]},{"lat":"37.718690538","long":"127.20146818","items":[{"name":"B'st (비어스트리트)","tel":"031-573-7832","addr":"경기도 남양주시 진접읍 금곡리 1037-12번지 102호","category":"일반휴게음식 - 주점"},{"name":"네일샤베트","tel":"031-575-6240","addr":"경기도 남양주시 진접읍 금곡리 1037-12번지 1층 101호","category":"보건위생 - 피부미용실"}]},{"lat":"37.714714356","long":"127.19783969","items":[{"name":"BHC비어점진접택지점","tel":"031-527-4060","addr":"경기도 남양주시 진접읍 금곡리 1094-2번지 201호","category":"일반휴게음식 - 주점"},{"name":"e-맑은미소치과의원","tel":"031-527-2872","addr":"경기도 남양주시 진접읍 금곡리 1094-2번지 진원메디칼프라자 401호","category":"의원 - 치과의원"},{"name":"경희부부한의원","tel":"031-529-0066","addr":"경기도 남양주시 진접읍 금곡리 1094-2번지 진원메디칼프라자 501호","category":"의원 - 한의원"},{"name":"내일do네일","tel":"031-528-2262","addr":"경기도 남양주시 진접읍 금곡리 1094-2번지 진원메디컬프라자 402호","category":"보건위생 - 피부미용실"},{"name":"레전드영어학원","tel":"031-528-3615","addr":"경기도 남양주시 진접읍 금곡리 1094-2번지 602호","category":"학원 - 보습학원"},{"name":"로제타스톤에듀학원","tel":"031-575-8052","addr":"경기도 남양주시 진접읍 금곡리 1094-2번지 302호","category":"학원 - 보습학원"},{"name":"루시팬시카페","tel":"","addr":"경기도 남양주시 진접읍 금곡리 1094-2번지 6층 601호","category":"일반휴게음식 - 서양음식"},{"name":"만리장성","tel":"031-575-5318","addr":"경기도 남양주시 진접읍 금곡리 1094-2번지 202호","category":"일반휴게음식 - 중국식"},{"name":"명가옛날통닭","tel":"031-527-8585","addr":"경기도 남양주시 진접읍 금곡리 1094-2번지 진원빌딩 101호","category":"일반휴게음식 - 일반한식"},{"name":"안경박사진접점","tel":"031-574-1771","addr":"경기도 남양주시 진접읍 금곡리 1094-2번지 104호","category":"보건위생 - 안경"},{"name":"엠토학원","tel":"031-573-1208","addr":"경기도 남양주시 진접읍 금곡리 1094-2번지 진원프라자 501호","category":"학원 - 보습학원"},{"name":"이유미스킨케어","tel":"031-528-2262","addr":"경기도 남양주시 진접읍 금곡리 1094-2번지 진원메디칼프라자 402호 이유미스킨케어","category":"보건위생 - 피부미용실"},{"name":"조은맘소아청소년과의원","tel":"031-571-5382","addr":"경기도 남양주시 진접읍 금곡리 1094-2번지 진원메디칼프라자 301호","category":"의원 - 의원"},{"name":"카오북 (KAOBOOK)","tel":"","addr":"경기도 남양주시 진접읍 금곡리 1094-2번지 진원프라자 6층 601호","category":"서적문구 - 일반서적"},{"name":"해밀약국","tel":"031-527-3275","addr":"경기도 남양주시 진접읍 금곡리 1094-2번지 102호","category":"약국 - 약국"}]},{"lat":"37.724715524","long":"127.20814253","items":[{"name":"C3영어학원","tel":"031-527-7233","addr":"경기도 남양주시 진접읍 금곡리 1002-1번지 새롬프라자 3층 301,302호","category":"학원 - 외국어학원"},{"name":"INS미술교습소","tel":"031-575-4398","addr":"경기도 남양주시 진접읍 금곡리 1002-1번지 새롬프라자 404호","category":"학원 - 예·체능계학원"},{"name":"e해법셀파수학학원","tel":"031-575-0133","addr":"경기도 남양주시 진접읍 금곡리 1002-1번지 새롬프라자 403호","category":"학원 - 보습학원"},{"name":"도도헤어","tel":"","addr":"경기도 남양주시 진접읍 금곡리 1002-1번지 주건축물제 1동 1층 일부","category":"보건위생 - 미용원"},{"name":"떡순이분식","tel":"032-528-9176","addr":"경기도 남양주시 진접읍 금곡리 1002-1번지 주건축물제1동 104호","category":"일반휴게음식 - 일반한식"},{"name":"멀티스터디수학교습소","tel":"","addr":"경기도 남양주시 진접읍 금곡리 1002-1번지 3층 304호","category":"학원 - 보습학원"},{"name":"새롬약국","tel":"031-527-0732","addr":"경기도 남양주시 진접읍 금곡리 1002-1번지 새롬프라자 1층 102호","category":"약국 - 약국"},{"name":"새롬연합의원","tel":"031-528-8278","addr":"경기도 남양주시 진접읍 금곡리 1002-1번지 새롬프라자 2층 201호, 202호","category":"의원 - 의원"},{"name":"조민희뮤직캐슬음악학원","tel":"031-573-0302","addr":"경기도 남양주시 진접읍 금곡리 1002-1번지 3층 303호","category":"학원 - 예·체능계학원"},{"name":"커피베이 진접해밀예당점","tel":"031-572-9322","addr":"경기도 남양주시 진접읍 금곡리 1002-1번지 1층 101호","category":"일반휴게음식 - 서양음식"},{"name":"파워점핑줄넘기유아스포츠","tel":"031-528-7333","addr":"경기도 남양주시 진접읍 금곡리 1002-1번지 새롬프라자 4층 401,402호","category":"학원 - 기타 교육기관"},{"name":"회뜨네","tel":"031-595-4847","addr":"경기도 남양주시 진접읍 금곡리 1002-1번지 새롬프라자 1층 105호","category":"일반휴게음식 - 일식·회집"}]},{"lat":"37.72057312","long":"127.19630115","items":[{"name":"CAFE.973 (카페.973)","tel":"031-574-9730","addr":"경기도 남양주시 진접읍 금곡리 973-4번지 진접프라자 1층 101,102호","category":"일반휴게음식 - 서양음식"},{"name":"에스티와이 텔레콤 진접점","tel":"","addr":"경기도 남양주시 진접읍 금곡리 973-4번지 1층 3,4호","category":"사무통신 - 통신기기"}]},{"lat":"37.730854786","long":"127.21114289","items":[{"name":"Dada","tel":"02-6396-7155","addr":"경기도 남양주시 진접읍 금곡리 352-4번지","category":"가구 - 일반가구"}]},{"lat":"37.714332884","long":"127.19968732","items":[{"name":"Fatoz","tel":"031-575-5773","addr":"경기도 남양주시 진접읍 금곡리 1107번지 부영사랑으로 1804동 203호","category":"회원제형태 - 기타4"}]},{"lat":"37.714849556","long":"127.19780602","items":[{"name":"GMS정훈도장","tel":"031-574-4059","addr":"경기도 남양주시 진접읍 금곡리 1094-1번지 폴리프라자II 401호","category":"학원 - 예·체능계학원"},{"name":"두찜 진접점","tel":"031-575-7580","addr":"경기도 남양주시 진접읍 금곡리 1094-1번지 폴리프라자II 201호","category":"일반휴게음식 - 일반한식"},{"name":"디투미용실","tel":"031-574-2657","addr":"경기도 남양주시 진접읍 금곡리 1094-1번지 폴리프라자 2층 203호 2","category":"보건위생 - 미용원"},{"name":"소리엘어드벤쳐음악학원","tel":"031-529-0771","addr":"경기도 남양주시 진접읍 금곡리 1094-1번지 플리프라자2) 403호","category":"학원 - 예·체능계학원"},{"name":"수와식영재학원","tel":"031-529-1319","addr":"경기도 남양주시 진접읍 금곡리 1094-1번지 (폴리프라자II 502호,503호)","category":"학원 - 보습학원"},{"name":"얀스킨앤바디","tel":"031-529-1019","addr":"경기도 남양주시 진접읍 금곡리 1094-1번지 폴리프라자II 2층 202호","category":"보건위생 - 피부미용실"},{"name":"웰빙푸줏간","tel":"031-573-4006","addr":"경기도 남양주시 진접읍 금곡리 1094-1번지 폴리프라자II 103호","category":"음료식품 - 정육점"},{"name":"이디야커피","tel":"031-529-2622","addr":"경기도 남양주시 진접읍 금곡리 1094-1번지 폴리프라자Ⅱ 104호","category":"일반휴게음식 - 서양음식"},{"name":"주식회사투엠정보","tel":"031-527-7494","addr":"경기도 남양주시 진접읍 금곡리 1094-1번지 폴리프라자II 1층 104호","category":"용역 서비스 - 종합용역"},{"name":"진접 예당검도관","tel":"031-571-0086","addr":"경기도 남양주시 진접읍 금곡리 1094-1번지 폴리프라자II 301호","category":"학원 - 예·체능계학원"},{"name":"진접빵","tel":"031-574-2894","addr":"경기도 남양주시 진접읍 금곡리 1094-1번지 폴리프라자II 102호","category":"음료식품 - 제과점"},{"name":"진접아발론어학원","tel":"031-529-0584","addr":"경기도 남양주시 진접읍 금곡리 1094-1번지 폴리프라자2) 501호","category":"학원 - 외국어학원"},{"name":"진접영재들의미술상자미술교습소","tel":"031-527-5560","addr":"경기도 남양주시 진접읍 금곡리 1094-1번지 폴리프라자II 402호","category":"학원 - 예·체능계학원"},{"name":"홍루이젠 진접점","tel":"031-527-8787","addr":"경기도 남양주시 진접읍 금곡리 1094-1번지 폴리프라자II 1층 101호","category":"일반휴게음식 - 서양음식"}]},{"lat":"37.720271431","long":"127.19345348","items":[{"name":"GS25진접유보라점","tel":"02-2006-2485","addr":"경기도 남양주시 진접읍 금곡리 971번지 해밀마을5단지반도유보라메이플 상가 102호","category":"유통업 영리 - 편 의 점"},{"name":"소문난미용실","tel":"031-575-7064","addr":"경기도 남양주시 진접읍 금곡리 971번지 해밀마을5단지반도유보라메이플타운 상가동 103-1호","category":"보건위생 - 미용원"}]},{"lat":"37.712182327","long":"127.18683233","items":[{"name":"GS25진접중앙점","tel":"","addr":"경기도 남양주시 진접읍 금곡리 1081-1번지","category":"유통업 영리 - 편 의 점"},{"name":"곰아저씨 아동발달센터","tel":"031-572-5575","addr":"경기도 남양주시 진접읍 금곡리 1081-1번지 화성프라자 501호","category":"보건위생 - 기타대인서비스"},{"name":"꼬지사께","tel":"031-528-4828","addr":"경기도 남양주시 진접읍 금곡리 1081-1번지 화성프라자 1동 110호","category":"일반휴게음식 - 일반한식"},{"name":"노가리슈퍼","tel":"031-527-9042","addr":"경기도 남양주시 진접읍 금곡리 1081-1번지 화성프라자","category":"일반휴게음식 - 주점"},{"name":"농부축산","tel":"","addr":"경기도 남양주시 진접읍 금곡리 1081-1번지 화성프라자 108호","category":"음료식품 - 정육점"},{"name":"더나은한의원","tel":"031-571-7582","addr":"경기도 남양주시 진접읍 금곡리 1081-1번지 화성프라자 302호","category":"의원 - 한의원"},{"name":"범약국","tel":"031-825-7031","addr":"경기도 남양주시 진접읍 금곡리 1081-1번지 화성프라자 104호","category":"약국 - 약국"},{"name":"비비큐진접택지점","tel":"031-528-9211","addr":"경기도 남양주시 진접읍 금곡리 1081-1번지 화성프라자 109호","category":"일반휴게음식 - 주점"},{"name":"빠리에서온에스테틱","tel":"031-571-7874","addr":"경기도 남양주시 진접읍 금곡리 1081-1번지 화성프라자 303호","category":"보건위생 - 피부미용실"},{"name":"사진전경","tel":"031-573-3566","addr":"경기도 남양주시 진접읍 금곡리 1081-1번지 화성프라자 304호","category":"광학제품 - 사진관"},{"name":"삼성에이스내과의원","tel":"031-573-2009","addr":"경기도 남양주시 진접읍 금곡리 1081-1번지 화성프라자 4층 401호","category":"의원 - 의원"},{"name":"아이원안과의원","tel":"031-529-5116","addr":"경기도 남양주시 진접읍 금곡리 1081-1번지 화성프라자 4층 403호","category":"의원 - 의원"},{"name":"아이코드안경원","tel":"031-528-8008","addr":"경기도 남양주시 진접읍 금곡리 1081-1번지 화성프라자 106호","category":"보건위생 - 안경"},{"name":"알파수학학원","tel":"031-529-3235","addr":"경기도 남양주시 진접읍 금곡리 1081-1번지 화성프라자 901호","category":"학원 - 보습학원"},{"name":"알파영어학원","tel":"031-529-3205","addr":"경기도 남양주시 진접읍 금곡리 1081-1번지 화성프라자 901-1호","category":"학원 - 외국어학원"},{"name":"어썸팩토리진접독서실","tel":"031-573-9606","addr":"경기도 남양주시 진접읍 금곡리 1081-1번지 화성프라자 702호 ,703,704호","category":"학원 - 독서실"},{"name":"에이스고기빠","tel":"031-000-0000","addr":"경기도 남양주시 진접읍 금곡리 1081-1번지 화성프라자 108호","category":"일반휴게음식 - 일반한식"},{"name":"연세믿음치과","tel":"070-7707-2828","addr":"경기도 남양주시 진접읍 금곡리 1081-1번지 화성프라자 1동 402호","category":"의원 - 치과의원"},{"name":"연세웰키즈치과","tel":"031-575-7522","addr":"경기도 남양주시 진접읍 금곡리 1081-1번지 화성프라자 3층 301호","category":"의원 - 치과의원"},{"name":"용인대 홍룡 태권도 체육관","tel":"031-575-3050","addr":"경기도 남양주시 진접읍 금곡리 1081-1번지 화성프라자 904동 903호","category":"학원 - 예·체능계학원"},{"name":"주식회사 청림","tel":"031-527-3329","addr":"경기도 남양주시 진접읍 금곡리 1081-1번지 화성프라자 10층 1001~1004호","category":"학원 - 보습학원"},{"name":"주식회사탑앤탑컴퍼니","tel":"02-1800-7881","addr":"경기도 남양주시 진접읍 금곡리 1081-1번지 화성프라자 601호","category":"의류 - 정장"},{"name":"진접 화성프라자 관리단","tel":"02-406-1618","addr":"경기도 남양주시 진접읍 금곡리 1081-1번지 화성프라자 1층 관리사무실","category":"자동차정비 유지 - 주차장"},{"name":"진접올가국어학원","tel":"031-529-7898","addr":"경기도 남양주시 진접읍 금곡리 1081-1번지 화성프라자 701호 일부","category":"학원 - 보습학원"},{"name":"차수학학원","tel":"031-572-2992","addr":"경기도 남양주시 진접읍 금곡리 1081-1번지 화성프라자 404호","category":"학원 - 보습학원"},{"name":"청담바롬의원","tel":"031-573-4041","addr":"경기도 남양주시 진접읍 금곡리 1081-1번지 화성프라자 502호","category":"의원 - 의원"},{"name":"청림 교육컨설팅센터","tel":"031-875-8702","addr":"경기도 남양주시 진접읍 금곡리 1081-1번지 화성프라자 701호","category":"용역 서비스 - 사무서비스"},{"name":"크리스티영어앤중국어학원","tel":"031-528-5825","addr":"경기도 남양주시 진접읍 금곡리 1081-1번지 화성프라자 504호","category":"학원 - 외국어학원"},{"name":"파리바게뜨","tel":"031-571-8204","addr":"경기도 남양주시 진접읍 금곡리 1081-1번지 화성프라자 107호","category":"음료식품 - 제과점"},{"name":"폭탄머리","tel":"031-529-2589","addr":"경기도 남양주시 진접읍 금곡리 1081-1번지 화성프라자 203호","category":"보건위생 - 미용원"},{"name":"피자헛(진접점)","tel":"031-575-4300","addr":"경기도 남양주시 진접읍 금곡리 1081-1번지 화성프라자","category":"일반휴게음식 - 서양음식"}]},{"lat":"37.711433044","long":"127.18778311","items":[{"name":"JC보건산업","tel":"031-572-1441","addr":"경기도 남양주시 진접읍 금곡리 1083-4번지 리첸타워 4층 406호","category":"보건위생 - 의료용품"},{"name":"골드 스웨디시 테라피","tel":"","addr":"경기도 남양주시 진접읍 금곡리 1083-4번지 리첸타워 605,606호","category":"보건위생 - 화장품"},{"name":"곱분이곱창","tel":"031-523-9282","addr":"경기도 남양주시 진접읍 금곡리 1083-4번지 리첸타워 1층 106호","category":"일반휴게음식 - 일반한식"},{"name":"광장포차","tel":"031-573-6303","addr":"경기도 남양주시 진접읍 금곡리 1083-4번지 101,102호","category":"일반휴게음식 - 주점"},{"name":"도깨비","tel":"031-571-8765","addr":"경기도 남양주시 진접읍 금곡리 1083-4번지 리첸타워 1층 103호","category":"일반휴게음식 - 일반한식"},{"name":"리첸당구클럽","tel":"031-574-0418","addr":"경기도 남양주시 진접읍 금곡리 1083-4번지 리첸타워 403호 404호","category":"레저업소 - 당 구 장"},{"name":"배배뷰티","tel":"","addr":"경기도 남양주시 진접읍 금곡리 1083-4번지 리첸타워 604호","category":"보건위생 - 미용재료"},{"name":"샤인 빠","tel":"031-529-7036","addr":"경기도 남양주시 진접읍 금곡리 1083-4번지 리첸타워 204호","category":"일반휴게음식 - 주점"},{"name":"샹떼PC금곡리점","tel":"031-000-0000","addr":"경기도 남양주시 진접읍 금곡리 1083-4번지 리첸타워 401호, 402호","category":"레저업소 - 기타레져업소"},{"name":"엔젤노래연습장","tel":"070-7799-2775","addr":"경기도 남양주시 진접읍 금곡리 1083-4번지 리첸타워 301동 303호","category":"레저업소 - 노 래 방"},{"name":"제이락볼링앤펍","tel":"","addr":"경기도 남양주시 진접읍 금곡리 1083-4번지 리첸타워 7층 701호","category":"레저업소 - 볼 링 장"},{"name":"제일참숯불갈비","tel":"031-574-8956","addr":"경기도 남양주시 진접읍 금곡리 1083-4번지 리첸타워 107동 108호","category":"일반휴게음식 - 일반한식"},{"name":"카페베네진접지구점","tel":"031-575-6231","addr":"경기도 남양주시 진접읍 금곡리 1083-4번지 (리첸타워101호,102호,201호,202호)","category":"일반휴게음식 - 서양음식"},{"name":"커피집오후2시","tel":"031-514-5747","addr":"경기도 남양주시 진접읍 금곡리 1083-4번지 리첸타워 105호","category":"일반휴게음식 - 일반한식"},{"name":"킹스빈코리아","tel":"070-4233-7736","addr":"경기도 남양주시 진접읍 금곡리 1083-4번지 리첸타워 506호","category":"음료식품 - 기타음료식품"},{"name":"파크존남양주","tel":"","addr":"경기도 남양주시 진접읍 금곡리 1083-4번지 리첸타워","category":"자동차정비 유지 - 주차장"},{"name":"하트케어","tel":"","addr":"경기도 남양주시 진접읍 금곡리 1083-4번지 리첸타워 505호","category":"보건위생 - 의료용품"},{"name":"해뜨는묵호항","tel":"031-529-6620","addr":"경기도 남양주시 진접읍 금곡리 1083-4번지 (리첸타워109,110)","category":"일반휴게음식 - 일반한식"},{"name":"헤이미쉬카페(HEIMISH CAFE)","tel":"031-514-5747","addr":"경기도 남양주시 진접읍 금곡리 1083-4번지 리첸타워 1층 105호","category":"일반휴게음식 - 서양음식"},{"name":"현스킨케어","tel":"031-624-4208","addr":"경기도 남양주시 진접읍 금곡리 1083-4번지 리첸타워 203호","category":"보건위생 - 피부미용실"}]},{"lat":"37.719959408","long":"127.19694606","items":[{"name":"LG인테리어","tel":"031-574-0232","addr":"경기도 남양주시 진접읍 금곡리 974-1번지 102호","category":"건축자재 - 인테리어전문"},{"name":"강무관합기도","tel":"031-529-3289","addr":"경기도 남양주시 진접읍 금곡리 974-1번지 401호","category":"학원 - 예·체능계학원"},{"name":"기쁜심리발달센터","tel":"031-527-9929","addr":"경기도 남양주시 진접읍 금곡리 974-1번지 302호","category":"보건위생 - 기타대인서비스"},{"name":"두뇌로영재학원","tel":"031-572-0055","addr":"경기도 남양주시 진접읍 금곡리 974-1번지 금화프라자 502호","category":"학원 - 보습학원"},{"name":"디저트39","tel":"031-575-7437","addr":"경기도 남양주시 진접읍 금곡리 974-1번지 103호","category":"일반휴게음식 - 서양음식"},{"name":"떡카롱","tel":"031-529-7679","addr":"경기도 남양주시 진접읍 금곡리 974-1번지 금화빌딩 109호","category":"음료식품 - 기타음료식품"},{"name":"루트원영수학원","tel":"031-529-5505","addr":"경기도 남양주시 진접읍 금곡리 974-1번지 602호","category":"학원 - 보습학원"},{"name":"린덴바움학원","tel":"070-7796-1115","addr":"경기도 남양주시 진접읍 금곡리 974-1번지 5층 501호","category":"학원 - 예·체능계학원"},{"name":"마션펫사롱","tel":"031-528-6263","addr":"경기도 남양주시 진접읍 금곡리 974-1번지 203호 일부","category":"문화.취미 - 애완동물"},{"name":"미리내#","tel":"","addr":"경기도 남양주시 진접읍 금곡리 974-1번지 110호","category":"의류 - 정장"},{"name":"벨라에스테틱","tel":"031-528-1077","addr":"경기도 남양주시 진접읍 금곡리 974-1 303-2호","category":"회원제형태 - 기타4"},{"name":"보스톤치과의원","tel":"031-528-8275","addr":"경기도 남양주시 진접읍 금곡리 974-1번지 금화프라자 3층 301호","category":"의원 - 치과의원"},{"name":"봄날노인주간보호센터","tel":"031-529-1846","addr":"경기도 남양주시 진접읍 금곡리 974-1번지 금화프라자 4층 403호","category":"기타의료기관 - 기타의료기관 및 기타"},{"name":"손톱물감","tel":"","addr":"경기도 남양주시 진접읍 금곡리 974-1번지 금화프라자 303-1호","category":"보건위생 - 피부미용실"},{"name":"신전떡볶이","tel":"031-528-2818","addr":"경기도 남양주시 진접읍 금곡리 974-1번지 1층 108호","category":"일반휴게음식 - 스넥"},{"name":"아카데미라운지 진접독서실","tel":"031-528-1079","addr":"경기도 남양주시 진접읍 금곡리 974-1번지 603,604호","category":"학원 - 독서실"},{"name":"앤에스에이치공간건축","tel":"031-529-2251","addr":"경기도 남양주시 진접읍 금곡리 974-1 금화프라자503-1호","category":"용역 서비스 - 기타용역서비스"},{"name":"예당떡집","tel":"031-528-5822","addr":"경기도 남양주시 진접읍 금곡리 974-1번지 105호","category":"음료식품 - 제과점"},{"name":"위드플러스학원","tel":"","addr":"경기도 남양주시 진접읍 금곡리 974-1번지 204호","category":"학원 - 보습학원"},{"name":"제이와이에스영어학원","tel":"031-528-0512","addr":"경기도 남양주시 진접읍 금곡리 974-1번지 5층 502호","category":"학원 - 보습학원"},{"name":"짱닭치킨","tel":"031-527-2644","addr":"경기도 남양주시 진접읍 금곡리 974-1번지 106호","category":"일반휴게음식 - 스넥"},{"name":"편의점사랑 진접금곡점","tel":"031-575-9575","addr":"경기도 남양주시 진접읍 금곡리 974-1번지 101호","category":"유통업 영리 - 슈퍼마켓"},{"name":"폴수학학원","tel":"031-528-4689","addr":"경기도 남양주시 진접읍 금곡리 974-1번지 304호","category":"학원 - 보습학원"},{"name":"표현미술학원","tel":"031-572-0730","addr":"경기도 남양주시 진접읍 금곡리 974-1번지 금화프라자 601호","category":"학원 - 예·체능계학원"},{"name":"하이베스트학원","tel":"031-575-1228","addr":"경기도 남양주시 진접읍 금곡리 974-1번지 402호","category":"학원 - 보습학원"},{"name":"하이클래스학원","tel":"031-527-2422","addr":"경기도 남양주시 진접읍 금곡리 974-1번지 금화프라자 203호 일부","category":"학원 - 보습학원"},{"name":"헤어573","tel":"031-529-4188","addr":"경기도 남양주시 진접읍 금곡리 974-1번지","category":"보건위생 - 미용원"},{"name":"현앤장수학진접학원","tel":"031-510-5020","addr":"경기도 남양주시 진접읍 금곡리 974-1번지 201,202호","category":"학원 - 보습학원"}]},{"lat":"37.719412654","long":"127.20066483","items":[{"name":"LULOS 루로스","tel":"","addr":"경기도 남양주시 진접읍 금곡리 1036번지 원영빌딩 1층 102호","category":"의류 - 정장"},{"name":"어수정의정부부대찌개","tel":"031-572-8998","addr":"경기도 남양주시 진접읍 금곡리 1036번지 1층 103호","category":"일반휴게음식 - 일반한식"}]},{"lat":"37.725578815","long":"127.20385726","items":[{"name":"MJ물산","tel":"031-573-0034","addr":"경기도 남양주시 진접읍 금곡리 513-8번지 2층 204호","category":"사무통신 - 통신기기"},{"name":"참미당 주식회사","tel":"031-532-1698","addr":"경기도 남양주시 진접읍 금곡리 513-8번지 3층","category":"신변잡화 - 기타잡화"}]},{"lat":"37.725507175","long":"127.20882529","items":[{"name":"My25","tel":"031-575-0201","addr":"경기도 남양주시 진접읍 금곡리 995번지 휴먼시아 2401동 303호","category":"가구 - 일반가구"}]},{"lat":"37.721103025","long":"127.20269959","items":[{"name":"M핫요가","tel":"031-529-0278","addr":"경기도 남양주시 진접읍 금곡리 1021번지 6층602,603,604,605호","category":"레저업소 - 헬스클럽"},{"name":"기노전문점","tel":"031-573-2987","addr":"경기도 남양주시 진접읍 금곡리 1021번지 진접메기컬센터 601호","category":"보건위생 - 화장품"},{"name":"소담촌진접점","tel":"031-571-3941","addr":"경기도 남양주시 진접읍 금곡리 1021번지 4층","category":"일반휴게음식 - 일반한식"},{"name":"아띠-L flower","tel":"","addr":"경기도 남양주시 진접읍 금곡리 1021번지 진접메디컬센터 1층 102호","category":"문화.취미 - 화원"},{"name":"에이플러스A+늘봄요양원","tel":"070-1111-1111","addr":"경기도 남양주시 진접읍 금곡리 1021번지 진접메디컬센터 5층 501호","category":"기타의료기관 - 기타의료기관 및 기타"},{"name":"제로취","tel":"031-527-7420","addr":"경기도 남양주시 진접읍 금곡리 1021번지 진접메디컬센터 704호","category":"용역 서비스 - 종합용역"},{"name":"진접노인복지센터","tel":"031-000-0000","addr":"경기도 남양주시 진접읍 금곡리 1021번지 진접메디컬센터 901호","category":"기타의료기관 - 기타의료기관 및 기타"},{"name":"진접애견미용","tel":"031-571-9634","addr":"경기도 남양주시 진접읍 금곡리 1021번지 제일프라자 108호","category":"문화.취미 - 애완동물"},{"name":"진접요양원","tel":"031-559-0747","addr":"경기도 남양주시 진접읍 금곡리 1021번지 8층","category":"기타의료기관 - 기타의료기관 및 기타"},{"name":"통큰대게","tel":"031-528-1599","addr":"경기도 남양주시 진접읍 금곡리 1021번지 105호,106호,107호","category":"일반휴게음식 - 일반한식"}]},{"lat":"37.714547039","long":"127.20622048","items":[{"name":"NH가구","tel":"070-8273-4071","addr":"경기도 남양주시 진접읍 금곡리 805-2번지","category":"가구 - 일반가구"}]},{"lat":"37.712244384","long":"127.18747892","items":[{"name":"R모드 입시미술학원","tel":"031-575-5665","addr":"경기도 남양주시 진접읍 금곡리 1082-1번지 401호","category":"학원 - 예·체능계학원"},{"name":"오뜰세컨(oddle 2nd)","tel":"031-572-9361","addr":"경기도 남양주시 진접읍 금곡리 1082-1번지 102호","category":"신변잡화 - 신발"},{"name":"정글만리","tel":"031-0000-0000","addr":"경기도 남양주시 진접읍 금곡리 1082-1번지","category":"일반휴게음식 - 중국식"}]},{"lat":"37.723815064","long":"127.20785647","items":[{"name":"SLT스카이학원","tel":"031-574-0577","addr":"경기도 남양주시 진접읍 금곡리 1117번지 신안안스빌 상가동 201호,202호의 1/2호","category":"학원 - 보습학원"},{"name":"샤벨라헤어","tel":"031-527-2553","addr":"경기도 남양주시 진접읍 금곡리 1117번지 신안인스빌 상가동 206호","category":"보건위생 - 미용원"},{"name":"예당음악학원","tel":"031-527-2090","addr":"경기도 남양주시 진접읍 금곡리 1117","category":"학원 - 예·체능계학원"},{"name":"용인대예당태권도","tel":"031-573-8200","addr":"경기도 남양주시 진접읍 금곡리 1117 신안인스빌 204호.205호","category":"학원 - 예·체능계학원"},{"name":"은새어린이집[아이행복]","tel":"031-571-8854","addr":"경기도 남양주시 진접읍 금곡리 1117번지 신안인스빌","category":"학원 - 유아원"}]},{"lat":"37.724712828","long":"127.20968515","items":[{"name":"SONG솔루션","tel":"031-000-0000","addr":"경기도 남양주시 진접읍 금곡리 995번지 휴먼시아 2403동 1505호","category":"전기제품 - 냉열기기"},{"name":"새마을","tel":"031-111-1111","addr":"경기도 남양주시 진접읍 금곡리 995번지 휴먼시아 2403동 1301호","category":"음료식품 - 농·축·수산품"}]},{"lat":"37.717961089","long":"127.20127343","items":[{"name":"STYLE 스타일","tel":"","addr":"경기도 남양주시 진접읍 금곡리 1041번지 105호","category":"의류 - 정장"},{"name":"굽네치킨 진접택지","tel":"031-529-9482","addr":"경기도 남양주시 진접읍 금곡리 1041번지 101호","category":"일반휴게음식 - 스넥"},{"name":"미니스톱 진접금곡점","tel":"031-1577-9621","addr":"경기도 남양주시 진접읍 금곡리 1041번지 1층","category":"유통업 영리 - 편 의 점"}]},{"lat":"37.721604644","long":"127.20441364","items":[{"name":"Yes헤어","tel":"070-8868-1269","addr":"경기도 남양주시 진접읍 금곡리 1017-5번지 1층 101호","category":"보건위생 - 미용원"},{"name":"노피노피","tel":"","addr":"경기도 남양주시 진접읍 금곡리 1017-5번지 401호","category":"학원 - 기타 교육기관"},{"name":"솜씨쟁이","tel":"031-527-4570","addr":"경기도 남양주시 진접읍 금곡리 1017-5번지","category":"직물 - 침구·수예점"},{"name":"아이스킹진접점","tel":"031-111-1111","addr":"경기도 남양주시 진접읍 금곡리 1017-5번지 103호","category":"음료식품 - 기타음료식품"}]},{"lat":"37.715715256","long":"127.21308527","items":[{"name":"가마솥골가든","tel":"031-571-8677","addr":"경기도 남양주시 진접읍 금곡리 206번지","category":"일반휴게음식 - 일반한식"},{"name":"가마솥골가든","tel":"070-7529-8843","addr":"경기도 남양주시 진접읍 금곡리 206번지","category":"일반휴게음식 - 일반한식"}]},{"lat":"37.728208804","long":"127.20432944","items":[{"name":"가온퍼니처","tel":"031-528-2958","addr":"경기도 남양주시 진접읍 금곡리 495-3번지","category":"가구 - 기타가구"}]},{"lat":"37.72620978","long":"127.20890664","items":[{"name":"가인건축","tel":"070-8276-1664","addr":"경기도 남양주시 진접읍 금곡리 995번지 휴먼시아 2408동 2004호","category":"회원제형태 - 기타4"},{"name":"현대윤활유","tel":"031-571-9715","addr":"경기도 남양주시 진접읍 금곡리 995번지 휴먼시아 2408동 801호","category":"회원제형태 - 기타3"}]},{"lat":"37.715822433","long":"127.20327517","items":[{"name":"감로사","tel":"031-528-9742","addr":"경기도 남양주시 진접읍 금곡리 841-9번지 3층","category":"기타 - 비영리/대상"}]},{"lat":"37.715128026","long":"127.19830577","items":[{"name":"감탄","tel":"031-528-5882","addr":"경기도 남양주시 진접읍 금곡리 1095번지 호평프라자 109호","category":"일반휴게음식 - 스넥"},{"name":"강의하는아이들 진접학원","tel":"031-528-9202","addr":"경기도 남양주시 진접읍 금곡리 1095번지 호평프라자 603호","category":"학원 - 보습학원"},{"name":"경희대최강태권도장","tel":"031-528-1218","addr":"경기도 남양주시 진접읍 금곡리 1095번지 호평프라자 5층 504호","category":"학원 - 예·체능계학원"},{"name":"고운여성의원","tel":"031-573-7580","addr":"경기도 남양주시 진접읍 금곡리 1095번지 호평프라자 401,402호","category":"의원 - 의원"},{"name":"리아더요가","tel":"031-572-9622","addr":"경기도 남양주시 진접읍 금곡리 1095번지 호평프라자 604호","category":"레저업소 - 헬스클럽"},{"name":"마음의 GYM 2호점","tel":"031-527-2775","addr":"경기도 남양주시 진접읍 금곡리 1095번지 호평프라자 7층","category":"레저업소 - 헬스클럽"},{"name":"뮤즈헤어","tel":"031-529-8088","addr":"경기도 남양주시 진접읍 금곡리 1095번지 110호(외1필지호평프라자)","category":"보건위생 - 미용원"},{"name":"본죽 (남양주 진접점)","tel":"031-529-6668","addr":"경기도 남양주시 진접읍 금곡리 1095번지 호평프라자 104호","category":"일반휴게음식 - 일반한식"},{"name":"서울외과의원","tel":"031-562-5755","addr":"경기도 남양주시 진접읍 금곡리 1095번지 호평프라자 403호","category":"의원 - 의원"},{"name":"오즈이비인후과","tel":"031-529-7511","addr":"경기도 남양주시 진접읍 금곡리 1095번지 호평프라자 301호","category":"의원 - 의원"},{"name":"이정훈해동검도","tel":"031-575-3335","addr":"경기도 남양주시 진접읍 금곡리 1095번지 호평프라자 203호","category":"레저업소 - 기타레져업소"},{"name":"전원주의손큰할매순대국","tel":"031-528-2426","addr":"경기도 남양주시 진접읍 금곡리 1095번지 호평프라자 202호","category":"일반휴게음식 - 일반한식"},{"name":"제니영어","tel":"031-527-0204","addr":"경기도 남양주시 진접읍 금곡리 1095번지 호평프라자 603호","category":"학원 - 보습학원"},{"name":"진아헤어","tel":"031-573-6412","addr":"경기도 남양주시 진접읍 금곡리 1095번지 호평프라자 204호","category":"보건위생 - 미용원"},{"name":"진접경희음악학원","tel":"031-529-0706","addr":"경기도 남양주시 진접읍 금곡리 1095번지 601호(외1필지호평프라자)","category":"학원 - 예·체능계학원"},{"name":"진접삼성영어학원","tel":"031-529-3905","addr":"경기도 남양주시 진접읍 금곡리 1095번지 호평프라자 503호","category":"학원 - 외국어학원"},{"name":"진접홍익미술학원","tel":"031-501-7796","addr":"경기도 남양주시 진접읍 금곡리 1095번지 호평프라자 602호","category":"학원 - 예·체능계학원"},{"name":"초례청","tel":"031-572-4007","addr":"경기도 남양주시 진접읍 금곡리 1095번지 호평프라자 105호","category":"음료식품 - 제과점"}]},{"lat":"37.715794651","long":"127.20371741","items":[{"name":"강선생의 진짜로 명태촌","tel":"031-573-5066","addr":"경기도 남양주시 진접읍 금곡리 841-3번지","category":"일반휴게음식 - 일반한식"},{"name":"엄마순대국","tel":"031-575-7679","addr":"경기도 남양주시 진접읍 금곡리 841-3번지","category":"일반휴게음식 - 일반한식"}]},{"lat":"37.72156632","long":"127.19498802","items":[{"name":"강호동치킨678 진접1호점","tel":"031-753-1678","addr":"경기도 남양주시 진접읍 금곡리 972-2번지 반도프라자 111호","category":"일반휴게음식 - 주점"},{"name":"뚜레쥬르 진접반도","tel":"031-571-0804","addr":"경기도 남양주시 진접읍 금곡리 972-2번지 반도프라자 109호","category":"음료식품 - 제과점"},{"name":"미소손칼국수","tel":"031-528-0558","addr":"경기도 남양주시 진접읍 금곡리 972-2번지 반도프라자 204호","category":"일반휴게음식 - 일반한식"},{"name":"쁘띠헤어","tel":"031-574-8674","addr":"경기도 남양주시 진접읍 금곡리 972-2번지 반도프라자 110호","category":"보건위생 - 미용원"},{"name":"상구비어","tel":"031-572-3925","addr":"경기도 남양주시 진접읍 금곡리 972-2번지 반도프라자 104호","category":"일반휴게음식 - 주점"},{"name":"세븐일레븐진접반도프라자점","tel":"031-1577-0711","addr":"경기도 남양주시 진접읍 금곡리 972-2번지 반도프라자 108호","category":"유통업 영리 - 편 의 점"},{"name":"앗싸포장마차","tel":"031-528-3352","addr":"경기도 남양주시 진접읍 금곡리 972-2번지 반도프라자 102호","category":"일반휴게음식 - 일반한식"},{"name":"오레시피 (진접점)","tel":"031-575-7787","addr":"경기도 남양주시 진접읍 금곡리 972-2번지 반도프라자 1층 106호","category":"음료식품 - 기타음료식품"},{"name":"오렌지팟 진접점","tel":"070-8796-4528","addr":"경기도 남양주시 진접읍 금곡리 972-2번지 반도프라자","category":"서적문구 - 문구용품"},{"name":"짝태와노가리","tel":"031-574-0977","addr":"경기도 남양주시 진접읍 금곡리 972-2번지 반도프라자 105호","category":"일반휴게음식 - 주점"},{"name":"착한물고기","tel":"031-571-8959","addr":"경기도 남양주시 진접읍 금곡리 972-2번지 반도프라자 1층 107호","category":"일반휴게음식 - 일반한식"},{"name":"총각네생고기","tel":"031-1111-1111","addr":"경기도 남양주시 진접읍 금곡리 972-2번지 반도프라자 101호","category":"일반휴게음식 - 일반한식"},{"name":"헤이피자 진접점","tel":"031-571-5726","addr":"경기도 남양주시 진접읍 금곡리 972-2번지 반도프라자 103호","category":"일반휴게음식 - 서양음식"},{"name":"힐링노래연습장","tel":"031-527-5407","addr":"경기도 남양주시 진접읍 금곡리 972-2번지 반도프라자202~203-2호","category":"레저업소 - 노 래 방"}]},{"lat":"37.713934626","long":"127.18974001","items":[{"name":"개인과외","tel":"","addr":"경기도 남양주시 진접읍 금곡리 1080번지 해밀마을신안인스빌아파트 1211동 102호","category":"학원 - 기타 교육기관"}]},{"lat":"37.715321655","long":"127.2010509","items":[{"name":"겨자씨어린이집[아이행복]","tel":"031-871-0091","addr":"경기도 남양주시 진접읍 금곡리 874번지","category":"학원 - 유아원"}]},{"lat":"37.717877186","long":"127.20294045","items":[{"name":"경기떡방앗간","tel":"031-572-5553","addr":"경기도 남양주시 진접읍 금곡리 1051-4번지","category":"음료식품 - 제과점"},{"name":"하마네식탁","tel":"","addr":"경기도 남양주시 진접읍 금곡리 1051-4번지","category":"일반휴게음식 - 일반한식"},{"name":"홍시부엌","tel":"031-527-2936","addr":"경기도 남양주시 진접읍 금곡리 1051-4번지 1층 1호","category":"일반휴게음식 - 일반한식"}]},{"lat":"37.73332247","long":"127.21167163","items":[{"name":"경복궁","tel":"031-572-3144","addr":"경기도 남양주시 진접읍 금곡리 379번지","category":"일반휴게음식 - 중국식"},{"name":"대학로","tel":"031-571-0133","addr":"경기도 남양주시 진접읍 금곡리 379번지","category":"일반휴게음식 - 일반한식"},{"name":"세븐일레븐남양주경복점","tel":"031-1577-0711","addr":"경기도 남양주시 진접읍 금곡리 379번지 1층 1,2,3호","category":"유통업 영리 - 편 의 점"},{"name":"진접간호학원","tel":"031-000-0000","addr":"경기도 남양주시 진접읍 금곡리 379번지 2층 201호","category":"학원 - 기능학원"},{"name":"카페쿠진","tel":"031-528-3076","addr":"경기도 남양주시 진접읍 금곡리 379번지 2층","category":"일반휴게음식 - 일반한식"},{"name":"칼라발라","tel":"031-528-3076","addr":"경기도 남양주시 진접읍 금곡리 379번지 2층 일부","category":"보건위생 - 피부미용실"}]},{"lat":"37.733987321","long":"127.21271717","items":[{"name":"경복당구장","tel":"031-574-7609","addr":"경기도 남양주시 진접읍 금곡리 375번지","category":"레저업소 - 당 구 장"},{"name":"맘스터치 경복대점","tel":"031-529-1553","addr":"경기도 남양주시 진접읍 금곡리 375번지 1층","category":"일반휴게음식 - 서양음식"},{"name":"신전떡볶이(경복대점)","tel":"031-573-2818","addr":"경기도 남양주시 진접읍 금곡리 375번지","category":"일반휴게음식 - 스넥"}]},{"lat":"37.732577383","long":"127.21013809","items":[{"name":"경복카써비스","tel":"031-572-5597","addr":"경기도 남양주시 진접읍 금곡리 438-6","category":"자동차정비 유지 - 자동차정비"}]},{"lat":"37.712126869","long":"127.18772813","items":[{"name":"경성술집","tel":"031-575-4185","addr":"경기도 남양주시 진접읍 금곡리 1082-6번지 104호","category":"일반휴게음식 - 주점"},{"name":"씨유진접최고점","tel":"031-528-0388","addr":"경기도 남양주시 진접읍 금곡리 1082-6번지 동구햇살프라자 103호","category":"유통업 영리 - 편 의 점"},{"name":"어디야 포차","tel":"031-111-1111","addr":"경기도 남양주시 진접읍 금곡리 1082-6번지 동구햇살프라자 101호","category":"일반휴게음식 - 주점"},{"name":"이자카야 the 마루","tel":"031-574-8960","addr":"경기도 남양주시 진접읍 금곡리 1082-6번지 1층 102호","category":"일반휴게음식 - 주점"},{"name":"호텔 하비비","tel":"031-528-6000","addr":"경기도 남양주시 진접읍 금곡리 1082-6번지 동구햇살프라자 6-10층","category":"숙박업 - 여관/기타숙박업"}]},{"lat":"37.712078941","long":"127.20061131","items":[{"name":"경원설비","tel":"031-594-4464","addr":"경기도 남양주시 진접읍 금곡리 1107번지 부영사랑으로 1822동 1402호","category":"회원제형태 - 기타4"}]},{"lat":"37.718130509","long":"127.19691861","items":[{"name":"경희대 해밀 태권도","tel":"031-527-1582","addr":"경기도 남양주시 진접읍 금곡리 1076-1번지 403호","category":"학원 - 예·체능계학원"},{"name":"러블리헤어","tel":"031-573-0098","addr":"경기도 남양주시 진접읍 금곡리 1076-1번지 102호","category":"보건위생 - 미용원"},{"name":"미쓰족발","tel":"070-7604-2478","addr":"경기도 남양주시 진접읍 금곡리 1076-1번지 1층 104호","category":"일반휴게음식 - 일반한식"},{"name":"삼성영어해밀학원","tel":"070-7405-0053","addr":"경기도 남양주시 진접읍 금곡리 1076-1번지 201호","category":"학원 - 외국어학원"},{"name":"스시어왕","tel":"031-528-2028","addr":"경기도 남양주시 진접읍 금곡리 1076-1번지 1층 101호","category":"일반휴게음식 - 일반한식"},{"name":"연세스피드학원","tel":"031-851-3265","addr":"경기도 남양주시 진접읍 금곡리 1076-1번지 해밀메디프라자 401호","category":"학원 - 보습학원"},{"name":"진접열린음악학원","tel":"","addr":"경기도 남양주시 진접읍 금곡리 1076-1번지 402호","category":"학원 - 예·체능계학원"},{"name":"카이퍼스트학원","tel":"031-529-4908","addr":"경기도 남양주시 진접읍 금곡리 1076-1번지 301호,302호","category":"학원 - 보습학원"},{"name":"프랭크서울(진접점)","tel":"031-529-7710","addr":"경기도 남양주시 진접읍 금곡리 1076-1번지 105호","category":"일반휴게음식 - 서양음식"}]},{"lat":"37.719463711","long":"127.20244567","items":[{"name":"고기요","tel":"031-574-9222","addr":"경기도 남양주시 진접읍 금곡리 1043번지 1층 115호","category":"일반휴게음식 - 일반한식"},{"name":"꼰대꽈배기","tel":"031-000-0000","addr":"경기도 남양주시 진접읍 금곡리 1043번지 주건축물제 1동 113호","category":"일반휴게음식 - 서양음식"},{"name":"다린국수(진접점)","tel":"031-572-2941","addr":"경기도 남양주시 진접읍 금곡리 1043번지 주건축물제1동 1층 114호","category":"일반휴게음식 - 일반한식"},{"name":"서울돈까스","tel":"031-571-8887","addr":"경기도 남양주시 진접읍 금곡리 1043번지 서울프라자 102호","category":"일반휴게음식 - 스넥"},{"name":"스시봄","tel":"031-575-5565","addr":"경기도 남양주시 진접읍 금곡리 1043번지 110호","category":"일반휴게음식 - 일식·회집"},{"name":"오늘 더 예쁨","tel":"","addr":"경기도 남양주시 진접읍 금곡리 1043번지 서울프라자 109호","category":"의류 - 정장"},{"name":"이디야커피전문점 진접역점","tel":"031-571-1130","addr":"경기도 남양주시 진접읍 금곡리 1043번지 주건축물제 1동 103,104호","category":"일반휴게음식 - 서양음식"},{"name":"인생해장국","tel":"031-573-7910","addr":"경기도 남양주시 진접읍 금곡리 1043번지 2층 201호","category":"일반휴게음식 - 일반한식"},{"name":"잇다","tel":"","addr":"경기도 남양주시 진접읍 금곡리 1043번지 서울프라자 101호","category":"일반휴게음식 - 일반한식"},{"name":"주주펫살롱","tel":"031-556-5345","addr":"경기도 남양주시 진접읍 금곡리 1043번지 서울프라자 116호","category":"문화.취미 - 애완동물"},{"name":"청년떡볶기","tel":"031-528-4176","addr":"경기도 남양주시 진접읍 금곡리 1043번지 1층 112호","category":"일반휴게음식 - 스넥"},{"name":"취룡양꼬치훠궈","tel":"031-573-8886","addr":"경기도 남양주시 진접읍 금곡리 1043번지 서울프라자 105,106,107호","category":"일반휴게음식 - 일반한식"}]},{"lat":"37.715020831","long":"127.19774976","items":[{"name":"고수회백호태권도","tel":"031-574-0605","addr":"경기도 남양주시 진접읍 금곡리 1094번지 중앙프라자 602호","category":"학원 - 예·체능계학원"},{"name":"금강약국","tel":"070-4413-2767","addr":"경기도 남양주시 진접읍 금곡리 1094번지 1층 102호","category":"약국 - 약국"},{"name":"꿀꿀이삼형제","tel":"031-528-6002","addr":"경기도 남양주시 진접읍 금곡리 1094번지 중앙프라자 201호","category":"일반휴게음식 - 일반한식"},{"name":"도담","tel":"031-575-1700","addr":"경기도 남양주시 진접읍 금곡리 1094번지 중앙프라자 301호","category":"회원제형태 - 건강식품"},{"name":"리드앤톡영어독서어학원","tel":"031-571-6202","addr":"경기도 남양주시 진접읍 금곡리 1094번지 502호","category":"학원 - 외국어학원"},{"name":"베스킨라빈스(진접점)","tel":"","addr":"경기도 남양주시 진접읍 금곡리 1094번지 1층 104호","category":"음료식품 - 제과점"},{"name":"색연필","tel":"031-574-8909","addr":"경기도 남양주시 진접읍 금곡리 1094번지 1층 101호","category":"서적문구 - 문구용품"},{"name":"쇼팽의빨강피아노학원","tel":"031-547-6000","addr":"경기도 남양주시 진접읍 금곡리 1094번지 601호","category":"학원 - 예·체능계학원"},{"name":"아가도시네헤어","tel":"031-527-1149","addr":"경기도 남양주시 진접읍 금곡리 1094번지 중앙프라자 202호","category":"보건위생 - 미용원"},{"name":"영산한의원","tel":"031-575-8185","addr":"경기도 남양주시 진접읍 금곡리 1094번지 중앙프라자 401호","category":"의원 - 한의원"},{"name":"우아네일","tel":"","addr":"경기도 남양주시 진접읍 금곡리 1094번지 105호","category":"보건위생 - 피부미용실"},{"name":"이사랑부부치과의원","tel":"031-529-0275","addr":"경기도 남양주시 진접읍 금곡리 1094번지 중앙프라자 302호","category":"의원 - 치과의원"},{"name":"장터치킨(진접2호)","tel":"031-571-9949","addr":"경기도 남양주시 진접읍 금곡리 1094번지 (1층105-1호)","category":"일반휴게음식 - 스넥"},{"name":"점프노리 진접점","tel":"031-529-1561","addr":"경기도 남양주시 진접읍 금곡리 1094번지 701호","category":"레저업소 - 기타레져업소"},{"name":"진이찬방","tel":"031-571-7133","addr":"경기도 남양주시 진접읍 금곡리 1094번지 1동 103호","category":"음료식품 - 기타음료식품"},{"name":"최진현소아청소년과","tel":"031-575-1700","addr":"경기도 남양주시 진접읍 금곡리 1094번지 중앙프라자 301호","category":"의원 - 의원"}]},{"lat":"37.727851292","long":"127.20789028","items":[{"name":"고흥축산","tel":"031-572-3556","addr":"경기도 남양주시 진접읍 금곡리 537-15","category":"음료식품 - 농·축·수산품"},{"name":"고흥축산","tel":"031-572-3556","addr":"경기도 남양주시 진접읍 금곡리 537-15","category":"음료식품 - 농·축·수산품"},{"name":"한방유통","tel":"031-572-3556","addr":"경기도 남양주시 진접읍 금곡리 537-15번지","category":"음료식품 - 농·축·수산품"},{"name":"한방유통","tel":"031-572-3556","addr":"경기도 남양주시 진접읍 금곡리 537-15","category":"음료식품 - 농·축·수산품"},{"name":"한방유통","tel":"031-572-3556","addr":"경기도 남양주시 진접읍 금곡리 537-15번지","category":"음료식품 - 농·축·수산품"},{"name":"한방유통","tel":"031-572-3556","addr":"경기도 남양주시 진접읍 금곡리 537-15","category":"음료식품 - 농·축·수산품"},{"name":"한방유통","tel":"031-572-3556","addr":"경기도 남양주시 진접읍 금곡리 537-15","category":"음료식품 - 농·축·수산품"}]},{"lat":"37.72116028","long":"127.19536127","items":[{"name":"곰세마리(돌복대여,답례품)","tel":"031-511-9909","addr":"경기도 남양주시 진접읍 금곡리 973번지 진접프라자 404호","category":"의류 - 기타의류"},{"name":"레드엠수학학원","tel":"031-571-4416","addr":"경기도 남양주시 진접읍 금곡리 973번지 진접프라자 603호","category":"학원 - 보습학원"},{"name":"바디메이크짐(BMG기구필라테스)","tel":"031-514-0880","addr":"경기도 남양주시 진접읍 금곡리 973번지 진접프라자 203호","category":"레저업소 - 헬스클럽"},{"name":"비너스뷰티","tel":"031-528-1003","addr":"경기도 남양주시 진접읍 금곡리 973번지 진접프라자 4층 402호","category":"보건위생 - 피부미용실"},{"name":"비엠지(BMG)","tel":"031-514-0880","addr":"경기도 남양주시 진접읍 금곡리 973번지 진접프라자 204호","category":"레저업소 - 헬스클럽"},{"name":"빠리와플","tel":"","addr":"경기도 남양주시 진접읍 금곡리 973번지 진접프라자 107호","category":"일반휴게음식 - 일반한식"},{"name":"선우","tel":"031-528-1239","addr":"경기도 남양주시 진접읍 금곡리 973번지 진접프라자 1동 5층 504호","category":"광학제품 - 사진관"},{"name":"와우 피씨 이-스포츠(WOW PC E-SPORTS)","tel":"070-4005-0418","addr":"경기도 남양주시 진접읍 금곡리 973번지 진접프라자 5층 501-503호","category":"레저업소 - 기타레져업소"},{"name":"조엘케이크","tel":"031-111-1111","addr":"경기도 남양주시 진접읍 금곡리 973번지 진접프라자 201호","category":"음료식품 - 제과점"},{"name":"진접종로엠학원","tel":"031-591-6388","addr":"경기도 남양주시 진접읍 금곡리 973번지 진접프라자 7층 701~704호","category":"학원 - 보습학원"},{"name":"치킨과바다","tel":"031-573-6685","addr":"경기도 남양주시 진접읍 금곡리 973번지 진접프라자 1층 101호","category":"일반휴게음식 - 일반한식"},{"name":"코리아헤럴드어학원","tel":"031-528-0532","addr":"경기도 남양주시 진접읍 금곡리 973번지 진접프라자 601,802호","category":"회원제형태 - 학원"},{"name":"퍼니퍼니 키즈쿡(아이쿡)","tel":"031-524-9920","addr":"경기도 남양주시 진접읍 금곡리 973번지 진접프라자 304호","category":"학원 - 기능학원"},{"name":"펠리스헤어","tel":"031-572-5114","addr":"경기도 남양주시 진접읍 금곡리 973번지 진접프라자 1층 105호","category":"보건위생 - 미용원"},{"name":"프로핏","tel":"031-000-0000","addr":"경기도 남양주시 진접읍 금곡리 973번지 진접프라자 303호","category":"레저업소 - 헬스클럽"},{"name":"피자랜드","tel":"031-529-2221","addr":"경기도 남양주시 진접읍 금곡리 973번지 진접프라자 107호","category":"일반휴게음식 - 스넥"}]},{"lat":"37.722915093","long":"127.20202391","items":[{"name":"공감실용음악학원","tel":"031-529-3217","addr":"경기도 남양주시 진접읍 금곡리 647-5번지 101호","category":"회원제형태 - 학원"}]},{"lat":"37.717987774","long":"127.20147765","items":[{"name":"교촌치킨 진접지구점","tel":"031-527-0401","addr":"경기도 남양주시 진접읍 금곡리 1041-1번지 1층","category":"일반휴게음식 - 스넥"}]},{"lat":"37.732771179","long":"127.21263433","items":[{"name":"구공탄냉면","tel":"031-573-2813","addr":"경기도 남양주시 진접읍 금곡리 365번지","category":"일반휴게음식 - 일반한식"},{"name":"돈부리유","tel":"031-529-5959","addr":"경기도 남양주시 진접읍 금곡리 365번지 나동 102호","category":"일반휴게음식 - 일식·회집"},{"name":"모두의 돈까스","tel":"031-000-0000","addr":"경기도 남양주시 진접읍 금곡리 365번지 주 2동 1층","category":"일반휴게음식 - 일반한식"},{"name":"엉클밥스","tel":"031-572-2684","addr":"경기도 남양주시 진접읍 금곡리 365번지 나동 1층 일부","category":"일반휴게음식 - 스넥"},{"name":"코사랑푸드","tel":"031-590-2169","addr":"경기도 남양주시 진접읍 금곡리 365번지 101호","category":"일반휴게음식 - 스넥"}]},{"lat":"37.713078773","long":"127.20075006","items":[{"name":"구마에 별미","tel":"","addr":"경기도 남양주시 진접읍 금곡리 1107번지 부영사랑으로 상가동 103호","category":"음료식품 - 기타음료식품"},{"name":"바하뮤직슐레음악학원","tel":"031-529-2750","addr":"경기도 남양주시 진접읍 금곡리 1107번지 제상가동 제1층 제102호","category":"학원 - 예·체능계학원"},{"name":"부영떡고을","tel":"031-527-1150","addr":"경기도 남양주시 진접읍 금곡리 1107번지 부영사랑으로 상가동 B107호","category":"음료식품 - 제과점"},{"name":"부영세탁","tel":"031-528-8834","addr":"경기도 남양주시 진접읍 금곡리 1107번지 부영사랑으로 상가동 104-1호","category":"수리서비스 - 세탁소"},{"name":"비타고려학원","tel":"031-572-0911","addr":"경기도 남양주시 진접읍 금곡리 1107번지 부영사랑으로 상가 201호","category":"회원제형태 - 학원"},{"name":"수패션","tel":"031-571-2252","addr":"경기도 남양주시 진접읍 금곡리 1107번지 부영사랑으로 상가동 B02호","category":"의류 - 정장"},{"name":"에이치(H)","tel":"031-571-5600","addr":"경기도 남양주시 진접읍 금곡리 1107번지 부영사랑으로 상가동 지1층 비02호","category":"보건위생 - 피부미용실"},{"name":"온 도시락","tel":"031-573-5574","addr":"경기도 남양주시 진접읍 금곡리 1107번지 부영사랑으로 상가동 101호","category":"일반휴게음식 - 일반한식"},{"name":"웃는아이어린이집[아이행복]","tel":"031-527-0207","addr":"경기도 남양주시 진접읍 금곡리 1107번지 부영사랑으로","category":"학원 - 유아원"},{"name":"진접열린음악학원","tel":"031-529-5171","addr":"경기도 남양주시 진접읍 금곡리 1107번지 부영사랑으로 상가 102호","category":"학원 - 예·체능계학원"},{"name":"호식이두마리치킨","tel":"031-528-7474","addr":"경기도 남양주시 진접읍 금곡리 1107번지 부영사랑으로 101호","category":"일반휴게음식 - 주점"}]},{"lat":"37.719742993","long":"127.19705892","items":[{"name":"구영당구클럽","tel":"031-529-7956","addr":"경기도 남양주시 진접읍 금곡리 974-2 제일프라자6층 601,602호","category":"레저업소 - 당 구 장"},{"name":"대림디움 진접점","tel":"","addr":"경기도 남양주시 진접읍 금곡리 974-2번지 제일프라자 107호","category":"건축자재 - 인테리어전문"},{"name":"도자기카페파인트리","tel":"031-527-5787","addr":"경기도 남양주시 진접읍 금곡리 974-2번지 제일프라자 1층 107호","category":"일반휴게음식 - 서양음식"},{"name":"마녀 마라탕마라샹궈","tel":"031-571-0523","addr":"경기도 남양주시 진접읍 금곡리 974-2번지 101호","category":"일반휴게음식 - 중국식"},{"name":"머리생각","tel":"070-8863-0222","addr":"경기도 남양주시 진접읍 금곡리 974-2번지 304호","category":"보건위생 - 미용원"},{"name":"민's 뷰티","tel":"031-529-5633","addr":"경기도 남양주시 진접읍 금곡리 974-2번지 제일프라자 204호","category":"보건위생 - 미용원"},{"name":"성림바이크","tel":"031-571-8764","addr":"경기도 남양주시 진접읍 금곡리 974-2번지 제일프라자 1층 109호","category":"레져용품 - 스포츠·레져용품"},{"name":"스킨라이트","tel":"","addr":"경기도 남양주시 진접읍 금곡리 974-2번지 1층 102호","category":"보건위생 - 화장품"},{"name":"에덴음악학원","tel":"031-754-0093","addr":"경기도 남양주시 진접읍 금곡리 974-2번지","category":"학원 - 예·체능계학원"},{"name":"용인대용호태권도장","tel":"031-575-5454","addr":"경기도 남양주시 진접읍 금곡리 974-2번지 501,502호","category":"학원 - 예·체능계학원"},{"name":"제이와이에스영어2관학원","tel":"","addr":"경기도 남양주시 진접읍 금곡리 974-2번지 제일프라자 504호","category":"학원 - 보습학원"},{"name":"진접ECC플러스어학원","tel":"031-573-7114","addr":"경기도 남양주시 진접읍 금곡리 974-2번지 제일프라자 402호 401호,402호","category":"학원 - 외국어학원"},{"name":"진접동물병원","tel":"031-571-9634","addr":"경기도 남양주시 진접읍 금곡리 974-2번지 제일프라자지상 1층 108호","category":"기타의료기관 - 동물병원"},{"name":"진접풀잎문화센터","tel":"031-574-5574","addr":"경기도 남양주시 진접읍 금곡리 974-2번지 302호","category":"문화.취미 - 문화취미기타"},{"name":"트램블린키즈카페","tel":"031-575-7188","addr":"경기도 남양주시 진접읍 금곡리 974-2번지 제일프라자 602호 601호, 602호","category":"레저업소 - 기타레져업소"},{"name":"하이트비어뱅진접점","tel":"031-574-2306","addr":"경기도 남양주시 진접읍 금곡리 974-2번지 제일프라자 204호","category":"일반휴게음식 - 서양음식"},{"name":"헤어디바채","tel":"031-528-9151","addr":"경기도 남양주시 진접읍 금곡리 974-2번지 제일프라자 102호","category":"보건위생 - 미용원"},{"name":"현수학학원","tel":"031-529-4609","addr":"경기도 남양주시 진접읍 금곡리 974-2번지 3층 301호","category":"학원 - 보습학원"},{"name":"홍익창조미술학원","tel":"031-529-2530","addr":"경기도 남양주시 진접읍 금곡리 974-2번지 제일프라자 503호","category":"학원 - 예·체능계학원"}]},{"lat":"37.714488066","long":"127.19847421","items":[{"name":"국수나무 진접점","tel":"031-528-4255","addr":"경기도 남양주시 진접읍 금곡리 1096번지 으뜸프라자 110호","category":"일반휴게음식 - 일반한식"},{"name":"나이스가이","tel":"031-572-8277","addr":"경기도 남양주시 진접읍 금곡리 1096번지 으뜸프라자 111호","category":"보건위생 - 미용원"},{"name":"더디씨 진접점","tel":"","addr":"경기도 남양주시 진접읍 금곡리 1096번지 으뜸빌딩 109호","category":"음료식품 - 기타음료식품"},{"name":"미술재미","tel":"031-574-0916","addr":"경기도 남양주시 진접읍 금곡리 1096번지 으뜸빌딩 202호","category":"레저업소 - 기타레져업소"},{"name":"바글바글","tel":"031-529-8937","addr":"경기도 남양주시 진접읍 금곡리 1096번지 으뜸빌딩 103호","category":"일반휴게음식 - 일반한식"},{"name":"수유리우동집 진접점","tel":"031-575-9876","addr":"경기도 남양주시 진접읍 금곡리 1096번지 으뜸빌딩 108호","category":"일반휴게음식 - 일반한식"},{"name":"술집(ZIP)","tel":"031-575-9455","addr":"경기도 남양주시 진접읍 금곡리 1096번지 으뜸빌딩 101호","category":"일반휴게음식 - 주점"},{"name":"아우라헤어","tel":"031-574-7708","addr":"경기도 남양주시 진접읍 금곡리 1096번지 으뜸빌딩 201호","category":"보건위생 - 미용원"},{"name":"알파진접점","tel":"031-528-4580","addr":"경기도 남양주시 진접읍 금곡리 1096번지 으뜸빌딩 2층 203호","category":"서적문구 - 문구용품"},{"name":"에스비에스(SBS)노래연습장","tel":"070-7717-9196","addr":"경기도 남양주시 진접읍 금곡리 1096번지 으뜸빌딩 3층","category":"레저업소 - 노 래 방"},{"name":"엠베스트 SE큰샘학원","tel":"031-527-7823","addr":"경기도 남양주시 진접읍 금곡리 1096번지 으뜸빌딩 604호","category":"회원제형태 - 학원"},{"name":"와우PC","tel":"070-5249-8563","addr":"경기도 남양주시 진접읍 금곡리 1096번지 으뜸빌딩 402호","category":"레저업소 - 기타레져업소"},{"name":"제이당구장","tel":"031-575-3949","addr":"경기도 남양주시 진접읍 금곡리 1096번지 703,704호","category":"레저업소 - 당 구 장"},{"name":"제이댄스무용학원","tel":"031-529-2883","addr":"경기도 남양주시 진접읍 금곡리 1096번지 으뜸빌딩 702호","category":"학원 - 예·체능계학원"},{"name":"쥬씨","tel":"070-4117-1028","addr":"경기도 남양주시 진접읍 금곡리 1096번지 으뜸빌딩 106호","category":"일반휴게음식 - 서양음식"},{"name":"즐거울락","tel":"","addr":"경기도 남양주시 진접읍 금곡리 1096번지 으뜸빌딩 3층 302호","category":"일반휴게음식 - 주점"},{"name":"진접지앤비학원","tel":"031-527-8205","addr":"경기도 남양주시 진접읍 금곡리 1096번지 으뜸빌딩 503호 504호","category":"학원 - 보습학원"},{"name":"진접창조댄스앤무용학원","tel":"031-529-2884","addr":"경기도 남양주시 진접읍 금곡리 1096번지 으뜸빌딩 501호","category":"학원 - 예·체능계학원"},{"name":"청년축산","tel":"","addr":"경기도 남양주시 진접읍 금곡리 1096번지 으뜸빌딩 107호","category":"음료식품 - 정육점"},{"name":"커브스 진접클럽","tel":"031-528-3010","addr":"경기도 남양주시 진접읍 금곡리 1096번지 으뜸빌딩 404~405호","category":"레저업소 - 헬스클럽"},{"name":"코끼리아동청소년발달센터","tel":"031-571-2711","addr":"경기도 남양주시 진접읍 금곡리 1096번지 으뜸프라자 701호","category":"보건위생 - 기타대인서비스"},{"name":"통툰 남양주 금곡점","tel":"031-571-7147","addr":"경기도 남양주시 진접읍 금곡리 1096번지 으뜸프라자 4층 401호","category":"서적문구 - 일반서적"},{"name":"포차크레프트","tel":"031-571-6544","addr":"경기도 남양주시 진접읍 금곡리 1096번지 으뜸빌딩 301호","category":"일반휴게음식 - 일반한식"},{"name":"피자스쿨 진접1호점","tel":"031-575-8286","addr":"경기도 남양주시 진접읍 금곡리 1096번지 102호(외1필지으뜸빌딩)","category":"일반휴게음식 - 서양음식"},{"name":"한국체대 태권도","tel":"031-574-7411","addr":"경기도 남양주시 진접읍 금곡리 1096번지 으뜸빌딩602 603호","category":"학원 - 예·체능계학원"},{"name":"한양사","tel":"031-529-3735","addr":"경기도 남양주시 진접읍 금곡리 1096번지 으뜸빌딩 109호","category":"의류 - 정장"},{"name":"해피 앤 방방","tel":"031-528-0536","addr":"경기도 남양주시 진접읍 금곡리 1096번지 으뜸빌딩 2층 204호","category":"레저업소 - 기타레져업소"},{"name":"횡성부자축산","tel":"031-574-1198","addr":"경기도 남양주시 진접읍 금곡리 1096번지 으뜸빌딩 107호","category":"음료식품 - 정육점"},{"name":"훈남모바일","tel":"031-527-3266","addr":"경기도 남양주시 진접읍 금곡리 1096번지 104호 (외1번지으뜸프라자)","category":"사무통신 - 통신기기"}]},{"lat":"37.712523076","long":"127.1878652","items":[{"name":"군산오징어리틀진접점","tel":"070-4209-2052","addr":"경기도 남양주시 진접읍 금곡리 1082번지 랜드타워 106호","category":"일반휴게음식 - 일반한식"},{"name":"금곡타운나이스가이","tel":"031-574-6231","addr":"경기도 남양주시 진접읍 금곡리 1082번지 랜드타워 107호","category":"보건위생 - 미용원"},{"name":"노랑통닭 진접점","tel":"","addr":"경기도 남양주시 진접읍 금곡리 1082번지 랜드타워 125호","category":"일반휴게음식 - 스넥"},{"name":"돌직구생삼겹전문점","tel":"","addr":"경기도 남양주시 진접읍 금곡리 1082번지 랜드타워 111호","category":"일반휴게음식 - 일반한식"},{"name":"드림팩토리치과의원","tel":"031-572-2005","addr":"경기도 남양주시 진접읍 금곡리 1082번지 랜드타워 204호","category":"의원 - 치과의원"},{"name":"등초마라탕 진접점","tel":"070-7420-4636","addr":"경기도 남양주시 진접읍 금곡리 1082번지 랜드타워 1층 101호","category":"일반휴게음식 - 중국식"},{"name":"무쏘진접점","tel":"031-574-9279","addr":"경기도 남양주시 진접읍 금곡리 1082번지 랜드타워 121호,122호","category":"일반휴게음식 - 일반한식"},{"name":"바다회포차","tel":"031-574-4989","addr":"경기도 남양주시 진접읍 금곡리 1082번지 랜드타워 104호 104호~105호","category":"일반휴게음식 - 일반한식"},{"name":"뽕차이","tel":"031-575-9457","addr":"경기도 남양주시 진접읍 금곡리 1082번지 랜드타워 120호","category":"일반휴게음식 - 중국식"},{"name":"성전","tel":"031-527-7333","addr":"경기도 남양주시 진접읍 금곡리 1082번지 랜드타워 117호","category":"일반휴게음식 - 주점"},{"name":"아이마트 안경","tel":"031-575-8007","addr":"경기도 남양주시 진접읍 금곡리 1082번지 랜드타워 108,109,110호","category":"보건위생 - 안경"},{"name":"오대오포차 진접점","tel":"031-573-7953","addr":"경기도 남양주시 진접읍 금곡리 1082번지 랜드타워 201동 202호","category":"일반휴게음식 - 주점"},{"name":"왕꼼장어","tel":"031-529-9091","addr":"경기도 남양주시 진접읍 금곡리 1082번지 랜드타워 124호","category":"일반휴게음식 - 일반한식"},{"name":"이디야커피남양주금곡점","tel":"031-528-8557","addr":"경기도 남양주시 진접읍 금곡리 1082번지 랜드타워 102호","category":"일반휴게음식 - 서양음식"},{"name":"주식회사 랜드파킹","tel":"031-573-7788","addr":"경기도 남양주시 진접읍 금곡리 1082번지","category":"자동차정비 유지 - 주차장"},{"name":"주식회사마네켄에프씨","tel":"031-592-6440","addr":"경기도 남양주시 진접읍 금곡리 1082번지 랜드타워 401호 501호","category":"자동차정비 유지 - 주차장"},{"name":"지지미","tel":"031-111-1111","addr":"경기도 남양주시 진접읍 금곡리 1082번지 랜드타워 1층 103호","category":"일반휴게음식 - 일반한식"},{"name":"진접참맛깔곱창","tel":"031-573-1666","addr":"경기도 남양주시 진접읍 금곡리 1082번지 랜드타워 112호","category":"일반휴게음식 - 일반한식"},{"name":"티에","tel":"031-573-2384","addr":"경기도 남양주시 진접읍 금곡리 1082번지 랜드타워 114호","category":"일반휴게음식 - 일반한식"},{"name":"해울한약국","tel":"031-529-2827","addr":"경기도 남양주시 진접읍 금곡리 1082번지 랜드타워 113호","category":"약국 - 약국"},{"name":"화주부진접점","tel":"031-575-7882","addr":"경기도 남양주시 진접읍 금곡리 1082번지 랜드타워 118호,119호","category":"일반휴게음식 - 일반한식"}]},{"lat":"37.72135346","long":"127.20377779","items":[{"name":"궁","tel":"031-572-8293","addr":"경기도 남양주시 진접읍 금곡리 1016-1번지 102호","category":"일반휴게음식 - 일반한식"},{"name":"카스탑","tel":"031-565-9003","addr":"경기도 남양주시 진접읍 금곡리 1016-1번지 1층 101호","category":"일반휴게음식 - 주점"}]},{"lat":"37.714794522","long":"127.19839562","items":[{"name":"권대중 국어논술학원","tel":"031-527-4740","addr":"경기도 남양주시 진접읍 금곡리 1095-2번지 폴리프라자III 202호","category":"학원 - 보습학원"},{"name":"두드림학원","tel":"031-575-3122","addr":"경기도 남양주시 진접읍 금곡리 1095-2번지 폴리프라자III 302호","category":"학원 - 보습학원"},{"name":"민헤어","tel":"031-528-6598","addr":"경기도 남양주시 진접읍 금곡리 1095-2번지 폴리프라자Ⅲ 201호","category":"보건위생 - 미용원"},{"name":"수학서당수학교습소","tel":"031-527-3921","addr":"경기도 남양주시 진접읍 금곡리 1095-2번지 폴리프라자3) 301호","category":"학원 - 보습학원"},{"name":"아이노스 음악학원","tel":"031-574-5501","addr":"경기도 남양주시 진접읍 금곡리 1095-2번지 303호(폴리프라자lll)","category":"학원 - 예·체능계학원"},{"name":"예일피아노학원","tel":"031-527-3319","addr":"경기도 남양주시 진접읍 금곡리 1095-2번지 폴리프라자 503호","category":"학원 - 예·체능계학원"},{"name":"음표와 쉼표(NOTE and REST)","tel":"","addr":"경기도 남양주시 진접읍 금곡리 1095-2번지 폴리프라자III 5층 501호","category":"서적문구 - 문구용품"},{"name":"이야기가있는 미술학원","tel":"031-574-7995","addr":"경기도 남양주시 진접읍 금곡리 1095-2번지 폴리프라자Ⅲ 602호","category":"학원 - 예·체능계학원"},{"name":"진접문고","tel":"031-573-6656","addr":"경기도 남양주시 진접읍 금곡리 1095-2번지","category":"서적문구 - 일반서적"},{"name":"파리바게트","tel":"031-572-5826","addr":"경기도 남양주시 진접읍 금곡리 1095-2번지 폴리프라자 102동 103호","category":"음료식품 - 제과점"},{"name":"핑거네일&스킨업","tel":"02-831-3025","addr":"경기도 남양주시 진접읍 금곡리 1095-2번지 폴리프라자III 401호","category":"보건위생 - 화장품"},{"name":"해법영어학원","tel":"031-571-0308","addr":"경기도 남양주시 진접읍 금곡리 1095-2번지 폴리프라자 701동 702호","category":"학원 - 보습학원"},{"name":"헤어뱅크","tel":"031-529-8595","addr":"경기도 남양주시 진접읍 금곡리 1095-2번지 502호 폴리프라자III","category":"보건위생 - 미용원"}]},{"lat":"37.716156524","long":"127.21819021","items":[{"name":"그날","tel":"031-571-3933","addr":"경기도 남양주시 진접읍 금곡리 181-2","category":"음료식품 - 기타음료식품"}]},{"lat":"37.711407186","long":"127.18703455","items":[{"name":"그램모텔","tel":"031-575-2211","addr":"경기도 남양주시 진접읍 금곡리 1081-5번지 601호 ,602호,701호,702호,801호,802호,901호,902호","category":"숙박업 - 여관/기타숙박업"},{"name":"다린국수","tel":"031-574-7544","addr":"경기도 남양주시 진접읍 금곡리 1081-5번지 1층 108호","category":"일반휴게음식 - 일반한식"},{"name":"브로츄러스씨스커피","tel":"070-4789-2381","addr":"경기도 남양주시 진접읍 금곡리 1081-5번지 버킷플렉스 107호","category":"일반휴게음식 - 서양음식"},{"name":"쏘핫(SoHot)마라샹궈","tel":"031-000-0000","addr":"경기도 남양주시 진접읍 금곡리 1081-5번지 1층 111호","category":"일반휴게음식 - 중국식"},{"name":"아리아케이크","tel":"","addr":"경기도 남양주시 진접읍 금곡리 1081-5번지 버킷플렉스 1층 101호","category":"음료식품 - 기타음료식품"},{"name":"연안식당 진접점","tel":"","addr":"경기도 남양주시 진접읍 금곡리 1081-5번지 1층 102호,103호,104호,110호일부","category":"일반휴게음식 - 일반한식"},{"name":"인디고PC진접점","tel":"","addr":"경기도 남양주시 진접읍 금곡리 1081-5번지 3층 303~307호","category":"레저업소 - 기타레져업소"},{"name":"할리비어","tel":"031-575-6920","addr":"경기도 남양주시 진접읍 금곡리 1081-5번지 105호,106호","category":"일반휴게음식 - 일반한식"}]},{"lat":"37.718545524","long":"127.20197818","items":[{"name":"그리다뷰티","tel":"031-526-6263","addr":"경기도 남양주시 진접읍 금곡리 1039-2번지 102호","category":"보건위생 - 미용재료"},{"name":"라익나우","tel":"031-0000-0000","addr":"경기도 남양주시 진접읍 금곡리 1039-2번지 1층 101호","category":"문화.취미 - 화원"}]},{"lat":"37.718356515","long":"127.20186426","items":[{"name":"그린제이","tel":"031-573-0126","addr":"경기도 남양주시 진접읍 금곡리 1039-4번지 101호","category":"일반휴게음식 - 서양음식"},{"name":"큐로스터","tel":"031-683-3209","addr":"경기도 남양주시 진접읍 금곡리 1039-4번지 102호","category":"일반휴게음식 - 서양음식"}]},{"lat":"37.709911927","long":"127.19803124","items":[{"name":"그린캠퍼","tel":"031-573-0883","addr":"경기도 남양주시 진접읍 금곡리 1104번지","category":"레져용품 - 스포츠·레져용품"},{"name":"미예뜰유치원","tel":"031-573-0883","addr":"경기도 남양주시 진접읍 금곡리 1104","category":"학원 - 유치원"},{"name":"미예뜰유치원[아이행복]","tel":"031-573-0883","addr":"경기도 남양주시 진접읍 금곡리 1104번지","category":"학원 - 유치원"}]},{"lat":"37.722126607","long":"127.19394596","items":[{"name":"금곡철물건재","tel":"031-571-1396","addr":"경기도 남양주시 진접읍 금곡리 944-1번지","category":"건축자재 - 목재·석재·철물"}]},{"lat":"37.709711998","long":"127.21469001","items":[{"name":"금곡한식부페","tel":"031-527-4742","addr":"경기도 남양주시 진접읍 금곡리 2064-1번지 1동 1층","category":"일반휴게음식 - 일반한식"}]},{"lat":"37.718967283","long":"127.20297741","items":[{"name":"금밭","tel":"031-527-4660","addr":"경기도 남양주시 진접읍 금곡리 1044번지","category":"일반휴게음식 - 일반한식"}]},{"lat":"37.726717392","long":"127.20713851","items":[{"name":"금복상회","tel":"031-528-5447","addr":"경기도 남양주시 진접읍 금곡리 544번지 1층","category":"일반휴게음식 - 일반한식"},{"name":"돈꽃","tel":"031-528-8022","addr":"경기도 남양주시 진접읍 금곡리 544번지 1층 전체","category":"일반휴게음식 - 일반한식"}]},{"lat":"37.72155138","long":"127.20394846","items":[{"name":"금산포숯불고기","tel":"031-529-1092","addr":"경기도 남양주시 진접읍 금곡리 1015-4번지","category":"일반휴게음식 - 일반한식"}]},{"lat":"37.711714466","long":"127.1864229","items":[{"name":"김가네 진접중앙점","tel":"031-572-0044","addr":"경기도 남양주시 진접읍 금곡리 1081-3번지 센타프라자 102호","category":"일반휴게음식 - 스넥"},{"name":"두두헤어","tel":"031-574-0519","addr":"경기도 남양주시 진접읍 금곡리 1081-3번지 센터프라자 504호","category":"보건위생 - 미용원"},{"name":"마음의GYM","tel":"031-568-6400","addr":"경기도 남양주시 진접읍 금곡리 1081-3번지 센타프라자 903호 ,904,1001,1002,1003,1004,1005호","category":"레저업소 - 헬스클럽"},{"name":"메르헨","tel":"031-574-1310","addr":"경기도 남양주시 진접읍 금곡리 1081-3번지 센타프라자 9층 902호","category":"일반휴게음식 - 서양음식"},{"name":"미스터피자 진접오남점","tel":"031-571-1445","addr":"경기도 남양주시 진접읍 금곡리 1081-3번지 2층 203,204호","category":"일반휴게음식 - 서양음식"},{"name":"삼오돈","tel":"031-574-3592","addr":"경기도 남양주시 진접읍 금곡리 1081-3번지 201호","category":"일반휴게음식 - 일반한식"},{"name":"서울진접소아치과의원","tel":"031-571-2833","addr":"경기도 남양주시 진접읍 금곡리 1081-3번지 센타프라자 403호 402호,403호","category":"의원 - 치과의원"},{"name":"엄마마음약국","tel":"031-527-0128","addr":"경기도 남양주시 진접읍 금곡리 1081-3번지 센타프라자 107호","category":"약국 - 약국"},{"name":"이룸이비인후과의원","tel":"032-540-9056","addr":"경기도 남양주시 진접읍 금곡리 1081-3번지 4층","category":"의원 - 의원"},{"name":"이룸주니어소아청소년과의원","tel":"031-571-7119","addr":"경기도 남양주시 진접읍 금곡리 1081-3번지 4층","category":"의원 - 의원"},{"name":"조은 주얼리","tel":"031-571-7677","addr":"경기도 남양주시 진접읍 금곡리 1081-3번지 1층 103호","category":"신변잡화 - 귀금속"},{"name":"청담동꿀꽈배기","tel":"031-574-8940","addr":"경기도 남양주시 진접읍 금곡리 1081-3번지 센터프라자 106호","category":"일반휴게음식 - 서양음식"},{"name":"청아보청기","tel":"031-540-9056","addr":"경기도 남양주시 진접읍 금곡리 1081-3번지 4층","category":"보건위생 - 의료용품"},{"name":"케이에스테크","tel":"031-573-7277","addr":"경기도 남양주시 진접읍 금곡리 1081-3번지 601동 604호","category":"레저업소 - 기타레져업소"},{"name":"킹덤타이","tel":"031-571-0990","addr":"경기도 남양주시 진접읍 금곡리 1081-3번지 센타프라자 2층 202호","category":"보건위생 - 화장품"},{"name":"휴대폰 365 아울렛 진접점","tel":"031-528-1314","addr":"경기도 남양주시 진접읍 금곡리 1081-3번지 센타프라자 101호","category":"사무통신 - 통신기기"}]},{"lat":"37.719656843","long":"127.20010971","items":[{"name":"김프로골프존","tel":"031-574-0754","addr":"경기도 남양주시 진접읍 금곡리 1032-5번지 대화빌딩","category":"회원제형태 - 레져업소"},{"name":"신도시 회뜨는 집","tel":"031-574-0887","addr":"경기도 남양주시 진접읍 금곡리 1032-5번지 1동 101,102호","category":"일반휴게음식 - 일반한식"},{"name":"컴온","tel":"","addr":"경기도 남양주시 진접읍 금곡리 1032-5번지 1층 106,107호","category":"일반휴게음식 - 일반한식"},{"name":"홈브레드","tel":"031-572-4123","addr":"경기도 남양주시 진접읍 금곡리 1032-5번지","category":"일반휴게음식 - 스넥"}]},{"lat":"37.719709817","long":"127.20075635","items":[{"name":"꼬마숲다슬어린이집[아이행복]","tel":"031-527-6030","addr":"경기도 남양주시 진접읍 금곡리 1035-1번지","category":"학원 - 유아원"}]},{"lat":"37.722129323","long":"127.20316739","items":[{"name":"꼬맹이어린이집[아이행복]","tel":"031-575-4420","addr":"경기도 남양주시 진접읍 금곡리 1013-3번지","category":"학원 - 유아원"}]},{"lat":"37.718545811","long":"127.20180806","items":[{"name":"꽃길","tel":"","addr":"경기도 남양주시 진접읍 금곡리 1039-5번지 1층 일부","category":"보건위생 - 미용원"},{"name":"꽃길","tel":"","addr":"경기도 남양주시 진접읍 금곡리 1039-5번지 1층 일부","category":"보건위생 - 피부미용실"},{"name":"문헤일로(MOON HALO)","tel":"031-123-1234","addr":"경기도 남양주시 진접읍 금곡리 1039-5번지 1층 102호","category":"의류 - 정장"},{"name":"자이커피하우스","tel":"070-4649-1101","addr":"경기도 남양주시 진접읍 금곡리 1039-5번지 101호","category":"일반휴게음식 - 서양음식"}]},{"lat":"37.720744654","long":"127.1960861","items":[{"name":"꽃뜰","tel":"031-527-6923","addr":"경기도 남양주시 진접읍 금곡리 973-3번지 세경프라자 102호","category":"문화.취미 - 화원"},{"name":"남양주nny실용음악학원","tel":"031-572-0437","addr":"경기도 남양주시 진접읍 금곡리 973-3번지 602.603호","category":"학원 - 예·체능계학원"},{"name":"대박점핑다이어트","tel":"","addr":"경기도 남양주시 진접읍 금곡리 973-3번지 세경프라자 3층 301호","category":"건강식품 - 기타건강식품"},{"name":"디자인봄(DISIGN BOM)","tel":"031-571-6409","addr":"경기도 남양주시 진접읍 금곡리 973-3번지 401-1호","category":"용역 서비스 - 사무서비스"},{"name":"목동최강학원","tel":"031-575-1043","addr":"경기도 남양주시 진접읍 금곡리 973-3번지 403호 402호,403호","category":"학원 - 보습학원"},{"name":"뷰티원미용학원","tel":"031-856-2000","addr":"경기도 남양주시 진접읍 금곡리 973-3번지 세경프라자 703호","category":"회원제형태 - 학원"},{"name":"이엑스엠(EXM)","tel":"070-4353-0220","addr":"경기도 남양주시 진접읍 금곡리 973-3번지 3층 301호","category":"용역 서비스 - 소프트웨어"},{"name":"인포유","tel":"031-856-2000","addr":"경기도 남양주시 진접읍 금곡리 973-3번지 703호","category":"보건위생 - 미용원"},{"name":"인포유","tel":"031-856-2000","addr":"경기도 남양주시 진접읍 금곡리 973-3번지 703호","category":"회원제형태 - 기타4"},{"name":"제이마치스튜디오","tel":"031-523-3004","addr":"경기도 남양주시 진접읍 금곡리 973-3번지 303호","category":"광학제품 - 사진관"},{"name":"하이두뇌로학원","tel":"031-572-5773","addr":"경기도 남양주시 진접읍 금곡리 973-3번지 세경프라자 203호 202호,203호","category":"학원 - 보습학원"},{"name":"해동검도","tel":"031-573-2844","addr":"경기도 남양주시 진접읍 금곡리 973-3번지 701,702호","category":"학원 - 예·체능계학원"}]},{"lat":"37.716297811","long":"127.21479949","items":[{"name":"꽃피는산골","tel":"031-571-0079","addr":"경기도 남양주시 진접읍 금곡리 199-1","category":"일반휴게음식 - 일반한식"}]},{"lat":"37.721488932","long":"127.20358534","items":[{"name":"꿀꿀이순대국","tel":"031-510-7787","addr":"경기도 남양주시 진접읍 금곡리 1016번지 1층","category":"일반휴게음식 - 일반한식"},{"name":"스마일꽈배기","tel":"031-528-1165","addr":"경기도 남양주시 진접읍 금곡리 1016번지 진선일빌딩 1층 104호","category":"음료식품 - 기타음료식품"}]},{"lat":"37.718492232","long":"127.20152437","items":[{"name":"꿀단지","tel":"","addr":"경기도 남양주시 진접읍 금곡리 1037-13번지 재경빌딩 306호","category":"의류 - 기타의류"},{"name":"묵은지솟뚜껑삼겹살","tel":"031-527-5488","addr":"경기도 남양주시 진접읍 금곡리 1037-13번지 1층 101호","category":"일반휴게음식 - 일반한식"},{"name":"밥맛나는세상 진접점","tel":"031-528-7877","addr":"경기도 남양주시 진접읍 금곡리 1037-13번지 1층","category":"일반휴게음식 - 스넥"}]},{"lat":"37.721127835","long":"127.20400403","items":[{"name":"꿀송이닭강정","tel":"031-574-3327","addr":"경기도 남양주시 진접읍 금곡리 1017번지 105호","category":"일반휴게음식 - 일반한식"},{"name":"바이온텍서비스","tel":"031-111-1111","addr":"경기도 남양주시 진접읍 금곡리 1017번지 1층","category":"주방용구 - 정수기"},{"name":"삼성통신","tel":"031-529-8580","addr":"경기도 남양주시 진접읍 금곡리 1017","category":"사무통신 - 통신기기"},{"name":"아리랑상회","tel":"031-574-9298","addr":"경기도 남양주시 진접읍 금곡리 1017번지 101호","category":"일반휴게음식 - 주점"},{"name":"아리랑상회","tel":"031-574-9298","addr":"경기도 남양주시 진접읍 금곡리 1017번지 1층","category":"일반휴게음식 - 일반한식"}]},{"lat":"37.718742756","long":"127.20255715","items":[{"name":"꿀족발앤보쌈","tel":"031-2188-5000","addr":"경기도 남양주시 진접읍 금곡리 1045-5번지 1층","category":"일반휴게음식 - 일반한식"}]},{"lat":"37.724191725","long":"127.20885568","items":[{"name":"꿈땅어린이집[아이행복]","tel":"031-574-4113","addr":"경기도 남양주시 진접읍 금곡리 1117번지 신안인스빌 2313동 101호","category":"학원 - 유아원"}]},{"lat":"37.726994183","long":"127.20857986","items":[{"name":"꿈사랑실버요양원","tel":"031-573-5575","addr":"경기도 남양주시 진접읍 금곡리 580번지","category":"기타의료기관 - 기타의료기관 및 기타"}]},{"lat":"37.71582846","long":"127.18858794","items":[{"name":"끌림헤어","tel":"031-573-2045","addr":"경기도 남양주시 진접읍 금곡리 967번지 한솔빌딩 103호","category":"보건위생 - 미용원"},{"name":"도예와미술이야기미술학원","tel":"070-8210-6383","addr":"경기도 남양주시 진접읍 금곡리 967번지 201호 일부","category":"학원 - 예·체능계학원"},{"name":"문소아청소년의원","tel":"031-572-5704","addr":"경기도 남양주시 진접읍 금곡리 967번지 2층 202호","category":"의원 - 의원"},{"name":"영수베스트학원","tel":"031-551-0538","addr":"경기도 남양주시 진접읍 금곡리 967번지 3층 303호","category":"학원 - 보습학원"},{"name":"조이태권도","tel":"031-572-7887","addr":"경기도 남양주시 진접읍 금곡리 967번지 401호","category":"학원 - 예·체능계학원"},{"name":"토닥토닥약국","tel":"031-529-8575","addr":"경기도 남양주시 진접읍 금곡리 967번지 101호","category":"약국 - 약국"},{"name":"해밀서점 책읽는커피","tel":"","addr":"경기도 남양주시 진접읍 금곡리 967번지 102호","category":"일반휴게음식 - 서양음식"},{"name":"화랑태권도","tel":"031-572-7887","addr":"경기도 남양주시 진접읍 금곡리 967번지 한솔빌딩 4층","category":"학원 - 예·체능계학원"},{"name":"화봉줄리어드음악학원","tel":"031-575-5303","addr":"경기도 남양주시 진접읍 금곡리 967번지 한솔빌딩 302호","category":"학원 - 예·체능계학원"}]},{"lat":"37.712394712","long":"127.20035131","items":[{"name":"나이스종합유통","tel":"031-516-8556","addr":"경기도 남양주시 진접읍 금곡리 1107번지 부영사랑으로 1818동 1301호","category":"음료식품 - 기타음료식품"}]},{"lat":"37.717905176","long":"127.19697473","items":[{"name":"남양주 본도시락 진접점","tel":"031-528-4282","addr":"경기도 남양주시 진접읍 금곡리 1076-2번지 리원프라자 1층 102호","category":"일반휴게음식 - 일반한식"},{"name":"뮤직하임음악학원","tel":"031-575-3542","addr":"경기도 남양주시 진접읍 금곡리 1076-2번지 리원프라자 3층 302호","category":"학원 - 예·체능계학원"},{"name":"블럭카페","tel":"","addr":"경기도 남양주시 진접읍 금곡리 1076-2번지 리원프라자 4층","category":"일반휴게음식 - 서양음식"}]},{"lat":"37.717466669","long":"127.20061429","items":[{"name":"남양주도담유치원[아이행복]","tel":"031-574-7521","addr":"경기도 남양주시 진접읍 금곡리 1110번지","category":"학원 - 유치원"}]},{"lat":"37.71724426","long":"127.19342304","items":[{"name":"남양주시육아종합지원센터","tel":"031-528-4463","addr":"경기도 남양주시 진접읍 금곡리 1077번지 어린이비젼센터","category":"학원 - 기타 교육기관"},{"name":"남양주시육아종합지원센터","tel":"031-528-4463","addr":"경기도 남양주시 진접읍 금곡리 1077번지 어린이비전센터 내","category":"학원 - 기타 교육기관"},{"name":"남양주시육아종합지원센터[아이행복]","tel":"031-528-4463","addr":"경기도 남양주시 진접읍 금곡리 1077번지 어린이비전센터 내","category":"학원 - 유아원"},{"name":"다온미소","tel":"031-528-2618","addr":"경기도 남양주시 진접읍 금곡리 1077번지 주건축동2층(진접어린이감성체험시설)","category":"일반휴게음식 - 일반한식"},{"name":"푸른숲매점","tel":"070-7864-1177","addr":"경기도 남양주시 진접읍 금곡리 1077번지 지하1층","category":"음료식품 - 기타음료식품"}]},{"lat":"37.710602112","long":"127.18908523","items":[{"name":"남양주풍양보건소","tel":"031-590-4771","addr":"경기도 남양주시 진접읍 금곡리 1085-1번지","category":"자동차정비 유지 - 주차장"}]},{"lat":"37.711921457","long":"127.18657084","items":[{"name":"남현석헤어진접본점","tel":"031-566-2326","addr":"경기도 남양주시 진접읍 금곡리 1081-2번지 래일스타 303호","category":"보건위생 - 미용원"},{"name":"도전노래연습장","tel":"031-575-6252","addr":"경기도 남양주시 진접읍 금곡리 1081-2번지","category":"레저업소 - 노 래 방"},{"name":"도쿄빙수진접롯데시네마점","tel":"031-575-0821","addr":"경기도 남양주시 진접읍 금곡리 1081-2번지 302호 래일스타","category":"일반휴게음식 - 서양음식"},{"name":"라륀느","tel":"031-573-8566","addr":"경기도 남양주시 진접읍 금곡리 1081-2번지 5층 502호 래일스타","category":"보건위생 - 미용원"},{"name":"로봇&코딩","tel":"","addr":"경기도 남양주시 진접읍 금곡리 1081-2번지 래일스타 705호","category":"학원 - 기타 교육기관"},{"name":"분홍무지개 진접점","tel":"","addr":"경기도 남양주시 진접읍 금곡리 1081-2번지 901호 래일스타","category":"신변잡화 - 기타잡화"},{"name":"비타민나무의원","tel":"031-528-8279","addr":"경기도 남양주시 진접읍 금곡리 1081-2번지 4층 3호(래일스타)","category":"의원 - 의원"},{"name":"설렘헤어","tel":"031-573-0510","addr":"경기도 남양주시 진접읍 금곡리 1081-2번지 107호 래일스타","category":"보건위생 - 미용원"},{"name":"스타당구장","tel":"031-573-4545","addr":"경기도 남양주시 진접읍 금곡리 1081-2번지 래일스타 801호","category":"레저업소 - 당 구 장"},{"name":"시원한의원","tel":"031-574-7075","addr":"경기도 남양주시 진접읍 금곡리 1081-2번지 래일스타 402호","category":"의원 - 한의원"},{"name":"시작스터디카페","tel":"031-528-2697","addr":"경기도 남양주시 진접읍 금곡리 1081-2번지 래일스타 6층 601호","category":"용역 서비스 - 사무서비스"},{"name":"엑스","tel":"","addr":"경기도 남양주시 진접읍 금곡리 1081-2번지 2층 204호(래일스타)","category":"일반휴게음식 - 칵테일바"},{"name":"오늘애김밥 진접본점","tel":"031-572-2773","addr":"경기도 남양주시 진접읍 금곡리 1081-2번지 103호 104호 (래일스타)","category":"일반휴게음식 - 스넥"},{"name":"이경애 어묵 떡볶이","tel":"031-572-7141","addr":"경기도 남양주시 진접읍 금곡리 1081-2번지 래일스타 501호","category":"일반휴게음식 - 일반한식"},{"name":"정통치킨","tel":"031-527-6136","addr":"경기도 남양주시 진접읍 금곡리 1081-2번지 래일스타 1층 112호","category":"일반휴게음식 - 스넥"},{"name":"쥬씨 진접롯데시네마점","tel":"031-572-8983","addr":"경기도 남양주시 진접읍 금곡리 1081-2번지 래일스타 109호","category":"일반휴게음식 - 서양음식"},{"name":"진접골프존","tel":"031-574-0752","addr":"경기도 남양주시 진접읍 금곡리 1081-2번지","category":"회원제형태 - 레져업소"},{"name":"진접골프존","tel":"031-574-0752","addr":"경기도 남양주시 진접읍 금곡리 1081-2번지 6층 603-605호","category":"레저업소 - 스크린골프"},{"name":"진접창조의아침미술학원","tel":"031-575-9901","addr":"경기도 남양주시 진접읍 금곡리 1081-2번지 701,702호","category":"학원 - 예·체능계학원"},{"name":"짱노래연습장","tel":"031-572-9296","addr":"경기도 남양주시 진접읍 금곡리 1081-2번지 래일스타 201호","category":"레저업소 - 노 래 방"},{"name":"킨죠","tel":"031-575-9259","addr":"경기도 남양주시 진접읍 금곡리 1081-2번지 래일스타2층204호 3층301호","category":"일반휴게음식 - 주점"},{"name":"티이티제이","tel":"031-574-3467","addr":"경기도 남양주시 진접읍 금곡리 1081-2번지 래일스타 405호","category":"보건위생 - 화장품"},{"name":"티티제이","tel":"031-574-3467","addr":"경기도 남양주시 진접읍 금곡리 1081-2번지 래일스타 405호","category":"보건위생 - 화장품"},{"name":"푸른약국","tel":"031-575-8457","addr":"경기도 남양주시 진접읍 금곡리 1081-2번지 404-1호","category":"약국 - 약국"},{"name":"한끼 마리","tel":"031-571-2231","addr":"경기도 남양주시 진접읍 금곡리 1081-2번지 래일스타 108호","category":"일반휴게음식 - 일반한식"},{"name":"핫떡","tel":"031-572-7078","addr":"경기도 남양주시 진접읍 금곡리 1081-2번지 래일스타 101호","category":"일반휴게음식 - 스넥"},{"name":"헌팅","tel":"031-571-2498","addr":"경기도 남양주시 진접읍 금곡리 1081-2번지 레일스타빌딩 802,803,804,805호","category":"일반휴게음식 - 일반한식"},{"name":"홈짐","tel":"","addr":"경기도 남양주시 진접읍 금곡리 1081-2번지 401호 래일스타","category":"레저업소 - 헬스클럽"}]},{"lat":"37.717323227","long":"127.20550219","items":[{"name":"낯선그림디자인","tel":"","addr":"경기도 남양주시 진접읍 금곡리 1068-1번지 1층","category":"용역 서비스 - 사무서비스"}]},{"lat":"37.718103693","long":"127.2021925","items":[{"name":"네네치킨","tel":"031-574-4492","addr":"경기도 남양주시 진접읍 금곡리 1041-5번지 102호","category":"일반휴게음식 - 스넥"},{"name":"스시롤앤돈까스","tel":"031-574-9285","addr":"경기도 남양주시 진접읍 금곡리 1041-5번지","category":"일반휴게음식 - 서양음식"},{"name":"차칸푸드(차칸소곱창)","tel":"","addr":"경기도 남양주시 진접읍 금곡리 1041-5번지 101호","category":"음료식품 - 기타음료식품"},{"name":"치킨플러스 진접점","tel":"031-529-8921","addr":"경기도 남양주시 진접읍 금곡리 1041-5번지 103호","category":"일반휴게음식 - 스넥"}]},{"lat":"37.714407269","long":"127.2088853","items":[{"name":"네버랜드","tel":"031-000-0000","addr":"경기도 남양주시 진접읍 금곡리 810-1번지 1층","category":"가구 - 일반가구"},{"name":"마담","tel":"","addr":"경기도 남양주시 진접읍 금곡리 810-1번지 1층","category":"의류 - 정장"}]},{"lat":"37.72196663","long":"127.2034732","items":[{"name":"노가리day","tel":"031-571-7269","addr":"경기도 남양주시 진접읍 금곡리 1015번지 1층 101호","category":"일반휴게음식 - 주점"},{"name":"아이엠로사(I am ROSA)","tel":"","addr":"경기도 남양주시 진접읍 금곡리 1015번지 예정빌딩 1층 102호","category":"문화.취미 - 화원"}]},{"lat":"37.719884519","long":"127.20400067","items":[{"name":"노빌리티","tel":"","addr":"경기도 남양주시 진접읍 금곡리 1057번지 205호","category":"의류 - 정장"},{"name":"투다리","tel":"031-528-7792","addr":"경기도 남양주시 진접읍 금곡리 1057","category":"일반휴게음식 - 일반한식"}]},{"lat":"37.718655282","long":"127.20100307","items":[{"name":"노아쥬얼리","tel":"031-558-9458","addr":"경기도 남양주시 진접읍 금곡리 1040-1번지 101호","category":"신변잡화 - 액세서리"},{"name":"뮨(MuNe)","tel":"031-572-0307","addr":"경기도 남양주시 진접읍 금곡리 1040-1번지 1층 103호","category":"보건위생 - 미용원"},{"name":"스테이(STAY)","tel":"","addr":"경기도 남양주시 진접읍 금곡리 1040-1번지 1층 일부","category":"일반휴게음식 - 서양음식"}]},{"lat":"37.721738424","long":"127.19442134","items":[{"name":"농부축산","tel":"031-529-3770","addr":"경기도 남양주시 진접읍 금곡리 972번지","category":"음료식품 - 정육점"},{"name":"다드림할인마트","tel":"031-529-3700","addr":"경기도 남양주시 진접읍 금곡리 972번지","category":"유통업 영리 - 슈퍼마켓"}]},{"lat":"37.72160293","long":"127.1946365","items":[{"name":"농업회사법인 한솜씨푸드(주)","tel":"031-529-9233","addr":"경기도 남양주시 진접읍 금곡리 972-1번지 1층","category":"음료식품 - 기타음료식품"},{"name":"뚝갈비","tel":"031-528-9545","addr":"경기도 남양주시 진접읍 금곡리 972-1번지","category":"일반휴게음식 - 일반한식"},{"name":"마왕족발","tel":"031-527-7292","addr":"경기도 남양주시 진접읍 금곡리 972-1번지 102호","category":"일반휴게음식 - 일반한식"},{"name":"바니모바일","tel":"070-4111-5010","addr":"경기도 남양주시 진접읍 금곡리 972-1번지 101호","category":"사무통신 - 통신기기"},{"name":"추억의 옛날통닭","tel":"031-572-0492","addr":"경기도 남양주시 진접읍 금곡리 972-1번지 104호","category":"일반휴게음식 - 스넥"}]},{"lat":"37.714218606","long":"127.19797448","items":[{"name":"뉴김밥천국","tel":"031-574-7009","addr":"경기도 남양주시 진접읍 금곡리 1097번지 진접지젤타워 105호","category":"일반휴게음식 - 스넥"},{"name":"두부장수","tel":"031-528-2007","addr":"경기도 남양주시 진접읍 금곡리 1097번지 진접지젤타워 108호","category":"음료식품 - 기타음료식품"},{"name":"롯데리아 남양주진접점","tel":"","addr":"경기도 남양주시 진접읍 금곡리 1097번지 진접지젤타워 109,110,111호","category":"일반휴게음식 - 서양음식"},{"name":"맥그릴","tel":"031-529-6161","addr":"경기도 남양주시 진접읍 금곡리 1097번지 진접지젤타워 201호","category":"일반휴게음식 - 스넥"},{"name":"진접안경원","tel":"031-529-2282","addr":"경기도 남양주시 진접읍 금곡리 1097 진접두손지젤프라자1층12호","category":"보건위생 - 안경"}]},{"lat":"37.727156453","long":"127.20852359","items":[{"name":"늘푸른나무어린이집[아이행복]","tel":"031-528-2111","addr":"경기도 남양주시 진접읍 금곡리 580-2번지","category":"학원 - 유아원"}]},{"lat":"37.719356995","long":"127.20161741","items":[{"name":"다원","tel":"031-571-8924","addr":"경기도 남양주시 진접읍 금곡리 1038-5번지","category":"용역 서비스 - 기타용역서비스"},{"name":"텐페이지(10PAGE)","tel":"031-571-7707","addr":"경기도 남양주시 진접읍 금곡리 1038-5번지","category":"일반휴게음식 - 일반한식"}]},{"lat":"37.711846456","long":"127.19955599","items":[{"name":"다원윤활유","tel":"070-8870-5194","addr":"경기도 남양주시 진접읍 금곡리 1107번지 부영사랑으로 1820동 701호","category":"자동차정비 유지 - 윤활유 전문 판매"}]},{"lat":"37.722209753","long":"127.20355325","items":[{"name":"대가참치","tel":"031-571-7747","addr":"경기도 남양주시 진접읍 금곡리 1014번지 1층 동주빌딩","category":"일반휴게음식 - 일반한식"},{"name":"대가참치","tel":"031-574-7144","addr":"경기도 남양주시 진접읍 금곡리 1014번지 동주빌딩 1층","category":"일반휴게음식 - 일반한식"},{"name":"이학짬뽕","tel":"031-575-8045","addr":"경기도 남양주시 진접읍 금곡리 1014번지 1층","category":"일반휴게음식 - 일반한식"}]},{"lat":"37.714516334","long":"127.19772575","items":[{"name":"대상산업","tel":"031-7435-3993","addr":"경기도 남양주시 진접읍 금곡리 1127-113번지","category":"자동차정비 유지 - 주차장"}]},{"lat":"37.716162776","long":"127.18797633","items":[{"name":"더포근","tel":"","addr":"경기도 남양주시 진접읍 금곡리 966-1번지 102호","category":"음료식품 - 제과점"},{"name":"드림맘산후조리원","tel":"031-527-2900","addr":"경기도 남양주시 진접읍 금곡리 966-1번지 3층, 4층, 5층","category":"기타의료기관 - 산후조리원"}]},{"lat":"37.720571519","long":"127.20266414","items":[{"name":"데일리 워크숍","tel":"031-593-6678","addr":"경기도 남양주시 진접읍 금곡리 1021-2번지 지안빌딩 9층 901호","category":"일반휴게음식 - 서양음식"},{"name":"서울우리치과","tel":"031-571-2879","addr":"경기도 남양주시 진접읍 금곡리 1021-2번지 지안빌딩 3층 301호","category":"의원 - 치과의원"},{"name":"송상열한의원","tel":"031-523-2162","addr":"경기도 남양주시 진접읍 금곡리 1021-2번지 지안빌딩 5층 501호","category":"의원 - 한의원"}]},{"lat":"37.714666408","long":"127.19958613","items":[{"name":"도도유통","tel":"","addr":"경기도 남양주시 진접읍 금곡리 1107번지 부영사랑으로 1802동 202호","category":"유통업 영리 - 기타유통업"}]},{"lat":"37.720491086","long":"127.20227829","items":[{"name":"도로시네일","tel":"","addr":"경기도 남양주시 진접읍 금곡리 1021-3번지 삼성프라자 107호","category":"보건위생 - 피부미용실"},{"name":"뽕짜","tel":"031-572-7503","addr":"경기도 남양주시 진접읍 금곡리 1021-3번지 삼성프라자 201호","category":"일반휴게음식 - 중국식"},{"name":"세븐일레븐진접삼성점","tel":"031-1577-0711","addr":"경기도 남양주시 진접읍 금곡리 1021-3번지 삼성프라자 105호","category":"유통업 영리 - 편 의 점"},{"name":"세븐일레븐진접삼성점","tel":"","addr":"경기도 남양주시 진접읍 금곡리 1021-3번지 삼성프라자 105호","category":"유통업 영리 - 편 의 점"},{"name":"양꼬치엔칭타오","tel":"031-574-0066","addr":"경기도 남양주시 진접읍 금곡리 1021-3번지 삼성프라자 1층 102호,103호","category":"일반휴게음식 - 일반한식"},{"name":"에이스바","tel":"031-528-6782","addr":"경기도 남양주시 진접읍 금곡리 1021-3번지 삼성프라자 3층 302호","category":"일반휴게음식 - 칵테일바"},{"name":"윤라이팅","tel":"031-537-3339","addr":"경기도 남양주시 진접읍 금곡리 1021-3번지 삼성프라자 401호","category":"건축자재 - 조명기구"},{"name":"주식회사 소곱","tel":"031-574-3394","addr":"경기도 남양주시 진접읍 금곡리 1021-3번지 삼성프라자 106호","category":"일반휴게음식 - 일반한식"},{"name":"촌집식당","tel":"031-528-7175","addr":"경기도 남양주시 진접읍 금곡리 1021-3번지 삼성프라자 101호","category":"일반휴게음식 - 일반한식"},{"name":"탑노래연습장","tel":"031-527-5835","addr":"경기도 남양주시 진접읍 금곡리 1021-3번지 삼성프라자 601호","category":"레저업소 - 노 래 방"},{"name":"펀킥","tel":"031-574-7418","addr":"경기도 남양주시 진접읍 금곡리 1021-3번지 삼성프라자 501호,502호,503호","category":"회원제형태 - 레져업소"},{"name":"하늘나리스튜디오","tel":"031-527-8177","addr":"경기도 남양주시 진접읍 금곡리 1021-3번지 삼성프라자 703호","category":"광학제품 - 사진관"},{"name":"훈뮤직스튜디오","tel":"031-572-6303","addr":"경기도 남양주시 진접읍 금곡리 1021-3번지 삼성프라자 204호","category":"용역 서비스 - 사무서비스"}]},{"lat":"37.719739805","long":"127.2043292","items":[{"name":"돈보리","tel":"031-594-6992","addr":"경기도 남양주시 진접읍 금곡리 1058-5번지","category":"일반휴게음식 - 일반한식"}]},{"lat":"37.719572995","long":"127.20175409","items":[{"name":"돈자루","tel":"031-574-9285","addr":"경기도 남양주시 진접읍 금곡리 1038-1번지 1층 101호","category":"일반휴게음식 - 일반한식"},{"name":"베이비팝케이크","tel":"","addr":"경기도 남양주시 진접읍 금곡리 1038-1번지 1동 102호","category":"음료식품 - 기타음료식품"},{"name":"졸리(JOLLY)","tel":"031-528-6263","addr":"경기도 남양주시 진접읍 금곡리 1038-1번지 101동 1호","category":"의류 - 정장"}]},{"lat":"37.721712661","long":"127.20447065","items":[{"name":"동네맛차","tel":"031-528-0665","addr":"경기도 남양주시 진접읍 금곡리 1017-6번지 1층-103","category":"일반휴게음식 - 일반한식"},{"name":"살롱드아무르","tel":"031-575-9727","addr":"경기도 남양주시 진접읍 금곡리 1017-6번지 101호","category":"보건위생 - 미용원"}]},{"lat":"37.725326974","long":"127.20360703","items":[{"name":"동부오토 금곡점","tel":"031-571-9760","addr":"경기도 남양주시 진접읍 금곡리 512번지","category":"자동차정비 유지 - 자동차정비"},{"name":"주식회사 더반","tel":"031-529-6727","addr":"경기도 남양주시 진접읍 금곡리 512번지","category":"레져용품 - 스포츠·레져용품"}]},{"lat":"37.71424329","long":"127.2099169","items":[{"name":"동성식당","tel":"031-572-7437","addr":"경기도 남양주시 진접읍 금곡리 818-4 외1필지","category":"일반휴게음식 - 일반한식"}]},{"lat":"37.721659041","long":"127.19886736","items":[{"name":"동양전기","tel":"031-571-1175","addr":"경기도 남양주시 진접읍 금곡리 935-6번지","category":"자동차정비 유지 - 자동차부품"}]},{"lat":"37.718717088","long":"127.2017518","items":[{"name":"동천정","tel":"031-527-1427","addr":"경기도 남양주시 진접읍 금곡리 1039번지","category":"일반휴게음식 - 일반한식"},{"name":"뚜바비앙(Tout va bien)","tel":"031-529-7904","addr":"경기도 남양주시 진접읍 금곡리 1039번지","category":"일반휴게음식 - 서양음식"}]},{"lat":"37.712481577","long":"127.19686985","items":[{"name":"두레렌탈","tel":"031-1661-8829","addr":"경기도 남양주시 진접읍 금곡리 1098번지 휴먼시아 1709동 302호","category":"회원제형태 - 기타4"}]},{"lat":"37.719492997","long":"127.20110738","items":[{"name":"둥짱베이커리","tel":"031-527-4215","addr":"경기도 남양주시 진접읍 금곡리 1037번지","category":"음료식품 - 제과점"},{"name":"참치한상","tel":"031-572-3714","addr":"경기도 남양주시 진접읍 금곡리 1037번지 1층 일부","category":"일반휴게음식 - 일식·회집"},{"name":"청춘관리","tel":"","addr":"경기도 남양주시 진접읍 금곡리 1037번지 101호","category":"보건위생 - 피부미용실"},{"name":"크린업24진접점","tel":"031-572-0184","addr":"경기도 남양주시 진접읍 금곡리 1037번지 102호","category":"수리서비스 - 세탁소"}]},{"lat":"37.71573806","long":"127.18878052","items":[{"name":"드림아이건식","tel":"031-523-3333","addr":"경기도 남양주시 진접읍 금곡리 967-1번지 1층","category":"건강식품 - 기타건강식품"}]},{"lat":"37.718246385","long":"127.20305486","items":[{"name":"디자인 디츠","tel":"070-8870-6780","addr":"경기도 남양주시 진접읍 금곡리 1044-4번지 5층","category":"용역 서비스 - 사무서비스"},{"name":"주식회사 에이치알에듀케이션","tel":"070-8885-8206","addr":"경기도 남양주시 진접읍 금곡리 1044-4번지","category":"신변잡화 - 기타잡화"},{"name":"하이제닉","tel":"02-1661-8958","addr":"경기도 남양주시 진접읍 금곡리 1044-4번지 5층","category":"용역 서비스 - 종합용역"},{"name":"한국태권도아카데미 주식회사","tel":"031-574-7749","addr":"경기도 남양주시 진접읍 금곡리 1044-4번지 2층","category":"학원 - 예·체능계학원"},{"name":"힐링아로마","tel":"031-527-5877","addr":"경기도 남양주시 진접읍 금곡리 1044-4번지 301호","category":"보건위생 - 피부미용실"}]},{"lat":"37.715519565","long":"127.21166703","items":[{"name":"디자인혜인","tel":"031-528-3883","addr":"경기도 남양주시 진접읍 금곡리 228-1번지","category":"건축자재 - 인테리어전문"}]},{"lat":"37.721406666","long":"127.204277","items":[{"name":"또봉이통닭","tel":"031-571-8465","addr":"경기도 남양주시 진접읍 금곡리 1017-3번지 101호","category":"일반휴게음식 - 일반한식"},{"name":"모던로제","tel":"031-528-6263","addr":"경기도 남양주시 진접읍 금곡리 1017-3번지 103호","category":"의류 - 정장"},{"name":"영 style","tel":"","addr":"경기도 남양주시 진접읍 금곡리 1017-3번지 102호","category":"보건위생 - 미용원"}]},{"lat":"37.719294692","long":"127.20116356","items":[{"name":"뜰안","tel":"031-572-0189","addr":"경기도 남양주시 진접읍 금곡리 1037-5번지 101호","category":"일반휴게음식 - 서양음식"},{"name":"배샵","tel":"070-4768-4130","addr":"경기도 남양주시 진접읍 금곡리 1037-5번지 102호","category":"의류 - 정장"}]},{"lat":"37.718520196","long":"127.20096869","items":[{"name":"라 미엘(La miel)","tel":"031-528-1789","addr":"경기도 남양주시 진접읍 금곡리 1040-2번지 102호","category":"의류 - 정장"}]},{"lat":"37.71907071","long":"127.20041439","items":[{"name":"라임어린이집[아이행복]","tel":"031-529-7942","addr":"경기도 남양주시 진접읍 금곡리 1034-3","category":"학원 - 유아원"}]},{"lat":"37.718743792","long":"127.20194469","items":[{"name":"라파향궈","tel":"","addr":"경기도 남양주시 진접읍 금곡리 1039-1번지 1층 일부","category":"일반휴게음식 - 중국식"},{"name":"일미리금계찜닭","tel":"031-571-9779","addr":"경기도 남양주시 진접읍 금곡리 1039-1번지 102호","category":"일반휴게음식 - 일반한식"}]},{"lat":"37.715977749","long":"127.19659543","items":[{"name":"럭키마트","tel":"031-574-5966","addr":"경기도 남양주시 진접읍 금곡리 1093번지 휴먼시아 상가동 104호","category":"유통업 영리 - 슈퍼마켓"}]},{"lat":"37.721015757","long":"127.19558774","items":[{"name":"로스팅포인트","tel":"031-574-5533","addr":"경기도 남양주시 진접읍 금곡리 973-1번지 신세계프라자 105호","category":"일반휴게음식 - 서양음식"},{"name":"바네사","tel":"070-4307-0140","addr":"경기도 남양주시 진접읍 금곡리 973-1번지 신세계프라자 103호","category":"신변잡화 - 신발"},{"name":"산천칡냉면","tel":"031-575-3334","addr":"경기도 남양주시 진접읍 금곡리 973-1번지 신세계프라자 107호","category":"일반휴게음식 - 일반한식"},{"name":"신불떡볶이 진접점","tel":"031-573-4266","addr":"경기도 남양주시 진접읍 금곡리 973-1번지 신세계프라자 1층 103호","category":"일반휴게음식 - 스넥"},{"name":"씨엔씨 안경콘택트","tel":"031-528-0801","addr":"경기도 남양주시 진접읍 금곡리 973-1번지 신세계프라자 108호","category":"보건위생 - 안경"},{"name":"안경기업","tel":"031-575-8279","addr":"경기도 남양주시 진접읍 금곡리 973-1번지 101, 102호","category":"보건위생 - 안경"},{"name":"엄가네닭발 진접점","tel":"031-574-5259","addr":"경기도 남양주시 진접읍 금곡리 973-1번지 신세계프라자 주건축물제 1동 109호","category":"일반휴게음식 - 일반한식"},{"name":"엘에이(LA)갈비찜닭","tel":"031-575-8254","addr":"경기도 남양주시 진접읍 금곡리 973-1번지 신세계프라자 104호","category":"일반휴게음식 - 일반한식"},{"name":"원더패션","tel":"070-5484-9927","addr":"경기도 남양주시 진접읍 금곡리 973-1번지 신세계프라자 108호","category":"보건위생 - 화장품"},{"name":"유투엠학원","tel":"031-573-0584","addr":"경기도 남양주시 진접읍 금곡리 973-1번지 신세계프라자 404호 일부 403","category":"학원 - 보습학원"},{"name":"임쌤국어학원","tel":"","addr":"경기도 남양주시 진접읍 금곡리 973-1번지 신세계프라자 402호","category":"학원 - 보습학원"},{"name":"진영곱창","tel":"031-529-4777","addr":"경기도 남양주시 진접읍 금곡리 973-1번지 신세계프라자 110호","category":"일반휴게음식 - 일반한식"},{"name":"진접유투엠아발론어학원","tel":"031-574-0584","addr":"경기도 남양주시 진접읍 금곡리 973-1번지 신세계프라자 4층 403호 404호 405호","category":"학원 - 외국어학원"},{"name":"진차이나","tel":"031-529-0349","addr":"경기도 남양주시 진접읍 금곡리 973-1번지 신세계프라자 106호","category":"일반휴게음식 - 중국식"},{"name":"트렘플린스포츠","tel":"031-572-2773","addr":"경기도 남양주시 진접읍 금곡리 973-1번지 외1필지 신세계프라자 301호","category":"회원제형태 - 레져업소"},{"name":"헬스의 달인 윤짐","tel":"031-529-6336","addr":"경기도 남양주시 진접읍 금곡리 973-1번지 신세계프라자 5층 501 ,502,503호","category":"레저업소 - 헬스클럽"},{"name":"헬스의 달인 윤짐","tel":"031-529-6336","addr":"경기도 남양주시 진접읍 금곡리 973-1번지 신세계프라자 505호","category":"레저업소 - 헬스클럽"},{"name":"황제노래연습장","tel":"031-528-3775","addr":"경기도 남양주시 진접읍 금곡리 973-1번지 신세계프라자 204호","category":"레저업소 - 노 래 방"}]},{"lat":"37.713544543","long":"127.21275024","items":[{"name":"롤러테크","tel":"","addr":"경기도 남양주시 진접읍 금곡리 110-5번지","category":"기타 - 기계공구"}]},{"lat":"37.720959774","long":"127.20216612","items":[{"name":"르뽀렙","tel":"031-572-8121","addr":"경기도 남양주시 진접읍 금곡리 1022번지 113호","category":"보건위생 - 미용원"},{"name":"정다믄 김밥천국 진접경복점","tel":"","addr":"경기도 남양주시 진접읍 금곡리 1022번지 102호","category":"일반휴게음식 - 스넥"},{"name":"주식회사 야베스코리아","tel":"070-8842-4400","addr":"경기도 남양주시 진접읍 금곡리 1022번지 301호","category":"레저업소 - 기타레져업소"},{"name":"칼멘","tel":"031-572-4436","addr":"경기도 남양주시 진접읍 금곡리 1022번지 1층 108호","category":"일반휴게음식 - 주점"},{"name":"커피에 반하다 남양주진접점","tel":"031-574-5751","addr":"경기도 남양주시 진접읍 금곡리 1022번지 1층 103호,104호","category":"일반휴게음식 - 서양음식"},{"name":"한돈한우","tel":"031-572-1889","addr":"경기도 남양주시 진접읍 금곡리 1022번지 1층 105,106,107호","category":"일반휴게음식 - 일반한식"},{"name":"한돈한우","tel":"031-572-1889","addr":"경기도 남양주시 진접읍 금곡리 1022번지 종점프라자 1층 105호","category":"음료식품 - 정육점"}]},{"lat":"37.728158247","long":"127.20752814","items":[{"name":"리더","tel":"070-7776-5550","addr":"경기도 남양주시 진접읍 금곡리 537-5번지","category":"가구 - 일반가구"}]},{"lat":"37.72487805","long":"127.2079388","items":[{"name":"리빙아울렛정육코너","tel":"031-574-0006","addr":"경기도 남양주시 진접읍 금곡리 1002","category":"음료식품 - 정육점"},{"name":"어묵나라 매일반찬","tel":"","addr":"경기도 남양주시 진접읍 금곡리 1002번지","category":"음료식품 - 기타음료식품"},{"name":"좋은친구들","tel":"031--574-0006","addr":"경기도 남양주시 진접읍 금곡리 1002번지","category":"서적문구 - 문구용품"},{"name":"파리바게뜨","tel":"031-573-4999","addr":"경기도 남양주시 진접읍 금곡리 1002번지 리빙아울렛","category":"음료식품 - 제과점"},{"name":"현유통","tel":"031-574-0006","addr":"경기도 남양주시 진접읍 금곡리 1002번지 1층 리빙마트내 수산코너","category":"음료식품 - 농·축·수산품"}]},{"lat":"37.719715267","long":"127.202866","items":[{"name":"리즈네일","tel":"031-000-0000","addr":"경기도 남양주시 진접읍 금곡리 1042-2번지 단우타워 1층 일부 101호","category":"보건위생 - 피부미용실"},{"name":"베스트 클럽","tel":"070-7931-8800","addr":"경기도 남양주시 진접읍 금곡리 1042-2번지 401호","category":"건강식품 - 기타건강식품"},{"name":"엄마손한식부페(이베리코고기)","tel":"031-529-8212","addr":"경기도 남양주시 진접읍 금곡리 1042-2번지 단우타워 108호","category":"일반휴게음식 - 일반한식"},{"name":"장'S 쉐프","tel":"031-571-9291","addr":"경기도 남양주시 진접읍 금곡리 1042-2번지 103.104호","category":"일반휴게음식 - 일반한식"},{"name":"포만감","tel":"031-575-9898","addr":"경기도 남양주시 진접읍 금곡리 1042-2번지 1층 105호","category":"일반휴게음식 - 스넥"},{"name":"해밀24시불가마사우나/(주)플랜비","tel":"031-574-8887","addr":"경기도 남양주시 진접읍 금곡리 1042-2번지","category":"보건위생 - 사우나"},{"name":"헌터피씨 진접점(HUNTER PC)","tel":"031-571-8173","addr":"경기도 남양주시 진접읍 금곡리 1042-2번지 3층 301,302,303호","category":"레저업소 - 기타레져업소"}]},{"lat":"37.709938599","long":"127.19824678","items":[{"name":"만이갈비 본점","tel":"031-511-9292","addr":"경기도 남양주시 진접읍 금곡리 1104-1번지","category":"일반휴게음식 - 일반한식"}]},{"lat":"37.718628539","long":"127.20083287","items":[{"name":"맘보집","tel":"070-7594-7298","addr":"경기도 남양주시 진접읍 금곡리 1040번지 1층","category":"일반휴게음식 - 일반한식"},{"name":"봉카페","tel":"031-527-1243","addr":"경기도 남양주시 진접읍 금곡리 1040번지 1층","category":"일반휴게음식 - 서양음식"}]},{"lat":"37.720410575","long":"127.19652757","items":[{"name":"머리염색오땡큐헤어","tel":"031-575-0788","addr":"경기도 남양주시 진접읍 금곡리 973-5번지 1층","category":"보건위생 - 미용원"},{"name":"주한 순대국","tel":"031-574-3679","addr":"경기도 남양주시 진접읍 금곡리 973-5번지 106, 107호","category":"일반휴게음식 - 일반한식"},{"name":"해밀동물병원","tel":"031-553-0075","addr":"경기도 남양주시 진접읍 금곡리 973-5번지 104 연훈상가104호~105호","category":"기타의료기관 - 동물병원"}]},{"lat":"37.713799806","long":"127.18953553","items":[{"name":"모닝글로리 진접점","tel":"031-575-4580","addr":"경기도 남양주시 진접읍 금곡리 1080번지 신안인스빌 2상가-104","category":"서적문구 - 문구용품"},{"name":"보톡스헤어","tel":"070-7574-8657","addr":"경기도 남양주시 진접읍 금곡리 1080번지 신안인스빌 상가동 106호","category":"보건위생 - 미용원"},{"name":"씨유진접인스빌점","tel":"031-574-5633","addr":"경기도 남양주시 진접읍 금곡리 1080번지 상가 101호~102호","category":"유통업 영리 - 편 의 점"},{"name":"아이리더 화봉태권도장","tel":"031-528-2954","addr":"경기도 남양주시 진접읍 금곡리 1080번지 해밀마을신안인스빌아파트 204,205호","category":"학원 - 예·체능계학원"},{"name":"이화숲음악학원","tel":"031-528-3634","addr":"경기도 남양주시 진접읍 금곡리 1080번지 202호,203호 신안인스빌상가1동","category":"학원 - 예·체능계학원"},{"name":"좋은집부동산공인중개사사무소","tel":"031-527-3130","addr":"경기도 남양주시 진접읍 금곡리 1080번지 신안인스빌","category":"용역 서비스 - 부동산 중개·임대"},{"name":"팍스강정","tel":"031-528-3288","addr":"경기도 남양주시 진접읍 금곡리 1080번지 해밀마을신안인스빌아파트 1층 105호","category":"일반휴게음식 - 스넥"}]},{"lat":"37.71879737","long":"127.20222838","items":[{"name":"모래놀이","tel":"031-975-0935","addr":"경기도 남양주시 진접읍 금곡리 1037-9번지 101호","category":"일반휴게음식 - 서양음식"},{"name":"브로스커피","tel":"031-527-0326","addr":"경기도 남양주시 진접읍 금곡리 1037-9번지 102호","category":"일반휴게음식 - 서양음식"}]},{"lat":"37.715578312","long":"127.20900195","items":[{"name":"미니스톱 금곡산단점","tel":"031-1577-9621","addr":"경기도 남양주시 진접읍 금곡리 774번지 나동 1층","category":"유통업 영리 - 편 의 점"}]},{"lat":"37.714216699","long":"127.20966732","items":[{"name":"미림 후레쉬푸드","tel":"031-572-3701","addr":"경기도 남양주시 진접읍 금곡리 818-7번지","category":"음료식품 - 정육점"},{"name":"육쌈갈비","tel":"031-572-3701","addr":"경기도 남양주시 진접읍 금곡리 818-7번지","category":"일반휴게음식 - 일반한식"}]},{"lat":"37.711190088","long":"127.18758971","items":[{"name":"미소미함치과의원","tel":"031-552-2875","addr":"경기도 남양주시 진접읍 금곡리 1083-5번지","category":"의원 - 치과의원"},{"name":"미우키(MIUKI)","tel":"031-529-0427","addr":"경기도 남양주시 진접읍 금곡리 1083-5번지 해밀빌딩 102호","category":"의류 - 정장"},{"name":"샌드리아 진접점","tel":"","addr":"경기도 남양주시 진접읍 금곡리 1083-5번지 해밀빌딩 1층 103호","category":"일반휴게음식 - 스넥"},{"name":"씨엠","tel":"031-515-4423","addr":"경기도 남양주시 진접읍 금곡리 1083-5번지 해밀빌딩 1층 107호","category":"용역 서비스 - 사무서비스"},{"name":"엘블라썸(Lblossom)","tel":"070-4101-4582","addr":"경기도 남양주시 진접읍 금곡리 1083-5번지 해밀빌딩 1층 104호","category":"보건위생 - 미용원"},{"name":"오니기리와 이규동","tel":"031-572-0290","addr":"경기도 남양주시 진접읍 금곡리 1083-5번지 1층","category":"일반휴게음식 - 일식·회집"},{"name":"진접의료기","tel":"031-572-7258","addr":"경기도 남양주시 진접읍 금곡리 1083-5번지 해밀빌딩 106호","category":"보건위생 - 의료용품"}]},{"lat":"37.713075668","long":"127.18593859","items":[{"name":"미소어린이집[아이행복]","tel":"031-529-5208","addr":"경기도 남양주시 진접읍 금곡리 961번지 남양휴튼아파트","category":"학원 - 유아원"}]},{"lat":"37.718293965","long":"127.20155786","items":[{"name":"미쓰리부대찌개","tel":"031-528-0860","addr":"경기도 남양주시 진접읍 금곡리 1037-14번지 101호","category":"일반휴게음식 - 일반한식"},{"name":"한스데이","tel":"070-7755-4707","addr":"경기도 남양주시 진접읍 금곡리 1037-14번지 4층","category":"의류 - 기타의류"}]},{"lat":"37.719043111","long":"127.20075458","items":[{"name":"미즈","tel":"031-111-1111","addr":"경기도 남양주시 진접읍 금곡리 1036-4번지 1층 101호","category":"의류 - 정장"},{"name":"이태리쭈꾸미(식당무한리필)","tel":"070-4749-7061","addr":"경기도 남양주시 진접읍 금곡리 1036-4번지 103호","category":"일반휴게음식 - 일반한식"},{"name":"코코앤맘","tel":"031-528-6263","addr":"경기도 남양주시 진접읍 금곡리 1036-4번지 1층 101호","category":"의류 - 정장"},{"name":"코타츠","tel":"031-574-5255","addr":"경기도 남양주시 진접읍 금곡리 1036-4번지 102호","category":"일반휴게음식 - 일식·회집"}]},{"lat":"37.722101252","long":"127.20377981","items":[{"name":"민혜횟집","tel":"031-527-7728","addr":"경기도 남양주시 진접읍 금곡리 1014-7번지","category":"일반휴게음식 - 일반한식"}]},{"lat":"37.716209939","long":"127.20321951","items":[{"name":"믿음광고","tel":"031-527-9250","addr":"경기도 남양주시 진접읍 금곡리 855-1번지","category":"용역 서비스 - 종합용역"},{"name":"씨유진접스마트점","tel":"031-528-4028","addr":"경기도 남양주시 진접읍 금곡리 855-1번지 101호 102호","category":"유통업 영리 - 편 의 점"},{"name":"인정소머리국","tel":"031-573-3630","addr":"경기도 남양주시 진접읍 금곡리 855-1번지 1층 106호","category":"일반휴게음식 - 일반한식"},{"name":"임실치즈피자","tel":"031-575-6832","addr":"경기도 남양주시 진접읍 금곡리 855-1번지 105호","category":"일반휴게음식 - 서양음식"}]},{"lat":"37.718497615","long":"127.19830328","items":[{"name":"바베큐덕삼이진접점","tel":"031-527-5392","addr":"경기도 남양주시 진접읍 금곡리 1075번지","category":"일반휴게음식 - 일반한식"}]},{"lat":"37.732213757","long":"127.21197481","items":[{"name":"배성공조 덕트 산업","tel":"031-575-8953","addr":"경기도 남양주시 진접읍 금곡리 360-2번지 2호","category":"용역 서비스 - 기타용역서비스"}]},{"lat":"37.719488003","long":"127.2040563","items":[{"name":"버섯잔치","tel":"031-572-4900","addr":"경기도 남양주시 진접읍 금곡리 1057-3번지 1층","category":"일반휴게음식 - 일반한식"}]},{"lat":"37.721768285","long":"127.20355206","items":[{"name":"번지농장돌판아구찜","tel":"031-571-4753","addr":"경기도 남양주시 진접읍 금곡리 1015-6번지 1층","category":"일반휴게음식 - 일반한식"}]},{"lat":"37.720520695","long":"127.1953029","items":[{"name":"벌룬판타지","tel":"070-4125-6562","addr":"경기도 남양주시 진접읍 금곡리 971번지 반도유보라메이플타운 1514동 204호","category":"용역 서비스 - 종합용역"}]},{"lat":"37.719577284","long":"127.20453291","items":[{"name":"베가(Vega)","tel":"031-571-1187","addr":"경기도 남양주시 진접읍 금곡리 1058-3번지 102호","category":"신변잡화 - 기타잡화"}]},{"lat":"37.713159732","long":"127.18978343","items":[{"name":"베베아트","tel":"031-573-2152","addr":"경기도 남양주시 진접읍 금곡리 1080번지 해밀마을신안인스빌아파트 1212동 1402호","category":"건축자재 - 인테리어전문"}]},{"lat":"37.718409825","long":"127.20230674","items":[{"name":"베이비스마일","tel":"070-4219-2538","addr":"경기도 남양주시 진접읍 금곡리 1037-11번지 101호","category":"의류 - 아동의류"}]},{"lat":"37.719492711","long":"127.20127751","items":[{"name":"별난뒷고기","tel":"031-528-6263","addr":"경기도 남양주시 진접읍 금곡리 1037-1번지 1층 101호","category":"일반휴게음식 - 일반한식"}]},{"lat":"37.708440173","long":"127.22044731","items":[{"name":"부강파크","tel":"031-000-0000","addr":"경기도 남양주시 진접읍 금곡리 60번지 나동","category":"레저업소 - 기타레져업소"}]},{"lat":"37.718411986","long":"127.20102511","items":[{"name":"분홍하마","tel":"031-528-6263","addr":"경기도 남양주시 진접읍 금곡리 1040-3번지","category":"의류 - 정장"},{"name":"아이엠.","tel":"031-528-6263","addr":"경기도 남양주시 진접읍 금곡리 1040-3번지 102호","category":"의류 - 정장"},{"name":"치맥(Chi mc)","tel":"031-574-7904","addr":"경기도 남양주시 진접읍 금곡리 1040-3번지 동천빌딩 1층 101호","category":"일반휴게음식 - 일반한식"}]},{"lat":"37.718877803","long":"127.20261422","items":[{"name":"뷰티퀸","tel":"031-575-3882","addr":"경기도 남양주시 진접읍 금곡리 1045번지 102호","category":"보건위생 - 화장품"},{"name":"예당공인중개사사무소","tel":"031-571-8998","addr":"경기도 남양주시 진접읍 금곡리 1045번지 105호","category":"용역 서비스 - 부동산 중개·임대"},{"name":"태정곱창연탄불백","tel":"031-527-8827","addr":"경기도 남양주시 진접읍 금곡리 1045번지 (104호,105호)","category":"일반휴게음식 - 일반한식"},{"name":"호와수","tel":"031-528-2560","addr":"경기도 남양주시 진접읍 금곡리 1045번지 103호","category":"일반휴게음식 - 일식·회집"}]},{"lat":"37.718654767","long":"127.2013093","items":[{"name":"브라우니70진접","tel":"031-527-7009","addr":"경기도 남양주시 진접읍 금곡리 1037-17번지 1층","category":"일반휴게음식 - 스넥"}]},{"lat":"37.719437296","long":"127.20208265","items":[{"name":"블랑제르","tel":"031-566-2100","addr":"경기도 남양주시 진접읍 금곡리 1037-7번지 1층 101호, 102호","category":"음료식품 - 제과점"},{"name":"쁘왈란","tel":"031-572-6029","addr":"경기도 남양주시 진접읍 금곡리 1037-7번지 1층","category":"일반휴게음식 - 일반한식"}]},{"lat":"37.725307178","long":"127.2098456","items":[{"name":"빈티지드럼","tel":"070-8229-6836","addr":"경기도 남양주시 진접읍 금곡리 995 휴먼시아 2406-1404","category":"회원제형태 - 기타4"}]},{"lat":"37.719439397","long":"127.20083503","items":[{"name":"빨강창꼬","tel":"031-574-1838","addr":"경기도 남양주시 진접읍 금곡리 1036-1번지","category":"문화.취미 - 문화취미기타"},{"name":"하토르 가죽공방","tel":"031-528-6263","addr":"경기도 남양주시 진접읍 금곡리 1036-1번지","category":"문화.취미 - 문화취미기타"}]},{"lat":"37.716185384","long":"127.2070302","items":[{"name":"사운드오브뮤직카페","tel":"031-571-2992","addr":"경기도 남양주시 진접읍 금곡리 750-3번지 지하1층 일부","category":"일반휴게음식 - 일반한식"},{"name":"초당뷰티","tel":"031-571-3534","addr":"경기도 남양주시 진접읍 금곡리 750-3번지","category":"보건위생 - 피부미용실"}]},{"lat":"37.719852195","long":"127.20181155","items":[{"name":"사주타로","tel":"031-574-4914","addr":"경기도 남양주시 진접읍 금곡리 1035-8번지 102호","category":"보건위생 - 기타대인서비스"}]},{"lat":"37.727015788","long":"127.21166527","items":[{"name":"삼보SM퍼니처","tel":"031-575-4035","addr":"경기도 남양주시 진접읍 금곡리 301번지 B1동","category":"가구 - 일반가구"}]},{"lat":"37.731878873","long":"127.21283601","items":[{"name":"삼송기업","tel":"031-573-9236","addr":"경기도 남양주시 진접읍 금곡리 327-3번지","category":"용역 서비스 - 종합용역"}]},{"lat":"37.715847377","long":"127.19915827","items":[{"name":"삼진화원","tel":"031-565-3827","addr":"경기도 남양주시 진접읍 금곡리 1108번지 금강펜테라움 1915동 301호","category":"회원제형태 - 건강식품"},{"name":"쓰리제이플라워(3JFLOWER)","tel":"070-8738-5976","addr":"경기도 남양주시 진접읍 금곡리 1108","category":"문화.취미 - 화원"},{"name":"카페인시애틀","tel":"031-572-8484","addr":"경기도 남양주시 진접읍 금곡리 1108번지 금강펜테리움 상가 105호","category":"일반휴게음식 - 서양음식"}]},{"lat":"37.715462051","long":"127.2032742","items":[{"name":"상원카센타","tel":"031-572-7468","addr":"경기도 남양주시 진접읍 금곡리 840-16번지","category":"자동차정비 유지 - 자동차정비"}]},{"lat":"37.710433936","long":"127.19836149","items":[{"name":"상은돈까스","tel":"","addr":"경기도 남양주시 진접읍 금곡리 1102-1번지","category":"일반휴게음식 - 일반한식"},{"name":"솥뚜껑식당","tel":"031-527-3009","addr":"경기도 남양주시 진접읍 금곡리 1102-1번지 1층 101호","category":"일반휴게음식 - 일반한식"}]},{"lat":"37.719239029","long":"127.20211614","items":[{"name":"생생해물찜(진접점)","tel":"031-574-2837","addr":"경기도 남양주시 진접읍 금곡리 1037-8번지 1층 101호","category":"일반휴게음식 - 일반한식"}]},{"lat":"37.721523655","long":"127.20435671","items":[{"name":"샵#705","tel":"031-528-3809","addr":"경기도 남양주시 진접읍 금곡리 1017-4번지 101호,102호","category":"일반휴게음식 - 일반한식"},{"name":"여우곱창","tel":"031-574-6186","addr":"경기도 남양주시 진접읍 금곡리 1017-4번지","category":"일반휴게음식 - 일반한식"},{"name":"푸드한","tel":"031-528-3722","addr":"경기도 남양주시 진접읍 금곡리 1017-4번지 1층 103호","category":"일반휴게음식 - 일반한식"}]},{"lat":"37.730825085","long":"127.20752414","items":[{"name":"서광희한식뷔페","tel":"031-572-4161","addr":"경기도 남양주시 진접읍 금곡리 416-1번지 나동","category":"일반휴게음식 - 일반한식"}]},{"lat":"37.713378666","long":"127.19920846","items":[{"name":"서영권 개인과외교습","tel":"","addr":"경기도 남양주시 진접읍 금곡리 1107번지 부영사랑으로 1811동 101호","category":"학원 - 기타 교육기관"},{"name":"은하수위드장례서비스","tel":"070-5022-4846","addr":"경기도 남양주시 진접읍 금곡리 1107번지 부영사랑으로 1811동 1501호","category":"회원제형태 - 기타4"}]},{"lat":"37.714154524","long":"127.19858674","items":[{"name":"서울행복치과의원","tel":"031-573-1080","addr":"경기도 남양주시 진접읍 금곡리 1096-2번지 호평프라자 303호","category":"의원 - 치과의원"}]},{"lat":"37.71721463","long":"127.20047752","items":[{"name":"서원유치원[아이행복]","tel":"031-573-2145","addr":"경기도 남양주시 진접읍 금곡리 878-5번지","category":"학원 - 유치원"}]},{"lat":"37.726743752","long":"127.20752425","items":[{"name":"서원종합카센타","tel":"031-571-5289","addr":"경기도 남양주시 진접읍 금곡리 564-3번지","category":"자동차정비 유지 - 자동차정비"}]},{"lat":"37.727265476","long":"127.2080021","items":[{"name":"서원카에어콘","tel":"031-571-0726","addr":"경기도 남양주시 진접읍 금곡리 567-1","category":"자동차정비 유지 - 자동차부품"},{"name":"카 바디","tel":"070-8292-5438","addr":"경기도 남양주시 진접읍 금곡리 567-1번지","category":"건축자재 - 페인트"}]},{"lat":"37.718383276","long":"127.20202312","items":[{"name":"선돌순대국","tel":"031-575-1455","addr":"경기도 남양주시 진접읍 금곡리 1039-3번지 1층","category":"일반휴게음식 - 일반한식"}]},{"lat":"37.713157979","long":"127.21227283","items":[{"name":"세고스프라자","tel":"031-572-5936","addr":"경기도 남양주시 진접읍 금곡리 102-1번지","category":"가구 - 일반가구"},{"name":"준 테크","tel":"031-575-9887","addr":"경기도 남양주시 진접읍 금곡리 102-1번지","category":"가구 - 기타가구"}]},{"lat":"37.71918545","long":"127.20183245","items":[{"name":"세븐일레븐진접금곡점","tel":"031-1577-0711","addr":"경기도 남양주시 진접읍 금곡리 1038-3번지 명지하우스 1층 101호","category":"유통업 영리 - 편 의 점"},{"name":"진명국수","tel":"031-529-1800","addr":"경기도 남양주시 진접읍 금곡리 1038-3번지","category":"일반휴게음식 - 일반한식"}]},{"lat":"37.716851788","long":"127.20193963","items":[{"name":"솔로몬공부방","tel":"031-527-4717","addr":"경기도 남양주시 진접읍 금곡리 1052-12번지 2층","category":"학원 - 기타 교육기관"}]},{"lat":"37.725822674","long":"127.21382844","items":[{"name":"송림벌꿀","tel":"02-1111-1111","addr":"경기도 남양주시 진접읍 금곡리 산 14","category":"건강식품 - 기타건강식품"}]},{"lat":"37.706801501","long":"127.21986417","items":[{"name":"수미산 정혜사","tel":"031-572-2959","addr":"경기도 남양주시 진접읍 금곡리 80번지","category":"기타 - 비영리/대상"}]},{"lat":"37.728741495","long":"127.20889096","items":[{"name":"순수치킨 진접경복대점","tel":"031-567-3392","addr":"경기도 남양주시 진접읍 금곡리 464-3번지 103, 104호","category":"일반휴게음식 - 스넥"}]},{"lat":"37.731049988","long":"127.2077176","items":[{"name":"스마일카","tel":"031-528-9145","addr":"경기도 남양주시 진접읍 금곡리 417-10번지","category":"자동차정비 유지 - 카인테리어"},{"name":"전국토탈운송","tel":"02-1577-1070","addr":"경기도 남양주시 진접읍 금곡리 417-10번지 가동","category":"용역 서비스 - 종합용역"}]},{"lat":"37.719546291","long":"127.20156121","items":[{"name":"스시&대게","tel":"031-573-2925","addr":"경기도 남양주시 진접읍 금곡리 1038번지","category":"일반휴게음식 - 일식·회집"}]},{"lat":"37.718465471","long":"127.20136551","items":[{"name":"스시쿠모","tel":"031-575-0157","addr":"경기도 남양주시 진접읍 금곡리 1037-16번지 1증 102호","category":"일반휴게음식 - 일식·회집"},{"name":"시크 플라워","tel":"031-528-4121","addr":"경기도 남양주시 진접읍 금곡리 1037-16번지 101호","category":"의류 - 정장"}]},{"lat":"37.71414556","long":"127.18738156","items":[{"name":"스타썬팅","tel":"","addr":"경기도 남양주시 진접읍 금곡리 965번지 자연 306동 704호","category":"자동차정비 유지 - 카인테리어"}]},{"lat":"37.722326645","long":"127.20368968","items":[{"name":"스토리&공감","tel":"031-528-1382","addr":"경기도 남양주시 진접읍 금곡리 1014-1번지","category":"일반휴게음식 - 서양음식"}]},{"lat":"37.72762635","long":"127.20771951","items":[{"name":"시골밥상","tel":"031-575-4451","addr":"경기도 남양주시 진접읍 금곡리 537-7번지","category":"일반휴게음식 - 일반한식"}]},{"lat":"37.725525214","long":"127.208814","items":[{"name":"시립 해밀어린이집[아이행복]","tel":"031-575-5902","addr":"경기도 남양주시 진접읍 금곡리 995번지","category":"학원 - 유아원"},{"name":"오즈헤어","tel":"031-573-2188","addr":"경기도 남양주시 진접읍 금곡리 995번지 휴먼시아 상가 101호","category":"보건위생 - 미용원"}]},{"lat":"37.729991691","long":"127.2101082","items":[{"name":"신선스포츠","tel":"031-571-5783","addr":"경기도 남양주시 진접읍 금곡리 452-1번지","category":"레져용품 - 스포츠·레져용품"}]},{"lat":"37.714680707","long":"127.19081931","items":[{"name":"신안늘사랑 어린이집[아이행복]","tel":"031-515-7847","addr":"경기도 남양주시 진접읍 금곡리 1080번지 신안인스빌 1218동 101호","category":"학원 - 유아원"}]},{"lat":"37.713874493","long":"127.19902831","items":[{"name":"신안수선","tel":"031-515-9000","addr":"경기도 남양주시 진접읍 금곡리 1107번지 부영사랑으로 1805동 304호","category":"수리서비스 - 세탁소"}]},{"lat":"37.716958988","long":"127.19708568","items":[{"name":"신영사","tel":"031-527-1585","addr":"경기도 남양주시 진접읍 금곡리 1093 휴먼시아 1603동 501호","category":"서적문구 - 일반서적"}]},{"lat":"37.713302514","long":"127.21205775","items":[{"name":"신우성구사","tel":"031-572-2618","addr":"경기도 남양주시 진접읍 금곡리 102-4","category":"가구 - 일반가구"}]},{"lat":"37.715242393","long":"127.20528104","items":[{"name":"신흥공조","tel":"031-510-5987","addr":"경기도 남양주시 진접읍 금곡리 842-3번지 가동","category":"전기제품 - 가전제품"}]},{"lat":"37.710852855","long":"127.21655314","items":[{"name":"쓰리엘산업","tel":"031-527-2711","addr":"경기도 남양주시 진접읍 금곡리 70-4번지","category":"신변잡화 - 기타잡화"}]},{"lat":"37.714889063","long":"127.19010533","items":[{"name":"씨유진접신안점","tel":"031-571-9119","addr":"경기도 남양주시 진접읍 금곡리 1080번지 신안인스빌 상가 2동 106호","category":"유통업 영리 - 편 의 점"}]},{"lat":"37.718769496","long":"127.20272735","items":[{"name":"아마레또","tel":"031-572-7069","addr":"경기도 남양주시 진접읍 금곡리 1045-1번지 102호","category":"의류 - 정장"},{"name":"충만치킨진접점","tel":"031-575-3882","addr":"경기도 남양주시 진접읍 금곡리 1045-1번지 101호","category":"일반휴게음식 - 스넥"}]},{"lat":"37.71743433","long":"127.20375587","items":[{"name":"아이앤코 컴퍼니","tel":"070-4417-6695","addr":"경기도 남양주시 진접읍 금곡리 1063-2번지","category":"의류 - 아동의류"}]},{"lat":"37.717436493","long":"127.19708692","items":[{"name":"아쿠아워시 비전센터점","tel":"031-572-0576","addr":"경기도 남양주시 진접읍 금곡리 1076-4번지 1층 101호","category":"수리서비스 - 세탁소"},{"name":"유명한 튀김집","tel":"031-574-5721","addr":"경기도 남양주시 진접읍 금곡리 1076-4번지 1층 103호","category":"일반휴게음식 - 스넥"},{"name":"진접소래음악학원","tel":"031-528-8555","addr":"경기도 남양주시 진접읍 금곡리 1076-4번지 301호","category":"학원 - 예·체능계학원"},{"name":"진접최상위수학학원","tel":"031-527-5911","addr":"경기도 남양주시 진접읍 금곡리 1076-4번지 402호","category":"학원 - 보습학원"},{"name":"큰손손만두","tel":"031-572-5848","addr":"경기도 남양주시 진접읍 금곡리 1076-4번지 104호","category":"일반휴게음식 - 스넥"},{"name":"투썸플레이스 남양주 진접점","tel":"031-571-0507","addr":"경기도 남양주시 진접읍 금곡리 1076-4번지 1층 106,107,202,203호","category":"일반휴게음식 - 서양음식"},{"name":"홍선생미술남양주서지사","tel":"031-527-3206","addr":"경기도 남양주시 진접읍 금곡리 1076-4번지 4동 401호","category":"학원 - 학습지 교육"}]},{"lat":"37.718796063","long":"127.20299963","items":[{"name":"안녕. 율아","tel":"031-000-0000","addr":"경기도 남양주시 진접읍 금곡리 1044-1번지 101호","category":"일반휴게음식 - 서양음식"}]},{"lat":"37.71446089","long":"127.20913495","items":[{"name":"알뜰슈퍼","tel":"031-571-2088","addr":"경기도 남양주시 진접읍 금곡리 819번지","category":"유통업 영리 - 슈퍼마켓"}]},{"lat":"37.715966951","long":"127.20306007","items":[{"name":"야베스 카 공업사","tel":"031-528-6263","addr":"경기도 남양주시 진접읍 금곡리 857번지 1층","category":"자동차정비 유지 - 자동차정비"}]},{"lat":"37.717965661","long":"127.2038934","items":[{"name":"약수촌","tel":"031-575-3491","addr":"경기도 남양주시 진접읍 금곡리 1063-4번지 1층 2층","category":"일반휴게음식 - 일반한식"}]},{"lat":"37.730490174","long":"127.20841937","items":[{"name":"양지고무산업","tel":"031-527-5520","addr":"경기도 남양주시 진접읍 금곡리 422번지","category":"유통업 영리 - 기타유통업"}]},{"lat":"37.715687521","long":"127.20313871","items":[{"name":"어수지락","tel":"031-528-0292","addr":"경기도 남양주시 진접읍 금곡리 841-15번지","category":"일반휴게음식 - 일반한식"}]},{"lat":"37.719214387","long":"127.20069833","items":[{"name":"엔앤비푸드(N&B food)","tel":"031-867-9167","addr":"경기도 남양주시 진접읍 금곡리 1036-5번지 102호","category":"음료식품 - 기타음료식품"},{"name":"지연헤어","tel":"031-529-5523","addr":"경기도 남양주시 진접읍 금곡리 1036-5번지 101호","category":"보건위생 - 미용원"}]},{"lat":"37.719910734","long":"127.20447711","items":[{"name":"엘리에셀이화피아노교습소","tel":"031-513-8558","addr":"경기도 남양주시 진접읍 금곡리 1058-1번지 102호","category":"학원 - 예·체능계학원"},{"name":"크림피부네일","tel":"031-573-4640","addr":"경기도 남양주시 진접읍 금곡리 1058-1번지 1층 일부호","category":"보건위생 - 피부미용실"}]},{"lat":"37.711685969","long":"127.18736413","items":[{"name":"엘리팝 진접점","tel":"031-527-0228","addr":"경기도 남양주시 진접읍 금곡리 1082-4번지","category":"일반휴게음식 - 주점"}]},{"lat":"37.72582155","long":"127.20416418","items":[{"name":"영상가구","tel":"031-572-2488","addr":"경기도 남양주시 진접읍 금곡리 503번지","category":"가구 - 일반가구"}]},{"lat":"37.733493169","long":"127.21194437","items":[{"name":"예람","tel":"031-571-2739","addr":"경기도 남양주시 진접읍 금곡리 379-3번지 377호","category":"자동차정비 유지 - 주차장"}]},{"lat":"37.721876207","long":"127.20366578","items":[{"name":"오늘도 달콤해","tel":"070-7723-0741","addr":"경기도 남양주시 진접읍 금곡리 1015-1번지 1층 일부","category":"일반휴게음식 - 서양음식"},{"name":"채연","tel":"031-529-2480","addr":"경기도 남양주시 진접읍 금곡리 1015-1번지 1층 101호","category":"일반휴게음식 - 중국식"}]},{"lat":"37.718210674","long":"127.20286195","items":[{"name":"오늘의국앤찬","tel":"070-7548-7887","addr":"경기도 남양주시 진접읍 금곡리 1044-5번지 103호","category":"음료식품 - 기타음료식품"}]},{"lat":"37.718023487","long":"127.20167056","items":[{"name":"오달매 떡볶이","tel":"031-572-8567","addr":"경기도 남양주시 진접읍 금곡리 1041-2번지 102호","category":"일반휴게음식 - 일반한식"},{"name":"처갓집양념치킨","tel":"031-573-9888","addr":"경기도 남양주시 진접읍 금곡리 1041-2번지 마드레빌하우스 101호","category":"일반휴게음식 - 스넥"},{"name":"피커부키즈&블럭","tel":"031-575-2723","addr":"경기도 남양주시 진접읍 금곡리 1041-2번지 1층 103,104호","category":"일반휴게음식 - 서양음식"}]},{"lat":"37.724603498","long":"127.21037676","items":[{"name":"오케이(OK)스팀워시","tel":"","addr":"경기도 남양주시 진접읍 금곡리 995번지 휴먼시아 2404동 104호","category":"자동차정비 유지 - 세차장"}]},{"lat":"37.714250585","long":"127.20041294","items":[{"name":"온수기보일러수도배관해빙언수도녹임동파설","tel":"02-6396-9911","addr":"경기도 남양주시 진접읍 금곡리 1107번지 부영사랑으로 1807동 1층 103호","category":"용역 서비스 - 기타용역서비스"}]},{"lat":"37.719383756","long":"127.20177627","items":[{"name":"올리앤 진접점","tel":"031-528-4742","addr":"경기도 남양주시 진접읍 금곡리 1038-2번지 1층","category":"일반휴게음식 - 서양음식"}]},{"lat":"37.713794125","long":"127.20916713","items":[{"name":"옷수선","tel":"031-575-1855","addr":"경기도 남양주시 진접읍 금곡리 823-7번지 엄산주택 라동 1202호","category":"수리서비스 - 세탁소"}]},{"lat":"37.722209231","long":"127.2038595","items":[{"name":"용용이","tel":"","addr":"경기도 남양주시 진접읍 금곡리 1014-2번지 302호","category":"용역 서비스 - 종합용역"},{"name":"햇솜세라믹","tel":"031-000-0000","addr":"경기도 남양주시 진접읍 금곡리 1014-2번지 102호","category":"주방용구 - 주방용식기"}]},{"lat":"37.707690746","long":"127.22132966","items":[{"name":"용훈산업","tel":"031-527-7661","addr":"경기도 남양주시 진접읍 금곡리 59-8번지","category":"기타 - 기계공구"}]},{"lat":"37.718599083","long":"127.20227322","items":[{"name":"우리마을정육식당","tel":"031-573-8885","addr":"경기도 남양주시 진접읍 금곡리 1037-10번지 1층","category":"일반휴게음식 - 일반한식"}]},{"lat":"37.717912878","long":"127.2031447","items":[{"name":"원조뼈다귀감자탕","tel":"031-575-9793","addr":"경기도 남양주시 진접읍 금곡리 1051-3","category":"일반휴게음식 - 일반한식"}]},{"lat":"37.716633719","long":"127.21836172","items":[{"name":"유황수가든","tel":"031-572-0980","addr":"경기도 남양주시 진접읍 금곡리 180번지","category":"일반휴게음식 - 일반한식"}]},{"lat":"37.725271543","long":"127.20441223","items":[{"name":"은행나무","tel":"031-571-5245","addr":"경기도 남양주시 진접읍 금곡리 516-2번지 은행나무","category":"일반휴게음식 - 일반한식"}]},{"lat":"37.733772021","long":"127.21219473","items":[{"name":"이디야경복대점","tel":"031-527-0466","addr":"경기도 남양주시 진접읍 금곡리 377번지 1층","category":"일반휴게음식 - 서양음식"}]},{"lat":"37.71235405","long":"127.21343869","items":[{"name":"이마시전통순대국","tel":"031-572-5651","addr":"경기도 남양주시 진접읍 금곡리 95번지 1층 일부","category":"일반휴게음식 - 일반한식"}]},{"lat":"37.730548463","long":"127.21114203","items":[{"name":"이조상사","tel":"031-571-3680","addr":"경기도 남양주시 진접읍 금곡리 350","category":"유통업 영리 - 기타유통업"}]},{"lat":"37.715662088","long":"127.21258609","items":[{"name":"이즈","tel":"031-572-5208","addr":"경기도 남양주시 진접읍 금곡리 207-1번지","category":"건축자재 - 기타건축자재"}]},{"lat":"37.712898544","long":"127.20077226","items":[{"name":"장원홈스쿨","tel":"070-8688-2245","addr":"경기도 남양주시 진접읍 금곡리 1107번지 부영사랑으로 1815동 403호","category":"회원제형태 - 학원"}]},{"lat":"37.720157805","long":"127.19683316","items":[{"name":"전주반찬","tel":"031-575-8925","addr":"경기도 남양주시 진접읍 금곡리 974번지 105호","category":"음료식품 - 기타음료식품"},{"name":"제이헤어","tel":"031-572-4821","addr":"경기도 남양주시 진접읍 금곡리 974번지 104호","category":"보건위생 - 미용원"},{"name":"해밀정보통신(진접점)","tel":"031-572-2311","addr":"경기도 남양주시 진접읍 금곡리 974번지 101,102,103호","category":"사무통신 - 통신기기"}]},{"lat":"37.718462614","long":"127.20305544","items":[{"name":"제나헤어","tel":"031-573-7229","addr":"경기도 남양주시 진접읍 금곡리 1044-3번지 1층 101호","category":"보건위생 - 미용원"}]},{"lat":"37.719605127","long":"127.20405662","items":[{"name":"제로피트(ZERO FIT)","tel":"031-000-1234","addr":"경기도 남양주시 진접읍 금곡리 1057-2번지 남준빌 1층 101호","category":"레저업소 - 헬스클럽"}]},{"lat":"37.731665041","long":"127.21148548","items":[{"name":"제빵소덤","tel":"031-529-1111","addr":"경기도 남양주시 진접읍 금곡리 355번지 1동 1층","category":"일반휴게음식 - 서양음식"}]},{"lat":"37.714515679","long":"127.18691749","items":[{"name":"젤예쁜어린이집[아이행복]","tel":"031-528-3347","addr":"경기도 남양주시 진접읍 금곡리 965번지 자연앤어울림아파트 1309-101 1층","category":"학원 - 유아원"}]},{"lat":"37.724467165","long":"127.20588462","items":[{"name":"주곡초등학교병설유치원[아이행복]","tel":"031-574-6184","addr":"경기도 남양주시 진접읍 금곡리 1004번지 주곡초등학교","category":"학원 - 유치원"}]},{"lat":"37.729631151","long":"127.21019794","items":[{"name":"주리컴퍼니","tel":"","addr":"경기도 남양주시 진접읍 금곡리 456번지 1층","category":"레져용품 - 스포츠·레져용품"}]},{"lat":"37.727042892","long":"127.20647015","items":[{"name":"주식회사 더블유아이엔아이앤티","tel":"031-575-3722","addr":"경기도 남양주시 진접읍 금곡리 527-2번지","category":"음료식품 - 기타음료식품"}]},{"lat":"37.716940886","long":"127.20252963","items":[{"name":"주식회사 에스와이트레이드","tel":"","addr":"경기도 남양주시 진접읍 금곡리 1052-9번지 2층","category":"신변잡화 - 기타잡화"}]},{"lat":"37.717079289","long":"127.21610601","items":[{"name":"주식회사 장민석 진접축구센터","tel":"031-527-9782","addr":"경기도 남양주시 진접읍 금곡리 195번지","category":"학원 - 예·체능계학원"}]},{"lat":"37.713877593","long":"127.2129213","items":[{"name":"주식회사 지에이치엘","tel":"031-571-8990","addr":"경기도 남양주시 진접읍 금곡리 110번지","category":"보건위생 - 의료용품"}]},{"lat":"37.727993408","long":"127.20905904","items":[{"name":"주식회사후니교구","tel":"031-527-3155","addr":"경기도 남양주시 진접읍 금곡리 572번지","category":"가구 - 기타가구"}]},{"lat":"37.7186053","long":"127.20391781","items":[{"name":"주완유통","tel":"070-1111-1111","addr":"경기도 남양주시 진접읍 금곡리 1060-8번지","category":"신변잡화 - 기타잡화"}]},{"lat":"37.72176685","long":"127.19355939","items":[{"name":"지경농원","tel":"031-571-2026","addr":"경기도 남양주시 진접읍 금곡리 948-8.12","category":"문화.취미 - 화원"}]},{"lat":"37.715634366","long":"127.20785662","items":[{"name":"진접마루어린이집[아이행복]","tel":"031-575-0307","addr":"경기도 남양주시 진접읍 금곡리 778-3번지","category":"학원 - 유아원"}]},{"lat":"37.720021784","long":"127.2027534","items":[{"name":"진접성모안과의원","tel":"031-571-6699","addr":"경기도 남양주시 진접읍 금곡리 1042-1,2엠타워 507","category":"의원 - 의원"}]},{"lat":"37.725188298","long":"127.20567107","items":[{"name":"진접예랑어린이집[아이행복]","tel":"031-528-0450","addr":"경기도 남양주시 진접읍 금곡리 551-3번지","category":"학원 - 유아원"}]},{"lat":"37.716909709","long":"127.19963742","items":[{"name":"진접초등학교병설유치원[아이행복]","tel":"031-529-0226","addr":"경기도 남양주시 진접읍 금곡리 1109번지 진접초등학교","category":"학원 - 유치원"}]},{"lat":"37.716992766","long":"127.20381138","items":[{"name":"진접합판","tel":"031-574-1660","addr":"경기도 남양주시 진접읍 금곡리 848-1번지","category":"건축자재 - 목재·석재·철물"}]},{"lat":"37.719105435","long":"127.20119708","items":[{"name":"집김밥","tel":"","addr":"경기도 남양주시 진접읍 금곡리 1037-4번지 101호","category":"일반휴게음식 - 스넥"},{"name":"코리안바베큐","tel":"031-572-0104","addr":"경기도 남양주시 진접읍 금곡리 1037-4번지 1층 102호","category":"일반휴게음식 - 스넥"}]},{"lat":"37.718436201","long":"127.20269243","items":[{"name":"창신동매운족발","tel":"031-527-3646","addr":"경기도 남양주시 진접읍 금곡리 1045-3번지 1층","category":"일반휴게음식 - 일반한식"},{"name":"큰언니네푸드","tel":"031-575-5876","addr":"경기도 남양주시 진접읍 금곡리 1045-3번지 A동 1층","category":"음료식품 - 기타음료식품"}]},{"lat":"37.73187958","long":"127.21243897","items":[{"name":"창포크린 직원협동조합","tel":"031-527-3555","addr":"경기도 남양주시 진접읍 금곡리 329번지 101호","category":"수리서비스 - 세탁소"}]},{"lat":"37.714127791","long":"127.22391167","items":[{"name":"청운정","tel":"031-528-8589","addr":"경기도 남양주시 진접읍 금곡리 49-2번지","category":"일반휴게음식 - 일반한식"}]},{"lat":"37.721992325","long":"127.2042559","items":[{"name":"카리스커피(karis coffee)","tel":"031-573-0059","addr":"경기도 남양주시 진접읍 금곡리 1014-4번지","category":"일반휴게음식 - 서양음식"}]},{"lat":"37.71651611","long":"127.20331106","items":[{"name":"카젠금곡점(해밀카공업사)","tel":"031-528-6633","addr":"경기도 남양주시 진접읍 금곡리 855-4","category":"자동차정비 유지 - 자동차정비"},{"name":"쿨디테일","tel":"070-8874-7942","addr":"경기도 남양주시 진접읍 금곡리 855-4번지","category":"자동차정비 유지 - 카인테리어"}]},{"lat":"37.719132177","long":"127.20136729","items":[{"name":"카페 플라잉독","tel":"070-8870-4236","addr":"경기도 남양주시 진접읍 금곡리 1037-3번지 1층","category":"일반휴게음식 - 서양음식"}]},{"lat":"37.71443501","long":"127.20847709","items":[{"name":"카펜트리","tel":"031-527-0570","addr":"경기도 남양주시 진접읍 금곡리 810-2번지 1층","category":"일반휴게음식 - 서양음식"}]},{"lat":"37.719739514","long":"127.20449933","items":[{"name":"캠프바이오","tel":"031-572-0711","addr":"경기도 남양주시 진접읍 금곡리 1058-2번지 102호","category":"레져용품 - 스포츠·레져용품"},{"name":"헤어21","tel":"031-529-5328","addr":"경기도 남양주시 진접읍 금곡리 1058-2번지 102호","category":"보건위생 - 미용원"}]},{"lat":"37.729877922","long":"127.20819081","items":[{"name":"컴114","tel":"031-528-1114","addr":"경기도 남양주시 진접읍 금곡리 423번지","category":"수리서비스 - 사무·통신기기수리"}]},{"lat":"37.721659823","long":"127.20375593","items":[{"name":"크림앤","tel":"","addr":"경기도 남양주시 진접읍 금곡리 1015-5번지 1층","category":"일반휴게음식 - 서양음식"}]},{"lat":"37.720233536","long":"127.19459894","items":[{"name":"큰교육","tel":"031-510-5991","addr":"경기도 남양주시 진접읍 금곡리 971번지 해밀마을5단지반도유보라메이플타운 1510동 303호","category":"회원제형태 - 서적"}]},{"lat":"37.718267223","long":"127.20138766","items":[{"name":"키즈월드","tel":"070-4922-1261","addr":"경기도 남양주시 진접읍 금곡리 1037-15번지 101호","category":"의류 - 정장"}]},{"lat":"37.728267619","long":"127.20680247","items":[{"name":"태민판넬","tel":"031-571-3923","addr":"경기도 남양주시 진접읍 금곡리 534-1번지","category":"건축자재 - 기타건축자재"},{"name":"후니가구","tel":"031-527-3155","addr":"경기도 남양주시 진접읍 금곡리 534-1번지","category":"가구 - 일반가구"}]},{"lat":"37.719740328","long":"127.20402296","items":[{"name":"팜므헤어","tel":"031-575-2582","addr":"경기도 남양주시 진접읍 금곡리 1057-1번지 101호","category":"보건위생 - 미용원"}]},{"lat":"37.730104126","long":"127.20763559","items":[{"name":"펀 우드 (Fun Wood)","tel":"031-529-9939","addr":"경기도 남양주시 진접읍 금곡리 419-3번지 1층","category":"가구 - 일반가구"}]},{"lat":"37.733573025","long":"127.21263659","items":[{"name":"풍천미가","tel":"031-575-0392","addr":"경기도 남양주시 진접읍 금곡리 373-2번지","category":"일반휴게음식 - 일반한식"}]},{"lat":"37.721659321","long":"127.20405083","items":[{"name":"프롬리","tel":"031-528-4613","addr":"경기도 남양주시 진접읍 금곡리 1015-3번지 1층 101호","category":"일반휴게음식 - 서양음식"}]},{"lat":"37.720296368","long":"127.20020215","items":[{"name":"피자알볼로진접점","tel":"031-572-8497","addr":"경기도 남양주시 진접읍 금곡리 1031-6번지","category":"일반휴게음식 - 서양음식"}]},{"lat":"37.718076932","long":"127.20203364","items":[{"name":"필양꼬치","tel":"031-527-9202","addr":"경기도 남양주시 진접읍 금곡리 1041-4번지 101호","category":"일반휴게음식 - 일반한식"}]},{"lat":"37.732714812","long":"127.20883391","items":[{"name":"하늘마루","tel":"031-529-9235","addr":"경기도 남양주시 진접읍 금곡리 405번지 하늘마루","category":"음료식품 - 정육점"}]},{"lat":"37.718406006","long":"127.20455242","items":[{"name":"한국애견 교육기관","tel":"031-574-9298","addr":"경기도 남양주시 진접읍 금곡리 1061-8번지 301호","category":"문화.취미 - 애완동물"}]},{"lat":"37.715605354","long":"127.20377361","items":[{"name":"한드리 능이버섯백숙","tel":"031-529-7400","addr":"경기도 남양주시 진접읍 금곡리 841-14번지","category":"일반휴게음식 - 일반한식"}]},{"lat":"37.719911025","long":"127.20430697","items":[{"name":"한우리독서토론논술금곡논술교습소","tel":"031-528-2320","addr":"경기도 남양주시 진접읍 금곡리 1058번지 101호","category":"학원 - 보습학원"},{"name":"황금나무미술교습소","tel":"031-527-9455","addr":"경기도 남양주시 진접읍 금곡리 1058번지 102호","category":"학원 - 예·체능계학원"}]},{"lat":"37.719856221","long":"127.19392879","items":[{"name":"합천공예","tel":"031-510-7639","addr":"경기도 남양주시 진접읍 금곡리 971번지 반도유보라메이플타운 1507동 103호","category":"회원제형태 - 기타4"}]},{"lat":"37.71496576","long":"127.19836205","items":[{"name":"해나무키즈앤어르신한의원","tel":"031-529-7523","addr":"경기도 남양주시 진접읍 금곡리 1095 외1호평프라자404호","category":"의원 - 한의원"}]},{"lat":"37.731494041","long":"127.2113829","items":[{"name":"해물마을","tel":"031-528-0009","addr":"경기도 남양주시 진접읍 금곡리 355번지 2동","category":"일반휴게음식 - 일반한식"}]},{"lat":"37.720758569","long":"127.19306909","items":[{"name":"해밀유통","tel":"031-529-7311","addr":"경기도 남양주시 진접읍 금곡리 971번지 반도유보라메이플타운 1521동 402호","category":"음료식품 - 기타음료식품"}]},{"lat":"37.718600327","long":"127.19611455","items":[{"name":"해밀초등학교병설유치원[아이행복]","tel":"031-570-3630","addr":"경기도 남양주시 진접읍 금곡리 1077-2번지 해밀초등학교","category":"학원 - 유치원"}]},{"lat":"37.721992809","long":"127.20397234","items":[{"name":"해밀푸줏간","tel":"031-572-2904","addr":"경기도 남양주시 진접읍 금곡리 1014-6번지","category":"일반휴게음식 - 일반한식"},{"name":"헤어아떼","tel":"031-572-7857","addr":"경기도 남양주시 진접읍 금곡리 1014-6번지","category":"보건위생 - 미용원"}]},{"lat":"37.729353905","long":"127.20902878","items":[{"name":"행복한달마을 협동조합","tel":"031-527-2932","addr":"경기도 남양주시 진접읍 금곡리 466-3번지","category":"음료식품 - 기타음료식품"}]},{"lat":"37.731875517","long":"127.209637","items":[{"name":"혜리가구","tel":"031-571-1875","addr":"경기도 남양주시 진접읍 금곡리 438-2번지 438-4","category":"가구 - 일반가구"}]},{"lat":"37.715571348","long":"127.19163815","items":[{"name":"화봉초등학교병설유치원[아이행복]","tel":"031-573-2046","addr":"경기도 남양주시 진접읍 금곡리 1078번지 화봉초등학교","category":"학원 - 유치원"}]},{"lat":"37.720411493","long":"127.20139338","items":[{"name":"훈뮤직 스튜디오","tel":"031-572-6303","addr":"경기도 남양주시 진접읍 금곡리 1027-6번지","category":"용역 서비스 - 사무서비스"}]}]