[{"lat":"37.171109231","long":"126.95040097","items":[{"name":"(주)쉼터서비스","tel":"031-366-0238","addr":"경기도 화성시 정남면 백리 71-3번지","category":"자동차정비 유지 - 자동차정비"},{"name":"(주)쉼터서비스","tel":"031-366-0238","addr":"경기도 화성시 정남면 백리 71-3번지","category":"자동차정비 유지 - 자동차정비"},{"name":"(주)쉼터서비스","tel":"031-366-0238","addr":"경기도 화성시 정남면 백리 71-3번지","category":"자동차정비 유지 - 자동차정비"}]},{"lat":"37.172388787","long":"126.95056898","items":[{"name":"G.S OA퍼니처","tel":"031-366-5388","addr":"경기도 화성시 정남면 백리 24","category":"가구 - 기타가구"}]},{"lat":"37.165029558","long":"126.9560683","items":[{"name":"HNC코퍼레이션","tel":"031-1111-1111","addr":"경기도 화성시 정남면 백리 383번지","category":"기타 - 기계공구"}]},{"lat":"37.165029035","long":"126.95476229","items":[{"name":"가루명가","tel":"031-354-0693","addr":"경기도 화성시 정남면 백리 403-1번지 2","category":"음료식품 - 기타음료식품"}]},{"lat":"37.169911738","long":"126.95246227","items":[{"name":"고송쌈밥","tel":"031-353-6535","addr":"경기도 화성시 정남면 백리 110-1번지","category":"일반휴게음식 - 일반한식"}]},{"lat":"37.165941956","long":"126.96242898","items":[{"name":"공간채움협동조합","tel":"02-2642-0945","addr":"경기도 화성시 정남면 백리 213-8번지","category":"가구 - 일반가구"},{"name":"풀씨공방","tel":"031-352-0670","addr":"경기도 화성시 정남면 백리 213-8","category":"가구 - 일반가구"}]},{"lat":"37.168443247","long":"126.95295865","items":[{"name":"광림모터스","tel":"031-354-4482","addr":"경기도 화성시 정남면 백리 135-10번지","category":"수리서비스 - 기타수리서비스"},{"name":"신진기계","tel":"031-293-7398","addr":"경기도 화성시 정남면 백리 135-10번지 외1필지","category":"기타 - 기계공구"}]},{"lat":"37.168218019","long":"126.95303761","items":[{"name":"광림모터스","tel":"031-354-4482","addr":"경기도 화성시 정남면 백리 135번지 외1필지","category":"자동차정비 유지 - 자동차정비"},{"name":"광림종합자동차","tel":"031-8059-8977","addr":"경기도 화성시 정남면 백리 135번지","category":"자동차정비 유지 - 자동차정비"}]},{"lat":"37.168669467","long":"126.95528917","items":[{"name":"궁푸드&도시락","tel":"031-353-7811","addr":"경기도 화성시 정남면 백리 169번지","category":"음료식품 - 기타음료식품"}]},{"lat":"37.172910731","long":"126.94909358","items":[{"name":"농업회사법인 대한축산유통(주)","tel":"031-358-1166","addr":"경기도 화성시 정남면 백리 21-11번지","category":"음료식품 - 정육점"}]},{"lat":"37.167417236","long":"126.95584165","items":[{"name":"대림문구센터","tel":"031-353-2827","addr":"경기도 화성시 정남면 백리 158-2번지","category":"서적문구 - 문구용품"}]},{"lat":"37.171974392","long":"126.95076068","items":[{"name":"대일연마","tel":"031-354-7562","addr":"경기도 화성시 정남면 백리 33-2번지","category":"기타 - 기계공구"}]},{"lat":"37.169578232","long":"126.95218101","items":[{"name":"대타타공","tel":"031-366-2248","addr":"경기도 화성시 정남면 백리 107-9","category":"기타 - 기계공구"},{"name":"아론청과","tel":"031-352-5322","addr":"경기도 화성시 정남면 백리 107-9번지 1층","category":"음료식품 - 농·축·수산품"}]},{"lat":"37.17266785","long":"126.94998328","items":[{"name":"대한알곤","tel":"031-353-1671","addr":"경기도 화성시 정남면 백리 23번지","category":"기타 - 기계공구"},{"name":"렌탈세븐","tel":"070-4105-3633","addr":"경기도 화성시 정남면 백리 23","category":"신변잡화 - 기타잡화"},{"name":"세븐일레븐화성정남백리점","tel":"031-1577-0711","addr":"경기도 화성시 정남면 백리 23번지 105호","category":"유통업 영리 - 편 의 점"},{"name":"아림전기","tel":"031-353-6165","addr":"경기도 화성시 정남면 백리 23","category":"용역 서비스 - 기타용역서비스"}]},{"lat":"37.169307919","long":"126.95218119","items":[{"name":"대호펀칭&타공","tel":"031-366-2248","addr":"경기도 화성시 정남면 백리 107-1번지","category":"기타 - 기계공구"}]},{"lat":"37.171551157","long":"126.95134647","items":[{"name":"두리텍","tel":"070-8878-0310","addr":"경기도 화성시 정남면 백리 29-3번지","category":"기타 - 기계공구"}]},{"lat":"37.168137286","long":"126.95390462","items":[{"name":"두영에어텍","tel":"031-366-0266","addr":"경기도 화성시 정남면 백리 134","category":"건축자재 - 기타건축자재"}]},{"lat":"37.171082674","long":"126.95148191","items":[{"name":"드림한식부페","tel":"031-352-3238","addr":"경기도 화성시 정남면 백리 29-7번지","category":"일반휴게음식 - 일반한식"}]},{"lat":"37.164363985","long":"126.95920986","items":[{"name":"명성건드릴","tel":"031-8059-5541","addr":"경기도 화성시 정남면 백리 325번지","category":"기타 - 기계공구"}]},{"lat":"37.171550757","long":"126.95043444","items":[{"name":"명인와이어","tel":"031-353-8920","addr":"경기도 화성시 정남면 백리 34-10번지","category":"기타 - 기계공구"}]},{"lat":"37.170442776","long":"126.95112204","items":[{"name":"모모","tel":"031-353-1311","addr":"경기도 화성시 정남면 백리 74-2번지","category":"일반휴게음식 - 스넥"},{"name":"행복찬합도시락","tel":"031-8059-3166","addr":"경기도 화성시 정남면 백리 74-2번지 1층","category":"일반휴게음식 - 일반한식"}]},{"lat":"37.172190548","long":"126.9505466","items":[{"name":"미각한식뷔페","tel":"031-359-9589","addr":"경기도 화성시 정남면 백리 24-3번지 C동 1층","category":"일반휴게음식 - 일반한식"}]},{"lat":"37.169416255","long":"126.95267653","items":[{"name":"미래공조","tel":"031-352-8922","addr":"경기도 화성시 정남면 백리 108","category":"용역 서비스 - 기타용역서비스"}]},{"lat":"37.170416047","long":"126.95182014","items":[{"name":"삼우셀프주유소","tel":"031-359-8951","addr":"경기도 화성시 정남면 백리 74-3번지","category":"연료판매점 - SK주유소"}]},{"lat":"37.166030416","long":"126.9578691","items":[{"name":"서울철강","tel":"031-353-4459","addr":"경기도 화성시 정남면 백리 304-4번지","category":"건축자재 - 기타건축자재"}]},{"lat":"37.16988407","long":"126.9509873","items":[{"name":"세원이디엠","tel":"031-353-0936","addr":"경기도 화성시 정남면 백리 81번지","category":"기타 - 기계공구"}]},{"lat":"37.17024462","long":"126.95129106","items":[{"name":"세창종합상사","tel":"031-352-3839","addr":"경기도 화성시 정남면 백리 76","category":"신변잡화 - 기타잡화"},{"name":"양지약국","tel":"031-8047-3564","addr":"경기도 화성시 정남면 백리 76번지 1층","category":"약국 - 약국"},{"name":"제이엔에스커뮤니케이션","tel":"031-354-2524","addr":"경기도 화성시 정남면 백리 76,74-16","category":"의류 - 정장"}]},{"lat":"37.171199834","long":"126.95153813","items":[{"name":"신차이나","tel":"031-353-5723","addr":"경기도 화성시 정남면 백리 29-7번지 나동 1층","category":"일반휴게음식 - 중국식"}]},{"lat":"37.164526883","long":"126.96118003","items":[{"name":"씨유정남산업밸리점","tel":"080-080-3663","addr":"경기도 화성시 정남면 백리 283-7번지 1,2층","category":"유통업 영리 - 편 의 점"}]},{"lat":"37.171829905","long":"126.95004016","items":[{"name":"씨유화성백리점","tel":"031-8059-1799","addr":"경기도 화성시 정남면 백리 34-39번지","category":"유통업 영리 - 편 의 점"}]},{"lat":"37.17069495","long":"126.95085164","items":[{"name":"씽키즈","tel":"031-963-4266","addr":"경기도 화성시 정남면 백리 72번지","category":"서적문구 - 기타서적문구"}]},{"lat":"37.169335605","long":"126.95373496","items":[{"name":"엉클지","tel":"031-8059-1498","addr":"경기도 화성시 정남면 백리 118번지","category":"의류 - 아동의류"}]},{"lat":"37.167832262","long":"126.95723752","items":[{"name":"에어컨백화점","tel":"031-298-1196","addr":"경기도 화성시 정남면 백리 162번지","category":"수리서비스 - 가정용품수리"}]},{"lat":"37.169056305","long":"126.95379144","items":[{"name":"에이제이테크","tel":"","addr":"경기도 화성시 정남면 백리 119-1번지","category":"기타 - 기계공구"}]},{"lat":"37.165390772","long":"126.95812843","items":[{"name":"엑스그룹","tel":"031-303-9655","addr":"경기도 화성시 정남면 백리 349번지","category":"용역 서비스 - 기타용역서비스"}]},{"lat":"37.164112509","long":"126.96148424","items":[{"name":"엘종합중고기계","tel":"031-353-9433","addr":"경기도 화성시 정남면 백리 281-5,281-6","category":"건축자재 - 목재·석재·철물"}]},{"lat":"37.170245076","long":"126.95234945","items":[{"name":"엠플러스","tel":"031-366-3614","addr":"경기도 화성시 정남면 백리 111-4번지","category":"문화.취미 - 애완동물"},{"name":"주식회사 씨앤씨트레이딩","tel":"031-366-3614","addr":"경기도 화성시 정남면 백리 111-4번지","category":"농업 - 비료,사료,종자"}]},{"lat":"37.172577346","long":"126.94909381","items":[{"name":"영창ENG","tel":"031-378-8700","addr":"경기도 화성시 정남면 백리 34-1번지","category":"전기제품 - 기타전기제품"}]},{"lat":"37.164138235","long":"126.957904","items":[{"name":"오케이(OK)주문가구","tel":"031-1111-1111","addr":"경기도 화성시 정남면 백리 344-2번지 344-3, 344-4, 345-1","category":"가구 - 일반가구"}]},{"lat":"37.162148369","long":"126.96187935","items":[{"name":"우리들한식뷔페","tel":"031-353-1750","addr":"경기도 화성시 정남면 백리 271-15번지 제3동 1층","category":"일반휴게음식 - 일반한식"}]},{"lat":"37.168469481","long":"126.95110086","items":[{"name":"유일산업","tel":"031-366-0490","addr":"경기도 화성시 정남면 백리 105-5번지 외8필지","category":"건축자재 - 기타건축자재"}]},{"lat":"37.170109498","long":"126.95136997","items":[{"name":"정남에스코트","tel":"031-354-2524","addr":"경기도 화성시 정남면 백리 74-16번지 2층 스크린골프장","category":"레저업소 - 스크린골프"},{"name":"하늘집밥","tel":"031-359-9256","addr":"경기도 화성시 정남면 백리 74-16번지","category":"일반휴게음식 - 일반한식"}]},{"lat":"37.172027837","long":"126.9493757","items":[{"name":"제이앤케이F&C/원격지","tel":"031-8059-6824","addr":"경기도 화성시 정남면 백리 34-27번지","category":"기타 - 기타 전문점"}]},{"lat":"37.173442561","long":"126.94956612","items":[{"name":"제일떡방앗간","tel":"031-8059-5528","addr":"경기도 화성시 정남면 백리 19번지","category":"음료식품 - 제과점"}]},{"lat":"37.161608035","long":"126.96273526","items":[{"name":"주식회사 에코쉬레드","tel":"031-246-0566","addr":"경기도 화성시 정남면 백리 270번지","category":"용역 서비스 - 종합용역"}]},{"lat":"37.174523853","long":"126.94965544","items":[{"name":"주식회사 케이티알디","tel":"031-366-1348","addr":"경기도 화성시 정남면 백리 3번지 1층","category":"가구 - 일반가구"}]},{"lat":"37.172883152","long":"126.94790005","items":[{"name":"주식회사 태림이엔씨","tel":"031-232-8888","addr":"경기도 화성시 정남면 백리 45-2번지","category":"건축자재 - 기타건축자재"}]},{"lat":"37.164245012","long":"126.95448132","items":[{"name":"주식회사에어트로닉스","tel":"031-353-3058","addr":"경기도 화성시 정남면 백리 371-1,371-2","category":"기타 - 기계공구"}]},{"lat":"37.173216973","long":"126.94884564","items":[{"name":"진남모터스","tel":"031-354-5574","addr":"경기도 화성시 정남면 백리 21-10번지","category":"자동차정비 유지 - 자동차정비"}]},{"lat":"37.162252212","long":"126.95095875","items":[{"name":"카앤피플 화성5","tel":"","addr":"경기도 화성시 정남면 백리 462-18번지","category":"자동차정비 유지 - 세차장"}]},{"lat":"37.16994731","long":"126.95137008","items":[{"name":"하나유통","tel":"031-8059-7967","addr":"경기도 화성시 정남면 백리 76-5번지","category":"음료식품 - 정육점"}]},{"lat":"37.170776319","long":"126.95148212","items":[{"name":"한식뷔페백리","tel":"031-354-5792","addr":"경기도 화성시 정남면 백리 73-2번지","category":"일반휴게음식 - 일반한식"}]},{"lat":"37.171884228","long":"126.95062563","items":[{"name":"화성무역","tel":"031-235-6657","addr":"경기도 화성시 정남면 백리 33-1번지","category":"기타 - 기계공구"}]},{"lat":"37.17002855","long":"126.95170781","items":[{"name":"흥진모터스","tel":"031-352-5134","addr":"경기도 화성시 정남면 백리 77번지","category":"자동차정비 유지 - 윤활유 전문 판매"}]}]