[{"lat":"37.510077912","long":"127.39340391","items":[{"name":"(주)레몬트리","tel":"031-775-0801","addr":"경기도 양평군 양서면 국수리 392-4번지","category":"건축자재 - 기타건축자재"}]},{"lat":"37.51024416","long":"127.39760089","items":[{"name":"(주)삼성캐리어","tel":"070-4706-8233","addr":"경기도 양평군 양서면 국수리 348-1번지","category":"용역 서비스 - 기타용역서비스"},{"name":"금강명품벽난로","tel":"031-774-4555","addr":"경기도 양평군 양서면 국수리 348-1번지","category":"전기제품 - 냉열기기"}]},{"lat":"37.509908191","long":"127.39837952","items":[{"name":"GS25양평전자고점","tel":"","addr":"경기도 양평군 양서면 국수리 358-4번지","category":"유통업 영리 - 편 의 점"}]},{"lat":"37.512106562","long":"127.40107172","items":[{"name":"고기야","tel":"031-773-6723","addr":"경기도 양평군 양서면 국수리 326-13번지 나동 1층","category":"일반휴게음식 - 일반한식"},{"name":"기분좋은날","tel":"031-771-0891","addr":"경기도 양평군 양서면 국수리 326-13번지 나동","category":"일반휴게음식 - 일반한식"},{"name":"돈대박","tel":"031-774-5425","addr":"경기도 양평군 양서면 국수리 326-13번지","category":"일반휴게음식 - 일반한식"},{"name":"막회","tel":"031-771-1128","addr":"경기도 양평군 양서면 국수리 326-13번지","category":"일반휴게음식 - 일반한식"},{"name":"멀티셀 (multi sell)","tel":"070-8031-4038","addr":"경기도 양평군 양서면 국수리 326-13번지 1층","category":"의류 - 맞춤복점"},{"name":"아지트","tel":"031-774-2223","addr":"경기도 양평군 양서면 국수리 326-13번지 나동 1층","category":"일반휴게음식 - 일반한식"},{"name":"우리철물건재","tel":"031-774-7709","addr":"경기도 양평군 양서면 국수리 326-13번지 (외3필지가동1,2호)","category":"건축자재 - 기타건축자재"},{"name":"힐링채 시즌2","tel":"031-773-6723","addr":"경기도 양평군 양서면 국수리 326-13번지 나동 1층","category":"일반휴게음식 - 일반한식"}]},{"lat":"37.511075014","long":"127.399709","items":[{"name":"곤지암나래소머리국밥","tel":"031-772-9401","addr":"경기도 양평군 양서면 국수리 340-13번지","category":"일반휴게음식 - 일반한식"},{"name":"상하이","tel":"031-772-8311","addr":"경기도 양평군 양서면 국수리 340-13번지","category":"일반휴게음식 - 중국식"},{"name":"서울냉동공사","tel":"031-774-0409","addr":"경기도 양평군 양서면 국수리 340-13번지 1호","category":"수리서비스 - 가정용품수리"}]},{"lat":"37.509774783","long":"127.39515541","items":[{"name":"구도일주유소양서","tel":"031-773-5145","addr":"경기도 양평군 양서면 국수리 391-17번지 양서주유소","category":"연료판매점 - 쌍용S-OIL"},{"name":"구도일주유소양서","tel":"031-773-5145","addr":"경기도 양평군 양서면 국수리 391-17번지 양서주유소","category":"연료판매점 - 쌍용S-OIL"}]},{"lat":"37.515408297","long":"127.39984505","items":[{"name":"국수리의봄","tel":"031-771-1515","addr":"경기도 양평군 양서면 국수리 268-8","category":"문화.취미 - 화원"},{"name":"역전마당","tel":"031-772-7216","addr":"경기도 양평군 양서면 국수리 268-8","category":"일반휴게음식 - 일반한식"}]},{"lat":"37.511739412","long":"127.40040245","items":[{"name":"국수리청계산노래방","tel":"031-775-1133","addr":"경기도 양평군 양서면 국수리 328-4번지 지하층","category":"레저업소 - 노 래 방"}]},{"lat":"37.51571124","long":"127.40085334","items":[{"name":"국수리칼국수","tel":"031-773-0348","addr":"경기도 양평군 양서면 국수리 252-8번지","category":"일반휴게음식 - 일반한식"}]},{"lat":"37.511961186","long":"127.40143289","items":[{"name":"국수마을","tel":"031-772-6311","addr":"경기도 양평군 양서면 국수리 326-4","category":"일반휴게음식 - 일반한식"},{"name":"제일공업사","tel":"031-772-6753","addr":"경기도 양평군 양서면 국수리 326-4번지","category":"자동차정비 유지 - 자동차정비"}]},{"lat":"37.511049656","long":"127.3992112","items":[{"name":"국수셀프세차장","tel":"031-771-2344","addr":"경기도 양평군 양서면 국수리 340-5","category":"자동차정비 유지 - 세차장"}]},{"lat":"37.510494931","long":"127.40073516","items":[{"name":"국수중학교","tel":"070-7009-2983","addr":"경기도 양평군 양서면 국수리 330-12번지 국수중학교 (양평전자과학고등학교)","category":"학원 - 초중고교육기관"},{"name":"양평전자과학고등학교","tel":"070-7009-2983","addr":"경기도 양평군 양서면 국수리 330-12번지 양평전자과학고등학교","category":"학원 - 초중고교육기관"},{"name":"양평전자과학고등학교_수업료","tel":"070-7009-2983","addr":"경기도 양평군 양서면 국수리 330-12번지 양평전자과학고등학교","category":"학원 - 초중고교육기관"}]},{"lat":"37.512239189","long":"127.40181893","items":[{"name":"까페하라","tel":"031-775-8869","addr":"경기도 양평군 양서면 국수리 326-37번지 2층","category":"일반휴게음식 - 서양음식"},{"name":"또래오래 양평국수리점","tel":"031-000-0000","addr":"경기도 양평군 양서면 국수리 326-37번지 2층","category":"일반휴게음식 - 일반한식"},{"name":"유로앤틱","tel":"031-775-4272","addr":"경기도 양평군 양서면 국수리 326-37번지 1층","category":"가구 - 기타가구"},{"name":"유앤미(U&Me)","tel":"070-4151-3947","addr":"경기도 양평군 양서면 국수리 326-37번지 2층","category":"일반휴게음식 - 서양음식"}]},{"lat":"37.514991515","long":"127.39785211","items":[{"name":"대성우드","tel":"031-775-0873","addr":"경기도 양평군 양서면 국수리 288-2번지","category":"가구 - 일반가구"},{"name":"북앤북","tel":"","addr":"경기도 양평군 양서면 국수리 288-2번지 1층","category":"서적문구 - 일반서적"}]},{"lat":"37.509405502","long":"127.39782267","items":[{"name":"대주철물","tel":"031-111-1111","addr":"경기도 양평군 양서면 국수리 355번지","category":"건축자재 - 목재·석재·철물"}]},{"lat":"37.509633479","long":"127.3942951","items":[{"name":"돌마을","tel":"031-771-0041","addr":"경기도 양평군 양서면 국수리 391-11번지","category":"건축자재 - 목재·석재·철물"}]},{"lat":"37.509740208","long":"127.39471413","items":[{"name":"동방석재","tel":"031-772-6073","addr":"경기도 양평군 양서면 국수리 391-12번지","category":"건축자재 - 목재·석재·철물"}]},{"lat":"37.523656837","long":"127.40648381","items":[{"name":"동현상사","tel":"031-772-7431","addr":"경기도 양평군 양서면 국수리 96-1번지","category":"음료식품 - 농·축·수산품"}]},{"lat":"37.509379418","long":"127.39753978","items":[{"name":"두영전기공사","tel":"031-771-2883","addr":"경기도 양평군 양서면 국수리 351번지 1층","category":"건축자재 - 조명기구"},{"name":"모노조립식창고 주식회사","tel":"031-772-0111","addr":"경기도 양평군 양서면 국수리 351번지 1층","category":"건축자재 - 기타건축자재"},{"name":"창성","tel":"031-773-2345","addr":"경기도 양평군 양서면 국수리 351번지","category":"농업 - 농기계"}]},{"lat":"37.513795068","long":"127.39998354","items":[{"name":"맛있는집","tel":"031-775-5564","addr":"경기도 양평군 양서면 국수리 275-5번지","category":"일반휴게음식 - 일반한식"}]},{"lat":"37.512690132","long":"127.4016856","items":[{"name":"삼전숯불갈비","tel":"031-775-1915","addr":"경기도 양평군 양서면 국수리 321-1번지","category":"일반휴게음식 - 일반한식"}]},{"lat":"37.514244906","long":"127.40017821","items":[{"name":"성하 인테리어","tel":"031-772-7215","addr":"경기도 양평군 양서면 국수리 275-1번지","category":"용역 서비스 - 기타용역서비스"}]},{"lat":"37.508661629","long":"127.3939281","items":[{"name":"씨유양평만남의광장점","tel":"031-775-6660","addr":"경기도 양평군 양서면 국수리 391-5번지","category":"유통업 영리 - 편 의 점"}]},{"lat":"37.511657106","long":"127.40076395","items":[{"name":"아트하임","tel":"031-774-8204","addr":"경기도 양평군 양서면 국수리 328-9번지 2층 나호","category":"문화.취미 - 문화취미기타"},{"name":"요거프레소 양평국수점","tel":"070-7404-1468","addr":"경기도 양평군 양서면 국수리 328-9번지","category":"일반휴게음식 - 서양음식"},{"name":"이마트24 양평국수리점","tel":"02-6916-1500","addr":"경기도 양평군 양서면 국수리 328-9번지","category":"유통업 영리 - 편 의 점"},{"name":"이마트24 양평국수리점","tel":"02-6916-1500","addr":"경기도 양평군 양서면 국수리 328-9번지","category":"유통업 영리 - 편 의 점"}]},{"lat":"37.510238859","long":"127.3991843","items":[{"name":"안흥촌두부밥상","tel":"031-774-4034","addr":"경기도 양평군 양서면 국수리 338-13번지","category":"일반휴게음식 - 일반한식"}]},{"lat":"37.511352642","long":"127.40020813","items":[{"name":"양평갈비","tel":"031-774-2938","addr":"경기도 양평군 양서면 국수리 330-5번지","category":"일반휴게음식 - 일반한식"}]},{"lat":"37.510856804","long":"127.40029598","items":[{"name":"양평선지해장국","tel":"031-771-6888","addr":"경기도 양평군 양서면 국수리 331-5","category":"일반휴게음식 - 일반한식"}]},{"lat":"37.51982432","long":"127.4074586","items":[{"name":"에스와이에어컨","tel":"031-771-1246","addr":"경기도 양평군 양서면 국수리 30-6번지","category":"용역 서비스 - 기타용역서비스"}]},{"lat":"37.512296604","long":"127.4008239","items":[{"name":"영진샷시공사","tel":"031-773-9885","addr":"경기도 양평군 양서면 국수리 322-17","category":"건축자재 - 보일러·펌프·샷시"}]},{"lat":"37.512436447","long":"127.40210274","items":[{"name":"전주가마솥장작불곰탕","tel":"031-775-1566","addr":"경기도 양평군 양서면 국수리 326-35번지","category":"일반휴게음식 - 일반한식"},{"name":"최가네오리곰탕","tel":"031-774-9228","addr":"경기도 양평군 양서면 국수리 326-35번지","category":"일반휴게음식 - 일반한식"}]},{"lat":"37.515744162","long":"127.39910029","items":[{"name":"지에스파크24 (주) 국수역주차장","tel":"02-3272-3500","addr":"경기도 양평군 양서면 국수리 258-25번지 일원","category":"자동차정비 유지 - 주차장"},{"name":"코레일네트웍스(주)자전거셰어링국수점","tel":"031-772-7578","addr":"경기도 양평군 양서면 국수리 258-25번지 국수역","category":"레져용품 - 스포츠·레져용품"}]},{"lat":"37.510273606","long":"127.39687718","items":[{"name":"진양상사","tel":"031-772-6794","addr":"경기도 양평군 양서면 국수리 347-10","category":"연료판매점 - 기타연료"}]},{"lat":"37.510913865","long":"127.39940276","items":[{"name":"처갓집양념치킨국수점","tel":"031-771-2344","addr":"경기도 양평군 양서면 국수리 340-3번지","category":"일반휴게음식 - 일반한식"},{"name":"청산막국수","tel":"031-773-0170","addr":"경기도 양평군 양서면 국수리 340-3번지 1층","category":"일반휴게음식 - 일반한식"},{"name":"토스트앤핫도그","tel":"031-774-0409","addr":"경기도 양평군 양서면 국수리 340-3번지","category":"일반휴게음식 - 서양음식"}]},{"lat":"37.522267143","long":"127.40712112","items":[{"name":"초이건축사사무소","tel":"031-771-9462","addr":"경기도 양평군 양서면 국수리 84-4","category":"용역 서비스 - 사무서비스"}]},{"lat":"37.516939184","long":"127.3946839","items":[{"name":"카플러스","tel":"02-444-4122","addr":"경기도 양평군 양서면 국수리 511-9번지 그랜드빌리지","category":"자동차정비 유지 - 자동차부품"}]},{"lat":"37.512050634","long":"127.40162564","items":[{"name":"커피앤트레블","tel":"031-773-2279","addr":"경기도 양평군 양서면 국수리 326-38번지","category":"일반휴게음식 - 서양음식"}]},{"lat":"37.508691874","long":"127.3929556","items":[{"name":"큰댁순두부쌈밥","tel":"031-774-9970","addr":"경기도 양평군 양서면 국수리 391-10번지 2층","category":"일반휴게음식 - 일반한식"}]},{"lat":"37.51060575","long":"127.39993272","items":[{"name":"타이어코리아 양평","tel":"031-771-0158","addr":"경기도 양평군 양서면 국수리 332-4번지 331-8,331-25","category":"자동차정비 유지 - 자동차시트·타이어"}]},{"lat":"37.510691239","long":"127.39862117","items":[{"name":"하늘정원","tel":"031-771-3315","addr":"경기도 양평군 양서면 국수리 347-2","category":"문화.취미 - 화원"}]},{"lat":"37.515712116","long":"127.40059319","items":[{"name":"한지아 음악교습소","tel":"","addr":"경기도 양평군 양서면 국수리 258-4번지 101호","category":"학원 - 예·체능계학원"}]},{"lat":"37.515410348","long":"127.39923426","items":[{"name":"황토마루","tel":"031-772-7380","addr":"경기도 양평군 양서면 국수리 267-3","category":"일반휴게음식 - 일반한식"}]},{"lat":"37.524630633","long":"127.40889861","items":[{"name":"힐링채","tel":"031-771-6726","addr":"경기도 양평군 양서면 국수리 2-11번지","category":"일반휴게음식 - 일반한식"}]}]