[{"lat":"37.349822943","long":"127.61178271","items":[{"name":"단고재","tel":"031-884-9894","addr":"경기도 여주시 대신면 가산리 214-7번지","category":"문화.취미 - 민예·공예품"}]},{"lat":"37.352404294","long":"127.61266132","items":[{"name":"세종드림","tel":"031-885-6304","addr":"경기도 여주시 대신면 가산리 182번지","category":"주방용구 - 주방용식기"},{"name":"행복한나눔","tel":"02-1899-4153","addr":"경기도 여주시 대신면 가산리 182번지","category":"보건위생 - 화장품"}]},{"lat":"37.345291332","long":"127.62039072","items":[{"name":"손도예","tel":"031-883-3013","addr":"경기도 여주시 대신면 가산리 287-4번지","category":"주방용구 - 주방용식기"}]},{"lat":"37.349905427","long":"127.6287802","items":[{"name":"아뜨리움현(H)","tel":"031-885-3996","addr":"경기도 여주시 대신면 가산리 79-1번지","category":"문화.취미 - 민예·공예품"}]},{"lat":"37.33765496","long":"127.61264363","items":[{"name":"여산.도유가","tel":"031-884-2744","addr":"경기도 여주시 대신면 가산리 611-1번지","category":"문화.취미 - 민예·공예품"}]},{"lat":"37.343796542","long":"127.61849386","items":[{"name":"영광상사","tel":"031-885-0427","addr":"경기도 여주시 대신면 가산리 391번지","category":"전기제품 - 가전제품"}]},{"lat":"37.348157661","long":"127.63044728","items":[{"name":"정대설비","tel":"031-883-4999","addr":"경기도 여주시 대신면 가산리 49-9","category":"용역 서비스 - 기타용역서비스"}]},{"lat":"37.338517946","long":"127.61477207","items":[{"name":"준소요","tel":"031-885-1712","addr":"경기도 여주시 대신면 가산리 538-1번지","category":"문화.취미 - 민예·공예품"}]},{"lat":"37.339382199","long":"127.6131654","items":[{"name":"타이거건설","tel":"031-881-2537","addr":"경기도 여주시 대신면 가산리 535번지","category":"용역 서비스 - 기타용역서비스"}]}]