[{"lat":"37.191379093","long":"126.75111773","imageIndex":17,"items":[{"name":"(주)상진산업","tel":"031-355-6544","addr":"경기도 화성시 마도면 금당리 214-17","indutype":"사무통신 - 기타 사무용품","category":"other"}]},{"lat":"37.188659662","long":"126.74770306","imageIndex":17,"items":[{"name":"제일마대","tel":"031-430-7163","addr":"경기도 화성시 마도면 금당리 195-10번지 1층","indutype":"유통업 영리 - 기타유통업","category":"other"}]},{"lat":"37.189990904","long":"126.74250662","imageIndex":17,"items":[{"name":"주식회사 원테크","tel":"031-357-9951","addr":"경기도 화성시 마도면 금당리 168-2번지","indutype":"용역 서비스 - 기타용역서비스","category":"other"}]},{"lat":"37.190384501","long":"126.74949924","imageIndex":17,"items":[{"name":"주식회사대영엠.티.씨","tel":"031-355-6655","addr":"경기도 화성시 마도면 금당리 214-10","indutype":"서적문구 - 과학기자재","category":"other"},{"name":"주식회사대영엠.티.씨/원격지","tel":"031-355-6655","addr":"경기도 화성시 마도면 금당리 214-10","indutype":"기타 - 기타 전문점","category":"other"}]},{"lat":"37.187882125","long":"126.74647811","imageIndex":17,"items":[{"name":"주식회사우신판지","tel":"031-432-9587","addr":"경기도 화성시 마도면 금당리 194번지 C동","indutype":"유통업 영리 - 기타유통업","category":"other"}]}]