[{"lat":"37.728492005","long":"127.11261848","imageIndex":0,"items":[{"name":"마루아웃도어","tel":"070-8159-8848","addr":"경기도 의정부시 산곡동 228번지","indutype":"자동차정비 유지 - 자동차부품","category":"car"}]},{"lat":"37.713047897","long":"127.10443011","imageIndex":0,"items":[{"name":"신원타이어","tel":"031-876-3373","addr":"경기도 의정부시 산곡동 522-18번지","indutype":"자동차정비 유지 - 자동차시트·타이어","category":"car"}]},{"lat":"37.712903861","long":"127.10429382","imageIndex":0,"items":[{"name":"우리카프라자","tel":"031-821-1191","addr":"경기도 의정부시 산곡동 522-24번지","indutype":"자동차정비 유지 - 자동차정비","category":"car"}]},{"lat":"37.725824336","long":"127.11351064","imageIndex":0,"items":[{"name":"천기사","tel":"02-971-3272","addr":"경기도 의정부시 산곡동 188번지","indutype":"자동차정비 유지 - 자동차정비","category":"car"}]},{"lat":"37.712517361","long":"127.10322724","imageIndex":0,"items":[{"name":"휠 아트 코리아","tel":"031-821-5777","addr":"경기도 의정부시 산곡동 536-1번지 가동","indutype":"자동차정비 유지 - 자동차정비","category":"car"}]}]