[{"lat":"37.683196028","long":"127.37792842","items":[{"name":"(주) 상미푸드시스템","tel":"031-584-6786","addr":"경기도 가평군 청평면 대성리 399-57번지","category":"음료식품 - 기타음료식품"},{"name":"대성리해물짬뽕","tel":"031-584-8807","addr":"경기도 가평군 청평면 대성리 399-57번지","category":"일반휴게음식 - 중국식"}]},{"lat":"37.724937422","long":"127.40786838","items":[{"name":"(주)말리부보트코리아","tel":"","addr":"경기도 가평군 청평면 대성리 23-11번지 103호","category":"레져용품 - 스포츠·레져용품"},{"name":"더블유컴패니","tel":"070-8886-1952","addr":"경기도 가평군 청평면 대성리 23-11번지","category":"레져용품 - 스포츠·레져용품"},{"name":"엠케이에스(MKS)기획","tel":"031-584-1990","addr":"경기도 가평군 청평면 대성리 23-11번지 지하 101호","category":"건축자재 - 인테리어전문"}]},{"lat":"37.68424916","long":"127.37823981","items":[{"name":"(주)엠씨렌트카","tel":"031-429-0113","addr":"경기도 가평군 청평면 대성리 399-24번지","category":"자동차판매 - 중고자동차판매"},{"name":"한국에서두번째양평해장국","tel":"031-585-9687","addr":"경기도 가평군 청평면 대성리 399-24번지","category":"일반휴게음식 - 일반한식"}]},{"lat":"37.679582092","long":"127.37542766","items":[{"name":"(주)엠씨앤코 가평점","tel":"031-584-1044","addr":"경기도 가평군 청평면 대성리 633-1번지 유스캠프타워","category":"숙박업 - 여관/기타숙박업"},{"name":"대성리유스캠프","tel":"031-584-0144","addr":"경기도 가평군 청평면 대성리 633-1번지 유스캠프타워","category":"숙박업 - 여관/기타숙박업"}]},{"lat":"37.697887129","long":"127.3846469","items":[{"name":"GS25 가평대성점","tel":"","addr":"경기도 가평군 청평면 대성리 344-19번지 2층","category":"유통업 영리 - 편 의 점"},{"name":"주식회사 암정보마켓","tel":"031-584-8900","addr":"경기도 가평군 청평면 대성리 344-19번지","category":"음료식품 - 기타음료식품"}]},{"lat":"37.67838728","long":"127.37717873","items":[{"name":"GS25경춘대성점","tel":"","addr":"경기도 가평군 청평면 대성리 621-4번지","category":"유통업 영리 - 편 의 점"},{"name":"디에스충전소","tel":"031-584-9200","addr":"경기도 가평군 청평면 대성리 621-4번지","category":"연료판매점 - E1가스충전소"}]},{"lat":"37.683828275","long":"127.37743279","items":[{"name":"PAT대성리점","tel":"031-585-8861","addr":"경기도 가평군 청평면 대성리 399-10번지 일패패션아울렛 1층","category":"의류 - 정장"},{"name":"빨간커피통","tel":"031-585-8500","addr":"경기도 가평군 청평면 대성리 399-10번지","category":"일반휴게음식 - 서양음식"},{"name":"아식스가평점","tel":"031-585-4765","addr":"경기도 가평군 청평면 대성리 399-10번지","category":"레져용품 - 스포츠·레져용품"},{"name":"유성프라자","tel":"031-511-2751","addr":"경기도 가평군 청평면 대성리 399-10번지","category":"의류 - 스포츠의류"},{"name":"인디언 대성리점","tel":"031-584-4752","addr":"경기도 가평군 청평면 대성리 399-10번지 1층","category":"의류 - 스포츠의류"},{"name":"주식회사 크리스에프앤씨","tel":"02-2049-1884","addr":"경기도 가평군 청평면 대성리 399-10번지 가동","category":"의류 - 스포츠의류"},{"name":"주식회사씨앤비","tel":"031-584-5888","addr":"경기도 가평군 청평면 대성리 399-10번지","category":"의류 - 스포츠의류"},{"name":"크로커다일","tel":"031-584-5523","addr":"경기도 가평군 청평면 대성리 399-10번지","category":"의류 - 정장"}]},{"lat":"37.717993981","long":"127.4017287","items":[{"name":"SK네트웍스(주)청평그린주유소","tel":"031-585-8388","addr":"경기도 가평군 청평면 대성리 56-1번지 청평그린주유소","category":"연료판매점 - SK주유소"},{"name":"삼미상사(주)청평그린셀프주유소","tel":"031-585-8388","addr":"경기도 가평군 청평면 대성리 56-1번지","category":"연료판매점 - SK주유소"},{"name":"청평그린(주)","tel":"031-585-2812","addr":"경기도 가평군 청평면 대성리 56-1번지","category":"연료판매점 - SK주유소"},{"name":"청평그린(주)","tel":"031-585-2812","addr":"경기도 가평군 청평면 대성리 56-1번지","category":"연료판매점 - SK가스충전소"},{"name":"청평그린LPG충전소,휴게소,편의점","tel":"031-585-7399","addr":"경기도 가평군 청평면 대성리 56-1번지 외2필지","category":"음료식품 - 기타음료식품"},{"name":"청평그린휴게소","tel":"031-585-7399","addr":"경기도 가평군 청평면 대성리 56-6번지","category":"음료식품 - 기타음료식품"},{"name":"행복충전소","tel":"031-585-2813","addr":"경기도 가평군 청평면 대성리 56-1번지","category":"연료판매점 - SK가스충전소"}]},{"lat":"37.693859928","long":"127.36753972","items":[{"name":"가구밸리","tel":"070-8656-8761","addr":"경기도 가평군 청평면 대성리 562-5번지","category":"가구 - 일반가구"},{"name":"주식회사 보니애가구","tel":"031-8656-8763","addr":"경기도 가평군 청평면 대성리 562-5번지","category":"가구 - 일반가구"}]},{"lat":"37.696418629","long":"127.38462804","items":[{"name":"가람민박","tel":"02-2245-2785","addr":"경기도 가평군 청평면 대성리 332-31번지","category":"숙박업 - 여관/기타숙박업"}]},{"lat":"37.684778113","long":"127.37048815","items":[{"name":"가족슈퍼","tel":"031-584-6751","addr":"경기도 가평군 청평면 대성리 796번지","category":"유통업 영리 - 슈퍼마켓"}]},{"lat":"37.681528557","long":"127.37814675","items":[{"name":"가평 농산물가공 협동조합","tel":"031-000-0000","addr":"경기도 가평군 청평면 대성리 396번지","category":"음료식품 - 기타음료식품"},{"name":"미니스톱대성리점","tel":"031-584-2976","addr":"경기도 가평군 청평면 대성리 396번지","category":"유통업 영리 - 편 의 점"},{"name":"미니스톱대성리점","tel":"031-584-2976","addr":"경기도 가평군 청평면 대성리 396번지","category":"유통업 영리 - 편 의 점"},{"name":"부원상회","tel":"031-584-2976","addr":"경기도 가평군 청평면 대성리 396번지","category":"유통업 영리 - 슈퍼마켓"},{"name":"북한강 팜파티 협동조합","tel":"031-584-3866","addr":"경기도 가평군 청평면 대성리 396번지","category":"일반휴게음식 - 서양음식"},{"name":"중앙휀스","tel":"031-584-4879","addr":"경기도 가평군 청평면 대성리 396번지","category":"용역 서비스 - 기타용역서비스"}]},{"lat":"37.726024843","long":"127.40603674","items":[{"name":"가평청솔잣영농조합법인","tel":"031-584-1779","addr":"경기도 가평군 청평면 대성리 13-2","category":"음료식품 - 농·축·수산품"}]},{"lat":"37.724443816","long":"127.4073099","items":[{"name":"가평콘테이너","tel":"031-584-4988","addr":"경기도 가평군 청평면 대성리 33-1번지","category":"건축자재 - 기타건축자재"}]},{"lat":"37.699112411","long":"127.38465319","items":[{"name":"가평특산물 판매장","tel":"","addr":"경기도 가평군 청평면 대성리 343-12","category":"음료식품 - 기타음료식품"}]},{"lat":"37.681275318","long":"127.37845155","items":[{"name":"강남태양열","tel":"031-585-3318","addr":"경기도 가평군 청평면 대성리 599-3 20/6","category":"전기제품 - 냉열기기"}]},{"lat":"37.680414266","long":"127.37723425","items":[{"name":"강마을 시골밥상","tel":"","addr":"경기도 가평군 청평면 대성리 626-2번지","category":"일반휴게음식 - 일반한식"}]},{"lat":"37.681134231","long":"127.37748727","items":[{"name":"강산애민박","tel":"031-584-0660","addr":"경기도 가평군 청평면 대성리 593-3번지","category":"숙박업 - 여관/기타숙박업"},{"name":"대가집","tel":"031-584-0660","addr":"경기도 가평군 청평면 대성리 593-3번지","category":"일반휴게음식 - 일반한식"}]},{"lat":"37.680807916","long":"127.37526374","items":[{"name":"건아들","tel":"031-511-1005","addr":"경기도 가평군 청평면 대성리 586-11번지","category":"숙박업 - 여관/기타숙박업"},{"name":"건아들II","tel":"031-511-1005","addr":"경기도 가평군 청평면 대성리 586-11번지 2층","category":"일반휴게음식 - 일반한식"}]},{"lat":"37.73096516","long":"127.38620059","items":[{"name":"경도유통","tel":"0303-3440-1489","addr":"경기도 가평군 청평면 대성리 223번지","category":"의류 - 정장"}]},{"lat":"37.685000413","long":"127.3714302","items":[{"name":"그린몽키","tel":"031-584-4685","addr":"경기도 가평군 청평면 대성리 402-3번지","category":"숙박업 - 여관/기타숙박업"}]},{"lat":"37.680666279","long":"127.37731487","items":[{"name":"그린춘천닭갈비","tel":"031-584-4289","addr":"경기도 가평군 청평면 대성리 593-5번지","category":"일반휴게음식 - 일반한식"},{"name":"그린춘천닭갈비","tel":"031-584-4289","addr":"경기도 가평군 청평면 대성리 593-5","category":"일반휴게음식 - 일반한식"}]},{"lat":"37.687744344","long":"127.36982256","items":[{"name":"꿈에 그린 식당","tel":"031-584-9478","addr":"경기도 가평군 청평면 대성리 422-8번지","category":"일반휴게음식 - 일반한식"}]},{"lat":"37.688139313","long":"127.37028933","items":[{"name":"꿈에그린펜션","tel":"031-584-9478","addr":"경기도 가평군 청평면 대성리 424-1번지","category":"유통업 영리 - 슈퍼마켓"}]},{"lat":"37.696800654","long":"127.38350748","items":[{"name":"남원본가맛추어탕","tel":"031-584-2217","addr":"경기도 가평군 청평면 대성리 332-20번지","category":"일반휴게음식 - 일반한식"},{"name":"씨유청평대인점","tel":"031-584-6863","addr":"경기도 가평군 청평면 대성리 332-20번지","category":"유통업 영리 - 편 의 점"},{"name":"조안찐빵","tel":"031-584-5815","addr":"경기도 가평군 청평면 대성리 332-20번지 3동","category":"음료식품 - 제과점"},{"name":"토루커피","tel":"031-584-8417","addr":"경기도 가평군 청평면 대성리 332-20번지","category":"일반휴게음식 - 서양음식"}]},{"lat":"37.689383175","long":"127.36721169","items":[{"name":"늘푸른식당","tel":"031-584-6865","addr":"경기도 가평군 청평면 대성리 570-2번지","category":"일반휴게음식 - 일반한식"},{"name":"늘푸른캠프매점","tel":"","addr":"경기도 가평군 청평면 대성리 570-2번지","category":"음료식품 - 기타음료식품"}]},{"lat":"37.696661069","long":"127.38208945","items":[{"name":"다큐하우스펜션","tel":"031-584-1808","addr":"경기도 가평군 청평면 대성리 337번지 다큐하우스펜션","category":"숙박업 - 여관/기타숙박업"}]},{"lat":"37.716746541","long":"127.40028164","items":[{"name":"대산건설.신청평주유소","tel":"031-584-5400","addr":"경기도 가평군 청평면 대성리 69-5번지 1층","category":"연료판매점 - 쌍용S-OIL"},{"name":"신청평주유소","tel":"031-584-5400","addr":"경기도 가평군 청평면 대성리 69-5번지","category":"연료판매점 - 쌍용S-OIL"}]},{"lat":"37.697135356","long":"127.38308966","items":[{"name":"대성등나무식당","tel":"031-584-0667","addr":"경기도 가평군 청평면 대성리 341-6번지","category":"일반휴게음식 - 일반한식"}]},{"lat":"37.684583993","long":"127.372063","items":[{"name":"대성랜드 매점","tel":"031-584-8380","addr":"경기도 가평군 청평면 대성리 576번지","category":"음료식품 - 기타음료식품"}]},{"lat":"37.686946024","long":"127.36868492","items":[{"name":"대성리 모꼬지펜션","tel":"070-8884-5969","addr":"경기도 가평군 청평면 대성리 572-52번지","category":"숙박업 - 여관/기타숙박업"}]},{"lat":"37.681108446","long":"127.37992441","items":[{"name":"대성리 수상레저 힐링 MT 빠지","tel":"","addr":"경기도 가평군 청평면 대성리 392-36번지 창고","category":"레져용품 - 스포츠·레져용품"},{"name":"엠앤엠(M&M)펜션","tel":"070-8826-0745","addr":"경기도 가평군 청평면 대성리 392-36","category":"숙박업 - 여관/기타숙박업"}]},{"lat":"37.682025411","long":"127.37772981","items":[{"name":"대성리맛있는밥상","tel":"031-584-6838","addr":"경기도 가평군 청평면 대성리 399-29","category":"일반휴게음식 - 일반한식"},{"name":"대성리맛있는밥상","tel":"031-584-6838","addr":"경기도 가평군 청평면 대성리 399-29번지","category":"일반휴게음식 - 일반한식"},{"name":"주방백화점","tel":"031-594-0006","addr":"경기도 가평군 청평면 대성리 399-29번지","category":"수리서비스 - 사무·통신기기수리"}]},{"lat":"37.679358538","long":"127.37773906","items":[{"name":"대성리맷돌손두부","tel":"031-584-5185","addr":"경기도 가평군 청평면 대성리 613번지","category":"일반휴게음식 - 일반한식"}]},{"lat":"37.684805817","long":"127.37315242","items":[{"name":"대성리유스호스텔","tel":"031-585-8843","addr":"경기도 가평군 청평면 대성리 578-3번지","category":"숙박업 - 여관/기타숙박업"},{"name":"소란캠프매점","tel":"031-585-8843","addr":"경기도 가평군 청평면 대성리 578-3번지","category":"음료식품 - 기타음료식품"}]},{"lat":"37.68547076","long":"127.37940233","items":[{"name":"대성리토종순대국","tel":"031-585-7333","addr":"경기도 가평군 청평면 대성리 399-89번지","category":"일반휴게음식 - 일반한식"},{"name":"하늘에너지(주)대성주유소","tel":"031-584-2097","addr":"경기도 가평군 청평면 대성리 399-89번지","category":"연료판매점 - GS주유소"}]},{"lat":"37.687058072","long":"127.37031801","items":[{"name":"대성리하늘정원","tel":"031-585-2273","addr":"경기도 가평군 청평면 대성리 420-2번지 하늘정원","category":"숙박업 - 여관/기타숙박업"},{"name":"하늘정원매점","tel":"031-585-2273","addr":"경기도 가평군 청평면 대성리 420-2번지","category":"음료식품 - 기타음료식품"}]},{"lat":"37.684886014","long":"127.37912729","items":[{"name":"대성리할인마트","tel":"031-584-8957","addr":"경기도 가평군 청평면 대성리 399-103번지","category":"유통업 영리 - 슈퍼마켓"},{"name":"카페베네대성리역점","tel":"031-584-9520","addr":"경기도 가평군 청평면 대성리 399-103번지","category":"일반휴게음식 - 서양음식"}]},{"lat":"37.681503367","long":"127.37756848","items":[{"name":"대성마트","tel":"031-584-4637","addr":"경기도 가평군 청평면 대성리 399-51번지","category":"유통업 영리 - 슈퍼마켓"},{"name":"대성마트","tel":"031-584-4637","addr":"경기도 가평군 청평면 대성리 399-51번지","category":"유통업 영리 - 슈퍼마켓"},{"name":"대성정육점","tel":"031-584-4637","addr":"경기도 가평군 청평면 대성리 399-51번지 대성정육점","category":"음료식품 - 정육점"}]},{"lat":"37.680555932","long":"127.37801715","items":[{"name":"대성면옥","tel":"031-84-1314","addr":"경기도 가평군 청평면 대성리 598번지","category":"일반휴게음식 - 갈비전문점"}]},{"lat":"37.681585172","long":"127.37734216","items":[{"name":"대성모텔","tel":"031-584-6162","addr":"경기도 가평군 청평면 대성리 399-42번지","category":"숙박업 - 여관/기타숙박업"},{"name":"대성모텔","tel":"031-584-0767","addr":"경기도 가평군 청평면 대성리 399-42,399-134,399-136,399-119","category":"숙박업 - 여관/기타숙박업"}]},{"lat":"37.680109772","long":"127.37948859","items":[{"name":"대성민박","tel":"031-584-2281","addr":"경기도 가평군 청평면 대성리 392-5","category":"숙박업 - 여관/기타숙박업"},{"name":"이오스펜션","tel":"031-584-0663","addr":"경기도 가평군 청평면 대성리 392-16번지 외2필지","category":"숙박업 - 여관/기타숙박업"}]},{"lat":"37.680134772","long":"127.38012353","items":[{"name":"대성수상레저","tel":"031-584-3119","addr":"경기도 가평군 청평면 대성리 601-2","category":"회원제형태 - 레져업소"}]},{"lat":"37.716994043","long":"127.38259001","items":[{"name":"대성에프알피","tel":"031-54-3101","addr":"경기도 가평군 청평면 대성리 710번지","category":"기타 - 기타 전문점"}]},{"lat":"37.693800362","long":"127.36640562","items":[{"name":"대성의료종합 메디칼","tel":"031-585-7871","addr":"경기도 가평군 청평면 대성리 560-1번지","category":"보건위생 - 의료용품"},{"name":"대성의료종합가스","tel":"031-585-7871","addr":"경기도 가평군 청평면 대성리 560-1번지 외1필지","category":"기타 - 기타 전문점"},{"name":"대성의료종합가스","tel":"031-585-7871","addr":"경기도 가평군 청평면 대성리 560-1번지","category":"보건위생 - 의료용품"}]},{"lat":"37.682719679","long":"127.37756326","items":[{"name":"대성초등학교","tel":"031-584-0794","addr":"경기도 가평군 청평면 대성리 399-16번지 대성초등학교","category":"학원 - 초중고교육기관"}]},{"lat":"37.734634279","long":"127.41748445","items":[{"name":"대성휴게소","tel":"031-584-8365","addr":"경기도 가평군 청평면 대성리 399-103번지","category":"음료식품 - 기타음료식품"}]},{"lat":"37.690111718","long":"127.38189737","items":[{"name":"더#펜션","tel":"070-9647-2397","addr":"경기도 가평군 청평면 대성리 389-13번지","category":"음료식품 - 기타음료식품"}]},{"lat":"37.681193138","long":"127.37595718","items":[{"name":"동림캠프","tel":"031-584-0795","addr":"경기도 가평군 청평면 대성리 589","category":"숙박업 - 여관/기타숙박업"}]},{"lat":"37.679198672","long":"127.37701276","items":[{"name":"동진산업","tel":"031-584-5982","addr":"경기도 가평군 청평면 대성리 624-4","category":"레져용품 - 스포츠·레져용품"}]},{"lat":"37.695721898","long":"127.38276497","items":[{"name":"둥지칼국수","tel":"031-584-3688","addr":"경기도 가평군 청평면 대성리 335-13번지","category":"일반휴게음식 - 일반한식"}]},{"lat":"37.698112524","long":"127.37615533","items":[{"name":"듀크펜션","tel":"031-584-9790","addr":"경기도 가평군 청평면 대성리 362-2번지","category":"숙박업 - 여관/기타숙박업"}]},{"lat":"37.698084993","long":"127.37631393","items":[{"name":"듀크하우스","tel":"031-584-9790","addr":"경기도 가평군 청평면 대성리 362-10","category":"숙박업 - 여관/기타숙박업"}]},{"lat":"37.686999236","long":"127.36895727","items":[{"name":"또바기 펜션","tel":"","addr":"경기도 가평군 청평면 대성리 572-29번지","category":"숙박업 - 여관/기타숙박업"}]},{"lat":"37.71938012","long":"127.40212176","items":[{"name":"레드스키컴퍼니","tel":"031-584-2131","addr":"경기도 가평군 청평면 대성리 94-3번지","category":"레져용품 - 스포츠·레져용품"},{"name":"마린씨티","tel":"031-585-5660","addr":"경기도 가평군 청평면 대성리 94-3번지","category":"기타 - 기계공구"},{"name":"상암소머리국밥순대국","tel":"031-584-8883","addr":"경기도 가평군 청평면 대성리 94-3번지","category":"일반휴게음식 - 일반한식"}]},{"lat":"37.693361459","long":"127.36848967","items":[{"name":"리버스파","tel":"031-582-8972","addr":"경기도 가평군 청평면 대성리 565번지","category":"음료식품 - 기타음료식품"}]},{"lat":"37.686273253","long":"127.37920232","items":[{"name":"리젠에너지 주식회사","tel":"031-511-7277","addr":"경기도 가평군 청평면 대성리 399-142번지","category":"전기제품 - 기타전기제품"},{"name":"주식회사디에스(D.S)","tel":"031-584-1818","addr":"경기도 가평군 청평면 대성리 399-142","category":"연료판매점 - SK주유소"}]},{"lat":"37.718496625","long":"127.40228715","items":[{"name":"마린랜드(주)","tel":"031-585-5211","addr":"경기도 가평군 청평면 대성리 99-3번지 1층","category":"레져용품 - 스포츠·레져용품"}]},{"lat":"37.685192301","long":"127.37056955","items":[{"name":"마마트앤카페엔젤","tel":"031-000-0000","addr":"경기도 가평군 청평면 대성리 410번지 1층","category":"유통업 영리 - 슈퍼마켓"},{"name":"용우동","tel":"031-581-9090","addr":"경기도 가평군 청평면 대성리 410번지","category":"일반휴게음식 - 일반한식"},{"name":"용우동","tel":"031-581-9090","addr":"경기도 가평군 청평면 대성리 410번지","category":"일반휴게음식 - 일반한식"},{"name":"주식회사 꿈의동산(지점)","tel":"031-585-0025","addr":"경기도 가평군 청평면 대성리 402-1번지","category":"레저업소 - 종합레져타운"},{"name":"화랑포주유소(가스충전소)","tel":"031-585-8158","addr":"경기도 가평군 청평면 대성리 193-15","category":"연료판매점 - E1가스충전소"}]},{"lat":"37.719185729","long":"127.40365189","items":[{"name":"말리부수상레저","tel":"031-3791-6488","addr":"경기도 가평군 청평면 대성리 55-1번지","category":"레저업소 - 기타레져업소"}]},{"lat":"37.679443687","long":"127.37929251","items":[{"name":"맑은한강장","tel":"","addr":"경기도 가평군 청평면 대성리 602-1번지","category":"숙박업 - 여관/기타숙박업"}]},{"lat":"37.717159677","long":"127.3815134","items":[{"name":"머내밤나무집","tel":"031-584-1927","addr":"경기도 가평군 청평면 대성리 257","category":"일반휴게음식 - 일반한식"}]},{"lat":"37.685082384","long":"127.37114719","items":[{"name":"메노뮤직","tel":"02-461-6712","addr":"경기도 가평군 청평면 대성리 402-1번지","category":"문화.취미 - 티켓"},{"name":"실로암펜션/(주)꿈의동산","tel":"031-585-1300","addr":"경기도 가평군 청평면 대성리 402-1번지","category":"숙박업 - 여관/기타숙박업"}]},{"lat":"37.699667597","long":"127.37728568","items":[{"name":"메모리아펜션","tel":"031-585-8401","addr":"경기도 가평군 청평면 대성리 361-41번지","category":"숙박업 - 여관/기타숙박업"}]},{"lat":"37.721080663","long":"127.40278874","items":[{"name":"명산농원","tel":"031-584-0837","addr":"경기도 가평군 청평면 대성리 104-5","category":"음료식품 - 기타음료식품"}]},{"lat":"37.72066137","long":"127.40156153","items":[{"name":"모닝힐","tel":"031-584-8848","addr":"경기도 가평군 청평면 대성리 90-19","category":"숙박업 - 여관/기타숙박업"}]},{"lat":"37.688918535","long":"127.37176703","items":[{"name":"모차르트팬션","tel":"031-571-8231","addr":"경기도 가평군 청평면 대성리 430-11","category":"숙박업 - 여관/기타숙박업"}]},{"lat":"37.679889738","long":"127.37500976","items":[{"name":"문승호","tel":"031-585-0027","addr":"경기도 가평군 청평면 대성리 632-2","category":"숙박업 - 여관/기타숙박업"}]},{"lat":"37.690552452","long":"127.38212637","items":[{"name":"밀키웨이펜션","tel":"031-584-3642","addr":"경기도 가평군 청평면 대성리 389-2번지 1-3층","category":"숙박업 - 여관/기타숙박업"}]},{"lat":"37.687162005","long":"127.36876534","items":[{"name":"별 그리고 펜션","tel":"","addr":"경기도 가평군 청평면 대성리 572-28번지","category":"숙박업 - 여관/기타숙박업"}]},{"lat":"37.6897493","long":"127.37403865","items":[{"name":"별내리는 펜션","tel":"070-4129-6938","addr":"경기도 가평군 청평면 대성리 430-10번지","category":"숙박업 - 여관/기타숙박업"}]},{"lat":"37.698580511","long":"127.37915113","items":[{"name":"별이보이는집","tel":"031-584-1820","addr":"경기도 가평군 청평면 대성리 361-48번지","category":"숙박업 - 여관/기타숙박업"}]},{"lat":"37.686417941","long":"127.37046223","items":[{"name":"별찌","tel":"031-584-0809","addr":"경기도 가평군 청평면 대성리 418-2번지","category":"숙박업 - 여관/기타숙박업"}]},{"lat":"37.701355427","long":"127.38476674","items":[{"name":"보르도 펜션","tel":"031-585-8265","addr":"경기도 가평군 청평면 대성리 321-30번지","category":"숙박업 - 여관/기타숙박업"}]},{"lat":"37.733463841","long":"127.39350775","items":[{"name":"보훈라파소독","tel":"031-585-7344","addr":"경기도 가평군 청평면 대성리 158-2번지","category":"직물 - 침구·수예점"}]},{"lat":"37.677419606","long":"127.37548486","items":[{"name":"북한강 송어축제","tel":"031-584-0135","addr":"경기도 가평군 청평면 대성리 806 외 2필지","category":"문화.취미 - 티켓"}]},{"lat":"37.724381713","long":"127.39637514","items":[{"name":"블루비팬션","tel":"031-584-7100","addr":"경기도 가평군 청평면 대성리 107-14번지 1동","category":"숙박업 - 여관/기타숙박업"}]},{"lat":"37.694163741","long":"127.36543231","items":[{"name":"비알프렌드","tel":"031-584-5530","addr":"경기도 가평군 청평면 대성리 532번지 1,2층","category":"가구 - 일반가구"}]},{"lat":"37.681389767","long":"127.37929101","items":[{"name":"비원슈퍼","tel":"031-584-2243","addr":"경기도 가평군 청평면 대성리 395-3번지","category":"유통업 영리 - 슈퍼마켓"},{"name":"비원식당","tel":"031-584-2243","addr":"경기도 가평군 청평면 대성리 395-3번지","category":"일반휴게음식 - 일반한식"}]},{"lat":"37.68705477","long":"127.36848139","items":[{"name":"사계절펜션","tel":"070-8884-5969","addr":"경기도 가평군 청평면 대성리 572-1번지","category":"숙박업 - 여관/기타숙박업"}]},{"lat":"37.680554506","long":"127.37562523","items":[{"name":"산과들에캠프","tel":"031-584-6627","addr":"경기도 가평군 청평면 대성리 586번지","category":"숙박업 - 여관/기타숙박업"}]},{"lat":"37.688608606","long":"127.36712854","items":[{"name":"산여울캠프","tel":"070-4204-0796","addr":"경기도 가평군 청평면 대성리 산188-3번지","category":"숙박업 - 여관/기타숙박업"}]},{"lat":"37.680859609","long":"127.37601219","items":[{"name":"삼성부란자","tel":"031-584-5681","addr":"경기도 가평군 청평면 대성리 587-1번지 대성푸르지오 201호","category":"회원제형태 - 기타4"}]},{"lat":"37.68102464","long":"127.3779515","items":[{"name":"삼원낚시","tel":"031-584-4203","addr":"경기도 가평군 청평면 대성리 609-6번지","category":"레져용품 - 스포츠·레져용품"},{"name":"신일슈퍼","tel":"031-584-0091","addr":"경기도 가평군 청평면 대성리 596번지","category":"유통업 영리 - 슈퍼마켓"},{"name":"신일슈퍼낚시","tel":"031-584-0091","addr":"경기도 가평군 청평면 대성리 596번지","category":"유통업 영리 - 슈퍼마켓"}]},{"lat":"37.719662416","long":"127.40389264","items":[{"name":"세계불교달마종","tel":"031-585-0888","addr":"경기도 가평군 청평면 대성리 49-4번지","category":"학원 - 기타 교육기관"}]},{"lat":"37.721631196","long":"127.40250814","items":[{"name":"소돌말민박매점","tel":"031-584-4838","addr":"경기도 가평군 청평면 대성리 108번지","category":"음료식품 - 기타음료식품"}]},{"lat":"37.732105751","long":"127.38453891","items":[{"name":"소중한사람들 의원","tel":"031-582-0191","addr":"경기도 가평군 청평면 대성리 220번지 1층","category":"의원 - 의원"}]},{"lat":"37.685806428","long":"127.37009644","items":[{"name":"솔거","tel":"031-585-4794","addr":"경기도 가평군 청평면 대성리 413-3번지 외1번지(413-6)","category":"음료식품 - 기타음료식품"},{"name":"솔거펜션","tel":"031-585-4794","addr":"경기도 가평군 청평면 대성리 413-3번지","category":"숙박업 - 여관/기타숙박업"}]},{"lat":"37.696413577","long":"127.38340345","items":[{"name":"솔밭춘천막국수","tel":"031-584-1263","addr":"경기도 가평군 청평면 대성리 333-14번지","category":"일반휴게음식 - 일반한식"},{"name":"솔밭춘천막국수","tel":"031-584-1263","addr":"경기도 가평군 청평면 대성리 333-14번지","category":"일반휴게음식 - 일반한식"}]},{"lat":"37.719547838","long":"127.40314345","items":[{"name":"송세원 찐빵커피","tel":"031-584-5777","addr":"경기도 가평군 청평면 대성리 100-3번지","category":"일반휴게음식 - 일반한식"},{"name":"카리브수상레저","tel":"070-8741-5724","addr":"경기도 가평군 청평면 대성리 100-3번지 선","category":"레저업소 - 기타레져업소"}]},{"lat":"37.696276012","long":"127.37853854","items":[{"name":"숲속의 아침","tel":"02-494-2740","addr":"경기도 가평군 청평면 대성리 360-3번지","category":"숙박업 - 여관/기타숙박업"}]},{"lat":"37.698776959","long":"127.37687301","items":[{"name":"스카이 밸리","tel":"031-111-1111","addr":"경기도 가평군 청평면 대성리 362-20번지","category":"숙박업 - 여관/기타숙박업"}]},{"lat":"37.685859001","long":"127.37057285","items":[{"name":"스톤하우스A동","tel":"","addr":"경기도 가평군 청평면 대성리 403-5번지 1층","category":"숙박업 - 여관/기타숙박업"}]},{"lat":"37.681773578","long":"127.37759251","items":[{"name":"신의주찹쌀순대","tel":"031-584-4198","addr":"경기도 가평군 청평면 대성리 399-31번지 1층","category":"일반휴게음식 - 일반한식"}]},{"lat":"37.683942839","long":"127.37823827","items":[{"name":"쌀 단호박찐빵","tel":"031-584-0675","addr":"경기도 가평군 청평면 대성리 399-25번지","category":"일반휴게음식 - 일반한식"},{"name":"호두까기 호두과자","tel":"031-584-5933","addr":"경기도 가평군 청평면 대성리 399-25번지","category":"음료식품 - 제과점"}]},{"lat":"37.683221036","long":"127.37856339","items":[{"name":"씨유대성리점","tel":"031-585-8229","addr":"경기도 가평군 청평면 대성리 399-77번지","category":"유통업 영리 - 편 의 점"},{"name":"홀릭(Holic)","tel":"070-7717-2929","addr":"경기도 가평군 청평면 대성리 399-77번지","category":"의류 - 정장"}]},{"lat":"37.68496952","long":"127.37836815","items":[{"name":"씨유청평경춘로점","tel":"031-584-0581","addr":"경기도 가평군 청평면 대성리 399번지","category":"유통업 영리 - 편 의 점"}]},{"lat":"37.698132658","long":"127.37548644","items":[{"name":"아우룸 숲(Aurum Forest)","tel":"031-584-9790","addr":"경기도 가평군 청평면 대성리 산 126-5 외 4필지","category":"음료식품 - 농·축·수산품"}]},{"lat":"37.705470536","long":"127.39097943","items":[{"name":"안내낚시","tel":"031-584-8705","addr":"경기도 가평군 청평면 대성리 732-1번지","category":"레져용품 - 스포츠·레져용품"},{"name":"안내낚시","tel":"031-584-8705","addr":"경기도 가평군 청평면 대성리 305-3번지","category":"레져용품 - 스포츠·레져용품"}]},{"lat":"37.685278253","long":"127.37189639","items":[{"name":"알엠씨(RMC)","tel":"070-7198-2420","addr":"경기도 가평군 청평면 대성리 575-6번지 402호","category":"전기제품 - 가전제품"}]},{"lat":"37.687273946","long":"127.37043245","items":[{"name":"어반플레이스","tel":"031-584-9478","addr":"경기도 가평군 청평면 대성리 420-3번지","category":"일반휴게음식 - 서양음식"}]},{"lat":"37.69427415","long":"127.3617366","items":[{"name":"언덕위에하얀집","tel":"031-585-1248","addr":"경기도 가평군 청평면 대성리 518-10","category":"숙박업 - 여관/기타숙박업"}]},{"lat":"37.689473359","long":"127.38148597","items":[{"name":"엘프라도","tel":"","addr":"경기도 가평군 청평면 대성리 391-3번지 B동","category":"숙박업 - 여관/기타숙박업"}]},{"lat":"37.72016495","long":"127.40711651","items":[{"name":"엠에스 강변집(MS)","tel":"","addr":"경기도 가평군 청평면 대성리 산1","category":"레저업소 - 기타레져업소"}]},{"lat":"37.710830962","long":"127.39378585","items":[{"name":"오작교농원식당","tel":"031-584-8519","addr":"경기도 가평군 청평면 대성리 291-1번지","category":"일반휴게음식 - 일반한식"}]},{"lat":"37.696557073","long":"127.37798437","items":[{"name":"우드캐슬","tel":"031-585-3668","addr":"경기도 가평군 청평면 대성리 360-11번지","category":"숙박업 - 여관/기타숙박업"}]},{"lat":"37.697028485","long":"127.3827036","items":[{"name":"우리숯불갈비","tel":"031-584-1018","addr":"경기도 가평군 청평면 대성리 340-19","category":"일반휴게음식 - 일반한식"}]},{"lat":"37.718442249","long":"127.3805105","items":[{"name":"원천","tel":"070-6270-8358","addr":"경기도 가평군 청평면 대성리 243-4번지","category":"건강식품 - 기타건강식품"},{"name":"일심","tel":"031-584-3931","addr":"경기도 가평군 청평면 대성리 243-4번지","category":"음료식품 - 기타음료식품"}]},{"lat":"37.694166318","long":"127.3645933","items":[{"name":"월드스쿨","tel":"02-425-1254","addr":"경기도 가평군 청평면 대성리 535-4,A동","category":"의류 - 정장"}]},{"lat":"37.689725004","long":"127.38167999","items":[{"name":"위드메이크","tel":"070-4343-4974","addr":"경기도 가평군 청평면 대성리 389-22번지 101,102호","category":"일반휴게음식 - 일반한식"}]},{"lat":"37.7420464","long":"127.42333465","items":[{"name":"유성프라자","tel":"","addr":"경기도 가평군 청평면 대성리 399-10번지","category":"의류"}]},{"lat":"37.718082847","long":"127.40209212","items":[{"name":"윤원뚝배기짬뽕","tel":"031-584-1080","addr":"경기도 가평군 청평면 대성리 56-6번지 A동 2층","category":"일반휴게음식 - 중국식"},{"name":"이디야 가평대성점","tel":"031-584-8288","addr":"경기도 가평군 청평면 대성리 56-6번지","category":"일반휴게음식 - 서양음식"},{"name":"이마트24 청평휴게소점","tel":"","addr":"경기도 가평군 청평면 대성리 56-6번지","category":"유통업 영리 - 편 의 점"},{"name":"청평밥상","tel":"031-1111-1111","addr":"경기도 가평군 청평면 대성리 56-6번지 A동 1층","category":"일반휴게음식 - 일반한식"}]},{"lat":"37.696856582","long":"127.37729423","items":[{"name":"율림동산","tel":"031-584-3133","addr":"경기도 가평군 청평면 대성리 360-5번지","category":"일반휴게음식 - 일반한식"},{"name":"율림동산","tel":"031-584-2090","addr":"경기도 가평군 청평면 대성리 360-5번지","category":"일반휴게음식 - 일반한식"}]},{"lat":"37.685275046","long":"127.37003713","items":[{"name":"이마트24 대성리MT마을점","tel":"","addr":"경기도 가평군 청평면 대성리 412-4번지","category":"유통업 영리 - 편 의 점"}]},{"lat":"37.692966398","long":"127.38232007","items":[{"name":"일톤커피","tel":"031-585-6884","addr":"경기도 가평군 청평면 대성리 379-4번지 1,2층","category":"일반휴게음식 - 서양음식"},{"name":"일톤커피(1 ton coffee)","tel":"031-585-6881","addr":"경기도 가평군 청평면 대성리 379-4번지","category":"일반휴게음식 - 서양음식"},{"name":"캠프가든","tel":"031-585-6682","addr":"경기도 가평군 청평면 대성리 379-4번지","category":"일반휴게음식 - 일반한식"},{"name":"캠프가든","tel":"031-585-6882","addr":"경기도 가평군 청평면 대성리 379-4번지 지층","category":"일반휴게음식 - 일반한식"}]},{"lat":"37.69689071","long":"127.37789534","items":[{"name":"자유시간","tel":"031-584-3600","addr":"경기도 가평군 청평면 대성리 359-8번지","category":"숙박업 - 여관/기타숙박업"}]},{"lat":"37.69747332","long":"127.38445202","items":[{"name":"자이언트펫","tel":"031-585-7003","addr":"경기도 가평군 청평면 대성리 332-21번지","category":"문화.취미 - 애완동물"},{"name":"자이언트펫","tel":"031-585-7003","addr":"경기도 가평군 청평면 대성리 332-21번지","category":"문화.취미 - 애완동물"}]},{"lat":"37.719326909","long":"127.40187195","items":[{"name":"작은터","tel":"031-584-8660","addr":"경기도 가평군 청평면 대성리 92-3번지","category":"일반휴게음식 - 일반한식"}]},{"lat":"37.720883033","long":"127.40261754","items":[{"name":"장원식당","tel":"031-584-0828","addr":"경기도 가평군 청평면 대성리 105-2번지","category":"일반휴게음식 - 일반한식"}]},{"lat":"37.723241256","long":"127.40328809","items":[{"name":"재섭이네","tel":"033-111-1111","addr":"경기도 가평군 청평면 대성리 산42-12","category":"음료식품 - 농·축·수산품"}]},{"lat":"37.728021931","long":"127.406921","items":[{"name":"전주밥상붸페","tel":"031-585-0173","addr":"경기도 가평군 청평면 대성리 3-5번지","category":"일반휴게음식 - 일반한식"}]},{"lat":"37.695245851","long":"127.3651201","items":[{"name":"제이엠유통","tel":"031-459-1312","addr":"경기도 가평군 청평면 대성리 545-5번지","category":"직물 - 옷감·직물"}]},{"lat":"37.702416927","long":"127.38803794","items":[{"name":"종가집닭한마리","tel":"031-584-0166","addr":"경기도 가평군 청평면 대성리 310-4번지","category":"일반휴게음식 - 일반한식"},{"name":"종가집닭한마리","tel":"","addr":"경기도 가평군 청평면 대성리 310-4번지","category":"일반휴게음식 - 일반한식"},{"name":"카페쁘라제르","tel":"031-584-7147","addr":"경기도 가평군 청평면 대성리 310-4번지 2층","category":"일반휴게음식 - 서양음식"}]},{"lat":"37.685581721","long":"127.36992528","items":[{"name":"주식회사 카사미하스","tel":"031-585-3333","addr":"경기도 가평군 청평면 대성리 413-6번지","category":"숙박업 - 여관/기타숙박업"}]},{"lat":"37.690026678","long":"127.38032102","items":[{"name":"주식회사 한국초콜릿연구소뮤지엄","tel":"031-585-4691","addr":"경기도 가평군 청평면 대성리 383-111번지","category":"문화.취미 - 티켓"}]},{"lat":"37.687611281","long":"127.36915301","items":[{"name":"주식회사더마을","tel":"070-8844-5626","addr":"경기도 가평군 청평면 대성리 572-42번지","category":"용역 서비스 - 부동산 중개·임대"},{"name":"주식회사더마을펜션","tel":"070-884-4562","addr":"경기도 가평군 청평면 대성리 572-42번지 1층","category":"숙박업 - 여관/기타숙박업"}]},{"lat":"37.685445612","long":"127.37881268","items":[{"name":"착한닭갈비","tel":"031-584-5616","addr":"경기도 가평군 청평면 대성리 399-163번지","category":"일반휴게음식 - 일반한식"}]},{"lat":"37.703550299","long":"127.39134362","items":[{"name":"첫집","tel":"031-512-7976","addr":"경기도 가평군 청평면 대성리 산 250","category":"여행 - 여객선"}]},{"lat":"37.697521408","long":"127.38351116","items":[{"name":"청평화롯불벽난로","tel":"031-585-0043","addr":"경기도 가평군 청평면 대성리 342-17번지","category":"전기제품 - 냉열기기"}]},{"lat":"37.689724939","long":"127.3674061","items":[{"name":"초록나무펜션","tel":"031-585-7529","addr":"경기도 가평군 청평면 대성리 570-1번지","category":"숙박업 - 여관/기타숙박업"}]},{"lat":"37.689468218","long":"127.37173574","items":[{"name":"카사드까페","tel":"031-528-6263","addr":"경기도 가평군 청평면 대성리 428-21번지 2층","category":"일반휴게음식 - 서양음식"}]},{"lat":"37.687718373","long":"127.36948232","items":[{"name":"카페더마을","tel":"031-563-6072","addr":"경기도 가평군 청평면 대성리 572-44번지","category":"일반휴게음식 - 서양음식"}]},{"lat":"37.694161647","long":"127.363176","items":[{"name":"칸레져","tel":"031-584-3980","addr":"경기도 가평군 청평면 대성리 522번지","category":"레저업소 - 기타레져업소"}]},{"lat":"37.683634315","long":"127.37892824","items":[{"name":"코레일네트웍스(주)/자전거셰어링대성리역","tel":"031-576-7951","addr":"경기도 가평군 청평면 대성리 393-3번지","category":"레져용품 - 스포츠·레져용품"}]},{"lat":"37.694049264","long":"127.36457005","items":[{"name":"쿨마린레져","tel":"031-584-1011","addr":"경기도 가평군 청평면 대성리 533번지","category":"레져용품 - 스포츠·레져용품"}]},{"lat":"37.689633582","long":"127.3678138","items":[{"name":"클럽노블픽","tel":"031-584-5588","addr":"경기도 가평군 청평면 대성리 569-1번지","category":"일반휴게음식 - 일반한식"}]},{"lat":"37.693521905","long":"127.36904603","items":[{"name":"킴스캐빈","tel":"031-1111-1111","addr":"경기도 가평군 청평면 대성리 441-9번지 1936호","category":"숙박업 - 여관/기타숙박업"}]},{"lat":"37.679670324","long":"127.37601757","items":[{"name":"테마모텔","tel":"031-584-3344","addr":"경기도 가평군 청평면 대성리 623-37번지","category":"숙박업 - 여관/기타숙박업"}]},{"lat":"37.682134821","long":"127.37732225","items":[{"name":"토크싱어 신이준 카페","tel":"031-584-6177","addr":"경기도 가평군 청평면 대성리 399-41번지","category":"일반휴게음식 - 서양음식"}]},{"lat":"37.679889202","long":"127.3751798","items":[{"name":"트라움/(주)쥬빌라테","tel":"031-585-2261","addr":"경기도 가평군 청평면 대성리 632-1번지","category":"숙박업 - 여관/기타숙박업"},{"name":"트라움호텔콘도","tel":"031-585-2216","addr":"경기도 가평군 청평면 대성리 632-1번지 (트라움)","category":"숙박업 - 여관/기타숙박업"}]},{"lat":"37.696443465","long":"127.37970725","items":[{"name":"하늘담은","tel":"031-585-8261","addr":"경기도 가평군 청평면 대성리 357-1","category":"숙박업 - 여관/기타숙박업"}]},{"lat":"37.698501128","long":"127.38423052","items":[{"name":"학산주유소","tel":"031-584-9000","addr":"경기도 가평군 청평면 대성리 3번지","category":"연료판매점 - SK주유소"}]},{"lat":"37.696274422","long":"127.37903743","items":[{"name":"해오름펜션","tel":"031-584-6667","addr":"경기도 가평군 청평면 대성리 358-1번지","category":"숙박업 - 여관/기타숙박업"}]},{"lat":"37.696693953","long":"127.38026411","items":[{"name":"해후","tel":"031-585-4567","addr":"경기도 가평군 청평면 대성리 356-10번지","category":"일반휴게음식 - 일반한식"}]},{"lat":"37.696081746","long":"127.38012494","items":[{"name":"화수목","tel":"031-585-5010","addr":"경기도 가평군 청평면 대성리 366-3번지 2층","category":"신변잡화 - 기타잡화"},{"name":"화수목","tel":"031-585-5010","addr":"경기도 가평군 청평면 대성리 366-3번지 산울림가든 1층 1호","category":"신변잡화 - 기타잡화"}]},{"lat":"37.679557395","long":"127.37753602","items":[{"name":"히든플랜트","tel":"031-111-1111","addr":"경기도 가평군 청평면 대성리 610번지","category":"일반휴게음식 - 서양음식"}]}]