[{"lat":"37.789120571","long":"127.16441964","items":[{"name":"(주)유앤유 호텔 아뜨리에","tel":"031-543-5152","addr":"경기도 포천시 소흘읍 고모리 725-3번지 502-26","category":"숙박업 - 여관/기타숙박업"}]},{"lat":"37.793651543","long":"127.16499717","items":[{"name":"456국수","tel":"031-542-8986","addr":"경기도 포천시 소흘읍 고모리 708-1번지","category":"일반휴게음식 - 일반한식"},{"name":"고모민물털랭이매운탕","tel":"031-542-8895","addr":"경기도 포천시 소흘읍 고모리 708-1번지 1층","category":"일반휴게음식 - 일반한식"},{"name":"마시니커피숍","tel":"031-542-8895","addr":"경기도 포천시 소흘읍 고모리 708-1번지","category":"일반휴게음식 - 서양음식"},{"name":"철원어부네매운탕","tel":"542-8895","addr":"경기도 포천시 소흘읍 고모리 708-1번지 1층","category":"음식 - 한식"},{"name":"철원어부네매운탕","tel":"031-542-8895","addr":"경기도 포천시 소흘읍 고모리 708-1번지 1층","category":"일반휴게음식 - 일반한식"}]},{"lat":"37.802901513","long":"127.17332911","items":[{"name":"DS무역","tel":"031-541-1653","addr":"경기도 포천시 소흘읍 고모리 98-1","category":"기타 - 기계공구"}]},{"lat":"37.804424467","long":"127.16011534","items":[{"name":"KS 시스템하우징","tel":"031-542-1444","addr":"경기도 포천시 소흘읍 고모리 583-2번지","category":"건축자재 - 기타건축자재"}]},{"lat":"37.803121163","long":"127.1645069","items":[{"name":"OK동광장갑","tel":"031-533-1588","addr":"경기도 포천시 소흘읍 고모리 620-4번지","category":"신변잡화 - 기타잡화"},{"name":"오리랜드","tel":"031-541-5289","addr":"경기도 포천시 소흘읍 고모리 620-4번지","category":"일반휴게음식 - 일반한식"}]},{"lat":"37.808067478","long":"127.16441548","items":[{"name":"Ready or Not(레디오어낫)","tel":"031-543-7651","addr":"경기도 포천시 소흘읍 고모리 539-4번지","category":"가구 - 일반가구"}]},{"lat":"37.803816008","long":"127.16369086","items":[{"name":"㈜비케이푸드","tel":"544-0797","addr":"경기도 포천시 소흘읍 고모리 614-1번지 101호","category":"제조업 - 가공식품"},{"name":"원브런치카페","tel":"031-541-4701","addr":"경기도 포천시 소흘읍 고모리 614-1번지 1층","category":"일반휴게음식 - 서양음식"},{"name":"주식회사 비케이푸드","tel":"031-544-0797","addr":"경기도 포천시 소흘읍 고모리 614-1번지 101호","category":"음료식품 - 기타음료식품"}]},{"lat":"37.804976856","long":"127.16469263","items":[{"name":"감성가구클림트","tel":"031-543-1785","addr":"경기도 포천시 소흘읍 고모리 549-1번지","category":"가구 - 일반가구"}]},{"lat":"37.803401791","long":"127.16353099","items":[{"name":"갑산아레나","tel":"031-542-5156","addr":"경기도 포천시 소흘읍 고모리 609-2번지","category":"서적문구 - 완구점"}]},{"lat":"37.7967554","long":"127.16817169","items":[{"name":"강나루","tel":"542-5295","addr":"경기도 포천시 소흘읍 고모리 266번지","category":"음식 - 한식"}]},{"lat":"37.804176261","long":"127.16378248","items":[{"name":"개성초계탕","tel":"031-543-2798","addr":"경기도 포천시 소흘읍 고모리 614-5번지","category":"일반휴게음식 - 일반한식"},{"name":"개성초계탕","tel":"543-2798","addr":"경기도 포천시 소흘읍 고모리 614-5번지","category":"음식 - 한식"}]},{"lat":"37.79437183","long":"127.16533935","items":[{"name":"고모리 happiness (행운)","tel":"031-543-1011","addr":"경기도 포천시 소흘읍 고모리 225-5번지","category":"유통업 영리 - 편 의 점"},{"name":"고모리happiness(행운)","tel":"031-543-1011","addr":"경기도 포천시 소흘읍 고모리 225-5번지","category":"유통업 영리 - 편 의 점"}]},{"lat":"37.794813073","long":"127.16549927","items":[{"name":"고모리 약초방","tel":"031-534-7080","addr":"경기도 포천시 소흘읍 고모리 225-1번지 나동 1층","category":"건강식품 - 기타건강식품"},{"name":"능이한방백숙","tel":"031-542-6969","addr":"경기도 포천시 소흘읍 고모리 225-1번지","category":"일반휴게음식 - 일반한식"},{"name":"능이한방백숙","tel":"542-6969","addr":"경기도 포천시 소흘읍 고모리 225-1번지","category":"음식 - 한식"}]},{"lat":"37.796783707","long":"127.16066684","items":[{"name":"고모리691","tel":"541-9691","addr":"경기도 포천시 소흘읍 고모리 691번지","category":"음식 - 경양식"},{"name":"고모리691","tel":"031-541-2691","addr":"경기도 포천시 소흘읍 고모리 691번지","category":"일반휴게음식 - 서양음식"},{"name":"고모리수상레저","tel":"031-543-6910","addr":"경기도 포천시 소흘읍 고모리 691번지","category":"레저업소 - 기타레져업소"}]},{"lat":"37.790561522","long":"127.16483148","items":[{"name":"고모리719-3외2","tel":"031-542-1173","addr":"경기도 포천시 소흘읍 고모리 719-3번지 외2필지","category":"숙박업 - 여관/기타숙박업"}]},{"lat":"37.791903273","long":"127.16531124","items":[{"name":"고모리김밥","tel":"031-542-1951","addr":"경기도 포천시 소흘읍 고모리 712-2번지 1층","category":"일반휴게음식 - 스넥"},{"name":"산길노래연습장","tel":"031-543-2770","addr":"경기도 포천시 소흘읍 고모리 712-2번지","category":"레저업소 - 노 래 방"},{"name":"아침이슬","tel":"031-531-6641","addr":"경기도 포천시 소흘읍 고모리 712-2번지 1층","category":"일반휴게음식 - 서양음식"}]},{"lat":"37.795982641","long":"127.16008609","items":[{"name":"고모리전주한정식","tel":"031-542-7789","addr":"경기도 포천시 소흘읍 고모리 695-3번지","category":"일반휴게음식 - 일반한식"},{"name":"전주한정식","tel":"542-7789","addr":"경기도 포천시 소흘읍 고모리 695-3번지","category":"음식 - 한식"}]},{"lat":"37.791010695","long":"127.16577476","items":[{"name":"고모리진곰탕","tel":"031-542-6655","addr":"경기도 포천시 소흘읍 고모리 184번지","category":"일반휴게음식 - 일반한식"}]},{"lat":"37.796286877","long":"127.16819335","items":[{"name":"고모리풍천장어","tel":"541-9292","addr":"경기도 포천시 소흘읍 고모리 260번지","category":"음식 - 한식"},{"name":"고모리풍천장어","tel":"031-543-1482","addr":"경기도 포천시 소흘읍 고모리 260번지","category":"일반휴게음식 - 일반한식"},{"name":"풍천장어","tel":"031-541-9292","addr":"경기도 포천시 소흘읍 고모리 260번지","category":"음료식품 - 농·축·수산품"}]},{"lat":"37.813035189","long":"127.16183705","items":[{"name":"고모약국","tel":"542-9747","addr":"경기도 포천시 소흘읍 고모리 497-9번지","category":"보건업 - 약국"},{"name":"고모약국","tel":"031-542-9794","addr":"경기도 포천시 소흘읍 고모리 497-9번지","category":"약국 - 약국"},{"name":"우리가","tel":"031-541-1368","addr":"경기도 포천시 소흘읍 고모리 497-9번지 1층","category":"일반휴게음식 - 일반한식"},{"name":"우리가","tel":"541-1368","addr":"경기도 포천시 소흘읍 고모리 497-9번지 1층","category":"음식 - 한식"},{"name":"은항아리 식당","tel":"543-4621","addr":"경기도 포천시 소흘읍 고모리 497-9번지","category":"음식 - 한식"},{"name":"은항아리식당","tel":"031-543-4621","addr":"경기도 포천시 소흘읍 고모리 497-9","category":"일반휴게음식 - 일반한식"},{"name":"은항아리정육점","tel":"031-543-4621","addr":"경기도 포천시 소흘읍 고모리 497-9번지","category":"음료식품 - 정육점"}]},{"lat":"37.786650027","long":"127.1658333","items":[{"name":"고향초가집","tel":"031-543-2471","addr":"경기도 포천시 소흘읍 고모리 144-21번지","category":"일반휴게음식 - 일반한식"}]},{"lat":"37.792840615","long":"127.16505217","items":[{"name":"고향풍년","tel":"031-541-1550","addr":"경기도 포천시 소흘읍 고모리 710-3번지","category":"일반휴게음식 - 일반한식"}]},{"lat":"37.795813966","long":"127.16488836","items":[{"name":"광릉 가마골","tel":"542-2948","addr":"경기도 포천시 소흘읍 고모리 661-2번지","category":"음식 - 한식"},{"name":"광릉가마골","tel":"031-542-2948","addr":"경기도 포천시 소흘읍 고모리 661-2번지","category":"일반휴게음식 - 일반한식"},{"name":"광릉가마골","tel":"542-2948","addr":"경기도 포천시 소흘읍 고모리 661-2번지","category":"음식 - 한식"},{"name":"포천칡이야기","tel":"031-542-2948","addr":"경기도 포천시 소흘읍 고모리 661-2번지","category":"음료식품 - 기타음료식품"}]},{"lat":"37.813982568","long":"127.16080564","items":[{"name":"광릉불고기","tel":"031-544-9098","addr":"경기도 포천시 소흘읍 고모리 500-1번지","category":"일반휴게음식 - 일반한식"},{"name":"광릉불고기","tel":"544-9098","addr":"경기도 포천시 소흘읍 고모리 500-1번지","category":"음식 - 한식"}]},{"lat":"37.811926648","long":"127.16211858","items":[{"name":"광명시스템","tel":"","addr":"경기도 포천시 소흘읍 고모리 504-4번지","category":"용역 서비스 - 기타용역서비스"},{"name":"든든도시락","tel":"031-541-1399","addr":"경기도 포천시 소흘읍 고모리 504-4번지 1층","category":"일반휴게음식 - 일반한식"},{"name":"아주전기","tel":"031-542-4411","addr":"경기도 포천시 소흘읍 고모리 504-4번지","category":"용역 서비스 - 기타용역서비스"}]},{"lat":"37.794122802","long":"127.15619927","items":[{"name":"광원조구","tel":"031-866-7777","addr":"경기도 포천시 소흘읍 고모리 743번지 가동","category":"레져용품 - 스포츠·레져용품"}]},{"lat":"37.809871747","long":"127.1626706","items":[{"name":"국제전산폼기계(주)","tel":"031-543-9819","addr":"경기도 포천시 소흘읍 고모리 525번지","category":"기타 - 기계공구"}]},{"lat":"37.787264234","long":"127.16469941","items":[{"name":"그날의 함박눈","tel":"031-542-6648","addr":"경기도 포천시 소흘읍 고모리 733-1번지","category":"일반휴게음식 - 일반한식"},{"name":"디자인몬스터","tel":"031-875-7272","addr":"경기도 포천시 소흘읍 고모리 733-1번지 1동","category":"용역 서비스 - 사무서비스"}]},{"lat":"37.807483163","long":"127.16994434","items":[{"name":"그리심 산업","tel":"031-536-0237","addr":"경기도 포천시 소흘읍 고모리 370","category":"건축자재 - 기타건축자재"}]},{"lat":"37.814037217","long":"127.16036285","items":[{"name":"금화기계","tel":"031-543-7732","addr":"경기도 포천시 소흘읍 고모리 502-2번지","category":"기타 - 기계공구"},{"name":"털보공업사","tel":"031-542-7272","addr":"경기도 포천시 소흘읍 고모리 502-2번지","category":"자동차정비 유지 - 자동차정비"}]},{"lat":"37.795651686","long":"127.15828015","items":[{"name":"깔망","tel":"070-8258-0811","addr":"경기도 포천시 소흘읍 고모리 744-1번지","category":"건강식품 - 기타건강식품"}]},{"lat":"37.800868774","long":"127.1645247","items":[{"name":"꼬독꼬독","tel":"031-542-8368","addr":"경기도 포천시 소흘읍 고모리 628-10번지","category":"일반휴게음식 - 일반한식"},{"name":"꼬독꼬독","tel":"542-8368","addr":"경기도 포천시 소흘읍 고모리 628-10번지","category":"음식 - 한식"}]},{"lat":"37.786145183","long":"127.16605924","items":[{"name":"꼬마연못","tel":"031-542-2433","addr":"경기도 포천시 소흘읍 고모리 144-6번지","category":"일반휴게음식 - 일반한식"}]},{"lat":"37.794398137","long":"127.16586167","items":[{"name":"꽃과다육","tel":"","addr":"경기도 포천시 소흘읍 고모리 222-4번지","category":"도매 - 꽃,생화"},{"name":"꽃과다육","tel":"070-1111-1111","addr":"경기도 포천시 소흘읍 고모리 222-4번지","category":"문화.취미 - 화원"},{"name":"또래오래 고모점","tel":"031-542-9592","addr":"경기도 포천시 소흘읍 고모리 222-4번지 1층","category":"일반휴게음식 - 스넥"}]},{"lat":"37.787650844","long":"127.16527923","items":[{"name":"나목","tel":"031-542-0879","addr":"경기도 포천시 소흘읍 고모리 144-3번지","category":"가구 - 일반가구"}]},{"lat":"37.812864531","long":"127.16145057","items":[{"name":"남도밥집","tel":"544-8259","addr":"경기도 포천시 소흘읍 고모리 504-7번지","category":"음식 - 한식"},{"name":"남도밥집","tel":"031-544-8259","addr":"경기도 포천시 소흘읍 고모리 504-7번지 가동","category":"일반휴게음식 - 일반한식"},{"name":"청운상사","tel":"031-541-4763","addr":"경기도 포천시 소흘읍 고모리 504-7번지","category":"의류 - 단체복"}]},{"lat":"37.80400581","long":"127.16324842","items":[{"name":"내추럴라이즈(Naturalise)","tel":"031-544-0182","addr":"경기도 포천시 소흘읍 고모리 612번지 2층 나호","category":"건축자재 - 조명기구"}]},{"lat":"37.793208545","long":"127.16610883","items":[{"name":"노블레스","tel":"031-541-9992","addr":"경기도 포천시 소흘읍 고모리 192번지","category":"숙박업 - 여관/기타숙박업"}]},{"lat":"37.789344746","long":"127.16519211","items":[{"name":"느티나무가","tel":"031-543-3039","addr":"경기도 포천시 소흘읍 고모리 727-3번지","category":"일반휴게음식 - 일반한식"}]},{"lat":"37.794983782","long":"127.16584025","items":[{"name":"느티나무설렁탕","tel":"031-544-1258","addr":"경기도 포천시 소흘읍 고모리 227번지","category":"일반휴게음식 - 일반한식"},{"name":"느티나무설렁탕","tel":"544-1258","addr":"경기도 포천시 소흘읍 고모리 227번지","category":"음식 - 한식"}]},{"lat":"37.7888693","long":"127.16369252","items":[{"name":"늘샘전문요양원","tel":"031-541-9119","addr":"경기도 포천시 소흘읍 고모리 736번지","category":"기타의료기관 - 기타의료기관 및 기타"}]},{"lat":"37.812395598","long":"127.1617789","items":[{"name":"다맛식당","tel":"031-542-8486","addr":"경기도 포천시 소흘읍 고모리 504-35번지 1층","category":"일반휴게음식 - 일반한식"},{"name":"삼정비닐포장","tel":"031-542-6251","addr":"경기도 포천시 소흘읍 고모리 504-35번지","category":"유통업 영리 - 기타유통업"},{"name":"타이마트","tel":"070-4413-1116","addr":"경기도 포천시 소흘읍 고모리 504-35번지","category":"유통업 영리 - 슈퍼마켓"}]},{"lat":"37.810447671","long":"127.16317151","items":[{"name":"다올축산","tel":"031-541-6321","addr":"경기도 포천시 소흘읍 고모리 524-12번지","category":"음료식품 - 정육점"},{"name":"하경뷔페","tel":"031-543-2999","addr":"경기도 포천시 소흘읍 고모리 524-12번지 1층","category":"일반휴게음식 - 일반한식"},{"name":"하경뷔페","tel":"543-2999","addr":"경기도 포천시 소흘읍 고모리 524-12번지","category":"도소매 - 한식"},{"name":"하경뷔페","tel":"543-2999","addr":"경기도 포천시 소흘읍 고모리 524-12번지 1층","category":"음식 - 한식"}]},{"lat":"37.809951999","long":"127.16328399","items":[{"name":"다우테크","tel":"031-542-7036","addr":"경기도 포천시 소흘읍 고모리 534-1번지","category":"기타 - 기계공구"}]},{"lat":"37.805760812","long":"127.15789254","items":[{"name":"다은 목공방","tel":"","addr":"경기도 포천시 소흘읍 고모리 783번지","category":"가구 - 기타가구"}]},{"lat":"37.794261988","long":"127.166588","items":[{"name":"대대손손묵집","tel":"031-542-6898","addr":"경기도 포천시 소흘읍 고모리 221-6번지","category":"일반휴게음식 - 일반한식"}]},{"lat":"37.807873035","long":"127.16819646","items":[{"name":"대성기계","tel":"031-542-7432","addr":"경기도 포천시 소흘읍 고모리 373-2","category":"기타 - 기계공구"}]},{"lat":"37.8137032","long":"127.16086183","items":[{"name":"대영섬유","tel":"031-543-4492","addr":"경기도 포천시 소흘읍 고모리 501번지","category":"회원제형태 - 기타4"},{"name":"컴닥터","tel":"070-4276-0151","addr":"경기도 포천시 소흘읍 고모리 501번지 1층","category":"수리서비스 - 사무·통신기기수리"}]},{"lat":"37.80295018","long":"127.17080845","items":[{"name":"대한불교 총화종","tel":"031-542-1312","addr":"경기도 포천시 소흘읍 고모리 321번지","category":"기타 - 비영리/대상"}]},{"lat":"37.799568768","long":"127.16644075","items":[{"name":"동강매운탕","tel":"031-544-5010","addr":"경기도 포천시 소흘읍 고모리 281번지 281-1","category":"일반휴게음식 - 일반한식"},{"name":"동강민물매운탕","tel":"544-5010","addr":"경기도 포천시 소흘읍 고모리 281번지","category":"음식 - 한식"}]},{"lat":"37.793227677","long":"127.16530279","items":[{"name":"두다트","tel":"541-0190","addr":"경기도 포천시 소흘읍 고모리 190번지","category":"음식 - 커피 등"},{"name":"주식회사두다트","tel":"031-541-0190","addr":"경기도 포천시 소흘읍 고모리 190번지","category":"일반휴게음식 - 서양음식"}]},{"lat":"37.811864302","long":"127.1615847","items":[{"name":"디테일","tel":"031-543-7050","addr":"경기도 포천시 소흘읍 고모리 504-23번지","category":"가구 - 일반가구"}]},{"lat":"37.801954908","long":"127.16742251","items":[{"name":"라이트 쏠라","tel":"","addr":"경기도 포천시 소흘읍 고모리 305-5번지 1층","category":"용역 서비스 - 기타용역서비스"},{"name":"아트팩토리","tel":"02-400-9105","addr":"경기도 포천시 소흘읍 고모리 305-5번지 1층","category":"서적문구 - 출판 및 인쇄물"}]},{"lat":"37.804734815","long":"127.1638064","items":[{"name":"램's클럽","tel":"031-544-6262","addr":"경기도 포천시 소흘읍 고모리 550-3","category":"일반휴게음식 - 일반한식"},{"name":"램's클럽","tel":"544-6262","addr":"경기도 포천시 소흘읍 고모리 550-3번지","category":"음식 - 한식"}]},{"lat":"37.811753756","long":"127.16986311","items":[{"name":"룩스스마트(LOOKSSMART)","tel":"070-8683-7974","addr":"경기도 포천시 소흘읍 고모리 858번지 가동","category":"사무통신 - 기타 사무용품"},{"name":"온더탑(ON THE TOP)","tel":"070-7835-3076","addr":"경기도 포천시 소흘읍 고모리 858번지","category":"건축자재 - 조명기구"},{"name":"카운트딜","tel":"070-4226-0730","addr":"경기도 포천시 소흘읍 고모리 858번지","category":"기타 - 기계공구"}]},{"lat":"37.786758517","long":"127.16556109","items":[{"name":"마로니에","tel":"","addr":"경기도 포천시 소흘읍 고모리 144-9번지","category":"음식 - 커피 등"},{"name":"마로니에","tel":"031-840-6214","addr":"경기도 포천시 소흘읍 고모리 144-9번지 마동 1층","category":"일반휴게음식 - 스넥"},{"name":"마로니에 언덕","tel":"031-842-0307","addr":"경기도 포천시 소흘읍 고모리 144-9번지 가동 1층","category":"일반휴게음식 - 일반한식"}]},{"lat":"37.790479467","long":"127.16553518","items":[{"name":"목화편의점","tel":"031-542-0325","addr":"경기도 포천시 소흘읍 고모리 183번지","category":"유통업 영리 - 슈퍼마켓"},{"name":"생활의향기","tel":"031-544-7084","addr":"경기도 포천시 소흘읍 고모리 183번지","category":"보건위생 - 화장품"},{"name":"카페 목화포트","tel":"031-542-0325","addr":"경기도 포천시 소흘읍 고모리 183번지","category":"일반휴게음식 - 서양음식"}]},{"lat":"37.795623366","long":"127.15925651","items":[{"name":"물꼬방","tel":"544-1695","addr":"경기도 포천시 소흘읍 고모리 695-6번지","category":"음식 - 한식"},{"name":"물꼬방","tel":"031-544-1695","addr":"경기도 포천시 소흘읍 고모리 695-6번지 101동 101,102호, 102동102호","category":"일반휴게음식 - 일반한식"}]},{"lat":"37.795812242","long":"127.16613727","items":[{"name":"미다담","tel":"031-543-8060","addr":"경기도 포천시 소흘읍 고모리 231-3번지","category":"일반휴게음식 - 일반한식"},{"name":"석초당","tel":"031-544-9926","addr":"경기도 포천시 소흘읍 고모리 231-3번지","category":"문화.취미 - 골동품점"},{"name":"터줏대감","tel":"031-542-8533","addr":"경기도 포천시 소흘읍 고모리 231-3번지","category":"일반휴게음식 - 일반한식"}]},{"lat":"37.81128638","long":"127.16256009","items":[{"name":"미래광고","tel":"031-542-7414","addr":"경기도 포천시 소흘읍 고모리 517번지","category":"용역 서비스 - 종합용역"},{"name":"타이누들하우스","tel":"070-4209-5727","addr":"경기도 포천시 소흘읍 고모리 517번지","category":"일반휴게음식 - 일반한식"}]},{"lat":"37.803428479","long":"127.16378086","items":[{"name":"미래교육연구소","tel":"031-542-5314","addr":"경기도 포천시 소흘읍 고모리 609-10번지 2동 1층","category":"학원 - 기타 교육기관"},{"name":"와이에스(YS)드럼교습소","tel":"","addr":"경기도 포천시 소흘읍 고모리 609-10번지 2층 3호","category":"학원 - 예·체능계학원"}]},{"lat":"37.812448487","long":"127.16264209","items":[{"name":"미보라","tel":"031-543-7114","addr":"경기도 포천시 소흘읍 고모리 493번지 (497-5나동)","category":"가구 - 일반가구"}]},{"lat":"37.796678685","long":"127.1650265","items":[{"name":"보물섬펜션","tel":"031-542-5553","addr":"경기도 포천시 소흘읍 고모리 659번지","category":"숙박업 - 여관/기타숙박업"}]},{"lat":"37.791567263","long":"127.16722918","items":[{"name":"복숭아꽃 살구꽃","tel":"070-8881-5367","addr":"경기도 포천시 소흘읍 고모리 170-1번지","category":"일반휴게음식 - 일반한식"}]},{"lat":"37.809644857","long":"127.16388519","items":[{"name":"부원산업","tel":"031-542-2400","addr":"경기도 포천시 소흘읍 고모리 534-5번지","category":"신변잡화 - 가방"}]},{"lat":"37.81419768","long":"127.16163512","items":[{"name":"북부자동차공업사","tel":"031-542-5109","addr":"경기도 포천시 소흘읍 고모리 497-4","category":"자동차정비 유지 - 자동차정비"}]},{"lat":"37.793511705","long":"127.1550059","items":[{"name":"산너울","tel":"031-536-5249","addr":"경기도 포천시 소흘읍 고모리 739번지","category":"일반휴게음식 - 일반한식"}]},{"lat":"37.805839764","long":"127.15950515","items":[{"name":"산지로유통","tel":"031-8593-3333","addr":"경기도 포천시 소흘읍 고모리 782-3번지","category":"음료식품 - 농·축·수산품"}]},{"lat":"37.790788885","long":"127.16327662","items":[{"name":"산채움","tel":"031-531-3137","addr":"경기도 포천시 소흘읍 고모리 716-2","category":"음료식품 - 농·축·수산품"}]},{"lat":"37.791200958","long":"127.16500317","items":[{"name":"생활의 향기","tel":"544-7086","addr":"경기도 포천시 소흘읍 고모리 713-4번지","category":"도소매 - 생활"}]},{"lat":"37.800370907","long":"127.16622678","items":[{"name":"소나무위에까치","tel":"031-543-0380","addr":"경기도 포천시 소흘읍 고모리 284번지","category":"일반휴게음식 - 일반한식"}]},{"lat":"37.801120758","long":"127.16472963","items":[{"name":"순(SOON)","tel":"031-1111-1111","addr":"경기도 포천시 소흘읍 고모리 626번지","category":"일반휴게음식 - 서양음식"},{"name":"심플디(Simple D)","tel":"070-8807-9779","addr":"경기도 포천시 소흘읍 고모리 626번지","category":"건축자재 - 인테리어전문"}]},{"lat":"37.787869235","long":"127.16370171","items":[{"name":"숨","tel":"031-542-1491","addr":"경기도 포천시 소흘읍 고모리 735-1번지","category":"일반휴게음식 - 서양음식"}]},{"lat":"37.810231151","long":"127.1633868","items":[{"name":"시골밥상","tel":"541-8208","addr":"경기도 포천시 소흘읍 고모리 534-8번지","category":"음식 - 한식"},{"name":"진미식당","tel":"541-7026","addr":"경기도 포천시 소흘읍 고모리 534-8번지","category":"음식 - 한식"},{"name":"차사랑자동차공업사","tel":"031-542-2962","addr":"경기도 포천시 소흘읍 고모리 534-8번지","category":"자동차정비 유지 - 자동차정비"}]},{"lat":"37.807590166","long":"127.16427817","items":[{"name":"시골집","tel":"031-541-8208","addr":"경기도 포천시 소흘읍 고모리 557번지 1층","category":"일반휴게음식 - 일반한식"}]},{"lat":"37.795452163","long":"127.16592076","items":[{"name":"씨유포천고모리저수지점","tel":"031-531-5745","addr":"경기도 포천시 소흘읍 고모리 228-1번지","category":"유통업 영리 - 편 의 점"}]},{"lat":"37.808706305","long":"127.16503008","items":[{"name":"씨유포천미르점","tel":"031-542-0626","addr":"경기도 포천시 소흘읍 고모리 380-1번지","category":"유통업 영리 - 편 의 점"},{"name":"영양 돼지국밥","tel":"542-2330","addr":"경기도 포천시 소흘읍 고모리 380-1번지","category":"음식 - 한식"},{"name":"영양돼지국밥","tel":"031-542-2330","addr":"경기도 포천시 소흘읍 고모리 380-1번지","category":"일반휴게음식 - 일반한식"}]},{"lat":"37.804623074","long":"127.16644054","items":[{"name":"아라리농원","tel":"031-861-0021","addr":"경기도 포천시 소흘읍 고모리 910번지","category":"음료식품 - 농·축·수산품"}]},{"lat":"37.797089607","long":"127.16755932","items":[{"name":"아리스킨케어","tel":"543-7979","addr":"경기도 포천시 소흘읍 고모리 265","category":"서비스 - 미용"}]},{"lat":"37.794064709","long":"127.16591771","items":[{"name":"아빠가어렸을적에","tel":"031-542-1135","addr":"경기도 포천시 소흘읍 고모리 218-1","category":"일반휴게음식 - 일반한식"}]},{"lat":"37.791399166","long":"127.16500361","items":[{"name":"아하","tel":"541-2199","addr":"경기도 포천시 소흘읍 고모리 713-1번지","category":"음식 - 커피 등"}]},{"lat":"37.800924228","long":"127.16350292","items":[{"name":"알씨마을","tel":"031-544-3858","addr":"경기도 포천시 소흘읍 고모리 629-2번지","category":"서적문구 - 완구점"}]},{"lat":"37.805454103","long":"127.1713024","items":[{"name":"알천자원","tel":"031-1111-1111","addr":"경기도 포천시 소흘읍 고모리 65-1번지","category":"전기제품 - 냉열기기"}]},{"lat":"37.787623362","long":"127.16560839","items":[{"name":"앨블리","tel":"031-541-5887","addr":"경기도 포천시 소흘읍 고모리 144-26번지","category":"회원제형태 - 기타4"}]},{"lat":"37.789624383","long":"127.16494297","items":[{"name":"앵두나무우물가에","tel":"031-541-5622","addr":"경기도 포천시 소흘읍 고모리 724-1번지","category":"일반휴게음식 - 일반한식"},{"name":"앵두나무우물가에","tel":"541-5622","addr":"경기도 포천시 소흘읍 고모리 724-1번지","category":"음식 - 한식"}]},{"lat":"37.796151842","long":"127.16156244","items":[{"name":"어부촌","tel":"031-543-5366","addr":"경기도 포천시 소흘읍 고모리 688번지","category":"일반휴게음식 - 일반한식"},{"name":"어부촌","tel":"543-5366","addr":"경기도 포천시 소흘읍 고모리 688번지","category":"음식 - 한식"}]},{"lat":"37.800643663","long":"127.15772289","items":[{"name":"에이원 우레탄","tel":"031-528-6263","addr":"경기도 포천시 소흘읍 고모리 767-48번지","category":"용역 서비스 - 기타용역서비스"}]},{"lat":"37.796339046","long":"127.16953322","items":[{"name":"엘림 요양원","tel":"544-1143","addr":"경기도 포천시 소흘읍 고모리 262-7번지","category":"서비스 - 요양원"}]},{"lat":"37.807068182","long":"127.17032949","items":[{"name":"영풍상사","tel":"031-591-7103","addr":"경기도 포천시 소흘읍 고모리 364-1번지","category":"직물 - 옷감·직물"}]},{"lat":"37.807781561","long":"127.1626661","items":[{"name":"예가디자인","tel":"031-541-1274","addr":"경기도 포천시 소흘읍 고모리 565번지","category":"가구 - 일반가구"}]},{"lat":"37.796117396","long":"127.16697812","items":[{"name":"옛뜰애관광농원","tel":"031-541-6699","addr":"경기도 포천시 소흘읍 고모리 268-1번지","category":"음료식품 - 농·축·수산품"},{"name":"옛뜰애관광농원","tel":"","addr":"경기도 포천시 소흘읍 고모리 268-1번지","category":"서비스 - 관광농원"}]},{"lat":"37.795650981","long":"127.15881377","items":[{"name":"오리가찜한집","tel":"031-542-5269","addr":"경기도 포천시 소흘읍 고모리 695-5번지","category":"일반휴게음식 - 일반한식"}]},{"lat":"37.814367877","long":"127.16236231","items":[{"name":"옴시롱감시롱","tel":"031-541-4970","addr":"경기도 포천시 소흘읍 고모리 495-7번지","category":"일반휴게음식 - 일반한식"}]},{"lat":"37.81378271","long":"127.16203171","items":[{"name":"우리cs니트","tel":"031-541-2728","addr":"경기도 포천시 소흘읍 고모리 496-7번지 가동","category":"직물 - 옷감·직물"}]},{"lat":"37.78857023","long":"127.16497472","items":[{"name":"우솔건강식품 (Woosol Health Food)","tel":"070-4134-1003","addr":"경기도 포천시 소흘읍 고모리 728-29번지","category":"건강식품 - 기타건강식품"}]},{"lat":"37.810789271","long":"127.16372869","items":[{"name":"우진전기조명","tel":"031-541-5580","addr":"경기도 포천시 소흘읍 고모리 523-1번지","category":"전기제품 - 기타전기제품"},{"name":"우진전기조명","tel":"541-5580","addr":"경기도 포천시 소흘읍 고모리 523-1번지","category":"도소매 - 조명기구"},{"name":"포천손두부","tel":"543-0991","addr":"경기도 포천시 소흘읍 고모리 523-1번지 나동 1층","category":"음식 - 한식"},{"name":"포천손두부","tel":"031-543-0991","addr":"경기도 포천시 소흘읍 고모리 523-1번지 1층","category":"일반휴게음식 - 일반한식"}]},{"lat":"37.791958407","long":"127.164528","items":[{"name":"재너머 사주하우스","tel":"031-544-1545","addr":"경기도 포천시 소흘읍 고모리 714-9번지 1층","category":"일반휴게음식 - 서양음식"}]},{"lat":"37.801394028","long":"127.16905632","items":[{"name":"주식회사 다도자연식품","tel":"031-543-5068","addr":"경기도 포천시 소흘읍 고모리 289-3번지","category":"음료식품 - 기타음료식품"}]},{"lat":"37.810091077","long":"127.16036583","items":[{"name":"주식회사 리커버리","tel":"041-577-0844","addr":"경기도 포천시 소흘읍 고모리 507-3번지","category":"기타 - 기계공구"}]},{"lat":"37.810590846","long":"127.16388724","items":[{"name":"주식회사 세인","tel":"031-575-0999","addr":"경기도 포천시 소흘읍 고모리 523-5번지","category":"건축자재 - 목재·석재·철물"}]},{"lat":"37.806949505","long":"127.17141935","items":[{"name":"주식회사 오일청","tel":"031-541-5159","addr":"경기도 포천시 소흘읍 고모리 56번지","category":"기타 - 기계공구"}]},{"lat":"37.810262056","long":"127.16711162","items":[{"name":"주식회사 한성글로벌","tel":"031-544-1980","addr":"경기도 포천시 소흘읍 고모리 386번지 1층","category":"서적문구 - 문구용품"}]},{"lat":"37.801955018","long":"127.16075732","items":[{"name":"주식회사그린그린","tel":"031-544-3752","addr":"경기도 포천시 소흘읍 고모리 598번지","category":"유통업 영리 - 기타유통업"}]},{"lat":"37.804395238","long":"127.16830226","items":[{"name":"주식회사혜정퓨니스","tel":"031-541-0791","addr":"경기도 포천시 소흘읍 고모리 330","category":"용역 서비스 - 가례서비스업"}]},{"lat":"37.80828476","long":"127.17011648","items":[{"name":"지-테크(G-TECH Ltd.)","tel":"031-544-6222","addr":"경기도 포천시 소흘읍 고모리 398-4번지","category":"건축자재 - 기타건축자재"}]},{"lat":"37.805344868","long":"127.17208565","items":[{"name":"진성수지","tel":"","addr":"경기도 포천시 소흘읍 고모리 63번지","category":"유통업 영리 - 기타유통업"}]},{"lat":"37.812259705","long":"127.16233506","items":[{"name":"착한목수카페","tel":"","addr":"경기도 포천시 소흘읍 고모리 493-1번지","category":"일반휴게음식 - 서양음식"}]},{"lat":"37.794343766","long":"127.16608862","items":[{"name":"천연염색.수.수작","tel":"","addr":"경기도 포천시 소흘읍 고모리 222-1번지","category":"문화.취미 - 문화취미기타"}]},{"lat":"37.801229339","long":"127.16438923","items":[{"name":"추어탕전문점","tel":"031-543-6173","addr":"경기도 포천시 소흘읍 고모리 628-2번지 1층","category":"일반휴게음식 - 일반한식"},{"name":"하마네추어탕","tel":"543-6173","addr":"경기도 포천시 소흘읍 고모리 628-2번지","category":"음식 - 한식"}]},{"lat":"37.79306646","long":"127.16460988","items":[{"name":"카페온다","tel":"070-4407-2300","addr":"경기도 포천시 소흘읍 고모리 714-1번지 1-2층","category":"일반휴게음식 - 일반한식"},{"name":"카페온다","tel":"070-4407-2300","addr":"경기도 포천시 소흘읍 고모리 714-1번지","category":"음식 - 한식"}]},{"lat":"37.803589965","long":"127.16428082","items":[{"name":"큐마트","tel":"541-7703","addr":"경기도 포천시 소흘읍 고모리 619-1","category":"소매업 - 잡화"},{"name":"큐마트","tel":"031-541-7703","addr":"경기도 포천시 소흘읍 고모리 619-1","category":"유통업 영리 - 슈퍼마켓"}]},{"lat":"37.811094822","long":"127.17694781","items":[{"name":"크린앤화이트","tel":"031-541-5957","addr":"경기도 포천시 소흘읍 고모리 1-2번지","category":"수리서비스 - 세탁소"}]},{"lat":"37.794341335","long":"127.15441722","items":[{"name":"타임21여관","tel":"031-542-8000","addr":"경기도 포천시 소흘읍 고모리 741-2번지","category":"숙박업 - 여관/기타숙박업"}]},{"lat":"37.806039943","long":"127.17114475","items":[{"name":"태극정밀","tel":"031-541-5660","addr":"경기도 포천시 소흘읍 고모리 59번지","category":"기타 - 기계공구"}]},{"lat":"37.807651361","long":"127.17203414","items":[{"name":"태성전장","tel":"031-543-9370","addr":"경기도 포천시 소흘읍 고모리 54-5번지","category":"전기제품 - 기타전기제품"}]},{"lat":"37.794561075","long":"127.16530571","items":[{"name":"털보고된이","tel":"031-544-9292","addr":"경기도 포천시 소흘읍 고모리 225-9번지","category":"일반휴게음식 - 일반한식"}]},{"lat":"37.78990341","long":"127.16513657","items":[{"name":"토우","tel":"031-542-6623","addr":"경기도 포천시 소흘읍 고모리 722-2번지","category":"문화.취미 - 민예·공예품"},{"name":"토우","tel":"542-6623","addr":"경기도 포천시 소흘읍 고모리 722-2번지","category":"음식 - 양식"}]},{"lat":"37.8065367","long":"127.16381031","items":[{"name":"토종생고기","tel":"031-544-4055","addr":"경기도 포천시 소흘읍 고모리 556","category":"일반휴게음식 - 일반한식"},{"name":"토종오리 더덕구이","tel":"544-4055","addr":"경기도 포천시 소흘읍 고모리 556번지","category":"음식 - 한식"}]},{"lat":"37.808651324","long":"127.16569994","items":[{"name":"하나로가스","tel":"031-853-5959","addr":"경기도 포천시 소흘읍 고모리 377-1번지","category":"연료판매점 - LPG 취급점"}]},{"lat":"37.813423527","long":"127.16114514","items":[{"name":"한상궁족발","tel":"031-544-3393","addr":"경기도 포천시 소흘읍 고모리 500-2번지","category":"일반휴게음식 - 일반한식"}]},{"lat":"37.814448176","long":"127.16294167","items":[{"name":"한신공압기계","tel":"031-542-5345","addr":"경기도 포천시 소흘읍 고모리 495-8번지","category":"기타 - 기계공구"},{"name":"한우리돼지불백","tel":"031-541-3133","addr":"경기도 포천시 소흘읍 고모리 495-8번지 1층","category":"일반휴게음식 - 일반한식"}]},{"lat":"37.796951768","long":"127.16947782","items":[{"name":"함평천지","tel":"031-542-7857","addr":"경기도 포천시 소흘읍 고모리 264번지","category":"음료식품 - 기타음료식품"},{"name":"황토장어","tel":"542-7857","addr":"경기도 포천시 소흘읍 고모리 264번지","category":"음식 - 한식"},{"name":"황토장어","tel":"031-542-7857","addr":"경기도 포천시 소흘읍 고모리 264번지","category":"음료식품 - 농·축·수산품"}]},{"lat":"37.788704151","long":"127.16586052","items":[{"name":"호미가","tel":"031-544-0946","addr":"경기도 포천시 소흘읍 고모리 144-1번지","category":"일반휴게음식 - 서양음식"}]},{"lat":"37.796759425","long":"127.16527646","items":[{"name":"호수장","tel":"031-542-5553","addr":"경기도 포천시 소흘읍 고모리 660번지","category":"숙박업 - 여관/기타숙박업"}]},{"lat":"37.803508647","long":"127.16445097","items":[{"name":"호원창호","tel":"031-544-2431","addr":"경기도 포천시 소흘읍 고모리 619-5번지","category":"건축자재 - 기타건축자재"}]},{"lat":"37.79617453","long":"127.1647529","items":[{"name":"호텔갤러리","tel":"031-544-8008","addr":"경기도 포천시 소흘읍 고모리 661-1번지","category":"숙박업 - 여관/기타숙박업"},{"name":"호텔갤러리","tel":"031-544-8008","addr":"경기도 포천시 소흘읍 고모리 661-1번지 지하1층","category":"일반휴게음식 - 일반한식"}]},{"lat":"37.789542187","long":"127.16574883","items":[{"name":"호텔락","tel":"031-541-8998","addr":"경기도 포천시 소흘읍 고모리 149번지","category":"숙박업 - 여관/기타숙박업"},{"name":"호텔락","tel":"031-541-8998","addr":"경기도 포천시 소흘읍 고모리 149번지","category":"숙박업 - 여관/기타숙박업"}]}]