[{"lat":"37.269513624","long":"126.99347926","imageIndex":4,"items":[{"name":"가람푸드","tel":"031-227-6297","addr":"경기도 수원시 권선구 서둔동 9-36번지 길전빌딩 1층","indutype":"일반휴게음식 - 일반한식","category":"restaurant"}]},{"lat":"37.270989944","long":"126.98258794","imageIndex":4,"items":[{"name":"가마솥소머리설렁탕","tel":"031-291-5515","addr":"경기도 수원시 권선구 서둔동 200-58번지","indutype":"일반휴게음식 - 일반한식","category":"restaurant"}]},{"lat":"37.269792153","long":"126.98628623","imageIndex":4,"items":[{"name":"고기비비고쓱싹비빔밥","tel":"","addr":"경기도 수원시 권선구 서둔동 106-14번지 1층","indutype":"일반휴게음식 - 일반한식","category":"restaurant"}]},{"lat":"37.270820025","long":"126.99239675","imageIndex":4,"items":[{"name":"고봉옥","tel":"031-296-6653","addr":"경기도 수원시 권선구 서둔동 8-20번지","indutype":"일반휴게음식 - 일반한식","category":"restaurant"},{"name":"서호회관","tel":"031-246-2922","addr":"경기도 수원시 권선구 서둔동 8-20번지","indutype":"일반휴게음식 - 일반한식","category":"restaurant"}]},{"lat":"37.265990573","long":"126.99311894","imageIndex":4,"items":[{"name":"고산감자탕","tel":"031-297-8834","addr":"경기도 수원시 권선구 서둔동 17-434번지 1층","indutype":"일반휴게음식 - 일반한식","category":"restaurant"}]},{"lat":"37.277098216","long":"126.97886543","imageIndex":4,"items":[{"name":"고술비/농업회사법인(주)퀸미트푸드","tel":"031-227-1177","addr":"경기도 수원시 권선구 서둔동 243-1번지 1층","indutype":"일반휴게음식 - 일반한식","category":"restaurant"}]},{"lat":"37.265936372","long":"126.99156317","imageIndex":4,"items":[{"name":"굴다리왕족발","tel":"031-278-7333","addr":"경기도 수원시 권선구 서둔동 42-9번지","indutype":"일반휴게음식 - 일반한식","category":"restaurant"}]},{"lat":"37.262628457","long":"126.98295093","imageIndex":4,"items":[{"name":"굿따복카페","tel":"070-4550-5270","addr":"경기도 수원시 권선구 서둔동 92-6번지 1층","indutype":"일반휴게음식 - 서양음식","category":"restaurant"}]},{"lat":"37.267873373","long":"126.98953356","imageIndex":4,"items":[{"name":"그때그집순대국","tel":"031-292-0934","addr":"경기도 수원시 권선구 서둔동 45-9번지","indutype":"일반휴게음식 - 일반한식","category":"restaurant"}]},{"lat":"37.266071553","long":"126.991845","imageIndex":4,"items":[{"name":"금상첨화맛집","tel":"031-294-9288","addr":"경기도 수원시 권선구 서둔동 17-279번지 1층","indutype":"일반휴게음식 - 일반한식","category":"restaurant"}]},{"lat":"37.268601791","long":"126.9802323","imageIndex":4,"items":[{"name":"길모퉁이","tel":"031-291-0322","addr":"경기도 수원시 권선구 서둔동 96-1번지","indutype":"일반휴게음식 - 일반한식","category":"restaurant"}]},{"lat":"37.270990347","long":"126.98509088","imageIndex":4,"items":[{"name":"김밥나라","tel":"031-298-5551","addr":"경기도 수원시 권선구 서둔동 201-5번지","indutype":"일반휴게음식 - 스넥","category":"restaurant"}]},{"lat":"37.270711143","long":"126.98586888","imageIndex":4,"items":[{"name":"깜","tel":"070-7529-0334","addr":"경기도 수원시 권선구 서둔동 105-12번지 지하1층","indutype":"일반휴게음식 - 주점","category":"restaurant"},{"name":"알지오막창","tel":"031-293-2459","addr":"경기도 수원시 권선구 서둔동 105-12번지","indutype":"일반휴게음식 - 일반한식","category":"restaurant"}]},{"lat":"37.266657435","long":"126.99442661","imageIndex":4,"items":[{"name":"꾸스꾸스","tel":"031-293-8184","addr":"경기도 수원시 권선구 서둔동 17-27번지 TOP빌딩 105호","indutype":"일반휴게음식 - 주점","category":"restaurant"}]},{"lat":"37.269540877","long":"126.99689535","imageIndex":4,"items":[{"name":"남원추어탕","tel":"031-278-2522","addr":"경기도 수원시 권선구 서둔동 288-2번지 2층","indutype":"일반휴게음식 - 일반한식","category":"restaurant"}]},{"lat":"37.27768385","long":"126.97869611","imageIndex":4,"items":[{"name":"노포우동","tel":"031-227-2978","addr":"경기도 수원시 권선구 서둔동 243-6번지 1층","indutype":"일반휴게음식 - 일반한식","category":"restaurant"}]},{"lat":"37.274810679","long":"126.98490958","imageIndex":4,"items":[{"name":"농촌진흥청/농촌인적자원개발센터","tel":"031-290-6934","addr":"경기도 수원시 권선구 서둔동 250","indutype":"일반휴게음식 - 위탁급식업","category":"restaurant"}]},{"lat":"37.260349585","long":"126.98792287","imageIndex":4,"items":[{"name":"늘봄한식분식","tel":"031-111-1111","addr":"경기도 수원시 권선구 서둔동 79-9번지","indutype":"일반휴게음식 - 일반한식","category":"restaurant"},{"name":"다올","tel":"031-234-6126","addr":"경기도 수원시 권선구 서둔동 79-9번지 115호,116호,117호","indutype":"일반휴게음식 - 일반한식","category":"restaurant"},{"name":"오늘.하루","tel":"031-296-9797","addr":"경기도 수원시 권선구 서둔동 79-9번지 1층 106호","indutype":"일반휴게음식 - 서양음식","category":"restaurant"}]},{"lat":"37.270990201","long":"126.98414382","imageIndex":4,"items":[{"name":"다농정육식당","tel":"031-278-5837","addr":"경기도 수원시 권선구 서둔동 199-6번지 101호","indutype":"일반휴게음식 - 일반한식","category":"restaurant"}]},{"lat":"37.270818706","long":"126.98233995","imageIndex":4,"items":[{"name":"닭&호프","tel":"031-297-6055","addr":"경기도 수원시 권선구 서둔동 200-45번지 1층","indutype":"일반휴게음식 - 스넥","category":"restaurant"}]},{"lat":"37.270926718","long":"126.98170855","imageIndex":4,"items":[{"name":"대구반야월막창","tel":"031-292-5962","addr":"경기도 수원시 권선구 서둔동 184-11번지 부성리치빌 107동 101호","indutype":"일반휴게음식 - 일반한식","category":"restaurant"}]},{"lat":"37.278568056","long":"126.98552884","imageIndex":4,"items":[{"name":"더함사랑방/에코버튼 주식회사","tel":"031-295-1023","addr":"경기도 수원시 권선구 서둔동 225-1번지","indutype":"일반휴게음식 - 일반한식","category":"restaurant"}]},{"lat":"37.268792753","long":"126.99289309","imageIndex":4,"items":[{"name":"도성 묵은지 김치찜","tel":"031-296-0759","addr":"경기도 수원시 권선구 서둔동 17-20번지 104호,105호","indutype":"일반휴게음식 - 일반한식","category":"restaurant"},{"name":"비에이치씨(BHC) 탑동점","tel":"031-293-9989","addr":"경기도 수원시 권선구 서둔동 17-20번지 101호","indutype":"일반휴게음식 - 스넥","category":"restaurant"}]},{"lat":"37.270738085","long":"126.98526005","imageIndex":4,"items":[{"name":"등마루","tel":"031-227-7547","addr":"경기도 수원시 권선구 서둔동 141-1번지 1층","indutype":"일반휴게음식 - 일반한식","category":"restaurant"},{"name":"오양만두","tel":"031-291-6652","addr":"경기도 수원시 권선구 서둔동 141-1번지","indutype":"일반휴게음식 - 일반한식","category":"restaurant"}]},{"lat":"37.279125477","long":"126.97861672","imageIndex":4,"items":[{"name":"또봉이통닭","tel":"031-298-3117","addr":"경기도 수원시 권선구 서둔동 260-14번지","indutype":"일반휴게음식 - 일반한식","category":"restaurant"}]},{"lat":"37.270404773","long":"126.98573365","imageIndex":4,"items":[{"name":"마술피리","tel":"031-291-5566","addr":"경기도 수원시 권선구 서둔동 107-1번지","indutype":"일반휴게음식 - 주점","category":"restaurant"},{"name":"맏며느리부페","tel":"031-295-7673","addr":"경기도 수원시 권선구 서둔동 107-1번지","indutype":"일반휴게음식 - 일반한식","category":"restaurant"}]},{"lat":"37.266765386","long":"126.99228457","imageIndex":4,"items":[{"name":"만나하우스","tel":"031-0000-0000","addr":"경기도 수원시 권선구 서둔동 17-337번지 1층","indutype":"일반휴게음식 - 스넥","category":"restaurant"}]},{"lat":"37.270791975","long":"126.98414387","imageIndex":4,"items":[{"name":"만두사랑","tel":"031-294-2224","addr":"경기도 수원시 권선구 서둔동 200-37번지","indutype":"일반휴게음식 - 스넥","category":"restaurant"},{"name":"모여라","tel":"031-293-0833","addr":"경기도 수원시 권선구 서둔동 200-37번지 1층","indutype":"일반휴게음식 - 주점","category":"restaurant"}]},{"lat":"37.270792054","long":"126.98465122","imageIndex":4,"items":[{"name":"맛있는집","tel":"031-291-8852","addr":"경기도 수원시 권선구 서둔동 144-7번지 1층","indutype":"일반휴게음식 - 일반한식","category":"restaurant"}]},{"lat":"37.265179536","long":"126.99186767","imageIndex":4,"items":[{"name":"몽마르뜨","tel":"031-291-2281","addr":"경기도 수원시 권선구 서둔동 17-241번지 1층","indutype":"일반휴게음식 - 서양음식","category":"restaurant"}]},{"lat":"37.264152326","long":"126.99147325","imageIndex":4,"items":[{"name":"문 (MOON)치킨","tel":"070-3948-5585","addr":"경기도 수원시 권선구 서둔동 31-95번지 1층","indutype":"일반휴게음식 - 스넥","category":"restaurant"}]},{"lat":"37.267018041","long":"126.99784256","imageIndex":4,"items":[{"name":"민유","tel":"","addr":"경기도 수원시 권선구 서둔동 296-3번지 1층","indutype":"일반휴게음식 - 서양음식","category":"restaurant"},{"name":"수원에는뜰(커피)이있다","tel":"070-4694-1104","addr":"경기도 수원시 권선구 서둔동 296-3번지 301호","indutype":"일반휴게음식 - 서양음식","category":"restaurant"},{"name":"카페앤테이크아웃","tel":"070-1111-1111","addr":"경기도 수원시 권선구 서둔동 296-3번지 201호","indutype":"일반휴게음식 - 서양음식","category":"restaurant"}]},{"lat":"37.264098671","long":"126.99706488","imageIndex":4,"items":[{"name":"백미당 롯데시네마수원점","tel":"02-1111-1111","addr":"경기도 수원시 권선구 서둔동 381번지 5층 롯데몰수원점","indutype":"일반휴게음식 - 서양음식","category":"restaurant"}]},{"lat":"37.270989729","long":"126.9813703","imageIndex":4,"items":[{"name":"범이네","tel":"031-295-3838","addr":"경기도 수원시 권선구 서둔동 183-3번지","indutype":"일반휴게음식 - 일반한식","category":"restaurant"}]},{"lat":"37.267657332","long":"126.99150654","imageIndex":4,"items":[{"name":"본치밥","tel":"031-292-9635","addr":"경기도 수원시 권선구 서둔동 45-13번지 1층","indutype":"일반휴게음식 - 일반한식","category":"restaurant"},{"name":"초인종호프","tel":"031-293-3095","addr":"경기도 수원시 권선구 서둔동 45-13번지","indutype":"일반휴게음식 - 주점","category":"restaurant"}]},{"lat":"37.270990304","long":"126.98480901","imageIndex":4,"items":[{"name":"봉덕이네밥상","tel":"031-000-0000","addr":"경기도 수원시 권선구 서둔동 199-1번지 1층","indutype":"일반휴게음식 - 일반한식","category":"restaurant"},{"name":"사또치킨","tel":"031-291-8003","addr":"경기도 수원시 권선구 서둔동 199-1번지","indutype":"일반휴게음식 - 스넥","category":"restaurant"}]},{"lat":"37.266484881","long":"126.98306265","imageIndex":4,"items":[{"name":"산업예비군","tel":"031-232-2774","addr":"경기도 수원시 권선구 서둔동 103-25번지 1층","indutype":"일반휴게음식 - 서양음식","category":"restaurant"},{"name":"슬로비","tel":"031-293-0858","addr":"경기도 수원시 권선구 서둔동 103-25번지 경기청년문화창작소 1층","indutype":"일반휴게음식 - 일반한식","category":"restaurant"},{"name":"어테이블","tel":"031-000-0000","addr":"경기도 수원시 권선구 서둔동 103-25번지","indutype":"일반휴게음식 - 일반한식","category":"restaurant"}]},{"lat":"37.267792248","long":"126.98925173","imageIndex":4,"items":[{"name":"상록식당","tel":"031-292-4242","addr":"경기도 수원시 권선구 서둔동 51-2번지 104호","indutype":"일반휴게음식 - 일반한식","category":"restaurant"}]},{"lat":"37.270458863","long":"126.9859253","imageIndex":4,"items":[{"name":"서둔식당","tel":"031-253-9263","addr":"경기도 수원시 권선구 서둔동 106-6번지 1층","indutype":"일반휴게음식 - 일반한식","category":"restaurant"}]},{"lat":"37.271376878","long":"126.97981431","imageIndex":4,"items":[{"name":"서호수산","tel":"031-291-6888","addr":"경기도 수원시 권선구 서둔동 179-6번지","indutype":"일반휴게음식 - 일반한식","category":"restaurant"}]},{"lat":"37.263846454","long":"126.99875591","imageIndex":4,"items":[{"name":"서호정","tel":"070-5022-4846","addr":"경기도 수원시 권선구 서둔동 296-108번지 201호","indutype":"일반휴게음식 - 일반한식","category":"restaurant"},{"name":"요거프레소 (수원롯데몰점)","tel":"031-278-3390","addr":"경기도 수원시 권선구 서둔동 296-108번지 101호","indutype":"일반휴게음식 - 서양음식","category":"restaurant"},{"name":"청춘쭈꾸미","tel":"031-298-1254","addr":"경기도 수원시 권선구 서둔동 296-108번지 수원역세권8-2블럭 1층 102호","indutype":"일반휴게음식 - 일반한식","category":"restaurant"}]},{"lat":"37.266657378","long":"126.99367127","imageIndex":4,"items":[{"name":"선데이오프(Sunday off)","tel":"031-000-0000","addr":"경기도 수원시 권선구 서둔동 17-114번지 나이스밸 102호","indutype":"일반휴게음식 - 서양음식","category":"restaurant"}]},{"lat":"37.2712059","long":"126.98095309","imageIndex":4,"items":[{"name":"소담소담","tel":"031-294-9927","addr":"경기도 수원시 권선구 서둔동 182-1번지","indutype":"일반휴게음식 - 일반한식","category":"restaurant"}]},{"lat":"37.268403623","long":"126.98053676","imageIndex":4,"items":[{"name":"소문난대구왕뽈찜(서둔점)","tel":"031-291-1270","addr":"경기도 수원시 권선구 서둔동 95-26번지","indutype":"일반휴게음식 - 일반한식","category":"restaurant"}]},{"lat":"37.27135084","long":"126.98564324","imageIndex":4,"items":[{"name":"송죽식당","tel":"031-291-2747","addr":"경기도 수원시 권선구 서둔동 207-14번지","indutype":"일반휴게음식 - 일반한식","category":"restaurant"}]},{"lat":"37.262206359","long":"126.99456239","imageIndex":4,"items":[{"name":"시골집","tel":"031-291-8923","addr":"경기도 수원시 권선구 서둔동 333-22번지","indutype":"일반휴게음식 - 일반한식","category":"restaurant"}]},{"lat":"37.275125","long":"126.97903519","imageIndex":4,"items":[{"name":"신가옥","tel":"031-293-2550","addr":"경기도 수원시 권선구 서둔동 240-5번지 2층","indutype":"일반휴게음식 - 일반한식","category":"restaurant"},{"name":"청마루뼈다귀(감자탕)","tel":"031-292-8768","addr":"경기도 수원시 권선구 서둔동 240-5번지","indutype":"일반휴게음식 - 일반한식","category":"restaurant"}]},{"lat":"37.265711128","long":"126.99169849","imageIndex":4,"items":[{"name":"실크로드","tel":"031-292-9886","addr":"경기도 수원시 권선구 서둔동 36번지","indutype":"일반휴게음식 - 중국식","category":"restaurant"}]},{"lat":"37.270655978","long":"126.97941993","imageIndex":4,"items":[{"name":"아싸가오리포차","tel":"031-227-1988","addr":"경기도 수원시 권선구 서둔동 171-28번지 1층 일부","indutype":"일반휴게음식 - 주점","category":"restaurant"}]},{"lat":"37.270765139","long":"126.98541789","imageIndex":4,"items":[{"name":"아이디어분식","tel":"","addr":"경기도 수원시 권선구 서둔동 106-17번지 1층 101호","indutype":"일반휴게음식 - 일반한식","category":"restaurant"},{"name":"코코넛클럽","tel":"031-294-9119","addr":"경기도 수원시 권선구 서둔동 106-17번지 1층 102호","indutype":"일반휴게음식 - 일반한식","category":"restaurant"}]},{"lat":"37.279017354","long":"126.97861676","imageIndex":4,"items":[{"name":"알찜을아구아구(성공컴퍼니)","tel":"031-291-2999","addr":"경기도 수원시 권선구 서둔동 260-17번지 1층","indutype":"일반휴게음식 - 일반한식","category":"restaurant"}]},{"lat":"37.278404651","long":"126.9785944","imageIndex":4,"items":[{"name":"암소한마리","tel":"031-296-3838","addr":"경기도 수원시 권선구 서둔동 260-35번지","indutype":"일반휴게음식 - 일반한식","category":"restaurant"}]},{"lat":"37.270791864","long":"126.98345613","imageIndex":4,"items":[{"name":"엄마손치킨","tel":"031-297-7706","addr":"경기도 수원시 권선구 서둔동 200-46번지","indutype":"일반휴게음식 - 서양음식","category":"restaurant"}]},{"lat":"37.264098686","long":"126.99736927","imageIndex":4,"items":[{"name":"엔제리너스 수원롯데","tel":"031-8066-0718","addr":"경기도 수원시 권선구 서둔동 296-77 롯데백화점7층","indutype":"일반휴게음식 - 서양음식","category":"restaurant"}]},{"lat":"37.270792235","long":"126.98586886","imageIndex":4,"items":[{"name":"엠카롱(M카롱)","tel":"02-1111-1111","addr":"경기도 수원시 권선구 서둔동 207-39번지 ,1,2층","indutype":"일반휴게음식 - 서양음식","category":"restaurant"}]},{"lat":"37.267846505","long":"126.99106683","imageIndex":4,"items":[{"name":"우리샘","tel":"031-226-4430","addr":"경기도 수원시 권선구 서둔동 45-94번지","indutype":"일반휴게음식 - 일반한식","category":"restaurant"}]},{"lat":"37.270152556","long":"126.98622978","imageIndex":4,"items":[{"name":"우향","tel":"031-296-0346","addr":"경기도 수원시 권선구 서둔동 106-13번지","indutype":"일반휴게음식 - 일반한식","category":"restaurant"}]},{"lat":"37.27472864","long":"126.97949759","imageIndex":4,"items":[{"name":"이름없는카페","tel":"031-111-1111","addr":"경기도 수원시 권선구 서둔동 377번지 서수원울트라참누리파크 101호","indutype":"일반휴게음식 - 일반한식","category":"restaurant"},{"name":"장수마을밥상","tel":"031-291-7311","addr":"경기도 수원시 권선구 서둔동 377번지 서수원울트라 상가 102호","indutype":"일반휴게음식 - 일반한식","category":"restaurant"}]},{"lat":"37.267567194","long":"126.99114579","imageIndex":4,"items":[{"name":"차기주흑오리","tel":"","addr":"경기도 수원시 권선구 서둔동 45-136번지","indutype":"일반휴게음식 - 일반한식","category":"restaurant"}]},{"lat":"37.278566836","long":"126.97859435","imageIndex":4,"items":[{"name":"청년푸드","tel":"031-893-1980","addr":"경기도 수원시 권선구 서둔동 260-32번지 101호","indutype":"일반휴게음식 - 일반한식","category":"restaurant"},{"name":"해봄","tel":"031-291-0284","addr":"경기도 수원시 권선구 서둔동 260-32번지 1층 102호","indutype":"일반휴게음식 - 주점","category":"restaurant"}]},{"lat":"37.26696354","long":"126.99150665","imageIndex":4,"items":[{"name":"춘향원","tel":"031-296-5582","addr":"경기도 수원시 권선구 서둔동 45-36번지","indutype":"일반휴게음식 - 중국식","category":"restaurant"}]},{"lat":"37.266594399","long":"126.99494522","imageIndex":4,"items":[{"name":"카페벌터","tel":"","addr":"경기도 수원시 권선구 서둔동 17-491번지 101호","indutype":"일반휴게음식 - 서양음식","category":"restaurant"}]},{"lat":"37.269351571","long":"126.99531697","imageIndex":4,"items":[{"name":"피자에땅서수원점","tel":"031-278-3650","addr":"경기도 수원시 권선구 서둔동 13-2번지","indutype":"일반휴게음식 - 서양음식","category":"restaurant"}]},{"lat":"37.270792211","long":"126.98569974","imageIndex":4,"items":[{"name":"하루","tel":"031-362-6001","addr":"경기도 수원시 권선구 서둔동 105-5번지 1층","indutype":"일반휴게음식 - 서양음식","category":"restaurant"}]},{"lat":"37.279260631","long":"126.97861668","imageIndex":4,"items":[{"name":"하우스콜","tel":"031-294-7288","addr":"경기도 수원시 권선구 서둔동 260-13번지","indutype":"일반휴게음식 - 서양음식","category":"restaurant"}]},{"lat":"37.264512918","long":"126.99353625","imageIndex":4,"items":[{"name":"하이엔젤","tel":"070-4649-1101","addr":"경기도 수원시 권선구 서둔동 22-8번지 1층","indutype":"일반휴게음식 - 일반한식","category":"restaurant"}]},{"lat":"37.269484697","long":"126.97970214","imageIndex":4,"items":[{"name":"홍콩반점","tel":"031-295-4033","addr":"경기도 수원시 권선구 서둔동 157-1번지 1층","indutype":"일반휴게음식 - 중국식","category":"restaurant"}]},{"lat":"37.265377778","long":"126.99203675","imageIndex":4,"items":[{"name":"황금분식","tel":"031-890-5959","addr":"경기도 수원시 권선구 서둔동 17-237번지 1층","indutype":"일반휴게음식 - 스넥","category":"restaurant"}]},{"lat":"37.270927381","long":"126.98581245","imageIndex":4,"items":[{"name":"훌랄라참숯바베큐치킨","tel":"031-296-1540","addr":"경기도 수원시 권선구 서둔동 207-18번지","indutype":"일반휴게음식 - 주점","category":"restaurant"}]}]