[{"lat":"37.591863577","long":"126.87014613","items":[{"name":"(주)예린(YELIN Co. Ltd.)","tel":"070-7582-1694","addr":"경기도 고양시 덕양구 현천동 106번지","category":""}]},{"lat":"37.596113837","long":"126.86806641","items":[{"name":"(주)유로사코리아","tel":"02-995-2329","addr":"경기도 고양시 덕양구 현천동 173번지","category":""},{"name":"(주)유로사코리아","tel":"02-995-2329","addr":"경기도 고양시 덕양구 현천동 173번지","category":"보건위생 - 미용재료"},{"name":"(주)제이디에스","tel":"02-995-2329","addr":"경기도 고양시 덕양구 현천동 173번지","category":""},{"name":"(주)제이디에스","tel":"02-995-2329","addr":"경기도 고양시 덕양구 현천동 173번지","category":"보건위생 - 미용재료"}]},{"lat":"37.590414556","long":"126.8562334","items":[{"name":"(주)인앤아웃아트","tel":"02-1688-1003","addr":"경기도 고양시 덕양구 현천동 393번지","category":""},{"name":"(주)인앤아웃아트","tel":"02-1688-1003","addr":"경기도 고양시 덕양구 현천동 393번지","category":"용역 서비스 - 종합용역"},{"name":"테이크룩","tel":"070-8721-2605","addr":"경기도 고양시 덕양구 현천동 393번지","category":""}]},{"lat":"37.593558681","long":"126.86342862","items":[{"name":"(주)청년스토리","tel":"","addr":"경기도 고양시 덕양구 현천동 283-10번지","category":""},{"name":"(주)청년스토리","tel":"","addr":"경기도 고양시 덕양구 현천동 283-10번지","category":"건축자재 - 인테리어전문"}]},{"lat":"37.591391018","long":"126.86659167","items":[{"name":"H.D유통","tel":"02-833-8505","addr":"경기도 고양시 덕양구 현천동 69번지","category":"음료식품 - 농·축·수산품"}]},{"lat":"37.59313869","long":"126.86639599","items":[{"name":"경동택배 고양덕양대덕141","tel":"02-3158-0803","addr":"경기도 고양시 덕양구 현천동 137-6번지","category":""}]},{"lat":"37.587696289","long":"126.84437323","items":[{"name":"광진상사","tel":"02-3158-3877","addr":"경기도 고양시 덕양구 현천동 692-11번지","category":""},{"name":"광진상사","tel":"02-3158-3877","addr":"경기도 고양시 덕양구 현천동 692-11번지","category":"자동차정비 유지 - 자동차정비"},{"name":"다성밀레니엄(이사조아)","tel":"02-3128-0408","addr":"경기도 고양시 덕양구 현천동 692-11번지","category":"문화.취미 - 애완동물"},{"name":"다성밀레니엄(이사조아)","tel":"02-3128-0408","addr":"경기도 고양시 덕양구 현천동 692-11번지","category":""},{"name":"인테리어 지연(    )","tel":"","addr":"경기도 고양시 덕양구 현천동 692-11번지","category":"건축자재 - 인테리어전문"}]},{"lat":"37.593282754","long":"126.86631647","items":[{"name":"구판장","tel":"02-3158-2250","addr":"경기도 고양시 덕양구 현천동 137-2번지","category":"음료식품 - 기타음료식품"},{"name":"구판장","tel":"02-3158-2250","addr":"경기도 고양시 덕양구 현천동 137-2번지","category":""}]},{"lat":"37.591391022","long":"126.85179303","items":[{"name":"금호기계","tel":"02-3158-2110","addr":"경기도 고양시 덕양구 현천동 626-4번지","category":"광학제품 - 기타광학제품"},{"name":"금호기계","tel":"02-3158-2110","addr":"경기도 고양시 덕양구 현천동 626-4번지","category":""}]},{"lat":"37.590170362","long":"126.8554866","items":[{"name":"나눔한식부페","tel":"02-3159-8954","addr":"경기도 고양시 덕양구 현천동 380번지","category":""},{"name":"케이피렌탈","tel":"","addr":"경기도 고양시 덕양구 현천동 380번지","category":""},{"name":"케이피렌탈","tel":"","addr":"경기도 고양시 덕양구 현천동 380번지","category":"사무통신 - 컴퓨터"}]},{"lat":"37.592671719","long":"126.86773294","items":[{"name":"나로그린","tel":"02-2060-9543","addr":"경기도 고양시 덕양구 현천동 99-5번지","category":""},{"name":"다비드코팅","tel":"070-375-5004","addr":"경기도 고양시 덕양구 현천동 99-5번지","category":"자동차정비 유지 - 카인테리어"},{"name":"다비드코팅","tel":"070-375-5004","addr":"경기도 고양시 덕양구 현천동 99-5번지","category":""},{"name":"영우상사","tel":"02-954-7600","addr":"경기도 고양시 덕양구 현천동 99-5번지","category":""},{"name":"옛고을","tel":"02-3159-8911","addr":"경기도 고양시 덕양구 현천동 99-5번지","category":""},{"name":"제이제이모터스(JJ motors)","tel":"02-479-4265","addr":"경기도 고양시 덕양구 현천동 99-5번지","category":"자동차정비 유지 - 카인테리어"},{"name":"제이제이모터스(JJ motors)","tel":"02-479-4265","addr":"경기도 고양시 덕양구 현천동 99-5번지","category":""}]},{"lat":"37.589917564","long":"126.85506817","items":[{"name":"낙지와수제비천생연분","tel":"02-3158-3535","addr":"경기도 고양시 덕양구 현천동 350-1번지","category":""},{"name":"억부인 양평해장국","tel":"02-3158-4051","addr":"경기도 고양시 덕양구 현천동 350-1번지","category":""}]},{"lat":"37.590971252","long":"126.85470377","items":[{"name":"난점슈퍼","tel":"02-3158-3198","addr":"경기도 고양시 덕양구 현천동 383번지","category":"유통업 영리 - 슈퍼마켓"},{"name":"난점슈퍼","tel":"02-3158-3198","addr":"경기도 고양시 덕양구 현천동 383번지","category":""}]},{"lat":"37.591724927","long":"126.86706661","items":[{"name":"남부냉동","tel":"02-3158-4920","addr":"경기도 고양시 덕양구 현천동 83","category":""}]},{"lat":"37.590199793","long":"126.85742268","items":[{"name":"뉴서부동아","tel":"02-306-5337","addr":"경기도 고양시 덕양구 현천동 394-4번지","category":""},{"name":"선한밥상","tel":"02-3158-5677","addr":"경기도 고양시 덕양구 현천동 394-4번지","category":""}]},{"lat":"37.592698995","long":"126.86794802","items":[{"name":"늘푸른제지(주)","tel":"02-309-1433","addr":"경기도 고양시 덕양구 현천동 100번지","category":""},{"name":"원골식당","tel":"02-3158-5183","addr":"경기도 고양시 덕양구 현천동 100번지","category":""},{"name":"원골식당","tel":"02-3158-5183","addr":"경기도 고양시 덕양구 현천동 100번지","category":"일반휴게음식 - 일반한식"},{"name":"현천마트","tel":"02-3158-2459","addr":"경기도 고양시 덕양구 현천동 100번지","category":""},{"name":"현천마트","tel":"02-3158-2459","addr":"경기도 고양시 덕양구 현천동 100번지","category":"유통업 영리 - 슈퍼마켓"}]},{"lat":"37.589109308","long":"126.86467105","items":[{"name":"대덕사","tel":"02-3159-8886","addr":"경기도 고양시 덕양구 현천동 297-5번지","category":""}]},{"lat":"37.590393615","long":"126.85390102","items":[{"name":"대한통상","tel":"02-2676-3114","addr":"경기도 고양시 덕양구 현천동 344-1번지","category":"전기제품 - 기타전기제품"},{"name":"대한통상","tel":"02-2676-3114","addr":"경기도 고양시 덕양구 현천동 344-1번지","category":""}]},{"lat":"37.590583491","long":"126.8544328","items":[{"name":"대한통상주식회사(DAE HAN TRADE CO.Ltd.)","tel":"031-2676-3114","addr":"경기도 고양시 덕양구 현천동 383-4번지","category":"주방용구 - 주방용구"},{"name":"대한통상주식회사(DAE HAN TRADE CO.Ltd.)","tel":"031-2676-3114","addr":"경기도 고양시 덕양구 현천동 383-4번지","category":""}]},{"lat":"37.591504366","long":"126.87119977","items":[{"name":"더원애드","tel":"","addr":"경기도 고양시 덕양구 현천동 38-16번지","category":"용역 서비스 - 종합용역"},{"name":"더원애드","tel":"","addr":"경기도 고양시 덕양구 현천동 38-16번지","category":""}]},{"lat":"37.594113722","long":"126.86811531","items":[{"name":"동국상사 주식회사","tel":"02-3159-6003","addr":"경기도 고양시 덕양구 현천동 162-2번지","category":"기타 - 기계공구"}]},{"lat":"37.593809781","long":"126.85506047","items":[{"name":"동원 INC","tel":"070-4253-3151","addr":"경기도 고양시 덕양구 현천동 421-2번지","category":""},{"name":"동원 INC","tel":"070-4253-3151","addr":"경기도 고양시 덕양구 현천동 421-2번지","category":"용역 서비스 - 기타용역서비스"},{"name":"오름디자인출력","tel":"","addr":"경기도 고양시 덕양구 현천동 421-2번지","category":"서적문구 - 출판 및 인쇄물"},{"name":"오름디자인출력","tel":"","addr":"경기도 고양시 덕양구 현천동 421-2번지","category":""},{"name":"윤 메디칼","tel":"","addr":"경기도 고양시 덕양구 현천동 421-2번지","category":"보건위생 - 의료용품"},{"name":"지영시스템","tel":"","addr":"경기도 고양시 덕양구 현천동 421-2번지","category":""},{"name":"지영시스템","tel":"","addr":"경기도 고양시 덕양구 현천동 421-2번지","category":"용역 서비스 - 기타용역서비스"}]},{"lat":"37.590638756","long":"126.8553951","items":[{"name":"동원연탄","tel":"031-766-4935","addr":"경기도 고양시 덕양구 현천동 381번지","category":""}]},{"lat":"37.58805622","long":"126.85803824","items":[{"name":"라온","tel":"","addr":"경기도 고양시 덕양구 현천동 363-2번지","category":"일반휴게음식 - 서양음식"},{"name":"라온","tel":"","addr":"경기도 고양시 덕양구 현천동 363-2번지","category":""}]},{"lat":"37.592941506","long":"126.86729086","items":[{"name":"머리가예쁜날","tel":"02-2065-9966","addr":"경기도 고양시 덕양구 현천동 774-1번지","category":""}]},{"lat":"37.591057944","long":"126.86684137","items":[{"name":"모션","tel":"02-6405-6198","addr":"경기도 고양시 덕양구 현천동 68번지","category":""},{"name":"모션","tel":"02-6405-6198","addr":"경기도 고양시 덕양구 현천동 68번지","category":"직물 - 침구·수예점"}]},{"lat":"37.591585706","long":"126.87142608","items":[{"name":"몽상공간","tel":"02-3158-2046","addr":"경기도 고양시 덕양구 현천동 38-7번지","category":"광학제품 - 사진관"},{"name":"몽상공간","tel":"02-3158-2046","addr":"경기도 고양시 덕양구 현천동 38-7번지","category":""}]},{"lat":"37.586445268","long":"126.85951321","items":[{"name":"미르유통","tel":"02-3158-0954","addr":"경기도 고양시 덕양구 현천동 315-4번지","category":""}]},{"lat":"37.592413962","long":"126.85561805","items":[{"name":"바인알엔씨","tel":"032-361-9689","addr":"경기도 고양시 덕양구 현천동 412번지","category":""},{"name":"바인알엔씨","tel":"032-361-9689","addr":"경기도 고양시 덕양구 현천동 412번지","category":"건축자재 - 기타건축자재"}]},{"lat":"37.601531024","long":"126.85495461","items":[{"name":"보성무역","tel":"02-3159-9977","addr":"경기도 고양시 덕양구 현천동 521-5","category":""}]},{"lat":"37.590248209","long":"126.86783922","items":[{"name":"부일수산","tel":"02-3158-2205","addr":"경기도 고양시 덕양구 현천동","category":"음료식품 - 농·축·수산품"}]},{"lat":"37.591337924","long":"126.86742964","items":[{"name":"블랙베어(Blackbear)","tel":"031-1899-3697","addr":"경기도 고양시 덕양구 현천동 86-3번지","category":""}]},{"lat":"37.595588544","long":"126.8657008","items":[{"name":"사운드디자인","tel":"02-3159-2221","addr":"경기도 고양시 덕양구 현천동","category":"전기제품 - 가전제품"},{"name":"사운드디자인","tel":"02-3159-2221","addr":"경기도 고양시 덕양구 현천동 184-1번지","category":""}]},{"lat":"37.59050368","long":"126.85545198","items":[{"name":"사회적협동조합 행복플러스","tel":"02-3144-0993","addr":"경기도 고양시 덕양구 현천동 381-2번지","category":""},{"name":"사회적협동조합 행복플러스","tel":"02-3144-0993","addr":"경기도 고양시 덕양구 현천동 381-2번지","category":"음료식품 - 미곡상"}]},{"lat":"37.593699049","long":"126.86025793","items":[{"name":"상암타이어","tel":"02-3158-1125","addr":"경기도 고양시 덕양구 현천동 278-1번지","category":"자동차정비 유지 - 자동차시트·타이어"}]},{"lat":"37.59013724","long":"126.85784173","items":[{"name":"샛별예성어린이집[아이행복]","tel":"02-3158-6210","addr":"경기도 고양시 덕양구 현천동 394-18번지","category":"학원 - 유아원"}]},{"lat":"37.591644256","long":"126.86742908","items":[{"name":"성도바퀴종합상사","tel":"031-2269-3221","addr":"경기도 고양시 덕양구 현천동 86","category":""}]},{"lat":"37.590197735","long":"126.87100959","items":[{"name":"성조물류","tel":"02-3667-3662","addr":"경기도 고양시 덕양구 현천동 42-1번지","category":"기타 - 기계공구"},{"name":"성조물류","tel":"02-3667-3662","addr":"경기도 고양시 덕양구 현천동 42-1번지","category":""}]},{"lat":"37.592280733","long":"126.86465386","items":[{"name":"솔라테라스 주식회사","tel":"070-8873-0370","addr":"경기도 고양시 덕양구 현천동 294-2번지","category":""},{"name":"솔라테라스 주식회사","tel":"070-8873-0370","addr":"경기도 고양시 덕양구 현천동 294-2번지","category":"용역 서비스 - 기타용역서비스"},{"name":"신화트레이딩코리아","tel":"02-3158-5522","addr":"경기도 고양시 덕양구 현천동 294-2번지","category":""}]},{"lat":"37.590694589","long":"126.85682162","items":[{"name":"송앤강","tel":"02-3158-2041","addr":"경기도 고양시 덕양구 현천동 394-1번지 난점마을에코빌","category":"보건위생 - 화장품"},{"name":"송앤강","tel":"02-3158-2041","addr":"경기도 고양시 덕양구 현천동 394-1번지 난점마을에코빌","category":""}]},{"lat":"37.5925538","long":"126.86704246","items":[{"name":"수성테크","tel":"02-323-7349","addr":"경기도 고양시 덕양구 현천동 136-2번지","category":"기타 - 기계공구"},{"name":"주식회사 휴웰","tel":"031-323-7330","addr":"경기도 고양시 덕양구 현천동 136-2번지","category":"보건위생 - 화장품"},{"name":"주식회사 휴웰","tel":"031-323-7330","addr":"경기도 고양시 덕양구 현천동 136-2번지","category":""}]},{"lat":"37.591783067","long":"126.85544945","items":[{"name":"스파클서대문대리점","tel":"02-3158-2926","addr":"경기도 고양시 덕양구 현천동 399-1번지","category":""},{"name":"스파클서대문대리점","tel":"02-3158-2926","addr":"경기도 고양시 덕양구 현천동 399-1번지","category":"음료식품 - 기타음료식품"}]},{"lat":"37.592169412","long":"126.869704","items":[{"name":"승우건축자재","tel":"02-3663-4258","addr":"경기도 고양시 덕양구 현천동 107-2번지","category":"건축자재 - 기타건축자재"},{"name":"승우건축자재","tel":"02-3663-4258","addr":"경기도 고양시 덕양구 현천동 107-2번지","category":""},{"name":"키드조이 스포츠클럽","tel":"02-357-5769","addr":"경기도 고양시 덕양구 현천동 107-2번지","category":""},{"name":"키드조이 스포츠클럽","tel":"02-357-5769","addr":"경기도 고양시 덕양구 현천동 107-2번지","category":"학원 - 기타 교육기관"}]},{"lat":"37.592921358","long":"126.85075955","items":[{"name":"신성건업","tel":"031-3159-7904","addr":"경기도 고양시 덕양구 현천동 592-1번지","category":""}]},{"lat":"37.590107942","long":"126.85600756","items":[{"name":"신진샷다공사","tel":"031-848-5500","addr":"경기도 고양시 덕양구 현천동 377-1번지","category":""},{"name":"신진샷다공사","tel":"031-848-5500","addr":"경기도 고양시 덕양구 현천동 377-1번지","category":"건축자재 - 기타건축자재"}]},{"lat":"37.591753073","long":"126.86804031","items":[{"name":"씨앤샵","tel":"","addr":"경기도 고양시 덕양구 현천동 95번지","category":""},{"name":"씨앤샵","tel":"","addr":"경기도 고양시 덕양구 현천동 95번지","category":"음료식품 - 기타음료식품"}]},{"lat":"37.592838957","long":"126.8722278","items":[{"name":"아이스포츠","tel":"02-374-1140","addr":"경기도 고양시 덕양구 현천동 22번지","category":""},{"name":"아이스포츠","tel":"02-374-1140","addr":"경기도 고양시 덕양구 현천동 22번지","category":"레저업소 - 기타레져업소"}]},{"lat":"37.589338843","long":"126.85340494","items":[{"name":"아코스 코리아(AKKOHS KOREA)","tel":"02-704-4599","addr":"경기도 고양시 덕양구 현천동 647-1번지","category":"보건위생 - 미용재료"},{"name":"유니텍","tel":"02-3159-0993","addr":"경기도 고양시 덕양구 현천동 647-1번지","category":""}]},{"lat":"37.590086754","long":"126.8534827","items":[{"name":"에스아이 리에종(SI LIAISON)","tel":"02-3159-0909","addr":"경기도 고양시 덕양구 현천동 343-3번지","category":"음료식품 - 기타음료식품"},{"name":"에스아이 리에종(SI LIAISON)","tel":"02-3159-0909","addr":"경기도 고양시 덕양구 현천동 343-3번지","category":""}]},{"lat":"37.591246835","long":"126.86656929","items":[{"name":"영상사","tel":"02-3158-0331","addr":"경기도 고양시 덕양구 현천동 69-1 1","category":""}]},{"lat":"37.592032337","long":"126.86800584","items":[{"name":"오뉴컴퍼니","tel":"","addr":"경기도 고양시 덕양구 현천동 97-2번지","category":""}]},{"lat":"37.593668687","long":"126.86503627","items":[{"name":"원킨450그람","tel":"02-575-8575","addr":"경기도 고양시 덕양구 현천동 150-11번지","category":""}]},{"lat":"37.593084958","long":"126.86667916","items":[{"name":"제시카공업사","tel":"02-3158-2589","addr":"경기도 고양시 덕양구 현천동 137-8번지","category":""},{"name":"제시카공업사","tel":"02-3158-2589","addr":"경기도 고양시 덕양구 현천동 137-8번지","category":"자동차정비 유지 - 자동차정비"}]},{"lat":"37.590699002","long":"126.85315312","items":[{"name":"제이엠 커뮤니케이션","tel":"02-3158-4597","addr":"경기도 고양시 덕양구 현천동","category":"서적문구 - 출판 및 인쇄물"}]},{"lat":"37.592364881","long":"126.8672919","items":[{"name":"제이제이팩토리","tel":"070-7575-2223","addr":"경기도 고양시 덕양구 현천동 128-1번지","category":""},{"name":"파츠코","tel":"","addr":"경기도 고양시 덕양구 현천동 128-1번지","category":"자동차정비 유지 - 자동차부품"},{"name":"파츠코","tel":"","addr":"경기도 고양시 덕양구 현천동 128-1번지","category":""}]},{"lat":"37.593191077","long":"126.86495789","items":[{"name":"주식회사 로스팅 파크 커피 컴퍼니","tel":"070-7790-9991","addr":"경기도 고양시 덕양구 현천동 148-2번지","category":""},{"name":"주식회사 로스팅 파크 커피 컴퍼니","tel":"070-7790-9991","addr":"경기도 고양시 덕양구 현천동 148-2번지","category":"음료식품 - 기타음료식품"}]},{"lat":"37.590334478","long":"126.86453291","items":[{"name":"주식회사 오예실리콘","tel":"070-4221-1233","addr":"경기도 고양시 덕양구 현천동 산69-28번지","category":""}]},{"lat":"37.591304613","long":"126.85470311","items":[{"name":"주식회사 제일전기","tel":"02-463-1125","addr":"경기도 고양시 덕양구 현천동 389번지","category":"용역 서비스 - 기타용역서비스"},{"name":"주식회사 제일전기","tel":"02-463-1125","addr":"경기도 고양시 덕양구 현천동 389번지","category":""}]},{"lat":"37.589749277","long":"126.85740091","items":[{"name":"주식회사 준뮤직타워","tel":"02-333-7700","addr":"경기도 고양시 덕양구 현천동 376번지","category":"레져용품 - 악기점"},{"name":"주식회사 준뮤직타워","tel":"02-333-7700","addr":"경기도 고양시 덕양구 현천동 376번지","category":""}]},{"lat":"37.592698593","long":"126.86759701","items":[{"name":"청운식품","tel":"02-3159-7806","addr":"경기도 고양시 덕양구 현천동 99-3번지","category":""},{"name":"청운식품","tel":"02-3159-7806","addr":"경기도 고양시 덕양구 현천동 99-3번지","category":"음료식품 - 기타음료식품"}]},{"lat":"37.592335023","long":"126.87278349","items":[{"name":"초원오리농장","tel":"031-3663-5292","addr":"경기도 고양시 덕양구 현천동 41-13번지","category":"일반휴게음식 - 일반한식"},{"name":"초원오리농장","tel":"031-3663-5292","addr":"경기도 고양시 덕양구 현천동 41-13번지","category":""}]},{"lat":"37.591025733","long":"126.87020423","items":[{"name":"카라 (Calla)","tel":"02-3662-2068","addr":"경기도 고양시 덕양구 현천동 51-2번지 우성아트빌","category":""}]},{"lat":"37.595057717","long":"126.8663472","items":[{"name":"컬러애드","tel":"02-334-8274","addr":"경기도 고양시 덕양구 현천동 156-35번지","category":"서적문구 - 출판 및 인쇄물"},{"name":"컬러애드","tel":"02-334-8274","addr":"경기도 고양시 덕양구 현천동 156-35번지","category":""}]},{"lat":"37.592206469","long":"126.85540333","items":[{"name":"케이씨엠(KCM)","tel":"","addr":"경기도 고양시 덕양구 현천동 412-17번지 파크빌","category":"용역 서비스 - 종합용역"}]},{"lat":"37.592223151","long":"126.86942084","items":[{"name":"크린알앤씨","tel":"031-966-1183","addr":"경기도 고양시 덕양구 현천동 104번지","category":"용역 서비스 - 종합용역"},{"name":"크린알앤씨","tel":"031-966-1183","addr":"경기도 고양시 덕양구 현천동 104번지","category":""}]},{"lat":"37.594974183","long":"126.8721448","items":[{"name":"태진","tel":"02-3158-4151","addr":"경기도 고양시 덕양구 현천동 29-8번지","category":"용역 서비스 - 기타용역서비스"},{"name":"태진","tel":"02-3158-4151","addr":"경기도 고양시 덕양구 현천동 29-8번지","category":""}]},{"lat":"37.594060205","long":"126.86859097","items":[{"name":"파란음향","tel":"070-7788-9172","addr":"경기도 고양시 덕양구 현천동 165-3번지","category":""},{"name":"파란음향","tel":"070-7788-9172","addr":"경기도 고양시 덕양구 현천동 165-3번지","category":"전기제품 - 가전제품"}]},{"lat":"37.592724789","long":"126.86687231","items":[{"name":"포인트모터스","tel":"031-3159-0333","addr":"경기도 고양시 덕양구 현천동 136-1번지","category":""},{"name":"포인트모터스","tel":"031-3159-0333","addr":"경기도 고양시 덕양구 현천동 136-1번지","category":"자동차정비 유지 - 자동차정비"}]},{"lat":"37.595418421","long":"126.86661829","items":[{"name":"필 water closet","tel":"02-716-7411","addr":"경기도 고양시 덕양구 현천동 182번지","category":"용역 서비스 - 기타용역서비스"},{"name":"필 water closet","tel":"02-716-7411","addr":"경기도 고양시 덕양구 현천동 182번지","category":""}]},{"lat":"37.592748457","long":"126.87186562","items":[{"name":"현천리공업사","tel":"02-3158-1088","addr":"경기도 고양시 덕양구 현천동 37-5번지","category":""},{"name":"현천리공업사","tel":"02-3158-1088","addr":"경기도 고양시 덕양구 현천동 37-5번지","category":"자동차정비 유지 - 자동차정비"},{"name":"현천리자동차공업사","tel":"02-315-1088","addr":"경기도 고양시 덕양구 현천동 37-5번지","category":""}]}]