[{"lat":"37.214413513","long":"126.97939229","items":[{"name":"(주)마트킹수원대","tel":"031-236-2700","addr":"경기도 화성시 봉담읍 와우리 43-1번지","category":"유통업 영리 - 슈퍼마켓"},{"name":"세이카스테라","tel":"031-221-5341","addr":"경기도 화성시 봉담읍 와우리 43-1번지 1층","category":"음료식품 - 제과점"},{"name":"주식회사경기농산물유통센터","tel":"031-221-0001","addr":"경기도 화성시 봉담읍 와우리 43-1번지 외3필지","category":"유통업 영리 - 슈퍼마켓"}]},{"lat":"37.214827726","long":"126.97809656","items":[{"name":"(주)일인자감자탕","tel":"031-233-3350","addr":"경기도 화성시 봉담읍 와우리 45-5번지 5층","category":"일반휴게음식 - 일반한식"},{"name":"빨간석쇠구이 (수원대점)","tel":"","addr":"경기도 화성시 봉담읍 와우리 45-5번지","category":"일반휴게음식 - 일반한식"},{"name":"샬레향수제돈가스&","tel":"031-226-4105","addr":"경기도 화성시 봉담읍 와우리 45-5번지 2층5동201호","category":"일반휴게음식 - 일반한식"}]},{"lat":"37.214773157","long":"126.97578703","items":[{"name":"1970","tel":"031-225-9242","addr":"경기도 화성시 봉담읍 와우리 70-4번지 시라맨션 상가 2층 1","category":"일반휴게음식 - 일반한식"},{"name":"소담애손만두","tel":"031-232-9282","addr":"경기도 화성시 봉담읍 와우리 70-4번지 시라맨숀 1층 1호","category":"일반휴게음식 - 스넥"},{"name":"자매맛집","tel":"031-223-2188","addr":"경기도 화성시 봉담읍 와우리 70-4번지 3,4호","category":"일반휴게음식 - 일반한식"},{"name":"자연촌건강원","tel":"031-222-9112","addr":"경기도 화성시 봉담읍 와우리 70-4번지 시라맨션상가 102호","category":"건강식품 - 기타건강식품"},{"name":"천호숯불꼼장어","tel":"031-297-3401","addr":"경기도 화성시 봉담읍 와우리 70-4 시라맨숀상가1층 6","category":"일반휴게음식 - 일반한식"}]},{"lat":"37.215575323","long":"126.9768683","items":[{"name":"37도씨","tel":"070-7737-8381","addr":"경기도 화성시 봉담읍 와우리 75-7번지 102호","category":"일반휴게음식 - 일반한식"},{"name":"꼴두바우","tel":"02-1577-0000","addr":"경기도 화성시 봉담읍 와우리 75-7번지 1층","category":"일반휴게음식 - 일반한식"},{"name":"도담치킨 수원대점","tel":"","addr":"경기도 화성시 봉담읍 와우리 75-7번지 2층 201호","category":"일반휴게음식 - 스넥"},{"name":"동광볼링센타","tel":"031-222-7995","addr":"경기도 화성시 봉담읍 와우리 75-7번지","category":"레저업소 - 볼 링 장"},{"name":"동광볼링센타","tel":"031-222-5180","addr":"경기도 화성시 봉담읍 와우리 75-7번지 4층","category":"레저업소 - 볼 링 장"},{"name":"미스 사이공","tel":"070-4128-4200","addr":"경기도 화성시 봉담읍 와우리 75-7번지 1층","category":"일반휴게음식 - 서양음식"},{"name":"엔학고레 화성점","tel":"031-907-8941","addr":"경기도 화성시 봉담읍 와우리 75-7번지","category":"레저업소 - 기타레져업소"},{"name":"오뚜기노래방","tel":"031-222-1173","addr":"경기도 화성시 봉담읍 와우리 75-7","category":"레저업소 - 노 래 방"},{"name":"티바두마리치킨","tel":"031-224-9297","addr":"경기도 화성시 봉담읍 와우리 75-7번지 1층","category":"일반휴게음식 - 스넥"},{"name":"포차학개론","tel":"070-7167-6962","addr":"경기도 화성시 봉담읍 와우리 75-7번지","category":"일반휴게음식 - 일반한식"},{"name":"학사당구장","tel":"031-245-7678","addr":"경기도 화성시 봉담읍 와우리 75-7번지 2층","category":"레저업소 - 당 구 장"}]},{"lat":"37.213493576","long":"126.97531432","items":[{"name":"59피자","tel":"031-221-5982","addr":"경기도 화성시 봉담읍 와우리 31-6번지","category":"일반휴게음식 - 서양음식"},{"name":"고봉민김밥인화성와우리점","tel":"031-221-1120","addr":"경기도 화성시 봉담읍 와우리 31-6번지 토마토쇼핑 109호","category":"일반휴게음식 - 스넥"},{"name":"닭발왕","tel":"031-222-5572","addr":"경기도 화성시 봉담읍 와우리 31-6번지 토마토오피스텔 117호 117호~118호","category":"일반휴게음식 - 일반한식"},{"name":"도도헤어","tel":"031-234-2234","addr":"경기도 화성시 봉담읍 와우리 31-6번지 토마토쇼핑 105호","category":"보건위생 - 미용원"},{"name":"바빈스커피","tel":"031-222-2080","addr":"경기도 화성시 봉담읍 와우리 31-6번지 토마토쇼핑 118호","category":"일반휴게음식 - 서양음식"},{"name":"베테랑","tel":"031-225-3461","addr":"경기도 화성시 봉담읍 와우리 31-6번지 토마토쇼핑 101호~102호","category":"음료식품 - 제과점"},{"name":"본죽 수원대점","tel":"031-225-6288","addr":"경기도 화성시 봉담읍 와우리 31-6","category":"일반휴게음식 - 일반한식"},{"name":"오뎅빠","tel":"","addr":"경기도 화성시 봉담읍 와우리 31-6번지 토마토쇼핑 1층 A104호","category":"일반휴게음식 - 주점"},{"name":"오레시피화성와우점","tel":"031-221-7660","addr":"경기도 화성시 봉담읍 와우리 31-6번지","category":"음료식품 - 기타음료식품"},{"name":"장수소머리국밥","tel":"031-223-8876","addr":"경기도 화성시 봉담읍 와우리 31-6번지 토마토쇼핑 111호","category":"일반휴게음식 - 일반한식"},{"name":"착한정비센터봉담점","tel":"031-226-9400","addr":"경기도 화성시 봉담읍 와우리 31-6번지 토마토쇼핑 2층 201호","category":"자동차정비 유지 - 자동차정비"},{"name":"크린토피아GS슈퍼봉담점","tel":"031-222-0209","addr":"경기도 화성시 봉담읍 와우리 31-6번지 외4필지 토마토쇼핑 117호","category":"수리서비스 - 세탁소"},{"name":"킹콩떡볶이","tel":"031-236-7082","addr":"경기도 화성시 봉담읍 와우리 31-6번지 토마토쇼핑 A동 106호","category":"일반휴게음식 - 스넥"},{"name":"태양회관","tel":"031-225-6125","addr":"경기도 화성시 봉담읍 와우리 31-6번지 토마토쇼핑 116호 115","category":"일반휴게음식 - 일반한식"},{"name":"펀비어킹 수원대점","tel":"031-236-0888","addr":"경기도 화성시 봉담읍 와우리 31-6번지 A동 119~120호","category":"일반휴게음식 - 일반한식"},{"name":"하이모터스","tel":"031-226-9400","addr":"경기도 화성시 봉담읍 와우리 31-6번지 토마토쇼핑 201호","category":"자동차정비 유지 - 자동차정비"},{"name":"훌랄라 숯불 바베큐","tel":"031-221-9275","addr":"경기도 화성시 봉담읍 와우리 31-6번지 4필지 122호","category":"일반휴게음식 - 주점"}]},{"lat":"37.214548309","long":"126.97764601","items":[{"name":"BMW노래연습장","tel":"031-226-6701","addr":"경기도 화성시 봉담읍 와우리 62-6","category":"레저업소 - 노 래 방"},{"name":"게임창고pc방 3호점","tel":"031-772-0731","addr":"경기도 화성시 봉담읍 와우리 62-6번지 2층","category":"레저업소 - 기타레져업소"},{"name":"벅스당구장","tel":"","addr":"경기도 화성시 봉담읍 와우리 62-6번지 삼성빌딩 3층","category":"레저업소 - 당 구 장"},{"name":"와우곱창","tel":"031-221-9792","addr":"경기도 화성시 봉담읍 와우리 62-6번지 1층","category":"일반휴게음식 - 일반한식"},{"name":"피쉬앤그릴","tel":"031-223-8434","addr":"경기도 화성시 봉담읍 와우리 62-6번지 1층","category":"일반휴게음식 - 일반한식"}]},{"lat":"37.215492954","long":"126.97159575","items":[{"name":"GS25봉담그대가점","tel":"02-2006-2485","addr":"경기도 화성시 봉담읍 와우리 589 봉담그대가 101호","category":"유통업 영리 - 편 의 점"},{"name":"더쉼 스킨 하우스","tel":"","addr":"경기도 화성시 봉담읍 와우리 589번지 봉담그대가3단지 제2동 2층 212호","category":"보건위생 - 피부미용실"},{"name":"뮤엠 영어수학 맨투맨학원","tel":"031-237-9777","addr":"경기도 화성시 봉담읍 와우리 589번지 2-202 봉담그대가3단지상가동2동 202호~203호","category":"학원 - 보습학원"},{"name":"베베룸","tel":"031-8007-3434","addr":"경기도 화성시 봉담읍 와우리 589번지 봉담그대가3단지 102호","category":"의류 - 아동의류"},{"name":"베베토이공구","tel":"070-8758-8804","addr":"경기도 화성시 봉담읍 와우리 589번지 봉담그대가3단지제 2동 103호","category":"의류 - 아동의류"},{"name":"아지트모티","tel":"031-224-5881","addr":"경기도 화성시 봉담읍 와우리 589번지 봉담그대가3단지 2동 108호","category":"일반휴게음식 - 서양음식"},{"name":"와우미술학원","tel":"031-292-6287","addr":"경기도 화성시 봉담읍 와우리 589 봉담그대가3단지2동305호~306호","category":"학원 - 예·체능계학원"},{"name":"용인대해오름태권도","tel":"031-306-7899","addr":"경기도 화성시 봉담읍 와우리 589번지 307 (307호~309호)","category":"학원 - 예·체능계학원"},{"name":"임광세탁소","tel":"031-226-4626","addr":"경기도 화성시 봉담읍 와우리 589번지 봉담그대가3단지근린생활시설 2동 104호","category":"수리서비스 - 세탁소"},{"name":"크린세탁","tel":"031-225-3030","addr":"경기도 화성시 봉담읍 와우리 589번지 1-105 봉담그대가3단지 3단지상가동","category":"수리서비스 - 세탁소"},{"name":"키즈브레인창의수학교습소","tel":"031-224-0333","addr":"경기도 화성시 봉담읍 와우리 589번지 봉담그대가 3단지 110호","category":"학원 - 보습학원"},{"name":"하이영어교습소","tel":"","addr":"경기도 화성시 봉담읍 와우리 589번지 봉담그대가3단지 상가 201호","category":"학원 - 외국어학원"},{"name":"해법영어전과목학원","tel":"031-222-2005","addr":"경기도 화성시 봉담읍 와우리 589번지 봉담그대가3단지 2층 209~211호","category":"학원 - 보습학원"},{"name":"행복한피아니스트음악학원","tel":"031-226-2724","addr":"경기도 화성시 봉담읍 와우리 589번지 후문상가 303,304호","category":"학원 - 예·체능계학원"}]},{"lat":"37.217188061","long":"126.97633823","items":[{"name":"GS25봉담신일점","tel":"","addr":"경기도 화성시 봉담읍 와우리 87-1번지","category":"유통업 영리 - 편 의 점"},{"name":"네네치킨","tel":"031-225-9291","addr":"경기도 화성시 봉담읍 와우리 87-1번지 1층","category":"일반휴게음식 - 스넥"},{"name":"시편23음악학원","tel":"031-223-4823","addr":"경기도 화성시 봉담읍 와우리 87-1번지 미쁘빌딩 2층","category":"학원 - 예·체능계학원"}]},{"lat":"37.214079268","long":"126.97539297","items":[{"name":"GS25봉담토마토점","tel":"02-2006-2485","addr":"경기도 화성시 봉담읍 와우리 31-28번지 토마토오피스텔 B동 105호","category":"유통업 영리 - 편 의 점"},{"name":"뚜러콜(화성점)","tel":"","addr":"경기도 화성시 봉담읍 와우리 31-28번지 토마토오피스텔1) 510호","category":"수리서비스 - 기타수리서비스"},{"name":"비에이치씨 화성와우리점","tel":"031-221-9797","addr":"경기도 화성시 봉담읍 와우리 31-28번지 (토마토오피스텔2상가 B102동 B103호)","category":"일반휴게음식 - 주점"},{"name":"비에이치씨화성와우리점","tel":"031-221-9797","addr":"경기도 화성시 봉담읍 와우리 31-28번지 토마토오피스텔2상가 B102동 B103호","category":"일반휴게음식 - 주점"},{"name":"아마존동물병원","tel":"031-226-3872","addr":"경기도 화성시 봉담읍 와우리 31-28번지 토마토오피스텔2 상가B106호","category":"기타의료기관 - 동물병원"},{"name":"토마토노래연습장","tel":"","addr":"경기도 화성시 봉담읍 와우리 31-28번지 토마토오피스텔 지하1층 B101호","category":"레저업소 - 노 래 방"}]},{"lat":"37.215266953","long":"126.96890323","items":[{"name":"GS25봉담한신점","tel":"","addr":"경기도 화성시 봉담읍 와우리 220-75번지 101호","category":"유통업 영리 - 편 의 점"},{"name":"강수학학원","tel":"031-236-2090","addr":"경기도 화성시 봉담읍 와우리 220-75번지 1동 4층 403호","category":"학원 - 보습학원"},{"name":"경희청익한의원","tel":"031-222-7510","addr":"경기도 화성시 봉담읍 와우리 220-75번지","category":"의원 - 한의원"},{"name":"닥터김 어학원","tel":"031-222-4556","addr":"경기도 화성시 봉담읍 와우리 220-75번지 미래프라자 304호","category":"학원 - 외국어학원"},{"name":"로이음악학원","tel":"","addr":"경기도 화성시 봉담읍 와우리 220-75번지 미래프라자 4층 405호","category":"학원 - 예·체능계학원"},{"name":"버무리봉담점","tel":"031-223-2555","addr":"경기도 화성시 봉담읍 와우리 220-75번지 1층 105호","category":"일반휴게음식 - 스넥"},{"name":"봉담중앙약국","tel":"031-222-8175","addr":"경기도 화성시 봉담읍 와우리 220-75번지 미래프라자 107호","category":"약국 - 약국"},{"name":"봉담휴이비인후과","tel":"031-221-9386","addr":"경기도 화성시 봉담읍 와우리 220-75번지 3층 301호","category":"의원 - 의원"},{"name":"삼성드림내과의원","tel":"","addr":"경기도 화성시 봉담읍 와우리 220-75번지 미래프라자 3층 302호","category":"의원 - 의원"},{"name":"새한 더샵 음악학원","tel":"031-221-5777","addr":"경기도 화성시 봉담읍 와우리 220-75번지 501호","category":"학원 - 예·체능계학원"},{"name":"생생면가","tel":"031-221-9740","addr":"경기도 화성시 봉담읍 와우리 220-75번지 1동 108호,109호","category":"일반휴게음식 - 일반한식"},{"name":"아이맥영수학원","tel":"031-223-4007","addr":"경기도 화성시 봉담읍 와우리 220-75번지 미래프라자 4층 401호","category":"학원 - 보습학원"},{"name":"연세서울미래치과의원","tel":"031-226-2777","addr":"경기도 화성시 봉담읍 와우리 220-75번지 미래프라자 2층 201호","category":"의원 - 치과의원"},{"name":"커피에 반하다","tel":"","addr":"경기도 화성시 봉담읍 와우리 220-75번지 1층 106호","category":"일반휴게음식 - 서양음식"},{"name":"크리아트봉담미술학원","tel":"031-237-1003","addr":"경기도 화성시 봉담읍 와우리 220-75번지 1동 4층 402호","category":"학원 - 예·체능계학원"},{"name":"홍루이젠(봉담점)","tel":"031-292-1231","addr":"경기도 화성시 봉담읍 와우리 220-75번지 1층 101호","category":"일반휴게음식 - 서양음식"}]},{"lat":"37.221188518","long":"126.97570587","items":[{"name":"ITOFFICE","tel":"031-243-7020","addr":"경기도 화성시 봉담읍 와우리 128-4번지 아이티오피스 1층 102호","category":"사무통신 - 사무용 OA기기"}]},{"lat":"37.215908596","long":"126.97637247","items":[{"name":"KBS노래연습장","tel":"031-222-3496","addr":"경기도 화성시 봉담읍 와우리 75-3번지 지하1층","category":"레저업소 - 노 래 방"},{"name":"김밥천국","tel":"031-223-7337","addr":"경기도 화성시 봉담읍 와우리 75-3번지 외1필지","category":"일반휴게음식 - 스넥"},{"name":"무지개사진관","tel":"031-222-8597","addr":"경기도 화성시 봉담읍 와우리 75-3번지","category":"광학제품 - 사진관"},{"name":"바디스톤","tel":"031-898-8788","addr":"경기도 화성시 봉담읍 와우리 75-3번지","category":"레저업소 - 헬스클럽"},{"name":"삼칠포차 수원대점","tel":"031-000-0000","addr":"경기도 화성시 봉담읍 와우리 75-3번지 3층","category":"일반휴게음식 - 주점"},{"name":"와우약국","tel":"031-222-0457","addr":"경기도 화성시 봉담읍 와우리 75-3번지","category":"약국 - 약국"},{"name":"와우열쇠도장","tel":"031-222-7721","addr":"경기도 화성시 봉담읍 와우리 75-3","category":"건축자재 - 목재·석재·철물"},{"name":"허경옥헤어","tel":"031-222-9762","addr":"경기도 화성시 봉담읍 와우리 75-3","category":"보건위생 - 미용원"}]},{"lat":"37.219494734","long":"126.97642755","items":[{"name":"KS모터스","tel":"031-224-3547","addr":"경기도 화성시 봉담읍 와우리 107번지","category":"자동차정비 유지 - 자동차정비"}]},{"lat":"37.220656753","long":"126.97504131","items":[{"name":"M&N 스포츠","tel":"070-8172-4576","addr":"경기도 화성시 봉담읍 와우리 126번지","category":"레져용품 - 스포츠·레져용품"},{"name":"티스테이션 이마트 봉담점","tel":"031-224-8709","addr":"경기도 화성시 봉담읍 와우리 126번지","category":"자동차정비 유지 - 자동차시트·타이어"}]},{"lat":"37.213990065","long":"126.97959521","items":[{"name":"MR짱닭치킨","tel":"031-237-3090","addr":"경기도 화성시 봉담읍 와우리 43-9번지 2층","category":"일반휴게음식 - 스넥"},{"name":"쥬씨 수원대점","tel":"070-4117-1028","addr":"경기도 화성시 봉담읍 와우리 43-9번지","category":"일반휴게음식 - 서양음식"}]},{"lat":"37.216771761","long":"126.96917295","items":[{"name":"STCO 봉담상설점","tel":"031-222-8420","addr":"경기도 화성시 봉담읍 와우리 213-69번지","category":"레져용품 - 스포츠·레져용품"},{"name":"에스티오(STCO)","tel":"031-222-8420","addr":"경기도 화성시 봉담읍 와우리 213-69번지","category":"의류 - 정장"}]},{"lat":"37.220602557","long":"126.97447798","items":[{"name":"S노래연습장","tel":"031-221-6084","addr":"경기도 화성시 봉담읍 와우리 153번지 2층 1호","category":"레저업소 - 노 래 방"},{"name":"기전사","tel":"031-223-9467","addr":"경기도 화성시 봉담읍 와우리 153번지 1층 1호","category":"전기제품 - 기타전기제품"},{"name":"생태랑동태랑","tel":"031-223-1754","addr":"경기도 화성시 봉담읍 와우리 153번지 1층 5호","category":"일반휴게음식 - 일반한식"},{"name":"전주25시 감자탕","tel":"","addr":"경기도 화성시 봉담읍 와우리 153번지 1층 4호","category":"일반휴게음식 - 일반한식"},{"name":"청정수산","tel":"031-221-1144","addr":"경기도 화성시 봉담읍 와우리 153번지 1층 2호","category":"일반휴게음식 - 일식·회집"},{"name":"햇살담은백반","tel":"031-224-2651","addr":"경기도 화성시 봉담읍 와우리 153번지 1층 3호","category":"일반휴게음식 - 일반한식"}]},{"lat":"37.220413238","long":"126.97406118","items":[{"name":"가나산업개발(주)","tel":"031-224-7702","addr":"경기도 화성시 봉담읍 와우리 152-11번지 A동","category":"용역 서비스 - 기타용역서비스"},{"name":"봉담점현대자동차","tel":"031-898-8204","addr":"경기도 화성시 봉담읍 와우리 152-11번지","category":"자동차정비 유지 - 자동차정비"},{"name":"크린손세차장","tel":"031-221-2113","addr":"경기도 화성시 봉담읍 와우리 152-11번지","category":"자동차정비 유지 - 세차장"}]},{"lat":"37.213961803","long":"126.9740073","items":[{"name":"가마로강정","tel":"031-236-7292","addr":"경기도 화성시 봉담읍 와우리 26-12번지","category":"일반휴게음식 - 일반한식"},{"name":"게임창고PC방2호점","tel":"070-4641-6352","addr":"경기도 화성시 봉담읍 와우리 26-12번지 태천빌딩 307,308,309호","category":"레저업소 - 기타레져업소"},{"name":"대치학원","tel":"031-221-1819","addr":"경기도 화성시 봉담읍 와우리 26-12번지 (태천센터빌딩411호,412호,와우리26-12외3필지)","category":"회원제형태 - 학원"},{"name":"돈비가","tel":"031-221-9983","addr":"경기도 화성시 봉담읍 와우리 26-12번지 115호 114호,115호","category":"일반휴게음식 - 일반한식"},{"name":"레드 엑서사이즈","tel":"031-238-9331","addr":"경기도 화성시 봉담읍 와우리 26-12번지 태천센터빌딩 507호","category":"회원제형태 - 레져업소"},{"name":"미소약국","tel":"031-238-5940","addr":"경기도 화성시 봉담읍 와우리 26-12번지 26-24,27-4,31 태천프라자 제지층 109호","category":"약국 - 약국"},{"name":"바보스수원대점","tel":"031-232-5989","addr":"경기도 화성시 봉담읍 와우리 26-12번지 1층 107호 108호","category":"일반휴게음식 - 스넥"},{"name":"봄약국","tel":"031-222-5624","addr":"경기도 화성시 봉담읍 와우리 26-12번지 태천프라자 202-2호","category":"약국 - 약국"},{"name":"봉담맑은이비인후과의원","tel":"031-221-5060","addr":"경기도 화성시 봉담읍 와우리 26-12번지 B110~B112호","category":"의원 - 의원"},{"name":"솔앤솔미술학원","tel":"031-222-0860","addr":"경기도 화성시 봉담읍 와우리 26-12번지 태천빌딩 413호","category":"학원 - 예·체능계학원"},{"name":"쌤과통하는학원","tel":"031-225-4518","addr":"경기도 화성시 봉담읍 와우리 26-12번지 2층 205,210호","category":"학원 - 보습학원"},{"name":"쌤통학원","tel":"031-225-4518","addr":"경기도 화성시 봉담읍 와우리 26-12번지 태천빌딩 205호","category":"학원 - 보습학원"},{"name":"쏭네일","tel":"","addr":"경기도 화성시 봉담읍 와우리 26-12번지 태천센타 2층 203호","category":"보건위생 - 피부미용실"},{"name":"올가드림뷰티(봉담점)","tel":"031-222-7855","addr":"경기도 화성시 봉담읍 와우리 26-12번지 태천센타 215호","category":"보건위생 - 화장품"},{"name":"와우맘소아청소년과의원","tel":"031-222-8210","addr":"경기도 화성시 봉담읍 와우리 26-12번지 201호,202-1호","category":"의원 - 의원"},{"name":"와우정무합기도","tel":"031-225-0780","addr":"경기도 화성시 봉담읍 와우리 26-12번지 태천빌딩 310,311호","category":"학원 - 예·체능계학원"},{"name":"요거프레소","tel":"031-234-9304","addr":"경기도 화성시 봉담읍 와우리 26-12번지 104 태천상가지하1층","category":"일반휴게음식 - 서양음식"},{"name":"자연약국","tel":"02-932-8321","addr":"경기도 화성시 봉담읍 와우리 26-12번지 태천센타 1층 107호","category":"약국 - 약국"},{"name":"조타샘학원","tel":"031-234-1246","addr":"경기도 화성시 봉담읍 와우리 26-12번지 태천프라자 410호","category":"학원 - 보습학원"},{"name":"주노피어음악학원","tel":"031-222-0536","addr":"경기도 화성시 봉담읍 와우리 26-12번지 태천센터빌딩 208호","category":"학원 - 예·체능계학원"},{"name":"주식회사에스투트레이드","tel":"031-293-0015","addr":"경기도 화성시 봉담읍 와우리 26-12번지 태천센타 811호","category":"레져용품 - 스포츠·레져용품"},{"name":"준내과의원","tel":"031-548-2293","addr":"경기도 화성시 봉담읍 와우리 26-12번지","category":"의원 - 의원"},{"name":"창언어논술학원","tel":"031-221-9303","addr":"경기도 화성시 봉담읍 와우리 26-12번지 태천빌딩 206호","category":"학원 - 기타 교육기관"},{"name":"최고당 수원대","tel":"031-222-9403","addr":"경기도 화성시 봉담읍 와우리 26-12번지 B105, B106호","category":"일반휴게음식 - 일반한식"},{"name":"카이랩","tel":"070-7799-2750","addr":"경기도 화성시 봉담읍 와우리 26-12번지 태천오피스텔 609호","category":"서적문구 - 과학기자재"},{"name":"탑클래스학원","tel":"031-222-0155","addr":"경기도 화성시 봉담읍 와우리 26-12번지 414,415호","category":"학원 - 보습학원"},{"name":"태천사우나","tel":"031-224-1974","addr":"경기도 화성시 봉담읍 와우리 26-12번지 태천센터빌딩 116,117,118호","category":"보건위생 - 사우나"},{"name":"토마토당구장","tel":"02-1111-1111","addr":"경기도 화성시 봉담읍 와우리 26-12번지 태천빌딩 3층 305,306호","category":"레저업소 - 당 구 장"},{"name":"튼튼영어마스터클럽수원대점학원","tel":"031-236-0509","addr":"경기도 화성시 봉담읍 와우리 26-12번지 태천프라자 404호","category":"회원제형태 - 학원"},{"name":"팀맥스와우캠퍼스","tel":"031-225-6911","addr":"경기도 화성시 봉담읍 와우리 26-12번지 태천센타 407호","category":"학원 - 보습학원"},{"name":"플러스치과의원","tel":"031-221-2829","addr":"경기도 화성시 봉담읍 와우리 26-12번지 태천프라자 3층","category":"의원 - 치과의원"},{"name":"피크바이짐 화성봉담점","tel":"031-233-9996","addr":"경기도 화성시 봉담읍 와우리 26-12번지 1층 110,111,112호","category":"레저업소 - 헬스클럽"},{"name":"피트니스 레드","tel":"031-238-9331","addr":"경기도 화성시 봉담읍 와우리 26-12번지 태천빌딩 504,505,506호","category":"회원제형태 - 레져업소"},{"name":"하늘검도관","tel":"031-224-1116","addr":"경기도 화성시 봉담읍 와우리 26-12번지 태천빌딩 409호","category":"학원 - 예·체능계학원"},{"name":"하늘검도관2","tel":"031-222-1116","addr":"경기도 화성시 봉담읍 와우리 26-12번지 태천빌딩 408호","category":"학원 - 예·체능계학원"},{"name":"해밀학원","tel":"031-224-3454","addr":"경기도 화성시 봉담읍 와우리 26-12번지 태천센터 5층 513, 514호","category":"학원 - 보습학원"},{"name":"해오름한의원","tel":"031-234-1175","addr":"경기도 화성시 봉담읍 와우리 26-12번지 (태천센터빌딩 301호, 와우리26-12외3필지)","category":"의원 - 한의원"},{"name":"헤어트랜드","tel":"031-232-8488","addr":"경기도 화성시 봉담읍 와우리 26-12번지 태천센타 117호","category":"보건위생 - 미용원"},{"name":"휴앤샵","tel":"070-8970-4011","addr":"경기도 화성시 봉담읍 와우리 26-12번지 태천센타 206호","category":"보건위생 - 화장품"}]},{"lat":"37.215025623","long":"126.97656431","items":[{"name":"가마솥화성통닭","tel":"031-267-1993","addr":"경기도 화성시 봉담읍 와우리 69-1번지 2층","category":"일반휴게음식 - 스넥"},{"name":"방가방가","tel":"031-000-0000","addr":"경기도 화성시 봉담읍 와우리 69-1번지","category":"레저업소 - 노 래 방"},{"name":"칼리토(Calito's)","tel":"031-222-1944","addr":"경기도 화성시 봉담읍 와우리 69-1번지 101호","category":"일반휴게음식 - 일반한식"}]},{"lat":"37.215413064","long":"126.97654164","items":[{"name":"가빈","tel":"031-898-8468","addr":"경기도 화성시 봉담읍 와우리 72-3번지","category":"레저업소 - 노 래 방"},{"name":"맥스당구클럽","tel":"070-4067-7936","addr":"경기도 화성시 봉담읍 와우리 72-3번지 시라빌딩 2층 2호","category":"레저업소 - 당 구 장"},{"name":"보용만두","tel":"031-222-7538","addr":"경기도 화성시 봉담읍 와우리 72-3번지 시라빌딩 1층 1호","category":"일반휴게음식 - 스넥"},{"name":"올맨클럽","tel":"031-222-6942","addr":"경기도 화성시 봉담읍 와우리 72-3 시라빌딩3","category":"보건위생 - 미용원"},{"name":"와플로","tel":"031-222-0802","addr":"경기도 화성시 봉담읍 와우리 72-3번지 시라빌딩 1층 4호","category":"일반휴게음식 - 일반한식"},{"name":"킹노래방","tel":"","addr":"경기도 화성시 봉담읍 와우리 72-3번지 시라빌딩 301호","category":"레저업소 - 노 래 방"},{"name":"풀잎문화센터 봉담지부","tel":"031-898-5579","addr":"경기도 화성시 봉담읍 와우리 72-3번지 시라빌딩 지하 101호","category":"문화.취미 - 문화취미기타"},{"name":"한판승부","tel":"031-235-9492","addr":"경기도 화성시 봉담읍 와우리 72-3번지 시라빌딩 201호","category":"일반휴게음식 - 일반한식"},{"name":"힐링버거","tel":"031-222-8559","addr":"경기도 화성시 봉담읍 와우리 72-3번지","category":"일반휴게음식 - 스넥"}]},{"lat":"37.214106578","long":"126.97662095","items":[{"name":"가장 맛있는 족발","tel":"031-222-7877","addr":"경기도 화성시 봉담읍 와우리 38-1번지","category":"일반휴게음식 - 일반한식"},{"name":"마포갈매기 시즌2 와우리점","tel":"031-226-6092","addr":"경기도 화성시 봉담읍 와우리 38-1번지","category":"일반휴게음식 - 일반한식"},{"name":"역전할머니맥주 수원대점","tel":"","addr":"경기도 화성시 봉담읍 와우리 38-1번지 103,104호","category":"일반휴게음식 - 주점"},{"name":"피씨스토리(PC STORY)","tel":"070-8614-0626","addr":"경기도 화성시 봉담읍 와우리 38-1번지 2층","category":"레저업소 - 기타레져업소"}]},{"lat":"37.206411412","long":"126.97528311","items":[{"name":"가화 networks","tel":"031-396-1605","addr":"경기도 화성시 봉담읍 와우리 1-2번지 수원대학교 910호 911호 912호 (첨단과학연구센터 11 ,0번지","category":"건강식품 - 기타건강식품"},{"name":"씨에이엔티","tel":"031-225-7472","addr":"경기도 화성시 봉담읍 와우리 1-2번지 수원대학교 9층 904호","category":"서적문구 - 과학기자재"},{"name":"에이아이전자","tel":"070-4090-3845","addr":"경기도 화성시 봉담읍 와우리 1-2번지 수원대학교 1002호 수원대학교KITI","category":"전기제품 - 기타전기제품"},{"name":"여류도예가협회본부","tel":"031-220-2286","addr":"경기도 화성시 봉담읍 와우리 1-2번지 수원대학교 미술대학 315호","category":"신변잡화 - 액세서리"},{"name":"주식회사 아이앤비코퍼레이션","tel":"070-7501-7321","addr":"경기도 화성시 봉담읍 와우리 1-2번지 수원대학교 KITI 1016동 1019호","category":"전기제품 - 기타전기제품"},{"name":"주식회사 일루미네이터","tel":"031-234-8820","addr":"경기도 화성시 봉담읍 와우리 1-2번지 수원대학교고운첨단과학기술연구원 1015호","category":"기타 - 기계공구"},{"name":"티엠에스","tel":"031-222-3159","addr":"경기도 화성시 봉담읍 와우리 1-2번지 수원대학교 첨단과학기술원 1014호","category":"전기제품 - 기타전기제품"}]},{"lat":"37.212528249","long":"126.9705042","items":[{"name":"갑천하한중번역","tel":"","addr":"경기도 화성시 봉담읍 와우리 590번지 봉담아이파크 107동 901호","category":"용역 서비스 - 사무서비스"},{"name":"다인시스템","tel":"031-293-3173","addr":"경기도 화성시 봉담읍 와우리 590번지 봉담아이파크 107동 304호","category":"회원제형태 - 기타4"},{"name":"최수아아동발달4센터","tel":"","addr":"경기도 화성시 봉담읍 와우리 590번지 봉담아이파크 107동 102호","category":"보건위생 - 기타대인서비스"}]},{"lat":"37.221107315","long":"126.97523268","items":[{"name":"개미자원중고가전제품센터","tel":"031-225-4984","addr":"경기도 화성시 봉담읍 와우리 128-6번지 145동 10호","category":"전기제품 - 가전제품"}]},{"lat":"37.220521864","long":"126.97620185","items":[{"name":"개미자원중고가전제품센터","tel":"031-293-4984","addr":"경기도 화성시 봉담읍 와우리 130-12번지","category":"신변잡화 - 기타잡화"}]},{"lat":"37.21452046","long":"126.97406342","items":[{"name":"거흥농수산(해피소닉)","tel":"031-234-8382","addr":"경기도 화성시 봉담읍 와우리 240번지 해오름마을봉담그대가2단지 116호","category":"보건위생 - 화장품"},{"name":"골목상회","tel":"031-225-8983","addr":"경기도 화성시 봉담읍 와우리 240번지 해오름마을봉담그대가2단지 상가동 1층 115호","category":"일반휴게음식 - 스넥"},{"name":"마가나무","tel":"070-8631-2314","addr":"경기도 화성시 봉담읍 와우리 240번지 해오름마을봉담그대가2단지 1층 116호","category":"의류 - 정장"},{"name":"명헤어크리닉","tel":"031-223-4922","addr":"경기도 화성시 봉담읍 와우리 240번지 해오름마을봉담그대가2단지아파트 1층 117호","category":"보건위생 - 미용원"},{"name":"민헤어","tel":"031-226-5788","addr":"경기도 화성시 봉담읍 와우리 240번지 해오름마을봉담그대가2단지 108호","category":"보건위생 - 미용원"},{"name":"안심축산물전문점","tel":"031-222-3813","addr":"경기도 화성시 봉담읍 와우리 240번지 해오름마을봉담그대가2단지 107호","category":"음료식품 - 정육점"},{"name":"주식회사 현인물류","tel":"031-221-7755","addr":"경기도 화성시 봉담읍 와우리 240번지 해오름마을봉담그대가2단지아파트 1층","category":"유통업 영리 - 슈퍼마켓"},{"name":"쭈치킨","tel":"031-898-7772","addr":"경기도 화성시 봉담읍 와우리 240번지 해오름마을봉담그대가2단지 104호","category":"일반휴게음식 - 스넥"},{"name":"쿡1015봉담와우점","tel":"031-236-1015","addr":"경기도 화성시 봉담읍 와우리 240번지 해오름마을봉담그대가2단지 1층 102호","category":"음료식품 - 기타음료식품"},{"name":"황금떡시루","tel":"031-223-3482","addr":"경기도 화성시 봉담읍 와우리 240번지 해오름마을봉담그대가2단지 103호","category":"음료식품 - 제과점"}]},{"lat":"37.2140776","long":"126.96896009","items":[{"name":"건강한정육점","tel":"031-111-1111","addr":"경기도 화성시 봉담읍 와우리 221-75번지 B동 114호","category":"음료식품 - 정육점"},{"name":"뉴욕파머스학원","tel":"","addr":"경기도 화성시 봉담읍 와우리 221-75번지 도원프라자 3층 306호","category":"학원 - 보습학원"},{"name":"로얄바디 카페","tel":"031-293-0644","addr":"경기도 화성시 봉담읍 와우리 221-75번지 도원프라자 B동 5층 508호","category":"일반휴게음식 - 서양음식"},{"name":"로얄바디 피트니스","tel":"031-2084-0644","addr":"경기도 화성시 봉담읍 와우리 221-75번지 도원프라자 5층 508호","category":"레저업소 - 헬스클럽"},{"name":"로얄바디 피트니스","tel":"","addr":"경기도 화성시 봉담읍 와우리 221-75번지 외 6필지 도원프라자 506호","category":"레져용품 - 스포츠·레져용품"},{"name":"모노뷰티아카데미","tel":"031-223-6079","addr":"경기도 화성시 봉담읍 와우리 221-75번지 도원프라자 405호","category":"보건위생 - 피부미용실"},{"name":"봉담삼육오웰의원","tel":"031-224-3655","addr":"경기도 화성시 봉담읍 와우리 221-75번지 도원프라자 A동 3층 301,302호","category":"의원 - 의원"},{"name":"블럭키즈","tel":"031-8001-2552","addr":"경기도 화성시 봉담읍 와우리 221-75번지 4층 409호","category":"서적문구 - 완구점"},{"name":"아이디어안경","tel":"031-309-0642","addr":"경기도 화성시 봉담읍 와우리 221-75번지 105,106호","category":"보건위생 - 안경"},{"name":"어린음악대어린화가들효행원 음악미술학원","tel":"031-222-5884","addr":"경기도 화성시 봉담읍 와우리 221-75번지 503-4호","category":"학원 - 예·체능계학원"},{"name":"웰봄비에프","tel":"031-278-8833","addr":"경기도 화성시 봉담읍 와우리 221-75번지 도원프라자 4층 401~403호","category":"건강식품 - 기타건강식품"},{"name":"웰봄비에프소아청소년과의원","tel":"031-278-8833","addr":"경기도 화성시 봉담읍 와우리 221-75번지 401,402호","category":"의원 - 의원"},{"name":"자연예찬","tel":"031-221-9562","addr":"경기도 화성시 봉담읍 와우리 221-75번지 1층 107호","category":"음료식품 - 기타음료식품"},{"name":"지니스토리영어학원","tel":"031-233-1618","addr":"경기도 화성시 봉담읍 와우리 221-75번지 도원프라자 4층 403호","category":"학원 - 외국어학원"},{"name":"투썸플레이스 화성와우리점","tel":"","addr":"경기도 화성시 봉담읍 와우리 221-75번지 도원프라자 1동 1층 123호","category":"일반휴게음식 - 서양음식"},{"name":"필라테스주스튜디오","tel":"","addr":"경기도 화성시 봉담읍 와우리 221-75번지 3층 305호","category":"레저업소 - 헬스클럽"},{"name":"하나약국","tel":"031-225-2570","addr":"경기도 화성시 봉담읍 와우리 221-75번지 1층 108,109호","category":"약국 - 약국"},{"name":"한솔러닝센터학원","tel":"031-222-3999","addr":"경기도 화성시 봉담읍 와우리 221-75번지 도원프라자 3층 307호","category":"학원 - 보습학원"}]},{"lat":"37.214718463","long":"126.97315079","items":[{"name":"건동하우징","tel":"","addr":"경기도 화성시 봉담읍 와우리 26-6번지 스마트오피스텔 4층 422호","category":"건축자재 - 인테리어전문"},{"name":"나이스가이 봉담점","tel":"031-223-2320","addr":"경기도 화성시 봉담읍 와우리 26-6번지 스마트오피스텔상가 지하1층 107호","category":"보건위생 - 미용원"},{"name":"로충칭마라탕","tel":"031-239-8088","addr":"경기도 화성시 봉담읍 와우리 26-6번지 스마트오피스텔 1층 101호","category":"일반휴게음식 - 중국식"},{"name":"미쁘다헤어","tel":"031-222-9006","addr":"경기도 화성시 봉담읍 와우리 26-6번지 B104호","category":"보건위생 - 미용원"},{"name":"황골","tel":"031-224-6993","addr":"경기도 화성시 봉담읍 와우리 26-6번지 B102호","category":"일반휴게음식 - 스넥"}]},{"lat":"37.214188211","long":"126.97917831","items":[{"name":"게임창고PC방","tel":"070-4641-6352","addr":"경기도 화성시 봉담읍 와우리 43-10번지 2층","category":"레저업소 - 기타레져업소"},{"name":"잇츠커피(수원대점)","tel":"02-000-0000","addr":"경기도 화성시 봉담읍 와우리 43-10번지","category":"일반휴게음식 - 서양음식"}]},{"lat":"37.216295598","long":"126.97445706","items":[{"name":"겨자씨 스킨케어","tel":"031-222-9399","addr":"경기도 화성시 봉담읍 와우리 210-26 수성효성A상가동 204","category":"회원제형태 - 기타4"},{"name":"명가푸드","tel":"031-223-1611","addr":"경기도 화성시 봉담읍 와우리 210-26번지 수성효성아파트 상가동 102호","category":"일반휴게음식 - 일반한식"}]},{"lat":"37.218989623","long":"126.97415185","items":[{"name":"경기도배터리총판","tel":"031-225-8886","addr":"경기도 화성시 봉담읍 와우리 177-4번지 성호빌딩 1층 104호","category":"자동차정비 유지 - 자동차부품"},{"name":"곤지암한우소머리국밥","tel":"031-236-0804","addr":"경기도 화성시 봉담읍 와우리 177-4번지 상호빌딩 101호","category":"일반휴게음식 - 일반한식"},{"name":"박경희갤러리","tel":"031-254-7893","addr":"경기도 화성시 봉담읍 와우리 177-4번지","category":"건축자재 - 인테리어전문"},{"name":"소백산희귀약초","tel":"031-265-2035","addr":"경기도 화성시 봉담읍 와우리 177-4번지","category":"약국 - 한약방"},{"name":"송이헤어","tel":"031-225-3832","addr":"경기도 화성시 봉담읍 와우리 177-4번지 제1호외1필지 가동 102호","category":"보건위생 - 미용원"},{"name":"한국키즈태권도","tel":"031-226-7867","addr":"경기도 화성시 봉담읍 와우리 177-4번지 2층 201호","category":"학원 - 예·체능계학원"}]},{"lat":"37.214827793","long":"126.97842328","items":[{"name":"경성술집 수원대점","tel":"031-1111-1111","addr":"경기도 화성시 봉담읍 와우리 45-13번지 102호","category":"일반휴게음식 - 일반한식"},{"name":"맥스피드PC방","tel":"070-5020-5323","addr":"경기도 화성시 봉담읍 와우리 45-13번지 5동 2층","category":"레저업소 - 기타레져업소"},{"name":"젤라떼","tel":"031-222-4243","addr":"경기도 화성시 봉담읍 와우리 45-13번지","category":"일반휴게음식 - 주점"},{"name":"진고기집","tel":"031-221-6067","addr":"경기도 화성시 봉담읍 와우리 45-13번지 26-5","category":"일반휴게음식 - 일반한식"}]},{"lat":"37.215368007","long":"126.97651912","items":[{"name":"고기로345","tel":"031-222-8232","addr":"경기도 화성시 봉담읍 와우리 69-1번지 B동 2층","category":"일반휴게음식 - 일반한식"},{"name":"스토리피씨랩 수원대점","tel":"070-4076-7020","addr":"경기도 화성시 봉담읍 와우리 69-1번지 B동 3층","category":"레저업소 - 기타레져업소"},{"name":"진쿵푸 마라탕","tel":"031-233-1132","addr":"경기도 화성시 봉담읍 와우리 69-1번지 B동 2층","category":"일반휴게음식 - 일반한식"},{"name":"헤어칸","tel":"","addr":"경기도 화성시 봉담읍 와우리 69-1번지 B동 2층 2호","category":"보건위생 - 미용원"}]},{"lat":"37.218990385","long":"126.9774868","items":[{"name":"고래광고","tel":"031-222-1188","addr":"경기도 화성시 봉담읍 와우리 110번지","category":"건축자재 - 인테리어전문"},{"name":"카플러스","tel":"031-221-5153","addr":"경기도 화성시 봉담읍 와우리 110번지 1층","category":"자동차정비 유지 - 자동차부품"}]},{"lat":"37.215187963","long":"126.97726275","items":[{"name":"고래노래연습장","tel":"031-267-0580","addr":"경기도 화성시 봉담읍 와우리 59-1번지 2층 3층","category":"레저업소 - 노 래 방"},{"name":"와우리순대","tel":"031-225-1532","addr":"경기도 화성시 봉담읍 와우리 59-1","category":"일반휴게음식 - 일반한식"}]},{"lat":"37.216268756","long":"126.97525698","items":[{"name":"고래당구장","tel":"","addr":"경기도 화성시 봉담읍 와우리 79-5번지 3층","category":"레저업소 - 당 구 장"},{"name":"와우트레이닝","tel":"","addr":"경기도 화성시 봉담읍 와우리 79-5번지","category":"레저업소 - 헬스클럽"},{"name":"진헤어 (Jin HAIR)","tel":"031-111-1111","addr":"경기도 화성시 봉담읍 와우리 79-5번지 101호","category":"보건위생 - 미용원"},{"name":"참치이야기","tel":"031-267-0808","addr":"경기도 화성시 봉담읍 와우리 79-5번지 1층 104호","category":"일반휴게음식 - 일식·회집"}]},{"lat":"37.222017164","long":"126.97439858","items":[{"name":"고려동물병원","tel":"031-225-0275","addr":"경기도 화성시 봉담읍 와우리 148-2","category":"기타의료기관 - 동물병원"},{"name":"만금성","tel":"031-267-0047","addr":"경기도 화성시 봉담읍 와우리 148-2번지","category":"일반휴게음식 - 중국식"},{"name":"피자스쿨기안점","tel":"031-235-8980","addr":"경기도 화성시 봉담읍 와우리 148-2번지 1층","category":"일반휴게음식 - 서양음식"}]},{"lat":"37.216133812","long":"126.97618087","items":[{"name":"골드샤인","tel":"031-222-3745","addr":"경기도 화성시 봉담읍 와우리 76-10","category":"신변잡화 - 귀금속"},{"name":"구제나라","tel":"031-224-6785","addr":"경기도 화성시 봉담읍 와우리 76-10번지","category":"의류 - 정장"},{"name":"다온인테리어","tel":"","addr":"경기도 화성시 봉담읍 와우리 76-10번지 2층","category":"건축자재 - 인테리어전문"},{"name":"밀플레르","tel":"031-233-4247","addr":"경기도 화성시 봉담읍 와우리 76-10","category":"문화.취미 - 화원"},{"name":"세종의원","tel":"031-222-3061","addr":"경기도 화성시 봉담읍 와우리 76-10번지","category":"의원 - 의원"},{"name":"쉬즈스토리","tel":"031-225-2935","addr":"경기도 화성시 봉담읍 와우리 76-10번지","category":"의류 - 정장"}]},{"lat":"37.21410613","long":"126.97467194","items":[{"name":"공간인테리어","tel":"031-298-5830","addr":"경기도 화성시 봉담읍 와우리 31-13번지 104호","category":"건축자재 - 인테리어전문"},{"name":"돈치킨","tel":"031-221-1315","addr":"경기도 화성시 봉담읍 와우리 31-13번지","category":"일반휴게음식 - 서양음식"},{"name":"마카롱 타임","tel":"031-000-0000","addr":"경기도 화성시 봉담읍 와우리 31-13번지 1층 102호","category":"음료식품 - 기타음료식품"},{"name":"와우(WOW)프린터","tel":"031-233-4953","addr":"경기도 화성시 봉담읍 와우리 31-13번지 삼성빌라 103호","category":"사무통신 - 컴퓨터"}]},{"lat":"37.213881554","long":"126.97770256","items":[{"name":"공주님이야기","tel":"031-237-1787","addr":"경기도 화성시 봉담읍 와우리 41-5번지 2층","category":"신변잡화 - 액세서리"},{"name":"리안헤어(수원대점)","tel":"031-236-2022","addr":"경기도 화성시 봉담읍 와우리 41-5번지 2층","category":"보건위생 - 미용원"},{"name":"명불허전 원조골뱅이","tel":"032-0000-0000","addr":"경기도 화성시 봉담읍 와우리 41-5번지 102호","category":"일반휴게음식 - 일반한식"},{"name":"밀플랜비","tel":"","addr":"경기도 화성시 봉담읍 와우리 41-5번지 103호","category":"일반휴게음식 - 서양음식"},{"name":"빽다방 화성수원대점","tel":"031-224-2238","addr":"경기도 화성시 봉담읍 와우리 41-5번지 1층 101호","category":"일반휴게음식 - 서양음식"}]},{"lat":"37.21346642","long":"126.97478484","items":[{"name":"국수나무화성와우점","tel":"031-225-6224","addr":"경기도 화성시 봉담읍 와우리 34-6번지 1층 106호","category":"일반휴게음식 - 일반한식"},{"name":"버거킹 화성봉담점/(주)비케이알 버거킹 화","tel":"070-7462-6818","addr":"경기도 화성시 봉담읍 와우리 34-6번지 토마토오피스텔4 101호,102호","category":"일반휴게음식 - 서양음식"},{"name":"크로스오버 봉담 수원대점","tel":"111-111-1111","addr":"경기도 화성시 봉담읍 와우리 34-6번지 1층 105호","category":"의류 - 정장"}]},{"lat":"37.216466073","long":"126.97159535","items":[{"name":"그램그램 와우점","tel":"031-223-7830","addr":"경기도 화성시 봉담읍 와우리 213-43번지 운봉빌딩","category":"일반휴게음식 - 일반한식"}]},{"lat":"37.216521046","long":"126.97525689","items":[{"name":"그린노래연습장","tel":"031-223-1268","addr":"경기도 화성시 봉담읍 와우리 82-1번지 지하1층","category":"레저업소 - 노 래 방"},{"name":"브이알엠피코리아","tel":"031-1899-9399","addr":"경기도 화성시 봉담읍 와우리 82-1번지 1층 1호","category":"레저업소 - 기타레져업소"},{"name":"씨유화성효성점","tel":"031-224-5008","addr":"경기도 화성시 봉담읍 와우리 82-1","category":"유통업 영리 - 편 의 점"},{"name":"안경세상","tel":"031-297-2972","addr":"경기도 화성시 봉담읍 와우리 82-1번지 103호","category":"보건위생 - 안경"},{"name":"영광당구장","tel":"031-236-1380","addr":"경기도 화성시 봉담읍 와우리 82-1번지 2층","category":"레저업소 - 당 구 장"},{"name":"와우호프","tel":"","addr":"경기도 화성시 봉담읍 와우리 82-1번지 1층","category":"일반휴게음식 - 주점"},{"name":"타이마이더스","tel":"031-233-9949","addr":"경기도 화성시 봉담읍 와우리 82-1번지","category":"신변잡화 - 기타잡화"}]},{"lat":"37.21469241","long":"126.97734178","items":[{"name":"그린트리","tel":"","addr":"경기도 화성시 봉담읍 와우리 63-1번지","category":"가구 - 기타가구"},{"name":"비바노래연습장","tel":"031-226-3913","addr":"경기도 화성시 봉담읍 와우리 63-1번지","category":"레저업소 - 노 래 방"},{"name":"비비올라","tel":"031-230-0057","addr":"경기도 화성시 봉담읍 와우리 63-1번지","category":"일반휴게음식 - 스넥"},{"name":"오늘(o.neul)","tel":"","addr":"경기도 화성시 봉담읍 와우리 63-1번지 2동 2층 201호","category":"일반휴게음식 - 서양음식"},{"name":"제주도그릴 화성점","tel":"031-223-1641","addr":"경기도 화성시 봉담읍 와우리 63-1번지 101호","category":"일반휴게음식 - 일반한식"},{"name":"토리고야 수원대점","tel":"031-222-1641","addr":"경기도 화성시 봉담읍 와우리 63-1번지","category":"일반휴게음식 - 일식·회집"},{"name":"프로당구클럽","tel":"","addr":"경기도 화성시 봉담읍 와우리 63-1번지 2층","category":"레저업소 - 당 구 장"},{"name":"하오츠양꼬치","tel":"031-898-5792","addr":"경기도 화성시 봉담읍 와우리 63-1번지 2동 202호","category":"일반휴게음식 - 일반한식"}]},{"lat":"37.219296108","long":"126.97470381","items":[{"name":"그린펫클럽(Green pet club)","tel":"031-234-0975","addr":"경기도 화성시 봉담읍 와우리 157-1번지","category":"문화.취미 - 애완동물"},{"name":"도그앤켓","tel":"031-234-0975","addr":"경기도 화성시 봉담읍 와우리 157-1번지","category":"문화.취미 - 애완동물"}]},{"lat":"37.217350293","long":"126.97654097","items":[{"name":"그림별미술학원","tel":"031-224-4641","addr":"경기도 화성시 봉담읍 와우리 99-2번지 1층","category":"학원 - 예·체능계학원"},{"name":"봉담꿈꾸는아이들어린이집[아이행복]","tel":"031-222-2255","addr":"경기도 화성시 봉담읍 와우리 99-2번지","category":"학원 - 유아원"},{"name":"용인대현대체육관","tel":"031-225-0115","addr":"경기도 화성시 봉담읍 와우리 99-2번지 외2필지","category":"학원 - 예·체능계학원"}]},{"lat":"37.216296017","long":"126.97625967","items":[{"name":"글로리 타바코","tel":"","addr":"경기도 화성시 봉담읍 와우리 84-3번지 1층 102호","category":"음료식품 - 기타음료식품"},{"name":"쉬크헤어","tel":"031-225-6328","addr":"경기도 화성시 봉담읍 와우리 84-3번지 1동 1층 103호","category":"보건위생 - 미용원"},{"name":"와우마카롱","tel":"","addr":"경기도 화성시 봉담읍 와우리 84-3번지 101호","category":"음료식품 - 기타음료식품"}]},{"lat":"37.212880319","long":"126.97303885","items":[{"name":"금강인테리어","tel":"031-236-8557","addr":"경기도 화성시 봉담읍 와우리 20번지","category":"건축자재 - 인테리어전문"},{"name":"신명세탁","tel":"031-226-6799","addr":"경기도 화성시 봉담읍 와우리 20 신명상가2층 201","category":"수리서비스 - 세탁소"}]},{"lat":"37.217548039","long":"126.97445659","items":[{"name":"금성와우전자","tel":"031-222-8715","addr":"경기도 화성시 봉담읍 와우리 188-3번지","category":"전기제품 - 가전제품"},{"name":"와우리농자재마트","tel":"031-230-1008","addr":"경기도 화성시 봉담읍 와우리 188-3번지","category":"농업 - 농기계"}]},{"lat":"37.220080174","long":"126.97540206","items":[{"name":"기와집보신탕","tel":"031-223-2835","addr":"경기도 화성시 봉담읍 와우리 156-22번지 1,2호","category":"일반휴게음식 - 일반한식"},{"name":"꽃담남원추어탕","tel":"031-221-8545","addr":"경기도 화성시 봉담읍 와우리 156-22번지","category":"일반휴게음식 - 일반한식"},{"name":"시루향기 봉담와우점","tel":"031-224-3446","addr":"경기도 화성시 봉담읍 와우리 156-22번지 1층","category":"일반휴게음식 - 일반한식"}]},{"lat":"37.213962044","long":"126.97500997","items":[{"name":"김밥천국","tel":"031-233-1288","addr":"경기도 화성시 봉담읍 와우리 31-4번지 토마토오피스텔상가 B104호","category":"일반휴게음식 - 일반한식"},{"name":"까페띠아모 수원대점","tel":"031-224-3579","addr":"경기도 화성시 봉담읍 와우리 31-4번지 토마토오피스텔1상가 B105호","category":"일반휴게음식 - 서양음식"},{"name":"밝은안경 수원대점","tel":"031-224-0666","addr":"경기도 화성시 봉담읍 와우리 31-4번지 B06,B07호","category":"보건위생 - 안경"},{"name":"아리따움 수원대점","tel":"031-233-1500","addr":"경기도 화성시 봉담읍 와우리 31-4번지 토마토오피스텔 103호","category":"보건위생 - 화장품"},{"name":"파리바게뜨화성와우","tel":"031-222-8243","addr":"경기도 화성시 봉담읍 와우리 31-4번지 (토마토오피스텔상가.B101호B동102호)","category":"음료식품 - 제과점"}]},{"lat":"37.217241719","long":"126.97459191","items":[{"name":"김싸롱","tel":"031-222-8969","addr":"경기도 화성시 봉담읍 와우리 196-2번지 1층","category":"보건위생 - 미용원"},{"name":"김싸롱 스토리 모두","tel":"031-222-8969","addr":"경기도 화성시 봉담읍 와우리 196-2번지","category":"의류 - 정장"},{"name":"에스오엘 (SOL)149","tel":"031-223-4596","addr":"경기도 화성시 봉담읍 와우리 196-2번지 3호","category":"의류 - 정장"}]},{"lat":"37.213719082","long":"126.97639577","items":[{"name":"꼬꼬아찌 숯불치킨","tel":"051-0000-0000","addr":"경기도 화성시 봉담읍 와우리 38-9번지 101,102호","category":"일반휴게음식 - 스넥"}]},{"lat":"37.216683298","long":"126.97553849","items":[{"name":"꼴통이네 밥집","tel":"02-1111-1111","addr":"경기도 화성시 봉담읍 와우리 83-1번지","category":"일반휴게음식 - 일반한식"},{"name":"매운언니","tel":"031-224-8279","addr":"경기도 화성시 봉담읍 와우리 83-1번지","category":"일반휴게음식 - 일반한식"},{"name":"보석나라","tel":"031-224-3194","addr":"경기도 화성시 봉담읍 와우리 83-1번지 우측끝상가 1층","category":"신변잡화 - 귀금속"},{"name":"와탑학원","tel":"031-546-8253","addr":"경기도 화성시 봉담읍 와우리 83-1번지","category":"회원제형태 - 학원"},{"name":"컴닷컴","tel":"031-898-8297","addr":"경기도 화성시 봉담읍 와우리 83-1번지 1층","category":"사무통신 - 컴퓨터"},{"name":"필노래연습장","tel":"031-293-0408","addr":"경기도 화성시 봉담읍 와우리 83-1번지 지층","category":"레저업소 - 노 래 방"},{"name":"힐링클럽","tel":"031-226-5080","addr":"경기도 화성시 봉담읍 와우리 83-1번지 2층 좌측상가","category":"보건위생 - 화장품"}]},{"lat":"37.216989495","long":"126.97487366","items":[{"name":"꼴통포차","tel":"031-233-2513","addr":"경기도 화성시 봉담읍 와우리 91-3번지 103호","category":"일반휴게음식 - 주점"},{"name":"맛있는파닭","tel":"031-221-5943","addr":"경기도 화성시 봉담읍 와우리 91-3번지 1층","category":"일반휴게음식 - 스넥"},{"name":"브라더양꼬치","tel":"031-226-9677","addr":"경기도 화성시 봉담읍 와우리 91-3번지","category":"일반휴게음식 - 일반한식"},{"name":"빙고노래연습장","tel":"","addr":"경기도 화성시 봉담읍 와우리 91-3번지 지하1층","category":"레저업소 - 노 래 방"},{"name":"선인유도관","tel":"031-221-2880","addr":"경기도 화성시 봉담읍 와우리 91-3번지 4층","category":"학원 - 예·체능계학원"},{"name":"한국수산","tel":"031-233-4865","addr":"경기도 화성시 봉담읍 와우리 91-3번지","category":"일반휴게음식 - 일식·회집"}]},{"lat":"37.215214418","long":"126.97472786","items":[{"name":"꼼지락","tel":"031-297-8609","addr":"경기도 화성시 봉담읍 와우리 239번지 해오름마을봉담그대가1단지 상가동 104호","category":"문화.취미 - 민예·공예품"},{"name":"노래담는 도자기 작업실","tel":"070-8031-4038","addr":"경기도 화성시 봉담읍 와우리 239번지 해오름마을봉담그대가1단지 103호","category":"주방용구 - 주방용식기"},{"name":"대성트로닉스(까사라피에)","tel":"031-898-9035","addr":"경기도 화성시 봉담읍 와우리 239번지 102(해오름마을봉담그대가1단지제상가동)","category":"신변잡화 - 기타잡화"},{"name":"싸이스컴(Cyccom)","tel":"","addr":"경기도 화성시 봉담읍 와우리 239번지 해오름마을봉담그대가1단지 103호","category":"사무통신 - 컴퓨터"}]},{"lat":"37.214052328","long":"126.97578729","items":[{"name":"꽃소","tel":"031-222-9078","addr":"경기도 화성시 봉담읍 와우리 31-3번지 캠퍼스타운 301호","category":"일반휴게음식 - 일반한식"},{"name":"바디블랑","tel":"070-7358-0901","addr":"경기도 화성시 봉담읍 와우리 31-3번지 캠퍼스타운 514호","category":"보건위생 - 화장품"},{"name":"비손치과의원","tel":"031-267-0828","addr":"경기도 화성시 봉담읍 와우리 31-3번지 캠퍼스타운 304호","category":"의원 - 치과의원"},{"name":"씨유화성캠퍼스점","tel":"031-898-6103","addr":"경기도 화성시 봉담읍 와우리 31-3번지 106,107호","category":"유통업 영리 - 편 의 점"},{"name":"여장군수원대점","tel":"031-222-4903","addr":"경기도 화성시 봉담읍 와우리 31-3번지 캠퍼스타운 102호","category":"일반휴게음식 - 일반한식"},{"name":"제이에스푸드","tel":"","addr":"경기도 화성시 봉담읍 와우리 31-3번지 캠퍼스타운 104호","category":"일반휴게음식 - 스넥"},{"name":"참치사랑","tel":"031-234-0808","addr":"경기도 화성시 봉담읍 와우리 31-3번지 캠퍼스타운 105호","category":"일반휴게음식 - 일식·회집"},{"name":"청년다방 수원대점","tel":"031-230-2229","addr":"경기도 화성시 봉담읍 와우리 31-3번지 캠퍼스타운 103호","category":"일반휴게음식 - 스넥"},{"name":"캠퍼스헤어","tel":"031-223-0329","addr":"경기도 화성시 봉담읍 와우리 31-3번지 캠퍼스타운 305호","category":"보건위생 - 미용원"}]},{"lat":"37.220657088","long":"126.97650601","items":[{"name":"꽃향기","tel":"031-222-8009","addr":"경기도 화성시 봉담읍 와우리 130-1번지","category":"문화.취미 - 화원"},{"name":"양평해장국","tel":"031-225-5716","addr":"경기도 화성시 봉담읍 와우리 130-1번지","category":"일반휴게음식 - 일반한식"},{"name":"우리농산","tel":"","addr":"경기도 화성시 봉담읍 와우리 130-1번지 1층","category":"음료식품 - 정육점"}]},{"lat":"37.213348435","long":"126.97140512","items":[{"name":"꿈나무영재어린이집[아이행복]","tel":"031-3011-3966","addr":"경기도 화성시 봉담읍 와우리 590번지 아이파크 103동 103호","category":"학원 - 유아원"}]},{"lat":"37.213880838","long":"126.97453683","items":[{"name":"나라의원","tel":"031-238-9234","addr":"경기도 화성시 봉담읍 와우리 31-1번지 와우리상가 201호","category":"의원 - 의원"},{"name":"남문떡볶이","tel":"031-223-1254","addr":"경기도 화성시 봉담읍 와우리 31-1번지 와우리상가 101호","category":"일반휴게음식 - 스넥"},{"name":"땅스부대찌개 봉담점","tel":"031-223-9498","addr":"경기도 화성시 봉담읍 와우리 31-1번지 와우리상가 104호","category":"음료식품 - 기타음료식품"},{"name":"로제타스톤영어G1230수학학원","tel":"031-222-0564","addr":"경기도 화성시 봉담읍 와우리 31-1번지 남수원타운 202호","category":"학원 - 보습학원"},{"name":"쉬즈아이 속눈썹","tel":"","addr":"경기도 화성시 봉담읍 와우리 31-1번지 202-2호(와우라상가)","category":"보건위생 - 피부미용실"},{"name":"예감스튜디오","tel":"031-221-4877","addr":"경기도 화성시 봉담읍 와우리 31-1번지 와우리상가 301호","category":"광학제품 - 사진관"},{"name":"와우e치과의원","tel":"031-221-4222","addr":"경기도 화성시 봉담읍 와우리 31-1번지 와우리 상가 301호","category":"의원 - 치과의원"},{"name":"해든우리약국","tel":"031-225-0948","addr":"경기도 화성시 봉담읍 와우리 31-1번지 와우리상가 103호","category":"약국 - 약국"}]},{"lat":"37.214467475","long":"126.97889657","items":[{"name":"내가찜한닭","tel":"031-223-2337","addr":"경기도 화성시 봉담읍 와우리 43-3번지 2동 1층","category":"일반휴게음식 - 일반한식"},{"name":"맘스터치(수원대점)","tel":"031-239-1009","addr":"경기도 화성시 봉담읍 와우리 43-3번지 2동 2층","category":"일반휴게음식 - 스넥"}]},{"lat":"37.213773249","long":"126.97686892","items":[{"name":"노가리&비어 (Beer)","tel":"050-5306-1472","addr":"경기도 화성시 봉담읍 와우리 38-23번지","category":"일반휴게음식 - 일반한식"},{"name":"폼프리츠","tel":"031-225-9447","addr":"경기도 화성시 봉담읍 와우리 38-23번지 1호","category":"일반휴게음식 - 일반한식"}]},{"lat":"37.217240818","long":"126.97104297","items":[{"name":"놋그릇멋스러움","tel":"031-224-6111","addr":"경기도 화성시 봉담읍 와우리 213-50번지 가동","category":"일반휴게음식 - 일반한식"}]},{"lat":"37.212968893","long":"126.96748477","items":[{"name":"뉴헨델음악학원","tel":"031-224-8440","addr":"경기도 화성시 봉담읍 와우리 597번지 봉담센트럴푸르지오 상가동 1동 101,102호","category":"학원 - 예·체능계학원"},{"name":"라보떼헤어","tel":"031-295-9903","addr":"경기도 화성시 봉담읍 와우리 597번지 봉당센트럴푸르지오 상가 2동 105호","category":"보건위생 - 미용원"},{"name":"머리빨","tel":"031-222-5671","addr":"경기도 화성시 봉담읍 와우리 597번지 봉담센트럴푸르지오 상가 1동 108호","category":"보건위생 - 미용원"},{"name":"뮤엠영어","tel":"031-267-1238","addr":"경기도 화성시 봉담읍 와우리 597번지 봉담센트럴푸르지오 107동 302호","category":"학원 - 기타 교육기관"},{"name":"미숲향기","tel":"","addr":"경기도 화성시 봉담읍 와우리 597번지 봉담센트럴푸르지오 107동 304호","category":"문화.취미 - 문화취미기타"},{"name":"바른고기","tel":"031-226-9293","addr":"경기도 화성시 봉담읍 와우리 597번지 봉담센트럴푸르지오 상가 2동 106호","category":"음료식품 - 정육점"},{"name":"봉담푸르지오 해법영어교실","tel":"","addr":"경기도 화성시 봉담읍 와우리 597번지 봉담센트럴푸르지오 101동 103호","category":"학원 - 기타 교육기관"},{"name":"비터스윗(BITTER SWEET)","tel":"031-898-6599","addr":"경기도 화성시 봉담읍 와우리 597번지 봉담센트럴푸르지오 상가 1동 111호","category":"일반휴게음식 - 서양음식"},{"name":"서로연","tel":"070-4388-1081","addr":"경기도 화성시 봉담읍 와우리 597번지 봉담센트럴푸르지오 1302호","category":"용역 서비스 - 종합용역"},{"name":"와우할인마트","tel":"031-221-6808","addr":"경기도 화성시 봉담읍 와우리 597번지 2동 101호 (푸르디오@상가)","category":"유통업 영리 - 슈퍼마켓"},{"name":"왕싸크림","tel":"","addr":"경기도 화성시 봉담읍 와우리 597번지 봉담센트럴푸르지오 상가동 1층 105호","category":"음료식품 - 기타음료식품"},{"name":"용인대 현창 태권도","tel":"031-233-6893","addr":"경기도 화성시 봉담읍 와우리 597번지 봉담센트럴푸르지오 상가동 105,106호","category":"학원 - 예·체능계학원"},{"name":"응급실국물떡볶이 와우리점","tel":"031-222-7119","addr":"경기도 화성시 봉담읍 와우리 597번지 봉담센트럴푸르지오 2동 102호","category":"일반휴게음식 - 스넥"},{"name":"이레 뷰티호텔","tel":"","addr":"경기도 화성시 봉담읍 와우리 597번지 봉담센트럴푸르지오 상가동 106호","category":"보건위생 - 피부미용실"},{"name":"청춘감성쌀핫도그 화성봉담점","tel":"031-236-1110","addr":"경기도 화성시 봉담읍 와우리 597번지 봉담센트럴푸르지오 상가 2동 103호","category":"일반휴게음식 - 일반한식"},{"name":"푸르지오 세탁소","tel":"031-233-5133","addr":"경기도 화성시 봉담읍 와우리 597번지 봉담센트럴푸르지오 상가 101동 107호","category":"수리서비스 - 세탁소"},{"name":"푸르지오 셀파","tel":"031-733-0233","addr":"경기도 화성시 봉담읍 와우리 221-100번지 봉담센트럴푸르지오 101동 204호","category":"학원 - 보습학원"},{"name":"하이테크","tel":"070-4789-2381","addr":"경기도 화성시 봉담읍 와우리 597번지 봉담센트럴푸르지오 103동 202호","category":"수리서비스 - 기타수리서비스"},{"name":"홍희통닭","tel":"031-225-9288","addr":"경기도 화성시 봉담읍 와우리 597번지 봉담센트럴푸르지오 1동 104호","category":"일반휴게음식 - 스넥"}]},{"lat":"37.213294961","long":"126.97370338","items":[{"name":"닥터김영어중국어학원","tel":"031-222-4556","addr":"경기도 화성시 봉담읍 와우리 24-4번지 201호","category":"학원 - 보습학원"}]},{"lat":"37.213385736","long":"126.97656488","items":[{"name":"대경기획","tel":"02-1111-1111","addr":"경기도 화성시 봉담읍 와우리 37-2번지","category":"용역 서비스 - 사무서비스"}]},{"lat":"37.214719601","long":"126.9780966","items":[{"name":"대나무촌","tel":"031-226-8309","addr":"경기도 화성시 봉담읍 와우리 45-7번지","category":"일반휴게음식 - 일반한식"}]},{"lat":"37.214322392","long":"126.97472819","items":[{"name":"대명학원","tel":"031-225-6003","addr":"경기도 화성시 봉담읍 와우리 31-16번지 리젠트프라자 403호","category":"학원 - 보습학원"},{"name":"땅콩볶는집","tel":"","addr":"경기도 화성시 봉담읍 와우리 31-16번지 리젠트프라자 1층 114호","category":"음료식품 - 농·축·수산품"},{"name":"미택스 세무회계","tel":"031-221-9096","addr":"경기도 화성시 봉담읍 와우리 31-16번지 리젠트프라자 1층 113호","category":"용역 서비스 - 법률회계서비스(개인)"},{"name":"베이직음악학원","tel":"031-232-4003","addr":"경기도 화성시 봉담읍 와우리 31-16번지 리젠트프라자 404호","category":"학원 - 예·체능계학원"},{"name":"블랙꼬끄수원대점","tel":"031-267-4548","addr":"경기도 화성시 봉담읍 와우리 31-16번지 102,103호","category":"일반휴게음식 - 스넥"},{"name":"요술집","tel":"","addr":"경기도 화성시 봉담읍 와우리 31-16번지 리젠트프라자 1층 115호","category":"일반휴게음식 - 주점"},{"name":"지지GO헤어샵","tel":"031-222-6054","addr":"경기도 화성시 봉담읍 와우리 31-16번지 리젠트프라자 104호","category":"보건위생 - 미용원"},{"name":"토즈멤버십라운지 봉담센터","tel":"031-223-0306","addr":"경기도 화성시 봉담읍 와우리 31-16번지 리젠트프라자 120호","category":"용역 서비스 - 사무서비스"},{"name":"토즈스터디센터 봉담독서실","tel":"031-223-0306","addr":"경기도 화성시 봉담읍 와우리 31-16번지 리젠트프라자 120호","category":"학원 - 독서실"},{"name":"파스타하임","tel":"070-7783-8884","addr":"경기도 화성시 봉담읍 와우리 31-16번지 리젠트프라자 1층 101호","category":"일반휴게음식 - 서양음식"},{"name":"화심쑥좌훈방","tel":"031-222-8721","addr":"경기도 화성시 봉담읍 와우리 31-16번지 리젠트프라자 405호","category":"회원제형태 - 기타4"}]},{"lat":"37.2141863","long":"126.97103299","items":[{"name":"대신(    )에어컨","tel":"070-4028-0633","addr":"경기도 화성시 봉담읍 와우리 591번지 봉담휴먼빌 103동 402호","category":"용역 서비스 - 기타용역서비스"}]},{"lat":"37.220882153","long":"126.97564964","items":[{"name":"대원자동차공업사","tel":"031-224-6681","addr":"경기도 화성시 봉담읍 와우리 129번지","category":"자동차정비 유지 - 자동차정비"}]},{"lat":"37.213188407","long":"126.98098116","items":[{"name":"대학식당","tel":"031-222-5634","addr":"경기도 화성시 봉담읍 와우리 42-9","category":"일반휴게음식 - 스넥"},{"name":"와우리보신장","tel":"031-222-1314","addr":"경기도 화성시 봉담읍 와우리 42-9","category":"일반휴게음식 - 일반한식"}]},{"lat":"37.214052422","long":"126.97620413","items":[{"name":"더캠프PC방수원대점","tel":"","addr":"경기도 화성시 봉담읍 와우리 37-12번지 2층","category":"레저업소 - 기타레져업소"},{"name":"찌개지존","tel":"031-222-6987","addr":"경기도 화성시 봉담읍 와우리 37-12번지 골든힐 103호","category":"일반휴게음식 - 일반한식"},{"name":"커피홀베이커리 수원대점","tel":"031-225-6232","addr":"경기도 화성시 봉담읍 와우리 37-12번지 104호","category":"일반휴게음식 - 서양음식"},{"name":"큰맘할매순대국","tel":"031-234-3639","addr":"경기도 화성시 봉담읍 와우리 37-12번지 1층 101호, 102호","category":"일반휴게음식 - 일반한식"}]},{"lat":"37.214080129","long":"126.9793924","items":[{"name":"덕자네방앗간","tel":"031-222-6708","addr":"경기도 화성시 봉담읍 와우리 43-7번지","category":"일반휴게음식 - 스넥"},{"name":"락당구장","tel":"","addr":"경기도 화성시 봉담읍 와우리 43-7번지 지하1층","category":"레저업소 - 당 구 장"},{"name":"무한통삼","tel":"031-221-9294","addr":"경기도 화성시 봉담읍 와우리 43-7번지 2층","category":"일반휴게음식 - 일반한식"},{"name":"수기획","tel":"031-221-4954","addr":"경기도 화성시 봉담읍 와우리 43-7번지","category":"용역 서비스 - 사무서비스"},{"name":"이디야커피수원대점","tel":"031-226-2010","addr":"경기도 화성시 봉담읍 와우리 43-7","category":"일반휴게음식 - 서양음식"}]},{"lat":"37.214214609","long":"126.97620408","items":[{"name":"동양철물전기열쇠","tel":"031-224-7338","addr":"경기도 화성시 봉담읍 와우리 67 주신빌딩1층상가 4호 5호","category":"건축자재 - 목재·석재·철물"},{"name":"또래오래","tel":"031-226-5554","addr":"경기도 화성시 봉담읍 와우리 67번지","category":"일반휴게음식 - 스넥"},{"name":"차돌네닭볶음탕","tel":"031-222-5057","addr":"경기도 화성시 봉담읍 와우리 67번지 주신빌딩 103호","category":"일반휴게음식 - 일반한식"},{"name":"크리닝하우스","tel":"031-221-2570","addr":"경기도 화성시 봉담읍 와우리 67번지","category":"수리서비스 - 세탁소"}]},{"lat":"37.217962461","long":"126.97423111","items":[{"name":"두손","tel":"031-222-1804","addr":"경기도 화성시 봉담읍 와우리 178-6번지","category":"직물 - 침구·수예점"},{"name":"민영식당","tel":"031-222-5409","addr":"경기도 화성시 봉담읍 와우리 178-6번지","category":"일반휴게음식 - 일반한식"},{"name":"삼성사","tel":"031-223-0084","addr":"경기도 화성시 봉담읍 와우리 178-6번지","category":"용역 서비스 - 기타용역서비스"},{"name":"유진냉열","tel":"031-757-6172","addr":"경기도 화성시 봉담읍 와우리 178-6번지","category":"용역 서비스 - 기타용역서비스"},{"name":"코사마트(화성점)","tel":"031-222-5037","addr":"경기도 화성시 봉담읍 와우리 178-6번지 101,102호","category":"유통업 영리 - 슈퍼마켓"}]},{"lat":"37.214691671","long":"126.97411968","items":[{"name":"디디테크","tel":"070-4241-6219","addr":"경기도 화성시 봉담읍 와우리 240번지 해오름마을봉담그대가2단지 201동 602호","category":"서적문구 - 과학기자재"}]},{"lat":"37.218601958","long":"126.97326193","items":[{"name":"디어마이","tel":"02-000-0000","addr":"경기도 화성시 봉담읍 와우리 183번지 나동 104호","category":"문화.취미 - 화원"},{"name":"아름탁구교실","tel":"031-221-3367","addr":"경기도 화성시 봉담읍 와우리 183번지 와우프라자 2층","category":"레저업소 - 기타레져업소"},{"name":"컷트클럽","tel":"031-221-0560","addr":"경기도 화성시 봉담읍 와우리 183번지 와우프라자 나동 101호","category":"보건위생 - 미용원"}]},{"lat":"37.220963202","long":"126.97545808","items":[{"name":"디자인 모은","tel":"031-295-2918","addr":"경기도 화성시 봉담읍 와우리 127번지 1동 101호","category":"용역 서비스 - 종합용역"}]},{"lat":"37.216096568","long":"126.97129131","items":[{"name":"디자인 보늬","tel":"","addr":"경기도 화성시 봉담읍 와우리 589번지 봉담그대가3단지 302동 904호","category":"용역 서비스 - 사무서비스"},{"name":"은하쥬쥬","tel":"031-224-8342","addr":"경기도 화성시 봉담읍 와우리 589번지 봉담그대가3단지 302동 1304호","category":"의류 - 정장"}]},{"lat":"37.216934692","long":"126.97189935","items":[{"name":"라메종비올레뜨(Lamaisonviolette)","tel":"","addr":"경기도 화성시 봉담읍 와우리 213-40번지","category":"일반휴게음식 - 서양음식"}]},{"lat":"37.215989456","long":"126.97534721","items":[{"name":"라인헤어","tel":"031-222-6658","addr":"경기도 화성시 봉담읍 와우리 78-13번지 1층","category":"보건위생 - 미용원"}]},{"lat":"37.215241909","long":"126.97673322","items":[{"name":"럭셔리 동전노래연습장","tel":"031-0000-0000","addr":"경기도 화성시 봉담읍 와우리 69-4번지","category":"레저업소 - 노 래 방"},{"name":"봉구스밥버거 수원대점","tel":"031-235-0905","addr":"경기도 화성시 봉담읍 와우리 69-4번지 1층","category":"일반휴게음식 - 스넥"},{"name":"아이스크림이싸다구 수원대점","tel":"070-1234-5678","addr":"경기도 화성시 봉담읍 와우리 69-4번지","category":"음료식품 - 기타음료식품"},{"name":"포인트","tel":"031-410-2400","addr":"경기도 화성시 봉담읍 와우리 69-4번지","category":"레저업소 - 노 래 방"},{"name":"화성명함.도장.고무인.열쇠","tel":"031-225-9889","addr":"경기도 화성시 봉담읍 와우리 69-4번지 1층","category":"건축자재 - 목재·석재·철물"}]},{"lat":"37.212906755","long":"126.97076315","items":[{"name":"록키바디짐(ROCKY BODY BYM)","tel":"031-221-8041","addr":"경기도 화성시 봉담읍 와우리 590번지 봉담아이파크","category":"레저업소 - 헬스클럽"},{"name":"명인컨테이너","tel":"031-221-4689","addr":"경기도 화성시 봉담읍 와우리 590번지 봉담아이파크","category":"건축자재 - 기타건축자재"},{"name":"미소에스테틱","tel":"031-237-8246","addr":"경기도 화성시 봉담읍 와우리 590번지 봉담아이파크 105호","category":"회원제형태 - 기타4"},{"name":"바이주","tel":"02-1577-0000","addr":"경기도 화성시 봉담읍 와우리 590번지 봉담아이파크 2층 201호 상가동","category":"의류 - 정장"},{"name":"봉담리라어린이집[아이행복]","tel":"031-236-5664","addr":"경기도 화성시 봉담읍 와우리 590번지 봉담아이파크","category":"학원 - 유아원"},{"name":"봉담아이파크아파트입주자대표회의","tel":"031-222-8134","addr":"경기도 화성시 봉담읍 와우리 590번지 봉담아이파크","category":"용역 서비스 - 종합용역"},{"name":"브레인에듀수학교습소","tel":"00-7670-0292","addr":"경기도 화성시 봉담읍 와우리 590번지 봉담아이파크 상가동 201호","category":"학원 - 보습학원"},{"name":"샤이니헤어","tel":"031-232-7766","addr":"경기도 화성시 봉담읍 와우리 590번지 봉담아이파크 상가동 106호","category":"보건위생 - 미용원"},{"name":"소호미술센터","tel":"031-231-9633","addr":"경기도 화성시 봉담읍 와우리 590번지 봉담아이파크 203호","category":"서적문구 - 전문서적"},{"name":"아이뮤직음악교습소","tel":"070-8800-2219","addr":"경기도 화성시 봉담읍 와우리 590번지 봉담아이파크 상가동 2층 202호","category":"학원 - 예·체능계학원"},{"name":"은혜세탁소","tel":"031-239-4488","addr":"경기도 화성시 봉담읍 와우리 590번지 봉담아이파크 103호","category":"수리서비스 - 세탁소"},{"name":"카페오롯","tel":"031-222-2157","addr":"경기도 화성시 봉담읍 와우리 590번지 봉담아이파크 상가동 105호","category":"일반휴게음식 - 서양음식"},{"name":"한쌤공부방","tel":"","addr":"경기도 화성시 봉담읍 와우리 590번지 봉담아이파크 196동 2004호","category":"학원 - 기타 교육기관"},{"name":"해법봉담쌍용영어교습소","tel":"031-890-0582","addr":"경기도 화성시 봉담읍 와우리 590번지 봉담아이파크 상가 201호 일부","category":"회원제형태 - 학원"}]},{"lat":"37.216413147","long":"126.9762371","items":[{"name":"리스운수","tel":"031-291-4444","addr":"경기도 화성시 봉담읍 와우리 84번지","category":"자동차정비 유지 - 견인서비스"}]},{"lat":"37.216242065","long":"126.97675541","items":[{"name":"마이카서비스","tel":"031-892-1312","addr":"경기도 화성시 봉담읍 와우리 76-25번지","category":"자동차정비 유지 - 자동차정비"}]},{"lat":"37.21824185","long":"126.97451267","items":[{"name":"만석궁","tel":"031-233-3344","addr":"경기도 화성시 봉담읍 와우리 171-6번지","category":"일반휴게음식 - 일반한식"}]},{"lat":"37.214527764","long":"126.96774316","items":[{"name":"멘토잉글리쉬","tel":"","addr":"경기도 화성시 봉담읍 와우리 602번지 봉담한신더휴에듀파크 103동 401호","category":"학원 - 기타 교육기관"},{"name":"셀파우등생교실","tel":"","addr":"경기도 화성시 봉담읍 와우리 602번지 봉담한신더휴에듀파크 103동 602호","category":"학원 - 보습학원"},{"name":"잉글리시아이 효행초점","tel":"","addr":"경기도 화성시 봉담읍 와우리 602번지 봉담한신더휴에듀파크 104동 301호","category":"학원 - 기타 교육기관"},{"name":"한신에듀파크어린이집[아이행복]","tel":"031-222-7890","addr":"경기도 화성시 봉담읍 와우리 602번지 봉담한신더휴에듀파크 관리동 어린이집","category":"학원 - 유아원"}]},{"lat":"37.214161038","long":"126.97847983","items":[{"name":"명랑핫도그수원대점","tel":"031-305-1059","addr":"경기도 화성시 봉담읍 와우리 42-25번지 1층","category":"일반휴게음식 - 일반한식"},{"name":"씨유수원대점","tel":"080-080-3663","addr":"경기도 화성시 봉담읍 와우리 42-25번지","category":"유통업 영리 - 편 의 점"}]},{"lat":"37.221746939","long":"126.97475923","items":[{"name":"명륜진사갈비","tel":"031-223-3607","addr":"경기도 화성시 봉담읍 와우리 148-4번지","category":"일반휴게음식 - 일반한식"},{"name":"와우리본가순대국","tel":"031-229-3196","addr":"경기도 화성시 봉담읍 와우리 148-4번지","category":"일반휴게음식 - 일반한식"}]},{"lat":"37.213494764","long":"126.9810036","items":[{"name":"몽키전자담배멀티샵","tel":"070-8289-3096","addr":"경기도 화성시 봉담읍 와우리 42-3번지","category":"기타 - 기타 전문점"}]},{"lat":"37.217440064","long":"126.97508756","items":[{"name":"미래자동차써비스","tel":"031-225-7972","addr":"경기도 화성시 봉담읍 와우리 96-3번지","category":"자동차정비 유지 - 자동차정비"}]},{"lat":"37.214187829","long":"126.97734195","items":[{"name":"미미디저트","tel":"02-111-1111","addr":"경기도 화성시 봉담읍 와우리 41-4번지 2층","category":"일반휴게음식 - 서양음식"},{"name":"쏭쏭분술포차","tel":"","addr":"경기도 화성시 봉담읍 와우리 41-4번지 1층 101호","category":"일반휴게음식 - 주점"}]},{"lat":"37.216385935","long":"126.97544847","items":[{"name":"미스터피자봉담점","tel":"031-223-1577","addr":"경기도 화성시 봉담읍 와우리 82-6번지","category":"일반휴게음식 - 서양음식"},{"name":"수빈노래방","tel":"031-225-3380","addr":"경기도 화성시 봉담읍 와우리 82-6번지 지하1층","category":"레저업소 - 노 래 방"},{"name":"제이비(JB)푸드","tel":"031-222-3345","addr":"경기도 화성시 봉담읍 와우리 82-6번지 2층","category":"일반휴게음식 - 일반한식"},{"name":"코코헤어","tel":"031-221-5055","addr":"경기도 화성시 봉담읍 와우리 82-6번지 1층","category":"보건위생 - 미용원"}]},{"lat":"37.213501402","long":"126.97062771","items":[{"name":"바스플랜 봉담점","tel":"031-893-8027","addr":"경기도 화성시 봉담읍 와우리 590번지 봉담아이파크 102동 304호","category":"건축자재 - 인테리어전문"},{"name":"생각을 키우는 아트스토리","tel":"","addr":"경기도 화성시 봉담읍 와우리 590번지 봉담아이파크 102동 303호","category":"학원 - 기타 교육기관"}]},{"lat":"37.216187733","long":"126.9755612","items":[{"name":"방자전","tel":"0031-233-7788","addr":"경기도 화성시 봉담읍 와우리 78-12,102","category":"일반휴게음식 - 일반한식"}]},{"lat":"37.214323321","long":"126.97895295","items":[{"name":"배스킨라빈스(화성수원대점)","tel":"031-239-3132","addr":"경기도 화성시 봉담읍 와우리 43-3","category":"음료식품 - 제과점"},{"name":"정문당구장","tel":"","addr":"경기도 화성시 봉담읍 와우리 43-3번지 3층","category":"레저업소 - 당 구 장"},{"name":"챠이챠이","tel":"031-222-3066","addr":"경기도 화성시 봉담읍 와우리 43-3","category":"일반휴게음식 - 중국식"},{"name":"토니모리 수원대점","tel":"031-233-1919","addr":"경기도 화성시 봉담읍 와우리 43-3번지 1층","category":"보건위생 - 화장품"},{"name":"할리스커피 수원대점","tel":"031-224-3856","addr":"경기도 화성시 봉담읍 와우리 43-3번지 1층","category":"일반휴게음식 - 서양음식"}]},{"lat":"37.212963168","long":"126.98109388","items":[{"name":"배터리","tel":"031-222-0777","addr":"경기도 화성시 봉담읍 와우리 42-5번지","category":"자동차정비 유지 - 자동차부품"}]},{"lat":"37.215683825","long":"126.97864833","items":[{"name":"백산전기소방(주)","tel":"","addr":"경기도 화성시 봉담읍 와우리 45-8번지 윤성빌딩","category":"용역 서비스 - 기타용역서비스"}]},{"lat":"37.217052658","long":"126.9752567","items":[{"name":"번개막창","tel":"031-238-8070","addr":"경기도 화성시 봉담읍 와우리 89번지","category":"일반휴게음식 - 일반한식"},{"name":"신통치킨","tel":"031-898-9288","addr":"경기도 화성시 봉담읍 와우리 89번지","category":"일반휴게음식 - 스넥"},{"name":"와우포차","tel":"031-223-8197","addr":"경기도 화성시 봉담읍 와우리 89외2필지","category":"일반휴게음식 - 일반한식"},{"name":"이박사삼겹시대","tel":"031-291-2673","addr":"경기도 화성시 봉담읍 와우리 89번지","category":"일반휴게음식 - 일반한식"},{"name":"진헤어","tel":"031-235-0605","addr":"경기도 화성시 봉담읍 와우리 89번지 1층 일부","category":"보건위생 - 미용원"}]},{"lat":"37.215663906","long":"126.97068312","items":[{"name":"베스트엠디","tel":"","addr":"경기도 화성시 봉담읍 와우리 589번지 봉담그대가3단지 313동 1401호","category":"신변잡화 - 기타잡화"}]},{"lat":"37.220160957","long":"126.97409507","items":[{"name":"베이핑존","tel":"031-244-6626","addr":"경기도 화성시 봉담읍 와우리 152-3번지 1층","category":"기타 - 기타 전문점"},{"name":"진아트","tel":"031-293-8074","addr":"경기도 화성시 봉담읍 와우리 152-3번지 외필지 1층 상가","category":"직물 - 카페트,커튼,천막,지물"},{"name":"헬로우컴","tel":"031-222-7115","addr":"경기도 화성시 봉담읍 와우리 152-3번지 103호","category":"사무통신 - 컴퓨터"}]},{"lat":"37.215079872","long":"126.97742051","items":[{"name":"벤허노래연습장","tel":"031-376-3938","addr":"경기도 화성시 봉담읍 와우리 59-7번지","category":"레저업소 - 노 래 방"},{"name":"프로대대 전용클럽","tel":"02-6403-1117","addr":"경기도 화성시 봉담읍 와우리 59-7번지 3층","category":"레저업소 - 당 구 장"}]},{"lat":"37.214213452","long":"126.97148362","items":[{"name":"별헤어","tel":"031-223-1128","addr":"경기도 화성시 봉담읍 와우리 591번지 봉담휴먼빌 상가동 8201호","category":"보건위생 - 미용원"},{"name":"새한체육관","tel":"031-223-9396","addr":"경기도 화성시 봉담읍 와우리 591번지 봉담휴먼빌 1층 상가동","category":"학원 - 예·체능계학원"},{"name":"아이나라어린이집[아이행복]","tel":"031-232-8188","addr":"경기도 화성시 봉담읍 와우리 591번지 봉담휴먼빌 1층 관리동","category":"학원 - 유아원"},{"name":"오땅비어 & 계동치킨","tel":"031-223-9281","addr":"경기도 화성시 봉담읍 와우리 591번지 봉담휴먼빌 301동 B203호","category":"일반휴게음식 - 스넥"},{"name":"올림수학교습소","tel":"","addr":"경기도 화성시 봉담읍 와우리 591번지 봉담휴먼빌 상가동 B101호","category":"학원 - 보습학원"},{"name":"인테리어플러스","tel":"031-223-5375","addr":"경기도 화성시 봉담읍 와우리 591번지 봉담휴먼빌 상가동 B105호","category":"건축자재 - 인테리어전문"},{"name":"지앤비(GnB)영어교습소","tel":"031-267-0502","addr":"경기도 화성시 봉담읍 와우리 591번지 봉담휴먼빌 상가동 B103호","category":"학원 - 외국어학원"},{"name":"토브음악교습소","tel":"031-223-9904","addr":"경기도 화성시 봉담읍 와우리 591번지 봉담휴먼빌 상가동B층 202호","category":"학원 - 예·체능계학원"},{"name":"홍선생해법독서논술교습소","tel":"031-269-7222","addr":"경기도 화성시 봉담읍 와우리 591번지 봉담휴먼빌 상가동 B102호","category":"학원 - 보습학원"}]},{"lat":"37.213800536","long":"126.9780631","items":[{"name":"복돼지연탄구이","tel":"031-224-5009","addr":"경기도 화성시 봉담읍 와우리 41-6번지","category":"일반휴게음식 - 일반한식"}]},{"lat":"37.215656243","long":"126.97609091","items":[{"name":"봄소아청소년과의원","tel":"031-223-6554","addr":"경기도 화성시 봉담읍 와우리 73-1번지 2층","category":"의원 - 의원"},{"name":"새수정약국","tel":"031-224-8211","addr":"경기도 화성시 봉담읍 와우리 73-1 1층2호","category":"약국 - 약국"},{"name":"시골마당","tel":"031-223-9892","addr":"경기도 화성시 봉담읍 와우리 73-1번지","category":"일반휴게음식 - 일반한식"},{"name":"차치과의원","tel":"031-223-2754","addr":"경기도 화성시 봉담읍 와우리 73-1번지","category":"의원 - 치과의원"},{"name":"파리바게뜨(수원대)","tel":"031-224-8241","addr":"경기도 화성시 봉담읍 와우리 73-1번지","category":"음료식품 - 제과점"}]},{"lat":"37.219629438","long":"126.97447835","items":[{"name":"봉담와우팝셀프세차타운","tel":"031-223-1120","addr":"경기도 화성시 봉담읍 와우리 156-60","category":"자동차정비 유지 - 세차장"},{"name":"와우정","tel":"031-222-5877","addr":"경기도 화성시 봉담읍 와우리 156-60번지 1층","category":"일반휴게음식 - 일반한식"},{"name":"육수당 화성봉담점","tel":"031-224-3326","addr":"경기도 화성시 봉담읍 와우리 156-60번지","category":"일반휴게음식 - 중국식"}]},{"lat":"37.214440261","long":"126.97800656","items":[{"name":"부스(B'ooth)","tel":"031-225-1965","addr":"경기도 화성시 봉담읍 와우리 62-4번지 2동 1층","category":"일반휴게음식 - 스넥"},{"name":"와우노래연습장","tel":"031-235-8789","addr":"경기도 화성시 봉담읍 와우리 62-4번지","category":"레저업소 - 노 래 방"},{"name":"한량석쇠","tel":"031-221-4166","addr":"경기도 화성시 봉담읍 와우리 62-4번지","category":"일반휴게음식 - 일반한식"}]},{"lat":"37.220080475","long":"126.97673155","items":[{"name":"부흥셀프세차","tel":"031-221-8308","addr":"경기도 화성시 봉담읍 와우리 119-7","category":"자동차정비 유지 - 세차장"},{"name":"제일광고","tel":"031-294-9112","addr":"경기도 화성시 봉담읍 와우리 119-7번지","category":"용역 서비스 - 종합용역"},{"name":"카메이크업","tel":"031-267-2249","addr":"경기도 화성시 봉담읍 와우리 119-7번지","category":"자동차정비 유지 - 카인테리어"}]},{"lat":"37.21574646","long":"126.97659785","items":[{"name":"뷰티플렉스(수원대점)","tel":"031-225-7796","addr":"경기도 화성시 봉담읍 와우리 75-6번지 101호","category":"보건위생 - 화장품"},{"name":"인더라인25","tel":"070-7012-8760","addr":"경기도 화성시 봉담읍 와우리 75-6번지","category":"유통업 영리 - 편 의 점"},{"name":"장호덕손만두 (수원대점)","tel":"031-233-1940","addr":"경기도 화성시 봉담읍 와우리 75-6번지 1층","category":"일반휴게음식 - 스넥"}]},{"lat":"37.218106993","long":"126.97578584","items":[{"name":"비비마트(BB MART)","tel":"031-224-5011","addr":"경기도 화성시 봉담읍 와우리 168-1","category":"회원제형태 - 기타4"},{"name":"오디마트","tel":"031-232-3306","addr":"경기도 화성시 봉담읍 와우리 168-1번지","category":"유통업 영리 - 슈퍼마켓"}]},{"lat":"37.216413052","long":"126.97582025","items":[{"name":"비에프(B/F)유진참치","tel":"031-221-1830","addr":"경기도 화성시 봉담읍 와우리 76-11번지 1층","category":"일반휴게음식 - 일식·회집"}]},{"lat":"37.215303262","long":"126.96984957","items":[{"name":"빛나 인테리어","tel":"","addr":"경기도 화성시 봉담읍 와우리 589번지 봉담그대가3단지 315동 602호","category":"건축자재 - 인테리어전문"}]},{"lat":"37.219467178","long":"126.9741742","items":[{"name":"사단법인경기재활봉사대","tel":"031-235-8155","addr":"경기도 화성시 봉담읍 와우리 156-97","category":"기타 - 비영리/비대상"}]},{"lat":"37.21393603","long":"126.97973042","items":[{"name":"산쪼메 수원대점","tel":"001-0000-0000","addr":"경기도 화성시 봉담읍 와우리 43-6번지","category":"일반휴게음식 - 일식·회집"},{"name":"정문기획","tel":"031-234-4446","addr":"경기도 화성시 봉담읍 와우리 43-6번지","category":"용역 서비스 - 사무서비스"},{"name":"정문기획","tel":"031-234-4446","addr":"경기도 화성시 봉담읍 와우리 43-6번지","category":"서적문구 - 출판 및 인쇄물"},{"name":"팡디스","tel":"031-437-0435","addr":"경기도 화성시 봉담읍 와우리 43-6번지","category":"일반휴게음식 - 서양음식"}]},{"lat":"37.216079643","long":"126.9757077","items":[{"name":"삼성정육점","tel":"031-222-4674","addr":"경기도 화성시 봉담읍 와우리 77-1번지","category":"음료식품 - 정육점"},{"name":"와우축산","tel":"031-239-8292","addr":"경기도 화성시 봉담읍 와우리 77-1번지","category":"음료식품 - 정육점"},{"name":"와우한축산","tel":"031-222-6964","addr":"경기도 화성시 봉담읍 와우리 77-1번지","category":"음료식품 - 정육점"}]},{"lat":"37.215151257","long":"126.9743561","items":[{"name":"새벽별어린이집[아이행복]","tel":"031-221-2460","addr":"경기도 화성시 봉담읍 와우리 239번지 봉담그대가1단지 104동 101호","category":"학원 - 유아원"},{"name":"키즈앤맘어린이집[아이행복]","tel":"031-893-7723","addr":"경기도 화성시 봉담읍 와우리 239번지 해오름마을봉담그대가1단지 104동 106호","category":"학원 - 유아원"},{"name":"한빛건축디자인","tel":"070-8878-8350","addr":"경기도 화성시 봉담읍 와우리 239번지 해오름마을봉담그대가1단지 104동 102호","category":"회원제형태 - 기타4"}]},{"lat":"37.217440111","long":"126.97529035","items":[{"name":"새봄춘천닭갈비막국수","tel":"","addr":"경기도 화성시 봉담읍 와우리 96-2번지","category":"일반휴게음식 - 일반한식"}]},{"lat":"37.213564267","long":"126.96987286","items":[{"name":"서울(경동)윤활유","tel":"031-406-5926","addr":"경기도 화성시 봉담읍 와우리 590번지 봉담아이파크 101동 2203호","category":"자동차정비 유지 - 윤활유 전문 판매"},{"name":"아이파크어린이집[아이행복]","tel":"031-898-7230","addr":"경기도 화성시 봉담읍 와우리 590번지 봉담아이파크 101동 104호","category":"학원 - 유아원"},{"name":"잎새어린이집[아이행복]","tel":"031-225-8110","addr":"경기도 화성시 봉담읍 와우리 590번지 현대아이파크 101동 105호","category":"학원 - 유아원"}]},{"lat":"37.220575704","long":"126.97523288","items":[{"name":"서울집설농탕","tel":"031-222-4750","addr":"경기도 화성시 봉담읍 와우리 126-2번지","category":"일반휴게음식 - 일반한식"}]},{"lat":"37.215052746","long":"126.97698114","items":[{"name":"설빙(경기화성수원대점)","tel":"031-521-5233","addr":"경기도 화성시 봉담읍 와우리 64-1번지 101,102호","category":"일반휴게음식 - 서양음식"}]},{"lat":"37.219350598","long":"126.9765628","items":[{"name":"세롬상사","tel":"031-293-9009","addr":"경기도 화성시 봉담읍 와우리 106 1층","category":"건축자재 - 보일러·펌프·샷시"}]},{"lat":"37.213548786","long":"126.98078953","items":[{"name":"소래포구회이모네조개구이","tel":"031-234-1231","addr":"경기도 화성시 봉담읍 와우리 42-55번지","category":"일반휴게음식 - 일반한식"}]},{"lat":"37.210572954","long":"126.97034732","items":[{"name":"숙명뮤즈음악학원","tel":"031-224-2724","addr":"경기도 화성시 봉담읍 와우리 238번지 다온마을쌍용스윗닷홈 상가동 302호","category":"학원 - 예·체능계학원"},{"name":"쌍용마트","tel":"031-222-1722","addr":"경기도 화성시 봉담읍 와우리 238 다온마을쌍용스윗닷홈 상가-201","category":"유통업 영리 - 슈퍼마켓"}]},{"lat":"37.216268922","long":"126.97597803","items":[{"name":"스카이노래연습장","tel":"031-225-9480","addr":"경기도 화성시 봉담읍 와우리 76-1번지 지하1층","category":"레저업소 - 노 래 방"}]},{"lat":"37.215881497","long":"126.97606829","items":[{"name":"스펀지","tel":"02-1111-1111","addr":"경기도 화성시 봉담읍 와우리 74-1번지","category":"의류 - 정장"},{"name":"엄마손꼬마김밥","tel":"031-222-0504","addr":"경기도 화성시 봉담읍 와우리 74-1번지","category":"일반휴게음식 - 스넥"}]},{"lat":"37.21880029","long":"126.97367872","items":[{"name":"시골자연채쌈밥","tel":"031-226-1130","addr":"경기도 화성시 봉담읍 와우리 182-1번지 외1필지","category":"일반휴게음식 - 일반한식"},{"name":"와우힐스크린골프","tel":"031-898-7300","addr":"경기도 화성시 봉담읍 와우리 182-1번지 와우프라자 2층 201호","category":"레저업소 - 스크린골프"},{"name":"커피&꽃설빙","tel":"031-225-4466","addr":"경기도 화성시 봉담읍 와우리 182-1번지","category":"일반휴게음식 - 서양음식"}]},{"lat":"37.217125331","long":"126.97791555","items":[{"name":"신일아이사랑어린이집[아이행복]","tel":"031-221-0244","addr":"경기도 화성시 봉담읍 와우리 237번지 신일해피트리2차 106동 101호","category":"학원 - 유아원"}]},{"lat":"37.217828005","long":"126.97728439","items":[{"name":"심석진의황소야","tel":"031-233-8803","addr":"경기도 화성시 봉담읍 와우리 100-5번지 1층","category":"일반휴게음식 - 일반한식"},{"name":"중앙상사","tel":"031-222-9996","addr":"경기도 화성시 봉담읍 와우리 100-5번지","category":"수리서비스 - 기타수리서비스"}]},{"lat":"37.214692234","long":"126.97654189","items":[{"name":"싱싱회수산","tel":"031-222-6567","addr":"경기도 화성시 봉담읍 와우리 69-12번지 A동 201호","category":"일반휴게음식 - 일반한식"}]},{"lat":"37.215467277","long":"126.97722886","items":[{"name":"쌍용하이테크샵","tel":"031-226-5582","addr":"경기도 화성시 봉담읍 와우리 58","category":"자동차정비 유지 - 자동차정비"}]},{"lat":"37.221296341","long":"126.97442139","items":[{"name":"썬종합광고기획","tel":"031-221-7818","addr":"경기도 화성시 봉담읍 와우리 151번지 지하1층","category":"건축자재 - 인테리어전문"}]},{"lat":"37.215186236","long":"126.97024394","items":[{"name":"아드래따래어린이집[아이행복]","tel":"031-298-7994","addr":"경기도 화성시 봉담읍 와우리 589번지 봉담그대가3단지 316동 101호","category":"학원 - 유아원"},{"name":"진흥도서","tel":"031-233-1072","addr":"경기도 화성시 봉담읍 와우리 589번지 봉담그대가3단지 316동 602호","category":"서적문구 - 일반서적"}]},{"lat":"37.213655948","long":"126.97612541","items":[{"name":"안경나라 수원대점","tel":"031-235-2046","addr":"경기도 화성시 봉담읍 와우리 38-13번지 1층","category":"보건위생 - 안경"},{"name":"옥탑방 오봉자 싸롱","tel":"031-0000-0000","addr":"경기도 화성시 봉담읍 와우리 38-13번지","category":"일반휴게음식 - 주점"}]},{"lat":"37.214106884","long":"126.97804047","items":[{"name":"알파스톤사계","tel":"","addr":"경기도 화성시 봉담읍 와우리 42번지 402호","category":"신변잡화 - 기타잡화"}]},{"lat":"37.219215613","long":"126.97734026","items":[{"name":"애니카랜드봉담점(늘푸른카)","tel":"031-278-6565","addr":"경기도 화성시 봉담읍 와우리 108번지","category":"자동차정비 유지 - 자동차정비"}]},{"lat":"37.215107127","long":"126.97847952","items":[{"name":"영웅갈매기","tel":"031-226-0503","addr":"경기도 화성시 봉담읍 와우리 45-12번지","category":"일반휴게음식 - 일반한식"},{"name":"이찌돈","tel":"031-224-3331","addr":"경기도 화성시 봉담읍 와우리 45-12","category":"일반휴게음식 - 일반한식"},{"name":"청마루","tel":"031-221-9889","addr":"경기도 화성시 봉담읍 와우리 45-12번지","category":"일반휴게음식 - 중국식"}]},{"lat":"37.216800485","long":"126.97576378","items":[{"name":"오아시스 팜","tel":"031-000-0000","addr":"경기도 화성시 봉담읍 와우리 85-3번지 우신그린맨션 나동 401호","category":"학원 - 기타 교육기관"}]},{"lat":"37.218855288","long":"126.97775724","items":[{"name":"와우자동차서비스","tel":"031-267-2100","addr":"경기도 화성시 봉담읍 와우리 111-2번지","category":"자동차정비 유지 - 자동차정비"},{"name":"와우자동차서비스","tel":"031-267-0107","addr":"경기도 화성시 봉담읍 와우리 111-2번지 1층","category":"자동차정비 유지 - 가타자동차서비스"}]},{"lat":"37.218854627","long":"126.97481664","items":[{"name":"와우흑염소","tel":"031-223-0177","addr":"경기도 화성시 봉담읍 와우리 176-1번지","category":"건강식품 - 기타건강식품"}]},{"lat":"37.214602232","long":"126.97700383","items":[{"name":"우가돈가","tel":"031-255-8638","addr":"경기도 화성시 봉담읍 와우리 65-14번지","category":"일반휴게음식 - 일반한식"},{"name":"전주집","tel":"031-221-7273","addr":"경기도 화성시 봉담읍 와우리 65-14번지 101호","category":"일반휴게음식 - 일반한식"}]},{"lat":"37.220377681","long":"126.97612304","items":[{"name":"우리건축건재","tel":"031-226-2252","addr":"경기도 화성시 봉담읍 와우리 121번지","category":"기타 - 기계공구"}]},{"lat":"37.220350815","long":"126.97686666","items":[{"name":"우리모터스","tel":"031-223-5354","addr":"경기도 화성시 봉담읍 와우리 131","category":"자동차판매 - 이륜차판매"}]},{"lat":"37.217656294","long":"126.97500861","items":[{"name":"워시테리아 화성봉담점","tel":"","addr":"경기도 화성시 봉담읍 와우리 94-2번지 101호","category":"수리서비스 - 세탁소"}]},{"lat":"37.20908808","long":"126.9779182","items":[{"name":"유니텔주식회사","tel":"031-238-2706","addr":"경기도 화성시 봉담읍 와우리 산2-2 수원대차업보육센터907","category":"신변잡화 - 기타잡화"}]},{"lat":"37.219016441","long":"126.9732843","items":[{"name":"유일 (실내건축)","tel":"031-297-2622","addr":"경기도 화성시 봉담읍 와우리 213-3번지","category":"건축자재 - 인테리어전문"}]},{"lat":"37.21871934","long":"126.97426462","items":[{"name":"인더라인와우2호점","tel":"070-4044-8794","addr":"경기도 화성시 봉담읍 와우리 177-7번지","category":"유통업 영리 - 편 의 점"},{"name":"정성찬집밥","tel":"031-0000-0000","addr":"경기도 화성시 봉담읍 와우리 177-7번지 1층 일부","category":"일반휴게음식 - 일반한식"}]},{"lat":"37.213746168","long":"126.97664361","items":[{"name":"전주명가콩나물국밥(봉담점)","tel":"031-226-8836","addr":"경기도 화성시 봉담읍 와우리 38-22번지","category":"일반휴게음식 - 일반한식"}]},{"lat":"37.214107259","long":"126.97989936","items":[{"name":"정문사","tel":"031-898-5433","addr":"경기도 화성시 봉담읍 와우리 44-41번지 102호","category":"용역 서비스 - 사무서비스"}]},{"lat":"37.221467658","long":"126.97492834","items":[{"name":"정우한식부페","tel":"031-225-9161","addr":"경기도 화성시 봉담읍 와우리 150-25번지","category":"일반휴게음식 - 일반한식"},{"name":"제이스페이스","tel":"031-223-9161","addr":"경기도 화성시 봉담읍 와우리 150-25번지 2층","category":"일반휴게음식 - 서양음식"}]},{"lat":"37.214773823","long":"126.97887394","items":[{"name":"조선주막수원대점","tel":"031-224-4122","addr":"경기도 화성시 봉담읍 와우리 44-48번지","category":"일반휴게음식 - 일반한식"}]},{"lat":"37.214133688","long":"126.97698146","items":[{"name":"족보통수원대점","tel":"031-224-5192","addr":"경기도 화성시 봉담읍 와우리 38-21번지 1층","category":"일반휴게음식 - 일반한식"},{"name":"토리헤어","tel":"031-222-4224","addr":"경기도 화성시 봉담읍 와우리 38-21번지","category":"보건위생 - 미용원"}]},{"lat":"37.218161132","long":"126.97612382","items":[{"name":"좋은집만들기","tel":"031-235-7519","addr":"경기도 화성시 봉담읍 와우리 168-5번지 대광빌라 203호","category":"건축자재 - 인테리어전문"}]},{"lat":"37.214267234","long":"126.97044712","items":[{"name":"준카피","tel":"031-354-5112","addr":"경기도 화성시 봉담읍 와우리 591번지 봉담휴먼빌 102동 4층 4호","category":"용역 서비스 - 사무서비스"}]},{"lat":"37.217719227","long":"126.97442273","items":[{"name":"중앙장식","tel":"031-223-4520","addr":"경기도 화성시 봉담읍 와우리 179-7번지","category":"직물 - 카페트,커튼,천막,지물"}]},{"lat":"37.215654685","long":"126.96991702","items":[{"name":"즐겨찾기","tel":"031-8002-6545","addr":"경기도 화성시 봉담읍 와우리 589번지 봉담그대가3단지 314동 802호","category":"회원제형태 - 기타4"}]},{"lat":"37.221747096","long":"126.97542399","items":[{"name":"지니어스숲어린이집[아이행복]","tel":"031-225-8181","addr":"경기도 화성시 봉담읍 와우리 147-3","category":"학원 - 유아원"}]},{"lat":"37.220413853","long":"126.9767089","items":[{"name":"진바이크(와우리)","tel":"031-223-5354","addr":"경기도 화성시 봉담읍 와우리 131번지 3호","category":"자동차판매 - 이륜차판매"}]},{"lat":"37.21548431","long":"126.97301529","items":[{"name":"진영수도설비 누수방수종합설비","tel":"031-8013-9635","addr":"경기도 화성시 봉담읍 와우리 589번지 봉담그대가3단지 308동 1101호","category":"용역 서비스 - 기타용역서비스"}]},{"lat":"37.215070655","long":"126.97647416","items":[{"name":"참좋은수약국","tel":"031-221-9970","addr":"경기도 화성시 봉담읍 와우리 69-1 에이동2층3호","category":"약국 - 약국"}]},{"lat":"37.213979461","long":"126.97255398","items":[{"name":"최수아 통합발달2센터","tel":"","addr":"경기도 화성시 봉담읍 와우리 591번지 봉담휴먼빌 105동 101호","category":"보건위생 - 기타대인서비스"},{"name":"햇살마루어린이집[아이행복]","tel":"031-8081-4998","addr":"경기도 화성시 봉담읍 와우리 591번지 봉담휴먼빌 105동 103호","category":"학원 - 유아원"}]},{"lat":"37.214935599","long":"126.97692485","items":[{"name":"칠성포차수원대점","tel":"031-222-0662","addr":"경기도 화성시 봉담읍 와우리 64-3번지","category":"일반휴게음식 - 주점"}]},{"lat":"37.215907935","long":"126.97356717","items":[{"name":"카앤피플 수원권선구점","tel":"031-8003-5407","addr":"경기도 화성시 봉담읍 와우리 589번지 봉담그대가3단지 306동 14층 1호","category":"자동차정비 유지 - 세차장"}]},{"lat":"37.219827792","long":"126.97500781","items":[{"name":"카즈커스텀(CARZ CUSTOM)","tel":"031-222-2311","addr":"경기도 화성시 봉담읍 와우리 156-41번지","category":"자동차정비 유지 - 자동차부품"}]},{"lat":"37.22090936","long":"126.97642706","items":[{"name":"카페 본","tel":"070-4649-1101","addr":"경기도 화성시 봉담읍 와우리 142번지 1층","category":"일반휴게음식 - 서양음식"}]},{"lat":"37.214322776","long":"126.97639556","items":[{"name":"크리닝하우스 봉담수원대점","tel":"031-221-2570","addr":"경기도 화성시 봉담읍 와우리 67번지 4호 상가","category":"수리서비스 - 세탁소"}]},{"lat":"37.215385303","long":"126.97344345","items":[{"name":"태광상사","tel":"031-223-9089","addr":"경기도 화성시 봉담읍 와우리 589번지 봉담그대가3단지아파트 307동 1004호","category":"연료판매점 - 기타연료"}]},{"lat":"37.214114447","long":"126.9719005","items":[{"name":"특수아동미술연구소","tel":"","addr":"경기도 화성시 봉담읍 와우리 591번지 봉담휴먼빌 104동 1201호","category":"서적문구 - 기타서적문구"},{"name":"휴먼빌아띠어린이집[아이행복]","tel":"031-8081-4500","addr":"경기도 화성시 봉담읍 와우리 591번지 봉담휴먼빌 104동 103호","category":"학원 - 유아원"}]},{"lat":"37.215475852","long":"126.97529107","items":[{"name":"파이 메디컬","tel":"031-225-9324","addr":"경기도 화성시 봉담읍 와우리 239번지 해오름마을봉담그대가1단지 102동 1101호","category":"보건위생 - 미용재료"}]},{"lat":"37.213962687","long":"126.97789406","items":[{"name":"파파이스수원대점","tel":"031-898-8823","addr":"경기도 화성시 봉담읍 와우리 41-1번지 1층 2층","category":"일반휴게음식 - 서양음식"}]},{"lat":"37.218044033","long":"126.97628159","items":[{"name":"펠리스디자인(FELIZ DESIGN)","tel":"031-225-8869","addr":"경기도 화성시 봉담읍 와우리 168번지 성현빌라 1동 102호","category":"회원제형태 - 기타4"}]},{"lat":"37.219386024","long":"126.97392637","items":[{"name":"프로 모터스","tel":"031-224-8808","addr":"경기도 화성시 봉담읍 와우리 156-90번지","category":"자동차정비 유지 - 자동차정비"}]},{"lat":"37.214719618","long":"126.97817546","items":[{"name":"한솥 수원대점","tel":"031-225-4544","addr":"경기도 화성시 봉담읍 와우리 45-6","category":"일반휴게음식 - 일반한식"}]},{"lat":"37.221107131","long":"126.97445526","items":[{"name":"한우만정육","tel":"031-297-2882","addr":"경기도 화성시 봉담읍 와우리 152-1번지","category":"음료식품 - 정육점"},{"name":"황금코다리 화성봉담점","tel":"031-225-3632","addr":"경기도 화성시 봉담읍 와우리 152-1번지","category":"일반휴게음식 - 일반한식"}]},{"lat":"37.214025814","long":"126.97815316","items":[{"name":"행복한모임터","tel":"031-226-7503","addr":"경기도 화성시 봉담읍 와우리 42-46","category":"일반휴게음식 - 일반한식"}]},{"lat":"37.219854623","long":"126.97417406","items":[{"name":"현대자동차전문점","tel":"031-226-7760","addr":"경기도 화성시 봉담읍 와우리 156-96번지","category":"자동차정비 유지 - 자동차정비"}]},{"lat":"37.214881717","long":"126.97775856","items":[{"name":"황제갈비","tel":"031-223-6415","addr":"경기도 화성시 봉담읍 와우리 60-2번지","category":"일반휴게음식 - 일반한식"}]},{"lat":"37.215852431","long":"126.96822699","items":[{"name":"효행초등학교","tel":"031-224-2692","addr":"경기도 화성시 봉담읍 와우리 592번지","category":"학원 - 초중고교육기관"}]},{"lat":"37.217656254","long":"126.97483961","items":[{"name":"휴대폰365아울렛/주식회사 본가제이씨","tel":"031-235-7020","addr":"경기도 화성시 봉담읍 와우리 93-4번지","category":"사무통신 - 통신기기"}]}]