[{"lat":"37.3456133087","long":"126.9869805446","items":[{"name":"(주)모노트레이드","tel":"031-427-1230","addr":"경기도 의왕시 왕곡동 187-16번지","category":"신변잡화 - 가방"},{"name":"안단테","tel":"031-456-7879","addr":"경기도 의왕시 왕곡동 187-16번지 1~2층 102호, 202호","category":"일반휴게음식 - 서양음식"}]},{"lat":"37.3478649467","long":"126.9812806677","items":[{"name":"(주)케이엠종합서비스 계요병원지점","tel":"031-422-8509","addr":"경기도 의왕시 왕곡동 280-1번지 본관 B동 지하1층 1호","category":"음료식품 - 기타음료식품"},{"name":"계요의료재단상조회","tel":"031-455-3333","addr":"경기도 의왕시 왕곡동 280-1번지 계요병원","category":"음료식품 - 기타음료식품"}]},{"lat":"37.3461972369","long":"126.9771392957","items":[{"name":"59쌀피자(의왕)","tel":"031-427-5992","addr":"경기도 의왕시 왕곡동 594-5번지 의왕상가 1층 4호","category":"일반휴게음식 - 서양음식"},{"name":"가온정보통신","tel":"031-427-7456","addr":"경기도 의왕시 왕곡동 594-5번지 의왕상가 6호","category":"사무통신 - 통신기기"},{"name":"법무사류윤세사무소","tel":"031-429-8600","addr":"경기도 의왕시 왕곡동 594-5번지 의왕상가 2층","category":"용역 서비스 - 법률회계서비스(개인)"},{"name":"샹떼","tel":"031-452-0900","addr":"경기도 의왕시 왕곡동 594-5번지 2층","category":"레저업소 - 기타레져업소"},{"name":"여우소풍","tel":"031-429-3487","addr":"경기도 의왕시 왕곡동 594-5번지 1층","category":"일반휴게음식 - 스넥"},{"name":"의왕종로약국","tel":"031-457-0480","addr":"경기도 의왕시 왕곡동 594-5번지 의왕상가 1층","category":"약국 - 약국"},{"name":"이편한치과의원","tel":"031-452-2875","addr":"경기도 의왕시 왕곡동 594-5번지 의왕상가 2층","category":"의원 - 치과의원"},{"name":"홍카페","tel":"","addr":"경기도 의왕시 왕곡동 594-5번지 의왕상가 1층 5호","category":"일반휴게음식 - 서양음식"},{"name":"흑돼지마을","tel":"031-429-0355","addr":"경기도 의왕시 왕곡동 594-5번지 1층","category":"일반휴게음식 - 일반한식"}]},{"lat":"37.3435574243","long":"126.9779188828","items":[{"name":"GS25의왕신명점","tel":"","addr":"경기도 의왕시 왕곡동 600번지 솔거아파트","category":"유통업 영리 - 편 의 점"},{"name":"신명세탁소","tel":"031-455-0926","addr":"경기도 의왕시 왕곡동 600신명상가지하4","category":"수리서비스 - 세탁소"},{"name":"현헤어아트","tel":"031-456-1289","addr":"경기도 의왕시 왕곡동 600","category":"보건위생 - 미용원"}]},{"lat":"37.3460887735","long":"126.9756157662","items":[{"name":"KTS 의왕탁구클럽","tel":"","addr":"경기도 의왕시 왕곡동 597-5번지 (3층, 왕곡동)","category":"레저업소 - 기타레져업소"},{"name":"숯겹살집","tel":"031-429-3284","addr":"경기도 의왕시 왕곡동 597-5번지 1층","category":"일반휴게음식 - 일반한식"}]},{"lat":"37.3397017624","long":"126.9814522775","items":[{"name":"MPK 트레일러","tel":"031-429-4805","addr":"경기도 의왕시 왕곡동 387","category":"기타 - 기계공구"}]},{"lat":"37.3462242082","long":"126.9768684298","items":[{"name":"STORY PC","tel":"031-0000-0000","addr":"경기도 의왕시 왕곡동 594-6번지 3층","category":"레저업소 - 기타레져업소"},{"name":"동의보감한의원","tel":"031-455-1157","addr":"경기도 의왕시 왕곡동 594-6번지 1층","category":"의원 - 한의원"},{"name":"서울치과","tel":"031-459-5825","addr":"경기도 의왕시 왕곡동 594-6번지","category":"의원 - 치과의원"},{"name":"우성고등학교총동문회","tel":"070-8656-0328","addr":"경기도 의왕시 왕곡동 594-6번지 2층","category":"기타 - 비영리/비대상"},{"name":"캄리좌훈카페","tel":"031-111-1111","addr":"경기도 의왕시 왕곡동 594-6번지 202호","category":"보건위생 - 피부미용실"},{"name":"코라인이엔티(주)","tel":"02-3473-9771","addr":"경기도 의왕시 왕곡동 594-6번지 정화빌딩","category":"전기제품 - 기타전기제품"},{"name":"코트랙 주식회사","tel":"031-422-5272","addr":"경기도 의왕시 왕곡동 594-6번지","category":"용역 서비스 - 소프트웨어"}]},{"lat":"37.3472271691","long":"127.0002523625","items":[{"name":"가온길순두부","tel":"031-457-8588","addr":"경기도 의왕시 왕곡동 10-6번지","category":"일반휴게음식 - 일반한식"}]},{"lat":"37.3467018136","long":"126.9771729807","items":[{"name":"가위미용실","tel":"031-454-5755","addr":"경기도 의왕시 왕곡동 304-6번지 대교 A동 B02호","category":"보건위생 - 미용원"}]},{"lat":"37.3448096661","long":"126.9771171986","items":[{"name":"가위손가이 미용실","tel":"031-459-2226","addr":"경기도 의왕시 왕곡동 599 원효상가201","category":"보건위생 - 미용원"},{"name":"체소피아노교습소","tel":"031-445-5926","addr":"경기도 의왕시 왕곡동 599번지","category":"학원 - 예·체능계학원"}]},{"lat":"37.3465034055","long":"126.9763379036","items":[{"name":"갈비명가서서갈비의왕점","tel":"031-427-3009","addr":"경기도 의왕시 왕곡동 594-1번지 ,1,2층","category":"일반휴게음식 - 일반한식"},{"name":"삼성카센타","tel":"031-453-2078","addr":"경기도 의왕시 왕곡동 594-1번지","category":"자동차정비 유지 - 자동차정비"},{"name":"술술도가","tel":"031-455-7942","addr":"경기도 의왕시 왕곡동 594-1번지 1층","category":"일반휴게음식 - 일반한식"}]},{"lat":"37.3466475249","long":"126.9761459949","items":[{"name":"개념의발견학원","tel":"031-451-0112","addr":"경기도 의왕시 왕곡동 594번지 의왕프라자 401호","category":"학원 - 보습학원"},{"name":"그램그램왕곡점","tel":"031-427-9192","addr":"경기도 의왕시 왕곡동 594번지 의왕프라자 2층","category":"일반휴게음식 - 일반한식"},{"name":"늘푸른요양원","tel":"031-452-5114","addr":"경기도 의왕시 왕곡동 594번지 의왕프라자 6,7,8층","category":"기타의료기관 - 기타의료기관 및 기타"},{"name":"대성본가","tel":"031-445-2827","addr":"경기도 의왕시 왕곡동 594번지 의왕프라자 1층 101호","category":"일반휴게음식 - 일반한식"},{"name":"스마일노래연습장","tel":"031-456-2113","addr":"경기도 의왕시 왕곡동 594번지 의왕프라자 지하1층 01호 비","category":"레저업소 - 노 래 방"},{"name":"스마일노래연습장","tel":"031-456-2113","addr":"경기도 의왕시 왕곡동 594번지 의왕프라자 B01호","category":"레저업소 - 노 래 방"},{"name":"한솔플러스수학로제타스톤영어학원","tel":"031-429-0424","addr":"경기도 의왕시 왕곡동 594번지 의왕프라자 5층 501호 일부","category":"학원 - 보습학원"}]},{"lat":"37.3474779841","long":"126.9840571067","items":[{"name":"경기도건설본부","tel":"031-429-6067","addr":"경기도 의왕시 왕곡동 260번지 의왕과천유료도로사업소","category":"용역 서비스 - 조세서비스"},{"name":"로또&하이샵","tel":"","addr":"경기도 의왕시 왕곡동 260번지","category":"신변잡화 - 기타잡화"},{"name":"열린매장 (하) A","tel":"031-429-9256","addr":"경기도 의왕시 왕곡동 260번지","category":"일반휴게음식 - 일반한식"},{"name":"열린매장(상)/케이에이치에너지(주)직영 의","tel":"02-2662-0068","addr":"경기도 의왕시 왕곡동 260번지","category":"일반휴게음식 - 스넥"},{"name":"열린매장(상)케이에이치에너지(주)직영 의","tel":"031-429-9256","addr":"경기도 의왕시 왕곡동 260번지","category":"일반휴게음식 - 일반한식"},{"name":"열린매장(하) B/케이에이치에너지(주) 직영","tel":"031-429-9256","addr":"경기도 의왕시 왕곡동 260번지","category":"일반휴게음식 - 서양음식"},{"name":"커피전문점(상)탐앤탐스/케이에이치에너지(","tel":"031-429-9256","addr":"경기도 의왕시 왕곡동 260번지","category":"일반휴게음식 - 서양음식"},{"name":"커피전문점(하)A탐앤탐스/케이에이치에너지","tel":"031-429-9256","addr":"경기도 의왕시 왕곡동 260번지","category":"일반휴게음식 - 서양음식"},{"name":"커피전문점(하)B/케이에이치에너지(주)직영","tel":"031-429-9256","addr":"경기도 의왕시 왕곡동 260번지","category":"일반휴게음식 - 서양음식"},{"name":"푸드코트(상)","tel":"031-1111-1111","addr":"경기도 의왕시 왕곡동 260번지","category":"일반휴게음식 - 일반한식"},{"name":"푸드코트(하)","tel":"031-429-9256","addr":"경기도 의왕시 왕곡동 260번지","category":"일반휴게음식 - 일반한식"},{"name":"푸드트럭(상)/케이에이치에너지(주) 직영의","tel":"031-429-9256","addr":"경기도 의왕시 왕곡동 260번지","category":"일반휴게음식 - 일반한식"},{"name":"푸드트럭(상)B/케이에이치에너지(주)","tel":"031-429-9257","addr":"경기도 의왕시 왕곡동 260번지 의왕휴게소 서울방향 푸드트럭","category":"일반휴게음식 - 서양음식"}]},{"lat":"37.3352864924","long":"126.9799527520","items":[{"name":"경기물류보관센타","tel":"031-427-9898","addr":"경기도 의왕시 왕곡동 496-2번지","category":"용역 서비스 - 보관및 창고업"}]},{"lat":"37.3449739670","long":"126.9901180518","items":[{"name":"고천화원","tel":"031-459-5074","addr":"경기도 의왕시 왕곡동 167-1번지","category":"문화.취미 - 화원"}]},{"lat":"37.3465036607","long":"126.9775003348","items":[{"name":"공간생각","tel":"031-459-8919","addr":"경기도 의왕시 왕곡동 300번지","category":"건축자재 - 인테리어전문"},{"name":"무지개식당","tel":"031-452-9711","addr":"경기도 의왕시 왕곡동 300번지","category":"일반휴게음식 - 일반한식"},{"name":"블루라이트","tel":"031-346-3473","addr":"경기도 의왕시 왕곡동 300번지","category":"건축자재 - 조명기구"},{"name":"아리클로","tel":"070-8865-4589","addr":"경기도 의왕시 왕곡동 300번지","category":"의류 - 정장"},{"name":"이팔청춘","tel":"","addr":"경기도 의왕시 왕곡동 300번지","category":"일반휴게음식 - 일반한식"},{"name":"제일철물","tel":"031-453-9626","addr":"경기도 의왕시 왕곡동 300번지","category":"건축자재 - 목재·석재·철물"}]},{"lat":"37.3464224070","long":"126.9767555041","items":[{"name":"김진우가정의원","tel":"031-458-7991","addr":"경기도 의왕시 왕곡동 594-3번지","category":"의원 - 의원"},{"name":"렉스","tel":"031-429-9997","addr":"경기도 의왕시 왕곡동 594-3번지 광원빌딩 1층","category":"일반휴게음식 - 일반한식"},{"name":"수가정의원","tel":"031-429-0878","addr":"경기도 의왕시 왕곡동 594-3번지 광원빌딩 201호","category":"의원 - 의원"},{"name":"아레나PC","tel":"070-9419-7795","addr":"경기도 의왕시 왕곡동 594-3번지 광원빌딩 301호","category":"레저업소 - 기타레져업소"},{"name":"팡팡노래연습장","tel":"031-429-2968","addr":"경기도 의왕시 왕곡동 594-3번지 광원빌딩 치층","category":"레저업소 - 노 래 방"},{"name":"피부사랑","tel":"031-429-9821","addr":"경기도 의왕시 왕곡동 594-3번지 광원빌딩 2층 202호","category":"보건위생 - 피부미용실"},{"name":"한진오토렌트카(주)","tel":"031-458-5200","addr":"경기도 의왕시 왕곡동 594-3번지 광원빌딩 401호","category":"여행 - 렌터카"}]},{"lat":"37.3464320001","long":"126.9795430760","items":[{"name":"까사로렌(CASA LAUREN)","tel":"031-453-1711","addr":"경기도 의왕시 왕곡동 593번지 인스빌아파트2단지","category":"문화.취미 - 화원"},{"name":"꿈누리어린이집[아이행복]","tel":"031-477-3331","addr":"경기도 의왕시 왕곡동 593번지 인스빌아파트2단지","category":"학원 - 유아원"}]},{"lat":"37.3454516257","long":"126.9912803859","items":[{"name":"까페샤인","tel":"031-455-6242","addr":"경기도 의왕시 왕곡동 170번지","category":"일반휴게음식 - 서양음식"},{"name":"클레이샤인","tel":"070-8865-0005","addr":"경기도 의왕시 왕곡동 170번지","category":"주방용구 - 주방용식기"}]},{"lat":"37.3469998494","long":"126.9806263384","items":[{"name":"나무","tel":"031-455-1722","addr":"경기도 의왕시 왕곡동 592번지 인스빌아파트1단지","category":"보건위생 - 화장품"},{"name":"유성산업","tel":"031-456-3047","addr":"경기도 의왕시 왕곡동 592번지 인스빌1단지 103동 301호","category":"회원제형태 - 기타4"}]},{"lat":"37.3436758520","long":"126.9850850201","items":[{"name":"농업회사법인 주식회사 우정","tel":"031-354-4579","addr":"경기도 의왕시 왕곡동 144-1번지","category":"음료식품 - 기타음료식품"}]},{"lat":"37.3332323227","long":"126.9807545231","items":[{"name":"늘푸른블루베리농원","tel":"031-459-9982","addr":"경기도 의왕시 왕곡동 532-1","category":"음료식품 - 농·축·수산품"},{"name":"푸른농원","tel":"031-456-8222","addr":"경기도 의왕시 왕곡동 532-1.3.4","category":"건강식품 - 기타건강식품"}]},{"lat":"37.3467292615","long":"126.9791705534","items":[{"name":"다바꿔미용실","tel":"031-4015-3817","addr":"경기도 의왕시 왕곡동 593번지 인스빌2단지 신안세종 상가 105호","category":"보건위생 - 미용원"},{"name":"베리타스학원","tel":"031-456-0959","addr":"경기도 의왕시 왕곡동 593번지 율곡상사 201호","category":"회원제형태 - 학원"}]},{"lat":"37.3462509383","long":"126.9755367076","items":[{"name":"대화자동차정비공업사","tel":"031-458-4300","addr":"경기도 의왕시 왕곡동 597-4번지","category":"자동차정비 유지 - 자동차정비"},{"name":"미스터카","tel":"02-6340-5385","addr":"경기도 의왕시 왕곡동 597-4번지","category":"자동차정비 유지 - 자동차부품"},{"name":"황제곱창","tel":"031-427-9259","addr":"경기도 의왕시 왕곡동 597-4번지 1층 전면우측","category":"일반휴게음식 - 일반한식"}]},{"lat":"37.3454227097","long":"126.9787872547","items":[{"name":"돈우담 참숯불구이","tel":"031-427-2345","addr":"경기도 의왕시 왕곡동 603번지 쌍용충무 상가 지하층 1호","category":"일반휴게음식 - 일반한식"},{"name":"박순임헤어파라팜","tel":"031-457-1869","addr":"경기도 의왕시 왕곡동 603,충무상가109","category":"보건위생 - 미용원"},{"name":"충무슈퍼","tel":"031-457-0833","addr":"경기도 의왕시 왕곡동 603충무상가108호","category":"유통업 영리 - 슈퍼마켓"},{"name":"홍아미술교습소","tel":"031-457-1582","addr":"경기도 의왕시 왕곡동 603쌍용충무상가105","category":"학원 - 예·체능계학원"}]},{"lat":"37.3465034559","long":"126.9765636184","items":[{"name":"동네커피","tel":"031-455-0600","addr":"경기도 의왕시 왕곡동 594-2번지 1층","category":"일반휴게음식 - 서양음식"}]},{"lat":"37.3467315681","long":"126.9987852291","items":[{"name":"뒤란","tel":"031-456-4419","addr":"경기도 의왕시 왕곡동 10-36번지","category":"문화.취미 - 화원"},{"name":"뒤란","tel":"031-456-4419","addr":"경기도 의왕시 왕곡동 10-36번지","category":"일반휴게음식 - 서양음식"}]},{"lat":"37.3463686042","long":"126.9779518091","items":[{"name":"레자미제과점","tel":"031-4211-3838","addr":"경기도 의왕시 왕곡동 299-4번지","category":"음료식품 - 제과점"},{"name":"매들리노래연습장","tel":"031-455-4458","addr":"경기도 의왕시 왕곡동 299-4번지 지층","category":"레저업소 - 노 래 방"}]},{"lat":"37.3465303364","long":"126.9758977501","items":[{"name":"르노삼성왕곡점","tel":"031-429-9983","addr":"경기도 의왕시 왕곡동 596-2번지","category":"자동차정비 유지 - 자동차정비"}]},{"lat":"37.3466485078","long":"126.9809198719","items":[{"name":"리체헤어","tel":"031-427-1182","addr":"경기도 의왕시 왕곡동 592번지 인스빌1단지 상가동 101호","category":"보건위생 - 미용원"},{"name":"신안유통","tel":"031-452-0512","addr":"경기도 의왕시 왕곡동 592번지 신안유통 5호","category":"유통업 영리 - 슈퍼마켓"},{"name":"왕곡태권도장","tel":"031-455-2850","addr":"경기도 의왕시 왕곡동 592번지 인스빌아파트1단지 204호","category":"학원 - 예·체능계학원"},{"name":"파리바게트(의왕신안점)","tel":"031-458-0082","addr":"경기도 의왕시 왕곡동 592번지 신안상가 B04호","category":"음료식품 - 제과점"},{"name":"피아노이야기음악교습소","tel":"031-454-3116","addr":"경기도 의왕시 왕곡동 592번지 인스빌1단지 106호","category":"학원 - 예·체능계학원"},{"name":"하림멕시칸치킨","tel":"031-451-3377","addr":"경기도 의왕시 왕곡동 592세종상가104","category":"일반휴게음식 - 주점"}]},{"lat":"37.3464492061","long":"126.9757284932","items":[{"name":"마린보이 동태해물찜코다리1번가","tel":"031-456-3176","addr":"경기도 의왕시 왕곡동 596-10번지 1층","category":"일반휴게음식 - 일반한식"},{"name":"카페디엠","tel":"031-429-7373","addr":"경기도 의왕시 왕곡동 596-10번지 102호","category":"일반휴게음식 - 스넥"},{"name":"토토돈까스","tel":"02-1111-1111","addr":"경기도 의왕시 왕곡동 596-10번지 101호","category":"일반휴게음식 - 일반한식"},{"name":"황소곱창 막창구이","tel":"031-452-5083","addr":"경기도 의왕시 왕곡동 596-10번지 101호","category":"일반휴게음식 - 일반한식"}]},{"lat":"37.3441340225","long":"126.9776704134","items":[{"name":"마음을전하는...꽃","tel":"031-458-3312","addr":"경기도 의왕시 왕곡동 600번지 솔거아파트","category":"문화.취미 - 화원"}]},{"lat":"37.3468098491","long":"126.9767779414","items":[{"name":"만남포차","tel":"031-000-0000","addr":"경기도 의왕시 왕곡동 303-1번지 1층","category":"일반휴게음식 - 주점"}]},{"lat":"37.3443416164","long":"126.9794195836","items":[{"name":"멕시칸치킨","tel":"031-456-1155","addr":"경기도 의왕시 왕곡동 602","category":"일반휴게음식 - 주점"},{"name":"뮤엠영어왕곡초점영어교습소","tel":"","addr":"경기도 의왕시 왕곡동 602번지 포은상가 101호.102호","category":"학원 - 외국어학원"},{"name":"포은세탁","tel":"031-451-2923","addr":"경기도 의왕시 왕곡동 602포은상가108","category":"수리서비스 - 세탁소"}]},{"lat":"37.3464496766","long":"126.9778614964","items":[{"name":"명산옥","tel":"031-427-0880","addr":"경기도 의왕시 왕곡동 299-3번지","category":"일반휴게음식 - 일반한식"}]},{"lat":"37.3467285342","long":"126.9757848214","items":[{"name":"명품조개찜","tel":"031-429-3455","addr":"경기도 의왕시 왕곡동 596-1번지 덕우빌딩 1층","category":"일반휴게음식 - 일반한식"},{"name":"서현학원","tel":"031-459-2266","addr":"경기도 의왕시 왕곡동 596-1번지 덕우빌딩 4층","category":"학원 - 보습학원"},{"name":"주식회사 지티엘파킹","tel":"02-980-3300","addr":"경기도 의왕시 왕곡동 596-1번지 덕우빌딩 502호","category":"자동차정비 유지 - 주차장"},{"name":"주식회사 지티엘파킹","tel":"02-980-3300","addr":"경기도 의왕시 왕곡동 596-1번지 덕우빌딩 502호","category":"자동차정비 유지 - 주차장"},{"name":"주식회사 지티엘파킹","tel":"02-980-3300","addr":"경기도 의왕시 왕곡동 596-1번지 덕우빌딩 502호","category":"용역 서비스 - 기타용역서비스"},{"name":"주식회사 지티엘파킹","tel":"02-980-3300","addr":"경기도 의왕시 왕곡동 596-1번지 덕우빌딩 502호","category":"자동차정비 유지 - 주차장"},{"name":"주식회사 지티엘파킹","tel":"02-980-3300","addr":"경기도 의왕시 왕곡동 596-1번지 덕우빌딩 502호","category":"용역 서비스 - 기타용역서비스"},{"name":"주식회사 지티엘파킹","tel":"02-980-3300","addr":"경기도 의왕시 왕곡동 596-1번지 덕우빌딩 502호","category":"용역 서비스 - 소프트웨어"},{"name":"주식회사 지티엘파킹","tel":"02-980-3300","addr":"경기도 의왕시 왕곡동 596-1번지 덕우빌딩 502호","category":"자동차정비 유지 - 주차장"},{"name":"주식회사 지티엘파킹(가보프라자)","tel":"02-980-3300","addr":"경기도 의왕시 왕곡동 596-1번지 덕우빌딩 502호","category":"용역 서비스 - 기타용역서비스"},{"name":"주식회사 지티엘파킹1","tel":"02-980-3300","addr":"경기도 의왕시 왕곡동 596-1번지 덕우빌딩 502호","category":"용역 서비스 - 기타용역서비스"},{"name":"주식회사 지티엘파킹3","tel":"02-980-3300","addr":"경기도 의왕시 왕곡동 596-1번지 덕우빌딩 502호","category":"용역 서비스 - 기타용역서비스"},{"name":"주식회사 지티엘파킹4","tel":"02-980-3300","addr":"경기도 의왕시 왕곡동 596-1번지 덕우빌딩 502호","category":"용역 서비스 - 기타용역서비스"},{"name":"킥앤점프","tel":"031-477-0907","addr":"경기도 의왕시 왕곡동 596-1번지 덕우빌딩 2층","category":"레저업소 - 기타레져업소"}]},{"lat":"37.3325926455","long":"126.9810029513","items":[{"name":"무진실업","tel":"031-421-5447","addr":"경기도 의왕시 왕곡동 535번지","category":"문화.취미 - 화원"},{"name":"선인장사랑","tel":"031-427-6666","addr":"경기도 의왕시 왕곡동 535번지 선인장사랑","category":"문화.취미 - 화원"}]},{"lat":"37.3468910516","long":"126.9772857742","items":[{"name":"바다","tel":"031-477-9290","addr":"경기도 의왕시 왕곡동 297-22번지","category":"음료식품 - 농·축·수산품"}]},{"lat":"37.3449200346","long":"126.9913707518","items":[{"name":"백운매운탕","tel":"031-429-1449","addr":"경기도 의왕시 왕곡동 108번지","category":"일반휴게음식 - 일반한식"}]},{"lat":"37.3443069363","long":"126.9877595137","items":[{"name":"백운산곤드레밥해신탕","tel":"031-457-4286","addr":"경기도 의왕시 왕곡동 136번지","category":"일반휴게음식 - 일반한식"}]},{"lat":"37.3444508688","long":"126.9860553843","items":[{"name":"벨라포스트","tel":"070-4800-4000","addr":"경기도 의왕시 왕곡동 137-4번지","category":"일반휴게음식 - 서양음식"}]},{"lat":"37.3465842752","long":"126.9753673004","items":[{"name":"보쉬카의왕점","tel":"031-453-0333","addr":"경기도 의왕시 왕곡동 597-2번지 1층","category":"자동차정비 유지 - 자동차정비"}]},{"lat":"37.3462870413","long":"126.9758075515","items":[{"name":"보육사","tel":"031-465-0016","addr":"경기도 의왕시 왕곡동 596-9번지 2층 201호","category":"서적문구 - 기타서적문구"}]},{"lat":"37.3462872370","long":"126.9766765510","items":[{"name":"봉선술.zip","tel":"031-429-8252","addr":"경기도 의왕시 왕곡동 594-7번지","category":"일반휴게음식 - 주점"}]},{"lat":"37.3446131339","long":"126.9866421919","items":[{"name":"봉평고향메밀촌","tel":"031-452-9994","addr":"경기도 의왕시 왕곡동 137-3번지","category":"일반휴게음식 - 일반한식"}]},{"lat":"37.3458101904","long":"126.9790015579","items":[{"name":"붕붕어린이집[아이행복]","tel":"031-477-3393","addr":"경기도 의왕시 왕곡동 603번지 충무아파트","category":"학원 - 유아원"}]},{"lat":"37.3372327828","long":"126.9804261030","items":[{"name":"산정","tel":"031-429-9300","addr":"경기도 의왕시 왕곡동 469-1번지","category":"일반휴게음식 - 일반한식"}]},{"lat":"37.3477578550","long":"126.9879506820","items":[{"name":"삼주이나바코리아","tel":"031-453-2384","addr":"경기도 의왕시 왕곡동 196번지","category":"가구 - 철제가구"}]},{"lat":"37.3454513641","long":"126.9888652712","items":[{"name":"샘물복지용구","tel":"031-346-2007","addr":"경기도 의왕시 왕곡동 182-12번지 샘물복지용구","category":"보건위생 - 의료용품"},{"name":"샘물의료기","tel":"","addr":"경기도 의왕시 왕곡동 182-12번지 1층","category":"보건위생 - 의료용품"}]},{"lat":"37.3434512383","long":"126.9900280274","items":[{"name":"서현농원8번가","tel":"031-427-0892","addr":"경기도 의왕시 왕곡동 128-2번지 2층","category":"일반휴게음식 - 일반한식"},{"name":"왕서현목장마켓정육점","tel":"031-427-0892","addr":"경기도 의왕시 왕곡동 128-2번지","category":"음료식품 - 정육점"}]},{"lat":"37.3431700649","long":"126.9782914240","items":[{"name":"솔거유통","tel":"","addr":"경기도 의왕시 왕곡동 600번지 솔거아파트","category":"음료식품 - 기타음료식품"},{"name":"참참 꽃선물 자판기","tel":"031-454-5149","addr":"경기도 의왕시 왕곡동 600번지 솔거아파트","category":"문화.취미 - 화원"}]},{"lat":"37.3471434666","long":"126.9778951236","items":[{"name":"수미용실","tel":"031-452-4432","addr":"경기도 의왕시 왕곡동 294-16번지 1층","category":"보건위생 - 미용원"}]},{"lat":"37.3468369489","long":"126.9770939341","items":[{"name":"수성화원","tel":"031-457-5004","addr":"경기도 의왕시 왕곡동 304-4번지","category":"문화.취미 - 화원"}]},{"lat":"37.3450014455","long":"126.9953319554","items":[{"name":"수현농원","tel":"","addr":"경기도 의왕시 왕곡동 53-2번지 1층","category":"음료식품 - 농·축·수산품"},{"name":"왕곡 농원","tel":"","addr":"경기도 의왕시 왕곡동 53-2번지","category":"음료식품 - 농·축·수산품"}]},{"lat":"37.3460377611","long":"126.9981419836","items":[{"name":"숲속어린이집[아이행복]","tel":"031-453-3856","addr":"경기도 의왕시 왕곡동 39번지","category":"학원 - 유아원"}]},{"lat":"37.3457304072","long":"126.9867322362","items":[{"name":"스튜디오엘씨에이(STUDIO LCA)","tel":"02-111-1111","addr":"경기도 의왕시 왕곡동 234번지 B동","category":"광학제품 - 사진관"}]},{"lat":"37.3347279240","long":"126.9802801572","items":[{"name":"승진산업","tel":"031-456-4100","addr":"경기도 의왕시 왕곡동 485-3번지","category":"건축자재 - 건축용 요업제품"}]},{"lat":"37.3436204955","long":"126.9779188619","items":[{"name":"신아IT","tel":"","addr":"경기도 의왕시 왕곡동 600번지 솔거아파트","category":"용역 서비스 - 사무서비스"},{"name":"자연사랑어린이집[아이행복]","tel":"031-456-7447","addr":"경기도 의왕시 왕곡동 600번지 솔거아파트","category":"학원 - 유아원"}]},{"lat":"37.3463260284","long":"126.9968666798","items":[{"name":"신영공조","tel":"031-309-3133","addr":"경기도 의왕시 왕곡동 23번지 비동","category":"자동차정비 유지 - 자동차부품"}]},{"lat":"37.3454221166","long":"126.9760335737","items":[{"name":"쌍용자동차의왕서비스프라자","tel":"031-452-5581","addr":"경기도 의왕시 왕곡동 597-9번지","category":"자동차정비 유지 - 자동차부품"}]},{"lat":"37.3467825433","long":"126.9755590864","items":[{"name":"쓰리코당구장","tel":"031-429-8805","addr":"경기도 의왕시 왕곡동 596번지 4층","category":"레저업소 - 당 구 장"},{"name":"파브노래연습장","tel":"031-458-6092","addr":"경기도 의왕시 왕곡동 596번지","category":"레저업소 - 노 래 방"}]},{"lat":"37.3458095921","long":"126.9762027203","items":[{"name":"씨유의왕왕곡점","tel":"031-898-6568","addr":"경기도 의왕시 왕곡동 596-6번지","category":"유통업 영리 - 편 의 점"},{"name":"에이.엔.디 경기점/AND전자저울","tel":"031-456-6886","addr":"경기도 의왕시 왕곡동 596-6번지","category":"기타 - 기계공구"},{"name":"차세대멀티샵","tel":"031-458-4613","addr":"경기도 의왕시 왕곡동 596-6번지","category":"자동차정비 유지 - 자동차부품"},{"name":"태양","tel":"031-427-6772","addr":"경기도 의왕시 왕곡동 596-6번지","category":"자동차정비 유지 - 카인테리어"}]},{"lat":"37.3451713012","long":"126.9835611189","items":[{"name":"아름다운 커피처럼","tel":"031-429-3432","addr":"경기도 의왕시 왕곡동 343-2번지 1층","category":"일반휴게음식 - 서양음식"}]},{"lat":"37.3446926507","long":"126.9776589411","items":[{"name":"아이붐붐","tel":"","addr":"경기도 의왕시 왕곡동 599번지 원효아파트","category":"학원 - 기타 교육기관"}]},{"lat":"37.3469188998","long":"126.9813937969","items":[{"name":"에벤에셀 아동 발달센터","tel":"031-424-7605","addr":"경기도 의왕시 왕곡동 592번지 인스빌아파트1단지","category":"보건위생 - 기타대인서비스"}]},{"lat":"37.3464769199","long":"126.9788884894","items":[{"name":"엘케이(LK)시스템","tel":"031-458-7403","addr":"경기도 의왕시 왕곡동 593번지 인스빌아파트2단지","category":"용역 서비스 - 기타용역서비스"}]},{"lat":"37.3466415111","long":"127.0003878121","items":[{"name":"엠.케이.플라워","tel":"031-452-8708","addr":"경기도 의왕시 왕곡동 10-19","category":"문화.취미 - 화원"}]},{"lat":"37.3462539176","long":"126.9963136861","items":[{"name":"오창과학상사","tel":"031-466-5503","addr":"경기도 의왕시 왕곡동 21-1번지 2층","category":"서적문구 - 과학기자재"}]},{"lat":"37.3476122577","long":"126.9791702757","items":[{"name":"왕곡어린이집[아이행복]","tel":"031-455-0888","addr":"경기도 의왕시 왕곡동 591번지","category":"학원 - 유아원"}]},{"lat":"37.3454244259","long":"126.9896665523","items":[{"name":"왕곡자전거","tel":"031-478-6896","addr":"경기도 의왕시 왕곡동 180-1번지","category":"레져용품 - 스포츠·레져용품"}]},{"lat":"37.3469809443","long":"126.9763377355","items":[{"name":"왕곡점현대자동차","tel":"031-429-4442","addr":"경기도 의왕시 왕곡동 565-4","category":"자동차정비 유지 - 자동차정비"}]},{"lat":"37.3453419552","long":"126.9805026866","items":[{"name":"왕곡초등학교","tel":"031-459-2156","addr":"경기도 의왕시 왕곡동 604번지 왕곡초등학교","category":"학원 - 초중고교육기관"}]},{"lat":"37.3454778102","long":"126.9845880288","items":[{"name":"우정","tel":"031-453-2481","addr":"경기도 의왕시 왕곡동 247-1번지","category":"일반휴게음식 - 일반한식"}]},{"lat":"37.3461456167","long":"126.9936389877","items":[{"name":"유스팜 (YouthFarm)","tel":"","addr":"경기도 의왕시 왕곡동 80-2번지","category":"음료식품 - 농·축·수산품"}]},{"lat":"37.3464221105","long":"126.9754463597","items":[{"name":"의왕도시공사/청소년수련관","tel":"031-477-1881","addr":"경기도 의왕시 왕곡동 597-3번지","category":"회원제형태 - 학원"},{"name":"의왕도시공사/청소년지원센터","tel":"031-458-5037","addr":"경기도 의왕시 왕곡동 597-3번지","category":"보건위생 - 기타대인서비스"}]},{"lat":"37.3456763074","long":"126.9864501074","items":[{"name":"의왕조리센터/주식회사 휴먼에코푸드 의왕","tel":"031-111-1111","addr":"경기도 의왕시 왕곡동 235-1번지","category":"일반휴게음식 - 일반한식"}]},{"lat":"37.3452060716","long":"126.9769252088","items":[{"name":"이오엠 텔레콤","tel":"02-2203-7711","addr":"경기도 의왕시 왕곡동 599번지 원효아파트","category":"사무통신 - 통신기기"}]},{"lat":"37.3437288184","long":"126.9788893640","items":[{"name":"자연유치원[아이행복]","tel":"031-477-8820","addr":"경기도 의왕시 왕곡동 602-1","category":"학원 - 유치원"}]},{"lat":"37.3460349323","long":"126.9765863533","items":[{"name":"장원한우곱창","tel":"031-453-8815","addr":"경기도 의왕시 왕곡동 595번지 105-1호","category":"일반휴게음식 - 일반한식"},{"name":"크린토피아","tel":"070-8812-0078","addr":"경기도 의왕시 왕곡동 595번지 105호","category":"수리서비스 - 세탁소"}]},{"lat":"37.3475596526","long":"126.9881200098","items":[{"name":"조은애드","tel":"031-451-3551","addr":"경기도 의왕시 왕곡동 197번지","category":"용역 서비스 - 종합용역"}]},{"lat":"37.3433424671","long":"126.9850286724","items":[{"name":"주식회사명가에프앤씨/명가","tel":"031-455-4259","addr":"경기도 의왕시 왕곡동 142-1번지","category":"일반휴게음식 - 일반한식"}]},{"lat":"37.3287816124","long":"126.9825611231","items":[{"name":"지지힐","tel":"031-459-8588","addr":"경기도 의왕시 왕곡동 557-2번지 1층","category":"일반휴게음식 - 서양음식"}]},{"lat":"37.3392875414","long":"126.9828629778","items":[{"name":"진로석수/해광유통","tel":"031-456-2349","addr":"경기도 의왕시 왕곡동 441번지","category":"음료식품 - 기타음료식품"}]},{"lat":"37.3450907475","long":"126.9871950799","items":[{"name":"참중나무","tel":"031-455-2835","addr":"경기도 의왕시 왕곡동 147-4번지","category":"일반휴게음식 - 일반한식"}]},{"lat":"37.3344218449","long":"126.9817245923","items":[{"name":"창대개발 (주)","tel":"031-247-7330","addr":"경기도 의왕시 왕곡동 482-2번지","category":"용역 서비스 - 기타용역서비스"}]},{"lat":"37.3466203811","long":"126.9756494312","items":[{"name":"코콤중부광역센터","tel":"031-241-6781","addr":"경기도 의왕시 왕곡동 596-11번지 302호","category":"수리서비스 - 사무·통신기기수리"},{"name":"한텍코포레이션","tel":"031-341-4665","addr":"경기도 의왕시 왕곡동 596-11번지 공가빌딩 301호","category":"서적문구 - 과학기자재"},{"name":"화차이","tel":"031-459-8255","addr":"경기도 의왕시 왕곡동 596-11번지 2층","category":"일반휴게음식 - 중국식"}]},{"lat":"37.3463681791","long":"126.9760106654","items":[{"name":"콜마트","tel":"","addr":"경기도 의왕시 왕곡동 596-3번지 1층","category":"유통업 영리 - 슈퍼마켓"}]},{"lat":"37.3462539383","long":"126.9966974000","items":[{"name":"테이크커피","tel":"031-453-0982","addr":"경기도 의왕시 왕곡동 23번지 C호","category":"일반휴게음식 - 서양음식"}]},{"lat":"37.3452255516","long":"126.9847573732","items":[{"name":"포도나무","tel":"031-429-3224","addr":"경기도 의왕시 왕곡동 246","category":"문화.취미 - 화원"}]},{"lat":"37.3444588701","long":"126.9800402460","items":[{"name":"포은천사어린이집[아이행복]","tel":"031-344-5400","addr":"경기도 의왕시 왕곡동 602번지 포은아파트","category":"학원 - 유아원"}]},{"lat":"37.3466144705","long":"126.9999476685","items":[{"name":"푼푼","tel":"","addr":"경기도 의왕시 왕곡동 10-20번지","category":"일반휴게음식 - 서양음식"}]},{"lat":"37.3466479478","long":"126.9780871458","items":[{"name":"한우리영어학원","tel":"031-454-2335","addr":"경기도 의왕시 왕곡동 296-2번지 한우리유치원 305호","category":"회원제형태 - 학원"},{"name":"한우리유치원[아이행복]","tel":"031-454-2336","addr":"경기도 의왕시 왕곡동 296-2","category":"학원 - 유치원"}]},{"lat":"37.3463416258","long":"126.9782001038","items":[{"name":"행복한해적","tel":"031-459-1177","addr":"경기도 의왕시 왕곡동 300-1번지","category":"일반휴게음식 - 일반한식"}]},{"lat":"37.3400889120","long":"126.9799174373","items":[{"name":"향순국푸드","tel":"031-796-2554","addr":"경기도 의왕시 왕곡동 380번지","category":"음료식품 - 기타음료식품"}]},{"lat":"37.3455591563","long":"126.9863147057","items":[{"name":"황가네","tel":"031-429-1988","addr":"경기도 의왕시 왕곡동 237-1번지","category":"일반휴게음식 - 일반한식"}]},{"lat":"37.3376742602","long":"126.9803131274","items":[{"name":"흥덕상사","tel":"031-454-0448","addr":"경기도 의왕시 왕곡동 468-8번지","category":"자동차정비 유지 - 자동차부품"}]}]