[{"lat":"37.302319806","long":"127.01430773","imageIndex":13,"items":[{"name":"123당구클럽","tel":"031-242-6688","addr":"경기도 수원시 장안구 조원동 729-16번지 영재빌딩 301호","indutype":"레저업소 - 당 구 장","category":"leisure"},{"name":"베스트노래연습장","tel":"031-257-3578","addr":"경기도 수원시 장안구 조원동 729-16번지 영재빌딩 지층","indutype":"레저업소 - 노 래 방","category":"leisure"}]},{"lat":"37.303068095","long":"127.00803659","imageIndex":13,"items":[{"name":"KS스포츠센터","tel":"031-207-6969","addr":"경기도 수원시 장안구 조원동 894번지 일호골든타워 5층 501호","indutype":"레저업소 - 골프연습장","category":"leisure"},{"name":"나인노래연습장","tel":"031-303-1400","addr":"경기도 수원시 장안구 조원동 894번지 일호골든타워 218호","indutype":"레저업소 - 노 래 방","category":"leisure"},{"name":"수원조원동 점핑다이어트","tel":"031-244-6113","addr":"경기도 수원시 장안구 조원동 894번지 일호골든타워 6층 613호","indutype":"레저업소 - 헬스클럽","category":"leisure"},{"name":"케이에스(KS)스포츠센타","tel":"031-207-6969","addr":"경기도 수원시 장안구 조원동 894번지","indutype":"레저업소 - 골프연습장","category":"leisure"},{"name":"태풍복싱체육관","tel":"031-245-1006","addr":"경기도 수원시 장안구 조원동 894번지 일호골든타워 615호","indutype":"레저업소 - 헬스클럽","category":"leisure"},{"name":"토니PC방","tel":"","addr":"경기도 수원시 장안구 조원동 894번지 일호골든타워 510호~512호","indutype":"레저업소 - 기타레져업소","category":"leisure"},{"name":"퍼니플레이짐","tel":"031-242-8015","addr":"경기도 수원시 장안구 조원동 894번지 일호골든타워 612호~613호","indutype":"레저업소 - 기타레져업소","category":"leisure"}]},{"lat":"37.299787598","long":"127.01734134","imageIndex":13,"items":[{"name":"PC네오 PC방","tel":"","addr":"경기도 수원시 장안구 조원동 739-24번지 2층","indutype":"레저업소 - 기타레져업소","category":"leisure"},{"name":"록키당구장","tel":"031-254-7139","addr":"경기도 수원시 장안구 조원동 739-24번지 3층","indutype":"레저업소 - 당 구 장","category":"leisure"}]},{"lat":"37.299986074","long":"127.01511945","imageIndex":13,"items":[{"name":"general PC방","tel":"070-9356-1724","addr":"경기도 수원시 장안구 조원동 766-1번지","indutype":"레저업소 - 기타레져업소","category":"leisure"}]},{"lat":"37.299454237","long":"127.01719465","imageIndex":13,"items":[{"name":"갤럭시PC","tel":"02-222-2222","addr":"경기도 수원시 장안구 조원동 740번지 2층","indutype":"레저업소 - 기타레져업소","category":"leisure"}]},{"lat":"37.295066908","long":"127.00986309","imageIndex":13,"items":[{"name":"경진스크린골프","tel":"031-241-7579","addr":"경기도 수원시 장안구 조원동 675-4번지 조원샤르망 2층 201호~204호.214호","indutype":"레저업소 - 스크린골프","category":"leisure"}]},{"lat":"37.302094356","long":"127.01616875","imageIndex":13,"items":[{"name":"굿샷골프아카데미","tel":"031-247-7907","addr":"경기도 수원시 장안구 조원동 731-15번지 메가타워 301호","indutype":"레저업소 - 골프연습장","category":"leisure"}]},{"lat":"37.301815264","long":"127.01398057","imageIndex":13,"items":[{"name":"길목노래연습장","tel":"031-244-0505","addr":"경기도 수원시 장안구 조원동 745-24번지","indutype":"레저업소 - 노 래 방","category":"leisure"}]},{"lat":"37.304428422","long":"127.01172506","imageIndex":13,"items":[{"name":"당근PC방","tel":"070-8714-1919","addr":"경기도 수원시 장안구 조원동 288-7번지","indutype":"레저업소 - 기타레져업소","category":"leisure"},{"name":"보디가드노래연습장","tel":"031-251-3404","addr":"경기도 수원시 장안구 조원동 288-7번지 조원빌딩 지층","indutype":"레저업소 - 노 래 방","category":"leisure"}]},{"lat":"37.303202782","long":"127.01458985","imageIndex":13,"items":[{"name":"독도당구장","tel":"031-242-1945","addr":"경기도 수원시 장안구 조원동 726-16번지 2층","indutype":"레저업소 - 당 구 장","category":"leisure"}]},{"lat":"37.302067904","long":"127.00917571","imageIndex":13,"items":[{"name":"두드락노래연습장","tel":"031-241-1121","addr":"경기도 수원시 장안구 조원동 898-1번지 메가플러스 206호","indutype":"레저업소 - 노 래 방","category":"leisure"},{"name":"잇서블짐","tel":"031-242-9363","addr":"경기도 수원시 장안구 조원동 898-1번지 메가플러스2차 602호","indutype":"레저업소 - 헬스클럽","category":"leisure"},{"name":"플러스당구장","tel":"031-247-0147","addr":"경기도 수원시 장안구 조원동 898-1번지 메가플러스Ⅱ 603호","indutype":"레저업소 - 당 구 장","category":"leisure"}]},{"lat":"37.30342853","long":"127.00739369","imageIndex":13,"items":[{"name":"듀 (Dew)요가&필라테스","tel":"","addr":"경기도 수원시 장안구 조원동 893번지 아울렛쇼핑타운 1동 253호","indutype":"레저업소 - 헬스클럽","category":"leisure"},{"name":"몽키몽키 키즈카페","tel":"031-252-1250","addr":"경기도 수원시 장안구 조원동 893번지 북수원패션아울렛 212,213,214호","indutype":"레저업소 - 기타레져업소","category":"leisure"},{"name":"바우짐","tel":"03-111-1111","addr":"경기도 수원시 장안구 조원동 893번지 3층","indutype":"레저업소 - 헬스클럽","category":"leisure"},{"name":"아울렛당구장","tel":"031-241-7995","addr":"경기도 수원시 장안구 조원동 893번지 아울렛쇼핑타운 215~217호","indutype":"레저업소 - 당 구 장","category":"leisure"},{"name":"지큐브","tel":"031-252-5840","addr":"경기도 수원시 장안구 조원동 893번지","indutype":"레저업소 - 기타레져업소","category":"leisure"},{"name":"질러노래연습장","tel":"032-257-6333","addr":"경기도 수원시 장안구 조원동 893번지 아울렛쇼핑타운 328호,329호,330호","indutype":"레저업소 - 노 래 방","category":"leisure"},{"name":"커브스조원클럽","tel":"031-878-6878","addr":"경기도 수원시 장안구 조원동 893번지 아울렛쇼핑타운 228.229호","indutype":"레저업소 - 헬스클럽","category":"leisure"},{"name":"트램폴린파크(북수원)","tel":"031-246-6292","addr":"경기도 수원시 장안구 조원동 893번지 아일렛쇼핑타운 4층 433호","indutype":"레저업소 - 기타레져업소","category":"leisure"}]},{"lat":"37.30201379","long":"127.01008931","imageIndex":13,"items":[{"name":"드림뮤직뱅크 노래연습장","tel":"031-252-5256","addr":"경기도 수원시 장안구 조원동 752번지 3층 303호,304호,305호","indutype":"레저업소 - 노 래 방","category":"leisure"},{"name":"뫼비우스 주짓수 북수원점","tel":"031-252-3850","addr":"경기도 수원시 장안구 조원동 752번지 종영빌딩 401호,402호","indutype":"레저업소 - 헬스클럽","category":"leisure"}]},{"lat":"37.300626001","long":"127.01299913","imageIndex":13,"items":[{"name":"명품노래연습장","tel":"031-253-0767","addr":"경기도 수원시 장안구 조원동 759-17번지 2층","indutype":"레저업소 - 노 래 방","category":"leisure"},{"name":"킹당구클럽","tel":"031-247-3456","addr":"경기도 수원시 장안구 조원동 759-17번지 치환빌딩 3층","indutype":"레저업소 - 당 구 장","category":"leisure"}]},{"lat":"37.300067299","long":"127.01375473","imageIndex":13,"items":[{"name":"반포휘트니스","tel":"031-595-7095","addr":"경기도 수원시 장안구 조원동 759-27번지 삼일빌라 202호","indutype":"레저업소 - 헬스클럽","category":"leisure"}]},{"lat":"37.301067362","long":"127.01453312","imageIndex":13,"items":[{"name":"방가방가 노래연습장","tel":"031-251-8026","addr":"경기도 수원시 장안구 조원동 744-5번지 현진빌라 지층","indutype":"레저업소 - 노 래 방","category":"leisure"}]},{"lat":"37.297291346","long":"127.02041986","imageIndex":13,"items":[{"name":"벽산노래연습장","tel":"031-245-8256","addr":"경기도 수원시 장안구 조원동 519-287번지","indutype":"레저업소 - 노 래 방","category":"leisure"}]},{"lat":"37.300706877","long":"127.01527748","imageIndex":13,"items":[{"name":"샹떼PC방","tel":"070-9313-7089","addr":"경기도 수원시 장안구 조원동 743-7번지 2층","indutype":"레저업소 - 기타레져업소","category":"leisure"}]},{"lat":"37.300896068","long":"127.01550309","imageIndex":13,"items":[{"name":"신나는노래연습장","tel":"031-253-4590","addr":"경기도 수원시 장안구 조원동 743-5번지","indutype":"레저업소 - 노 래 방","category":"leisure"}]},{"lat":"37.301563303","long":"127.00967194","imageIndex":13,"items":[{"name":"쓰리팝피씨 (3POP PC) 수원야구장점","tel":"070-3332-0378","addr":"경기도 수원시 장안구 조원동 752-18번지 지하1층","indutype":"레저업소 - 기타레져업소","category":"leisure"}]},{"lat":"37.302680053","long":"127.01588688","imageIndex":13,"items":[{"name":"영웅헬스클럽","tel":"031-246-1825","addr":"경기도 수원시 장안구 조원동 731-6번지 4층","indutype":"레저업소 - 헬스클럽","category":"leisure"}]},{"lat":"37.300121027","long":"127.01692409","imageIndex":13,"items":[{"name":"오삼당구장","tel":"","addr":"경기도 수원시 장안구 조원동 734-17번지 지하1층","indutype":"레저업소 - 당 구 장","category":"leisure"}]},{"lat":"37.300454624","long":"127.01495035","imageIndex":13,"items":[{"name":"조원노래연습장","tel":"031-254-3185","addr":"경기도 수원시 장안구 조원동 743-9번지 지하","indutype":"레저업소 - 노 래 방","category":"leisure"},{"name":"조원종합격투기","tel":"031-257-1480","addr":"경기도 수원시 장안구 조원동 743-9번지 3층","indutype":"레저업소 - 헬스클럽","category":"leisure"}]},{"lat":"37.300202133","long":"127.01681131","imageIndex":13,"items":[{"name":"준노래연습장","tel":"031-242-2270","addr":"경기도 수원시 장안구 조원동 734-18번지 2층","indutype":"레저업소 - 노 래 방","category":"leisure"}]},{"lat":"37.295904793","long":"127.01092331","imageIndex":13,"items":[{"name":"치치노래연습장","tel":"031-242-3792","addr":"경기도 수원시 장안구 조원동 776-8번지","indutype":"레저업소 - 노 래 방","category":"leisure"}]},{"lat":"37.299733594","long":"127.01686762","imageIndex":13,"items":[{"name":"파랑새노래연습장","tel":"031-246-8939","addr":"경기도 수원시 장안구 조원동 742-8번지","indutype":"레저업소 - 노 래 방","category":"leisure"}]},{"lat":"37.299346091","long":"127.01738637","imageIndex":13,"items":[{"name":"해커 노래연습장","tel":"031-256-0862","addr":"경기도 수원시 장안구 조원동 740-1번지","indutype":"레저업소 - 노 래 방","category":"leisure"}]},{"lat":"37.300319279","long":"127.01669855","imageIndex":13,"items":[{"name":"해피엔딩노래연습장","tel":"031-254-3021","addr":"경기도 수원시 장안구 조원동 734-19번지","indutype":"레저업소 - 노 래 방","category":"leisure"}]},{"lat":"37.299814703","long":"127.01672101","imageIndex":13,"items":[{"name":"허브노래연습장","tel":"031-246-9288","addr":"경기도 수원시 장안구 조원동 742-7번지","indutype":"레저업소 - 노 래 방","category":"leisure"}]}]