[{"lat":"37.214548309","long":"126.97764601","imageIndex":13,"items":[{"name":"BMW노래연습장","tel":"031-226-6701","addr":"경기도 화성시 봉담읍 와우리 62-6","indutype":"레저업소 - 노 래 방","category":"leisure"},{"name":"게임창고pc방 3호점","tel":"031-772-0731","addr":"경기도 화성시 봉담읍 와우리 62-6번지 2층","indutype":"레저업소 - 기타레져업소","category":"leisure"},{"name":"벅스당구장","tel":"","addr":"경기도 화성시 봉담읍 와우리 62-6번지 삼성빌딩 3층","indutype":"레저업소 - 당 구 장","category":"leisure"}]},{"lat":"37.215908596","long":"126.97637247","imageIndex":13,"items":[{"name":"KBS노래연습장","tel":"031-222-3496","addr":"경기도 화성시 봉담읍 와우리 75-3번지 지하1층","indutype":"레저업소 - 노 래 방","category":"leisure"},{"name":"바디스톤","tel":"031-898-8788","addr":"경기도 화성시 봉담읍 와우리 75-3번지","indutype":"레저업소 - 헬스클럽","category":"leisure"}]},{"lat":"37.220602557","long":"126.97447798","imageIndex":13,"items":[{"name":"S노래연습장","tel":"031-221-6084","addr":"경기도 화성시 봉담읍 와우리 153번지 2층 1호","indutype":"레저업소 - 노 래 방","category":"leisure"}]},{"lat":"37.215413064","long":"126.97654164","imageIndex":13,"items":[{"name":"가빈","tel":"031-898-8468","addr":"경기도 화성시 봉담읍 와우리 72-3번지","indutype":"레저업소 - 노 래 방","category":"leisure"},{"name":"맥스당구클럽","tel":"070-4067-7936","addr":"경기도 화성시 봉담읍 와우리 72-3번지 시라빌딩 2층 2호","indutype":"레저업소 - 당 구 장","category":"leisure"},{"name":"킹노래방","tel":"","addr":"경기도 화성시 봉담읍 와우리 72-3번지 시라빌딩 301호","indutype":"레저업소 - 노 래 방","category":"leisure"}]},{"lat":"37.214188211","long":"126.97917831","imageIndex":13,"items":[{"name":"게임창고PC방","tel":"070-4641-6352","addr":"경기도 화성시 봉담읍 와우리 43-10번지 2층","indutype":"레저업소 - 기타레져업소","category":"leisure"}]},{"lat":"37.213961803","long":"126.9740073","imageIndex":13,"items":[{"name":"게임창고PC방2호점","tel":"070-4641-6352","addr":"경기도 화성시 봉담읍 와우리 26-12번지 태천빌딩 307,308,309호","indutype":"레저업소 - 기타레져업소","category":"leisure"},{"name":"토마토당구장","tel":"02-1111-1111","addr":"경기도 화성시 봉담읍 와우리 26-12번지 태천빌딩 3층 305,306호","indutype":"레저업소 - 당 구 장","category":"leisure"},{"name":"피크바이짐 화성봉담점","tel":"031-233-9996","addr":"경기도 화성시 봉담읍 와우리 26-12번지 1층 110,111,112호","indutype":"레저업소 - 헬스클럽","category":"leisure"}]},{"lat":"37.215187963","long":"126.97726275","imageIndex":13,"items":[{"name":"고래노래연습장","tel":"031-267-0580","addr":"경기도 화성시 봉담읍 와우리 59-1번지 2층 3층","indutype":"레저업소 - 노 래 방","category":"leisure"}]},{"lat":"37.216268756","long":"126.97525698","imageIndex":13,"items":[{"name":"고래당구장","tel":"","addr":"경기도 화성시 봉담읍 와우리 79-5번지 3층","indutype":"레저업소 - 당 구 장","category":"leisure"},{"name":"와우트레이닝","tel":"","addr":"경기도 화성시 봉담읍 와우리 79-5번지","indutype":"레저업소 - 헬스클럽","category":"leisure"}]},{"lat":"37.216521046","long":"126.97525689","imageIndex":13,"items":[{"name":"그린노래연습장","tel":"031-223-1268","addr":"경기도 화성시 봉담읍 와우리 82-1번지 지하1층","indutype":"레저업소 - 노 래 방","category":"leisure"},{"name":"브이알엠피코리아","tel":"031-1899-9399","addr":"경기도 화성시 봉담읍 와우리 82-1번지 1층 1호","indutype":"레저업소 - 기타레져업소","category":"leisure"},{"name":"영광당구장","tel":"031-236-1380","addr":"경기도 화성시 봉담읍 와우리 82-1번지 2층","indutype":"레저업소 - 당 구 장","category":"leisure"}]},{"lat":"37.214052422","long":"126.97620413","imageIndex":13,"items":[{"name":"더캠프PC방수원대점","tel":"","addr":"경기도 화성시 봉담읍 와우리 37-12번지 2층","indutype":"레저업소 - 기타레져업소","category":"leisure"}]},{"lat":"37.215575323","long":"126.9768683","imageIndex":13,"items":[{"name":"동광볼링센타","tel":"031-222-7995","addr":"경기도 화성시 봉담읍 와우리 75-7번지","indutype":"레저업소 - 볼 링 장","category":"leisure"},{"name":"동광볼링센타","tel":"031-222-5180","addr":"경기도 화성시 봉담읍 와우리 75-7번지 4층","indutype":"레저업소 - 볼 링 장","category":"leisure"},{"name":"엔학고레 화성점","tel":"031-907-8941","addr":"경기도 화성시 봉담읍 와우리 75-7번지","indutype":"레저업소 - 기타레져업소","category":"leisure"},{"name":"오뚜기노래방","tel":"031-222-1173","addr":"경기도 화성시 봉담읍 와우리 75-7","indutype":"레저업소 - 노 래 방","category":"leisure"},{"name":"학사당구장","tel":"031-245-7678","addr":"경기도 화성시 봉담읍 와우리 75-7번지 2층","indutype":"레저업소 - 당 구 장","category":"leisure"}]},{"lat":"37.214080129","long":"126.9793924","imageIndex":13,"items":[{"name":"락당구장","tel":"","addr":"경기도 화성시 봉담읍 와우리 43-7번지 지하1층","indutype":"레저업소 - 당 구 장","category":"leisure"}]},{"lat":"37.215241909","long":"126.97673322","imageIndex":13,"items":[{"name":"럭셔리 동전노래연습장","tel":"031-0000-0000","addr":"경기도 화성시 봉담읍 와우리 69-4번지","indutype":"레저업소 - 노 래 방","category":"leisure"},{"name":"포인트","tel":"031-410-2400","addr":"경기도 화성시 봉담읍 와우리 69-4번지","indutype":"레저업소 - 노 래 방","category":"leisure"}]},{"lat":"37.2140776","long":"126.96896009","imageIndex":13,"items":[{"name":"로얄바디 피트니스","tel":"031-2084-0644","addr":"경기도 화성시 봉담읍 와우리 221-75번지 도원프라자 5층 508호","indutype":"레저업소 - 헬스클럽","category":"leisure"},{"name":"필라테스주스튜디오","tel":"","addr":"경기도 화성시 봉담읍 와우리 221-75번지 3층 305호","indutype":"레저업소 - 헬스클럽","category":"leisure"}]},{"lat":"37.212906755","long":"126.97076315","imageIndex":13,"items":[{"name":"록키바디짐(ROCKY BODY BYM)","tel":"031-221-8041","addr":"경기도 화성시 봉담읍 와우리 590번지 봉담아이파크","indutype":"레저업소 - 헬스클럽","category":"leisure"}]},{"lat":"37.214827793","long":"126.97842328","imageIndex":13,"items":[{"name":"맥스피드PC방","tel":"070-5020-5323","addr":"경기도 화성시 봉담읍 와우리 45-13번지 5동 2층","indutype":"레저업소 - 기타레져업소","category":"leisure"}]},{"lat":"37.215025623","long":"126.97656431","imageIndex":13,"items":[{"name":"방가방가","tel":"031-000-0000","addr":"경기도 화성시 봉담읍 와우리 69-1번지","indutype":"레저업소 - 노 래 방","category":"leisure"}]},{"lat":"37.215079872","long":"126.97742051","imageIndex":13,"items":[{"name":"벤허노래연습장","tel":"031-376-3938","addr":"경기도 화성시 봉담읍 와우리 59-7번지","indutype":"레저업소 - 노 래 방","category":"leisure"},{"name":"프로대대 전용클럽","tel":"02-6403-1117","addr":"경기도 화성시 봉담읍 와우리 59-7번지 3층","indutype":"레저업소 - 당 구 장","category":"leisure"}]},{"lat":"37.21469241","long":"126.97734178","imageIndex":13,"items":[{"name":"비바노래연습장","tel":"031-226-3913","addr":"경기도 화성시 봉담읍 와우리 63-1번지","indutype":"레저업소 - 노 래 방","category":"leisure"},{"name":"프로당구클럽","tel":"","addr":"경기도 화성시 봉담읍 와우리 63-1번지 2층","indutype":"레저업소 - 당 구 장","category":"leisure"}]},{"lat":"37.216989495","long":"126.97487366","imageIndex":13,"items":[{"name":"빙고노래연습장","tel":"","addr":"경기도 화성시 봉담읍 와우리 91-3번지 지하1층","indutype":"레저업소 - 노 래 방","category":"leisure"}]},{"lat":"37.216385935","long":"126.97544847","imageIndex":13,"items":[{"name":"수빈노래방","tel":"031-225-3380","addr":"경기도 화성시 봉담읍 와우리 82-6번지 지하1층","indutype":"레저업소 - 노 래 방","category":"leisure"}]},{"lat":"37.216268922","long":"126.97597803","imageIndex":13,"items":[{"name":"스카이노래연습장","tel":"031-225-9480","addr":"경기도 화성시 봉담읍 와우리 76-1번지 지하1층","indutype":"레저업소 - 노 래 방","category":"leisure"}]},{"lat":"37.215368007","long":"126.97651912","imageIndex":13,"items":[{"name":"스토리피씨랩 수원대점","tel":"070-4076-7020","addr":"경기도 화성시 봉담읍 와우리 69-1번지 B동 3층","indutype":"레저업소 - 기타레져업소","category":"leisure"}]},{"lat":"37.218601958","long":"126.97326193","imageIndex":13,"items":[{"name":"아름탁구교실","tel":"031-221-3367","addr":"경기도 화성시 봉담읍 와우리 183번지 와우프라자 2층","indutype":"레저업소 - 기타레져업소","category":"leisure"}]},{"lat":"37.214440261","long":"126.97800656","imageIndex":13,"items":[{"name":"와우노래연습장","tel":"031-235-8789","addr":"경기도 화성시 봉담읍 와우리 62-4번지","indutype":"레저업소 - 노 래 방","category":"leisure"}]},{"lat":"37.21880029","long":"126.97367872","imageIndex":13,"items":[{"name":"와우힐스크린골프","tel":"031-898-7300","addr":"경기도 화성시 봉담읍 와우리 182-1번지 와우프라자 2층 201호","indutype":"레저업소 - 스크린골프","category":"leisure"}]},{"lat":"37.214323321","long":"126.97895295","imageIndex":13,"items":[{"name":"정문당구장","tel":"","addr":"경기도 화성시 봉담읍 와우리 43-3번지 3층","indutype":"레저업소 - 당 구 장","category":"leisure"}]},{"lat":"37.214079268","long":"126.97539297","imageIndex":13,"items":[{"name":"토마토노래연습장","tel":"","addr":"경기도 화성시 봉담읍 와우리 31-28번지 토마토오피스텔 지하1층 B101호","indutype":"레저업소 - 노 래 방","category":"leisure"}]},{"lat":"37.214106578","long":"126.97662095","imageIndex":13,"items":[{"name":"피씨스토리(PC STORY)","tel":"070-8614-0626","addr":"경기도 화성시 봉담읍 와우리 38-1번지 2층","indutype":"레저업소 - 기타레져업소","category":"leisure"}]},{"lat":"37.216683298","long":"126.97553849","imageIndex":13,"items":[{"name":"필노래연습장","tel":"031-293-0408","addr":"경기도 화성시 봉담읍 와우리 83-1번지 지층","indutype":"레저업소 - 노 래 방","category":"leisure"}]}]