[{"lat":"37.53081925","long":"127.20703307","items":[{"name":"(사)한국고속도로휴게시설협회하남만남주유","tel":"031-793-5800","addr":"경기도 하남시 천현동 267번지","category":"연료판매점 - SK주유소"},{"name":"(주)신세계푸드하남휴게소","tel":"02-3397-6176","addr":"경기도 하남시 천현동 267번지","category":"일반휴게음식 - 일반한식"},{"name":"레드트리","tel":"031-791-4200","addr":"경기도 하남시 천현동 267번지","category":"일반휴게음식 - 일반한식"},{"name":"주식회사케이알산업하남(만)휴게소","tel":"031-791-4200","addr":"경기도 하남시 천현동 267번지","category":"유통업 영리 - 슈퍼마켓"},{"name":"중부고속도로하남드림휴게소수소충전소/(사","tel":"031-793-5800","addr":"경기도 하남시 천현동 267번지","category":"연료판매점 - 기타연료"},{"name":"탐앤탐스/하남(만)휴게소(커피전문점)","tel":"031-796-6709","addr":"경기도 하남시 천현동 267번지","category":"일반휴게음식 - 서양음식"},{"name":"하남만남충전소","tel":"031-793-5800","addr":"경기도 하남시 천현동 267번지","category":"연료판매점 - SK가스충전소"}]},{"lat":"37.532957015","long":"127.21586362","items":[{"name":"(주) 케이디코프","tel":"02-6927-0137","addr":"경기도 하남시 천현동 89-7번지","category":"레져용품 - 스포츠·레져용품"},{"name":"주식회사 케이디코프","tel":"","addr":"경기도 하남시 천현동 89-7번지","category":"레져용품 - 스포츠·레져용품"}]},{"lat":"37.527956822","long":"127.21064543","items":[{"name":"(주)굿모닝푸드 굿모닝미트샵","tel":"031-793-6676","addr":"경기도 하남시 천현동 342-4번지 1층","category":"음료식품 - 정육점"},{"name":"(주)베스트푸드","tel":"031-793-1245","addr":"경기도 하남시 천현동 342-4번지","category":"음료식품 - 정육점"}]},{"lat":"37.530428485","long":"127.21405761","items":[{"name":"(주)굿팩","tel":"02-431-0303","addr":"경기도 하남시 천현동 415-21번지 4층","category":"유통업 영리 - 기타유통업"}]},{"lat":"37.534511528","long":"127.21317531","items":[{"name":"(주)대진이엔엘","tel":"031-793-1300","addr":"경기도 하남시 천현동 618-6번지","category":"전기제품 - 기타전기제품"},{"name":"미래자동차공업사","tel":"031-794-0209","addr":"경기도 하남시 천현동 618-6번지","category":"자동차정비 유지 - 자동차정비"},{"name":"우소육","tel":"031-795-3240","addr":"경기도 하남시 천현동 618-6번지 102호","category":"음료식품 - 정육점"}]},{"lat":"37.528376362","long":"127.21286395","items":[{"name":"(주)비즈팜","tel":"031-795-0585","addr":"경기도 하남시 천현동 349-2번지 2층","category":"의류 - 정장"}]},{"lat":"37.533711002","long":"127.2223373","items":[{"name":"(주)삼영메디케어","tel":"031-795-7156","addr":"경기도 하남시 천현동 53-11번지","category":"약국 - 제약회사"}]},{"lat":"37.537346181","long":"127.22006244","items":[{"name":"(주)서울푸드서비스 농업회사법인","tel":"031-791-3824","addr":"경기도 하남시 천현동 13-10번지","category":"음료식품 - 기타음료식품"},{"name":"서울푸드","tel":"031-791-3824","addr":"경기도 하남시 천현동 13-10번지","category":"음료식품 - 기타음료식품"}]},{"lat":"37.522934111","long":"127.21802971","items":[{"name":"(주)운강유통하남지점","tel":"031-795-2222","addr":"경기도 하남시 천현동 628번지 하남시마루공원내편의점","category":"유통업 영리 - 슈퍼마켓"},{"name":"한화호텔앤드리조트(주)/마루공원점","tel":"031-792-9042","addr":"경기도 하남시 천현동 628번지","category":"일반휴게음식 - 일반한식"}]},{"lat":"37.53465504","long":"127.21353776","items":[{"name":"(주)장우전기","tel":"031-793-1885","addr":"경기도 하남시 천현동 618-3번지","category":"기타 - 기계공구"},{"name":"스파크 (자동차뷰티샵)","tel":"02-816-5339","addr":"경기도 하남시 천현동 618-3번지 1층 좌측","category":"자동차정비 유지 - 카인테리어"},{"name":"장우전기","tel":"031-793-1885","addr":"경기도 하남시 천현동 618-3번지","category":"전기제품 - 기타전기제품"},{"name":"차나라","tel":"031-795-2047","addr":"경기도 하남시 천현동 618-3번지 1층","category":"자동차정비 유지 - 카인테리어"},{"name":"참렌탈","tel":"031-466-1640","addr":"경기도 하남시 천현동 618-3번지 402호","category":"신변잡화 - 기타잡화"}]},{"lat":"37.532571104","long":"127.21998071","items":[{"name":"(주)진성육가공","tel":"031-791-4404","addr":"경기도 하남시 천현동 62-3번지","category":"음료식품 - 정육점"}]},{"lat":"37.535181524","long":"127.211333","items":[{"name":"(주)코리아세븐하남천현점","tel":"031-791-9817","addr":"경기도 하남시 천현동 610-10번지 1층","category":"유통업 영리 - 편 의 점"}]},{"lat":"37.535513027","long":"127.22230864","items":[{"name":"(주)태원이아이씨","tel":"031-795-5661","addr":"경기도 하남시 천현동 39-5번지 2층","category":"건축자재 - 목재·석재·철물"},{"name":"포차낭만시대","tel":"031-796-8281","addr":"경기도 하남시 천현동 39-5번지 1층","category":"일반휴게음식 - 일반한식"},{"name":"현대노인주야간보호센터","tel":"031-791-1101","addr":"경기도 하남시 천현동 39-5번지 태원빌딩 3층","category":"기타의료기관 - 기타의료기관 및 기타"}]},{"lat":"37.530680372","long":"127.20395544","items":[{"name":"(주)피에이치지","tel":"031-792-4536","addr":"경기도 하남시 천현동 279-4번지","category":"유통업 영리 - 기타유통업"}]},{"lat":"37.532928428","long":"127.22164487","items":[{"name":"(주)하나육가공","tel":"031-792-7963","addr":"경기도 하남시 천현동 53-22번지","category":"음료식품 - 정육점"}]},{"lat":"37.523432033","long":"127.22163976","items":[{"name":"(주)한국투자전략센터","tel":"031-796-7023","addr":"경기도 하남시 천현동 519-9번지","category":"기타 - 기타 전문점"},{"name":"주식회사 도방종합물류","tel":"031-791-2631","addr":"경기도 하남시 천현동 519-9번지 2층","category":"신변잡화 - 기타잡화"}]},{"lat":"37.534790684","long":"127.22314376","items":[{"name":"(주)해강","tel":"031-795-7100","addr":"경기도 하남시 천현동 40-19번지","category":"유통업 영리 - 슈퍼마켓"}]},{"lat":"37.535455883","long":"127.21411704","items":[{"name":"(주)향기마을","tel":"031-793-1164","addr":"경기도 하남시 천현동 620-5번지","category":"신변잡화 - 기타잡화"},{"name":"에디유아스포츠","tel":"070-4405-6544","addr":"경기도 하남시 천현동 620-5번지","category":"학원 - 기타 교육기관"}]},{"lat":"37.534934271","long":"127.22344966","items":[{"name":"24시 전주명가콩나물국밥","tel":"031-792-8959","addr":"경기도 하남시 천현동 40-13번지 1층","category":"일반휴게음식 - 일반한식"},{"name":"교촌치킨신장2호점","tel":"032-792-1992","addr":"경기도 하남시 천현동 40-13번지 1층","category":"일반휴게음식 - 스넥"}]},{"lat":"37.519485391","long":"127.22180923","items":[{"name":"303 하남가구단지(골드무역)","tel":"031-794-5667","addr":"경기도 하남시 천현동 538-1번지","category":"문화.취미 - 민예·공예품"},{"name":"신일토기 무역부","tel":"031-791-2151","addr":"경기도 하남시 천현동 538-1번지","category":"문화.취미 - 민예·공예품"}]},{"lat":"37.534652636","long":"127.22469337","items":[{"name":"Auto.one(오토원)","tel":"031-794-7922","addr":"경기도 하남시 천현동 43-18번지 43-18,43-18","category":"자동차정비 유지 - 카인테리어"},{"name":"그린농축산","tel":"031-793-5500","addr":"경기도 하남시 천현동 43-18번지","category":"음료식품 - 농·축·수산품"}]},{"lat":"37.53479208","long":"127.21247463","items":[{"name":"CM엔지니어링","tel":"031-573-6221","addr":"경기도 하남시 천현동 617-12번지","category":"음료식품 - 기타음료식품"}]},{"lat":"37.534656289","long":"127.2128363","items":[{"name":"City컴","tel":"031-793-4778","addr":"경기도 하남시 천현동 617-9번지 1층","category":"신변잡화 - 기타잡화"},{"name":"디티미디어","tel":"070-8899-9004","addr":"경기도 하남시 천현동 617-9번지 4층","category":"용역 서비스 - 종합용역"}]},{"lat":"37.530101996","long":"127.21017622","items":[{"name":"G&G","tel":"031-791-9394","addr":"경기도 하남시 천현동 378-5번지 2","category":"용역 서비스 - 종합용역"},{"name":"명인","tel":"031-699-8966","addr":"경기도 하남시 천현동 378-5번지 나동 1층","category":"일반휴게음식 - 일반한식"}]},{"lat":"37.530294529","long":"127.21338974","items":[{"name":"G.S.G sports","tel":"031-793-0483","addr":"경기도 하남시 천현동 408-5번지","category":"레져용품 - 골프용품 전문점"},{"name":"자마 주식회사","tel":"031-793-0483","addr":"경기도 하남시 천현동 408-5번지","category":"레져용품 - 스포츠·레져용품"}]},{"lat":"37.536209864","long":"127.21570316","items":[{"name":"GM대우천현정비","tel":"031-794-8295","addr":"경기도 하남시 천현동 132-4번지","category":"자동차정비 유지 - 자동차정비"}]},{"lat":"37.529153573","long":"127.21153117","items":[{"name":"GS25하남샘재점","tel":"","addr":"경기도 하남시 천현동 354-3번지","category":"유통업 영리 - 편 의 점"},{"name":"샘재가정식백반뷔페","tel":"031-796-2796","addr":"경기도 하남시 천현동 354-3번지 1층","category":"일반휴게음식 - 일반한식"},{"name":"신광상사","tel":"031-794-7379","addr":"경기도 하남시 천현동 354-3번지 1층","category":"건축자재 - 기타건축자재"}]},{"lat":"37.534816255","long":"127.2239245","items":[{"name":"GS25하남천현점","tel":"031-793-6603","addr":"경기도 하남시 천현동 43-10번지","category":"유통업 영리 - 편 의 점"},{"name":"더까페하남","tel":"031-791-9954","addr":"경기도 하남시 천현동 43-10번지","category":"일반휴게음식 - 서양음식"}]},{"lat":"37.535681254","long":"127.2089471","items":[{"name":"J.K종합상사","tel":"031-791-5432","addr":"경기도 하남시 천현동 201-3번지","category":"건축자재 - 목재·석재·철물"},{"name":"한빛상재","tel":"031-796-5070","addr":"경기도 하남시 천현동 201-3번지","category":"건축자재 - 기타건축자재"}]},{"lat":"37.528847678","long":"127.20611133","items":[{"name":"LG(신협)","tel":"031-952-0999","addr":"경기도 하남시 천현동 273-1번지 1층","category":"신변잡화 - 기타잡화"}]},{"lat":"37.53462135","long":"127.22214763","items":[{"name":"e메탈","tel":"031-794-5290","addr":"경기도 하남시 천현동 38-1번지","category":"용역 서비스 - 기타용역서비스"},{"name":"현테크,OK방충망","tel":"031-794-6866","addr":"경기도 하남시 천현동 38-1번지","category":"건축자재 - 기타건축자재"}]},{"lat":"37.536294686","long":"127.21362158","items":[{"name":"가디언","tel":"031-796-5990","addr":"경기도 하남시 천현동 613-1번지 1층 예사랑","category":"건축자재 - 조명기구"},{"name":"오돌뼈의진리","tel":"031-794-4887","addr":"경기도 하남시 천현동 613-1번지 1층","category":"음료식품 - 정육점"}]},{"lat":"37.534905637","long":"127.21447754","items":[{"name":"강남재활용","tel":"031-791-0944","addr":"경기도 하남시 천현동 105-1","category":"가구 - 기타가구"},{"name":"동인숯불민물장어","tel":"031-794-4249","addr":"경기도 하남시 천현동 105-1번지 1,2층","category":"일반휴게음식 - 일반한식"},{"name":"참목원식당","tel":"031-796-9556","addr":"경기도 하남시 천현동 105-1번지","category":"일반휴게음식 - 일반한식"}]},{"lat":"37.535456934","long":"127.21352871","items":[{"name":"강하상사","tel":"02-429-1918","addr":"경기도 하남시 천현동 614-11번지","category":"유통업 영리 - 기타유통업"}]},{"lat":"37.535986896","long":"127.20934394","items":[{"name":"건설페인트","tel":"031-794-7704","addr":"경기도 하남시 천현동 205-4번지","category":"건축자재 - 페인트"},{"name":"하남차유리","tel":"031-792-1792","addr":"경기도 하남시 천현동 205-4번지","category":"건축자재 - 유리"}]},{"lat":"37.522603171","long":"127.22161472","items":[{"name":"경기렌탈오에이","tel":"031-795-9900","addr":"경기도 하남시 천현동 525-4번지","category":"사무통신 - 사무용 OA기기"},{"name":"롯데캐논하남광주점","tel":"031-795-9900","addr":"경기도 하남시 천현동 525-4번지","category":"사무통신 - 사무용 OA기기"},{"name":"복지슈퍼","tel":"031-792-4791","addr":"경기도 하남시 천현동 525-4번지","category":"유통업 영리 - 슈퍼마켓"},{"name":"생활라인","tel":"02-474-2488","addr":"경기도 하남시 천현동 525-4번지 2층","category":"레져용품 - 스포츠·레져용품"},{"name":"시골집밥상","tel":"031-792-2586","addr":"경기도 하남시 천현동 525-4번지","category":"일반휴게음식 - 일반한식"}]},{"lat":"37.523766527","long":"127.22102987","items":[{"name":"경원기업","tel":"031-794-6986","addr":"경기도 하남시 천현동 515-1번지","category":"문화.취미 - 화원"}]},{"lat":"37.535235044","long":"127.21163863","items":[{"name":"고골상사","tel":"02-430-0554","addr":"경기도 하남시 천현동 610-1번지","category":"보건위생 - 화장품"}]},{"lat":"37.52168513","long":"127.22109169","items":[{"name":"고구려짬뽕","tel":"031-793-7187","addr":"경기도 하남시 천현동 511-6번지","category":"일반휴게음식 - 중국식"}]},{"lat":"37.533097408","long":"127.22283331","items":[{"name":"곰스","tel":"031-795-9836","addr":"경기도 하남시 천현동 51-6번지 1층","category":"자동차정비 유지 - 자동차시트·타이어"},{"name":"에보","tel":"031-000-0000","addr":"경기도 하남시 천현동 51-6번지 1층 우측","category":"자동차정비 유지 - 자동차부품"}]},{"lat":"37.535510549","long":"127.21377777","items":[{"name":"공원할인마트","tel":"031-795-0802","addr":"경기도 하남시 천현동 614-3번지","category":"유통업 영리 - 슈퍼마켓"}]},{"lat":"37.535262313","long":"127.21150293","items":[{"name":"교학종합기획","tel":"031-792-3073","addr":"경기도 하남시 천현동 610번지","category":"용역 서비스 - 종합용역"},{"name":"다운언더9(Down Under 9)","tel":"02-6409-7975","addr":"경기도 하남시 천현동 610번지","category":"회원제형태 - 기타3"}]},{"lat":"37.518567929","long":"127.21603764","items":[{"name":"국악테마파크","tel":"070-4409-5445","addr":"경기도 하남시 천현동 556번지","category":"레져용품 - 악기점"}]},{"lat":"37.534601014","long":"127.22339211","items":[{"name":"금강산 감자탕","tel":"031-794-1020","addr":"경기도 하남시 천현동 44-1번지","category":"일반휴게음식 - 일반한식"}]},{"lat":"37.535291108","long":"127.21556478","items":[{"name":"김영희 동태찜 앤 코다리 냉면","tel":"031-792-2877","addr":"경기도 하남시 천현동 113-10번지","category":"일반휴게음식 - 일반한식"},{"name":"김영희동태찜엔코다리냉면","tel":"031-792-2877","addr":"경기도 하남시 천현동 113-10번지","category":"일반휴게음식 - 일반한식"},{"name":"동양농기","tel":"031-792-4651","addr":"경기도 하남시 천현동 113-10번지","category":"농업 - 기타농업관련"}]},{"lat":"37.519711809","long":"127.22117643","items":[{"name":"김포타일","tel":"031-793-8397","addr":"경기도 하남시 천현동 542-1번지","category":"건축자재 - 건축용 요업제품"},{"name":"삼명상사","tel":"031-796-2009","addr":"경기도 하남시 천현동 542-1번지 1층","category":"건축자재 - 기타건축자재"}]},{"lat":"37.534681531","long":"127.22369782","items":[{"name":"깐디깐디","tel":"031-795-3704","addr":"경기도 하남시 천현동 44-15번지","category":"일반휴게음식 - 서양음식"}]},{"lat":"37.535233902","long":"127.21228353","items":[{"name":"꽃강아지","tel":"031-000-0000","addr":"경기도 하남시 천현동 616-19번지 1층","category":"문화.취미 - 애완동물"}]},{"lat":"37.536352031","long":"127.22172275","items":[{"name":"나무꽃향기","tel":"02-473-8091","addr":"경기도 하남시 천현동 11-4번지","category":"문화.취미 - 화원"},{"name":"소올","tel":"031-791-5663","addr":"경기도 하남시 천현동 11-4번지","category":"의류 - 정장"},{"name":"채은꽃","tel":"031-791-5663","addr":"경기도 하남시 천현동 11-4번지","category":"문화.취미 - 화원"}]},{"lat":"37.533538931","long":"127.22281198","items":[{"name":"농업회사법인 주식회사 에스엠미트","tel":"032-422-9289","addr":"경기도 하남시 천현동 51-3번지","category":"음료식품 - 정육점"},{"name":"농업회사법인하우스콜(주)","tel":"031-796-9840","addr":"경기도 하남시 천현동 51-3번지","category":"음료식품 - 정육점"},{"name":"오트밀식품","tel":"031-795-0507","addr":"경기도 하남시 천현동 51-3번지","category":"음료식품 - 제과점"}]},{"lat":"37.519900932","long":"127.22122223","items":[{"name":"농업회사법인성경주식회사","tel":"031-111-1111","addr":"경기도 하남시 천현동 541-4번지","category":"음료식품 - 미곡상"},{"name":"주식회사 웰빙","tel":"031-796-3277","addr":"경기도 하남시 천현동 541-4번지 1층","category":"음료식품 - 기타음료식품"}]},{"lat":"37.532127894","long":"127.22091846","items":[{"name":"누리마루","tel":"070-7012-1355","addr":"경기도 하남시 천현동 53-33번지","category":"일반휴게음식 - 일반한식"}]},{"lat":"37.52435227","long":"127.22097502","items":[{"name":"뉴하남타이어","tel":"031-796-9185","addr":"경기도 하남시 천현동 516-2번지","category":"자동차정비 유지 - 자동차시트·타이어"},{"name":"명일공조","tel":"02-485-6600","addr":"경기도 하남시 천현동 516-2번지","category":"자동차정비 유지 - 자동차부품"},{"name":"명일상사","tel":"02-429-6600","addr":"경기도 하남시 천현동 516-2번지","category":"수리서비스 - 기타수리서비스"},{"name":"명일자동차공업사","tel":"031-792-6613","addr":"경기도 하남시 천현동 516-2번지","category":"자동차정비 유지 - 자동차정비"},{"name":"성호공업사","tel":"031-791-6363","addr":"경기도 하남시 천현동 516-2번지","category":"자동차정비 유지 - 자동차부품"}]},{"lat":"37.519601637","long":"127.22228466","items":[{"name":"다미락","tel":"031-795-5067","addr":"경기도 하남시 천현동 537-4번지","category":"일반휴게음식 - 일반한식"}]},{"lat":"37.529044924","long":"127.2217806","items":[{"name":"대구왕뽈찜","tel":"031-794-7994","addr":"경기도 하남시 천현동 460-3번지 1층","category":"일반휴게음식 - 일반한식"}]},{"lat":"37.535706312","long":"127.21514733","items":[{"name":"대동건재","tel":"031-795-8909","addr":"경기도 하남시 천현동 113-30번지","category":"기타 - 기계공구"}]},{"lat":"37.532741479","long":"127.22042244","items":[{"name":"대림합판","tel":"031-795-3790","addr":"경기도 하남시 천현동 53-40번지","category":"건축자재 - 기타건축자재"}]},{"lat":"37.532851489","long":"127.21939321","items":[{"name":"대백콜랙션","tel":"","addr":"경기도 하남시 천현동 74-8번지","category":"신변잡화 - 기타잡화"}]},{"lat":"37.534843903","long":"127.21373063","items":[{"name":"대성도기타일","tel":"031-794-4031","addr":"경기도 하남시 천현동 618-1번지","category":"건축자재 - 건축용 요업제품"}]},{"lat":"37.534261183","long":"127.21208847","items":[{"name":"대성제빙기","tel":"02-6340-5359","addr":"경기도 하남시 천현동 166-1번지","category":"전기제품 - 냉열기기"}]},{"lat":"37.532649271","long":"127.21664339","items":[{"name":"대우건재산업","tel":"031-791-9296","addr":"경기도 하남시 천현동 89-14번지","category":"건축자재 - 기타건축자재"}]},{"lat":"37.535711181","long":"127.21242063","items":[{"name":"대우냉열","tel":"031-1588-3366","addr":"경기도 하남시 천현동 611-16번지","category":"용역 서비스 - 기타용역서비스"}]},{"lat":"37.5324591","long":"127.22208473","items":[{"name":"대일공업사","tel":"031-792-9173","addr":"경기도 하남시 천현동 53-15번지","category":"기타 - 기계공구"},{"name":"미도사","tel":"070-8952-8438","addr":"경기도 하남시 천현동 53-15번지","category":"기타 - 기계공구"},{"name":"재생공업사","tel":"031-792-4275","addr":"경기도 하남시 천현동 53-15번지","category":"자동차정비 유지 - 자동차정비"}]},{"lat":"37.535652324","long":"127.21003318","items":[{"name":"대한금속","tel":"031-796-3218","addr":"경기도 하남시 천현동 194-15번지 102호","category":"건축자재 - 목재·석재·철물"}]},{"lat":"37.534930167","long":"127.21081185","items":[{"name":"대호수산 풍천장어","tel":"031-796-2606","addr":"경기도 하남시 천현동 194-4번지 1층","category":"일반휴게음식 - 일반한식"},{"name":"대호유통","tel":"031-796-0356","addr":"경기도 하남시 천현동 194-4번지","category":"음료식품 - 농·축·수산품"}]},{"lat":"37.53532104","long":"127.21394695","items":[{"name":"더제이컴퍼니","tel":"070-8722-0014","addr":"경기도 하남시 천현동 619번지 1층","category":"문화.취미 - 애완동물"}]},{"lat":"37.536740688","long":"127.22105634","items":[{"name":"델에스떼","tel":"","addr":"경기도 하남시 천현동 22-1번지 1층,2층","category":"일반휴게음식 - 일반한식"}]},{"lat":"37.536010789","long":"127.22111079","items":[{"name":"도그버디/주식회사 동방플러스","tel":"031-796-8669","addr":"경기도 하남시 천현동 12-17번지","category":"문화.취미 - 애완동물"}]},{"lat":"37.536929936","long":"127.22103427","items":[{"name":"돌마리","tel":"031-792-9931","addr":"경기도 하남시 천현동 13-31번지","category":"일반휴게음식 - 일반한식"}]},{"lat":"37.53417887","long":"127.21277839","items":[{"name":"동경주산채나물집","tel":"031-792-2301","addr":"경기도 하남시 천현동 169-15번지 1층","category":"일반휴게음식 - 일반한식"}]},{"lat":"37.522235043","long":"127.2209236","items":[{"name":"동명철물건재","tel":"031-793-7996","addr":"경기도 하남시 천현동 512-5번지","category":"건축자재 - 기타건축자재"}]},{"lat":"37.535038996","long":"127.21547355","items":[{"name":"동트락","tel":"031-769-5315","addr":"경기도 하남시 천현동 114-2번지 2층","category":"일반휴게음식 - 일반한식"}]},{"lat":"37.535344379","long":"127.21094877","items":[{"name":"드림 유도관","tel":"031-792-1300","addr":"경기도 하남시 천현동 194-10번지 우성빌딩 지하1층","category":"학원 - 예·체능계학원"},{"name":"아모레","tel":"031-793-9870","addr":"경기도 하남시 천현동 194-10번지","category":"보건위생 - 화장품"},{"name":"아모레","tel":"031-793-9870","addr":"경기도 하남시 천현동 194-10번지 우성빌딩 3층","category":"보건위생 - 화장품"},{"name":"주식회사디알팜","tel":"031-796-4270","addr":"경기도 하남시 천현동 194-10번지","category":"약국 - 약국"}]},{"lat":"37.534762976","long":"127.21363989","items":[{"name":"디오스포츠","tel":"","addr":"경기도 하남시 천현동 618-2번지","category":"레져용품 - 스포츠·레져용품"},{"name":"사단법인 대한불교혜령종중앙회","tel":"031-761-2024","addr":"경기도 하남시 천현동 618-2번지","category":"신변잡화 - 기념품점"},{"name":"에이치(H)-카오디오","tel":"031-791-9525","addr":"경기도 하남시 천현동 618-2번지","category":"자동차정비 유지 - 자동차부품"}]},{"lat":"37.535819823","long":"127.22206062","items":[{"name":"로뎀","tel":"031-796-1004","addr":"경기도 하남시 천현동 6-9번지 외4필지 1층","category":"일반휴게음식 - 일반한식"}]},{"lat":"37.524628114","long":"127.22284238","items":[{"name":"로뎀","tel":"031-791-8004","addr":"경기도 하남시 천현동 532-6번지","category":"용역 서비스 - 보관및 창고업"}]},{"lat":"37.532318622","long":"127.22009312","items":[{"name":"리스퀘어산업 주식회사","tel":"070-4060-4982","addr":"경기도 하남시 천현동 62-4번지","category":"기타 - 기계공구"}]},{"lat":"37.533931087","long":"127.22025619","items":[{"name":"마님푸드","tel":"031-791-7630","addr":"경기도 하남시 천현동 67번지","category":"음료식품 - 정육점"}]},{"lat":"37.52987567","long":"127.20028777","items":[{"name":"마르스","tel":"02-3426-8971","addr":"경기도 하남시 천현동 301-7번지","category":"자동차정비 유지 - 자동차부품"}]},{"lat":"37.531818643","long":"127.21759136","items":[{"name":"마방다원","tel":"031-796-3617","addr":"경기도 하남시 천현동 429-4번지","category":"일반휴게음식 - 일반한식"}]},{"lat":"37.534097278","long":"127.21306101","items":[{"name":"매직카썬팅","tel":"031-796-3262","addr":"경기도 하남시 천현동 169-17번지","category":"자동차정비 유지 - 카인테리어"},{"name":"매직터치","tel":"031-794-7123","addr":"경기도 하남시 천현동 169-17번지","category":"자동차정비 유지 - 카인테리어"}]},{"lat":"37.535906819","long":"127.2138694","items":[{"name":"맥시칸치킨","tel":"031-796-0097","addr":"경기도 하남시 천현동 620-1번지 101호","category":"일반휴게음식 - 스넥"}]},{"lat":"37.535681372","long":"127.2139819","items":[{"name":"맹호세탁소","tel":"031-793-2640","addr":"경기도 하남시 천현동 620-3번지 101호","category":"수리서비스 - 세탁소"}]},{"lat":"37.534934264","long":"127.21358381","items":[{"name":"머리잡기","tel":"","addr":"경기도 하남시 천현동 618번지","category":"보건위생 - 미용원"}]},{"lat":"37.528316468","long":"127.22105443","items":[{"name":"명지","tel":"031-794-2873","addr":"경기도 하남시 천현동 462-12번지","category":"직물 - 옷감·직물"}]},{"lat":"37.531431283","long":"127.21755631","items":[{"name":"목장원","tel":"031-792-1980","addr":"경기도 하남시 천현동 431-4번지","category":"일반휴게음식 - 일반한식"}]},{"lat":"37.524909079","long":"127.22194951","items":[{"name":"무봉리토종순대국","tel":"031-792-6988","addr":"경기도 하남시 천현동 486-2번지","category":"일반휴게음식 - 일반한식"}]},{"lat":"37.525878614","long":"127.19828621","items":[{"name":"미광침대","tel":"02-429-3203","addr":"경기도 하남시 천현동 312-5번지","category":"가구 - 일반가구"}]},{"lat":"37.531844829","long":"127.2180553","items":[{"name":"미본광택","tel":"031-792-0045","addr":"경기도 하남시 천현동 430-1번지","category":"자동차정비 유지 - 카인테리어"}]},{"lat":"37.535789591","long":"127.21392564","items":[{"name":"미즈헤어","tel":"031-791-6238","addr":"경기도 하남시 천현동 620-2번지 1층","category":"보건위생 - 미용원"}]},{"lat":"37.527848903","long":"127.210532","items":[{"name":"민경스텐","tel":"031-796-7153","addr":"경기도 하남시 천현동 342-5번지","category":"기타 - 기계공구"}]},{"lat":"37.532845176","long":"127.22280994","items":[{"name":"바다본가","tel":"031-5175-3377","addr":"경기도 하남시 천현동 52-1번지","category":"음료식품 - 기타음료식품"},{"name":"유니마스타강북","tel":"070-4148-6104","addr":"경기도 하남시 천현동 52-1번지","category":"주방용구 - 주방용구"}]},{"lat":"37.532793344","long":"127.22161053","items":[{"name":"바다샘식품","tel":"031-796-4626","addr":"경기도 하남시 천현동 53-103번지","category":"음료식품 - 기타음료식품"}]},{"lat":"37.530541659","long":"127.20073075","items":[{"name":"방가네 연탄불 고기","tel":"031-794-0089","addr":"경기도 하남시 천현동 290-3번지 1층 2층","category":"일반휴게음식 - 일반한식"}]},{"lat":"37.528511007","long":"127.21314716","items":[{"name":"베이텍","tel":"031-768-6635","addr":"경기도 하남시 천현동 349-5번지","category":"주방용구 - 기타주방용구"}]},{"lat":"37.530205785","long":"127.20222323","items":[{"name":"벧엘가구","tel":"031-345-4946","addr":"경기도 하남시 천현동 251-2번지 가동","category":"가구 - 일반가구"}]},{"lat":"37.534960849","long":"127.21383279","items":[{"name":"보성유통","tel":"031-796-0241","addr":"경기도 하남시 천현동 619-4번지","category":"전기제품 - 가전제품"},{"name":"뿅가곱창 하남점","tel":"070-4007-5890","addr":"경기도 하남시 천현동 619-4번지 1층 101호","category":"일반휴게음식 - 일반한식"}]},{"lat":"37.535095794","long":"127.21394631","items":[{"name":"보일러 플랜","tel":"031-792-4188","addr":"경기도 하남시 천현동 619-2번지 1층","category":"건축자재 - 보일러·펌프·샷시"}]},{"lat":"37.534457127","long":"127.2133675","items":[{"name":"봉쥬르노래연습장","tel":"031-791-2898","addr":"경기도 하남시 천현동 618-5번지 지하1층","category":"레저업소 - 노 래 방"}]},{"lat":"37.521485889","long":"127.22164539","items":[{"name":"부산아지매국밥 하남점","tel":"031-796-3845","addr":"경기도 하남시 천현동 535-6번지","category":"일반휴게음식 - 일반한식"}]},{"lat":"37.535316911","long":"127.21119761","items":[{"name":"비전에어컨","tel":"031-792-1566","addr":"경기도 하남시 천현동 194-11번지 301호","category":"용역 서비스 - 기타용역서비스"},{"name":"송파전자","tel":"031-624-5212","addr":"경기도 하남시 천현동 194-11번지 401호","category":"전기제품 - 기타전기제품"}]},{"lat":"37.538012907","long":"127.22006437","items":[{"name":"빅셀(VIXEL)","tel":"031-793-6835","addr":"경기도 하남시 천현동 13-5번지","category":"건축자재 - 인테리어전문"},{"name":"신성목재창호","tel":"031-791-6844","addr":"경기도 하남시 천현동 13-5번지 오른쪽 1층","category":"건축자재 - 인테리어전문"},{"name":"한솔상재","tel":"031-795-9115","addr":"경기도 하남시 천현동 13-5번지","category":"직물 - 카페트,커튼,천막,지물"}]},{"lat":"37.533154066","long":"127.21650907","items":[{"name":"빈스크래프트RV","tel":"070-4249-6862","addr":"경기도 하남시 천현동 88-4번지 1층","category":"레져용품 - 스포츠·레져용품"}]},{"lat":"37.535790136","long":"127.21362016","items":[{"name":"삼광사","tel":"031-792-7941","addr":"경기도 하남시 천현동 614-1번지","category":"서적문구 - 출판 및 인쇄물"},{"name":"주식회사새터팜","tel":"031-794-6456","addr":"경기도 하남시 천현동 614-1번지 1층","category":"음료식품 - 정육점"}]},{"lat":"37.528289107","long":"127.20608719","items":[{"name":"삼성가구","tel":"031-1588-4964","addr":"경기도 하남시 천현동 335-2번지","category":"신변잡화 - 기타잡화"}]},{"lat":"37.521962949","long":"127.22189565","items":[{"name":"삼성업소용가구","tel":"031-795-7744","addr":"경기도 하남시 천현동 535-15번지 가","category":"신변잡화 - 기타잡화"}]},{"lat":"37.535877316","long":"127.21524965","items":[{"name":"삼일전기","tel":"031-794-7202","addr":"경기도 하남시 천현동 113-4번지","category":"전기제품 - 기타전기제품"},{"name":"차이나타운","tel":"031-791-9777","addr":"경기도 하남시 천현동 113-4번지 1층","category":"일반휴게음식 - 중국식"}]},{"lat":"37.533848267","long":"127.221195","items":[{"name":"삼학아크릴","tel":"031-791-0969","addr":"경기도 하남시 천현동 53-57번지","category":"가구 - 일반가구"}]},{"lat":"37.525710517","long":"127.21727973","items":[{"name":"상불사","tel":"031-792-4585","addr":"경기도 하남시 천현동 499-1번지 상불사","category":"기타 - 비영리/대상"}]},{"lat":"37.535288362","long":"127.2120574","items":[{"name":"샘물하남가맹점","tel":"031-791-3248","addr":"경기도 하남시 천현동 611-9","category":"음료식품 - 기타음료식품"}]},{"lat":"37.531066297","long":"127.21511156","items":[{"name":"샘재로 129","tel":"031-793-4995","addr":"경기도 하남시 천현동 418-4번지","category":"일반휴게음식 - 일반한식"},{"name":"연두콩나물국밥","tel":"031-793-0034","addr":"경기도 하남시 천현동 418-4번지","category":"일반휴게음식 - 일반한식"}]},{"lat":"37.535435055","long":"127.21062091","items":[{"name":"서울석재","tel":"031-791-6889","addr":"경기도 하남시 천현동 194-9번지","category":"건축자재 - 목재·석재·철물"},{"name":"신광공업사","tel":"031-792-5212","addr":"경기도 하남시 천현동 194-9번지","category":"기타 - 기계공구"},{"name":"신장얼음","tel":"031-792-4101","addr":"경기도 하남시 천현동 194-9번지","category":"유통업 영리 - 기타유통업"}]},{"lat":"37.534323354","long":"127.2225088","items":[{"name":"서울푸드 백록축산랜드","tel":"031-792-6303","addr":"경기도 하남시 천현동 53-1번지","category":"음료식품 - 정육점"},{"name":"서울푸드시스템에프에스(주) (하남지점)","tel":"031-792-6303","addr":"경기도 하남시 천현동 53-1번지 2층","category":"음료식품 - 정육점"}]},{"lat":"37.535733948","long":"127.20972792","items":[{"name":"서현사료","tel":"031-763-7622","addr":"경기도 하남시 천현동 194-23번지 1층","category":"문화.취미 - 애완동물"}]},{"lat":"37.535044836","long":"127.2122038","items":[{"name":"선린슈퍼","tel":"031-793-8802","addr":"경기도 하남시 천현동 617번지","category":"유통업 영리 - 기타유통업"}]},{"lat":"37.53582365","long":"127.20995445","items":[{"name":"성우식품","tel":"031-791-4977","addr":"경기도 하남시 천현동 194-8번지 동신빌라","category":"음료식품 - 기타음료식품"}]},{"lat":"37.5339831","long":"127.2213651","items":[{"name":"세명인터내셔널","tel":"02-3471-2340","addr":"경기도 하남시 천현동 53-26번지 102호","category":"자동차정비 유지 - 자동차부품"}]},{"lat":"37.5352609","long":"127.2222287","items":[{"name":"세종모터스","tel":"031-792-5227","addr":"경기도 하남시 천현동 39-10번지","category":"자동차정비 유지 - 자동차부품"},{"name":"세종카서비스","tel":"031-793-7078","addr":"경기도 하남시 천현동 39-10번지","category":"자동차정비 유지 - 자동차정비"}]},{"lat":"37.534906988","long":"127.22358535","items":[{"name":"소니가스시","tel":"031-796-4391","addr":"경기도 하남시 천현동 40-10번지","category":"일반휴게음식 - 일식·회집"},{"name":"파리바게뜨(하남천현점)","tel":"031-793-9600","addr":"경기도 하남시 천현동 40-10번지","category":"음료식품 - 제과점"}]},{"lat":"37.53481931","long":"127.21236157","items":[{"name":"수동축산","tel":"031-791-1734","addr":"경기도 하남시 천현동 617-13번지","category":"음료식품 - 정육점"}]},{"lat":"37.526184817","long":"127.1983662","items":[{"name":"슈즈캠프","tel":"031-795-8076","addr":"경기도 하남시 천현동 312-3번지","category":"신변잡화 - 신발"}]},{"lat":"37.535015736","long":"127.21336907","items":[{"name":"스마일 메디칼","tel":"031-791-1075","addr":"경기도 하남시 천현동 616-9번지 1층","category":"보건위생 - 의료용품"}]},{"lat":"37.532796662","long":"127.21981166","items":[{"name":"승원섬유","tel":"031-792-1825","addr":"경기도 하남시 천현동 62-2번지 외1번지","category":"직물 - 침구·수예점"}]},{"lat":"37.529767703","long":"127.20019698","items":[{"name":"신영타이어","tel":"031-796-0041","addr":"경기도 하남시 천현동 301-2번지","category":"자동차정비 유지 - 자동차시트·타이어"}]},{"lat":"37.529073857","long":"127.22075118","items":[{"name":"신장양곱창","tel":"031-793-3605","addr":"경기도 하남시 천현동 462-16번지 1층","category":"일반휴게음식 - 일반한식"}]},{"lat":"37.536344767","long":"127.21583931","items":[{"name":"신장점기아오토큐","tel":"031-792-8572","addr":"경기도 하남시 천현동 132-1번지","category":"자동차정비 유지 - 자동차정비"}]},{"lat":"37.522068647","long":"127.22319685","items":[{"name":"쎈스산업","tel":"031-793-8225","addr":"경기도 하남시 천현동 576-2번지","category":"직물 - 카페트,커튼,천막,지물"}]},{"lat":"37.520098123","long":"127.22177708","items":[{"name":"씨유하남IC점","tel":"031-898-6569","addr":"경기도 하남시 천현동 539-6번지 1층","category":"유통업 영리 - 편 의 점"},{"name":"하남전자","tel":"031-792-0763","addr":"경기도 하남시 천현동 539-6번지 1층 3호","category":"수리서비스 - 기타수리서비스"}]},{"lat":"37.532290946","long":"127.22044376","items":[{"name":"씨유하남천현점","tel":"031-898-6569","addr":"경기도 하남시 천현동 53-41번지","category":"유통업 영리 - 편 의 점"},{"name":"우진시스템창호","tel":"031-794-6650","addr":"경기도 하남시 천현동 53-41번지","category":"건축자재 - 보일러·펌프·샷시"}]},{"lat":"37.535432759","long":"127.21192203","items":[{"name":"아이세상어린이집","tel":"031-794-9556","addr":"경기도 하남시 천현동 611-12번지","category":"학원 - 유아원"}]},{"lat":"37.528263991","long":"127.21017113","items":[{"name":"아이엠아이(IMI)","tel":"02-762-4128","addr":"경기도 하남시 천현동 338-2번지","category":"레져용품 - 악기점"}]},{"lat":"37.52935139","long":"127.21175799","items":[{"name":"아이킹어린이집[아이행복]","tel":"031-796-2393","addr":"경기도 하남시 천현동 355-6번지","category":"학원 - 유아원"}]},{"lat":"37.535018508","long":"127.21180773","items":[{"name":"아이테크","tel":"031-792-7481","addr":"경기도 하남시 천현동 610-6번지","category":"용역 서비스 - 종합용역"}]},{"lat":"37.529205468","long":"127.21275314","items":[{"name":"아지트모터스","tel":"031-794-2652","addr":"경기도 하남시 천현동 352-2번지","category":"자동차정비 유지 - 자동차정비"}]},{"lat":"37.538292169","long":"127.22008781","items":[{"name":"애니컴퓨터","tel":"031-792-7375","addr":"경기도 하남시 천현동 15-4번지","category":"사무통신 - 컴퓨터"},{"name":"연남추어탕","tel":"031-796-0151","addr":"경기도 하남시 천현동 15-4번지","category":"일반휴게음식 - 일반한식"}]},{"lat":"37.521874546","long":"127.22097912","items":[{"name":"양평해장국","tel":"031-794-0021","addr":"경기도 하남시 천현동 511-1번지 1층","category":"일반휴게음식 - 일반한식"}]},{"lat":"37.526626168","long":"127.19844654","items":[{"name":"어썸마켓하남","tel":"","addr":"경기도 하남시 천현동 314번지","category":"신변잡화 - 기타잡화"}]},{"lat":"37.52868608","long":"127.2109529","items":[{"name":"에스엠유통(SM유통)","tel":"031-791-6996","addr":"경기도 하남시 천현동 340-14번지 340-15,340-16","category":"음료식품 - 기타음료식품"},{"name":"엘피스방화문","tel":"031-794-1243","addr":"경기도 하남시 천현동 340-14번지 14,15,16번지","category":"건축자재 - 기타건축자재"},{"name":"자연과산삼","tel":"031-795-2492","addr":"경기도 하남시 천현동 340-14번지","category":"건강식품 - 인삼제품"},{"name":"프리사운드","tel":"031-791-4964","addr":"경기도 하남시 천현동 340-14번지 외2필지","category":"회원제형태 - 기타3"},{"name":"화성방화문","tel":"031-795-2614","addr":"경기도 하남시 천현동 340-14번지 1층","category":"건축자재 - 기타건축자재"}]},{"lat":"37.530987283","long":"127.20361686","items":[{"name":"에코21","tel":"031-791-5704","addr":"경기도 하남시 천현동 254번지","category":"건축자재 - 인테리어전문"}]},{"lat":"37.531515341","long":"127.21591609","items":[{"name":"엘지공조","tel":"02-409-9911","addr":"경기도 하남시 천현동 420-5","category":"전기제품 - 가전제품"},{"name":"파티하자","tel":"031-793-8850","addr":"경기도 하남시 천현동 420-5번지","category":"신변잡화 - 기타잡화"}]},{"lat":"37.532738194","long":"127.22219868","items":[{"name":"연우 씨스템","tel":"031-792-2478","addr":"경기도 하남시 천현동 53-14번지","category":"건축자재 - 기타건축자재"}]},{"lat":"37.535347624","long":"127.21419593","items":[{"name":"열린노래연습장","tel":"031-793-9717","addr":"경기도 하남시 천현동 620-6번지","category":"레저업소 - 노 래 방"},{"name":"카오디오아울렛","tel":"031-793-5580","addr":"경기도 하남시 천현동 620-6번지","category":"자동차정비 유지 - 자동차부품"}]},{"lat":"37.52274022","long":"127.22058571","items":[{"name":"영진건장","tel":"031-794-3953","addr":"경기도 하남시 천현동 513-5","category":"건축자재 - 목재·석재·철물"}]},{"lat":"37.535263052","long":"127.21108431","items":[{"name":"영투어페럴","tel":"031-796-3604","addr":"경기도 하남시 천현동 194-18번지 1층","category":"의류 - 정장"}]},{"lat":"37.528876361","long":"127.21034252","items":[{"name":"오디오사운드","tel":"031-792-6062","addr":"경기도 하남시 천현동 360-3번지","category":"전기제품 - 가전제품"}]},{"lat":"37.534734207","long":"127.21461282","items":[{"name":"올랜드리싸이클 하남","tel":"031-793-2797","addr":"경기도 하남시 천현동 105-2번지","category":"가구 - 일반가구"}]},{"lat":"37.529763433","long":"127.21311673","items":[{"name":"와이디자인","tel":"031-794-5165","addr":"경기도 하남시 천현동 407-5번지","category":"용역 서비스 - 종합용역"}]},{"lat":"37.535126325","long":"127.21197775","items":[{"name":"우리미용실","tel":"031-793-7728","addr":"경기도 하남시 천현동 610-4","category":"보건위생 - 미용원"}]},{"lat":"37.534601486","long":"127.21325476","items":[{"name":"우리집도시락식당","tel":"031-794-3876","addr":"경기도 하남시 천현동 618-7번지 1층","category":"일반휴게음식 - 일반한식"},{"name":"현대엔터테인먼트","tel":"070-4131-4331","addr":"경기도 하남시 천현동 618-7번지 지하층","category":"용역 서비스 - 사무서비스"}]},{"lat":"37.534262603","long":"127.21128518","items":[{"name":"우리화분","tel":"031-793-5916","addr":"경기도 하남시 천현동 166-3","category":"문화.취미 - 화원"}]},{"lat":"37.530205418","long":"127.21283514","items":[{"name":"우성그랜드","tel":"070-7012-4284","addr":"경기도 하남시 천현동 396-1번지 102호","category":"수리서비스 - 기타수리서비스"}]},{"lat":"37.528462505","long":"127.21000198","items":[{"name":"우정기업","tel":"031-793-2549","addr":"경기도 하남시 천현동 338-5번지","category":"주방용구 - 주방용구"}]},{"lat":"37.528767147","long":"127.22095393","items":[{"name":"우진기계","tel":"031-795-9420","addr":"경기도 하남시 천현동 462-15번지","category":"기타 - 기계공구"}]},{"lat":"37.533352211","long":"127.21150893","items":[{"name":"웅샵(WOONG #)","tel":"031-794-3968","addr":"경기도 하남시 천현동 178-10번지","category":"자동차정비 유지 - 자동차부품"}]},{"lat":"37.529574669","long":"127.21286731","items":[{"name":"웰빙식당","tel":"031-791-2078","addr":"경기도 하남시 천현동 406-7번지","category":"일반휴게음식 - 일반한식"}]},{"lat":"37.537570655","long":"127.22048172","items":[{"name":"유진홈","tel":"031-792-7741","addr":"경기도 하남시 천현동 13-25번지 H동","category":"직물 - 카페트,커튼,천막,지물"}]},{"lat":"37.538430074","long":"127.21858337","items":[{"name":"유황먹은통돼지","tel":"031-796-2121","addr":"경기도 하남시 천현동 142-5번지 1층","category":"일반휴게음식 - 일반한식"},{"name":"청국장과보리밥&시래기밥","tel":"031-796-3332","addr":"경기도 하남시 천현동 142-5번지 1층","category":"일반휴게음식 - 일반한식"}]},{"lat":"37.529236034","long":"127.22075166","items":[{"name":"이종구낙지세상하남점","tel":"031-794-5055","addr":"경기도 하남시 천현동 462-1번지 1층","category":"일반휴게음식 - 일반한식"},{"name":"황도바지락칼국수","tel":"031-795-3993","addr":"경기도 하남시 천현동 462-1번지 황도바지락칼국수 1층","category":"일반휴게음식 - 일반한식"}]},{"lat":"37.535177711","long":"127.21348266","items":[{"name":"이큐(EQ)어린이집[아이행복]","tel":"031-793-0236","addr":"경기도 하남시 천현동 614-7번지 1층","category":"학원 - 유아원"}]},{"lat":"37.535154295","long":"127.21144606","items":[{"name":"일광자동차공업사","tel":"070-5352-9879","addr":"경기도 하남시 천현동 610-9번지","category":"자동차정비 유지 - 자동차정비"}]},{"lat":"37.530150961","long":"127.20267561","items":[{"name":"일심철강","tel":"031-795-8811","addr":"경기도 하남시 천현동 252-2번지","category":"건축자재 - 기타건축자재"}]},{"lat":"37.520629808","long":"127.22172208","items":[{"name":"자연의신비","tel":"02-1544-5430","addr":"경기도 하남시 천현동 539-1번지","category":"문화.취미 - 화원"}]},{"lat":"37.530288572","long":"127.2116701","items":[{"name":"재원상사","tel":"02-3742-2400","addr":"경기도 하남시 천현동 400번지","category":"음료식품 - 기타음료식품"}]},{"lat":"37.533488835","long":"127.22067351","items":[{"name":"정우퍼니처","tel":"031-796-2701","addr":"경기도 하남시 천현동 53-37번지","category":"주방용구 - 주방용구"}]},{"lat":"37.533260482","long":"127.21744842","items":[{"name":"제도이온스포츠코리아","tel":"070-4015-6990","addr":"경기도 하남시 천현동 85-2번지","category":"레져용품 - 스포츠·레져용품"},{"name":"지에스티컴퍼니","tel":"","addr":"경기도 하남시 천현동 85-2번지","category":"레져용품 - 스포츠·레져용품"}]},{"lat":"37.52862345","long":"127.21070384","items":[{"name":"제이에스","tel":"02-533-1020","addr":"경기도 하남시 천현동 340-1번지","category":"기타 - 기계공구"}]},{"lat":"37.533125061","long":"127.20744665","items":[{"name":"제일공조","tel":"031-793-5288","addr":"경기도 하남시 천현동 190-4번지","category":"회원제형태 - 기타4"}]},{"lat":"37.536849203","long":"127.22084169","items":[{"name":"제천황기명태 하남점","tel":"031-794-1711","addr":"경기도 하남시 천현동 23-3번지","category":"일반휴게음식 - 일반한식"}]},{"lat":"37.535574001","long":"127.21356298","items":[{"name":"조흔통상","tel":"","addr":"경기도 하남시 천현동 614-12번지","category":"신변잡화 - 기타잡화"}]},{"lat":"37.531931823","long":"127.21975259","items":[{"name":"주성산업","tel":"031-795-8879","addr":"경기도 하남시 천현동 62-7번지","category":"건축자재 - 기타건축자재"}]},{"lat":"37.529486405","long":"127.22178189","items":[{"name":"주식회사 국제종합렌탈","tel":"02-1644-2726","addr":"경기도 하남시 천현동 457-5번지 주식회사 국제종합렌탈","category":"가구 - 기타가구"},{"name":"주식회사 렌탈코리아프렌즈","tel":"031-791-3673","addr":"경기도 하남시 천현동 457-5번지","category":"사무통신 - 기타 사무용품"}]},{"lat":"37.528074386","long":"127.20520419","items":[{"name":"주식회사 러닝포스트","tel":"031-793-2395","addr":"경기도 하남시 천현동 331-2","category":"레져용품 - 스포츠·레져용품"}]},{"lat":"37.533343501","long":"127.2113392","items":[{"name":"주식회사 석미디어","tel":"031-792-8700","addr":"경기도 하남시 천현동 178-9번지","category":"용역 서비스 - 종합용역"}]},{"lat":"37.533096492","long":"127.21844356","items":[{"name":"주식회사 씨피아이푸드","tel":"031-795--5155","addr":"경기도 하남시 천현동 74-3번지","category":"음료식품 - 정육점"}]},{"lat":"37.533573186","long":"127.21889749","items":[{"name":"주식회사 평화유통","tel":"031-794-8829","addr":"경기도 하남시 천현동 79-2번지","category":"음료식품 - 농·축·수산품"}]},{"lat":"37.519484678","long":"127.22219383","items":[{"name":"주식회사 포맨테크","tel":"031-796-1856","addr":"경기도 하남시 천현동 537-5번지 1층","category":"신변잡화 - 기타잡화"}]},{"lat":"37.529489129","long":"127.21028765","items":[{"name":"주식회사강동아크릴","tel":"031-793-1518","addr":"경기도 하남시 천현동 362-4번지 1층","category":"유통업 영리 - 기타유통업"}]},{"lat":"37.529652634","long":"127.20431471","items":[{"name":"주식회사도시환경","tel":"031-792-4405","addr":"경기도 하남시 천현동 281-1번지","category":"용역 서비스 - 종합용역"}]},{"lat":"37.532013788","long":"127.20398165","items":[{"name":"주영산업","tel":"031-791-0803","addr":"경기도 하남시 천현동 246-2번지","category":"기타 - 기계공구"}]},{"lat":"37.523514356","long":"127.22097258","items":[{"name":"중부주유소(하나주유소)","tel":"031-796-2552","addr":"경기도 하남시 천현동 515-2번지","category":"연료판매점 - 현대정유(오일뱅크)"}]},{"lat":"37.530343948","long":"127.21092357","items":[{"name":"지성창호","tel":"031-792-2493","addr":"경기도 하남시 천현동 402-1번지","category":"건축자재 - 인테리어전문"}]},{"lat":"37.534734701","long":"127.22417317","items":[{"name":"진명상사","tel":"031-796-3553","addr":"경기도 하남시 천현동 43-4번지","category":"자동차정비 유지 - 자동차시트·타이어"},{"name":"케이원 골프","tel":"031-793-8188","addr":"경기도 하남시 천현동 43-4번지 2층","category":"레져용품 - 골프용품 전문점"}]},{"lat":"37.534233571","long":"127.22233883","items":[{"name":"차신오토","tel":"02-477-3637","addr":"경기도 하남시 천현동 53-4번지 외2필지","category":"자동차정비 유지 - 자동차부품"},{"name":"（주）제이브라더스","tel":"02-400-7912","addr":"경기도 하남시 천현동 53-4번지 외2필지","category":"주방용구 - 주방용구"}]},{"lat":"37.535955222","long":"127.22192525","items":[{"name":"창성카서비스","tel":"031-792-4117","addr":"경기도 하남시 천현동 10-5번지","category":"자동차정비 유지 - 자동차정비"}]},{"lat":"37.519234718","long":"127.2160056","items":[{"name":"천현동마을회","tel":"031-791-9927","addr":"경기도 하남시 천현동 산48-3번지","category":"음료식품 - 농·축·수산품"}]},{"lat":"37.534350398","long":"127.21258653","items":[{"name":"천현점현대자동차","tel":"031-795-7722","addr":"경기도 하남시 천현동 168-3번지","category":"자동차정비 유지 - 자동차정비"}]},{"lat":"37.531099719","long":"127.20106032","items":[{"name":"천현플러스주유소","tel":"031-795-5144","addr":"경기도 하남시 천현동 290-1번지","category":"연료판매점 - SK주유소"}]},{"lat":"37.530510563","long":"127.21350348","items":[{"name":"청광기계/원격지","tel":"","addr":"경기도 하남시 천현동 411-1번지 1층","category":"기타 - 기타 전문점"}]},{"lat":"37.527713812","long":"127.22050966","items":[{"name":"청기와촌","tel":"031-791-4357","addr":"경기도 하남시 천현동 575-6번지","category":"일반휴게음식 - 일반한식"}]},{"lat":"37.529961407","long":"127.21325305","items":[{"name":"카닥터모터스","tel":"","addr":"경기도 하남시 천현동 408-6번지","category":"자동차정비 유지 - 자동차정비"}]},{"lat":"37.530181919","long":"127.2208336","items":[{"name":"카토피아","tel":"031-791-3899","addr":"경기도 하남시 천현동 452-5번지","category":"자동차정비 유지 - 자동차정비"},{"name":"한남쭈꾸미","tel":"031-792-1600","addr":"경기도 하남시 천현동 452-5번지 1층","category":"일반휴게음식 - 일반한식"}]},{"lat":"37.536461635","long":"127.22091976","items":[{"name":"캐리어에어텍크","tel":"031-793-4804","addr":"경기도 하남시 천현동 22-2번지 101호","category":"용역 서비스 - 기타용역서비스"}]},{"lat":"37.533846002","long":"127.22241689","items":[{"name":"커피몽타주(Caffee Montage)","tel":"070-7733-6465","addr":"경기도 하남시 천현동 53-10번지 외1필지 나동 1층","category":"일반휴게음식 - 서양음식"}]},{"lat":"37.532211999","long":"127.21927822","items":[{"name":"탑글로벌유통","tel":"","addr":"경기도 하남시 천현동 62-18번지","category":"음료식품 - 기타음료식품"}]},{"lat":"37.534710549","long":"127.21272331","items":[{"name":"태양카페트","tel":"031-795-4936","addr":"경기도 하남시 천현동 617-10번지","category":"직물 - 카페트,커튼,천막,지물"}]},{"lat":"37.528351273","long":"127.22172201","items":[{"name":"태영건재","tel":"031-795-8138","addr":"경기도 하남시 천현동 474-2번지","category":"건축자재 - 기타건축자재"}]},{"lat":"37.537155536","long":"127.22084258","items":[{"name":"테라스","tel":"02-6008-3248","addr":"경기도 하남시 천현동 13-21번지 2층","category":"일반휴게음식 - 서양음식"}]},{"lat":"37.519378341","long":"127.22123202","items":[{"name":"토털한솔가구","tel":"031-793-9747","addr":"경기도 하남시 천현동 542-12","category":"가구 - 일반가구"}]},{"lat":"37.535463108","long":"127.2151127","items":[{"name":"통일옥","tel":"031-795-0018","addr":"경기도 하남시 천현동 113-15.외3","category":"일반휴게음식 - 일반한식"}]},{"lat":"37.532932567","long":"127.21442671","items":[{"name":"팀메이크","tel":"031-1111-1111","addr":"경기도 하남시 천현동 95-1번지 가동","category":"자동차정비 유지 - 자동차부품"}]},{"lat":"37.534538726","long":"127.22297331","items":[{"name":"페달의민족","tel":"031-794-2210","addr":"경기도 하남시 천현동 44-3번지 1층","category":"레져용품 - 스포츠·레져용품"}]},{"lat":"37.535099976","long":"127.21159299","items":[{"name":"페인트할인점MK","tel":"031-794-6554","addr":"경기도 하남시 천현동 610-8번지","category":"건축자재 - 페인트"},{"name":"페인트할인점우주","tel":"031-794-6563","addr":"경기도 하남시 천현동 610-8번지","category":"건축자재 - 페인트"}]},{"lat":"37.51926884","long":"127.22197827","items":[{"name":"푸른솔목재","tel":"031-795-4700","addr":"경기도 하남시 천현동 538-6번지 1층","category":"건축자재 - 기타건축자재"}]},{"lat":"37.535959431","long":"127.20959277","items":[{"name":"프로카써비스","tel":"031-793-5971","addr":"경기도 하남시 천현동 194-6번지","category":"자동차정비 유지 - 자동차정비"}]},{"lat":"37.5289039","long":"127.22008321","items":[{"name":"하나상사","tel":"031-792-4159","addr":"경기도 하남시 천현동 463번지","category":"연료판매점 - 유류판매"}]},{"lat":"37.522601218","long":"127.22266675","items":[{"name":"하남농협 신풍지점","tel":"031-795-6754","addr":"경기도 하남시 천현동 526-8번지","category":"유통업 비영리 - 농,축협 직영매장"},{"name":"하남농협신풍지점","tel":"031-795-6754","addr":"경기도 하남시 천현동 526-8번지","category":"유통업 비영리 - 농,축협 직영매장"},{"name":"하남농협협동조합","tel":"031-795-6754","addr":"경기도 하남시 천현동 526-8번지","category":"유통업 비영리 - 농,축협 직영매장"}]},{"lat":"37.53487361","long":"127.21222595","items":[{"name":"하남상역","tel":"031-791-5909","addr":"경기도 하남시 천현동 617-14번지","category":"용역 서비스 - 종합용역"}]},{"lat":"37.535378941","long":"127.21178611","items":[{"name":"하남아이앤디","tel":"070-8150-4437","addr":"경기도 하남시 천현동 611-11번지 지하","category":"건축자재 - 인테리어전문"}]},{"lat":"37.533955359","long":"127.22174969","items":[{"name":"하우정식품","tel":"031-794-2026","addr":"경기도 하남시 천현동 53-18","category":"음료식품 - 제과점"}]},{"lat":"37.528880611","long":"127.21303506","items":[{"name":"한국머신","tel":"02-428-1921","addr":"경기도 하남시 천현동 350-5번지","category":"기타 - 기계공구"}]},{"lat":"37.52867963","long":"127.20427815","items":[{"name":"한미스텐레스산업","tel":"031-794-8550","addr":"경기도 하남시 천현동 329번지","category":"주방용구 - 주방용구"}]},{"lat":"37.533154595","long":"127.22114772","items":[{"name":"한성벤딩산업","tel":"031-793-7907","addr":"경기도 하남시 천현동 53-29번지","category":"건축자재 - 목재·석재·철물"}]},{"lat":"37.535072767","long":"127.21169475","items":[{"name":"해와달출장산후조리","tel":"031-794-1555","addr":"경기도 하남시 천현동 610-7번지 1층","category":"보건위생 - 기타대인서비스"}]},{"lat":"37.535872756","long":"127.21276051","items":[{"name":"현대할인마트","tel":"031-792-4163","addr":"경기도 하남시 천현동 612-9번지","category":"유통업 영리 - 슈퍼마켓"}]},{"lat":"37.534459058","long":"127.21228136","items":[{"name":"혼불예술작품전시장","tel":"031-791-3338","addr":"경기도 하남시 천현동 168-4번지","category":"문화.취미 - 화원"}]},{"lat":"37.532649333","long":"127.22153092","items":[{"name":"홍크린","tel":"031-795-9711","addr":"경기도 하남시 천현동 53-23번지","category":"수리서비스 - 세탁소"}]},{"lat":"37.533518064","long":"127.21450756","items":[{"name":"화돌농장(하남점)","tel":"031-796-0292","addr":"경기도 하남시 천현동 93-2번지","category":"일반휴게음식 - 일반한식"}]}]